$GNGGA,032830.200,2930.5752,N,10626.7499,E,1,06,1.7,324.8,M,,,,0000*19
$GNRMC,032830.200,A,2930.5752,N,10626.7499,E,2.55,174.77,120319,,*10
$GPGSA,A,3,03,26,31,,,,,,,,,,2.1,1.7,1.2*31
$BDGSA,A,3,02,05,10,,,,,,,,,,2.1,1.7,1.2*23
$GLGSA,A,3,,,,,,,,,,,,,2.1,1.7,1.2*28
$GPGSV,2,1,08,03,26,309,47,31,58,359,35,26,60,201,39,01,01,264,00*71
$GPGSV,2,2,08,16,27,204,00,22,39,288,00,25,16,039,00,32,53,098,00*71
$BDGSV,3,1,12,02,46,219,37,05,27,245,41,10,62,222,35,01,39,127,00*6F
$BDGSV,3,2,12,03,54,172,00,04,22,110,00,06,66,103,00,07,85,208,00*6C
$BDGSV,3,3,12,09,76,015,00,16,71,095,00,17,67,144,00,19,13,319,00*6D
$B3CN0,0,0,0,0,0,0,0,0,0,0,0,0,0,0*4C
$GNGGA,032830.300,2930.5752,N,10626.7497,E,1,06,1.7,325.0,M,,,,0000*1F
$GNRMC,032830.300,A,2930.5752,N,10626.7497,E,2.78,175.56,120319,,*12
$GPGSA,A,3,03,26,31,,,,,,,,,,2.1,1.7,1.2*31
$BDGSA,A,3,02,05,10,,,,,,,,,,2.1,1.7,1.2*23
$GLGSA,A,3,,,,,,,,,,,,,2.1,1.7,1.2*28
$GPGSV,2,1,08,03,26,309,47,31,58,359,35,26,60,201,39,01,01,264,00*71
$GPGSV,2,2,08,16,27,204,00,22,39,288,00,25,16,039,00,32,53,098,00*71
$BDGSV,3,1,12,02,46,219,37,05,27,245,41,10,62,222,35,01,39,127,00*6F
$BDGSV,3,2,12,03,54,172,00,04,22,110,00,06,66,103,00,07,85,208,00*6C
$BDGSV,3,3,12,09,76,015,00,16,71,095,00,17,67,144,00,19,13,319,00*6D
$B3CN0,0,0,0,0,0,0,0,0,0,0,0,0,0,0*4C
$GNGGA,032830.400,2930.5752,N,10626.7495,E,1,06,1.7,325.2,M,,,,0000*18
$GNRMC,032830.400,A,2930.5752,N,10626.7495,E,2.38,172.98,120319,,*16
$GPGSA,A,3,03,26,31,,,,,,,,,,2.1,1.7,1.2*31
$BDGSA,A,3,02,05,10,,,,,,,,,,2.1,1.7,1.2*23
$GLGSA,A,3,,,,,,,,,,,,,2.1,1.7,1.2*28
$GPGSV,2,1,08,03,26,309,47,31,58,359,35,26,60,201,39,01,01,264,00*71
$GPGSV,2,2,08,16,27,204,00,22,39,288,00,25,16,039,00,32,53,098,00*71
$BDGSV,3,1,12,02,46,219,37,05,27,245,41,10,62,222,35,01,39,127,00*6F
$BDGSV,3,2,12,03,54,172,00,04,22,110,00,06,66,103,00,07,85,208,00*6C
$BDGSV,3,3,12,09,76,015,00,16,71,095,00,17,67,144,00,19,13,319,00*6D
$B3CN0,0,0,0,0,0,0,0,0,0,0,0,0,0,0*4C
$GNGGA,032830.500,2930.5752,N,10626.7492,E,1,06,1.7,325.7,M,,,,0000*1B
$GNRMC,032830.500,A,2930.5752,N,10626.7492,E,2.40,166.87,120319,,*14
$GPGSA,A,3,03,26,31,,,,,,,,,,2.1,1.7,1.2*31
$BDGSA,A,3,02,05,10,,,,,,,,,,2.1,1.7,1.2*23
$GLGSA,A,3,,,,,,,,,,,,,2.1,1.7,1.2*28
$GPGSV,2,1,08,03,26,309,47,31,58,359,35,26,60,201,39,01,01,264,00*71
$GPGSV,2,2,08,16,27,204,00,22,39,288,00,25,16,039,00,32,53,098,00*71
$BDGSV,3,1,12,02,46,219,37,05,27,245,41,10,62,222,35,01,39,127,00*6F
$BDGSV,3,2,12,03,54,172,00,04,22,110,00,06,66,103,00,07,85,208,00*6C
$BDGSV,3,3,12,09,76,015,00,16,71,095,00,17,67,144,00,19,13,319,00*6D
$B3CN0,0,0,0,0,0,0,0,0,0,0,0,0,0,0*4C
$GNGGA,032830.600,2930.5751,N,10626.7491,E,1,06,1.7,325.8,M,,,,0000*17
$GNRMC,032830.600,A,2930.5751,N,10626.7491,E,1.92,166.87,120319,,*1B
$GPGSA,A,3,03,26,31,,,,,,,,,,2.1,1.7,1.2*31
$BDGSA,A,3,02,05,10,,,,,,,,,,2.1,1.7,1.2*23
$GLGSA,A,3,,,,,,,,,,,,,2.1,1.7,1.2*28
$GPGSV,2,1,08,03,26,309,47,31,58,359,35,26,60,201,39,01,01,264,00*71
$GPGSV,2,2,08,16,27,204,00,22,39,288,00,25,16,039,00,32,53,098,00*71
$BDGSV,3,1,12,02,46,219,37,05,27,245,41,10,62,222,35,01,39,127,00*6F
$BDGSV,3,2,12,03,54,172,00,04,22,110,00,06,66,103,00,07,85,208,00*6C
$BDGSV,3,3,12,09,76,015,00,16,71,095,00,17,67,144,00,19,13,319,00*6D
$B3CN0,0,0,0,0,0,0,0,0,0,0,0,0,0,0*4C
$GNGGA,032830.700,2930.5751,N,10626.7488,E,1,06,1.7,326.1,M,,,,0000*14
$GNRMC,032830.700,A,2930.5751,N,10626.7488,E,1.99,170.87,120319,,*1E
$GPGSA,A,3,03,26,31,,,,,,,,,,2.1,1.7,1.2*31
$BDGSA,A,3,02,05,10,,,,,,,,,,2.1,1.7,1.2*23
$GLGSA,A,3,,,,,,,,,,,,,2.1,1.7,1.2*28
$GPGSV,2,1,08,03,26,309,47,31,58,359,35,26,60,201,39,01,01,264,00*71
$GPGSV,2,2,08,16,27,204,00,22,39,288,00,25,16,039,00,32,53,098,00*71
$BDGSV,3,1,12,02,46,219,37,05,27,245,41,10,62,222,35,01,39,127,00*6F
$BDGSV,3,2,12,03,54,172,00,04,22,110,00,06,66,103,00,07,85,208,00*6C
$BDGSV,3,3,12,09,76,015,00,16,71,095,00,17,67,144,00,19,13,319,00*6D
$B3CN0,0,0,0,0,0,0,0,0,0,0,0,0,0,0*4C
$GNGGA,032830.800,2930.5751,N,10626.7486,E,1,06,1.7,326.3,M,,,,0000*17
$GNRMC,032830.800,A,2930.5751,N,10626.7486,E,1.63,170.87,120319,,*1A
$GPGSA,A,3,03,26,31,,,,,,,,,,2.1,1.7,1.2*31
$BDGSA,A,3,02,05,10,,,,,,,,,,2.1,1.7,1.2*23
$GLGSA,A,3,,,,,,,,,,,,,2.1,1.7,1.2*28
$GPGSV,2,1,08,03,26,309,47,31,58,359,35,26,60,201,39,01,01,264,00*71
$GPGSV,2,2,08,16,27,204,00,22,39,288,00,25,16,039,00,32,53,098,00*71
$BDGSV,3,1,12,02,46,219,37,05,27,245,41,10,62,222,35,01,39,127,00*6F
$BDGSV,3,2,12,03,54,172,00,04,22,110,00,06,66,103,00,07,85,208,00*6C
$BDGSV,3,3,12,09,76,015,00,16,71,095,00,17,67,144,00,19,13,319,00*6D
$B3CN0,0,0,0,0,0,0,0,0,0,0,0,0,0,0*4C
$GNGGA,032830.900,2930.5751,N,10626.7485,E,1,06,1.7,326.4,M,,,,0000*12
$GNRMC,032830.900,A,2930.5751,N,10626.7485,E,0.95,170.87,120319,,*10
$GPGSA,A,3,03,26,31,,,,,,,,,,2.1,1.7,1.2*31
$BDGSA,A,3,02,05,10,,,,,,,,,,2.1,1.7,1.2*23
$GLGSA,A,3,,,,,,,,,,,,,2.1,1.7,1.2*28
$GPGSV,2,1,08,03,26,309,47,31,58,359,35,26,60,201,39,01,01,264,00*71
$GPGSV,2,2,08,16,27,204,00,22,39,288,00,25,16,039,00,32,53,098,00*71
$BDGSV,3,1,12,02,46,219,36,05,27,245,42,10,62,222,34,01,39,127,00*6C
$BDGSV,3,2,12,03,54,172,00,04,22,110,00,06,66,103,00,07,85,208,00*6C
$BDGSV,3,3,12,09,76,015,00,16,71,095,00,17,67,144,00,19,13,319,00*6D
$B3CN0,0,0,0,0,0,0,0,0,0,0,0,0,0,0*4C
$GNGGA,032831.000,2930.5751,N,10626.7486,E,1,06,1.7,326.0,M,,,,0000*1D
$GNRMC,032831.000,A,2930.5751,N,10626.7486,E,1.55,170.87,120319,,*16
$GPGSA,A,3,03,26,31,,,,,,,,,,2.1,1.7,1.2*31
$BDGSA,A,3,02,05,10,,,,,,,,,,2.1,1.7,1.2*23
$GLGSA,A,3,,,,,,,,,,,,,2.1,1.7,1.2*28
$GPGSV,2,1,08,03,26,309,47,31,58,359,35,26,60,201,39,01,01,264,00*71
$GPGSV,2,2,08,16,27,204,00,22,39,288,00,25,16,039,00,32,53,098,00*71
$BDGSV,3,1,12,02,46,219,36,05,27,245,42,10,62,222,34,01,39,127,00*6C
$BDGSV,3,2,12,03,54,172,00,04,22,110,00,06,66,103,00,07,85,208,00*6C
$BDGSV,3,3,12,09,76,015,00,16,71,095,00,17,67,144,00,19,13,319,00*6D
$B3CN0,0,0,0,0,0,0,0,0,0,0,0,0,0,0*4C
$GNGGA,032831.100,2930.5751,N,10626.7486,E,1,06,1.7,326.0,M,,,,0000*1C
$GNRMC,032831.100,A,2930.5751,N,10626.7486,E,2.13,354.16,120319,,*1A
$GPGSA,A,3,03,26,31,,,,,,,,,,2.1,1.7,1.2*31
$BDGSA,A,3,02,05,10,,,,,,,,,,2.1,1.7,1.2*23
$GLGSA,A,3,,,,,,,,,,,,,2.1,1.7,1.2*28
$GPGSV,2,1,08,03,26,309,47,31,58,359,35,26,60,201,39,01,01,264,00*71
$GPGSV,2,2,08,16,27,204,00,22,39,288,00,25,16,039,00,32,53,098,00*71
$BDGSV,3,1,12,02,46,219,36,05,27,245,42,10,62,222,34,01,39,127,00*6C
$BDGSV,3,2,12,03,54,172,00,04,22,110,00,06,66,103,00,07,85,208,00*6C
$BDGSV,3,3,12,09,76,015,00,16,71,095,00,17,67,144,00,19,13,319,00*6D
$B3CN0,0,0,0,0,0,0,0,0,0,0,0,0,0,0*4C
$GNGGA,032831.200,2930.5751,N,10626.7485,E,1,06,1.7,326.1,M,,,,0000*1D
$GNRMC,032831.200,A,2930.5751,N,10626.7485,E,2.51,348.66,120319,,*16
$GPGSA,A,3,03,26,31,,,,,,,,,,2.1,1.7,1.2*31
$BDGSA,A,3,02,05,10,,,,,,,,,,2.1,1.7,1.2*23
$GLGSA,A,3,,,,,,,,,,,,,2.1,1.7,1.2*28
$GPGSV,2,1,08,03,26,309,47,31,58,359,35,26,60,201,39,01,01,264,00*71
$GPGSV,2,2,08,16,27,204,00,22,39,288,00,25,16,039,00,32,53,098,00*71
$BDGSV,3,1,12,02,46,219,36,05,27,245,42,10,62,222,34,01,39,127,00*6C
$BDGSV,3,2,12,03,54,172,00,04,22,110,00,06,66,103,00,07,85,208,00*6C
$BDGSV,3,3,12,09,76,015,00,16,71,095,00,17,67,144,00,19,13,319,00*6D
$B3CN0,0,0,0,0,0,0,0,0,0,0,0,0,0,0*4C
$GNGGA,032831.300,2930.5751,N,10626.7484,E,1,06,1.7,326.3,M,,,,0000*1F
$GNRMC,032831.300,A,2930.5751,N,10626.7484,E,2.33,353.47,120319,,*1B
$GPGSA,A,3,03,26,31,,,,,,,,,,2.1,1.7,1.2*31
$BDGSA,A,3,02,05,10,,,,,,,,,,2.1,1.7,1.2*23
$GLGSA,A,3,,,,,,,,,,,,,2.1,1.7,1.2*28
$GPGSV,2,1,08,03,26,309,47,31,58,359,35,26,60,201,39,01,01,264,00*71
$GPGSV,2,2,08,16,27,204,00,22,39,288,00,25,16,039,00,32,53,098,00*71
$BDGSV,3,1,12,02,46,219,36,05,27,245,42,10,62,222,34,01,39,127,00*6C
$BDGSV,3,2,12,03,54,172,00,04,22,110,00,06,66,103,00,07,85,208,00*6C
$BDGSV,3,3,12,09,76,015,00,16,71,095,00,17,67,144,00,19,13,319,00*6D
$B3CN0,0,0,0,0,0,0,0,0,0,0,0,0,0,0*4C
$GNGGA,032831.400,2930.5750,N,10626.7483,E,1,06,1.7,326.3,M,,,,0000*1E
$GNRMC,032831.400,A,2930.5750,N,10626.7483,E,2.14,348.42,120319,,*10
$GPGSA,A,3,03,26,31,,,,,,,,,,2.1,1.7,1.2*31
$BDGSA,A,3,02,05,10,,,,,,,,,,2.1,1.7,1.2*23
$GLGSA,A,3,,,,,,,,,,,,,2.1,1.7,1.2*28
$GPGSV,2,1,08,03,26,309,47,31,58,359,35,26,60,201,39,01,01,264,00*71
$GPGSV,2,2,08,16,27,204,00,22,39,288,00,25,16,039,00,32,53,098,00*71
$BDGSV,3,1,12,02,46,219,36,05,27,245,42,10,62,222,34,01,39,127,00*6C
$BDGSV,3,2,12,03,54,172,00,04,22,110,00,06,66,103,00,07,85,208,00*6C
$BDGSV,3,3,12,09,76,015,00,16,71,095,00,17,67,144,00,19,13,319,00*6D
$B3CN0,0,0,0,0,0,0,0,0,0,0,0,0,0,0*4C
$GNGGA,032831.500,2930.5750,N,10626.7483,E,1,06,1.7,326.2,M,,,,0000*1E
$GNRMC,032831.500,A,2930.5750,N,10626.7483,E,1.48,348.42,120319,,*1B
$GPGSA,A,3,03,26,31,,,,,,,,,,2.1,1.7,1.2*31
$BDGSA,A,3,02,05,10,,,,,,,,,,2.1,1.7,1.2*23
$GLGSA,A,3,,,,,,,,,,,,,2.1,1.7,1.2*28
$GPGSV,2,1,08,03,26,309,47,31,58,359,35,26,60,201,39,01,01,264,00*71
$GPGSV,2,2,08,16,27,204,00,22,39,288,00,25,16,039,00,32,53,098,00*71
$BDGSV,3,1,12,02,46,219,36,05,27,245,42,10,62,222,34,01,39,127,00*6C
$BDGSV,3,2,12,03,54,172,00,04,22,110,00,06,66,103,00,07,85,208,00*6C
$BDGSV,3,3,12,09,76,015,00,16,71,095,00,17,67,144,00,19,13,319,00*6D
$B3CN0,0,0,0,0,0,0,0,0,0,0,0,0,0,0*4C
$GNGGA,032831.600,2930.5750,N,10626.7482,E,1,06,1.7,326.2,M,,,,0000*1C
$GNRMC,032831.600,A,2930.5750,N,10626.7482,E,0.50,348.42,120319,,*11
$GPGSA,A,3,03,26,31,,,,,,,,,,2.1,1.7,1.2*31
$BDGSA,A,3,02,05,10,,,,,,,,,,2.1,1.7,1.2*23
$GLGSA,A,3,,,,,,,,,,,,,2.1,1.7,1.2*28
$GPGSV,2,1,08,03,26,309,47,31,58,359,35,26,60,201,39,01,01,264,00*71
$GPGSV,2,2,08,16,27,204,00,22,39,288,00,25,16,039,00,32,53,098,00*71
$BDGSV,3,1,12,02,46,219,36,05,27,245,42,10,62,222,34,01,39,127,00*6C
$BDGSV,3,2,12,03,54,172,00,04,22,110,00,06,66,103,00,07,85,208,00*6C
$BDGSV,3,3,12,09,76,015,00,16,71,095,00,17,67,144,00,19,13,319,00*6D
$B3CN0,0,0,0,0,0,0,0,0,0,0,0,0,0,0*4C
$GNGGA,032831.700,2930.5750,N,10626.7481,E,1,06,1.7,326.3,M,,,,0000*1F
$GNRMC,032831.700,A,2930.5750,N,10626.7481,E,0.57,348.42,120319,,*14
$GPGSA,A,3,03,26,31,,,,,,,,,,2.1,1.7,1.2*31
$BDGSA,A,3,02,05,10,,,,,,,,,,2.1,1.7,1.2*23
$GLGSA,A,3,,,,,,,,,,,,,2.1,1.7,1.2*28
$GPGSV,2,1,08,03,26,309,47,31,58,359,35,26,60,201,39,01,01,264,00*71
$GPGSV,2,2,08,16,27,204,00,22,39,288,00,25,16,039,00,32,53,098,00*71
$BDGSV,3,1,12,02,46,219,36,05,27,245,42,10,62,222,34,01,39,127,00*6C
$BDGSV,3,2,12,03,54,172,00,04,22,110,00,06,66,103,00,07,85,208,00*6C
$BDGSV,3,3,12,09,76,015,00,16,71,095,00,17,67,144,00,19,13,319,00*6D
$B3CN0,0,0,0,0,0,0,0,0,0,0,0,0,0,0*4C
$GNGGA,032831.800,2930.5750,N,10626.7480,E,1,06,1.7,326.5,M,,,,0000*17
$GNRMC,032831.800,A,2930.5750,N,10626.7480,E,0.99,348.42,120319,,*18
$GPGSA,A,3,03,26,31,,,,,,,,,,2.1,1.7,1.2*31
$BDGSA,A,3,02,05,10,,,,,,,,,,2.1,1.7,1.2*23
$GLGSA,A,3,,,,,,,,,,,,,2.1,1.7,1.2*28
$GPGSV,2,1,08,03,26,309,47,31,58,359,35,26,60,201,39,01,01,264,00*71
$GPGSV,2,2,08,16,27,204,00,22,39,288,00,25,16,039,00,32,53,098,00*71
$BDGSV,3,1,12,02,46,219,36,05,27,245,42,10,62,222,34,01,39,127,00*6C
$BDGSV,3,2,12,03,54,172,00,04,22,110,00,06,66,103,00,07,85,208,00*6C
$BDGSV,3,3,12,09,76,015,00,16,71,095,00,17,67,144,00,19,13,319,00*6D
$B3CN0,0,0,0,0,0,0,0,0,0,0,0,0,0,0*4C
$GNGGA,032831.900,2930.5750,N,10626.7479,E,1,06,1.7,326.6,M,,,,0000*13
$GNRMC,032831.900,A,2930.5750,N,10626.7479,E,1.54,348.42,120319,,*1F
$GPGSA,A,3,03,26,31,,,,,,,,,,2.1,1.7,1.2*31
$BDGSA,A,3,02,05,10,,,,,,,,,,2.1,1.7,1.2*23
$GLGSA,A,3,,,,,,,,,,,,,2.1,1.7,1.2*28
$GPGSV,2,1,08,03,27,309,47,31,58,000,34,26,60,201,38,01,01,264,00*7F
$GPGSV,2,2,08,16,27,204,00,22,39,288,00,25,16,039,00,32,53,098,00*71
$BDGSV,3,1,12,02,46,219,35,05,27,245,41,10,62,222,34,01,39,127,00*6C
$BDGSV,3,2,12,03,54,172,00,04,22,110,00,06,66,103,00,07,85,208,00*6C
$BDGSV,3,3,12,09,76,015,00,16,71,095,00,17,67,144,00,19,13,319,00*6D
$B3CN0,0,0,0,0,0,0,0,0,0,0,0,0,0,0*4C
$GNGGA,032832.000,2930.5750,N,10626.7478,E,1,06,1.7,326.6,M,,,,0000*18
$GNRMC,032832.000,A,2930.5750,N,10626.7478,E,1.76,348.42,120319,,*14
$GPGSA,A,3,03,26,31,,,,,,,,,,2.1,1.7,1.2*31
$BDGSA,A,3,02,05,10,,,,,,,,,,2.1,1.7,1.2*23
$GLGSA,A,3,,,,,,,,,,,,,2.1,1.7,1.2*28
$GPGSV,2,1,08,03,27,309,47,31,58,000,34,26,60,201,38,01,01,264,00*7F
$GPGSV,2,2,08,16,27,204,00,22,39,288,00,25,16,039,00,32,53,098,00*71
$BDGSV,3,1,12,02,46,219,35,05,27,245,41,10,62,222,34,01,39,127,00*6C
$BDGSV,3,2,12,03,54,172,00,04,22,110,00,06,66,103,00,07,85,208,00*6C
$BDGSV,3,3,12,09,76,015,00,16,71,095,00,17,67,144,00,19,13,319,00*6D
$B3CN0,0,0,0,0,0,0,0,0,0,0,0,0,0,0*4C
$GNGGA,032832.100,2930.5751,N,10626.7477,E,1,06,1.7,326.6,M,,,,0000*17
$GNRMC,032832.100,A,2930.5751,N,10626.7477,E,1.99,349.37,120319,,*19
$GPGSA,A,3,03,26,31,,,,,,,,,,2.1,1.7,1.2*31
$BDGSA,A,3,02,05,10,,,,,,,,,,2.1,1.7,1.2*23
$GLGSA,A,3,,,,,,,,,,,,,2.1,1.7,1.2*28
$GPGSV,2,1,08,03,27,309,47,31,58,000,34,26,60,201,38,01,01,264,00*7F
$GPGSV,2,2,08,16,27,204,00,22,39,288,00,25,16,039,00,32,53,098,00*71
$BDGSV,3,1,12,02,46,219,35,05,27,245,41,10,62,222,34,01,39,127,00*6C
$BDGSV,3,2,12,03,54,172,00,04,22,110,00,06,66,103,00,07,85,208,00*6C
$BDGSV,3,3,12,09,76,015,00,16,71,095,00,17,67,144,00,19,13,319,00*6D
$B3CN0,0,0,0,0,0,0,0,0,0,0,0,0,0,0*4C
$GNGGA,032832.200,2930.5751,N,10626.7476,E,1,06,1.7,326.8,M,,,,0000*1B
$GNRMC,032832.200,A,2930.5751,N,10626.7476,E,1.98,349.33,120319,,*1E
$GPGSA,A,3,03,26,31,,,,,,,,,,2.1,1.7,1.2*31
$BDGSA,A,3,02,05,10,,,,,,,,,,2.1,1.7,1.2*23
$GLGSA,A,3,,,,,,,,,,,,,2.1,1.7,1.2*28
$GPGSV,2,1,08,03,27,309,47,31,58,000,34,26,60,201,38,01,01,264,00*7F
$GPGSV,2,2,08,16,27,204,00,22,39,288,00,25,16,039,00,32,53,098,00*71
$BDGSV,3,1,12,02,46,219,35,05,27,245,41,10,62,222,34,01,39,127,00*6C
$BDGSV,3,2,12,03,54,172,00,04,22,110,00,06,66,103,00,07,85,208,00*6C
$BDGSV,3,3,12,09,76,015,00,16,71,095,00,17,67,144,00,19,13,319,00*6D
$B3CN0,0,0,0,0,0,0,0,0,0,0,0,0,0,0*4C
$GNGGA,032832.300,2930.5751,N,10626.7475,E,1,06,1.7,326.9,M,,,,0000*18
$GNRMC,032832.300,A,2930.5751,N,10626.7475,E,2.07,347.07,120319,,*10
$GPGSA,A,3,03,26,31,,,,,,,,,,2.1,1.7,1.2*31
$BDGSA,A,3,02,05,10,,,,,,,,,,2.1,1.7,1.2*23
$GLGSA,A,3,,,,,,,,,,,,,2.1,1.7,1.2*28
$GPGSV,2,1,08,03,27,309,47,31,58,000,34,26,60,201,38,01,01,264,00*7F
$GPGSV,2,2,08,16,27,204,00,22,39,288,00,25,16,039,00,32,53,098,00*71
$BDGSV,3,1,12,02,46,219,35,05,27,245,41,10,62,222,34,01,39,127,00*6C
$BDGSV,3,2,12,03,54,172,00,04,22,110,00,06,66,103,00,07,85,208,00*6C
$BDGSV,3,3,12,09,76,015,00,16,71,095,00,17,67,144,00,19,13,319,00*6D
$B3CN0,0,0,0,0,0,0,0,0,0,0,0,0,0,0*4C
$GNGGA,032832.400,2930.5751,N,10626.7474,E,1,06,1.7,326.9,M,,,,0000*1E
$GNRMC,032832.400,A,2930.5751,N,10626.7474,E,2.60,346.81,120319,,*18
$GPGSA,A,3,03,26,31,,,,,,,,,,2.1,1.7,1.2*31
$BDGSA,A,3,02,05,10,,,,,,,,,,2.1,1.7,1.2*23
$GLGSA,A,3,,,,,,,,,,,,,2.1,1.7,1.2*28
$GPGSV,2,1,08,03,27,309,47,31,58,000,34,26,60,201,38,01,01,264,00*7F
$GPGSV,2,2,08,16,27,204,00,22,39,288,00,25,16,039,00,32,53,098,00*71
$BDGSV,3,1,12,02,46,219,35,05,27,245,41,10,62,222,34,01,39,127,00*6C
$BDGSV,3,2,12,03,54,172,00,04,22,110,00,06,66,103,00,07,85,208,00*6C
$BDGSV,3,3,12,09,76,015,00,16,71,095,00,17,67,144,00,19,13,319,00*6D
$B3CN0,0,0,0,0,0,0,0,0,0,0,0,0,0,0*4C
$GNGGA,032832.500,2930.5752,N,10626.7472,E,1,06,1.7,327.1,M,,,,0000*13
$GNRMC,032832.500,A,2930.5752,N,10626.7472,E,3.11,346.52,120319,,*15
$GPGSA,A,3,03,26,31,,,,,,,,,,2.1,1.7,1.2*31
$BDGSA,A,3,02,05,10,,,,,,,,,,2.1,1.7,1.2*23
$GLGSA,A,3,,,,,,,,,,,,,2.1,1.7,1.2*28
$GPGSV,2,1,08,03,27,309,47,31,58,000,34,26,60,201,38,01,01,264,00*7F
$GPGSV,2,2,08,16,27,204,00,22,39,288,00,25,16,039,00,32,53,098,00*71
$BDGSV,3,1,12,02,46,219,35,05,27,245,41,10,62,222,34,01,39,127,00*6C
$BDGSV,3,2,12,03,54,172,00,04,22,110,00,06,66,103,00,07,85,208,00*6C
$BDGSV,3,3,12,09,76,015,00,16,71,095,00,17,67,144,00,19,13,319,00*6D
$B3CN0,0,0,0,0,0,0,0,0,0,0,0,0,0,0*4C
$GNGGA,032832.600,2930.5752,N,10626.7472,E,1,06,1.7,327.1,M,,,,0000*10
$GNRMC,032832.600,A,2930.5752,N,10626.7472,E,3.27,348.46,120319,,*18
$GPGSA,A,3,03,26,31,,,,,,,,,,2.1,1.7,1.2*31
$BDGSA,A,3,02,05,10,,,,,,,,,,2.1,1.7,1.2*23
$GLGSA,A,3,,,,,,,,,,,,,2.1,1.7,1.2*28
$GPGSV,2,1,08,03,27,309,47,31,58,000,34,26,60,201,38,01,01,264,00*7F
$GPGSV,2,2,08,16,27,204,00,22,39,288,00,25,16,039,00,32,53,098,00*71
$BDGSV,3,1,12,02,46,219,35,05,27,245,41,10,62,222,34,01,39,127,00*6C
$BDGSV,3,2,12,03,54,172,00,04,22,110,00,06,66,103,00,07,85,208,00*6C
$BDGSV,3,3,12,09,76,015,00,16,71,095,00,17,67,144,00,19,13,319,00*6D
$B3CN0,0,0,0,0,0,0,0,0,0,0,0,0,0,0*4C
$GNGGA,032832.700,2930.5752,N,10626.7471,E,1,06,1.7,327.2,M,,,,0000*11
$GNRMC,032832.700,A,2930.5752,N,10626.7471,E,3.68,355.09,120319,,*16
$GPGSA,A,3,03,26,31,,,,,,,,,,2.1,1.7,1.2*31
$BDGSA,A,3,02,05,10,,,,,,,,,,2.1,1.7,1.2*23
$GLGSA,A,3,,,,,,,,,,,,,2.1,1.7,1.2*28
$GPGSV,2,1,08,03,27,309,47,31,58,000,34,26,60,201,38,01,01,264,00*7F
$GPGSV,2,2,08,16,27,204,00,22,39,288,00,25,16,039,00,32,53,098,00*71
$BDGSV,3,1,12,02,46,219,35,05,27,245,41,10,62,222,34,01,39,127,00*6C
$BDGSV,3,2,12,03,54,172,00,04,22,110,00,06,66,103,00,07,85,208,00*6C
$BDGSV,3,3,12,09,76,015,00,16,71,095,00,17,67,144,00,19,13,319,00*6D
$B3CN0,0,0,0,0,0,0,0,0,0,0,0,0,0,0*4C
$GNGGA,032832.800,2930.5752,N,10626.7471,E,1,06,1.7,327.2,M,,,,0000*1E
$GNRMC,032832.800,A,2930.5752,N,10626.7471,E,3.48,351.99,120319,,*16
$GPGSA,A,3,03,26,31,,,,,,,,,,2.1,1.7,1.2*31
$BDGSA,A,3,02,05,10,,,,,,,,,,2.1,1.7,1.2*23
$GLGSA,A,3,,,,,,,,,,,,,2.1,1.7,1.2*28
$GPGSV,2,1,08,03,27,309,47,31,58,000,34,26,60,201,38,01,01,264,00*7F
$GPGSV,2,2,08,16,27,204,00,22,39,288,00,25,16,039,00,32,53,098,00*71
$BDGSV,3,1,12,02,46,219,35,05,27,245,41,10,62,222,34,01,39,127,00*6C
$BDGSV,3,2,12,03,54,172,00,04,22,110,00,06,66,103,00,07,85,208,00*6C
$BDGSV,3,3,12,09,76,015,00,16,71,095,00,17,67,144,00,19,13,319,00*6D
$B3CN0,0,0,0,0,0,0,0,0,0,0,0,0,0,0*4C
$GNGGA,032832.900,2930.5752,N,10626.7470,E,1,06,1.7,327.4,M,,,,0000*18
$GNRMC,032832.900,A,2930.5752,N,10626.7470,E,3.15,352.83,120319,,*16
$GPGSA,A,3,03,26,31,,,,,,,,,,2.1,1.7,1.2*31
$BDGSA,A,3,02,05,10,,,,,,,,,,2.1,1.7,1.2*23
$GLGSA,A,3,,,,,,,,,,,,,2.1,1.7,1.2*28
$GPGSV,2,1,08,03,27,309,47,31,58,000,35,26,60,201,38,01,01,264,00*7E
$GPGSV,2,2,08,16,27,204,00,22,39,288,00,25,16,039,00,32,53,098,00*71
$BDGSV,3,1,12,02,46,219,35,05,27,245,41,10,62,222,34,01,39,127,00*6C
$BDGSV,3,2,12,03,54,172,00,04,22,110,00,06,66,103,00,07,85,208,00*6C
$BDGSV,3,3,12,09,76,015,00,16,71,095,00,17,67,144,00,19,13,319,00*6D
$B3CN0,0,0,0,0,0,0,0,0,0,0,0,0,0,0*4C
$GNGGA,032833.000,2930.5752,N,10626.7469,E,1,06,1.7,327.5,M,,,,0000*19
$GNRMC,032833.000,A,2930.5752,N,10626.7469,E,2.53,348.50,120319,,*10
$GPGSA,A,3,03,26,31,,,,,,,,,,2.1,1.7,1.2*31
$BDGSA,A,3,02,05,10,,,,,,,,,,2.1,1.7,1.2*23
$GLGSA,A,3,,,,,,,,,,,,,2.1,1.7,1.2*28
$GPGSV,2,1,08,03,27,309,47,31,58,000,35,26,60,201,38,01,01,264,00*7E
$GPGSV,2,2,08,16,27,204,00,22,39,288,00,25,16,039,00,32,53,098,00*71
$BDGSV,3,1,12,02,46,219,35,05,27,245,41,10,62,222,34,01,39,127,00*6C
$BDGSV,3,2,12,03,54,172,00,04,22,110,00,06,66,103,00,07,85,208,00*6C
$BDGSV,3,3,12,09,76,015,00,16,71,095,00,17,67,144,00,19,13,319,00*6D
$B3CN0,0,0,0,0,0,0,0,0,0,0,0,0,0,0*4C
$GNGGA,032833.100,2930.5752,N,10626.7469,E,1,06,1.7,327.6,M,,,,0000*1B
$GNRMC,032833.100,A,2930.5752,N,10626.7469,E,2.57,353.45,120319,,*1B
$GPGSA,A,3,03,26,31,,,,,,,,,,2.1,1.7,1.2*31
$BDGSA,A,3,02,05,10,,,,,,,,,,2.1,1.7,1.2*23
$GLGSA,A,3,,,,,,,,,,,,,2.1,1.7,1.2*28
$GPGSV,2,1,08,03,27,309,47,31,58,000,35,26,60,201,38,01,01,264,00*7E
$GPGSV,2,2,08,16,27,204,00,22,39,288,00,25,16,039,00,32,53,098,00*71
$BDGSV,3,1,12,02,46,219,35,05,27,245,41,10,62,222,34,01,39,127,00*6C
$BDGSV,3,2,12,03,54,172,00,04,22,110,00,06,66,103,00,07,85,208,00*6C
$BDGSV,3,3,12,09,76,015,00,16,71,095,00,17,67,144,00,19,13,319,00*6D
$B3CN0,0,0,0,0,0,0,0,0,0,0,0,0,0,0*4C
$GNGGA,032833.200,2930.5752,N,10626.7469,E,1,06,1.7,327.7,M,,,,0000*19
$GNRMC,032833.200,A,2930.5752,N,10626.7469,E,2.71,348.51,120319,,*13
$GPGSA,A,3,03,26,31,,,,,,,,,,2.1,1.7,1.2*31
$BDGSA,A,3,02,05,10,,,,,,,,,,2.1,1.7,1.2*23
$GLGSA,A,3,,,,,,,,,,,,,2.1,1.7,1.2*28
$GPGSV,2,1,08,03,27,309,47,31,58,000,35,26,60,201,38,01,01,264,00*7E
$GPGSV,2,2,08,16,27,204,00,22,39,288,00,25,16,039,00,32,53,098,00*71
$BDGSV,3,1,12,02,46,219,35,05,27,245,41,10,62,222,34,01,39,127,00*6C
$BDGSV,3,2,12,03,54,172,00,04,22,110,00,06,66,103,00,07,85,208,00*6C
$BDGSV,3,3,12,09,76,015,00,16,71,095,00,17,67,144,00,19,13,319,00*6D
$B3CN0,0,0,0,0,0,0,0,0,0,0,0,0,0,0*4C
$GNGGA,032833.300,2930.5752,N,10626.7468,E,1,06,1.7,327.7,M,,,,0000*19
$GNRMC,032833.300,A,2930.5752,N,10626.7468,E,2.94,349.69,120319,,*12
$GPGSA,A,3,03,26,31,,,,,,,,,,2.1,1.7,1.2*31
$BDGSA,A,3,02,05,10,,,,,,,,,,2.1,1.7,1.2*23
$GLGSA,A,3,,,,,,,,,,,,,2.1,1.7,1.2*28
$GPGSV,2,1,08,03,27,309,47,31,58,000,35,26,60,201,38,01,01,264,00*7E
$GPGSV,2,2,08,16,27,204,00,22,39,288,00,25,16,039,00,32,53,098,00*71
$BDGSV,3,1,12,02,46,219,35,05,27,245,41,10,62,222,34,01,39,127,00*6C
$BDGSV,3,2,12,03,54,172,00,04,22,110,00,06,66,103,00,07,85,208,00*6C
$BDGSV,3,3,12,09,76,015,00,16,71,095,00,17,67,144,00,19,13,319,00*6D
$B3CN0,0,0,0,0,0,0,0,0,0,0,0,0,0,0*4C
$GNGGA,032833.400,2930.5752,N,10626.7467,E,1,06,1.7,328.0,M,,,,0000*19
$GNRMC,032833.400,A,2930.5752,N,10626.7467,E,3.09,350.83,120319,,*13
$GPGSA,A,3,03,26,31,,,,,,,,,,2.1,1.7,1.2*31
$BDGSA,A,3,02,05,10,,,,,,,,,,2.1,1.7,1.2*23
$GLGSA,A,3,,,,,,,,,,,,,2.1,1.7,1.2*28
$GPGSV,2,1,08,03,27,309,47,31,58,000,35,26,60,201,38,01,01,264,00*7E
$GPGSV,2,2,08,16,27,204,00,22,39,288,00,25,16,039,00,32,53,098,00*71
$BDGSV,3,1,12,02,46,219,35,05,27,245,41,10,62,222,34,01,39,127,00*6C
$BDGSV,3,2,12,03,54,172,00,04,22,110,00,06,66,103,00,07,85,208,00*6C
$BDGSV,3,3,12,09,76,015,00,16,71,095,00,17,67,144,00,19,13,319,00*6D
$B3CN0,0,0,0,0,0,0,0,0,0,0,0,0,0,0*4C
$GNGGA,032833.500,2930.5752,N,10626.7467,E,1,06,1.7,328.0,M,,,,0000*18
$GNRMC,032833.500,A,2930.5752,N,10626.7467,E,2.88,352.83,120319,,*18
$GPGSA,A,3,03,26,31,,,,,,,,,,2.1,1.7,1.2*31
$BDGSA,A,3,02,05,10,,,,,,,,,,2.1,1.7,1.2*23
$GLGSA,A,3,,,,,,,,,,,,,2.1,1.7,1.2*28
$GPGSV,2,1,08,03,27,309,47,31,58,000,35,26,60,201,38,01,01,264,00*7E
$GPGSV,2,2,08,16,27,204,00,22,39,288,00,25,16,039,00,32,53,098,00*71
$BDGSV,3,1,12,02,46,219,35,05,27,245,41,10,62,222,34,01,39,127,00*6C
$BDGSV,3,2,12,03,54,172,00,04,22,110,00,06,66,103,00,07,85,208,00*6C
$BDGSV,3,3,12,09,76,015,00,16,71,095,00,17,67,144,00,19,13,319,00*6D
$B3CN0,0,0,0,0,0,0,0,0,0,0,0,0,0,0*4C
$GNGGA,032833.600,2930.5751,N,10626.7467,E,1,06,1.7,328.0,M,,,,0000*18
$GNRMC,032833.600,A,2930.5751,N,10626.7467,E,1.91,352.83,120319,,*13
$GPGSA,A,3,03,26,31,,,,,,,,,,2.1,1.7,1.2*31
$BDGSA,A,3,02,05,10,,,,,,,,,,2.1,1.7,1.2*23
$GLGSA,A,3,,,,,,,,,,,,,2.1,1.7,1.2*28
$GPGSV,2,1,08,03,27,309,47,31,58,000,35,26,60,201,38,01,01,264,00*7E
$GPGSV,2,2,08,16,27,204,00,22,39,288,00,25,16,039,00,32,53,098,00*71
$BDGSV,3,1,12,02,46,219,35,05,27,245,41,10,62,222,34,01,39,127,00*6C
$BDGSV,3,2,12,03,54,172,00,04,22,110,00,06,66,103,00,07,85,208,00*6C
$BDGSV,3,3,12,09,76,015,00,16,71,095,00,17,67,144,00,19,13,319,00*6D
$B3CN0,0,0,0,0,0,0,0,0,0,0,0,0,0,0*4C
$GNGGA,032833.700,2930.5751,N,10626.7468,E,1,06,1.7,327.8,M,,,,0000*11
$GNRMC,032833.700,A,2930.5751,N,10626.7468,E,0.96,352.83,120319,,*1B
$GPGSA,A,3,03,26,31,,,,,,,,,,2.1,1.7,1.2*31
$BDGSA,A,3,02,05,10,,,,,,,,,,2.1,1.7,1.2*23
$GLGSA,A,3,,,,,,,,,,,,,2.1,1.7,1.2*28
$GPGSV,2,1,08,03,27,309,47,31,58,000,35,26,60,201,38,01,01,264,00*7E
$GPGSV,2,2,08,16,27,204,00,22,39,288,00,25,16,039,00,32,53,098,00*71
$BDGSV,3,1,12,02,46,219,35,05,27,245,41,10,62,222,34,01,39,127,00*6C
$BDGSV,3,2,12,03,54,172,00,04,22,110,00,06,66,103,00,07,85,208,00*6C
$BDGSV,3,3,12,09,76,015,00,16,71,095,00,17,67,144,00,19,13,319,00*6D
$B3CN0,0,0,0,0,0,0,0,0,0,0,0,0,0,0*4C
$GNGGA,032833.800,2930.5750,N,10626.7468,E,1,06,1.7,327.6,M,,,,0000*11
$GNRMC,032833.800,A,2930.5750,N,10626.7468,E,0.20,352.83,120319,,*18
$GPGSA,A,3,03,26,31,,,,,,,,,,2.1,1.7,1.2*31
$BDGSA,A,3,02,05,10,,,,,,,,,,2.1,1.7,1.2*23
$GLGSA,A,3,,,,,,,,,,,,,2.1,1.7,1.2*28
$GPGSV,2,1,08,03,27,309,47,31,58,000,35,26,60,201,38,01,01,264,00*7E
$GPGSV,2,2,08,16,27,204,00,22,39,288,00,25,16,039,00,32,53,098,00*71
$BDGSV,3,1,12,02,46,219,35,05,27,245,41,10,62,222,34,01,39,127,00*6C
$BDGSV,3,2,12,03,54,172,00,04,22,110,00,06,66,103,00,07,85,208,00*6C
$BDGSV,3,3,12,09,76,015,00,16,71,095,00,17,67,144,00,19,13,319,00*6D
$B3CN0,0,0,0,0,0,0,0,0,0,0,0,0,0,0*4C
$GNGGA,032833.900,2930.5750,N,10626.7468,E,1,06,1.7,327.5,M,,,,0000*13
$GNRMC,032833.900,A,2930.5750,N,10626.7468,E,0.54,352.83,120319,,*1A
$GPGSA,A,3,03,26,31,,,,,,,,,,2.1,1.7,1.2*31
$BDGSA,A,3,02,05,10,,,,,,,,,,2.1,1.7,1.2*23
$GLGSA,A,3,,,,,,,,,,,,,2.1,1.7,1.2*28
$GPGSV,2,1,08,03,27,309,47,31,58,000,35,26,60,201,37,01,01,264,00*71
$GPGSV,2,2,08,16,27,204,00,22,39,288,00,25,16,039,00,32,53,098,00*71
$BDGSV,3,1,12,02,46,219,35,05,27,245,41,10,62,222,35,01,39,127,00*6D
$BDGSV,3,2,12,03,54,172,00,04,22,110,00,06,66,103,00,07,85,208,00*6C
$BDGSV,3,3,12,09,76,015,00,16,71,095,00,17,67,144,00,19,13,319,00*6D
$B3CN0,0,0,0,0,0,0,0,0,0,0,0,0,0,0*4C
$GNGGA,032834.000,2930.5750,N,10626.7468,E,1,06,1.7,327.5,M,,,,0000*1D
$GNRMC,032834.000,A,2930.5750,N,10626.7468,E,1.02,352.83,120319,,*16
$GPGSA,A,3,03,26,31,,,,,,,,,,2.1,1.7,1.2*31
$BDGSA,A,3,02,05,10,,,,,,,,,,2.1,1.7,1.2*23
$GLGSA,A,3,,,,,,,,,,,,,2.1,1.7,1.2*28
$GPGSV,2,1,08,03,27,309,47,31,58,000,35,26,60,201,37,01,01,264,00*71
$GPGSV,2,2,08,16,27,204,00,22,39,288,00,25,16,039,00,32,53,098,00*71
$BDGSV,3,1,12,02,46,219,35,05,27,245,41,10,62,222,35,01,39,127,00*6D
$BDGSV,3,2,12,03,54,172,00,04,22,110,00,06,66,103,00,07,85,208,00*6C
$BDGSV,3,3,12,09,76,015,00,16,71,095,00,17,67,144,00,19,13,319,00*6D
$B3CN0,0,0,0,0,0,0,0,0,0,0,0,0,0,0*4C
$GNGGA,032834.100,2930.5749,N,10626.7468,E,1,06,1.7,327.4,M,,,,0000*15
$GNRMC,032834.100,A,2930.5749,N,10626.7468,E,1.16,352.83,120319,,*1A
$GPGSA,A,3,03,26,31,,,,,,,,,,2.1,1.7,1.2*31
$BDGSA,A,3,02,05,10,,,,,,,,,,2.1,1.7,1.2*23
$GLGSA,A,3,,,,,,,,,,,,,2.1,1.7,1.2*28
$GPGSV,2,1,08,03,27,309,47,31,58,000,35,26,60,201,37,01,01,264,00*71
$GPGSV,2,2,08,16,27,204,00,22,39,288,00,25,16,039,00,32,53,098,00*71
$BDGSV,3,1,12,02,46,219,35,05,27,245,41,10,62,222,35,01,39,127,00*6D
$BDGSV,3,2,12,03,54,172,00,04,22,110,00,06,66,103,00,07,85,208,00*6C
$BDGSV,3,3,12,09,76,015,00,16,71,095,00,17,67,144,00,19,13,319,00*6D
$B3CN0,0,0,0,0,0,0,0,0,0,0,0,0,0,0*4C
$GNGGA,032834.200,2930.5749,N,10626.7469,E,1,06,1.7,327.2,M,,,,0000*11
$GNRMC,032834.200,A,2930.5749,N,10626.7469,E,1.06,352.83,120319,,*19
$GPGSA,A,3,03,26,31,,,,,,,,,,2.1,1.7,1.2*31
$BDGSA,A,3,02,05,10,,,,,,,,,,2.1,1.7,1.2*23
$GLGSA,A,3,,,,,,,,,,,,,2.1,1.7,1.2*28
$GPGSV,2,1,08,03,27,309,47,31,58,000,35,26,60,201,37,01,01,264,00*71
$GPGSV,2,2,08,16,27,204,00,22,39,288,00,25,16,039,00,32,53,098,00*71
$BDGSV,3,1,12,02,46,219,35,05,27,245,41,10,62,222,35,01,39,127,00*6D
$BDGSV,3,2,12,03,54,172,00,04,22,110,00,06,66,103,00,07,85,208,00*6C
$BDGSV,3,3,12,09,76,015,00,16,71,095,00,17,67,144,00,19,13,319,00*6D
$B3CN0,0,0,0,0,0,0,0,0,0,0,0,0,0,0*4C
$GNGGA,032834.300,2930.5749,N,10626.7469,E,1,06,1.7,327.1,M,,,,0000*13
$GNRMC,032834.300,A,2930.5749,N,10626.7469,E,1.04,352.83,120319,,*1A
$GPGSA,A,3,03,26,31,,,,,,,,,,2.1,1.7,1.2*31
$BDGSA,A,3,02,05,10,,,,,,,,,,2.1,1.7,1.2*23
$GLGSA,A,3,,,,,,,,,,,,,2.1,1.7,1.2*28
$GPGSV,2,1,08,03,27,309,47,31,58,000,35,26,60,201,37,01,01,264,00*71
$GPGSV,2,2,08,16,27,204,00,22,39,288,00,25,16,039,00,32,53,098,00*71
$BDGSV,3,1,12,02,46,219,35,05,27,245,41,10,62,222,35,01,39,127,00*6D
$BDGSV,3,2,12,03,54,172,00,04,22,110,00,06,66,103,00,07,85,208,00*6C
$BDGSV,3,3,12,09,76,015,00,16,71,095,00,17,67,144,00,19,13,319,00*6D
$B3CN0,0,0,0,0,0,0,0,0,0,0,0,0,0,0*4C
$GNGGA,032834.400,2930.5749,N,10626.7469,E,1,06,1.7,327.0,M,,,,0000*15
$GNRMC,032834.400,A,2930.5749,N,10626.7469,E,1.04,352.83,120319,,*1D
$GPGSA,A,3,03,26,31,,,,,,,,,,2.1,1.7,1.2*31
$BDGSA,A,3,02,05,10,,,,,,,,,,2.1,1.7,1.2*23
$GLGSA,A,3,,,,,,,,,,,,,2.1,1.7,1.2*28
$GPGSV,2,1,08,03,27,309,47,31,58,000,35,26,60,201,37,01,01,264,00*71
$GPGSV,2,2,08,16,27,204,00,22,39,288,00,25,16,039,00,32,53,098,00*71
$BDGSV,3,1,12,02,46,219,35,05,27,245,41,10,62,222,35,01,39,127,00*6D
$BDGSV,3,2,12,03,54,172,00,04,22,110,00,06,66,103,00,07,85,208,00*6C
$BDGSV,3,3,12,09,76,015,00,16,71,095,00,17,67,144,00,19,13,319,00*6D
$B3CN0,0,0,0,0,0,0,0,0,0,0,0,0,0,0*4C
$GNGGA,032834.500,2930.5749,N,10626.7469,E,1,06,1.7,327.0,M,,,,0000*14
$GNRMC,032834.500,A,2930.5749,N,10626.7469,E,1.14,352.83,120319,,*1D
$GPGSA,A,3,03,26,31,,,,,,,,,,2.1,1.7,1.2*31
$BDGSA,A,3,02,05,10,,,,,,,,,,2.1,1.7,1.2*23
$GLGSA,A,3,,,,,,,,,,,,,2.1,1.7,1.2*28
$GPGSV,2,1,08,03,27,309,47,31,58,000,35,26,60,201,37,01,01,264,00*71
$GPGSV,2,2,08,16,27,204,00,22,39,288,00,25,16,039,00,32,53,098,00*71
$BDGSV,3,1,12,02,46,219,35,05,27,245,41,10,62,222,35,01,39,127,00*6D
$BDGSV,3,2,12,03,54,172,00,04,22,110,00,06,66,103,00,07,85,208,00*6C
$BDGSV,3,3,12,09,76,015,00,16,71,095,00,17,67,144,00,19,13,319,00*6D
$B3CN0,0,0,0,0,0,0,0,0,0,0,0,0,0,0*4C
$GNGGA,032834.600,2930.5749,N,10626.7468,E,1,06,1.7,327.1,M,,,,0000*17
$GNRMC,032834.600,A,2930.5749,N,10626.7468,E,1.70,352.83,120319,,*1D
$GPGSA,A,3,03,26,31,,,,,,,,,,2.1,1.7,1.2*31
$BDGSA,A,3,02,05,10,,,,,,,,,,2.1,1.7,1.2*23
$GLGSA,A,3,,,,,,,,,,,,,2.1,1.7,1.2*28
$GPGSV,2,1,08,03,27,309,47,31,58,000,35,26,60,201,37,01,01,264,00*71
$GPGSV,2,2,08,16,27,204,00,22,39,288,00,25,16,039,00,32,53,098,00*71
$BDGSV,3,1,12,02,46,219,35,05,27,245,41,10,62,222,35,01,39,127,00*6D
$BDGSV,3,2,12,03,54,172,00,04,22,110,00,06,66,103,00,07,85,208,00*6C
$BDGSV,3,3,12,09,76,015,00,16,71,095,00,17,67,144,00,19,13,319,00*6D
$B3CN0,0,0,0,0,0,0,0,0,0,0,0,0,0,0*4C
$GNGGA,032834.700,2930.5749,N,10626.7468,E,1,06,1.7,327.2,M,,,,0000*15
$GNRMC,032834.700,A,2930.5749,N,10626.7468,E,1.76,352.83,120319,,*1A
$GPGSA,A,3,03,26,31,,,,,,,,,,2.1,1.7,1.2*31
$BDGSA,A,3,02,05,10,,,,,,,,,,2.1,1.7,1.2*23
$GLGSA,A,3,,,,,,,,,,,,,2.1,1.7,1.2*28
$GPGSV,2,1,08,03,27,309,47,31,58,000,35,26,60,201,37,01,01,264,00*71
$GPGSV,2,2,08,16,27,204,00,22,39,288,00,25,16,039,00,32,53,098,00*71
$BDGSV,3,1,12,02,46,219,35,05,27,245,41,10,62,222,35,01,39,127,00*6D
$BDGSV,3,2,12,03,54,172,00,04,22,110,00,06,66,103,00,07,85,208,00*6C
$BDGSV,3,3,12,09,76,015,00,16,71,095,00,17,67,144,00,19,13,319,00*6D
$B3CN0,0,0,0,0,0,0,0,0,0,0,0,0,0,0*4C
$GNGGA,032834.800,2930.5749,N,10626.7467,E,1,06,1.7,327.3,M,,,,0000*14
$GNRMC,032834.800,A,2930.5749,N,10626.7467,E,1.74,352.83,120319,,*18
$GPGSA,A,3,03,26,31,,,,,,,,,,2.1,1.7,1.2*31
$BDGSA,A,3,02,05,10,,,,,,,,,,2.1,1.7,1.2*23
$GLGSA,A,3,,,,,,,,,,,,,2.1,1.7,1.2*28
$GPGSV,2,1,08,03,27,309,47,31,58,000,35,26,60,201,37,01,01,264,00*71
$GPGSV,2,2,08,16,27,204,00,22,39,288,00,25,16,039,00,32,53,098,00*71
$BDGSV,3,1,12,02,46,219,35,05,27,245,41,10,62,222,35,01,39,127,00*6D
$BDGSV,3,2,12,03,54,172,00,04,22,110,00,06,66,103,00,07,85,208,00*6C
$BDGSV,3,3,12,09,76,015,00,16,71,095,00,17,67,144,00,19,13,319,00*6D
$B3CN0,0,0,0,0,0,0,0,0,0,0,0,0,0,0*4C
$GNGGA,032834.900,2930.5749,N,10626.7468,E,1,06,1.7,327.1,M,,,,0000*18
$GNRMC,032834.900,A,2930.5749,N,10626.7468,E,1.11,352.83,120319,,*15
$GPGSA,A,3,03,26,31,,,,,,,,,,2.1,1.7,1.2*31
$BDGSA,A,3,02,05,10,,,,,,,,,,2.1,1.7,1.2*23
$GLGSA,A,3,,,,,,,,,,,,,2.1,1.7,1.2*28
$GPGSV,2,1,08,03,27,309,47,31,58,000,35,26,60,201,37,01,01,264,00*71
$GPGSV,2,2,08,16,27,204,00,22,39,288,00,25,16,039,00,32,53,098,00*71
$BDGSV,3,1,12,02,46,219,38,05,27,245,42,10,62,222,34,01,39,127,00*62
$BDGSV,3,2,12,03,54,172,00,04,22,110,00,06,66,103,00,07,85,208,00*6C
$BDGSV,3,3,12,09,76,015,00,16,71,095,00,17,67,144,00,19,13,319,00*6D
$B3CN0,0,0,0,0,0,0,0,0,0,0,0,0,0,0*4C
$GNGGA,032835.000,2930.5749,N,10626.7468,E,1,06,1.7,327.1,M,,,,0000*10
$GNRMC,032835.000,A,2930.5749,N,10626.7468,E,0.54,352.83,120319,,*1D
$GPGSA,A,3,03,26,31,,,,,,,,,,2.1,1.7,1.2*31
$BDGSA,A,3,02,05,10,,,,,,,,,,2.1,1.7,1.2*23
$GLGSA,A,3,,,,,,,,,,,,,2.1,1.7,1.2*28
$GPGSV,2,1,08,03,27,309,47,31,58,000,35,26,60,201,37,01,01,264,00*71
$GPGSV,2,2,08,16,27,204,00,22,39,288,00,25,16,039,00,32,53,098,00*71
$BDGSV,3,1,12,02,46,219,38,05,27,245,42,10,62,222,34,01,39,127,00*62
$BDGSV,3,2,12,03,54,172,00,04,22,110,00,06,66,103,00,07,85,208,00*6C
$BDGSV,3,3,12,09,76,015,00,16,71,095,00,17,67,144,00,19,13,319,00*6D
$B3CN0,0,0,0,0,0,0,0,0,0,0,0,0,0,0*4C
$GNGGA,032835.100,2930.5749,N,10626.7467,E,1,06,1.7,327.3,M,,,,0000*1C
$GNRMC,032835.100,A,2930.5749,N,10626.7467,E,0.31,352.83,120319,,*10
$GPGSA,A,3,03,26,31,,,,,,,,,,2.1,1.7,1.2*31
$BDGSA,A,3,02,05,10,,,,,,,,,,2.1,1.7,1.2*23
$GLGSA,A,3,,,,,,,,,,,,,2.1,1.7,1.2*28
$GPGSV,2,1,08,03,27,309,47,31,58,000,35,26,60,201,37,01,01,264,00*71
$GPGSV,2,2,08,16,27,204,00,22,39,288,00,25,16,039,00,32,53,098,00*71
$BDGSV,3,1,12,02,46,219,38,05,27,245,42,10,62,222,34,01,39,127,00*62
$BDGSV,3,2,12,03,54,172,00,04,22,110,00,06,66,103,00,07,85,208,00*6C
$BDGSV,3,3,12,09,76,015,00,16,71,095,00,17,67,144,00,19,13,319,00*6D
$B3CN0,0,0,0,0,0,0,0,0,0,0,0,0,0,0*4C
$GNGGA,032835.200,2930.5749,N,10626.7466,E,1,06,1.7,327.4,M,,,,0000*19
$GNRMC,032835.200,A,2930.5749,N,10626.7466,E,0.16,352.83,120319,,*17
$GPGSA,A,3,03,26,31,,,,,,,,,,2.1,1.7,1.2*31
$BDGSA,A,3,02,05,10,,,,,,,,,,2.1,1.7,1.2*23
$GLGSA,A,3,,,,,,,,,,,,,2.1,1.7,1.2*28
$GPGSV,2,1,08,03,27,309,47,31,58,000,35,26,60,201,37,01,01,264,00*71
$GPGSV,2,2,08,16,27,204,00,22,39,288,00,25,16,039,00,32,53,098,00*71
$BDGSV,3,1,12,02,46,219,38,05,27,245,42,10,62,222,34,01,39,127,00*62
$BDGSV,3,2,12,03,54,172,00,04,22,110,00,06,66,103,00,07,85,208,00*6C
$BDGSV,3,3,12,09,76,015,00,16,71,095,00,17,67,144,00,19,13,319,00*6D
$B3CN0,0,0,0,0,0,0,0,0,0,0,0,0,0,0*4C
$GNGGA,032835.300,2930.5749,N,10626.7467,E,1,06,1.7,327.2,M,,,,0000*1F
$GNRMC,032835.300,A,2930.5749,N,10626.7467,E,0.74,352.83,120319,,*13
$GPGSA,A,3,03,26,31,,,,,,,,,,2.1,1.7,1.2*31
$BDGSA,A,3,02,05,10,,,,,,,,,,2.1,1.7,1.2*23
$GLGSA,A,3,,,,,,,,,,,,,2.1,1.7,1.2*28
$GPGSV,2,1,08,03,27,309,47,31,58,000,35,26,60,201,37,01,01,264,00*71
$GPGSV,2,2,08,16,27,204,00,22,39,288,00,25,16,039,00,32,53,098,00*71
$BDGSV,3,1,12,02,46,219,38,05,27,245,42,10,62,222,34,01,39,127,00*62
$BDGSV,3,2,12,03,54,172,00,04,22,110,00,06,66,103,00,07,85,208,00*6C
$BDGSV,3,3,12,09,76,015,00,16,71,095,00,17,67,144,00,19,13,319,00*6D
$B3CN0,0,0,0,0,0,0,0,0,0,0,0,0,0,0*4C
$GNGGA,032835.400,2930.5748,N,10626.7467,E,1,06,1.7,327.1,M,,,,0000*1A
$GNRMC,032835.400,A,2930.5748,N,10626.7467,E,1.14,352.83,120319,,*12
$GPGSA,A,3,03,26,31,,,,,,,,,,2.1,1.7,1.2*31
$BDGSA,A,3,02,05,10,,,,,,,,,,2.1,1.7,1.2*23
$GLGSA,A,3,,,,,,,,,,,,,2.1,1.7,1.2*28
$GPGSV,2,1,08,03,27,309,47,31,58,000,35,26,60,201,37,01,01,264,00*71
$GPGSV,2,2,08,16,27,204,00,22,39,288,00,25,16,039,00,32,53,098,00*71
$BDGSV,3,1,12,02,46,219,38,05,27,245,42,10,62,222,34,01,39,127,00*62
$BDGSV,3,2,12,03,54,172,00,04,22,110,00,06,66,103,00,07,85,208,00*6C
$BDGSV,3,3,12,09,76,015,00,16,71,095,00,17,67,144,00,19,13,319,00*6D
$B3CN0,0,0,0,0,0,0,0,0,0,0,0,0,0,0*4C
$GNGGA,032835.500,2930.5748,N,10626.7467,E,1,06,1.7,327.3,M,,,,0000*19
$GNRMC,032835.500,A,2930.5748,N,10626.7467,E,1.63,352.83,120319,,*13
$GPGSA,A,3,03,26,31,,,,,,,,,,2.1,1.7,1.2*31
$BDGSA,A,3,02,05,10,,,,,,,,,,2.1,1.7,1.2*23
$GLGSA,A,3,,,,,,,,,,,,,2.1,1.7,1.2*28
$GPGSV,2,1,08,03,27,309,47,31,58,000,35,26,60,201,37,01,01,264,00*71
$GPGSV,2,2,08,16,27,204,00,22,39,288,00,25,16,039,00,32,53,098,00*71
$BDGSV,3,1,12,02,46,219,38,05,27,245,42,10,62,222,34,01,39,127,00*62
$BDGSV,3,2,12,03,54,172,00,04,22,110,00,06,66,103,00,07,85,208,00*6C
$BDGSV,3,3,12,09,76,015,00,16,71,095,00,17,67,144,00,19,13,319,00*6D
$B3CN0,0,0,0,0,0,0,0,0,0,0,0,0,0,0*4C
$GNGGA,032835.600,2930.5748,N,10626.7466,E,1,06,1.7,327.4,M,,,,0000*1C
$GNRMC,032835.600,A,2930.5748,N,10626.7466,E,1.91,352.83,120319,,*1C
$GPGSA,A,3,03,26,31,,,,,,,,,,2.1,1.7,1.2*31
$BDGSA,A,3,02,05,10,,,,,,,,,,2.1,1.7,1.2*23
$GLGSA,A,3,,,,,,,,,,,,,2.1,1.7,1.2*28
$GPGSV,2,1,08,03,27,309,47,31,58,000,35,26,60,201,37,01,01,264,00*71
$GPGSV,2,2,08,16,27,204,00,22,39,288,00,25,16,039,00,32,53,098,00*71
$BDGSV,3,1,12,02,46,219,38,05,27,245,42,10,62,222,34,01,39,127,00*62
$BDGSV,3,2,12,03,54,172,00,04,22,110,00,06,66,103,00,07,85,208,00*6C
$BDGSV,3,3,12,09,76,015,00,16,71,095,00,17,67,144,00,19,13,319,00*6D
$B3CN0,0,0,0,0,0,0,0,0,0,0,0,0,0,0*4C
$GNGGA,032835.700,2930.5748,N,10626.7466,E,1,06,1.7,327.2,M,,,,0000*1B
$GNRMC,032835.700,A,2930.5748,N,10626.7466,E,1.89,352.83,120319,,*14
$GPGSA,A,3,03,26,31,,,,,,,,,,2.1,1.7,1.2*31
$BDGSA,A,3,02,05,10,,,,,,,,,,2.1,1.7,1.2*23
$GLGSA,A,3,,,,,,,,,,,,,2.1,1.7,1.2*28
$GPGSV,2,1,08,03,27,309,47,31,58,000,35,26,60,201,37,01,01,264,00*71
$GPGSV,2,2,08,16,27,204,00,22,39,288,00,25,16,039,00,32,53,098,00*71
$BDGSV,3,1,12,02,46,219,38,05,27,245,42,10,62,222,34,01,39,127,00*62
$BDGSV,3,2,12,03,54,172,00,04,22,110,00,06,66,103,00,07,85,208,00*6C
$BDGSV,3,3,12,09,76,015,00,16,71,095,00,17,67,144,00,19,13,319,00*6D
$B3CN0,0,0,0,0,0,0,0,0,0,0,0,0,0,0*4C
$GNGGA,032835.800,2930.5747,N,10626.7466,E,1,06,1.7,327.2,M,,,,0000*1B
$GNRMC,032835.800,A,2930.5747,N,10626.7466,E,1.78,352.83,120319,,*1A
$GPGSA,A,3,03,26,31,,,,,,,,,,2.1,1.7,1.2*31
$BDGSA,A,3,02,05,10,,,,,,,,,,2.1,1.7,1.2*23
$GLGSA,A,3,,,,,,,,,,,,,2.1,1.7,1.2*28
$GPGSV,2,1,08,03,27,309,47,31,58,000,35,26,60,201,37,01,01,264,00*71
$GPGSV,2,2,08,16,27,204,00,22,39,288,00,25,16,039,00,32,53,098,00*71
$BDGSV,3,1,12,02,46,219,38,05,27,245,42,10,62,222,34,01,39,127,00*62
$BDGSV,3,2,12,03,54,172,00,04,22,110,00,06,66,103,00,07,85,208,00*6C
$BDGSV,3,3,12,09,76,015,00,16,71,095,00,17,67,144,00,19,13,319,00*6D
$B3CN0,0,0,0,0,0,0,0,0,0,0,0,0,0,0*4C
$GNGGA,032835.900,2930.5747,N,10626.7467,E,1,06,1.7,327.0,M,,,,0000*19
$GNRMC,032835.900,A,2930.5747,N,10626.7467,E,2.10,351.37,120319,,*1B
$GPGSA,A,3,03,26,31,,,,,,,,,,2.1,1.7,1.2*31
$BDGSA,A,3,02,05,10,,,,,,,,,,2.1,1.7,1.2*23
$GLGSA,A,3,,,,,,,,,,,,,2.1,1.7,1.2*28
$GPGSV,2,1,08,03,27,309,47,31,58,000,36,26,60,201,36,01,01,264,00*73
$GPGSV,2,2,08,16,27,204,00,22,39,288,00,25,16,039,00,32,53,098,00*71
$BDGSV,3,1,12,02,46,219,37,05,27,245,41,10,62,222,35,01,39,127,00*6F
$BDGSV,3,2,12,03,54,172,00,04,22,110,00,06,66,103,00,07,85,208,00*6C
$BDGSV,3,3,12,09,76,015,00,16,71,095,00,17,67,145,00,19,13,319,00*6C
$B3CN0,0,0,0,0,0,0,0,0,0,0,0,0,0,0*4C
$GNGGA,032836.000,2930.5747,N,10626.7468,E,1,06,1.7,326.9,M,,,,0000*14
$GNRMC,032836.000,A,2930.5747,N,10626.7468,E,2.37,350.53,120319,,*18
$GPGSA,A,3,03,26,31,,,,,,,,,,2.1,1.7,1.2*31
$BDGSA,A,3,02,05,10,,,,,,,,,,2.1,1.7,1.2*23
$GLGSA,A,3,,,,,,,,,,,,,2.1,1.7,1.2*28
$GPGSV,2,1,08,03,27,309,47,31,58,000,36,26,60,201,36,01,01,264,00*73
$GPGSV,2,2,08,16,27,204,00,22,39,288,00,25,16,039,00,32,53,098,00*71
$BDGSV,3,1,12,02,46,219,37,05,27,245,41,10,62,222,35,01,39,127,00*6F
$BDGSV,3,2,12,03,54,172,00,04,22,110,00,06,66,103,00,07,85,208,00*6C
$BDGSV,3,3,12,09,76,015,00,16,71,095,00,17,67,145,00,19,13,319,00*6C
$B3CN0,0,0,0,0,0,0,0,0,0,0,0,0,0,0*4C
$GNGGA,032836.100,2930.5746,N,10626.7469,E,1,06,1.7,326.6,M,,,,0000*1A
$GNRMC,032836.100,A,2930.5746,N,10626.7469,E,2.86,352.12,120319,,*14
$GPGSA,A,3,03,26,31,,,,,,,,,,2.1,1.7,1.2*31
$BDGSA,A,3,02,05,10,,,,,,,,,,2.1,1.7,1.2*23
$GLGSA,A,3,,,,,,,,,,,,,2.1,1.7,1.2*28
$GPGSV,2,1,08,03,27,309,47,31,58,000,36,26,60,201,36,01,01,264,00*73
$GPGSV,2,2,08,16,27,204,00,22,39,288,00,25,16,039,00,32,53,098,00*71
$BDGSV,3,1,12,02,46,219,37,05,27,245,41,10,62,222,35,01,39,127,00*6F
$BDGSV,3,2,12,03,54,172,00,04,22,110,00,06,66,103,00,07,85,208,00*6C
$BDGSV,3,3,12,09,76,015,00,16,71,095,00,17,67,145,00,19,13,319,00*6C
$B3CN0,0,0,0,0,0,0,0,0,0,0,0,0,0,0*4C
$GNGGA,032836.200,2930.5746,N,10626.7469,E,1,06,1.7,326.7,M,,,,0000*18
$GNRMC,032836.200,A,2930.5746,N,10626.7469,E,3.03,351.05,120319,,*1E
$GPGSA,A,3,03,26,31,,,,,,,,,,2.1,1.7,1.2*31
$BDGSA,A,3,02,05,10,,,,,,,,,,2.1,1.7,1.2*23
$GLGSA,A,3,,,,,,,,,,,,,2.1,1.7,1.2*28
$GPGSV,2,1,08,03,27,309,47,31,58,000,36,26,60,201,36,01,01,264,00*73
$GPGSV,2,2,08,16,27,204,00,22,39,288,00,25,16,039,00,32,53,098,00*71
$BDGSV,3,1,12,02,46,219,37,05,27,245,41,10,62,222,35,01,39,127,00*6F
$BDGSV,3,2,12,03,54,172,00,04,22,110,00,06,66,103,00,07,85,208,00*6C
$BDGSV,3,3,12,09,76,015,00,16,71,095,00,17,67,145,00,19,13,319,00*6C
$B3CN0,0,0,0,0,0,0,0,0,0,0,0,0,0,0*4C
$GNGGA,032836.300,2930.5746,N,10626.7469,E,1,06,1.7,326.6,M,,,,0000*18
$GNRMC,032836.300,A,2930.5746,N,10626.7469,E,3.68,344.54,120319,,*12
$GPGSA,A,3,03,26,31,,,,,,,,,,2.1,1.7,1.2*31
$BDGSA,A,3,02,05,10,,,,,,,,,,2.1,1.7,1.2*23
$GLGSA,A,3,,,,,,,,,,,,,2.1,1.7,1.2*28
$GPGSV,2,1,08,03,27,309,47,31,58,000,36,26,60,201,36,01,01,264,00*73
$GPGSV,2,2,08,16,27,204,00,22,39,288,00,25,16,039,00,32,53,098,00*71
$BDGSV,3,1,12,02,46,219,37,05,27,245,41,10,62,222,35,01,39,127,00*6F
$BDGSV,3,2,12,03,54,172,00,04,22,110,00,06,66,103,00,07,85,208,00*6C
$BDGSV,3,3,12,09,76,015,00,16,71,095,00,17,67,145,00,19,13,319,00*6C
$B3CN0,0,0,0,0,0,0,0,0,0,0,0,0,0,0*4C
$GNGGA,032836.400,2930.5746,N,10626.7469,E,1,06,1.7,326.5,M,,,,0000*1C
$GNRMC,032836.400,A,2930.5746,N,10626.7469,E,4.04,346.65,120319,,*18
$GPGSA,A,3,03,26,31,,,,,,,,,,2.1,1.7,1.2*31
$BDGSA,A,3,02,05,10,,,,,,,,,,2.1,1.7,1.2*23
$GLGSA,A,3,,,,,,,,,,,,,2.1,1.7,1.2*28
$GPGSV,2,1,08,03,27,309,47,31,58,000,36,26,60,201,36,01,01,264,00*73
$GPGSV,2,2,08,16,27,204,00,22,39,288,00,25,16,039,00,32,53,098,00*71
$BDGSV,3,1,12,02,46,219,37,05,27,245,41,10,62,222,35,01,39,127,00*6F
$BDGSV,3,2,12,03,54,172,00,04,22,110,00,06,66,103,00,07,85,208,00*6C
$BDGSV,3,3,12,09,76,015,00,16,71,095,00,17,67,145,00,19,13,319,00*6C
$B3CN0,0,0,0,0,0,0,0,0,0,0,0,0,0,0*4C
$GNGGA,032836.500,2930.5745,N,10626.7469,E,1,06,1.7,326.4,M,,,,0000*1F
$GNRMC,032836.500,A,2930.5745,N,10626.7469,E,4.13,348.67,120319,,*10
$GPGSA,A,3,03,26,31,,,,,,,,,,2.1,1.7,1.2*31
$BDGSA,A,3,02,05,10,,,,,,,,,,2.1,1.7,1.2*23
$GLGSA,A,3,,,,,,,,,,,,,2.1,1.7,1.2*28
$GPGSV,2,1,08,03,27,309,47,31,58,000,36,26,60,201,36,01,01,264,00*73
$GPGSV,2,2,08,16,27,204,00,22,39,288,00,25,16,039,00,32,53,098,00*71
$BDGSV,3,1,12,02,46,219,37,05,27,245,41,10,62,222,35,01,39,127,00*6F
$BDGSV,3,2,12,03,54,172,00,04,22,110,00,06,66,103,00,07,85,208,00*6C
$BDGSV,3,3,12,09,76,015,00,16,71,095,00,17,67,145,00,19,13,319,00*6C
$B3CN0,0,0,0,0,0,0,0,0,0,0,0,0,0,0*4C
$GNGGA,032836.600,2930.5745,N,10626.7468,E,1,06,1.7,326.4,M,,,,0000*1D
$GNRMC,032836.600,A,2930.5745,N,10626.7468,E,3.93,349.28,120319,,*17
$GPGSA,A,3,03,26,31,,,,,,,,,,2.1,1.7,1.2*31
$BDGSA,A,3,02,05,10,,,,,,,,,,2.1,1.7,1.2*23
$GLGSA,A,3,,,,,,,,,,,,,2.1,1.7,1.2*28
$GPGSV,2,1,08,03,27,309,47,31,58,000,36,26,60,201,36,01,01,264,00*73
$GPGSV,2,2,08,16,27,204,00,22,39,288,00,25,16,039,00,32,53,098,00*71
$BDGSV,3,1,12,02,46,219,37,05,27,245,41,10,62,222,35,01,39,127,00*6F
$BDGSV,3,2,12,03,54,172,00,04,22,110,00,06,66,103,00,07,85,208,00*6C
$BDGSV,3,3,12,09,76,015,00,16,71,095,00,17,67,145,00,19,13,319,00*6C
$B3CN0,0,0,0,0,0,0,0,0,0,0,0,0,0,0*4C
$GNGGA,032836.700,2930.5745,N,10626.7468,E,1,06,1.7,326.5,M,,,,0000*1D
$GNRMC,032836.700,A,2930.5745,N,10626.7468,E,3.34,352.00,120319,,*1B
$GPGSA,A,3,03,26,31,,,,,,,,,,2.1,1.7,1.2*31
$BDGSA,A,3,02,05,10,,,,,,,,,,2.1,1.7,1.2*23
$GLGSA,A,3,,,,,,,,,,,,,2.1,1.7,1.2*28
$GPGSV,2,1,08,03,27,309,47,31,58,000,36,26,60,201,36,01,01,264,00*73
$GPGSV,2,2,08,16,27,204,00,22,39,288,00,25,16,039,00,32,53,098,00*71
$BDGSV,3,1,12,02,46,219,37,05,27,245,41,10,62,222,35,01,39,127,00*6F
$BDGSV,3,2,12,03,54,172,00,04,22,110,00,06,66,103,00,07,85,208,00*6C
$BDGSV,3,3,12,09,76,015,00,16,71,095,00,17,67,145,00,19,13,319,00*6C
$B3CN0,0,0,0,0,0,0,0,0,0,0,0,0,0,0*4C
$GNGGA,032836.800,2930.5744,N,10626.7467,E,1,06,1.7,326.7,M,,,,0000*1E
$GNRMC,032836.800,A,2930.5744,N,10626.7467,E,3.24,352.49,120319,,*16
$GPGSA,A,3,03,26,31,,,,,,,,,,2.1,1.7,1.2*31
$BDGSA,A,3,02,05,10,,,,,,,,,,2.1,1.7,1.2*23
$GLGSA,A,3,,,,,,,,,,,,,2.1,1.7,1.2*28
$GPGSV,2,1,08,03,27,309,47,31,58,000,36,26,60,201,36,01,01,264,00*73
$GPGSV,2,2,08,16,27,204,00,22,39,288,00,25,16,039,00,32,53,098,00*71
$BDGSV,3,1,12,02,46,219,37,05,27,245,41,10,62,222,35,01,39,127,00*6F
$BDGSV,3,2,12,03,54,172,00,04,22,110,00,06,66,103,00,07,85,208,00*6C
$BDGSV,3,3,12,09,76,015,00,16,71,095,00,17,67,145,00,19,13,319,00*6C
$B3CN0,0,0,0,0,0,0,0,0,0,0,0,0,0,0*4C
$GNGGA,032836.900,2930.5744,N,10626.7466,E,1,06,1.7,326.8,M,,,,0000*11
$GNRMC,032836.900,A,2930.5744,N,10626.7466,E,2.84,351.93,120319,,*19
$GPGSA,A,3,03,26,31,,,,,,,,,,2.1,1.7,1.2*31
$BDGSA,A,3,02,05,10,,,,,,,,,,2.1,1.7,1.2*23
$GLGSA,A,3,,,,,,,,,,,,,2.1,1.7,1.2*28
$GPGSV,2,1,08,03,27,309,47,31,58,000,36,26,60,201,37,01,01,264,00*72
$GPGSV,2,2,08,16,27,204,00,22,39,288,00,25,16,039,00,32,53,098,00*71
$BDGSV,3,1,12,02,46,219,37,05,27,245,41,10,62,222,35,01,39,127,00*6F
$BDGSV,3,2,12,03,54,172,00,04,22,110,00,06,66,103,00,07,85,208,00*6C
$BDGSV,3,3,12,09,76,015,00,16,71,095,00,17,67,145,00,19,13,319,00*6C
$B3CN0,0,0,0,0,0,0,0,0,0,0,0,0,0,0*4C
$GNGGA,032837.000,2930.5744,N,10626.7466,E,1,06,1.7,326.8,M,,,,0000*19
$GNRMC,032837.000,A,2930.5744,N,10626.7466,E,2.17,353.88,120319,,*13
$GPGSA,A,3,03,26,31,,,,,,,,,,2.1,1.7,1.2*31
$BDGSA,A,3,02,05,10,,,,,,,,,,2.1,1.7,1.2*23
$GLGSA,A,3,,,,,,,,,,,,,2.1,1.7,1.2*28
$GPGSV,2,1,08,03,27,309,47,31,58,000,36,26,60,201,37,01,01,264,00*72
$GPGSV,2,2,08,16,27,204,00,22,39,288,00,25,16,039,00,32,53,098,00*71
$BDGSV,3,1,12,02,46,219,37,05,27,245,41,10,62,222,35,01,39,127,00*6F
$BDGSV,3,2,12,03,54,172,00,04,22,110,00,06,66,103,00,07,85,208,00*6C
$BDGSV,3,3,12,09,76,015,00,16,71,095,00,17,67,145,00,19,13,319,00*6C
$B3CN0,0,0,0,0,0,0,0,0,0,0,0,0,0,0*4C
$GNGGA,032837.100,2930.5744,N,10626.7465,E,1,06,1.7,327.1,M,,,,0000*13
$GNRMC,032837.100,A,2930.5744,N,10626.7465,E,0.79,353.88,120319,,*1B
$GPGSA,A,3,03,26,31,,,,,,,,,,2.1,1.7,1.2*31
$BDGSA,A,3,02,05,10,,,,,,,,,,2.1,1.7,1.2*23
$GLGSA,A,3,,,,,,,,,,,,,2.1,1.7,1.2*28
$GPGSV,2,1,08,03,27,309,47,31,58,000,36,26,60,201,37,01,01,264,00*72
$GPGSV,2,2,08,16,27,204,00,22,39,288,00,25,16,039,00,32,53,098,00*71
$BDGSV,3,1,12,02,46,219,37,05,27,245,41,10,62,222,35,01,39,127,00*6F
$BDGSV,3,2,12,03,54,172,00,04,22,110,00,06,66,103,00,07,85,208,00*6C
$BDGSV,3,3,12,09,76,015,00,16,71,095,00,17,67,145,00,19,13,319,00*6C
$B3CN0,0,0,0,0,0,0,0,0,0,0,0,0,0,0*4C
$GNGGA,032837.200,2930.5743,N,10626.7463,E,1,06,1.7,327.4,M,,,,0000*14
$GNRMC,032837.200,A,2930.5743,N,10626.7463,E,0.54,353.88,120319,,*16
$GPGSA,A,3,03,26,31,,,,,,,,,,2.1,1.7,1.2*31
$BDGSA,A,3,02,05,10,,,,,,,,,,2.1,1.7,1.2*23
$GLGSA,A,3,,,,,,,,,,,,,2.1,1.7,1.2*28
$GPGSV,2,1,08,03,27,309,47,31,58,000,36,26,60,201,37,01,01,264,00*72
$GPGSV,2,2,08,16,27,204,00,22,39,288,00,25,16,039,00,32,53,098,00*71
$BDGSV,3,1,12,02,46,219,37,05,27,245,41,10,62,222,35,01,39,127,00*6F
$BDGSV,3,2,12,03,54,172,00,04,22,110,00,06,66,103,00,07,85,208,00*6C
$BDGSV,3,3,12,09,76,015,00,16,71,095,00,17,67,145,00,19,13,319,00*6C
$B3CN0,0,0,0,0,0,0,0,0,0,0,0,0,0,0*4C
$GNGGA,032837.300,2930.5743,N,10626.7462,E,1,06,1.7,327.7,M,,,,0000*17
$GNRMC,032837.300,A,2930.5743,N,10626.7462,E,1.99,166.67,120319,,*13
$GPGSA,A,3,03,26,31,,,,,,,,,,2.1,1.7,1.2*31
$BDGSA,A,3,02,05,10,,,,,,,,,,2.1,1.7,1.2*23
$GLGSA,A,3,,,,,,,,,,,,,2.1,1.7,1.2*28
$GPGSV,2,1,08,03,27,309,47,31,58,000,36,26,60,201,37,01,01,264,00*72
$GPGSV,2,2,08,16,27,204,00,22,39,288,00,25,16,039,00,32,53,098,00*71
$BDGSV,3,1,12,02,46,219,37,05,27,245,41,10,62,222,35,01,39,127,00*6F
$BDGSV,3,2,12,03,54,172,00,04,22,110,00,06,66,103,00,07,85,208,00*6C
$BDGSV,3,3,12,09,76,015,00,16,71,095,00,17,67,145,00,19,13,319,00*6C
$B3CN0,0,0,0,0,0,0,0,0,0,0,0,0,0,0*4C
$GNGGA,032837.400,2930.5743,N,10626.7460,E,1,06,1.7,328.1,M,,,,0000*1B
$GNRMC,032837.400,A,2930.5743,N,10626.7460,E,3.18,171.19,120319,,*12
$GPGSA,A,3,03,26,31,,,,,,,,,,2.1,1.7,1.2*31
$BDGSA,A,3,02,05,10,,,,,,,,,,2.1,1.7,1.2*23
$GLGSA,A,3,,,,,,,,,,,,,2.1,1.7,1.2*28
$GPGSV,2,1,08,03,27,309,47,31,58,000,36,26,60,201,37,01,01,264,00*72
$GPGSV,2,2,08,16,27,204,00,22,39,288,00,25,16,039,00,32,53,098,00*71
$BDGSV,3,1,12,02,46,219,37,05,27,245,41,10,62,222,35,01,39,127,00*6F
$BDGSV,3,2,12,03,54,172,00,04,22,110,00,06,66,103,00,07,85,208,00*6C
$BDGSV,3,3,12,09,76,015,00,16,71,095,00,17,67,145,00,19,13,319,00*6C
$B3CN0,0,0,0,0,0,0,0,0,0,0,0,0,0,0*4C
$GNGGA,032837.500,2930.5743,N,10626.7458,E,1,06,1.7,328.5,M,,,,0000*15
$GNRMC,032837.500,A,2930.5743,N,10626.7458,E,4.09,170.87,120319,,*19
$GPGSA,A,3,03,26,31,,,,,,,,,,2.1,1.7,1.2*31
$BDGSA,A,3,02,05,10,,,,,,,,,,2.1,1.7,1.2*23
$GLGSA,A,3,,,,,,,,,,,,,2.1,1.7,1.2*28
$GPGSV,2,1,08,03,27,309,47,31,58,000,36,26,60,201,37,01,01,264,00*72
$GPGSV,2,2,08,16,27,204,00,22,39,288,00,25,16,039,00,32,53,098,00*71
$BDGSV,3,1,12,02,46,219,37,05,27,245,41,10,62,222,35,01,39,127,00*6F
$BDGSV,3,2,12,03,54,172,00,04,22,110,00,06,66,103,00,07,85,208,00*6C
$BDGSV,3,3,12,09,76,015,00,16,71,095,00,17,67,145,00,19,13,319,00*6C
$B3CN0,0,0,0,0,0,0,0,0,0,0,0,0,0,0*4C
$GNGGA,032837.600,2930.5742,N,10626.7456,E,1,06,1.7,328.8,M,,,,0000*14
$GNRMC,032837.600,A,2930.5742,N,10626.7456,E,4.57,171.23,120319,,*11
$GPGSA,A,3,03,26,31,,,,,,,,,,2.1,1.7,1.2*31
$BDGSA,A,3,02,05,10,,,,,,,,,,2.1,1.7,1.2*23
$GLGSA,A,3,,,,,,,,,,,,,2.1,1.7,1.2*28
$GPGSV,2,1,08,03,27,309,47,31,58,000,36,26,60,201,37,01,01,264,00*72
$GPGSV,2,2,08,16,27,204,00,22,39,288,00,25,16,039,00,32,53,098,00*71
$BDGSV,3,1,12,02,46,219,37,05,27,245,41,10,62,222,35,01,39,127,00*6F
$BDGSV,3,2,12,03,54,172,00,04,22,110,00,06,66,103,00,07,85,208,00*6C
$BDGSV,3,3,12,09,76,015,00,16,71,095,00,17,67,145,00,19,13,319,00*6C
$B3CN0,0,0,0,0,0,0,0,0,0,0,0,0,0,0*4C
$GNGGA,032837.700,2930.5742,N,10626.7454,E,1,06,1.7,328.9,M,,,,0000*16
$GNRMC,032837.700,A,2930.5742,N,10626.7454,E,4.28,173.50,120319,,*1C
$GPGSA,A,3,03,26,31,,,,,,,,,,2.1,1.7,1.2*31
$BDGSA,A,3,02,05,10,,,,,,,,,,2.1,1.7,1.2*23
$GLGSA,A,3,,,,,,,,,,,,,2.1,1.7,1.2*28
$GPGSV,2,1,08,03,27,309,47,31,58,000,36,26,60,201,37,01,01,264,00*72
$GPGSV,2,2,08,16,27,204,00,22,39,288,00,25,16,039,00,32,53,098,00*71
$BDGSV,3,1,12,02,46,219,37,05,27,245,41,10,62,222,35,01,39,127,00*6F
$BDGSV,3,2,12,03,54,172,00,04,22,110,00,06,66,103,00,07,85,208,00*6C
$BDGSV,3,3,12,09,76,015,00,16,71,095,00,17,67,145,00,19,13,319,00*6C
$B3CN0,0,0,0,0,0,0,0,0,0,0,0,0,0,0*4C
$GNGGA,032837.800,2930.5741,N,10626.7452,E,1,06,1.7,329.2,M,,,,0000*16
$GNRMC,032837.800,A,2930.5741,N,10626.7452,E,4.05,173.78,120319,,*13
$GPGSA,A,3,03,26,31,,,,,,,,,,2.1,1.7,1.2*31
$BDGSA,A,3,02,05,10,,,,,,,,,,2.1,1.7,1.2*23
$GLGSA,A,3,,,,,,,,,,,,,2.1,1.7,1.2*28
$GPGSV,2,1,08,03,27,309,47,31,58,000,36,26,60,201,37,01,01,264,00*72
$GPGSV,2,2,08,16,27,204,00,22,39,288,00,25,16,039,00,32,53,098,00*71
$BDGSV,3,1,12,02,46,219,37,05,27,245,41,10,62,222,35,01,39,127,00*6F
$BDGSV,3,2,12,03,54,172,00,04,22,110,00,06,66,103,00,07,85,208,00*6C
$BDGSV,3,3,12,09,76,015,00,16,71,095,00,17,67,145,00,19,13,319,00*6C
$B3CN0,0,0,0,0,0,0,0,0,0,0,0,0,0,0*4C
$GNGGA,032837.900,2930.5741,N,10626.7451,E,1,06,1.7,329.4,M,,,,0000*12
$GNRMC,032837.900,A,2930.5741,N,10626.7451,E,3.91,172.34,120319,,*12
$GPGSA,A,3,03,26,31,,,,,,,,,,2.1,1.7,1.2*31
$BDGSA,A,3,02,05,10,,,,,,,,,,2.1,1.7,1.2*23
$GLGSA,A,3,,,,,,,,,,,,,2.1,1.7,1.2*28
$GPGSV,2,1,08,03,27,309,47,31,58,000,36,26,60,201,37,01,01,264,00*72
$GPGSV,2,2,08,16,27,204,00,22,39,288,00,25,16,039,00,32,53,098,00*71
$BDGSV,3,1,12,02,46,219,35,05,27,245,41,10,62,222,35,01,39,127,00*6D
$BDGSV,3,2,12,03,54,172,00,04,22,110,00,06,66,103,00,07,85,208,00*6C
$BDGSV,3,3,12,09,76,015,00,16,71,095,00,17,67,145,00,19,13,319,00*6C
$B3CN0,0,0,0,0,0,0,0,0,0,0,0,0,0,0*4C
$GNGGA,032838.000,2930.5740,N,10626.7450,E,1,06,1.7,329.4,M,,,,0000*14
$GNRMC,032838.000,A,2930.5740,N,10626.7450,E,2.91,174.75,120319,,*16
$GPGSA,A,3,03,26,31,,,,,,,,,,2.1,1.7,1.2*31
$BDGSA,A,3,02,05,10,,,,,,,,,,2.1,1.7,1.2*23
$GLGSA,A,3,,,,,,,,,,,,,2.1,1.7,1.2*28
$GPGSV,2,1,08,03,27,309,47,31,58,000,36,26,60,201,37,01,01,264,00*72
$GPGSV,2,2,08,16,27,204,00,22,39,288,00,25,16,039,00,32,53,098,00*71
$BDGSV,3,1,12,02,46,219,35,05,27,245,41,10,62,222,35,01,39,127,00*6D
$BDGSV,3,2,12,03,54,172,00,04,22,110,00,06,66,103,00,07,85,208,00*6C
$BDGSV,3,3,12,09,76,015,00,16,71,095,00,17,67,145,00,19,13,319,00*6C
$B3CN0,0,0,0,0,0,0,0,0,0,0,0,0,0,0*4C
$GNGGA,032838.100,2930.5739,N,10626.7448,E,1,06,1.7,329.5,M,,,,0000*13
$GNRMC,032838.100,A,2930.5739,N,10626.7448,E,1.94,174.75,120319,,*16
$GPGSA,A,3,03,26,31,,,,,,,,,,2.1,1.7,1.2*31
$BDGSA,A,3,02,05,10,,,,,,,,,,2.1,1.7,1.2*23
$GLGSA,A,3,,,,,,,,,,,,,2.1,1.7,1.2*28
$GPGSV,2,1,08,03,27,309,47,31,58,000,36,26,60,201,37,01,01,264,00*72
$GPGSV,2,2,08,16,27,204,00,22,39,288,00,25,16,039,00,32,53,098,00*71
$BDGSV,3,1,12,02,46,219,35,05,27,245,41,10,62,222,35,01,39,127,00*6D
$BDGSV,3,2,12,03,54,172,00,04,22,110,00,06,66,103,00,07,85,208,00*6C
$BDGSV,3,3,12,09,76,015,00,16,71,095,00,17,67,145,00,19,13,319,00*6C
$B3CN0,0,0,0,0,0,0,0,0,0,0,0,0,0,0*4C
$GNGGA,032838.200,2930.5739,N,10626.7447,E,1,06,1.7,329.6,M,,,,0000*1C
$GNRMC,032838.200,A,2930.5739,N,10626.7447,E,1.33,174.75,120319,,*17
$GPGSA,A,3,03,26,31,,,,,,,,,,2.1,1.7,1.2*31
$BDGSA,A,3,02,05,10,,,,,,,,,,2.1,1.7,1.2*23
$GLGSA,A,3,,,,,,,,,,,,,2.1,1.7,1.2*28
$GPGSV,2,1,08,03,27,309,47,31,58,000,36,26,60,201,37,01,01,264,00*72
$GPGSV,2,2,08,16,27,204,00,22,39,288,00,25,16,039,00,32,53,098,00*71
$BDGSV,3,1,12,02,46,219,35,05,27,245,41,10,62,222,35,01,39,127,00*6D
$BDGSV,3,2,12,03,54,172,00,04,22,110,00,06,66,103,00,07,85,208,00*6C
$BDGSV,3,3,12,09,76,015,00,16,71,095,00,17,67,145,00,19,13,319,00*6C
$B3CN0,0,0,0,0,0,0,0,0,0,0,0,0,0,0*4C
$GNGGA,032838.300,2930.5738,N,10626.7446,E,1,06,1.7,329.7,M,,,,0000*1C
$GNRMC,032838.300,A,2930.5738,N,10626.7446,E,0.46,174.75,120319,,*15
$GPGSA,A,3,03,26,31,,,,,,,,,,2.1,1.7,1.2*31
$BDGSA,A,3,02,05,10,,,,,,,,,,2.1,1.7,1.2*23
$GLGSA,A,3,,,,,,,,,,,,,2.1,1.7,1.2*28
$GPGSV,2,1,08,03,27,309,47,31,58,000,36,26,60,201,37,01,01,264,00*72
$GPGSV,2,2,08,16,27,204,00,22,39,288,00,25,16,039,00,32,53,098,00*71
$BDGSV,3,1,12,02,46,219,35,05,27,245,41,10,62,222,35,01,39,127,00*6D
$BDGSV,3,2,12,03,54,172,00,04,22,110,00,06,66,103,00,07,85,208,00*6C
$BDGSV,3,3,12,09,76,015,00,16,71,095,00,17,67,145,00,19,13,319,00*6C
$B3CN0,0,0,0,0,0,0,0,0,0,0,0,0,0,0*4C
$GNGGA,032838.400,2930.5738,N,10626.7444,E,1,06,1.7,329.6,M,,,,0000*18
$GNRMC,032838.400,A,2930.5738,N,10626.7444,E,0.67,174.75,120319,,*13
$GPGSA,A,3,03,26,31,,,,,,,,,,2.1,1.7,1.2*31
$BDGSA,A,3,02,05,10,,,,,,,,,,2.1,1.7,1.2*23
$GLGSA,A,3,,,,,,,,,,,,,2.1,1.7,1.2*28
$GPGSV,2,1,08,03,27,309,47,31,58,000,36,26,60,201,37,01,01,264,00*72
$GPGSV,2,2,08,16,27,204,00,22,39,288,00,25,16,039,00,32,53,098,00*71
$BDGSV,3,1,12,02,46,219,35,05,27,245,41,10,62,222,35,01,39,127,00*6D
$BDGSV,3,2,12,03,54,172,00,04,22,110,00,06,66,103,00,07,85,208,00*6C
$BDGSV,3,3,12,09,76,015,00,16,71,095,00,17,67,145,00,19,13,319,00*6C
$B3CN0,0,0,0,0,0,0,0,0,0,0,0,0,0,0*4C
$GNGGA,032838.500,2930.5737,N,10626.7442,E,1,06,1.7,329.8,M,,,,0000*1E
$GNRMC,032838.500,A,2930.5737,N,10626.7442,E,1.41,174.75,120319,,*1E
$GPGSA,A,3,03,26,31,,,,,,,,,,2.1,1.7,1.2*31
$BDGSA,A,3,02,05,10,,,,,,,,,,2.1,1.7,1.2*23
$GLGSA,A,3,,,,,,,,,,,,,2.1,1.7,1.2*28
$GPGSV,2,1,08,03,27,309,47,31,58,000,36,26,60,201,37,01,01,264,00*72
$GPGSV,2,2,08,16,27,204,00,22,39,288,00,25,16,039,00,32,53,098,00*71
$BDGSV,3,1,12,02,46,219,35,05,27,245,41,10,62,222,35,01,39,127,00*6D
$BDGSV,3,2,12,03,54,172,00,04,22,110,00,06,66,103,00,07,85,208,00*6C
$BDGSV,3,3,12,09,76,015,00,16,71,095,00,17,67,145,00,19,13,319,00*6C
$B3CN0,0,0,0,0,0,0,0,0,0,0,0,0,0,0*4C
$GNGGA,032838.600,2930.5737,N,10626.7440,E,1,06,1.7,330.0,M,,,,0000*1F
$GNRMC,032838.600,A,2930.5737,N,10626.7440,E,2.13,348.48,120319,,*18
$GPGSA,A,3,03,26,31,,,,,,,,,,2.1,1.7,1.2*31
$BDGSA,A,3,02,05,10,,,,,,,,,,2.1,1.7,1.2*23
$GLGSA,A,3,,,,,,,,,,,,,2.1,1.7,1.2*28
$GPGSV,2,1,08,03,27,309,47,31,58,000,36,26,60,201,37,01,01,264,00*72
$GPGSV,2,2,08,16,27,204,00,22,39,288,00,25,16,039,00,32,53,098,00*71
$BDGSV,3,1,12,02,46,219,35,05,27,245,41,10,62,222,35,01,39,127,00*6D
$BDGSV,3,2,12,03,54,172,00,04,22,110,00,06,66,103,00,07,85,208,00*6C
$BDGSV,3,3,12,09,76,015,00,16,71,095,00,17,67,145,00,19,13,319,00*6C
$B3CN0,0,0,0,0,0,0,0,0,0,0,0,0,0,0*4C
$GNGGA,032838.700,2930.5737,N,10626.7439,E,1,06,1.7,330.0,M,,,,0000*10
$GNRMC,032838.700,A,2930.5737,N,10626.7439,E,2.41,351.40,120319,,*10
$GPGSA,A,3,03,26,31,,,,,,,,,,2.1,1.7,1.2*31
$BDGSA,A,3,02,05,10,,,,,,,,,,2.1,1.7,1.2*23
$GLGSA,A,3,,,,,,,,,,,,,2.1,1.7,1.2*28
$GPGSV,2,1,08,03,27,309,47,31,58,000,36,26,60,201,37,01,01,264,00*72
$GPGSV,2,2,08,16,27,204,00,22,39,288,00,25,16,039,00,32,53,098,00*71
$BDGSV,3,1,12,02,46,219,35,05,27,245,41,10,62,222,35,01,39,127,00*6D
$BDGSV,3,2,12,03,54,172,00,04,22,110,00,06,66,103,00,07,85,208,00*6C
$BDGSV,3,3,12,09,76,015,00,16,71,095,00,17,67,145,00,19,13,319,00*6C
$B3CN0,0,0,0,0,0,0,0,0,0,0,0,0,0,0*4C
$GNGGA,032838.800,2930.5736,N,10626.7437,E,1,06,1.7,330.1,M,,,,0000*11
$GNRMC,032838.800,A,2930.5736,N,10626.7437,E,2.11,345.29,120319,,*1F
$GPGSA,A,3,03,26,31,,,,,,,,,,2.1,1.7,1.2*31
$BDGSA,A,3,02,05,10,,,,,,,,,,2.1,1.7,1.2*23
$GLGSA,A,3,,,,,,,,,,,,,2.1,1.7,1.2*28
$GPGSV,2,1,08,03,27,309,47,31,58,000,36,26,60,201,37,01,01,264,00*72
$GPGSV,2,2,08,16,27,204,00,22,39,288,00,25,16,039,00,32,53,098,00*71
$BDGSV,3,1,12,02,46,219,35,05,27,245,41,10,62,222,35,01,39,127,00*6D
$BDGSV,3,2,12,03,54,172,00,04,22,110,00,06,66,103,00,07,85,208,00*6C
$BDGSV,3,3,12,09,76,015,00,16,71,095,00,17,67,145,00,19,13,319,00*6C
$B3CN0,0,0,0,0,0,0,0,0,0,0,0,0,0,0*4C
$GNGGA,032838.900,2930.5736,N,10626.7435,E,1,06,1.7,330.1,M,,,,0000*12
$GNRMC,032838.900,A,2930.5736,N,10626.7435,E,1.46,345.29,120319,,*1D
$GPGSA,A,3,03,26,31,,,,,,,,,,2.1,1.7,1.2*31
$BDGSA,A,3,02,05,10,,,,,,,,,,2.1,1.7,1.2*23
$GLGSA,A,3,,,,,,,,,,,,,2.1,1.7,1.2*28
$GPGSV,2,1,08,03,27,309,47,31,58,000,37,26,60,201,37,01,01,264,00*73
$GPGSV,2,2,08,16,27,204,00,22,39,288,00,25,16,039,00,32,53,098,00*71
$BDGSV,3,1,12,02,46,219,36,05,27,245,41,10,62,222,34,01,39,127,00*6F
$BDGSV,3,2,12,03,54,172,00,04,22,110,00,06,66,103,00,07,85,208,00*6C
$BDGSV,3,3,12,09,76,015,00,16,71,095,00,17,67,145,00,19,13,319,00*6C
$B3CN0,0,0,0,0,0,0,0,0,0,0,0,0,0,0*4C
$GNGGA,032839.000,2930.5736,N,10626.7434,E,1,06,1.7,330.0,M,,,,0000*1A
$GNRMC,032839.000,A,2930.5736,N,10626.7434,E,0.76,345.29,120319,,*16
$GPGSA,A,3,03,26,31,,,,,,,,,,2.1,1.7,1.2*31
$BDGSA,A,3,02,05,10,,,,,,,,,,2.1,1.7,1.2*23
$GLGSA,A,3,,,,,,,,,,,,,2.1,1.7,1.2*28
$GPGSV,2,1,08,03,27,309,47,31,58,000,37,26,60,201,37,01,01,264,00*73
$GPGSV,2,2,08,16,27,204,00,22,39,288,00,25,16,039,00,32,53,098,00*71
$BDGSV,3,1,12,02,46,219,36,05,27,245,41,10,62,222,34,01,39,127,00*6F
$BDGSV,3,2,12,03,54,172,00,04,22,110,00,06,66,103,00,07,85,208,00*6C
$BDGSV,3,3,12,09,76,015,00,16,71,095,00,17,67,145,00,19,13,319,00*6C
$B3CN0,0,0,0,0,0,0,0,0,0,0,0,0,0,0*4C
$GNGGA,032839.100,2930.5736,N,10626.7432,E,1,06,1.7,330.3,M,,,,0000*1E
$GNRMC,032839.100,A,2930.5736,N,10626.7432,E,0.29,345.29,120319,,*1B
$GPGSA,A,3,03,26,31,,,,,,,,,,2.1,1.7,1.2*31
$BDGSA,A,3,02,05,10,,,,,,,,,,2.1,1.7,1.2*23
$GLGSA,A,3,,,,,,,,,,,,,2.1,1.7,1.2*28
$GPGSV,2,1,08,03,27,309,47,31,58,000,37,26,60,201,37,01,01,264,00*73
$GPGSV,2,2,08,16,27,204,00,22,39,288,00,25,16,039,00,32,53,098,00*71
$BDGSV,3,1,12,02,46,219,36,05,27,245,41,10,62,222,34,01,39,127,00*6F
$BDGSV,3,2,12,03,54,172,00,04,22,110,00,06,66,103,00,07,85,208,00*6C
$BDGSV,3,3,12,09,76,015,00,16,71,095,00,17,67,145,00,19,13,319,00*6C
$B3CN0,0,0,0,0,0,0,0,0,0,0,0,0,0,0*4C
$GNGGA,032839.200,2930.5737,N,10626.7429,E,1,06,1.7,330.4,M,,,,0000*11
$GNRMC,032839.200,A,2930.5737,N,10626.7429,E,0.38,345.29,120319,,*13
$GPGSA,A,3,03,26,31,,,,,,,,,,2.1,1.7,1.2*31
$BDGSA,A,3,02,05,10,,,,,,,,,,2.1,1.7,1.2*23
$GLGSA,A,3,,,,,,,,,,,,,2.1,1.7,1.2*28
$GPGSV,2,1,08,03,27,309,47,31,58,000,37,26,60,201,37,01,01,264,00*73
$GPGSV,2,2,08,16,27,204,00,22,39,288,00,25,16,039,00,32,53,098,00*71
$BDGSV,3,1,12,02,46,219,36,05,27,245,41,10,62,222,34,01,39,127,00*6F
$BDGSV,3,2,12,03,54,172,00,04,22,110,00,06,66,103,00,07,85,208,00*6C
$BDGSV,3,3,12,09,76,015,00,16,71,095,00,17,67,145,00,19,13,319,00*6C
$B3CN0,0,0,0,0,0,0,0,0,0,0,0,0,0,0*4C
$GNGGA,032839.300,2930.5736,N,10626.7427,E,1,06,1.7,330.5,M,,,,0000*1E
$GNRMC,032839.300,A,2930.5736,N,10626.7427,E,0.69,345.29,120319,,*19
$GPGSA,A,3,03,26,31,,,,,,,,,,2.1,1.7,1.2*31
$BDGSA,A,3,02,05,10,,,,,,,,,,2.1,1.7,1.2*23
$GLGSA,A,3,,,,,,,,,,,,,2.1,1.7,1.2*28
$GPGSV,2,1,08,03,27,309,47,31,58,000,37,26,60,201,37,01,01,264,00*73
$GPGSV,2,2,08,16,27,204,00,22,39,288,00,25,16,039,00,32,53,098,00*71
$BDGSV,3,1,12,02,46,219,36,05,27,245,41,10,62,222,34,01,39,127,00*6F
$BDGSV,3,2,12,03,54,172,00,04,22,110,00,06,66,103,00,07,85,208,00*6C
$BDGSV,3,3,12,09,76,015,00,16,71,095,00,17,67,145,00,19,13,319,00*6C
$B3CN0,0,0,0,0,0,0,0,0,0,0,0,0,0,0*4C
$GNGGA,032839.400,2930.5736,N,10626.7424,E,1,06,1.7,330.7,M,,,,0000*18
$GNRMC,032839.400,A,2930.5736,N,10626.7424,E,0.88,345.29,120319,,*12
$GPGSA,A,3,03,26,31,,,,,,,,,,2.1,1.7,1.2*31
$BDGSA,A,3,02,05,10,,,,,,,,,,2.1,1.7,1.2*23
$GLGSA,A,3,,,,,,,,,,,,,2.1,1.7,1.2*28
