$GNRMC,034810.900,A,2930.5719,N,10626.7080,E,1.11,0.00,270799,,*17
$GPGSA,A,3,03,16,26,,,,,,,,,,2.4,1.5,1.8*39
$BDGSA,A,3,04,05,,,,,,,,,,,2.4,1.5,1.8*29
$GLGSA,A,3,,,,,,,,,,,,,2.4,1.5,1.8*25
$GPGSV,1,1,04,03,31,301,47,16,37,208,41,26,70,208,37,14,62,086,00*73
$BDGSV,1,1,04,05,27,244,42,04,22,110,36,02,00,000,33,28,00,111,00*60
$B3CN0,0,0,0,0,0,0,0,0,0,0,0,0,0,0*4C
$GNGGA,034811.000,2930.5719,N,10626.7080,E,1,05,1.5,406.7,M,,,,0000*14
$GNRMC,034811.000,A,2930.5719,N,10626.7080,E,1.00,0.00,270799,,*1F
$GPGSA,A,3,03,16,26,,,,,,,,,,2.4,1.5,1.8*39
$BDGSA,A,3,04,05,,,,,,,,,,,2.4,1.5,1.8*29
$GLGSA,A,3,,,,,,,,,,,,,2.4,1.5,1.8*25
$GPGSV,1,1,04,03,31,301,47,16,37,208,41,26,70,208,37,14,62,086,00*73
$BDGSV,1,1,04,05,27,244,42,04,22,110,36,02,00,000,33,28,00,111,00*60
$B3CN0,0,0,0,0,0,0,0,0,0,0,0,0,0,0*4C
$GNGGA,034811.100,2930.5718,N,10626.7081,E,1,05,1.5,406.6,M,,,,0000*14
$GNRMC,034811.100,A,2930.5718,N,10626.7081,E,0.66,0.00,270799,,*1F
$GPGSA,A,3,03,16,26,,,,,,,,,,2.4,1.5,1.8*39
$BDGSA,A,3,04,05,,,,,,,,,,,2.4,1.5,1.8*29
$GLGSA,A,3,,,,,,,,,,,,,2.4,1.5,1.8*25
$GPGSV,1,1,04,03,31,301,47,16,37,208,41,26,70,208,37,14,62,086,00*73
$BDGSV,1,1,04,05,27,244,42,04,22,110,36,02,00,000,33,28,00,111,00*60
$B3CN0,0,0,0,0,0,0,0,0,0,0,0,0,0,0*4C
$GNGGA,034811.200,2930.5718,N,10626.7081,E,1,05,1.5,406.6,M,,,,0000*17
$GNRMC,034811.200,A,2930.5718,N,10626.7081,E,0.49,0.00,270799,,*11
$GPGSA,A,3,03,16,26,,,,,,,,,,2.4,1.5,1.8*39
$BDGSA,A,3,04,05,,,,,,,,,,,2.4,1.5,1.8*29
$GLGSA,A,3,,,,,,,,,,,,,2.4,1.5,1.8*25
$GPGSV,1,1,04,03,31,301,47,16,37,208,41,26,70,208,37,14,62,086,00*73
$BDGSV,1,1,04,05,27,244,42,04,22,110,36,02,00,000,33,28,00,111,00*60
$B3CN0,0,0,0,0,0,0,0,0,0,0,0,0,0,0*4C
$GNGGA,034811.300,2930.5717,N,10626.7081,E,1,05,1.5,406.5,M,,,,0000*1A
$GNRMC,034811.300,A,2930.5717,N,10626.7081,E,0.46,0.00,270799,,*10
$GPGSA,A,3,03,16,26,,,,,,,,,,2.4,1.5,1.8*39
$BDGSA,A,3,04,05,,,,,,,,,,,2.4,1.5,1.8*29
$GLGSA,A,3,,,,,,,,,,,,,2.4,1.5,1.8*25
$GPGSV,1,1,04,03,31,301,47,16,37,208,41,26,70,208,37,14,62,086,00*73
$BDGSV,1,1,04,05,27,244,42,04,22,110,36,02,00,000,33,28,00,111,00*60
$B3CN0,0,0,0,0,0,0,0,0,0,0,0,0,0,0*4C
$GNGGA,034811.400,2930.5716,N,10626.7081,E,1,05,1.5,406.5,M,,,,0000*1C
$GNRMC,034811.400,A,2930.5716,N,10626.7081,E,0.42,0.00,270799,,*12
$GPGSA,A,3,03,16,26,,,,,,,,,,2.4,1.5,1.8*39
$BDGSA,A,3,04,05,,,,,,,,,,,2.4,1.5,1.8*29
$GLGSA,A,3,,,,,,,,,,,,,2.4,1.5,1.8*25
$GPGSV,1,1,04,03,31,301,47,16,37,208,41,26,70,208,37,14,62,086,00*73
$BDGSV,1,1,04,05,27,244,42,04,22,110,36,02,00,000,33,28,00,111,00*60
$B3CN0,0,0,0,0,0,0,0,0,0,0,0,0,0,0*4C
$GNGGA,034811.500,2930.5716,N,10626.7081,E,1,05,1.5,406.4,M,,,,0000*1C
$GNRMC,034811.500,A,2930.5716,N,10626.7081,E,0.52,0.00,270799,,*12
$GPGSA,A,3,03,16,26,,,,,,,,,,2.4,1.5,1.8*39
$BDGSA,A,3,04,05,,,,,,,,,,,2.4,1.5,1.8*29
$GLGSA,A,3,,,,,,,,,,,,,2.4,1.5,1.8*25
$GPGSV,2,1,05,03,31,301,47,16,37,208,40,26,70,208,37,32,00,000,38*75
$GPGSV,2,2,05,14,62,086,00*43
$BDGSV,1,1,04,05,27,244,41,04,22,110,36,02,00,000,33,28,00,111,00*63
$B3CN0,0,0,0,0,0,0,0,0,0,0,0,0,0,0*4C
$GNGGA,034811.600,2930.5715,N,10626.7081,E,1,05,1.5,406.2,M,,,,0000*1A
$GNRMC,034811.600,A,2930.5715,N,10626.7081,E,0.43,0.00,270799,,*12
$GPGSA,A,3,03,16,26,,,,,,,,,,2.4,1.5,1.8*39
$BDGSA,A,3,04,05,,,,,,,,,,,2.4,1.5,1.8*29
$GLGSA,A,3,,,,,,,,,,,,,2.4,1.5,1.8*25
$GPGSV,2,1,05,03,31,301,47,16,37,208,40,26,70,208,37,32,00,000,38*75
$GPGSV,2,2,05,14,62,086,00*43
$BDGSV,1,1,04,05,27,244,41,04,22,110,36,02,00,000,33,28,00,111,00*63
$B3CN0,0,0,0,0,0,0,0,0,0,0,0,0,0,0*4C
$GNGGA,034811.700,2930.5714,N,10626.7081,E,1,05,1.5,406.1,M,,,,0000*19
$GNRMC,034811.700,A,2930.5714,N,10626.7081,E,0.43,0.00,270799,,*12
$GPGSA,A,3,03,16,26,,,,,,,,,,2.4,1.5,1.8*39
$BDGSA,A,3,04,05,,,,,,,,,,,2.4,1.5,1.8*29
$GLGSA,A,3,,,,,,,,,,,,,2.4,1.5,1.8*25
$GPGSV,2,1,05,03,31,301,47,16,37,208,40,26,70,208,37,32,00,000,38*75
$GPGSV,2,2,05,14,62,086,00*43
$BDGSV,1,1,04,05,27,244,41,04,22,110,36,02,00,000,33,28,00,111,00*63
$B3CN0,0,0,0,0,0,0,0,0,0,0,0,0,0,0*4C
$GNGGA,034811.800,2930.5714,N,10626.7081,E,1,05,1.5,406.0,M,,,,0000*17
$GNRMC,034811.800,A,2930.5714,N,10626.7081,E,0.44,0.00,270799,,*1A
$GPGSA,A,3,03,16,26,,,,,,,,,,2.4,1.5,1.8*39
$BDGSA,A,3,04,05,,,,,,,,,,,2.4,1.5,1.8*29
$GLGSA,A,3,,,,,,,,,,,,,2.4,1.5,1.8*25
$GPGSV,2,1,05,03,31,301,47,16,37,208,40,26,70,208,37,32,00,000,38*75
$GPGSV,2,2,05,14,62,086,00*43
$BDGSV,1,1,04,05,27,244,41,04,22,110,36,02,00,000,33,28,00,111,00*63
$B3CN0,0,0,0,0,0,0,0,0,0,0,0,0,0,0*4C
$GNGGA,034811.900,2930.5713,N,10626.7081,E,1,05,1.5,405.9,M,,,,0000*1B
$GNRMC,034811.900,A,2930.5713,N,10626.7081,E,0.58,0.00,270799,,*11
$GPGSA,A,3,03,16,26,,,,,,,,,,2.4,1.5,1.8*39
$BDGSA,A,3,04,05,,,,,,,,,,,2.4,1.5,1.8*29
$GLGSA,A,3,,,,,,,,,,,,,2.4,1.5,1.8*25
$GPGSV,2,1,05,03,31,301,47,16,37,208,40,26,70,208,37,32,00,000,38*75
$GPGSV,2,2,05,14,62,086,00*43
$BDGSV,1,1,04,05,27,244,41,04,22,110,36,02,00,000,33,28,00,111,00*63
$B3CN0,0,0,0,0,0,0,0,0,0,0,0,0,0,0*4C
$GNGGA,034812.000,2930.5713,N,10626.7081,E,1,05,1.5,405.8,M,,,,0000*10
$GNRMC,034812.000,A,2930.5713,N,10626.7081,E,0.63,0.00,270799,,*13
$GPGSA,A,3,03,16,26,,,,,,,,,,2.4,1.5,1.8*39
$BDGSA,A,3,04,05,,,,,,,,,,,2.4,1.5,1.8*29
$GLGSA,A,3,,,,,,,,,,,,,2.4,1.5,1.8*25
$GPGSV,2,1,05,03,31,301,47,16,37,208,40,26,70,208,37,32,00,000,38*75
$GPGSV,2,2,05,14,62,086,00*43
$BDGSV,1,1,04,05,27,244,41,04,22,110,36,02,00,000,33,28,00,111,00*63
$B3CN0,0,0,0,0,0,0,0,0,0,0,0,0,0,0*4C
$GNGGA,034812.100,2930.5712,N,10626.7081,E,1,05,1.5,405.7,M,,,,0000*1F
$GNRMC,034812.100,A,2930.5712,N,10626.7081,E,0.75,0.00,270799,,*14
$GPGSA,A,3,03,16,26,,,,,,,,,,2.4,1.5,1.8*39
$BDGSA,A,3,04,05,,,,,,,,,,,2.4,1.5,1.8*29
$GLGSA,A,3,,,,,,,,,,,,,2.4,1.5,1.8*25
$GPGSV,2,1,05,03,31,301,47,16,37,208,40,26,70,208,37,32,00,000,38*75
$GPGSV,2,2,05,14,62,086,00*43
$BDGSV,1,1,04,05,27,244,41,04,22,110,36,02,00,000,33,28,00,111,00*63
$B3CN0,0,0,0,0,0,0,0,0,0,0,0,0,0,0*4C
$GNGGA,034812.200,2930.5711,N,10626.7081,E,1,05,1.5,405.5,M,,,,0000*1D
$GNRMC,034812.200,A,2930.5711,N,10626.7081,E,0.73,0.00,270799,,*12
$GPGSA,A,3,03,16,26,,,,,,,,,,2.4,1.5,1.8*39
$BDGSA,A,3,04,05,,,,,,,,,,,2.4,1.5,1.8*29
$GLGSA,A,3,,,,,,,,,,,,,2.4,1.5,1.8*25
$GPGSV,2,1,05,03,31,301,47,16,37,208,40,26,70,208,37,32,00,000,38*75
$GPGSV,2,2,05,14,62,086,00*43
$BDGSV,1,1,04,05,27,244,41,04,22,110,36,02,00,000,33,28,00,111,00*63
$B3CN0,0,0,0,0,0,0,0,0,0,0,0,0,0,0*4C
$GNGGA,034812.300,2930.5711,N,10626.7081,E,1,05,1.5,405.3,M,,,,0000*1A
$GNRMC,034812.300,A,2930.5711,N,10626.7081,E,0.60,0.00,270799,,*11
$GPGSA,A,3,03,16,26,,,,,,,,,,2.4,1.5,1.8*39
$BDGSA,A,3,04,05,,,,,,,,,,,2.4,1.5,1.8*29
$GLGSA,A,3,,,,,,,,,,,,,2.4,1.5,1.8*25
$GPGSV,2,1,05,03,31,301,47,16,37,208,40,26,70,208,37,32,00,000,38*75
$GPGSV,2,2,05,14,62,086,00*43
$BDGSV,1,1,04,05,27,244,41,04,22,110,36,02,00,000,33,28,00,111,00*63
$B3CN0,0,0,0,0,0,0,0,0,0,0,0,0,0,0*4C
$GNGGA,034812.400,2930.5711,N,10626.7080,E,1,05,1.5,405.0,M,,,,0000*1F
$GNRMC,034812.400,A,2930.5711,N,10626.7080,E,0.71,0.00,270799,,*17
$GPGSA,A,3,03,16,26,,,,,,,,,,2.4,1.5,1.8*39
$BDGSA,A,3,04,05,,,,,,,,,,,2.4,1.5,1.8*29
$GLGSA,A,3,,,,,,,,,,,,,2.4,1.5,1.8*25
$GPGSV,2,1,05,03,31,301,47,16,37,208,40,26,70,208,37,32,00,000,38*75
$GPGSV,2,2,05,14,62,086,00*43
$BDGSV,1,1,04,05,27,244,41,04,22,110,36,02,00,000,33,28,00,111,00*63
$B3CN0,0,0,0,0,0,0,0,0,0,0,0,0,0,0*4C
$GNGGA,034812.500,2930.5710,N,10626.7080,E,1,05,1.5,404.7,M,,,,0000*19
$GNRMC,034812.500,A,2930.5710,N,10626.7080,E,0.61,0.00,270799,,*16
$GPGSA,A,3,03,16,26,,,,,,,,,,2.4,1.5,1.8*39
$BDGSA,A,3,04,05,,,,,,,,,,,2.4,1.5,1.8*29
$GLGSA,A,3,,,,,,,,,,,,,2.4,1.5,1.8*25
$GPGSV,2,1,05,03,31,301,47,16,37,208,39,26,70,208,38,32,00,000,39*75
$GPGSV,2,2,05,14,62,086,00*43
$BDGSV,2,1,05,05,27,244,42,04,22,110,36,02,00,000,35,10,00,000,37*6A
$BDGSV,2,2,05,28,00,111,00*56
$B3CN0,0,0,0,0,0,0,0,0,0,0,0,0,0,0*4C
$GNGGA,034812.600,2930.5710,N,10626.7080,E,1,05,1.5,404.4,M,,,,0000*19
$GNRMC,034812.600,A,2930.5710,N,10626.7080,E,0.65,0.00,270799,,*11
$GPGSA,A,3,03,16,26,,,,,,,,,,2.4,1.5,1.8*39
$BDGSA,A,3,04,05,,,,,,,,,,,2.4,1.5,1.8*29
$GLGSA,A,3,,,,,,,,,,,,,2.4,1.5,1.8*25
$GPGSV,2,1,05,03,31,301,47,16,37,208,39,26,70,208,38,32,00,000,39*75
$GPGSV,2,2,05,14,62,086,00*43
$BDGSV,2,1,05,05,27,244,42,04,22,110,36,02,00,000,35,10,00,000,37*6A
$BDGSV,2,2,05,28,00,111,00*56
$B3CN0,0,0,0,0,0,0,0,0,0,0,0,0,0,0*4C
$GNGGA,034812.700,2930.5709,N,10626.7080,E,1,05,1.5,404.0,M,,,,0000*14
$GNRMC,034812.700,A,2930.5709,N,10626.7080,E,0.63,0.00,270799,,*1E
$GPGSA,A,3,03,16,26,,,,,,,,,,2.4,1.5,1.8*39
$BDGSA,A,3,04,05,,,,,,,,,,,2.4,1.5,1.8*29
$GLGSA,A,3,,,,,,,,,,,,,2.4,1.5,1.8*25
$GPGSV,2,1,05,03,31,301,47,16,37,208,39,26,70,208,38,32,00,000,39*75
$GPGSV,2,2,05,14,62,086,00*43
$BDGSV,2,1,05,05,27,244,42,04,22,110,36,02,00,000,35,10,00,000,37*6A
$BDGSV,2,2,05,28,00,111,00*56
$B3CN0,0,0,0,0,0,0,0,0,0,0,0,0,0,0*4C
$GNGGA,034812.800,2930.5708,N,10626.7079,E,1,05,1.5,403.7,M,,,,0000*1C
$GNRMC,034812.800,A,2930.5708,N,10626.7079,E,0.80,0.00,270799,,*1B
$GPGSA,A,3,03,16,26,,,,,,,,,,2.4,1.5,1.8*39
$BDGSA,A,3,04,05,,,,,,,,,,,2.4,1.5,1.8*29
$GLGSA,A,3,,,,,,,,,,,,,2.4,1.5,1.8*25
$GPGSV,2,1,05,03,31,301,47,16,37,208,39,26,70,208,38,32,00,000,39*75
$GPGSV,2,2,05,14,62,086,00*43
$BDGSV,2,1,05,05,27,244,42,04,22,110,36,02,00,000,35,10,00,000,37*6A
$BDGSV,2,2,05,28,00,111,00*56
$B3CN0,0,0,0,0,0,0,0,0,0,0,0,0,0,0*4C
$GNGGA,034812.900,2930.5708,N,10626.7079,E,1,05,1.5,403.3,M,,,,0000*19
$GNRMC,034812.900,A,2930.5708,N,10626.7079,E,0.60,0.00,270799,,*14
$GPGSA,A,3,03,16,26,,,,,,,,,,2.4,1.5,1.8*39
$BDGSA,A,3,04,05,,,,,,,,,,,2.4,1.5,1.8*29
$GLGSA,A,3,,,,,,,,,,,,,2.4,1.5,1.8*25
$GPGSV,2,1,05,03,31,301,47,16,37,208,39,26,70,208,38,32,00,000,39*75
$GPGSV,2,2,05,14,62,086,00*43
$BDGSV,2,1,05,05,27,244,42,04,22,110,36,02,00,000,35,10,00,000,37*6A
$BDGSV,2,2,05,28,00,111,00*56
$B3CN0,0,0,0,0,0,0,0,0,0,0,0,0,0,0*4C
$GNGGA,034813.000,2930.5707,N,10626.7079,E,1,05,1.5,402.9,M,,,,0000*15
$GNRMC,034813.000,A,2930.5707,N,10626.7079,E,0.47,0.00,270799,,*16
$GPGSA,A,3,03,16,26,,,,,,,,,,2.4,1.5,1.8*39
$BDGSA,A,3,04,05,,,,,,,,,,,2.4,1.5,1.8*29
$GLGSA,A,3,,,,,,,,,,,,,2.4,1.5,1.8*25
$GPGSV,2,1,05,03,31,301,47,16,37,208,39,26,70,208,38,32,00,000,39*75
$GPGSV,2,2,05,14,62,086,00*43
$BDGSV,2,1,05,05,27,244,42,04,22,110,36,02,00,000,35,10,00,000,37*6A
$BDGSV,2,2,05,28,00,111,00*56
$B3CN0,0,0,0,0,0,0,0,0,0,0,0,0,0,0*4C
$GNGGA,034813.100,2930.5706,N,10626.7078,E,1,05,1.5,402.6,M,,,,0000*1B
$GNRMC,034813.100,A,2930.5706,N,10626.7078,E,0.56,0.00,270799,,*17
$GPGSA,A,3,03,16,26,,,,,,,,,,2.4,1.5,1.8*39
$BDGSA,A,3,04,05,,,,,,,,,,,2.4,1.5,1.8*29
$GLGSA,A,3,,,,,,,,,,,,,2.4,1.5,1.8*25
$GPGSV,2,1,05,03,31,301,47,16,37,208,39,26,70,208,38,32,00,000,39*75
$GPGSV,2,2,05,14,62,086,00*43
$BDGSV,2,1,05,05,27,244,42,04,22,110,36,02,00,000,35,10,00,000,37*6A
$BDGSV,2,2,05,28,00,111,00*56
$B3CN0,0,0,0,0,0,0,0,0,0,0,0,0,0,0*4C
$GNGGA,034813.200,2930.5706,N,10626.7078,E,1,05,1.5,402.2,M,,,,0000*1C
$GNRMC,034813.200,A,2930.5706,N,10626.7078,E,0.74,0.00,270799,,*14
$GPGSA,A,3,03,16,26,,,,,,,,,,2.4,1.5,1.8*39
$BDGSA,A,3,04,05,,,,,,,,,,,2.4,1.5,1.8*29
$GLGSA,A,3,,,,,,,,,,,,,2.4,1.5,1.8*25
$GPGSV,2,1,05,03,31,301,47,16,37,208,39,26,70,208,38,32,00,000,39*75
$GPGSV,2,2,05,14,62,086,00*43
$BDGSV,2,1,05,05,27,244,42,04,22,110,36,02,00,000,35,10,00,000,37*6A
$BDGSV,2,2,05,28,00,111,00*56
$B3CN0,0,0,0,0,0,0,0,0,0,0,0,0,0,0*4C
$GNGGA,034813.300,2930.5705,N,10626.7078,E,1,05,1.5,401.9,M,,,,0000*16
$GNRMC,034813.300,A,2930.5705,N,10626.7078,E,0.80,0.00,270799,,*1D
$GPGSA,A,3,03,16,26,,,,,,,,,,2.4,1.5,1.8*39
$BDGSA,A,3,04,05,,,,,,,,,,,2.4,1.5,1.8*29
$GLGSA,A,3,,,,,,,,,,,,,2.4,1.5,1.8*25
$GPGSV,2,1,05,03,31,301,47,16,37,208,39,26,70,208,38,32,00,000,39*75
$GPGSV,2,2,05,14,62,086,00*43
$BDGSV,2,1,05,05,27,244,42,04,22,110,36,02,00,000,35,10,00,000,37*6A
$BDGSV,2,2,05,28,00,111,00*56
$B3CN0,0,0,0,0,0,0,0,0,0,0,0,0,0,0*4C
$GNGGA,034813.400,2930.5705,N,10626.7077,E,1,05,1.5,401.5,M,,,,0000*12
$GNRMC,034813.400,A,2930.5705,N,10626.7077,E,0.69,0.00,270799,,*12
$GPGSA,A,3,03,16,26,,,,,,,,,,2.4,1.5,1.8*39
$BDGSA,A,3,04,05,,,,,,,,,,,2.4,1.5,1.8*29
$GLGSA,A,3,,,,,,,,,,,,,2.4,1.5,1.8*25
$GPGSV,2,1,05,03,31,301,47,16,37,208,39,26,70,208,38,32,00,000,39*75
$GPGSV,2,2,05,14,62,086,00*43
$BDGSV,2,1,05,05,27,244,42,04,22,110,36,02,00,000,35,10,00,000,37*6A
$BDGSV,2,2,05,28,00,111,00*56
$B3CN0,0,0,0,0,0,0,0,0,0,0,0,0,0,0*4C
$GNGGA,034813.500,2930.5704,N,10626.7077,E,1,05,1.5,401.1,M,,,,0000*16
$GNRMC,034813.500,A,2930.5704,N,10626.7077,E,0.65,0.00,270799,,*1E
$GPGSA,A,3,03,16,26,,,,,,,,,,2.4,1.5,1.8*39
$BDGSA,A,3,04,05,,,,,,,,,,,2.4,1.5,1.8*29
$GLGSA,A,3,,,,,,,,,,,,,2.4,1.5,1.8*25
$GPGSV,2,1,05,03,31,301,47,16,37,208,39,26,70,208,38,32,00,000,38*74
$GPGSV,2,2,05,14,62,086,00*43
$BDGSV,2,1,05,05,27,244,41,04,22,110,35,02,00,000,34,10,00,000,38*64
$BDGSV,2,2,05,28,00,111,00*56
$B3CN0,0,0,0,0,0,0,0,0,0,0,0,0,0,0*4C
$GNGGA,034813.600,2930.5704,N,10626.7076,E,1,05,1.5,400.6,M,,,,0000*12
$GNRMC,034813.600,A,2930.5704,N,10626.7076,E,0.29,0.00,270799,,*14
$GPGSA,A,3,03,16,26,,,,,,,,,,2.4,1.5,1.8*39
$BDGSA,A,3,04,05,,,,,,,,,,,2.4,1.5,1.8*29
$GLGSA,A,3,,,,,,,,,,,,,2.4,1.5,1.8*25
$GPGSV,2,1,05,03,31,301,47,16,37,208,39,26,70,208,38,32,00,000,38*74
$GPGSV,2,2,05,14,62,086,00*43
$BDGSV,2,1,05,05,27,244,41,04,22,110,35,02,00,000,34,10,00,000,38*64
$BDGSV,2,2,05,28,00,111,00*56
$B3CN0,0,0,0,0,0,0,0,0,0,0,0,0,0,0*4C
$GNGGA,034813.700,2930.5703,N,10626.7076,E,1,05,1.5,400.2,M,,,,0000*10
$GNRMC,034813.700,A,2930.5703,N,10626.7076,E,0.19,0.00,270799,,*11
$GPGSA,A,3,03,16,26,,,,,,,,,,2.4,1.5,1.8*39
$BDGSA,A,3,04,05,,,,,,,,,,,2.4,1.5,1.8*29
$GLGSA,A,3,,,,,,,,,,,,,2.4,1.5,1.8*25
$GPGSV,2,1,05,03,31,301,47,16,37,208,39,26,70,208,38,32,00,000,38*74
$GPGSV,2,2,05,14,62,086,00*43
$BDGSV,2,1,05,05,27,244,41,04,22,110,35,02,00,000,34,10,00,000,38*64
$BDGSV,2,2,05,28,00,111,00*56
$B3CN0,0,0,0,0,0,0,0,0,0,0,0,0,0,0*4C
$GNGGA,034813.800,2930.5703,N,10626.7075,E,1,05,1.5,399.8,M,,,,0000*11
$GNRMC,034813.800,A,2930.5703,N,10626.7075,E,0.39,0.00,270799,,*1F
$GPGSA,A,3,03,16,26,,,,,,,,,,2.4,1.5,1.8*39
$BDGSA,A,3,04,05,,,,,,,,,,,2.4,1.5,1.8*29
$GLGSA,A,3,,,,,,,,,,,,,2.4,1.5,1.8*25
$GPGSV,2,1,05,03,31,301,47,16,37,208,39,26,70,208,38,32,00,000,38*74
$GPGSV,2,2,05,14,62,086,00*43
$BDGSV,2,1,05,05,27,244,41,04,22,110,35,02,00,000,34,10,00,000,38*64
$BDGSV,2,2,05,28,00,111,00*56
$B3CN0,0,0,0,0,0,0,0,0,0,0,0,0,0,0*4C
$GNGGA,034813.900,2930.5702,N,10626.7075,E,1,05,1.5,399.4,M,,,,0000*1D
$GNRMC,034813.900,A,2930.5702,N,10626.7075,E,0.46,0.00,270799,,*17
$GPGSA,A,3,03,16,26,,,,,,,,,,2.4,1.5,1.8*39
$BDGSA,A,3,04,05,,,,,,,,,,,2.4,1.5,1.8*29
$GLGSA,A,3,,,,,,,,,,,,,2.4,1.5,1.8*25
$GPGSV,2,1,05,03,31,301,47,16,37,208,39,26,70,208,38,32,00,000,38*74
$GPGSV,2,2,05,14,62,086,00*43
$BDGSV,2,1,05,05,27,244,41,04,22,110,35,02,00,000,34,10,00,000,38*64
$BDGSV,2,2,05,28,00,111,00*56
$B3CN0,0,0,0,0,0,0,0,0,0,0,0,0,0,0*4C
$GNGGA,034814.000,2930.5702,N,10626.7074,E,1,05,1.5,399.0,M,,,,0000*16
$GNRMC,034814.000,A,2930.5702,N,10626.7074,E,0.35,0.00,270799,,*1C
$GPGSA,A,3,03,16,26,,,,,,,,,,2.4,1.5,1.8*39
$BDGSA,A,3,04,05,,,,,,,,,,,2.4,1.5,1.8*29
$GLGSA,A,3,,,,,,,,,,,,,2.4,1.5,1.8*25
$GPGSV,2,1,05,03,31,301,47,16,37,208,39,26,70,208,38,32,00,000,38*74
$GPGSV,2,2,05,14,62,086,00*43
$BDGSV,2,1,05,05,27,244,41,04,22,110,35,02,00,000,34,10,00,000,38*64
$BDGSV,2,2,05,28,00,111,00*56
$B3CN0,0,0,0,0,0,0,0,0,0,0,0,0,0,0*4C
$GNGGA,034814.100,2930.5702,N,10626.7073,E,1,05,1.5,398.6,M,,,,0000*17
$GNRMC,034814.100,A,2930.5702,N,10626.7073,E,0.35,0.00,270799,,*1A
$GPGSA,A,3,03,16,26,,,,,,,,,,2.4,1.5,1.8*39
$BDGSA,A,3,04,05,,,,,,,,,,,2.4,1.5,1.8*29
$GLGSA,A,3,,,,,,,,,,,,,2.4,1.5,1.8*25
$GPGSV,2,1,05,03,31,301,47,16,37,208,39,26,70,208,38,32,00,000,38*74
$GPGSV,2,2,05,14,62,086,00*43
$BDGSV,2,1,05,05,27,244,41,04,22,110,35,02,00,000,34,10,00,000,38*64
$BDGSV,2,2,05,28,00,111,00*56
$B3CN0,0,0,0,0,0,0,0,0,0,0,0,0,0,0*4C
$GNGGA,034814.200,2930.5701,N,10626.7073,E,1,05,1.5,398.2,M,,,,0000*13
$GNRMC,034814.200,A,2930.5701,N,10626.7073,E,0.41,0.00,270799,,*19
$GPGSA,A,3,03,16,26,,,,,,,,,,2.4,1.5,1.8*39
$BDGSA,A,3,04,05,,,,,,,,,,,2.4,1.5,1.8*29
$GLGSA,A,3,,,,,,,,,,,,,2.4,1.5,1.8*25
$GPGSV,2,1,05,03,31,301,47,16,37,208,39,26,70,208,38,32,00,000,38*74
$GPGSV,2,2,05,14,62,086,00*43
$BDGSV,2,1,05,05,27,244,41,04,22,110,35,02,00,000,34,10,00,000,38*64
$BDGSV,2,2,05,28,00,111,00*56
$B3CN0,0,0,0,0,0,0,0,0,0,0,0,0,0,0*4C
$GNGGA,034814.300,2930.5700,N,10626.7072,E,1,05,1.5,397.8,M,,,,0000*17
$GNRMC,034814.300,A,2930.5700,N,10626.7072,E,0.15,0.00,270799,,*19
$GPGSA,A,3,03,16,26,,,,,,,,,,2.4,1.5,1.8*39
$BDGSA,A,3,04,05,,,,,,,,,,,2.4,1.5,1.8*29
$GLGSA,A,3,,,,,,,,,,,,,2.4,1.5,1.8*25
$GPGSV,2,1,05,03,31,301,47,16,37,208,39,26,70,208,38,32,00,000,38*74
$GPGSV,2,2,05,14,62,086,00*43
$BDGSV,2,1,05,05,27,244,41,04,22,110,35,02,00,000,34,10,00,000,38*64
$BDGSV,2,2,05,28,00,111,00*56
$B3CN0,0,0,0,0,0,0,0,0,0,0,0,0,0,0*4C
$GNGGA,034814.400,2930.5699,N,10626.7072,E,1,05,1.5,397.3,M,,,,0000*1A
$GNRMC,034814.400,A,2930.5699,N,10626.7072,E,0.06,0.00,270799,,*1D
$GPGSA,A,3,03,16,26,,,,,,,,,,2.4,1.5,1.8*39
$BDGSA,A,3,04,05,,,,,,,,,,,2.4,1.5,1.8*29
$GLGSA,A,3,,,,,,,,,,,,,2.4,1.5,1.8*25
$GPGSV,2,1,05,03,31,301,47,16,37,208,39,26,70,208,38,32,00,000,38*74
$GPGSV,2,2,05,14,62,086,00*43
$BDGSV,2,1,05,05,27,244,41,04,22,110,35,02,00,000,34,10,00,000,38*64
$BDGSV,2,2,05,28,00,111,00*56
$B3CN0,0,0,0,0,0,0,0,0,0,0,0,0,0,0*4C
$GNGGA,034814.500,2930.5699,N,10626.7071,E,1,05,1.5,396.8,M,,,,0000*12
$GNRMC,034814.500,A,2930.5699,N,10626.7071,E,0.24,0.00,270799,,*1F
$GPGSA,A,3,03,16,26,,,,,,,,,,2.4,1.5,1.8*39
$BDGSA,A,3,04,05,,,,,,,,,,,2.4,1.5,1.8*29
$GLGSA,A,3,,,,,,,,,,,,,2.4,1.5,1.8*25
$GPGSV,2,1,05,03,31,301,48,16,37,208,40,26,70,208,38,32,00,000,39*74
$GPGSV,2,2,05,14,62,086,00*43
$BDGSV,2,1,05,05,27,244,41,04,22,110,36,02,00,000,35,10,00,000,37*69
$BDGSV,2,2,05,28,00,111,00*56
$B3CN0,0,0,0,0,0,0,0,0,0,0,0,0,0,0*4C
$GNGGA,034814.600,2930.5698,N,10626.7071,E,1,05,1.5,396.4,M,,,,0000*1C
$GNRMC,034814.600,A,2930.5698,N,10626.7071,E,0.15,0.00,270799,,*1F
$GPGSA,A,3,03,16,26,,,,,,,,,,2.4,1.5,1.8*39
$BDGSA,A,3,04,05,,,,,,,,,,,2.4,1.5,1.8*29
$GLGSA,A,3,,,,,,,,,,,,,2.4,1.5,1.8*25
$GPGSV,2,1,05,03,31,301,48,16,37,208,40,26,70,208,38,32,00,000,39*74
$GPGSV,2,2,05,14,62,086,00*43
$BDGSV,2,1,05,05,27,244,41,04,22,110,36,02,00,000,35,10,00,000,37*69
$BDGSV,2,2,05,28,00,111,00*56
$B3CN0,0,0,0,0,0,0,0,0,0,0,0,0,0,0*4C
$GNGGA,034814.700,2930.5697,N,10626.7070,E,1,05,1.5,395.9,M,,,,0000*1D
$GNRMC,034814.700,A,2930.5697,N,10626.7070,E,0.26,0.00,270799,,*10
$GPGSA,A,3,03,16,26,,,,,,,,,,2.4,1.5,1.8*39
$BDGSA,A,3,04,05,,,,,,,,,,,2.4,1.5,1.8*29
$GLGSA,A,3,,,,,,,,,,,,,2.4,1.5,1.8*25
$GPGSV,2,1,05,03,31,301,48,16,37,208,40,26,70,208,38,32,00,000,39*74
$GPGSV,2,2,05,14,62,086,00*43
$BDGSV,2,1,05,05,27,244,41,04,22,110,36,02,00,000,35,10,00,000,37*69
$BDGSV,2,2,05,28,00,111,00*56
$B3CN0,0,0,0,0,0,0,0,0,0,0,0,0,0,0*4C
$GNGGA,034814.800,2930.5696,N,10626.7070,E,1,05,1.5,395.4,M,,,,0000*1E
$GNRMC,034814.800,A,2930.5696,N,10626.7070,E,0.25,0.00,270799,,*1D
$GPGSA,A,3,03,16,26,,,,,,,,,,2.4,1.5,1.8*39
$BDGSA,A,3,04,05,,,,,,,,,,,2.4,1.5,1.8*29
$GLGSA,A,3,,,,,,,,,,,,,2.4,1.5,1.8*25
$GPGSV,2,1,05,03,31,301,48,16,37,208,40,26,70,208,38,32,00,000,39*74
$GPGSV,2,2,05,14,62,086,00*43
$BDGSV,2,1,05,05,27,244,41,04,22,110,36,02,00,000,35,10,00,000,37*69
$BDGSV,2,2,05,28,00,111,00*56
$B3CN0,0,0,0,0,0,0,0,0,0,0,0,0,0,0*4C
$GNGGA,034814.900,2930.5695,N,10626.7069,E,1,05,1.5,395.0,M,,,,0000*10
$GNRMC,034814.900,A,2930.5695,N,10626.7069,E,0.28,0.00,270799,,*1A
$GPGSA,A,3,03,16,26,,,,,,,,,,2.4,1.5,1.8*39
$BDGSA,A,3,04,05,,,,,,,,,,,2.4,1.5,1.8*29
$GLGSA,A,3,,,,,,,,,,,,,2.4,1.5,1.8*25
$GPGSV,2,1,05,03,31,301,48,16,37,208,40,26,70,208,38,32,00,000,39*74
$GPGSV,2,2,05,14,62,086,00*43
$BDGSV,2,1,05,05,27,244,41,04,22,110,36,02,00,000,35,10,00,000,37*69
$BDGSV,2,2,05,28,00,111,00*56
$B3CN0,0,0,0,0,0,0,0,0,0,0,0,0,0,0*4C
$GNGGA,034815.000,2930.5694,N,10626.7069,E,1,05,1.5,394.5,M,,,,0000*1D
$GNRMC,034815.000,A,2930.5694,N,10626.7069,E,0.46,0.00,270799,,*1B
$GPGSA,A,3,03,16,26,,,,,,,,,,2.4,1.5,1.8*39
$BDGSA,A,3,04,05,,,,,,,,,,,2.4,1.5,1.8*29
$GLGSA,A,3,,,,,,,,,,,,,2.4,1.5,1.8*25
$GPGSV,2,1,05,03,31,301,48,16,37,208,40,26,70,208,38,32,00,000,39*74
$GPGSV,2,2,05,14,62,086,00*43
$BDGSV,2,1,05,05,27,244,41,04,22,110,36,02,00,000,35,10,00,000,37*69
$BDGSV,2,2,05,28,00,111,00*56
$B3CN0,0,0,0,0,0,0,0,0,0,0,0,0,0,0*4C
$GNGGA,034815.100,2930.5693,N,10626.7068,E,1,05,1.5,394.0,M,,,,0000*1F
$GNRMC,034815.100,A,2930.5693,N,10626.7068,E,0.48,0.00,270799,,*12
$GPGSA,A,3,03,16,26,,,,,,,,,,2.4,1.5,1.8*39
$BDGSA,A,3,04,05,,,,,,,,,,,2.4,1.5,1.8*29
$GLGSA,A,3,,,,,,,,,,,,,2.4,1.5,1.8*25
$GPGSV,2,1,05,03,31,301,48,16,37,208,40,26,70,208,38,32,00,000,39*74
$GPGSV,2,2,05,14,62,086,00*43
$BDGSV,2,1,05,05,27,244,41,04,22,110,36,02,00,000,35,10,00,000,37*69
$BDGSV,2,2,05,28,00,111,00*56
$B3CN0,0,0,0,0,0,0,0,0,0,0,0,0,0,0*4C
$GNGGA,034815.200,2930.5692,N,10626.7068,E,1,05,1.5,393.4,M,,,,0000*1E
$GNRMC,034815.200,A,2930.5692,N,10626.7068,E,0.39,0.00,270799,,*16
$GPGSA,A,3,03,16,26,,,,,,,,,,2.4,1.5,1.8*39
$BDGSA,A,3,04,05,,,,,,,,,,,2.4,1.5,1.8*29
$GLGSA,A,3,,,,,,,,,,,,,2.4,1.5,1.8*25
$GPGSV,2,1,05,03,31,301,48,16,37,208,40,26,70,208,38,32,00,000,39*74
$GPGSV,2,2,05,14,62,086,00*43
$BDGSV,2,1,05,05,27,244,41,04,22,110,36,02,00,000,35,10,00,000,37*69
$BDGSV,2,2,05,28,00,111,00*56
$B3CN0,0,0,0,0,0,0,0,0,0,0,0,0,0,0*4C
$GNGGA,034815.300,2930.5691,N,10626.7067,E,1,05,1.5,392.9,M,,,,0000*1F
$GNRMC,034815.300,A,2930.5691,N,10626.7067,E,0.21,0.00,270799,,*12
$GPGSA,A,3,03,16,26,,,,,,,,,,2.4,1.5,1.8*39
$BDGSA,A,3,04,05,,,,,,,,,,,2.4,1.5,1.8*29
$GLGSA,A,3,,,,,,,,,,,,,2.4,1.5,1.8*25
$GPGSV,2,1,05,03,31,301,48,16,37,208,40,26,70,208,38,32,00,000,39*74
$GPGSV,2,2,05,14,62,086,00*43
$BDGSV,2,1,05,05,27,244,41,04,22,110,36,02,00,000,35,10,00,000,37*69
$BDGSV,2,2,05,28,00,111,00*56
$B3CN0,0,0,0,0,0,0,0,0,0,0,0,0,0,0*4C
$GNGGA,034815.400,2930.5690,N,10626.7067,E,1,05,1.5,392.2,M,,,,0000*12
$GNRMC,034815.400,A,2930.5690,N,10626.7067,E,0.35,0.00,270799,,*11
$GPGSA,A,3,03,16,26,,,,,,,,,,2.4,1.5,1.8*39
$BDGSA,A,3,04,05,,,,,,,,,,,2.4,1.5,1.8*29
$GLGSA,A,3,,,,,,,,,,,,,2.4,1.5,1.8*25
$GPGSV,2,1,05,03,31,301,48,16,37,208,40,26,70,208,38,32,00,000,39*74
$GPGSV,2,2,05,14,62,086,00*43
$BDGSV,2,1,05,05,27,244,41,04,22,110,36,02,00,000,35,10,00,000,37*69
$BDGSV,2,2,05,28,00,111,00*56
$B3CN0,0,0,0,0,0,0,0,0,0,0,0,0,0,0*4C
$GNGGA,034815.500,2930.5689,N,10626.7066,E,1,05,1.5,391.7,M,,,,0000*1C
$GNRMC,034815.500,A,2930.5689,N,10626.7066,E,0.39,0.00,270799,,*15
$GPGSA,A,3,03,16,26,,,,,,,,,,2.4,1.5,1.8*39
$BDGSA,A,3,04,05,,,,,,,,,,,2.4,1.5,1.8*29
$GLGSA,A,3,,,,,,,,,,,,,2.4,1.5,1.8*25
$GPGSV,2,1,05,03,31,301,48,16,37,208,40,26,70,208,38,32,00,000,39*74
$GPGSV,2,2,05,14,62,086,00*43
$BDGSV,2,1,05,05,27,244,42,04,22,110,36,02,00,000,33,10,00,000,38*63
$BDGSV,2,2,05,28,00,111,00*56
$B3CN0,0,0,0,0,0,0,0,0,0,0,0,0,0,0*4C
$GNGGA,034815.600,2930.5687,N,10626.7066,E,1,05,1.5,391.2,M,,,,0000*14
$GNRMC,034815.600,A,2930.5687,N,10626.7066,E,0.50,0.00,270799,,*17
$GPGSA,A,3,03,16,26,,,,,,,,,,2.4,1.5,1.8*39
$BDGSA,A,3,04,05,,,,,,,,,,,2.4,1.5,1.8*29
$GLGSA,A,3,,,,,,,,,,,,,2.4,1.5,1.8*25
$GPGSV,2,1,05,03,31,301,48,16,37,208,40,26,70,208,38,32,00,000,39*74
$GPGSV,2,2,05,14,62,086,00*43
$BDGSV,2,1,05,05,27,244,42,04,22,110,36,02,00,000,33,10,00,000,38*63
$BDGSV,2,2,05,28,00,111,00*56
$B3CN0,0,0,0,0,0,0,0,0,0,0,0,0,0,0*4C
$GNGGA,034815.700,2930.5686,N,10626.7065,E,1,05,1.5,390.6,M,,,,0000*12
$GNRMC,034815.700,A,2930.5686,N,10626.7065,E,0.53,0.00,270799,,*17
$GPGSA,A,3,03,16,26,,,,,,,,,,2.4,1.5,1.8*39
$BDGSA,A,3,04,05,,,,,,,,,,,2.4,1.5,1.8*29
$GLGSA,A,3,,,,,,,,,,,,,2.4,1.5,1.8*25
$GPGSV,2,1,05,03,31,301,48,16,37,208,40,26,70,208,38,32,00,000,39*74
$GPGSV,2,2,05,14,62,086,00*43
$BDGSV,2,1,05,05,27,244,42,04,22,110,36,02,00,000,33,10,00,000,38*63
$BDGSV,2,2,05,28,00,111,00*56
$B3CN0,0,0,0,0,0,0,0,0,0,0,0,0,0,0*4C
$GNGGA,034815.800,2930.5685,N,10626.7065,E,1,05,1.5,390.1,M,,,,0000*19
$GNRMC,034815.800,A,2930.5685,N,10626.7065,E,0.78,0.00,270799,,*12
$GPGSA,A,3,03,16,26,,,,,,,,,,2.4,1.5,1.8*39
$BDGSA,A,3,04,05,,,,,,,,,,,2.4,1.5,1.8*29
$GLGSA,A,3,,,,,,,,,,,,,2.4,1.5,1.8*25
$GPGSV,2,1,05,03,31,301,48,16,37,208,40,26,70,208,38,32,00,000,39*74
$GPGSV,2,2,05,14,62,086,00*43
$BDGSV,2,1,05,05,27,244,42,04,22,110,36,02,00,000,33,10,00,000,38*63
$BDGSV,2,2,05,28,00,111,00*56
$B3CN0,0,0,0,0,0,0,0,0,0,0,0,0,0,0*4C
$GNGGA,034815.900,2930.5684,N,10626.7064,E,1,05,1.5,389.3,M,,,,0000*12
$GNRMC,034815.900,A,2930.5684,N,10626.7064,E,0.97,0.00,270799,,*12
$GPGSA,A,3,03,16,26,,,,,,,,,,2.4,1.5,1.8*39
$BDGSA,A,3,04,05,,,,,,,,,,,2.4,1.5,1.8*29
$GLGSA,A,3,,,,,,,,,,,,,2.4,1.5,1.8*25
$GPGSV,2,1,05,03,31,301,48,16,37,208,40,26,70,208,38,32,00,000,39*74
$GPGSV,2,2,05,14,62,086,00*43
$BDGSV,2,1,05,05,27,244,42,04,22,110,36,02,00,000,33,10,00,000,38*63
$BDGSV,2,2,05,28,00,111,00*56
$B3CN0,0,0,0,0,0,0,0,0,0,0,0,0,0,0*4C
$GNGGA,034816.000,2930.5682,N,10626.7063,E,1,05,1.5,388.5,M,,,,0000*1E
$GNRMC,034816.000,A,2930.5682,N,10626.7063,E,0.67,0.00,270799,,*16
$GPGSA,A,3,03,16,26,,,,,,,,,,2.4,1.5,1.8*39
$BDGSA,A,3,04,05,,,,,,,,,,,2.4,1.5,1.8*29
$GLGSA,A,3,,,,,,,,,,,,,2.4,1.5,1.8*25
$GPGSV,2,1,05,03,31,301,48,16,37,208,40,26,70,208,38,32,00,000,39*74
$GPGSV,2,2,05,14,62,086,00*43
$BDGSV,2,1,05,05,27,244,42,04,22,110,36,02,00,000,33,10,00,000,38*63
$BDGSV,2,2,05,28,00,111,00*56
$B3CN0,0,0,0,0,0,0,0,0,0,0,0,0,0,0*4C
$GNGGA,034816.100,2930.5681,N,10626.7063,E,1,05,1.5,387.8,M,,,,0000*1E
$GNRMC,034816.100,A,2930.5681,N,10626.7063,E,0.46,0.00,270799,,*17
$GPGSA,A,3,03,16,26,,,,,,,,,,2.4,1.5,1.8*39
$BDGSA,A,3,04,05,,,,,,,,,,,2.4,1.5,1.8*29
$GLGSA,A,3,,,,,,,,,,,,,2.4,1.5,1.8*25
$GPGSV,2,1,05,03,31,301,48,16,37,208,40,26,70,208,38,32,00,000,39*74
$GPGSV,2,2,05,14,62,086,00*43
$BDGSV,2,1,05,05,27,244,42,04,22,110,36,02,00,000,33,10,00,000,38*63
$BDGSV,2,2,05,28,00,111,00*56
$B3CN0,0,0,0,0,0,0,0,0,0,0,0,0,0,0*4C
$GNGGA,034816.200,2930.5680,N,10626.7062,E,1,05,1.5,387.0,M,,,,0000*15
$GNRMC,034816.200,A,2930.5680,N,10626.7062,E,0.36,0.00,270799,,*13
$GPGSA,A,3,03,16,26,,,,,,,,,,2.4,1.5,1.8*39
$BDGSA,A,3,04,05,,,,,,,,,,,2.4,1.5,1.8*29
$GLGSA,A,3,,,,,,,,,,,,,2.4,1.5,1.8*25
$GPGSV,2,1,05,03,31,301,48,16,37,208,40,26,70,208,38,32,00,000,39*74
$GPGSV,2,2,05,14,62,086,00*43
$BDGSV,2,1,05,05,27,244,42,04,22,110,36,02,00,000,33,10,00,000,38*63
$BDGSV,2,2,05,28,00,111,00*56
$B3CN0,0,0,0,0,0,0,0,0,0,0,0,0,0,0*4C
$GNGGA,034816.300,2930.5678,N,10626.7062,E,1,05,1.5,386.5,M,,,,0000*17
$GNRMC,034816.300,A,2930.5678,N,10626.7062,E,0.40,0.00,270799,,*14
$GPGSA,A,3,03,16,26,,,,,,,,,,2.4,1.5,1.8*39
$BDGSA,A,3,04,05,,,,,,,,,,,2.4,1.5,1.8*29
$GLGSA,A,3,,,,,,,,,,,,,2.4,1.5,1.8*25
$GPGSV,2,1,05,03,31,301,48,16,37,208,40,26,70,208,38,32,00,000,39*74
$GPGSV,2,2,05,14,62,086,00*43
$BDGSV,2,1,05,05,27,244,42,04,22,110,36,02,00,000,33,10,00,000,38*63
$BDGSV,2,2,05,28,00,111,00*56
$B3CN0,0,0,0,0,0,0,0,0,0,0,0,0,0,0*4C
$GNGGA,034816.400,2930.5677,N,10626.7062,E,1,05,1.5,385.9,M,,,,0000*10
$GNRMC,034816.400,A,2930.5677,N,10626.7062,E,0.25,0.00,270799,,*1F
$GPGSA,A,3,03,16,26,,,,,,,,,,2.4,1.5,1.8*39
$BDGSA,A,3,04,05,,,,,,,,,,,2.4,1.5,1.8*29
$GLGSA,A,3,,,,,,,,,,,,,2.4,1.5,1.8*25
$GPGSV,2,1,05,03,31,301,48,16,37,208,40,26,70,208,38,32,00,000,39*74
$GPGSV,2,2,05,14,62,086,00*43
$BDGSV,2,1,05,05,27,244,42,04,22,110,36,02,00,000,33,10,00,000,38*63
$BDGSV,2,2,05,28,00,111,00*56
$B3CN0,0,0,0,0,0,0,0,0,0,0,0,0,0,0*4C
$GNGGA,034816.500,2930.5676,N,10626.7061,E,1,05,1.5,385.4,M,,,,0000*1E
$GNRMC,034816.500,A,2930.5676,N,10626.7061,E,0.17,0.00,270799,,*1D
$GPGSA,A,3,03,16,26,,,,,,,,,,2.4,1.5,1.8*39
$BDGSA,A,3,04,05,,,,,,,,,,,2.4,1.5,1.8*29
$GLGSA,A,3,,,,,,,,,,,,,2.4,1.5,1.8*25
$GPGSV,2,1,05,03,31,301,48,16,37,208,39,26,70,208,39,32,00,000,39*7B
$GPGSV,2,2,05,14,62,086,00*43
$BDGSV,2,1,05,05,27,244,42,04,22,110,35,02,00,000,33,10,00,000,37*6F
$BDGSV,2,2,05,28,00,111,00*56
$B3CN0,0,0,0,0,0,0,0,0,0,0,0,0,0,0*4C
$GNGGA,034816.600,2930.5675,N,10626.7061,E,1,05,1.5,384.9,M,,,,0000*12
$GNRMC,034816.600,A,2930.5675,N,10626.7061,E,0.24,0.00,270799,,*1D
$GPGSA,A,3,03,16,26,,,,,,,,,,2.4,1.5,1.8*39
$BDGSA,A,3,04,05,,,,,,,,,,,2.4,1.5,1.8*29
$GLGSA,A,3,,,,,,,,,,,,,2.4,1.5,1.8*25
$GPGSV,2,1,05,03,31,301,48,16,37,208,39,26,70,208,39,32,00,000,39*7B
$GPGSV,2,2,05,14,62,086,00*43
$BDGSV,2,1,05,05,27,244,42,04,22,110,35,02,00,000,33,10,00,000,37*6F
$BDGSV,2,2,05,28,00,111,00*56
$B3CN0,0,0,0,0,0,0,0,0,0,0,0,0,0,0*4C
$GNGGA,034816.700,2930.5674,N,10626.7060,E,1,05,1.5,384.2,M,,,,0000*18
$GNRMC,034816.700,A,2930.5674,N,10626.7060,E,0.24,0.00,270799,,*1C
$GPGSA,A,3,03,16,26,,,,,,,,,,2.4,1.5,1.8*39
$BDGSA,A,3,04,05,,,,,,,,,,,2.4,1.5,1.8*29
$GLGSA,A,3,,,,,,,,,,,,,2.4,1.5,1.8*25
$GPGSV,2,1,05,03,31,301,48,16,37,208,39,26,70,208,39,32,00,000,39*7B
$GPGSV,2,2,05,14,62,086,00*43
$BDGSV,2,1,05,05,27,244,42,04,22,110,35,02,00,000,33,10,00,000,37*6F
$BDGSV,2,2,05,28,00,111,00*56
$B3CN0,0,0,0,0,0,0,0,0,0,0,0,0,0,0*4C
$GNGGA,034816.800,2930.5673,N,10626.7060,E,1,05,1.5,383.5,M,,,,0000*10
$GNRMC,034816.800,A,2930.5673,N,10626.7060,E,0.34,0.00,270799,,*15
$GPGSA,A,3,03,16,26,,,,,,,,,,2.4,1.5,1.8*39
$BDGSA,A,3,04,05,,,,,,,,,,,2.4,1.5,1.8*29
$GLGSA,A,3,,,,,,,,,,,,,2.4,1.5,1.8*25
$GPGSV,2,1,05,03,31,301,48,16,37,208,39,26,70,208,39,32,00,000,39*7B
$GPGSV,2,2,05,14,62,086,00*43
$BDGSV,2,1,05,05,27,244,42,04,22,110,35,02,00,000,33,10,00,000,37*6F
$BDGSV,2,2,05,28,00,111,00*56
$B3CN0,0,0,0,0,0,0,0,0,0,0,0,0,0,0*4C
$GNGGA,034816.900,2930.5673,N,10626.7060,E,1,05,1.5,382.8,M,,,,0000*1D
$GNRMC,034816.900,A,2930.5673,N,10626.7060,E,0.33,0.00,270799,,*13
$GPGSA,A,3,03,16,26,,,,,,,,,,2.4,1.5,1.8*39
$BDGSA,A,3,04,05,,,,,,,,,,,2.4,1.5,1.8*29
$GLGSA,A,3,,,,,,,,,,,,,2.4,1.5,1.8*25
$GPGSV,2,1,05,03,31,301,48,16,37,208,39,26,70,208,39,32,00,000,39*7B
$GPGSV,2,2,05,14,62,086,00*43
$BDGSV,2,1,05,05,27,244,42,04,22,110,35,02,00,000,33,10,00,000,37*6F
$BDGSV,2,2,05,28,00,111,00*56
$B3CN0,0,0,0,0,0,0,0,0,0,0,0,0,0,0*4C
$GNGGA,034817.000,2930.5671,N,10626.7059,E,1,05,1.5,382.2,M,,,,0000*17
$GNRMC,034817.000,A,2930.5671,N,10626.7059,E,0.43,0.00,270799,,*14
$GPGSA,A,3,03,16,26,,,,,,,,,,2.4,1.5,1.8*39
$BDGSA,A,3,04,05,,,,,,,,,,,2.4,1.5,1.8*29
$GLGSA,A,3,,,,,,,,,,,,,2.4,1.5,1.8*25
$GPGSV,2,1,05,03,31,301,48,16,37,208,39,26,70,208,39,32,00,000,39*7B
$GPGSV,2,2,05,14,62,086,00*43
$BDGSV,2,1,05,05,27,244,42,04,22,110,35,02,00,000,33,10,00,000,37*6F
$BDGSV,2,2,05,28,00,111,00*56
$B3CN0,0,0,0,0,0,0,0,0,0,0,0,0,0,0*4C
$GNGGA,034817.100,2930.5670,N,10626.7058,E,1,05,1.5,381.5,M,,,,0000*12
$GNRMC,034817.100,A,2930.5670,N,10626.7058,E,0.44,0.00,270799,,*12
$GPGSA,A,3,03,16,26,,,,,,,,,,2.4,1.5,1.8*39
$BDGSA,A,3,04,05,,,,,,,,,,,2.4,1.5,1.8*29
$GLGSA,A,3,,,,,,,,,,,,,2.4,1.5,1.8*25
$GPGSV,2,1,05,03,31,301,48,16,37,208,39,26,70,208,39,32,00,000,39*7B
$GPGSV,2,2,05,14,62,086,00*43
$BDGSV,2,1,05,05,27,244,42,04,22,110,35,02,00,000,33,10,00,000,37*6F
$BDGSV,2,2,05,28,00,111,00*56
$B3CN0,0,0,0,0,0,0,0,0,0,0,0,0,0,0*4C
$GNGGA,034817.200,2930.5669,N,10626.7058,E,1,05,1.5,380.9,M,,,,0000*14
$GNRMC,034817.200,A,2930.5669,N,10626.7058,E,0.49,0.00,270799,,*14
$GPGSA,A,3,03,16,26,,,,,,,,,,2.4,1.5,1.8*39
$BDGSA,A,3,04,05,,,,,,,,,,,2.4,1.5,1.8*29
$GLGSA,A,3,,,,,,,,,,,,,2.4,1.5,1.8*25
$GPGSV,2,1,05,03,31,301,48,16,37,208,39,26,70,208,39,32,00,000,39*7B
$GPGSV,2,2,05,14,62,086,00*43
$BDGSV,2,1,05,05,27,244,42,04,22,110,35,02,00,000,33,10,00,000,37*6F
$BDGSV,2,2,05,28,00,111,00*56
$B3CN0,0,0,0,0,0,0,0,0,0,0,0,0,0,0*4C
$GNGGA,034817.300,2930.5668,N,10626.7057,E,1,05,1.5,380.3,M,,,,0000*11
$GNRMC,034817.300,A,2930.5668,N,10626.7057,E,0.71,0.00,270799,,*10
$GPGSA,A,3,03,16,26,,,,,,,,,,2.4,1.5,1.8*39
$BDGSA,A,3,04,05,,,,,,,,,,,2.4,1.5,1.8*29
$GLGSA,A,3,,,,,,,,,,,,,2.4,1.5,1.8*25
$GPGSV,2,1,05,03,31,301,48,16,37,208,39,26,70,208,39,32,00,000,39*7B
$GPGSV,2,2,05,14,62,086,00*43
$BDGSV,2,1,05,05,27,244,42,04,22,110,35,02,00,000,33,10,00,000,37*6F
$BDGSV,2,2,05,28,00,111,00*56
$B3CN0,0,0,0,0,0,0,0,0,0,0,0,0,0,0*4C
$GNGGA,034817.400,2930.5667,N,10626.7057,E,1,05,1.5,379.7,M,,,,0000*1B
$GNRMC,034817.400,A,2930.5667,N,10626.7057,E,0.61,0.00,270799,,*19
$GPGSA,A,3,03,16,26,,,,,,,,,,2.4,1.5,1.8*39
$BDGSA,A,3,04,05,,,,,,,,,,,2.4,1.5,1.8*29
$GLGSA,A,3,,,,,,,,,,,,,2.4,1.5,1.8*25
$GPGSV,2,1,05,03,31,301,48,16,37,208,39,26,70,208,39,32,00,000,39*7B
$GPGSV,2,2,05,14,62,086,00*43
$BDGSV,2,1,05,05,27,244,42,04,22,110,35,02,00,000,33,10,00,000,37*6F
$BDGSV,2,2,05,28,00,111,00*56
$B3CN0,0,0,0,0,0,0,0,0,0,0,0,0,0,0*4C
$GNGGA,034817.500,2930.5666,N,10626.7057,E,1,05,1.5,379.1,M,,,,0000*1D
$GNRMC,034817.500,A,2930.5666,N,10626.7057,E,0.63,0.00,270799,,*1B
$GPGSA,A,3,03,16,26,,,,,,,,,,2.4,1.5,1.8*39
$BDGSA,A,3,04,05,,,,,,,,,,,2.4,1.5,1.8*29
$GLGSA,A,3,,,,,,,,,,,,,2.4,1.5,1.8*25
$GPGSV,2,1,05,03,31,301,48,16,37,208,39,26,70,208,39,32,00,000,39*7B
$GPGSV,2,2,05,14,62,086,00*43
$BDGSV,2,1,05,05,27,244,41,04,22,110,35,02,00,000,33,10,00,000,38*63
$BDGSV,2,2,05,28,00,111,00*56
$B3CN0,0,0,0,0,0,0,0,0,0,0,0,0,0,0*4C
$GNGGA,034817.600,2930.5665,N,10626.7056,E,1,05,1.5,378.6,M,,,,0000*1A
$GNRMC,034817.600,A,2930.5665,N,10626.7056,E,1.01,0.00,270799,,*1F
$GPGSA,A,3,03,16,26,,,,,,,,,,2.4,1.5,1.8*39
$BDGSA,A,3,04,05,,,,,,,,,,,2.4,1.5,1.8*29
$GLGSA,A,3,,,,,,,,,,,,,2.4,1.5,1.8*25
$GPGSV,2,1,05,03,31,301,48,16,37,208,39,26,70,208,39,32,00,000,39*7B
$GPGSV,2,2,05,14,62,086,00*43
$BDGSV,2,1,05,05,27,244,41,04,22,110,35,02,00,000,33,10,00,000,38*63
$BDGSV,2,2,05,28,00,111,00*56
$B3CN0,0,0,0,0,0,0,0,0,0,0,0,0,0,0*4C
$GNGGA,034817.700,2930.5663,N,10626.7056,E,1,05,1.5,378.0,M,,,,0000*1B
$GNRMC,034817.700,A,2930.5663,N,10626.7056,E,0.97,0.00,270799,,*16
$GPGSA,A,3,03,16,26,,,,,,,,,,2.4,1.5,1.8*39
$BDGSA,A,3,04,05,,,,,,,,,,,2.4,1.5,1.8*29
$GLGSA,A,3,,,,,,,,,,,,,2.4,1.5,1.8*25
$GPGSV,2,1,05,03,31,301,48,16,37,208,39,26,70,208,39,32,00,000,39*7B
$GPGSV,2,2,05,14,62,086,00*43
$BDGSV,2,1,05,05,27,244,41,04,22,110,35,02,00,000,33,10,00,000,38*63
$BDGSV,2,2,05,28,00,111,00*56
$B3CN0,0,0,0,0,0,0,0,0,0,0,0,0,0,0*4C
$GNGGA,034817.800,2930.5662,N,10626.7056,E,1,05,1.5,377.5,M,,,,0000*1F
$GNRMC,034817.800,A,2930.5662,N,10626.7056,E,0.93,0.00,270799,,*1C
$GPGSA,A,3,03,16,26,,,,,,,,,,2.4,1.5,1.8*39
$BDGSA,A,3,04,05,,,,,,,,,,,2.4,1.5,1.8*29
$GLGSA,A,3,,,,,,,,,,,,,2.4,1.5,1.8*25
$GPGSV,2,1,05,03,31,301,48,16,37,208,39,26,70,208,39,32,00,000,39*7B
$GPGSV,2,2,05,14,62,086,00*43
$BDGSV,2,1,05,05,27,244,41,04,22,110,35,02,00,000,33,10,00,000,38*63
$BDGSV,2,2,05,28,00,111,00*56
$B3CN0,0,0,0,0,0,0,0,0,0,0,0,0,0,0*4C
$GNGGA,034817.900,2930.5660,N,10626.7056,E,1,05,1.5,377.1,M,,,,0000*18
$GNRMC,034817.900,A,2930.5660,N,10626.7056,E,0.81,0.00,270799,,*1C
$GPGSA,A,3,03,16,26,,,,,,,,,,2.4,1.5,1.8*39
$BDGSA,A,3,04,05,,,,,,,,,,,2.4,1.5,1.8*29
$GLGSA,A,3,,,,,,,,,,,,,2.4,1.5,1.8*25
$GPGSV,2,1,05,03,31,301,48,16,37,208,39,26,70,208,39,32,00,000,39*7B
$GPGSV,2,2,05,14,62,086,00*43
$BDGSV,2,1,05,05,27,244,41,04,22,110,35,02,00,000,33,10,00,000,38*63
$BDGSV,2,2,05,28,00,111,00*56
$B3CN0,0,0,0,0,0,0,0,0,0,0,0,0,0,0*4C
$GNGGA,034818.000,2930.5658,N,10626.7056,E,1,05,1.5,376.6,M,,,,0000*13
$GNRMC,034818.000,A,2930.5658,N,10626.7056,E,0.46,0.00,270799,,*1A
$GPGSA,A,3,03,16,26,,,,,,,,,,2.4,1.5,1.8*39
$BDGSA,A,3,04,05,,,,,,,,,,,2.4,1.5,1.8*29
$GLGSA,A,3,,,,,,,,,,,,,2.4,1.5,1.8*25
$GPGSV,2,1,05,03,31,301,48,16,37,208,39,26,70,208,39,32,00,000,39*7B
$GPGSV,2,2,05,14,62,086,00*43
$BDGSV,2,1,05,05,27,244,41,04,22,110,35,02,00,000,33,10,00,000,38*63
$BDGSV,2,2,05,28,00,111,00*56
$B3CN0,0,0,0,0,0,0,0,0,0,0,0,0,0,0*4C
--weeknum is--1020
--weeknum is--1020
--weeknum is--1020
--weeknum is--1020
$GNGGA,034818.100,2930.5657,N,10626.7056,E,1,05,1.5,376.1,M,,,,0000*1A
$GNRMC,034818.100,A,2930.5657,N,10626.7056,E,0.60,0.00,270799,,*10
$GPGSA,A,3,03,16,26,,,,,,,,,,2.4,1.5,1.8*39
$BDGSA,A,3,04,05,,,,,,,,,,,2.4,1.5,1.8*29
$GLGSA,A,3,,,,,,,,,,,,,2.4,1.5,1.8*25
$GPGSV,2,1,05,03,31,301,48,16,37,208,39,26,70,208,39,32,00,000,39*7B
$GPGSV,2,2,05,14,62,086,00*43
$BDGSV,2,1,05,05,27,244,41,04,22,110,35,02,00,000,33,10,00,000,38*63
$BDGSV,2,2,05,28,00,111,00*56
$B3CN0,0,0,0,0,0,0,0,0,0,0,0,0,0,0*4C
$GNGGA,034818.200,2930.5655,N,10626.7056,E,1,05,1.5,375.7,M,,,,0000*1E
$GNRMC,034818.200,A,2930.5655,N,10626.7056,E,0.58,0.00,270799,,*1A
$GPGSA,A,3,03,16,26,,,,,,,,,,2.4,1.5,1.8*39
$BDGSA,A,3,04,05,,,,,,,,,,,2.4,1.5,1.8*29
$GLGSA,A,3,,,,,,,,,,,,,2.4,1.5,1.8*25
$GPGSV,2,1,05,03,31,301,48,16,37,208,39,26,70,208,39,32,00,000,39*7B
$GPGSV,2,2,05,14,62,086,00*43
$BDGSV,2,1,05,05,27,244,41,04,22,110,35,02,00,000,33,10,00,000,38*63
$BDGSV,2,2,05,28,00,111,00*56
$B3CN0,0,0,0,0,0,0,0,0,0,0,0,0,0,0*4C
$GNGGA,034818.300,2930.5654,N,10626.7056,E,1,05,1.5,375.2,M,,,,0000*1B
$GNRMC,034818.300,A,2930.5654,N,10626.7056,E,0.51,0.00,270799,,*13
$GPGSA,A,3,03,16,26,,,,,,,,,,2.4,1.5,1.8*39
$BDGSA,A,3,04,05,,,,,,,,,,,2.4,1.5,1.8*29
$GLGSA,A,3,,,,,,,,,,,,,2.4,1.5,1.8*25
$GPGSV,2,1,05,03,31,301,48,16,37,208,39,26,70,208,39,32,00,000,39*7B
$GPGSV,2,2,05,14,62,086,00*43
$BDGSV,2,1,05,05,27,244,41,04,22,110,35,02,00,000,33,10,00,000,38*63
$BDGSV,2,2,05,28,00,111,00*56
$B3CN0,0,0,0,0,0,0,0,0,0,0,0,0,0,0*4C
$GNGGA,034818.400,2930.5652,N,10626.7056,E,1,05,1.5,374.8,M,,,,0000*11
$GNRMC,034818.400,A,2930.5652,N,10626.7056,E,0.40,0.00,270799,,*12
$GPGSA,A,3,03,16,26,,,,,,,,,,2.4,1.5,1.8*39
$BDGSA,A,3,04,05,,,,,,,,,,,2.4,1.5,1.8*29
$GLGSA,A,3,,,,,,,,,,,,,2.4,1.5,1.8*25
$GPGSV,2,1,05,03,31,301,48,16,37,208,39,26,70,208,39,32,00,000,39*7B
$GPGSV,2,2,05,14,62,086,00*43
$BDGSV,2,1,05,05,27,244,41,04,22,110,35,02,00,000,33,10,00,000,38*63
$BDGSV,2,2,05,28,00,111,00*56
$B3CN0,0,0,0,0,0,0,0,0,0,0,0,0,0,0*4C
$GNGGA,034818.500,2930.5650,N,10626.7056,E,1,05,1.5,374.4,M,,,,0000*1E
$GNRMC,034818.500,A,2930.5650,N,10626.7056,E,0.41,0.00,270799,,*10
$GPGSA,A,3,03,16,26,,,,,,,,,,2.4,1.5,1.8*39
$BDGSA,A,3,04,05,,,,,,,,,,,2.4,1.5,1.8*29
$GLGSA,A,3,,,,,,,,,,,,,2.4,1.5,1.8*25
$GPGSV,2,1,05,03,31,301,48,16,37,208,40,26,70,208,38,32,00,000,38*75
$GPGSV,2,2,05,14,62,086,00*43
$BDGSV,2,1,05,05,27,244,40,04,22,110,35,02,00,000,34,10,00,000,38*65
$BDGSV,2,2,05,28,00,111,00*56
$B3CN0,0,0,0,0,0,0,0,0,0,0,0,0,0,0*4C
$GNGGA,034818.600,2930.5648,N,10626.7056,E,1,05,1.5,373.9,M,,,,0000*1E
$GNRMC,034818.600,A,2930.5648,N,10626.7056,E,0.49,0.00,270799,,*12
$GPGSA,A,3,03,16,26,,,,,,,,,,2.4,1.5,1.8*39
$BDGSA,A,3,04,05,,,,,,,,,,,2.4,1.5,1.8*29
$GLGSA,A,3,,,,,,,,,,,,,2.4,1.5,1.8*25
$GPGSV,2,1,05,03,31,301,48,16,37,208,40,26,70,208,38,32,00,000,38*75
$GPGSV,2,2,05,14,62,086,00*43
$BDGSV,2,1,05,05,27,244,40,04,22,110,35,02,00,000,34,10,00,000,38*65
$BDGSV,2,2,05,28,00,111,00*56
$B3CN0,0,0,0,0,0,0,0,0,0,0,0,0,0,0*4C
$GNGGA,034818.700,2930.5646,N,10626.7056,E,1,05,1.5,373.5,M,,,,0000*1D
$GNRMC,034818.700,A,2930.5646,N,10626.7056,E,0.34,0.00,270799,,*17
$GPGSA,A,3,03,16,26,,,,,,,,,,2.4,1.5,1.8*39
$BDGSA,A,3,04,05,,,,,,,,,,,2.4,1.5,1.8*29
$GLGSA,A,3,,,,,,,,,,,,,2.4,1.5,1.8*25
$GPGSV,2,1,05,03,31,301,48,16,37,208,40,26,70,208,38,32,00,000,38*75
$GPGSV,2,2,05,14,62,086,00*43
$BDGSV,2,1,05,05,27,244,40,04,22,110,35,02,00,000,34,10,00,000,38*65
$BDGSV,2,2,05,28,00,111,00*56
$B3CN0,0,0,0,0,0,0,0,0,0,0,0,0,0,0*4C
$GNGGA,034818.800,2930.5644,N,10626.7056,E,1,05,1.5,373.1,M,,,,0000*14
$GNRMC,034818.800,A,2930.5644,N,10626.7056,E,0.19,0.00,270799,,*15
$GPGSA,A,3,03,16,26,,,,,,,,,,2.4,1.5,1.8*39
$BDGSA,A,3,04,05,,,,,,,,,,,2.4,1.5,1.8*29
$GLGSA,A,3,,,,,,,,,,,,,2.4,1.5,1.8*25
$GPGSV,2,1,05,03,31,301,48,16,37,208,40,26,70,208,38,32,00,000,38*75
$GPGSV,2,2,05,14,62,086,00*43
$BDGSV,2,1,05,05,27,244,40,04,22,110,35,02,00,000,34,10,00,000,38*65
$BDGSV,2,2,05,28,00,111,00*56
$B3CN0,0,0,0,0,0,0,0,0,0,0,0,0,0,0*4C
$GNGGA,034818.900,2930.5642,N,10626.7056,E,1,05,1.5,37C.6,M,,,,0000*15
$GNRMC,034818.900,A,2930.5642,N,10626.7056,E,0.31,0.00,270799,,*18
$GPGSA,A,3,03,16,26,,,,,,,,,,2.4,1.5,1.8*39
$BDGSA,A,3,04,05,,,,,,,,,,,2.4,1.5,1.8*29
$GLGSA,A,3,,,,,,,,,,,,,2.4,1.5,1.8*25
$GPGSV,2,1,05,03,31,301,48,16,37,208,40,26,70,208,38,32,00,000,38*75
$GPGSV,2,2,05,14,62,086,00*43
$BDGSV,2,1,05,05,27,244,40,04,22,110,35,02,00,000,34,10,00,000,38*65
$BDGSV,2,2,05,28,00,111,00*56
$B3CN0,0,0,0,0,0,0,0,0,0,0,0,0,0,0*4C
$GNGGA,034819.000,2930.5641,N,10626.7056,E,1,05,1.5,372.2,M,,,,0000*1A
$GNRMC,034819.000,A,2930.5641,N,10626.7056,E,0.39,0.00,270799,,*1B
$GPGSA,A,3,03,16,26,,,,,,,,,,2.4,1.5,1.8*39
$BDGSA,A,3,04,05,,,,,,,,,,,2.4,1.5,1.8*29
$GLGSA,A,3,,,,,,,,,,,,,2.4,1.5,1.8*25
$GPGSV,2,1,05,03,31,301,48,16,37,208,40,26,70,208,38,32,00,000,38*75
$GPGSV,2,2,05,14,62,086,00*43
$BDGSV,2,1,05,05,27,244,40,04,22,110,35,02,00,000,34,10,00,000,38*65
$BDGSV,2,2,05,28,00,111,00*56
$B3CN0,0,0,0,0,0,0,0,0,0,0,0,0,0,0*4C
$GNGGA,034819.100,2930.5639,N,10626.7056,E,1,05,1.5,371.8,M,,,,0000*1D
$GNRMC,034819.100,A,2930.5639,N,10626.7056,E,0.38,0.00,270799,,*14
$GPGSA,A,3,03,16,26,,,,,,,,,,2.4,1.5,1.8*39
$BDGSA,A,3,04,05,,,,,,,,,,,2.4,1.5,1.8*29
$GLGSA,A,3,,,,,,,,,,,,,2.4,1.5,1.8*25
$GPGSV,2,1,05,03,31,301,48,16,37,208,40,26,70,208,38,32,00,000,38*75
$GPGSV,2,2,05,14,62,086,00*43
$BDGSV,2,1,05,05,27,244,40,04,22,110,35,02,00,000,34,10,00,000,38*65
$BDGSV,2,2,05,28,00,111,00*56
$B3CN0,0,0,0,0,0,0,0,0,0,0,0,0,0,0*4C
$GNGGA,034819.200,2930.5637,N,10626.7056,E,1,05,1.5,371.5,M,,,,0000*1D
$GNRMC,034819.200,A,2930.5637,N,10626.7056,E,0.37,0.00,270799,,*16
$GPGSA,A,3,03,16,26,,,,,,,,,,2.4,1.5,1.8*39
$BDGSA,A,3,04,05,,,,,,,,,,,2.4,1.5,1.8*29
$GLGSA,A,3,,,,,,,,,,,,,2.4,1.5,1.8*25
$GPGSV,2,1,05,03,31,301,48,16,37,208,40,26,70,208,38,32,00,000,38*75
$GPGSV,2,2,05,14,62,086,00*43
$BDGSV,2,1,05,05,27,244,40,04,22,110,35,02,00,000,34,10,00,000,38*65
$BDGSV,2,2,05,28,00,111,00*56
$B3CN0,0,0,0,0,0,0,0,0,0,0,0,0,0,0*4C
$GNGGA,034819.300,2930.5636,N,10626.7056,E,1,05,1.5,371.2,M,,,,0000*1A
$GNRMC,034819.300,A,2930.5636,N,10626.7056,E,0.27,0.00,270799,,*17
$GPGSA,A,3,03,16,26,,,,,,,,,,2.4,1.5,1.8*39
$BDGSA,A,3,04,05,,,,,,,,,,,2.4,1.5,1.8*29
$GLGSA,A,3,,,,,,,,,,,,,2.4,1.5,1.8*25
$GPGSV,2,1,05,03,31,301,48,16,37,208,40,26,70,208,38,32,00,000,38*75
$GPGSV,2,2,05,14,62,086,00*43
$BDGSV,2,1,05,05,27,244,40,04,22,110,35,02,00,000,34,10,00,000,38*65
$BDGSV,2,2,05,28,00,111,00*56
$B3CN0,0,0,0,0,0,0,0,0,0,0,0,0,0,0*4C
$GNGGA,034819.400,2930.5635,N,10626.7056,E,1,05,1.5,370.7,M,,,,0000*1A
$GNRMC,034819.400,A,2930.5635,N,10626.7056,E,0.55,0.00,270799,,*16
$GPGSA,A,3,03,16,26,,,,,,,,,,2.4,1.5,1.8*39
$BDGSA,A,3,04,05,,,,,,,,,,,2.4,1.5,1.8*29
$GLGSA,A,3,,,,,,,,,,,,,2.4,1.5,1.8*25
$GPGSV,2,1,05,03,31,301,48,16,37,208,40,26,70,208,38,32,00,000,38*75
$GPGSV,2,2,05,14,62,086,00*43
$BDGSV,2,1,05,05,27,244,40,04,22,110,35,02,00,000,34,10,00,000,38*65
$BDGSV,2,2,05,28,00,111,00*56
$B3CN0,0,0,0,0,0,0,0,0,0,0,0,0,0,0*4C
$GNGGA,034819.500,2930.5633,N,10626.7056,E,1,05,1.5,370.3,M,,,,0000*19
$GNRMC,034819.500,A,2930.5633,N,10626.7056,E,0.36,0.00,270799,,*14
$GPGSA,A,3,03,16,26,,,,,,,,,,2.4,1.5,1.8*39
$BDGSA,A,3,04,05,,,,,,,,,,,2.4,1.5,1.8*29
$GLGSA,A,3,,,,,,,,,,,,,2.4,1.5,1.8*25
$GPGSV,2,1,05,03,31,301,48,16,37,208,39,26,70,208,37,32,00,000,39*75
$GPGSV,2,2,05,14,62,086,00*43
$BDGSV,2,1,05,05,27,244,41,04,22,110,36,02,00,000,33,10,00,000,38*60
$BDGSV,2,2,05,28,00,111,00*56
$B3CN0,0,0,0,0,0,0,0,0,0,0,0,0,0,0*4C
$GNGGA,034819.600,2930.5632,N,10626.7056,E,1,05,1.5,370.0,M,,,,0000*18
$GNRMC,034819.600,A,2930.5632,N,10626.7056,E,0.23,0.00,270799,,*12
$GPGSA,A,3,03,16,26,,,,,,,,,,2.4,1.5,1.8*39
$BDGSA,A,3,04,05,,,,,,,,,,,2.4,1.5,1.8*29
$GLGSA,A,3,,,,,,,,,,,,,2.4,1.5,1.8*25
$GPGSV,2,1,05,03,31,301,48,16,37,208,39,26,70,208,37,32,00,000,39*75
$GPGSV,2,2,05,14,62,086,00*43
$BDGSV,2,1,05,05,27,244,41,04,22,110,36,02,00,000,33,10,00,000,38*60
$BDGSV,2,2,05,28,00,111,00*56
$B3CN0,0,0,0,0,0,0,0,0,0,0,0,0,0,0*4C
$GNGGA,034819.700,2930.5630,N,10626.7056,E,1,05,1.5,369.7,M,,,,0000*14
$GNRMC,034819.700,A,2930.5630,N,10626.7056,E,0.25,0.00,270799,,*17
$GPGSA,A,3,03,16,26,,,,,,,,,,2.4,1.5,1.8*39
$BDGSA,A,3,04,05,,,,,,,,,,,2.4,1.5,1.8*29
$GLGSA,A,3,,,,,,,,,,,,,2.4,1.5,1.8*25
$GPGSV,2,1,05,03,31,301,48,16,37,208,39,26,70,208,37,32,00,000,39*75
$GPGSV,2,2,05,14,62,086,00*43
$BDGSV,2,1,05,05,27,244,41,04,22,110,36,02,00,000,33,10,00,000,38*60
$BDGSV,2,2,05,28,00,111,00*56
$B3CN0,0,0,0,0,0,0,0,0,0,0,0,0,0,0*4C
$GNGGA,034819.800,2930.5628,N,10626.7056,E,1,05,1.5,369.2,M,,,,0000*17
$GNRMC,034819.800,A,2930.5628,N,10626.7056,E,0.20,0.00,270799,,*14
$GPGSA,A,3,03,16,26,,,,,,,,,,2.4,1.5,1.8*39
$BDGSA,A,3,04,05,,,,,,,,,,,2.4,1.5,1.8*29
$GLGSA,A,3,,,,,,,,,,,,,2.4,1.5,1.8*25
$GPGSV,2,1,05,03,31,301,48,16,37,208,39,26,70,208,37,32,00,000,39*75
$GPGSV,2,2,05,14,62,086,00*43
$BDGSV,2,1,05,05,27,244,41,04,22,110,36,02,00,000,33,10,00,000,38*60
$BDGSV,2,2,05,28,00,111,00*56
$B3CN0,0,0,0,0,0,0,0,0,0,0,0,0,0,0*4C
$GNGGA,034819.900,2930.5627,N,10626.7056,E,1,05,1.5,368.9,M,,,,0000*13
$GNRMC,034819.900,A,2930.5627,N,10626.7056,E,0.32,0.00,270799,,*19
$GPGSA,A,3,03,16,26,,,,,,,,,,2.4,1.5,1.8*39
$BDGSA,A,3,04,05,,,,,,,,,,,2.4,1.5,1.8*29
$GLGSA,A,3,,,,,,,,,,,,,2.4,1.5,1.8*25
$GPGSV,2,1,05,03,31,301,48,16,37,208,39,26,70,208,37,32,00,000,39*75
$GPGSV,2,2,05,14,62,086,00*43
$BDGSV,2,1,05,05,27,244,41,04,22,110,36,02,00,000,33,10,00,000,38*60
$BDGSV,2,2,05,28,00,111,00*56
$B3CN0,0,0,0,0,0,0,0,0,0,0,0,0,0,0*4C
$GNGGA,034820.000,2930.5625,N,10626.7056,E,1,05,1.5,368.4,M,,,,0000*1F
$GNRMC,034820.000,A,2930.5625,N,10626.7056,E,0.52,0.00,270799,,*1E
$GPGSA,A,3,03,16,26,,,,,,,,,,2.4,1.5,1.8*39
$BDGSA,A,3,04,05,,,,,,,,,,,2.4,1.5,1.8*29
$GLGSA,A,3,,,,,,,,,,,,,2.4,1.5,1.8*25
$GPGSV,2,1,05,03,31,301,48,16,37,208,39,26,70,208,37,32,00,000,39*75
$GPGSV,2,2,05,14,62,086,00*43
$BDGSV,2,1,05,05,27,244,41,04,22,110,36,02,00,000,33,10,00,000,38*60
$BDGSV,2,2,05,28,00,111,00*56
$B3CN0,0,0,0,0,0,0,0,0,0,0,0,0,0,0*4C
$GNGGA,034820.100,2930.5623,N,10626.7055,E,1,05,1.5,368.0,M,,,,0000*1F
$GNRMC,034820.100,A,2930.5623,N,10626.7055,E,0.29,0.00,270799,,*16
$GPGSA,A,3,03,16,26,,,,,,,,,,2.4,1.5,1.8*39
$BDGSA,A,3,04,05,,,,,,,,,,,2.4,1.5,1.8*29
$GLGSA,A,3,,,,,,,,,,,,,2.4,1.5,1.8*25
$GPGSV,2,1,05,03,31,301,48,16,37,208,39,26,70,208,37,32,00,000,39*75
$GPGSV,2,2,05,14,62,086,00*43
$BDGSV,2,1,05,05,27,244,41,04,22,110,36,02,00,000,33,10,00,000,38*60
$BDGSV,2,2,05,28,00,111,00*56
$B3CN0,0,0,0,0,0,0,0,0,0,0,0,0,0,0*4C
$GNGGA,034820.200,2930.5622,N,10626.7055,E,1,05,1.5,367.6,M,,,,0000*14
$GNRMC,034820.200,A,2930.5622,N,10626.7055,E,0.36,0.00,270799,,*1A
$GPGSA,A,3,03,16,26,,,,,,,,,,2.4,1.5,1.8*39
$BDGSA,A,3,04,05,,,,,,,,,,,2.4,1.5,1.8*29
$GLGSA,A,3,,,,,,,,,,,,,2.4,1.5,1.8*25
$GPGSV,2,1,05,03,31,301,48,16,37,208,39,26,70,208,37,32,00,000,39*75
$GPGSV,2,2,05,14,62,086,00*43
$BDGSV,2,1,05,05,27,244,41,04,22,110,36,02,00,000,33,10,00,000,38*60
$BDGSV,2,2,05,28,00,111,00*56
$B3CN0,0,0,0,0,0,0,0,0,0,0,0,0,0,0*4C
$GNGGA,034820.300,2930.5620,N,10626.7055,E,1,05,1.5,367.1,M,,,,0000*10
$GNRMC,034820.300,A,2930.5620,N,10626.7055,E,0.64,0.00,270799,,*1E
$GPGSA,A,3,03,16,26,,,,,,,,,,2.4,1.5,1.8*39
$BDGSA,A,3,04,05,,,,,,,,,,,2.4,1.5,1.8*29
$GLGSA,A,3,,,,,,,,,,,,,2.4,1.5,1.8*25
$GPGSV,2,1,05,03,31,301,48,16,37,208,39,26,70,208,37,32,00,000,39*75
$GPGSV,2,2,05,14,62,086,00*43
$BDGSV,2,1,05,05,27,244,41,04,22,110,36,02,00,000,33,10,00,000,38*60
$BDGSV,2,2,05,28,00,111,00*56
$B3CN0,0,0,0,0,0,0,0,0,0,0,0,0,0,0*4C
$GNGGA,034820.400,2930.5619,N,10626.7056,E,1,05,1.5,366.6,M,,,,0000*18
$GNRMC,034820.400,A,2930.5619,N,10626.7056,E,0.83,0.00,270799,,*19
$GPGSA,A,3,03,16,26,,,,,,,,,,2.4,1.5,1.8*39
$BDGSA,A,3,04,05,,,,,,,,,,,2.4,1.5,1.8*29
$GLGSA,A,3,,,,,,,,,,,,,2.4,1.5,1.8*25
$GPGSV,2,1,05,03,31,301,48,16,37,208,39,26,70,208,37,32,00,000,39*75
$GPGSV,2,2,05,14,62,086,00*43
$BDGSV,2,1,05,05,27,244,41,04,22,110,36,02,00,000,33,10,00,000,38*60
$BDGSV,2,2,05,28,00,111,00*56
$B3CN0,0,0,0,0,0,0,0,0,0,0,0,0,0,0*4C
$GNGGA,034820.500,2930.5617,N,10626.7056,E,1,05,1.5,366.1,M,,,,0000*10
$GNRMC,034820.500,A,2930.5617,N,10626.7056,E,0.86,0.00,270799,,*13
$GPGSA,A,3,03,16,26,,,,,,,,,,2.4,1.5,1.8*39
$BDGSA,A,3,04,05,,,,,,,,,,,2.4,1.5,1.8*29
$GLGSA,A,3,,,,,,,,,,,,,2.4,1.5,1.8*25
$GPGSV,2,1,05,03,31,301,47,16,37,208,40,26,70,208,38,32,00,000,38*7A
$GPGSV,2,2,05,14,62,086,00*43
$BDGSV,2,1,06,05,27,244,43,04,22,110,36,02,00,000,34,10,00,000,38*66
$BDGSV,2,2,06,17,26,131,00,28,00,111,00*64
$B3CN0,0,0,0,0,0,0,0,0,0,0,0,0,0,0*4C
$GNGGA,034820.600,2930.5616,N,10626.7056,E,1,05,1.5,365.7,M,,,,0000*17
$GNRMC,034820.600,A,2930.5616,N,10626.7056,E,0.50,0.00,270799,,*1A
$GPGSA,A,3,03,16,26,,,,,,,,,,2.4,1.5,1.8*39
$BDGSA,A,3,04,05,,,,,,,,,,,2.4,1.5,1.8*29
$GLGSA,A,3,,,,,,,,,,,,,2.4,1.5,1.8*25
$GPGSV,2,1,05,03,31,301,47,16,37,208,40,26,70,208,38,32,00,000,38*7A
$GPGSV,2,2,05,14,62,086,00*43
$BDGSV,2,1,06,05,27,244,43,04,22,110,36,02,00,000,34,10,00,000,38*66
$BDGSV,2,2,06,17,26,131,00,28,00,111,00*64
$B3CN0,0,0,0,0,0,0,0,0,0,0,0,0,0,0*4C
$GNGGA,034820.700,2930.5614,N,10626.7056,E,1,05,1.5,365.2,M,,,,0000*11
$GNRMC,034820.700,A,2930.5614,N,10626.7056,E,0.62,0.00,270799,,*18
$GPGSA,A,3,03,16,26,,,,,,,,,,2.4,1.5,1.8*39
$BDGSA,A,3,04,05,,,,,,,,,,,2.4,1.5,1.8*29
$GLGSA,A,3,,,,,,,,,,,,,2.4,1.5,1.8*25
$GPGSV,2,1,05,03,31,301,47,16,37,208,40,26,70,208,38,32,00,000,38*7A
$GPGSV,2,2,05,14,62,086,00*43
$BDGSV,2,1,06,05,27,244,43,04,22,110,36,02,00,000,34,10,00,000,38*66
$BDGSV,2,2,06,17,26,131,00,28,00,111,00*64
$B3CN0,0,0,0,0,0,0,0,0,0,0,0,0,0,0*4C
$GNGGA,034820.800,2930.5613,N,10626.7056,E,1,05,1.5,364.8,M,,,,0000*12
$GNRMC,034820.800,A,2930.5613,N,10626.7056,E,0.85,0.00,270799,,*19
$GPGSA,A,3,03,16,26,,,,,,,,,,2.4,1.5,1.8*39
$BDGSA,A,3,04,05,,,,,,,,,,,2.4,1.5,1.8*29
$GLGSA,A,3,,,,,,,,,,,,,2.4,1.5,1.8*25
$GPGSV,2,1,05,03,31,301,47,16,37,208,40,26,70,208,38,32,00,000,38*7A
$GPGSV,2,2,05,14,62,086,00*43
$BDGSV,2,1,06,05,27,244,43,04,22,110,36,02,00,000,34,10,00,000,38*66
$BDGSV,2,2,06,17,26,131,00,28,00,111,00*64
$B3CN0,0,0,0,0,0,0,0,0,0,0,0,0,0,0*4C
$GNGGA,034820.900,2930.5612,N,10626.7056,E,1,05,1.5,364.5,M,,,,0000*1F
$GNRMC,034820.900,A,2930.5612,N,10626.7056,E,1.07,0.00,270799,,*12
$GPGSA,A,3,03,16,26,,,,,,,,,,2.4,1.5,1.8*39
$BDGSA,A,3,04,05,,,,,,,,,,,2.4,1.5,1.8*29
$GLGSA,A,3,,,,,,,,,,,,,2.4,1.5,1.8*25
$GPGSV,2,1,05,03,31,301,47,16,37,208,40,26,70,208,38,32,00,000,38*7A
$GPGSV,2,2,05,14,62,086,00*43
$BDGSV,2,1,06,05,27,244,43,04,22,110,36,02,00,000,34,10,00,000,38*66
$BDGSV,2,2,06,17,26,131,00,28,00,111,00*64
$B3CN0,0,0,0,0,0,0,0,0,0,0,0,0,0,0*4C
$GNGGA,034821.000,2930.5611,N,10626.7057,E,1,05,1.5,364.1,M,,,,0000*11
$GNRMC,034821.000,A,2930.5611,N,10626.7057,E,0.97,0.00,270799,,*10
$GPGSA,A,3,03,16,26,,,,,,,,,,2.4,1.5,1.8*39
$BDGSA,A,3,04,05,,,,,,,,,,,2.4,1.5,1.8*29
$GLGSA,A,3,,,,,,,,,,,,,2.4,1.5,1.8*25
$GPGSV,2,1,05,03,31,301,47,16,37,208,40,26,70,208,38,32,00,000,38*7A
$GPGSV,2,2,05,14,62,086,00*43
$BDGSV,2,1,06,05,27,244,43,04,22,110,36,02,00,000,34,10,00,000,38*66
$BDGSV,2,2,06,17,26,131,00,28,00,111,00*64
$B3CN0,0,0,0,0,0,0,0,0,0,0,0,0,0,0*4C
$GNGGA,034821.100,2930.5609,N,10626.7057,E,1,05,1.5,363.7,M,,,,0000*18
$GNRMC,034821.100,A,2930.5609,N,10626.7057,E,0.88,0.00,270799,,*16
$GPGSA,A,3,03,16,26,,,,,,,,,,2.4,1.5,1.8*39
$BDGSA,A,3,04,05,,,,,,,,,,,2.4,1.5,1.8*29
$GLGSA,A,3,,,,,,,,,,,,,2.4,1.5,1.8*25
$GPGSV,2,1,05,03,31,301,47,16,37,208,40,26,70,208,38,32,00,000,38*7A
$GPGSV,2,2,05,14,62,086,00*43
$BDGSV,2,1,06,05,27,244,43,04,22,110,36,02,00,000,34,10,00,000,38*66
$BDGSV,2,2,06,17,26,131,00,28,00,111,00*64
$B3CN0,0,0,0,0,0,0,0,0,0,0,0,0,0,0*4C
$GNGGA,034821.200,2930.5608,N,10626.7057,E,1,05,1.5,363.2,M,,,,0000*1F
$GNRMC,034821.200,A,2930.5608,N,10626.7057,E,0.50,0.00,270799,,*11
$GPGSA,A,3,03,16,26,,,,,,,,,,2.4,1.5,1.8*39
$BDGSA,A,3,04,05,,,,,,,,,,,2.4,1.5,1.8*29
$GLGSA,A,3,,,,,,,,,,,,,2.4,1.5,1.8*25
$GPGSV,2,1,05,03,31,301,47,16,37,208,40,26,70,208,38,32,00,000,38*7A
$GPGSV,2,2,05,14,62,086,00*43
$BDGSV,2,1,06,05,27,244,43,04,22,110,36,02,00,000,34,10,00,000,38*66
$BDGSV,2,2,06,17,26,131,00,28,00,111,00*64
$B3CN0,0,0,0,0,0,0,0,0,0,0,0,0,0,0*4C
$GNGGA,034821.300,2930.5607,N,10626.7057,E,1,05,1.5,362.7,M,,,,0000*15
$GNRMC,034821.300,A,2930.5607,N,10626.7057,E,0.42,0.00,270799,,*1C
$GPGSA,A,3,03,16,26,,,,,,,,,,2.4,1.5,1.8*39
$BDGSA,A,3,04,05,,,,,,,,,,,2.4,1.5,1.8*29
$GLGSA,A,3,,,,,,,,,,,,,2.4,1.5,1.8*25
$GPGSV,2,1,05,03,31,301,47,16,37,208,40,26,70,208,38,32,00,000,38*7A
$GPGSV,2,2,05,14,62,086,00*43
$BDGSV,2,1,06,05,27,244,43,04,22,110,36,02,00,000,34,10,00,000,38*66
$BDGSV,2,2,06,17,26,131,00,28,00,111,00*64
$B3CN0,0,0,0,0,0,0,0,0,0,0,0,0,0,0*4C
$GNGGA,034821.400,2930.5606,N,10626.7057,E,1,05,1.5,362.3,M,,,,0000*17
$GNRMC,034821.400,A,2930.5606,N,10626.7057,E,0.39,0.00,270799,,*16
$GPGSA,A,3,03,16,26,,,,,,,,,,2.4,1.5,1.8*39
$BDGSA,A,3,04,05,,,,,,,,,,,2.4,1.5,1.8*29
$GLGSA,A,3,,,,,,,,,,,,,2.4,1.5,1.8*25
$GPGSV,2,1,05,03,31,301,47,16,37,208,40,26,70,208,38,32,00,000,38*7A
$GPGSV,2,2,05,14,62,086,00*43
$BDGSV,2,1,06,05,27,244,43,04,22,110,36,02,00,000,34,10,00,000,38*66
$BDGSV,2,2,06,17,26,131,00,28,00,111,00*64
$B3CN0,0,0,0,0,0,0,0,0,0,0,0,0,0,0*4C
$GNGGA,034821.500,2930.5605,N,10626.7057,E,1,05,1.5,362.0,M,,,,0000*16
$GNRMC,034821.500,A,2930.5605,N,10626.7057,E,0.48,0.00,270799,,*12
$GPGSA,A,3,03,16,26,,,,,,,,,,2.4,1.5,1.8*39
$BDGSA,A,3,04,05,,,,,,,,,,,2.4,1.5,1.8*29
$GLGSA,A,3,,,,,,,,,,,,,2.4,1.5,1.8*25
$GPGSV,2,1,05,03,31,301,48,16,37,208,40,26,70,208,37,32,00,000,39*7B
$GPGSV,2,2,05,14,62,086,00*43
$BDGSV,2,1,06,05,27,244,41,04,22,110,36,02,00,000,32,10,00,000,38*62
$BDGSV,2,2,06,17,26,131,00,28,00,111,00*64
$B3CN0,0,0,0,0,0,0,0,0,0,0,0,0,0,0*4C
$GNGGA,034821.600,2930.5604,N,10626.7058,E,1,05,1.5,361.6,M,,,,0000*1E
$GNRMC,034821.600,A,2930.5604,N,10626.7058,E,0.39,0.00,270799,,*19
$GPGSA,A,3,03,16,26,,,,,,,,,,2.4,1.5,1.8*39
$BDGSA,A,3,04,05,,,,,,,,,,,2.4,1.5,1.8*29
$GLGSA,A,3,,,,,,,,,,,,,2.4,1.5,1.8*25
$GPGSV,2,1,05,03,31,301,48,16,37,208,40,26,70,208,37,32,00,000,39*7B
$GPGSV,2,2,05,14,62,086,00*43
$BDGSV,2,1,06,05,27,244,41,04,22,110,36,02,00,000,32,10,00,000,38*62
$BDGSV,2,2,06,17,26,131,00,28,00,111,00*64
$B3CN0,0,0,0,0,0,0,0,0,0,0,0,0,0,0*4C
$GNGGA,034821.700,2930.5603,N,10626.7058,E,1,05,1.5,361.2,M,,,,0000*1C
$GNRMC,034821.700,A,2930.5603,N,10626.7058,E,0.38,0.00,270799,,*1E
$GPGSA,A,3,03,16,26,,,,,,,,,,2.4,1.5,1.8*39
$BDGSA,A,3,04,05,,,,,,,,,,,2.4,1.5,1.8*29
$GLGSA,A,3,,,,,,,,,,,,,2.4,1.5,1.8*25
$GPGSV,2,1,05,03,31,301,48,16,37,208,40,26,70,208,37,32,00,000,39*7B
$GPGSV,2,2,05,14,62,086,00*43
$BDGSV,2,1,06,05,27,244,41,04,22,110,36,02,00,000,32,10,00,000,38*62
$BDGSV,2,2,06,17,26,131,00,28,00,111,00*64
$B3CN0,0,0,0,0,0,0,0,0,0,0,0,0,0,0*4C
$GNGGA,034821.800,2930.5601,N,10626.7057,E,1,05,1.5,360.9,M,,,,0000*14
$GNRMC,034821.800,A,2930.5601,N,10626.7057,E,0.40,0.00,270799,,*13
$GPGSA,A,3,03,16,26,,,,,,,,,,2.4,1.5,1.8*39
$BDGSA,A,3,04,05,,,,,,,,,,,2.4,1.5,1.8*29
$GLGSA,A,3,,,,,,,,,,,,,2.4,1.5,1.8*25
$GPGSV,2,1,05,03,31,301,48,16,37,208,40,26,70,208,37,32,00,000,39*7B
$GPGSV,2,2,05,14,62,086,00*43
$BDGSV,2,1,06,05,27,244,41,04,22,110,36,02,00,000,32,10,00,000,38*62
$BDGSV,2,2,06,17,26,131,00,28,00,111,00*64
$B3CN0,0,0,0,0,0,0,0,0,0,0,0,0,0,0*4C
$GNGGA,034821.900,2930.5600,N,10626.7057,E,1,05,1.5,360.5,M,,,,0000*18
$GNRMC,034821.900,A,2930.5600,N,10626.7057,E,0.41,0.00,270799,,*12
$GPGSA,A,3,03,16,26,,,,,,,,,,2.4,1.5,1.8*39
$BDGSA,A,3,04,05,,,,,,,,,,,2.4,1.5,1.8*29
$GLGSA,A,3,,,,,,,,,,,,,2.4,1.5,1.8*25
$GPGSV,2,1,05,03,31,301,48,16,37,208,40,26,70,208,37,32,00,000,39*7B
$GPGSV,2,2,05,14,62,086,00*43
$BDGSV,2,1,06,05,27,244,41,04,22,110,36,02,00,000,32,10,00,000,38*62
$BDGSV,2,2,06,17,26,131,00,28,00,111,00*64
$B3CN0,0,0,0,0,0,0,0,0,0,0,0,0,0,0*4C
$GNGGA,034822.000,2930.5599,N,10626.7057,E,1,05,1.5,360.2,M,,,,0000*16
$GNRMC,034822.000,A,2930.5599,N,10626.7057,E,0.60,0.00,270799,,*18
$GPGSA,A,3,03,16,26,,,,,,,,,,2.4,1.5,1.8*39
$BDGSA,A,3,04,05,,,,,,,,,,,2.4,1.5,1.8*29
$GLGSA,A,3,,,,,,,,,,,,,2.4,1.5,1.8*25
$GPGSV,2,1,05,03,31,301,48,16,37,208,40,26,70,208,37,32,00,000,39*7B
$GPGSV,2,2,05,14,62,086,00*43
$BDGSV,2,1,06,05,27,244,41,04,22,110,36,02,00,000,32,10,00,000,38*62
$BDGSV,2,2,06,17,26,131,00,28,00,111,00*64
$B3CN0,0,0,0,0,0,0,0,0,0,0,0,0,0,0*4C
$GNGGA,034822.100,2930.5598,N,10626.7057,E,1,05,1.5,359.8,M,,,,0000*16
$GNRMC,034822.100,A,2930.5598,N,10626.7057,E,0.53,0.00,270799,,*18
$GPGSA,A,3,03,16,26,,,,,,,,,,2.4,1.5,1.8*39
$BDGSA,A,3,04,05,,,,,,,,,,,2.4,1.5,1.8*29
$GLGSA,A,3,,,,,,,,,,,,,2.4,1.5,1.8*25
$GPGSV,2,1,05,03,31,301,48,16,37,208,40,26,70,208,37,32,00,000,39*7B
$GPGSV,2,2,05,14,62,086,00*43
$BDGSV,2,1,06,05,27,244,41,04,22,110,36,02,00,000,32,10,00,000,38*62
$BDGSV,2,2,06,17,26,131,00,28,00,111,00*64
$B3CN0,0,0,0,0,0,0,0,0,0,0,0,0,0,0*4C
$GNGGA,034822.200,2930.5597,N,10626.7057,E,1,05,1.5,359.5,M,,,,0000*17
$GNRMC,034822.200,A,2930.5597,N,10626.7057,E,0.58,0.00,270799,,*1F
$GPGSA,A,3,03,16,26,,,,,,,,,,2.4,1.5,1.8*39
$BDGSA,A,3,04,05,,,,,,,,,,,2.4,1.5,1.8*29
$GLGSA,A,3,,,,,,,,,,,,,2.4,1.5,1.8*25
$GPGSV,2,1,05,03,31,301,48,16,37,208,40,26,70,208,37,32,00,000,39*7B
$GPGSV,2,2,05,14,62,086,00*43
$BDGSV,2,1,06,05,27,244,41,04,22,110,36,02,00,000,32,10,00,000,38*62
$BDGSV,2,2,06,17,26,131,00,28,00,111,00*64
$B3CN0,0,0,0,0,0,0,0,0,0,0,0,0,0,0*4C
$GNGGA,034822.300,2930.5596,N,10626.7057,E,1,05,1.5,359.1,M,,,,0000*13
$GNRMC,034822.300,A,2930.5596,N,10626.7057,E,0.51,0.00,270799,,*16
$GPGSA,A,3,03,16,26,,,,,,,,,,2.4,1.5,1.8*39
$BDGSA,A,3,04,05,,,,,,,,,,,2.4,1.5,1.8*29
$GLGSA,A,3,,,,,,,,,,,,,2.4,1.5,1.8*25
$GPGSV,2,1,05,03,31,301,48,16,37,208,40,26,70,208,37,32,00,000,39*7B
$GPGSV,2,2,05,14,62,086,00*43
$BDGSV,2,1,06,05,27,244,41,04,22,110,36,02,00,000,32,10,00,000,38*62
$BDGSV,2,2,06,17,26,131,00,28,00,111,00*64
$B3CN0,0,0,0,0,0,0,0,0,0,0,0,0,0,0*4C
$GNGGA,034822.400,2930.5595,N,10626.7057,E,1,05,1.5,358.8,M,,,,0000*1F
$GNRMC,034822.400,A,2930.5595,N,10626.7057,E,0.44,0.00,270799,,*16
$GPGSA,A,3,03,16,26,,,,,,,,,,2.4,1.5,1.8*39
$BDGSA,A,3,04,05,,,,,,,,,,,2.4,1.5,1.8*29
$GLGSA,A,3,,,,,,,,,,,,,2.4,1.5,1.8*25
$GPGSV,2,1,05,03,31,301,48,16,37,208,40,26,70,208,37,32,00,000,39*7B
$GPGSV,2,2,05,14,62,086,00*43
$BDGSV,2,1,06,05,27,244,41,04,22,110,36,02,00,000,32,10,00,000,38*62
$BDGSV,2,2,06,17,26,131,00,28,00,111,00*64
$B3CN0,0,0,0,0,0,0,0,0,0,0,0,0,0,0*4C
$GNGGA,034822.500,2930.5594,N,10626.7057,E,1,05,1.5,358.4,M,,,,0000*13
$GNRMC,034822.500,A,2930.5594,N,10626.7057,E,0.33,0.00,270799,,*16
$GPGSA,A,3,03,16,26,,,,,,,,,,2.4,1.5,1.8*39
$BDGSA,A,3,04,05,,,,,,,,,,,2.4,1.5,1.8*29
$GLGSA,A,3,,,,,,,,,,,,,2.4,1.5,1.8*25
$GPGSV,2,1,05,03,31,301,48,16,37,208,40,26,70,208,37,32,00,000,39*7B
$GPGSV,2,2,05,14,62,086,00*43
$BDGSV,2,1,06,05,27,244,41,04,22,110,37,02,00,000,33,10,00,000,38*62
$BDGSV,2,2,06,17,26,131,00,28,00,111,00*64
$B3CN0,0,0,0,0,0,0,0,0,0,0,0,0,0,0*4C
$GNGGA,034822.600,2930.5593,N,10626.7057,E,1,05,1.5,358.1,M,,,,0000*12
$GNRMC,034822.600,A,2930.5593,N,10626.7057,E,0.27,0.00,270799,,*17
$GPGSA,A,3,03,16,26,,,,,,,,,,2.4,1.5,1.8*39
$BDGSA,A,3,04,05,,,,,,,,,,,2.4,1.5,1.8*29
$GLGSA,A,3,,,,,,,,,,,,,2.4,1.5,1.8*25
$GPGSV,2,1,05,03,31,301,48,16,37,208,40,26,70,208,37,32,00,000,39*7B
$GPGSV,2,2,05,14,62,086,00*43
$BDGSV,2,1,06,05,27,244,41,04,22,110,37,02,00,000,33,10,00,000,38*62
$BDGSV,2,2,06,17,26,131,00,28,00,111,00*64
$B3CN0,0,0,0,0,0,0,0,0,0,0,0,0,0,0*4C
$GNGGA,034822.700,2930.5592,N,10626.7057,E,1,05,1.5,357.8,M,,,,0000*14
$GNRMC,034822.700,A,2930.5592,N,10626.7057,E,0.35,0.00,270799,,*14
$GPGSA,A,3,03,16,26,,,,,,,,,,2.4,1.5,1.8*39
$BDGSA,A,3,04,05,,,,,,,,,,,2.4,1.5,1.8*29
$GLGSA,A,3,,,,,,,,,,,,,2.4,1.5,1.8*25
$GPGSV,2,1,05,03,31,301,48,16,37,208,40,26,70,208,37,32,00,000,39*7B
$GPGSV,2,2,05,14,62,086,00*43
$BDGSV,2,1,06,05,27,244,41,04,22,110,37,02,00,000,33,10,00,000,38*62
$BDGSV,2,2,06,17,26,131,00,28,00,111,00*64
$B3CN0,0,0,0,0,0,0,0,0,0,0,0,0,0,0*4C
$GNGGA,034822.800,2930.5592,N,10626.7057,E,1,05,1.5,357.5,M,,,,0000*16
$GNRMC,034822.800,A,2930.5592,N,10626.7057,E,0.42,0.00,270799,,*1B
$GPGSA,A,3,03,16,26,,,,,,,,,,2.4,1.5,1.8*39
$BDGSA,A,3,04,05,,,,,,,,,,,2.4,1.5,1.8*29
$GLGSA,A,3,,,,,,,,,,,,,2.4,1.5,1.8*25
$GPGSV,2,1,05,03,31,301,48,16,37,208,40,26,70,208,37,32,00,000,39*7B
$GPGSV,2,2,05,14,62,086,00*43
$BDGSV,2,1,06,05,27,244,41,04,22,110,37,02,00,000,33,10,00,000,38*62
$BDGSV,2,2,06,17,26,131,00,28,00,111,00*64
$B3CN0,0,0,0,0,0,0,0,0,0,0,0,0,0,0*4C
$GNGGA,034822.900,2930.5591,N,10626.7057,E,1,05,1.5,357.1,M,,,,0000*10
$GNRMC,034822.900,A,2930.5591,N,10626.7057,E,0.68,0.00,270799,,*11
$GPGSA,A,3,03,16,26,,,,,,,,,,2.4,1.5,1.8*39
$BDGSA,A,3,04,05,,,,,,,,,,,2.4,1.5,1.8*29
$GLGSA,A,3,,,,,,,,,,,,,2.4,1.5,1.8*25
$GPGSV,2,1,05,03,31,301,48,16,37,208,40,26,70,208,37,32,00,000,39*7B
$GPGSV,2,2,05,14,62,086,00*43
$BDGSV,2,1,06,05,27,244,41,04,22,110,37,02,00,000,33,10,00,000,38*62
$BDGSV,2,2,06,17,26,131,00,28,00,111,00*64
$B3CN0,0,0,0,0,0,0,0,0,0,0,0,0,0,0*4C
$GNGGA,034823.000,2930.5591,N,10626.7057,E,1,05,1.5,356.8,M,,,,0000*10
