$GNGGA,033216.200,2930.5689,N,10626.6999,E,1,08,1.1,412.8,M,,,,0000*17
$GNRMC,033216.200,A,2930.5689,N,10626.6999,E,1.07,192.61,120319,,*1F
$GPGSA,A,3,03,16,26,31,32,,,,,,,,1.5,1.1,0.9*3C
$BDGSA,A,3,02,05,10,,,,,,,,,,1.5,1.1,0.9*28
$GLGSA,A,3,,,,,,,,,,,,,1.5,1.1,0.9*23
$GPGSV,3,1,10,03,28,307,47,26,62,202,36,31,58,003,32,32,52,101,36*7F
$GPGSV,3,2,10,16,29,205,39,01,00,263,00,10,10,166,00,22,40,286,00*77
$GPGSV,3,3,10,25,14,039,00,29,16,073,00*78
$BDGSV,3,1,12,02,46,219,36,05,27,244,41,10,63,224,37,01,39,126,00*6B
$BDGSV,3,2,12,03,54,172,00,04,22,110,00,06,66,105,00,07,85,216,00*65
$BDGSV,3,3,12,09,77,016,00,16,71,098,00,17,67,147,00,19,14,319,00*66
$B3CN0,0,0,0,0,0,0,0,0,0,0,0,0,0,0*4C
$GNGGA,033216.300,2930.5689,N,10626.6998,E,1,08,1.1,413.0,M,,,,0000*1E
$GNRMC,033216.300,A,2930.5689,N,10626.6998,E,0.75,192.61,120319,,*1B
$GPGSA,A,3,03,16,26,31,32,,,,,,,,1.5,1.1,0.9*3C
$BDGSA,A,3,02,05,10,,,,,,,,,,1.5,1.1,0.9*28
$GLGSA,A,3,,,,,,,,,,,,,1.5,1.1,0.9*23
$GPGSV,3,1,10,03,28,307,47,26,62,202,36,31,58,003,32,32,52,101,36*7F
$GPGSV,3,2,10,16,29,205,39,01,00,263,00,10,10,166,00,22,40,286,00*77
$GPGSV,3,3,10,25,14,039,00,29,16,073,00*78
$BDGSV,3,1,12,02,46,219,36,05,27,244,41,10,63,224,37,01,39,126,00*6B
$BDGSV,3,2,12,03,54,172,00,04,22,110,00,06,66,105,00,07,85,216,00*65
$BDGSV,3,3,12,09,77,016,00,16,71,098,00,17,67,147,00,19,14,319,00*66
$B3CN0,0,0,0,0,0,0,0,0,0,0,0,0,0,0*4C
$GNGGA,033216.400,2930.5689,N,10626.6997,E,1,08,1.1,413.1,M,,,,0000*17
$GNRMC,033216.400,A,2930.5689,N,10626.6997,E,0.23,192.61,120319,,*10
$GPGSA,A,3,03,16,26,31,32,,,,,,,,1.5,1.1,0.9*3C
$BDGSA,A,3,02,05,10,,,,,,,,,,1.5,1.1,0.9*28
$GLGSA,A,3,,,,,,,,,,,,,1.5,1.1,0.9*23
$GPGSV,3,1,10,03,28,307,47,26,62,202,36,31,58,003,32,32,52,101,36*7F
$GPGSV,3,2,10,16,29,205,39,01,00,263,00,10,10,166,00,22,40,286,00*77
$GPGSV,3,3,10,25,14,039,00,29,16,073,00*78
$BDGSV,3,1,12,02,46,219,36,05,27,244,41,10,63,224,37,01,39,126,00*6B
$BDGSV,3,2,12,03,54,172,00,04,22,110,00,06,66,105,00,07,85,216,00*65
$BDGSV,3,3,12,09,77,016,00,16,71,098,00,17,67,147,00,19,14,319,00*66
$B3CN0,0,0,0,0,0,0,0,0,0,0,0,0,0,0*4C
$GNGGA,033216.500,2930.5688,N,10626.6996,E,1,08,1.1,413.2,M,,,,0000*15
$GNRMC,033216.500,A,2930.5688,N,10626.6996,E,0.18,192.61,120319,,*19
$GPGSA,A,3,03,16,26,31,32,,,,,,,,1.5,1.1,0.9*3C
$BDGSA,A,3,02,05,10,,,,,,,,,,1.5,1.1,0.9*28
$GLGSA,A,3,,,,,,,,,,,,,1.5,1.1,0.9*23
$GPGSV,3,1,10,03,28,307,47,26,62,202,36,31,58,003,32,32,52,101,36*7F
$GPGSV,3,2,10,16,29,205,39,01,00,263,00,10,10,166,00,22,40,286,00*77
$GPGSV,3,3,10,25,14,039,00,29,16,073,00*78
$BDGSV,3,1,12,02,46,219,36,05,27,244,41,10,63,224,37,01,39,126,00*6B
$BDGSV,3,2,12,03,54,172,00,04,22,110,00,06,66,105,00,07,85,216,00*65
$BDGSV,3,3,12,09,77,016,00,16,71,098,00,17,67,147,00,19,14,319,00*66
$B3CN0,0,0,0,0,0,0,0,0,0,0,0,0,0,0*4C
$GNGGA,033216.600,2930.5688,N,10626.6995,E,1,08,1.1,413.4,M,,,,0000*13
$GNRMC,033216.600,A,2930.5688,N,10626.6995,E,0.44,192.61,120319,,*10
$GPGSA,A,3,03,16,26,31,32,,,,,,,,1.5,1.1,0.9*3C
$BDGSA,A,3,02,05,10,,,,,,,,,,1.5,1.1,0.9*28
$GLGSA,A,3,,,,,,,,,,,,,1.5,1.1,0.9*23
$GPGSV,3,1,10,03,28,307,47,26,62,202,36,31,58,003,32,32,52,101,36*7F
$GPGSV,3,2,10,16,29,205,39,01,00,263,00,10,10,166,00,22,40,286,00*77
$GPGSV,3,3,10,25,14,039,00,29,16,073,00*78
$BDGSV,3,1,12,02,46,219,36,05,27,244,41,10,63,224,37,01,39,126,00*6B
$BDGSV,3,2,12,03,54,172,00,04,22,110,00,06,66,105,00,07,85,216,00*65
$BDGSV,3,3,12,09,77,016,00,16,71,098,00,17,67,147,00,19,14,319,00*66
$B3CN0,0,0,0,0,0,0,0,0,0,0,0,0,0,0*4C
$GNGGA,033216.700,2930.5687,N,10626.6994,E,1,08,1.1,413.6,M,,,,0000*1E
$GNRMC,033216.700,A,2930.5687,N,10626.6994,E,0.38,192.61,120319,,*14
$GPGSA,A,3,03,16,26,31,32,,,,,,,,1.5,1.1,0.9*3C
$BDGSA,A,3,02,05,10,,,,,,,,,,1.5,1.1,0.9*28
$GLGSA,A,3,,,,,,,,,,,,,1.5,1.1,0.9*23
$GPGSV,3,1,10,03,28,307,47,26,62,202,36,31,58,003,32,32,52,101,36*7F
$GPGSV,3,2,10,16,29,205,39,01,00,263,00,10,10,166,00,22,40,286,00*77
$GPGSV,3,3,10,25,14,039,00,29,16,073,00*78
$BDGSV,3,1,12,02,46,219,36,05,27,244,41,10,63,224,37,01,39,126,00*6B
$BDGSV,3,2,12,03,54,172,00,04,22,110,00,06,66,105,00,07,85,216,00*65
$BDGSV,3,3,12,09,77,016,00,16,71,098,00,17,67,147,00,19,14,319,00*66
$B3CN0,0,0,0,0,0,0,0,0,0,0,0,0,0,0*4C
$GNGGA,033216.800,2930.5687,N,10626.6993,E,1,08,1.1,413.8,M,,,,0000*18
$GNRMC,033216.800,A,2930.5687,N,10626.6993,E,0.34,192.61,120319,,*10
$GPGSA,A,3,03,16,26,31,32,,,,,,,,1.5,1.1,0.9*3C
$BDGSA,A,3,02,05,10,,,,,,,,,,1.5,1.1,0.9*28
$GLGSA,A,3,,,,,,,,,,,,,1.5,1.1,0.9*23
$GPGSV,3,1,10,03,28,307,47,26,62,202,36,31,58,003,33,32,52,101,36*7E
$GPGSV,3,2,10,16,29,205,39,01,00,263,00,10,10,166,00,22,40,286,00*77
$GPGSV,3,3,10,25,14,039,00,29,16,072,00*79
$BDGSV,3,1,12,02,46,219,37,05,27,244,41,10,63,224,37,01,39,126,00*6A
$BDGSV,3,2,12,03,54,172,00,04,22,110,00,06,66,105,00,07,85,216,00*65
$BDGSV,3,3,12,09,77,016,00,16,71,098,00,17,67,147,00,19,14,319,00*66
$B3CN0,0,0,0,0,0,0,0,0,0,0,0,0,0,0*4C
$GNGGA,033216.900,2930.5686,N,10626.6992,E,1,08,1.1,414.0,M,,,,0000*16
$GNRMC,033216.900,A,2930.5686,N,10626.6992,E,0.40,192.61,120319,,*12
$GPGSA,A,3,03,16,26,31,32,,,,,,,,1.5,1.1,0.9*3C
$BDGSA,A,3,02,05,10,,,,,,,,,,1.5,1.1,0.9*28
$GLGSA,A,3,,,,,,,,,,,,,1.5,1.1,0.9*23
$GPGSV,3,1,10,03,28,307,47,26,62,202,36,31,58,003,33,32,52,101,36*7E
$GPGSV,3,2,10,16,29,205,39,01,00,263,00,10,10,166,00,22,40,286,00*77
$GPGSV,3,3,10,25,14,039,00,29,16,072,00*79
$BDGSV,3,1,12,02,46,219,37,05,27,244,41,10,63,224,37,01,39,126,00*6A
$BDGSV,3,2,12,03,54,172,00,04,22,110,00,06,66,105,00,07,85,216,00*65
$BDGSV,3,3,12,09,77,016,00,16,71,098,00,17,67,147,00,19,14,319,00*66
$B3CN0,0,0,0,0,0,0,0,0,0,0,0,0,0,0*4C
$GNGGA,033217.000,2930.5686,N,10626.6991,E,1,08,1.1,414.3,M,,,,0000*1E
$GNRMC,033217.000,A,2930.5686,N,10626.6991,E,0.41,192.61,120319,,*18
$GPGSA,A,3,03,16,26,31,32,,,,,,,,1.5,1.1,0.9*3C
$BDGSA,A,3,02,05,10,,,,,,,,,,1.5,1.1,0.9*28
$GLGSA,A,3,,,,,,,,,,,,,1.5,1.1,0.9*23
$GPGSV,3,1,10,03,28,307,47,26,62,202,36,31,58,003,33,32,52,101,36*7E
$GPGSV,3,2,10,16,29,205,39,01,00,263,00,10,10,166,00,22,40,286,00*77
$GPGSV,3,3,10,25,14,039,00,29,16,072,00*79
$BDGSV,3,1,12,02,46,219,37,05,27,244,41,10,63,224,37,01,39,126,00*6A
$BDGSV,3,2,12,03,54,172,00,04,22,110,00,06,66,105,00,07,85,216,00*65
$BDGSV,3,3,12,09,77,016,00,16,71,098,00,17,67,147,00,19,14,319,00*66
$B3CN0,0,0,0,0,0,0,0,0,0,0,0,0,0,0*4C
$GNGGA,033217.100,2930.5685,N,10626.6990,E,1,08,1.1,414.6,M,,,,0000*18
$GNRMC,033217.100,A,2930.5685,N,10626.6990,E,0.40,192.61,120319,,*1A
$GPGSA,A,3,03,16,26,31,32,,,,,,,,1.5,1.1,0.9*3C
$BDGSA,A,3,02,05,10,,,,,,,,,,1.5,1.1,0.9*28
$GLGSA,A,3,,,,,,,,,,,,,1.5,1.1,0.9*23
$GPGSV,3,1,10,03,28,307,47,26,62,202,36,31,58,003,33,32,52,101,36*7E
$GPGSV,3,2,10,16,29,205,39,01,00,263,00,10,10,166,00,22,40,286,00*77
$GPGSV,3,3,10,25,14,039,00,29,16,072,00*79
$BDGSV,3,1,12,02,46,219,37,05,27,244,41,10,63,224,37,01,39,126,00*6A
$BDGSV,3,2,12,03,54,172,00,04,22,110,00,06,66,105,00,07,85,216,00*65
$BDGSV,3,3,12,09,77,016,00,16,71,098,00,17,67,147,00,19,14,319,00*66
$B3CN0,0,0,0,0,0,0,0,0,0,0,0,0,0,0*4C
$GNGGA,033217.200,2930.5684,N,10626.6990,E,1,08,1.1,414.8,M,,,,0000*14
$GNRMC,033217.200,A,2930.5684,N,10626.6990,E,0.21,192.61,120319,,*1F
$GPGSA,A,3,03,16,26,31,32,,,,,,,,1.5,1.1,0.9*3C
$BDGSA,A,3,02,05,10,,,,,,,,,,1.5,1.1,0.9*28
$GLGSA,A,3,,,,,,,,,,,,,1.5,1.1,0.9*23
$GPGSV,3,1,10,03,28,307,47,26,62,202,36,31,58,003,33,32,52,101,36*7E
$GPGSV,3,2,10,16,29,205,39,01,00,263,00,10,10,166,00,22,40,286,00*77
$GPGSV,3,3,10,25,14,039,00,29,16,072,00*79
$BDGSV,3,1,12,02,46,219,37,05,27,244,41,10,63,224,37,01,39,126,00*6A
$BDGSV,3,2,12,03,54,172,00,04,22,110,00,06,66,105,00,07,85,216,00*65
$BDGSV,3,3,12,09,77,016,00,16,71,098,00,17,67,147,00,19,14,319,00*66
$B3CN0,0,0,0,0,0,0,0,0,0,0,0,0,0,0*4C
$GNGGA,033217.300,2930.5683,N,10626.6989,E,1,08,1.1,415.1,M,,,,0000*12
$GNRMC,033217.300,A,2930.5683,N,10626.6989,E,0.29,192.61,120319,,*19
$GPGSA,A,3,03,16,26,31,32,,,,,,,,1.5,1.1,0.9*3C
$BDGSA,A,3,02,05,10,,,,,,,,,,1.5,1.1,0.9*28
$GLGSA,A,3,,,,,,,,,,,,,1.5,1.1,0.9*23
$GPGSV,3,1,10,03,28,307,47,26,62,202,36,31,58,003,33,32,52,101,36*7E
$GPGSV,3,2,10,16,29,205,39,01,00,263,00,10,10,166,00,22,40,286,00*77
$GPGSV,3,3,10,25,14,039,00,29,16,072,00*79
$BDGSV,3,1,12,02,46,219,37,05,27,244,41,10,63,224,37,01,39,126,00*6A
$BDGSV,3,2,12,03,54,172,00,04,22,110,00,06,66,105,00,07,85,216,00*65
$BDGSV,3,3,12,09,77,016,00,16,71,098,00,17,67,147,00,19,14,319,00*66
$B3CN0,0,0,0,0,0,0,0,0,0,0,0,0,0,0*4C
$GNGGA,033217.400,2930.5682,N,10626.6988,E,1,08,1.1,415.3,M,,,,0000*17
$GNRMC,033217.400,A,2930.5682,N,10626.6988,E,0.41,192.61,120319,,*10
$GPGSA,A,3,03,16,26,31,32,,,,,,,,1.5,1.1,0.9*3C
$BDGSA,A,3,02,05,10,,,,,,,,,,1.5,1.1,0.9*28
$GLGSA,A,3,,,,,,,,,,,,,1.5,1.1,0.9*23
$GPGSV,3,1,10,03,28,307,47,26,62,202,36,31,58,003,33,32,52,101,36*7E
$GPGSV,3,2,10,16,29,205,39,01,00,263,00,10,10,166,00,22,40,286,00*77
$GPGSV,3,3,10,25,14,039,00,29,16,072,00*79
$BDGSV,3,1,12,02,46,219,37,05,27,244,41,10,63,224,37,01,39,126,00*6A
$BDGSV,3,2,12,03,54,172,00,04,22,110,00,06,66,105,00,07,85,216,00*65
$BDGSV,3,3,12,09,77,016,00,16,71,098,00,17,67,147,00,19,14,319,00*66
$B3CN0,0,0,0,0,0,0,0,0,0,0,0,0,0,0*4C
$GNGGA,033217.500,2930.5681,N,10626.6986,E,1,08,1.1,415.7,M,,,,0000*1F
$GNRMC,033217.500,A,2930.5681,N,10626.6986,E,0.44,192.61,120319,,*19
$GPGSA,A,3,03,16,26,31,32,,,,,,,,1.5,1.1,0.9*3C
$BDGSA,A,3,02,05,10,,,,,,,,,,1.5,1.1,0.9*28
$GLGSA,A,3,,,,,,,,,,,,,1.5,1.1,0.9*23
$GPGSV,3,1,10,03,28,307,47,26,62,202,36,31,58,003,33,32,52,101,36*7E
$GPGSV,3,2,10,16,29,205,39,01,00,263,00,10,10,166,00,22,40,286,00*77
$GPGSV,3,3,10,25,14,039,00,29,16,072,00*79
$BDGSV,3,1,12,02,46,219,37,05,27,244,41,10,63,224,37,01,39,126,00*6A
$BDGSV,3,2,12,03,54,172,00,04,22,110,00,06,66,105,00,07,85,216,00*65
$BDGSV,3,3,12,09,77,016,00,16,71,098,00,17,67,147,00,19,14,319,00*66
$B3CN0,0,0,0,0,0,0,0,0,0,0,0,0,0,0*4C
$GNGGA,033217.600,2930.5679,N,10626.6985,E,1,08,1.1,416.0,M,,,,0000*1C
$GNRMC,033217.600,A,2930.5679,N,10626.6985,E,0.27,192.61,120319,,*1B
$GPGSA,A,3,03,16,26,31,32,,,,,,,,1.5,1.1,0.9*3C
$BDGSA,A,3,02,05,10,,,,,,,,,,1.5,1.1,0.9*28
$GLGSA,A,3,,,,,,,,,,,,,1.5,1.1,0.9*23
$GPGSV,3,1,10,03,28,307,47,26,62,202,36,31,58,003,33,32,52,101,36*7E
$GPGSV,3,2,10,16,29,205,39,01,00,263,00,10,10,166,00,22,40,286,00*77
$GPGSV,3,3,10,25,14,039,00,29,16,072,00*79
$BDGSV,3,1,12,02,46,219,37,05,27,244,41,10,63,224,37,01,39,126,00*6A
$BDGSV,3,2,12,03,54,172,00,04,22,110,00,06,66,105,00,07,85,216,00*65
$BDGSV,3,3,12,09,77,016,00,16,71,098,00,17,67,147,00,19,14,319,00*66
$B3CN0,0,0,0,0,0,0,0,0,0,0,0,0,0,0*4C
$GNGGA,033217.700,2930.5678,N,10626.6984,E,1,08,1.1,416.4,M,,,,0000*19
$GNRMC,033217.700,A,2930.5678,N,10626.6984,E,0.42,192.61,120319,,*19
$GPGSA,A,3,03,16,26,31,32,,,,,,,,1.5,1.1,0.9*3C
$BDGSA,A,3,02,05,10,,,,,,,,,,1.5,1.1,0.9*28
$GLGSA,A,3,,,,,,,,,,,,,1.5,1.1,0.9*23
$GPGSV,3,1,10,03,28,307,47,26,62,202,36,31,58,003,33,32,52,101,36*7E
$GPGSV,3,2,10,16,29,205,39,01,00,263,00,10,10,166,00,22,40,286,00*77
$GPGSV,3,3,10,25,14,039,00,29,16,072,00*79
$BDGSV,3,1,12,02,46,219,37,05,27,244,41,10,63,224,37,01,39,126,00*6A
$BDGSV,3,2,12,03,54,172,00,04,22,110,00,06,66,105,00,07,85,216,00*65
$BDGSV,3,3,12,09,77,016,00,16,71,098,00,17,67,147,00,19,14,319,00*66
$B3CN0,0,0,0,0,0,0,0,0,0,0,0,0,0,0*4C
$GNGGA,033217.800,2930.5678,N,10626.6983,E,1,08,1.1,416.7,M,,,,0000*12
$GNRMC,033217.800,A,2930.5678,N,10626.6983,E,0.06,192.61,120319,,*11
$GPGSA,A,3,03,16,26,31,32,,,,,,,,1.5,1.1,0.9*3C
$BDGSA,A,3,02,05,10,,,,,,,,,,1.5,1.1,0.9*28
$GLGSA,A,3,,,,,,,,,,,,,1.5,1.1,0.9*23
$GPGSV,3,1,10,03,28,307,47,26,62,202,35,31,58,003,35,32,52,101,36*7B
$GPGSV,3,2,10,16,29,205,39,01,00,263,00,10,10,166,00,22,40,286,00*77
$GPGSV,3,3,10,25,14,039,00,29,16,072,00*79
$BDGSV,3,1,12,02,46,219,37,05,27,244,41,10,63,224,36,01,39,126,00*6B
$BDGSV,3,2,12,03,54,172,00,04,22,110,00,06,66,105,00,07,85,216,00*65
$BDGSV,3,3,12,09,77,016,00,16,71,098,00,17,67,147,00,19,14,319,00*66
$B3CN0,0,0,0,0,0,0,0,0,0,0,0,0,0,0*4C
$GNGGA,033217.900,2930.5676,N,10626.6982,E,1,08,1.1,417.1,M,,,,0000*1B
$GNRMC,033217.900,A,2930.5676,N,10626.6982,E,0.18,192.61,120319,,*10
$GPGSA,A,3,03,16,26,31,32,,,,,,,,1.5,1.1,0.9*3C
$BDGSA,A,3,02,05,10,,,,,,,,,,1.5,1.1,0.9*28
$GLGSA,A,3,,,,,,,,,,,,,1.5,1.1,0.9*23
$GPGSV,3,1,10,03,28,307,47,26,62,202,35,31,58,003,35,32,52,101,36*7B
$GPGSV,3,2,10,16,29,205,39,01,00,263,00,10,10,166,00,22,40,286,00*77
$GPGSV,3,3,10,25,14,039,00,29,16,072,00*79
$BDGSV,3,1,12,02,46,219,37,05,27,244,41,10,63,224,36,01,39,126,00*6B
$BDGSV,3,2,12,03,54,172,00,04,22,110,00,06,66,105,00,07,85,216,00*65
$BDGSV,3,3,12,09,77,016,00,16,71,098,00,17,67,147,00,19,14,319,00*66
$B3CN0,0,0,0,0,0,0,0,0,0,0,0,0,0,0*4C
$GNGGA,033218.000,2930.5675,N,10626.6981,E,1,08,1.1,417.4,M,,,,0000*18
$GNRMC,033218.000,A,2930.5675,N,10626.6981,E,0.41,192.61,120319,,*1A
$GPGSA,A,3,03,16,26,31,32,,,,,,,,1.5,1.1,0.9*3C
$BDGSA,A,3,02,05,10,,,,,,,,,,1.5,1.1,0.9*28
$GLGSA,A,3,,,,,,,,,,,,,1.5,1.1,0.9*23
$GPGSV,3,1,10,03,28,307,47,26,62,202,35,31,58,003,35,32,52,101,36*7B
$GPGSV,3,2,10,16,29,205,39,01,00,263,00,10,10,166,00,22,40,286,00*77
$GPGSV,3,3,10,25,14,039,00,29,16,072,00*79
$BDGSV,3,1,12,02,46,219,37,05,27,244,41,10,63,224,36,01,39,126,00*6B
$BDGSV,3,2,12,03,54,172,00,04,22,110,00,06,66,105,00,07,85,216,00*65
$BDGSV,3,3,12,09,77,016,00,16,71,098,00,17,67,147,00,19,14,319,00*66
$B3CN0,0,0,0,0,0,0,0,0,0,0,0,0,0,0*4C
--weeknum is--1020
--weeknum is--1020
--weeknum is--1020
--weeknum is--1020
--weeknum is--1020
$GNGGA,033218.100,2930.5674,N,10626.6980,E,1,08,1.1,417.8,M,,,,0000*15
$GNRMC,033218.100,A,2930.5674,N,10626.6980,E,0.12,192.61,120319,,*1D
$GPGSA,A,3,03,16,26,31,32,,,,,,,,1.5,1.1,0.9*3C
$BDGSA,A,3,02,05,10,,,,,,,,,,1.5,1.1,0.9*28
$GLGSA,A,3,,,,,,,,,,,,,1.5,1.1,0.9*23
$GPGSV,3,1,10,03,28,307,47,26,62,202,35,31,58,003,35,32,52,101,36*7B
$GPGSV,3,2,10,16,29,205,39,01,00,263,00,10,10,166,00,22,40,286,00*77
$GPGSV,3,3,10,25,14,039,00,29,16,072,00*79
$BDGSV,3,1,12,02,46,219,37,05,27,244,41,10,63,224,36,01,39,126,00*6B
$BDGSV,3,2,12,03,54,172,00,04,22,110,00,06,66,105,00,07,85,216,00*65
$BDGSV,3,3,12,09,77,016,00,16,71,098,00,17,67,147,00,19,14,319,00*66
$B3CN0,0,0,0,0,0,0,0,0,0,0,0,0,0,0*4C
$GNGGA,033218.200,2930.5673,N,10626.6978,E,1,08,1.1,418.2,M,,,,0000*13
$GNRMC,033218.200,A,2930.5673,N,10626.6978,E,0.10,192.61,120319,,*1C
$GPGSA,A,3,03,16,26,31,32,,,,,,,,1.5,1.1,0.9*3C
$BDGSA,A,3,02,05,10,,,,,,,,,,1.5,1.1,0.9*28
$GLGSA,A,3,,,,,,,,,,,,,1.5,1.1,0.9*23
$GPGSV,3,1,10,03,28,307,47,26,62,202,35,31,58,003,35,32,52,101,36*7B
$GPGSV,3,2,10,16,29,205,39,01,00,263,00,10,10,166,00,22,40,286,00*77
$GPGSV,3,3,10,25,14,039,00,29,16,072,00*79
$BDGSV,3,1,12,02,46,219,37,05,27,244,41,10,63,224,36,01,39,126,00*6B
$BDGSV,3,2,12,03,54,172,00,04,22,110,00,06,66,105,00,07,85,216,00*65
$BDGSV,3,3,12,09,77,016,00,16,71,098,00,17,67,147,00,19,14,319,00*66
$B3CN0,0,0,0,0,0,0,0,0,0,0,0,0,0,0*4C
$GNGGA,033218.300,2930.5672,N,10626.6977,E,1,08,1.1,418.6,M,,,,0000*18
$GNRMC,033218.300,A,2930.5672,N,10626.6977,E,0.08,192.61,120319,,*1A
$GPGSA,A,3,03,16,26,31,32,,,,,,,,1.5,1.1,0.9*3C
$BDGSA,A,3,02,05,10,,,,,,,,,,1.5,1.1,0.9*28
$GLGSA,A,3,,,,,,,,,,,,,1.5,1.1,0.9*23
$GPGSV,3,1,10,03,28,307,47,26,62,202,35,31,58,003,35,32,52,101,36*7B
$GPGSV,3,2,10,16,29,205,39,01,00,263,00,10,10,166,00,22,40,286,00*77
$GPGSV,3,3,10,25,14,039,00,29,16,072,00*79
$BDGSV,3,1,12,02,46,219,37,05,27,244,41,10,63,224,36,01,39,126,00*6B
$BDGSV,3,2,12,03,54,172,00,04,22,110,00,06,66,105,00,07,85,216,00*65
$BDGSV,3,3,12,09,77,016,00,16,71,098,00,17,67,147,00,19,14,319,00*66
$B3CN0,0,0,0,0,0,0,0,0,0,0,0,0,0,0*4C
$GNGGA,033218.400,2930.5671,N,10626.6977,E,1,08,1.1,419.0,M,,,,0000*1B
$GNRMC,033218.400,A,2930.5671,N,10626.6977,E,0.22,192.61,120319,,*16
$GPGSA,A,3,03,16,26,31,32,,,,,,,,1.5,1.1,0.9*3C
$BDGSA,A,3,02,05,10,,,,,,,,,,1.5,1.1,0.9*28
$GLGSA,A,3,,,,,,,,,,,,,1.5,1.1,0.9*23
$GPGSV,3,1,10,03,28,307,47,26,62,202,35,31,58,003,35,32,52,101,36*7B
$GPGSV,3,2,10,16,29,205,39,01,00,263,00,10,10,166,00,22,40,286,00*77
$GPGSV,3,3,10,25,14,039,00,29,16,072,00*79
$BDGSV,3,1,12,02,46,219,37,05,27,244,41,10,63,224,36,01,39,126,00*6B
$BDGSV,3,2,12,03,54,172,00,04,22,110,00,06,66,105,00,07,85,216,00*65
$BDGSV,3,3,12,09,77,016,00,16,71,098,00,17,67,147,00,19,14,319,00*66
$B3CN0,0,0,0,0,0,0,0,0,0,0,0,0,0,0*4C
$GNGGA,033218.500,2930.5669,N,10626.6976,E,1,08,1.1,419.4,M,,,,0000*16
$GNRMC,033218.500,A,2930.5669,N,10626.6976,E,0.18,192.61,120319,,*16
$GPGSA,A,3,03,16,26,31,32,,,,,,,,1.5,1.1,0.9*3C
$BDGSA,A,3,02,05,10,,,,,,,,,,1.5,1.1,0.9*28
$GLGSA,A,3,,,,,,,,,,,,,1.5,1.1,0.9*23
$GPGSV,3,1,10,03,28,307,47,26,62,202,35,31,58,003,35,32,52,101,36*7B
$GPGSV,3,2,10,16,29,205,39,01,00,263,00,10,10,166,00,22,40,286,00*77
$GPGSV,3,3,10,25,14,039,00,29,16,072,00*79
$BDGSV,3,1,12,02,46,219,37,05,27,244,41,10,63,224,36,01,39,126,00*6B
$BDGSV,3,2,12,03,54,172,00,04,22,110,00,06,66,105,00,07,85,216,00*65
$BDGSV,3,3,12,09,77,016,00,16,71,098,00,17,67,147,00,19,14,319,00*66
$B3CN0,0,0,0,0,0,0,0,0,0,0,0,0,0,0*4C
$GNGGA,033218.600,2930.5664,N,10626.6979,E,1,08,1.1,419.9,M,,,,0000*1A
$GNRMC,033218.600,A,2930.5664,N,10626.6979,E,0.47,192.61,120319,,*1D
$GPGSA,A,3,03,16,26,31,32,,,,,,,,1.5,1.1,0.9*3C
$BDGSA,A,3,02,05,10,,,,,,,,,,1.5,1.1,0.9*28
$GLGSA,A,3,,,,,,,,,,,,,1.5,1.1,0.9*23
$GPGSV,3,1,10,03,28,307,47,26,62,202,35,31,58,003,35,32,52,101,36*7B
$GPGSV,3,2,10,16,29,205,39,01,00,263,00,10,10,166,00,22,40,286,00*77
$GPGSV,3,3,10,25,14,039,00,29,16,072,00*79
$BDGSV,3,1,12,02,46,219,37,05,27,244,41,10,63,224,36,01,39,126,00*6B
$BDGSV,3,2,12,03,54,172,00,04,22,110,00,06,66,105,00,07,85,216,00*65
$BDGSV,3,3,12,09,77,016,00,16,71,098,00,17,67,147,00,19,14,319,00*66
$B3CN0,0,0,0,0,0,0,0,0,0,0,0,0,0,0*4C
$GNGGA,033218.700,2930.5664,N,10626.6978,E,1,08,1.1,420.3,M,,,,0000*1A
$GNRMC,033218.700,A,2930.5664,N,10626.6978,E,0.41,192.61,120319,,*1B
$GPGSA,A,3,03,16,26,31,32,,,,,,,,1.5,1.1,0.9*3C
$BDGSA,A,3,02,05,10,,,,,,,,,,1.5,1.1,0.9*28
$GLGSA,A,3,,,,,,,,,,,,,1.5,1.1,0.9*23
$GPGSV,3,1,10,03,28,307,47,26,62,202,35,31,58,003,35,32,52,101,36*7B
$GPGSV,3,2,10,16,29,205,39,01,00,263,00,10,10,166,00,22,40,286,00*77
$GPGSV,3,3,10,25,14,039,00,29,16,072,00*79
$BDGSV,3,1,12,02,46,219,37,05,27,244,41,10,63,224,36,01,39,126,00*6B
$BDGSV,3,2,12,03,54,172,00,04,22,110,00,06,66,105,00,07,85,216,00*65
$BDGSV,3,3,12,09,77,016,00,16,71,098,00,17,67,147,00,19,14,319,00*66
$B3CN0,0,0,0,0,0,0,0,0,0,0,0,0,0,0*4C
$GNGGA,033218.800,2930.5663,N,10626.6977,E,1,08,1.1,420.7,M,,,,0000*19
$GNRMC,033218.800,A,2930.5663,N,10626.6977,E,0.48,192.61,120319,,*15
$GPGSA,A,3,03,16,26,31,32,,,,,,,,1.5,1.1,0.9*3C
$BDGSA,A,3,02,05,10,,,,,,,,,,1.5,1.1,0.9*28
$GLGSA,A,3,,,,,,,,,,,,,1.5,1.1,0.9*23
$GPGSV,3,1,10,03,28,307,47,26,62,202,35,31,58,003,35,32,52,101,35*78
$GPGSV,3,2,10,16,29,205,39,01,00,263,00,10,10,166,00,22,40,286,00*77
$GPGSV,3,3,10,25,14,039,00,29,16,072,00*79
$BDGSV,3,1,12,02,46,219,37,05,27,244,41,10,63,224,37,01,39,126,00*6A
$BDGSV,3,2,12,03,54,172,00,04,22,110,00,06,66,105,00,07,85,216,00*65
$BDGSV,3,3,12,09,77,016,00,16,71,098,00,17,67,147,00,19,14,319,00*66
$B3CN0,0,0,0,0,0,0,0,0,0,0,0,0,0,0*4C
$GNGGA,033218.900,2930.5663,N,10626.6975,E,1,08,1.1,421.0,M,,,,0000*1C
$GNRMC,033218.900,A,2930.5663,N,10626.6975,E,0.73,192.61,120319,,*1E
$GPGSA,A,3,03,16,26,31,32,,,,,,,,1.5,1.1,0.9*3C
$BDGSA,A,3,02,05,10,,,,,,,,,,1.5,1.1,0.9*28
$GLGSA,A,3,,,,,,,,,,,,,1.5,1.1,0.9*23
$GPGSV,3,1,10,03,28,307,47,26,62,202,35,31,58,003,35,32,52,101,35*78
$GPGSV,3,2,10,16,29,205,39,01,00,263,00,10,10,166,00,22,40,286,00*77
$GPGSV,3,3,10,25,14,039,00,29,16,072,00*79
$BDGSV,3,1,12,02,46,219,37,05,27,244,41,10,63,224,37,01,39,126,00*6A
$BDGSV,3,2,12,03,54,172,00,04,22,110,00,06,66,105,00,07,85,216,00*65
$BDGSV,3,3,12,09,77,016,00,16,71,098,00,17,67,147,00,19,14,319,00*66
$B3CN0,0,0,0,0,0,0,0,0,0,0,0,0,0,0*4C
$GNGGA,033219.000,2930.5662,N,10626.6974,E,1,08,1.1,421.4,M,,,,0000*10
$GNRMC,033219.000,A,2930.5662,N,10626.6974,E,1.38,192.61,120319,,*18
$GPGSA,A,3,03,16,26,31,32,,,,,,,,1.5,1.1,0.9*3C
$BDGSA,A,3,02,05,10,,,,,,,,,,1.5,1.1,0.9*28
$GLGSA,A,3,,,,,,,,,,,,,1.5,1.1,0.9*23
$GPGSV,3,1,10,03,28,307,47,26,62,202,35,31,58,003,35,32,52,101,35*78
$GPGSV,3,2,10,16,29,205,39,01,00,263,00,10,10,166,00,22,40,286,00*77
$GPGSV,3,3,10,25,14,039,00,29,16,072,00*79
$BDGSV,3,1,12,02,46,219,37,05,27,244,41,10,63,224,37,01,39,126,00*6A
$BDGSV,3,2,12,03,54,172,00,04,22,110,00,06,66,105,00,07,85,216,00*65
$BDGSV,3,3,12,09,77,016,00,16,71,098,00,17,67,147,00,19,14,319,00*66
$B3CN0,0,0,0,0,0,0,0,0,0,0,0,0,0,0*4C
$GNGGA,033219.100,2930.5662,N,10626.6973,E,1,08,1.1,421.7,M,,,,0000*15
$GNRMC,033219.100,A,2930.5662,N,10626.6973,E,1.41,192.61,120319,,*10
$GPGSA,A,3,03,16,26,31,32,,,,,,,,1.5,1.1,0.9*3C
$BDGSA,A,3,02,05,10,,,,,,,,,,1.5,1.1,0.9*28
$GLGSA,A,3,,,,,,,,,,,,,1.5,1.1,0.9*23
$GPGSV,3,1,10,03,28,307,47,26,62,202,35,31,58,003,35,32,52,101,35*78
$GPGSV,3,2,10,16,29,205,39,01,00,263,00,10,10,166,00,22,40,286,00*77
$GPGSV,3,3,10,25,14,039,00,29,16,072,00*79
$BDGSV,3,1,12,02,46,219,37,05,27,244,41,10,63,224,37,01,39,126,00*6A
$BDGSV,3,2,12,03,54,172,00,04,22,110,00,06,66,105,00,07,85,216,00*65
$BDGSV,3,3,12,09,77,016,00,16,71,098,00,17,67,147,00,19,14,319,00*66
$B3CN0,0,0,0,0,0,0,0,0,0,0,0,0,0,0*4C
$GNGGA,033219.200,2930.5661,N,10626.6972,E,1,08,1.1,422.0,M,,,,0000*10
$GNRMC,033219.200,A,2930.5661,N,10626.6972,E,1.19,192.61,120319,,*1C
$GPGSA,A,3,03,16,26,31,32,,,,,,,,1.5,1.1,0.9*3C
$BDGSA,A,3,02,05,10,,,,,,,,,,1.5,1.1,0.9*28
$GLGSA,A,3,,,,,,,,,,,,,1.5,1.1,0.9*23
$GPGSV,3,1,10,03,28,307,47,26,62,202,35,31,58,003,35,32,52,101,35*78
$GPGSV,3,2,10,16,29,205,39,01,00,263,00,10,10,166,00,22,40,286,00*77
$GPGSV,3,3,10,25,14,039,00,29,16,072,00*79
$BDGSV,3,1,12,02,46,219,37,05,27,244,41,10,63,224,37,01,39,126,00*6A
$BDGSV,3,2,12,03,54,172,00,04,22,110,00,06,66,105,00,07,85,216,00*65
$BDGSV,3,3,12,09,77,016,00,16,71,098,00,17,67,147,00,19,14,319,00*66
$B3CN0,0,0,0,0,0,0,0,0,0,0,0,0,0,0*4C
$GNGGA,033219.300,2930.5661,N,10626.6971,E,1,08,1.1,422.3,M,,,,0000*11
$GNRMC,033219.300,A,2930.5661,N,10626.6971,E,0.64,192.61,120319,,*15
$GPGSA,A,3,03,16,26,31,32,,,,,,,,1.5,1.1,0.9*3C
$BDGSA,A,3,02,05,10,,,,,,,,,,1.5,1.1,0.9*28
$GLGSA,A,3,,,,,,,,,,,,,1.5,1.1,0.9*23
$GPGSV,3,1,10,03,28,307,47,26,62,202,35,31,58,003,35,32,52,101,35*78
$GPGSV,3,2,10,16,29,205,39,01,00,263,00,10,10,166,00,22,40,286,00*77
$GPGSV,3,3,10,25,14,039,00,29,16,072,00*79
$BDGSV,3,1,12,02,46,219,37,05,27,244,41,10,63,224,37,01,39,126,00*6A
$BDGSV,3,2,12,03,54,172,00,04,22,110,00,06,66,105,00,07,85,216,00*65
$BDGSV,3,3,12,09,77,016,00,16,71,098,00,17,67,147,00,19,14,319,00*66
$B3CN0,0,0,0,0,0,0,0,0,0,0,0,0,0,0*4C
$GNGGA,033219.400,2930.5661,N,10626.6970,E,1,08,1.1,422.5,M,,,,0000*11
$GNRMC,033219.400,A,2930.5661,N,10626.6970,E,0.30,192.61,120319,,*12
$GPGSA,A,3,03,16,26,31,32,,,,,,,,1.5,1.1,0.9*3C
$BDGSA,A,3,02,05,10,,,,,,,,,,1.5,1.1,0.9*28
$GLGSA,A,3,,,,,,,,,,,,,1.5,1.1,0.9*23
$GPGSV,3,1,10,03,28,307,47,26,62,202,35,31,58,003,35,32,52,101,35*78
$GPGSV,3,2,10,16,29,205,39,01,00,263,00,10,10,166,00,22,40,286,00*77
$GPGSV,3,3,10,25,14,039,00,29,16,072,00*79
$BDGSV,3,1,12,02,46,219,37,05,27,244,41,10,63,224,37,01,39,126,00*6A
$BDGSV,3,2,12,03,54,172,00,04,22,110,00,06,66,105,00,07,85,216,00*65
$BDGSV,3,3,12,09,77,016,00,16,71,098,00,17,67,147,00,19,14,319,00*66
$B3CN0,0,0,0,0,0,0,0,0,0,0,0,0,0,0*4C
$GNGGA,033219.500,2930.5661,N,10626.6969,E,1,08,1.1,422.8,M,,,,0000*15
$GNRMC,033219.500,A,2930.5661,N,10626.6969,E,0.18,192.61,120319,,*11
$GPGSA,A,3,03,16,26,31,32,,,,,,,,1.5,1.1,0.9*3C
$BDGSA,A,3,02,05,10,,,,,,,,,,1.5,1.1,0.9*28
$GLGSA,A,3,,,,,,,,,,,,,1.5,1.1,0.9*23
$GPGSV,3,1,10,03,28,307,47,26,62,202,35,31,58,003,35,32,52,101,35*78
$GPGSV,3,2,10,16,29,205,39,01,00,263,00,10,10,166,00,22,40,286,00*77
$GPGSV,3,3,10,25,14,039,00,29,16,072,00*79
$BDGSV,3,1,12,02,46,219,37,05,27,244,41,10,63,224,37,01,39,126,00*6A
$BDGSV,3,2,12,03,54,172,00,04,22,110,00,06,66,105,00,07,85,216,00*65
$BDGSV,3,3,12,09,77,016,00,16,71,098,00,17,67,147,00,19,14,319,00*66
$B3CN0,0,0,0,0,0,0,0,0,0,0,0,0,0,0*4C
$GNGGA,033219.600,2930.5660,N,10626.6968,E,1,08,1.1,423.0,M,,,,0000*1F
$GNRMC,033219.600,A,2930.5660,N,10626.6968,E,0.36,192.61,120319,,*1E
$GPGSA,A,3,03,16,26,31,32,,,,,,,,1.5,1.1,0.9*3C
$BDGSA,A,3,02,05,10,,,,,,,,,,1.5,1.1,0.9*28
$GLGSA,A,3,,,,,,,,,,,,,1.5,1.1,0.9*23
$GPGSV,3,1,10,03,28,307,47,26,62,202,35,31,58,003,35,32,52,101,35*78
$GPGSV,3,2,10,16,29,205,39,01,00,263,00,10,10,166,00,22,40,286,00*77
$GPGSV,3,3,10,25,14,039,00,29,16,072,00*79
$BDGSV,3,1,12,02,46,219,37,05,27,244,41,10,63,224,37,01,39,126,00*6A
$BDGSV,3,2,12,03,54,172,00,04,22,110,00,06,66,105,00,07,85,216,00*65
$BDGSV,3,3,12,09,77,016,00,16,71,098,00,17,67,147,00,19,14,319,00*66
$B3CN0,0,0,0,0,0,0,0,0,0,0,0,0,0,0*4C
$GNGGA,033219.700,2930.5659,N,10626.6968,E,1,08,1.1,423.2,M,,,,0000*16
$GNRMC,033219.700,A,2930.5659,N,10626.6968,E,0.38,192.61,120319,,*1B
$GPGSA,A,3,03,16,26,31,32,,,,,,,,1.5,1.1,0.9*3C
$BDGSA,A,3,02,05,10,,,,,,,,,,1.5,1.1,0.9*28
$GLGSA,A,3,,,,,,,,,,,,,1.5,1.1,0.9*23
$GPGSV,3,1,10,03,28,307,47,26,62,202,35,31,58,003,35,32,52,101,35*78
$GPGSV,3,2,10,16,29,205,39,01,00,263,00,10,10,166,00,22,40,286,00*77
$GPGSV,3,3,10,25,14,039,00,29,16,072,00*79
$BDGSV,3,1,12,02,46,219,37,05,27,244,41,10,63,224,37,01,39,126,00*6A
$BDGSV,3,2,12,03,54,172,00,04,22,110,00,06,66,105,00,07,85,216,00*65
$BDGSV,3,3,12,09,77,016,00,16,71,098,00,17,67,147,00,19,14,319,00*66
$B3CN0,0,0,0,0,0,0,0,0,0,0,0,0,0,0*4C
$GNGGA,033219.800,2930.5659,N,10626.6966,E,1,08,1.1,423.4,M,,,,0000*11
$GNRMC,033219.800,A,2930.5659,N,10626.6966,E,0.39,192.61,120319,,*1B
$GPGSA,A,3,03,16,26,31,32,,,,,,,,1.5,1.1,0.9*3C
$BDGSA,A,3,02,05,10,,,,,,,,,,1.5,1.1,0.9*28
$GLGSA,A,3,,,,,,,,,,,,,1.5,1.1,0.9*23
$GPGSV,3,1,10,03,28,307,47,26,62,202,36,31,58,003,36,32,52,101,35*78
$GPGSV,3,2,10,16,29,205,39,01,00,263,00,10,10,166,00,22,40,286,00*77
$GPGSV,3,3,10,25,14,039,00,29,16,072,00*79
$BDGSV,3,1,12,02,46,219,36,05,27,244,41,10,63,224,37,01,39,126,00*6B
$BDGSV,3,2,12,03,54,172,00,04,22,110,00,06,66,105,00,07,85,216,00*65
$BDGSV,3,3,12,09,77,016,00,16,71,098,00,17,67,147,00,19,14,319,00*66
$B3CN0,0,0,0,0,0,0,0,0,0,0,0,0,0,0*4C
$GNGGA,033219.900,2930.5658,N,10626.6965,E,1,08,1.1,423.6,M,,,,0000*10
$GNRMC,033219.900,A,2930.5658,N,10626.6965,E,0.20,192.61,120319,,*10
$GPGSA,A,3,03,16,26,31,32,,,,,,,,1.5,1.1,0.9*3C
$BDGSA,A,3,02,05,10,,,,,,,,,,1.5,1.1,0.9*28
$GLGSA,A,3,,,,,,,,,,,,,1.5,1.1,0.9*23
$GPGSV,3,1,10,03,28,307,47,26,62,202,36,31,58,003,36,32,52,101,35*78
$GPGSV,3,2,10,16,29,205,39,01,00,263,00,10,10,166,00,22,40,286,00*77
$GPGSV,3,3,10,25,14,039,00,29,16,072,00*79
$BDGSV,3,1,12,02,46,219,36,05,27,244,41,10,63,224,37,01,39,126,00*6B
$BDGSV,3,2,12,03,54,172,00,04,22,110,00,06,66,105,00,07,85,216,00*65
$BDGSV,3,3,12,09,77,016,00,16,71,098,00,17,67,147,00,19,14,319,00*66
$B3CN0,0,0,0,0,0,0,0,0,0,0,0,0,0,0*4C
$GNGGA,033220.000,2930.5658,N,10626.6964,E,1,08,1.1,423.8,M,,,,0000*1C
$GNRMC,033220.000,A,2930.5658,N,10626.6964,E,0.41,192.61,120319,,*15
$GPGSA,A,3,03,16,26,31,32,,,,,,,,1.5,1.1,0.9*3C
$BDGSA,A,3,02,05,10,,,,,,,,,,1.5,1.1,0.9*28
$GLGSA,A,3,,,,,,,,,,,,,1.5,1.1,0.9*23
$GPGSV,3,1,10,03,28,307,47,26,62,202,36,31,58,003,36,32,52,101,35*78
$GPGSV,3,2,10,16,29,205,39,01,00,263,00,10,10,166,00,22,40,286,00*77
$GPGSV,3,3,10,25,14,039,00,29,16,072,00*79
$BDGSV,3,1,12,02,46,219,36,05,27,244,41,10,63,224,37,01,39,126,00*6B
$BDGSV,3,2,12,03,54,172,00,04,22,110,00,06,66,105,00,07,85,216,00*65
$BDGSV,3,3,12,09,77,016,00,16,71,098,00,17,67,147,00,19,14,319,00*66
$B3CN0,0,0,0,0,0,0,0,0,0,0,0,0,0,0*4C
$GNGGA,033220.100,2930.5657,N,10626.6962,E,1,08,1.1,424.0,M,,,,0000*1B
$GNRMC,033220.100,A,2930.5657,N,10626.6962,E,0.48,192.61,120319,,*14
$GPGSA,A,3,03,16,26,31,32,,,,,,,,1.5,1.1,0.9*3C
$BDGSA,A,3,02,05,10,,,,,,,,,,1.5,1.1,0.9*28
$GLGSA,A,3,,,,,,,,,,,,,1.5,1.1,0.9*23
$GPGSV,3,1,10,03,28,307,47,26,62,202,36,31,58,003,36,32,52,101,35*78
$GPGSV,3,2,10,16,29,205,39,01,00,263,00,10,10,166,00,22,40,286,00*77
$GPGSV,3,3,10,25,14,039,00,29,16,072,00*79
$BDGSV,3,1,12,02,46,219,36,05,27,244,41,10,63,224,37,01,39,126,00*6B
$BDGSV,3,2,12,03,54,172,00,04,22,110,00,06,66,105,00,07,85,216,00*65
$BDGSV,3,3,12,09,77,016,00,16,71,098,00,17,67,147,00,19,14,319,00*66
$B3CN0,0,0,0,0,0,0,0,0,0,0,0,0,0,0*4C
$GNGGA,033220.200,2930.5657,N,10626.6961,E,1,08,1.1,424.1,M,,,,0000*1A
$GNRMC,033220.200,A,2930.5657,N,10626.6961,E,0.91,192.61,120319,,*10
$GPGSA,A,3,03,16,26,31,32,,,,,,,,1.5,1.1,0.9*3C
$BDGSA,A,3,02,05,10,,,,,,,,,,1.5,1.1,0.9*28
$GLGSA,A,3,,,,,,,,,,,,,1.5,1.1,0.9*23
$GPGSV,3,1,10,03,28,307,47,26,62,202,36,31,58,003,36,32,52,101,35*78
$GPGSV,3,2,10,16,29,205,39,01,00,263,00,10,10,166,00,22,40,286,00*77
$GPGSV,3,3,10,25,14,039,00,29,16,072,00*79
$BDGSV,3,1,12,02,46,219,36,05,27,244,41,10,63,224,37,01,39,126,00*6B
$BDGSV,3,2,12,03,54,172,00,04,22,110,00,06,66,105,00,07,85,216,00*65
$BDGSV,3,3,12,09,77,016,00,16,71,098,00,17,67,147,00,19,14,319,00*66
$B3CN0,0,0,0,0,0,0,0,0,0,0,0,0,0,0*4C
$GNGGA,033220.300,2930.5656,N,10626.6960,E,1,08,1.1,424.2,M,,,,0000*18
$GNRMC,033220.300,A,2930.5656,N,10626.6960,E,1.28,192.61,120319,,*12
$GPGSA,A,3,03,16,26,31,32,,,,,,,,1.5,1.1,0.9*3C
$BDGSA,A,3,02,05,10,,,,,,,,,,1.5,1.1,0.9*28
$GLGSA,A,3,,,,,,,,,,,,,1.5,1.1,0.9*23
$GPGSV,3,1,10,03,28,307,47,26,62,202,36,31,58,003,36,32,52,101,35*78
$GPGSV,3,2,10,16,29,205,39,01,00,263,00,10,10,166,00,22,40,286,00*77
$GPGSV,3,3,10,25,14,039,00,29,16,072,00*79
$BDGSV,3,1,12,02,46,219,36,05,27,244,41,10,63,224,37,01,39,126,00*6B
$BDGSV,3,2,12,03,54,172,00,04,22,110,00,06,66,105,00,07,85,216,00*65
$BDGSV,3,3,12,09,77,016,00,16,71,098,00,17,67,147,00,19,14,319,00*66
$B3CN0,0,0,0,0,0,0,0,0,0,0,0,0,0,0*4C
$GNGGA,033220.400,2930.5656,N,10626.6958,E,1,08,1.1,424.4,M,,,,0000*12
$GNRMC,033220.400,A,2930.5656,N,10626.6958,E,1.42,192.61,120319,,*12
$GPGSA,A,3,03,16,26,31,32,,,,,,,,1.5,1.1,0.9*3C
$BDGSA,A,3,02,05,10,,,,,,,,,,1.5,1.1,0.9*28
$GLGSA,A,3,,,,,,,,,,,,,1.5,1.1,0.9*23
$GPGSV,3,1,10,03,28,307,47,26,62,202,36,31,58,003,36,32,52,101,35*78
$GPGSV,3,2,10,16,29,205,39,01,00,263,00,10,10,166,00,22,40,286,00*77
$GPGSV,3,3,10,25,14,039,00,29,16,072,00*79
$BDGSV,3,1,12,02,46,219,36,05,27,244,41,10,63,224,37,01,39,126,00*6B
$BDGSV,3,2,12,03,54,172,00,04,22,110,00,06,66,105,00,07,85,216,00*65
$BDGSV,3,3,12,09,77,016,00,16,71,098,00,17,67,147,00,19,14,319,00*66
$B3CN0,0,0,0,0,0,0,0,0,0,0,0,0,0,0*4C
$GNGGA,033220.500,2930.5655,N,10626.6957,E,1,08,1.1,424.5,M,,,,0000*1E
$GNRMC,033220.500,A,2930.5655,N,10626.6957,E,1.38,192.61,120319,,*12
$GPGSA,A,3,03,16,26,31,32,,,,,,,,1.5,1.1,0.9*3C
$BDGSA,A,3,02,05,10,,,,,,,,,,1.5,1.1,0.9*28
$GLGSA,A,3,,,,,,,,,,,,,1.5,1.1,0.9*23
$GPGSV,3,1,10,03,28,307,47,26,62,202,36,31,58,003,36,32,52,101,35*78
$GPGSV,3,2,10,16,29,205,39,01,00,263,00,10,10,166,00,22,40,286,00*77
$GPGSV,3,3,10,25,14,039,00,29,16,072,00*79
$BDGSV,3,1,12,02,46,219,36,05,27,244,41,10,63,224,37,01,39,126,00*6B
$BDGSV,3,2,12,03,54,172,00,04,22,110,00,06,66,105,00,07,85,216,00*65
$BDGSV,3,3,12,09,77,016,00,16,71,098,00,17,67,147,00,19,14,319,00*66
$B3CN0,0,0,0,0,0,0,0,0,0,0,0,0,0,0*4C
$GNGGA,033220.600,2930.5654,N,10626.6957,E,1,08,1.1,424.7,M,,,,0000*1E
$GNRMC,033220.600,A,2930.5654,N,10626.6957,E,1.07,192.61,120319,,*1C
$GPGSA,A,3,03,16,26,31,32,,,,,,,,1.5,1.1,0.9*3C
$BDGSA,A,3,02,05,10,,,,,,,,,,1.5,1.1,0.9*28
$GLGSA,A,3,,,,,,,,,,,,,1.5,1.1,0.9*23
$GPGSV,3,1,10,03,28,307,47,26,62,202,36,31,58,003,36,32,52,101,35*78
$GPGSV,3,2,10,16,29,205,39,01,00,263,00,10,10,166,00,22,40,286,00*77
$GPGSV,3,3,10,25,14,039,00,29,16,072,00*79
$BDGSV,3,1,12,02,46,219,36,05,27,244,41,10,63,224,37,01,39,126,00*6B
$BDGSV,3,2,12,03,54,172,00,04,22,110,00,06,66,105,00,07,85,216,00*65
$BDGSV,3,3,12,09,77,016,00,16,71,098,00,17,67,147,00,19,14,319,00*66
$B3CN0,0,0,0,0,0,0,0,0,0,0,0,0,0,0*4C
$GNGGA,033220.700,2930.5653,N,10626.6956,E,1,08,1.1,424.8,M,,,,0000*16
$GNRMC,033220.700,A,2930.5653,N,10626.6956,E,0.85,192.61,120319,,*10
$GPGSA,A,3,03,16,26,31,32,,,,,,,,1.5,1.1,0.9*3C
$BDGSA,A,3,02,05,10,,,,,,,,,,1.5,1.1,0.9*28
$GLGSA,A,3,,,,,,,,,,,,,1.5,1.1,0.9*23
$GPGSV,3,1,10,03,28,307,47,26,62,202,36,31,58,003,36,32,52,101,35*78
$GPGSV,3,2,10,16,29,205,39,01,00,263,00,10,10,166,00,22,40,286,00*77
$GPGSV,3,3,10,25,14,039,00,29,16,072,00*79
$BDGSV,3,1,12,02,46,219,36,05,27,244,41,10,63,224,37,01,39,126,00*6B
$BDGSV,3,2,12,03,54,172,00,04,22,110,00,06,66,105,00,07,85,216,00*65
$BDGSV,3,3,12,09,77,016,00,16,71,098,00,17,67,147,00,19,14,319,00*66
$B3CN0,0,0,0,0,0,0,0,0,0,0,0,0,0,0*4C
$GNGGA,033220.800,2930.5653,N,10626.6955,E,1,08,1.1,424.9,M,,,,0000*1B
$GNRMC,033220.800,A,2930.5653,N,10626.6955,E,0.75,192.61,120319,,*13
$GPGSA,A,3,03,16,26,31,32,,,,,,,,1.5,1.1,0.9*3C
$BDGSA,A,3,02,05,10,,,,,,,,,,1.5,1.1,0.9*28
$GLGSA,A,3,,,,,,,,,,,,,1.5,1.1,0.9*23
$GPGSV,3,1,10,03,28,307,47,26,62,202,35,31,58,003,37,32,52,101,34*7B
$GPGSV,3,2,10,16,29,205,39,01,00,263,00,10,10,166,00,22,40,286,00*77
$GPGSV,3,3,10,25,14,039,00,29,16,072,00*79
$BDGSV,3,1,12,02,46,219,37,05,27,244,39,10,63,224,37,01,39,126,00*65
$BDGSV,3,2,12,03,54,172,00,04,22,110,00,06,66,105,00,07,85,216,00*65
$BDGSV,3,3,12,09,77,016,00,16,71,098,00,17,67,147,00,19,14,319,00*66
$B3CN0,0,0,0,0,0,0,0,0,0,0,0,0,0,0*4C
$GNGGA,033220.900,2930.5652,N,10626.6954,E,1,08,1.1,425.0,M,,,,0000*12
$GNRMC,033220.900,A,2930.5652,N,10626.6954,E,0.57,192.61,120319,,*12
$GPGSA,A,3,03,16,26,31,32,,,,,,,,1.5,1.1,0.9*3C
$BDGSA,A,3,02,05,10,,,,,,,,,,1.5,1.1,0.9*28
$GLGSA,A,3,,,,,,,,,,,,,1.5,1.1,0.9*23
$GPGSV,3,1,10,03,28,307,47,26,62,202,35,31,58,003,37,32,52,101,34*7B
$GPGSV,3,2,10,16,29,205,39,01,00,263,00,10,10,166,00,22,40,286,00*77
$GPGSV,3,3,10,25,14,039,00,29,16,072,00*79
$BDGSV,3,1,12,02,46,219,37,05,27,244,39,10,63,224,37,01,39,126,00*65
$BDGSV,3,2,12,03,54,172,00,04,22,110,00,06,66,105,00,07,85,216,00*65
$BDGSV,3,3,12,09,77,016,00,16,71,098,00,17,67,147,00,19,14,319,00*66
$B3CN0,0,0,0,0,0,0,0,0,0,0,0,0,0,0*4C
$GNGGA,033221.000,2930.5651,N,10626.6954,E,1,08,1.1,425.1,M,,,,0000*18
$GNRMC,033221.000,A,2930.5651,N,10626.6954,E,0.74,192.61,120319,,*18
$GPGSA,A,3,03,16,26,31,32,,,,,,,,1.5,1.1,0.9*3C
$BDGSA,A,3,02,05,10,,,,,,,,,,1.5,1.1,0.9*28
$GLGSA,A,3,,,,,,,,,,,,,1.5,1.1,0.9*23
$GPGSV,3,1,10,03,28,307,47,26,62,202,35,31,58,003,37,32,52,101,34*7B
$GPGSV,3,2,10,16,29,205,39,01,00,263,00,10,10,166,00,22,40,286,00*77
$GPGSV,3,3,10,25,14,039,00,29,16,072,00*79
$BDGSV,3,1,12,02,46,219,37,05,27,244,39,10,63,224,37,01,39,126,00*65
$BDGSV,3,2,12,03,54,172,00,04,22,110,00,06,66,105,00,07,85,216,00*65
$BDGSV,3,3,12,09,77,016,00,16,71,098,00,17,67,147,00,19,14,319,00*66
$B3CN0,0,0,0,0,0,0,0,0,0,0,0,0,0,0*4C
$GNGGA,033221.100,2930.5650,N,10626.6953,E,1,08,1.1,425.2,M,,,,0000*1C
$GNRMC,033221.100,A,2930.5650,N,10626.6953,E,0.69,192.61,120319,,*13
$GPGSA,A,3,03,16,26,31,32,,,,,,,,1.5,1.1,0.9*3C
$BDGSA,A,3,02,05,10,,,,,,,,,,1.5,1.1,0.9*28
$GLGSA,A,3,,,,,,,,,,,,,1.5,1.1,0.9*23
$GPGSV,3,1,10,03,28,307,47,26,62,202,35,31,58,003,37,32,52,101,34*7B
$GPGSV,3,2,10,16,29,205,39,01,00,263,00,10,10,166,00,22,40,286,00*77
$GPGSV,3,3,10,25,14,039,00,29,16,072,00*79
$BDGSV,3,1,12,02,46,219,37,05,27,244,39,10,63,224,37,01,39,126,00*65
$BDGSV,3,2,12,03,54,172,00,04,22,110,00,06,66,105,00,07,85,216,00*65
$BDGSV,3,3,12,09,77,016,00,16,71,098,00,17,67,147,00,19,14,319,00*66
$B3CN0,0,0,0,0,0,0,0,0,0,0,0,0,0,0*4C
$GNGGA,033221.200,2930.5649,N,10626.6952,E,1,08,1.1,425.2,M,,,,0000*16
$GNRMC,033221.200,A,2930.5649,N,10626.6952,E,0.34,192.61,120319,,*11
$GPGSA,A,3,03,16,26,31,32,,,,,,,,1.5,1.1,0.9*3C
$BDGSA,A,3,02,05,10,,,,,,,,,,1.5,1.1,0.9*28
$GLGSA,A,3,,,,,,,,,,,,,1.5,1.1,0.9*23
$GPGSV,3,1,10,03,28,307,47,26,62,202,35,31,58,003,37,32,52,101,34*7B
$GPGSV,3,2,10,16,29,205,39,01,00,263,00,10,10,166,00,22,40,286,00*77
$GPGSV,3,3,10,25,14,039,00,29,16,072,00*79
$BDGSV,3,1,12,02,46,219,37,05,27,244,39,10,63,224,37,01,39,126,00*65
$BDGSV,3,2,12,03,54,172,00,04,22,110,00,06,66,105,00,07,85,216,00*65
$BDGSV,3,3,12,09,77,016,00,16,71,098,00,17,67,147,00,19,14,319,00*66
$B3CN0,0,0,0,0,0,0,0,0,0,0,0,0,0,0*4C
$GNGGA,033221.300,2930.5648,N,10626.6951,E,1,08,1.1,425.3,M,,,,0000*14
$GNRMC,033221.300,A,2930.5648,N,10626.6951,E,0.18,192.61,120319,,*1C
$GPGSA,A,3,03,16,26,31,32,,,,,,,,1.5,1.1,0.9*3C
$BDGSA,A,3,02,05,10,,,,,,,,,,1.5,1.1,0.9*28
$GLGSA,A,3,,,,,,,,,,,,,1.5,1.1,0.9*23
$GPGSV,3,1,10,03,28,307,47,26,62,202,35,31,58,003,37,32,52,101,34*7B
$GPGSV,3,2,10,16,29,205,39,01,00,263,00,10,10,166,00,22,40,286,00*77
$GPGSV,3,3,10,25,14,039,00,29,16,072,00*79
$BDGSV,3,1,12,02,46,219,37,05,27,244,39,10,63,224,37,01,39,126,00*65
$BDGSV,3,2,12,03,54,172,00,04,22,110,00,06,66,105,00,07,85,216,00*65
$BDGSV,3,3,12,09,77,016,00,16,71,098,00,17,67,147,00,19,14,319,00*66
$B3CN0,0,0,0,0,0,0,0,0,0,0,0,0,0,0*4C
$GNGGA,033221.400,2930.5647,N,10626.6950,E,1,08,1.1,425.3,M,,,,0000*1D
$GNRMC,033221.400,A,2930.5647,N,10626.6950,E,0.19,192.61,120319,,*14
$GPGSA,A,3,03,16,26,31,32,,,,,,,,1.5,1.1,0.9*3C
$BDGSA,A,3,02,05,10,,,,,,,,,,1.5,1.1,0.9*28
$GLGSA,A,3,,,,,,,,,,,,,1.5,1.1,0.9*23
$GPGSV,3,1,10,03,28,307,47,26,62,202,35,31,58,003,37,32,52,101,34*7B
$GPGSV,3,2,10,16,29,205,39,01,00,263,00,10,10,166,00,22,40,286,00*77
$GPGSV,3,3,10,25,14,039,00,29,16,072,00*79
$BDGSV,3,1,12,02,46,219,37,05,27,244,39,10,63,224,37,01,39,126,00*65
$BDGSV,3,2,12,03,54,172,00,04,22,110,00,06,66,105,00,07,85,216,00*65
$BDGSV,3,3,12,09,77,016,00,16,71,098,00,17,67,147,00,19,14,319,00*66
$B3CN0,0,0,0,0,0,0,0,0,0,0,0,0,0,0*4C
$GNGGA,033221.500,2930.5647,N,10626.6950,E,1,08,1.1,425.4,M,,,,0000*1B
$GNRMC,033221.500,A,2930.5647,N,10626.6950,E,0.33,192.61,120319,,*1D
$GPGSA,A,3,03,16,26,31,32,,,,,,,,1.5,1.1,0.9*3C
$BDGSA,A,3,02,05,10,,,,,,,,,,1.5,1.1,0.9*28
$GLGSA,A,3,,,,,,,,,,,,,1.5,1.1,0.9*23
$GPGSV,3,1,10,03,28,307,47,26,62,202,35,31,58,003,37,32,52,101,34*7B
$GPGSV,3,2,10,16,29,205,39,01,00,263,00,10,10,166,00,22,40,286,00*77
$GPGSV,3,3,10,25,14,039,00,29,16,072,00*79
$BDGSV,3,1,12,02,46,219,37,05,27,244,39,10,63,224,37,01,39,126,00*65
$BDGSV,3,2,12,03,54,172,00,04,22,110,00,06,66,105,00,07,85,216,00*65
$BDGSV,3,3,12,09,77,016,00,16,71,098,00,17,67,147,00,19,14,319,00*66
$B3CN0,0,0,0,0,0,0,0,0,0,0,0,0,0,0*4C
$GNGGA,033221.600,2930.5646,N,10626.6950,E,1,08,1.1,425.5,M,,,,0000*18
$GNRMC,033221.600,A,2930.5646,N,10626.6950,E,0.50,192.61,120319,,*1A
$GPGSA,A,3,03,16,26,31,32,,,,,,,,1.5,1.1,0.9*3C
$BDGSA,A,3,02,05,10,,,,,,,,,,1.5,1.1,0.9*28
$GLGSA,A,3,,,,,,,,,,,,,1.5,1.1,0.9*23
$GPGSV,3,1,10,03,28,307,47,26,62,202,35,31,58,003,37,32,52,101,34*7B
$GPGSV,3,2,10,16,29,205,39,01,00,263,00,10,10,166,00,22,40,286,00*77
$GPGSV,3,3,10,25,14,039,00,29,16,072,00*79
$BDGSV,3,1,12,02,46,219,37,05,27,244,39,10,63,224,37,01,39,126,00*65
$BDGSV,3,2,12,03,54,172,00,04,22,110,00,06,66,105,00,07,85,216,00*65
$BDGSV,3,3,12,09,77,016,00,16,71,098,00,17,67,147,00,19,14,319,00*66
$B3CN0,0,0,0,0,0,0,0,0,0,0,0,0,0,0*4C
$GNGGA,033221.700,2930.5645,N,10626.6949,E,1,08,1.1,425.5,M,,,,0000*12
$GNRMC,033221.700,A,2930.5645,N,10626.6949,E,0.25,192.61,120319,,*12
$GPGSA,A,3,03,16,26,31,32,,,,,,,,1.5,1.1,0.9*3C
$BDGSA,A,3,02,05,10,,,,,,,,,,1.5,1.1,0.9*28
$GLGSA,A,3,,,,,,,,,,,,,1.5,1.1,0.9*23
$GPGSV,3,1,10,03,28,307,47,26,62,202,35,31,58,003,37,32,52,101,34*7B
$GPGSV,3,2,10,16,29,205,39,01,00,263,00,10,10,166,00,22,40,286,00*77
$GPGSV,3,3,10,25,14,039,00,29,16,072,00*79
$BDGSV,3,1,12,02,46,219,37,05,27,244,39,10,63,224,37,01,39,126,00*65
$BDGSV,3,2,12,03,54,172,00,04,22,110,00,06,66,105,00,07,85,216,00*65
$BDGSV,3,3,12,09,77,016,00,16,71,098,00,17,67,147,00,19,14,319,00*66
$B3CN0,0,0,0,0,0,0,0,0,0,0,0,0,0,0*4C
$GNGGA,033221.800,2930.5645,N,10626.6949,E,1,08,1.1,425.6,M,,,,0000*1E
$GNRMC,033221.800,A,2930.5645,N,10626.6949,E,0.47,192.61,120319,,*19
$GPGSA,A,3,03,16,26,31,32,,,,,,,,1.5,1.1,0.9*3C
$BDGSA,A,3,02,05,10,,,,,,,,,,1.5,1.1,0.9*28
$GLGSA,A,3,,,,,,,,,,,,,1.5,1.1,0.9*23
$GPGSV,3,1,10,03,28,307,47,26,62,202,35,31,58,003,37,32,52,101,33*7C
$GPGSV,3,2,10,16,29,205,39,01,00,263,00,10,10,166,00,22,40,286,00*77
$GPGSV,3,3,10,25,14,039,00,29,16,072,00*79
$BDGSV,3,1,12,02,46,219,37,05,27,244,41,10,63,224,36,01,39,126,00*6B
$BDGSV,3,2,12,03,54,172,00,04,22,110,00,06,66,105,00,07,85,216,00*65
$BDGSV,3,3,12,09,77,016,00,16,71,098,00,17,67,147,00,19,14,319,00*66
$B3CN0,0,0,0,0,0,0,0,0,0,0,0,0,0,0*4C
$GNGGA,033221.900,2930.5644,N,10626.6948,E,1,08,1.1,425.6,M,,,,0000*1F
$GNRMC,033221.900,A,2930.5644,N,10626.6948,E,0.31,192.61,120319,,*19
$GPGSA,A,3,03,16,26,31,32,,,,,,,,1.5,1.1,0.9*3C
$BDGSA,A,3,02,05,10,,,,,,,,,,1.5,1.1,0.9*28
$GLGSA,A,3,,,,,,,,,,,,,1.5,1.1,0.9*23
$GPGSV,3,1,10,03,28,307,47,26,62,202,35,31,58,003,37,32,52,101,33*7C
$GPGSV,3,2,10,16,29,205,39,01,00,263,00,10,10,166,00,22,40,286,00*77
$GPGSV,3,3,10,25,14,039,00,29,16,072,00*79
$BDGSV,3,1,12,02,46,219,37,05,27,244,41,10,63,224,36,01,39,126,00*6B
$BDGSV,3,2,12,03,54,172,00,04,22,110,00,06,66,105,00,07,85,216,00*65
$BDGSV,3,3,12,09,77,016,00,16,71,098,00,17,67,147,00,19,14,319,00*66
$B3CN0,0,0,0,0,0,0,0,0,0,0,0,0,0,0*4C
$GNGGA,033222.000,2930.5644,N,10626.6947,E,1,08,1.1,425.7,M,,,,0000*1B
$GNRMC,033222.000,A,2930.5644,N,10626.6947,E,0.18,192.61,120319,,*17
$GPGSA,A,3,03,16,26,31,32,,,,,,,,1.5,1.1,0.9*3C
$BDGSA,A,3,02,05,10,,,,,,,,,,1.5,1.1,0.9*28
$GLGSA,A,3,,,,,,,,,,,,,1.5,1.1,0.9*23
$GPGSV,3,1,10,03,28,307,47,26,62,202,35,31,58,003,37,32,52,101,33*7C
$GPGSV,3,2,10,16,29,205,39,01,00,263,00,10,10,166,00,22,40,286,00*77
$GPGSV,3,3,10,25,14,039,00,29,16,072,00*79
$BDGSV,3,1,12,02,46,219,37,05,27,244,41,10,63,224,36,01,39,126,00*6B
$BDGSV,3,2,12,03,54,172,00,04,22,110,00,06,66,105,00,07,85,216,00*65
$BDGSV,3,3,12,09,77,016,00,16,71,098,00,17,67,147,00,19,14,319,00*66
$B3CN0,0,0,0,0,0,0,0,0,0,0,0,0,0,0*4C
$GNGGA,033222.100,2930.5643,N,10626.6947,E,1,08,1.1,425.7,M,,,,0000*1D
$GNRMC,033222.100,A,2930.5643,N,10626.6947,E,0.67,192.61,120319,,*19
$GPGSA,A,3,03,16,26,31,32,,,,,,,,1.5,1.1,0.9*3C
$BDGSA,A,3,02,05,10,,,,,,,,,,1.5,1.1,0.9*28
$GLGSA,A,3,,,,,,,,,,,,,1.5,1.1,0.9*23
$GPGSV,3,1,10,03,28,307,47,26,62,202,35,31,58,003,37,32,52,101,33*7C
$GPGSV,3,2,10,16,29,205,39,01,00,263,00,10,10,166,00,22,40,286,00*77
$GPGSV,3,3,10,25,14,039,00,29,16,072,00*79
$BDGSV,3,1,12,02,46,219,37,05,27,244,41,10,63,224,36,01,39,126,00*6B
$BDGSV,3,2,12,03,54,172,00,04,22,110,00,06,66,105,00,07,85,216,00*65
$BDGSV,3,3,12,09,77,016,00,16,71,098,00,17,67,147,00,19,14,319,00*66
$B3CN0,0,0,0,0,0,0,0,0,0,0,0,0,0,0*4C
$GNGGA,033222.200,2930.5642,N,10626.6946,E,1,08,1.1,425.7,M,,,,0000*1E
$GNRMC,033222.200,A,2930.5642,N,10626.6946,E,1.04,192.61,120319,,*1E
$GPGSA,A,3,03,16,26,31,32,,,,,,,,1.5,1.1,0.9*3C
$BDGSA,A,3,02,05,10,,,,,,,,,,1.5,1.1,0.9*28
$GLGSA,A,3,,,,,,,,,,,,,1.5,1.1,0.9*23
$GPGSV,3,1,10,03,28,307,47,26,62,202,35,31,58,003,37,32,52,101,33*7C
$GPGSV,3,2,10,16,29,205,39,01,00,263,00,10,10,166,00,22,40,286,00*77
$GPGSV,3,3,10,25,14,039,00,29,16,072,00*79
$BDGSV,3,1,12,02,46,219,37,05,27,244,41,10,63,224,36,01,39,126,00*6B
$BDGSV,3,2,12,03,54,172,00,04,22,110,00,06,66,105,00,07,85,216,00*65
$BDGSV,3,3,12,09,77,016,00,16,71,098,00,17,67,147,00,19,14,319,00*66
$B3CN0,0,0,0,0,0,0,0,0,0,0,0,0,0,0*4C
$GNGGA,033222.300,2930.5641,N,10626.6946,E,1,08,1.1,425.7,M,,,,0000*1C
$GNRMC,033222.300,A,2930.5641,N,10626.6946,E,1.16,192.61,120319,,*1F
$GPGSA,A,3,03,16,26,31,32,,,,,,,,1.5,1.1,0.9*3C
$BDGSA,A,3,02,05,10,,,,,,,,,,1.5,1.1,0.9*28
$GLGSA,A,3,,,,,,,,,,,,,1.5,1.1,0.9*23
$GPGSV,3,1,10,03,28,307,47,26,62,202,35,31,58,003,37,32,52,101,33*7C
$GPGSV,3,2,10,16,29,205,39,01,00,263,00,10,10,166,00,22,40,286,00*77
$GPGSV,3,3,10,25,14,039,00,29,16,072,00*79
$BDGSV,3,1,12,02,46,219,37,05,27,244,41,10,63,224,36,01,39,126,00*6B
$BDGSV,3,2,12,03,54,172,00,04,22,110,00,06,66,105,00,07,85,216,00*65
$BDGSV,3,3,12,09,77,016,00,16,71,098,00,17,67,147,00,19,14,319,00*66
$B3CN0,0,0,0,0,0,0,0,0,0,0,0,0,0,0*4C
$GNGGA,033222.400,2930.5641,N,10626.6945,E,1,08,1.1,425.7,M,,,,0000*18
$GNRMC,033222.400,A,2930.5641,N,10626.6945,E,1.23,192.61,120319,,*1D
$GPGSA,A,3,03,16,26,31,32,,,,,,,,1.5,1.1,0.9*3C
$BDGSA,A,3,02,05,10,,,,,,,,,,1.5,1.1,0.9*28
$GLGSA,A,3,,,,,,,,,,,,,1.5,1.1,0.9*23
$GPGSV,3,1,10,03,28,307,47,26,62,202,35,31,58,003,37,32,52,101,33*7C
$GPGSV,3,2,10,16,29,205,39,01,00,263,00,10,10,166,00,22,40,286,00*77
$GPGSV,3,3,10,25,14,039,00,29,16,072,00*79
$BDGSV,3,1,12,02,46,219,37,05,27,244,41,10,63,224,36,01,39,126,00*6B
$BDGSV,3,2,12,03,54,172,00,04,22,110,00,06,66,105,00,07,85,216,00*65
$BDGSV,3,3,12,09,77,016,00,16,71,098,00,17,67,147,00,19,14,319,00*66
$B3CN0,0,0,0,0,0,0,0,0,0,0,0,0,0,0*4C
$GNGGA,033222.500,2930.5640,N,10626.6945,E,1,08,1.1,425.7,M,,,,0000*18
$GNRMC,033222.500,A,2930.5640,N,10626.6945,E,1.16,192.61,120319,,*1B
$GPGSA,A,3,03,16,26,31,32,,,,,,,,1.5,1.1,0.9*3C
$BDGSA,A,3,02,05,10,,,,,,,,,,1.5,1.1,0.9*28
$GLGSA,A,3,,,,,,,,,,,,,1.5,1.1,0.9*23
$GPGSV,3,1,10,03,28,307,47,26,62,202,35,31,58,003,37,32,52,101,33*7C
$GPGSV,3,2,10,16,29,205,39,01,00,263,00,10,10,166,00,22,40,286,00*77
$GPGSV,3,3,10,25,14,039,00,29,16,072,00*79
$BDGSV,3,1,12,02,46,219,37,05,27,244,41,10,63,224,36,01,39,126,00*6B
$BDGSV,3,2,12,03,54,172,00,04,22,110,00,06,66,105,00,07,85,216,00*65
$BDGSV,3,3,12,09,77,016,00,16,71,098,00,17,67,147,00,19,14,319,00*66
$B3CN0,0,0,0,0,0,0,0,0,0,0,0,0,0,0*4C
$GNGGA,033222.600,2930.5639,N,10626.6944,E,1,08,1.1,425.7,M,,,,0000*14
$GNRMC,033222.600,A,2930.5639,N,10626.6944,E,1.11,192.61,120319,,*10
$GPGSA,A,3,03,16,26,31,32,,,,,,,,1.5,1.1,0.9*3C
$BDGSA,A,3,02,05,10,,,,,,,,,,1.5,1.1,0.9*28
$GLGSA,A,3,,,,,,,,,,,,,1.5,1.1,0.9*23
$GPGSV,3,1,10,03,28,307,47,26,62,202,35,31,58,003,37,32,52,101,33*7C
$GPGSV,3,2,10,16,29,205,39,01,00,263,00,10,10,166,00,22,40,286,00*77
$GPGSV,3,3,10,25,14,039,00,29,16,072,00*79
$BDGSV,3,1,12,02,46,219,37,05,27,244,41,10,63,224,36,01,39,126,00*6B
$BDGSV,3,2,12,03,54,172,00,04,22,110,00,06,66,105,00,07,85,216,00*65
$BDGSV,3,3,12,09,77,016,00,16,71,098,00,17,67,147,00,19,14,319,00*66
$B3CN0,0,0,0,0,0,0,0,0,0,0,0,0,0,0*4C
$GNGGA,033222.700,2930.5638,N,10626.6944,E,1,08,1.1,425.8,M,,,,0000*1B
$GNRMC,033222.700,A,2930.5638,N,10626.6944,E,1.02,192.61,120319,,*12
$GPGSA,A,3,03,16,26,31,32,,,,,,,,1.5,1.1,0.9*3C
$BDGSA,A,3,02,05,10,,,,,,,,,,1.5,1.1,0.9*28
$GLGSA,A,3,,,,,,,,,,,,,1.5,1.1,0.9*23
$GPGSV,3,1,10,03,28,307,47,26,62,202,35,31,58,003,37,32,52,101,33*7C
$GPGSV,3,2,10,16,29,205,39,01,00,263,00,10,10,166,00,22,40,286,00*77
$GPGSV,3,3,10,25,14,039,00,29,16,072,00*79
$BDGSV,3,1,12,02,46,219,37,05,27,244,41,10,63,224,36,01,39,126,00*6B
$BDGSV,3,2,12,03,54,172,00,04,22,110,00,06,66,105,00,07,85,216,00*65
$BDGSV,3,3,12,09,77,016,00,16,71,098,00,17,67,147,00,19,14,319,00*66
$B3CN0,0,0,0,0,0,0,0,0,0,0,0,0,0,0*4C
$GNGGA,033222.800,2930.5637,N,10626.6943,E,1,08,1.1,425.8,M,,,,0000*1C
$GNRMC,033222.800,A,2930.5637,N,10626.6943,E,1.01,192.61,120319,,*16
$GPGSA,A,3,03,16,26,31,32,,,,,,,,1.5,1.1,0.9*3C
$BDGSA,A,3,02,05,10,,,,,,,,,,1.5,1.1,0.9*28
$GLGSA,A,3,,,,,,,,,,,,,1.5,1.1,0.9*23
$GPGSV,3,1,10,03,28,307,47,26,62,202,35,31,58,003,38,32,52,101,33*73
$GPGSV,3,2,10,16,29,205,39,01,00,263,00,10,10,166,00,22,40,286,00*77
$GPGSV,3,3,10,25,14,039,00,29,16,072,00*79
$BDGSV,3,1,12,02,46,219,37,05,27,244,42,10,63,224,37,01,39,126,00*69
$BDGSV,3,2,12,03,54,172,00,04,22,110,00,06,66,105,00,07,85,216,00*65
$BDGSV,3,3,12,09,77,016,00,16,71,098,00,17,67,147,00,19,14,319,00*66
$B3CN0,0,0,0,0,0,0,0,0,0,0,0,0,0,0*4C
$GNGGA,033222.900,2930.5636,N,10626.6943,E,1,08,1.1,425.9,M,,,,0000*1D
$GNRMC,033222.900,A,2930.5636,N,10626.6943,E,0.75,192.61,120319,,*14
$GPGSA,A,3,03,16,26,31,32,,,,,,,,1.5,1.1,0.9*3C
$BDGSA,A,3,02,05,10,,,,,,,,,,1.5,1.1,0.9*28
$GLGSA,A,3,,,,,,,,,,,,,1.5,1.1,0.9*23
$GPGSV,3,1,10,03,28,307,47,26,62,202,35,31,58,003,38,32,52,101,33*73
$GPGSV,3,2,10,16,29,205,39,01,00,263,00,10,10,166,00,22,40,286,00*77
$GPGSV,3,3,10,25,14,039,00,29,16,072,00*79
$BDGSV,3,1,12,02,46,219,37,05,27,244,42,10,63,224,37,01,39,126,00*69
$BDGSV,3,2,12,03,54,172,00,04,22,110,00,06,66,105,00,07,85,216,00*65
$BDGSV,3,3,12,09,77,016,00,16,71,098,00,17,67,147,00,19,14,319,00*66
$B3CN0,0,0,0,0,0,0,0,0,0,0,0,0,0,0*4C
$GNGGA,033223.000,2930.5636,N,10626.6943,E,1,08,1.1,425.9,M,,,,0000*15
$GNRMC,033223.000,A,2930.5636,N,10626.6943,E,0.72,192.61,120319,,*1B
$GPGSA,A,3,03,16,26,31,32,,,,,,,,1.5,1.1,0.9*3C
$BDGSA,A,3,02,05,10,,,,,,,,,,1.5,1.1,0.9*28
$GLGSA,A,3,,,,,,,,,,,,,1.5,1.1,0.9*23
$GPGSV,3,1,10,03,28,307,47,26,62,202,35,31,58,003,38,32,52,101,33*73
$GPGSV,3,2,10,16,29,205,39,01,00,263,00,10,10,166,00,22,40,286,00*77
$GPGSV,3,3,10,25,14,039,00,29,16,072,00*79
$BDGSV,3,1,12,02,46,219,37,05,27,244,42,10,63,224,37,01,39,126,00*69
$BDGSV,3,2,12,03,54,172,00,04,22,110,00,06,66,105,00,07,85,216,00*65
$BDGSV,3,3,12,09,77,016,00,16,71,098,00,17,67,147,00,19,14,319,00*66
$B3CN0,0,0,0,0,0,0,0,0,0,0,0,0,0,0*4C
$GNGGA,033223.100,2930.5635,N,10626.6943,E,1,08,1.1,425.9,M,,,,0000*17
$GNRMC,033223.100,A,2930.5635,N,10626.6943,E,0.58,192.61,120319,,*11
$GPGSA,A,3,03,16,26,31,32,,,,,,,,1.5,1.1,0.9*3C
$BDGSA,A,3,02,05,10,,,,,,,,,,1.5,1.1,0.9*28
$GLGSA,A,3,,,,,,,,,,,,,1.5,1.1,0.9*23
$GPGSV,3,1,10,03,28,307,47,26,62,202,35,31,58,003,38,32,52,101,33*73
$GPGSV,3,2,10,16,29,205,39,01,00,263,00,10,10,166,00,22,40,286,00*77
$GPGSV,3,3,10,25,14,039,00,29,16,072,00*79
$BDGSV,3,1,12,02,46,219,37,05,27,244,42,10,63,224,37,01,39,126,00*69
$BDGSV,3,2,12,03,54,172,00,04,22,110,00,06,66,105,00,07,85,216,00*65
$BDGSV,3,3,12,09,77,016,00,16,71,098,00,17,67,147,00,19,14,319,00*66
$B3CN0,0,0,0,0,0,0,0,0,0,0,0,0,0,0*4C
$GNGGA,033223.200,2930.5634,N,10626.6944,E,1,08,1.1,425.9,M,,,,0000*12
$GNRMC,033223.200,A,2930.5634,N,10626.6944,E,0.65,192.61,120319,,*1A
$GPGSA,A,3,03,16,26,31,32,,,,,,,,1.5,1.1,0.9*3C
$BDGSA,A,3,02,05,10,,,,,,,,,,1.5,1.1,0.9*28
$GLGSA,A,3,,,,,,,,,,,,,1.5,1.1,0.9*23
$GPGSV,3,1,10,03,28,307,47,26,62,202,35,31,58,003,38,32,52,101,33*73
$GPGSV,3,2,10,16,29,205,39,01,00,263,00,10,10,166,00,22,40,286,00*77
$GPGSV,3,3,10,25,14,039,00,29,16,072,00*79
$BDGSV,3,1,12,02,46,219,37,05,27,244,42,10,63,224,37,01,39,126,00*69
$BDGSV,3,2,12,03,54,172,00,04,22,110,00,06,66,105,00,07,85,216,00*65
$BDGSV,3,3,12,09,77,016,00,16,71,098,00,17,67,147,00,19,14,319,00*66
$B3CN0,0,0,0,0,0,0,0,0,0,0,0,0,0,0*4C
$GNGGA,033223.300,2930.5633,N,10626.6944,E,1,08,1.1,425.9,M,,,,0000*14
$GNRMC,033223.300,A,2930.5633,N,10626.6944,E,0.72,192.61,120319,,*1A
$GPGSA,A,3,03,16,26,31,32,,,,,,,,1.5,1.1,0.9*3C
$BDGSA,A,3,02,05,10,,,,,,,,,,1.5,1.1,0.9*28
$GLGSA,A,3,,,,,,,,,,,,,1.5,1.1,0.9*23
$GPGSV,3,1,10,03,28,307,47,26,62,202,35,31,58,003,38,32,52,101,33*73
$GPGSV,3,2,10,16,29,205,39,01,00,263,00,10,10,166,00,22,40,286,00*77
$GPGSV,3,3,10,25,14,039,00,29,16,072,00*79
$BDGSV,3,1,12,02,46,219,37,05,27,244,42,10,63,224,37,01,39,126,00*69
$BDGSV,3,2,12,03,54,172,00,04,22,110,00,06,66,105,00,07,85,216,00*65
$BDGSV,3,3,12,09,77,016,00,16,71,098,00,17,67,147,00,19,14,319,00*66
$B3CN0,0,0,0,0,0,0,0,0,0,0,0,0,0,0*4C
$GNGGA,033223.400,2930.5633,N,10626.6945,E,1,08,1.1,425.9,M,,,,0000*12
$GNRMC,033223.400,A,2930.5633,N,10626.6945,E,1.30,192.61,120319,,*1B
$GPGSA,A,3,03,16,26,31,32,,,,,,,,1.5,1.1,0.9*3C
$BDGSA,A,3,02,05,10,,,,,,,,,,1.5,1.1,0.9*28
$GLGSA,A,3,,,,,,,,,,,,,1.5,1.1,0.9*23
$GPGSV,3,1,10,03,28,307,47,26,62,202,35,31,58,003,38,32,52,101,33*73
$GPGSV,3,2,10,16,29,205,39,01,00,263,00,10,10,166,00,22,40,286,00*77
$GPGSV,3,3,10,25,14,039,00,29,16,072,00*79
$BDGSV,3,1,12,02,46,219,37,05,27,244,42,10,63,224,37,01,39,126,00*69
$BDGSV,3,2,12,03,54,172,00,04,22,110,00,06,66,105,00,07,85,216,00*65
$BDGSV,3,3,12,09,77,016,00,16,71,098,00,17,67,147,00,19,14,319,00*66
$B3CN0,0,0,0,0,0,0,0,0,0,0,0,0,0,0*4C
$GNGGA,033223.500,2930.5632,N,10626.6946,E,1,08,1.1,425.9,M,,,,0000*11
$GNRMC,033223.500,A,2930.5632,N,10626.6946,E,1.26,192.61,120319,,*1F
$GPGSA,A,3,03,16,26,31,32,,,,,,,,1.5,1.1,0.9*3C
$BDGSA,A,3,02,05,10,,,,,,,,,,1.5,1.1,0.9*28
$GLGSA,A,3,,,,,,,,,,,,,1.5,1.1,0.9*23
$GPGSV,3,1,10,03,28,307,47,26,62,202,35,31,58,003,38,32,52,101,33*73
$GPGSV,3,2,10,16,29,205,39,01,00,263,00,10,10,166,00,22,40,286,00*77
$GPGSV,3,3,10,25,14,039,00,29,16,072,00*79
$BDGSV,3,1,12,02,46,219,37,05,27,244,42,10,63,224,37,01,39,126,00*69
$BDGSV,3,2,12,03,54,172,00,04,22,110,00,06,66,105,00,07,85,216,00*65
$BDGSV,3,3,12,09,77,016,00,16,71,098,00,17,67,147,00,19,14,319,00*66
$B3CN0,0,0,0,0,0,0,0,0,0,0,0,0,0,0*4C
$GNGGA,033223.600,2930.5632,N,10626.6947,E,1,08,1.1,426.0,M,,,,0000*19
$GNRMC,033223.600,A,2930.5632,N,10626.6947,E,1.14,192.61,120319,,*1C
$GPGSA,A,3,03,16,26,31,32,,,,,,,,1.5,1.1,0.9*3C
$BDGSA,A,3,02,05,10,,,,,,,,,,1.5,1.1,0.9*28
$GLGSA,A,3,,,,,,,,,,,,,1.5,1.1,0.9*23
$GPGSV,3,1,10,03,28,307,47,26,62,202,35,31,58,003,38,32,52,101,33*73
$GPGSV,3,2,10,16,29,205,39,01,00,263,00,10,10,166,00,22,40,286,00*77
$GPGSV,3,3,10,25,14,039,00,29,16,072,00*79
$BDGSV,3,1,12,02,46,219,37,05,27,244,42,10,63,224,37,01,39,126,00*69
$BDGSV,3,2,12,03,54,172,00,04,22,110,00,06,66,105,00,07,85,216,00*65
$BDGSV,3,3,12,09,77,016,00,16,71,098,00,17,67,147,00,19,14,319,00*66
$B3CN0,0,0,0,0,0,0,0,0,0,0,0,0,0,0*4C
$GNGGA,033223.700,2930.5631,N,10626.6947,E,1,08,1.1,425.9,M,,,,0000*11
$GNRMC,033223.700,A,2930.5631,N,10626.6947,E,1.06,192.61,120319,,*1D
$GPGSA,A,3,03,16,26,31,32,,,,,,,,1.5,1.1,0.9*3C
$BDGSA,A,3,02,05,10,,,,,,,,,,1.5,1.1,0.9*28
$GLGSA,A,3,,,,,,,,,,,,,1.5,1.1,0.9*23
$GPGSV,3,1,10,03,28,307,47,26,62,202,35,31,58,003,38,32,52,101,33*73
$GPGSV,3,2,10,16,29,205,39,01,00,263,00,10,10,166,00,22,40,286,00*77
$GPGSV,3,3,10,25,14,039,00,29,16,072,00*79
$BDGSV,3,1,12,02,46,219,37,05,27,244,42,10,63,224,37,01,39,126,00*69
$BDGSV,3,2,12,03,54,172,00,04,22,110,00,06,66,105,00,07,85,216,00*65
$BDGSV,3,3,12,09,77,016,00,16,71,098,00,17,67,147,00,19,14,319,00*66
$B3CN0,0,0,0,0,0,0,0,0,0,0,0,0,0,0*4C
$GNGGA,033223.800,2930.5631,N,10626.6948,E,1,08,1.1,425.9,M,,,,0000*11
$GNRMC,033223.800,A,2930.5631,N,10626.6948,E,1.06,192.61,120319,,*1D
$GPGSA,A,3,03,16,26,31,32,,,,,,,,1.5,1.1,0.9*3C
$BDGSA,A,3,02,05,10,,,,,,,,,,1.5,1.1,0.9*28
$GLGSA,A,3,,,,,,,,,,,,,1.5,1.1,0.9*23
$GPGSV,3,1,10,03,28,307,47,26,62,202,35,31,58,003,37,32,52,101,32*7D
$GPGSV,3,2,10,16,29,205,38,01,00,263,00,10,10,166,00,22,40,286,00*76
$GPGSV,3,3,10,25,14,039,00,29,16,072,00*79
$BDGSV,3,1,12,02,46,219,36,05,27,244,42,10,63,224,36,01,39,126,00*69
$BDGSV,3,2,12,03,54,172,00,04,22,110,00,06,66,105,00,07,85,216,00*65
$BDGSV,3,3,12,09,77,016,00,16,71,098,00,17,67,147,00,19,14,319,00*66
$B3CN0,0,0,0,0,0,0,0,0,0,0,0,0,0,0*4C
$GNGGA,033223.900,2930.5630,N,10626.6949,E,1,08,1.1,425.8,M,,,,0000*11
$GNRMC,033223.900,A,2930.5630,N,10626.6949,E,1.12,192.61,120319,,*19
$GPGSA,A,3,03,16,26,31,32,,,,,,,,1.5,1.1,0.9*3C
$BDGSA,A,3,02,05,10,,,,,,,,,,1.5,1.1,0.9*28
$GLGSA,A,3,,,,,,,,,,,,,1.5,1.1,0.9*23
$GPGSV,3,1,10,03,28,307,47,26,62,202,35,31,58,003,37,32,52,101,32*7D
$GPGSV,3,2,10,16,29,205,38,01,00,263,00,10,10,166,00,22,40,286,00*76
$GPGSV,3,3,10,25,14,039,00,29,16,072,00*79
$BDGSV,3,1,12,02,46,219,36,05,27,244,42,10,63,224,36,01,39,126,00*69
$BDGSV,3,2,12,03,54,172,00,04,22,110,00,06,66,105,00,07,85,216,00*65
$BDGSV,3,3,12,09,77,016,00,16,71,098,00,17,67,147,00,19,14,319,00*66
$B3CN0,0,0,0,0,0,0,0,0,0,0,0,0,0,0*4C
$GNGGA,033224.000,2930.5630,N,10626.6950,E,1,08,1.1,425.8,M,,,,0000*17
$GNRMC,033224.000,A,2930.5630,N,10626.6950,E,1.20,192.61,120319,,*1E
$GPGSA,A,3,03,16,26,31,32,,,,,,,,1.5,1.1,0.9*3C
$BDGSA,A,3,02,05,10,,,,,,,,,,1.5,1.1,0.9*28
$GLGSA,A,3,,,,,,,,,,,,,1.5,1.1,0.9*23
$GPGSV,3,1,10,03,28,307,47,26,62,202,35,31,58,003,37,32,52,101,32*7D
$GPGSV,3,2,10,16,29,205,38,01,00,263,00,10,10,166,00,22,40,286,00*76
$GPGSV,3,3,10,25,14,039,00,29,16,072,00*79
$BDGSV,3,1,12,02,46,219,36,05,27,244,42,10,63,224,36,01,39,126,00*69
$BDGSV,3,2,12,03,54,172,00,04,22,110,00,06,66,105,00,07,85,216,00*65
$BDGSV,3,3,12,09,77,016,00,16,71,098,00,17,67,147,00,19,14,319,00*66
$B3CN0,0,0,0,0,0,0,0,0,0,0,0,0,0,0*4C
$GNGGA,033224.100,2930.5629,N,10626.6950,E,1,08,1.1,425.7,M,,,,0000*11
$GNRMC,033224.100,A,2930.5629,N,10626.6950,E,1.23,192.61,120319,,*14
$GPGSA,A,3,03,16,26,31,32,,,,,,,,1.5,1.1,0.9*3C
$BDGSA,A,3,02,05,10,,,,,,,,,,1.5,1.1,0.9*28
$GLGSA,A,3,,,,,,,,,,,,,1.5,1.1,0.9*23
$GPGSV,3,1,10,03,28,307,47,26,62,202,35,31,58,003,37,32,52,101,32*7D
$GPGSV,3,2,10,16,29,205,38,01,00,263,00,10,10,166,00,22,40,286,00*76
$GPGSV,3,3,10,25,14,039,00,29,16,072,00*79
$BDGSV,3,1,12,02,46,219,36,05,27,244,42,10,63,224,36,01,39,126,00*69
$BDGSV,3,2,12,03,54,172,00,04,22,110,00,06,66,105,00,07,85,216,00*65
$BDGSV,3,3,12,09,77,016,00,16,71,098,00,17,67,147,00,19,14,319,00*66
$B3CN0,0,0,0,0,0,0,0,0,0,0,0,0,0,0*4C
$GNGGA,033224.200,2930.5628,N,10626.6951,E,1,08,1.1,425.7,M,,,,0000*12
$GNRMC,033224.200,A,2930.5628,N,10626.6951,E,1.19,192.61,120319,,*1E
$GPGSA,A,3,03,16,26,31,32,,,,,,,,1.5,1.1,0.9*3C
$BDGSA,A,3,02,05,10,,,,,,,,,,1.5,1.1,0.9*28
$GLGSA,A,3,,,,,,,,,,,,,1.5,1.1,0.9*23
$GPGSV,3,1,10,03,28,307,47,26,62,202,35,31,58,003,37,32,52,101,32*7D
$GPGSV,3,2,10,16,29,205,38,01,00,263,00,10,10,166,00,22,40,286,00*76
$GPGSV,3,3,10,25,14,039,00,29,16,072,00*79
$BDGSV,3,1,12,02,46,219,36,05,27,244,42,10,63,224,36,01,39,126,00*69
$BDGSV,3,2,12,03,54,172,00,04,22,110,00,06,66,105,00,07,85,216,00*65
$BDGSV,3,3,12,09,77,016,00,16,71,098,00,17,67,147,00,19,14,319,00*66
$B3CN0,0,0,0,0,0,0,0,0,0,0,0,0,0,0*4C
$GNGGA,033224.300,2930.5627,N,10626.6952,E,1,08,1.1,425.7,M,,,,0000*1F
$GNRMC,033224.300,A,2930.5627,N,10626.6952,E,1.06,192.61,120319,,*1D
$GPGSA,A,3,03,16,26,31,32,,,,,,,,1.5,1.1,0.9*3C
$BDGSA,A,3,02,05,10,,,,,,,,,,1.5,1.1,0.9*28
$GLGSA,A,3,,,,,,,,,,,,,1.5,1.1,0.9*23
$GPGSV,3,1,10,03,28,307,47,26,62,202,35,31,58,003,37,32,52,101,32*7D
$GPGSV,3,2,10,16,29,205,38,01,00,263,00,10,10,166,00,22,40,286,00*76
$GPGSV,3,3,10,25,14,039,00,29,16,072,00*79
$BDGSV,3,1,12,02,46,219,36,05,27,244,42,10,63,224,36,01,39,126,00*69
$BDGSV,3,2,12,03,54,172,00,04,22,110,00,06,66,105,00,07,85,216,00*65
$BDGSV,3,3,12,09,77,016,00,16,71,098,00,17,67,147,00,19,14,319,00*66
$B3CN0,0,0,0,0,0,0,0,0,0,0,0,0,0,0*4C
$GNGGA,033224.400,2930.5626,N,10626.6952,E,1,08,1.1,425.7,M,,,,0000*19
$GNRMC,033224.400,A,2930.5626,N,10626.6952,E,1.15,192.61,120319,,*19
$GPGSA,A,3,03,16,26,31,32,,,,,,,,1.5,1.1,0.9*3C
$BDGSA,A,3,02,05,10,,,,,,,,,,1.5,1.1,0.9*28
$GLGSA,A,3,,,,,,,,,,,,,1.5,1.1,0.9*23
$GPGSV,3,1,10,03,28,307,47,26,62,202,35,31,58,003,37,32,52,101,32*7D
$GPGSV,3,2,10,16,29,205,38,01,00,263,00,10,10,166,00,22,40,286,00*76
$GPGSV,3,3,10,25,14,039,00,29,16,072,00*79
$BDGSV,3,1,12,02,46,219,36,05,27,244,42,10,63,224,36,01,39,126,00*69
$BDGSV,3,2,12,03,54,172,00,04,22,110,00,06,66,105,00,07,85,216,00*65
$BDGSV,3,3,12,09,77,016,00,16,71,098,00,17,67,147,00,19,14,319,00*66
$B3CN0,0,0,0,0,0,0,0,0,0,0,0,0,0,0*4C
$GNGGA,033224.500,2930.5626,N,10626.6953,E,1,08,1.1,425.6,M,,,,0000*18
$GNRMC,033224.500,A,2930.5626,N,10626.6953,E,1.45,192.61,120319,,*1C
$GPGSA,A,3,03,16,26,31,32,,,,,,,,1.5,1.1,0.9*3C
$BDGSA,A,3,02,05,10,,,,,,,,,,1.5,1.1,0.9*28
$GLGSA,A,3,,,,,,,,,,,,,1.5,1.1,0.9*23
$GPGSV,3,1,10,03,28,307,47,26,62,202,35,31,58,003,37,32,52,101,32*7D
$GPGSV,3,2,10,16,29,205,38,01,00,263,00,10,10,166,00,22,40,286,00*76
$GPGSV,3,3,10,25,14,039,00,29,16,072,00*79
$BDGSV,3,1,12,02,46,219,36,05,27,244,42,10,63,224,36,01,39,126,00*69
$BDGSV,3,2,12,03,54,172,00,04,22,110,00,06,66,105,00,07,85,216,00*65
$BDGSV,3,3,12,09,77,016,00,16,71,098,00,17,67,147,00,19,14,319,00*66
$B3CN0,0,0,0,0,0,0,0,0,0,0,0,0,0,0*4C
$GNGGA,033224.600,2930.5624,N,10626.6953,E,1,08,1.1,425.7,M,,,,0000*18
$GNRMC,033224.600,A,2930.5624,N,10626.6953,E,1.65,192.61,120319,,*1F
$GPGSA,A,3,03,16,26,31,32,,,,,,,,1.5,1.1,0.9*3C
$BDGSA,A,3,02,05,10,,,,,,,,,,1.5,1.1,0.9*28
$GLGSA,A,3,,,,,,,,,,,,,1.5,1.1,0.9*23
$GPGSV,3,1,10,03,28,307,47,26,62,202,35,31,58,003,37,32,52,101,32*7D
$GPGSV,3,2,10,16,29,205,38,01,00,263,00,10,10,166,00,22,40,286,00*76
$GPGSV,3,3,10,25,14,039,00,29,16,072,00*79
$BDGSV,3,1,12,02,46,219,36,05,27,244,42,10,63,224,36,01,39,126,00*69
$BDGSV,3,2,12,03,54,172,00,04,22,110,00,06,66,105,00,07,85,216,00*65
$BDGSV,3,3,12,09,77,016,00,16,71,098,00,17,67,147,00,19,14,319,00*66
$B3CN0,0,0,0,0,0,0,0,0,0,0,0,0,0,0*4C
$GNGGA,033224.700,2930.5623,N,10626.6954,E,1,08,1.1,425.6,M,,,,0000*18
$GNRMC,033224.700,A,2930.5623,N,10626.6954,E,1.56,192.61,120319,,*1E
$GPGSA,A,3,03,16,26,31,32,,,,,,,,1.5,1.1,0.9*3C
$BDGSA,A,3,02,05,10,,,,,,,,,,1.5,1.1,0.9*28
$GLGSA,A,3,,,,,,,,,,,,,1.5,1.1,0.9*23
$GPGSV,3,1,10,03,28,307,47,26,62,202,35,31,58,003,37,32,52,101,32*7D
$GPGSV,3,2,10,16,29,205,38,01,00,263,00,10,10,166,00,22,40,286,00*76
$GPGSV,3,3,10,25,14,039,00,29,16,072,00*79
$BDGSV,3,1,12,02,46,219,36,05,27,244,42,10,63,224,36,01,39,126,00*69
$BDGSV,3,2,12,03,54,172,00,04,22,110,00,06,66,105,00,07,85,216,00*65
$BDGSV,3,3,12,09,77,016,00,16,71,098,00,17,67,147,00,19,14,319,00*66
$B3CN0,0,0,0,0,0,0,0,0,0,0,0,0,0,0*4C
