,,,,,,,,*0F
$GLGSA,A,1,,,,,,,,,,,,,,,*02
$GPGSV,1,1,03,01,00,000,21,03,00,000,32,05,00,000,20*4D
$B3CN0,0,0,0,0,0,0,0,0,0,0,0,0,0,0*4C
$GNGGA,000000.000,,,,,0,00,,,M,,,,0000*2B
$GNRMC,000000.000,A,,,,,,,060180,,*29
$GPGSA,A,1,,,,,,,,,,,,,,,*1E
$BDGSA,A,1,,,,,,,,,,,,,,,*0F
$GLGSA,A,1,,,,,,,,,,,,,,,*02
$GPGSV,1,1,03,01,00,000,21,03,00,000,32,05,00,000,20*4D
$B3CN0,0,0,0,0,0,0,0,0,0,0,0,0,0,0*4C
$GNGGA,000000.000,,,,,0,00,,,M,,,,0000*2B
$GNRMC,000000.000,A,,,,,,,060180,,*29
$GPGSA,A,1,,,,,,,,,,,,,,,*1E
$BDGSA,A,1,,,,,,,,,,,,,,,*0F
$GLGSA,A,1,,,,,,,,,,,,,,,*02
$GPGSV,1,1,03,01,00,000,21,03,00,000,32,05,00,000,20*4D
$B3CN0,0,0,0,0,0,0,0,0,0,0,0,0,0,0*4C
$GNGGA,000000.000,,,,,0,00,,,M,,,,0000*2B
$GNRMC,000000.000,A,,,,,,,060180,,*29
$GPGSA,A,1,,,,,,,,,,,,,,,*1E
$BDGSA,A,1,,,,,,,,,,,,,,,*0F
$GLGSA,A,1,,,,,,,,,,,,,,,*02
$GPGSV,1,1,03,01,00,000,21,03,00,000,32,05,00,000,20*4D
$B3CN0,0,0,0,0,0,0,0,0,0,0,0,0,0,0*4C
$GNGGA,000000.000,,,,,0,00,,,M,,,,0000*2B
$GNRMC,000000.000,A,,,,,,,060180,,*29
$GPGSA,A,1,,,,,,,,,,,,,,,*1E
$BDGSA,A,1,,,,,,,,,,,,,,,*0F
$GLGSA,A,1,,,,,,,,,,,,,,,*02
$GPGSV,1,1,03,01,00,000,21,03,00,000,32,05,00,000,20*4D
$B3CN0,0,0,0,0,0,0,0,0,0,0,0,0,0,0*4C
$GNGGA,000000.000,,,,,0,00,,,M,,,,0000*2B
$GNRMC,000000.000,A,,,,,,,060180,,*29
$GPGSA,A,1,,,,,,,,,,,,,,,*1E
$BDGSA,A,1,,,,,,,,,,,,,,,*0F
$GLGSA,A,1,,,,,,,,,,,,,,,*02
$GPGSV,1,1,03,01,00,000,21,03,00,000,32,05,00,000,20*4D
$B3CN0,0,0,0,0,0,0,0,0,0,0,0,0,0,0*4C
$GNGGA,000000.000,,,,,0,00,,,M,,,,0000*2B
$GNRMC,000000.000,A,,,,,,,060180,,*29
$GPGSA,A,1,,,,,,,,,,,,,,,*1E
$BDGSA,A,1,,,,,,,,,,,,,,,*0F
$GLGSA,A,1,,,,,,,,,,,,,,,*02
$GPGSV,1,1,03,01,00,000,21,03,00,000,32,05,00,000,20*4D
$B3CN0,0,0,0,0,0,0,0,0,0,0,0,0,0,0*4C
$GNGGA,000000.000,,,,,0,00,,,M,,,,0000*2B
$GNRMC,000000.000,A,,,,,,,060180,,*29
$GPGSA,A,1,,,,,,,,,,,,,,,*1E
$BDGSA,A,1,,,,,,,,,,,,,,,*0F
$GLGSA,A,1,,,,,,,,,,,,,,,*02
$GPGSV,1,1,03,01,00,000,21,03,00,000,32,05,00,000,20*4D
$B3CN0,0,0,0,0,0,0,0,0,0,0,0,0,0,0*4C
$GNGGA,000000.000,,,,,0,00,,,M,,,,0000*2B
$GNRMC,000000.000,A,,,,,,,060180,,*29
$GPGSA,A,1,,,,,,,,,,,,,,,*1E
$BDGSA,A,1,,,,,,,,,,,,,,,*0F
$GLGSA,A,1,,,,,,,,,,,,,,,*02
$GPGSV,1,1,03,01,00,000,21,03,00,000,32,05,00,000,20*4D
$B3CN0,0,0,0,0,0,0,0,0,0,0,0,0,0,0*4C
---00000100--- Acq_st=7 0  2000-1-1 4:2:9 
[00]  21(G22)  7 35 35  0  38376.2  2045950.7  0.8  1 0  276  381  374
[01]  00(G01)  7 21 17  0 -33815.7  2046043.9  0.7 10 0   43  109  271
[02]  02(G03)  7 32 31  0  20360.9  2045973.6  0.9  5 0  408  265  202
[03]  04(G05)  7 19 17  0  24990.4  2045967.5 -0.2 10 0   81   71  132
[04]  01(G02)  7  8  9  0 -28793.5  2046037.3 -0.2 10 0  103  109  100
[05]  03(G04)  1  7  7  0  -8315.2  2046011.4 -0.1  1 0  133  152  106
[06]  05(G06)  1 22 21  0 -49823.7  2046064.1  0.2  1 0  229  107  257
[08]  06(G07)  1  7  7  0 -45224.2  2046058.3  0.0  1 0   12  103  133
[09]  07(G08)  1  7  7  0  -1058.8  2045999.9  0.0  1 0  171   95  143
[10]  08(G09)  1  7  7  0 -43269.8  2046056.1  0.1  1 0  181   23    8
[13]  10(G11)  1  7  7  0 -27318.0  2046036.1 -0.2  1 0  206   75  104
[14]  11(G12)  1  7  7  0  13166.0  2045984.0 -0.0  1 0  282  133  108
[16]  38(B02)  1 10 10  0 -21676.8  4092058.3 -0.2  1 0  177   83   85
[17]  44(B08)  1  8  9  0  -8901.2  4092022.2  0.1  1 0  280  165  262
[18]  47(B11)  1  7  7  0  17100.1  4091955.3  0.1  1 0  111  164   95
[19]  39(B03)  1 10 10  0 -26531.0  4092071.4 -0.1  1 0  234   53  287
[20]  40(B04)  1 10 10  0  44869.5  4091882.3 -0.0  1 0   67  153  103
[21]  41(B05)  1 10 10  1  45438.7  4091885.7  0.1  1 0   61  121  156
[22]  42(B06)  1  7  7  0 -30974.7  4092081.6  0.2  1 0  103  155  319
[24]  43(B07)  1  7  7  0  44261.4  4091884.2  0.0  1 0  223  147  113
$GNGGA,000000.000,,,,,0,00,,,M,,,,0000*2B
$GNRMC,000000.000,A,,,,,,,060180,,*29
$GPGSA,A,1,,,,,,,,,,,,,,,*1E
$BDGSA,A,1,,,,,,,,,,,,,,,*0F
$GLGSA,A,1,,,,,,,,,,,,,,,*02
$GPGSV,1,1,03,01,00,000,21,03,00,000,32,05,00,000,19*47
$B3CN0,0,0,0,0,0,0,0,0,0,0,0,0,0,0*4C
$GNGGA,000000.000,,,,,0,00,,,M,,,,0000*2B
$GNRMC,000000.000,A,,,,,,,060180,,*29
$GPGSA,A,1,,,,,,,,,,,,,,,*1E
$BDGSA,A,1,,,,,,,,,,,,,,,*0F
$GLGSA,A,1,,,,,,,,,,,,,,,*02
$GPGSV,1,1,03,01,00,000,21,03,00,000,32,05,00,000,19*47
$B3CN0,0,0,0,0,0,0,0,0,0,0,0,0,0,0*4C
$GNGGA,000000.000,,,,,0,00,,,M,,,,0000*2B
$GNRMC,000000.000,A,,,,,,,060180,,*29
$GPGSA,A,1,,,,,,,,,,,,,,,*1E
$BDGSA,A,1,,,,,,,,,,,,,,,*0F
$GLGSA,A,1,,,,,,,,,,,,,,,*02
$GPGSV,1,1,03,01,00,000,21,03,00,000,32,05,00,000,19*47
$B3CN0,0,0,0,0,0,0,0,0,0,0,0,0,0,0*4C
$GNGGA,000000.000,,,,,0,00,,,M,,,,0000*2B
$GNRMC,000000.000,A,,,,,,,060180,,*29
$GPGSA,A,1,,,,,,,,,,,,,,,*1E
$BDGSA,A,1,,,,,,,,,,,,,,,*0F
$GLGSA,A,1,,,,,,,,,,,,,,,*02
$GPGSV,1,1,03,01,00,000,21,03,00,000,32,05,00,000,19*47
$B3CN0,0,0,0,0,0,0,0,0,0,0,0,0,0,0*4C
$GNGGA,000000.000,,,,,0,00,,,M,,,,0000*2B
$GNRMC,000000.000,A,,,,,,,060180,,*29
$GPGSA,A,1,,,,,,,,,,,,,,,*1E
$BDGSA,A,1,,,,,,,,,,,,,,,*0F
$GLGSA,A,1,,,,,,,,,,,,,,,*02
$GPGSV,1,1,03,01,00,000,21,03,00,000,32,05,00,000,19*47
$B3CN0,0,0,0,0,0,0,0,0,0,0,0,0,0,0*4C
$GNGGA,000000.000,,,,,0,00,,,M,,,,0000*2B
$GNRMC,000000.000,A,,,,,,,060180,,*29
$GPGSA,A,1,,,,,,,,,,,,,,,*1E
$BDGSA,A,1,,,,,,,,,,,,,,,*0F
$GLGSA,A,1,,,,,,,,,,,,,,,*02
$GPGSV,1,1,03,01,00,000,21,03,00,000,32,05,00,000,19*47
$B3CN0,0,0,0,0,0,0,0,0,0,0,0,0,0,0*4C
$GNGGA,000000.000,,,,,0,00,,,M,,,,0000*2B
$GNRMC,000000.000,A,,,,,,,060180,,*29
$GPGSA,A,1,,,,,,,,,,,,,,,*1E
$BDGSA,A,1,,,,,,,,,,,,,,,*0F
$GLGSA,A,1,,,,,,,,,,,,,,,*02
$GPGSV,1,1,03,01,00,000,21,03,00,000,32,05,00,000,19*47
$B3CN0,0,0,0,0,0,0,0,0,0,0,0,0,0,0*4C
$GNGGA,000000.000,,,,,0,00,,,M,,,,0000*2B
$GNRMC,000000.000,A,,,,,,,060180,,*29
$GPGSA,A,1,,,,,,,,,,,,,,,*1E
$BDGSA,A,1,,,,,,,,,,,,,,,*0F
$GLGSA,A,1,,,,,,,,,,,,,,,*02
$GPGSV,1,1,03,01,00,000,21,03,00,000,32,05,00,000,19*47
$B3CN0,0,0,0,0,0,0,0,0,0,0,0,0,0,0*4C
$GNGGA,000000.000,,,,,0,00,,,M,,,,0000*2B
$GNRMC,000000.000,A,,,,,,,060180,,*29
$GPGSA,A,1,,,,,,,,,,,,,,,*1E
$BDGSA,A,1,,,,,,,,,,,,,,,*0F
$GLGSA,A,1,,,,,,,,,,,,,,,*02
$GPGSV,1,1,03,01,00,000,21,03,00,000,32,05,00,000,19*47
$B3CN0,0,0,0,0,0,0,0,0,0,0,0,0,0,0*4C
$GNGGA,000000.000,,,,,0,00,,,M,,,,0000*2B
$GNRMC,000000.000,A,,,,,,,060180,,*29
$GPGSA,A,1,,,,,,,,,,,,,,,*1E
$BDGSA,A,1,,,,,,,,,,,,,,,*0F
$GLGSA,A,1,,,,,,,,,,,,,,,*02
$GPGSV,1,1,03,01,00,000,21,03,00,000,32,05,00,000,19*47
$B3CN0,0,0,0,0,0,0,0,0,0,0,0,0,0,0*4C
---00000101--- Acq_st=3 0  2000-1-1 4:2:10 
[00]  19(G20)  7  7  7  0  -2676.9  2046003.1 -0.0  1 0  246  104  274
[01]  00(G01)  7 21 15  0 -33815.7  2046044.0  0.5 10 0  126  119  129
[02]  02(G03)  7 32 31  0  20352.0  2045973.6  0.9  5 0  191  230  188
[03]  04(G05)  7 20 17  0  25001.1  2045967.8  0.2 10 0   57  142  139
[04]  01(G02)  7  7  7  0 -28751.1  2046037.1  0.0 10 0  202   57   44
[05]  03(G04)  1  9  7  0  -7912.4  2046011.7  0.1  1 0   35  173   94
[06]  05(G06)  1 22 21  0 -49821.0  2046064.4 -0.1  1 0  151  183  190
[08]  06(G07)  1  7  7  0 -45225.6  2046058.6  0.1  1 0  280  120  111
[09]  07(G08)  1 16 16  0  -1347.0  2046000.6  0.1  1 0  154  115  136
[10]  08(G09)  1  7  7  0 -43373.4  2046056.1  0.0  1 0   61   72  173
[11]  09(G10)  1  7  7  0   3211.3  2045996.4 -0.0  1 0  211  352  199
[12]  12(G13)  1 18 15  0  15435.0  2045980.8 -0.1  1 0  115  122   71
[13]  10(G11)  1  7  7  0 -27483.7  2046035.7  0.1  1 0   38   80  156
[14]  11(G12)  1  8  7  0  13124.5  2045984.1  0.0  1 0  108  101   66
[16]  38(B02)  1 10 10  1 -21532.8  4092056.6 -0.1  1 0   47  287   93
[17]  44(B08)  1  8  7  0  -9318.3  4092022.0  0.0  1 0   41  235   78
[18]  47(B11)  1 12 11  0  16458.7  4091955.2 -0.0  1 0   83  198  103
$GNGGA,000000.000,,,,,0,00,,,M,,,,0000*2B
$GNRMC,000000.000,A,,,,,,,060180,,*29
$GPGSA,A,1,,,,,,,,,,,,,,,*1E
$BDGSA,A,1,,,,,,,,,,,,,,,*0F
$GLGSA,A,1,,,,,,,,,,,,,,,*02
$GPGSV,1,1,03,01,00,000,21,03,00,000,32,05,00,000,20*4D
$B3CN0,0,0,0,0,0,0,0,0,0,0,0,0,0,0*4C
$GNGGA,000000.000,,,,,0,00,,,M,,,,0000*2B
$GNRMC,000000.000,A,,,,,,,060180,,*29
$GPGSA,A,1,,,,,,,,,,,,,,,*1E
$BDGSA,A,1,,,,,,,,,,,,,,,*0F
$GLGSA,A,1,,,,,,,,,,,,,,,*02
$GPGSV,1,1,03,01,00,000,21,03,00,000,32,05,00,000,20*4D
$B3CN0,0,0,0,0,0,0,0,0,0,0,0,0,0,0*4C
$GNGGA,000000.000,,,,,0,00,,,M,,,,0000*2B
$GNRMC,000000.000,A,,,,,,,060180,,*29
$GPGSA,A,1,,,,,,,,,,,,,,,*1E
$BDGSA,A,1,,,,,,,,,,,,,,,*0F
$GLGSA,A,1,,,,,,,,,,,,,,,*02
$GPGSV,1,1,03,01,00,000,21,03,00,000,32,05,00,000,20*4D
$B3CN0,0,0,0,0,0,0,0,0,0,0,0,0,0,0*4C
$GNGGA,000000.000,,,,,0,00,,,M,,,,0000*2B
$GNRMC,000000.000,A,,,,,,,060180,,*29
$GPGSA,A,1,,,,,,,,,,,,,,,*1E
$BDGSA,A,1,,,,,,,,,,,,,,,*0F
$GLGSA,A,1,,,,,,,,,,,,,,,*02
$GPGSV,1,1,03,01,00,000,21,03,00,000,32,05,00,000,20*4D
$B3CN0,0,0,0,0,0,0,0,0,0,0,0,0,0,0*4C
$GNGGA,000000.000,,,,,0,00,,,M,,,,0000*2B
$GNRMC,000000.000,A,,,,,,,060180,,*29
$GPGSA,A,1,,,,,,,,,,,,,,,*1E
$BDGSA,A,1,,,,,,,,,,,,,,,*0F
$GLGSA,A,1,,,,,,,,,,,,,,,*02
$GPGSV,1,1,03,01,00,000,21,03,00,000,32,05,00,000,20*4D
$B3CN0,0,0,0,0,0,0,0,0,0,0,0,0,0,0*4C
$GNGGA,000000.000,,,,,0,00,,,M,,,,0000*2B
$GNRMC,000000.000,A,,,,,,,060180,,*29
$GPGSA,A,1,,,,,,,,,,,,,,,*1E
$BDGSA,A,1,,,,,,,,,,,,,,,*0F
$GLGSA,A,1,,,,,,,,,,,,,,,*02
$GPGSV,1,1,03,01,00,000,21,03,00,000,32,05,00,000,20*4D
$B3CN0,0,0,0,0,0,0,0,0,0,0,0,0,0,0*4C
$GNGGA,000000.000,,,,,0,00,,,M,,,,0000*2B
$GNRMC,000000.000,A,,,,,,,060180,,*29
$GPGSA,A,1,,,,,,,,,,,,,,,*1E
$BDGSA,A,1,,,,,,,,,,,,,,,*0F
$GLGSA,A,1,,,,,,,,,,,,,,,*02
$GPGSV,1,1,03,01,00,000,21,03,00,000,32,05,00,000,20*4D
$B3CN0,0,0,0,0,0,0,0,0,0,0,0,0,0,0*4C
$GNGGA,000000.000,,,,,0,00,,,M,,,,0000*2B
$GNRMC,000000.000,A,,,,,,,060180,,*29
$GPGSA,A,1,,,,,,,,,,,,,,,*1E
$BDGSA,A,1,,,,,,,,,,,,,,,*0F
$GLGSA,A,1,,,,,,,,,,,,,,,*02
$GPGSV,1,1,03,01,00,000,21,03,00,000,32,05,00,000,20*4D
$B3CN0,0,0,0,0,0,0,0,0,0,0,0,0,0,0*4C
$GNGGA,000000.000,,,,,0,00,,,M,,,,0000*2B
$GNRMC,000000.000,A,,,,,,,060180,,*29
$GPGSA,A,1,,,,,,,,,,,,,,,*1E
$BDGSA,A,1,,,,,,,,,,,,,,,*0F
$GLGSA,A,1,,,,,,,,,,,,,,,*02
$GPGSV,1,1,03,01,00,000,21,03,00,000,32,05,00,000,20*4D
$B3CN0,0,0,0,0,0,0,0,0,0,0,0,0,0,0*4C
$GNGGA,000000.000,,,,,0,00,,,M,,,,0000*2B
$GNRMC,000000.000,A,,,,,,,060180,,*29
$GPGSA,A,1,,,,,,,,,,,,,,,*1E
$BDGSA,A,1,,,,,,,,,,,,,,,*0F
$GLGSA,A,1,,,,,,,,,,,,,,,*02
$GPGSV,1,1,03,01,00,000,21,03,00,000,32,05,00,000,20*4D
$B3CN0,0,0,0,0,0,0,0,0,0,0,0,0,0,0*4C
---00000102--- Acq_st=3 0  2000-1-1 4:2:11 
[00]  19(G20)  7 26 26  0  -2724.5  2046002.7  0.3  1 0  259   55  324
[01]  00(G01)  7 21 14  0 -33817.4  2046043.9 -0.2 10 0   64  153  352
[02]  02(G03)  7 32 30  0  20355.1  2045973.6  0.3  5 0  112  118  171
[03]  04(G05)  7 19 19  0  24998.9  2045967.5 -0.0 10 0   25  206   97
[11]  09(G10)  1  7  7  0   3199.2  2045996.4  0.0  1 0  246  188  235
[12]  12(G13)  1 14 16  0  15186.6  2045981.3  0.1  1 0   55   48  184
[16]  38(B02)  1 16 10  1 -21241.0  4092057.8 -0.1  1 0  201   62  107
[17]  44(B08)  1  7  9  0  -9894.8  4092022.2  0.1  1 0   80  123  129
[18]  47(B11)  1  7  7  0  17137.2  4091955.4  0.1  1 0   88  199   20
[19]  45(B09)  1  7  7  0 -20503.4  4092053.2 -0.1  1 0  228  240   76
[20]  46(B10)  1  7  7  0 -12250.0  4092031.6 -0.1  1 0  175  194  141
[21]  49(B13)  1  7  7  0  34000.0  4091910.8  0.0  1 0  309  250  210
$GNGGA,000000.000,,,,,0,00,,,M,,,,0000*2B
$GNRMC,000000.000,A,,,,,,,060180,,*29
$GPGSA,A,1,,,,,,,,,,,,,,,*1E
$BDGSA,A,1,,,,,,,,,,,,,,,*0F
$GLGSA,A,1,,,,,,,,,,,,,,,*02
$GPGSV,1,1,03,01,00,000,21,03,00,000,32,05,00,000,19*47
$B3CN0,0,0,0,0,0,0,0,0,0,0,0,0,0,0*4C
$GNGGA,000000.000,,,,,0,00,,,M,,,,0000*2B
$GNRMC,000000.000,A,,,,,,,060180,,*29
$GPGSA,A,1,,,,,,,,,,,,,,,*1E
$BDGSA,A,1,,,,,,,,,,,,,,,*0F
$GLGSA,A,1,,,,,,,,,,,,,,,*02
$GPGSV,1,1,03,01,00,000,21,03,00,000,32,05,00,000,19*47
$B3CN0,0,0,0,0,0,0,0,0,0,0,0,0,0,0*4C
$GNGGA,000000.000,,,,,0,00,,,M,,,,0000*2B
$GNRMC,000000.000,A,,,,,,,060180,,*29
$GPGSA,A,1,,,,,,,,,,,,,,,*1E
$BDGSA,A,1,,,,,,,,,,,,,,,*0F
$GLGSA,A,1,,,,,,,,,,,,,,,*02
$GPGSV,1,1,03,01,00,000,21,03,00,000,32,05,00,000,19*47
$B3CN0,0,0,0,0,0,0,0,0,0,0,0,0,0,0*4C
$GNGGA,000000.000,,,,,0,00,,,M,,,,0000*2B
$GNRMC,000000.000,A,,,,,,,060180,,*29
$GPGSA,A,1,,,,,,,,,,,,,,,*1E
$BDGSA,A,1,,,,,,,,,,,,,,,*0F
$GLGSA,A,1,,,,,,,,,,,,,,,*02
$GPGSV,1,1,03,01,00,000,21,03,00,000,32,05,00,000,19*47
$B3CN0,0,0,0,0,0,0,0,0,0,0,0,0,0,0*4C
$GNGGA,000000.000,,,,,0,00,,,M,,,,0000*2B
$GNRMC,000000.000,A,,,,,,,060180,,*29
$GPGSA,A,1,,,,,,,,,,,,,,,*1E
$BDGSA,A,1,,,,,,,,,,,,,,,*0F
$GLGSA,A,1,,,,,,,,,,,,,,,*02
$GPGSV,1,1,03,01,00,000,21,03,00,000,32,05,00,000,19*47
$B3CN0,0,0,0,0,0,0,0,0,0,0,0,0,0,0*4C
$GNGGA,000000.000,,,,,0,00,,,M,,,,0000*2B
$GNRMC,000000.000,A,,,,,,,060180,,*29
$GPGSA,A,1,,,,,,,,,,,,,,,*1E
$BDGSA,A,1,,,,,,,,,,,,,,,*0F
$GLGSA,A,1,,,,,,,,,,,,,,,*02
$GPGSV,1,1,03,01,00,000,21,03,00,000,32,05,00,000,19*47
$B3CN0,0,0,0,0,0,0,0,0,0,0,0,0,0,0*4C
$GNGGA,000000.000,,,,,0,00,,,M,,,,0000*2B
$GNRMC,000000.000,A,,,,,,,060180,,*29
$GPGSA,A,1,,,,,,,,,,,,,,,*1E
$BDGSA,A,1,,,,,,,,,,,,,,,*0F
$GLGSA,A,1,,,,,,,,,,,,,,,*02
$GPGSV,1,1,03,01,00,000,21,03,00,000,32,05,00,000,19*47
$B3CN0,0,0,0,0,0,0,0,0,0,0,0,0,0,0*4C
$GNGGA,000000.000,,,,,0,00,,,M,,,,0000*2B
$GNRMC,000000.000,A,,,,,,,060180,,*29
$GPGSA,A,1,,,,,,,,,,,,,,,*1E
$BDGSA,A,1,,,,,,,,,,,,,,,*0F
$GLGSA,A,1,,,,,,,,,,,,,,,*02
$GPGSV,1,1,03,01,00,000,21,03,00,000,32,05,00,000,19*47
$B3CN0,0,0,0,0,0,0,0,0,0,0,0,0,0,0*4C
$GNGGA,000000.000,,,,,0,00,,,M,,,,0000*2B
$GNRMC,000000.000,A,,,,,,,060180,,*29
$GPGSA,A,1,,,,,,,,,,,,,,,*1E
$BDGSA,A,1,,,,,,,,,,,,,,,*0F
$GLGSA,A,1,,,,,,,,,,,,,,,*02
$GPGSV,1,1,03,01,00,000,21,03,00,000,32,05,00,000,19*47
$B3CN0,0,0,0,0,0,0,0,0,0,0,0,0,0,0*4C
$GNGGA,000000.000,,,,,0,00,,,M,,,,0000*2B
$GNRMC,000000.000,A,,,,,,,060180,,*29
$GPGSA,A,1,,,,,,,,,,,,,,,*1E
$BDGSA,A,1,,,,,,,,,,,,,,,*0F
$GLGSA,A,1,,,,,,,,,,,,,,,*02
$GPGSV,1,1,03,01,00,000,21,03,00,000,32,05,00,000,19*47
$B3CN0,0,0,0,0,0,0,0,0,0,0,0,0,0,0*4C
---00000103--- Acq_st=7 0  2000-1-1 4:2:12 
[00]  19(G20)  7 23 24  0  -2829.1  2046003.3  0.1  1 0  413  316  265
[01]  00(G01)  7 20 16  0 -33815.0  2046043.9 -0.8 10 0  230  182  130
[02]  02(G03)  7 32 31  0  20357.1  2045973.6 -0.5  5 0  311  405  259
[03]  04(G05)  7 19 15  0  25002.4  2045967.6 -0.1 10 0  157  128   58
[11]  09(G10)  1  7  7  0   3140.9  2045996.0  0.1  1 0  302  178   43
[12]  12(G13)  1 13  9  0  14950.4  2045980.8  0.1  1 0   99  106  109
[16]  38(B02)  1 10 10  0 -21558.7  4092058.7  0.0  1 0   25   94  174
[17]  44(B08)  1  7  8  0  -9775.2  4092021.9 -0.1  1 0   56  103  113
[18]  47(B11)  1  7  7  0  17585.3  4091955.1 -0.0  1 0  108  119  191
[19]  45(B09)  1  7  7  0 -20612.3  4092052.9 -0.0  1 0  235  136   38
[20]  46(B10)  1  8  7  0 -12152.0  4092032.0 -0.1  1 0  231   94  196
[21]  49(B13)  1 10 11  0  34008.2  4091911.1  0.0  1 0   49  107  114
$GNGGA,000000.000,,,,,0,00,,,M,,,,0000*2B
$GNRMC,000000.000,A,,,,,,,060180,,*29
$GPGSA,A,1,,,,,,,,,,,,,,,*1E
$BDGSA,A,1,,,,,,,,,,,,,,,*0F
$GLGSA,A,1,,,,,,,,,,,,,,,*02
$GPGSV,1,1,03,01,00,000,20,03,00,000,32,05,00,000,19*46
$B3CN0,0,0,0,0,0,0,0,0,0,0,0,0,0,0*4C
$GNGGA,000000.000,,,,,0,00,,,M,,,,0000*2B
$GNRMC,000000.000,A,,,,,,,060180,,*29
$GPGSA,A,1,,,,,,,,,,,,,,,*1E
$BDGSA,A,1,,,,,,,,,,,,,,,*0F
$GLGSA,A,1,,,,,,,,,,,,,,,*02
$GPGSV,1,1,03,01,00,000,20,03,00,000,32,05,00,000,19*46
$B3CN0,0,0,0,0,0,0,0,0,0,0,0,0,0,0*4C
$GNGGA,000000.000,,,,,0,00,,,M,,,,0000*2B
$GNRMC,000000.000,A,,,,,,,060180,,*29
$GPGSA,A,1,,,,,,,,,,,,,,,*1E
$BDGSA,A,1,,,,,,,,,,,,,,,*0F
$GLGSA,A,1,,,,,,,,,,,,,,,*02
$GPGSV,1,1,03,01,00,000,20,03,00,000,32,05,00,000,19*46
$B3CN0,0,0,0,0,0,0,0,0,0,0,0,0,0,0*4C
$GNGGA,000000.000,,,,,0,00,,,M,,,,0000*2B
$GNRMC,000000.000,A,,,,,,,060180,,*29
$GPGSA,A,1,,,,,,,,,,,,,,,*1E
$BDGSA,A,1,,,,,,,,,,,,,,,*0F
$GLGSA,A,1,,,,,,,,,,,,,,,*02
$GPGSV,1,1,03,01,00,000,20,03,00,000,32,05,00,000,19*46
$B3CN0,0,0,0,0,0,0,0,0,0,0,0,0,0,0*4C
$GNGGA,000000.000,,,,,0,00,,,M,,,,0000*2B
$GNRMC,000000.000,A,,,,,,,060180,,*29
$GPGSA,A,1,,,,,,,,,,,,,,,*1E
$BDGSA,A,1,,,,,,,,,,,,,,,*0F
$GLGSA,A,1,,,,,,,,,,,,,,,*02
$GPGSV,1,1,03,01,00,000,20,03,00,000,32,05,00,000,19*46
$B3CN0,0,0,0,0,0,0,0,0,0,0,0,0,0,0*4C
$GNGGA,000000.000,,,,,0,00,,,M,,,,0000*2B
$GNRMC,000000.000,A,,,,,,,060180,,*29
$GPGSA,A,1,,,,,,,,,,,,,,,*1E
$BDGSA,A,1,,,,,,,,,,,,,,,*0F
$GLGSA,A,1,,,,,,,,,,,,,,,*02
$GPGSV,1,1,03,01,00,000,20,03,00,000,32,05,00,000,19*46
$B3CN0,0,0,0,0,0,0,0,0,0,0,0,0,0,0*4C
$GNGGA,000000.000,,,,,0,00,,,M,,,,0000*2B
$GNRMC,000000.000,A,,,,,,,060180,,*29
$GPGSA,A,1,,,,,,,,,,,,,,,*1E
$BDGSA,A,1,,,,,,,,,,,,,,,*0F
$GLGSA,A,1,,,,,,,,,,,,,,,*02
$GPGSV,1,1,03,01,00,000,20,03,00,000,32,05,00,000,19*46
$B3CN0,0,0,0,0,0,0,0,0,0,0,0,0,0,0*4C
$GNGGA,000000.000,,,,,0,00,,,M,,,,0000*2B
$GNRMC,000000.000,A,,,,,,,060180,,*29
$GPGSA,A,1,,,,,,,,,,,,,,,*1E
$BDGSA,A,1,,,,,,,,,,,,,,,*0F
$GLGSA,A,1,,,,,,,,,,,,,,,*02
$GPGSV,1,1,03,01,00,000,20,03,00,000,32,05,00,000,19*46
$B3CN0,0,0,0,0,0,0,0,0,0,0,0,0,0,0*4C
$GNGGA,000000.000,,,,,0,00,,,M,,,,0000*2B
$GNRMC,000000.000,A,,,,,,,060180,,*29
$GPGSA,A,1,,,,,,,,,,,,,,,*1E
$BDGSA,A,1,,,,,,,,,,,,,,,*0F
$GLGSA,A,1,,,,,,,,,,,,,,,*02
$GPGSV,1,1,03,01,00,000,20,03,00,000,32,05,00,000,19*46
$B3CN0,0,0,0,0,0,0,0,0,0,0,0,0,0,0*4C
$GNGGA,000000.000,,,,,0,00,,,M,,,,0000*2B
$GNRMC,000000.000,A,,,,,,,060180,,*29
$GPGSA,A,1,,,,,,,,,,,,,,,*1E
$BDGSA,A,1,,,,,,,,,,,,,,,*0F
$GLGSA,A,1,,,,,,,,,,,,,,,*02
$GPGSV,1,1,03,01,00,000,20,03,00,000,32,05,00,000,19*46
$B3CN0,0,0,0,0,0,0,0,0,0,0,0,0,0,0*4C
---00000104--- Acq_st=3 0  2000-1-1 4:2:13 
[00]  19(G20)  7 25 26  0  -2678.0  2046003.0  0.1  1 0  397  292   62
[01]  00(G01)  7 20 18  0 -33815.9  2046043.9 -0.4 10 0   77   26   66
[02]  02(G03)  7 32 31  0  20352.9  2045973.5 -1.0  5 0  321  430  241
[03]  04(G05)  7 20 17  0  24999.5  2045967.7  0.5 10 0   47   23   85
[04]  01(G02)  1  7  7  0   4637.6  2045994.2  0.0  1 0  165  221  187
[05]  03(G04)  1  7 13  0  -8539.3  2046010.7  0.1  1 0  163  180   37
[06]  05(G06)  1 22 21  0 -49721.3  2046064.2  0.0  1 0  215  272  188
[08]  06(G07)  1  7  7  0 -45219.0  2046058.0 -0.1  1 0   47   71  145
[09]  07(G08)  1  7  7  0  38215.7  2045951.1 -0.1  1 0  138   74   54
[10]  08(G09)  1  7  7  0 -43319.5  2046056.1  0.0  1 0  112   16  119
[11]  09(G10)  1  7  7  0   3188.5  2045996.3 -0.1  1 0  212  206  118
[12]  12(G13)  1  7  7  0  15068.5  2045981.4 -0.0  1 0  134  191   29
[13]  11(G12)  1  7  7  0  12693.0  2045984.0 -0.0  1 0  103   19  103
[14]  13(G14)  1  7  7  0 -28234.6  2046035.7 -0.1  1 0  115   67   87
[19]  45(B09)  1  7 11  0 -20441.4  4092053.0  0.0  1 0  311   80  117
[20]  46(B10)  1  7  7  0 -12111.2  4092032.1  0.1  1 0  200  132  320
[21]  49(B13)  1  7  7  0  33735.9  4091911.3  0.0  1 0  202   52  209
$GNGGA,000000.000,,,,,0,00,,,M,,,,0000*2B
$GNRMC,000000.000,A,,,,,,,060180,,*29
$GPGSA,A,1,,,,,,,,,,,,,,,*1E
$BDGSA,A,1,,,,,,,,,,,,,,,*0F
$GLGSA,A,1,,,,,,,,,,,,,,,*02
$GPGSV,1,1,03,01,00,000,20,03,00,000,32,05,00,000,20*4C
$B3CN0,0,0,0,0,0,0,0,0,0,0,0,0,0,0*4C
$GNGGA,000000.000,,,,,0,00,,,M,,,,0000*2B
$GNRMC,000000.000,A,,,,,,,060180,,*29
$GPGSA,A,1,,,,,,,,,,,,,,,*1E
$BDGSA,A,1,,,,,,,,,,,,,,,*0F
$GLGSA,A,1,,,,,,,,,,,,,,,*02
$GPGSV,1,1,03,01,00,000,20,03,00,000,32,05,00,000,20*4C
$B3CN0,0,0,0,0,0,0,0,0,0,0,0,0,0,0*4C
$GNGGA,000000.000,,,,,0,00,,,M,,,,0000*2B
$GNRMC,000000.000,A,,,,,,,060180,,*29
$GPGSA,A,1,,,,,,,,,,,,,,,*1E
$BDGSA,A,1,,,,,,,,,,,,,,,*0F
$GLGSA,A,1,,,,,,,,,,,,,,,*02
$GPGSV,1,1,03,01,00,000,20,03,00,000,32,05,00,000,20*4C
$B3CN0,0,0,0,0,0,0,0,0,0,0,0,0,0,0*4C
$GNGGA,000000.000,,,,,0,00,,,M,,,,0000*2B
$GNRMC,000000.000,A,,,,,,,060180,,*29
$GPGSA,A,1,,,,,,,,,,,,,,,*1E
$BDGSA,A,1,,,,,,,,,,,,,,,*0F
$GLGSA,A,1,,,,,,,,,,,,,,,*02
$GPGSV,1,1,03,01,00,000,20,03,00,000,32,05,00,000,20*4C
$B3CN0,0,0,0,0,0,0,0,0,0,0,0,0,0,0*4C
$GNGGA,000000.000,,,,,0,00,,,M,,,,0000*2B
$GNRMC,000000.000,A,,,,,,,060180,,*29
$GPGSA,A,1,,,,,,,,,,,,,,,*1E
$BDGSA,A,1,,,,,,,,,,,,,,,*0F
$GLGSA,A,1,,,,,,,,,,,,,,,*02
$GPGSV,1,1,03,01,00,000,20,03,00,000,32,05,00,000,20*4C
$B3CN0,0,0,0,0,0,0,0,0,0,0,0,0,0,0*4C
$GNGGA,000000.000,,,,,0,00,,,M,,,,0000*2B
$GNRMC,000000.000,A,,,,,,,060180,,*29
$GPGSA,A,1,,,,,,,,,,,,,,,*1E
$BDGSA,A,1,,,,,,,,,,,,,,,*0F
$GLGSA,A,1,,,,,,,,,,,,,,,*02
$GPGSV,1,1,03,01,00,000,20,03,00,000,32,05,00,000,20*4C
$B3CN0,0,0,0,0,0,0,0,0,0,0,0,0,0,0*4C
$GNGGA,000000.000,,,,,0,00,,,M,,,,0000*2B
$GNRMC,000000.000,A,,,,,,,060180,,*29
$GPGSA,A,1,,,,,,,,,,,,,,,*1E
$BDGSA,A,1,,,,,,,,,,,,,,,*0F
$GLGSA,A,1,,,,,,,,,,,,,,,*02
$GPGSV,1,1,03,01,00,000,20,03,00,000,32,05,00,000,20*4C
$B3CN0,0,0,0,0,0,0,0,0,0,0,0,0,0,0*4C
$GNGGA,000000.000,,,,,0,00,,,M,,,,0000*2B
$GNRMC,000000.000,A,,,,,,,060180,,*29
$GPGSA,A,1,,,,,,,,,,,,,,,*1E
$BDGSA,A,1,,,,,,,,,,,,,,,*0F
$GLGSA,A,1,,,,,,,,,,,,,,,*02
$GPGSV,1,1,03,01,00,000,20,03,00,000,32,05,00,000,20*4C
$B3CN0,0,0,0,0,0,0,0,0,0,0,0,0,0,0*4C
$GNGGA,000000.000,,,,,0,00,,,M,,,,0000*2B
$GNRMC,000000.000,A,,,,,,,060180,,*29
$GPGSA,A,1,,,,,,,,,,,,,,,*1E
$BDGSA,A,1,,,,,,,,,,,,,,,*0F
$GLGSA,A,1,,,,,,,,,,,,,,,*02
$GPGSV,1,1,03,01,00,000,20,03,00,000,32,05,00,000,20*4C
$B3CN0,0,0,0,0,0,0,0,0,0,0,0,0,0,0*4C
$GNGGA,000000.000,,,,,0,00,,,M,,,,0000*2B
$GNRMC,000000.000,A,,,,,,,060180,,*29
$GPGSA,A,1,,,,,,,,,,,,,,,*1E
$BDGSA,A,1,,,,,,,,,,,,,,,*0F
$GLGSA,A,1,,,,,,,,,,,,,,,*02
$GPGSV,1,1,03,01,00,000,20,03,00,000,32,05,00,000,20*4C
$B3CN0,0,0,0,0,0,0,0,0,0,0,0,0,0,0*4C
---00000105--- Acq_st=3 0  2000-1-1 4:2:14 
[00]  19(G20)  7 27 27  0  -2671.0  2046003.1  0.2  1 0  179  291  201
[01]  00(G01)  7 18 18  0 -33819.4  2046043.9  0.1 10 0  237  234   61
[02]  02(G03)  7 32 31  0  20360.4  2045973.5 -0.8  5 0   30  170  163
[03]  04(G05)  7 21 14  0  25004.4  2045967.3  0.4 10 0   81  121   51
[04]  01(G02)  1  7  7  0   4679.0  2045994.1 -0.0  1 0  132  222  128
[05]  03(G04)  1  9  7  0  -7816.5  2046011.3 -0.0  1 0   81  205  167
[06]  05(G06)  1 20 19  0 -49776.0  2046063.9 -0.0  1 0  139  129  168
[08]  06(G07)  1  7  7  0 -45227.7  2046058.2 -0.1  1 0  118   96  132
[09]  07(G08)  1  7  7  0  38098.3  2045951.3 -0.0  1 0  129   85   90
[10]  08(G09)  1  7  7  0 -43363.9  2046056.2 -0.1  1 0  167  115  176
[11]  30(G31)  1  7  7  0 -34250.0  2046043.9 -0.0  1 0  374  289  226
[12]  31(G32)  1  7  7  0 -21000.0  2046027.0  0.0  1 0  218  171  193
[13]  11(G12)  1  7  7  0  12186.1  2045984.2 -0.0  1 0  173  106   20
[14]  13(G14)  1  7  7  0 -28270.8  2046035.8  0.0  1 0  175  223  154
[16]  39(B03)  1 10 10  0 -26000.0  4092067.4  0.2  1 0  117  123   94
[19]  45(B09)  1  7  9  0 -20583.8  4092053.2  0.2  1 0   56  149  202
[20]  46(B10)  1  8  7  0 -12364.2  4092032.3  0.1  1 0  390   58   83
[21]  49(B13)  1  7  9  0  33729.7  4091911.3  0.3  1 0  274   94  174
$GNGGA,000000.000,,,,,0,00,,,M,,,,0000*2B
$GNRMC,000000.000,A,,,,,,,060180,,*29
$GPGSA,A,1,,,,,,,,,,,,,,,*1E
$BDGSA,A,1,,,,,,,,,,,,,,,*0F
$GLGSA,A,1,,,,,,,,,,,,,,,*02
$GPGSV,1,1,03,01,00,000,18,03,00,000,32,05,00,000,21*46
$B3CN0,0,0,0,0,0,0,0,0,0,0,0,0,0,0*4C
$GNGGA,000000.000,,,,,0,00,,,M,,,,0000*2B
$GNRMC,000000.000,A,,,,,,,060180,,*29
$GPGSA,A,1,,,,,,,,,,,,,,,*1E
$BDGSA,A,1,,,,,,,,,,,,,,,*0F
$GLGSA,A,1,,,,,,,,,,,,,,,*02
$GPGSV,1,1,03,01,00,000,18,03,00,000,32,05,00,000,21*46
$B3CN0,0,0,0,0,0,0,0,0,0,0,0,0,0,0*4C
$GNGGA,000000.000,,,,,0,00,,,M,,,,0000*2B
$GNRMC,000000.000,A,,,,,,,060180,,*29
$GPGSA,A,1,,,,,,,,,,,,,,,*1E
$BDGSA,A,1,,,,,,,,,,,,,,,*0F
$GLGSA,A,1,,,,,,,,,,,,,,,*02
$GPGSV,1,1,03,01,00,000,18,03,00,000,32,05,00,000,21*46
$B3CN0,0,0,0,0,0,0,0,0,0,0,0,0,0,0*4C
$GNGGA,000000.000,,,,,0,00,,,M,,,,0000*2B
$GNRMC,000000.000,A,,,,,,,060180,,*29
$GPGSA,A,1,,,,,,,,,,,,,,,*1E
$BDGSA,A,1,,,,,,,,,,,,,,,*0F
$GLGSA,A,1,,,,,,,,,,,,,,,*02
$GPGSV,1,1,03,01,00,000,18,03,00,000,32,05,00,000,21*46
$B3CN0,0,0,0,0,0,0,0,0,0,0,0,0,0,0*4C
$GNGGA,000000.000,,,,,0,00,,,M,,,,0000*2B
$GNRMC,000000.000,A,,,,,,,060180,,*29
$GPGSA,A,1,,,,,,,,,,,,,,,*1E
$BDGSA,A,1,,,,,,,,,,,,,,,*0F
$GLGSA,A,1,,,,,,,,,,,,,,,*02
$GPGSV,1,1,03,01,00,000,18,03,00,000,32,05,00,000,21*46
$B3CN0,0,0,0,0,0,0,0,0,0,0,0,0,0,0*4C
$GNGGA,000000.000,,,,,0,00,,,M,,,,0000*2B
$GNRMC,000000.000,A,,,,,,,060180,,*29
$GPGSA,A,1,,,,,,,,,,,,,,,*1E
$BDGSA,A,1,,,,,,,,,,,,,,,*0F
$GLGSA,A,1,,,,,,,,,,,,,,,*02
$GPGSV,1,1,03,01,00,000,18,03,00,000,32,05,00,000,21*46
$B3CN0,0,0,0,0,0,0,0,0,0,0,0,0,0,0*4C