SD initialized success
Create debug.log Failed! 3
bbram_blkflag = 1
rtcflag = 0
BBRAM Block OK: 01 EPHflag: 0105093a 0014beaf, rtc 00
Hot-start nowtime:day = 7,minute = 18,seconds = 10.00
GPS 0 Init Dop: 10000,80
GPS 1 Init Dop: -1412, 2
GPS 2 Init Dop: 10000,80
GPS 3 Init Dop: -1772, 2
GPS 4 Init Dop: -3192, 2
GPS 5 Init Dop:   247, 2
GPS 6 Init Dop: 10000,80
GPS 7 Init Dop: 10000,80
GPS 8 Init Dop:  -711, 2
GPS 9 Init Dop: 10000,80
GPS10 Init Dop: 10000,80
GPS11 Init Dop: -1177, 2
GPS12 Init Dop: 10000,80
GPS13 Init Dop: 10000,80
GPS14 Init Dop: 10000,80
GPS15 Init Dop: 10000,80
GPS16 Init Dop:  1260, 2
GPS17 Init Dop: 10000,80
GPS18 Init Dop:   807, 2
GPS19 Init Dop: 10000,80
GPS20 Init Dop: 10000,80
GPS21 Init Dop: 10000,80
GPS22 Init Dop: 10000,80
GPS23 Init Dop: 10000,80
GPS24 Init Dop: -2941, 2
GPS25 Init Dop: 10000,80
GPS26 Init Dop: 10000,80
GPS27 Init Dop: 10000,80
GPS28 Init Dop: 10000,80
GPS29 Init Dop: 10000,80
GPS30 Init Dop: 10000,80
GPS31 Init Dop: 10000,80
BDS 0 Init Dop:  -834, 2
BDS 1 Init Dop:  -891, 2
BDS 2 Init Dop:  -843, 2
BDS 3 Init Dop:  -853, 2
BDS 4 Init Dop: 10000,80
BDS 5 Init Dop: -2477, 2
BDS 6 Init Dop: 10000,80
BDS 7 Init Dop:  -936, 2
BDS 8 Init Dop: 10000,80
BDS 9 Init Dop:   835, 2
BDS10 Init Dop: -3346, 2
BDS11 Init Dop:  -890, 2
BDS12 Init Dop:  -947, 2
BDS13 Init Dop: -4085, 2
BDS14 Init Dop: 10000,80
BDS15 Init Dop: -2613, 2
BDS16 Init Dop: 10000,80
BDS17 Init Dop: 10000,80
BDS18 Init Dop:  2233, 2
BDS19 Init Dop: 10000,80
BDS20 Init Dop: -2476, 2
BDS21 Init Dop: 10000,80
BDS22 Init Dop: 10000,80
BDS23 Init Dop: 10000,80
BDS24 Init Dop: 10000,80
BDS25 Init Dop: 10000,80
BDS26 Init Dop: 10000,80
BDS27 Init Dop: 10000,80
BDS28 Init Dop: 10000,80
BDS29 Init Dop: 10000,80
BDS30 Init Dop: 10000,80
BDS31 Init Dop: 10000,80
Good luck!
t1:1026.010290,t2:0.000000
dt:1.026010
$ini_pos,lastpos_good = 1,ini_pos.x:-1578915.000000,ini_pos.y:5312776.000000,ini_pos.z:3146359.000000
$rtc_local_time,localRTC.weeks:2052,localRTC.seconds:217109.026010,localGtime.weeks:0,localGtime.seconds:19.026010
$GNGGA,000000.000,,,,,0,00,,,M,,,,0000*2B
$GNRMC,000000.000,A,,,,,,,060180,,*29
$GPGSA,A,1,,,,,,,,,,,,,,,*1E
$BDGSA,A,1,,,,,,,,,,,,,,,*0F
$GLGSA,A,1,,,,,,,,,,,,,,,*02
$B3CN0,0,0,0,0,0,0,0,0,0,0,0,0,0,0*4C
---00000001--- Acq_st=3 0  2019-5-7 12:18:11 
[00]  01(G02)  1 28  7  0  -1661.0  2046002.9  0.4  1 0 2237 3021 1402
[01]  03(G04)  1 26  7  0  -2018.1  2046004.3  0.3  1 0  660 1383  820
[02]  04(G05)  1 24  7  0  -3441.7  2046008.0  0.2  1 0  545 2270 3254
[03]  05(G06)  1 28 12  0     -1.7  2046001.2  0.3  1 0 1853 3581 1861
[04]  08(G09)  1 24  7  0   -958.2  2046002.9  0.1  1 0  718 1476 1165
[05]  11(G12)  1 24  7  0  -1427.0  2046004.4  0.1  1 0  436 2648 4827
[06]  16(G17)  1 16  7  0   1010.0  2046001.6  0.1  1 0  187 2191 3560
[08]  18(G19)  1  7  7  0    557.0  2046001.2 -0.1  1 0 1214 2763 2502
t1:2026.010258,t2:1026.010290
dt:1.000000
$ini_pos,lastpos_good = 1,ini_pos.x:-1578915.000000,ini_pos.y:5312776.000000,ini_pos.z:3146359.000000
$rtc_local_time,localRTC.weeks:2052,localRTC.seconds:217110.026010,localGtime.weeks:2052,localGtime.seconds:217110.026010
$GNGGA,000000.000,,,,,0,00,,,M,,,,0000*2B
$GNRMC,000000.000,A,,,,,,,060180,,*29
$GPGSA,A,1,,,,,,,,,,,,,,,*1E
$BDGSA,A,1,,,,,,,,,,,,,,,*0F
$GLGSA,A,1,,,,,,,,,,,,,,,*02
$B3CN0,0,0,0,0,0,0,0,0,0,0,0,0,0,0*4C
---00000002--- Acq_st=3 0  2019-5-7 12:18:12 
[00]  01(G02)  7 24  7  0  -1652.7  2046002.0  0.8 10 0 1741 2294 1170
[01]  03(G04)  7 22  7  0  -2012.1  2046002.4  1.0 10 0 1498 1219  367
[02]  04(G05)  7 22  7  0  -3432.5  2046004.3  0.7 10 0 2709 2966  875
[03]  05(G06)  7 21  7  0      7.6  2045999.9  0.8 10 0 2758 2989  942
[04]  08(G09)  7  7  7  0   -950.8  2046001.1  0.9 10 0 1313 1167  214
[05]  11(G12)  1 40  7  0  -1418.3  2046001.8  1.0  1 0 3657 3794 1040
[06]  16(G17)  1 32 15  0   1020.1  2045998.6  0.5  1 0 2909 3202 1042
[08]  18(G19)  1 35  7  0    562.8  2045999.1  0.5  1 0 2191 2735  977
[09]  24(G25)  1 23  7  0  -3181.0  2046007.3  0.0  1 0  667 2040 2793
[16]  37(B01)  1 10 10  0  -1084.0  4092003.4 -0.2  1 0  569  495 1271
[17]  38(B02)  1 10 10  0  -1141.0  4092003.8  0.1  1 0  283  271 1053
[18]  39(B03)  1 10 10  0  -1093.0  4092003.4 -0.2  1 0  537  552 1263
[19]  40(B04)  1 10 10  0  -1103.0  4092003.9 -0.2  1 0  344  625 1915
t1:3026.010226,t2:1026.010290
dt:2.000000
$ini_pos,lastpos_good = 1,ini_pos.x:-1578915.000000,ini_pos.y:5312776.000000,ini_pos.z:3146359.000000
$rtc_local_time,localRTC.weeks:2052,localRTC.seconds:217111.026010,localGtime.weeks:2052,localGtime.seconds:217111.026010
$pseudo_cd_ph,prn:2,pseudo_cd_ph:17.647434
$meas,msRange:72.257146,x:2319431.980167,y:16738489.370138,z:21132581.078238,vx:-2417.611084,vy:-796.758240,vz:907.796509
$pseudo_cd_ph,prn:5,pseudo_cd_ph:19.229584
$meas,msRange:70.883859,x:1973959.963560,y:26251482.037844,z:2419309.876180,vx:-377.704681,vy:-273.474396,vz:3143.071777
$pseudo_cd_ph,prn:6,pseudo_cd_ph:18.497480
$meas,msRange:71.825769,x:-11834640.103894,y:10636259.181168,z:21316213.569340,vx:-2450.203369,vy:-1114.680908,vz:-802.343689
$pseudo_cd_ph,prn:9,pseudo_cd_ph:13.155846
$meas,msRange:77.371597,x:-22262440.360291,y:4811615.353829,z:13632989.799701,vx:1236.349121,vy:-1246.538330,vz:2450.432129
$pseudo_cd_ph,prn:12,pseudo_cd_ph:17.580536
$meas,msRange:72.775907,x:10353080.099248,y:19944114.852912,z:14080760.358855,vx:-71.033836,vy:1819.455933,vz:-2469.931641
$GNGGA,000000.000,,,,,0,00,,,M,,,,0000*2B
$GNRMC,000000.000,A,,,,,,,060180,,*29
$GPGSA,A,1,,,,,,,,,,,,,,,*1E
$BDGSA,A,1,,,,,,,,,,,,,,,*0F
$GLGSA,A,1,,,,,,,,,,,,,,,*02
$GPGSV,1,1,04,02,00,000,24,04,00,000,22,05,00,000,21,06,00,000,21*7E
$B3CN0,0,0,0,0,0,0,0,0,0,0,0,0,0,0*4C
---00000003--- Acq_st=3 0  2019-5-7 12:18:13 
[00]  01(G02)  7 44 11  0  -1648.0  2046002.1 -0.0  2 0 1894 2957 1485
[01]  03(G04)  7 40  7  0  -2006.3  2046002.5 -0.2  2 0 1697 2348 1062
[02]  04(G05)  7 44  7  0  -3429.2  2046004.3  0.1  2 0 2426 3043 1239
[03]  05(G06)  7 44 16  0     10.8  2045999.9  0.0  2 0 2652 2732  880
[04]  08(G09)  7 38  7  0   -941.9  2046001.1  0.1  2 0  909 1020  196
[05]  11(G12)  7 38  7  0  -1409.8  2046001.7  0.1  2 0 3623 4621 2153
[06]  16(G17)  7 30  7  0   1022.8  2045998.5  0.4  5 0 2847 3432 1331
[08]  18(G19)  7 29  7  0    571.2  2045999.2  0.5  5 0 1558 3018 1187
[09]  24(G25)  7  8  7  0  -3177.7  2046003.9  1.0 10 0 2715 3272 1241
[16]  37(B01)  1 41 13  0  -1074.1  4092003.1  1.0  1 0 1058 1783  979
[17]  38(B02)  1 36 24  0  -1125.2  4092006.0  0.8  1 0  556 1114 1247
[18]  39(B03)  1 10 10  0  -1586.6  4092005.5  0.2  1 0  152  900 1462
[19]  40(B04)  1 41 20  0  -1092.2  4092003.5  0.9  1 0 1047 1684  827
[20]  41(B05)  1 10 23  1  -1109.8  4092003.8  0.3  1 0  668  785  935
[21]  42(B06)  1  7  7  0  -2717.4  4092007.8 -0.0  1 0 1431 2183  837
[22]  44(B08)  1  7  7  0  -1173.8  4092004.3  0.2  1 0 1972 2587 1175
[24]  46(B10)  1  7  7  0    595.3  4091999.4 -0.0  1 0 1028 1621 1185
[25]  47(B11)  1  7  7  0  -3583.9  4092011.2  0.0  1 0 1124 1875 1436
[26]  48(B12)  1  7  7  0  -1139.5  4092005.2  0.0  1 0  172 1010 2299
[27]  49(B13)  1  7  7  0  -1188.5  4092006.2  0.1  1 0  368 1598 2835
[28]  50(B14)  1  7  7  0  -4322.0  4092013.8  0.0  1 0  286  832 1679
[29]  52(B16)  1  7  7  0  -2863.0  4092009.4  0.1  1 0  372  834 1865
t1:4026.010194,t2:1026.010290
dt:3.000000
$ini_pos,lastpos_good = 1,ini_pos.x:-1578915.000000,ini_pos.y:5312776.000000,ini_pos.z:3146359.000000
$rtc_local_time,localRTC.weeks:2052,localRTC.seconds:217112.026010,localGtime.weeks:2052,localGtime.seconds:217112.026010
$pseudo_cd_ph,prn:2,pseudo_cd_ph:17.648433
$meas,msRange:72.256807,x:2317014.293891,y:16737692.664382,z:21133488.662106,vx:-2417.761719,vy:-796.653320,vz:907.371277
$pseudo_cd_ph,prn:5,pseudo_cd_ph:19.231692
$meas,msRange:70.882391,x:1973582.222907,y:26251208.377595,z:2422452.921778,vx:-377.776672,vy:-273.846100,vz:3143.019531
$pseudo_cd_ph,prn:6,pseudo_cd_ph:18.497423
$meas,msRange:71.826484,x:-11837090.294739,y:10635144.594631,z:21315410.999943,vx:-2450.178467,vy:-1114.492188,vz:-802.795105
$pseudo_cd_ph,prn:9,pseudo_cd_ph:13.156396
$meas,msRange:77.371704,x:-22261203.924144,y:4810368.686883,z:13635440.086363,vx:1236.523315,vy:-1246.795654,vz:2450.141357
$pseudo_cd_ph,prn:12,pseudo_cd_ph:17.581382
$meas,msRange:72.775718,x:10353009.114973,y:19945934.153796,z:14078290.276689,vx:-70.934731,vy:1819.145996,vz:-2470.232666
$pseudo_cd_ph,prn:17,pseudo_cd_ph:15.128413
$meas,msRange:75.034316,x:-21647152.619429,y:15285955.445958,z:1193145.401681,vx:-202.972931,vy:-121.578613,vz:-3227.961670
$pseudo_cd_ph,prn:19,pseudo_cd_ph:18.943936
$meas,msRange:70.846026,x:-18440151.398172,y:17267603.362937,z:8033187.377361,vx:-1009.608337,vy:371.116913,vz:-2995.053223
$pseudo_cd_ph,prn:25,pseudo_cd_ph:9.185168
$meas,msRange:80.174075,x:14949214.415352,y:7599010.917670,z:20446713.120054,vx:215.578400,vy:2627.316650,vz:-1097.703613
$GNGGA,000000.000,,,,,0,00,,,M,,,,0000*2B
$GNRMC,000000.000,A,,,,,,,060180,,*29
$GPGSA,A,1,,,,,,,,,,,,,,,*1E
$BDGSA,A,1,,,,,,,,,,,,,,,*0F
$GLGSA,A,1,,,,,,,,,,,,,,,*02
$GPGSV,2,1,08,02,00,000,44,04,00,000,40,05,00,000,44,06,00,000,44*73
$GPGSV,2,2,08,09,00,000,39,12,00,000,37,17,00,000,29,19,00,000,28*7A
$B3CN0,0,0,0,0,0,0,0,0,0,0,0,0,0,0*4C
---00000004--- Acq_st=4 0  2019-5-7 12:18:14 
[00]  01(G02)  7 43  7  0  -1646.4  2046002.0 -0.0  2 0 1824 2145  720
[01]  03(G04)  7 39 11  0  -2002.4  2046002.5  0.1  2 0  905 1340  763
[02]  04(G05)  7 44  8  0  -3429.4  2046004.3  0.0  2 0 2987 3911 1828
[03]  05(G06)  7 43 11  0     10.6  2045999.9  0.0  2 0 2047 3420 1933
[04]  08(G09)  7 38  7  0   -945.7  2046001.2  0.2  2 0 1070 1255  710
[05]  11(G12)  7 45  7  0  -1411.2  2046001.7 -0.0  2 0 3573 4121 1740
[06]  16(G17)  7 45  7  0   1024.6  2045998.6  0.1  2 0 2708 3346 1850
[08]  18(G19)  7 43  7  0    573.7  2045999.2 -0.1  2 0 1782 2538 1113
[09]  24(G25)  7 43 11  0  -3174.4  2046004.0  0.0  2 0 1748 1998  498
[16]  37(B01)  f 41 10  0  -1068.5  4092002.6  0.1  2 0 1007 1183  220
[17]  38(B02)  7 39 24  0  -1130.9  4092002.9  0.5  2 0 1025 1225  804
[18]  39(B03)  1 10 10  0  -1585.5  4092002.8 -0.0  1 0 1435 1129   91
[19]  40(B04)  f 41 22  0  -1088.5  4092002.7 -0.4  2 0  786 1365  728
[20]  41(B05)  7 32 23  0  -1109.1  4092002.6 -0.4  2 0 1086  753  375
[21]  42(B06)  7 25  7  0  -2714.7  4092007.0  0.4 10 0  838 1156  506
[22]  44(B08)  7 19  7  0  -1171.1  4092003.0  0.3 10 0 1804 1982  342
[24]  46(B10)  1  7  7  0    595.7  4091997.7  0.5  1 0  747 1141  724
[25]  47(B11)  1  7  7  0  -3579.1  4092009.2  0.2  1 0 1766 2114 1244
[26]  48(B12)  1  7  7  0  -1132.5  4092002.9  0.3  1 0 1971 2643  932
[27]  49(B13)  1  7  7  0  -1185.5  4092002.8  0.4  1 0 1673 2189  956
[28]  50(B14)  1  7  7  0  -4322.5  4092011.1  0.5  1 0 1562 1482  264
[29]  52(B16)  1  7  7  0  -2857.7  4092007.6  0.3  1 0 1180 1626  645
[30]  57(B21)  1  7  7  0  -2719.7  4092008.2  0.2  1 0 2852 4351 1610
t1:5026.010161,t2:1026.010290
dt:4.000000
$ini_pos,lastpos_good = 1,ini_pos.x:-1578915.000000,ini_pos.y:5312776.000000,ini_pos.z:3146359.000000
$rtc_local_time,localRTC.weeks:2052,localRTC.seconds:217113.026010,localGtime.weeks:2052,localGtime.seconds:217113.026010
$pseudo_cd_ph,prn:2,pseudo_cd_ph:17.649438
$meas,msRange:72.256468,x:2314596.457143,y:16736896.063529,z:21134395.820755,vx:-2417.912109,vy:-796.548401,vz:906.946045
$pseudo_cd_ph,prn:5,pseudo_cd_ph:19.233814
$meas,msRange:70.880923,x:1973204.410232,y:26250934.345643,z:2425595.915101,vx:-377.848724,vy:-274.217804,vz:3142.967285
$pseudo_cd_ph,prn:6,pseudo_cd_ph:18.497373
$meas,msRange:71.827199,x:-11839540.460434,y:10634030.196801,z:21314607.979135,vx:-2450.153076,vy:-1114.303467,vz:-803.246521
$pseudo_cd_ph,prn:9,pseudo_cd_ph:13.156953
$meas,msRange:77.371813,x:-22259967.313817,y:4809121.762666,z:13637890.082394,vx:1236.697388,vy:-1247.052856,vz:2449.850830
$pseudo_cd_ph,prn:12,pseudo_cd_ph:17.582233
$meas,msRange:72.775530,x:10352938.229780,y:19947753.144767,z:14075819.893562,vx:-70.835670,vy:1818.836060,vz:-2470.533691
$pseudo_cd_ph,prn:17,pseudo_cd_ph:15.127718
$meas,msRange:75.035675,x:-21647355.427637,y:15285833.759563,z:1189917.427267,vx:-202.643494,vy:-121.794197,vz:-3227.987305
$pseudo_cd_ph,prn:19,pseudo_cd_ph:18.943544
$meas,msRange:70.847098,x:-18441160.831138,y:17267974.414614,z:8030192.238388,vx:-1009.257690,vy:370.986450,vz:-2995.225098
$pseudo_cd_ph,prn:25,pseudo_cd_ph:9.187118
$meas,msRange:80.172768,x:14949430.063989,y:7601638.156754,z:20445615.196121,vx:215.718887,vy:2627.161865,vz:-1098.144287
$GNGGA,000000.000,,,,,0,00,,,M,,,,0000*2B
$GNRMC,000000.000,A,,,,,,,060180,,*29
$GPGSA,A,1,,,,,,,,,,,,,,,*1E
$BDGSA,A,1,,,,,,,,,,,,,,,*0F
$GLGSA,A,1,,,,,,,,,,,,,,,*02
$GPGSV,3,1,09,02,00,000,43,04,00,000,39,05,00,000,44,06,00,000,43*7D
$GPGSV,3,2,09,09,00,000,38,12,00,000,45,17,00,000,45,19,00,000,43*79
$GPGSV,3,3,09,25,00,000,43*40
$BDGSV,2,1,05,01,00,000,41,02,00,000,39,04,00,000,40,05,00,000,33*67
$BDGSV,2,2,05,06,00,000,23*5A
$B3CN0,0,0,0,0,0,0,0,0,0,0,0,0,0,0*4C
---00000005--- Acq_st=3 0  2019-5-7 12:18:15 
[00]  01(G02)  7 42  7  0  -1653.4  2046002.1 -0.0  2 0 2038 2993 1490
[01]  03(G04)  7 40  7  0  -2008.4  2046002.5 -0.0  2 0 1054 1677  497
[02]  04(G05)  7 44  7  0  -3430.8  2046004.3 -0.0  2 0 2920 3542 1689
[03]  05(G06)  7 44 15  0      6.6  2045999.9 -0.0  2 0 2217 3113 1676
[04]  08(G09)  7 38  7  0   -949.3  2046001.2 -0.2  2 0 1171 1728  712
[05]  11(G12)  7 45  7  0  -1414.3  2046001.8  0.0  2 0 2606 4329 2274
[06]  16(G17)  7 44 12  0   1024.5  2045998.6  0.0  2 0 2428 3433 1801
[08]  18(G19)  7 43  7  0    568.6  2045999.2  0.1  2 0 1464 2709 1003
[09]  24(G25)  7 42  7  0  -3178.6  2046004.0 -0.0  2 0 1800 2528  872
[16]  37(B01)  f 41 14  0  -1076.5  4092002.7 -0.2  2 0 1079 1557  554
[17]  38(B02)  f 39 24  0  -1135.2  4092002.9  0.7  2 0  874 1223  425
[18]  39(B03)  1 10 10  0  -1586.9  4092002.7 -0.2  1 0  187  993  534
[19]  40(B04)  f 40 19  0  -1092.2  4092002.7 -0.2  2 0 1259 1740  843
[20]  41(B05)  7 33 20  0  -1111.0  4092002.7 -0.4  2 0 1467 1063  342
[21]  42(B06)  7 40  7  0  -2717.9  4092007.0  0.0  2 0 1012 1422  556
[22]  44(B08)  7 43  7  0  -1172.9  4092002.9  0.0  2 0 1560 2109 1330
[24]  46(B10)  7 39  9  0    599.0  4091998.3  0.0  2 0 1209 1774  275
[25]  47(B11)  7 39  9  0  -3583.1  4092009.3 -0.0  2 0 1443 1683  798
[26]  48(B12)  7 40  7  0  -1132.9  4092002.9 -0.0  2 0 1482 2036  913
[27]  49(B13)  7 39  7  0  -1184.5  4092002.9  0.0  2 0 2339 2785  937
[28]  50(B14)  7 38  7  0  -4324.5  4092011.2  0.1  2 0  889 1377  439
[29]  52(B16)  7 33  7  0  -2852.9  4092007.3  0.2  5 0 1478 1796  733
[30]  57(B21)  7 25  7  0  -2720.7  4092007.0  0.5 10 0 3260 3914 1462
[48]  37(B01)  1 10 16  1   -995.2 20460020.3 -0.1  1 0  287  323  402
[51]  40(B04)  1 25 22  0  -1152.4 20460020.5  0.1  1 0  283  457  666
t1:6026.010129,t2:1026.010290
dt:5.000000
$ini_pos,lastpos_good = 1,ini_pos.x:-1578915.000000,ini_pos.y:5312776.000000,ini_pos.z:3146359.000000
$rtc_local_time,localRTC.weeks:2052,localRTC.seconds:217114.026010,localGtime.weeks:2052,localGtime.seconds:217114.026010
$pseudo_cd_ph,prn:2,pseudo_cd_ph:17.650453
$meas,msRange:72.256130,x:2312178.469973,y:16736099.567611,z:21135302.554166,vx:-2418.062500,vy:-796.443481,vz:906.520813
$pseudo_cd_ph,prn:5,pseudo_cd_ph:19.235949
$meas,msRange:70.879456,x:1972826.525487,y:26250659.942003,z:2428738.856082,vx:-377.920807,vy:-274.589478,vz:3142.914795
$pseudo_cd_ph,prn:6,pseudo_cd_ph:18.497335
$meas,msRange:71.827915,x:-11841990.600912,y:10632915.987692,z:21313804.506935,vx:-2450.127930,vy:-1114.114746,vz:-803.697937
$pseudo_cd_ph,prn:9,pseudo_cd_ph:13.157518
$meas,msRange:77.371922,x:-22258730.529368,y:4807874.581175,z:13640339.787742,vx:1236.871582,vy:-1247.310181,vz:2449.560059
$pseudo_cd_ph,prn:12,pseudo_cd_ph:17.583094
$meas,msRange:72.775343,x:10352867.443626,y:19949571.825784,z:14073349.209527,vx:-70.736649,vy:1818.526123,vz:-2470.834473
$pseudo_cd_ph,prn:17,pseudo_cd_ph:15.127033
$meas,msRange:75.037035,x:-21647557.906425,y:15285711.857560,z:1186689.427435,vx:-202.314087,vy:-122.009827,vz:-3228.012695
$pseudo_cd_ph,prn:19,pseudo_cd_ph:18.943153
$meas,msRange:70.848170,x:-18442169.913464,y:17268345.335810,z:8027196.927555,vx:-1008.907043,vy:370.855957,vz:-2995.396729
$pseudo_cd_ph,prn:25,pseudo_cd_ph:9.189085
$meas,msRange:80.171461,x:14949645.853102,y:7604265.240977,z:20444516.831481,vx:215.859344,vy:2627.006836,vz:-1098.584961
$GNGGA,000000.000,,,,,0,00,,,M,,,,0000*2B
$GNRMC,000000.000,A,,,,,,,060180,,*29
$GPGSA,A,1,,,,,,,,,,,,,,,*1E
$BDGSA,A,1,,,,,,,,,,,,,,,*0F
$GLGSA,A,1,,,,,,,,,,,,,,,*02
$GPGSV,3,1,09,02,00,000,43,04,00,000,41,05,00,000,44,06,00,000,44*75
$GPGSV,3,2,09,09,00,000,38,12,00,000,45,17,00,000,44,19,00,000,43*78
$GPGSV,3,3,09,25,00,000,42*41
$BDGSV,3,1,12,01,00,000,41,02,00,000,39,04,00,000,40,05,00,000,34*67
$BDGSV,3,2,12,06,00,000,40,08,00,000,43,10,00,000,36,11,00,000,36*66
$BDGSV,3,3,12,12,00,000,37,13,00,000,36,14,00,000,36,16,00,000,32*6D
$B3CN0,0,0,0,0,0,0,0,0,0,0,0,0,0,0*4C
---00000006--- Acq_st=3 0  2019-5-7 12:18:16 
[00]  01(G02)  7 42  7  0  -1658.2  2046002.1  0.0  2 0 1750 3040 1669
[01]  03(G04)  7 41  8  0  -2016.3  2046002.5 -0.0  2 0 1539 2353 1723
[02]  04(G05)  7 44  7  0  -3437.7  2046004.4  0.0  2 0 1878 3691 1867
[03]  05(G06)  7 44 13  0     -0.7  2045999.9 -0.1  2 0 1830 3183 1320
[04]  08(G09)  7 37  7  0   -955.1  2046001.2 -0.0  2 0  827 1066  857
[05]  11(G12)  7 45  7  0  -1419.8  2046001.8  0.0  2 0 2827 4084 1820
[06]  16(G17)  7 44 14  0   1016.3  2045998.6 -0.0  2 0 2182 3473 1609
[08]  18(G19)  7 43  7  0    563.6  2045999.2 -0.0  2 0 2022 3263 2275
[09]  24(G25)  7 41  7  0  -3181.4  2046004.0  0.0  2 0 1571 2185  754
[16]  37(B01)  f 41 10  0  -1082.5  4092002.8  0.0  2 0 1111 1589  494
[17]  38(B02)  f 39 22  0  -1141.0  4092003.0  0.6  2 0  798 1193  437
[18]  39(B03)  1 10 10  0  -1589.8  4092002.9  0.1  1 0  974 1665  937
[19]  40(B04)  f 41 19  0  -1099.9  4092002.8  0.4  2 0 1522 1875  767
[20]  41(B05)  7 36 28  0  -1112.6  4092002.7 -0.6  2 0 1129 1066  292
[21]  42(B06)  7 40  7  0  -2726.5  4092007.0  0.0  2 0  947 1136  104
[22]  44(B08)  7 43  7  0  -1182.8  4092003.0  0.0  2 0 1088 1661  850
[24]  46(B10)  7 40  9  0    586.5  4091998.4  0.1  2 0 1115 1619  743
[25]  47(B11)  7 42  7  0  -3592.1  4092009.3  0.0  2 0 1119 1509  457
[26]  48(B12)  7 42  7  0  -1138.6  4092002.8  0.0  2 0 1269 1906  764
[27]  49(B13)  7 42  7  0  -1195.9  4092003.0  0.0  2 0 1532 2233  460
[28]  50(B14)  7 40 12  0  -4331.6  4092011.2  0.1  2 0 1029 1113  365
[29]  52(B16)  7 40  7  0  -2861.5  4092007.3 -0.0  2 0 1571 1737  965
[30]  57(B21)  7 45 12  0  -2726.1  4092007.0  0.0  2 0 3357 3955 1667
[32]  75(N-6)  1 23  7  0    912.4  1021999.3  0.6  1 0  1216 1807  925
[33]  76(N-5)  1 19 10  0   2925.1  1021999.2  0.0  1 0   521  189  130
[34]  78(N-3)  1 26  7  0  -1315.5  1022002.6  0.2  1 0   967 2311 1629
[35]  79(N-2)  1 25 13  0  -3291.9  1022004.3 -0.1  1 0   223  859 1025
[36]  80(N-1)  1 25 14  0  -2727.8  1022004.6 -0.0  1 0   308 1013 2413
[37]  84(N03)  1 13  7  0    999.9  1022001.7  0.0  1 0   383 1161 1449
[38]  85(N04)  1 12  7  0  -5605.5  1022004.1  0.1  1 0   373 1121 1187
[48]  37(B01)  7 10 36  1  -1085.1 20460015.5  0.0  2 0  238  166  380
[49]  38(B02)  1 13 21  0   -960.2 20460017.3 -0.1  1 0  246  259  534
[51]  40(B04)  1 25 19  0  -1040.1 20460024.1 -0.2  1 0  537  231  513
t1:7026.010097,t2:1026.010290
dt:6.000000
$ini_pos,lastpos_good = 1,ini_pos.x:-1578915.000000,ini_pos.y:5312776.000000,ini_pos.z:3146359.000000
$rtc_local_time,localRTC.weeks:2052,localRTC.seconds:217115.026010,localGtime.weeks:2052,localGtime.seconds:217115.026010
$pseudo_cd_ph,prn:2,pseudo_cd_ph:17.651467
$meas,msRange:72.255791,x:2309760.332434,y:16735303.176663,z:21136208.862323,vx:-2418.212891,vy:-796.338501,vz:906.095581
$pseudo_cd_ph,prn:5,pseudo_cd_ph:19.238086
$meas,msRange:70.877989,x:1972448.568624,y:26250385.166689,z:2431881.744652,vx:-377.992950,vy:-274.961151,vz:3142.862549
$pseudo_cd_ph,prn:6,pseudo_cd_ph:18.497295
$meas,msRange:71.828630,x:-11844440.716107,y:10631801.967318,z:21313000.583360,vx:-2450.102539,vy:-1113.926025,vz:-804.149292
$pseudo_cd_ph,prn:9,pseudo_cd_ph:13.158080
$meas,msRange:77.372031,x:-22257493.570854,y:4806627.142402,z:13642789.202353,vx:1237.045532,vy:-1247.567505,vz:2449.269287
$pseudo_cd_ph,prn:12,pseudo_cd_ph:17.583954
$meas,msRange:72.775156,x:10352796.756468,y:19951390.196803,z:14070878.224638,vx:-70.637680,vy:1818.216064,vz:-2471.135498
$pseudo_cd_ph,prn:17,pseudo_cd_ph:15.126347
$meas,msRange:75.038394,x:-21647760.055819,y:15285589.739902,z:1183461.402255,vx:-201.984711,vy:-122.225502,vz:-3228.037842
$pseudo_cd_ph,prn:19,pseudo_cd_ph:18.942763
$meas,msRange:70.849242,x:-18443178.645155,y:17268716.126469,z:8024201.444927,vx:-1008.556396,vy:370.725372,vz:-2995.568604
$pseudo_cd_ph,prn:25,pseudo_cd_ph:9.191057
$meas,msRange:80.170154,x:14949861.782664,y:7606892.170277,z:20443418.026159,vx:215.999786,vy:2626.851807,vz:-1099.025635
$GNGGA,000000.000,,,,,0,00,,,M,,,,0000*2B
$GNRMC,000000.000,A,,,,,,,060180,,*29
$GPGSA,A,1,,,,,,,,,,,,,,,*1E
$BDGSA,A,1,,,,,,,,,,,,,,,*0F
$GLGSA,A,1,,,,,,,,,,,,,,,*02
$GPGSV,3,1,09,02,00,000,42,04,00,000,41,05,00,000,44,06,00,000,44*74
$GPGSV,3,2,09,09,00,000,37,12,00,000,45,17,00,000,44,19,00,000,43*77
$GPGSV,3,3,09,25,00,000,41*42
$BDGSV,3,1,12,01,00,000,41,02,00,000,39,04,00,000,40,05,00,000,35*66
$BDGSV,3,2,12,06,00,000,40,08,00,000,42,10,00,000,40,11,00,000,41*66
$BDGSV,3,3,12,12,00,000,42,13,00,000,42,14,00,000,40,16,00,000,40*68
$B3CN0,19,0,0,0,0,0,0,0,0,0,0,0,0,0*74
---00000007--- Acq_st=7 0  2019-5-7 12:18:17 
[00]  01(G02)  7 42  7  0  -1648.5  2046002.1 -0.0  2 0 2058 3008 1140
[01]  03(G04)  7 41  7  0  -2003.5  2046002.6  0.1  2 0 1142 2207 1764
[02]  04(G05)  7 44  7  0  -3422.5  2046004.4 -0.0  2 0 1879 3046 1950
[03]  05(G06)  7 44 10  0     15.8  2045999.9  0.0  2 0 2607 3688 1748
[04]  08(G09)  7 38  7  0   -943.3  2046001.2  0.0  2 0 1121 1338  434
[05]  11(G12)  7 45  7  0  -1407.2  2046001.8 -0.0  2 0 2631 3861 1878
[06]  16(G17)  7 44  7  0   1031.8  2045998.6  0.0  2 0 2319 3559 1810
[08]  18(G19)  7 43  7  0    577.2  2045999.2  0.0  2 0 2184 3365 1359
[09]  24(G25)  7 42  8  0  -3170.2  2046004.0 -0.1  2 0 1816 2967 1495
[16]  37(B01)  f 41 17  0  -1071.7  4092002.8  0.2  2 0  845 1173  307
[17]  38(B02)  f 38 24  0  -1127.8  4092002.9 -0.5  2 0  947 1324  271
[19]  40(B04)  f 41 23  0  -1092.5  4092002.7  0.2  2 0 1432 1737  393
[20]  41(B05)  f 36 23  0  -1105.8  4092002.5  0.1  2 0 1365  759  462
[21]  42(B06)  7 40  7  0  -2707.6  4092007.0  0.0  2 0 1032 1340  505
[22]  44(B08)  7 42  7  0  -1168.5  4092002.9 -0.0  2 0 1857 2044  729
[24]  46(B10)  7 39  7  0    596.9  4091998.3 -0.2  2 0 1428 1170  195
[25]  47(B11)  7 41  7  0  -3580.0  4092009.3  0.0  2 0 1575 1476  484
[26]  48(B12)  7 42  7  0  -1127.2  4092002.8  0.0  2 0 2062 2643 1528
[27]  49(B13)  7 43  7  0  -1183.5  4092003.0 -0.0  2 0 1709 2243  763
[28]  50(B14)  7 40  7  0  -4324.1  4092011.2  0.0  2 0 1627 1627  608
[29]  52(B16)  7 40  7  0  -2846.5  4092007.3  0.0  2 0 1000 1335  631
[30]  57(B21)  7 45  7  0  -2714.0  4092007.0 -0.0  2 0 3381 4547 2076
[32]  75(N-6)  1 21 10  0    925.4  1021999.2  0.9  1 0   901 1874  971
[33]  76(N-5)  1 21 18  0   2958.7  1021998.2  0.0  1 0   134  429  169
[34]  78(N-3)  1 21  7  0  -1302.0  1022000.6  1.0  1 0  1915 2450 1160
[35]  79(N-2)  1 24 13  0  -3276.3  1022001.9  0.9  1 0   998 1081  588
[36]  80(N-1)  1 28 11  0  -2713.8  1022001.6  1.0  1 0  1826 1798  626
[37]  84(N03)  1 28 16  0    935.2  1021999.2  1.0  1 0   823 1160  299
[38]  85(N04)  1 20  7  0  -5535.9  1022003.6  0.1  1 0   894 1631 1081
[48]  37(B01)  7 20 10  0  -1541.4 20460026.4  0.0  2 0  348  378  495
[49]  38(B02)  1 10 20  1  -1662.8 20460019.2  0.1  1 0  314  256  326
[51]  40(B04)  1 21 18  1   -586.8 20460022.8  0.1  1 0  268  343  680
t1:8026.010065,t2:1026.010290
dt:7.000000
$ini_pos,lastpos_good = 1,ini_pos.x:-1578915.000000,ini_pos.y:5312776.000000,ini_pos.z:3146359.000000
$rtc_local_time,localRTC.weeks:2052,localRTC.seconds:217116.026010,localGtime.weeks:2052,localGtime.seconds:217116.026010
$pseudo_cd_ph,prn:2,pseudo_cd_ph:17.652482
$meas,msRange:72.255452,x:2307342.044575,y:16734506.890719,z:21137114.745206,vx:-2418.363037,vy:-796.233459,vz:905.670288
$pseudo_cd_ph,prn:5,pseudo_cd_ph:19.240227
$meas,msRange:70.876522,x:1972070.539595,y:26250110.019716,z:2435024.580744,vx:-378.065155,vy:-275.332794,vz:3142.809814
$pseudo_cd_ph,prn:6,pseudo_cd_ph:18.497254
$meas,msRange:71.829345,x:-11846890.805953,y:10630688.135693,z:21312196.208426,vx:-2450.077148,vy:-1113.737305,vz:-804.600647
$pseudo_cd_ph,prn:9,pseudo_cd_ph:13.158647
$meas,msRange:77.372140,x:-22256256.438332,y:4805379.446343,z:13645238.326177,vx:1237.219604,vy:-1247.824707,vz:2448.978516
$pseudo_cd_ph,prn:12,pseudo_cd_ph:17.584816
$meas,msRange:72.774969,x:10352726.168263,y:19953208.257784,z:14068406.938950,vx:-70.538742,vy:1817.906006,vz:-2471.436035
$pseudo_cd_ph,prn:17,pseudo_cd_ph:15.125661
$meas,msRange:75.039754,x:-21647961.875844,y:15285467.406541,z:1180233.351794,vx:-201.655350,vy:-122.441231,vz:-3228.063232
$pseudo_cd_ph,prn:19,pseudo_cd_ph:18.942368
$meas,msRange:70.850315,x:-18444187.026215,y:17269086.786536,z:8021205.790568,vx:-1008.205750,vy:370.594757,vz:-2995.740234
$pseudo_cd_ph,prn:25,pseudo_cd_ph:9.193036
$meas,msRange:80.168848,x:14950077.852652,y:7609518.944591,z:20442318.780182,vx:216.140198,vy:2626.696777,vz:-1099.466309
$GNGGA,000000.000,,,,,0,00,,,M,,,,0000*2B
$GNRMC,000000.000,A,,,,,,,060180,,*29
$GPGSA,A,1,,,,,,,,,,,,,,,*1E
$BDGSA,A,1,,,,,,,,,,,,,,,*0F
$GLGSA,A,1,,,,,,,,,,,,,,,*02
$GPGSV,3,1,09,02,00,000,42,04,00,000,41,05,00,000,44,06,00,000,44*74
$GPGSV,3,2,09,09,00,000,38,12,00,000,45,17,00,000,44,19,00,000,43*78
$GPGSV,3,3,09,25,00,000,42*41
$BDGSV,3,1,12,01,00,000,41,02,00,000,40,04,00,000,39,05,00,000,35*66
$BDGSV,3,2,12,06,00,000,40,08,00,000,43,10,00,000,39,11,00,000,41*69
$BDGSV,3,3,12,12,00,000,42,13,00,000,43,14,00,000,40,16,00,000,40*69
$B3CN0,0,0,0,0,0,0,0,0,0,0,0,0,0,0*4C
---00000008--- Acq_st=3 0  2019-5-7 12:18:18 
[00]  01(G02)  7 42 10  0  -1648.1  2046002.0  0.1  2 0 1705 3000 1298
[01]  03(G04)  7 41  7  0  -1999.4  2046002.5 -0.0  2 0 2176 2260 1131
[02]  04(G05)  7 44  7  0  -3424.5  2046004.4 -0.0  2 0 1922 3259 1523
[03]  05(G06)  7 43 13  0     14.0  2045999.9 -0.0  2 0 2058 3199 1379
[04]  08(G09)  7 39  7  0   -943.6  2046001.2  0.1  2 0 1008  978  434
[05]  11(G12)  7 45  7  0  -1407.9  2046001.7  0.0  2 0 3313 4934 2105
[06]  16(G17)  7 44 13  0   1027.4  2045998.6 -0.0  2 0 2967 4447 2280
[08]  18(G19)  7 43  7  0    575.7  2045999.2  0.0  2 0 1702 2965 1538
[09]  24(G25)  7 42  7  0  -3173.3  2046004.0 -0.0  2 0 1790 2598  964
[16]  37(B01) 1f 41 10  0  -1068.6  4092002.7 -0.5  2 0 1292 1698  765
[17]  38(B02) 1f 39 13  0  -1134.7  4092002.9  0.6  2 0  523  757  346
[19]  40(B04) 1f 42 23  0  -1090.6  4092002.8  0.1  2 0  820 1665 1142
[20]  41(B05) 1f 37 27  0  -1111.4  4092002.7 -0.9  2 0  680  817  577
[21]  42(B06)  7 40  7  0  -2716.2  4092007.0  0.1  2 0  551 1338  752
[22]  44(B08)  7 43  7  0  -1172.9  4092002.9  0.0  2 0 2085 2423  782
[24]  46(B10)  7 39  7  0    595.4  4091998.3  0.0  2 0 1079 1046   96
[25]  47(B11)  7 41  7  0  -3580.7  4092009.3  0.0  2 0 1387 1450  194
[26]  48(B12)  7 42  7  0  -1131.3  4092002.8  0.1  2 0 1519 2430 1046
[27]  49(B13)  7 42  7  0  -1188.1  4092003.0  0.0  2 0 2103 2305  547
[28]  50(B14)  7 40  7  0  -4322.9  4092011.2  0.1  2 0  601 1305  876
[29]  52(B16)  7 40  7  0  -2846.0  4092007.3 -0.0  2 0  943 1147   76
[30]  57(B21)  7 45  7  0  -2716.1  4092007.0 -0.0  2 0 3213 3929 1561
[32]  75(N-6)  7 31  7  0    924.5  1021999.4  0.5  5 0   995 1974  661
[33]  76(N-5)  7 24  7  0   2949.1  1021998.0 -0.0 10 0   561  667   95
[34]  78(N-3)  7 18  7  0  -1304.4  1022000.8  1.0 10 0  1663 2826 1320
[35]  79(N-2)  1 25 15  0  -3279.0  1022001.6  1.0  1 0   770 1275  542
[36]  80(N-1)  1 28 14  0  -2715.4  1022001.4  1.0  1 0  1323 2632 1158
[37]  84(N03)  1 28 19  0    932.5  1021999.3  1.0  1 0   804 1332  661
[38]  85(N04)  7 43  7  0  -5535.8  1022003.5  0.1  2 0   705 1461  813
[48]  37(B01)  7 36 18  0  -2204.7 20460034.7  0.0  2 0  182  282  393
[49]  38(B02)  1 19 16  1  -1677.0 20460022.1  0.2  1 0  620  573  915
[51]  40(B04)  1 23 18  0   -115.7 20460018.4  0.1  1 0  577  586  406
[52]  41(B05)  1 23 20  0   -935.0 20460017.3  0.0  1 0  613  494   90
tow update,217117679.242368
t1:9026.010032,t2:9026.010032
dt:0.000000
$ini_pos,lastpos_good = 1,ini_pos.x:-1578915.000000,ini_pos.y:5312776.000000,ini_pos.z:3146359.000000
$rtc_local_time,localRTC.weeks:2052,localRTC.seconds:217117.026010,localGtime.weeks:2052,localGtime.seconds:217117.679242
$pseudo_cd_ph,prn:2,pseudo_cd_ph:217117477.653498
$meas,msRange:72.254892,x:2303343.723296,y:16733190.675418,z:21138611.447343,vx:-2418.611328,vy:-796.059753,vz:904.967163
$pseudo_cd_ph,prn:5,pseudo_cd_ph:217117479.242368
$meas,msRange:70.874097,x:1971445.411370,y:26249654.322749,z:2440220.303787,vx:-378.184601,vy:-275.947205,vz:3142.722900
$pseudo_cd_ph,prn:6,pseudo_cd_ph:217117478.497216
$meas,msRange:71.830528,x:-11850941.317988,y:10628847.127214,z:21310865.399882,vx:-2450.035156,vy:-1113.425171,vz:-805.346802
$pseudo_cd_ph,prn:9,pseudo_cd_ph:217117473.159212
$meas,msRange:77.372322,x:-22254210.789333,y:4803316.150551,z:13649286.659030,vx:1237.507080,vy:-1248.250122,vz:2448.497559
$pseudo_cd_ph,prn:12,pseudo_cd_ph:217117477.585679
$meas,msRange:72.774661,x:10352609.686465,y:19956213.254931,z:14064320.669915,vx:-70.375282,vy:1817.393311,vz:-2471.933350
$pseudo_cd_ph,prn:17,pseudo_cd_ph:217117475.124977
$meas,msRange:75.042003,x:-21648294.808935,y:15285264.687860,z:1174896.579061,vx:-201.110916,vy:-122.797981,vz:-3228.104736
$pseudo_cd_ph,prn:19,pseudo_cd_ph:217117478.941978
$meas,msRange:70.852089,x:-18445853.345417,y:17269699.287188,z:8016252.901385,vx:-1007.626099,vy:370.378693,vz:-2996.023926
$pseudo_cd_ph,prn:25,pseudo_cd_ph:217117469.195018
$meas,msRange:80.166689,x:14950435.374461,y:7613861.272797,z:20440500.504783,vx:216.372284,vy:2626.440430,vz:-1100.194824
$GNGGA,121819.550,2944.9068,N,10633.0928,E,1,11,1.1,321.0,M,,,,0000*1B
$GNRMC,121819.550,A,2944.9068,N,10633.0928,E,0.22,0.00,070519,,*1D
$GPGSA,A,3,02,05,06,09,12,17,19,25,,,,,2.2,1.1,1.9*38
$BDGSA,A,3,01,02,04,,,,,,,,,,2.2,1.1,1.9*2C
$GLGSA,A,3,,,,,,,,,,,,,2.2,1.1,1.9*26
$GPGSV,3,1,09,02,00,000,42,04,00,000,41,05,00,000,44,06,00,000,44*74
$GPGSV,3,2,09,09,00,000,39,12,00,000,45,17,00,000,44,19,00,000,43*79
$GPGSV,3,3,09,25,00,000,42*41
$BDGSV,3,1,12,01,00,000,41,02,00,000,38,04,00,000,42,05,00,000,37*67
$BDGSV,3,2,12,06,00,000,40,08,00,000,42,10,00,000,39,11,00,000,41*68
$BDGSV,3,3,12,12,00,000,42,13,00,000,42,14,00,000,40,16,00,000,40*68
$B3CN0,0,0,0,0,0,0,0,0,0,0,0,0,0,0*4C
---00000009--- Acq_st=3 0  2019-5-7 12:18:20 
[00]  01(G02)  f 43  7  0  -1646.5  2046002.1 -0.1  2 0 1864 2843 1276
[01]  03(G04)  f 41  7  0  -2002.1  2046002.5 -0.1  2 0 1331 2297  716
[02]  04(G05)  f 44  7  0  -3423.6  2046004.3 -0.0  2 0 2307 3320 1230
[03]  05(G06)  f 44 13  0     14.9  2045999.9 -0.0  2 0 2079 3636 2019
[04]  08(G09)  f 39  7  0   -942.6  2046001.1  0.0  2 0  726 1109  805
[05]  11(G12)  f 44  7  0  -1406.2  2046001.8  0.0  2 0 2455 4131 2009
[06]  16(G17)  f 44  7  0   1030.6  2045998.6  0.0  2 0 2627 3841 2235
[08]  18(G19)  f 43  7  0    575.0  2045999.2 -0.0  2 0 2429 3319 1553
[09]  24(G25)  f 42  7  0  -3168.6  2046004.0  0.0  2 0 1627 2282 1126
[16]  37(B01) 1f 41 10  0  -1070.9  4092002.7  0.2  2 0  531  754  414
[17]  38(B02) 1f 39 21  0  -1129.7  4092002.8  0.5  2 0 1183 1777 1120
[19]  40(B04) 1f 41 20  0  -1088.3  4092002.7 -0.3  2 0  835 1494  965
[20]  41(B05) 1f 37 22  0  -1108.5  4092002.7 -0.8  2 0  819  896  501
[21]  42(B06)  7 40  7  0  -2711.9  4092007.0 -0.0  2 0 1203 1353  573
[22]  44(B08)  7 42  7  0  -1168.2  4092002.9 -0.1  2 0 1850 2087  821
[24]  46(B10)  7 39  7  0    599.2  4091998.3 -0.1  2 0 1049 1520  917
[25]  47(B11)  7 41  7  0  -3580.8  4092009.3  0.0  2 0 1025 1261  548
[26]  48(B12)  7 42  7  0  -1128.7  4092002.8 -0.0  2 0 1136 1841  772
[27]  49(B13)  7 43  7  0  -1181.7  4092002.9  0.0  2 0 1828 2507  938
[28]  50(B14)  7 41  7  0  -4318.5  4092011.2 -0.1  2 0  846  944  234
[29]  52(B16)  7 40  7  0  -2849.4  4092007.3 -0.1  2 0 1176 1889  699
[30]  57(B21)  7 45  7  0  -2713.5  4092007.0  0.1  2 0 2932 4485 2383
[32]  75(N-6)  7 46  7  0    929.7  1021999.4 -0.1  2 0  1327 2154  840
[33]  76(N-5)  7 33  7  0   2945.9  1021998.0 -0.0  5 0   293  464   61
[34]  78(N-3)  7 48 11  0  -1299.5  1022000.8  0.0  2 0  1551 3088 1632
[35]  79(N-2)  7 42 15  0  -3275.7  1022002.1  0.1  2 0   203  718  556
[36]  80(N-1)  7 47 11  0  -2709.1  1022001.7 -0.1  2 0  1402 2511 1202
[37]  84(N03)  1 28 11  0    934.7  1021999.4  1.0  1 0   653 1652  826
[38]  85(N04)  7 45  7  0  -5534.4  1022003.5  0.3  2 0  1267 2047  944
[48]  37(B01)  7 36 19  0  -2113.5 20460033.8 -0.0  2 0   74  430  778
[49]  38(B02)  7 18 36  1  -1774.9 20460028.0  0.0  2 0  454  803  773
[52]  41(B05)  1 22 18  0  -1064.7 20460016.4 -0.1  1 0  671  120  403
---00000010--- Acq_st=3 0  2019-5-7 12:18:20 
[00]  01(G02)  f 43  7  0  -1656.1  2046002.1 -0.0  2 0 1640 2780 1667
[01]  03(G04)  f 41  9  0  -2012.2  2046002.5 -0.0  2 0 1434 2618 1653
[02]  04(G05)  f 44  7  0  -3431.7  2046004.4 -0.1  2 0 2892 4022 1421
[03]  05(G06)  f 44  9  0      4.3  2045999.9 -0.0  2 0 2510 3746 1864
[04]  08(G09)  f 39  7  0   -949.1  2046001.2 -0.1  2 0 1383 1761 1040
[05]  11(G12)  f 44  7  0  -1416.1  2046001.8 -0.0  2 0 2663 3913 1597
[06]  16(G17)  f 44  8  0   1020.5  2045998.6  0.0  2 0 2245 3149 1455
[08]  18(G19)  f 43  7  0    568.3  2045999.2 -0.1  2 0 1863 3227 1863
[09]  24(G25)  f 42  7  0  -3180.7  2046004.1 -0.0  2 0 1725 2506 1480
[16]  37(B01) 1f 42 17  0  -1077.5  4092002.8 -0.4  2 0 1375 1466  686
[17]  38(B02) 1f 39 25  0  -1139.1  4092002.9  0.7  2 0 1087 1695  913
[18]  39(B03)  9 41 31  0  -1090.9  4092004.5  1.0  1 0  702 2042 2144
[19]  40(B04) 1f 40 22  0  -1095.0  4092002.7  0.4  2 0 1556 1841  729
[20]  41(B05) 1f 38 24  0  -1116.8  4092002.9  0.4  2 0  502  796  692
[21]  42(B06)  7 40  7  0  -2725.3  4092007.0  0.1  2 0 1139 1399  432
[22]  44(B08)  7 42  7  0  -1181.9  4092003.0 -0.0  2 0 2114 2042  602
[24]  46(B10)  7 39 10  0    591.6  4091998.3  0.0  2 0 1004 1819  997
[25]  47(B11)  7 41  7  0  -3593.4  4092009.3  0.0  2 0 1368 2273 1136
[26]  48(B12)  7 42  7  0  -1135.4  4092002.9 -0.0  2 0 1340 2087  836
[27]  49(B13)  7 42  7  0  -1191.4  4092003.0  0.0  2 0 1616 1813  241
[28]  50(B14)  7 40  9  0  -4329.7  4092011.2  0.0  2 0 1352 1456  642
[29]  52(B16)  7 40  7  0  -2858.3  4092007.3 -0.1  2 0 1013 1457  221
[30]  57(B21)  7 44  7  0  -2721.6  4092007.0  0.0  2 0 3257 4203 1626
[32]  75(N-6)  7 46 15  0    920.9  1021999.4  0.0  2 0  1349 2193  794
[33]  76(N-5)  7 33  7  0   2938.1  1021998.1 -0.1  5 0   167   78  245
[34]  78(N-3)  7 47  7  0  -1308.2  1022000.8  0.0  2 0  1333 2280 1201
[35]  79(N-2)  7 42 11  0  -3285.7  1022002.1 -0.0  2 0   713  967  623
[36]  80(N-1)  7 47 15  0  -2718.9  1022001.7 -0.0  2 0  1416 2306  948
[37]  84(N03)  f 22  7  0    930.2  1021999.4  0.5 10 0   804 1268  498
[38]  85(N04)  7 44  7  0  -5542.9  1022003.5 -0.1  2 0   996 1637  856
[49]  38(B02)  7 10 22  0  -2252.8 20460036.0  0.0  2 0  244  338  129
[51]  40(B04)  1 36 21  0   -990.1 20460015.6  0.0  1 0  337  389  274
[52]  41(B05)  1 26 23  0   -423.9 20460020.5 -0.0  1 0  541  968  755
t1:10475.894161,t2:10475.894161
dt:0.000000
$ini_pos,lastpos_good = 1,ini_pos.x:-1578913.910103,ini_pos.y:5312767.882543,ini_pos.z:3146353.542537
$rtc_local_time,localRTC.weeks:2052,localRTC.seconds:217118.475894,localGtime.weeks:2052,localGtime.seconds:217119.000000
$pseudo_cd_ph,prn:2,pseudo_cd_ph:217118927.539148
$meas,msRange:72.254474,x:2300149.193040,y:16732139.365169,z:21139806.318546,vx:-2418.809814,vy:-795.920898,vz:904.405396
$pseudo_cd_ph,prn:5,pseudo_cd_ph:217118929.129652
$meas,msRange:70.872187,x:1970945.858145,y:26249289.539276,z:2444371.032881,vx:-378.280121,vy:-276.438019,vz:3142.653320
$pseudo_cd_ph,prn:6,pseudo_cd_ph:217118928.381338
$meas,msRange:71.831497,x:-11854177.198050,y:10627376.727162,z:21309801.338420,vx:-2450.001465,vy:-1113.175781,vz:-805.942871
$pseudo_cd_ph,prn:9,pseudo_cd_ph:217118923.044207
$meas,msRange:77.372479,x:-22252576.190952,y:4801667.290383,z:13652520.276914,vx:1237.736572,vy:-1248.589966,vz:2448.113281
$pseudo_cd_ph,prn:12,pseudo_cd_ph:217118927.471107
$meas,msRange:72.774441,x:10352516.823966,y:19958613.320315,z:14061055.583191,vx:-70.244781,vy:1816.983643,vz:-2472.330322
$pseudo_cd_ph,prn:17,pseudo_cd_ph:217118925.008168
$meas,msRange:75.043814,x:-21648560.140479,y:15285102.313229,z:1170633.013491,vx:-200.676010,vy:-123.083084,vz:-3228.137939
$pseudo_cd_ph,prn:19,pseudo_cd_ph:217118928.825583
$meas,msRange:70.853529,x:-18447183.869398,y:17270188.353591,z:8012295.730478,vx:-1007.163025,vy:370.205963,vz:-2996.250488
$pseudo_cd_ph,prn:25,pseudo_cd_ph:217118919.082066
$meas,msRange:80.164978,x:14950721.272190,y:7617330.028494,z:20439047.029984,vx:216.557632,vy:2626.235596,vz:-1100.776611
Refix G02: 2, 217118.927539, -1655
Refix G05: 2, 217118.929130, -3430
Refix G06: 2, 217118.928381, 5
Refix G09: 2, 217118.923044, -945
Refix G12: 2, 217118.927471, -1413
Refix G17: 2, 217118.925008, 1023
Refix G19: 2, 217118.928826, 570
Refix G25: 2, 217118.919082, -3176
$GNGGA,121821.000,2944.9065,N,10633.0940,E,1,11,1.1,320.4,M,,,,0000*16
$GNRMC,121821.000,A,2944.9065,N,10633.0940,E,0.23,0.00,070519,,*14
$GPGSA,A,3,02,05,06,09,12,17,19,25,,,,,1.5,1.1,1.1*34
$BDGSA,A,3,01,02,04,,,,,,,,,,1.5,1.1,1.1*20
$GLGSA,A,3,,,,,,,,,,,,,1.5,1.1,1.1*2A
$GPGSV,3,1,09,02,00,000,43,04,00,000,41,05,00,000,44,06,00,000,44*75
$GPGSV,3,2,09,09,00,000,39,12,00,000,44,17,00,000,44,19,00,000,43*78
$GPGSV,3,3,09,25,00,000,42*41
$BDGSV,3,1,12,01,00,000,42,02,00,000,39,04,00,000,40,05,00,000,38*68
$BDGSV,3,2,12,06,00,000,40,08,00,000,42,10,00,000,39,11,00,000,41*68
$BDGSV,3,3,12,12,00,000,42,13,00,000,42,14,00,000,40,16,00,000,40*68
$B3CN0,0,0,0,0,0,0,0,0,0,0,0,0,0,0*4C
---00000011--- Acq_st=3 0  2019-5-7 12:18:21 
[00]  01(G02)  f 44  8  0  -1647.0  2046002.1 -0.0  2 0 1512 2343  912
[01]  03(G04)  f 41 11  0  -2000.2  2046002.5  0.1  2 0 1408 1916  780
[02]  04(G05)  f 45  7  0  -3426.0  2046004.4  0.0  2 0 2521 3547 1864
[03]  05(G06)  f 44 12  0      9.5  2045999.9 -0.0  2 0 2310 3357 1477
[04]  08(G09)  f 39  7  0   -941.3  2046001.2  0.1  2 0  680 1082  255
[05]  11(G12)  f 46  7  0  -1407.6  2046001.8  0.0  2 0 2289 3949 1730
[06]  16(G17)  f 45 13  0   1026.4  2045998.6  0.0  2 0 2258 3127 1668
[08]  18(G19)  f 43  7  0    575.0  2045999.2  0.0  2 0 2100 3145 1748
[09]  24(G25)  f 42  9  0  -3173.5  2046004.1  0.0  2 0 1794 2421 1030
[16]  37(B01) 1f 41 36  0  -1070.3  4092002.8 -0.4  2 0 1178 1380  530
[17]  38(B02) 1f 39 22  0  -1132.0  4092002.8  0.2  2 0 1428 1643  735
[18]  39(B03) 1f 43 32  0  -1084.1  4092002.7  0.4  2 0 2017 2306  905
[19]  40(B04) 1f 39 19  0  -1090.9  4092002.8 -0.3  2 0 1445 1812  999
[20]  41(B05) 1f 37 23  0  -1110.1  4092002.8  0.8  2 0 1067 1310  729
[21]  42(B06) 1f 40  7  0  -2716.7  4092007.0  0.0  2 0  932 1500  784
[22]  44(B08) 1f 42  7  0  -1173.3  4092002.9 -0.0  2 0 1384 1698  602
[24]  46(B10) 1f 40 10  0    593.7  4091998.3  0.0  2 0 1127  944  117
[25]  47(B11) 1f 41  7  0  -3584.4  4092009.3  0.1  2 0 1925 2512 1192
[26]  48(B12) 1f 42  7  0  -1132.1  4092002.9 -0.0  2 0 2139 2761  972
[27]  49(B13) 1f 42  7  0  -1180.8  4092003.0  0.1  2 0 1804 2394  711
[28]  50(B14) 1f 40 10  0  -4328.2  4092011.2 -0.1  2 0 1501 1689  565
[29]  52(B16) 1f 40  7  0  -2847.6  4092007.3 -0.0  2 0 1422 1911  763
[30]  57(B21) 1f 45  7  0  -2715.6  4092007.0 -0.0  2 0 3407 4079 1659
[32]  75(N-6)  7 46 13  0    929.0  1021999.4 -0.1  2 0  1184 2129 1219
[33]  76(N-5)  7 32  7  0   2944.3  1021997.9 -0.0  5 0   374  254  136
[34]  78(N-3)  7 48  7  0  -1301.0  1022000.8 -0.1  2 0  1423 2690 1192
[35]  79(N-2)  7 42 14  0  -3278.2  1022002.1 -0.1  2 0   579 1280  592
[36]  80(N-1)  7 47  9  0  -2709.8  1022001.7 -0.1  2 0  1157 2090 1051
[37]  84(N03)  f 31  7  0    933.9  1021999.5  0.1  5 0   813 1618  970
[38]  85(N04)  7 45  7  0  -5536.3  1022003.5 -0.2  2 0  1130 1913 1115
[48]  37(B01)  1 19 10  0   -944.7 20460014.5  0.0  1 0  402  471  312
[49]  38(B02)  7 16 13  0  -2435.6 20460036.7  0.0  2 0  388  279  425
[51]  40(B04)  1 21 23  1   -547.2 20460016.5 -0.0  1 0  460  247  564
[52]  41(B05)  1 22 26  1   -826.3 20460024.6 -0.2  1 0  410  188  237
t1:11475.894129,t2:11475.894129
dt:0.000000
$ini_pos,lastpos_good = 1,ini_pos.x:-1578915.664109,ini_pos.y:5312766.985742,ini_pos.z:3146352.797917
$rtc_local_time,localRTC.weeks:2052,localRTC.seconds:217119.475894,localGtime.weeks:2052,localGtime.seconds:217120.000000
$pseudo_cd_ph,prn:2,pseudo_cd_ph:217119927.540164
$meas,msRange:72.254140,x:2297730.308321,y:16731343.496847,z:21140710.511223,vx:-2418.959717,vy:-795.815796,vz:903.980042
$pseudo_cd_ph,prn:5,pseudo_cd_ph:217119929.131794
$meas,msRange:70.870725,x:1970567.541854,y:26249012.915472,z:2447513.659754,vx:-378.352509,vy:-276.809601,vz:3142.600586
$pseudo_cd_ph,prn:6,pseudo_cd_ph:217119928.381299
$meas,msRange:71.832212,x:-11856627.186501,y:10626263.645763,z:21308995.169962,vx:-2449.975586,vy:-1112.987061,vz:-806.394104
$pseudo_cd_ph,prn:9,pseudo_cd_ph:217119923.044776
$meas,msRange:77.372585,x:-22251338.367487,y:4800418.571816,z:13654968.244630,vx:1237.910400,vy:-1248.847290,vz:2447.822266
$pseudo_cd_ph,prn:12,pseudo_cd_ph:217119927.471971
$meas,msRange:72.774263,x:10352446.628568,y:19960430.148785,z:14058583.102659,vx:-70.146027,vy:1816.673462,vz:-2472.630859
$pseudo_cd_ph,prn:17,pseudo_cd_ph:217119925.007485
$meas,msRange:75.045171,x:-21648760.651850,y:15284979.122192,z:1167404.863246,vx:-200.346756,vy:-123.299004,vz:-3228.162842
$pseudo_cd_ph,prn:19,pseudo_cd_ph:217119928.825187
$meas,msRange:70.854600,x:-18448190.857098,y:17270558.494136,z:8009299.394305,vx:-1006.812439,vy:370.075134,vz:-2996.421875
$pseudo_cd_ph,prn:25,pseudo_cd_ph:217119919.084046
$meas,msRange:80.163679,x:14950937.899978,y:7619956.186276,z:20437946.033092,vx:216.697952,vy:2626.080322,vz:-1101.217163
Refix G02: 2, 217119.927540, -1648
Refix G05: 2, 217119.929132, -3424
Refix G06: 2, 217119.928381, 12
Refix G09: 2, 217119.923045, -940
Refix G12: 2, 217119.927472, -1406
Refix G17: 2, 217119.925007, 1028
Refix G19: 2, 217119.928825, 576
Refix G25: 2, 217119.919084, -3171
$GNGGA,121822.000,2944.9068,N,10633.0939,E,1,21,0.6,322.8,M,,,,0000*1D
$GNRMC,121822.000,A,2944.9068,N,10633.0939,E,0.24,0.00,070519,,*13
$GPGSA,A,3,02,05,06,09,12,17,19,25,,,,,0.8,0.6,0.4*3A
$BDGSA,A,3,01,02,03,04,06,08,10,11,12,13,14,16,0.8,0.6,0.4*21
$GLGSA,A,3,,,,,,,,,,,,,0.8,0.6,0.4*24
$GPGSV,3,1,09,02,53,327,44,04,00,000,41,05,49,223,45,06,47,035,44*78
$GPGSV,3,2,09,09,25,072,39,12,42,284,46,17,33,119,45,19,51,106,43*7B
$GPGSV,3,3,09,25,15,314,42*43
$BDGSV,3,1,12,01,39,127,41,02,48,221,39,03,55,171,45,04,23,110,39*6C
$BDGSV,3,2,12,05,00,000,37,06,35,152,40,08,53,025,42,10,32,204,40*64
$BDGSV,3,3,12,11,16,311,41,12,64,056,42,13,55,334,42,14,17,206,40*6D
$B3CN0,0,0,0,0,0,0,0,0,0,0,0,0,0,0*4C
---00000012--- Acq_st=3 0  2019-5-7 12:18:22 
[00]  01(G02)  f 44  7  0  -1648.4  2046002.1 -0.1  2 0 1738 3033 1574
[01]  03(G04)  f 41  9  0  -2001.3  2046002.6 -0.0  2 0 1224 1934  939
[02]  04(G05)  f 45  7  0  -3424.4  2046004.4  0.0  2 0 2615 3905 2080
[03]  05(G06)  f 44 13  0     10.7  2045999.9  0.0  2 0 2024 3657 1562
[04]  08(G09)  f 39  7  0   -944.0  2046001.1  0.0  2 0  986  887  516
[05]  11(G12)  f 46  7  0  -1407.8  2046001.8  0.0  2 0 3286 4369 1241
[06]  16(G17)  f 45  7  0   1028.5  2045998.6  0.0  2 0 2806 3529 1798
[08]  18(G19)  f 44  7  0    574.9  2045999.2 -0.1  2 0 1455 2565 1373
[09]  24(G25)  f 42  7  0  -3171.5  2046004.0  0.0  2 0 1580 2189  912
[16]  37(B01) 1f 42 17  0  -1070.7  4092002.8  0.2  2 0 1498 1665  363
[17]  38(B02) 1f 40 26  0  -1132.2  4092002.8  0.8  2 0 1510 1572  502
[18]  39(B03) 1f 42 30  0  -1078.4  4092002.8 -0.2  2 0 1433 2412 1400
[19]  40(B04) 1f 41 20  0  -1088.1  4092002.7 -0.4  2 0 1005 1209  326
[20]  41(B05) 1f 38 26  0  -1113.2  4092002.9  0.2  2 0  976 1215  195
[21]  42(B06) 1f 40  7  0  -2717.9  4092007.0 -0.1  2 0 1231 1572  650
[22]  44(B08) 1f 42  7  0  -1172.5  4092003.0  0.0  2 0 1356 2071  895
[24]  46(B10) 1f 40 11  0    599.8  4091998.3 -0.0  2 0  948 1224  376
[25]  47(B11) 1f 41  7  0  -3582.8  4092009.3 -0.0  2 0  912 1816  779
[26]  48(B12) 1f 42  7  0  -1129.3  4092002.8 -0.0  2 0 2135 2441  690
[27]  49(B13) 1f 42  7  0  -1184.4  4092003.0 -0.0  2 0 1629 2361 1285
[28]  50(B14) 1f 40  7  0  -4322.9  4092011.2 -0.0  2 0 1050 1235  493
[29]  52(B16) 1f 40  7  0  -2848.6  4092007.4  0.1  2 0 1335 1686  593
[30]  57(B21) 1f 45  7  0  -2714.3  4092007.0  0.0  2 0 3328 4093 1517
[32]  75(N-6)  f 33  7  0    926.9  1021999.4  0.1  5 0  1209 1981 1020
[33]  76(N-5)  f 29  7  0   2943.6  1021998.0  0.0  5 0   214  357  278
[34]  78(N-3)  f 33  7  0  -1303.4  1022000.8  0.0  5 0  1323 2493 1195
[35]  79(N-2)  f 33  7  0  -3279.5  1022002.1  0.2  5 0   545 1052  616
[36]  80(N-1)  f 33  7  0  -2712.0  1022001.7  0.0  5 0  1681 2759 1304
[37]  84(N03)  f 29  7  0    933.2  1021999.4 -0.2  5 0  1036 1565  935
[38]  85(N04)  f 33  7  0  -5537.9  1022003.5  0.0  5 0  1366 2231 1056
[48]  37(B01)  1 18 10  1   -805.5 20460016.4  0.1  1 0  474  142  316
[49]  38(B02)  7 10 13  1  -2599.8 20460043.5  0.2  2 0  323  448   51
[50]  39(B03)  1 24 19  0   -880.0 20460012.9  0.1  1 0  489   48  250
[51]  40(B04)  1 17 22  1   -535.1 20460021.2 -0.0  1 0 1016  844  794
[52]  41(B05)  1 21 24  1   -731.3 20460023.6  0.0  1 0  127  223  263
[53]  42(B06)  1  7  7  0  -2206.0 20460042.6 -0.0  1 0  228  524  367
[54]  44(B08)  1  7  7  0   -952.0 20460018.3  0.0  1 0  339  243  344
[56]  46(B10)  1  7  7  0    483.0 20459990.1 -0.1  1 0  377  266  708
[57]  47(B11)  1  7  7  0  -2911.0 20460057.3  0.0  1 0  374  268  593
[58]  48(B12)  1  7  7  0   -919.0 20460018.1 -0.1  1 0  378  630  828
[59]  49(B13)  1  7  7  0   -958.0 20460020.1  0.1  1 0  587  452  134
[60]  50(B14)  1  7  7  0  -3515.0 20460069.5 -0.1  1 0  582  646  316
[61]  52(B16)  1  7  7  0  -2312.0 20460046.9 -0.1  1 0  840  797  633
[62]  57(B21)  1  7  7  0  -2205.0 20460041.4  0.0  1 0  427   51  311
t1:12475.894097,t2:12475.894097
dt:0.000000
$ini_pos,lastpos_good = 1,ini_pos.x:-1578916.108662,ini_pos.y:5312768.837409,ini_pos.z:3146354.504287
$rtc_local_time,localRTC.weeks:2052,localRTC.seconds:217120.475894,localGtime.weeks:2052,localGtime.seconds:217121.000000
$pseudo_cd_ph,prn:2,pseudo_cd_ph:217120927.541180
$meas,msRange:72.253794,x:2295311.273538,y:16730547.733697,z:21141614.278540,vx:-2419.109863,vy:-795.710571,vz:903.554688
$pseudo_cd_ph,prn:5,pseudo_cd_ph:217120929.133937
$meas,msRange:70.869254,x:1970189.153157,y:26248735.920079,z:2450656.233811,vx:-378.424927,vy:-277.181183,vz:3142.547607
$pseudo_cd_ph,prn:6,pseudo_cd_ph:217120928.381260
$meas,msRange:71.832921,x:-11859077.149272,y:10625150.753182,z:21308188.550230,vx:-2449.949951,vy:-1112.798218,vz:-806.845398
$pseudo_cd_ph,prn:9,pseudo_cd_ph:217120923.045341
$meas,msRange:77.372693,x:-22250100.370299,y:4799169.595937,z:13657415.921299,vx:1238.084106,vy:-1249.104614,vz:2447.531250
$pseudo_cd_ph,prn:12,pseudo_cd_ph:217120927.472834
$meas,msRange:72.774072,x:10352376.531907,y:19962246.667007,z:14056110.321595,vx:-70.047310,vy:1816.363159,vz:-2472.931396
$pseudo_cd_ph,prn:17,pseudo_cd_ph:217120925.006803
$meas,msRange:75.046528,x:-21648960.833979,y:15284855.715213,z:1164176.688063,vx:-200.017517,vy:-123.514969,vz:-3228.187744
$pseudo_cd_ph,prn:19,pseudo_cd_ph:217120928.824792
$meas,msRange:70.855668,x:-18449197.494189,y:17270928.503812,z:8006302.886723,vx:-1006.461792,vy:369.944244,vz:-2996.593262
$pseudo_cd_ph,prn:25,pseudo_cd_ph:217120919.086027
$meas,msRange:80.162371,x:14951154.668066,y:7622582.188760,z:20436844.595670,vx:216.838242,vy:2625.924805,vz:-1101.657715
Refix G02: 2, 217120.927541, -1647
Refix G05: 2, 217120.929134, -3423
Refix G06: 2, 217120.928381, 12
Refix G09: 2, 217120.923045, -940
Refix G12: 2, 217120.927473, -1405
Refix G17: 2, 217120.925007, 1028
Refix G19: 2, 217120.928825, 576
Refix G25: 2, 217120.919086, -3170
$GNGGA,121823.000,2944.9069,N,10633.0940,E,1,21,0.6,323.7,M,,,,0000*1D
$GNRMC,121823.000,A,2944.9069,N,10633.0940,E,0.22,0.00,070519,,*1B
$GPGSA,A,3,02,05,06,09,12,17,19,25,,,,,0.8,0.6,0.4*3A
$BDGSA,A,3,01,02,03,04,06,08,10,11,12,13,14,16,0.8,0.6,0.4*21
$GLGSA,A,3,,,,,,,,,,,,,0.8,0.6,0.4*24
$GPGSV,3,1,09,02,53,327,44,04,00,000,41,05,49,223,45,06,47,035,44*78
$GPGSV,3,2,09,09,25,072,39,12,42,284,46,17,33,119,45,19,51,106,44*7C
$GPGSV,3,3,09,25,15,314,42*43
$BDGSV,3,1,12,01,39,127,42,02,48,221,40,03,55,171,42,04,23,110,41*69
$BDGSV,3,2,12,05,00,000,38,06,35,152,40,08,53,025,42,10,32,204,40*6B
$BDGSV,3,3,12,11,16,311,41,12,64,056,42,13,55,334,42,14,17,206,40*6D
$B3CN0,0,0,0,0,0,0,0,0,0,0,0,0,0,0*4C
---00000013--- Acq_st=7 0  2019-5-7 12:18:23 
[00]  01(G02)  f 44  7  0  -1653.9  2046002.1  0.1  2 0 2048 3185 1622
[01]  03(G04)  f 42  9  0  -2008.9  2046002.5  0.1  2 0 1465 2296 1287
[02]  04(G05)  f 45  7  0  -3429.2  2046004.4 -0.0  2 0 2213 3692 2005
[03]  05(G06)  f 45 10  0      4.5  2045999.9 -0.0  2 0 1469 3110 1964
[04]  08(G09)  f 38  7  0   -946.9  2046001.1 -0.2  2 0  490  839  507
[05]  11(G12)  f 45  7  0  -1413.4  2046001.8 -0.0  2 0 2753 4495 1982
[06]  16(G17)  f 45  9  0   1020.7  2045998.6  0.0  2 0 2853 3477 1143
[08]  18(G19)  f 44  9  0    571.3  2045999.2  0.0  2 0 1640 2801 1113
[09]  24(G25)  f 43  7  0  -3180.1  2046004.1 -0.0  2 0 1246 2749 1132
[16]  37(B01) 1f 41 10  0  -1079.6  4092002.8 -0.3  2 0  931 1572  906
[17]  38(B02) 1f 39 23  0  -1136.2  4092002.9 -0.8  2 0 1100 1608  665
[18]  39(B03) 1f 45 32  0  -1087.6  4092002.8  0.0  2 0 1279 1521  541
[19]  40(B04) 1f 41 25  0  -1098.3  4092002.8  0.3  2 0 1350 1968 1116
[20]  41(B05) 1f 37 22  0  -1115.4  4092002.7 -0.3  2 0 1277 1091  464
[21]  42(B06) 1f 40  7  0  -2723.0  4092007.0  0.1  2 0 1096 1444  881
[22]  44(B08) 1f 42  7  0  -1177.8  4092003.0  0.0  2 0 1909 2342 1027
[24]  46(B10) 1f 39  8  0    591.2  4091998.3 -0.0  2 0 1246 1346  783
[25]  47(B11) 1f 41  7  0  -3590.5  4092009.3 -0.1  2 0 1672 1682  631
[26]  48(B12) 1f 42  7  0  -1131.5  4092002.8 -0.0  2 0 1558 1465  313
[27]  49(B13) 1f 42  7  0  -1190.6  4092003.0  0.0  2 0 1896 1963  880
[28]  50(B14) 1f 40  7  0  -4328.5  4092011.2  0.0  2 0 1426 1665  976
[29]  52(B16) 1f 40  7  0  -2859.2  4092007.4  0.1  2 0 1043 1593  710
[30]  57(B21) 1f 46  7  0  -2720.4  4092007.0 -0.0  2 0 2970 4345 2158
[32]  75(N-6)  f 45  7  0    923.7  1021999.4 -0.2  2 0  1183 1747  656
[33]  76(N-5)  f 32  7  0   2941.3  1021998.1  0.0  5 0   432  261  119
[34]  78(N-3)  f 46  7  0  -1307.4  1022000.8  0.0  2 0  1223 2501 1246
[35]  79(N-2)  f 41  7  0  -3285.1  1022002.1 -0.0  2 0   621 1116  475
[36]  80(N-1)  f 45  7  0  -2715.3  1022001.7 -0.0  2 0  1597 2505  980
[37]  84(N03)  f 31  7  0    928.1  1021999.4 -0.0  5 0   850 1464 1019
[38]  85(N04)  f 44  7  0  -5542.1  1022003.5 -0.1  2 0  1112 1817  595
[48]  37(B01)  1 10 10  0   -582.4 20460020.1  0.1  1 0  532  392  770
[49]  38(B02)  7 10 10  0  -2583.7 20460043.4 -0.1  2 0  489  275  201
[50]  39(B03)  1 19 20  1  -1005.3 20460019.4  0.0  1 0  865  470  533
[51]  40(B04)  1 24 20  1   -412.9 20460020.9  0.2  1 0  243   35  395
[53]  42(B06)  1  7  7  0  -2554.1 20460042.8 -0.1  1 0  507  579  197
[54]  44(B08)  1  7  7  0   -575.4 20460019.0  0.1  1 0  468  245  301
[56]  46(B10)  1  7  7  0    -79.5 20459990.2  0.1  1 0   99  292  422
[57]  47(B11)  1  7  7  0  -3859.2 20460057.0  0.1  1 0  306  212  612
[58]  48(B12)  1  7  7  0   -580.2 20460017.3 -0.0  1 0  570  436  401
[59]  49(B13)  1  7  8  0   -774.7 20460019.6 -0.0  1 0  678  660  288
[60]  50(B14)  1  7  7  0  -3502.7 20460069.4  0.1  1 0  216  416  815
[61]  52(B16)  1  7  8  0  -2216.8 20460044.6  0.0  1 0  510  206  257
[62]  57(B21)  1  7  7  0  -2198.1 20460043.5 -0.1  1 0  330  375  229
t1:13475.894065,t2:13475.894065
dt:0.000000
$ini_pos,lastpos_good = 1,ini_pos.x:-1578916.480326,ini_pos.y:5312769.433635,ini_pos.z:3146355.124293
$rtc_local_time,localRTC.weeks:2052,localRTC.seconds:217121.475894,localGtime.weeks:2052,localGtime.seconds:217122.000000
$pseudo_cd_ph,prn:2,pseudo_cd_ph:217121927.542199
$meas,msRange:72.253453,x:2292892.088741,y:16729752.075755,z:21142517.620477,vx:-2419.259766,vy:-795.605347,vz:903.129272
$pseudo_cd_ph,prn:5,pseudo_cd_ph:217121929.136084
$meas,msRange:70.867787,x:1969810.692007,y:26248458.553111,z:2453798.754984,vx:-378.497406,vy:-277.552765,vz:3142.494873
$pseudo_cd_ph,prn:6,pseudo_cd_ph:217121928.381226
$meas,msRange:71.833634,x:-11861527.086298,y:10624038.049433,z:21307381.479241,vx:-2449.924316,vy:-1112.609375,vz:-807.296631
$pseudo_cd_ph,prn:9,pseudo_cd_ph:217121923.045911
$meas,msRange:77.372802,x:-22248862.199443,y:4797920.362738,z:13659863.306866,vx:1238.257690,vy:-1249.361938,vz:2447.239990
$pseudo_cd_ph,prn:12,pseudo_cd_ph:217121927.473699
$meas,msRange:72.773886,x:10352306.533940,y:19964062.874937,z:14053637.240052,vx:-69.948639,vy:1816.052856,vz:-2473.231934
$pseudo_cd_ph,prn:17,pseudo_cd_ph:217121925.006124
$meas,msRange:75.047888,x:-21649160.686893,y:15284732.092244,z:1160948.488011,vx:-199.688324,vy:-123.730980,vz:-3228.212646
$pseudo_cd_ph,prn:19,pseudo_cd_ph:217121928.824398
$meas,msRange:70.856739,x:-18450203.780676,y:17271298.382564,z:8003306.207799,vx:-1006.111206,vy:369.813293,vz:-2996.764648
$pseudo_cd_ph,prn:25,pseudo_cd_ph:217121919.088011
$meas,msRange:80.161066,x:14951371.576429,y:7625208.035885,z:20435742.717741,vx:216.978500,vy:2625.769531,vz:-1102.098267
Refix G02: 2, 217121.927542, -1654
Refix G05: 2, 217121.929136, -3429
Refix G06: 2, 217121.928381, 6
Refix G09: 2, 217121.923046, -944
Refix G12: 2, 217121.927474, -1411
Refix G17: 2, 217121.925006, 1023
Refix G19: 2, 217121.928824, 570
Refix G25: 2, 217121.919088, -3175
$GNGGA,121824.000,2944.9070,N,10633.0940,E,1,21,0.6,324.2,M,,,,0000*10
$GNRMC,121824.000,A,2944.9070,N,10633.0940,E,0.16,0.00,070519,,*13
$GPGSA,A,3,02,05,06,09,12,17,19,25,,,,,0.8,0.6,0.4*3A
$BDGSA,A,3,01,02,03,04,06,08,10,11,12,13,14,16,0.8,0.6,0.4*21
$GLGSA,A,3,,,,,,,,,,,,,0.8,0.6,0.4*24
$GPGSV,3,1,09,02,53,327,44,04,00,000,42,05,49,223,45,06,47,035,45*7A
$GPGSV,3,2,09,09,25,072,38,12,42,284,45,17,33,119,45,19,51,106,44*7E
$GPGSV,3,3,09,25,15,314,43*42
$BDGSV,3,1,12,01,39,127,41,02,48,221,38,03,55,171,45,04,23,110,41*62
$BDGSV,3,2,12,05,00,000,37,06,35,152,40,08,53,025,42,10,32,204,39*6A
$BDGSV,3,3,12,11,16,311,41,12,64,056,42,13,55,334,42,14,17,206,40*6D
$B3CN0,0,0,0,0,0,0,0,0,0,0,0,0,0,0*4C
---00000014--- Acq_st=3 0  2019-5-7 12:18:25 
[00]  01(G02)  f 44  7  0  -1665.1  2046002.1 -0.1  2 0 1472 2739  892
[01]  03(G04)  f 41  7  0  -2015.8  2046002.5 -0.0  2 0  801 1790 1293
[02]  04(G05)  f 45  7  0  -3436.2  2046004.4 -0.1  2 0 2642 3715 2066
[03]  05(G06)  f 44  8  0      0.7  2046000.0 -0.0  2 0 1829 3482 2048
[04]  08(G09)  f 38  7  0   -954.7  2046001.1  0.1  2 0  369 1049 1005
[05]  11(G12)  f 46  7  0  -1417.9  2046001.8  0.0  2 0 2981 4295 1975
[06]  16(G17)  f 44 14  0   1015.2  2045998.6 -0.0  2 0 3037 3623 1648
[08]  18(G19)  f 43 10  0    564.2  2045999.2  0.0  2 0 1893 3168 1268
[09]  24(G25)  f 43  7  0  -3180.3  2046004.1 -0.0  2 0 1717 2559  989
[16]  37(B01) 1f 41 16  0  -1088.3  4092002.7 -0.2  2 0 1145 1506  920
[17]  38(B02) 1f 40 27  0  -1144.2  4092002.9 -0.6  2 0  962 1361  261
[18]  39(B03) 1f 43 29  0  -1094.9  4092002.7 -0.0  2 0 1647 1986  565
[19]  40(B04) 1f 39 22  0  -1106.7  4092002.7  0.1  2 0 1193 1433  260
[20]  41(B05) 1f 38 26  0  -1123.3  4092002.9 -0.3  2 0  889  962  709
[21]  42(B06) 1f 40  7  0  -2724.9  4092007.0 -0.0  2 0 1225 1772  575
[22]  44(B08) 1f 43  7  0  -1186.4  4092003.0 -0.0  2 0 1449 1714  791
[24]  46(B10) 1f 39 10  0    580.7  4091998.4  0.0  2 0 1285 2033  699
[25]  47(B11) 1f 41  7  0  -3596.6  4092009.3  0.0  2 0 1105 2063 1036
[26]  48(B12) 1f 43  7  0  -1144.8  4092002.9 -0.0  2 0 1335 1959 1138
[27]  49(B13) 1f 43  7  0  -1195.5  4092003.0 -0.0  2 0 1882 2299  924
[28]  50(B14) 1f 40  9  0  -4333.7  4092011.2  0.0  2 0 1210 1726  821
[29]  52(B16) 1f 41  7  0  -2864.3  4092007.4  0.0  2 0 1489 1900  801
[30]  57(B21) 1f 45  7  0  -2726.0  4092007.0  0.0  2 0 3094 4260 1753
[32]  75(N-6)  f 45  7  0    917.6  1021999.4  0.1  2 0   881 1742  818
[33]  76(N-5)  f 32  7  0   2932.7  1021998.0  0.1  5 0   689  821  365
[34]  78(N-3)  f 46  7  0  -1314.1  1022000.8 -0.1  2 0  1559 2811 1344
[35]  79(N-2)  f 41  7  0  -3291.2  1022002.1 -0.0  2 0   950 1472  819
[36]  80(N-1)  f 45  7  0  -2721.7  1022001.7 -0.1  2 0  1178 2323 1309
[37]  84(N03)  f 28  7  0    921.7  1021999.4 -0.0  5 0   719 1483  639
[38]  85(N04)  f 44  7  0  -5549.3  1022003.5  0.0  2 0  1294 1875 1028
[48]  37(B01)  1 18 23  1   -475.5 20460019.8  0.1  1 0  526  428  160
[49]  38(B02)  7 13 10  0  -3089.3 20460047.7 -0.1  2 0 1154  450  296
[50]  39(B03)  1 18 18  0  -1028.4 20460018.8 -0.1  1 0   72  495  585
[51]  40(B04)  1 23 23  1   -645.0 20460024.7 -0.1  1 0  420  791  500
[52]  41(B05)  1 25 23  1   -905.0 20460022.7 -0.1  1 0  297  193  318
[53]  42(B06)  1  7  9  0  -2499.5 20460043.1 -0.0  1 0  570  505  270
[54]  44(B08)  1  7  7  0   -887.9 20460016.9  0.1  1 0  546  900 1143
[56]  46(B10)  1  7  7  0   -298.3 20459991.0 -0.0  1 0  735  650  503
[57]  47(B11)  1 11  7  0  -4068.4 20460059.0  0.1  1 0  699  289  362
[58]  48(B12)  1  7  7  0  -1005.8 20460018.1  0.0  1 0  306  438  857
[59]  49(B13)  1  7  7  0   -631.2 20460021.0 -0.0  1 0  654  604  957
[60]  50(B14)  1  7  7  0  -3546.0 20460068.3 -0.0  1 0  288  240  676
[61]  52(B16)  1  7  7  0  -2526.5 20460044.7  0.1  1 0  223   31  453
[62]  57(B21)  1  7 13  0  -1875.9 20460042.7 -0.1  1 0  440  888  359
t1:14475.894032,t2:14475.894032
dt:0.000000
$ini_pos,lastpos_good = 1,ini_pos.x:-1578916.563416,ini_pos.y:5312769.739311,ini_pos.z:3146355.433975
$rtc_local_time,localRTC.weeks:2052,localRTC.seconds:217122.475894,localGtime.weeks:2052,localGtime.seconds:217123.000000
$pseudo_cd_ph,prn:2,pseudo_cd_ph:217122927.543221
$meas,msRange:72.253113,x:2290472.753983,y:16728956.523054,z:21143420.537018,vx:-2419.409912,vy:-795.500122,vz:902.703857
$pseudo_cd_ph,prn:5,pseudo_cd_ph:217122929.138232
$meas,msRange:70.866322,x:1969432.158356,y:26248180.814584,z:2456941.223206,vx:-378.569916,vy:-277.924316,vz:3142.441895
$pseudo_cd_ph,prn:6,pseudo_cd_ph:217122928.381194
$meas,msRange:71.834348,x:-11863976.997511,y:10622925.534531,z:21306573.957014,vx:-2449.898438,vy:-1112.420532,vz:-807.747864
$pseudo_cd_ph,prn:9,pseudo_cd_ph:217122923.046483
$meas,msRange:77.372914,x:-22247623.854977,y:4796670.872216,z:13662310.401280,vx:1238.431274,vy:-1249.619263,vz:2446.948975
$pseudo_cd_ph,prn:12,pseudo_cd_ph:217122927.474569
$meas,msRange:72.773701,x:10352236.634622,y:19965878.772533,z:14051163.858086,vx:-69.850006,vy:1815.742432,vz:-2473.532227
$pseudo_cd_ph,prn:17,pseudo_cd_ph:217122925.005448
$meas,msRange:75.049249,x:-21649360.210617,y:15284608.253239,z:1157720.263159,vx:-199.359146,vy:-123.947044,vz:-3228.237305
$pseudo_cd_ph,prn:19,pseudo_cd_ph:217122928.824013
$meas,msRange:70.857813,x:-18451209.716564,y:17271668.130336,z:8000309.357596,vx:-1005.760620,vy:369.682281,vz:-2996.936035
$pseudo_cd_ph,prn:25,pseudo_cd_ph:217122919.089998
$meas,msRange:80.159761,x:14951588.625042,y:7627833.727586,z:20434640.399332,vx:217.118729,vy:2625.614014,vz:-1102.538696
Refix G02: 2, 217122.927543, -1658
Refix G05: 2, 217122.929138, -3432
Refix G06: 2, 217122.928381, 2
Refix G09: 2, 217122.923046, -948
Refix G12: 2, 217122.927475, -1414
Refix G17: 2, 217122.925005, 1020
Refix G19: 2, 217122.928824, 567
Refix G25: 2, 217122.919090, -3178
