SD initialized success
Create debug.log Failed! 3
bbram_blkflag = 1
rtcflag = 0
BBRAM Block OK: 01 EPHflag: 0105093a 0014beaf, rtc 00
Hot-start nowtime:day = 7,minute = 20,seconds = 37.00
GPS 0 Init Dop: 10000,80
GPS 1 Init Dop: -1403, 2
GPS 2 Init Dop: 10000,80
GPS 3 Init Dop: -1695, 2
GPS 4 Init Dop: -3122, 2
GPS 5 Init Dop:   261, 2
GPS 6 Init Dop: 10000,80
GPS 7 Init Dop: 10000,80
GPS 8 Init Dop:  -626, 2
GPS 9 Init Dop: 10000,80
GPS10 Init Dop: 10000,80
GPS11 Init Dop: -1079, 2
GPS12 Init Dop: 10000,80
GPS13 Init Dop: 10000,80
GPS14 Init Dop: 10000,80
GPS15 Init Dop: 10000,80
GPS16 Init Dop:  1315, 2
GPS17 Init Dop: 10000,80
GPS18 Init Dop:   870, 2
GPS19 Init Dop: 10000,80
GPS20 Init Dop: 10000,80
GPS21 Init Dop: 10000,80
GPS22 Init Dop: 10000,80
GPS23 Init Dop: 10000,80
GPS24 Init Dop: -2865, 2
GPS25 Init Dop: 10000,80
GPS26 Init Dop: 10000,80
GPS27 Init Dop: 10000,80
GPS28 Init Dop: 10000,80
GPS29 Init Dop: 10000,80
GPS30 Init Dop: 10000,80
GPS31 Init Dop: 10000,80
BDS 0 Init Dop:  -834, 2
BDS 1 Init Dop:  -891, 2
BDS 2 Init Dop:  -843, 2
BDS 3 Init Dop:  -853, 2
BDS 4 Init Dop: 10000,80
BDS 5 Init Dop: -2469, 2
BDS 6 Init Dop: 10000,80
BDS 7 Init Dop:  -948, 2
BDS 8 Init Dop: 10000,80
BDS 9 Init Dop:   840, 2
BDS10 Init Dop: -3356, 2
BDS11 Init Dop:  -850, 2
BDS12 Init Dop:  -958, 2
BDS13 Init Dop: -4065, 2
BDS14 Init Dop: 10000,80
BDS15 Init Dop: -2608, 2
BDS16 Init Dop: 10000,80
BDS17 Init Dop: 10000,80
BDS18 Init Dop:  2246, 2
BDS19 Init Dop: 10000,80
BDS20 Init Dop: -2406, 2
BDS21 Init Dop: 10000,80
BDS22 Init Dop: 10000,80
BDS23 Init Dop: 10000,80
BDS24 Init Dop: 10000,80
BDS25 Init Dop: 10000,80
BDS26 Init Dop: 10000,80
BDS27 Init Dop: 10000,80
BDS28 Init Dop: 10000,80
BDS29 Init Dop: 10000,80
BDS30 Init Dop: 10000,80
BDS31 Init Dop: 10000,80
Good luck!
t1:1025.976710,t2:0.000000
dt:1025.976710
$GNGGA,000000.000,,,,,0,00,,,M,,,,0000*2B
$GNRMC,000000.000,A,,,,,,,060180,,*29
$GPGSA,A,1,,,,,,,,,,,,,,,*1E
$BDGSA,A,1,,,,,,,,,,,,,,,*0F
$GLGSA,A,1,,,,,,,,,,,,,,,*02
$B3CN0,0,0,0,0,0,0,0,0,0,0,0,0,0,0*4C
---00000001--- Acq_st=3 0  2019-5-7 12:20:38 
[00]  01(G02)  1 27  7  0  -1665.9  2046003.3  0.4  1 0 1667 2806 1308
[01]  03(G04)  1 24  7  0  -1954.5  2046004.7  0.3  1 0 1032 2467 2311
[02]  04(G05)  1 26  7  0  -3382.6  2046006.1  0.3  1 0 1605 4726 2468
[03]  05(G06)  1 29 14  0      4.0  2046000.8  0.3  1 0 1917 3116 1539
[04]  08(G09)  1 28  7  0   -881.9  2046002.0  0.1  1 0 1236 2024 1040
[05]  11(G12)  1 22  7  0  -1329.0  2046003.9 -0.0  1 0 1062 3404 3680
[06]  16(G17)  1 17  7  0   1065.0  2046001.2  0.0  1 0  493 1945 3579
[08]  18(G19)  1  7  7  0    620.0  2046000.5  0.0  1 0 1685 3384 2094
t1:2025.976677,t2:0.000000
dt:2025.976677
$GNGGA,000000.000,,,,,0,00,,,M,,,,0000*2B
$GNRMC,000000.000,A,,,,,,,060180,,*29
$GPGSA,A,1,,,,,,,,,,,,,,,*1E
$BDGSA,A,1,,,,,,,,,,,,,,,*0F
$GLGSA,A,1,,,,,,,,,,,,,,,*02
$B3CN0,0,0,0,0,0,0,0,0,0,0,0,0,0,0*4C
---00000002--- Acq_st=3 0  2019-5-7 12:20:39 
[00]  01(G02)  7 24  7  0  -1657.4  2046002.0  0.7 10 0 2988 2961 1097
[01]  03(G04)  7 21  7  0  -1946.8  2046002.4  0.7 10 0 1471 2019 1141
[02]  04(G05)  7 22  7  0  -3375.3  2046004.2  0.8 10 0 3121 4145 2006
[03]  05(G06)  7 22  7  0      8.5  2045999.9  0.7 10 0 2315 3378 1807
[04]  08(G09)  7  7  7  0   -877.9  2046001.1  1.0  5 0 1254 1407  702
[05]  11(G12)  1 31  7  0  -1334.1  2046001.6  0.5  1 0 2711 3652 1984
[06]  16(G17)  1 41  7  0   1063.6  2045998.8  0.6  1 0 2511 2711 1092
[08]  18(G19)  1 31 10  0    615.7  2045998.9  0.5  1 0 1831 2896 1103
[09]  24(G25)  1 26  7  0  -3119.6  2046005.9  0.1  1 0 1415 2607 1504
[16]  37(B01)  1 10 10  0  -1084.0  4092003.9 -0.0  1 0  460 1137 1863
[17]  38(B02)  1 10 10  0  -1141.0  4092003.7  0.1  1 0  230  811 1820
[18]  39(B03)  1 10 10  0   -843.0  4092004.2 -0.0  1 0  331 1018 1508
[19]  40(B04)  1 10 10  0  -1103.0  4092004.5 -0.0  1 0  124  615 1795
t1:3025.976645,t2:0.000000
dt:3025.976645
$GNGGA,000000.000,,,,,0,00,,,M,,,,0000*2B
$GNRMC,000000.000,A,,,,,,,060180,,*29
$GPGSA,A,1,,,,,,,,,,,,,,,*1E
$BDGSA,A,1,,,,,,,,,,,,,,,*0F
$GLGSA,A,1,,,,,,,,,,,,,,,*02
$GPGSV,1,1,04,02,00,000,24,04,00,000,21,05,00,000,22,06,00,000,22*7D
$B3CN0,0,0,0,0,0,0,0,0,0,0,0,0,0,0*4C
---00000003--- Acq_st=3 0  2019-5-7 12:20:40 
[00]  01(G02)  7 43 10  0  -1648.2  2046002.0  0.0  2 0 2410 2536  786
[01]  03(G04)  7 41  7  0  -1939.5  2046002.4  0.2  2 0 1783 2310 1050
[02]  04(G05)  7 45  7  0  -3366.4  2046004.3  0.1  2 0 2628 3563 1824
[03]  05(G06)  7 45 17  0     16.1  2045999.9  0.1  2 0 2102 3307 1875
[04]  08(G09)  7 40  7  0   -865.5  2046001.1 -0.1  2 0 1323 1943 1119
[05]  11(G12)  7 37  7  0  -1322.8  2046001.6  0.1  2 0 2799 3672 1427
[06]  16(G17)  7 30  7  0   1070.4  2045998.5  0.5  5 0 2400 2802 1112
[08]  18(G19)  7 28  7  0    626.3  2045999.1  0.5 10 0 1631 2527 1217
[09]  24(G25)  7  7  7  0  -3109.3  2046003.9  1.0 10 0 2034 2900 1306
[16]  37(B01)  1 20 10  0  -1081.8  4092004.1  0.5  1 0 1157 1964 1001
[17]  38(B02)  9 41 24  0  -1142.9  4092004.2  0.9  1 0 1159 1715  956
[18]  39(B03)  1 17 33  1  -1092.6  4092002.7  0.5  1 0  306 1236 2206
[19]  40(B04)  1 31 13  0  -1098.4  4092003.8  0.8  1 0  855 1305  728
[20]  41(B05)  1 20 26  1   -975.5  4092002.8  0.1  1 0  286  142  911
[21]  42(B06)  1  7  7  0  -2717.7  4092008.1  0.0  1 0 1207 1937 1044
[22]  43(B07)  1  7  7  0    473.0  4091999.2 -0.0  1 0  942  981  635
[24]  44(B08)  1  7  7  0  -1197.9  4092004.0 -0.1  1 0 1094 2363 1026
[25]  46(B10)  1  7  7  0    594.2  4091998.4 -0.1  1 0 1512 1886  650
[26]  47(B11)  1  7  7  0  -3603.6  4092010.2  0.0  1 0  535 1342 1272
[27]  48(B12)  1  7  7  0  -1100.8  4092004.9 -0.1  1 0  500 2032 2303
[28]  49(B13)  1  7  7  0  -1205.7  4092006.0 -0.1  1 0  244  826 2042
[29]  50(B14)  1  7  7  0  -4315.0  4092013.2 -0.1  1 0  280 1258 1327
[30]  52(B16)  1 23  7  0  -2858.0  4092009.8  0.2  1 0   50 1015 1803
t1:4025.976613,t2:0.000000
dt:4025.976613
$GNGGA,000000.000,,,,,0,00,,,M,,,,0000*2B
$GNRMC,000000.000,A,,,,,,,060180,,*29
$GPGSA,A,1,,,,,,,,,,,,,,,*1E
$BDGSA,A,1,,,,,,,,,,,,,,,*0F
$GLGSA,A,1,,,,,,,,,,,,,,,*02
$GPGSV,2,1,08,02,00,000,43,04,00,000,41,05,00,000,45,06,00,000,45*75
$GPGSV,2,2,08,09,00,000,40,12,00,000,36,17,00,000,29,19,00,000,27*7A
$B3CN0,0,0,0,0,0,0,0,0,0,0,0,0,0,0*4C
---00000004--- Acq_st=3 0  2019-5-7 12:20:41 
[00]  01(G02)  7 42 11  0  -1656.7  2046002.0  0.0  2 0 1901 2848  955
[01]  03(G04)  7 41  7  0  -1949.4  2046002.4  0.1  2 0 1084 1951 1110
[02]  04(G05)  7 44  7  0  -3373.1  2046004.3  0.0  2 0 2369 3928 1927
[03]  05(G06)  7 43 14  0     11.0  2045999.9 -0.0  2 0 1958 2748 1607
[04]  08(G09)  7 40  7  0   -876.7  2046001.1 -0.1  2 0 1051 2090 1008
[05]  11(G12)  7 45  8  0  -1326.1  2046001.6 -0.0  2 0 2278 4024 1821
[06]  16(G17)  7 43  9  0   1066.5  2045998.5 -0.1  2 0 1444 2953 1707
[08]  18(G19)  7 44  7  0    618.6  2045999.1  0.0  2 0 2108 3121 1707
[09]  24(G25)  7 44  7  0  -3115.4  2046003.9 -0.1  2 0 2161 3021 1111
[16]  37(B01)  7 40 10  0  -1084.1  4092002.7 -0.1  2 0 1485 1676  651
[17]  38(B02)  f 39 17  0  -1141.9  4092002.9  0.8  2 0  446  553  178
[18]  39(B03)  7 36 34  1  -1009.6  4092002.5  0.0  2 0  396 1870 2495
[19]  40(B04)  7 40 22  0  -1105.1  4092002.8 -0.3  2 0 1302 2040 1273
[20]  41(B05)  1 22 10  0   -622.8  4092004.0  0.4  1 0  746 1084  442
[21]  42(B06)  7 23  7  0  -2722.0  4092007.0  0.3 10 0 1187 1341  503
[22]  43(B07)  7 12  7  0    468.9  4091998.6  0.4 10 0  728  585  379
[24]  44(B08)  7 10  7  0  -1200.2  4092003.0  0.4 10 0 1192 2092 1092
[25]  46(B10)  1  7  7  0    581.6  4091998.4  0.6  1 0 1233 2232 1340
[26]  47(B11)  1  7 10  0  -3607.8  4092009.4  0.5  1 0  865 1298  490
[27]  48(B12)  1  7  7  0  -1106.5  4092002.7  0.4  1 0 1708 2937 1408
[28]  49(B13)  1  7  7  0  -1214.6  4092003.0  0.5  1 0 1724 1936  586
[29]  50(B14)  1  7  7  0  -4322.8  4092011.1  0.1  1 0  819 1340  807
[30]  52(B16)  1 42  7  0  -2865.8  4092007.5  0.8  1 0 1680 1618  736
t1:5025.976581,t2:0.000000
dt:5025.976581
$GNGGA,000000.000,,,,,0,00,,,M,,,,0000*2B
$GNRMC,000000.000,A,,,,,,,060180,,*29
$GPGSA,A,1,,,,,,,,,,,,,,,*1E
$BDGSA,A,1,,,,,,,,,,,,,,,*0F
$GLGSA,A,1,,,,,,,,,,,,,,,*02
$GPGSV,3,1,09,02,00,000,42,04,00,000,41,05,00,000,44,06,00,000,43*73
$GPGSV,3,2,09,09,00,000,40,12,00,000,45,17,00,000,43,19,00,000,44*77
$GPGSV,3,3,09,25,00,000,44*47
$BDGSV,2,1,05,01,00,000,39,02,00,000,39,03,00,000,35,04,00,000,40*68
$BDGSV,2,2,05,06,00,000,23*5A
$B3CN0,0,0,0,0,0,0,0,0,0,0,0,0,0,0*4C
---00000005--- Acq_st=2 0  2019-5-7 12:20:42 
[00]  01(G02)  7 42  8  0  -1652.7  2046002.1 -0.0  2 0 2027 2798 1733
[01]  03(G04)  7 41  9  0  -1946.7  2046002.4 -0.0  2 0 1471 1581  656
[02]  04(G05)  7 44  7  0  -3371.6  2046004.3 -0.0  2 0 2654 3949 1272
[03]  05(G06)  7 43 12  0     11.0  2045999.9  0.0  2 0 1968 3519 1571
[04]  08(G09)  7 40  7  0   -875.2  2046001.0 -0.0  2 0  770 1180  375
[05]  11(G12)  7 45  8  0  -1324.8  2046001.6 -0.0  2 0 2697 3997 1924
[06]  16(G17)  7 43 10  0   1067.1  2045998.5  0.0  2 0 2319 2975 1268
[08]  18(G19)  7 43  7  0    619.5  2045999.1 -0.0  2 0 1510 2622 1285
[09]  24(G25)  7 44 11  0  -3113.0  2046004.0  0.1  2 0 2258 3031  765
[16]  37(B01)  f 41 10  0  -1085.9  4092002.8 -0.0  2 0 1036 1506 1028
[17]  38(B02)  f 39 24  0  -1150.6  4092003.1 -0.3  2 0 1121 1572  331
[18]  39(B03)  f 35 33  1  -1006.2  4092002.5 -0.0  2 0  595 1604 1796
[19]  40(B04)  f 41 13  0  -1105.0  4092002.8  0.7  2 0 1228 1575  882
[20]  41(B05)  1 17 10  0   -616.5  4092002.3  0.1  1 0  958  587  216
[21]  42(B06)  7 40  7  0  -2723.7  4092007.0 -0.1  2 0 1195 1736  939
[22]  43(B07)  7 36  7  0    464.0  4091998.7 -0.2  2 0  497  962  754
[24]  44(B08)  7 42  7  0  -1195.6  4092003.0 -0.1  2 0 1396 1841  528
[25]  46(B10)  7 37  9  0    587.4  4091998.4  0.2  2 0  595 1371  577
[26]  47(B11)  7 37  7  0  -3607.1  4092009.4  0.2  2 0  831 1575 1083
[27]  48(B12)  7 38  7  0  -1102.1  4092002.8  0.0  2 0 1569 2629 1116
[28]  49(B13)  7 37  7  0  -1208.2  4092003.0  0.1  2 0 1818 2578  735
[29]  50(B14)  7 36  7  0  -4318.0  4092011.2 -0.0  2 0 1139  783  169
[30]  52(B16)  7 33  7  0  -2860.7  4092007.4  0.1  5 0 1794 2424 1228
[49]  38(B02)  1 19 18  1   -668.5 20460021.9 -0.2  1 0  532   66  178
tow update,217261811.340646
t1:6025.976548,t2:6025.976548
dt:0.000000
$GNGGA,122043.682,2944.9047,N,10633.0926,E,1,08,1.1,321.6,M,,,,0000*1E
$GNRMC,122043.682,A,2944.9047,N,10633.0926,E,0.29,0.00,080180,,*16
$GPGSA,A,3,02,05,06,09,12,17,19,25,,,,,2.3,1.1,2.1*32
$BDGSA,A,3,,,,,,,,,,,,,2.3,1.1,2.1*21
$GLGSA,A,3,,,,,,,,,,,,,2.3,1.1,2.1*2C
$GPGSV,3,1,09,02,00,000,42,04,00,000,41,05,00,000,44,06,00,000,43*73
$GPGSV,3,2,09,09,00,000,40,12,00,000,44,17,00,000,43,19,00,000,43*71
$GPGSV,3,3,09,25,00,000,43*40
$BDGSV,3,1,12,01,00,000,41,02,00,000,39,03,00,000,35,04,00,000,40*60
$BDGSV,3,2,12,06,00,000,40,07,00,000,36,08,00,000,42,10,00,000,36*60
$BDGSV,3,3,12,11,00,000,36,12,00,000,37,13,00,000,36,14,00,000,35*6D
$B3CN0,0,0,0,0,0,0,0,0,0,0,0,0,0,0*4C
---00000006--- Acq_st=3 0  2000-1-8 12:20:44 
[00]  01(G02)  f 41  7  0  -1651.0  2046002.0 -0.0  2 0 1780 2640 1281
[01]  03(G04)  f 40  8  0  -1938.4  2046002.5  0.0  2 0 1237 1897 1077
[02]  04(G05)  f 45  7  0  -3370.4  2046004.3 -0.0  2 0 2514 3815 1833
[03]  05(G06)  f 44 15  0     12.9  2045999.9 -0.0  2 0 2284 2973  902
[04]  08(G09)  f 40  7  0   -873.0  2046001.1 -0.0  2 0 1925 2130  639
[05]  11(G12)  f 45  7  0  -1325.1  2046001.6  0.0  2 0 3288 3960 1993
[06]  16(G17)  f 43  7  0   1068.2  2045998.5  0.0  2 0 1702 2760 1790
[08]  18(G19)  f 43  7  0    622.3  2045999.2  0.0  2 0 2072 3144 1719
[09]  24(G25)  f 44  9  0  -3110.1  2046003.9 -0.1  2 0 2097 3260 1617
[16]  37(B01)  f 40 14  0  -1086.0  4092002.7 -0.0  2 0  747 1158  641
[17]  38(B02)  f 39 22  0  -1139.7  4092002.8  0.2  2 0  991 1227  628
[18]  39(B03)  f 36 35  1  -1005.8  4092002.7  0.0  2 0  186 1379 2257
[19]  40(B04)  f 41 10  0  -1101.1  4092002.7  0.1  2 0 1699 1694  547
[20]  41(B05)  1 24 10  0   -635.1  4092001.5  0.4  1 0  468  415  167
[21]  42(B06)  7 40  7  0  -2721.7  4092007.0 -0.1  2 0  971 1359  574
[22]  43(B07)  7 36 11  0    467.9  4091998.7  0.2  2 0  384  323  196
[24]  44(B08)  7 42  7  0  -1190.7  4092003.0  0.0  2 0 1191 1822  759
[25]  46(B10)  7 41  7  0    588.1  4091998.4  0.0  2 0 1184 1803  752
[26]  47(B11)  7 40  7  0  -3601.7  4092009.4  0.0  2 0 1190 2052 1146
[27]  48(B12)  7 43  8  0  -1102.4  4092002.8 -0.0  2 0 1984 2613  664
[28]  49(B13)  7 42  7  0  -1207.1  4092003.0  0.0  2 0 1635 1966  794
[29]  50(B14)  7 39  7  0  -4309.8  4092011.2  0.2  2 0  976 1224  453
[30]  52(B16)  7 41  7  0  -2857.3  4092007.4  0.1  2 0 1378 1603  745
[32]  75(N-6)  1 26 21  0   1020.0  1021999.6  0.6  1 0  1598 1761  652
[33]  78(N-3)  1 25  7  0  -1279.8  1022001.9  0.1  1 0  1735 2988 2219
[34]  79(N-2)  1 24 12  0  -3282.4  1022004.3  0.2  1 0   357  875 1154
[35]  80(N-1)  1 24 23  0  -2500.0  1022002.8 -0.0  1 0  1153 2530 1342
[36]  84(N03)  1 12  7  0    919.5  1022002.0  0.0  1 0   190  516 1316
[37]  85(N04)  1  7  7  0 -86002.7  1022004.9  0.0  1 0   173  544  964
[48]  37(B01)  1 10 10  1  -1129.4 20460016.2 -0.1  1 0  191  228  119
[49]  38(B02)  1 10 19  0   -667.6 20460016.9 -0.0  1 0  467  351  298
[51]  40(B04)  1 25 20  1   -779.5 20460019.0 -0.1  1 0  622  656  365
---00000007--- Acq_st=7 0  2000-1-8 12:20:45 
[00]  01(G02)  f 42  7  0  -1654.4  2046002.1 -0.1  2 0 1449 2728  866
[01]  03(G04)  f 40  7  0  -1944.8  2046002.4  0.1  2 0  790 1580  938
[02]  04(G05)  f 44  7  0  -3367.6  2046004.3 -0.0  2 0 2723 4409 1899
[03]  05(G06)  f 43 16  0     12.4  2045999.9  0.0  2 0 1366 2850 1830
[04]  08(G09)  f 40  7  0   -870.5  2046001.1  0.1  2 0 1034 1874  906
[05]  11(G12)  f 44  7  0  -1327.3  2046001.7 -0.0  2 0 2933 3955 1704
[06]  16(G17)  f 43  7  0   1069.3  2045998.5  0.0  2 0 2241 3143 2144
[08]  18(G19)  f 43  7  0    621.6  2045999.1 -0.0  2 0 1791 2904 1526
[09]  24(G25)  f 44  8  0  -3111.6  2046004.0  0.1  2 0 2573 3716 2101
[16]  37(B01)  f 41 10  0  -1082.0  4092002.6 -0.6  2 0 1134 1308  332
[17]  38(B02)  f 40 26  0  -1142.6  4092002.8 -0.5  2 0 1154 1567  722
[18]  39(B03)  f 34 33  1  -1007.3  4092002.6 -0.0  2 0  195 1601 2784
[19]  40(B04)  f 41 10  0  -1106.7  4092002.8  0.2  2 0  957 1071  344
[21]  42(B06)  7 40  7  0  -2724.2  4092007.0  0.0  2 0 1069 1630 1245
[22]  43(B07)  7 36  8  0    466.1  4091998.6  0.0  2 0  716  953  166
[24]  44(B08)  7 42  7  0  -1200.2  4092003.0 -0.0  2 0 1579 2477 1263
[25]  46(B10)  7 41  8  0    591.8  4091998.4  0.0  2 0  543 1365  999
[26]  47(B11)  7 40  7  0  -3604.7  4092009.4 -0.0  2 0  577 1320 1055
[27]  48(B12)  7 43  7  0  -1102.0  4092002.8  0.0  2 0 1695 2248  668
[28]  49(B13)  7 42  7  0  -1208.9  4092003.0 -0.0  2 0 1316 2020  924
[29]  50(B14)  7 39  9  0  -4318.4  4092011.2  0.1  2 0 1185 1455  769
[30]  52(B16)  7 41  7  0  -2861.9  4092007.4 -0.1  2 0 1312 2017  776
[32]  75(N-6)  7 28  7  0   1021.0  1021999.2  0.6 10 0  1102 1833 1015
[33]  78(N-3)  1 23 10  0  -1279.9  1022000.7  1.0  1 0  1968 3252 1497
[34]  79(N-2)  1 22 11  0  -3288.0  1022001.7  0.2  1 0   994 1086  437
[35]  80(N-1)  1 23 13  0  -2606.0  1022001.6  1.0  1 0  1553 2435 1164
[36]  84(N03)  1 23 10  0    953.7  1021999.4  0.9  1 0   982 1299  342
[37]  85(N04)  1 29  7  0  -5534.9  1022005.0  1.0  1 0  1313 2227  716
[48]  37(B01)  7 17 20  0  -1700.0 20460029.2 -0.1  2 0  495  675  599
[49]  38(B02)  1 22 16  1   -100.6 20460025.7 -0.0  1 0  326  351  642
[50]  39(B03)  1 17 22  1   -915.4 20460014.8  0.1  1 0  326  625  709
[51]  40(B04)  1 24 21  0   -702.9 20460016.8  0.1  1 0  526  453  242
t1:7343.970613,t2:7343.970613
dt:0.000000
Refix G02: 2, 217262.927587, -1652
Refix G05: 2, 217262.929338, -3368
Refix G06: 2, 217262.928278, 12
Refix G09: 2, 217262.923024, -870
Refix G12: 2, 217262.927493, -1323
Refix G17: 2, 217262.924810, 1069
Refix G19: 2, 217262.928668, 624
Refix G25: 2, 217262.919267, -3109
$GNGGA,122045.000,2944.9050,N,10633.0938,E,1,11,1.1,320.8,M,,,,0000*1A
$GNRMC,122045.000,A,2944.9050,N,10633.0938,E,0.20,0.00,080180,,*1C
$GPGSA,A,3,02,05,06,09,12,17,19,25,,,,,2.3,1.1,2.1*32
$BDGSA,A,3,01,02,04,,,,,,,,,,2.3,1.1,2.1*26
$GLGSA,A,3,,,,,,,,,,,,,2.3,1.1,2.1*2C
$GPGSV,3,1,09,02,00,000,42,04,00,000,40,05,00,000,44,06,00,000,43*72
$GPGSV,3,2,09,09,00,000,40,12,00,000,44,17,00,000,43,19,00,000,43*71
$GPGSV,3,3,09,25,00,000,44*47
$BDGSV,3,1,12,01,00,000,41,02,00,000,40,03,00,000,34,04,00,000,41*6E
$BDGSV,3,2,12,06,00,000,40,07,00,000,36,08,00,000,42,10,00,000,41*60
$BDGSV,3,3,12,11,00,000,40,12,00,000,43,13,00,000,42,14,00,000,39*60
$B3CN0,19,0,0,0,0,0,0,0,0,0,0,0,0,0*74
---00000008--- Acq_st=3 0  2000-1-8 12:20:45 
[00]  01(G02)  f 42  7  0  -1642.5  2046002.1  0.0  2 0 1710 3107 1974
[01]  03(G04)  f 41  7  0  -1930.0  2046002.4 -0.1  2 0 1544 1736  310
[02]  04(G05)  f 45  7  0  -3357.9  2046004.3  0.1  2 0 2703 3925 1765
[03]  05(G06)  f 44 15  0     27.9  2045999.9 -0.0  2 0 1992 3166 1581
[04]  08(G09)  f 40  7  0   -857.7  2046001.0  0.0  2 0 1616 2282  696
[05]  11(G12)  f 45  7  0  -1312.9  2046001.6 -0.0  2 0 2183 4066 1976
[06]  16(G17)  f 44  7  0   1079.1  2045998.5  0.1  2 0 2077 3189 1828
[08]  18(G19)  f 43  7  0    638.0  2045999.1 -0.0  2 0 1822 2973 1271
[09]  24(G25)  f 44  7  0  -3098.3  2046003.9 -0.0  2 0 2542 3426 1674
[16]  37(B01) 1f 41 19  0  -1074.2  4092002.7 -0.2  2 0 1154 1525 1014
[17]  38(B02) 1f 39 23  0  -1133.0  4092002.8 -0.4  2 0 1191 1271  566
[18]  39(B03)  f 35 33  1  -1008.2  4092002.6  0.0  2 0  884  694 2555
[19]  40(B04) 1f 41 19  0  -1094.0  4092002.8 -0.0  2 0 1083 1531  680
[21]  42(B06) 1f 40  7  0  -2707.6  4092007.0  0.0  2 0 1178 1460  573
[22]  43(B07) 1f 36  7  0    482.5  4091998.6  0.2  2 0  614  862  300
[24]  44(B08) 1f 42  7  0  -1191.9  4092003.0 -0.0  2 0 1467 2160  875
[25]  46(B10) 1f 40  7  0    599.3  4091998.3 -0.1  2 0  485  905  375
[26]  47(B11) 1f 40 12  0  -3595.2  4092009.3 -0.1  2 0 1277 1979  821
[27]  48(B12) 1f 43  7  0  -1091.4  4092002.7 -0.0  2 0 1699 2272  991
[28]  49(B13) 1f 42  7  0  -1197.4  4092003.0 -0.0  2 0 1475 1807  660
[29]  50(B14) 1f 39  7  0  -4302.7  4092011.2 -0.1  2 0 1355 1493  580
[30]  52(B16) 1f 41  7  0  -2846.9  4092007.3  0.1  2 0  858 1291  794
[32]  75(N-6)  7 46 19  0   1034.3  1021999.3 -0.1  2 0  1558 2192 1021
[33]  78(N-3)  7 48  7  0  -1265.3  1022000.8  0.0  2 0  1881 3061 1522
[34]  79(N-2)  7 42 17  0  -3273.7  1022001.9 -0.0  2 0   622  792  411
[35]  80(N-1)  1 23 14  0  -2592.8  1022001.4  1.0  1 0  1242 2629 1095
[36]  84(N03)  1 23 12  0    965.5  1021999.2  0.9  1 0   954 1353  554
[37]  85(N04)  1 29  7  0  -5522.6  1022003.1  1.0  1 0  1612 1777  697
[48]  37(B01)  7 19 10  1  -1879.6 20460030.7 -0.1  2 0  403  479  392
[49]  38(B02)  f 10 10  1   -153.4 20460003.7  0.2  2 0   88  719  448
[50]  39(B03)  1 18 14  0  -1556.8 20460020.7  0.1  1 0  789  940  557
[51]  40(B04)  1 18 20  0   -697.2 20460026.1  0.2  1 0  281   64  179
t1:8343.970581,t2:8343.970581
dt:0.000000
Refix G02: 2, 217263.927588, -1640
Refix G05: 2, 217263.929340, -3357
Refix G06: 2, 217263.928278, 24
Refix G09: 2, 217263.923025, -859
Refix G12: 2, 217263.927494, -1312
Refix G17: 2, 217263.924809, 1080
Refix G19: 2, 217263.928668, 636
Refix G25: 2, 217263.919268, -3100
$GNGGA,122046.000,2944.9062,N,10633.0941,E,1,19,0.6,325.3,M,,,,0000*16
$GNRMC,122046.000,A,2944.9062,N,10633.0941,E,0.22,0.00,080180,,*12
$GPGSA,A,3,02,05,06,09,12,17,19,25,,,,,0.8,0.6,0.5*3B
$BDGSA,A,3,01,02,04,06,08,10,11,12,13,14,16,,0.8,0.6,0.5*23
$GLGSA,A,3,,,,,,,,,,,,,0.8,0.6,0.5*25
$GPGSV,3,1,09,02,54,328,42,04,00,000,41,05,50,224,45,06,47,036,44*7A
$GPGSV,3,2,09,09,25,070,40,12,42,283,45,17,32,120,44,19,50,108,43*76
$GPGSV,3,3,09,25,16,313,44*41
$BDGSV,3,1,12,01,39,127,41,02,48,221,39,03,55,171,35,04,23,110,41*64
$BDGSV,3,2,12,06,35,152,40,07,00,000,36,08,53,025,42,10,31,204,40*64
$BDGSV,3,3,12,11,17,312,40,12,64,058,43,13,55,335,42,14,18,206,39*61
$B3CN0,20,0,0,0,0,0,0,0,0,0,0,0,0,0*7E
---00000009--- Acq_st=3 0  2000-1-8 12:20:46 
[00]  01(G02)  f 42  7  0  -1649.3  2046002.1 -0.0  2 0 1328 2364 1080
[01]  03(G04)  f 41  7  0  -1937.6  2046002.4  0.1  2 0  689 1117  540
[02]  04(G05)  f 45  7  0  -3365.9  2046004.3 -0.0  2 0 2956 4825 2203
[03]  05(G06)  f 44 14  0     17.2  2045999.9 -0.0  2 0 1494 2780 1769
[04]  08(G09)  f 40  7  0   -863.3  2046001.1  0.0  2 0 1267 2084 1222
[05]  11(G12)  f 44  7  0  -1319.5  2046001.7 -0.0  2 0 2354 4052 1851
[06]  16(G17)  f 43  7  0   1073.2  2045998.5 -0.0  2 0 1934 2648 1418
[08]  18(G19)  f 42  9  0    629.5  2045999.1  0.0  2 0 1808 2669  843
[09]  24(G25)  f 44  7  0  -3106.2  2046003.9  0.0  2 0 2004 3829 1853
[16]  37(B01) 1f 41 19  0  -1082.2  4092002.6  0.1  2 0 1132 1191  303
[17]  38(B02) 1f 38 25  0  -1141.5  4092002.8  0.5  2 0 1181 1637 1028
[18]  39(B03)  f 34 34  1  -1007.4  4092002.5  0.0  2 0  380  971 2353
[19]  40(B04) 1f 40 23  0  -1100.8  4092002.9  0.3  2 0  886 1529 1092
[21]  42(B06) 1f 40  7  0  -2716.6  4092007.0  0.0  2 0 1165 1286  405
[22]  43(B07) 1f 36 11  0    479.3  4091998.6  0.0  2 0  834  724  628
[24]  44(B08) 1f 42  7  0  -1192.2  4092003.0 -0.0  2 0 1961 1944  695
[25]  46(B10) 1f 40  7  0    592.4  4091998.3  0.0  2 0 1627 1877  565
[26]  47(B11) 1f 40  7  0  -3602.9  4092009.3  0.1  2 0  784 1501  887
[27]  48(B12) 1f 43 11  0  -1096.5  4092002.8  0.0  2 0 1515 2352  767
[28]  49(B13) 1f 42  7  0  -1207.7  4092003.0  0.0  2 0 2074 1991  502
[29]  50(B14) 1f 39  7  0  -4311.8  4092011.2 -0.2  2 0 1198 1011  402
[30]  52(B16) 1f 41  8  0  -2855.0  4092007.4 -0.0  2 0 1471 1485  340
[32]  75(N-6)  7 46 23  0   1027.3  1021999.3  0.0  2 0  1086 1937  790
[33]  78(N-3)  7 49  7  0  -1272.6  1022000.8 -0.0  2 0  2073 3297 1539
[34]  79(N-2)  7 42 17  0  -3283.2  1022002.0  0.1  2 0  1091 1588  605
[35]  80(N-1)  7 48 13  0  -2597.8  1022001.6  0.0  2 0  1571 2424 1014
[36]  84(N03)  7 37  7  0    959.4  1021999.4  0.1  2 0   914 1739  910
[37]  85(N04)  7 35  7  0  -5528.4  1022003.5  0.2  5 0  1057 1920  750
[48]  37(B01)  7 22 13  1  -2244.1 20460037.0 -0.1  2 0  707  638  333
[49]  38(B02)  f 10 10  1   -755.7 20460015.0  0.0  2 0  422  330   95
[50]  39(B03)  1 10 20  1  -1275.7 20460024.1 -0.1  1 0  174  143  187
[51]  40(B04)  1 23 21  0  -1187.4 20460023.4 -0.0  1 0  664  566  745
[53]  42(B06)  1  7  7  0  -2187.6 20460042.8 -0.0  1 0  397  227  592
[54]  43(B07)  1  7  7  0    430.8 20459992.5 -0.2  1 0  486  247  360
[56]  44(B08)  1  7  7  0  -1079.4 20460021.0  0.1  1 0  396  918  480
[57]  46(B10)  1 13  7  0    608.5 20459991.2  0.1  1 0  414  677  616
[58]  47(B11)  1  7  7  0  -3080.2 20460056.4  0.1  1 0  715  294  519
[59]  48(B12)  1  7  8  0   -912.2 20460013.9  0.0  1 0  798  591  274
[60]  49(B13)  1  7  7  0  -1055.8 20460017.4  0.1  1 0  654  286  206
[61]  50(B14)  1  7  7  0  -3258.4 20460068.3  0.1  1 0  284  249  157
[62]  52(B16)  1  7  7  0  -2389.9 20460045.3 -0.1  1 0  427  150  177
t1:9343.970548,t2:9343.970548
dt:0.000000
Refix G02: 2, 217264.927589, -1646
Refix G05: 2, 217264.929342, -3362
Refix G06: 2, 217264.928277, 19
Refix G09: 2, 217264.923025, -863
Refix G12: 2, 217264.927495, -1316
Refix G17: 2, 217264.924808, 1075
Refix G19: 2, 217264.928667, 631
Refix G25: 2, 217264.919270, -3103
$GNGGA,122047.000,2944.9065,N,10633.0942,E,1,19,0.6,325.6,M,,,,0000*16
$GNRMC,122047.000,A,2944.9065,N,10633.0942,E,0.09,0.00,080180,,*1E
$GPGSA,A,3,02,05,06,09,12,17,19,25,,,,,0.8,0.6,0.5*3B
$BDGSA,A,3,01,02,04,06,08,10,11,12,13,14,16,,0.8,0.6,0.5*23
$GLGSA,A,3,,,,,,,,,,,,,0.8,0.6,0.5*25
$GPGSV,3,1,09,02,54,328,42,04,00,000,41,05,50,224,45,06,47,036,44*7A
$GPGSV,3,2,09,09,25,070,40,12,42,283,44,17,32,120,43,19,50,108,42*71
$GPGSV,3,3,09,25,16,313,44*41
$BDGSV,3,1,12,01,39,127,41,02,48,221,38,03,55,171,34,04,23,110,40*65
$BDGSV,3,2,12,06,35,152,40,07,00,000,36,08,53,025,42,10,31,204,40*64
$BDGSV,3,3,12,11,17,312,40,12,64,058,43,13,55,335,42,14,18,206,39*61
$B3CN0,22,0,0,0,0,0,0,0,0,0,0,0,0,0*7C
---00000010--- Acq_st=3 0  2000-1-8 12:20:47 
[00]  01(G02)  f 43  7  0  -1651.9  2046002.1 -0.0  2 0 1560 2723 1330
[01]  03(G04)  f 41  7  0  -1934.9  2046002.5 -0.1  2 0 1012 2003 1218
[02]  04(G05)  f 45  7  0  -3368.6  2046004.3  0.0  2 0 2683 4076 2045
[03]  05(G06)  f 44 14  0     15.8  2045999.9  0.1  2 0 1940 3144 1352
[04]  08(G09)  f 40  7  0   -870.4  2046001.1  0.0  2 0 1088 1852  828
[05]  11(G12)  f 44  7  0  -1321.1  2046001.7  0.0  2 0 2500 3985 2221
[06]  16(G17)  f 43  7  0   1069.5  2045998.6 -0.0  2 0 2290 3066 1084
[08]  18(G19)  f 43  7  0    624.8  2045999.1 -0.0  2 0 2116 2644  962
[09]  24(G25)  f 44  7  0  -3107.9  2046004.0  0.0  2 0 2601 3635 1802
[16]  37(B01) 1f 41 23  0  -1081.2  4092002.6  0.1  2 0 1857 2322 1324
[17]  38(B02) 1f 40 20  0  -1139.1  4092002.9  0.6  2 0 1234 1209  169
[18]  39(B03)  f 34 34  1  -1011.1  4092002.6 -0.0  2 0  717  446 1948
[19]  40(B04) 1f 40 21  0  -1102.9  4092002.8 -0.1  2 0 1328 1596  641
[20]  41(B05)  1 10 23  1  -1119.6  4092004.6  0.3  1 0  708 1065  523
[21]  42(B06) 1f 40  7  0  -2719.4  4092007.0  0.2  2 0 1061 1388  632
[22]  43(B07) 1f 35  7  0    466.5  4091998.6 -0.1  2 0  943  475  222
[24]  44(B08) 1f 42  7  0  -1198.7  4092003.0 -0.0  2 0 1607 2258  816
[25]  46(B10) 1f 40  7  0    594.2  4091998.4  0.0  2 0  979 1646  707
[26]  47(B11) 1f 39  7  0  -3605.8  4092009.4  0.1  2 0 1039 1328  573
[27]  48(B12) 1f 43  7  0  -1104.2  4092002.8  0.0  2 0 2330 2525  789
[28]  49(B13) 1f 42  7  0  -1206.2  4092003.0  0.0  2 0 1833 2318  902
[29]  50(B14) 1f 39  7  0  -4315.4  4092011.2 -0.0  2 0  750  975  543
[30]  52(B16) 1f 41  7  0  -2857.0  4092007.4  0.1  2 0 1191 1477  459
[32]  75(N-6)  7 46 24  0   1026.1  1021999.3 -0.0  2 0  1261 2111 1213
[33]  78(N-3)  7 48  7  0  -1274.1  1022000.8 -0.1  2 0  2027 3430 1397
[34]  79(N-2)  7 42 15  0  -3285.2  1022002.0  0.1  2 0   628 1327  773
[35]  80(N-1)  7 48  7  0  -2598.3  1022001.6 -0.0  2 0  1126 2207 1117
[36]  84(N03)  7 42  7  0    958.5  1021999.4 -0.1  2 0  1103 1447  540
[37]  85(N04)  7 46  7  0  -5529.7  1022003.5 -0.0  2 0  1331 2014  712
[48]  37(B01)  7 10 10  1  -2254.6 20460037.0  0.2  2 0  608  233  270
[49]  38(B02)  f 36 10  0   -908.6 20460014.5  0.1  2 0  115  615  468
[50]  39(B03)  1 18 18  1  -1442.5 20460017.5  0.0  1 0  200  228  547
[53]  42(B06)  1  7  8  0  -2073.0 20460045.5  0.2  1 0  111  224  525
[54]  43(B07)  1  8  7  0    726.4 20459992.1  0.1  1 0  198  807  514
[56]  44(B08)  1  8  7  0   -425.2 20460018.2  0.1  1 0  751  312  176
[57]  46(B10)  1  7  7  0    233.3 20459993.0  0.1  1 0  692  658  848
[58]  47(B11)  1  7  7  0  -2891.6 20460058.3 -0.1  1 0  265  421  480
[59]  48(B12)  1  7  7  0   -910.1 20460014.6  0.0  1 0  503  243  150
[60]  49(B13)  1  7  7  0   -400.7 20460019.3  0.1  1 0  327   18  312
[61]  50(B14)  1  7  7  0  -3691.4 20460068.2  0.2  1 0  362  110  152
[62]  52(B16)  1  7  7  0  -2804.3 20460045.2  0.1  1 0  409  405  463
t1:10343.970516,t2:10343.970516
dt:0.000000
Refix G02: 2, 217265.927590, -1651
Refix G05: 2, 217265.929344, -3366
Refix G06: 2, 217265.928277, 14
Refix G09: 2, 217265.923026, -866
Refix G12: 2, 217265.927496, -1320
Refix G17: 2, 217265.924808, 1071
Refix G19: 2, 217265.928667, 626
Refix G25: 2, 217265.919272, -3107
$GNGGA,122048.000,2944.9070,N,10633.0942,E,1,19,0.6,328.0,M,,,,0000*16
$GNRMC,122048.000,A,2944.9070,N,10633.0942,E,0.16,0.00,080180,,*1B
$GPGSA,A,3,02,05,06,09,12,17,19,25,,,,,0.8,0.6,0.5*3B
$BDGSA,A,3,01,02,04,06,08,10,11,12,13,14,16,,0.8,0.6,0.5*23
$GLGSA,A,3,,,,,,,,,,,,,0.8,0.6,0.5*25
$GPGSV,3,1,09,02,54,328,43,04,00,000,41,05,50,224,45,06,47,036,44*7B
$GPGSV,3,2,09,09,25,070,40,12,42,283,44,17,32,120,43,19,50,108,43*70
$GPGSV,3,3,09,25,16,313,44*41
$BDGSV,3,1,12,01,39,127,41,02,48,221,40,03,55,171,34,04,23,110,40*6A
$BDGSV,3,2,12,06,35,152,40,07,00,000,35,08,53,025,42,10,31,204,40*67
$BDGSV,3,3,12,11,17,312,39,12,64,058,43,13,55,335,42,14,18,206,39*6F
$B3CN0,0,36,0,0,0,0,0,0,0,0,0,0,0,0*79
---00000011--- Acq_st=3 0  2000-1-8 12:20:48 
[00]  01(G02)  f 44  7  0  -1645.4  2046002.1  0.0  2 0 1543 2798  861
[01]  03(G04)  f 41  9  0  -1931.2  2046002.4  0.0  2 0  939 2094 1207
[02]  04(G05)  f 46  7  0  -3360.6  2046004.3 -0.0  2 0 2906 3948 1378
[03]  05(G06)  f 44 15  0     20.6  2045999.9 -0.1  2 0 1989 3266 1773
[04]  08(G09)  f 40  7  0   -861.0  2046001.1 -0.0  2 0 1859 1979  701
[05]  11(G12)  f 45  7  0  -1313.1  2046001.6  0.0  2 0 2335 3762 1521
[06]  16(G17)  f 43  7  0   1078.8  2045998.5 -0.0  2 0 1719 2629 1260
[08]  18(G19)  f 43  7  0    634.2  2045999.1 -0.0  2 0 1650 2801 1366
[09]  24(G25)  f 44 12  0  -3099.4  2046004.0 -0.0  2 0 2388 3673 2064
[16]  37(B01) 1f 40 10  0  -1074.8  4092002.7  0.3  2 0  816 1780 1012
[17]  38(B02) 1f 39 25  0  -1132.8  4092002.9  0.4  2 0  996 1318  804
[18]  39(B03)  f 33 34  1  -1000.6  4092002.7 -0.0  2 0  410  997 2252
[19]  40(B04) 1f 41 18  0  -1097.1  4092002.7 -0.4  2 0 1367 1476  655
[20]  41(B05)  7 36 23  0  -1119.3  4092002.6 -0.6  2 0 1267  825  141
[21]  42(B06) 1f 40  7  0  -2710.5  4092007.0 -0.1  2 0 1542 1711 1192
[22]  43(B07) 1f 36  7  0    477.2  4091998.6  0.2  2 0  279  304  142
[24]  44(B08) 1f 42  7  0  -1189.4  4092003.0  0.0  2 0 1309 2041 1225
[25]  46(B10) 1f 40  7  0    599.8  4091998.3  0.1  2 0 1078 1649  641
[26]  47(B11) 1f 39  7  0  -3600.0  4092009.3 -0.0  2 0 1030 1551  677
[27]  48(B12) 1f 43  7  0  -1091.6  4092002.7 -0.1  2 0 2278 2555  917
[28]  49(B13) 1f 42  7  0  -1199.9  4092003.0  0.0  2 0 1920 1953  554
[29]  50(B14) 1f 39  7  0  -4305.0  4092011.2 -0.0  2 0  888  969  347
[30]  52(B16) 1f 41  7  0  -2848.7  4092007.3 -0.1  2 0 1137 1876  789
[32]  75(N-6)  f 35 21  0   1032.7  1021999.3 -0.1  5 0  1285 1992  913
[33]  78(N-3)  f 35  7  0  -1268.7  1022000.8 -0.0  2 0  1953 3262 1615
[34]  79(N-2)  f 34  7  0  -3278.3  1022002.1  0.2  5 0   817 1177  580
[35]  80(N-1)  7 48 13  0  -2590.2  1022001.6 -0.2  2 0  1481 2540 1158
[36]  84(N03)  7 43  7  0    966.6  1021999.4  0.1  2 0   714 1465  668
[37]  85(N04)  7 46  7  0  -5521.7  1022003.5 -0.1  2 0  1309 2075 1201
[49]  38(B02)  f 10 10  1  -1576.2 20460024.6  0.0  2 0  197  240  355
[51]  40(B04)  1 23 22  1   -974.3 20460019.8 -0.1  1 0  655  291  294
[53]  42(B06)  1  7  7  0  -1655.0 20460043.4  0.1  1 0  345  714  387
[54]  43(B07)  1  7  7  0    652.8 20459994.5  0.0  1 0 1024  726  342
[56]  44(B08)  1  7  7  0   -567.4 20460021.0 -0.2  1 0  379  295  341
[57]  46(B10)  1  7  9  0    716.7 20459991.0  0.0  1 0  144  799  852
[58]  47(B11)  1  7 11  0  -2807.7 20460057.0 -0.1  1 0  110  159   45
[59]  48(B12)  1  7  7  0   -918.6 20460013.5  0.2  1 0  278  669  224
[60]  49(B13)  1  7  7  0   -160.3 20460018.7 -0.0  1 0  467  595  445
[61]  50(B14)  1  7  7  0  -3624.8 20460067.4  0.1  1 0  619   34  569
[62]  52(B16)  1  7  7  0  -2845.6 20460044.3 -0.0  1 0  270  373  319
t1:11343.970484,t2:11343.970484
dt:0.000000
Refix G02: 2, 217266.927591, -1647
Refix G05: 2, 217266.929346, -3362
Refix G06: 2, 217266.928277, 18
Refix G09: 2, 217266.923026, -862
Refix G12: 2, 217266.927497, -1316
Refix G17: 2, 217266.924807, 1075
Refix G19: 2, 217266.928666, 630
Refix G25: 2, 217266.919274, -3103
$GNGGA,122049.000,2944.9070,N,10633.0942,E,1,19,0.6,328.1,M,,,,0000*16
$GNRMC,122049.000,A,2944.9070,N,10633.0942,E,0.08,0.00,070519,,*1E
$GPGSA,A,3,02,05,06,09,12,17,19,25,,,,,0.8,0.6,0.5*3B
$BDGSA,A,3,01,02,04,06,08,10,11,12,13,14,16,,0.8,0.6,0.5*23
$GLGSA,A,3,,,,,,,,,,,,,0.8,0.6,0.5*25
$GPGSV,3,1,09,02,54,328,44,04,00,000,41,05,50,224,46,06,47,036,44*7F
$GPGSV,3,2,09,09,25,070,40,12,42,283,45,17,32,120,43,19,50,108,43*71
$GPGSV,3,3,09,25,16,313,44*41
$BDGSV,3,1,12,01,39,127,40,02,48,221,39,03,55,171,33,04,23,110,41*63
$BDGSV,3,2,12,05,00,000,36,06,35,152,40,07,00,000,36,08,53,025,42*65
$BDGSV,3,3,12,10,31,204,40,11,17,312,39,12,64,058,43,13,55,335,42*6C
$B3CN0,0,0,0,0,0,0,0,0,0,0,0,0,0,0*4C
---00000012--- Acq_st=3 0  2019-5-7 12:20:49 
[00]  01(G02)  f 44  9  0  -1652.7  2046002.1 -0.1  2 0 1546 3056 1450
[01]  03(G04)  f 41  8  0  -1937.0  2046002.5 -0.0  2 0 1350 2038  492
[02]  04(G05)  f 45  7  0  -3368.4  2046004.3  0.1  2 0 2812 4516 1974
[03]  05(G06)  f 43 15  0     11.5  2045999.9 -0.0  2 0 1962 2908 1356
[04]  08(G09)  f 40  7  0   -871.0  2046001.1 -0.0  2 0 1450 2331 1016
[05]  11(G12)  f 45  7  0  -1323.8  2046001.6  0.0  2 0 2739 3852 1263
[06]  16(G17)  f 43  7  0   1068.2  2045998.6 -0.0  2 0 1273 2460 1268
[08]  18(G19)  f 43  9  0    626.0  2045999.1  0.1  2 0 1418 2433  961
[09]  24(G25)  f 44  9  0  -3107.3  2046004.0  0.0  2 0 1853 2946 1302
[16]  37(B01) 1f 41 21  0  -1082.9  4092002.7 -0.3  2 0 1517 1418  784
[17]  38(B02) 1f 40 18  0  -1144.4  4092002.9  0.1  2 0 1357 1470  724
[18]  39(B03)  f 33 34  1  -1008.1  4092002.7 -0.0  2 0  757 1390 2377
[19]  40(B04) 1f 41 17  0  -1105.8  4092002.9  0.3  2 0  985 1464  776
[20]  41(B05)  f 36 20  0  -1130.1  4092002.7  0.7  2 0 1247  793  613
[21]  42(B06) 1f 40  7  0  -2723.6  4092007.0  0.1  2 0 1134 1393  726
[22]  43(B07) 1f 36  7  0    473.0  4091998.7  0.0  2 0  981 1584  686
[24]  44(B08) 1f 42  7  0  -1197.2  4092003.0  0.0  2 0 1087 1745  897
[25]  46(B10) 1f 40  9  0    592.6  4091998.3 -0.1  2 0 1159 1363  274
[26]  47(B11) 1f 40  7  0  -3608.6  4092009.3 -0.0  2 0 1394 1331  729
[27]  48(B12) 1f 42  7  0  -1100.8  4092002.8 -0.0  2 0 1917 2535  915
[28]  49(B13) 1f 42  7  0  -1207.6  4092003.0 -0.0  2 0 1590 1828  680
[29]  50(B14) 1f 39  7  0  -4320.9  4092011.2  0.1  2 0  992 1188  456
[30]  52(B16) 1f 41  7  0  -2854.9  4092007.4 -0.0  2 0 1732 1772  531
[32]  75(N-6)  f 45 21  0   1025.7  1021999.3  0.0  2 0  1254 2102  820
[33]  78(N-3)  f 46  7  0  -1276.4  1022000.8 -0.0  2 0  1624 3089 1456
[34]  79(N-2)  f 42  7  0  -3285.5  1022002.0 -0.1  2 0   773 1193  543
[35]  80(N-1)  7 47 12  0  -2599.1  1022001.6  0.0  2 0  1501 2873 1675
[36]  84(N03)  7 43  7  0    956.4  1021999.4 -0.1  2 0   785 1437  773
[37]  85(N04)  7 46  7  0  -5532.4  1022003.5 -0.0  2 0  1128 2119  906
[48]  37(B01)  1 10 13  0   -665.6 20460020.0 -0.1  1 0  669  247   95
[51]  40(B04)  1 25 23  0   -923.3 20460015.9 -0.0  1 0  548  646  230
[53]  42(B06)  1  7  7  0  -1417.6 20460042.3  0.0  1 0  347  219  558
[54]  43(B07)  1  8  7  0    821.2 20459995.5  0.0  1 0  327  686 1105
[56]  44(B08)  1  7  7  0   -476.8 20460018.9 -0.1  1 0  268  655  423
[57]  46(B10)  1  7  7  0   1100.9 20459992.5  0.0  1 0  577  928 1071
[58]  47(B11)  1  9  7  0  -2651.5 20460055.3  0.0  1 0  481  210  696
[59]  48(B12)  1  7  7  0   -856.2 20460013.9 -0.1  1 0  178  835  156
[60]  49(B13)  1  7  9  0    -26.1 20460017.0  0.0  1 0  329  512  203
[61]  50(B14)  1  7  7  0  -3236.3 20460069.3 -0.2  1 0  599  221  133
[62]  52(B16)  1  7  7  0  -3187.4 20460045.1  0.0  1 0  582  687  390
t1:12343.970452,t2:12343.970452
dt:0.000000
Refix G02: 2, 217267.927592, -1650
Refix G05: 2, 217267.929348, -3365
Refix G06: 2, 217267.928277, 14
Refix G09: 2, 217267.923027, -865
Refix G12: 2, 217267.927497, -1318
Refix G17: 2, 217267.924806, 1072
Refix G19: 2, 217267.928666, 627
Refix G25: 2, 217267.919276, -3105
$GNGGA,122050.000,2944.9070,N,10633.0942,E,1,19,0.6,328.2,M,,,,0000*1D
$GNRMC,122050.000,A,2944.9070,N,10633.0942,E,0.18,0.00,070519,,*17
$GPGSA,A,3,02,05,06,09,12,17,19,25,,,,,0.8,0.6,0.5*3B
$BDGSA,A,3,01,02,04,06,08,10,11,12,13,14,16,,0.8,0.6,0.5*23
$GLGSA,A,3,,,,,,,,,,,,,0.8,0.6,0.5*25
$GPGSV,3,1,09,02,54,328,44,04,00,000,41,05,50,224,45,06,47,036,43*7B
$GPGSV,3,2,09,09,25,070,40,12,42,283,45,17,32,120,43,19,50,108,43*71
$GPGSV,3,3,09,25,16,313,44*41
$BDGSV,3,1,12,01,39,127,41,02,48,221,40,03,55,171,33,04,23,110,41*6C
$BDGSV,3,2,12,05,00,000,36,06,35,152,40,07,00,000,36,08,53,025,42*65
$BDGSV,3,3,12,10,31,204,40,11,17,312,40,12,64,058,42,13,55,335,42*63
$B3CN0,0,0,0,0,0,0,0,0,0,0,0,0,0,0*4C
---00000013--- Acq_st=7 0  2019-5-7 12:20:50 
[00]  01(G02)  f 44 13  0  -1655.8  2046002.1  0.0  2 0 1820 2729  819
[01]  03(G04)  f 41  7  0  -1941.2  2046002.5  0.1  2 0 1066 1918 1297
[02]  04(G05)  f 45  7  0  -3370.8  2046004.3  0.0  2 0 3193 4749 2433
[03]  05(G06)  f 44 14  0      9.5  2045999.9  0.1  2 0 2264 3424 1635
[04]  08(G09)  f 40  7  0   -870.2  2046001.0 -0.0  2 0  702 1809 1015
[05]  11(G12)  f 45  7  0  -1324.2  2046001.7 -0.0  2 0 2527 4068 2473
[06]  16(G17)  f 43  7  0   1065.6  2045998.6  0.1  2 0 1617 2826 1832
[08]  18(G19)  f 44  7  0    624.1  2045999.1  0.0  2 0 1395 2228  720
[09]  24(G25)  f 45  7  0  -3111.0  2046004.0 -0.1  2 0 2400 3758 1980
[16]  37(B01) 1f 42 21  0  -1086.7  4092002.8 -0.1  2 0 1206 1462  846
[17]  38(B02) 1f 41 24  0  -1148.0  4092002.9 -0.7  2 0 1260 1487  720
[18]  39(B03)  f 29 34  1  -1000.9  4092002.7 -0.0  2 0  378  251 1433
[19]  40(B04) 1f 41 25  0  -1106.3  4092002.7 -0.4  2 0  928 1441  506
[20]  41(B05)  f 37 23  0  -1123.5  4092002.7  0.4  2 0 1429 1075  621
[21]  42(B06) 1f 40  7  0  -2722.0  4092007.0 -0.0  2 0 1152 1266  547
[22]  43(B07) 1f 36  7  0    459.7  4091998.7 -0.1  2 0  493  874  471
[24]  44(B08) 1f 42  7  0  -1205.6  4092003.0 -0.0  2 0 1440 1882 1115
[25]  46(B10) 1f 40  9  0    583.7  4091998.3  0.0  2 0 1255 1665  756
[26]  47(B11) 1f 39  7  0  -3602.6  4092009.3  0.1  2 0 1382 1990 1002
[27]  48(B12) 1f 43  7  0  -1104.1  4092002.8  0.0  2 0 2290 2696  894
[28]  49(B13) 1f 42  7  0  -1211.2  4092003.1  0.0  2 0 1640 2279 1089
[29]  50(B14) 1f 39  7  0  -4320.0  4092011.2  0.0  2 0  918  970  210
[30]  52(B16) 1f 41  7  0  -2861.7  4092007.3  0.1  2 0 1631 1766 1001
[32]  75(N-6)  f 45  8  0   1022.8  1021999.3  0.0  2 0   965 2044 1055
[33]  78(N-3)  f 47  7  0  -1278.3  1022000.8  0.0  2 0  1767 3590 1616
[34]  79(N-2)  f 42  7  0  -3289.7  1022002.0 -0.0  2 0   489 1290  580
[35]  80(N-1)  f 35  7  0  -2601.5  1022001.6 -0.1  2 0  1472 2304 1175
[36]  84(N03)  f 34  7  0    952.2  1021999.4  0.0  5 0   877 1329  450
[37]  85(N04)  f 35  7  0  -5536.6  1022003.5  0.1  5 0  1196 2150 1058
[48]  37(B01)  1 21 18  1   -688.4 20460020.0  0.1  1 0   81  219  652
[49]  38(B02)  1 17 10  0   -858.0 20460020.6 -0.2  1 0  184  495  358
[51]  40(B04)  1 25 10  1  -1216.4 20460022.2 -0.0  1 0   57  396  567
[52]  41(B05)  1 23 24  1   -925.5 20460018.6 -0.0  1 0  437  144  306
t1:13343.970419,t2:13343.970419
dt:0.000000
Refix G02: 2, 217268.927593, -1647
Refix G05: 2, 217268.929350, -3361
Refix G06: 2, 217268.928277, 18
Refix G09: 2, 217268.923027, -861
Refix G12: 2, 217268.927498, -1315
Refix G17: 2, 217268.924805, 1076
Refix G19: 2, 217268.928666, 631
Refix G25: 2, 217268.919278, -3102
$GNGGA,122051.000,2944.9071,N,10633.0943,E,1,19,0.6,328.7,M,,,,0000*19
$GNRMC,122051.000,A,2944.9071,N,10633.0943,E,0.09,0.00,070519,,*16
$GPGSA,A,3,02,05,06,09,12,17,19,25,,,,,0.8,0.6,0.5*3B
$BDGSA,A,3,01,02,04,06,08,10,11,12,13,14,16,,0.8,0.6,0.5*23
$GLGSA,A,3,,,,,,,,,,,,,0.8,0.6,0.5*25
$GPGSV,3,1,09,02,54,328,44,04,00,000,41,05,50,224,45,06,47,036,44*7C
$GPGSV,3,2,09,09,25,070,40,12,42,283,45,17,32,120,43,19,50,108,44*76
$GPGSV,3,3,09,25,16,313,45*40
$BDGSV,3,1,12,01,39,127,42,02,48,221,41,03,55,171,29,04,23,110,41*65
$BDGSV,3,2,12,05,00,000,37,06,35,152,40,07,00,000,36,08,53,025,42*64
$BDGSV,3,3,12,10,31,204,40,11,17,312,39,12,64,058,43,13,55,335,42*6C
$B3CN0,0,0,0,0,0,0,0,0,0,0,0,0,0,0*4C
---00000014--- Acq_st=3 0  2019-5-7 12:20:51 
[00]  01(G02)  f 44  7  0  -1648.3  2046002.1 -0.0  2 0 2025 3062 1496
[01]  03(G04)  f 41  7  0  -1930.9  2046002.4 -0.0  2 0 1222 2316 1066
[02]  04(G05)  f 45  7  0  -3363.1  2046004.3  0.0  2 0 3603 4658 1997
[03]  05(G06)  f 43 14  0     15.9  2045999.9  0.0  2 0 2053 3307 1667
[04]  08(G09)  f 41  7  0   -863.7  2046001.1  0.0  2 0 1429 1861  766
[05]  11(G12)  f 45  7  0  -1313.8  2046001.7 -0.0  2 0 1915 3918 2388
[06]  16(G17)  f 43  7  0   1074.5  2045998.5  0.0  2 0 1446 2319  865
[08]  18(G19)  f 43 11  0    630.4  2045999.1 -0.1  2 0 2467 3109 1032
[09]  24(G25)  f 44  7  0  -3103.0  2046004.0  0.0  2 0 2001 3589 1927
[16]  37(B01) 1f 43 22  0  -1081.5  4092002.7 -0.4  2 0 1402 1941  698
[17]  38(B02) 1f 38 22  0  -1141.0  4092002.9  0.5  2 0  987 1213  343
[18]  39(B03)  f 28 34  1  -1008.2  4092002.6  0.0  2 0  292  627 1722
[19]  40(B04) 1f 41 18  0  -1099.3  4092002.9 -0.5  2 0  835 1320  612
[20]  41(B05) 1f 38 18  0  -1117.2  4092002.6 -0.7  2 0 1123  923  276
[21]  42(B06) 1f 40  7  0  -2714.5  4092007.0 -0.0  2 0 1351 1613  933
[22]  43(B07) 1f 36  8  0    470.2  4091998.6 -0.3  2 0  863  707  227
[24]  44(B08) 1f 42  7  0  -1190.3  4092003.0  0.0  2 0 1716 2144 1002
[25]  46(B10) 1f 40  7  0    594.0  4091998.3 -0.0  2 0  945 1403  785
[26]  47(B11) 1f 39  7  0  -3602.5  4092009.3 -0.1  2 0  715 1156  679
[27]  48(B12) 1f 44  8  0  -1095.9  4092002.7 -0.0  2 0 1714 2209  744
[28]  49(B13) 1f 43  8  0  -1203.2  4092003.0 -0.0  2 0 1586 1908  597
[29]  50(B14) 1f 39  7  0  -4317.6  4092011.2 -0.1  2 0 1287 1486  457
[30]  52(B16) 1f 41  7  0  -2854.7  4092007.4 -0.1  2 0 1204 1501  265
[32]  75(N-6)  f 45 18  0   1030.7  1021999.3  0.0  2 0  1277 2042 1151
[33]  78(N-3)  f 47  7  0  -1271.5  1022000.8  0.0  2 0  1698 3525 1806
[34]  79(N-2)  f 42  7  0  -3282.0  1022002.0 -0.0  2 0   709 1379  664
[35]  80(N-1)  f 46  7  0  -2592.9  1022001.6 -0.1  2 0  1467 2644 1383
[36]  84(N03)  f 42  7  0    959.5  1021999.3 -0.2  2 0  1155 1775  740
[37]  85(N04)  f 45  7  0  -5526.4  1022003.5  0.1  2 0   856 2054 1030
[48]  37(B01)  1 20 36  1   -783.8 20460020.4 -0.1  1 0  323  321   46
[49]  38(B02)  1 20 10  0  -1111.6 20460020.1  0.1  1 0  321  548  518
[51]  40(B04)  1 22 19  0  -1350.3 20460021.8 -0.1  1 0  253  193  222
[52]  41(B05)  1 23 22  0  -1079.8 20460020.7 -0.1  1 0  394  393  516
[53]  42(B06)  1  7  7  0  -1834.9 20460042.1  0.1  1 0  481  744  605
[54]  43(B07)  1  7  8  0    603.9 20459995.0 -0.1  1 0  560  391  476
[56]  44(B08)  1  7  7  0   -972.8 20460018.0 -0.0  1 0  410  326  263
[57]  46(B10)  1  7  7  0    116.2 20459992.5 -0.2  1 0  443  381  518
[58]  47(B11)  1  7  7  0  -2758.4 20460055.7  0.0  1 0  263  468  352
[59]  48(B12)  1  7  7  0   -944.9 20460012.0 -0.0  1 0  873  494  318
[60]  49(B13)  1  7 10  0  -1142.2 20460018.3  0.1  1 0  490  299  426
[61]  50(B14)  1  7  7  0  -3643.6 20460070.4 -0.0  1 0  536  795  105
[62]  52(B16)  1  8  7  0  -2645.7 20460044.9  0.1  1 0  329  119  353
t1:14343.970387,t2:14343.970387
dt:0.000000
Refix G02: 2, 217269.927595, -1644
Refix G05: 2, 217269.929352, -3358
Refix G06: 2, 217269.928277, 20
Refix G09: 2, 217269.923028, -858
Refix G12: 2, 217269.927499, -1311
Refix G17: 2, 217269.924805, 1078
Refix G19: 2, 217269.928665, 634
Refix G25: 2, 217269.919280, -3099
$GNGGA,122052.000,2944.9071,N,10633.0943,E,1,19,0.6,329.1,M,,,,0000*1D
$GNRMC,122052.000,A,2944.9071,N,10633.0943,E,0.04,0.00,070519,,*18
$GPGSA,A,3,02,05,06,09,12,17,19,25,,,,,0.8,0.6,0.5*3B
$BDGSA,A,3,01,02,04,06,08,10,11,12,13,14,16,,0.8,0.6,0.5*23
$GLGSA,A,3,,,,,,,,,,,,,0.8,0.6,0.5*25
$GPGSV,3,1,09,02,54,328,44,04,00,000,41,05,50,224,45,06,47,036,43*7B
$GPGSV,3,2,09,09,25,070,41,12,42,283,45,17,32,120,43,19,50,108,43*70
$GPGSV,3,3,09,25,16,313,44*41
$BDGSV,3,1,12,01,39,127,43,02,48,221,38,03,55,171,28,04,23,110,41*6B
$BDGSV,3,2,12,05,00,000,38,06,35,152,40,07,00,000,36,08,53,025,42*6B
$BDGSV,3,3,12,10,31,204,40,11,17,312,39,12,64,058,44,13,55,335,43*6A
$B3CN0,0,0,0,0,0,0,0,0,0,0,0,0,0,0*4C
---00000015--- Acq_st=3 0  2019-5-7 12:20:52 
[00]  01(G02)  f 44  7  0  -1648.0  2046002.1  0.0  2 0 1586 2569 1359
[01]  03(G04)  f 41 11  0  -1935.8  2046002.5  0.0  2 0 1487 1855  833
[02]  04(G05)  f 45  7  0  -3365.0  2046004.3 -0.0  2 0 2905 4187 1749
[03]  05(G06)  f 44 12  0     13.3  2045999.9 -0.1  2 0 1919 3041 1565
[04]  08(G09)  f 40  7  0   -859.1  2046001.0 -0.0  2 0 1470 2030  803
[05]  11(G12)  f 45  7  0  -1317.2  2046001.6  0.0  2 0 2391 3615 1354
[06]  16(G17)  f 43  7  0   1074.5  2045998.5 -0.0  2 0 1261 2346 1080
[08]  18(G19)  f 43  7  0    631.3  2045999.0 -0.0  2 0 1125 2219 1495
[09]  24(G25)  f 44  7  0  -3100.7  2046004.0  0.0  2 0 1371 2974 1238
[16]  37(B01) 1f 41 17  0  -1079.5  4092002.7 -0.2  2 0 1550 1916  877
[17]  38(B02) 1f 37 23  0  -1141.7  4092002.9  0.1  2 0 1076 1364  994
[18]  39(B03)  f 22 35  1  -1006.1  4092002.7  0.0  2 0  195  601 1968
[19]  40(B04) 1f 42 20  0  -1102.2  4092002.8  0.0  2 0 1360 1830 1216
[20]  41(B05) 1f 39 26  0  -1116.3  4092002.8 -0.7  2 0 1133 1157   77
[21]  42(B06) 1f 40  7  0  -2716.1  4092007.0  0.1  2 0 1404 1587  286
[22]  43(B07) 1f 36  9  0    473.3  4091998.6  0.1  2 0  239  667  363
[24]  44(B08) 1f 42  7  0  -1193.3  4092003.0  0.0  2 0 1594 2423 1104
[25]  46(B10) 1f 40  7  0    596.0  4091998.3  0.1  2 0 1205 1462 1156
[26]  47(B11) 1f 39  7  0  -3602.0  4092009.3  0.1  2 0 1322 1551  586
[27]  48(B12) 1f 43 10  0  -1094.8  4092002.7  0.1  2 0 1731 2238 1149
[28]  49(B13) 1f 43  7  0  -1205.5  4092003.0  0.0  2 0 1323 1757  803
[29]  50(B14) 1f 39  7  0  -4308.9  4092011.2  0.1  2 0 1038 1345  701
[30]  52(B16) 1f 41  7  0  -2854.5  4092007.4  0.0  2 0 1429 1836  646
[32]  75(N-6)  f 45 22  0   1031.9  1021999.3 -0.0  2 0  1607 2366 1057
[33]  78(N-3)  f 47  7  0  -1271.0  1022000.8 -0.0  2 0  1734 3393 1604
[34]  79(N-2)  f 42  7  0  -3282.4  1022002.0  0.1  2 0   818 1216  588
[35]  80(N-1)  f 45  7  0  -2592.2  1022001.6  0.0  2 0  1343 2382  844
[36]  84(N03)  f 42  7  0    960.7  1021999.4 -0.1  2 0   865 1462  697
[37]  85(N04)  f 44  7  0  -5526.3  1022003.5  0.0  2 0  1449 2097  879
[48]  37(B01)  f 18 10  0   -695.3 20460011.6  0.1  2 0  974  559  398
[49]  38(B02)  1 10 10  1   -992.3 20460017.9 -0.1  1 0  408 1011  722
[52]  41(B05)  1 24 26  1  -1594.1 20460020.9 -0.1  1 0  793  170  346
[53]  42(B06)  1  7  7  0  -2183.4 20460044.7  0.1  1 0  209  279  584
[54]  43(B07)  1  7  7  0    133.2 20459993.9  0.1  1 0  300   42  285
[56]  44(B08)  1  7  7  0  -1240.6 20460019.9 -0.0  1 0  407  529   67
[57]  46(B10)  1  7  7  0   1037.7 20459992.6 -0.2  1 0  867  371  313
[58]  47(B11)  1  7  7  0  -2728.4 20460059.6  0.0  1 0  493  255  239
[59]  48(B12)  1  7  9  0   -852.7 20460014.7 -0.2  1 0  494  777  482
[60]  49(B13)  1  7  7  0  -1358.4 20460019.3 -0.1  1 0  715  455  287
[61]  50(B14)  1  7  7  0  -3695.6 20460071.7 -0.1  1 0  306  148  259
[62]  52(B16)  1  8  9  0  -2992.7 20460043.7 -0.1  1 0  800  538  516
t1:15343.970355,t2:15343.970355
dt:0.000000
Refix G02: 2, 217270.927596, -1652
Refix G05: 2, 217270.929354, -3366
Refix G06: 2, 217270.928277, 12
Refix G09: 2, 217270.923028, -865
Refix G12: 2, 217270.927500, -1319
Refix G17: 2, 217270.924804, 1071
Refix G19: 2, 217270.928665, 626
Refix G25: 2, 217270.919282, -3105
$GNGGA,122053.000,2944.9071,N,10633.0944,E,1,19,0.6,329.3,M,,,,0000*19
$GNRMC,122053.000,A,2944.9071,N,10633.0944,E,0.11,0.00,070519,,*1A
$GPGSA,A,3,02,05,06,09,12,17,19,25,,,,,0.8,0.6,0.5*3B
$BDGSA,A,3,01,02,04,06,08,10,11,12,13,14,16,,0.8,0.6,0.5*23
$GLGSA,A,3,,,,,,,,,,,,,0.8,0.6,0.5*25
$GPGSV,3,1,09,02,54,328,44,04,00,000,41,05,50,224,45,06,47,036,44*7C
$GPGSV,3,2,09,09,25,070,40,12,42,283,45,17,32,120,43,19,50,108,43*71
$GPGSV,3,3,09,25,16,313,44*41
$BDGSV,3,1,12,01,39,127,41,02,48,221,38,03,55,171,23,04,23,110,42*61
$BDGSV,3,2,12,05,00,000,39,06,35,152,40,07,00,000,36,08,53,025,42*6A
$BDGSV,3,3,12,10,31,204,40,11,17,312,39,12,64,058,43,13,55,335,43*6D
$B3CN0,18,0,0,0,0,0,0,0,0,0,0,0,0,0*75
---00000016--- Acq_st=3 0  2019-5-7 12:20:53 
[00]  01(G02)  f 43  9  0  -1656.9  2046002.1 -0.0  2 0 1944 2547 1175
[01]  03(G04)  f 40  7  0  -1942.7  2046002.5  0.0  2 0 1022 1677  749
[02]  04(G05)  f 45  7  0  -3369.7  2046004.3  0.0  2 0 2646 4454 2359
[03]  05(G06)  f 43 13  0      7.9  2045999.9  0.1  2 0 1954 3157 1774
[04]  08(G09)  f 41  7  0   -871.5  2046001.1  0.1  2 0 1439 2242 1133
[05]  11(G12)  f 45  7  0  -1322.5  2046001.6  0.0  2 0 2467 4003 1786
[06]  16(G17)  f 43  8  0   1066.8  2045998.6 -0.1  2 0 1532 3000 1751
[08]  18(G19)  f 43 11  0    621.7  2045999.2 -0.0  2 0 1846 2818 1593
[09]  24(G25)  f 44  7  0  -3109.9  2046004.0 -0.0  2 0 2026 3441 1786
[16]  37(B01) 1f 41 10  0  -1087.9  4092002.8  0.3  2 0  918 1160  133
[17]  38(B02) 1f 41 25  0  -1144.2  4092002.6 -0.3  2 0  724  723  160
[18]  39(B03)  f 23 34  1  -1010.0  4092002.5 -0.0  2 0  354  412 1779
[19]  40(B04) 1f 42 23  0  -1107.6  4092002.7 -0.4  2 0 1206 1352  809
[20]  41(B05) 1f 37 24  0  -1126.4  4092002.8 -0.5  2 0 1544 1524  672
[21]  42(B06) 1f 40  7  0  -2727.5  4092007.0 -0.1  2 0 1087 1357  647
[22]  43(B07) 1f 36  7  0    469.0  4091998.6  0.3  2 0  623  597  155
[24]  44(B08) 1f 42  7  0  -1202.3  4092003.0 -0.0  2 0 1194 1951 1051
[25]  46(B10) 1f 40  8  0    588.8  4091998.4  0.0  2 0 1332 2037 1013
[26]  47(B11) 1f 40  7  0  -3605.9  4092009.4  0.0  2 0  981 1178  605
[27]  48(B12) 1f 43  7  0  -1103.9  4092002.8 -0.0  2 0 2192 2516  774
[28]  49(B13) 1f 43  7  0  -1213.0  4092003.0  0.1  2 0 1455 2018 1019
[29]  50(B14) 1f 39  7  0  -4317.1  4092011.2 -0.1  2 0 1328 1097   69
[30]  52(B16) 1f 41  7  0  -2862.0  4092007.4  0.0  2 0 1167 1410  993
[32]  75(N-6)  f 45 23  0   1026.2  1021999.3  0.0  2 0  1207 2016  938
[33]  78(N-3)  f 46  7  0  -1278.1  1022000.8  0.0  2 0  1821 3248 1543
[34]  79(N-2)  f 42  7  0  -3288.2  1022002.1 -0.1  2 0   794 1436  921
[35]  80(N-1)  f 45  7  0  -2597.9  1022001.6  0.0  2 0  1308 2292 1287
[36]  84(N03)  f 42  7  0    953.5  1021999.4  0.0  2 0   823 1453  949
[37]  85(N04)  f 44  7  0  -5534.5  1022003.5 -0.0  2 0  1144 2275 1216
[48]  37(B01)  f 18 10  1   -984.6 20460014.9 -0.0  2 0  495  266  490
[49]  38(B02)  1 17 17  1  -1430.7 20460028.5  0.1  1 0  322  346  322
[51]  40(B04)  1 23 25  1   -411.2 20460022.6  0.0  1 0  354  390  518
[52]  41(B05)  1 24 25  1  -1754.9 20460025.2  0.1  1 0  729  561  491
[53]  42(B06)  1  7  7  0  -2636.5 20460044.0  0.0  1 0  604  406  457
[54]  43(B07)  1  7  7  0   -503.8 20459995.6 -0.1  1 0  260  365  455
[56]  44(B08)  1  7  7  0   -932.0 20460019.3  0.0  1 0  203  287   71
[57]  46(B10)  1  7  7  0   1095.8 20459992.7  0.2  1 0  731  511  234
[58]  47(B11)  1  7  7  0  -2978.3 20460057.6  0.0  1 0  321  225  290
[59]  48(B12)  1  7  7  0   -908.6 20460012.2  0.1  1 0  262  229  227
[60]  49(B13)  1  7  9  0  -1644.8 20460018.1  0.0  1 0  229  370  118
[61]  50(B14)  1  7  7  0  -3842.7 20460070.5 -0.0  1 0  636  479  404
[62]  52(B16)  1  7  7  0  -3160.3 20460047.2 -0.1  1 0  233  331  283
t1:16343.970323,t2:16343.970323
dt:0.000000
Refix G02: 2, 217271.927597, -1655
Refix G05: 2, 217271.929356, -3368
Refix G06: 2, 217271.928277, 10
Refix G09: 2, 217271.923029, -867
Refix G12: 2, 217271.927501, -1321
Refix G17: 2, 217271.924803, 1069
Refix G19: 2, 217271.928664, 624
Refix G25: 2, 217271.919284, -3107
$GNGGA,122054.000,2944.9071,N,10633.0944,E,1,19,0.6,329.8,M,,,,0000*15
$GNRMC,122054.000,A,2944.9071,N,10633.0944,E,0.03,0.00,070519,,*1E
$GPGSA,A,3,02,05,06,09,12,17,19,25,,,,,0.8,0.6,0.5*3B
$BDGSA,A,3,01,02,04,06,08,10,11,12,13,14,16,,0.8,0.6,0.5*23
$GLGSA,A,3,,,,,,,,,,,,,0.8,0.6,0.5*25
$GPGSV,3,1,09,02,54,328,43,04,00,000,40,05,50,224,45,06,47,036,43*7D
$GPGSV,3,2,09,09,25,070,41,12,42,283,45,17,32,120,43,19,50,108,43*70
$GPGSV,3,3,09,25,16,313,44*41
$BDGSV,3,1,12,01,39,127,41,02,48,221,41,03,55,171,23,04,23,110,42*6F
$BDGSV,3,2,12,05,00,000,37,06,35,152,40,07,00,000,36,08,53,025,42*64
$BDGSV,3,3,12,10,31,204,40,11,17,312,40,12,64,058,43,13,55,335,43*63
$B3CN0,16,0,0,0,0,0,0,0,0,0,0,0,0,0*7B
---00000017--- Acq_st=3 0  2019-5-7 12:20:54 
[00]  01(G02)  f 44 11  0  -1652.2  2046002.1  0.0  2 0 1992 2791 1440
[01]  03(G04)  f 41  7  0  -1935.7  2046002.4  0.0  2 0 1152 1976  727
[02]  04(G05)  f 45  7  0  -3362.7  2046004.3 -0.0  2 0 2571 3761 1716
[03]  05(G06)  f 44  9  0     13.9  2045999.9 -0.0  2 0 1714 3233 1432
[04]  08(G09)  f 41  7  0   -867.1  2046001.0 -0.0  2 0 1247 1859  399
[05]  11(G12)  f 45  7  0  -1315.7  2046001.7  0.0  2 0 2740 4280 2190
[06]  16(G17)  f 43  7  0   1076.6  2045998.6  0.1  2 0 1193 2271 1399
[08]  18(G19)  f 43  7  0    628.8  2045999.1  0.0  2 0 1646 2875 1497
[09]  24(G25)  f 44  7  0  -3104.8  2046004.0 -0.0  2 0 1796 3170 1376
[16]  37(B01) 1f 42 10  0  -1085.3  4092002.7 -0.2  2 0 1246 1778  709
[17]  38(B02) 1f 39 25  0  -1139.6  4092002.8  0.4  2 0 1224 1636  718
[18]  39(B03)  f 13 34  1  -1006.0  4092002.6 -0.0  2 0  426  311 1670
[19]  40(B04) 1f 41 10  0  -1101.6  4092002.9 -0.2  2 0  660 1311  753
[20]  41(B05) 1f 37 22  0  -1122.6  4092002.8 -0.2  2 0  872  611  202
[21]  42(B06) 1f 40  7  0  -2714.2  4092007.0 -0.0  2 0 1768 2116  764
[22]  43(B07) 1f 36  7  0    473.8  4091998.7 -0.1  2 0 1112 1134  340
[24]  44(B08) 1f 42  7  0  -1196.3  4092003.0 -0.0  2 0 1279 1676  785
[25]  46(B10) 1f 40  7  0    592.5  4091998.4 -0.0  2 0  968 1234  731
[26]  47(B11) 1f 39  7  0  -3605.1  4092009.4 -0.1  2 0 1083 1897 1059
[27]  48(B12) 1f 43  7  0  -1098.5  4092002.8  0.0  2 0 2231 2385  835
[28]  49(B13) 1f 43  7  0  -1205.7  4092003.1  0.0  2 0 1805 2550 1563
[29]  50(B14) 1f 39  7  0  -4316.5  4092011.2 -0.0  2 0 1277 1314  277
[30]  52(B16) 1f 41  7  0  -2856.8  4092007.3 -0.1  2 0 1100 1220  708
[32]  75(N-6)  f 45 21  0   1033.5  1021999.3  0.0  2 0   970 2405 1506
[33]  78(N-3)  f 47  7  0  -1272.1  1022000.8  0.0  2 0  1783 3289 1869
[34]  79(N-2)  f 42  7  0  -3285.0  1022002.1  0.1  2 0   906 1565  925
[35]  80(N-1)  f 45  7  0  -2591.6  1022001.6 -0.0  2 0  1234 2573 1119
[36]  84(N03)  f 42  7  0    958.0  1021999.4  0.0  2 0   541 1160  668
[37]  85(N04)  f 44  7  0  -5527.5  1022003.5  0.0  2 0  1385 2127 1000
[48]  37(B01)  f 10 10  0  -1168.3 20460019.2  0.1  2 0  520  331  525
[51]  40(B04)  1 18 17  1   -741.3 20460020.2  0.2  1 0  315  211  294
[53]  42(B06)  1  7  7  0  -2755.1 20460043.5  0.1  1 0  265  363  521
[54]  43(B07)  1  9  8  0    -31.4 20459994.0  0.1  1 0  276  373  106
[56]  44(B08)  1  7  7  0   -716.0 20460019.7  0.1  1 0  360  245  278
[57]  46(B10)  1  7  7  0    721.1 20459992.8  0.0  1 0  364  636  326
[58]  47(B11)  1  7  7  0  -2341.6 20460057.5 -0.1  1 0  420  472  743
[59]  48(B12)  1  7  7  0   -886.8 20460013.2  0.1  1 0  374  579  110
[60]  49(B13)  1  7  7  0  -1662.6 20460017.4 -0.1  1 0  864  531  261
[61]  50(B14)  1  7  7  0  -4305.4 20460071.7  0.2  1 0  673  331  165
[62]  52(B16)  1 11  7  0  -2292.9 20460046.5  0.0  1 0  283  511  430
t1:17343.970290,t2:17343.970290
dt:0.000000
Refix G02: 2, 217272.927598, -1652
Refix G05: 2, 217272.929359, -3366
Refix G06: 2, 217272.928277, 12
Refix G09: 2, 217272.923030, -865
Refix G12: 2, 217272.927501, -1318
Refix G17: 2, 217272.924803, 1071
Refix G19: 2, 217272.928664, 626
Refix G25: 2, 217272.919286, -3105
$GNGGA,122055.000,2944.9070,N,10633.0948,E,1,18,0.7,329.2,M,,,,0000*13
$GNRMC,122055.000,A,2944.9070,N,10633.0948,E,0.28,0.00,070519,,*1B
$GPGSA,A,3,02,05,06,09,12,17,19,25,,,,,0.8,0.7,0.5*3A
$BDGSA,A,3,01,02,04,06,10,11,12,13,14,16,,,0.8,0.7,0.5*2A
$GLGSA,A,3,,,,,,,,,,,,,0.8,0.7,0.5*24
$GPGSV,3,1,09,02,54,328,44,04,00,000,41,05,50,224,45,06,47,036,44*7C
$GPGSV,3,2,09,09,25,070,41,12,42,283,45,17,32,120,43,19,50,108,43*70
$GPGSV,3,3,09,25,16,313,44*41
$BDGSV,3,1,12,01,39,127,42,02,48,221,39,04,23,110,41,05,00,000,37*64
$BDGSV,3,2,12,06,35,152,40,07,00,000,36,08,53,025,42,10,31,204,40*64
$BDGSV,3,3,12,11,17,312,39,12,64,058,43,13,55,335,43,14,18,206,39*6E
$B3CN0,0,0,0,0,0,0,0,0,0,0,0,0,0,0*4C
---00000018--- Acq_st=3 0  2019-5-7 12:20:56 
[00]  01(G02)  f 44 10  0  -1655.5  2046002.1 -0.0  2 0 1894 2888 1258
[01]  03(G04)  f 40  7  0  -1942.5  2046002.5 -0.1  2 0 1373 1840 1005
[02]  04(G05)  f 45  7  0  -3367.0  2046004.3  0.0  2 0 3165 4352 1958
[03]  05(G06)  f 44  9  0     13.1  2045999.9 -0.1  2 0 1362 3338 1773
[04]  08(G09)  f 40  7  0   -865.2  2046001.1  0.1  2 0  970 1827  855
[05]  11(G12)  f 44  7  0  -1322.5  2046001.6 -0.0  2 0 2833 4184 2211
[06]  16(G17)  f 42 11  0   1071.2  2045998.6 -0.0  2 0 1411 2550 1450
[08]  18(G19)  f 43  7  0    624.2  2045999.1  0.0  2 0 1591 2646 1236
[09]  24(G25)  f 44  7  0  -3110.8  2046004.0 -0.1  2 0 2978 3984 1576
[16]  37(B01) 1f 41 13  0  -1088.7  4092002.7  0.5  2 0 1260  886  398
[17]  38(B02) 1f 40 25  0  -1145.0  4092002.9  0.1  2 0 1117 1358  554
[18]  39(B03)  f 10 34  1  -1005.4  4092002.8 -0.0  2 0  485  792 1142
[19]  40(B04) 1f 41 23  0  -1107.8  4092002.8  0.0  2 0 1418 1733  932
[20]  41(B05) 1f 37 22  0  -1122.7  4092002.9 -0.6  2 0 1347 1124  562
[21]  42(B06) 1f 40  7  0  -2727.2  4092007.0  0.0  2 0 1323 1565  789
[22]  43(B07) 1f 36  7  0    468.6  4091998.6  0.2  2 0  826  435   72
[24]  44(B08) 1f 42  7  0  -1205.0  4092003.0 -0.0  2 0 1819 2350  899
[25]  46(B10) 1f 39  8  0    582.7  4091998.4 -0.0  2 0  837 1085  203
[26]  47(B11) 1f 39  7  0  -3611.1  4092009.4  0.0  2 0 1286 1444  670
[27]  48(B12) 1f 43  7  0  -1101.8  4092002.8 -0.0  2 0 2084 2803 1029
[28]  49(B13) 1f 43  7  0  -1213.8  4092003.1  0.0  2 0 1680 2227  975
[29]  50(B14) 1f 39  7  0  -4319.8  4092011.2 -0.3  2 0 1118 1468  865
[30]  52(B16) 1f 41  7  0  -2866.1  4092007.4  0.1  2 0 1342 1458  424
[32]  75(N-6)  f 45 19  0   1026.6  1021999.3  0.0  2 0  1118 1879  841
[33]  78(N-3)  f 48  7  0  -1277.6  1022000.8 -0.0  2 0  1546 3384 1887
[34]  79(N-2)  f 42  7  0  -3288.6  1022002.1 -0.0  2 0   949 1541  713
[35]  80(N-1)  f 45  7  0  -2597.2  1022001.6 -0.0  2 0  1470 2495 1447
[36]  84(N03)  f 42  7  0    955.1  1021999.3  0.0  2 0  1071 1663  801
[37]  85(N04)  f 45  7  0  -5534.7  1022003.5 -0.0  2 0  1296 2065  716
[48]  37(B01)  f 10 10  1  -1277.5 20460021.0 -0.2  2 0  460  954  364
[49]  38(B02)  1 10 10  1   -927.0 20460021.3  0.0  1 0  728  701  493
[50]  39(B03)  1 18 20  0   -819.0 20460017.5 -0.1  1 0  496  191  268
[51]  40(B04)  1 25 23  0   -597.0 20460017.8  0.2  1 0  516  690  492
[52]  41(B05)  1 25 21  1   -911.0 20460018.0  0.0  1 0  997  606  285
[53]  42(B06)  1  7  7  0  -2713.0 20460043.2  0.2  1 0  317  621  562
[54]  43(B07)  1 10 11  0   -336.0 20459992.7  0.1  1 0  267  578  348
[56]  44(B08)  1  7  7  0   -914.1 20460020.0 -0.1  1 0  157  544  239
[57]  46(B10)  1  7  7  0   1351.8 20459990.5 -0.0  1 0  698  580  253
[58]  47(B11)  1  7  7  0  -2555.6 20460058.2 -0.0  1 0  403  406  440
[59]  48(B12)  1  7  7  0   -862.5 20460013.5  0.1  1 0  166  388  492
[60]  49(B13)  1  7  7  0  -1503.4 20460019.1 -0.1  1 0  562  766  890
[61]  50(B14)  1  7  7  0  -3898.2 20460069.9 -0.0  1 0  344  570  579
[62]  52(B16)  1  7  7  0  -2400.1 20460046.3  0.0  1 0  362  781  103
t1:18343.970258,t2:18343.970258
dt:0.000000
Refix G02: 2, 217273.927599, -1657
Refix G05: 2, 217273.929361, -3369
Refix G06: 2, 217273.928277, 7
Refix G09: 2, 217273.923030, -869
Refix G12: 2, 217273.927502, -1322
Refix G17: 2, 217273.924802, 1067
Refix G19: 2, 217273.928663, 622
Refix G25: 2, 217273.919288, -3109
$GNGGA,122056.000,2944.9070,N,10633.0948,E,1,19,0.6,329.1,M,,,,0000*13
$GNRMC,122056.000,A,2944.9070,N,10633.0948,E,0.13,0.00,070519,,*10
$GPGSA,A,3,02,05,06,09,12,17,19,25,,,,,0.8,0.6,0.5*3B
$BDGSA,A,3,01,02,04,06,08,10,11,12,13,14,16,,0.8,0.6,0.5*23
$GLGSA,A,3,,,,,,,,,,,,,0.8,0.6,0.5*25
$GPGSV,3,1,09,02,54,328,44,04,00,000,40,05,50,224,45,06,47,036,44*7D
$GPGSV,3,2,09,09,25,070,40,12,42,283,44,17,32,120,42,19,50,108,43*71
$GPGSV,3,3,09,25,16,313,44*41
$BDGSV,3,1,12,01,39,127,41,02,48,221,40,04,23,110,41,05,00,000,37*69
$BDGSV,3,2,12,06,35,152,40,07,00,000,36,08,53,025,42,10,31,204,39*6A
$BDGSV,3,3,12,11,17,312,39,12,64,058,43,13,55,335,43,14,18,206,39*6E
$B3CN0,0,0,0,0,0,0,0,0,0,0,0,0,0,0*4C
---00000019--- Acq_st=7 0  2019-5-7 12:20:56 
[00]  01(G02)  f 44  9  0  -1654.7  2046002.1 -0.0  2 0 2425 3028 1395
[01]  03(G04)  f 40  7  0  -1941.2  2046002.5 -0.1  2 0  713 1533  733
[02]  04(G05)  f 45  7  0  -3365.6  2046004.3 -0.0  2 0 3523 4821 2083
[03]  05(G06)  f 44 14  0     11.4  2045999.9  0.0  2 0 2456 3506 1606
[04]  08(G09)  f 40  7  0   -865.3  2046001.1 -0.1  2 0 1553 1723  546
[05]  11(G12)  f 45  7  0  -1319.3  2046001.6  0.1  2 0 2202 3761 2080
[06]  16(G17)  f 42  7  0   1072.4  2045998.5  0.1  2 0 1839 2071 1088
[08]  18(G19)  f 43  7  0    624.0  2045999.1  0.0  2 0 1377 2507 1061
[09]  24(G25)  f 45  7  0  -3103.8  2046004.0  0.0  2 0 2083 3684 1361
