SD initialized success
Create debug.log Failed! 3
bbram_blkflag = 1
rtcflag = 128
BBRAM Block OK: 01 EPHflag: 0105093a 0014beaf, rtc 80
GPS 0 Init Dop: 10000,80
GPS 1 Init Dop: 10000,80
GPS 2 Init Dop: 10000,80
GPS 3 Init Dop: 10000,80
GPS 4 Init Dop: 10000,80
GPS 5 Init Dop: 10000,80
GPS 6 Init Dop: 10000,80
GPS 7 Init Dop: 10000,80
GPS 8 Init Dop: 10000,80
GPS 9 Init Dop: 10000,80
GPS10 Init Dop: 10000,80
GPS11 Init Dop: 10000,80
GPS12 Init Dop: 10000,80
GPS13 Init Dop: 10000,80
GPS14 Init Dop: 10000,80
GPS15 Init Dop: 10000,80
GPS16 Init Dop: 10000,80
GPS17 Init Dop: 10000,80
GPS18 Init Dop: 10000,80
GPS19 Init Dop: 10000,80
GPS20 Init Dop: 10000,80
GPS21 Init Dop: 10000,80
GPS22 Init Dop: 10000,80
GPS23 Init Dop: 10000,80
GPS24 Init Dop: 10000,80
GPS25 Init Dop: 10000,80
GPS26 Init Dop: 10000,80
GPS27 Init Dop: 10000,80
GPS28 Init Dop: 10000,80
GPS29 Init Dop: 10000,80
GPS30 Init Dop: 10000,80
GPS31 Init Dop: 10000,80
BDS 0 Init Dop: 10000,80
BDS 1 Init Dop: 10000,80
BDS 2 Init Dop: 10000,80
BDS 3 Init Dop: 10000,80
BDS 4 Init Dop: 10000,80
BDS 5 Init Dop: 10000,80
BDS 6 Init Dop: 10000,80
BDS 7 Init Dop: 10000,80
BDS 8 Init Dop: 10000,80
BDS 9 Init Dop: 10000,80
BDS10 Init Dop: 10000,80
BDS11 Init Dop: 10000,80
BDS12 Init Dop: 10000,80
BDS13 Init Dop: 10000,80
BDS14 Init Dop: 10000,80
BDS15 Init Dop: 10000,80
BDS16 Init Dop: 10000,80
BDS17 Init Dop: 10000,80
BDS18 Init Dop: 10000,80
BDS19 Init Dop: 10000,80
BDS20 Init Dop: 10000,80
BDS21 Init Dop: 10000,80
BDS22 Init Dop: 10000,80
BDS23 Init Dop: 10000,80
BDS24 Init Dop: 10000,80
BDS25 Init Dop: 10000,80
BDS26 Init Dop: 10000,80
BDS27 Init Dop: 10000,80
BDS28 Init Dop: 10000,80
BDS29 Init Dop: 10000,80
BDS30 Init Dop: 10000,80
BDS31 Init Dop: 10000,80
Good luck!
$ini_pos,lastpos_good = 0,ini_pos.x:0.000000,ini_pos.y:nan,ini_pos.z:73439110559787991898147617275119133839268004320936888334291829177903331060632467570991877655305243069011751012925440.000000
$GNGGA,000000.000,,,,,0,00,,,M,,,,0000*2B
$GNRMC,000000.000,A,,,,,,,060180,,*29
$GPGSA,A,1,,,,,,,,,,,,,,,*1E
$BDGSA,A,1,,,,,,,,,,,,,,,*0F
$GLGSA,A,1,,,,,,,,,,,,,,,*02
$B3CN0,0,0,0,0,0,0,0,0,0,0,0,0,0,0*4C
$ini_pos,lastpos_good = 0,ini_pos.x:0.000000,ini_pos.y:nan,ini_pos.z:73439110559787991898147617275119133839268004320936888334291829177903331060632467570991877655305243069011751012925440.000000
$GNGGA,000000.000,,,,,0,00,,,M,,,,0000*2B
$GNRMC,000000.000,A,,,,,,,060180,,*29
$GPGSA,A,1,,,,,,,,,,,,,,,*1E
$BDGSA,A,1,,,,,,,,,,,,,,,*0F
$GLGSA,A,1,,,,,,,,,,,,,,,*02
$B3CN0,0,0,0,0,0,0,0,0,0,0,0,0,0,0*4C
$ini_pos,lastpos_good = 0,ini_pos.x:0.000000,ini_pos.y:nan,ini_pos.z:73439110559787991898147617275119133839268004320936888334291829177903331060632467570991877655305243069011751012925440.000000
$GNGGA,000000.000,,,,,0,00,,,M,,,,0000*2B
$GNRMC,000000.000,A,,,,,,,060180,,*29
$GPGSA,A,1,,,,,,,,,,,,,,,*1E
$BDGSA,A,1,,,,,,,,,,,,,,,*0F
$GLGSA,A,1,,,,,,,,,,,,,,,*02
$GPGSV,1,1,01,03,00,000,20*49
$B3CN0,0,0,0,0,0,0,0,0,0,0,0,0,0,0*4C
$ini_pos,lastpos_good = 0,ini_pos.x:0.000000,ini_pos.y:nan,ini_pos.z:73439110559787991898147617275119133839268004320936888334291829177903331060632467570991877655305243069011751012925440.000000
$GNGGA,000000.000,,,,,0,00,,,M,,,,0000*2B
$GNRMC,000000.000,A,,,,,,,060180,,*29
$GPGSA,A,1,,,,,,,,,,,,,,,*1E
$BDGSA,A,1,,,,,,,,,,,,,,,*0F
$GLGSA,A,1,,,,,,,,,,,,,,,*02
$GPGSV,1,1,03,03,00,000,43,14,00,000,22,16,00,000,18*45
$B3CN0,0,0,0,0,0,0,0,0,0,0,0,0,0,0*4C
$ini_pos,lastpos_good = 0,ini_pos.x:0.000000,ini_pos.y:nan,ini_pos.z:73439110559787991898147617275119133839268004320936888334291829177903331060632467570991877655305243069011751012925440.000000
$GNGGA,000000.000,,,,,0,00,,,M,,,,0000*2B
$GNRMC,000000.000,A,,,,,,,060180,,*29
$GPGSA,A,1,,,,,,,,,,,,,,,*1E
$BDGSA,A,1,,,,,,,,,,,,,,,*0F
$GLGSA,A,1,,,,,,,,,,,,,,,*02
$GPGSV,2,1,05,03,00,000,42,08,00,000,32,14,00,000,38,16,00,000,45*7B
$GPGSV,2,2,05,23,00,000,30*4E
$B3CN0,0,0,0,0,0,0,0,0,0,0,0,0,0,0*4C
tow update,266402389.474457
$ini_pos,lastpos_good = 0,ini_pos.x:0.000000,ini_pos.y:nan,ini_pos.z:73439110559787991898147617275119133839268004320936888334291829177903331060632467570991877655305243069011751012925440.000000
$GNGGA,015944.389,,,,,0,00,,,M,,,,0000*24
$GNRMC,015944.389,A,,,,,,,090180,,*29
$GPGSA,A,1,,,,,,,,,,,,,,,*1E
$BDGSA,A,1,,,,,,,,,,,,,,,*0F
$GLGSA,A,1,,,,,,,,,,,,,,,*02
$GPGSV,2,1,08,03,00,000,42,08,00,000,39,14,00,000,37,16,00,000,44*73
$GPGSV,2,2,08,23,00,000,45,26,00,000,27,27,00,000,26,31,00,000,44*73
$BDGSV,1,1,03,01,00,000,40,04,00,000,40,06,00,000,18*51
$B3CN0,0,0,0,0,0,0,0,0,0,0,0,0,0,0*4C
$ini_pos,lastpos_good = 0,ini_pos.x:0.000000,ini_pos.y:nan,ini_pos.z:73439110559787991898147617275119133839268004320936888334291829177903331060632467570991877655305243069011751012925440.000000
$GNGGA,015945.389,,,,,0,00,,,M,,,,0000*25
$GNRMC,015945.389,A,,,,,,,090180,,*28
$GPGSA,A,1,,,,,,,,,,,,,,,*1E
$BDGSA,A,1,,,,,,,,,,,,,,,*0F
$GLGSA,A,1,,,,,,,,,,,,,,,*02
$GPGSV,2,1,08,03,00,000,43,08,00,000,39,14,00,000,38,16,00,000,44*7D
$GPGSV,2,2,08,23,00,000,44,26,00,000,46,27,00,000,45,31,00,000,44*70
$BDGSV,2,1,06,01,00,000,42,04,00,000,40,06,00,000,42,07,00,000,44*6D
$BDGSV,2,2,06,09,00,000,35,10,00,000,33*60
$B3CN0,0,0,0,0,0,0,0,0,0,0,0,0,0,0*4C
$ini_pos,lastpos_good = 0,ini_pos.x:0.000000,ini_pos.y:nan,ini_pos.z:73439110559787991898147617275119133839268004320936888334291829177903331060632467570991877655305243069011751012925440.000000
$GNGGA,015946.389,,,,,0,00,,,M,,,,0000*26
$GNRMC,015946.389,A,,,,,,,090180,,*2B
$GPGSA,A,1,,,,,,,,,,,,,,,*1E
$BDGSA,A,1,,,,,,,,,,,,,,,*0F
$GLGSA,A,1,,,,,,,,,,,,,,,*02
$GPGSV,2,1,08,03,00,000,43,08,00,000,41,14,00,000,38,16,00,000,44*72
$GPGSV,2,2,08,23,00,000,44,26,00,000,45,27,00,000,44,31,00,000,43*75
$BDGSV,2,1,08,01,00,000,41,04,00,000,40,06,00,000,41,07,00,000,43*64
$BDGSV,2,2,08,09,00,000,44,10,00,000,44,16,00,000,35,19,00,000,25*66
$B3CN0,0,0,0,0,0,0,0,0,0,0,0,0,0,0*4C
$ini_pos,lastpos_good = 0,ini_pos.x:0.000000,ini_pos.y:nan,ini_pos.z:73439110559787991898147617275119133839268004320936888334291829177903331060632467570991877655305243069011751012925440.000000
$GNGGA,015947.389,,,,,0,00,,,M,,,,0000*27
$GNRMC,015947.389,A,,,,,,,090180,,*2A
$GPGSA,A,1,,,,,,,,,,,,,,,*1E
$BDGSA,A,1,,,,,,,,,,,,,,,*0F
$GLGSA,A,1,,,,,,,,,,,,,,,*02
$GPGSV,2,1,08,03,00,000,42,08,00,000,40,14,00,000,38,16,00,000,44*72
$GPGSV,2,2,08,23,00,000,44,26,00,000,44,27,00,000,44,31,00,000,43*74
$BDGSV,3,1,10,01,00,000,41,02,00,000,41,04,00,000,40,06,00,000,42*68
$BDGSV,3,2,10,07,00,000,43,09,00,000,43,10,00,000,43,16,00,000,43*60
$BDGSV,3,3,10,19,00,000,42,27,00,000,17*64
$B3CN0,0,0,0,0,0,0,0,0,0,0,0,0,0,0*4C
$ini_pos,lastpos_good = 0,ini_pos.x:0.000000,ini_pos.y:nan,ini_pos.z:73439110559787991898147617275119133839268004320936888334291829177903331060632467570991877655305243069011751012925440.000000
$GNGGA,015948.389,,,,,0,00,,,M,,,,0000*28
$GNRMC,015948.389,A,,,,,,,080519,,*20
$GPGSA,A,1,,,,,,,,,,,,,,,*1E
$BDGSA,A,1,,,,,,,,,,,,,,,*0F
$GLGSA,A,1,,,,,,,,,,,,,,,*02
$GPGSV,2,1,08,03,00,000,43,08,00,000,40,14,00,000,37,16,00,000,44*7C
$GPGSV,2,2,08,23,00,000,44,26,00,000,44,27,00,000,44,31,00,000,43*74
$BDGSV,3,1,12,01,00,000,41,02,00,000,40,04,00,000,41,06,00,000,42*6A
$BDGSV,3,2,12,07,00,000,43,09,00,000,43,10,00,000,43,16,00,000,42*63
$BDGSV,3,3,12,19,00,000,41,27,00,000,43,28,00,000,43,32,00,000,43*6F
$B3CN0,0,0,0,0,0,0,0,0,0,0,0,0,0,0*4C
$ini_pos,lastpos_good = 0,ini_pos.x:0.000000,ini_pos.y:nan,ini_pos.z:73439110559787991898147617275119133839268004320936888334291829177903331060632467570991877655305243069011751012925440.000000
$GNGGA,015949.389,,,,,0,00,,,M,,,,0000*29
$GNRMC,015949.389,A,,,,,,,080519,,*21
$GPGSA,A,1,,,,,,,,,,,,,,,*1E
$BDGSA,A,1,,,,,,,,,,,,,,,*0F
$GLGSA,A,1,,,,,,,,,,,,,,,*02
$GPGSV,2,1,08,03,00,000,43,08,00,000,40,14,00,000,38,16,00,000,44*73
$GPGSV,2,2,08,23,00,000,44,26,00,000,44,27,00,000,43,31,00,000,43*73
$BDGSV,3,1,12,01,00,000,41,02,00,000,39,04,00,000,41,06,00,000,42*64
$BDGSV,3,2,12,07,00,000,43,09,00,000,43,10,00,000,43,16,00,000,42*63
$BDGSV,3,3,12,19,00,000,41,27,00,000,42,28,00,000,43,32,00,000,42*6F
$B3CN0,0,0,0,0,0,0,0,0,0,0,0,0,0,0*4C
$ini_pos,lastpos_good = 0,ini_pos.x:0.000000,ini_pos.y:nan,ini_pos.z:73439110559787991898147617275119133839268004320936888334291829177903331060632467570991877655305243069011751012925440.000000
$GNGGA,015950.389,,,,,0,00,,,M,,,,0000*21
$GNRMC,015950.389,A,,,,,,,080519,,*29
$GPGSA,A,1,,,,,,,,,,,,,,,*1E
$BDGSA,A,1,,,,,,,,,,,,,,,*0F
$GLGSA,A,1,,,,,,,,,,,,,,,*02
$GPGSV,2,1,08,03,00,000,43,08,00,000,40,14,00,000,37,16,00,000,45*7D
$GPGSV,2,2,08,23,00,000,45,26,00,000,44,27,00,000,44,31,00,000,43*75
$BDGSV,3,1,12,01,00,000,41,02,00,000,41,04,00,000,40,06,00,000,41*69
$BDGSV,3,2,12,07,00,000,44,09,00,000,43,10,00,000,43,16,00,000,43*65
$BDGSV,3,3,12,19,00,000,41,27,00,000,42,28,00,000,43,32,00,000,42*6F
$B3CN0,0,19,0,0,0,0,0,0,0,0,0,0,0,0*74
$ini_pos,lastpos_good = 0,ini_pos.x:0.000000,ini_pos.y:nan,ini_pos.z:73439110559787991898147617275119133839268004320936888334291829177903331060632467570991877655305243069011751012925440.000000
$GNGGA,015951.389,,,,,0,00,,,M,,,,0000*20
$GNRMC,015951.389,A,,,,,,,080519,,*28
$GPGSA,A,1,,,,,,,,,,,,,,,*1E
$BDGSA,A,1,,,,,,,,,,,,,,,*0F
$GLGSA,A,1,,,,,,,,,,,,,,,*02
$GPGSV,3,1,09,03,00,000,43,08,00,000,40,09,00,000,34,14,00,000,38*7A
$GPGSV,3,2,09,16,00,000,45,23,00,000,45,26,00,000,45,27,00,000,44*77
$GPGSV,3,3,09,31,00,000,44*42
$BDGSV,3,1,12,01,00,000,40,02,00,000,40,04,00,000,40,06,00,000,41*69
$BDGSV,3,2,12,07,00,000,43,09,00,000,43,10,00,000,43,16,00,000,43*62
$BDGSV,3,3,12,19,00,000,41,27,00,000,42,28,00,000,43,32,00,000,42*6F
$B3CN0,0,22,0,0,0,0,0,0,19,0,0,0,0,0*44
$ini_pos,lastpos_good = 0,ini_pos.x:0.000000,ini_pos.y:nan,ini_pos.z:73439110559787991898147617275119133839268004320936888334291829177903331060632467570991877655305243069011751012925440.000000
$GNGGA,015952.389,,,,,0,00,,,M,,,,0000*23
$GNRMC,015952.389,A,,,,,,,080519,,*2B
$GPGSA,A,1,,,,,,,,,,,,,,,*1E
$BDGSA,A,1,,,,,,,,,,,,,,,*0F
$GLGSA,A,1,,,,,,,,,,,,,,,*02
$GPGSV,3,1,09,03,00,000,43,08,00,000,41,09,00,000,39,14,00,000,38*76
$GPGSV,3,2,09,16,00,000,44,23,00,000,45,26,00,000,45,27,00,000,45*77
$GPGSV,3,3,09,31,00,000,44*42
$BDGSV,3,1,12,01,00,000,41,02,00,000,39,04,00,000,41,06,00,000,41*67
$BDGSV,3,2,12,07,00,000,43,09,00,000,43,10,00,000,43,16,00,000,43*62
$BDGSV,3,3,12,19,00,000,41,27,00,000,42,28,00,000,43,32,00,000,42*6F
$B3CN0,18,0,0,0,0,0,0,0,21,0,0,0,0,0*46
$ini_pos,lastpos_good = 0,ini_pos.x:0.000000,ini_pos.y:nan,ini_pos.z:73439110559787991898147617275119133839268004320936888334291829177903331060632467570991877655305243069011751012925440.000000
$GNGGA,015953.389,,,,,0,00,,,M,,,,0000*22
$GNRMC,015953.389,A,,,,,,,080519,,*2A
$GPGSA,A,1,,,,,,,,,,,,,,,*1E
$BDGSA,A,1,,,,,,,,,,,,,,,*0F
$GLGSA,A,1,,,,,,,,,,,,,,,*02
$GPGSV,3,1,09,03,00,000,43,08,00,000,40,09,00,000,39,14,00,000,37*78
$GPGSV,3,2,09,16,00,000,45,23,00,000,45,26,00,000,45,27,00,000,44*77
$GPGSV,3,3,09,31,00,000,43*45
$BDGSV,3,1,12,01,00,000,41,02,00,000,39,04,00,000,42,06,00,000,41*64
$BDGSV,3,2,12,07,00,000,43,09,00,000,43,10,00,000,44,16,00,000,43*65
$BDGSV,3,3,12,19,00,000,41,27,00,000,42,28,00,000,43,32,00,000,42*6F
$B3CN0,22,19,0,0,0,0,0,0,0,0,0,0,0,0*44
$ini_pos,lastpos_good = 0,ini_pos.x:0.000000,ini_pos.y:nan,ini_pos.z:73439110559787991898147617275119133839268004320936888334291829177903331060632467570991877655305243069011751012925440.000000
$GNGGA,015954.389,,,,,0,00,,,M,,,,0000*25
$GNRMC,015954.389,A,,,,,,,080519,,*2D
$GPGSA,A,1,,,,,,,,,,,,,,,*1E
$BDGSA,A,1,,,,,,,,,,,,,,,*0F
$GLGSA,A,1,,,,,,,,,,,,,,,*02
$GPGSV,3,1,09,03,00,000,43,08,00,000,40,09,00,000,40,14,00,000,38*79
$GPGSV,3,2,09,16,00,000,45,23,00,000,45,26,00,000,44,27,00,000,45*77
$GPGSV,3,3,09,31,00,000,43*45
$BDGSV,3,1,12,01,00,000,41,02,00,000,40,04,00,000,40,06,00,000,42*6B
$BDGSV,3,2,12,07,00,000,43,09,00,000,43,10,00,000,44,16,00,000,44*62
$BDGSV,3,3,12,19,00,000,41,27,00,000,42,28,00,000,43,32,00,000,41*6C
$B3CN0,22,0,0,0,0,0,0,0,0,0,0,0,0,0*7C
$ini_pos,lastpos_good = 0,ini_pos.x:0.000000,ini_pos.y:nan,ini_pos.z:73439110559787991898147617275119133839268004320936888334291829177903331060632467570991877655305243069011751012925440.000000
$GNGGA,015955.389,,,,,0,00,,,M,,,,0000*24
$GNRMC,015955.389,A,,,,,,,080519,,*2C
$GPGSA,A,1,,,,,,,,,,,,,,,*1E
$BDGSA,A,1,,,,,,,,,,,,,,,*0F
$GLGSA,A,1,,,,,,,,,,,,,,,*02
$GPGSV,3,1,09,03,00,000,43,08,00,000,40,09,00,000,39,14,00,000,38*77
$GPGSV,3,2,09,16,00,000,44,23,00,000,45,26,00,000,44,27,00,000,45*76
$GPGSV,3,3,09,31,00,000,44*42
$BDGSV,3,1,12,01,00,000,40,02,00,000,41,04,00,000,41,06,00,000,42*6A
$BDGSV,3,2,12,07,00,000,43,09,00,000,43,10,00,000,44,16,00,000,43*65
$BDGSV,3,3,12,19,00,000,42,27,00,000,42,28,00,000,43,32,00,000,42*6C
$B3CN0,0,0,0,0,0,0,0,0,0,0,0,0,0,0*4C
$ini_pos,lastpos_good = 0,ini_pos.x:0.000000,ini_pos.y:nan,ini_pos.z:73439110559787991898147617275119133839268004320936888334291829177903331060632467570991877655305243069011751012925440.000000
$GNGGA,015956.389,,,,,0,00,,,M,,,,0000*27
$GNRMC,015956.389,A,,,,,,,080519,,*2F
$GPGSA,A,1,,,,,,,,,,,,,,,*1E
$BDGSA,A,1,,,,,,,,,,,,,,,*0F
$GLGSA,A,1,,,,,,,,,,,,,,,*02
$GPGSV,3,1,09,03,00,000,43,08,00,000,40,09,00,000,39,14,00,000,39*76
$GPGSV,3,2,09,16,00,000,44,23,00,000,44,26,00,000,45,27,00,000,44*77
$GPGSV,3,3,09,31,00,000,43*45
$BDGSV,3,1,12,01,00,000,40,02,00,000,40,04,00,000,40,06,00,000,42*6A
$BDGSV,3,2,12,07,00,000,43,09,00,000,43,10,00,000,43,16,00,000,43*62
$BDGSV,3,3,12,19,00,000,41,27,00,000,42,28,00,000,43,32,00,000,42*6F
$B3CN0,0,0,0,0,0,0,0,0,0,0,0,0,0,0*4C
$ini_pos,lastpos_good = 0,ini_pos.x:0.000000,ini_pos.y:nan,ini_pos.z:73439110559787991898147617275119133839268004320936888334291829177903331060632467570991877655305243069011751012925440.000000
$GNGGA,015957.389,,,,,0,00,,,M,,,,0000*26
$GNRMC,015957.389,A,,,,,,,080519,,*2E
$GPGSA,A,1,,,,,,,,,,,,,,,*1E
$BDGSA,A,1,,,,,,,,,,,,,,,*0F
$GLGSA,A,1,,,,,,,,,,,,,,,*02
$GPGSV,3,1,09,03,00,000,43,08,00,000,40,09,00,000,39,14,00,000,39*76
$GPGSV,3,2,09,16,00,000,44,23,00,000,44,26,00,000,45,27,00,000,45*76
$GPGSV,3,3,09,31,00,000,43*45
$BDGSV,3,1,12,01,00,000,40,02,00,000,41,04,00,000,41,06,00,000,41*69
$BDGSV,3,2,12,07,00,000,43,09,00,000,43,10,00,000,44,16,00,000,43*65
$BDGSV,3,3,12,19,00,000,41,27,00,000,42,28,00,000,43,32,00,000,42*6F
$B3CN0,0,0,0,0,0,0,0,0,0,0,0,0,0,0*4C
$ini_pos,lastpos_good = 0,ini_pos.x:0.000000,ini_pos.y:nan,ini_pos.z:73439110559787991898147617275119133839268004320936888334291829177903331060632467570991877655305243069011751012925440.000000
$GNGGA,015958.389,,,,,0,00,,,M,,,,0000*29
$GNRMC,015958.389,A,,,,,,,080519,,*21
$GPGSA,A,1,,,,,,,,,,,,,,,*1E
$BDGSA,A,1,,,,,,,,,,,,,,,*0F
$GLGSA,A,1,,,,,,,,,,,,,,,*02
$GPGSV,3,1,09,03,00,000,43,08,00,000,40,09,00,000,39,14,00,000,38*77
$GPGSV,3,2,09,16,00,000,45,23,00,000,44,26,00,000,45,27,00,000,44*76
$GPGSV,3,3,09,31,00,000,43*45
$BDGSV,3,1,12,01,00,000,40,02,00,000,41,04,00,000,40,06,00,000,41*68
$BDGSV,3,2,12,07,00,000,43,09,00,000,43,10,00,000,44,16,00,000,43*65
$BDGSV,3,3,12,19,00,000,41,27,00,000,42,28,00,000,43,32,00,000,42*6F
$B3CN0,0,0,0,0,0,0,0,0,0,0,0,0,0,0*4C
$ini_pos,lastpos_good = 0,ini_pos.x:0.000000,ini_pos.y:nan,ini_pos.z:73439110559787991898147617275119133839268004320936888334291829177903331060632467570991877655305243069011751012925440.000000
$GNGGA,015959.389,,,,,0,00,,,M,,,,0000*28
$GNRMC,015959.389,A,,,,,,,080519,,*20
$GPGSA,A,1,,,,,,,,,,,,,,,*1E
$BDGSA,A,1,,,,,,,,,,,,,,,*0F
$GLGSA,A,1,,,,,,,,,,,,,,,*02
$GPGSV,3,1,09,03,00,000,43,08,00,000,41,09,00,000,39,14,00,000,38*76
$GPGSV,3,2,09,16,00,000,44,23,00,000,44,26,00,000,44,27,00,000,44*76
$GPGSV,3,3,09,31,00,000,43*45
$BDGSV,3,1,12,01,00,000,41,02,00,000,41,04,00,000,41,06,00,000,41*68
$BDGSV,3,2,12,07,00,000,43,09,00,000,43,10,00,000,43,16,00,000,43*62
$BDGSV,3,3,12,19,00,000,41,27,00,000,42,28,00,000,43,32,00,000,42*6F
$B3CN0,0,0,0,0,0,0,0,0,0,0,0,0,0,0*4C
$ini_pos,lastpos_good = 0,ini_pos.x:0.000000,ini_pos.y:nan,ini_pos.z:73439110559787991898147617275119133839268004320936888334291829177903331060632467570991877655305243069011751012925440.000000
$GNGGA,020000.257,2944.9115,N,10633.0949,E,1,05,2.8,313.8,M,,,,0000*11
$GNRMC,020000.257,A,2944.9115,N,10633.0949,E,0.70,0.00,080519,,*19
$GPGSA,A,3,03,08,14,16,23,,,,,,,,5.9,2.8,5.2*3B
$BDGSA,A,3,,,,,,,,,,,,,5.9,2.8,5.2*22
$GLGSA,A,3,,,,,,,,,,,,,5.9,2.8,5.2*2F
$GPGSV,3,1,09,03,00,000,43,08,00,000,40,09,00,000,40,14,00,000,38*79
$GPGSV,3,2,09,16,00,000,44,23,00,000,44,26,00,000,45,27,00,000,43*70
$GPGSV,3,3,09,31,00,000,44*42
$BDGSV,3,1,12,01,00,000,41,02,00,000,40,23,00,000,30,04,00,000,41*68
$BDGSV,3,2,12,06,00,000,42,07,00,000,43,09,00,000,43,10,00,000,43*62
$BDGSV,3,3,12,16,00,000,43,19,00,000,41,27,00,000,42,28,00,000,43*68
$B3CN0,0,0,0,0,0,0,0,0,0,0,0,0,0,0*4C
$ini_pos,lastpos_good = 1,ini_pos.x:-1578914.269113,ini_pos.y:5312756.686391,ini_pos.z:3146357.525694
Refix G03: 2, 266419.921257, 1160
Refix G08: 2, 266419.922100, -4812
Refix G14: 2, 266419.920631, 2282
Refix G16: 2, 266419.932608, -245
Refix G23: 2, 266419.928381, -3205
$GNGGA,020002.000,2944.9107,N,10633.0949,E,1,05,2.8,315.9,M,,,,0000*17
$GNRMC,020002.000,A,2944.9107,N,10633.0949,E,0.49,0.00,080519,,*12
$GPGSA,A,3,03,08,14,16,23,,,,,,,,5.9,2.8,5.2*3B
$BDGSA,A,3,,,,,,,,,,,,,5.9,2.8,5.2*22
$GLGSA,A,3,,,,,,,,,,,,,5.9,2.8,5.2*2F
$GPGSV,3,1,09,03,00,000,43,08,00,000,40,09,00,000,39,14,00,000,38*77
$GPGSV,3,2,09,16,00,000,44,23,00,000,44,26,00,000,44,27,00,000,44*76
$GPGSV,3,3,09,31,00,000,43*45
$BDGSV,3,1,12,01,00,000,41,02,00,000,41,23,00,000,42,04,00,000,40*6D
$BDGSV,3,2,12,06,00,000,41,07,00,000,44,09,00,000,43,10,00,000,43*66
$BDGSV,3,3,12,16,00,000,43,19,00,000,42,27,00,000,42,28,00,000,43*6B
$B3CN0,0,0,0,0,0,0,0,0,0,0,0,0,0,0*4C
$ini_pos,lastpos_good = 1,ini_pos.x:-1578914.864781,ini_pos.y:5312759.136638,ini_pos.z:3146357.307593
Refix G03: 2, 266420.921256, 1159
Refix G08: 2, 266420.922103, -4813
Refix G14: 2, 266420.920629, 2280
Refix G16: 2, 266420.932608, -245
Refix G23: 2, 266420.928383, -3205
$GNGGA,020003.000,2944.9110,N,10633.0951,E,1,05,2.8,315.0,M,,,,0000*10
$GNRMC,020003.000,A,2944.9110,N,10633.0951,E,0.48,0.00,080519,,*1D
$GPGSA,A,3,03,08,14,16,23,,,,,,,,5.9,2.8,5.2*3B
$BDGSA,A,3,,,,,,,,,,,,,5.9,2.8,5.2*22
$GLGSA,A,3,,,,,,,,,,,,,5.9,2.8,5.2*2F
$GPGSV,3,1,09,03,20,235,42,08,22,188,40,09,00,000,40,14,16,145,38*78
$GPGSV,3,2,09,16,70,346,44,23,51,306,44,26,00,000,44,27,00,000,44*71
$GPGSV,3,3,09,31,00,000,43*45
$BDGSV,3,1,12,01,00,000,41,02,00,000,41,23,00,000,42,04,00,000,40*6D
$BDGSV,3,2,12,06,00,000,41,07,00,000,43,09,00,000,43,10,00,000,43*61
$BDGSV,3,3,12,16,00,000,43,19,00,000,41,27,00,000,42,28,00,000,43*68
$B3CN0,0,0,0,0,0,0,0,0,0,0,0,0,0,0*4C
$ini_pos,lastpos_good = 1,ini_pos.x:-1578915.007818,ini_pos.y:5312758.032519,ini_pos.z:3146357.376060
Refix G03: 2, 266421.921255, 1162
Refix G08: 2, 266421.922106, -4810
Refix G14: 2, 266421.920628, 2281
Refix G16: 2, 266421.932608, -243
Refix G23: 2, 266421.928385, -3203
$GNGGA,020004.000,2944.9113,N,10633.0952,E,1,05,2.8,314.5,M,,,,0000*13
$GNRMC,020004.000,A,2944.9113,N,10633.0952,E,0.56,0.00,080519,,*15
$GPGSA,A,3,03,08,14,16,23,,,,,,,,5.9,2.8,5.2*3B
$BDGSA,A,3,,,,,,,,,,,,,5.9,2.8,5.2*22
$GLGSA,A,3,,,,,,,,,,,,,5.9,2.8,5.2*2F
$GPGSV,3,1,09,03,20,235,43,08,22,188,40,09,00,000,40,14,16,145,37*76
$GPGSV,3,2,09,16,70,346,44,23,51,306,44,26,00,000,44,27,00,000,44*71
$GPGSV,3,3,09,31,00,000,43*45
$BDGSV,3,1,12,01,00,000,40,02,00,000,41,23,00,000,42,04,00,000,40*6C
$BDGSV,3,2,12,06,00,000,41,07,00,000,43,09,00,000,43,10,00,000,42*60
$BDGSV,3,3,12,16,00,000,43,19,00,000,41,27,00,000,42,28,00,000,43*68
$B3CN0,0,0,0,0,0,0,0,0,0,0,0,0,0,0*4C
$ini_pos,lastpos_good = 1,ini_pos.x:-1578914.859119,ini_pos.y:5312757.361181,ini_pos.z:3146357.569791
Refix G03: 2, 266422.921254, 1160
Refix G08: 2, 266422.922109, -4811
Refix G14: 2, 266422.920626, 2281
Refix G16: 2, 266422.932608, -244
Refix G23: 2, 266422.928387, -3205
$GNGGA,020005.000,2944.9118,N,10633.0953,E,1,05,2.8,313.1,M,,,,0000*1B
$GNRMC,020005.000,A,2944.9118,N,10633.0953,E,0.66,0.00,080519,,*1D
$GPGSA,A,3,03,08,14,16,23,,,,,,,,5.9,2.8,5.2*3B
$BDGSA,A,3,,,,,,,,,,,,,5.9,2.8,5.2*22
$GLGSA,A,3,,,,,,,,,,,,,5.9,2.8,5.2*2F
$GPGSV,3,1,09,03,20,235,43,08,22,188,40,09,00,000,40,14,16,145,38*79
$GPGSV,3,2,09,16,70,346,44,23,51,306,44,26,00,000,45,27,00,000,43*77
$GPGSV,3,3,09,31,00,000,43*45
$BDGSV,3,1,12,01,00,000,41,02,00,000,41,23,00,000,41,04,00,000,41*6F
$BDGSV,3,2,12,06,00,000,42,07,00,000,43,09,00,000,43,10,00,000,43*62
$BDGSV,3,3,12,16,00,000,43,19,00,000,41,27,00,000,42,28,00,000,43*68
$B3CN0,0,0,0,0,0,0,0,0,0,0,0,0,0,0*4C
$ini_pos,lastpos_good = 1,ini_pos.x:-1578914.570244,ini_pos.y:5312755.743388,ini_pos.z:3146357.651849
Refix G03: 2, 266423.921254, 1162
Refix G08: 2, 266423.922112, -4810
Refix G14: 2, 266423.920625, 2282
Refix G16: 2, 266423.932608, -242
Refix G23: 2, 266423.928389, -3203
$GNGGA,020006.000,2944.9121,N,10633.0954,E,1,05,2.8,312.3,M,,,,0000*16
$GNRMC,020006.000,A,2944.9121,N,10633.0954,E,1.01,0.00,080519,,*13
$GPGSA,A,3,03,08,14,16,23,,,,,,,,5.9,2.8,5.2*3B
$BDGSA,A,3,,,,,,,,,,,,,5.9,2.8,5.2*22
$GLGSA,A,3,,,,,,,,,,,,,5.9,2.8,5.2*2F
$GPGSV,3,1,09,03,20,235,42,08,22,188,40,09,00,000,40,14,16,145,38*78
$GPGSV,3,2,09,16,70,346,44,23,51,306,44,26,00,000,44,27,00,000,43*76
$GPGSV,3,3,09,31,00,000,43*45
$BDGSV,3,1,12,01,00,000,41,02,00,000,40,23,00,000,41,04,00,000,41*6E
$BDGSV,3,2,12,06,00,000,41,07,00,000,43,09,00,000,43,10,00,000,43*61
$BDGSV,3,3,12,16,00,000,43,19,00,000,41,27,00,000,42,28,00,000,43*68
$B3CN0,0,0,0,0,0,0,0,0,0,0,0,0,0,0*4C
$ini_pos,lastpos_good = 1,ini_pos.x:-1578914.511064,ini_pos.y:5312754.712969,ini_pos.z:3146357.810101
Refix G03: 2, 266424.921253, 1161
Refix G08: 2, 266424.922115, -4811
Refix G14: 2, 266424.920623, 2281
Refix G16: 2, 266424.932608, -243
Refix G23: 2, 266424.928391, -3203
$GNGGA,020007.000,2944.9123,N,10633.0956,E,1,05,2.8,311.8,M,,,,0000*1F
$GNRMC,020007.000,A,2944.9123,N,10633.0956,E,0.77,0.00,080519,,*12
$GPGSA,A,3,03,08,14,16,23,,,,,,,,5.9,2.8,5.2*3B
$BDGSA,A,3,,,,,,,,,,,,,5.9,2.8,5.2*22
$GLGSA,A,3,,,,,,,,,,,,,5.9,2.8,5.2*2F
$GPGSV,3,1,09,03,20,235,43,08,22,188,40,09,00,000,40,14,16,145,38*79
$GPGSV,3,2,09,16,70,346,45,23,51,306,45,26,00,000,44,27,00,000,44*71
$GPGSV,3,3,09,31,00,000,43*45
$BDGSV,3,1,12,01,00,000,41,02,00,000,41,23,00,000,41,04,00,000,40*6E
$BDGSV,3,2,12,06,00,000,41,07,00,000,43,09,00,000,43,10,00,000,43*61
$BDGSV,3,3,12,16,00,000,43,19,00,000,41,27,00,000,42,28,00,000,43*68
$B3CN0,0,0,0,0,0,0,0,0,0,0,0,0,0,0*4C
$ini_pos,lastpos_good = 1,ini_pos.x:-1578914.585312,ini_pos.y:5312753.997508,ini_pos.z:3146357.801093
Refix G03: 2, 266425.921252, 1164
Refix G08: 2, 266425.922118, -4808
Refix G14: 2, 266425.920622, 2283
Refix G16: 2, 266425.932608, -240
Refix G23: 2, 266425.928393, -3200
$GNGGA,020008.000,2944.9123,N,10633.0958,E,1,05,2.8,312.0,M,,,,0000*15
$GNRMC,020008.000,A,2944.9123,N,10633.0958,E,1.12,0.00,080519,,*11
$GPGSA,A,3,03,08,14,16,23,,,,,,,,5.9,2.8,5.2*3B
$BDGSA,A,3,,,,,,,,,,,,,5.9,2.8,5.2*22
$GLGSA,A,3,,,,,,,,,,,,,5.9,2.8,5.2*2F
$GPGSV,3,1,09,03,20,235,43,08,22,188,41,09,00,000,39,14,16,145,38*76
$GPGSV,3,2,09,16,70,346,44,23,51,306,44,26,00,000,45,27,00,000,44*70
$GPGSV,3,3,09,31,00,000,44*42
$BDGSV,3,1,12,01,00,000,41,02,00,000,40,23,00,000,41,04,00,000,40*6F
$BDGSV,3,2,12,06,00,000,41,07,00,000,44,09,00,000,43,10,00,000,43*66
$BDGSV,3,3,12,16,00,000,43,19,00,000,41,27,00,000,42,28,00,000,43*68
$B3CN0,0,18,0,0,0,0,0,0,0,0,0,0,0,0*75
$ini_pos,lastpos_good = 1,ini_pos.x:-1578914.897002,ini_pos.y:5312754.197470,ini_pos.z:3146357.871717
Refix G03: 2, 266426.921251, 1164
Refix G08: 2, 266426.922121, -4809
Refix G14: 2, 266426.920620, 2283
Refix G16: 2, 266426.932608, -239
Refix G23: 2, 266426.928395, -3200
$GNGGA,020009.000,2944.9122,N,10633.0959,E,1,05,2.8,312.3,M,,,,0000*17
$GNRMC,020009.000,A,2944.9122,N,10633.0959,E,0.81,0.00,080519,,*1B
$GPGSA,A,3,03,08,14,16,23,,,,,,,,5.9,2.8,5.2*3B
$BDGSA,A,3,,,,,,,,,,,,,5.9,2.8,5.2*22
$GLGSA,A,3,,,,,,,,,,,,,5.9,2.8,5.2*2F
$GPGSV,3,1,09,03,20,235,43,08,22,188,40,09,00,000,39,14,16,145,38*77
$GPGSV,3,2,09,16,70,346,45,23,51,306,44,26,00,000,44,27,00,000,45*71
$GPGSV,3,3,09,31,00,000,44*42
$BDGSV,3,1,12,01,00,000,41,02,00,000,40,23,00,000,41,04,00,000,40*6F
$BDGSV,3,2,12,06,00,000,42,07,00,000,43,09,00,000,43,10,00,000,44*65
$BDGSV,3,3,12,16,00,000,43,19,00,000,41,27,00,000,42,28,00,000,43*68
$B3CN0,0,0,0,0,0,0,0,0,0,0,0,0,0,0*4C
$GLGSV,2,1,05,08,00,000,46,07,00,000,47,20,00,000,36,09,00,000,46*61
$GLGSV,2,2,05,26,00,000,44*54
$ini_pos,lastpos_good = 1,ini_pos.x:-1578915.224195,ini_pos.y:5312754.455417,ini_pos.z:3146357.876138
Refix G03: 2, 266427.921251, 1161
Refix G08: 2, 266427.922124, -4812
Refix G14: 2, 266427.920619, 2281
Refix G16: 2, 266427.932609, -242
Refix G23: 2, 266427.928397, -3202
$GNGGA,020010.000,2944.9122,N,10633.0961,E,1,05,2.8,312.1,M,,,,0000*16
$GNRMC,020010.000,A,2944.9122,N,10633.0961,E,0.68,0.00,080519,,*1F
$GPGSA,A,3,03,08,14,16,23,,,,,,,,5.9,2.8,5.2*3B
$BDGSA,A,3,,,,,,,,,,,,,5.9,2.8,5.2*22
$GLGSA,A,3,,,,,,,,,,,,,5.9,2.8,5.2*2F
$GPGSV,3,1,09,03,20,235,43,08,22,188,40,09,00,000,40,14,16,145,38*79
$GPGSV,3,2,09,16,70,346,45,23,51,306,44,26,00,000,45,27,00,000,44*71
$GPGSV,3,3,09,31,00,000,44*42
$BDGSV,3,1,12,01,00,000,41,02,00,000,40,23,00,000,41,04,00,000,40*6F
$BDGSV,3,2,12,06,00,000,41,07,00,000,44,09,00,000,44,10,00,000,43*61
$BDGSV,3,3,12,16,00,000,43,19,00,000,41,27,00,000,42,28,00,000,43*68
$B3CN0,0,0,0,0,0,0,0,0,0,0,0,0,0,0*4C
$GLGSV,2,1,05,08,40,300,47,07,45,224,47,20,22,137,36,09,42,018,46*68
$GLGSV,2,2,05,26,00,000,44*54
$ini_pos,lastpos_good = 1,ini_pos.x:-1578915.447635,ini_pos.y:5312754.169928,ini_pos.z:3146357.816551
Refix G03: 2, 266428.921250, 1162
Refix G08: 2, 266428.922127, -4811
Refix G14: 2, 266428.920617, 2282
Refix G16: 2, 266428.932609, -241
Refix G23: 2, 266428.928399, -3201
$GNGGA,020011.000,2944.9111,N,10633.0954,E,1,09,2.8,315.8,M,,,,0000*13
$GNRMC,020011.000,A,2944.9111,N,10633.0954,E,0.51,0.00,080519,,*12
$GPGSA,A,3,03,08,14,16,23,,,,,,,,5.9,2.8,5.2*3B
$BDGSA,A,3,,,,,,,,,,,,,5.9,2.8,5.2*22
$GLGSA,A,3,07,08,09,20,,,,,,,,,5.9,2.8,5.2*2B
$GPGSV,3,1,09,03,20,235,43,08,22,188,40,09,00,000,40,14,16,145,38*79
$GPGSV,3,2,09,16,70,346,45,23,51,306,44,26,00,000,45,27,00,000,44*71
$GPGSV,3,3,09,31,00,000,44*42
$BDGSV,3,1,12,01,00,000,41,02,00,000,40,23,00,000,41,04,00,000,41*6E
$BDGSV,3,2,12,06,00,000,41,07,00,000,43,09,00,000,43,10,00,000,43*61
$BDGSV,3,3,12,16,00,000,43,19,00,000,41,27,00,000,42,28,00,000,43*68
$B3CN0,0,0,0,0,0,0,0,0,0,0,0,0,0,0*4C
$GLGSV,2,1,05,08,40,300,47,07,45,224,47,20,22,137,36,09,42,018,46*68
$GLGSV,2,2,05,26,00,000,44*54
$ini_pos,lastpos_good = 1,ini_pos.x:-1578915.564476,ini_pos.y:5312758.565824,ini_pos.z:3146357.882892
Refix G03: 2, 266429.921249, 1161
Refix G08: 2, 266429.922130, -4811
Refix G14: 2, 266429.920616, 2282
Refix G16: 2, 266429.932609, -242
Refix G23: 2, 266429.928401, -3202
$GNGGA,020012.000,2944.9098,N,10633.0954,E,1,09,1.0,319.8,M,,,,0000*17
$GNRMC,020012.000,A,2944.9098,N,10633.0954,E,0.26,0.00,080519,,*11
$GPGSA,A,3,03,08,14,16,23,,,,,,,,1.3,1.0,0.8*31
$BDGSA,A,3,,,,,,,,,,,,,1.3,1.0,0.8*28
$GLGSA,A,3,07,08,09,20,,,,,,,,,1.3,1.0,0.8*21
$GPGSV,3,1,09,03,20,235,43,08,22,188,40,09,00,000,40,14,16,145,38*79
$GPGSV,3,2,09,16,70,346,45,23,51,306,45,26,00,000,45,27,00,000,44*70
$GPGSV,3,3,09,31,00,000,43*45
$BDGSV,3,1,12,01,00,000,41,02,00,000,40,23,00,000,41,04,00,000,40*6F
$BDGSV,3,2,12,06,00,000,42,07,00,000,44,09,00,000,43,10,00,000,43*65
$BDGSV,3,3,12,16,00,000,43,19,00,000,41,27,00,000,42,28,00,000,43*68
$B3CN0,0,0,0,0,0,0,0,0,0,0,0,0,0,0*4C
$GLGSV,2,1,05,08,40,300,47,07,45,224,47,20,22,137,35,09,42,018,46*6B
$GLGSV,2,2,05,26,00,000,44*54
$ini_pos,lastpos_good = 1,ini_pos.x:-1578916.835950,ini_pos.y:5312762.994338,ini_pos.z:3146357.787402
Refix G03: 2, 266430.921248, 1160
Refix G08: 2, 266430.922133, -4812
Refix G14: 2, 266430.920615, 2282
Refix G16: 2, 266430.932609, -241
Refix G23: 2, 266430.928403, -3202
$GNGGA,020013.000,2944.9092,N,10633.0955,E,1,09,1.0,321.1,M,,,,0000*1F
$GNRMC,020013.000,A,2944.9092,N,10633.0955,E,0.35,0.00,080519,,*19
$GPGSA,A,3,03,08,14,16,23,,,,,,,,1.3,1.0,0.8*31
$BDGSA,A,3,,,,,,,,,,,,,1.3,1.0,0.8*28
$GLGSA,A,3,07,08,09,20,,,,,,,,,1.3,1.0,0.8*21
$GPGSV,3,1,09,03,20,235,43,08,22,188,40,09,00,000,40,14,16,145,38*79
$GPGSV,3,2,09,16,70,346,44,23,51,306,45,26,00,000,44,27,00,000,44*70
$GPGSV,3,3,09,31,00,000,43*45
$BDGSV,3,1,12,01,00,000,41,02,00,000,40,23,00,000,41,04,00,000,40*6F
$BDGSV,3,2,12,06,00,000,42,07,00,000,43,09,00,000,43,10,00,000,43*62
$BDGSV,3,3,12,16,00,000,43,19,00,000,42,27,00,000,42,28,00,000,44*6C
$B3CN0,0,20,0,0,0,0,0,0,0,0,0,0,0,0*7E
$GLGSV,2,1,05,08,40,300,47,07,45,224,47,20,22,137,36,09,42,018,46*68
$GLGSV,2,2,05,26,00,000,44*54
$ini_pos,lastpos_good = 1,ini_pos.x:-1578917.551237,ini_pos.y:5312764.544795,ini_pos.z:3146357.480082
Refix G03: 2, 266431.921247, 1162
Refix G08: 2, 266431.922136, -4809
Refix G14: 2, 266431.920613, 2284
Refix G16: 2, 266431.932609, -238
Refix G23: 2, 266431.928405, -3199
$GNGGA,020014.000,2944.9087,N,10633.0956,E,1,09,1.0,322.3,M,,,,0000*1E
$GNRMC,020014.000,A,2944.9087,N,10633.0956,E,0.11,0.00,080519,,*1F
$GPGSA,A,3,03,08,14,16,23,,,,,,,,1.3,1.0,0.8*31
$BDGSA,A,3,,,,,,,,,,,,,1.3,1.0,0.8*28
$GLGSA,A,3,07,08,09,20,,,,,,,,,1.3,1.0,0.8*21
$GPGSV,3,1,09,03,20,235,43,08,22,188,40,09,00,000,40,14,16,145,37*76
$GPGSV,3,2,09,16,70,346,44,23,51,306,44,26,00,000,45,27,00,000,44*70
$GPGSV,3,3,09,31,00,000,43*45
$BDGSV,3,1,12,01,00,000,40,02,00,000,41,23,00,000,41,04,00,000,41*6E
$BDGSV,3,2,12,06,00,000,42,07,00,000,43,09,00,000,43,10,00,000,43*62
$BDGSV,3,3,12,16,00,000,43,19,00,000,41,27,00,000,42,28,00,000,43*68
$B3CN0,18,0,0,0,0,0,0,0,0,0,0,0,0,0*75
$GLGSV,2,1,05,08,40,300,47,07,45,224,47,20,22,137,36,09,42,018,46*68
$GLGSV,2,2,05,26,00,000,45*55
$ini_pos,lastpos_good = 1,ini_pos.x:-1578918.098764,ini_pos.y:5312765.958174,ini_pos.z:3146357.314328
Refix G03: 2, 266432.921247, 1166
Refix G08: 2, 266432.922139, -4807
Refix G14: 2, 266432.920612, 2286
Refix G16: 2, 266432.932609, -235
Refix G23: 2, 266432.928407, -3196
$GNGGA,020015.000,2944.9079,N,10633.0972,E,1,18,1.0,322.0,M,,,,0000*1B
$GNRMC,020015.000,A,2944.9079,N,10633.0972,E,0.51,0.00,080519,,*1D
$GPGSA,A,3,03,08,14,16,23,,,,,,,,1.3,1.0,0.8*31
$BDGSA,A,3,06,07,09,10,16,19,27,28,32,,,,1.3,1.0,0.8*20
$GLGSA,A,3,07,08,09,20,,,,,,,,,1.3,1.0,0.8*21
$GPGSV,3,1,09,03,20,235,43,08,22,188,40,09,00,000,40,14,16,145,38*79
$GPGSV,3,2,09,16,70,346,45,23,51,306,44,26,00,000,44,27,00,000,44*70
$GPGSV,3,3,09,31,00,000,43*45
$BDGSV,3,1,12,01,00,000,41,02,00,000,39,23,00,000,41,04,00,000,41*60
$BDGSV,3,2,12,06,00,000,41,07,00,000,43,09,00,000,43,10,00,000,43*61
$BDGSV,3,3,12,16,00,000,43,19,00,000,42,27,00,000,42,28,00,000,43*6B
$B3CN0,0,0,0,0,0,0,0,0,0,0,0,0,0,0*4C
$GLGSV,2,1,05,08,40,300,47,07,45,224,47,20,22,137,35,09,42,018,46*6B
$GLGSV,2,2,05,26,00,000,44*54
$ini_pos,lastpos_good = 1,ini_pos.x:-1578920.790523,ini_pos.y:5312765.679818,ini_pos.z:3146355.797210
Refix G03: 2, 266433.921246, 1165
Refix G08: 2, 266433.922142, -4807
Refix G14: 2, 266433.920610, 2287
Refix G16: 2, 266433.932609, -235
Refix G23: 2, 266433.928409, -3196
$GNGGA,020016.000,2944.9079,N,10633.0968,E,1,18,0.7,322.0,M,,,,0000*15
$GNRMC,020016.000,A,2944.9079,N,10633.0968,E,0.06,0.00,080519,,*17
$GPGSA,A,3,03,08,14,16,23,,,,,,,,0.8,0.7,0.4*31
$BDGSA,A,3,06,07,09,10,16,19,27,28,32,,,,0.8,0.7,0.4*20
$GLGSA,A,3,07,08,09,20,,,,,,,,,0.8,0.7,0.4*21
$GPGSV,3,1,09,03,20,235,43,08,22,188,40,09,00,000,40,14,16,145,38*79
$GPGSV,3,2,09,16,70,346,44,23,51,306,44,26,00,000,44,27,00,000,44*71
$GPGSV,3,3,09,31,00,000,43*45
$BDGSV,3,1,12,01,00,000,40,02,00,000,39,23,00,000,41,04,00,000,41*61
$BDGSV,3,2,12,06,46,164,42,07,67,004,43,09,73,202,43,10,63,292,43*6E
$BDGSV,3,3,12,16,53,171,43,19,19,304,42,27,25,164,42,28,40,102,43*66
$B3CN0,0,0,0,0,0,0,0,0,0,0,0,0,0,0*4C
$GLGSV,2,1,06,08,40,300,47,07,45,224,47,20,22,137,36,09,42,018,46*6B
$GLGSV,2,2,06,26,00,000,44,01,07,332,00*63
$ini_pos,lastpos_good = 1,ini_pos.x:-1578920.181309,ini_pos.y:5312765.856043,ini_pos.z:3146355.837811
Refix G03: 2, 266434.921245, 1165
Refix G08: 2, 266434.922146, -4807
Refix G14: 2, 266434.920609, 2287
Refix G16: 2, 266434.932609, -235
Refix G23: 2, 266434.928411, -3196
$GNGGA,020017.000,2944.9079,N,10633.0964,E,1,18,0.7,322.2,M,,,,0000*1A
$GNRMC,020017.000,A,2944.9079,N,10633.0964,E,0.06,0.00,080519,,*1A
$GPGSA,A,3,03,08,14,16,23,,,,,,,,0.8,0.7,0.4*31
$BDGSA,A,3,06,07,09,10,16,19,27,28,32,,,,0.8,0.7,0.4*20
$GLGSA,A,3,07,08,09,20,,,,,,,,,0.8,0.7,0.4*21
$GPGSV,3,1,09,03,20,235,43,08,22,188,40,09,00,000,40,14,16,145,38*79
$GPGSV,3,2,09,16,70,346,45,23,51,306,44,26,00,000,44,27,00,000,44*70
$GPGSV,3,3,09,31,00,000,43*45
$BDGSV,3,1,12,01,00,000,41,02,00,000,40,23,00,000,41,04,00,000,40*6F
$BDGSV,3,2,12,06,46,164,41,07,67,004,43,09,73,202,43,10,63,292,43*6D
$BDGSV,3,3,12,16,53,171,43,19,19,304,42,27,25,164,43,28,40,102,43*67
$B3CN0,0,0,0,0,0,0,0,0,0,0,0,0,0,0*4C
$GLGSV,2,1,06,08,40,300,47,07,45,224,47,20,22,137,36,09,42,018,46*6B
$GLGSV,2,2,06,26,00,000,44,01,07,332,00*63
$ini_pos,lastpos_good = 1,ini_pos.x:-1578919.550503,ini_pos.y:5312766.197442,ini_pos.z:3146355.865328
Refix G03: 2, 266435.921244, 1166
Refix G08: 2, 266435.922149, -4805
Refix G14: 2, 266435.920607, 2289
Refix G16: 2, 266435.932610, -233
Refix G23: 2, 266435.928413, -3194
$GNGGA,020018.000,2944.9079,N,10633.0961,E,1,18,0.7,322.3,M,,,,0000*11
$GNRMC,020018.000,A,2944.9079,N,10633.0961,E,0.16,0.00,080519,,*11
$GPGSA,A,3,03,08,14,16,23,,,,,,,,0.8,0.7,0.4*31
$BDGSA,A,3,06,07,09,10,16,19,27,28,32,,,,0.8,0.7,0.4*20
$GLGSA,A,3,07,08,09,20,,,,,,,,,0.8,0.7,0.4*21
$GPGSV,3,1,09,03,20,235,43,08,22,188,40,09,00,000,41,14,16,145,38*78
$GPGSV,3,2,09,16,70,346,44,23,51,306,44,26,00,000,44,27,00,000,43*76
$GPGSV,3,3,09,31,00,000,43*45
$BDGSV,3,1,12,01,00,000,41,02,00,000,41,23,00,000,41,04,00,000,41*6F
$BDGSV,3,2,12,06,46,164,41,07,67,004,43,09,73,202,43,10,63,292,43*6D
$BDGSV,3,3,12,16,53,171,43,19,19,304,42,27,25,164,42,28,40,102,43*66
$B3CN0,0,0,0,0,0,0,0,0,0,0,0,0,0,0*4C
$GLGSV,2,1,06,08,40,300,47,07,45,224,47,20,22,137,36,09,42,018,46*6B
$GLGSV,2,2,06,26,00,000,44,01,07,332,00*63
$ini_pos,lastpos_good = 1,ini_pos.x:-1578919.099515,ini_pos.y:5312766.471974,ini_pos.z:3146355.964329
Refix G03: 2, 266436.921244, 1168
Refix G08: 2, 266436.922152, -4804
Refix G14: 2, 266436.920606, 2290
Refix G16: 2, 266436.932610, -231
Refix G23: 2, 266436.928415, -3192
Refix G26: 2, 266436.928472, 1059
Refix G27: 2, 266436.929035, -3718
Refix G31: 2, 266436.922430, 729
$GNGGA,020019.000,2944.9077,N,10633.0957,E,1,21,0.6,322.9,M,,,,0000*1A
$GNRMC,020019.000,A,2944.9077,N,10633.0957,E,0.13,0.00,080519,,*1E
$GPGSA,A,3,03,08,14,16,23,26,27,31,,,,,0.7,0.6,0.4*3C
$BDGSA,A,3,06,07,09,10,16,19,27,28,32,,,,0.7,0.6,0.4*2E
$GLGSA,A,3,07,08,09,20,,,,,,,,,0.7,0.6,0.4*2F
$GPGSV,3,1,09,03,20,235,43,08,22,188,40,09,00,000,40,14,16,145,37*76
$GPGSV,3,2,09,16,70,346,44,23,51,306,44,26,00,000,44,27,00,000,43*76
$GPGSV,3,3,09,31,00,000,44*42
$BDGSV,3,1,12,01,00,000,39,02,00,000,40,23,00,000,40,04,00,000,40*61
$BDGSV,3,2,12,06,46,164,41,07,67,004,43,09,73,202,43,10,63,292,43*6D
$BDGSV,3,3,12,16,53,171,43,19,19,304,42,27,25,164,42,28,40,102,43*66
$B3CN0,0,0,0,0,0,0,0,0,0,0,0,0,0,0*4C
$GLGSV,2,1,06,08,40,300,47,07,45,224,47,20,22,137,36,09,42,018,45*68
$GLGSV,2,2,06,26,00,000,44,01,07,332,00*63
$ini_pos,lastpos_good = 1,ini_pos.x:-1578918.741832,ini_pos.y:5312767.239966,ini_pos.z:3146355.978823
Refix G03: 2, 266437.921243, 1166
Refix G08: 2, 266437.922155, -4806
Refix G14: 2, 266437.920604, 2289
Refix G16: 2, 266437.932610, -233
Refix G23: 2, 266437.928417, -3194
Refix G26: 2, 266437.928471, 1057
Refix G27: 2, 266437.929037, -3720
Refix G31: 2, 266437.922429, 728
$GNGGA,020020.000,2944.9076,N,10633.0955,E,1,21,0.6,323.4,M,,,,0000*1F
$GNRMC,020020.000,A,2944.9076,N,10633.0955,E,0.19,0.00,080519,,*1D
$GPGSA,A,3,03,08,14,16,23,26,27,31,,,,,0.7,0.6,0.4*3C
$BDGSA,A,3,06,07,09,10,16,19,27,28,32,,,,0.7,0.6,0.4*2E
$GLGSA,A,3,07,08,09,20,,,,,,,,,0.7,0.6,0.4*2F
$GPGSV,3,1,09,03,20,235,43,08,22,188,40,09,00,000,40,14,16,145,37*76
$GPGSV,3,2,09,16,70,346,44,23,51,306,44,26,47,033,44,27,49,160,43*7F
$GPGSV,3,3,09,31,26,085,43*4C
$BDGSV,3,1,12,01,00,000,41,02,00,000,40,23,00,000,41,04,00,000,41*6E
$BDGSV,3,2,12,06,46,164,41,07,67,004,43,09,73,202,42,10,63,292,43*6C
$BDGSV,3,3,12,16,53,171,43,19,19,304,41,27,25,164,42,28,40,102,43*65
$B3CN0,0,0,0,0,0,0,0,0,0,0,0,0,0,0*4C
$GLGSV,2,1,06,08,40,300,47,07,45,224,47,20,22,137,37,09,42,018,46*6A
$GLGSV,2,2,06,26,00,000,44,01,07,332,00*63
$ini_pos,lastpos_good = 1,ini_pos.x:-1578918.467529,ini_pos.y:5312767.931540,ini_pos.z:3146355.975868
Refix G03: 2, 266438.921242, 1164
Refix G08: 2, 266438.922158, -4807
Refix G14: 2, 266438.920603, 2288
Refix G16: 2, 266438.932610, -234
Refix G23: 2, 266438.928419, -3195
Refix G26: 2, 266438.928471, 1056
Refix G27: 2, 266438.929039, -3720
Refix G31: 2, 266438.922429, 727
$GNGGA,020021.000,2944.9075,N,10633.0952,E,1,21,0.6,323.9,M,,,,0000*17
$GNRMC,020021.000,A,2944.9075,N,10633.0952,E,0.37,0.00,080519,,*14
$GPGSA,A,3,03,08,14,16,23,26,27,31,,,,,0.7,0.6,0.4*3C
$BDGSA,A,3,06,07,09,10,16,19,27,28,32,,,,0.7,0.6,0.4*2E
$GLGSA,A,3,07,08,09,20,,,,,,,,,0.7,0.6,0.4*2F
$GPGSV,3,1,09,03,20,235,43,08,22,188,40,09,00,000,40,14,16,145,38*79
$GPGSV,3,2,09,16,70,346,44,23,51,306,44,26,47,033,44,27,49,160,44*78
$GPGSV,3,3,09,31,26,085,44*4B
$BDGSV,3,1,12,01,00,000,41,02,00,000,39,23,00,000,41,04,00,000,40*61
$BDGSV,3,2,12,06,46,164,41,07,67,004,43,09,73,202,43,10,63,292,43*6D
$BDGSV,3,3,12,16,53,171,43,19,19,304,41,27,25,164,42,28,40,102,43*65
$B3CN0,0,0,0,0,0,0,0,0,0,0,0,0,0,0*4C
$GLGSV,2,1,06,08,40,300,47,07,45,224,47,20,22,137,37,09,42,018,46*6A
$GLGSV,2,2,06,26,00,000,44,01,07,332,00*63
$ini_pos,lastpos_good = 1,ini_pos.x:-1578918.177228,ini_pos.y:5312768.573221,ini_pos.z:3146356.115507
Refix G03: 2, 266439.921241, 1166
Refix G08: 2, 266439.922161, -4806
Refix G14: 2, 266439.920601, 2288
Refix G16: 2, 266439.932610, -234
Refix G23: 2, 266439.928421, -3194
Refix G26: 2, 266439.928470, 1056
Refix G27: 2, 266439.929042, -3720
Refix G31: 2, 266439.922428, 726
$GNGGA,020022.000,2944.9074,N,10633.0949,E,1,21,0.6,324.2,M,,,,0000*13
$GNRMC,020022.000,A,2944.9074,N,10633.0949,E,0.14,0.00,080519,,*1D
$GPGSA,A,3,03,08,14,16,23,26,27,31,,,,,0.7,0.6,0.4*3C
$BDGSA,A,3,06,07,09,10,16,19,27,28,32,,,,0.7,0.6,0.4*2E
$GLGSA,A,3,07,08,09,20,,,,,,,,,0.7,0.6,0.4*2F
$GPGSV,3,1,09,03,20,235,42,08,22,188,40,09,00,000,40,14,16,145,38*78
$GPGSV,3,2,09,16,70,347,45,23,51,306,45,26,47,033,44,27,49,160,43*7E
$GPGSV,3,3,09,31,26,085,44*4B
$BDGSV,3,1,12,01,40,125,42,02,00,000,39,23,00,000,41,04,00,000,41*61
$BDGSV,3,2,12,06,46,164,42,07,67,004,43,09,73,202,43,10,63,292,43*6E
$BDGSV,3,3,12,16,53,171,43,19,19,304,41,27,25,164,42,28,40,102,43*65
$B3CN0,0,0,0,0,0,0,0,0,0,0,0,0,0,0*4C
$GLGSV,2,1,06,08,40,300,47,07,45,224,47,20,22,137,36,09,42,018,46*6B
$GLGSV,2,2,06,26,00,000,44,01,07,332,00*63
$ini_pos,lastpos_good = 1,ini_pos.x:-1578917.908230,ini_pos.y:5312768.970070,ini_pos.z:3146356.088234
Refix G03: 2, 266440.921241, 1165
Refix G08: 2, 266440.922164, -4807
Refix G14: 2, 266440.920600, 2288
Refix G16: 2, 266440.932610, -234
Refix G23: 2, 266440.928423, -3194
Refix G26: 2, 266440.928469, 1056
Refix G27: 2, 266440.929044, -3720
Refix G31: 2, 266440.922428, 726
$GNGGA,020023.000,2944.9073,N,10633.0947,E,1,21,0.6,324.5,M,,,,0000*1C
$GNRMC,020023.000,A,2944.9073,N,10633.0947,E,0.08,0.00,080519,,*18
$GPGSA,A,3,03,08,14,16,23,26,27,31,,,,,0.7,0.6,0.4*3C
$BDGSA,A,3,06,07,09,10,16,19,27,28,32,,,,0.7,0.6,0.4*2E
$GLGSA,A,3,07,08,09,20,,,,,,,,,0.7,0.6,0.4*2F
$GPGSV,3,1,09,03,20,235,43,08,22,188,40,09,00,000,40,14,16,145,38*79
$GPGSV,3,2,09,16,70,347,45,23,51,306,45,26,47,033,45,27,49,160,44*78
$GPGSV,3,3,09,31,26,085,44*4B
$BDGSV,3,1,12,01,40,125,40,02,00,000,40,23,00,000,41,04,00,000,42*6E
$BDGSV,3,2,12,06,46,164,42,07,67,004,43,09,73,202,43,10,63,292,44*69
$BDGSV,3,3,12,16,53,171,43,19,19,304,41,27,25,164,42,28,40,102,43*65
$B3CN0,0,0,0,0,0,0,0,0,0,0,0,0,0,0*4C
$GLGSV,2,1,06,08,40,300,46,07,45,224,47,20,22,137,37,09,42,018,46*6B
$GLGSV,2,2,06,26,00,000,44,01,07,332,00*63
$ini_pos,lastpos_good = 1,ini_pos.x:-1578917.674945,ini_pos.y:5312769.397747,ini_pos.z:3146356.151749
Refix G03: 2, 266441.921240, 1168
Refix G08: 2, 266441.922167, -4803
Refix G14: 2, 266441.920598, 2291
Refix G16: 2, 266441.932610, -230
Refix G23: 2, 266441.928425, -3190
Refix G26: 2, 266441.928468, 1060
Refix G27: 2, 266441.929046, -3716
Refix G31: 2, 266441.922427, 730
$GNGGA,020024.000,2944.9072,N,10633.0944,E,1,24,0.6,325.1,M,,,,0000*19
$GNRMC,020024.000,A,2944.9072,N,10633.0944,E,0.15,0.00,080519,,*11
$GPGSA,A,3,03,08,14,16,23,26,27,31,,,,,0.7,0.6,0.4*3C
$BDGSA,A,3,01,02,04,06,07,09,10,16,19,27,28,32,0.7,0.6,0.4*29
$GLGSA,A,3,07,08,09,20,,,,,,,,,0.7,0.6,0.4*2F
$GPGSV,3,1,09,03,20,235,43,08,22,188,40,09,00,000,40,14,16,145,39*78
$GPGSV,3,2,09,16,70,347,44,23,51,306,45,26,47,033,45,27,49,160,44*79
$GPGSV,3,3,09,31,26,085,45*4A
$BDGSV,3,1,12,01,40,125,40,02,00,000,41,23,00,000,41,04,00,000,40*6D
$BDGSV,3,2,12,06,46,164,41,07,67,004,43,09,73,202,43,10,63,292,43*6D
$BDGSV,3,3,12,16,53,171,43,19,19,304,41,27,25,164,42,28,40,102,43*65
$B3CN0,0,0,0,0,0,0,0,0,0,0,0,0,0,0*4C
$GLGSV,2,1,06,08,40,300,47,07,45,224,47,20,22,137,37,09,42,018,47*6B
$GLGSV,2,2,06,26,00,000,44,01,07,332,00*63
$ini_pos,lastpos_good = 1,ini_pos.x:-1578917.290160,ini_pos.y:5312770.108053,ini_pos.z:3146356.279184
Refix G03: 2, 266442.921239, 1169
Refix G08: 2, 266442.922170, -4803
Refix G09: 2, 266442.920677, -4402
Refix G14: 2, 266442.920597, 2292
Refix G16: 2, 266442.932610, -229
Refix G23: 2, 266442.928427, -3190
Refix G26: 2, 266442.928468, 1060
Refix G27: 2, 266442.929049, -3715
Refix G31: 2, 266442.922427, 730
$GNGGA,020025.000,2944.9072,N,10633.0940,E,1,25,0.6,325.4,M,,,,0000*18
$GNRMC,020025.000,A,2944.9072,N,10633.0940,E,0.11,0.00,080519,,*10
$GPGSA,A,3,03,08,09,14,16,23,26,27,31,,,,0.7,0.6,0.4*35
$BDGSA,A,3,01,02,04,06,07,09,10,16,19,27,28,32,0.7,0.6,0.4*29
$GLGSA,A,3,07,08,09,20,,,,,,,,,0.7,0.6,0.4*2F
$GPGSV,3,1,09,03,20,235,43,08,22,188,40,09,00,000,40,14,16,145,38*79
$GPGSV,3,2,09,16,70,347,45,23,51,306,45,26,47,033,45,27,49,160,44*78
$GPGSV,3,3,09,31,26,085,45*4A
$BDGSV,3,1,12,01,40,125,41,02,45,218,40,23,00,000,41,04,23,110,41*67
$BDGSV,3,2,12,06,46,164,41,07,67,004,44,09,73,202,43,10,63,292,44*6D
$BDGSV,3,3,12,16,53,171,44,19,19,304,41,27,25,164,42,28,40,102,43*62
$B3CN0,0,0,0,0,0,0,0,0,0,0,0,0,0,0*4C
$GLGSV,2,1,06,08,40,300,46,07,45,224,47,20,22,137,37,09,42,018,47*6A
$GLGSV,2,2,06,26,00,000,44,01,07,332,00*63
$ini_pos,lastpos_good = 1,ini_pos.x:-1578916.861410,ini_pos.y:5312770.585522,ini_pos.z:3146356.379375
Refix G03: 2, 266443.921238, 1168
Refix G08: 2, 266443.922173, -4804
Refix G09: 2, 266443.920679, -4402
Refix G14: 2, 266443.920595, 2291
Refix G16: 2, 266443.932611, -230
Refix G23: 2, 266443.928429, -3190
Refix G26: 2, 266443.928467, 1059
Refix G27: 2, 266443.929051, -3716
Refix G31: 2, 266443.922426, 730
$GNGGA,020026.000,2944.9071,N,10633.0939,E,1,25,0.6,325.6,M,,,,0000*14
$GNRMC,020026.000,A,2944.9071,N,10633.0939,E,0.19,0.00,080519,,*16
$GPGSA,A,3,03,08,09,14,16,23,26,27,31,,,,0.7,0.6,0.4*35
$BDGSA,A,3,01,02,04,06,07,09,10,16,19,27,28,32,0.7,0.6,0.4*29
$GLGSA,A,3,07,08,09,20,,,,,,,,,0.7,0.6,0.4*2F
$GPGSV,3,1,09,03,20,235,42,08,22,188,40,09,17,318,40,14,16,145,38*74
$GPGSV,3,2,09,16,70,347,44,23,51,306,45,26,47,033,45,27,49,160,44*79
$GPGSV,3,3,09,31,26,085,44*4B
$BDGSV,3,1,12,01,40,125,42,02,45,218,40,23,00,000,41,04,23,110,41*64
$BDGSV,3,2,12,06,46,164,41,07,67,004,44,09,73,202,43,10,63,292,43*6A
$BDGSV,3,3,12,16,53,171,43,19,19,304,41,27,25,164,42,28,40,102,43*65
$B3CN0,0,0,0,0,0,0,0,0,0,0,0,0,0,0*4C
$GLGSV,2,1,06,08,40,300,46,07,45,224,47,20,22,137,37,09,42,018,46*6B
$GLGSV,2,2,06,26,00,000,44,01,07,332,00*63
$ini_pos,lastpos_good = 1,ini_pos.x:-1578916.648709,ini_pos.y:5312770.858331,ini_pos.z:3146356.365064
Refix G03: 2, 266444.921237, 1168
Refix G08: 2, 266444.922176, -4804
Refix G09: 2, 266444.920682, -4403
Refix G14: 2, 266444.920594, 2291
Refix G16: 2, 266444.932611, -230
Refix G23: 2, 266444.928431, -3190
Refix G26: 2, 266444.928466, 1059
Refix G27: 2, 266444.929053, -3716
Refix G31: 2, 266444.922426, 729
$GNGGA,020027.000,2944.9071,N,10633.0937,E,1,25,0.6,325.7,M,,,,0000*1A
$GNRMC,020027.000,A,2944.9071,N,10633.0937,E,0.12,0.00,080519,,*12
$GPGSA,A,3,03,08,09,14,16,23,26,27,31,,,,0.7,0.6,0.4*35
$BDGSA,A,3,01,02,04,06,07,09,10,16,19,27,28,32,0.7,0.6,0.4*29
$GLGSA,A,3,07,08,09,20,,,,,,,,,0.7,0.6,0.4*2F
$GPGSV,3,1,09,03,20,235,42,08,22,188,40,09,17,318,40,14,16,145,38*74
$GPGSV,3,2,09,16,70,347,44,23,51,306,44,26,47,033,44,27,49,160,44*79
$GPGSV,3,3,09,31,26,085,44*4B
$BDGSV,3,1,12,01,40,125,41,02,45,218,41,23,00,000,41,04,23,110,41*66
$BDGSV,3,2,12,06,46,164,41,07,67,004,43,09,73,202,43,10,63,292,43*6D
$BDGSV,3,3,12,16,53,171,44,19,19,304,42,27,25,164,42,28,40,102,43*61
$B3CN0,0,0,0,0,0,0,0,0,0,0,0,0,0,0*4C
$GLGSV,2,1,06,08,40,300,46,07,45,224,47,20,22,137,38,09,42,018,46*64
$GLGSV,2,2,06,26,00,000,44,01,07,332,00*63
$ini_pos,lastpos_good = 1,ini_pos.x:-1578916.409561,ini_pos.y:5312771.056153,ini_pos.z:3146356.323195
Refix G03: 2, 266445.921237, 1166
Refix G08: 2, 266445.922179, -4806
Refix G09: 2, 266445.920685, -4404
Refix G14: 2, 266445.920592, 2289
Refix G16: 2, 266445.932611, -231
Refix G23: 2, 266445.928433, -3191
Refix G26: 2, 266445.928466, 1058
Refix G27: 2, 266445.929056, -3717
Refix G31: 2, 266445.922425, 728
$GNGGA,020028.000,2944.9070,N,10633.0935,E,1,25,0.6,325.9,M,,,,0000*18
$GNRMC,020028.000,A,2944.9070,N,10633.0935,E,0.16,0.00,080519,,*1A
$GPGSA,A,3,03,08,09,14,16,23,26,27,31,,,,0.7,0.6,0.4*35
$BDGSA,A,3,01,02,04,06,07,09,10,16,19,27,28,32,0.7,0.6,0.4*29
$GLGSA,A,3,07,08,09,20,,,,,,,,,0.7,0.6,0.4*2F
$GPGSV,3,1,09,03,20,235,44,08,22,188,40,09,17,318,40,14,16,145,38*72
$GPGSV,3,2,09,16,70,347,45,23,51,306,44,26,47,033,44,27,49,160,44*78
$GPGSV,3,3,09,31,26,085,44*4B
$BDGSV,3,1,12,01,40,125,41,02,45,218,41,23,00,000,41,04,23,110,41*66
$BDGSV,3,2,12,06,46,164,41,07,67,004,44,09,73,202,43,10,63,292,43*6A
$BDGSV,3,3,12,16,53,171,43,19,19,304,42,27,25,164,42,28,40,102,44*61
$B3CN0,0,0,0,0,0,0,0,0,0,0,0,0,0,0*4C
$GLGSV,2,1,06,08,40,300,46,07,45,224,47,20,22,137,37,09,42,018,46*6B
$GLGSV,2,2,06,26,00,000,44,01,07,332,00*63
$ini_pos,lastpos_good = 1,ini_pos.x:-1578916.204266,ini_pos.y:5312771.332159,ini_pos.z:3146356.363813
Refix G03: 2, 266446.921236, 1166
Refix G08: 2, 266446.922182, -4806
Refix G09: 2, 266446.920688, -4404
Refix G14: 2, 266446.920591, 2290
Refix G16: 2, 266446.932611, -231
Refix G23: 2, 266446.928435, -3191
Refix G26: 2, 266446.928465, 1058
Refix G27: 2, 266446.929058, -3717
Refix G31: 2, 266446.922425, 728
$GNGGA,020029.000,2944.9070,N,10633.0934,E,1,25,0.6,326.0,M,,,,0000*12
$GNRMC,020029.000,A,2944.9070,N,10633.0934,E,0.19,0.00,080519,,*15
$GPGSA,A,3,03,08,09,14,16,23,26,27,31,,,,0.7,0.6,0.4*35
$BDGSA,A,3,01,02,04,06,07,09,10,16,19,27,28,32,0.7,0.6,0.4*29
$GLGSA,A,3,07,08,09,20,,,,,,,,,0.7,0.6,0.4*2F
$GPGSV,3,1,09,03,20,235,43,08,22,188,39,09,17,318,40,14,16,145,39*7A
$GPGSV,3,2,09,16,70,347,45,23,51,306,44,26,47,033,45,27,49,160,44*79
$GPGSV,3,3,09,31,26,085,44*4B
$BDGSV,3,1,12,01,40,125,41,02,45,218,40,23,00,000,40,04,23,110,41*66
$BDGSV,3,2,12,06,46,164,41,07,67,004,43,09,73,202,43,10,63,292,43*6D
$BDGSV,3,3,12,16,53,171,43,19,19,304,41,27,25,164,42,28,40,102,43*65
$B3CN0,0,0,0,0,0,0,0,0,0,0,0,0,0,0*4C
$GLGSV,2,1,06,08,40,300,47,07,45,224,47,20,22,137,37,09,42,018,46*6A
$GLGSV,2,2,06,26,00,000,44,01,07,332,00*63
$ini_pos,lastpos_good = 1,ini_pos.x:-1578916.095690,ini_pos.y:5312771.542578,ini_pos.z:3146356.400410
Refix G03: 2, 266447.921235, 1168
Refix G08: 2, 266447.922185, -4804
Refix G09: 2, 266447.920690, -4402
Refix G14: 2, 266447.920589, 2291
Refix G16: 2, 266447.932611, -228
Refix G23: 2, 266447.928437, -3188
Refix G26: 2, 266447.928464, 1060
Refix G27: 2, 266447.929060, -3714
Refix G31: 2, 266447.922424, 730
$GNGGA,020030.000,2944.9070,N,10633.0933,E,1,25,0.6,326.1,M,,,,0000*1C
$GNRMC,020030.000,A,2944.9070,N,10633.0933,E,0.19,0.00,080519,,*1A
$GPGSA,A,3,03,08,09,14,16,23,26,27,31,,,,0.7,0.6,0.4*35
$BDGSA,A,3,01,02,04,06,07,09,10,16,19,27,28,32,0.7,0.6,0.4*29
$GLGSA,A,3,07,08,09,20,,,,,,,,,0.7,0.6,0.4*2F
$GPGSV,3,1,09,03,20,235,43,08,22,188,40,09,17,318,40,14,16,145,38*75
$GPGSV,3,2,09,16,70,347,45,23,51,306,45,26,47,033,44,27,49,160,44*79
$GPGSV,3,3,09,31,26,085,44*4B
$BDGSV,3,1,12,01,40,125,41,02,45,218,40,23,00,000,41,04,23,110,40*66
$BDGSV,3,2,12,06,46,164,42,07,67,004,44,09,73,202,43,10,63,292,43*69
$BDGSV,3,3,12,16,53,171,43,19,19,304,41,27,25,164,42,28,40,102,43*65
$B3CN0,0,0,0,0,0,0,0,0,0,0,0,0,0,0*4C
$GLGSV,2,1,06,08,40,300,46,07,45,224,47,20,22,137,38,09,42,018,46*64
$GLGSV,2,2,06,26,00,000,44,01,07,332,00*63
$ini_pos,lastpos_good = 1,ini_pos.x:-1578916.014813,ini_pos.y:5312771.583540,ini_pos.z:3146356.431899
Refix G03: 2, 266448.921234, 1166
Refix G08: 2, 266448.922188, -4805
Refix G09: 2, 266448.920693, -4404
Refix G14: 2, 266448.920588, 2290
Refix G16: 2, 266448.932611, -230
Refix G23: 2, 266448.928439, -3190
Refix G26: 2, 266448.928464, 1058
Refix G27: 2, 266448.929063, -3715
Refix G31: 2, 266448.922424, 728
$GNGGA,020031.000,2944.9070,N,10633.0932,E,1,25,0.6,325.9,M,,,,0000*17
$GNRMC,020031.000,A,2944.9070,N,10633.0932,E,0.22,0.00,080519,,*12
$GPGSA,A,3,03,08,09,14,16,23,26,27,31,,,,0.7,0.6,0.4*35
$BDGSA,A,3,01,02,04,06,07,09,10,16,19,27,28,32,0.7,0.6,0.4*29
$GLGSA,A,3,07,08,09,20,,,,,,,,,0.7,0.6,0.4*2F
$GPGSV,3,1,09,03,20,235,42,08,22,188,40,09,17,318,40,14,16,145,38*74
$GPGSV,3,2,09,16,70,347,44,23,51,306,44,26,47,033,44,27,49,160,44*79
$GPGSV,3,3,09,31,26,085,43*4C
$BDGSV,3,1,12,01,40,125,40,02,45,218,40,23,00,000,41,04,23,110,41*66
$BDGSV,3,2,12,06,46,164,42,07,67,004,43,09,73,202,43,10,63,292,43*6E
$BDGSV,3,3,12,16,53,171,43,19,19,304,41,27,25,164,42,28,40,102,43*65
$B3CN0,0,0,0,0,0,0,0,0,0,0,0,0,0,0*4C
$GLGSV,2,1,06,08,40,300,46,07,45,224,47,20,22,137,37,09,42,018,46*6B
$GLGSV,2,2,06,26,00,000,44,01,07,332,00*63
$ini_pos,lastpos_good = 1,ini_pos.x:-1578915.787184,ini_pos.y:5312771.477494,ini_pos.z:3146356.363283
Refix G03: 2, 266449.921234, 1175
Refix G08: 2, 266449.922191, -4797
Refix G09: 2, 266449.920696, -4396
Refix G14: 2, 266449.920586, 2298
Refix G16: 2, 266449.932611, -220
Refix G23: 2, 266449.928441, -3181
Refix G26: 2, 266449.928463, 1067
Refix G27: 2, 266449.929065, -3706
Refix G31: 2, 266449.922423, 736
$GNGGA,020032.000,2944.9070,N,10633.0932,E,1,25,0.6,325.9,M,,,,0000*14
$GNRMC,020032.000,A,2944.9070,N,10633.0932,E,0.24,0.00,080519,,*17
$GPGSA,A,3,03,08,09,14,16,23,26,27,31,,,,0.7,0.6,0.4*35
$BDGSA,A,3,01,02,04,06,07,09,10,16,19,27,28,32,0.7,0.6,0.4*29
$GLGSA,A,3,07,08,09,20,,,,,,,,,0.7,0.6,0.4*2F
$GPGSV,3,1,09,03,20,235,42,08,22,188,39,09,17,318,40,14,16,145,38*7A
$GPGSV,3,2,09,16,70,347,44,23,51,306,44,26,47,033,44,27,49,160,44*79
$GPGSV,3,3,09,31,26,085,44*4B
$BDGSV,3,1,12,01,40,125,41,02,45,218,40,23,00,000,41,04,23,110,41*67
$BDGSV,3,2,12,06,46,164,42,07,67,004,43,09,73,202,43,10,63,292,43*6E
$BDGSV,3,3,12,16,53,171,43,19,19,304,42,27,25,164,42,28,40,102,43*66
$B3CN0,0,0,0,0,0,0,0,0,0,0,0,0,0,0*4C
$GLGSV,2,1,06,08,40,300,46,07,45,224,47,20,22,137,38,09,42,018,46*64
$GLGSV,2,2,06,26,00,000,44,01,07,332,00*63
$ini_pos,lastpos_good = 1,ini_pos.x:-1578915.674387,ini_pos.y:5312771.476859,ini_pos.z:3146356.346179
Refix G03: 2, 266450.921233, 1174
Refix G08: 2, 266450.922194, -4798
Refix G09: 2, 266450.920699, -4396
Refix G14: 2, 266450.920585, 2298
Refix G16: 2, 266450.932611, -221
Refix G23: 2, 266450.928443, -3182
Refix G26: 2, 266450.928462, 1067
Refix G27: 2, 266450.929067, -3707
Refix G31: 2, 266450.922423, 736
$GNGGA,020033.000,2944.9070,N,10633.0931,E,1,25,0.6,325.6,M,,,,0000*19
$GNRMC,020033.000,A,2944.9070,N,10633.0931,E,0.35,0.00,080519,,*15
$GPGSA,A,3,03,08,09,14,16,23,26,27,31,,,,0.7,0.6,0.4*35
$BDGSA,A,3,01,02,04,06,07,09,10,16,19,27,28,32,0.7,0.6,0.4*29
$GLGSA,A,3,07,08,09,20,,,,,,,,,0.7,0.6,0.4*2F
$GPGSV,3,1,09,03,20,235,42,08,22,188,39,09,17,318,40,14,16,145,38*7A
$GPGSV,3,2,09,16,70,347,44,23,51,306,43,26,47,033,44,27,49,160,44*7E
$GPGSV,3,3,09,31,26,085,44*4B
$BDGSV,3,1,12,01,40,125,41,02,45,218,40,23,00,000,41,04,23,110,41*67
$BDGSV,3,2,12,06,46,164,42,07,67,004,43,09,73,202,43,10,63,292,43*6E
$BDGSV,3,3,12,16,53,171,43,19,19,304,42,27,25,164,42,28,40,102,43*66
$B3CN0,0,0,0,0,0,0,0,0,0,0,0,0,0,0*4C
$GLGSV,2,1,06,08,40,300,46,07,45,224,47,20,22,137,37,09,42,018,46*6B
$GLGSV,2,2,06,26,00,000,44,01,07,332,00*63
$ini_pos,lastpos_good = 1,ini_pos.x:-1578915.500788,ini_pos.y:5312771.293552,ini_pos.z:3146356.167203
Refix G03: 2, 266451.921232, 1167
Refix G08: 2, 266451.922197, -4805
Refix G09: 2, 266451.920701, -4402
Refix G14: 2, 266451.920583, 2291
Refix G16: 2, 266451.932611, -228
Refix G23: 2, 266451.928445, -3189
Refix G26: 2, 266451.928461, 1060
Refix G27: 2, 266451.929070, -3714
Refix G31: 2, 266451.922422, 730
$GNGGA,020034.000,2944.9070,N,10633.0931,E,1,25,0.6,325.3,M,,,,0000*1B
$GNRMC,020034.000,A,2944.9070,N,10633.0931,E,0.41,0.00,080519,,*11
$GPGSA,A,3,03,08,09,14,16,23,26,27,31,,,,0.7,0.6,0.4*35
$BDGSA,A,3,01,02,04,06,07,09,10,16,19,27,28,32,0.7,0.6,0.4*29
$GLGSA,A,3,07,08,09,20,,,,,,,,,0.7,0.6,0.4*2F
$GPGSV,3,1,09,03,20,235,42,08,22,188,40,09,17,318,40,14,16,145,38*74
$GPGSV,3,2,09,16,70,347,44,23,51,306,44,26,47,033,44,27,49,160,43*7E
$GPGSV,3,3,09,31,26,085,44*4B
$BDGSV,3,1,12,01,40,125,42,02,45,218,39,23,00,000,41,04,23,110,39*65
$BDGSV,3,2,12,06,46,164,42,07,67,004,43,09,73,202,43,10,63,292,43*6E
$BDGSV,3,3,12,16,53,171,43,19,19,304,42,27,25,164,42,28,40,102,43*66
$B3CN0,0,19,0,0,0,0,0,0,0,0,0,0,0,0*74
$GLGSV,2,1,06,08,40,300,46,07,45,224,47,20,22,137,38,09,42,018,46*64
$GLGSV,2,2,06,26,00,000,44,01,07,332,00*63
$ini_pos,lastpos_good = 1,ini_pos.x:-1578915.428684,ini_pos.y:5312771.077657,ini_pos.z:3146356.119160
Refix G03: 2, 266452.921231, 1170
Refix G08: 2, 266452.922200, -4802
Refix G09: 2, 266452.920704, -4400
Refix G14: 2, 266452.920582, 2294
Refix G16: 2, 266452.932612, -225
Refix G23: 2, 266452.928447, -3186
Refix G26: 2, 266452.928461, 1062
Refix G27: 2, 266452.929072, -3711
Refix G31: 2, 266452.922422, 732
$GNGGA,020035.000,2944.9070,N,10633.0931,E,1,25,0.6,325.6,M,,,,0000*1F
$GNRMC,020035.000,A,2944.9070,N,10633.0931,E,0.23,0.00,080519,,*14
$GPGSA,A,3,03,08,09,14,16,23,26,27,31,,,,0.7,0.6,0.4*35
$BDGSA,A,3,01,02,04,06,07,09,10,16,19,27,28,32,0.7,0.6,0.4*29
$GLGSA,A,3,07,08,09,20,,,,,,,,,0.7,0.6,0.4*2F
$GPGSV,3,1,09,03,20,235,41,08,22,188,40,09,17,318,40,14,16,145,38*77
$GPGSV,3,2,09,16,70,347,44,23,51,306,44,26,47,033,44,27,49,160,43*7E
$GPGSV,3,3,09,31,26,085,43*4C
$BDGSV,3,1,12,01,40,125,40,02,45,218,39,23,00,000,41,04,23,110,41*68
$BDGSV,3,2,12,06,46,164,42,07,67,004,43,09,73,202,43,10,63,292,43*6E
$BDGSV,3,3,12,16,53,171,43,19,19,304,42,27,25,164,42,28,40,102,43*66
$B3CN0,0,0,0,0,0,0,0,0,0,0,0,0,0,0*4C
$GLGSV,2,1,06,08,40,300,46,07,45,224,47,20,22,137,38,09,42,018,46*64
$GLGSV,2,2,06,26,00,000,44,01,07,332,00*63
$ini_pos,lastpos_good = 1,ini_pos.x:-1578915.488927,ini_pos.y:5312771.322191,ini_pos.z:3146356.264853
Refix G03: 2, 266453.921230, 1171
Refix G08: 2, 266453.922203, -4801
Refix G09: 2, 266453.920707, -4398
Refix G14: 2, 266453.920580, 2296
Refix G16: 2, 266453.932612, -223
Refix G23: 2, 266453.928449, -3184
Refix G26: 2, 266453.928460, 1064
Refix G27: 2, 266453.929074, -3709
Refix G31: 2, 266453.922421, 733
$GNGGA,020036.000,2944.9071,N,10633.0931,E,1,25,0.6,325.7,M,,,,0000*1C
$GNRMC,020036.000,A,2944.9071,N,10633.0931,E,0.32,0.00,080519,,*16
$GPGSA,A,3,03,08,09,14,16,23,26,27,31,,,,0.7,0.6,0.4*35
$BDGSA,A,3,01,02,04,06,07,09,10,16,19,27,28,32,0.7,0.6,0.4*29
$GLGSA,A,3,07,08,09,20,,,,,,,,,0.7,0.6,0.4*2F
$GPGSV,3,1,09,03,20,235,42,08,22,188,40,09,17,318,40,14,16,145,38*74
$GPGSV,3,2,09,16,70,347,44,23,51,306,43,26,47,033,44,27,49,160,44*7E
$GPGSV,3,3,09,31,26,085,43*4C
$BDGSV,3,1,12,01,40,125,41,02,45,218,40,23,00,000,41,04,23,110,41*67
$BDGSV,3,2,12,06,46,164,41,07,67,004,43,09,73,202,43,10,63,292,43*6D
$BDGSV,3,3,12,16,53,171,43,19,19,304,42,27,25,164,42,28,40,102,43*66
$B3CN0,20,18,0,0,0,0,0,0,0,0,0,0,0,0*47
$GLGSV,2,1,06,08,40,300,47,07,45,224,47,20,22,137,38,09,42,018,46*65
$GLGSV,2,2,06,26,00,000,44,01,07,332,00*63
$ini_pos,lastpos_good = 1,ini_pos.x:-1578915.485545,ini_pos.y:5312771.388553,ini_pos.z:3146356.326093
Refix G03: 2, 266454.921230, 1172
Refix G08: 2, 266454.922206, -4800
Refix G09: 2, 266454.920710, -4398
Refix G14: 2, 266454.920579, 2296
Refix G16: 2, 266454.932612, -223
Refix G23: 2, 266454.928451, -3184
Refix G26: 2, 266454.928459, 1063
Refix G27: 2, 266454.929077, -3708
Refix G31: 2, 266454.922421, 733
$GNGGA,020037.000,2944.9071,N,10633.0930,E,1,25,0.6,326.0,M,,,,0000*18
$GNRMC,020037.000,A,2944.9071,N,10633.0930,E,0.24,0.00,080519,,*11
$GPGSA,A,3,03,08,09,14,16,23,26,27,31,,,,0.7,0.6,0.4*35
$BDGSA,A,3,01,02,04,06,07,09,10,16,19,27,28,32,0.7,0.6,0.4*29
$GLGSA,A,3,07,08,09,20,,,,,,,,,0.7,0.6,0.4*2F
$GPGSV,3,1,09,03,20,235,41,08,22,188,39,09,17,318,40,14,16,145,38*79
$GPGSV,3,2,09,16,70,347,45,23,51,306,44,26,47,033,43,27,49,160,44*7F
$GPGSV,3,3,09,31,26,085,43*4C
$BDGSV,3,1,12,01,40,125,39,02,45,218,40,23,00,000,41,04,23,110,41*68
$BDGSV,3,2,12,06,46,164,41,07,67,004,43,09,73,202,43,10,63,292,43*6D
$BDGSV,3,3,12,16,53,171,43,19,19,304,42,27,25,164,42,28,40,101,43*65
$B3CN0,0,0,0,0,0,0,0,0,0,0,0,0,0,0*4C
$GLGSV,2,1,06,08,40,300,46,07,45,224,47,20,22,137,39,09,42,018,46*65
$GLGSV,2,2,06,26,00,000,44,01,07,332,00*63
$ini_pos,lastpos_good = 1,ini_pos.x:-1578915.506309,ini_pos.y:5312771.594078,ini_pos.z:3146356.528802
Refix G03: 2, 266455.921229, 1176
Refix G08: 2, 266455.922209, -4796
Refix G09: 2, 266455.920712, -4394
Refix G14: 2, 266455.920577, 2299
Refix G16: 2, 266455.932612, -218
Refix G23: 2, 266455.928453, -3179
Refix G26: 2, 266455.928459, 1068
Refix G27: 2, 266455.929079, -3704
Refix G31: 2, 266455.922420, 737
$GNGGA,020038.000,2944.9071,N,10633.0930,E,1,25,0.6,326.0,M,,,,0000*17
$GNRMC,020038.000,A,2944.9071,N,10633.0930,E,0.15,0.00,080519,,*1C
$GPGSA,A,3,03,08,09,14,16,23,26,27,31,,,,0.7,0.6,0.4*35
$BDGSA,A,3,01,02,04,06,07,09,10,16,19,27,28,32,0.7,0.6,0.4*29
$GLGSA,A,3,07,08,09,20,,,,,,,,,0.7,0.6,0.4*2F
$GPGSV,3,1,09,03,20,235,41,08,22,188,39,09,17,318,40,14,16,145,38*79
$GPGSV,3,2,09,16,70,347,45,23,51,306,44,26,47,033,43,27,49,160,43*78
$GPGSV,3,3,09,31,26,085,43*4C
$BDGSV,3,1,12,01,40,125,40,02,45,218,41,23,00,000,41,04,23,110,40*66
$BDGSV,3,2,12,06,46,164,41,07,67,004,43,09,73,202,43,10,63,292,43*6D
$BDGSV,3,3,12,16,53,171,44,19,19,304,42,27,25,164,42,28,40,101,43*62
$B3CN0,0,0,0,0,0,0,0,0,0,0,0,0,0,0*4C
$GLGSV,2,1,06,08,40,300,46,07,45,224,47,20,22,137,38,09,42,018,46*64
$GLGSV,2,2,06,26,00,000,44,01,07,332,00*63
$ini_pos,lastpos_good = 1,ini_pos.x:-1578915.468536,ini_pos.y:5312771.584921,ini_pos.z:3146356.609960
Refix G03: 2, 266456.921228, 1171
Refix G08: 2, 266456.922212, -4801
Refix G09: 2, 266456.920715, -4399
Refix G14: 2, 266456.920576, 2295
Refix G16: 2, 266456.932612, -224
Refix G23: 2, 266456.928455, -3184
Refix G26: 2, 266456.928458, 1062
Refix G27: 2, 266456.929081, -3709
Refix G31: 2, 266456.922420, 732
$GNGGA,020039.000,2944.9071,N,10633.0931,E,1,26,0.5,326.1,M,,,,0000*16
$GNRMC,020039.000,A,2944.9071,N,10633.0931,E,0.18,0.00,080519,,*11
$GPGSA,A,3,03,08,09,14,16,23,26,27,31,,,,0.6,0.5,0.4*37
$BDGSA,A,3,01,02,04,06,07,09,10,16,19,27,28,32,0.6,0.5,0.4*2B
$GLGSA,A,3,07,08,09,19,20,,,,,,,,0.6,0.5,0.4*25
$GPGSV,3,1,09,03,20,235,41,08,22,188,39,09,17,318,40,14,16,145,37*76
$GPGSV,3,2,09,16,70,347,45,23,51,306,44,26,47,033,43,27,49,160,44*7F
$GPGSV,3,3,09,31,26,085,44*4B
$BDGSV,3,1,12,01,40,125,40,02,45,218,39,23,00,000,41,04,23,110,41*68
$BDGSV,3,2,12,06,46,164,41,07,67,004,44,09,73,202,43,10,63,292,44*6D
$BDGSV,3,3,12,16,53,171,43,19,19,304,41,27,25,164,42,28,40,101,43*66
$B3CN0,20,0,0,0,0,0,0,0,0,0,0,0,0,0*7E
$GLGSV,2,1,07,08,40,300,46,07,45,224,47,19,00,000,36,20,22,137,39*6D
$GLGSV,2,2,07,09,42,018,46,26,00,000,44,01,07,332,00*56
$ini_pos,lastpos_good = 1,ini_pos.x:-1578915.655620,ini_pos.y:5312771.691236,ini_pos.z:3146356.526938
Refix G03: 2, 266457.921227, 1172
Refix G08: 2, 266457.922215, -4800
Refix G09: 2, 266457.920718, -4397
Refix G14: 2, 266457.920574, 2296
Refix G16: 2, 266457.932612, -222
