删除了/1000.0  gps bd 的snapshotmeas continue 定位出现了错误
SD initialized success
Create debug.log Failed! 3
bbram_blkflag = 1
rtcflag = 0
BBRAM Block OK: 01 EPHflag: 4640a184 8c44836f, rtc 00
Hot-start nowtime:day = 8,minute = 6,seconds = 23.00
GPS 0 Init Dop: 10000,80
GPS 1 Init Dop: 10000,80
GPS 2 Init Dop:  1484, 2
GPS 3 Init Dop: 10000,80
GPS 4 Init Dop: 10000,80
GPS 5 Init Dop: 10000,80
GPS 6 Init Dop: 10000,80
GPS 7 Init Dop: -4487, 2
GPS 8 Init Dop: -4058, 2
GPS 9 Init Dop: 10000,80
GPS10 Init Dop: 10000,80
GPS11 Init Dop: 10000,80
GPS12 Init Dop: 10000,80
GPS13 Init Dop:  2623, 2
GPS14 Init Dop: 10000,80
GPS15 Init Dop:   183, 2
GPS16 Init Dop: 10000,80
GPS17 Init Dop: 10000,80
GPS18 Init Dop: 10000,80
GPS19 Init Dop: 10000,80
GPS20 Init Dop: 10000,80
GPS21 Init Dop: 10000,80
GPS22 Init Dop: -2754, 2
GPS23 Init Dop: 10000,80
GPS24 Init Dop: 10000,80
GPS25 Init Dop:  1379, 2
GPS26 Init Dop: -3273, 2
GPS27 Init Dop: 10000,80
GPS28 Init Dop: 10000,80
GPS29 Init Dop: 10000,80
GPS30 Init Dop:  1037, 2
GPS31 Init Dop: 10000,80
BDS 0 Init Dop:  -903, 2
BDS 1 Init Dop:  -865, 2
BDS 2 Init Dop:  -903, 2
BDS 3 Init Dop:  -893, 2
BDS 4 Init Dop: 10000,80
BDS 5 Init Dop:   240, 2
BDS 6 Init Dop:  -599, 2
BDS 7 Init Dop: 10000,80
BDS 8 Init Dop:  -320, 2
BDS 9 Init Dop:  -736, 2
BDS10 Init Dop: 10000,80
BDS11 Init Dop: 10000,80
BDS12 Init Dop: 10000,80
BDS13 Init Dop: 10000,80
BDS14 Init Dop: 10000,80
BDS15 Init Dop:   250, 2
BDS16 Init Dop: 10000,80
BDS17 Init Dop: 10000,80
BDS18 Init Dop: -1731, 2
BDS19 Init Dop: 10000,80
BDS20 Init Dop: 10000,80
BDS21 Init Dop: 10000,80
BDS22 Init Dop:   769, 2
BDS23 Init Dop: 10000,80
BDS24 Init Dop: 10000,80
BDS25 Init Dop: 10000,80
BDS26 Init Dop: -3839, 2
BDS27 Init Dop: -1778, 2
BDS28 Init Dop: 10000,80
BDS29 Init Dop: 10000,80
BDS30 Init Dop: 10000,80
BDS31 Init Dop:  2118, 2
Good luck!
$ini_pos,lastpos_good = 1,ini_pos.x:-1578915.000000,ini_pos.y:5312770.000000,ini_pos.z:3146354.000000
$rtc_local_time,localRTC.weeks:2052,localRTC.seconds:266802.025980,localGtime.weeks:0,localGtime.seconds:1043.977000
$GNGGA,000000.000,,,,,0,00,,,M,,,,0000*2B
$GNRMC,000000.000,A,,,,,,,060180,,*29
$GPGSA,A,1,,,,,,,,,,,,,,,*1E
$BDGSA,A,1,,,,,,,,,,,,,,,*0F
$GLGSA,A,1,,,,,,,,,,,,,,,*02
$B3CN0,0,0,0,0,0,0,0,0,0,0,0,0,0,0*4C
$ini_pos,lastpos_good = 1,ini_pos.x:-1578915.000000,ini_pos.y:5312770.000000,ini_pos.z:3146354.000000
$rtc_local_time,localRTC.weeks:2052,localRTC.seconds:266803.025980,localGtime.weeks:2052,localGtime.seconds:267802.025948
i = 0
$GNGGA,000000.000,,,,,0,00,,,M,,,,0000*2B
$GNRMC,000000.000,A,,,,,,,060180,,*29
$GPGSA,A,1,,,,,,,,,,,,,,,*1E
$BDGSA,A,1,,,,,,,,,,,,,,,*0F
$GLGSA,A,1,,,,,,,,,,,,,,,*02
$B3CN0,0,0,0,0,0,0,0,0,0,0,0,0,0,0*4C
$ini_pos,lastpos_good = 1,ini_pos.x:-1578915.000000,ini_pos.y:5312770.000000,ini_pos.z:3146354.000000
$rtc_local_time,localRTC.weeks:2052,localRTC.seconds:266804.025980,localGtime.weeks:2052,localGtime.seconds:268802.025916
i = 0
i = 1
i = 2
i = 3
$GNGGA,000000.000,,,,,0,00,,,M,,,,0000*2B
$GNRMC,000000.000,A,,,,,,,060180,,*29
$GPGSA,A,1,,,,,,,,,,,,,,,*1E
$BDGSA,A,1,,,,,,,,,,,,,,,*0F
$GLGSA,A,1,,,,,,,,,,,,,,,*02
$GPGSV,1,1,01,03,00,000,21*48
$B3CN0,0,0,0,0,0,0,0,0,0,0,0,0,0,0*4C
$ini_pos,lastpos_good = 1,ini_pos.x:-1578915.000000,ini_pos.y:5312770.000000,ini_pos.z:3146354.000000
$rtc_local_time,localRTC.weeks:2052,localRTC.seconds:266805.025980,localGtime.weeks:2052,localGtime.seconds:269802.025884
i = 0
i = 1
i = 2
i = 3
i = 4
i = 5
i = 6
i = 7
i = 8
i = 9
i = 10
i = 11
i = 12
i = 13
$GNGGA,000000.000,,,,,0,00,,,M,,,,0000*2B
$GNRMC,000000.000,A,,,,,,,060180,,*29
$GPGSA,A,1,,,,,,,,,,,,,,,*1E
$BDGSA,A,1,,,,,,,,,,,,,,,*0F
$GLGSA,A,1,,,,,,,,,,,,,,,*02
$GPGSV,1,1,04,03,00,000,37,08,00,000,35,14,00,000,27,16,00,000,27*76
$B3CN0,0,0,0,0,0,0,0,0,0,0,0,0,0,0*4C
$ini_pos,lastpos_good = 1,ini_pos.x:-1578915.000000,ini_pos.y:5312770.000000,ini_pos.z:3146354.000000
$rtc_local_time,localRTC.weeks:2052,localRTC.seconds:266806.025980,localGtime.weeks:2052,localGtime.seconds:270802.025851
i = 0
i = 1
i = 2
i = 3
i = 4
i = 5
i = 6
i = 7
i = 8
i = 9
i = 10
i = 11
i = 12
i = 13
i = 14
i = 15
$GNGGA,000000.000,,,,,0,00,,,M,,,,0000*2B
$GNRMC,000000.000,A,,,,,,,060180,,*29
$GPGSA,A,1,,,,,,,,,,,,,,,*1E
$BDGSA,A,1,,,,,,,,,,,,,,,*0F
$GLGSA,A,1,,,,,,,,,,,,,,,*02
$GPGSV,2,1,08,03,00,000,38,08,00,000,41,14,00,000,35,16,00,000,44*73
$GPGSV,2,2,08,23,00,000,40,26,00,000,34,27,00,000,34,31,00,000,29*7C
$BDGSV,2,1,06,01,00,000,40,02,00,000,40,03,00,000,31,04,00,000,40*6F
$BDGSV,2,2,06,06,00,000,23,07,00,000,22*6E
$B3CN0,0,0,0,0,0,0,0,0,0,0,0,0,0,0*4C
$ini_pos,lastpos_good = 1,ini_pos.x:-1578915.000000,ini_pos.y:5312770.000000,ini_pos.z:3146354.000000
$rtc_local_time,localRTC.weeks:2052,localRTC.seconds:266807.025980,localGtime.weeks:2052,localGtime.seconds:271802.025819
i = 0
i = 1
i = 2
i = 3
i = 4
i = 5
i = 6
i = 7
i = 8
i = 9
i = 10
i = 11
i = 12
i = 13
i = 14
i = 15
$GNGGA,000000.000,,,,,0,00,,,M,,,,0000*2B
$GNRMC,000000.000,A,,,,,,,060180,,*29
$GPGSA,A,1,,,,,,,,,,,,,,,*1E
$BDGSA,A,1,,,,,,,,,,,,,,,*0F
$GLGSA,A,1,,,,,,,,,,,,,,,*02
$GPGSV,2,1,08,03,00,000,38,08,00,000,41,14,00,000,35,16,00,000,44*73
$GPGSV,2,2,08,23,00,000,44,26,00,000,43,27,00,000,44,31,00,000,43*73
$BDGSV,2,1,08,01,00,000,41,02,00,000,41,03,00,000,35,04,00,000,40*65
$BDGSV,2,2,08,06,00,000,42,07,00,000,44,09,00,000,44,16,00,000,23*68
$B3CN0,0,0,0,0,0,0,0,0,0,0,0,0,0,0*4C
$ini_pos,lastpos_good = 1,ini_pos.x:-1578915.000000,ini_pos.y:5312770.000000,ini_pos.z:3146354.000000
$rtc_local_time,localRTC.weeks:2052,localRTC.seconds:266808.025980,localGtime.weeks:2052,localGtime.seconds:272802.025787
i = 0
i = 1
i = 2
i = 3
i = 4
i = 5
i = 6
i = 7
i = 8
i = 9
i = 10
i = 11
i = 12
i = 13
i = 14
i = 15
i = 16
i = 17
i = 18
i = 19
i = 20
$GNGGA,000000.000,,,,,0,00,,,M,,,,0000*2B
$GNRMC,000000.000,A,,,,,,,060180,,*29
$GPGSA,A,1,,,,,,,,,,,,,,,*1E
$BDGSA,A,1,,,,,,,,,,,,,,,*0F
$GLGSA,A,1,,,,,,,,,,,,,,,*02
$GPGSV,2,1,08,03,00,000,38,08,00,000,41,14,00,000,36,16,00,000,44*70
$GPGSV,2,2,08,23,00,000,44,26,00,000,42,27,00,000,44,31,00,000,42*73
$BDGSV,2,1,08,01,00,000,41,02,00,000,41,03,00,000,38,04,00,000,41*69
$BDGSV,2,2,08,06,00,000,41,07,00,000,43,09,00,000,42,16,00,000,44*6B
$B3CN0,0,0,0,0,0,0,0,0,0,0,0,0,0,0*4C
tow update,266810026.117823
$ini_pos,lastpos_good = 1,ini_pos.x:-1578915.000000,ini_pos.y:5312770.000000,ini_pos.z:3146354.000000
$rtc_local_time,localRTC.weeks:2052,localRTC.seconds:266809.025980,localGtime.weeks:2052,localGtime.seconds:266810.026118
i = 0
i = 1
i = 2
i = 3
i = 4
i = 5
i = 6
i = 7
i = 8
i = 9
i = 10
i = 11
i = 12
i = 13
i = 14
i = 15
i = 16
i = 17
i = 18
i = 19
i = 20
i = 21
i = 22
i = 23
$GNGGA,020631.894,2942.9245,N,10634.1012,E,1,12,1.0,6477.1,M,,,,0000*26
$GNRMC,020631.894,A,2942.9245,N,10634.1012,E,22.60,0.00,080519,,*28
$GPGSA,A,3,03,08,14,16,23,26,27,31,,,,,2.1,1.0,1.8*32
$BDGSA,A,3,01,02,03,04,,,,,,,,,2.1,1.0,1.8*2C
$GLGSA,A,3,,,,,,,,,,,,,2.1,1.0,1.8*25
$GPGSV,2,1,08,03,00,000,39,08,00,000,42,14,00,000,35,16,00,000,44*71
$GPGSV,2,2,08,23,00,000,44,26,00,000,43,27,00,000,43,31,00,000,42*75
$BDGSV,3,1,11,01,00,000,41,02,00,000,41,03,00,000,39,04,00,000,39*6E
$BDGSV,3,2,11,06,00,000,41,07,00,000,43,09,00,000,43,16,00,000,42*65
$BDGSV,3,3,11,27,00,000,37,28,00,000,38,32,00,000,27*5C
$B3CN0,0,0,0,0,0,0,0,0,0,0,0,0,0,0*4C
$ini_pos,lastpos_good = 1,ini_pos.x:-1582514.929161,ini_pos.y:5319169.968134,ini_pos.z:3146224.787777
$rtc_local_time,localRTC.weeks:2052,localRTC.seconds:266810.132236,localGtime.weeks:2052,localGtime.seconds:266811.000000
i = 0
i = 1
i = 2
i = 3
i = 4
i = 5
i = 6
i = 7
i = 8
i = 9
i = 10
i = 11
i = 12
i = 13
i = 14
i = 15
i = 16
i = 17
i = 18
i = 19
i = 20
i = 21
i = 22
i = 23
i = 24
i = 25
Refix G03: 2, 266810.920688, 1228
Refix G08: 2, 266810.923018, -4730
Refix G09: 2, 266810.921400, -4394
Refix G14: 2, 266810.919779, 2359
Refix G16: 2, 266810.932366, -83
Refix G23: 2, 266810.928886, -2963
Refix G26: 2, 266810.927940, 1155
Refix G27: 2, 266810.929622, -3531
Refix G31: 2, 266810.921979, 804
$GNGGA,020633.000,2942.6097,N,10633.5675,E,1,07,1.1,6650.4,M,,,,0000*20
$GNRMC,020633.000,A,2942.6097,N,10633.5675,E,15.33,114.90,080519,,*26
$GPGSA,A,3,03,14,26,27,31,,,,,,,,1.5,1.1,1.0*32
$BDGSA,A,3,01,02,,,,,,,,,,,1.5,1.1,1.0*25
$GLGSA,A,3,,,,,,,,,,,,,1.5,1.1,1.0*2B
$GPGSV,2,1,08,03,00,000,39,08,00,000,41,14,00,000,35,16,00,000,45*73
$GPGSV,2,2,08,23,00,000,44,26,00,000,43,27,00,000,44,31,00,000,42*72
$BDGSV,3,1,11,01,00,000,40,02,00,000,41,03,00,000,42,04,00,000,40*6D
$BDGSV,3,2,11,06,00,000,41,07,00,000,44,09,00,000,43,16,00,000,43*63
$BDGSV,3,3,11,27,00,000,41,28,00,000,43,32,00,000,42*52
$B3CN0,23,0,0,0,0,0,0,0,0,0,0,0,0,0*7D
$ini_pos,lastpos_good = 1,ini_pos.x:-1581814.240231,ini_pos.y:5319836.437139,ini_pos.z:3145805.068928
$rtc_local_time,localRTC.weeks:2052,localRTC.seconds:266811.132236,localGtime.weeks:2052,localGtime.seconds:266812.000000
i = 0
i = 1
i = 2
i = 3
i = 4
i = 5
i = 6
i = 7
i = 8
i = 9
i = 10
i = 11
i = 12
i = 13
i = 14
i = 15
i = 16
i = 17
i = 18
i = 19
i = 20
i = 21
i = 22
i = 23
i = 24
i = 25
i = 26
i = 27
Refix G03: 2, 266811.920687, 1219
Refix G08: 2, 266811.923022, -4741
Refix G09: 2, 266811.921402, -4388
Refix G14: 2, 266811.919778, 2364
Refix G16: 2, 266811.932365, -100
Refix G23: 2, 266811.928887, -2979
Refix G26: 2, 266811.927939, 1154
Refix G27: 2, 266811.929624, -3549
Refix G31: 2, 266811.921979, 815
$GNGGA,020634.000,2942.5518,N,10633.6385,E,1,10,1.0,6452.8,M,,,,0000*24
$GNRMC,020634.000,A,2942.5518,N,10633.6385,E,14.19,136.49,080519,,*24
$GPGSA,A,3,03,14,26,27,31,,,,,,,,1.3,1.0,0.8*3C
$BDGSA,A,3,01,02,06,16,27,,,,,,,,1.3,1.0,0.8*2F
$GLGSA,A,3,,,,,,,,,,,,,1.3,1.0,0.8*25
$GPGSV,3,1,10,03,14,227,39,08,33,188,41,07,00,000,33,14,07,148,36*70
$GPGSV,3,2,10,16,62,006,44,23,58,292,44,26,38,040,43,27,60,151,44*73
$GPGSV,3,3,10,31,21,094,41,09,26,315,34*7C
$BDGSV,3,1,12,01,40,125,41,02,45,218,41,03,54,172,42,04,23,109,40*6B
$BDGSV,3,2,12,06,42,169,42,07,65,008,43,09,67,204,43,16,48,176,43*6C
$BDGSV,3,3,12,27,34,159,41,28,43,088,43,32,11,188,42,10,62,301,00*6A
$B3CN0,0,0,0,0,0,0,0,0,0,0,0,0,0,0*4C
$ini_pos,lastpos_good = 1,ini_pos.x:-1581890.339623,ini_pos.y:5319690.125537,ini_pos.z:3145614.163621
$rtc_local_time,localRTC.weeks:2052,localRTC.seconds:266812.132235,localGtime.weeks:2052,localGtime.seconds:266813.000000
i = 0
i = 1
i = 2
i = 3
i = 4
i = 5
i = 6
i = 7
i = 8
i = 9
i = 10
i = 11
i = 12
i = 13
i = 14
i = 15
i = 16
i = 17
i = 18
i = 19
i = 20
i = 21
i = 22
i = 23
i = 24
i = 25
i = 26
i = 27
i = 28
i = 29
Refix G03: 2, 266812.920686, 1227
Refix G08: 2, 266812.923025, -4735
Refix G09: 2, 266812.921405, -4376
Refix G14: 2, 266812.919777, 2373
Refix G16: 2, 266812.932365, -95
Refix G23: 2, 266812.928889, -2973
Refix G26: 2, 266812.927938, 1162
Refix G27: 2, 266812.929627, -3545
Refix G31: 2, 266812.921978, 824
$GNGGA,020635.000,2942.5275,N,10633.6589,E,1,10,1.0,6360.3,M,,,,0000*2E
$GNRMC,020635.000,A,2942.5275,N,10633.6589,E,13.60,140.78,080519,,*29
$GPGSA,A,3,03,14,26,27,31,,,,,,,,1.3,1.0,0.8*3C
$BDGSA,A,3,01,02,06,16,27,,,,,,,,1.3,1.0,0.8*2F
$GLGSA,A,3,,,,,,,,,,,,,1.3,1.0,0.8*25
$GPGSV,3,1,10,03,14,227,38,08,33,188,41,07,00,000,37,14,07,148,36*75
$GPGSV,3,2,10,16,62,006,44,23,58,292,44,26,38,040,43,27,60,151,44*73
$GPGSV,3,3,10,31,21,094,41,09,26,315,42*7D
$BDGSV,3,1,12,01,40,125,40,02,45,218,41,03,54,172,42,04,23,109,40*6A
$BDGSV,3,2,12,06,42,169,42,07,65,008,43,09,67,204,43,05,00,000,38*6E
$BDGSV,3,3,12,16,48,176,43,27,34,159,42,28,43,088,43,32,11,188,42*62
$B3CN0,0,0,0,0,0,0,0,0,0,0,0,0,0,0*4C
$ini_pos,lastpos_good = 1,ini_pos.x:-1581905.367830,ini_pos.y:5319625.104283,ini_pos.z:3145529.223493
$rtc_local_time,localRTC.weeks:2052,localRTC.seconds:266813.132235,localGtime.weeks:2052,localGtime.seconds:266814.000000
i = 0
i = 1
i = 2
i = 3
i = 4
i = 5
i = 6
i = 7
i = 8
i = 9
i = 10
i = 11
i = 12
i = 13
i = 14
i = 15
i = 16
i = 17
i = 18
i = 19
i = 20
i = 21
i = 22
i = 23
i = 24
i = 25
i = 26
i = 27
i = 28
i = 29
Refix G03: 2, 266813.920685, 1225
Refix G08: 2, 266813.923028, -4738
Refix G09: 2, 266813.921407, -4375
Refix G14: 2, 266813.919775, 2370
Refix G16: 2, 266813.932365, -97
Refix G23: 2, 266813.928891, -2975
Refix G26: 2, 266813.927938, 1161
Refix G27: 2, 266813.929629, -3549
Refix G31: 2, 266813.921978, 822
$GNGGA,020636.000,2942.5159,N,10633.6658,E,1,10,1.0,6306.0,M,,,,0000*2C
$GNRMC,020636.000,A,2942.5159,N,10633.6658,E,12.87,143.48,080519,,*20
$GPGSA,A,3,03,14,26,27,31,,,,,,,,1.3,1.0,0.8*3C
$BDGSA,A,3,01,02,06,16,27,,,,,,,,1.3,1.0,0.8*2F
$GLGSA,A,3,,,,,,,,,,,,,1.3,1.0,0.8*25
$GPGSV,3,1,10,03,14,227,38,08,33,188,41,07,00,000,38,14,07,148,36*7A
$GPGSV,3,2,10,16,62,006,44,23,58,292,45,26,38,040,43,27,60,151,44*72
$GPGSV,3,3,10,31,21,094,41,09,26,315,42*7D
$BDGSV,3,1,12,01,40,125,41,02,45,218,40,03,54,172,42,04,23,109,41*6B
$BDGSV,3,2,12,06,42,169,42,07,65,008,43,09,67,204,43,05,00,000,40*61
$BDGSV,3,3,12,16,48,176,42,10,62,301,40,27,34,159,41,28,43,088,43*65
$B3CN0,0,0,0,0,0,0,0,0,0,0,0,0,0,0*4C
$ini_pos,lastpos_good = 1,ini_pos.x:-1581905.648313,ini_pos.y:5319586.876482,ini_pos.z:3145483.751266
$rtc_local_time,localRTC.weeks:2052,localRTC.seconds:266814.132235,localGtime.weeks:2052,localGtime.seconds:266815.000000
i = 0
i = 1
i = 2
i = 3
i = 4
i = 5
i = 6
i = 7
i = 8
i = 9
i = 10
i = 11
i = 12
i = 13
i = 14
i = 15
i = 16
i = 17
i = 18
i = 19
i = 20
i = 21
i = 22
i = 23
i = 24
i = 25
i = 26
i = 27
i = 28
i = 29
Refix G03: 2, 266814.920684, 1242
Refix G08: 2, 266814.923031, -4722
Refix G09: 2, 266814.921410, -4385
Refix G14: 2, 266814.919774, 2374
Refix G16: 2, 266814.932365, -104
Refix G23: 2, 266814.928893, -2975
Refix G26: 2, 266814.927937, 1141
Refix G27: 2, 266814.929631, -3541
Refix G31: 2, 266814.921977, 805
$GNGGA,020637.000,2942.5374,N,10633.6545,E,1,09,1.1,6347.4,M,,,,0000*27
$GNRMC,020637.000,A,2942.5374,N,10633.6545,E,16.09,109.12,080519,,*20
$GPGSA,A,3,03,14,26,27,31,,,,,,,,1.3,1.1,0.8*3D
$BDGSA,A,3,01,02,06,16,,,,,,,,,1.3,1.1,0.8*2B
$GLGSA,A,3,,,,,,,,,,,,,1.3,1.1,0.8*24
$GPGSV,3,1,10,03,14,227,39,08,33,188,42,07,00,000,37,14,07,148,36*77
$GPGSV,3,2,10,16,62,006,45,23,58,292,45,26,38,040,44,27,60,151,45*75
$GPGSV,3,3,10,31,21,094,41,09,26,315,42*7D
$BDGSV,3,1,12,01,40,125,41,02,45,218,40,03,54,172,43,04,23,109,41*6A
$BDGSV,3,2,12,06,42,169,42,07,65,008,43,09,67,204,43,05,00,000,39*6F
$BDGSV,3,3,12,16,48,176,42,10,62,301,43,27,34,159,41,28,43,088,43*66
$B3CN0,0,0,0,0,0,0,0,0,0,0,0,0,0,0*4C
$ini_pos,lastpos_good = 1,ini_pos.x:-1581892.712168,ini_pos.y:5319607.610867,ini_pos.z:3145538.824824
$rtc_local_time,localRTC.weeks:2052,localRTC.seconds:266815.132235,localGtime.weeks:2052,localGtime.seconds:266816.000000
i = 0
i = 1
i = 2
i = 3
i = 4
i = 5
i = 6
i = 7
i = 8
i = 9
i = 10
i = 11
i = 12
i = 13
i = 14
i = 15
i = 16
i = 17
i = 18
i = 19
i = 20
i = 21
i = 22
i = 23
i = 24
i = 25
i = 26
i = 27
i = 28
i = 29
Refix G03: 2, 266815.920683, 1236
Refix G08: 2, 266815.923034, -4727
Refix G09: 2, 266815.921413, -4392
Refix G14: 2, 266815.919772, 2372
Refix G16: 2, 266815.932365, -111
Refix G23: 2, 266815.928895, -2983
Refix G26: 2, 266815.927936, 1135
Refix G27: 2, 266815.929633, -3546
Refix G31: 2, 266815.921977, 802
$GNGGA,020638.000,2942.5544,N,10633.6463,E,1,09,1.1,6356.9,M,,,,0000*25
$GNRMC,020638.000,A,2942.5544,N,10633.6463,E,16.89,111.08,080519,,*25
$GPGSA,A,3,03,14,26,27,31,,,,,,,,1.3,1.1,0.8*3D
$BDGSA,A,3,01,02,06,16,,,,,,,,,1.3,1.1,0.8*2B
$GLGSA,A,3,,,,,,,,,,,,,1.3,1.1,0.8*24
$GPGSV,3,1,10,03,14,227,39,08,33,188,41,07,00,000,38,14,07,148,36*7B
$GPGSV,3,2,10,16,62,006,44,23,58,292,45,26,38,040,43,27,60,151,44*72
$GPGSV,3,3,10,31,21,094,41,09,26,315,42*7D
$BDGSV,3,1,12,01,40,125,40,02,45,218,40,03,54,172,42,04,23,109,41*6A
$BDGSV,3,2,12,06,42,169,42,07,65,008,44,09,67,204,43,05,00,000,38*69
$BDGSV,3,3,12,16,48,176,43,10,62,301,43,27,34,159,42,28,43,088,43*64
$B3CN0,0,0,0,0,0,0,0,0,0,0,0,0,0,0*4C
$ini_pos,lastpos_good = 1,ini_pos.x:-1581877.984364,ini_pos.y:5319604.376122,ini_pos.z:3145570.756646
$rtc_local_time,localRTC.weeks:2052,localRTC.seconds:266816.132235,localGtime.weeks:2052,localGtime.seconds:266817.000000
i = 0
i = 1
i = 2
i = 3
i = 4
i = 5
i = 6
i = 7
i = 8
i = 9
i = 10
i = 11
i = 12
i = 13
i = 14
i = 15
i = 16
i = 17
i = 18
i = 19
i = 20
i = 21
i = 22
i = 23
i = 24
i = 25
i = 26
i = 27
i = 28
i = 29
Refix G03: 2, 266816.920683, 1231
Refix G08: 2, 266816.923037, -4734
Refix G09: 2, 266816.921416, -4393
Refix G14: 2, 266816.919770, 2364
Refix G16: 2, 266816.932366, -115
Refix G23: 2, 266816.928897, -2986
Refix G26: 2, 266816.927936, 1131
Refix G27: 2, 266816.929636, -3553
Refix G31: 2, 266816.921976, 796
$GNGGA,020639.000,2942.5710,N,10633.6357,E,1,09,1.1,6372.8,M,,,,0000*20
$GNRMC,020639.000,A,2942.5710,N,10633.6357,E,15.59,110.58,080519,,*2D
$GPGSA,A,3,03,14,26,27,31,,,,,,,,1.3,1.1,0.8*3D
$BDGSA,A,3,01,02,06,16,,,,,,,,,1.3,1.1,0.8*2B
$GLGSA,A,3,,,,,,,,,,,,,1.3,1.1,0.8*24
$GPGSV,3,1,10,03,14,227,38,08,33,188,42,07,00,000,37,14,07,148,37*77
$GPGSV,3,2,10,16,62,006,45,23,58,292,44,26,38,040,44,27,60,151,44*75
$GPGSV,3,3,10,31,21,094,41,09,26,315,42*7D
$BDGSV,3,1,12,01,40,125,40,02,45,218,40,03,54,172,43,04,23,109,41*6B
$BDGSV,3,2,12,06,42,169,42,07,65,008,43,09,67,204,43,05,00,000,39*6F
$BDGSV,3,3,12,16,48,176,43,10,62,301,43,27,34,159,41,28,43,088,44*60
$B3CN0,0,0,0,0,0,0,0,0,0,0,0,0,0,0*4C
$ini_pos,lastpos_good = 1,ini_pos.x:-1581861.168120,ini_pos.y:5319607.856648,ini_pos.z:3145605.384609
$rtc_local_time,localRTC.weeks:2052,localRTC.seconds:266817.132235,localGtime.weeks:2052,localGtime.seconds:266818.000000
i = 0
i = 1
i = 2
i = 3
i = 4
i = 5
i = 6
i = 7
i = 8
i = 9
i = 10
i = 11
i = 12
i = 13
i = 14
i = 15
i = 16
i = 17
i = 18
i = 19
i = 20
i = 21
i = 22
i = 23
i = 24
i = 25
i = 26
i = 27
i = 28
i = 29
Refix G03: 2, 266817.920682, 1235
Refix G08: 2, 266817.923040, -4726
Refix G09: 2, 266817.921419, -4394
Refix G14: 2, 266817.919769, 2371
Refix G16: 2, 266817.932366, -105
Refix G23: 2, 266817.928899, -2979
Refix G26: 2, 266817.927935, 1138
Refix G27: 2, 266817.929638, -3541
Refix G31: 2, 266817.921975, 802
$GNGGA,020640.000,2942.5826,N,10633.6204,E,1,09,1.1,6401.1,M,,,,0000*29
$GNRMC,020640.000,A,2942.5826,N,10633.6204,E,17.19,111.65,080519,,*27
$GPGSA,A,3,03,14,26,27,31,,,,,,,,1.3,1.1,0.8*3D
$BDGSA,A,3,01,02,06,16,,,,,,,,,1.3,1.1,0.8*2B
$GLGSA,A,3,,,,,,,,,,,,,1.3,1.1,0.8*24
$GPGSV,3,1,10,03,14,227,38,08,33,188,42,07,00,000,37,14,07,148,36*76
$GPGSV,3,2,10,16,62,006,45,23,58,292,45,26,38,040,44,27,60,151,45*75
$GPGSV,3,3,10,31,21,094,41,09,26,315,42*7D
$BDGSV,3,1,12,01,40,125,41,02,45,218,40,03,54,172,43,04,23,109,40*6B
$BDGSV,3,2,12,06,42,169,42,07,65,008,43,09,67,204,43,05,00,000,37*61
$BDGSV,3,3,12,16,48,176,43,10,62,301,43,27,34,159,42,28,43,088,43*64
$B3CN0,0,22,0,0,0,0,0,0,0,0,0,0,0,0*7C
$ini_pos,lastpos_good = 1,ini_pos.x:-1581841.362526,ini_pos.y:5319628.312167,ini_pos.z:3145638.055731
$rtc_local_time,localRTC.weeks:2052,localRTC.seconds:266818.132235,localGtime.weeks:2052,localGtime.seconds:266819.000000
i = 0
i = 1
i = 2
i = 3
i = 4
i = 5
i = 6
i = 7
i = 8
i = 9
i = 10
i = 11
i = 12
i = 13
i = 14
i = 15
i = 16
i = 17
i = 18
i = 19
i = 20
i = 21
i = 22
i = 23
i = 24
i = 25
i = 26
i = 27
i = 28
i = 29
i = 30
Refix G03: 2, 266818.920681, 1236
Refix G08: 2, 266818.923042, -4727
Refix G09: 2, 266818.921422, -4389
Refix G14: 2, 266818.919767, 2370
Refix G16: 2, 266818.932366, -106
Refix G23: 2, 266818.928901, -2978
Refix G26: 2, 266818.927934, 1137
Refix G27: 2, 266818.929640, -3543
Refix G31: 2, 266818.921975, 801
$GNGGA,020641.000,2942.5966,N,10633.6129,E,1,09,1.1,6422.0,M,,,,0000*21
$GNRMC,020641.000,A,2942.5966,N,10633.6129,E,16.23,109.85,080519,,*20
$GPGSA,A,3,03,14,26,27,31,,,,,,,,1.3,1.1,0.8*3D
$BDGSA,A,3,01,02,06,16,,,,,,,,,1.3,1.1,0.8*2B
$GLGSA,A,3,,,,,,,,,,,,,1.3,1.1,0.8*24
$GPGSV,3,1,10,03,14,227,39,08,33,188,42,07,00,000,38,14,07,148,37*79
$GPGSV,3,2,10,16,62,006,44,23,58,292,45,26,38,040,44,27,60,151,44*75
$GPGSV,3,3,10,31,21,094,42,09,26,315,42*7E
$BDGSV,3,1,12,01,40,125,41,02,45,218,40,03,54,172,42,04,23,109,41*6B
$BDGSV,3,2,12,06,42,169,41,07,65,008,43,09,67,204,43,05,00,000,38*6D
$BDGSV,3,3,12,16,48,176,43,10,62,301,43,27,34,159,42,28,43,088,44*63
$B3CN0,0,0,0,0,0,0,0,0,0,0,0,0,0,0*4C
$ini_pos,lastpos_good = 1,ini_pos.x:-1581831.277864,ini_pos.y:5319636.879469,ini_pos.z:3145670.864160
$rtc_local_time,localRTC.weeks:2052,localRTC.seconds:266819.132235,localGtime.weeks:2052,localGtime.seconds:266820.000000
i = 0
i = 1
i = 2
i = 3
i = 4
i = 5
i = 6
i = 7
i = 8
i = 9
i = 10
i = 11
i = 12
i = 13
i = 14
i = 15
i = 16
i = 17
i = 18
i = 19
i = 20
i = 21
i = 22
i = 23
i = 24
i = 25
i = 26
i = 27
i = 28
i = 29
i = 30
Refix G03: 2, 266819.920680, 1235
Refix G08: 2, 266819.923045, -4728
Refix G09: 2, 266819.921424, -4389
Refix G14: 2, 266819.919765, 2369
Refix G16: 2, 266819.932366, -107
Refix G23: 2, 266819.928902, -2979
Refix G26: 2, 266819.927933, 1136
Refix G27: 2, 266819.929642, -3545
Refix G31: 2, 266819.921974, 800
$GNGGA,020642.000,2942.6049,N,10633.6066,E,1,09,1.1,6442.2,M,,,,0000*2B
$GNRMC,020642.000,A,2942.6049,N,10633.6066,E,15.91,110.05,080519,,*24
$GPGSA,A,3,03,14,26,27,31,,,,,,,,1.3,1.1,0.8*3D
$BDGSA,A,3,01,02,06,16,,,,,,,,,1.3,1.1,0.8*2B
$GLGSA,A,3,,,,,,,,,,,,,1.3,1.1,0.8*24
$GPGSV,3,1,10,03,14,227,39,08,33,188,42,07,00,000,37,14,07,148,36*77
$GPGSV,3,2,10,16,62,006,44,23,58,292,44,26,38,040,43,27,60,151,44*73
$GPGSV,3,3,10,31,21,094,42,09,26,315,42*7E
$BDGSV,3,1,12,01,40,125,40,02,45,218,40,03,54,172,43,04,23,109,41*6B
$BDGSV,3,2,12,06,42,169,42,07,65,008,43,09,67,204,43,05,00,000,38*6E
$BDGSV,3,3,12,16,48,176,43,10,62,301,43,19,20,295,19,27,34,159,42*62
$B3CN0,18,0,0,0,0,0,0,0,0,0,0,0,0,0*75
$ini_pos,lastpos_good = 1,ini_pos.x:-1581824.424749,ini_pos.y:5319649.397057,ini_pos.z:3145694.152637
$rtc_local_time,localRTC.weeks:2052,localRTC.seconds:266820.132235,localGtime.weeks:2052,localGtime.seconds:266821.000000
i = 0
i = 1
i = 2
i = 3
i = 4
i = 5
i = 6
i = 7
i = 8
i = 9
i = 10
i = 11
i = 12
i = 13
i = 14
i = 15
i = 16
i = 17
i = 18
i = 19
i = 20
i = 21
i = 22
i = 23
i = 24
i = 25
i = 26
i = 27
i = 28
i = 29
i = 30
i = 31
Refix G03: 2, 266820.920679, 1234
Refix G08: 2, 266820.923048, -4730
Refix G09: 2, 266820.921427, -4389
Refix G14: 2, 266820.919764, 2367
Refix G16: 2, 266820.932366, -108
Refix G23: 2, 266820.928904, -2980
Refix G26: 2, 266820.927933, 1136
Refix G27: 2, 266820.929644, -3546
Refix G31: 2, 266820.921974, 799
$GNGGA,020643.000,2942.6119,N,10633.6028,E,1,09,1.1,6462.3,M,,,,0000*27
$GNRMC,020643.000,A,2942.6119,N,10633.6028,E,15.48,109.98,080519,,*23
$GPGSA,A,3,03,14,26,27,31,,,,,,,,1.3,1.1,0.8*3D
$BDGSA,A,3,01,02,06,16,,,,,,,,,1.3,1.1,0.8*2B
$GLGSA,A,3,,,,,,,,,,,,,1.3,1.1,0.8*24
$GPGSV,3,1,10,03,14,227,39,08,33,188,41,07,00,000,38,14,07,148,36*7B
$GPGSV,3,2,10,16,62,006,44,23,58,292,44,26,38,040,43,27,60,151,44*73
$GPGSV,3,3,10,31,21,094,42,09,26,315,41*7D
$BDGSV,3,1,12,01,40,125,41,02,45,218,40,03,54,172,43,04,23,109,41*6A
$BDGSV,3,2,12,06,42,169,42,07,65,008,43,09,67,204,43,05,00,000,38*6E
$BDGSV,3,3,12,16,48,176,43,10,62,301,43,19,20,295,43,27,34,159,41*6E
$B3CN0,0,0,0,0,0,0,0,0,0,0,0,0,0,0*4C
$ini_pos,lastpos_good = 1,ini_pos.x:-1581821.697017,ini_pos.y:5319661.632885,ini_pos.z:3145715.349883
$rtc_local_time,localRTC.weeks:2052,localRTC.seconds:266821.132235,localGtime.weeks:2052,localGtime.seconds:266822.000000
i = 0
i = 1
i = 2
i = 3
i = 4
i = 5
i = 6
i = 7
i = 8
i = 9
i = 10
i = 11
i = 12
i = 13
i = 14
i = 15
i = 16
i = 17
i = 18
i = 19
i = 20
i = 21
i = 22
i = 23
i = 24
i = 25
i = 26
i = 27
i = 28
i = 29
i = 30
Refix G03: 2, 266821.920678, 1234
Refix G08: 2, 266821.923051, -4732
Refix G09: 2, 266821.921430, -4389
Refix G14: 2, 266821.919762, 2364
Refix G16: 2, 266821.932366, -109
Refix G23: 2, 266821.928906, -2980
Refix G26: 2, 266821.927932, 1134
Refix G27: 2, 266821.929647, -3548
Refix G31: 2, 266821.921973, 796
$GNGGA,020644.000,2942.6183,N,10633.6000,E,1,09,1.1,6481.1,M,,,,0000*26
$GNRMC,020644.000,A,2942.6183,N,10633.6000,E,15.14,108.40,080519,,*20
$GPGSA,A,3,03,14,26,27,31,,,,,,,,1.3,1.1,0.8*3D
$BDGSA,A,3,01,02,06,16,,,,,,,,,1.3,1.1,0.8*2B
$GLGSA,A,3,,,,,,,,,,,,,1.3,1.1,0.8*24
$GPGSV,3,1,10,03,14,227,39,08,33,188,42,07,00,000,38,14,07,148,37*79
$GPGSV,3,2,10,16,62,006,44,23,58,292,44,26,38,040,43,27,60,151,44*73
$GPGSV,3,3,10,31,21,094,42,09,26,315,42*7E
$BDGSV,3,1,12,01,40,125,41,02,45,218,41,03,54,172,42,04,23,109,41*6A
$BDGSV,3,2,12,06,42,169,42,07,65,008,43,09,67,204,43,05,00,000,37*61
$BDGSV,3,3,12,16,48,176,43,10,62,301,43,19,20,295,43,27,34,159,41*6E
$B3CN0,0,0,0,0,0,0,0,0,0,0,0,0,0,0*4C
$ini_pos,lastpos_good = 1,ini_pos.x:-1581820.286432,ini_pos.y:5319672.940263,ini_pos.z:3145735.050494
$rtc_local_time,localRTC.weeks:2052,localRTC.seconds:266822.132235,localGtime.weeks:2052,localGtime.seconds:266823.000000
i = 0
i = 1
i = 2
i = 3
i = 4
i = 5
i = 6
i = 7
i = 8
i = 9
i = 10
i = 11
i = 12
i = 13
i = 14
i = 15
i = 16
i = 17
i = 18
i = 19
i = 20
i = 21
i = 22
i = 23
i = 24
i = 25
i = 26
i = 27
i = 28
i = 29
i = 30
i = 31
Refix G03: 2, 266822.920678, 1236
Refix G08: 2, 266822.923054, -4728
Refix G09: 2, 266822.921433, -4388
Refix G14: 2, 266822.919761, 2369
Refix G16: 2, 266822.932366, -105
Refix G23: 2, 266822.928908, -2977
Refix G26: 2, 266822.927931, 1137
Refix G27: 2, 266822.929649, -3543
Refix G31: 2, 266822.921972, 800
$GNGGA,020645.000,2942.6252,N,10633.6000,E,1,09,1.1,6505.0,M,,,,0000*24
$GNRMC,020645.000,A,2942.6252,N,10633.6000,E,15.71,109.77,080519,,*28
$GPGSA,A,3,03,14,26,27,31,,,,,,,,1.3,1.1,0.8*3D
$BDGSA,A,3,01,02,06,16,,,,,,,,,1.3,1.1,0.8*2B
$GLGSA,A,3,,,,,,,,,,,,,1.3,1.1,0.8*24
$GPGSV,3,1,10,03,14,227,39,08,33,188,41,07,00,000,38,14,07,148,36*7B
$GPGSV,3,2,10,16,62,006,45,23,58,292,45,26,38,040,43,27,60,151,44*73
$GPGSV,3,3,10,31,21,094,42,09,26,315,42*7E
$BDGSV,3,1,12,01,40,125,41,02,45,218,41,03,54,172,42,04,23,109,41*6A
$BDGSV,3,2,12,06,42,169,42,07,65,008,43,09,67,204,43,05,00,000,36*60
$BDGSV,3,3,12,16,48,176,43,10,62,301,44,19,20,295,43,27,34,159,42*6A
$B3CN0,0,0,0,0,0,0,0,0,0,0,0,0,0,0*4C
$ini_pos,lastpos_good = 1,ini_pos.x:-1581824.400400,ini_pos.y:5319686.786734,ini_pos.z:3145757.887480
$rtc_local_time,localRTC.weeks:2052,localRTC.seconds:266823.132235,localGtime.weeks:2052,localGtime.seconds:266824.000000
i = 0
i = 1
i = 2
i = 3
i = 4
i = 5
i = 6
i = 7
i = 8
i = 9
i = 10
i = 11
i = 12
i = 13
i = 14
i = 15
i = 16
i = 17
i = 18
i = 19
i = 20
i = 21
i = 22
i = 23
i = 24
i = 25
i = 26
i = 27
i = 28
i = 29
i = 30
i = 31
Refix G03: 2, 266823.920677, 1239
Refix G08: 2, 266823.923057, -4726
Refix G09: 2, 266823.921435, -4383
Refix G14: 2, 266823.919759, 2370
Refix G16: 2, 266823.932366, -100
Refix G23: 2, 266823.928910, -2972
Refix G26: 2, 266823.927930, 1140
Refix G27: 2, 266823.929651, -3540
Refix G31: 2, 266823.921972, 801
$GNGGA,020646.000,2942.6291,N,10633.5973,E,1,09,1.1,6528.9,M,,,,0000*20
$GNRMC,020646.000,A,2942.6291,N,10633.5973,E,15.18,107.68,080519,,*25
$GPGSA,A,3,03,14,26,27,31,,,,,,,,1.3,1.1,0.8*3D
$BDGSA,A,3,01,02,06,16,,,,,,,,,1.3,1.1,0.8*2B
$GLGSA,A,3,,,,,,,,,,,,,1.3,1.1,0.8*24
$GPGSV,3,1,10,03,14,227,40,08,33,188,41,07,00,000,38,14,07,148,36*75
$GPGSV,3,2,10,16,62,006,45,23,58,292,45,26,38,040,44,27,60,151,44*74
$GPGSV,3,3,10,31,21,094,42,09,26,315,42*7E
$BDGSV,3,1,12,01,40,125,41,02,45,218,41,03,54,172,45,04,23,109,41*6D
$BDGSV,3,2,12,06,42,169,42,07,65,008,44,09,67,204,43,05,00,000,37*66
$BDGSV,3,3,12,16,48,176,42,10,62,301,43,19,20,295,43,27,34,159,41*6F
$B3CN0,0,0,0,0,0,0,0,0,0,0,0,0,0,0*4C
$ini_pos,lastpos_good = 1,ini_pos.x:-1581825.233421,ini_pos.y:5319704.555683,ini_pos.z:3145775.957996
$rtc_local_time,localRTC.weeks:2052,localRTC.seconds:266824.132235,localGtime.weeks:2052,localGtime.seconds:266825.000000
i = 0
i = 1
i = 2
i = 3
i = 4
i = 5
i = 6
i = 7
i = 8
i = 9
i = 10
i = 11
i = 12
i = 13
i = 14
i = 15
i = 16
i = 17
i = 18
i = 19
i = 20
i = 21
i = 22
i = 23
i = 24
i = 25
i = 26
i = 27
i = 28
i = 29
i = 30
i = 31
Refix G03: 2, 266824.920676, 1241
Refix G08: 2, 266824.923060, -4723
Refix G09: 2, 266824.921438, -4382
Refix G14: 2, 266824.919758, 2373
Refix G16: 2, 266824.932366, -98
Refix G23: 2, 266824.928912, -2970
Refix G26: 2, 266824.927930, 1143
Refix G27: 2, 266824.929653, -3536
Refix G31: 2, 266824.921971, 805
$GNGGA,020647.000,2942.6354,N,10633.5953,E,1,09,1.1,6542.9,M,,,,0000*27
$GNRMC,020647.000,A,2942.6354,N,10633.5953,E,15.47,108.88,080519,,*25
$GPGSA,A,3,03,14,26,27,31,,,,,,,,1.3,1.1,0.8*3D
$BDGSA,A,3,01,02,06,16,,,,,,,,,1.3,1.1,0.8*2B
$GLGSA,A,3,,,,,,,,,,,,,1.3,1.1,0.8*24
$GPGSV,3,1,10,03,14,227,38,08,33,188,41,07,00,000,38,14,07,148,35*79
$GPGSV,3,2,10,16,62,006,45,23,58,292,44,26,38,040,42,27,60,151,44*73
$GPGSV,3,3,10,31,21,094,42,09,26,315,42*7E
$BDGSV,3,1,12,01,40,125,41,02,45,218,41,03,54,172,45,04,23,109,41*6D
$BDGSV,3,2,12,06,42,169,42,07,65,008,43,09,67,204,43,05,00,000,39*6F
$BDGSV,3,3,12,16,48,176,43,10,62,301,43,19,20,295,43,27,34,159,41*6E
$B3CN0,0,0,0,0,0,0,0,0,0,0,0,0,0,0*4C
$ini_pos,lastpos_good = 1,ini_pos.x:-1581823.925484,ini_pos.y:5319711.554774,ini_pos.z:3145793.124368
$rtc_local_time,localRTC.weeks:2052,localRTC.seconds:266825.132235,localGtime.weeks:2052,localGtime.seconds:266825.999999
i = 0
i = 1
i = 2
i = 3
i = 4
i = 5
i = 6
i = 7
i = 8
i = 9
i = 10
i = 11
i = 12
i = 13
i = 14
i = 15
i = 16
i = 17
i = 18
i = 19
i = 20
i = 21
i = 22
i = 23
i = 24
i = 25
i = 26
i = 27
i = 28
i = 29
i = 30
i = 31
Refix G03: 2, 266825.920675, 1240
Refix G08: 2, 266825.923063, -4723
Refix G09: 2, 266825.921441, -4383
Refix G14: 2, 266825.919756, 2374
Refix G16: 2, 266825.932366, -99
Refix G23: 2, 266825.928914, -2972
Refix G26: 2, 266825.927929, 1142
Refix G27: 2, 266825.929656, -3536
Refix G31: 2, 266825.921971, 805
$GNGGA,020648.000,2942.6391,N,10633.5935,E,1,09,1.1,6555.0,M,,,,0000*2E
$GNRMC,020648.000,A,2942.6391,N,10633.5935,E,15.88,110.40,080519,,*2D
$GPGSA,A,3,03,14,26,27,31,,,,,,,,1.3,1.1,0.8*3D
$BDGSA,A,3,01,02,06,16,,,,,,,,,1.3,1.1,0.8*2B
$GLGSA,A,3,,,,,,,,,,,,,1.3,1.1,0.8*24
$GPGSV,3,1,10,03,14,227,39,08,33,188,41,07,00,000,37,14,07,148,36*74
$GPGSV,3,2,10,16,62,006,44,23,58,292,44,26,38,040,43,27,60,151,44*73
$GPGSV,3,3,10,31,21,094,41,09,26,315,42*7D
$BDGSV,3,1,12,01,40,125,39,02,45,218,40,03,54,172,45,04,23,109,41*63
$BDGSV,3,2,12,06,42,169,42,07,65,008,43,09,67,204,43,05,00,000,40*61
$BDGSV,3,3,12,16,48,176,42,10,62,301,43,19,20,295,43,27,34,159,41*6F
$B3CN0,0,23,0,0,0,0,0,0,0,0,0,0,0,0*7D
$ini_pos,lastpos_good = 1,ini_pos.x:-1581823.160378,ini_pos.y:5319719.179159,ini_pos.z:3145805.050501
$rtc_local_time,localRTC.weeks:2052,localRTC.seconds:266826.132235,localGtime.weeks:2052,localGtime.seconds:266826.999999
i = 0
i = 1
i = 2
i = 3
i = 4
i = 5
i = 6
i = 7
i = 8
i = 9
i = 10
i = 11
i = 12
i = 13
i = 14
i = 15
i = 16
i = 17
i = 18
i = 19
i = 20
i = 21
i = 22
i = 23
i = 24
i = 25
i = 26
i = 27
i = 28
i = 29
i = 30
i = 31
i = 32
i = 33
Refix G03: 2, 266826.920674, 1232
Refix G08: 2, 266826.923066, -4733
Refix G09: 2, 266826.921444, -4390
Refix G14: 2, 266826.919754, 2364
Refix G16: 2, 266826.932366, -111
Refix G23: 2, 266826.928916, -2982
Refix G26: 2, 266826.927928, 1131
Refix G27: 2, 266826.929658, -3549
Refix G31: 2, 266826.921970, 794
$GNGGA,020649.000,2942.6467,N,10633.5956,E,1,09,1.1,6555.6,M,,,,0000*22
$GNRMC,020649.000,A,2942.6467,N,10633.5956,E,15.14,108.72,080519,,*2A
$GPGSA,A,3,03,14,26,27,31,,,,,,,,1.3,1.1,0.8*3D
$BDGSA,A,3,01,02,06,16,,,,,,,,,1.3,1.1,0.8*2B
$GLGSA,A,3,,,,,,,,,,,,,1.3,1.1,0.8*24
$GPGSV,3,1,10,03,14,227,39,08,33,188,41,07,00,000,37,14,07,148,36*74
$GPGSV,3,2,10,16,62,006,44,23,58,292,44,26,38,040,43,27,60,151,44*73
$GPGSV,3,3,10,31,21,094,41,09,26,315,42*7D
$BDGSV,3,1,12,01,40,125,41,02,45,218,41,03,54,172,43,04,23,109,40*6A
$BDGSV,3,2,12,06,42,169,42,07,65,008,43,09,67,204,43,05,00,000,37*61
$BDGSV,3,3,12,16,48,176,43,10,62,301,43,19,20,295,42,27,34,159,41*6F
$B3CN0,0,21,0,0,0,0,0,0,0,0,0,0,0,0*7F
$ini_pos,lastpos_good = 1,ini_pos.x:-1581824.588926,ini_pos.y:5319712.089560,ini_pos.z:3145817.519432
$rtc_local_time,localRTC.weeks:2052,localRTC.seconds:266827.132235,localGtime.weeks:2052,localGtime.seconds:266827.999999
i = 0
i = 1
i = 2
i = 3
i = 4
i = 5
i = 6
i = 7
i = 8
i = 9
i = 10
i = 11
i = 12
i = 13
i = 14
i = 15
i = 16
i = 17
i = 18
i = 19
i = 20
i = 21
i = 22
i = 23
i = 24
i = 25
i = 26
i = 27
i = 28
i = 29
i = 30
i = 31
Refix G03: 2, 266827.920673, 1240
Refix G08: 2, 266827.923069, -4724
Refix G09: 2, 266827.921446, -4384
Refix G14: 2, 266827.919753, 2372
Refix G16: 2, 266827.932366, -98
Refix G23: 2, 266827.928917, -2970
Refix G26: 2, 266827.927927, 1141
Refix G27: 2, 266827.929660, -3535
Refix G31: 2, 266827.921970, 803
$GNGGA,020650.000,2942.6529,N,10633.5935,E,1,09,1.1,6563.2,M,,,,0000*25
$GNRMC,020650.000,A,2942.6529,N,10633.5935,E,15.81,109.03,080519,,*27
$GPGSA,A,3,03,14,26,27,31,,,,,,,,1.3,1.1,0.8*3D
$BDGSA,A,3,01,02,06,16,,,,,,,,,1.3,1.1,0.8*2B
$GLGSA,A,3,,,,,,,,,,,,,1.3,1.1,0.8*24
$GPGSV,3,1,10,03,14,227,39,08,33,188,41,07,00,000,38,14,07,148,36*7B
$GPGSV,3,2,10,16,62,006,45,23,58,292,44,26,38,040,43,27,60,151,44*72
$GPGSV,3,3,10,31,21,094,42,09,26,315,42*7E
$BDGSV,3,1,12,01,40,125,41,02,45,218,40,03,54,172,45,04,23,109,41*6C
$BDGSV,3,2,12,06,42,169,42,07,65,008,43,09,67,204,43,05,00,000,36*60
$BDGSV,3,3,12,16,48,176,43,10,62,301,43,19,20,295,43,27,34,159,41*6E
$B3CN0,36,0,0,0,0,0,0,0,0,0,0,0,0,0*79
$ini_pos,lastpos_good = 1,ini_pos.x:-1581821.508142,ini_pos.y:5319713.948014,ini_pos.z:3145831.193482
$rtc_local_time,localRTC.weeks:2052,localRTC.seconds:266828.132235,localGtime.weeks:2052,localGtime.seconds:266828.999999
i = 0
i = 1
i = 2
i = 3
i = 4
i = 5
i = 6
i = 7
i = 8
i = 9
i = 10
i = 11
i = 12
i = 13
i = 14
i = 15
i = 16
i = 17
i = 18
i = 19
i = 20
i = 21
i = 22
i = 23
i = 24
i = 25
i = 26
i = 27
i = 28
i = 29
i = 30
i = 31
i = 32
Refix G03: 2, 266828.920672, 1237
Refix G08: 2, 266828.923072, -4727
Refix G09: 2, 266828.921449, -4386
Refix G14: 2, 266828.919751, 2370
Refix G16: 2, 266828.932366, -104
Refix G23: 2, 266828.928919, -2976
Refix G26: 2, 266828.927927, 1136
Refix G27: 2, 266828.929662, -3540
Refix G31: 2, 266828.921969, 800
$GNGGA,020651.000,2942.6582,N,10633.5922,E,1,09,1.1,6566.8,M,,,,0000*2C
$GNRMC,020651.000,A,2942.6582,N,10633.5922,E,15.73,109.05,080519,,*2A
$GPGSA,A,3,03,14,26,27,31,,,,,,,,1.3,1.1,0.8*3D
$BDGSA,A,3,01,02,06,16,,,,,,,,,1.3,1.1,0.8*2B
$GLGSA,A,3,,,,,,,,,,,,,1.3,1.1,0.8*24
$GPGSV,3,1,10,03,14,227,39,08,33,188,41,07,00,000,38,14,07,148,37*7A
$GPGSV,3,2,10,16,62,006,44,23,58,292,44,26,38,040,43,27,60,151,44*73
$GPGSV,3,3,10,31,21,094,42,09,26,315,42*7E
$BDGSV,3,1,12,01,40,125,40,02,45,218,40,03,54,172,42,04,23,109,41*6A
$BDGSV,3,2,12,06,42,169,42,07,65,008,43,09,67,204,43,05,00,000,38*6E
$BDGSV,3,3,12,16,48,176,43,10,62,301,43,19,20,295,43,27,34,159,41*6E
$B3CN0,36,19,0,0,0,0,0,0,0,0,0,0,0,0*41
$ini_pos,lastpos_good = 1,ini_pos.x:-1581819.116484,ini_pos.y:5319712.914628,ini_pos.z:3145841.508466
$rtc_local_time,localRTC.weeks:2052,localRTC.seconds:266829.132235,localGtime.weeks:2052,localGtime.seconds:266829.999999
i = 0
i = 1
i = 2
i = 3
i = 4
i = 5
i = 6
i = 7
i = 8
i = 9
i = 10
i = 11
i = 12
i = 13
i = 14
i = 15
i = 16
i = 17
i = 18
i = 19
i = 20
i = 21
i = 22
i = 23
i = 24
i = 25
i = 26
i = 27
i = 28
i = 29
i = 30
i = 31
i = 32
Refix G03: 2, 266829.920672, 1230
Refix G08: 2, 266829.923075, -4734
Refix G09: 2, 266829.921452, -4393
Refix G14: 2, 266829.919750, 2364
Refix G16: 2, 266829.932366, -112
Refix G23: 2, 266829.928921, -2984
Refix G26: 2, 266829.927926, 1128
Refix G27: 2, 266829.929664, -3548
Refix G31: 2, 266829.921969, 793
$GNGGA,020652.000,2942.6645,N,10633.5949,E,1,09,1.1,6578.7,M,,,,0000*2A
$GNRMC,020652.000,A,2942.6645,N,10633.5949,E,15.80,108.81,080519,,*2D
$GPGSA,A,3,03,14,26,27,31,,,,,,,,1.3,1.1,0.8*3D
$BDGSA,A,3,01,02,06,16,,,,,,,,,1.3,1.1,0.8*2B
$GLGSA,A,3,,,,,,,,,,,,,1.3,1.1,0.8*24
$GPGSV,3,1,10,03,14,227,40,08,33,188,42,07,00,000,38,14,07,148,36*76
$GPGSV,3,2,10,16,62,006,45,23,58,292,44,26,38,040,43,27,60,151,44*72
$GPGSV,3,3,10,31,21,094,41,09,26,315,41*7E
$BDGSV,3,1,12,01,40,125,41,02,45,218,40,03,54,172,43,04,23,109,41*6A
$BDGSV,3,2,12,06,42,169,41,07,65,008,43,09,67,204,43,05,00,000,38*6D
$BDGSV,3,3,12,16,48,176,42,10,62,301,42,19,20,295,43,27,34,159,41*6E
$B3CN0,0,22,0,0,0,0,0,0,0,0,0,0,0,0*7C
$ini_pos,lastpos_good = 1,ini_pos.x:-1581824.489285,ini_pos.y:5319716.032457,ini_pos.z:3145857.591613
$rtc_local_time,localRTC.weeks:2052,localRTC.seconds:266830.132235,localGtime.weeks:2052,localGtime.seconds:266830.999999
i = 0
i = 1
i = 2
i = 3
i = 4
i = 5
i = 6
i = 7
i = 8
i = 9
i = 10
i = 11
i = 12
i = 13
i = 14
i = 15
i = 16
i = 17
i = 18
i = 19
i = 20
i = 21
i = 22
i = 23
i = 24
i = 25
i = 26
i = 27
i = 28
i = 29
i = 30
i = 31
i = 32
i = 33
Refix G03: 2, 266830.920671, 1235
Refix G08: 2, 266830.923078, -4727
Refix G09: 2, 266830.921454, -4389
Refix G14: 2, 266830.919748, 2370
Refix G16: 2, 266830.932366, -99
Refix G23: 2, 266830.928923, -2973
Refix G26: 2, 266830.927925, 1138
Refix G27: 2, 266830.929667, -3536
Refix G31: 2, 266830.921968, 800
$GNGGA,020653.000,2942.6703,N,10633.5964,E,1,09,1.1,6580.5,M,,,,0000*22
$GNRMC,020653.000,A,2942.6703,N,10633.5964,E,16.36,110.31,080519,,*2C
$GPGSA,A,3,03,14,26,27,31,,,,,,,,1.3,1.1,0.8*3D
$BDGSA,A,3,01,02,06,16,,,,,,,,,1.3,1.1,0.8*2B
$GLGSA,A,3,,,,,,,,,,,,,1.3,1.1,0.8*24
$GPGSV,3,1,10,03,14,227,39,08,33,188,41,07,00,000,38,14,07,148,35*78
$GPGSV,3,2,10,16,62,006,45,23,58,292,45,26,38,040,44,27,60,151,45*75
$GPGSV,3,3,10,31,21,094,41,09,26,315,42*7D
$BDGSV,3,1,12,01,40,125,41,02,45,218,40,03,54,172,43,04,23,109,42*69
$BDGSV,3,2,12,06,42,169,42,07,65,008,44,09,67,204,43,05,00,000,38*69
$BDGSV,3,3,12,16,48,176,43,10,62,301,43,19,20,295,43,27,34,159,41*6E
$B3CN0,36,36,0,0,0,0,0,0,0,0,0,0,0,0*4C
$ini_pos,lastpos_good = 1,ini_pos.x:-1581825.836005,ini_pos.y:5319711.645503,ini_pos.z:3145867.794006
$rtc_local_time,localRTC.weeks:2052,localRTC.seconds:266831.132235,localGtime.weeks:2052,localGtime.seconds:266831.999999
i = 0
i = 1
i = 2
i = 3
i = 4
i = 5
i = 6
i = 7
i = 8
i = 9
i = 10
i = 11
i = 12
i = 13
i = 14
i = 15
i = 16
i = 17
i = 18
i = 19
i = 20
i = 21
i = 22
i = 23
i = 24
i = 25
i = 26
i = 27
i = 28
i = 29
i = 30
i = 31
i = 32
Refix G03: 2, 266831.920670, 1230
Refix G08: 2, 266831.923081, -4734
Refix G09: 2, 266831.921457, -4392
Refix G14: 2, 266831.919747, 2363
Refix G16: 2, 266831.932366, -108
Refix G23: 2, 266831.928925, -2981
Refix G26: 2, 266831.927924, 1130
Refix G27: 2, 266831.929669, -3545
Refix G31: 2, 266831.921968, 793
$GNGGA,020654.000,2942.6781,N,10633.5972,E,1,09,1.1,6575.0,M,,,,0000*27
$GNRMC,020654.000,A,2942.6781,N,10633.5972,E,15.55,108.44,080519,,*2B
$GPGSA,A,3,03,14,26,27,31,,,,,,,,1.3,1.1,0.8*3D
$BDGSA,A,3,01,02,06,16,,,,,,,,,1.3,1.1,0.8*2B
$GLGSA,A,3,,,,,,,,,,,,,1.3,1.1,0.8*24
$GPGSV,3,1,10,03,14,227,39,08,33,188,41,07,00,000,38,14,07,148,36*7B
$GPGSV,3,2,10,16,62,006,45,23,58,292,45,26,38,040,43,27,60,151,44*73
$GPGSV,3,3,10,31,21,094,41,09,26,315,42*7D
$BDGSV,3,1,12,01,40,125,41,02,45,218,41,03,54,172,43,04,23,109,41*6B
$BDGSV,3,2,12,06,42,169,42,07,65,008,43,09,67,204,43,05,00,000,37*61
$BDGSV,3,3,12,16,48,176,43,10,62,301,43,19,20,295,43,27,34,159,41*6E
$B3CN0,21,0,0,0,0,0,0,0,0,0,0,0,0,0*7F
$ini_pos,lastpos_good = 1,ini_pos.x:-1581823.607010,ini_pos.y:5319699.923431,ini_pos.z:3145877.633728
$rtc_local_time,localRTC.weeks:2052,localRTC.seconds:266832.132235,localGtime.weeks:2052,localGtime.seconds:266832.999999
i = 0
i = 1
i = 2
i = 3
i = 4
i = 5
i = 6
i = 7
i = 8
i = 9
i = 10
i = 11
i = 12
i = 13
i = 14
i = 15
i = 16
i = 17
i = 18
i = 19
i = 20
i = 21
i = 22
i = 23
i = 24
i = 25
i = 26
i = 27
i = 28
i = 29
i = 30
i = 31
Refix G03: 2, 266832.920669, 1233
Refix G08: 2, 266832.923084, -4730
Refix G09: 2, 266832.921460, -4389
Refix G14: 2, 266832.919745, 2367
Refix G16: 2, 266832.932366, -104
Refix G23: 2, 266832.928927, -2977
Refix G26: 2, 266832.927924, 1134
Refix G27: 2, 266832.929671, -3541
Refix G31: 2, 266832.921967, 797
$GNGGA,020655.000,2942.6841,N,10633.5974,E,1,09,1.1,6575.0,M,,,,0000*23
$GNRMC,020655.000,A,2942.6841,N,10633.5974,E,15.69,110.43,080519,,*2E
$GPGSA,A,3,03,14,26,27,31,,,,,,,,1.3,1.1,0.8*3D
$BDGSA,A,3,01,02,06,16,,,,,,,,,1.3,1.1,0.8*2B
$GLGSA,A,3,,,,,,,,,,,,,1.3,1.1,0.8*24
$GPGSV,3,1,10,03,14,227,39,08,33,188,41,07,00,000,37,14,07,148,37*75
$GPGSV,3,2,10,16,62,006,45,23,58,292,45,26,38,040,44,27,60,151,44*74
$GPGSV,3,3,10,31,21,094,41,09,26,315,42*7D
$BDGSV,3,1,12,01,40,125,41,02,45,218,39,03,54,172,42,04,23,109,41*65
$BDGSV,3,2,12,06,42,169,42,07,65,008,44,09,67,204,43,05,00,000,38*69
$BDGSV,3,3,12,16,48,176,43,10,62,301,43,19,20,295,43,27,34,159,42*6D
$B3CN0,0,0,0,0,0,0,0,0,0,0,0,0,0,0*4C
$ini_pos,lastpos_good = 1,ini_pos.x:-1581822.426125,ini_pos.y:5319694.597900,ini_pos.z:3145887.166355
$rtc_local_time,localRTC.weeks:2052,localRTC.seconds:266833.132235,localGtime.weeks:2052,localGtime.seconds:266833.999999
i = 0
i = 1
i = 2
i = 3
i = 4
i = 5
i = 6
i = 7
i = 8
i = 9
i = 10
i = 11
i = 12
i = 13
i = 14
i = 15
i = 16
i = 17
i = 18
i = 19
i = 20
i = 21
i = 22
i = 23
i = 24
i = 25
i = 26
i = 27
i = 28
i = 29
i = 30
i = 31
Refix G03: 2, 266833.920668, 1240
Refix G08: 2, 266833.923087, -4720
Refix G09: 2, 266833.921463, -4384
Refix G14: 2, 266833.919743, 2375
Refix G16: 2, 266833.932367, -91
Refix G23: 2, 266833.928928, -2966
Refix G26: 2, 266833.927923, 1144
Refix G27: 2, 266833.929673, -3527
Refix G31: 2, 266833.921966, 806
$GNGGA,020656.000,2942.6910,N,10633.6010,E,1,09,1.1,6576.9,M,,,,0000*27
$GNRMC,020656.000,A,2942.6910,N,10633.6010,E,16.56,109.89,080519,,*21
$GPGSA,A,3,03,14,26,27,31,,,,,,,,1.3,1.1,0.8*3D
$BDGSA,A,3,01,02,06,16,,,,,,,,,1.3,1.1,0.8*2B
$GLGSA,A,3,,,,,,,,,,,,,1.3,1.1,0.8*24
$GPGSV,3,1,10,03,14,227,40,08,33,188,41,07,00,000,38,14,07,148,36*75
$GPGSV,3,2,10,16,62,006,44,23,58,292,44,26,38,040,43,27,60,151,44*73
$GPGSV,3,3,10,31,21,094,41,09,26,315,42*7D
$BDGSV,3,1,12,01,40,125,41,02,45,218,40,03,54,172,45,04,23,109,41*6C
$BDGSV,3,2,12,06,42,169,42,07,65,008,44,09,67,204,43,05,00,000,37*66
$BDGSV,3,3,12,16,48,176,43,10,62,301,43,19,20,295,43,27,34,159,41*6E
$B3CN0,0,0,0,0,0,0,0,0,0,0,0,0,0,0*4C
$ini_pos,lastpos_good = 1,ini_pos.x:-1581826.599901,ini_pos.y:5319688.351537,ini_pos.z:3145899.270587
$rtc_local_time,localRTC.weeks:2052,localRTC.seconds:266834.132235,localGtime.weeks:2052,localGtime.seconds:266834.999999
i = 0
i = 1
i = 2
i = 3
i = 4
i = 5
i = 6
i = 7
i = 8
i = 9
i = 10
i = 11
i = 12
i = 13
i = 14
i = 15
i = 16
i = 17
i = 18
i = 19
i = 20
i = 21
i = 22
i = 23
i = 24
i = 25
i = 26
i = 27
i = 28
i = 29
i = 30
i = 31
Refix G03: 2, 266834.920667, 1236
Refix G08: 2, 266834.923089, -4728
Refix G09: 2, 266834.921465, -4384
Refix G14: 2, 266834.919742, 2369
Refix G16: 2, 266834.932367, -99
Refix G23: 2, 266834.928930, -2972
Refix G26: 2, 266834.927922, 1137
Refix G27: 2, 266834.929675, -3537
Refix G31: 2, 266834.921966, 799
$GNGGA,020657.000,2942.6958,N,10633.6009,E,1,09,1.1,6573.4,M,,,,0000*2A
$GNRMC,020657.000,A,2942.6958,N,10633.6009,E,15.30,108.68,080519,,*29
$GPGSA,A,3,03,14,26,27,31,,,,,,,,1.3,1.1,0.8*3D
$BDGSA,A,3,01,02,06,16,,,,,,,,,1.3,1.1,0.8*2B
$GLGSA,A,3,,,,,,,,,,,,,1.3,1.1,0.8*24
$GPGSV,3,1,10,03,14,227,39,08,33,188,42,07,00,000,38,14,07,148,35*7B
$GPGSV,3,2,10,16,62,006,45,23,58,292,45,26,38,040,43,27,60,151,44*73
$GPGSV,3,3,10,31,21,094,41,09,26,315,42*7D
$BDGSV,3,1,12,01,40,125,41,02,45,218,41,03,54,172,43,04,23,109,40*6A
$BDGSV,3,2,12,06,42,169,42,07,65,008,44,09,67,204,43,05,00,000,38*69
$BDGSV,3,3,12,16,48,176,43,10,62,301,43,19,20,295,42,27,34,159,41*6F
$B3CN0,0,0,0,0,0,0,0,0,0,0,0,0,0,0*4C
$ini_pos,lastpos_good = 1,ini_pos.x:-1581824.392325,ini_pos.y:5319681.351617,ini_pos.z:3145905.181631
$rtc_local_time,localRTC.weeks:2052,localRTC.seconds:266835.132235,localGtime.weeks:2052,localGtime.seconds:266835.999999
i = 0
i = 1
i = 2
i = 3
i = 4
i = 5
i = 6
i = 7
i = 8
i = 9
i = 10
i = 11
i = 12
i = 13
i = 14
i = 15
i = 16
i = 17
i = 18
i = 19
i = 20
i = 21
i = 22
i = 23
i = 24
i = 25
i = 26
i = 27
i = 28
i = 29
i = 30
i = 31
Refix G03: 2, 266835.920667, 1233
Refix G08: 2, 266835.923092, -4731
Refix G09: 2, 266835.921468, -4388
Refix G14: 2, 266835.919740, 2366
Refix G16: 2, 266835.932367, -105
Refix G23: 2, 266835.928932, -2977
Refix G26: 2, 266835.927921, 1132
Refix G27: 2, 266835.929678, -3541
Refix G31: 2, 266835.921965, 795
$GNGGA,020658.000,2942.7016,N,10633.6005,E,1,09,1.1,6568.2,M,,,,0000*27
$GNRMC,020658.000,A,2942.7016,N,10633.6005,E,15.40,108.69,080519,,*2E
$GPGSA,A,3,03,14,26,27,31,,,,,,,,1.3,1.1,0.8*3D
$BDGSA,A,3,01,02,06,16,,,,,,,,,1.3,1.1,0.8*2B
$GLGSA,A,3,,,,,,,,,,,,,1.3,1.1,0.8*24
$GPGSV,3,1,10,03,14,227,39,08,33,188,42,07,00,000,37,14,07,148,35*74
$GPGSV,3,2,10,16,62,006,44,23,58,292,44,26,38,040,44,27,60,151,44*74
$GPGSV,3,3,10,31,21,094,41,09,26,315,42*7D
$BDGSV,3,1,12,01,40,125,40,02,45,218,40,03,54,172,43,04,23,109,41*6B
$BDGSV,3,2,12,06,42,169,42,07,65,008,43,09,67,204,43,05,00,000,37*61
$BDGSV,3,3,12,16,48,176,43,10,62,301,43,19,20,295,43,27,34,159,42*6D
$B3CN0,0,0,0,0,0,0,0,0,0,0,0,0,0,0*4C
$ini_pos,lastpos_good = 1,ini_pos.x:-1581820.926228,ini_pos.y:5319672.125603,ini_pos.z:3145911.942938
$rtc_local_time,localRTC.weeks:2052,localRTC.seconds:266836.132235,localGtime.weeks:2052,localGtime.seconds:266836.999999
i = 0
i = 1
i = 2
i = 3
i = 4
i = 5
i = 6
i = 7
i = 8
i = 9
i = 10
i = 11
i = 12
i = 13
i = 14
i = 15
i = 16
i = 17
i = 18
i = 19
i = 20
i = 21
i = 22
i = 23
i = 24
i = 25
i = 26
i = 27
i = 28
i = 29
i = 30
i = 31
Refix G03: 2, 266836.920666, 1243
Refix G08: 2, 266836.923095, -4717
Refix G09: 2, 266836.921471, -4381
Refix G14: 2, 266836.919739, 2379
Refix G16: 2, 266836.932367, -87
Refix G23: 2, 266836.928934, -2962
Refix G26: 2, 266836.927921, 1147
Refix G27: 2, 266836.929680, -3522
Refix G31: 2, 266836.921965, 809
$GNGGA,020659.000,2942.7069,N,10633.6007,E,1,09,1.1,6566.2,M,,,,0000*22
$GNRMC,020659.000,A,2942.7069,N,10633.6007,E,16.66,110.43,080519,,*23
$GPGSA,A,3,03,14,26,27,31,,,,,,,,1.3,1.1,0.8*3D
$BDGSA,A,3,01,02,06,16,,,,,,,,,1.3,1.1,0.8*2B
$GLGSA,A,3,,,,,,,,,,,,,1.3,1.1,0.8*24
$GPGSV,3,1,10,03,14,227,40,08,33,188,42,07,00,000,38,14,07,148,36*76
$GPGSV,3,2,10,16,62,006,45,23,58,292,44,26,38,040,43,27,60,151,45*73
$GPGSV,3,3,10,31,21,094,41,09,26,315,41*7E
$BDGSV,3,1,12,01,40,125,42,02,45,218,41,03,54,172,45,04,23,109,41*6E
$BDGSV,3,2,12,06,42,169,42,07,65,008,43,09,67,204,43,05,00,000,39*6F
$BDGSV,3,3,12,16,48,176,43,10,62,301,43,19,20,295,43,27,34,159,42*6D
$B3CN0,0,0,0,0,0,0,0,0,0,0,0,0,0,0*4C
$ini_pos,lastpos_good = 1,ini_pos.x:-1581819.359035,ini_pos.y:5319665.615316,ini_pos.z:3145919.555786
$rtc_local_time,localRTC.weeks:2052,localRTC.seconds:266837.132235,localGtime.weeks:2052,localGtime.seconds:266837.999999
i = 0
i = 1
i = 2
i = 3
i = 4
i = 5
i = 6
i = 7
i = 8
i = 9
i = 10
i = 11
i = 12
i = 13
i = 14
i = 15
i = 16
i = 17
i = 18
i = 19
i = 20
i = 21
i = 22
i = 23
i = 24
i = 25
i = 26
i = 27
i = 28
i = 29
i = 30
i = 31
i = 32
Refix G03: 2, 266837.920665, 1242
Refix G08: 2, 266837.923098, -4721
Refix G09: 2, 266837.921474, -4378
Refix G14: 2, 266837.919737, 2376
Refix G16: 2, 266837.932367, -90
Refix G23: 2, 266837.928936, -2964
Refix G26: 2, 266837.927920, 1145
Refix G27: 2, 266837.929682, -3528
Refix G31: 2, 266837.921964, 807
$GNGGA,020700.000,2942.7121,N,10633.5985,E,1,09,1.1,6559.3,M,,,,0000*2F
$GNRMC,020700.000,A,2942.7121,N,10633.5985,E,15.31,110.56,080519,,*26
$GPGSA,A,3,03,14,26,27,31,,,,,,,,1.3,1.1,0.8*3D
$BDGSA,A,3,01,02,06,16,,,,,,,,,1.3,1.1,0.8*2B
$GLGSA,A,3,,,,,,,,,,,,,1.3,1.1,0.8*24
$GPGSV,3,1,10,03,14,227,39,08,33,188,42,07,00,000,38,14,07,148,36*78
$GPGSV,3,2,10,16,62,006,44,23,58,292,44,26,38,040,43,27,60,151,44*73
$GPGSV,3,3,10,31,21,094,41,09,26,315,42*7D
$BDGSV,3,1,12,01,40,125,41,02,45,218,41,03,54,172,42,04,23,109,40*6B
$BDGSV,3,2,12,06,42,169,42,07,65,008,43,09,67,204,43,05,00,000,37*61
$BDGSV,3,3,12,16,48,176,43,10,62,301,44,19,20,295,43,27,34,159,42*6A
$B3CN0,0,16,0,0,0,0,0,0,0,0,0,0,0,0*7B
$ini_pos,lastpos_good = 1,ini_pos.x:-1581812.830612,ini_pos.y:5319656.348898,ini_pos.z:3145924.484530
$rtc_local_time,localRTC.weeks:2052,localRTC.seconds:266838.132235,localGtime.weeks:2052,localGtime.seconds:266838.999999
i = 0
i = 1
i = 2
i = 3
i = 4
i = 5
i = 6
i = 7
i = 8
i = 9
i = 10
i = 11
i = 12
i = 13
i = 14
i = 15
i = 16
i = 17
i = 18
i = 19
i = 20
i = 21
i = 22
i = 23
i = 24
i = 25
i = 26
i = 27
i = 28
i = 29
i = 30
i = 31
Refix G03: 2, 266838.920664, 1237
Refix G07: 2, 266838.913987, -3618
Refix G08: 2, 266838.923101, -4728
Refix G09: 2, 266838.921476, -4382
Refix G14: 2, 266838.919736, 2369
Refix G16: 2, 266838.932367, -101
Refix G23: 2, 266838.928938, -2972
Refix G26: 2, 266838.927919, 1135
Refix G27: 2, 266838.929684, -3538
Refix G31: 2, 266838.921964, 798
$GNGGA,020701.000,2942.7180,N,10633.6004,E,1,09,1.1,6553.0,M,,,,0000*2F
$GNRMC,020701.000,A,2942.7180,N,10633.6004,E,14.86,107.71,080519,,*21
$GPGSA,A,3,03,14,26,27,31,,,,,,,,1.3,1.1,0.8*3D
$BDGSA,A,3,01,02,06,16,,,,,,,,,1.3,1.1,0.8*2B
$GLGSA,A,3,,,,,,,,,,,,,1.3,1.1,0.8*24
$GPGSV,3,1,10,03,14,227,40,08,33,188,41,07,00,000,37,14,07,148,36*7A
$GPGSV,3,2,10,16,62,006,44,23,58,292,44,26,38,040,43,27,60,151,44*73
$GPGSV,3,3,10,31,21,094,41,09,26,315,42*7D
$BDGSV,3,1,12,01,40,125,41,02,45,218,40,03,54,172,45,04,23,109,41*6C
$BDGSV,3,2,12,06,42,169,42,07,65,008,43,09,67,204,43,05,00,000,37*61
$BDGSV,3,3,12,16,48,176,43,10,62,301,44,19,20,295,43,27,34,159,42*6A
$B3CN0,0,0,0,0,0,0,0,0,0,0,0,0,0,0*4C
$ini_pos,lastpos_good = 1,ini_pos.x:-1581812.757715,ini_pos.y:5319645.081794,ini_pos.z:3145930.769947
$rtc_local_time,localRTC.weeks:2052,localRTC.seconds:266839.132235,localGtime.weeks:2052,localGtime.seconds:266839.999999
i = 0
i = 1
i = 2
i = 3
i = 4
i = 5
i = 6
i = 7
i = 8
i = 9
i = 10
i = 11
i = 12
i = 13
i = 14
i = 15
i = 16
i = 17
i = 18
i = 19
i = 20
i = 21
i = 22
i = 23
i = 24
i = 25
i = 26
i = 27
i = 28
i = 29
i = 30
i = 31
Refix G03: 2, 266839.920663, 1229
Refix G07: 2, 266839.913989, -3624
Refix G08: 2, 266839.923104, -4736
Refix G09: 2, 266839.921479, -4388
Refix G14: 2, 266839.919734, 2362
Refix G16: 2, 266839.932367, -110
Refix G23: 2, 266839.928940, -2981
Refix G26: 2, 266839.927918, 1127
Refix G27: 2, 266839.929686, -3547
Refix G31: 2, 266839.921963, 791
$GNGGA,020702.000,2942.7236,N,10633.5999,E,1,09,1.1,6548.6,M,,,,0000*20
$GNRMC,020702.000,A,2942.7236,N,10633.5999,E,14.59,108.41,080519,,*2C
$GPGSA,A,3,03,14,26,27,31,,,,,,,,1.3,1.1,0.8*3D
$BDGSA,A,3,01,02,06,16,,,,,,,,,1.3,1.1,0.8*2B
$GLGSA,A,3,,,,,,,,,,,,,1.3,1.1,0.8*24
$GPGSV,3,1,10,03,14,227,39,08,33,188,42,07,03,294,37,14,07,148,36*7B
$GPGSV,3,2,10,16,62,006,44,23,58,292,44,26,38,040,43,27,60,151,44*73
$GPGSV,3,3,10,31,21,094,41,09,26,315,42*7D
$BDGSV,3,1,12,01,40,125,41,02,45,218,40,03,54,172,45,04,23,109,40*6D
$BDGSV,3,2,12,06,42,169,42,07,65,008,43,09,67,204,43,05,00,000,38*6E
$BDGSV,3,3,12,16,48,176,43,10,62,301,44,19,20,295,42,27,34,159,42*6B
$B3CN0,0,0,0,0,0,0,0,0,0,0,0,0,0,0*4C
$ini_pos,lastpos_good = 1,ini_pos.x:-1581809.449403,ini_pos.y:5319636.690733,ini_pos.z:3145937.607532
$rtc_local_time,localRTC.weeks:2052,localRTC.seconds:266840.132235,localGtime.weeks:2052,localGtime.seconds:266840.999999
i = 0
i = 1
i = 2
i = 3
i = 4
i = 5
i = 6
i = 7
i = 8
i = 9
i = 10
i = 11
i = 12
i = 13
i = 14
i = 15
i = 16
i = 17
i = 18
i = 19
i = 20
i = 21
i = 22
i = 23
i = 24
i = 25
i = 26
i = 27
i = 28
i = 29
i = 30
i = 31
i = 32
Refix G03: 2, 266840.920662, 1229
Refix G07: 2, 266840.913991, -3626
Refix G08: 2, 266840.923107, -4735
Refix G09: 2, 266840.921482, -4388
Refix G14: 2, 266840.919733, 2362
Refix G16: 2, 266840.932367, -106
Refix G23: 2, 266840.928941, -2978
Refix G26: 2, 266840.927918, 1129
Refix G27: 2, 266840.929689, -3544
Refix G31: 2, 266840.921963, 792
$GNGGA,020703.000,2942.7294,N,10633.6014,E,1,09,1.1,6542.1,M,,,,0000*2B
$GNRMC,020703.000,A,2942.7294,N,10633.6014,E,14.78,109.02,080519,,*2F
$GPGSA,A,3,03,14,26,27,31,,,,,,,,1.3,1.1,0.8*3D
$BDGSA,A,3,01,02,06,16,,,,,,,,,1.3,1.1,0.8*2B
$GLGSA,A,3,,,,,,,,,,,,,1.3,1.1,0.8*24
$GPGSV,3,1,10,03,14,227,40,08,33,188,41,07,03,294,38,14,07,148,36*79
$GPGSV,3,2,10,16,62,006,44,23,58,292,44,26,38,040,43,27,60,151,44*73
$GPGSV,3,3,10,31,21,094,41,09,26,315,41*7E
$BDGSV,3,1,12,01,40,125,41,02,45,218,40,03,54,172,43,04,23,109,41*6A
$BDGSV,3,2,12,06,42,169,41,07,65,008,43,09,67,204,43,05,00,000,38*6D
$BDGSV,3,3,12,16,48,176,43,10,62,301,43,19,20,295,42,27,34,159,41*6F
$B3CN0,0,21,0,0,0,0,0,0,0,0,0,0,0,0*7F
$ini_pos,lastpos_good = 1,ini_pos.x:-1581808.517630,ini_pos.y:5319625.517828,ini_pos.z:3145943.682515
$rtc_local_time,localRTC.weeks:2052,localRTC.seconds:266841.132235,localGtime.weeks:2052,localGtime.seconds:266841.999999
i = 0
i = 1
i = 2
i = 3
i = 4
i = 5
i = 6
i = 7
i = 8
i = 9
i = 10
i = 11
i = 12
i = 13
i = 14
i = 15
i = 16
i = 17
i = 18
i = 19
i = 20
i = 21
i = 22
i = 23
i = 24
i = 25
i = 26
i = 27
i = 28
i = 29
i = 30
i = 31
Refix G03: 2, 266841.920661, 1230
Refix G07: 2, 266841.913994, -3627
Refix G08: 2, 266841.923110, -4735
Refix G09: 2, 266841.921485, -4388
Refix G14: 2, 266841.919731, 2362
Refix G16: 2, 266841.932367, -104
Refix G23: 2, 266841.928943, -2976
Refix G26: 2, 266841.927917, 1130
Refix G27: 2, 266841.929691, -3542
Refix G31: 2, 266841.921962, 791
$GNGGA,020704.000,2942.7358,N,10633.6018,E,1,09,1.1,6536.3,M,,,,0000*20
$GNRMC,020704.000,A,2942.7358,N,10633.6018,E,14.64,107.91,080519,,*2C
$GPGSA,A,3,03,14,26,27,31,,,,,,,,1.3,1.1,0.8*3D
$BDGSA,A,3,01,02,06,16,,,,,,,,,1.3,1.1,0.8*2B
$GLGSA,A,3,,,,,,,,,,,,,1.3,1.1,0.8*24
$GPGSV,3,1,10,03,14,227,40,08,33,188,41,07,03,294,37,14,07,148,35*75
$GPGSV,3,2,10,16,62,006,44,23,58,292,44,26,38,040,44,27,60,151,44*74
$GPGSV,3,3,10,31,21,094,41,09,26,315,42*7D
$BDGSV,3,1,12,01,40,125,43,02,45,218,40,03,54,172,45,04,23,109,41*6E
$BDGSV,3,2,12,06,42,169,42,07,65,008,43,09,67,204,43,05,00,000,37*61
$BDGSV,3,3,12,16,48,176,42,10,62,301,43,19,20,295,43,27,34,159,42*6C
$B3CN0,0,0,0,0,0,0,0,0,0,0,0,0,0,0*4C
$ini_pos,lastpos_good = 1,ini_pos.x:-1581806.157496,ini_pos.y:5319614.827386,ini_pos.z:3145951.025684
$rtc_local_time,localRTC.weeks:2052,localRTC.seconds:266842.132235,localGtime.weeks:2052,localGtime.seconds:266842.999999
i = 0
i = 1
i = 2
i = 3
i = 4
i = 5
i = 6
i = 7
i = 8
i = 9
i = 10
i = 11
i = 12
i = 13
i = 14
i = 15
i = 16
i = 17
i = 18
i = 19
i = 20
i = 21
i = 22
i = 23
i = 24
i = 25
i = 26
i = 27
i = 28
i = 29
i = 30
i = 31
Refix G03: 2, 266842.920661, 1236
Refix G07: 2, 266842.913996, -3627
Refix G08: 2, 266842.923113, -4724
Refix G09: 2, 266842.921487, -4385
Refix G14: 2, 266842.919729, 2374
Refix G16: 2, 266842.932367, -92
Refix G23: 2, 266842.928945, -2967
Refix G26: 2, 266842.927916, 1141
Refix G27: 2, 266842.929693, -3526
Refix G31: 2, 266842.921962, 804
$GNGGA,020705.000,2942.7410,N,10633.5978,E,1,09,1.1,6533.8,M,,,,0000*28
$GNRMC,020705.000,A,2942.7410,N,10633.5978,E,16.40,111.82,080519,,*2B
$GPGSA,A,3,03,14,26,27,31,,,,,,,,1.3,1.1,0.8*3D
$BDGSA,A,3,01,02,06,16,,,,,,,,,1.3,1.1,0.8*2B
$GLGSA,A,3,,,,,,,,,,,,,1.3,1.1,0.8*24
$GPGSV,3,1,10,03,14,227,39,08,33,188,42,07,03,294,37,14,07,148,36*7B
$GPGSV,3,2,10,16,62,006,44,23,58,292,44,26,38,040,43,27,60,151,44*73
$GPGSV,3,3,10,31,21,094,41,09,26,315,42*7D
$BDGSV,3,1,12,01,40,125,42,02,45,218,40,03,54,172,45,04,23,109,41*6F
$BDGSV,3,2,12,06,42,169,41,07,65,008,43,09,67,204,43,05,00,000,37*62
$BDGSV,3,3,12,16,48,176,43,10,62,301,43,19,20,295,43,27,34,159,42*6D
$B3CN0,0,16,0,0,0,0,0,0,0,0,0,0,0,0*7B
$ini_pos,lastpos_good = 1,ini_pos.x:-1581797.857251,ini_pos.y:5319610.040993,ini_pos.z:3145958.214739
$rtc_local_time,localRTC.weeks:2052,localRTC.seconds:266843.132234,localGtime.weeks:2052,localGtime.seconds:266843.999999
i = 0
i = 1
i = 2
i = 3
i = 4
i = 5
i = 6
i = 7
i = 8
i = 9
i = 10
i = 11
i = 12
i = 13
i = 14
i = 15
i = 16
i = 17
i = 18
i = 19
i = 20
i = 21
i = 22
i = 23
i = 24
i = 25
i = 26
i = 27
i = 28
i = 29
i = 30
i = 31
Refix G03: 2, 266843.920660, 1236
Refix G07: 2, 266843.913998, -3625
Refix G08: 2, 266843.923116, -4725
Refix G09: 2, 266843.921490, -4384
Refix G14: 2, 266843.919728, 2373
Refix G16: 2, 266843.932367, -94
Refix G23: 2, 266843.928947, -2968
Refix G26: 2, 266843.927915, 1139
Refix G27: 2, 266843.929695, -3529
Refix G31: 2, 266843.921961, 802
$GNGGA,020706.000,2942.7454,N,10633.5949,E,1,09,1.1,6529.9,M,,,,0000*23
$GNRMC,020706.000,A,2942.7454,N,10633.5949,E,15.97,110.70,080519,,*2F
$GPGSA,A,3,03,14,26,27,31,,,,,,,,1.3,1.1,0.8*3D
$BDGSA,A,3,01,02,06,16,,,,,,,,,1.3,1.1,0.8*2B
$GLGSA,A,3,,,,,,,,,,,,,1.3,1.1,0.8*24
$GPGSV,3,1,10,03,14,227,39,08,33,188,42,07,03,294,37,14,07,148,36*7B
$GPGSV,3,2,10,16,62,006,44,23,58,292,44,26,38,040,43,27,60,151,44*73
$GPGSV,3,3,10,31,21,094,40,09,26,315,42*7C
$BDGSV,3,1,12,01,40,125,40,02,45,218,41,03,54,172,43,04,23,109,40*6B
$BDGSV,3,2,12,06,42,169,42,07,65,008,43,09,67,204,43,05,00,000,37*61
$BDGSV,3,3,12,16,48,176,42,10,62,301,43,19,20,295,43,27,34,159,42*6C
$B3CN0,0,0,0,0,0,0,0,0,0,0,0,0,0,0*4C
$ini_pos,lastpos_good = 1,ini_pos.x:-1581791.362800,ini_pos.y:5319604.258871,ini_pos.z:3145963.312802
$rtc_local_time,localRTC.weeks:2052,localRTC.seconds:266844.132234,localGtime.weeks:2052,localGtime.seconds:266844.999999
i = 0
i = 1
i = 2
i = 3
i = 4
i = 5
i = 6
i = 7
i = 8
i = 9
i = 10
i = 11
i = 12
i = 13
i = 14
i = 15
i = 16
i = 17
i = 18
i = 19
i = 20
i = 21
i = 22
i = 23
i = 24
i = 25
i = 26
i = 27
i = 28
i = 29
i = 30
i = 31
i = 32
Refix G03: 2, 266844.920659, 1239
Refix G07: 2, 266844.914001, -3622
Refix G08: 2, 266844.923119, -4723
Refix G09: 2, 266844.921493, -4380
Refix G14: 2, 266844.919726, 2374
Refix G16: 2, 266844.932367, -92
Refix G23: 2, 266844.928949, -2965
Refix G26: 2, 266844.927915, 1141
Refix G27: 2, 266844.929697, -3527
Refix G31: 2, 266844.921960, 804
$GNGGA,020707.000,2942.7500,N,10633.5956,E,1,09,1.1,6526.8,M,,,,0000*22
$GNRMC,020707.000,A,2942.7500,N,10633.5956,E,15.62,109.85,080519,,*28
$GPGSA,A,3,03,14,26,27,31,,,,,,,,1.3,1.1,0.8*3D
$BDGSA,A,3,01,02,06,16,,,,,,,,,1.3,1.1,0.8*2B
$GLGSA,A,3,,,,,,,,,,,,,1.3,1.1,0.8*24
$GPGSV,3,1,10,03,14,227,40,08,33,188,42,07,03,294,38,14,07,148,36*7A
$GPGSV,3,2,10,16,62,006,45,23,58,292,45,26,38,040,43,27,60,151,44*73
$GPGSV,3,3,10,31,21,094,41,09,26,315,41*7E
$BDGSV,3,1,12,01,40,125,40,02,45,218,41,03,54,172,45,04,23,109,41*6C
$BDGSV,3,2,12,06,42,169,42,07,65,008,43,09,67,204,43,05,00,000,38*6E
$BDGSV,3,3,12,16,48,176,42,10,62,301,43,19,20,295,43,27,34,159,41*6F
$B3CN0,22,0,0,0,0,0,0,0,0,0,0,0,0,0*7C
$ini_pos,lastpos_good = 1,ini_pos.x:-1581790.453443,ini_pos.y:5319597.299586,ini_pos.z:3145969.238152
$rtc_local_time,localRTC.weeks:2052,localRTC.seconds:266845.132234,localGtime.weeks:2052,localGtime.seconds:266845.999999
i = 0
i = 1
i = 2
i = 3
i = 4
i = 5
i = 6
i = 7
i = 8
i = 9
i = 10
i = 11
i = 12
i = 13
i = 14
i = 15
i = 16
i = 17
i = 18
i = 19
i = 20
i = 21
i = 22
i = 23
i = 24
i = 25
i = 26
i = 27
i = 28
i = 29
i = 30
i = 31
Refix G03: 2, 266845.920658, 1237
Refix G07: 2, 266845.914003, -3622
Refix G08: 2, 266845.923122, -4727
Refix G09: 2, 266845.921496, -4381
Refix G14: 2, 266845.919725, 2371
Refix G16: 2, 266845.932367, -97
Refix G23: 2, 266845.928951, -2969
Refix G26: 2, 266845.927914, 1136
Refix G27: 2, 266845.929700, -3532
Refix G31: 2, 266845.921960, 799
$GNGGA,020708.000,2942.7609,N,10633.5958,E,1,09,1.1,6513.5,M,,,,0000*22
$GNRMC,020708.000,A,2942.7609,N,10633.5958,E,15.19,108.72,080519,,*26
$GPGSA,A,3,03,14,26,27,31,,,,,,,,1.3,1.1,0.8*3D
$BDGSA,A,3,01,02,06,16,,,,,,,,,1.3,1.1,0.8*2B
$GLGSA,A,3,,,,,,,,,,,,,1.3,1.1,0.8*24
$GPGSV,3,1,10,03,14,227,40,08,33,188,41,07,03,294,38,14,07,148,36*79
$GPGSV,3,2,10,16,62,006,45,23,58,292,45,26,38,040,44,27,60,151,44*74
$GPGSV,3,3,10,31,21,094,41,09,26,315,41*7E
$BDGSV,3,1,12,01,40,125,41,02,45,218,40,03,54,172,43,04,23,109,41*6A
$BDGSV,3,2,12,06,42,169,41,07,65,008,43,09,67,204,43,05,00,000,37*62
$BDGSV,3,3,12,16,48,176,43,10,62,301,43,19,20,295,43,27,34,159,41*6E
$B3CN0,0,0,0,0,0,0,0,0,0,0,0,0,0,0*4C
$ini_pos,lastpos_good = 1,ini_pos.x:-1581784.553621,ini_pos.y:5319576.637211,ini_pos.z:3145980.066887
$rtc_local_time,localRTC.weeks:2052,localRTC.seconds:266846.132234,localGtime.weeks:2052,localGtime.seconds:266846.999999
i = 0
i = 1
i = 2
i = 3
i = 4
i = 5
i = 6
i = 7
i = 8
i = 9
i = 10
i = 11
i = 12
i = 13
i = 14
i = 15
i = 16
i = 17
i = 18
i = 19
i = 20
i = 21
i = 22
i = 23
i = 24
i = 25
i = 26
i = 27
i = 28
i = 29
i = 30
i = 31
Refix G03: 2, 266846.920657, 1238
Refix G07: 2, 266846.914005, -3625
