SD initialized success
Create debug.log Failed! 3
bbram_blkflag = 1
rtcflag = 0
BBRAM Block OK: 01 EPHflag: 4660a1c4 8c44836f, rtc 00
Hot-start nowtime:day = 8,minute = 17,seconds = 49.00
GPS 0 Init Dop: 10000,80
GPS 1 Init Dop: 10000,80
GPS 2 Init Dop:  1598, 2
GPS 3 Init Dop: 10000,80
GPS 4 Init Dop: 10000,80
GPS 5 Init Dop: 10000,80
GPS 6 Init Dop: -3360, 2
GPS 7 Init Dop: -4304, 2
GPS 8 Init Dop: -3824, 2
GPS 9 Init Dop: 10000,80
GPS10 Init Dop: 10000,80
GPS11 Init Dop: 10000,80
GPS12 Init Dop: 10000,80
GPS13 Init Dop:  2741, 2
GPS14 Init Dop: 10000,80
GPS15 Init Dop:   485, 2
GPS16 Init Dop: 10000,80
GPS17 Init Dop: 10000,80
GPS18 Init Dop: 10000,80
GPS19 Init Dop: 10000,80
GPS20 Init Dop: 10000,80
GPS21 Init Dop:  1403, 2
GPS22 Init Dop: -2339, 2
GPS23 Init Dop: 10000,80
GPS24 Init Dop: 10000,80
GPS25 Init Dop:  1484, 2
GPS26 Init Dop: -2856, 2
GPS27 Init Dop: 10000,80
GPS28 Init Dop: 10000,80
GPS29 Init Dop: 10000,80
GPS30 Init Dop:  1130, 2
GPS31 Init Dop: 10000,80
BDS 0 Init Dop:  -887, 2
BDS 1 Init Dop:  -818, 2
BDS 2 Init Dop:  -866, 2
BDS 3 Init Dop:  -893, 2
BDS 4 Init Dop: 10000,80
BDS 5 Init Dop:   360, 2
BDS 6 Init Dop:  -583, 2
BDS 7 Init Dop: 10000,80
BDS 8 Init Dop:  -159, 2
BDS 9 Init Dop:  -687, 2
BDS10 Init Dop: 10000,80
BDS11 Init Dop: 10000,80
BDS12 Init Dop: 10000,80
BDS13 Init Dop: 10000,80
BDS14 Init Dop: 10000,80
BDS15 Init Dop:   383, 2
BDS16 Init Dop: 10000,80
BDS17 Init Dop: 10000,80
BDS18 Init Dop: -1345, 2
BDS19 Init Dop: 10000,80
BDS20 Init Dop: 10000,80
BDS21 Init Dop: 10000,80
BDS22 Init Dop:   799, 2
BDS23 Init Dop: 10000,80
BDS24 Init Dop: 10000,80
BDS25 Init Dop: 10000,80
BDS26 Init Dop: -3715, 2
BDS27 Init Dop: -1420, 2
BDS28 Init Dop: 10000,80
BDS29 Init Dop: 10000,80
BDS30 Init Dop: 10000,80
BDS31 Init Dop:  2107, 2
Good luck!
$ini_pos,lastpos_good = 1,ini_pos.x:-1578443.000000,ini_pos.y:5315805.000000,ini_pos.z:3147688.000000
$GNGGA,000000.000,,,,,0,00,,,M,,,,0000*2B
$GNRMC,000000.000,A,,,,,,,060180,,*29
$GPGSA,A,1,,,,,,,,,,,,,,,*1E
$BDGSA,A,1,,,,,,,,,,,,,,,*0F
$GLGSA,A,1,,,,,,,,,,,,,,,*02
$B3CN0,0,0,0,0,0,0,0,0,0,0,0,0,0,0*4C
$ini_pos,lastpos_good = 1,ini_pos.x:-1578443.000000,ini_pos.y:5315805.000000,ini_pos.z:3147688.000000
$GNGGA,000000.000,,,,,0,00,,,M,,,,0000*2B
$GNRMC,000000.000,A,,,,,,,060180,,*29
$GPGSA,A,1,,,,,,,,,,,,,,,*1E
$BDGSA,A,1,,,,,,,,,,,,,,,*0F
$GLGSA,A,1,,,,,,,,,,,,,,,*02
$B3CN0,0,0,0,0,0,0,0,0,0,0,0,0,0,0*4C
$ini_pos,lastpos_good = 1,ini_pos.x:-1578443.000000,ini_pos.y:5315805.000000,ini_pos.z:3147688.000000
$GNGGA,000000.000,,,,,0,00,,,M,,,,0000*2B
$GNRMC,000000.000,A,,,,,,,060180,,*29
$GPGSA,A,1,,,,,,,,,,,,,,,*1E
$BDGSA,A,1,,,,,,,,,,,,,,,*0F
$GLGSA,A,1,,,,,,,,,,,,,,,*02
$GPGSV,1,1,01,03,00,000,22*4B
$B3CN0,0,0,0,0,0,0,0,0,0,0,0,0,0,0*4C
$ini_pos,lastpos_good = 1,ini_pos.x:-1578443.000000,ini_pos.y:5315805.000000,ini_pos.z:3147688.000000
$GNGGA,000000.000,,,,,0,00,,,M,,,,0000*2B
$GNRMC,000000.000,A,,,,,,,060180,,*29
$GPGSA,A,1,,,,,,,,,,,,,,,*1E
$BDGSA,A,1,,,,,,,,,,,,,,,*0F
$GLGSA,A,1,,,,,,,,,,,,,,,*02
$GPGSV,1,1,04,03,00,000,39,08,00,000,40,09,00,000,40,16,00,000,29*79
$B3CN0,0,0,0,0,0,0,0,0,0,0,0,0,0,0*4C
$ini_pos,lastpos_good = 1,ini_pos.x:-1578443.000000,ini_pos.y:5315805.000000,ini_pos.z:3147688.000000
$GNGGA,000000.000,,,,,0,00,,,M,,,,0000*2B
$GNRMC,000000.000,A,,,,,,,060180,,*29
$GPGSA,A,1,,,,,,,,,,,,,,,*1E
$BDGSA,A,1,,,,,,,,,,,,,,,*0F
$GLGSA,A,1,,,,,,,,,,,,,,,*02
$GPGSV,2,1,08,03,00,000,39,08,00,000,42,09,00,000,42,16,00,000,44*7D
$GPGSV,2,2,08,23,00,000,44,26,00,000,38,27,00,000,39,31,00,000,32*73
$BDGSV,1,1,03,02,00,000,40,03,00,000,39,04,00,000,39*5A
$B3CN0,0,0,0,0,0,0,0,0,0,0,0,0,0,0*4C
$ini_pos,lastpos_good = 1,ini_pos.x:-1578443.000000,ini_pos.y:5315805.000000,ini_pos.z:3147688.000000
$GNGGA,000000.000,,,,,0,00,,,M,,,,0000*2B
$GNRMC,000000.000,A,,,,,,,060180,,*29
$GPGSA,A,1,,,,,,,,,,,,,,,*1E
$BDGSA,A,1,,,,,,,,,,,,,,,*0F
$GLGSA,A,1,,,,,,,,,,,,,,,*02
$GPGSV,2,1,08,03,00,000,39,08,00,000,42,09,00,000,43,16,00,000,44*7C
$GPGSV,2,2,08,23,00,000,44,26,00,000,43,27,00,000,44,31,00,000,44*74
$BDGSV,1,1,03,02,00,000,41,03,00,000,40,04,00,000,39*55
$B3CN0,0,0,0,0,0,0,0,0,0,0,0,0,0,0*4C
tow update,267494394.334197
$ini_pos,lastpos_good = 1,ini_pos.x:-1578443.000000,ini_pos.y:5315805.000000,ini_pos.z:3147688.000000
$GNGGA,021756.262,2944.9067,N,10633.0921,E,1,11,0.9,341.0,M,,,,0000*11
$GNRMC,021756.262,A,2944.9067,N,10633.0921,E,0.32,0.00,090180,,*13
$GPGSA,A,3,03,08,09,16,23,26,27,31,,,,,1.7,0.9,1.4*3F
$BDGSA,A,3,02,03,04,,,,,,,,,,1.7,0.9,1.4*2C
$GLGSA,A,3,,,,,,,,,,,,,1.7,0.9,1.4*24
$GPGSV,2,1,08,03,00,000,39,08,00,000,42,09,00,000,43,16,00,000,44*7C
$GPGSV,2,2,08,23,00,000,44,26,00,000,43,27,00,000,44,31,00,000,44*74
$BDGSV,1,1,04,02,00,000,40,03,00,000,42,04,00,000,41,23,00,000,30*6C
$B3CN0,0,0,0,0,0,0,0,0,0,0,0,0,0,0*4C
$ini_pos,lastpos_good = 1,ini_pos.x:-1578917.884261,ini_pos.y:5312784.883080,ini_pos.z:3146363.292307
Refix G03: 2, 267495.919626, 1313
Refix G07: 2, 267495.915006, -3637
Refix G08: 2, 267495.924535, -4575
Refix G09: 2, 267495.922748, -4097
Refix G14: 2, 267495.918216, 2495
Refix G16: 2, 267495.931836, 213
Refix G22: 2, 267495.917014, 1124
Refix G23: 2, 267495.929600, -2622
Refix G26: 2, 267495.926923, 1230
Refix G27: 2, 267495.930565, -3121
Refix G31: 2, 267495.921109, 895
$GNGGA,021758.000,2944.9066,N,10633.0916,E,1,12,0.8,335.6,M,,,,0000*1B
$GNRMC,021758.000,A,2944.9066,N,10633.0916,E,0.16,0.00,080519,,*1D
$GPGSA,A,3,03,08,09,16,23,26,27,31,,,,,1.1,0.8,0.8*35
$BDGSA,A,3,02,03,04,23,,,,,,,,,1.1,0.8,0.8*27
$GLGSA,A,3,,,,,,,,,,,,,1.1,0.8,0.8*2E
$GPGSV,2,1,08,03,00,000,39,08,00,000,42,09,00,000,43,16,00,000,44*7C
$GPGSV,2,2,08,23,00,000,43,26,00,000,43,27,00,000,44,31,00,000,43*74
$BDGSV,2,1,05,02,00,000,40,03,00,000,42,04,00,000,40,16,00,000,27*6F
$BDGSV,2,2,05,23,00,000,42*5A
$B3CN0,0,0,0,0,0,0,0,0,0,0,0,0,0,0*4C
$ini_pos,lastpos_good = 1,ini_pos.x:-1578915.787812,ini_pos.y:5312780.699473,ini_pos.z:3146360.559843
Refix G03: 2, 267496.919626, 1317
Refix G07: 2, 267496.915008, -3635
Refix G08: 2, 267496.924538, -4570
Refix G09: 2, 267496.922750, -4094
Refix G14: 2, 267496.918214, 2499
Refix G16: 2, 267496.931836, 218
Refix G22: 2, 267496.917013, 1128
Refix G23: 2, 267496.929601, -2617
Refix G26: 2, 267496.926922, 1235
Refix G27: 2, 267496.930567, -3116
Refix G31: 2, 267496.921108, 899
$GNGGA,021759.000,2944.9067,N,10633.0922,E,1,12,0.8,334.5,M,,,,0000*1E
$GNRMC,021759.000,A,2944.9067,N,10633.0922,E,0.19,0.00,080519,,*15
$GPGSA,A,3,03,08,09,16,23,26,27,31,,,,,1.1,0.8,0.8*35
$BDGSA,A,3,02,03,04,23,,,,,,,,,1.1,0.8,0.8*27
$GLGSA,A,3,,,,,,,,,,,,,1.1,0.8,0.8*2E
$GPGSV,3,1,11,03,15,228,39,08,31,188,42,09,24,316,43,16,64,003,44*79
$GPGSV,3,2,11,23,57,296,44,26,40,038,43,27,57,153,44,31,22,092,43*74
$GPGSV,3,3,11,07,06,298,00,14,09,148,00,22,09,210,00*40
$BDGSV,3,1,12,02,45,218,39,03,54,172,43,04,23,109,40,16,49,175,43*6D
$BDGSV,3,2,12,19,20,297,43,23,22,076,42,27,32,160,45,28,42,091,44*6B
$BDGSV,3,3,12,01,40,125,00,06,43,168,00,07,66,007,00,09,69,203,00*61
$B3CN0,0,0,0,0,0,0,0,0,0,0,0,0,0,0*4C
$ini_pos,lastpos_good = 1,ini_pos.x:-1578916.485070,ini_pos.y:5312779.395273,ini_pos.z:3146360.190889
Refix G03: 2, 267497.919625, 1320
Refix G07: 2, 267497.915010, -3631
Refix G08: 2, 267497.924541, -4566
Refix G09: 2, 267497.922753, -4089
Refix G14: 2, 267497.918212, 2503
Refix G16: 2, 267497.931836, 222
Refix G22: 2, 267497.917012, 1131
Refix G23: 2, 267497.929603, -2613
Refix G26: 2, 267497.926921, 1239
Refix G27: 2, 267497.930568, -3111
Refix G31: 2, 267497.921107, 903
$GNGGA,021800.000,2944.9068,N,10633.0922,E,1,12,0.8,333.9,M,,,,0000*19
$GNRMC,021800.000,A,2944.9068,N,10633.0922,E,0.25,0.00,080519,,*16
$GPGSA,A,3,03,08,09,16,23,26,27,31,,,,,1.1,0.8,0.8*35
$BDGSA,A,3,02,03,04,23,,,,,,,,,1.1,0.8,0.8*27
$GLGSA,A,3,,,,,,,,,,,,,1.1,0.8,0.8*2E
$GPGSV,3,1,11,03,15,228,39,08,31,188,42,09,24,316,43,16,64,003,44*79
$GPGSV,3,2,11,23,57,296,44,26,40,038,43,27,57,153,44,31,22,092,43*74
$GPGSV,3,3,11,07,06,298,00,14,09,148,00,22,09,210,00*40
$BDGSV,3,1,12,02,45,218,40,03,54,172,43,04,23,109,41,16,49,175,43*62
$BDGSV,3,2,12,19,20,297,42,23,22,076,42,27,32,160,44,28,42,091,43*6C
$BDGSV,3,3,12,01,40,125,00,06,43,168,00,07,66,007,00,09,69,203,00*61
$B3CN0,0,0,0,0,0,0,0,0,0,0,0,0,0,0*4C
$ini_pos,lastpos_good = 1,ini_pos.x:-1578916.300016,ini_pos.y:5312778.848220,ini_pos.z:3146359.937544
Refix G03: 2, 267498.919624, 1313
Refix G07: 2, 267498.915012, -3638
Refix G08: 2, 267498.924544, -4574
Refix G09: 2, 267498.922755, -4096
Refix G14: 2, 267498.918211, 2496
Refix G16: 2, 267498.931836, 213
Refix G22: 2, 267498.917012, 1124
Refix G23: 2, 267498.929605, -2621
Refix G26: 2, 267498.926920, 1230
Refix G27: 2, 267498.930570, -3120
Refix G31: 2, 267498.921107, 896
$GNGGA,021801.000,2944.9071,N,10633.0925,E,1,12,0.8,332.8,M,,,,0000*17
$GNRMC,021801.000,A,2944.9071,N,10633.0925,E,0.22,0.00,080519,,*1F
$GPGSA,A,3,03,08,09,16,23,26,27,31,,,,,1.1,0.8,0.8*35
$BDGSA,A,3,02,03,04,23,,,,,,,,,1.1,0.8,0.8*27
$GLGSA,A,3,,,,,,,,,,,,,1.1,0.8,0.8*2E
$GPGSV,3,1,11,03,15,228,40,08,31,188,42,09,24,316,43,16,64,003,44*77
$GPGSV,3,2,11,23,57,296,44,26,40,038,43,27,57,153,44,31,22,092,43*74
$GPGSV,3,3,11,07,06,298,00,14,09,148,00,22,09,210,00*40
$BDGSV,3,1,12,01,40,125,37,02,45,218,40,03,54,172,42,04,23,109,40*6B
$BDGSV,3,2,12,16,49,175,43,19,20,297,41,23,22,076,42,27,32,160,43*65
$BDGSV,3,3,12,28,42,091,43,06,43,168,00,07,66,007,00,09,69,203,00*61
$B3CN0,0,0,0,0,0,0,0,0,0,0,0,0,0,0*4C
$ini_pos,lastpos_good = 1,ini_pos.x:-1578916.296872,ini_pos.y:5312777.595045,ini_pos.z:3146359.872844
Refix G03: 2, 267499.919623, 1318
Refix G07: 2, 267499.915015, -3635
Refix G08: 2, 267499.924547, -4569
Refix G09: 2, 267499.922758, -4093
Refix G14: 2, 267499.918209, 2500
Refix G16: 2, 267499.931835, 218
Refix G22: 2, 267499.917011, 1128
Refix G23: 2, 267499.929606, -2616
Refix G26: 2, 267499.926919, 1234
Refix G27: 2, 267499.930572, -3115
Refix G31: 2, 267499.921106, 900
$GNGGA,021802.000,2944.9071,N,10633.0925,E,1,12,0.8,332.6,M,,,,0000*1A
$GNRMC,021802.000,A,2944.9071,N,10633.0925,E,0.20,0.00,080519,,*1E
$GPGSA,A,3,03,08,09,16,23,26,27,31,,,,,1.1,0.8,0.8*35
$BDGSA,A,3,02,03,04,23,,,,,,,,,1.1,0.8,0.8*27
$GLGSA,A,3,,,,,,,,,,,,,1.1,0.8,0.8*2E
$GPGSV,3,1,11,03,15,228,40,08,31,188,42,09,24,316,43,16,64,003,44*77
$GPGSV,3,2,11,23,57,296,44,26,40,038,43,27,57,153,46,31,22,092,43*76
$GPGSV,3,3,11,07,06,298,00,14,09,148,00,22,09,210,00*40
$BDGSV,3,1,12,01,40,125,38,02,45,218,41,03,54,172,42,04,23,109,41*64
$BDGSV,3,2,12,05,00,000,35,06,43,168,38,07,66,007,36,09,69,203,30*6D
$BDGSV,3,3,12,10,62,299,29,16,49,175,42,19,20,297,41,23,22,076,42*6D
$B3CN0,0,0,0,0,0,0,0,0,0,0,0,0,0,0*4C
$ini_pos,lastpos_good = 1,ini_pos.x:-1578916.243184,ini_pos.y:5312777.395443,ini_pos.z:3146359.807534
Refix G03: 2, 267500.919622, 1309
Refix G07: 2, 267500.915017, -3642
Refix G08: 2, 267500.924549, -4578
Refix G09: 2, 267500.922760, -4100
Refix G14: 2, 267500.918208, 2492
Refix G16: 2, 267500.931835, 208
Refix G22: 2, 267500.917010, 1120
Refix G23: 2, 267500.929608, -2625
Refix G26: 2, 267500.926919, 1225
Refix G27: 2, 267500.930574, -3124
Refix G31: 2, 267500.921106, 891
$GNGGA,021803.000,2944.9072,N,10633.0929,E,1,13,0.8,332.6,M,,,,0000*15
$GNRMC,021803.000,A,2944.9072,N,10633.0929,E,0.15,0.00,080519,,*16
$GPGSA,A,3,03,08,09,16,23,26,27,31,,,,,1.1,0.8,0.7*3A
$BDGSA,A,3,01,02,03,04,23,,,,,,,,1.1,0.8,0.7*29
$GLGSA,A,3,,,,,,,,,,,,,1.1,0.8,0.7*21
$GPGSV,3,1,11,03,15,228,40,08,31,188,42,09,24,316,43,16,64,003,44*77
$GPGSV,3,2,11,23,57,296,45,26,40,038,44,27,57,153,45,31,22,092,43*73
$GPGSV,3,3,11,07,06,298,00,14,09,148,00,22,09,210,00*40
$BDGSV,3,1,12,01,40,125,40,02,45,218,40,03,54,172,43,04,23,109,41*6B
$BDGSV,3,2,12,05,00,000,37,06,43,168,42,07,66,007,43,09,69,203,42*65
$BDGSV,3,3,12,10,62,299,43,16,49,175,42,19,20,297,41,23,22,076,42*61
$B3CN0,0,0,0,0,0,0,0,0,0,0,0,0,0,0*4C
$ini_pos,lastpos_good = 1,ini_pos.x:-1578916.933964,ini_pos.y:5312777.020114,ini_pos.z:3146360.042004
Refix G03: 2, 267501.919621, 1324
Refix G07: 2, 267501.915019, -3629
Refix G08: 2, 267501.924552, -4562
Refix G09: 2, 267501.922763, -4085
Refix G14: 2, 267501.918206, 2507
Refix G16: 2, 267501.931835, 226
Refix G22: 2, 267501.917009, 1134
Refix G23: 2, 267501.929609, -2608
Refix G26: 2, 267501.926918, 1242
Refix G27: 2, 267501.930576, -3106
Refix G31: 2, 267501.921105, 907
$GNGGA,021804.000,2944.9072,N,10633.0930,E,1,21,0.6,332.5,M,,,,0000*16
$GNRMC,021804.000,A,2944.9072,N,10633.0930,E,0.22,0.00,080519,,*1D
$GPGSA,A,3,03,08,09,16,23,26,27,31,,,,,0.7,0.6,0.4*30
$BDGSA,A,3,01,02,03,04,06,07,09,10,16,19,23,27,0.7,0.6,0.4*20
$GLGSA,A,3,,,,,,,,,,,,,0.7,0.6,0.4*2B
$GPGSV,3,1,11,03,15,228,40,08,31,188,43,09,24,316,43,16,64,003,45*77
$GPGSV,3,2,11,23,57,296,45,26,40,038,44,27,57,153,45,31,22,092,43*73
$GPGSV,3,3,11,07,06,298,00,14,09,148,00,22,09,210,00*40
$BDGSV,3,1,12,01,40,125,40,02,45,218,41,03,54,172,42,04,23,109,41*6B
$BDGSV,3,2,12,05,00,000,35,06,43,168,42,07,66,007,43,09,69,203,42*67
$BDGSV,3,3,12,10,62,299,43,16,49,175,42,19,20,297,41,23,22,076,42*61
$B3CN0,0,0,0,0,0,0,0,0,0,0,0,0,0,0*4C
$ini_pos,lastpos_good = 1,ini_pos.x:-1578917.094290,ini_pos.y:5312776.942869,ini_pos.z:3146359.840586
Refix G03: 2, 267502.919620, 1317
Refix G07: 2, 267502.915022, -3635
Refix G08: 2, 267502.924555, -4570
Refix G09: 2, 267502.922766, -4093
Refix G14: 2, 267502.918204, 2500
Refix G16: 2, 267502.931835, 217
Refix G22: 2, 267502.917009, 1127
Refix G23: 2, 267502.929611, -2616
Refix G26: 2, 267502.926917, 1233
Refix G27: 2, 267502.930578, -3115
Refix G31: 2, 267502.921104, 899
$GNGGA,021805.000,2944.9072,N,10633.0930,E,1,21,0.6,331.9,M,,,,0000*18
$GNRMC,021805.000,A,2944.9072,N,10633.0930,E,0.13,0.00,080519,,*1E
$GPGSA,A,3,03,08,09,16,23,26,27,31,,,,,0.7,0.6,0.4*30
$BDGSA,A,3,01,02,03,04,06,07,09,10,16,19,23,27,0.7,0.6,0.4*20
$GLGSA,A,3,,,,,,,,,,,,,0.7,0.6,0.4*2B
$GPGSV,3,1,11,03,15,228,40,08,31,188,42,09,24,316,44,16,64,003,44*70
$GPGSV,3,2,11,23,57,296,44,26,40,038,43,27,57,153,45,31,22,092,43*75
$GPGSV,3,3,11,07,06,298,00,14,09,148,00,22,09,210,00*40
$BDGSV,3,1,12,01,40,125,41,02,45,218,41,03,54,172,43,04,23,109,42*68
$BDGSV,3,2,12,05,00,000,37,06,43,168,42,07,66,007,44,09,69,203,42*62
$BDGSV,3,3,12,10,62,299,43,16,49,175,42,19,20,297,41,23,22,076,42*61
$B3CN0,0,0,0,0,0,0,0,0,0,0,0,0,0,0*4C
$ini_pos,lastpos_good = 1,ini_pos.x:-1578916.903114,ini_pos.y:5312776.510687,ini_pos.z:3146359.573225
Refix G03: 2, 267503.919619, 1313
Refix G07: 2, 267503.915024, -3639
Refix G08: 2, 267503.924558, -4573
Refix G09: 2, 267503.922768, -4095
Refix G14: 2, 267503.918203, 2497
Refix G16: 2, 267503.931835, 214
Refix G22: 2, 267503.917008, 1123
Refix G23: 2, 267503.929613, -2619
Refix G26: 2, 267503.926916, 1231
Refix G27: 2, 267503.930580, -3118
Refix G31: 2, 267503.921104, 896
$GNGGA,021806.000,2944.9071,N,10633.0930,E,1,21,0.6,331.9,M,,,,0000*18
$GNRMC,021806.000,A,2944.9071,N,10633.0930,E,0.20,0.00,080519,,*1E
$GPGSA,A,3,03,08,09,16,23,26,27,31,,,,,0.7,0.6,0.4*30
$BDGSA,A,3,01,02,03,04,06,07,09,10,16,19,23,27,0.7,0.6,0.4*20
$GLGSA,A,3,,,,,,,,,,,,,0.7,0.6,0.4*2B
$GPGSV,3,1,11,03,15,228,40,08,31,188,42,09,24,316,43,16,64,003,44*77
$GPGSV,3,2,11,23,57,296,45,26,40,038,43,27,57,153,44,31,22,092,44*72
$GPGSV,3,3,11,07,06,298,00,14,09,148,00,22,09,210,00*40
$BDGSV,3,1,12,01,40,125,41,02,45,218,40,03,54,172,43,04,23,109,41*6A
$BDGSV,3,2,12,05,00,000,36,06,43,168,41,07,66,007,43,09,69,203,42*67
$BDGSV,3,3,12,10,62,299,43,16,49,175,42,19,20,297,41,23,22,076,42*61
$B3CN0,0,0,0,0,0,0,0,0,0,0,0,0,0,0*4C
$ini_pos,lastpos_good = 1,ini_pos.x:-1578916.915411,ini_pos.y:5312776.518492,ini_pos.z:3146359.521315
Refix G03: 2, 267504.919619, 1327
Refix G07: 2, 267504.915026, -3627
Refix G08: 2, 267504.924561, -4558
Refix G09: 2, 267504.922771, -4081
Refix G14: 2, 267504.918201, 2510
Refix G16: 2, 267504.931835, 230
Refix G22: 2, 267504.917007, 1137
Refix G23: 2, 267504.929614, -2603
Refix G26: 2, 267504.926915, 1246
Refix G27: 2, 267504.930582, -3101
Refix G31: 2, 267504.921103, 910
$GNGGA,021807.000,2944.9071,N,10633.0931,E,1,21,0.6,331.3,M,,,,0000*12
$GNRMC,021807.000,A,2944.9071,N,10633.0931,E,0.29,0.00,080519,,*17
$GPGSA,A,3,03,08,09,16,23,26,27,31,,,,,0.7,0.6,0.4*30
$BDGSA,A,3,01,02,03,04,06,07,09,10,16,19,23,27,0.7,0.6,0.4*20
$GLGSA,A,3,,,,,,,,,,,,,0.7,0.6,0.4*2B
$GPGSV,3,1,11,03,15,228,41,08,31,188,42,09,24,316,43,16,64,003,44*76
$GPGSV,3,2,11,23,57,296,44,26,40,038,43,27,57,153,45,31,22,092,44*72
$GPGSV,3,3,11,07,06,298,00,14,09,148,00,22,09,210,00*40
$BDGSV,3,1,12,01,40,125,41,02,45,218,41,03,54,172,43,04,23,109,41*6B
$BDGSV,3,2,12,05,00,000,36,06,43,168,41,07,66,007,43,09,69,203,43*66
$BDGSV,3,3,12,10,62,299,43,16,49,175,43,19,20,297,41,23,22,076,42*60
$B3CN0,0,19,0,0,0,0,0,0,0,0,0,0,0,0*74
$ini_pos,lastpos_good = 1,ini_pos.x:-1578916.932396,ini_pos.y:5312775.928738,ini_pos.z:3146359.190709
Refix G03: 2, 267505.919618, 1320
Refix G07: 2, 267505.915028, -3632
Refix G08: 2, 267505.924564, -4566
Refix G09: 2, 267505.922773, -4088
Refix G14: 2, 267505.918199, 2503
Refix G16: 2, 267505.931834, 222
Refix G22: 2, 267505.917006, 1130
Refix G23: 2, 267505.929616, -2611
Refix G26: 2, 267505.926915, 1237
Refix G27: 2, 267505.930584, -3110
Refix G31: 2, 267505.921103, 903
$GNGGA,021808.000,2944.9071,N,10633.0931,E,1,21,0.6,330.7,M,,,,0000*18
$GNRMC,021808.000,A,2944.9071,N,10633.0931,E,0.18,0.00,080519,,*1A
$GPGSA,A,3,03,08,09,16,23,26,27,31,,,,,0.7,0.6,0.4*30
$BDGSA,A,3,01,02,03,04,06,07,09,10,16,19,23,27,0.7,0.6,0.4*20
$GLGSA,A,3,,,,,,,,,,,,,0.7,0.6,0.4*2B
$GPGSV,3,1,11,03,15,228,40,08,31,188,42,09,24,316,43,16,64,003,44*77
$GPGSV,3,2,11,23,57,296,45,26,40,038,43,27,57,153,45,31,22,092,44*73
$GPGSV,3,3,11,07,06,298,00,14,09,148,00,22,09,210,00*40
$BDGSV,3,1,12,01,40,125,39,02,45,218,40,03,54,172,43,04,23,109,41*65
$BDGSV,3,2,12,05,00,000,36,06,43,168,41,07,66,007,44,09,69,203,43*61
$BDGSV,3,3,12,10,62,299,43,16,49,175,43,19,20,297,41,23,22,076,42*60
$B3CN0,0,0,0,0,0,0,0,0,0,0,0,0,0,0*4C
$ini_pos,lastpos_good = 1,ini_pos.x:-1578916.685702,ini_pos.y:5312775.493312,ini_pos.z:3146358.912508
Refix G03: 2, 267506.919617, 1320
Refix G07: 2, 267506.915031, -3633
Refix G08: 2, 267506.924567, -4566
Refix G09: 2, 267506.922776, -4088
Refix G14: 2, 267506.918198, 2503
Refix G16: 2, 267506.931834, 221
Refix G22: 2, 267506.917006, 1129
Refix G23: 2, 267506.929618, -2611
Refix G26: 2, 267506.926914, 1237
Refix G27: 2, 267506.930586, -3110
Refix G31: 2, 267506.921102, 902
$GNGGA,021809.000,2944.9071,N,10633.0930,E,1,21,0.6,330.8,M,,,,0000*17
$GNRMC,021809.000,A,2944.9071,N,10633.0930,E,0.10,0.00,080519,,*12
$GPGSA,A,3,03,08,09,16,23,26,27,31,,,,,0.7,0.6,0.4*30
$BDGSA,A,3,01,02,03,04,06,07,09,10,16,19,23,27,0.7,0.6,0.4*20
$GLGSA,A,3,,,,,,,,,,,,,0.7,0.6,0.4*2B
$GPGSV,3,1,11,03,15,228,40,08,31,188,42,09,24,316,43,16,64,003,44*77
$GPGSV,3,2,11,23,57,296,44,26,40,038,44,27,57,153,45,31,22,092,43*72
$GPGSV,3,3,11,07,06,298,34,14,09,148,00,22,09,210,00*47
$BDGSV,3,1,12,01,40,125,41,02,45,218,40,03,54,172,45,04,23,109,41*6C
$BDGSV,3,2,12,05,00,000,37,06,43,168,41,07,66,007,43,09,69,203,43*67
$BDGSV,3,3,12,10,62,299,43,16,49,175,43,19,20,297,41,23,22,076,43*61
$B3CN0,0,0,0,0,0,0,0,0,0,0,0,0,0,0*4C
$GLGSV,3,1,09,08,00,000,46,07,00,000,46,19,00,000,37,20,00,000,41*6A
$GLGSV,3,2,09,01,00,000,37,11,00,000,38,09,00,000,46,06,00,000,32*6F
$GLGSV,3,3,09,26,00,000,45*59
$ini_pos,lastpos_good = 1,ini_pos.x:-1578916.628748,ini_pos.y:5312775.624895,ini_pos.z:3146358.854711
Refix G03: 2, 267507.919616, 1318
Refix G07: 2, 267507.915033, -3635
Refix G08: 2, 267507.924569, -4567
Refix G09: 2, 267507.922778, -4090
Refix G14: 2, 267507.918196, 2502
Refix G16: 2, 267507.931834, 220
Refix G22: 2, 267507.917005, 1128
Refix G23: 2, 267507.929619, -2612
Refix G26: 2, 267507.926913, 1236
Refix G27: 2, 267507.930588, -3111
Refix G31: 2, 267507.921101, 902
$GNGGA,021810.000,2944.9070,N,10633.0929,E,1,21,0.6,330.7,M,,,,0000*19
$GNRMC,021810.000,A,2944.9070,N,10633.0929,E,0.28,0.00,080519,,*18
$GPGSA,A,3,03,08,09,16,23,26,27,31,,,,,0.7,0.6,0.4*30
$BDGSA,A,3,01,02,03,04,06,07,09,10,16,19,23,27,0.7,0.6,0.4*20
$GLGSA,A,3,,,,,,,,,,,,,0.7,0.6,0.4*2B
$GPGSV,3,1,11,03,15,228,40,08,31,188,42,09,24,316,43,16,64,003,44*77
$GPGSV,3,2,11,23,57,296,44,26,40,038,43,27,57,153,45,31,22,092,43*75
$GPGSV,3,3,11,07,06,298,37,14,09,148,00,22,09,210,00*44
$BDGSV,3,1,12,01,40,125,41,02,45,218,40,03,54,172,45,04,23,109,41*6C
$BDGSV,3,2,12,05,00,000,37,06,43,168,42,07,66,007,44,09,69,203,43*63
$BDGSV,3,3,12,10,62,299,43,16,49,175,42,19,20,297,42,23,22,076,42*62
$B3CN0,0,36,0,0,0,0,0,0,0,0,0,0,0,0*79
$GLGSV,3,1,09,08,41,287,46,07,37,216,46,19,30,062,37,20,30,130,41*65
$GLGSV,3,2,09,01,13,326,37,11,06,280,39,09,39,029,46,06,02,179,32*6B
$GLGSV,3,3,09,26,00,000,45*59
$ini_pos,lastpos_good = 1,ini_pos.x:-1578916.441985,ini_pos.y:5312775.715980,ini_pos.z:3146358.657261
Refix G03: 2, 267508.919615, 1316
Refix G07: 2, 267508.915035, -3636
Refix G08: 2, 267508.924572, -4569
Refix G09: 2, 267508.922781, -4091
Refix G14: 2, 267508.918195, 2500
Refix G16: 2, 267508.931834, 219
Refix G22: 2, 267508.917004, 1126
Refix G23: 2, 267508.929621, -2613
Refix G26: 2, 267508.926912, 1234
Refix G27: 2, 267508.930590, -3111
Refix G31: 2, 267508.921101, 899
$GNGGA,021811.000,2944.9069,N,10633.0927,E,1,29,0.6,330.3,M,,,,0000*12
$GNRMC,021811.000,A,2944.9069,N,10633.0927,E,0.16,0.00,080519,,*12
$GPGSA,A,3,03,08,09,16,23,26,27,31,,,,,0.7,0.6,0.4*30
$BDGSA,A,3,01,02,03,04,06,07,09,10,16,19,23,27,0.7,0.6,0.4*20
$GLGSA,A,3,01,06,07,08,09,11,19,20,,,,,0.7,0.6,0.4*20
$GPGSV,3,1,11,03,15,228,40,08,31,188,42,09,24,316,42,16,64,003,44*76
$GPGSV,3,2,11,23,57,296,44,26,40,038,43,27,57,153,45,31,22,092,43*75
$GPGSV,3,3,11,07,06,298,37,14,09,148,00,22,09,210,00*44
$BDGSV,3,1,12,01,40,125,40,02,45,218,41,03,54,172,45,04,23,109,40*6D
$BDGSV,3,2,12,05,00,000,36,06,43,168,42,07,66,007,44,09,69,203,43*62
$BDGSV,3,3,12,10,62,299,43,16,49,175,43,19,20,297,41,23,22,076,42*60
$B3CN0,0,18,0,0,0,0,0,0,0,0,0,0,0,0*75
$GLGSV,3,1,09,08,41,287,46,07,37,216,46,19,30,062,37,20,30,130,41*65
$GLGSV,3,2,09,01,13,326,37,11,06,280,39,09,39,029,46,06,02,179,31*68
$GLGSV,3,3,09,26,00,000,45*59
$ini_pos,lastpos_good = 1,ini_pos.x:-1578916.137753,ini_pos.y:5312775.488687,ini_pos.z:3146358.421805
Refix G03: 2, 267509.919614, 1321
Refix G07: 2, 267509.915037, -3633
Refix G08: 2, 267509.924575, -4563
Refix G09: 2, 267509.922784, -4086
Refix G14: 2, 267509.918193, 2505
Refix G16: 2, 267509.931834, 226
Refix G22: 2, 267509.917003, 1130
Refix G23: 2, 267509.929622, -2607
Refix G26: 2, 267509.926911, 1240
Refix G27: 2, 267509.930592, -3105
Refix G31: 2, 267509.921100, 905
$GNGGA,021812.000,2944.9069,N,10633.0929,E,1,29,0.5,330.4,M,,,,0000*1B
$GNRMC,021812.000,A,2944.9069,N,10633.0929,E,0.36,0.00,080519,,*1D
$GPGSA,A,3,03,08,09,16,23,26,27,31,,,,,0.6,0.5,0.4*32
$BDGSA,A,3,01,02,03,04,06,07,09,10,16,19,23,27,0.6,0.5,0.4*22
$GLGSA,A,3,01,06,07,08,09,11,19,20,,,,,0.6,0.5,0.4*22
$GPGSV,3,1,11,03,15,228,40,08,31,188,42,09,24,316,42,16,64,003,44*76
$GPGSV,3,2,11,23,57,296,44,26,40,038,43,27,57,153,44,31,22,092,44*73
$GPGSV,3,3,11,07,06,298,37,14,09,148,00,22,09,210,00*44
$BDGSV,3,1,12,01,40,125,41,02,45,218,40,03,54,172,43,04,23,109,42*69
$BDGSV,3,2,12,05,00,000,38,06,43,168,42,07,66,007,44,09,69,203,43*6C
$BDGSV,3,3,12,10,62,299,43,16,49,175,43,19,20,297,41,23,22,076,42*60
$B3CN0,0,21,0,0,0,0,0,0,0,0,0,0,0,0*7F
$GLGSV,3,1,09,08,41,287,46,07,37,216,46,19,30,062,37,20,30,130,41*65
$GLGSV,3,2,09,01,13,326,37,11,06,280,39,09,39,029,46,06,02,179,31*68
$GLGSV,3,3,09,26,00,000,46*5A
$ini_pos,lastpos_good = 1,ini_pos.x:-1578916.361789,ini_pos.y:5312775.570441,ini_pos.z:3146358.374044
Refix G03: 2, 267510.919613, 1319
Refix G07: 2, 267510.915040, -3635
Refix G08: 2, 267510.924578, -4565
Refix G09: 2, 267510.922786, -4087
Refix G14: 2, 267510.918191, 2503
Refix G16: 2, 267510.931834, 224
Refix G22: 2, 267510.917003, 1128
Refix G23: 2, 267510.929624, -2608
Refix G26: 2, 267510.926911, 1238
Refix G27: 2, 267510.930594, -3106
Refix G31: 2, 267510.921100, 903
$GNGGA,021813.000,2944.9068,N,10633.0930,E,1,29,0.5,330.1,M,,,,0000*16
$GNRMC,021813.000,A,2944.9068,N,10633.0930,E,0.24,0.00,080519,,*16
$GPGSA,A,3,03,08,09,16,23,26,27,31,,,,,0.6,0.5,0.4*32
$BDGSA,A,3,01,02,03,04,06,07,09,10,16,19,23,27,0.6,0.5,0.4*22
$GLGSA,A,3,01,06,07,08,09,11,19,20,,,,,0.6,0.5,0.4*22
$GPGSV,3,1,11,03,15,228,40,08,31,188,43,09,24,316,43,16,64,003,44*76
$GPGSV,3,2,11,23,57,296,44,26,40,038,43,27,57,153,44,31,22,092,43*74
$GPGSV,3,3,11,07,06,298,37,14,09,148,00,22,09,210,00*44
$BDGSV,3,1,12,01,40,125,41,02,45,218,40,03,54,172,45,04,23,109,40*6D
$BDGSV,3,2,12,05,00,000,37,06,43,168,42,07,66,007,44,09,69,203,43*63
$BDGSV,3,3,12,10,62,299,43,16,49,175,42,19,20,297,41,23,22,076,42*61
$B3CN0,0,0,0,0,0,0,0,0,0,0,0,0,0,0*4C
$GLGSV,3,1,09,08,41,287,46,07,37,216,46,19,30,062,37,20,30,130,40*64
$GLGSV,3,2,09,01,13,326,37,11,06,280,39,09,39,029,46,06,02,179,31*68
$GLGSV,3,3,09,26,00,000,46*5A
$ini_pos,lastpos_good = 1,ini_pos.x:-1578916.537185,ini_pos.y:5312775.281474,ini_pos.z:3146358.163223
Refix G03: 2, 267511.919613, 1324
Refix G07: 2, 267511.915042, -3631
Refix G08: 2, 267511.924581, -4560
Refix G09: 2, 267511.922789, -4082
Refix G14: 2, 267511.918190, 2507
Refix G16: 2, 267511.931833, 230
Refix G22: 2, 267511.917002, 1132
Refix G23: 2, 267511.929626, -2602
Refix G26: 2, 267511.926910, 1243
Refix G27: 2, 267511.930596, -3100
Refix G31: 2, 267511.921099, 908
$GNGGA,021814.000,2944.9068,N,10633.0932,E,1,30,0.5,330.1,M,,,,0000*1B
$GNRMC,021814.000,A,2944.9068,N,10633.0932,E,0.15,0.00,080519,,*11
$GPGSA,A,3,03,07,08,09,16,23,26,27,31,,,,0.6,0.5,0.3*32
$BDGSA,A,3,01,02,03,04,06,07,09,10,16,19,23,27,0.6,0.5,0.3*25
$GLGSA,A,3,01,06,07,08,09,11,19,20,,,,,0.6,0.5,0.3*25
$GPGSV,3,1,11,03,15,228,40,08,31,188,42,09,24,316,43,16,64,003,44*77
$GPGSV,3,2,11,23,57,296,44,26,40,038,43,27,57,153,44,31,22,092,43*74
$GPGSV,3,3,11,07,06,298,37,14,09,148,00,22,09,210,00*44
$BDGSV,3,1,12,01,40,125,41,02,45,218,39,03,54,172,43,04,23,109,41*64
$BDGSV,3,2,12,05,00,000,37,06,43,168,42,07,66,007,44,09,69,203,43*63
$BDGSV,3,3,12,10,62,299,43,16,49,175,42,19,20,297,41,23,22,076,42*61
$B3CN0,0,0,0,0,0,0,0,0,0,0,0,0,0,0*4C
$GLGSV,3,1,09,08,41,287,46,07,37,216,46,19,30,062,37,20,30,130,41*65
$GLGSV,3,2,09,01,13,326,37,11,06,280,39,09,39,029,46,06,02,179,31*68
$GLGSV,3,3,09,26,00,000,45*59
$ini_pos,lastpos_good = 1,ini_pos.x:-1578916.918907,ini_pos.y:5312775.233832,ini_pos.z:3146358.077246
Refix G03: 2, 267512.919612, 1320
Refix G07: 2, 267512.915044, -3634
Refix G08: 2, 267512.924584, -4563
Refix G09: 2, 267512.922791, -4085
Refix G14: 2, 267512.918188, 2505
Refix G16: 2, 267512.931833, 226
Refix G22: 2, 267512.917001, 1129
Refix G23: 2, 267512.929627, -2605
Refix G26: 2, 267512.926909, 1240
Refix G27: 2, 267512.930598, -3103
Refix G31: 2, 267512.921098, 905
$GNGGA,021815.000,2944.9067,N,10633.0935,E,1,30,0.5,329.9,M,,,,0000*12
$GNRMC,021815.000,A,2944.9067,N,10633.0935,E,0.34,0.00,080519,,*1B
$GPGSA,A,3,03,07,08,09,16,23,26,27,31,,,,0.6,0.5,0.3*32
$BDGSA,A,3,01,02,03,04,06,07,09,10,16,19,23,27,0.6,0.5,0.3*25
$GLGSA,A,3,01,06,07,08,09,11,19,20,,,,,0.6,0.5,0.3*25
$GPGSV,3,1,11,03,15,228,40,08,31,188,43,09,24,316,42,16,64,003,44*77
$GPGSV,3,2,11,23,57,296,44,26,40,038,43,27,57,153,45,31,22,092,43*75
$GPGSV,3,3,11,07,06,298,37,14,09,148,00,22,09,210,00*44
$BDGSV,3,1,12,01,40,125,41,02,45,218,40,03,54,172,43,04,23,109,41*6A
$BDGSV,3,2,12,05,00,000,38,06,43,168,42,07,66,007,44,09,69,203,43*6C
$BDGSV,3,3,12,10,62,299,43,16,49,175,42,19,20,297,41,23,22,076,42*61
$B3CN0,0,0,0,0,0,0,0,0,0,0,0,0,0,0*4C
$GLGSV,3,1,09,08,41,287,46,07,37,216,47,19,30,062,37,20,30,130,41*64
$GLGSV,3,2,09,01,13,326,36,11,06,280,39,09,39,029,46,06,02,179,31*69
$GLGSV,3,3,09,26,00,000,45*59
$ini_pos,lastpos_good = 1,ini_pos.x:-1578917.232516,ini_pos.y:5312774.949684,ini_pos.z:3146357.901034
Refix G03: 2, 267513.919611, 1310
Refix G07: 2, 267513.915047, -3644
Refix G08: 2, 267513.924587, -4574
Refix G09: 2, 267513.922794, -4097
Refix G14: 2, 267513.918186, 2495
Refix G16: 2, 267513.931833, 213
Refix G22: 2, 267513.917000, 1119
Refix G23: 2, 267513.929629, -2618
Refix G26: 2, 267513.926908, 1227
Refix G27: 2, 267513.930600, -3115
Refix G31: 2, 267513.921098, 894
$GNGGA,021816.000,2944.9067,N,10633.0936,E,1,30,0.5,330.0,M,,,,0000*13
$GNRMC,021816.000,A,2944.9067,N,10633.0936,E,0.33,0.00,080519,,*1C
$GPGSA,A,3,03,07,08,09,16,23,26,27,31,,,,0.6,0.5,0.3*32
$BDGSA,A,3,01,02,03,04,06,07,09,10,16,19,23,27,0.6,0.5,0.3*25
$GLGSA,A,3,01,06,07,08,09,11,19,20,,,,,0.6,0.5,0.3*25
$GPGSV,3,1,11,03,15,228,41,08,31,188,42,09,24,316,42,16,64,003,43*70
$GPGSV,3,2,11,23,57,296,43,26,40,038,43,27,57,153,44,31,22,092,43*73
$GPGSV,3,3,11,07,06,298,37,14,09,148,00,22,09,210,00*44
$BDGSV,3,1,12,01,40,125,41,02,45,218,41,03,54,172,43,04,23,109,41*6B
$BDGSV,3,2,12,05,00,000,38,06,43,168,42,07,66,007,43,09,69,203,43*6B
$BDGSV,3,3,12,10,62,299,43,16,49,175,43,19,20,297,41,23,22,076,42*60
$B3CN0,0,0,0,0,0,0,0,0,0,0,0,0,0,0*4C
$GLGSV,3,1,09,08,41,287,46,07,37,216,47,19,30,062,37,20,30,130,40*65
$GLGSV,3,2,09,01,13,326,37,11,06,280,39,09,39,029,46,06,02,179,31*68
$GLGSV,3,3,09,26,00,000,45*59
$ini_pos,lastpos_good = 1,ini_pos.x:-1578917.496169,ini_pos.y:5312775.004891,ini_pos.z:3146357.858548
Refix G03: 2, 267514.919610, 1316
Refix G07: 2, 267514.915049, -3640
Refix G08: 2, 267514.924590, -4568
Refix G09: 2, 267514.922796, -4090
Refix G14: 2, 267514.918185, 2500
Refix G16: 2, 267514.931833, 221
Refix G22: 2, 267514.917000, 1124
Refix G23: 2, 267514.929631, -2610
Refix G26: 2, 267514.926907, 1234
Refix G27: 2, 267514.930602, -3107
Refix G31: 2, 267514.921097, 900
$GNGGA,021817.000,2944.9067,N,10633.0938,E,1,30,0.5,330.3,M,,,,0000*1F
$GNRMC,021817.000,A,2944.9067,N,10633.0938,E,0.29,0.00,080519,,*18
$GPGSA,A,3,03,07,08,09,16,23,26,27,31,,,,0.6,0.5,0.3*32
$BDGSA,A,3,01,02,03,04,06,07,09,10,16,19,23,27,0.6,0.5,0.3*25
$GLGSA,A,3,01,06,07,08,09,11,19,20,,,,,0.6,0.5,0.3*25
$GPGSV,3,1,11,03,15,228,40,08,31,188,42,09,24,316,43,16,64,003,45*76
$GPGSV,3,2,11,23,57,296,44,26,40,038,43,27,57,153,45,31,22,092,43*75
$GPGSV,3,3,11,07,06,298,37,14,09,148,00,22,09,210,00*44
$BDGSV,3,1,12,01,40,125,41,02,45,218,41,03,54,172,45,04,23,109,41*6D
$BDGSV,3,2,12,05,00,000,38,06,43,168,42,07,66,007,44,09,69,203,43*6C
$BDGSV,3,3,12,10,62,299,43,16,49,175,43,19,20,297,41,23,22,076,42*60
$B3CN0,0,0,0,0,0,0,0,0,0,0,0,0,0,0*4C
$GLGSV,3,1,09,08,41,287,46,07,37,216,47,19,30,062,37,20,30,130,41*64
$GLGSV,3,2,09,01,13,326,37,11,06,280,39,09,39,029,46,06,02,179,31*68
$GLGSV,3,3,09,26,00,000,45*59
$ini_pos,lastpos_good = 1,ini_pos.x:-1578917.776253,ini_pos.y:5312775.244547,ini_pos.z:3146357.963489
Refix G03: 2, 267515.919609, 1308
Refix G07: 2, 267515.915051, -3646
Refix G08: 2, 267515.924592, -4575
Refix G09: 2, 267515.922799, -4097
Refix G14: 2, 267515.918183, 2492
Refix G16: 2, 267515.931833, 213
Refix G22: 2, 267515.916999, 1116
Refix G23: 2, 267515.929632, -2617
Refix G26: 2, 267515.926906, 1226
Refix G27: 2, 267515.930603, -3116
Refix G31: 2, 267515.921097, 892
$GNGGA,021818.000,2944.9067,N,10633.0939,E,1,30,0.5,330.4,M,,,,0000*16
$GNRMC,021818.000,A,2944.9067,N,10633.0939,E,0.17,0.00,080519,,*1B
$GPGSA,A,3,03,07,08,09,16,23,26,27,31,,,,0.6,0.5,0.3*32
$BDGSA,A,3,01,02,03,04,06,07,09,10,16,19,23,27,0.6,0.5,0.3*25
$GLGSA,A,3,01,06,07,08,09,11,19,20,,,,,0.6,0.5,0.3*25
$GPGSV,3,1,11,03,15,228,40,08,31,188,43,09,24,316,43,16,64,003,44*76
$GPGSV,3,2,11,23,57,296,44,26,40,038,44,27,57,153,45,31,22,092,43*72
$GPGSV,3,3,11,07,06,298,37,14,09,148,00,22,09,210,00*44
$BDGSV,3,1,12,01,40,125,41,02,45,218,41,03,54,172,45,04,23,109,40*6C
$BDGSV,3,2,12,05,00,000,37,06,43,168,42,07,65,007,44,09,69,203,43*60
$BDGSV,3,3,12,10,62,299,43,16,49,175,43,19,20,297,41,23,22,076,42*60
$B3CN0,0,0,0,0,0,0,0,0,0,0,0,0,0,0*4C
$GLGSV,3,1,09,08,41,287,46,07,37,216,47,19,30,062,37,20,30,130,40*65
$GLGSV,3,2,09,01,13,326,37,11,06,280,39,09,39,029,46,06,02,179,31*68
$GLGSV,3,3,09,26,00,000,45*59
$ini_pos,lastpos_good = 1,ini_pos.x:-1578917.993744,ini_pos.y:5312775.238916,ini_pos.z:3146358.046743
Refix G03: 2, 267516.919608, 1317
Refix G07: 2, 267516.915053, -3639
Refix G08: 2, 267516.924595, -4566
Refix G09: 2, 267516.922801, -4088
Refix G14: 2, 267516.918182, 2501
Refix G16: 2, 267516.931833, 224
Refix G22: 2, 267516.916998, 1124
Refix G23: 2, 267516.929634, -2607
Refix G26: 2, 267516.926906, 1236
Refix G27: 2, 267516.930605, -3105
Refix G31: 2, 267516.921096, 901
$GNGGA,021819.000,2944.9067,N,10633.0940,E,1,30,0.5,330.7,M,,,,0000*1A
$GNRMC,021819.000,A,2944.9067,N,10633.0940,E,0.24,0.00,080519,,*14
$GPGSA,A,3,03,07,08,09,16,23,26,27,31,,,,0.6,0.5,0.3*32
$BDGSA,A,3,01,02,03,04,06,07,09,10,16,19,23,27,0.6,0.5,0.3*25
$GLGSA,A,3,01,06,07,08,09,11,19,20,,,,,0.6,0.5,0.3*25
$GPGSV,3,1,11,03,15,228,40,08,31,188,41,09,24,316,43,16,64,003,44*74
$GPGSV,3,2,11,23,57,296,44,26,40,038,43,27,57,153,45,31,22,092,43*75
$GPGSV,3,3,11,07,06,298,37,14,09,148,00,22,09,210,00*44
$BDGSV,3,1,12,01,40,125,40,02,45,218,41,03,54,172,43,04,23,109,41*6A
$BDGSV,3,2,12,05,00,000,37,06,43,168,42,07,65,007,44,09,69,203,43*60
$BDGSV,3,3,12,10,62,299,43,16,49,175,42,19,20,297,41,23,22,076,42*61
$B3CN0,17,0,0,0,0,0,0,0,0,0,0,0,0,0*7A
$GLGSV,3,1,09,08,41,287,46,07,37,216,46,19,30,062,37,20,30,130,40*64
$GLGSV,3,2,09,01,13,326,37,11,06,280,39,09,39,029,46,06,02,179,31*68
$GLGSV,3,3,09,26,00,000,45*59
$ini_pos,lastpos_good = 1,ini_pos.x:-1578918.223848,ini_pos.y:5312775.409107,ini_pos.z:3146358.167737
Refix G03: 2, 267517.919607, 1326
Refix G07: 2, 267517.915056, -3630
Refix G08: 2, 267517.924598, -4556
Refix G09: 2, 267517.922804, -4079
Refix G14: 2, 267517.918180, 2510
Refix G16: 2, 267517.931832, 234
Refix G22: 2, 267517.916997, 1133
Refix G23: 2, 267517.929635, -2597
Refix G26: 2, 267517.926905, 1245
Refix G27: 2, 267517.930607, -3095
Refix G31: 2, 267517.921095, 910
$GNGGA,021820.000,2944.9067,N,10633.0940,E,1,30,0.5,330.7,M,,,,0000*10
$GNRMC,021820.000,A,2944.9067,N,10633.0940,E,0.25,0.00,080519,,*1F
$GPGSA,A,3,03,07,08,09,16,23,26,27,31,,,,0.6,0.5,0.3*32
$BDGSA,A,3,01,02,03,04,06,07,09,10,16,19,23,27,0.6,0.5,0.3*25
$GLGSA,A,3,01,06,07,08,09,11,19,20,,,,,0.6,0.5,0.3*25
$GPGSV,3,1,11,03,15,228,40,08,31,188,42,09,24,316,43,16,64,003,44*77
$GPGSV,3,2,11,23,57,296,44,26,40,038,44,27,57,153,45,31,22,092,44*75
$GPGSV,3,3,11,07,06,298,37,14,09,148,00,22,09,210,00*44
$BDGSV,3,1,12,01,40,125,41,02,45,218,40,03,54,172,43,04,23,109,41*6A
$BDGSV,3,2,12,05,00,000,37,06,43,168,42,07,65,007,43,09,69,203,43*67
$BDGSV,3,3,12,10,62,299,43,16,49,175,43,19,20,297,40,23,22,076,42*61
$B3CN0,0,0,0,0,0,0,0,0,0,0,0,0,0,0*4C
$GLGSV,3,1,09,08,41,287,46,07,37,216,47,19,30,062,37,20,30,130,40*65
$GLGSV,3,2,09,01,13,326,37,11,06,280,39,09,39,029,46,06,02,179,32*6B
$GLGSV,3,3,09,26,00,000,45*59
$ini_pos,lastpos_good = 1,ini_pos.x:-1578918.298504,ini_pos.y:5312775.396298,ini_pos.z:3146358.137733
Refix G03: 2, 267518.919606, 1316
Refix G07: 2, 267518.915058, -3639
Refix G08: 2, 267518.924601, -4566
Refix G09: 2, 267518.922807, -4088
Refix G14: 2, 267518.918178, 2501
Refix G16: 2, 267518.931832, 224
Refix G22: 2, 267518.916997, 1124
Refix G23: 2, 267518.929637, -2607
Refix G26: 2, 267518.926904, 1236
Refix G27: 2, 267518.930609, -3105
Refix G31: 2, 267518.921095, 901
$GNGGA,021821.000,2944.9066,N,10633.0941,E,1,30,0.5,330.3,M,,,,0000*15
$GNRMC,021821.000,A,2944.9066,N,10633.0941,E,0.30,0.00,080519,,*1A
$GPGSA,A,3,03,07,08,09,16,23,26,27,31,,,,0.6,0.5,0.3*32
$BDGSA,A,3,01,02,03,04,06,07,09,10,16,19,23,27,0.6,0.5,0.3*25
$GLGSA,A,3,01,06,07,08,09,11,19,20,,,,,0.6,0.5,0.3*25
$GPGSV,3,1,11,03,15,228,41,08,31,188,43,09,24,316,43,16,64,003,45*76
$GPGSV,3,2,11,23,57,296,44,26,40,038,44,27,57,153,45,31,22,092,44*75
$GPGSV,3,3,11,07,06,298,37,14,09,148,00,22,09,210,00*44
$BDGSV,3,1,12,01,40,125,40,02,45,218,40,03,54,172,43,04,23,109,42*68
$BDGSV,3,2,12,05,00,000,38,06,43,168,42,07,65,007,44,09,69,203,43*6F
$BDGSV,3,3,12,10,62,299,43,16,49,175,42,19,20,297,41,23,22,076,43*60
$B3CN0,0,0,0,0,0,0,0,0,0,0,0,0,0,0*4C
$GLGSV,3,1,09,08,41,287,46,07,37,216,46,19,30,062,38,20,30,130,41*6A
$GLGSV,3,2,09,01,13,326,37,11,06,280,39,09,39,029,46,06,02,179,32*6B
$GLGSV,3,3,09,26,00,000,45*59
$ini_pos,lastpos_good = 1,ini_pos.x:-1578918.249379,ini_pos.y:5312775.110695,ini_pos.z:3146357.936977
Refix G03: 2, 267519.919606, 1323
Refix G07: 2, 267519.915060, -3632
Refix G08: 2, 267519.924604, -4559
Refix G09: 2, 267519.922809, -4080
Refix G14: 2, 267519.918177, 2507
Refix G16: 2, 267519.931832, 231
Refix G22: 2, 267519.916996, 1130
Refix G23: 2, 267519.929639, -2599
Refix G26: 2, 267519.926903, 1243
Refix G27: 2, 267519.930611, -3097
Refix G31: 2, 267519.921094, 908
$GNGGA,021822.000,2944.9066,N,10633.0940,E,1,30,0.5,330.5,M,,,,0000*11
$GNRMC,021822.000,A,2944.9066,N,10633.0940,E,0.24,0.00,080519,,*1D
$GPGSA,A,3,03,07,08,09,16,23,26,27,31,,,,0.6,0.5,0.3*32
$BDGSA,A,3,01,02,03,04,06,07,09,10,16,19,23,27,0.6,0.5,0.3*25
$GLGSA,A,3,01,06,07,08,09,11,19,20,,,,,0.6,0.5,0.3*25
$GPGSV,3,1,11,03,15,228,40,08,31,188,42,09,24,316,43,16,64,003,44*77
$GPGSV,3,2,11,23,57,296,44,26,40,038,44,27,57,153,44,31,22,092,43*73
$GPGSV,3,3,11,07,06,298,36,14,09,148,00,22,09,210,00*45
$BDGSV,3,1,12,01,40,125,42,02,45,218,41,03,54,172,43,04,23,109,40*69
$BDGSV,3,2,12,05,00,000,38,06,43,168,42,07,65,007,43,09,69,203,42*69
$BDGSV,3,3,12,10,62,299,43,16,49,175,43,19,20,297,41,23,22,076,43*61
$B3CN0,0,0,0,0,0,0,0,0,0,0,0,0,0,0*4C
$GLGSV,3,1,09,08,41,287,46,07,37,216,46,19,30,062,37,20,30,130,41*65
$GLGSV,3,2,09,01,13,326,37,11,06,280,39,09,39,029,45,06,02,179,32*68
$GLGSV,3,3,09,26,00,000,45*59
$ini_pos,lastpos_good = 1,ini_pos.x:-1578918.257028,ini_pos.y:5312775.358165,ini_pos.z:3146357.896336
Refix G03: 2, 267520.919605, 1326
Refix G07: 2, 267520.915062, -3630
Refix G08: 2, 267520.924607, -4556
Refix G09: 2, 267520.922812, -4078
Refix G14: 2, 267520.918175, 2510
Refix G16: 2, 267520.931832, 234
Refix G22: 2, 267520.916995, 1133
Refix G23: 2, 267520.929640, -2596
Refix G26: 2, 267520.926902, 1245
Refix G27: 2, 267520.930613, -3094
Refix G31: 2, 267520.921093, 910
$GNGGA,021823.000,2944.9065,N,10633.0941,E,1,30,0.5,330.5,M,,,,0000*12
$GNRMC,021823.000,A,2944.9065,N,10633.0941,E,0.17,0.00,080519,,*1E
$GPGSA,A,3,03,07,08,09,16,23,26,27,31,,,,0.6,0.5,0.3*32
$BDGSA,A,3,01,02,03,04,06,07,09,10,16,19,23,27,0.6,0.5,0.3*25
$GLGSA,A,3,01,06,07,08,09,11,19,20,,,,,0.6,0.5,0.3*25
$GPGSV,3,1,11,03,15,228,39,08,31,188,43,09,24,316,43,16,64,003,44*78
$GPGSV,3,2,11,23,57,296,45,26,40,038,43,27,57,153,45,31,22,092,43*74
$GPGSV,3,3,11,07,06,298,37,14,09,148,00,22,09,210,00*44
$BDGSV,3,1,12,01,40,125,41,02,45,218,40,03,54,172,43,04,23,109,40*6B
$BDGSV,3,2,12,05,00,000,38,06,43,168,42,07,65,007,43,09,69,203,43*68
$BDGSV,3,3,12,10,62,299,43,16,49,175,43,19,20,297,41,23,22,076,43*61
$B3CN0,0,0,0,0,0,0,0,0,0,0,0,0,0,0*4C
$GLGSV,3,1,09,08,41,287,46,07,37,216,46,19,30,062,37,20,30,130,41*65
$GLGSV,3,2,09,01,13,326,37,11,06,280,39,09,39,029,46,06,02,179,32*6B
$GLGSV,3,3,09,26,00,000,45*59
$ini_pos,lastpos_good = 1,ini_pos.x:-1578918.330107,ini_pos.y:5312775.403217,ini_pos.z:3146357.839487
Refix G03: 2, 267521.919604, 1322
Refix G07: 2, 267521.915065, -3633
Refix G08: 2, 267521.924610, -4560
Refix G09: 2, 267521.922814, -4081
Refix G14: 2, 267521.918174, 2507
Refix G16: 2, 267521.931832, 230
Refix G22: 2, 267521.916994, 1129
Refix G23: 2, 267521.929642, -2599
Refix G26: 2, 267521.926902, 1241
Refix G27: 2, 267521.930615, -3097
Refix G31: 2, 267521.921093, 907
$GNGGA,021824.000,2944.9065,N,10633.0941,E,1,30,0.5,330.6,M,,,,0000*16
$GNRMC,021824.000,A,2944.9065,N,10633.0941,E,0.11,0.00,080519,,*1F
$GPGSA,A,3,03,07,08,09,16,23,26,27,31,,,,0.6,0.5,0.3*32
$BDGSA,A,3,01,02,03,04,06,07,09,10,16,19,23,27,0.6,0.5,0.3*25
$GLGSA,A,3,01,06,07,08,09,11,19,20,,,,,0.6,0.5,0.3*25
$GPGSV,3,1,11,03,15,228,40,08,31,188,42,09,24,316,43,16,64,003,44*77
$GPGSV,3,2,11,23,57,296,44,26,40,038,44,27,57,153,45,31,22,092,43*72
$GPGSV,3,3,11,07,06,298,37,14,09,148,00,22,09,210,00*44
$BDGSV,3,1,12,01,40,125,40,02,45,218,41,03,54,172,42,04,23,109,40*6A
$BDGSV,3,2,12,05,00,000,36,06,43,168,42,07,65,007,44,09,69,203,43*61
$BDGSV,3,3,12,10,62,299,43,16,49,175,42,19,20,297,40,23,22,076,43*61
$B3CN0,0,0,22,0,0,0,0,0,0,0,0,0,0,0*7C
$GLGSV,3,1,09,08,41,287,46,07,37,216,46,19,30,062,37,20,30,130,41*65
$GLGSV,3,2,09,01,13,326,37,11,06,280,39,09,39,029,45,06,02,179,31*6B
$GLGSV,3,3,09,26,00,000,45*59
$ini_pos,lastpos_good = 1,ini_pos.x:-1578918.451313,ini_pos.y:5312775.541334,ini_pos.z:3146357.804926
Refix G03: 2, 267522.919603, 1320
Refix G07: 2, 267522.915067, -3636
Refix G08: 2, 267522.924612, -4561
Refix G09: 2, 267522.922817, -4083
Refix G14: 2, 267522.918172, 2505
Refix G16: 2, 267522.931831, 228
Refix G22: 2, 267522.916994, 1127
Refix G23: 2, 267522.929644, -2601
Refix G26: 2, 267522.926901, 1239
Refix G27: 2, 267522.930617, -3099
Refix G31: 2, 267522.921092, 905
$GNGGA,021825.000,2944.9065,N,10633.0941,E,1,30,0.5,330.8,M,,,,0000*19
$GNRMC,021825.000,A,2944.9065,N,10633.0941,E,0.29,0.00,080519,,*15
$GPGSA,A,3,03,07,08,09,16,23,26,27,31,,,,0.6,0.5,0.3*32
$BDGSA,A,3,01,02,03,04,06,07,09,10,16,19,23,27,0.6,0.5,0.3*25
$GLGSA,A,3,01,06,07,08,09,11,19,20,,,,,0.6,0.5,0.3*25
$GPGSV,3,1,11,03,15,228,40,08,31,188,42,09,24,316,42,16,64,003,44*76
$GPGSV,3,2,11,23,57,296,44,26,40,038,43,27,57,153,45,31,22,092,43*75
$GPGSV,3,3,11,07,06,298,38,14,09,148,00,22,09,210,00*4B
$BDGSV,3,1,12,01,40,125,42,02,45,218,41,03,54,172,43,04,23,109,40*69
$BDGSV,3,2,12,05,00,000,39,06,43,168,42,07,65,007,44,09,69,203,42*6F
$BDGSV,3,3,12,10,62,299,43,16,49,175,42,19,20,297,40,23,22,076,43*61
$B3CN0,0,0,20,0,0,0,0,0,0,0,0,0,0,0*7E
$GLGSV,3,1,09,08,41,287,46,07,37,216,46,19,30,062,37,20,30,130,41*65
$GLGSV,3,2,09,01,13,326,37,11,06,280,39,09,39,029,46,06,02,179,32*6B
$GLGSV,3,3,09,26,00,000,45*59
$ini_pos,lastpos_good = 1,ini_pos.x:-1578918.560767,ini_pos.y:5312775.682570,ini_pos.z:3146357.917516
Refix G03: 2, 267523.919602, 1320
Refix G07: 2, 267523.915069, -3636
Refix G08: 2, 267523.924615, -4562
Refix G09: 2, 267523.922819, -4083
Refix G14: 2, 267523.918170, 2505
Refix G16: 2, 267523.931831, 228
Refix G22: 2, 267523.916993, 1126
Refix G23: 2, 267523.929645, -2601
Refix G26: 2, 267523.926900, 1239
Refix G27: 2, 267523.930619, -3099
Refix G31: 2, 267523.921092, 905
$GNGGA,021826.000,2944.9064,N,10633.0942,E,1,30,0.5,331.2,M,,,,0000*13
$GNRMC,021826.000,A,2944.9064,N,10633.0942,E,0.18,0.00,080519,,*16
$GPGSA,A,3,03,07,08,09,16,23,26,27,31,,,,0.6,0.5,0.3*32
$BDGSA,A,3,01,02,03,04,06,07,09,10,16,19,23,27,0.6,0.5,0.3*25
$GLGSA,A,3,01,06,07,08,09,11,19,20,,,,,0.6,0.5,0.3*25
$GPGSV,3,1,11,03,15,228,39,08,31,188,42,09,24,316,42,16,64,003,44*78
$GPGSV,3,2,11,23,57,296,43,26,40,038,43,27,57,153,44,31,22,092,43*73
$GPGSV,3,3,11,07,06,298,37,14,09,148,00,22,09,210,00*44
$BDGSV,3,1,12,01,40,125,41,02,45,218,40,03,54,172,43,04,23,109,41*6A
$BDGSV,3,2,12,05,00,000,37,06,43,168,42,07,65,007,44,09,69,203,43*60
$BDGSV,3,3,12,10,62,299,43,16,49,175,43,19,20,297,40,23,22,076,43*60
$B3CN0,0,0,18,0,0,0,0,0,0,0,0,0,0,0*75
$GLGSV,3,1,09,08,41,287,46,07,37,216,46,19,30,062,38,20,30,130,40*6B
$GLGSV,3,2,09,01,13,326,37,11,06,280,39,09,39,029,45,06,02,179,31*6B
$GLGSV,3,3,09,26,00,000,45*59
$ini_pos,lastpos_good = 1,ini_pos.x:-1578918.677237,ini_pos.y:5312775.996016,ini_pos.z:3146357.998585
Refix G03: 2, 267524.919601, 1318
Refix G07: 2, 267524.915072, -3639
Refix G08: 2, 267524.924618, -4564
Refix G09: 2, 267524.922822, -4085
Refix G14: 2, 267524.918169, 2503
Refix G16: 2, 267524.931831, 226
Refix G22: 2, 267524.916992, 1124
Refix G23: 2, 267524.929647, -2603
Refix G26: 2, 267524.926899, 1237
Refix G27: 2, 267524.930621, -3100
Refix G31: 2, 267524.921091, 903
$GNGGA,021827.000,2944.9064,N,10633.0942,E,1,30,0.5,331.3,M,,,,0000*13
$GNRMC,021827.000,A,2944.9064,N,10633.0942,E,0.24,0.00,080519,,*18
$GPGSA,A,3,03,07,08,09,16,23,26,27,31,,,,0.6,0.5,0.3*32
$BDGSA,A,3,01,02,03,04,06,07,09,10,16,19,23,27,0.6,0.5,0.3*25
$GLGSA,A,3,01,06,07,08,09,11,19,20,,,,,0.6,0.5,0.3*25
$GPGSV,3,1,11,03,15,228,40,08,31,188,43,09,24,316,42,16,64,003,44*77
$GPGSV,3,2,11,23,57,296,44,26,40,038,43,27,57,153,44,31,22,092,43*74
$GPGSV,3,3,11,07,06,298,37,14,09,148,00,22,09,210,00*44
$BDGSV,3,1,12,01,40,125,40,02,45,218,40,03,54,172,43,04,23,109,41*6B
$BDGSV,3,2,12,05,00,000,38,06,43,168,42,07,65,007,44,09,69,203,43*6F
$BDGSV,3,3,12,10,62,299,44,16,49,175,42,19,20,297,41,23,22,076,43*67
$B3CN0,0,0,18,0,0,0,0,0,0,0,0,0,0,0*75
$GLGSV,3,1,09,08,41,287,46,07,37,216,47,19,30,062,38,20,30,130,40*6A
$GLGSV,3,2,09,01,13,326,37,11,06,280,39,09,39,029,46,06,02,179,31*68
$GLGSV,3,3,09,26,00,000,46*5A
$ini_pos,lastpos_good = 1,ini_pos.x:-1578918.711640,ini_pos.y:5312776.057063,ini_pos.z:3146358.049086
Refix G03: 2, 267525.919600, 1314
Refix G07: 2, 267525.915074, -3642
Refix G08: 2, 267525.924621, -4567
Refix G09: 2, 267525.922825, -4088
Refix G14: 2, 267525.918167, 2500
Refix G16: 2, 267525.931831, 224
Refix G22: 2, 267525.916992, 1121
Refix G23: 2, 267525.929648, -2605
Refix G26: 2, 267525.926898, 1235
Refix G27: 2, 267525.930623, -3102
Refix G31: 2, 267525.921090, 901
$GNGGA,021828.000,2944.9064,N,10633.0941,E,1,30,0.5,331.3,M,,,,0000*1F
$GNRMC,021828.000,A,2944.9064,N,10633.0941,E,0.42,0.00,080519,,*14
$GPGSA,A,3,03,07,08,09,16,23,26,27,31,,,,0.6,0.5,0.3*32
$BDGSA,A,3,01,02,03,04,06,07,09,10,16,19,23,27,0.6,0.5,0.3*25
$GLGSA,A,3,01,06,07,08,09,11,19,20,,,,,0.6,0.5,0.3*25
$GPGSV,3,1,11,03,15,228,39,08,31,188,42,09,24,316,42,16,64,003,44*78
$GPGSV,3,2,11,23,57,296,44,26,40,038,43,27,57,153,44,31,22,092,43*74
$GPGSV,3,3,11,07,06,298,37,14,09,148,00,22,09,210,00*44
$BDGSV,3,1,12,01,40,125,41,02,45,218,40,03,54,172,45,04,23,109,42*6F
$BDGSV,3,2,12,05,00,000,37,06,43,168,42,07,65,007,44,09,69,203,43*60
$BDGSV,3,3,12,10,62,299,43,16,49,175,43,19,20,297,41,23,22,076,42*60
$B3CN0,0,0,22,0,0,0,0,0,0,0,0,0,0,0*7C
$GLGSV,3,1,09,08,41,287,45,07,37,216,46,19,30,062,37,20,30,130,40*67
$GLGSV,3,2,09,01,13,326,37,11,06,280,39,09,39,029,45,06,02,179,31*6B
$GLGSV,3,3,09,26,00,000,45*59
$ini_pos,lastpos_good = 1,ini_pos.x:-1578918.710129,ini_pos.y:5312776.156312,ini_pos.z:3146358.015091
Refix G03: 2, 267526.919600, 1314
Refix G07: 2, 267526.915076, -3643
Refix G08: 2, 267526.924624, -4567
Refix G09: 2, 267526.922827, -4089
Refix G14: 2, 267526.918165, 2499
Refix G16: 2, 267526.931831, 224
Refix G22: 2, 267526.916991, 1120
Refix G23: 2, 267526.929650, -2605
Refix G26: 2, 267526.926897, 1233
Refix G27: 2, 267526.930625, -3103
Refix G31: 2, 267526.921090, 899
$GNGGA,021829.000,2944.9064,N,10633.0942,E,1,30,0.5,331.5,M,,,,0000*1B
$GNRMC,021829.000,A,2944.9064,N,10633.0942,E,0.27,0.00,080519,,*15
$GPGSA,A,3,03,07,08,09,16,23,26,27,31,,,,0.6,0.5,0.3*32
$BDGSA,A,3,01,02,03,04,06,07,09,10,16,19,23,27,0.6,0.5,0.3*25
$GLGSA,A,3,01,06,07,08,09,11,19,20,,,,,0.6,0.5,0.3*25
$GPGSV,3,1,11,03,15,228,39,08,31,188,42,09,24,316,43,16,64,003,44*79
$GPGSV,3,2,11,23,57,296,44,26,40,038,43,27,57,153,44,31,22,092,43*74
$GPGSV,3,3,11,07,06,298,38,14,09,148,00,22,09,210,00*4B
$BDGSV,3,1,12,01,40,125,40,02,45,218,41,03,54,172,45,04,23,109,41*6C
$BDGSV,3,2,12,05,00,000,39,06,43,168,42,07,65,007,43,09,69,203,43*69
$BDGSV,3,3,12,10,62,299,44,16,49,175,43,19,20,297,41,23,22,076,42*67
$B3CN0,16,0,0,0,0,0,0,0,0,0,0,0,0,0*7B
$GLGSV,3,1,09,08,41,287,46,07,37,216,47,19,30,062,37,20,30,130,41*64
$GLGSV,3,2,09,01,13,326,37,11,06,280,39,09,39,029,46,06,02,179,31*68
$GLGSV,3,3,09,26,00,000,46*5A
$ini_pos,lastpos_good = 1,ini_pos.x:-1578918.801509,ini_pos.y:5312776.284753,ini_pos.z:3146358.059555
Refix G03: 2, 267527.919599, 1310
Refix G07: 2, 267527.915078, -3647
Refix G08: 2, 267527.924627, -4570
Refix G09: 2, 267527.922830, -4092
Refix G14: 2, 267527.918164, 2495
Refix G16: 2, 267527.931831, 220
Refix G22: 2, 267527.916990, 1116
Refix G23: 2, 267527.929652, -2608
Refix G26: 2, 267527.926897, 1229
Refix G27: 2, 267527.930627, -3106
Refix G31: 2, 267527.921089, 896
$GNGGA,021830.000,2944.9063,N,10633.0942,E,1,30,0.5,331.5,M,,,,0000*14
$GNRMC,021830.000,A,2944.9063,N,10633.0942,E,0.26,0.00,080519,,*1B
$GPGSA,A,3,03,07,08,09,16,23,26,27,31,,,,0.6,0.5,0.3*32
$BDGSA,A,3,01,02,03,04,06,07,09,10,16,19,23,27,0.6,0.5,0.3*25
$GLGSA,A,3,01,06,07,08,09,11,19,20,,,,,0.6,0.5,0.3*25
$GPGSV,3,1,11,03,15,228,38,08,31,188,42,09,24,316,42,16,64,003,44*79
$GPGSV,3,2,11,23,57,296,44,26,40,038,43,27,57,153,44,31,22,092,43*74
$GPGSV,3,3,11,07,06,298,38,14,09,148,00,22,09,210,00*4B
$BDGSV,3,1,12,01,40,125,41,02,45,218,40,03,54,172,43,04,23,109,41*6A
$BDGSV,3,2,12,05,00,000,37,06,43,168,42,07,65,007,44,09,69,203,43*60
$BDGSV,3,3,12,10,62,299,43,16,49,175,42,19,20,297,40,23,22,076,43*61
$B3CN0,0,0,0,0,0,0,0,0,0,0,0,0,0,0*4C
$GLGSV,3,1,09,08,41,287,46,07,37,216,46,19,30,062,38,20,30,130,40*6B
$GLGSV,3,2,09,01,13,326,37,11,06,280,39,09,39,029,46,06,02,179,31*68
$GLGSV,3,3,09,26,00,000,45*59
$ini_pos,lastpos_good = 1,ini_pos.x:-1578918.854273,ini_pos.y:5312776.295982,ini_pos.z:3146358.002802
Refix G03: 2, 267528.919598, 1307
Refix G07: 2, 267528.915081, -3650
Refix G08: 2, 267528.924630, -4574
Refix G09: 2, 267528.922832, -4095
Refix G14: 2, 267528.918162, 2492
Refix G16: 2, 267528.931830, 216
Refix G22: 2, 267528.916989, 1112
Refix G23: 2, 267528.929653, -2612
Refix G26: 2, 267528.926896, 1225
Refix G27: 2, 267528.930629, -3110
Refix G31: 2, 267528.921089, 891
$GNGGA,021831.000,2944.9063,N,10633.0943,E,1,30,0.5,331.7,M,,,,0000*16
$GNRMC,021831.000,A,2944.9063,N,10633.0943,E,0.11,0.00,080519,,*1F
$GPGSA,A,3,03,07,08,09,16,23,26,27,31,,,,0.6,0.5,0.3*32
$BDGSA,A,3,01,02,03,04,06,07,09,10,16,19,23,27,0.6,0.5,0.3*25
$GLGSA,A,3,01,06,07,08,09,11,19,20,,,,,0.6,0.5,0.3*25
$GPGSV,3,1,11,03,15,228,39,08,31,188,42,09,24,316,42,16,64,003,44*78
$GPGSV,3,2,11,23,57,296,44,26,40,038,43,27,57,153,44,31,22,092,44*73
$GPGSV,3,3,11,07,06,298,38,14,09,148,00,22,09,210,00*4B
$BDGSV,3,1,12,01,40,125,41,02,45,218,41,03,54,172,43,04,23,109,41*6B
$BDGSV,3,2,12,05,00,000,38,06,43,168,42,07,65,007,43,09,69,203,43*68
$BDGSV,3,3,12,10,62,299,44,16,49,175,43,19,20,297,41,23,22,076,42*67
$B3CN0,0,0,0,0,0,0,0,0,0,0,0,0,0,0*4C
$GLGSV,3,1,09,08,41,286,46,07,36,216,46,19,30,062,38,20,30,130,41*6A
$GLGSV,3,2,09,01,13,326,37,11,06,280,38,09,39,029,46,06,02,179,31*69
$GLGSV,3,3,09,26,00,000,45*59
$ini_pos,lastpos_good = 1,ini_pos.x:-1578919.054738,ini_pos.y:5312776.446002,ini_pos.z:3146358.058065
Refix G03: 2, 267529.919597, 1317
Refix G07: 2, 267529.915083, -3641
Refix G08: 2, 267529.924633, -4563
Refix G09: 2, 267529.922835, -4085
Refix G14: 2, 267529.918161, 2502
Refix G16: 2, 267529.931830, 228
Refix G22: 2, 267529.916989, 1122
Refix G23: 2, 267529.929655, -2600
Refix G26: 2, 267529.926895, 1237
Refix G27: 2, 267529.930631, -3097
Refix G31: 2, 267529.921088, 903
$GNGGA,021832.000,2944.9063,N,10633.0943,E,1,30,0.5,331.8,M,,,,0000*1A
$GNRMC,021832.000,A,2944.9063,N,10633.0943,E,0.34,0.00,080519,,*1B
$GPGSA,A,3,03,07,08,09,16,23,26,27,31,,,,0.6,0.5,0.3*32
$BDGSA,A,3,01,02,03,04,06,07,09,10,16,19,23,27,0.6,0.5,0.3*25
$GLGSA,A,3,01,06,07,08,09,11,19,20,,,,,0.6,0.5,0.3*25
$GPGSV,3,1,11,03,15,228,39,08,31,188,42,09,24,316,42,16,64,003,44*78
$GPGSV,3,2,11,23,57,296,44,26,40,038,43,27,57,153,45,31,22,092,43*75
$GPGSV,3,3,11,07,06,298,38,14,09,148,00,22,09,210,00*4B
$BDGSV,3,1,12,01,40,125,42,02,45,218,41,03,54,172,43,04,23,109,40*69
$BDGSV,3,2,12,05,00,000,37,06,43,168,42,07,65,007,43,09,69,203,43*67
$BDGSV,3,3,12,10,62,299,43,16,49,175,43,19,20,297,41,23,22,076,43*61
$B3CN0,0,0,19,0,0,0,0,0,0,0,0,0,0,0*74
$GLGSV,3,1,09,08,41,286,46,07,36,216,47,19,30,062,38,20,30,130,41*6B
$GLGSV,3,2,09,01,13,326,37,11,06,280,38,09,39,029,46,06,02,179,31*69
$GLGSV,3,3,09,26,00,000,45*59
$ini_pos,lastpos_good = 1,ini_pos.x:-1578919.128219,ini_pos.y:5312776.571376,ini_pos.z:3146358.138977
Refix G03: 2, 267530.919596, 1316
Refix G07: 2, 267530.915085, -3642
Refix G08: 2, 267530.924635, -4564
Refix G09: 2, 267530.922837, -4086
Refix G14: 2, 267530.918159, 2501
Refix G16: 2, 267530.931830, 227
Refix G22: 2, 267530.916988, 1121
Refix G23: 2, 267530.929657, -2601
Refix G26: 2, 267530.926894, 1235
Refix G27: 2, 267530.930633, -3098
Refix G31: 2, 267530.921087, 901
$GNGGA,021833.000,2944.9063,N,10633.0943,E,1,30,0.5,331.5,M,,,,0000*16
$GNRMC,021833.000,A,2944.9063,N,10633.0943,E,0.30,0.00,080519,,*1E
$GPGSA,A,3,03,07,08,09,16,23,26,27,31,,,,0.6,0.5,0.3*32
$BDGSA,A,3,01,02,03,04,06,07,09,10,16,19,23,27,0.6,0.5,0.3*25
$GLGSA,A,3,01,06,07,08,09,11,19,20,,,,,0.6,0.5,0.3*25
$GPGSV,3,1,11,03,15,228,39,08,31,188,42,09,24,316,42,16,64,003,45*79
$GPGSV,3,2,11,23,57,296,44,26,40,038,43,27,57,153,45,31,22,092,43*75
$GPGSV,3,3,11,07,06,298,38,14,09,148,00,22,09,210,00*4B
$BDGSV,3,1,12,01,40,125,41,02,45,218,40,03,54,172,45,04,23,109,41*6C
$BDGSV,3,2,12,05,00,000,38,06,43,168,42,07,65,007,44,09,69,203,43*6F
$BDGSV,3,3,12,10,62,299,43,16,49,175,43,19,20,297,41,23,22,076,42*60
$B3CN0,0,0,0,0,0,0,0,0,0,0,0,0,0,0*4C
$GLGSV,3,1,09,08,41,286,46,07,36,216,47,19,30,062,38,20,30,130,41*6B
$GLGSV,3,2,09,01,13,326,37,11,06,280,38,09,39,029,46,06,02,179,30*68
$GLGSV,3,3,09,26,00,000,46*5A
$ini_pos,lastpos_good = 1,ini_pos.x:-1578919.028083,ini_pos.y:5312776.301371,ini_pos.z:3146357.987045
Refix G03: 2, 267531.919595, 1310
Refix G07: 2, 267531.915088, -3647
Refix G08: 2, 267531.924638, -4570
Refix G09: 2, 267531.922840, -4091
Refix G14: 2, 267531.918157, 2496
Refix G16: 2, 267531.931830, 221
Refix G22: 2, 267531.916987, 1116
Refix G23: 2, 267531.929658, -2607
Refix G26: 2, 267531.926893, 1230
Refix G27: 2, 267531.930635, -3104
Refix G31: 2, 267531.921087, 896
$GNGGA,021834.000,2944.9063,N,10633.0944,E,1,30,0.5,331.4,M,,,,0000*17
$GNRMC,021834.000,A,2944.9063,N,10633.0944,E,0.21,0.00,080519,,*1E
$GPGSA,A,3,03,07,08,09,16,23,26,27,31,,,,0.6,0.5,0.3*32
$BDGSA,A,3,01,02,03,04,06,07,09,10,16,19,23,27,0.6,0.5,0.3*25
$GLGSA,A,3,01,06,07,08,09,11,19,20,,,,,0.6,0.5,0.3*25
$GPGSV,3,1,11,03,15,228,38,08,31,188,42,09,24,316,42,16,64,003,44*79
$GPGSV,3,2,11,23,57,296,44,26,40,038,43,27,57,153,46,31,22,092,43*76
$GPGSV,3,3,11,07,06,298,38,14,09,148,00,22,09,210,00*4B
$BDGSV,3,1,12,01,40,125,41,02,45,218,41,03,54,172,43,04,23,109,41*6B
$BDGSV,3,2,12,05,00,000,37,06,43,168,42,07,65,007,43,09,69,203,43*67
$BDGSV,3,3,12,10,62,299,44,16,49,175,42,19,20,297,41,23,22,076,42*66
$B3CN0,0,0,22,0,0,0,0,0,0,0,0,0,0,0*7C
$GLGSV,3,1,09,08,41,286,46,07,36,216,46,19,30,062,37,20,30,130,41*65
$GLGSV,3,2,09,01,13,326,36,11,06,280,38,09,39,029,46,06,02,179,30*69
$GLGSV,3,3,09,26,00,000,45*59
$ini_pos,lastpos_good = 1,ini_pos.x:-1578919.092209,ini_pos.y:5312776.139863,ini_pos.z:3146358.001909
Refix G03: 2, 267532.919594, 1309
Refix G07: 2, 267532.915090, -3649
Refix G08: 2, 267532.924641, -4570
Refix G09: 2, 267532.922842, -4091
Refix G14: 2, 267532.918156, 2495
Refix G16: 2, 267532.931830, 221
Refix G22: 2, 267532.916986, 1114
Refix G23: 2, 267532.929660, -2607
Refix G26: 2, 267532.926893, 1229
Refix G27: 2, 267532.930636, -3104
Refix G31: 2, 267532.921086, 896
$GNGGA,021835.000,2944.9063,N,10633.0943,E,1,30,0.5,331.1,M,,,,0000*14
$GNRMC,021835.000,A,2944.9063,N,10633.0943,E,0.29,0.00,080519,,*10
$GPGSA,A,3,03,07,08,09,16,23,26,27,31,,,,0.6,0.5,0.3*32
$BDGSA,A,3,01,02,03,04,06,07,09,10,16,19,23,27,0.6,0.5,0.3*25
$GLGSA,A,3,01,06,07,08,09,11,19,20,,,,,0.6,0.5,0.3*25
$GPGSV,3,1,11,03,15,228,38,08,31,188,42,09,24,316,43,16,64,003,45*79
$GPGSV,3,2,11,23,57,296,44,26,40,038,44,27,57,153,45,31,22,092,44*75
$GPGSV,3,3,11,07,06,298,38,14,09,148,00,22,09,210,00*4B
$BDGSV,3,1,12,01,40,125,41,02,45,218,41,03,54,172,43,04,23,109,41*6B
$BDGSV,3,2,12,05,00,000,37,06,43,168,42,07,65,007,43,09,69,203,43*67
$BDGSV,3,3,12,10,62,299,44,16,49,175,43,19,20,297,41,23,22,076,43*66
$B3CN0,0,0,24,0,0,0,0,0,0,0,0,0,0,0*7A
$GLGSV,3,1,09,08,41,286,46,07,36,216,47,19,30,062,38,20,30,130,41*6B
$GLGSV,3,2,09,01,13,326,36,11,06,280,38,09,39,029,46,06,02,179,30*69
$GLGSV,3,3,09,26,00,000,45*59
$ini_pos,lastpos_good = 1,ini_pos.x:-1578918.938376,ini_pos.y:5312775.939017,ini_pos.z:3146357.859482
Refix G03: 2, 267533.919593, 1321
Refix G07: 2, 267533.915092, -3637
Refix G08: 2, 267533.924644, -4558
Refix G09: 2, 267533.922845, -4079
Refix G14: 2, 267533.918154, 2506
Refix G16: 2, 267533.931830, 234
Refix G22: 2, 267533.916986, 1125
Refix G23: 2, 267533.929661, -2593
Refix G26: 2, 267533.926892, 1242
Refix G27: 2, 267533.930638, -3090
Refix G31: 2, 267533.921086, 907
$GNGGA,021836.000,2944.9063,N,10633.0943,E,1,30,0.5,331.1,M,,,,0000*17
$GNRMC,021836.000,A,2944.9063,N,10633.0943,E,0.22,0.00,080519,,*18
$GPGSA,A,3,03,07,08,09,16,23,26,27,31,,,,0.6,0.5,0.3*32
$BDGSA,A,3,01,02,03,04,06,07,09,10,16,19,23,27,0.6,0.5,0.3*25
$GLGSA,A,3,01,06,07,08,09,11,19,20,,,,,0.6,0.5,0.3*25
$GPGSV,3,1,11,03,15,228,38,08,31,188,41,09,24,316,43,16,64,003,45*7A
$GPGSV,3,2,11,23,57,296,44,26,40,038,44,27,57,153,44,31,22,092,43*73
$GPGSV,3,3,11,07,06,298,37,14,09,148,00,22,09,210,00*44
$BDGSV,3,1,12,01,40,125,40,02,45,218,41,03,54,172,43,04,23,109,41*6A
$BDGSV,3,2,12,05,00,000,38,06,43,168,42,07,65,007,43,09,69,203,42*69
$BDGSV,3,3,12,10,62,299,43,16,49,175,42,19,20,297,41,23,22,076,42*61
$B3CN0,0,0,17,0,0,0,0,0,0,0,0,0,0,0*7A
$GLGSV,3,1,09,08,41,286,46,07,36,216,46,19,30,062,38,20,30,130,40*6B
$GLGSV,3,2,09,01,13,326,36,11,06,280,38,09,39,029,45,06,02,179,30*6A
$GLGSV,3,3,09,26,00,000,45*59
$ini_pos,lastpos_good = 1,ini_pos.x:-1578918.922588,ini_pos.y:5312775.933190,ini_pos.z:3146357.779165
Refix G03: 2, 267534.919593, 1312
Refix G07: 2, 267534.915094, -3646
Refix G08: 2, 267534.924647, -4567
Refix G09: 2, 267534.922848, -4088
Refix G14: 2, 267534.918152, 2498
Refix G16: 2, 267534.931829, 224
Refix G22: 2, 267534.916985, 1117
Refix G23: 2, 267534.929663, -2603
Refix G26: 2, 267534.926891, 1232
Refix G27: 2, 267534.930640, -3101
Refix G31: 2, 267534.921085, 898
$GNGGA,021837.000,2944.9064,N,10633.0945,E,1,30,0.5,330.8,M,,,,0000*1F
$GNRMC,021837.000,A,2944.9064,N,10633.0945,E,0.23,0.00,080519,,*19
$GPGSA,A,3,03,07,08,09,16,23,26,27,31,,,,0.6,0.5,0.3*32
$BDGSA,A,3,01,02,03,04,06,07,09,10,16,19,23,27,0.6,0.5,0.3*25
$GLGSA,A,3,01,06,07,08,09,11,19,20,,,,,0.6,0.5,0.3*25
$GPGSV,3,1,11,03,15,228,37,08,31,188,42,09,24,316,42,16,64,003,45*77
$GPGSV,3,2,11,23,57,296,45,26,40,038,44,27,57,153,45,31,22,092,44*74
$GPGSV,3,3,11,07,06,298,37,14,09,148,00,22,09,210,00*44
$BDGSV,3,1,12,01,40,125,41,02,45,218,40,03,54,172,45,04,23,109,40*6D
$BDGSV,3,2,12,05,00,000,39,06,43,168,42,07,65,007,43,09,69,203,43*69
$BDGSV,3,3,12,10,62,299,44,16,49,175,43,19,20,297,41,23,22,076,42*67
$B3CN0,0,0,18,0,0,0,0,0,0,0,0,0,0,0*75
$GLGSV,3,1,09,08,41,286,46,07,36,216,47,19,30,062,38,20,30,130,40*6A
$GLGSV,3,2,09,01,13,326,36,11,06,280,38,09,39,029,45,06,02,179,30*6A
$GLGSV,3,3,09,26,00,000,45*59
$ini_pos,lastpos_good = 1,ini_pos.x:-1578919.096944,ini_pos.y:5312775.589767,ini_pos.z:3146357.783541
Refix G03: 2, 267535.919592, 1308
Refix G07: 2, 267535.915097, -3651
Refix G08: 2, 267535.924650, -4571
Refix G09: 2, 267535.922850, -4092
Refix G14: 2, 267535.918151, 2493
Refix G16: 2, 267535.931829, 220
Refix G22: 2, 267535.916984, 1112
Refix G23: 2, 267535.929665, -2607
Refix G26: 2, 267535.926890, 1228
Refix G27: 2, 267535.930642, -3104
Refix G31: 2, 267535.921084, 894
$GNGGA,021838.000,2944.9065,N,10633.0945,E,1,30,0.5,330.8,M,,,,0000*11
$GNRMC,021838.000,A,2944.9065,N,10633.0945,E,0.17,0.00,080519,,*10
$GPGSA,A,3,03,07,08,09,16,23,26,27,31,,,,0.6,0.5,0.3*32
$BDGSA,A,3,01,02,03,04,06,07,09,10,16,19,23,27,0.6,0.5,0.3*25
$GLGSA,A,3,01,06,07,08,09,11,19,20,,,,,0.6,0.5,0.3*25
$GPGSV,3,1,11,03,15,228,37,08,31,188,42,09,24,316,42,16,64,003,45*77
$GPGSV,3,2,11,23,57,296,44,26,40,038,44,27,57,153,45,31,22,092,44*75
$GPGSV,3,3,11,07,06,298,38,14,09,148,00,22,09,210,00*4B
$BDGSV,3,1,12,01,40,125,41,02,45,218,41,03,54,172,43,04,23,109,41*6B
$BDGSV,3,2,12,05,00,000,38,06,43,168,42,07,65,007,43,09,69,203,43*68
$BDGSV,3,3,12,10,62,299,43,16,49,175,42,19,20,297,41,23,22,076,43*60
$B3CN0,0,0,23,0,0,0,0,0,0,0,0,0,0,0*7D
$GLGSV,3,1,09,08,41,286,46,07,36,216,46,19,30,062,38,20,30,130,40*6B
$GLGSV,3,2,09,01,13,326,36,11,06,280,37,09,39,029,45,06,02,179,30*65
$GLGSV,3,3,09,26,00,000,45*59
$ini_pos,lastpos_good = 1,ini_pos.x:-1578919.164950,ini_pos.y:5312775.422279,ini_pos.z:3146357.872929
Refix G03: 2, 267536.919591, 1307
Refix G07: 2, 267536.915099, -3652
Refix G08: 2, 267536.924653, -4572
Refix G09: 2, 267536.922853, -4094
Refix G14: 2, 267536.918149, 2492
Refix G16: 2, 267536.931829, 219
