$ini_pos,lastpos_good = 1,ini_pos.x:-1578911.000000,ini_pos.y:5312770.000000,ini_pos.z:3146351.000000
$rtc_local_time,localRTC.weeks:2052,localRTC.seconds:267889.026014,localGtime.weeks:0,localGtime.seconds:1044.010581
$GNGGA,000000.000,,,,,0,00,,,M,,,,0000*2B
$GNRMC,000000.000,A,,,,,,,060180,,*29
$GPGSA,A,1,,,,,,,,,,,,,,,*1E
$BDGSA,A,1,,,,,,,,,,,,,,,*0F
$GLGSA,A,1,,,,,,,,,,,,,,,*02
$B3CN0,0,0,0,0,0,0,0,0,0,0,0,0,0,0*4C
$ini_pos,lastpos_good = 1,ini_pos.x:-1578911.000000,ini_pos.y:5312770.000000,ini_pos.z:3146351.000000
$rtc_local_time,localRTC.weeks:2052,localRTC.seconds:267890.026014,localGtime.weeks:0,localGtime.seconds:2044.010548
$GNGGA,000000.000,,,,,0,00,,,M,,,,0000*2B
$GNRMC,000000.000,A,,,,,,,060180,,*29
$GPGSA,A,1,,,,,,,,,,,,,,,*1E
$BDGSA,A,1,,,,,,,,,,,,,,,*0F
$GLGSA,A,1,,,,,,,,,,,,,,,*02
$B3CN0,0,0,0,0,0,0,0,0,0,0,0,0,0,0*4C
$ini_pos,lastpos_good = 1,ini_pos.x:-1578911.000000,ini_pos.y:5312770.000000,ini_pos.z:3146351.000000
$rtc_local_time,localRTC.weeks:2052,localRTC.seconds:267891.026014,localGtime.weeks:0,localGtime.seconds:3044.010516
i = 0
i = 1
i = 2
i = 3
i = 4
$GNGGA,000000.000,,,,,0,00,,,M,,,,0000*2B
$GNRMC,000000.000,A,,,,,,,060180,,*29
$GPGSA,A,1,,,,,,,,,,,,,,,*1E
$BDGSA,A,1,,,,,,,,,,,,,,,*0F
$GLGSA,A,1,,,,,,,,,,,,,,,*02
$B3CN0,0,0,0,0,0,0,0,0,0,0,0,0,0,0*4C
$ini_pos,lastpos_good = 1,ini_pos.x:-1578911.000000,ini_pos.y:5312770.000000,ini_pos.z:3146351.000000
$rtc_local_time,localRTC.weeks:2052,localRTC.seconds:267892.026014,localGtime.weeks:0,localGtime.seconds:4044.010484
i = 0
i = 1
i = 2
i = 3
i = 4
i = 5
i = 6
i = 7
i = 8
i = 9
i = 10
i = 11
i = 12
i = 13
i = 14
i = 15
i = 16
i = 17
$GNGGA,000000.000,,,,,0,00,,,M,,,,0000*2B
$GNRMC,000000.000,A,,,,,,,060180,,*29
$GPGSA,A,1,,,,,,,,,,,,,,,*1E
$BDGSA,A,1,,,,,,,,,,,,,,,*0F
$GLGSA,A,1,,,,,,,,,,,,,,,*02
$GPGSV,2,1,06,07,00,000,39,08,00,000,39,09,00,000,39,14,00,000,29*7E
$GPGSV,2,2,06,16,00,000,29,23,00,000,18*7B
$B3CN0,0,0,0,0,0,0,0,0,0,0,0,0,0,0*4C
$ini_pos,lastpos_good = 1,ini_pos.x:-1578911.000000,ini_pos.y:5312770.000000,ini_pos.z:3146351.000000
$rtc_local_time,localRTC.weeks:2052,localRTC.seconds:267893.026014,localGtime.weeks:0,localGtime.seconds:5044.010452
i = 0
i = 1
i = 2
i = 3
i = 4
i = 5
i = 6
i = 7
i = 8
i = 9
i = 10
i = 11
i = 12
i = 13
i = 14
i = 15
i = 16
i = 17
i = 18
$GNGGA,000000.000,,,,,0,00,,,M,,,,0000*2B
$GNRMC,000000.000,A,,,,,,,060180,,*29
$GPGSA,A,1,,,,,,,,,,,,,,,*1E
$BDGSA,A,1,,,,,,,,,,,,,,,*0F
$GLGSA,A,1,,,,,,,,,,,,,,,*02
$GPGSV,3,1,09,07,00,000,41,08,00,000,41,09,00,000,42,14,00,000,37*73
$GPGSV,3,2,09,16,00,000,44,23,00,000,45,26,00,000,39,27,00,000,39*77
$GPGSV,3,3,09,31,00,000,32*43
$BDGSV,3,1,09,01,00,000,42,02,00,000,41,03,00,000,45,04,00,000,40*61
$BDGSV,3,2,09,05,00,000,39,06,00,000,29,07,00,000,29,09,00,000,26*63
$BDGSV,3,3,09,10,00,000,26*54
$B3CN0,0,0,0,0,0,0,0,0,0,0,0,0,0,0*4C
$ini_pos,lastpos_good = 1,ini_pos.x:-1578911.000000,ini_pos.y:5312770.000000,ini_pos.z:3146351.000000
$rtc_local_time,localRTC.weeks:2052,localRTC.seconds:267894.026014,localGtime.weeks:0,localGtime.seconds:6044.010419
i = 0
i = 1
i = 2
i = 3
i = 4
i = 5
i = 6
i = 7
i = 8
i = 9
i = 10
i = 11
i = 12
i = 13
i = 14
i = 15
i = 16
i = 17
i = 18
i = 19
i = 20
i = 21
$GNGGA,000000.000,,,,,0,00,,,M,,,,0000*2B
$GNRMC,000000.000,A,,,,,,,060180,,*29
$GPGSA,A,1,,,,,,,,,,,,,,,*1E
$BDGSA,A,1,,,,,,,,,,,,,,,*0F
$GLGSA,A,1,,,,,,,,,,,,,,,*02
$GPGSV,3,1,09,07,00,000,41,08,00,000,41,09,00,000,42,14,00,000,37*73
$GPGSV,3,2,09,16,00,000,44,23,00,000,44,26,00,000,44,27,00,000,44*76
$GPGSV,3,3,09,31,00,000,44*42
$BDGSV,3,1,10,01,00,000,40,02,00,000,41,03,00,000,45,04,00,000,40*6B
$BDGSV,3,2,10,05,00,000,39,06,00,000,42,07,00,000,44,09,00,000,44*69
$BDGSV,3,3,10,10,00,000,44,19,00,000,22*60
$B3CN0,0,0,0,0,0,0,0,0,0,0,0,0,0,0*4C
tow update,267895785.540850
$ini_pos,lastpos_good = 1,ini_pos.x:-1578911.000000,ini_pos.y:5312770.000000,ini_pos.z:3146351.000000
$rtc_local_time,localRTC.weeks:2052,localRTC.seconds:267895.026014,localGtime.weeks:0,localGtime.seconds:267895.785541
i = 0
i = 1
i = 2
i = 3
i = 4
i = 5
i = 6
i = 7
i = 8
i = 9
i = 10
i = 11
i = 12
i = 13
i = 14
i = 15
i = 16
i = 17
i = 18
i = 19
i = 20
i = 21
$GNGGA,022437.654,2944.9097,N,10633.0904,E,1,14,0.8,336.6,M,,,,0000*1D
$GNRMC,022437.654,A,2944.9097,N,10633.0904,E,0.34,0.00,090180,,*1B
$GPGSA,A,3,07,08,09,14,16,23,26,27,31,,,,1.3,0.8,1.1*3E
$BDGSA,A,3,01,02,03,04,05,,,,,,,,1.3,0.8,1.1*28
$GLGSA,A,3,,,,,,,,,,,,,1.3,0.8,1.1*24
$GPGSV,3,1,09,07,00,000,41,08,00,000,42,09,00,000,42,14,00,000,36*71
$GPGSV,3,2,09,16,00,000,45,23,00,000,44,26,00,000,43,27,00,000,45*71
$GPGSV,3,3,09,31,00,000,43*45
$BDGSV,3,1,12,01,00,000,42,02,00,000,41,03,00,000,45,04,00,000,40*6B
$BDGSV,3,2,12,05,00,000,39,06,00,000,41,07,00,000,44,09,00,000,43*6F
$BDGSV,3,3,12,10,00,000,43,19,00,000,40,23,00,000,32,27,00,000,23*65
$B3CN0,0,0,0,0,0,0,0,0,0,0,0,0,0,0*4C
$ini_pos,lastpos_good = 1,ini_pos.x:-1578913.446929,ini_pos.y:5312779.377352,ini_pos.z:3146365.922402
$rtc_local_time,localRTC.weeks:2052,localRTC.seconds:267896.371951,localGtime.weeks:0,localGtime.seconds:267897.000000
i = 0
i = 1
i = 2
i = 3
i = 4
i = 5
i = 6
i = 7
i = 8
i = 9
i = 10
i = 11
i = 12
i = 13
i = 14
i = 15
i = 16
i = 17
i = 18
i = 19
i = 20
i = 21
i = 22
i = 23
i = 24
i = 25
i = 26
i = 27
i = 28
i = 29
Refix G03: 2, 267896.919003, 1339
Refix G07: 2, 267896.915651, -3675
Refix G08: 2, 267896.925399, -4452
Refix G09: 2, 267896.923487, -3949
Refix G14: 2, 267896.917287, 2552
Refix G16: 2, 267896.931477, 363
Refix G22: 2, 267896.916447, 1080
Refix G23: 2, 267896.929952, -2380
Refix G26: 2, 267896.926318, 1281
Refix G27: 2, 267896.931042, -2865
Refix G31: 2, 267896.920586, 966
$GNGGA,022439.000,2944.9077,N,10633.0911,E,1,14,0.7,334.0,M,,,,0000*15
$GNRMC,022439.000,A,2944.9077,N,10633.0911,E,0.24,0.00,090180,,*19
$GPGSA,A,3,07,08,09,14,16,23,26,27,31,,,,1.0,0.7,0.7*35
$BDGSA,A,3,01,02,03,04,05,,,,,,,,1.0,0.7,0.7*23
$GLGSA,A,3,,,,,,,,,,,,,1.0,0.7,0.7*2F
$GPGSV,3,1,09,07,00,000,40,08,00,000,42,09,00,000,42,14,00,000,37*71
$GPGSV,3,2,09,16,00,000,44,23,00,000,44,26,00,000,43,27,00,000,44*71
$GPGSV,3,3,09,31,00,000,43*45
$BDGSV,3,1,12,01,00,000,41,02,00,000,41,03,00,000,43,04,00,000,41*6F
$BDGSV,3,2,12,05,00,000,39,06,00,000,41,07,00,000,43,09,00,000,43*68
$BDGSV,3,3,12,10,00,000,43,19,00,000,39,23,00,000,40,27,00,000,44*6F
$B3CN0,0,0,0,0,0,0,0,0,0,0,0,0,0,0*4C
$ini_pos,lastpos_good = 1,ini_pos.x:-1578914.392267,ini_pos.y:5312778.588972,ini_pos.z:3146361.430772
$rtc_local_time,localRTC.weeks:2052,localRTC.seconds:267897.371951,localGtime.weeks:0,localGtime.seconds:267898.000000
i = 0
i = 1
i = 2
i = 3
i = 4
i = 5
i = 6
i = 7
i = 8
i = 9
i = 10
i = 11
i = 12
i = 13
i = 14
i = 15
i = 16
i = 17
i = 18
i = 19
i = 20
i = 21
i = 22
i = 23
i = 24
i = 25
i = 26
i = 27
i = 28
i = 29
Refix G03: 2, 267897.919002, 1339
Refix G07: 2, 267897.915653, -3676
Refix G08: 2, 267897.925402, -4453
Refix G09: 2, 267897.923489, -3950
Refix G14: 2, 267897.917286, 2552
Refix G16: 2, 267897.931477, 361
Refix G22: 2, 267897.916447, 1079
Refix G23: 2, 267897.929953, -2381
Refix G26: 2, 267897.926317, 1280
Refix G27: 2, 267897.931044, -2865
Refix G31: 2, 267897.920586, 965
$GNGGA,022440.000,2944.9071,N,10633.0909,E,1,22,0.6,329.7,M,,,,0000*1B
$GNRMC,022440.000,A,2944.9071,N,10633.0909,E,0.19,0.00,090180,,*16
$GPGSA,A,3,07,08,09,14,16,23,26,27,31,,,,0.7,0.6,0.4*31
$BDGSA,A,3,01,02,03,04,05,06,07,09,10,19,23,27,0.7,0.6,0.4*22
$GLGSA,A,3,,,,,,,,,,,,,0.7,0.6,0.4*2B
$GPGSV,3,1,11,07,07,300,40,08,34,188,42,09,26,315,42,14,06,148,37*72
$GPGSV,3,2,11,16,61,008,44,23,58,291,45,26,38,040,43,27,60,150,44*7C
$GPGSV,3,3,11,31,21,095,43,03,13,226,00,22,07,208,00*49
$BDGSV,3,1,12,01,40,125,41,02,45,218,41,03,54,172,43,04,23,109,40*6A
$BDGSV,3,2,12,05,27,244,39,06,41,170,41,07,65,008,43,09,67,204,44*67
$BDGSV,3,3,12,10,62,301,43,19,20,295,39,23,20,079,40,27,35,159,44*62
$B3CN0,0,36,0,0,0,0,0,0,0,0,0,0,0,0*79
$ini_pos,lastpos_good = 1,ini_pos.x:-1578913.182478,ini_pos.y:5312775.641242,ini_pos.z:3146358.376298
$rtc_local_time,localRTC.weeks:2052,localRTC.seconds:267898.371951,localGtime.weeks:0,localGtime.seconds:267899.000000
i = 0
i = 1
i = 2
i = 3
i = 4
i = 5
i = 6
i = 7
i = 8
i = 9
i = 10
i = 11
i = 12
i = 13
i = 14
i = 15
i = 16
i = 17
i = 18
i = 19
i = 20
i = 21
i = 22
i = 23
i = 24
i = 25
i = 26
i = 27
i = 28
i = 29
i = 30
i = 31
Refix G03: 2, 267898.919001, 1338
Refix G07: 2, 267898.915656, -3676
Refix G08: 2, 267898.925405, -4453
Refix G09: 2, 267898.923492, -3950
Refix G14: 2, 267898.917284, 2551
Refix G16: 2, 267898.931477, 360
Refix G22: 2, 267898.916446, 1079
Refix G23: 2, 267898.929954, -2382
Refix G26: 2, 267898.926316, 1279
Refix G27: 2, 267898.931045, -2866
Refix G31: 2, 267898.920585, 964
$GNGGA,022441.000,2944.9071,N,10633.0909,E,1,22,0.6,328.5,M,,,,0000*19
$GNRMC,022441.000,A,2944.9071,N,10633.0909,E,0.02,0.00,090180,,*1D
$GPGSA,A,3,07,08,09,14,16,23,26,27,31,,,,0.7,0.6,0.4*31
$BDGSA,A,3,01,02,03,04,05,06,07,09,10,19,23,27,0.7,0.6,0.4*22
$GLGSA,A,3,,,,,,,,,,,,,0.7,0.6,0.4*2B
$GPGSV,3,1,11,07,07,300,40,08,34,188,42,09,26,315,42,14,06,148,38*7D
$GPGSV,3,2,11,16,61,008,44,23,58,291,44,26,38,040,43,27,60,150,44*7D
$GPGSV,3,3,11,31,21,095,43,03,13,226,00,22,07,208,00*49
$BDGSV,3,1,12,01,40,125,40,02,45,218,41,03,54,172,43,04,23,109,40*6B
$BDGSV,3,2,12,05,27,244,38,06,41,170,41,07,65,008,43,09,67,204,44*66
$BDGSV,3,3,12,10,62,301,43,19,20,295,38,23,20,079,39,27,35,159,44*6D
$B3CN0,18,0,0,0,0,0,0,0,0,0,0,0,0,0*75
$ini_pos,lastpos_good = 1,ini_pos.x:-1578912.838604,ini_pos.y:5312774.720240,ini_pos.z:3146357.745579
$rtc_local_time,localRTC.weeks:2052,localRTC.seconds:267899.371951,localGtime.weeks:0,localGtime.seconds:267900.000000
i = 0
i = 1
i = 2
i = 3
i = 4
i = 5
i = 6
i = 7
i = 8
i = 9
i = 10
i = 11
i = 12
i = 13
i = 14
i = 15
i = 16
i = 17
i = 18
i = 19
i = 20
i = 21
i = 22
i = 23
i = 24
i = 25
i = 26
i = 27
i = 28
i = 29
i = 30
i = 31
Refix G03: 2, 267899.919000, 1348
Refix G07: 2, 267899.915658, -3668
Refix G08: 2, 267899.925407, -4442
Refix G09: 2, 267899.923494, -3941
Refix G14: 2, 267899.917282, 2561
Refix G16: 2, 267899.931477, 372
Refix G22: 2, 267899.916445, 1088
Refix G23: 2, 267899.929956, -2370
Refix G26: 2, 267899.926315, 1289
Refix G27: 2, 267899.931047, -2854
Refix G31: 2, 267899.920584, 975
$GNGGA,022442.000,2944.9071,N,10633.0909,E,1,22,0.6,328.0,M,,,,0000*1F
$GNRMC,022442.000,A,2944.9071,N,10633.0909,E,0.41,0.00,090180,,*19
$GPGSA,A,3,07,08,09,14,16,23,26,27,31,,,,0.7,0.6,0.4*31
$BDGSA,A,3,01,02,03,04,05,06,07,09,10,19,23,27,0.7,0.6,0.4*22
$GLGSA,A,3,,,,,,,,,,,,,0.7,0.6,0.4*2B
$GPGSV,3,1,12,07,07,300,40,08,34,188,42,09,26,315,41,14,06,148,38*7D
$GPGSV,3,2,12,16,61,008,44,23,58,291,45,26,38,040,43,27,60,150,44*7F
$GPGSV,3,3,12,31,21,095,43,04,00,000,35,03,13,226,00,22,07,208,00*78
$BDGSV,3,1,12,01,40,125,41,02,45,218,41,03,54,172,43,04,23,109,40*6A
$BDGSV,3,2,12,05,27,244,38,06,41,170,41,07,65,008,43,09,67,204,44*66
$BDGSV,3,3,12,10,62,301,43,19,20,295,39,23,20,079,39,27,35,159,44*6C
$B3CN0,16,0,19,0,0,0,0,0,0,0,0,0,0,0*43
$ini_pos,lastpos_good = 1,ini_pos.x:-1578912.659297,ini_pos.y:5312774.316074,ini_pos.z:3146357.483476
$rtc_local_time,localRTC.weeks:2052,localRTC.seconds:267900.371951,localGtime.weeks:0,localGtime.seconds:267901.000000
i = 0
i = 1
i = 2
i = 3
i = 4
i = 5
i = 6
i = 7
i = 8
i = 9
i = 10
i = 11
i = 12
i = 13
i = 14
i = 15
i = 16
i = 17
i = 18
i = 19
i = 20
i = 21
i = 22
i = 23
i = 24
i = 25
i = 26
i = 27
i = 28
i = 29
i = 30
i = 31
i = 32
Refix G03: 2, 267900.918999, 1345
Refix G07: 2, 267900.915660, -3670
Refix G08: 2, 267900.925410, -4445
Refix G09: 2, 267900.923497, -3943
Refix G14: 2, 267900.917281, 2559
Refix G16: 2, 267900.931476, 369
Refix G22: 2, 267900.916444, 1085
Refix G23: 2, 267900.929957, -2373
Refix G26: 2, 267900.926314, 1287
Refix G27: 2, 267900.931049, -2857
Refix G31: 2, 267900.920584, 972
$GNGGA,022443.000,2944.9071,N,10633.0908,E,1,22,0.6,327.3,M,,,,0000*13
$GNRMC,022443.000,A,2944.9071,N,10633.0908,E,0.26,0.00,090180,,*18
$GPGSA,A,3,07,08,09,14,16,23,26,27,31,,,,0.7,0.6,0.4*31
$BDGSA,A,3,01,02,03,04,05,06,07,09,10,19,23,27,0.7,0.6,0.4*22
$GLGSA,A,3,,,,,,,,,,,,,0.7,0.6,0.4*2B
$GPGSV,3,1,12,07,07,300,40,08,34,188,42,09,26,315,41,14,06,148,38*7D
$GPGSV,3,2,12,16,61,008,44,23,58,291,45,26,38,040,43,27,60,150,44*7F
$GPGSV,3,3,12,31,21,095,43,04,00,000,35,03,13,226,00,22,07,208,00*78
$BDGSV,3,1,12,01,40,125,40,02,45,218,40,03,54,172,45,04,23,109,41*6D
$BDGSV,3,2,12,05,27,244,38,06,41,170,41,07,65,008,43,09,67,204,43*61
$BDGSV,3,3,12,10,62,301,43,19,20,295,39,23,20,079,39,27,35,159,43*6B
$B3CN0,18,0,21,0,0,0,0,0,0,0,0,0,0,0*46
$ini_pos,lastpos_good = 1,ini_pos.x:-1578912.359574,ini_pos.y:5312773.695101,ini_pos.z:3146357.163006
$rtc_local_time,localRTC.weeks:2052,localRTC.seconds:267901.371951,localGtime.weeks:0,localGtime.seconds:267902.000000
i = 0
i = 1
i = 2
i = 3
i = 4
i = 5
i = 6
i = 7
i = 8
i = 9
i = 10
i = 11
i = 12
i = 13
i = 14
i = 15
i = 16
i = 17
i = 18
i = 19
i = 20
i = 21
i = 22
i = 23
i = 24
i = 25
i = 26
i = 27
i = 28
i = 29
i = 30
i = 31
i = 32
i = 33
Refix G03: 2, 267901.918998, 1341
Refix G07: 2, 267901.915662, -3674
Refix G08: 2, 267901.925413, -4450
Refix G09: 2, 267901.923499, -3947
Refix G14: 2, 267901.917279, 2554
Refix G16: 2, 267901.931476, 363
Refix G22: 2, 267901.916444, 1081
Refix G23: 2, 267901.929959, -2378
Refix G26: 2, 267901.926313, 1281
Refix G27: 2, 267901.931051, -2863
Refix G31: 2, 267901.920583, 967
$GNGGA,022444.000,2944.9071,N,10633.0908,E,1,22,0.6,327.1,M,,,,0000*16
$GNRMC,022444.000,A,2944.9071,N,10633.0908,E,0.04,0.00,090180,,*1F
$GPGSA,A,3,07,08,09,14,16,23,26,27,31,,,,0.7,0.6,0.4*31
$BDGSA,A,3,01,02,03,04,05,06,07,09,10,19,23,27,0.7,0.6,0.4*22
$GLGSA,A,3,,,,,,,,,,,,,0.7,0.6,0.4*2B
$GPGSV,3,1,12,07,07,300,40,08,34,188,42,09,26,315,42,14,06,148,37*71
$GPGSV,3,2,12,16,61,008,44,23,58,291,45,26,38,040,43,27,60,150,44*7F
$GPGSV,3,3,12,31,21,095,43,04,00,000,36,03,13,226,00,22,07,208,00*7B
$BDGSV,3,1,12,01,40,125,40,02,45,218,40,03,54,172,43,04,23,109,40*6A
$BDGSV,3,2,12,05,27,244,37,06,41,170,41,07,65,008,43,09,67,204,44*69
$BDGSV,3,3,12,10,62,301,44,19,20,295,38,23,20,079,39,27,35,159,43*6D
$B3CN0,0,0,23,0,0,0,25,0,0,0,0,0,0,0*4A
$ini_pos,lastpos_good = 1,ini_pos.x:-1578912.326209,ini_pos.y:5312773.569849,ini_pos.z:3146357.008364
$rtc_local_time,localRTC.weeks:2052,localRTC.seconds:267902.371950,localGtime.weeks:0,localGtime.seconds:267903.000000
i = 0
i = 1
i = 2
i = 3
i = 4
i = 5
i = 6
i = 7
i = 8
i = 9
i = 10
i = 11
i = 12
i = 13
i = 14
i = 15
i = 16
i = 17
i = 18
i = 19
i = 20
i = 21
i = 22
i = 23
i = 24
i = 25
i = 26
i = 27
i = 28
i = 29
i = 30
i = 31
i = 32
i = 33
i = 34
Refix G03: 2, 267902.918998, 1338
Refix G07: 2, 267902.915665, -3677
Refix G08: 2, 267902.925416, -4453
Refix G09: 2, 267902.923502, -3949
Refix G14: 2, 267902.917277, 2551
Refix G16: 2, 267902.931476, 361
Refix G22: 2, 267902.916443, 1078
Refix G23: 2, 267902.929960, -2380
Refix G26: 2, 267902.926313, 1279
Refix G27: 2, 267902.931052, -2865
Refix G31: 2, 267902.920582, 964
$GNGGA,022445.000,2944.9071,N,10633.0910,E,1,22,0.6,326.9,M,,,,0000*17
$GNRMC,022445.000,A,2944.9071,N,10633.0910,E,0.09,0.00,090180,,*1A
$GPGSA,A,3,07,08,09,14,16,23,26,27,31,,,,0.7,0.6,0.4*31
$BDGSA,A,3,01,02,03,04,05,06,07,09,10,19,23,27,0.7,0.6,0.4*22
$GLGSA,A,3,,,,,,,,,,,,,0.7,0.6,0.4*2B
$GPGSV,3,1,12,07,07,300,40,08,34,188,42,09,26,315,42,14,06,148,38*7E
$GPGSV,3,2,12,16,61,008,44,23,58,291,45,26,38,040,43,27,60,150,45*7E
$GPGSV,3,3,12,31,21,095,43,04,00,000,36,03,13,226,00,22,07,208,00*7B
$BDGSV,3,1,12,01,40,125,41,02,45,218,41,03,54,172,43,04,23,109,41*6B
$BDGSV,3,2,12,05,27,244,38,06,41,170,41,07,65,008,43,09,67,204,44*66
$BDGSV,3,3,12,10,62,301,43,32,11,188,27,19,20,295,39,23,20,079,40*69
$B3CN0,0,17,19,0,0,0,28,0,0,0,0,0,0,0*78
$ini_pos,lastpos_good = 1,ini_pos.x:-1578912.555093,ini_pos.y:5312773.369159,ini_pos.z:3146356.916047
$rtc_local_time,localRTC.weeks:2052,localRTC.seconds:267903.371950,localGtime.weeks:0,localGtime.seconds:267904.000000
i = 0
i = 1
i = 2
i = 3
i = 4
i = 5
i = 6
i = 7
i = 8
i = 9
i = 10
i = 11
i = 12
i = 13
i = 14
i = 15
i = 16
i = 17
i = 18
i = 19
i = 20
i = 21
i = 22
i = 23
i = 24
i = 25
i = 26
i = 27
i = 28
i = 29
i = 30
i = 31
i = 32
i = 33
Refix G03: 2, 267903.918997, 1353
Refix G07: 2, 267903.915667, -3663
Refix G08: 2, 267903.925419, -4436
Refix G09: 2, 267903.923504, -3933
Refix G14: 2, 267903.917276, 2567
Refix G16: 2, 267903.931476, 379
Refix G22: 2, 267903.916442, 1093
Refix G23: 2, 267903.929962, -2361
Refix G26: 2, 267903.926312, 1296
Refix G27: 2, 267903.931054, -2846
Refix G31: 2, 267903.920582, 981
$GNGGA,022446.000,2944.9071,N,10633.0911,E,1,22,0.6,326.3,M,,,,0000*1F
$GNRMC,022446.000,A,2944.9071,N,10633.0911,E,0.17,0.00,090180,,*17
$GPGSA,A,3,07,08,09,14,16,23,26,27,31,,,,0.7,0.6,0.4*31
$BDGSA,A,3,01,02,03,04,05,06,07,09,10,19,23,27,0.7,0.6,0.4*22
$GLGSA,A,3,,,,,,,,,,,,,0.7,0.6,0.4*2B
$GPGSV,3,1,12,07,07,300,40,08,34,188,42,09,26,315,42,14,06,148,37*71
$GPGSV,3,2,12,16,61,008,44,23,58,291,46,26,38,040,43,27,60,150,45*7D
$GPGSV,3,3,12,31,21,095,44,04,00,000,35,03,13,226,00,22,07,208,00*7F
$BDGSV,3,1,12,01,40,125,41,02,45,218,39,03,54,172,43,04,23,109,41*64
$BDGSV,3,2,12,05,27,244,37,06,41,170,41,07,65,008,44,09,67,204,44*6E
$BDGSV,3,3,12,10,62,301,43,32,11,188,37,19,20,295,39,23,20,079,39*66
$B3CN0,0,0,0,0,0,0,28,0,0,0,0,0,0,0*76
$ini_pos,lastpos_good = 1,ini_pos.x:-1578912.509047,ini_pos.y:5312772.781635,ini_pos.z:3146356.732276
$rtc_local_time,localRTC.weeks:2052,localRTC.seconds:267904.371950,localGtime.weeks:0,localGtime.seconds:267905.000000
i = 0
i = 1
i = 2
i = 3
i = 4
i = 5
i = 6
i = 7
i = 8
i = 9
i = 10
i = 11
i = 12
i = 13
i = 14
i = 15
i = 16
i = 17
i = 18
i = 19
i = 20
i = 21
i = 22
i = 23
i = 24
i = 25
i = 26
i = 27
i = 28
i = 29
i = 30
i = 31
i = 32
i = 33
i = 34
Refix G03: 2, 267904.918996, 1344
Refix G07: 2, 267904.915669, -3671
Refix G08: 2, 267904.925421, -4446
Refix G09: 2, 267904.923507, -3942
Refix G14: 2, 267904.917274, 2557
Refix G16: 2, 267904.931475, 368
Refix G22: 2, 267904.916442, 1083
Refix G23: 2, 267904.929963, -2373
Refix G26: 2, 267904.926311, 1285
Refix G27: 2, 267904.931056, -2857
Refix G31: 2, 267904.920581, 971
$GNGGA,022447.000,2944.9071,N,10633.0910,E,1,22,0.6,325.5,M,,,,0000*1A
$GNRMC,022447.000,A,2944.9071,N,10633.0910,E,0.13,0.00,090180,,*13
$GPGSA,A,3,07,08,09,14,16,23,26,27,31,,,,0.7,0.6,0.4*31
$BDGSA,A,3,01,02,03,04,05,06,07,09,10,19,23,27,0.7,0.6,0.4*22
$GLGSA,A,3,,,,,,,,,,,,,0.7,0.6,0.4*2B
$GPGSV,3,1,12,07,07,300,40,08,34,188,42,09,26,315,43,14,06,148,37*70
$GPGSV,3,2,12,16,61,008,45,23,58,291,45,26,38,040,43,27,60,150,44*7E
$GPGSV,3,3,12,31,21,095,43,04,00,000,35,03,13,226,00,22,07,208,00*78
$BDGSV,3,1,12,01,40,125,41,02,45,218,41,03,54,172,43,04,23,109,40*6A
$BDGSV,3,2,12,05,27,244,37,06,41,170,41,07,65,008,43,09,67,204,44*69
$BDGSV,3,3,12,10,62,301,43,32,11,188,38,19,20,295,39,23,20,079,39*69
$B3CN0,0,17,22,0,0,0,28,0,0,0,0,0,0,0*70
$ini_pos,lastpos_good = 1,ini_pos.x:-1578912.228878,ini_pos.y:5312772.078410,ini_pos.z:3146356.341563
$rtc_local_time,localRTC.weeks:2052,localRTC.seconds:267905.371950,localGtime.weeks:0,localGtime.seconds:267906.000000
i = 0
i = 1
i = 2
i = 3
i = 4
i = 5
i = 6
i = 7
i = 8
i = 9
i = 10
i = 11
i = 12
i = 13
i = 14
i = 15
i = 16
i = 17
i = 18
i = 19
i = 20
i = 21
i = 22
i = 23
i = 24
i = 25
i = 26
i = 27
i = 28
i = 29
i = 30
i = 31
i = 32
i = 33
Refix G03: 2, 267905.918995, 1354
Refix G07: 2, 267905.915672, -3662
Refix G08: 2, 267905.925424, -4434
Refix G09: 2, 267905.923509, -3931
Refix G14: 2, 267905.917272, 2567
Refix G16: 2, 267905.931475, 381
Refix G22: 2, 267905.916441, 1093
Refix G23: 2, 267905.929965, -2359
Refix G26: 2, 267905.926310, 1297
Refix G27: 2, 267905.931058, -2844
Refix G31: 2, 267905.920581, 981
$GNGGA,022448.000,2944.9072,N,10633.0911,E,1,22,0.6,325.4,M,,,,0000*16
$GNRMC,022448.000,A,2944.9072,N,10633.0911,E,0.02,0.00,090180,,*1E
$GPGSA,A,3,07,08,09,14,16,23,26,27,31,,,,0.7,0.6,0.4*31
$BDGSA,A,3,01,02,03,04,05,06,07,09,10,19,23,27,0.7,0.6,0.4*22
$GLGSA,A,3,,,,,,,,,,,,,0.7,0.6,0.4*2B
$GPGSV,3,1,12,07,07,300,40,08,34,188,42,09,26,315,43,14,06,148,37*70
$GPGSV,3,2,12,16,61,008,44,23,58,291,45,26,38,040,43,27,60,150,44*7F
$GPGSV,3,3,12,31,21,095,44,04,00,000,37,03,13,226,00,22,07,208,00*7D
$BDGSV,3,1,12,01,40,125,41,02,45,218,41,03,54,172,43,04,23,109,40*6A
$BDGSV,3,2,12,05,27,244,39,06,41,170,41,07,65,008,44,09,67,204,44*60
$BDGSV,3,3,12,10,62,301,43,32,11,188,38,19,20,295,39,23,20,079,39*69
$B3CN0,0,0,0,0,0,0,28,0,0,0,0,0,0,0*76
$ini_pos,lastpos_good = 1,ini_pos.x:-1578912.281280,ini_pos.y:5312771.859601,ini_pos.z:3146356.397563
$rtc_local_time,localRTC.weeks:2052,localRTC.seconds:267906.371950,localGtime.weeks:2052,localGtime.seconds:267907.000000
i = 0
i = 1
i = 2
i = 3
i = 4
i = 5
i = 6
i = 7
i = 8
i = 9
i = 10
i = 11
i = 12
i = 13
i = 14
i = 15
i = 16
i = 17
i = 18
i = 19
i = 20
i = 21
i = 22
i = 23
i = 24
i = 25
i = 26
i = 27
i = 28
i = 29
i = 30
i = 31
i = 32
i = 33
i = 34
Refix G03: 2, 267906.918994, 1342
Refix G07: 2, 267906.915674, -3673
Refix G08: 2, 267906.925427, -4448
Refix G09: 2, 267906.923512, -3943
Refix G14: 2, 267906.917271, 2555
Refix G16: 2, 267906.931475, 367
Refix G22: 2, 267906.916440, 1081
Refix G23: 2, 267906.929966, -2373
Refix G26: 2, 267906.926309, 1284
Refix G27: 2, 267906.931060, -2858
Refix G31: 2, 267906.920580, 969
$GNGGA,022449.000,2944.9072,N,10633.0911,E,1,22,0.6,324.6,M,,,,0000*14
$GNRMC,022449.000,A,2944.9072,N,10633.0911,E,0.26,0.00,080519,,*1C
$GPGSA,A,3,07,08,09,14,16,23,26,27,31,,,,0.7,0.6,0.4*31
$BDGSA,A,3,01,02,03,04,05,06,07,09,10,19,23,27,0.7,0.6,0.4*22
$GLGSA,A,3,,,,,,,,,,,,,0.7,0.6,0.4*2B
$GPGSV,3,1,12,07,07,300,39,08,34,188,42,09,26,315,43,14,06,148,38*71
$GPGSV,3,2,12,16,61,008,45,23,58,291,45,26,38,040,43,27,60,150,44*7E
$GPGSV,3,3,12,31,21,095,44,04,00,000,37,03,13,226,00,22,07,208,00*7D
$BDGSV,3,1,12,01,40,125,41,02,45,218,41,03,54,172,43,04,23,109,39*64
$BDGSV,3,2,12,05,27,244,39,06,41,170,41,07,65,008,44,09,67,204,44*60
$BDGSV,3,3,12,10,62,301,43,32,11,188,37,19,20,295,39,23,20,079,40*68
$B3CN0,0,0,22,0,0,0,27,0,0,0,0,0,0,0*49
$ini_pos,lastpos_good = 1,ini_pos.x:-1578912.053538,ini_pos.y:5312771.252177,ini_pos.z:3146356.067419
$rtc_local_time,localRTC.weeks:2052,localRTC.seconds:267907.371950,localGtime.weeks:2052,localGtime.seconds:267908.000000
i = 0
i = 1
i = 2
i = 3
i = 4
i = 5
i = 6
i = 7
i = 8
i = 9
i = 10
i = 11
i = 12
i = 13
i = 14
i = 15
i = 16
i = 17
i = 18
i = 19
i = 20
i = 21
i = 22
i = 23
i = 24
i = 25
i = 26
i = 27
i = 28
i = 29
i = 30
i = 31
i = 32
i = 33
i = 34
Refix G03: 2, 267907.918993, 1345
Refix G07: 2, 267907.915676, -3671
Refix G08: 2, 267907.925430, -4443
Refix G09: 2, 267907.923514, -3940
Refix G14: 2, 267907.917269, 2559
Refix G16: 2, 267907.931475, 371
Refix G22: 2, 267907.916439, 1084
Refix G23: 2, 267907.929968, -2369
Refix G26: 2, 267907.926308, 1287
Refix G27: 2, 267907.931061, -2853
Refix G31: 2, 267907.920579, 973
$GNGGA,022450.000,2944.9072,N,10633.0910,E,1,22,0.6,324.3,M,,,,0000*18
$GNRMC,022450.000,A,2944.9072,N,10633.0910,E,0.23,0.00,080519,,*10
$GPGSA,A,3,07,08,09,14,16,23,26,27,31,,,,0.7,0.6,0.4*31
$BDGSA,A,3,01,02,03,04,05,06,07,09,10,19,23,27,0.7,0.6,0.4*22
$GLGSA,A,3,,,,,,,,,,,,,0.7,0.6,0.4*2B
$GPGSV,3,1,12,07,07,300,39,08,34,188,42,09,26,315,43,14,06,148,37*7E
$GPGSV,3,2,12,16,61,008,44,23,58,291,45,26,38,040,43,27,60,150,45*7E
$GPGSV,3,3,12,31,21,095,44,04,00,000,37,03,13,226,00,22,07,208,00*7D
$BDGSV,3,1,12,01,40,125,40,02,45,218,40,03,54,172,43,04,23,109,40*6A
$BDGSV,3,2,12,05,27,244,38,06,41,170,41,07,65,008,44,09,67,204,44*61
$BDGSV,3,3,12,10,62,301,43,32,11,188,37,19,20,295,39,23,20,079,39*66
$B3CN0,0,0,0,0,0,0,27,0,0,0,0,0,0,0*79
$ini_pos,lastpos_good = 1,ini_pos.x:-1578911.876887,ini_pos.y:5312771.056474,ini_pos.z:3146355.913594
$rtc_local_time,localRTC.weeks:2052,localRTC.seconds:267908.371950,localGtime.weeks:2052,localGtime.seconds:267909.000000
i = 0
i = 1
i = 2
i = 3
i = 4
i = 5
i = 6
i = 7
i = 8
i = 9
i = 10
i = 11
i = 12
i = 13
i = 14
i = 15
i = 16
i = 17
i = 18
i = 19
i = 20
i = 21
i = 22
i = 23
i = 24
i = 25
i = 26
i = 27
i = 28
i = 29
i = 30
i = 31
i = 32
i = 33
Refix G03: 2, 267908.918992, 1343
Refix G07: 2, 267908.915679, -3673
Refix G08: 2, 267908.925432, -4445
Refix G09: 2, 267908.923516, -3942
Refix G14: 2, 267908.917267, 2557
Refix G16: 2, 267908.931474, 370
Refix G22: 2, 267908.916439, 1081
Refix G23: 2, 267908.929969, -2370
Refix G26: 2, 267908.926307, 1286
Refix G27: 2, 267908.931063, -2854
Refix G31: 2, 267908.920579, 971
$GNGGA,022451.000,2944.9073,N,10633.0910,E,1,22,0.6,324.2,M,,,,0000*19
$GNRMC,022451.000,A,2944.9073,N,10633.0910,E,0.30,0.00,080519,,*12
$GPGSA,A,3,07,08,09,14,16,23,26,27,31,,,,0.7,0.6,0.4*31
$BDGSA,A,3,01,02,03,04,05,06,07,09,10,19,23,27,0.7,0.6,0.4*22
$GLGSA,A,3,,,,,,,,,,,,,0.7,0.6,0.4*2B
$GPGSV,3,1,12,07,07,300,39,08,34,188,43,09,26,315,42,14,06,148,38*71
$GPGSV,3,2,12,16,61,008,44,23,58,291,45,26,38,040,43,27,60,150,44*7F
$GPGSV,3,3,12,31,21,095,43,04,00,000,36,03,13,226,00,22,07,208,00*7B
$BDGSV,3,1,12,01,40,125,41,02,45,218,40,03,54,172,43,04,23,109,39*65
$BDGSV,3,2,12,05,27,244,39,06,41,170,41,07,65,008,43,09,67,204,43*60
$BDGSV,3,3,12,10,62,301,43,32,11,188,37,19,20,295,39,23,20,079,39*66
$B3CN0,0,0,17,0,0,0,27,0,0,0,0,0,0,0*4F
$ini_pos,lastpos_good = 1,ini_pos.x:-1578911.791332,ini_pos.y:5312770.882501,ini_pos.z:3146355.990980
$rtc_local_time,localRTC.weeks:2052,localRTC.seconds:267909.371950,localGtime.weeks:2052,localGtime.seconds:267909.999999
i = 0
i = 1
i = 2
i = 3
i = 4
i = 5
i = 6
i = 7
i = 8
i = 9
i = 10
i = 11
i = 12
i = 13
i = 14
i = 15
i = 16
i = 17
i = 18
i = 19
i = 20
i = 21
i = 22
i = 23
i = 24
i = 25
i = 26
i = 27
i = 28
i = 29
i = 30
i = 31
i = 32
i = 33
Refix G03: 2, 267909.918991, 1354
Refix G07: 2, 267909.915681, -3663
Refix G08: 2, 267909.925435, -4433
Refix G09: 2, 267909.923519, -3930
Refix G14: 2, 267909.917266, 2568
Refix G16: 2, 267909.931474, 382
Refix G22: 2, 267909.916438, 1093
Refix G23: 2, 267909.929971, -2357
Refix G26: 2, 267909.926307, 1297
Refix G27: 2, 267909.931065, -2841
Refix G31: 2, 267909.920578, 982
$GNGGA,022452.000,2944.9074,N,10633.0909,E,1,23,0.6,324.2,M,,,,0000*14
$GNRMC,022452.000,A,2944.9074,N,10633.0909,E,0.26,0.00,080519,,*19
$GPGSA,A,3,07,08,09,14,16,23,26,27,31,,,,0.7,0.6,0.4*31
$BDGSA,A,3,01,02,03,04,05,06,07,09,10,19,23,27,0.7,0.6,0.4*22
$GLGSA,A,3,,,,,,,,,,,,,0.7,0.6,0.4*2B
$GPGSV,3,1,12,07,07,300,39,08,34,188,42,09,26,315,42,14,06,148,38*70
$GPGSV,3,2,12,16,61,008,44,23,58,291,44,26,38,040,43,27,60,150,44*7E
$GPGSV,3,3,12,31,21,095,43,04,00,000,35,03,13,226,00,22,07,208,00*78
$BDGSV,3,1,12,01,40,125,41,02,45,218,40,03,54,172,43,04,23,109,41*6A
$BDGSV,3,2,12,05,27,244,37,06,41,170,41,07,65,008,43,09,67,204,44*69
$BDGSV,3,3,12,10,62,301,43,32,11,188,37,19,20,295,39,23,20,079,38*67
$B3CN0,0,0,0,0,0,0,27,0,0,0,0,0,0,0*79
$ini_pos,lastpos_good = 1,ini_pos.x:-1578911.672258,ini_pos.y:5312770.820255,ini_pos.z:3146356.044665
$rtc_local_time,localRTC.weeks:2052,localRTC.seconds:267910.371950,localGtime.weeks:2052,localGtime.seconds:267910.999999
i = 0
i = 1
i = 2
i = 3
i = 4
i = 5
i = 6
i = 7
i = 8
i = 9
i = 10
i = 11
i = 12
i = 13
i = 14
i = 15
i = 16
i = 17
i = 18
i = 19
i = 20
i = 21
i = 22
i = 23
i = 24
i = 25
i = 26
i = 27
i = 28
i = 29
i = 30
i = 31
i = 32
i = 33
Refix G03: 2, 267910.918990, 1348
Refix G07: 2, 267910.915683, -3669
Refix G08: 2, 267910.925438, -4440
Refix G09: 2, 267910.923521, -3936
Refix G14: 2, 267910.917264, 2562
Refix G16: 2, 267910.931474, 375
Refix G22: 2, 267910.916437, 1086
Refix G23: 2, 267910.929972, -2364
Refix G26: 2, 267910.926306, 1291
Refix G27: 2, 267910.931067, -2848
Refix G31: 2, 267910.920577, 976
$GNGGA,022453.000,2944.9074,N,10633.0908,E,1,23,0.6,323.5,M,,,,0000*14
$GNRMC,022453.000,A,2944.9074,N,10633.0908,E,0.23,0.00,080519,,*1C
$GPGSA,A,3,07,08,09,14,16,23,26,27,31,,,,0.7,0.6,0.4*31
$BDGSA,A,3,01,02,03,04,05,06,07,09,10,19,23,27,0.7,0.6,0.4*22
$GLGSA,A,3,,,,,,,,,,,,,0.7,0.6,0.4*2B
$GPGSV,3,1,12,07,07,300,40,08,34,188,42,09,26,315,43,14,06,148,37*70
$GPGSV,3,2,12,16,61,008,44,23,58,291,44,26,38,040,43,27,60,150,45*7F
$GPGSV,3,3,12,31,21,095,44,04,00,000,36,03,13,226,00,22,07,208,00*7C
$BDGSV,3,1,12,01,40,125,41,02,45,218,41,03,54,172,42,04,23,109,40*6B
$BDGSV,3,2,12,05,27,244,37,06,41,170,41,07,65,008,43,09,67,204,44*69
$BDGSV,3,3,12,10,62,301,44,32,11,188,37,19,20,295,39,23,20,079,39*61
$B3CN0,0,0,0,0,0,0,23,0,0,0,0,0,0,0*7D
$ini_pos,lastpos_good = 1,ini_pos.x:-1578911.300099,ini_pos.y:5312770.329590,ini_pos.z:3146355.775403
$rtc_local_time,localRTC.weeks:2052,localRTC.seconds:267911.371950,localGtime.weeks:2052,localGtime.seconds:267911.999999
i = 0
i = 1
i = 2
i = 3
i = 4
i = 5
i = 6
i = 7
i = 8
i = 9
i = 10
i = 11
i = 12
i = 13
i = 14
i = 15
i = 16
i = 17
i = 18
i = 19
i = 20
i = 21
i = 22
i = 23
i = 24
i = 25
i = 26
i = 27
i = 28
i = 29
i = 30
i = 31
i = 32
Refix G03: 2, 267911.918990, 1349
Refix G07: 2, 267911.915685, -3667
Refix G08: 2, 267911.925441, -4438
Refix G09: 2, 267911.923524, -3934
Refix G14: 2, 267911.917262, 2564
Refix G16: 2, 267911.931473, 377
Refix G22: 2, 267911.916437, 1087
Refix G23: 2, 267911.929974, -2362
Refix G26: 2, 267911.926305, 1293
Refix G27: 2, 267911.931068, -2846
Refix G31: 2, 267911.920577, 978
$GNGGA,022454.000,2944.9074,N,10633.0908,E,1,23,0.6,323.5,M,,,,0000*13
$GNRMC,022454.000,A,2944.9074,N,10633.0908,E,0.35,0.00,080519,,*1C
$GPGSA,A,3,07,08,09,14,16,23,26,27,31,,,,0.7,0.6,0.4*31
$BDGSA,A,3,01,02,03,04,05,06,07,09,10,19,23,27,0.7,0.6,0.4*22
$GLGSA,A,3,,,,,,,,,,,,,0.7,0.6,0.4*2B
$GPGSV,3,1,12,07,07,300,40,08,34,188,43,09,26,315,42,14,06,148,38*7F
$GPGSV,3,2,12,16,61,008,44,23,58,291,45,26,38,040,43,27,60,150,44*7F
$GPGSV,3,3,12,31,21,095,43,04,00,000,36,03,13,226,00,22,07,208,00*7B
$BDGSV,3,1,12,01,40,125,41,02,45,218,40,03,54,172,45,04,23,109,40*6D
$BDGSV,3,2,12,05,27,244,38,06,41,170,41,07,65,008,43,09,67,204,44*66
$BDGSV,3,3,12,10,62,301,43,32,11,188,37,19,20,295,39,23,20,079,39*66
$B3CN0,0,0,0,0,0,0,0,0,0,0,0,0,0,0*4C
$ini_pos,lastpos_good = 1,ini_pos.x:-1578911.252128,ini_pos.y:5312770.251628,ini_pos.z:3146355.803186
$rtc_local_time,localRTC.weeks:2052,localRTC.seconds:267912.371950,localGtime.weeks:2052,localGtime.seconds:267912.999999
i = 0
i = 1
i = 2
i = 3
i = 4
i = 5
i = 6
i = 7
i = 8
i = 9
i = 10
i = 11
i = 12
i = 13
i = 14
i = 15
i = 16
i = 17
i = 18
i = 19
i = 20
i = 21
i = 22
i = 23
i = 24
i = 25
i = 26
i = 27
i = 28
i = 29
i = 30
i = 31
i = 32
Refix G03: 2, 267912.918989, 1341
Refix G07: 2, 267912.915688, -3675
Refix G08: 2, 267912.925444, -4447
Refix G09: 2, 267912.923526, -3942
Refix G14: 2, 267912.917261, 2555
Refix G16: 2, 267912.931473, 368
Refix G22: 2, 267912.916436, 1079
Refix G23: 2, 267912.929975, -2370
Refix G26: 2, 267912.926304, 1284
Refix G27: 2, 267912.931070, -2855
Refix G31: 2, 267912.920576, 970
$GNGGA,022455.000,2944.9074,N,10633.0907,E,1,23,0.6,323.0,M,,,,0000*18
$GNRMC,022455.000,A,2944.9074,N,10633.0907,E,0.39,0.00,080519,,*1E
$GPGSA,A,3,07,08,09,14,16,23,26,27,31,,,,0.7,0.6,0.4*31
$BDGSA,A,3,01,02,03,04,05,06,07,09,10,19,23,27,0.7,0.6,0.4*22
$GLGSA,A,3,,,,,,,,,,,,,0.7,0.6,0.4*2B
$GPGSV,3,1,12,07,07,300,39,08,34,188,41,09,26,315,42,14,06,148,37*7C
$GPGSV,3,2,12,16,61,008,44,23,58,291,44,26,38,040,43,27,60,150,44*7E
$GPGSV,3,3,12,31,21,095,43,04,00,000,36,03,13,226,00,22,07,208,00*7B
$BDGSV,3,1,12,01,40,125,41,02,45,218,40,03,54,172,45,04,23,109,40*6D
$BDGSV,3,2,12,05,27,244,37,06,41,170,41,07,65,008,43,09,67,204,43*6E
$BDGSV,3,3,12,10,62,301,43,32,11,188,36,19,20,295,39,23,20,079,39*67
$B3CN0,0,0,0,0,0,0,0,0,0,0,0,0,0,0*4C
$ini_pos,lastpos_good = 1,ini_pos.x:-1578911.050081,ini_pos.y:5312769.968630,ini_pos.z:3146355.508723
$rtc_local_time,localRTC.weeks:2052,localRTC.seconds:267913.371950,localGtime.weeks:2052,localGtime.seconds:267913.999999
i = 0
i = 1
i = 2
i = 3
i = 4
i = 5
i = 6
i = 7
i = 8
i = 9
i = 10
i = 11
i = 12
i = 13
i = 14
i = 15
i = 16
i = 17
i = 18
i = 19
i = 20
i = 21
i = 22
i = 23
i = 24
i = 25
i = 26
i = 27
i = 28
i = 29
i = 30
i = 31
i = 32
Refix G03: 2, 267913.918988, 1349
Refix G07: 2, 267913.915690, -3668
Refix G08: 2, 267913.925446, -4438
Refix G09: 2, 267913.923529, -3933
Refix G14: 2, 267913.917259, 2563
Refix G16: 2, 267913.931473, 378
Refix G22: 2, 267913.916435, 1087
Refix G23: 2, 267913.929977, -2360
Refix G26: 2, 267913.926303, 1292
Refix G27: 2, 267913.931072, -2845
Refix G31: 2, 267913.920575, 978
$GNGGA,022456.000,2944.9073,N,10633.0907,E,1,23,0.6,323.2,M,,,,0000*1E
$GNRMC,022456.000,A,2944.9073,N,10633.0907,E,0.26,0.00,080519,,*14
$GPGSA,A,3,07,08,09,14,16,23,26,27,31,,,,0.7,0.6,0.4*31
$BDGSA,A,3,01,02,03,04,05,06,07,09,10,19,23,27,0.7,0.6,0.4*22
$GLGSA,A,3,,,,,,,,,,,,,0.7,0.6,0.4*2B
$GPGSV,3,1,12,07,07,300,39,08,34,188,42,09,26,315,41,14,06,148,37*7C
$GPGSV,3,2,12,16,61,008,44,23,58,291,44,26,38,040,43,27,60,150,44*7E
$GPGSV,3,3,12,31,21,095,43,04,00,000,35,03,13,226,00,22,07,208,00*78
$BDGSV,3,1,12,01,40,125,40,02,45,218,39,03,54,172,42,04,23,109,40*65
$BDGSV,3,2,12,05,27,244,37,06,41,170,41,07,65,008,43,09,67,204,43*6E
$BDGSV,3,3,12,10,62,301,43,32,11,188,37,19,20,295,39,23,20,079,39*66
$B3CN0,0,0,0,0,0,0,0,0,0,0,0,0,0,0*4C
$ini_pos,lastpos_good = 1,ini_pos.x:-1578911.134981,ini_pos.y:5312770.203944,ini_pos.z:3146355.476092
$rtc_local_time,localRTC.weeks:2052,localRTC.seconds:267914.371950,localGtime.weeks:2052,localGtime.seconds:267914.999999
i = 0
i = 1
i = 2
i = 3
i = 4
i = 5
i = 6
i = 7
i = 8
i = 9
i = 10
i = 11
i = 12
i = 13
i = 14
i = 15
i = 16
i = 17
i = 18
i = 19
i = 20
i = 21
i = 22
i = 23
i = 24
i = 25
i = 26
i = 27
i = 28
i = 29
i = 30
i = 31
i = 32
Refix G03: 2, 267914.918987, 1342
Refix G07: 2, 267914.915692, -3675
Refix G08: 2, 267914.925449, -4445
Refix G09: 2, 267914.923531, -3941
Refix G14: 2, 267914.917258, 2556
Refix G16: 2, 267914.931473, 369
Refix G22: 2, 267914.916434, 1079
Refix G23: 2, 267914.929978, -2368
Refix G26: 2, 267914.926302, 1284
Refix G27: 2, 267914.931074, -2853
Refix G31: 2, 267914.920575, 970
$GNGGA,022457.000,2944.9073,N,10633.0906,E,1,23,0.6,322.9,M,,,,0000*14
$GNRMC,022457.000,A,2944.9073,N,10633.0906,E,0.18,0.00,080519,,*19
$GPGSA,A,3,07,08,09,14,16,23,26,27,31,,,,0.7,0.6,0.4*31
$BDGSA,A,3,01,02,03,04,05,06,07,09,10,19,23,27,0.7,0.6,0.4*22
$GLGSA,A,3,,,,,,,,,,,,,0.7,0.6,0.4*2B
$GPGSV,3,1,12,07,07,300,39,08,34,188,42,09,26,315,42,14,06,148,38*70
$GPGSV,3,2,12,16,61,008,44,23,58,291,44,26,38,040,43,27,60,150,43*79
$GPGSV,3,3,12,31,21,095,43,04,00,000,36,03,13,226,00,22,07,208,00*7B
$BDGSV,3,1,12,01,40,125,42,02,45,218,41,03,54,172,45,04,23,109,41*6E
$BDGSV,3,2,12,05,27,244,37,06,41,170,41,07,65,008,43,09,67,204,43*6E
$BDGSV,3,3,12,10,62,301,43,32,11,188,36,19,20,295,40,23,20,079,39*69
$B3CN0,0,0,0,0,0,0,0,0,0,0,0,0,0,0*4C
