SD initialized success
Create debug.log Failed! 3
bbram_blkflag = 1
rtcflag = 0
BBRAM Block OK: 01 EPHflag: 4640a184 8c44836f, rtc 00
Hot-start nowtime:day = 8,minute = 2,seconds = 12.00
GPS 0 Init Dop: 10000,80
GPS 1 Init Dop: 10000,80
GPS 2 Init Dop:  1451, 2
GPS 3 Init Dop: 10000,80
GPS 4 Init Dop: 10000,80
GPS 5 Init Dop: 10000,80
GPS 6 Init Dop: 10000,80
GPS 7 Init Dop: -4523, 2
GPS 8 Init Dop: -4114, 2
GPS 9 Init Dop: 10000,80
GPS10 Init Dop: 10000,80
GPS11 Init Dop: 10000,80
GPS12 Init Dop: 10000,80
GPS13 Init Dop:  2578, 2
GPS14 Init Dop: 10000,80
GPS15 Init Dop:    81, 2
GPS16 Init Dop: 10000,80
GPS17 Init Dop: 10000,80
GPS18 Init Dop: 10000,80
GPS19 Init Dop: 10000,80
GPS20 Init Dop: 10000,80
GPS21 Init Dop: 10000,80
GPS22 Init Dop: -2874, 2
GPS23 Init Dop: 10000,80
GPS24 Init Dop: 10000,80
GPS25 Init Dop:  1343, 2
GPS26 Init Dop: -3397, 2
GPS27 Init Dop: 10000,80
GPS28 Init Dop: 10000,80
GPS29 Init Dop: 10000,80
GPS30 Init Dop:  1008, 2
GPS31 Init Dop: 10000,80
BDS 0 Init Dop:  -899, 2
BDS 1 Init Dop:  -859, 2
BDS 2 Init Dop:  -898, 2
BDS 3 Init Dop:  -889, 2
BDS 4 Init Dop: 10000,80
BDS 5 Init Dop:   212, 2
BDS 6 Init Dop:  -588, 2
BDS 7 Init Dop: 10000,80
BDS 8 Init Dop:  -356, 2
BDS 9 Init Dop:  -733, 2
BDS10 Init Dop: 10000,80
BDS11 Init Dop: 10000,80
BDS12 Init Dop: 10000,80
BDS13 Init Dop: 10000,80
BDS14 Init Dop: 10000,80
BDS15 Init Dop:   220, 2
BDS16 Init Dop: 10000,80
BDS17 Init Dop: 10000,80
BDS18 Init Dop: -1850, 2
BDS19 Init Dop: 10000,80
BDS20 Init Dop: 10000,80
BDS21 Init Dop: 10000,80
BDS22 Init Dop:   763, 2
BDS23 Init Dop: 10000,80
BDS24 Init Dop: 10000,80
BDS25 Init Dop: 10000,80
BDS26 Init Dop: -3860, 2
BDS27 Init Dop: -1896, 2
BDS28 Init Dop: 10000,80
BDS29 Init Dop: 10000,80
BDS30 Init Dop: 10000,80
BDS31 Init Dop:  2129, 2
Good luck!
$ini_pos,lastpos_good = 1,ini_pos.x:-1578917.000000,ini_pos.y:5312771.000000,ini_pos.z:3146356.000000
$rtc_local_time,localRTC.weeks:2052,localRTC.seconds:266551.025981,localGtime.weeks:0,localGtime.seconds:19.025977
$GNGGA,000000.000,,,,,0,00,,,M,,,,0000*2B
$GNRMC,000000.000,A,,,,,,,060180,,*29
$GPGSA,A,1,,,,,,,,,,,,,,,*1E
$BDGSA,A,1,,,,,,,,,,,,,,,*0F
$GLGSA,A,1,,,,,,,,,,,,,,,*02
$B3CN0,0,0,0,0,0,0,0,0,0,0,0,0,0,0*4C
tow update,266551615.650845
$ini_pos,lastpos_good = 1,ini_pos.x:-1578917.000000,ini_pos.y:5312771.000000,ini_pos.z:3146356.000000
$rtc_local_time,localRTC.weeks:2052,localRTC.seconds:266552.025981,localGtime.weeks:2052,localGtime.seconds:266551.615651
i = 0
$GNGGA,020213.616,,,,,0,00,,,M,,,,0000*28
$GNRMC,020213.616,A,,,,,,,080519,,*20
$GPGSA,A,1,,,,,,,,,,,,,,,*1E
$BDGSA,A,1,,,,,,,,,,,,,,,*0F
$GLGSA,A,1,,,,,,,,,,,,,,,*02
$B3CN0,0,0,0,0,0,0,0,0,0,0,0,0,0,0*4C
$ini_pos,lastpos_good = 1,ini_pos.x:-1578917.000000,ini_pos.y:5312771.000000,ini_pos.z:3146356.000000
$rtc_local_time,localRTC.weeks:2052,localRTC.seconds:266553.025981,localGtime.weeks:2052,localGtime.seconds:266552.615651
i = 0
i = 1
i = 2
i = 3
i = 4
$GNGGA,020214.616,,,,,0,00,,,M,,,,0000*2F
$GNRMC,020214.616,A,,,,,,,080519,,*27
$GPGSA,A,1,,,,,,,,,,,,,,,*1E
$BDGSA,A,1,,,,,,,,,,,,,,,*0F
$GLGSA,A,1,,,,,,,,,,,,,,,*02
$GPGSV,1,1,01,03,00,000,22*4B
$B3CN0,0,0,0,0,0,0,0,0,0,0,0,0,0,0*4C
$ini_pos,lastpos_good = 1,ini_pos.x:-1578917.000000,ini_pos.y:5312771.000000,ini_pos.z:3146356.000000
$rtc_local_time,localRTC.weeks:2052,localRTC.seconds:266554.025981,localGtime.weeks:2052,localGtime.seconds:266553.615651
i = 0
i = 1
i = 2
i = 3
i = 4
i = 5
i = 6
i = 7
i = 8
i = 9
i = 10
i = 11
i = 12
i = 13
i = 14
i = 15
$GNGGA,020215.616,,,,,0,00,,,M,,,,0000*2E
$GNRMC,020215.616,A,,,,,,,080519,,*26
$GPGSA,A,1,,,,,,,,,,,,,,,*1E
$BDGSA,A,1,,,,,,,,,,,,,,,*0F
$GLGSA,A,1,,,,,,,,,,,,,,,*02
$GPGSV,2,1,05,03,00,000,41,08,00,000,35,09,00,000,35,14,00,000,29*76
$GPGSV,2,2,05,16,00,000,28*41
$B3CN0,0,0,0,0,0,0,0,0,0,0,0,0,0,0*4C
$ini_pos,lastpos_good = 1,ini_pos.x:-1578917.000000,ini_pos.y:5312771.000000,ini_pos.z:3146356.000000
$rtc_local_time,localRTC.weeks:2052,localRTC.seconds:266555.025981,localGtime.weeks:2052,localGtime.seconds:266554.615651
i = 0
i = 1
i = 2
i = 3
i = 4
i = 5
i = 6
i = 7
i = 8
i = 9
i = 10
i = 11
i = 12
i = 13
i = 14
i = 15
i = 16
i = 17
i = 18
$GNGGA,020216.616,,,,,0,00,,,M,,,,0000*2D
$GNRMC,020216.616,A,,,,,,,080519,,*25
$GPGSA,A,1,,,,,,,,,,,,,,,*1E
$BDGSA,A,1,,,,,,,,,,,,,,,*0F
$GLGSA,A,1,,,,,,,,,,,,,,,*02
$GPGSV,3,1,09,03,00,000,41,08,00,000,40,09,00,000,41,14,00,000,39*7B
$GPGSV,3,2,09,16,00,000,45,23,00,000,39,26,00,000,35,27,00,000,34*7C
$GPGSV,3,3,09,31,00,000,29*49
$BDGSV,2,1,07,01,00,000,42,02,00,000,40,03,00,000,43,04,00,000,41*68
$BDGSV,2,2,07,05,00,000,36,06,00,000,23,07,00,000,22*5F
$B3CN0,0,0,0,0,0,0,0,0,0,0,0,0,0,0*4C
$ini_pos,lastpos_good = 1,ini_pos.x:-1578917.000000,ini_pos.y:5312771.000000,ini_pos.z:3146356.000000
$rtc_local_time,localRTC.weeks:2052,localRTC.seconds:266556.025980,localGtime.weeks:2052,localGtime.seconds:266555.615651
i = 0
i = 1
i = 2
i = 3
i = 4
i = 5
i = 6
i = 7
i = 8
i = 9
i = 10
i = 11
i = 12
i = 13
i = 14
i = 15
i = 16
i = 17
i = 18
i = 19
i = 20
$GNGGA,020217.616,,,,,0,00,,,M,,,,0000*2C
$GNRMC,020217.616,A,,,,,,,080519,,*24
$GPGSA,A,1,,,,,,,,,,,,,,,*1E
$BDGSA,A,1,,,,,,,,,,,,,,,*0F
$GLGSA,A,1,,,,,,,,,,,,,,,*02
$GPGSV,3,1,09,03,00,000,41,08,00,000,39,09,00,000,41,14,00,000,38*74
$GPGSV,3,2,09,16,00,000,44,23,00,000,43,26,00,000,43,27,00,000,43*71
$GPGSV,3,3,09,31,00,000,42*44
$BDGSV,3,1,10,01,00,000,40,02,00,000,39,03,00,000,43,04,00,000,41*63
$BDGSV,3,2,10,05,00,000,35,06,00,000,42,07,00,000,44,09,00,000,44*65
$BDGSV,3,3,10,10,00,000,44,16,00,000,23*6E
$B3CN0,0,0,0,0,0,0,0,0,0,0,0,0,0,0*4C
$ini_pos,lastpos_good = 1,ini_pos.x:-1578917.000000,ini_pos.y:5312771.000000,ini_pos.z:3146356.000000
$rtc_local_time,localRTC.weeks:2052,localRTC.seconds:266557.025980,localGtime.weeks:2052,localGtime.seconds:266556.615651
i = 0
i = 1
i = 2
i = 3
i = 4
i = 5
i = 6
i = 7
i = 8
i = 9
i = 10
i = 11
i = 12
i = 13
i = 14
i = 15
i = 16
i = 17
i = 18
i = 19
i = 20
i = 21
i = 22
i = 23
i = 24
i = 25
$GNGGA,020218.616,,,,,0,00,,,M,,,,0000*23
$GNRMC,020218.616,A,,,,,,,080519,,*2B
$GPGSA,A,1,,,,,,,,,,,,,,,*1E
$BDGSA,A,1,,,,,,,,,,,,,,,*0F
$GLGSA,A,1,,,,,,,,,,,,,,,*02
$GPGSV,3,1,09,03,00,000,42,08,00,000,39,09,00,000,42,14,00,000,38*74
$GPGSV,3,2,09,16,00,000,44,23,00,000,43,26,00,000,44,27,00,000,43*76
$GPGSV,3,3,09,31,00,000,42*44
$BDGSV,3,1,12,01,00,000,41,02,00,000,39,03,00,000,43,04,00,000,41*60
$BDGSV,3,2,12,05,00,000,36,06,00,000,41,07,00,000,43,09,00,000,43*67
$BDGSV,3,3,12,10,00,000,43,16,00,000,43,19,00,000,38,23,00,000,27*6A
$B3CN0,0,0,0,0,0,0,0,0,0,0,0,0,0,0*4C
$ini_pos,lastpos_good = 1,ini_pos.x:-1578917.000000,ini_pos.y:5312771.000000,ini_pos.z:3146356.000000
$rtc_local_time,localRTC.weeks:2052,localRTC.seconds:266558.531388,localGtime.weeks:2052,localGtime.seconds:266558.000000
i = 0
i = 1
i = 2
i = 3
i = 4
i = 5
i = 6
i = 7
i = 8
i = 9
i = 10
i = 11
i = 12
i = 13
i = 14
i = 15
i = 16
i = 17
i = 18
i = 19
i = 20
i = 21
i = 22
i = 23
i = 24
i = 25
i = 26
i = 27
i = 28
i = 29
i = 30
Refix G03: 2, 266557.921053, 1198
Refix G08: 2, 266557.922420, -4777
Refix G09: 2, 266557.920897, -4367
Refix G14: 2, 266557.920328, 2326
Refix G16: 2, 266557.932525, -169
Refix G23: 2, 266557.928558, -3124
Refix G26: 2, 266557.928289, 1090
Refix G27: 2, 266557.929218, -3648
Refix G31: 2, 266557.922273, 755
$GNGGA,020220.000,2944.9061,N,10633.0918,E,1,13,0.8,331.0,M,,,,0000*1A
$GNRMC,020220.000,A,2944.9061,N,10633.0918,E,0.10,0.00,080519,,*19
$GPGSA,A,3,03,08,09,14,16,23,26,27,31,,,,1.6,0.8,1.4*3A
$BDGSA,A,3,01,02,03,04,,,,,,,,,1.6,0.8,1.4*2D
$GLGSA,A,3,,,,,,,,,,,,,1.6,0.8,1.4*24
$GPGSV,3,1,09,03,00,000,42,08,00,000,40,09,00,000,42,14,00,000,38*7A
$GPGSV,3,2,09,16,00,000,44,23,00,000,43,26,00,000,43,27,00,000,43*71
$GPGSV,3,3,09,31,00,000,42*44
$BDGSV,3,1,12,01,00,000,40,02,00,000,40,03,00,000,45,04,00,000,41*69
$BDGSV,3,2,12,05,00,000,37,06,00,000,41,07,00,000,43,09,00,000,43*66
$BDGSV,3,3,12,10,00,000,43,16,00,000,43,19,00,000,43,23,00,000,42*65
$B3CN0,0,0,0,0,0,0,0,0,0,0,0,0,0,0*4C
$ini_pos,lastpos_good = 1,ini_pos.x:-1578915.009486,ini_pos.y:5312777.205387,ini_pos.z:3146357.428444
$rtc_local_time,localRTC.weeks:2052,localRTC.seconds:266559.531387,localGtime.weeks:2052,localGtime.seconds:266559.000000
i = 0
i = 1
i = 2
i = 3
i = 4
i = 5
i = 6
i = 7
i = 8
i = 9
i = 10
i = 11
i = 12
i = 13
i = 14
i = 15
i = 16
i = 17
i = 18
i = 19
i = 20
i = 21
i = 22
i = 23
i = 24
i = 25
i = 26
i = 27
i = 28
i = 29
i = 30
i = 31
Refix G03: 2, 266558.921052, 1201
Refix G08: 2, 266558.922423, -4774
Refix G09: 2, 266558.920900, -4362
Refix G14: 2, 266558.920327, 2329
Refix G16: 2, 266558.932525, -164
Refix G23: 2, 266558.928560, -3120
Refix G26: 2, 266558.928289, 1094
Refix G27: 2, 266558.929220, -3644
Refix G31: 2, 266558.922272, 758
$GNGGA,020221.000,2944.9052,N,10633.0928,E,1,13,0.7,329.2,M,,,,0000*1C
$GNRMC,020221.000,A,2944.9052,N,10633.0928,E,0.23,0.00,080519,,*1B
$GPGSA,A,3,03,08,09,14,16,23,26,27,31,,,,1.0,0.7,0.7*31
$BDGSA,A,3,01,02,03,04,,,,,,,,,1.0,0.7,0.7*26
$GLGSA,A,3,,,,,,,,,,,,,1.0,0.7,0.7*2F
$GPGSV,3,1,09,03,20,234,42,08,23,188,39,09,18,318,41,14,15,146,38*74
$GPGSV,3,2,09,16,70,349,44,23,51,305,43,26,46,034,43,27,50,159,43*77
$GPGSV,3,3,09,31,26,086,42*4E
$BDGSV,3,1,12,01,40,125,40,02,45,218,41,03,54,172,43,04,23,110,41*62
$BDGSV,3,2,12,05,00,000,39,06,46,165,41,07,67,004,43,09,73,202,43*69
$BDGSV,3,3,12,10,63,293,43,16,53,171,43,19,19,304,43,23,25,070,42*66
$B3CN0,0,0,0,0,0,0,0,0,0,0,0,0,0,0*4C
$ini_pos,lastpos_good = 1,ini_pos.x:-1578916.359864,ini_pos.y:5312776.074475,ini_pos.z:3146355.102502
$rtc_local_time,localRTC.weeks:2052,localRTC.seconds:266560.531387,localGtime.weeks:2052,localGtime.seconds:266560.000000
i = 0
i = 1
i = 2
i = 3
i = 4
i = 5
i = 6
i = 7
i = 8
i = 9
i = 10
i = 11
i = 12
i = 13
i = 14
i = 15
i = 16
i = 17
i = 18
i = 19
i = 20
i = 21
i = 22
i = 23
i = 24
i = 25
i = 26
i = 27
i = 28
i = 29
i = 30
i = 31
Refix G03: 2, 266559.921051, 1207
Refix G08: 2, 266559.922426, -4768
Refix G09: 2, 266559.920902, -4359
Refix G14: 2, 266559.920325, 2334
Refix G16: 2, 266559.932525, -161
Refix G23: 2, 266559.928562, -3116
Refix G26: 2, 266559.928288, 1097
Refix G27: 2, 266559.929222, -3639
Refix G31: 2, 266559.922272, 762
$GNGGA,020222.000,2944.9054,N,10633.0922,E,1,22,0.6,328.9,M,,,,0000*1A
$GNRMC,020222.000,A,2944.9054,N,10633.0922,E,0.36,0.00,080519,,*10
$GPGSA,A,3,03,08,09,14,16,23,26,27,31,,,,0.7,0.6,0.4*35
$BDGSA,A,3,01,02,03,04,06,07,09,10,16,19,23,27,0.7,0.6,0.4*20
$GLGSA,A,3,,,,,,,,,,,,,0.7,0.6,0.4*2B
$GPGSV,3,1,09,03,20,234,42,08,23,188,40,09,18,318,42,14,15,146,38*79
$GPGSV,3,2,09,16,70,349,44,23,51,305,43,26,46,034,43,27,50,159,44*70
$GPGSV,3,3,09,31,26,086,42*4E
$BDGSV,3,1,12,01,40,125,41,02,45,218,41,03,54,172,43,04,23,110,41*63
$BDGSV,3,2,12,05,00,000,38,06,46,165,41,07,67,004,43,09,73,202,42*69
$BDGSV,3,3,12,10,63,293,43,16,53,171,43,19,19,304,43,23,25,070,41*65
$B3CN0,0,0,0,0,0,0,0,0,0,0,0,0,0,0*4C
$ini_pos,lastpos_good = 1,ini_pos.x:-1578915.285637,ini_pos.y:5312775.865091,ini_pos.z:3146355.314571
$rtc_local_time,localRTC.weeks:2052,localRTC.seconds:266561.531387,localGtime.weeks:2052,localGtime.seconds:266561.000000
i = 0
i = 1
i = 2
i = 3
i = 4
i = 5
i = 6
i = 7
i = 8
i = 9
i = 10
i = 11
i = 12
i = 13
i = 14
i = 15
i = 16
i = 17
i = 18
i = 19
i = 20
i = 21
i = 22
i = 23
i = 24
i = 25
i = 26
i = 27
i = 28
i = 29
i = 30
i = 31
Refix G03: 2, 266560.921050, 1199
Refix G08: 2, 266560.922429, -4776
Refix G09: 2, 266560.920905, -4365
Refix G14: 2, 266560.920324, 2327
Refix G16: 2, 266560.932525, -169
Refix G23: 2, 266560.928564, -3124
Refix G26: 2, 266560.928287, 1090
Refix G27: 2, 266560.929225, -3648
Refix G31: 2, 266560.922271, 755
$GNGGA,020223.000,2944.9055,N,10633.0921,E,1,22,0.6,328.4,M,,,,0000*14
$GNRMC,020223.000,A,2944.9055,N,10633.0921,E,0.09,0.00,080519,,*1F
$GPGSA,A,3,03,08,09,14,16,23,26,27,31,,,,0.7,0.6,0.4*35
$BDGSA,A,3,01,02,03,04,06,07,09,10,16,19,23,27,0.7,0.6,0.4*20
$GLGSA,A,3,,,,,,,,,,,,,0.7,0.6,0.4*2B
$GPGSV,3,1,09,03,20,234,41,08,23,188,40,09,18,318,41,14,15,146,38*79
$GPGSV,3,2,09,16,70,349,44,23,51,305,43,26,46,034,43,27,50,159,43*77
$GPGSV,3,3,09,31,26,086,42*4E
$BDGSV,3,1,12,01,40,125,41,02,45,218,40,03,54,172,43,04,23,110,40*63
$BDGSV,3,2,12,05,00,000,37,06,46,165,40,07,67,004,43,09,73,202,42*67
$BDGSV,3,3,12,10,63,293,43,16,53,171,43,19,19,304,43,23,25,070,41*65
$B3CN0,0,0,0,0,0,0,0,0,0,0,0,0,0,0*4C
$ini_pos,lastpos_good = 1,ini_pos.x:-1578914.987847,ini_pos.y:5312775.442155,ini_pos.z:3146355.186043
$rtc_local_time,localRTC.weeks:2052,localRTC.seconds:266562.531387,localGtime.weeks:2052,localGtime.seconds:266562.000000
i = 0
i = 1
i = 2
i = 3
i = 4
i = 5
i = 6
i = 7
i = 8
i = 9
i = 10
i = 11
i = 12
i = 13
i = 14
i = 15
i = 16
i = 17
i = 18
i = 19
i = 20
i = 21
i = 22
i = 23
i = 24
i = 25
i = 26
i = 27
i = 28
i = 29
i = 30
i = 31
Refix G03: 2, 266561.921050, 1196
Refix G08: 2, 266561.922432, -4779
Refix G09: 2, 266561.920908, -4367
Refix G14: 2, 266561.920322, 2324
Refix G16: 2, 266561.932526, -172
Refix G23: 2, 266561.928566, -3127
Refix G26: 2, 266561.928287, 1087
Refix G27: 2, 266561.929227, -3651
Refix G31: 2, 266561.922270, 752
$GNGGA,020224.000,2944.9056,N,10633.0921,E,1,22,0.6,328.3,M,,,,0000*17
$GNRMC,020224.000,A,2944.9056,N,10633.0921,E,0.24,0.00,080519,,*14
$GPGSA,A,3,03,08,09,14,16,23,26,27,31,,,,0.7,0.6,0.4*35
$BDGSA,A,3,01,02,03,04,06,07,09,10,16,19,23,27,0.7,0.6,0.4*20
$GLGSA,A,3,,,,,,,,,,,,,0.7,0.6,0.4*2B
$GPGSV,3,1,09,03,20,234,42,08,23,188,40,09,18,318,42,14,15,146,38*79
$GPGSV,3,2,09,16,70,349,44,23,51,305,44,26,46,034,43,27,50,159,43*70
$GPGSV,3,3,09,31,26,086,41*4D
$BDGSV,3,1,12,01,40,125,41,02,45,218,40,03,54,172,43,04,23,110,40*63
$BDGSV,3,2,12,05,00,000,37,06,46,165,41,07,67,004,43,09,73,202,43*67
$BDGSV,3,3,12,10,63,293,43,16,53,171,43,19,19,304,43,23,25,070,41*65
$B3CN0,0,0,0,0,0,0,0,0,0,0,0,0,0,0*4C
$ini_pos,lastpos_good = 1,ini_pos.x:-1578915.047221,ini_pos.y:5312775.254087,ini_pos.z:3146355.226267
$rtc_local_time,localRTC.weeks:2052,localRTC.seconds:266563.531387,localGtime.weeks:2052,localGtime.seconds:266563.000000
i = 0
i = 1
i = 2
i = 3
i = 4
i = 5
i = 6
i = 7
i = 8
i = 9
i = 10
i = 11
i = 12
i = 13
i = 14
i = 15
i = 16
i = 17
i = 18
i = 19
i = 20
i = 21
i = 22
i = 23
i = 24
i = 25
i = 26
i = 27
i = 28
i = 29
i = 30
i = 31
Refix G03: 2, 266562.921049, 1196
Refix G08: 2, 266562.922435, -4779
Refix G09: 2, 266562.920910, -4368
Refix G14: 2, 266562.920321, 2324
Refix G16: 2, 266562.932526, -171
Refix G23: 2, 266562.928568, -3126
Refix G26: 2, 266562.928286, 1087
Refix G27: 2, 266562.929229, -3649
Refix G31: 2, 266562.922270, 753
$GNGGA,020225.000,2944.9056,N,10633.0922,E,1,22,0.6,328.3,M,,,,0000*15
$GNRMC,020225.000,A,2944.9056,N,10633.0922,E,0.17,0.00,080519,,*16
$GPGSA,A,3,03,08,09,14,16,23,26,27,31,,,,0.7,0.6,0.4*35
$BDGSA,A,3,01,02,03,04,06,07,09,10,16,19,23,27,0.7,0.6,0.4*20
$GLGSA,A,3,,,,,,,,,,,,,0.7,0.6,0.4*2B
$GPGSV,3,1,09,03,20,234,42,08,23,188,40,09,18,318,41,14,15,146,38*7A
$GPGSV,3,2,09,16,70,349,45,23,51,305,43,26,46,034,44,27,50,159,43*71
$GPGSV,3,3,09,31,26,086,42*4E
$BDGSV,3,1,12,01,40,125,41,02,45,218,41,03,54,172,43,04,23,110,41*63
$BDGSV,3,2,12,05,00,000,37,06,46,165,41,07,67,004,44,09,73,202,43*60
$BDGSV,3,3,12,10,63,293,43,16,53,171,42,19,19,304,43,23,25,070,41*64
$B3CN0,0,0,0,0,0,0,0,0,0,0,0,0,0,0*4C
$ini_pos,lastpos_good = 1,ini_pos.x:-1578915.111133,ini_pos.y:5312775.234228,ini_pos.z:3146355.233876
$rtc_local_time,localRTC.weeks:2052,localRTC.seconds:266564.531387,localGtime.weeks:2052,localGtime.seconds:266564.000000
i = 0
i = 1
i = 2
i = 3
i = 4
i = 5
i = 6
i = 7
i = 8
i = 9
i = 10
i = 11
i = 12
i = 13
i = 14
i = 15
i = 16
i = 17
i = 18
i = 19
i = 20
i = 21
i = 22
i = 23
i = 24
i = 25
i = 26
i = 27
i = 28
i = 29
i = 30
i = 31
Refix G03: 2, 266563.921048, 1200
Refix G08: 2, 266563.922438, -4774
Refix G09: 2, 266563.920913, -4364
Refix G14: 2, 266563.920319, 2329
Refix G16: 2, 266563.932526, -166
Refix G23: 2, 266563.928570, -3121
Refix G26: 2, 266563.928285, 1092
Refix G27: 2, 266563.929232, -3644
Refix G31: 2, 266563.922269, 757
$GNGGA,020226.000,2944.9057,N,10633.0923,E,1,22,0.6,328.1,M,,,,0000*14
$GNRMC,020226.000,A,2944.9057,N,10633.0923,E,0.19,0.00,080519,,*1B
$GPGSA,A,3,03,08,09,14,16,23,26,27,31,,,,0.7,0.6,0.4*35
$BDGSA,A,3,01,02,03,04,06,07,09,10,16,19,23,27,0.7,0.6,0.4*20
$GLGSA,A,3,,,,,,,,,,,,,0.7,0.6,0.4*2B
$GPGSV,3,1,09,03,20,234,42,08,23,188,39,09,18,318,41,14,15,146,39*75
$GPGSV,3,2,09,16,70,349,45,23,51,305,44,26,46,034,44,27,50,159,44*71
$GPGSV,3,3,09,31,26,086,43*4F
$BDGSV,3,1,12,01,40,125,41,02,45,218,40,03,54,172,43,04,23,110,40*63
$BDGSV,3,2,12,05,00,000,38,06,46,165,41,07,67,004,43,09,73,202,43*68
$BDGSV,3,3,12,10,63,293,43,16,53,171,43,19,19,304,44,23,25,070,41*62
$B3CN0,0,0,0,0,0,0,0,0,0,0,0,0,0,0*4C
$ini_pos,lastpos_good = 1,ini_pos.x:-1578915.180220,ini_pos.y:5312774.982452,ini_pos.z:3146355.333851
$rtc_local_time,localRTC.weeks:2052,localRTC.seconds:266565.531387,localGtime.weeks:2052,localGtime.seconds:266565.000000
i = 0
i = 1
i = 2
i = 3
i = 4
i = 5
i = 6
i = 7
i = 8
i = 9
i = 10
i = 11
i = 12
i = 13
i = 14
i = 15
i = 16
i = 17
i = 18
i = 19
i = 20
i = 21
i = 22
i = 23
i = 24
i = 25
i = 26
i = 27
i = 28
i = 29
i = 30
i = 31
Refix G03: 2, 266564.921047, 1201
Refix G08: 2, 266564.922441, -4773
Refix G09: 2, 266564.920916, -4363
Refix G14: 2, 266564.920318, 2329
Refix G16: 2, 266564.932526, -164
Refix G23: 2, 266564.928572, -3119
Refix G26: 2, 266564.928284, 1093
Refix G27: 2, 266564.929234, -3642
Refix G31: 2, 266564.922269, 758
$GNGGA,020227.000,2944.9058,N,10633.0923,E,1,22,0.6,327.7,M,,,,0000*13
$GNRMC,020227.000,A,2944.9058,N,10633.0923,E,0.10,0.00,080519,,*1C
$GPGSA,A,3,03,08,09,14,16,23,26,27,31,,,,0.7,0.6,0.4*35
$BDGSA,A,3,01,02,03,04,06,07,09,10,16,19,23,27,0.7,0.6,0.4*20
$GLGSA,A,3,,,,,,,,,,,,,0.7,0.6,0.4*2B
$GPGSV,3,1,09,03,20,234,42,08,23,188,40,09,18,318,42,14,15,146,38*79
$GPGSV,3,2,09,16,70,349,45,23,51,305,44,26,46,034,44,27,50,159,44*71
$GPGSV,3,3,09,31,26,086,43*4F
$BDGSV,3,1,12,01,40,125,41,02,45,218,41,03,54,172,43,04,23,110,41*63
$BDGSV,3,2,12,05,00,000,38,06,46,165,41,07,67,004,44,09,73,202,43*6F
$BDGSV,3,3,12,10,63,293,43,16,53,171,43,19,19,304,43,23,25,070,41*65
$B3CN0,0,0,0,0,0,0,0,0,0,0,0,0,0,0*4C
$ini_pos,lastpos_good = 1,ini_pos.x:-1578915.104508,ini_pos.y:5312774.521772,ini_pos.z:3146355.319497
$rtc_local_time,localRTC.weeks:2052,localRTC.seconds:266566.531387,localGtime.weeks:2052,localGtime.seconds:266566.000000
i = 0
i = 1
i = 2
i = 3
i = 4
i = 5
i = 6
i = 7
i = 8
i = 9
i = 10
i = 11
i = 12
i = 13
i = 14
i = 15
i = 16
i = 17
i = 18
i = 19
i = 20
i = 21
i = 22
i = 23
i = 24
i = 25
i = 26
i = 27
i = 28
i = 29
i = 30
i = 31
Refix G03: 2, 266565.921046, 1205
Refix G08: 2, 266565.922444, -4770
Refix G09: 2, 266565.920919, -4359
Refix G14: 2, 266565.920316, 2333
Refix G16: 2, 266565.932526, -159
Refix G23: 2, 266565.928574, -3115
Refix G26: 2, 266565.928284, 1097
Refix G27: 2, 266565.929236, -3638
Refix G31: 2, 266565.922268, 761
$GNGGA,020228.000,2944.9059,N,10633.0923,E,1,22,0.6,327.4,M,,,,0000*1E
$GNRMC,020228.000,A,2944.9059,N,10633.0923,E,0.12,0.00,080519,,*10
$GPGSA,A,3,03,08,09,14,16,23,26,27,31,,,,0.7,0.6,0.4*35
$BDGSA,A,3,01,02,03,04,06,07,09,10,16,19,23,27,0.7,0.6,0.4*20
$GLGSA,A,3,,,,,,,,,,,,,0.7,0.6,0.4*2B
$GPGSV,3,1,09,03,20,234,42,08,23,188,40,09,18,318,42,14,15,146,38*79
$GPGSV,3,2,09,16,70,349,45,23,51,305,44,26,46,034,44,27,50,159,44*71
$GPGSV,3,3,09,31,26,086,43*4F
$BDGSV,3,1,12,01,40,125,40,02,45,218,41,03,54,172,43,04,23,110,41*62
$BDGSV,3,2,12,05,00,000,39,06,46,165,41,07,67,004,43,09,73,202,43*69
$BDGSV,3,3,12,10,63,293,43,16,53,171,43,19,19,304,44,23,25,070,41*62
$B3CN0,0,0,0,0,0,0,0,0,0,0,0,0,0,0*4C
$ini_pos,lastpos_good = 1,ini_pos.x:-1578915.053776,ini_pos.y:5312774.217197,ini_pos.z:3146355.273106
$rtc_local_time,localRTC.weeks:2052,localRTC.seconds:266567.531387,localGtime.weeks:2052,localGtime.seconds:266567.000000
i = 0
i = 1
i = 2
i = 3
i = 4
i = 5
i = 6
i = 7
i = 8
i = 9
i = 10
i = 11
i = 12
i = 13
i = 14
i = 15
i = 16
i = 17
i = 18
i = 19
i = 20
i = 21
i = 22
i = 23
i = 24
i = 25
i = 26
i = 27
i = 28
i = 29
i = 30
Refix G03: 2, 266566.921046, 1205
Refix G08: 2, 266566.922447, -4770
Refix G09: 2, 266566.920921, -4359
Refix G14: 2, 266566.920315, 2332
Refix G16: 2, 266566.932526, -160
Refix G23: 2, 266566.928576, -3115
Refix G26: 2, 266566.928283, 1096
Refix G27: 2, 266566.929238, -3639
Refix G31: 2, 266566.922268, 760
$GNGGA,020229.000,2944.9059,N,10633.0924,E,1,22,0.6,327.2,M,,,,0000*1E
$GNRMC,020229.000,A,2944.9059,N,10633.0924,E,0.17,0.00,080519,,*13
$GPGSA,A,3,03,08,09,14,16,23,26,27,31,,,,0.7,0.6,0.4*35
$BDGSA,A,3,01,02,03,04,06,07,09,10,16,19,23,27,0.7,0.6,0.4*20
$GLGSA,A,3,,,,,,,,,,,,,0.7,0.6,0.4*2B
$GPGSV,3,1,09,03,20,234,42,08,23,188,40,09,18,318,41,14,15,146,39*7B
$GPGSV,3,2,09,16,70,349,44,23,51,305,43,26,46,034,44,27,50,159,44*77
$GPGSV,3,3,09,31,26,086,43*4F
$BDGSV,3,1,12,01,40,125,41,02,45,218,41,03,54,172,45,04,23,110,40*64
$BDGSV,3,2,12,05,00,000,37,06,46,165,41,07,67,004,43,09,73,202,43*67
$BDGSV,3,3,12,10,63,293,43,16,53,171,43,19,19,304,43,23,25,070,41*65
$B3CN0,0,0,0,0,0,0,0,0,0,0,0,0,0,0*4C
$ini_pos,lastpos_good = 1,ini_pos.x:-1578915.038768,ini_pos.y:5312773.955352,ini_pos.z:3146355.295563
$rtc_local_time,localRTC.weeks:2052,localRTC.seconds:266568.531387,localGtime.weeks:2052,localGtime.seconds:266568.000000
i = 0
i = 1
i = 2
i = 3
i = 4
i = 5
i = 6
i = 7
i = 8
i = 9
i = 10
i = 11
i = 12
i = 13
i = 14
i = 15
i = 16
i = 17
i = 18
i = 19
i = 20
i = 21
i = 22
i = 23
i = 24
i = 25
i = 26
i = 27
i = 28
i = 29
i = 30
Refix G03: 2, 266567.921045, 1206
Refix G08: 2, 266567.922450, -4769
Refix G09: 2, 266567.920924, -4357
Refix G14: 2, 266567.920313, 2334
Refix G16: 2, 266567.932526, -158
Refix G23: 2, 266567.928578, -3113
Refix G26: 2, 266567.928282, 1098
Refix G27: 2, 266567.929241, -3637
Refix G31: 2, 266567.922267, 762
$GNGGA,020230.000,2944.9060,N,10633.0924,E,1,22,0.6,327.5,M,,,,0000*1B
$GNRMC,020230.000,A,2944.9060,N,10633.0924,E,0.08,0.00,080519,,*1F
$GPGSA,A,3,03,08,09,14,16,23,26,27,31,,,,0.7,0.6,0.4*35
$BDGSA,A,3,01,02,03,04,06,07,09,10,16,19,23,27,0.7,0.6,0.4*20
$GLGSA,A,3,,,,,,,,,,,,,0.7,0.6,0.4*2B
$GPGSV,3,1,09,03,20,234,42,08,23,188,40,09,18,318,41,14,15,146,39*7B
$GPGSV,3,2,09,16,70,349,44,23,51,305,43,26,46,034,44,27,50,159,44*77
$GPGSV,3,3,09,31,26,086,41*4D
$BDGSV,3,1,12,01,40,125,40,02,45,218,41,03,54,172,43,04,23,110,41*62
$BDGSV,3,2,12,05,00,000,39,06,46,165,41,07,67,004,43,09,73,202,44*6E
$BDGSV,3,3,12,10,63,293,43,16,53,171,43,19,19,304,43,23,25,070,41*65
$B3CN0,0,0,0,0,0,0,0,0,0,0,0,0,0,0*4C
$ini_pos,lastpos_good = 1,ini_pos.x:-1578915.093972,ini_pos.y:5312774.115141,ini_pos.z:3146355.448175
$rtc_local_time,localRTC.weeks:2052,localRTC.seconds:266569.531387,localGtime.weeks:2052,localGtime.seconds:266569.000000
i = 0
i = 1
i = 2
i = 3
i = 4
i = 5
i = 6
i = 7
i = 8
i = 9
i = 10
i = 11
i = 12
i = 13
i = 14
i = 15
i = 16
i = 17
i = 18
i = 19
i = 20
i = 21
i = 22
i = 23
i = 24
i = 25
i = 26
i = 27
i = 28
i = 29
i = 30
Refix G03: 2, 266568.921044, 1202
Refix G08: 2, 266568.922453, -4772
Refix G09: 2, 266568.920927, -4361
Refix G14: 2, 266568.920312, 2330
Refix G16: 2, 266568.932526, -163
Refix G23: 2, 266568.928579, -3118
Refix G26: 2, 266568.928282, 1093
Refix G27: 2, 266568.929243, -3641
Refix G31: 2, 266568.922267, 758
$GNGGA,020231.000,2944.9060,N,10633.0924,E,1,22,0.6,327.5,M,,,,0000*1A
$GNRMC,020231.000,A,2944.9060,N,10633.0924,E,0.04,0.00,080519,,*12
$GPGSA,A,3,03,08,09,14,16,23,26,27,31,,,,0.7,0.6,0.4*35
$BDGSA,A,3,01,02,03,04,06,07,09,10,16,19,23,27,0.7,0.6,0.4*20
$GLGSA,A,3,,,,,,,,,,,,,0.7,0.6,0.4*2B
$GPGSV,3,1,09,03,20,234,43,08,23,188,41,09,18,318,41,14,15,146,38*7A
$GPGSV,3,2,09,16,70,349,45,23,51,305,44,26,46,034,43,27,50,159,44*76
$GPGSV,3,3,09,31,26,086,42*4E
$BDGSV,3,1,12,01,40,125,41,02,45,218,40,03,54,172,42,04,23,110,39*6C
$BDGSV,3,2,12,05,00,000,36,06,46,165,41,07,67,004,43,09,73,202,43*66
$BDGSV,3,3,12,10,63,293,43,16,53,171,43,19,19,304,43,23,25,070,41*65
$B3CN0,0,0,0,0,0,0,0,0,0,0,0,0,0,0*4C
$ini_pos,lastpos_good = 1,ini_pos.x:-1578915.115996,ini_pos.y:5312774.112732,ini_pos.z:3146355.542337
$rtc_local_time,localRTC.weeks:2052,localRTC.seconds:266570.531387,localGtime.weeks:2052,localGtime.seconds:266570.000000
i = 0
i = 1
i = 2
i = 3
i = 4
i = 5
i = 6
i = 7
i = 8
i = 9
i = 10
i = 11
i = 12
i = 13
i = 14
i = 15
i = 16
i = 17
i = 18
i = 19
i = 20
i = 21
i = 22
i = 23
i = 24
i = 25
i = 26
i = 27
i = 28
i = 29
i = 30
Refix G03: 2, 266569.921043, 1205
Refix G08: 2, 266569.922456, -4770
Refix G09: 2, 266569.920930, -4358
Refix G14: 2, 266569.920310, 2333
Refix G16: 2, 266569.932526, -159
Refix G23: 2, 266569.928581, -3114
Refix G26: 2, 266569.928281, 1097
Refix G27: 2, 266569.929245, -3637
Refix G31: 2, 266569.922266, 761
$GNGGA,020232.000,2944.9061,N,10633.0924,E,1,22,0.6,327.9,M,,,,0000*14
$GNRMC,020232.000,A,2944.9061,N,10633.0924,E,0.03,0.00,080519,,*17
$GPGSA,A,3,03,08,09,14,16,23,26,27,31,,,,0.7,0.6,0.4*35
$BDGSA,A,3,01,02,03,04,06,07,09,10,16,19,23,27,0.7,0.6,0.4*20
$GLGSA,A,3,,,,,,,,,,,,,0.7,0.6,0.4*2B
$GPGSV,3,1,09,03,20,234,43,08,23,188,40,09,18,318,41,14,15,146,38*7B
$GPGSV,3,2,09,16,70,349,45,23,51,305,43,26,46,034,43,27,50,159,44*71
$GPGSV,3,3,09,31,26,086,42*4E
$BDGSV,3,1,12,01,40,125,41,02,45,218,41,03,54,172,42,04,23,110,41*62
$BDGSV,3,2,12,05,00,000,38,06,46,165,41,07,67,004,43,09,73,202,43*68
$BDGSV,3,3,12,10,63,293,43,16,53,171,43,19,19,304,43,23,25,070,41*65
$B3CN0,0,0,0,0,0,0,0,0,0,0,0,0,0,0*4C
$ini_pos,lastpos_good = 1,ini_pos.x:-1578915.213299,ini_pos.y:5312774.335537,ini_pos.z:3146355.814977
$rtc_local_time,localRTC.weeks:2052,localRTC.seconds:266571.531387,localGtime.weeks:2052,localGtime.seconds:266571.000000
i = 0
i = 1
i = 2
i = 3
i = 4
i = 5
i = 6
i = 7
i = 8
i = 9
i = 10
i = 11
i = 12
i = 13
i = 14
i = 15
i = 16
i = 17
i = 18
i = 19
i = 20
i = 21
i = 22
i = 23
i = 24
i = 25
i = 26
i = 27
i = 28
i = 29
i = 30
Refix G03: 2, 266570.921042, 1204
Refix G08: 2, 266570.922459, -4771
Refix G09: 2, 266570.920932, -4359
Refix G14: 2, 266570.920309, 2332
Refix G16: 2, 266570.932526, -160
Refix G23: 2, 266570.928583, -3115
Refix G26: 2, 266570.928280, 1096
Refix G27: 2, 266570.929247, -3639
Refix G31: 2, 266570.922266, 760
$GNGGA,020233.000,2944.9061,N,10633.0924,E,1,22,0.6,327.9,M,,,,0000*15
$GNRMC,020233.000,A,2944.9061,N,10633.0924,E,0.26,0.00,080519,,*11
$GPGSA,A,3,03,08,09,14,16,23,26,27,31,,,,0.7,0.6,0.4*35
$BDGSA,A,3,01,02,03,04,06,07,09,10,16,19,23,27,0.7,0.6,0.4*20
$GLGSA,A,3,,,,,,,,,,,,,0.7,0.6,0.4*2B
$GPGSV,3,1,09,03,20,234,42,08,23,188,40,09,18,318,41,14,15,146,38*7A
$GPGSV,3,2,09,16,70,349,44,23,51,305,44,26,46,034,44,27,50,159,44*70
$GPGSV,3,3,09,31,26,086,42*4E
$BDGSV,3,1,12,01,40,125,40,02,45,218,41,03,54,172,42,04,23,110,40*62
$BDGSV,3,2,12,05,00,000,36,06,46,165,41,07,67,004,43,09,73,202,43*66
$BDGSV,3,3,12,10,63,293,43,16,53,171,43,19,19,304,43,23,25,070,41*65
$B3CN0,0,0,0,0,0,0,0,0,0,0,0,0,0,0*4C
$ini_pos,lastpos_good = 1,ini_pos.x:-1578915.293517,ini_pos.y:5312774.320208,ini_pos.z:3146355.932815
$rtc_local_time,localRTC.weeks:2052,localRTC.seconds:266572.531387,localGtime.weeks:2052,localGtime.seconds:266571.999999
i = 0
i = 1
i = 2
i = 3
i = 4
i = 5
i = 6
i = 7
i = 8
i = 9
i = 10
i = 11
i = 12
i = 13
i = 14
i = 15
i = 16
i = 17
i = 18
i = 19
i = 20
i = 21
i = 22
i = 23
i = 24
i = 25
i = 26
i = 27
i = 28
i = 29
i = 30
Refix G03: 2, 266571.921042, 1203
Refix G08: 2, 266571.922462, -4772
Refix G09: 2, 266571.920935, -4360
Refix G14: 2, 266571.920307, 2331
Refix G16: 2, 266571.932526, -161
Refix G23: 2, 266571.928585, -3116
Refix G26: 2, 266571.928279, 1094
Refix G27: 2, 266571.929250, -3639
Refix G31: 2, 266571.922265, 758
$GNGGA,020234.000,2944.9061,N,10633.0925,E,1,22,0.6,327.9,M,,,,0000*13
$GNRMC,020234.000,A,2944.9061,N,10633.0925,E,0.09,0.00,080519,,*1A
$GPGSA,A,3,03,08,09,14,16,23,26,27,31,,,,0.7,0.6,0.4*35
$BDGSA,A,3,01,02,03,04,06,07,09,10,16,19,23,27,0.7,0.6,0.4*20
$GLGSA,A,3,,,,,,,,,,,,,0.7,0.6,0.4*2B
$GPGSV,3,1,09,03,20,234,42,08,23,188,40,09,18,318,41,14,15,146,38*7A
$GPGSV,3,2,09,16,70,349,44,23,51,305,43,26,46,034,44,27,50,159,44*77
$GPGSV,3,3,09,31,26,086,43*4F
$BDGSV,3,1,12,01,40,125,40,02,45,218,39,03,54,172,43,04,23,110,40*6C
$BDGSV,3,2,12,05,00,000,39,06,46,165,41,07,67,004,43,09,73,202,43*69
$BDGSV,3,3,12,10,63,293,43,16,53,171,42,19,19,304,43,23,25,070,41*64
$B3CN0,18,0,0,0,0,0,0,0,0,0,0,0,0,0*75
$ini_pos,lastpos_good = 1,ini_pos.x:-1578915.414331,ini_pos.y:5312774.280159,ini_pos.z:3146355.915197
$rtc_local_time,localRTC.weeks:2052,localRTC.seconds:266573.531387,localGtime.weeks:2052,localGtime.seconds:266572.999999
i = 0
i = 1
i = 2
i = 3
i = 4
i = 5
i = 6
i = 7
i = 8
i = 9
i = 10
i = 11
i = 12
i = 13
i = 14
i = 15
i = 16
i = 17
i = 18
i = 19
i = 20
i = 21
i = 22
i = 23
i = 24
i = 25
i = 26
i = 27
i = 28
i = 29
i = 30
Refix G03: 2, 266572.921041, 1204
Refix G08: 2, 266572.922465, -4772
Refix G09: 2, 266572.920938, -4359
Refix G14: 2, 266572.920306, 2331
Refix G16: 2, 266572.932526, -160
Refix G23: 2, 266572.928587, -3115
Refix G26: 2, 266572.928279, 1095
Refix G27: 2, 266572.929252, -3639
Refix G31: 2, 266572.922265, 759
$GNGGA,020235.000,2944.9061,N,10633.0925,E,1,22,0.6,328.1,M,,,,0000*15
$GNRMC,020235.000,A,2944.9061,N,10633.0925,E,0.21,0.00,080519,,*11
$GPGSA,A,3,03,08,09,14,16,23,26,27,31,,,,0.7,0.6,0.4*35
$BDGSA,A,3,01,02,03,04,06,07,09,10,16,19,23,27,0.7,0.6,0.4*20
$GLGSA,A,3,,,,,,,,,,,,,0.7,0.6,0.4*2B
$GPGSV,3,1,09,03,20,234,42,08,23,188,40,09,18,318,41,14,15,146,38*7A
$GPGSV,3,2,09,16,69,349,44,23,52,305,43,26,46,034,44,27,50,159,44*7C
$GPGSV,3,3,09,31,26,086,42*4E
$BDGSV,3,1,12,01,40,125,41,02,45,218,41,03,54,172,43,04,23,110,40*62
$BDGSV,3,2,12,05,00,000,39,06,46,165,42,07,67,004,43,09,73,203,43*6B
$BDGSV,3,3,12,10,63,293,43,16,53,171,43,19,19,304,42,23,25,070,41*64
$B3CN0,19,0,0,0,0,0,0,0,0,0,0,0,0,0*74
$ini_pos,lastpos_good = 1,ini_pos.x:-1578915.490797,ini_pos.y:5312774.378536,ini_pos.z:3146356.015575
$rtc_local_time,localRTC.weeks:2052,localRTC.seconds:266574.531387,localGtime.weeks:2052,localGtime.seconds:266573.999999
i = 0
i = 1
i = 2
i = 3
i = 4
i = 5
i = 6
i = 7
i = 8
i = 9
i = 10
i = 11
i = 12
i = 13
i = 14
i = 15
i = 16
i = 17
i = 18
i = 19
i = 20
i = 21
i = 22
i = 23
i = 24
i = 25
i = 26
i = 27
i = 28
i = 29
i = 30
Refix G03: 2, 266573.921040, 1208
Refix G08: 2, 266573.922468, -4767
Refix G09: 2, 266573.920941, -4355
Refix G14: 2, 266573.920304, 2336
Refix G16: 2, 266573.932526, -155
Refix G23: 2, 266573.928589, -3109
Refix G26: 2, 266573.928278, 1100
Refix G27: 2, 266573.929254, -3633
Refix G31: 2, 266573.922264, 764
$GNGGA,020236.000,2944.9061,N,10633.0926,E,1,22,0.6,328.2,M,,,,0000*16
$GNRMC,020236.000,A,2944.9061,N,10633.0926,E,0.16,0.00,080519,,*15
$GPGSA,A,3,03,08,09,14,16,23,26,27,31,,,,0.7,0.6,0.4*35
$BDGSA,A,3,01,02,03,04,06,07,09,10,16,19,23,27,0.7,0.6,0.4*20
$GLGSA,A,3,,,,,,,,,,,,,0.7,0.6,0.4*2B
$GPGSV,3,1,09,03,20,234,42,08,23,188,40,09,18,318,42,14,15,146,38*79
$GPGSV,3,2,09,16,69,349,44,23,52,305,44,26,46,034,44,27,50,159,44*7B
$GPGSV,3,3,09,31,26,086,42*4E
$BDGSV,3,1,12,01,40,125,40,02,45,218,40,03,54,172,42,04,23,110,39*6D
$BDGSV,3,2,12,05,00,000,37,06,46,165,41,07,67,004,43,09,73,203,43*66
$BDGSV,3,3,12,10,63,293,43,16,53,171,43,19,19,304,42,23,25,070,41*64
$B3CN0,0,17,0,0,0,0,0,0,0,0,0,0,0,0*7A
$ini_pos,lastpos_good = 1,ini_pos.x:-1578915.625708,ini_pos.y:5312774.483297,ini_pos.z:3146356.066859
$rtc_local_time,localRTC.weeks:2052,localRTC.seconds:266575.531387,localGtime.weeks:2052,localGtime.seconds:266574.999999
i = 0
i = 1
i = 2
i = 3
i = 4
i = 5
i = 6
i = 7
i = 8
i = 9
i = 10
i = 11
i = 12
i = 13
i = 14
i = 15
i = 16
i = 17
i = 18
i = 19
i = 20
i = 21
i = 22
i = 23
i = 24
i = 25
i = 26
i = 27
i = 28
i = 29
i = 30
Refix G03: 2, 266574.921039, 1206
Refix G08: 2, 266574.922471, -4769
Refix G09: 2, 266574.920943, -4357
Refix G14: 2, 266574.920303, 2334
Refix G16: 2, 266574.932526, -157
Refix G23: 2, 266574.928591, -3112
Refix G26: 2, 266574.928277, 1098
Refix G27: 2, 266574.929257, -3635
Refix G31: 2, 266574.922264, 762
$GNGGA,020237.000,2944.9061,N,10633.0926,E,1,22,0.6,328.3,M,,,,0000*16
$GNRMC,020237.000,A,2944.9061,N,10633.0926,E,0.27,0.00,080519,,*16
$GPGSA,A,3,03,08,09,14,16,23,26,27,31,,,,0.7,0.6,0.4*35
$BDGSA,A,3,01,02,03,04,06,07,09,10,16,19,23,27,0.7,0.6,0.4*20
$GLGSA,A,3,,,,,,,,,,,,,0.7,0.6,0.4*2B
$GPGSV,3,1,09,03,20,234,43,08,23,188,40,09,18,318,41,14,15,146,38*7B
$GPGSV,3,2,09,16,69,349,44,23,52,305,43,26,46,034,43,27,50,159,43*7C
$GPGSV,3,3,09,31,26,086,43*4F
$BDGSV,3,1,12,01,40,125,40,02,45,218,41,03,54,172,43,04,23,110,41*62
$BDGSV,3,2,12,05,00,000,37,06,46,165,41,07,67,004,43,09,73,203,43*66
$BDGSV,3,3,12,10,63,293,43,16,53,171,43,19,19,304,42,23,25,070,41*64
$B3CN0,16,0,0,0,0,0,0,0,0,0,0,0,0,0*7B
$ini_pos,lastpos_good = 1,ini_pos.x:-1578915.705056,ini_pos.y:5312774.552427,ini_pos.z:3146356.075339
$rtc_local_time,localRTC.weeks:2052,localRTC.seconds:266576.531387,localGtime.weeks:2052,localGtime.seconds:266575.999999
i = 0
i = 1
i = 2
i = 3
i = 4
i = 5
i = 6
i = 7
i = 8
i = 9
i = 10
i = 11
i = 12
i = 13
i = 14
i = 15
i = 16
i = 17
i = 18
i = 19
i = 20
i = 21
i = 22
i = 23
i = 24
i = 25
i = 26
i = 27
i = 28
i = 29
i = 30
Refix G03: 2, 266575.921038, 1213
Refix G08: 2, 266575.922474, -4762
Refix G09: 2, 266575.920946, -4350
Refix G14: 2, 266575.920301, 2342
Refix G16: 2, 266575.932527, -149
Refix G23: 2, 266575.928593, -3103
Refix G26: 2, 266575.928276, 1105
Refix G27: 2, 266575.929259, -3627
Refix G31: 2, 266575.922263, 769
$GNGGA,020238.000,2944.9061,N,10633.0927,E,1,22,0.6,328.5,M,,,,0000*1E
$GNRMC,020238.000,A,2944.9061,N,10633.0927,E,0.06,0.00,080519,,*1B
$GPGSA,A,3,03,08,09,14,16,23,26,27,31,,,,0.7,0.6,0.4*35
$BDGSA,A,3,01,02,03,04,06,07,09,10,16,19,23,27,0.7,0.6,0.4*20
$GLGSA,A,3,,,,,,,,,,,,,0.7,0.6,0.4*2B
$GPGSV,3,1,09,03,20,234,42,08,23,188,40,09,18,318,42,14,15,146,38*79
$GPGSV,3,2,09,16,69,349,44,23,52,305,43,26,46,034,43,27,50,159,43*7C
$GPGSV,3,3,09,31,26,086,42*4E
$BDGSV,3,1,12,01,40,125,40,02,45,218,41,03,54,172,43,04,23,110,41*62
$BDGSV,3,2,12,05,00,000,38,06,46,165,41,07,67,004,43,09,73,203,43*69
$BDGSV,3,3,12,10,63,293,43,16,53,171,43,19,19,304,43,23,25,070,41*65
$B3CN0,21,22,0,0,0,0,0,0,0,0,0,0,0,0*4F
$ini_pos,lastpos_good = 1,ini_pos.x:-1578915.822127,ini_pos.y:5312774.701265,ini_pos.z:3146356.112204
$rtc_local_time,localRTC.weeks:2052,localRTC.seconds:266577.531387,localGtime.weeks:2052,localGtime.seconds:266576.999999
i = 0
i = 1
i = 2
i = 3
i = 4
i = 5
i = 6
i = 7
i = 8
i = 9
i = 10
i = 11
i = 12
i = 13
i = 14
i = 15
i = 16
i = 17
i = 18
i = 19
i = 20
i = 21
i = 22
i = 23
i = 24
i = 25
i = 26
i = 27
i = 28
i = 29
i = 30
i = 31
i = 32
Refix G03: 2, 266576.921038, 1211
Refix G08: 2, 266576.922476, -4764
Refix G09: 2, 266576.920949, -4352
Refix G14: 2, 266576.920300, 2339
Refix G16: 2, 266576.932527, -153
Refix G23: 2, 266576.928595, -3107
Refix G26: 2, 266576.928276, 1101
Refix G27: 2, 266576.929261, -3630
Refix G31: 2, 266576.922263, 766
$GNGGA,020239.000,2944.9061,N,10633.0928,E,1,22,0.6,328.7,M,,,,0000*12
$GNRMC,020239.000,A,2944.9061,N,10633.0928,E,0.16,0.00,080519,,*14
$GPGSA,A,3,03,08,09,14,16,23,26,27,31,,,,0.7,0.6,0.4*35
$BDGSA,A,3,01,02,03,04,06,07,09,10,16,19,23,27,0.7,0.6,0.4*20
$GLGSA,A,3,,,,,,,,,,,,,0.7,0.6,0.4*2B
$GPGSV,3,1,09,03,20,234,42,08,23,188,40,09,18,318,41,14,15,146,39*7B
$GPGSV,3,2,09,16,69,349,45,23,52,305,43,26,46,034,43,27,50,159,44*7A
$GPGSV,3,3,09,31,26,086,42*4E
$BDGSV,3,1,12,01,40,125,40,02,45,218,40,03,54,172,43,04,23,110,41*63
$BDGSV,3,2,12,05,00,000,38,06,46,165,41,07,67,004,43,09,73,203,42*68
$BDGSV,3,3,12,10,63,293,43,16,53,171,43,19,19,304,42,23,25,070,40*65
$B3CN0,17,20,0,0,0,0,0,0,0,0,0,0,0,0*48
$GLGSV,2,1,07,08,00,000,45,07,00,000,46,19,00,000,38,20,00,000,41*69
$GLGSV,2,2,07,09,00,000,46,06,00,000,33,26,00,000,44*5B
$ini_pos,lastpos_good = 1,ini_pos.x:-1578916.077809,ini_pos.y:5312774.875859,ini_pos.z:3146356.260163
$rtc_local_time,localRTC.weeks:2052,localRTC.seconds:266578.531387,localGtime.weeks:2052,localGtime.seconds:266577.999999
i = 0
i = 1
i = 2
i = 3
i = 4
i = 5
i = 6
i = 7
i = 8
i = 9
i = 10
i = 11
i = 12
i = 13
i = 14
i = 15
i = 16
i = 17
i = 18
i = 19
i = 20
i = 21
i = 22
i = 23
i = 24
i = 25
i = 26
i = 27
i = 28
i = 29
i = 30
i = 31
i = 32
Refix G03: 2, 266577.921037, 1213
Refix G08: 2, 266577.922479, -4762
Refix G09: 2, 266577.920952, -4350
Refix G14: 2, 266577.920298, 2341
Refix G16: 2, 266577.932527, -149
Refix G23: 2, 266577.928597, -3104
Refix G26: 2, 266577.928275, 1104
Refix G27: 2, 266577.929263, -3627
Refix G31: 2, 266577.922262, 768
$GNGGA,020240.000,2944.9061,N,10633.0929,E,1,22,0.6,329.0,M,,,,0000*1B
$GNRMC,020240.000,A,2944.9061,N,10633.0929,E,0.07,0.00,080519,,*1B
$GPGSA,A,3,03,08,09,14,16,23,26,27,31,,,,0.7,0.6,0.4*35
$BDGSA,A,3,01,02,03,04,06,07,09,10,16,19,23,27,0.7,0.6,0.4*20
$GLGSA,A,3,,,,,,,,,,,,,0.7,0.6,0.4*2B
$GPGSV,3,1,09,03,20,234,42,08,23,188,40,09,18,318,41,14,15,146,38*7A
$GPGSV,3,2,09,16,69,349,45,23,52,305,44,26,46,034,44,27,50,159,44*7A
$GPGSV,3,3,09,31,26,086,42*4E
$BDGSV,3,1,12,01,40,125,40,02,45,218,40,03,54,172,43,04,23,110,41*63
$BDGSV,3,2,12,05,00,000,37,06,46,165,41,07,67,004,44,09,73,203,42*60
$BDGSV,3,3,12,10,63,293,43,16,53,171,43,19,19,304,42,23,25,070,41*64
$B3CN0,0,36,0,0,0,0,0,0,0,0,0,0,0,0*79
$GLGSV,2,1,07,08,40,298,45,07,44,223,46,19,30,072,38,20,23,136,41*6E
$GLGSV,2,2,07,09,41,019,46,06,09,181,32,26,00,000,45*57
$ini_pos,lastpos_good = 1,ini_pos.x:-1578916.260046,ini_pos.y:5312775.099507,ini_pos.z:3146356.422332
$rtc_local_time,localRTC.weeks:2052,localRTC.seconds:266579.531387,localGtime.weeks:2052,localGtime.seconds:266578.999999
i = 0
i = 1
i = 2
i = 3
i = 4
i = 5
i = 6
i = 7
i = 8
i = 9
i = 10
i = 11
i = 12
i = 13
i = 14
i = 15
i = 16
i = 17
i = 18
i = 19
i = 20
i = 21
i = 22
i = 23
i = 24
i = 25
i = 26
i = 27
i = 28
i = 29
i = 30
i = 31
Refix G03: 2, 266578.921036, 1215
Refix G08: 2, 266578.922482, -4760
Refix G09: 2, 266578.920954, -4348
Refix G14: 2, 266578.920297, 2344
Refix G16: 2, 266578.932527, -146
Refix G23: 2, 266578.928599, -3101
Refix G26: 2, 266578.928274, 1107
Refix G27: 2, 266578.929266, -3624
Refix G31: 2, 266578.922262, 772
$GNGGA,020241.000,2944.9062,N,10633.0929,E,1,28,0.6,329.2,M,,,,0000*11
$GNRMC,020241.000,A,2944.9062,N,10633.0929,E,0.22,0.00,080519,,*1E
$GPGSA,A,3,03,08,09,14,16,23,26,27,31,,,,0.7,0.6,0.4*35
$BDGSA,A,3,01,02,03,04,06,07,09,10,16,19,23,27,0.7,0.6,0.4*20
$GLGSA,A,3,06,07,08,09,19,20,,,,,,,0.7,0.6,0.4*21
$GPGSV,3,1,09,03,20,234,43,08,23,188,40,09,18,318,42,14,15,146,39*79
$GPGSV,3,2,09,16,69,349,45,23,52,305,44,26,46,034,44,27,50,159,44*7A
$GPGSV,3,3,09,31,26,086,42*4E
$BDGSV,3,1,12,01,40,125,40,02,45,218,40,03,54,172,45,04,23,110,40*64
$BDGSV,3,2,12,05,00,000,37,06,46,165,41,07,67,004,44,09,73,203,43*61
$BDGSV,3,3,12,10,63,293,44,16,53,171,43,19,19,304,43,23,25,070,41*62
$B3CN0,0,17,0,0,0,0,0,0,0,0,0,0,0,0*7A
$GLGSV,2,1,07,08,40,298,45,07,44,223,46,19,30,072,38,20,23,136,41*6E
$GLGSV,2,2,07,09,41,019,46,06,09,181,32,26,00,000,45*57
$ini_pos,lastpos_good = 1,ini_pos.x:-1578916.250248,ini_pos.y:5312775.191039,ini_pos.z:3146356.651207
$rtc_local_time,localRTC.weeks:2052,localRTC.seconds:266580.531387,localGtime.weeks:2052,localGtime.seconds:266579.999999
i = 0
i = 1
i = 2
i = 3
i = 4
i = 5
i = 6
i = 7
i = 8
i = 9
i = 10
i = 11
i = 12
i = 13
i = 14
i = 15
i = 16
i = 17
i = 18
i = 19
i = 20
i = 21
i = 22
i = 23
i = 24
i = 25
i = 26
i = 27
i = 28
i = 29
i = 30
i = 31
Refix G03: 2, 266579.921035, 1211
Refix G08: 2, 266579.922485, -4764
Refix G09: 2, 266579.920957, -4352
Refix G14: 2, 266579.920295, 2340
Refix G16: 2, 266579.932527, -151
Refix G23: 2, 266579.928601, -3105
Refix G26: 2, 266579.928273, 1102
Refix G27: 2, 266579.929268, -3628
Refix G31: 2, 266579.922261, 767
$GNGGA,020242.000,2944.9062,N,10633.0930,E,1,28,0.5,328.9,M,,,,0000*13
$GNRMC,020242.000,A,2944.9062,N,10633.0930,E,0.05,0.00,080519,,*10
$GPGSA,A,3,03,08,09,14,16,23,26,27,31,,,,0.6,0.5,0.3*30
$BDGSA,A,3,01,02,03,04,06,07,09,10,16,19,23,27,0.6,0.5,0.3*25
$GLGSA,A,3,06,07,08,09,19,20,,,,,,,0.6,0.5,0.3*24
$GPGSV,3,1,09,03,20,234,42,08,23,188,40,09,18,318,42,14,15,146,39*78
$GPGSV,3,2,09,16,69,349,45,23,52,305,44,26,46,034,44,27,50,159,44*7A
$GPGSV,3,3,09,31,26,086,42*4E
$BDGSV,3,1,12,01,40,125,41,02,45,218,40,03,54,172,43,04,23,110,41*62
$BDGSV,3,2,12,05,00,000,37,06,46,165,41,07,67,004,43,09,73,203,43*66
$BDGSV,3,3,12,10,63,293,43,16,53,171,43,19,19,304,43,23,25,070,40*64
$B3CN0,0,0,0,0,0,0,0,0,0,0,0,0,0,0*4C
$GLGSV,2,1,07,08,40,298,45,07,44,223,46,19,30,072,38,20,23,136,41*6E
$GLGSV,2,2,07,09,41,019,46,06,09,181,32,26,00,000,45*57
$ini_pos,lastpos_good = 1,ini_pos.x:-1578916.315563,ini_pos.y:5312774.833516,ini_pos.z:3146356.511342
$rtc_local_time,localRTC.weeks:2052,localRTC.seconds:266581.531387,localGtime.weeks:2052,localGtime.seconds:266580.999999
i = 0
i = 1
i = 2
i = 3
i = 4
i = 5
i = 6
i = 7
i = 8
i = 9
i = 10
i = 11
i = 12
i = 13
i = 14
i = 15
i = 16
i = 17
i = 18
i = 19
i = 20
i = 21
i = 22
i = 23
i = 24
i = 25
i = 26
i = 27
i = 28
i = 29
i = 30
i = 31
Refix G03: 2, 266580.921034, 1204
Refix G08: 2, 266580.922488, -4771
Refix G09: 2, 266580.920960, -4359
Refix G14: 2, 266580.920294, 2333
Refix G16: 2, 266580.932527, -159
Refix G23: 2, 266580.928603, -3113
Refix G26: 2, 266580.928273, 1095
Refix G27: 2, 266580.929270, -3636
Refix G31: 2, 266580.922261, 759
$GNGGA,020243.000,2944.9062,N,10633.0930,E,1,28,0.5,329.1,M,,,,0000*1B
$GNRMC,020243.000,A,2944.9062,N,10633.0930,E,0.14,0.00,080519,,*11
$GPGSA,A,3,03,08,09,14,16,23,26,27,31,,,,0.6,0.5,0.3*30
$BDGSA,A,3,01,02,03,04,06,07,09,10,16,19,23,27,0.6,0.5,0.3*25
$GLGSA,A,3,06,07,08,09,19,20,,,,,,,0.6,0.5,0.3*24
$GPGSV,3,1,09,03,20,234,42,08,23,188,40,09,18,318,41,14,15,146,38*7A
$GPGSV,3,2,09,16,69,349,45,23,52,305,45,26,46,034,44,27,50,159,44*7B
$GPGSV,3,3,09,31,26,086,42*4E
$BDGSV,3,1,12,01,40,125,40,02,45,218,40,03,54,172,45,04,23,110,41*65
$BDGSV,3,2,12,05,00,000,39,06,46,165,41,07,67,004,44,09,73,203,43*6F
$BDGSV,3,3,12,10,63,293,43,16,53,171,43,19,19,304,43,23,25,070,41*65
$B3CN0,0,0,0,0,0,0,0,0,0,0,0,0,0,0*4C
$GLGSV,2,1,07,08,40,298,45,07,44,223,46,19,30,072,38,20,23,136,41*6E
$GLGSV,2,2,07,09,41,019,46,06,09,181,32,26,00,000,45*57
$ini_pos,lastpos_good = 1,ini_pos.x:-1578916.488099,ini_pos.y:5312774.928705,ini_pos.z:3146356.616055
$rtc_local_time,localRTC.weeks:2052,localRTC.seconds:266582.531387,localGtime.weeks:2052,localGtime.seconds:266581.999999
i = 0
i = 1
i = 2
i = 3
i = 4
i = 5
i = 6
i = 7
i = 8
i = 9
i = 10
i = 11
i = 12
i = 13
i = 14
i = 15
i = 16
i = 17
i = 18
i = 19
i = 20
i = 21
i = 22
i = 23
i = 24
i = 25
i = 26
i = 27
i = 28
i = 29
i = 30
i = 31
i = 32
Refix G03: 2, 266581.921034, 1208
Refix G08: 2, 266581.922491, -4767
Refix G09: 2, 266581.920962, -4355
Refix G14: 2, 266581.920292, 2337
Refix G16: 2, 266581.932527, -153
Refix G23: 2, 266581.928605, -3107
Refix G26: 2, 266581.928272, 1100
Refix G27: 2, 266581.929273, -3630
Refix G31: 2, 266581.922260, 764
$GNGGA,020244.000,2944.9062,N,10633.0931,E,1,28,0.5,329.3,M,,,,0000*1F
$GNRMC,020244.000,A,2944.9062,N,10633.0931,E,0.11,0.00,080519,,*12
$GPGSA,A,3,03,08,09,14,16,23,26,27,31,,,,0.6,0.5,0.3*30
$BDGSA,A,3,01,02,03,04,06,07,09,10,16,19,23,27,0.6,0.5,0.3*25
$GLGSA,A,3,06,07,08,09,19,20,,,,,,,0.6,0.5,0.3*24
$GPGSV,3,1,09,03,20,234,42,08,23,188,40,09,18,318,41,14,15,146,39*7B
$GPGSV,3,2,09,16,69,349,45,23,52,305,45,26,46,034,44,27,50,159,44*7B
$GPGSV,3,3,09,31,26,086,42*4E
$BDGSV,3,1,12,01,40,125,42,02,45,218,40,03,54,172,43,04,23,110,41*61
$BDGSV,3,2,12,05,00,000,36,06,46,165,41,07,67,004,43,09,73,203,43*67
$BDGSV,3,3,12,10,63,293,43,16,53,171,43,19,19,304,43,23,25,070,41*65
$B3CN0,20,0,0,0,0,0,0,0,0,0,0,0,0,0*7E
$GLGSV,2,1,07,08,40,298,45,07,44,223,46,19,30,072,38,20,23,136,41*6E
$GLGSV,2,2,07,09,41,019,46,06,09,181,33,26,00,000,45*56
$ini_pos,lastpos_good = 1,ini_pos.x:-1578916.669979,ini_pos.y:5312775.057384,ini_pos.z:3146356.712371
$rtc_local_time,localRTC.weeks:2052,localRTC.seconds:266583.531387,localGtime.weeks:2052,localGtime.seconds:266582.999999
i = 0
i = 1
i = 2
i = 3
i = 4
i = 5
i = 6
i = 7
i = 8
i = 9
i = 10
i = 11
i = 12
i = 13
i = 14
i = 15
i = 16
i = 17
i = 18
i = 19
i = 20
i = 21
i = 22
i = 23
i = 24
i = 25
i = 26
i = 27
i = 28
i = 29
i = 30
i = 31
i = 32
Refix G03: 2, 266582.921033, 1206
Refix G08: 2, 266582.922494, -4768
Refix G09: 2, 266582.920965, -4357
Refix G14: 2, 266582.920291, 2336
Refix G16: 2, 266582.932527, -154
Refix G23: 2, 266582.928607, -3108
Refix G26: 2, 266582.928271, 1099
Refix G27: 2, 266582.929275, -3631
Refix G31: 2, 266582.922260, 763
$GNGGA,020245.000,2944.9062,N,10633.0932,E,1,28,0.5,329.0,M,,,,0000*1E
$GNRMC,020245.000,A,2944.9062,N,10633.0932,E,0.26,0.00,080519,,*14
$GPGSA,A,3,03,08,09,14,16,23,26,27,31,,,,0.6,0.5,0.3*30
$BDGSA,A,3,01,02,03,04,06,07,09,10,16,19,23,27,0.6,0.5,0.3*25
$GLGSA,A,3,06,07,08,09,19,20,,,,,,,0.6,0.5,0.3*24
$GPGSV,3,1,09,03,20,234,43,08,23,188,40,09,18,318,41,14,15,146,39*7A
$GPGSV,3,2,09,16,69,349,44,23,52,305,44,26,46,034,43,27,50,159,44*7C
$GPGSV,3,3,09,31,26,086,42*4E
$BDGSV,3,1,12,01,40,125,41,02,45,218,41,03,54,172,43,04,23,110,40*62
$BDGSV,3,2,12,05,00,000,37,06,46,165,42,07,67,004,44,09,73,203,43*62
$BDGSV,3,3,12,10,63,293,43,16,53,171,43,19,19,304,43,23,25,070,40*64
$B3CN0,18,0,0,0,0,0,0,0,0,0,0,0,0,0*75
$GLGSV,2,1,07,08,40,298,45,07,44,223,46,19,30,072,38,20,23,136,41*6E
$GLGSV,2,2,07,09,41,019,46,06,09,181,32,26,00,000,45*57
$ini_pos,lastpos_good = 1,ini_pos.x:-1578916.686988,ini_pos.y:5312774.849111,ini_pos.z:3146356.619205
$rtc_local_time,localRTC.weeks:2052,localRTC.seconds:266584.531387,localGtime.weeks:2052,localGtime.seconds:266583.999999
i = 0
i = 1
i = 2
i = 3
i = 4
i = 5
i = 6
i = 7
i = 8
i = 9
i = 10
i = 11
i = 12
i = 13
i = 14
i = 15
i = 16
i = 17
i = 18
i = 19
i = 20
i = 21
i = 22
i = 23
i = 24
i = 25
i = 26
i = 27
i = 28
i = 29
i = 30
i = 31
Refix G03: 2, 266583.921032, 1204
Refix G08: 2, 266583.922497, -4771
Refix G09: 2, 266583.920968, -4359
Refix G14: 2, 266583.920289, 2333
Refix G16: 2, 266583.932527, -156
Refix G23: 2, 266583.928609, -3111
Refix G26: 2, 266583.928271, 1096
Refix G27: 2, 266583.929277, -3633
Refix G31: 2, 266583.922259, 760
$GNGGA,020246.000,2944.9063,N,10633.0932,E,1,28,0.5,328.8,M,,,,0000*15
$GNRMC,020246.000,A,2944.9063,N,10633.0932,E,0.23,0.00,080519,,*13
$GPGSA,A,3,03,08,09,14,16,23,26,27,31,,,,0.6,0.5,0.3*30
$BDGSA,A,3,01,02,03,04,06,07,09,10,16,19,23,27,0.6,0.5,0.3*25
$GLGSA,A,3,06,07,08,09,19,20,,,,,,,0.6,0.5,0.3*24
$GPGSV,3,1,09,03,20,234,42,08,23,188,40,09,18,318,42,14,15,146,38*79
$GPGSV,3,2,09,16,69,349,44,23,52,305,44,26,46,034,44,27,50,159,44*7B
$GPGSV,3,3,09,31,26,086,42*4E
$BDGSV,3,1,12,01,40,125,40,02,45,218,41,03,54,172,45,04,23,110,40*65
$BDGSV,3,2,12,05,00,000,35,06,46,165,41,07,67,004,44,09,73,203,43*63
$BDGSV,3,3,12,10,63,293,43,16,53,171,43,19,19,304,43,23,25,070,41*65
$B3CN0,0,0,0,0,0,0,0,0,0,0,0,0,0,0*4C
$GLGSV,2,1,08,08,40,298,46,07,44,223,46,19,30,072,38,20,23,136,41*62
$GLGSV,2,2,08,09,41,019,45,06,09,181,32,26,00,000,45,01,08,331,00*63
$ini_pos,lastpos_good = 1,ini_pos.x:-1578916.656660,ini_pos.y:5312774.620163,ini_pos.z:3146356.582671
$rtc_local_time,localRTC.weeks:2052,localRTC.seconds:266585.531387,localGtime.weeks:2052,localGtime.seconds:266584.999999
i = 0
i = 1
i = 2
i = 3
i = 4
i = 5
i = 6
i = 7
i = 8
i = 9
i = 10
i = 11
i = 12
i = 13
i = 14
i = 15
i = 16
i = 17
i = 18
i = 19
i = 20
i = 21
i = 22
i = 23
i = 24
i = 25
i = 26
i = 27
i = 28
i = 29
i = 30
i = 31
i = 32
Refix G03: 2, 266584.921031, 1207
Refix G08: 2, 266584.922500, -4767
Refix G09: 2, 266584.920971, -4355
Refix G14: 2, 266584.920287, 2336
Refix G16: 2, 266584.932527, -152
Refix G23: 2, 266584.928611, -3106
Refix G26: 2, 266584.928270, 1100
Refix G27: 2, 266584.929279, -3629
Refix G31: 2, 266584.922259, 764
$GNGGA,020247.000,2944.9063,N,10633.0933,E,1,28,0.5,328.5,M,,,,0000*18
$GNRMC,020247.000,A,2944.9063,N,10633.0933,E,0.11,0.00,080519,,*12
$GPGSA,A,3,03,08,09,14,16,23,26,27,31,,,,0.6,0.5,0.3*30
$BDGSA,A,3,01,02,03,04,06,07,09,10,16,19,23,27,0.6,0.5,0.3*25
$GLGSA,A,3,06,07,08,09,19,20,,,,,,,0.6,0.5,0.3*24
$GPGSV,3,1,09,03,20,234,42,08,23,188,41,09,18,318,41,14,15,146,39*7A
$GPGSV,3,2,09,16,69,349,44,23,52,305,44,26,46,034,43,27,50,159,44*7C
$GPGSV,3,3,09,31,26,086,42*4E
$BDGSV,3,1,12,01,40,125,41,02,45,218,40,03,54,172,41,04,23,110,40*61
$BDGSV,3,2,12,05,00,000,39,06,46,165,42,07,67,004,43,09,73,203,43*6B
$BDGSV,3,3,12,10,63,293,43,16,53,171,43,19,19,304,43,23,25,070,40*64
$B3CN0,0,0,0,0,0,0,0,0,0,0,0,0,0,0*4C
$GLGSV,2,1,08,08,40,298,46,07,44,223,46,19,30,072,38,20,23,136,41*62
$GLGSV,2,2,08,09,41,019,46,06,09,181,32,26,00,000,45,01,08,331,00*60
$ini_pos,lastpos_good = 1,ini_pos.x:-1578916.684222,ini_pos.y:5312774.342724,ini_pos.z:3146356.434858
$rtc_local_time,localRTC.weeks:2052,localRTC.seconds:266586.531387,localGtime.weeks:2052,localGtime.seconds:266585.999999
i = 0
i = 1
i = 2
i = 3
i = 4
i = 5
i = 6
i = 7
i = 8
i = 9
i = 10
i = 11
i = 12
i = 13
i = 14
i = 15
i = 16
i = 17
i = 18
i = 19
i = 20
i = 21
i = 22
i = 23
i = 24
i = 25
i = 26
i = 27
i = 28
i = 29
i = 30
i = 31
Refix G03: 2, 266585.921030, 1208
Refix G08: 2, 266585.922503, -4767
Refix G09: 2, 266585.920973, -4355
Refix G14: 2, 266585.920286, 2337
Refix G16: 2, 266585.932527, -152
Refix G23: 2, 266585.928613, -3106
Refix G26: 2, 266585.928269, 1099
Refix G27: 2, 266585.929282, -3629
Refix G31: 2, 266585.922258, 763
$GNGGA,020248.000,2944.9062,N,10633.0933,E,1,28,0.5,328.3,M,,,,0000*10
$GNRMC,020248.000,A,2944.9062,N,10633.0933,E,0.17,0.00,080519,,*1A
$GPGSA,A,3,03,08,09,14,16,23,26,27,31,,,,0.6,0.5,0.3*30
$BDGSA,A,3,01,02,03,04,06,07,09,10,16,19,23,27,0.6,0.5,0.3*25
$GLGSA,A,3,06,07,08,09,19,20,,,,,,,0.6,0.5,0.3*24
$GPGSV,3,1,09,03,20,234,42,08,23,188,40,09,18,318,42,14,15,146,38*79
$GPGSV,3,2,09,16,69,349,44,23,52,305,44,26,46,034,43,27,50,159,44*7C
$GPGSV,3,3,09,31,26,086,43*4F
$BDGSV,3,1,12,01,40,125,41,02,45,218,40,03,54,172,43,04,23,110,40*63
$BDGSV,3,2,12,05,00,000,39,06,46,165,42,07,67,004,43,09,73,203,43*6B
$BDGSV,3,3,12,10,63,293,43,16,53,171,43,19,19,304,43,23,25,070,41*65
$B3CN0,18,0,0,0,0,0,0,0,0,0,0,0,0,0*75
$GLGSV,2,1,08,08,40,298,45,07,44,223,46,19,30,072,38,20,23,136,40*60
$GLGSV,2,2,08,09,41,019,46,06,09,181,32,26,00,000,44,01,08,331,00*61
$ini_pos,lastpos_good = 1,ini_pos.x:-1578916.725667,ini_pos.y:5312774.101115,ini_pos.z:3146356.264432
$rtc_local_time,localRTC.weeks:2052,localRTC.seconds:266587.531387,localGtime.weeks:2052,localGtime.seconds:266586.999999
i = 0
i = 1
i = 2
i = 3
i = 4
i = 5
i = 6
i = 7
i = 8
i = 9
i = 10
i = 11
i = 12
i = 13
i = 14
i = 15
i = 16
i = 17
i = 18
i = 19
i = 20
i = 21
i = 22
i = 23
i = 24
i = 25
i = 26
i = 27
i = 28
i = 29
i = 30
i = 31
Refix G03: 2, 266586.921030, 1206
Refix G08: 2, 266586.922506, -4769
Refix G09: 2, 266586.920976, -4357
Refix G14: 2, 266586.920284, 2335
Refix G16: 2, 266586.932527, -154
Refix G23: 2, 266586.928614, -3108
Refix G26: 2, 266586.928268, 1098
Refix G27: 2, 266586.929284, -3631
Refix G31: 2, 266586.922258, 761
$GNGGA,020249.000,2944.9062,N,10633.0933,E,1,28,0.5,327.9,M,,,,0000*14
$GNRMC,020249.000,A,2944.9062,N,10633.0933,E,0.09,0.00,080519,,*14
$GPGSA,A,3,03,08,09,14,16,23,26,27,31,,,,0.6,0.5,0.3*30
$BDGSA,A,3,01,02,03,04,06,07,09,10,16,19,23,27,0.6,0.5,0.3*25
$GLGSA,A,3,06,07,08,09,19,20,,,,,,,0.6,0.5,0.3*24
$GPGSV,3,1,09,03,20,234,42,08,23,188,40,09,18,318,42,14,15,146,38*79
$GPGSV,3,2,09,16,69,349,44,23,52,305,43,26,46,034,43,27,50,159,44*7B
$GPGSV,3,3,09,31,26,086,42*4E
$BDGSV,3,1,12,01,40,125,41,02,45,218,40,03,54,172,43,04,23,110,40*63
$BDGSV,3,2,12,05,00,000,39,06,46,165,41,07,67,004,44,09,73,203,43*6F
$BDGSV,3,3,12,10,63,293,43,16,53,171,43,19,19,304,43,23,25,070,41*65
$B3CN0,0,18,0,0,0,0,0,0,0,0,0,0,0,0*75
$GLGSV,2,1,08,08,40,298,46,07,44,223,46,19,30,072,38,20,23,136,41*62
$GLGSV,2,2,08,09,41,019,46,06,09,181,32,26,00,000,44,01,08,331,00*61
$ini_pos,lastpos_good = 1,ini_pos.x:-1578916.584966,ini_pos.y:5312773.800078,ini_pos.z:3146356.094583
$rtc_local_time,localRTC.weeks:2052,localRTC.seconds:266588.531387,localGtime.weeks:2052,localGtime.seconds:266587.999999
i = 0
i = 1
i = 2
i = 3
i = 4
i = 5
i = 6
i = 7
i = 8
i = 9
i = 10
i = 11
i = 12
i = 13
i = 14
i = 15
i = 16
i = 17
i = 18
i = 19
i = 20
i = 21
i = 22
i = 23
i = 24
i = 25
i = 26
i = 27
i = 28
i = 29
i = 30
i = 31
i = 32
Refix G03: 2, 266587.921029, 1206
Refix G08: 2, 266587.922509, -4769
Refix G09: 2, 266587.920979, -4356
Refix G14: 2, 266587.920283, 2335
Refix G16: 2, 266587.932527, -153
Refix G23: 2, 266587.928616, -3107
Refix G26: 2, 266587.928268, 1098
Refix G27: 2, 266587.929286, -3630
Refix G31: 2, 266587.922257, 762
$GNGGA,020250.000,2944.9062,N,10633.0933,E,1,28,0.5,327.8,M,,,,0000*1D
$GNRMC,020250.000,A,2944.9062,N,10633.0933,E,0.06,0.00,080519,,*13
$GPGSA,A,3,03,08,09,14,16,23,26,27,31,,,,0.6,0.5,0.3*30
$BDGSA,A,3,01,02,03,04,06,07,09,10,16,19,23,27,0.6,0.5,0.3*25
$GLGSA,A,3,06,07,08,09,19,20,,,,,,,0.6,0.5,0.3*24
$GPGSV,3,1,09,03,20,234,42,08,23,188,40,09,18,318,41,14,15,146,38*7A
$GPGSV,3,2,09,16,69,349,44,23,52,305,43,26,46,034,43,27,50,159,44*7B
$GPGSV,3,3,09,31,26,086,42*4E
$BDGSV,3,1,12,01,40,125,41,02,45,218,39,03,54,172,42,04,23,110,41*6D
$BDGSV,3,2,12,05,00,000,39,06,46,165,41,07,67,004,43,09,73,203,43*68
$BDGSV,3,3,12,10,63,293,43,16,53,171,43,19,19,304,43,23,25,070,40*64
$B3CN0,0,0,0,0,0,0,0,0,0,0,0,0,0,0*4C
$GLGSV,2,1,08,08,40,298,45,07,44,223,46,19,30,072,38,20,23,136,40*60
$GLGSV,2,2,08,09,41,019,45,06,09,181,31,26,00,000,44,01,08,331,00*61
$ini_pos,lastpos_good = 1,ini_pos.x:-1578916.643539,ini_pos.y:5312773.770955,ini_pos.z:3146355.993149
$rtc_local_time,localRTC.weeks:2052,localRTC.seconds:266589.531387,localGtime.weeks:2052,localGtime.seconds:266588.999999
i = 0
i = 1
i = 2
i = 3
i = 4
i = 5
i = 6
i = 7
i = 8
i = 9
i = 10
i = 11
i = 12
i = 13
i = 14
i = 15
i = 16
i = 17
i = 18
i = 19
i = 20
i = 21
i = 22
i = 23
i = 24
i = 25
i = 26
i = 27
i = 28
i = 29
i = 30
i = 31
Refix G03: 2, 266588.921028, 1202
Refix G08: 2, 266588.922512, -4773
Refix G09: 2, 266588.920982, -4359
Refix G14: 2, 266588.920281, 2331
Refix G16: 2, 266588.932527, -157
Refix G23: 2, 266588.928618, -3111
Refix G26: 2, 266588.928267, 1094
Refix G27: 2, 266588.929288, -3634
Refix G31: 2, 266588.922257, 758
$GNGGA,020251.000,2944.9062,N,10633.0933,E,1,28,0.5,327.5,M,,,,0000*11
$GNRMC,020251.000,A,2944.9062,N,10633.0933,E,0.25,0.00,080519,,*13
$GPGSA,A,3,03,08,09,14,16,23,26,27,31,,,,0.6,0.5,0.3*30
$BDGSA,A,3,01,02,03,04,06,07,09,10,16,19,23,27,0.6,0.5,0.3*25
$GLGSA,A,3,06,07,08,09,19,20,,,,,,,0.6,0.5,0.3*24
$GPGSV,3,1,09,03,20,234,42,08,23,188,40,09,18,318,42,14,15,146,38*79
$GPGSV,3,2,09,16,69,349,44,23,52,305,44,26,46,034,44,27,50,159,44*7B
$GPGSV,3,3,09,31,26,086,43*4F
$BDGSV,3,1,12,01,40,125,41,02,45,218,40,03,54,172,43,04,23,110,41*62
$BDGSV,3,2,12,05,00,000,37,06,46,165,41,07,67,004,44,09,73,203,43*61
$BDGSV,3,3,12,10,63,293,43,16,53,171,43,19,19,304,42,23,25,070,41*64
$B3CN0,0,0,0,0,0,0,0,0,0,0,0,0,0,0*4C
$GLGSV,2,1,08,08,40,298,45,07,44,223,46,19,30,072,38,20,23,136,40*60
$GLGSV,2,2,08,09,41,019,46,06,09,181,32,26,00,000,45,01,08,331,00*60
$ini_pos,lastpos_good = 1,ini_pos.x:-1578916.582446,ini_pos.y:5312773.559229,ini_pos.z:3146355.823266
$rtc_local_time,localRTC.weeks:2052,localRTC.seconds:266590.531386,localGtime.weeks:2052,localGtime.seconds:266589.999999
i = 0
i = 1
i = 2
i = 3
i = 4
i = 5
i = 6
i = 7
i = 8
i = 9
i = 10
i = 11
i = 12
i = 13
i = 14
i = 15
i = 16
i = 17
i = 18
i = 19
i = 20
i = 21
i = 22
i = 23
i = 24
i = 25
i = 26
i = 27
i = 28
i = 29
i = 30
i = 31
Refix G03: 2, 266589.921027, 1204
Refix G08: 2, 266589.922515, -4771
Refix G09: 2, 266589.920984, -4358
Refix G14: 2, 266589.920280, 2333
Refix G16: 2, 266589.932527, -154
Refix G23: 2, 266589.928620, -3108
Refix G26: 2, 266589.928266, 1096
Refix G27: 2, 266589.929291, -3631
Refix G31: 2, 266589.922256, 760
$GNGGA,020252.000,2944.9061,N,10633.0933,E,1,28,0.5,327.3,M,,,,0000*17
$GNRMC,020252.000,A,2944.9061,N,10633.0933,E,0.12,0.00,080519,,*17
$GPGSA,A,3,03,08,09,14,16,23,26,27,31,,,,0.6,0.5,0.3*30
$BDGSA,A,3,01,02,03,04,06,07,09,10,16,19,23,27,0.6,0.5,0.3*25
$GLGSA,A,3,06,07,08,09,19,20,,,,,,,0.6,0.5,0.3*24
$GPGSV,3,1,09,03,20,234,42,08,23,188,40,09,18,318,42,14,15,146,39*78
$GPGSV,3,2,09,16,69,349,43,23,52,305,43,26,46,034,44,27,50,159,43*7C
$GPGSV,3,3,09,31,26,086,42*4E
$BDGSV,3,1,12,01,40,125,41,02,45,218,40,03,54,172,42,04,23,110,41*63
$BDGSV,3,2,12,05,00,000,37,06,46,165,42,07,67,004,43,09,73,203,43*65
$BDGSV,3,3,12,10,63,293,43,16,53,171,43,19,19,304,42,23,25,070,41*64
$B3CN0,0,19,0,0,0,0,0,0,0,0,0,0,0,0*74
$GLGSV,2,1,08,08,40,298,46,07,44,223,46,19,30,072,38,20,23,136,41*62
$GLGSV,2,2,08,09,41,019,46,06,09,181,32,26,00,000,45,01,08,331,00*60
$ini_pos,lastpos_good = 1,ini_pos.x:-1578916.533248,ini_pos.y:5312773.476433,ini_pos.z:3146355.554301
$rtc_local_time,localRTC.weeks:2052,localRTC.seconds:266591.531386,localGtime.weeks:2052,localGtime.seconds:266590.999999
i = 0
i = 1
i = 2
i = 3
i = 4
i = 5
i = 6
i = 7
i = 8
i = 9
i = 10
i = 11
i = 12
i = 13
i = 14
i = 15
i = 16
i = 17
i = 18
i = 19
i = 20
i = 21
i = 22
i = 23
i = 24
i = 25
i = 26
i = 27
i = 28
i = 29
i = 30
i = 31
i = 32
Refix G03: 2, 266590.921026, 1208
Refix G08: 2, 266590.922518, -4766
Refix G09: 2, 266590.920987, -4353
Refix G14: 2, 266590.920278, 2338
Refix G16: 2, 266590.932528, -149
Refix G23: 2, 266590.928622, -3103
Refix G26: 2, 266590.928265, 1101
Refix G27: 2, 266590.929293, -3626
Refix G31: 2, 266590.922256, 765
$GNGGA,020253.000,2944.9060,N,10633.0932,E,1,28,0.5,327.1,M,,,,0000*14
$GNRMC,020253.000,A,2944.9060,N,10633.0932,E,0.19,0.00,080519,,*1D
$GPGSA,A,3,03,08,09,14,16,23,26,27,31,,,,0.6,0.5,0.3*30
$BDGSA,A,3,01,02,03,04,06,07,09,10,16,19,23,27,0.6,0.5,0.3*25
$GLGSA,A,3,06,07,08,09,19,20,,,,,,,0.6,0.5,0.3*24
$GPGSV,3,1,09,03,20,234,42,08,23,188,40,09,18,318,42,14,15,146,39*78
$GPGSV,3,2,09,16,69,349,44,23,52,305,44,26,46,034,43,27,50,159,44*7C
$GPGSV,3,3,09,31,26,086,43*4F
$BDGSV,3,1,12,01,40,125,41,02,45,218,39,03,54,172,43,04,23,110,41*6C
$BDGSV,3,2,12,05,00,000,37,06,46,165,41,07,67,004,44,09,73,203,43*61
$BDGSV,3,3,12,10,63,293,43,16,53,171,43,19,19,304,42,23,25,070,41*64
$B3CN0,0,0,0,0,0,0,0,0,0,0,0,0,0,0*4C
$GLGSV,2,1,08,08,40,298,46,07,44,223,46,19,30,072,38,20,23,136,40*63
$GLGSV,2,2,08,09,41,019,46,06,09,181,32,26,00,000,45,01,08,331,00*60
$ini_pos,lastpos_good = 1,ini_pos.x:-1578916.357768,ini_pos.y:5312773.332067,ini_pos.z:3146355.350573
$rtc_local_time,localRTC.weeks:2052,localRTC.seconds:266592.531386,localGtime.weeks:2052,localGtime.seconds:266591.999999
i = 0
i = 1
i = 2
i = 3
i = 4
i = 5
i = 6
i = 7
i = 8
i = 9
i = 10
i = 11
i = 12
i = 13
i = 14
i = 15
i = 16
i = 17
i = 18
i = 19
i = 20
i = 21
i = 22
i = 23
i = 24
i = 25
i = 26
i = 27
i = 28
i = 29
i = 30
i = 31
Refix G03: 2, 266591.921026, 1206
Refix G08: 2, 266591.922521, -4768
Refix G09: 2, 266591.920990, -4356
Refix G14: 2, 266591.920277, 2336
Refix G16: 2, 266591.932528, -151
Refix G23: 2, 266591.928624, -3105
Refix G26: 2, 266591.928265, 1099
Refix G27: 2, 266591.929295, -3627
Refix G31: 2, 266591.922255, 763
$GNGGA,020254.000,2944.9060,N,10633.0932,E,1,29,0.5,326.6,M,,,,0000*14
$GNRMC,020254.000,A,2944.9060,N,10633.0932,E,0.21,0.00,080519,,*11
$GPGSA,A,3,03,08,09,14,16,23,26,27,31,,,,0.6,0.5,0.3*30
$BDGSA,A,3,01,02,03,04,05,06,07,09,10,16,19,23,0.6,0.5,0.3*25
$GLGSA,A,3,06,07,08,09,19,20,,,,,,,0.6,0.5,0.3*24
$GPGSV,3,1,09,03,20,234,42,08,23,188,40,09,18,318,42,14,15,146,38*79
$GPGSV,3,2,09,16,69,349,45,23,52,305,43,26,46,034,43,27,50,159,44*7A
$GPGSV,3,3,09,31,26,086,42*4E
$BDGSV,3,1,12,01,40,125,40,02,45,218,40,03,54,172,43,04,23,110,41*63
$BDGSV,3,2,12,05,00,000,36,06,46,165,41,07,67,004,43,09,73,203,43*67
$BDGSV,3,3,12,10,63,293,43,16,53,171,42,19,19,304,43,23,25,070,40*65
$B3CN0,0,0,0,0,0,0,0,0,0,0,0,0,0,0*4C
$GLGSV,2,1,08,08,40,298,46,07,44,223,46,19,30,072,38,20,23,136,40*63
$GLGSV,2,2,08,09,41,019,46,06,09,181,32,26,00,000,45,01,08,331,00*60
$ini_pos,lastpos_good = 1,ini_pos.x:-1578916.171620,ini_pos.y:5312773.000074,ini_pos.z:3146355.027079
$rtc_local_time,localRTC.weeks:2052,localRTC.seconds:266593.531386,localGtime.weeks:2052,localGtime.seconds:266592.999999
i = 0
i = 1
i = 2
i = 3
i = 4
i = 5
i = 6
i = 7
i = 8
i = 9
i = 10
i = 11
i = 12
i = 13
i = 14
i = 15
