把for（）加入观测量全屏蔽了  还是有错

$ini_pos,lastpos_good = 1,ini_pos.x:-1580523.000000,ini_pos.y:5314150.000000,ini_pos.z:3145984.000000
$rtc_local_time,localRTC.weeks:2052,localRTC.seconds:267149.026014,localGtime.weeks:2052,localGtime.seconds:270146.025917
$GNGGA,000000.000,,,,,0,00,,,M,,,,0000*2B
$GNRMC,000000.000,A,,,,,,,060180,,*29
$GPGSA,A,1,,,,,,,,,,,,,,,*1E
$BDGSA,A,1,,,,,,,,,,,,,,,*0F
$GLGSA,A,1,,,,,,,,,,,,,,,*02
$GPGSV,2,1,05,03,00,000,34,08,00,000,38,09,00,000,35,16,00,000,29*7B
$GPGSV,2,2,05,23,00,000,17*4B
$B3CN0,0,0,0,0,0,0,0,0,0,0,0,0,0,0*4C
$ini_pos,lastpos_good = 1,ini_pos.x:-1580523.000000,ini_pos.y:5314150.000000,ini_pos.z:3145984.000000
$rtc_local_time,localRTC.weeks:2052,localRTC.seconds:267150.026014,localGtime.weeks:2052,localGtime.seconds:271146.025885
$GNGGA,000000.000,,,,,0,00,,,M,,,,0000*2B
$GNRMC,000000.000,A,,,,,,,060180,,*29
$GPGSA,A,1,,,,,,,,,,,,,,,*1E
$BDGSA,A,1,,,,,,,,,,,,,,,*0F
$GLGSA,A,1,,,,,,,,,,,,,,,*02
$GPGSV,2,1,08,03,00,000,35,08,00,000,41,09,00,000,37,16,00,000,45*71
$GPGSV,2,2,08,23,00,000,45,26,00,000,39,27,00,000,39,31,00,000,31*70
$BDGSV,2,1,07,02,00,000,40,03,00,000,43,05,00,000,16,06,00,000,26*6E
$BDGSV,2,2,07,07,00,000,26,09,00,000,22,10,00,000,22*54
$B3CN0,0,0,0,0,0,0,0,0,0,0,0,0,0,0*4C
tow update,267151623.952677
$ini_pos,lastpos_good = 1,ini_pos.x:-1580523.000000,ini_pos.y:5314150.000000,ini_pos.z:3145984.000000
$rtc_local_time,localRTC.weeks:2052,localRTC.seconds:267151.026014,localGtime.weeks:2052,localGtime.seconds:267151.623953
$GNGGA,021213.624,,,,,0,00,,,M,,,,0000*28
$GNRMC,021213.624,A,,,,,,,080519,,*20
$GPGSA,A,1,,,,,,,,,,,,,,,*1E
$BDGSA,A,1,,,,,,,,,,,,,,,*0F
$GLGSA,A,1,,,,,,,,,,,,,,,*02
$GPGSV,2,1,08,03,00,000,36,08,00,000,41,09,00,000,36,16,00,000,44*72
$GPGSV,2,2,08,23,00,000,44,26,00,000,44,27,00,000,44,31,00,000,41*76
$BDGSV,2,1,08,01,00,000,40,02,00,000,40,03,00,000,43,06,00,000,42*64
$BDGSV,2,2,08,07,00,000,44,09,00,000,43,10,00,000,44,16,00,000,27*6A
$B3CN0,0,0,0,0,0,0,0,0,0,0,0,0,0,0*4C
$ini_pos,lastpos_good = 1,ini_pos.x:-1580523.000000,ini_pos.y:5314150.000000,ini_pos.z:3145984.000000
$rtc_local_time,localRTC.weeks:2052,localRTC.seconds:267152.026014,localGtime.weeks:2052,localGtime.seconds:267152.623953
$GNGGA,021214.624,,,,,0,00,,,M,,,,0000*2F
$GNRMC,021214.624,A,,,,,,,080519,,*27
$GPGSA,A,1,,,,,,,,,,,,,,,*1E
$BDGSA,A,1,,,,,,,,,,,,,,,*0F
$GLGSA,A,1,,,,,,,,,,,,,,,*02
$GPGSV,2,1,08,03,00,000,35,08,00,000,41,09,00,000,36,16,00,000,44*71
$GPGSV,2,2,08,23,00,000,44,26,00,000,44,27,00,000,44,31,00,000,41*76
$BDGSV,3,1,09,01,00,000,39,02,00,000,41,03,00,000,43,06,00,000,42*6B
$BDGSV,3,2,09,07,00,000,44,09,00,000,43,10,00,000,43,16,00,000,44*68
$BDGSV,3,3,09,23,00,000,29*5B
$B3CN0,0,0,0,0,0,0,0,0,0,0,0,0,0,0*4C
$ini_pos,lastpos_good = 1,ini_pos.x:-1580523.000000,ini_pos.y:5314150.000000,ini_pos.z:3145984.000000
$rtc_local_time,localRTC.weeks:2052,localRTC.seconds:267153.026014,localGtime.weeks:2052,localGtime.seconds:267153.623953
$GNGGA,021215.492,2944.4906,N,10633.3720,E,1,18,0.7,2595.4,M,,,,0000*2B
$GNRMC,021215.492,A,2944.4906,N,10633.3720,E,4.77,0.00,080519,,*17
$GPGSA,A,3,03,08,09,16,23,26,27,31,,,,,1.5,0.7,1.3*34
$BDGSA,A,3,01,02,03,06,07,09,10,16,23,28,,,1.5,0.7,1.3*27
$GLGSA,A,3,,,,,,,,,,,,,1.5,0.7,1.3*2F
$GPGSV,2,1,08,03,00,000,36,08,00,000,41,09,00,000,37,16,00,000,44*73
$GPGSV,2,2,08,23,00,000,44,26,00,000,43,27,00,000,44,31,00,000,42*72
$BDGSV,3,1,10,01,00,000,40,02,00,000,40,03,00,000,43,06,00,000,41*6F
$BDGSV,3,2,10,07,00,000,44,09,00,000,43,10,00,000,43,16,00,000,43*67
$BDGSV,3,3,10,23,00,000,42,28,00,000,43*63
$B3CN0,0,16,0,0,0,0,0,0,0,0,0,0,0,0*7B
$ini_pos,lastpos_good = 1,ini_pos.x:-1580016.893956,ini_pos.y:5314898.185981,ini_pos.z:3146814.205077
$rtc_local_time,localRTC.weeks:2052,localRTC.seconds:267154.534175,localGtime.weeks:2052,localGtime.seconds:267155.000000
Refix G03: 2, 267154.920158, 1241
Refix G07: 2, 267154.914454, -3766
Refix G08: 2, 267154.923781, -4682
Refix G09: 2, 267154.922093, -4294
Refix G14: 2, 267154.918988, 2406
Refix G16: 2, 267154.932111, 44
Refix G22: 2, 267154.917506, 1101
Refix G23: 2, 267154.929273, -2790
Refix G26: 2, 267154.927437, 1206
Refix G27: 2, 267154.930103, -3364
Refix G31: 2, 267154.921542, 852
$GNGGA,021217.000,2944.6577,N,10632.3088,E,1,06,2.3,2984.1,M,,,,0000*2A
$GNRMC,021217.000,A,2944.6577,N,10632.3088,E,14.71,140.33,080519,,*24
$GPGSA,A,3,08,09,,,,,,,,,,,2.4,2.3,0.8*3C
$BDGSA,A,3,01,06,07,16,,,,,,,,,2.4,2.3,0.8*2B
$GLGSA,A,3,,,,,,,,,,,,,2.4,2.3,0.8*21
$GPGSV,2,1,08,03,00,000,37,08,00,000,42,09,00,000,37,16,00,000,44*71
$GPGSV,2,2,08,23,00,000,44,26,00,000,43,27,00,000,44,31,00,000,41*71
$BDGSV,3,1,10,01,00,000,41,02,00,000,40,03,00,000,45,06,00,000,42*6B
$BDGSV,3,2,10,07,00,000,44,09,00,000,43,10,00,000,43,16,00,000,43*67
$BDGSV,3,3,10,23,00,000,41,28,00,000,43*60
$B3CN0,16,0,0,0,0,0,0,0,0,0,0,0,0,0*7B
$ini_pos,lastpos_good = 1,ini_pos.x:-1578425.558134,ini_pos.y:5315563.239433,ini_pos.z:3147275.194625
$rtc_local_time,localRTC.weeks:2052,localRTC.seconds:267155.534175,localGtime.weeks:2052,localGtime.seconds:267156.000000
Refix G03: 2, 267155.920158, 1255
Refix G07: 2, 267155.914458, -3751
Refix G08: 2, 267155.923785, -4669
Refix G09: 2, 267155.922098, -4276
Refix G14: 2, 267155.918986, 2418
Refix G16: 2, 267155.932113, 64
Refix G22: 2, 267155.917506, 1114
Refix G23: 2, 267155.929277, -2770
Refix G26: 2, 267155.927438, 1224
Refix G27: 2, 267155.930107, -3348
Refix G31: 2, 267155.921541, 866
$GNGGA,021218.000,2944.7833,N,10632.1326,E,1,10,0.9,3514.5,M,,,,0000*23
$GNRMC,021218.000,A,2944.7833,N,10632.1326,E,13.66,142.46,080519,,*23
$GPGSA,A,3,08,09,16,31,,,,,,,,,1.1,0.9,0.5*3A
$BDGSA,A,3,01,06,07,10,16,23,,,,,,,1.1,0.9,0.5*28
$GLGSA,A,3,,,,,,,,,,,,,1.1,0.9,0.5*22
$GPGSV,3,1,11,03,12,225,37,08,36,188,41,09,28,314,38,16,60,010,44*7D
$GPGSV,3,2,11,23,59,288,44,26,36,041,44,27,62,147,44,31,20,097,42*78
$GPGSV,3,3,11,14,05,149,26,07,09,301,00,22,06,207,00*4E
$BDGSV,3,1,12,01,40,125,40,02,45,218,40,03,54,172,43,06,41,170,42*60
$BDGSV,3,2,12,07,64,009,43,09,66,204,43,10,62,303,43,16,47,177,43*69
$BDGSV,3,3,12,23,19,080,41,28,43,085,43,04,23,109,00,19,21,293,00*66
$B3CN0,0,0,0,0,0,0,0,0,18,0,0,0,0,0*75
$ini_pos,lastpos_good = 1,ini_pos.x:-1578251.324117,ini_pos.y:5315975.143192,ini_pos.z:3147739.992003
$rtc_local_time,localRTC.weeks:2052,localRTC.seconds:267156.534175,localGtime.weeks:2052,localGtime.seconds:267157.000000
Refix G03: 2, 267156.920158, 1254
Refix G07: 2, 267156.914460, -3753
Refix G08: 2, 267156.923788, -4668
Refix G09: 2, 267156.922101, -4280
Refix G14: 2, 267156.918985, 2420
Refix G16: 2, 267156.932114, 61
Refix G22: 2, 267156.917505, 1114
Refix G23: 2, 267156.929279, -2774
Refix G26: 2, 267156.927437, 1221
Refix G27: 2, 267156.930109, -3348
Refix G31: 2, 267156.921541, 867
$GNGGA,021219.000,2944.7936,N,10632.0969,E,1,10,0.9,3595.4,M,,,,0000*2E
$GNRMC,021219.000,A,2944.7936,N,10632.0969,E,14.62,140.89,080519,,*24
$GPGSA,A,3,08,09,16,31,,,,,,,,,1.1,0.9,0.5*3A
$BDGSA,A,3,01,06,07,10,16,23,,,,,,,1.1,0.9,0.5*28
$GLGSA,A,3,,,,,,,,,,,,,1.1,0.9,0.5*22
$GPGSV,3,1,11,03,12,225,38,08,36,188,41,09,28,314,39,16,60,010,45*72
$GPGSV,3,2,11,23,59,288,44,26,36,041,44,27,62,147,44,31,20,097,41*7B
$GPGSV,3,3,11,14,04,149,34,07,09,301,00,22,06,207,00*4C
$BDGSV,3,1,12,01,40,125,40,02,45,218,40,03,54,172,43,04,23,109,40*6A
$BDGSV,3,2,12,06,41,170,42,07,64,009,43,09,66,204,43,10,62,303,43*68
$BDGSV,3,3,12,16,47,177,43,23,19,080,41,28,43,085,43,19,21,293,00*69
$B3CN0,20,0,0,0,0,0,0,0,26,0,0,0,0,0*4A
$ini_pos,lastpos_good = 1,ini_pos.x:-1578213.496165,ini_pos.y:5316049.856988,ini_pos.z:3147796.546119
$rtc_local_time,localRTC.weeks:2052,localRTC.seconds:267157.534175,localGtime.weeks:2052,localGtime.seconds:267158.000000
Refix G03: 2, 267157.920157, 1267
Refix G07: 2, 267157.914463, -3727
Refix G08: 2, 267157.923791, -4669
Refix G09: 2, 267157.922104, -4262
Refix G14: 2, 267157.918983, 2417
Refix G16: 2, 267157.932113, 57
Refix G22: 2, 267157.917505, 1125
Refix G23: 2, 267157.929281, -2770
Refix G26: 2, 267157.927436, 1218
Refix G27: 2, 267157.930111, -3359
Refix G31: 2, 267157.921540, 859
$GNGGA,021220.000,2944.7890,N,10632.0629,E,1,10,0.9,3605.6,M,,,,0000*2A
$GNRMC,021220.000,A,2944.7890,N,10632.0629,E,9.42,134.21,080519,,*17
$GPGSA,A,3,08,09,16,31,,,,,,,,,1.1,0.9,0.5*3A
$BDGSA,A,3,01,06,07,10,16,23,,,,,,,1.1,0.9,0.5*28
$GLGSA,A,3,,,,,,,,,,,,,1.1,0.9,0.5*22
$GPGSV,3,1,11,03,12,225,38,08,36,188,41,09,28,314,38,16,60,010,45*73
$GPGSV,3,2,11,23,59,288,45,26,36,041,44,27,62,147,45,31,20,097,42*78
$GPGSV,3,3,11,14,04,149,35,07,09,301,00,22,06,207,00*4D
$BDGSV,3,1,12,01,40,125,41,02,45,218,41,03,54,172,42,04,23,109,41*6A
$BDGSV,3,2,12,05,00,000,23,06,41,170,42,07,64,009,44,09,66,204,43*69
$BDGSV,3,3,12,10,62,303,44,16,47,177,43,23,19,080,41,28,43,085,43*6F
$B3CN0,0,0,0,0,0,0,0,0,26,0,0,0,0,0*78
$ini_pos,lastpos_good = 1,ini_pos.x:-1578164.675651,ini_pos.y:5316077.978706,ini_pos.z:3147794.308740
$rtc_local_time,localRTC.weeks:2052,localRTC.seconds:267158.534175,localGtime.weeks:2052,localGtime.seconds:267159.000000
Refix G03: 2, 267158.920156, 1308
Refix G07: 2, 267158.914465, -3662
Refix G08: 2, 267158.923794, -4658
Refix G09: 2, 267158.922106, -4204
Refix G14: 2, 267158.918982, 2403
Refix G16: 2, 267158.932113, 83
Refix G22: 2, 267158.917504, 1154
Refix G23: 2, 267158.929283, -2725
Refix G26: 2, 267158.927436, 1228
Refix G27: 2, 267158.930113, -3358
Refix G31: 2, 267158.921539, 842
$GNGGA,021221.000,2944.7870,N,10632.0582,E,1,10,0.9,3602.2,M,,,,0000*24
$GNRMC,021221.000,A,2944.7870,N,10632.0582,E,8.65,4.56,080519,,*1C
$GPGSA,A,3,08,09,16,31,,,,,,,,,1.1,0.9,0.5*3A
$BDGSA,A,3,01,06,07,10,16,23,,,,,,,1.1,0.9,0.5*28
$GLGSA,A,3,,,,,,,,,,,,,1.1,0.9,0.5*22
$GPGSV,3,1,11,03,12,225,37,08,36,188,42,09,28,314,37,16,60,010,45*70
$GPGSV,3,2,11,23,59,288,45,26,36,041,44,27,62,147,45,31,20,097,41*7B
$GPGSV,3,3,11,14,04,149,34,07,09,301,00,22,06,207,00*4C
$BDGSV,3,1,12,01,40,125,41,02,45,218,41,03,54,172,43,04,23,109,40*6A
$BDGSV,3,2,12,05,00,000,18,06,41,170,41,07,64,009,44,09,66,204,43*62
$BDGSV,3,3,12,10,62,303,43,16,47,177,43,23,19,080,41,28,43,085,43*68
$B3CN0,0,0,0,0,0,0,0,0,21,0,0,0,0,0*7F
$ini_pos,lastpos_good = 1,ini_pos.x:-1578157.025786,ini_pos.y:5316079.024407,ini_pos.z:3147789.455288
$rtc_local_time,localRTC.weeks:2052,localRTC.seconds:267159.534175,localGtime.weeks:2052,localGtime.seconds:267160.000000
Refix G03: 2, 267159.920155, 1319
Refix G07: 2, 267159.914467, -3644
Refix G08: 2, 267159.923797, -4654
Refix G09: 2, 267159.922109, -4191
Refix G14: 2, 267159.918980, 2406
Refix G16: 2, 267159.932113, 83
Refix G22: 2, 267159.917503, 1164
Refix G23: 2, 267159.929284, -2720
Refix G26: 2, 267159.927435, 1229
Refix G27: 2, 267159.930115, -3359
Refix G31: 2, 267159.921539, 842
$GNGGA,021222.000,2944.7856,N,10632.0737,E,1,10,0.9,3615.7,M,,,,0000*2C
$GNRMC,021222.000,A,2944.7856,N,10632.0737,E,11.21,20625.29,,,*25
$GPGSA,A,3,08,09,16,31,,,,,,,,,1.1,0.9,0.5*3A
$BDGSA,A,3,01,06,07,10,16,23,,,,,,,1.1,0.9,0.5*28
$GLGSA,A,3,,,,,,,,,,,,,1.1,0.9,0.5*22
$GPGSV,3,1,11,03,12,225,37,08,36,188,42,09,28,314,38,16,60,010,45*7F
$GPGSV,3,2,11,23,59,288,45,26,36,041,44,27,62,147,45,31,20,097,42*78
$GPGSV,3,3,11,14,04,149,34,07,09,301,00,22,06,207,00*4C
$BDGSV,3,1,12,01,40,125,42,02,45,218,40,03,54,172,45,04,23,109,41*6F
$BDGSV,3,2,12,05,00,000,20,06,41,170,42,07,64,009,44,09,66,204,43*6A
$BDGSV,3,3,12,10,62,303,43,16,47,177,43,32,10,187,23,23,19,080,41*60
$B3CN0,0,0,0,0,0,0,0,0,0,0,0,0,0,0*4C
$ini_pos,lastpos_good = 1,ini_pos.x:-1578184.701391,ini_pos.y:5316084.406222,ini_pos.z:3147793.898612
$rtc_local_time,localRTC.weeks:2052,localRTC.seconds:267160.534175,localGtime.weeks:2052,localGtime.seconds:267161.000000
Refix G03: 2, 267160.920154, 1311
Refix G07: 2, 267160.914469, -3647
Refix G08: 2, 267160.923800, -4667
Refix G09: 2, 267160.922111, -4200
Refix G14: 2, 267160.918979, 2396
Refix G16: 2, 267160.932113, 63
Refix G22: 2, 267160.917503, 1157
Refix G23: 2, 267160.929286, -2737
Refix G26: 2, 267160.927434, 1212
Refix G27: 2, 267160.930118, -3379
Refix G31: 2, 267160.921538, 827
$GNGGA,021223.000,2944.7781,N,10632.0859,E,1,10,0.9,3610.3,M,,,,0000*2E
$GNRMC,021223.000,A,2944.7781,N,10632.0859,E,12.35,20624.33,,,*2A
$GPGSA,A,3,08,09,16,31,,,,,,,,,1.1,0.9,0.5*3A
$BDGSA,A,3,01,06,07,10,16,23,,,,,,,1.1,0.9,0.5*28
$GLGSA,A,3,,,,,,,,,,,,,1.1,0.9,0.5*22
$GPGSV,3,1,11,03,12,225,37,08,36,188,42,09,28,314,38,16,60,010,44*7E
$GPGSV,3,2,11,23,59,288,45,26,36,041,44,27,62,147,44,31,20,097,42*79
$GPGSV,3,3,11,14,04,149,34,07,09,301,00,22,06,207,00*4C
$BDGSV,3,1,12,01,40,125,41,02,45,218,39,03,54,172,43,04,23,109,41*64
$BDGSV,3,2,12,06,41,170,42,07,64,009,43,09,66,204,43,10,62,303,43*68
$BDGSV,3,3,12,16,47,177,43,32,10,187,39,23,19,080,41,28,43,085,43*6E
$B3CN0,16,0,0,0,0,0,0,0,0,0,0,0,0,0*7B
$ini_pos,lastpos_good = 1,ini_pos.x:-1578204.113449,ini_pos.y:5316080.939555,ini_pos.z:3147779.066485
$rtc_local_time,localRTC.weeks:2052,localRTC.seconds:267161.534175,localGtime.weeks:2052,localGtime.seconds:267162.000000
Refix G03: 2, 267161.920154, 1318
Refix G07: 2, 267161.914472, -3643
Refix G08: 2, 267161.923803, -4658
Refix G09: 2, 267161.922114, -4194
Refix G14: 2, 267161.918977, 2403
Refix G16: 2, 267161.932113, 74
Refix G22: 2, 267161.917502, 1163
Refix G23: 2, 267161.929288, -2728
Refix G26: 2, 267161.927433, 1221
Refix G27: 2, 267161.930120, -3367
Refix G31: 2, 267161.921538, 836
$GNGGA,021224.000,2944.7758,N,10632.0807,E,1,10,0.9,3622.4,M,,,,0000*20
$GNRMC,021224.000,A,2944.7758,N,10632.0807,E,11.82,20625.83,,,*27
$GPGSA,A,3,08,09,16,31,,,,,,,,,1.1,0.9,0.5*3A
$BDGSA,A,3,01,06,07,10,16,23,,,,,,,1.1,0.9,0.5*28
$GLGSA,A,3,,,,,,,,,,,,,1.1,0.9,0.5*22
$GPGSV,3,1,11,03,12,225,37,08,36,188,42,09,28,314,38,16,60,010,44*7E
$GPGSV,3,2,11,23,59,288,44,26,36,041,44,27,62,147,44,31,20,097,42*78
$GPGSV,3,3,11,14,04,149,33,07,09,301,00,22,06,207,00*4B
$BDGSV,3,1,12,01,40,125,41,02,45,218,40,03,54,172,43,04,23,109,41*6A
$BDGSV,3,2,12,05,00,000,19,06,41,170,42,07,64,009,44,09,66,204,43*60
$BDGSV,3,3,12,10,62,303,43,16,47,177,43,32,10,187,39,23,19,080,41*6B
$B3CN0,18,0,0,0,0,0,0,0,0,0,0,0,0,0*75
$ini_pos,lastpos_good = 1,ini_pos.x:-1578199.652781,ini_pos.y:5316095.399527,ini_pos.z:3147781.489101
$rtc_local_time,localRTC.weeks:2052,localRTC.seconds:267162.534175,localGtime.weeks:2052,localGtime.seconds:267163.000000
Refix G03: 2, 267162.920153, 1314
Refix G07: 2, 267162.914474, -3645
Refix G08: 2, 267162.923806, -4663
Refix G09: 2, 267162.922117, -4195
Refix G14: 2, 267162.918975, 2401
Refix G16: 2, 267162.932113, 70
Refix G22: 2, 267162.917501, 1159
Refix G23: 2, 267162.929289, -2732
Refix G26: 2, 267162.927432, 1218
Refix G27: 2, 267162.930122, -3372
Refix G31: 2, 267162.921537, 834
$GNGGA,021225.000,2944.7874,N,10632.0883,E,1,10,0.9,3614.6,M,,,,0000*2B
$GNRMC,021225.000,A,2944.7874,N,10632.0883,E,11.62,20622.50,,,*2C
$GPGSA,A,3,08,09,16,31,,,,,,,,,1.1,0.9,0.5*3A
$BDGSA,A,3,01,06,07,10,16,23,,,,,,,1.1,0.9,0.5*28
$GLGSA,A,3,,,,,,,,,,,,,1.1,0.9,0.5*22
$GPGSV,3,1,11,03,12,225,37,08,36,188,42,09,28,314,38,16,60,010,45*7F
$GPGSV,3,2,11,23,59,288,44,26,36,041,44,27,62,147,44,31,20,097,42*78
$GPGSV,3,3,11,14,04,149,34,22,06,207,31,07,09,301,00*4E
$BDGSV,3,1,12,01,40,125,41,02,45,218,41,03,54,172,42,04,23,109,42*69
$BDGSV,3,2,12,06,41,170,41,07,64,009,43,09,66,204,43,10,62,303,44*6C
$BDGSV,3,3,12,16,47,177,43,32,10,187,39,23,19,080,42,28,43,085,43*6D
$B3CN0,0,0,0,0,0,0,0,0,0,0,0,0,0,0*4C
$ini_pos,lastpos_good = 1,ini_pos.x:-1578206.431874,ini_pos.y:5316075.188448,ini_pos.z:3147796.252389
$rtc_local_time,localRTC.weeks:2052,localRTC.seconds:267163.534175,localGtime.weeks:2052,localGtime.seconds:267164.000000
Refix G03: 2, 267163.920152, 1317
Refix G07: 2, 267163.914476, -3643
Refix G08: 2, 267163.923809, -4659
Refix G09: 2, 267163.922119, -4193
Refix G14: 2, 267163.918974, 2403
Refix G16: 2, 267163.932113, 73
Refix G22: 2, 267163.917500, 1162
Refix G23: 2, 267163.929291, -2728
Refix G26: 2, 267163.927431, 1220
Refix G27: 2, 267163.930124, -3368
Refix G31: 2, 267163.921537, 835
$GNGGA,021226.000,2944.7830,N,10632.0906,E,1,11,0.8,3607.5,M,,,,0000*25
$GNRMC,021226.000,A,2944.7830,N,10632.0906,E,12.01,20624.91,,,*2E
$GPGSA,A,3,08,09,16,22,31,,,,,,,,1.0,0.8,0.5*3A
$BDGSA,A,3,01,06,07,10,16,23,,,,,,,1.0,0.8,0.5*28
$GLGSA,A,3,,,,,,,,,,,,,1.0,0.8,0.5*22
$GPGSV,3,1,11,03,12,225,37,08,36,188,42,09,28,314,38,16,60,010,44*7E
$GPGSV,3,2,11,23,59,288,44,26,36,041,43,27,62,147,44,31,20,097,42*7F
$GPGSV,3,3,11,14,04,149,35,22,06,207,32,07,09,301,00*4C
$BDGSV,3,1,12,01,40,125,40,02,45,218,41,03,54,172,43,04,23,109,41*6A
$BDGSV,3,2,12,06,41,170,42,07,64,009,44,09,66,204,43,10,62,303,43*6F
$BDGSV,3,3,12,16,47,177,43,32,10,187,39,23,19,080,42,28,43,085,43*6D
$B3CN0,16,0,0,0,0,0,0,0,0,0,0,0,0,0*7B
$ini_pos,lastpos_good = 1,ini_pos.x:-1578209.523594,ini_pos.y:5316072.073832,ini_pos.z:3147785.699685
$rtc_local_time,localRTC.weeks:2052,localRTC.seconds:267164.534175,localGtime.weeks:2052,localGtime.seconds:267165.000000
Refix G03: 2, 267164.920151, 1315
Refix G07: 2, 267164.914479, -3645
Refix G08: 2, 267164.923812, -4661
Refix G09: 2, 267164.922122, -4195
Refix G14: 2, 267164.918972, 2403
Refix G16: 2, 267164.932113, 72
Refix G22: 2, 267164.917499, 1160
Refix G23: 2, 267164.929293, -2730
Refix G26: 2, 267164.927431, 1220
Refix G27: 2, 267164.930126, -3369
Refix G31: 2, 267164.921536, 836
$GNGGA,021227.000,2944.7822,N,10632.0992,E,1,11,0.8,3611.1,M,,,,0000*29
$GNRMC,021227.000,A,2944.7822,N,10632.0992,E,11.33,20623.78,,,*23
$GPGSA,A,3,08,09,16,22,31,,,,,,,,1.0,0.8,0.5*3A
$BDGSA,A,3,01,06,07,10,16,23,,,,,,,1.0,0.8,0.5*28
$GLGSA,A,3,,,,,,,,,,,,,1.0,0.8,0.5*22
$GPGSV,3,1,11,03,12,225,37,08,36,188,42,09,28,314,38,16,60,010,44*7E
$GPGSV,3,2,11,23,59,288,44,26,36,041,44,27,62,147,44,31,20,097,41*7B
$GPGSV,3,3,11,14,04,149,34,22,06,207,33,07,09,301,00*4C
$BDGSV,3,1,12,01,40,125,42,02,45,218,42,03,54,172,45,04,23,109,40*6C
$BDGSV,3,2,12,06,41,170,42,07,64,009,43,09,66,204,43,10,62,303,43*68
$BDGSV,3,3,12,16,47,177,43,32,10,187,39,23,19,080,42,19,21,293,42*6F
$B3CN0,0,0,0,0,0,0,0,0,0,0,0,0,0,0*4C
$ini_pos,lastpos_good = 1,ini_pos.x:-1578223.843174,ini_pos.y:5316071.892857,ini_pos.z:3147786.191737
$rtc_local_time,localRTC.weeks:2052,localRTC.seconds:267165.534175,localGtime.weeks:2052,localGtime.seconds:267166.000000
Refix G03: 2, 267165.920150, 1314
Refix G07: 2, 267165.914481, -3648
Refix G08: 2, 267165.923814, -4661
Refix G09: 2, 267165.922125, -4197
Refix G14: 2, 267165.918971, 2403
Refix G16: 2, 267165.932113, 71
Refix G22: 2, 267165.917499, 1159
Refix G23: 2, 267165.929295, -2731
Refix G26: 2, 267165.927430, 1218
Refix G27: 2, 267165.930128, -3368
Refix G31: 2, 267165.921536, 835
$GNGGA,021228.000,2944.7781,N,10632.1068,E,1,11,0.8,3603.0,M,,,,0000*2F
$GNRMC,021228.000,A,2944.7781,N,10632.1068,E,11.12,20625.90,,,*24
$GPGSA,A,3,08,09,16,22,31,,,,,,,,1.0,0.8,0.5*3A
$BDGSA,A,3,01,06,07,10,16,23,,,,,,,1.0,0.8,0.5*28
$GLGSA,A,3,,,,,,,,,,,,,1.0,0.8,0.5*22
$GPGSV,3,1,11,03,12,225,37,08,36,188,42,09,28,314,38,16,60,010,44*7E
$GPGSV,3,2,11,23,59,288,44,26,36,041,44,27,62,147,44,31,20,097,42*78
$GPGSV,3,3,11,14,04,149,34,22,06,207,32,07,09,301,00*4D
$BDGSV,3,1,12,01,40,125,42,02,45,218,40,03,54,172,43,04,23,109,41*69
$BDGSV,3,2,12,06,41,170,42,07,64,009,44,09,66,204,43,10,62,303,44*68
$BDGSV,3,3,12,16,47,177,43,32,10,187,39,23,19,080,41,19,21,293,42*6C
$B3CN0,0,0,0,0,0,0,0,0,0,0,0,0,0,0*4C
$ini_pos,lastpos_good = 1,ini_pos.x:-1578234.642787,ini_pos.y:5316065.319528,ini_pos.z:3147775.501005
$rtc_local_time,localRTC.weeks:2052,localRTC.seconds:267166.534175,localGtime.weeks:2052,localGtime.seconds:267167.000000
Refix G03: 2, 267166.920149, 1310
Refix G07: 2, 267166.914483, -3649
Refix G08: 2, 267166.923817, -4666
Refix G09: 2, 267166.922127, -4200
Refix G14: 2, 267166.918969, 2398
Refix G16: 2, 267166.932113, 65
Refix G22: 2, 267166.917498, 1156
Refix G23: 2, 267166.929296, -2736
Refix G26: 2, 267166.927429, 1212
Refix G27: 2, 267166.930130, -3375
Refix G31: 2, 267166.921535, 829
$GNGGA,021229.000,2944.7747,N,10632.1139,E,1,11,0.8,3596.6,M,,,,0000*28
$GNRMC,021229.000,A,2944.7747,N,10632.1139,E,11.69,20624.61,,,*29
$GPGSA,A,3,08,09,16,22,31,,,,,,,,1.0,0.8,0.5*3A
$BDGSA,A,3,01,06,07,10,16,23,,,,,,,1.0,0.8,0.5*28
$GLGSA,A,3,,,,,,,,,,,,,1.0,0.8,0.5*22
$GPGSV,3,1,11,03,12,225,36,08,36,188,42,09,28,314,38,16,60,010,44*7F
$GPGSV,3,2,11,23,59,288,44,26,36,041,44,27,62,147,44,31,20,097,42*78
$GPGSV,3,3,11,14,04,149,35,22,06,207,32,07,09,301,00*4C
$BDGSV,3,1,12,01,40,125,41,02,45,218,41,03,54,172,45,04,23,109,42*6E
$BDGSV,3,2,12,06,41,170,42,07,64,009,43,09,66,204,43,10,62,303,43*68
$BDGSV,3,3,12,16,47,177,43,32,10,187,39,23,19,080,41,19,21,293,42*6C
$B3CN0,0,0,0,0,0,0,0,0,0,0,0,0,0,0*4C
$ini_pos,lastpos_good = 1,ini_pos.x:-1578245.005594,ini_pos.y:5316059.637322,ini_pos.z:3147766.817073
$rtc_local_time,localRTC.weeks:2052,localRTC.seconds:267167.534175,localGtime.weeks:2052,localGtime.seconds:267168.000000
Refix G03: 2, 267167.920148, 1314
Refix G07: 2, 267167.914485, -3647
Refix G08: 2, 267167.923820, -4660
Refix G09: 2, 267167.922130, -4195
Refix G14: 2, 267167.918968, 2402
Refix G16: 2, 267167.932113, 74
Refix G22: 2, 267167.917497, 1159
Refix G23: 2, 267167.929298, -2728
Refix G26: 2, 267167.927428, 1219
Refix G27: 2, 267167.930132, -3366
Refix G31: 2, 267167.921534, 835
$GNGGA,021230.000,2944.7762,N,10632.1165,E,1,11,0.8,3599.4,M,,,,0000*23
$GNRMC,021230.000,A,2944.7762,N,10632.1165,E,11.52,20625.28,,,*2B
$GPGSA,A,3,08,09,16,22,31,,,,,,,,1.0,0.8,0.5*3A
$BDGSA,A,3,01,06,07,10,16,23,,,,,,,1.0,0.8,0.5*28
$GLGSA,A,3,,,,,,,,,,,,,1.0,0.8,0.5*22
$GPGSV,3,1,11,03,12,225,37,08,36,188,42,09,28,314,37,16,60,010,44*71
$GPGSV,3,2,11,23,59,288,44,26,36,041,44,27,62,147,44,31,20,097,42*78
$GPGSV,3,3,11,14,04,149,35,22,06,207,31,07,09,301,00*4F
$BDGSV,3,1,12,01,40,125,41,02,45,218,40,03,54,172,42,04,23,109,41*6B
$BDGSV,3,2,12,06,41,170,42,07,64,009,43,09,66,204,43,10,62,303,43*68
$BDGSV,3,3,12,16,47,177,43,32,10,187,38,23,19,080,41,19,21,293,42*6D
$B3CN0,0,0,0,0,0,0,0,0,0,0,0,0,0,0*4C
$ini_pos,lastpos_good = 1,ini_pos.x:-1578249.318909,ini_pos.y:5316059.472416,ini_pos.z:3147770.711470
$rtc_local_time,localRTC.weeks:2052,localRTC.seconds:267168.534175,localGtime.weeks:2052,localGtime.seconds:267168.999999
Refix G03: 2, 267168.920147, 1310
Refix G07: 2, 267168.914488, -3650
Refix G08: 2, 267168.923823, -4666
Refix G09: 2, 267168.922132, -4199
Refix G14: 2, 267168.918966, 2398
Refix G16: 2, 267168.932113, 67
Refix G22: 2, 267168.917496, 1155
Refix G23: 2, 267168.929300, -2735
Refix G26: 2, 267168.927427, 1213
Refix G27: 2, 267168.930134, -3373
Refix G31: 2, 267168.921534, 829
$GNGGA,021231.000,2944.7815,N,10632.1232,E,1,11,0.8,3596.3,M,,,,0000*24
$GNRMC,021231.000,A,2944.7815,N,10632.1232,E,11.56,20623.64,,,*2E
$GPGSA,A,3,08,09,16,22,31,,,,,,,,1.0,0.8,0.5*3A
$BDGSA,A,3,01,06,07,10,16,23,,,,,,,1.0,0.8,0.5*28
$GLGSA,A,3,,,,,,,,,,,,,1.0,0.8,0.5*22
$GPGSV,3,1,11,03,12,225,37,08,36,188,42,09,28,314,38,16,60,010,44*7E
$GPGSV,3,2,11,23,59,288,44,26,36,041,44,27,62,147,44,31,20,097,42*78
$GPGSV,3,3,11,14,04,149,34,22,06,207,31,07,09,301,00*4E
$BDGSV,3,1,12,01,40,125,41,02,45,218,40,03,54,172,43,04,23,109,41*6A
$BDGSV,3,2,12,06,41,170,42,07,64,009,43,09,66,204,43,10,62,303,43*68
$BDGSV,3,3,12,16,47,177,43,32,10,187,38,23,19,080,41,19,21,293,42*6D
$B3CN0,0,0,0,0,0,0,0,0,0,0,0,0,0,0*4C
$ini_pos,lastpos_good = 1,ini_pos.x:-1578257.437946,ini_pos.y:5316049.164579,ini_pos.z:3147777.659066
$rtc_local_time,localRTC.weeks:2052,localRTC.seconds:267169.534175,localGtime.weeks:2052,localGtime.seconds:267169.999999
Refix G03: 2, 267169.920146, 1309
Refix G07: 2, 267169.914490, -3651
Refix G08: 2, 267169.923826, -4664
Refix G09: 2, 267169.922135, -4200
Refix G14: 2, 267169.918965, 2399
Refix G16: 2, 267169.932113, 68
Refix G22: 2, 267169.917496, 1155
Refix G23: 2, 267169.929301, -2734
Refix G26: 2, 267169.927427, 1214
Refix G27: 2, 267169.930136, -3370
Refix G31: 2, 267169.921533, 831
$GNGGA,021232.000,2944.7827,N,10632.1274,E,1,11,0.8,3581.3,M,,,,0000*22
$GNRMC,021232.000,A,2944.7827,N,10632.1274,E,11.13,20625.14,,,*2E
$GPGSA,A,3,08,09,16,22,31,,,,,,,,1.0,0.8,0.5*3A
$BDGSA,A,3,01,06,07,10,16,23,,,,,,,1.0,0.8,0.5*28
$GLGSA,A,3,,,,,,,,,,,,,1.0,0.8,0.5*22
$GPGSV,3,1,11,03,12,225,37,08,36,188,42,09,28,314,37,16,60,010,44*71
$GPGSV,3,2,11,23,59,288,44,26,36,041,44,27,62,147,44,31,20,097,41*7B
$GPGSV,3,3,11,14,04,149,34,22,06,207,31,07,09,301,00*4E
$BDGSV,3,1,12,01,40,125,42,02,45,218,40,03,54,172,43,04,23,109,41*69
$BDGSV,3,2,12,05,00,000,18,06,41,170,41,07,64,009,44,09,66,204,43*62
$BDGSV,3,3,12,10,62,303,43,16,47,177,43,32,10,187,38,23,19,080,41*6A
$B3CN0,17,0,0,0,0,0,0,0,0,0,0,0,0,0*7A
$ini_pos,lastpos_good = 1,ini_pos.x:-1578259.930953,ini_pos.y:5316033.654627,ini_pos.z:3147772.186597
$rtc_local_time,localRTC.weeks:2052,localRTC.seconds:267170.534175,localGtime.weeks:2052,localGtime.seconds:267170.999999
Refix G03: 2, 267170.920146, 1314
Refix G07: 2, 267170.914492, -3647
Refix G08: 2, 267170.923829, -4659
Refix G09: 2, 267170.922138, -4194
Refix G14: 2, 267170.918963, 2403
Refix G16: 2, 267170.932112, 76
Refix G22: 2, 267170.917495, 1159
Refix G23: 2, 267170.929303, -2727
Refix G26: 2, 267170.927426, 1221
Refix G27: 2, 267170.930139, -3363
Refix G31: 2, 267170.921533, 836
$GNGGA,021233.000,2944.7784,N,10632.1331,E,1,11,0.8,3586.8,M,,,,0000*29
$GNRMC,021233.000,A,2944.7784,N,10632.1331,E,11.22,20624.10,,,*2E
$GPGSA,A,3,08,09,16,22,31,,,,,,,,1.0,0.8,0.5*3A
$BDGSA,A,3,01,06,07,10,16,23,,,,,,,1.0,0.8,0.5*28
$GLGSA,A,3,,,,,,,,,,,,,1.0,0.8,0.5*22
$GPGSV,3,1,11,03,12,225,37,08,36,188,42,09,28,314,38,16,60,010,44*7E
$GPGSV,3,2,11,23,59,288,44,26,36,041,44,27,62,147,44,31,20,097,42*78
$GPGSV,3,3,11,14,04,149,35,22,06,207,32,07,09,301,00*4C
$BDGSV,3,1,12,01,40,125,41,02,45,218,41,03,54,172,43,04,23,109,41*6B
$BDGSV,3,2,12,06,41,170,41,07,64,009,44,09,66,204,43,10,62,303,43*6C
$BDGSV,3,3,12,16,47,177,43,32,10,187,38,23,19,080,41,19,21,293,42*6D
$B3CN0,0,36,0,0,0,0,0,0,0,0,0,0,0,0*79
$ini_pos,lastpos_good = 1,ini_pos.x:-1578271.262233,ini_pos.y:5316039.344298,ini_pos.z:3147768.017787
$rtc_local_time,localRTC.weeks:2052,localRTC.seconds:267171.534175,localGtime.weeks:2052,localGtime.seconds:267171.999999
Refix G03: 2, 267171.920145, 1314
Refix G07: 2, 267171.914494, -3647
Refix G08: 2, 267171.923832, -4659
Refix G09: 2, 267171.922140, -4194
Refix G14: 2, 267171.918961, 2403
Refix G16: 2, 267171.932112, 76
Refix G22: 2, 267171.917494, 1159
Refix G23: 2, 267171.929305, -2726
Refix G26: 2, 267171.927425, 1220
Refix G27: 2, 267171.930141, -3363
Refix G31: 2, 267171.921532, 836
$GNGGA,021234.000,2944.7797,N,10632.1351,E,1,11,0.8,3574.3,M,,,,0000*2C
$GNRMC,021234.000,A,2944.7797,N,10632.1351,E,11.27,20624.58,,,*24
$GPGSA,A,3,08,09,16,22,31,,,,,,,,1.0,0.8,0.5*3A
$BDGSA,A,3,01,06,07,10,16,23,,,,,,,1.0,0.8,0.5*28
$GLGSA,A,3,,,,,,,,,,,,,1.0,0.8,0.5*22
$GPGSV,3,1,11,03,12,225,37,08,36,188,41,09,28,314,38,16,60,010,45*7C
$GPGSV,3,2,11,23,59,288,44,26,36,041,44,27,62,147,44,31,20,097,42*78
$GPGSV,3,3,11,14,04,149,35,22,06,207,31,07,09,301,00*4F
$BDGSV,3,1,12,01,40,125,41,02,45,218,41,03,54,172,43,04,23,109,40*6A
$BDGSV,3,2,12,06,41,170,41,07,64,009,43,09,66,204,43,10,62,303,43*6B
$BDGSV,3,3,12,16,47,177,42,32,10,187,38,23,19,080,41,19,21,293,42*6C
$B3CN0,16,0,0,0,0,0,0,0,0,0,0,0,0,0*7B
$ini_pos,lastpos_good = 1,ini_pos.x:-1578270.937265,ini_pos.y:5316027.045999,ini_pos.z:3147763.799649
$rtc_local_time,localRTC.weeks:2052,localRTC.seconds:267172.534174,localGtime.weeks:2052,localGtime.seconds:267172.999999
Refix G03: 2, 267172.920144, 1315
Refix G07: 2, 267172.914497, -3646
Refix G08: 2, 267172.923835, -4658
Refix G09: 2, 267172.922143, -4192
Refix G14: 2, 267172.918960, 2405
Refix G16: 2, 267172.932112, 77
Refix G22: 2, 267172.917493, 1159
Refix G23: 2, 267172.929306, -2726
Refix G26: 2, 267172.927424, 1222
Refix G27: 2, 267172.930143, -3362
Refix G31: 2, 267172.921532, 838
$GNGGA,021235.000,2944.7757,N,10632.1419,E,1,11,0.8,3570.7,M,,,,0000*2A
$GNRMC,021235.000,A,2944.7757,N,10632.1419,E,11.00,20623.42,,,*2B
$GPGSA,A,3,08,09,16,22,31,,,,,,,,1.0,0.8,0.5*3A
$BDGSA,A,3,01,06,07,10,16,23,,,,,,,1.0,0.8,0.5*28
$GLGSA,A,3,,,,,,,,,,,,,1.0,0.8,0.5*22
$GPGSV,3,1,11,03,12,225,37,08,36,188,42,09,28,314,38,16,60,010,45*7F
$GPGSV,3,2,11,23,59,288,44,26,36,041,44,27,62,147,45,31,20,097,41*7A
$GPGSV,3,3,11,14,04,149,35,22,06,207,32,07,09,301,00*4C
$BDGSV,3,1,12,01,40,125,41,02,45,218,40,03,54,172,42,04,23,109,41*6B
$BDGSV,3,2,12,06,41,170,41,07,64,009,44,09,66,204,43,10,62,303,43*6C
$BDGSV,3,3,12,16,47,177,43,32,10,187,38,23,19,080,42,19,21,293,43*6F
$B3CN0,0,0,0,0,0,0,0,0,0,0,0,0,0,0*4C
$ini_pos,lastpos_good = 1,ini_pos.x:-1578281.558613,ini_pos.y:5316024.415729,ini_pos.z:3147755.653693
$rtc_local_time,localRTC.weeks:2052,localRTC.seconds:267173.534174,localGtime.weeks:2052,localGtime.seconds:267173.999999
Refix G03: 2, 267173.920143, 1315
Refix G07: 2, 267173.914499, -3646
Refix G08: 2, 267173.923838, -4658
Refix G09: 2, 267173.922146, -4194
Refix G14: 2, 267173.918958, 2406
Refix G16: 2, 267173.932112, 75
Refix G22: 2, 267173.917492, 1160
Refix G23: 2, 267173.929308, -2727
Refix G26: 2, 267173.927423, 1219
Refix G27: 2, 267173.930145, -3362
Refix G31: 2, 267173.921531, 837
$GNGGA,021236.000,2944.7738,N,10632.1376,E,1,11,0.8,3574.2,M,,,,0000*2F
$GNRMC,021236.000,A,2944.7738,N,10632.1376,E,11.12,20626.28,,,*25
$GPGSA,A,3,08,09,16,22,31,,,,,,,,1.0,0.8,0.5*3A
$BDGSA,A,3,01,06,07,10,16,23,,,,,,,1.0,0.8,0.5*28
$GLGSA,A,3,,,,,,,,,,,,,1.0,0.8,0.5*22
$GPGSV,3,1,11,03,12,225,36,08,36,188,42,09,28,314,38,16,60,010,44*7F
$GPGSV,3,2,11,23,59,288,45,26,36,041,44,27,62,147,45,31,20,097,42*78
$GPGSV,3,3,11,14,04,149,35,22,06,207,31,07,09,301,00*4F
$BDGSV,3,1,12,01,40,125,41,02,45,218,41,03,54,172,43,04,23,109,41*6B
$BDGSV,3,2,12,06,41,170,42,07,64,009,44,09,66,204,43,10,62,303,44*68
$BDGSV,3,3,12,16,47,177,42,32,10,187,38,23,19,080,41,19,21,293,43*6D
$B3CN0,0,0,0,0,0,0,0,0,0,0,0,0,0,0*4C
$ini_pos,lastpos_good = 1,ini_pos.x:-1578276.297503,ini_pos.y:5316030.905689,ini_pos.z:3147754.421121
$rtc_local_time,localRTC.weeks:2052,localRTC.seconds:267174.534174,localGtime.weeks:2052,localGtime.seconds:267174.999999
Refix G03: 2, 267174.920142, 1312
Refix G07: 2, 267174.914501, -3648
Refix G08: 2, 267174.923841, -4662
Refix G09: 2, 267174.922148, -4194
Refix G14: 2, 267174.918957, 2401
Refix G16: 2, 267174.932112, 73
Refix G22: 2, 267174.917492, 1156
Refix G23: 2, 267174.929310, -2729
Refix G26: 2, 267174.927423, 1217
Refix G27: 2, 267174.930147, -3366
Refix G31: 2, 267174.921530, 833
$GNGGA,021237.000,2944.7817,N,10632.1403,E,1,11,0.8,3553.2,M,,,,0000*2C
$GNRMC,021237.000,A,2944.7817,N,10632.1403,E,11.36,20622.86,,,*25
$GPGSA,A,3,08,09,16,22,31,,,,,,,,1.0,0.8,0.5*3A
$BDGSA,A,3,01,06,07,10,16,23,,,,,,,1.0,0.8,0.5*28
$GLGSA,A,3,,,,,,,,,,,,,1.0,0.8,0.5*22
$GPGSV,3,1,11,03,12,225,35,08,36,188,42,09,28,314,39,16,60,010,45*7C
$GPGSV,3,2,11,23,59,288,45,26,36,041,44,27,62,147,45,31,20,097,41*7B
$GPGSV,3,3,11,14,04,149,35,22,06,207,30,07,09,301,00*4E
$BDGSV,3,1,12,01,40,125,41,02,45,218,40,03,54,172,45,04,23,109,41*6C
$BDGSV,3,2,12,06,41,170,42,07,64,009,44,09,66,204,43,10,62,303,44*68
$BDGSV,3,3,12,16,47,177,44,32,10,187,38,23,19,080,41,19,21,293,42*6A
$B3CN0,0,0,0,0,0,0,0,0,0,0,0,0,0,0*4C
$ini_pos,lastpos_good = 1,ini_pos.x:-1578273.247357,ini_pos.y:5316005.219608,ini_pos.z:3147756.585079
$rtc_local_time,localRTC.weeks:2052,localRTC.seconds:267175.534174,localGtime.weeks:2052,localGtime.seconds:267175.999999
Refix G03: 2, 267175.920141, 1318
Refix G07: 2, 267175.914504, -3643
Refix G08: 2, 267175.923844, -4656
Refix G09: 2, 267175.922151, -4190
Refix G14: 2, 267175.918955, 2407
Refix G16: 2, 267175.932112, 78
Refix G22: 2, 267175.917491, 1162
Refix G23: 2, 267175.929311, -2724
Refix G26: 2, 267175.927422, 1221
Refix G27: 2, 267175.930149, -3360
Refix G31: 2, 267175.921530, 838
$GNGGA,021238.000,2944.7818,N,10632.1493,E,1,11,0.8,3549.3,M,,,,0000*2F
$GNRMC,021238.000,A,2944.7818,N,10632.1493,E,11.38,20625.48,,,*27
$GPGSA,A,3,08,09,16,22,31,,,,,,,,1.0,0.8,0.5*3A
$BDGSA,A,3,01,06,07,10,16,23,,,,,,,1.0,0.8,0.5*28
$GLGSA,A,3,,,,,,,,,,,,,1.0,0.8,0.5*22
$GPGSV,3,1,11,03,12,225,36,08,36,188,42,09,28,314,38,16,60,010,44*7F
$GPGSV,3,2,11,23,59,288,44,26,36,041,44,27,62,147,45,31,20,097,42*79
$GPGSV,3,3,11,14,04,149,34,22,06,207,31,07,09,301,00*4E
$BDGSV,3,1,12,01,40,125,41,02,45,218,40,03,54,172,43,04,23,109,41*6A
$BDGSV,3,2,12,06,41,170,41,07,64,009,44,09,66,204,43,10,62,303,43*6C
$BDGSV,3,3,12,16,47,177,43,32,10,187,38,23,19,080,41,19,21,293,42*6D
$B3CN0,0,19,0,0,0,0,0,0,0,0,0,0,0,0*74
$ini_pos,lastpos_good = 1,ini_pos.x:-1578286.219073,ini_pos.y:5315997.780692,ini_pos.z:3147754.769537
$rtc_local_time,localRTC.weeks:2052,localRTC.seconds:267176.534174,localGtime.weeks:2052,localGtime.seconds:267176.999999
Refix G03: 2, 267176.920140, 1314
Refix G07: 2, 267176.914506, -3646
Refix G08: 2, 267176.923847, -4661
Refix G09: 2, 267176.922153, -4193
Refix G14: 2, 267176.918954, 2403
Refix G16: 2, 267176.932112, 72
Refix G22: 2, 267176.917490, 1158
Refix G23: 2, 267176.929313, -2729
Refix G26: 2, 267176.927421, 1215
Refix G27: 2, 267176.930151, -3366
Refix G31: 2, 267176.921529, 833
$GNGGA,021239.000,2944.7816,N,10632.1534,E,1,11,0.8,3544.7,M,,,,0000*25
$GNRMC,021239.000,A,2944.7816,N,10632.1534,E,11.73,20624.43,,,*21
$GPGSA,A,3,08,09,16,22,31,,,,,,,,1.0,0.8,0.5*3A
$BDGSA,A,3,01,06,07,10,16,23,,,,,,,1.0,0.8,0.5*28
$GLGSA,A,3,,,,,,,,,,,,,1.0,0.8,0.5*22
$GPGSV,3,1,11,03,12,225,36,08,36,188,43,09,28,314,37,16,60,010,45*70
$GPGSV,3,2,11,23,59,288,44,26,36,041,44,27,62,147,44,31,20,097,41*7B
$GPGSV,3,3,11,14,04,149,35,22,06,207,31,07,09,301,00*4F
$BDGSV,3,1,12,01,40,125,40,02,45,218,40,03,54,172,43,04,23,109,41*6B
$BDGSV,3,2,12,27,36,158,20,06,41,170,42,07,64,009,44,09,66,204,44*64
$BDGSV,3,3,12,10,62,303,43,16,47,177,43,32,10,187,38,23,19,080,41*6A
$B3CN0,0,0,0,0,0,0,20,0,0,0,0,0,0,0*7E
$GLGSV,2,1,06,08,00,000,47,07,00,000,47,19,00,000,38,20,00,000,42*68
$GLGSV,2,2,06,09,00,000,46,26,00,000,45*6D
$ini_pos,lastpos_good = 1,ini_pos.x:-1578291.500522,ini_pos.y:5315992.287062,ini_pos.z:3147752.208304
$rtc_local_time,localRTC.weeks:2052,localRTC.seconds:267177.534174,localGtime.weeks:2052,localGtime.seconds:267177.999999
Refix G03: 2, 267177.920139, 1315
Refix G07: 2, 267177.914508, -3645
Refix G08: 2, 267177.923849, -4657
Refix G09: 2, 267177.922156, -4192
Refix G14: 2, 267177.918952, 2407
Refix G16: 2, 267177.932112, 76
Refix G22: 2, 267177.917489, 1160
Refix G23: 2, 267177.929315, -2726
Refix G26: 2, 267177.927420, 1220
Refix G27: 2, 267177.930153, -3361
Refix G31: 2, 267177.921529, 838
$GNGGA,021240.000,2944.7841,N,10632.1555,E,1,11,0.8,3547.5,M,,,,0000*2F
$GNRMC,021240.000,A,2944.7841,N,10632.1555,E,10.93,20624.82,,,*28
$GPGSA,A,3,08,09,16,22,31,,,,,,,,1.0,0.8,0.5*3A
$BDGSA,A,3,01,06,07,10,16,23,,,,,,,1.0,0.8,0.5*28
$GLGSA,A,3,,,,,,,,,,,,,1.0,0.8,0.5*22
$GPGSV,3,1,11,03,12,225,36,08,36,188,43,09,28,314,38,16,60,010,44*7E
$GPGSV,3,2,11,23,59,288,44,26,36,041,44,27,62,147,45,31,20,097,41*7A
$GPGSV,3,3,11,14,04,149,34,22,06,207,32,07,09,301,00*4D
$BDGSV,3,1,12,01,40,125,41,02,45,218,41,03,54,172,45,04,23,109,41*6D
$BDGSV,3,2,12,27,36,158,44,06,41,170,42,07,64,009,44,09,66,204,43*61
$BDGSV,3,3,12,10,62,303,44,16,47,177,43,32,10,187,37,23,19,080,41*62
$B3CN0,0,21,0,0,0,0,27,0,0,0,0,0,0,0*4A
$GLGSV,2,1,06,08,41,291,47,07,39,218,47,19,30,065,38,20,27,133,42*62
$GLGSV,2,2,06,09,40,026,46,26,00,000,45*6D
$ini_pos,lastpos_good = 1,ini_pos.x:-1578294.757294,ini_pos.y:5315991.431538,ini_pos.z:3147757.664175
$rtc_local_time,localRTC.weeks:2052,localRTC.seconds:267178.534174,localGtime.weeks:2052,localGtime.seconds:267178.999999
Refix G03: 2, 267178.920139, 1306
Refix G07: 2, 267178.914510, -3654
Refix G08: 2, 267178.923852, -4666
Refix G09: 2, 267178.922159, -4199
Refix G14: 2, 267178.918951, 2398
Refix G16: 2, 267178.932112, 70
Refix G22: 2, 267178.917488, 1150
Refix G23: 2, 267178.929316, -2733
Refix G26: 2, 267178.927419, 1213
Refix G27: 2, 267178.930155, -3368
Refix G31: 2, 267178.921528, 831
$GNGGA,021241.000,2944.7758,N,10632.1694,E,1,16,0.8,3555.1,M,,,,0000*27
$GNRMC,021241.000,A,2944.7758,N,10632.1694,E,10.65,20622.14,,,*20
$GPGSA,A,3,08,09,16,22,31,,,,,,,,1.0,0.8,0.5*3A
$BDGSA,A,3,01,06,07,10,16,23,,,,,,,1.0,0.8,0.5*28
$GLGSA,A,3,07,08,09,19,20,,,,,,,,1.0,0.8,0.5*2E
$GPGSV,3,1,11,03,12,225,36,08,36,188,42,09,28,314,38,16,60,010,44*7F
$GPGSV,3,2,11,23,59,288,45,26,36,041,44,27,62,147,44,31,20,097,42*79
$GPGSV,3,3,11,14,04,149,35,22,06,207,31,07,09,301,00*4F
$BDGSV,3,1,12,01,40,125,42,02,45,218,39,03,54,172,45,04,23,109,41*61
$BDGSV,3,2,12,27,36,158,43,06,41,170,42,07,64,009,44,09,66,204,43*66
$BDGSV,3,3,12,10,62,303,44,16,47,177,43,32,10,187,38,23,19,080,41*6D
$B3CN0,0,23,0,0,0,0,27,0,0,0,0,0,0,0*48
$GLGSV,2,1,06,08,41,291,47,07,39,218,47,19,30,065,38,20,27,133,42*62
$GLGSV,2,2,06,09,40,026,46,26,00,000,45*6D
$ini_pos,lastpos_good = 1,ini_pos.x:-1578320.247999,ini_pos.y:5315998.631132,ini_pos.z:3147748.046120
$rtc_local_time,localRTC.weeks:2052,localRTC.seconds:267179.534174,localGtime.weeks:2052,localGtime.seconds:267179.999999
Refix G03: 2, 267179.920138, 1317
Refix G07: 2, 267179.914513, -3652
Refix G08: 2, 267179.923855, -4652
Refix G09: 2, 267179.922161, -4197
Refix G14: 2, 267179.918949, 2409
Refix G16: 2, 267179.932112, 78
Refix G22: 2, 267179.917488, 1162
Refix G23: 2, 267179.929318, -2724
Refix G26: 2, 267179.927419, 1216
Refix G27: 2, 267179.930157, -3354
Refix G31: 2, 267179.921528, 835
$GNGGA,021242.000,2944.7804,N,10632.1804,E,1,12,0.8,3559.0,M,,,,0000*2C
$GNRMC,021242.000,A,2944.7804,N,10632.1804,E,11.48,10.72,080519,,*1C
$GPGSA,A,3,08,09,16,22,31,,,,,,,,0.9,0.8,0.5*32
$BDGSA,A,3,01,06,07,10,16,23,,,,,,,0.9,0.8,0.5*20
$GLGSA,A,3,09,,,,,,,,,,,,0.9,0.8,0.5*23
$GPGSV,3,1,11,03,12,225,36,08,36,188,42,09,28,314,38,16,60,010,44*7F
$GPGSV,3,2,11,23,59,288,44,26,36,041,44,27,62,147,45,31,20,097,42*79
$GPGSV,3,3,11,14,04,149,35,22,06,207,31,07,09,301,00*4F
$BDGSV,3,1,12,01,40,125,41,02,45,218,40,03,54,172,43,04,23,109,40*6B
$BDGSV,3,2,12,27,36,158,43,06,41,170,42,07,64,009,44,09,66,204,43*66
$BDGSV,3,3,12,10,62,303,43,16,47,177,43,32,10,187,38,23,19,080,42*69
$B3CN0,0,0,0,0,0,0,27,0,0,0,0,0,0,0*79
$GLGSV,2,1,06,08,41,291,47,07,39,218,47,19,30,065,38,20,27,133,42*62
$GLGSV,2,2,06,09,40,026,47,26,00,000,45*6C
$ini_pos,lastpos_good = 1,ini_pos.x:-1578336.988036,ini_pos.y:5315992.854627,ini_pos.z:3147757.404288
$rtc_local_time,localRTC.weeks:2052,localRTC.seconds:267180.534174,localGtime.weeks:2052,localGtime.seconds:267180.999999
Refix G03: 2, 267180.920137, 1311
Refix G07: 2, 267180.914515, -3656
Refix G08: 2, 267180.923858, -4659
Refix G09: 2, 267180.922164, -4202
Refix G14: 2, 267180.918947, 2404
Refix G16: 2, 267180.932112, 69
Refix G22: 2, 267180.917487, 1156
Refix G23: 2, 267180.929320, -2733
Refix G26: 2, 267180.927418, 1209
Refix G27: 2, 267180.930160, -3362
Refix G31: 2, 267180.921527, 830
$GNGGA,021243.000,2944.7877,N,10632.1912,E,1,12,0.8,3558.8,M,,,,0000*26
$GNRMC,021243.000,A,2944.7877,N,10632.1912,E,11.19,9.98,080519,,*27
$GPGSA,A,3,08,09,16,22,31,,,,,,,,0.9,0.8,0.5*32
$BDGSA,A,3,01,06,07,10,16,23,,,,,,,0.9,0.8,0.5*20
$GLGSA,A,3,09,,,,,,,,,,,,0.9,0.8,0.5*23
$GPGSV,3,1,11,03,12,225,36,08,36,188,42,09,28,314,38,16,60,010,44*7F
$GPGSV,3,2,11,23,59,288,44,26,36,041,44,27,62,147,45,31,20,097,43*78
$GPGSV,3,3,11,14,04,149,36,22,06,207,32,07,09,301,00*4F
$BDGSV,3,1,12,01,40,125,41,02,45,218,41,03,54,172,45,04,23,109,41*6D
$BDGSV,3,2,12,27,36,158,43,06,41,170,42,07,64,009,44,09,66,204,43*66
$BDGSV,3,3,12,10,62,303,43,16,47,177,43,32,10,187,37,23,19,080,41*65
$B3CN0,0,0,0,0,0,0,23,0,0,0,0,0,0,0*7D
$GLGSV,2,1,06,08,41,291,47,07,39,218,47,19,30,065,38,20,27,133,42*62
$GLGSV,2,2,06,09,40,026,46,26,00,000,44*6C
$ini_pos,lastpos_good = 1,ini_pos.x:-1578351.740272,ini_pos.y:5315981.285891,ini_pos.z:3147768.995741
$rtc_local_time,localRTC.weeks:2052,localRTC.seconds:267181.534174,localGtime.weeks:2052,localGtime.seconds:267181.999999
Refix G03: 2, 267181.920136, 1318
Refix G07: 2, 267181.914517, -3651
Refix G08: 2, 267181.923861, -4651
Refix G09: 2, 267181.922167, -4195
Refix G14: 2, 267181.918946, 2409
Refix G16: 2, 267181.932112, 79
Refix G22: 2, 267181.917486, 1162
Refix G23: 2, 267181.929322, -2723
Refix G26: 2, 267181.927417, 1218
Refix G27: 2, 267181.930162, -3352
Refix G31: 2, 267181.921527, 837
$GNGGA,021244.000,2944.7920,N,10632.2006,E,1,12,0.8,3557.1,M,,,,0000*2B
$GNRMC,021244.000,A,2944.7920,N,10632.2006,E,11.37,9.69,080519,,*2E
$GPGSA,A,3,08,09,16,22,31,,,,,,,,0.9,0.8,0.5*32
$BDGSA,A,3,01,06,07,10,16,23,,,,,,,0.9,0.8,0.5*20
$GLGSA,A,3,09,,,,,,,,,,,,0.9,0.8,0.5*23
$GPGSV,3,1,11,03,12,225,35,08,36,188,43,09,28,314,37,16,60,010,44*72
$GPGSV,3,2,11,23,59,288,44,26,36,041,44,27,62,147,45,31,20,097,43*78
$GPGSV,3,3,11,14,04,149,36,22,06,207,31,07,09,301,00*4C
$BDGSV,3,1,12,01,40,125,41,02,45,218,40,03,54,172,45,04,23,109,40*6D
$BDGSV,3,2,12,27,36,158,43,06,41,170,41,07,64,009,43,09,66,204,43*62
$BDGSV,3,3,12,10,62,303,43,16,47,177,43,32,10,187,38,23,19,080,41*6A
$B3CN0,0,0,0,0,0,0,0,0,0,0,0,0,0,0*4C
$GLGSV,2,1,06,08,41,291,47,07,39,218,47,19,30,065,38,20,27,133,42*62
$GLGSV,2,2,06,09,40,026,46,26,00,000,44*6C
$ini_pos,lastpos_good = 1,ini_pos.x:-1578364.799697,ini_pos.y:5315971.742101,ini_pos.z:3147775.114125
$rtc_local_time,localRTC.weeks:2052,localRTC.seconds:267182.534174,localGtime.weeks:2052,localGtime.seconds:267182.999999
Refix G03: 2, 267182.920135, 1319
Refix G07: 2, 267182.914519, -3650
Refix G08: 2, 267182.923864, -4650
Refix G09: 2, 267182.922169, -4193
Refix G14: 2, 267182.918944, 2412
Refix G16: 2, 267182.932111, 82
Refix G22: 2, 267182.917485, 1163
Refix G23: 2, 267182.929323, -2721
Refix G26: 2, 267182.927416, 1220
Refix G27: 2, 267182.930164, -3349
Refix G31: 2, 267182.921526, 839
$GNGGA,021245.000,2944.7885,N,10632.2022,E,1,12,0.8,3542.5,M,,,,0000*22
$GNRMC,021245.000,A,2944.7885,N,10632.2022,E,11.15,9.65,080519,,*2B
$GPGSA,A,3,08,09,16,22,31,,,,,,,,0.9,0.8,0.5*32
$BDGSA,A,3,01,06,07,10,16,23,,,,,,,0.9,0.8,0.5*20
$GLGSA,A,3,09,,,,,,,,,,,,0.9,0.8,0.5*23
$GPGSV,3,1,11,03,12,225,35,08,36,188,42,09,28,314,38,16,60,010,44*7C
$GPGSV,3,2,11,23,59,288,44,26,36,041,44,27,62,147,44,31,20,097,43*79
$GPGSV,3,3,11,14,04,149,36,22,06,207,31,07,09,301,00*4C
$BDGSV,3,1,12,01,40,125,41,02,45,218,41,03,54,172,43,04,23,109,41*6B
$BDGSV,3,2,12,27,36,158,43,06,41,170,42,07,64,009,43,09,66,204,43*61
$BDGSV,3,3,12,10,62,303,43,16,47,177,43,32,10,187,37,23,19,080,41*65
$B3CN0,0,0,0,0,0,0,0,0,0,0,0,0,0,0*4C
$GLGSV,2,1,06,08,41,291,47,07,39,218,47,19,30,065,38,20,27,133,42*62
$GLGSV,2,2,06,09,40,026,46,26,00,000,44*6C
$ini_pos,lastpos_good = 1,ini_pos.x:-1578364.457488,ini_pos.y:5315961.948522,ini_pos.z:3147762.270775
$rtc_local_time,localRTC.weeks:2052,localRTC.seconds:267183.534174,localGtime.weeks:2052,localGtime.seconds:267183.999999
Refix G03: 2, 267183.920134, 1317
Refix G07: 2, 267183.914522, -3651
Refix G08: 2, 267183.923867, -4653
Refix G09: 2, 267183.922172, -4195
Refix G14: 2, 267183.918943, 2408
Refix G16: 2, 267183.932111, 77
Refix G22: 2, 267183.917484, 1161
Refix G23: 2, 267183.929325, -2724
Refix G26: 2, 267183.927415, 1215
Refix G27: 2, 267183.930166, -3354
Refix G31: 2, 267183.921525, 834
$GNGGA,021246.000,2944.7955,N,10632.2035,E,1,12,0.8,3537.2,M,,,,0000*2E
$GNRMC,021246.000,A,2944.7955,N,10632.2035,E,11.64,8.40,080519,,*22
$GPGSA,A,3,08,09,16,22,31,,,,,,,,0.9,0.8,0.5*32
$BDGSA,A,3,01,06,07,10,16,23,,,,,,,0.9,0.8,0.5*20
$GLGSA,A,3,09,,,,,,,,,,,,0.9,0.8,0.5*23
$GPGSV,3,1,11,03,12,225,35,08,36,188,42,09,28,314,38,16,60,010,44*7C
$GPGSV,3,2,11,23,59,288,43,26,36,041,44,27,62,147,44,31,20,097,42*7F
$GPGSV,3,3,11,14,04,149,36,22,06,207,29,07,09,301,00*45
$BDGSV,3,1,12,01,40,125,41,02,45,218,41,03,54,172,43,04,23,109,41*6B
$BDGSV,3,2,12,27,36,158,43,06,41,170,41,07,64,009,44,09,66,204,43*65
$BDGSV,3,3,12,10,62,303,43,16,47,177,43,32,10,187,37,23,19,080,41*65
$B3CN0,0,23,0,0,0,0,0,0,0,0,0,0,0,0*7D
$GLGSV,2,1,07,08,41,291,47,07,39,218,47,19,30,065,38,20,27,133,42*63
$GLGSV,2,2,07,09,40,026,46,26,00,000,44,01,11,328,00*55
$ini_pos,lastpos_good = 1,ini_pos.x:-1578363.361413,ini_pos.y:5315950.844240,ini_pos.z:3147770.729765
$rtc_local_time,localRTC.weeks:2052,localRTC.seconds:267184.534174,localGtime.weeks:2052,localGtime.seconds:267184.999999
Refix G03: 2, 267184.920133, 1312
Refix G07: 2, 267184.914524, -3655
Refix G08: 2, 267184.923870, -4660
Refix G09: 2, 267184.922174, -4202
Refix G14: 2, 267184.918941, 2401
Refix G16: 2, 267184.932111, 67
Refix G22: 2, 267184.917484, 1156
Refix G23: 2, 267184.929327, -2733
Refix G26: 2, 267184.927415, 1205
Refix G27: 2, 267184.930168, -3363
Refix G31: 2, 267184.921525, 825
$GNGGA,021247.000,2944.7860,N,10632.2041,E,1,12,0.8,3532.7,M,,,,0000*2B
$GNRMC,021247.000,A,2944.7860,N,10632.2041,E,12.34,9.23,080519,,*25
$GPGSA,A,3,08,09,16,22,31,,,,,,,,0.9,0.8,0.5*32
$BDGSA,A,3,01,06,07,10,16,23,,,,,,,0.9,0.8,0.5*20
$GLGSA,A,3,09,,,,,,,,,,,,0.9,0.8,0.5*23
$GPGSV,3,1,11,03,12,225,35,08,36,188,43,09,28,314,38,16,60,010,43*7A
$GPGSV,3,2,11,23,59,288,44,26,36,041,43,27,62,147,44,31,20,097,42*7F
$GPGSV,3,3,11,14,04,149,35,22,06,207,32,07,09,301,00*4C
$BDGSV,3,1,12,01,40,125,42,02,45,218,40,03,54,172,43,04,23,109,41*69
$BDGSV,3,2,12,27,36,158,43,06,41,170,41,07,64,009,43,09,66,204,43*62
$BDGSV,3,3,12,10,62,303,43,16,47,177,43,32,10,187,38,23,19,080,41*6A
$B3CN0,0,0,0,0,0,0,0,0,0,0,0,0,0,0*4C
$GLGSV,2,1,07,08,41,291,47,07,39,218,47,19,30,065,38,20,27,133,42*63
$GLGSV,2,2,07,09,40,026,46,26,00,000,44,01,11,328,00*55
$ini_pos,lastpos_good = 1,ini_pos.x:-1578365.661701,ini_pos.y:5315955.129696,ini_pos.z:3147753.405959
$rtc_local_time,localRTC.weeks:2052,localRTC.seconds:267185.534174,localGtime.weeks:2052,localGtime.seconds:267185.999999
Refix G03: 2, 267185.920132, 1307
Refix G07: 2, 267185.914526, -3659
Refix G08: 2, 267185.923873, -4663
Refix G09: 2, 267185.922177, -4204
Refix G14: 2, 267185.918940, 2398
Refix G16: 2, 267185.932111, 67
Refix G22: 2, 267185.917483, 1151
Refix G23: 2, 267185.929328, -2734
Refix G26: 2, 267185.927414, 1205
Refix G27: 2, 267185.930170, -3364
Refix G31: 2, 267185.921524, 824
$GNGGA,021248.000,2944.7900,N,10632.2082,E,1,12,0.8,3528.0,M,,,,0000*20
$GNRMC,021248.000,A,2944.7900,N,10632.2082,E,11.70,7.29,080519,,*25
$GPGSA,A,3,08,09,16,22,31,,,,,,,,0.9,0.8,0.5*32
$BDGSA,A,3,01,06,07,10,16,23,,,,,,,0.9,0.8,0.5*20
$GLGSA,A,3,09,,,,,,,,,,,,0.9,0.8,0.5*23
$GPGSV,3,1,11,03,12,225,34,08,36,188,42,09,28,314,38,16,60,010,43*7A
$GPGSV,3,2,11,23,59,288,44,26,36,041,43,27,62,147,44,31,20,097,41*7C
$GPGSV,3,3,11,14,04,149,35,22,06,207,31,07,09,301,00*4F
$BDGSV,3,1,12,01,40,125,41,02,45,218,40,03,54,172,43,04,23,109,41*6A
$BDGSV,3,2,12,27,36,158,43,06,41,170,42,07,64,009,44,09,66,204,43*66
$BDGSV,3,3,12,10,62,303,42,16,47,177,42,32,10,187,37,23,19,080,41*65
$B3CN0,0,0,0,0,0,0,0,0,0,0,0,0,0,0*4C
$GLGSV,2,1,07,08,41,291,47,07,39,218,47,19,30,065,37,20,27,133,42*6C
$GLGSV,2,2,07,09,40,026,46,26,00,000,45,01,11,328,00*54
$ini_pos,lastpos_good = 1,ini_pos.x:-1578369.914283,ini_pos.y:5315945.798285,ini_pos.z:3147757.366664
$rtc_local_time,localRTC.weeks:2052,localRTC.seconds:267186.534174,localGtime.weeks:2052,localGtime.seconds:267186.999999
Refix G03: 2, 267186.920131, 1315
Refix G07: 2, 267186.914528, -3656
Refix G08: 2, 267186.923876, -4653
Refix G09: 2, 267186.922180, -4198
Refix G14: 2, 267186.918938, 2406
Refix G16: 2, 267186.932111, 79
Refix G22: 2, 267186.917482, 1158
Refix G23: 2, 267186.929330, -2723
Refix G26: 2, 267186.927413, 1214
Refix G27: 2, 267186.930172, -3351
Refix G31: 2, 267186.921524, 833
$GNGGA,021249.000,2944.7901,N,10632.2144,E,1,12,0.8,3532.0,M,,,,0000*20
$GNRMC,021249.000,A,2944.7901,N,10632.2144,E,11.76,11.39,080519,,*1E
$GPGSA,A,3,08,09,16,22,31,,,,,,,,0.9,0.8,0.5*32
$BDGSA,A,3,01,06,07,10,16,23,,,,,,,0.9,0.8,0.5*20
$GLGSA,A,3,09,,,,,,,,,,,,0.9,0.8,0.5*23
$GPGSV,3,1,11,03,12,225,35,08,36,188,43,09,28,314,39,16,60,010,44*7C
$GPGSV,3,2,11,23,59,288,44,26,36,041,43,27,62,147,44,31,20,097,42*7F
$GPGSV,3,3,11,14,04,149,36,22,06,207,31,07,09,301,00*4C
$BDGSV,3,1,12,01,40,125,41,02,45,218,40,03,54,172,45,04,23,109,39*63
$BDGSV,3,2,12,27,36,158,43,06,41,170,42,07,64,009,43,09,66,204,43*61
$BDGSV,3,3,12,10,62,303,43,16,47,177,43,32,10,187,37,23,19,080,41*65
$B3CN0,0,0,0,0,0,0,0,0,0,0,0,0,0,0*4C
$GLGSV,2,1,07,08,41,291,47,07,39,218,47,19,30,065,37,20,27,133,42*6C
$GLGSV,2,2,07,09,40,026,46,26,00,000,45,01,11,328,00*54
$ini_pos,lastpos_good = 1,ini_pos.x:-1578380.383596,ini_pos.y:5315946.209497,ini_pos.z:3147759.593210
$rtc_local_time,localRTC.weeks:2052,localRTC.seconds:267187.534174,localGtime.weeks:2052,localGtime.seconds:267187.999999
Refix G03: 2, 267187.920131, 1317
Refix G07: 2, 267187.914531, -3653
Refix G08: 2, 267187.923879, -4650
Refix G09: 2, 267187.922182, -4194
Refix G14: 2, 267187.918936, 2410
Refix G16: 2, 267187.932111, 83
Refix G22: 2, 267187.917481, 1159
Refix G23: 2, 267187.929332, -2720
Refix G26: 2, 267187.927412, 1219
Refix G27: 2, 267187.930174, -3347
Refix G31: 2, 267187.921523, 838
$GNGGA,021250.000,2944.7844,N,10632.2245,E,1,12,0.8,3521.7,M,,,,0000*2F
$GNRMC,021250.000,A,2944.7844,N,10632.2245,E,10.92,9.23,080519,,*2D
$GPGSA,A,3,08,09,16,22,31,,,,,,,,0.9,0.8,0.5*32
$BDGSA,A,3,01,06,07,10,16,23,,,,,,,0.9,0.8,0.5*20
$GLGSA,A,3,09,,,,,,,,,,,,0.9,0.8,0.5*23
$GPGSV,3,1,11,03,12,225,36,08,36,188,42,09,28,314,39,16,60,010,44*7E
$GPGSV,3,2,11,23,59,288,44,26,36,041,44,27,62,147,45,31,20,097,42*79
$GPGSV,3,3,11,14,04,149,36,22,06,207,31,07,09,301,00*4C
$BDGSV,3,1,12,01,40,125,41,02,45,218,41,03,54,172,43,04,23,109,41*6B
$BDGSV,3,2,12,27,36,158,43,06,41,170,41,07,64,009,44,09,66,204,43*65
$BDGSV,3,3,12,10,62,303,43,16,47,177,43,32,10,187,38,23,19,080,42*69
$B3CN0,0,0,0,0,0,0,0,0,0,0,0,0,0,0*4C
$GLGSV,2,1,07,08,41,291,47,07,39,218,47,19,30,065,38,20,27,133,42*63
$GLGSV,2,2,07,09,40,026,46,26,00,000,45,01,11,328,00*54
$ini_pos,lastpos_good = 1,ini_pos.x:-1578394.934948,ini_pos.y:5315938.012367,ini_pos.z:3147745.375343
$rtc_local_time,localRTC.weeks:2052,localRTC.seconds:267188.534174,localGtime.weeks:2052,localGtime.seconds:267188.999999
Refix G03: 2, 267188.920130, 1314
Refix G07: 2, 267188.914533, -3656
Refix G08: 2, 267188.923881, -4655
Refix G09: 2, 267188.922185, -4198
Refix G14: 2, 267188.918935, 2406
Refix G16: 2, 267188.932111, 77
Refix G22: 2, 267188.917481, 1157
Refix G23: 2, 267188.929333, -2725
Refix G26: 2, 267188.927411, 1212
Refix G27: 2, 267188.930176, -3353
Refix G31: 2, 267188.921523, 832
$GNGGA,021251.000,2944.7900,N,10632.2243,E,1,12,0.8,3511.3,M,,,,0000*2E
$GNRMC,021251.000,A,2944.7900,N,10632.2243,E,11.63,9.72,080519,,*20
$GPGSA,A,3,08,09,16,22,31,,,,,,,,0.9,0.8,0.5*32
$BDGSA,A,3,01,06,07,10,16,23,,,,,,,0.9,0.8,0.5*20
$GLGSA,A,3,09,,,,,,,,,,,,0.9,0.8,0.5*23
$GPGSV,3,1,11,03,12,225,35,08,36,188,42,09,28,314,38,16,60,010,45*7D
$GPGSV,3,2,11,23,59,288,44,26,36,041,44,27,62,147,45,31,20,097,42*79
$GPGSV,3,3,11,14,04,149,36,22,06,207,32,07,09,301,00*4F
$BDGSV,3,1,12,01,40,125,41,02,45,218,41,03,54,172,45,04,23,109,39*62
$BDGSV,3,2,12,27,36,158,43,06,41,170,42,07,64,009,44,09,66,204,44*61
$BDGSV,3,3,12,10,62,303,43,16,47,177,43,32,10,187,37,23,19,080,41*65
$B3CN0,0,0,0,0,0,0,0,0,0,0,0,0,0,0*4C
$GLGSV,2,1,07,08,41,291,47,07,39,218,47,19,30,065,38,20,27,133,41*60
$GLGSV,2,2,07,09,40,026,47,26,00,000,45,01,11,328,00*55
$ini_pos,lastpos_good = 1,ini_pos.x:-1578390.578955,ini_pos.y:5315924.550900,ini_pos.z:3147749.135126
$rtc_local_time,localRTC.weeks:2052,localRTC.seconds:267189.534174,localGtime.weeks:2052,localGtime.seconds:267189.999999
Refix G03: 2, 267189.920129, 1317
Refix G07: 2, 267189.914535, -3653
Refix G08: 2, 267189.923884, -4650
Refix G09: 2, 267189.922188, -4194
Refix G14: 2, 267189.918933, 2411
Refix G16: 2, 267189.932111, 84
Refix G22: 2, 267189.917480, 1160
Refix G23: 2, 267189.929335, -2719
Refix G26: 2, 267189.927411, 1218
Refix G27: 2, 267189.930178, -3346
Refix G31: 2, 267189.921522, 838
$GNGGA,021252.000,2944.7925,N,10632.2182,E,1,12,0.8,3500.1,M,,,,0000*26
$GNRMC,021252.000,A,2944.7925,N,10632.2182,E,11.15,10.05,080519,,*13
$GPGSA,A,3,08,09,16,22,31,,,,,,,,0.9,0.8,0.5*32
$BDGSA,A,3,01,06,07,10,16,23,,,,,,,0.9,0.8,0.5*20
$GLGSA,A,3,09,,,,,,,,,,,,0.9,0.8,0.5*23
$GPGSV,3,1,11,03,12,225,35,08,36,188,42,09,28,314,38,16,60,010,45*7D
$GPGSV,3,2,11,23,59,288,45,26,36,041,44,27,62,147,45,31,20,097,43*79
$GPGSV,3,3,11,14,04,149,36,22,06,207,31,07,09,301,00*4C
$BDGSV,3,1,12,01,40,125,41,02,45,218,40,03,54,172,45,04,23,109,40*6D
$BDGSV,3,2,12,27,36,158,43,06,41,170,41,07,64,009,44,09,66,204,43*65
$BDGSV,3,3,12,10,62,303,43,16,47,177,43,32,10,187,37,23,19,080,41*65
$B3CN0,0,0,0,0,0,0,0,0,0,0,0,0,0,0*4C
$GLGSV,2,1,07,08,41,291,47,07,39,218,47,19,30,065,37,20,27,133,41*6F
$GLGSV,2,2,07,09,40,026,47,26,00,000,45,01,11,328,00*55
$ini_pos,lastpos_good = 1,ini_pos.x:-1578377.785901,ini_pos.y:5315915.758286,ini_pos.z:3147747.606211
$rtc_local_time,localRTC.weeks:2052,localRTC.seconds:267190.534174,localGtime.weeks:2052,localGtime.seconds:267190.999999
Refix G03: 2, 267190.920128, 1313
Refix G07: 2, 267190.914538, -3656
Refix G08: 2, 267190.923887, -4655
Refix G09: 2, 267190.922190, -4197
Refix G14: 2, 267190.918932, 2407
Refix G16: 2, 267190.932111, 78
Refix G22: 2, 267190.917479, 1156
Refix G23: 2, 267190.929337, -2725
Refix G26: 2, 267190.927410, 1214
Refix G27: 2, 267190.930180, -3351
Refix G31: 2, 267190.921521, 834
$GNGGA,021253.000,2944.7938,N,10632.2191,E,1,12,0.8,3489.2,M,,,,0000*2A
$GNRMC,021253.000,A,2944.7938,N,10632.2191,E,10.87,8.95,080519,,*26
$GPGSA,A,3,08,09,16,22,31,,,,,,,,0.9,0.8,0.5*32
$BDGSA,A,3,01,06,07,10,16,23,,,,,,,0.9,0.8,0.5*20
$GLGSA,A,3,09,,,,,,,,,,,,0.9,0.8,0.5*23
$GPGSV,3,1,11,03,12,225,35,08,36,188,42,09,28,314,38,16,60,010,45*7D
$GPGSV,3,2,11,23,59,288,45,26,36,041,44,27,62,147,45,31,20,097,42*78
$GPGSV,3,3,11,14,04,149,36,22,06,207,31,07,09,301,00*4C
$BDGSV,3,1,12,01,40,125,41,02,45,218,40,03,54,172,45,04,23,109,41*6C
$BDGSV,3,2,12,27,36,158,43,06,41,170,41,07,64,009,44,09,66,204,43*65
$BDGSV,3,3,12,10,62,303,43,16,47,177,43,32,10,187,37,23,19,080,41*65
$B3CN0,0,0,0,0,0,0,0,0,0,0,0,0,0,0*4C
$GLGSV,2,1,07,08,41,291,47,07,39,218,47,19,30,065,38,20,27,133,41*60
$GLGSV,2,2,07,09,40,026,46,26,00,000,45,01,11,328,00*54
$ini_pos,lastpos_good = 1,ini_pos.x:-1578376.104777,ini_pos.y:5315905.109878,ini_pos.z:3147744.273795
$rtc_local_time,localRTC.weeks:2052,localRTC.seconds:267191.534174,localGtime.weeks:2052,localGtime.seconds:267191.999999
Refix G03: 2, 267191.920127, 1314
Refix G07: 2, 267191.914540, -3656
Refix G08: 2, 267191.923890, -4653
Refix G09: 2, 267191.922193, -4196
Refix G14: 2, 267191.918930, 2407
Refix G16: 2, 267191.932111, 80
Refix G22: 2, 267191.917478, 1156
Refix G23: 2, 267191.929339, -2723
Refix G26: 2, 267191.927409, 1215
Refix G27: 2, 267191.930183, -3349
Refix G31: 2, 267191.921521, 834
$GNGGA,021254.000,2944.7939,N,10632.2220,E,1,12,0.8,3471.4,M,,,,0000*24
$GNRMC,021254.000,A,2944.7939,N,10632.2220,E,11.14,9.00,080519,,*2F
$GPGSA,A,3,08,09,16,22,31,,,,,,,,0.9,0.8,0.5*32
$BDGSA,A,3,01,06,07,10,16,23,,,,,,,0.9,0.8,0.5*20
$GLGSA,A,3,09,,,,,,,,,,,,0.9,0.8,0.5*23
$GPGSV,3,1,11,03,12,225,34,08,36,188,42,09,28,314,39,16,60,010,45*7D
$GPGSV,3,2,11,23,59,288,44,26,36,041,44,27,62,147,44,31,20,097,42*78
$GPGSV,3,3,11,14,04,149,36,22,06,207,31,07,09,301,00*4C
$BDGSV,3,1,12,01,40,125,41,02,45,218,41,03,54,172,43,04,23,109,40*6A
$BDGSV,3,2,12,27,36,158,43,06,41,170,41,07,64,009,44,09,66,204,43*65
$BDGSV,3,3,12,10,62,303,44,16,47,177,43,32,10,187,37,23,19,080,41*62
$B3CN0,0,0,0,0,0,0,0,0,0,0,0,0,0,0*4C
$GLGSV,2,1,07,08,41,291,46,07,39,218,47,19,30,065,38,20,27,133,41*61
$GLGSV,2,2,07,09,40,026,46,26,00,000,45,01,11,328,00*54
