把snapshot全屏蔽掉就定位正确了 
SD initialized success
Create debug.log Failed! 3
bbram_blkflag = 1
rtcflag = 0
BBRAM Block OK: 01 EPHflag: 4660a1c4 8c44836f, rtc 00
Hot-start nowtime:day = 8,minute = 15,seconds = 48.00
GPS 0 Init Dop: 10000,80
GPS 1 Init Dop: 10000,80
GPS 2 Init Dop:  1591, 2
GPS 3 Init Dop: 10000,80
GPS 4 Init Dop: 10000,80
GPS 5 Init Dop: 10000,80
GPS 6 Init Dop: -3345, 2
GPS 7 Init Dop: -4334, 2
GPS 8 Init Dop: -3862, 2
GPS 9 Init Dop: 10000,80
GPS10 Init Dop: 10000,80
GPS11 Init Dop: 10000,80
GPS12 Init Dop: 10000,80
GPS13 Init Dop:  2725, 2
GPS14 Init Dop: 10000,80
GPS15 Init Dop:   442, 2
GPS16 Init Dop: 10000,80
GPS17 Init Dop: 10000,80
GPS18 Init Dop: 10000,80
GPS19 Init Dop: 10000,80
GPS20 Init Dop: 10000,80
GPS21 Init Dop:  1418, 2
GPS22 Init Dop: -2406, 2
GPS23 Init Dop: 10000,80
GPS24 Init Dop: 10000,80
GPS25 Init Dop:  1471, 2
GPS26 Init Dop: -2927, 2
GPS27 Init Dop: 10000,80
GPS28 Init Dop: 10000,80
GPS29 Init Dop: 10000,80
GPS30 Init Dop:  1113, 2
GPS31 Init Dop: 10000,80
BDS 0 Init Dop:  -887, 2
BDS 1 Init Dop:  -818, 2
BDS 2 Init Dop:  -866, 2
BDS 3 Init Dop:  -893, 2
BDS 4 Init Dop: 10000,80
BDS 5 Init Dop:   345, 2
BDS 6 Init Dop:  -579, 2
BDS 7 Init Dop: 10000,80
BDS 8 Init Dop:  -180, 2
BDS 9 Init Dop:  -686, 2
BDS10 Init Dop: 10000,80
BDS11 Init Dop: 10000,80
BDS12 Init Dop: 10000,80
BDS13 Init Dop: 10000,80
BDS14 Init Dop: 10000,80
BDS15 Init Dop:   366, 2
BDS16 Init Dop: 10000,80
BDS17 Init Dop: 10000,80
BDS18 Init Dop: -1406, 2
BDS19 Init Dop: 10000,80
BDS20 Init Dop: 10000,80
BDS21 Init Dop: 10000,80
BDS22 Init Dop:   793, 2
BDS23 Init Dop: 10000,80
BDS24 Init Dop: 10000,80
BDS25 Init Dop: 10000,80
BDS26 Init Dop: -3737, 2
BDS27 Init Dop: -1483, 2
BDS28 Init Dop: 10000,80
BDS29 Init Dop: 10000,80
BDS30 Init Dop: 10000,80
BDS31 Init Dop:  2118, 2
Good luck!
$ini_pos,lastpos_good = 1,ini_pos.x:-1578443.000000,ini_pos.y:5315805.000000,ini_pos.z:3147688.000000
$GNGGA,000000.000,,,,,0,00,,,M,,,,0000*2B
$GNRMC,000000.000,A,,,,,,,060180,,*29
$GPGSA,A,1,,,,,,,,,,,,,,,*1E
$BDGSA,A,1,,,,,,,,,,,,,,,*0F
$GLGSA,A,1,,,,,,,,,,,,,,,*02
$B3CN0,0,0,0,0,0,0,0,0,0,0,0,0,0,0*4C
$ini_pos,lastpos_good = 1,ini_pos.x:-1578443.000000,ini_pos.y:5315805.000000,ini_pos.z:3147688.000000
$GNGGA,000000.000,,,,,0,00,,,M,,,,0000*2B
$GNRMC,000000.000,A,,,,,,,060180,,*29
$GPGSA,A,1,,,,,,,,,,,,,,,*1E
$BDGSA,A,1,,,,,,,,,,,,,,,*0F
$GLGSA,A,1,,,,,,,,,,,,,,,*02
$B3CN0,0,0,0,0,0,0,0,0,0,0,0,0,0,0*4C
$ini_pos,lastpos_good = 1,ini_pos.x:-1578443.000000,ini_pos.y:5315805.000000,ini_pos.z:3147688.000000
$GNGGA,000000.000,,,,,0,00,,,M,,,,0000*2B
$GNRMC,000000.000,A,,,,,,,060180,,*29
$GPGSA,A,1,,,,,,,,,,,,,,,*1E
$BDGSA,A,1,,,,,,,,,,,,,,,*0F
$GLGSA,A,1,,,,,,,,,,,,,,,*02
$GPGSV,1,1,01,03,00,000,20*49
$B3CN0,0,0,0,0,0,0,0,0,0,0,0,0,0,0*4C
$ini_pos,lastpos_good = 1,ini_pos.x:-1578443.000000,ini_pos.y:5315805.000000,ini_pos.z:3147688.000000
$GNGGA,000000.000,,,,,0,00,,,M,,,,0000*2B
$GNRMC,000000.000,A,,,,,,,060180,,*29
$GPGSA,A,1,,,,,,,,,,,,,,,*1E
$BDGSA,A,1,,,,,,,,,,,,,,,*0F
$GLGSA,A,1,,,,,,,,,,,,,,,*02
$GPGSV,2,1,06,03,00,000,35,07,00,000,37,08,00,000,39,09,00,000,38*7A
$GPGSV,2,2,06,14,00,000,27,16,00,000,29*73
$B3CN0,0,0,0,0,0,0,0,0,0,0,0,0,0,0*4C
$ini_pos,lastpos_good = 1,ini_pos.x:-1578443.000000,ini_pos.y:5315805.000000,ini_pos.z:3147688.000000
$GNGGA,000000.000,,,,,0,00,,,M,,,,0000*2B
$GNRMC,000000.000,A,,,,,,,060180,,*29
$GPGSA,A,1,,,,,,,,,,,,,,,*1E
$BDGSA,A,1,,,,,,,,,,,,,,,*0F
$GLGSA,A,1,,,,,,,,,,,,,,,*02
$GPGSV,3,1,10,03,00,000,35,07,00,000,39,08,00,000,41,09,00,000,39*7C
$GPGSV,3,2,10,14,00,000,32,16,00,000,45,23,00,000,45,26,00,000,38*74
$GPGSV,3,3,10,27,00,000,39,31,00,000,32*74
$BDGSV,2,1,07,01,00,000,41,03,00,000,43,04,00,000,39,06,00,000,26*60
$BDGSV,2,2,07,07,00,000,27,09,00,000,22,10,00,000,22*55
$B3CN0,0,0,0,0,0,0,0,0,0,0,0,0,0,0*4C
$ini_pos,lastpos_good = 1,ini_pos.x:-1578443.000000,ini_pos.y:5315805.000000,ini_pos.z:3147688.000000
$GNGGA,000000.000,,,,,0,00,,,M,,,,0000*2B
$GNRMC,000000.000,A,,,,,,,060180,,*29
$GPGSA,A,1,,,,,,,,,,,,,,,*1E
$BDGSA,A,1,,,,,,,,,,,,,,,*0F
$GLGSA,A,1,,,,,,,,,,,,,,,*02
$GPGSV,3,1,10,03,00,000,35,07,00,000,40,08,00,000,41,09,00,000,40*7C
$GPGSV,3,2,10,14,00,000,31,16,00,000,44,23,00,000,44,26,00,000,43*7B
$GPGSV,3,3,10,27,00,000,44,31,00,000,43*78
$BDGSV,2,1,08,01,00,000,41,03,00,000,43,04,00,000,38,06,00,000,42*6C
$BDGSV,2,2,08,07,00,000,44,09,00,000,43,10,00,000,43,16,00,000,27*6D
$B3CN0,0,0,0,0,0,0,0,0,0,0,0,0,0,0*4C
tow update,267373713.652512
$ini_pos,lastpos_good = 1,ini_pos.x:-1578443.000000,ini_pos.y:5315805.000000,ini_pos.z:3147688.000000
$GNGGA,021555.582,2944.9057,N,10633.0914,E,1,13,0.8,328.9,M,,,,0000*19
$GNRMC,021555.582,A,2944.9057,N,10633.0914,E,0.08,0.00,090180,,*17
$GPGSA,A,3,03,07,08,09,14,16,23,26,27,31,,,1.4,0.8,1.1*3A
$BDGSA,A,3,01,03,04,,,,,,,,,,1.4,0.8,1.1*28
$GLGSA,A,3,,,,,,,,,,,,,1.4,0.8,1.1*23
$GPGSV,3,1,10,03,00,000,35,07,00,000,39,08,00,000,41,09,00,000,40*72
$GPGSV,3,2,10,14,00,000,34,16,00,000,44,23,00,000,44,26,00,000,43*7E
$GPGSV,3,3,10,27,00,000,44,31,00,000,43*78
$BDGSV,3,1,09,01,00,000,41,03,00,000,43,04,00,000,39,06,00,000,41*6E
$BDGSV,3,2,09,07,00,000,44,09,00,000,43,10,00,000,43,16,00,000,44*68
$BDGSV,3,3,09,23,00,000,30*53
$B3CN0,0,0,0,0,0,0,0,0,0,0,0,0,0,0*4C
$ini_pos,lastpos_good = 1,ini_pos.x:-1578914.023250,ini_pos.y:5312775.964599,ini_pos.z:3146355.737240
Refix G03: 2, 267374.919813, 1317
Refix G07: 2, 267374.914813, -3612
Refix G08: 2, 267374.924269, -4593
Refix G09: 2, 267374.922518, -4125
Refix G14: 2, 267374.918493, 2490
Refix G16: 2, 267374.931937, 178
Refix G22: 2, 267374.917187, 1150
Refix G23: 2, 267374.929482, -2679
Refix G26: 2, 267374.927103, 1226
Refix G27: 2, 267374.930408, -3182
Refix G31: 2, 267374.921263, 887
$GNGGA,021557.000,2944.9075,N,10633.0921,E,1,13,0.8,329.4,M,,,,0000*1E
$GNRMC,021557.000,A,2944.9075,N,10633.0921,E,0.37,0.00,080519,,*15
$GPGSA,A,3,03,07,08,09,14,16,23,26,27,31,,,1.1,0.8,0.8*37
$BDGSA,A,3,01,03,04,,,,,,,,,,1.1,0.8,0.8*25
$GLGSA,A,3,,,,,,,,,,,,,1.1,0.8,0.8*2E
$GPGSV,3,1,10,03,00,000,35,07,00,000,39,08,00,000,41,09,00,000,41*73
$GPGSV,3,2,10,14,00,000,33,16,00,000,44,23,00,000,44,26,00,000,43*79
$GPGSV,3,3,10,27,00,000,44,31,00,000,43*78
$BDGSV,3,1,12,01,00,000,41,03,00,000,43,04,00,000,40,05,00,000,22*6C
$BDGSV,3,2,12,06,00,000,41,07,00,000,43,09,00,000,42,10,00,000,43*60
$BDGSV,3,3,12,16,00,000,43,23,00,000,42,27,00,000,43,28,00,000,43*63
$B3CN0,0,0,0,0,0,0,0,0,0,0,0,0,0,0*4C
$ini_pos,lastpos_good = 1,ini_pos.x:-1578914.781404,ini_pos.y:5312774.559680,ini_pos.z:3146358.782476
Refix G03: 2, 267375.919812, 1315
Refix G07: 2, 267375.914815, -3614
Refix G08: 2, 267375.924272, -4595
Refix G09: 2, 267375.922520, -4126
Refix G14: 2, 267375.918491, 2489
Refix G16: 2, 267375.931937, 178
Refix G22: 2, 267375.917186, 1148
Refix G23: 2, 267375.929484, -2679
Refix G26: 2, 267375.927102, 1226
Refix G27: 2, 267375.930410, -3182
Refix G31: 2, 267375.921262, 888
$GNGGA,021558.000,2944.9068,N,10633.0924,E,1,21,0.6,328.5,M,,,,0000*17
$GNRMC,021558.000,A,2944.9068,N,10633.0924,E,0.12,0.00,080519,,*14
$GPGSA,A,3,03,07,08,09,14,16,23,26,27,31,,,0.7,0.6,0.4*32
$BDGSA,A,3,01,03,04,06,07,09,10,16,23,27,28,,0.7,0.6,0.4*20
$GLGSA,A,3,,,,,,,,,,,,,0.7,0.6,0.4*2B
$GPGSV,3,1,11,03,16,229,34,07,05,297,39,08,30,188,41,09,23,316,41*73
$GPGSV,3,2,11,14,10,148,33,16,65,001,44,23,56,297,44,26,41,038,43*77
$GPGSV,3,3,11,27,56,154,44,31,23,091,42,22,09,211,00*49
$BDGSV,3,1,12,01,40,125,42,03,54,172,43,04,23,109,40,06,43,168,41*6F
$BDGSV,3,2,12,07,66,007,43,09,69,203,43,10,63,298,43,16,50,174,43*6A
$BDGSV,3,3,12,23,22,075,41,27,31,161,42,28,42,093,43,02,45,218,00*63
$B3CN0,18,0,0,0,0,0,0,0,0,0,0,0,0,0*75
$ini_pos,lastpos_good = 1,ini_pos.x:-1578915.258713,ini_pos.y:5312774.233039,ini_pos.z:3146357.230089
Refix G03: 2, 267376.919812, 1313
Refix G07: 2, 267376.914818, -3616
Refix G08: 2, 267376.924275, -4596
Refix G09: 2, 267376.922523, -4127
Refix G14: 2, 267376.918490, 2487
Refix G16: 2, 267376.931937, 177
Refix G22: 2, 267376.917186, 1146
Refix G23: 2, 267376.929485, -2681
Refix G26: 2, 267376.927101, 1225
Refix G27: 2, 267376.930412, -3184
Refix G31: 2, 267376.921262, 886
$GNGGA,021559.000,2944.9065,N,10633.0925,E,1,21,0.6,328.0,M,,,,0000*1F
$GNRMC,021559.000,A,2944.9065,N,10633.0925,E,0.21,0.00,080519,,*19
$GPGSA,A,3,03,07,08,09,14,16,23,26,27,31,,,0.7,0.6,0.4*32
$BDGSA,A,3,01,03,04,06,07,09,10,16,23,27,28,,0.7,0.6,0.4*20
$GLGSA,A,3,,,,,,,,,,,,,0.7,0.6,0.4*2B
$GPGSV,3,1,11,03,16,229,35,07,05,297,39,08,30,188,41,09,23,316,40*73
$GPGSV,3,2,11,14,10,148,33,16,65,001,44,23,56,297,44,26,41,038,43*77
$GPGSV,3,3,11,27,56,154,44,31,23,091,43,22,09,211,00*48
$BDGSV,3,1,12,01,40,125,41,03,54,172,43,04,23,109,40,05,00,000,20*60
$BDGSV,3,2,12,06,43,168,41,07,66,007,44,09,69,203,42,10,63,298,43*60
$BDGSV,3,3,12,16,50,174,43,23,22,075,42,27,31,161,42,28,42,093,43*6F
$B3CN0,0,0,0,0,0,0,0,0,0,0,0,0,0,0*4C
$ini_pos,lastpos_good = 1,ini_pos.x:-1578915.237357,ini_pos.y:5312774.058068,ini_pos.z:3146356.597212
Refix G03: 2, 267377.919811, 1315
Refix G07: 2, 267377.914820, -3614
Refix G08: 2, 267377.924277, -4594
Refix G09: 2, 267377.922525, -4125
Refix G14: 2, 267377.918488, 2490
Refix G16: 2, 267377.931937, 180
Refix G22: 2, 267377.917185, 1148
Refix G23: 2, 267377.929487, -2678
Refix G26: 2, 267377.927101, 1227
Refix G27: 2, 267377.930414, -3180
Refix G31: 2, 267377.921261, 889
$GNGGA,021600.000,2944.9064,N,10633.0924,E,1,21,0.6,327.8,M,,,,0000*17
$GNRMC,021600.000,A,2944.9064,N,10633.0924,E,0.21,0.00,080519,,*16
$GPGSA,A,3,03,07,08,09,14,16,23,26,27,31,,,0.7,0.6,0.4*32
$BDGSA,A,3,01,03,04,06,07,09,10,16,23,27,28,,0.7,0.6,0.4*20
$GLGSA,A,3,,,,,,,,,,,,,0.7,0.6,0.4*2B
$GPGSV,3,1,11,03,16,229,35,07,05,297,38,08,30,188,41,09,23,316,40*72
$GPGSV,3,2,11,14,10,148,34,16,65,001,44,23,56,297,44,26,41,038,43*70
$GPGSV,3,3,11,27,56,154,44,31,23,091,43,22,09,211,00*48
$BDGSV,3,1,12,01,40,125,41,03,54,172,45,04,23,109,40,06,43,168,41*6A
$BDGSV,3,2,12,07,66,007,43,09,69,203,43,10,63,298,43,16,50,174,42*6B
$BDGSV,3,3,12,23,22,075,41,27,31,161,42,28,42,093,43,02,45,218,00*63
$B3CN0,0,0,0,0,0,0,0,0,0,0,0,0,0,0*4C
$ini_pos,lastpos_good = 1,ini_pos.x:-1578915.173304,ini_pos.y:5312774.023846,ini_pos.z:3146356.209549
Refix G03: 2, 267378.919810, 1314
Refix G07: 2, 267378.914822, -3615
Refix G08: 2, 267378.924280, -4595
Refix G09: 2, 267378.922528, -4126
Refix G14: 2, 267378.918487, 2488
Refix G16: 2, 267378.931936, 179
Refix G22: 2, 267378.917184, 1147
Refix G23: 2, 267378.929489, -2679
Refix G26: 2, 267378.927100, 1226
Refix G27: 2, 267378.930416, -3181
Refix G31: 2, 267378.921261, 887
$GNGGA,021601.000,2944.9063,N,10633.0923,E,1,21,0.6,327.4,M,,,,0000*1A
$GNRMC,021601.000,A,2944.9063,N,10633.0923,E,0.16,0.00,080519,,*13
$GPGSA,A,3,03,07,08,09,14,16,23,26,27,31,,,0.7,0.6,0.4*32
$BDGSA,A,3,01,03,04,06,07,09,10,16,23,27,28,,0.7,0.6,0.4*20
$GLGSA,A,3,,,,,,,,,,,,,0.7,0.6,0.4*2B
$GPGSV,3,1,11,03,16,229,35,07,05,297,38,08,30,188,41,09,23,316,40*72
$GPGSV,3,2,11,14,10,148,33,16,65,001,44,23,56,297,45,26,41,038,43*76
$GPGSV,3,3,11,27,56,154,45,31,23,091,43,22,09,211,00*49
$BDGSV,3,1,12,01,40,125,41,02,45,218,34,03,54,172,43,04,23,109,40*68
$BDGSV,3,2,12,06,43,168,41,07,66,007,44,09,69,203,43,10,63,298,43*61
$BDGSV,3,3,12,16,50,174,43,23,22,075,41,27,31,161,42,28,42,093,43*6C
$B3CN0,0,0,0,0,0,0,0,0,0,0,0,0,0,0*4C
$ini_pos,lastpos_good = 1,ini_pos.x:-1578914.895248,ini_pos.y:5312773.758067,ini_pos.z:3146355.938870
Refix G03: 2, 267379.919809, 1309
Refix G07: 2, 267379.914824, -3620
Refix G08: 2, 267379.924283, -4599
Refix G09: 2, 267379.922531, -4130
Refix G14: 2, 267379.918485, 2485
Refix G16: 2, 267379.931936, 175
Refix G22: 2, 267379.917183, 1142
Refix G23: 2, 267379.929490, -2682
Refix G26: 2, 267379.927099, 1222
Refix G27: 2, 267379.930418, -3185
Refix G31: 2, 267379.921260, 884
$GNGGA,021602.000,2944.9062,N,10633.0922,E,1,21,0.6,327.1,M,,,,0000*1C
$GNRMC,021602.000,A,2944.9062,N,10633.0922,E,0.42,0.00,080519,,*11
$GPGSA,A,3,03,07,08,09,14,16,23,26,27,31,,,0.7,0.6,0.4*32
$BDGSA,A,3,01,03,04,06,07,09,10,16,23,27,28,,0.7,0.6,0.4*20
$GLGSA,A,3,,,,,,,,,,,,,0.7,0.6,0.4*2B
$GPGSV,3,1,11,03,16,229,35,07,05,297,38,08,30,188,42,09,23,316,40*71
$GPGSV,3,2,11,14,10,148,33,16,65,001,44,23,56,297,45,26,41,038,43*76
$GPGSV,3,3,11,27,56,154,45,31,23,091,43,22,09,211,00*49
$BDGSV,3,1,12,01,40,125,42,02,45,218,35,03,54,172,45,04,23,109,40*6C
$BDGSV,3,2,12,06,43,168,41,07,66,007,44,09,69,203,44,10,63,298,44*61
$BDGSV,3,3,12,16,50,174,43,23,22,075,41,27,31,161,42,28,42,093,43*6C
$B3CN0,0,0,0,0,0,0,0,0,0,0,0,0,0,0*4C
$ini_pos,lastpos_good = 1,ini_pos.x:-1578914.676843,ini_pos.y:5312773.676909,ini_pos.z:3146355.646803
Refix G03: 2, 267380.919808, 1312
Refix G07: 2, 267380.914827, -3617
Refix G08: 2, 267380.924286, -4596
Refix G09: 2, 267380.922533, -4127
Refix G14: 2, 267380.918483, 2487
Refix G16: 2, 267380.931936, 178
Refix G22: 2, 267380.917183, 1144
Refix G23: 2, 267380.929492, -2679
Refix G26: 2, 267380.927098, 1225
Refix G27: 2, 267380.930420, -3181
Refix G31: 2, 267380.921259, 886
$GNGGA,021603.000,2944.9060,N,10633.0919,E,1,22,0.6,326.8,M,,,,0000*1C
$GNRMC,021603.000,A,2944.9060,N,10633.0919,E,0.46,0.00,080519,,*1E
$GPGSA,A,3,03,07,08,09,14,16,23,26,27,31,,,0.7,0.6,0.4*32
$BDGSA,A,3,01,02,03,04,06,07,09,10,16,23,27,28,0.7,0.6,0.4*22
$GLGSA,A,3,,,,,,,,,,,,,0.7,0.6,0.4*2B
$GPGSV,3,1,11,03,16,229,35,07,05,297,38,08,30,188,42,09,23,316,40*71
$GPGSV,3,2,11,14,10,148,32,16,65,001,44,23,56,297,44,26,41,038,43*76
$GPGSV,3,3,11,27,56,154,44,31,23,091,43,22,09,211,00*48
$BDGSV,3,1,12,01,40,125,41,02,45,218,36,03,54,172,43,04,23,109,41*6B
$BDGSV,3,2,12,06,43,168,42,07,66,007,44,09,69,203,43,10,63,298,43*62
$BDGSV,3,3,12,16,50,174,43,23,22,075,41,27,31,161,43,28,42,093,43*6D
$B3CN0,0,0,0,0,0,0,0,0,0,0,0,0,0,0*4C
$ini_pos,lastpos_good = 1,ini_pos.x:-1578914.293195,ini_pos.y:5312773.724781,ini_pos.z:3146355.241441
Refix G03: 2, 267381.919807, 1310
Refix G07: 2, 267381.914829, -3619
Refix G08: 2, 267381.924289, -4598
Refix G09: 2, 267381.922536, -4128
Refix G14: 2, 267381.918482, 2485
Refix G16: 2, 267381.931936, 177
Refix G22: 2, 267381.917182, 1143
Refix G23: 2, 267381.929494, -2680
Refix G26: 2, 267381.927097, 1223
Refix G27: 2, 267381.930422, -3183
Refix G31: 2, 267381.921259, 884
$GNGGA,021604.000,2944.9059,N,10633.0917,E,1,22,0.6,326.3,M,,,,0000*14
$GNRMC,021604.000,A,2944.9059,N,10633.0917,E,0.28,0.00,080519,,*15
$GPGSA,A,3,03,07,08,09,14,16,23,26,27,31,,,0.7,0.6,0.4*32
$BDGSA,A,3,01,02,03,04,06,07,09,10,16,23,27,28,0.7,0.6,0.4*22
$GLGSA,A,3,,,,,,,,,,,,,0.7,0.6,0.4*2B
$GPGSV,3,1,11,03,16,229,36,07,05,297,38,08,30,188,41,09,23,316,40*71
$GPGSV,3,2,11,14,10,148,33,16,65,001,45,23,56,297,45,26,41,038,44*70
$GPGSV,3,3,11,27,56,154,45,31,23,091,43,22,09,211,00*49
$BDGSV,3,1,12,01,40,125,40,02,45,218,39,03,54,172,43,04,23,109,41*65
$BDGSV,3,2,12,06,43,168,42,07,66,007,44,09,69,203,43,10,63,298,43*62
$BDGSV,3,3,12,16,50,174,43,23,22,075,42,27,31,161,43,28,42,093,43*6E
$B3CN0,0,0,0,0,0,0,0,0,0,0,0,0,0,0*4C
$ini_pos,lastpos_good = 1,ini_pos.x:-1578913.839683,ini_pos.y:5312773.476657,ini_pos.z:3146354.836512
Refix G03: 2, 267382.919806, 1314
Refix G07: 2, 267382.914831, -3616
Refix G08: 2, 267382.924292, -4594
Refix G09: 2, 267382.922538, -4124
Refix G14: 2, 267382.918480, 2489
Refix G16: 2, 267382.931936, 181
Refix G22: 2, 267382.917181, 1146
Refix G23: 2, 267382.929495, -2675
Refix G26: 2, 267382.927097, 1227
Refix G27: 2, 267382.930424, -3178
Refix G31: 2, 267382.921258, 888
$GNGGA,021605.000,2944.9059,N,10633.0916,E,1,22,0.6,325.9,M,,,,0000*1D
$GNRMC,021605.000,A,2944.9059,N,10633.0916,E,0.35,0.00,080519,,*19
$GPGSA,A,3,03,07,08,09,14,16,23,26,27,31,,,0.7,0.6,0.4*32
$BDGSA,A,3,01,02,03,04,06,07,09,10,16,23,27,28,0.7,0.6,0.4*22
$GLGSA,A,3,,,,,,,,,,,,,0.7,0.6,0.4*2B
$GPGSV,3,1,11,03,16,229,36,07,05,297,38,08,30,188,42,09,23,316,41*73
$GPGSV,3,2,11,14,10,148,34,16,65,001,45,23,56,297,45,26,41,038,43*70
$GPGSV,3,3,11,27,56,154,44,31,23,091,43,22,09,211,00*48
$BDGSV,3,1,12,01,40,125,41,02,45,218,38,03,54,172,43,04,23,109,42*66
$BDGSV,3,2,12,06,43,168,42,07,66,007,44,09,69,203,43,10,63,298,43*62
$BDGSV,3,3,12,16,50,174,43,23,22,075,41,27,31,161,43,28,42,093,43*6D
$B3CN0,0,0,0,0,0,0,0,0,0,0,0,0,0,0*4C
$ini_pos,lastpos_good = 1,ini_pos.x:-1578913.586688,ini_pos.y:5312773.252049,ini_pos.z:3146354.514000
Refix G03: 2, 267383.919806, 1313
Refix G07: 2, 267383.914833, -3617
Refix G08: 2, 267383.924295, -4595
Refix G09: 2, 267383.922541, -4125
Refix G14: 2, 267383.918479, 2488
Refix G16: 2, 267383.931936, 180
Refix G22: 2, 267383.917180, 1145
Refix G23: 2, 267383.929497, -2677
Refix G26: 2, 267383.927096, 1226
Refix G27: 2, 267383.930426, -3179
Refix G31: 2, 267383.921258, 887
$GNGGA,021606.000,2944.9058,N,10633.0915,E,1,22,0.6,325.5,M,,,,0000*10
$GNRMC,021606.000,A,2944.9058,N,10633.0915,E,0.26,0.00,080519,,*1A
$GPGSA,A,3,03,07,08,09,14,16,23,26,27,31,,,0.7,0.6,0.4*32
$BDGSA,A,3,01,02,03,04,06,07,09,10,16,23,27,28,0.7,0.6,0.4*22
$GLGSA,A,3,,,,,,,,,,,,,0.7,0.6,0.4*2B
$GPGSV,3,1,11,03,16,229,36,07,05,297,39,08,30,188,42,09,23,316,41*72
$GPGSV,3,2,11,14,10,148,34,16,65,001,44,23,56,297,44,26,41,038,44*77
$GPGSV,3,3,11,27,56,154,44,31,23,091,43,22,09,211,00*48
$BDGSV,3,1,12,01,40,125,41,02,45,218,39,03,54,172,43,04,23,109,41*64
$BDGSV,3,2,12,06,43,168,41,07,66,007,44,09,69,203,43,10,63,298,43*61
$BDGSV,3,3,12,16,50,174,43,23,22,075,41,27,31,161,43,28,42,093,43*6D
$B3CN0,0,0,21,0,0,0,0,0,0,0,0,0,0,0*7F
$ini_pos,lastpos_good = 1,ini_pos.x:-1578913.388953,ini_pos.y:5312773.033308,ini_pos.z:3146354.220281
Refix G03: 2, 267384.919805, 1315
Refix G07: 2, 267384.914836, -3615
Refix G08: 2, 267384.924298, -4593
Refix G09: 2, 267384.922544, -4123
Refix G14: 2, 267384.918477, 2490
Refix G16: 2, 267384.931936, 182
Refix G22: 2, 267384.917180, 1147
Refix G23: 2, 267384.929499, -2674
Refix G26: 2, 267384.927095, 1228
Refix G27: 2, 267384.930428, -3176
Refix G31: 2, 267384.921257, 889
$GNGGA,021607.000,2944.9058,N,10633.0916,E,1,22,0.6,325.4,M,,,,0000*13
$GNRMC,021607.000,A,2944.9058,N,10633.0916,E,0.23,0.00,080519,,*1D
$GPGSA,A,3,03,07,08,09,14,16,23,26,27,31,,,0.7,0.6,0.4*32
$BDGSA,A,3,01,02,03,04,06,07,09,10,16,23,27,28,0.7,0.6,0.4*22
$GLGSA,A,3,,,,,,,,,,,,,0.7,0.6,0.4*2B
$GPGSV,3,1,11,03,16,229,36,07,05,297,39,08,30,188,42,09,23,316,41*72
$GPGSV,3,2,11,14,10,148,33,16,65,001,44,23,56,297,44,26,41,038,43*77
$GPGSV,3,3,11,27,56,154,44,31,23,091,43,22,09,211,00*48
$BDGSV,3,1,12,01,40,125,42,02,45,218,40,03,54,172,43,04,23,109,41*69
$BDGSV,3,2,12,06,43,168,42,07,66,007,44,09,69,203,43,10,63,298,43*62
$BDGSV,3,3,12,16,50,174,43,23,22,075,41,27,31,161,43,28,42,093,44*6A
$B3CN0,0,0,0,0,0,0,20,0,0,0,0,0,0,0*7E
$ini_pos,lastpos_good = 1,ini_pos.x:-1578913.440533,ini_pos.y:5312772.896635,ini_pos.z:3146354.139946
Refix G03: 2, 267385.919804, 1316
Refix G07: 2, 267385.914838, -3616
Refix G08: 2, 267385.924301, -4591
Refix G09: 2, 267385.922546, -4123
Refix G14: 2, 267385.918475, 2491
Refix G16: 2, 267385.931935, 184
Refix G22: 2, 267385.917179, 1147
Refix G23: 2, 267385.929500, -2673
Refix G26: 2, 267385.927094, 1229
Refix G27: 2, 267385.930430, -3174
Refix G31: 2, 267385.921256, 890
$GNGGA,021608.000,2944.9059,N,10633.0916,E,1,22,0.6,324.9,M,,,,0000*11
$GNRMC,021608.000,A,2944.9059,N,10633.0916,E,0.34,0.00,080519,,*15
$GPGSA,A,3,03,07,08,09,14,16,23,26,27,31,,,0.7,0.6,0.4*32
$BDGSA,A,3,01,02,03,04,06,07,09,10,16,23,27,28,0.7,0.6,0.4*22
$GLGSA,A,3,,,,,,,,,,,,,0.7,0.6,0.4*2B
$GPGSV,3,1,11,03,16,229,36,07,05,297,38,08,30,188,41,09,23,316,40*71
$GPGSV,3,2,11,14,10,148,33,16,65,001,44,23,56,297,44,26,41,038,43*77
$GPGSV,3,3,11,27,56,154,44,31,23,091,43,22,09,211,00*48
$BDGSV,3,1,12,01,40,125,41,02,45,218,39,03,54,172,42,04,23,109,41*65
$BDGSV,3,2,12,06,43,168,42,07,66,007,44,09,69,203,43,10,63,298,43*62
$BDGSV,3,3,12,16,50,174,43,23,22,075,42,27,31,161,43,28,42,093,44*69
$B3CN0,21,16,20,0,0,0,27,0,0,0,0,0,0,0*4F
$ini_pos,lastpos_good = 1,ini_pos.x:-1578913.325160,ini_pos.y:5312772.433297,ini_pos.z:3146353.979357
Refix G03: 2, 267386.919803, 1312
Refix G07: 2, 267386.914840, -3619
Refix G08: 2, 267386.924303, -4596
Refix G09: 2, 267386.922549, -4127
Refix G14: 2, 267386.918474, 2487
Refix G16: 2, 267386.931935, 179
Refix G22: 2, 267386.917178, 1143
Refix G23: 2, 267386.929502, -2677
Refix G26: 2, 267386.927093, 1224
Refix G27: 2, 267386.930432, -3179
Refix G31: 2, 267386.921256, 885
$GNGGA,021609.000,2944.9059,N,10633.0916,E,1,22,0.6,324.7,M,,,,0000*1E
$GNRMC,021609.000,A,2944.9059,N,10633.0916,E,0.17,0.00,080519,,*15
$GPGSA,A,3,03,07,08,09,14,16,23,26,27,31,,,0.7,0.6,0.4*32
$BDGSA,A,3,01,02,03,04,06,07,09,10,16,23,27,28,0.7,0.6,0.4*22
$GLGSA,A,3,,,,,,,,,,,,,0.7,0.6,0.4*2B
$GPGSV,3,1,11,03,16,229,36,07,05,297,37,08,30,188,42,09,23,316,41*7C
$GPGSV,3,2,11,14,10,148,33,16,65,001,44,23,56,297,44,26,41,038,43*77
$GPGSV,3,3,11,27,56,154,44,31,23,091,42,22,09,211,00*49
$BDGSV,3,1,12,01,40,125,41,02,45,218,40,03,54,172,43,04,23,109,41*6A
$BDGSV,3,2,12,06,43,168,41,07,66,007,44,09,69,203,43,10,63,298,43*61
$BDGSV,3,3,12,16,50,174,43,23,22,075,42,27,31,161,43,28,42,093,44*69
$B3CN0,0,20,19,0,0,0,26,0,0,0,0,0,0,0*72
$GLGSV,2,1,07,08,00,000,46,07,00,000,47,19,00,000,35,20,00,000,41*66
$GLGSV,2,2,07,09,00,000,46,18,00,000,36,26,00,000,45*50
$ini_pos,lastpos_good = 1,ini_pos.x:-1578913.330063,ini_pos.y:5312772.173183,ini_pos.z:3146353.962012
Refix G03: 2, 267387.919802, 1311
Refix G07: 2, 267387.914842, -3620
Refix G08: 2, 267387.924306, -4596
Refix G09: 2, 267387.922551, -4126
Refix G14: 2, 267387.918472, 2486
Refix G16: 2, 267387.931935, 179
Refix G22: 2, 267387.917177, 1142
Refix G23: 2, 267387.929504, -2676
Refix G26: 2, 267387.927092, 1224
Refix G27: 2, 267387.930434, -3179
Refix G31: 2, 267387.921255, 885
$GNGGA,021610.000,2944.9060,N,10633.0917,E,1,22,0.6,324.4,M,,,,0000*1E
$GNRMC,021610.000,A,2944.9060,N,10633.0917,E,0.15,0.00,080519,,*14
$GPGSA,A,3,03,07,08,09,14,16,23,26,27,31,,,0.7,0.6,0.4*32
$BDGSA,A,3,01,02,03,04,06,07,09,10,16,23,27,28,0.7,0.6,0.4*22
$GLGSA,A,3,,,,,,,,,,,,,0.7,0.6,0.4*2B
$GPGSV,3,1,11,03,16,229,36,07,05,297,37,08,30,188,41,09,23,316,41*7F
$GPGSV,3,2,11,14,10,148,33,16,65,001,44,23,56,297,44,26,41,038,43*77
$GPGSV,3,3,11,27,56,154,45,31,23,091,43,22,09,211,00*49
$BDGSV,3,1,12,01,40,125,41,02,45,218,40,03,54,172,45,04,23,109,40*6D
$BDGSV,3,2,12,06,43,168,41,07,66,007,44,09,69,203,43,10,63,298,43*61
$BDGSV,3,3,12,16,50,174,43,23,22,075,41,27,31,161,43,28,42,093,44*6A
$B3CN0,0,18,16,0,0,0,27,0,0,0,0,0,0,0*77
$GLGSV,2,1,07,08,41,288,47,07,38,217,47,19,30,063,35,20,29,131,41*61
$GLGSV,2,2,07,09,39,028,46,18,02,023,36,26,00,000,45*53
$ini_pos,lastpos_good = 1,ini_pos.x:-1578913.376396,ini_pos.y:5312771.878952,ini_pos.z:3146353.932347
Refix G03: 2, 267388.919801, 1310
Refix G07: 2, 267388.914845, -3621
Refix G08: 2, 267388.924309, -4597
Refix G09: 2, 267388.922554, -4127
Refix G14: 2, 267388.918470, 2485
Refix G16: 2, 267388.931935, 179
Refix G22: 2, 267388.917177, 1141
Refix G23: 2, 267388.929505, -2677
Refix G26: 2, 267388.927092, 1223
Refix G27: 2, 267388.930436, -3179
Refix G31: 2, 267388.921255, 884
$GNGGA,021611.000,2944.9060,N,10633.0918,E,1,28,0.6,324.2,M,,,,0000*1C
$GNRMC,021611.000,A,2944.9060,N,10633.0918,E,0.18,0.00,080519,,*17
$GPGSA,A,3,03,07,08,09,14,16,23,26,27,31,,,0.7,0.6,0.4*32
$BDGSA,A,3,01,02,03,04,06,07,09,10,16,23,27,28,0.7,0.6,0.4*22
$GLGSA,A,3,07,08,09,18,19,20,,,,,,,0.7,0.6,0.4*2E
$GPGSV,3,1,11,03,16,229,37,07,05,297,38,08,30,188,42,09,23,316,40*73
$GPGSV,3,2,11,14,10,148,33,16,65,001,44,23,56,297,44,26,41,038,43*77
$GPGSV,3,3,11,27,56,154,44,31,23,091,43,22,09,211,00*48
$BDGSV,3,1,12,01,40,125,40,02,45,218,40,03,54,172,43,04,23,109,41*6B
$BDGSV,3,2,12,06,43,168,41,07,66,007,44,09,69,203,43,10,63,298,43*61
$BDGSV,3,3,12,16,50,174,43,23,22,075,42,27,31,161,42,28,42,093,43*6F
$B3CN0,0,0,20,0,0,0,27,0,0,0,0,0,0,0*4B
$GLGSV,2,1,07,08,41,288,47,07,38,217,46,19,30,063,35,20,29,131,41*60
$GLGSV,2,2,07,09,39,028,46,18,02,023,36,26,00,000,45*53
$ini_pos,lastpos_good = 1,ini_pos.x:-1578913.413375,ini_pos.y:5312771.606564,ini_pos.z:3146353.835117
Refix G03: 2, 267389.919800, 1316
Refix G07: 2, 267389.914847, -3616
Refix G08: 2, 267389.924312, -4590
Refix G09: 2, 267389.922556, -4121
Refix G14: 2, 267389.918469, 2492
Refix G16: 2, 267389.931935, 187
Refix G22: 2, 267389.917176, 1147
Refix G23: 2, 267389.929507, -2669
Refix G26: 2, 267389.927091, 1230
Refix G27: 2, 267389.930438, -3171
Refix G31: 2, 267389.921254, 891
$GNGGA,021612.000,2944.9061,N,10633.0922,E,1,28,0.5,324.5,M,,,,0000*13
$GNRMC,021612.000,A,2944.9061,N,10633.0922,E,0.38,0.00,080519,,*1E
$GPGSA,A,3,03,07,08,09,14,16,23,26,27,31,,,0.6,0.5,0.4*30
$BDGSA,A,3,01,02,03,04,06,07,09,10,16,23,27,28,0.6,0.5,0.4*20
$GLGSA,A,3,07,08,09,18,19,20,,,,,,,0.6,0.5,0.4*2C
$GPGSV,3,1,11,03,16,229,36,07,05,297,38,08,30,188,42,09,23,316,41*73
$GPGSV,3,2,11,14,10,148,33,16,65,001,44,23,56,297,44,26,41,038,43*77
$GPGSV,3,3,11,27,56,154,44,31,23,091,43,22,09,211,00*48
$BDGSV,3,1,12,01,40,125,41,02,45,218,40,03,54,172,43,04,23,109,41*6A
$BDGSV,3,2,12,05,00,000,24,06,43,168,41,07,66,007,43,09,69,203,43*65
$BDGSV,3,3,12,10,63,298,43,16,50,174,43,23,22,075,42,27,31,161,42*6E
$B3CN0,0,0,22,0,0,0,27,0,0,0,0,0,0,0*49
$GLGSV,2,1,07,08,41,288,47,07,38,217,47,19,30,063,35,20,29,131,41*61
$GLGSV,2,2,07,09,39,028,46,18,02,023,36,26,00,000,45*53
$ini_pos,lastpos_good = 1,ini_pos.x:-1578914.071005,ini_pos.y:5312771.617359,ini_pos.z:3146354.106146
Refix G03: 2, 267390.919800, 1313
Refix G07: 2, 267390.914849, -3619
Refix G08: 2, 267390.924315, -4594
Refix G09: 2, 267390.922559, -4124
Refix G14: 2, 267390.918467, 2488
Refix G16: 2, 267390.931935, 182
Refix G22: 2, 267390.917175, 1143
Refix G23: 2, 267390.929509, -2673
Refix G26: 2, 267390.927090, 1226
Refix G27: 2, 267390.930440, -3175
Refix G31: 2, 267390.921253, 887
$GNGGA,021613.000,2944.9061,N,10633.0925,E,1,28,0.5,324.2,M,,,,0000*12
$GNRMC,021613.000,A,2944.9061,N,10633.0925,E,0.26,0.00,080519,,*17
$GPGSA,A,3,03,07,08,09,14,16,23,26,27,31,,,0.6,0.5,0.4*30
$BDGSA,A,3,01,02,03,04,06,07,09,10,16,23,27,28,0.6,0.5,0.4*20
$GLGSA,A,3,07,08,09,18,19,20,,,,,,,0.6,0.5,0.4*2C
$GPGSV,3,1,11,03,16,229,37,07,05,297,38,08,30,188,41,09,23,316,41*71
$GPGSV,3,2,11,14,10,148,33,16,65,001,44,23,56,297,44,26,41,038,43*77
$GPGSV,3,3,11,27,56,154,44,31,23,091,43,22,09,211,00*48
$BDGSV,3,1,12,01,40,125,42,02,45,218,41,03,54,172,43,04,23,109,41*68
$BDGSV,3,2,12,06,43,168,41,07,66,007,43,09,69,203,43,10,63,298,43*66
$BDGSV,3,3,12,16,50,174,42,23,22,075,41,27,31,161,43,28,42,093,43*6C
$B3CN0,0,0,25,0,0,0,27,0,0,0,0,0,0,0*4E
$GLGSV,2,1,07,08,41,288,47,07,38,217,47,19,30,063,34,20,29,131,41*60
$GLGSV,2,2,07,09,39,028,46,18,02,023,36,26,00,000,45*53
$ini_pos,lastpos_good = 1,ini_pos.x:-1578914.445804,ini_pos.y:5312771.287767,ini_pos.z:3146354.037878
Refix G03: 2, 267391.919799, 1310
Refix G07: 2, 267391.914852, -3621
Refix G08: 2, 267391.924318, -4596
Refix G09: 2, 267391.922562, -4126
Refix G14: 2, 267391.918466, 2486
Refix G16: 2, 267391.931935, 180
Refix G22: 2, 267391.917174, 1141
Refix G23: 2, 267391.929510, -2675
Refix G26: 2, 267391.927089, 1224
Refix G27: 2, 267391.930442, -3177
Refix G31: 2, 267391.921253, 885
$GNGGA,021614.000,2944.9061,N,10633.0928,E,1,28,0.5,324.2,M,,,,0000*18
$GNRMC,021614.000,A,2944.9061,N,10633.0928,E,0.23,0.00,080519,,*18
$GPGSA,A,3,03,07,08,09,14,16,23,26,27,31,,,0.6,0.5,0.4*30
$BDGSA,A,3,01,02,03,04,06,07,09,10,16,23,27,28,0.6,0.5,0.4*20
$GLGSA,A,3,07,08,09,18,19,20,,,,,,,0.6,0.5,0.4*2C
$GPGSV,3,1,11,03,16,229,37,07,05,297,39,08,30,188,42,09,23,316,41*73
$GPGSV,3,2,11,14,10,148,33,16,65,001,44,23,56,297,44,26,41,038,43*77
$GPGSV,3,3,11,27,56,154,44,31,23,091,43,22,09,211,00*48
$BDGSV,3,1,12,01,40,125,41,02,45,218,40,03,54,172,43,04,23,109,40*6B
$BDGSV,3,2,12,06,43,168,41,07,66,007,43,09,69,203,43,10,63,298,43*66
$BDGSV,3,3,12,16,50,174,43,23,22,075,42,27,31,161,42,28,42,093,43*6F
$B3CN0,0,0,0,0,0,0,27,0,0,0,0,0,0,0*79
$GLGSV,2,1,07,08,41,288,47,07,38,217,47,19,30,063,34,20,29,131,42*63
$GLGSV,2,2,07,09,39,028,46,18,02,023,35,26,00,000,45*50
$ini_pos,lastpos_good = 1,ini_pos.x:-1578914.872298,ini_pos.y:5312771.105704,ini_pos.z:3146354.065636
Refix G03: 2, 267392.919798, 1314
Refix G07: 2, 267392.914854, -3618
Refix G08: 2, 267392.924321, -4591
Refix G09: 2, 267392.922564, -4122
Refix G14: 2, 267392.918464, 2490
Refix G16: 2, 267392.931934, 185
Refix G22: 2, 267392.917174, 1145
Refix G23: 2, 267392.929512, -2670
Refix G26: 2, 267392.927088, 1228
Refix G27: 2, 267392.930444, -3172
Refix G31: 2, 267392.921252, 890
$GNGGA,021615.000,2944.9062,N,10633.0930,E,1,28,0.5,324.1,M,,,,0000*10
$GNRMC,021615.000,A,2944.9062,N,10633.0930,E,0.39,0.00,080519,,*18
$GPGSA,A,3,03,07,08,09,14,16,23,26,27,31,,,0.6,0.5,0.4*30
$BDGSA,A,3,01,02,03,04,06,07,09,10,16,23,27,28,0.6,0.5,0.4*20
$GLGSA,A,3,07,08,09,18,19,20,,,,,,,0.6,0.5,0.4*2C
$GPGSV,3,1,11,03,16,229,37,07,05,297,38,08,30,188,42,09,23,316,41*72
$GPGSV,3,2,11,14,10,148,33,16,65,001,44,23,56,297,44,26,41,038,44*70
$GPGSV,3,3,11,27,56,154,44,31,23,091,43,22,09,211,00*48
$BDGSV,3,1,12,01,40,125,41,02,45,218,40,03,54,172,43,04,23,109,41*6A
$BDGSV,3,2,12,06,43,168,42,07,66,007,43,09,69,203,43,10,63,298,43*65
$BDGSV,3,3,12,16,50,174,42,32,14,189,27,23,22,075,42,27,31,161,43*6F
$B3CN0,0,0,17,0,0,0,27,0,0,0,0,0,0,0*4F
$GLGSV,2,1,07,08,41,288,47,07,38,217,47,19,30,063,34,20,29,131,42*63
$GLGSV,2,2,07,09,39,028,46,18,02,023,35,26,00,000,45*50
$ini_pos,lastpos_good = 1,ini_pos.x:-1578915.148493,ini_pos.y:5312770.846507,ini_pos.z:3146354.188376
Refix G03: 2, 267393.919797, 1312
Refix G07: 2, 267393.914856, -3620
Refix G08: 2, 267393.924324, -4594
Refix G09: 2, 267393.922567, -4124
Refix G14: 2, 267393.918462, 2488
Refix G16: 2, 267393.931934, 182
Refix G22: 2, 267393.917173, 1142
Refix G23: 2, 267393.929514, -2673
Refix G26: 2, 267393.927088, 1225
Refix G27: 2, 267393.930446, -3175
Refix G31: 2, 267393.921252, 887
$GNGGA,021616.000,2944.9063,N,10633.0931,E,1,28,0.5,324.0,M,,,,0000*12
$GNRMC,021616.000,A,2944.9063,N,10633.0931,E,0.25,0.00,080519,,*16
$GPGSA,A,3,03,07,08,09,14,16,23,26,27,31,,,0.6,0.5,0.4*30
$BDGSA,A,3,01,02,03,04,06,07,09,10,16,23,27,28,0.6,0.5,0.4*20
$GLGSA,A,3,07,08,09,18,19,20,,,,,,,0.6,0.5,0.4*2C
$GPGSV,3,1,11,03,16,229,37,07,05,297,38,08,30,188,42,09,23,316,40*73
$GPGSV,3,2,11,14,10,148,33,16,65,001,45,23,56,297,44,26,41,038,43*76
$GPGSV,3,3,11,27,56,154,44,31,23,091,43,22,09,211,00*48
$BDGSV,3,1,12,01,40,125,42,02,45,218,40,03,54,172,45,04,23,109,41*6F
$BDGSV,3,2,12,06,43,168,41,07,66,007,44,09,69,203,43,10,63,298,43*61
$BDGSV,3,3,12,16,50,174,43,32,14,189,40,23,22,075,42,27,31,161,43*6F
$B3CN0,16,0,0,0,0,0,27,0,0,0,0,0,0,0*4E
$GLGSV,2,1,08,08,41,288,47,07,38,217,47,19,30,063,35,20,29,131,42*6D
$GLGSV,2,2,08,09,39,028,46,18,02,023,35,26,00,000,45,11,05,279,00*66
$ini_pos,lastpos_good = 1,ini_pos.x:-1578915.259304,ini_pos.y:5312770.597468,ini_pos.z:3146354.260765
Refix G03: 2, 267394.919796, 1316
Refix G07: 2, 267394.914858, -3617
Refix G08: 2, 267394.924326, -4589
Refix G09: 2, 267394.922569, -4120
Refix G14: 2, 267394.918461, 2492
Refix G16: 2, 267394.931934, 187
Refix G22: 2, 267394.917172, 1146
Refix G23: 2, 267394.929515, -2667
Refix G26: 2, 267394.927087, 1230
Refix G27: 2, 267394.930448, -3169
Refix G31: 2, 267394.921251, 891
$GNGGA,021617.000,2944.9064,N,10633.0932,E,1,28,0.5,323.9,M,,,,0000*19
$GNRMC,021617.000,A,2944.9064,N,10633.0932,E,0.34,0.00,080519,,*13
$GPGSA,A,3,03,07,08,09,14,16,23,26,27,31,,,0.6,0.5,0.4*30
$BDGSA,A,3,01,02,03,04,06,07,09,10,16,23,27,28,0.6,0.5,0.4*20
$GLGSA,A,3,07,08,09,18,19,20,,,,,,,0.6,0.5,0.4*2C
$GPGSV,3,1,11,03,16,229,37,07,05,297,38,08,30,188,42,09,23,316,41*72
$GPGSV,3,2,11,14,10,148,34,16,65,002,45,23,56,297,44,26,41,038,43*72
$GPGSV,3,3,11,27,56,154,44,31,23,091,42,22,09,211,00*49
$BDGSV,3,1,12,01,40,125,41,02,45,218,40,03,54,172,43,04,23,109,41*6A
$BDGSV,3,2,12,06,43,168,41,07,66,007,44,09,69,203,43,10,63,298,43*61
$BDGSV,3,3,12,16,50,175,43,32,14,189,40,23,22,075,41,27,31,161,42*6C
$B3CN0,0,0,0,0,0,0,27,0,0,0,0,0,0,0*79
$GLGSV,2,1,08,08,41,288,47,07,38,217,47,19,30,063,35,20,29,131,42*6D
$GLGSV,2,2,08,09,39,028,46,18,02,023,35,26,00,000,45,11,05,279,00*66
$ini_pos,lastpos_good = 1,ini_pos.x:-1578915.437500,ini_pos.y:5312770.433405,ini_pos.z:3146354.371226
Refix G03: 2, 267395.919795, 1312
Refix G07: 2, 267395.914861, -3621
Refix G08: 2, 267395.924329, -4594
Refix G09: 2, 267395.922572, -4124
Refix G14: 2, 267395.918459, 2487
Refix G16: 2, 267395.931934, 182
Refix G22: 2, 267395.917171, 1141
Refix G23: 2, 267395.929517, -2672
Refix G26: 2, 267395.927086, 1225
Refix G27: 2, 267395.930450, -3174
Refix G31: 2, 267395.921250, 886
$GNGGA,021618.000,2944.9064,N,10633.0933,E,1,28,0.5,323.6,M,,,,0000*18
$GNRMC,021618.000,A,2944.9064,N,10633.0933,E,0.20,0.00,080519,,*18
$GPGSA,A,3,03,07,08,09,14,16,23,26,27,31,,,0.6,0.5,0.4*30
$BDGSA,A,3,01,02,03,04,06,07,09,10,16,23,27,28,0.6,0.5,0.4*20
$GLGSA,A,3,07,08,09,18,19,20,,,,,,,0.6,0.5,0.4*2C
$GPGSV,3,1,11,03,16,229,37,07,05,297,38,08,30,188,42,09,23,316,41*72
$GPGSV,3,2,11,14,10,148,33,16,65,002,44,23,56,297,44,26,41,038,44*73
$GPGSV,3,3,11,27,56,154,44,31,23,091,43,22,09,211,00*48
$BDGSV,3,1,12,01,40,125,41,02,45,218,39,03,54,172,42,04,23,109,41*65
$BDGSV,3,2,12,06,43,168,41,07,66,007,44,09,69,203,43,10,63,298,43*61
$BDGSV,3,3,12,16,50,175,42,32,14,189,39,23,22,075,41,27,31,161,43*62
$B3CN0,0,0,0,0,0,0,27,0,0,0,0,0,0,0*79
$GLGSV,2,1,08,08,41,288,47,07,38,217,47,19,30,063,35,20,29,131,42*6D
$GLGSV,2,2,08,09,39,028,46,18,02,023,35,26,00,000,45,11,05,279,00*66
$ini_pos,lastpos_good = 1,ini_pos.x:-1578915.425975,ini_pos.y:5312770.104845,ini_pos.z:3146354.271958
Refix G03: 2, 267396.919794, 1315
Refix G07: 2, 267396.914863, -3618
Refix G08: 2, 267396.924332, -4590
Refix G09: 2, 267396.922575, -4120
Refix G14: 2, 267396.918458, 2490
Refix G16: 2, 267396.931934, 186
Refix G22: 2, 267396.917171, 1144
Refix G23: 2, 267396.929519, -2668
Refix G26: 2, 267396.927085, 1228
Refix G27: 2, 267396.930452, -3170
Refix G31: 2, 267396.921250, 889
$GNGGA,021619.000,2944.9064,N,10633.0934,E,1,28,0.5,323.6,M,,,,0000*1E
$GNRMC,021619.000,A,2944.9064,N,10633.0934,E,0.11,0.00,080519,,*1C
$GPGSA,A,3,03,07,08,09,14,16,23,26,27,31,,,0.6,0.5,0.4*30
$BDGSA,A,3,01,02,03,04,06,07,09,10,16,23,27,28,0.6,0.5,0.4*20
$GLGSA,A,3,07,08,09,18,19,20,,,,,,,0.6,0.5,0.4*2C
$GPGSV,3,1,11,03,16,229,38,07,05,297,38,08,30,188,41,09,23,316,41*7E
$GPGSV,3,2,11,14,10,148,33,16,65,002,44,23,56,297,44,26,41,038,43*74
$GPGSV,3,3,11,27,56,154,45,31,23,091,43,22,09,211,00*49
$BDGSV,3,1,12,01,40,125,41,02,45,218,40,03,54,172,43,04,23,109,41*6A
$BDGSV,3,2,12,19,20,298,20,06,43,168,41,07,66,007,44,09,69,203,43*6A
$BDGSV,3,3,12,10,63,298,43,16,50,175,43,32,14,189,39,23,22,075,41*65
$B3CN0,0,0,0,0,0,0,27,0,0,0,0,0,0,0*79
$GLGSV,2,1,08,08,41,288,47,07,38,217,47,19,30,063,35,20,29,131,42*6D
$GLGSV,2,2,08,09,39,028,46,18,02,023,34,26,00,000,45,11,05,279,00*67
$ini_pos,lastpos_good = 1,ini_pos.x:-1578915.564790,ini_pos.y:5312770.051899,ini_pos.z:3146354.244356
Refix G03: 2, 267397.919793, 1314
Refix G07: 2, 267397.914865, -3619
Refix G08: 2, 267397.924335, -4591
Refix G09: 2, 267397.922577, -4121
Refix G14: 2, 267397.918456, 2490
Refix G16: 2, 267397.931934, 186
Refix G22: 2, 267397.917170, 1143
Refix G23: 2, 267397.929520, -2668
Refix G26: 2, 267397.927084, 1228
Refix G27: 2, 267397.930454, -3170
Refix G31: 2, 267397.921249, 889
$GNGGA,021620.000,2944.9064,N,10633.0934,E,1,28,0.5,323.4,M,,,,0000*16
$GNRMC,021620.000,A,2944.9064,N,10633.0934,E,0.31,0.00,080519,,*14
$GPGSA,A,3,03,07,08,09,14,16,23,26,27,31,,,0.6,0.5,0.4*30
$BDGSA,A,3,01,02,03,04,06,07,09,10,16,23,27,28,0.6,0.5,0.4*20
$GLGSA,A,3,07,08,09,18,19,20,,,,,,,0.6,0.5,0.4*2C
$GPGSV,3,1,11,03,16,229,37,07,05,297,38,08,30,188,42,09,23,316,40*73
$GPGSV,3,2,11,14,10,148,34,16,65,002,44,23,56,297,45,26,41,038,43*72
$GPGSV,3,3,11,27,56,154,44,31,23,091,43,22,09,211,00*48
$BDGSV,3,1,12,01,40,125,40,02,45,218,40,03,54,172,45,04,23,109,41*6D
$BDGSV,3,2,12,19,20,298,42,06,43,168,41,07,66,007,43,09,69,203,43*69
$BDGSV,3,3,12,10,63,298,43,16,50,175,43,32,14,189,39,23,22,075,41*65
$B3CN0,0,0,0,0,0,0,27,0,0,0,0,0,0,0*79
$GLGSV,2,1,08,08,41,288,47,07,38,217,47,19,30,063,35,20,29,131,42*6D
$GLGSV,2,2,08,09,39,028,46,18,02,023,34,26,00,000,45,11,05,279,00*67
$ini_pos,lastpos_good = 1,ini_pos.x:-1578915.645600,ini_pos.y:5312769.915456,ini_pos.z:3146354.115082
Refix G03: 2, 267398.919793, 1315
Refix G07: 2, 267398.914867, -3618
Refix G08: 2, 267398.924338, -4590
Refix G09: 2, 267398.922580, -4119
Refix G14: 2, 267398.918454, 2491
Refix G16: 2, 267398.931933, 187
Refix G22: 2, 267398.917169, 1144
Refix G23: 2, 267398.929522, -2666
Refix G26: 2, 267398.927084, 1229
Refix G27: 2, 267398.930456, -3169
Refix G31: 2, 267398.921249, 890
$GNGGA,021621.000,2944.9063,N,10633.0935,E,1,28,0.5,323.4,M,,,,0000*11
$GNRMC,021621.000,A,2944.9063,N,10633.0935,E,0.27,0.00,080519,,*14
$GPGSA,A,3,03,07,08,09,14,16,23,26,27,31,,,0.6,0.5,0.4*30
$BDGSA,A,3,01,02,03,04,06,07,09,10,16,23,27,28,0.6,0.5,0.4*20
$GLGSA,A,3,07,08,09,18,19,20,,,,,,,0.6,0.5,0.4*2C
$GPGSV,3,1,11,03,16,229,37,07,05,297,38,08,30,188,42,09,23,316,41*72
$GPGSV,3,2,11,14,10,148,34,16,65,002,45,23,56,297,45,26,41,038,43*73
$GPGSV,3,3,11,27,56,154,45,31,23,091,43,22,09,211,00*49
$BDGSV,3,1,12,01,40,125,40,02,45,218,40,03,54,172,43,04,23,109,40*6A
$BDGSV,3,2,12,19,20,298,42,06,43,168,41,07,66,007,43,09,69,203,43*69
$BDGSV,3,3,12,10,63,298,43,16,50,175,43,32,14,189,39,23,22,075,42*66
$B3CN0,0,0,0,0,0,0,27,0,0,0,0,0,0,0*79
$GLGSV,2,1,08,08,41,288,47,07,38,217,47,19,30,063,35,20,29,131,42*6D
$GLGSV,2,2,08,09,39,028,46,18,02,023,34,26,00,000,45,11,05,279,00*67
$ini_pos,lastpos_good = 1,ini_pos.x:-1578915.807338,ini_pos.y:5312769.910333,ini_pos.z:3146354.022264
Refix G03: 2, 267399.919792, 1314
Refix G07: 2, 267399.914870, -3620
Refix G08: 2, 267399.924341, -4591
Refix G09: 2, 267399.922582, -4121
Refix G14: 2, 267399.918453, 2490
Refix G16: 2, 267399.931933, 185
Refix G22: 2, 267399.917168, 1143
Refix G23: 2, 267399.929524, -2668
Refix G26: 2, 267399.927083, 1227
Refix G27: 2, 267399.930458, -3170
Refix G31: 2, 267399.921248, 888
$GNGGA,021622.000,2944.9062,N,10633.0938,E,1,30,0.5,323.8,M,,,,0000*1B
$GNRMC,021622.000,A,2944.9062,N,10633.0938,E,0.14,0.00,080519,,*1B
$GPGSA,A,3,03,07,08,09,14,16,23,26,27,31,,,0.6,0.5,0.3*37
$BDGSA,A,3,01,02,03,04,06,07,09,10,16,19,23,27,0.6,0.5,0.3*25
$GLGSA,A,3,07,08,09,18,19,20,,,,,,,0.6,0.5,0.3*2B
$GPGSV,3,1,11,03,16,229,38,07,05,297,38,08,30,188,42,09,23,316,41*7D
$GPGSV,3,2,11,14,10,148,33,16,65,002,45,23,56,297,44,26,41,038,44*72
$GPGSV,3,3,11,27,56,154,45,31,23,091,43,22,09,211,00*49
$BDGSV,3,1,12,01,40,125,41,02,45,218,40,03,54,172,45,04,23,109,41*6C
$BDGSV,3,2,12,19,20,298,43,06,43,168,41,07,66,007,44,09,69,203,43*6F
$BDGSV,3,3,12,10,63,298,43,16,50,175,43,32,14,189,39,23,22,075,42*66
$B3CN0,0,0,0,0,0,0,27,0,0,0,0,0,0,0*79
$GLGSV,2,1,08,08,41,288,47,07,38,217,47,19,30,063,34,20,29,131,42*6C
$GLGSV,2,2,08,09,39,028,46,18,02,023,33,26,00,000,44,11,05,279,00*61
$ini_pos,lastpos_good = 1,ini_pos.x:-1578916.345551,ini_pos.y:5312770.197360,ini_pos.z:3146354.000040
Refix G03: 2, 267400.919791, 1314
Refix G07: 2, 267400.914872, -3620
Refix G08: 2, 267400.924344, -4591
Refix G09: 2, 267400.922585, -4121
Refix G14: 2, 267400.918451, 2489
Refix G16: 2, 267400.931933, 185
Refix G22: 2, 267400.917168, 1143
Refix G23: 2, 267400.929525, -2668
Refix G26: 2, 267400.927082, 1226
Refix G27: 2, 267400.930460, -3170
Refix G31: 2, 267400.921247, 888
$GNGGA,021623.000,2944.9062,N,10633.0940,E,1,30,0.5,324.1,M,,,,0000*1B
$GNRMC,021623.000,A,2944.9062,N,10633.0940,E,0.14,0.00,080519,,*15
$GPGSA,A,3,03,07,08,09,14,16,23,26,27,31,,,0.6,0.5,0.3*37
$BDGSA,A,3,01,02,03,04,06,07,09,10,16,19,23,27,0.6,0.5,0.3*25
$GLGSA,A,3,07,08,09,18,19,20,,,,,,,0.6,0.5,0.3*2B
$GPGSV,3,1,11,03,16,229,38,07,05,297,38,08,30,188,42,09,23,316,40*7C
$GPGSV,3,2,11,14,10,148,33,16,65,002,45,23,56,297,44,26,41,038,44*72
$GPGSV,3,3,11,27,56,154,44,31,23,091,43,22,09,211,00*48
$BDGSV,3,1,12,01,40,125,41,02,45,218,41,03,54,172,43,04,23,109,41*6B
$BDGSV,3,2,12,19,20,298,42,06,43,168,41,07,66,007,44,09,69,203,43*6E
$BDGSV,3,3,12,10,63,298,43,16,50,175,42,32,14,189,40,23,22,075,42*69
$B3CN0,0,0,0,0,0,0,23,0,0,0,0,0,0,0*7D
$GLGSV,2,1,08,08,41,288,47,07,38,217,47,19,30,063,35,20,29,131,42*6D
$GLGSV,2,2,08,09,39,028,46,18,02,023,32,26,00,000,45,11,05,279,00*61
$ini_pos,lastpos_good = 1,ini_pos.x:-1578916.691049,ini_pos.y:5312770.384904,ini_pos.z:3146354.057477
Refix G03: 2, 267401.919790, 1316
Refix G07: 2, 267401.914874, -3617
Refix G08: 2, 267401.924347, -4589
Refix G09: 2, 267401.922588, -4118
Refix G14: 2, 267401.918450, 2492
Refix G16: 2, 267401.931933, 188
Refix G22: 2, 267401.917167, 1145
Refix G23: 2, 267401.929527, -2665
Refix G26: 2, 267401.927081, 1230
Refix G27: 2, 267401.930462, -3167
Refix G31: 2, 267401.921247, 891
$GNGGA,021624.000,2944.9061,N,10633.0940,E,1,30,0.5,324.3,M,,,,0000*1D
$GNRMC,021624.000,A,2944.9061,N,10633.0940,E,0.14,0.00,080519,,*11
$GPGSA,A,3,03,07,08,09,14,16,23,26,27,31,,,0.6,0.5,0.3*37
$BDGSA,A,3,01,02,03,04,06,07,09,10,16,19,23,27,0.6,0.5,0.3*25
$GLGSA,A,3,07,08,09,18,19,20,,,,,,,0.6,0.5,0.3*2B
$GPGSV,3,1,11,03,16,229,38,07,05,297,38,08,30,188,42,09,23,316,41*7D
$GPGSV,3,2,11,14,10,148,33,16,65,002,45,23,56,297,44,26,41,038,44*72
$GPGSV,3,3,11,27,56,154,45,31,23,091,42,22,09,211,00*48
$BDGSV,3,1,12,01,40,125,41,02,45,218,40,03,54,172,45,04,23,109,41*6C
$BDGSV,3,2,12,19,20,298,42,06,43,168,41,07,66,007,44,09,69,203,43*6E
$BDGSV,3,3,12,10,63,298,43,16,50,175,43,32,14,189,40,23,22,075,42*68
$B3CN0,0,0,0,0,0,0,0,0,0,0,0,0,0,0*4C
$GLGSV,2,1,08,08,41,288,47,07,38,217,47,19,30,063,35,20,29,131,42*6D
$GLGSV,2,2,08,09,39,028,46,18,02,023,32,26,00,000,45,11,05,279,00*61
$ini_pos,lastpos_good = 1,ini_pos.x:-1578916.839454,ini_pos.y:5312770.579263,ini_pos.z:3146354.105857
Refix G03: 2, 267402.919789, 1326
Refix G07: 2, 267402.914876, -3608
Refix G08: 2, 267402.924350, -4578
Refix G09: 2, 267402.922590, -4108
Refix G14: 2, 267402.918448, 2501
Refix G16: 2, 267402.931933, 200
Refix G22: 2, 267402.917166, 1154
Refix G23: 2, 267402.929529, -2653
Refix G26: 2, 267402.927080, 1240
Refix G27: 2, 267402.930464, -3155
Refix G31: 2, 267402.921246, 901
$GNGGA,021625.000,2944.9061,N,10633.0940,E,1,30,0.5,324.4,M,,,,0000*1B
$GNRMC,021625.000,A,2944.9061,N,10633.0940,E,0.17,0.00,080519,,*13
$GPGSA,A,3,03,07,08,09,14,16,23,26,27,31,,,0.6,0.5,0.3*37
$BDGSA,A,3,01,02,03,04,06,07,09,10,16,19,23,27,0.6,0.5,0.3*25
$GLGSA,A,3,07,08,09,18,19,20,,,,,,,0.6,0.5,0.3*2B
$GPGSV,3,1,11,03,16,229,38,07,05,297,38,08,30,188,42,09,23,316,41*7D
$GPGSV,3,2,11,14,10,148,34,16,65,002,44,23,56,297,44,26,41,038,43*73
$GPGSV,3,3,11,27,56,154,44,31,23,091,43,22,09,211,00*48
$BDGSV,3,1,12,01,40,125,40,02,45,218,40,03,54,172,43,04,23,109,41*6B
$BDGSV,3,2,12,19,20,298,42,06,43,168,41,07,66,007,44,09,69,203,43*6E
$BDGSV,3,3,12,10,63,298,43,16,50,175,43,32,14,189,40,23,22,075,42*68
$B3CN0,0,0,0,0,0,0,0,0,0,0,0,0,0,0*4C
$GLGSV,2,1,08,08,41,288,47,07,38,217,47,19,30,063,35,20,29,131,42*6D
$GLGSV,2,2,08,09,39,028,46,18,02,023,32,26,00,000,45,11,05,279,00*61
$ini_pos,lastpos_good = 1,ini_pos.x:-1578916.858442,ini_pos.y:5312770.651885,ini_pos.z:3146354.119328
Refix G03: 2, 267403.919788, 1313
Refix G07: 2, 267403.914879, -3621
Refix G08: 2, 267403.924352, -4592
Refix G09: 2, 267403.922593, -4121
Refix G14: 2, 267403.918446, 2489
Refix G16: 2, 267403.931933, 184
Refix G22: 2, 267403.917165, 1141
Refix G23: 2, 267403.929530, -2668
Refix G26: 2, 267403.927080, 1225
Refix G27: 2, 267403.930466, -3170
Refix G31: 2, 267403.921246, 888
$GNGGA,021626.000,2944.9062,N,10633.0941,E,1,30,0.5,324.3,M,,,,0000*1D
$GNRMC,021626.000,A,2944.9062,N,10633.0941,E,0.13,0.00,080519,,*16
$GPGSA,A,3,03,07,08,09,14,16,23,26,27,31,,,0.6,0.5,0.3*37
$BDGSA,A,3,01,02,03,04,06,07,09,10,16,19,23,27,0.6,0.5,0.3*25
$GLGSA,A,3,07,08,09,18,19,20,,,,,,,0.6,0.5,0.3*2B
$GPGSV,3,1,11,03,16,229,38,07,05,297,38,08,30,188,41,09,23,316,41*7E
$GPGSV,3,2,11,14,10,148,33,16,65,002,44,23,56,297,44,26,41,038,44*73
$GPGSV,3,3,11,27,56,154,44,31,23,091,42,22,09,211,00*49
$BDGSV,3,1,12,01,40,125,41,02,45,218,41,03,54,172,43,04,23,109,41*6B
$BDGSV,3,2,12,19,20,298,42,06,43,168,42,07,66,007,44,09,69,203,43*6D
$BDGSV,3,3,12,10,63,298,43,16,50,175,42,32,14,189,40,23,22,075,42*69
$B3CN0,22,0,0,0,0,0,0,0,0,0,0,0,0,0*7C
$GLGSV,2,1,08,08,41,288,47,07,38,217,47,19,30,063,35,20,29,131,42*6D
$GLGSV,2,2,08,09,39,028,45,18,02,023,32,26,00,000,46,11,05,279,00*61
$ini_pos,lastpos_good = 1,ini_pos.x:-1578916.909199,ini_pos.y:5312770.508764,ini_pos.z:3146354.180793
Refix G03: 2, 267404.919787, 1310
Refix G07: 2, 267404.914881, -3624
Refix G08: 2, 267404.924355, -4594
Refix G09: 2, 267404.922595, -4123
Refix G14: 2, 267404.918445, 2486
Refix G16: 2, 267404.931933, 183
Refix G22: 2, 267404.917164, 1138
Refix G23: 2, 267404.929532, -2669
Refix G26: 2, 267404.927079, 1224
Refix G27: 2, 267404.930468, -3171
Refix G31: 2, 267404.921245, 885
$GNGGA,021627.000,2944.9061,N,10633.0940,E,1,30,0.5,324.5,M,,,,0000*18
$GNRMC,021627.000,A,2944.9061,N,10633.0940,E,0.19,0.00,080519,,*1F
$GPGSA,A,3,03,07,08,09,14,16,23,26,27,31,,,0.6,0.5,0.3*37
$BDGSA,A,3,01,02,03,04,06,07,09,10,16,19,23,27,0.6,0.5,0.3*25
$GLGSA,A,3,07,08,09,18,19,20,,,,,,,0.6,0.5,0.3*2B
$GPGSV,3,1,11,03,16,229,39,07,05,297,38,08,30,188,42,09,23,316,41*7C
$GPGSV,3,2,11,14,10,148,33,16,65,002,45,23,56,297,44,26,41,038,43*75
$GPGSV,3,3,11,27,56,154,44,31,23,091,43,22,09,211,00*48
$BDGSV,3,1,12,01,40,125,41,02,45,218,40,03,54,172,42,04,23,109,41*6B
$BDGSV,3,2,12,19,20,298,41,06,43,168,41,07,66,007,43,09,69,203,43*6A
$BDGSV,3,3,12,10,63,298,43,16,50,175,42,32,14,189,40,23,22,075,42*69
$B3CN0,0,0,0,0,0,0,0,0,0,0,0,0,0,0*4C
$GLGSV,2,1,08,08,41,288,47,07,38,217,47,19,30,063,35,20,29,131,42*6D
$GLGSV,2,2,08,09,39,028,46,18,02,023,32,26,00,000,45,11,05,279,00*61
$ini_pos,lastpos_good = 1,ini_pos.x:-1578916.927431,ini_pos.y:5312770.761079,ini_pos.z:3146354.247053
Refix G03: 2, 267405.919787, 1313
Refix G07: 2, 267405.914883, -3622
Refix G08: 2, 267405.924358, -4591
Refix G09: 2, 267405.922598, -4121
Refix G14: 2, 267405.918443, 2489
Refix G16: 2, 267405.931932, 186
Refix G22: 2, 267405.917164, 1140
Refix G23: 2, 267405.929534, -2667
Refix G26: 2, 267405.927078, 1226
Refix G27: 2, 267405.930470, -3168
Refix G31: 2, 267405.921245, 888
$GNGGA,021628.000,2944.9062,N,10633.0940,E,1,30,0.5,324.6,M,,,,0000*17
$GNRMC,021628.000,A,2944.9062,N,10633.0940,E,0.19,0.00,080519,,*13
$GPGSA,A,3,03,07,08,09,14,16,23,26,27,31,,,0.6,0.5,0.3*37
$BDGSA,A,3,01,02,03,04,06,07,09,10,16,19,23,27,0.6,0.5,0.3*25
$GLGSA,A,3,07,08,09,18,19,20,,,,,,,0.6,0.5,0.3*2B
$GPGSV,3,1,11,03,16,229,39,07,05,297,37,08,30,188,42,09,23,316,41*73
$GPGSV,3,2,11,14,10,148,34,16,65,002,44,23,56,297,44,26,41,038,43*73
$GPGSV,3,3,11,27,56,154,44,31,23,091,43,22,09,211,00*48
$BDGSV,3,1,12,01,40,125,41,02,45,218,41,03,54,172,43,04,23,109,41*6B
$BDGSV,3,2,12,19,20,298,42,06,43,168,41,07,66,007,43,09,69,203,43*69
$BDGSV,3,3,12,10,63,298,43,16,50,175,43,32,14,189,39,23,22,075,42*66
$B3CN0,0,0,0,0,0,0,0,0,0,0,0,0,0,0*4C
$GLGSV,2,1,08,08,41,288,47,07,38,217,47,19,30,063,35,20,29,131,42*6D
$GLGSV,2,2,08,09,39,028,46,18,02,023,32,26,00,000,45,11,05,279,00*61
$ini_pos,lastpos_good = 1,ini_pos.x:-1578916.849418,ini_pos.y:5312770.794886,ini_pos.z:3146354.374610
Refix G03: 2, 267406.919786, 1309
Refix G07: 2, 267406.914886, -3626
Refix G08: 2, 267406.924361, -4594
Refix G09: 2, 267406.922600, -4124
Refix G14: 2, 267406.918441, 2486
Refix G16: 2, 267406.931932, 182
Refix G22: 2, 267406.917163, 1137
Refix G23: 2, 267406.929535, -2670
Refix G26: 2, 267406.927077, 1222
Refix G27: 2, 267406.930472, -3171
Refix G31: 2, 267406.921244, 885
$GNGGA,021629.000,2944.9063,N,10633.0939,E,1,30,0.5,324.6,M,,,,0000*19
$GNRMC,021629.000,A,2944.9063,N,10633.0939,E,0.33,0.00,080519,,*15
$GPGSA,A,3,03,07,08,09,14,16,23,26,27,31,,,0.6,0.5,0.3*37
$BDGSA,A,3,01,02,03,04,06,07,09,10,16,19,23,27,0.6,0.5,0.3*25
$GLGSA,A,3,07,08,09,18,19,20,,,,,,,0.6,0.5,0.3*2B
$GPGSV,3,1,11,03,16,229,39,07,05,297,37,08,30,188,41,09,23,316,41*70
$GPGSV,3,2,11,14,10,148,34,16,65,002,44,23,56,297,44,26,41,038,43*73
$GPGSV,3,3,11,27,56,154,44,31,23,091,43,22,09,211,00*48
$BDGSV,3,1,12,01,40,125,41,02,45,218,40,03,54,172,43,04,23,109,40*6B
$BDGSV,3,2,12,19,20,298,42,06,43,168,41,07,66,007,44,09,69,203,43*6E
$BDGSV,3,3,12,10,63,298,43,16,50,175,43,32,14,189,39,23,22,075,42*66
$B3CN0,0,0,0,0,0,0,0,0,0,0,0,0,0,0*4C
$GLGSV,2,1,08,08,41,288,47,07,38,217,47,19,30,063,35,20,29,131,42*6D
$GLGSV,2,2,08,09,39,028,47,18,02,023,32,26,00,000,45,11,05,279,00*60
$ini_pos,lastpos_good = 1,ini_pos.x:-1578916.702921,ini_pos.y:5312770.800979,ini_pos.z:3146354.486651
Refix G03: 2, 267407.919785, 1310
Refix G07: 2, 267407.914888, -3626
Refix G08: 2, 267407.924364, -4594
Refix G09: 2, 267407.922603, -4124
Refix G14: 2, 267407.918440, 2486
Refix G16: 2, 267407.931932, 183
Refix G22: 2, 267407.917162, 1137
Refix G23: 2, 267407.929537, -2669
Refix G26: 2, 267407.927076, 1222
Refix G27: 2, 267407.930474, -3170
Refix G31: 2, 267407.921243, 884
$GNGGA,021630.000,2944.9063,N,10633.0938,E,1,30,0.5,324.7,M,,,,0000*11
$GNRMC,021630.000,A,2944.9063,N,10633.0938,E,0.22,0.00,080519,,*1C
$GPGSA,A,3,03,07,08,09,14,16,23,26,27,31,,,0.6,0.5,0.3*37
$BDGSA,A,3,01,02,03,04,06,07,09,10,16,19,23,27,0.6,0.5,0.3*25
$GLGSA,A,3,07,08,09,18,19,20,,,,,,,0.6,0.5,0.3*2B
$GPGSV,3,1,11,03,16,229,39,07,05,297,38,08,30,188,42,09,23,316,41*7C
$GPGSV,3,2,11,14,10,148,33,16,65,002,44,23,56,297,44,26,41,038,43*74
$GPGSV,3,3,11,27,56,154,44,31,23,091,43,22,09,211,00*48
$BDGSV,3,1,12,01,40,125,41,02,45,218,41,03,54,172,43,04,23,109,41*6B
$BDGSV,3,2,12,19,20,298,42,06,43,168,41,07,66,007,43,09,69,203,43*69
$BDGSV,3,3,12,10,63,298,43,16,50,175,42,32,14,189,40,23,22,075,42*69
$B3CN0,0,0,0,0,0,0,0,0,0,0,0,0,0,0*4C
$GLGSV,2,1,08,08,41,288,47,07,38,217,47,19,30,063,35,20,29,131,42*6D
$GLGSV,2,2,08,09,39,028,47,18,02,023,33,26,00,000,45,11,05,279,00*61
$ini_pos,lastpos_good = 1,ini_pos.x:-1578916.572852,ini_pos.y:5312770.836830,ini_pos.z:3146354.625665
Refix G03: 2, 267408.919784, 1311
Refix G07: 2, 267408.914890, -3625
Refix G08: 2, 267408.924367, -4593
Refix G09: 2, 267408.922606, -4122
Refix G14: 2, 267408.918438, 2487
Refix G16: 2, 267408.931932, 185
Refix G22: 2, 267408.917161, 1138
Refix G23: 2, 267408.929539, -2667
Refix G26: 2, 267408.927075, 1224
Refix G27: 2, 267408.930476, -3169
Refix G31: 2, 267408.921243, 885
$GNGGA,021631.000,2944.9064,N,10633.0938,E,1,30,0.5,324.7,M,,,,0000*17
$GNRMC,021631.000,A,2944.9064,N,10633.0938,E,0.12,0.00,080519,,*19
$GPGSA,A,3,03,07,08,09,14,16,23,26,27,31,,,0.6,0.5,0.3*37
$BDGSA,A,3,01,02,03,04,06,07,09,10,16,19,23,27,0.6,0.5,0.3*25
$GLGSA,A,3,07,08,09,18,19,20,,,,,,,0.6,0.5,0.3*2B
$GPGSV,3,1,11,03,16,229,39,07,05,297,38,08,30,188,42,09,23,316,41*7C
$GPGSV,3,2,11,14,10,148,34,16,65,002,44,23,56,297,45,26,41,038,43*72
$GPGSV,3,3,11,27,56,154,44,31,23,091,42,22,09,211,00*49
$BDGSV,3,1,12,01,40,125,41,02,45,218,41,03,54,172,43,04,23,109,40*6A
$BDGSV,3,2,12,19,20,298,42,06,43,168,41,07,66,007,43,09,69,203,43*69
$BDGSV,3,3,12,10,63,298,43,16,50,175,43,32,14,189,40,23,22,075,42*68
$B3CN0,0,0,0,0,0,0,0,0,0,0,0,0,0,0*4C
$GLGSV,2,1,08,08,41,288,47,07,37,217,47,19,30,063,35,20,29,131,42*62
$GLGSV,2,2,08,09,39,028,46,18,02,023,33,26,00,000,45,11,05,279,00*60
$ini_pos,lastpos_good = 1,ini_pos.x:-1578916.469962,ini_pos.y:5312770.839586,ini_pos.z:3146354.731601
Refix G03: 2, 267409.919783, 1310
Refix G07: 2, 267409.914892, -3626
Refix G08: 2, 267409.924370, -4593
Refix G09: 2, 267409.922608, -4123
Refix G14: 2, 267409.918437, 2487
Refix G16: 2, 267409.931932, 184
Refix G22: 2, 267409.917161, 1137
Refix G23: 2, 267409.929540, -2668
Refix G26: 2, 267409.927075, 1223
Refix G27: 2, 267409.930478, -3169
Refix G31: 2, 267409.921242, 885
$GNGGA,021632.000,2944.9064,N,10633.0937,E,1,30,0.5,324.7,M,,,,0000*1B
$GNRMC,021632.000,A,2944.9064,N,10633.0937,E,0.30,0.00,080519,,*15
$GPGSA,A,3,03,07,08,09,14,16,23,26,27,31,,,0.6,0.5,0.3*37
$BDGSA,A,3,01,02,03,04,06,07,09,10,16,19,23,27,0.6,0.5,0.3*25
$GLGSA,A,3,07,08,09,18,19,20,,,,,,,0.6,0.5,0.3*2B
$GPGSV,3,1,11,03,16,229,39,07,05,297,38,08,30,188,42,09,23,316,41*7C
$GPGSV,3,2,11,14,10,148,33,16,65,002,45,23,56,297,44,26,41,038,43*75
$GPGSV,3,3,11,27,56,154,44,31,23,091,42,22,09,211,00*49
$BDGSV,3,1,12,01,40,125,40,02,45,218,40,03,54,172,43,04,23,109,41*6B
$BDGSV,3,2,12,19,20,298,42,06,43,168,41,07,66,007,44,09,69,203,43*6E
$BDGSV,3,3,12,10,63,298,43,16,50,175,43,32,14,189,40,23,22,075,42*68
$B3CN0,0,0,0,0,0,0,0,0,0,0,0,0,0,0*4C
$GLGSV,2,1,08,08,41,288,47,07,37,217,47,19,30,063,35,20,29,131,42*62
$GLGSV,2,2,08,09,39,028,46,18,02,023,33,26,00,000,45,11,05,279,00*60
$ini_pos,lastpos_good = 1,ini_pos.x:-1578916.417301,ini_pos.y:5312770.827028,ini_pos.z:3146354.706811
Refix G03: 2, 267410.919782, 1306
Refix G07: 2, 267410.914895, -3629
Refix G08: 2, 267410.924373, -4597
Refix G09: 2, 267410.922611, -4126
Refix G14: 2, 267410.918435, 2483
Refix G16: 2, 267410.931932, 180
Refix G22: 2, 267410.917160, 1133
Refix G23: 2, 267410.929542, -2671
Refix G26: 2, 267410.927074, 1219
Refix G27: 2, 267410.930480, -3173
Refix G31: 2, 267410.921242, 882
$GNGGA,021633.000,2944.9064,N,10633.0937,E,1,30,0.5,324.8,M,,,,0000*15
$GNRMC,021633.000,A,2944.9064,N,10633.0937,E,0.19,0.00,080519,,*1F
$GPGSA,A,3,03,07,08,09,14,16,23,26,27,31,,,0.6,0.5,0.3*37
$BDGSA,A,3,01,02,03,04,06,07,09,10,16,19,23,27,0.6,0.5,0.3*25
$GLGSA,A,3,07,08,09,18,19,20,,,,,,,0.6,0.5,0.3*2B
$GPGSV,3,1,11,03,16,229,39,07,05,297,38,08,30,188,42,09,23,316,41*7C
$GPGSV,3,2,11,14,10,148,33,16,65,002,44,23,56,297,44,26,41,038,43*74
$GPGSV,3,3,11,27,56,154,45,31,23,091,43,22,09,211,00*49
$BDGSV,3,1,12,01,40,125,41,02,45,218,40,03,54,172,43,04,23,109,41*6A
$BDGSV,3,2,12,19,20,298,41,06,43,168,41,07,66,007,44,09,69,203,43*6D
$BDGSV,3,3,12,10,63,298,43,16,50,175,42,32,14,189,40,23,22,075,42*69
$B3CN0,0,0,0,0,0,0,0,0,0,0,0,0,0,0*4C
$GLGSV,2,1,08,08,41,288,46,07,37,217,46,19,30,063,35,20,29,131,42*62
$GLGSV,2,2,08,09,39,028,46,18,02,023,33,26,00,000,45,11,05,279,00*60
$ini_pos,lastpos_good = 1,ini_pos.x:-1578916.348083,ini_pos.y:5312770.882225,ini_pos.z:3146354.793080
Refix G03: 2, 267411.919781, 1308
Refix G07: 2, 267411.914897, -3628
Refix G08: 2, 267411.924376, -4595
Refix G09: 2, 267411.922613, -4125
Refix G14: 2, 267411.918433, 2485
Refix G16: 2, 267411.931932, 182
Refix G22: 2, 267411.917159, 1135
Refix G23: 2, 267411.929544, -2669
Refix G26: 2, 267411.927073, 1221
Refix G27: 2, 267411.930482, -3170
Refix G31: 2, 267411.921241, 883
$GNGGA,021634.000,2944.9064,N,10633.0936,E,1,30,0.5,325.2,M,,,,0000*18
$GNRMC,021634.000,A,2944.9064,N,10633.0936,E,0.33,0.00,080519,,*11
$GPGSA,A,3,03,07,08,09,14,16,23,26,27,31,,,0.6,0.5,0.3*37
$BDGSA,A,3,01,02,03,04,06,07,09,10,16,19,23,27,0.6,0.5,0.3*25
$GLGSA,A,3,07,08,09,18,19,20,,,,,,,0.6,0.5,0.3*2B
$GPGSV,3,1,11,03,16,229,38,07,05,297,39,08,30,188,42,09,23,316,41*7C
$GPGSV,3,2,11,14,10,148,33,16,65,002,45,23,56,297,45,26,41,038,44*73
$GPGSV,3,3,11,27,56,154,45,31,23,091,43,22,09,211,00*49
$BDGSV,3,1,12,01,40,125,42,02,45,218,40,03,54,172,43,04,23,109,40*68
$BDGSV,3,2,12,19,20,298,41,06,43,168,40,07,66,007,44,09,69,203,44*6B
$BDGSV,3,3,12,10,63,298,43,16,50,175,42,32,14,189,40,23,22,075,42*69
$B3CN0,0,0,0,0,0,0,0,0,0,0,0,0,0,0*4C
$GLGSV,2,1,08,08,41,288,46,07,37,217,46,19,30,063,35,20,29,131,42*62
$GLGSV,2,2,08,09,39,028,46,18,02,023,33,26,00,000,45,11,05,279,00*60
$ini_pos,lastpos_good = 1,ini_pos.x:-1578916.306607,ini_pos.y:5312771.290349,ini_pos.z:3146354.975622
Refix G03: 2, 267412.919780, 1318
Refix G07: 2, 267412.914899, -3619
Refix G08: 2, 267412.924378, -4584
Refix G09: 2, 267412.922616, -4114
Refix G14: 2, 267412.918432, 2495
Refix G16: 2, 267412.931931, 194
Refix G22: 2, 267412.917158, 1144
Refix G23: 2, 267412.929545, -2657
Refix G26: 2, 267412.927072, 1232
Refix G27: 2, 267412.930484, -3158
Refix G31: 2, 267412.921240, 894
$GNGGA,021635.000,2944.9064,N,10633.0935,E,1,30,0.5,325.4,M,,,,0000*1C
$GNRMC,021635.000,A,2944.9064,N,10633.0935,E,0.26,0.00,080519,,*17
$GPGSA,A,3,03,07,08,09,14,16,23,26,27,31,,,0.6,0.5,0.3*37
$BDGSA,A,3,01,02,03,04,06,07,09,10,16,19,23,27,0.6,0.5,0.3*25
$GLGSA,A,3,07,08,09,18,19,20,,,,,,,0.6,0.5,0.3*2B
$GPGSV,3,1,11,03,16,229,40,07,05,297,38,08,30,188,41,09,23,316,41*71
$GPGSV,3,2,11,14,10,148,34,16,65,002,45,23,56,297,45,26,41,038,44*74
$GPGSV,3,3,11,27,56,154,45,31,23,091,43,22,09,211,00*49
$BDGSV,3,1,12,01,40,125,41,02,45,218,41,03,54,172,43,04,23,109,40*6A
$BDGSV,3,2,12,19,20,298,42,06,43,168,41,07,66,007,44,09,69,203,43*6E
$BDGSV,3,3,12,10,63,298,43,16,50,175,43,32,14,189,40,23,22,075,42*68
$B3CN0,0,0,0,0,0,0,0,0,0,0,0,0,0,0*4C
$GLGSV,2,1,08,08,41,288,46,07,37,217,47,19,30,063,36,20,29,131,42*60
$GLGSV,2,2,08,09,39,028,46,18,02,023,32,26,00,000,45,11,05,279,00*61
$ini_pos,lastpos_good = 1,ini_pos.x:-1578916.179425,ini_pos.y:5312771.542344,ini_pos.z:3146355.064226
Refix G03: 2, 267413.919780, 1309
Refix G07: 2, 267413.914901, -3626
Refix G08: 2, 267413.924381, -4594
Refix G09: 2, 267413.922619, -4122
Refix G14: 2, 267413.918430, 2486
Refix G16: 2, 267413.931931, 184
Refix G22: 2, 267413.917158, 1136
Refix G23: 2, 267413.929547, -2667
Refix G26: 2, 267413.927071, 1222
Refix G27: 2, 267413.930486, -3169
Refix G31: 2, 267413.921240, 884
$GNGGA,021636.000,2944.9064,N,10633.0935,E,1,30,0.5,325.2,M,,,,0000*19
$GNRMC,021636.000,A,2944.9064,N,10633.0935,E,0.04,0.00,080519,,*14
$GPGSA,A,3,03,07,08,09,14,16,23,26,27,31,,,0.6,0.5,0.3*37
$BDGSA,A,3,01,02,03,04,06,07,09,10,16,19,23,27,0.6,0.5,0.3*25
$GLGSA,A,3,07,08,09,18,19,20,,,,,,,0.6,0.5,0.3*2B
$GPGSV,3,1,11,03,16,229,40,07,05,297,38,08,30,188,41,09,23,316,41*71
$GPGSV,3,2,11,14,10,148,33,16,65,002,44,23,56,297,45,26,41,038,44*72
$GPGSV,3,3,11,27,56,154,45,31,23,091,43,22,09,211,00*49
$BDGSV,3,1,12,01,40,125,41,02,45,218,40,03,54,172,42,04,23,109,41*6B
$BDGSV,3,2,12,19,20,298,41,06,43,168,41,07,66,007,44,09,69,203,43*6D
$BDGSV,3,3,12,10,63,298,43,16,50,175,42,32,14,189,40,23,22,075,42*69
$B3CN0,0,0,0,0,0,0,0,0,0,0,0,0,0,0*4C
$GLGSV,2,1,08,08,41,288,47,07,37,217,47,19,30,063,36,20,29,131,42*61
$GLGSV,2,2,08,09,39,028,46,18,02,023,31,26,00,000,45,11,05,279,00*62
$ini_pos,lastpos_good = 1,ini_pos.x:-1578916.121917,ini_pos.y:5312771.354481,ini_pos.z:3146354.929029
Refix G03: 2, 267414.919779, 1310
Refix G07: 2, 267414.914904, -3626
Refix G08: 2, 267414.924384, -4593
Refix G09: 2, 267414.922621, -4121
Refix G14: 2, 267414.918429, 2486
Refix G16: 2, 267414.931931, 185
Refix G22: 2, 267414.917157, 1136
Refix G23: 2, 267414.929549, -2665
Refix G26: 2, 267414.927071, 1223
Refix G27: 2, 267414.930488, -3167
Refix G31: 2, 267414.921239, 885
$GNGGA,021637.000,2944.9063,N,10633.0935,E,1,30,0.5,325.3,M,,,,0000*1E
$GNRMC,021637.000,A,2944.9063,N,10633.0935,E,0.01,0.00,080519,,*17
$GPGSA,A,3,03,07,08,09,14,16,23,26,27,31,,,0.6,0.5,0.3*37
$BDGSA,A,3,01,02,03,04,06,07,09,10,16,19,23,27,0.6,0.5,0.3*25
$GLGSA,A,3,07,08,09,18,19,20,,,,,,,0.6,0.5,0.3*2B
$GPGSV,3,1,11,03,16,229,40,07,05,297,38,08,30,188,42,09,23,316,41*72
$GPGSV,3,2,11,14,09,148,34,16,64,002,44,23,56,297,45,26,40,038,44*7D
$GPGSV,3,3,11,27,56,154,45,31,23,092,43,22,09,211,00*4A
$BDGSV,3,1,12,01,40,125,41,02,45,218,40,03,54,172,45,04,23,109,41*6C
$BDGSV,3,2,12,19,20,298,42,06,43,168,41,07,66,007,43,09,69,203,43*69
$BDGSV,3,3,12,10,63,298,43,16,50,175,43,32,14,189,40,23,22,076,43*6A
$B3CN0,0,0,0,0,0,0,0,0,0,0,0,0,0,0*4C
$GLGSV,2,1,08,08,41,288,46,07,37,217,47,19,30,063,36,20,29,131,42*60
$GLGSV,2,2,08,09,39,028,46,18,02,023,31,26,00,000,45,11,05,279,00*62
$ini_pos,lastpos_good = 1,ini_pos.x:-1578916.225135,ini_pos.y:5312771.531863,ini_pos.z:3146354.966755
Refix G03: 2, 267415.919778, 1311
Refix G07: 2, 267415.914906, -3626
Refix G08: 2, 267415.924387, -4591
Refix G09: 2, 267415.922624, -4120
Refix G14: 2, 267415.918427, 2487
Refix G16: 2, 267415.931931, 186
Refix G22: 2, 267415.917156, 1137
Refix G23: 2, 267415.929550, -2664
Refix G26: 2, 267415.927070, 1224
Refix G27: 2, 267415.930490, -3165
Refix G31: 2, 267415.921239, 886
$GNGGA,021638.000,2944.9063,N,10633.0935,E,1,30,0.5,325.4,M,,,,0000*16
$GNRMC,021638.000,A,2944.9063,N,10633.0935,E,0.14,0.00,080519,,*1C
$GPGSA,A,3,03,07,08,09,14,16,23,26,27,31,,,0.6,0.5,0.3*37
$BDGSA,A,3,01,02,03,04,06,07,09,10,16,19,23,27,0.6,0.5,0.3*25
