SD initialized success
Create debug.log Failed! 3
bbram_blkflag = 1
rtcflag = 0
BBRAM Block OK: 01 EPHflag: 4640a184 8c44836f, rtc 00
Hot-start nowtime:day = 8,minute = 4,seconds = 37.00
GPS 0 Init Dop: 10000,80
GPS 1 Init Dop: 10000,80
GPS 2 Init Dop:  1474, 2
GPS 3 Init Dop: 10000,80
GPS 4 Init Dop: 10000,80
GPS 5 Init Dop: 10000,80
GPS 6 Init Dop: 10000,80
GPS 7 Init Dop: -4500, 2
GPS 8 Init Dop: -4080, 2
GPS 9 Init Dop: 10000,80
GPS10 Init Dop: 10000,80
GPS11 Init Dop: 10000,80
GPS12 Init Dop: 10000,80
GPS13 Init Dop:  2607, 2
GPS14 Init Dop: 10000,80
GPS15 Init Dop:   143, 2
GPS16 Init Dop: 10000,80
GPS17 Init Dop: 10000,80
GPS18 Init Dop: 10000,80
GPS19 Init Dop: 10000,80
GPS20 Init Dop: 10000,80
GPS21 Init Dop: 10000,80
GPS22 Init Dop: -2803, 2
GPS23 Init Dop: 10000,80
GPS24 Init Dop: 10000,80
GPS25 Init Dop:  1367, 2
GPS26 Init Dop: -3323, 2
GPS27 Init Dop: 10000,80
GPS28 Init Dop: 10000,80
GPS29 Init Dop: 10000,80
GPS30 Init Dop:  1027, 2
GPS31 Init Dop: 10000,80
BDS 0 Init Dop:  -899, 2
BDS 1 Init Dop:  -860, 2
BDS 2 Init Dop:  -898, 2
BDS 3 Init Dop:  -889, 2
BDS 4 Init Dop: 10000,80
BDS 5 Init Dop:   231, 2
BDS 6 Init Dop:  -592, 2
BDS 7 Init Dop: 10000,80
BDS 8 Init Dop:  -332, 2
BDS 9 Init Dop:  -731, 2
BDS10 Init Dop: 10000,80
BDS11 Init Dop: 10000,80
BDS12 Init Dop: 10000,80
BDS13 Init Dop: 10000,80
BDS14 Init Dop: 10000,80
BDS15 Init Dop:   241, 2
BDS16 Init Dop: 10000,80
BDS17 Init Dop: 10000,80
BDS18 Init Dop: -1779, 2
BDS19 Init Dop: 10000,80
BDS20 Init Dop: 10000,80
BDS21 Init Dop: 10000,80
BDS22 Init Dop:   769, 2
BDS23 Init Dop: 10000,80
BDS24 Init Dop: 10000,80
BDS25 Init Dop: 10000,80
BDS26 Init Dop: -3846, 2
BDS27 Init Dop: -1826, 2
BDS28 Init Dop: 10000,80
BDS29 Init Dop: 10000,80
BDS30 Init Dop: 10000,80
BDS31 Init Dop:  2126, 2
Good luck!
$ini_pos,lastpos_good = 1,ini_pos.x:-1578917.000000,ini_pos.y:5312771.000000,ini_pos.z:3146356.000000
$rtc_local_time,localRTC.weeks:2052,localRTC.seconds:266696.026014,localGtime.weeks:0,localGtime.seconds:19.026010
$GNGGA,000000.000,,,,,0,00,,,M,,,,0000*2B
$GNRMC,000000.000,A,,,,,,,060180,,*29
$GPGSA,A,1,,,,,,,,,,,,,,,*1E
$BDGSA,A,1,,,,,,,,,,,,,,,*0F
$GLGSA,A,1,,,,,,,,,,,,,,,*02
$B3CN0,0,0,0,0,0,0,0,0,0,0,0,0,0,0*4C
$ini_pos,lastpos_good = 1,ini_pos.x:-1578917.000000,ini_pos.y:5312771.000000,ini_pos.z:3146356.000000
$rtc_local_time,localRTC.weeks:2052,localRTC.seconds:266697.026014,localGtime.weeks:2052,localGtime.seconds:266697.026014
i = 0
$GNGGA,000000.000,,,,,0,00,,,M,,,,0000*2B
$GNRMC,000000.000,A,,,,,,,060180,,*29
$GPGSA,A,1,,,,,,,,,,,,,,,*1E
$BDGSA,A,1,,,,,,,,,,,,,,,*0F
$GLGSA,A,1,,,,,,,,,,,,,,,*02
$B3CN0,0,0,0,0,0,0,0,0,0,0,0,0,0,0*4C
$ini_pos,lastpos_good = 1,ini_pos.x:-1578917.000000,ini_pos.y:5312771.000000,ini_pos.z:3146356.000000
$rtc_local_time,localRTC.weeks:2052,localRTC.seconds:266698.026014,localGtime.weeks:2052,localGtime.seconds:266698.026014
i = 0
i = 1
i = 2
i = 3
i = 4
$GNGGA,000000.000,,,,,0,00,,,M,,,,0000*2B
$GNRMC,000000.000,A,,,,,,,060180,,*29
$GPGSA,A,1,,,,,,,,,,,,,,,*1E
$BDGSA,A,1,,,,,,,,,,,,,,,*0F
$GLGSA,A,1,,,,,,,,,,,,,,,*02
$GPGSV,1,1,01,03,00,000,21*48
$B3CN0,0,0,0,0,0,0,0,0,0,0,0,0,0,0*4C
$ini_pos,lastpos_good = 1,ini_pos.x:-1578917.000000,ini_pos.y:5312771.000000,ini_pos.z:3146356.000000
$rtc_local_time,localRTC.weeks:2052,localRTC.seconds:266699.026014,localGtime.weeks:2052,localGtime.seconds:266699.026014
i = 0
i = 1
i = 2
i = 3
i = 4
i = 5
i = 6
i = 7
i = 8
i = 9
i = 10
i = 11
i = 12
$GNGGA,000000.000,,,,,0,00,,,M,,,,0000*2B
$GNRMC,000000.000,A,,,,,,,060180,,*29
$GPGSA,A,1,,,,,,,,,,,,,,,*1E
$BDGSA,A,1,,,,,,,,,,,,,,,*0F
$GLGSA,A,1,,,,,,,,,,,,,,,*02
$GPGSV,2,1,05,03,00,000,39,08,00,000,35,09,00,000,35,14,00,000,29*79
$GPGSV,2,2,05,16,00,000,28*41
$B3CN0,0,0,0,0,0,0,0,0,0,0,0,0,0,0*4C
$ini_pos,lastpos_good = 1,ini_pos.x:-1578917.000000,ini_pos.y:5312771.000000,ini_pos.z:3146356.000000
$rtc_local_time,localRTC.weeks:2052,localRTC.seconds:266700.026014,localGtime.weeks:2052,localGtime.seconds:266700.026014
i = 0
i = 1
i = 2
i = 3
i = 4
i = 5
i = 6
i = 7
i = 8
i = 9
i = 10
i = 11
i = 12
i = 13
i = 14
i = 15
$GNGGA,000000.000,,,,,0,00,,,M,,,,0000*2B
$GNRMC,000000.000,A,,,,,,,060180,,*29
$GPGSA,A,1,,,,,,,,,,,,,,,*1E
$BDGSA,A,1,,,,,,,,,,,,,,,*0F
$GLGSA,A,1,,,,,,,,,,,,,,,*02
$GPGSV,3,1,09,03,00,000,39,08,00,000,40,09,00,000,40,14,00,000,38*74
$GPGSV,3,2,09,16,00,000,45,23,00,000,39,26,00,000,35,27,00,000,34*7C
$GPGSV,3,3,09,31,00,000,29*49
$BDGSV,1,1,04,01,00,000,35,03,00,000,42,06,00,000,23,07,00,000,23*6F
$B3CN0,0,0,0,0,0,0,0,0,0,0,0,0,0,0*4C
tow update,266702124.656117
$ini_pos,lastpos_good = 1,ini_pos.x:-1578917.000000,ini_pos.y:5312771.000000,ini_pos.z:3146356.000000
$rtc_local_time,localRTC.weeks:2052,localRTC.seconds:266701.026013,localGtime.weeks:2052,localGtime.seconds:266702.124656
i = 0
i = 1
i = 2
i = 3
i = 4
i = 5
i = 6
i = 7
i = 8
i = 9
i = 10
i = 11
i = 12
i = 13
i = 14
i = 15
i = 16
i = 17
$GNGGA,020443.992,2944.9058,N,10633.0880,E,1,10,0.9,333.0,M,,,,0000*11
$GNRMC,020443.992,A,2944.9058,N,10633.0880,E,0.35,0.00,080519,,*15
$GPGSA,A,3,03,08,09,14,16,23,26,27,31,,,,1.8,0.9,1.6*37
$BDGSA,A,3,04,,,,,,,,,,,,1.8,0.9,1.6*20
$GLGSA,A,3,,,,,,,,,,,,,1.8,0.9,1.6*29
$GPGSV,3,1,09,03,00,000,39,08,00,000,41,09,00,000,41,14,00,000,37*7B
$GPGSV,3,2,09,16,00,000,44,23,00,000,44,26,00,000,44,27,00,000,43*71
$GPGSV,3,3,09,31,00,000,43*45
$BDGSV,2,1,07,01,00,000,35,03,00,000,45,04,00,000,41,06,00,000,42*68
$BDGSV,2,2,07,07,00,000,45,09,00,000,43,16,00,000,23*51
$B3CN0,0,0,0,0,0,0,0,0,0,0,0,0,0,0*4C
$ini_pos,lastpos_good = 1,ini_pos.x:-1578909.755486,ini_pos.y:5312780.849084,ini_pos.z:3146357.889658
$rtc_local_time,localRTC.weeks:2052,localRTC.seconds:266702.033791,localGtime.weeks:2052,localGtime.seconds:266703.000000
i = 0
i = 1
i = 2
i = 3
i = 4
i = 5
i = 6
i = 7
i = 8
i = 9
i = 10
i = 11
i = 12
i = 13
i = 14
i = 15
i = 16
i = 17
i = 18
i = 19
i = 20
Refix G03: 2, 266702.920837, 1232
Refix G08: 2, 266702.922753, -4742
Refix G09: 2, 266702.921192, -4321
Refix G14: 2, 266702.920008, 2366
Refix G16: 2, 266702.932433, -96
Refix G23: 2, 266702.928738, -3042
Refix G26: 2, 266702.928083, 1125
Refix G27: 2, 266702.929446, -3562
Refix G31: 2, 266702.922097, 785
$GNGGA,020445.000,2944.9063,N,10633.0920,E,1,12,0.8,324.0,M,,,,0000*13
$GNRMC,020445.000,A,2944.9063,N,10633.0920,E,0.13,0.00,080519,,*16
$GPGSA,A,3,03,08,09,14,16,23,26,27,31,,,,1.1,0.8,0.8*30
$BDGSA,A,3,01,03,04,,,,,,,,,,1.1,0.8,0.8*25
$GLGSA,A,3,,,,,,,,,,,,,1.1,0.8,0.8*2E
$GPGSV,3,1,09,03,00,000,39,08,00,000,41,09,00,000,41,14,00,000,37*7B
$GPGSV,3,2,09,16,00,000,44,23,00,000,43,26,00,000,44,27,00,000,44*71
$GPGSV,3,3,09,31,00,000,42*44
$BDGSV,3,1,11,01,00,000,39,03,00,000,45,04,00,000,40,06,00,000,42*63
$BDGSV,3,2,11,07,00,000,43,09,00,000,43,16,00,000,42,19,00,000,42*68
$BDGSV,3,3,11,23,00,000,43,27,00,000,37,28,00,000,38*5E
$B3CN0,19,0,0,0,0,0,0,0,0,0,0,0,0,0*74
$ini_pos,lastpos_good = 1,ini_pos.x:-1578913.628970,ini_pos.y:5312771.115943,ini_pos.z:3146354.297021
$rtc_local_time,localRTC.weeks:2052,localRTC.seconds:266703.033791,localGtime.weeks:2052,localGtime.seconds:266704.000000
i = 0
i = 1
i = 2
i = 3
i = 4
i = 5
i = 6
i = 7
i = 8
i = 9
i = 10
i = 11
i = 12
i = 13
i = 14
i = 15
i = 16
i = 17
i = 18
i = 19
i = 20
i = 21
Refix G03: 2, 266703.920836, 1228
Refix G08: 2, 266703.922756, -4746
Refix G09: 2, 266703.921195, -4323
Refix G14: 2, 266703.920007, 2363
Refix G16: 2, 266703.932433, -100
Refix G23: 2, 266703.928740, -3046
Refix G26: 2, 266703.928083, 1121
Refix G27: 2, 266703.929448, -3567
Refix G31: 2, 266703.922097, 782
$GNGGA,020446.000,2944.9061,N,10633.0916,E,1,20,0.6,326.0,M,,,,0000*1A
$GNRMC,020446.000,A,2944.9061,N,10633.0916,E,0.31,0.00,080519,,*12
$GPGSA,A,3,03,08,09,14,16,23,26,27,31,,,,0.8,0.6,0.5*3B
$BDGSA,A,3,01,03,04,06,07,09,16,19,23,27,28,,0.8,0.6,0.5*27
$GLGSA,A,3,,,,,,,,,,,,,0.8,0.6,0.5*25
$GPGSV,3,1,09,03,19,233,40,08,24,188,41,09,19,318,41,14,14,146,37*7C
$GPGSV,3,2,09,16,69,351,44,23,52,304,44,26,45,034,44,27,51,158,44*70
$GPGSV,3,3,09,31,25,087,41*4F
$BDGSV,3,1,12,01,40,125,40,03,54,172,43,04,23,110,41,06,46,165,41*6C
$BDGSV,3,2,12,07,67,005,43,09,72,203,43,16,52,172,43,19,19,303,42*61
$BDGSV,3,3,12,23,24,071,42,27,27,163,42,28,41,099,43,02,45,218,00*6E
$B3CN0,0,0,0,0,0,0,0,0,0,0,0,0,0,0*4C
$ini_pos,lastpos_good = 1,ini_pos.x:-1578913.518678,ini_pos.y:5312773.098140,ini_pos.z:3146354.905626
$rtc_local_time,localRTC.weeks:2052,localRTC.seconds:266704.033791,localGtime.weeks:2052,localGtime.seconds:266705.000000
i = 0
i = 1
i = 2
i = 3
i = 4
i = 5
i = 6
i = 7
i = 8
i = 9
i = 10
i = 11
i = 12
i = 13
i = 14
i = 15
i = 16
i = 17
i = 18
i = 19
i = 20
i = 21
i = 22
i = 23
i = 24
i = 25
i = 26
i = 27
Refix G03: 2, 266704.920835, 1232
Refix G08: 2, 266704.922759, -4742
Refix G09: 2, 266704.921198, -4321
Refix G14: 2, 266704.920005, 2367
Refix G16: 2, 266704.932433, -96
Refix G23: 2, 266704.928742, -3042
Refix G26: 2, 266704.928082, 1125
Refix G27: 2, 266704.929450, -3562
Refix G31: 2, 266704.922096, 785
$GNGGA,020447.000,2944.9060,N,10633.0916,E,1,20,0.6,325.9,M,,,,0000*10
$GNRMC,020447.000,A,2944.9060,N,10633.0916,E,0.16,0.00,080519,,*17
$GPGSA,A,3,03,08,09,14,16,23,26,27,31,,,,0.8,0.6,0.5*3B
$BDGSA,A,3,01,03,04,06,07,09,16,19,23,27,28,,0.8,0.6,0.5*27
$GLGSA,A,3,,,,,,,,,,,,,0.8,0.6,0.5*25
$GPGSV,3,1,09,03,19,233,40,08,24,188,41,09,19,318,41,14,14,146,37*7C
$GPGSV,3,2,09,16,69,351,44,23,52,304,44,26,45,034,44,27,51,158,43*77
$GPGSV,3,3,09,31,25,087,41*4F
$BDGSV,3,1,12,01,40,125,39,03,54,172,43,04,23,110,40,06,46,165,41*63
$BDGSV,3,2,12,07,67,005,43,09,72,203,43,16,52,172,43,19,19,303,42*61
$BDGSV,3,3,12,23,24,071,42,27,27,163,42,28,41,099,44,02,45,218,00*69
$B3CN0,0,0,0,0,0,0,0,0,0,0,0,0,0,0*4C
$ini_pos,lastpos_good = 1,ini_pos.x:-1578913.512974,ini_pos.y:5312773.208660,ini_pos.z:3146354.644098
$rtc_local_time,localRTC.weeks:2052,localRTC.seconds:266705.033791,localGtime.weeks:2052,localGtime.seconds:266706.000000
i = 0
i = 1
i = 2
i = 3
i = 4
i = 5
i = 6
i = 7
i = 8
i = 9
i = 10
i = 11
i = 12
i = 13
i = 14
i = 15
i = 16
i = 17
i = 18
i = 19
i = 20
i = 21
i = 22
i = 23
i = 24
i = 25
i = 26
i = 27
Refix G03: 2, 266705.920834, 1229
Refix G08: 2, 266705.922762, -4745
Refix G09: 2, 266705.921201, -4323
Refix G14: 2, 266705.920003, 2364
Refix G16: 2, 266705.932433, -98
Refix G23: 2, 266705.928743, -3044
Refix G26: 2, 266705.928081, 1122
Refix G27: 2, 266705.929452, -3565
Refix G31: 2, 266705.922096, 782
$GNGGA,020448.000,2944.9059,N,10633.0916,E,1,20,0.6,325.5,M,,,,0000*19
$GNRMC,020448.000,A,2944.9059,N,10633.0916,E,0.06,0.00,080519,,*13
$GPGSA,A,3,03,08,09,14,16,23,26,27,31,,,,0.8,0.6,0.5*3B
$BDGSA,A,3,01,03,04,06,07,09,16,19,23,27,28,,0.8,0.6,0.5*27
$GLGSA,A,3,,,,,,,,,,,,,0.8,0.6,0.5*25
$GPGSV,3,1,09,03,19,233,40,08,24,188,41,09,19,318,41,14,14,146,37*7C
$GPGSV,3,2,09,16,69,351,44,23,52,304,44,26,45,034,44,27,51,158,44*70
$GPGSV,3,3,09,31,25,087,41*4F
$BDGSV,3,1,12,01,40,125,40,03,54,172,43,04,23,110,40,06,46,165,41*6D
$BDGSV,3,2,12,07,67,005,43,09,72,203,43,16,52,172,42,19,19,303,42*60
$BDGSV,3,3,12,23,24,071,42,27,27,163,42,28,41,099,43,02,45,218,00*6E
$B3CN0,0,0,0,0,0,0,0,0,0,0,0,0,0,0*4C
$ini_pos,lastpos_good = 1,ini_pos.x:-1578913.516497,ini_pos.y:5312772.887342,ini_pos.z:3146354.257590
$rtc_local_time,localRTC.weeks:2052,localRTC.seconds:266706.033790,localGtime.weeks:2052,localGtime.seconds:266707.000000
i = 0
i = 1
i = 2
i = 3
i = 4
i = 5
i = 6
i = 7
i = 8
i = 9
i = 10
i = 11
i = 12
i = 13
i = 14
i = 15
i = 16
i = 17
i = 18
i = 19
i = 20
i = 21
i = 22
i = 23
i = 24
i = 25
i = 26
i = 27
i = 28
Refix G03: 2, 266706.920833, 1229
Refix G08: 2, 266706.922765, -4745
Refix G09: 2, 266706.921203, -4323
Refix G14: 2, 266706.920002, 2363
Refix G16: 2, 266706.932433, -99
Refix G23: 2, 266706.928745, -3044
Refix G26: 2, 266706.928080, 1121
Refix G27: 2, 266706.929454, -3565
Refix G31: 2, 266706.922095, 781
$GNGGA,020449.000,2944.9057,N,10633.0917,E,1,20,0.6,325.3,M,,,,0000*11
$GNRMC,020449.000,A,2944.9057,N,10633.0917,E,0.16,0.00,080519,,*1C
$GPGSA,A,3,03,08,09,14,16,23,26,27,31,,,,0.8,0.6,0.5*3B
$BDGSA,A,3,01,03,04,06,07,09,16,19,23,27,28,,0.8,0.6,0.5*27
$GLGSA,A,3,,,,,,,,,,,,,0.8,0.6,0.5*25
$GPGSV,3,1,09,03,19,233,40,08,24,188,40,09,19,318,41,14,14,146,37*7D
$GPGSV,3,2,09,16,69,351,44,23,52,304,44,26,45,034,43,27,51,158,44*77
$GPGSV,3,3,09,31,25,087,41*4F
$BDGSV,3,1,12,01,40,125,40,10,63,294,21,03,54,172,42,04,23,110,41*66
$BDGSV,3,2,12,06,46,165,41,07,67,005,43,09,72,203,43,16,52,172,42*65
$BDGSV,3,3,12,19,19,303,42,23,24,071,42,27,27,163,42,28,41,099,43*60
$B3CN0,0,0,0,0,0,0,0,0,0,0,0,0,0,0*4C
$ini_pos,lastpos_good = 1,ini_pos.x:-1578913.581659,ini_pos.y:5312772.798327,ini_pos.z:3146353.990716
$rtc_local_time,localRTC.weeks:2052,localRTC.seconds:266707.033790,localGtime.weeks:2052,localGtime.seconds:266708.000000
i = 0
i = 1
i = 2
i = 3
i = 4
i = 5
i = 6
i = 7
i = 8
i = 9
i = 10
i = 11
i = 12
i = 13
i = 14
i = 15
i = 16
i = 17
i = 18
i = 19
i = 20
i = 21
i = 22
i = 23
i = 24
i = 25
i = 26
i = 27
i = 28
Refix G03: 2, 266707.920833, 1235
Refix G08: 2, 266707.922768, -4739
Refix G09: 2, 266707.921206, -4318
Refix G14: 2, 266707.920000, 2370
Refix G16: 2, 266707.932433, -92
Refix G23: 2, 266707.928747, -3038
Refix G26: 2, 266707.928080, 1127
Refix G27: 2, 266707.929457, -3558
Refix G31: 2, 266707.922095, 788
$GNGGA,020450.000,2944.9057,N,10633.0917,E,1,20,0.6,325.1,M,,,,0000*1B
$GNRMC,020450.000,A,2944.9057,N,10633.0917,E,0.24,0.00,080519,,*15
$GPGSA,A,3,03,08,09,14,16,23,26,27,31,,,,0.8,0.6,0.5*3B
$BDGSA,A,3,01,03,04,06,07,09,16,19,23,27,28,,0.8,0.6,0.5*27
$GLGSA,A,3,,,,,,,,,,,,,0.8,0.6,0.5*25
$GPGSV,3,1,09,03,19,233,40,08,24,188,41,09,19,318,41,14,14,146,37*7C
$GPGSV,3,2,09,16,69,351,45,23,52,304,44,26,45,034,44,27,51,158,44*71
$GPGSV,3,3,09,31,25,087,42*4C
$BDGSV,3,1,12,01,40,125,40,10,63,294,43,03,54,172,45,04,23,110,41*65
$BDGSV,3,2,12,06,46,165,41,07,67,005,44,09,72,203,43,16,52,172,42*62
$BDGSV,3,3,12,19,19,303,41,23,24,071,42,27,27,163,42,28,41,099,43*63
$B3CN0,0,0,0,0,0,0,0,0,0,0,0,0,0,0*4C
$ini_pos,lastpos_good = 1,ini_pos.x:-1578913.603087,ini_pos.y:5312772.712399,ini_pos.z:3146353.866511
$rtc_local_time,localRTC.weeks:2052,localRTC.seconds:266708.033790,localGtime.weeks:2052,localGtime.seconds:266709.000000
i = 0
i = 1
i = 2
i = 3
i = 4
i = 5
i = 6
i = 7
i = 8
i = 9
i = 10
i = 11
i = 12
i = 13
i = 14
i = 15
i = 16
i = 17
i = 18
i = 19
i = 20
i = 21
i = 22
i = 23
i = 24
i = 25
i = 26
i = 27
i = 28
i = 29
Refix G03: 2, 266708.920832, 1235
Refix G08: 2, 266708.922771, -4738
Refix G09: 2, 266708.921209, -4316
Refix G14: 2, 266708.919999, 2371
Refix G16: 2, 266708.932433, -91
Refix G23: 2, 266708.928749, -3037
Refix G26: 2, 266708.928079, 1129
Refix G27: 2, 266708.929459, -3557
Refix G31: 2, 266708.922094, 789
$GNGGA,020451.000,2944.9057,N,10633.0917,E,1,20,0.6,325.0,M,,,,0000*1B
$GNRMC,020451.000,A,2944.9057,N,10633.0917,E,0.24,0.00,080519,,*14
$GPGSA,A,3,03,08,09,14,16,23,26,27,31,,,,0.8,0.6,0.5*3B
$BDGSA,A,3,01,03,04,06,07,09,16,19,23,27,28,,0.8,0.6,0.5*27
$GLGSA,A,3,,,,,,,,,,,,,0.8,0.6,0.5*25
$GPGSV,3,1,09,03,19,233,40,08,24,188,42,09,19,318,41,14,14,146,37*7F
$GPGSV,3,2,09,16,69,351,45,23,52,304,44,26,45,034,44,27,51,158,45*70
$GPGSV,3,3,09,31,25,087,41*4F
$BDGSV,3,1,12,01,40,125,41,10,63,294,44,03,54,172,43,04,23,110,40*64
$BDGSV,3,2,12,06,46,165,41,07,67,005,43,09,72,203,43,16,52,172,42*65
$BDGSV,3,3,12,19,19,303,42,23,24,071,42,27,27,163,42,28,41,099,43*60
$B3CN0,22,0,0,0,0,0,0,0,0,0,0,0,0,0*7C
$ini_pos,lastpos_good = 1,ini_pos.x:-1578913.544187,ini_pos.y:5312772.594766,ini_pos.z:3146353.768945
$rtc_local_time,localRTC.weeks:2052,localRTC.seconds:266709.033790,localGtime.weeks:2052,localGtime.seconds:266710.000000
i = 0
i = 1
i = 2
i = 3
i = 4
i = 5
i = 6
i = 7
i = 8
i = 9
i = 10
i = 11
i = 12
i = 13
i = 14
i = 15
i = 16
i = 17
i = 18
i = 19
i = 20
i = 21
i = 22
i = 23
i = 24
i = 25
i = 26
i = 27
i = 28
i = 29
Refix G03: 2, 266709.920831, 1230
Refix G08: 2, 266709.922774, -4744
Refix G09: 2, 266709.921211, -4321
Refix G14: 2, 266709.919997, 2365
Refix G16: 2, 266709.932434, -97
Refix G23: 2, 266709.928751, -3042
Refix G26: 2, 266709.928078, 1123
Refix G27: 2, 266709.929461, -3563
Refix G31: 2, 266709.922094, 783
$GNGGA,020452.000,2944.9055,N,10633.0921,E,1,21,0.6,324.0,M,,,,0000*1F
$GNRMC,020452.000,A,2944.9055,N,10633.0921,E,0.17,0.00,080519,,*10
$GPGSA,A,3,03,08,09,14,16,23,26,27,31,,,,0.7,0.6,0.4*35
$BDGSA,A,3,01,03,04,06,07,09,10,16,19,23,27,28,0.7,0.6,0.4*28
$GLGSA,A,3,,,,,,,,,,,,,0.7,0.6,0.4*2B
$GPGSV,3,1,09,03,19,233,40,08,24,188,41,09,19,318,41,14,14,146,37*7C
$GPGSV,3,2,09,16,69,351,44,23,52,304,44,26,45,034,44,27,51,158,44*70
$GPGSV,3,3,09,31,25,087,42*4C
$BDGSV,3,1,12,01,40,125,41,10,63,294,43,03,54,172,43,04,23,110,41*62
$BDGSV,3,2,12,32,18,191,29,06,46,165,42,07,67,005,43,09,72,203,43*6E
$BDGSV,3,3,12,16,52,172,43,19,19,303,42,23,24,071,41,27,27,163,42*68
$B3CN0,0,0,0,0,0,0,0,0,0,0,0,0,0,0*4C
$ini_pos,lastpos_good = 1,ini_pos.x:-1578913.945486,ini_pos.y:5312771.737615,ini_pos.z:3146352.976390
$rtc_local_time,localRTC.weeks:2052,localRTC.seconds:266710.033790,localGtime.weeks:2052,localGtime.seconds:266711.000000
i = 0
i = 1
i = 2
i = 3
i = 4
i = 5
i = 6
i = 7
i = 8
i = 9
i = 10
i = 11
i = 12
i = 13
i = 14
i = 15
i = 16
i = 17
i = 18
i = 19
i = 20
i = 21
i = 22
i = 23
i = 24
i = 25
i = 26
i = 27
i = 28
i = 29
Refix G03: 2, 266710.920830, 1232
Refix G08: 2, 266710.922777, -4742
Refix G09: 2, 266710.921214, -4320
Refix G14: 2, 266710.919996, 2367
Refix G16: 2, 266710.932434, -94
Refix G23: 2, 266710.928753, -3039
Refix G26: 2, 266710.928077, 1125
Refix G27: 2, 266710.929463, -3560
Refix G31: 2, 266710.922093, 785
$GNGGA,020453.000,2944.9055,N,10633.0923,E,1,21,0.6,323.9,M,,,,0000*12
$GNRMC,020453.000,A,2944.9055,N,10633.0923,E,0.12,0.00,080519,,*16
$GPGSA,A,3,03,08,09,14,16,23,26,27,31,,,,0.7,0.6,0.4*35
$BDGSA,A,3,01,03,04,06,07,09,10,16,19,23,27,28,0.7,0.6,0.4*28
$GLGSA,A,3,,,,,,,,,,,,,0.7,0.6,0.4*2B
$GPGSV,3,1,09,03,19,233,39,08,24,188,41,09,19,318,40,14,14,146,38*7C
$GPGSV,3,2,09,16,69,351,44,23,52,304,44,26,45,034,45,27,51,158,44*71
$GPGSV,3,3,09,31,25,087,42*4C
$BDGSV,3,1,12,01,40,125,41,10,63,294,43,03,54,172,43,04,23,110,42*61
$BDGSV,3,2,12,32,18,191,43,06,46,165,42,07,67,005,44,09,72,203,43*65
$BDGSV,3,3,12,16,52,172,43,19,19,303,42,23,24,071,42,27,27,163,42*6B
$B3CN0,0,0,0,0,0,0,0,0,0,0,0,0,0,0*4C
$ini_pos,lastpos_good = 1,ini_pos.x:-1578914.335281,ini_pos.y:5312771.626347,ini_pos.z:3146352.873517
$rtc_local_time,localRTC.weeks:2052,localRTC.seconds:266711.033790,localGtime.weeks:2052,localGtime.seconds:266712.000000
i = 0
i = 1
i = 2
i = 3
i = 4
i = 5
i = 6
i = 7
i = 8
i = 9
i = 10
i = 11
i = 12
i = 13
i = 14
i = 15
i = 16
i = 17
i = 18
i = 19
i = 20
i = 21
i = 22
i = 23
i = 24
i = 25
i = 26
i = 27
i = 28
i = 29
Refix G03: 2, 266711.920829, 1232
Refix G08: 2, 266711.922780, -4741
Refix G09: 2, 266711.921217, -4319
Refix G14: 2, 266711.919994, 2367
Refix G16: 2, 266711.932434, -93
Refix G23: 2, 266711.928755, -3038
Refix G26: 2, 266711.928077, 1125
Refix G27: 2, 266711.929466, -3559
Refix G31: 2, 266711.922093, 785
$GNGGA,020454.000,2944.9055,N,10633.0924,E,1,21,0.6,323.8,M,,,,0000*13
$GNRMC,020454.000,A,2944.9055,N,10633.0924,E,0.09,0.00,080519,,*1C
$GPGSA,A,3,03,08,09,14,16,23,26,27,31,,,,0.7,0.6,0.4*35
$BDGSA,A,3,01,03,04,06,07,09,10,16,19,23,27,28,0.7,0.6,0.4*28
$GLGSA,A,3,,,,,,,,,,,,,0.7,0.6,0.4*2B
$GPGSV,3,1,09,03,19,233,40,08,24,188,41,09,19,318,41,14,14,146,38*73
$GPGSV,3,2,09,16,69,351,44,23,52,304,44,26,45,034,44,27,51,158,44*70
$GPGSV,3,3,09,31,25,087,42*4C
$BDGSV,3,1,12,01,40,125,41,10,63,294,43,03,54,172,43,04,23,110,41*62
$BDGSV,3,2,12,32,18,191,43,06,46,165,42,07,67,005,43,09,72,203,43*62
$BDGSV,3,3,12,16,52,172,43,19,19,303,42,23,24,071,42,27,27,163,42*6B
$B3CN0,0,0,0,0,0,0,0,0,0,0,0,0,0,0*4C
$ini_pos,lastpos_good = 1,ini_pos.x:-1578914.458578,ini_pos.y:5312771.484185,ini_pos.z:3146352.793074
$rtc_local_time,localRTC.weeks:2052,localRTC.seconds:266712.033790,localGtime.weeks:2052,localGtime.seconds:266713.000000
i = 0
i = 1
i = 2
i = 3
i = 4
i = 5
i = 6
i = 7
i = 8
i = 9
i = 10
i = 11
i = 12
i = 13
i = 14
i = 15
i = 16
i = 17
i = 18
i = 19
i = 20
i = 21
i = 22
i = 23
i = 24
i = 25
i = 26
i = 27
i = 28
i = 29
i = 30
Refix G03: 2, 266712.920828, 1237
Refix G08: 2, 266712.922783, -4736
Refix G09: 2, 266712.921219, -4314
Refix G14: 2, 266712.919993, 2372
Refix G16: 2, 266712.932434, -87
Refix G23: 2, 266712.928757, -3032
Refix G26: 2, 266712.928076, 1131
Refix G27: 2, 266712.929468, -3553
Refix G31: 2, 266712.922092, 790
$GNGGA,020455.000,2944.9055,N,10633.0925,E,1,21,0.6,323.7,M,,,,0000*1C
$GNRMC,020455.000,A,2944.9055,N,10633.0925,E,0.05,0.00,080519,,*10
$GPGSA,A,3,03,08,09,14,16,23,26,27,31,,,,0.7,0.6,0.4*35
$BDGSA,A,3,01,03,04,06,07,09,10,16,19,23,27,28,0.7,0.6,0.4*28
$GLGSA,A,3,,,,,,,,,,,,,0.7,0.6,0.4*2B
$GPGSV,3,1,09,03,19,233,40,08,24,188,41,09,19,318,41,14,14,146,37*7C
$GPGSV,3,2,09,16,69,351,44,23,52,304,44,26,45,034,44,27,51,158,44*70
$GPGSV,3,3,09,31,25,087,42*4C
$BDGSV,3,1,12,01,40,125,40,10,63,294,43,03,54,172,42,04,23,110,41*62
$BDGSV,3,2,12,32,18,191,42,06,46,165,42,07,67,005,44,09,72,203,43*64
$BDGSV,3,3,12,02,45,218,32,16,52,172,43,19,19,303,42,23,24,071,42*60
$B3CN0,0,0,0,0,0,0,0,0,0,0,0,0,0,0*4C
$ini_pos,lastpos_good = 1,ini_pos.x:-1578914.513757,ini_pos.y:5312771.367616,ini_pos.z:3146352.754207
$rtc_local_time,localRTC.weeks:2052,localRTC.seconds:266713.033790,localGtime.weeks:2052,localGtime.seconds:266714.000000
i = 0
i = 1
i = 2
i = 3
i = 4
i = 5
i = 6
i = 7
i = 8
i = 9
i = 10
i = 11
i = 12
i = 13
i = 14
i = 15
i = 16
i = 17
i = 18
i = 19
i = 20
i = 21
i = 22
i = 23
i = 24
i = 25
i = 26
i = 27
i = 28
i = 29
i = 30
Refix G03: 2, 266713.920828, 1233
Refix G08: 2, 266713.922786, -4741
Refix G09: 2, 266713.921222, -4318
Refix G14: 2, 266713.919991, 2368
Refix G16: 2, 266713.932434, -91
Refix G23: 2, 266713.928759, -3037
Refix G26: 2, 266713.928075, 1127
Refix G27: 2, 266713.929470, -3558
Refix G31: 2, 266713.922092, 787
$GNGGA,020456.000,2944.9055,N,10633.0925,E,1,21,0.6,323.5,M,,,,0000*1D
$GNRMC,020456.000,A,2944.9055,N,10633.0925,E,0.30,0.00,080519,,*15
$GPGSA,A,3,03,08,09,14,16,23,26,27,31,,,,0.7,0.6,0.4*35
$BDGSA,A,3,01,03,04,06,07,09,10,16,19,23,27,28,0.7,0.6,0.4*28
$GLGSA,A,3,,,,,,,,,,,,,0.7,0.6,0.4*2B
$GPGSV,3,1,09,03,19,233,40,08,24,188,41,09,19,318,41,14,14,146,38*73
$GPGSV,3,2,09,16,69,351,44,23,52,304,44,26,45,034,44,27,51,158,44*70
$GPGSV,3,3,09,31,25,087,42*4C
$BDGSV,3,1,12,01,40,125,41,10,63,294,43,03,54,172,43,04,23,110,41*62
$BDGSV,3,2,12,32,18,191,42,06,46,165,41,07,67,005,44,09,72,203,43*67
$BDGSV,3,3,12,02,45,218,38,16,52,172,43,19,19,303,42,23,24,071,42*6A
$B3CN0,0,0,0,0,0,0,0,0,0,0,0,0,0,0*4C
$ini_pos,lastpos_good = 1,ini_pos.x:-1578914.457903,ini_pos.y:5312771.226675,ini_pos.z:3146352.714557
$rtc_local_time,localRTC.weeks:2052,localRTC.seconds:266714.033790,localGtime.weeks:2052,localGtime.seconds:266715.000000
i = 0
i = 1
i = 2
i = 3
i = 4
i = 5
i = 6
i = 7
i = 8
i = 9
i = 10
i = 11
i = 12
i = 13
i = 14
i = 15
i = 16
i = 17
i = 18
i = 19
i = 20
i = 21
i = 22
i = 23
i = 24
i = 25
i = 26
i = 27
i = 28
i = 29
i = 30
Refix G03: 2, 266714.920827, 1230
Refix G08: 2, 266714.922789, -4744
Refix G09: 2, 266714.921225, -4321
Refix G14: 2, 266714.919990, 2365
Refix G16: 2, 266714.932434, -95
Refix G23: 2, 266714.928760, -3040
Refix G26: 2, 266714.928074, 1123
Refix G27: 2, 266714.929472, -3560
Refix G31: 2, 266714.922091, 783
$GNGGA,020457.000,2944.9056,N,10633.0926,E,1,22,0.6,323.6,M,,,,0000*1C
$GNRMC,020457.000,A,2944.9056,N,10633.0926,E,0.17,0.00,080519,,*11
$GPGSA,A,3,03,08,09,14,16,23,26,27,31,,,,0.7,0.6,0.4*35
$BDGSA,A,3,01,02,03,04,06,07,09,10,16,19,23,27,0.7,0.6,0.4*20
$GLGSA,A,3,,,,,,,,,,,,,0.7,0.6,0.4*2B
$GPGSV,3,1,09,03,19,233,41,08,24,188,41,09,19,318,41,14,14,146,37*7D
$GPGSV,3,2,09,16,69,351,44,23,52,304,44,26,45,034,44,27,51,158,44*70
$GPGSV,3,3,09,31,25,087,41*4F
$BDGSV,3,1,12,01,40,125,41,10,63,294,43,03,54,172,43,04,23,110,41*62
$BDGSV,3,2,12,32,18,191,42,06,46,165,42,07,67,005,43,09,72,203,43*63
$BDGSV,3,3,12,02,45,218,39,16,52,172,43,19,19,303,42,23,24,071,42*6B
$B3CN0,17,0,0,0,0,0,0,0,0,0,0,0,0,0*7A
$ini_pos,lastpos_good = 1,ini_pos.x:-1578914.638995,ini_pos.y:5312771.095090,ini_pos.z:3146352.875951
$rtc_local_time,localRTC.weeks:2052,localRTC.seconds:266715.033790,localGtime.weeks:2052,localGtime.seconds:266716.000000
i = 0
i = 1
i = 2
i = 3
i = 4
i = 5
i = 6
i = 7
i = 8
i = 9
i = 10
i = 11
i = 12
i = 13
i = 14
i = 15
i = 16
i = 17
i = 18
i = 19
i = 20
i = 21
i = 22
i = 23
i = 24
i = 25
i = 26
i = 27
i = 28
i = 29
i = 30
i = 31
Refix G03: 2, 266715.920826, 1236
Refix G08: 2, 266715.922792, -4738
Refix G09: 2, 266715.921228, -4316
Refix G14: 2, 266715.919988, 2371
Refix G16: 2, 266715.932434, -89
Refix G23: 2, 266715.928762, -3034
Refix G26: 2, 266715.928074, 1129
Refix G27: 2, 266715.929475, -3554
Refix G31: 2, 266715.922091, 789
$GNGGA,020458.000,2944.9058,N,10633.0928,E,1,23,0.6,323.9,M,,,,0000*1D
$GNRMC,020458.000,A,2944.9058,N,10633.0928,E,0.08,0.00,080519,,*10
$GPGSA,A,3,03,08,09,14,16,23,26,27,31,,,,0.7,0.6,0.4*35
$BDGSA,A,3,01,02,03,04,06,07,09,10,16,19,23,27,0.7,0.6,0.4*20
$GLGSA,A,3,,,,,,,,,,,,,0.7,0.6,0.4*2B
$GPGSV,3,1,09,03,19,233,40,08,24,188,42,09,19,318,41,14,14,146,37*7F
$GPGSV,3,2,09,16,69,351,44,23,52,304,44,26,45,034,45,27,51,158,44*71
$GPGSV,3,3,09,31,25,087,41*4F
$BDGSV,3,1,12,01,40,125,41,10,63,294,43,03,54,172,43,04,23,110,41*62
$BDGSV,3,2,12,32,18,191,43,06,46,165,42,07,67,005,43,09,72,203,43*62
$BDGSV,3,3,12,02,45,218,41,16,52,172,43,19,19,303,42,23,24,071,42*64
$B3CN0,0,0,0,0,0,0,0,0,22,0,0,0,0,0*7C
$ini_pos,lastpos_good = 1,ini_pos.x:-1578914.973520,ini_pos.y:5312771.125608,ini_pos.z:3146353.368500
$rtc_local_time,localRTC.weeks:2052,localRTC.seconds:266716.033790,localGtime.weeks:2052,localGtime.seconds:266717.000000
i = 0
i = 1
i = 2
i = 3
i = 4
i = 5
i = 6
i = 7
i = 8
i = 9
i = 10
i = 11
i = 12
i = 13
i = 14
i = 15
i = 16
i = 17
i = 18
i = 19
i = 20
i = 21
i = 22
i = 23
i = 24
i = 25
i = 26
i = 27
i = 28
i = 29
i = 30
i = 31
Refix G03: 2, 266716.920825, 1233
Refix G08: 2, 266716.922795, -4740
Refix G09: 2, 266716.921230, -4318
Refix G14: 2, 266716.919987, 2368
Refix G16: 2, 266716.932434, -91
Refix G23: 2, 266716.928764, -3036
Refix G26: 2, 266716.928073, 1126
Refix G27: 2, 266716.929477, -3556
Refix G31: 2, 266716.922090, 786
$GNGGA,020459.000,2944.9059,N,10633.0929,E,1,23,0.6,323.9,M,,,,0000*1C
$GNRMC,020459.000,A,2944.9059,N,10633.0929,E,0.08,0.00,080519,,*11
$GPGSA,A,3,03,08,09,14,16,23,26,27,31,,,,0.7,0.6,0.4*35
$BDGSA,A,3,01,02,03,04,06,07,09,10,16,19,23,27,0.7,0.6,0.4*20
$GLGSA,A,3,,,,,,,,,,,,,0.7,0.6,0.4*2B
$GPGSV,3,1,09,03,19,233,40,08,24,188,41,09,19,318,42,14,14,146,36*7E
$GPGSV,3,2,09,16,69,351,44,23,52,304,44,26,45,034,44,27,51,158,44*70
$GPGSV,3,3,09,31,25,087,42*4C
$BDGSV,3,1,12,01,40,125,41,10,63,294,44,03,54,172,43,04,23,110,41*65
$BDGSV,3,2,12,32,18,191,42,06,46,165,42,07,67,005,43,09,72,203,43*63
$BDGSV,3,3,12,02,45,218,41,16,52,172,42,19,19,303,42,23,24,071,42*65
$B3CN0,0,0,0,0,0,0,0,0,22,0,0,0,0,0*7C
$ini_pos,lastpos_good = 1,ini_pos.x:-1578915.020832,ini_pos.y:5312771.031065,ini_pos.z:3146353.566471
$rtc_local_time,localRTC.weeks:2052,localRTC.seconds:266717.033790,localGtime.weeks:2052,localGtime.seconds:266717.999999
i = 0
i = 1
i = 2
i = 3
i = 4
i = 5
i = 6
i = 7
i = 8
i = 9
i = 10
i = 11
i = 12
i = 13
i = 14
i = 15
i = 16
i = 17
i = 18
i = 19
i = 20
i = 21
i = 22
i = 23
i = 24
i = 25
i = 26
i = 27
i = 28
i = 29
i = 30
i = 31
Refix G03: 2, 266717.920824, 1228
Refix G08: 2, 266717.922798, -4745
Refix G09: 2, 266717.921233, -4323
Refix G14: 2, 266717.919985, 2364
Refix G16: 2, 266717.932434, -96
Refix G23: 2, 266717.928766, -3041
Refix G26: 2, 266717.928072, 1122
Refix G27: 2, 266717.929479, -3561
Refix G31: 2, 266717.922089, 782
$GNGGA,020500.000,2944.9059,N,10633.0928,E,1,23,0.6,323.9,M,,,,0000*10
$GNRMC,020500.000,A,2944.9059,N,10633.0928,E,0.27,0.00,080519,,*10
$GPGSA,A,3,03,08,09,14,16,23,26,27,31,,,,0.7,0.6,0.4*35
$BDGSA,A,3,01,02,03,04,06,07,09,10,16,19,23,27,0.7,0.6,0.4*20
$GLGSA,A,3,,,,,,,,,,,,,0.7,0.6,0.4*2B
$GPGSV,3,1,09,03,19,233,40,08,24,188,41,09,19,318,42,14,14,146,37*7F
$GPGSV,3,2,09,16,69,351,44,23,52,304,44,26,45,034,44,27,51,158,44*70
$GPGSV,3,3,09,31,25,087,42*4C
$BDGSV,3,1,12,01,40,125,41,10,63,294,43,03,54,172,43,04,23,110,40*63
$BDGSV,3,2,12,32,18,191,42,06,46,165,42,07,67,005,43,09,72,203,43*63
$BDGSV,3,3,12,02,45,218,40,16,52,172,42,19,19,303,42,23,24,071,42*64
$B3CN0,18,0,0,0,0,0,0,0,0,0,0,0,0,0*75
$ini_pos,lastpos_good = 1,ini_pos.x:-1578914.847602,ini_pos.y:5312771.019108,ini_pos.z:3146353.652971
$rtc_local_time,localRTC.weeks:2052,localRTC.seconds:266718.033790,localGtime.weeks:2052,localGtime.seconds:266718.999999
i = 0
i = 1
i = 2
i = 3
i = 4
i = 5
i = 6
i = 7
i = 8
i = 9
i = 10
i = 11
i = 12
i = 13
i = 14
i = 15
i = 16
i = 17
i = 18
i = 19
i = 20
i = 21
i = 22
i = 23
i = 24
i = 25
i = 26
i = 27
i = 28
i = 29
i = 30
Refix G03: 2, 266718.920824, 1230
Refix G08: 2, 266718.922801, -4743
Refix G09: 2, 266718.921236, -4321
Refix G14: 2, 266718.919984, 2366
Refix G16: 2, 266718.932434, -93
Refix G23: 2, 266718.928768, -3038
Refix G26: 2, 266718.928071, 1123
Refix G27: 2, 266718.929481, -3558
Refix G31: 2, 266718.922089, 783
$GNGGA,020501.000,2944.9060,N,10633.0927,E,1,23,0.6,324.1,M,,,,0000*1B
$GNRMC,020501.000,A,2944.9060,N,10633.0927,E,0.13,0.00,080519,,*13
$GPGSA,A,3,03,08,09,14,16,23,26,27,31,,,,0.7,0.6,0.4*35
$BDGSA,A,3,01,02,03,04,06,07,09,10,16,19,23,27,0.7,0.6,0.4*20
$GLGSA,A,3,,,,,,,,,,,,,0.7,0.6,0.4*2B
$GPGSV,3,1,09,03,19,233,39,08,25,188,41,09,19,318,42,14,14,146,36*71
$GPGSV,3,2,09,16,69,352,44,23,52,304,44,26,45,035,44,27,51,158,44*72
$GPGSV,3,3,09,31,25,087,41*4F
$BDGSV,3,1,12,01,40,125,40,10,63,294,43,03,54,172,43,04,23,109,41*6B
$BDGSV,3,2,12,32,18,191,42,06,46,165,42,07,67,005,43,09,72,203,43*63
$BDGSV,3,3,12,02,45,218,41,16,52,172,42,19,19,303,42,23,24,071,41*66
$B3CN0,36,0,0,0,0,0,0,0,0,0,0,0,0,0*79
$ini_pos,lastpos_good = 1,ini_pos.x:-1578914.746135,ini_pos.y:5312771.155867,ini_pos.z:3146353.850432
$rtc_local_time,localRTC.weeks:2052,localRTC.seconds:266719.033790,localGtime.weeks:2052,localGtime.seconds:266719.999999
i = 0
i = 1
i = 2
i = 3
i = 4
i = 5
i = 6
i = 7
i = 8
i = 9
i = 10
i = 11
i = 12
i = 13
i = 14
i = 15
i = 16
i = 17
i = 18
i = 19
i = 20
i = 21
i = 22
i = 23
i = 24
i = 25
i = 26
i = 27
i = 28
i = 29
i = 30
Refix G03: 2, 266719.920823, 1240
Refix G08: 2, 266719.922804, -4733
Refix G09: 2, 266719.921238, -4312
Refix G14: 2, 266719.919982, 2375
Refix G16: 2, 266719.932434, -82
Refix G23: 2, 266719.928770, -3027
Refix G26: 2, 266719.928071, 1133
Refix G27: 2, 266719.929483, -3547
Refix G31: 2, 266719.922088, 793
$GNGGA,020502.000,2944.9061,N,10633.0926,E,1,23,0.6,324.3,M,,,,0000*1A
$GNRMC,020502.000,A,2944.9061,N,10633.0926,E,0.19,0.00,080519,,*1A
$GPGSA,A,3,03,08,09,14,16,23,26,27,31,,,,0.7,0.6,0.4*35
$BDGSA,A,3,01,02,03,04,06,07,09,10,16,19,23,27,0.7,0.6,0.4*20
$GLGSA,A,3,,,,,,,,,,,,,0.7,0.6,0.4*2B
$GPGSV,3,1,09,03,19,233,40,08,25,188,41,09,19,318,41,14,14,146,36*7C
$GPGSV,3,2,09,16,69,352,44,23,52,304,44,26,45,035,44,27,51,158,44*72
$GPGSV,3,3,09,31,25,087,41*4F
$BDGSV,3,1,12,01,40,125,41,10,63,294,44,03,54,172,43,04,23,109,40*6C
$BDGSV,3,2,12,32,18,191,43,06,46,165,42,07,67,005,43,09,72,203,43*62
$BDGSV,3,3,12,02,45,218,40,16,52,172,43,19,19,303,42,23,24,071,42*65
$B3CN0,0,0,0,0,0,0,0,0,0,0,0,0,0,0*4C
$ini_pos,lastpos_good = 1,ini_pos.x:-1578914.740907,ini_pos.y:5312771.283282,ini_pos.z:3146354.035418
$rtc_local_time,localRTC.weeks:2052,localRTC.seconds:266720.033790,localGtime.weeks:2052,localGtime.seconds:266720.999999
i = 0
i = 1
i = 2
i = 3
i = 4
i = 5
i = 6
i = 7
i = 8
i = 9
i = 10
i = 11
i = 12
i = 13
i = 14
i = 15
i = 16
i = 17
i = 18
i = 19
i = 20
i = 21
i = 22
i = 23
i = 24
i = 25
i = 26
i = 27
i = 28
i = 29
i = 30
Refix G03: 2, 266720.920822, 1239
Refix G08: 2, 266720.922807, -4734
Refix G09: 2, 266720.921241, -4312
Refix G14: 2, 266720.919980, 2374
Refix G16: 2, 266720.932434, -83
Refix G23: 2, 266720.928772, -3028
Refix G26: 2, 266720.928070, 1133
Refix G27: 2, 266720.929486, -3548
Refix G31: 2, 266720.922088, 792
$GNGGA,020503.000,2944.9061,N,10633.0926,E,1,23,0.6,324.2,M,,,,0000*1A
$GNRMC,020503.000,A,2944.9061,N,10633.0926,E,0.10,0.00,080519,,*12
$GPGSA,A,3,03,08,09,14,16,23,26,27,31,,,,0.7,0.6,0.4*35
$BDGSA,A,3,01,02,03,04,06,07,09,10,16,19,23,27,0.7,0.6,0.4*20
$GLGSA,A,3,,,,,,,,,,,,,0.7,0.6,0.4*2B
$GPGSV,3,1,09,03,19,233,40,08,25,188,41,09,19,318,41,14,14,146,37*7D
$GPGSV,3,2,09,16,69,352,44,23,52,304,44,26,45,035,44,27,51,158,43*75
$GPGSV,3,3,09,31,25,087,41*4F
$BDGSV,3,1,12,01,40,125,41,10,63,294,43,03,54,172,45,04,23,109,41*6C
$BDGSV,3,2,12,32,18,191,42,06,46,165,42,07,67,005,43,09,72,203,43*63
$BDGSV,3,3,12,02,45,218,41,16,52,172,43,19,19,303,42,23,24,071,41*67
$B3CN0,0,0,0,0,0,0,0,0,0,0,0,0,0,0*4C
$ini_pos,lastpos_good = 1,ini_pos.x:-1578914.721113,ini_pos.y:5312771.194519,ini_pos.z:3146353.971919
$rtc_local_time,localRTC.weeks:2052,localRTC.seconds:266721.033790,localGtime.weeks:2052,localGtime.seconds:266721.999999
i = 0
i = 1
i = 2
i = 3
i = 4
i = 5
i = 6
i = 7
i = 8
i = 9
i = 10
i = 11
i = 12
i = 13
i = 14
i = 15
i = 16
i = 17
i = 18
i = 19
i = 20
i = 21
i = 22
i = 23
i = 24
i = 25
i = 26
i = 27
i = 28
i = 29
i = 30
Refix G03: 2, 266721.920821, 1236
Refix G08: 2, 266721.922810, -4738
Refix G09: 2, 266721.921244, -4315
Refix G14: 2, 266721.919979, 2371
Refix G16: 2, 266721.932434, -87
Refix G23: 2, 266721.928774, -3032
Refix G26: 2, 266721.928069, 1129
Refix G27: 2, 266721.929488, -3552
Refix G31: 2, 266721.922087, 789
$GNGGA,020504.000,2944.9061,N,10633.0927,E,1,23,0.6,324.2,M,,,,0000*1C
$GNRMC,020504.000,A,2944.9061,N,10633.0927,E,0.16,0.00,080519,,*12
$GPGSA,A,3,03,08,09,14,16,23,26,27,31,,,,0.7,0.6,0.4*35
$BDGSA,A,3,01,02,03,04,06,07,09,10,16,19,23,27,0.7,0.6,0.4*20
$GLGSA,A,3,,,,,,,,,,,,,0.7,0.6,0.4*2B
$GPGSV,3,1,09,03,19,233,39,08,25,188,41,09,19,318,41,14,14,146,36*72
$GPGSV,3,2,09,16,69,352,44,23,52,304,43,26,45,035,44,27,51,158,43*72
$GPGSV,3,3,09,31,25,087,41*4F
$BDGSV,3,1,12,01,40,125,41,10,63,294,43,03,54,172,42,04,23,109,42*68
$BDGSV,3,2,12,32,18,191,42,06,46,165,41,07,67,005,43,09,72,203,43*60
$BDGSV,3,3,12,02,45,218,40,16,52,172,42,19,19,303,42,23,24,071,42*64
$B3CN0,0,0,0,0,0,0,0,0,0,0,0,0,0,0*4C
$ini_pos,lastpos_good = 1,ini_pos.x:-1578914.765121,ini_pos.y:5312771.166134,ini_pos.z:3146353.999242
$rtc_local_time,localRTC.weeks:2052,localRTC.seconds:266722.033790,localGtime.weeks:2052,localGtime.seconds:266722.999999
i = 0
i = 1
i = 2
i = 3
i = 4
i = 5
i = 6
i = 7
i = 8
i = 9
i = 10
i = 11
i = 12
i = 13
i = 14
i = 15
i = 16
i = 17
i = 18
i = 19
i = 20
i = 21
i = 22
i = 23
i = 24
i = 25
i = 26
i = 27
i = 28
i = 29
i = 30
Refix G03: 2, 266722.920820, 1240
Refix G08: 2, 266722.922813, -4734
Refix G09: 2, 266722.921247, -4311
Refix G14: 2, 266722.919977, 2375
Refix G16: 2, 266722.932434, -83
Refix G23: 2, 266722.928776, -3027
Refix G26: 2, 266722.928068, 1133
Refix G27: 2, 266722.929490, -3548
Refix G31: 2, 266722.922087, 792
$GNGGA,020505.000,2944.9061,N,10633.0928,E,1,23,0.6,324.6,M,,,,0000*16
$GNRMC,020505.000,A,2944.9061,N,10633.0928,E,0.02,0.00,080519,,*19
$GPGSA,A,3,03,08,09,14,16,23,26,27,31,,,,0.7,0.6,0.4*35
$BDGSA,A,3,01,02,03,04,06,07,09,10,16,19,23,27,0.7,0.6,0.4*20
$GLGSA,A,3,,,,,,,,,,,,,0.7,0.6,0.4*2B
$GPGSV,3,1,09,03,19,233,40,08,25,188,42,09,19,318,41,14,14,146,36*7F
$GPGSV,3,2,09,16,69,352,44,23,52,304,44,26,45,035,44,27,51,158,44*72
$GPGSV,3,3,09,31,25,087,42*4C
$BDGSV,3,1,12,01,40,125,41,10,63,294,43,03,54,172,43,04,23,109,41*6A
$BDGSV,3,2,12,32,18,191,42,06,46,165,42,07,67,005,44,09,72,203,43*64
$BDGSV,3,3,12,02,45,218,41,16,52,172,43,19,19,303,42,23,24,071,42*64
$B3CN0,0,0,0,0,0,0,0,0,0,0,0,0,0,0*4C
$ini_pos,lastpos_good = 1,ini_pos.x:-1578915.024579,ini_pos.y:5312771.365668,ini_pos.z:3146354.245387
$rtc_local_time,localRTC.weeks:2052,localRTC.seconds:266723.033790,localGtime.weeks:2052,localGtime.seconds:266723.999999
i = 0
i = 1
i = 2
i = 3
i = 4
i = 5
i = 6
i = 7
i = 8
i = 9
i = 10
i = 11
i = 12
i = 13
i = 14
i = 15
i = 16
i = 17
i = 18
i = 19
i = 20
i = 21
i = 22
i = 23
i = 24
i = 25
i = 26
i = 27
i = 28
i = 29
i = 30
Refix G03: 2, 266723.920819, 1239
Refix G08: 2, 266723.922816, -4734
Refix G09: 2, 266723.921249, -4312
Refix G14: 2, 266723.919976, 2374
Refix G16: 2, 266723.932434, -83
Refix G23: 2, 266723.928778, -3028
Refix G26: 2, 266723.928068, 1132
Refix G27: 2, 266723.929492, -3548
Refix G31: 2, 266723.922086, 792
$GNGGA,020506.000,2944.9061,N,10633.0928,E,1,23,0.6,324.7,M,,,,0000*14
$GNRMC,020506.000,A,2944.9061,N,10633.0928,E,0.05,0.00,080519,,*1D
$GPGSA,A,3,03,08,09,14,16,23,26,27,31,,,,0.7,0.6,0.4*35
$BDGSA,A,3,01,02,03,04,06,07,09,10,16,19,23,27,0.7,0.6,0.4*20
$GLGSA,A,3,,,,,,,,,,,,,0.7,0.6,0.4*2B
$GPGSV,3,1,09,03,19,233,39,08,25,188,41,09,19,318,41,14,14,146,37*73
$GPGSV,3,2,09,16,69,352,44,23,52,304,44,26,45,035,44,27,51,158,45*73
$GPGSV,3,3,09,31,25,087,41*4F
$BDGSV,3,1,12,01,40,125,41,10,63,294,43,03,54,172,42,04,23,109,41*6B
$BDGSV,3,2,12,32,18,191,42,06,46,165,41,07,67,005,44,09,72,203,43*67
$BDGSV,3,3,12,02,45,218,41,16,52,172,43,19,19,303,42,23,24,071,42*64
$B3CN0,0,0,0,0,0,0,0,0,0,0,0,0,0,0*4C
$ini_pos,lastpos_good = 1,ini_pos.x:-1578915.139499,ini_pos.y:5312771.480035,ini_pos.z:3146354.363887
$rtc_local_time,localRTC.weeks:2052,localRTC.seconds:266724.033790,localGtime.weeks:2052,localGtime.seconds:266724.999999
i = 0
i = 1
i = 2
i = 3
i = 4
i = 5
i = 6
i = 7
i = 8
i = 9
i = 10
i = 11
i = 12
i = 13
i = 14
i = 15
i = 16
i = 17
i = 18
i = 19
i = 20
i = 21
i = 22
i = 23
i = 24
i = 25
i = 26
i = 27
i = 28
i = 29
i = 30
Refix G03: 2, 266724.920819, 1229
Refix G08: 2, 266724.922819, -4745
Refix G09: 2, 266724.921252, -4321
Refix G14: 2, 266724.919974, 2364
Refix G16: 2, 266724.932434, -95
Refix G23: 2, 266724.928779, -3039
Refix G26: 2, 266724.928067, 1121
Refix G27: 2, 266724.929495, -3560
Refix G31: 2, 266724.922086, 781
$GNGGA,020507.000,2944.9061,N,10633.0929,E,1,23,0.6,325.1,M,,,,0000*13
$GNRMC,020507.000,A,2944.9061,N,10633.0929,E,0.33,0.00,080519,,*18
$GPGSA,A,3,03,08,09,14,16,23,26,27,31,,,,0.7,0.6,0.4*35
$BDGSA,A,3,01,02,03,04,06,07,09,10,16,19,23,27,0.7,0.6,0.4*20
$GLGSA,A,3,,,,,,,,,,,,,0.7,0.6,0.4*2B
$GPGSV,3,1,09,03,19,233,39,08,25,188,41,09,19,318,41,14,14,146,36*72
$GPGSV,3,2,09,16,69,352,44,23,52,304,44,26,45,035,44,27,51,158,45*73
$GPGSV,3,3,09,31,25,087,41*4F
$BDGSV,3,1,12,01,40,125,41,10,63,294,43,03,54,172,43,04,23,109,41*6A
$BDGSV,3,2,12,32,18,191,42,06,46,165,42,07,67,005,44,09,72,203,43*64
$BDGSV,3,3,12,02,45,218,40,16,52,172,43,19,19,303,42,23,24,071,42*65
$B3CN0,0,18,0,0,0,0,0,0,0,0,0,0,0,0*75
$ini_pos,lastpos_good = 1,ini_pos.x:-1578915.311346,ini_pos.y:5312771.806012,ini_pos.z:3146354.457937
$rtc_local_time,localRTC.weeks:2052,localRTC.seconds:266725.033790,localGtime.weeks:2052,localGtime.seconds:266725.999999
i = 0
i = 1
i = 2
i = 3
i = 4
i = 5
i = 6
i = 7
i = 8
i = 9
i = 10
i = 11
i = 12
i = 13
i = 14
i = 15
i = 16
i = 17
i = 18
i = 19
i = 20
i = 21
i = 22
i = 23
i = 24
i = 25
i = 26
i = 27
i = 28
i = 29
i = 30
Refix G03: 2, 266725.920818, 1237
Refix G08: 2, 266725.922822, -4737
Refix G09: 2, 266725.921255, -4314
Refix G14: 2, 266725.919973, 2372
Refix G16: 2, 266725.932434, -86
Refix G23: 2, 266725.928781, -3029
Refix G26: 2, 266725.928066, 1129
Refix G27: 2, 266725.929497, -3550
Refix G31: 2, 266725.922085, 789
$GNGGA,020508.000,2944.9060,N,10633.0929,E,1,23,0.6,325.7,M,,,,0000*1B
$GNRMC,020508.000,A,2944.9060,N,10633.0929,E,0.15,0.00,080519,,*12
$GPGSA,A,3,03,08,09,14,16,23,26,27,31,,,,0.7,0.6,0.4*35
$BDGSA,A,3,01,02,03,04,06,07,09,10,16,19,23,27,0.7,0.6,0.4*20
$GLGSA,A,3,,,,,,,,,,,,,0.7,0.6,0.4*2B
$GPGSV,3,1,09,03,19,233,39,08,25,188,41,09,19,318,41,14,14,146,37*73
$GPGSV,3,2,09,16,69,352,45,23,52,304,44,26,45,035,44,27,51,158,44*73
$GPGSV,3,3,09,31,25,087,40*4E
$BDGSV,3,1,12,01,40,125,40,10,63,294,43,03,54,172,43,04,23,109,41*6B
$BDGSV,3,2,12,32,18,191,43,06,46,165,41,07,67,005,44,09,72,203,43*66
$BDGSV,3,3,12,02,45,218,40,16,52,172,43,19,19,303,42,23,24,071,42*65
$B3CN0,0,18,0,0,0,0,0,0,0,0,0,0,0,0*75
$ini_pos,lastpos_good = 1,ini_pos.x:-1578915.533526,ini_pos.y:5312772.360289,ini_pos.z:3146354.628792
$rtc_local_time,localRTC.weeks:2052,localRTC.seconds:266726.033790,localGtime.weeks:2052,localGtime.seconds:266726.999999
i = 0
i = 1
i = 2
i = 3
i = 4
i = 5
i = 6
i = 7
i = 8
i = 9
i = 10
i = 11
i = 12
i = 13
i = 14
i = 15
i = 16
i = 17
i = 18
i = 19
i = 20
i = 21
i = 22
i = 23
i = 24
i = 25
i = 26
i = 27
i = 28
i = 29
i = 30
Refix G03: 2, 266726.920817, 1234
Refix G08: 2, 266726.922825, -4740
Refix G09: 2, 266726.921257, -4317
Refix G14: 2, 266726.919971, 2369
Refix G16: 2, 266726.932434, -89
Refix G23: 2, 266726.928783, -3033
Refix G26: 2, 266726.928065, 1125
Refix G27: 2, 266726.929499, -3553
Refix G31: 2, 266726.922085, 785
$GNGGA,020509.000,2944.9060,N,10633.0930,E,1,23,0.6,326.0,M,,,,0000*16
$GNRMC,020509.000,A,2944.9060,N,10633.0930,E,0.16,0.00,080519,,*18
$GPGSA,A,3,03,08,09,14,16,23,26,27,31,,,,0.7,0.6,0.4*35
$BDGSA,A,3,01,02,03,04,06,07,09,10,16,19,23,27,0.7,0.6,0.4*20
$GLGSA,A,3,,,,,,,,,,,,,0.7,0.6,0.4*2B
$GPGSV,3,1,09,03,19,233,38,08,25,188,41,09,19,318,41,14,14,146,36*73
$GPGSV,3,2,09,16,69,352,45,23,52,304,45,26,45,035,44,27,51,158,44*72
$GPGSV,3,3,09,31,25,087,41*4F
$BDGSV,3,1,12,01,40,125,41,10,63,294,43,03,54,172,45,04,23,109,41*6C
$BDGSV,3,2,12,32,18,191,42,06,46,165,42,07,67,005,43,09,72,203,43*63
$BDGSV,3,3,12,02,45,218,40,16,52,172,42,19,19,303,42,23,24,071,41*67
$B3CN0,0,0,0,0,0,0,0,0,0,0,0,0,0,0*4C
$GLGSV,2,1,08,08,00,000,46,07,00,000,47,19,00,000,37,20,00,000,41*6B
$GLGSV,2,2,08,11,00,000,37,09,00,000,46,06,00,000,36,26,00,000,45*64
$ini_pos,lastpos_good = 1,ini_pos.x:-1578915.647399,ini_pos.y:5312772.571522,ini_pos.z:3146354.753265
$rtc_local_time,localRTC.weeks:2052,localRTC.seconds:266727.033790,localGtime.weeks:2052,localGtime.seconds:266727.999999
i = 0
i = 1
i = 2
i = 3
i = 4
i = 5
i = 6
i = 7
i = 8
i = 9
i = 10
i = 11
i = 12
i = 13
i = 14
i = 15
i = 16
i = 17
i = 18
i = 19
i = 20
i = 21
i = 22
i = 23
i = 24
i = 25
i = 26
i = 27
i = 28
i = 29
i = 30
Refix G03: 2, 266727.920816, 1232
Refix G08: 2, 266727.922828, -4742
Refix G09: 2, 266727.921260, -4319
Refix G14: 2, 266727.919970, 2367
Refix G16: 2, 266727.932434, -91
Refix G23: 2, 266727.928785, -3035
Refix G26: 2, 266727.928065, 1124
Refix G27: 2, 266727.929501, -3555
Refix G31: 2, 266727.922084, 784
$GNGGA,020510.000,2944.9060,N,10633.0930,E,1,23,0.6,326.2,M,,,,0000*1C
$GNRMC,020510.000,A,2944.9060,N,10633.0930,E,0.12,0.00,080519,,*14
$GPGSA,A,3,03,08,09,14,16,23,26,27,31,,,,0.7,0.6,0.4*35
$BDGSA,A,3,01,02,03,04,06,07,09,10,16,19,23,27,0.7,0.6,0.4*20
$GLGSA,A,3,,,,,,,,,,,,,0.7,0.6,0.4*2B
$GPGSV,3,1,09,03,19,233,39,08,25,188,41,09,19,318,41,14,14,146,36*72
$GPGSV,3,2,09,16,69,352,44,23,52,304,44,26,45,035,44,27,51,158,44*72
$GPGSV,3,3,09,31,25,087,41*4F
$BDGSV,3,1,12,01,40,125,40,10,63,294,43,03,54,172,43,04,23,109,41*6B
$BDGSV,3,2,12,32,18,191,42,06,46,165,41,07,67,005,44,09,72,203,43*67
$BDGSV,3,3,12,02,45,218,41,16,52,172,43,19,19,303,42,23,24,071,41*67
$B3CN0,0,16,0,0,0,0,0,0,0,0,0,0,0,0*7B
$GLGSV,2,1,08,08,40,296,47,07,43,222,48,19,30,070,37,20,24,135,41*6C
$GLGSV,2,2,08,11,03,274,37,09,41,021,46,06,08,181,36,26,00,000,44*61
$ini_pos,lastpos_good = 1,ini_pos.x:-1578915.729367,ini_pos.y:5312772.747336,ini_pos.z:3146354.934916
$rtc_local_time,localRTC.weeks:2052,localRTC.seconds:266728.033790,localGtime.weeks:2052,localGtime.seconds:266728.999999
i = 0
i = 1
i = 2
i = 3
i = 4
i = 5
i = 6
i = 7
i = 8
i = 9
i = 10
i = 11
i = 12
i = 13
i = 14
i = 15
i = 16
i = 17
i = 18
i = 19
i = 20
i = 21
i = 22
i = 23
i = 24
i = 25
i = 26
i = 27
i = 28
i = 29
i = 30
Refix G03: 2, 266728.920815, 1227
Refix G08: 2, 266728.922831, -4747
Refix G09: 2, 266728.921263, -4322
Refix G14: 2, 266728.919968, 2362
Refix G16: 2, 266728.932434, -95
Refix G23: 2, 266728.928787, -3038
Refix G26: 2, 266728.928064, 1120
Refix G27: 2, 266728.929503, -3559
Refix G31: 2, 266728.922084, 779
$GNGGA,020511.000,2944.9060,N,10633.0931,E,1,30,0.6,326.2,M,,,,0000*1E
$GNRMC,020511.000,A,2944.9060,N,10633.0931,E,0.26,0.00,080519,,*13
$GPGSA,A,3,03,08,09,14,16,23,26,27,31,,,,0.7,0.6,0.4*35
$BDGSA,A,3,01,02,03,04,06,07,09,10,16,19,23,27,0.7,0.6,0.4*20
$GLGSA,A,3,06,07,08,09,11,19,20,,,,,,0.7,0.6,0.4*21
$GPGSV,3,1,09,03,19,233,39,08,25,188,41,09,19,318,41,14,14,146,36*72
$GPGSV,3,2,09,16,69,352,44,23,52,304,45,26,45,035,44,27,51,158,44*73
$GPGSV,3,3,09,31,25,087,42*4C
$BDGSV,3,1,12,01,40,125,40,10,63,294,43,03,54,172,42,04,23,109,41*6A
$BDGSV,3,2,12,32,18,191,43,06,46,165,42,07,67,005,43,09,72,203,43*62
$BDGSV,3,3,12,02,45,218,40,16,52,172,42,19,19,303,42,23,24,071,42*64
$B3CN0,0,0,0,0,0,0,0,0,0,0,0,0,0,0*4C
$GLGSV,2,1,08,08,40,296,46,07,43,222,48,19,30,070,37,20,24,135,41*6D
$GLGSV,2,2,08,11,03,274,37,09,41,021,46,06,08,181,36,26,00,000,45*60
$ini_pos,lastpos_good = 1,ini_pos.x:-1578915.933783,ini_pos.y:5312772.670247,ini_pos.z:3146354.862371
$rtc_local_time,localRTC.weeks:2052,localRTC.seconds:266729.033790,localGtime.weeks:2052,localGtime.seconds:266729.999999
i = 0
i = 1
i = 2
i = 3
i = 4
i = 5
i = 6
i = 7
i = 8
i = 9
i = 10
i = 11
i = 12
i = 13
i = 14
i = 15
i = 16
i = 17
i = 18
i = 19
i = 20
i = 21
i = 22
i = 23
i = 24
i = 25
i = 26
i = 27
i = 28
i = 29
i = 30
Refix G03: 2, 266729.920815, 1229
Refix G08: 2, 266729.922834, -4744
Refix G09: 2, 266729.921266, -4321
Refix G14: 2, 266729.919967, 2365
Refix G16: 2, 266729.932434, -91
Refix G23: 2, 266729.928789, -3035
Refix G26: 2, 266729.928063, 1123
Refix G27: 2, 266729.929506, -3555
Refix G31: 2, 266729.922083, 783
$GNGGA,020512.000,2944.9061,N,10633.0933,E,1,30,0.5,326.6,M,,,,0000*19
$GNRMC,020512.000,A,2944.9061,N,10633.0933,E,0.23,0.00,080519,,*16
$GPGSA,A,3,03,08,09,14,16,23,26,27,31,,,,0.6,0.5,0.3*30
$BDGSA,A,3,01,02,03,04,06,07,09,10,16,19,23,27,0.6,0.5,0.3*25
$GLGSA,A,3,06,07,08,09,11,19,20,,,,,,0.6,0.5,0.3*24
$GPGSV,3,1,09,03,19,233,39,08,25,188,41,09,19,318,41,14,14,146,36*72
$GPGSV,3,2,09,16,69,352,44,23,52,304,44,26,45,035,44,27,51,158,44*72
$GPGSV,3,3,09,31,25,087,41*4F
$BDGSV,3,1,12,01,40,125,41,10,63,294,43,03,54,172,43,04,23,109,41*6A
$BDGSV,3,2,12,32,18,191,43,06,46,165,42,07,67,005,43,09,72,203,43*62
$BDGSV,3,3,12,02,45,218,39,16,52,172,43,19,19,303,42,23,24,071,42*6B
$B3CN0,0,0,0,0,0,0,0,0,0,0,0,0,0,0*4C
$GLGSV,2,1,08,08,40,296,46,07,43,222,47,19,30,070,37,20,24,135,41*62
$GLGSV,2,2,08,11,03,274,37,09,41,021,46,06,08,181,36,26,00,000,45*60
$ini_pos,lastpos_good = 1,ini_pos.x:-1578916.378189,ini_pos.y:5312772.867055,ini_pos.z:3146355.156929
$rtc_local_time,localRTC.weeks:2052,localRTC.seconds:266730.033790,localGtime.weeks:2052,localGtime.seconds:266730.999999
i = 0
i = 1
i = 2
i = 3
i = 4
i = 5
i = 6
i = 7
i = 8
i = 9
i = 10
i = 11
i = 12
i = 13
i = 14
i = 15
i = 16
i = 17
i = 18
i = 19
i = 20
i = 21
i = 22
i = 23
i = 24
i = 25
i = 26
i = 27
i = 28
i = 29
i = 30
Refix G03: 2, 266730.920814, 1236
Refix G08: 2, 266730.922837, -4737
Refix G09: 2, 266730.921268, -4315
Refix G14: 2, 266730.919965, 2372
Refix G16: 2, 266730.932434, -83
Refix G23: 2, 266730.928791, -3027
Refix G26: 2, 266730.928062, 1130
Refix G27: 2, 266730.929508, -3546
Refix G31: 2, 266730.922083, 789
$GNGGA,020513.000,2944.9061,N,10633.0935,E,1,30,0.5,326.4,M,,,,0000*1C
$GNRMC,020513.000,A,2944.9061,N,10633.0935,E,0.29,0.00,080519,,*1B
$GPGSA,A,3,03,08,09,14,16,23,26,27,31,,,,0.6,0.5,0.3*30
$BDGSA,A,3,01,02,03,04,06,07,09,10,16,19,23,27,0.6,0.5,0.3*25
$GLGSA,A,3,06,07,08,09,11,19,20,,,,,,0.6,0.5,0.3*24
$GPGSV,3,1,09,03,19,233,39,08,25,188,41,09,19,318,42,14,14,146,36*71
$GPGSV,3,2,09,16,69,352,44,23,52,304,44,26,45,035,44,27,51,158,44*72
$GPGSV,3,3,09,31,25,087,41*4F
$BDGSV,3,1,12,01,40,125,41,10,63,294,43,03,54,172,45,04,23,109,40*6D
$BDGSV,3,2,12,32,18,191,42,06,46,165,42,07,67,005,44,09,72,203,43*64
$BDGSV,3,3,12,02,45,218,38,16,52,172,43,19,19,303,42,23,24,071,42*6A
$B3CN0,0,0,0,0,0,0,0,0,0,0,0,0,0,0*4C
$GLGSV,2,1,08,08,40,296,46,07,43,222,48,19,30,070,37,20,24,135,41*6D
$GLGSV,2,2,08,11,03,274,37,09,41,021,46,06,08,181,36,26,00,000,44*61
$ini_pos,lastpos_good = 1,ini_pos.x:-1578916.524125,ini_pos.y:5312772.586944,ini_pos.z:3146355.176053
$rtc_local_time,localRTC.weeks:2052,localRTC.seconds:266731.033790,localGtime.weeks:2052,localGtime.seconds:266731.999999
i = 0
i = 1
i = 2
i = 3
i = 4
i = 5
i = 6
i = 7
i = 8
i = 9
i = 10
i = 11
i = 12
i = 13
i = 14
i = 15
i = 16
i = 17
i = 18
i = 19
i = 20
i = 21
i = 22
i = 23
i = 24
i = 25
i = 26
i = 27
i = 28
i = 29
i = 30
Refix G03: 2, 266731.920813, 1233
Refix G08: 2, 266731.922840, -4739
Refix G09: 2, 266731.921271, -4316
Refix G14: 2, 266731.919964, 2370
Refix G16: 2, 266731.932434, -85
Refix G23: 2, 266731.928793, -3029
Refix G26: 2, 266731.928062, 1128
Refix G27: 2, 266731.929510, -3549
Refix G31: 2, 266731.922082, 787
$GNGGA,020514.000,2944.9062,N,10633.0935,E,1,30,0.5,325.9,M,,,,0000*16
$GNRMC,020514.000,A,2944.9062,N,10633.0935,E,0.26,0.00,080519,,*10
$GPGSA,A,3,03,08,09,14,16,23,26,27,31,,,,0.6,0.5,0.3*30
$BDGSA,A,3,01,02,03,04,06,07,09,10,16,19,23,27,0.6,0.5,0.3*25
$GLGSA,A,3,06,07,08,09,11,19,20,,,,,,0.6,0.5,0.3*24
$GPGSV,3,1,09,03,19,233,39,08,25,188,41,09,19,318,42,14,14,146,36*71
$GPGSV,3,2,09,16,69,352,44,23,52,304,44,26,45,035,44,27,51,158,44*72
$GPGSV,3,3,09,31,25,087,42*4C
$BDGSV,3,1,12,01,40,125,41,10,63,294,43,03,54,172,43,04,23,109,41*6A
$BDGSV,3,2,12,32,18,191,42,06,46,165,42,07,67,005,43,09,72,203,43*63
$BDGSV,3,3,12,02,45,218,40,16,52,172,42,19,19,303,42,23,24,071,42*64
$B3CN0,0,0,0,0,0,0,0,0,0,0,0,0,0,0*4C
$GLGSV,2,1,08,08,40,296,46,07,43,222,47,19,30,070,37,20,24,135,41*62
$GLGSV,2,2,08,11,03,274,36,09,41,021,46,06,08,181,37,26,00,000,45*60
$ini_pos,lastpos_good = 1,ini_pos.x:-1578916.449208,ini_pos.y:5312772.089640,ini_pos.z:3146354.982637
$rtc_local_time,localRTC.weeks:2052,localRTC.seconds:266732.033790,localGtime.weeks:2052,localGtime.seconds:266732.999999
i = 0
i = 1
i = 2
i = 3
i = 4
i = 5
i = 6
i = 7
i = 8
i = 9
i = 10
i = 11
i = 12
i = 13
i = 14
i = 15
i = 16
i = 17
i = 18
i = 19
i = 20
i = 21
i = 22
i = 23
i = 24
i = 25
i = 26
i = 27
i = 28
i = 29
i = 30
Refix G03: 2, 266732.920812, 1240
Refix G08: 2, 266732.922843, -4733
Refix G09: 2, 266732.921274, -4310
Refix G14: 2, 266732.919962, 2377
Refix G16: 2, 266732.932434, -78
Refix G23: 2, 266732.928795, -3022
Refix G26: 2, 266732.928061, 1135
Refix G27: 2, 266732.929512, -3542
Refix G31: 2, 266732.922082, 794
$GNGGA,020515.000,2944.9062,N,10633.0935,E,1,30,0.5,325.6,M,,,,0000*18
$GNRMC,020515.000,A,2944.9062,N,10633.0935,E,0.43,0.00,080519,,*12
$GPGSA,A,3,03,08,09,14,16,23,26,27,31,,,,0.6,0.5,0.3*30
$BDGSA,A,3,01,02,03,04,06,07,09,10,16,19,23,27,0.6,0.5,0.3*25
$GLGSA,A,3,06,07,08,09,11,19,20,,,,,,0.6,0.5,0.3*24
$GPGSV,3,1,09,03,19,233,39,08,25,188,41,09,19,318,42,14,14,146,36*71
$GPGSV,3,2,09,16,69,352,44,23,52,304,44,26,45,035,44,27,51,158,44*72
$GPGSV,3,3,09,31,25,087,42*4C
$BDGSV,3,1,12,01,40,125,41,10,63,294,44,03,54,172,42,04,23,109,42*6F
$BDGSV,3,2,12,32,18,191,42,06,46,165,41,07,67,005,43,09,72,203,43*60
$BDGSV,3,3,12,02,45,218,40,16,52,172,43,19,19,303,43,23,24,071,41*67
$B3CN0,0,0,0,0,0,0,0,0,0,0,0,0,0,0*4C
$GLGSV,2,1,08,08,40,296,47,07,43,222,48,19,30,070,37,20,24,135,41*6C
$GLGSV,2,2,08,11,03,274,36,09,41,021,46,06,08,181,36,26,00,000,45*61
$ini_pos,lastpos_good = 1,ini_pos.x:-1578916.326529,ini_pos.y:5312771.937946,ini_pos.z:3146354.829386
$rtc_local_time,localRTC.weeks:2052,localRTC.seconds:266733.033790,localGtime.weeks:2052,localGtime.seconds:266733.999999
i = 0
i = 1
i = 2
i = 3
i = 4
i = 5
i = 6
i = 7
i = 8
i = 9
i = 10
i = 11
i = 12
i = 13
i = 14
i = 15
i = 16
i = 17
i = 18
i = 19
i = 20
i = 21
i = 22
i = 23
i = 24
i = 25
i = 26
i = 27
i = 28
i = 29
i = 30
Refix G03: 2, 266733.920811, 1236
Refix G08: 2, 266733.922846, -4736
Refix G09: 2, 266733.921276, -4313
Refix G14: 2, 266733.919960, 2373
Refix G16: 2, 266733.932434, -82
Refix G23: 2, 266733.928796, -3026
Refix G26: 2, 266733.928060, 1130
Refix G27: 2, 266733.929515, -3546
Refix G31: 2, 266733.922081, 790
$GNGGA,020516.000,2944.9061,N,10633.0935,E,1,30,0.5,325.3,M,,,,0000*1D
$GNRMC,020516.000,A,2944.9061,N,10633.0935,E,0.16,0.00,080519,,*12
$GPGSA,A,3,03,08,09,14,16,23,26,27,31,,,,0.6,0.5,0.3*30
$BDGSA,A,3,01,02,03,04,06,07,09,10,16,19,23,27,0.6,0.5,0.3*25
$GLGSA,A,3,06,07,08,09,11,19,20,,,,,,0.6,0.5,0.3*24
$GPGSV,3,1,09,03,19,233,40,08,25,188,41,09,19,318,42,14,14,146,36*7F
$GPGSV,3,2,09,16,69,352,43,23,52,304,44,26,45,035,44,27,51,158,44*75
$GPGSV,3,3,09,31,25,087,41*4F
$BDGSV,3,1,12,01,40,125,41,10,63,294,43,03,54,172,43,04,23,109,41*6A
$BDGSV,3,2,12,32,18,191,42,06,46,165,41,07,67,005,43,09,72,203,43*60
$BDGSV,3,3,12,02,45,218,40,16,52,172,43,19,19,303,42,23,24,071,41*66
$B3CN0,0,0,0,0,0,0,0,0,0,0,0,0,0,0*4C
$GLGSV,3,1,09,08,40,296,46,07,43,222,47,19,30,070,37,20,24,135,41*62
$GLGSV,3,2,09,11,03,274,35,09,41,021,46,06,08,181,36,26,00,000,44*63
$GLGSV,3,3,09,01,09,330,00*54
$ini_pos,lastpos_good = 1,ini_pos.x:-1578916.246959,ini_pos.y:5312771.698085,ini_pos.z:3146354.652713
$rtc_local_time,localRTC.weeks:2052,localRTC.seconds:266734.033790,localGtime.weeks:2052,localGtime.seconds:266734.999999
i = 0
i = 1
i = 2
i = 3
i = 4
i = 5
i = 6
i = 7
i = 8
i = 9
i = 10
i = 11
i = 12
i = 13
i = 14
i = 15
i = 16
i = 17
i = 18
i = 19
i = 20
i = 21
i = 22
i = 23
i = 24
i = 25
i = 26
i = 27
i = 28
i = 29
i = 30
Refix G03: 2, 266734.920811, 1235
Refix G08: 2, 266734.922849, -4737
Refix G09: 2, 266734.921279, -4314
Refix G14: 2, 266734.919959, 2372
Refix G16: 2, 266734.932434, -83
Refix G23: 2, 266734.928798, -3027
Refix G26: 2, 266734.928059, 1129
Refix G27: 2, 266734.929517, -3547
Refix G31: 2, 266734.922080, 789
$GNGGA,020517.000,2944.9061,N,10633.0935,E,1,30,0.5,325.3,M,,,,0000*1C
$GNRMC,020517.000,A,2944.9061,N,10633.0935,E,0.16,0.00,080519,,*13
$GPGSA,A,3,03,08,09,14,16,23,26,27,31,,,,0.6,0.5,0.3*30
$BDGSA,A,3,01,02,03,04,06,07,09,10,16,19,23,27,0.6,0.5,0.3*25
$GLGSA,A,3,06,07,08,09,11,19,20,,,,,,0.6,0.5,0.3*24
$GPGSV,3,1,09,03,19,233,39,08,25,188,42,09,19,318,42,14,14,146,36*72
$GPGSV,3,2,09,16,69,352,44,23,52,304,44,26,45,035,44,27,51,158,44*72
$GPGSV,3,3,09,31,25,087,41*4F
$BDGSV,3,1,12,01,40,125,41,10,63,294,43,03,54,172,45,04,23,109,41*6C
$BDGSV,3,2,12,32,18,191,43,06,46,165,42,07,67,005,43,09,72,203,42*63
$BDGSV,3,3,12,02,45,218,40,16,52,172,43,19,19,303,42,23,24,071,41*66
$B3CN0,0,18,0,0,0,0,0,0,0,0,0,0,0,0*75
$GLGSV,3,1,09,08,40,296,46,07,43,222,48,19,30,070,37,20,24,135,42*6E
$GLGSV,3,2,09,11,03,274,35,09,41,021,46,06,08,181,36,26,00,000,44*63
$GLGSV,3,3,09,01,09,330,00*54
$ini_pos,lastpos_good = 1,ini_pos.x:-1578916.360354,ini_pos.y:5312771.672443,ini_pos.z:3146354.588164
$rtc_local_time,localRTC.weeks:2052,localRTC.seconds:266735.033790,localGtime.weeks:2052,localGtime.seconds:266735.999999
i = 0
i = 1
i = 2
i = 3
i = 4
i = 5
i = 6
i = 7
i = 8
i = 9
i = 10
i = 11
i = 12
i = 13
i = 14
i = 15
i = 16
i = 17
i = 18
i = 19
i = 20
i = 21
i = 22
i = 23
i = 24
i = 25
i = 26
i = 27
i = 28
i = 29
i = 30
Refix G03: 2, 266735.920810, 1229
Refix G08: 2, 266735.922852, -4744
Refix G09: 2, 266735.921282, -4320
Refix G14: 2, 266735.919957, 2366
Refix G16: 2, 266735.932434, -89
Refix G23: 2, 266735.928800, -3033
Refix G26: 2, 266735.928059, 1123
Refix G27: 2, 266735.929519, -3553
Refix G31: 2, 266735.922080, 783
$GNGGA,020518.000,2944.9061,N,10633.0936,E,1,30,0.5,325.2,M,,,,0000*11
$GNRMC,020518.000,A,2944.9061,N,10633.0936,E,0.27,0.00,080519,,*1D
$GPGSA,A,3,03,08,09,14,16,23,26,27,31,,,,0.6,0.5,0.3*30
$BDGSA,A,3,01,02,03,04,06,07,09,10,16,19,23,27,0.6,0.5,0.3*25
$GLGSA,A,3,06,07,08,09,11,19,20,,,,,,0.6,0.5,0.3*24
$GPGSV,3,1,09,03,19,233,38,08,25,188,41,09,19,318,42,14,14,146,36*70
$GPGSV,3,2,09,16,69,352,43,23,52,304,44,26,45,035,44,27,51,158,43*72
$GPGSV,3,3,09,31,25,087,41*4F
$BDGSV,3,1,12,01,40,125,41,10,63,294,43,03,54,172,45,04,23,109,40*6D
$BDGSV,3,2,12,32,18,191,42,06,46,165,42,07,67,005,43,09,72,203,43*63
$BDGSV,3,3,12,02,45,218,40,16,52,172,43,19,19,303,42,23,24,071,41*66
$B3CN0,0,0,0,0,0,0,0,0,0,0,0,0,0,0*4C
$GLGSV,3,1,09,08,40,296,46,07,43,222,47,19,30,070,37,20,24,135,41*62
$GLGSV,3,2,09,11,03,274,35,09,41,021,46,06,08,181,36,26,00,000,44*63
$GLGSV,3,3,09,01,09,330,00*54
$ini_pos,lastpos_good = 1,ini_pos.x:-1578916.407777,ini_pos.y:5312771.558394,ini_pos.z:3146354.609908
$rtc_local_time,localRTC.weeks:2052,localRTC.seconds:266736.033790,localGtime.weeks:2052,localGtime.seconds:266736.999999
i = 0
i = 1
i = 2
i = 3
i = 4
i = 5
i = 6
i = 7
i = 8
i = 9
i = 10
i = 11
i = 12
i = 13
i = 14
i = 15
i = 16
i = 17
i = 18
i = 19
i = 20
i = 21
i = 22
i = 23
i = 24
i = 25
i = 26
i = 27
i = 28
i = 29
i = 30
Refix G03: 2, 266736.920809, 1226
Refix G08: 2, 266736.922855, -4747
Refix G09: 2, 266736.921285, -4323
Refix G14: 2, 266736.919956, 2362
Refix G16: 2, 266736.932434, -92
Refix G23: 2, 266736.928802, -3036
Refix G26: 2, 266736.928058, 1120
Refix G27: 2, 266736.929521, -3555
Refix G31: 2, 266736.922079, 780
$GNGGA,020519.000,2944.9062,N,10633.0936,E,1,30,0.5,325.3,M,,,,0000*12
$GNRMC,020519.000,A,2944.9062,N,10633.0936,E,0.31,0.00,080519,,*18
$GPGSA,A,3,03,08,09,14,16,23,26,27,31,,,,0.6,0.5,0.3*30
$BDGSA,A,3,01,02,03,04,06,07,09,10,16,19,23,27,0.6,0.5,0.3*25
$GLGSA,A,3,06,07,08,09,11,19,20,,,,,,0.6,0.5,0.3*24
$GPGSV,3,1,09,03,19,233,38,08,25,188,41,09,19,318,42,14,14,146,36*70
$GPGSV,3,2,09,16,69,352,44,23,52,304,43,26,45,035,43,27,51,158,44*72
$GPGSV,3,3,09,31,25,087,42*4C
$BDGSV,3,1,12,01,40,125,41,10,63,294,43,03,54,172,45,04,23,109,42*6F
$BDGSV,3,2,12,32,18,191,43,06,46,165,42,07,67,005,43,09,72,203,43*62
$BDGSV,3,3,12,02,45,218,40,16,52,172,42,19,19,303,42,23,24,071,41*67
$B3CN0,0,0,0,0,0,0,0,0,0,0,0,0,0,0*4C
$GLGSV,3,1,09,08,40,296,46,07,43,222,47,19,30,070,37,20,24,135,41*62
$GLGSV,3,2,09,11,03,274,35,09,41,021,46,06,08,181,36,26,00,000,45*62
$GLGSV,3,3,09,01,09,330,00*54
$ini_pos,lastpos_good = 1,ini_pos.x:-1578916.404932,ini_pos.y:5312771.555623,ini_pos.z:3146354.675782
$rtc_local_time,localRTC.weeks:2052,localRTC.seconds:266737.033789,localGtime.weeks:2052,localGtime.seconds:266737.999999
i = 0
i = 1
i = 2
i = 3
i = 4
i = 5
i = 6
i = 7
i = 8
i = 9
i = 10
i = 11
i = 12
i = 13
i = 14
i = 15
i = 16
i = 17
i = 18
i = 19
i = 20
i = 21
i = 22
i = 23
i = 24
i = 25
i = 26
i = 27
i = 28
i = 29
i = 30
i = 31
Refix G03: 2, 266737.920808, 1234
Refix G08: 2, 266737.922858, -4738
Refix G09: 2, 266737.921287, -4316
Refix G14: 2, 266737.919954, 2370
Refix G16: 2, 266737.932434, -82
Refix G23: 2, 266737.928804, -3026
Refix G26: 2, 266737.928057, 1129
Refix G27: 2, 266737.929523, -3545
Refix G31: 2, 266737.922079, 788
$GNGGA,020520.000,2944.9062,N,10633.0936,E,1,30,0.5,325.1,M,,,,0000*1A
$GNRMC,020520.000,A,2944.9062,N,10633.0936,E,0.25,0.00,080519,,*17
$GPGSA,A,3,03,08,09,14,16,23,26,27,31,,,,0.6,0.5,0.3*30
$BDGSA,A,3,01,02,03,04,06,07,09,10,16,19,23,27,0.6,0.5,0.3*25
$GLGSA,A,3,06,07,08,09,11,19,20,,,,,,0.6,0.5,0.3*24
$GPGSV,3,1,09,03,19,233,38,08,25,188,41,09,19,318,42,14,14,146,36*70
$GPGSV,3,2,09,16,69,352,45,23,52,304,44,26,45,035,44,27,51,158,44*73
$GPGSV,3,3,09,31,25,087,41*4F
$BDGSV,3,1,12,01,40,125,41,10,63,294,43,03,54,172,45,04,23,109,40*6D
$BDGSV,3,2,12,32,18,191,43,06,46,165,42,07,67,005,43,09,72,203,43*62
$BDGSV,3,3,12,02,45,218,42,16,52,172,43,19,19,303,42,23,24,071,41*64
$B3CN0,0,0,0,0,0,0,0,0,0,0,0,0,0,0*4C
$GLGSV,3,1,09,08,40,296,46,07,43,222,47,19,30,070,37,20,24,135,41*62
$GLGSV,3,2,09,11,03,274,35,09,41,021,46,06,08,181,36,26,00,000,45*62
$GLGSV,3,3,09,01,09,330,00*54
$ini_pos,lastpos_good = 1,ini_pos.x:-1578916.339603,ini_pos.y:5312771.427316,ini_pos.z:3146354.683712
$rtc_local_time,localRTC.weeks:2052,localRTC.seconds:266738.033789,localGtime.weeks:2052,localGtime.seconds:266738.999999
i = 0
i = 1
i = 2
i = 3
i = 4
i = 5
i = 6
i = 7
i = 8
i = 9
i = 10
i = 11
i = 12
i = 13
i = 14
i = 15
i = 16
i = 17
i = 18
i = 19
i = 20
i = 21
i = 22
i = 23
i = 24
i = 25
i = 26
i = 27
i = 28
i = 29
i = 30
Refix G03: 2, 266738.920807, 1231
Refix G08: 2, 266738.922861, -4741
Refix G09: 2, 266738.921290, -4318
Refix G14: 2, 266738.919953, 2368
Refix G16: 2, 266738.932434, -86
Refix G23: 2, 266738.928806, -3029
Refix G26: 2, 266738.928056, 1125
Refix G27: 2, 266738.929526, -3549
Refix G31: 2, 266738.922078, 785
