SD initialized success
Create debug.log Failed! 3
bbram_blkflag = 1
rtcflag = 0
BBRAM Block OK: 01 EPHflag: 4660a1c4 8c44836f, rtc 00
Hot-start nowtime:day = 8,minute = 19,seconds = 13.00
GPS 0 Init Dop: 10000,80
GPS 1 Init Dop: 10000,80
GPS 2 Init Dop:  1575, 2
GPS 3 Init Dop: 10000,80
GPS 4 Init Dop: 10000,80
GPS 5 Init Dop: 10000,80
GPS 6 Init Dop: -3390, 2
GPS 7 Init Dop: -4296, 2
GPS 8 Init Dop: -3815, 2
GPS 9 Init Dop: 10000,80
GPS10 Init Dop: 10000,80
GPS11 Init Dop: 10000,80
GPS12 Init Dop: 10000,80
GPS13 Init Dop:  2763, 2
GPS14 Init Dop: 10000,80
GPS15 Init Dop:   499, 2
GPS16 Init Dop: 10000,80
GPS17 Init Dop: 10000,80
GPS18 Init Dop: 10000,80
GPS19 Init Dop: 10000,80
GPS20 Init Dop: 10000,80
GPS21 Init Dop:  1373, 2
GPS22 Init Dop: -2320, 2
GPS23 Init Dop: 10000,80
GPS24 Init Dop: 10000,80
GPS25 Init Dop:  1497, 2
GPS26 Init Dop: -2817, 2
GPS27 Init Dop: 10000,80
GPS28 Init Dop: 10000,80
GPS29 Init Dop: 10000,80
GPS30 Init Dop:  1165, 2
GPS31 Init Dop: 10000,80
BDS 0 Init Dop:  -881, 2
BDS 1 Init Dop:  -847, 2
BDS 2 Init Dop:  -882, 2
BDS 3 Init Dop:  -873, 2
BDS 4 Init Dop: 10000,80
BDS 5 Init Dop:   359, 2
BDS 6 Init Dop:  -600, 2
BDS 7 Init Dop: 10000,80
BDS 8 Init Dop:  -169, 2
BDS 9 Init Dop:  -715, 2
BDS10 Init Dop: 10000,80
BDS11 Init Dop: 10000,80
BDS12 Init Dop: 10000,80
BDS13 Init Dop: 10000,80
BDS14 Init Dop: 10000,80
BDS15 Init Dop:   378, 2
BDS16 Init Dop: 10000,80
BDS17 Init Dop: 10000,80
BDS18 Init Dop: -1328, 2
BDS19 Init Dop: 10000,80
BDS20 Init Dop: 10000,80
BDS21 Init Dop: 10000,80
BDS22 Init Dop:   827, 2
BDS23 Init Dop: 10000,80
BDS24 Init Dop: 10000,80
BDS25 Init Dop: 10000,80
BDS26 Init Dop: -3703, 2
BDS27 Init Dop: -1365, 2
BDS28 Init Dop: 10000,80
BDS29 Init Dop: 10000,80
BDS30 Init Dop: 10000,80
BDS31 Init Dop:  2087, 2
Good luck!
$ini_pos,lastpos_good = 1,ini_pos.x:-1578917.000000,ini_pos.y:5312771.000000,ini_pos.z:3146356.000000
$GNGGA,000000.000,,,,,0,00,,,M,,,,0000*2B
$GNRMC,000000.000,A,,,,,,,060180,,*29
$GPGSA,A,1,,,,,,,,,,,,,,,*1E
$BDGSA,A,1,,,,,,,,,,,,,,,*0F
$GLGSA,A,1,,,,,,,,,,,,,,,*02
$B3CN0,0,0,0,0,0,0,0,0,0,0,0,0,0,0*4C
$ini_pos,lastpos_good = 1,ini_pos.x:-1578917.000000,ini_pos.y:5312771.000000,ini_pos.z:3146356.000000
$GNGGA,000000.000,,,,,0,00,,,M,,,,0000*2B
$GNRMC,000000.000,A,,,,,,,060180,,*29
$GPGSA,A,1,,,,,,,,,,,,,,,*1E
$BDGSA,A,1,,,,,,,,,,,,,,,*0F
$GLGSA,A,1,,,,,,,,,,,,,,,*02
$B3CN0,0,0,0,0,0,0,0,0,0,0,0,0,0,0*4C
$ini_pos,lastpos_good = 1,ini_pos.x:-1578917.000000,ini_pos.y:5312771.000000,ini_pos.z:3146356.000000
$GNGGA,000000.000,,,,,0,00,,,M,,,,0000*2B
$GNRMC,000000.000,A,,,,,,,060180,,*29
$GPGSA,A,1,,,,,,,,,,,,,,,*1E
$BDGSA,A,1,,,,,,,,,,,,,,,*0F
$GLGSA,A,1,,,,,,,,,,,,,,,*02
$B3CN0,0,0,0,0,0,0,0,0,0,0,0,0,0,0*4C
$ini_pos,lastpos_good = 1,ini_pos.x:-1578917.000000,ini_pos.y:5312771.000000,ini_pos.z:3146356.000000
$GNGGA,000000.000,,,,,0,00,,,M,,,,0000*2B
$GNRMC,000000.000,A,,,,,,,060180,,*29
$GPGSA,A,1,,,,,,,,,,,,,,,*1E
$BDGSA,A,1,,,,,,,,,,,,,,,*0F
$GLGSA,A,1,,,,,,,,,,,,,,,*02
$GPGSV,2,1,05,07,00,000,37,08,00,000,38,09,00,000,37,16,00,000,29*7E
$GPGSV,2,2,05,23,00,000,17*4B
$B3CN0,0,0,0,0,0,0,0,0,0,0,0,0,0,0*4C
$ini_pos,lastpos_good = 1,ini_pos.x:-1578917.000000,ini_pos.y:5312771.000000,ini_pos.z:3146356.000000
$GNGGA,000000.000,,,,,0,00,,,M,,,,0000*2B
$GNRMC,000000.000,A,,,,,,,060180,,*29
$GPGSA,A,1,,,,,,,,,,,,,,,*1E
$BDGSA,A,1,,,,,,,,,,,,,,,*0F
$GLGSA,A,1,,,,,,,,,,,,,,,*02
$GPGSV,2,1,08,07,00,000,40,08,00,000,41,09,00,000,41,16,00,000,45*76
$GPGSV,2,2,08,23,00,000,45,26,00,000,40,27,00,000,39,31,00,000,32*7D
$BDGSV,1,1,04,01,00,000,39,02,00,000,41,03,00,000,40,04,00,000,41*66
$B3CN0,0,0,0,0,0,0,0,0,0,0,0,0,0,0*4C
tow update,267577780.745423
$ini_pos,lastpos_good = 1,ini_pos.x:-1578917.000000,ini_pos.y:5312771.000000,ini_pos.z:3146356.000000
$GNGGA,021919.649,2944.9060,N,10633.0940,E,1,10,0.9,334.9,M,,,,0000*13
$GNRMC,021919.649,A,2944.9060,N,10633.0940,E,0.08,0.00,090180,,*12
$GPGSA,A,3,07,08,09,16,23,26,27,31,,,,,1.7,0.9,1.4*3B
$BDGSA,A,3,01,02,,,,,,,,,,,1.7,0.9,1.4*2A
$GLGSA,A,3,,,,,,,,,,,,,1.7,0.9,1.4*24
$GPGSV,2,1,08,07,00,000,40,08,00,000,42,09,00,000,42,16,00,000,44*77
$GPGSV,2,2,08,23,00,000,44,26,00,000,43,27,00,000,44,31,00,000,43*73
$BDGSV,1,1,04,01,00,000,40,02,00,000,41,03,00,000,42,04,00,000,43*68
$B3CN0,0,0,0,0,0,0,0,0,0,0,0,0,0,0*4C
$ini_pos,lastpos_good = 1,ini_pos.x:-1578919.527136,ini_pos.y:5312779.518769,ini_pos.z:3146359.125607
Refix G03: 2, 267578.919497, 1320
Refix G07: 2, 267578.915138, -3647
Refix G08: 2, 267578.924716, -4550
Refix G09: 2, 267578.922903, -4070
Refix G14: 2, 267578.918024, 2508
Refix G16: 2, 267578.931765, 243
Refix G22: 2, 267578.916895, 1117
Refix G23: 2, 267578.929677, -2574
Refix G26: 2, 267578.926798, 1240
Refix G27: 2, 267578.930668, -3070
Refix G31: 2, 267578.921001, 908
$GNGGA,021921.000,2944.9070,N,10633.0938,E,1,11,0.9,326.4,M,,,,0000*12
$GNRMC,021921.000,A,2944.9070,N,10633.0938,E,0.39,0.00,090180,,*1E
$GPGSA,A,3,07,08,09,16,23,26,27,31,,,,,1.2,0.9,0.8*33
$BDGSA,A,3,01,02,03,,,,,,,,,,1.2,0.9,0.8*21
$GLGSA,A,3,,,,,,,,,,,,,1.2,0.9,0.8*2C
$GPGSV,2,1,08,07,00,000,40,08,00,000,42,09,00,000,41,16,00,000,44*74
$GPGSV,2,2,08,23,00,000,44,26,00,000,43,27,00,000,44,31,00,000,43*73
$BDGSV,1,1,04,01,00,000,41,02,00,000,41,03,00,000,43,04,00,000,41*6A
$B3CN0,0,0,0,0,0,0,0,0,0,0,0,0,0,0*4C
$ini_pos,lastpos_good = 1,ini_pos.x:-1578916.856527,ini_pos.y:5312771.679071,ini_pos.z:3146356.536328
Refix G03: 2, 267579.919497, 1314
Refix G07: 2, 267579.915140, -3652
Refix G08: 2, 267579.924719, -4556
Refix G09: 2, 267579.922906, -4075
Refix G14: 2, 267579.918023, 2504
Refix G16: 2, 267579.931764, 237
Refix G22: 2, 267579.916895, 1111
Refix G23: 2, 267579.929679, -2580
Refix G26: 2, 267579.926797, 1234
Refix G27: 2, 267579.930670, -3076
Refix G31: 2, 267579.921001, 904
$GNGGA,021922.000,2944.9063,N,10633.0935,E,1,11,0.9,327.1,M,,,,0000*1A
$GNRMC,021922.000,A,2944.9063,N,10633.0935,E,0.38,0.00,090180,,*13
$GPGSA,A,3,07,08,09,16,23,26,27,31,,,,,1.2,0.9,0.8*33
$BDGSA,A,3,01,02,03,,,,,,,,,,1.2,0.9,0.8*21
$GLGSA,A,3,,,,,,,,,,,,,1.2,0.9,0.8*2C
$GPGSV,3,1,11,07,06,298,40,08,31,188,42,09,24,316,42,16,63,004,44*7B
$GPGSV,3,2,11,23,57,295,43,26,39,039,44,27,58,153,44,31,22,093,43*76
$GPGSV,3,3,11,03,15,228,00,14,08,148,00,22,08,210,00*4D
$BDGSV,3,1,12,01,40,125,41,02,45,218,41,03,54,172,45,04,23,109,41*6D
$BDGSV,3,2,12,16,49,175,26,19,20,297,42,23,21,077,30,27,32,160,44*65
$BDGSV,3,3,12,32,13,189,30,06,43,169,00,07,65,007,00,09,68,203,00*61
$B3CN0,0,0,0,0,0,0,0,0,0,0,0,0,0,0*4C
$ini_pos,lastpos_good = 1,ini_pos.x:-1578916.734659,ini_pos.y:5312772.924915,ini_pos.z:3146355.846874
Refix G03: 2, 267580.919496, 1316
Refix G07: 2, 267580.915142, -3650
Refix G08: 2, 267580.924722, -4554
Refix G09: 2, 267580.922908, -4072
Refix G14: 2, 267580.918021, 2505
Refix G16: 2, 267580.931764, 240
Refix G22: 2, 267580.916894, 1113
Refix G23: 2, 267580.929680, -2577
Refix G26: 2, 267580.926796, 1237
Refix G27: 2, 267580.930672, -3073
Refix G31: 2, 267580.921000, 906
$GNGGA,021923.000,2944.9064,N,10633.0934,E,1,11,0.9,327.1,M,,,,0000*1D
$GNRMC,021923.000,A,2944.9064,N,10633.0934,E,0.17,0.00,090180,,*19
$GPGSA,A,3,07,08,09,16,23,26,27,31,,,,,1.2,0.9,0.8*33
$BDGSA,A,3,01,02,03,,,,,,,,,,1.2,0.9,0.8*21
$GLGSA,A,3,,,,,,,,,,,,,1.2,0.9,0.8*2C
$GPGSV,3,1,11,07,06,298,40,08,31,188,41,09,24,316,42,16,63,004,44*78
$GPGSV,3,2,11,23,57,295,44,26,39,039,43,27,58,153,44,31,22,093,43*76
$GPGSV,3,3,11,03,15,228,00,14,08,148,00,22,08,210,00*4D
$BDGSV,3,1,12,01,40,125,41,02,45,218,41,03,54,172,45,04,23,109,42*6E
$BDGSV,3,2,12,16,49,175,43,19,20,297,41,23,21,077,43,27,32,160,43*66
$BDGSV,3,3,12,32,13,189,41,06,43,169,00,07,65,007,00,09,68,203,00*67
$B3CN0,0,0,0,0,0,0,0,0,0,0,0,0,0,0*4C
$ini_pos,lastpos_good = 1,ini_pos.x:-1578916.541222,ini_pos.y:5312772.954014,ini_pos.z:3146355.871395
Refix G03: 2, 267581.919495, 1314
Refix G07: 2, 267581.915145, -3653
Refix G08: 2, 267581.924724, -4557
Refix G09: 2, 267581.922911, -4075
Refix G14: 2, 267581.918019, 2502
Refix G16: 2, 267581.931764, 237
Refix G22: 2, 267581.916893, 1110
Refix G23: 2, 267581.929682, -2580
Refix G26: 2, 267581.926796, 1233
Refix G27: 2, 267581.930674, -3076
Refix G31: 2, 267581.921000, 903
$GNGGA,021924.000,2944.9062,N,10633.0932,E,1,11,0.9,327.6,M,,,,0000*1D
$GNRMC,021924.000,A,2944.9062,N,10633.0932,E,0.20,0.00,090180,,*1A
$GPGSA,A,3,07,08,09,16,23,26,27,31,,,,,1.2,0.9,0.8*33
$BDGSA,A,3,01,02,03,,,,,,,,,,1.2,0.9,0.8*21
$GLGSA,A,3,,,,,,,,,,,,,1.2,0.9,0.8*2C
$GPGSV,3,1,11,07,06,298,40,08,31,188,42,09,24,316,42,16,63,004,44*7B
$GPGSV,3,2,11,23,57,295,44,26,39,039,43,27,58,153,44,31,22,093,43*76
$GPGSV,3,3,11,03,15,228,00,14,08,148,00,22,08,210,00*4D
$BDGSV,3,1,12,01,40,125,41,02,45,218,41,03,54,172,43,04,23,109,41*6B
$BDGSV,3,2,12,16,49,175,43,19,20,297,41,23,21,077,42,27,32,160,43*67
$BDGSV,3,3,12,32,13,189,40,06,43,169,00,07,65,007,00,09,68,203,00*66
$B3CN0,0,0,0,0,0,0,0,0,0,0,0,0,0,0*4C
$ini_pos,lastpos_good = 1,ini_pos.x:-1578916.298626,ini_pos.y:5312773.615751,ini_pos.z:3146355.880823
Refix G03: 2, 267582.919494, 1314
Refix G07: 2, 267582.915147, -3652
Refix G08: 2, 267582.924727, -4556
Refix G09: 2, 267582.922913, -4074
Refix G14: 2, 267582.918018, 2503
Refix G16: 2, 267582.931764, 239
Refix G22: 2, 267582.916892, 1110
Refix G23: 2, 267582.929683, -2578
Refix G26: 2, 267582.926795, 1235
Refix G27: 2, 267582.930676, -3073
Refix G31: 2, 267582.920999, 904
$GNGGA,021925.000,2944.9062,N,10633.0931,E,1,11,0.9,327.7,M,,,,0000*1E
$GNRMC,021925.000,A,2944.9062,N,10633.0931,E,0.24,0.00,090180,,*1C
$GPGSA,A,3,07,08,09,16,23,26,27,31,,,,,1.2,0.9,0.8*33
$BDGSA,A,3,01,02,03,,,,,,,,,,1.2,0.9,0.8*21
$GLGSA,A,3,,,,,,,,,,,,,1.2,0.9,0.8*2C
$GPGSV,3,1,11,07,06,298,40,08,31,188,42,09,24,316,42,16,63,004,44*7B
$GPGSV,3,2,11,23,57,295,44,26,39,039,44,27,58,153,44,31,22,093,43*71
$GPGSV,3,3,11,03,15,228,00,14,08,148,00,22,08,210,00*4D
$BDGSV,3,1,12,01,40,125,40,02,45,218,40,03,54,172,43,04,23,109,40*6A
$BDGSV,3,2,12,16,49,175,43,19,20,297,41,23,21,077,42,27,32,160,42*66
$BDGSV,3,3,12,32,13,189,40,06,43,169,00,07,65,007,00,09,68,203,00*66
$B3CN0,0,0,0,0,0,0,0,0,0,0,0,0,0,0*4C
$ini_pos,lastpos_good = 1,ini_pos.x:-1578916.246332,ini_pos.y:5312773.739715,ini_pos.z:3146355.948339
Refix G03: 2, 267583.919493, 1324
Refix G07: 2, 267583.915149, -3643
Refix G08: 2, 267583.924730, -4545
Refix G09: 2, 267583.922916, -4063
Refix G14: 2, 267583.918016, 2513
Refix G16: 2, 267583.931764, 250
Refix G22: 2, 267583.916892, 1120
Refix G23: 2, 267583.929685, -2566
Refix G26: 2, 267583.926794, 1246
Refix G27: 2, 267583.930678, -3062
Refix G31: 2, 267583.920998, 914
$GNGGA,021926.000,2944.9062,N,10633.0930,E,1,11,0.9,328.2,M,,,,0000*16
$GNRMC,021926.000,A,2944.9062,N,10633.0930,E,0.25,0.00,090180,,*1F
$GPGSA,A,3,07,08,09,16,23,26,27,31,,,,,1.2,0.9,0.8*33
$BDGSA,A,3,01,02,03,,,,,,,,,,1.2,0.9,0.8*21
$GLGSA,A,3,,,,,,,,,,,,,1.2,0.9,0.8*2C
$GPGSV,3,1,11,07,06,298,40,08,31,188,42,09,24,316,42,16,63,004,45*7A
$GPGSV,3,2,11,23,57,295,45,26,39,039,44,27,58,153,45,31,22,093,43*71
$GPGSV,3,3,11,03,15,228,00,14,08,148,00,22,08,210,00*4D
$BDGSV,3,1,12,01,40,125,41,02,45,218,41,03,54,172,43,04,23,109,41*6B
$BDGSV,3,2,12,16,49,175,43,19,20,297,41,23,21,077,42,27,32,160,42*66
$BDGSV,3,3,12,32,13,189,39,06,43,169,00,07,65,007,00,09,68,203,00*68
$B3CN0,36,0,0,0,0,0,0,0,0,0,0,0,0,0*79
$ini_pos,lastpos_good = 1,ini_pos.x:-1578916.260518,ini_pos.y:5312774.192023,ini_pos.z:3146356.160736
Refix G03: 2, 267584.919492, 1325
Refix G07: 2, 267584.915152, -3641
Refix G08: 2, 267584.924733, -4544
Refix G09: 2, 267584.922918, -4061
Refix G14: 2, 267584.918015, 2514
Refix G16: 2, 267584.931763, 252
Refix G22: 2, 267584.916891, 1121
Refix G23: 2, 267584.929687, -2564
Refix G26: 2, 267584.926793, 1247
Refix G27: 2, 267584.930680, -3060
Refix G31: 2, 267584.920998, 915
$GNGGA,021927.000,2944.9061,N,10633.0930,E,1,11,0.9,328.3,M,,,,0000*15
$GNRMC,021927.000,A,2944.9061,N,10633.0930,E,0.08,0.00,080519,,*17
$GPGSA,A,3,07,08,09,16,23,26,27,31,,,,,1.2,0.9,0.8*33
$BDGSA,A,3,01,02,03,,,,,,,,,,1.2,0.9,0.8*21
$GLGSA,A,3,,,,,,,,,,,,,1.2,0.9,0.8*2C
$GPGSV,3,1,11,07,06,298,40,08,31,188,42,09,24,316,42,16,63,004,44*7B
$GPGSV,3,2,11,23,57,295,44,26,39,039,45,27,58,153,45,31,22,093,43*71
$GPGSV,3,3,11,03,15,228,00,14,08,148,00,22,08,210,00*4D
$BDGSV,3,1,12,01,40,125,41,02,45,218,41,03,54,172,45,04,23,109,42*6E
$BDGSV,3,2,12,16,49,175,43,19,20,297,41,23,21,077,42,27,32,160,42*66
$BDGSV,3,3,12,32,13,189,39,06,43,169,00,07,65,007,00,09,68,203,00*68
$B3CN0,18,0,0,0,0,0,0,0,0,0,0,0,0,0*75
$ini_pos,lastpos_good = 1,ini_pos.x:-1578916.218899,ini_pos.y:5312774.378594,ini_pos.z:3146356.058854
Refix G03: 2, 267585.919491, 1318
Refix G07: 2, 267585.915154, -3648
Refix G08: 2, 267585.924736, -4551
Refix G09: 2, 267585.922921, -4068
Refix G14: 2, 267585.918013, 2507
Refix G16: 2, 267585.931763, 244
Refix G22: 2, 267585.916890, 1114
Refix G23: 2, 267585.929688, -2572
Refix G26: 2, 267585.926792, 1239
Refix G27: 2, 267585.930682, -3069
Refix G31: 2, 267585.920997, 908
$GNGGA,021928.000,2944.9057,N,10633.0929,E,1,17,0.7,329.1,M,,,,0000*1C
$GNRMC,021928.000,A,2944.9057,N,10633.0929,E,0.10,0.00,080519,,*1C
$GPGSA,A,3,07,08,09,16,23,26,27,31,,,,,1.0,0.7,0.6*31
$BDGSA,A,3,01,02,03,06,16,19,23,27,32,,,,1.0,0.7,0.6*2F
$GLGSA,A,3,,,,,,,,,,,,,1.0,0.7,0.6*2E
$GPGSV,3,1,11,07,06,298,40,08,31,188,42,09,24,316,42,16,63,004,44*7B
$GPGSV,3,2,11,23,57,295,44,26,39,039,44,27,58,153,45,31,22,093,43*70
$GPGSV,3,3,11,03,15,228,00,14,08,148,00,22,08,210,00*4D
$BDGSV,3,1,12,01,40,125,41,02,45,218,41,03,54,172,45,04,23,109,41*6D
$BDGSV,3,2,12,06,43,169,19,09,68,203,34,10,62,299,33,16,49,175,43*65
$BDGSV,3,3,12,19,20,297,41,23,21,077,42,27,32,160,42,32,13,189,39*60
$B3CN0,0,0,0,0,0,0,0,0,0,0,0,0,0,0*4C
$ini_pos,lastpos_good = 1,ini_pos.x:-1578916.483866,ini_pos.y:5312775.447757,ini_pos.z:3146355.869027
Refix G03: 2, 267586.919491, 1321
Refix G07: 2, 267586.915156, -3646
Refix G08: 2, 267586.924739, -4548
Refix G09: 2, 267586.922924, -4065
Refix G14: 2, 267586.918011, 2510
Refix G16: 2, 267586.931763, 248
Refix G22: 2, 267586.916889, 1116
Refix G23: 2, 267586.929690, -2568
Refix G26: 2, 267586.926792, 1243
Refix G27: 2, 267586.930684, -3064
Refix G31: 2, 267586.920997, 912
$GNGGA,021929.000,2944.9057,N,10633.0929,E,1,17,0.7,329.4,M,,,,0000*18
$GNRMC,021929.000,A,2944.9057,N,10633.0929,E,0.11,0.00,080519,,*1C
$GPGSA,A,3,07,08,09,16,23,26,27,31,,,,,1.0,0.7,0.6*31
$BDGSA,A,3,01,02,03,06,16,19,23,27,32,,,,1.0,0.7,0.6*2F
$GLGSA,A,3,,,,,,,,,,,,,1.0,0.7,0.6*2E
$GPGSV,3,1,11,07,06,298,40,08,31,188,42,09,24,316,42,16,63,004,45*7A
$GPGSV,3,2,11,23,57,295,45,26,39,039,44,27,58,153,45,31,22,093,43*71
$GPGSV,3,3,11,03,15,228,00,14,08,148,00,22,08,210,00*4D
$BDGSV,3,1,12,01,40,125,41,02,45,218,40,03,54,172,42,04,23,109,41*6B
$BDGSV,3,2,12,06,43,169,43,07,65,007,45,09,68,203,43,10,62,299,44*66
$BDGSV,3,3,12,16,49,175,42,19,20,297,40,23,21,077,42,27,32,160,42*67
$B3CN0,0,0,0,0,0,0,0,0,0,0,0,0,0,0*4C
$ini_pos,lastpos_good = 1,ini_pos.x:-1578916.545570,ini_pos.y:5312775.733966,ini_pos.z:3146355.959006
Refix G03: 2, 267587.919490, 1317
Refix G07: 2, 267587.915158, -3650
Refix G08: 2, 267587.924742, -4553
Refix G09: 2, 267587.922926, -4069
Refix G14: 2, 267587.918010, 2505
Refix G16: 2, 267587.931763, 242
Refix G22: 2, 267587.916889, 1112
Refix G23: 2, 267587.929691, -2573
Refix G26: 2, 267587.926791, 1237
Refix G27: 2, 267587.930685, -3069
Refix G31: 2, 267587.920996, 906
$GNGGA,021930.000,2944.9057,N,10633.0929,E,1,17,0.7,329.4,M,,,,0000*10
$GNRMC,021930.000,A,2944.9057,N,10633.0929,E,0.14,0.00,080519,,*11
$GPGSA,A,3,07,08,09,16,23,26,27,31,,,,,1.0,0.7,0.6*31
$BDGSA,A,3,01,02,03,06,16,19,23,27,32,,,,1.0,0.7,0.6*2F
$GLGSA,A,3,,,,,,,,,,,,,1.0,0.7,0.6*2E
$GPGSV,3,1,11,07,06,298,40,08,31,188,42,09,24,316,43,16,63,004,45*7B
$GPGSV,3,2,11,23,57,295,45,26,39,039,44,27,58,153,45,31,22,093,43*71
$GPGSV,3,3,11,03,15,228,00,14,08,148,00,22,08,210,00*4D
$BDGSV,3,1,12,01,40,125,41,02,45,218,40,03,54,172,43,04,23,109,41*6A
$BDGSV,3,2,12,06,43,169,42,07,65,007,43,09,68,203,43,10,62,299,44*61
$BDGSV,3,3,12,16,49,175,43,19,20,297,41,23,21,077,42,27,32,160,43*66
$B3CN0,0,0,0,0,0,0,0,0,0,0,0,0,0,0*4C
$ini_pos,lastpos_good = 1,ini_pos.x:-1578916.468960,ini_pos.y:5312775.741968,ini_pos.z:3146355.926771
Refix G03: 2, 267588.919489, 1313
Refix G07: 2, 267588.915161, -3655
Refix G08: 2, 267588.924744, -4556
Refix G09: 2, 267588.922929, -4073
Refix G14: 2, 267588.918008, 2502
Refix G16: 2, 267588.931763, 239
Refix G22: 2, 267588.916888, 1108
Refix G23: 2, 267588.929693, -2576
Refix G26: 2, 267588.926790, 1234
Refix G27: 2, 267588.930687, -3072
Refix G31: 2, 267588.920995, 903
$GNGGA,021931.000,2944.9057,N,10633.0929,E,1,17,0.7,329.5,M,,,,0000*10
$GNRMC,021931.000,A,2944.9057,N,10633.0929,E,0.06,0.00,080519,,*13
$GPGSA,A,3,07,08,09,16,23,26,27,31,,,,,1.0,0.7,0.6*31
$BDGSA,A,3,01,02,03,06,16,19,23,27,32,,,,1.0,0.7,0.6*2F
$GLGSA,A,3,,,,,,,,,,,,,1.0,0.7,0.6*2E
$GPGSV,3,1,11,07,06,298,40,08,31,188,42,09,24,316,42,16,63,004,44*7B
$GPGSV,3,2,11,23,57,295,45,26,39,039,43,27,58,153,45,31,22,093,43*76
$GPGSV,3,3,11,03,15,228,00,14,08,148,00,22,08,210,00*4D
$BDGSV,3,1,12,01,40,125,41,02,45,218,39,03,54,172,45,04,23,109,41*62
$BDGSV,3,2,12,06,43,169,42,07,65,007,43,09,68,203,43,10,62,299,43*66
$BDGSV,3,3,12,16,49,175,43,19,20,297,40,23,21,077,42,27,32,160,42*66
$B3CN0,0,0,0,0,0,0,0,0,0,0,0,0,0,0*4C
$ini_pos,lastpos_good = 1,ini_pos.x:-1578916.451772,ini_pos.y:5312775.798022,ini_pos.z:3146356.015955
Refix G03: 2, 267589.919488, 1313
Refix G07: 2, 267589.915163, -3654
Refix G08: 2, 267589.924747, -4555
Refix G09: 2, 267589.922931, -4072
Refix G14: 2, 267589.918006, 2502
Refix G16: 2, 267589.931763, 241
Refix G22: 2, 267589.916887, 1108
Refix G23: 2, 267589.929695, -2574
Refix G26: 2, 267589.926789, 1236
Refix G27: 2, 267589.930689, -3070
Refix G31: 2, 267589.920995, 904
$GNGGA,021932.000,2944.9057,N,10633.0928,E,1,17,0.7,329.7,M,,,,0000*10
$GNRMC,021932.000,A,2944.9057,N,10633.0928,E,0.24,0.00,080519,,*11
$GPGSA,A,3,07,08,09,16,23,26,27,31,,,,,1.0,0.7,0.6*31
$BDGSA,A,3,01,02,03,06,16,19,23,27,32,,,,1.0,0.7,0.6*2F
$GLGSA,A,3,,,,,,,,,,,,,1.0,0.7,0.6*2E
$GPGSV,3,1,11,07,06,298,40,08,31,188,42,09,24,316,42,16,63,004,45*7A
$GPGSV,3,2,11,23,57,295,44,26,39,039,44,27,58,153,45,31,22,093,43*70
$GPGSV,3,3,11,03,15,228,00,14,08,148,00,22,08,210,00*4D
$BDGSV,3,1,12,01,40,125,41,02,45,218,40,03,54,172,45,04,23,109,41*6C
$BDGSV,3,2,12,06,43,169,41,07,65,007,43,09,68,203,43,10,62,299,43*65
$BDGSV,3,3,12,16,49,175,43,19,20,297,41,23,21,077,42,27,32,160,42*67
$B3CN0,0,0,0,0,0,0,0,0,0,0,0,0,0,0*4C
$ini_pos,lastpos_good = 1,ini_pos.x:-1578916.444390,ini_pos.y:5312775.986515,ini_pos.z:3146356.055506
Refix G03: 2, 267590.919487, 1328
Refix G07: 2, 267590.915165, -3641
Refix G08: 2, 267590.924750, -4539
Refix G09: 2, 267590.922934, -4057
Refix G14: 2, 267590.918005, 2516
Refix G16: 2, 267590.931762, 258
Refix G22: 2, 267590.916886, 1122
Refix G23: 2, 267590.929696, -2557
Refix G26: 2, 267590.926788, 1251
Refix G27: 2, 267590.930691, -3053
Refix G31: 2, 267590.920994, 918
$GNGGA,021933.000,2944.9057,N,10633.0928,E,1,17,0.7,329.9,M,,,,0000*1F
$GNRMC,021933.000,A,2944.9057,N,10633.0928,E,0.10,0.00,080519,,*17
$GPGSA,A,3,07,08,09,16,23,26,27,31,,,,,1.0,0.7,0.6*31
$BDGSA,A,3,01,02,03,06,16,19,23,27,32,,,,1.0,0.7,0.6*2F
$GLGSA,A,3,,,,,,,,,,,,,1.0,0.7,0.6*2E
$GPGSV,3,1,11,07,06,298,40,08,31,188,42,09,24,316,42,16,63,004,44*7B
$GPGSV,3,2,11,23,57,295,44,26,39,039,43,27,58,153,45,31,22,093,43*77
$GPGSV,3,3,11,03,15,228,00,14,08,148,00,22,08,210,00*4D
$BDGSV,3,1,12,01,40,125,41,02,45,218,41,03,54,172,43,04,23,109,41*6B
$BDGSV,3,2,12,06,43,169,42,07,65,007,44,09,68,203,43,10,62,299,43*61
$BDGSV,3,3,12,16,49,175,43,19,20,297,41,23,21,077,43,27,32,160,43*67
$B3CN0,0,0,0,0,0,0,0,0,0,0,0,0,0,0*4C
$ini_pos,lastpos_good = 1,ini_pos.x:-1578916.447944,ini_pos.y:5312776.136491,ini_pos.z:3146356.242949
Refix G03: 2, 267591.919486, 1316
Refix G07: 2, 267591.915168, -3652
Refix G08: 2, 267591.924753, -4552
Refix G09: 2, 267591.922936, -4068
Refix G14: 2, 267591.918003, 2505
Refix G16: 2, 267591.931762, 245
Refix G22: 2, 267591.916886, 1110
Refix G23: 2, 267591.929698, -2570
Refix G26: 2, 267591.926787, 1239
Refix G27: 2, 267591.930693, -3066
Refix G31: 2, 267591.920994, 907
$GNGGA,021934.000,2944.9058,N,10633.0927,E,1,20,0.7,329.5,M,,,,0000*10
$GNRMC,021934.000,A,2944.9058,N,10633.0927,E,0.36,0.00,080519,,*14
$GPGSA,A,3,07,08,09,16,23,26,27,31,,,,,0.8,0.7,0.4*3A
$BDGSA,A,3,01,02,03,06,07,09,10,16,19,23,27,32,0.8,0.7,0.4*2B
$GLGSA,A,3,,,,,,,,,,,,,0.8,0.7,0.4*25
$GPGSV,3,1,11,07,06,298,40,08,31,188,42,09,24,316,42,16,63,004,44*7B
$GPGSV,3,2,11,23,57,295,44,26,39,039,44,27,58,153,45,31,22,093,43*70
$GPGSV,3,3,11,03,15,228,00,14,08,148,00,22,08,210,00*4D
$BDGSV,3,1,12,01,40,125,40,02,45,218,40,03,54,172,43,04,23,109,41*6B
$BDGSV,3,2,12,06,43,169,42,07,65,007,43,09,68,203,43,10,62,299,43*66
$BDGSV,3,3,12,16,49,175,43,19,20,297,41,23,21,077,42,27,32,160,43*66
$B3CN0,0,0,0,0,0,0,0,0,0,0,0,0,0,0*4C
$ini_pos,lastpos_good = 1,ini_pos.x:-1578916.258311,ini_pos.y:5312775.832680,ini_pos.z:3146356.127879
Refix G03: 2, 267592.919485, 1318
Refix G07: 2, 267592.915170, -3649
Refix G08: 2, 267592.924756, -4549
Refix G09: 2, 267592.922939, -4066
Refix G14: 2, 267592.918002, 2508
Refix G16: 2, 267592.931762, 247
Refix G22: 2, 267592.916885, 1112
Refix G23: 2, 267592.929699, -2567
Refix G26: 2, 267592.926787, 1241
Refix G27: 2, 267592.930695, -3063
Refix G31: 2, 267592.920993, 909
$GNGGA,021935.000,2944.9058,N,10633.0928,E,1,20,0.7,329.4,M,,,,0000*1F
$GNRMC,021935.000,A,2944.9058,N,10633.0928,E,0.13,0.00,080519,,*1D
$GPGSA,A,3,07,08,09,16,23,26,27,31,,,,,0.8,0.7,0.4*3A
$BDGSA,A,3,01,02,03,06,07,09,10,16,19,23,27,32,0.8,0.7,0.4*2B
$GLGSA,A,3,,,,,,,,,,,,,0.8,0.7,0.4*25
$GPGSV,3,1,11,07,06,298,41,08,31,188,42,09,24,316,42,16,63,004,45*7B
$GPGSV,3,2,11,23,57,295,44,26,39,039,44,27,58,153,45,31,22,093,43*70
$GPGSV,3,3,11,03,15,228,00,14,08,148,00,22,08,210,00*4D
$BDGSV,3,1,12,01,40,125,41,02,45,218,41,03,54,172,45,04,23,109,40*6C
$BDGSV,3,2,12,06,43,169,41,07,65,007,44,09,68,203,43,10,62,299,43*62
$BDGSV,3,3,12,16,49,175,43,19,20,297,41,23,21,077,42,27,32,160,43*66
$B3CN0,0,0,0,0,0,0,0,0,0,0,0,0,0,0*4C
$ini_pos,lastpos_good = 1,ini_pos.x:-1578916.263898,ini_pos.y:5312775.715889,ini_pos.z:3146356.081143
Refix G03: 2, 267593.919484, 1326
Refix G07: 2, 267593.915172, -3643
Refix G08: 2, 267593.924759, -4541
Refix G09: 2, 267593.922941, -4058
Refix G14: 2, 267593.918000, 2515
Refix G16: 2, 267593.931762, 256
Refix G22: 2, 267593.916884, 1119
Refix G23: 2, 267593.929701, -2559
Refix G26: 2, 267593.926786, 1249
Refix G27: 2, 267593.930697, -3054
Refix G31: 2, 267593.920992, 917
$GNGGA,021936.000,2944.9058,N,10633.0927,E,1,20,0.7,329.3,M,,,,0000*14
$GNRMC,021936.000,A,2944.9058,N,10633.0927,E,0.23,0.00,080519,,*12
$GPGSA,A,3,07,08,09,16,23,26,27,31,,,,,0.8,0.7,0.4*3A
$BDGSA,A,3,01,02,03,06,07,09,10,16,19,23,27,32,0.8,0.7,0.4*2B
$GLGSA,A,3,,,,,,,,,,,,,0.8,0.7,0.4*25
$GPGSV,3,1,11,07,06,298,41,08,31,188,42,09,24,316,42,16,63,004,44*7A
$GPGSV,3,2,11,23,57,295,44,26,39,039,43,27,58,153,45,31,22,093,43*77
$GPGSV,3,3,11,03,15,228,00,14,08,148,00,22,08,210,00*4D
$BDGSV,3,1,12,01,40,125,41,02,45,218,41,03,54,172,43,04,23,109,40*6A
$BDGSV,3,2,12,06,43,169,41,07,65,007,43,09,68,203,43,10,62,299,43*65
$BDGSV,3,3,12,16,49,175,43,19,20,297,41,23,21,077,42,27,32,160,42*67
$B3CN0,0,0,0,0,0,0,0,0,0,0,0,0,0,0*4C
$ini_pos,lastpos_good = 1,ini_pos.x:-1578916.197786,ini_pos.y:5312775.596722,ini_pos.z:3146356.124022
Refix G03: 2, 267594.919484, 1322
Refix G07: 2, 267594.915174, -3646
Refix G08: 2, 267594.924762, -4545
Refix G09: 2, 267594.922944, -4062
Refix G14: 2, 267594.917998, 2512
Refix G16: 2, 267594.931762, 251
Refix G22: 2, 267594.916883, 1116
Refix G23: 2, 267594.929703, -2563
Refix G26: 2, 267594.926785, 1244
Refix G27: 2, 267594.930699, -3059
Refix G31: 2, 267594.920992, 913
$GNGGA,021937.000,2944.9059,N,10633.0928,E,1,20,0.7,329.2,M,,,,0000*1A
$GNRMC,021937.000,A,2944.9059,N,10633.0928,E,0.13,0.00,080519,,*1E
$GPGSA,A,3,07,08,09,16,23,26,27,31,,,,,0.8,0.7,0.4*3A
$BDGSA,A,3,01,02,03,06,07,09,10,16,19,23,27,32,0.8,0.7,0.4*2B
$GLGSA,A,3,,,,,,,,,,,,,0.8,0.7,0.4*25
$GPGSV,3,1,11,07,06,298,40,08,31,188,42,09,24,316,42,16,63,004,44*7B
$GPGSV,3,2,11,23,57,295,44,26,39,039,43,27,58,153,44,31,22,093,43*76
$GPGSV,3,3,11,03,15,228,00,14,08,148,00,22,08,210,00*4D
$BDGSV,3,1,12,01,40,125,41,02,45,218,40,03,54,172,45,04,23,109,41*6C
$BDGSV,3,2,12,06,43,169,41,07,65,007,44,09,68,203,43,10,62,299,44*65
$BDGSV,3,3,12,16,49,175,43,19,20,297,42,23,21,077,42,27,32,160,43*65
$B3CN0,0,0,0,0,0,0,0,0,0,0,0,0,0,0*4C
$ini_pos,lastpos_good = 1,ini_pos.x:-1578916.234538,ini_pos.y:5312775.456917,ini_pos.z:3146356.116404
Refix G03: 2, 267595.919483, 1318
Refix G07: 2, 267595.915177, -3650
Refix G08: 2, 267595.924764, -4550
Refix G09: 2, 267595.922947, -4066
Refix G14: 2, 267595.917997, 2508
Refix G16: 2, 267595.931761, 245
Refix G22: 2, 267595.916883, 1112
Refix G23: 2, 267595.929704, -2568
Refix G26: 2, 267595.926784, 1239
Refix G27: 2, 267595.930701, -3064
Refix G31: 2, 267595.920991, 909
$GNGGA,021938.000,2944.9059,N,10633.0929,E,1,20,0.7,329.5,M,,,,0000*13
$GNRMC,021938.000,A,2944.9059,N,10633.0929,E,0.08,0.00,080519,,*1A
$GPGSA,A,3,07,08,09,16,23,26,27,31,,,,,0.8,0.7,0.4*3A
$BDGSA,A,3,01,02,03,06,07,09,10,16,19,23,27,32,0.8,0.7,0.4*2B
$GLGSA,A,3,,,,,,,,,,,,,0.8,0.7,0.4*25
$GPGSV,3,1,11,07,06,298,40,08,31,188,42,09,24,316,42,16,63,004,44*7B
$GPGSV,3,2,11,23,57,295,44,26,39,039,43,27,58,153,44,31,22,093,43*76
$GPGSV,3,3,11,03,15,228,00,14,08,148,00,22,08,210,00*4D
$BDGSV,3,1,12,01,40,125,41,02,45,218,40,03,54,172,43,04,23,109,39*65
$BDGSV,3,2,12,06,43,169,41,07,65,007,44,09,68,203,43,10,62,299,44*65
$BDGSV,3,3,12,16,49,175,43,19,20,297,41,23,21,077,42,27,32,160,42*67
$B3CN0,0,0,0,0,0,0,0,0,0,0,0,0,0,0*4C
$ini_pos,lastpos_good = 1,ini_pos.x:-1578916.449000,ini_pos.y:5312775.687427,ini_pos.z:3146356.334976
Refix G03: 2, 267596.919482, 1327
Refix G07: 2, 267596.915179, -3642
Refix G08: 2, 267596.924767, -4539
Refix G09: 2, 267596.922949, -4056
Refix G14: 2, 267596.917995, 2517
Refix G16: 2, 267596.931761, 258
Refix G22: 2, 267596.916882, 1121
Refix G23: 2, 267596.929706, -2556
Refix G26: 2, 267596.926783, 1250
Refix G27: 2, 267596.930703, -3051
Refix G31: 2, 267596.920991, 919
$GNGGA,021939.000,2944.9058,N,10633.0929,E,1,20,0.7,330.0,M,,,,0000*1E
$GNRMC,021939.000,A,2944.9058,N,10633.0929,E,0.13,0.00,080519,,*10
$GPGSA,A,3,07,08,09,16,23,26,27,31,,,,,0.8,0.7,0.4*3A
$BDGSA,A,3,01,02,03,06,07,09,10,16,19,23,27,32,0.8,0.7,0.4*2B
$GLGSA,A,3,,,,,,,,,,,,,0.8,0.7,0.4*25
$GPGSV,3,1,11,07,06,298,41,08,31,188,42,09,24,316,42,16,63,004,44*7A
$GPGSV,3,2,11,23,57,295,44,26,39,039,43,27,58,153,45,31,22,093,42*76
$GPGSV,3,3,11,03,15,228,00,14,08,148,00,22,08,210,00*4D
$BDGSV,3,1,12,01,40,125,41,02,45,218,40,03,54,172,43,04,23,109,41*6A
$BDGSV,3,2,12,06,43,169,41,07,65,007,44,09,68,203,43,10,62,299,44*65
$BDGSV,3,3,12,16,49,175,43,19,20,297,41,23,21,077,42,27,32,160,42*67
$B3CN0,22,0,0,0,0,0,0,0,0,0,0,0,0,0*7C
$GLGSV,2,1,08,08,00,000,47,07,00,000,47,19,00,000,37,20,00,000,40*6B
$GLGSV,2,2,08,01,00,000,37,11,00,000,40,09,00,000,46,26,00,000,45*62
$ini_pos,lastpos_good = 1,ini_pos.x:-1578916.636616,ini_pos.y:5312776.068310,ini_pos.z:3146356.488961
Refix G03: 2, 267597.919481, 1336
Refix G07: 2, 267597.915181, -3633
Refix G08: 2, 267597.924770, -4529
Refix G09: 2, 267597.922952, -4046
Refix G14: 2, 267597.917993, 2526
Refix G16: 2, 267597.931761, 268
Refix G22: 2, 267597.916881, 1129
Refix G23: 2, 267597.929707, -2546
Refix G26: 2, 267597.926783, 1260
Refix G27: 2, 267597.930705, -3041
Refix G31: 2, 267597.920990, 929
$GNGGA,021940.000,2944.9059,N,10633.0930,E,1,20,0.7,330.1,M,,,,0000*18
$GNRMC,021940.000,A,2944.9059,N,10633.0930,E,0.27,0.00,080519,,*10
$GPGSA,A,3,07,08,09,16,23,26,27,31,,,,,0.8,0.7,0.4*3A
$BDGSA,A,3,01,02,03,06,07,09,10,16,19,23,27,32,0.8,0.7,0.4*2B
$GLGSA,A,3,,,,,,,,,,,,,0.8,0.7,0.4*25
$GPGSV,3,1,11,07,06,298,41,08,31,188,43,09,24,316,42,16,63,004,44*7B
$GPGSV,3,2,11,23,57,295,44,26,39,039,44,27,58,153,45,31,22,093,42*71
$GPGSV,3,3,11,03,15,228,00,14,08,148,00,22,08,210,00*4D
$BDGSV,3,1,12,01,40,125,41,02,45,218,40,03,54,172,43,04,23,109,40*6B
$BDGSV,3,2,12,06,43,169,42,07,65,007,44,09,68,203,43,10,62,299,43*61
$BDGSV,3,3,12,16,49,175,43,19,20,297,41,23,21,077,42,27,32,160,42*67
$B3CN0,0,0,0,0,0,0,0,0,0,0,0,0,0,0*4C
$GLGSV,2,1,08,08,41,286,47,07,36,216,47,19,30,061,38,20,31,130,40*69
$GLGSV,2,2,08,01,13,326,37,11,06,280,40,09,39,030,45,26,00,000,46*62
$ini_pos,lastpos_good = 1,ini_pos.x:-1578916.700948,ini_pos.y:5312776.089413,ini_pos.z:3146356.566242
Refix G03: 2, 267598.919480, 1316
Refix G07: 2, 267598.915184, -3652
Refix G08: 2, 267598.924773, -4552
Refix G09: 2, 267598.922954, -4067
Refix G14: 2, 267598.917992, 2506
Refix G16: 2, 267598.931761, 244
Refix G22: 2, 267598.916881, 1109
Refix G23: 2, 267598.929709, -2569
Refix G26: 2, 267598.926782, 1237
Refix G27: 2, 267598.930706, -3065
Refix G31: 2, 267598.920989, 907
$GNGGA,021941.000,2944.9060,N,10633.0930,E,1,27,0.7,329.7,M,,,,0000*1A
$GNRMC,021941.000,A,2944.9060,N,10633.0930,E,0.19,0.00,080519,,*16
$GPGSA,A,3,07,08,09,16,23,26,27,31,,,,,0.8,0.7,0.4*3A
$BDGSA,A,3,01,02,03,06,07,09,10,16,19,23,27,32,0.8,0.7,0.4*2B
$GLGSA,A,3,01,07,08,09,11,19,20,,,,,,0.8,0.7,0.4*28
$GPGSV,3,1,11,07,06,298,41,08,31,188,42,09,24,316,42,16,63,004,45*7B
$GPGSV,3,2,11,23,57,295,44,26,39,039,43,27,58,152,44,31,22,093,42*76
$GPGSV,3,3,11,03,15,228,00,14,08,148,00,22,08,210,00*4D
$BDGSV,3,1,12,01,40,125,40,02,45,218,40,03,54,172,43,04,23,109,41*6B
$BDGSV,3,2,12,06,43,169,42,07,65,007,43,09,68,203,43,10,62,300,43*67
$BDGSV,3,3,12,16,49,175,42,19,20,297,41,23,21,077,42,27,33,160,42*67
$B3CN0,0,0,0,0,0,0,0,0,0,0,0,0,0,0*4C
$GLGSV,2,1,08,08,41,286,47,07,36,216,47,19,30,061,38,20,31,130,40*69
$GLGSV,2,2,08,01,13,326,37,11,06,280,40,09,39,030,45,26,00,000,45*61
$ini_pos,lastpos_good = 1,ini_pos.x:-1578916.715519,ini_pos.y:5312775.659763,ini_pos.z:3146356.514330
Refix G03: 2, 267599.919479, 1324
Refix G07: 2, 267599.915186, -3646
Refix G08: 2, 267599.924776, -4542
Refix G09: 2, 267599.922957, -4059
Refix G14: 2, 267599.917990, 2514
Refix G16: 2, 267599.931761, 254
Refix G22: 2, 267599.916880, 1117
Refix G23: 2, 267599.929711, -2559
Refix G26: 2, 267599.926781, 1246
Refix G27: 2, 267599.930708, -3054
Refix G31: 2, 267599.920989, 915
$GNGGA,021942.000,2944.9061,N,10633.0938,E,1,27,0.5,331.0,M,,,,0000*1C
$GNRMC,021942.000,A,2944.9061,N,10633.0938,E,0.12,0.00,080519,,*17
$GPGSA,A,3,07,08,09,16,23,26,27,31,,,,,0.6,0.5,0.4*36
$BDGSA,A,3,01,02,03,06,07,09,10,16,19,23,27,32,0.6,0.5,0.4*27
$GLGSA,A,3,01,07,08,09,11,19,20,,,,,,0.6,0.5,0.4*24
$GPGSV,3,1,11,07,06,298,41,08,31,188,42,09,24,316,42,16,63,004,45*7B
$GPGSV,3,2,11,23,57,295,44,26,39,039,43,27,58,152,45,31,22,093,42*77
$GPGSV,3,3,11,03,15,228,00,14,08,148,00,22,08,210,00*4D
$BDGSV,3,1,12,01,40,125,40,02,45,218,41,03,54,172,43,04,23,109,41*6A
$BDGSV,3,2,12,06,43,169,42,07,65,007,43,09,68,203,43,10,62,300,43*67
$BDGSV,3,3,12,16,49,175,43,19,20,297,41,23,21,077,42,27,33,160,42*66
$B3CN0,0,0,0,0,0,0,0,0,0,0,0,0,0,0*4C
$GLGSV,2,1,08,08,41,286,47,07,36,216,47,19,30,061,37,20,31,130,40*66
$GLGSV,2,2,08,01,13,326,37,11,06,280,40,09,39,030,45,26,00,000,46*62
$ini_pos,lastpos_good = 1,ini_pos.x:-1578918.227655,ini_pos.y:5312776.228602,ini_pos.z:3146357.390871
Refix G03: 2, 267600.919478, 1336
Refix G07: 2, 267600.915188, -3635
Refix G08: 2, 267600.924779, -4529
Refix G09: 2, 267600.922959, -4046
Refix G14: 2, 267600.917989, 2526
Refix G16: 2, 267600.931760, 268
Refix G22: 2, 267600.916879, 1128
Refix G23: 2, 267600.929712, -2545
Refix G26: 2, 267600.926780, 1259
Refix G27: 2, 267600.930710, -3040
Refix G31: 2, 267600.920988, 928
$GNGGA,021943.000,2944.9062,N,10633.0945,E,1,27,0.5,331.5,M,,,,0000*11
$GNRMC,021943.000,A,2944.9062,N,10633.0945,E,0.24,0.00,080519,,*1A
$GPGSA,A,3,07,08,09,16,23,26,27,31,,,,,0.6,0.5,0.4*36
$BDGSA,A,3,01,02,03,06,07,09,10,16,19,23,27,32,0.6,0.5,0.4*27
$GLGSA,A,3,01,07,08,09,11,19,20,,,,,,0.6,0.5,0.4*24
$GPGSV,3,1,11,07,06,298,41,08,31,188,41,09,24,316,42,16,63,004,44*79
$GPGSV,3,2,11,23,57,295,44,26,39,039,44,27,58,152,45,31,22,093,43*71
$GPGSV,3,3,11,03,15,228,00,14,08,148,00,22,08,210,00*4D
$BDGSV,3,1,12,01,40,125,41,02,45,218,40,03,54,172,43,04,23,109,41*6A
$BDGSV,3,2,12,06,43,169,41,07,65,007,44,09,68,203,43,10,62,300,43*63
$BDGSV,3,3,12,16,49,175,43,19,20,297,41,23,21,077,42,27,33,160,42*66
$B3CN0,0,0,0,0,0,0,0,0,0,0,0,0,0,0*4C
$GLGSV,2,1,08,08,41,286,47,07,36,216,47,19,30,061,37,20,31,130,40*66
$GLGSV,2,2,08,01,13,326,37,11,06,280,40,09,39,030,45,26,00,000,45*61
$ini_pos,lastpos_good = 1,ini_pos.x:-1578919.355685,ini_pos.y:5312776.311651,ini_pos.z:3146357.872742
Refix G03: 2, 267601.919477, 1327
Refix G07: 2, 267601.915190, -3643
Refix G08: 2, 267601.924782, -4539
Refix G09: 2, 267601.922962, -4056
Refix G14: 2, 267601.917987, 2517
Refix G16: 2, 267601.931760, 257
Refix G22: 2, 267601.916878, 1119
Refix G23: 2, 267601.929714, -2555
Refix G26: 2, 267601.926779, 1249
Refix G27: 2, 267601.930712, -3050
Refix G31: 2, 267601.920987, 919
$GNGGA,021944.000,2944.9064,N,10633.0950,E,1,27,0.5,331.7,M,,,,0000*16
$GNRMC,021944.000,A,2944.9064,N,10633.0950,E,0.23,0.00,080519,,*18
$GPGSA,A,3,07,08,09,16,23,26,27,31,,,,,0.6,0.5,0.4*36
$BDGSA,A,3,01,02,03,06,07,09,10,16,19,23,27,32,0.6,0.5,0.4*27
$GLGSA,A,3,01,07,08,09,11,19,20,,,,,,0.6,0.5,0.4*24
$GPGSV,3,1,11,07,06,298,40,08,31,188,42,09,24,316,42,16,63,004,44*7B
$GPGSV,3,2,11,23,57,295,44,26,39,039,44,27,58,152,44,31,22,093,43*70
$GPGSV,3,3,11,03,15,228,00,14,08,148,00,22,08,210,00*4D
$BDGSV,3,1,12,01,40,125,41,02,45,218,40,03,54,172,45,04,23,109,41*6C
$BDGSV,3,2,12,06,43,169,42,07,65,007,43,09,68,203,43,10,62,300,43*67
$BDGSV,3,3,12,16,49,175,42,19,20,297,41,23,21,077,42,27,33,160,42*67
$B3CN0,0,0,0,0,0,0,0,0,0,0,0,0,0,0*4C
$GLGSV,2,1,08,08,41,286,47,07,36,216,47,19,30,061,38,20,31,130,41*68
$GLGSV,2,2,08,01,13,326,37,11,06,280,40,09,39,030,45,26,00,000,45*61
$ini_pos,lastpos_good = 1,ini_pos.x:-1578920.127339,ini_pos.y:5312776.126285,ini_pos.z:3146358.216011
Refix G03: 2, 267602.919477, 1321
Refix G07: 2, 267602.915193, -3649
Refix G08: 2, 267602.924784, -4544
Refix G09: 2, 267602.922964, -4061
Refix G14: 2, 267602.917985, 2512
Refix G16: 2, 267602.931760, 253
Refix G22: 2, 267602.916878, 1114
Refix G23: 2, 267602.929715, -2560
Refix G26: 2, 267602.926778, 1244
Refix G27: 2, 267602.930714, -3055
Refix G31: 2, 267602.920987, 914
$GNGGA,021945.000,2944.9065,N,10633.0953,E,1,27,0.5,332.4,M,,,,0000*15
$GNRMC,021945.000,A,2944.9065,N,10633.0953,E,0.45,0.00,080519,,*1B
$GPGSA,A,3,07,08,09,16,23,26,27,31,,,,,0.6,0.5,0.4*36
$BDGSA,A,3,01,02,03,06,07,09,10,16,19,23,27,32,0.6,0.5,0.4*27
$GLGSA,A,3,01,07,08,09,11,19,20,,,,,,0.6,0.5,0.4*24
$GPGSV,3,1,11,07,06,298,40,08,31,188,42,09,24,316,43,16,63,004,44*7A
$GPGSV,3,2,11,23,57,295,44,26,39,039,44,27,58,152,45,31,22,093,43*71
$GPGSV,3,3,11,03,15,228,00,14,08,148,00,22,08,210,00*4D
$BDGSV,3,1,12,01,40,125,41,02,45,218,41,03,54,172,43,04,23,109,41*6B
$BDGSV,3,2,12,06,43,169,41,07,65,007,43,09,68,203,43,10,62,300,43*64
$BDGSV,3,3,12,16,49,175,43,19,20,297,41,23,21,077,42,27,33,160,42*66
$B3CN0,19,0,0,0,0,0,0,0,0,0,0,0,0,0*74
$GLGSV,2,1,08,08,41,286,47,07,36,216,47,19,30,061,37,20,31,130,40*66
$GLGSV,2,2,08,01,13,326,37,11,06,280,40,09,39,030,45,26,00,000,45*61
$ini_pos,lastpos_good = 1,ini_pos.x:-1578920.703695,ini_pos.y:5312776.504211,ini_pos.z:3146358.705035
Refix G03: 2, 267603.919476, 1326
Refix G07: 2, 267603.915195, -3645
Refix G08: 2, 267603.924787, -4539
Refix G09: 2, 267603.922967, -4056
Refix G14: 2, 267603.917984, 2516
Refix G16: 2, 267603.931760, 259
Refix G22: 2, 267603.916877, 1118
Refix G23: 2, 267603.929717, -2554
Refix G26: 2, 267603.926778, 1249
Refix G27: 2, 267603.930716, -3049
Refix G31: 2, 267603.920986, 918
$GNGGA,021946.000,2944.9065,N,10633.0954,E,1,27,0.5,333.1,M,,,,0000*15
$GNRMC,021946.000,A,2944.9065,N,10633.0954,E,0.27,0.00,080519,,*1B
$GPGSA,A,3,07,08,09,16,23,26,27,31,,,,,0.6,0.5,0.4*36
$BDGSA,A,3,01,02,03,06,07,09,10,16,19,23,27,32,0.6,0.5,0.4*27
$GLGSA,A,3,01,07,08,09,11,19,20,,,,,,0.6,0.5,0.4*24
$GPGSV,3,1,11,07,06,298,41,08,31,188,41,09,24,316,43,16,63,004,45*79
$GPGSV,3,2,11,23,57,295,44,26,39,039,44,27,58,152,45,31,22,093,42*70
$GPGSV,3,3,11,03,15,228,00,14,08,148,00,22,08,210,00*4D
$BDGSV,3,1,12,01,40,125,41,02,45,218,40,03,54,172,45,04,23,109,41*6C
$BDGSV,3,2,12,06,43,169,42,07,65,007,43,09,68,203,43,10,62,300,43*67
$BDGSV,3,3,12,16,49,175,43,19,20,297,41,23,21,077,42,27,33,160,42*66
$B3CN0,0,0,0,0,0,0,0,0,0,0,0,0,0,0*4C
$GLGSV,3,1,09,08,41,286,47,07,36,216,47,19,30,061,37,20,31,130,40*66
$GLGSV,3,2,09,01,13,326,37,11,06,280,40,09,39,030,45,26,00,000,45*61
$GLGSV,3,3,09,21,00,174,00*5D
$ini_pos,lastpos_good = 1,ini_pos.x:-1578921.130868,ini_pos.y:5312776.985703,ini_pos.z:3146359.070862
Refix G03: 2, 267604.919475, 1313
Refix G07: 2, 267604.915197, -3657
Refix G08: 2, 267604.924790, -4551
Refix G09: 2, 267604.922969, -4068
Refix G14: 2, 267604.917982, 2504
Refix G16: 2, 267604.931760, 245
Refix G22: 2, 267604.916876, 1105
Refix G23: 2, 267604.929719, -2567
Refix G26: 2, 267604.926777, 1236
Refix G27: 2, 267604.930718, -3062
Refix G31: 2, 267604.920986, 906
$GNGGA,021947.000,2944.9065,N,10633.0956,E,1,27,0.5,333.4,M,,,,0000*13
$GNRMC,021947.000,A,2944.9065,N,10633.0956,E,0.30,0.00,080519,,*1E
$GPGSA,A,3,07,08,09,16,23,26,27,31,,,,,0.6,0.5,0.4*36
$BDGSA,A,3,01,02,03,06,07,09,10,16,19,23,27,32,0.6,0.5,0.4*27
$GLGSA,A,3,01,07,08,09,11,19,20,,,,,,0.6,0.5,0.4*24
$GPGSV,3,1,11,07,06,298,40,08,31,188,42,09,24,316,42,16,63,004,45*7A
$GPGSV,3,2,11,23,57,295,44,26,39,039,44,27,58,152,44,31,22,093,42*71
$GPGSV,3,3,11,03,15,228,00,14,08,148,00,22,08,210,00*4D
$BDGSV,3,1,12,01,40,125,41,02,45,218,41,03,54,172,43,04,23,109,40*6A
$BDGSV,3,2,12,06,43,169,42,07,65,007,43,09,68,203,43,10,62,300,43*67
$BDGSV,3,3,12,16,49,175,43,19,20,297,41,23,21,077,42,27,33,160,42*66
$B3CN0,36,0,0,0,0,0,0,0,0,0,0,0,0,0*79
$GLGSV,3,1,09,08,41,286,46,07,36,216,47,19,30,061,37,20,31,130,40*67
$GLGSV,3,2,09,01,13,326,37,11,06,280,40,09,39,030,45,26,00,000,45*61
$GLGSV,3,3,09,21,00,174,00*5D
$ini_pos,lastpos_good = 1,ini_pos.x:-1578921.506833,ini_pos.y:5312777.141599,ini_pos.z:3146359.174844
Refix G03: 2, 267605.919474, 1317
Refix G07: 2, 267605.915200, -3653
Refix G08: 2, 267605.924793, -4547
Refix G09: 2, 267605.922972, -4064
Refix G14: 2, 267605.917980, 2508
Refix G16: 2, 267605.931759, 250
Refix G22: 2, 267605.916875, 1109
Refix G23: 2, 267605.929720, -2562
Refix G26: 2, 267605.926776, 1240
Refix G27: 2, 267605.930720, -3057
Refix G31: 2, 267605.920985, 909
$GNGGA,021948.000,2944.9065,N,10633.0959,E,1,27,0.5,334.3,M,,,,0000*13
$GNRMC,021948.000,A,2944.9065,N,10633.0959,E,0.15,0.00,080519,,*19
$GPGSA,A,3,07,08,09,16,23,26,27,31,,,,,0.6,0.5,0.4*36
$BDGSA,A,3,01,02,03,06,07,09,10,16,19,23,27,32,0.6,0.5,0.4*27
$GLGSA,A,3,01,07,08,09,11,19,20,,,,,,0.6,0.5,0.4*24
$GPGSV,3,1,11,07,06,298,40,08,31,188,42,09,24,316,43,16,63,004,45*7B
$GPGSV,3,2,11,23,57,295,43,26,39,039,43,27,58,152,44,31,22,093,43*70
$GPGSV,3,3,11,03,15,228,00,14,08,148,00,22,08,210,00*4D
$BDGSV,3,1,12,01,40,125,41,02,45,218,40,03,54,172,43,04,23,109,41*6A
$BDGSV,3,2,12,06,43,169,42,07,65,007,43,09,68,203,43,10,62,300,43*67
$BDGSV,3,3,12,16,49,175,43,19,20,297,41,23,21,077,42,27,33,160,42*66
$B3CN0,16,0,0,0,0,0,0,0,0,0,0,0,0,0*7B
$GLGSV,3,1,09,08,41,286,47,07,36,216,47,19,30,061,37,20,31,130,40*66
$GLGSV,3,2,09,01,13,326,38,11,06,280,40,09,39,030,45,26,00,000,45*6E
$GLGSV,3,3,09,21,00,174,00*5D
$ini_pos,lastpos_good = 1,ini_pos.x:-1578922.121765,ini_pos.y:5312777.733877,ini_pos.z:3146359.765237
Refix G03: 2, 267606.919473, 1316
Refix G07: 2, 267606.915202, -3655
Refix G08: 2, 267606.924796, -4549
Refix G09: 2, 267606.922975, -4064
Refix G14: 2, 267606.917979, 2506
Refix G16: 2, 267606.931759, 249
Refix G22: 2, 267606.916875, 1107
Refix G23: 2, 267606.929722, -2563
Refix G26: 2, 267606.926775, 1239
Refix G27: 2, 267606.930722, -3058
Refix G31: 2, 267606.920984, 909
$GNGGA,021949.000,2944.9065,N,10633.0959,E,1,27,0.5,334.6,M,,,,0000*17
$GNRMC,021949.000,A,2944.9065,N,10633.0959,E,0.24,0.00,080519,,*1A
$GPGSA,A,3,07,08,09,16,23,26,27,31,,,,,0.6,0.5,0.4*36
$BDGSA,A,3,01,02,03,06,07,09,10,16,19,23,27,32,0.6,0.5,0.4*27
$GLGSA,A,3,01,07,08,09,11,19,20,,,,,,0.6,0.5,0.4*24
$GPGSV,3,1,11,07,06,298,40,08,31,188,42,09,24,316,42,16,63,004,44*7B
$GPGSV,3,2,11,23,57,295,43,26,39,039,43,27,58,152,44,31,22,093,42*71
$GPGSV,3,3,11,03,15,228,00,14,08,148,00,22,08,210,00*4D
$BDGSV,3,1,12,01,40,125,41,02,45,218,40,03,54,172,43,04,23,109,41*6A
$BDGSV,3,2,12,06,43,169,41,07,65,007,43,09,68,203,43,10,62,300,43*64
$BDGSV,3,3,12,16,49,175,42,19,20,297,41,23,21,077,43,27,33,160,42*66
$B3CN0,18,19,0,0,0,0,0,0,0,0,0,0,0,0*4D
$GLGSV,3,1,09,08,41,286,47,07,36,216,47,19,30,061,37,20,31,130,40*66
$GLGSV,3,2,09,01,13,326,38,11,06,280,40,09,39,030,45,26,00,000,45*6E
$GLGSV,3,3,09,21,00,174,00*5D
$ini_pos,lastpos_good = 1,ini_pos.x:-1578922.238634,ini_pos.y:5312777.958843,ini_pos.z:3146359.827003
Refix G03: 2, 267607.919472, 1313
Refix G07: 2, 267607.915204, -3658
Refix G08: 2, 267607.924799, -4552
Refix G09: 2, 267607.922977, -4067
Refix G14: 2, 267607.917977, 2503
Refix G16: 2, 267607.931759, 246
Refix G22: 2, 267607.916874, 1104
Refix G23: 2, 267607.929723, -2566
Refix G26: 2, 267607.926774, 1236
Refix G27: 2, 267607.930724, -3061
Refix G31: 2, 267607.920984, 905
$GNGGA,021950.000,2944.9065,N,10633.0960,E,1,27,0.5,335.3,M,,,,0000*11
$GNRMC,021950.000,A,2944.9065,N,10633.0960,E,0.16,0.00,080519,,*19
$GPGSA,A,3,07,08,09,16,23,26,27,31,,,,,0.6,0.5,0.4*36
$BDGSA,A,3,01,02,03,06,07,09,10,16,19,23,27,32,0.6,0.5,0.4*27
$GLGSA,A,3,01,07,08,09,11,19,20,,,,,,0.6,0.5,0.4*24
$GPGSV,3,1,11,07,06,298,41,08,31,188,43,09,24,316,43,16,63,004,44*7A
$GPGSV,3,2,11,23,57,295,44,26,39,039,44,27,58,152,45,31,22,093,42*70
$GPGSV,3,3,11,03,15,228,00,14,08,148,00,22,08,210,00*4D
$BDGSV,3,1,12,01,40,125,41,02,45,218,41,03,54,172,45,04,23,109,41*6D
$BDGSV,3,2,12,06,43,169,42,07,65,007,43,09,68,203,43,10,62,300,43*67
$BDGSV,3,3,12,16,49,175,43,19,20,297,41,23,21,077,42,27,33,160,42*66
$B3CN0,0,0,0,0,0,0,0,0,0,0,0,0,0,0*4C
$GLGSV,3,1,09,08,41,286,47,07,36,216,47,19,30,061,37,20,31,130,40*66
$GLGSV,3,2,09,01,13,326,38,11,06,280,40,09,39,030,45,26,00,000,45*6E
$GLGSV,3,3,09,21,00,174,00*5D
$ini_pos,lastpos_good = 1,ini_pos.x:-1578922.579694,ini_pos.y:5312778.541138,ini_pos.z:3146360.196286
Refix G03: 2, 267608.919471, 1321
Refix G07: 2, 267608.915206, -3651
Refix G08: 2, 267608.924802, -4543
Refix G09: 2, 267608.922980, -4059
Refix G14: 2, 267608.917975, 2511
Refix G16: 2, 267608.931759, 255
Refix G22: 2, 267608.916873, 1112
Refix G23: 2, 267608.929725, -2556
Refix G26: 2, 267608.926774, 1244
Refix G27: 2, 267608.930726, -3051
Refix G31: 2, 267608.920983, 913
$GNGGA,021951.000,2944.9064,N,10633.0961,E,1,27,0.5,335.8,M,,,,0000*1B
$GNRMC,021951.000,A,2944.9064,N,10633.0961,E,0.07,0.00,080519,,*18
$GPGSA,A,3,07,08,09,16,23,26,27,31,,,,,0.6,0.5,0.4*36
$BDGSA,A,3,01,02,03,06,07,09,10,16,19,23,27,32,0.6,0.5,0.4*27
$GLGSA,A,3,01,07,08,09,11,19,20,,,,,,0.6,0.5,0.4*24
$GPGSV,3,1,11,07,06,298,41,08,31,188,42,09,24,316,42,16,63,004,44*7A
$GPGSV,3,2,11,23,57,295,44,26,39,039,44,27,58,152,45,31,22,093,43*71
$GPGSV,3,3,11,03,15,228,00,14,08,148,00,22,08,210,00*4D
$BDGSV,3,1,12,01,40,125,41,02,45,218,41,03,54,172,43,04,23,109,40*6A
$BDGSV,3,2,12,06,43,169,41,07,65,007,43,09,68,203,43,10,62,300,43*64
$BDGSV,3,3,12,16,49,175,43,19,20,297,41,23,21,077,43,27,33,160,42*67
$B3CN0,0,36,22,0,0,0,0,0,0,0,0,0,0,0*49
$GLGSV,3,1,09,08,41,286,47,07,36,216,47,19,30,061,37,20,31,130,41*67
$GLGSV,3,2,09,01,13,326,38,11,06,280,40,09,39,030,45,26,00,000,45*6E
$GLGSV,3,3,09,21,00,174,00*5D
$ini_pos,lastpos_good = 1,ini_pos.x:-1578922.786877,ini_pos.y:5312779.006323,ini_pos.z:3146360.259978
Refix G03: 2, 267609.919470, 1323
Refix G07: 2, 267609.915209, -3649
Refix G08: 2, 267609.924804, -4540
Refix G09: 2, 267609.922982, -4056
Refix G14: 2, 267609.917974, 2513
Refix G16: 2, 267609.931759, 258
Refix G22: 2, 267609.916872, 1114
Refix G23: 2, 267609.929727, -2553
Refix G26: 2, 267609.926773, 1246
Refix G27: 2, 267609.930727, -3048
Refix G31: 2, 267609.920983, 915
$GNGGA,021952.000,2944.9065,N,10633.0960,E,1,27,0.5,335.5,M,,,,0000*15
$GNRMC,021952.000,A,2944.9065,N,10633.0960,E,0.09,0.00,080519,,*15
$GPGSA,A,3,07,08,09,16,23,26,27,31,,,,,0.6,0.5,0.4*36
$BDGSA,A,3,01,02,03,06,07,09,10,16,19,23,27,32,0.6,0.5,0.4*27
$GLGSA,A,3,01,07,08,09,11,19,20,,,,,,0.6,0.5,0.4*24
$GPGSV,3,1,11,07,06,298,40,08,31,188,42,09,24,316,43,16,63,004,44*7A
$GPGSV,3,2,11,23,57,295,44,26,39,039,43,27,58,152,45,31,22,093,43*76
$GPGSV,3,3,11,03,15,228,00,14,08,148,00,22,08,210,00*4D
$BDGSV,3,1,12,01,40,125,41,02,45,218,41,03,54,172,45,04,23,109,41*6D
$BDGSV,3,2,12,06,43,169,42,07,65,007,44,09,68,203,44,10,62,300,44*60
$BDGSV,3,3,12,16,49,175,43,19,20,297,41,23,21,077,42,27,33,160,42*66
$B3CN0,0,0,23,0,0,0,0,0,0,0,0,0,0,0*7D
$GLGSV,3,1,09,08,41,286,47,07,36,216,47,19,30,061,37,20,31,130,41*67
$GLGSV,3,2,09,01,13,326,38,11,06,280,40,09,39,030,45,26,00,000,46*6D
$GLGSV,3,3,09,21,00,174,00*5D
$ini_pos,lastpos_good = 1,ini_pos.x:-1578922.642055,ini_pos.y:5312778.717104,ini_pos.z:3146360.240471
Refix G03: 2, 267610.919470, 1325
Refix G07: 2, 267610.915211, -3646
Refix G08: 2, 267610.924807, -4538
Refix G09: 2, 267610.922985, -4053
Refix G14: 2, 267610.917972, 2516
Refix G16: 2, 267610.931758, 261
Refix G22: 2, 267610.916872, 1116
Refix G23: 2, 267610.929728, -2550
Refix G26: 2, 267610.926772, 1250
Refix G27: 2, 267610.930729, -3045
Refix G31: 2, 267610.920982, 919
$GNGGA,021953.000,2944.9065,N,10633.0961,E,1,27,0.5,335.6,M,,,,0000*16
$GNRMC,021953.000,A,2944.9065,N,10633.0961,E,0.24,0.00,080519,,*1A
$GPGSA,A,3,07,08,09,16,23,26,27,31,,,,,0.6,0.5,0.4*36
$BDGSA,A,3,01,02,03,06,07,09,10,16,19,23,27,32,0.6,0.5,0.4*27
$GLGSA,A,3,01,07,08,09,11,19,20,,,,,,0.6,0.5,0.4*24
$GPGSV,3,1,11,07,06,298,40,08,31,188,42,09,24,316,42,16,63,004,44*7B
$GPGSV,3,2,11,23,57,295,44,26,39,039,43,27,58,152,44,31,22,093,42*76
$GPGSV,3,3,11,03,15,228,00,14,08,148,00,22,08,210,00*4D
$BDGSV,3,1,12,01,40,125,40,02,45,218,41,03,54,172,43,04,23,109,40*6B
$BDGSV,3,2,12,06,43,169,41,07,65,007,44,09,68,203,43,10,62,300,43*63
$BDGSV,3,3,12,16,49,175,43,19,20,297,42,23,21,077,42,27,33,160,42*65
$B3CN0,0,0,0,0,0,0,0,0,0,0,0,0,0,0*4C
$GLGSV,3,1,09,08,41,286,47,07,36,216,47,19,30,061,37,20,31,130,40*66
$GLGSV,3,2,09,01,13,326,38,11,06,280,40,09,39,030,45,26,00,000,46*6D
$GLGSV,3,3,09,21,00,174,00*5D
$ini_pos,lastpos_good = 1,ini_pos.x:-1578922.799647,ini_pos.y:5312778.682151,ini_pos.z:3146360.314688
Refix G03: 2, 267611.919469, 1320
Refix G07: 2, 267611.915213, -3652
Refix G08: 2, 267611.924810, -4544
Refix G09: 2, 267611.922987, -4060
Refix G14: 2, 267611.917971, 2510
Refix G16: 2, 267611.931758, 253
Refix G22: 2, 267611.916871, 1110
Refix G23: 2, 267611.929730, -2557
Refix G26: 2, 267611.926771, 1242
Refix G27: 2, 267611.930731, -3052
Refix G31: 2, 267611.920981, 912
$GNGGA,021954.000,2944.9064,N,10633.0962,E,1,27,0.5,335.7,M,,,,0000*12
$GNRMC,021954.000,A,2944.9064,N,10633.0962,E,0.04,0.00,080519,,*1D
$GPGSA,A,3,07,08,09,16,23,26,27,31,,,,,0.6,0.5,0.4*36
$BDGSA,A,3,01,02,03,06,07,09,10,16,19,23,27,32,0.6,0.5,0.4*27
$GLGSA,A,3,01,07,08,09,11,19,20,,,,,,0.6,0.5,0.4*24
$GPGSV,3,1,11,07,06,298,40,08,31,188,42,09,24,316,42,16,63,004,45*7A
$GPGSV,3,2,11,23,57,295,44,26,39,039,44,27,58,152,44,31,22,093,43*70
$GPGSV,3,3,11,03,15,228,00,14,08,148,00,22,08,210,00*4D
$BDGSV,3,1,12,01,40,125,40,02,45,218,41,03,54,172,43,04,23,109,41*6A
$BDGSV,3,2,12,06,43,169,42,07,65,007,44,09,68,203,43,10,62,300,43*60
$BDGSV,3,3,12,16,49,175,43,19,20,297,42,23,21,077,42,27,33,160,42*65
$B3CN0,0,0,19,0,0,0,0,0,0,0,0,0,0,0*74
$GLGSV,3,1,09,08,41,286,47,07,36,216,47,19,30,061,37,20,31,130,41*67
$GLGSV,3,2,09,01,13,326,38,11,06,280,40,09,39,030,45,26,00,000,45*6E
$GLGSV,3,3,09,21,00,174,00*5D
$ini_pos,lastpos_good = 1,ini_pos.x:-1578922.967907,ini_pos.y:5312778.844033,ini_pos.z:3146360.189589
Refix G03: 2, 267612.919468, 1324
Refix G07: 2, 267612.915216, -3649
Refix G08: 2, 267612.924813, -4539
Refix G09: 2, 267612.922990, -4056
Refix G14: 2, 267612.917969, 2515
Refix G16: 2, 267612.931758, 258
Refix G22: 2, 267612.916870, 1114
Refix G23: 2, 267612.929731, -2552
Refix G26: 2, 267612.926770, 1247
Refix G27: 2, 267612.930733, -3046
Refix G31: 2, 267612.920981, 916
$GNGGA,021955.000,2944.9064,N,10633.0963,E,1,27,0.5,336.0,M,,,,0000*16
$GNRMC,021955.000,A,2944.9064,N,10633.0963,E,0.24,0.00,080519,,*1F
$GPGSA,A,3,07,08,09,16,23,26,27,31,,,,,0.6,0.5,0.4*36
$BDGSA,A,3,01,02,03,06,07,09,10,16,19,23,27,32,0.6,0.5,0.4*27
$GLGSA,A,3,01,07,08,09,11,19,20,,,,,,0.6,0.5,0.4*24
$GPGSV,3,1,11,07,06,298,40,08,31,188,41,09,24,316,42,16,63,004,44*78
$GPGSV,3,2,11,23,57,295,44,26,39,039,43,27,58,152,44,31,22,093,43*77
$GPGSV,3,3,11,03,15,228,00,14,08,148,00,22,08,210,00*4D
$BDGSV,3,1,12,01,40,125,41,02,45,218,40,03,54,172,43,04,23,109,41*6A
$BDGSV,3,2,12,06,43,169,42,07,65,007,44,09,68,203,43,10,62,300,43*60
$BDGSV,3,3,12,16,49,175,43,19,20,297,42,23,21,077,42,27,33,160,42*65
$B3CN0,0,0,18,0,0,0,0,0,0,0,0,0,0,0*75
$GLGSV,3,1,09,08,41,286,47,07,36,216,47,19,30,061,36,20,31,130,41*66
$GLGSV,3,2,09,01,13,326,38,11,06,280,40,09,39,030,46,26,00,000,46*6E
$GLGSV,3,3,09,21,00,174,00*5D
$ini_pos,lastpos_good = 1,ini_pos.x:-1578923.199296,ini_pos.y:5312779.068686,ini_pos.z:3146360.299450
Refix G03: 2, 267613.919467, 1317
Refix G07: 2, 267613.915218, -3654
Refix G08: 2, 267613.924816, -4546
Refix G09: 2, 267613.922992, -4061
Refix G14: 2, 267613.917967, 2508
Refix G16: 2, 267613.931758, 252
Refix G22: 2, 267613.916869, 1107
Refix G23: 2, 267613.929733, -2558
Refix G26: 2, 267613.926769, 1240
Refix G27: 2, 267613.930735, -3053
Refix G31: 2, 267613.920980, 910
$GNGGA,021956.000,2944.9063,N,10633.0965,E,1,27,0.5,336.0,M,,,,0000*14
$GNRMC,021956.000,A,2944.9063,N,10633.0965,E,0.17,0.00,080519,,*1D
$GPGSA,A,3,07,08,09,16,23,26,27,31,,,,,0.6,0.5,0.4*36
$BDGSA,A,3,01,02,03,06,07,09,10,16,19,23,27,32,0.6,0.5,0.4*27
$GLGSA,A,3,01,07,08,09,11,19,20,,,,,,0.6,0.5,0.4*24
$GPGSV,3,1,11,07,06,298,40,08,31,188,42,09,24,316,43,16,63,004,45*7B
$GPGSV,3,2,11,23,57,295,44,26,39,039,43,27,58,152,44,31,22,093,42*76
$GPGSV,3,3,11,03,15,228,00,14,08,148,00,22,08,210,00*4D
$BDGSV,3,1,12,01,40,125,41,02,45,218,40,03,54,172,45,04,23,109,41*6C
$BDGSV,3,2,12,06,43,169,42,07,65,007,44,09,68,203,44,10,62,300,43*67
$BDGSV,3,3,12,16,49,175,43,19,20,297,41,23,21,077,42,27,33,160,42*66
$B3CN0,0,0,23,0,0,0,0,0,0,0,0,0,0,0*7D
$GLGSV,3,1,09,08,41,286,47,07,36,216,47,19,30,061,36,20,31,130,41*66
$GLGSV,3,2,09,01,13,326,38,11,06,280,40,09,39,030,46,26,00,000,45*6D
$GLGSV,3,3,09,21,00,174,00*5D
$ini_pos,lastpos_good = 1,ini_pos.x:-1578923.525826,ini_pos.y:5312779.018413,ini_pos.z:3146360.233622
Refix G03: 2, 267614.919466, 1322
Refix G07: 2, 267614.915220, -3650
Refix G08: 2, 267614.924819, -4540
Refix G09: 2, 267614.922995, -4056
Refix G14: 2, 267614.917966, 2513
Refix G16: 2, 267614.931758, 258
Refix G22: 2, 267614.916869, 1112
Refix G23: 2, 267614.929735, -2552
Refix G26: 2, 267614.926769, 1245
Refix G27: 2, 267614.930737, -3047
Refix G31: 2, 267614.920980, 915
$GNGGA,021957.000,2944.9064,N,10633.0966,E,1,27,0.5,336.1,M,,,,0000*10
$GNRMC,021957.000,A,2944.9064,N,10633.0966,E,0.10,0.00,080519,,*1F
$GPGSA,A,3,07,08,09,16,23,26,27,31,,,,,0.6,0.5,0.4*36
$BDGSA,A,3,01,02,03,06,07,09,10,16,19,23,27,32,0.6,0.5,0.4*27
$GLGSA,A,3,01,07,08,09,11,19,20,,,,,,0.6,0.5,0.4*24
$GPGSV,3,1,11,07,06,298,40,08,31,188,42,09,24,316,42,16,63,004,45*7A
$GPGSV,3,2,11,23,57,295,44,26,39,039,43,27,58,152,46,31,22,093,42*74
$GPGSV,3,3,11,03,15,228,00,14,08,148,00,22,08,210,00*4D
$BDGSV,3,1,12,01,40,125,40,02,45,218,40,03,54,172,43,04,23,109,41*6B
$BDGSV,3,2,12,06,43,169,42,07,65,007,43,09,68,203,43,10,62,300,43*67
$BDGSV,3,3,12,16,49,175,42,19,20,297,42,23,21,077,42,27,33,160,42*64
$B3CN0,17,0,21,0,0,0,0,0,0,0,0,0,0,0*49
$GLGSV,3,1,09,08,41,286,46,07,36,216,47,19,30,061,36,20,31,130,41*67
$GLGSV,3,2,09,01,13,326,38,11,06,280,40,09,39,030,45,26,00,000,45*6E
$GLGSV,3,3,09,21,00,174,00*5D
$ini_pos,lastpos_good = 1,ini_pos.x:-1578923.659429,ini_pos.y:5312778.994891,ini_pos.z:3146360.469753
Refix G03: 2, 267615.919465, 1329
Refix G07: 2, 267615.915222, -3644
Refix G08: 2, 267615.924822, -4533
Refix G09: 2, 267615.922997, -4050
Refix G14: 2, 267615.917964, 2520
Refix G16: 2, 267615.931758, 264
Refix G22: 2, 267615.916868, 1119
Refix G23: 2, 267615.929736, -2545
Refix G26: 2, 267615.926768, 1252
Refix G27: 2, 267615.930739, -3039
Refix G31: 2, 267615.920979, 922
$GNGGA,021958.000,2944.9064,N,10633.0965,E,1,27,0.5,336.3,M,,,,0000*1E
$GNRMC,021958.000,A,2944.9064,N,10633.0965,E,0.27,0.00,080519,,*17
$GPGSA,A,3,07,08,09,16,23,26,27,31,,,,,0.6,0.5,0.4*36
$BDGSA,A,3,01,02,03,06,07,09,10,16,19,23,27,32,0.6,0.5,0.4*27
$GLGSA,A,3,01,07,08,09,11,19,20,,,,,,0.6,0.5,0.4*24
$GPGSV,3,1,11,07,06,298,40,08,31,188,42,09,24,316,42,16,63,004,45*7A
$GPGSV,3,2,11,23,57,295,44,26,39,039,44,27,58,152,45,31,22,093,42*70
$GPGSV,3,3,11,03,15,228,00,14,08,148,00,22,08,210,00*4D
$BDGSV,3,1,12,01,40,125,42,02,45,218,40,03,54,172,43,04,23,109,42*6A
$BDGSV,3,2,12,06,43,169,42,07,65,007,43,09,68,203,43,10,62,300,43*67
$BDGSV,3,3,12,16,49,175,43,19,20,297,41,23,21,077,42,27,33,160,42*66
$B3CN0,0,0,21,0,0,0,0,0,0,0,0,0,0,0*7F
$GLGSV,3,1,09,08,41,286,47,07,36,216,46,19,30,061,36,20,31,130,41*67
$GLGSV,3,2,09,01,13,326,38,11,06,280,40,09,39,030,46,26,00,000,45*6D
$GLGSV,3,3,09,21,00,174,00*5D
$ini_pos,lastpos_good = 1,ini_pos.x:-1578923.630120,ini_pos.y:5312779.129632,ini_pos.z:3146360.586980
Refix G03: 2, 267616.919464, 1328
Refix G07: 2, 267616.915225, -3645
Refix G08: 2, 267616.924824, -4534
Refix G09: 2, 267616.923000, -4050
Refix G14: 2, 267616.917962, 2519
Refix G16: 2, 267616.931757, 263
Refix G22: 2, 267616.916867, 1118
Refix G23: 2, 267616.929738, -2546
Refix G26: 2, 267616.926767, 1251
Refix G27: 2, 267616.930741, -3041
Refix G31: 2, 267616.920978, 920
$GNGGA,021959.000,2944.9063,N,10633.0966,E,1,26,0.5,336.4,M,,,,0000*1D
$GNRMC,021959.000,A,2944.9063,N,10633.0966,E,0.18,0.00,080519,,*1E
$GPGSA,A,3,07,08,16,23,26,27,31,,,,,,0.6,0.5,0.4*3F
$BDGSA,A,3,01,02,03,06,07,09,10,16,19,23,27,32,0.6,0.5,0.4*27
$GLGSA,A,3,01,07,08,09,11,19,20,,,,,,0.6,0.5,0.4*24
$GPGSV,3,1,11,07,06,298,40,08,31,188,43,09,24,316,42,16,63,004,45*7B
$GPGSV,3,2,11,23,57,295,45,26,39,039,44,27,58,152,44,31,22,093,43*71
$GPGSV,3,3,11,03,15,228,00,14,08,148,00,22,08,210,00*4D
$BDGSV,3,1,12,01,40,125,41,02,45,218,39,03,54,172,45,04,23,109,41*62
$BDGSV,3,2,12,06,43,169,42,07,65,007,44,09,68,203,44,10,62,300,44*60
$BDGSV,3,3,12,16,49,175,43,19,20,297,42,23,21,077,42,27,33,160,42*65
$B3CN0,0,0,0,0,0,0,0,0,0,0,0,0,0,0*4C
$GLGSV,3,1,09,08,41,286,46,07,36,216,46,19,30,061,36,20,31,130,41*66
$GLGSV,3,2,09,01,13,326,38,11,06,280,40,09,39,030,46,26,00,000,45*6D
$GLGSV,3,3,09,21,00,174,00*5D
$ini_pos,lastpos_good = 1,ini_pos.x:-1578923.726620,ini_pos.y:5312779.309672,ini_pos.z:3146360.398407
Refix G03: 2, 267617.919464, 1323
Refix G07: 2, 267617.915227, -3649
Refix G08: 2, 267617.924827, -4539
Refix G09: 2, 267617.923003, -4055
Refix G14: 2, 267617.917961, 2514
Refix G16: 2, 267617.931757, 258
Refix G22: 2, 267617.916866, 1113
Refix G23: 2, 267617.929739, -2550
Refix G26: 2, 267617.926766, 1246
Refix G27: 2, 267617.930743, -3045
Refix G31: 2, 267617.920978, 916
$GNGGA,022000.000,2944.9064,N,10633.0963,E,1,27,0.5,336.3,M,,,,0000*1F
$GNRMC,022000.000,A,2944.9064,N,10633.0963,E,0.12,0.00,080519,,*10
$GPGSA,A,3,07,08,09,16,23,26,27,31,,,,,0.6,0.5,0.4*36
$BDGSA,A,3,01,02,03,06,07,09,10,16,19,23,27,32,0.6,0.5,0.4*27
$GLGSA,A,3,01,07,08,09,11,19,20,,,,,,0.6,0.5,0.4*24
$GPGSV,3,1,11,07,06,298,40,08,31,188,42,09,24,316,42,16,63,004,45*7A
$GPGSV,3,2,11,23,57,295,45,26,39,039,44,27,58,152,44,31,22,093,43*71
$GPGSV,3,3,11,03,15,228,00,14,08,148,00,22,08,210,00*4D
$BDGSV,3,1,12,01,40,125,41,02,45,218,41,03,54,172,43,04,23,109,41*6B
$BDGSV,3,2,12,06,43,169,42,07,65,007,43,09,68,203,43,10,62,300,43*67
$BDGSV,3,3,12,16,49,175,43,19,20,297,41,23,21,077,42,27,33,160,42*66
$B3CN0,0,0,16,0,0,0,0,0,0,0,0,0,0,0*7B
$GLGSV,3,1,09,08,41,286,46,07,36,216,46,19,30,061,36,20,31,130,41*66
$GLGSV,3,2,09,01,13,326,38,11,06,280,40,09,39,030,46,26,00,000,45*6D
$GLGSV,3,3,09,21,00,174,00*5D
$ini_pos,lastpos_good = 1,ini_pos.x:-1578923.317828,ini_pos.y:5312779.324927,ini_pos.z:3146360.456949
Refix G03: 2, 267618.919463, 1320
Refix G07: 2, 267618.915229, -3653
Refix G08: 2, 267618.924830, -4543
Refix G09: 2, 267618.923005, -4058
Refix G14: 2, 267618.917959, 2510
Refix G16: 2, 267618.931757, 255
Refix G22: 2, 267618.916866, 1109
Refix G23: 2, 267618.929741, -2554
Refix G26: 2, 267618.926765, 1242
Refix G27: 2, 267618.930745, -3049
Refix G31: 2, 267618.920977, 912
$GNGGA,022001.000,2944.9063,N,10633.0963,E,1,27,0.5,336.7,M,,,,0000*1D
$GNRMC,022001.000,A,2944.9063,N,10633.0963,E,0.09,0.00,080519,,*1C
$GPGSA,A,3,07,08,09,16,23,26,27,31,,,,,0.6,0.5,0.4*36
$BDGSA,A,3,01,02,03,06,07,09,10,16,19,23,27,32,0.6,0.5,0.4*27
$GLGSA,A,3,01,07,08,09,11,19,20,,,,,,0.6,0.5,0.4*24
$GPGSV,3,1,11,07,06,298,39,08,32,188,42,09,25,316,42,16,63,004,45*76
$GPGSV,3,2,11,23,57,295,45,26,39,039,44,27,58,152,45,31,22,093,42*71
$GPGSV,3,3,11,03,15,228,00,14,08,148,00,22,08,209,00*45
$BDGSV,3,1,12,01,40,125,41,02,45,218,40,03,54,172,42,04,23,109,41*6B
$BDGSV,3,2,12,06,42,169,42,07,65,007,43,09,68,203,43,10,62,300,44*61
$BDGSV,3,3,12,16,49,175,43,19,20,297,41,23,21,077,42,27,33,160,42*66
$B3CN0,16,0,20,0,0,0,0,0,0,0,0,0,0,0*49
$GLGSV,3,1,09,08,41,285,47,07,36,216,47,19,30,061,36,20,31,130,41*65
$GLGSV,3,2,09,01,13,326,38,11,06,281,40,09,39,030,46,26,00,000,45*6C
$GLGSV,3,3,09,21,00,174,00*5D
