同0_4
SD initialized success
Create debug.log Failed! 3
bbram_blkflag = 1
rtcflag = 0
BBRAM Block OK: 01 EPHflag: 4640a1c4 8c44836f, rtc 00
Hot-start nowtime:day = 8,minute = 9,seconds = 50.00
GPS 0 Init Dop: 10000,80
GPS 1 Init Dop: 10000,80
GPS 2 Init Dop:  1518, 2
GPS 3 Init Dop: 10000,80
GPS 4 Init Dop: 10000,80
GPS 5 Init Dop: 10000,80
GPS 6 Init Dop: -3374, 2
GPS 7 Init Dop: -4421, 2
GPS 8 Init Dop: -4030, 2
GPS 9 Init Dop: 10000,80
GPS10 Init Dop: 10000,80
GPS11 Init Dop: 10000,80
GPS12 Init Dop: 10000,80
GPS13 Init Dop:  2682, 2
GPS14 Init Dop: 10000,80
GPS15 Init Dop:   293, 2
GPS16 Init Dop: 10000,80
GPS17 Init Dop: 10000,80
GPS18 Init Dop: 10000,80
GPS19 Init Dop: 10000,80
GPS20 Init Dop: 10000,80
GPS21 Init Dop: 10000,80
GPS22 Init Dop: -2637, 2
GPS23 Init Dop: 10000,80
GPS24 Init Dop: 10000,80
GPS25 Init Dop:  1419, 2
GPS26 Init Dop: -3119, 2
GPS27 Init Dop: 10000,80
GPS28 Init Dop: 10000,80
GPS29 Init Dop: 10000,80
GPS30 Init Dop:  1075, 2
GPS31 Init Dop: 10000,80
BDS 0 Init Dop:  -869, 2
BDS 1 Init Dop:  -833, 2
BDS 2 Init Dop:  -861, 2
BDS 3 Init Dop:  -876, 2
BDS 4 Init Dop: 10000,80
BDS 5 Init Dop:   307, 2
BDS 6 Init Dop:  -580, 2
BDS 7 Init Dop: 10000,80
BDS 8 Init Dop:  -244, 2
BDS 9 Init Dop:  -710, 2
BDS10 Init Dop: 10000,80
BDS11 Init Dop: 10000,80
BDS12 Init Dop: 10000,80
BDS13 Init Dop: 10000,80
BDS14 Init Dop: 10000,80
BDS15 Init Dop:   322, 2
BDS16 Init Dop: 10000,80
BDS17 Init Dop: 10000,80
BDS18 Init Dop: -1649, 2
BDS19 Init Dop: 10000,80
BDS20 Init Dop: 10000,80
BDS21 Init Dop: 10000,80
BDS22 Init Dop:   782, 2
BDS23 Init Dop: 10000,80
BDS24 Init Dop: 10000,80
BDS25 Init Dop: 10000,80
BDS26 Init Dop: -3783, 2
BDS27 Init Dop: -1647, 2
BDS28 Init Dop: 10000,80
BDS29 Init Dop: 10000,80
BDS30 Init Dop: 10000,80
BDS31 Init Dop:  2131, 2
Good luck!
$ini_pos,lastpos_good = 1,ini_pos.x:-1581667.000000,ini_pos.y:5319347.000000,ini_pos.z:3145964.000000
$rtc_local_time,localRTC.weeks:2052,localRTC.seconds:267009.026014,localGtime.weeks:0,localGtime.seconds:1044.010774
$GNGGA,000000.000,,,,,0,00,,,M,,,,0000*2B
$GNRMC,000000.000,A,,,,,,,060180,,*29
$GPGSA,A,1,,,,,,,,,,,,,,,*1E
$BDGSA,A,1,,,,,,,,,,,,,,,*0F
$GLGSA,A,1,,,,,,,,,,,,,,,*02
$B3CN0,0,0,0,0,0,0,0,0,0,0,0,0,0,0*4C
$ini_pos,lastpos_good = 1,ini_pos.x:-1581667.000000,ini_pos.y:5319347.000000,ini_pos.z:3145964.000000
$rtc_local_time,localRTC.weeks:2052,localRTC.seconds:267010.026014,localGtime.weeks:2052,localGtime.seconds:268009.025982
i = 0
$GNGGA,000000.000,,,,,0,00,,,M,,,,0000*2B
$GNRMC,000000.000,A,,,,,,,060180,,*29
$GPGSA,A,1,,,,,,,,,,,,,,,*1E
$BDGSA,A,1,,,,,,,,,,,,,,,*0F
$GLGSA,A,1,,,,,,,,,,,,,,,*02
$B3CN0,0,0,0,0,0,0,0,0,0,0,0,0,0,0*4C
$ini_pos,lastpos_good = 1,ini_pos.x:-1581667.000000,ini_pos.y:5319347.000000,ini_pos.z:3145964.000000
$rtc_local_time,localRTC.weeks:2052,localRTC.seconds:267011.026014,localGtime.weeks:2052,localGtime.seconds:269009.025950
i = 0
i = 1
i = 2
i = 3
i = 4
$GNGGA,000000.000,,,,,0,00,,,M,,,,0000*2B
$GNRMC,000000.000,A,,,,,,,060180,,*29
$GPGSA,A,1,,,,,,,,,,,,,,,*1E
$BDGSA,A,1,,,,,,,,,,,,,,,*0F
$GLGSA,A,1,,,,,,,,,,,,,,,*02
$GPGSV,1,1,01,03,00,000,20*49
$B3CN0,0,0,0,0,0,0,0,0,0,0,0,0,0,0*4C
$ini_pos,lastpos_good = 1,ini_pos.x:-1581667.000000,ini_pos.y:5319347.000000,ini_pos.z:3145964.000000
$rtc_local_time,localRTC.weeks:2052,localRTC.seconds:267012.026014,localGtime.weeks:2052,localGtime.seconds:270009.025917
i = 0
i = 1
i = 2
i = 3
i = 4
i = 5
i = 6
i = 7
i = 8
i = 9
i = 10
i = 11
$GNGGA,000000.000,,,,,0,00,,,M,,,,0000*2B
$GNRMC,000000.000,A,,,,,,,060180,,*29
$GPGSA,A,1,,,,,,,,,,,,,,,*1E
$BDGSA,A,1,,,,,,,,,,,,,,,*0F
$GLGSA,A,1,,,,,,,,,,,,,,,*02
$GPGSV,2,1,05,03,00,000,37,08,00,000,38,09,00,000,36,14,00,000,29*79
$GPGSV,2,2,05,16,00,000,29*40
$B3CN0,0,0,0,0,0,0,0,0,0,0,0,0,0,0*4C
tow update,267013518.270177
$ini_pos,lastpos_good = 1,ini_pos.x:-1581667.000000,ini_pos.y:5319347.000000,ini_pos.z:3145964.000000
$rtc_local_time,localRTC.weeks:2052,localRTC.seconds:267013.026014,localGtime.weeks:2052,localGtime.seconds:267013.518270
i = 0
i = 1
i = 2
i = 3
i = 4
i = 5
i = 6
i = 7
i = 8
i = 9
i = 10
i = 11
$GNGGA,020955.518,,,,,0,00,,,M,,,,0000*2C
$GNRMC,020955.518,A,,,,,,,080519,,*24
$GPGSA,A,1,,,,,,,,,,,,,,,*1E
$BDGSA,A,1,,,,,,,,,,,,,,,*0F
$GLGSA,A,1,,,,,,,,,,,,,,,*02
$GPGSV,3,1,09,03,00,000,37,08,00,000,41,09,00,000,39,14,00,000,35*78
$GPGSV,3,2,09,16,00,000,45,23,00,000,45,26,00,000,36,27,00,000,37*77
$GPGSV,3,3,09,31,00,000,30*41
$BDGSV,1,1,03,01,00,000,41,03,00,000,43,04,00,000,38*54
$B3CN0,0,0,0,0,0,0,0,0,0,0,0,0,0,0*4C
$ini_pos,lastpos_good = 1,ini_pos.x:-1581667.000000,ini_pos.y:5319347.000000,ini_pos.z:3145964.000000
$rtc_local_time,localRTC.weeks:2052,localRTC.seconds:267014.026014,localGtime.weeks:2052,localGtime.seconds:267014.518270
i = 0
i = 1
i = 2
i = 3
i = 4
i = 5
i = 6
i = 7
i = 8
i = 9
i = 10
i = 11
i = 12
$GNGGA,020956.518,,,,,0,00,,,M,,,,0000*2F
$GNRMC,020956.518,A,,,,,,,080519,,*27
$GPGSA,A,1,,,,,,,,,,,,,,,*1E
$BDGSA,A,1,,,,,,,,,,,,,,,*0F
$GLGSA,A,1,,,,,,,,,,,,,,,*02
$GPGSV,3,1,09,03,00,000,38,08,00,000,42,09,00,000,40,14,00,000,35*7A
$GPGSV,3,2,09,16,00,000,44,23,00,000,44,26,00,000,45,27,00,000,43*70
$GPGSV,3,3,09,31,00,000,41*47
$BDGSV,1,1,03,01,00,000,41,03,00,000,45,04,00,000,38*52
$B3CN0,0,0,0,0,0,0,0,0,0,0,0,0,0,0*4C
$ini_pos,lastpos_good = 1,ini_pos.x:-1581667.000000,ini_pos.y:5319347.000000,ini_pos.z:3145964.000000
$rtc_local_time,localRTC.weeks:2052,localRTC.seconds:267015.026014,localGtime.weeks:2052,localGtime.seconds:267015.518270
i = 0
i = 1
i = 2
i = 3
i = 4
i = 5
i = 6
i = 7
i = 8
i = 9
i = 10
i = 11
i = 12
i = 13
i = 14
i = 15
i = 16
i = 17
$GNGGA,020957.386,2944.0278,N,10633.2549,E,1,13,0.8,2065.3,M,,,,0000*26
$GNRMC,020957.386,A,2944.0278,N,10633.2549,E,8.67,0.00,080519,,*1E
$GPGSA,A,3,03,08,09,14,16,23,26,27,31,,,,1.5,0.8,1.3*3E
$BDGSA,A,3,01,03,04,23,,,,,,,,,1.5,0.8,1.3*2A
$GLGSA,A,3,,,,,,,,,,,,,1.5,0.8,1.3*20
$GPGSV,3,1,09,03,00,000,37,08,00,000,42,09,00,000,40,14,00,000,36*76
$GPGSV,3,2,09,16,00,000,44,23,00,000,44,26,00,000,44,27,00,000,44*76
$GPGSV,3,3,09,31,00,000,41*47
$BDGSV,1,1,04,01,00,000,41,03,00,000,45,04,00,000,40,23,00,000,28*61
$B3CN0,0,0,0,0,0,0,0,0,0,0,0,0,0,0*4C
$ini_pos,lastpos_good = 1,ini_pos.x:-1579825.543940,ini_pos.y:5314917.497953,ini_pos.z:3145808.558392
$rtc_local_time,localRTC.weeks:2052,localRTC.seconds:267016.639960,localGtime.weeks:2052,localGtime.seconds:267017.000000
i = 0
i = 1
i = 2
i = 3
i = 4
i = 5
i = 6
i = 7
i = 8
i = 9
i = 10
i = 11
i = 12
i = 13
i = 14
i = 15
i = 16
i = 17
i = 18
i = 19
i = 20
i = 21
i = 22
Refix G03: 2, 267016.920363, 1261
Refix G07: 2, 267016.914228, -3706
Refix G08: 2, 267016.923470, -4695
Refix G09: 2, 267016.921812, -4308
Refix G14: 2, 267016.919306, 2387
Refix G16: 2, 267016.932208, -11
Refix G23: 2, 267016.929112, -2850
Refix G26: 2, 267016.927637, 1178
Refix G27: 2, 267016.929908, -3441
Refix G31: 2, 267016.921719, 822
$GNGGA,020959.000,2944.1204,N,10633.8983,E,1,07,2.4,1622.1,M,,,,0000*20
$GNRMC,020959.000,A,2944.1204,N,10633.8983,E,9.86,100.26,080519,,*1C
$GPGSA,A,3,03,08,14,,,,,,,,,,2.7,2.4,1.2*3C
$BDGSA,A,3,01,03,04,19,,,,,,,,,2.7,2.4,1.2*2D
$GLGSA,A,3,,,,,,,,,,,,,2.7,2.4,1.2*2E
$GPGSV,3,1,09,03,00,000,37,08,00,000,41,09,00,000,40,14,00,000,36*75
$GPGSV,3,2,09,16,00,000,44,23,00,000,43,26,00,000,44,27,00,000,43*76
$GPGSV,3,3,09,31,00,000,41*47
$BDGSV,3,1,12,01,00,000,41,02,00,000,17,03,00,000,43,04,00,000,41*6C
$BDGSV,3,2,12,06,00,000,42,07,00,000,44,09,00,000,44,10,00,000,44*65
$BDGSV,3,3,12,16,00,000,43,19,00,000,45,23,00,000,42,27,00,000,42*66
$B3CN0,0,0,0,0,0,0,0,0,0,0,0,0,0,0*4C
$ini_pos,lastpos_good = 1,ini_pos.x:-1580686.394749,ini_pos.y:5314171.396814,ini_pos.z:3145737.428355
$rtc_local_time,localRTC.weeks:2052,localRTC.seconds:267017.639960,localGtime.weeks:2052,localGtime.seconds:267018.000000
i = 0
i = 1
i = 2
i = 3
i = 4
i = 5
i = 6
i = 7
i = 8
i = 9
i = 10
i = 11
i = 12
i = 13
i = 14
i = 15
i = 16
i = 17
i = 18
i = 19
i = 20
i = 21
Refix G03: 2, 267017.920362, 1267
Refix G07: 2, 267017.914231, -3698
Refix G08: 2, 267017.923473, -4690
Refix G09: 2, 267017.921814, -4300
Refix G14: 2, 267017.919305, 2391
Refix G16: 2, 267017.932208, -5
Refix G23: 2, 267017.929114, -2843
Refix G26: 2, 267017.927636, 1183
Refix G27: 2, 267017.929910, -3437
Refix G31: 2, 267017.921719, 826
$GNGGA,021000.000,2944.1124,N,10633.8899,E,1,07,2.4,1613.4,M,,,,0000*28
$GNRMC,021000.000,A,2944.1124,N,10633.8899,E,9.31,96.99,080519,,*25
$GPGSA,A,3,03,08,14,,,,,,,,,,2.7,2.4,1.2*3C
$BDGSA,A,3,01,03,04,19,,,,,,,,,2.7,2.4,1.2*2D
$GLGSA,A,3,,,,,,,,,,,,,2.7,2.4,1.2*2E
$GPGSV,3,1,10,03,13,225,37,08,35,188,42,09,27,314,41,14,05,149,36*75
$GPGSV,3,2,10,16,61,009,45,23,59,290,44,26,37,041,44,27,61,149,44*7C
$GPGSV,3,3,10,31,20,096,41,07,08,300,00*7E
$BDGSV,3,1,12,01,40,125,41,03,54,172,45,04,23,109,40,06,41,170,42*62
$BDGSV,3,2,12,07,65,009,44,09,66,204,43,10,62,302,44,16,47,177,42*68
$BDGSV,3,3,12,19,20,294,44,23,20,079,42,27,35,159,43,28,43,086,44*6F
$B3CN0,0,0,0,0,0,0,0,0,0,0,0,0,0,0*4C
$ini_pos,lastpos_good = 1,ini_pos.x:-1580673.283966,ini_pos.y:5314175.121779,ini_pos.z:3145720.251264
$rtc_local_time,localRTC.weeks:2052,localRTC.seconds:267018.639960,localGtime.weeks:2052,localGtime.seconds:267019.000000
i = 0
i = 1
i = 2
i = 3
i = 4
i = 5
i = 6
i = 7
i = 8
i = 9
i = 10
i = 11
i = 12
i = 13
i = 14
i = 15
i = 16
i = 17
i = 18
i = 19
i = 20
i = 21
Refix G03: 2, 267018.920361, 1272
Refix G07: 2, 267018.914233, -3698
Refix G08: 2, 267018.923476, -4682
Refix G09: 2, 267018.921817, -4299
Refix G14: 2, 267018.919303, 2398
Refix G16: 2, 267018.932208, 0
Refix G23: 2, 267018.929116, -2838
Refix G26: 2, 267018.927635, 1188
Refix G27: 2, 267018.929912, -3427
Refix G31: 2, 267018.921718, 831
$GNGGA,021001.000,2944.1076,N,10633.8829,E,1,07,2.4,1578.1,M,,,,0000*2F
$GNRMC,021001.000,A,2944.1076,N,10633.8829,E,10.78,97.60,080519,,*1B
$GPGSA,A,3,03,08,14,,,,,,,,,,2.7,2.4,1.2*3C
$BDGSA,A,3,01,03,04,19,,,,,,,,,2.7,2.4,1.2*2D
$GLGSA,A,3,,,,,,,,,,,,,2.7,2.4,1.2*2E
$GPGSV,3,1,10,03,13,225,38,08,35,188,42,09,27,314,40,14,05,149,37*7A
$GPGSV,3,2,10,16,61,009,44,23,59,290,44,26,37,041,44,27,61,149,44*7D
$GPGSV,3,3,10,31,20,096,40,07,08,300,00*7F
$BDGSV,3,1,12,01,40,125,41,03,54,172,43,04,23,109,40,06,41,170,41*67
$BDGSV,3,2,12,07,65,009,44,09,66,204,43,10,62,302,44,16,47,177,43*69
$BDGSV,3,3,12,19,20,294,43,23,20,079,42,27,35,159,43,28,43,086,44*68
$B3CN0,0,0,0,0,0,0,0,0,0,0,0,0,0,0*4C
$ini_pos,lastpos_good = 1,ini_pos.x:-1580654.981333,ini_pos.y:5314153.236593,ini_pos.z:3145694.974054
$rtc_local_time,localRTC.weeks:2052,localRTC.seconds:267019.639960,localGtime.weeks:2052,localGtime.seconds:267020.000000
i = 0
i = 1
i = 2
i = 3
i = 4
i = 5
i = 6
i = 7
i = 8
i = 9
i = 10
i = 11
i = 12
i = 13
i = 14
i = 15
i = 16
i = 17
i = 18
i = 19
i = 20
i = 21
i = 22
i = 23
Refix G03: 2, 267019.920360, 1277
Refix G07: 2, 267019.914235, -3690
Refix G08: 2, 267019.923479, -4678
Refix G09: 2, 267019.921819, -4291
Refix G14: 2, 267019.919301, 2402
Refix G16: 2, 267019.932208, 4
Refix G23: 2, 267019.929117, -2833
Refix G26: 2, 267019.927634, 1192
Refix G27: 2, 267019.929914, -3424
Refix G31: 2, 267019.921717, 836
$GNGGA,021002.000,2944.0963,N,10633.8697,E,1,07,2.4,1558.5,M,,,,0000*2D
$GNRMC,021002.000,A,2944.0963,N,10633.8697,E,9.99,97.16,080519,,*29
$GPGSA,A,3,03,08,14,,,,,,,,,,2.7,2.4,1.2*3C
$BDGSA,A,3,01,03,04,19,,,,,,,,,2.7,2.4,1.2*2D
$GLGSA,A,3,,,,,,,,,,,,,2.7,2.4,1.2*2E
$GPGSV,3,1,10,03,13,225,37,08,35,188,42,09,27,314,40,14,05,149,37*75
$GPGSV,3,2,10,16,61,009,45,23,59,290,44,26,37,041,43,27,61,149,43*7C
$GPGSV,3,3,10,31,20,096,41,07,08,300,00*7E
$BDGSV,3,1,12,01,40,125,41,03,54,172,43,04,23,109,41,05,00,000,37*67
$BDGSV,3,2,12,06,41,170,41,07,65,009,43,09,66,204,43,10,62,302,43*6B
$BDGSV,3,3,12,16,47,177,43,19,20,294,43,23,20,079,42,27,35,159,42*68
$B3CN0,0,0,0,0,0,0,0,0,0,0,0,0,0,0*4C
$ini_pos,lastpos_good = 1,ini_pos.x:-1580632.692985,ini_pos.y:5314152.809770,ini_pos.z:3145667.175077
$rtc_local_time,localRTC.weeks:2052,localRTC.seconds:267020.639960,localGtime.weeks:2052,localGtime.seconds:267021.000000
i = 0
i = 1
i = 2
i = 3
i = 4
i = 5
i = 6
i = 7
i = 8
i = 9
i = 10
i = 11
i = 12
i = 13
i = 14
i = 15
i = 16
i = 17
i = 18
i = 19
i = 20
i = 21
i = 22
i = 23
Refix G03: 2, 267020.920359, 1276
Refix G07: 2, 267020.914237, -3699
Refix G08: 2, 267020.923482, -4681
Refix G09: 2, 267020.921822, -4321
Refix G14: 2, 267020.919300, 2413
Refix G16: 2, 267020.932207, -49
Refix G23: 2, 267020.929119, -2880
Refix G26: 2, 267020.927633, 1148
Refix G27: 2, 267020.929916, -3453
Refix G31: 2, 267020.921717, 819
$GNGGA,021003.000,2944.0845,N,10633.8563,E,1,07,2.4,1523.8,M,,,,0000*20
$GNRMC,021003.000,A,2944.0845,N,10633.8563,E,17.43,95.89,080519,,*19
$GPGSA,A,3,03,08,14,,,,,,,,,,2.7,2.4,1.2*3C
$BDGSA,A,3,01,03,04,19,,,,,,,,,2.7,2.4,1.2*2D
$GLGSA,A,3,,,,,,,,,,,,,2.7,2.4,1.2*2E
$GPGSV,3,1,10,03,13,225,38,08,35,188,43,09,27,314,39,14,05,149,37*75
$GPGSV,3,2,10,16,61,009,44,23,59,290,44,26,37,041,44,27,61,149,44*7D
$GPGSV,3,3,10,31,20,096,41,07,08,300,00*7E
$BDGSV,3,1,12,01,40,125,41,02,45,218,19,03,54,172,43,04,23,109,39*69
$BDGSV,3,2,12,05,00,000,37,06,41,170,41,07,65,009,43,09,66,204,43*69
$BDGSV,3,3,12,10,62,302,44,16,47,177,43,19,20,294,43,23,20,079,41*67
$B3CN0,0,0,0,0,0,0,0,0,0,0,0,0,0,0*4C
$ini_pos,lastpos_good = 1,ini_pos.x:-1580606.479594,ini_pos.y:5314140.582017,ini_pos.z:3145630.967503
$rtc_local_time,localRTC.weeks:2052,localRTC.seconds:267021.639960,localGtime.weeks:2052,localGtime.seconds:267022.000000
i = 0
i = 1
i = 2
i = 3
i = 4
i = 5
i = 6
i = 7
i = 8
i = 9
i = 10
i = 11
i = 12
i = 13
i = 14
i = 15
i = 16
i = 17
i = 18
i = 19
i = 20
i = 21
i = 22
i = 23
Refix G03: 2, 267021.920359, 1271
Refix G07: 2, 267021.914240, -3702
Refix G08: 2, 267021.923485, -4687
Refix G09: 2, 267021.921824, -4334
Refix G14: 2, 267021.919298, 2414
Refix G16: 2, 267021.932207, -76
Refix G23: 2, 267021.929121, -2904
Refix G26: 2, 267021.927632, 1127
Refix G27: 2, 267021.929918, -3470
Refix G31: 2, 267021.921716, 810
$GNGGA,021004.000,2944.0757,N,10633.8473,E,1,07,2.4,1522.2,M,,,,0000*20
$GNRMC,021004.000,A,2944.0757,N,10633.8473,E,19.75,96.62,080519,,*1F
$GPGSA,A,3,03,08,14,,,,,,,,,,2.7,2.4,1.2*3C
$BDGSA,A,3,01,03,04,19,,,,,,,,,2.7,2.4,1.2*2D
$GLGSA,A,3,,,,,,,,,,,,,2.7,2.4,1.2*2E
$GPGSV,3,1,10,03,13,225,39,08,35,188,42,09,27,314,40,14,05,149,36*7A
$GPGSV,3,2,10,16,61,009,44,23,59,290,45,26,37,041,44,27,61,149,44*7C
$GPGSV,3,3,10,31,20,096,41,07,08,300,00*7E
$BDGSV,3,1,12,01,40,125,41,03,54,172,45,04,23,109,41,05,00,000,39*6F
$BDGSV,3,2,12,06,41,170,41,07,65,009,43,09,66,204,43,10,62,302,43*6B
$BDGSV,3,3,12,16,47,177,42,19,20,294,43,23,20,079,41,27,35,159,42*6A
$B3CN0,0,0,0,0,0,0,0,0,0,0,0,0,0,0*4C
$ini_pos,lastpos_good = 1,ini_pos.x:-1580594.517955,ini_pos.y:5314151.029056,ini_pos.z:3145616.157700
$rtc_local_time,localRTC.weeks:2052,localRTC.seconds:267022.639960,localGtime.weeks:2052,localGtime.seconds:267023.000000
i = 0
i = 1
i = 2
i = 3
i = 4
i = 5
i = 6
i = 7
i = 8
i = 9
i = 10
i = 11
i = 12
i = 13
i = 14
i = 15
i = 16
i = 17
i = 18
i = 19
i = 20
i = 21
i = 22
i = 23
Refix G03: 2, 267022.920358, 1274
Refix G07: 2, 267022.914242, -3701
Refix G08: 2, 267022.923488, -4685
Refix G09: 2, 267022.921827, -4335
Refix G14: 2, 267022.919297, 2415
Refix G16: 2, 267022.932207, -78
Refix G23: 2, 267022.929122, -2905
Refix G26: 2, 267022.927631, 1124
Refix G27: 2, 267022.929920, -3470
Refix G31: 2, 267022.921715, 808
$GNGGA,021005.000,2944.0702,N,10633.8397,E,1,07,2.4,1508.8,M,,,,0000*2E
$GNRMC,021005.000,A,2944.0702,N,10633.8397,E,20.46,94.58,080519,,*12
$GPGSA,A,3,03,08,14,,,,,,,,,,2.7,2.4,1.2*3C
$BDGSA,A,3,01,03,04,19,,,,,,,,,2.7,2.4,1.2*2D
$GLGSA,A,3,,,,,,,,,,,,,2.7,2.4,1.2*2E
$GPGSV,3,1,10,03,13,225,38,08,35,188,42,09,27,314,39,14,05,149,36*75
$GPGSV,3,2,10,16,61,009,45,23,59,290,45,26,37,041,44,27,61,149,44*7D
$GPGSV,3,3,10,31,20,096,40,07,08,300,00*7F
$BDGSV,3,1,12,01,40,125,41,03,54,172,43,04,23,109,40,05,00,000,38*69
$BDGSV,3,2,12,06,41,170,42,07,65,009,43,09,66,204,43,10,62,302,43*68
$BDGSV,3,3,12,16,47,177,42,19,20,294,43,23,20,079,41,27,35,159,42*6A
$B3CN0,0,0,0,0,0,0,0,0,0,0,0,0,0,0*4C
$ini_pos,lastpos_good = 1,ini_pos.x:-1580580.877692,ini_pos.y:5314148.196663,ini_pos.z:3145600.640088
$rtc_local_time,localRTC.weeks:2052,localRTC.seconds:267023.639960,localGtime.weeks:2052,localGtime.seconds:267024.000000
i = 0
i = 1
i = 2
i = 3
i = 4
i = 5
i = 6
i = 7
i = 8
i = 9
i = 10
i = 11
i = 12
i = 13
i = 14
i = 15
i = 16
i = 17
i = 18
i = 19
i = 20
i = 21
i = 22
i = 23
Refix G03: 2, 267023.920357, 1284
Refix G07: 2, 267023.914244, -3692
Refix G08: 2, 267023.923491, -4673
Refix G09: 2, 267023.921830, -4321
Refix G14: 2, 267023.919295, 2425
Refix G16: 2, 267023.932207, -59
Refix G23: 2, 267023.929124, -2888
Refix G26: 2, 267023.927630, 1141
Refix G27: 2, 267023.929922, -3453
Refix G31: 2, 267023.921715, 822
$GNGGA,021006.000,2944.0626,N,10633.8332,E,1,07,2.4,1503.6,M,,,,0000*20
$GNRMC,021006.000,A,2944.0626,N,10633.8332,E,19.83,95.62,080519,,*12
$GPGSA,A,3,03,08,14,,,,,,,,,,2.7,2.4,1.2*3C
$BDGSA,A,3,01,03,04,19,,,,,,,,,2.7,2.4,1.2*2D
$GLGSA,A,3,,,,,,,,,,,,,2.7,2.4,1.2*2E
$GPGSV,3,1,10,03,13,225,38,08,35,188,41,09,27,314,40,14,05,149,35*7B
$GPGSV,3,2,10,16,61,009,45,23,59,290,45,26,37,041,44,27,61,149,45*7C
$GPGSV,3,3,10,31,20,096,42,07,08,300,00*7D
$BDGSV,3,1,12,01,40,125,41,03,54,172,43,04,23,109,39,05,00,000,38*67
$BDGSV,3,2,12,06,41,170,41,07,65,009,44,09,66,204,43,10,62,302,43*6C
$BDGSV,3,3,12,16,47,177,43,19,20,294,43,23,20,079,42,27,35,159,43*69
$B3CN0,0,0,0,0,0,0,0,0,0,0,0,0,0,0*4C
$ini_pos,lastpos_good = 1,ini_pos.x:-1580571.500824,ini_pos.y:5314153.622152,ini_pos.z:3145585.791784
$rtc_local_time,localRTC.weeks:2052,localRTC.seconds:267024.639960,localGtime.weeks:2052,localGtime.seconds:267025.000000
i = 0
i = 1
i = 2
i = 3
i = 4
i = 5
i = 6
i = 7
i = 8
i = 9
i = 10
i = 11
i = 12
i = 13
i = 14
i = 15
i = 16
i = 17
i = 18
i = 19
i = 20
i = 21
i = 22
i = 23
i = 24
Refix G03: 2, 267024.920356, 1274
Refix G07: 2, 267024.914246, -3698
Refix G08: 2, 267024.923494, -4685
Refix G09: 2, 267024.921832, -4329
Refix G14: 2, 267024.919293, 2417
Refix G16: 2, 267024.932207, -71
Refix G23: 2, 267024.929126, -2900
Refix G26: 2, 267024.927630, 1131
Refix G27: 2, 267024.929924, -3466
Refix G31: 2, 267024.921714, 814
$GNGGA,021007.000,2944.0607,N,10633.8304,E,1,07,2.4,1490.7,M,,,,0000*2D
$GNRMC,021007.000,A,2944.0607,N,10633.8304,E,19.01,97.52,080519,,*1E
$GPGSA,A,3,03,08,14,,,,,,,,,,2.7,2.4,1.2*3C
$BDGSA,A,3,01,03,04,19,,,,,,,,,2.7,2.4,1.2*2D
$GLGSA,A,3,,,,,,,,,,,,,2.7,2.4,1.2*2E
$GPGSV,3,1,10,03,13,225,38,08,35,188,42,09,27,314,40,14,05,149,37*7A
$GPGSV,3,2,10,16,61,009,44,23,59,290,45,26,37,041,44,27,61,149,44*7C
$GPGSV,3,3,10,31,20,096,42,07,08,300,00*7D
$BDGSV,3,1,12,01,40,125,40,03,54,172,45,04,23,109,39,05,00,000,37*6F
$BDGSV,3,2,12,06,41,170,41,07,65,009,44,09,66,204,44,10,62,302,44*6C
$BDGSV,3,3,12,16,47,177,43,19,20,294,44,23,20,079,42,27,35,159,42*6F
$B3CN0,0,0,0,0,0,0,0,0,0,0,0,0,0,0*4C
$ini_pos,lastpos_good = 1,ini_pos.x:-1580564.512272,ini_pos.y:5314145.771855,ini_pos.z:3145576.489140
$rtc_local_time,localRTC.weeks:2052,localRTC.seconds:267025.639960,localGtime.weeks:2052,localGtime.seconds:267026.000000
i = 0
i = 1
i = 2
i = 3
i = 4
i = 5
i = 6
i = 7
i = 8
i = 9
i = 10
i = 11
i = 12
i = 13
i = 14
i = 15
i = 16
i = 17
i = 18
i = 19
i = 20
i = 21
i = 22
i = 23
i = 24
i = 25
Refix G03: 2, 267025.920355, 1278
Refix G07: 2, 267025.914249, -3695
Refix G08: 2, 267025.923497, -4680
Refix G09: 2, 267025.921835, -4325
Refix G14: 2, 267025.919292, 2421
Refix G16: 2, 267025.932207, -66
Refix G23: 2, 267025.929127, -2895
Refix G26: 2, 267025.927629, 1135
Refix G27: 2, 267025.929926, -3460
Refix G31: 2, 267025.921713, 817
$GNGGA,021008.000,2944.0502,N,10633.8167,E,1,07,2.4,1470.4,M,,,,0000*2E
$GNRMC,021008.000,A,2944.0502,N,10633.8167,E,19.38,96.27,080519,,*19
$GPGSA,A,3,03,08,14,,,,,,,,,,2.7,2.4,1.2*3C
$BDGSA,A,3,01,03,04,19,,,,,,,,,2.7,2.4,1.2*2D
$GLGSA,A,3,,,,,,,,,,,,,2.7,2.4,1.2*2E
$GPGSV,3,1,11,03,13,225,38,08,35,188,42,09,27,314,41,14,05,149,36*7B
$GPGSV,3,2,11,16,61,009,44,23,59,290,43,26,37,041,44,27,61,149,44*7B
$GPGSV,3,3,11,31,20,096,41,22,00,000,33,07,08,300,00*4F
$BDGSV,3,1,12,01,40,125,41,02,45,218,40,03,54,172,43,04,23,109,40*6B
$BDGSV,3,2,12,05,00,000,35,06,41,170,41,07,65,009,43,09,66,204,43*6B
$BDGSV,3,3,12,10,62,302,43,16,47,177,42,19,20,294,44,23,20,079,41*66
$B3CN0,23,0,0,0,0,0,0,0,0,0,0,0,0,0*7D
$ini_pos,lastpos_good = 1,ini_pos.x:-1580541.009327,ini_pos.y:5314144.434458,ini_pos.z:3145549.469434
$rtc_local_time,localRTC.weeks:2052,localRTC.seconds:267026.639960,localGtime.weeks:2052,localGtime.seconds:267027.000000
i = 0
i = 1
i = 2
i = 3
i = 4
i = 5
i = 6
i = 7
i = 8
i = 9
i = 10
i = 11
i = 12
i = 13
i = 14
i = 15
i = 16
i = 17
i = 18
i = 19
i = 20
i = 21
i = 22
i = 23
i = 24
i = 25
Refix G03: 2, 267026.920354, 1287
Refix G07: 2, 267026.914251, -3689
Refix G08: 2, 267026.923499, -4672
Refix G09: 2, 267026.921838, -4318
Refix G14: 2, 267026.919290, 2426
Refix G16: 2, 267026.932207, -57
Refix G23: 2, 267026.929129, -2885
Refix G26: 2, 267026.927628, 1141
Refix G27: 2, 267026.929929, -3451
Refix G31: 2, 267026.921713, 821
$GNGGA,021009.000,2944.0474,N,10633.8132,E,1,07,2.4,1453.6,M,,,,0000*2C
$GNRMC,021009.000,A,2944.0474,N,10633.8132,E,19.85,93.46,080519,,*1C
$GPGSA,A,3,03,08,14,,,,,,,,,,2.7,2.4,1.2*3C
$BDGSA,A,3,01,03,04,19,,,,,,,,,2.7,2.4,1.2*2D
$GLGSA,A,3,,,,,,,,,,,,,2.7,2.4,1.2*2E
$GPGSV,3,1,11,03,13,225,39,08,35,188,42,09,27,314,41,14,05,149,37*7B
$GPGSV,3,2,11,16,61,009,45,23,59,290,44,26,37,041,44,27,61,149,44*7D
$GPGSV,3,3,11,31,20,096,41,22,00,000,35,07,08,300,00*49
$BDGSV,3,1,12,01,40,125,40,02,45,218,41,03,54,172,45,04,23,109,42*6F
$BDGSV,3,2,12,05,00,000,38,06,41,170,42,07,65,009,44,09,66,204,43*62
$BDGSV,3,3,12,10,62,302,44,16,47,177,43,19,20,294,44,23,20,079,42*63
$B3CN0,18,0,0,0,0,0,0,0,0,0,0,0,0,0*75
$ini_pos,lastpos_good = 1,ini_pos.x:-1580532.206040,ini_pos.y:5314134.531725,ini_pos.z:3145536.659227
$rtc_local_time,localRTC.weeks:2052,localRTC.seconds:267027.639960,localGtime.weeks:2052,localGtime.seconds:267028.000000
i = 0
i = 1
i = 2
i = 3
i = 4
i = 5
i = 6
i = 7
i = 8
i = 9
i = 10
i = 11
i = 12
i = 13
i = 14
i = 15
i = 16
i = 17
i = 18
i = 19
i = 20
i = 21
i = 22
i = 23
i = 24
i = 25
Refix G03: 2, 267027.920354, 1281
Refix G07: 2, 267027.914253, -3693
Refix G08: 2, 267027.923502, -4677
Refix G09: 2, 267027.921840, -4322
Refix G14: 2, 267027.919289, 2422
Refix G16: 2, 267027.932207, -64
Refix G23: 2, 267027.929131, -2892
Refix G26: 2, 267027.927627, 1136
Refix G27: 2, 267027.929931, -3457
Refix G31: 2, 267027.921712, 818
$GNGGA,021010.000,2944.0446,N,10633.8106,E,1,07,2.4,1441.8,M,,,,0000*2F
$GNRMC,021010.000,A,2944.0446,N,10633.8106,E,19.44,95.31,080519,,*19
$GPGSA,A,3,03,08,14,,,,,,,,,,2.7,2.4,1.2*3C
$BDGSA,A,3,01,03,04,19,,,,,,,,,2.7,2.4,1.2*2D
$GLGSA,A,3,,,,,,,,,,,,,2.7,2.4,1.2*2E
$GPGSV,3,1,11,03,13,225,38,08,35,188,41,09,27,314,41,14,05,149,37*79
$GPGSV,3,2,11,16,61,009,44,23,59,290,45,26,37,041,44,27,61,149,44*7D
$GPGSV,3,3,11,31,20,096,41,22,00,000,35,07,08,300,00*49
$BDGSV,3,1,12,01,40,125,41,02,45,218,41,03,54,172,43,04,23,109,39*64
$BDGSV,3,2,12,05,00,000,38,06,41,170,41,07,65,009,44,09,66,204,43*61
$BDGSV,3,3,12,10,62,302,44,16,47,177,43,19,20,294,43,23,20,079,42*64
$B3CN0,0,0,0,0,0,0,0,0,0,0,0,0,0,0*4C
$ini_pos,lastpos_good = 1,ini_pos.x:-1580525.971079,ini_pos.y:5314128.320877,ini_pos.z:3145526.236945
$rtc_local_time,localRTC.weeks:2052,localRTC.seconds:267028.639960,localGtime.weeks:2052,localGtime.seconds:267029.000000
i = 0
i = 1
i = 2
i = 3
i = 4
i = 5
i = 6
i = 7
i = 8
i = 9
i = 10
i = 11
i = 12
i = 13
i = 14
i = 15
i = 16
i = 17
i = 18
i = 19
i = 20
i = 21
i = 22
i = 23
i = 24
i = 25
i = 26
Refix G03: 2, 267028.920353, 1280
Refix G07: 2, 267028.914255, -3693
Refix G08: 2, 267028.923505, -4678
Refix G09: 2, 267028.921843, -4322
Refix G14: 2, 267028.919287, 2422
Refix G16: 2, 267028.932207, -62
Refix G23: 2, 267028.929133, -2891
Refix G26: 2, 267028.927626, 1137
Refix G27: 2, 267028.929933, -3456
Refix G31: 2, 267028.921711, 818
$GNGGA,021011.000,2944.0423,N,10633.8064,E,1,07,2.4,1425.1,M,,,,0000*23
$GNRMC,021011.000,A,2944.0423,N,10633.8064,E,19.26,95.43,080519,,*1F
$GPGSA,A,3,03,08,14,,,,,,,,,,2.7,2.4,1.2*3C
$BDGSA,A,3,01,03,04,19,,,,,,,,,2.7,2.4,1.2*2D
$GLGSA,A,3,,,,,,,,,,,,,2.7,2.4,1.2*2E
$GPGSV,3,1,11,03,13,225,38,08,35,188,42,09,27,314,40,14,05,149,38*74
$GPGSV,3,2,11,16,61,009,44,23,59,290,44,26,37,041,43,27,61,149,44*7B
$GPGSV,3,3,11,31,20,096,40,22,00,000,35,07,08,300,00*48
$BDGSV,3,1,12,01,40,125,41,02,45,218,41,03,54,172,42,04,23,109,40*6B
$BDGSV,3,2,12,05,00,000,37,06,41,170,42,07,65,009,44,09,66,204,43*6D
$BDGSV,3,3,12,10,62,302,43,16,47,177,43,19,20,294,43,23,20,079,42*63
$B3CN0,0,0,0,0,0,0,0,0,0,0,0,0,0,0*4C
$ini_pos,lastpos_good = 1,ini_pos.x:-1580516.007006,ini_pos.y:5314118.390493,ini_pos.z:3145514.309609
$rtc_local_time,localRTC.weeks:2052,localRTC.seconds:267029.639960,localGtime.weeks:2052,localGtime.seconds:267030.000000
i = 0
i = 1
i = 2
i = 3
i = 4
i = 5
i = 6
i = 7
i = 8
i = 9
i = 10
i = 11
i = 12
i = 13
i = 14
i = 15
i = 16
i = 17
i = 18
i = 19
i = 20
i = 21
i = 22
i = 23
i = 24
i = 25
i = 26
Refix G03: 2, 267029.920352, 1276
Refix G07: 2, 267029.914258, -3698
Refix G08: 2, 267029.923508, -4682
Refix G09: 2, 267029.921846, -4327
Refix G14: 2, 267029.919286, 2419
Refix G16: 2, 267029.932207, -67
Refix G23: 2, 267029.929134, -2896
Refix G26: 2, 267029.927625, 1132
Refix G27: 2, 267029.929935, -3460
Refix G31: 2, 267029.921711, 814
$GNGGA,021012.000,2944.0407,N,10633.8012,E,1,07,2.4,1401.6,M,,,,0000*26
$GNRMC,021012.000,A,2944.0407,N,10633.8012,E,19.50,96.03,080519,,*1D
$GPGSA,A,3,03,08,14,,,,,,,,,,2.7,2.4,1.2*3C
$BDGSA,A,3,01,03,04,19,,,,,,,,,2.7,2.4,1.2*2D
$GLGSA,A,3,,,,,,,,,,,,,2.7,2.4,1.2*2E
$GPGSV,3,1,11,03,13,225,38,08,35,188,42,09,27,314,41,14,05,149,37*7A
$GPGSV,3,2,11,16,61,009,44,23,59,290,43,26,37,041,43,27,61,149,44*7C
$GPGSV,3,3,11,31,20,096,40,22,00,000,34,07,08,300,00*49
$BDGSV,3,1,12,01,40,125,41,02,45,218,40,03,54,172,45,04,23,109,41*6C
$BDGSV,3,2,12,05,00,000,37,06,41,170,41,07,65,009,43,09,66,204,43*69
$BDGSV,3,3,12,10,62,302,44,16,47,177,42,19,20,294,43,23,20,079,42*65
$B3CN0,0,0,0,0,0,0,0,0,0,0,0,0,0,0*4C
$ini_pos,lastpos_good = 1,ini_pos.x:-1580502.503544,ini_pos.y:5314102.595375,ini_pos.z:3145500.215275
$rtc_local_time,localRTC.weeks:2052,localRTC.seconds:267030.639960,localGtime.weeks:2052,localGtime.seconds:267030.999999
i = 0
i = 1
i = 2
i = 3
i = 4
i = 5
i = 6
i = 7
i = 8
i = 9
i = 10
i = 11
i = 12
i = 13
i = 14
i = 15
i = 16
i = 17
i = 18
i = 19
i = 20
i = 21
i = 22
i = 23
i = 24
i = 25
i = 26
i = 27
i = 28
Refix G03: 2, 267030.920351, 1276
Refix G07: 2, 267030.914260, -3698
Refix G08: 2, 267030.923511, -4682
Refix G09: 2, 267030.921848, -4326
Refix G14: 2, 267030.919284, 2418
Refix G16: 2, 267030.932206, -67
Refix G23: 2, 267030.929136, -2895
Refix G26: 2, 267030.927624, 1132
Refix G27: 2, 267030.929937, -3460
Refix G31: 2, 267030.921710, 814
$GNGGA,021013.000,2944.0340,N,10633.7964,E,1,07,2.4,1401.8,M,,,,0000*2A
$GNRMC,021013.000,A,2944.0340,N,10633.7964,E,19.26,96.04,080519,,*19
$GPGSA,A,3,03,08,14,,,,,,,,,,2.7,2.4,1.2*3C
$BDGSA,A,3,01,03,04,19,,,,,,,,,2.7,2.4,1.2*2D
$GLGSA,A,3,,,,,,,,,,,,,2.7,2.4,1.2*2E
$GPGSV,3,1,11,03,13,225,37,08,35,188,41,09,27,314,40,14,05,149,37*77
$GPGSV,3,2,11,16,61,009,44,23,59,290,44,26,37,041,44,27,61,149,44*7C
$GPGSV,3,3,11,31,20,096,41,22,00,000,35,07,08,300,00*49
$BDGSV,3,1,12,01,40,125,41,02,45,218,40,03,54,172,43,04,23,109,41*6A
$BDGSV,3,2,12,05,00,000,38,06,41,170,41,07,65,009,43,09,66,204,43*66
$BDGSV,3,3,12,10,62,302,43,16,47,177,43,19,20,294,43,23,20,079,42*63
$B3CN0,0,0,0,0,0,0,0,0,0,0,0,0,0,0*4C
$ini_pos,lastpos_good = 1,ini_pos.x:-1580496.937245,ini_pos.y:5314110.843228,ini_pos.z:3145489.484815
$rtc_local_time,localRTC.weeks:2052,localRTC.seconds:267031.639960,localGtime.weeks:2052,localGtime.seconds:267031.999999
i = 0
i = 1
i = 2
i = 3
i = 4
i = 5
i = 6
i = 7
i = 8
i = 9
i = 10
i = 11
i = 12
i = 13
i = 14
i = 15
i = 16
i = 17
i = 18
i = 19
i = 20
i = 21
i = 22
i = 23
i = 24
i = 25
i = 26
i = 27
i = 28
i = 29
i = 30
Refix G03: 2, 267031.920350, 1281
Refix G07: 2, 267031.914262, -3693
Refix G08: 2, 267031.923514, -4676
Refix G09: 2, 267031.921851, -4320
Refix G14: 2, 267031.919282, 2424
Refix G16: 2, 267031.932206, -57
Refix G23: 2, 267031.929138, -2887
Refix G26: 2, 267031.927623, 1140
Refix G27: 2, 267031.929939, -3451
Refix G31: 2, 267031.921710, 821
$GNGGA,021014.000,2944.0313,N,10633.7911,E,1,07,2.4,1387.7,M,,,,0000*2F
$GNRMC,021014.000,A,2944.0313,N,10633.7911,E,19.16,96.46,080519,,*1F
$GPGSA,A,3,03,08,14,,,,,,,,,,2.7,2.4,1.2*3C
$BDGSA,A,3,01,03,04,19,,,,,,,,,2.7,2.4,1.2*2D
$GLGSA,A,3,,,,,,,,,,,,,2.7,2.4,1.2*2E
$GPGSV,3,1,11,03,13,225,38,08,35,188,41,09,27,314,40,14,05,149,36*79
$GPGSV,3,2,11,16,61,009,44,23,59,290,44,26,37,041,44,27,61,149,44*7C
$GPGSV,3,3,11,31,20,096,41,22,00,000,36,07,08,300,00*4A
$BDGSV,3,1,12,01,40,125,41,02,45,218,40,03,54,172,43,04,23,109,40*6B
$BDGSV,3,2,12,05,00,000,37,06,41,170,42,07,65,009,43,09,66,204,43*6A
$BDGSV,3,3,12,10,62,302,43,16,47,177,43,19,20,294,43,23,20,079,42*63
$B3CN0,0,0,0,0,0,0,0,0,0,0,0,0,0,0*4C
$ini_pos,lastpos_good = 1,ini_pos.x:-1580485.850328,ini_pos.y:5314104.000963,ini_pos.z:3145478.068618
$rtc_local_time,localRTC.weeks:2052,localRTC.seconds:267032.639960,localGtime.weeks:2052,localGtime.seconds:267032.999999
i = 0
i = 1
i = 2
i = 3
i = 4
i = 5
i = 6
i = 7
i = 8
i = 9
i = 10
i = 11
i = 12
i = 13
i = 14
i = 15
i = 16
i = 17
i = 18
i = 19
i = 20
i = 21
i = 22
i = 23
i = 24
i = 25
i = 26
i = 27
i = 28
i = 29
Refix G03: 2, 267032.920349, 1283
Refix G07: 2, 267032.914265, -3691
Refix G08: 2, 267032.923517, -4674
Refix G09: 2, 267032.921853, -4318
Refix G14: 2, 267032.919281, 2424
Refix G16: 2, 267032.932206, -56
Refix G23: 2, 267032.929139, -2885
Refix G26: 2, 267032.927623, 1140
Refix G27: 2, 267032.929941, -3450
Refix G31: 2, 267032.921709, 821
$GNGGA,021015.000,2944.0283,N,10633.7849,E,1,07,2.4,1365.4,M,,,,0000*25
$GNRMC,021015.000,A,2944.0283,N,10633.7849,E,19.12,95.05,080519,,*1A
$GPGSA,A,3,03,08,14,,,,,,,,,,2.7,2.4,1.2*3C
$BDGSA,A,3,01,03,04,19,,,,,,,,,2.7,2.4,1.2*2D
$GLGSA,A,3,,,,,,,,,,,,,2.7,2.4,1.2*2E
$GPGSV,3,1,11,03,13,225,38,08,35,188,42,09,27,314,40,14,05,149,36*7A
$GPGSV,3,2,11,16,61,009,44,23,59,290,44,26,37,041,43,27,61,149,43*7C
$GPGSV,3,3,11,31,20,096,41,22,00,000,37,07,08,300,00*4B
$BDGSV,3,1,12,01,40,125,40,02,45,218,40,03,54,172,43,04,23,109,41*6B
$BDGSV,3,2,12,05,00,000,38,06,41,170,42,07,65,009,43,09,66,204,43*65
$BDGSV,3,3,12,10,62,302,43,16,47,177,43,19,20,294,43,23,20,079,42*63
$B3CN0,18,0,0,0,0,0,0,0,0,0,0,0,0,0*75
$ini_pos,lastpos_good = 1,ini_pos.x:-1580471.641868,ini_pos.y:5314090.853078,ini_pos.z:3145462.258898
$rtc_local_time,localRTC.weeks:2052,localRTC.seconds:267033.639960,localGtime.weeks:2052,localGtime.seconds:267033.999999
i = 0
i = 1
i = 2
i = 3
i = 4
i = 5
i = 6
i = 7
i = 8
i = 9
i = 10
i = 11
i = 12
i = 13
i = 14
i = 15
i = 16
i = 17
i = 18
i = 19
i = 20
i = 21
i = 22
i = 23
i = 24
i = 25
i = 26
i = 27
i = 28
i = 29
Refix G03: 2, 267033.920349, 1284
Refix G07: 2, 267033.914267, -3690
Refix G08: 2, 267033.923520, -4673
Refix G09: 2, 267033.921856, -4317
Refix G14: 2, 267033.919279, 2426
Refix G16: 2, 267033.932206, -55
Refix G23: 2, 267033.929141, -2884
Refix G26: 2, 267033.927622, 1142
Refix G27: 2, 267033.929943, -3448
Refix G31: 2, 267033.921708, 823
$GNGGA,021016.000,2944.0276,N,10633.7818,E,1,07,2.4,1355.4,M,,,,0000*2B
$GNRMC,021016.000,A,2944.0276,N,10633.7818,E,19.09,95.90,080519,,*11
$GPGSA,A,3,03,08,14,,,,,,,,,,2.7,2.4,1.2*3C
$BDGSA,A,3,01,03,04,19,,,,,,,,,2.7,2.4,1.2*2D
$GLGSA,A,3,,,,,,,,,,,,,2.7,2.4,1.2*2E
$GPGSV,3,1,11,03,13,225,38,08,35,188,42,09,27,314,40,14,05,149,37*7B
$GPGSV,3,2,11,16,61,009,44,23,59,290,44,26,37,041,44,27,61,149,44*7C
$GPGSV,3,3,11,31,20,096,41,22,00,000,36,07,08,300,00*4A
$BDGSV,3,1,12,01,40,125,41,02,45,218,41,03,54,172,43,04,23,109,41*6B
$BDGSV,3,2,12,05,00,000,37,06,41,170,42,07,65,009,43,09,66,204,43*6A
$BDGSV,3,3,12,10,62,302,43,16,47,177,43,19,20,294,43,23,20,079,41*60
$B3CN0,36,0,0,0,0,0,0,0,0,0,0,0,0,0*79
$ini_pos,lastpos_good = 1,ini_pos.x:-1580464.558942,ini_pos.y:5314084.599751,ini_pos.z:3145456.178424
$rtc_local_time,localRTC.weeks:2052,localRTC.seconds:267034.639960,localGtime.weeks:2052,localGtime.seconds:267034.999999
i = 0
i = 1
i = 2
i = 3
i = 4
i = 5
i = 6
i = 7
i = 8
i = 9
i = 10
i = 11
i = 12
i = 13
i = 14
i = 15
i = 16
i = 17
i = 18
i = 19
i = 20
i = 21
i = 22
i = 23
i = 24
i = 25
i = 26
i = 27
i = 28
Refix G03: 2, 267034.920348, 1274
Refix G07: 2, 267034.914269, -3698
Refix G08: 2, 267034.923523, -4684
Refix G09: 2, 267034.921859, -4327
Refix G14: 2, 267034.919278, 2417
Refix G16: 2, 267034.932206, -70
Refix G23: 2, 267034.929143, -2898
Refix G26: 2, 267034.927621, 1129
Refix G27: 2, 267034.929945, -3462
Refix G31: 2, 267034.921708, 812
$GNGGA,021017.000,2944.0264,N,10633.7790,E,1,07,2.4,1340.4,M,,,,0000*22
$GNRMC,021017.000,A,2944.0264,N,10633.7790,E,19.03,96.29,080519,,*17
$GPGSA,A,3,03,08,14,,,,,,,,,,2.7,2.4,1.2*3C
$BDGSA,A,3,01,03,04,19,,,,,,,,,2.7,2.4,1.2*2D
$GLGSA,A,3,,,,,,,,,,,,,2.7,2.4,1.2*2E
$GPGSV,3,1,11,03,13,225,38,08,35,188,42,09,27,314,40,14,05,149,37*7B
$GPGSV,3,2,11,16,61,009,44,23,59,290,43,26,37,041,44,27,61,149,44*7B
$GPGSV,3,3,11,31,20,096,41,22,00,000,36,07,08,300,00*4A
$BDGSV,3,1,12,01,40,125,41,02,45,218,40,03,54,172,43,04,23,109,41*6A
$BDGSV,3,2,12,05,00,000,37,06,41,170,41,07,65,009,43,09,66,204,43*69
$BDGSV,3,3,12,10,62,302,43,16,47,177,43,19,20,294,42,23,20,079,41*61
$B3CN0,19,0,0,0,0,0,0,0,0,0,0,0,0,0*74
$ini_pos,lastpos_good = 1,ini_pos.x:-1580456.746450,ini_pos.y:5314074.448751,ini_pos.z:3145446.921802
$rtc_local_time,localRTC.weeks:2052,localRTC.seconds:267035.639960,localGtime.weeks:2052,localGtime.seconds:267035.999999
i = 0
i = 1
i = 2
i = 3
i = 4
i = 5
i = 6
i = 7
i = 8
i = 9
i = 10
i = 11
i = 12
i = 13
i = 14
i = 15
i = 16
i = 17
i = 18
i = 19
i = 20
i = 21
i = 22
i = 23
i = 24
i = 25
i = 26
i = 27
i = 28
Refix G03: 2, 267035.920347, 1281
Refix G07: 2, 267035.914271, -3694
Refix G08: 2, 267035.923526, -4675
Refix G09: 2, 267035.921861, -4320
Refix G14: 2, 267035.919276, 2424
Refix G16: 2, 267035.932206, -58
Refix G23: 2, 267035.929145, -2887
Refix G26: 2, 267035.927620, 1138
Refix G27: 2, 267035.929948, -3451
Refix G31: 2, 267035.921707, 819
$GNGGA,021018.000,2944.0258,N,10633.7770,E,1,07,2.4,1331.9,M,,,,0000*27
$GNRMC,021018.000,A,2944.0258,N,10633.7770,E,19.49,95.85,080519,,*12
$GPGSA,A,3,03,08,14,,,,,,,,,,2.7,2.4,1.2*3C
$BDGSA,A,3,01,03,04,19,,,,,,,,,2.7,2.4,1.2*2D
$GLGSA,A,3,,,,,,,,,,,,,2.7,2.4,1.2*2E
$GPGSV,3,1,11,03,13,225,37,08,35,188,42,09,27,314,40,14,05,149,37*74
$GPGSV,3,2,11,16,61,009,45,23,59,290,44,26,37,041,44,27,61,149,44*7D
$GPGSV,3,3,11,31,20,096,41,22,00,000,37,07,08,300,00*4B
$BDGSV,3,1,12,01,40,125,41,02,45,218,41,03,54,172,43,04,23,109,41*6B
$BDGSV,3,2,12,05,00,000,38,06,41,170,41,07,65,009,43,09,66,204,43*66
$BDGSV,3,3,12,10,62,302,43,16,47,177,42,19,20,294,42,23,20,079,41*60
$B3CN0,20,0,0,0,0,0,0,0,0,0,0,0,0,0*7E
$ini_pos,lastpos_good = 1,ini_pos.x:-1580451.784945,ini_pos.y:5314068.818791,ini_pos.z:3145441.597417
$rtc_local_time,localRTC.weeks:2052,localRTC.seconds:267036.639960,localGtime.weeks:2052,localGtime.seconds:267036.999999
i = 0
i = 1
i = 2
i = 3
i = 4
i = 5
i = 6
i = 7
i = 8
i = 9
i = 10
i = 11
i = 12
i = 13
i = 14
i = 15
i = 16
i = 17
i = 18
i = 19
i = 20
i = 21
i = 22
i = 23
i = 24
i = 25
i = 26
i = 27
i = 28
i = 29
Refix G03: 2, 267036.920346, 1295
Refix G07: 2, 267036.914274, -3683
Refix G08: 2, 267036.923529, -4661
Refix G09: 2, 267036.921864, -4307
Refix G14: 2, 267036.919275, 2435
Refix G16: 2, 267036.932206, -40
Refix G23: 2, 267036.929146, -2869
Refix G26: 2, 267036.927619, 1153
Refix G27: 2, 267036.929950, -3433
Refix G31: 2, 267036.921707, 831
$GNGGA,021019.000,2944.0235,N,10633.7724,E,1,07,2.4,1317.1,M,,,,0000*20
$GNRMC,021019.000,A,2944.0235,N,10633.7724,E,19.59,94.15,080519,,*10
$GPGSA,A,3,03,08,14,,,,,,,,,,2.7,2.4,1.2*3C
$BDGSA,A,3,01,03,04,19,,,,,,,,,2.7,2.4,1.2*2D
$GLGSA,A,3,,,,,,,,,,,,,2.7,2.4,1.2*2E
$GPGSV,3,1,11,03,13,225,38,08,35,188,42,09,27,314,40,14,05,149,37*7B
$GPGSV,3,2,11,16,61,009,45,23,59,290,45,26,37,041,44,27,61,149,45*7D
$GPGSV,3,3,11,31,20,096,41,22,00,000,36,07,08,300,00*4A
$BDGSV,3,1,12,01,40,125,40,02,45,218,40,03,54,172,45,04,23,109,41*6D
$BDGSV,3,2,12,05,00,000,37,06,41,170,42,07,65,009,43,09,66,204,43*6A
$BDGSV,3,3,12,10,62,302,44,16,47,177,43,19,20,294,43,23,20,079,41*67
$B3CN0,0,0,0,0,0,0,0,0,0,0,0,0,0,0*4C
$ini_pos,lastpos_good = 1,ini_pos.x:-1580441.495151,ini_pos.y:5314060.633613,ini_pos.z:3145430.604161
$rtc_local_time,localRTC.weeks:2052,localRTC.seconds:267037.639960,localGtime.weeks:2052,localGtime.seconds:267037.999999
i = 0
i = 1
i = 2
i = 3
i = 4
i = 5
i = 6
i = 7
i = 8
i = 9
i = 10
i = 11
i = 12
i = 13
i = 14
i = 15
i = 16
i = 17
i = 18
i = 19
i = 20
i = 21
i = 22
i = 23
i = 24
i = 25
i = 26
i = 27
i = 28
i = 29
i = 30
Refix G03: 2, 267037.920345, 1290
Refix G07: 2, 267037.914276, -3684
Refix G08: 2, 267037.923532, -4667
Refix G09: 2, 267037.921867, -4308
Refix G14: 2, 267037.919273, 2433
Refix G16: 2, 267037.932206, -46
Refix G23: 2, 267037.929148, -2875
Refix G26: 2, 267037.927618, 1150
Refix G27: 2, 267037.929952, -3440
Refix G31: 2, 267037.921706, 830
$GNGGA,021020.000,2944.0228,N,10633.7690,E,1,07,2.4,1299.5,M,,,,0000*2B
$GNRMC,021020.000,A,2944.0228,N,10633.7690,E,18.63,96.45,080519,,*17
$GPGSA,A,3,03,08,14,,,,,,,,,,2.7,2.4,1.2*3C
$BDGSA,A,3,01,03,04,19,,,,,,,,,2.7,2.4,1.2*2D
$GLGSA,A,3,,,,,,,,,,,,,2.7,2.4,1.2*2E
$GPGSV,3,1,11,03,13,225,38,08,35,188,42,09,27,314,40,14,05,149,38*74
$GPGSV,3,2,11,16,61,009,44,23,59,290,44,26,37,041,45,27,61,149,45*7C
$GPGSV,3,3,11,31,20,096,40,22,00,000,37,07,08,300,00*4A
$BDGSV,3,1,12,01,40,125,40,02,45,218,40,03,54,172,43,04,23,109,41*6B
$BDGSV,3,2,12,05,00,000,38,06,41,170,41,07,65,009,43,09,66,204,43*66
$BDGSV,3,3,12,10,62,302,43,16,47,177,42,19,20,294,43,23,20,079,41*61
$B3CN0,0,0,0,0,0,0,0,0,0,0,0,0,0,0*4C
$ini_pos,lastpos_good = 1,ini_pos.x:-1580432.050368,ini_pos.y:5314048.162424,ini_pos.z:3145420.736638
$rtc_local_time,localRTC.weeks:2052,localRTC.seconds:267038.639960,localGtime.weeks:2052,localGtime.seconds:267038.999999
i = 0
i = 1
i = 2
i = 3
i = 4
i = 5
i = 6
i = 7
i = 8
i = 9
i = 10
i = 11
i = 12
i = 13
i = 14
i = 15
i = 16
i = 17
i = 18
i = 19
i = 20
i = 21
i = 22
i = 23
i = 24
i = 25
i = 26
i = 27
i = 28
i = 29
i = 30
i = 31
i = 32
Refix G03: 2, 267038.920344, 1281
Refix G07: 2, 267038.914278, -3689
Refix G08: 2, 267038.923535, -4676
Refix G09: 2, 267038.921869, -4316
Refix G14: 2, 267038.919271, 2426
Refix G16: 2, 267038.932206, -59
Refix G23: 2, 267038.929150, -2887
Refix G26: 2, 267038.927617, 1139
Refix G27: 2, 267038.929954, -3452
Refix G31: 2, 267038.921705, 822
$GNGGA,021021.000,2944.0212,N,10633.7646,E,1,07,2.4,1282.0,M,,,,0000*27
$GNRMC,021021.000,A,2944.0212,N,10633.7646,E,18.53,97.40,080519,,*13
$GPGSA,A,3,03,08,14,,,,,,,,,,2.7,2.4,1.2*3C
$BDGSA,A,3,01,03,04,19,,,,,,,,,2.7,2.4,1.2*2D
$GLGSA,A,3,,,,,,,,,,,,,2.7,2.4,1.2*2E
$GPGSV,3,1,11,03,13,225,38,08,35,188,43,09,27,314,40,14,05,149,37*7A
$GPGSV,3,2,11,16,61,009,44,23,59,290,44,26,37,041,44,27,61,149,44*7C
$GPGSV,3,3,11,31,20,096,41,22,00,000,37,07,08,300,00*4B
$BDGSV,3,1,12,01,40,125,40,02,45,218,41,03,54,172,42,04,23,109,42*68
$BDGSV,3,2,12,05,00,000,37,06,41,170,41,07,65,009,43,09,66,204,43*69
$BDGSV,3,3,12,10,62,302,43,16,47,177,42,19,20,294,42,23,20,079,41*60
$B3CN0,0,0,0,0,0,0,0,0,0,0,0,0,0,0*4C
$ini_pos,lastpos_good = 1,ini_pos.x:-1580421.469301,ini_pos.y:5314037.027452,ini_pos.z:3145409.506391
$rtc_local_time,localRTC.weeks:2052,localRTC.seconds:267039.639960,localGtime.weeks:2052,localGtime.seconds:267039.999999
i = 0
i = 1
i = 2
i = 3
i = 4
i = 5
i = 6
i = 7
i = 8
i = 9
i = 10
i = 11
i = 12
i = 13
i = 14
i = 15
i = 16
i = 17
i = 18
i = 19
i = 20
i = 21
i = 22
i = 23
i = 24
i = 25
i = 26
i = 27
i = 28
i = 29
i = 30
i = 31
Refix G03: 2, 267039.920343, 1279
Refix G07: 2, 267039.914281, -3693
Refix G08: 2, 267039.923538, -4678
Refix G09: 2, 267039.921872, -4319
Refix G14: 2, 267039.919270, 2425
Refix G16: 2, 267039.932206, -60
Refix G23: 2, 267039.929152, -2889
Refix G26: 2, 267039.927617, 1137
Refix G27: 2, 267039.929956, -3452
Refix G31: 2, 267039.921705, 820
$GNGGA,021022.000,2944.0192,N,10633.7610,E,1,07,2.4,1270.1,M,,,,0000*20
$GNRMC,021022.000,A,2944.0192,N,10633.7610,E,18.77,98.09,080519,,*1C
$GPGSA,A,3,03,08,14,,,,,,,,,,2.7,2.4,1.2*3C
$BDGSA,A,3,01,03,04,19,,,,,,,,,2.7,2.4,1.2*2D
$GLGSA,A,3,,,,,,,,,,,,,2.7,2.4,1.2*2E
$GPGSV,3,1,11,03,13,225,38,08,35,188,41,09,27,314,40,14,05,149,37*78
$GPGSV,3,2,11,16,61,009,44,23,59,290,44,26,37,041,44,27,61,149,44*7C
$GPGSV,3,3,11,31,20,096,41,22,00,000,37,07,08,300,00*4B
$BDGSV,3,1,12,01,40,125,41,02,45,218,41,03,54,172,43,04,23,109,42*68
$BDGSV,3,2,12,05,00,000,38,06,41,170,41,07,65,009,44,09,66,204,43*61
$BDGSV,3,3,12,10,62,302,44,16,47,177,43,19,20,294,43,23,20,079,41*67
$B3CN0,0,0,0,0,0,0,0,0,0,0,0,0,0,0*4C
$ini_pos,lastpos_good = 1,ini_pos.x:-1580413.370509,ini_pos.y:5314030.493230,ini_pos.z:3145400.411446
$rtc_local_time,localRTC.weeks:2052,localRTC.seconds:267040.639960,localGtime.weeks:2052,localGtime.seconds:267040.999999
i = 0
i = 1
i = 2
i = 3
i = 4
i = 5
i = 6
i = 7
i = 8
i = 9
i = 10
i = 11
i = 12
i = 13
i = 14
i = 15
i = 16
i = 17
i = 18
i = 19
i = 20
i = 21
i = 22
i = 23
i = 24
i = 25
i = 26
i = 27
i = 28
i = 29
i = 30
i = 31
Refix G03: 2, 267040.920343, 1278
Refix G07: 2, 267040.914283, -3695
Refix G08: 2, 267040.923541, -4678
Refix G09: 2, 267040.921875, -4320
Refix G14: 2, 267040.919268, 2423
Refix G16: 2, 267040.932206, -60
Refix G23: 2, 267040.929153, -2889
Refix G26: 2, 267040.927616, 1136
Refix G27: 2, 267040.929958, -3452
Refix G31: 2, 267040.921704, 819
$GNGGA,021023.000,2944.0157,N,10633.7577,E,1,07,2.4,1253.7,M,,,,0000*2D
$GNRMC,021023.000,A,2944.0157,N,10633.7577,E,18.95,97.35,080519,,*1A
$GPGSA,A,3,03,08,14,,,,,,,,,,2.7,2.4,1.2*3C
$BDGSA,A,3,01,03,04,19,,,,,,,,,2.7,2.4,1.2*2D
$GLGSA,A,3,,,,,,,,,,,,,2.7,2.4,1.2*2E
$GPGSV,3,1,11,03,13,225,37,08,35,188,42,09,27,314,40,14,05,149,38*7B
$GPGSV,3,2,11,16,61,009,44,23,59,290,44,26,37,041,44,27,61,149,44*7C
$GPGSV,3,3,11,31,20,096,41,22,00,000,37,07,08,300,00*4B
$BDGSV,3,1,12,01,40,125,42,02,45,218,41,03,54,172,42,04,23,109,41*69
$BDGSV,3,2,12,05,00,000,36,06,41,170,41,07,65,009,44,09,66,204,43*6F
$BDGSV,3,3,12,10,62,302,44,16,47,177,43,19,20,294,43,23,20,079,41*67
$B3CN0,0,0,0,0,0,0,0,0,0,0,0,0,0,0*4C
$ini_pos,lastpos_good = 1,ini_pos.x:-1580405.217831,ini_pos.y:5314021.513495,ini_pos.z:3145386.667874
$rtc_local_time,localRTC.weeks:2052,localRTC.seconds:267041.639960,localGtime.weeks:2052,localGtime.seconds:267041.999999
i = 0
i = 1
i = 2
i = 3
i = 4
i = 5
i = 6
i = 7
i = 8
i = 9
i = 10
i = 11
i = 12
i = 13
i = 14
i = 15
i = 16
i = 17
i = 18
i = 19
i = 20
i = 21
i = 22
i = 23
i = 24
i = 25
i = 26
i = 27
i = 28
i = 29
i = 30
i = 31
Refix G03: 2, 267041.920342, 1269
Refix G07: 2, 267041.914285, -3702
Refix G08: 2, 267041.923543, -4687
Refix G09: 2, 267041.921877, -4327
Refix G14: 2, 267041.919267, 2416
Refix G16: 2, 267041.932205, -69
Refix G23: 2, 267041.929155, -2898
Refix G26: 2, 267041.927615, 1128
Refix G27: 2, 267041.929960, -3461
Refix G31: 2, 267041.921703, 811
$GNGGA,021024.000,2944.0132,N,10633.7535,E,1,07,2.4,1239.1,M,,,,0000*25
$GNRMC,021024.000,A,2944.0132,N,10633.7535,E,18.46,98.34,080519,,*18
$GPGSA,A,3,03,08,14,,,,,,,,,,2.7,2.4,1.2*3C
$BDGSA,A,3,01,03,04,19,,,,,,,,,2.7,2.4,1.2*2D
$GLGSA,A,3,,,,,,,,,,,,,2.7,2.4,1.2*2E
$GPGSV,3,1,11,03,13,225,38,08,35,188,42,09,27,314,40,14,05,149,37*7B
$GPGSV,3,2,11,16,61,009,45,23,59,290,44,26,37,041,44,27,61,149,45*7C
$GPGSV,3,3,11,31,20,096,41,22,00,000,37,07,08,300,00*4B
$BDGSV,3,1,12,01,40,125,40,02,45,218,41,03,54,172,43,04,23,109,40*6B
$BDGSV,3,2,12,05,00,000,39,06,41,170,41,07,65,009,44,09,66,204,44*67
$BDGSV,3,3,12,10,62,302,44,16,47,177,43,19,20,294,43,23,20,079,42*64
$B3CN0,0,0,0,0,0,0,0,0,0,0,0,0,0,0*4C
$ini_pos,lastpos_good = 1,ini_pos.x:-1580395.791200,ini_pos.y:5314013.459487,ini_pos.z:3145375.321353
$rtc_local_time,localRTC.weeks:2052,localRTC.seconds:267042.639959,localGtime.weeks:2052,localGtime.seconds:267042.999999
i = 0
i = 1
i = 2
i = 3
i = 4
i = 5
i = 6
i = 7
i = 8
i = 9
i = 10
i = 11
i = 12
i = 13
i = 14
i = 15
i = 16
i = 17
i = 18
i = 19
i = 20
i = 21
i = 22
i = 23
i = 24
i = 25
i = 26
i = 27
i = 28
i = 29
i = 30
i = 31
i = 32
Refix G03: 2, 267042.920341, 1271
Refix G07: 2, 267042.914287, -3703
Refix G08: 2, 267042.923546, -4685
Refix G09: 2, 267042.921880, -4327
Refix G14: 2, 267042.919265, 2416
Refix G16: 2, 267042.932205, -65
Refix G23: 2, 267042.929157, -2894
Refix G26: 2, 267042.927614, 1130
Refix G27: 2, 267042.929962, -3457
Refix G31: 2, 267042.921703, 812
$GNGGA,021025.000,2944.0116,N,10633.7496,E,1,07,2.4,1227.2,M,,,,0000*26
$GNRMC,021025.000,A,2944.0116,N,10633.7496,E,18.94,97.33,080519,,*10
$GPGSA,A,3,03,08,14,,,,,,,,,,2.7,2.4,1.2*3C
$BDGSA,A,3,01,03,04,19,,,,,,,,,2.7,2.4,1.2*2D
$GLGSA,A,3,,,,,,,,,,,,,2.7,2.4,1.2*2E
$GPGSV,3,1,11,03,13,225,37,08,35,188,41,09,27,314,40,14,05,149,37*77
$GPGSV,3,2,11,16,61,009,44,23,59,290,44,26,37,041,44,27,61,149,44*7C
$GPGSV,3,3,11,31,20,096,41,22,00,000,37,07,08,300,00*4B
$BDGSV,3,1,12,01,40,125,41,02,45,218,42,03,54,172,43,04,23,109,41*68
$BDGSV,3,2,12,05,00,000,37,06,41,170,41,07,65,009,43,09,66,204,43*69
$BDGSV,3,3,12,10,62,302,43,16,47,177,43,19,20,294,43,23,20,079,42*63
$B3CN0,36,0,0,0,0,0,0,0,0,0,0,0,0,0*79
$ini_pos,lastpos_good = 1,ini_pos.x:-1580387.245448,ini_pos.y:5314006.749473,ini_pos.z:3145366.931454
$rtc_local_time,localRTC.weeks:2052,localRTC.seconds:267043.639959,localGtime.weeks:2052,localGtime.seconds:267043.999999
i = 0
i = 1
i = 2
i = 3
i = 4
i = 5
i = 6
i = 7
i = 8
i = 9
i = 10
i = 11
i = 12
i = 13
i = 14
i = 15
i = 16
i = 17
i = 18
i = 19
i = 20
i = 21
i = 22
i = 23
i = 24
i = 25
i = 26
i = 27
i = 28
i = 29
i = 30
i = 31
Refix G03: 2, 267043.920340, 1269
Refix G07: 2, 267043.914290, -3704
Refix G08: 2, 267043.923549, -4688
Refix G09: 2, 267043.921883, -4328
Refix G14: 2, 267043.919264, 2413
Refix G16: 2, 267043.932205, -67
Refix G23: 2, 267043.929159, -2895
Refix G26: 2, 267043.927613, 1127
Refix G27: 2, 267043.929964, -3459
Refix G31: 2, 267043.921702, 808
$GNGGA,021026.000,2944.0124,N,10633.7474,E,1,07,2.4,1210.1,M,,,,0000*2F
$GNRMC,021026.000,A,2944.0124,N,10633.7474,E,18.58,96.11,080519,,*1F
$GPGSA,A,3,03,08,14,,,,,,,,,,2.7,2.4,1.2*3C
$BDGSA,A,3,01,03,04,19,,,,,,,,,2.7,2.4,1.2*2D
$GLGSA,A,3,,,,,,,,,,,,,2.7,2.4,1.2*2E
$GPGSV,3,1,11,03,13,225,37,08,35,188,42,09,27,314,40,14,05,149,37*74
$GPGSV,3,2,11,16,61,009,44,23,59,290,44,26,37,041,44,27,61,149,44*7C
$GPGSV,3,3,11,31,20,096,42,22,00,000,37,07,08,300,00*48
$BDGSV,3,1,12,01,40,125,41,02,45,218,41,03,54,172,43,04,23,109,40*6A
$BDGSV,3,2,12,05,00,000,38,06,41,170,42,07,65,009,43,09,66,204,43*65
$BDGSV,3,3,12,10,62,302,43,16,47,177,43,19,20,294,43,23,20,079,42*63
$B3CN0,36,0,0,0,0,0,0,0,0,0,0,0,0,0*79
$ini_pos,lastpos_good = 1,ini_pos.x:-1580379.306597,ini_pos.y:5313992.844443,ini_pos.z:3145359.654481
$rtc_local_time,localRTC.weeks:2052,localRTC.seconds:267044.639959,localGtime.weeks:2052,localGtime.seconds:267044.999999
i = 0
i = 1
i = 2
i = 3
i = 4
i = 5
i = 6
i = 7
i = 8
i = 9
i = 10
i = 11
i = 12
i = 13
i = 14
i = 15
i = 16
i = 17
i = 18
i = 19
i = 20
i = 21
i = 22
i = 23
i = 24
i = 25
i = 26
i = 27
i = 28
i = 29
i = 30
i = 31
Refix G03: 2, 267044.920339, 1271
Refix G07: 2, 267044.914292, -3703
Refix G08: 2, 267044.923552, -4685
Refix G09: 2, 267044.921885, -4326
Refix G14: 2, 267044.919262, 2415
Refix G16: 2, 267044.932205, -64
Refix G23: 2, 267044.929160, -2893
Refix G26: 2, 267044.927612, 1129
Refix G27: 2, 267044.929967, -3456
Refix G31: 2, 267044.921702, 811
$GNGGA,021027.000,2944.0104,N,10633.7434,E,1,07,2.4,1199.3,M,,,,0000*28
$GNRMC,021027.000,A,2944.0104,N,10633.7434,E,18.87,96.51,080519,,*1E
$GPGSA,A,3,03,08,14,,,,,,,,,,2.7,2.4,1.2*3C
$BDGSA,A,3,01,03,04,19,,,,,,,,,2.7,2.4,1.2*2D
$GLGSA,A,3,,,,,,,,,,,,,2.7,2.4,1.2*2E
$GPGSV,3,1,11,03,13,225,37,08,35,188,42,09,27,314,40,14,05,149,37*74
$GPGSV,3,2,11,16,61,009,44,23,59,290,44,26,37,041,44,27,61,149,44*7C
$GPGSV,3,3,11,31,20,096,42,22,00,000,37,07,08,300,00*48
$BDGSV,3,1,12,01,40,125,42,02,45,218,40,03,54,172,43,04,23,109,41*69
$BDGSV,3,2,12,05,00,000,39,06,41,170,42,07,65,009,43,09,66,204,43*64
$BDGSV,3,3,12,10,62,302,43,16,47,177,43,19,20,294,43,23,20,079,42*63
$B3CN0,0,0,0,0,0,0,0,0,0,0,0,0,0,0*4C
$ini_pos,lastpos_good = 1,ini_pos.x:-1580370.966627,ini_pos.y:5313987.378525,ini_pos.z:3145351.227816
$rtc_local_time,localRTC.weeks:2052,localRTC.seconds:267045.639959,localGtime.weeks:2052,localGtime.seconds:267045.999999
i = 0
i = 1
i = 2
i = 3
i = 4
i = 5
i = 6
i = 7
i = 8
i = 9
i = 10
i = 11
i = 12
i = 13
i = 14
i = 15
i = 16
i = 17
i = 18
i = 19
i = 20
i = 21
i = 22
i = 23
i = 24
i = 25
i = 26
i = 27
i = 28
i = 29
i = 30
i = 31
i = 32
Refix G03: 2, 267045.920338, 1270
Refix G07: 2, 267045.914294, -3703
Refix G08: 2, 267045.923555, -4685
Refix G09: 2, 267045.921888, -4326
Refix G14: 2, 267045.919260, 2414
Refix G16: 2, 267045.932205, -63
Refix G23: 2, 267045.929162, -2893
Refix G26: 2, 267045.927612, 1130
Refix G27: 2, 267045.929969, -3456
Refix G31: 2, 267045.921701, 810
$GNGGA,021028.000,2944.0076,N,10633.7379,E,1,07,2.4,1182.6,M,,,,0000*22
$GNRMC,021028.000,A,2944.0076,N,10633.7379,E,18.57,96.50,080519,,*17
$GPGSA,A,3,03,08,14,,,,,,,,,,2.7,2.4,1.2*3C
$BDGSA,A,3,01,03,04,19,,,,,,,,,2.7,2.4,1.2*2D
$GLGSA,A,3,,,,,,,,,,,,,2.7,2.4,1.2*2E
$GPGSV,3,1,11,03,13,225,37,08,35,188,42,09,27,314,40,14,05,149,37*74
$GPGSV,3,2,11,16,61,009,45,23,59,290,44,26,37,041,44,27,61,149,44*7D
$GPGSV,3,3,11,31,20,096,41,22,00,000,37,07,08,300,00*4B
$BDGSV,3,1,12,01,40,125,41,02,45,218,40,03,54,172,43,04,23,109,40*6B
$BDGSV,3,2,12,05,00,000,37,06,41,170,42,07,65,009,43,09,66,204,43*6A
$BDGSV,3,3,12,10,62,302,43,16,47,177,43,19,20,294,42,23,20,079,41*61
$B3CN0,0,0,0,0,0,0,0,0,0,0,0,0,0,0*4C
$ini_pos,lastpos_good = 1,ini_pos.x:-1580359.149685,ini_pos.y:5313978.457471,ini_pos.z:3145338.362839
$rtc_local_time,localRTC.weeks:2052,localRTC.seconds:267046.639959,localGtime.weeks:2052,localGtime.seconds:267046.999999
i = 0
i = 1
i = 2
i = 3
i = 4
i = 5
i = 6
i = 7
i = 8
i = 9
i = 10
i = 11
i = 12
i = 13
i = 14
i = 15
i = 16
i = 17
i = 18
i = 19
i = 20
i = 21
i = 22
i = 23
i = 24
i = 25
i = 26
i = 27
i = 28
i = 29
i = 30
i = 31
i = 32
Refix G03: 2, 267046.920338, 1280
Refix G07: 2, 267046.914297, -3695
Refix G08: 2, 267046.923558, -4674
Refix G09: 2, 267046.921891, -4315
Refix G14: 2, 267046.919259, 2423
Refix G16: 2, 267046.932205, -49
Refix G23: 2, 267046.929164, -2879
Refix G26: 2, 267046.927611, 1142
Refix G27: 2, 267046.929971, -3442
Refix G31: 2, 267046.921700, 820
$GNGGA,021029.000,2944.0006,N,10633.7308,E,1,07,2.4,1173.2,M,,,,0000*28
$GNRMC,021029.000,A,2944.0006,N,10633.7308,E,18.67,95.98,080519,,*13
$GPGSA,A,3,03,08,14,,,,,,,,,,2.7,2.4,1.2*3C
$BDGSA,A,3,01,03,04,19,,,,,,,,,2.7,2.4,1.2*2D
$GLGSA,A,3,,,,,,,,,,,,,2.7,2.4,1.2*2E
$GPGSV,3,1,11,03,13,225,37,08,35,188,42,09,27,314,40,14,05,149,37*74
$GPGSV,3,2,11,16,61,009,44,23,59,290,44,26,37,041,44,27,61,149,44*7C
$GPGSV,3,3,11,31,20,096,40,22,00,000,38,07,08,300,00*45
$BDGSV,3,1,12,01,40,125,41,02,45,218,40,03,54,172,43,04,23,109,40*6B
$BDGSV,3,2,12,05,00,000,37,06,41,170,41,07,65,009,43,09,66,204,43*69
$BDGSV,3,3,12,10,62,302,43,16,47,177,43,19,20,294,43,23,20,079,42*63
$B3CN0,0,0,0,0,0,0,0,0,0,0,0,0,0,0*4C
$ini_pos,lastpos_good = 1,ini_pos.x:-1580347.605245,ini_pos.y:5313980.082668,ini_pos.z:3145322.573589
$rtc_local_time,localRTC.weeks:2052,localRTC.seconds:267047.639959,localGtime.weeks:2052,localGtime.seconds:267047.999999
i = 0
i = 1
i = 2
i = 3
i = 4
i = 5
i = 6
i = 7
i = 8
i = 9
i = 10
i = 11
i = 12
i = 13
i = 14
i = 15
i = 16
i = 17
i = 18
i = 19
i = 20
i = 21
i = 22
i = 23
i = 24
i = 25
i = 26
i = 27
i = 28
i = 29
i = 30
i = 31
Refix G03: 2, 267047.920337, 1278
Refix G07: 2, 267047.914299, -3696
Refix G08: 2, 267047.923561, -4678
Refix G09: 2, 267047.921893, -4317
Refix G14: 2, 267047.919257, 2421
Refix G16: 2, 267047.932205, -53
Refix G23: 2, 267047.929165, -2882
Refix G26: 2, 267047.927610, 1139
Refix G27: 2, 267047.929973, -3446
Refix G31: 2, 267047.921700, 818
$GNGGA,021030.000,2943.9994,N,10633.7274,E,1,07,2.4,1159.8,M,,,,0000*24
$GNRMC,021030.000,A,2943.9994,N,10633.7274,E,18.32,96.03,080519,,*1C
$GPGSA,A,3,03,08,14,,,,,,,,,,2.7,2.4,1.2*3C
$BDGSA,A,3,01,03,04,19,,,,,,,,,2.7,2.4,1.2*2D
$GLGSA,A,3,,,,,,,,,,,,,2.7,2.4,1.2*2E
$GPGSV,3,1,11,03,13,225,38,08,35,188,42,09,27,314,40,14,05,149,37*7B
$GPGSV,3,2,11,16,61,009,44,23,59,290,43,26,37,041,44,27,61,149,44*7B
$GPGSV,3,3,11,31,20,096,40,22,00,000,38,07,08,300,00*45
$BDGSV,3,1,12,01,40,125,41,02,45,218,40,03,54,172,43,04,23,109,41*6A
$BDGSV,3,2,12,05,00,000,38,06,41,170,42,07,65,009,43,09,66,204,43*65
$BDGSV,3,3,12,10,62,302,43,16,47,177,43,19,20,294,42,23,20,079,41*61
$B3CN0,0,0,0,0,0,0,0,0,0,0,0,0,0,0*4C
$ini_pos,lastpos_good = 1,ini_pos.x:-1580339.390857,ini_pos.y:5313971.545425,ini_pos.z:3145313.930943
$rtc_local_time,localRTC.weeks:2052,localRTC.seconds:267048.639959,localGtime.weeks:2052,localGtime.seconds:267048.999999
i = 0
i = 1
i = 2
i = 3
i = 4
i = 5
i = 6
i = 7
i = 8
i = 9
i = 10
i = 11
i = 12
i = 13
i = 14
i = 15
i = 16
i = 17
i = 18
i = 19
i = 20
i = 21
i = 22
i = 23
i = 24
i = 25
i = 26
i = 27
i = 28
i = 29
i = 30
i = 31
Refix G03: 2, 267048.920336, 1270
Refix G07: 2, 267048.914301, -3699
Refix G08: 2, 267048.923564, -4684
Refix G09: 2, 267048.921896, -4317
Refix G14: 2, 267048.919256, 2416
Refix G16: 2, 267048.932205, -50
Refix G22: 2, 267048.917684, 1185
Refix G23: 2, 267048.929167, -2882
Refix G26: 2, 267048.927609, 1142
Refix G27: 2, 267048.929975, -3448
Refix G31: 2, 267048.921699, 819
$GNGGA,021031.000,2944.0287,N,10633.7419,E,1,08,2.2,1212.5,M,,,,0000*27
$GNRMC,021031.000,A,2944.0287,N,10633.7419,E,16.60,100.73,080519,,*27
$GPGSA,A,3,03,08,14,22,,,,,,,,,2.5,2.2,1.2*38
$BDGSA,A,3,01,03,04,19,,,,,,,,,2.5,2.2,1.2*29
$GLGSA,A,3,,,,,,,,,,,,,2.5,2.2,1.2*2A
$GPGSV,3,1,11,03,13,225,37,08,35,188,42,09,27,314,40,14,05,149,37*74
$GPGSV,3,2,11,16,61,009,44,23,59,290,44,26,37,041,43,27,61,149,44*7B
$GPGSV,3,3,11,31,20,096,41,22,00,000,38,07,08,300,00*44
$BDGSV,3,1,12,01,40,125,41,02,45,218,41,03,54,172,45,04,23,109,40*6C
$BDGSV,3,2,12,05,00,000,39,06,41,170,42,07,65,009,43,09,66,204,43*64
$BDGSV,3,3,12,10,62,302,43,16,47,177,43,19,20,294,43,23,20,079,41*60
$B3CN0,19,0,0,0,0,0,0,0,0,0,0,0,0,0*74
$ini_pos,lastpos_good = 1,ini_pos.x:-1580367.108224,ini_pos.y:5313983.009995,ini_pos.z:3145387.058329
$rtc_local_time,localRTC.weeks:2052,localRTC.seconds:267049.639959,localGtime.weeks:2052,localGtime.seconds:267049.999999
i = 0
i = 1
i = 2
i = 3
i = 4
i = 5
i = 6
i = 7
i = 8
i = 9
i = 10
i = 11
i = 12
i = 13
i = 14
i = 15
i = 16
i = 17
i = 18
i = 19
i = 20
i = 21
i = 22
i = 23
i = 24
i = 25
i = 26
i = 27
i = 28
i = 29
i = 30
i = 31
Refix G03: 2, 267049.920335, 1271
Refix G07: 2, 267049.914304, -3700
Refix G08: 2, 267049.923567, -4682
Refix G09: 2, 267049.921899, -4314
Refix G14: 2, 267049.919254, 2418
Refix G16: 2, 267049.932205, -42
Refix G22: 2, 267049.917683, 1185
Refix G23: 2, 267049.929169, -2876
Refix G26: 2, 267049.927609, 1148
Refix G27: 2, 267049.929977, -3441
Refix G31: 2, 267049.921699, 823
$GNGGA,021032.000,2944.0480,N,10633.7493,E,1,08,2.2,1252.2,M,,,,0000*24
$GNRMC,021032.000,A,2944.0480,N,10633.7493,E,16.31,101.97,080519,,*28
$GPGSA,A,3,03,08,14,22,,,,,,,,,2.5,2.2,1.2*38
$BDGSA,A,3,01,03,04,19,,,,,,,,,2.5,2.2,1.2*29
$GLGSA,A,3,,,,,,,,,,,,,2.5,2.2,1.2*2A
$GPGSV,3,1,11,03,13,225,37,08,35,188,42,09,27,314,40,14,05,149,38*7B
$GPGSV,3,2,11,16,61,009,44,23,59,290,43,26,37,041,44,27,61,149,44*7B
$GPGSV,3,3,11,31,20,096,41,22,11,213,38,07,08,300,00*44
$BDGSV,3,1,12,01,40,125,41,02,45,218,41,03,54,172,43,04,23,109,40*6A
$BDGSV,3,2,12,05,00,000,39,06,41,170,42,07,65,009,43,09,66,204,43*64
$BDGSV,3,3,12,10,62,302,43,16,47,177,42,19,20,294,42,23,20,079,41*60
$B3CN0,0,0,0,0,0,0,0,0,0,0,0,0,0,0*4C
$ini_pos,lastpos_good = 1,ini_pos.x:-1580383.405856,ini_pos.y:5313995.687733,ini_pos.z:3145437.687689
$rtc_local_time,localRTC.weeks:2052,localRTC.seconds:267050.639959,localGtime.weeks:2052,localGtime.seconds:267050.999999
i = 0
i = 1
i = 2
i = 3
i = 4
i = 5
i = 6
i = 7
i = 8
i = 9
i = 10
i = 11
i = 12
i = 13
i = 14
i = 15
i = 16
i = 17
i = 18
i = 19
i = 20
i = 21
i = 22
i = 23
i = 24
i = 25
i = 26
i = 27
i = 28
i = 29
i = 30
i = 31
Refix G03: 2, 267050.920334, 1272
Refix G07: 2, 267050.914306, -3699
Refix G08: 2, 267050.923570, -4681
Refix G09: 2, 267050.921902, -4313
Refix G14: 2, 267050.919252, 2417
Refix G16: 2, 267050.932206, -41
Refix G22: 2, 267050.917682, 1185
Refix G23: 2, 267050.929171, -2874
Refix G26: 2, 267050.927608, 1149
Refix G27: 2, 267050.929980, -3440
Refix G31: 2, 267050.921698, 823
$GNGGA,021033.000,2944.0737,N,10633.7590,E,1,08,2.2,1304.7,M,,,,0000*2F
$GNRMC,021033.000,A,2944.0737,N,10633.7590,E,16.12,101.83,080519,,*20
$GPGSA,A,3,03,08,14,22,,,,,,,,,2.5,2.2,1.2*38
$BDGSA,A,3,01,03,04,19,,,,,,,,,2.5,2.2,1.2*29
$GLGSA,A,3,,,,,,,,,,,,,2.5,2.2,1.2*2A
$GPGSV,3,1,11,03,13,225,37,08,35,188,41,09,27,314,40,14,05,149,37*77
$GPGSV,3,2,11,16,61,009,44,23,59,290,43,26,37,041,43,27,61,149,44*7C
$GPGSV,3,3,11,31,20,096,41,22,11,213,39,07,08,300,00*45
$BDGSV,3,1,12,01,40,125,41,02,45,218,40,03,54,172,43,04,23,109,41*6A
$BDGSV,3,2,12,05,00,000,37,06,41,170,41,07,65,009,43,09,66,204,42*68
$BDGSV,3,3,12,10,62,302,43,16,47,177,43,19,20,294,42,23,20,079,42*62
$B3CN0,0,0,0,0,0,0,0,0,0,0,0,0,0,0*4C
$ini_pos,lastpos_good = 1,ini_pos.x:-1580404.726969,ini_pos.y:5314012.364296,ini_pos.z:3145505.013672
$rtc_local_time,localRTC.weeks:2052,localRTC.seconds:267051.639959,localGtime.weeks:2052,localGtime.seconds:267051.999999
i = 0
i = 1
i = 2
i = 3
i = 4
i = 5
i = 6
i = 7
i = 8
i = 9
i = 10
i = 11
i = 12
i = 13
i = 14
i = 15
i = 16
i = 17
i = 18
i = 19
i = 20
i = 21
i = 22
i = 23
i = 24
i = 25
i = 26
i = 27
i = 28
i = 29
i = 30
i = 31
i = 32
Refix G03: 2, 267051.920333, 1281
Refix G07: 2, 267051.914308, -3692
Refix G08: 2, 267051.923573, -4671
Refix G09: 2, 267051.921904, -4305
Refix G14: 2, 267051.919251, 2426
Refix G16: 2, 267051.932206, -31
Refix G22: 2, 267051.917681, 1194
Refix G23: 2, 267051.929173, -2864
Refix G26: 2, 267051.927608, 1157
Refix G27: 2, 267051.929982, -3430
Refix G31: 2, 267051.921698, 831
$GNGGA,021034.000,2944.0929,N,10633.7685,E,1,08,2.2,1361.0,M,,,,0000*2A
$GNRMC,021034.000,A,2944.0929,N,10633.7685,E,16.61,99.97,080519,,*10
$GPGSA,A,3,03,08,14,22,,,,,,,,,2.5,2.2,1.2*38
$BDGSA,A,3,01,03,04,19,,,,,,,,,2.5,2.2,1.2*29
$GLGSA,A,3,,,,,,,,,,,,,2.5,2.2,1.2*2A
$GPGSV,3,1,11,03,13,225,37,08,35,188,42,09,27,314,39,14,05,149,36*7B
$GPGSV,3,2,11,16,61,009,45,23,59,290,44,26,37,041,44,27,61,149,45*7C
$GPGSV,3,3,11,31,20,096,40,22,11,213,39,07,08,300,00*44
$BDGSV,3,1,12,01,40,125,41,02,45,218,40,03,54,172,43,04,23,109,42*69
$BDGSV,3,2,12,05,00,000,37,06,41,170,41,07,65,009,43,09,66,204,43*69
$BDGSV,3,3,12,10,62,302,43,16,47,177,43,19,20,294,42,23,20,079,41*61
$B3CN0,0,0,18,0,0,0,0,0,0,0,0,0,0,0*75
$ini_pos,lastpos_good = 1,ini_pos.x:-1580428.285764,ini_pos.y:5314038.067368,ini_pos.z:3145563.713511
$rtc_local_time,localRTC.weeks:2052,localRTC.seconds:267052.639959,localGtime.weeks:2052,localGtime.seconds:267052.999999
i = 0
i = 1
i = 2
i = 3
i = 4
i = 5
i = 6
i = 7
i = 8
i = 9
i = 10
i = 11
i = 12
i = 13
i = 14
i = 15
i = 16
i = 17
i = 18
i = 19
i = 20
i = 21
i = 22
i = 23
i = 24
i = 25
i = 26
i = 27
i = 28
i = 29
i = 30
i = 31
i = 32
Refix G03: 2, 267052.920332, 1271
Refix G07: 2, 267052.914311, -3698
Refix G08: 2, 267052.923576, -4683
Refix G09: 2, 267052.921907, -4313
Refix G14: 2, 267052.919249, 2419
Refix G16: 2, 267052.932206, -44
Refix G22: 2, 267052.917680, 1185
Refix G23: 2, 267052.929175, -2877
Refix G26: 2, 267052.927607, 1148
Refix G27: 2, 267052.929984, -3443
Refix G31: 2, 267052.921698, 824
$GNGGA,021035.000,2944.1107,N,10633.7760,E,1,08,2.2,1408.4,M,,,,0000*28
$GNRMC,021035.000,A,2944.1107,N,10633.7760,E,15.96,103.48,080519,,*25
$GPGSA,A,3,03,08,14,22,,,,,,,,,2.5,2.2,1.2*38
