SD initialized success
Create debug.log Failed! 3
bbram_blkflag = 1
rtcflag = 128
BBRAM Block OK: 01 EPHflag: 282704c5 12041adf, rtc 80
GPS 0 Init Dop: 10000,80
GPS 1 Init Dop: 10000,80
GPS 2 Init Dop: 10000,80
GPS 3 Init Dop: 10000,80
GPS 4 Init Dop: 10000,80
GPS 5 Init Dop: 10000,80
GPS 6 Init Dop: 10000,80
GPS 7 Init Dop: 10000,80
GPS 8 Init Dop: 10000,80
GPS 9 Init Dop: 10000,80
GPS10 Init Dop: 10000,80
GPS11 Init Dop: 10000,80
GPS12 Init Dop: 10000,80
GPS13 Init Dop: 10000,80
GPS14 Init Dop: 10000,80
GPS15 Init Dop: 10000,80
GPS16 Init Dop: 10000,80
GPS17 Init Dop: 10000,80
GPS18 Init Dop: 10000,80
GPS19 Init Dop: 10000,80
GPS20 Init Dop: 10000,80
GPS21 Init Dop: 10000,80
GPS22 Init Dop: 10000,80
GPS23 Init Dop: 10000,80
GPS24 Init Dop: 10000,80
GPS25 Init Dop: 10000,80
GPS26 Init Dop: 10000,80
GPS27 Init Dop: 10000,80
GPS28 Init Dop: 10000,80
GPS29 Init Dop: 10000,80
GPS30 Init Dop: 10000,80
GPS31 Init Dop: 10000,80
BDS 0 Init Dop: 10000,80
BDS 1 Init Dop: 10000,80
BDS 2 Init Dop: 10000,80
BDS 3 Init Dop: 10000,80
BDS 4 Init Dop: 10000,80
BDS 5 Init Dop: 10000,80
BDS 6 Init Dop: 10000,80
BDS 7 Init Dop: 10000,80
BDS 8 Init Dop: 10000,80
BDS 9 Init Dop: 10000,80
BDS10 Init Dop: 10000,80
BDS11 Init Dop: 10000,80
BDS12 Init Dop: 10000,80
BDS13 Init Dop: 10000,80
BDS14 Init Dop: 10000,80
BDS15 Init Dop: 10000,80
BDS16 Init Dop: 10000,80
BDS17 Init Dop: 10000,80
BDS18 Init Dop: 10000,80
BDS19 Init Dop: 10000,80
BDS20 Init Dop: 10000,80
BDS21 Init Dop: 10000,80
BDS22 Init Dop: 10000,80
BDS23 Init Dop: 10000,80
BDS24 Init Dop: 10000,80
BDS25 Init Dop: 10000,80
BDS26 Init Dop: 10000,80
BDS27 Init Dop: 10000,80
BDS28 Init Dop: 10000,80
BDS29 Init Dop: 10000,80
BDS30 Init Dop: 10000,80
BDS31 Init Dop: 10000,80
Good luck!
$GNGGA,000000.000,,,,,0,00,,,M,,,,0000*2B
$GNRMC,000000.000,A,,,,,,,060180,,*29
$GPGSA,A,1,,,,,,,,,,,,,,,*1E
$BDGSA,A,1,,,,,,,,,,,,,,,*0F
$GLGSA,A,1,,,,,,,,,,,,,,,*02
$B3CN0,0,0,0,0,0,0,0,0,0,0,0,0,0,0*4C
---00000001--- Acq_st=3 0  2000-1-1 0:2:37 
[00]  01(G02)  1 24 18  0  -2056.8  2046005.3  0.3  1 0  497 1858 2182
[01]  03(G04)  1 20  7  0  -3340.0  2046006.8  0.1  1 0  484 1085 1794
[02]  04(G05)  1 22  7  0  -4752.2  2046009.3 -0.0  1 0  817 1504 2707
[03]  05(G06)  1 25  7  0   -522.2  2046001.6 -0.1  1 0 2310 4916 3050
[04]  08(G09)  1  7  7  0  -2750.0  2046003.9  0.0  1 0  196  603 1464
[05]  11(G12)  1  7  7  0  -3750.0  2046005.8 -0.0  1 0  524  432 1311
$GNGGA,000000.000,,,,,0,00,,,M,,,,0000*2B
$GNRMC,000000.000,A,,,,,,,060180,,*29
$GPGSA,A,1,,,,,,,,,,,,,,,*1E
$BDGSA,A,1,,,,,,,,,,,,,,,*0F
$GLGSA,A,1,,,,,,,,,,,,,,,*02
$B3CN0,0,0,0,0,0,0,0,0,0,0,0,0,0,0*4C
---00000002--- Acq_st=3 0  2000-1-1 0:2:38 
[00]  01(G02)  7 23  7  0  -2054.6  2046002.5  0.7 10 0 2444 3228 1360
[01]  03(G04)  7 14  7  0  -3331.3  2046004.2  1.0 10 0 1394 1973  859
[02]  04(G05)  7  7  7  0  -4752.9  2046006.0  1.0 10 0 2209 2020  276
[03]  05(G06)  7 31  7  0   -520.6  2046000.5  1.0  2 0 2882 4698 2398
[04]  08(G09)  1  7  7  0  -2024.9  2046004.3  0.0  1 0  228  732  745
[05]  11(G12)  1 27 10  0  -3687.2  2046006.2  0.5  1 0 2309 3815 1724
[06]  16(G17)  1 21  7  0   -364.1  2046002.6  0.3  1 0 2098 3017 2023
[08]  18(G19)  1 14 11  0   -944.8  2046004.3 -0.0  1 0  286 1724 2895
$GNGGA,000000.000,,,,,0,00,,,M,,,,0000*2B
$GNRMC,000000.000,A,,,,,,,060180,,*29
$GPGSA,A,1,,,,,,,,,,,,,,,*1E
$BDGSA,A,1,,,,,,,,,,,,,,,*0F
$GLGSA,A,1,,,,,,,,,,,,,,,*02
$GPGSV,1,1,02,02,00,000,23,06,00,000,31*7C
$B3CN0,0,0,0,0,0,0,0,0,0,0,0,0,0,0*4C
---00000003--- Acq_st=3 0  2000-1-1 0:2:39 
[00]  01(G02)  7 42  7  0  -2050.5  2046002.6  0.1  2 0 2460 2638  852
[01]  03(G04)  7 39  7  0  -3329.0  2046004.2  0.2  2 0 1659 1751  592
[02]  04(G05)  7 42  7  0  -4747.7  2046006.1 -0.1  2 0 1545 1828  480
[03]  05(G06)  7 44  7  0   -512.9  2046000.6  0.0  2 0 2610 4500 2092
[04]  08(G09)  1  7  7  0  -2256.1  2046004.3  0.1  1 0 1013 1092  846
[05]  11(G12)  7 30  7  0  -3683.3  2046004.6  0.4  5 0 2514 2919  762
[06]  16(G17)  7 20  7  0   -357.2  2046000.3  0.8 10 0 1993 3012 1754
[08]  18(G19)  7  7  7  0   -937.9  2046001.0  1.0 10 0 2897 3139 1200
[09]  27(G28)  1 26  7  0   2266.3  2045997.8  0.3  1 0 1165 1400  563
[16]  37(B01)  1 34 17  0  -1000.0  4092004.5  0.0  1 0  354 1048 1498
[17]  38(B02)  1 13 10  1  -1250.0  4092003.3 -0.0  1 0  400  638 1347
[18]  39(B03)  1 10 35  1  -1000.0  4092002.1 -0.0  1 0  343 1054 2250
$GNGGA,000000.000,,,,,0,00,,,M,,,,0000*2B
$GNRMC,000000.000,A,,,,,,,060180,,*29
$GPGSA,A,1,,,,,,,,,,,,,,,*1E
$BDGSA,A,1,,,,,,,,,,,,,,,*0F
$GLGSA,A,1,,,,,,,,,,,,,,,*02
$GPGSV,2,1,06,02,00,000,42,04,00,000,39,05,00,000,42,06,00,000,44*73
$GPGSV,2,2,06,12,00,000,30,17,00,000,20*7B
$B3CN0,0,0,0,0,0,0,0,0,0,0,0,0,0,0*4C
---00000004--- Acq_st=3 0  2000-1-1 0:2:40 
[00]  01(G02)  7 43  7  0  -2050.0  2046002.6 -0.0  2 0 1488 2660 1364
[01]  03(G04)  7 39  7  0  -3327.6  2046004.2 -0.0  2 0 1341 1694 1084
[02]  04(G05)  7 42  7  0  -4747.6  2046006.0 -0.1  2 0 1743 2340  733
[03]  05(G06)  7 45  7  0   -513.7  2046000.6  0.0  2 0 3082 4646 1790
[04]  08(G09)  1  7  7  0  -2268.9  2046003.5  0.1  1 0  724  746  408
[05]  11(G12)  7 45 16  0  -3679.5  2046004.6  0.0  2 0 2632 3047  762
[06]  16(G17)  7 45 10  0   -357.4  2046000.3  0.1  2 0 2631 3187 1517
[08]  18(G19)  7 43  7  0   -933.8  2046001.1  0.0  2 0 1935 2324 1218
[09]  27(G28)  7 24  7  0   2270.1  2045996.9  0.4 10 0 1000  877  444
[16]  37(B01)  1 41 17  0  -1085.0  4092003.1  1.0  1 0 1086 1707  885
[17]  38(B02)  1 10 24  1  -1153.9  4092005.1  0.4  1 0 1559 1771  809
[18]  39(B03)  1 10 31  1  -1128.4  4092003.3 -0.0  1 0  420 1316 2110
[19]  40(B04)  1 10 23  0  -1105.6  4092004.2  0.2  1 0 1110 1818  820
[20]  41(B05)  1 10 26  1  -1036.4  4092004.0  0.2  1 0  206  529   63
[21]  42(B06)  1  7  7  0  -2786.2  4092008.2 -0.0  1 0  518 1289  826
[22]  43(B07)  1  7  7  0    473.7  4091999.7  0.0  1 0  725 1650  729
[24]  44(B08)  1  7  7  0  -1000.0  4092003.5  0.0  1 0  947 2002 1225
[25]  46(B10)  1  7  7  0     -0.0  4092000.6 -0.0  1 0  464 1657 1445
$GNGGA,000000.000,,,,,0,00,,,M,,,,0000*2B
$GNRMC,000000.000,A,,,,,,,060180,,*29
$GPGSA,A,1,,,,,,,,,,,,,,,*1E
$BDGSA,A,1,,,,,,,,,,,,,,,*0F
$GLGSA,A,1,,,,,,,,,,,,,,,*02
$GPGSV,2,1,08,02,00,000,43,04,00,000,39,05,00,000,42,06,00,000,45*7D
$GPGSV,2,2,08,12,00,000,45,17,00,000,45,19,00,000,43,28,00,000,24*77
$B3CN0,0,0,0,0,0,0,0,0,0,0,0,0,0,0*4C
---00000005--- Acq_st=3 0  2000-1-1 0:2:41 
[00]  01(G02)  7 42  7  0  -2054.1  2046002.6 -0.0  2 0 1541 2425 1235
[01]  03(G04)  7 39  9  0  -3337.3  2046004.2  0.0  2 0 1045 1833  912
[02]  04(G05)  7 42  7  0  -4758.1  2046006.1  0.0  2 0 2319 3005 1411
[03]  05(G06)  7 45  7  0   -519.2  2046000.6 -0.0  2 0 2923 4612 2188
[04]  08(G09)  1  7  7  0  -2258.8  2046003.3 -0.1  1 0  248  310  212
[05]  11(G12)  7 43 17  0  -3686.8  2046004.7  0.1  2 0 2967 4431 2246
[06]  16(G17)  7 44  7  0   -361.3  2046000.4 -0.0  2 0 2726 3721 1902
[08]  18(G19)  7 43  7  0   -943.5  2046001.1 -0.0  2 0 2362 3325 1354
[09]  27(G28)  7 38  7  0   2260.7  2045996.9  0.0  2 0  845 1108  422
[16]  37(B01)  7 41 20  0  -1089.2  4092002.8 -0.6  2 0 1226 2273 1089
[17]  38(B02)  7 32 24  0  -1168.5  4092002.8  0.2  2 0 1311  765  627
[18]  39(B03)  7 30 35  1  -1000.5  4092002.7 -0.1  2 0  197  465 1464
[19]  40(B04)  f 38 16  0  -1112.5  4092002.8  0.6  2 0 1069 1113  568
[20]  41(B05)  7 23 10  0  -1290.0  4092003.6  0.1  2 0  119   35 1054
[21]  42(B06)  7  7  7  0  -2790.6  4092007.2  0.2 10 0  515  993  975
[22]  43(B07)  1  7  7  0    448.7  4091998.6  0.3  1 0 1109 1602  584
[24]  44(B08)  1 37  7  0   -882.2  4092002.1  0.9  1 0 1568 2316 1279
[25]  46(B10)  1  7  7  0   -216.0  4091999.1  0.2  1 0  785 1128  132
[26]  48(B12)  1  7  7  0  -1649.0  4092004.3  0.0  1 0  410  821  511
[27]  49(B13)  1  7  7  0   -964.1  4092004.2  0.1  1 0  851 2552 1842
[28]  52(B16)  1  7  7  0  -2750.0  4092007.9 -0.1  1 0  433  165  564
$GNGGA,000000.000,,,,,0,00,,,M,,,,0000*2B
$GNRMC,000000.000,A,,,,,,,060180,,*29
$GPGSA,A,1,,,,,,,,,,,,,,,*1E
$BDGSA,A,1,,,,,,,,,,,,,,,*0F
$GLGSA,A,1,,,,,,,,,,,,,,,*02
$GPGSV,2,1,08,02,00,000,42,04,00,000,39,05,00,000,42,06,00,000,45*7C
$GPGSV,2,2,08,12,00,000,43,17,00,000,44,19,00,000,43,28,00,000,38*7D
$BDGSV,2,1,05,01,00,000,41,02,00,000,31,03,00,000,30,04,00,000,38*65
$BDGSV,2,2,05,05,00,000,23*59
$B3CN0,0,0,0,0,0,0,0,0,0,0,0,0,0,0*4C
---00000006--- Acq_st=3 0  2000-1-1 0:2:42 
[00]  01(G02)  7 43  7  0  -2053.7  2046002.6 -0.0  2 0 1579 2732 1696
[01]  03(G04)  7 40  8  0  -3333.3  2046004.2  0.0  2 0  754 1730  948
[02]  04(G05)  7 41  7  0  -4747.4  2046006.1 -0.0  2 0 1446 1986  662
[03]  05(G06)  7 45  7  0   -517.0  2046000.6 -0.0  2 0 2093 4255 1835
[05]  11(G12)  7 44 18  0  -3683.0  2046004.7  0.0  2 0 2057 3495 1782
[06]  16(G17)  7 44  7  0   -356.6  2046000.4 -0.0  2 0 2501 3599 1918
[08]  18(G19)  7 43  8  0   -937.7  2046001.1 -0.0  2 0 2399 2992 1081
[09]  27(G28)  7 39  7  0   2272.6  2045997.0 -0.0  2 0 1086 1404  617
[16]  37(B01)  f 42 36  0  -1087.8  4092002.8  0.3  2 0  966 1365  634
[17]  38(B02)  7 34 24  0  -1150.9  4092002.8  0.1  2 0 1312 1023  496
[18]  39(B03)  7 26 35  1  -1006.8  4092002.7  0.0  2 0  358  491 1301
[19]  40(B04) 1f 39 19  0  -1106.6  4092002.7  0.4  2 0 1240 1399  785
[20]  41(B05)  7 36 10  0  -1380.4  4092003.7 -0.0  2 0  616  605  912
[21]  42(B06)  7 38  7  0  -2784.4  4092007.2 -0.0  2 0  893 1531 1158
[22]  43(B07)  7 36  7  0    453.4  4091998.7 -0.1  2 0 1300 1735 1191
[24]  44(B08)  7 35  7  0   -872.3  4092002.2  0.2  2 0 1598 2118  986
[25]  46(B10)  1  7 13  0   -215.7  4091999.0  0.7  1 0  823 1209  699
[26]  48(B12)  1  7  7  0  -2002.1  4092004.4  0.0  1 0  500  207  647
[27]  49(B13)  7 21  7  0   -957.3  4092002.4  0.5 10 0 2017 2193  764
[28]  52(B16)  1  7 11  0  -2293.1  4092009.0 -0.1  1 0  387  408  700
[29]  55(B19)  1  7  7  0   1088.7  4091997.3  0.3  1 0 1468 1774  682
[30]  57(B21)  1  7  7  0  -4100.8  4092011.2  0.1  1 0 1201 1935  765
[51]  40(B04)  1 23 18  1  -1117.8 20460023.0 -0.1  1 0  327   74  274
tow update
$GNGGA,111519.485,,,,,0,00,,,M,,,,0000*2E
$GNRMC,111519.485,A,,,,,,,080180,,*22
$GPGSA,A,1,,,,,,,,,,,,,,,*1E
$BDGSA,A,1,,,,,,,,,,,,,,,*0F
$GLGSA,A,1,,,,,,,,,,,,,,,*02
$GPGSV,2,1,08,02,00,000,43,04,00,000,40,05,00,000,41,06,00,000,45*70
$GPGSV,2,2,08,12,00,000,44,17,00,000,44,19,00,000,43,28,00,000,39*7B
$BDGSV,2,1,08,01,00,000,41,02,00,000,34,03,00,000,26,04,00,000,39*6B
$BDGSV,2,2,08,06,00,000,38,07,00,000,36,08,00,000,35,13,00,000,20*61
$B3CN0,0,0,0,0,0,0,0,0,0,0,0,0,0,0*4C
---00000007--- Acq_st=3 0  2000-1-1 0:2:43 
[00]  01(G02)  f 43  7  0  -2048.6  2046002.6 -0.0  2 0 1954 3095 1536
[01]  03(G04)  f 41  7  0  -3324.2  2046004.2 -0.0  2 0 1535 1748 1214
[02]  04(G05)  f 42  7  0  -4744.9  2046006.1 -0.1  2 0 1416 2580 1313
[03]  05(G06)  f 45  7  0   -513.7  2046000.6  0.0  2 0 3078 4374 1781
[05]  11(G12)  f 44 17  0  -3679.5  2046004.7  0.0  2 0 3086 3916 1690
[06]  16(G17)  f 44  7  0   -352.4  2046000.4  0.0  2 0 2989 3644 1547
[08]  18(G19)  f 44  7  0   -933.0  2046001.1  0.0  2 0 2205 2900  807
[09]  27(G28)  f 38  7  0   2279.9  2045997.0 -0.1  2 0 1164 1348  742
[16]  37(B01)  f 42 10  0  -1081.1  4092002.7  0.2  2 0 1587 1898 1006
[17]  38(B02)  f 35 23  0  -1153.8  4092002.7  0.7  2 0 1515  958  188
[18]  39(B03)  7 23 35  1  -1008.7  4092002.6 -0.0  2 0  200  427 1538
[19]  40(B04) 1f 38 22  0  -1108.6  4092002.7 -0.6  2 0 1180 1188  635
[20]  41(B05)  7 39 24  0  -1123.1  4092003.1 -0.5  2 0  985 1656  925
[21]  42(B06)  7 38 11  0  -2779.2  4092007.2 -0.3  2 0  953  845  212
[22]  43(B07)  7 40  7  0    460.5  4091998.7  0.1  2 0 1282 1303  540
[24]  44(B08)  7 42  7  0   -867.9  4092002.2 -0.0  2 0 1199 1717  450
[25]  46(B10)  1  7  7  0   -204.2  4091999.2  0.5  1 0  390  921  437
[26]  48(B12)  1  7  7  0  -2720.4  4092004.1 -0.0  1 0  182  156  241
[27]  49(B13)  7 43  9  0   -951.2  4092002.3  0.0  2 0 1763 2464  927
[28]  52(B16)  1 13  7  0  -2326.7  4092008.2  0.4  1 0  543  617  444
[29]  55(B19)  7 24  7  0   1094.6  4091997.0  0.3 10 0 2039 2107  679
[30]  57(B21)  7  7  7  0  -4094.6  4092010.7  0.4 10 0 1729 2723 1293
[48]  37(B01)  1 10 18  1   -679.2 20460014.0  0.0  1 0  178  466  412
[51]  40(B04)  1 21 10  0  -1322.6 20460021.4 -0.1  1 0  633  803  607
$GNGGA,111520.485,,,,,0,00,,,M,,,,0000*24
$GNRMC,111520.485,A,,,,,,,080180,,*28
$GPGSA,A,1,,,,,,,,,,,,,,,*1E
$BDGSA,A,1,,,,,,,,,,,,,,,*0F
$GLGSA,A,1,,,,,,,,,,,,,,,*02
$GPGSV,2,1,08,02,00,000,43,04,00,000,40,05,00,000,42,06,00,000,45*73
$GPGSV,2,2,08,12,00,000,44,17,00,000,44,19,00,000,44,28,00,000,38*7D
$BDGSV,3,1,10,01,00,000,42,02,00,000,35,03,00,000,24,04,00,000,38*62
$BDGSV,3,2,10,05,00,000,39,06,00,000,38,07,00,000,40,08,00,000,42*67
$BDGSV,3,3,10,13,00,000,43,19,00,000,23*65
$B3CN0,0,0,0,0,0,0,0,0,0,0,0,0,0,0*4C
---00000008--- Acq_st=2 0  2000-1-1 0:2:44 
[00]  01(G02)  f 43  7  0  -2047.2  2046002.6 -0.1  2 0 1695 2517 1174
[01]  03(G04)  f 41  7  0  -3327.9  2046004.2  0.0  2 0 1061 1939  875
[02]  04(G05)  f 42  7  0  -4745.2  2046006.1  0.1  2 0 1665 2723 1551
[03]  05(G06)  f 45  7  0   -512.5  2046000.6  0.0  2 0 3382 5016 2099
[05]  11(G12)  f 44 19  0  -3679.5  2046004.7 -0.0  2 0 2645 3986 1778
[06]  16(G17)  f 44  7  0   -355.0  2046000.4 -0.1  2 0 2783 3903 1618
[08]  18(G19)  f 43  7  0   -934.6  2046001.1  0.0  2 0 1776 2647  510
[09]  27(G28)  f 39  9  0   2272.0  2045997.0  0.2  2 0  939 1344  677
[16]  37(B01)  f 41 13  0  -1081.2  4092002.6 -0.5  2 0 1318 1082  370
[17]  38(B02)  f 38 25  0  -1154.4  4092002.8  0.9  2 0 1302 1171  683
[18]  39(B03)  7 10 35  1  -1007.5  4092002.6 -0.0  2 0  408  659 1459
[19]  40(B04) 1f 40 19  0  -1107.9  4092002.8 -0.5  2 0 1154  636  623
[20]  41(B05)  f 40 20  0  -1127.2  4092003.0 -0.1  2 0  524 1397  874
[21]  42(B06)  7 37 12  0  -2779.7  4092007.2 -0.2  2 0  806  531   74
[22]  43(B07)  7 40  7  0    452.9  4091998.7 -0.0  2 0 1002 1158  297
[24]  44(B08)  7 42  7  0   -874.9  4092002.2 -0.0  2 0 1683 2093  967
[25]  46(B10)  1  7  7  0   -213.7  4091999.1  0.7  1 0  961 1521  651
[26]  48(B12)  1  8  7  0  -2102.6  4092004.5  0.1  1 0  267  339  231
[27]  49(B13)  7 43  7  0   -953.8  4092002.4 -0.0  2 0 1783 1983  561
[28]  52(B16)  1 11  7  0  -2246.1  4092006.7  0.1  1 0  607  684  125
[29]  55(B19)  7 42  8  0   1091.7  4091997.0  0.1  2 0 1481 1947  915
[30]  57(B21)  7 43 11  0  -4094.9  4092010.6 -0.0  2 0 1880 2823  923
[32]  75(N-6)  1 24  7  0  -2346.2  1022002.3  0.2  1 0  1317 2523 1714
[33]  76(N-5)  1 31 10  0   1214.3  1022000.8  0.1  1 0  1241 1646  804
[34]  78(N-3)  1  7  7  0  -2000.0  1022002.4  0.0  1 0  1203 2563 1801
[35]  79(N-2)  1 24  7  0  -3250.0  1022002.7  0.0  1 0   610  857  516
[36]  80(N-1)  1 24  7  0  -5000.0  1022004.9 -0.0  1 0   375 1046 1182
[37]  82(N01)  1 15  7  0   2749.7  1022000.6 -0.1  1 0   457  487  509
[38]  83(N02)  1  7  7  0    841.7  1022000.9  0.0  1 0   145  147  757
[40]  84(N03)  1  7  7  0 -408729.9  1022001.5  0.0  1 0   294  202  901
[48]  37(B01)  1 19 17  0   -421.4 20460016.9 -0.2  1 0  467  267  375
[51]  40(B04)  1 14 17  0  -2026.1 20460019.9 -0.1  1 0  664 1241  876
$GNGGA,111521.485,,,,,0,00,,,M,,,,0000*25
$GNRMC,111521.485,A,,,,,,,080180,,*29
$GPGSA,A,1,,,,,,,,,,,,,,,*1E
$BDGSA,A,1,,,,,,,,,,,,,,,*0F
$GLGSA,A,1,,,,,,,,,,,,,,,*02
$GPGSV,2,1,08,02,00,000,43,04,00,000,41,05,00,000,42,06,00,000,45*72
$GPGSV,2,2,08,12,00,000,44,17,00,000,44,19,00,000,43,28,00,000,39*7B
$BDGSV,3,1,10,01,00,000,41,02,00,000,38,04,00,000,39,05,00,000,40*69
$BDGSV,3,2,10,06,00,000,37,07,00,000,40,08,00,000,42,13,00,000,43*62
$BDGSV,3,3,10,19,00,000,42,21,00,000,44*64
$B3CN0,0,0,0,0,0,0,0,0,0,0,0,0,0,0*4C
---00000009--- Acq_st=7 0  2000-1-1 0:2:45 
[00]  01(G02)  f 43  7  0  -2048.8  2046002.6  0.0  2 0 1401 2383 1645
[01]  03(G04)  f 41  8  0  -3331.2  2046004.3  0.0  2 0  415 1280 1139
[02]  04(G05)  f 42 12  0  -4744.8  2046006.1 -0.0  2 0 1263 1853  821
[03]  05(G06)  f 44  7  0   -512.2  2046000.6 -0.0  2 0 3429 4674 1861
[05]  11(G12)  f 44 16  0  -3677.5  2046004.7 -0.0  2 0 2098 3598 1287
[06]  16(G17)  f 44  7  0   -355.8  2046000.4  0.0  2 0 2572 3036 1492
[08]  18(G19)  f 43  7  0   -932.3  2046001.2  0.1  2 0 2312 3632 1924
[09]  27(G28)  f 39  9  0   2271.7  2045997.0 -0.0  2 0  947 2015 1209
[16]  37(B01) 1f 42 10  0  -1084.6  4092002.7  0.1  2 0 1291 1477  624
[17]  38(B02) 1f 38 24  0  -1150.5  4092002.8  0.4  2 0 1268  825  551
[18]  39(B03)  7 10 36  1  -1009.5  4092002.6  0.0  2 0  480  575 1506
[19]  40(B04) 1f 40 16  0  -1110.7  4092002.8 -0.1  2 0 1321 1636  635
[20]  41(B05) 1f 40 23  0  -1125.8  4092003.0  0.3  2 0  497 1003  500
[21]  42(B06) 1f 37 13  0  -2782.2  4092007.2  0.2  2 0  508  765  568
[22]  43(B07) 1f 40  7  0    459.7  4091998.7  0.1  2 0 1102 1417  151
[24]  44(B08) 1f 42  7  0   -869.9  4092002.2  0.0  2 0 1878 2425  746
[27]  49(B13) 1f 42  9  0   -951.7  4092002.4 -0.0  2 0 1457 1927  904
[28]  52(B16)  1 14  7  0  -2320.0  4092006.3  0.3  1 0  763  917  456
[29]  55(B19) 1f 42 10  0   1098.9  4091997.0 -0.1  2 0 1115 1907 1145
[30]  57(B21) 1f 43 13  0  -4094.1  4092010.6  0.1  2 0 1623 2328  796
[32]  75(N-6)  7 17  7  0  -2344.8  1022001.5  1.0 10 0  1457 2431 1156
[33]  76(N-5)  1 32 19  0   1216.2  1021999.0  1.0  1 0  1088 1365  719
[34]  78(N-3)  1 33 18  0  -1879.6  1022001.2  1.0  1 0  1772 2824 1016
[35]  79(N-2)  1 20 10  0  -3180.1  1022001.9  0.2  1 0   558 1007  418
[36]  80(N-1)  1 28  8  0  -5044.0  1022003.1  1.0  1 0   854 1536  939
[37]  82(N01)  1 31 26  0   2785.4  1021999.1  1.0  1 0   857  688  134
[38]  83(N02)  1 37  8  0   1213.1  1022000.0  0.9  1 0   522  660  193
[40]  84(N03)  1 32  7  0    276.5  1022000.4  0.9  1 0  1149 1301  571
[48]  37(B01)  1 13 10  0    -14.3 20460020.2 -0.1  1 0  137   99  346
[49]  38(B02)  1 22 19  0   -871.3 20460022.7 -0.0  1 0  209  104  436
[51]  40(B04)  1 23 22  0  -1595.6 20460026.1 -0.1  1 0  486  838 1006
[52]  41(B05)  1 24 23  1   -706.1 20460018.2 -0.1  1 0  239  310  452
---00000010--- Acq_st=7 0  2000-1-1 0:2:46 
[00]  01(G02)  f 43  7  0  -2054.8  2046002.6 -0.0  2 0 2148 2677 1134
[01]  03(G04)  f 40  7  0  -3330.1  2046004.3  0.1  2 0 1285 1640  624
[02]  04(G05)  f 42  7  0  -4750.6  2046006.1  0.0  2 0 1091 1965  524
[03]  05(G06)  f 45  7  0   -516.2  2046000.6  0.0  2 0 2654 4432 2022
[05]  11(G12)  f 44 17  0  -3683.4  2046004.7 -0.0  2 0 2131 3783 2233
[06]  16(G17)  f 44  7  0   -357.0  2046000.4  0.0  2 0 2607 3402 1827
[08]  18(G19)  f 43  7  0   -938.6  2046001.2 -0.1  2 0 1839 2913 1458
[09]  27(G28)  f 38  7  0   2266.0  2045997.0  0.1  2 0 1282 1545  619
[16]  37(B01) 1f 42 22  0  -1086.4  4092002.7 -0.1  2 0 1184 1517  450
[17]  38(B02) 1f 37 24  0  -1149.3  4092002.8  0.2  2 0  908  803  224
[18]  39(B03)  7 10 33  1  -1005.9  4092002.7  0.3  2 0  692  578 1365
[19]  40(B04) 1f 40 10  0  -1109.9  4092002.9 -0.2  2 0  951 1748  909
[20]  41(B05) 1f 41 19  0  -1130.5  4092002.9 -0.5  2 0  966 1137  876
[21]  42(B06) 1f 38  8  0  -2784.3  4092007.2  0.5  2 0  423 1296  808
[22]  43(B07) 1f 40  7  0    455.4  4091998.7 -0.1  2 0 1314 1626  480
[24]  44(B08) 1f 42  7  0   -870.3  4092002.2 -0.0  2 0 1762 2445  898
[27]  49(B13) 1f 43 10  0   -958.9  4092002.4  0.0  2 0 1607 2086  884
[29]  55(B19) 1f 42  7  0   1093.6  4091997.0  0.0  2 0 1284 2109  972
[30]  57(B21) 1f 43  9  0  -4099.5  4092010.6 -0.0  2 0 1579 2311 1311
[32]  75(N-6)  7 47  7  0  -2347.5  1022001.5  0.1  2 0  1190 1869  920
[33]  76(N-5)  1 33 19  0   1212.1  1021999.2  1.0  1 0   757 1622  999
[34]  78(N-3)  1 34 19  0  -1884.1  1022001.0  1.0  1 0  1623 2705 1310
[35]  79(N-2)  1 25 10  0  -3185.1  1022001.5  0.4  1 0   842 1225  622
[36]  80(N-1)  1 30  7  0  -5047.9  1022002.9  1.0  1 0  1286 1628  574
[37]  82(N01)  1 31 24  0   2783.7  1021997.9  0.9  1 0   341  725  608
[38]  83(N02)  1 35 14  0   1189.0  1021998.2  0.7  1 0   659  943  467
[40]  84(N03)  1 33  7  0    272.4  1021999.3  1.0  1 0  1193 1663  858
[48]  37(B01)  1 10 36  1    -98.5 20460021.7  0.0  1 0  591 1042  235
[49]  38(B02)  1 16 10  1  -1365.3 20460021.1  0.0  1 0  157  475  661
[52]  41(B05)  1 25 23  1   -201.3 20460021.7 -0.1  1 0  119  292  724
[53]  42(B06)  1  7  7  0  -2574.9 20460044.0 -0.3  1 0  147  403  678
[54]  43(B07)  1  7  7  0    176.5 20459994.1 -0.0  1 0  829  695  341
[56]  44(B08)  1  7  7  0   -647.6 20460013.5  0.0  1 0  378  611  484
[59]  49(B13)  1  7  7  0  -1102.7 20460013.5  0.2  1 0  234  391  825
[61]  55(B19)  1  7  7  0    779.5 20459983.1  0.1  1 0  585  205  251
[62]  57(B21)  1  7  7  0  -3328.4 20460065.7 -0.1  1 0  396  401  316
$GNGGA,111522.485,,,,,0,00,,,M,,,,0000*26
$GNRMC,111522.485,A,,,,,,,080180,,*2A
$GPGSA,A,1,,,,,,,,,,,,,,,*1E
$BDGSA,A,1,,,,,,,,,,,,,,,*0F
$GLGSA,A,1,,,,,,,,,,,,,,,*02
$GPGSV,2,1,08,02,00,000,43,04,00,000,40,05,00,000,42,06,00,000,45*73
$GPGSV,2,2,08,12,00,000,44,17,00,000,44,19,00,000,43,28,00,000,38*7A
$BDGSV,3,1,10,01,00,000,42,02,00,000,37,04,00,000,40,05,00,000,41*6A
$BDGSV,3,2,10,06,00,000,38,07,00,000,40,08,00,000,42,13,00,000,43*6D
$BDGSV,3,3,10,19,00,000,42,21,00,000,43*63
$B3CN0,0,0,0,0,0,0,0,0,0,0,0,0,0,0*4C
---00000011--- Acq_st=3 0  2000-1-1 0:2:47 
[00]  01(G02)  f 43  7  0  -2050.3  2046002.6  0.0  2 0 1596 2534 1191
[01]  03(G04)  f 40  7  0  -3324.4  2046004.2  0.0  2 0  999 1784  796
[02]  04(G05)  f 42 10  0  -4744.7  2046006.1  0.0  2 0 1671 2419 1300
[03]  05(G06)  f 46  8  0   -515.0  2046000.6 -0.0  2 0 3096 4464 1938
[04]  08(G09)  1 15  7  0  -2722.6  2046005.0 -0.0  1 0  565  514  475
[05]  11(G12)  f 44 14  0  -3679.6  2046004.7 -0.1  2 0 2653 3668 1644
[06]  16(G17)  f 44 12  0   -353.4  2046000.4 -0.0  2 0 2418 3713 1923
[08]  18(G19)  f 43  7  0   -934.2  2046001.2 -0.0  2 0 1786 3175 1341
[09]  27(G28)  f 39  7  0   2273.8  2045997.0  0.1  2 0  911 1624 1234
[16]  37(B01) 1f 41 19  0  -1083.9  4092002.7  0.0  2 0 1600 1748  515
[17]  38(B02) 1f 37 23  0  -1154.7  4092002.7  0.0  2 0 1217 1055  382
[18]  39(B03)  7 16 35  1  -1013.4  4092002.6 -0.1  2 0  381  255  637
[19]  40(B04) 1f 40 10  0  -1107.6  4092002.8  0.4  2 0 1167 1428  595
[20]  41(B05) 1f 40 23  0  -1128.9  4092002.9  0.8  2 0 1227 1315  592
[21]  42(B06) 1f 37  9  0  -2785.2  4092007.2  0.2  2 0  893 1079  244
[22]  43(B07) 1f 40  8  0    455.1  4091998.7  0.1  2 0 1398 1446  685
[24]  44(B08) 1f 42  7  0   -869.0  4092002.2  0.1  2 0 1029 1501  801
[27]  49(B13) 1f 43 10  0   -956.3  4092002.4 -0.1  2 0 1578 1528  401
[29]  55(B19) 1f 42  7  0   1096.4  4091997.0 -0.0  2 0 1457 1718  729
[30]  57(B21) 1f 43  7  0  -4092.5  4092010.6  0.0  2 0 1603 2161 1152
[32]  75(N-6)  7 47  7  0  -2343.7  1022001.5  0.1  2 0  1437 2497  933
[33]  76(N-5)  7 45 17  0   1216.5  1021999.2 -0.5  2 0   654 1659  888
[34]  78(N-3)  7 49 19  0  -1879.2  1022001.2  0.1  2 0  1560 2756 1417
[35]  79(N-2)  7 41 13  0  -3181.8  1022002.0  0.8  2 0   587 1449  648
[36]  80(N-1)  7 44 12  0  -5043.7  1022003.2 -0.2  2 0   988 1664 1214
[37]  82(N01)  7 37 25  0   2783.2  1021998.1  0.3  2 0   462  604  403
[38]  83(N02)  1 37 11  0   1197.8  1021998.9  0.9  1 0   681 1098  447
[40]  84(N03)  1 32  7  0    275.4  1021999.8  1.0  1 0   618 1503  789
[49]  38(B02)  1 10 10  0  -1566.9 20460022.9  0.0  1 0  317  266  402
[51]  40(B04)  1 10 23  0  -1029.5 20460018.3  0.0  1 0  463  178  736
[52]  41(B05)  1 25 24  1   -559.4 20460025.1 -0.0  1 0  187  222  321
[53]  42(B06)  1  7  7  0  -3024.5 20460042.6  0.1  1 0  914 1057 1042
[54]  43(B07)  1  7  7  0    147.3 20459994.3 -0.1  1 0  491  311  119
[56]  44(B08)  1  7  7  0  -1055.3 20460014.7 -0.1  1 0  487  548  457
[59]  49(B13)  1  7  7  0   -749.9 20460014.1  0.1  1 0  868  272  140
[61]  55(B19)  1  7  7  0   1258.0 20459983.1  0.1  1 0   87  300  587
[62]  57(B21)  1  7  7  0  -3338.2 20460066.5 -0.1  1 0  313  459  679
$GNGGA,111523.485,,,,,0,00,,,M,,,,0000*27
$GNRMC,111523.485,A,,,,,,,080180,,*2B
$GPGSA,A,1,,,,,,,,,,,,,,,*1E
$BDGSA,A,1,,,,,,,,,,,,,,,*0F
$GLGSA,A,1,,,,,,,,,,,,,,,*02
$GPGSV,2,1,08,02,00,000,43,04,00,000,40,05,00,000,42,06,00,000,46*70
$GPGSV,2,2,08,12,00,000,44,17,00,000,44,19,00,000,43,28,00,000,39*7B
$BDGSV,3,1,10,01,00,000,41,02,00,000,37,04,00,000,40,05,00,000,40*68
$BDGSV,3,2,10,06,00,000,37,07,00,000,40,08,00,000,42,13,00,000,43*62
$BDGSV,3,3,10,19,00,000,42,21,00,000,43*63
$B3CN0,0,0,0,0,0,0,0,0,0,0,0,0,0,0*4C
---00000012--- Acq_st=3 0  2000-1-1 0:2:48 
[00]  01(G02)  f 44 10  0  -2046.8  2046002.6  0.1  2 0 2060 2298  915
[01]  03(G04)  f 41  7  0  -3321.0  2046004.2 -0.0  2 0 1158 1542  612
[02]  04(G05)  f 42 13  0  -4747.4  2046006.1  0.1  2 0 1707 1929  932
[03]  05(G06)  f 46  7  0   -509.3  2046000.6 -0.0  2 0 3078 4792 2294
[04]  08(G09)  1 25 11  0  -2758.3  2046004.1  0.3  1 0  739 1082  212
[05]  11(G12)  f 45 18  0  -3673.0  2046004.7  0.0  2 0 2092 3500 1516
[06]  16(G17)  f 44  7  0   -350.6  2046000.4  0.0  2 0 2451 3782 2386
[08]  18(G19)  f 44  7  0   -928.6  2046001.1  0.1  2 0 2122 2808  716
[09]  27(G28)  f 39  7  0   2275.0  2045997.0 -0.2  2 0  920 1669 1070
[16]  37(B01) 1f 41 36  0  -1081.8  4092002.9 -0.6  2 0 1342 1493  671
[17]  38(B02) 1f 37 23  0  -1148.1  4092002.8  0.7  2 0 1357 1448  233
[18]  39(B03)  7 10 33  1   -999.1  4092002.7 -0.0  2 0  663  343  965
[19]  40(B04) 1f 40 20  0  -1100.8  4092002.6 -0.2  2 0  881 1391  743
[20]  41(B05) 1f 39 21  0  -1124.4  4092002.9 -0.0  2 0 1207 1664  782
[21]  42(B06) 1f 37 12  0  -2774.5  4092007.2  0.1  2 0 1197 1113  147
[22]  43(B07) 1f 40  7  0    460.5  4091998.7  0.0  2 0  903 1167  127
[24]  44(B08) 1f 42  7  0   -868.6  4092002.2  0.1  2 0 1343 1219  253
[27]  49(B13) 1f 42 11  0   -948.4  4092002.4  0.0  2 0 1317 2079 1127
[29]  55(B19) 1f 42  7  0   1099.3  4091997.0  0.0  2 0 1064 1593  581
[30]  57(B21) 1f 43  7  0  -4089.4  4092010.6 -0.0  2 0 1466 2462 1551
[32]  75(N-6)  f 31  7  0  -2339.3  1022001.4  0.3  5 0  1251 2407 1309
[33]  76(N-5)  7 45 12  0   1221.8  1021999.2 -0.3  2 0   691 1609  772
[34]  78(N-3)  7 49 18  0  -1875.0  1022001.2 -0.1  2 0  1357 2928 1639
[35]  79(N-2)  7 41  7  0  -3175.1  1022002.0 -0.8  2 0   884 1263  745
[36]  80(N-1)  7 44 11  0  -5040.4  1022003.2 -0.2  2 0   504 1180  479
[37]  82(N01)  7 37 26  0   2785.7  1021998.3 -0.2  2 0   481  470  190
[38]  83(N02)  7 36  7  0   1201.5  1021999.2  0.0  2 0   349  475  388
[40]  84(N03)  7 35  7  0    280.6  1021999.8  0.4  5 0  1077 1601  669
[48]  37(B01)  1 10 10  1   -833.6 20460019.7 -0.1  1 0  473  257  431
[49]  38(B02)  1 10 10  0  -1993.1 20460028.0 -0.0  1 0   51  910  886
[51]  40(B04)  1 26 24  0   -823.8 20460017.8 -0.0  1 0  772  548  212
[52]  41(B05)  1 22 22  1   -967.4 20460028.7 -0.0  1 0  332  464  272
[53]  42(B06)  1  7  7  0  -3033.3 20460043.8  0.1  1 0  416  643  617
[54]  43(B07)  1  7  7  0    185.5 20459993.9  0.2  1 0  207  604  940
[56]  44(B08)  1  7  7  0   -799.7 20460015.0 -0.0  1 0  323  571  593
[59]  49(B13)  1  7  7  0  -1236.2 20460014.0  0.0  1 0  580  678 1148
[61]  55(B19)  1  7  7  0   2109.8 20459983.1 -0.1  1 0  214  221  511
[62]  57(B21)  1  7  7  0  -3050.6 20460069.0  0.1  1 0  407  681  407
$GNGGA,111524.485,,,,,0,00,,,M,,,,0000*20
$GNRMC,111524.485,A,,,,,,,080180,,*2C
$GPGSA,A,1,,,,,,,,,,,,,,,*1E
$BDGSA,A,1,,,,,,,,,,,,,,,*0F
$GLGSA,A,1,,,,,,,,,,,,,,,*02
$GPGSV,2,1,08,02,00,000,44,04,00,000,41,05,00,000,42,06,00,000,46*76
$GPGSV,2,2,08,12,00,000,45,17,00,000,44,19,00,000,44,28,00,000,39*7D
$BDGSV,3,1,10,01,00,000,41,02,00,000,37,04,00,000,40,05,00,000,40*68
$BDGSV,3,2,10,06,00,000,37,07,00,000,40,08,00,000,42,13,00,000,42*63
$BDGSV,3,3,10,19,00,000,42,21,00,000,43*63
$B3CN0,0,0,0,0,0,0,0,0,0,0,0,0,0,0*4C
---00000013--- Acq_st=3 0  2000-1-1 0:2:49 
[00]  01(G02)  f 42  7  0  -2046.7  2046002.6  0.1  2 0 1401 2104  904
[01]  03(G04)  f 40  7  0  -3327.9  2046004.3  0.0  2 0 1132 2085 1420
[02]  04(G05)  f 42  7  0  -4745.9  2046006.1 -0.0  2 0 1058 1818  892
[03]  05(G06)  f 46  7  0   -513.5  2046000.6 -0.0  2 0 2969 4437 1807
[04]  08(G09)  7 35  7  0  -2764.7  2046003.6 -0.0  5 0  196  292  378
[05]  11(G12)  f 44 20  0  -3677.6  2046004.7 -0.0  2 0 1939 3767 1925
[06]  16(G17)  f 44  7  0   -352.9  2046000.4  0.0  2 0 2430 4029 2152
[08]  18(G19)  f 44  7  0   -933.2  2046001.2  0.0  2 0 2525 3691 1616
[09]  27(G28)  f 39  7  0   2269.3  2045997.0 -0.0  2 0  874 1335  212
[16]  37(B01) 1f 42 36  0  -1088.0  4092002.8  0.1  2 0  661 1161  323
[17]  38(B02) 1f 38 10  0  -1150.0  4092002.9 -0.1  2 0  405  829  540
[18]  39(B03)  7 10 36  1  -1003.7  4092002.7  0.2  2 0  293  235  674
[19]  40(B04) 1f 41 19  0  -1107.2  4092002.8 -0.6  2 0 1005 1280  723
[20]  41(B05) 1f 40 28  0  -1128.9  4092002.8  0.1  2 0  568 1029  567
[21]  42(B06) 1f 38  7  0  -2781.3  4092007.2  0.2  2 0  785  725  370
[22]  43(B07) 1f 40 12  0    457.9  4091998.6  0.1  2 0 1592 1816 1101
[24]  44(B08) 1f 42  7  0   -873.8  4092002.2  0.0  2 0 1555 1909  822
[25]  46(B10)  1  7  7  0    285.2  4091999.0  0.1  1 0  943 1660  803
[26]  48(B12)  1  7  7  0  -1750.0  4092007.1 -0.0  1 0  380 1541 3105
[27]  49(B13) 1f 42  7  0   -956.0  4092002.4  0.1  2 0 1413 1951  679
[29]  55(B19) 1f 42  7  0   1094.7  4091997.0 -0.0  2 0 1751 1862  820
[30]  57(B21) 1f 43  7  0  -4095.6  4092010.6  0.0  2 0 1932 2376  959
[32]  75(N-6)  f 46  7  0  -2341.7  1022001.5 -0.2  2 0  1057 2097 1119
[33]  76(N-5)  7 44 13  0   1219.2  1021999.2  0.0  2 0   453 1309  438
[34]  78(N-3)  7 49 20  0  -1878.4  1022001.2  0.0  2 0  1437 2572 1523
[35]  79(N-2)  7 41 15  0  -3180.1  1022002.0  0.4  2 0   228  875  494
[36]  80(N-1)  7 44  9  0  -5043.5  1022003.2  0.0  2 0   890 1560  888
[37]  82(N01)  7 37 24  0   2783.2  1021998.1 -0.1  2 0   326  950  518
[38]  83(N02)  7 38  8  0   1197.6  1021999.2  0.2  2 0   372  822  777
[40]  84(N03)  7 45  7  0    276.7  1021999.8 -0.1  2 0   735 1530 1014
[48]  37(B01)  7 10 10  0   -810.1 20460014.6 -0.1  2 0  429  609  432
[49]  38(B02)  7 22 14  1  -2349.9 20460036.7 -0.0  2 0  321  591  781
[51]  40(B04)  1 23 22  1   -856.1 20460014.3 -0.1  1 0  596  338  573
[53]  42(B06)  1  7  7  0  -2684.3 20460043.5  0.1  1 0  454  266  467
[54]  43(B07)  1  7  7  0   -337.8 20459994.7 -0.0  1 0  503  247  393
[56]  44(B08)  1  7  7  0   -204.1 20460014.8  0.0  1 0  261  504  610
[59]  49(B13)  1  7  7  0  -1322.0 20460014.2  0.1  1 0  218   40  616
[61]  55(B19)  1  7  7  0   1589.0 20459985.4  0.2  1 0  402  200  383
[62]  57(B21)  1  7  7  0  -3684.7 20460067.1 -0.2  1 0  965  754  601
$GNGGA,111525.485,,,,,0,00,,,M,,,,0000*21
$GNRMC,111525.485,A,,,,,,,080180,,*2D
$GPGSA,A,1,,,,,,,,,,,,,,,*1E
$BDGSA,A,1,,,,,,,,,,,,,,,*0F
$GLGSA,A,1,,,,,,,,,,,,,,,*02
$GPGSV,3,1,09,02,00,000,42,04,00,000,40,05,00,000,42,06,00,000,46*71
$GPGSV,3,2,09,09,00,000,35,12,00,000,44,17,00,000,44,19,00,000,44*73
$GPGSV,3,3,09,28,00,000,39*40
$BDGSV,3,1,10,01,00,000,42,02,00,000,38,04,00,000,41,05,00,000,40*65
$BDGSV,3,2,10,06,00,000,38,07,00,000,40,08,00,000,42,13,00,000,42*6C
$BDGSV,3,3,10,19,00,000,42,21,00,000,43*63
$B3CN0,0,22,0,0,0,0,0,0,0,0,0,0,0,0*7C
---00000014--- Acq_st=3 0  2000-1-1 0:2:50 
[00]  01(G02)  f 43  7  0  -2048.5  2046002.6 -0.0  2 0 1919 2765 1357
[01]  03(G04)  f 40  7  0  -3328.3  2046004.2 -0.0  2 0  948 1623  683
[02]  04(G05)  f 42  7  0  -4746.1  2046006.1 -0.0  2 0 1865 2343  798
[03]  05(G06)  f 46  7  0   -513.5  2046000.6 -0.0  2 0 3015 4949 2088
[04]  08(G09)  7 35  7  0  -2775.2  2046003.6 -0.1  2 0  461  744 1164
[05]  11(G12)  f 45 20  0  -3675.6  2046004.7  0.0  2 0 2213 3536 1289
[06]  16(G17)  f 45 10  0   -355.1  2046000.4  0.0  2 0 1621 2906 1053
[08]  18(G19)  f 44  7  0   -934.7  2046001.2 -0.0  2 0 2101 2958 1135
[09]  27(G28)  f 39  7  0   2271.2  2045997.0 -0.0  2 0  570 1202  845
[16]  37(B01) 1f 41 16  0  -1084.8  4092002.7 -0.3  2 0  985 1521  575
[17]  38(B02) 1f 38 22  0  -1151.9  4092002.8  0.6  2 0 1085 1521  610
[18]  39(B03)  7 10 34  1  -1006.6  4092002.7 -0.0  2 0  210  207  972
[19]  40(B04) 1f 41 24  0  -1106.0  4092002.7 -0.2  2 0 1163 1290  671
[20]  41(B05) 1f 39 22  0  -1130.7  4092003.0  0.5  2 0 1237 1548  417
[21]  42(B06) 1f 38 10  0  -2786.3  4092007.2  0.0  2 0 1030 1334  660
[22]  43(B07) 1f 40  7  0    459.4  4091998.6  0.0  2 0 1103 1357  546
[24]  44(B08) 1f 42  7  0   -868.3  4092002.1 -0.0  2 0 1329 1645  878
[25]  46(B10)  7  7  7  0    289.3  4091999.2  0.3 10 0  572 1071  200
[26]  48(B12)  1  7 12  0  -1831.7  4092004.8  0.3  1 0 2176 2847 1127
[27]  49(B13) 1f 43  7  0   -955.1  4092002.4  0.0  2 0 1063 1696  509
[28]  52(B16)  1  7  7  0  -2252.3  4092007.5 -0.1  1 0  690  770  584
[29]  55(B19) 1f 42 11  0   1099.6  4091997.0  0.0  2 0 1841 1952  801
[30]  57(B21) 1f 43  8  0  -4093.8  4092010.6  0.0  2 0 1643 2401 1261
[32]  75(N-6)  f 46  7  0  -2341.2  1022001.4 -0.1  2 0   986 2207 1151
[33]  76(N-5)  f 31  7  0   1218.3  1021999.2  0.0  5 0  1083 1635  564
[34]  78(N-3)  f 31 11  0  -1880.4  1022001.2 -0.0  5 0  1497 2818 1334
[35]  79(N-2)  f 31  7  0  -3182.0  1022002.0  0.0  5 0   685  611   66
[36]  80(N-1)  f 31  7  0  -5043.5  1022003.2 -0.3  5 0  1071 1407  720
[37]  82(N01)  f 30 21  0   2783.4  1021998.1  0.2  5 0   862  888  518
[38]  83(N02)  7 38 12  0   1195.0  1021999.2 -0.2  2 0    80  685  307
[40]  84(N03)  7 44  7  0    277.7  1021999.8  0.1  2 0  1046 1944 1140
[48]  37(B01)  7 10 36  1   -973.2 20460016.8 -0.0  2 0  214  525  497
[49]  38(B02)  7 13 10  1  -2525.1 20460039.7 -0.0  2 0  374  377  544
[51]  40(B04)  1 25 22  0   -533.1 20460022.0 -0.0  1 0  289  264  374
[52]  41(B05)  1 19 23  0   -843.0 20460020.6 -0.1  1 0  448  338  804
$GNGGA,111526.485,,,,,0,00,,,M,,,,0000*22
$GNRMC,111526.485,A,,,,,,,080180,,*2E
$GPGSA,A,1,,,,,,,,,,,,,,,*1E
$BDGSA,A,1,,,,,,,,,,,,,,,*0F
$GLGSA,A,1,,,,,,,,,,,,,,,*02
$GPGSV,3,1,09,02,00,000,43,04,00,000,40,05,00,000,42,06,00,000,46*70
$GPGSV,3,2,09,09,00,000,35,12,00,000,45,17,00,000,45,19,00,000,44*73
$GPGSV,3,3,09,28,00,000,39*40
$BDGSV,3,1,10,01,00,000,41,02,00,000,38,04,00,000,41,05,00,000,39*68
$BDGSV,3,2,10,06,00,000,38,07,00,000,40,08,00,000,42,13,00,000,43*6D
$BDGSV,3,3,10,19,00,000,42,21,00,000,43*63
$B3CN0,0,0,0,0,0,0,0,0,0,0,0,0,0,0*4C
---00000015--- Acq_st=3 0  2000-1-1 0:2:51 
[00]  01(G02)  f 43  9  0  -2054.0  2046002.6  0.1  2 0 1859 2736  970
[01]  03(G04)  f 41 10  0  -3327.1  2046004.3  0.0  2 0 1316 1852 1013
[02]  04(G05)  f 42  7  0  -4749.9  2046006.1  0.0  2 0 2483 2882 1797
[03]  05(G06)  f 46  7  0   -514.7  2046000.6 -0.0  2 0 3162 4754 2310
[04]  08(G09)  7 34  7  0  -2769.6  2046003.5  0.1  2 0  396  508  307
[05]  11(G12)  f 45 19  0  -3677.0  2046004.7  0.0  2 0 2026 3746 1500
[06]  16(G17)  f 45  7  0   -356.4  2046000.4 -0.0  2 0 2145 3627 1842
[08]  18(G19)  f 44  7  0   -935.1  2046001.1  0.1  2 0 1789 3239 1849
[09]  27(G28)  f 39  7  0   2272.3  2045997.0 -0.1  2 0  993 1678 1398
[16]  37(B01) 1f 41 17  0  -1088.0  4092002.7  0.2  2 0 1437 1650  349
[17]  38(B02) 1f 39 17  0  -1155.1  4092002.9  0.9  2 0 1309 1199  209
[18]  39(B03)  7 21 33  1  -1007.1  4092002.7  0.1  2 0  368  188  400
[19]  40(B04) 1f 41 24  0  -1103.8  4092002.7 -0.0  2 0  933 1043  229
[20]  41(B05) 1f 40 26  0  -1132.6  4092002.9  0.9  2 0  977 1164  492
[21]  42(B06) 1f 37  9  0  -2780.8  4092007.2  0.1  2 0  344  926  639
[22]  43(B07) 1f 40  7  0    456.8  4091998.6 -0.1  2 0  841  734  275
[24]  44(B08) 1f 42  7  0   -871.0  4092002.2  0.1  2 0 1658 2128  851
[25]  46(B10)  7 40  7  0    291.7  4091999.1 -0.0  2 0 1144 1636  484
[26]  48(B12)  7 34  7  0  -1831.7  4092004.7  0.1  5 0 2083 3166 1355
[27]  49(B13) 1f 43  7  0   -955.9  4092002.4  0.0  2 0 1631 2200  822
[28]  52(B16)  7 24  7  0  -2832.8  4092007.7 -0.1 10 0   70  575 1010
[29]  55(B19) 1f 42  7  0   1091.8  4091997.0  0.0  2 0 1753 2146  673
[30]  57(B21) 1f 43  7  0  -4095.8  4092010.6 -0.1  2 0 1640 2042  955
[32]  75(N-6)  f 46  7  0  -2342.3  1022001.5 -0.0  2 0   943 1989 1018
[33]  76(N-5)  f 44 14  0   1219.2  1021999.2 -0.0  2 0   828 1874  922
[34]  78(N-3)  f 48 17  0  -1880.3  1022001.2 -0.0  2 0  1740 3058 1386
[35]  79(N-2)  f 41  7  0  -3183.0  1022002.0 -0.8  2 0   576 1081  322
[36]  80(N-1)  f 44  7  0  -5043.7  1022003.2 -0.0  2 0   766 1281  486
[37]  82(N01)  f 38 23  0   2779.1  1021998.2  0.1  2 0   309  886  250
[38]  83(N02)  7 37  8  0   1196.3  1021999.1  0.3  2 0   573  765  753
[40]  84(N03)  7 45  7  0    276.3  1021999.8 -0.0  2 0   894 1307  567
[48]  37(B01)  7 10 22  1  -1531.5 20460025.3 -0.1  2 0  104  148  490
[49]  38(B02)  7 14 10  0  -2963.3 20460047.4 -0.2  2 0  375  522  211
[52]  41(B05)  1 25 26  1   -692.1 20460021.6 -0.1  1 0  298  198  346
[53]  42(B06)  1  7  7  0  -2124.6 20460043.2  0.1  1 0  423  613  495
[54]  43(B07)  1  7  7  0    567.3 20459993.5  0.1  1 0  470  165  285
[56]  44(B08)  1  7 10  0   -460.7 20460011.1 -0.1  1 0  187  376  222
[59]  49(B13)  1  7  7  0   -920.3 20460010.1 -0.1  1 0  500   42  657
[61]  55(B19)  1  8  7  0    625.1 20459982.0 -0.1  1 0  434  275  379
[62]  57(B21)  1  7 10  0  -3623.4 20460066.0  0.0  1 0  283  607  458
$GNGGA,111527.485,,,,,0,00,,,M,,,,0000*23
$GNRMC,111527.485,A,,,,,,,070519,,*24
$GPGSA,A,1,,,,,,,,,,,,,,,*1E
$BDGSA,A,1,,,,,,,,,,,,,,,*0F
$GLGSA,A,1,,,,,,,,,,,,,,,*02
$GPGSV,3,1,09,02,00,000,43,04,00,000,41,05,00,000,42,06,00,000,46*71
$GPGSV,3,2,09,09,00,000,34,12,00,000,45,17,00,000,45,19,00,000,44*72
$GPGSV,3,3,09,28,00,000,39*40
$BDGSV,3,1,12,01,00,000,41,02,00,000,39,03,00,000,22,04,00,000,41*67
$BDGSV,3,2,12,05,00,000,40,06,00,000,37,07,00,000,40,08,00,000,42*64
$BDGSV,3,3,12,10,00,000,40,12,00,000,34,13,00,000,43,16,00,000,24*6E
$B3CN0,0,0,0,0,0,0,0,0,0,0,0,0,0,0*4C
---00000016--- Acq_st=3 0  2000-1-1 0:2:52 
[00]  01(G02)  f 44  7  0  -2043.1  2046002.6 -0.0  2 0 1975 3435 1574
[01]  03(G04)  f 40  7  0  -3322.2  2046004.3 -0.0  2 0 1362 2184 1082
[02]  04(G05)  f 42  7  0  -4742.7  2046006.1 -0.0  2 0 1489 2724 1478
[03]  05(G06)  f 45  7  0   -508.8  2046000.6  0.1  2 0 3135 5160 2401
[04]  08(G09)  7 35  7  0  -2763.4  2046003.6  0.6  2 0  526 1252  795
[05]  11(G12)  f 45 18  0  -3672.6  2046004.7  0.0  2 0 2834 4148 2104
[06]  16(G17)  f 45 12  0   -349.5  2046000.4 -0.0  2 0 2269 3564 1450
[08]  18(G19)  f 44  7  0   -929.3  2046001.2 -0.0  2 0 1593 2854 1698
[09]  27(G28)  f 40  7  0   2276.6  2045997.0 -0.2  2 0 1100 1933 1014
[16]  37(B01) 1f 43 16  0  -1085.2  4092002.7 -0.5  2 0 1296 2037 1098
[17]  38(B02) 1f 37 26  0  -1152.1  4092002.9 -0.9  2 0 1474 1517  917
[18]  39(B03)  7 20 33  1  -1004.6  4092002.7 -0.1  2 0  326   43  681
[19]  40(B04) 1f 40 14  0  -1106.4  4092002.7  0.1  2 0  598 1058  394
[20]  41(B05) 1f 40 26  0  -1125.1  4092002.8 -0.5  2 0 1128 1120  340
[21]  42(B06) 1f 37  7  0  -2778.7  4092007.2  0.7  2 0  884 1576 1137
[22]  43(B07) 1f 40  7  0    459.2  4091998.6  0.0  2 0 1336 2027 1384
[24]  44(B08) 1f 42  7  0   -867.3  4092002.2 -0.1  2 0 1758 1924  875
[25]  46(B10)  7 40  7  0    296.6  4091999.1  0.1  2 0 1534 1674  577
[26]  48(B12)  7 44  7  0  -1827.1  4092004.7  0.0  2 0 2550 3173 1503
[27]  49(B13) 1f 43  7  0   -949.6  4092002.4  0.0  2 0 1687 2439 1102
[28]  52(B16)  7 37  7  0  -2825.3  4092007.4 -0.4  2 0  316  725  787
[29]  55(B19) 1f 42  7  0   1099.6  4091997.0 -0.0  2 0 1828 2043  938
[30]  57(B21) 1f 43  7  0  -4091.3  4092010.6  0.0  2 0 1971 3033 1587
[32]  75(N-6)  f 46  7  0  -2335.6  1022001.5  0.1  2 0  1321 2022  891
[33]  76(N-5)  f 44 12  0   1224.4  1021999.2  0.2  2 0  1005 1577  924
[34]  78(N-3)  f 48 16  0  -1875.5  1022001.2 -0.1  2 0  1856 2878 1277
[35]  79(N-2)  f 41  7  0  -3176.4  1022002.0 -0.4  2 0   900  974  292
[36]  80(N-1)  f 43  7  0  -5039.4  1022003.2 -0.1  2 0   783 1162  330
[37]  82(N01)  f 38 23  0   2787.1  1021998.1  0.0  2 0   508  858  606
[38]  83(N02)  f 30  7  0   1203.0  1021999.2  0.0  5 0   805 1049  488
[40]  84(N03)  f 31  7  0    280.4  1021999.8  0.0  5 0  1070 1878  948
[48]  37(B01)  7 10 18  1  -1818.6 20460029.3 -0.0  2 0  715  610  508
[49]  38(B02)  7 18 20  0  -3295.1 20460054.8 -0.1  2 0  273  285  461
[51]  40(B04)  1 22 21  1   -534.2 20460021.4  0.1  1 0  540  207  161
[52]  41(B05)  1 18 25  1   -595.4 20460021.8 -0.1  1 0  132  234  520
[53]  42(B06)  1  7  7  0  -2200.5 20460044.7  0.1  1 0  165  213  331
[54]  43(B07)  1  7  7  0    806.0 20459993.6 -0.0  1 0  710  381  600
[56]  44(B08)  1  7  7  0     49.9 20460012.0 -0.1  1 0  238  453  436
[59]  49(B13)  1  7  7  0   -630.4 20460009.7  0.0  1 0  522  487  290
[61]  55(B19)  1  7  7  0    673.2 20459984.1 -0.0  1 0  470  353  187
[62]  57(B21)  1  7  7  0  -4072.0 20460065.1 -0.0  1 0  666  354   29
$GNGGA,111528.485,,,,,0,00,,,M,,,,0000*2C
$GNRMC,111528.485,A,,,,,,,070519,,*2B
$GPGSA,A,1,,,,,,,,,,,,,,,*1E
$BDGSA,A,1,,,,,,,,,,,,,,,*0F
$GLGSA,A,1,,,,,,,,,,,,,,,*02
$GPGSV,3,1,09,02,00,000,44,04,00,000,40,05,00,000,42,06,00,000,45*74
$GPGSV,3,2,09,09,00,000,35,12,00,000,45,17,00,000,45,19,00,000,44*73
$GPGSV,3,3,09,28,00,000,40*4E
$BDGSV,3,1,12,01,00,000,42,02,00,000,37,03,00,000,19,04,00,000,40*63
$BDGSV,3,2,12,05,00,000,40,06,00,000,37,07,00,000,40,08,00,000,42*64
$BDGSV,3,3,12,10,00,000,40,12,00,000,44,13,00,000,43,16,00,000,37*6B
$B3CN0,0,0,0,0,0,0,0,0,0,0,0,0,0,0*4C
---00000017--- Acq_st=7 0  2000-1-1 0:2:53 
[00]  01(G02)  f 43  7  0  -2048.1  2046002.6  0.0  2 0 2269 2795  921
[01]  03(G04)  f 40  7  0  -3326.7  2046004.2  0.1  2 0  771 1920  617
[02]  04(G05)  f 42  7  0  -4745.9  2046006.1 -0.1  2 0 1624 2674 1995
[03]  05(G06)  f 46  8  0   -511.5  2046000.6  0.0  2 0 2856 4298 1514
[04]  08(G09)  7 34  7  0  -2761.1  2046003.5 -0.1  2 0  139  487  416
[05]  11(G12)  f 45 19  0  -3675.0  2046004.7 -0.1  2 0 2299 3607 1452
[06]  16(G17)  f 45  7  0   -350.1  2046000.4  0.0  2 0 2659 4265 2075
[08]  18(G19)  f 44  7  0   -931.0  2046001.1  0.1  2 0 1890 2054  568
[09]  27(G28)  f 39  7  0   2275.9  2045997.0  0.0  2 0  939 1075  658
[16]  37(B01) 1f 41 10  0  -1083.3  4092002.7 -0.3  2 0  900 1078  373
[17]  38(B02) 1f 39 23  0  -1147.4  4092002.9  0.7  2 0 1644 1973 1102
[18]  39(B03)  7 10 35  1  -1010.6  4092002.6 -0.0  2 0  152  258  582
[19]  40(B04) 1f 41 23  0  -1105.2  4092002.7 -0.3  2 0 1181 1536  963
[20]  41(B05) 1f 40 23  0  -1126.4  4092002.8  0.9  2 0 1157 1505  798
[21]  42(B06) 1f 37 11  0  -2778.8  4092007.2 -0.0  2 0 1013 1119  340
[22]  43(B07) 1f 40  7  0    463.6  4091998.7  0.1  2 0  660 1296  565
[24]  44(B08) 1f 42  7  0   -874.2  4092002.2 -0.1  2 0 1685 2053  805
[25]  46(B10)  7 40  7  0    292.2  4091999.1  0.1  2 0 1274 1438  691
[26]  48(B12)  7 44  7  0  -1824.8  4092004.7 -0.0  2 0 1775 3032 1180
[27]  49(B13) 1f 43  8  0   -956.5  4092002.4 -0.0  2 0 2149 2568  924
[28]  52(B16)  7 38  7  0  -2829.2  4092007.5  0.2  2 0  220 1074  900
[29]  55(B19) 1f 42  7  0   1103.6  4091997.0  0.0  2 0 1481 2128  995
[30]  57(B21) 1f 43  7  0  -4091.5  4092010.6 -0.0  2 0 2332 2301  724
[32]  75(N-6)  f 46  7  0  -2337.1  1022001.5 -0.2  2 0  1585 2342 1250
[33]  76(N-5)  f 44 10  0   1222.4  1021999.2 -0.1  2 0   819 1710  957
[34]  78(N-3)  f 47 18  0  -1876.4  1022001.2  0.0  2 0  1968 2781 1279
[35]  79(N-2)  f 40  7  0  -3180.1  1022002.0 -0.4  2 0   715 1122  449
[36]  80(N-1)  f 43  7  0  -5040.0  1022003.2  0.0  2 0   556 1273  855
[37]  82(N01)  f 38 24  0   2784.8  1021998.1 -0.2  2 0   832 1387  531
[38]  83(N02)  f 37  7  0   1202.5  1021999.2  0.1  2 0   357  806  672
[40]  84(N03)  f 44  7  0    279.6  1021999.8 -0.2  2 0  1148 1755  792
[51]  40(B04)  1 10 18  0    -33.5 20460014.0 -0.0  1 0  258  592  245
[52]  41(B05)  1 24 22  0   -861.4 20460029.6  0.1  1 0  114  448  850
[53]  42(B06)  1  7  7  0  -1973.0 20460044.2  0.0  1 0  483  973  862
[54]  43(B07)  1  8  7  0    374.7 20459993.5  0.0  1 0  419  465  424
[56]  44(B08)  1  7  7  0   -288.6 20460011.1  0.1  1 0  580  443  133
[59]  49(B13)  1  7  7  0   -537.2 20460011.5  0.2  1 0  693 1132  979
[61]  55(B19)  1  7  7  0    584.9 20459982.8 -0.1  1 0  398  288  612
[62]  57(B21)  1  7  7  0  -3780.9 20460065.6 -0.0  1 0  701  391  796
$GNGGA,111529.485,,,,,0,00,,,M,,,,0000*2D
$GNRMC,111529.485,A,,,,,,,070519,,*2A
$GPGSA,A,1,,,,,,,,,,,,,,,*1E
$BDGSA,A,1,,,,,,,,,,,,,,,*0F
$GLGSA,A,1,,,,,,,,,,,,,,,*02
$GPGSV,3,1,09,02,00,000,43,04,00,000,40,05,00,000,42,06,00,000,46*70
$GPGSV,3,2,09,09,00,000,34,12,00,000,45,17,00,000,45,19,00,000,44*72
$GPGSV,3,3,09,28,00,000,39*40
$BDGSV,3,1,12,01,00,000,41,02,00,000,39,04,00,000,41,05,00,000,40*65
$BDGSV,3,2,12,06,00,000,37,07,00,000,40,08,00,000,42,10,00,000,40*60
$BDGSV,3,3,12,12,00,000,44,13,00,000,43,16,00,000,38,19,00,000,42*6F
$B3CN0,0,0,0,0,0,0,0,0,0,0,0,0,0,0*4C
---00000018--- Acq_st=7 0  2000-1-1 0:2:54 
[00]  01(G02)  f 42  7  0  -2046.3  2046002.6 -0.0  2 0 1612 3524 2228
[01]  03(G04)  f 40  7  0  -3326.2  2046004.2  0.0  2 0 1273 1974 1031
[02]  04(G05)  f 42  7  0  -4742.9  2046006.1 -0.1  2 0 1888 2618 1144
[03]  05(G06)  f 46  7  0   -509.6  2046000.6 -0.0  2 0 2847 4645 2524
[04]  08(G09)  7 35  7  0  -2765.9  2046003.4 -0.4  2 0  660  906  685
[05]  11(G12)  f 44 19  0  -3671.7  2046004.7  0.0  2 0 2095 3113 1426
[06]  16(G17)  f 45  8  0   -350.4  2046000.4 -0.0  2 0 2446 4102 2366
[08]  18(G19)  f 44 10  0   -931.4  2046001.2 -0.0  2 0 1402 2599 1048
[09]  27(G28)  f 39  7  0   2272.8  2045997.0 -0.1  2 0 1186 2157 1155
[16]  37(B01) 1f 41 13  0  -1080.1  4092002.7  0.4  2 0 1219 1325  467
[17]  38(B02) 1f 37 27  0  -1149.7  4092002.8 -0.4  2 0  950  861  183
[18]  39(B03)  7 14 33  1  -1005.1  4092002.6 -0.2  2 0  255   82  174
[19]  40(B04) 1f 40 10  0  -1103.9  4092002.6 -0.6  2 0 1304 1196  462
[20]  41(B05) 1f 38 24  0  -1126.6  4092002.9  0.7  2 0 1393 1314  239
[21]  42(B06) 1f 37  8  0  -2776.2  4092007.2 -0.0  2 0 1006 1360  833
[22]  43(B07) 1f 40 10  0    459.1  4091998.6 -0.0  2 0  995 1770 1122
[24]  44(B08) 1f 42  7  0   -869.7  4092002.2 -0.0  2 0 1268 1930  960
[25]  46(B10)  7 40  7  0    288.7  4091999.1 -0.0  2 0  747 1053  501
[26]  48(B12)  7 43 10  0  -1824.9  4092004.7  0.0  2 0 2142 2903  935
[27]  49(B13) 1f 43  9  0   -953.0  4092002.4  0.1  2 0 1912 2883 1339
[28]  52(B16)  7 38  7  0  -2818.9  4092007.4 -0.3  2 0  335 1304  432
[29]  55(B19) 1f 42 11  0   1097.9  4091997.0 -0.0  2 0 1512 1950  705
[30]  57(B21) 1f 43  7  0  -4092.1  4092010.6 -0.0  2 0 2662 2803  819
[32]  75(N-6)  f 46  7  0  -2335.6  1022001.5  0.1  2 0  1118 2053 1043
[33]  76(N-5)  f 44  7  0   1225.4  1021999.2  0.2  2 0   810 1466  847
[34]  78(N-3)  f 48 18  0  -1876.4  1022001.2  0.1  2 0  1609 2893 1268
[35]  79(N-2)  f 40  7  0  -3180.9  1022002.0 -0.5  2 0   741  930  189
[36]  80(N-1)  f 43  7  0  -5038.9  1022003.2  0.1  2 0   931 1406  488
[37]  82(N01)  f 38 23  0   2785.3  1021998.2  0.1  2 0   508 1302  310
[38]  83(N02)  f 37  7  0   1203.7  1021999.2  0.2  2 0   675  752  388
[40]  84(N03)  f 44  7  0    280.2  1021999.8 -0.1  2 0  1071 1695  938
[48]  37(B01)  1 14 22  0   -701.3 20460017.3  0.1  1 0  493  361  316
[49]  38(B02)  1 10 18  0  -1336.7 20460018.2  0.2  1 0  389  102  325
[51]  40(B04)  1 24 22  0    434.3 20460026.2 -0.1  1 0  324  745  970
[53]  42(B06)  1  7  9  0  -1559.1 20460044.6 -0.2  1 0  586  270  219
[54]  43(B07)  1  7  7  0    301.0 20459994.1 -0.0  1 0  414  422  178
[56]  44(B08)  1  7  7  0    -90.7 20460012.8 -0.0  1 0  515  254  159
[59]  49(B13)  1  7  7  0   -850.1 20460013.5  0.0  1 0  470  744  411
[61]  55(B19)  1  7  7  0    -42.6 20459985.3 -0.0  1 0  610  579  440
[62]  57(B21)  1  7  7  0  -3585.1 20460066.3  0.2  1 0   61  327  679
$GNGGA,111530.485,,,,,0,00,,,M,,,,0000*25
$GNRMC,111530.485,A,,,,,,,070519,,*22
$GPGSA,A,1,,,,,,,,,,,,,,,*1E
$BDGSA,A,1,,,,,,,,,,,,,,,*0F
$GLGSA,A,1,,,,,,,,,,,,,,,*02
$GPGSV,3,1,09,02,00,000,42,04,00,000,40,05,00,000,42,06,00,000,46*71
$GPGSV,3,2,09,09,00,000,35,12,00,000,44,17,00,000,45,19,00,000,44*72
$GPGSV,3,3,09,28,00,000,39*40
$BDGSV,3,1,12,01,00,000,42,02,00,000,37,04,00,000,40,05,00,000,38*66
$BDGSV,3,2,12,06,00,000,37,07,00,000,40,08,00,000,42,10,00,000,40*60
$BDGSV,3,3,12,12,00,000,43,13,00,000,43,16,00,000,38,19,00,000,42*68
$B3CN0,0,0,0,0,0,0,0,0,0,0,0,0,0,0*4C
---00000019--- Acq_st=7 0  2000-1-1 0:2:55 
[00]  01(G02)  f 43  7  0  -2047.6  2046002.6  0.1  2 0 1856 2718 1296
[01]  03(G04)  f 39  7  0  -3326.9  2046004.3  0.0  2 0  662 1326  671
[02]  04(G05)  f 42  7  0  -4742.0  2046006.1  0.1  2 0 1748 2798 1138
[03]  05(G06)  f 46  7  0   -510.8  2046000.6  0.0  2 0 3233 4586 1820
[04]  08(G09)  f 35  7  0  -2758.7  2046003.5 -0.1  2 0  904  685  255
[05]  11(G12)  f 44 20  0  -3673.9  2046004.7  0.0  2 0 2214 3924 2022
[06]  16(G17)  f 44  7  0   -352.0  2046000.4  0.0  2 0 2878 4102 2376
[08]  18(G19)  f 44  7  0   -931.1  2046001.2 -0.0  2 0 2193 2964 1473
[09]  27(G28)  f 40  7  0   2271.9  2045997.0  0.1  2 0 1064 1564  684
[16]  37(B01) 1f 41 10  0  -1084.3  4092002.6 -0.3  2 0 1265 1929  869
[17]  38(B02) 1f 38 23  0  -1150.1  4092002.9  0.7  2 0  580 1034  665
[18]  39(B03)  7 21 33  1  -1000.8  4092002.7 -0.0  2 0  577  255  253
[19]  40(B04) 1f 40 24  0  -1108.1  4092002.8 -0.7  2 0 1213 1218  398
[20]  41(B05) 1f 38 22  0  -1124.4  4092002.9 -0.7  2 0 1453 1650  697
[21]  42(B06) 1f 37  8  0  -2787.5  4092007.2 -0.4  2 0  986 1368  697
[22]  43(B07) 1f 40  7  0    459.7  4091998.7 -0.1  2 0 1464 1666  883
[24]  44(B08) 1f 42  7  0   -872.4  4092002.2  0.0  2 0 1799 2211  877
[25]  46(B10)  7 40  7  0    295.9  4091999.1 -0.1  2 0  604 1062  395
[26]  48(B12)  7 43  8  0  -1825.1  4092004.7 -0.0  2 0 2226 2681 1001
[27]  49(B13) 1f 42 13  0   -954.7  4092002.4 -0.1  2 0 1289 1810  840
[28]  52(B16)  7 38  7  0  -2826.2  4092007.4  0.2  2 0  729 1326  857
[29]  55(B19) 1f 42  7  0   1098.5  4091997.0  0.0  2 0 1546 1956 1005
[30]  57(B21) 1f 43 13  0  -4090.5  4092010.6 -0.0  2 0 1915 2606 1561
[32]  75(N-6)  f 47  7  0  -2335.5  1022001.5 -0.0  2 0  1292 2370 1053
[33]  76(N-5)  f 44  7  0   1223.5  1021999.2 -0.0  2 0   571 1099  553
[34]  78(N-3)  f 47 17  0  -1877.1  1022001.2 -0.0  2 0  1768 2874 1428
[35]  79(N-2)  f 41  7  0  -3181.7  1022002.0 -0.2  2 0   466  858  530
[36]  80(N-1)  f 43  7  0  -5039.6  1022003.2 -0.2  2 0  1115 1587  749
[37]  82(N01)  f 39 24  0   2781.8  1021998.2  0.1  2 0   472  396  136
[38]  83(N02)  f 37  7  0   1199.2  1021999.2 -0.2  2 0   104  703  662
[40]  84(N03)  f 44  7  0    279.0  1021999.8  0.0  2 0  1577 2005  760
[48]  37(B01)  1 14 10  0   -288.4 20460021.5 -0.1  1 0  457  203  631
[49]  38(B02)  1 10 36  1  -1597.2 20460023.9 -0.0  1 0  194  162  447
[51]  40(B04)  1 26 24  1    280.8 20460023.0  0.0  1 0  740 1038  377
[52]  41(B05)  1 25 24  0   -954.4 20460018.6 -0.0  1 0  106  277  441
[59]  49(B13)  f  7  7  0  -1106.5 20460017.6 -0.0 10 0  389  335  260
$GNGGA,111531.485,,,,,0,00,,,M,,,,0000*24
$GNRMC,111531.485,A,,,,,,,070519,,*23
$GPGSA,A,1,,,,,,,,,,,,,,,*1E
$BDGSA,A,1,,,,,,,,,,,,,,,*0F
$GLGSA,A,1,,,,,,,,,,,,,,,*02
$GPGSV,3,1,09,02,00,000,43,04,00,000,39,05,00,000,42,06,00,000,46*7E
$GPGSV,3,2,09,09,00,000,35,12,00,000,44,17,00,000,44,19,00,000,44*73
$GPGSV,3,3,09,28,00,000,40*4E
$BDGSV,3,1,12,01,00,000,41,02,00,000,38,03,00,000,19,04,00,000,40*6F
$BDGSV,3,2,12,05,00,000,38,06,00,000,37,07,00,000,40,08,00,000,42*6B
$BDGSV,3,3,12,10,00,000,40,12,00,000,43,13,00,000,42,16,00,000,38*62
$B3CN0,0,0,0,0,0,0,0,0,0,0,0,0,0,0*4C
---00000020--- Acq_st=3 0  2000-1-1 0:2:56 
[00]  01(G02)  f 43  7  0  -2042.7  2046002.6 -0.1  2 0 1621 2899 1133
[01]  03(G04)  f 40  7  0  -3318.4  2046004.3 -0.1  2 0 1956 2091 1221
[02]  04(G05)  f 42  7  0  -4739.2  2046006.1 -0.0  2 0 1763 2614 1084
[03]  05(G06)  f 45  7  0   -503.0  2046000.6 -0.0  2 0 3318 5175 2241
[04]  08(G09)  f 35  7  0  -2757.0  2046003.5  0.4  2 0  938 1577  829
[05]  11(G12)  f 44 18  0  -3666.7  2046004.7 -0.0  2 0 2172 3394 1961
[06]  16(G17)  f 45  7  0   -343.1  2046000.4  0.0  2 0 2925 4115 2233
[08]  18(G19)  f 44  7  0   -921.0  2046001.1 -0.0  2 0 2026 3114 1309
[09]  27(G28)  f 39  9  0   2277.2  2045997.0 -0.1  2 0 1004 1056  452
[16]  37(B01) 1f 41 14  0  -1075.3  4092002.7  0.1  2 0 1435 2080  942
[17]  38(B02) 1f 38 23  0  -1142.6  4092002.9 -0.0  2 0  984 1107  438
[18]  39(B03)  7 10 33  1  -1003.0  4092002.6  0.2  2 0  723  215  401
[19]  40(B04) 1f 40 24  0  -1096.4  4092002.8 -0.5  2 0 1028 1099  209
[20]  41(B05) 1f 39 24  0  -1116.4  4092002.8 -0.2  2 0 1055 1471  908
[21]  42(B06) 1f 37 15  0  -2773.6  4092007.1  0.7  2 0  698 1067  717
[22]  43(B07) 1f 40  7  0    462.0  4091998.6 -0.1  2 0 1175 1551  682
[24]  44(B08) 1f 42  7  0   -864.5  4092002.1 -0.0  2 0 1735 2319 1229
[25]  46(B10)  7 40  7  0    296.4  4091999.1  0.0  2 0 1144 1286  469
[26]  48(B12)  7 43  7  0  -1818.1  4092004.6 -0.0  2 0 1924 2425 1115
[27]  49(B13) 1f 42  7  0   -950.2  4092002.4  0.0  2 0 1854 2325  856
[28]  52(B16)  7 38  7  0  -2832.5  4092007.3  0.1  2 0  630  689  550
[29]  55(B19) 1f 42  7  0   1109.1  4091997.0 -0.1  2 0 2148 2447  973
[30]  57(B21) 1f 43  9  0  -4083.4  4092010.6 -0.0  2 0 1866 2491 1409
[32]  75(N-6) 8f 46  7  0  -2326.6  1022001.4  0.0  2 0  1284 2243 1043
[33]  76(N-5) 8f 44 13  0   1231.5  1021999.2 -0.1  2 0  1060 1734  925
[34]  78(N-3) 8f 47 16  0  -1869.3  1022001.1 -0.0  2 0  1418 2882 1426
[35]  79(N-2) 8f 41  7  0  -3171.1  1022002.0  0.1  2 0   723 1100  592
[36]  80(N-1) 8f 43  7  0  -5031.4  1022003.2  0.0  2 0   871 1685  758
[37]  82(N01) 8f 39 24  0   2792.8  1021998.2  0.4  2 0   771 1025  304
[38]  83(N02) 8f 37  7  0   1211.4  1021999.2  0.0  2 0   302  677  486
[40]  84(N03) 8f 44  7  0    288.3  1021999.8  0.0  2 0   954 1563  792
[48]  37(B01)  1 21 17  1   -876.0 20460025.4 -0.1  1 0   82  302  431
[49]  38(B02)  1 10 10  0  -1526.0 20460018.8  0.0  1 0  527  471  457
[52]  41(B05)  1 26 22  1  -1195.9 20460019.3  0.1  1 0  515  426  690
[53]  42(B06)  1  9  9  0  -2134.6 20460043.8  0.0  1 0  855  348  349
[54]  43(B07)  1  7  7  0    549.6 20459993.7  0.1  1 0   56  679  333
[56]  44(B08)  1  7  7  0   -762.3 20460011.2 -0.2  1 0  373   58  286
[59]  49(B13)  f  7  7  0  -1182.0 20460019.7  0.1 10 0  482  640  284
[61]  55(B19)  1 10  7  0   1028.0 20459981.5 -0.2  1 0  461  496  234
[62]  57(B21)  1  7  7  0  -2828.6 20460065.9 -0.0  1 0  558  496  987
$GNGGA,111532.485,,,,,0,00,,,M,,,,0000*27
$GNRMC,111532.485,A,,,,,,,070519,,*20
$GPGSA,A,1,,,,,,,,,,,,,,,*1E
$BDGSA,A,1,,,,,,,,,,,,,,,*0F
$GLGSA,A,1,,,,,,,,,,,,,,,*02
$GPGSV,3,1,09,02,00,000,43,04,00,000,40,05,00,000,42,06,00,000,45*73
$GPGSV,3,2,09,09,00,000,35,12,00,000,44,17,00,000,45,19,00,000,44*72
$GPGSV,3,3,09,28,00,000,39*40
$BDGSV,3,1,12,01,00,000,41,02,00,000,38,04,00,000,40,05,00,000,39*6B
$BDGSV,3,2,12,06,00,000,37,07,00,000,40,08,00,000,42,10,00,000,40*60
$BDGSV,3,3,12,12,00,000,43,13,00,000,42,16,00,000,38,19,00,000,42*69
$B3CN0,0,0,0,0,0,0,0,0,0,0,0,0,0,0*4C
---00000021--- Acq_st=3 0  2000-1-1 0:2:57 
[00]  01(G02)  f 43  7  0  -2044.8  2046002.6 -0.0  2 0 1914 2945 1654
[01]  03(G04)  f 40  7  0  -3323.6  2046004.3 -0.0  2 0  601 1488 1030
[02]  04(G05)  f 42  7  0  -4744.8  2046006.1 -0.0  2 0 2138 2877 1700
[03]  05(G06)  f 45  7  0   -509.8  2046000.6 -0.0  2 0 3332 4942 2220
[04]  08(G09)  f 36  7  0  -2761.4  2046003.5 -0.2  2 0  665  629  201
[05]  11(G12)  f 43 17  0  -3671.5  2046004.7  0.1  2 0 1450 3057 1401
[06]  16(G17)  f 45 11  0   -352.0  2046000.4 -0.0  2 0 2521 3650 2237
[08]  18(G19)  f 44  7  0   -931.5  2046001.1  0.0  2 0 2249 3361 1589
[09]  27(G28)  f 39  7  0   2271.7  2045997.0  0.1  2 0  616 1766  951
[16]  37(B01) 1f 42 19  0  -1088.8  4092002.8 -0.5  2 0 1245 1439  636
[17]  38(B02) 1f 39 20  0  -1147.1  4092003.0  0.0  2 0  692 1120  652
[18]  39(B03)  7 10 33  1  -1001.7  4092002.7  0.1  2 0  277  497  390
[19]  40(B04) 1f 41 21  0  -1105.3  4092002.8  0.6  2 0 1547 1189  253
[20]  41(B05) 1f 39 20  0  -1124.4  4092002.9  0.5  2 0 1196 1112  542
[21]  42(B06) 1f 37 11  0  -2784.9  4092007.2  0.1  2 0  777 1410 1033
[22]  43(B07) 1f 40  7  0    455.7  4091998.7  0.2  2 0 1064 1403  710
[24]  44(B08) 1f 42  7  0   -873.3  4092002.1 -0.0  2 0 1099 1514  699
[25]  46(B10) 1f 40  7  0    289.1  4091999.2 -0.1  2 0  621 1232  284
[26]  48(B12) 1f 43  7  0  -1823.1  4092004.7 -0.0  2 0 2048 2892 1426
[27]  49(B13) 1f 43  7  0   -953.2  4092002.4  0.1  2 0 1579 2052  789
[28]  52(B16) 1f 38  7  0  -2825.7  4092007.3  0.3  2 0  550 1330  723
[29]  55(B19) 1f 42  7  0   1099.4  4091997.0  0.1  2 0 1459 2123  939
[30]  57(B21) 1f 43  7  0  -4090.8  4092010.6 -0.0  2 0 1771 2074  742
[32]  75(N-6) 8f 46  7  0  -2334.3  1022001.5  0.0  2 0  1324 2482 1160
[33]  76(N-5) 8f 44  7  0   1225.8  1021999.2  0.1  2 0  1204 1914 1048
[34]  78(N-3) 8f 47 18  0  -1877.2  1022001.2  0.0  2 0  1505 2554 1320
[35]  79(N-2) 8f 40  7  0  -3181.3  1022002.0  0.7  2 0   648  980  398
[36]  80(N-1) 8f 43  7  0  -5039.2  1022003.2  0.0  2 0   897 1545  789
[37]  82(N01) 8f 39 25  0   2784.5  1021998.1  0.3  2 0   449  688  506
[38]  83(N02) 8f 37  7  0   1203.0  1021999.3  0.3  2 0   200  690  615
[40]  84(N03) 8f 44  7  0    279.7  1021999.8 -0.1  2 0  1016 1904  718
[48]  37(B01)  7 10 36  1   -720.3 20460012.6  0.0  2 0  538  260  654
[49]  38(B02)  1 19 10  1  -1164.2 20460022.7 -0.0  1 0  297  641  280
[51]  40(B04)  1 20 23  1   -581.0 20460017.9 -0.1  1 0  281  422  466
[52]  41(B05)  1 22 25  1   -939.7 20460016.0  0.1  1 0  426  219  495
[53]  42(B06)  1 11  7  0  -2307.2 20460044.6  0.1  1 0  499  174  558
[54]  43(B07)  1  7  7  0    249.6 20459994.4 -0.1  1 0  750  553  616
[56]  44(B08)  1  7  7  0   -716.3 20460013.2  0.1  1 0  916  559  503
[59]  49(B13)  f  8  8  0  -1285.2 20460021.9  0.0 10 0  232  113  425
[61]  55(B19)  1  7  8  0   1043.5 20459983.4 -0.0  1 0  270  159  643
[62]  57(B21)  1  7  9  0  -2915.0 20460066.5  0.1  1 0  585 1123  612
$GNGGA,111533.485,,,,,0,00,,,M,,,,0000*26
$GNRMC,111533.485,A,,,,,,,070519,,*21
$GPGSA,A,1,,,,,,,,,,,,,,,*1E
$BDGSA,A,1,,,,,,,,,,,,,,,*0F
$GLGSA,A,1,,,,,,,,,,,,,,,*02
$GPGSV,3,1,09,02,00,000,43,04,00,000,40,05,00,000,42,06,00,000,45*73
$GPGSV,3,2,09,09,00,000,36,12,00,000,43,17,00,000,45,19,00,000,44*76
$GPGSV,3,3,09,28,00,000,39*40
$BDGSV,3,1,12,01,00,000,42,02,00,000,39,04,00,000,41,05,00,000,39*68
$BDGSV,3,2,12,06,00,000,37,07,00,000,40,08,00,000,42,10,00,000,40*60
$BDGSV,3,3,12,12,00,000,43,13,00,000,43,16,00,000,38,19,00,000,42*68
$B3CN0,0,0,0,0,0,0,0,0,0,0,0,0,0,0*4C
---00000022--- Acq_st=3 0  2000-1-1 0:2:58 
[00]  01(G02)  f 43  7  0  -2048.6  2046002.6 -0.0  2 0 1916 3368 1720
[01]  03(G04)  f 39  7  0  -3324.1  2046004.3 -0.0  2 0 1393 1602  665
[02]  04(G05)  f 42  7  0  -4745.6  2046006.1 -0.0  2 0 1773 2589 1330
[03]  05(G06)  f 45  7  0   -513.9  2046000.6 -0.0  2 0 3500 5098 2252
[04]  08(G09)  f 35  7  0  -2762.8  2046003.5  0.2  2 0  529  569  250
[05]  11(G12)  f 44 18  0  -3674.4  2046004.7  0.0  2 0 2496 3843 1387
[06]  16(G17)  f 45 11  0   -352.8  2046000.4  0.0  2 0 2336 4066 2181
[08]  18(G19)  f 44  7  0   -931.1  2046001.2  0.1  2 0 1840 3152 1520
[09]  27(G28)  f 39  7  0   2265.2  2045997.0  0.0  2 0  827 1458  851
[16]  37(B01) 1f 41 14  0  -1083.0  4092002.6 -0.4  2 0 1398 1593  569
[17]  38(B02) 1f 38 25  0  -1156.4  4092002.9 -0.3  2 0  941 1237 1049
[18]  39(B03)  7 23 35  1  -1011.3  4092002.5 -0.1  2 0  256  416  468
[19]  40(B04) 1f 40 19  0  -1107.5  4092002.8  0.2  2 0 1045 1417  938
[20]  41(B05) 1f 39 22  0  -1129.8  4092002.9 -0.3  2 0  529  947  757
[21]  42(B06) 1f 37 10  0  -2789.8  4092007.2 -0.1  2 0 1065 1261  766
[22]  43(B07) 1f 40  7  0    459.5  4091998.7  0.0  2 0 1205 1461  655
[24]  44(B08) 1f 42  7  0   -872.8  4092002.2  0.0  2 0 1801 2278 1284
[25]  46(B10) 1f 40  7  0    291.0  4091999.1 -0.1  2 0  879 1302  794
[26]  48(B12) 1f 44  7  0  -1827.3  4092004.7 -0.0  2 0 1622 2695 1349
[27]  49(B13) 1f 43  9  0   -956.9  4092002.4 -0.0  2 0 1906 2571 1095
[28]  52(B16) 1f 38  7  0  -2831.6  4092007.3  0.4  2 0  873 1331  586
[29]  55(B19) 1f 42  7  0   1098.4  4091997.0 -0.1  2 0 1971 2391 1266
[30]  57(B21) 1f 43  7  0  -4094.4  4092010.6  0.0  2 0 1919 2418  885
[32]  75(N-6) 8f 46  7  0  -2335.6  1022001.5 -0.1  2 0  1449 2477 1107
[33]  76(N-5) 8f 44  7  0   1223.5  1021999.2  0.0  2 0  1109 1764  710
