SD initialized success
Create debug.log Failed! 3
bbram_blkflag = 1
rtcflag = 0
BBRAM Block OK: 01 EPHflag: 282304c5 12041adf, rtc 00
Hot-start nowtime:day = 7,minute = 49,seconds = 57.00
GPS 0 Init Dop:  1259, 2
GPS 1 Init Dop: 10000,80
GPS 2 Init Dop: -2853, 2
GPS 3 Init Dop: 10000,80
GPS 4 Init Dop: 10000,80
GPS 5 Init Dop: 10000,80
GPS 6 Init Dop:  2585, 2
GPS 7 Init Dop:  1469, 2
GPS 8 Init Dop: 10000,80
GPS 9 Init Dop: 10000,80
GPS10 Init Dop:  1673, 2
GPS11 Init Dop: 10000,80
GPS12 Init Dop: 10000,80
GPS13 Init Dop: 10000,80
GPS14 Init Dop: 10000,80
GPS15 Init Dop: 10000,80
GPS16 Init Dop: -1853, 2
GPS17 Init Dop:  2404, 2
GPS18 Init Dop: 10000,80
GPS19 Init Dop: 10000,80
GPS20 Init Dop: 10000,80
GPS21 Init Dop: -1447, 2
GPS22 Init Dop: 10000,80
GPS23 Init Dop: 10000,80
GPS24 Init Dop: 10000,80
GPS25 Init Dop: 10000,80
GPS26 Init Dop: 10000,80
GPS27 Init Dop: -2454, 2
GPS28 Init Dop: 10000,80
GPS29 Init Dop:  1180, 2
GPS30 Init Dop: 10000,80
GPS31 Init Dop: 10000,80
BDS 0 Init Dop:  -879, 2
BDS 1 Init Dop:  -934, 2
BDS 2 Init Dop:  -901, 2
BDS 3 Init Dop:  -893, 2
BDS 4 Init Dop:  -915, 2
BDS 5 Init Dop: 10000,80
BDS 6 Init Dop:  -733, 2
BDS 7 Init Dop:  -863, 2
BDS 8 Init Dop: 10000,80
BDS 9 Init Dop: -1170, 2
BDS10 Init Dop: 10000,80
BDS11 Init Dop: -2775, 2
BDS12 Init Dop: -1379, 2
BDS13 Init Dop: 10000,80
BDS14 Init Dop: 10000,80
BDS15 Init Dop: 10000,80
BDS16 Init Dop: 10000,80
BDS17 Init Dop: 10000,80
BDS18 Init Dop: -3114, 2
BDS19 Init Dop: 10000,80
BDS20 Init Dop: 10000,80
BDS21 Init Dop: 10000,80
BDS22 Init Dop: 10000,80
BDS23 Init Dop: 10000,80
BDS24 Init Dop: 10000,80
BDS25 Init Dop: -2313, 2
BDS26 Init Dop: 10000,80
BDS27 Init Dop: 10000,80
BDS28 Init Dop:   971, 2
BDS29 Init Dop: 10000,80
BDS30 Init Dop: 10000,80
BDS31 Init Dop: 10000,80
Good luck!
t2:1026.010290,t1:0.000000
$ini_pos,lastpos_good = 1,ini_pos.x:-1579274.000000,ini_pos.y:5312628.000000,ini_pos.z:3146103.000000
$rtc_local_time,localRTC.weeks:2052,localRTC.seconds:201016.026007,localGtime.weeks:0,localGtime.seconds:1044.010290
$GNGGA,000000.000,,,,,0,00,,,M,,,,0000*2B
$GNRMC,000000.000,A,,,,,,,060180,,*29
$GPGSA,A,1,,,,,,,,,,,,,,,*1E
$BDGSA,A,1,,,,,,,,,,,,,,,*0F
$GLGSA,A,1,,,,,,,,,,,,,,,*02
$B3CN0,0,0,0,0,0,0,0,0,0,0,0,0,0,0*4C
---00000001--- Acq_st=3 0  2019-5-7 7:49:58 
[00]  00(G01)  1 30 17  0   1030.9  2045999.3  0.2  1 0 3066 3232  833
[01]  02(G03)  1 29  7  0  -3098.2  2046004.8  0.4  1 0 1246 1399  432
[02]  06(G07)  1 23  7  0   2338.2  2045997.8  0.1  1 0 2101 3349 1356
[03]  10(G11)  1 24  7  0   1423.0  2045997.6 -0.0  1 0 1895 2392  834
[04]  16(G17)  1  7  7  0  -2103.0  2046003.7  0.0  1 0 1052  831 2124
[05]  17(G18)  1  7  7  0   2154.0  2045998.4  0.0  1 0  890 1974 1102
t2:2026.010258,t1:1026.010290
$ini_pos,lastpos_good = 1,ini_pos.x:-1579274.000000,ini_pos.y:5312628.000000,ini_pos.z:3146103.000000
$rtc_local_time,localRTC.weeks:2052,localRTC.seconds:201017.026007,localGtime.weeks:2052,localGtime.seconds:202016.025975
$GNGGA,000000.000,,,,,0,00,,,M,,,,0000*2B
$GNRMC,000000.000,A,,,,,,,060180,,*29
$GPGSA,A,1,,,,,,,,,,,,,,,*1E
$BDGSA,A,1,,,,,,,,,,,,,,,*0F
$GLGSA,A,1,,,,,,,,,,,,,,,*02
$B3CN0,0,0,0,0,0,0,0,0,0,0,0,0,0,0*4C
---00000002--- Acq_st=3 0  2019-5-7 7:49:59 
[00]  00(G01)  7 27  7  0   1040.4  2045998.5  0.6 10 0 2983 3817 1768
[01]  02(G03)  7 24  7  0  -3090.0  2046003.9  0.9 10 0 1103 1563  625
[02]  06(G07)  7  7  7  0   2348.6  2045996.9  1.0 10 0 2043 2977 1342
[03]  10(G11)  1 38 11  0   1450.7  2045997.9  0.9  1 0 1774 3163 2500
[04]  16(G17)  1 29  7  0  -2079.4  2046004.0  0.5  1 0 1815 3803 1942
[05]  17(G18)  1 30  7  0   2178.8  2045997.0  0.5  1 0 1122 1422  777
[06]  21(G22)  1 21  7  0  -1676.8  2046005.1  0.0  1 0  438 1597 1357
[08]  27(G28)  1  7  7  0  -2704.0  2046005.2 -0.0  1 0  252  303 1332
[09]  29(G30)  1 18  7  0    930.0  2046000.6 -0.1  1 0 1472 3961 3448
[16]  37(B01)  1 10 20  0  -1129.0  4092003.6 -0.0  1 0  231  984 2278
[17]  38(B02)  1 10 10  0  -1184.0  4092004.9 -0.2  1 0  323 1050 1501
[18]  39(B03)  1 10 27  1  -1151.0  4092003.0 -0.0  1 0  556 1661 2321
[19]  40(B04)  1 10 24  0  -1143.0  4092004.9 -0.1  1 0  312  944 1734
[20]  41(B05)  1 10 19  1  -1165.0  4092004.3  0.0  1 0  123  770 1291
t2:3026.010226,t1:1026.010290
$ini_pos,lastpos_good = 1,ini_pos.x:-1579274.000000,ini_pos.y:5312628.000000,ini_pos.z:3146103.000000
$rtc_local_time,localRTC.weeks:2052,localRTC.seconds:201018.026007,localGtime.weeks:2052,localGtime.seconds:203016.025942
$pseudo_cd_ph,prn:1,pseudo_cd_ph:4.209338
$meas,msRange:73.578498,x:-13786914.345488,y:6710978.204180,z:21465122.243572,vx:-415.705841,vy:-2738.174072,vz:615.628906
$pseudo_cd_ph,prn:3,pseudo_cd_ph:17.730605
$meas,msRange:74.990173,x:-22861436.564715,y:11354171.931883,z:7144571.217947,vx:559.038940,vy:-771.938782,vz:3008.053711
$pseudo_cd_ph,prn:7,pseudo_cd_ph:18.454314
$meas,msRange:80.574253,x:-8152435.329078,y:20020169.391808,z:-14853137.699213,vx:-485.409698,vy:-1907.098389,vz:-2312.251709
$pseudo_cd_ph,prn:11,pseudo_cd_ph:1.501927
$meas,msRange:75.902029,x:-16775760.449869,y:2559992.276553,z:19857601.989377,vx:-1340.034424,vy:-2309.280273,vz:-837.589600
$GNGGA,000000.000,,,,,0,00,,,M,,,,0000*2B
$GNRMC,000000.000,A,,,,,,,060180,,*29
$GPGSA,A,1,,,,,,,,,,,,,,,*1E
$BDGSA,A,1,,,,,,,,,,,,,,,*0F
$GLGSA,A,1,,,,,,,,,,,,,,,*02
$GPGSV,1,1,02,01,00,000,26,03,00,000,24*7B
$B3CN0,0,0,0,0,0,0,0,0,0,0,0,0,0,0*4C
---00000003--- Acq_st=3 0  2019-5-7 7:50:0 
[00]  00(G01)  7 45  7  0   1031.6  2045998.5  0.1  2 0 2544 3667 1681
[01]  02(G03)  7 38  7  0  -3097.7  2046003.9  0.1  2 0  235  577  179
[02]  06(G07)  7 44  8  0   2339.0  2045996.9 -0.0  2 0 2297 3471 1718
[03]  10(G11)  7 36  7  0   1443.9  2045998.1  0.1  2 0 1988 3160 1672
[04]  16(G17)  7 28  7  0  -2084.8  2046002.6  0.5 10 0 2677 2851 1612
[05]  17(G18)  7 28  7  0   2170.6  2045997.1  0.6 10 0 1463 2108  938
[06]  21(G22)  7 22  7  0  -1686.3  2046002.0  0.6 10 0 1577 1795  474
[08]  27(G28)  1 31  7  0  -2682.4  2046004.0  0.7  1 0 1953 2698 1324
[09]  29(G30)  1 31  7  0    942.5  2045998.6  0.8  1 0 3153 4027 1351
[16]  37(B01)  1 16 10  0  -1117.4  4092004.0  0.4  1 0  462 1443  815
[17]  38(B02)  1 26 21  1  -1173.4  4092003.9  0.6  1 0 1120 1183   50
[18]  39(B03)  1 10 29  1  -1141.1  4092003.5  0.5  1 0  682 2364 1340
[19]  40(B04)  1 10 18  0  -1139.4  4092003.0  0.5  1 0 1423 1983 1061
[20]  41(B05)  1 23 21  0  -1159.7  4092004.1  0.6  1 0  898 1377 1225
[21]  43(B07)  1  7  7  0   -969.6  4092003.2  0.3  1 0 1768 2491  903
[22]  44(B08)  1  7  7  0  -1096.0  4092003.7  0.4  1 0 1859 3033 1718
[24]  46(B10)  1  7  7  0  -1402.1  4092006.0  0.1  1 0  971 1859 1160
[25]  49(B13)  1  7  7  0  -1617.0  4092007.0  0.0  1 0  661 2028 1814
tow update
t2:4026.010194,t1:4026.010194
$ini_pos,lastpos_good = 1,ini_pos.x:-1579274.000000,ini_pos.y:5312628.000000,ini_pos.z:3146103.000000
$rtc_local_time,localRTC.weeks:2052,localRTC.seconds:201019.026007,localGtime.weeks:2052,localGtime.seconds:201019.964209
$pseudo_cd_ph,prn:1,pseudo_cd_ph:201019764.208628
$meas,msRange:70.260672,x:-13292482.948360,y:11986012.933291,z:19330764.369055,vx:-88.876274,vy:-2502.162598,vz:1508.064819
$pseudo_cd_ph,prn:3,pseudo_cd_ph:201019757.732525
$meas,msRange:76.933850,x:-23411856.031012,y:12408626.994456,z:922794.003602,vx:-32.971455,vy:-307.826111,vz:3181.618652
$pseudo_cd_ph,prn:7,pseudo_cd_ph:201019758.452798
$meas,msRange:76.007401,x:-7418563.576315,y:23235505.409565,z:-9656056.580921,vx:-275.998993,vy:-1286.481812,vz:-2856.780273
$pseudo_cd_ph,prn:11,pseudo_cd_ph:201019761.500993
$meas,msRange:72.367045,x:-14256717.538064,y:7404472.681649,z:20627075.585879,vx:-1159.656860,vy:-2508.583496,vz:71.904305
$pseudo_cd_ph,prn:17,pseudo_cd_ph:0.817283
$meas,msRange:73.714370,x:10028415.627646,y:19274832.832160,z:15743079.229896,vx:-1666.244751,vy:-957.066101,vz:2284.180908
$pseudo_cd_ph,prn:18,pseudo_cd_ph:18.257312
$meas,msRange:76.273468,x:-15045918.084163,y:1919768.033837,z:21312072.074005,vx:-130.436691,vy:-2822.634766,vz:171.852921
$pseudo_cd_ph,prn:22,pseudo_cd_ph:16.728247
$meas,msRange:77.053651,x:-23853216.282298,y:7969193.603990,z:8662462.083976,vx:701.237488,vy:-890.407471,vz:2834.530762
$pseudo_cd_ph,prn:28,pseudo_cd_ph:4.025447
$meas,msRange:71.222702,x:-2142040.775283,y:16549802.255519,z:21293229.283965,vx:-2354.121582,vy:998.824707,vz:-1034.107544
$pseudo_cd_ph,prn:30,pseudo_cd_ph:3.602778
$meas,msRange:70.777417,x:-506357.314071,y:26421032.983495,z:1272617.072390,vx:-367.416779,vy:140.882339,vz:-3138.819092
$GNGGA,075001.834,2940.2073,N,10639.4447,E,1,04,3.2,23193.6,M,,,,0000*13
$GNRMC,075001.834,A,2940.2073,N,10639.4447,E,82.76,0.00,070519,,*27
$GPGSA,A,3,01,03,07,11,,,,,,,,,8.7,3.2,8.1*30
$BDGSA,A,3,,,,,,,,,,,,,8.7,3.2,8.1*24
$GLGSA,A,3,,,,,,,,,,,,,8.7,3.2,8.1*29
$GPGSV,2,1,07,01,00,000,45,03,00,000,38,07,00,000,43,11,00,000,35*73
$GPGSV,2,2,07,17,00,000,28,18,00,000,27,22,00,000,21*4D
$B3CN0,0,0,0,0,0,0,0,0,0,0,0,0,0,0*4C
---00000004--- Acq_st=3 0  2019-5-7 7:50:1 
[00]  00(G01)  f 45  7  0   1039.5  2045998.6  0.0  2 0 2982 3915 1805
[01]  02(G03)  f 39  7  0  -3091.8  2046004.0  0.0  2 0  941 1281  206
[02]  06(G07)  f 43  7  0   2345.7  2045996.9  0.0  2 0 1566 2838 1456
[03]  10(G11)  f 41  7  0   1451.1  2045998.1 -0.0  2 0 1603 2511 1543
[04]  16(G17)  7 45  7  0  -2077.9  2046002.6  0.0  2 0 2840 3074 1611
[05]  17(G18)  7 40  7  0   2177.1  2045997.1  0.1  2 0 1338 2463 1872
[06]  21(G22)  7 40  7  0  -1675.5  2046002.0 -0.1  2 0 1764 1736  606
[08]  27(G28)  7 36  7  0  -2674.0  2046003.3  0.1  2 0 1961 2686 1052
[09]  29(G30)  7 34  7  0    951.5  2045998.7  0.2  5 0 2298 3793 1505
[16]  37(B01)  7 41 10  0  -1112.8  4092002.8 -0.4  2 0 1094 1246  566
[17]  38(B02)  7 40 21  0  -1167.7  4092002.9  0.4  2 0 1016 1424  218
[18]  39(B03)  7 43 28  0  -1135.2  4092002.8 -0.2  2 0 2328 2289  827
[19]  40(B04)  7 39 18  0  -1131.8  4092002.9  0.8  2 0 1158 1296  431
[20]  41(B05)  7 37 19  0  -1153.1  4092002.8  0.5  2 0  968 1002  597
[21]  43(B07)  7 27  7  0   -960.4  4092002.4  0.4 10 0 1688 2254  877
[22]  44(B08)  7 27  7  0  -1086.4  4092002.7  0.3 10 0 1224 1977  919
[24]  46(B10)  7 23  7  0  -1393.0  4092003.5  0.4 10 0 1708 2030  825
[25]  49(B13)  7  7  7  0  -1610.4  4092004.1  0.5 10 0 1937 2438  953
[26]  55(B19)  1  7  7  0  -3150.7  4092008.2 -0.1  1 0  136   83   69
---00000005--- Acq_st=3 0  2019-5-7 7:50:2 
[00]  00(G01)  f 45  7  0   1038.4  2045998.6 -0.0  2 0 2871 3636 1930
[01]  02(G03)  f 39  7  0  -3087.3  2046003.9  0.1  2 0 1205 1402  396
[02]  06(G07)  f 43  7  0   2340.3  2045996.9  0.0  2 0 1884 2725 1101
[03]  10(G11)  f 42  7  0   1448.5  2045998.1 -0.0  2 0 1449 2622 1204
[04]  16(G17)  7 44  7  0  -2077.4  2046002.6 -0.0  2 0 2706 3758 1812
[05]  17(G18)  7 40  7  0   2178.0  2045997.1 -0.0  2 0 1257 1633  921
[06]  21(G22)  7 41  7  0  -1680.0  2046002.1 -0.1  2 0 1216 1527  615
[08]  27(G28)  7 44  9  0  -2676.6  2046003.4 -0.0  2 0 2021 2995 1163
[09]  29(G30)  7 45  7  0    952.0  2045998.7 -0.1  2 0 2896 4120 1781
[16]  37(B01) 1f 41 19  0  -1115.2  4092002.8  0.5  2 0 1372 2014 1058
[17]  38(B02) 1f 40 18  0  -1166.7  4092003.0  0.7  2 0  657  928  398
[18]  39(B03) 1f 42 30  0  -1136.9  4092002.9 -0.0  2 0 1930 1858  677
[19]  40(B04) 1f 39 18  0  -1133.4  4092002.7 -0.3  2 0 1014 1196  876
[20]  41(B05) 1f 35 24  0  -1158.5  4092003.0  0.8  2 0  427  455  338
[21]  43(B07)  7 44 10  0   -962.4  4092002.4 -0.0  2 0 1802 2626  988
[22]  44(B08)  7 43 11  0  -1085.7  4092002.7 -0.0  2 0 1589 2329 1259
[24]  46(B10)  7 44  7  0  -1394.0  4092003.5  0.0  2 0 1783 2476  804
[25]  49(B13)  7 39  7  0  -1608.5  4092004.1  0.1  2 0 1808 2047  748
[26]  55(B19)  1  7  7  0  -3196.6  4092008.0 -0.0  1 0  255  396   69
[27]  62(B26)  1  7  7  0  -2544.3  4092010.0  0.1  1 0  102 2340 3683
[28]  65(B29)  1  7  7  0    721.0  4091999.6  0.1  1 0 1703 2757 1573
t2:5191.585968,t1:5191.585968
$ini_pos,lastpos_good = 1,ini_pos.x:-1579274.000000,ini_pos.y:5312628.000000,ini_pos.z:3146103.000000
$rtc_local_time,localRTC.weeks:2052,localRTC.seconds:201020.191583,localGtime.weeks:2052,localGtime.seconds:201021.000000
$pseudo_cd_ph,prn:1,pseudo_cd_ph:201020929.783620
$meas,msRange:70.262107,x:-13292575.083886,y:11983421.116089,z:19332326.183414,vx:-89.027374,vy:-2502.353760,vz:1507.628296
$pseudo_cd_ph,prn:3,pseudo_cd_ph:201020923.310576
$meas,msRange:76.932571,x:-23411890.004798,y:12408308.046440,z:926089.485877,vx:-32.628223,vy:-308.027710,vz:3181.598145
$pseudo_cd_ph,prn:7,pseudo_cd_ph:201020924.026840
$meas,msRange:76.009694,x:-7418849.487629,y:23234172.695534,z:-9659015.494571,vx:-276.064545,vy:-1286.843506,vz:-2856.559326
$pseudo_cd_ph,prn:11,pseudo_cd_ph:201020927.075708
$meas,msRange:72.368751,x:-14257918.766920,y:7401874.335883,z:20627149.816944,vx:-1159.785034,vy:-2508.538574,vz:71.427780
$pseudo_cd_ph,prn:17,pseudo_cd_ph:6.394574
$meas,msRange:73.713755,x:10026689.588559,y:19273841.483455,z:15745444.990356,vx:-1666.548462,vy:-957.120117,vz:2283.844482
$pseudo_cd_ph,prn:18,pseudo_cd_ph:3.831482
$meas,msRange:76.275652,x:-15046053.273401,y:1916844.366150,z:21312249.823183,vx:-130.598984,vy:-2822.648682,vz:171.361343
$pseudo_cd_ph,prn:22,pseudo_cd_ph:2.305230
$meas,msRange:77.053300,x:-23852489.813286,y:7968271.205003,z:8665397.967815,vx:701.494934,vy:-890.644348,vz:2834.340576
$pseudo_cd_ph,prn:28,pseudo_cd_ph:9.603162
$meas,msRange:71.221696,x:-2144479.058784,y:16550836.882177,z:21292157.934392,vx:-2353.937744,vy:998.926453,vz:-1034.551514
$pseudo_cd_ph,prn:30,pseudo_cd_ph:9.177840
$meas,msRange:70.778795,x:-506737.865749,y:26421178.707211,z:1269365.896138,vx:-367.387024,vy:140.494247,vz:-3138.847412
Refix G01: 2, 201020.929784, 1036
Refix G03: 2, 201020.923311, -3091
Refix G07: 2, 201020.924027, 2342
Refix G08: 2, 201020.916158, 1149
Refix G11: 2, 201020.927076, 1446
Refix G17: 2, 201020.926344, -2352
Refix G18: 2, 201020.923816, 2107
Refix G22: 2, 201020.922295, -1723
Refix G28: 2, 201020.929598, -2739
Refix G30: 2, 201020.929189, 983
$GNGGA,075003.000,2940.2244,N,10639.4191,E,1,04,3.2,23110.0,M,,,,0000*1B
$GNRMC,075003.000,A,2940.2244,N,10639.4191,E,84.33,141.62,070519,,*25
$GPGSA,A,3,01,03,07,11,,,,,,,,,8.7,3.2,8.1*30
$BDGSA,A,3,,,,,,,,,,,,,8.7,3.2,8.1*24
$GLGSA,A,3,,,,,,,,,,,,,8.7,3.2,8.1*29
$GPGSV,3,1,09,01,00,000,45,03,00,000,39,07,00,000,43,11,00,000,42*7D
$GPGSV,3,2,09,17,00,000,44,18,00,000,40,22,00,000,41,28,00,000,44*75
$GPGSV,3,3,09,30,00,000,45*42
$BDGSV,3,1,09,01,00,000,41,02,00,000,40,03,00,000,42,04,00,000,39*6A
$BDGSV,3,2,09,05,00,000,35,07,00,000,44,08,00,000,43,10,00,000,44*6A
$BDGSV,3,3,09,13,00,000,39*59
$B3CN0,0,0,0,0,0,0,0,0,0,0,0,0,0,0*4C
---00000006--- Acq_st=3 0  2019-5-7 7:50:3 
[00]  00(G01)  f 45  7  0   1042.0  2045998.6 -0.0  2 0 2374 3528 1626
[01]  02(G03)  f 40  7  0  -3088.4  2046003.9 -0.1  2 0  829  917  252
[02]  06(G07)  f 43  7  0   2347.0  2045996.9 -0.0  2 0 2112 2667 1521
[03]  10(G11)  f 43 10  0   1452.1  2045998.1  0.0  2 0 1543 2310  917
[04]  16(G17)  7 44  7  0  -2078.2  2046002.6  0.1  2 0 3044 4116 2070
[05]  17(G18)  7 40  7  0   2180.5  2045997.1  0.1  2 0  964 1324  471
[06]  21(G22)  7 41  7  0  -1674.8  2046002.1  0.0  2 0 1506 2170  903
[08]  27(G28)  7 43  7  0  -2671.8  2046003.4 -0.1  2 0 2071 2787 1348
[09]  29(G30)  7 45  7  0    954.0  2045998.7 -0.0  2 0 2341 3839 1533
[16]  37(B01) 1f 42 10  0  -1109.8  4092002.9 -0.1  2 0  834 1761 1111
[17]  38(B02) 1f 40 22  0  -1169.0  4092003.0  0.5  2 0  928 1319  541
[18]  39(B03) 1f 43 31  0  -1131.2  4092002.8  0.1  2 0 2268 1997  735
[19]  40(B04) 1f 40 22  0  -1132.7  4092002.8  0.7  2 0 1197  958  114
[20]  41(B05) 1f 35 22  0  -1156.4  4092002.8  0.8  2 0 1039 1108  898
[21]  43(B07) 1f 43 10  0   -959.5  4092002.4 -0.0  2 0 1959 2634 1151
[22]  44(B08) 1f 43  7  0  -1086.1  4092002.7 -0.0  2 0 1932 2240  887
[24]  46(B10) 1f 43  7  0  -1393.1  4092003.5  0.0  2 0 2033 2320  968
[25]  49(B13) 1f 43  7  0  -1607.8  4092004.1 -0.1  2 0 1595 1990  741
[26]  55(B19)  1  8  7  0  -2845.8  4092008.0  0.1  1 0  106  338  389
[27]  62(B26)  7 20  7  0  -2539.6  4092006.5  0.5 10 0 3075 3405 1314
[28]  65(B29)  1  7 15  0    746.1  4091997.4  0.5  1 0 2221 2558 1214
[32]  77(N-4)  1 27 16  0   1274.6  1022000.0  0.1  1 0  2064 2816 1189
[33]  78(N-3)  1 25 18  0  -4250.0  1022005.0 -0.0  1 0   221  939 1020
[34]  81(N00)  1  7 20  0  -1000.0  1022001.5  0.0  1 0   932 3021 2763
[35]  82(N01)  1  7  7  0  -4000.1  1022004.4  0.1  1 0   299  572 1810
[48]  37(B01)  1 10 13  0   -927.6 20460014.8 -0.1  1 0  338  329  316
[49]  38(B02)  1 18 10  1  -1134.5 20460019.1 -0.1  1 0  825  538  373
[50]  39(B03)  1 23 22  1  -1077.8 20460022.9  0.2  1 0  481 1171  771
[51]  40(B04)  1 23 23  0   -848.6 20460019.3 -0.1  1 0  748  785  485
t2:6191.585935,t1:6191.585935
$ini_pos,lastpos_good = 1,ini_pos.x:-1579274.000000,ini_pos.y:5312628.000000,ini_pos.z:3146103.000000
$rtc_local_time,localRTC.weeks:2052,localRTC.seconds:201021.191583,localGtime.weeks:2052,localGtime.seconds:201022.000000
$pseudo_cd_ph,prn:1,pseudo_cd_ph:201021929.782920
$meas,msRange:70.263493,x:-13292664.184208,y:11980918.670251,z:19333833.600922,vx:-89.173279,vy:-2502.538086,vz:1507.206787
$pseudo_cd_ph,prn:3,pseudo_cd_ph:201021923.312503
$meas,msRange:76.931337,x:-23411922.467347,y:12407999.921390,z:929271.073979,vx:-32.296879,vy:-308.222412,vz:3181.578369
$pseudo_cd_ph,prn:7,pseudo_cd_ph:201021924.025319
$meas,msRange:76.011909,x:-7419125.583842,y:23232885.677411,z:-9661871.947060,vx:-276.127899,vy:-1287.192749,vz:-2856.345947
$pseudo_cd_ph,prn:11,pseudo_cd_ph:201021927.074765
$meas,msRange:72.370398,x:-14259078.613756,y:7399365.819096,z:20627221.014694,vx:-1159.908691,vy:-2508.495117,vz:70.967720
$pseudo_cd_ph,prn:17,pseudo_cd_ph:6.395847
$meas,msRange:73.713162,x:10025022.893628,y:19272884.337319,z:15747728.672202,vx:-1666.841553,vy:-957.172241,vz:2283.519531
$pseudo_cd_ph,prn:18,pseudo_cd_ph:3.830067
$meas,msRange:76.277761,x:-15046183.950720,y:1914021.710900,z:21312420.947233,vx:-130.755661,vy:-2822.662109,vz:170.886765
$pseudo_cd_ph,prn:22,pseudo_cd_ph:2.306245
$meas,msRange:77.052961,x:-23851788.194167,y:7967380.446323,z:8668232.216557,vx:701.743347,vy:-890.873047,vz:2834.156982
$pseudo_cd_ph,prn:28,pseudo_cd_ph:9.604805
$meas,msRange:71.220725,x:-2146832.907798,y:16551835.857693,z:21291123.168548,vx:-2353.760254,vy:999.024658,vz:-1034.980225
$pseudo_cd_ph,prn:30,pseudo_cd_ph:9.177199
$meas,msRange:70.780125,x:-507105.238406,y:26421319.014115,z:1266227.035103,vx:-367.358337,vy:140.119568,vz:-3138.874756
Refix G01: 2, 201021.929783, 1039
Refix G03: 2, 201021.923313, -3090
Refix G07: 2, 201021.924025, 2343
Refix G08: 2, 201021.916157, 1150
Refix G11: 2, 201021.927075, 1448
Refix G17: 2, 201021.926345, -2348
Refix G18: 2, 201021.923815, 2109
Refix G22: 2, 201021.922296, -1722
Refix G28: 2, 201021.929599, -2736
Refix G30: 2, 201021.929188, 985
$GNGGA,075004.000,2940.2398,N,10639.3978,E,1,13,3.2,23037.1,M,,,,0000*17
$GNRMC,075004.000,A,2940.2398,N,10639.3978,E,83.50,141.57,070519,,*2E
$GPGSA,A,3,01,03,07,11,,,,,,,,,8.7,3.2,8.1*30
$BDGSA,A,3,01,02,03,04,05,07,08,10,13,,,,8.7,3.2,8.1*29
$GLGSA,A,3,,,,,,,,,,,,,8.7,3.2,8.1*29
$GPGSV,3,1,10,01,44,041,45,03,30,105,40,07,18,176,43,11,31,045,43*72
$GPGSV,3,2,10,17,45,301,44,18,17,041,40,22,27,080,41,28,66,354,43*75
$GPGSV,3,3,10,30,43,205,45,08,03,073,00*75
$BDGSV,3,1,12,01,40,125,42,02,47,219,40,03,55,171,43,04,23,109,40*69
$BDGSV,3,2,12,05,27,245,35,07,62,128,43,08,83,323,43,10,87,014,43*6A
$BDGSV,3,3,12,13,61,231,43,26,51,292,20,12,24,262,00,19,14,126,00*69
$B3CN0,0,0,0,0,0,0,0,0,0,0,0,0,0,0*4C
---00000007--- Acq_st=7 0  2019-5-7 7:50:4 
[00]  00(G01)  f 44  7  0   1044.9  2045998.6  0.0  2 0 3353 4095 1313
[01]  02(G03)  f 39  7  0  -3083.7  2046003.9  0.0  2 0  682 1659  919
[02]  06(G07)  f 43  7  0   2348.6  2045996.9  0.1  2 0 2139 2742 1545
[03]  10(G11)  f 42  8  0   1457.9  2045998.0  0.0  2 0 1586 2850 1269
[04]  16(G17)  7 44  8  0  -2072.5  2046002.6 -0.0  2 0 2697 3939 1730
[05]  17(G18)  7 41  7  0   2180.7  2045997.1  0.1  2 0  989 1807  659
[06]  21(G22)  7 41  7  0  -1674.7  2046002.1 -0.1  2 0  862 1571  825
[08]  27(G28)  7 43  7  0  -2668.7  2046003.4  0.1  2 0 1999 3148 1330
[09]  29(G30)  7 44  7  0    958.1  2045998.7  0.0  2 0 2416 3962 1347
[16]  37(B01) 1f 41 23  0  -1107.2  4092002.8  0.4  2 0  901 1365  532
[17]  38(B02) 1f 40 22  0  -1158.0  4092002.8  0.2  2 0  872  922  166
[18]  39(B03) 1f 42 29  0  -1128.8  4092002.8 -0.4  2 0 1760 1766  462
[19]  40(B04) 1f 41 24  0  -1133.0  4092002.9 -0.4  2 0  805 1110  730
[20]  41(B05) 1f 36 14  0  -1154.3  4092003.0 -0.2  2 0 1034  898  462
[21]  43(B07) 1f 43 11  0   -954.6  4092002.4 -0.0  2 0 1622 2260 1321
[22]  44(B08) 1f 43 12  0  -1080.5  4092002.7  0.0  2 0 1538 1827  578
[24]  46(B10) 1f 43 12  0  -1390.0  4092003.5 -0.0  2 0 1793 2325  984
[25]  49(B13) 1f 43  7  0  -1602.3  4092004.1 -0.0  2 0 1771 2817 1069
[26]  55(B19)  1  7  7  0  -2432.9  4092008.4  0.1  1 0  326  273  292
[27]  62(B26)  7 45  8  0  -2533.7  4092006.5  0.1  2 0 2488 2747  835
[28]  65(B29)  7 35 12  0    751.1  4091997.9  0.0  2 0 1729 2171  963
[32]  77(N-4)  1 23 18  0   1276.7  1021998.8  1.0  1 0  2116 2586 1269
[33]  78(N-3)  1 24 15  0  -4211.5  1022002.9  0.9  1 0   429  691  735
[34]  81(N00)  1 51 12  0   -884.9  1022000.8  1.0  1 0  2084 3969 1933
[35]  82(N01)  1 29 17  0  -4085.3  1022003.2  1.0  1 0  1564 2727 1136
[36]  84(N03)  1 23 15  0  -1947.6  1022001.6  0.0  1 0  2784 3832 1490
[48]  37(B01)  1 10 22  0  -1090.6 20460019.2 -0.2  1 0   27  698  415
[49]  38(B02)  1 20 16  1   -977.7 20460018.2 -0.1  1 0  357  374  475
[50]  39(B03)  1 22 10  1   -780.7 20460024.9  0.1  1 0  459  428   34
[51]  40(B04)  1 25 18  0   -727.7 20460023.9  0.0  1 0  234  293  673
[53]  43(B07)  1  7  7  0   -685.0 20460011.2 -0.1  1 0  476  341  484
[54]  44(B08)  1  7  7  0   -976.3 20460013.9 -0.1  1 0  427  364  416
[56]  46(B10)  1  7  7  0  -1416.4 20460020.6 -0.2  1 0  477   80  232
[57]  49(B13)  1  7  7  0  -1490.1 20460024.5 -0.1  1 0  201  720  724
t2:7191.585903,t1:7191.585903
$ini_pos,lastpos_good = 1,ini_pos.x:-1579274.000000,ini_pos.y:5312628.000000,ini_pos.z:3146103.000000
$rtc_local_time,localRTC.weeks:2052,localRTC.seconds:201022.191583,localGtime.weeks:2052,localGtime.seconds:201023.000000
$pseudo_cd_ph,prn:1,pseudo_cd_ph:201022929.782224
$meas,msRange:70.264880,x:-13292753.430449,y:11978416.039982,z:19335340.596930,vx:-89.319214,vy:-2502.722656,vz:1506.785278
$pseudo_cd_ph,prn:3,pseudo_cd_ph:201022923.314429
$meas,msRange:76.930102,x:-23411954.598566,y:12407691.601630,z:932452.642202,vx:-31.965565,vy:-308.417145,vz:3181.558350
$pseudo_cd_ph,prn:7,pseudo_cd_ph:201022924.023800
$meas,msRange:76.014124,x:-7419401.743412,y:23231598.310102,z:-9664728.186162,vx:-276.191284,vy:-1287.541992,vz:-2856.132568
$pseudo_cd_ph,prn:11,pseudo_cd_ph:201022927.073817
$meas,msRange:72.372045,x:-14260238.584291,y:7396857.345823,z:20627291.752384,vx:-1160.032471,vy:-2508.451660,vz:70.507660
$pseudo_cd_ph,prn:17,pseudo_cd_ph:6.397125
$meas,msRange:73.712569,x:10023355.905560,y:19271927.139106,z:15750012.029063,vx:-1667.134644,vy:-957.224243,vz:2283.194336
$pseudo_cd_ph,prn:18,pseudo_cd_ph:3.828652
$meas,msRange:76.279870,x:-15046314.784724,y:1911199.042286,z:21312591.596695,vx:-130.912354,vy:-2822.675293,vz:170.412170
$pseudo_cd_ph,prn:22,pseudo_cd_ph:2.307271
$meas,msRange:77.052623,x:-23851086.326599,y:7966489.458912,z:8671066.281663,vx:701.991821,vy:-891.101807,vz:2833.973389
$pseudo_cd_ph,prn:28,pseudo_cd_ph:9.606457
$meas,msRange:71.219754,x:-2149186.579318,y:16552834.931358,z:21290087.974088,vx:-2353.582764,vy:999.122742,vz:-1035.408813
$pseudo_cd_ph,prn:30,pseudo_cd_ph:9.176560
$meas,msRange:70.781456,x:-507472.582409,y:26421458.946329,z:1263088.146808,vx:-367.329712,vy:139.744873,vz:-3138.902100
Refix G01: 2, 201022.929782, 1009
Refix G03: 2, 201022.923314, -3178
Refix G07: 2, 201022.924024, 2329
Refix G08: 2, 201022.916156, 1226
Refix G11: 2, 201022.927074, 1465
Refix G17: 2, 201022.926347, -2174
Refix G18: 2, 201022.923813, 2188
Refix G22: 2, 201022.922297, -1780
Refix G28: 2, 201022.929601, -2688
Refix G30: 2, 201022.929187, 975
$GNGGA,075005.000,2940.2306,N,10639.4062,E,1,04,3.2,23114.7,M,,,,0000*14
$GNRMC,075005.000,A,2940.2306,N,10639.4062,E,8.40,104.90,070519,,*15
$GPGSA,A,3,01,03,07,11,,,,,,,,,8.7,3.2,8.1*30
$BDGSA,A,3,,,,,,,,,,,,,8.7,3.2,8.1*24
$GLGSA,A,3,,,,,,,,,,,,,8.7,3.2,8.1*29
$GPGSV,3,1,10,01,44,041,44,03,30,105,39,07,18,176,43,11,31,045,42*7C
$GPGSV,3,2,10,17,45,301,44,18,17,041,41,22,27,080,41,28,66,354,43*74
$GPGSV,3,3,10,30,43,205,44,08,03,073,00*74
$BDGSV,3,1,12,01,40,125,41,02,47,219,40,03,55,171,42,04,23,109,41*6A
$BDGSV,3,2,12,05,27,245,36,07,62,128,43,08,83,323,43,10,87,014,43*69
$BDGSV,3,3,12,13,61,231,43,26,51,292,45,29,36,042,35,12,24,262,00*6C
$B3CN0,0,0,0,0,0,0,0,0,0,0,0,0,0,0*4C
---00000008--- Acq_st=3 0  2019-5-7 7:50:5 
[00]  00(G01)  f 44  8  0   1049.8  2045998.6  0.0  2 0 2701 4290 2000
[01]  02(G03)  f 39  7  0  -3078.2  2046003.9 -0.0  2 0  807 1496  554
[02]  06(G07)  f 43  7  0   2354.6  2045996.9  0.0  2 0 1706 3283 1653
[03]  10(G11)  f 43  7  0   1458.9  2045998.0  0.0  2 0 1399 2613 1333
[04]  16(G17)  7 44  7  0  -2066.5  2046002.6 -0.0  2 0 2560 3728 2070
[05]  17(G18)  7 40  7  0   2186.5  2045997.1 -0.0  2 0  816 1877 1300
[06]  21(G22)  7 41  7  0  -1667.0  2046002.1  0.1  2 0  578 1262  487
[08]  27(G28)  7 44  7  0  -2665.7  2046003.4 -0.0  2 0 2031 2736 1020
[09]  29(G30)  7 45  9  0    965.7  2045998.7  0.1  2 0 2958 4153 1516
[16]  37(B01) 1f 41 10  0  -1105.2  4092002.8 -0.8  2 0 1252 1503  801
[17]  38(B02) 1f 40 24  0  -1160.8  4092003.1  0.6  2 0  889 1058  714
[18]  39(B03) 1f 43 30  0  -1120.2  4092002.9 -0.2  2 0 1407 2208 1301
[19]  40(B04) 1f 41 25  0  -1120.3  4092002.9 -0.7  2 0  996 1275  404
[20]  41(B05) 1f 36 20  0  -1144.5  4092002.8 -0.8  2 0  779  791  450
[21]  43(B07) 1f 43  7  0   -953.2  4092002.4  0.0  2 0 1683 2279 1226
[22]  44(B08) 1f 43  7  0  -1075.3  4092002.7  0.0  2 0 2499 2934 1115
[24]  46(B10) 1f 42 12  0  -1383.0  4092003.5 -0.0  2 0 1745 2659  884
[25]  49(B13) 1f 43  7  0  -1599.3  4092004.1 -0.0  2 0 1669 2207 1215
[27]  62(B26)  7 44  8  0  -2530.0  4092006.5 -0.0  2 0 2692 3232 1673
[28]  65(B29)  7 44 14  0    760.1  4091997.9  0.0  2 0 2276 2848 1343
[32]  77(N-4)  1 27 19  0   1282.2  1021999.0  1.0  1 0  1739 2928 1478
[33]  78(N-3)  1 24 18  0  -4207.2  1022002.5  0.9  1 0   521 1143  600
[34]  81(N00)  1 51  8  0   -878.6  1022000.5  1.0  1 0  2372 3784 1981
[35]  82(N01)  1 30 18  0  -4079.2  1022002.3  1.0  1 0  2026 2699 1162
[36]  84(N03)  1 27 14  0  -1942.0  1022001.0  0.4  1 0  2122 3613 1685
[48]  37(B01)  1 14 10  0  -1013.0 20460020.1  0.1  1 0  251  502  159
[49]  38(B02)  1 16 10  0  -1230.3 20460027.1 -0.0  1 0  155  196  317
[50]  39(B03)  1 10 18  0   -749.3 20460018.9 -0.0  1 0  760  505  240
[51]  40(B04)  1 20 19  1   -603.9 20460019.0 -0.1  1 0  477  286  608
[52]  41(B05)  1 22 21  1  -1129.6 20460018.3 -0.1  1 0  326  629  436
[53]  43(B07)  1  7 10  0   -529.2 20460010.0  0.2  1 0  926  554  212
[54]  44(B08)  1  7  8  0   -488.4 20460014.1  0.1  1 0  272  304  696
[56]  46(B10)  1  7  7  0  -1432.6 20460022.2 -0.1  1 0 1016 1067  765
[57]  49(B13)  1  7  7  0  -1483.9 20460024.1 -0.0  1 0  344  328  401
t2:8191.585871,t1:8191.585871
$ini_pos,lastpos_good = 1,ini_pos.x:-1579274.000000,ini_pos.y:5312628.000000,ini_pos.z:3146103.000000
$rtc_local_time,localRTC.weeks:2052,localRTC.seconds:201023.191583,localGtime.weeks:2052,localGtime.seconds:201024.000000
$pseudo_cd_ph,prn:1,pseudo_cd_ph:201023929.781528
$meas,msRange:70.266267,x:-13292842.822632,y:11975913.225347,z:19336847.171407,vx:-89.465164,vy:-2502.906982,vz:1506.363770
$pseudo_cd_ph,prn:3,pseudo_cd_ph:201023923.316353
$meas,msRange:76.928868,x:-23411986.398485,y:12407383.087116,z:935634.190477,vx:-31.634277,vy:-308.611908,vz:3181.538330
$pseudo_cd_ph,prn:7,pseudo_cd_ph:201023924.022277
$meas,msRange:76.016339,x:-7419677.966387,y:23230310.593638,z:-9667584.211814,vx:-276.254700,vy:-1287.891113,vz:-2855.918945
$pseudo_cd_ph,prn:11,pseudo_cd_ph:201023927.072865
$meas,msRange:72.373692,x:-14261398.678498,y:7394348.916123,z:20627362.030011,vx:-1160.156128,vy:-2508.407959,vz:70.047600
$pseudo_cd_ph,prn:17,pseudo_cd_ph:6.398404
$meas,msRange:73.711976,x:10021688.624374,y:19270969.888876,z:15752295.060893,vx:-1667.427734,vy:-957.276245,vz:2282.869385
$pseudo_cd_ph,prn:18,pseudo_cd_ph:3.827241
$meas,msRange:76.281979,x:-15046445.775413,y:1908376.360380,z:21312761.771566,vx:-131.069031,vy:-2822.688721,vz:169.937576
$pseudo_cd_ph,prn:22,pseudo_cd_ph:2.308294
$meas,msRange:77.052285,x:-23850384.210631,y:7965598.242747,z:8673900.163075,vx:702.240173,vy:-891.330566,vz:2833.789551
$pseudo_cd_ph,prn:28,pseudo_cd_ph:9.608110
$meas,msRange:71.218783,x:-2151540.073292,y:16553834.103131,z:21289052.351032,vx:-2353.405273,vy:999.220825,vz:-1035.837402
$pseudo_cd_ph,prn:30,pseudo_cd_ph:9.175921
$meas,msRange:70.782787,x:-507839.897805,y:26421598.503846,z:1259949.231321,vx:-367.301117,vy:139.370163,vz:-3138.929199
Refix G01: 2, 201023.929782, 1021
Refix G03: 2, 201023.923316, -3155
Refix G07: 2, 201023.924022, 2346
Refix G08: 2, 201023.916155, 1261
Refix G11: 2, 201023.927073, 1483
Refix G17: 2, 201023.926348, -2167
Refix G18: 2, 201023.923812, 2213
Refix G22: 2, 201023.922298, -1756
Refix G28: 2, 201023.929603, -2683
Refix G30: 2, 201023.929187, 980
$GNGGA,075006.000,2940.2340,N,10639.4033,E,1,04,3.2,23107.1,M,,,,0000*15
$GNRMC,075006.000,A,2940.2340,N,10639.4033,E,8.46,121.77,070519,,*18
$GPGSA,A,3,01,03,07,11,,,,,,,,,8.7,3.2,8.1*30
$BDGSA,A,3,,,,,,,,,,,,,8.7,3.2,8.1*24
$GLGSA,A,3,,,,,,,,,,,,,8.7,3.2,8.1*29
$GPGSV,3,1,10,01,44,041,44,03,30,105,39,07,18,176,43,11,31,045,43*7D
$GPGSV,3,2,10,17,45,301,44,18,17,041,40,22,27,080,41,28,66,354,44*72
$GPGSV,3,3,10,30,43,205,45,08,03,073,00*75
$BDGSV,3,1,12,01,40,125,41,02,47,219,40,03,55,171,43,04,23,109,41*6B
$BDGSV,3,2,12,05,27,245,36,07,62,128,43,08,83,323,43,10,87,014,42*68
$BDGSV,3,3,12,13,61,231,43,26,51,292,44,29,36,042,44,12,24,262,00*6B
$B3CN0,0,0,0,0,0,0,0,0,0,0,0,0,0,0*4C
---00000009--- Acq_st=3 0  2019-5-7 7:50:6 
[00]  00(G01)  f 44  7  0   1043.3  2045998.6 -0.0  2 0 2345 4099 1974
[01]  02(G03)  f 40  7  0  -3087.4  2046003.9  0.0  2 0  915 1203  486
[02]  06(G07)  f 43  7  0   2348.6  2045996.9  0.0  2 0 1338 2665 1878
[03]  10(G11)  f 42  7  0   1453.4  2045998.1 -0.0  2 0 1861 2737  953
[04]  16(G17)  7 44  7  0  -2072.8  2046002.6 -0.0  2 0 2377 3618 2052
[05]  17(G18)  7 40  7  0   2181.4  2045997.1  0.1  2 0 1042 1575  801
[06]  21(G22)  7 41  7  0  -1675.3  2046002.1 -0.0  2 0  644 1880 1233
[08]  27(G28)  7 43  7  0  -2671.0  2046003.4 -0.1  2 0 1521 3065 1780
[09]  29(G30)  7 44  7  0    957.1  2045998.7 -0.0  2 0 2538 3244 1537
[16]  37(B01) 1f 41 19  0  -1111.2  4092002.9  0.5  2 0 1506 2241  815
[17]  38(B02) 1f 39 14  0  -1161.1  4092003.0  0.4  2 0  961 1381  817
[18]  39(B03) 1f 43 31  0  -1130.2  4092002.9 -0.0  2 0 1999 2109  968
[19]  40(B04) 1f 40 19  0  -1129.1  4092003.0 -0.6  2 0 1259 1015  251
[20]  41(B05) 1f 36 22  0  -1149.5  4092002.9  0.5  2 0 1116 1471  784
[21]  43(B07) 1f 42 10  0   -958.1  4092002.4  0.0  2 0 1868 2396  932
[22]  44(B08) 1f 43  7  0  -1086.6  4092002.7  0.0  2 0 1707 2137  832
[24]  46(B10) 1f 42  7  0  -1390.0  4092003.5 -0.0  2 0 1894 2366 1120
[25]  49(B13) 1f 43  7  0  -1604.9  4092004.1 -0.0  2 0 2052 2871  853
[27]  62(B26)  7 44 12  0  -2533.8  4092006.5  0.0  2 0 2664 3006  881
[28]  65(B29)  7 43 12  0    751.1  4091997.9  0.0  2 0 2054 2536 1353
[32]  77(N-4)  7 48 16  0   1278.0  1021999.2  0.1  2 0  1688 2844 1531
[33]  78(N-3)  7 42 16  0  -4212.2  1022002.6 -0.1  2 0   783  834  395
[34]  81(N00)  f 31  7  0   -883.7  1022000.5  0.3  5 0  1902 3877 1961
[35]  82(N01)  7 48 16  0  -4082.6  1022002.6  0.1  2 0  1766 3309 1536
[36]  84(N03)  7 34 15  0  -1946.0  1022001.2  0.0  5 0  2576 3935 1772
[48]  37(B01)  1 36 10  0   -267.5 20460020.2  0.0  1 0  396  146  322
[49]  38(B02)  1 10 10  0   -527.3 20460027.0 -0.0  1 0  173  183  386
[50]  39(B03)  1 36 21  0   -842.1 20460023.5  0.1  1 0  718  580  762
[51]  40(B04)  1 20 10  1   -693.3 20460014.6 -0.0  1 0  235  587  607
[52]  41(B05)  1 18 25  0  -1072.7 20460020.3  0.0  1 0  693  644  547
[53]  43(B07)  1  7  7  0  -1560.2 20460011.2  0.0  1 0  256  358  634
[54]  44(B08)  1  7  7  0   -643.2 20460015.1 -0.2  1 0  319  368  693
[56]  46(B10)  1  7  7  0  -2062.8 20460021.2 -0.1  1 0  767  591  499
[57]  49(B13)  1  7  7  0  -1662.1 20460024.2 -0.0  1 0  204  405  395
t2:9191.585839,t1:9191.585839
$ini_pos,lastpos_good = 1,ini_pos.x:-1579274.000000,ini_pos.y:5312628.000000,ini_pos.z:3146103.000000
$rtc_local_time,localRTC.weeks:2052,localRTC.seconds:201024.191582,localGtime.weeks:2052,localGtime.seconds:201025.000000
$pseudo_cd_ph,prn:1,pseudo_cd_ph:201024929.780832
$meas,msRange:70.267654,x:-13292932.360785,y:11973410.226407,z:19338353.324319,vx:-89.611145,vy:-2503.091064,vz:1505.942139
$pseudo_cd_ph,prn:3,pseudo_cd_ph:201024923.318277
$meas,msRange:76.927634,x:-23412017.867129,y:12407074.377805,z:938815.718737,vx:-31.303017,vy:-308.806732,vz:3181.518311
$pseudo_cd_ph,prn:7,pseudo_cd_ph:201024924.020755
$meas,msRange:76.018554,x:-7419954.252811,y:23229022.528047,z:-9670440.023952,vx:-276.318176,vy:-1288.240234,vz:-2855.705566
$pseudo_cd_ph,prn:11,pseudo_cd_ph:201024927.071911
$meas,msRange:72.375340,x:-14262558.896350,y:7391840.530057,z:20627431.847571,vx:-1160.279663,vy:-2508.364258,vz:69.587532
$pseudo_cd_ph,prn:17,pseudo_cd_ph:6.399684
$meas,msRange:73.711383,x:10020021.050089,y:19270012.586686,z:15754577.767647,vx:-1667.720825,vy:-957.328186,vz:2282.544189
$pseudo_cd_ph,prn:18,pseudo_cd_ph:3.825824
$meas,msRange:76.284089,x:-15046576.922786,y:1905553.665252,z:21312931.471841,vx:-131.225723,vy:-2822.701904,vz:169.462982
$pseudo_cd_ph,prn:22,pseudo_cd_ph:2.309317
$meas,msRange:77.051947,x:-23849681.846308,y:7964706.797807,z:8676733.860732,vx:702.488525,vy:-891.559387,vz:2833.605957
$pseudo_cd_ph,prn:28,pseudo_cd_ph:9.609765
$meas,msRange:71.217812,x:-2153893.389673,y:16554833.372971,z:21288016.299401,vx:-2353.227539,vy:999.318909,vz:-1036.265991
$pseudo_cd_ph,prn:30,pseudo_cd_ph:9.175281
$meas,msRange:70.784119,x:-508207.184643,y:26421737.686658,z:1256810.288710,vx:-367.272583,vy:138.995468,vz:-3138.956299
Refix G01: 2, 201024.929781, 1019
Refix G03: 2, 201024.923318, -3154
Refix G07: 2, 201024.924021, 2347
Refix G08: 2, 201024.916154, 1271
Refix G11: 2, 201024.927072, 1484
Refix G17: 2, 201024.926349, -2165
Refix G18: 2, 201024.923810, 2219
Refix G22: 2, 201024.922299, -1753
Refix G28: 2, 201024.929604, -2686
Refix G30: 2, 201024.929186, 976
$GNGGA,075007.000,2940.2381,N,10639.3974,E,1,04,3.2,23093.2,M,,,,0000*1B
$GNRMC,075007.000,A,2940.2381,N,10639.3974,E,7.08,123.37,070519,,*1A
$GPGSA,A,3,01,03,07,11,,,,,,,,,8.7,3.2,8.1*30
$BDGSA,A,3,,,,,,,,,,,,,8.7,3.2,8.1*24
$GLGSA,A,3,,,,,,,,,,,,,8.7,3.2,8.1*29
$GPGSV,3,1,10,01,44,041,44,03,30,105,40,07,18,176,43,11,31,045,42*72
$GPGSV,3,2,10,17,45,301,44,18,17,041,40,22,27,080,41,28,66,354,43*75
$GPGSV,3,3,10,30,43,205,44,08,03,073,00*74
$BDGSV,3,1,12,01,40,125,41,02,47,219,39,03,55,171,43,04,23,109,40*64
$BDGSV,3,2,12,05,27,245,36,07,62,128,42,08,83,323,43,10,87,014,42*69
$BDGSV,3,3,12,13,61,231,43,26,51,292,44,29,36,042,43,12,24,262,00*6C
$B3CN0,0,0,0,0,0,0,0,0,0,0,0,0,0,0*4C
---00000010--- Acq_st=3 0  2019-5-7 7:50:7 
[00]  00(G01)  f 45  9  0   1040.6  2045998.6  0.0  2 0 2886 4480 1923
[01]  02(G03)  f 39  7  0  -3091.1  2046004.0 -0.1  2 0  578 1321  787
[02]  06(G07)  f 43  9  0   2347.7  2045996.9  0.0  2 0 2019 3095 1262
[03]  10(G11)  f 42  7  0   1449.8  2045998.1 -0.0  2 0 1678 2869 2084
[04]  16(G17)  f 44  8  0  -2080.7  2046002.6  0.0  2 0 2441 3847 1431
[05]  17(G18)  f 40  7  0   2178.5  2045997.1  0.1  2 0 1607 2720 1413
[06]  21(G22)  f 41  7  0  -1674.6  2046002.1 -0.1  2 0 1337 2122  435
[08]  27(G28)  f 43  8  0  -2671.6  2046003.4  0.0  2 0 2209 3421 1346
[09]  29(G30)  f 44  7  0    953.4  2045998.7  0.0  2 0 2383 3659 1629
[16]  37(B01) 1f 40 10  0  -1116.3  4092002.9  0.3  2 0 1108 1438  645
[17]  38(B02) 1f 40 21  0  -1164.9  4092002.9  0.6  2 0 1595 1608  484
[18]  39(B03) 1f 41 31  0  -1134.1  4092002.9 -0.2  2 0 1650 2207  878
[19]  40(B04) 1f 40 22  0  -1135.0  4092002.8 -0.1  2 0 1312 1618  680
[20]  41(B05) 1f 34 22  0  -1150.5  4092002.9 -0.0  2 0  739 1031  937
[21]  43(B07) 1f 43  8  0   -961.1  4092002.4 -0.1  2 0 2033 2758 1009
[22]  44(B08) 1f 43  7  0  -1086.5  4092002.7  0.0  2 0 1529 1928  657
[24]  46(B10) 1f 42  7  0  -1390.5  4092003.5 -0.0  2 0 2078 2815 1156
[25]  49(B13) 1f 42 10  0  -1610.0  4092004.1  0.0  2 0 1747 2181  637
[27]  62(B26)  7 44  7  0  -2539.1  4092006.5 -0.0  2 0 2583 3177 1202
[28]  65(B29)  7 43 15  0    748.4  4091997.9  0.1  2 0 1248 2044  774
[32]  77(N-4)  7 48 17  0   1274.8  1021999.2  0.0  2 0  1612 2853 1351
[33]  78(N-3)  7 42 16  0  -4216.3  1022002.7 -0.1  2 0   874 1545  392
[34]  81(N00)  f 41  7  0   -884.8  1022000.5  0.1  2 0  1912 3587 1754
[35]  82(N01)  7 47 16  0  -4085.9  1022002.6  0.1  2 0  1621 3087 1352
[36]  84(N03)  7 48 17  0  -1948.7  1022001.2 -0.0  2 0  2152 3869 1473
[52]  41(B05)  1 23 24  1   -851.4 20460020.2 -0.0  1 0  114  551  825
[53]  43(B07)  1  7  7  0  -1546.3 20460011.2 -0.1  1 0  374  734  668
[54]  44(B08)  1  7  9  0   -994.2 20460016.0 -0.1  1 0  216  404  631
[56]  46(B10)  1  7  7  0  -1444.9 20460023.6 -0.1  1 0  322  464   63
[57]  49(B13)  1  8  7  0  -1494.3 20460022.9 -0.1  1 0  287  138  232
t2:10191.585806,t1:10191.585806
$ini_pos,lastpos_good = 1,ini_pos.x:-1579274.000000,ini_pos.y:5312628.000000,ini_pos.z:3146103.000000
$rtc_local_time,localRTC.weeks:2052,localRTC.seconds:201025.191582,localGtime.weeks:2052,localGtime.seconds:201026.000000
$pseudo_cd_ph,prn:1,pseudo_cd_ph:201025929.780140
$meas,msRange:70.269042,x:-13293022.044932,y:11970907.043227,z:19339859.055634,vx:-89.757156,vy:-2503.275391,vz:1505.520508
$pseudo_cd_ph,prn:3,pseudo_cd_ph:201025923.320202
$meas,msRange:76.926401,x:-23412049.004526,y:12406765.473654,z:941997.226913,vx:-30.971785,vy:-309.001587,vz:3181.498291
$pseudo_cd_ph,prn:7,pseudo_cd_ph:201025924.019236
$meas,msRange:76.020769,x:-7420230.602732,y:23227734.113361,z:-9673295.622515,vx:-276.381683,vy:-1288.589233,vz:-2855.491943
$pseudo_cd_ph,prn:11,pseudo_cd_ph:201025927.070958
$meas,msRange:72.376987,x:-14263719.237821,y:7389332.187684,z:20627501.205063,vx:-1160.403320,vy:-2508.320557,vz:69.127457
$pseudo_cd_ph,prn:17,pseudo_cd_ph:201025926.400969
$meas,msRange:73.710791,x:10018353.182723,y:19269055.232596,z:15756860.149277,vx:-1668.013916,vy:-957.380066,vz:2282.219238
$pseudo_cd_ph,prn:18,pseudo_cd_ph:201025923.824409
$meas,msRange:76.286198,x:-15046708.226845,y:1902730.956973,z:21313100.697517,vx:-131.382401,vy:-2822.714844,vz:168.988388
$pseudo_cd_ph,prn:22,pseudo_cd_ph:201025922.310349
$meas,msRange:77.051610,x:-23848979.233676,y:7963815.124070,z:8679567.374575,vx:702.736816,vy:-891.788147,vz:2833.422119
$pseudo_cd_ph,prn:28,pseudo_cd_ph:201025929.611426
$meas,msRange:71.216842,x:-2156246.528411,y:16555832.740835,z:21286979.819214,vx:-2353.050049,vy:999.416870,vz:-1036.694458
$pseudo_cd_ph,prn:30,pseudo_cd_ph:201025929.174645
$meas,msRange:70.785450,x:-508574.442973,y:26421876.494759,z:1253671.319041,vx:-367.244110,vy:138.620743,vz:-3138.983154
Refix G01: 2, 201025.929780, 1022
Refix G03: 2, 201025.923320, -3174
Refix G07: 2, 201025.924019, 2337
Refix G08: 2, 201025.916153, 1276
Refix G11: 2, 201025.927071, 1493
Refix G17: 2, 201025.926351, -2128
Refix G18: 2, 201025.923809, 2234
Refix G22: 2, 201025.922300, -1766
Refix G28: 2, 201025.929606, -2666
Refix G30: 2, 201025.929185, 978
$GNGGA,075008.000,2940.2399,N,10639.3950,E,1,04,3.2,23082.1,M,,,,0000*18
$GNRMC,075008.000,A,2940.2399,N,10639.3950,E,9.05,20598.75,,,*13
$GPGSA,A,3,01,03,07,11,,,,,,,,,8.7,3.2,8.1*30
$BDGSA,A,3,,,,,,,,,,,,,8.7,3.2,8.1*24
$GLGSA,A,3,,,,,,,,,,,,,8.7,3.2,8.1*29
$GPGSV,3,1,10,01,44,041,45,03,30,105,39,07,18,176,43,11,31,045,42*7D
$GPGSV,3,2,10,17,45,301,44,18,17,041,40,22,27,080,41,28,66,354,43*75
$GPGSV,3,3,10,30,43,205,44,08,03,073,00*74
$BDGSV,3,1,12,01,40,125,40,02,47,219,40,03,55,171,41,04,23,109,40*69
$BDGSV,3,2,12,05,27,245,34,07,62,128,43,08,83,323,43,10,87,014,42*6A
$BDGSV,3,3,12,13,61,231,42,26,51,292,44,29,36,042,43,12,24,262,00*6D
$B3CN0,0,0,0,0,0,0,0,0,0,0,0,0,0,0*4C
---00000011--- Acq_st=3 0  2019-5-7 7:50:8 
[00]  00(G01)  f 45  7  0   1046.1  2045998.6 -0.0  2 0 2384 4016 1986
[01]  02(G03)  f 39  7  0  -3088.8  2046004.0  0.0  2 0 1891 1775  312
[02]  06(G07)  f 43  7  0   2345.1  2045996.9  0.0  2 0 2420 3590 1849
[03]  10(G11)  f 42  8  0   1453.8  2045998.0  0.0  2 0 1489 2345  953
[04]  16(G17)  f 45 11  0  -2079.0  2046002.6 -0.0  2 0 2748 4176 1807
[05]  17(G18)  f 40  7  0   2175.7  2045997.1 -0.1  2 0  977 1440  538
[06]  21(G22)  f 41  7  0  -1671.3  2046002.1  0.0  2 0  551 2002 1220
[08]  27(G28)  f 44  7  0  -2673.2  2046003.4  0.0  2 0 2252 2603 1089
[09]  29(G30)  f 44  7  0    956.5  2045998.7 -0.0  2 0 3026 4820 2685
[16]  37(B01) 1f 41 10  0  -1109.9  4092002.6 -0.3  2 0  967 1682  782
[17]  38(B02) 1f 40 21  0  -1164.5  4092003.0 -0.0  2 0  485 1031  752
[18]  39(B03) 1f 43 30  0  -1132.3  4092002.8 -0.3  2 0 1467 2030  731
[19]  40(B04) 1f 39 23  0  -1130.3  4092002.8  0.7  2 0 1459 1696  643
[20]  41(B05) 1f 36 18  0  -1143.5  4092002.9  0.6  2 0  869 1125  485
[21]  43(B07) 1f 42  9  0   -960.3  4092002.4 -0.0  2 0 1998 2878 1320
[22]  44(B08) 1f 43  7  0  -1086.0  4092002.7 -0.0  2 0 1804 2467 1290
[24]  46(B10) 1f 42  7  0  -1391.6  4092003.6  0.0  2 0 1882 2671 1101
[25]  49(B13) 1f 43  7  0  -1607.4  4092004.1 -0.0  2 0 2123 2840 1079
[27]  62(B26)  7 44  7  0  -2536.1  4092006.5 -0.0  2 0 2583 2909 1248
[28]  65(B29)  7 43 16  0    751.7  4091997.9  0.0  2 0 2443 3243 1594
[32]  77(N-4)  7 48 14  0   1276.5  1021999.1  0.0  2 0  1723 3146 1566
[33]  78(N-3)  7 42 17  0  -4214.9  1022002.7 -0.0  2 0   766 1320  870
[34]  81(N00)  f 36  7  0   -882.5  1022000.5  0.0  2 0  2186 3976 1724
[35]  82(N01)  7 47 14  0  -4084.0  1022002.6  0.0  2 0  1905 3278 1703
[36]  84(N03)  7 49 13  0  -1946.6  1022001.2  0.0  2 0  1935 3629 1642
[48]  37(B01)  1 10 19  1  -1041.2 20460019.3 -0.1  1 0  224  248  198
[49]  38(B02)  1 10 10  1   -694.2 20460022.5  0.1  1 0  538  645  383
[50]  39(B03)  1 25 21  1  -1181.0 20460024.3 -0.2  1 0  794  739  747
[51]  40(B04)  1 23 21  1   -443.2 20460014.6 -0.1  1 0  364  274  173
[52]  41(B05)  1 22 24  1  -1529.7 20460022.0 -0.0  1 0  633  775  479
t2:11191.585774,t1:11191.585774
$ini_pos,lastpos_good = 1,ini_pos.x:-1579274.000000,ini_pos.y:5312628.000000,ini_pos.z:3146103.000000
$rtc_local_time,localRTC.weeks:2052,localRTC.seconds:201026.191582,localGtime.weeks:2052,localGtime.seconds:201027.000000
$pseudo_cd_ph,prn:1,pseudo_cd_ph:201026929.779448
$meas,msRange:70.270429,x:-13293111.875101,y:11968403.675869,z:19341364.365321,vx:-89.903191,vy:-2503.459473,vz:1505.098877
$pseudo_cd_ph,prn:3,pseudo_cd_ph:201026923.322131
$meas,msRange:76.925167,x:-23412079.810705,y:12406456.374620,z:945178.714938,vx:-30.640579,vy:-309.196503,vz:3181.478027
$pseudo_cd_ph,prn:7,pseudo_cd_ph:201026924.017717
$meas,msRange:76.022984,x:-7420507.016194,y:23226445.349609,z:-9676151.007437,vx:-276.445251,vy:-1288.938354,vz:-2855.278076
$pseudo_cd_ph,prn:11,pseudo_cd_ph:201026927.070003
$meas,msRange:72.378635,x:-14264879.702884,y:7386823.889066,z:20627570.102483,vx:-1160.526855,vy:-2508.276855,vz:68.667389
$pseudo_cd_ph,prn:17,pseudo_cd_ph:201026926.402255
$meas,msRange:73.710198,x:10016685.022294,y:19268097.826665,z:15759142.205739,vx:-1668.307007,vy:-957.431885,vz:2281.894043
$pseudo_cd_ph,prn:18,pseudo_cd_ph:201026923.822997
$meas,msRange:76.288308,x:-15046839.687588,y:1899908.235614,z:21313269.448592,vx:-131.539093,vy:-2822.728027,vz:168.513779
$pseudo_cd_ph,prn:22,pseudo_cd_ph:201026922.311384
$meas,msRange:77.051273,x:-23848276.372780,y:7962923.221515,z:8682400.704544,vx:702.985046,vy:-892.017029,vz:2833.238037
$pseudo_cd_ph,prn:28,pseudo_cd_ph:201026929.613088
$meas,msRange:71.215871,x:-2158599.489456,y:16556832.206684,z:21285942.910492,vx:-2352.872314,vy:999.514832,vz:-1037.123047
$pseudo_cd_ph,prn:30,pseudo_cd_ph:201026929.174008
$meas,msRange:70.786782,x:-508941.672843,y:26422014.928144,z:1250532.322383,vx:-367.215668,vy:138.246033,vz:-3139.010254
Refix G01: 2, 201026.929780, 1025
Refix G03: 2, 201026.923322, -3173
Refix G07: 2, 201026.924018, 2340
Refix G08: 2, 201026.916153, 1284
Refix G11: 2, 201026.927070, 1497
Refix G17: 2, 201026.926352, -2117
Refix G18: 2, 201026.923807, 2242
Refix G22: 2, 201026.922301, -1763
Refix G28: 2, 201026.929608, -2661
Refix G30: 2, 201026.929185, 981
$GNGGA,075009.000,2940.2419,N,10639.3925,E,1,04,3.2,23069.4,M,,,,0000*14
$GNRMC,075009.000,A,2940.2419,N,10639.3925,E,11.89,20596.20,,,*2C
$GPGSA,A,3,01,03,07,11,,,,,,,,,8.7,3.2,8.1*30
$BDGSA,A,3,,,,,,,,,,,,,8.7,3.2,8.1*24
$GLGSA,A,3,,,,,,,,,,,,,8.7,3.2,8.1*29
$GPGSV,3,1,10,01,44,041,45,03,30,105,39,07,18,176,43,11,31,045,42*7D
$GPGSV,3,2,10,17,45,301,45,18,17,041,40,22,27,080,41,28,66,354,44*73
$GPGSV,3,3,10,30,43,205,44,08,03,073,00*74
$BDGSV,3,1,12,01,40,125,41,02,47,219,40,03,55,171,43,04,23,109,39*64
$BDGSV,3,2,12,05,27,245,36,07,62,128,42,08,83,323,43,10,87,014,42*69
$BDGSV,3,3,12,13,61,231,43,26,51,292,44,29,36,042,43,12,24,262,00*6C
$B3CN0,0,0,0,0,0,0,0,0,0,0,0,0,0,0*4C
---00000012--- Acq_st=3 0  2019-5-7 7:50:9 
[00]  00(G01)  f 45  7  0   1052.3  2045998.6  0.0  2 0 2293 3777 2402
[01]  02(G03)  f 40  7  0  -3080.7  2046003.9 -0.1  2 0  462  948  300
[02]  06(G07)  f 44  7  0   2357.1  2045996.9 -0.1  2 0 1689 2831 1547
[03]  10(G11)  f 43  7  0   1463.1  2045998.0  0.0  2 0 1141 2762 1763
[04]  16(G17)  f 45  7  0  -2066.1  2046002.6  0.0  2 0 2385 4174 2300
[05]  17(G18)  f 39  7  0   2187.7  2045997.1  0.0  2 0 1635 1696  288
[06]  21(G22)  f 41  8  0  -1666.9  2046002.1  0.0  2 0 1817 1949  795
[08]  27(G28)  f 43  7  0  -2661.1  2046003.4 -0.0  2 0 1248 2342  864
[09]  29(G30)  f 45  7  0    965.1  2045998.7  0.0  2 0 2506 3674 1150
[16]  37(B01) 1f 41 17  0  -1105.5  4092002.8  0.2  2 0 1434 1824  810
[17]  38(B02) 1f 39 25  0  -1160.2  4092002.9  0.6  2 0  760  825  346
[18]  39(B03) 1f 42 29  0  -1122.7  4092002.8 -0.0  2 0 1223 1796  843
[19]  40(B04) 1f 39 23  0  -1125.2  4092002.7  0.5  2 0 1859 1362  426
[20]  41(B05) 1f 35 23  0  -1145.3  4092003.0  0.8  2 0  573 1005  877
[21]  43(B07) 1f 42  7  0   -949.9  4092002.3  0.0  2 0 2088 2452 1105
[22]  44(B08) 1f 43  7  0  -1075.0  4092002.7  0.1  2 0 2285 2957 1736
[24]  46(B10) 1f 43  7  0  -1383.9  4092003.5 -0.0  2 0 1776 2414  790
[25]  49(B13) 1f 43  7  0  -1600.5  4092004.1  0.1  2 0 1397 2483 1091
[27]  62(B26) 1f 44  7  0  -2525.8  4092006.5  0.0  2 0 2475 3332 1530
[28]  65(B29) 1f 43 14  0    758.6  4091997.9 -0.0  2 0 1482 1916  698
[32]  77(N-4)  7 48 15  0   1286.0  1021999.1  0.1  2 0  1695 3098 1617
[33]  78(N-3)  7 42 16  0  -4204.5  1022002.7  0.1  2 0   888 1265  625
[34]  81(N00)  f 41  7  0   -872.0  1022000.5  0.0  2 0  2117 3795 1879
[35]  82(N01)  7 48 16  0  -4073.6  1022002.6 -0.1  2 0  1623 3100 1314
[36]  84(N03)  7 49 14  0  -1936.7  1022001.2 -0.1  2 0  2497 4422 2198
[48]  37(B01)  1 10 13  1  -1441.6 20460020.9  0.1  1 0  243  307  690
[49]  38(B02)  1 10 22  0   -585.1 20460018.2 -0.1  1 0  443  405   66
[50]  39(B03)  1 24 20  1   -844.0 20460019.8  0.0  1 0  431  145  400
[51]  40(B04)  1 22 21  0   -373.2 20460023.2  0.1  1 0  695  547  297
[53]  43(B07)  1  7  7  0   -809.8 20460011.9  0.1  1 0  483  309  207
[54]  44(B08)  1 23  7  0   -858.8 20460015.7  0.2  1 0  600  335  478
[56]  46(B10)  1  7  7  0   -931.0 20460022.3  0.1  1 0  421  201  446
[57]  49(B13)  1  7  7  0  -1082.4 20460024.5  0.0  1 0  283  325  420
t2:12191.585742,t1:12191.585742
$ini_pos,lastpos_good = 1,ini_pos.x:-1579274.000000,ini_pos.y:5312628.000000,ini_pos.z:3146103.000000
$rtc_local_time,localRTC.weeks:2052,localRTC.seconds:201027.191582,localGtime.weeks:2052,localGtime.seconds:201028.000000
$pseudo_cd_ph,prn:1,pseudo_cd_ph:201027929.778751
$meas,msRange:70.271818,x:-13293201.851315,y:11965900.124395,z:19342869.253348,vx:-90.049248,vy:-2503.643555,vz:1504.677246
$pseudo_cd_ph,prn:3,pseudo_cd_ph:201027923.324054
$meas,msRange:76.923934,x:-23412110.285693,y:12406147.080657,z:948360.182743,vx:-30.309402,vy:-309.391449,vz:3181.457764
$pseudo_cd_ph,prn:7,pseudo_cd_ph:201027924.016195
$meas,msRange:76.025199,x:-7420783.493245,y:23225156.236823,z:-9679006.178656,vx:-276.508881,vy:-1289.287354,vz:-2855.064453
$pseudo_cd_ph,prn:11,pseudo_cd_ph:201027927.069045
$meas,msRange:72.380283,x:-14266040.291511,y:7384315.634263,z:20627638.539829,vx:-1160.650391,vy:-2508.232910,vz:68.207314
$pseudo_cd_ph,prn:17,pseudo_cd_ph:201027926.403537
$meas,msRange:73.709606,x:10015016.568822,y:19267140.368950,z:15761423.936986,vx:-1668.600098,vy:-957.483643,vz:2281.568604
$pseudo_cd_ph,prn:18,pseudo_cd_ph:201027923.821578
$meas,msRange:76.290418,x:-15046971.305016,y:1897085.501245,z:21313437.725061,vx:-131.695770,vy:-2822.740967,vz:168.039169
$pseudo_cd_ph,prn:22,pseudo_cd_ph:201027922.312412
$meas,msRange:77.050936,x:-23847573.263668,y:7962031.090121,z:8685233.850581,vx:703.233215,vy:-892.245850,vz:2833.054199
$pseudo_cd_ph,prn:28,pseudo_cd_ph:201027929.614747
$meas,msRange:71.214901,x:-2160952.272759,y:16557831.770476,z:21284905.573254,vx:-2352.694580,vy:999.612793,vz:-1037.551514
$pseudo_cd_ph,prn:30,pseudo_cd_ph:201027929.173367
$meas,msRange:70.788115,x:-509308.874301,y:26422152.986804,z:1247393.298803,vx:-367.187286,vy:137.871307,vz:-3139.037109
Refix G01: 2, 201027.929779, 1027
Refix G03: 2, 201027.923324, -3149
Refix G07: 2, 201027.924016, 2361
Refix G08: 2, 201027.916152, 1299
Refix G11: 2, 201027.927069, 1499
Refix G17: 2, 201027.926354, -2130
Refix G18: 2, 201027.923806, 2245
Refix G22: 2, 201027.922302, -1745
Refix G28: 2, 201027.929609, -2670
Refix G30: 2, 201027.929184, 987
$GNGGA,075010.000,2940.2472,N,10639.3857,E,1,04,3.2,23051.0,M,,,,0000*1A
$GNRMC,075010.000,A,2940.2472,N,10639.3857,E,4.43,4.71,070519,,*1D
$GPGSA,A,3,01,03,07,11,,,,,,,,,8.7,3.2,8.1*30
$BDGSA,A,3,,,,,,,,,,,,,8.7,3.2,8.1*24
$GLGSA,A,3,,,,,,,,,,,,,8.7,3.2,8.1*29
$GPGSV,3,1,10,01,44,041,45,03,30,105,40,07,18,176,44,11,31,045,43*75
$GPGSV,3,2,10,17,45,301,45,18,17,041,39,22,27,080,41,28,66,354,43*7A
$GPGSV,3,3,10,30,43,205,45,08,03,073,00*75
$BDGSV,3,1,12,01,40,125,41,02,47,219,39,03,55,171,42,04,23,109,39*6B
$BDGSV,3,2,12,05,27,245,36,07,62,128,42,08,83,323,43,10,87,014,43*68
$BDGSV,3,3,12,13,61,231,43,26,51,292,44,29,36,042,43,12,24,262,00*6C
$B3CN0,0,0,0,0,0,0,0,0,0,0,0,0,0,0*4C
---00000013--- Acq_st=3 0  2019-5-7 7:50:10 
[00]  00(G01)  f 44  7  0   1044.3  2045998.6 -0.0  2 0 1919 3463 1829
[01]  02(G03)  f 40  7  0  -3091.7  2046003.9 -0.1  2 0  717 1314  282
[02]  06(G07)  f 44  7  0   2348.1  2045996.9  0.1  2 0 2116 3235 1625
[03]  10(G11)  f 43  7  0   1455.9  2045998.1 -0.0  2 0 1230 2191 1286
[04]  16(G17)  f 44  7  0  -2077.7  2046002.6  0.0  2 0 1985 3143 1306
[05]  17(G18)  f 40  7  0   2181.6  2045997.1  0.0  2 0 1177 1918  814
[06]  21(G22)  f 41  7  0  -1672.7  2046002.1 -0.0  2 0 1599 2172  596
[08]  27(G28)  f 44  7  0  -2670.1  2046003.4  0.0  2 0 1787 3175 1603
[09]  29(G30)  f 45  7  0    954.9  2045998.7 -0.0  2 0 1764 3454 1346
[16]  37(B01) 1f 41 16  0  -1115.3  4092002.7 -0.1  2 0 1898 1776  492
[17]  38(B02) 1f 40 19  0  -1168.0  4092002.9 -0.3  2 0 1023 1142  574
[18]  39(B03) 1f 43 29  0  -1132.4  4092002.9  0.5  2 0 1786 2540 1302
[19]  40(B04) 1f 40 10  0  -1126.6  4092002.8 -0.5  2 0 1232 1638  670
[20]  41(B05) 1f 36 23  0  -1148.9  4092002.8 -0.6  2 0  674  890  709
[21]  43(B07) 1f 43  7  0   -962.9  4092002.4 -0.0  2 0 1948 2342  977
[22]  44(B08) 1f 43  7  0  -1089.2  4092002.7 -0.1  2 0 1933 2638 1394
[24]  46(B10) 1f 43  7  0  -1394.2  4092003.5 -0.0  2 0 1676 2363  652
[25]  49(B13) 1f 43  7  0  -1610.1  4092004.1  0.0  2 0 1135 1951  609
[27]  62(B26) 1f 44  7  0  -2535.4  4092006.5 -0.0  2 0 2089 2963 1607
[28]  65(B29) 1f 43 11  0    747.8  4091997.9 -0.0  2 0 1495 2199  797
[32]  77(N-4)  f 37  7  0   1275.2  1021999.2  0.0  2 0  1826 3268 1584
[33]  78(N-3)  f 36  7  0  -4213.5  1022002.6 -0.0  2 0   623 1173  681
[34]  81(N00)  f 36  7  0   -881.1  1022000.5 -0.0  2 0  2187 3918 1971
[35]  82(N01)  f 37  7  0  -4084.2  1022002.6  0.1  2 0  1815 3047 1388
[36]  84(N03)  f 37  7  0  -1945.8  1022001.2  0.0  2 0  1702 3714 1544
[48]  37(B01)  f 20 19  0  -1773.2 20460030.9 -0.3  2 0  180  341  209
[49]  38(B02)  1 13 10  1   -668.3 20460021.8 -0.1  1 0  718  591  395
[50]  39(B03)  1 23 22  1  -1249.2 20460020.3 -0.1  1 0  592  261  634
[51]  40(B04)  1 19 23  0   -476.4 20460020.6  0.0  1 0  450  532  256
[53]  43(B07)  1  7  7  0  -1313.1 20460011.1  0.0  1 0  225  320  529
[54]  44(B08)  1  7  7  0   -632.0 20460015.8  0.0  1 0  342  495  825
[56]  46(B10)  1  7  7  0   -845.7 20460022.5 -0.1  1 0  297  252  193
[57]  49(B13)  1 11  7  0   -632.3 20460024.3  0.1  1 0  186  419  355
[59]  62(B26)  1  7  7  0  -2461.4 20460042.3 -0.1  1 0   54  245  557
[60]  65(B29)  1  7  7  0    845.0 20459987.9 -0.1  1 0  441  155  176
t2:13191.585710,t1:13191.585710
$ini_pos,lastpos_good = 1,ini_pos.x:-1579274.000000,ini_pos.y:5312628.000000,ini_pos.z:3146103.000000
$rtc_local_time,localRTC.weeks:2052,localRTC.seconds:201028.191582,localGtime.weeks:2052,localGtime.seconds:201029.000000
$pseudo_cd_ph,prn:1,pseudo_cd_ph:201028929.778053
$meas,msRange:70.273206,x:-13293291.973603,y:11963396.388870,z:19344373.719681,vx:-90.195335,vy:-2503.827637,vz:1504.255493
$pseudo_cd_ph,prn:3,pseudo_cd_ph:201028923.325979
$meas,msRange:76.922701,x:-23412140.429518,y:12405837.591724,z:951541.630261,vx:-29.978252,vy:-309.586456,vz:3181.437500
$pseudo_cd_ph,prn:7,pseudo_cd_ph:201028924.014672
$meas,msRange:76.027415,x:-7421060.033931,y:23223866.775033,z:-9681861.136108,vx:-276.572540,vy:-1289.636353,vz:-2854.850586
$pseudo_cd_ph,prn:11,pseudo_cd_ph:201028927.068090
$meas,msRange:72.381931,x:-14267201.003677,y:7381807.423334,z:20627706.517098,vx:-1160.773926,vy:-2508.188965,vz:67.747231
$pseudo_cd_ph,prn:17,pseudo_cd_ph:201028926.404819
$meas,msRange:73.709013,x:10013347.822326,y:19266182.859511,z:15763705.342973,vx:-1668.893066,vy:-957.535339,vz:2281.243408
$pseudo_cd_ph,prn:18,pseudo_cd_ph:201028923.820162
$meas,msRange:76.292528,x:-15047103.079129,y:1894262.753937,z:21313605.526922,vx:-131.852463,vy:-2822.753906,vz:167.564560
$pseudo_cd_ph,prn:22,pseudo_cd_ph:201028922.313446
$meas,msRange:77.050600,x:-23846869.906386,y:7961138.729866,z:8688066.812625,vx:703.481384,vy:-892.474731,vz:2832.870117
$pseudo_cd_ph,prn:28,pseudo_cd_ph:201028929.616410
$meas,msRange:71.213930,x:-2163304.878272,y:16558831.432168,z:21283867.807521,vx:-2352.516602,vy:999.710632,vz:-1037.979980
$pseudo_cd_ph,prn:30,pseudo_cd_ph:201028929.172727
$meas,msRange:70.789447,x:-509676.047397,y:26422290.670734,z:1244254.248369,vx:-367.158936,vy:137.496567,vz:-3139.063965
Refix G01: 2, 201028.929778, 1019
Refix G03: 2, 201028.923326, -3153
Refix G07: 2, 201028.924015, 2359
Refix G08: 2, 201028.916151, 1294
Refix G11: 2, 201028.927068, 1492
Refix G17: 2, 201028.926355, -2135
Refix G18: 2, 201028.923805, 2238
Refix G22: 2, 201028.922303, -1750
Refix G28: 2, 201028.929611, -2678
Refix G30: 2, 201028.929183, 983
$GNGGA,075011.000,2940.2538,N,10639.3774,E,1,04,3.2,23034.6,M,,,,0000*1F
$GNRMC,075011.000,A,2940.2538,N,10639.3774,E,5.09,15.09,070519,,*2D
$GPGSA,A,3,01,03,07,11,,,,,,,,,8.7,3.2,8.1*30
$BDGSA,A,3,,,,,,,,,,,,,8.7,3.2,8.1*24
$GLGSA,A,3,,,,,,,,,,,,,8.7,3.2,8.1*29
$GPGSV,3,1,10,01,44,041,44,03,30,105,40,07,18,176,44,11,31,045,43*74
$GPGSV,3,2,10,17,45,301,44,18,17,041,40,22,27,080,41,28,66,354,44*72
$GPGSV,3,3,10,30,43,205,45,08,03,073,00*75
$BDGSV,3,1,12,01,40,125,41,02,47,219,40,03,55,171,43,04,23,109,40*6A
$BDGSV,3,2,12,05,27,245,36,07,62,128,43,08,83,323,43,10,87,014,43*69
$BDGSV,3,3,12,13,61,231,43,26,51,292,44,29,36,042,43,12,24,262,00*6C
$B3CN0,19,0,0,0,0,0,0,0,0,0,0,0,0,0*74
---00000014--- Acq_st=7 0  2019-5-7 7:50:11 
[00]  00(G01)  f 44  7  0   1046.0  2045998.6  0.0  2 0 2568 4218 1927
[01]  02(G03)  f 39  7  0  -3081.6  2046004.0 -0.1  2 0 1211 1687 1129
[02]  06(G07)  f 44  7  0   2349.3  2045996.9  0.0  2 0 2191 2844 1235
[03]  10(G11)  f 43  7  0   1456.2  2045998.0  0.0  2 0 1798 2428 1408
[04]  16(G17)  f 45  7  0  -2073.1  2046002.6  0.0  2 0 2298 3383 1630
[05]  17(G18)  f 40  7  0   2180.2  2045997.1  0.0  2 0 1151 1137  237
[06]  21(G22)  f 41  7  0  -1674.6  2046002.1 -0.1  2 0 1364 2006  674
[08]  27(G28)  f 44  7  0  -2668.0  2046003.4  0.0  2 0 1603 3286 2116
[09]  29(G30)  f 45  7  0    960.3  2045998.7 -0.0  2 0 2069 3731 1701
[16]  37(B01) 1f 41 10  0  -1109.3  4092002.7  0.4  2 0 1559 1460  670
[17]  38(B02) 1f 40 22  0  -1164.5  4092002.9 -0.7  2 0  966 1507  705
[18]  39(B03) 1f 43 31  0  -1127.2  4092002.8 -0.5  2 0 2231 2068  329
[19]  40(B04) 1f 40 22  0  -1129.7  4092002.8 -0.4  2 0  862 1057  479
[20]  41(B05) 1f 35 25  0  -1151.0  4092003.0 -0.5  2 0  730 1024  434
[21]  43(B07) 1f 43 11  0   -959.6  4092002.4  0.1  2 0 1978 2380 1064
[22]  44(B08) 1f 43  9  0  -1081.2  4092002.7 -0.0  2 0 2410 2873 1132
[24]  46(B10) 1f 43 12  0  -1387.8  4092003.5  0.0  2 0 2356 2889 1442
[25]  49(B13) 1f 43  7  0  -1606.8  4092004.1 -0.0  2 0 1430 1828  774
[27]  62(B26) 1f 44  7  0  -2532.1  4092006.5 -0.0  2 0 2055 2903 1398
[28]  65(B29) 1f 43 14  0    753.1  4091997.9  0.1  2 0 1481 2169  801
[32]  77(N-4)  f 46  7  0   1279.9  1021999.2 -0.0  2 0  2044 3396 1522
[33]  78(N-3)  f 42  7  0  -4210.9  1022002.6  0.2  2 0   766 1238  563
[34]  81(N00)  f 41  7  0   -877.1  1022000.5  0.0  2 0  2191 3810 1543
[35]  82(N01)  f 45  7  0  -4079.8  1022002.6 -0.1  2 0  1478 2849 1460
[36]  84(N03)  f 46  7  0  -1942.2  1022001.2  0.0  2 0  2102 3752 1753
[48]  37(B01)  f 19 17  0  -1752.4 20460027.0 -0.1  2 0  320  524  321
[49]  38(B02)  1 22 17  1  -1120.6 20460023.6  0.1  1 0  468   99  555
[50]  39(B03)  1 20 36  1  -1622.0 20460024.5 -0.1  1 0  476  632  316
[51]  40(B04)  1 23 20  1   -343.8 20460020.6 -0.0  1 0  383   69   40
[52]  41(B05)  1 27 20  0  -1076.6 20460019.3  0.0  1 0  117  554  446
[53]  43(B07)  1  7  7  0   -724.4 20460011.5  0.0  1 0  113  771  654
[54]  44(B08)  1  7  7  0   -381.7 20460017.6 -0.2  1 0  478  652  367
[56]  46(B10)  1  7  7  0   -573.6 20460024.7 -0.1  1 0  387  353  531
[57]  49(B13)  1  7  7  0    -73.6 20460022.4  0.0  1 0  305  263  309
[59]  62(B26)  1  7  7  0  -2936.4 20460038.9 -0.1  1 0  500  297  421
[60]  65(B29)  1  7  7  0    200.0 20459987.8 -0.0  1 0  124  427  466
t2:14191.585677,t1:14191.585677
$ini_pos,lastpos_good = 1,ini_pos.x:-1579274.000000,ini_pos.y:5312628.000000,ini_pos.z:3146103.000000
$rtc_local_time,localRTC.weeks:2052,localRTC.seconds:201029.191582,localGtime.weeks:2052,localGtime.seconds:201030.000000
$pseudo_cd_ph,prn:1,pseudo_cd_ph:201029929.777357
$meas,msRange:70.274595,x:-13293382.241988,y:11960892.469355,z:19345877.764289,vx:-90.341446,vy:-2504.011475,vz:1503.833740
$pseudo_cd_ph,prn:3,pseudo_cd_ph:201029923.327905
$meas,msRange:76.921468,x:-23412170.242207,y:12405527.907777,z:954723.057423,vx:-29.647131,vy:-309.781494,vz:3181.416992
$pseudo_cd_ph,prn:7,pseudo_cd_ph:201029924.013150
$meas,msRange:76.029630,x:-7421336.638297,y:23222576.964268,z:-9684715.879731,vx:-276.636230,vy:-1289.985229,vz:-2854.636719
$pseudo_cd_ph,prn:11,pseudo_cd_ph:201029927.067136
$meas,msRange:72.383580,x:-14268361.839353,y:7379299.256339,z:20627774.034288,vx:-1160.897461,vy:-2508.145020,vz:67.287155
$pseudo_cd_ph,prn:17,pseudo_cd_ph:201029926.406104
$meas,msRange:73.708421,x:10011678.782823,y:19265225.298407,z:15765986.423652,vx:-1669.186035,vy:-957.586975,vz:2280.917969
$pseudo_cd_ph,prn:18,pseudo_cd_ph:201029923.818746
$meas,msRange:76.294638,x:-15047235.009927,y:1891439.993761,z:21313772.854170,vx:-132.009140,vy:-2822.766602,vz:167.089951
$pseudo_cd_ph,prn:22,pseudo_cd_ph:201029922.314479
