SD initialized success
Create debug.log Failed! 3
bbram_blkflag = 1
rtcflag = 128
BBRAM Block OK: 01 EPHflag: 0805093a 00349aff, rtc 80
GPS 0 Init Dop: 10000,80
GPS 1 Init Dop: 10000,80
GPS 2 Init Dop: 10000,80
GPS 3 Init Dop: 10000,80
GPS 4 Init Dop: 10000,80
GPS 5 Init Dop: 10000,80
GPS 6 Init Dop: 10000,80
GPS 7 Init Dop: 10000,80
GPS 8 Init Dop: 10000,80
GPS 9 Init Dop: 10000,80
GPS10 Init Dop: 10000,80
GPS11 Init Dop: 10000,80
GPS12 Init Dop: 10000,80
GPS13 Init Dop: 10000,80
GPS14 Init Dop: 10000,80
GPS15 Init Dop: 10000,80
GPS16 Init Dop: 10000,80
GPS17 Init Dop: 10000,80
GPS18 Init Dop: 10000,80
GPS19 Init Dop: 10000,80
GPS20 Init Dop: 10000,80
GPS21 Init Dop: 10000,80
GPS22 Init Dop: 10000,80
GPS23 Init Dop: 10000,80
GPS24 Init Dop: 10000,80
GPS25 Init Dop: 10000,80
GPS26 Init Dop: 10000,80
GPS27 Init Dop: 10000,80
GPS28 Init Dop: 10000,80
GPS29 Init Dop: 10000,80
GPS30 Init Dop: 10000,80
GPS31 Init Dop: 10000,80
BDS 0 Init Dop: 10000,80
BDS 1 Init Dop: 10000,80
BDS 2 Init Dop: 10000,80
BDS 3 Init Dop: 10000,80
BDS 4 Init Dop: 10000,80
BDS 5 Init Dop: 10000,80
BDS 6 Init Dop: 10000,80
BDS 7 Init Dop: 10000,80
BDS 8 Init Dop: 10000,80
BDS 9 Init Dop: 10000,80
BDS10 Init Dop: 10000,80
BDS11 Init Dop: 10000,80
BDS12 Init Dop: 10000,80
BDS13 Init Dop: 10000,80
BDS14 Init Dop: 10000,80
BDS15 Init Dop: 10000,80
BDS16 Init Dop: 10000,80
BDS17 Init Dop: 10000,80
BDS18 Init Dop: 10000,80
BDS19 Init Dop: 10000,80
BDS20 Init Dop: 10000,80
BDS21 Init Dop: 10000,80
BDS22 Init Dop: 10000,80
BDS23 Init Dop: 10000,80
BDS24 Init Dop: 10000,80
BDS25 Init Dop: 10000,80
BDS26 Init Dop: 10000,80
BDS27 Init Dop: 10000,80
BDS28 Init Dop: 10000,80
BDS29 Init Dop: 10000,80
BDS30 Init Dop: 10000,80
BDS31 Init Dop: 10000,80
Good luck!
t1:1026.010194,t2:0.000000
dt:1026.010194
$ini_pos,lastpos_good = 0,ini_pos.x:-0.000000,ini_pos.y:2150498990544607202280210432.000000,ini_pos.z:-0.000000
$GNGGA,000000.000,,,,,0,00,,,M,,,,0000*2B
$GNRMC,000000.000,A,,,,,,,060180,,*29
$GPGSA,A,1,,,,,,,,,,,,,,,*1E
$BDGSA,A,1,,,,,,,,,,,,,,,*0F
$GLGSA,A,1,,,,,,,,,,,,,,,*02
$B3CN0,0,0,0,0,0,0,0,0,0,0,0,0,0,0*4C
---00000001--- Acq_st=3 0  2000-1-1 0:1:16 
[00]  01(G02)  1 28  7  0  -1749.9  2046003.7  0.2  1 0 1919 4119 2928
[01]  03(G04)  1 18  7  0  -2293.9  2046005.1  0.2  1 0  607 1252 1524
[02]  04(G05)  1 19  7  0  -3696.6  2046007.5  0.2  1 0  820 3027 3149
[03]  05(G06)  1 16  9  0   -101.6  2046002.7  0.1  1 0 1448 3335 2360
[04]  08(G09)  1  7  7  0  -1250.0  2046001.2 -0.0  1 0  356  467  594
[05]  11(G12)  1  7  7  0  -1750.0  2046004.7 -0.0  1 0  372  801 3225
t1:2026.010161,t2:0.000000
dt:2026.010161
$ini_pos,lastpos_good = 0,ini_pos.x:-0.000000,ini_pos.y:2150498990544607202280210432.000000,ini_pos.z:-0.000000
$GNGGA,000000.000,,,,,0,00,,,M,,,,0000*2B
$GNRMC,000000.000,A,,,,,,,060180,,*29
$GPGSA,A,1,,,,,,,,,,,,,,,*1E
$BDGSA,A,1,,,,,,,,,,,,,,,*0F
$GLGSA,A,1,,,,,,,,,,,,,,,*02
$B3CN0,0,0,0,0,0,0,0,0,0,0,0,0,0,0*4C
---00000002--- Acq_st=3 0  2000-1-1 0:1:17 
[00]  01(G02)  7 23  7  0  -1745.5  2046002.1  0.7 10 0 2943 2928 1271
[01]  03(G04)  7 18  7  0  -2290.3  2046002.8  0.8 10 0 1632 2192  808
[02]  04(G05)  7 14  7  0  -3692.4  2046004.6  1.0 10 0 2430 2809  729
[03]  05(G06)  7  7  7  0    -99.4  2046000.0  1.0 10 0 2348 3040 1109
[04]  08(G09)  1 12  7  0  -1833.1  2046001.6 -0.1  1 0  271  229  279
[05]  11(G12)  1 28  7  0  -1766.9  2046002.5  0.7  1 0 3299 3966 1762
[06]  16(G17)  1 25  7  0    795.9  2045999.0  0.3  1 0 2232 2454  646
[08]  18(G19)  1 21  7  0    319.8  2045999.4  0.2  1 0 1316 2865 1689
t1:3026.010129,t2:0.000000
dt:3026.010129
$ini_pos,lastpos_good = 0,ini_pos.x:-0.000000,ini_pos.y:2150498990544607202280210432.000000,ini_pos.z:-0.000000
$GNGGA,000000.000,,,,,0,00,,,M,,,,0000*2B
$GNRMC,000000.000,A,,,,,,,060180,,*29
$GPGSA,A,1,,,,,,,,,,,,,,,*1E
$BDGSA,A,1,,,,,,,,,,,,,,,*0F
$GLGSA,A,1,,,,,,,,,,,,,,,*02
$GPGSV,1,1,02,02,00,000,23,04,00,000,17*7A
$B3CN0,0,0,0,0,0,0,0,0,0,0,0,0,0,0*4C
---00000003--- Acq_st=3 0  2000-1-1 0:1:18 
[00]  01(G02)  7 43  7  0  -1747.4  2046002.1  0.0  2 0 2442 3411 1600
[01]  03(G04)  7 43  7  0  -2292.7  2046002.9  0.0  2 0 1376 1640  789
[02]  04(G05)  7 45  7  0  -3692.0  2046004.7 -0.0  2 0 2385 3454 1662
[03]  05(G06)  7 45  7  0   -100.5  2046000.0 -0.0  2 0 2652 3660 1694
[04]  08(G09)  1  7  7  0  -2203.9  2046001.3 -0.0  1 0  688  366  236
[05]  11(G12)  7 31  7  0  -1767.5  2046002.2  0.4  5 0 3313 4062 1634
[06]  16(G17)  7 24  7  0    794.7  2045998.9  0.7 10 0 2551 3096 1751
[08]  18(G19)  7 18  7  0    322.0  2045999.6  0.8 10 0 2115 3333 1831
[16]  37(B01)  1 39 10  0  -1142.4  4092004.6  0.3  1 0 1101 1871 1410
[17]  38(B02)  1 10 10  1  -1500.0  4092003.7  0.0  1 0  258  734 1175
[18]  39(B03)  1 34 10  0  -1250.0  4092006.1  0.0  1 0  156 1133 2439
[19]  40(B04)  1 34 20  0  -1250.0  4092005.1  0.0  1 0  385  663 1594
[20]  41(B05)  1  0  0  0  -1500.0  4092003.0  0.0  1 0  256  575  915
t1:4026.010097,t2:0.000000
dt:4026.010097
$ini_pos,lastpos_good = 0,ini_pos.x:-0.000000,ini_pos.y:2150498990544607202280210432.000000,ini_pos.z:-0.000000
$GNGGA,000000.000,,,,,0,00,,,M,,,,0000*2B
$GNRMC,000000.000,A,,,,,,,060180,,*29
$GPGSA,A,1,,,,,,,,,,,,,,,*1E
$BDGSA,A,1,,,,,,,,,,,,,,,*0F
$GLGSA,A,1,,,,,,,,,,,,,,,*02
$GPGSV,2,1,07,02,00,000,43,04,00,000,43,05,00,000,45,06,00,000,45*78
$GPGSV,2,2,07,12,00,000,31,17,00,000,24,19,00,000,18*4E
$B3CN0,0,0,0,0,0,0,0,0,0,0,0,0,0,0*4C
---00000004--- Acq_st=3 0  2000-1-1 0:1:19 
[00]  01(G02)  7 43  7  0  -1744.1  2046002.2 -0.0  2 0 2235 3226 1453
[01]  03(G04)  7 42  8  0  -2289.5  2046002.9  0.0  2 0 1216 1416  305
[02]  04(G05)  7 44  7  0  -3690.3  2046004.7 -0.0  2 0 2853 4085 1544
[03]  05(G06)  7 44  7  0    -97.9  2046000.0  0.1  2 0 2513 3434 1169
[04]  08(G09)  1  8 13  0  -2053.5  2046001.8  0.1  1 0  182  699  430
[05]  11(G12)  7 45  7  0  -1759.0  2046002.2 -0.0  2 0 3601 4513 2027
[06]  16(G17)  7 44  8  0    802.4  2045998.9  0.0  2 0 1922 2808 1087
[08]  18(G19)  7 44  7  0    328.2  2045999.5  0.0  2 0 1790 3229 1574
[16]  37(B01)  9 41 36  0  -1140.7  4092003.1  1.0  1 0 1114 1328  331
[17]  38(B02)  1 17 10  1  -1693.8  4092005.0  0.5  1 0  675  463  297
[18]  39(B03)  1 10 28  1  -1150.8  4092004.8  0.5  1 0 2163 1519  750
[19]  40(B04)  1 10 18  1  -1164.3  4092004.1  0.2  1 0 1285  736  511
[20]  41(B05)  1 10 10  0  -1674.2  4092002.9  0.0  1 0  436  675  331
[21]  42(B06)  1  7  7  0  -2805.6  4092008.0  0.1  1 0  700 1376 1042
[22]  44(B08)  1  7  7  0  -1707.1  4092003.7 -0.0  1 0  772 1458  736
[24]  46(B10)  1  7  7  0    500.0  4091999.5 -0.1  1 0  884 1541 1099
[25]  48(B12)  1  7  7  0  -1500.0  4092003.8  0.0  1 0 1195 2674 1767
t1:5026.010065,t2:0.000000
dt:5026.010065
$ini_pos,lastpos_good = 0,ini_pos.x:-0.000000,ini_pos.y:2150498990544607202280210432.000000,ini_pos.z:-0.000000
$GNGGA,000000.000,,,,,0,00,,,M,,,,0000*2B
$GNRMC,000000.000,A,,,,,,,060180,,*29
$GPGSA,A,1,,,,,,,,,,,,,,,*1E
$BDGSA,A,1,,,,,,,,,,,,,,,*0F
$GLGSA,A,1,,,,,,,,,,,,,,,*02
$GPGSV,2,1,07,02,00,000,43,04,00,000,42,05,00,000,44,06,00,000,44*79
$GPGSV,2,2,07,12,00,000,44,17,00,000,44,19,00,000,44*43
$B3CN0,0,0,0,0,0,0,0,0,0,0,0,0,0,0*4C
---00000005--- Acq_st=3 0  2000-1-1 0:1:20 
[00]  01(G02)  7 43  7  0  -1743.7  2046002.2  0.0  2 0 2606 3270 1081
[01]  03(G04)  7 42  7  0  -2286.6  2046002.9  0.0  2 0 1495 2262  616
[02]  04(G05)  7 44  7  0  -3690.0  2046004.7 -0.0  2 0 2185 2917 1133
[03]  05(G06)  7 44  7  0    -97.3  2046000.0 -0.1  2 0 2570 3684 1188
[04]  08(G09)  1 12  9  0  -1955.6  2046002.0 -0.0  1 0  620  958  919
[05]  11(G12)  7 45  7  0  -1761.9  2046002.2  0.0  2 0 2456 3869 1967
[06]  16(G17)  7 43  7  0    801.3  2045998.9 -0.0  2 0 1768 2603 1205
[08]  18(G19)  7 43  7  0    325.3  2045999.5 -0.0  2 0 1494 2586  974
[16]  37(B01)  f 41 10  0  -1136.1  4092002.9  0.3  2 0 1105 1666  623
[17]  38(B02)  1 10 19  1  -1841.2  4092005.4 -0.0  1 0  573  184   78
[18]  39(B03)  7 10 10  0  -1552.9  4092003.9  0.0  2 0 1490  233  410
[19]  40(B04)  7 33 18  0  -1157.6  4092002.7  0.2  2 0 1696  513  263
[20]  41(B05)  1 10 10  0  -1706.5  4092002.8 -0.1  1 0  462  618  401
[21]  42(B06)  7 23  7  0  -2804.9  4092007.3  0.2 10 0 1310 1733  852
[22]  44(B08)  1  7  7  0  -1704.2  4092002.7  0.7  1 0  613 1422 1095
[24]  46(B10)  1  7  7  0    512.1  4091998.3  0.2  1 0 1117 1090  363
[25]  48(B12)  1  7  7  0  -1306.6  4092003.4  0.1  1 0 1299 2522  972
[26]  49(B13)  1  7  7  0  -1722.2  4092003.8 -0.2  1 0  959 1463 1124
[27]  50(B14)  1  7  7  0  -4441.4  4092012.7  0.0  1 0  677 1290 1260
[28]  52(B16)  1  7  7  0  -3000.0  4092008.3  0.1  1 0  560 1556 1505
t1:6026.010032,t2:0.000000
dt:6026.010032
$ini_pos,lastpos_good = 0,ini_pos.x:-0.000000,ini_pos.y:2150498990544607202280210432.000000,ini_pos.z:-0.000000
$GNGGA,000000.000,,,,,0,00,,,M,,,,0000*2B
$GNRMC,000000.000,A,,,,,,,060180,,*29
$GPGSA,A,1,,,,,,,,,,,,,,,*1E
$BDGSA,A,1,,,,,,,,,,,,,,,*0F
$GLGSA,A,1,,,,,,,,,,,,,,,*02
$GPGSV,2,1,07,02,00,000,43,04,00,000,42,05,00,000,44,06,00,000,44*79
$GPGSV,2,2,07,12,00,000,45,17,00,000,43,19,00,000,43*42
$BDGSV,1,1,03,01,00,000,41,04,00,000,32,06,00,000,22*5C
$B3CN0,0,0,0,0,0,0,0,0,0,0,0,0,0,0*4C
---00000006--- Acq_st=3 0  2000-1-1 0:1:21 
[00]  01(G02)  7 43  7  0  -1740.1  2046002.2 -0.0  2 0 1774 3052 1248
[01]  03(G04)  7 42  7  0  -2284.2  2046002.9 -0.1  2 0 1358 1614  674
[02]  04(G05)  7 45  7  0  -3685.5  2046004.7  0.0  2 0 2295 3936 1807
[03]  05(G06)  7 45  7  0    -93.8  2046000.0  0.1  2 0 2351 3312 1296
[05]  11(G12)  7 45  8  0  -1756.3  2046002.2 -0.0  2 0 2835 3981 1815
[06]  16(G17)  7 43 10  0    804.0  2045998.9 -0.0  2 0 1991 2554  746
[08]  18(G19)  7 43 11  0    329.5  2045999.6 -0.0  2 0 1561 2954 1597
[16]  37(B01) 1f 40 18  0  -1135.5  4092002.8  0.2  2 0 1400 1549  774
[17]  38(B02)  1 10 10  0  -1797.7  4092003.5 -0.1  1 0  296  228  311
[18]  39(B03)  7 10 10  0  -1767.6  4092004.4 -0.0  2 0  227  407  560
[19]  40(B04)  f 34 23  0  -1152.4  4092002.8 -0.4  2 0 2023  892  349
[20]  41(B05)  1 10 10  1  -1665.7  4092004.1  0.1  1 0  593  585  427
[21]  42(B06)  7 41  7  0  -2800.4  4092007.2  0.1  2 0 1234 1817 1023
[22]  44(B08)  1  7  7  0  -1704.1  4092002.7  0.6  1 0  814 1776  695
[24]  46(B10)  7 31  7  0    515.4  4091998.5  0.0  5 0  996 1223  464
[25]  48(B12)  7 27  7  0  -1301.6  4092003.4  0.1 10 0 1926 3130 1413
[26]  49(B13)  1  7  7  0  -1715.9  4092002.9 -0.0  1 0 1278 1710  874
[27]  50(B14)  7 20  7  0  -4435.2  4092011.5 -0.1 10 0  836 1028  970
[28]  52(B16)  1  7  7  0  -2929.4  4092007.7  0.4  1 0 1730 1849  348
[29]  55(B19)  1  7  7  0   1884.1  4091994.7  0.1  1 0 1095  901  604
[30]  57(B21)  1  7  7  0  -2980.3  4092009.0  0.1  1 0 1893 3836 2305
[48]  37(B01)  1 10 10  1   -986.3 20460019.5 -0.1  1 0  449   87  575
t1:7026.010000,t2:0.000000
dt:7026.010000
$ini_pos,lastpos_good = 0,ini_pos.x:-0.000000,ini_pos.y:2150498990544607202280210432.000000,ini_pos.z:-0.000000
$GNGGA,000000.000,,,,,0,00,,,M,,,,0000*2B
$GNRMC,000000.000,A,,,,,,,060180,,*29
$GPGSA,A,1,,,,,,,,,,,,,,,*1E
$BDGSA,A,1,,,,,,,,,,,,,,,*0F
$GLGSA,A,1,,,,,,,,,,,,,,,*02
$GPGSV,2,1,07,02,00,000,43,04,00,000,42,05,00,000,45,06,00,000,45*79
$GPGSV,2,2,07,12,00,000,45,17,00,000,43,19,00,000,43*42
$BDGSV,2,1,06,01,00,000,40,04,00,000,34,06,00,000,41,10,00,000,31*6B
$BDGSV,2,2,06,12,00,000,27,14,00,000,20*6F
$B3CN0,0,0,0,0,0,0,0,0,0,0,0,0,0,0*4C
---00000007--- Acq_st=3 0  2000-1-1 0:1:22 
[00]  01(G02)  7 44  7  0  -1741.6  2046002.2 -0.1  2 0 1906 2911 1492
[01]  03(G04)  7 42  7  0  -2282.6  2046002.9 -0.1  2 0  999 1865 1265
[02]  04(G05)  7 44  7  0  -3683.9  2046004.7  0.0  2 0 2958 3356 1401
[03]  05(G06)  7 44  7  0    -90.7  2046000.0 -0.1  2 0 2319 3572 1493
[05]  11(G12)  7 44  7  0  -1754.4  2046002.2 -0.0  2 0 3081 4497 1982
[06]  16(G17)  7 43  7  0    806.0  2045998.9  0.0  2 0 2479 3469 1910
[08]  18(G19)  7 43  7  0    329.8  2045999.5  0.0  2 0 1747 2809 1778
[16]  37(B01) 1f 41 10  0  -1136.1  4092002.8 -0.2  2 0 1126 1233  715
[17]  38(B02)  1 20 28  1  -1143.1  4092006.0  0.2  1 0  462  154  274
[18]  39(B03)  7 10 10  0  -1613.6  4092004.3  0.0  2 0  472  232  474
[19]  40(B04)  f 36 23  0  -1158.8  4092002.7 -0.1  2 0 1384  801  220
[20]  41(B05)  1 10 10  1  -1542.3  4092003.4 -0.1  1 0  970  593  326
[21]  42(B06)  7 40  7  0  -2796.1  4092007.2  0.0  2 0 1065 1322  374
[22]  44(B08)  1  7  7  0  -1703.3  4092003.1  0.4  1 0 1298 1874  652
[24]  46(B10)  7 40  9  0    516.8  4091998.6  0.0  2 0  756 1794  993
[25]  48(B12)  7 44  7  0  -1299.3  4092003.4  0.1  2 0 1656 2357  774
[26]  49(B13)  1  7  7  0  -1718.4  4092002.8  0.0  1 0  939 2049  712
[27]  50(B14)  7 40  7  0  -4437.3  4092011.5  0.3  2 0  896 1117  443
[28]  52(B16)  7 35  7  0  -2925.7  4092007.6  0.1  2 0 1077 1652  830
[29]  55(B19)  7 26  7  0   1888.0  4091994.9  0.3 10 0  801 1042  461
[30]  57(B21)  7 17  7  0  -2977.2  4092007.7  0.5 10 0 2960 3703 1347
[48]  37(B01)  1 36 10  0  -1140.2 20460023.0  0.1  1 0  230  206  451
tow update,216692174.707735
t1:8026.009968,t2:8026.009968
dt:0.000000
$ini_pos,lastpos_good = 0,ini_pos.x:-0.000000,ini_pos.y:2150498990544607202280210432.000000,ini_pos.z:-0.000000
$GNGGA,121114.175,,,,,0,00,,,M,,,,0000*2E
$GNRMC,121114.175,A,,,,,,,080180,,*22
$GPGSA,A,1,,,,,,,,,,,,,,,*1E
$BDGSA,A,1,,,,,,,,,,,,,,,*0F
$GLGSA,A,1,,,,,,,,,,,,,,,*02
$GPGSV,2,1,07,02,00,000,44,04,00,000,42,05,00,000,44,06,00,000,44*7E
$GPGSV,2,2,07,12,00,000,44,17,00,000,43,19,00,000,43*43
$BDGSV,2,1,08,01,00,000,41,04,00,000,36,06,00,000,40,10,00,000,40*61
$BDGSV,2,2,08,12,00,000,44,14,00,000,40,16,00,000,34,19,00,000,25*6D
$B3CN0,0,0,0,0,0,0,0,0,0,0,0,0,0,0*4C
---00000008--- Acq_st=3 0  2000-1-1 0:1:23 
[00]  01(G02)  f 44  7  0  -1736.9  2046002.2 -0.0  2 0 1964 3558 1936
[01]  03(G04)  f 42  7  0  -2273.6  2046002.9  0.1  2 0 1756 2295  945
[02]  04(G05)  f 44  7  0  -3680.7  2046004.7  0.0  2 0 2910 4084 1657
[03]  05(G06)  f 45  7  0    -88.9  2046000.1 -0.0  2 0 2336 4149 1550
[05]  11(G12)  f 44  7  0  -1750.9  2046002.2 -0.0  2 0 3334 4997 2306
[06]  16(G17)  f 43  9  0    809.0  2045998.9  0.0  2 0 2035 2648 1506
[08]  18(G19)  f 43  7  0    334.8  2045999.5 -0.0  2 0 1673 3098 1704
[16]  37(B01) 1f 41 21  0  -1127.2  4092002.8 -0.1  2 0 1094 1578  832
[18]  39(B03)  7 10 10  0  -1700.4  4092004.2 -0.0  2 0  446  373  114
[19]  40(B04)  f 38 16  0  -1149.6  4092002.7 -0.8  2 0 1434 1166  433
[21]  42(B06)  7 40  7  0  -2799.2  4092007.2 -0.1  2 0 1400 1842  714
[24]  46(B10)  7 40  7  0    520.3  4091998.5  0.0  2 0  706 1085 1036
[25]  48(B12)  7 44  7  0  -1294.0  4092003.3 -0.0  2 0 1382 2775 1402
[26]  49(B13)  1  7  7  0  -1712.6  4092003.2 -0.0  1 0  762 1847 1215
[27]  50(B14)  7 39  7  0  -4438.2  4092011.5  0.1  2 0  744 1226  796
[28]  52(B16)  7 41  7  0  -2920.0  4092007.6  0.0  2 0  945 1476  537
[29]  55(B19)  7 38  8  0   1894.1  4091994.9  0.2  2 0  600 1133  897
[30]  57(B21)  7 46 11  0  -2972.2  4092007.7 -0.0  2 0 3148 3961 1857
[32]  75(N-6)  1 33 16  0    531.2  1022000.3  0.4  1 0  1390 1844  725
[33]  78(N-3)  1 31 19  0  -1500.0  1022001.7 -0.0  1 0  1116 2930 2394
[34]  79(N-2)  1  7  7  0  -3250.0  1022004.0 -0.0  1 0   623 1373 1146
[35]  80(N-1)  1  7 13  0  -3250.0  1022003.9 -0.0  1 0   907 1955 1633
[36]  81(N00)  1  7  7  0  -2500.0  1022002.6 -0.0  1 0   151  197  520
[48]  37(B01)  7 16 10  1  -1102.9 20460019.3  0.1  2 0  319  338  124
[51]  40(B04)  1 20 19  1   -637.2 20460023.0  0.0  1 0  384  318  534
t1:9026.009935,t2:9026.009935
dt:0.000000
$ini_pos,lastpos_good = 0,ini_pos.x:-0.000000,ini_pos.y:2150498990544607202280210432.000000,ini_pos.z:-0.000000
$GNGGA,121115.175,,,,,0,00,,,M,,,,0000*2F
$GNRMC,121115.175,A,,,,,,,080180,,*23
$GPGSA,A,1,,,,,,,,,,,,,,,*1E
$BDGSA,A,1,,,,,,,,,,,,,,,*0F
$GLGSA,A,1,,,,,,,,,,,,,,,*02
$GPGSV,2,1,07,02,00,000,44,04,00,000,42,05,00,000,44,06,00,000,45*7F
$GPGSV,2,2,07,12,00,000,44,17,00,000,43,19,00,000,43*43
$BDGSV,3,1,10,01,00,000,41,03,00,000,36,04,00,000,37,06,00,000,40*6B
$BDGSV,3,2,10,10,00,000,40,12,00,000,44,14,00,000,39,16,00,000,41*63
$BDGSV,3,3,10,19,00,000,38,21,00,000,46*6B
$B3CN0,22,0,0,0,0,0,0,0,0,0,0,0,0,0*7C
---00000009--- Acq_st=7 0  2000-1-1 0:1:24 
[00]  01(G02)  f 43  9  0  -1739.2  2046002.2  0.0  2 0 2409 3801 1535
[01]  03(G04)  f 42  7  0  -2281.5  2046002.9 -0.0  2 0 1480 2425  992
[02]  04(G05)  f 44  7  0  -3684.3  2046004.7 -0.0  2 0 2418 4174 2514
[03]  05(G06)  f 44  7  0    -92.0  2046000.0  0.0  2 0 2433 3567 1631
[05]  11(G12)  f 45  7  0  -1750.7  2046002.2 -0.0  2 0 2516 4380 1628
[06]  16(G17)  f 44  9  0    805.8  2045998.9  0.0  2 0 2008 2828 1350
[08]  18(G19)  f 43  7  0    331.6  2045999.5  0.1  2 0 1814 2780 1010
[16]  37(B01) 1f 41 18  0  -1129.2  4092002.9  0.2  2 0  889 1124  262
[19]  40(B04) 1f 39 23  0  -1149.4  4092002.7 -0.5  2 0 1474 1005  104
[21]  42(B06)  7 40  7  0  -2800.6  4092007.2  0.0  2 0 1552 1909  660
[24]  46(B10)  7 40  7  0    517.0  4091998.5 -0.1  2 0  865 1045  703
[25]  48(B12)  7 43 12  0  -1301.0  4092003.3  0.0  2 0 1335 2208 1071
[27]  50(B14)  7 39  7  0  -4433.6  4092011.5 -0.2  2 0   40  623 1033
[28]  52(B16)  7 41  7  0  -2926.6  4092007.5  0.0  2 0 1628 1640  406
[29]  55(B19)  7 37  7  0   1887.4  4091994.9 -0.3  2 0 1068 1474  981
[30]  57(B21)  7 45  9  0  -2976.0  4092007.7  0.0  2 0 3270 4385 1983
[32]  75(N-6)  7 24  7  0    531.2  1021999.6  0.7 10 0  1503 2207  902
[33]  78(N-3)  1 33 19  0  -1471.5  1022001.0  1.0  1 0  2033 3598 1640
[34]  79(N-2)  1 32 15  0  -3350.0  1022002.2  1.0  1 0   866 1199  580
[35]  80(N-1)  1 29 17  0  -3127.8  1022001.9  1.0  1 0  2184 2657  980
[36]  81(N00)  1 23 17  0  -2384.4  1022002.9  0.7  1 0   596  544  146
[37]  84(N03)  1 33 17  0    772.1  1022000.2  0.9  1 0  1660 2309 1167
[38]  85(N04)  1 30 14  0  -5636.9  1022004.3  0.6  1 0  1045 1336  602
[48]  37(B01)  7 10 10  0  -1147.3 20460020.1 -0.2  2 0  382  579  334
[51]  40(B04)  1 25 24  0   -185.3 20460017.6  0.1  1 0  508  533  481
t1:10026.009903,t2:10026.009903
dt:0.000000
$ini_pos,lastpos_good = 0,ini_pos.x:-0.000000,ini_pos.y:2150498990544607202280210432.000000,ini_pos.z:-0.000000
$GNGGA,121116.175,,,,,0,00,,,M,,,,0000*2C
$GNRMC,121116.175,A,,,,,,,080180,,*20
$GPGSA,A,1,,,,,,,,,,,,,,,*1E
$BDGSA,A,1,,,,,,,,,,,,,,,*0F
$GLGSA,A,1,,,,,,,,,,,,,,,*02
$GPGSV,2,1,07,02,00,000,44,04,00,000,42,05,00,000,44,06,00,000,44*7E
$GPGSV,2,2,07,12,00,000,44,17,00,000,43,19,00,000,43*43
$BDGSV,3,1,09,01,00,000,41,04,00,000,39,06,00,000,40,10,00,000,40*6E
$BDGSV,3,2,09,12,00,000,43,14,00,000,39,16,00,000,41,19,00,000,37*65
$BDGSV,3,3,09,21,00,000,45*53
$B3CN0,0,0,0,0,0,0,0,0,0,0,0,0,0,0*4C
---00000010--- Acq_st=7 0  2000-1-1 0:1:25 
[00]  01(G02)  f 44  7  0  -1735.6  2046002.2  0.1  2 0 1723 3228 1680
[01]  03(G04)  f 42  7  0  -2284.3  2046002.9  0.1  2 0 1424 2321 1357
[02]  04(G05)  f 44  7  0  -3684.6  2046004.7  0.0  2 0 2591 4131 1785
[03]  05(G06)  f 44  7  0    -92.7  2046000.0 -0.0  2 0 1922 3002 1771
[05]  11(G12)  f 44  7  0  -1755.0  2046002.2  0.0  2 0 2791 4349 2221
[06]  16(G17)  f 43  7  0    805.3  2045998.9 -0.0  2 0 2337 3279 1741
[08]  18(G19)  f 43  8  0    331.8  2045999.5 -0.0  2 0 1640 2081 1170
[16]  37(B01) 1f 41 16  0  -1134.1  4092002.8 -0.5  2 0 1696 1654  703
[19]  40(B04) 1f 39 19  0  -1157.3  4092002.8  0.1  2 0 1658 1596  395
[21]  42(B06) 1f 40  7  0  -2802.4  4092007.2 -0.0  2 0 1243 1583  650
[24]  46(B10) 1f 40  7  0    512.7  4091998.5  0.1  2 0  879 1029  413
[25]  48(B12) 1f 43  7  0  -1300.5  4092003.3 -0.0  2 0 1791 2315  582
[27]  50(B14) 1f 39  7  0  -4434.7  4092011.5  0.2  2 0  991 1433  510
[28]  52(B16) 1f 41  7  0  -2925.6  4092007.6 -0.0  2 0  949 1471  806
[29]  55(B19) 1f 37  7  0   1892.7  4091994.9  0.1  2 0  786  923  316
[30]  57(B21) 1f 45  8  0  -2975.2  4092007.7 -0.0  2 0 2920 3922 1846
[32]  75(N-6)  7 46 18  0    531.7  1021999.6 -0.0  2 0  1516 2433 1101
[33]  78(N-3)  1 35 19  0  -1472.7  1022000.8  1.0  1 0  1685 2986 1393
[34]  79(N-2)  1 34 17  0  -3351.2  1022001.9  1.0  1 0   601  938  394
[35]  80(N-1)  1 32 16  0  -3128.3  1022001.9  1.0  1 0  1685 2694 1224
[36]  81(N00)  1 26 17  0  -2386.1  1022000.9  0.6  1 0   605  846  497
[37]  84(N03)  7 34 15  0    773.4  1021999.4  0.2  5 0  2039 2337  657
[38]  85(N04)  7 31  7  0  -5636.2  1022003.5  0.5  5 0   955 1253  713
[48]  37(B01)  7 10 10  0  -1681.7 20460029.7  0.0  2 0  426  361  549
[51]  40(B04)  1 23 25  1   -904.2 20460015.9  0.2  1 0  161  247  365
---00000011--- Acq_st=3 0  2000-1-1 0:1:26 
[00]  01(G02)  f 44  7  0  -1741.6  2046002.2 -0.0  2 0 2081 3640 1740
[01]  03(G04)  f 41  7  0  -2276.7  2046002.9 -0.1  2 0 1491 2675 1371
[02]  04(G05)  f 45  7  0  -3682.5  2046004.7 -0.0  2 0 2479 4401 1807
[03]  05(G06)  f 45  7  0    -91.8  2046000.0 -0.0  2 0 2475 3450 1809
[04]  08(G09)  1 23  7  0  -1253.6  2046004.1  0.0  1 0  429 1292 2230
[05]  11(G12)  f 46  7  0  -1750.9  2046002.2 -0.0  2 0 2946 3951 1887
[06]  16(G17)  f 43  7  0    810.7  2045998.9 -0.0  2 0 2566 3078 1300
[08]  18(G19)  f 43  7  0    333.0  2045999.5 -0.0  2 0 1759 2698 1137
[16]  37(B01) 1f 41 10  0  -1129.8  4092002.8 -0.6  2 0 1189 1453  401
[19]  40(B04) 1f 40 10  0  -1154.6  4092002.9 -0.8  2 0 1417 1673  826
[21]  42(B06) 1f 40  7  0  -2800.7  4092007.2  0.0  2 0 1274 1194  524
[24]  46(B10) 1f 39 12  0    517.6  4091998.5  0.1  2 0 1183 1237  510
[25]  48(B12) 1f 43  7  0  -1295.9  4092003.3 -0.0  2 0 1690 2564 1322
[27]  50(B14) 1f 39  7  0  -4435.5  4092011.5 -0.1  2 0  999 1540  939
[28]  52(B16) 1f 41  7  0  -2922.6  4092007.5 -0.1  2 0 1184 1817  960
[29]  55(B19) 1f 37  7  0   1889.0  4091994.9  0.1  2 0  400  657  363
[30]  57(B21) 1f 45  8  0  -2972.7  4092007.7 -0.0  2 0 2749 3790 1628
[32]  75(N-6)  7 46 16  0    533.8  1021999.6 -0.0  2 0  1643 2064  721
[33]  78(N-3)  7 49 19  0  -1466.9  1022000.9 -0.0  2 0  2069 3513 1477
[34]  79(N-2)  7 42 17  0  -3349.6  1022002.1  0.1  2 0   686 1221  607
[35]  80(N-1)  7 47 18  0  -3122.3  1022002.0 -0.0  2 0  1332 2748 1429
[36]  81(N00)  7 38 15  0  -2385.5  1022001.5  0.2  2 0   773  931  162
[37]  84(N03)  7 47 14  0    776.8  1021999.4  0.1  2 0  1807 2537  978
[38]  85(N04)  7 42 15  0  -5633.3  1022003.5  0.1  2 0   783 1140  622
[48]  37(B01)  7 13 10  1  -2072.4 20460034.7 -0.0  2 0  445   63  274
[51]  40(B04)  1 19 23  0  -1255.0 20460018.2  0.0  1 0  425  687  469
[53]  42(B06)  1  7  7  0  -2092.9 20460044.7 -0.0  1 0  470  270  307
[56]  46(B10)  1  7  7  0    560.7 20459994.0  0.0  1 0  241  265  591
[57]  48(B12)  1  7  7  0   -752.5 20460016.2  0.2  1 0  682  220  667
[59]  50(B14)  1  7  7  0  -3625.4 20460069.3 -0.1  1 0  891  939  265
[60]  52(B16)  1  7  7  0  -2402.7 20460047.3  0.1  1 0  213  350  482
[61]  55(B19)  1  7  7  0   1536.3 20459969.9 -0.0  1 0  808  206  260
[62]  57(B21)  1  7  7  0  -2099.7 20460047.1  0.2  1 0  557  555  474
t1:11026.009871,t2:11026.009871
dt:0.000000
$ini_pos,lastpos_good = 0,ini_pos.x:-0.000000,ini_pos.y:2150498990544607202280210432.000000,ini_pos.z:-0.000000
$GNGGA,121117.175,,,,,0,00,,,M,,,,0000*2D
$GNRMC,121117.175,A,,,,,,,080180,,*21
$GPGSA,A,1,,,,,,,,,,,,,,,*1E
$BDGSA,A,1,,,,,,,,,,,,,,,*0F
$GLGSA,A,1,,,,,,,,,,,,,,,*02
$GPGSV,2,1,07,02,00,000,44,04,00,000,41,05,00,000,45,06,00,000,45*7D
$GPGSV,2,2,07,12,00,000,46,17,00,000,43,19,00,000,43*41
$BDGSV,3,1,09,01,00,000,41,04,00,000,40,06,00,000,40,10,00,000,39*6E
$BDGSV,3,2,09,12,00,000,43,14,00,000,39,16,00,000,41,19,00,000,37*65
$BDGSV,3,3,09,21,00,000,45*53
$B3CN0,0,0,0,0,0,0,0,0,0,0,0,0,0,0*4C
---00000012--- Acq_st=3 0  2000-1-1 0:1:27 
[00]  01(G02)  f 44  7  0  -1736.9  2046002.2 -0.0  2 0 1907 2942 1666
[01]  03(G04)  f 42  7  0  -2275.0  2046002.9 -0.0  2 0 1564 2606 1347
[02]  04(G05)  f 45  7  0  -3679.1  2046004.7 -0.0  2 0 3024 4068 1374
[03]  05(G06)  f 45  7  0    -85.8  2046000.0 -0.0  2 0 2814 3966 1647
[04]  08(G09)  1 31  7  0  -1250.3  2046001.4  1.0  1 0 1645 1667  644
[05]  11(G12)  f 45  7  0  -1748.9  2046002.2 -0.1  2 0 2166 3988 1911
[06]  16(G17)  f 43 10  0    808.2  2045998.9  0.0  2 0 1730 3135 2017
[08]  18(G19)  f 44 10  0    337.4  2045999.5  0.0  2 0 2013 3251 1678
[09]  24(G25)  1  7  7  0  -3281.0  2046005.4 -0.0  1 0   83  417 1155
[16]  37(B01) 1f 41 24  0  -1124.4  4092002.8  0.0  2 0 1329 1785 1154
[19]  40(B04) 1f 40 21  0  -1149.4  4092002.8  0.1  2 0 1177 1409  581
[21]  42(B06) 1f 40  7  0  -2798.6  4092007.2 -0.1  2 0  999  967  344
[24]  46(B10) 1f 40  7  0    521.9  4091998.5  0.0  2 0 1338 1920  684
[25]  48(B12) 1f 43  7  0  -1297.0  4092003.3  0.0  2 0 1414 2604 1097
[27]  50(B14) 1f 39  7  0  -4427.7  4092011.5  0.0  2 0 1029 1209  624
[28]  52(B16) 1f 41  7  0  -2920.0  4092007.5  0.0  2 0 1279 1693  511
[29]  55(B19) 1f 37  7  0   1894.8  4091994.9  0.2  2 0  232 1105 1031
[30]  57(B21) 1f 45 13  0  -2969.3  4092007.7  0.0  2 0 3028 4265 2041
[32]  75(N-6)  7 46 16  0    537.7  1021999.6 -0.0  2 0  1586 2588 1264
[33]  78(N-3)  7 48 17  0  -1463.6  1022000.9  0.0  2 0  1839 3312 1684
[34]  79(N-2)  7 41 17  0  -3343.0  1022002.1  0.1  2 0   731 1571  585
[35]  80(N-1)  7 47 15  0  -3118.8  1022002.0 -0.1  2 0  1164 2369 1172
[36]  81(N00)  7 38 17  0  -2382.1  1022001.5 -0.1  2 0   374  678  307
[37]  84(N03)  7 47 17  0    780.7  1021999.4 -0.1  2 0  1615 2572 1165
[38]  85(N04)  7 43 13  0  -5628.5  1022003.5  0.1  2 0   995 1572  589
[53]  42(B06)  1  8  7  0  -1973.1 20460043.2 -0.0  1 0  368  698  429
[56]  46(B10)  1  7  7  0   1160.5 20459993.9 -0.1  1 0  298  738  842
[57]  48(B12)  1  7  8  0   -569.0 20460015.5 -0.0  1 0  403  444  295
[59]  50(B14)  1  7  7  0  -3686.3 20460071.5 -0.0  1 0  302  460 1232
[60]  52(B16)  1  7  7  0  -2332.8 20460046.8  0.1  1 0  765  972  499
[61]  55(B19)  1  7  7  0   1187.9 20459970.0 -0.1  1 0  388  333  533
[62]  57(B21)  1  7  9  0  -1713.8 20460047.0 -0.0  1 0  210    4  564
t1:12026.009839,t2:12026.009839
dt:0.000000
$ini_pos,lastpos_good = 0,ini_pos.x:-0.000000,ini_pos.y:2150498990544607202280210432.000000,ini_pos.z:-0.000000
$GNGGA,121118.175,,,,,0,00,,,M,,,,0000*22
$GNRMC,121118.175,A,,,,,,,080180,,*2E
$GPGSA,A,1,,,,,,,,,,,,,,,*1E
$BDGSA,A,1,,,,,,,,,,,,,,,*0F
$GLGSA,A,1,,,,,,,,,,,,,,,*02
$GPGSV,2,1,07,02,00,000,44,04,00,000,42,05,00,000,45,06,00,000,45*7E
$GPGSV,2,2,07,12,00,000,45,17,00,000,43,19,00,000,44*45
$BDGSV,3,1,09,01,00,000,41,04,00,000,40,06,00,000,40,10,00,000,40*60
$BDGSV,3,2,09,12,00,000,43,14,00,000,39,16,00,000,41,19,00,000,37*65
$BDGSV,3,3,09,21,00,000,45*53
$B3CN0,0,0,0,0,0,0,0,0,0,0,0,0,0,0*4C
---00000013--- Acq_st=3 0  2000-1-1 0:1:28 
[00]  01(G02)  f 44  7  0  -1734.7  2046002.2  0.0  2 0 1465 2805 1485
[01]  03(G04)  f 43  7  0  -2276.0  2046002.9 -0.1  2 0 1720 2624  843
[02]  04(G05)  f 45  7  0  -3680.8  2046004.7  0.0  2 0 2348 3948 2184
[03]  05(G06)  f 45  7  0    -89.7  2046000.1  0.0  2 0 2186 3897 1947
[04]  08(G09)  7 39  7  0  -1247.6  2046001.5  0.1  2 0 1491 1832  557
[05]  11(G12)  f 45  7  0  -1747.0  2046002.2  0.0  2 0 2240 3910 1997
[06]  16(G17)  f 43  7  0    809.9  2045998.9 -0.0  2 0 1807 3225 1300
[08]  18(G19)  f 44  7  0    339.1  2045999.5 -0.0  2 0 1566 3216 1841
[09]  24(G25)  1 22  7  0  -3432.5  2046006.1  0.0  1 0  630  983  638
[16]  37(B01) 1f 42 14  0  -1132.4  4092002.9  0.2  2 0 1155 1584  736
[17]  38(B02)  1 18 23  0  -1178.0  4092005.8 -0.1  1 0  372  391  852
[18]  39(B03)  1 16 30  1  -1140.6  4092003.8  0.4  1 0  220  953 2033
[19]  40(B04) 1f 39 14  0  -1152.3  4092003.0 -0.4  2 0  780 1283  385
[20]  41(B05)  1 10 10  0  -1500.0  4092004.1 -0.0  1 0  680  920  945
[21]  42(B06) 1f 40  7  0  -2797.9  4092007.2  0.1  2 0 1302 1425  680
[22]  44(B08)  1  7  7  0  -1250.0  4092005.0 -0.0  1 0  248  395 1265
[24]  46(B10) 1f 40  8  0    516.6  4091998.5  0.1  2 0 1696 1731  571
[25]  48(B12) 1f 43  7  0  -1295.1  4092003.3  0.0  2 0 1940 2188  840
[26]  45(B09)  1  7  7  0  -2750.0  4092007.0  0.0  1 0  374  393  304
[27]  50(B14) 1f 39  7  0  -4437.1  4092011.5  0.0  2 0  829 1407  569
[28]  52(B16) 1f 41  7  0  -2922.3  4092007.6  0.1  2 0  539 1075  505
[29]  55(B19) 1f 37  7  0   1889.8  4091994.9 -0.4  2 0  490  641   36
[30]  57(B21) 1f 45  9  0  -2970.2  4092007.7  0.0  2 0 3266 3986 1112
[32]  75(N-6)  f 43  7  0    536.6  1021999.6 -0.1  2 0  1402 2209 1005
[33]  78(N-3)  7 49 19  0  -1464.7  1022000.9 -0.0  2 0  1761 3279 1454
[34]  79(N-2)  7 41 20  0  -3346.1  1022002.1  0.1  2 0   518 1126  631
[35]  80(N-1)  7 47 17  0  -3120.6  1022002.0  0.1  2 0  1800 2738 1265
[36]  81(N00)  7 38 18  0  -2381.0  1022001.5  0.6  2 0   534  901  121
[37]  84(N03)  f 43  7  0    777.8  1021999.4 -0.0  2 0  1749 2790 1311
[38]  85(N04)  f 41  7  0  -5634.3  1022003.6  0.0  2 0   716 1608  581
[48]  37(B01)  1 20 10  1   -752.1 20460020.5  0.1  1 0  197  213  131
[51]  40(B04)  1 23 19  0   -613.0 20460017.6  0.2  1 0  516  362  218
[53]  42(B06)  1 11  7  0  -2240.3 20460045.8  0.0  1 0 1012 1160  564
[56]  46(B10)  1  7  7  0   1284.5 20459994.4  0.1  1 0  428  425   75
[57]  48(B12)  1 11  7  0   -549.7 20460017.1 -0.3  1 0  519  568  778
[59]  50(B14)  1  7  7  0  -3515.3 20460070.7 -0.1  1 0  471  205  609
[60]  52(B16)  1  7  7  0  -2206.3 20460047.6 -0.0  1 0  195  407  291
[61]  55(B19)  1  7  7  0    810.9 20459970.2  0.1  1 0  439  341  236
[62]  57(B21)  1  7  7  0  -1996.9 20460046.3 -0.1  1 0  549   70  764
t1:13026.009806,t2:13026.009806
dt:0.000000
$ini_pos,lastpos_good = 0,ini_pos.x:-0.000000,ini_pos.y:2150498990544607202280210432.000000,ini_pos.z:-0.000000
$GNGGA,121119.175,,,,,0,00,,,M,,,,0000*23
$GNRMC,121119.175,A,,,,,,,070519,,*24
$GPGSA,A,1,,,,,,,,,,,,,,,*1E
$BDGSA,A,1,,,,,,,,,,,,,,,*0F
$GLGSA,A,1,,,,,,,,,,,,,,,*02
$GPGSV,2,1,08,02,00,000,44,04,00,000,43,05,00,000,45,06,00,000,45*70
$GPGSV,2,2,08,09,00,000,39,12,00,000,45,17,00,000,43,19,00,000,44*79
$BDGSV,3,1,09,01,00,000,42,04,00,000,39,06,00,000,40,10,00,000,40*6D
$BDGSV,3,2,09,12,00,000,43,14,00,000,39,16,00,000,41,19,00,000,37*65
$BDGSV,3,3,09,21,00,000,45*53
$B3CN0,0,0,0,0,0,0,0,0,0,0,0,0,0,0*4C
---00000014--- Acq_st=3 0  2000-1-1 0:1:29 
[00]  01(G02)  f 44  7  0  -1735.6  2046002.2  0.0  2 0 2063 3505 1384
[01]  03(G04)  f 43  7  0  -2274.7  2046002.9  0.0  2 0 1588 2627 1221
[02]  04(G05)  f 45  7  0  -3675.8  2046004.7 -0.0  2 0 1970 3468 1840
[03]  05(G06)  f 45  7  0    -90.0  2046000.1  0.0  2 0 2397 3638 1899
[04]  08(G09)  f 40  9  0  -1242.8  2046001.5 -0.0  2 0 1529 1836  655
[05]  11(G12)  f 45  7  0  -1748.3  2046002.2 -0.0  2 0 2556 3902 1663
[06]  16(G17)  f 43 10  0    810.3  2045998.9 -0.0  2 0 1662 2732 1031
[08]  18(G19)  f 44  7  0    338.2  2045999.5  0.0  2 0 1888 3362 2031
[09]  24(G25)  1 31  7  0  -3470.5  2046004.3  0.6  1 0 1385 1033  773
[16]  37(B01) 1f 41 22  0  -1128.6  4092003.0 -0.0  2 0  984 1433  742
[17]  38(B02)  7 38 23  0  -1193.7  4092002.8  0.2  2 0 1473  935   94
[18]  39(B03)  7 23 10  0  -1142.7  4092002.8  0.5  2 0 2189 1682  428
[19]  40(B04) 1f 40 25  0  -1150.1  4092002.9 -0.5  2 0  731 1106  308
[20]  41(B05)  1 10 10  0  -1677.0  4092003.8 -0.0  1 0  894  597  230
[21]  42(B06) 1f 40  7  0  -2795.8  4092007.2 -0.1  2 0 1275 1743  771
[22]  44(B08)  1  7  7  0  -1202.4  4092003.5  0.3  1 0 1385 1451  808
[24]  46(B10) 1f 40  7  0    521.5  4091998.5 -0.1  2 0 1369 1527  305
[25]  48(B12) 1f 43  7  0  -1295.7  4092003.3  0.0  2 0 1882 2542 1107
[26]  45(B09)  1  7  7  0  -2657.4  4092009.2  0.1  1 0  504  530  799
[27]  50(B14) 1f 39  7  0  -4430.8  4092011.5 -0.1  2 0  917  642   53
[28]  52(B16) 1f 41  7  0  -2922.7  4092007.5  0.0  2 0 1561 1607  274
[29]  55(B19) 1f 37  7  0   1894.9  4091994.9  0.2  2 0  972 1003  178
[30]  57(B21) 1f 45  7  0  -2968.8  4092007.7 -0.0  2 0 2710 3472 1138
[32]  75(N-6)  f 45  7  0    538.4  1021999.6  0.0  2 0  1476 2568 1365
[33]  78(N-3)  7 49 20  0  -1463.3  1022000.9 -0.1  2 0  1818 3409 1720
[34]  79(N-2)  7 41 17  0  -3345.7  1022002.1 -0.2  2 0   915 1439  436
[35]  80(N-1)  7 47 18  0  -3118.3  1022002.0  0.0  2 0  1530 2520 1308
[36]  81(N00)  7 39 18  0  -2378.0  1022001.5  0.5  2 0   504  916  838
[37]  84(N03)  f 45  7  0    779.3  1021999.5  0.0  2 0  1678 2670 1086
[38]  85(N04)  f 42  7  0  -5631.3  1022003.5 -0.1  2 0   887 1401  543
[48]  37(B01)  1 10 10  0   -627.2 20460018.6 -0.0  1 0  909  703  257
[51]  40(B04)  1 23 22  0     -9.9 20460018.4  0.1  1 0  624  457  795
[53]  42(B06)  1  7  7  0  -2681.3 20460045.6 -0.1  1 0  639  999 1086
[56]  46(B10)  1  7  7  0   1251.7 20459993.2  0.2  1 0  424  371  362
[57]  48(B12)  1 10  7  0   -775.3 20460017.2 -0.0  1 0  683  305  354
[59]  50(B14)  1  7  7  0  -4075.3 20460071.9 -0.0  1 0  816  744  232
[60]  52(B16)  1  7  7  0  -2819.9 20460048.3  0.1  1 0  517  660  639
[61]  55(B19)  1  7  7  0   1309.5 20459970.4 -0.0  1 0  290  297  350
[62]  57(B21)  1  7  7  0  -2486.3 20460047.3 -0.0  1 0  567  781  404
t1:14026.009774,t2:14026.009774
dt:0.000000
$ini_pos,lastpos_good = 0,ini_pos.x:-0.000000,ini_pos.y:2150498990544607202280210432.000000,ini_pos.z:-0.000000
$GNGGA,121120.175,,,,,0,00,,,M,,,,0000*29
$GNRMC,121120.175,A,,,,,,,070519,,*2E
$GPGSA,A,1,,,,,,,,,,,,,,,*1E
$BDGSA,A,1,,,,,,,,,,,,,,,*0F
$GLGSA,A,1,,,,,,,,,,,,,,,*02
$GPGSV,2,1,08,02,00,000,44,04,00,000,43,05,00,000,45,06,00,000,45*70
$GPGSV,2,2,08,09,00,000,40,12,00,000,45,17,00,000,43,19,00,000,44*77
$BDGSV,3,1,11,01,00,000,41,02,00,000,38,03,00,000,22,04,00,000,40*64
$BDGSV,3,2,11,06,00,000,40,10,00,000,40,12,00,000,43,14,00,000,39*65
$BDGSV,3,3,11,16,00,000,41,19,00,000,37,21,00,000,45*54
$B3CN0,0,0,0,0,0,0,0,0,0,0,0,0,0,0*4C
---00000015--- Acq_st=3 0  2000-1-1 0:1:30 
[00]  01(G02)  f 44  7  0  -1731.9  2046002.2  0.0  2 0 1587 2089 1158
[01]  03(G04)  f 42  7  0  -2275.7  2046002.9  0.1  2 0 1490 2168  971
[02]  04(G05)  f 45  7  0  -3673.8  2046004.7  0.0  2 0 2611 4045 1463
[03]  05(G06)  f 45  7  0    -84.6  2046000.0 -0.0  2 0 2499 3790 1527
[04]  08(G09)  f 41  7  0  -1238.9  2046001.6  0.1  2 0 1401 1964 1010
[05]  11(G12)  f 45  7  0  -1745.0  2046002.2  0.0  2 0 2644 4270 1990
[06]  16(G17)  f 44  7  0    813.3  2045998.9  0.1  2 0 2393 3591 1986
[08]  18(G19)  f 43  9  0    342.3  2045999.5 -0.1  2 0 1444 2629 1369
[09]  24(G25)  7 32  7  0  -3437.9  2046004.3  0.2  5 0 1040 1371  858
[16]  37(B01) 1f 41 10  0  -1128.5  4092002.8  0.2  2 0 1548 1493  548
[17]  38(B02) 1f 39 19  0  -1186.1  4092003.0 -0.2  2 0 1518 1893  315
[18]  39(B03) 1f 41 31  0  -1135.4  4092002.7 -0.1  2 0 2222 2080  532
[19]  40(B04) 1f 41 10  0  -1144.4  4092002.9  0.1  2 0 1635 2062 1216
[20]  41(B05)  1 10 10  0  -1665.7  4092002.6  0.2  1 0  822  994  215
[21]  42(B06) 1f 40  7  0  -2796.9  4092007.2 -0.0  2 0 1425 1696  947
[22]  44(B08)  7 30  7  0  -1197.1  4092003.0  0.1  5 0 1560 1994 1113
[24]  46(B10) 1f 39  7  0    523.8  4091998.5  0.1  2 0 1061 1269  290
[25]  48(B12) 1f 43  7  0  -1286.3  4092003.3 -0.0  2 0 1415 2267 1058
[26]  45(B09)  7 25  7  0  -2679.6  4092006.9 -0.0 10 0  685  634  498
[27]  50(B14) 1f 39  7  0  -4430.8  4092011.5 -0.1  2 0  596  993  613
[28]  52(B16) 1f 41  7  0  -2918.2  4092007.5 -0.0  2 0 1218 1542  674
[29]  55(B19) 1f 38  7  0   1895.3  4091994.9 -0.2  2 0 1422 1240  362
[30]  57(B21) 1f 45 11  0  -2968.3  4092007.7  0.0  2 0 3358 3874 1592
[32]  75(N-6)  f 44  7  0    542.9  1021999.6  0.0  2 0  1173 2326 1060
[33]  78(N-3)  f 44  9  0  -1460.6  1022000.9 -0.0  2 0  1744 3268 2027
[34]  79(N-2)  f 40  7  0  -3342.9  1022002.1  0.1  2 0   756 1130  741
[35]  80(N-1)  f 45  9  0  -3114.4  1022002.0 -0.1  2 0  1824 2489 1156
[36]  81(N00)  f 38  7  0  -2375.4  1022001.5  0.9  2 0   721 1238  153
[37]  84(N03)  f 45  7  0    783.6  1021999.4 -0.0  2 0  1614 2752 1330
[38]  85(N04)  f 42  7  0  -5627.8  1022003.6  0.0  2 0   802 1227  674
[48]  37(B01)  1 14 18  0   -837.6 20460016.5 -0.1  1 0  957  608  239
[51]  40(B04)  1 24 23  0   -873.7 20460022.1  0.1  1 0  888  372  351
t1:15026.009742,t2:15026.009742
dt:0.000000
$ini_pos,lastpos_good = 0,ini_pos.x:-0.000000,ini_pos.y:2150498990544607202280210432.000000,ini_pos.z:-0.000000
$GNGGA,121121.175,,,,,0,00,,,M,,,,0000*28
$GNRMC,121121.175,A,,,,,,,070519,,*2F
$GPGSA,A,1,,,,,,,,,,,,,,,*1E
$BDGSA,A,1,,,,,,,,,,,,,,,*0F
$GLGSA,A,1,,,,,,,,,,,,,,,*02
$GPGSV,3,1,09,02,00,000,44,04,00,000,42,05,00,000,45,06,00,000,45*71
$GPGSV,3,2,09,09,00,000,41,12,00,000,45,17,00,000,44,19,00,000,43*76
$GPGSV,3,3,09,25,00,000,32*46
$BDGSV,3,1,12,01,00,000,41,02,00,000,39,03,00,000,41,04,00,000,41*62
$BDGSV,3,2,12,06,00,000,40,08,00,000,30,10,00,000,39,12,00,000,43*6C
$BDGSV,3,3,12,09,00,000,25,14,00,000,39,16,00,000,41,19,00,000,38*6B
$B3CN0,0,0,0,0,0,0,0,0,0,0,0,0,0,0*4C
---00000016--- Acq_st=2 0  2000-1-1 0:1:31 
[00]  01(G02)  f 44  7  0  -1730.7  2046002.2  0.0  2 0 1973 3453 1738
[01]  03(G04)  f 43  7  0  -2269.0  2046002.9 -0.0  2 0 1355 2551 1365
[02]  04(G05)  f 44  7  0  -3672.7  2046004.7 -0.0  2 0 2351 3943 1983
[03]  05(G06)  f 45  7  0    -81.9  2046000.1  0.0  2 0 2182 3789 1742
[04]  08(G09)  f 41  7  0  -1235.3  2046001.5  0.1  2 0 1445 1925  482
[05]  11(G12)  f 45  7  0  -1743.3  2046002.2 -0.1  2 0 2156 3673 1775
[06]  16(G17)  f 44 11  0    816.0  2045998.9 -0.0  2 0 1392 2352 1194
[08]  18(G19)  f 43 12  0    344.4  2045999.5  0.0  2 0 1594 2741 1788
[09]  24(G25)  7 36  7  0  -3439.8  2046004.4  0.1  2 0  919 1439 1198
[16]  37(B01) 1f 42 10  0  -1125.8  4092002.8  0.3  2 0 1169 1457  671
[17]  38(B02) 1f 37 19  0  -1187.0  4092002.9 -0.8  2 0 1164 1568  868
[18]  39(B03) 1f 42 28  0  -1132.5  4092002.8  0.4  2 0 1412 1564  297
[19]  40(B04) 1f 40 23  0  -1140.8  4092003.0 -0.3  2 0 1215 1542  947
[20]  41(B05)  1 22 10  1  -1659.2  4092002.3  0.6  1 0  908  865  214
[21]  42(B06) 1f 40  7  0  -2794.4  4092007.2  0.0  2 0 1155 1292  609
[22]  44(B08)  7 42  7  0  -1194.6  4092003.0  0.1  2 0 1659 1562  223
[24]  46(B10) 1f 40  7  0    527.5  4091998.5 -0.0  2 0 1023 1677  913
[25]  48(B12) 1f 43  7  0  -1291.9  4092003.3  0.0  2 0 1360 2101  739
[26]  45(B09)  7 34  7  0  -2677.3  4092006.9 -0.0  5 0  555  702  463
[27]  50(B14) 1f 39  8  0  -4427.8  4092011.6  0.1  2 0 1058  969  654
[28]  52(B16) 1f 41  7  0  -2918.5  4092007.5 -0.1  2 0 1270 1675  501
[29]  55(B19) 1f 38  7  0   1899.2  4091994.9  0.2  2 0  489 1193  613
[30]  57(B21) 1f 45 11  0  -2964.1  4092007.6 -0.0  2 0 3327 4026 1751
[32]  75(N-6)  f 44  7  0    545.5  1021999.6 -0.0  2 0  1452 2347  824
[33]  78(N-3)  f 46  7  0  -1458.2  1022000.9  0.0  2 0  1942 3248 1458
[34]  79(N-2)  f 41 10  0  -3340.2  1022002.1  0.1  2 0   494 1145  560
[35]  80(N-1)  f 45  7  0  -3111.3  1022001.9  0.0  2 0  1739 2805 1316
[36]  81(N00)  f 39  7  0  -2370.7  1022001.5  0.4  2 0   446 1258  854
[37]  84(N03)  f 45  7  0    784.6  1021999.5  0.0  2 0  1726 3141 1564
[38]  85(N04)  f 42  7  0  -5625.8  1022003.5  0.0  2 0  1264 1945  888
[48]  37(B01)  1 10 16  1  -1100.3 20460023.3 -0.1  1 0  446  703  305
[49]  38(B02)  1 18 16  1   -824.4 20460025.6 -0.1  1 0  553  920  441
[50]  39(B03)  1 19 17  0  -1016.6 20460018.3  0.2  1 0  628  419  463
[51]  40(B04)  1 16 25  1   -768.1 20460024.8 -0.0  1 0  970 1034  278
[53]  42(B06)  1  7  7  0  -1998.9 20460043.5  0.1  1 0  348  483  323
[56]  46(B10)  1  7  7  0    581.3 20459991.8 -0.1  1 0  460  320  494
[57]  48(B12)  1  7  7  0  -1036.9 20460015.7  0.1  1 0 1100 1012 1207
[59]  50(B14)  1  7  7  0  -4016.3 20460070.8  0.2  1 0 1127  765  593
[60]  52(B16)  1  7  7  0  -2389.0 20460048.4 -0.1  1 0  302  404  190
[61]  55(B19)  1  7  7  0   1954.7 20459969.0 -0.1  1 0  338  319  662
[62]  57(B21)  1  7  7  0  -2139.9 20460046.9 -0.2  1 0  286  709  355
t1:16026.009710,t2:16026.009710
dt:0.000000
$ini_pos,lastpos_good = 0,ini_pos.x:-0.000000,ini_pos.y:2150498990544607202280210432.000000,ini_pos.z:-0.000000
$GNGGA,121122.175,,,,,0,00,,,M,,,,0000*2B
$GNRMC,121122.175,A,,,,,,,070519,,*2C
$GPGSA,A,1,,,,,,,,,,,,,,,*1E
$BDGSA,A,1,,,,,,,,,,,,,,,*0F
$GLGSA,A,1,,,,,,,,,,,,,,,*02
$GPGSV,3,1,09,02,00,000,44,04,00,000,43,05,00,000,44,06,00,000,45*71
$GPGSV,3,2,09,09,00,000,41,12,00,000,45,17,00,000,44,19,00,000,43*76
$GPGSV,3,3,09,25,00,000,36*42
$BDGSV,3,1,12,01,00,000,42,02,00,000,37,03,00,000,42,04,00,000,40*6D
$BDGSV,3,2,12,06,00,000,40,08,00,000,42,10,00,000,40,12,00,000,43*67
$BDGSV,3,3,12,09,00,000,34,14,00,000,39,16,00,000,41,19,00,000,38*6B
$B3CN0,0,0,0,0,0,0,0,0,0,0,0,0,0,0*4C
---00000017--- Acq_st=7 0  2000-1-1 0:1:32 
[00]  01(G02)  f 44  7  0  -1733.3  2046002.2 -0.0  2 0 1448 2684  850
[01]  03(G04)  f 43  7  0  -2269.2  2046002.9  0.1  2 0 1869 2292  410
[02]  04(G05)  f 45  7  0  -3674.8  2046004.7  0.0  2 0 2379 4182 1926
[03]  05(G06)  f 45  7  0    -84.5  2046000.0 -0.0  2 0 2192 3775 1872
[04]  08(G09)  f 41  8  0  -1238.4  2046001.5  0.0  2 0 1484 2189 1208
[05]  11(G12)  f 45  7  0  -1740.9  2046002.2 -0.0  2 0 2869 4045 1796
[06]  16(G17)  f 44  7  0    814.4  2045998.9  0.0  2 0 1487 2833 1099
[08]  18(G19)  f 43 10  0    340.9  2045999.5  0.0  2 0 1980 3337 1721
[09]  24(G25)  7 36  9  0  -3436.7  2046004.3 -0.2  2 0  473 1238  843
[16]  37(B01) 1f 41 10  0  -1130.3  4092002.9 -0.4  2 0  902 1516  744
[17]  38(B02) 1f 40 21  0  -1185.4  4092003.0 -0.5  2 0 1319 1822  925
[18]  39(B03) 1f 42 29  0  -1136.6  4092002.8  0.1  2 0 2155 2100  861
[19]  40(B04) 1f 39 10  0  -1142.9  4092002.8  0.3  2 0 1217 1439  750
[20]  41(B05)  1 10 10  0  -1669.6  4092003.2 -0.1  1 0  666  759  525
[21]  42(B06) 1f 40  7  0  -2789.3  4092007.2  0.0  2 0 1083 1178  120
[22]  44(B08)  7 42  7  0  -1197.1  4092003.0 -0.1  2 0 1498 1771  699
[24]  46(B10) 1f 40  7  0    524.4  4091998.5 -0.1  2 0 1074 1458  549
[25]  48(B12) 1f 43  7  0  -1289.8  4092003.3 -0.0  2 0 1741 2303  626
[26]  45(B09)  7 34  7  0  -2673.0  4092007.0  0.0  5 0  471  474  305
[27]  50(B14) 1f 39  7  0  -4422.7  4092011.5 -0.1  2 0 1444 1452  418
[28]  52(B16) 1f 41 11  0  -2916.6  4092007.5  0.1  2 0 1026 1481  736
[29]  55(B19) 1f 38  7  0   1894.3  4091994.9 -0.2  2 0 1032 1337  684
[30]  57(B21) 1f 45 14  0  -2964.4  4092007.6  0.0  2 0 3009 3705 1427
[32]  75(N-6)  f 45  7  0    545.6  1021999.6 -0.0  2 0  1067 2126  923
[33]  78(N-3)  f 46 11  0  -1459.3  1022000.9 -0.0  2 0  1577 3274 1579
[34]  79(N-2)  f 41  7  0  -3341.1  1022002.1 -0.0  2 0   970 1396  322
[35]  80(N-1)  f 45  7  0  -3111.1  1022002.0  0.0  2 0  1431 2552 1217
[36]  81(N00)  f 39  7  0  -2373.7  1022001.5 -0.2  2 0   414 1085  516
[37]  84(N03)  f 45  8  0    784.7  1021999.4 -0.0  2 0  1980 3030 1195
[38]  85(N04)  f 42  7  0  -5626.2  1022003.6  0.0  2 0   405 1262  800
[48]  37(B01)  7 10 17  0  -1468.7 20460025.3  0.1  2 0  484  101  825
[49]  38(B02)  1 10 10  0   -564.8 20460025.0 -0.0  1 0  272   48  378
[50]  39(B03)  f 23 22  0   -848.8 20460014.1  0.0  2 0  722  189  474
[53]  42(B06)  1  8  7  0  -2244.2 20460045.1  0.2  1 0 1015  765  502
[56]  46(B10)  1  7  7  0    193.0 20459992.1 -0.0  1 0  669  111  180
[57]  48(B12)  1  7  7  0  -1077.4 20460015.3 -0.1  1 0  393  446  735
[59]  50(B14)  1  7  7  0  -3239.9 20460073.1 -0.1  1 0  455  531  541
[60]  52(B16)  1  7  7  0  -2458.1 20460046.9  0.1  1 0  550  517  277
[61]  55(B19)  1  7  7  0   2573.1 20459969.7  0.1  1 0  233  642  187
[62]  57(B21)  1  7  7  0  -2470.9 20460046.9 -0.1  1 0  445  444  625
t1:17026.009677,t2:17026.009677
dt:0.000000
$ini_pos,lastpos_good = 0,ini_pos.x:-0.000000,ini_pos.y:2150498990544607202280210432.000000,ini_pos.z:-0.000000
$GNGGA,121123.175,,,,,0,00,,,M,,,,0000*2A
$GNRMC,121123.175,A,,,,,,,070519,,*2D
$GPGSA,A,1,,,,,,,,,,,,,,,*1E
$BDGSA,A,1,,,,,,,,,,,,,,,*0F
$GLGSA,A,1,,,,,,,,,,,,,,,*02
$GPGSV,3,1,09,02,00,000,44,04,00,000,43,05,00,000,45,06,00,000,45*70
$GPGSV,3,2,09,09,00,000,41,12,00,000,45,17,00,000,44,19,00,000,43*76
$GPGSV,3,3,09,25,00,000,36*42
$BDGSV,3,1,12,01,00,000,41,02,00,000,40,03,00,000,42,04,00,000,40*6E
$BDGSV,3,2,12,06,00,000,40,08,00,000,42,10,00,000,40,12,00,000,43*67
$BDGSV,3,3,12,09,00,000,34,14,00,000,39,16,00,000,41,19,00,000,38*6B
$B3CN0,0,0,24,0,0,0,0,0,0,0,0,0,0,0*7A
---00000018--- Acq_st=7 0  2000-1-1 0:1:33 
[00]  01(G02)  f 43  7  0  -1734.6  2046002.2 -0.0  2 0 2055 2661 1137
[01]  03(G04)  f 42  7  0  -2272.2  2046002.9  0.0  2 0 1360 2434 1354
[02]  04(G05)  f 45  7  0  -3675.2  2046004.7  0.0  2 0 2156 3618 1477
[03]  05(G06)  f 44  8  0    -86.1  2046000.0 -0.1  2 0 2622 3593 1475
[04]  08(G09)  f 40  7  0  -1241.3  2046001.6 -0.1  2 0 1696 1855  676
[05]  11(G12)  f 45  7  0  -1743.7  2046002.2  0.0  2 0 2701 3898 1722
[06]  16(G17)  f 44  7  0    813.4  2045998.9 -0.0  2 0 2260 2752 1113
[08]  18(G19)  f 43  7  0    338.0  2045999.5 -0.0  2 0  959 2351 1236
[09]  24(G25)  7 36  7  0  -3436.3  2046004.3 -0.4  2 0 1245 1084  392
[16]  37(B01) 1f 41 13  0  -1128.8  4092002.8  0.3  2 0 1743 2324  839
[17]  38(B02) 1f 39 26  0  -1185.8  4092002.9  0.4  2 0 1590 1496  495
[18]  39(B03) 1f 42 28  0  -1138.0  4092002.9 -0.0  2 0 1793 2002 1299
[19]  40(B04) 1f 42 22  0  -1144.6  4092002.8  0.5  2 0 1345 1897 1131
[21]  42(B06) 1f 40  7  0  -2792.1  4092007.2 -0.0  2 0 1019 1688  874
[22]  44(B08)  7 41  7  0  -1190.4  4092003.0  0.0  2 0 1168 1639  776
[24]  46(B10) 1f 40  8  0    520.1  4091998.5 -0.0  2 0  786 1068  175
[25]  48(B12) 1f 44  7  0  -1292.7  4092003.3 -0.0  2 0 1609 2565 1349
[26]  45(B09)  7 34  7  0  -2677.8  4092007.0 -0.0  5 0  676  619  465
[27]  50(B14) 1f 39  8  0  -4430.9  4092011.5 -0.0  2 0  248  992  741
[28]  52(B16) 1f 41  7  0  -2921.2  4092007.5 -0.1  2 0 1220 1997 1126
[29]  55(B19) 1f 38  7  0   1891.1  4091994.9  0.2  2 0  672  849  554
[30]  57(B21) 1f 45 13  0  -2966.4  4092007.7  0.0  2 0 2718 3457 1334
[32]  75(N-6)  f 44  7  0    543.1  1021999.6 -0.0  2 0  1463 2332 1314
[33]  78(N-3)  f 45  7  0  -1461.6  1022000.9 -0.0  2 0  1880 3320 1453
[34]  79(N-2)  f 41  7  0  -3342.8  1022002.1  0.0  2 0   867 1403  669
[35]  80(N-1)  f 45  7  0  -3113.6  1022002.0 -0.0  2 0  1565 2600 1531
[36]  81(N00)  f 39  7  0  -2372.0  1022001.5 -0.0  2 0   819  808  490
[37]  84(N03)  f 45  7  0    781.9  1021999.5  0.0  2 0  1719 3078 1216
[38]  85(N04)  f 42  7  0  -5628.7  1022003.6 -0.0  2 0   772 1803 1098
[48]  37(B01)  7 19 10  1  -1776.3 20460027.8 -0.1  2 0  155  233  484
[49]  38(B02)  1 22 13  0   -377.9 20460018.7 -0.0  1 0  149  179  118
[50]  39(B03)  f 24 19  0  -1167.1 20460019.0  0.1  2 0  322  487  665
[51]  40(B04)  1 21 19  1  -1076.6 20460015.9  0.1  1 0  359  379  388
[53]  42(B06)  1  7  8  0  -1776.4 20460046.2 -0.1  1 0  567  932  702
[56]  46(B10)  1  7  7  0     74.0 20459992.0 -0.0  1 0  551  884  201
[57]  48(B12)  1  7  7  0  -1061.5 20460017.0  0.0  1 0  324  393  389
[59]  50(B14)  1  7  7  0  -3142.3 20460071.3 -0.2  1 0  434  319  400
[60]  52(B16)  1  7  7  0  -2054.8 20460046.1 -0.1  1 0  300  234  333
[61]  55(B19)  1  7  7  0   2500.2 20459969.9  0.0  1 0  255  393  361
[62]  57(B21)  1  7  7  0  -2649.3 20460046.5  0.1  1 0  397  401  423
t1:18026.009645,t2:18026.009645
dt:0.000000
$ini_pos,lastpos_good = 0,ini_pos.x:-0.000000,ini_pos.y:2150498990544607202280210432.000000,ini_pos.z:-0.000000
$GNGGA,121124.175,,,,,0,00,,,M,,,,0000*2D
$GNRMC,121124.175,A,,,,,,,070519,,*2A
$GPGSA,A,1,,,,,,,,,,,,,,,*1E
$BDGSA,A,1,,,,,,,,,,,,,,,*0F
$GLGSA,A,1,,,,,,,,,,,,,,,*02
$GPGSV,3,1,09,02,00,000,43,04,00,000,42,05,00,000,45,06,00,000,44*77
$GPGSV,3,2,09,09,00,000,40,12,00,000,45,17,00,000,44,19,00,000,43*77
$GPGSV,3,3,09,25,00,000,36*42
$BDGSV,3,1,12,01,00,000,41,02,00,000,39,03,00,000,42,04,00,000,42*62
$BDGSV,3,2,12,06,00,000,40,08,00,000,41,10,00,000,40,12,00,000,44*63
$BDGSV,3,3,12,09,00,000,34,14,00,000,39,16,00,000,41,19,00,000,38*6B
$B3CN0,19,0,24,0,0,0,0,0,0,0,0,0,0,0*42
---00000019--- Acq_st=7 0  2000-1-1 0:1:34 
[00]  01(G02)  f 44  7  0  -1732.8  2046002.2 -0.0  2 0 2726 3532 1365
[01]  03(G04)  f 43  7  0  -2274.0  2046002.9 -0.0  2 0  890 2555 1808
[02]  04(G05)  f 44  7  0  -3674.6  2046004.7 -0.0  2 0 2345 3858 1980
[03]  05(G06)  f 44  7  0    -88.5  2046000.0  0.0  2 0 1669 3309 1779
[04]  08(G09)  f 40  8  0  -1236.0  2046001.5  0.0  2 0 1216 1601  745
[05]  11(G12)  f 45  7  0  -1740.3  2046002.2 -0.0  2 0 2553 5004 2639
[06]  16(G17)  f 43  8  0    815.8  2045998.9 -0.0  2 0 2272 2982 1419
[08]  18(G19)  f 43 10  0    342.7  2045999.5  0.0  2 0 1781 3428 1572
[09]  24(G25)  7 37  8  0  -3446.2  2046004.4 -0.6  2 0  383  958  480
[16]  37(B01) 1f 41 19  0  -1130.4  4092002.9 -0.7  2 0 1097 1464  806
[17]  38(B02) 1f 37 21  0  -1189.3  4092003.1 -0.9  2 0  720 1107  497
[18]  39(B03) 1f 43 28  0  -1133.3  4092002.9 -0.0  2 0 1624 1909  531
[19]  40(B04) 1f 41 16  0  -1149.3  4092003.0 -0.1  2 0 1923 1777  186
[21]  42(B06) 1f 40  7  0  -2797.4  4092007.2  0.0  2 0 1173 1289  335
[22]  44(B08)  7 42  7  0  -1198.3  4092003.0  0.1  2 0 1219 1996  864
[24]  46(B10) 1f 40  7  0    526.9  4091998.5 -0.1  2 0  817 1003  260
[25]  48(B12) 1f 43  7  0  -1291.6  4092003.3  0.0  2 0 1707 2487  937
[26]  45(B09)  7 34  7  0  -2677.6  4092006.9 -0.1  5 0  446  940  427
[27]  50(B14) 1f 39  7  0  -4429.8  4092011.5  0.1  2 0  904 1497  689
[28]  52(B16) 1f 42  7  0  -2920.1  4092007.5  0.1  2 0 1535 1689  716
[29]  55(B19) 1f 38  7  0   1895.8  4091994.9 -0.0  2 0  402  676  257
[30]  57(B21) 1f 45 12  0  -2967.5  4092007.7 -0.0  2 0 3257 4256 1358
[32]  75(N-6)  f 45  7  0    544.2  1021999.6  0.0  2 0  1449 2531 1171
[33]  78(N-3)  f 46  7  0  -1461.9  1022000.9  0.1  2 0  2205 3326 1502
[34]  79(N-2)  f 41  7  0  -3343.5  1022002.1  0.0  2 0   420 1251  900
[35]  80(N-1)  f 45  7  0  -3113.3  1022002.0 -0.0  2 0  1623 2864 1339
[36]  81(N00)  f 39  7  0  -2374.5  1022001.4  0.1  2 0   563  927  736
[37]  84(N03)  f 46  7  0    781.9  1021999.5 -0.0  2 0  1797 2954 1394
[38]  85(N04)  f 42  7  0  -5629.8  1022003.6  0.1  2 0   786 1370  439
[48]  37(B01)  7 10 10  0  -1715.4 20460027.3 -0.1  2 0  399  246  327
[49]  38(B02)  1 18 10  0   -411.2 20460021.5  0.0  1 0  283  169  265
[50]  39(B03)  f 10 21  0  -1258.2 20460019.9 -0.2  2 0  305  289  267
[51]  40(B04)  1 36 20  0  -1011.7 20460023.0  0.0  1 0  232  486  282
[53]  42(B06)  1  7  7  0  -1781.3 20460044.4 -0.1  1 0  769  392  366
[56]  46(B10)  1  7  7  0   -385.3 20459992.8  0.1  1 0  381  384  519
[57]  48(B12)  1  7  7  0  -1059.5 20460017.2 -0.0  1 0  395  854  394
[59]  50(B14)  1  7  7  0  -3338.0 20460071.3  0.1  1 0  335  164  445
[60]  52(B16)  1  7  7  0  -2067.8 20460046.7  0.1  1 0  244  477  451
[61]  55(B19)  1  7  7  0   1932.4 20459969.9 -0.0  1 0  234  135  210
[62]  57(B21)  1  7  8  0  -3264.4 20460049.4 -0.1  1 0   52  229  200
t1:19026.009613,t2:19026.009613
dt:0.000000
$ini_pos,lastpos_good = 0,ini_pos.x:-0.000000,ini_pos.y:2150498990544607202280210432.000000,ini_pos.z:-0.000000
$GNGGA,121125.175,,,,,0,00,,,M,,,,0000*2C
$GNRMC,121125.175,A,,,,,,,070519,,*2B
$GPGSA,A,1,,,,,,,,,,,,,,,*1E
$BDGSA,A,1,,,,,,,,,,,,,,,*0F
$GLGSA,A,1,,,,,,,,,,,,,,,*02
$GPGSV,3,1,09,02,00,000,44,04,00,000,43,05,00,000,44,06,00,000,44*70
$GPGSV,3,2,09,09,00,000,40,12,00,000,45,17,00,000,43,19,00,000,43*70
$GPGSV,3,3,09,25,00,000,37*43
$BDGSV,3,1,12,01,00,000,41,02,00,000,37,03,00,000,43,04,00,000,41*6E
$BDGSV,3,2,12,06,00,000,40,08,00,000,42,10,00,000,40,12,00,000,43*67
$BDGSV,3,3,12,09,00,000,34,14,00,000,39,16,00,000,42,19,00,000,38*68
$B3CN0,0,0,0,0,0,0,0,0,0,0,0,0,0,0*4C
---00000020--- Acq_st=3 0  2000-1-1 0:1:35 
[00]  01(G02)  f 43  7  0  -1734.7  2046002.2  0.1  2 0 1682 2914 1702
[01]  03(G04)  f 42  7  0  -2270.1  2046002.9  0.0  2 0 1046 1739  846
[02]  04(G05)  f 44  7  0  -3676.6  2046004.7 -0.0  2 0 2177 3395 1353
[03]  05(G06)  f 44  8  0    -89.2  2046000.1 -0.0  2 0 2193 3296 1597
[04]  08(G09)  f 40 11  0  -1235.3  2046001.6 -0.0  2 0 1356 1859 1070
[05]  11(G12)  f 45  7  0  -1744.4  2046002.2  0.0  2 0 3014 4504 1733
[06]  16(G17)  f 44  7  0    812.2  2045998.9 -0.0  2 0 1951 2438 1156
[08]  18(G19)  f 42  7  0    335.9  2045999.5 -0.0  2 0 1697 2709 1539
[09]  24(G25)  f 37  7  0  -3447.0  2046004.4  0.4  2 0  730 1196  705
[16]  37(B01) 1f 41 26  0  -1129.7  4092002.8 -0.1  2 0  969 1310  366
[17]  38(B02) 1f 40 26  0  -1187.5  4092003.0  0.3  2 0 1331 1574  723
[18]  39(B03) 1f 43 27  0  -1140.4  4092002.8  0.3  2 0 1502 1956  832
[19]  40(B04) 1f 41 19  0  -1147.7  4092002.9 -0.0  2 0 1180 1375  658
[21]  42(B06) 1f 40  7  0  -2796.8  4092007.2 -0.0  2 0  946 1656 1423
[22]  44(B08)  7 42  7  0  -1198.5  4092003.0  0.0  2 0 2010 1825  816
[24]  46(B10) 1f 40  8  0    529.3  4091998.5  0.1  2 0 1395 1667  775
[25]  48(B12) 1f 43  7  0  -1295.3  4092003.3  0.0  2 0 1760 2449  885
[26]  45(B09)  7 34  7  0  -2687.7  4092006.9  0.1  5 0  221  505  222
[27]  50(B14) 1f 39  7  0  -4429.6  4092011.5 -0.1  2 0  931 1652  907
[28]  52(B16) 1f 41  7  0  -2920.6  4092007.6 -0.1  2 0  639 1335  777
[29]  55(B19) 1f 38  7  0   1893.5  4091994.9  0.1  2 0  869 1455 1044
[30]  57(B21) 1f 45  9  0  -2965.6  4092007.7  0.0  2 0 2595 3658 1343
[32]  75(N-6)  f 45  7  0    542.3  1021999.6 -0.0  2 0   907 2098 1220
[33]  78(N-3)  f 47  7  0  -1464.5  1022000.9 -0.0  2 0  1703 3167 1451
[34]  79(N-2)  f 41  7  0  -3346.1  1022002.1  0.0  2 0   871 1159  155
[35]  80(N-1)  f 46  7  0  -3113.7  1022002.0  0.1  2 0  1688 3128 1532
[36]  81(N00)  f 39  7  0  -2373.1  1022001.5 -0.1  2 0   476  853  492
[37]  84(N03)  f 46  7  0    779.9  1021999.5  0.0  2 0  1657 3004 1478
[38]  85(N04)  f 42  7  0  -5630.9  1022003.5  0.0  2 0   866 1397  970
[48]  37(B01)  7 14 17  1  -2246.1 20460036.3 -0.1  2 0  705  276  217
[50]  39(B03)  f 19 14  1  -2152.2 20460033.0  0.1  2 0  184  307  168
[51]  40(B04)  1 23 16  1   -989.5 20460019.6 -0.1  1 0  561  627  424
t1:20026.009581,t2:20026.009581
dt:0.000000
$ini_pos,lastpos_good = 0,ini_pos.x:-0.000000,ini_pos.y:2150498990544607202280210432.000000,ini_pos.z:-0.000000
$GNGGA,121126.175,,,,,0,00,,,M,,,,0000*2F
$GNRMC,121126.175,A,,,,,,,070519,,*28
$GPGSA,A,1,,,,,,,,,,,,,,,*1E
$BDGSA,A,1,,,,,,,,,,,,,,,*0F
$GLGSA,A,1,,,,,,,,,,,,,,,*02
$GPGSV,3,1,09,02,00,000,43,04,00,000,42,05,00,000,44,06,00,000,44*76
$GPGSV,3,2,09,09,00,000,40,12,00,000,45,17,00,000,44,19,00,000,42*76
$GPGSV,3,3,09,25,00,000,37*43
$BDGSV,3,1,12,01,00,000,41,02,00,000,40,03,00,000,43,04,00,000,41*6E
$BDGSV,3,2,12,06,00,000,40,08,00,000,42,10,00,000,40,12,00,000,43*67
$BDGSV,3,3,12,09,00,000,34,14,00,000,39,16,00,000,41,19,00,000,38*6B
$B3CN0,0,0,19,0,0,0,0,0,0,0,0,0,0,0*74
---00000021--- Acq_st=3 0  2000-1-1 0:1:36 
[00]  01(G02)  f 44  7  0  -1737.6  2046002.2 -0.1  2 0 1855 3163 1449
[01]  03(G04)  f 43  7  0  -2270.8  2046002.9  0.0  2 0 1653 2636  825
[02]  04(G05)  f 44  7  0  -3672.5  2046004.7  0.0  2 0 1937 3676 1494
[03]  05(G06)  f 44  7  0    -85.7  2046000.1 -0.0  2 0 2455 3888 1867
[04]  08(G09)  f 40  7  0  -1239.6  2046001.6  0.0  2 0 1261 1800  670
[05]  11(G12)  f 45  7  0  -1742.7  2046002.2  0.0  2 0 2228 3872 1853
[06]  16(G17)  f 44  7  0    812.8  2045998.9  0.1  2 0 2030 2624 1150
[08]  18(G19)  f 43  7  0    340.4  2045999.5 -0.0  2 0 1571 3125 1371
[09]  24(G25)  f 37  7  0  -3438.1  2046004.4 -0.1  2 0  780  907  787
[16]  37(B01) 1f 41 17  0  -1128.9  4092002.8 -0.2  2 0 1014 1439  658
[17]  38(B02) 1f 38 22  0  -1188.7  4092003.0 -0.1  2 0  650 1017  205
[18]  39(B03) 1f 42 28  0  -1142.4  4092002.9  0.1  2 0 1639 2184  936
[19]  40(B04) 1f 40 25  0  -1150.9  4092002.9  0.2  2 0 1409 1645  957
[21]  42(B06) 1f 40  7  0  -2798.1  4092007.2 -0.0  2 0 1225 1329  585
[22]  44(B08)  7 41  7  0  -1200.5  4092003.0  0.0  2 0 1495 1502  779
[24]  46(B10) 1f 40 10  0    519.8  4091998.5 -0.0  2 0 1282 1379  473
[25]  48(B12) 1f 43  7  0  -1295.7  4092003.3  0.0  2 0 2254 2380  796
[26]  45(B09)  7 34  7  0  -2685.4  4092006.9 -0.2  5 0  620  463  237
[27]  50(B14) 1f 39  7  0  -4431.5  4092011.5 -0.1  2 0 1155 1514  529
[28]  52(B16) 1f 41  7  0  -2920.8  4092007.5 -0.0  2 0 1462 2274 1167
[29]  55(B19) 1f 38  7  0   1897.4  4091994.9  0.1  2 0 1506 1195  351
[30]  57(B21) 1f 45 13  0  -2965.2  4092007.7 -0.0  2 0 3027 3857 1559
[32]  75(N-6)  f 45  7  0    544.0  1021999.6  0.0  2 0  1172 2238 1023
[33]  78(N-3)  f 46  7  0  -1463.7  1022000.9  0.0  2 0  1862 3088 1398
[34]  79(N-2)  f 41  7  0  -3347.0  1022002.1  0.1  2 0   413 1198  770
[35]  80(N-1)  f 46  7  0  -3112.5  1022002.0 -0.1  2 0  1334 2788 1429
[36]  81(N00)  f 39  7  0  -2375.1  1022001.5  0.5  2 0   708 1141  364
[37]  84(N03)  f 46  7  0    780.2  1021999.5 -0.0  2 0  1358 2957 1738
[38]  85(N04)  f 42  7  0  -5630.5  1022003.6  0.1  2 0   811 1560  918
[49]  38(B02)  1 10 14  1  -1107.4 20460024.2  0.0  1 0  303  396  273
[50]  39(B03)  f 21 19  0  -2591.7 20460040.9  0.0  2 0  546  430  533
[51]  40(B04)  1 22 16  1   -813.1 20460021.3  0.1  1 0  392  564  469
[53]  42(B06)  1  7  8  0  -1984.8 20460044.6 -0.0  1 0  291  141  135
[56]  46(B10)  1  7  7  0    290.8 20459993.6 -0.1  1 0  805  489  230
[57]  48(B12)  1  7  7  0  -1037.0 20460016.5  0.1  1 0  369  454  808
[59]  50(B14)  1  7  7  0  -3376.0 20460071.6 -0.1  1 0  317  400  179
[60]  52(B16)  1  7  7  0  -1854.9 20460048.7  0.1  1 0  367  340  606
[61]  55(B19)  1  7 10  0   1536.1 20459970.3 -0.0  1 0  503  847 1079
[62]  57(B21)  1  7  7  0  -2683.8 20460045.7 -0.0  1 0  387  465  229
t1:21026.009548,t2:21026.009548
dt:0.000000
$ini_pos,lastpos_good = 0,ini_pos.x:-0.000000,ini_pos.y:2150498990544607202280210432.000000,ini_pos.z:-0.000000
$GNGGA,121127.175,,,,,0,00,,,M,,,,0000*2E
$GNRMC,121127.175,A,,,,,,,070519,,*29
$GPGSA,A,1,,,,,,,,,,,,,,,*1E
$BDGSA,A,1,,,,,,,,,,,,,,,*0F
$GLGSA,A,1,,,,,,,,,,,,,,,*02
$GPGSV,3,1,09,02,00,000,44,04,00,000,43,05,00,000,44,06,00,000,44*70
$GPGSV,3,2,09,09,00,000,40,12,00,000,45,17,00,000,44,19,00,000,43*77
$GPGSV,3,3,09,25,00,000,37*43
$BDGSV,3,1,12,01,00,000,41,02,00,000,38,03,00,000,43,04,00,000,41*61
$BDGSV,3,2,12,06,00,000,40,08,00,000,42,10,00,000,40,12,00,000,43*67
$BDGSV,3,3,12,09,00,000,34,14,00,000,39,16,00,000,41,19,00,000,38*6B
$B3CN0,0,0,20,0,0,0,0,0,0,0,0,0,0,0*7E
---00000022--- Acq_st=3 0  2000-1-1 0:1:37 
[00]  01(G02)  f 44  8  0  -1736.8  2046002.2  0.0  2 0 1976 2414  979
[01]  03(G04)  f 42 12  0  -2271.0  2046002.9 -0.0  2 0 1698 1995  434
[02]  04(G05)  f 44  7  0  -3673.9  2046004.7  0.0  2 0 2172 3353 1370
[03]  05(G06)  f 44  7  0    -85.7  2046000.1 -0.0  2 0 2487 3845 1982
[04]  08(G09)  f 40  7  0  -1238.2  2046001.5  0.0  2 0 1290 1830  873
[05]  11(G12)  f 45  7  0  -1740.8  2046002.2 -0.0  2 0 2632 4499 2083
[06]  16(G17)  f 43  7  0    813.0  2045998.9 -0.0  2 0 1763 2511 1167
[08]  18(G19)  f 43  7  0    341.5  2045999.5  0.0  2 0 1968 2882 1582
[09]  24(G25)  f 37  7  0  -3441.2  2046004.4  0.2  2 0  803 1162  326
[16]  37(B01) 1f 41 10  0  -1128.7  4092002.8  0.0  2 0 1247 1957 1109
[17]  38(B02) 1f 37 27  0  -1188.8  4092003.0 -0.2  2 0  702  787  457
[18]  39(B03) 1f 42 31  0  -1140.3  4092002.9 -0.1  2 0 1522 2084  882
[19]  40(B04) 1f 40 23  0  -1143.3  4092002.9 -0.1  2 0 1381 1636  535
[20]  41(B05)  1 10 10  0  -1596.3  4092003.0 -0.0  1 0  709  852  716
[21]  42(B06) 1f 40  7  0  -2802.2  4092007.2  0.1  2 0 1161 1401  306
[22]  44(B08) 1f 41  7  0  -1195.4  4092003.0 -0.0  2 0 1212 1198  245
[24]  46(B10) 1f 39  7  0    520.3  4091998.5  0.0  2 0  784 1326  911
[25]  48(B12) 1f 43  7  0  -1293.0  4092003.3  0.0  2 0 1896 2603  921
[26]  45(B09) 1f 34  7  0  -2685.0  4092007.0  0.0  5 0  367  407  134
[27]  50(B14) 1f 39  7  0  -4428.3  4092011.5 -0.0  2 0 1062 1439  411
[28]  52(B16) 1f 41  7  0  -2918.6  4092007.5 -0.1  2 0 1845 2228  840
[29]  55(B19) 1f 38  7  0   1900.6  4091994.8  0.0  2 0 1143  849  262
[30]  57(B21) 1f 45 15  0  -2966.2  4092007.7  0.0  2 0 3113 4101 1505
[32]  75(N-6)  f 45  7  0    545.5  1021999.6 -0.0  2 0  1442 2283 1108
[33]  78(N-3)  f 46  7  0  -1462.1  1022000.9 -0.1  2 0  1880 3174 1588
[34]  79(N-2)  f 41  7  0  -3343.7  1022002.1  0.1  2 0   710  890  617
[35]  80(N-1)  f 46  7  0  -3111.7  1022002.0  0.1  2 0  1639 2867 1461
[36]  81(N00)  f 39  7  0  -2373.7  1022001.4  0.1  2 0   688  902  497
[37]  84(N03)  f 46  7  0    781.2  1021999.5 -0.0  2 0  1731 2736 1409
[38]  85(N04)  f 42  7  0  -5631.7  1022003.6 -0.0  2 0   984 1305  743
[48]  37(B01)  1 10 16  1   -952.2 20460019.0 -0.1  1 0  121  412  610
[49]  38(B02)  1 10 19  1  -1437.8 20460020.9 -0.0  1 0  376  323  429
