SD initialized success
Create debug.log Failed! 3
bbram_blkflag = 1
rtcflag = 128
BBRAM Block OK: 01 EPHflag: 282314c5 2c0012db, rtc 80
GPS 0 Init Dop: 10000,80
GPS 1 Init Dop: 10000,80
GPS 2 Init Dop: 10000,80
GPS 3 Init Dop: 10000,80
GPS 4 Init Dop: 10000,80
GPS 5 Init Dop: 10000,80
GPS 6 Init Dop: 10000,80
GPS 7 Init Dop: 10000,80
GPS 8 Init Dop: 10000,80
GPS 9 Init Dop: 10000,80
GPS10 Init Dop: 10000,80
GPS11 Init Dop: 10000,80
GPS12 Init Dop: 10000,80
GPS13 Init Dop: 10000,80
GPS14 Init Dop: 10000,80
GPS15 Init Dop: 10000,80
GPS16 Init Dop: 10000,80
GPS17 Init Dop: 10000,80
GPS18 Init Dop: 10000,80
GPS19 Init Dop: 10000,80
GPS20 Init Dop: 10000,80
GPS21 Init Dop: 10000,80
GPS22 Init Dop: 10000,80
GPS23 Init Dop: 10000,80
GPS24 Init Dop: 10000,80
GPS25 Init Dop: 10000,80
GPS26 Init Dop: 10000,80
GPS27 Init Dop: 10000,80
GPS28 Init Dop: 10000,80
GPS29 Init Dop: 10000,80
GPS30 Init Dop: 10000,80
GPS31 Init Dop: 10000,80
BDS 0 Init Dop: 10000,80
BDS 1 Init Dop: 10000,80
BDS 2 Init Dop: 10000,80
BDS 3 Init Dop: 10000,80
BDS 4 Init Dop: 10000,80
BDS 5 Init Dop: 10000,80
BDS 6 Init Dop: 10000,80
BDS 7 Init Dop: 10000,80
BDS 8 Init Dop: 10000,80
BDS 9 Init Dop: 10000,80
BDS10 Init Dop: 10000,80
BDS11 Init Dop: 10000,80
BDS12 Init Dop: 10000,80
BDS13 Init Dop: 10000,80
BDS14 Init Dop: 10000,80
BDS15 Init Dop: 10000,80
BDS16 Init Dop: 10000,80
BDS17 Init Dop: 10000,80
BDS18 Init Dop: 10000,80
BDS19 Init Dop: 10000,80
BDS20 Init Dop: 10000,80
BDS21 Init Dop: 10000,80
BDS22 Init Dop: 10000,80
BDS23 Init Dop: 10000,80
BDS24 Init Dop: 10000,80
BDS25 Init Dop: 10000,80
BDS26 Init Dop: 10000,80
BDS27 Init Dop: 10000,80
BDS28 Init Dop: 10000,80
BDS29 Init Dop: 10000,80
BDS30 Init Dop: 10000,80
BDS31 Init Dop: 10000,80
Good luck!
$ini_pos,lastpos_good = 0,ini_pos.x:-2046739898144079604584181494893243150538612660687552759866211436395811498176008283937217445670253342138979921839890088464044843714967523004413381681481950795692746949771761461944886978122913274336967586102276507303936.000000,ini_pos.y:0.000000,ini_pos.z:0.000000
$GNGGA,000000.000,,,,,0,00,,,M,,,,0000*2B
$GNRMC,000000.000,A,,,,,,,060180,,*29
$GPGSA,A,1,,,,,,,,,,,,,,,*1E
$BDGSA,A,1,,,,,,,,,,,,,,,*0F
$GLGSA,A,1,,,,,,,,,,,,,,,*02
$B3CN0,0,0,0,0,0,0,0,0,0,0,0,0,0,0*4C
$ini_pos,lastpos_good = 0,ini_pos.x:-2046739898144079604584181494893243150538612660687552759866211436395811498176008283937217445670253342138979921839890088464044843714967523004413381681481950795692746949771761461944886978122913274336967586102276507303936.000000,ini_pos.y:0.000000,ini_pos.z:0.000000
$GNGGA,000000.000,,,,,0,00,,,M,,,,0000*2B
$GNRMC,000000.000,A,,,,,,,060180,,*29
$GPGSA,A,1,,,,,,,,,,,,,,,*1E
$BDGSA,A,1,,,,,,,,,,,,,,,*0F
$GLGSA,A,1,,,,,,,,,,,,,,,*02
$B3CN0,0,0,0,0,0,0,0,0,0,0,0,0,0,0*4C
$ini_pos,lastpos_good = 0,ini_pos.x:-2046739898144079604584181494893243150538612660687552759866211436395811498176008283937217445670253342138979921839890088464044843714967523004413381681481950795692746949771761461944886978122913274336967586102276507303936.000000,ini_pos.y:0.000000,ini_pos.z:0.000000
$GNGGA,000000.000,,,,,0,00,,,M,,,,0000*2B
$GNRMC,000000.000,A,,,,,,,060180,,*29
$GPGSA,A,1,,,,,,,,,,,,,,,*1E
$BDGSA,A,1,,,,,,,,,,,,,,,*0F
$GLGSA,A,1,,,,,,,,,,,,,,,*02
$GPGSV,1,1,01,01,00,000,25*4E
$B3CN0,0,0,0,0,0,0,0,0,0,0,0,0,0,0*4C
$ini_pos,lastpos_good = 0,ini_pos.x:-2046739898144079604584181494893243150538612660687552759866211436395811498176008283937217445670253342138979921839890088464044843714967523004413381681481950795692746949771761461944886978122913274336967586102276507303936.000000,ini_pos.y:0.000000,ini_pos.z:0.000000
$GNGGA,000000.000,,,,,0,00,,,M,,,,0000*2B
$GNRMC,000000.000,A,,,,,,,060180,,*29
$GPGSA,A,1,,,,,,,,,,,,,,,*1E
$BDGSA,A,1,,,,,,,,,,,,,,,*0F
$GLGSA,A,1,,,,,,,,,,,,,,,*02
$GPGSV,2,1,05,01,00,000,45,06,00,000,36,07,00,000,36,11,00,000,30*7D
$GPGSV,2,2,05,17,00,000,18*43
$B3CN0,0,0,0,0,0,0,0,0,0,0,0,0,0,0*4C
tow update,374065443.637144
$ini_pos,lastpos_good = 0,ini_pos.x:-2046739898144079604584181494893243150538612660687552759866211436395811498176008283937217445670253342138979921839890088464044843714967523004413381681481950795692746949771761461944886978122913274336967586102276507303936.000000,ini_pos.y:0.000000,ini_pos.z:0.000000
$GNGGA,075407.444,,,,,0,00,,,M,,,,0000*2E
$GNRMC,075407.444,A,,,,,,,100180,,*2B
$GPGSA,A,1,,,,,,,,,,,,,,,*1E
$BDGSA,A,1,,,,,,,,,,,,,,,*0F
$GLGSA,A,1,,,,,,,,,,,,,,,*02
$GPGSV,3,1,09,01,00,000,45,06,00,000,40,07,00,000,41,11,00,000,43*75
$GPGSV,3,2,09,17,00,000,45,18,00,000,38,22,00,000,33,28,00,000,25*79
$GPGSV,3,3,09,30,00,000,22*43
$B3CN0,0,0,0,0,0,0,0,0,0,0,0,0,0,0*4C
$ini_pos,lastpos_good = 0,ini_pos.x:-2046739898144079604584181494893243150538612660687552759866211436395811498176008283937217445670253342138979921839890088464044843714967523004413381681481950795692746949771761461944886978122913274336967586102276507303936.000000,ini_pos.y:0.000000,ini_pos.z:0.000000
$GNGGA,075408.444,,,,,0,00,,,M,,,,0000*21
$GNRMC,075408.444,A,,,,,,,100180,,*24
$GPGSA,A,1,,,,,,,,,,,,,,,*1E
$BDGSA,A,1,,,,,,,,,,,,,,,*0F
$GLGSA,A,1,,,,,,,,,,,,,,,*02
$GPGSV,3,1,09,01,00,000,45,06,00,000,40,07,00,000,41,11,00,000,43*75
$GPGSV,3,2,09,17,00,000,44,18,00,000,38,22,00,000,43,28,00,000,44*78
$GPGSV,3,3,09,30,00,000,45*42
$BDGSV,1,1,04,01,00,000,41,02,00,000,40,03,00,000,17,04,00,000,41*6A
$B3CN0,0,0,0,0,0,0,0,0,0,0,0,0,0,0*4C
$ini_pos,lastpos_good = 0,ini_pos.x:-2046739898144079604584181494893243150538612660687552759866211436395811498176008283937217445670253342138979921839890088464044843714967523004413381681481950795692746949771761461944886978122913274336967586102276507303936.000000,ini_pos.y:0.000000,ini_pos.z:0.000000
$GNGGA,075409.444,,,,,0,00,,,M,,,,0000*20
$GNRMC,075409.444,A,,,,,,,100180,,*25
$GPGSA,A,1,,,,,,,,,,,,,,,*1E
$BDGSA,A,1,,,,,,,,,,,,,,,*0F
$GLGSA,A,1,,,,,,,,,,,,,,,*02
$GPGSV,3,1,09,01,00,000,44,06,00,000,40,07,00,000,42,11,00,000,43*77
$GPGSV,3,2,09,17,00,000,44,18,00,000,38,22,00,000,43,28,00,000,44*78
$GPGSV,3,3,09,30,00,000,44*43
$BDGSV,2,1,08,01,00,000,41,02,00,000,40,03,00,000,18,04,00,000,39*65
$BDGSV,2,2,08,07,00,000,43,08,00,000,39,10,00,000,32,13,00,000,24*66
$B3CN0,0,0,0,0,0,0,0,0,0,0,0,0,0,0*4C
$ini_pos,lastpos_good = 0,ini_pos.x:-2046739898144079604584181494893243150538612660687552759866211436395811498176008283937217445670253342138979921839890088464044843714967523004413381681481950795692746949771761461944886978122913274336967586102276507303936.000000,ini_pos.y:0.000000,ini_pos.z:0.000000
$GNGGA,075410.444,,,,,0,00,,,M,,,,0000*28
$GNRMC,075410.444,A,,,,,,,100180,,*2D
$GPGSA,A,1,,,,,,,,,,,,,,,*1E
$BDGSA,A,1,,,,,,,,,,,,,,,*0F
$GLGSA,A,1,,,,,,,,,,,,,,,*02
$GPGSV,3,1,09,01,00,000,44,06,00,000,41,07,00,000,41,11,00,000,43*75
$GPGSV,3,2,09,17,00,000,44,18,00,000,38,22,00,000,42,28,00,000,44*79
$GPGSV,3,3,09,30,00,000,44*43
$BDGSV,2,1,07,01,00,000,40,02,00,000,40,04,00,000,40,07,00,000,43*6F
$BDGSV,2,2,07,08,00,000,43,10,00,000,43,13,00,000,44*54
$B3CN0,0,0,0,0,0,0,0,0,0,0,0,0,0,0*4C
$ini_pos,lastpos_good = 0,ini_pos.x:-2046739898144079604584181494893243150538612660687552759866211436395811498176008283937217445670253342138979921839890088464044843714967523004413381681481950795692746949771761461944886978122913274336967586102276507303936.000000,ini_pos.y:0.000000,ini_pos.z:0.000000
$GNGGA,075411.444,,,,,0,00,,,M,,,,0000*29
$GNRMC,075411.444,A,,,,,,,100180,,*2C
$GPGSA,A,1,,,,,,,,,,,,,,,*1E
$BDGSA,A,1,,,,,,,,,,,,,,,*0F
$GLGSA,A,1,,,,,,,,,,,,,,,*02
$GPGSV,3,1,09,01,00,000,45,06,00,000,41,07,00,000,42,11,00,000,43*77
$GPGSV,3,2,09,17,00,000,43,18,00,000,37,22,00,000,43,28,00,000,44*70
$GPGSV,3,3,09,30,00,000,45*42
$BDGSV,2,1,07,01,00,000,41,02,00,000,40,04,00,000,42,07,00,000,43*6C
$BDGSV,2,2,07,08,00,000,43,10,00,000,43,13,00,000,43*53
$B3CN0,0,0,0,0,0,0,0,0,0,0,0,0,0,0*4C
$ini_pos,lastpos_good = 0,ini_pos.x:-2046739898144079604584181494893243150538612660687552759866211436395811498176008283937217445670253342138979921839890088464044843714967523004413381681481950795692746949771761461944886978122913274336967586102276507303936.000000,ini_pos.y:0.000000,ini_pos.z:0.000000
$GNGGA,075412.444,,,,,0,00,,,M,,,,0000*2A
$GNRMC,075412.444,A,,,,,,,100180,,*2F
$GPGSA,A,1,,,,,,,,,,,,,,,*1E
$BDGSA,A,1,,,,,,,,,,,,,,,*0F
$GLGSA,A,1,,,,,,,,,,,,,,,*02
$GPGSV,3,1,09,01,00,000,45,06,00,000,40,07,00,000,41,11,00,000,42*74
$GPGSV,3,2,09,17,00,000,44,18,00,000,37,22,00,000,42,28,00,000,44*76
$GPGSV,3,3,09,30,00,000,44*43
$BDGSV,3,1,09,01,00,000,42,02,00,000,40,04,00,000,40,07,00,000,42*63
$BDGSV,3,2,09,08,00,000,43,10,00,000,43,13,00,000,43,27,00,000,44*69
$BDGSV,3,3,09,30,00,000,45*53
$B3CN0,0,0,0,0,0,0,0,0,0,0,0,0,0,0*4C
$ini_pos,lastpos_good = 0,ini_pos.x:-2046739898144079604584181494893243150538612660687552759866211436395811498176008283937217445670253342138979921839890088464044843714967523004413381681481950795692746949771761461944886978122913274336967586102276507303936.000000,ini_pos.y:0.000000,ini_pos.z:0.000000
$GNGGA,075413.444,,,,,0,00,,,M,,,,0000*2B
$GNRMC,075413.444,A,,,,,,,100180,,*2E
$GPGSA,A,1,,,,,,,,,,,,,,,*1E
$BDGSA,A,1,,,,,,,,,,,,,,,*0F
$GLGSA,A,1,,,,,,,,,,,,,,,*02
$GPGSV,3,1,09,01,00,000,45,06,00,000,41,07,00,000,42,11,00,000,43*77
$GPGSV,3,2,09,17,00,000,44,18,00,000,37,22,00,000,43,28,00,000,44*77
$GPGSV,3,3,09,30,00,000,44*43
$BDGSV,3,1,09,01,00,000,41,02,00,000,40,04,00,000,40,07,00,000,42*60
$BDGSV,3,2,09,08,00,000,42,10,00,000,43,13,00,000,43,27,00,000,44*68
$BDGSV,3,3,09,30,00,000,44*52
$B3CN0,0,25,0,0,0,0,0,0,0,0,0,0,0,0*7B
$ini_pos,lastpos_good = 0,ini_pos.x:-2046739898144079604584181494893243150538612660687552759866211436395811498176008283937217445670253342138979921839890088464044843714967523004413381681481950795692746949771761461944886978122913274336967586102276507303936.000000,ini_pos.y:0.000000,ini_pos.z:0.000000
$GNGGA,075414.444,,,,,0,00,,,M,,,,0000*2C
$GNRMC,075414.444,A,,,,,,,100180,,*29
$GPGSA,A,1,,,,,,,,,,,,,,,*1E
$BDGSA,A,1,,,,,,,,,,,,,,,*0F
$GLGSA,A,1,,,,,,,,,,,,,,,*02
$GPGSV,3,1,10,01,00,000,45,03,00,000,21,06,00,000,41,07,00,000,41*7B
$GPGSV,3,2,10,11,00,000,42,17,00,000,44,18,00,000,37,22,00,000,43*73
$GPGSV,3,3,10,28,00,000,44,30,00,000,44*71
$BDGSV,3,1,09,01,00,000,41,02,00,000,40,04,00,000,40,07,00,000,43*61
$BDGSV,3,2,09,08,00,000,43,10,00,000,43,13,00,000,43,27,00,000,44*69
$BDGSV,3,3,09,30,00,000,44*52
$B3CN0,0,0,0,0,0,0,0,0,0,0,0,0,0,0*4C
$ini_pos,lastpos_good = 0,ini_pos.x:-2046739898144079604584181494893243150538612660687552759866211436395811498176008283937217445670253342138979921839890088464044843714967523004413381681481950795692746949771761461944886978122913274336967586102276507303936.000000,ini_pos.y:0.000000,ini_pos.z:0.000000
$GNGGA,075415.444,,,,,0,00,,,M,,,,0000*2D
$GNRMC,075415.444,A,,,,,,,100180,,*28
$GPGSA,A,1,,,,,,,,,,,,,,,*1E
$BDGSA,A,1,,,,,,,,,,,,,,,*0F
$GLGSA,A,1,,,,,,,,,,,,,,,*02
$GPGSV,3,1,10,01,00,000,45,03,00,000,39,06,00,000,40,07,00,000,42*70
$GPGSV,3,2,10,11,00,000,42,17,00,000,45,18,00,000,38,22,00,000,42*7C
$GPGSV,3,3,10,28,00,000,45,30,00,000,44*70
$BDGSV,3,1,09,01,00,000,41,02,00,000,40,04,00,000,39,07,00,000,42*6E
$BDGSV,3,2,09,08,00,000,43,10,00,000,43,13,00,000,43,27,00,000,44*69
$BDGSV,3,3,09,30,00,000,44*52
$B3CN0,0,0,0,0,0,0,0,0,0,0,0,0,0,0*4C
$ini_pos,lastpos_good = 0,ini_pos.x:-2046739898144079604584181494893243150538612660687552759866211436395811498176008283937217445670253342138979921839890088464044843714967523004413381681481950795692746949771761461944886978122913274336967586102276507303936.000000,ini_pos.y:0.000000,ini_pos.z:0.000000
$GNGGA,075416.444,,,,,0,00,,,M,,,,0000*2E
$GNRMC,075416.444,A,,,,,,,100180,,*2B
$GPGSA,A,1,,,,,,,,,,,,,,,*1E
$BDGSA,A,1,,,,,,,,,,,,,,,*0F
$GLGSA,A,1,,,,,,,,,,,,,,,*02
$GPGSV,3,1,10,01,00,000,45,03,00,000,38,06,00,000,41,07,00,000,42*70
$GPGSV,3,2,10,11,00,000,42,17,00,000,44,18,00,000,38,22,00,000,42*7D
$GPGSV,3,3,10,28,00,000,45,30,00,000,45*71
$BDGSV,3,1,10,01,00,000,40,02,00,000,41,03,00,000,42,04,00,000,40*6C
$BDGSV,3,2,10,07,00,000,42,08,00,000,43,10,00,000,44,13,00,000,43*62
$BDGSV,3,3,10,27,00,000,44,30,00,000,44*6F
$B3CN0,0,0,0,0,0,0,0,0,0,0,0,0,0,0*4C
$ini_pos,lastpos_good = 0,ini_pos.x:-2046739898144079604584181494893243150538612660687552759866211436395811498176008283937217445670253342138979921839890088464044843714967523004413381681481950795692746949771761461944886978122913274336967586102276507303936.000000,ini_pos.y:0.000000,ini_pos.z:0.000000
$GNGGA,075417.444,,,,,0,00,,,M,,,,0000*2F
$GNRMC,075417.444,A,,,,,,,100180,,*2A
$GPGSA,A,1,,,,,,,,,,,,,,,*1E
$BDGSA,A,1,,,,,,,,,,,,,,,*0F
$GLGSA,A,1,,,,,,,,,,,,,,,*02
$GPGSV,3,1,10,01,00,000,44,03,00,000,38,06,00,000,40,07,00,000,42*70
$GPGSV,3,2,10,11,00,000,43,17,00,000,44,18,00,000,38,22,00,000,42*7C
$GPGSV,3,3,10,28,00,000,45,30,00,000,45*71
$BDGSV,3,1,10,01,00,000,41,02,00,000,41,03,00,000,42,04,00,000,41*6C
$BDGSV,3,2,10,07,00,000,43,08,00,000,43,10,00,000,44,13,00,000,43*63
$BDGSV,3,3,10,27,00,000,44,30,00,000,44*6F
$B3CN0,0,0,0,0,0,0,0,0,0,0,0,0,0,0*4C
$ini_pos,lastpos_good = 0,ini_pos.x:-2046739898144079604584181494893243150538612660687552759866211436395811498176008283937217445670253342138979921839890088464044843714967523004413381681481950795692746949771761461944886978122913274336967586102276507303936.000000,ini_pos.y:0.000000,ini_pos.z:0.000000
$GNGGA,075418.444,,,,,0,00,,,M,,,,0000*20
$GNRMC,075418.444,A,,,,,,,090519,,*29
$GPGSA,A,1,,,,,,,,,,,,,,,*1E
$BDGSA,A,1,,,,,,,,,,,,,,,*0F
$GLGSA,A,1,,,,,,,,,,,,,,,*02
$GPGSV,3,1,10,01,00,000,45,03,00,000,38,06,00,000,40,07,00,000,41*72
$GPGSV,3,2,10,11,00,000,43,17,00,000,44,18,00,000,37,22,00,000,43*72
$GPGSV,3,3,10,28,00,000,44,30,00,000,45*70
$BDGSV,3,1,10,01,00,000,41,02,00,000,41,03,00,000,43,04,00,000,40*6C
$BDGSV,3,2,10,07,00,000,43,08,00,000,44,10,00,000,44,13,00,000,43*64
$BDGSV,3,3,10,27,00,000,45,30,00,000,45*6F
$B3CN0,0,0,0,0,0,0,0,0,0,0,0,0,0,0*4C
$ini_pos,lastpos_good = 0,ini_pos.x:-2046739898144079604584181494893243150538612660687552759866211436395811498176008283937217445670253342138979921839890088464044843714967523004413381681481950795692746949771761461944886978122913274336967586102276507303936.000000,ini_pos.y:0.000000,ini_pos.z:0.000000
$GNGGA,075419.444,,,,,0,00,,,M,,,,0000*21
$GNRMC,075419.444,A,,,,,,,090519,,*28
$GPGSA,A,1,,,,,,,,,,,,,,,*1E
$BDGSA,A,1,,,,,,,,,,,,,,,*0F
$GLGSA,A,1,,,,,,,,,,,,,,,*02
$GPGSV,3,1,10,01,00,000,45,03,00,000,39,06,00,000,41,07,00,000,41*72
$GPGSV,3,2,10,11,00,000,43,17,00,000,44,18,00,000,37,22,00,000,43*72
$GPGSV,3,3,10,28,00,000,45,30,00,000,44*70
$BDGSV,3,1,10,01,00,000,41,02,00,000,41,03,00,000,43,04,00,000,39*62
$BDGSV,3,2,10,07,00,000,43,08,00,000,43,10,00,000,44,13,00,000,43*63
$BDGSV,3,3,10,27,00,000,45,30,00,000,45*6F
$B3CN0,0,0,0,0,0,0,0,0,0,0,0,0,0,0*4C
$ini_pos,lastpos_good = 0,ini_pos.x:-2046739898144079604584181494893243150538612660687552759866211436395811498176008283937217445670253342138979921839890088464044843714967523004413381681481950795692746949771761461944886978122913274336967586102276507303936.000000,ini_pos.y:0.000000,ini_pos.z:0.000000
$GNGGA,075420.444,,,,,0,00,,,M,,,,0000*2B
$GNRMC,075420.444,A,,,,,,,090519,,*22
$GPGSA,A,1,,,,,,,,,,,,,,,*1E
$BDGSA,A,1,,,,,,,,,,,,,,,*0F
$GLGSA,A,1,,,,,,,,,,,,,,,*02
$GPGSV,3,1,10,01,00,000,44,03,00,000,40,06,00,000,41,07,00,000,41*7D
$GPGSV,3,2,10,11,00,000,42,17,00,000,43,18,00,000,37,22,00,000,43*74
$GPGSV,3,3,10,28,00,000,44,30,00,000,44*71
$BDGSV,3,1,10,01,00,000,41,02,00,000,40,03,00,000,42,04,00,000,40*6C
$BDGSV,3,2,10,07,00,000,43,08,00,000,43,10,00,000,44,13,00,000,43*63
$BDGSV,3,3,10,27,00,000,45,30,00,000,45*6F
$B3CN0,0,0,0,0,0,0,0,0,0,0,0,0,0,0*4C
$ini_pos,lastpos_good = 0,ini_pos.x:-2046739898144079604584181494893243150538612660687552759866211436395811498176008283937217445670253342138979921839890088464044843714967523004413381681481950795692746949771761461944886978122913274336967586102276507303936.000000,ini_pos.y:0.000000,ini_pos.z:0.000000
$GNGGA,075421.444,,,,,0,00,,,M,,,,0000*2A
$GNRMC,075421.444,A,,,,,,,090519,,*23
$GPGSA,A,1,,,,,,,,,,,,,,,*1E
$BDGSA,A,1,,,,,,,,,,,,,,,*0F
$GLGSA,A,1,,,,,,,,,,,,,,,*02
$GPGSV,3,1,10,01,00,000,45,03,00,000,39,06,00,000,41,07,00,000,41*72
$GPGSV,3,2,10,11,00,000,43,17,00,000,43,18,00,000,38,22,00,000,43*7A
$GPGSV,3,3,10,28,00,000,45,30,00,000,45*71
$BDGSV,3,1,10,01,00,000,40,02,00,000,41,03,00,000,42,04,00,000,40*6C
$BDGSV,3,2,10,07,00,000,43,08,00,000,43,10,00,000,43,13,00,000,43*64
$BDGSV,3,3,10,27,00,000,45,30,00,000,45*6F
$B3CN0,0,0,0,0,0,0,0,0,0,0,0,0,0,0*4C
$ini_pos,lastpos_good = 0,ini_pos.x:-2046739898144079604584181494893243150538612660687552759866211436395811498176008283937217445670253342138979921839890088464044843714967523004413381681481950795692746949771761461944886978122913274336967586102276507303936.000000,ini_pos.y:0.000000,ini_pos.z:0.000000
$GNGGA,075422.444,,,,,0,00,,,M,,,,0000*29
$GNRMC,075422.444,A,,,,,,,090519,,*20
$GPGSA,A,1,,,,,,,,,,,,,,,*1E
$BDGSA,A,1,,,,,,,,,,,,,,,*0F
$GLGSA,A,1,,,,,,,,,,,,,,,*02
$GPGSV,3,1,10,01,00,000,45,03,00,000,41,06,00,000,41,07,00,000,41*7D
$GPGSV,3,2,10,11,00,000,42,17,00,000,44,18,00,000,38,22,00,000,43*7C
$GPGSV,3,3,10,28,00,000,44,30,00,000,44*71
$BDGSV,3,1,10,01,00,000,42,02,00,000,41,03,00,000,43,04,00,000,40*6F
$BDGSV,3,2,10,07,00,000,43,08,00,000,43,10,00,000,43,13,00,000,43*64
$BDGSV,3,3,10,27,00,000,45,30,00,000,45*6F
$B3CN0,0,0,0,0,0,0,0,0,0,0,0,0,0,0*4C
$ini_pos,lastpos_good = 0,ini_pos.x:-2046739898144079604584181494893243150538612660687552759866211436395811498176008283937217445670253342138979921839890088464044843714967523004413381681481950795692746949771761461944886978122913274336967586102276507303936.000000,ini_pos.y:0.000000,ini_pos.z:0.000000
$GNGGA,075423.444,,,,,0,00,,,M,,,,0000*28
$GNRMC,075423.444,A,,,,,,,090519,,*21
$GPGSA,A,1,,,,,,,,,,,,,,,*1E
$BDGSA,A,1,,,,,,,,,,,,,,,*0F
$GLGSA,A,1,,,,,,,,,,,,,,,*02
$GPGSV,3,1,10,01,00,000,45,03,00,000,41,06,00,000,40,07,00,000,41*7C
$GPGSV,3,2,10,11,00,000,43,17,00,000,44,18,00,000,38,22,00,000,43*7D
$GPGSV,3,3,10,28,00,000,45,30,00,000,44*70
$BDGSV,3,1,10,01,00,000,42,02,00,000,40,03,00,000,42,04,00,000,40*6F
$BDGSV,3,2,10,07,00,000,42,08,00,000,43,10,00,000,43,13,00,000,43*65
$BDGSV,3,3,10,27,00,000,45,30,00,000,45*6F
$B3CN0,18,0,0,0,0,0,0,0,0,0,0,0,0,0*75
$ini_pos,lastpos_good = 0,ini_pos.x:-2046739898144079604584181494893243150538612660687552759866211436395811498176008283937217445670253342138979921839890088464044843714967523004413381681481950795692746949771761461944886978122913274336967586102276507303936.000000,ini_pos.y:0.000000,ini_pos.z:0.000000
$GNGGA,075424.444,,,,,0,00,,,M,,,,0000*2F
$GNRMC,075424.444,A,,,,,,,090519,,*26
$GPGSA,A,1,,,,,,,,,,,,,,,*1E
$BDGSA,A,1,,,,,,,,,,,,,,,*0F
$GLGSA,A,1,,,,,,,,,,,,,,,*02
$GPGSV,3,1,10,01,00,000,45,03,00,000,40,06,00,000,40,07,00,000,41*7D
$GPGSV,3,2,10,11,00,000,43,17,00,000,44,18,00,000,38,22,00,000,43*7D
$GPGSV,3,3,10,28,00,000,44,30,00,000,44*71
$BDGSV,3,1,10,01,00,000,42,02,00,000,41,03,00,000,43,04,00,000,40*6F
$BDGSV,3,2,10,07,00,000,42,08,00,000,43,10,00,000,43,13,00,000,43*65
$BDGSV,3,3,10,27,00,000,44,30,00,000,45*6E
$B3CN0,20,0,20,0,0,0,0,0,0,0,0,0,0,0*4C
$ini_pos,lastpos_good = 0,ini_pos.x:-2046739898144079604584181494893243150538612660687552759866211436395811498176008283937217445670253342138979921839890088464044843714967523004413381681481950795692746949771761461944886978122913274336967586102276507303936.000000,ini_pos.y:0.000000,ini_pos.z:0.000000
$GNGGA,075425.444,,,,,0,00,,,M,,,,0000*2E
$GNRMC,075425.444,A,,,,,,,090519,,*27
$GPGSA,A,1,,,,,,,,,,,,,,,*1E
$BDGSA,A,1,,,,,,,,,,,,,,,*0F
$GLGSA,A,1,,,,,,,,,,,,,,,*02
$GPGSV,3,1,10,01,00,000,44,03,00,000,40,06,00,000,41,07,00,000,40*7C
$GPGSV,3,2,10,11,00,000,42,17,00,000,44,18,00,000,38,22,00,000,43*7C
$GPGSV,3,3,10,28,00,000,44,30,00,000,44*71
$BDGSV,3,1,10,01,00,000,41,02,00,000,40,03,00,000,43,04,00,000,40*6D
$BDGSV,3,2,10,07,00,000,42,08,00,000,43,10,00,000,43,13,00,000,43*65
$BDGSV,3,3,10,27,00,000,44,30,00,000,45*6E
$B3CN0,0,0,19,0,0,0,0,0,0,0,0,0,0,0*74
$ini_pos,lastpos_good = 0,ini_pos.x:-2046739898144079604584181494893243150538612660687552759866211436395811498176008283937217445670253342138979921839890088464044843714967523004413381681481950795692746949771761461944886978122913274336967586102276507303936.000000,ini_pos.y:0.000000,ini_pos.z:0.000000
$GNGGA,075426.444,,,,,0,00,,,M,,,,0000*2D
$GNRMC,075426.444,A,,,,,,,090519,,*24
$GPGSA,A,1,,,,,,,,,,,,,,,*1E
$BDGSA,A,1,,,,,,,,,,,,,,,*0F
$GLGSA,A,1,,,,,,,,,,,,,,,*02
$GPGSV,3,1,10,01,00,000,45,03,00,000,41,06,00,000,41,07,00,000,41*7D
$GPGSV,3,2,10,11,00,000,42,17,00,000,44,18,00,000,38,22,00,000,42*7D
$GPGSV,3,3,10,28,00,000,44,30,00,000,44*71
$BDGSV,3,1,10,01,00,000,40,02,00,000,41,03,00,000,43,04,00,000,40*6D
$BDGSV,3,2,10,07,00,000,43,08,00,000,43,10,00,000,43,13,00,000,43*64
$BDGSV,3,3,10,27,00,000,44,30,00,000,45*6E
$B3CN0,0,0,22,0,0,0,0,0,0,0,0,0,0,0*7C
$ini_pos,lastpos_good = 0,ini_pos.x:-2046739898144079604584181494893243150538612660687552759866211436395811498176008283937217445670253342138979921839890088464044843714967523004413381681481950795692746949771761461944886978122913274336967586102276507303936.000000,ini_pos.y:0.000000,ini_pos.z:0.000000
$GNGGA,075427.444,,,,,0,00,,,M,,,,0000*2C
$GNRMC,075427.444,A,,,,,,,090519,,*25
$GPGSA,A,1,,,,,,,,,,,,,,,*1E
$BDGSA,A,1,,,,,,,,,,,,,,,*0F
$GLGSA,A,1,,,,,,,,,,,,,,,*02
$GPGSV,3,1,10,01,00,000,44,03,00,000,41,06,00,000,41,07,00,000,41*7C
$GPGSV,3,2,10,11,00,000,42,17,00,000,44,18,00,000,37,22,00,000,43*73
$GPGSV,3,3,10,28,00,000,44,30,00,000,44*71
$BDGSV,3,1,10,01,00,000,41,02,00,000,41,03,00,000,42,04,00,000,41*6C
$BDGSV,3,2,10,07,00,000,42,08,00,000,43,10,00,000,43,13,00,000,43*65
$BDGSV,3,3,10,27,00,000,44,30,00,000,45*6E
$B3CN0,0,0,0,0,0,0,0,0,0,0,0,0,0,0*4C
$ini_pos,lastpos_good = 0,ini_pos.x:-2046739898144079604584181494893243150538612660687552759866211436395811498176008283937217445670253342138979921839890088464044843714967523004413381681481950795692746949771761461944886978122913274336967586102276507303936.000000,ini_pos.y:0.000000,ini_pos.z:0.000000
$GNGGA,075428.444,,,,,0,00,,,M,,,,0000*23
$GNRMC,075428.444,A,,,,,,,090519,,*2A
$GPGSA,A,1,,,,,,,,,,,,,,,*1E
$BDGSA,A,1,,,,,,,,,,,,,,,*0F
$GLGSA,A,1,,,,,,,,,,,,,,,*02
$GPGSV,3,1,10,01,00,000,45,03,00,000,41,06,00,000,41,07,00,000,41*7D
$GPGSV,3,2,10,11,00,000,42,17,00,000,44,18,00,000,38,22,00,000,43*7C
$GPGSV,3,3,10,28,00,000,44,30,00,000,44*71
$BDGSV,3,1,10,01,00,000,41,02,00,000,41,03,00,000,43,04,00,000,41*6D
$BDGSV,3,2,10,07,00,000,42,08,00,000,43,10,00,000,43,13,00,000,43*65
$BDGSV,3,3,10,27,00,000,44,30,00,000,44*6F
$B3CN0,0,0,21,0,0,0,24,0,0,0,0,0,0,0*49
$ini_pos,lastpos_good = 0,ini_pos.x:-2046739898144079604584181494893243150538612660687552759866211436395811498176008283937217445670253342138979921839890088464044843714967523004413381681481950795692746949771761461944886978122913274336967586102276507303936.000000,ini_pos.y:0.000000,ini_pos.z:0.000000
$GNGGA,075429.444,,,,,0,00,,,M,,,,0000*22
$GNRMC,075429.444,A,,,,,,,090519,,*2B
$GPGSA,A,1,,,,,,,,,,,,,,,*1E
$BDGSA,A,1,,,,,,,,,,,,,,,*0F
$GLGSA,A,1,,,,,,,,,,,,,,,*02
$GPGSV,3,1,10,01,00,000,45,03,00,000,41,06,00,000,41,07,00,000,41*7D
$GPGSV,3,2,10,11,00,000,41,17,00,000,44,18,00,000,37,22,00,000,43*70
$GPGSV,3,3,10,28,00,000,44,30,00,000,44*71
$BDGSV,3,1,10,01,00,000,41,02,00,000,41,03,00,000,42,04,00,000,40*6D
$BDGSV,3,2,10,07,00,000,42,08,00,000,43,10,00,000,43,13,00,000,43*65
$BDGSV,3,3,10,27,00,000,44,30,00,000,44*6F
$B3CN0,0,0,25,0,0,0,28,0,0,0,0,0,0,0*41
$ini_pos,lastpos_good = 0,ini_pos.x:-2046739898144079604584181494893243150538612660687552759866211436395811498176008283937217445670253342138979921839890088464044843714967523004413381681481950795692746949771761461944886978122913274336967586102276507303936.000000,ini_pos.y:0.000000,ini_pos.z:0.000000
$GNGGA,075430.313,2944.9113,N,10633.0907,E,1,09,1.2,316.9,M,,,,0000*1A
$GNRMC,075430.313,A,2944.9113,N,10633.0907,E,0.16,0.00,090519,,*12
$GPGSA,A,3,01,06,07,11,17,18,22,28,30,,,,2.4,1.2,2.1*32
$BDGSA,A,3,,,,,,,,,,,,,2.4,1.2,2.1*25
$GLGSA,A,3,,,,,,,,,,,,,2.4,1.2,2.1*28
$GPGSV,3,1,10,01,00,000,45,03,00,000,41,06,00,000,41,07,00,000,41*7D
$GPGSV,3,2,10,11,00,000,42,17,00,000,44,18,00,000,37,22,00,000,43*73
$GPGSV,3,3,10,28,00,000,45,30,00,000,45*71
$BDGSV,3,1,10,01,00,000,40,02,00,000,41,03,00,000,42,04,00,000,40*6C
$BDGSV,3,2,10,07,00,000,42,08,00,000,43,10,00,000,43,13,00,000,43*65
$BDGSV,3,3,10,27,00,000,44,30,00,000,45*6E
$B3CN0,0,0,36,0,0,0,28,0,0,0,0,0,0,0*43
$ini_pos,lastpos_good = 1,ini_pos.x:-1578908.522058,ini_pos.y:5312761.388819,ini_pos.z:3146358.801528
Refix G01: 2, 374089.928585, 1394
Refix G06: 2, 374089.920840, -4547
Refix G07: 2, 374089.922280, 2454
Refix G11: 2, 374089.925736, 1614
Refix G17: 2, 374089.926755, -1972
Refix G18: 2, 374089.922143, 2346
Refix G22: 2, 374089.922431, -1297
Refix G28: 2, 374089.930246, -2514
Refix G30: 2, 374089.928016, 1307
$GNGGA,075432.000,2944.9106,N,10633.0894,E,1,09,1.2,317.5,M,,,,0000*1B
$GNRMC,075432.000,A,2944.9106,N,10633.0894,E,0.29,0.00,090519,,*12
$GPGSA,A,3,01,06,07,11,17,18,22,28,30,,,,2.4,1.2,2.1*32
$BDGSA,A,3,,,,,,,,,,,,,2.4,1.2,2.1*25
$GLGSA,A,3,,,,,,,,,,,,,2.4,1.2,2.1*28
$GPGSV,3,1,10,01,00,000,45,03,00,000,41,06,00,000,41,07,00,000,41*7D
$GPGSV,3,2,10,11,00,000,42,17,00,000,44,18,00,000,37,22,00,000,42*72
$GPGSV,3,3,10,28,00,000,45,30,00,000,44*70
$BDGSV,3,1,10,01,00,000,41,02,00,000,41,03,00,000,45,04,00,000,41*6B
$BDGSV,3,2,10,07,00,000,42,08,00,000,43,10,00,000,43,13,00,000,42*64
$BDGSV,3,3,10,27,00,000,44,30,00,000,44*6F
$B3CN0,0,0,20,0,0,0,28,0,0,0,0,0,0,0*44
$ini_pos,lastpos_good = 1,ini_pos.x:-1578906.798777,ini_pos.y:5312763.146707,ini_pos.z:3146357.875037
Refix G01: 2, 374090.928584, 1393
Refix G06: 2, 374090.920843, -4546
Refix G07: 2, 374090.922279, 2454
Refix G11: 2, 374090.925735, 1612
Refix G17: 2, 374090.926756, -1973
Refix G18: 2, 374090.922142, 2345
Refix G22: 2, 374090.922431, -1299
Refix G28: 2, 374090.930247, -2516
Refix G30: 2, 374090.928015, 1307
$GNGGA,075433.000,2944.9106,N,10633.0893,E,1,09,1.2,317.6,M,,,,0000*1E
$GNRMC,075433.000,A,2944.9106,N,10633.0893,E,0.25,0.00,090519,,*18
$GPGSA,A,3,01,06,07,11,17,18,22,28,30,,,,2.4,1.2,2.1*32
$BDGSA,A,3,,,,,,,,,,,,,2.4,1.2,2.1*25
$GLGSA,A,3,,,,,,,,,,,,,2.4,1.2,2.1*28
$GPGSV,3,1,10,01,45,042,44,03,00,000,40,06,18,217,41,07,20,177,40*75
$GPGSV,3,2,10,11,33,044,42,17,44,299,45,18,19,041,39,22,27,082,42*7D
$GPGSV,3,3,10,28,64,352,44,30,44,206,44*73
$BDGSV,3,1,11,01,00,000,41,02,00,000,41,03,00,000,45,04,00,000,41*6A
$BDGSV,3,2,11,07,00,000,43,08,00,000,43,10,00,000,43,13,60,229,43*6A
$BDGSV,3,3,11,27,00,000,44,30,00,000,44,15,60,229,00*55
$B3CN0,36,0,0,0,0,0,28,0,0,0,0,0,0,0*43
$ini_pos,lastpos_good = 1,ini_pos.x:-1578906.714346,ini_pos.y:5312763.250485,ini_pos.z:3146358.068176
Refix G01: 2, 374091.928583, 1396
Refix G06: 2, 374091.920845, -4545
Refix G07: 2, 374091.922277, 2455
Refix G11: 2, 374091.925734, 1615
Refix G17: 2, 374091.926757, -1971
Refix G18: 2, 374091.922140, 2347
Refix G22: 2, 374091.922432, -1296
Refix G28: 2, 374091.930249, -2513
Refix G30: 2, 374091.928014, 1309
$GNGGA,075434.000,2944.9106,N,10633.0893,E,1,09,1.2,317.9,M,,,,0000*16
$GNRMC,075434.000,A,2944.9106,N,10633.0893,E,0.19,0.00,090519,,*10
$GPGSA,A,3,01,06,07,11,17,18,22,28,30,,,,2.4,1.2,2.1*32
$BDGSA,A,3,,,,,,,,,,,,,2.4,1.2,2.1*25
$GLGSA,A,3,,,,,,,,,,,,,2.4,1.2,2.1*28
$GPGSV,3,1,10,01,45,042,44,03,00,000,40,06,18,217,41,07,20,177,41*74
$GPGSV,3,2,10,11,33,044,42,17,44,299,44,18,19,041,38,22,27,082,43*7C
$GPGSV,3,3,10,28,64,352,45,30,44,206,44*72
$BDGSV,3,1,11,01,00,000,41,02,00,000,41,03,00,000,41,04,00,000,39*61
$BDGSV,3,2,11,07,00,000,43,08,00,000,43,10,00,000,44,13,60,229,43*6D
$BDGSV,3,3,11,27,00,000,45,30,00,000,45,15,60,229,00*55
$B3CN0,0,36,0,0,0,0,28,0,0,0,0,0,0,0*43
$ini_pos,lastpos_good = 1,ini_pos.x:-1578906.862757,ini_pos.y:5312763.548303,ini_pos.z:3146358.057722
Refix G01: 2, 374092.928582, 1399
Refix G06: 2, 374092.920848, -4542
Refix G07: 2, 374092.922276, 2458
Refix G11: 2, 374092.925733, 1617
Refix G17: 2, 374092.926759, -1969
Refix G18: 2, 374092.922139, 2350
Refix G22: 2, 374092.922433, -1293
Refix G28: 2, 374092.930250, -2510
Refix G30: 2, 374092.928013, 1313
$GNGGA,075435.000,2944.9105,N,10633.0893,E,1,09,1.2,318.0,M,,,,0000*12
$GNRMC,075435.000,A,2944.9105,N,10633.0893,E,0.40,0.00,090519,,*1E
$GPGSA,A,3,01,06,07,11,17,18,22,28,30,,,,2.4,1.2,2.1*32
$BDGSA,A,3,,,,,,,,,,,,,2.4,1.2,2.1*25
$GLGSA,A,3,,,,,,,,,,,,,2.4,1.2,2.1*28
$GPGSV,3,1,10,01,45,042,44,03,00,000,40,06,18,217,41,07,20,177,41*74
$GPGSV,3,2,10,11,33,044,42,17,44,299,44,18,19,041,38,22,27,082,43*7C
$GPGSV,3,3,10,28,64,352,45,30,44,206,44*72
$BDGSV,3,1,11,01,00,000,41,02,00,000,40,03,00,000,43,04,00,000,39*62
$BDGSV,3,2,11,07,00,000,43,08,00,000,43,10,00,000,43,13,60,229,43*6A
$BDGSV,3,3,11,27,00,000,45,30,00,000,45,15,60,229,00*55
$B3CN0,0,0,0,0,0,0,28,0,0,0,0,0,0,0*76
$ini_pos,lastpos_good = 1,ini_pos.x:-1578906.894680,ini_pos.y:5312763.637430,ini_pos.z:3146358.072975
Refix G01: 2, 374093.928581, 1396
Refix G06: 2, 374093.920851, -4545
Refix G07: 2, 374093.922274, 2455
Refix G11: 2, 374093.925732, 1614
Refix G17: 2, 374093.926760, -1972
Refix G18: 2, 374093.922137, 2347
Refix G22: 2, 374093.922434, -1295
Refix G28: 2, 374093.930252, -2514
Refix G30: 2, 374093.928012, 1309
$GNGGA,075436.000,2944.9105,N,10633.0893,E,1,09,1.2,317.9,M,,,,0000*17
$GNRMC,075436.000,A,2944.9105,N,10633.0893,E,0.21,0.00,090519,,*1A
$GPGSA,A,3,01,06,07,11,17,18,22,28,30,,,,2.4,1.2,2.1*32
$BDGSA,A,3,,,,,,,,,,,,,2.4,1.2,2.1*25
$GLGSA,A,3,,,,,,,,,,,,,2.4,1.2,2.1*28
$GPGSV,3,1,10,01,45,042,45,03,00,000,40,06,18,217,41,07,20,177,41*75
$GPGSV,3,2,10,11,33,044,42,17,44,299,44,18,19,041,38,22,27,082,42*7D
$GPGSV,3,3,10,28,64,352,45,30,44,206,44*72
$BDGSV,3,1,11,01,00,000,40,02,00,000,41,03,00,000,43,04,00,000,40*6C
$BDGSV,3,2,11,07,00,000,43,08,00,000,43,10,00,000,44,13,60,229,43*6D
$BDGSV,3,3,11,27,00,000,45,30,00,000,45,15,60,229,00*55
$B3CN0,0,0,0,0,0,0,28,0,0,0,0,0,0,0*76
$ini_pos,lastpos_good = 1,ini_pos.x:-1578906.800526,ini_pos.y:5312763.538390,ini_pos.z:3146357.987306
Refix G01: 2, 374094.928580, 1395
Refix G06: 2, 374094.920854, -4546
Refix G07: 2, 374094.922272, 2454
Refix G11: 2, 374094.925731, 1613
Refix G17: 2, 374094.926761, -1973
Refix G18: 2, 374094.922136, 2346
Refix G22: 2, 374094.922435, -1296
Refix G28: 2, 374094.930254, -2515
Refix G30: 2, 374094.928011, 1308
$GNGGA,075437.000,2944.9106,N,10633.0892,E,1,09,1.2,317.8,M,,,,0000*15
$GNRMC,075437.000,A,2944.9106,N,10633.0892,E,0.23,0.00,090519,,*1B
$GPGSA,A,3,01,06,07,11,17,18,22,28,30,,,,2.4,1.2,2.1*32
$BDGSA,A,3,,,,,,,,,,,,,2.4,1.2,2.1*25
$GLGSA,A,3,,,,,,,,,,,,,2.4,1.2,2.1*28
$GPGSV,3,1,10,01,45,042,44,03,00,000,41,06,18,217,40,07,20,177,41*74
$GPGSV,3,2,10,11,33,044,41,17,44,299,45,18,19,041,38,22,27,082,43*7E
$GPGSV,3,3,10,28,64,352,44,30,44,206,44*73
$BDGSV,3,1,11,01,00,000,41,02,00,000,40,03,00,000,43,04,00,000,40*6C
$BDGSV,3,2,11,07,00,000,42,08,00,000,43,10,00,000,43,13,60,229,43*6B
$BDGSV,3,3,11,27,00,000,44,30,00,000,45,15,60,229,00*54
$B3CN0,0,0,0,0,0,0,28,0,0,0,0,0,0,0*76
$ini_pos,lastpos_good = 1,ini_pos.x:-1578906.618387,ini_pos.y:5312763.449482,ini_pos.z:3146358.010069
Refix G01: 2, 374095.928579, 1397
Refix G06: 2, 374095.920857, -4545
Refix G07: 2, 374095.922271, 2455
Refix G11: 2, 374095.925730, 1615
Refix G17: 2, 374095.926762, -1971
Refix G18: 2, 374095.922134, 2348
Refix G22: 2, 374095.922435, -1294
Refix G28: 2, 374095.930255, -2513
Refix G30: 2, 374095.928011, 1310
$GNGGA,075438.000,2944.9105,N,10633.0894,E,1,09,1.2,318.2,M,,,,0000*1A
$GNRMC,075438.000,A,2944.9105,N,10633.0894,E,0.25,0.00,090519,,*17
$GPGSA,A,3,01,06,07,11,17,18,22,28,30,,,,2.4,1.2,2.1*32
$BDGSA,A,3,,,,,,,,,,,,,2.4,1.2,2.1*25
$GLGSA,A,3,,,,,,,,,,,,,2.4,1.2,2.1*28
$GPGSV,3,1,10,01,45,042,44,03,00,000,40,06,18,217,41,07,20,177,42*77
$GPGSV,3,2,10,11,33,044,41,17,44,299,45,18,19,041,38,22,27,082,44*79
$GPGSV,3,3,10,28,64,352,45,30,44,206,44*72
$BDGSV,3,1,11,01,00,000,41,02,00,000,41,03,00,000,45,04,00,000,40*6B
$BDGSV,3,2,11,07,00,000,42,08,00,000,43,10,00,000,43,13,60,229,43*6B
$BDGSV,3,3,11,27,00,000,44,30,00,000,45,15,60,229,00*54
$B3CN0,0,0,0,0,0,0,28,0,0,0,0,0,0,0*76
$ini_pos,lastpos_good = 1,ini_pos.x:-1578907.010508,ini_pos.y:5312763.731059,ini_pos.z:3146358.147165
Refix G01: 2, 374096.928579, 1398
Refix G06: 2, 374096.920860, -4542
Refix G07: 2, 374096.922269, 2457
Refix G11: 2, 374096.925729, 1616
Refix G17: 2, 374096.926763, -1969
Refix G18: 2, 374096.922133, 2348
Refix G22: 2, 374096.922436, -1293
Refix G28: 2, 374096.930257, -2511
Refix G30: 2, 374096.928010, 1313
$GNGGA,075439.000,2944.9106,N,10633.0895,E,1,09,1.2,318.3,M,,,,0000*18
$GNRMC,075439.000,A,2944.9106,N,10633.0895,E,0.33,0.00,090519,,*13
$GPGSA,A,3,01,06,07,11,17,18,22,28,30,,,,2.4,1.2,2.1*32
$BDGSA,A,3,,,,,,,,,,,,,2.4,1.2,2.1*25
$GLGSA,A,3,,,,,,,,,,,,,2.4,1.2,2.1*28
$GPGSV,3,1,10,01,45,042,45,03,00,000,41,06,18,217,41,07,20,177,42*77
$GPGSV,3,2,10,11,33,044,42,17,44,299,44,18,19,041,38,22,27,082,43*7C
$GPGSV,3,3,10,28,64,352,44,30,44,206,44*73
$BDGSV,3,1,12,01,00,000,41,02,00,000,40,03,00,000,43,04,00,000,41*6E
$BDGSV,3,2,12,07,00,000,42,08,00,000,43,10,00,000,43,13,60,229,43*68
$BDGSV,3,3,12,27,00,000,45,30,00,000,45,32,00,000,33,15,60,229,00*67
$B3CN0,0,0,0,0,0,0,28,0,0,0,0,0,0,0*76
$GLGSV,2,1,05,23,00,000,47,24,00,000,45,12,00,000,42,13,00,000,43*66
$GLGSV,2,2,05,08,00,000,32*59
$ini_pos,lastpos_good = 1,ini_pos.x:-1578907.270203,ini_pos.y:5312763.773908,ini_pos.z:3146358.255745
Refix G01: 2, 374097.928578, 1395
Refix G06: 2, 374097.920863, -4546
Refix G07: 2, 374097.922268, 2453
Refix G11: 2, 374097.925728, 1612
Refix G17: 2, 374097.926765, -1973
Refix G18: 2, 374097.922131, 2345
Refix G22: 2, 374097.922437, -1296
Refix G28: 2, 374097.930258, -2515
Refix G30: 2, 374097.928009, 1308
$GNGGA,075440.000,2944.9106,N,10633.0896,E,1,09,1.2,318.0,M,,,,0000*16
$GNRMC,075440.000,A,2944.9106,N,10633.0896,E,0.12,0.00,090519,,*1D
$GPGSA,A,3,01,06,07,11,17,18,22,28,30,,,,2.4,1.2,2.1*32
$BDGSA,A,3,,,,,,,,,,,,,2.4,1.2,2.1*25
$GLGSA,A,3,,,,,,,,,,,,,2.4,1.2,2.1*28
$GPGSV,3,1,10,01,45,042,45,03,00,000,41,06,18,217,41,07,20,177,42*77
$GPGSV,3,2,10,11,33,044,42,17,44,299,44,18,19,041,37,22,27,082,43*73
$GPGSV,3,3,10,28,64,352,45,30,44,206,44*72
$BDGSV,3,1,12,01,00,000,42,02,00,000,41,03,00,000,45,04,00,000,41*6A
$BDGSV,3,2,12,07,00,000,42,08,00,000,43,10,00,000,43,13,60,229,43*68
$BDGSV,3,3,12,27,00,000,44,30,00,000,45,32,00,000,34,15,60,229,00*61
$B3CN0,0,0,0,0,0,0,28,0,0,0,0,0,0,0*76
$GLGSV,2,1,05,23,46,008,47,24,52,285,45,12,15,157,42,13,76,189,43*62
$GLGSV,2,2,05,08,04,090,31*57
$ini_pos,lastpos_good = 1,ini_pos.x:-1578907.249184,ini_pos.y:5312763.434375,ini_pos.z:3146358.148029
Refix G01: 2, 374098.928577, 1400
Refix G06: 2, 374098.920865, -4542
Refix G07: 2, 374098.922266, 2458
Refix G11: 2, 374098.925727, 1617
Refix G17: 2, 374098.926766, -1968
Refix G18: 2, 374098.922130, 2349
Refix G22: 2, 374098.922438, -1291
Refix G28: 2, 374098.930260, -2509
Refix G30: 2, 374098.928008, 1315
$GNGGA,075441.000,2944.9108,N,10633.0896,E,1,14,1.2,317.3,M,,,,0000*19
$GNRMC,075441.000,A,2944.9108,N,10633.0896,E,0.43,0.00,090519,,*16
$GPGSA,A,3,01,06,07,11,17,18,22,28,30,,,,2.4,1.2,2.1*32
$BDGSA,A,3,,,,,,,,,,,,,2.4,1.2,2.1*25
$GLGSA,A,3,08,12,13,23,24,,,,,,,,2.4,1.2,2.1*26
$GPGSV,3,1,10,01,45,042,44,03,00,000,40,06,18,217,41,07,20,177,42*77
$GPGSV,3,2,10,11,33,044,42,17,44,299,44,18,19,041,37,22,27,082,43*73
$GPGSV,3,3,10,28,64,352,44,30,44,206,44*73
$BDGSV,3,1,12,01,00,000,43,02,00,000,40,03,00,000,43,04,00,000,41*6C
$BDGSV,3,2,12,07,00,000,43,08,00,000,43,10,00,000,43,13,60,229,43*69
$BDGSV,3,3,12,27,00,000,45,30,00,000,45,32,00,000,35,15,60,229,00*61
$B3CN0,36,0,0,0,0,0,28,0,0,0,0,0,0,0*43
$GLGSV,2,1,05,23,46,008,47,24,52,285,45,12,15,157,42,13,76,189,43*62
$GLGSV,2,2,05,08,04,090,31*57
$ini_pos,lastpos_good = 1,ini_pos.x:-1578907.117041,ini_pos.y:5312762.738193,ini_pos.z:3146358.090080
Refix G01: 2, 374099.928576, 1399
Refix G06: 2, 374099.920868, -4543
Refix G07: 2, 374099.922265, 2456
Refix G11: 2, 374099.925725, 1616
Refix G17: 2, 374099.926767, -1971
Refix G18: 2, 374099.922128, 2348
Refix G22: 2, 374099.922439, -1292
Refix G28: 2, 374099.930261, -2512
Refix G30: 2, 374099.928007, 1313
$GNGGA,075442.000,2944.9104,N,10633.0899,E,1,14,0.7,320.2,M,,,,0000*18
$GNRMC,075442.000,A,2944.9104,N,10633.0899,E,0.37,0.00,090519,,*15
$GPGSA,A,3,01,06,07,11,17,18,22,28,30,,,,1.0,0.7,0.6*34
$BDGSA,A,3,,,,,,,,,,,,,1.0,0.7,0.6*23
$GLGSA,A,3,08,12,13,23,24,,,,,,,,1.0,0.7,0.6*20
$GPGSV,3,1,10,01,45,042,44,03,00,000,40,06,18,217,41,07,20,177,42*77
$GPGSV,3,2,10,11,33,044,43,17,44,299,44,18,19,041,38,22,27,082,42*7C
$GPGSV,3,3,10,28,64,352,45,30,44,206,44*72
$BDGSV,3,1,12,01,00,000,40,02,00,000,40,03,00,000,45,04,00,000,40*68
$BDGSV,3,2,12,07,00,000,43,08,00,000,43,10,00,000,43,13,61,229,43*68
$BDGSV,3,3,12,27,00,000,44,30,00,000,45,32,00,000,34,15,61,229,00*60
$B3CN0,0,0,0,0,0,0,27,0,0,0,0,0,0,0*79
$GLGSV,2,1,05,23,46,008,47,24,52,285,45,12,15,157,42,13,76,189,43*62
$GLGSV,2,2,05,08,04,090,31*57
$ini_pos,lastpos_good = 1,ini_pos.x:-1578908.304844,ini_pos.y:5312765.310366,ini_pos.z:3146358.912014
Refix G01: 2, 374100.928575, 1403
Refix G06: 2, 374100.920871, -4540
Refix G07: 2, 374100.922263, 2460
Refix G11: 2, 374100.925724, 1619
Refix G17: 2, 374100.926768, -1967
Refix G18: 2, 374100.922127, 2352
Refix G22: 2, 374100.922439, -1288
Refix G28: 2, 374100.930263, -2508
Refix G30: 2, 374100.928006, 1316
$GNGGA,075443.000,2944.9103,N,10633.0900,E,1,14,0.7,320.7,M,,,,0000*1A
$GNRMC,075443.000,A,2944.9103,N,10633.0900,E,0.25,0.00,090519,,*11
$GPGSA,A,3,01,06,07,11,17,18,22,28,30,,,,1.0,0.7,0.6*34
$BDGSA,A,3,,,,,,,,,,,,,1.0,0.7,0.6*23
$GLGSA,A,3,08,12,13,23,24,,,,,,,,1.0,0.7,0.6*20
$GPGSV,3,1,10,01,45,042,44,03,00,000,41,06,18,217,41,07,20,177,41*75
$GPGSV,3,2,10,11,33,044,42,17,44,299,44,18,19,041,38,22,27,082,43*7C
$GPGSV,3,3,10,28,64,352,44,30,44,206,43*74
$BDGSV,3,1,12,01,00,000,41,02,00,000,41,03,00,000,43,04,00,000,40*6E
$BDGSV,3,2,12,07,00,000,42,08,00,000,43,10,00,000,43,13,61,229,43*69
$BDGSV,3,3,12,27,00,000,44,30,00,000,45,32,00,000,34,15,61,229,00*60
$B3CN0,19,0,0,0,0,0,27,0,0,0,0,0,0,0*41
$GLGSV,2,1,05,23,46,008,47,24,52,285,45,12,15,157,42,13,76,189,43*62
$GLGSV,2,2,05,08,04,090,31*57
$ini_pos,lastpos_good = 1,ini_pos.x:-1578908.655941,ini_pos.y:5312765.831652,ini_pos.z:3146359.022639
Refix G01: 2, 374101.928574, 1401
Refix G06: 2, 374101.920874, -4541
Refix G07: 2, 374101.922261, 2458
Refix G11: 2, 374101.925723, 1618
Refix G17: 2, 374101.926770, -1969
Refix G18: 2, 374101.922125, 2351
Refix G22: 2, 374101.922440, -1289
Refix G28: 2, 374101.930265, -2510
Refix G30: 2, 374101.928005, 1315
$GNGGA,075444.000,2944.9102,N,10633.0901,E,1,14,0.7,321.3,M,,,,0000*18
$GNRMC,075444.000,A,2944.9102,N,10633.0901,E,0.18,0.00,090519,,*18
$GPGSA,A,3,01,06,07,11,17,18,22,28,30,,,,1.0,0.7,0.6*34
$BDGSA,A,3,,,,,,,,,,,,,1.0,0.7,0.6*23
$GLGSA,A,3,08,12,13,23,24,,,,,,,,1.0,0.7,0.6*20
$GPGSV,3,1,10,01,45,042,45,03,00,000,41,06,18,217,41,07,20,177,42*77
$GPGSV,3,2,10,11,33,044,43,17,44,299,44,18,19,041,38,22,27,082,43*7D
$GPGSV,3,3,10,28,64,352,44,30,44,206,44*73
$BDGSV,3,1,12,01,00,000,41,02,00,000,40,03,00,000,42,04,00,000,40*6E
$BDGSV,3,2,12,07,00,000,42,08,00,000,43,10,00,000,43,13,61,229,43*69
$BDGSV,3,3,12,27,00,000,44,30,00,000,45,32,00,000,34,15,61,229,00*60
$B3CN0,23,0,0,0,0,0,27,0,0,0,0,0,0,0*48
$GLGSV,2,1,05,23,46,008,47,24,52,285,45,12,15,157,42,13,76,189,43*62
$GLGSV,2,2,05,08,04,090,31*57
$ini_pos,lastpos_good = 1,ini_pos.x:-1578909.012540,ini_pos.y:5312766.291894,ini_pos.z:3146359.102287
Refix G01: 2, 374102.928573, 1399
Refix G06: 2, 374102.920877, -4543
Refix G07: 2, 374102.922260, 2456
Refix G11: 2, 374102.925722, 1615
Refix G17: 2, 374102.926771, -1971
Refix G18: 2, 374102.922124, 2348
Refix G22: 2, 374102.922441, -1292
Refix G28: 2, 374102.930266, -2513
Refix G30: 2, 374102.928005, 1313
$GNGGA,075445.000,2944.9101,N,10633.0900,E,1,20,0.7,322.9,M,,,,0000*15
$GNRMC,075445.000,A,2944.9101,N,10633.0900,E,0.18,0.00,090519,,*1B
$GPGSA,A,3,01,06,07,11,17,18,22,28,30,,,,1.0,0.7,0.6*34
$BDGSA,A,3,07,08,10,13,27,30,,,,,,,1.0,0.7,0.6*29
$GLGSA,A,3,08,12,13,23,24,,,,,,,,1.0,0.7,0.6*20
$GPGSV,3,1,10,01,45,042,44,03,00,000,40,06,18,217,41,07,20,177,41*74
$GPGSV,3,2,10,11,33,044,43,17,44,299,44,18,19,041,37,22,27,082,42*73
$GPGSV,3,3,10,28,64,352,44,30,44,206,44*73
$BDGSV,3,1,12,01,00,000,42,02,00,000,41,03,00,000,42,04,00,000,40*6C
$BDGSV,3,2,12,07,00,000,42,08,00,000,43,10,00,000,43,13,61,229,43*69
$BDGSV,3,3,12,27,00,000,44,30,00,000,45,32,00,000,35,15,61,229,00*61
$B3CN0,0,0,0,0,0,0,28,0,0,0,0,0,0,0*76
$GLGSV,2,1,05,23,46,008,47,24,52,285,45,12,15,157,42,13,76,189,44*65
$GLGSV,2,2,05,08,04,090,31*57
$ini_pos,lastpos_good = 1,ini_pos.x:-1578909.180674,ini_pos.y:5312767.745237,ini_pos.z:3146359.877840
Refix G01: 2, 374103.928572, 1401
Refix G06: 2, 374103.920880, -4541
Refix G07: 2, 374103.922258, 2457
Refix G11: 2, 374103.925721, 1617
Refix G17: 2, 374103.926772, -1968
Refix G18: 2, 374103.922122, 2350
Refix G22: 2, 374103.922442, -1289
Refix G28: 2, 374103.930268, -2510
Refix G30: 2, 374103.928004, 1315
$GNGGA,075446.000,2944.9098,N,10633.0903,E,1,20,0.7,324.9,M,,,,0000*12
$GNRMC,075446.000,A,2944.9098,N,10633.0903,E,0.16,0.00,090519,,*14
$GPGSA,A,3,01,06,07,11,17,18,22,28,30,,,,0.8,0.7,0.4*3F
$BDGSA,A,3,07,08,10,13,27,30,,,,,,,0.8,0.7,0.4*22
$GLGSA,A,3,08,12,13,23,24,,,,,,,,0.8,0.7,0.4*2B
$GPGSV,3,1,10,01,45,042,45,03,00,000,40,06,18,217,41,07,20,177,41*75
$GPGSV,3,2,10,11,33,044,42,17,44,299,44,18,19,041,38,22,27,082,42*7D
$GPGSV,3,3,10,28,64,352,45,30,44,206,44*72
$BDGSV,3,1,12,01,00,000,41,02,00,000,40,03,00,000,42,04,00,000,41*6F
$BDGSV,3,2,12,07,62,126,42,08,84,318,43,10,86,013,43,13,61,229,43*62
$BDGSV,3,3,12,27,48,030,44,30,53,290,44,05,00,000,31,32,00,000,35*6F
$B3CN0,0,0,0,0,0,0,28,0,0,0,0,0,0,0*76
$GLGSV,2,1,05,23,46,008,47,24,52,285,45,12,15,157,42,13,76,189,44*65
$GLGSV,2,2,05,08,04,090,31*57
$ini_pos,lastpos_good = 1,ini_pos.x:-1578910.265151,ini_pos.y:5312769.587368,ini_pos.z:3146360.376138
Refix G01: 2, 374104.928571, 1400
Refix G06: 2, 374104.920882, -4543
Refix G07: 2, 374104.922257, 2456
Refix G11: 2, 374104.925720, 1616
Refix G17: 2, 374104.926773, -1971
Refix G18: 2, 374104.922121, 2349
Refix G22: 2, 374104.922443, -1290
Refix G28: 2, 374104.930269, -2512
Refix G30: 2, 374104.928003, 1313
$GNGGA,075447.000,2944.9097,N,10633.0904,E,1,20,0.7,325.2,M,,,,0000*11
$GNRMC,075447.000,A,2944.9097,N,10633.0904,E,0.15,0.00,090519,,*1E
$GPGSA,A,3,01,06,07,11,17,18,22,28,30,,,,0.8,0.7,0.4*3F
$BDGSA,A,3,07,08,10,13,27,30,,,,,,,0.8,0.7,0.4*22
$GLGSA,A,3,08,12,13,23,24,,,,,,,,0.8,0.7,0.4*2B
$GPGSV,3,1,10,01,45,042,45,03,00,000,40,06,18,217,41,07,20,177,41*75
$GPGSV,3,2,10,11,33,044,42,17,44,299,45,18,19,041,37,22,27,082,42*73
$GPGSV,3,3,10,28,64,352,45,30,44,206,45*73
$BDGSV,3,1,12,01,00,000,41,02,00,000,41,03,00,000,45,04,00,000,40*68
$BDGSV,3,2,12,07,62,126,42,08,84,318,43,10,86,013,43,13,61,229,43*62
$BDGSV,3,3,12,27,48,030,44,30,53,290,44,05,00,000,33,32,00,000,34*6C
$B3CN0,0,0,0,0,0,0,28,0,0,0,0,0,0,0*76
$GLGSV,2,1,05,23,46,008,47,24,52,285,45,12,15,157,42,13,76,189,43*62
$GLGSV,2,2,05,08,04,090,30*56
$ini_pos,lastpos_good = 1,ini_pos.x:-1578910.595444,ini_pos.y:5312769.885601,ini_pos.z:3146360.242794
Refix G01: 2, 374105.928570, 1399
Refix G06: 2, 374105.920885, -4544
Refix G07: 2, 374105.922255, 2453
Refix G11: 2, 374105.925719, 1614
Refix G17: 2, 374105.926774, -1971
Refix G18: 2, 374105.922119, 2346
Refix G22: 2, 374105.922443, -1293
Refix G28: 2, 374105.930271, -2512
Refix G30: 2, 374105.928002, 1313
$GNGGA,075448.000,2944.9096,N,10633.0905,E,1,20,0.7,324.9,M,,,,0000*14
$GNRMC,075448.000,A,2944.9096,N,10633.0905,E,0.39,0.00,090519,,*1F
$GPGSA,A,3,01,06,07,11,17,18,22,28,30,,,,0.8,0.7,0.4*3F
$BDGSA,A,3,07,08,10,13,27,30,,,,,,,0.8,0.7,0.4*22
$GLGSA,A,3,08,12,13,23,24,,,,,,,,0.8,0.7,0.4*2B
$GPGSV,3,1,10,01,45,042,45,03,00,000,40,06,18,217,41,07,20,177,42*76
$GPGSV,3,2,10,11,33,044,42,17,44,299,45,18,19,041,38,22,27,082,42*7C
$GPGSV,3,3,10,28,64,352,45,30,44,206,44*72
$BDGSV,3,1,12,01,00,000,40,02,00,000,39,03,00,000,42,04,00,000,40*61
$BDGSV,3,2,12,07,62,126,42,08,84,318,43,10,86,013,43,13,61,229,43*62
$BDGSV,3,3,12,27,48,030,45,30,53,290,45,05,00,000,34,32,00,000,35*6A
$B3CN0,0,0,0,0,0,0,27,0,0,0,0,0,0,0*79
$GLGSV,2,1,05,23,46,008,47,24,52,285,45,12,15,157,42,13,76,189,43*62
$GLGSV,2,2,05,08,04,090,28*5F
$ini_pos,lastpos_good = 1,ini_pos.x:-1578910.704339,ini_pos.y:5312769.577302,ini_pos.z:3146359.994285
Refix G01: 2, 374106.928569, 1410
Refix G03: 2, 374106.924157, -2787
Refix G06: 2, 374106.920888, -4535
Refix G07: 2, 374106.922253, 2464
Refix G11: 2, 374106.925718, 1625
Refix G17: 2, 374106.926776, -1962
Refix G18: 2, 374106.922117, 2357
Refix G22: 2, 374106.922444, -1281
Refix G28: 2, 374106.930272, -2501
Refix G30: 2, 374106.928001, 1323
$GNGGA,075449.000,2944.9094,N,10633.0908,E,1,20,0.7,325.4,M,,,,0000*16
$GNRMC,075449.000,A,2944.9094,N,10633.0908,E,0.39,0.00,090519,,*11
$GPGSA,A,3,01,03,06,07,11,17,18,22,28,30,,,0.8,0.7,0.4*3C
$BDGSA,A,3,07,08,10,13,27,30,,,,,,,0.8,0.7,0.4*22
$GLGSA,A,3,12,13,23,24,,,,,,,,,0.8,0.7,0.4*23
$GPGSV,3,1,10,01,45,042,45,03,00,000,40,06,18,217,41,07,20,177,41*75
$GPGSV,3,2,10,11,33,044,42,17,44,299,45,18,19,041,37,22,27,082,43*72
$GPGSV,3,3,10,28,64,352,44,30,44,206,44*73
$BDGSV,3,1,12,01,00,000,41,02,00,000,41,03,00,000,43,04,00,000,39*60
$BDGSV,3,2,12,07,62,126,42,08,84,318,43,10,86,013,44,13,61,229,43*65
$BDGSV,3,3,12,27,48,030,45,30,53,290,45,05,00,000,34,32,00,000,35*6A
$B3CN0,0,0,0,0,0,0,28,0,0,0,0,0,0,0*76
$GLGSV,2,1,05,23,46,008,47,24,52,285,45,12,15,157,42,13,76,189,43*62
$GLGSV,2,2,05,08,04,090,26*51
$ini_pos,lastpos_good = 1,ini_pos.x:-1578911.266925,ini_pos.y:5312770.103610,ini_pos.z:3146359.864990
Refix G01: 2, 374107.928568, 1407
Refix G03: 2, 374107.924159, -2790
Refix G06: 2, 374107.920891, -4537
Refix G07: 2, 374107.922252, 2462
Refix G11: 2, 374107.925717, 1622
Refix G17: 2, 374107.926777, -1964
Refix G18: 2, 374107.922116, 2355
Refix G22: 2, 374107.922445, -1283
Refix G28: 2, 374107.930274, -2505
Refix G30: 2, 374107.928000, 1321
$GNGGA,075450.000,2944.9092,N,10633.0910,E,1,20,0.7,325.4,M,,,,0000*11
$GNRMC,075450.000,A,2944.9092,N,10633.0910,E,0.23,0.00,090519,,*1D
$GPGSA,A,3,01,03,06,07,11,17,18,22,28,30,,,0.8,0.7,0.4*3C
$BDGSA,A,3,07,08,10,13,27,30,,,,,,,0.8,0.7,0.4*22
$GLGSA,A,3,12,13,23,24,,,,,,,,,0.8,0.7,0.4*23
$GPGSV,3,1,10,01,45,042,45,03,29,107,40,06,18,217,42,07,20,177,41*7B
$GPGSV,3,2,10,11,33,044,43,17,44,299,45,18,19,041,38,22,27,082,43*7C
$GPGSV,3,3,10,28,64,352,44,30,44,206,44*73
$BDGSV,3,1,12,01,00,000,41,02,00,000,41,03,00,000,43,04,00,000,40*6E
$BDGSV,3,2,12,07,62,126,42,08,84,318,43,10,86,013,44,13,61,229,44*62
$BDGSV,3,3,12,27,48,030,45,30,53,290,45,05,00,000,36,32,00,000,35*68
$B3CN0,0,18,0,0,0,0,27,0,0,0,0,0,0,0*40
$GLGSV,2,1,05,23,46,008,47,24,52,285,45,12,15,157,42,13,76,189,43*62
$GLGSV,2,2,05,08,04,090,00*55
$ini_pos,lastpos_good = 1,ini_pos.x:-1578911.574339,ini_pos.y:5312770.150315,ini_pos.z:3146359.668668
Refix G01: 2, 374108.928567, 1402
Refix G03: 2, 374108.924160, -2795
Refix G06: 2, 374108.920894, -4541
Refix G07: 2, 374108.922250, 2457
Refix G11: 2, 374108.925716, 1617
Refix G17: 2, 374108.926778, -1969
Refix G18: 2, 374108.922114, 2350
Refix G22: 2, 374108.922446, -1288
Refix G28: 2, 374108.930275, -2511
Refix G30: 2, 374108.927999, 1315
$GNGGA,075451.000,2944.9091,N,10633.0911,E,1,20,0.7,325.7,M,,,,0000*11
$GNRMC,075451.000,A,2944.9091,N,10633.0911,E,0.19,0.00,090519,,*17
$GPGSA,A,3,01,03,06,07,11,17,18,22,28,30,,,0.8,0.7,0.4*3C
$BDGSA,A,3,07,08,10,13,27,30,,,,,,,0.8,0.7,0.4*22
$GLGSA,A,3,12,13,23,24,,,,,,,,,0.8,0.7,0.4*23
$GPGSV,3,1,10,01,45,042,44,03,29,107,41,06,18,217,41,07,20,177,41*78
$GPGSV,3,2,10,11,33,044,43,17,44,299,45,18,19,041,37,22,27,082,43*73
$GPGSV,3,3,10,28,64,352,45,30,44,206,44*72
$BDGSV,3,1,12,01,00,000,41,02,00,000,40,03,00,000,45,04,00,000,41*68
$BDGSV,3,2,12,07,62,126,42,08,84,318,43,10,86,013,43,13,61,229,44*65
$BDGSV,3,3,12,27,48,030,44,30,53,290,44,05,00,000,35,32,00,000,35*6B
$B3CN0,0,0,0,0,0,0,27,0,0,0,0,0,0,0*79
$GLGSV,2,1,05,23,46,008,47,24,52,285,45,12,15,157,42,13,76,189,43*62
$GLGSV,2,2,05,08,04,090,00*55
$ini_pos,lastpos_good = 1,ini_pos.x:-1578911.875129,ini_pos.y:5312770.497340,ini_pos.z:3146359.608433
Refix G01: 2, 374109.928567, 1402
Refix G03: 2, 374109.924162, -2794
Refix G06: 2, 374109.920897, -4541
Refix G07: 2, 374109.922249, 2457
Refix G11: 2, 374109.925715, 1617
Refix G17: 2, 374109.926779, -1969
Refix G18: 2, 374109.922113, 2351
Refix G22: 2, 374109.922446, -1287
Refix G28: 2, 374109.930277, -2510
Refix G30: 2, 374109.927998, 1316
$GNGGA,075452.000,2944.9090,N,10633.0911,E,1,20,0.7,326.5,M,,,,0000*12
$GNRMC,075452.000,A,2944.9090,N,10633.0911,E,0.11,0.00,090519,,*1D
$GPGSA,A,3,01,03,06,07,11,17,18,22,28,30,,,0.8,0.7,0.4*3C
$BDGSA,A,3,07,08,10,13,27,30,,,,,,,0.8,0.7,0.4*22
$GLGSA,A,3,12,13,23,24,,,,,,,,,0.8,0.7,0.4*23
$GPGSV,3,1,10,01,45,042,44,03,29,107,40,06,18,217,40,07,20,177,41*78
$GPGSV,3,2,10,11,33,044,43,17,45,299,44,18,19,041,37,22,27,082,43*73
$GPGSV,3,3,10,28,65,352,45,30,44,206,44*73
$BDGSV,3,1,12,01,00,000,41,02,00,000,41,03,00,000,42,04,00,000,40*6F
$BDGSV,3,2,12,07,62,126,43,08,84,318,43,10,86,013,43,13,61,229,43*63
$BDGSV,3,3,12,27,48,030,44,30,53,290,45,05,00,000,35,32,00,000,35*6A
$B3CN0,19,0,0,0,0,0,28,0,0,0,0,0,0,0*4E
$GLGSV,2,1,05,23,46,008,47,24,52,285,45,12,15,157,41,13,76,189,43*61
$GLGSV,2,2,05,08,04,090,00*55
$ini_pos,lastpos_good = 1,ini_pos.x:-1578912.205539,ini_pos.y:5312771.221806,ini_pos.z:3146359.773850
Refix G01: 2, 374110.928566, 1402
Refix G03: 2, 374110.924164, -2795
Refix G06: 2, 374110.920900, -4542
Refix G07: 2, 374110.922247, 2456
Refix G11: 2, 374110.925714, 1617
Refix G17: 2, 374110.926780, -1970
Refix G18: 2, 374110.922111, 2350
Refix G22: 2, 374110.922447, -1288
Refix G28: 2, 374110.930279, -2511
Refix G30: 2, 374110.927998, 1315
$GNGGA,075453.000,2944.9089,N,10633.0912,E,1,20,0.7,326.9,M,,,,0000*14
$GNRMC,075453.000,A,2944.9089,N,10633.0912,E,0.04,0.00,090519,,*13
$GPGSA,A,3,01,03,06,07,11,17,18,22,28,30,,,0.8,0.7,0.4*3C
$BDGSA,A,3,07,08,10,13,27,30,,,,,,,0.8,0.7,0.4*22
$GLGSA,A,3,12,13,23,24,,,,,,,,,0.8,0.7,0.4*23
$GPGSV,3,1,10,01,45,042,45,03,29,107,41,06,18,217,40,07,20,177,40*79
$GPGSV,3,2,10,11,33,044,42,17,45,299,44,18,19,041,37,22,27,082,43*72
$GPGSV,3,3,10,28,65,352,45,30,44,206,44*73
$BDGSV,3,1,12,01,00,000,41,02,00,000,40,03,00,000,43,04,00,000,40*6F
$BDGSV,3,2,12,07,62,126,43,08,84,318,43,10,86,013,43,13,61,229,43*63
$BDGSV,3,3,12,27,48,030,45,30,53,290,45,05,00,000,36,32,00,000,35*68
$B3CN0,0,0,0,0,0,0,28,0,0,0,0,0,0,0*76
$GLGSV,2,1,05,23,46,008,47,24,52,285,45,12,15,157,41,13,76,189,44*66
$GLGSV,2,2,05,08,04,090,00*55
$ini_pos,lastpos_good = 1,ini_pos.x:-1578912.365834,ini_pos.y:5312771.659568,ini_pos.z:3146359.871269
Refix G01: 2, 374111.928565, 1404
Refix G03: 2, 374111.924166, -2793
Refix G06: 2, 374111.920902, -4540
Refix G07: 2, 374111.922245, 2458
Refix G11: 2, 374111.925713, 1618
Refix G17: 2, 374111.926782, -1969
Refix G18: 2, 374111.922110, 2351
Refix G22: 2, 374111.922448, -1286
Refix G28: 2, 374111.930280, -2509
Refix G30: 2, 374111.927997, 1317
$GNGGA,075454.000,2944.9088,N,10633.0912,E,1,24,0.6,327.3,M,,,,0000*1C
$GNRMC,075454.000,A,2944.9088,N,10633.0912,E,0.19,0.00,090519,,*19
$GPGSA,A,3,01,03,06,07,11,17,18,22,28,30,,,0.7,0.6,0.3*35
$BDGSA,A,3,01,02,03,04,07,08,10,13,27,30,,,0.7,0.6,0.3*2F
$GLGSA,A,3,12,13,23,24,,,,,,,,,0.7,0.6,0.3*2A
$GPGSV,3,1,10,01,45,042,44,03,29,107,40,06,18,217,41,07,20,177,41*79
$GPGSV,3,2,10,11,33,044,42,17,45,299,44,18,19,041,37,22,27,082,43*72
$GPGSV,3,3,10,28,65,352,44,30,44,206,45*73
$BDGSV,3,1,12,01,00,000,40,02,00,000,39,03,00,000,42,04,00,000,41*60
$BDGSV,3,2,12,07,62,126,43,08,84,318,43,10,86,013,43,13,61,229,43*63
$BDGSV,3,3,12,27,48,030,44,30,53,290,45,05,00,000,36,32,00,000,35*69
$B3CN0,0,0,0,0,0,0,27,0,0,0,0,0,0,0*79
$GLGSV,2,1,05,23,46,008,47,24,52,285,45,12,15,157,42,13,76,189,43*62
$GLGSV,2,2,05,08,04,090,00*55
$ini_pos,lastpos_good = 1,ini_pos.x:-1578912.457285,ini_pos.y:5312772.051288,ini_pos.z:3146359.825799
Refix G01: 2, 374112.928564, 1403
Refix G03: 2, 374112.924167, -2794
Refix G06: 2, 374112.920905, -4541
Refix G07: 2, 374112.922244, 2456
Refix G11: 2, 374112.925712, 1617
Refix G17: 2, 374112.926783, -1970
Refix G18: 2, 374112.922108, 2350
Refix G22: 2, 374112.922449, -1287
Refix G28: 2, 374112.930282, -2510
Refix G30: 2, 374112.927996, 1316
$GNGGA,075455.000,2944.9088,N,10633.0912,E,1,24,0.6,327.3,M,,,,0000*1D
$GNRMC,075455.000,A,2944.9088,N,10633.0912,E,0.13,0.00,090519,,*12
$GPGSA,A,3,01,03,06,07,11,17,18,22,28,30,,,0.7,0.6,0.3*35
$BDGSA,A,3,01,02,03,04,07,08,10,13,27,30,,,0.7,0.6,0.3*2F
$GLGSA,A,3,12,13,23,24,,,,,,,,,0.7,0.6,0.3*2A
$GPGSV,3,1,10,01,45,042,44,03,29,107,40,06,18,217,41,07,20,177,42*7A
$GPGSV,3,2,10,11,33,044,42,17,45,299,44,18,19,041,38,22,27,082,43*7D
$GPGSV,3,3,10,28,65,352,44,30,44,206,44*72
$BDGSV,3,1,12,01,40,125,41,02,47,219,41,03,55,171,43,04,23,109,39*65
$BDGSV,3,2,12,07,62,126,42,08,84,318,43,10,86,013,43,13,61,229,43*62
$BDGSV,3,3,12,27,48,030,44,30,53,290,45,05,00,000,36,32,00,000,36*6A
$B3CN0,0,16,0,0,0,0,27,0,0,0,0,0,0,0*4E
$GLGSV,2,1,05,23,46,008,47,24,52,285,45,12,15,157,42,13,76,189,43*62
$GLGSV,2,2,05,08,04,090,00*55
$ini_pos,lastpos_good = 1,ini_pos.x:-1578912.482831,ini_pos.y:5312772.115493,ini_pos.z:3146359.838620
Refix G01: 2, 374113.928563, 1404
Refix G03: 2, 374113.924169, -2792
Refix G06: 2, 374113.920908, -4540
Refix G07: 2, 374113.922242, 2457
Refix G11: 2, 374113.925711, 1618
Refix G17: 2, 374113.926784, -1969
Refix G18: 2, 374113.922107, 2351
Refix G22: 2, 374113.922450, -1285
Refix G28: 2, 374113.930283, -2509
Refix G30: 2, 374113.927995, 1318
$GNGGA,075456.000,2944.9087,N,10633.0912,E,1,24,0.6,327.4,M,,,,0000*16
$GNRMC,075456.000,A,2944.9087,N,10633.0912,E,0.26,0.00,090519,,*18
$GPGSA,A,3,01,03,06,07,11,17,18,22,28,30,,,0.7,0.6,0.3*35
$BDGSA,A,3,01,02,03,04,07,08,10,13,27,30,,,0.7,0.6,0.3*2F
$GLGSA,A,3,12,13,23,24,,,,,,,,,0.7,0.6,0.3*2A
$GPGSV,3,1,10,01,45,042,44,03,29,107,40,06,18,217,41,07,20,177,41*79
$GPGSV,3,2,10,11,33,044,42,17,45,299,44,18,19,041,38,22,27,082,43*7D
$GPGSV,3,3,10,28,65,352,44,30,44,206,44*72
$BDGSV,3,1,12,01,40,125,41,02,47,219,40,03,55,171,43,04,23,109,40*6A
$BDGSV,3,2,12,07,62,126,43,08,84,318,43,10,86,013,43,13,61,229,43*63
$BDGSV,3,3,12,27,48,030,44,30,53,290,45,05,00,000,36,32,00,000,36*6A
$B3CN0,0,36,0,0,0,0,27,0,0,0,0,0,0,0*4C
$GLGSV,2,1,05,23,46,008,47,24,52,285,45,12,15,157,41,13,76,189,44*66
$GLGSV,2,2,05,08,04,090,00*55
$ini_pos,lastpos_good = 1,ini_pos.x:-1578912.673133,ini_pos.y:5312772.229811,ini_pos.z:3146359.730174
Refix G01: 2, 374114.928562, 1406
Refix G03: 2, 374114.924171, -2791
Refix G06: 2, 374114.920911, -4538
Refix G07: 2, 374114.922241, 2459
Refix G11: 2, 374114.925710, 1620
Refix G17: 2, 374114.926785, -1967
Refix G18: 2, 374114.922105, 2353
Refix G22: 2, 374114.922450, -1283
Refix G28: 2, 374114.930285, -2507
Refix G30: 2, 374114.927994, 1320
$GNGGA,075457.000,2944.9086,N,10633.0913,E,1,24,0.6,327.5,M,,,,0000*16
$GNRMC,075457.000,A,2944.9086,N,10633.0913,E,0.09,0.00,090519,,*14
$GPGSA,A,3,01,03,06,07,11,17,18,22,28,30,,,0.7,0.6,0.3*35
$BDGSA,A,3,01,02,03,04,07,08,10,13,27,30,,,0.7,0.6,0.3*2F
$GLGSA,A,3,12,13,23,24,,,,,,,,,0.7,0.6,0.3*2A
$GPGSV,3,1,10,01,45,042,44,03,29,107,40,06,18,217,40,07,20,177,41*78
$GPGSV,3,2,10,11,33,044,42,17,45,299,44,18,19,041,37,22,27,082,42*73
$GPGSV,3,3,10,28,65,352,44,30,44,206,44*72
$BDGSV,3,1,12,01,40,125,41,02,47,219,41,03,55,171,42,04,23,109,40*6A
$BDGSV,3,2,12,07,62,126,42,08,84,318,43,10,86,013,43,13,61,229,42*63
$BDGSV,3,3,12,27,48,030,44,30,53,290,45,05,00,000,35,32,00,000,36*69
$B3CN0,0,0,0,0,0,0,27,0,0,0,0,0,0,0*79
$GLGSV,2,1,05,23,46,008,47,24,52,285,45,12,15,157,41,13,76,189,44*66
$GLGSV,2,2,05,08,04,090,00*55
$ini_pos,lastpos_good = 1,ini_pos.x:-1578912.799019,ini_pos.y:5312772.376742,ini_pos.z:3146359.692647
Refix G01: 2, 374115.928561, 1408
Refix G03: 2, 374115.924173, -2789
Refix G06: 2, 374115.920914, -4538
Refix G07: 2, 374115.922239, 2460
Refix G11: 2, 374115.925709, 1621
Refix G17: 2, 374115.926787, -1966
Refix G18: 2, 374115.922104, 2354
Refix G22: 2, 374115.922451, -1282
Refix G28: 2, 374115.930286, -2506
Refix G30: 2, 374115.927993, 1321
$GNGGA,075458.000,2944.9085,N,10633.0913,E,1,24,0.6,327.6,M,,,,0000*19
$GNRMC,075458.000,A,2944.9085,N,10633.0913,E,0.12,0.00,090519,,*12
$GPGSA,A,3,01,03,06,07,11,17,18,22,28,30,,,0.7,0.6,0.3*35
$BDGSA,A,3,01,02,03,04,07,08,10,13,27,30,,,0.7,0.6,0.3*2F
$GLGSA,A,3,12,13,23,24,,,,,,,,,0.7,0.6,0.3*2A
$GPGSV,3,1,10,01,45,042,44,03,29,107,39,06,18,217,41,07,20,177,42*74
$GPGSV,3,2,10,11,33,044,42,17,45,299,45,18,19,041,38,22,27,082,43*7C
$GPGSV,3,3,10,28,65,352,44,30,44,206,44*72
$BDGSV,3,1,12,01,40,125,42,02,47,219,40,03,55,171,43,04,23,109,39*67
$BDGSV,3,2,12,07,62,126,43,08,84,318,43,10,86,013,43,13,61,229,43*63
$BDGSV,3,3,12,27,48,030,44,30,53,290,44,05,00,000,36,32,00,000,35*68
$B3CN0,0,0,0,0,0,0,27,0,0,0,0,0,0,0*79
$GLGSV,2,1,05,23,46,008,46,24,52,285,45,12,15,157,42,13,76,189,44*64
$GLGSV,2,2,05,08,04,090,00*55
$ini_pos,lastpos_good = 1,ini_pos.x:-1578912.869016,ini_pos.y:5312772.453915,ini_pos.z:3146359.628414
Refix G01: 2, 374116.928560, 1412
Refix G03: 2, 374116.924174, -2786
Refix G06: 2, 374116.920917, -4534
Refix G07: 2, 374116.922237, 2463
Refix G11: 2, 374116.925707, 1624
Refix G17: 2, 374116.926788, -1962
Refix G18: 2, 374116.922102, 2357
Refix G22: 2, 374116.922452, -1278
Refix G28: 2, 374116.930288, -2502
Refix G30: 2, 374116.927992, 1325
$GNGGA,075459.000,2944.9086,N,10633.0914,E,1,24,0.6,327.5,M,,,,0000*1F
$GNRMC,075459.000,A,2944.9086,N,10633.0914,E,0.10,0.00,090519,,*15
$GPGSA,A,3,01,03,06,07,11,17,18,22,28,30,,,0.7,0.6,0.3*35
$BDGSA,A,3,01,02,03,04,07,08,10,13,27,30,,,0.7,0.6,0.3*2F
$GLGSA,A,3,12,13,23,24,,,,,,,,,0.7,0.6,0.3*2A
$GPGSV,3,1,10,01,45,042,44,03,29,107,39,06,18,217,40,07,20,177,40*77
$GPGSV,3,2,10,11,33,044,42,17,45,299,44,18,19,041,37,22,27,082,42*73
$GPGSV,3,3,10,28,65,352,44,30,44,206,44*72
$BDGSV,3,1,12,01,40,125,41,02,47,219,40,03,55,171,43,04,23,109,40*6A
$BDGSV,3,2,12,07,62,126,43,08,84,318,43,10,86,013,43,13,61,229,43*63
$BDGSV,3,3,12,27,48,030,44,30,53,290,44,05,00,000,38,32,00,000,36*65
$B3CN0,0,0,0,0,0,0,28,0,0,0,0,0,0,0*76
$GLGSV,2,1,05,23,46,008,46,24,52,285,45,12,15,157,41,13,76,189,44*67
$GLGSV,2,2,05,08,04,090,00*55
$ini_pos,lastpos_good = 1,ini_pos.x:-1578912.920321,ini_pos.y:5312772.320858,ini_pos.z:3146359.597256
Refix G01: 2, 374117.928559, 1412
Refix G03: 2, 374117.924176, -2785
Refix G06: 2, 374117.920920, -4533
Refix G07: 2, 374117.922236, 2464
Refix G11: 2, 374117.925706, 1625
Refix G17: 2, 374117.926789, -1962
Refix G18: 2, 374117.922101, 2357
Refix G22: 2, 374117.922453, -1277
Refix G28: 2, 374117.930290, -2502
Refix G30: 2, 374117.927992, 1326
$GNGGA,075500.000,2944.9086,N,10633.0915,E,1,24,0.6,327.4,M,,,,0000*12
$GNRMC,075500.000,A,2944.9086,N,10633.0915,E,0.26,0.00,090519,,*1C
$GPGSA,A,3,01,03,06,07,11,17,18,22,28,30,,,0.7,0.6,0.3*35
$BDGSA,A,3,01,02,03,04,07,08,10,13,27,30,,,0.7,0.6,0.3*2F
$GLGSA,A,3,12,13,23,24,,,,,,,,,0.7,0.6,0.3*2A
$GPGSV,3,1,10,01,45,042,45,03,29,107,40,06,18,217,41,07,20,177,40*79
$GPGSV,3,2,10,11,33,044,43,17,45,299,44,18,19,041,37,22,27,082,42*72
$GPGSV,3,3,10,28,65,352,44,30,44,206,44*72
$BDGSV,3,1,12,01,40,125,40,02,47,219,40,03,55,171,42,04,23,109,41*6B
$BDGSV,3,2,12,07,62,126,42,08,84,318,42,10,86,013,43,13,61,229,43*63
$BDGSV,3,3,12,27,48,030,44,30,53,290,44,05,00,000,36,32,00,000,37*6A
$B3CN0,0,0,0,0,0,0,27,0,0,0,0,0,0,0*79
$GLGSV,2,1,05,23,46,008,47,24,52,285,45,12,15,157,41,13,76,189,44*66
$GLGSV,2,2,05,08,04,090,00*55
$ini_pos,lastpos_good = 1,ini_pos.x:-1578913.071747,ini_pos.y:5312772.191444,ini_pos.z:3146359.567118
Refix G01: 2, 374118.928558, 1410
Refix G03: 2, 374118.924178, -2786
Refix G06: 2, 374118.920922, -4535
Refix G07: 2, 374118.922234, 2462
Refix G11: 2, 374118.925705, 1623
Refix G17: 2, 374118.926790, -1964
Refix G18: 2, 374118.922099, 2356
Refix G22: 2, 374118.922453, -1278
Refix G28: 2, 374118.930291, -2504
Refix G30: 2, 374118.927991, 1324
$GNGGA,075501.000,2944.9086,N,10633.0916,E,1,24,0.6,327.2,M,,,,0000*16
$GNRMC,075501.000,A,2944.9086,N,10633.0916,E,0.21,0.00,090519,,*19
