SD initialized success
Create debug.log Failed! 3
bbram_blkflag = 1
rtcflag = 0
BBRAM Block OK: 01 EPHflag: 28270465 a40012cf, rtc 00
Hot-start nowtime:day = 9,minute = 8,seconds = 31.00
GPS 0 Init Dop:  1973, 2
GPS 1 Init Dop: 10000,80
GPS 2 Init Dop: -2156, 2
GPS 3 Init Dop: 10000,80
GPS 4 Init Dop: 10000,80
GPS 5 Init Dop: -4078, 2
GPS 6 Init Dop:  2760, 2
GPS 7 Init Dop: 10000,80
GPS 8 Init Dop: 10000,80
GPS 9 Init Dop: 10000,80
GPS10 Init Dop:  2005, 2
GPS11 Init Dop: 10000,80
GPS12 Init Dop: 10000,80
GPS13 Init Dop: 10000,80
GPS14 Init Dop: 10000,80
GPS15 Init Dop: 10000,80
GPS16 Init Dop: -1616, 2
GPS17 Init Dop:  2726, 2
GPS18 Init Dop: -2713, 2
GPS19 Init Dop: 10000,80
GPS20 Init Dop: 10000,80
GPS21 Init Dop:  -588, 2
GPS22 Init Dop: 10000,80
GPS23 Init Dop: 10000,80
GPS24 Init Dop: 10000,80
GPS25 Init Dop: 10000,80
GPS26 Init Dop: 10000,80
GPS27 Init Dop: -2033, 2
GPS28 Init Dop: 10000,80
GPS29 Init Dop:  1884, 2
GPS30 Init Dop: 10000,80
GPS31 Init Dop: 10000,80
BDS 0 Init Dop:  -853, 2
BDS 1 Init Dop:  -912, 2
BDS 2 Init Dop:  -873, 2
BDS 3 Init Dop:  -871, 2
BDS 4 Init Dop: 10000,80
BDS 5 Init Dop: 10000,80
BDS 6 Init Dop:  -507, 2
BDS 7 Init Dop:  -638, 2
BDS 8 Init Dop: 10000,80
BDS 9 Init Dop:  -979, 2
BDS10 Init Dop: 10000,80
BDS11 Init Dop: 10000,80
BDS12 Init Dop: -1142, 2
BDS13 Init Dop: 10000,80
BDS14 Init Dop: 10000,80
BDS15 Init Dop: 10000,80
BDS16 Init Dop: 10000,80
BDS17 Init Dop: 10000,80
BDS18 Init Dop: 10000,80
BDS19 Init Dop: 10000,80
BDS20 Init Dop: 10000,80
BDS21 Init Dop: 10000,80
BDS22 Init Dop: 10000,80
BDS23 Init Dop: 10000,80
BDS24 Init Dop: 10000,80
BDS25 Init Dop: 10000,80
BDS26 Init Dop:   796, 2
BDS27 Init Dop: 10000,80
BDS28 Init Dop: 10000,80
BDS29 Init Dop: -1326, 2
BDS30 Init Dop: 10000,80
BDS31 Init Dop: -3280, 2
Good luck!
$ini_pos,lastpos_good = 1,ini_pos.x:-1578915.000000,ini_pos.y:5312782.000000,ini_pos.z:3146362.000000
$rtc_local_time,localRTC.weeks:2052,localRTC.seconds:374930.026014,localGtime.weeks:0,localGtime.seconds:19.026010
$GNGGA,000000.000,,,,,0,00,,,M,,,,0000*2B
$GNRMC,000000.000,A,,,,,,,060180,,*29
$GPGSA,A,1,,,,,,,,,,,,,,,*1E
$BDGSA,A,1,,,,,,,,,,,,,,,*0F
$GLGSA,A,1,,,,,,,,,,,,,,,*02
$B3CN0,0,0,0,0,0,0,0,0,0,0,0,0,0,0*4C
$ini_pos,lastpos_good = 1,ini_pos.x:-1578915.000000,ini_pos.y:5312782.000000,ini_pos.z:3146362.000000
$rtc_local_time,localRTC.weeks:2052,localRTC.seconds:374931.026014,localGtime.weeks:2052,localGtime.seconds:374931.026014
i = 0
i = 1
$GNGGA,000000.000,,,,,0,00,,,M,,,,0000*2B
$GNRMC,000000.000,A,,,,,,,060180,,*29
$GPGSA,A,1,,,,,,,,,,,,,,,*1E
$BDGSA,A,1,,,,,,,,,,,,,,,*0F
$GLGSA,A,1,,,,,,,,,,,,,,,*02
$B3CN0,0,0,0,0,0,0,0,0,0,0,0,0,0,0*4C
$ini_pos,lastpos_good = 1,ini_pos.x:-1578915.000000,ini_pos.y:5312782.000000,ini_pos.z:3146362.000000
$rtc_local_time,localRTC.weeks:2052,localRTC.seconds:374932.026014,localGtime.weeks:2052,localGtime.seconds:374932.026014
i = 0
$pseudo_cd_ph,prn:1,pseudo_cd_ph:11.255434440844
$meas,msRange:72.850319,x:-13637275.924559,y:7779059.389820,z:21187941.785058,vx:-347.591125,vy:-2713.533691,vz:797.509094,tb:-0.000012156057
i = 1
$pseudo_cd_ph,prn:3,pseudo_cd_ph:9.031172967726
$meas,msRange:75.276494,x:-23056117.326076,y:11664522.780471,z:5915924.478136,vx:451.629242,vy:-667.452515,vz:3064.825195,tb:0.000188131839
i = 2
$pseudo_cd_ph,prn:6,pseudo_cd_ph:6.722268500752
$meas,msRange:77.608280,x:6927011.462480,y:24848566.428235,z:-6198464.216833,vx:-143.256668,vy:812.752747,vz:3079.248535,tb:0.000210275433
i = 3
$pseudo_cd_ph,prn:11,pseudo_cd_ph:8.340541119916
$meas,msRange:75.166972,x:-16249868.814012,y:3488111.855456,z:20153356.777541,vx:-1317.051636,vy:-2365.247314,vz:-660.725220,tb:-0.000610439296
i = 4
i = 5
i = 6
i = 7
$GNGGA,000000.000,,,,,0,00,,,M,,,,0000*2B
$GNRMC,000000.000,A,,,,,,,060180,,*29
$GPGSA,A,1,,,,,,,,,,,,,,,*1E
$BDGSA,A,1,,,,,,,,,,,,,,,*0F
$GLGSA,A,1,,,,,,,,,,,,,,,*02
$GPGSV,1,1,03,01,00,000,26,03,00,000,24,06,00,000,16*4B
$B3CN0,0,0,0,0,0,0,0,0,0,0,0,0,0,0*4C
$ini_pos,lastpos_good = 1,ini_pos.x:-1578915.000000,ini_pos.y:5312782.000000,ini_pos.z:3146362.000000
$rtc_local_time,localRTC.weeks:2052,localRTC.seconds:374933.026014,localGtime.weeks:2052,localGtime.seconds:374933.026014
i = 0
$pseudo_cd_ph,prn:1,pseudo_cd_ph:11.254292313771
$meas,msRange:72.852134,x:-13637623.601646,y:7776345.817647,z:21188739.063835,vx:-347.763062,vy:-2713.610840,vz:797.048523,tb:-0.000012156069
i = 1
$pseudo_cd_ph,prn:3,pseudo_cd_ph:9.032639653569
$meas,msRange:75.275688,x:-23055665.560108,y:11663855.201223,z:5918989.239848,vx:451.902740,vy:-667.705994,vz:3064.698486,tb:0.000188131838
i = 2
$pseudo_cd_ph,prn:6,pseudo_cd_ph:6.724947156561
$meas,msRange:77.606256,x:6926868.209553,y:24849378.992272,z:-6195384.902183,vx:-143.249207,vy:812.375366,vz:3079.380859,tb:0.000210275423
i = 3
$pseudo_cd_ph,prn:11,pseudo_cd_ph:8.339366998607
$meas,msRange:75.168807,x:-16251185.899630,y:3485746.674481,z:20152695.827031,vx:-1317.119629,vy:-2365.114746,vz:-661.175842,tb:-0.000610439294
i = 4
$pseudo_cd_ph,prn:17,pseudo_cd_ph:11.289296214532
$meas,msRange:72.882537,x:7018540.410725,y:17715942.331763,z:18946717.152597,vx:-2102.773926,vy:-966.637512,vz:1711.419067,tb:0.000051829825
i = 5
$pseudo_cd_ph,prn:18,pseudo_cd_ph:4.356431276801
$meas,msRange:79.813425,x:-15451837.096906,y:-2562298.322580,z:20980307.932976,vx:-373.403534,vy:-2754.466309,vz:-584.371338,tb:0.000051535552
i = 6
$pseudo_cd_ph,prn:19,pseudo_cd_ph:8.513036830451
$meas,msRange:75.286229,x:14362827.626686,y:18033110.904733,z:12814289.556395,vx:-1549.395508,vy:-665.946777,vz:2620.498047,tb:-0.000321134665
i = 7
$pseudo_cd_ph,prn:22,pseudo_cd_ph:6.510962701613
$meas,msRange:76.910793,x:-22447824.979663,y:6272487.952170,z:12903756.606700,vx:1033.457153,vy:-1275.546875,vz:2470.432617,tb:-0.000697811458
i = 8
$pseudo_cd_ph,prn:28,pseudo_cd_ph:15.040638585244
$meas,msRange:69.847337,x:-5647134.285250,y:18244580.461992,z:19105354.071493,vx:-2013.079590,vy:1098.076416,vz:-1689.039551,tb:0.000767836772
i = 9
$pseudo_cd_ph,prn:30,pseudo_cd_ph:10.731600861163
$meas,msRange:73.285749,x:-1109868.296740,y:26159782.772079,z:-3773587.649221,vx:-384.449036,vy:-462.486328,vz:-3095.140381,tb:-0.000101261058
i = 10
i = 11
i = 12
i = 13
$GNGGA,000000.000,,,,,0,00,,,M,,,,0000*2B
$GNRMC,000000.000,A,,,,,,,060180,,*29
$GPGSA,A,1,,,,,,,,,,,,,,,*1E
$BDGSA,A,1,,,,,,,,,,,,,,,*0F
$GLGSA,A,1,,,,,,,,,,,,,,,*02
$GPGSV,2,1,08,01,00,000,43,03,00,000,41,06,00,000,43,11,00,000,34*74
$GPGSV,2,2,08,17,00,000,27,18,00,000,26,19,00,000,27,22,00,000,24*74
$B3CN0,0,0,0,0,0,0,0,0,0,0,0,0,0,0*4C
$ini_pos,lastpos_good = 1,ini_pos.x:-1578915.000000,ini_pos.y:5312782.000000,ini_pos.z:3146362.000000
$rtc_local_time,localRTC.weeks:2052,localRTC.seconds:374934.026014,localGtime.weeks:2052,localGtime.seconds:374934.026014
i = 0
$pseudo_cd_ph,prn:1,pseudo_cd_ph:11.253153117638
$meas,msRange:72.853950,x:-13637971.450653,y:7773632.168560,z:21189535.882076,vx:-347.934967,vy:-2713.687500,vz:796.588013,tb:-0.000012156080
i = 1
$pseudo_cd_ph,prn:3,pseudo_cd_ph:9.034113759985
$meas,msRange:75.274883,x:-23055213.520666,y:11663187.368459,z:5922053.874856,vx:452.176178,vy:-667.959534,vz:3064.571777,tb:0.000188131837
i = 2
$pseudo_cd_ph,prn:6,pseudo_cd_ph:6.727632531905
$meas,msRange:77.604233,x:6926724.964068,y:24850191.178874,z:-6192305.455250,vx:-143.241791,vy:811.997925,vz:3079.513184,tb:0.000210275412
i = 3
$pseudo_cd_ph,prn:11,pseudo_cd_ph:8.338195890276
$meas,msRange:75.170643,x:-16252503.053270,y:3483381.626206,z:20152034.425881,vx:-1317.187622,vy:-2364.981934,vz:-661.626465,tb:-0.000610439291
i = 4
$pseudo_cd_ph,prn:17,pseudo_cd_ph:11.290419130148
$meas,msRange:72.882075,x:7016437.513084,y:17714975.712767,z:18948428.377040,vx:-2103.021484,vy:-966.600525,vz:1711.029907,tb:0.000051829834
i = 5
$pseudo_cd_ph,prn:18,pseudo_cd_ph:4.354809929782
$meas,msRange:79.815719,x:-15452210.570819,y:-2565052.739928,z:20979723.328692,vx:-373.544312,vy:-2754.368652,vz:-584.837280,tb:0.000051535551
i = 6
$pseudo_cd_ph,prn:19,pseudo_cd_ph:8.514857824480
$meas,msRange:75.285071,x:14361278.064834,y:18032444.923059,z:12816909.915158,vx:-1549.728271,vy:-666.016602,vz:2620.219727,tb:-0.000321134662
i = 7
$pseudo_cd_ph,prn:22,pseudo_cd_ph:6.511447112232
$meas,msRange:76.910983,x:-22446791.438699,y:6271212.280562,z:12906226.903173,vx:1033.624878,vy:-1275.796387,vz:2470.160400,tb:-0.000697811463
i = 8
$pseudo_cd_ph,prn:28,pseudo_cd_ph:15.042027254375
$meas,msRange:69.846610,x:-5649147.242593,y:18245678.549261,z:19103664.838806,vx:-2012.835205,vy:1098.098145,vz:-1689.425903,tb:0.000767836778
i = 9
$pseudo_cd_ph,prn:30,pseudo_cd_ph:10.730509902492
$meas,msRange:73.287510,x:-1110252.770509,y:26159320.101698,z:-3776682.748773,vx:-384.498535,vy:-462.854462,vz:-3095.059082,tb:-0.000101261066
i = 10
i = 11
i = 12
i = 13
i = 14
i = 15
i = 16
i = 17
$GNGGA,000000.000,,,,,0,00,,,M,,,,0000*2B
$GNRMC,000000.000,A,,,,,,,060180,,*29
$GPGSA,A,1,,,,,,,,,,,,,,,*1E
$BDGSA,A,1,,,,,,,,,,,,,,,*0F
$GLGSA,A,1,,,,,,,,,,,,,,,*02
$GPGSV,3,1,10,01,00,000,42,03,00,000,41,06,00,000,42,11,00,000,39*71
$GPGSV,3,2,10,17,00,000,45,18,00,000,36,19,00,000,40,22,00,000,42*78
$GPGSV,3,3,10,28,00,000,37,30,00,000,34*72
$BDGSV,1,1,04,01,00,000,40,02,00,000,39,07,00,000,23,08,00,000,23*6E
$B3CN0,0,0,0,0,0,0,0,0,0,0,0,0,0,0*4C
tow update,374935835.043421
$ini_pos,lastpos_good = 1,ini_pos.x:-1578915.000000,ini_pos.y:5312782.000000,ini_pos.z:3146362.000000
$rtc_local_time,localRTC.weeks:2052,localRTC.seconds:374935.026014,localGtime.weeks:2052,localGtime.seconds:374935.835043
i = 0
$pseudo_cd_ph,prn:1,pseudo_cd_ph:374935631.252016782761
$meas,msRange:72.857236,x:-13638601.156733,y:7768722.901115,z:21190976.179886,vx:-348.246002,vy:-2713.826416,vz:795.754822,tb:-0.000012156100
i = 1
$pseudo_cd_ph,prn:3,pseudo_cd_ph:374935629.035590648651
$meas,msRange:75.273427,x:-23054395.073112,y:11661978.594808,z:5927597.568979,vx:452.670746,vy:-668.418274,vz:3064.342285,tb:0.000188131835
i = 2
$pseudo_cd_ph,prn:6,pseudo_cd_ph:374935626.730323493481
$meas,msRange:77.600573,x:6926465.847445,y:24851659.489662,z:-6186734.307877,vx:-143.228500,vy:811.315063,vz:3079.752197,tb:0.000210275394
i = 3
$pseudo_cd_ph,prn:11,pseudo_cd_ph:374935628.337028145790
$meas,msRange:75.173964,x:-16254885.996240,y:3479103.520564,z:20150836.786500,vx:-1317.310547,vy:-2364.741699,vz:-662.441650,tb:-0.000610439287
i = 4
$pseudo_cd_ph,prn:17,pseudo_cd_ph:374935631.291547000408
$meas,msRange:72.881239,x:7012632.678915,y:17713227.164324,z:18951523.044111,vx:-2103.469727,vy:-966.533386,vz:1710.325684,tb:0.000051829852
i = 5
$pseudo_cd_ph,prn:18,pseudo_cd_ph:374935624.353188276291
$meas,msRange:79.819867,x:-15452886.553928,y:-2570035.314651,z:20978664.578255,vx:-373.798920,vy:-2754.191406,vz:-585.680115,tb:0.000051535548
i = 6
$pseudo_cd_ph,prn:19,pseudo_cd_ph:374935628.516683459282
$meas,msRange:75.282976,x:14358474.015767,y:18031239.965006,z:12821649.514858,vx:-1550.330200,vy:-666.142761,vz:2619.715820,tb:-0.000321134658
i = 7
$pseudo_cd_ph,prn:22,pseudo_cd_ph:374935626.511934041977
$meas,msRange:76.911328,x:-22444921.306043,y:6268903.918354,z:12910695.051857,vx:1033.928223,vy:-1276.247925,vz:2469.668213,tb:-0.000697811473
i = 8
$pseudo_cd_ph,prn:28,pseudo_cd_ph:374935635.043420851231
$meas,msRange:69.845294,x:-5652788.121775,y:18247665.077086,z:19100607.984995,vx:-2012.393188,vy:1098.137329,vz:-1690.124634,tb:0.000767836788
i = 9
$pseudo_cd_ph,prn:30,pseudo_cd_ph:374935630.729421734810
$meas,msRange:73.290696,x:-1110948.420848,y:26158482.181869,z:-3782281.669584,vx:-384.588165,vy:-463.520355,vz:-3094.911621,tb:-0.000101261081
i = 10
i = 11
i = 12
i = 13
i = 14
i = 15
i = 16
i = 17
$GNGGA,080837.704,2944.9079,N,10633.0911,E,1,11,0.9,332.3,M,,,,0000*1C
$GNRMC,080837.704,A,2944.9079,N,10633.0911,E,0.32,0.00,090519,,*1D
$GPGSA,A,3,01,03,06,11,17,18,19,22,28,30,,,2.0,0.9,1.8*3A
$BDGSA,A,3,03,,,,,,,,,,,,2.0,0.9,1.8*22
$GLGSA,A,3,,,,,,,,,,,,,2.0,0.9,1.8*2C
$GPGSV,3,1,10,01,00,000,42,03,00,000,42,06,00,000,43,11,00,000,40*7D
$GPGSV,3,2,10,17,00,000,44,18,00,000,36,19,00,000,39,22,00,000,41*74
$GPGSV,3,3,10,28,00,000,43,30,00,000,45*77
$BDGSV,2,1,08,01,00,000,41,02,00,000,39,03,00,000,41,04,00,000,39*67
$BDGSV,2,2,08,07,00,000,43,08,00,000,43,10,00,000,44,13,00,000,33*6C
$B3CN0,0,0,0,0,0,0,0,0,0,0,0,0,0,0*4C
$ini_pos,lastpos_good = 1,ini_pos.x:-1578913.925753,ini_pos.y:5312777.007720,ini_pos.z:3146360.988324
$rtc_local_time,localRTC.weeks:2052,localRTC.seconds:374936.321892,localGtime.weeks:2052,localGtime.seconds:374937.000000
i = 0
$pseudo_cd_ph,prn:1,pseudo_cd_ph:374936927.129423499107
$meas,msRange:72.859358,x:-13639006.964847,y:7765561.359349,z:21191902.887061,vx:-348.446320,vy:-2713.915771,vz:795.218262,tb:-0.000012156113
i = 1
$pseudo_cd_ph,prn:3,pseudo_cd_ph:374936924.916387677193
$meas,msRange:75.272499,x:-23053867.545924,y:11661199.744527,z:5931167.308227,vx:452.989166,vy:-668.713745,vz:3064.194336,tb:0.000188131834
i = 2
$pseudo_cd_ph,prn:6,pseudo_cd_ph:374936922.612692296505
$meas,msRange:77.598227,x:6926298.997408,y:24852604.380253,z:-6183146.440992,vx:-143.220047,vy:810.875305,vz:3079.906006,tb:0.000210275382
i = 3
$pseudo_cd_ph,prn:11,pseudo_cd_ph:374936924.214395761490
$meas,msRange:75.176107,x:-16256420.651791,y:3476348.789528,z:20150064.765050,vx:-1317.389648,vy:-2364.586914,vz:-662.966553,tb:-0.000610439285
i = 4
$pseudo_cd_ph,prn:17,pseudo_cd_ph:374936927.171893179417
$meas,msRange:72.880711,x:7010182.060127,y:17712101.220235,z:18953515.234827,vx:-2103.758301,vy:-966.490051,vz:1709.872070,tb:0.000051829864
i = 5
$pseudo_cd_ph,prn:18,pseudo_cd_ph:374936920.229975700378
$meas,msRange:79.822538,x:-15453322.108896,y:-2573243.761408,z:20977981.970267,vx:-373.962860,vy:-2754.077393,vz:-586.222900,tb:0.000051535546
i = 6
$pseudo_cd_ph,prn:19,pseudo_cd_ph:374936924.397933840752
$meas,msRange:75.281636,x:14356667.722864,y:18030463.890387,z:12824701.180644,vx:-1550.717773,vy:-666.223938,vz:2619.391113,tb:-0.000321134656
i = 7
$pseudo_cd_ph,prn:22,pseudo_cd_ph:374936922.391444981098
$meas,msRange:76.911556,x:-22443716.710890,y:6267416.975664,z:12913571.923028,vx:1034.123535,vy:-1276.538696,vz:2469.351074,tb:-0.000697811479
i = 8
$pseudo_cd_ph,prn:28,pseudo_cd_ph:374936930.924112379551
$meas,msRange:69.844461,x:-5655132.306448,y:18248944.373994,z:19098638.801342,vx:-2012.108521,vy:1098.162598,vz:-1690.574463,tb:0.000767836795
i = 9
$pseudo_cd_ph,prn:30,pseudo_cd_ph:374936926.606893777847
$meas,msRange:73.292762,x:-1111396.482964,y:26157941.951071,z:-3785887.051712,vx:-384.645966,vy:-463.949158,vz:-3094.816895,tb:-0.000101261091
i = 10
i = 11
i = 12
i = 13
i = 14
i = 15
i = 16
i = 17
i = 18
Refix G01: 2, 374936.927129, 1742
Refix G03: 2, 374936.924916, -2385
Refix G06: 2, 374936.922613, -4305
Refix G07: 2, 374936.920328, 2531
Refix G11: 2, 374936.924214, 1773
Refix G17: 2, 374936.927172, -1846
Refix G18: 2, 374936.920230, 2493
Refix G19: 2, 374936.924398, -2942
Refix G22: 2, 374936.922391, -817
Refix G28: 2, 374936.930924, -2263
Refix G30: 2, 374936.926607, 1657
$GNGGA,080839.000,2944.9095,N,10633.0901,E,1,14,0.8,327.3,M,,,,0000*12
$GNRMC,080839.000,A,2944.9095,N,10633.0901,E,0.33,0.00,090519,,*12
$GPGSA,A,3,01,03,06,11,17,18,19,22,28,30,,,1.1,0.8,0.8*38
$BDGSA,A,3,01,02,03,04,,,,,,,,,1.1,0.8,0.8*27
$GLGSA,A,3,,,,,,,,,,,,,1.1,0.8,0.8*2E
$GPGSV,3,1,10,01,00,000,43,03,00,000,42,06,00,000,43,11,00,000,40*7C
$GPGSV,3,2,10,17,00,000,44,18,00,000,37,19,00,000,40,22,00,000,42*78
$GPGSV,3,3,10,28,00,000,43,30,00,000,44*76
$BDGSV,3,1,09,01,00,000,40,02,00,000,40,03,00,000,43,04,00,000,41*65
$BDGSV,3,2,09,07,00,000,42,08,00,000,42,10,00,000,44,13,00,000,43*6B
$BDGSV,3,3,09,27,00,000,30*57
$B3CN0,19,0,0,0,0,0,0,0,0,0,0,0,0,0*74
$ini_pos,lastpos_good = 1,ini_pos.x:-1578910.682600,ini_pos.y:5312771.931807,ini_pos.z:3146360.929425
$rtc_local_time,localRTC.weeks:2052,localRTC.seconds:374937.321892,localGtime.weeks:2052,localGtime.seconds:374938.000000
i = 0
$pseudo_cd_ph,prn:1,pseudo_cd_ph:374937927.128284394741
$meas,msRange:72.861183,x:-13639355.497125,y:7762847.405304,z:21192697.874976,vx:-348.618256,vy:-2713.992432,vz:794.757629,tb:-0.000012156124
i = 1
$pseudo_cd_ph,prn:3,pseudo_cd_ph:374937924.917867183685
$meas,msRange:75.271710,x:-23053414.420138,y:11660530.904001,z:5934231.439068,vx:453.262451,vy:-668.967346,vz:3064.067383,tb:0.000188131833
i = 2
$pseudo_cd_ph,prn:6,pseudo_cd_ph:374937922.615387082100
$meas,msRange:77.596215,x:6926155.780976,y:24853415.066799,z:-6180066.469020,vx:-143.212830,vy:810.497803,vz:3080.038086,tb:0.000210275372
i = 3
$pseudo_cd_ph,prn:11,pseudo_cd_ph:374937924.213233053684
$meas,msRange:75.177949,x:-16257738.075333,y:3473984.269098,z:20149401.573203,vx:-1317.457520,vy:-2364.454102,vz:-663.417175,tb:-0.000610439283
i = 4
$pseudo_cd_ph,prn:17,pseudo_cd_ph:374937927.173025727272
$meas,msRange:72.880255,x:7008078.178049,y:17711134.748813,z:18955224.912155,vx:-2104.005859,vy:-966.452820,vz:1709.482666,tb:0.000051829874
i = 5
$pseudo_cd_ph,prn:18,pseudo_cd_ph:374937920.228356778622
$meas,msRange:79.824833,x:-15453696.142094,y:-2575997.789717,z:20977395.514472,vx:-374.103546,vy:-2753.979492,vz:-586.688782,tb:0.000051535545
i = 6
$pseudo_cd_ph,prn:19,pseudo_cd_ph:374937924.399764955044
$meas,msRange:75.280480,x:14355116.838832,y:18029797.631668,z:12827320.432446,vx:-1551.050415,vy:-666.293518,vz:2619.112549,tb:-0.000321134654
i = 7
$pseudo_cd_ph,prn:22,pseudo_cd_ph:374937922.391933321953
$meas,msRange:76.911759,x:-22442682.503613,y:6266140.312160,z:12916041.137833,vx:1034.291138,vy:-1276.788330,vz:2469.078613,tb:-0.000697811485
i = 8
$pseudo_cd_ph,prn:28,pseudo_cd_ph:374937930.925511419773
$meas,msRange:69.843748,x:-5657144.292697,y:18250042.547277,z:19096948.033802,vx:-2011.864136,vy:1098.184082,vz:-1690.960693,tb:0.000767836800
i = 9
$pseudo_cd_ph,prn:30,pseudo_cd_ph:374937926.605807423592
$meas,msRange:73.294540,x:-1111781.153734,y:26157477.817907,z:-3788981.827611,vx:-384.695618,vy:-464.317200,vz:-3094.735107,tb:-0.000101261100
i = 10
i = 11
i = 12
i = 13
i = 14
i = 15
i = 16
i = 17
i = 18
Refix G01: 2, 374937.927128, 1740
Refix G03: 2, 374937.924918, -2387
Refix G06: 2, 374937.922615, -4308
Refix G07: 2, 374937.920326, 2527
Refix G11: 2, 374937.924213, 1770
Refix G17: 2, 374937.927173, -1849
Refix G18: 2, 374937.920228, 2490
Refix G19: 2, 374937.924400, -2946
Refix G22: 2, 374937.922392, -819
Refix G28: 2, 374937.930926, -2265
Refix G30: 2, 374937.926606, 1654
$GNGGA,080840.000,2944.9092,N,10633.0906,E,1,18,0.7,323.5,M,,,,0000*1D
$GNRMC,080840.000,A,2944.9092,N,10633.0906,E,0.37,0.00,090519,,*18
$GPGSA,A,3,01,03,06,11,17,18,19,22,28,30,,,0.9,0.7,0.5*33
$BDGSA,A,3,01,02,03,04,07,08,10,13,,,,,0.9,0.7,0.5*20
$GLGSA,A,3,,,,,,,,,,,,,0.9,0.7,0.5*25
$GPGSV,3,1,11,01,39,040,43,03,32,100,42,06,24,220,42,11,27,047,40*72
$GPGSV,3,2,11,17,47,307,44,18,13,042,37,19,30,283,40,22,27,075,42*77
$GPGSV,3,3,11,28,70,001,44,30,38,201,45,07,14,175,00*4E
$BDGSV,3,1,11,01,40,125,41,02,47,219,40,03,55,171,43,04,23,109,39*67
$BDGSV,3,2,11,07,61,132,42,08,81,329,43,10,89,032,43,13,62,236,43*61
$BDGSV,3,3,11,27,44,035,45,30,55,300,00,32,14,137,00*5B
$B3CN0,0,0,0,0,0,0,0,0,0,0,0,0,0,0*4C
$ini_pos,lastpos_good = 1,ini_pos.x:-1578910.596610,ini_pos.y:5312768.747283,ini_pos.z:3146358.633246
$rtc_local_time,localRTC.weeks:2052,localRTC.seconds:374938.321892,localGtime.weeks:2052,localGtime.seconds:374939.000000
i = 0
$pseudo_cd_ph,prn:1,pseudo_cd_ph:374938927.127149939537
$meas,msRange:72.863008,x:-13639704.201353,y:7760133.374694,z:21193492.402273,vx:-348.790222,vy:-2714.068848,vz:794.296997,tb:-0.000012156135
i = 1
$pseudo_cd_ph,prn:3,pseudo_cd_ph:374938924.919351398945
$meas,msRange:75.270911,x:-23052961.021097,y:11659861.809812,z:5937295.442879,vx:453.535675,vy:-669.221069,vz:3063.940430,tb:0.000188131832
i = 2
$pseudo_cd_ph,prn:6,pseudo_cd_ph:374938922.618090271950
$meas,msRange:77.594198,x:6926012.571725,y:24854225.375842,z:-6176986.365093,vx:-143.205688,vy:810.120300,vz:3080.169922,tb:0.000210275361
i = 3
i = 4
$pseudo_cd_ph,prn:11,pseudo_cd_ph:374938924.212082207203
$meas,msRange:75.179790,x:-16259055.566688,y:3471619.881618,z:20148737.930787,vx:-1317.525269,vy:-2364.321045,vz:-663.867737,tb:-0.000610439280
i = 5
$pseudo_cd_ph,prn:17,pseudo_cd_ph:374938927.174165010452
$meas,msRange:72.879805,x:7005974.048346,y:17710168.314654,z:18956934.200087,vx:-2104.253662,vy:-966.415527,vz:1709.093262,tb:0.000051829884
i = 6
$pseudo_cd_ph,prn:18,pseudo_cd_ph:374938920.226746976376
$meas,msRange:79.827129,x:-15454070.315981,y:-2578751.719964,z:20976808.592804,vx:-374.244232,vy:-2753.881348,vz:-587.154602,tb:0.000051535543
i = 7
$pseudo_cd_ph,prn:19,pseudo_cd_ph:374938924.401603758335
$meas,msRange:75.279332,x:14353565.622126,y:18029131.303379,z:12829939.405553,vx:-1551.383057,vy:-666.363098,vz:2618.833740,tb:-0.000321134651
i = 8
$pseudo_cd_ph,prn:22,pseudo_cd_ph:374938922.392425596714
$meas,msRange:76.911954,x:-22441648.128801,y:6264863.399049,z:12918510.080322,vx:1034.458618,vy:-1277.037964,vz:2468.806396,tb:-0.000697811490
i = 9
$pseudo_cd_ph,prn:28,pseudo_cd_ph:374938930.926916718483
$meas,msRange:69.843034,x:-5659156.034501,y:18251140.742071,z:19095256.880118,vx:-2011.619629,vy:1098.205566,vz:-1691.346802,tb:0.000767836806
i = 10
$pseudo_cd_ph,prn:30,pseudo_cd_ph:374938926.604726314545
$meas,msRange:73.296309,x:-1112165.874195,y:26157013.316691,z:-3792076.521902,vx:-384.745331,vy:-464.685242,vz:-3094.653564,tb:-0.000101261108
i = 11
i = 12
i = 13
i = 14
i = 15
i = 16
i = 17
i = 18
i = 19
i = 20
i = 21
i = 22
i = 23
Refix G01: 2, 374938.927127, 1750
Refix G03: 2, 374938.924919, -2377
Refix G06: 2, 374938.922618, -4299
Refix G07: 2, 374938.920325, 2536
Refix G11: 2, 374938.924212, 1779
Refix G17: 2, 374938.927174, -1839
Refix G18: 2, 374938.920227, 2499
Refix G19: 2, 374938.924402, -2936
Refix G22: 2, 374938.922392, -809
Refix G28: 2, 374938.930927, -2254
Refix G30: 2, 374938.926605, 1664
$GNGGA,080841.000,2944.9091,N,10633.0910,E,1,18,0.7,323.8,M,,,,0000*15
$GNRMC,080841.000,A,2944.9091,N,10633.0910,E,0.35,0.00,090519,,*1F
$GPGSA,A,3,01,03,06,11,17,18,19,22,28,30,,,0.9,0.7,0.5*33
$BDGSA,A,3,01,02,03,04,07,08,10,13,,,,,0.9,0.7,0.5*20
$GLGSA,A,3,,,,,,,,,,,,,0.9,0.7,0.5*25
$GPGSV,3,1,11,01,39,040,42,03,32,100,41,06,24,220,42,11,27,047,39*7E
$GPGSV,3,2,11,17,47,307,44,18,13,042,37,19,30,283,39,22,27,075,41*7A
$GPGSV,3,3,11,28,70,001,43,30,38,201,45,07,14,175,00*49
$BDGSV,3,1,11,01,40,125,40,02,47,219,40,03,55,171,43,04,23,109,41*69
$BDGSV,3,2,11,07,61,132,42,08,81,329,42,10,89,032,43,13,62,236,43*60
$BDGSV,3,3,11,27,44,035,44,30,55,300,00,32,14,137,00*5A
$B3CN0,0,16,0,0,0,0,0,0,0,0,0,0,0,0*7B
$ini_pos,lastpos_good = 1,ini_pos.x:-1578911.232428,ini_pos.y:5312768.961449,ini_pos.z:3146358.626478
$rtc_local_time,localRTC.weeks:2052,localRTC.seconds:374939.321892,localGtime.weeks:2052,localGtime.seconds:374940.000000
i = 0
$pseudo_cd_ph,prn:1,pseudo_cd_ph:374939927.126010119915
$meas,msRange:72.864824,x:-13640053.077539,y:7757419.267589,z:21194286.468937,vx:-348.962189,vy:-2714.145508,vz:793.836365,tb:-0.000012156146
i = 1
$pseudo_cd_ph,prn:3,pseudo_cd_ph:374939924.920831441879
$meas,msRange:75.270105,x:-23052507.348846,y:11659192.461932,z:5940359.319594,vx:453.808868,vy:-669.474731,vz:3063.813232,tb:0.000188131830
i = 2
$pseudo_cd_ph,prn:6,pseudo_cd_ph:374939922.620789825916
$meas,msRange:77.592176,x:6925869.369600,y:24855035.307367,z:-6173906.129276,vx:-143.198578,vy:809.742798,vz:3080.301758,tb:0.000210275351
i = 3
$pseudo_cd_ph,prn:7,pseudo_cd_ph:0.323017109175
$meas,msRange:79.659378,x:-7959741.423374,y:20754928.708165,z:-13916477.958144,vx:-433.445709,vy:-1798.434814,vz:-2437.483887,tb:-0.000020650634
i = 4
$pseudo_cd_ph,prn:11,pseudo_cd_ph:374939924.210928082466
$meas,msRange:75.181625,x:-16260373.125813,y:3469255.627138,z:20148073.837817,vx:-1317.593018,vy:-2364.187988,vz:-664.318237,tb:-0.000610439278
i = 5
$pseudo_cd_ph,prn:17,pseudo_cd_ph:374939927.175300538540
$meas,msRange:72.879344,x:7003869.671055,y:17709201.917810,z:18958643.098589,vx:-2104.501221,vy:-966.378174,vz:1708.703857,tb:0.000051829894
i = 6
$pseudo_cd_ph,prn:18,pseudo_cd_ph:374939920.225131988525
$meas,msRange:79.829421,x:-15454444.630535,y:-2581505.552081,z:20976221.205278,vx:-374.384888,vy:-2753.783203,vz:-587.620483,tb:0.000051535542
i = 7
$pseudo_cd_ph,prn:19,pseudo_cd_ph:374939924.403435647488
$meas,msRange:75.278175,x:14352014.072762,y:18028464.905579,z:12832558.099908,vx:-1551.715698,vy:-666.432556,vz:2618.554932,tb:-0.000321134649
i = 8
$pseudo_cd_ph,prn:22,pseudo_cd_ph:374939922.392911016941
$meas,msRange:76.912145,x:-22440613.586509,y:6263586.236327,z:12920978.750446,vx:1034.626099,vy:-1277.287598,vz:2468.533936,tb:-0.000697811496
i = 9
$pseudo_cd_ph,prn:28,pseudo_cd_ph:374939930.928317189217
$meas,msRange:69.842307,x:-5661167.531824,y:18252238.958324,z:19093565.340323,vx:-2011.375122,vy:1098.227051,vz:-1691.732910,tb:0.000767836812
i = 10
$pseudo_cd_ph,prn:30,pseudo_cd_ph:374939926.603642523289
$meas,msRange:73.298071,x:-1112550.644394,y:26156548.447436,z:-3795171.134518,vx:-384.795105,vy:-465.053284,vz:-3094.571777,tb:-0.000101261116
i = 11
i = 12
i = 13
i = 14
i = 15
i = 16
i = 17
i = 18
i = 19
i = 20
i = 21
i = 22
i = 23
i = 24
Refix G01: 2, 374939.927126, 1744
Refix G03: 2, 374939.924921, -2383
Refix G06: 2, 374939.922621, -4303
Refix G07: 2, 374939.920323, 2531
Refix G11: 2, 374939.924211, 1774
Refix G17: 2, 374939.927175, -1845
Refix G18: 2, 374939.920225, 2495
Refix G19: 2, 374939.924403, -2941
Refix G22: 2, 374939.922393, -815
Refix G28: 2, 374939.930928, -2261
Refix G30: 2, 374939.926604, 1658
$GNGGA,080842.000,2944.9091,N,10633.0911,E,1,18,0.7,323.1,M,,,,0000*1E
$GNRMC,080842.000,A,2944.9091,N,10633.0911,E,0.16,0.00,090519,,*1C
$GPGSA,A,3,01,03,06,11,17,18,19,22,28,30,,,0.9,0.7,0.5*33
$BDGSA,A,3,01,02,03,04,07,08,10,13,,,,,0.9,0.7,0.5*20
$GLGSA,A,3,,,,,,,,,,,,,0.9,0.7,0.5*25
$GPGSV,3,1,11,01,39,040,43,03,32,100,41,06,24,220,42,07,14,175,38*79
$GPGSV,3,2,11,11,27,047,40,17,47,307,44,18,13,042,37,19,30,283,40*74
$GPGSV,3,3,11,22,27,075,41,28,70,001,44,30,38,201,44*4C
$BDGSV,3,1,11,01,40,125,41,02,47,219,40,03,55,171,42,04,23,109,41*69
$BDGSV,3,2,11,07,61,132,42,08,81,329,43,10,89,032,43,13,62,236,43*61
$BDGSV,3,3,11,27,44,035,44,30,55,300,00,32,14,137,00*5A
$B3CN0,22,17,0,0,0,0,0,0,0,0,0,0,0,0*4A
$ini_pos,lastpos_good = 1,ini_pos.x:-1578911.327739,ini_pos.y:5312768.327998,ini_pos.z:3146358.276433
$rtc_local_time,localRTC.weeks:2052,localRTC.seconds:374940.321892,localGtime.weeks:2052,localGtime.seconds:374941.000000
i = 0
$pseudo_cd_ph,prn:1,pseudo_cd_ph:374940927.124870240688
$meas,msRange:72.866642,x:-13640402.125689,y:7754705.084060,z:21195080.074952,vx:-349.134155,vy:-2714.221924,vz:793.375732,tb:-0.000012156158
i = 1
$pseudo_cd_ph,prn:3,pseudo_cd_ph:374940924.922311842442
$meas,msRange:75.269302,x:-23052053.403429,y:11658522.860332,z:5943423.069148,vx:454.082001,vy:-669.728516,vz:3063.686035,tb:0.000188131829
i = 2
$pseudo_cd_ph,prn:6,pseudo_cd_ph:374940922.623489201069
$meas,msRange:77.590155,x:6925726.174551,y:24855844.861362,z:-6170825.761636,vx:-143.191528,vy:809.365234,vz:3080.433594,tb:0.000210275341
i = 3
$pseudo_cd_ph,prn:7,pseudo_cd_ph:0.321378191429
$meas,msRange:79.661695,x:-7960174.933429,y:20753130.130938,z:-13918915.288149,vx:-433.574432,vy:-1798.719849,vz:-2437.176270,tb:-0.000020650645
i = 4
$pseudo_cd_ph,prn:11,pseudo_cd_ph:374940924.209764838219
$meas,msRange:75.183462,x:-16261690.752667,y:3466891.505708,z:20147409.294307,vx:-1317.660767,vy:-2364.054932,vz:-664.768799,tb:-0.000610439276
i = 5
$pseudo_cd_ph,prn:17,pseudo_cd_ph:374940927.176439106464
$meas,msRange:72.878884,x:7001765.046213,y:17708235.558333,z:18960351.607626,vx:-2104.748779,vy:-966.340820,vz:1708.314331,tb:0.000051829903
i = 6
$pseudo_cd_ph,prn:18,pseudo_cd_ph:374940920.223523557186
$meas,msRange:79.831715,x:-15454819.085738,y:-2584259.286001,z:20975633.351908,vx:-374.525543,vy:-2753.684814,vz:-588.086304,tb:0.000051535540
i = 7
$pseudo_cd_ph,prn:19,pseudo_cd_ph:374940924.405269443989
$meas,msRange:75.277020,x:14350462.190754,y:18027798.438326,z:12835176.515451,vx:-1552.048340,vy:-666.501953,vz:2618.276123,tb:-0.000321134647
i = 8
$pseudo_cd_ph,prn:22,pseudo_cd_ph:374940922.393394351006
$meas,msRange:76.912338,x:-22439578.876790,y:6262308.823990,z:12923447.148152,vx:1034.793457,vy:-1277.537231,vz:2468.261475,tb:-0.000697811501
i = 9
$pseudo_cd_ph,prn:28,pseudo_cd_ph:374940930.929722368717
$meas,msRange:69.841583,x:-5663178.784634,y:18253337.195983,z:19091873.414451,vx:-2011.130615,vy:1098.248413,vz:-1692.118896,tb:0.000767836818
i = 10
$pseudo_cd_ph,prn:30,pseudo_cd_ph:374940926.602558672428
$meas,msRange:73.299834,x:-1112935.464379,y:26156083.210158,z:-3798265.665392,vx:-384.844910,vy:-465.421295,vz:-3094.489990,tb:-0.000101261125
i = 11
i = 12
i = 13
i = 14
i = 15
i = 16
i = 17
i = 18
i = 19
i = 20
i = 21
i = 22
i = 23
i = 24
Refix G01: 2, 374940.927125, 1746
Refix G03: 2, 374940.924922, -2381
Refix G06: 2, 374940.922623, -4302
Refix G07: 2, 374940.920321, 2532
Refix G11: 2, 374940.924210, 1775
Refix G17: 2, 374940.927176, -1843
Refix G18: 2, 374940.920224, 2496
Refix G19: 2, 374940.924405, -2940
Refix G22: 2, 374940.922393, -813
Refix G28: 2, 374940.930930, -2259
Refix G30: 2, 374940.926603, 1659
$GNGGA,080843.000,2944.9090,N,10633.0914,E,1,18,0.7,323.3,M,,,,0000*19
$GNRMC,080843.000,A,2944.9090,N,10633.0914,E,0.10,0.00,090519,,*1F
$GPGSA,A,3,01,03,06,11,17,18,19,22,28,30,,,0.9,0.7,0.5*33
$BDGSA,A,3,01,02,03,04,07,08,10,13,,,,,0.9,0.7,0.5*20
$GLGSA,A,3,,,,,,,,,,,,,0.9,0.7,0.5*25
$GPGSV,3,1,11,01,39,040,44,03,32,100,41,06,24,220,43,07,14,175,39*7E
$GPGSV,3,2,11,11,27,047,40,17,47,307,45,18,13,042,37,19,30,283,40*75
$GPGSV,3,3,11,22,27,075,42,28,70,001,43,30,38,201,44*48
$BDGSV,3,1,11,01,40,125,41,02,47,219,41,03,55,171,42,04,23,109,41*68
$BDGSV,3,2,11,07,61,132,42,08,81,329,43,10,89,032,43,13,62,236,43*61
$BDGSV,3,3,11,27,44,035,44,30,55,300,00,32,14,137,00*5A
$B3CN0,0,0,0,0,0,0,0,0,0,0,0,0,0,0*4C
$ini_pos,lastpos_good = 1,ini_pos.x:-1578911.746263,ini_pos.y:5312768.422451,ini_pos.z:3146358.194048
$rtc_local_time,localRTC.weeks:2052,localRTC.seconds:374941.321892,localGtime.weeks:2052,localGtime.seconds:374942.000000
i = 0
$pseudo_cd_ph,prn:1,pseudo_cd_ph:374941927.123732149601
$meas,msRange:72.868459,x:-13640751.345808,y:7751990.824176,z:21195873.220300,vx:-349.306122,vy:-2714.298096,vz:792.915039,tb:-0.000012156169
i = 1
$pseudo_cd_ph,prn:3,pseudo_cd_ph:374941924.923795759678
$meas,msRange:75.268498,x:-23051599.184891,y:11657853.004982,z:5946486.691475,vx:454.355103,vy:-669.982239,vz:3063.558838,tb:0.000188131828
i = 2
$pseudo_cd_ph,prn:6,pseudo_cd_ph:374941922.626191973686
$meas,msRange:77.588133,x:6925582.986523,y:24856654.037812,z:-6167745.262238,vx:-143.184540,vy:808.987671,vz:3080.565430,tb:0.000210275330
i = 3
$pseudo_cd_ph,prn:7,pseudo_cd_ph:374941920.319739282131
$meas,msRange:79.664011,x:-7960608.572245,y:20751331.268718,z:-13921352.310523,vx:-433.703217,vy:-1799.004761,vz:-2436.868652,tb:-0.000020650657
i = 4
$pseudo_cd_ph,prn:11,pseudo_cd_ph:374941924.208600997925
$meas,msRange:75.185298,x:-16263008.447207,y:3464527.517378,z:20146744.300272,vx:-1317.728394,vy:-2363.921875,vz:-665.219299,tb:-0.000610439274
i = 5
$pseudo_cd_ph,prn:17,pseudo_cd_ph:374941927.177580237389
$meas,msRange:72.878423,x:6999660.173858,y:17707269.236274,z:18962059.727165,vx:-2104.996094,vy:-966.303345,vz:1707.924805,tb:0.000051829913
i = 6
$pseudo_cd_ph,prn:18,pseudo_cd_ph:374941920.221913635731
$meas,msRange:79.834008,x:-15455193.681569,y:-2587012.921658,z:20975045.032708,vx:-374.666138,vy:-2753.586670,vz:-588.552124,tb:0.000051535539
i = 7
$pseudo_cd_ph,prn:19,pseudo_cd_ph:374941924.407106816769
$meas,msRange:75.275863,x:14348909.976116,y:18027131.901679,z:12837794.652126,vx:-1552.380981,vy:-666.571350,vz:2617.997314,tb:-0.000321134645
i = 8
$pseudo_cd_ph,prn:22,pseudo_cd_ph:374941922.393881261349
$meas,msRange:76.912530,x:-22438543.999700,y:6261031.162034,z:12925915.273390,vx:1034.960815,vy:-1277.786865,vz:2467.989014,tb:-0.000697811507
i = 9
$pseudo_cd_ph,prn:28,pseudo_cd_ph:374941930.931129217148
$meas,msRange:69.840857,x:-5665189.792898,y:18254435.454993,z:19090181.102533,vx:-2010.885986,vy:1098.269653,vz:-1692.505005,tb:0.000767836823
i = 10
$pseudo_cd_ph,prn:30,pseudo_cd_ph:374941926.601477622986
$meas,msRange:73.301596,x:-1113320.334197,y:26155617.604871,z:-3801360.114457,vx:-384.894775,vy:-465.789307,vz:-3094.408203,tb:-0.000101261133
i = 11
i = 12
i = 13
i = 14
i = 15
i = 16
i = 17
i = 18
i = 19
i = 20
i = 21
i = 22
i = 23
i = 24
Refix G01: 2, 374941.927124, 1740
Refix G03: 2, 374941.924924, -2387
Refix G06: 2, 374941.922626, -4307
Refix G07: 2, 374941.920320, 2527
Refix G11: 2, 374941.924209, 1769
Refix G17: 2, 374941.927178, -1850
Refix G18: 2, 374941.920222, 2490
Refix G19: 2, 374941.924407, -2945
Refix G22: 2, 374941.922394, -818
Refix G28: 2, 374941.930931, -2266
Refix G30: 2, 374941.926601, 1654
$GNGGA,080844.000,2944.9089,N,10633.0915,E,1,19,0.7,323.2,M,,,,0000*17
$GNRMC,080844.000,A,2944.9089,N,10633.0915,E,0.21,0.00,090519,,*13
$GPGSA,A,3,01,03,06,07,11,17,18,19,22,28,30,,0.8,0.7,0.4*34
$BDGSA,A,3,01,02,03,04,07,08,10,13,,,,,0.8,0.7,0.4*20
$GLGSA,A,3,,,,,,,,,,,,,0.8,0.7,0.4*25
$GPGSV,3,1,11,01,39,040,43,03,32,100,42,06,24,220,42,07,14,175,38*7A
$GPGSV,3,2,11,11,27,047,40,17,47,307,45,18,13,042,36,19,30,283,40*74
$GPGSV,3,3,11,22,27,075,41,28,70,001,44,30,38,201,44*4C
$BDGSV,3,1,11,01,40,125,41,02,47,219,41,03,55,171,43,04,23,109,40*68
$BDGSV,3,2,11,07,61,132,42,08,81,329,43,10,89,032,43,13,62,236,43*61
$BDGSV,3,3,11,27,44,035,44,30,55,300,00,32,14,137,00*5A
$B3CN0,0,0,0,0,0,0,0,0,0,0,0,0,0,0*4C
$ini_pos,lastpos_good = 1,ini_pos.x:-1578911.915872,ini_pos.y:5312768.385273,ini_pos.z:3146358.037982
$rtc_local_time,localRTC.weeks:2052,localRTC.seconds:374942.321892,localGtime.weeks:2052,localGtime.seconds:374943.000000
i = 0
$pseudo_cd_ph,prn:1,pseudo_cd_ph:374942927.122600018978
$meas,msRange:72.870277,x:-13641100.737902,y:7749276.488008,z:21196665.904967,vx:-349.478088,vy:-2714.374268,vz:792.454346,tb:-0.000012156180
i = 1
$pseudo_cd_ph,prn:3,pseudo_cd_ph:374942924.925281226635
$meas,msRange:75.267696,x:-23051144.693274,y:11657182.895853,z:5949550.186509,vx:454.628143,vy:-670.236023,vz:3063.431396,tb:0.000188131827
i = 2
$pseudo_cd_ph,prn:6,pseudo_cd_ph:374942922.628895998001
$meas,msRange:77.586111,x:6925439.805465,y:24857462.836704,z:-6164664.631148,vx:-143.177597,vy:808.610107,vz:3080.697021,tb:0.000210275320
i = 3
$pseudo_cd_ph,prn:7,pseudo_cd_ph:374942920.318100035191
$meas,msRange:79.666327,x:-7961042.339858,y:20749532.121554,z:-13923789.025213,vx:-433.832031,vy:-1799.289673,vz:-2436.560791,tb:-0.000020650669
i = 4
$pseudo_cd_ph,prn:11,pseudo_cd_ph:374942924.207454621792
$meas,msRange:75.187134,x:-16264326.209391,y:3462163.662199,z:20146078.855726,vx:-1317.796021,vy:-2363.788574,vz:-665.669800,tb:-0.000610439271
i = 5
$pseudo_cd_ph,prn:17,pseudo_cd_ph:374942927.178723692894
$meas,msRange:72.877962,x:6997555.054029,y:17706302.951685,z:18963767.457172,vx:-2105.243652,vy:-966.265869,vz:1707.535278,tb:0.000051829923
i = 6
$pseudo_cd_ph,prn:18,pseudo_cd_ph:374942920.220300674438
$meas,msRange:79.836302,x:-15455568.418008,y:-2589766.458985,z:20974456.247692,vx:-374.806763,vy:-2753.488281,vz:-589.017944,tb:0.000051535537
i = 7
$pseudo_cd_ph,prn:19,pseudo_cd_ph:374942924.408947110176
$meas,msRange:75.274707,x:14347357.428863,y:18026465.295695,z:12840412.509875,vx:-1552.713623,vy:-666.640625,vz:2617.718262,tb:-0.000321134643
i = 8
$pseudo_cd_ph,prn:22,pseudo_cd_ph:374942922.394372284412
$meas,msRange:76.912723,x:-22437508.955291,y:6259753.250456,z:12928383.126108,vx:1035.128052,vy:-1278.036377,vz:2467.716553,tb:-0.000697811512
i = 9
$pseudo_cd_ph,prn:28,pseudo_cd_ph:374942930.932538151741
$meas,msRange:69.840132,x:-5667200.556582,y:18255533.735301,z:19088488.404603,vx:-2010.641479,vy:1098.291016,vz:-1692.890991,tb:0.000767836829
i = 10
$pseudo_cd_ph,prn:30,pseudo_cd_ph:374942926.600399017334
$meas,msRange:73.303359,x:-1113705.253895,y:26155151.631591,z:-3804454.481647,vx:-384.944672,vy:-466.157288,vz:-3094.326416,tb:-0.000101261142
i = 11
i = 12
i = 13
i = 14
i = 15
i = 16
i = 17
i = 18
i = 19
i = 20
i = 21
i = 22
i = 23
i = 24
i = 25
Refix G01: 2, 374942.927123, 1737
Refix G03: 2, 374942.924925, -2389
Refix G06: 2, 374942.922629, -4310
Refix G07: 2, 374942.920318, 2524
Refix G11: 2, 374942.924207, 1767
Refix G17: 2, 374942.927179, -1852
Refix G18: 2, 374942.920220, 2487
Refix G19: 2, 374942.924409, -2948
Refix G22: 2, 374942.922394, -821
Refix G28: 2, 374942.930933, -2268
Refix G30: 2, 374942.926600, 1652
$GNGGA,080845.000,2944.9089,N,10633.0916,E,1,19,0.7,323.4,M,,,,0000*13
$GNRMC,080845.000,A,2944.9089,N,10633.0916,E,0.30,0.00,090519,,*11
$GPGSA,A,3,01,03,06,07,11,17,18,19,22,28,30,,0.8,0.7,0.4*34
$BDGSA,A,3,01,02,03,04,07,08,10,13,,,,,0.8,0.7,0.4*20
$GLGSA,A,3,,,,,,,,,,,,,0.8,0.7,0.4*25
$GPGSV,3,1,11,01,39,040,43,03,32,100,42,06,24,220,43,07,14,175,38*7B
$GPGSV,3,2,11,11,27,047,40,17,47,307,44,18,13,042,36,19,30,283,40*75
$GPGSV,3,3,11,22,27,075,41,28,70,001,44,30,38,201,45*4D
$BDGSV,3,1,11,01,40,125,41,02,47,219,40,03,55,171,45,04,23,109,40*6F
$BDGSV,3,2,11,07,61,132,43,08,81,329,43,10,89,032,44,13,62,236,43*67
$BDGSV,3,3,11,27,44,035,44,30,55,300,00,32,14,137,00*5A
$B3CN0,0,0,0,0,0,0,0,20,0,0,0,0,0,0*7E
$ini_pos,lastpos_good = 1,ini_pos.x:-1578912.170561,ini_pos.y:5312768.460053,ini_pos.z:3146358.117565
$rtc_local_time,localRTC.weeks:2052,localRTC.seconds:374943.321892,localGtime.weeks:2052,localGtime.seconds:374944.000000
i = 0
$pseudo_cd_ph,prn:1,pseudo_cd_ph:374943927.121460556984
$meas,msRange:72.872094,x:-13641450.301978,y:7746562.075625,z:21197458.128935,vx:-349.650085,vy:-2714.450439,vz:791.993652,tb:-0.000012156191
i = 1
$pseudo_cd_ph,prn:3,pseudo_cd_ph:374943924.926763415337
$meas,msRange:75.266893,x:-23050689.928625,y:11656512.532916,z:5952613.554185,vx:454.901154,vy:-670.489868,vz:3063.303955,tb:0.000188131826
i = 2
$pseudo_cd_ph,prn:6,pseudo_cd_ph:374943922.631596207619
$meas,msRange:77.584090,x:6925296.631323,y:24858271.258024,z:-6161583.868432,vx:-143.170700,vy:808.232544,vz:3080.828613,tb:0.000210275310
i = 3
$pseudo_cd_ph,prn:7,pseudo_cd_ph:374943920.316461920738
$meas,msRange:79.668643,x:-7961476.236301,y:20747732.689495,z:-13926225.432164,vx:-433.960876,vy:-1799.574585,vz:-2436.253174,tb:-0.000020650681
i = 4
$pseudo_cd_ph,prn:11,pseudo_cd_ph:374943924.206310451031
$meas,msRange:75.188970,x:-16265644.039177,y:3459799.940220,z:20145412.960684,vx:-1317.863647,vy:-2363.655518,vz:-666.120300,tb:-0.000610439269
i = 5
$pseudo_cd_ph,prn:17,pseudo_cd_ph:374943927.179865300655
$meas,msRange:72.877501,x:6995449.686762,y:17705336.704618,z:18965474.797611,vx:-2105.490967,vy:-966.228333,vz:1707.145752,tb:0.000051829933
i = 6
$pseudo_cd_ph,prn:18,pseudo_cd_ph:374943920.218682765961
$meas,msRange:79.838596,x:-15455943.295036,y:-2592519.897915,z:20973866.996874,vx:-374.947327,vy:-2753.389893,vz:-589.483704,tb:0.000051535536
i = 7
$pseudo_cd_ph,prn:19,pseudo_cd_ph:374943924.410782098770
$meas,msRange:75.273550,x:14345804.549009,y:18025798.620432,z:12843030.088641,vx:-1553.046143,vy:-666.709900,vz:2617.439453,tb:-0.000321134640
i = 8
$pseudo_cd_ph,prn:22,pseudo_cd_ph:374943922.394861340523
$meas,msRange:76.912915,x:-22436473.743619,y:6258475.089251,z:12930850.706255,vx:1035.295288,vy:-1278.286011,vz:2467.443848,tb:-0.000697811518
i = 9
$pseudo_cd_ph,prn:28,pseudo_cd_ph:374943930.933944284916
$meas,msRange:69.839406,x:-5669211.075652,y:18256632.036854,z:19086795.320694,vx:-2010.396851,vy:1098.312134,vz:-1693.276978,tb:0.000767836835
i = 10
$pseudo_cd_ph,prn:30,pseudo_cd_ph:374943926.599317491055
$meas,msRange:73.305122,x:-1114090.223522,y:26154685.290332,z:-3807548.766895,vx:-384.994629,vy:-466.525269,vz:-3094.244385,tb:-0.000101261150
i = 11
i = 12
i = 13
i = 14
i = 15
i = 16
i = 17
i = 18
i = 19
i = 20
i = 21
i = 22
i = 23
i = 24
i = 25
Refix G01: 2, 374943.927121, 1742
Refix G03: 2, 374943.924927, -2384
Refix G06: 2, 374943.922632, -4306
Refix G07: 2, 374943.920316, 2527
Refix G11: 2, 374943.924206, 1771
Refix G17: 2, 374943.927180, -1848
Refix G18: 2, 374943.920219, 2491
Refix G19: 2, 374943.924411, -2944
Refix G22: 2, 374943.922395, -816
Refix G28: 2, 374943.930934, -2263
Refix G30: 2, 374943.926599, 1656
$GNGGA,080846.000,2944.9088,N,10633.0918,E,1,20,0.6,323.8,M,,,,0000*18
$GNRMC,080846.000,A,2944.9088,N,10633.0918,E,0.15,0.00,090519,,*1A
$GPGSA,A,3,01,03,06,07,11,17,18,19,22,28,30,,0.8,0.6,0.4*35
$BDGSA,A,3,01,02,03,04,07,08,10,13,27,,,,0.8,0.6,0.4*24
$GLGSA,A,3,,,,,,,,,,,,,0.8,0.6,0.4*24
$GPGSV,3,1,11,01,39,040,44,03,32,100,42,06,24,220,43,07,14,175,37*73
$GPGSV,3,2,11,11,27,047,40,17,47,307,45,18,13,042,36,19,30,283,40*74
$GPGSV,3,3,11,22,27,075,41,28,70,001,44,30,38,201,45*4D
$BDGSV,3,1,12,01,40,125,41,02,47,219,41,03,55,171,45,04,23,109,40*6D
$BDGSV,3,2,12,07,61,132,43,08,81,329,43,10,89,032,44,13,62,236,44*63
$BDGSV,3,3,12,27,44,035,44,20,17,286,00,30,55,300,00,32,14,137,00*61
$B3CN0,0,0,0,0,0,0,0,25,0,0,0,0,0,0*7B
$ini_pos,lastpos_good = 1,ini_pos.x:-1578912.518023,ini_pos.y:5312768.852415,ini_pos.z:3146358.094173
$rtc_local_time,localRTC.weeks:2052,localRTC.seconds:374944.321892,localGtime.weeks:2052,localGtime.seconds:374945.000000
i = 0
$pseudo_cd_ph,prn:1,pseudo_cd_ph:374944927.120324075222
$meas,msRange:72.873912,x:-13641800.038042,y:7743847.587097,z:21198249.892189,vx:-349.822083,vy:-2714.526611,vz:791.532898,tb:-0.000012156202
i = 1
$pseudo_cd_ph,prn:3,pseudo_cd_ph:374944924.928246080875
$meas,msRange:75.266089,x:-23050234.890986,y:11655841.916142,z:5955676.794438,vx:455.174133,vy:-670.743713,vz:3063.176514,tb:0.000188131825
i = 2
$pseudo_cd_ph,prn:6,pseudo_cd_ph:374944922.634298980236
$meas,msRange:77.582067,x:6925153.464044,y:24859079.301758,z:-6158502.974156,vx:-143.163864,vy:807.854980,vz:3080.960205,tb:0.000210275300
i = 3
$pseudo_cd_ph,prn:7,pseudo_cd_ph:374944920.314828753471
$meas,msRange:79.670958,x:-7961910.261609,y:20745932.972590,z:-13928661.531324,vx:-434.089752,vy:-1799.859375,vz:-2435.945312,tb:-0.000020650693
i = 4
$pseudo_cd_ph,prn:11,pseudo_cd_ph:374944924.205152988434
$meas,msRange:75.190806,x:-16266961.936523,y:3457436.351491,z:20144746.615161,vx:-1317.931152,vy:-2363.522217,vz:-666.570801,tb:-0.000610439267
i = 5
$pseudo_cd_ph,prn:17,pseudo_cd_ph:374944927.181009292603
$meas,msRange:72.877040,x:6993344.072097,y:17704370.495124,z:18967181.748450,vx:-2105.738525,vy:-966.190735,vz:1706.756104,tb:0.000051829943
i = 6
$pseudo_cd_ph,prn:18,pseudo_cd_ph:374944920.217066347599
$meas,msRange:79.840889,x:-15456318.312633,y:-2595273.238380,z:20973277.280269,vx:-375.087891,vy:-2753.291260,vz:-589.949524,tb:0.000051535534
i = 7
$pseudo_cd_ph,prn:19,pseudo_cd_ph:374944924.412622034550
$meas,msRange:75.272393,x:14344251.336569,y:18025131.875951,z:12845647.388365,vx:-1553.378784,vy:-666.779114,vz:2617.160156,tb:-0.000321134638
i = 8
$pseudo_cd_ph,prn:22,pseudo_cd_ph:374944922.395353913307
$meas,msRange:76.913108,x:-22435438.364737,y:6257196.678415,z:12933318.013780,vx:1035.462524,vy:-1278.535645,vz:2467.171387,tb:-0.000697811523
i = 9
$pseudo_cd_ph,prn:28,pseudo_cd_ph:374944930.935351133347
$meas,msRange:69.838680,x:-5671221.350076,y:18257730.359599,z:19085101.850838,vx:-2010.152100,vy:1098.333374,vz:-1693.662842,tb:0.000767836840
i = 10
$pseudo_cd_ph,prn:30,pseudo_cd_ph:374944926.598238229752
$meas,msRange:73.306884,x:-1114475.243123,y:26154218.581109,z:-3810642.970135,vx:-385.044617,vy:-466.893219,vz:-3094.162354,tb:-0.000101261158
i = 11
i = 12
i = 13
i = 14
i = 15
i = 16
i = 17
i = 18
i = 19
i = 20
i = 21
i = 22
i = 23
i = 24
Refix G01: 2, 374944.927120, 1739
Refix G03: 2, 374944.924928, -2388
Refix G06: 2, 374944.922634, -4309
Refix G07: 2, 374944.920315, 2524
Refix G11: 2, 374944.924205, 1768
Refix G17: 2, 374944.927181, -1851
Refix G18: 2, 374944.920217, 2488
Refix G19: 2, 374944.924413, -2947
Refix G22: 2, 374944.922395, -819
Refix G28: 2, 374944.930935, -2266
Refix G30: 2, 374944.926598, 1653
$GNGGA,080847.000,2944.9086,N,10633.0919,E,1,20,0.6,324.0,M,,,,0000*19
$GNRMC,080847.000,A,2944.9086,N,10633.0919,E,0.13,0.00,090519,,*12
$GPGSA,A,3,01,03,06,07,11,17,18,19,22,28,30,,0.8,0.6,0.4*35
$BDGSA,A,3,01,02,03,04,07,08,10,13,27,,,,0.8,0.6,0.4*24
$GLGSA,A,3,,,,,,,,,,,,,0.8,0.6,0.4*24
$GPGSV,3,1,11,01,39,040,44,03,32,100,41,06,24,220,43,07,14,175,38*7F
$GPGSV,3,2,11,11,27,047,40,17,47,307,45,18,13,042,35,19,30,283,40*77
$GPGSV,3,3,11,22,27,075,41,28,70,001,44,30,38,201,44*4C
$BDGSV,3,1,12,01,40,125,41,02,47,219,41,03,55,171,43,04,23,109,41*6A
$BDGSV,3,2,12,07,61,132,43,08,81,329,43,10,89,032,44,13,62,236,43*64
$BDGSV,3,3,12,27,44,035,44,20,17,286,00,30,55,300,00,32,14,137,00*61
$B3CN0,0,0,0,0,0,0,0,0,0,0,0,0,0,0*4C
$ini_pos,lastpos_good = 1,ini_pos.x:-1578912.763242,ini_pos.y:5312769.111203,ini_pos.z:3146357.978108
$rtc_local_time,localRTC.weeks:2052,localRTC.seconds:374945.321892,localGtime.weeks:2052,localGtime.seconds:374946.000000
i = 0
$pseudo_cd_ph,prn:1,pseudo_cd_ph:374945927.119186520576
$meas,msRange:72.875730,x:-13642149.946099,y:7741133.022495,z:21199041.194713,vx:-349.994080,vy:-2714.602783,vz:791.072205,tb:-0.000012156213
i = 1
$pseudo_cd_ph,prn:3,pseudo_cd_ph:374945924.929725408554
$meas,msRange:75.265287,x:-23049779.580403,y:11655171.045503,z:5958739.907201,vx:455.447052,vy:-670.997620,vz:3063.049072,tb:0.000188131824
i = 2
$pseudo_cd_ph,prn:6,pseudo_cd_ph:374945922.636999607086
$meas,msRange:77.580045,x:6925010.303577,y:24859886.967892,z:-6155421.948385,vx:-143.157089,vy:807.477356,vz:3081.091553,tb:0.000210275289
i = 3
$pseudo_cd_ph,prn:7,pseudo_cd_ph:374945920.313190758228
$meas,msRange:79.673274,x:-7962344.415817,y:20744132.970888,z:-13931097.322638,vx:-434.218689,vy:-1800.144165,vz:-2435.637451,tb:-0.000020650704
i = 4
$pseudo_cd_ph,prn:11,pseudo_cd_ph:374945924.203983008862
$meas,msRange:75.192643,x:-16268279.901386,y:3455072.896062,z:20144079.819171,vx:-1317.998657,vy:-2363.388916,vz:-667.021240,tb:-0.000610439265
i = 5
$pseudo_cd_ph,prn:17,pseudo_cd_ph:374945927.182149827480
$meas,msRange:72.876578,x:6991238.210070,y:17703404.323255,z:18968888.309653,vx:-2105.985840,vy:-966.153076,vz:1706.366455,tb:0.000051829953
i = 6
$pseudo_cd_ph,prn:18,pseudo_cd_ph:374945920.215443253517
$meas,msRange:79.843183,x:-15456693.470779,y:-2598026.480315,z:20972687.097891,vx:-375.228424,vy:-2753.192627,vz:-590.415283,tb:0.000051535533
i = 7
$pseudo_cd_ph,prn:19,pseudo_cd_ph:374945924.414461016655
$meas,msRange:75.271237,x:14342697.791556,y:18024465.062307,z:12848264.408989,vx:-1553.711304,vy:-666.848206,vz:2616.881104,tb:-0.000321134636
i = 8
$pseudo_cd_ph,prn:22,pseudo_cd_ph:374945922.395844519138
$meas,msRange:76.913302,x:-22434402.818699,y:6255918.017946,z:12935785.048632,vx:1035.629639,vy:-1278.785278,vz:2466.898682,tb:-0.000697811529
i = 9
$pseudo_cd_ph,prn:28,pseudo_cd_ph:374945930.936756074429
$meas,msRange:69.837955,x:-5673231.379818,y:18258828.703483,z:19083407.995068,vx:-2009.907471,vy:1098.354492,vz:-1694.048828,tb:0.000767836846
i = 10
$pseudo_cd_ph,prn:30,pseudo_cd_ph:374945926.597155988216
$meas,msRange:73.308646,x:-1114860.312747,y:26153751.503938,z:-3813737.091300,vx:-385.094666,vy:-467.261169,vz:-3094.080322,tb:-0.000101261167
i = 11
i = 12
i = 13
i = 14
i = 15
i = 16
i = 17
i = 18
i = 19
i = 20
i = 21
i = 22
i = 23
i = 24
Refix G01: 2, 374945.927119, 1752
Refix G03: 2, 374945.924930, -2375
Refix G06: 2, 374945.922637, -4297
Refix G07: 2, 374945.920313, 2535
Refix G11: 2, 374945.924204, 1780
Refix G17: 2, 374945.927182, -1839
Refix G18: 2, 374945.920215, 2499
Refix G19: 2, 374945.924414, -2935
Refix G22: 2, 374945.922396, -806
Refix G28: 2, 374945.930937, -2253
Refix G30: 2, 374945.926597, 1665
$GNGGA,080848.000,2944.9084,N,10633.0920,E,1,20,0.6,324.7,M,,,,0000*19
$GNRMC,080848.000,A,2944.9084,N,10633.0920,E,0.26,0.00,090519,,*13
$GPGSA,A,3,01,03,06,07,11,17,18,19,22,28,30,,0.8,0.6,0.4*35
$BDGSA,A,3,01,02,03,04,07,08,10,13,27,,,,0.8,0.6,0.4*24
$GLGSA,A,3,,,,,,,,,,,,,0.8,0.6,0.4*24
$GPGSV,3,1,11,01,39,040,43,03,32,100,42,06,24,220,43,07,14,175,38*7B
$GPGSV,3,2,11,11,27,047,41,17,47,307,45,18,13,042,37,19,30,283,41*75
$GPGSV,3,3,11,22,27,075,41,28,70,001,44,30,38,201,45*4D
$BDGSV,3,1,12,01,40,125,41,02,47,219,40,03,55,171,43,04,23,109,41*6B
$BDGSV,3,2,12,07,61,132,43,08,81,329,43,10,89,032,44,13,62,236,44*63
$BDGSV,3,3,12,27,44,035,45,20,17,286,00,30,55,300,00,32,14,137,00*60
$B3CN0,0,0,21,0,0,0,0,0,0,0,0,0,0,0*7F
$ini_pos,lastpos_good = 1,ini_pos.x:-1578913.189941,ini_pos.y:5312769.785494,ini_pos.z:3146358.002221
$rtc_local_time,localRTC.weeks:2052,localRTC.seconds:374946.321892,localGtime.weeks:2052,localGtime.seconds:374947.000000
i = 0
$pseudo_cd_ph,prn:1,pseudo_cd_ph:374946927.118040919304
$meas,msRange:72.877548,x:-13642500.026156,y:7738418.381889,z:21199832.036490,vx:-350.166077,vy:-2714.678711,vz:790.611450,tb:-0.000012156224
i = 1
$pseudo_cd_ph,prn:3,pseudo_cd_ph:374946924.931199729443
$meas,msRange:75.264484,x:-23049323.996919,y:11654499.920968,z:5961802.892409,vx:455.719940,vy:-671.251526,vz:3062.921387,tb:0.000188131823
i = 2
$pseudo_cd_ph,prn:6,pseudo_cd_ph:374946922.639695465565
$meas,msRange:77.578023,x:6924867.149868,y:24860694.256414,z:-6152340.791186,vx:-143.150345,vy:807.099731,vz:3081.222900,tb:0.000210275279
i = 3
$pseudo_cd_ph,prn:7,pseudo_cd_ph:374946920.311551511288
$meas,msRange:79.675589,x:-7962778.698958,y:20742332.684438,z:-13933532.806052,vx:-434.347626,vy:-1800.428833,vz:-2435.329590,tb:-0.000020650716
i = 4
$pseudo_cd_ph,prn:11,pseudo_cd_ph:374946924.202821016312
$meas,msRange:75.194479,x:-16269597.933725,y:3452709.573985,z:20143412.572728,vx:-1318.066162,vy:-2363.255371,vz:-667.471680,tb:-0.000610439262
i = 5
$pseudo_cd_ph,prn:17,pseudo_cd_ph:374946927.183285772800
$meas,msRange:72.876116,x:6989132.100720,y:17702438.189062,z:18970594.481186,vx:-2106.233154,vy:-966.115356,vz:1705.976685,tb:0.000051829963
i = 6
$pseudo_cd_ph,prn:18,pseudo_cd_ph:374946920.213817238808
$meas,msRange:79.845477,x:-15457068.769454,y:-2600779.623653,z:20972096.449755,vx:-375.368958,vy:-2753.093994,vz:-590.881042,tb:0.000051535531
i = 7
$pseudo_cd_ph,prn:19,pseudo_cd_ph:374946924.416294276714
$meas,msRange:75.270080,x:14341143.913986,y:18023798.179561,z:12850881.150457,vx:-1554.043945,vy:-666.917297,vz:2616.602051,tb:-0.000321134634
i = 8
$pseudo_cd_ph,prn:22,pseudo_cd_ph:374946922.396327376366
$meas,msRange:76.913496,x:-22433367.105559,y:6254639.107838,z:12938251.810759,vx:1035.796753,vy:-1279.034912,vz:2466.625732,tb:-0.000697811534
i = 9
$pseudo_cd_ph,prn:28,pseudo_cd_ph:374946930.938154697418
$meas,msRange:69.837228,x:-5675241.164847,y:18259927.068451,z:19081713.753417,vx:-2009.662720,vy:1098.375488,vz:-1694.434692,tb:0.000767836852
i = 10
$pseudo_cd_ph,prn:30,pseudo_cd_ph:374946926.596068263054
$meas,msRange:73.310407,x:-1115245.432442,y:26153284.058832,z:-3816831.130322,vx:-385.144745,vy:-467.629089,vz:-3093.998047,tb:-0.000101261175
i = 11
i = 12
i = 13
i = 14
i = 15
i = 16
i = 17
i = 18
i = 19
i = 20
i = 21
i = 22
i = 23
i = 24
Refix G01: 2, 374946.927118, 1750
Refix G03: 2, 374946.924931, -2376
Refix G06: 2, 374946.922640, -4299
Refix G07: 2, 374946.920312, 2533
Refix G11: 2, 374946.924203, 1779
Refix G17: 2, 374946.927183, -1841
Refix G18: 2, 374946.920214, 2498
Refix G19: 2, 374946.924416, -2937
Refix G22: 2, 374946.922396, -807
Refix G28: 2, 374946.930938, -2255
Refix G30: 2, 374946.926596, 1663
$GNGGA,080849.000,2944.9083,N,10633.0920,E,1,20,0.6,324.6,M,,,,0000*1E
$GNRMC,080849.000,A,2944.9083,N,10633.0920,E,0.25,0.00,090519,,*16
$GPGSA,A,3,01,03,06,07,11,17,18,19,22,28,30,,0.8,0.6,0.4*35
$BDGSA,A,3,01,02,03,04,07,08,10,13,27,,,,0.8,0.6,0.4*24
$GLGSA,A,3,,,,,,,,,,,,,0.8,0.6,0.4*24
$GPGSV,3,1,11,01,39,040,43,03,32,100,42,06,24,220,43,07,14,175,37*74
$GPGSV,3,2,11,11,27,047,41,17,47,307,44,18,13,042,37,19,30,283,40*75
$GPGSV,3,3,11,22,27,075,42,28,70,001,43,30,38,201,44*48
$BDGSV,3,1,12,01,40,125,41,02,47,219,42,03,55,171,43,04,23,109,41*69
$BDGSV,3,2,12,07,61,132,42,08,81,329,43,10,89,032,44,13,62,236,44*62
$BDGSV,3,3,12,27,44,035,45,20,17,286,00,30,55,300,00,32,14,137,00*60
$B3CN0,0,0,0,0,0,0,0,0,0,0,0,0,0,0*4C
$ini_pos,lastpos_good = 1,ini_pos.x:-1578913.269275,ini_pos.y:5312769.808580,ini_pos.z:3146357.765730
$rtc_local_time,localRTC.weeks:2052,localRTC.seconds:374947.321892,localGtime.weeks:2052,localGtime.seconds:374948.000000
i = 0
$pseudo_cd_ph,prn:1,pseudo_cd_ph:374947927.116901576519
$meas,msRange:72.879367,x:-13642850.278219,y:7735703.665348,z:21200622.417504,vx:-350.338074,vy:-2714.754639,vz:790.150635,tb:-0.000012156236
i = 1
$pseudo_cd_ph,prn:3,pseudo_cd_ph:374947924.932682156563
$meas,msRange:75.263683,x:-23048868.140578,y:11653828.542509,z:5964865.749996,vx:455.992767,vy:-671.505432,vz:3062.793945,tb:0.000188131822
i = 2
$pseudo_cd_ph,prn:6,pseudo_cd_ph:374947922.642398655415
$meas,msRange:77.576002,x:6924724.002865,y:24861501.167308,z:-6149259.502624,vx:-143.143677,vy:806.722107,vz:3081.354248,tb:0.000210275269
i = 3
$pseudo_cd_ph,prn:7,pseudo_cd_ph:374947920.309917628765
$meas,msRange:79.677904,x:-7963213.111067,y:20740532.113289,z:-13935967.981513,vx:-434.476624,vy:-1800.713501,vz:-2435.021484,tb:-0.000020650728
i = 4
$pseudo_cd_ph,prn:11,pseudo_cd_ph:374947924.201675891876
$meas,msRange:75.196316,x:-16270916.033497,y:3450346.385308,z:20142744.875848,vx:-1318.133545,vy:-2363.122070,vz:-667.922119,tb:-0.000610439260
i = 5
$pseudo_cd_ph,prn:17,pseudo_cd_ph:374947927.184428453445
$meas,msRange:72.875656,x:6987025.744084,y:17701472.092598,z:18972300.263017,vx:-2106.480225,vy:-966.077637,vz:1705.587036,tb:0.000051829973
i = 6
$pseudo_cd_ph,prn:18,pseudo_cd_ph:374947920.212202847004
$meas,msRange:79.847772,x:-15457444.208639,y:-2603532.668326,z:20971505.335874,vx:-375.509430,vy:-2752.995361,vz:-591.346741,tb:0.000051535529
i = 7
$pseudo_cd_ph,prn:19,pseudo_cd_ph:374947924.418129026890
$meas,msRange:75.268924,x:14339589.703873,y:18023131.227770,z:12853497.612711,vx:-1554.376465,vy:-666.986328,vz:2616.322754,tb:-0.000321134631
i = 8
$pseudo_cd_ph,prn:22,pseudo_cd_ph:374947922.396813869476
$meas,msRange:76.913691,x:-22432331.225372,y:6253359.948089,z:12940718.300111,vx:1035.963745,vy:-1279.284668,vz:2466.353027,tb:-0.000697811540
i = 9
$pseudo_cd_ph,prn:28,pseudo_cd_ph:374947930.939559996128
$meas,msRange:69.836504,x:-5677250.705129,y:18261025.454450,z:19080019.125918,vx:-2009.417969,vy:1098.396484,vz:-1694.820435,tb:0.000767836858
i = 10
$pseudo_cd_ph,prn:30,pseudo_cd_ph:374947926.594988167286
$meas,msRange:73.312171,x:-1115630.602254,y:26152816.245808,z:-3819925.087137,vx:-385.194885,vy:-467.997009,vz:-3093.915771,tb:-0.000101261183
i = 11
i = 12
i = 13
i = 14
i = 15
i = 16
i = 17
i = 18
i = 19
i = 20
i = 21
i = 22
i = 23
i = 24
Refix G01: 2, 374947.927117, 1740
Refix G03: 2, 374947.924933, -2386
Refix G06: 2, 374947.922642, -4308
Refix G07: 2, 374947.920310, 2524
Refix G11: 2, 374947.924202, 1769
Refix G17: 2, 374947.927184, -1851
Refix G18: 2, 374947.920212, 2489
Refix G19: 2, 374947.924418, -2946
Refix G22: 2, 374947.922397, -817
Refix G28: 2, 374947.930940, -2266
Refix G30: 2, 374947.926595, 1653
$GNGGA,080850.000,2944.9082,N,10633.0921,E,1,20,0.6,324.7,M,,,,0000*17
$GNRMC,080850.000,A,2944.9082,N,10633.0921,E,0.27,0.00,090519,,*1C
$GPGSA,A,3,01,03,06,07,11,17,18,19,22,28,30,,0.8,0.6,0.4*35
$BDGSA,A,3,01,02,03,04,07,08,10,13,27,,,,0.8,0.6,0.4*24
$GLGSA,A,3,,,,,,,,,,,,,0.8,0.6,0.4*24
$GPGSV,3,1,11,01,39,040,43,03,32,100,42,06,24,220,43,07,14,175,38*7B
$GPGSV,3,2,11,11,27,047,40,17,47,307,45,18,13,042,37,19,30,283,39*7B
$GPGSV,3,3,11,22,27,075,42,28,70,001,44,30,38,201,45*4E
$BDGSV,3,1,12,01,40,125,41,02,47,219,41,03,55,171,43,04,23,109,41*6A
$BDGSV,3,2,12,07,61,132,42,08,81,329,43,10,89,032,43,13,62,236,43*62
$BDGSV,3,3,12,27,44,035,44,20,17,286,00,30,55,300,00,32,14,137,00*61
$B3CN0,36,0,21,0,0,0,0,0,0,0,0,0,0,0*4A
$ini_pos,lastpos_good = 1,ini_pos.x:-1578913.460563,ini_pos.y:5312770.005726,ini_pos.z:3146357.574458
$rtc_local_time,localRTC.weeks:2052,localRTC.seconds:374948.321892,localGtime.weeks:2052,localGtime.seconds:374948.999999
i = 0
$pseudo_cd_ph,prn:1,pseudo_cd_ph:374948927.115765213966
$meas,msRange:72.881186,x:-13643200.702294,y:7732988.872942,z:21201412.337739,vx:-350.510101,vy:-2714.830322,vz:789.689880,tb:-0.000012156247
i = 1
$pseudo_cd_ph,prn:3,pseudo_cd_ph:374948924.934165179729
$meas,msRange:75.262882,x:-23048412.011425,y:11653156.910097,z:5967928.479897,vx:456.265564,vy:-671.759399,vz:3062.666016,tb:0.000188131821
i = 2
$pseudo_cd_ph,prn:6,pseudo_cd_ph:374948922.645103394985
$meas,msRange:77.573980,x:6924580.862515,y:24862307.700562,z:-6146178.082766,vx:-143.137039,vy:806.344482,vz:3081.485596,tb:0.000210275259
i = 3
$pseudo_cd_ph,prn:7,pseudo_cd_ph:374948920.308282732964
$meas,msRange:79.680220,x:-7963647.652178,y:20738731.257492,z:-13938402.848967,vx:-434.605652,vy:-1800.998169,vz:-2434.713623,tb:-0.000020650740
i = 4
$pseudo_cd_ph,prn:11,pseudo_cd_ph:374948924.200529515743
$meas,msRange:75.198153,x:-16272234.200661,y:3447983.330081,z:20142076.728544,vx:-1318.200928,vy:-2362.988525,vz:-668.372559,tb:-0.000610439258
i = 5
$pseudo_cd_ph,prn:17,pseudo_cd_ph:374948927.185575306416
$meas,msRange:72.875195,x:6984919.140201,y:17700506.033913,z:18974005.655109,vx:-2106.727539,vy:-966.039795,vz:1705.197266,tb:0.000051829983
i = 6
$pseudo_cd_ph,prn:18,pseudo_cd_ph:374948920.210592508316
$meas,msRange:79.850067,x:-15457819.788313,y:-2606285.614267,z:20970913.756262,vx:-375.649933,vy:-2752.896729,vz:-591.812500,tb:0.000051535528
i = 7
$pseudo_cd_ph,prn:19,pseudo_cd_ph:374948924.419969618320
$meas,msRange:75.267768,x:14338035.161232,y:18022464.206992,z:12856113.795692,vx:-1554.708984,vy:-667.055298,vz:2616.043457,tb:-0.000321134629
i = 8
$pseudo_cd_ph,prn:22,pseudo_cd_ph:374948922.397300839424
$meas,msRange:76.913886,x:-22431295.178191,y:6252080.538693,z:12943184.516635,vx:1036.130737,vy:-1279.534302,vz:2466.080078,tb:-0.000697811545
i = 9
$pseudo_cd_ph,prn:28,pseudo_cd_ph:374948930.940967321396
$meas,msRange:69.835780,x:-5679260.000630,y:18262123.861428,z:19078324.112604,vx:-2009.173218,vy:1098.417480,vz:-1695.206299,tb:0.000767836863
i = 10
$pseudo_cd_ph,prn:30,pseudo_cd_ph:374948926.593907594681
$meas,msRange:73.313934,x:-1116015.822231,y:26152348.064879,z:-3823018.961677,vx:-385.245087,vy:-468.364899,vz:-3093.833496,tb:-0.000101261192
i = 11
i = 12
i = 13
i = 14
i = 15
i = 16
i = 17
i = 18
i = 19
i = 20
i = 21
i = 22
i = 23
i = 24
Refix G01: 2, 374948.927116, 1738
Refix G03: 2, 374948.924934, -2388
Refix G06: 2, 374948.922645, -4310
Refix G07: 2, 374948.920308, 2521
Refix G11: 2, 374948.924201, 1766
Refix G17: 2, 374948.927186, -1852
Refix G18: 2, 374948.920211, 2487
Refix G19: 2, 374948.924420, -2948
Refix G22: 2, 374948.922397, -819
Refix G28: 2, 374948.930941, -2267
Refix G30: 2, 374948.926594, 1651
$GNGGA,080851.000,2944.9080,N,10633.0922,E,1,20,0.6,324.9,M,,,,0000*19
$GNRMC,080851.000,A,2944.9080,N,10633.0922,E,0.43,0.00,090519,,*1E
$GPGSA,A,3,01,03,06,07,11,17,18,19,22,28,30,,0.8,0.6,0.4*35
$BDGSA,A,3,01,02,03,04,07,08,10,13,27,,,,0.8,0.6,0.4*24
$GLGSA,A,3,,,,,,,,,,,,,0.8,0.6,0.4*24
$GPGSV,3,1,11,01,39,040,43,03,32,100,41,06,24,220,42,07,14,175,37*76
$GPGSV,3,2,11,11,27,047,40,17,47,307,44,18,13,042,36,19,30,283,40*75
$GPGSV,3,3,11,22,27,075,42,28,70,001,44,30,38,201,44*4F
$BDGSV,3,1,12,01,40,125,40,02,47,219,41,03,55,171,42,04,23,109,39*65
$BDGSV,3,2,12,07,61,132,43,08,81,329,43,10,89,032,43,13,62,236,43*63
$BDGSV,3,3,12,27,44,035,45,20,17,286,00,30,55,300,00,32,14,137,00*60
$B3CN0,0,0,22,0,0,0,0,0,0,0,0,0,0,0*7C
$ini_pos,lastpos_good = 1,ini_pos.x:-1578913.730346,ini_pos.y:5312770.257058,ini_pos.z:3146357.476584
$rtc_local_time,localRTC.weeks:2052,localRTC.seconds:374949.321892,localGtime.weeks:2052,localGtime.seconds:374949.999999
i = 0
$pseudo_cd_ph,prn:1,pseudo_cd_ph:374949927.114630937576
$meas,msRange:72.883005,x:-13643551.298386,y:7730274.004742,z:21202201.797180,vx:-350.682129,vy:-2714.906250,vz:789.229065,tb:-0.000012156258
i = 1
$pseudo_cd_ph,prn:3,pseudo_cd_ph:374949924.935650706291
$meas,msRange:75.262081,x:-23047955.609504,y:11652485.023702,z:5970991.082047,vx:456.538300,vy:-672.013428,vz:3062.538330,tb:0.000188131820
i = 2
