SD initialized success
Create debug.log Failed! 3
bbram_blkflag = 1
rtcflag = 0
BBRAM Block OK: 01 EPHflag: 28230465 240012cf, rtc 00
Hot-start nowtime:day = 9,minute = 56,seconds = 22.00
GPS 0 Init Dop:  1694, 2
GPS 1 Init Dop: 10000,80
GPS 2 Init Dop: -2502, 2
GPS 3 Init Dop: 10000,80
GPS 4 Init Dop: 10000,80
GPS 5 Init Dop: -4266, 2
GPS 6 Init Dop:  2720, 2
GPS 7 Init Dop: 10000,80
GPS 8 Init Dop: 10000,80
GPS 9 Init Dop: 10000,80
GPS10 Init Dop:  1888, 2
GPS11 Init Dop: 10000,80
GPS12 Init Dop: 10000,80
GPS13 Init Dop: 10000,80
GPS14 Init Dop: 10000,80
GPS15 Init Dop: 10000,80
GPS16 Init Dop: -1704, 2
GPS17 Init Dop:  2620, 2
GPS18 Init Dop: 10000,80
GPS19 Init Dop: 10000,80
GPS20 Init Dop: 10000,80
GPS21 Init Dop:  -986, 2
GPS22 Init Dop: 10000,80
GPS23 Init Dop: 10000,80
GPS24 Init Dop: 10000,80
GPS25 Init Dop: 10000,80
GPS26 Init Dop: 10000,80
GPS27 Init Dop: -2234, 2
GPS28 Init Dop: 10000,80
GPS29 Init Dop:  1608, 2
GPS30 Init Dop: 10000,80
GPS31 Init Dop: 10000,80
BDS 0 Init Dop:  -858, 2
BDS 1 Init Dop:  -913, 2
BDS 2 Init Dop:  -877, 2
BDS 3 Init Dop:  -876, 2
BDS 4 Init Dop: 10000,80
BDS 5 Init Dop: 10000,80
BDS 6 Init Dop:  -602, 2
BDS 7 Init Dop:  -724, 2
BDS 8 Init Dop: 10000,80
BDS 9 Init Dop: -1060, 2
BDS10 Init Dop: 10000,80
BDS11 Init Dop: 10000,80
BDS12 Init Dop: -1239, 2
BDS13 Init Dop: 10000,80
BDS14 Init Dop: 10000,80
BDS15 Init Dop: 10000,80
BDS16 Init Dop: 10000,80
BDS17 Init Dop: 10000,80
BDS18 Init Dop: 10000,80
BDS19 Init Dop: 10000,80
BDS20 Init Dop: 10000,80
BDS21 Init Dop: 10000,80
BDS22 Init Dop: 10000,80
BDS23 Init Dop: 10000,80
BDS24 Init Dop: 10000,80
BDS25 Init Dop: 10000,80
BDS26 Init Dop:   738, 2
BDS27 Init Dop: 10000,80
BDS28 Init Dop: 10000,80
BDS29 Init Dop: -1477, 2
BDS30 Init Dop: 10000,80
BDS31 Init Dop: 10000,80
Good luck!
$ini_pos,lastpos_good = 1,ini_pos.x:-1578913.000000,ini_pos.y:5312771.000000,ini_pos.z:3146359.000000
$rtc_local_time,localRTC.weeks:2052,localRTC.seconds:374201.026007,localGtime.weeks:0,localGtime.seconds:19.026010
$GNGGA,000000.000,,,,,0,00,,,M,,,,0000*2B
$GNRMC,000000.000,A,,,,,,,060180,,*29
$GPGSA,A,1,,,,,,,,,,,,,,,*1E
$BDGSA,A,1,,,,,,,,,,,,,,,*0F
$GLGSA,A,1,,,,,,,,,,,,,,,*02
$B3CN0,0,0,0,0,0,0,0,0,0,0,0,0,0,0*4C
$ini_pos,lastpos_good = 1,ini_pos.x:-1578913.000000,ini_pos.y:5312771.000000,ini_pos.z:3146359.000000
$rtc_local_time,localRTC.weeks:2052,localRTC.seconds:374202.026007,localGtime.weeks:2052,localGtime.seconds:374202.026007
i = 0
i = 1
$GNGGA,000000.000,,,,,0,00,,,M,,,,0000*2B
$GNRMC,000000.000,A,,,,,,,060180,,*29
$GPGSA,A,1,,,,,,,,,,,,,,,*1E
$BDGSA,A,1,,,,,,,,,,,,,,,*0F
$GLGSA,A,1,,,,,,,,,,,,,,,*02
$B3CN0,0,0,0,0,0,0,0,0,0,0,0,0,0,0*4C
tow update,374203756.732626
$ini_pos,lastpos_good = 1,ini_pos.x:-1578913.000000,ini_pos.y:5312771.000000,ini_pos.z:3146359.000000
$rtc_local_time,localRTC.weeks:2052,localRTC.seconds:374203.026007,localGtime.weeks:2052,localGtime.seconds:374203.756733
i = 0
$pseudo_cd_ph,prn:1,pseudo_cd_ph:2.693098
$meas,msRange:71.589156,x:-13429176.184360,y:9730350.603930,z:20486183.587548,vx:-224.859039,vy:-2639.070557,vz:1127.917358,tb:-0.0000121476
i = 1
$pseudo_cd_ph,prn:3,pseudo_cd_ph:18.538103
$meas,msRange:75.943915,x:-23309758.111349,y:12085388.044665,z:3654577.898145,vx:241.326294,vy:-491.252411,vz:3139.488525,tb:0.0001881324
i = 2
$pseudo_cd_ph,prn:6,pseudo_cd_ph:15.377065
$meas,msRange:79.126828,x:7036689.760443,y:24157629.568036,z:-8401687.644402,vx:-162.514069,vy:1083.057983,vz:2965.607178,tb:0.0002102833
i = 3
$pseudo_cd_ph,prn:7,pseudo_cd_ph:16.313278
$meas,msRange:77.960517,x:-7673116.320135,y:21998624.724006,z:-12042197.947222,vx:-348.561005,vy:-1575.978760,vz:-2648.899414,tb:-0.0000206420
i = 4
$pseudo_cd_ph,prn:11,pseudo_cd_ph:19.829218
$meas,msRange:73.854672,x:-15311359.402099,y:5242503.416433,z:20514229.143692,vx:-1256.875000,vy:-2448.044434,vz:-329.382416,tb:-0.0006104408
i = 5
i = 6
i = 7
$GNGGA,075625.757,,,,,0,00,,,M,,,,0000*2D
$GNRMC,075625.757,A,,,,,,,090519,,*24
$GPGSA,A,1,,,,,,,,,,,,,,,*1E
$BDGSA,A,1,,,,,,,,,,,,,,,*0F
$GLGSA,A,1,,,,,,,,,,,,,,,*02
$GPGSV,1,1,04,01,00,000,26,03,00,000,24,06,00,000,16,07,00,000,16*7C
$B3CN0,0,0,0,0,0,0,0,0,0,0,0,0,0,0*4C
$ini_pos,lastpos_good = 1,ini_pos.x:-1578913.000000,ini_pos.y:5312771.000000,ini_pos.z:3146359.000000
$rtc_local_time,localRTC.weeks:2052,localRTC.seconds:374204.026007,localGtime.weeks:2052,localGtime.seconds:374204.756733
i = 0
$pseudo_cd_ph,prn:1,pseudo_cd_ph:2.692124
$meas,msRange:71.590798,x:-13429401.125410,y:9727711.469732,z:20487311.281914,vx:-225.023071,vy:-2639.197998,vz:1127.471436,tb:-0.0000121476
i = 1
$pseudo_cd_ph,prn:3,pseudo_cd_ph:18.539809
$meas,msRange:75.942893,x:-23309516.633478,y:12084896.677510,z:3657717.347574,vx:241.629456,vy:-491.481934,vz:3139.410400,tb:0.0001881324
i = 2
$pseudo_cd_ph,prn:6,pseudo_cd_ph:15.379903
$meas,msRange:79.124686,x:7036527.268932,y:24158712.444163,z:-8398721.947485,vx:-162.468979,vy:1082.694336,vz:2965.786621,tb:0.0002102833
i = 3
$pseudo_cd_ph,prn:7,pseudo_cd_ph:16.311680
$meas,msRange:77.962810,x:-7673464.931682,y:21997048.586175,z:-12044846.713575,vx:-348.662109,vy:-1576.296997,vz:-2648.633301,tb:-0.0000206420
i = 4
$pseudo_cd_ph,prn:11,pseudo_cd_ph:19.828152
$meas,msRange:73.856437,x:-15312616.325251,y:5240055.419124,z:20513899.532111,vx:-1256.971436,vy:-2447.950439,vz:-329.840759,tb:-0.0006104408
i = 5
$pseudo_cd_ph,prn:17,pseudo_cd_ph:1.108297
$meas,msRange:73.238205,x:8481910.369003,y:18426329.304807,z:17599422.419144,vx:-1913.015625,vy:-979.494446,vz:1985.293335,tb:0.0000518228
i = 6
$pseudo_cd_ph,prn:18,pseudo_cd_ph:16.182131
$meas,msRange:78.164538,x:-15218362.940636,y:-534747.956451,z:21281541.774225,vx:-266.415009,vy:-2807.618652,vz:-241.987503,tb:0.0000515367
i = 7
$pseudo_cd_ph,prn:22,pseudo_cd_ph:374204556.733346
$meas,msRange:76.863619,x:-23152519.863985,y:7135634.777018,z:11035839.310810,vx:897.137329,vy:-1095.579834,vz:2654.589600,tb:-0.0006978075
i = 8
$pseudo_cd_ph,prn:28,pseudo_cd_ph:4.638253
$meas,msRange:70.424200,x:-4118579.029235,y:17454020.490405,z:20230967.067160,vx:-2181.383057,vy:1068.477661,vz:-1399.514160,tb:0.0007678324
i = 9
$pseudo_cd_ph,prn:30,pseudo_cd_ph:2.129167
$meas,msRange:72.064553,x:-839916.136905,y:26398179.570628,z:-1502248.136300,vx:-361.174286,vy:-191.328659,vz:-3136.557129,tb:-0.0001012549
i = 10
i = 11
i = 12
i = 13
$GNGGA,075626.757,,,,,0,00,,,M,,,,0000*2E
$GNRMC,075626.757,A,,,,,,,090519,,*27
$GPGSA,A,1,,,,,,,,,,,,,,,*1E
$BDGSA,A,1,,,,,,,,,,,,,,,*0F
$GLGSA,A,1,,,,,,,,,,,,,,,*02
$GPGSV,2,1,08,01,00,000,43,03,00,000,41,06,00,000,43,07,00,000,43*73
$GPGSV,2,2,08,11,00,000,36,17,00,000,28,18,00,000,27,22,00,000,21*77
$B3CN0,0,0,0,0,0,0,0,0,0,0,0,0,0,0*4C
$ini_pos,lastpos_good = 1,ini_pos.x:-1578913.000000,ini_pos.y:5312771.000000,ini_pos.z:3146359.000000
$rtc_local_time,localRTC.weeks:2052,localRTC.seconds:374205.026007,localGtime.weeks:2052,localGtime.seconds:374205.756733
i = 0
$pseudo_cd_ph,prn:1,pseudo_cd_ph:2.691159
$meas,msRange:71.592440,x:-13429626.230492,y:9725072.208364,z:20488438.530296,vx:-225.187103,vy:-2639.324951,vz:1127.025391,tb:-0.0000121476
i = 1
$pseudo_cd_ph,prn:3,pseudo_cd_ph:18.541516
$meas,msRange:75.941872,x:-23309274.852462,y:12084405.080792,z:3660856.718722,vx:241.932587,vy:-491.711517,vz:3139.332031,tb:0.0001881324
i = 2
$pseudo_cd_ph,prn:6,pseudo_cd_ph:15.382742
$meas,msRange:79.122544,x:7036364.822481,y:24159794.956564,z:-8395756.071184,vx:-162.423935,vy:1082.330566,vz:2965.966064,tb:0.0002102832
i = 3
$pseudo_cd_ph,prn:7,pseudo_cd_ph:16.310080
$meas,msRange:77.965102,x:-7673813.644372,y:21995472.130118,z:-12047495.213730,vx:-348.763275,vy:-1576.615234,vz:-2648.367188,tb:-0.0000206420
i = 4
$pseudo_cd_ph,prn:11,pseudo_cd_ph:19.827083
$meas,msRange:73.858201,x:-15313873.344783,y:5237607.515949,z:20513569.462191,vx:-1257.067749,vy:-2447.856201,vz:-330.299103,tb:-0.0006104408
i = 5
$pseudo_cd_ph,prn:17,pseudo_cd_ph:1.109492
$meas,msRange:73.237688,x:8479997.217313,y:18425349.809333,z:17601407.531353,vx:-1913.287842,vy:-979.496582,vz:1984.931152,tb:0.0000518228
i = 6
$pseudo_cd_ph,prn:18,pseudo_cd_ph:16.180591
$meas,msRange:78.166767,x:-15218629.431621,y:-537555.551146,z:21281299.550046,vx:-266.566956,vy:-2807.570801,vz:-242.460861,tb:0.0000515367
i = 7
$pseudo_cd_ph,prn:22,pseudo_cd_ph:374205556.734078
$meas,msRange:76.863560,x:-23151622.623562,y:7134539.075367,z:11038493.783841,vx:897.343567,vy:-1095.823486,vz:2654.356445,tb:-0.0006978075
i = 8
$pseudo_cd_ph,prn:28,pseudo_cd_ph:4.639783
$meas,msRange:70.423347,x:-4120760.303699,y:17455088.997525,z:20229567.349042,vx:-2181.166016,vy:1068.536621,vz:-1399.922241,tb:0.0007678324
i = 9
$pseudo_cd_ph,prn:30,pseudo_cd_ph:2.128281
$meas,msRange:72.066140,x:-840277.318325,y:26397988.054297,z:-1505384.677046,vx:-361.188599,vy:-191.704025,vz:-3136.524658,tb:-0.0001012550
i = 10
i = 11
i = 12
i = 13
i = 14
i = 15
i = 16
i = 17
$GNGGA,075627.757,,,,,0,00,,,M,,,,0000*2F
$GNRMC,075627.757,A,,,,,,,090519,,*26
$GPGSA,A,1,,,,,,,,,,,,,,,*1E
$BDGSA,A,1,,,,,,,,,,,,,,,*0F
$GLGSA,A,1,,,,,,,,,,,,,,,*02
$GPGSV,3,1,10,01,00,000,42,03,00,000,41,06,00,000,42,07,00,000,41*79
$GPGSV,3,2,10,11,00,000,42,17,00,000,45,18,00,000,40,22,00,000,44*75
$GPGSV,3,3,10,28,00,000,34,30,00,000,32*77
$BDGSV,1,1,04,01,00,000,40,02,00,000,39,03,00,000,43,04,00,000,31*63
$B3CN0,0,0,0,0,0,0,0,0,0,0,0,0,0,0*4C
$ini_pos,lastpos_good = 1,ini_pos.x:-1578913.000000,ini_pos.y:5312771.000000,ini_pos.z:3146359.000000
$rtc_local_time,localRTC.weeks:2052,localRTC.seconds:374206.026007,localGtime.weeks:2052,localGtime.seconds:374206.756733
i = 0
$pseudo_cd_ph,prn:1,pseudo_cd_ph:2.690200
$meas,msRange:71.594083,x:-13429851.499620,y:9722432.819893,z:20489565.332671,vx:-225.351166,vy:-2639.452148,vz:1126.579346,tb:-0.0000121476
i = 1
$pseudo_cd_ph,prn:3,pseudo_cd_ph:18.543224
$meas,msRange:75.940851,x:-23309032.768338,y:12083913.254473,z:3663996.011525,vx:242.235672,vy:-491.941162,vz:3139.253662,tb:0.0001881324
i = 2
$pseudo_cd_ph,prn:6,pseudo_cd_ph:15.385579
$meas,msRange:79.120401,x:7036202.421039,y:24160877.105213,z:-8392790.015562,vx:-162.378952,vy:1081.966797,vz:2966.145264,tb:0.0002102832
i = 3
$pseudo_cd_ph,prn:7,pseudo_cd_ph:16.308483
$meas,msRange:77.967394,x:-7674162.458246,y:21993895.355876,z:-12050143.447629,vx:-348.864502,vy:-1576.933350,vz:-2648.100830,tb:-0.0000206420
i = 4
$pseudo_cd_ph,prn:11,pseudo_cd_ph:19.826014
$meas,msRange:73.859966,x:-15315130.460658,y:5235159.706962,z:20513238.933939,vx:-1257.164062,vy:-2447.761963,vz:-330.757416,tb:-0.0006104408
i = 5
$pseudo_cd_ph,prn:17,pseudo_cd_ph:1.110692
$meas,msRange:73.237172,x:8478083.793364,y:18424370.311728,z:17603392.281301,vx:-1913.560181,vy:-979.498657,vz:1984.568848,tb:0.0000518228
i = 6
$pseudo_cd_ph,prn:18,pseudo_cd_ph:16.179052
$meas,msRange:78.168997,x:-15218896.074554,y:-540363.097864,z:21281056.852509,vx:-266.718903,vy:-2807.522705,vz:-242.934219,tb:0.0000515367
i = 7
$pseudo_cd_ph,prn:22,pseudo_cd_ph:374206556.734818
$meas,msRange:76.863502,x:-23150725.176976,y:7133443.130066,z:11041148.023635,vx:897.549683,vy:-1096.067139,vz:2654.123291,tb:-0.0006978075
i = 8
$pseudo_cd_ph,prn:28,pseudo_cd_ph:4.641320
$meas,msRange:70.422494,x:-4122941.361128,y:17456157.563523,z:20228167.222842,vx:-2180.948975,vy:1068.595459,vz:-1400.330322,tb:0.0007678324
i = 9
$pseudo_cd_ph,prn:30,pseudo_cd_ph:2.127395
$meas,msRange:72.067728,x:-840638.514081,y:26397796.162604,z:-1508521.185369,vx:-361.202942,vy:-192.079376,vz:-3136.492188,tb:-0.0001012550
i = 10
i = 11
i = 12
i = 13
i = 14
i = 15
i = 16
i = 17
i = 18
$GNGGA,075628.757,,,,,0,00,,,M,,,,0000*20
$GNRMC,075628.757,A,,,,,,,090519,,*29
$GPGSA,A,1,,,,,,,,,,,,,,,*1E
$BDGSA,A,1,,,,,,,,,,,,,,,*0F
$GLGSA,A,1,,,,,,,,,,,,,,,*02
$GPGSV,3,1,10,01,00,000,43,03,00,000,41,06,00,000,42,07,00,000,41*78
$GPGSV,3,2,10,11,00,000,42,17,00,000,44,18,00,000,40,22,00,000,43*73
$GPGSV,3,3,10,28,00,000,44,30,00,000,45*70
$BDGSV,3,1,09,01,00,000,42,02,00,000,40,03,00,000,43,04,00,000,34*65
$BDGSV,3,2,09,05,00,000,36,07,00,000,19,08,00,000,20,10,00,000,41*61
$BDGSV,3,3,09,13,00,000,31*51
$B3CN0,0,0,0,0,0,0,0,0,0,0,0,0,0,0*4C
$ini_pos,lastpos_good = 1,ini_pos.x:-1578913.000000,ini_pos.y:5312771.000000,ini_pos.z:3146359.000000
$rtc_local_time,localRTC.weeks:2052,localRTC.seconds:374207.026007,localGtime.weeks:2052,localGtime.seconds:374207.756732
i = 0
$pseudo_cd_ph,prn:1,pseudo_cd_ph:2.689244
$meas,msRange:71.595726,x:-13430076.932811,y:9719793.304387,z:20490691.689013,vx:-225.515228,vy:-2639.579102,vz:1126.133301,tb:-0.0000121476
i = 1
$pseudo_cd_ph,prn:3,pseudo_cd_ph:18.544936
$meas,msRange:75.939830,x:-23308790.381145,y:12083421.198518,z:3667135.225913,vx:242.538727,vy:-492.170807,vz:3139.175293,tb:0.0001881324
i = 2
$pseudo_cd_ph,prn:6,pseudo_cd_ph:15.388414
$meas,msRange:79.118259,x:7036040.064557,y:24161958.890088,z:-8389823.780683,vx:-162.334030,vy:1081.603027,vz:2966.324463,tb:0.0002102832
i = 3
$pseudo_cd_ph,prn:7,pseudo_cd_ph:16.306887
$meas,msRange:77.969687,x:-7674511.373344,y:21992318.263490,z:-12052791.415213,vx:-348.965729,vy:-1577.251465,vz:-2647.834473,tb:-0.0000206420
i = 4
$pseudo_cd_ph,prn:11,pseudo_cd_ph:19.824945
$meas,msRange:73.861731,x:-15316387.672842,y:5232711.992220,z:20512907.947363,vx:-1257.260376,vy:-2447.667725,vz:-331.215759,tb:-0.0006104408
i = 5
$pseudo_cd_ph,prn:17,pseudo_cd_ph:1.111897
$meas,msRange:73.236656,x:8476170.097183,y:18423390.812046,z:17605376.668947,vx:-1913.832397,vy:-979.500732,vz:1984.206543,tb:0.0000518228
i = 6
$pseudo_cd_ph,prn:18,pseudo_cd_ph:16.177512
$meas,msRange:78.171227,x:-15219162.869423,y:-543170.596536,z:21280813.681621,vx:-266.870850,vy:-2807.474609,vz:-243.407562,tb:0.0000515367
i = 7
$pseudo_cd_ph,prn:22,pseudo_cd_ph:374207556.735562
$meas,msRange:76.863443,x:-23149827.524277,y:7132346.941104,z:11043802.030138,vx:897.755798,vy:-1096.310791,vz:2653.889893,tb:-0.0006978075
i = 8
$pseudo_cd_ph,prn:28,pseudo_cd_ph:4.642862
$meas,msRange:70.421642,x:-4125122.201481,y:17457226.188350,z:20226766.688587,vx:-2180.731934,vy:1068.654297,vz:-1400.738281,tb:0.0007678324
i = 9
$pseudo_cd_ph,prn:30,pseudo_cd_ph:2.126507
$meas,msRange:72.069316,x:-840999.724222,y:26397603.895555,z:-1511657.661199,vx:-361.217377,vy:-192.454727,vz:-3136.459717,tb:-0.0001012550
i = 10
i = 11
i = 12
i = 13
i = 14
i = 15
i = 16
i = 17
i = 18
i = 19
i = 20
$GNGGA,075629.757,,,,,0,00,,,M,,,,0000*21
$GNRMC,075629.757,A,,,,,,,090519,,*28
$GPGSA,A,1,,,,,,,,,,,,,,,*1E
$BDGSA,A,1,,,,,,,,,,,,,,,*0F
$GLGSA,A,1,,,,,,,,,,,,,,,*02
$GPGSV,3,1,10,01,00,000,43,03,00,000,40,06,00,000,42,07,00,000,41*79
$GPGSV,3,2,10,11,00,000,41,17,00,000,44,18,00,000,40,22,00,000,43*70
$GPGSV,3,3,10,28,00,000,43,30,00,000,45*77
$BDGSV,3,1,09,01,00,000,40,02,00,000,39,03,00,000,42,04,00,000,35*69
$BDGSV,3,2,09,05,00,000,36,07,00,000,44,08,00,000,44,10,00,000,43*69
$BDGSV,3,3,09,13,00,000,44*53
$B3CN0,0,0,0,0,0,0,0,0,0,0,0,0,0,0*4C
$ini_pos,lastpos_good = 1,ini_pos.x:-1578913.000000,ini_pos.y:5312771.000000,ini_pos.z:3146359.000000
$rtc_local_time,localRTC.weeks:2052,localRTC.seconds:374208.026007,localGtime.weeks:2052,localGtime.seconds:374208.756732
i = 0
$pseudo_cd_ph,prn:1,pseudo_cd_ph:2.688289
$meas,msRange:71.597369,x:-13430302.530080,y:9717153.661914,z:20491817.599301,vx:-225.679321,vy:-2639.706055,vz:1125.687256,tb:-0.0000121476
i = 1
$pseudo_cd_ph,prn:3,pseudo_cd_ph:18.546648
$meas,msRange:75.938809,x:-23308547.690919,y:12082928.912889,z:3670274.361820,vx:242.841736,vy:-492.400482,vz:3139.096680,tb:0.0001881324
i = 2
$pseudo_cd_ph,prn:6,pseudo_cd_ph:15.391249
$meas,msRange:79.116117,x:7035877.752983,y:24163040.311164,z:-8386857.366610,vx:-162.289139,vy:1081.239258,vz:2966.503662,tb:0.0002102832
i = 3
$pseudo_cd_ph,prn:7,pseudo_cd_ph:16.305286
$meas,msRange:77.971979,x:-7674860.389708,y:21990740.853000,z:-12055439.116422,vx:-349.067017,vy:-1577.569580,vz:-2647.568115,tb:-0.0000206420
i = 4
$pseudo_cd_ph,prn:11,pseudo_cd_ph:19.823871
$meas,msRange:73.863496,x:-15317644.981298,y:5230264.371777,z:20512576.502468,vx:-1257.356567,vy:-2447.573242,vz:-331.674072,tb:-0.0006104408
i = 5
$pseudo_cd_ph,prn:17,pseudo_cd_ph:1.113099
$meas,msRange:73.236140,x:8474256.128801,y:18422411.310345,z:17607360.694254,vx:-1914.104492,vy:-979.502747,vz:1983.844238,tb:0.0000518228
i = 6
$pseudo_cd_ph,prn:18,pseudo_cd_ph:16.175971
$meas,msRange:78.173457,x:-15219429.816219,y:-545978.047093,z:21280570.037389,vx:-267.022766,vy:-2807.426514,vz:-243.880905,tb:0.0000515367
i = 7
$pseudo_cd_ph,prn:22,pseudo_cd_ph:374208556.736306
$meas,msRange:76.863385,x:-23148929.665516,y:7131250.508468,z:11046455.803293,vx:897.961792,vy:-1096.554565,vz:2653.656494,tb:-0.0006978075
i = 8
$pseudo_cd_ph,prn:28,pseudo_cd_ph:4.644399
$meas,msRange:70.420790,x:-4127302.824716,y:17458294.871958,z:20225365.746305,vx:-2180.514648,vy:1068.713013,vz:-1401.146362,tb:0.0007678324
i = 9
$pseudo_cd_ph,prn:30,pseudo_cd_ph:2.125612
$meas,msRange:72.070904,x:-841360.948798,y:26397411.253155,z:-1514794.104470,vx:-361.231812,vy:-192.830078,vz:-3136.427002,tb:-0.0001012550
i = 10
i = 11
i = 12
i = 13
i = 14
i = 15
i = 16
i = 17
i = 18
i = 19
i = 20
i = 21
i = 22
i = 23
i = 24
$GNGGA,075630.634,2944.9068,N,10633.0886,E,1,05,3.9,307.4,M,,,,0000*15
$GNRMC,075630.634,A,2944.9068,N,10633.0886,E,0.54,0.00,090519,,*13
$GPGSA,A,3,22,,,,,,,,,,,,8.4,3.9,7.5*36
$BDGSA,A,3,01,02,03,08,,,,,,,,,8.4,3.9,7.5*2F
$GLGSA,A,3,,,,,,,,,,,,,8.4,3.9,7.5*2A
$GPGSV,3,1,10,01,00,000,43,03,00,000,41,06,00,000,42,07,00,000,42*7B
$GPGSV,3,2,10,11,00,000,41,17,00,000,44,18,00,000,40,22,00,000,43*70
$GPGSV,3,3,10,28,00,000,44,30,00,000,44*71
$BDGSV,3,1,11,01,00,000,40,02,00,000,41,03,00,000,43,04,00,000,35*6E
$BDGSV,3,2,11,05,00,000,36,07,00,000,43,08,00,000,43,10,00,000,43*60
$BDGSV,3,3,11,13,00,000,43,27,00,000,29,30,00,000,22*50
$B3CN0,0,0,0,0,0,0,0,0,0,0,0,0,0,0*4C
$ini_pos,lastpos_good = 1,ini_pos.x:-1578904.049991,ini_pos.y:5312758.444869,ini_pos.z:3146346.741884
$rtc_local_time,localRTC.weeks:2052,localRTC.seconds:374209.391709,localGtime.weeks:2052,localGtime.seconds:374210.000000
i = 0
$pseudo_cd_ph,prn:1,pseudo_cd_ph:374209948.389418
$meas,msRange:71.599470,x:-13430583.236664,y:9713871.703216,z:20493216.784935,vx:-225.883347,vy:-2639.863770,vz:1125.132690,tb:-0.0000121476
i = 1
$pseudo_cd_ph,prn:3,pseudo_cd_ph:374209944.251416
$meas,msRange:75.937582,x:-23308245.539523,y:12082316.549827,z:3674177.037984,vx:243.218414,vy:-492.686096,vz:3138.999023,tb:0.0001881324
i = 2
$pseudo_cd_ph,prn:6,pseudo_cd_ph:374209941.097553
$meas,msRange:79.113457,x:7035676.018825,y:24164384.299511,z:-8383169.070561,vx:-162.233414,vy:1080.786865,vz:2966.726318,tb:0.0002102832
i = 3
$pseudo_cd_ph,prn:7,pseudo_cd_ph:374209942.005528
$meas,msRange:77.974840,x:-7675294.451689,y:21988779.266248,z:-12058730.545789,vx:-349.192993,vy:-1577.964966,vz:-2647.236816,tb:-0.0000206420
i = 4
$pseudo_cd_ph,prn:11,pseudo_cd_ph:374209945.524839
$meas,msRange:73.865740,x:-15319208.286258,y:5227221.456368,z:20512163.788687,vx:-1257.476196,vy:-2447.456055,vz:-332.243866,tb:-0.0006104408
i = 5
$pseudo_cd_ph,prn:17,pseudo_cd_ph:374209946.817177
$meas,msRange:73.235537,x:8471876.174545,y:18421193.524963,z:17609826.863130,vx:-1914.442871,vy:-979.505127,vz:1983.393677,tb:0.0000518228
i = 6
$pseudo_cd_ph,prn:18,pseudo_cd_ph:374209941.876303
$meas,msRange:78.176268,x:-15219761.914342,y:-549468.391976,z:21280266.462365,vx:-267.211639,vy:-2807.366699,vz:-244.469391,tb:0.0000515367
i = 7
$pseudo_cd_ph,prn:22,pseudo_cd_ph:374209922.439757
$meas,msRange:76.863359,x:-23147813.099608,y:7129887.009566,z:11049754.827772,vx:898.217896,vy:-1096.857544,vz:2653.366211,tb:-0.0006978075
i = 8
$pseudo_cd_ph,prn:28,pseudo_cd_ph:374209950.348937
$meas,msRange:70.419791,x:-4130013.619923,y:17459623.613470,z:20223623.431322,vx:-2180.244629,vy:1068.786011,vz:-1401.653564,tb:0.0007678324
i = 9
$pseudo_cd_ph,prn:30,pseudo_cd_ph:374209947.826823
$meas,msRange:72.072909,x:-841810.067781,y:26397171.223700,z:-1518693.497005,vx:-361.249878,vy:-193.296738,vz:-3136.386475,tb:-0.0001012550
i = 10
i = 11
i = 12
i = 13
i = 14
i = 15
i = 16
i = 17
i = 18
i = 19
i = 20
i = 21
i = 22
i = 23
i = 24
i = 25
Refix G01: 2, 374209.928389, 1446
Refix G03: 2, 374209.924251, -2750
Refix G06: 2, 374209.921098, -4518
Refix G07: 2, 374209.922006, 2467
Refix G11: 2, 374209.925525, 1637
Refix G17: 2, 374209.926817, -1955
Refix G18: 2, 374209.921876, 2370
Refix G22: 2, 374209.922440, -1233
Refix G28: 2, 374209.930349, -2484
Refix G30: 2, 374209.927827, 1358
$GNGGA,075632.000,2944.9083,N,10633.0872,E,1,05,2.1,307.7,M,,,,0000*12
$GNRMC,075632.000,A,2944.9083,N,10633.0872,E,0.23,0.00,090519,,*1E
$GPGSA,A,3,22,,,,,,,,,,,,2.3,2.1,0.9*39
$BDGSA,A,3,01,02,03,08,,,,,,,,,2.3,2.1,0.9*20
$GLGSA,A,3,,,,,,,,,,,,,2.3,2.1,0.9*25
$GPGSV,3,1,10,01,00,000,43,03,00,000,41,06,00,000,42,07,00,000,41*78
$GPGSV,3,2,10,11,00,000,41,17,00,000,44,18,00,000,39,22,00,000,42*7F
$GPGSV,3,3,10,28,00,000,43,30,00,000,44*76
$BDGSV,3,1,11,01,00,000,41,02,00,000,41,03,00,000,45,04,00,000,38*64
$BDGSV,3,2,11,05,00,000,35,07,00,000,43,08,00,000,43,10,00,000,43*63
$BDGSV,3,3,11,13,00,000,44,27,00,000,44,30,00,000,44*5C
$B3CN0,0,19,0,0,0,0,0,0,0,0,0,0,0,0*74
$ini_pos,lastpos_good = 1,ini_pos.x:-1578901.665319,ini_pos.y:5312757.942981,ini_pos.z:3146349.434159
$rtc_local_time,localRTC.weeks:2052,localRTC.seconds:374210.391709,localGtime.weeks:2052,localGtime.seconds:374211.000000
i = 0
$pseudo_cd_ph,prn:1,pseudo_cd_ph:374210948.388470
$meas,msRange:71.601111,x:-13430809.202060,y:9711231.776168,z:20494341.694516,vx:-226.047470,vy:-2639.990479,vz:1124.686523,tb:-0.0000121477
i = 1
$pseudo_cd_ph,prn:3,pseudo_cd_ph:374210944.253129
$meas,msRange:75.936570,x:-23308002.169649,y:12081823.748848,z:3677315.997593,vx:243.521347,vy:-492.915894,vz:3138.920410,tb:0.0001881324
i = 2
$pseudo_cd_ph,prn:6,pseudo_cd_ph:374210941.100390
$meas,msRange:79.111318,x:7035513.807811,y:24165464.904404,z:-8380202.254739,vx:-162.188644,vy:1080.422974,vz:2966.905518,tb:0.0002102832
i = 3
$pseudo_cd_ph,prn:7,pseudo_cd_ph:374210942.003930
$meas,msRange:77.977142,x:-7675643.695363,y:21987201.142318,z:-12061377.649237,vx:-349.294373,vy:-1578.282959,vz:-2646.970215,tb:-0.0000206421
i = 4
$pseudo_cd_ph,prn:11,pseudo_cd_ph:374210945.523774
$meas,msRange:73.867503,x:-15320465.810549,y:5224774.047667,z:20511831.315687,vx:-1257.572388,vy:-2447.361572,vz:-332.702148,tb:-0.0006104408
i = 5
$pseudo_cd_ph,prn:17,pseudo_cd_ph:374210946.818387
$meas,msRange:73.235013,x:8469961.595650,y:18420214.018932,z:17611810.075464,vx:-1914.714966,vy:-979.507019,vz:1983.031128,tb:0.0000518228
i = 6
$pseudo_cd_ph,prn:18,pseudo_cd_ph:374210941.874768
$meas,msRange:78.178495,x:-15220029.201909,y:-552275.734343,z:21280021.756317,vx:-267.363525,vy:-2807.318359,vz:-244.942719,tb:0.0000515367
i = 7
$pseudo_cd_ph,prn:22,pseudo_cd_ph:374210922.440508
$meas,msRange:76.863306,x:-23146914.778782,y:7128790.030260,z:11052408.077266,vx:898.423828,vy:-1097.101196,vz:2653.132812,tb:-0.0006978075
i = 8
$pseudo_cd_ph,prn:28,pseudo_cd_ph:374210950.350483
$meas,msRange:70.418934,x:-4132193.755956,y:17460692.428763,z:20222221.573823,vx:-2180.027588,vy:1068.844604,vz:-1402.061523,tb:0.0007678324
i = 9
$pseudo_cd_ph,prn:30,pseudo_cd_ph:374210947.825932
$meas,msRange:72.074501,x:-842171.324915,y:26396977.739306,z:-1521829.866991,vx:-361.264435,vy:-193.672073,vz:-3136.353760,tb:-0.0001012550
i = 10
i = 11
i = 12
i = 13
i = 14
i = 15
i = 16
i = 17
i = 18
i = 19
i = 20
i = 21
i = 22
i = 23
i = 24
i = 25
Refix G01: 2, 374210.928388, 1447
Refix G03: 2, 374210.924253, -2748
Refix G06: 2, 374210.921100, -4516
Refix G07: 2, 374210.922004, 2469
Refix G11: 2, 374210.925524, 1638
Refix G17: 2, 374210.926818, -1954
Refix G18: 2, 374210.921875, 2370
Refix G22: 2, 374210.922441, -1231
Refix G28: 2, 374210.930350, -2483
Refix G30: 2, 374210.927826, 1361
$GNGGA,075633.000,2944.9086,N,10633.0887,E,1,06,1.9,306.8,M,,,,0000*1A
$GNRMC,075633.000,A,2944.9086,N,10633.0887,E,0.16,0.00,090519,,*16
$GPGSA,A,3,22,,,,,,,,,,,,2.1,1.9,0.9*30
$BDGSA,A,3,01,02,03,04,08,,,,,,,,2.1,1.9,0.9*2D
$GLGSA,A,3,,,,,,,,,,,,,2.1,1.9,0.9*2C
$GPGSV,3,1,10,01,45,041,43,03,29,107,41,06,19,217,42,07,19,177,42*77
$GPGSV,3,2,10,11,32,045,41,17,45,300,44,18,18,041,39,22,27,081,43*7C
$GPGSV,3,3,10,28,65,353,43,30,44,205,44*77
$BDGSV,3,1,11,01,40,125,40,02,47,219,41,03,55,171,42,04,23,109,40*68
$BDGSV,3,2,11,05,00,000,36,07,62,127,43,08,84,320,43,10,86,014,43*66
$BDGSV,3,3,11,13,61,230,43,27,48,030,44,30,53,291,44*5E
$B3CN0,0,0,0,0,0,0,0,0,0,0,0,0,0,0*4C
$ini_pos,lastpos_good = 1,ini_pos.x:-1578903.705160,ini_pos.y:5312756.216523,ini_pos.z:3146349.415473
$rtc_local_time,localRTC.weeks:2052,localRTC.seconds:374211.391709,localGtime.weeks:2052,localGtime.seconds:374212.000000
i = 0
$pseudo_cd_ph,prn:1,pseudo_cd_ph:374211948.387520
$meas,msRange:71.602752,x:-13431035.331582,y:9708591.722373,z:20495466.157965,vx:-226.211594,vy:-2640.117188,vz:1124.240356,tb:-0.0000121477
i = 1
$pseudo_cd_ph,prn:3,pseudo_cd_ph:374211944.254844
$meas,msRange:75.935545,x:-23307758.496862,y:12081330.718079,z:3680454.878502,vx:243.824234,vy:-493.145691,vz:3138.841553,tb:0.0001881324
i = 2
$pseudo_cd_ph,prn:6,pseudo_cd_ph:374211941.103227
$meas,msRange:79.109184,x:7035351.641541,y:24166545.145422,z:-8377235.259929,vx:-162.143921,vy:1080.059082,vz:2967.084473,tb:0.0002102832
i = 3
$pseudo_cd_ph,prn:7,pseudo_cd_ph:374211942.002331
$meas,msRange:77.979437,x:-7675993.040434,y:21985622.700418,z:-12064024.486122,vx:-349.395782,vy:-1578.600952,vz:-2646.703613,tb:-0.0000206421
i = 4
$pseudo_cd_ph,prn:11,pseudo_cd_ph:374211945.522708
$meas,msRange:73.869264,x:-15321723.430996,y:5222326.733445,z:20511498.384390,vx:-1257.668579,vy:-2447.267090,vz:-333.160461,tb:-0.0006104408
i = 5
$pseudo_cd_ph,prn:17,pseudo_cd_ph:374211946.819599
$meas,msRange:73.234504,x:8468046.744650,y:18419234.511061,z:17613792.925329,vx:-1914.987061,vy:-979.508789,vz:1982.668701,tb:0.0000518228
i = 6
$pseudo_cd_ph,prn:18,pseudo_cd_ph:374211941.873232
$meas,msRange:78.180720,x:-15220296.641367,y:-555083.028369,z:21279776.576945,vx:-267.515411,vy:-2807.270020,vz:-245.416046,tb:0.0000515367
i = 7
$pseudo_cd_ph,prn:22,pseudo_cd_ph:374211922.441261
$meas,msRange:76.863244,x:-23146016.252060,y:7127692.807240,z:11055061.093233,vx:898.629700,vy:-1097.344971,vz:2652.899170,tb:-0.0006978075
i = 8
$pseudo_cd_ph,prn:28,pseudo_cd_ph:374211950.352030
$meas,msRange:70.418085,x:-4134373.674739,y:17461761.302679,z:20220819.308385,vx:-2179.810303,vy:1068.903198,vz:-1402.469482,tb:0.0007678324
i = 9
$pseudo_cd_ph,prn:30,pseudo_cd_ph:374211947.825040
$meas,msRange:72.076096,x:-842532.596641,y:26396783.879578,z:-1524966.204199,vx:-361.279053,vy:-194.047394,vz:-3136.320801,tb:-0.0001012550
i = 10
i = 11
i = 12
i = 13
i = 14
i = 15
i = 16
i = 17
i = 18
i = 19
i = 20
i = 21
i = 22
i = 23
i = 24
i = 25
Refix G01: 2, 374211.928388, 1445
Refix G03: 2, 374211.924255, -2751
Refix G06: 2, 374211.921103, -4518
Refix G07: 2, 374211.922002, 2467
Refix G11: 2, 374211.925523, 1636
Refix G17: 2, 374211.926820, -1956
Refix G18: 2, 374211.921873, 2369
Refix G22: 2, 374211.922441, -1233
Refix G28: 2, 374211.930352, -2485
Refix G30: 2, 374211.927825, 1359
$GNGGA,075634.000,2944.9075,N,10633.0897,E,1,11,1.1,307.9,M,,,,0000*1E
$GNRMC,075634.000,A,2944.9075,N,10633.0897,E,0.15,0.00,090519,,*1F
$GPGSA,A,3,22,,,,,,,,,,,,1.2,1.1,0.4*35
$BDGSA,A,3,01,02,03,04,07,08,10,13,27,30,,,1.2,1.1,0.4*2A
$GLGSA,A,3,,,,,,,,,,,,,1.2,1.1,0.4*29
$GPGSV,3,1,10,01,45,041,44,03,29,107,41,06,19,217,42,07,19,177,42*70
$GPGSV,3,2,10,11,32,045,41,17,45,300,45,18,18,041,40,22,27,081,43*73
$GPGSV,3,3,10,28,65,353,43,30,44,205,44*77
$BDGSV,3,1,11,01,40,125,41,02,47,219,42,03,55,171,42,04,23,109,40*6A
$BDGSV,3,2,11,05,00,000,37,07,62,127,42,08,84,320,43,10,86,014,43*66
$BDGSV,3,3,11,13,61,230,43,27,48,030,44,30,53,291,44*5E
$B3CN0,0,0,0,0,0,0,0,0,0,0,0,0,0,0*4C
$ini_pos,lastpos_good = 1,ini_pos.x:-1578905.811493,ini_pos.y:5312757.684259,ini_pos.z:3146348.244019
$rtc_local_time,localRTC.weeks:2052,localRTC.seconds:374212.391709,localGtime.weeks:2052,localGtime.seconds:374213.000000
i = 0
$pseudo_cd_ph,prn:1,pseudo_cd_ph:374212948.386571
$meas,msRange:71.604395,x:-13431261.625248,y:9705951.541898,z:20496590.175260,vx:-226.375748,vy:-2640.243896,vz:1123.794189,tb:-0.0000121477
i = 1
$pseudo_cd_ph,prn:3,pseudo_cd_ph:374212944.256558
$meas,msRange:75.934517,x:-23307514.521201,y:12080837.457482,z:3683593.680645,vx:244.127090,vy:-493.375549,vz:3138.762939,tb:0.0001881324
i = 2
$pseudo_cd_ph,prn:6,pseudo_cd_ph:374212941.106065
$meas,msRange:79.107039,x:7035189.519967,y:24167625.022541,z:-8374268.086194,vx:-162.099243,vy:1079.695190,vz:2967.263184,tb:0.0002102832
i = 3
$pseudo_cd_ph,prn:7,pseudo_cd_ph:374212942.000734
$meas,msRange:77.981722,x:-7676342.486940,y:21984043.940590,z:-12066671.056384,vx:-349.497253,vy:-1578.918823,vz:-2646.437012,tb:-0.0000206421
i = 4
$pseudo_cd_ph,prn:11,pseudo_cd_ph:374212945.521638
$meas,msRange:73.871028,x:-15322981.147565,y:5219879.513758,z:20511164.994804,vx:-1257.764648,vy:-2447.172363,vz:-333.618744,tb:-0.0006104408
i = 5
$pseudo_cd_ph,prn:17,pseudo_cd_ph:374212946.820809
$meas,msRange:73.233991,x:8466131.621573,y:18418255.001407,z:17615775.412684,vx:-1915.259155,vy:-979.510559,vz:1982.306152,tb:0.0000518228
i = 6
$pseudo_cd_ph,prn:18,pseudo_cd_ph:374212941.871693
$meas,msRange:78.182951,x:-15220564.232704,y:-557890.273983,z:21279530.924256,vx:-267.667267,vy:-2807.221436,vz:-245.889359,tb:0.0000515367
i = 7
$pseudo_cd_ph,prn:22,pseudo_cd_ph:374212922.442010
$meas,msRange:76.863182,x:-23145117.519494,y:7126595.340494,z:11057713.875617,vx:898.835510,vy:-1097.588623,vz:2652.665771,tb:-0.0006978075
i = 8
$pseudo_cd_ph,prn:28,pseudo_cd_ph:374212950.353579
$meas,msRange:70.417233,x:-4136553.376229,y:17462830.235169,z:20219416.635035,vx:-2179.593018,vy:1068.961792,vz:-1402.877319,tb:0.0007678324
i = 9
$pseudo_cd_ph,prn:30,pseudo_cd_ph:374212947.824149
$meas,msRange:72.077680,x:-842893.883009,y:26396589.644521,z:-1528102.508561,vx:-361.293701,vy:-194.422729,vz:-3136.288086,tb:-0.0001012550
i = 10
i = 11
i = 12
i = 13
i = 14
i = 15
i = 16
i = 17
i = 18
i = 19
i = 20
i = 21
i = 22
i = 23
i = 24
i = 25
i = 26
Refix G01: 2, 374212.928387, 1444
Refix G03: 2, 374212.924257, -2752
Refix G06: 2, 374212.921106, -4520
Refix G07: 2, 374212.922001, 2464
Refix G11: 2, 374212.925522, 1634
Refix G17: 2, 374212.926821, -1958
Refix G18: 2, 374212.921872, 2367
Refix G22: 2, 374212.922442, -1235
Refix G28: 2, 374212.930354, -2487
Refix G30: 2, 374212.927824, 1356
$GNGGA,075635.000,2944.9075,N,10633.0898,E,1,11,1.1,309.3,M,,,,0000*14
$GNRMC,075635.000,A,2944.9075,N,10633.0898,E,0.13,0.00,090519,,*17
$GPGSA,A,3,22,,,,,,,,,,,,1.2,1.1,0.4*35
$BDGSA,A,3,01,02,03,04,07,08,10,13,27,30,,,1.2,1.1,0.4*2A
$GLGSA,A,3,,,,,,,,,,,,,1.2,1.1,0.4*29
$GPGSV,3,1,10,01,45,041,44,03,29,107,41,06,19,217,42,07,19,177,42*70
$GPGSV,3,2,10,11,32,045,42,17,45,300,45,18,18,041,40,22,27,081,43*70
$GPGSV,3,3,10,28,65,353,44,30,44,205,45*71
$BDGSV,3,1,11,01,40,125,41,02,47,219,39,03,55,171,43,04,23,109,39*69
$BDGSV,3,2,11,05,00,000,37,07,62,127,42,08,84,320,43,10,86,014,43*66
$BDGSV,3,3,11,13,61,230,43,27,48,030,44,30,53,291,44*5E
$B3CN0,0,0,0,0,0,0,0,0,0,0,0,0,0,0*4C
$ini_pos,lastpos_good = 1,ini_pos.x:-1578906.290975,ini_pos.y:5312758.760814,ini_pos.z:3146348.898300
$rtc_local_time,localRTC.weeks:2052,localRTC.seconds:374213.391709,localGtime.weeks:2052,localGtime.seconds:374214.000000
i = 0
$pseudo_cd_ph,prn:1,pseudo_cd_ph:374213948.385624
$meas,msRange:71.606036,x:-13431488.083073,y:9703311.234811,z:20497713.746375,vx:-226.539917,vy:-2640.370361,vz:1123.348022,tb:-0.0000121477
i = 1
$pseudo_cd_ph,prn:3,pseudo_cd_ph:374213944.258274
$meas,msRange:75.933495,x:-23307270.242702,y:12080343.967022,z:3686732.403954,vx:244.429916,vy:-493.605408,vz:3138.684082,tb:0.0001881324
i = 2
$pseudo_cd_ph,prn:6,pseudo_cd_ph:374213941.108905
$meas,msRange:79.104897,x:7035027.443038,y:24168704.535737,z:-8371300.733598,vx:-162.054626,vy:1079.331299,vz:2967.442139,tb:0.0002102832
i = 3
$pseudo_cd_ph,prn:7,pseudo_cd_ph:374213941.999137
$meas,msRange:77.984013,x:-7676692.034924,y:21982464.862874,z:-12069317.359965,vx:-349.598755,vy:-1579.236694,vz:-2646.170410,tb:-0.0000206421
i = 4
$pseudo_cd_ph,prn:11,pseudo_cd_ph:374213945.520565
$meas,msRange:73.872791,x:-15324238.960219,y:5217432.388662,z:20510831.146934,vx:-1257.860718,vy:-2447.077881,vz:-334.077026,tb:-0.0006104408
i = 5
$pseudo_cd_ph,prn:17,pseudo_cd_ph:374213946.822022
$meas,msRange:73.233473,x:8464216.226450,y:18417275.490024,z:17617757.537489,vx:-1915.531250,vy:-979.512268,vz:1981.943604,tb:0.0000518229
i = 6
$pseudo_cd_ph,prn:18,pseudo_cd_ph:374213941.870159
$meas,msRange:78.185179,x:-15220831.975909,y:-560697.471117,z:21279284.798254,vx:-267.819153,vy:-2807.172852,vz:-246.362656,tb:0.0000515367
i = 7
$pseudo_cd_ph,prn:22,pseudo_cd_ph:374213922.442762
$meas,msRange:76.863123,x:-23144218.581134,y:7125497.630011,z:11060366.424365,vx:899.041260,vy:-1097.832397,vz:2652.431885,tb:-0.0006978075
i = 8
$pseudo_cd_ph,prn:28,pseudo_cd_ph:374213950.355127
$meas,msRange:70.416377,x:-4138732.860386,y:17463899.226186,z:20218013.553799,vx:-2179.375488,vy:1069.020264,vz:-1403.285156,tb:0.0007678324
i = 9
$pseudo_cd_ph,prn:30,pseudo_cd_ph:374213947.823257
$meas,msRange:72.079266,x:-843255.184067,y:26396395.034140,z:-1531238.780009,vx:-361.308441,vy:-194.798050,vz:-3136.255127,tb:-0.0001012550
i = 10
i = 11
i = 12
i = 13
i = 14
i = 15
i = 16
i = 17
i = 18
i = 19
i = 20
i = 21
i = 22
i = 23
i = 24
i = 25
Refix G01: 2, 374213.928386, 1446
Refix G03: 2, 374213.924258, -2751
Refix G06: 2, 374213.921109, -4518
Refix G07: 2, 374213.921999, 2465
Refix G11: 2, 374213.925521, 1636
Refix G17: 2, 374213.926822, -1956
Refix G18: 2, 374213.921870, 2368
Refix G22: 2, 374213.922443, -1233
Refix G28: 2, 374213.930355, -2485
Refix G30: 2, 374213.927823, 1358
$GNGGA,075636.000,2944.9076,N,10633.0899,E,1,11,1.1,311.1,M,,,,0000*1E
$GNRMC,075636.000,A,2944.9076,N,10633.0899,E,0.35,0.00,090519,,*12
$GPGSA,A,3,22,,,,,,,,,,,,1.2,1.1,0.4*35
$BDGSA,A,3,01,02,03,04,07,08,10,13,27,30,,,1.2,1.1,0.4*2A
$GLGSA,A,3,,,,,,,,,,,,,1.2,1.1,0.4*29
$GPGSV,3,1,10,01,45,041,44,03,29,107,41,06,19,217,43,07,19,177,42*71
$GPGSV,3,2,10,11,32,045,42,17,45,300,45,18,18,041,40,22,27,081,43*70
$GPGSV,3,3,10,28,65,353,44,30,44,205,45*71
$BDGSV,3,1,11,01,40,125,41,02,47,219,40,03,55,171,42,04,23,109,39*66
$BDGSV,3,2,11,05,00,000,37,07,62,127,43,08,84,320,43,10,86,014,44*60
$BDGSV,3,3,11,13,61,230,43,27,48,030,44,30,53,291,44*5E
$B3CN0,36,0,0,0,0,0,0,0,0,0,0,0,0,0*79
$ini_pos,lastpos_good = 1,ini_pos.x:-1578906.811775,ini_pos.y:5312760.212661,ini_pos.z:3146349.859972
$rtc_local_time,localRTC.weeks:2052,localRTC.seconds:374214.391709,localGtime.weeks:2052,localGtime.seconds:374215.000000
i = 0
$pseudo_cd_ph,prn:1,pseudo_cd_ph:374214948.384674
$meas,msRange:71.607676,x:-13431714.705071,y:9700670.801180,z:20498836.871288,vx:-226.704102,vy:-2640.497070,vz:1122.901855,tb:-0.0000121477
i = 1
$pseudo_cd_ph,prn:3,pseudo_cd_ph:374214944.259990
$meas,msRange:75.932473,x:-23307025.661403,y:12079850.246662,z:3689871.048362,vx:244.732697,vy:-493.835327,vz:3138.604980,tb:0.0001881324
i = 2
$pseudo_cd_ph,prn:6,pseudo_cd_ph:374214941.111740
$meas,msRange:79.102754,x:7034865.410702,y:24169783.684988,z:-8368333.202205,vx:-162.010056,vy:1078.967285,vz:2967.620850,tb:0.0002102831
i = 3
$pseudo_cd_ph,prn:7,pseudo_cd_ph:374214941.997540
$meas,msRange:77.986304,x:-7677041.684425,y:21980885.467312,z:-12071963.396806,vx:-349.700287,vy:-1579.554565,vz:-2645.903564,tb:-0.0000206421
i = 4
$pseudo_cd_ph,prn:11,pseudo_cd_ph:374214945.519493
$meas,msRange:73.874553,x:-15325496.868922,y:5214985.358212,z:20510496.840789,vx:-1257.956787,vy:-2446.983154,vz:-334.535278,tb:-0.0006104408
i = 5
$pseudo_cd_ph,prn:17,pseudo_cd_ph:374214946.823232
$meas,msRange:73.232954,x:8462300.559309,y:18416295.976969,z:17619739.299706,vx:-1915.803223,vy:-979.513916,vz:1981.580933,tb:0.0000518229
i = 6
$pseudo_cd_ph,prn:18,pseudo_cd_ph:374214941.868624
$meas,msRange:78.187408,x:-15221099.870973,y:-563504.619700,z:21279038.198948,vx:-267.971008,vy:-2807.124268,vz:-246.835968,tb:0.0000515367
i = 7
$pseudo_cd_ph,prn:22,pseudo_cd_ph:374214922.443511
$meas,msRange:76.863064,x:-23143319.437033,y:7124399.675777,z:11063018.739419,vx:899.247009,vy:-1098.076172,vz:2652.198242,tb:-0.0006978075
i = 8
$pseudo_cd_ph,prn:28,pseudo_cd_ph:374214950.356674
$meas,msRange:70.415521,x:-4140912.127169,y:17464968.275681,z:20216610.064705,vx:-2179.158203,vy:1069.078735,vz:-1403.693115,tb:0.0007678325
i = 9
$pseudo_cd_ph,prn:30,pseudo_cd_ph:374214947.822363
$meas,msRange:72.080852,x:-843616.499864,y:26396200.048440,z:-1534375.018477,vx:-361.323181,vy:-195.173370,vz:-3136.222168,tb:-0.0001012550
i = 10
i = 11
i = 12
i = 13
i = 14
i = 15
i = 16
i = 17
i = 18
i = 19
i = 20
i = 21
i = 22
i = 23
i = 24
i = 25
i = 26
Refix G01: 2, 374214.928385, 1452
Refix G03: 2, 374214.924260, -2743
Refix G06: 2, 374214.921112, -4512
Refix G07: 2, 374214.921998, 2473
Refix G11: 2, 374214.925520, 1642
Refix G17: 2, 374214.926823, -1951
Refix G18: 2, 374214.921869, 2374
Refix G22: 2, 374214.922444, -1226
Refix G28: 2, 374214.930357, -2479
Refix G30: 2, 374214.927822, 1365
$GNGGA,075637.000,2944.9076,N,10633.0899,E,1,11,1.1,312.8,M,,,,0000*15
$GNRMC,075637.000,A,2944.9076,N,10633.0899,E,0.46,0.00,090519,,*17
$GPGSA,A,3,22,,,,,,,,,,,,1.2,1.1,0.4*35
$BDGSA,A,3,01,02,03,04,07,08,10,13,27,30,,,1.2,1.1,0.4*2A
$GLGSA,A,3,,,,,,,,,,,,,1.2,1.1,0.4*29
$GPGSV,3,1,10,01,45,041,43,03,29,107,41,06,19,217,43,07,19,177,42*76
$GPGSV,3,2,10,11,32,045,42,17,45,300,45,18,18,041,40,22,27,081,43*70
$GPGSV,3,3,10,28,65,353,44,30,44,205,45*71
$BDGSV,3,1,11,01,40,125,42,02,47,219,40,03,55,171,45,04,23,109,40*6C
$BDGSV,3,2,11,05,00,000,36,07,62,127,43,08,84,320,43,10,86,014,44*61
$BDGSV,3,3,11,13,61,230,44,27,48,030,44,30,53,291,45*58
$B3CN0,0,0,0,0,0,0,0,0,0,0,0,0,0,0*4C
$ini_pos,lastpos_good = 1,ini_pos.x:-1578907.250560,ini_pos.y:5312761.555669,ini_pos.z:3146350.825470
$rtc_local_time,localRTC.weeks:2052,localRTC.seconds:374215.391709,localGtime.weeks:2052,localGtime.seconds:374216.000000
i = 0
$pseudo_cd_ph,prn:1,pseudo_cd_ph:374215948.383722
$meas,msRange:71.609317,x:-13431941.491258,y:9698030.241072,z:20499959.549975,vx:-226.868301,vy:-2640.623291,vz:1122.455566,tb:-0.0000121477
i = 1
$pseudo_cd_ph,prn:3,pseudo_cd_ph:374215944.261705
$meas,msRange:75.931452,x:-23306780.777340,y:12079356.296366,z:3693009.613803,vx:245.035446,vy:-494.065308,vz:3138.526123,tb:0.0001881324
i = 2
$pseudo_cd_ph,prn:6,pseudo_cd_ph:374215941.114573
$meas,msRange:79.100612,x:7034703.422911,y:24170862.470269,z:-8365365.492077,vx:-161.965546,vy:1078.603271,vz:2967.799561,tb:0.0002102831
i = 3
$pseudo_cd_ph,prn:7,pseudo_cd_ph:374215941.995942
$meas,msRange:77.988595,x:-7677391.435484,y:21979305.753945,z:-12074609.166849,vx:-349.801849,vy:-1579.872314,vz:-2645.636719,tb:-0.0000206421
i = 4
$pseudo_cd_ph,prn:11,pseudo_cd_ph:374215945.518425
$meas,msRange:73.876315,x:-15326754.873639,y:5212538.422463,z:20510162.076374,vx:-1258.052734,vy:-2446.888428,vz:-334.993561,tb:-0.0006104408
i = 5
$pseudo_cd_ph,prn:17,pseudo_cd_ph:374215946.824439
$meas,msRange:73.232434,x:8460384.620180,y:18415316.462298,z:17621720.699294,vx:-1916.075195,vy:-979.515503,vz:1981.218384,tb:0.0000518229
i = 6
$pseudo_cd_ph,prn:18,pseudo_cd_ph:374215941.867092
$meas,msRange:78.189636,x:-15221367.917882,y:-566311.719663,z:21278791.126343,vx:-268.122833,vy:-2807.075684,vz:-247.309265,tb:0.0000515367
i = 7
$pseudo_cd_ph,prn:22,pseudo_cd_ph:374215922.444258
$meas,msRange:76.863006,x:-23142420.087240,y:7123301.477780,z:11065670.820726,vx:899.452637,vy:-1098.319946,vz:2651.964600,tb:-0.0006978075
i = 8
$pseudo_cd_ph,prn:28,pseudo_cd_ph:374215950.358217
$meas,msRange:70.414664,x:-4143091.176537,y:17466037.383604,z:20215206.167780,vx:-2178.940674,vy:1069.137207,vz:-1404.100830,tb:0.0007678325
i = 9
$pseudo_cd_ph,prn:30,pseudo_cd_ph:374215947.821467
$meas,msRange:72.082438,x:-843977.830450,y:26396004.687427,z:-1537511.223896,vx:-361.338013,vy:-195.548676,vz:-3136.188965,tb:-0.0001012550
i = 10
i = 11
i = 12
i = 13
i = 14
i = 15
i = 16
i = 17
i = 18
i = 19
i = 20
i = 21
i = 22
i = 23
i = 24
i = 25
i = 26
Refix G01: 2, 374215.928384, 1454
Refix G03: 2, 374215.924262, -2741
Refix G06: 2, 374215.921115, -4510
Refix G07: 2, 374215.921996, 2474
Refix G11: 2, 374215.925518, 1644
Refix G17: 2, 374215.926824, -1949
Refix G18: 2, 374215.921867, 2376
Refix G22: 2, 374215.922444, -1224
Refix G28: 2, 374215.930358, -2477
Refix G30: 2, 374215.927821, 1367
$GNGGA,075638.000,2944.9078,N,10633.0899,E,1,11,1.1,313.9,M,,,,0000*14
$GNRMC,075638.000,A,2944.9078,N,10633.0899,E,0.37,0.00,090519,,*10
$GPGSA,A,3,22,,,,,,,,,,,,1.2,1.1,0.4*35
$BDGSA,A,3,01,02,03,04,07,08,10,13,27,30,,,1.2,1.1,0.4*2A
$GLGSA,A,3,,,,,,,,,,,,,1.2,1.1,0.4*29
$GPGSV,3,1,10,01,45,041,43,03,29,107,41,06,19,217,42,07,19,177,41*74
$GPGSV,3,2,10,11,32,045,42,17,45,300,45,18,18,041,40,22,27,081,43*70
$GPGSV,3,3,10,28,65,353,44,30,44,205,44*70
$BDGSV,3,1,12,01,40,125,43,02,47,219,40,03,55,171,43,04,23,109,40*68
$BDGSV,3,2,12,05,00,000,35,07,62,127,43,08,84,320,43,10,86,014,44*61
$BDGSV,3,3,12,13,61,230,43,27,48,030,44,30,53,291,45,32,00,000,37*69
$B3CN0,0,0,0,0,0,0,0,0,0,0,0,0,0,0*4C
$ini_pos,lastpos_good = 1,ini_pos.x:-1578907.507330,ini_pos.y:5312762.409967,ini_pos.z:3146351.623424
$rtc_local_time,localRTC.weeks:2052,localRTC.seconds:374216.391709,localGtime.weeks:2052,localGtime.seconds:374217.000000
i = 0
$pseudo_cd_ph,prn:1,pseudo_cd_ph:374216948.382768
$meas,msRange:71.610959,x:-13432168.441649,y:9695389.554556,z:20501081.782413,vx:-227.032501,vy:-2640.749756,vz:1122.009399,tb:-0.0000121477
i = 1
$pseudo_cd_ph,prn:3,pseudo_cd_ph:374216944.263415
$meas,msRange:75.930431,x:-23306535.590552,y:12078862.116097,z:3696148.100208,vx:245.338150,vy:-494.295288,vz:3138.447021,tb:0.0001881324
i = 2
$pseudo_cd_ph,prn:6,pseudo_cd_ph:374216941.117406
$meas,msRange:79.098471,x:7034541.479612,y:24171940.891557,z:-8362397.603278,vx:-161.921066,vy:1078.239258,vz:2967.978271,tb:0.0002102831
i = 3
$pseudo_cd_ph,prn:7,pseudo_cd_ph:374216941.994340
$meas,msRange:77.990887,x:-7677741.288141,y:21977725.722813,z:-12077254.670036,vx:-349.903473,vy:-1580.190063,vz:-2645.369873,tb:-0.0000206421
i = 4
$pseudo_cd_ph,prn:11,pseudo_cd_ph:374216945.517355
$meas,msRange:73.878079,x:-15328012.974335,y:5210091.581472,z:20509826.853697,vx:-1258.148682,vy:-2446.793701,vz:-335.451813,tb:-0.0006104408
i = 5
$pseudo_cd_ph,prn:17,pseudo_cd_ph:374216946.825649
$meas,msRange:73.231916,x:8458468.409092,y:18414336.946065,z:17623701.736213,vx:-1916.347168,vy:-979.517029,vz:1980.855591,tb:0.0000518229
i = 6
$pseudo_cd_ph,prn:18,pseudo_cd_ph:374216941.865554
$meas,msRange:78.191865,x:-15221636.116628,y:-569118.770936,z:21278543.580445,vx:-268.274658,vy:-2807.027100,vz:-247.782547,tb:0.0000515367
i = 7
$pseudo_cd_ph,prn:22,pseudo_cd_ph:374216922.445005
$meas,msRange:76.862949,x:-23141520.531809,y:7122203.036009,z:11068322.668229,vx:899.658264,vy:-1098.563721,vz:2651.730713,tb:-0.0006978075
i = 8
$pseudo_cd_ph,prn:28,pseudo_cd_ph:374216950.359761
$meas,msRange:70.413809,x:-4145270.008448,y:17467106.549908,z:20213801.863051,vx:-2178.723145,vy:1069.195557,vz:-1404.508667,tb:0.0007678325
i = 9
$pseudo_cd_ph,prn:30,pseudo_cd_ph:374216947.820571
$meas,msRange:72.084026,x:-844339.175873,y:26395808.951106,z:-1540647.396198,vx:-361.352875,vy:-195.923981,vz:-3136.155762,tb:-0.0001012550
i = 10
i = 11
i = 12
i = 13
i = 14
i = 15
i = 16
i = 17
i = 18
i = 19
i = 20
i = 21
i = 22
i = 23
i = 24
i = 25
i = 26
Refix G01: 2, 374216.928383, 1454
Refix G03: 2, 374216.924263, -2742
Refix G06: 2, 374216.921117, -4511
Refix G07: 2, 374216.921994, 2473
Refix G11: 2, 374216.925517, 1644
Refix G17: 2, 374216.926826, -1949
Refix G18: 2, 374216.921866, 2376
Refix G22: 2, 374216.922445, -1224
Refix G28: 2, 374216.930360, -2478
Refix G30: 2, 374216.927821, 1366
$GNGGA,075639.000,2944.9078,N,10633.0899,E,1,11,1.1,315.4,M,,,,0000*1E
$GNRMC,075639.000,A,2944.9078,N,10633.0899,E,0.30,0.00,090519,,*16
$GPGSA,A,3,22,,,,,,,,,,,,1.2,1.1,0.4*35
$BDGSA,A,3,01,02,03,04,07,08,10,13,27,30,,,1.2,1.1,0.4*2A
$GLGSA,A,3,,,,,,,,,,,,,1.2,1.1,0.4*29
$GPGSV,3,1,10,01,45,041,43,03,29,107,41,06,19,217,42,07,19,177,42*77
$GPGSV,3,2,10,11,32,045,41,17,45,300,45,18,18,041,40,22,27,081,42*72
$GPGSV,3,3,10,28,65,353,45,30,44,205,44*71
$BDGSV,3,1,12,01,40,125,41,02,47,219,41,03,55,171,45,04,23,109,39*63
$BDGSV,3,2,12,05,00,000,37,07,62,127,43,08,84,320,43,10,86,014,44*63
$BDGSV,3,3,12,13,61,230,43,27,48,030,45,30,53,291,45,32,00,000,37*68
$B3CN0,22,0,0,0,0,0,0,0,0,0,0,0,0,0*7C
$ini_pos,lastpos_good = 1,ini_pos.x:-1578907.838352,ini_pos.y:5312763.618580,ini_pos.z:3146352.422384
$rtc_local_time,localRTC.weeks:2052,localRTC.seconds:374217.391709,localGtime.weeks:2052,localGtime.seconds:374218.000000
i = 0
$pseudo_cd_ph,prn:1,pseudo_cd_ph:374217948.381813
$meas,msRange:71.612601,x:-13432395.556259,y:9692748.741699,z:20502203.568577,vx:-227.196732,vy:-2640.875977,vz:1121.563110,tb:-0.0000121477
i = 1
$pseudo_cd_ph,prn:3,pseudo_cd_ph:374217944.265123
$meas,msRange:75.929411,x:-23306290.101076,y:12078367.705819,z:3699286.507511,vx:245.640823,vy:-494.525299,vz:3138.367920,tb:0.0001881324
i = 2
$pseudo_cd_ph,prn:6,pseudo_cd_ph:374217941.120239
$meas,msRange:79.096329,x:7034379.580756,y:24173018.948828,z:-8359429.535872,vx:-161.876648,vy:1077.875244,vz:2968.156738,tb:0.0002102831
i = 3
$pseudo_cd_ph,prn:7,pseudo_cd_ph:374217941.992739
$meas,msRange:77.993179,x:-7678091.242437,y:21976145.373958,z:-12079899.906307,vx:-350.005127,vy:-1580.507812,vz:-2645.102783,tb:-0.0000206421
i = 4
$pseudo_cd_ph,prn:11,pseudo_cd_ph:374217945.516277
$meas,msRange:73.879842,x:-15329271.170972,y:5207644.835293,z:20509491.172764,vx:-1258.244629,vy:-2446.698730,vz:-335.910065,tb:-0.0006104408
i = 5
$pseudo_cd_ph,prn:17,pseudo_cd_ph:374217946.826856
$meas,msRange:73.231397,x:8456551.926076,y:18413357.428326,z:17625682.410423,vx:-1916.619019,vy:-979.518494,vz:1980.492920,tb:0.0000518229
i = 6
$pseudo_cd_ph,prn:18,pseudo_cd_ph:374217941.864017
$meas,msRange:78.194095,x:-15221904.467198,y:-571925.773451,z:21278295.561260,vx:-268.426483,vy:-2806.978271,vz:-248.255829,tb:0.0000515367
i = 7
$pseudo_cd_ph,prn:22,pseudo_cd_ph:374217922.445754
$meas,msRange:76.862892,x:-23140620.770789,y:7121104.350452,z:11070974.281873,vx:899.863831,vy:-1098.807495,vz:2651.496826,tb:-0.0006978075
i = 8
$pseudo_cd_ph,prn:28,pseudo_cd_ph:374217950.361303
$meas,msRange:70.412954,x:-4147448.622861,y:17468175.774544,z:20212397.150545,vx:-2178.505615,vy:1069.253784,vz:-1404.916382,tb:0.0007678325
i = 9
$pseudo_cd_ph,prn:30,pseudo_cd_ph:374217947.819675
$meas,msRange:72.085613,x:-844700.536182,y:26395612.839482,z:-1543783.535317,vx:-361.367767,vy:-196.299286,vz:-3136.122559,tb:-0.0001012551
i = 10
i = 11
i = 12
i = 13
i = 14
i = 15
i = 16
i = 17
i = 18
i = 19
i = 20
i = 21
i = 22
i = 23
i = 24
i = 25
i = 26
Refix G01: 2, 374217.928382, 1451
Refix G03: 2, 374217.924265, -2746
Refix G06: 2, 374217.921120, -4514
Refix G07: 2, 374217.921993, 2469
Refix G11: 2, 374217.925516, 1640
Refix G17: 2, 374217.926827, -1952
Refix G18: 2, 374217.921864, 2373
Refix G22: 2, 374217.922446, -1228
Refix G28: 2, 374217.930361, -2481
Refix G30: 2, 374217.927820, 1363
$GNGGA,075640.000,2944.9078,N,10633.0900,E,1,11,1.1,316.7,M,,,,0000*11
$GNRMC,075640.000,A,2944.9078,N,10633.0900,E,0.58,0.00,090519,,*17
$GPGSA,A,3,22,,,,,,,,,,,,1.2,1.1,0.4*35
$BDGSA,A,3,01,02,03,04,07,08,10,13,27,30,,,1.2,1.1,0.4*2A
$GLGSA,A,3,,,,,,,,,,,,,1.2,1.1,0.4*29
$GPGSV,3,1,10,01,45,041,44,03,29,107,41,06,19,217,42,07,19,177,42*70
$GPGSV,3,2,10,11,32,045,41,17,45,300,45,18,18,041,40,22,27,081,43*73
$GPGSV,3,3,10,28,65,353,44,30,44,205,45*71
$BDGSV,3,1,12,01,40,125,42,02,47,219,40,03,55,171,43,04,23,109,40*69
$BDGSV,3,2,12,05,00,000,36,07,62,127,43,08,84,320,43,10,86,014,44*62
$BDGSV,3,3,12,13,61,230,43,27,48,030,44,30,53,291,45,32,00,000,37*69
$B3CN0,19,0,0,0,0,0,0,0,0,0,0,0,0,0*74
$ini_pos,lastpos_good = 1,ini_pos.x:-1578908.251134,ini_pos.y:5312764.619449,ini_pos.z:3146353.025161
$rtc_local_time,localRTC.weeks:2052,localRTC.seconds:374218.391709,localGtime.weeks:2052,localGtime.seconds:374219.000000
i = 0
$pseudo_cd_ph,prn:1,pseudo_cd_ph:374218948.380862
$meas,msRange:71.614244,x:-13432622.835105,y:9690107.802570,z:20503324.908445,vx:-227.360977,vy:-2641.002441,vz:1121.116699,tb:-0.0000121477
i = 1
$pseudo_cd_ph,prn:3,pseudo_cd_ph:374218944.266836
$meas,msRange:75.928391,x:-23306044.308948,y:12077873.065497,z:3702424.835645,vx:245.943451,vy:-494.755371,vz:3138.288574,tb:0.0001881324
i = 2
$pseudo_cd_ph,prn:6,pseudo_cd_ph:374218941.123074
$meas,msRange:79.094187,x:7034217.726293,y:24174096.642058,z:-8356461.289922,vx:-161.832291,vy:1077.511230,vz:2968.335205,tb:0.0002102831
i = 3
$pseudo_cd_ph,prn:7,pseudo_cd_ph:374218941.991140
$meas,msRange:77.995471,x:-7678441.298411,y:21974564.707422,z:-12082544.875603,vx:-350.106842,vy:-1580.825439,vz:-2644.835938,tb:-0.0000206422
i = 4
$pseudo_cd_ph,prn:11,pseudo_cd_ph:374218945.515208
$meas,msRange:73.881605,x:-15330529.463516,y:5205198.183983,z:20509155.033582,vx:-1258.340576,vy:-2446.604004,vz:-336.368317,tb:-0.0006104408
i = 5
$pseudo_cd_ph,prn:17,pseudo_cd_ph:374218946.828067
$meas,msRange:73.230879,x:8454635.171160,y:18412377.909138,z:17627662.721886,vx:-1916.890869,vy:-979.519897,vz:1980.130127,tb:0.0000518229
i = 6
$pseudo_cd_ph,prn:18,pseudo_cd_ph:374218941.862484
$meas,msRange:78.196324,x:-15222172.969581,y:-574732.727136,z:21278047.068796,vx:-268.578308,vy:-2806.929443,vz:-248.729111,tb:0.0000515367
i = 7
$pseudo_cd_ph,prn:22,pseudo_cd_ph:374218922.446506
$meas,msRange:76.862835,x:-23139720.804233,y:7120005.421095,z:11073625.661603,vx:900.069336,vy:-1099.051270,vz:2651.262939,tb:-0.0006978076
i = 8
$pseudo_cd_ph,prn:28,pseudo_cd_ph:374218950.362849
$meas,msRange:70.412100,x:-4149627.019736,y:17469245.057463,z:20210992.030290,vx:-2178.288086,vy:1069.312134,vz:-1405.324219,tb:0.0007678325
i = 9
$pseudo_cd_ph,prn:30,pseudo_cd_ph:374218947.818781
$meas,msRange:72.087201,x:-845061.911426,y:26395416.352560,z:-1546919.641185,vx:-361.382751,vy:-196.674576,vz:-3136.089355,tb:-0.0001012551
i = 10
i = 11
i = 12
i = 13
i = 14
i = 15
i = 16
i = 17
i = 18
i = 19
i = 20
i = 21
i = 22
i = 23
i = 24
i = 25
i = 26
Refix G01: 2, 374218.928381, 1455
Refix G03: 2, 374218.924267, -2742
Refix G06: 2, 374218.921123, -4511
Refix G07: 2, 374218.921991, 2472
Refix G11: 2, 374218.925515, 1644
Refix G17: 2, 374218.926828, -1949
Refix G18: 2, 374218.921863, 2377
Refix G22: 2, 374218.922447, -1224
Refix G28: 2, 374218.930363, -2477
Refix G30: 2, 374218.927819, 1366
$GNGGA,075641.000,2944.9077,N,10633.0901,E,1,11,1.1,317.9,M,,,,0000*11
$GNRMC,075641.000,A,2944.9077,N,10633.0901,E,0.60,0.00,090519,,*13
$GPGSA,A,3,22,,,,,,,,,,,,1.2,1.1,0.4*35
$BDGSA,A,3,01,02,03,04,07,08,10,13,27,30,,,1.2,1.1,0.4*2A
$GLGSA,A,3,,,,,,,,,,,,,1.2,1.1,0.4*29
$GPGSV,3,1,10,01,45,041,44,03,29,107,41,06,19,217,43,07,19,177,41*72
$GPGSV,3,2,10,11,32,045,42,17,45,300,44,18,18,041,40,22,27,081,43*71
$GPGSV,3,3,10,28,65,353,43,30,44,205,45*76
$BDGSV,3,1,12,01,40,125,41,02,47,219,41,03,55,171,42,04,23,109,39*64
$BDGSV,3,2,12,05,00,000,35,07,62,127,42,08,84,320,43,10,86,014,44*60
$BDGSV,3,3,12,13,61,230,43,27,48,030,44,30,53,291,44,32,00,000,37*68
$B3CN0,0,0,0,0,0,0,0,0,0,0,0,0,0,0*4C
$ini_pos,lastpos_good = 1,ini_pos.x:-1578908.797130,ini_pos.y:5312765.600939,ini_pos.z:3146353.516676
$rtc_local_time,localRTC.weeks:2052,localRTC.seconds:374219.391709,localGtime.weeks:2052,localGtime.seconds:374220.000000
i = 0
$pseudo_cd_ph,prn:1,pseudo_cd_ph:374219948.379909
$meas,msRange:71.615887,x:-13432850.278200,y:9687466.737235,z:20504445.801993,vx:-227.525238,vy:-2641.128418,vz:1120.670410,tb:-0.0000121478
i = 1
$pseudo_cd_ph,prn:3,pseudo_cd_ph:374219944.268544
$meas,msRange:75.927370,x:-23305798.214207,y:12077378.195093,z:3705563.084541,vx:246.246048,vy:-494.985474,vz:3138.209473,tb:0.0001881324
i = 2
$pseudo_cd_ph,prn:6,pseudo_cd_ph:374219941.125904
$meas,msRange:79.092046,x:7034055.916172,y:24175173.971225,z:-8353492.865491,vx:-161.787964,vy:1077.147217,vz:2968.513672,tb:0.0002102831
i = 3
$pseudo_cd_ph,prn:7,pseudo_cd_ph:374219941.989539
$meas,msRange:77.997762,x:-7678791.456105,y:21972983.723244,z:-12085189.577868,vx:-350.208588,vy:-1581.143066,vz:-2644.568848,tb:-0.0000206422
i = 4
$pseudo_cd_ph,prn:11,pseudo_cd_ph:374219945.514138
$meas,msRange:73.883369,x:-15331787.851930,y:5202751.627596,z:20508818.436158,vx:-1258.436401,vy:-2446.509033,vz:-336.826538,tb:-0.0006104408
i = 5
$pseudo_cd_ph,prn:17,pseudo_cd_ph:374219946.829274
$meas,msRange:73.230362,x:8452718.144375,y:18411398.388556,z:17629642.670560,vx:-1917.162720,vy:-979.521301,vz:1979.767334,tb:0.0000518229
i = 6
$pseudo_cd_ph,prn:18,pseudo_cd_ph:374219941.860947
$meas,msRange:78.198554,x:-15222441.623767,y:-577539.631923,z:21277798.103059,vx:-268.730103,vy:-2806.880371,vz:-249.202377,tb:0.0000515367
i = 7
$pseudo_cd_ph,prn:22,pseudo_cd_ph:374219922.447255
$meas,msRange:76.862778,x:-23138820.632190,y:7118906.247927,z:11076276.807363,vx:900.274780,vy:-1099.295166,vz:2651.028809,tb:-0.0006978076
i = 8
$pseudo_cd_ph,prn:28,pseudo_cd_ph:374219950.364391
$meas,msRange:70.411246,x:-4151805.199030,y:17470314.398617,z:20209586.502313,vx:-2178.070557,vy:1069.370239,vz:-1405.731934,tb:0.0007678325
i = 9
$pseudo_cd_ph,prn:30,pseudo_cd_ph:374219947.817883
$meas,msRange:72.088790,x:-845423.301654,y:26395219.490347,z:-1550055.713734,vx:-361.397736,vy:-197.049866,vz:-3136.055908,tb:-0.0001012551
i = 10
i = 11
i = 12
i = 13
i = 14
i = 15
i = 16
i = 17
i = 18
i = 19
i = 20
i = 21
i = 22
i = 23
i = 24
i = 25
i = 26
Refix G01: 2, 374219.928380, 1453
Refix G03: 2, 374219.924269, -2743
Refix G06: 2, 374219.921126, -4511
Refix G07: 2, 374219.921990, 2472
Refix G11: 2, 374219.925514, 1642
Refix G17: 2, 374219.926829, -1950
Refix G18: 2, 374219.921861, 2375
Refix G22: 2, 374219.922447, -1225
Refix G28: 2, 374219.930364, -2479
Refix G30: 2, 374219.927818, 1366
$GNGGA,075642.000,2944.9078,N,10633.0902,E,1,11,1.1,318.8,M,,,,0000*10
$GNRMC,075642.000,A,2944.9078,N,10633.0902,E,0.22,0.00,090519,,*1A
$GPGSA,A,3,22,,,,,,,,,,,,1.2,1.1,0.4*35
$BDGSA,A,3,01,02,03,04,07,08,10,13,27,30,,,1.2,1.1,0.4*2A
$GLGSA,A,3,,,,,,,,,,,,,1.2,1.1,0.4*29
$GPGSV,3,1,10,01,45,041,44,03,29,107,42,06,19,217,43,07,19,177,41*71
$GPGSV,3,2,10,11,32,045,42,17,45,300,44,18,18,041,40,22,27,081,43*71
$GPGSV,3,3,10,28,65,353,44,30,44,205,44*70
$BDGSV,3,1,12,01,40,125,42,02,47,219,41,03,55,171,43,04,23,109,39*66
$BDGSV,3,2,12,05,00,000,37,07,62,127,43,08,84,320,43,10,86,014,44*63
$BDGSV,3,3,12,13,61,230,44,27,48,030,44,30,53,291,45,32,00,000,37*6E
$B3CN0,22,0,0,0,0,0,0,0,0,0,0,0,0,0*7C
$ini_pos,lastpos_good = 1,ini_pos.x:-1578909.189949,ini_pos.y:5312766.268560,ini_pos.z:3146354.006310
$rtc_local_time,localRTC.weeks:2052,localRTC.seconds:374220.391709,localGtime.weeks:2052,localGtime.seconds:374221.000000
i = 0
$pseudo_cd_ph,prn:1,pseudo_cd_ph:374220948.378960
$meas,msRange:71.617530,x:-13433077.885561,y:9684825.545763,z:20505566.249197,vx:-227.689499,vy:-2641.254639,vz:1120.224121,tb:-0.0000121478
i = 1
$pseudo_cd_ph,prn:3,pseudo_cd_ph:374220944.270256
$meas,msRange:75.926351,x:-23305551.816889,y:12076883.094571,z:3708701.254134,vx:246.548599,vy:-495.215607,vz:3138.130127,tb:0.0001881324
i = 2
$pseudo_cd_ph,prn:6,pseudo_cd_ph:374220941.128739
$meas,msRange:79.089905,x:7033894.150342,y:24176250.936304,z:-8350524.262644,vx:-161.743698,vy:1076.783081,vz:2968.692139,tb:0.0002102831
i = 3
$pseudo_cd_ph,prn:7,pseudo_cd_ph:374220941.987943
$meas,msRange:78.000054,x:-7679141.715559,y:21971402.421468,z:-12087834.013041,vx:-350.310364,vy:-1581.460571,vz:-2644.301758,tb:-0.0000206422
i = 4
$pseudo_cd_ph,prn:11,pseudo_cd_ph:374220945.513067
$meas,msRange:73.885133,x:-15333046.336180,y:5200305.166187,z:20508481.380499,vx:-1258.532227,vy:-2446.414062,vz:-337.284790,tb:-0.0006104408
i = 5
$pseudo_cd_ph,prn:17,pseudo_cd_ph:374220946.830483
$meas,msRange:73.229845,x:8450800.845749,y:18410418.866635,z:17631622.256407,vx:-1917.434570,vy:-979.522583,vz:1979.404541,tb:0.0000518229
i = 6
$pseudo_cd_ph,prn:18,pseudo_cd_ph:374220941.859411
$meas,msRange:78.200784,x:-15222710.429744,y:-580346.487742,z:21277548.664054,vx:-268.881866,vy:-2806.831299,vz:-249.675644,tb:0.0000515367
i = 7
$pseudo_cd_ph,prn:22,pseudo_cd_ph:374220922.448008
$meas,msRange:76.862722,x:-23137920.254714,y:7117806.830937,z:11078927.719099,vx:900.480225,vy:-1099.538940,vz:2650.794678,tb:-0.0006978076
i = 8
$pseudo_cd_ph,prn:28,pseudo_cd_ph:374220950.365935
$meas,msRange:70.410393,x:-4153983.160704,y:17471383.797957,z:20208180.566640,vx:-2177.853027,vy:1069.428467,vz:-1406.139526,tb:0.0007678325
i = 9
$pseudo_cd_ph,prn:30,pseudo_cd_ph:374220947.816989
$meas,msRange:72.090379,x:-845784.706914,y:26395022.252846,z:-1553191.752896,vx:-361.412811,vy:-197.425156,vz:-3136.022461,tb:-0.0001012551
i = 10
i = 11
i = 12
i = 13
i = 14
i = 15
i = 16
i = 17
i = 18
i = 19
i = 20
i = 21
i = 22
i = 23
i = 24
i = 25
i = 26
Refix G01: 2, 374220.928379, 1451
Refix G03: 2, 374220.924270, -2744
Refix G06: 2, 374220.921129, -4511
Refix G07: 2, 374220.921988, 2471
Refix G11: 2, 374220.925513, 1640
Refix G17: 2, 374220.926830, -1951
Refix G18: 2, 374220.921859, 2374
Refix G22: 2, 374220.922448, -1226
Refix G28: 2, 374220.930366, -2481
Refix G30: 2, 374220.927817, 1366
$GNGGA,075643.000,2944.9081,N,10633.0906,E,1,11,1.1,323.5,M,,,,0000*16
$GNRMC,075643.000,A,2944.9081,N,10633.0906,E,0.60,0.00,090519,,*1F
$GPGSA,A,3,22,,,,,,,,,,,,1.2,1.1,0.4*35
$BDGSA,A,3,01,02,03,04,07,08,10,13,27,30,,,1.2,1.1,0.4*2A
$GLGSA,A,3,,,,,,,,,,,,,1.2,1.1,0.4*29
$GPGSV,3,1,10,01,45,041,44,03,29,107,41,06,19,217,43,07,19,177,42*71
$GPGSV,3,2,10,11,32,045,41,17,45,300,44,18,18,041,40,22,27,081,43*72
$GPGSV,3,3,10,28,65,353,43,30,44,205,44*77
$BDGSV,3,1,12,01,40,125,40,02,47,219,41,03,55,171,43,04,23,109,40*6A
$BDGSV,3,2,12,05,00,000,36,07,62,127,43,08,84,320,43,10,86,014,43*65
$BDGSV,3,3,12,13,61,230,43,27,48,030,44,30,53,291,44,32,00,000,37*68
$B3CN0,0,19,0,0,0,0,0,0,0,0,0,0,0,0*74
$ini_pos,lastpos_good = 1,ini_pos.x:-1578910.825657,ini_pos.y:5312769.770213,ini_pos.z:3146356.830883
$rtc_local_time,localRTC.weeks:2052,localRTC.seconds:374221.391709,localGtime.weeks:2052,localGtime.seconds:374222.000000
i = 0
$pseudo_cd_ph,prn:1,pseudo_cd_ph:374221948.378008
$meas,msRange:71.619164,x:-13433305.657202,y:9682184.228222,z:20506686.250034,vx:-227.853790,vy:-2641.380615,vz:1119.777710,tb:-0.0000121478
i = 1
$pseudo_cd_ph,prn:3,pseudo_cd_ph:374221944.271964
$meas,msRange:75.925325,x:-23305305.117032,y:12076387.763896,z:3711839.344356,vx:246.851120,vy:-495.445770,vz:3138.050537,tb:0.0001881324
i = 2
$pseudo_cd_ph,prn:6,pseudo_cd_ph:374221941.131571
$meas,msRange:79.087762,x:7033732.428753,y:24177327.537273,z:-8347555.481443,vx:-161.699493,vy:1076.418945,vz:2968.870361,tb:0.0002102831
i = 3
$pseudo_cd_ph,prn:7,pseudo_cd_ph:374221941.986342
$meas,msRange:78.002344,x:-7679492.076812,y:21969820.802133,z:-12090478.181065,vx:-350.412170,vy:-1581.778198,vz:-2644.034424,tb:-0.0000206422
i = 4
$pseudo_cd_ph,prn:11,pseudo_cd_ph:374221945.511990
$meas,msRange:73.886889,x:-15334304.916229,y:5197858.799814,z:20508143.866611,vx:-1258.627930,vy:-2446.318848,vz:-337.743011,tb:-0.0006104408
i = 5
$pseudo_cd_ph,prn:17,pseudo_cd_ph:374221946.831690
$meas,msRange:73.229320,x:8448883.275313,y:18409439.343431,z:17633601.479387,vx:-1917.706421,vy:-979.523865,vz:1979.041626,tb:0.0000518229
i = 6
$pseudo_cd_ph,prn:18,pseudo_cd_ph:374221941.857875
$meas,msRange:78.203007,x:-15222979.387502,y:-583153.294523,z:21277298.751789,vx:-269.033661,vy:-2806.782227,vz:-250.148895,tb:0.0000515367
i = 7
$pseudo_cd_ph,prn:22,pseudo_cd_ph:374221922.448754
$meas,msRange:76.862660,x:-23137019.671854,y:7116707.170110,z:11081578.396755,vx:900.685547,vy:-1099.782837,vz:2650.560791,tb:-0.0006978076
i = 8
$pseudo_cd_ph,prn:28,pseudo_cd_ph:374221950.367479
$meas,msRange:70.409527,x:-4156160.904716,y:17472453.255434,z:20206774.223300,vx:-2177.635254,vy:1069.486572,vz:-1406.547241,tb:0.0007678325
i = 9
$pseudo_cd_ph,prn:30,pseudo_cd_ph:374221947.816091
