SD initialized success
Create debug.log Failed! 3
bbram_blkflag = 1
rtcflag = 0
BBRAM Block OK: 01 EPHflag: 282314c5 2c0012db, rtc 00
Hot-start nowtime:day = 9,minute = 4,seconds = 02.00
GPS 0 Init Dop:   -73, 2
GPS 1 Init Dop: 10000,80
GPS 2 Init Dop: -3324, 2
GPS 3 Init Dop: 10000,80
GPS 4 Init Dop: 10000,80
GPS 5 Init Dop: 10000,80
GPS 6 Init Dop:  1871, 2
GPS 7 Init Dop:  1646, 2
GPS 8 Init Dop: 10000,80
GPS 9 Init Dop: 10000,80
GPS10 Init Dop:   938, 2
GPS11 Init Dop: 10000,80
GPS12 Init Dop:  -305, 2
GPS13 Init Dop: 10000,80
GPS14 Init Dop: 10000,80
GPS15 Init Dop: 10000,80
GPS16 Init Dop: -2259, 2
GPS17 Init Dop:  1556, 2
GPS18 Init Dop: 10000,80
GPS19 Init Dop: 10000,80
GPS20 Init Dop: 10000,80
GPS21 Init Dop: -2356, 2
GPS22 Init Dop: 10000,80
GPS23 Init Dop: 10000,80
GPS24 Init Dop: 10000,80
GPS25 Init Dop: 10000,80
GPS26 Init Dop: 10000,80
GPS27 Init Dop: -2677, 2
GPS28 Init Dop: 10000,80
GPS29 Init Dop:  -110, 2
GPS30 Init Dop: 10000,80
GPS31 Init Dop: 10000,80
BDS 0 Init Dop:  -860, 2
BDS 1 Init Dop:  -906, 2
BDS 2 Init Dop: 10000,80
BDS 3 Init Dop:  -875, 2
BDS 4 Init Dop:  -893, 2
BDS 5 Init Dop: 10000,80
BDS 6 Init Dop:  -927, 2
BDS 7 Init Dop: -1173, 2
BDS 8 Init Dop: 10000,80
BDS 9 Init Dop: -1285, 2
BDS10 Init Dop: 10000,80
BDS11 Init Dop: 10000,80
BDS12 Init Dop: -1681, 2
BDS13 Init Dop: 10000,80
BDS14 Init Dop: 10000,80
BDS15 Init Dop: 10000,80
BDS16 Init Dop: 10000,80
BDS17 Init Dop: 10000,80
BDS18 Init Dop: 10000,80
BDS19 Init Dop: 10000,80
BDS20 Init Dop: 10000,80
BDS21 Init Dop: 10000,80
BDS22 Init Dop: 10000,80
BDS23 Init Dop: 10000,80
BDS24 Init Dop: 10000,80
BDS25 Init Dop: 10000,80
BDS26 Init Dop:   231, 2
BDS27 Init Dop:  1750, 2
BDS28 Init Dop: 10000,80
BDS29 Init Dop: -2281, 2
BDS30 Init Dop: 10000,80
BDS31 Init Dop: 10000,80
Good luck!
$ini_pos,lastpos_good = 1,ini_pos.x:-1578912.000000,ini_pos.y:5312768.000000,ini_pos.z:3146353.000000
$rtc_local_time,localRTC.weeks:2052,localRTC.seconds:371061.026007,localGtime.weeks:0,localGtime.seconds:19.026010
$GNGGA,000000.000,,,,,0,00,,,M,,,,0000*2B
$GNRMC,000000.000,A,,,,,,,060180,,*29
$GPGSA,A,1,,,,,,,,,,,,,,,*1E
$BDGSA,A,1,,,,,,,,,,,,,,,*0F
$GLGSA,A,1,,,,,,,,,,,,,,,*02
$B3CN0,0,0,0,0,0,0,0,0,0,0,0,0,0,0*4C
$ini_pos,lastpos_good = 1,ini_pos.x:-1578912.000000,ini_pos.y:5312768.000000,ini_pos.z:3146353.000000
$rtc_local_time,localRTC.weeks:2052,localRTC.seconds:371062.026007,localGtime.weeks:2052,localGtime.seconds:371062.026007
i = 0
$GNGGA,000000.000,,,,,0,00,,,M,,,,0000*2B
$GNRMC,000000.000,A,,,,,,,060180,,*29
$GPGSA,A,1,,,,,,,,,,,,,,,*1E
$BDGSA,A,1,,,,,,,,,,,,,,,*0F
$GLGSA,A,1,,,,,,,,,,,,,,,*02
$B3CN0,0,0,0,0,0,0,0,0,0,0,0,0,0,0*4C
$ini_pos,lastpos_good = 1,ini_pos.x:-1578912.000000,ini_pos.y:5312768.000000,ini_pos.z:3146353.000000
$rtc_local_time,localRTC.weeks:2052,localRTC.seconds:371063.026007,localGtime.weeks:2052,localGtime.seconds:371063.026007
i = 0
$pseudo_cd_ph,prn:1,pseudo_cd_ph:2.244160
$meas,msRange:68.056338,x:-13404899.447806,y:17066135.036713,z:14905524.786789,vx:155.115646,vy:-1938.771484,vz:2362.596680,tb:-0.000012
i = 1
$pseudo_cd_ph,prn:7,pseudo_cd_ph:18.865180
$meas,msRange:71.426155,x:-6843795.964898,y:25218169.017988,z:-2733571.328684,vx:-259.297241,vy:-440.408600,vz:-3170.489258,tb:-0.000021
i = 2
$pseudo_cd_ph,prn:8,pseudo_cd_ph:9.986775
$meas,msRange:80.182437,x:-19674407.487597,y:-213270.654213,z:17973589.038308,vx:-1668.127197,vy:-1537.963501,vz:-1827.480469,tb:-0.000143
i = 3
$pseudo_cd_ph,prn:11,pseudo_cd_ph:0.570277
$meas,msRange:69.131556,x:-11981598.131685,y:13088697.303182,z:19297205.653185,vx:-832.365967,vy:-2446.783691,vz:1087.833984,tb:-0.000610
i = 4
i = 5
i = 6
$GNGGA,000000.000,,,,,0,00,,,M,,,,0000*2B
$GNRMC,000000.000,A,,,,,,,060180,,*29
$GPGSA,A,1,,,,,,,,,,,,,,,*1E
$BDGSA,A,1,,,,,,,,,,,,,,,*0F
$GLGSA,A,1,,,,,,,,,,,,,,,*02
$GPGSV,1,1,01,01,00,000,26*4D
$B3CN0,0,0,0,0,0,0,0,0,0,0,0,0,0,0*4C
$ini_pos,lastpos_good = 1,ini_pos.x:-1578912.000000,ini_pos.y:5312768.000000,ini_pos.z:3146353.000000
$rtc_local_time,localRTC.weeks:2052,localRTC.seconds:371064.026007,localGtime.weeks:2052,localGtime.seconds:371064.026007
i = 0
$pseudo_cd_ph,prn:1,pseudo_cd_ph:2.244316
$meas,msRange:68.056854,x:-13404744.362790,y:17064196.112986,z:14907887.220579,vx:155.054382,vy:-1939.076050,vz:2362.270996,tb:-0.000012
i = 1
$pseudo_cd_ph,prn:7,pseudo_cd_ph:18.864113
$meas,msRange:71.427906,x:-6844055.237237,y:25217728.418183,z:-2736741.787778,vx:-259.247467,vy:-440.791016,vz:-3170.429199,tb:-0.000021
i = 2
$pseudo_cd_ph,prn:8,pseudo_cd_ph:9.985816
$meas,msRange:80.184045,x:-19676075.572018,y:-214808.494396,z:17971761.368595,vx:-1668.041748,vy:-1537.716919,vz:-1827.859009,tb:-0.000143
i = 3
$pseudo_cd_ph,prn:11,pseudo_cd_ph:0.569785
$meas,msRange:69.132715,x:-11982430.575363,y:13086250.470431,z:19298293.273653,vx:-832.521484,vy:-2446.882080,vz:1087.406982,tb:-0.000610
i = 4
$pseudo_cd_ph,prn:17,pseudo_cd_ph:15.001509
$meas,msRange:75.364330,x:13046075.435107,y:21192183.241136,z:9811648.170436,vx:-977.714294,vy:-684.796570,vz:2891.048828,tb:0.000052
i = 5
$pseudo_cd_ph,prn:18,pseudo_cd_ph:18.313897
$meas,msRange:72.050433,x:-15136590.879660,y:8157360.307400,z:19719402.440037,vx:200.035507,vy:-2613.953857,vz:1218.636108,tb:0.000052
i = 6
$pseudo_cd_ph,prn:22,pseudo_cd_ph:11.083181
$meas,msRange:78.533020,x:-24714530.833427,y:9480774.805422,z:1852667.064442,vx:31.592123,vy:-443.861328,vz:3091.494385,tb:-0.000698
i = 7
$pseudo_cd_ph,prn:28,pseudo_cd_ph:17.432172
$meas,msRange:73.649818,x:3554095.911846,y:14604488.706238,z:22506804.536219,vx:-2615.533691,vy:689.891052,vz:-26.423735,tb:0.000768
i = 8
$pseudo_cd_ph,prn:30,pseudo_cd_ph:1.536991
$meas,msRange:68.675079,x:473378.749382,y:25175328.235489,z:8160659.706545,vx:-551.400085,vy:944.434753,vz:-2907.555664,tb:-0.000101
i = 9
i = 10
i = 11
$GNGGA,000000.000,,,,,0,00,,,M,,,,0000*2B
$GNRMC,000000.000,A,,,,,,,060180,,*29
$GPGSA,A,1,,,,,,,,,,,,,,,*1E
$BDGSA,A,1,,,,,,,,,,,,,,,*0F
$GLGSA,A,1,,,,,,,,,,,,,,,*02
$GPGSV,2,1,07,01,00,000,45,07,00,000,45,08,00,000,35,11,00,000,36*70
$GPGSV,2,2,07,17,00,000,28,18,00,000,29,22,00,000,23*41
$B3CN0,0,0,0,0,0,0,0,0,0,0,0,0,0,0*4C
tow update,371065742.244476
$ini_pos,lastpos_good = 1,ini_pos.x:-1578912.000000,ini_pos.y:5312768.000000,ini_pos.z:3146353.000000
$rtc_local_time,localRTC.weeks:2052,localRTC.seconds:371065.026007,localGtime.weeks:2052,localGtime.seconds:371065.742244
i = 0
$pseudo_cd_ph,prn:1,pseudo_cd_ph:371065542.244476
$meas,msRange:68.057743,x:-13404478.342905,y:17060867.748877,z:14911940.959566,vx:154.949127,vy:-1939.598755,vz:2361.711914,tb:-0.000012
i = 1
$pseudo_cd_ph,prn:7,pseudo_cd_ph:371065538.863048
$meas,msRange:71.430913,x:-6844500.094271,y:25216971.352801,z:-2742182.909187,vx:-259.162140,vy:-441.447327,vz:-3170.325684,tb:-0.000021
i = 2
$pseudo_cd_ph,prn:8,pseudo_cd_ph:371065529.984874
$meas,msRange:80.186804,x:-19678938.202299,y:-217447.218905,z:17968623.770481,vx:-1667.895020,vy:-1537.293579,vz:-1828.508667,tb:-0.000143
i = 3
$pseudo_cd_ph,prn:11,pseudo_cd_ph:371065540.569299
$meas,msRange:69.134706,x:-11983859.609159,y:13082050.894131,z:19300158.893789,vx:-832.788391,vy:-2447.051025,vz:1086.674194,tb:-0.000610
i = 4
$pseudo_cd_ph,prn:17,pseudo_cd_ph:371065535.003046
$meas,msRange:75.362835,x:13044396.999911,y:21191007.693540,z:9816609.596548,vx:-978.232910,vy:-685.115723,vz:2890.697998,tb:0.000052
i = 5
$pseudo_cd_ph,prn:18,pseudo_cd_ph:371065538.313016
$meas,msRange:72.053097,x:-15136247.755117,y:8152873.894667,z:19721493.262915,vx:199.821136,vy:-2614.240967,vz:1217.882812,tb:0.000052
i = 6
$pseudo_cd_ph,prn:22,pseudo_cd_ph:371065531.084786
$meas,msRange:78.531420,x:-24714476.126166,y:9480012.803392,z:1857972.745459,vx:32.160408,vy:-444.129913,vz:3091.426514,tb:-0.000698
i = 7
$pseudo_cd_ph,prn:28,pseudo_cd_ph:371065537.433967
$meas,msRange:73.647866,x:3549607.104928,y:14605672.967047,z:22506758.520365,vx:-2615.451172,vy:690.175110,vz:-27.200369,tb:0.000768
i = 8
$pseudo_cd_ph,prn:30,pseudo_cd_ph:371065541.537170
$meas,msRange:68.675927,x:472432.607300,y:25176948.628655,z:8155669.391495,vx:-551.176880,vy:943.873718,vz:-2907.856689,tb:-0.000101
i = 9
i = 10
i = 11
i = 12
i = 13
$GNGGA,070407.610,2944.9133,N,10633.0859,E,1,09,1.1,310.0,M,,,,0000*19
$GNRMC,070407.610,A,2944.9133,N,10633.0859,E,0.71,0.00,090519,,*1C
$GPGSA,A,3,01,07,08,11,17,18,22,28,30,,,,2.1,1.1,1.8*30
$BDGSA,A,3,,,,,,,,,,,,,2.1,1.1,1.8*29
$GLGSA,A,3,,,,,,,,,,,,,2.1,1.1,1.8*24
$GPGSV,3,1,09,01,00,000,45,07,00,000,45,08,00,000,35,11,00,000,44*7A
$GPGSV,3,2,09,17,00,000,37,18,00,000,41,22,00,000,41,28,00,000,36*75
$GPGSV,3,3,09,30,00,000,34*44
$BDGSV,2,1,06,01,00,000,41,02,00,000,20,03,00,000,18,04,00,000,39*6D
$BDGSV,2,2,06,08,00,000,24,10,00,000,18*68
$B3CN0,0,0,0,0,0,0,0,0,0,0,0,0,0,0*4C
$ini_pos,lastpos_good = 1,ini_pos.x:-1578898.926330,ini_pos.y:5312756.074363,ini_pos.z:3146358.488529
$rtc_local_time,localRTC.weeks:2052,localRTC.seconds:371066.415692,localGtime.weeks:2052,localGtime.seconds:371067.000000
i = 0
$pseudo_cd_ph,prn:1,pseudo_cd_ph:371066931.930388
$meas,msRange:68.058432,x:-13404283.503354,y:17058427.967123,z:14914911.157955,vx:154.871902,vy:-1939.981812,vz:2361.302246,tb:-0.000012
i = 1
$pseudo_cd_ph,prn:7,pseudo_cd_ph:371066928.547252
$meas,msRange:71.433169,x:-6844826.017583,y:25216415.817539,z:-2746170.355883,vx:-259.099701,vy:-441.928314,vz:-3170.249756,tb:-0.000021
i = 2
$pseudo_cd_ph,prn:8,pseudo_cd_ph:371066919.669256
$meas,msRange:80.188839,x:-19681035.938565,y:-219380.563112,z:17966323.654465,vx:-1667.787354,vy:-1536.983276,vz:-1828.984619,tb:-0.000143
i = 3
$pseudo_cd_ph,prn:11,pseudo_cd_ph:371066930.254318
$meas,msRange:69.136187,x:-11984907.176272,y:13078973.024722,z:19301525.326411,vx:-832.984009,vy:-2447.174561,vz:1086.137085,tb:-0.000610
i = 4
$pseudo_cd_ph,prn:17,pseudo_cd_ph:371066924.690879
$meas,msRange:75.361733,x:13043166.383128,y:21190145.838469,z:9820245.225952,vx:-978.612976,vy:-685.349548,vz:2890.440918,tb:0.000052
i = 5
$pseudo_cd_ph,prn:18,pseudo_cd_ph:371066927.997481
$meas,msRange:72.055068,x:-15135996.527819,y:8149585.686631,z:19723024.714433,vx:199.663986,vy:-2614.451172,vz:1217.330688,tb:0.000052
i = 6
$pseudo_cd_ph,prn:22,pseudo_cd_ph:371066920.772707
$meas,msRange:78.530299,x:-24714435.414353,y:9479454.072741,z:1861860.972442,vx:32.576832,vy:-444.326843,vz:3091.376465,tb:-0.000698
i = 7
$pseudo_cd_ph,prn:28,pseudo_cd_ph:371066927.122163
$meas,msRange:73.646426,x:3546317.545126,y:14606541.169439,z:22506723.951022,vx:-2615.390625,vy:690.383240,vz:-27.769529,tb:0.000768
i = 8
$pseudo_cd_ph,prn:30,pseudo_cd_ph:371066931.223112
$meas,msRange:68.676579,x:471739.464396,y:25178135.532389,z:8152011.880334,vx:-551.013428,vy:943.462524,vz:-2908.077148,tb:-0.000101
i = 9
i = 10
i = 11
i = 12
i = 13
i = 14
Refix G01: 2, 371066.931930, -305
Refix G03: 2, 371066.920032, -3562
Refix G07: 2, 371066.928547, 1637
Refix G08: 2, 371066.919669, 1407
Refix G11: 2, 371066.930254, 704
Refix G13: 2, 371066.916416, -542
Refix G17: 2, 371066.924691, -2496
Refix G18: 2, 371066.927997, 1322
Refix G22: 2, 371066.920773, -2592
Refix G28: 2, 371066.927122, -2915
Refix G30: 2, 371066.931223, -342
$GNGGA,070409.000,2944.9104,N,10633.0866,E,1,11,1.1,309.6,M,,,,0000*1F
$GNRMC,070409.000,A,2944.9104,N,10633.0866,E,0.18,0.00,090519,,*12
$GPGSA,A,3,01,07,08,11,17,18,22,28,30,,,,2.1,1.1,1.8*30
$BDGSA,A,3,01,04,,,,,,,,,,,2.1,1.1,1.8*2C
$GLGSA,A,3,,,,,,,,,,,,,2.1,1.1,1.8*24
$GPGSV,3,1,09,01,00,000,44,07,00,000,44,08,00,000,34,11,00,000,44*7B
$GPGSV,3,2,09,17,00,000,39,18,00,000,42,22,00,000,41,28,00,000,43*7A
$GPGSV,3,3,09,30,00,000,45*42
$BDGSV,2,1,07,01,00,000,41,02,00,000,16,03,00,000,19,04,00,000,39*68
$BDGSV,2,2,07,08,00,000,42,10,00,000,43,13,00,000,43*52
$B3CN0,0,0,0,0,0,0,0,0,0,0,0,0,0,0*4C
$ini_pos,lastpos_good = 1,ini_pos.x:-1578900.701987,ini_pos.y:5312757.984338,ini_pos.z:3146353.630902
$rtc_local_time,localRTC.weeks:2052,localRTC.seconds:371067.415692,localGtime.weeks:2052,localGtime.seconds:371068.000000
i = 0
$pseudo_cd_ph,prn:1,pseudo_cd_ph:371067931.930549
$meas,msRange:68.058953,x:-13404128.662177,y:17056487.833187,z:14917272.297170,vx:154.810455,vy:-1940.286255,vz:2360.976318,tb:-0.000012
i = 1
$pseudo_cd_ph,prn:7,pseudo_cd_ph:371067928.546182
$meas,msRange:71.434909,x:-6845085.092483,y:25215973.698024,z:-2749340.575439,vx:-259.050110,vy:-442.310730,vz:-3170.189453,tb:-0.000021
i = 2
$pseudo_cd_ph,prn:8,pseudo_cd_ph:371067919.668330
$meas,msRange:80.190454,x:-19682703.682991,y:-220917.423016,z:17964494.480684,vx:-1667.701660,vy:-1536.736572,vz:-1829.363037,tb:-0.000143
i = 3
$pseudo_cd_ph,prn:11,pseudo_cd_ph:371067930.253836
$meas,msRange:69.137355,x:-11985740.237990,y:13076525.801043,z:19302611.249965,vx:-833.139526,vy:-2447.272949,vz:1085.710083,tb:-0.000610
i = 4
$pseudo_cd_ph,prn:17,pseudo_cd_ph:371067924.692429
$meas,msRange:75.360866,x:13042187.619049,y:21189460.396038,z:9823135.564421,vx:-978.915222,vy:-685.535339,vz:2890.236328,tb:0.000052
i = 5
$pseudo_cd_ph,prn:18,pseudo_cd_ph:371067927.996606
$meas,msRange:72.056629,x:-15135796.926323,y:8146971.151901,z:19724241.825608,vx:199.539017,vy:-2614.618408,vz:1216.891724,tb:0.000052
i = 6
$pseudo_cd_ph,prn:22,pseudo_cd_ph:371067920.774314
$meas,msRange:78.529359,x:-24714402.671990,y:9479009.667615,z:1864952.328980,vx:32.907890,vy:-444.483459,vz:3091.336670,tb:-0.000698
i = 7
$pseudo_cd_ph,prn:28,pseudo_cd_ph:371067927.123972
$meas,msRange:73.645302,x:3543702.178794,y:14607231.635414,z:22506695.955234,vx:-2615.342285,vy:690.548706,vz:-28.222050,tb:0.000768
i = 8
$pseudo_cd_ph,prn:30,pseudo_cd_ph:371067931.223294
$meas,msRange:68.677073,x:471188.515985,y:25179078.831418,z:8149103.715663,vx:-550.883484,vy:943.135559,vz:-2908.252441,tb:-0.000101
i = 9
i = 10
i = 11
i = 12
i = 13
i = 14
i = 15
i = 16
Refix G01: 2, 371067.931931, -305
Refix G03: 2, 371067.920035, -3562
Refix G07: 2, 371067.928546, 1637
Refix G08: 2, 371067.919668, 1408
Refix G11: 2, 371067.930254, 704
Refix G13: 2, 371067.916416, -541
Refix G17: 2, 371067.924692, -2496
Refix G18: 2, 371067.927997, 1322
Refix G22: 2, 371067.920774, -2591
Refix G28: 2, 371067.927124, -2915
Refix G30: 2, 371067.931223, -342
$GNGGA,070410.000,2944.9101,N,10633.0870,E,1,14,0.9,310.6,M,,,,0000*11
$GNRMC,070410.000,A,2944.9101,N,10633.0870,E,0.25,0.00,090519,,*16
$GPGSA,A,3,01,07,08,11,17,18,22,28,30,,,,1.0,0.9,0.6*34
$BDGSA,A,3,01,04,08,10,13,,,,,,,,1.0,0.9,0.6*23
$GLGSA,A,3,,,,,,,,,,,,,1.0,0.9,0.6*20
$GPGSV,3,1,11,01,65,069,44,07,44,182,44,08,17,055,35,11,55,041,44*77
$GPGSV,3,2,11,17,34,271,38,18,40,047,42,22,21,106,42,28,46,330,43*73
$GPGSV,3,3,11,30,63,237,45,03,16,129,00,13,06,292,00*4B
$BDGSV,3,1,11,01,40,125,40,04,23,109,40,08,81,172,43,10,77,005,44*62
$BDGSV,3,2,11,13,54,207,43,27,65,007,32,28,18,046,31,30,43,258,29*6B
$BDGSV,3,3,11,02,46,219,00,05,27,245,00,07,65,099,00*55
$B3CN0,0,0,0,0,0,0,0,0,0,0,0,0,0,0*4C
$ini_pos,lastpos_good = 1,ini_pos.x:-1578901.620441,ini_pos.y:5312758.952912,ini_pos.z:3146353.659515
$rtc_local_time,localRTC.weeks:2052,localRTC.seconds:371068.415692,localGtime.weeks:2052,localGtime.seconds:371069.000000
i = 0
$pseudo_cd_ph,prn:1,pseudo_cd_ph:371068931.930710
$meas,msRange:68.059468,x:-13403973.882476,y:17054547.394821,z:14919633.110494,vx:154.748947,vy:-1940.590576,vz:2360.650391,tb:-0.000012
i = 1
$pseudo_cd_ph,prn:7,pseudo_cd_ph:371068928.545112
$meas,msRange:71.436658,x:-6845344.117828,y:25215531.196091,z:-2752510.734544,vx:-259.000580,vy:-442.693146,vz:-3170.128906,tb:-0.000021
i = 2
$pseudo_cd_ph,prn:8,pseudo_cd_ph:371068919.667399
$meas,msRange:80.192060,x:-19684371.341708,y:-222454.036216,z:17962664.928522,vx:-1667.615845,vy:-1536.489868,vz:-1829.741455,tb:-0.000143
i = 3
$pseudo_cd_ph,prn:11,pseudo_cd_ph:371068930.253355
$meas,msRange:69.138513,x:-11986573.455226,y:13074078.479147,z:19303696.746451,vx:-833.295044,vy:-2447.371094,vz:1085.282959,tb:-0.000610
i = 4
$pseudo_cd_ph,prn:17,pseudo_cd_ph:371068924.693977
$meas,msRange:75.359995,x:13041208.552753,y:21188774.767807,z:9826025.698299,vx:-979.217468,vy:-685.721130,vz:2890.031738,tb:0.000052
i = 5
$pseudo_cd_ph,prn:18,pseudo_cd_ph:371068927.995733
$meas,msRange:72.058180,x:-15135597.449817,y:8144356.450101,z:19725458.497773,vx:199.414001,vy:-2614.785400,vz:1216.452637,tb:0.000052
i = 6
$pseudo_cd_ph,prn:22,pseudo_cd_ph:371068920.775922
$meas,msRange:78.528424,x:-24714369.598582,y:9478565.105860,z:1868043.645725,vx:33.238922,vy:-444.640106,vz:3091.296875,tb:-0.000698
i = 7
$pseudo_cd_ph,prn:28,pseudo_cd_ph:371068927.125783
$meas,msRange:73.644165,x:3541086.860777,y:14607922.266854,z:22506667.506927,vx:-2615.293945,vy:690.714172,vz:-28.674568,tb:0.000768
i = 8
$pseudo_cd_ph,prn:30,pseudo_cd_ph:371068931.223478
$meas,msRange:68.677565,x:470637.697497,y:25180021.803456,z:8146195.375796,vx:-550.753540,vy:942.808533,vz:-2908.427490,tb:-0.000101
i = 9
i = 10
i = 11
i = 12
i = 13
i = 14
i = 15
i = 16
i = 17
i = 18
Refix G01: 2, 371068.931931, -298
Refix G03: 2, 371068.920037, -3557
Refix G07: 2, 371068.928545, 1642
Refix G08: 2, 371068.919667, 1413
Refix G11: 2, 371068.930253, 711
Refix G13: 2, 371068.916416, -537
Refix G17: 2, 371068.924694, -2491
Refix G18: 2, 371068.927996, 1329
Refix G22: 2, 371068.920776, -2586
Refix G28: 2, 371068.927126, -2909
Refix G30: 2, 371068.931223, -336
$GNGGA,070411.000,2944.9096,N,10633.0875,E,1,14,0.9,312.4,M,,,,0000*1A
$GNRMC,070411.000,A,2944.9096,N,10633.0875,E,0.39,0.00,090519,,*10
$GPGSA,A,3,01,07,08,11,17,18,22,28,30,,,,1.0,0.9,0.6*34
$BDGSA,A,3,01,04,08,10,13,,,,,,,,1.0,0.9,0.6*23
$GLGSA,A,3,,,,,,,,,,,,,1.0,0.9,0.6*20
$GPGSV,3,1,11,01,65,069,44,07,44,182,43,08,17,055,35,11,55,041,44*70
$GPGSV,3,2,11,17,34,271,38,18,40,047,42,22,21,106,42,28,46,330,43*73
$GPGSV,3,3,11,30,63,237,45,03,16,129,00,13,06,292,00*4B
$BDGSV,3,1,11,01,40,125,41,02,46,219,18,04,23,109,40,08,81,172,42*65
$BDGSV,3,2,11,10,77,005,43,13,54,207,42,27,65,007,45,28,18,046,40*6F
$BDGSV,3,3,11,30,43,258,45,05,27,245,00,07,65,099,00*55
$B3CN0,0,0,0,0,0,0,0,0,0,0,0,0,0,0*4C
$ini_pos,lastpos_good = 1,ini_pos.x:-1578902.912692,ini_pos.y:5312760.682130,ini_pos.z:3146353.735619
$rtc_local_time,localRTC.weeks:2052,localRTC.seconds:371069.415692,localGtime.weeks:2052,localGtime.seconds:371070.000000
i = 0
$pseudo_cd_ph,prn:1,pseudo_cd_ph:371069931.930871
$meas,msRange:68.059982,x:-13403819.164297,y:17052606.652065,z:14921993.597878,vx:154.687408,vy:-1940.895020,vz:2360.324463,tb:-0.000012
i = 1
$pseudo_cd_ph,prn:7,pseudo_cd_ph:371069928.544042
$meas,msRange:71.438405,x:-6845603.093667,y:25215088.311740,z:-2755680.833129,vx:-258.951111,vy:-443.075562,vz:-3170.068359,tb:-0.000021
i = 2
$pseudo_cd_ph,prn:8,pseudo_cd_ph:371069919.666468
$meas,msRange:80.193666,x:-19686038.914656,y:-223990.402702,z:17960834.998019,vx:-1667.530151,vy:-1536.243164,vz:-1830.119751,tb:-0.000143
i = 3
$pseudo_cd_ph,prn:11,pseudo_cd_ph:371069930.252875
$meas,msRange:69.139669,x:-11987406.827980,y:13071631.059098,z:19304781.815841,vx:-833.450562,vy:-2447.469238,vz:1084.855835,tb:-0.000610
i = 4
$pseudo_cd_ph,prn:17,pseudo_cd_ph:371069924.695529
$meas,msRange:75.359123,x:13040229.184231,y:21188088.953835,z:9828915.627528,vx:-979.519653,vy:-685.906860,vz:2889.826904,tb:0.000052
i = 5
$pseudo_cd_ph,prn:18,pseudo_cd_ph:371069927.994858
$meas,msRange:72.059730,x:-15135398.098329,y:8141741.581293,z:19726674.730901,vx:199.288971,vy:-2614.952393,vz:1216.013672,tb:0.000052
i = 6
$pseudo_cd_ph,prn:22,pseudo_cd_ph:371069920.777537
$meas,msRange:78.527488,x:-24714336.194154,y:9478120.387438,z:1871134.922609,vx:33.569931,vy:-444.796783,vz:3091.257080,tb:-0.000698
i = 7
$pseudo_cd_ph,prn:28,pseudo_cd_ph:371069927.127597
$meas,msRange:73.643026,x:3538471.591138,y:14608613.063742,z:22506638.606101,vx:-2615.245605,vy:690.879639,vz:-29.127087,tb:0.000768
i = 8
$pseudo_cd_ph,prn:30,pseudo_cd_ph:371069931.223662
$meas,msRange:68.678056,x:470087.008893,y:25180964.448467,z:8143286.860796,vx:-550.623718,vy:942.481506,vz:-2908.602539,tb:-0.000101
i = 9
i = 10
i = 11
i = 12
i = 13
i = 14
i = 15
i = 16
i = 17
i = 18
Refix G01: 2, 371069.931931, -296
Refix G03: 2, 371069.920039, -3555
Refix G07: 2, 371069.928544, 1646
Refix G08: 2, 371069.919666, 1415
Refix G11: 2, 371069.930253, 713
Refix G13: 2, 371069.916417, -533
Refix G17: 2, 371069.924696, -2488
Refix G18: 2, 371069.927995, 1331
Refix G22: 2, 371069.920778, -2583
Refix G28: 2, 371069.927128, -2907
Refix G30: 2, 371069.931224, -333
$GNGGA,070412.000,2944.9091,N,10633.0881,E,1,14,0.9,314.3,M,,,,0000*14
$GNRMC,070412.000,A,2944.9091,N,10633.0881,E,0.15,0.00,090519,,*11
$GPGSA,A,3,01,07,08,11,17,18,22,28,30,,,,1.0,0.9,0.6*34
$BDGSA,A,3,01,04,08,10,13,,,,,,,,1.0,0.9,0.6*23
$GLGSA,A,3,,,,,,,,,,,,,1.0,0.9,0.6*20
$GPGSV,3,1,11,01,65,069,45,07,44,182,44,08,17,055,35,11,55,041,44*76
$GPGSV,3,2,11,17,34,271,38,18,40,047,42,22,21,106,42,28,46,330,43*73
$GPGSV,3,3,11,30,63,237,45,03,16,129,00,13,06,292,00*4B
$BDGSV,3,1,12,01,40,125,41,03,00,000,17,04,23,109,40,08,81,172,42*60
$BDGSV,3,2,12,10,77,005,43,13,54,207,42,27,65,007,45,28,18,046,40*6C
$BDGSV,3,3,12,30,43,258,43,02,46,219,00,05,27,245,00,07,65,099,00*6A
$B3CN0,0,0,0,0,0,0,0,0,0,0,0,0,0,0*4C
$ini_pos,lastpos_good = 1,ini_pos.x:-1578904.431196,ini_pos.y:5312762.368250,ini_pos.z:3146353.934951
$rtc_local_time,localRTC.weeks:2052,localRTC.seconds:371070.415692,localGtime.weeks:2052,localGtime.seconds:371071.000000
i = 0
$pseudo_cd_ph,prn:1,pseudo_cd_ph:371070931.931034
$meas,msRange:68.060495,x:-13403664.507688,y:17050665.604962,z:14924353.759269,vx:154.625809,vy:-1941.199341,vz:2359.998535,tb:-0.000012
i = 1
$pseudo_cd_ph,prn:7,pseudo_cd_ph:371070928.542971
$meas,msRange:71.440152,x:-6845862.020053,y:25214645.044969,z:-2758850.871124,vx:-258.901672,vy:-443.458008,vz:-3170.007812,tb:-0.000021
i = 2
$pseudo_cd_ph,prn:8,pseudo_cd_ph:371070919.665544
$meas,msRange:80.195271,x:-19687706.401771,y:-225526.522462,z:17959004.689212,vx:-1667.444214,vy:-1535.996460,vz:-1830.498047,tb:-0.000143
i = 3
$pseudo_cd_ph,prn:11,pseudo_cd_ph:371070930.252396
$meas,msRange:69.140825,x:-11988240.356251,y:13069183.540958,z:19305866.458110,vx:-833.606079,vy:-2447.567139,vz:1084.428711,tb:-0.000610
i = 4
$pseudo_cd_ph,prn:17,pseudo_cd_ph:371070924.697083
$meas,msRange:75.358251,x:13039249.513470,y:21187402.954176,z:9831805.352047,vx:-979.821899,vy:-686.092529,vz:2889.622314,tb:0.000052
i = 5
$pseudo_cd_ph,prn:18,pseudo_cd_ph:371070927.993983
$meas,msRange:72.061279,x:-15135198.871885,y:8139126.545540,z:19727890.524964,vx:199.163925,vy:-2615.119385,vz:1215.574585,tb:0.000052
i = 6
$pseudo_cd_ph,prn:22,pseudo_cd_ph:371070920.779152
$meas,msRange:78.526551,x:-24714302.458731,y:9477675.512306,z:1874226.159567,vx:33.900913,vy:-444.953522,vz:3091.217041,tb:-0.000698
i = 7
$pseudo_cd_ph,prn:28,pseudo_cd_ph:371070927.129413
$meas,msRange:73.641887,x:3535856.369940,y:14609304.026060,z:22506609.252759,vx:-2615.197021,vy:691.045044,vz:-29.579603,tb:0.000768
i = 8
$pseudo_cd_ph,prn:30,pseudo_cd_ph:371070931.223847
$meas,msRange:68.678548,x:469536.450133,y:25181906.766419,z:8140378.170725,vx:-550.493896,vy:942.154419,vz:-2908.777588,tb:-0.000101
i = 9
i = 10
i = 11
i = 12
i = 13
i = 14
i = 15
i = 16
i = 17
i = 18
i = 19
i = 20
i = 21
Refix G01: 2, 371070.931931, -305
Refix G03: 2, 371070.920041, -3561
Refix G07: 2, 371070.928543, 1638
Refix G08: 2, 371070.919666, 1408
Refix G11: 2, 371070.930252, 704
Refix G13: 2, 371070.916417, -538
Refix G17: 2, 371070.924697, -2496
Refix G18: 2, 371070.927994, 1323
Refix G19: 1, 371070.919398, -3658
Refix G22: 2, 371070.920779, -2590
Refix G28: 2, 371070.927129, -2915
Refix G30: 2, 371070.931224, -342
$GNGGA,070413.000,2944.9089,N,10633.0883,E,1,14,0.9,315.3,M,,,,0000*1F
$GNRMC,070413.000,A,2944.9089,N,10633.0883,E,0.21,0.00,090519,,*1C
$GPGSA,A,3,01,07,08,11,17,18,22,28,30,,,,1.0,0.9,0.6*34
$BDGSA,A,3,01,04,08,10,13,,,,,,,,1.0,0.9,0.6*23
$GLGSA,A,3,,,,,,,,,,,,,1.0,0.9,0.6*20
$GPGSV,3,1,11,01,65,069,45,07,44,182,44,08,17,055,35,11,55,041,44*76
$GPGSV,3,2,11,17,34,271,38,18,40,047,41,22,21,106,41,28,46,330,43*73
$GPGSV,3,3,11,30,63,237,45,03,16,129,00,13,06,292,00*4B
$BDGSV,3,1,11,01,40,125,41,04,23,109,40,08,81,172,43,10,77,005,43*64
$BDGSV,3,2,11,13,54,207,42,27,65,007,45,28,18,046,40,30,43,258,44*67
$BDGSV,3,3,11,02,46,219,00,05,27,245,00,07,65,099,00*55
$B3CN0,0,0,0,0,0,0,0,0,0,0,0,0,0,0*4C
$ini_pos,lastpos_good = 1,ini_pos.x:-1578905.104275,ini_pos.y:5312763.318842,ini_pos.z:3146354.071819
$rtc_local_time,localRTC.weeks:2052,localRTC.seconds:371071.415692,localGtime.weeks:2052,localGtime.seconds:371072.000000
i = 0
$pseudo_cd_ph,prn:1,pseudo_cd_ph:371071931.931195
$meas,msRange:68.061012,x:-13403509.912696,y:17048724.253552,z:14926713.594615,vx:154.564178,vy:-1941.503662,vz:2359.672363,tb:-0.000012
i = 1
$pseudo_cd_ph,prn:7,pseudo_cd_ph:371071928.541899
$meas,msRange:71.441902,x:-6846120.897037,y:25214201.395775,z:-2762020.848459,vx:-258.852295,vy:-443.840424,vz:-3169.947021,tb:-0.000021
i = 2
$pseudo_cd_ph,prn:8,pseudo_cd_ph:371071919.664612
$meas,msRange:80.196877,x:-19689373.802992,y:-227062.395484,z:17957174.002142,vx:-1667.358276,vy:-1535.749756,vz:-1830.876221,tb:-0.000143
i = 3
$pseudo_cd_ph,prn:11,pseudo_cd_ph:371071930.251916
$meas,msRange:69.141984,x:-11989074.040037,y:13066735.924789,z:19306950.673232,vx:-833.761597,vy:-2447.665283,vz:1084.001587,tb:-0.000610
i = 4
$pseudo_cd_ph,prn:17,pseudo_cd_ph:371071924.698633
$meas,msRange:75.357380,x:13038269.540461,y:21186716.768890,z:9834694.871798,vx:-980.124146,vy:-686.278076,vz:2889.417480,tb:0.000052
i = 5
$pseudo_cd_ph,prn:18,pseudo_cd_ph:371071927.993111
$meas,msRange:72.062831,x:-15134999.770513,y:8136511.342903,z:19729105.879934,vx:199.038834,vy:-2615.286133,vz:1215.135498,tb:0.000052
i = 6
$pseudo_cd_ph,prn:22,pseudo_cd_ph:371071920.780766
$meas,msRange:78.525617,x:-24714268.392339,y:9477230.480425,z:1877317.356534,vx:34.231869,vy:-445.110291,vz:3091.177002,tb:-0.000698
i = 7
$pseudo_cd_ph,prn:28,pseudo_cd_ph:371071927.131229
$meas,msRange:73.640749,x:3533241.197245,y:14609995.153793,z:22506579.446899,vx:-2615.148438,vy:691.210449,vz:-30.032120,tb:0.000768
i = 8
$pseudo_cd_ph,prn:30,pseudo_cd_ph:371071931.224031
$meas,msRange:68.679041,x:468986.021179,y:25182848.757275,z:8137469.305644,vx:-550.364075,vy:941.827332,vz:-2908.952637,tb:-0.000101
i = 9
i = 10
i = 11
i = 12
i = 13
i = 14
i = 15
i = 16
i = 17
i = 18
i = 19
i = 20
i = 21
Refix G01: 2, 371071.931931, -302
Refix G03: 2, 371071.920044, -3560
Refix G07: 2, 371071.928542, 1640
Refix G08: 2, 371071.919665, 1408
Refix G11: 2, 371071.930252, 706
Refix G13: 2, 371071.916417, -537
Refix G17: 2, 371071.924699, -2494
Refix G18: 2, 371071.927993, 1325
Refix G19: 1, 371071.919400, -3656
Refix G22: 2, 371071.920781, -2589
Refix G28: 2, 371071.927131, -2914
Refix G30: 2, 371071.931224, -339
$GNGGA,070414.000,2944.9085,N,10633.0887,E,1,14,0.9,316.8,M,,,,0000*18
$GNRMC,070414.000,A,2944.9085,N,10633.0887,E,0.29,0.00,090519,,*1B
$GPGSA,A,3,01,07,08,11,17,18,22,28,30,,,,1.0,0.9,0.6*34
$BDGSA,A,3,01,04,08,10,13,,,,,,,,1.0,0.9,0.6*23
$GLGSA,A,3,,,,,,,,,,,,,1.0,0.9,0.6*20
$GPGSV,3,1,12,01,65,069,45,07,44,182,45,08,17,055,37,11,55,041,45*77
$GPGSV,3,2,12,17,34,271,39,18,40,047,43,22,21,106,41,28,46,330,44*74
$GPGSV,3,3,12,30,63,237,45,03,16,129,00,13,06,292,00,19,14,256,00*74
$BDGSV,3,1,12,01,40,125,40,03,00,000,36,04,23,109,40,08,81,172,43*63
$BDGSV,3,2,12,10,77,005,44,13,54,207,43,27,65,007,45,28,18,046,40*6A
$BDGSV,3,3,12,30,43,258,44,02,46,219,00,05,27,245,00,07,65,099,00*6D
$B3CN0,0,0,0,0,0,0,0,0,0,0,0,0,0,0*4C
$ini_pos,lastpos_good = 1,ini_pos.x:-1578906.150850,ini_pos.y:5312764.644589,ini_pos.z:3146354.241535
$rtc_local_time,localRTC.weeks:2052,localRTC.seconds:371072.415692,localGtime.weeks:2052,localGtime.seconds:371073.000000
i = 0
$pseudo_cd_ph,prn:1,pseudo_cd_ph:371072931.931358
$meas,msRange:68.061528,x:-13403355.379367,y:17046782.597877,z:14929073.103866,vx:154.502487,vy:-1941.807861,vz:2359.346191,tb:-0.000012
i = 1
$pseudo_cd_ph,prn:7,pseudo_cd_ph:371072928.540828
$meas,msRange:71.443651,x:-6846379.724668,y:25213757.364159,z:-2765190.765065,vx:-258.802979,vy:-444.222839,vz:-3169.886230,tb:-0.000021
i = 2
$pseudo_cd_ph,prn:8,pseudo_cd_ph:371072919.663674
$meas,msRange:80.198483,x:-19691041.118258,y:-228598.021756,z:17955342.936847,vx:-1667.272339,vy:-1535.502930,vz:-1831.254395,tb:-0.000143
i = 3
$pseudo_cd_ph,prn:11,pseudo_cd_ph:371072930.251436
$meas,msRange:69.143142,x:-11989907.879339,y:13064288.210654,z:19308034.461181,vx:-833.917114,vy:-2447.763184,vz:1083.574341,tb:-0.000610
i = 4
$pseudo_cd_ph,prn:17,pseudo_cd_ph:371072924.700188
$meas,msRange:75.356509,x:13037289.265193,y:21186030.398031,z:9837584.186722,vx:-980.426453,vy:-686.463623,vz:2889.212646,tb:0.000052
i = 5
$pseudo_cd_ph,prn:18,pseudo_cd_ph:371072927.992242
$meas,msRange:72.064382,x:-15134800.794240,y:8133895.973446,z:19730320.795785,vx:198.913727,vy:-2615.452881,vz:1214.696289,tb:0.000052
i = 6
$pseudo_cd_ph,prn:22,pseudo_cd_ph:371072920.782382
$meas,msRange:78.524683,x:-24714233.995001,y:9476785.291754,z:1880408.513443,vx:34.562801,vy:-445.267090,vz:3091.136963,tb:-0.000698
i = 7
$pseudo_cd_ph,prn:28,pseudo_cd_ph:371072927.133048
$meas,msRange:73.639611,x:3530626.073118,y:14610686.446922,z:22506549.188525,vx:-2615.099854,vy:691.375854,vz:-30.484634,tb:0.000768
i = 8
$pseudo_cd_ph,prn:30,pseudo_cd_ph:371072931.224216
$meas,msRange:68.679535,x:468435.721992,y:25183790.421002,z:8134560.265618,vx:-550.234314,vy:941.500183,vz:-2909.127686,tb:-0.000101
i = 9
i = 10
i = 11
i = 12
i = 13
i = 14
i = 15
i = 16
i = 17
i = 18
i = 19
i = 20
i = 21
Refix G01: 2, 371072.931931, -297
Refix G03: 2, 371072.920046, -3557
Refix G07: 2, 371072.928541, 1643
Refix G08: 2, 371072.919664, 1411
Refix G11: 2, 371072.930251, 711
Refix G13: 2, 371072.916417, -535
Refix G17: 2, 371072.924700, -2491
Refix G18: 2, 371072.927992, 1329
Refix G19: 1, 371072.919403, -3654
Refix G22: 2, 371072.920782, -2586
Refix G28: 2, 371072.927133, -2910
Refix G30: 2, 371072.931224, -335
$GNGGA,070415.000,2944.9082,N,10633.0891,E,1,14,0.9,318.3,M,,,,0000*1C
$GNRMC,070415.000,A,2944.9082,N,10633.0891,E,0.19,0.00,090519,,*19
$GPGSA,A,3,01,07,08,11,17,18,22,28,30,,,,1.0,0.9,0.6*34
$BDGSA,A,3,01,04,08,10,13,,,,,,,,1.0,0.9,0.6*23
$GLGSA,A,3,,,,,,,,,,,,,1.0,0.9,0.6*20
$GPGSV,3,1,12,01,65,069,45,07,44,182,45,08,17,055,37,11,55,041,45*77
$GPGSV,3,2,12,17,34,271,39,18,40,047,42,22,21,106,41,28,46,330,44*75
$GPGSV,3,3,12,30,63,237,46,03,16,129,00,13,06,292,00,19,14,256,00*77
$BDGSV,3,1,12,01,40,125,40,03,00,000,22,04,23,109,39,07,65,099,44*6E
$BDGSV,3,2,12,08,81,172,42,10,77,005,43,13,54,207,42,27,65,007,45*6A
$BDGSV,3,3,12,28,18,046,40,30,43,258,43,02,46,219,00,05,27,245,00*6B
$B3CN0,0,0,0,0,0,0,0,0,0,0,0,0,0,0*4C
$ini_pos,lastpos_good = 1,ini_pos.x:-1578907.224437,ini_pos.y:5312766.045013,ini_pos.z:3146354.417978
$rtc_local_time,localRTC.weeks:2052,localRTC.seconds:371073.415692,localGtime.weeks:2052,localGtime.seconds:371074.000000
i = 0
$pseudo_cd_ph,prn:1,pseudo_cd_ph:371073931.931520
$meas,msRange:68.062045,x:-13403200.907750,y:17044840.637977,z:14931432.286970,vx:154.440750,vy:-1942.112061,vz:2359.020020,tb:-0.000012
i = 1
$pseudo_cd_ph,prn:7,pseudo_cd_ph:371073928.539759
$meas,msRange:71.445400,x:-6846638.502999,y:25213312.950118,z:-2768360.620871,vx:-258.753693,vy:-444.605255,vz:-3169.825439,tb:-0.000021
i = 2
$pseudo_cd_ph,prn:8,pseudo_cd_ph:371073919.662747
$meas,msRange:80.200088,x:-19692708.347507,y:-230133.401266,z:17953511.493366,vx:-1667.186279,vy:-1535.256226,vz:-1831.632568,tb:-0.000143
i = 3
$pseudo_cd_ph,prn:11,pseudo_cd_ph:371073930.250956
$meas,msRange:69.144300,x:-11990741.874156,y:13061840.398615,z:19309117.821931,vx:-834.072571,vy:-2447.861084,vz:1083.147217,tb:-0.000610
i = 4
$pseudo_cd_ph,prn:17,pseudo_cd_ph:371073924.701739
$meas,msRange:75.355637,x:13036308.687656,y:21185343.841657,z:9840473.296759,vx:-980.728699,vy:-686.649109,vz:2889.007568,tb:0.000052
i = 5
$pseudo_cd_ph,prn:18,pseudo_cd_ph:371073927.991370
$meas,msRange:72.065934,x:-15134601.943093,y:8131280.437230,z:19731535.272487,vx:198.788574,vy:-2615.619629,vz:1214.257202,tb:0.000052
i = 6
$pseudo_cd_ph,prn:22,pseudo_cd_ph:371073920.783996
$meas,msRange:78.523748,x:-24714199.266744,y:9476339.946253,z:1883499.630229,vx:34.893711,vy:-445.423950,vz:3091.096924,tb:-0.000698
i = 7
$pseudo_cd_ph,prn:28,pseudo_cd_ph:371073927.134869
$meas,msRange:73.638473,x:3528010.997619,y:14611377.905431,z:22506518.477635,vx:-2615.051270,vy:691.541199,vz:-30.937149,tb:0.000768
i = 8
$pseudo_cd_ph,prn:30,pseudo_cd_ph:371073931.224402
$meas,msRange:68.680028,x:467885.552534,y:25184731.757564,z:8131651.050707,vx:-550.104614,vy:941.172974,vz:-2909.302490,tb:-0.000101
i = 9
i = 10
i = 11
i = 12
i = 13
i = 14
i = 15
i = 16
i = 17
i = 18
i = 19
i = 20
i = 21
Refix G01: 2, 371073.931932, -300
Refix G03: 2, 371073.920048, -3560
Refix G07: 2, 371073.928540, 1641
Refix G08: 2, 371073.919663, 1409
Refix G11: 2, 371073.930251, 708
Refix G13: 2, 371073.916418, -535
Refix G17: 2, 371073.924702, -2492
Refix G18: 2, 371073.927991, 1327
Refix G19: 1, 371073.919405, -3655
Refix G22: 2, 371073.920784, -2588
Refix G28: 2, 371073.927135, -2912
Refix G30: 2, 371073.931224, -337
$GNGGA,070416.000,2944.9080,N,10633.0894,E,1,18,0.7,319.3,M,,,,0000*1B
$GNRMC,070416.000,A,2944.9080,N,10633.0894,E,0.18,0.00,090519,,*1C
$GPGSA,A,3,01,07,08,11,17,18,22,28,30,,,,0.9,0.7,0.4*30
$BDGSA,A,3,01,04,07,08,10,13,27,28,30,,,,0.9,0.7,0.4*2C
$GLGSA,A,3,,,,,,,,,,,,,0.9,0.7,0.4*24
$GPGSV,3,1,12,01,65,069,45,07,44,182,45,08,17,055,37,11,55,041,45*77
$GPGSV,3,2,12,17,34,271,38,18,40,047,42,22,21,106,42,28,46,330,45*76
$GPGSV,3,3,12,30,63,237,46,03,16,129,00,13,06,292,00,19,14,256,00*77
$BDGSV,3,1,11,01,40,125,41,04,23,109,40,07,65,099,43,08,81,172,42*65
$BDGSV,3,2,11,10,77,005,44,13,54,207,43,27,65,007,45,28,18,046,40*69
$BDGSV,3,3,11,30,43,258,44,02,46,219,00,05,27,245,00*5A
$B3CN0,0,0,0,0,0,0,0,0,0,0,0,0,0,0*4C
$ini_pos,lastpos_good = 1,ini_pos.x:-1578907.953774,ini_pos.y:5312766.930997,ini_pos.z:3146354.598409
$rtc_local_time,localRTC.weeks:2052,localRTC.seconds:371074.415692,localGtime.weeks:2052,localGtime.seconds:371075.000000
i = 0
$pseudo_cd_ph,prn:1,pseudo_cd_ph:371074931.931679
$meas,msRange:68.062563,x:-13403046.497890,y:17042898.373895,z:14933791.143875,vx:154.378967,vy:-1942.416260,vz:2358.693848,tb:-0.000012
i = 1
i = 2
$pseudo_cd_ph,prn:7,pseudo_cd_ph:371074928.538687
$meas,msRange:71.447151,x:-6846897.232080,y:25212868.153651,z:-2771530.415807,vx:-258.704468,vy:-444.987701,vz:-3169.764648,tb:-0.000021
i = 3
$pseudo_cd_ph,prn:8,pseudo_cd_ph:371074919.661811
$meas,msRange:80.201694,x:-19694375.490677,y:-231668.534004,z:17951679.671739,vx:-1667.100220,vy:-1535.009399,vz:-1832.010742,tb:-0.000143
i = 4
$pseudo_cd_ph,prn:11,pseudo_cd_ph:371074930.250474
$meas,msRange:69.145460,x:-11991576.024485,y:13059392.488735,z:19310200.755456,vx:-834.228088,vy:-2447.958740,vz:1082.719971,tb:-0.000610
i = 5
$pseudo_cd_ph,prn:17,pseudo_cd_ph:371074924.703288
$meas,msRange:75.354767,x:13035327.807838,y:21184657.099825,z:9843362.201850,vx:-981.031006,vy:-686.834595,vz:2888.802734,tb:0.000052
i = 6
$pseudo_cd_ph,prn:18,pseudo_cd_ph:371074927.990498
$meas,msRange:72.067487,x:-15134403.217101,y:8128664.734317,z:19732749.310015,vx:198.663406,vy:-2615.786377,vz:1213.817993,tb:0.000052
i = 7
$pseudo_cd_ph,prn:22,pseudo_cd_ph:371074920.785607
$meas,msRange:78.522815,x:-24714164.207593,y:9475894.443881,z:1886590.706825,vx:35.224590,vy:-445.580841,vz:3091.056641,tb:-0.000698
i = 8
$pseudo_cd_ph,prn:28,pseudo_cd_ph:371074927.136687
$meas,msRange:73.637335,x:3525395.970812,y:14612069.529302,z:22506487.314232,vx:-2615.002441,vy:691.706543,vz:-31.389662,tb:0.000768
i = 9
$pseudo_cd_ph,prn:30,pseudo_cd_ph:371074931.224586
$meas,msRange:68.680523,x:467335.512765,y:25185672.766927,z:8128741.660974,vx:-549.974976,vy:940.845764,vz:-2909.477295,tb:-0.000101
i = 10
i = 11
i = 12
i = 13
i = 14
i = 15
i = 16
i = 17
i = 18
i = 19
i = 20
i = 21
i = 22
i = 23
Refix G01: 2, 371074.931932, -302
Refix G03: 2, 371074.920050, -3561
Refix G07: 2, 371074.928539, 1640
Refix G08: 2, 371074.919662, 1407
Refix G11: 2, 371074.930250, 706
Refix G13: 2, 371074.916418, -537
Refix G17: 2, 371074.924703, -2495
Refix G18: 2, 371074.927990, 1325
Refix G19: 1, 371074.919407, -3657
Refix G22: 2, 371074.920786, -2589
Refix G28: 2, 371074.927137, -2915
Refix G30: 2, 371074.931225, -339
$GNGGA,070417.000,2944.9078,N,10633.0895,E,1,18,0.7,320.1,M,,,,0000*14
$GNRMC,070417.000,A,2944.9078,N,10633.0895,E,0.30,0.00,090519,,*11
$GPGSA,A,3,01,07,08,11,17,18,22,28,30,,,,0.9,0.7,0.4*30
$BDGSA,A,3,01,04,07,08,10,13,27,28,30,,,,0.9,0.7,0.4*2C
$GLGSA,A,3,,,,,,,,,,,,,0.9,0.7,0.4*24
$GPGSV,3,1,12,01,65,069,45,24,00,000,20,07,44,182,45,08,17,055,37*77
$GPGSV,3,2,12,11,55,041,45,17,34,271,38,18,40,047,43,22,21,106,42*7A
$GPGSV,3,3,12,28,46,330,44,30,63,237,46,03,16,129,00,13,06,292,00*73
$BDGSV,3,1,11,01,40,125,41,04,23,109,40,07,65,099,43,08,81,172,43*64
$BDGSV,3,2,11,10,77,005,44,13,54,207,43,27,65,007,46,28,18,046,39*64
$BDGSV,3,3,11,30,43,258,44,02,46,219,00,05,27,245,00*5A
$B3CN0,0,0,0,0,0,0,0,0,0,0,0,0,0,0*4C
$ini_pos,lastpos_good = 1,ini_pos.x:-1578908.373106,ini_pos.y:5312767.745672,ini_pos.z:3146354.743829
$rtc_local_time,localRTC.weeks:2052,localRTC.seconds:371075.415692,localGtime.weeks:2052,localGtime.seconds:371076.000000
i = 0
$pseudo_cd_ph,prn:1,pseudo_cd_ph:371075931.931840
$meas,msRange:68.063082,x:-13402892.149835,y:17040955.805670,z:14936149.674530,vx:154.317139,vy:-1942.720337,vz:2358.367676,tb:-0.000012
i = 1
$pseudo_cd_ph,prn:7,pseudo_cd_ph:371075928.537618
$meas,msRange:71.448903,x:-6847155.911963,y:25212422.974757,z:-2774700.149805,vx:-258.655304,vy:-445.370117,vz:-3169.703613,tb:-0.000021
i = 2
$pseudo_cd_ph,prn:8,pseudo_cd_ph:371075919.660882
$meas,msRange:80.203301,x:-19696042.547706,y:-233203.419957,z:17949847.472004,vx:-1667.014038,vy:-1534.762573,vz:-1832.388794,tb:-0.000143
i = 3
$pseudo_cd_ph,prn:11,pseudo_cd_ph:371075930.249996
$meas,msRange:69.146620,x:-11992410.330327,y:13056944.481076,z:19311283.261729,vx:-834.383606,vy:-2448.056641,vz:1082.292725,tb:-0.000610
i = 4
$pseudo_cd_ph,prn:17,pseudo_cd_ph:371075924.704842
$meas,msRange:75.353895,x:13034346.625729,y:21183970.172592,z:9846250.901937,vx:-981.333313,vy:-687.019958,vz:2888.597656,tb:0.000052
i = 5
$pseudo_cd_ph,prn:18,pseudo_cd_ph:371075927.989626
$meas,msRange:72.069041,x:-15134204.616289,y:8126048.864771,z:19733962.908339,vx:198.538223,vy:-2615.952881,vz:1213.378784,tb:0.000052
i = 6
$pseudo_cd_ph,prn:22,pseudo_cd_ph:371075920.787220
$meas,msRange:78.521883,x:-24714128.817572,y:9475448.784598,z:1889681.743167,vx:35.555447,vy:-445.737762,vz:3091.016357,tb:-0.000698
i = 7
$pseudo_cd_ph,prn:28,pseudo_cd_ph:371075927.138508
$meas,msRange:73.636197,x:3522780.992761,y:14612761.318519,z:22506455.698316,vx:-2614.953857,vy:691.871887,vz:-31.842173,tb:0.000768
i = 8
$pseudo_cd_ph,prn:30,pseudo_cd_ph:371075931.224771
$meas,msRange:68.681019,x:466785.602646,y:25186613.449056,z:8125832.096482,vx:-549.845337,vy:940.518555,vz:-2909.651855,tb:-0.000101
i = 9
i = 10
i = 11
i = 12
i = 13
i = 14
i = 15
i = 16
i = 17
i = 18
i = 19
i = 20
i = 21
Refix G01: 2, 371075.931932, -301
Refix G03: 2, 371075.920053, -3561
Refix G07: 2, 371075.928538, 1640
Refix G08: 2, 371075.919661, 1407
Refix G11: 2, 371075.930250, 707
Refix G13: 2, 371075.916418, -536
Refix G17: 2, 371075.924705, -2494
Refix G18: 2, 371075.927990, 1326
Refix G19: 1, 371075.919410, -3657
Refix G22: 2, 371075.920787, -2589
Refix G28: 2, 371075.927139, -2915
Refix G30: 2, 371075.931225, -338
$GNGGA,070418.000,2944.9077,N,10633.0895,E,1,18,0.7,320.9,M,,,,0000*1C
$GNRMC,070418.000,A,2944.9077,N,10633.0895,E,0.06,0.00,090519,,*14
$GPGSA,A,3,01,07,08,11,17,18,22,28,30,,,,0.9,0.7,0.4*30
$BDGSA,A,3,01,04,07,08,10,13,27,28,30,,,,0.9,0.7,0.4*2C
$GLGSA,A,3,,,,,,,,,,,,,0.9,0.7,0.4*24
$GPGSV,3,1,12,01,65,069,45,24,00,000,16,07,44,182,44,08,17,055,37*73
$GPGSV,3,2,12,11,55,041,45,17,34,271,39,18,40,047,42,22,21,106,42*7A
$GPGSV,3,3,12,28,46,330,44,30,63,237,46,03,16,129,00,13,06,292,00*73
$BDGSV,3,1,11,01,40,125,41,02,46,219,19,04,23,109,41,07,65,099,43*65
$BDGSV,3,2,11,08,81,172,42,10,77,005,44,13,54,207,43,27,65,007,45*6F
$BDGSV,3,3,11,28,18,046,40,30,43,258,44,05,27,245,00*55
$B3CN0,0,0,0,0,0,0,0,0,0,0,0,0,0,0*4C
$ini_pos,lastpos_good = 1,ini_pos.x:-1578908.651376,ini_pos.y:5312768.429895,ini_pos.z:3146355.038270
$rtc_local_time,localRTC.weeks:2052,localRTC.seconds:371076.415692,localGtime.weeks:2052,localGtime.seconds:371077.000000
i = 0
$pseudo_cd_ph,prn:1,pseudo_cd_ph:371076931.931996
$meas,msRange:68.063603,x:-13402737.863631,y:17039012.933345,z:14938507.878883,vx:154.255264,vy:-1943.024414,vz:2358.041260,tb:-0.000012
i = 1
$pseudo_cd_ph,prn:7,pseudo_cd_ph:371076928.536541
$meas,msRange:71.450655,x:-6847414.542698,y:25211977.413435,z:-2777869.822793,vx:-258.606201,vy:-445.752563,vz:-3169.642578,tb:-0.000021
i = 2
$pseudo_cd_ph,prn:8,pseudo_cd_ph:371076919.659962
$meas,msRange:80.204908,x:-19697709.518532,y:-234738.059115,z:17948014.894200,vx:-1666.927734,vy:-1534.515747,vz:-1832.766846,tb:-0.000143
i = 3
$pseudo_cd_ph,prn:11,pseudo_cd_ph:371076930.249510
$meas,msRange:69.147781,x:-11993244.791680,y:13054496.375701,z:19312365.340727,vx:-834.539124,vy:-2448.154297,vz:1081.865356,tb:-0.000610
i = 4
$pseudo_cd_ph,prn:17,pseudo_cd_ph:371076924.706393
$meas,msRange:75.353024,x:13033365.141318,y:21183283.060014,z:9849139.396958,vx:-981.635620,vy:-687.205261,vz:2888.392578,tb:0.000052
i = 5
$pseudo_cd_ph,prn:18,pseudo_cd_ph:371076927.988748
$meas,msRange:72.070595,x:-15134006.140685,y:8123432.828652,z:19735176.067432,vx:198.412994,vy:-2616.119385,vz:1212.939453,tb:0.000052
i = 6
$pseudo_cd_ph,prn:22,pseudo_cd_ph:371076920.788829
$meas,msRange:78.520952,x:-24714093.096707,y:9475002.968362,z:1892772.739188,vx:35.886280,vy:-445.894745,vz:3090.975830,tb:-0.000698
i = 7
$pseudo_cd_ph,prn:28,pseudo_cd_ph:371076927.140324
$meas,msRange:73.635058,x:3520166.063527,y:14613453.273064,z:22506423.629889,vx:-2614.904785,vy:692.037231,vz:-32.294685,tb:0.000768
i = 8
$pseudo_cd_ph,prn:30,pseudo_cd_ph:371076931.224951
$meas,msRange:68.681516,x:466235.822139,y:25187553.803917,z:8122922.357292,vx:-549.715759,vy:940.191223,vz:-2909.826660,tb:-0.000101
i = 9
i = 10
i = 11
i = 12
i = 13
i = 14
i = 15
i = 16
i = 17
i = 18
i = 19
i = 20
i = 21
Refix G01: 2, 371076.931932, -286
Refix G03: 2, 371076.920055, -3550
Refix G07: 2, 371076.928537, 1653
Refix G08: 2, 371076.919660, 1419
Refix G11: 2, 371076.930250, 721
Refix G13: 2, 371076.916419, -527
Refix G17: 2, 371076.924706, -2483
Refix G18: 2, 371076.927989, 1340
Refix G19: 1, 371076.919412, -3648
Refix G22: 2, 371076.920789, -2577
Refix G28: 2, 371076.927140, -2902
Refix G30: 2, 371076.931225, -324
$GNGGA,070419.000,2944.9076,N,10633.0896,E,1,18,0.7,321.5,M,,,,0000*12
$GNRMC,070419.000,A,2944.9076,N,10633.0896,E,0.44,0.00,090519,,*11
$GPGSA,A,3,01,07,08,11,17,18,22,28,30,,,,0.9,0.7,0.4*30
$BDGSA,A,3,01,04,07,08,10,13,27,28,30,,,,0.9,0.7,0.4*2C
$GLGSA,A,3,,,,,,,,,,,,,0.9,0.7,0.4*24
$GPGSV,3,1,12,01,65,069,45,07,44,182,45,08,17,055,37,11,55,041,45*77
$GPGSV,3,2,12,17,34,271,39,18,40,047,43,22,21,106,42,28,46,330,44*77
$GPGSV,3,3,12,30,63,237,46,03,16,129,00,13,06,292,00,19,14,256,00*77
$BDGSV,3,1,12,01,40,125,42,03,00,000,20,04,23,109,40,07,65,099,43*67
$BDGSV,3,2,12,08,81,172,42,10,77,005,44,13,54,207,43,27,65,007,45*6C
$BDGSV,3,3,12,28,18,046,39,30,43,258,44,02,46,219,00,05,27,245,00*62
$B3CN0,19,0,0,0,0,0,0,0,0,0,0,0,0,0*74
$ini_pos,lastpos_good = 1,ini_pos.x:-1578908.881914,ini_pos.y:5312769.065456,ini_pos.z:3146355.086423
$rtc_local_time,localRTC.weeks:2052,localRTC.seconds:371077.415692,localGtime.weeks:2052,localGtime.seconds:371078.000000
i = 0
$pseudo_cd_ph,prn:1,pseudo_cd_ph:371077931.932154
$meas,msRange:68.064124,x:-13402583.639327,y:17037069.756961,z:14940865.756883,vx:154.193344,vy:-1943.328491,vz:2357.714844,tb:-0.000012
i = 1
$pseudo_cd_ph,prn:7,pseudo_cd_ph:371077928.535466
$meas,msRange:71.452408,x:-6847673.124336,y:25211531.469682,z:-2781039.434701,vx:-258.557129,vy:-446.134979,vz:-3169.581543,tb:-0.000021
i = 2
$pseudo_cd_ph,prn:8,pseudo_cd_ph:371077919.659041
$meas,msRange:80.206515,x:-19699376.403095,y:-236272.451464,z:17946181.938367,vx:-1666.841431,vy:-1534.269043,vz:-1833.144897,tb:-0.000143
i = 3
$pseudo_cd_ph,prn:11,pseudo_cd_ph:371077930.249028
$meas,msRange:69.148943,x:-11994079.408543,y:13052048.172672,z:19313446.992421,vx:-834.694641,vy:-2448.251953,vz:1081.438110,tb:-0.000610
i = 4
$pseudo_cd_ph,prn:17,pseudo_cd_ph:371077924.707944
$meas,msRange:75.352154,x:13032383.354596,y:21182595.762147,z:9852027.686857,vx:-981.937927,vy:-687.390503,vz:2888.187500,tb:0.000052
i = 5
$pseudo_cd_ph,prn:18,pseudo_cd_ph:371077927.987871
$meas,msRange:72.072150,x:-15133807.790316,y:8120816.626025,z:19736388.787268,vx:198.287750,vy:-2616.285889,vz:1212.500244,tb:0.000052
i = 6
$pseudo_cd_ph,prn:22,pseudo_cd_ph:371077920.790438
$meas,msRange:78.520021,x:-24714057.045023,y:9474556.995134,z:1895863.694822,vx:36.217087,vy:-446.051758,vz:3090.935547,tb:-0.000698
i = 7
$pseudo_cd_ph,prn:28,pseudo_cd_ph:371077927.142141
$meas,msRange:73.633921,x:3517551.183173,y:14614145.392921,z:22506391.108951,vx:-2614.855957,vy:692.202515,vz:-32.747196,tb:0.000768
i = 8
$pseudo_cd_ph,prn:30,pseudo_cd_ph:371077931.225132
$meas,msRange:68.682013,x:465686.171205,y:25188493.831475,z:8120012.443469,vx:-549.586182,vy:939.863953,vz:-2910.001221,tb:-0.000101
i = 9
i = 10
i = 11
i = 12
i = 13
i = 14
i = 15
i = 16
i = 17
i = 18
i = 19
i = 20
i = 21
Refix G01: 2, 371077.931932, -301
Refix G03: 2, 371077.920057, -3563
Refix G07: 2, 371077.928535, 1638
Refix G08: 2, 371077.919659, 1406
Refix G11: 2, 371077.930249, 706
Refix G13: 2, 371077.916419, -535
Refix G17: 2, 371077.924708, -2495
Refix G18: 2, 371077.927988, 1325
Refix G19: 1, 371077.919414, -3658
Refix G22: 2, 371077.920790, -2590
Refix G28: 2, 371077.927142, -2916
Refix G30: 2, 371077.931225, -338
$GNGGA,070420.000,2944.9075,N,10633.0896,E,1,18,0.7,321.4,M,,,,0000*1A
$GNRMC,070420.000,A,2944.9075,N,10633.0896,E,0.32,0.00,090519,,*19
$GPGSA,A,3,01,07,08,11,17,18,22,28,30,,,,0.9,0.7,0.4*30
$BDGSA,A,3,01,04,07,08,10,13,27,28,30,,,,0.9,0.7,0.4*2C
$GLGSA,A,3,,,,,,,,,,,,,0.9,0.7,0.4*24
$GPGSV,3,1,12,01,65,069,45,07,44,182,45,08,17,055,37,11,55,041,44*76
$GPGSV,3,2,12,17,34,271,39,18,40,047,42,22,21,106,41,28,46,330,44*75
$GPGSV,3,3,12,30,63,237,46,03,16,129,00,13,06,292,00,19,14,256,00*77
$BDGSV,3,1,11,01,40,125,40,04,23,109,40,07,65,099,43,08,81,172,42*64
$BDGSV,3,2,11,10,77,005,43,13,54,207,43,27,65,007,45,28,18,046,39*60
$BDGSV,3,3,11,30,43,258,44,02,46,219,00,05,27,245,00*5A
$B3CN0,0,0,0,0,0,0,0,0,0,0,0,0,0,0*4C
$ini_pos,lastpos_good = 1,ini_pos.x:-1578908.876191,ini_pos.y:5312769.027232,ini_pos.z:3146354.843626
$rtc_local_time,localRTC.weeks:2052,localRTC.seconds:371078.415692,localGtime.weeks:2052,localGtime.seconds:371079.000000
i = 0
$pseudo_cd_ph,prn:1,pseudo_cd_ph:371078931.932317
$meas,msRange:68.064648,x:-13402429.476968,y:17035126.276558,z:14943223.308480,vx:154.131378,vy:-1943.632446,vz:2357.388428,tb:-0.000012
i = 1
$pseudo_cd_ph,prn:7,pseudo_cd_ph:371078928.534397
$meas,msRange:71.454164,x:-6847931.656929,y:25211085.143499,z:-2784208.985461,vx:-258.508087,vy:-446.517426,vz:-3169.520264,tb:-0.000021
i = 2
$pseudo_cd_ph,prn:8,pseudo_cd_ph:371078919.658127
$meas,msRange:80.208123,x:-19701043.201332,y:-237806.596995,z:17944348.604543,vx:-1666.755127,vy:-1534.022217,vz:-1833.522827,tb:-0.000143
i = 3
$pseudo_cd_ph,prn:11,pseudo_cd_ph:371078930.248553
$meas,msRange:69.150107,x:-11994914.180915,y:13049599.872051,z:19314528.216787,vx:-834.850159,vy:-2448.349365,vz:1081.010742,tb:-0.000610
i = 4
$pseudo_cd_ph,prn:17,pseudo_cd_ph:371078924.709500
$meas,msRange:75.351285,x:13031401.265551,y:21181908.279050,z:9854915.771572,vx:-982.240234,vy:-687.575745,vz:2887.982178,tb:0.000052
i = 5
$pseudo_cd_ph,prn:18,pseudo_cd_ph:371078927.987002
$meas,msRange:72.073707,x:-15133609.565209,y:8118200.256950,z:19737601.067817,vx:198.162476,vy:-2616.452393,vz:1212.060913,tb:0.000052
i = 6
$pseudo_cd_ph,prn:22,pseudo_cd_ph:371078920.792058
$meas,msRange:78.519092,x:-24714020.662545,y:9474110.864874,z:1898954.610003,vx:36.547867,vy:-446.208801,vz:3090.895020,tb:-0.000698
i = 7
$pseudo_cd_ph,prn:28,pseudo_cd_ph:371078927.143966
$meas,msRange:73.632785,x:3514936.351764,y:14614837.678071,z:22506358.135503,vx:-2614.806885,vy:692.367798,vz:-33.199703,tb:0.000768
i = 8
$pseudo_cd_ph,prn:30,pseudo_cd_ph:371078931.225318
$meas,msRange:68.682513,x:465136.649806,y:25189433.531696,z:8117102.355073,vx:-549.456665,vy:939.536560,vz:-2910.175781,tb:-0.000101
i = 9
i = 10
i = 11
i = 12
i = 13
i = 14
i = 15
i = 16
i = 17
i = 18
i = 19
i = 20
i = 21
Refix G01: 2, 371078.931932, -306
Refix G03: 2, 371078.920059, -3567
Refix G07: 2, 371078.928534, 1635
Refix G08: 2, 371078.919658, 1401
Refix G11: 2, 371078.930249, 701
Refix G13: 2, 371078.916419, -539
Refix G17: 2, 371078.924709, -2499
Refix G18: 2, 371078.927987, 1321
Refix G19: 1, 371078.919416, -3661
Refix G22: 2, 371078.920792, -2594
Refix G28: 2, 371078.927144, -2920
Refix G30: 2, 371078.931225, -342
$GNGGA,070421.000,2944.9074,N,10633.0897,E,1,18,0.7,322.1,M,,,,0000*1D
$GNRMC,070421.000,A,2944.9074,N,10633.0897,E,0.40,0.00,090519,,*1D
$GPGSA,A,3,01,07,08,11,17,18,22,28,30,,,,0.9,0.7,0.4*30
$BDGSA,A,3,01,04,07,08,10,13,27,28,30,,,,0.9,0.7,0.4*2C
$GLGSA,A,3,,,,,,,,,,,,,0.9,0.7,0.4*24
$GPGSV,3,1,12,01,65,069,45,07,44,182,44,08,17,055,36,11,55,041,44*76
$GPGSV,3,2,12,17,34,271,38,18,40,047,43,22,21,106,42,28,46,330,44*76
$GPGSV,3,3,12,30,63,237,45,03,16,129,00,13,06,292,00,19,14,256,00*74
$BDGSV,3,1,11,01,40,125,41,04,23,109,39,07,65,099,43,08,81,172,42*6B
$BDGSV,3,2,11,10,77,005,43,13,54,207,43,27,65,007,45,28,18,046,39*60
$BDGSV,3,3,11,30,43,258,44,02,46,219,00,05,27,245,00*5A
$B3CN0,36,0,0,0,0,0,0,0,0,0,0,0,0,0*79
$ini_pos,lastpos_good = 1,ini_pos.x:-1578909.319482,ini_pos.y:5312769.595514,ini_pos.z:3146355.079921
$rtc_local_time,localRTC.weeks:2052,localRTC.seconds:371079.415692,localGtime.weeks:2052,localGtime.seconds:371079.999999
i = 0
$pseudo_cd_ph,prn:1,pseudo_cd_ph:371079931.932482
$meas,msRange:68.065169,x:-13402275.376602,y:17033182.492178,z:14945580.533620,vx:154.069366,vy:-1943.936401,vz:2357.062012,tb:-0.000012
i = 1
$pseudo_cd_ph,prn:7,pseudo_cd_ph:371079928.533329
$meas,msRange:71.455918,x:-6848190.140527,y:25210638.434883,z:-2787378.475003,vx:-258.459137,vy:-446.899841,vz:-3169.458984,tb:-0.000021
i = 2
$pseudo_cd_ph,prn:8,pseudo_cd_ph:371079919.657205
$meas,msRange:80.209729,x:-19702709.913181,y:-239340.495695,z:17942514.892768,vx:-1666.668701,vy:-1533.775391,vz:-1833.900757,tb:-0.000143
i = 3
$pseudo_cd_ph,prn:11,pseudo_cd_ph:371079930.248078
$meas,msRange:69.151268,x:-11995749.108796,y:13047151.473902,z:19315609.013798,vx:-835.005676,vy:-2448.447021,vz:1080.583374,tb:-0.000610
i = 4
$pseudo_cd_ph,prn:17,pseudo_cd_ph:371079924.711055
$meas,msRange:75.350415,x:13030418.874173,y:21181220.610778,z:9857803.651046,vx:-982.542603,vy:-687.760864,vz:2887.776855,tb:0.000052
i = 5
$pseudo_cd_ph,prn:18,pseudo_cd_ph:371079927.986132
$meas,msRange:72.075262,x:-15133411.465393,y:8115583.721491,z:19738812.909053,vx:198.037170,vy:-2616.618652,vz:1211.621582,tb:0.000052
i = 6
$pseudo_cd_ph,prn:22,pseudo_cd_ph:371079920.793678
$meas,msRange:78.518161,x:-24713983.949298,y:9473664.577540,z:1902045.484666,vx:36.878624,vy:-446.365906,vz:3090.854492,tb:-0.000698
i = 7
$pseudo_cd_ph,prn:28,pseudo_cd_ph:371079927.145794
$meas,msRange:73.631647,x:3512321.569360,y:14615530.128498,z:22506324.709547,vx:-2614.758057,vy:692.533081,vz:-33.652214,tb:0.000768
i = 8
$pseudo_cd_ph,prn:30,pseudo_cd_ph:371079931.225507
$meas,msRange:68.683011,x:464587.257901,y:25190372.904544,z:8114192.092167,vx:-549.327209,vy:939.209167,vz:-2910.350342,tb:-0.000101
i = 9
i = 10
i = 11
i = 12
i = 13
i = 14
i = 15
i = 16
i = 17
i = 18
i = 19
i = 20
i = 21
Refix G01: 2, 371079.931932, -305
Refix G03: 2, 371079.920061, -3568
Refix G07: 2, 371079.928533, 1634
Refix G08: 2, 371079.919657, 1400
Refix G11: 2, 371079.930248, 701
Refix G13: 2, 371079.916420, -540
Refix G17: 2, 371079.924711, -2500
Refix G18: 2, 371079.927986, 1321
Refix G19: 1, 371079.919419, -3663
Refix G22: 2, 371079.920794, -2595
Refix G28: 2, 371079.927146, -2922
Refix G30: 2, 371079.931226, -343
$GNGGA,070422.000,2944.9074,N,10633.0898,E,1,18,0.7,322.6,M,,,,0000*16
$GNRMC,070422.000,A,2944.9074,N,10633.0898,E,0.12,0.00,090519,,*16
$GPGSA,A,3,01,07,08,11,17,18,22,28,30,,,,0.9,0.7,0.4*30
$BDGSA,A,3,01,04,07,08,10,13,27,28,30,,,,0.9,0.7,0.4*2C
$GLGSA,A,3,,,,,,,,,,,,,0.9,0.7,0.4*24
$GPGSV,3,1,12,01,65,069,45,07,44,182,45,08,17,055,36,11,55,041,44*77
$GPGSV,3,2,12,17,34,271,39,18,40,047,43,22,21,106,41,28,46,330,44*74
$GPGSV,3,3,12,30,63,237,45,03,16,129,00,13,06,292,00,19,14,256,00*74
$BDGSV,3,1,12,01,40,125,41,03,00,000,25,04,23,109,40,07,65,099,42*60
$BDGSV,3,2,12,08,81,172,43,10,77,005,43,13,54,207,43,27,65,007,45*6A
$BDGSV,3,3,12,28,18,046,39,30,43,258,44,02,46,219,00,05,27,245,00*62
$B3CN0,0,0,0,0,0,0,0,0,0,0,0,0,0,0*4C
$ini_pos,lastpos_good = 1,ini_pos.x:-1578909.605969,ini_pos.y:5312769.978182,ini_pos.z:3146355.336223
$rtc_local_time,localRTC.weeks:2052,localRTC.seconds:371080.415692,localGtime.weeks:2052,localGtime.seconds:371080.999999
i = 0
$pseudo_cd_ph,prn:1,pseudo_cd_ph:371080931.932644
$meas,msRange:68.065692,x:-13402121.338275,y:17031238.403863,z:14947937.432253,vx:154.007294,vy:-1944.240356,vz:2356.735352,tb:-0.000012
i = 1
$pseudo_cd_ph,prn:7,pseudo_cd_ph:371080928.532259
$meas,msRange:71.457672,x:-6848448.575182,y:25210191.343833,z:-2790547.903255,vx:-258.410217,vy:-447.282288,vz:-3169.397705,tb:-0.000021
i = 2
$pseudo_cd_ph,prn:8,pseudo_cd_ph:371080919.656277
$meas,msRange:80.211336,x:-19704376.538581,y:-240874.147552,z:17940680.803081,vx:-1666.582153,vy:-1533.528442,vz:-1834.278687,tb:-0.000143
i = 3
$pseudo_cd_ph,prn:11,pseudo_cd_ph:371080930.247602
$meas,msRange:69.152431,x:-11996584.192183,y:13044702.978286,z:19316689.383429,vx:-835.161194,vy:-2448.544434,vz:1080.156006,tb:-0.000610
i = 4
$pseudo_cd_ph,prn:17,pseudo_cd_ph:371080924.712609
$meas,msRange:75.349545,x:13029436.180452,y:21180532.757389,z:9860691.325218,vx:-982.844910,vy:-687.945923,vz:2887.571533,tb:0.000052
i = 5
$pseudo_cd_ph,prn:18,pseudo_cd_ph:371080927.985261
$meas,msRange:72.076818,x:-15133213.490893,y:8112967.019709,z:19740024.310948,vx:197.911835,vy:-2616.784912,vz:1211.182251,tb:0.000052
i = 6
$pseudo_cd_ph,prn:22,pseudo_cd_ph:371080920.795292
$meas,msRange:78.517231,x:-24713946.905308,y:9473218.133093,z:1905136.318745,vx:37.209354,vy:-446.523041,vz:3090.813965,tb:-0.000698
i = 7
$pseudo_cd_ph,prn:28,pseudo_cd_ph:371080927.147618
$meas,msRange:73.630510,x:3509706.836026,y:14616222.744184,z:22506290.831083,vx:-2614.708984,vy:692.698303,vz:-34.104721,tb:0.000768
i = 8
$pseudo_cd_ph,prn:30,pseudo_cd_ph:371080931.225693
$meas,msRange:68.683511,x:464037.995453,y:25191311.949985,z:8111281.654814,vx:-549.197754,vy:938.881775,vz:-2910.524658,tb:-0.000101
i = 9
i = 10
i = 11
i = 12
i = 13
i = 14
i = 15
i = 16
i = 17
i = 18
i = 19
i = 20
i = 21
Refix G01: 2, 371080.931933, -305
Refix G03: 2, 371080.920064, -3568
Refix G07: 2, 371080.928532, 1634
Refix G08: 2, 371080.919656, 1400
Refix G11: 2, 371080.930248, 701
Refix G13: 2, 371080.916420, -541
Refix G17: 2, 371080.924713, -2501
Refix G18: 2, 371080.927985, 1321
Refix G19: 1, 371080.919421, -3664
Refix G22: 2, 371080.920795, -2595
Refix G28: 2, 371080.927148, -2922
Refix G30: 2, 371080.931226, -343
$GNGGA,070423.000,2944.9074,N,10633.0899,E,1,18,0.7,323.1,M,,,,0000*10
$GNRMC,070423.000,A,2944.9074,N,10633.0899,E,0.05,0.00,090519,,*10
$GPGSA,A,3,01,07,08,11,17,18,22,28,30,,,,0.9,0.7,0.4*30
$BDGSA,A,3,01,04,07,08,10,13,27,28,30,,,,0.9,0.7,0.4*2C
$GLGSA,A,3,,,,,,,,,,,,,0.9,0.7,0.4*24
$GPGSV,3,1,12,01,65,069,45,07,44,182,45,08,17,055,36,11,55,041,44*77
$GPGSV,3,2,12,17,34,271,39,18,40,047,42,22,21,106,41,28,46,330,43*72
$GPGSV,3,3,12,30,63,237,45,03,16,129,00,13,06,292,00,19,14,256,00*74
$BDGSV,3,1,12,01,40,125,41,02,46,219,20,04,23,109,41,07,65,099,43*6C
$BDGSV,3,2,12,08,81,172,43,10,77,005,43,13,54,207,43,27,65,007,45*6A
$BDGSV,3,3,12,28,18,046,39,30,43,258,45,05,27,245,00,09,03,200,00*61
$B3CN0,0,0,0,0,0,0,0,0,0,0,0,0,0,0*4C
$ini_pos,lastpos_good = 1,ini_pos.x:-1578909.783506,ini_pos.y:5312770.321804,ini_pos.z:3146355.587884
$rtc_local_time,localRTC.weeks:2052,localRTC.seconds:371081.415692,localGtime.weeks:2052,localGtime.seconds:371081.999999
i = 0
$pseudo_cd_ph,prn:1,pseudo_cd_ph:371081931.932808
$meas,msRange:68.066215,x:-13401967.362035,y:17029294.011654,z:14950294.004327,vx:153.945190,vy:-1944.544189,vz:2356.408936,tb:-0.000012
i = 1
$pseudo_cd_ph,prn:7,pseudo_cd_ph:371081928.531191
$meas,msRange:71.459428,x:-6848706.960945,y:25209743.870348,z:-2793717.270149,vx:-258.361328,vy:-447.664703,vz:-3169.336182,tb:-0.000021
i = 2
$pseudo_cd_ph,prn:8,pseudo_cd_ph:371081919.655349
$meas,msRange:80.212942,x:-19706043.077470,y:-242407.552556,z:17938846.335520,vx:-1666.495605,vy:-1533.281616,vz:-1834.656494,tb:-0.000143
i = 3
$pseudo_cd_ph,prn:11,pseudo_cd_ph:371081930.247126
$meas,msRange:69.153594,x:-11997419.431077,y:13042254.385267,z:19317769.325653,vx:-835.316650,vy:-2448.641846,vz:1079.728516,tb:-0.000610
i = 4
$pseudo_cd_ph,prn:17,pseudo_cd_ph:371081924.714165
$meas,msRange:75.348675,x:13028453.184376,y:21179844.718939,z:9863578.794030,vx:-983.147278,vy:-688.130981,vz:2887.366211,tb:0.000052
i = 5
$pseudo_cd_ph,prn:18,pseudo_cd_ph:371081927.984393
$meas,msRange:72.078374,x:-15133015.641736,y:8110350.151667,z:19741235.273475,vx:197.786484,vy:-2616.951172,vz:1210.742920,tb:0.000052
i = 6
$pseudo_cd_ph,prn:22,pseudo_cd_ph:371081920.796908
$meas,msRange:78.516301,x:-24713909.530599,y:9472771.531491,z:1908227.112174,vx:37.540062,vy:-446.680206,vz:3090.773193,tb:-0.000698
i = 7
$pseudo_cd_ph,prn:28,pseudo_cd_ph:371081927.149445
$meas,msRange:73.629372,x:3507092.151823,y:14616915.525114,z:22506256.500112,vx:-2614.659668,vy:692.863586,vz:-34.557224,tb:0.000768
i = 8
$pseudo_cd_ph,prn:30,pseudo_cd_ph:371081931.225880
$meas,msRange:68.684010,x:463488.862422,y:25192250.667985,z:8108371.043076,vx:-549.068359,vy:938.554321,vz:-2910.698975,tb:-0.000101
i = 9
i = 10
i = 11
i = 12
i = 13
i = 14
i = 15
i = 16
i = 17
i = 18
i = 19
i = 20
i = 21
Refix G01: 2, 371081.931933, -300
Refix G03: 2, 371081.920066, -3566
Refix G07: 2, 371081.928531, 1638
Refix G08: 2, 371081.919655, 1402
Refix G11: 2, 371081.930247, 706
Refix G13: 2, 371081.916420, -539
Refix G17: 2, 371081.924714, -2497
Refix G18: 2, 371081.927984, 1325
Refix G19: 1, 371081.919423, -3661
Refix G22: 2, 371081.920797, -2592
Refix G28: 2, 371081.927149, -2918
Refix G30: 2, 371081.931226, -338
$GNGGA,070424.000,2944.9075,N,10633.0899,E,1,18,0.7,323.3,M,,,,0000*14
$GNRMC,070424.000,A,2944.9075,N,10633.0899,E,0.01,0.00,090519,,*12
$GPGSA,A,3,01,07,08,11,17,18,22,28,30,,,,0.9,0.7,0.4*30
$BDGSA,A,3,01,04,07,08,10,13,27,28,30,,,,0.9,0.7,0.4*2C
$GLGSA,A,3,,,,,,,,,,,,,0.9,0.7,0.4*24
$GPGSV,3,1,12,01,65,069,45,07,44,182,44,08,17,055,37,11,55,041,44*77
$GPGSV,3,2,12,17,34,271,39,18,40,047,42,22,21,106,41,28,46,330,44*75
$GPGSV,3,3,12,30,63,237,45,03,16,129,00,13,06,292,00,19,14,256,00*74
$BDGSV,3,1,12,01,40,125,41,04,23,109,40,07,65,099,43,08,81,172,43*67
$BDGSV,3,2,12,10,77,005,43,13,54,207,43,27,65,007,45,28,18,046,39*63
$BDGSV,3,3,12,30,43,258,44,02,46,219,00,05,27,245,00,09,03,200,00*61
$B3CN0,17,0,0,0,0,0,0,0,0,0,0,0,0,0*7A
$ini_pos,lastpos_good = 1,ini_pos.x:-1578909.899533,ini_pos.y:5312770.416256,ini_pos.z:3146355.777631
$rtc_local_time,localRTC.weeks:2052,localRTC.seconds:371082.415692,localGtime.weeks:2052,localGtime.seconds:371082.999999
i = 0
$pseudo_cd_ph,prn:1,pseudo_cd_ph:371082931.932967
$meas,msRange:68.066739,x:-13401813.447929,y:17027349.315591,z:14952650.249791,vx:153.883026,vy:-1944.848022,vz:2356.082275,tb:-0.000012
i = 1
$pseudo_cd_ph,prn:7,pseudo_cd_ph:371082928.530119
$meas,msRange:71.461184,x:-6848965.297866,y:25209296.014426,z:-2796886.575615,vx:-258.312531,vy:-448.047150,vz:-3169.274902,tb:-0.000021
i = 2
$pseudo_cd_ph,prn:8,pseudo_cd_ph:371082919.654420
