SD initialized success
Create debug.log Failed! 3
bbram_blkflag = 1
rtcflag = 0
BBRAM Block OK: 01 EPHflag: 28230465 a40012cf, rtc 00
Hot-start nowtime:day = 9,minute = 1,seconds = 33.00
GPS 0 Init Dop:  1810, 2
GPS 1 Init Dop: 10000,80
GPS 2 Init Dop: -2370, 2
GPS 3 Init Dop: 10000,80
GPS 4 Init Dop: 10000,80
GPS 5 Init Dop: -4199, 2
GPS 6 Init Dop:  2735, 2
GPS 7 Init Dop: 10000,80
GPS 8 Init Dop: 10000,80
GPS 9 Init Dop: 10000,80
GPS10 Init Dop:  1932, 2
GPS11 Init Dop: 10000,80
GPS12 Init Dop: 10000,80
GPS13 Init Dop: 10000,80
GPS14 Init Dop: 10000,80
GPS15 Init Dop: 10000,80
GPS16 Init Dop: -1674, 2
GPS17 Init Dop:  2661, 2
GPS18 Init Dop: 10000,80
GPS19 Init Dop: 10000,80
GPS20 Init Dop: 10000,80
GPS21 Init Dop:  -828, 2
GPS22 Init Dop: 10000,80
GPS23 Init Dop: 10000,80
GPS24 Init Dop: 10000,80
GPS25 Init Dop: 10000,80
GPS26 Init Dop: 10000,80
GPS27 Init Dop: -2162, 2
GPS28 Init Dop: 10000,80
GPS29 Init Dop:  1724, 2
GPS30 Init Dop: 10000,80
GPS31 Init Dop: 10000,80
BDS 0 Init Dop:  -865, 2
BDS 1 Init Dop:  -922, 2
BDS 2 Init Dop:  -884, 2
BDS 3 Init Dop:  -884, 2
BDS 4 Init Dop: 10000,80
BDS 5 Init Dop: 10000,80
BDS 6 Init Dop:  -571, 2
BDS 7 Init Dop:  -695, 2
BDS 8 Init Dop: 10000,80
BDS 9 Init Dop: -1036, 2
BDS10 Init Dop: 10000,80
BDS11 Init Dop: 10000,80
BDS12 Init Dop: -1206, 2
BDS13 Init Dop: 10000,80
BDS14 Init Dop: 10000,80
BDS15 Init Dop: 10000,80
BDS16 Init Dop: 10000,80
BDS17 Init Dop: 10000,80
BDS18 Init Dop: 10000,80
BDS19 Init Dop: 10000,80
BDS20 Init Dop: 10000,80
BDS21 Init Dop: 10000,80
BDS22 Init Dop: 10000,80
BDS23 Init Dop: 10000,80
BDS24 Init Dop: 10000,80
BDS25 Init Dop: 10000,80
BDS26 Init Dop:   755, 2
BDS27 Init Dop: 10000,80
BDS28 Init Dop: 10000,80
BDS29 Init Dop: -1420, 2
BDS30 Init Dop: 10000,80
BDS31 Init Dop: -3280, 2
Good luck!
$ini_pos,lastpos_good = 1,ini_pos.x:-1578916.000000,ini_pos.y:5312777.000000,ini_pos.z:3146360.000000
$rtc_local_time,localRTC.weeks:2052,localRTC.seconds:374512.026014,localGtime.weeks:0,localGtime.seconds:19.026010
$GNGGA,000000.000,,,,,0,00,,,M,,,,0000*2B
$GNRMC,000000.000,A,,,,,,,060180,,*29
$GPGSA,A,1,,,,,,,,,,,,,,,*1E
$BDGSA,A,1,,,,,,,,,,,,,,,*0F
$GLGSA,A,1,,,,,,,,,,,,,,,*02
$B3CN0,0,0,0,0,0,0,0,0,0,0,0,0,0,0*4C
$ini_pos,lastpos_good = 1,ini_pos.x:-1578916.000000,ini_pos.y:5312777.000000,ini_pos.z:3146360.000000
$rtc_local_time,localRTC.weeks:2052,localRTC.seconds:374513.026014,localGtime.weeks:2052,localGtime.seconds:374513.026014
i = 0
i = 1
$GNGGA,000000.000,,,,,0,00,,,M,,,,0000*2B
$GNRMC,000000.000,A,,,,,,,060180,,*29
$GPGSA,A,1,,,,,,,,,,,,,,,*1E
$BDGSA,A,1,,,,,,,,,,,,,,,*0F
$GLGSA,A,1,,,,,,,,,,,,,,,*02
$B3CN0,0,0,0,0,0,0,0,0,0,0,0,0,0,0*4C
$ini_pos,lastpos_good = 1,ini_pos.x:-1578916.000000,ini_pos.y:5312777.000000,ini_pos.z:3146360.000000
$rtc_local_time,localRTC.weeks:2052,localRTC.seconds:374514.026014,localGtime.weeks:2052,localGtime.seconds:374514.026014
i = 0
$pseudo_cd_ph,prn:1,pseudo_cd_ph:15.425585
$meas,msRange:72.110910,x:-13506909.723332,y:8905742.400838,z:20814562.068327,vx:-276.428894,vy:-2675.268311,vz:988.459900,tb:-0.0000121511
i = 1
$pseudo_cd_ph,prn:3,pseudo_cd_ph:12.098664
$meas,msRange:75.640360,x:-23220477.747425,y:11921741.880665,z:4624566.189829,vx:333.554626,vy:-564.173950,vz:3111.994873,tb:0.0001881321
i = 2
$pseudo_cd_ph,prn:6,pseudo_cd_ph:9.292836
$meas,msRange:78.469337,x:6988185.638113,y:24476049.852960,z:-7473230.473128,vx:-150.962173,vy:969.135864,vz:3018.213623,tb:0.0002102801
i = 3
$pseudo_cd_ph,prn:7,pseudo_cd_ph:8.853272
$meas,msRange:78.674173,x:-7786329.192777,y:21494536.206113,z:-12850970.326031,vx:-381.841278,vy:-1672.696167,vz:-2563.532715,tb:-0.0000206456
i = 4
$pseudo_cd_ph,prn:11,pseudo_cd_ph:12.530742
$meas,msRange:74.407358,x:-15705788.874293,y:4487752.670954,z:20390007.435209,vx:-1285.027832,vy:-2416.214600,vz:-471.218842,tb:-0.0006104401
i = 5
i = 6
i = 7
i = 8
$GNGGA,000000.000,,,,,0,00,,,M,,,,0000*2B
$GNRMC,000000.000,A,,,,,,,060180,,*29
$GPGSA,A,1,,,,,,,,,,,,,,,*1E
$BDGSA,A,1,,,,,,,,,,,,,,,*0F
$GLGSA,A,1,,,,,,,,,,,,,,,*02
$GPGSV,1,1,04,01,00,000,26,03,00,000,24,06,00,000,16,07,00,000,16*7C
$B3CN0,0,0,0,0,0,0,0,0,0,0,0,0,0,0*4C
tow update,374516095.424527
$ini_pos,lastpos_good = 1,ini_pos.x:-1578916.000000,ini_pos.y:5312777.000000,ini_pos.z:3146360.000000
$rtc_local_time,localRTC.weeks:2052,localRTC.seconds:374515.026014,localGtime.weeks:2052,localGtime.seconds:374516.095425
i = 0
$pseudo_cd_ph,prn:1,pseudo_cd_ph:374515895.424527
$meas,msRange:72.114470,x:-13507482.128502,y:8900205.944323,z:20816606.628431,vx:-276.777008,vy:-2675.487549,vz:987.522766,tb:-0.0000121511
i = 1
$pseudo_cd_ph,prn:3,pseudo_cd_ph:374515892.100281
$meas,msRange:75.638429,x:-23219786.862434,y:11920573.858213,z:4631005.974238,vx:334.157074,vy:-564.671448,vz:3111.790039,tb:0.0001881321
i = 2
$pseudo_cd_ph,prn:6,pseudo_cd_ph:374515889.295618
$meas,msRange:78.465002,x:6987873.297998,y:24478054.600087,z:-7466984.207078,vx:-150.901657,vy:968.369263,vz:3018.543701,tb:0.0002102800
i = 3
$pseudo_cd_ph,prn:7,pseudo_cd_ph:374515888.851645
$meas,msRange:78.678948,x:-7787119.621944,y:21491074.057404,z:-12856274.720552,vx:-382.075806,vy:-1673.327148,vz:-2562.944824,tb:-0.0000206456
i = 4
$pseudo_cd_ph,prn:11,pseudo_cd_ph:12.529627
$meas,msRange:74.411078,x:-15708448.306629,y:4482752.767683,z:20389031.313880,vx:-1285.203369,vy:-2415.984863,vz:-472.161987,tb:-0.0006104401
i = 5
$pseudo_cd_ph,prn:17,pseudo_cd_ph:14.521261
$meas,msRange:73.081318,x:7873270.191393,y:18121547.191134,z:18199768.224582,vx:-1996.307007,vy:-977.498962,vz:1870.626587,tb:0.0000518258
i = 6
$pseudo_cd_ph,prn:18,pseudo_cd_ph:8.739011
$meas,msRange:78.863701,x:-15308613.428432,y:-1406197.255428,z:21183295.303566,vx:-313.135590,vy:-2789.342529,vz:-389.007263,tb:0.0000515362
i = 7
i = 8
$pseudo_cd_ph,prn:22,pseudo_cd_ph:9.991432
$meas,msRange:76.861581,x:-22863471.234482,y:6782672.814739,z:11850737.976419,vx:958.835388,vy:-1171.973145,vz:2579.333984,tb:-0.0006978092
i = 9
$pseudo_cd_ph,prn:28,pseudo_cd_ph:18.152002
$meas,msRange:70.166456,x:-4787007.758641,y:17789288.021695,z:19775604.115140,vx:-2111.877197,vy:1084.436279,vz:-1525.222046,tb:0.0007678342
i = 10
$pseudo_cd_ph,prn:30,pseudo_cd_ph:14.878771
$meas,msRange:72.571071,x:-953301.555633,y:26320449.986282,z:-2476872.025214,vx:-367.985840,vy:-307.880280,vz:-3123.213135,tb:-0.0001012576
i = 11
i = 12
i = 13
$GNGGA,080138.095,,,,,0,00,,,M,,,,0000*25
$GNRMC,080138.095,A,,,,,,,090519,,*2C
$GPGSA,A,1,,,,,,,,,,,,,,,*1E
$BDGSA,A,1,,,,,,,,,,,,,,,*0F
$GLGSA,A,1,,,,,,,,,,,,,,,*02
$GPGSV,3,1,09,01,00,000,44,03,00,000,42,06,00,000,42,07,00,000,38*7A
$GPGSV,3,2,09,11,00,000,35,17,00,000,28,18,00,000,26,19,00,000,25*79
$GPGSV,3,3,09,22,00,000,21*43
$B3CN0,0,0,0,0,0,0,0,0,0,0,0,0,0,0*4C
$ini_pos,lastpos_good = 1,ini_pos.x:-1578916.000000,ini_pos.y:5312777.000000,ini_pos.z:3146360.000000
$rtc_local_time,localRTC.weeks:2052,localRTC.seconds:374516.058462,localGtime.weeks:2052,localGtime.seconds:374517.000000
i = 0
$pseudo_cd_ph,prn:1,pseudo_cd_ph:374516927.872413
$meas,msRange:72.116027,x:-13507732.563002,y:8897785.720719,z:20817499.731965,vx:-276.929169,vy:-2675.583252,vz:987.113098,tb:-0.0000121511
i = 1
$pseudo_cd_ph,prn:3,pseudo_cd_ph:374516924.550922
$meas,msRange:75.637585,x:-23219484.473073,y:11920062.971946,z:4633820.782367,vx:334.420380,vy:-564.888916,vz:3111.700195,tb:0.0001881321
i = 2
$pseudo_cd_ph,prn:6,pseudo_cd_ph:374516921.747463
$meas,msRange:78.463108,x:6987736.808003,y:24478930.411513,z:-7464253.641360,vx:-150.875275,vy:968.034119,vz:3018.687988,tb:0.0002102800
i = 3
$pseudo_cd_ph,prn:7,pseudo_cd_ph:374516921.298944
$meas,msRange:78.681035,x:-7787465.284717,y:21489560.282032,z:-12858592.981184,vx:-382.178375,vy:-1673.603027,vz:-2562.687744,tb:-0.0000206457
i = 4
$pseudo_cd_ph,prn:11,pseudo_cd_ph:4.977445
$meas,msRange:74.412704,x:-15709610.904740,y:4480567.372682,z:20388604.021300,vx:-1285.280151,vy:-2415.884277,vz:-472.574249,tb:-0.0006104401
i = 5
$pseudo_cd_ph,prn:17,pseudo_cd_ph:6.971427
$meas,msRange:73.080873,x:7871464.273749,y:18120662.975751,z:18201460.194261,vx:-1996.544556,vy:-977.485413,vz:1870.287964,tb:0.0000518258
i = 6
$pseudo_cd_ph,prn:18,pseudo_cd_ph:1.186383
$meas,msRange:78.865746,x:-15308896.743712,y:-1408720.397574,z:21182943.224509,vx:-313.269409,vy:-2789.279541,vz:-389.433228,tb:0.0000515362
i = 7
i = 8
$pseudo_cd_ph,prn:22,pseudo_cd_ph:2.441046
$meas,msRange:76.861624,x:-22862603.817819,y:6781612.575619,z:11853071.076087,vx:959.007263,vy:-1172.196533,vz:2579.107666,tb:-0.0006978092
i = 9
$pseudo_cd_ph,prn:28,pseudo_cd_ph:10.602505
$meas,msRange:70.165730,x:-4788918.016945,y:17790268.993899,z:19774224.273481,vx:-2111.669678,vy:1084.475586,vz:-1525.583130,tb:0.0007678342
i = 10
$pseudo_cd_ph,prn:30,pseudo_cd_ph:7.326732
$meas,msRange:72.572578,x:-953634.438617,y:26320171.332705,z:-2479697.185111,vx:-368.012482,vy:-308.217804,vz:-3123.164795,tb:-0.0001012576
i = 11
i = 12
i = 13
i = 14
i = 15
i = 16
Refix G01: 2, 374516.927872, 1572
Refix G03: 2, 374516.924551, -2610
Refix G06: 2, 374516.921747, -4439
Refix G07: 2, 374516.921299, 2493
Refix G11: 2, 374516.924977, 1692
Refix G17: 2, 374516.926971, -1911
Refix G18: 2, 374516.921186, 2421
Refix G22: 2, 374516.922441, -1067
Refix G28: 2, 374516.930603, -2400
Refix G30: 2, 374516.927327, 1485
$GNGGA,080139.000,2944.9119,N,10633.0867,E,1,07,1.7,333.6,M,,,,0000*13
$GNRMC,080139.000,A,2944.9119,N,10633.0867,E,0.75,0.00,090519,,*1D
$GPGSA,A,3,01,03,06,07,,,,,,,,,3.7,1.7,3.2*32
$BDGSA,A,3,02,03,04,,,,,,,,,,3.7,1.7,3.2*25
$GLGSA,A,3,,,,,,,,,,,,,3.7,1.7,3.2*2D
$GPGSV,3,1,11,01,00,000,44,03,00,000,42,06,00,000,42,07,00,000,38*73
$GPGSV,3,2,11,11,00,000,42,17,00,000,44,18,00,000,35,19,00,000,37*7B
$GPGSV,3,3,11,22,00,000,42,28,00,000,44,30,00,000,45*47
$BDGSV,2,1,06,02,00,000,41,03,00,000,43,04,00,000,41,07,00,000,43*6F
$BDGSV,2,2,06,08,00,000,43,10,00,000,40*64
$B3CN0,0,0,0,0,0,0,0,0,0,0,0,0,0,0*4C
$ini_pos,lastpos_good = 1,ini_pos.x:-1578906.401103,ini_pos.y:5312776.681309,ini_pos.z:3146367.956290
$rtc_local_time,localRTC.weeks:2052,localRTC.seconds:374517.058462,localGtime.weeks:2052,localGtime.seconds:374518.000000
i = 0
$pseudo_cd_ph,prn:1,pseudo_cd_ph:374517927.871373
$meas,msRange:72.117744,x:-13508009.576297,y:8895110.084537,z:20818486.618606,vx:-277.097412,vy:-2675.689209,vz:986.660217,tb:-0.0000121511
i = 1
$pseudo_cd_ph,prn:3,pseudo_cd_ph:374517924.552544
$meas,msRange:75.636682,x:-23219149.907201,y:11919497.962776,z:4636932.432963,vx:334.711395,vy:-565.129456,vz:3111.601074,tb:0.0001881321
i = 2
$pseudo_cd_ph,prn:6,pseudo_cd_ph:374517921.750249
$meas,msRange:78.461015,x:6987585.947291,y:24479898.260352,z:-7461234.873743,vx:-150.846161,vy:967.663635,vz:3018.847412,tb:0.0002102800
i = 3
$pseudo_cd_ph,prn:7,pseudo_cd_ph:374517921.297329
$meas,msRange:78.683369,x:-7787847.519800,y:21487886.526673,z:-12861155.526797,vx:-382.291809,vy:-1673.907837,vz:-2562.403564,tb:-0.0000206457
i = 4
$pseudo_cd_ph,prn:11,pseudo_cd_ph:4.976335
$meas,msRange:74.414502,x:-15710896.227235,y:4478151.544027,z:20388131.219212,vx:-1285.364868,vy:-2415.773193,vz:-473.029968,tb:-0.0006104401
i = 5
$pseudo_cd_ph,prn:17,pseudo_cd_ph:6.972597
$meas,msRange:73.080350,x:7869467.598035,y:18119685.497866,z:18203330.295071,vx:-1996.807007,vy:-977.470398,vz:1869.913696,tb:0.0000518258
i = 6
$pseudo_cd_ph,prn:18,pseudo_cd_ph:1.184830
$meas,msRange:78.868005,x:-15309210.087099,y:-1411509.642306,z:21182553.555861,vx:-313.417358,vy:-2789.209961,vz:-389.904114,tb:0.0000515362
i = 7
i = 8
$pseudo_cd_ph,prn:22,pseudo_cd_ph:2.441680
$meas,msRange:76.861690,x:-22861644.715569,y:6780440.255669,z:11855650.058489,vx:959.197266,vy:-1172.443481,vz:2578.857422,tb:-0.0006978092
i = 9
$pseudo_cd_ph,prn:28,pseudo_cd_ph:10.603993
$meas,msRange:70.164913,x:-4791029.571873,y:17791353.491195,z:19772698.490731,vx:-2111.440186,vy:1084.519043,vz:-1525.982422,tb:0.0007678342
i = 10
$pseudo_cd_ph,prn:30,pseudo_cd_ph:7.325758
$meas,msRange:72.574251,x:-954002.465844,y:26319862.928364,z:-2482820.323080,vx:-368.041992,vy:-308.590912,vz:-3123.111328,tb:-0.0001012576
i = 11
i = 12
i = 13
i = 14
i = 15
i = 16
Refix G01: 2, 374517.927871, 1578
Refix G03: 2, 374517.924553, -2603
Refix G06: 2, 374517.921750, -4433
Refix G07: 2, 374517.921297, 2500
Refix G11: 2, 374517.924976, 1698
Refix G17: 2, 374517.926973, -1908
Refix G18: 2, 374517.921185, 2427
Refix G22: 2, 374517.922442, -1059
Refix G28: 2, 374517.930604, -2396
Refix G30: 2, 374517.927326, 1490
$GNGGA,080140.000,2944.9094,N,10633.0899,E,1,10,1.0,326.8,M,,,,0000*13
$GNRMC,080140.000,A,2944.9094,N,10633.0899,E,0.12,0.00,090519,,*17
$GPGSA,A,3,01,03,06,07,,,,,,,,,1.2,1.0,0.5*36
$BDGSA,A,3,02,03,04,07,08,10,,,,,,,1.2,1.0,0.5*2F
$GLGSA,A,3,,,,,,,,,,,,,1.2,1.0,0.5*29
$GPGSV,3,1,11,01,42,041,45,03,30,104,42,06,21,218,41,07,17,176,37*75
$GPGSV,3,2,11,11,30,045,42,17,46,303,43,18,16,041,34,19,00,000,37*7F
$GPGSV,3,3,11,22,27,078,42,28,67,356,43,30,41,203,45*4F
$BDGSV,3,1,11,01,40,125,18,02,47,219,38,03,55,171,43,04,23,109,41*6B
$BDGSV,3,2,11,07,61,129,43,08,83,325,43,10,88,016,43,13,61,232,00*63
$BDGSV,3,3,11,27,46,032,00,30,54,295,00,32,12,139,00*5B
$B3CN0,0,0,0,0,0,0,0,0,0,0,0,0,0,0*4C
$ini_pos,lastpos_good = 1,ini_pos.x:-1578910.240524,ini_pos.y:5312771.726206,ini_pos.z:3146360.564646
$rtc_local_time,localRTC.weeks:2052,localRTC.seconds:374518.058462,localGtime.weeks:2052,localGtime.seconds:374519.000000
i = 0
$pseudo_cd_ph,prn:1,pseudo_cd_ph:374518927.870336
$meas,msRange:72.119482,x:-13508286.757840,y:8892434.342597,z:20819473.052343,vx:-277.265686,vy:-2675.794922,vz:986.207336,tb:-0.0000121511
i = 1
$pseudo_cd_ph,prn:3,pseudo_cd_ph:374518924.554167
$meas,msRange:75.635744,x:-23218815.050324,y:11918932.713100,z:4640043.984312,vx:335.002380,vy:-565.369934,vz:3111.501709,tb:0.0001881321
i = 2
$pseudo_cd_ph,prn:6,pseudo_cd_ph:374518921.753032
$meas,msRange:78.458928,x:6987435.115668,y:24480865.738688,z:-7458215.946787,vx:-150.817093,vy:967.293091,vz:3019.006592,tb:0.0002102800
i = 3
$pseudo_cd_ph,prn:7,pseudo_cd_ph:374518921.295713
$meas,msRange:78.685667,x:-7788229.868329,y:21486212.466499,z:-12863717.788151,vx:-382.405273,vy:-1674.212646,vz:-2562.119385,tb:-0.0000206457
i = 4
$pseudo_cd_ph,prn:11,pseudo_cd_ph:4.975224
$meas,msRange:74.416310,x:-15712181.634487,y:4475735.826571,z:20387657.961401,vx:-1285.449707,vy:-2415.661865,vz:-473.485687,tb:-0.0006104401
i = 5
$pseudo_cd_ph,prn:17,pseudo_cd_ph:6.973768
$meas,msRange:73.079890,x:7867470.659811,y:18118708.035009,z:18205200.021547,vx:-1997.069580,vy:-977.455383,vz:1869.539307,tb:0.0000518258
i = 6
$pseudo_cd_ph,prn:18,pseudo_cd_ph:1.183267
$meas,msRange:78.870272,x:-15309523.578428,y:-1414298.817460,z:21182163.416335,vx:-313.565308,vy:-2789.140381,vz:-390.374969,tb:0.0000515362
i = 7
i = 8
$pseudo_cd_ph,prn:22,pseudo_cd_ph:2.442316
$meas,msRange:76.861736,x:-22860685.423367,y:6779267.688781,z:11858228.790623,vx:959.387207,vy:-1172.690430,vz:2578.607178,tb:-0.0006978093
i = 9
$pseudo_cd_ph,prn:28,pseudo_cd_ph:10.605483
$meas,msRange:70.164138,x:-4793140.897389,y:17792438.031871,z:19771172.308742,vx:-2111.210938,vy:1084.562378,vz:-1526.381592,tb:0.0007678343
i = 10
$pseudo_cd_ph,prn:30,pseudo_cd_ph:7.324780
$meas,msRange:72.575927,x:-954370.522609,y:26319554.150910,z:-2485943.407573,vx:-368.071564,vy:-308.964020,vz:-3123.057861,tb:-0.0001012576
i = 11
i = 12
i = 13
i = 14
i = 15
i = 16
i = 17
i = 18
Refix G01: 2, 374518.927870, 1577
Refix G03: 2, 374518.924554, -2603
Refix G06: 2, 374518.921753, -4434
Refix G07: 2, 374518.921296, 2499
Refix G11: 2, 374518.924975, 1698
Refix G17: 2, 374518.926974, -1909
Refix G18: 2, 374518.921183, 2427
Refix G22: 2, 374518.922442, -1059
Refix G28: 2, 374518.930605, -2397
Refix G30: 2, 374518.927325, 1489
$GNGGA,080141.000,2944.9089,N,10633.0900,E,1,10,1.0,326.5,M,,,,0000*12
$GNRMC,080141.000,A,2944.9089,N,10633.0900,E,0.34,0.00,090519,,*1F
$GPGSA,A,3,01,03,06,07,,,,,,,,,1.2,1.0,0.5*36
$BDGSA,A,3,02,03,04,07,08,10,,,,,,,1.2,1.0,0.5*2F
$GLGSA,A,3,,,,,,,,,,,,,1.2,1.0,0.5*29
$GPGSV,3,1,11,01,42,041,44,03,30,104,42,06,21,218,41,07,17,176,37*74
$GPGSV,3,2,11,11,30,045,42,17,46,303,43,18,16,041,36,19,00,000,37*7D
$GPGSV,3,3,11,22,27,078,43,28,67,356,43,30,41,203,44*4F
$BDGSV,3,1,11,02,47,219,40,03,55,171,42,04,23,109,40,07,61,129,42*62
$BDGSV,3,2,11,08,83,325,43,10,88,016,43,27,46,032,29,30,54,295,21*6A
$BDGSV,3,3,11,01,40,125,00,13,61,232,00,32,12,139,00*54
$B3CN0,0,0,0,0,0,0,0,0,0,0,0,0,0,0*4C
$ini_pos,lastpos_good = 1,ini_pos.x:-1578910.404201,ini_pos.y:5312771.822102,ini_pos.z:3146359.698578
$rtc_local_time,localRTC.weeks:2052,localRTC.seconds:374519.058462,localGtime.weeks:2052,localGtime.seconds:374520.000000
i = 0
$pseudo_cd_ph,prn:1,pseudo_cd_ph:374519927.869300
$meas,msRange:72.121205,x:-13508564.107643,y:8889758.494967,z:20820459.033155,vx:-277.433960,vy:-2675.900635,vz:985.754395,tb:-0.0000121511
i = 1
$pseudo_cd_ph,prn:3,pseudo_cd_ph:374519924.555790
$meas,msRange:75.634811,x:-23218479.902485,y:11918367.222883,z:4643155.436347,vx:335.293304,vy:-565.610535,vz:3111.402344,tb:0.0001881321
i = 2
$pseudo_cd_ph,prn:6,pseudo_cd_ph:374519921.755819
$meas,msRange:78.456832,x:6987284.313081,y:24481832.846501,z:-7455196.860555,vx:-150.788086,vy:966.922607,vz:3019.166016,tb:0.0002102800
i = 3
$pseudo_cd_ph,prn:7,pseudo_cd_ph:374519921.294091
$meas,msRange:78.687972,x:-7788612.330343,y:21484538.101555,z:-12866279.765187,vx:-382.518768,vy:-1674.517334,vz:-2561.834961,tb:-0.0000206457
i = 4
$pseudo_cd_ph,prn:11,pseudo_cd_ph:4.974112
$meas,msRange:74.418110,x:-15713467.126458,y:4473320.220369,z:20387184.247877,vx:-1285.534302,vy:-2415.550537,vz:-473.941406,tb:-0.0006104401
i = 5
$pseudo_cd_ph,prn:17,pseudo_cd_ph:6.974941
$meas,msRange:73.079401,x:7865473.459108,y:18117730.587234,z:18207069.373652,vx:-1997.332031,vy:-977.440247,vz:1869.164917,tb:0.0000518258
i = 6
$pseudo_cd_ph,prn:18,pseudo_cd_ph:1.181698
$meas,msRange:78.872535,x:-15309837.217683,y:-1417087.922967,z:21181772.805940,vx:-313.713226,vy:-2789.070801,vz:-390.845825,tb:0.0000515362
i = 7
i = 8
$pseudo_cd_ph,prn:22,pseudo_cd_ph:2.442957
$meas,msRange:76.861784,x:-22859725.941264,y:6778094.874946,z:11860807.272436,vx:959.577087,vy:-1172.937378,vz:2578.356689,tb:-0.0006978093
i = 9
$pseudo_cd_ph,prn:28,pseudo_cd_ph:10.606970
$meas,msRange:70.163339,x:-4795251.993458,y:17793522.615875,z:19769645.727544,vx:-2110.981445,vy:1084.605713,vz:-1526.780884,tb:0.0007678343
i = 10
$pseudo_cd_ph,prn:30,pseudo_cd_ph:7.323803
$meas,msRange:72.577593,x:-954738.608962,y:26319245.000352,z:-2489066.438522,vx:-368.101166,vy:-309.337128,vz:-3123.004150,tb:-0.0001012576
i = 11
i = 12
i = 13
i = 14
i = 15
i = 16
i = 17
i = 18
Refix G01: 2, 374519.927869, 1578
Refix G03: 2, 374519.924556, -2602
Refix G06: 2, 374519.921756, -4434
Refix G07: 2, 374519.921294, 2499
Refix G11: 2, 374519.924974, 1698
Refix G17: 2, 374519.926975, -1909
Refix G18: 2, 374519.921182, 2427
Refix G22: 2, 374519.922443, -1059
Refix G28: 2, 374519.930607, -2397
Refix G30: 2, 374519.927324, 1490
$GNGGA,080142.000,2944.9086,N,10633.0899,E,1,10,1.0,326.5,M,,,,0000*1F
$GNRMC,080142.000,A,2944.9086,N,10633.0899,E,0.24,0.00,090519,,*13
$GPGSA,A,3,01,03,06,07,,,,,,,,,1.2,1.0,0.5*36
$BDGSA,A,3,02,03,04,07,08,10,,,,,,,1.2,1.0,0.5*2F
$GLGSA,A,3,,,,,,,,,,,,,1.2,1.0,0.5*29
$GPGSV,3,1,11,01,42,041,44,03,30,104,41,06,21,218,42,07,17,176,38*7B
$GPGSV,3,2,11,11,30,045,43,17,46,303,44,18,16,041,37,19,00,000,36*7B
$GPGSV,3,3,11,22,27,078,42,28,67,356,44,30,41,203,44*49
$BDGSV,3,1,11,01,40,125,21,02,47,219,41,03,55,171,43,04,23,109,40*6E
$BDGSV,3,2,11,07,61,129,43,08,83,325,43,10,88,016,42,27,46,032,45*63
$BDGSV,3,3,11,30,54,295,46,13,61,232,00,32,12,139,00*59
$B3CN0,0,0,0,0,0,0,0,0,0,0,0,0,0,0*4C
$ini_pos,lastpos_good = 1,ini_pos.x:-1578910.346082,ini_pos.y:5312772.071706,ini_pos.z:3146359.215621
$rtc_local_time,localRTC.weeks:2052,localRTC.seconds:374520.058462,localGtime.weeks:2052,localGtime.seconds:374521.000000
i = 0
$pseudo_cd_ph,prn:1,pseudo_cd_ph:374520927.868267
$meas,msRange:72.122928,x:-13508841.625717,y:8887082.541717,z:20821444.561021,vx:-277.602234,vy:-2676.006104,vz:985.301392,tb:-0.0000121512
i = 1
$pseudo_cd_ph,prn:3,pseudo_cd_ph:374520924.557415
$meas,msRange:75.633879,x:-23218144.463722,y:11917801.492093,z:4646266.789001,vx:335.584229,vy:-565.851135,vz:3111.302979,tb:0.0001881321
i = 2
$pseudo_cd_ph,prn:6,pseudo_cd_ph:374520921.758602
$meas,msRange:78.454737,x:6987133.539480,y:24482799.583772,z:-7452177.615113,vx:-150.759125,vy:966.552002,vz:3019.325195,tb:0.0002102800
i = 3
$pseudo_cd_ph,prn:7,pseudo_cd_ph:374520921.292473
$meas,msRange:78.690278,x:-7788994.905880,y:21482863.431886,z:-12868841.457850,vx:-382.632324,vy:-1674.822021,vz:-2561.550537,tb:-0.0000206457
i = 4
$pseudo_cd_ph,prn:11,pseudo_cd_ph:4.972998
$meas,msRange:74.419910,x:-15714752.703110,y:4470904.725473,z:20386710.078651,vx:-1285.619019,vy:-2415.439209,vz:-474.397095,tb:-0.0006104401
i = 5
$pseudo_cd_ph,prn:17,pseudo_cd_ph:6.976119
$meas,msRange:73.078910,x:7863475.995961,y:18116753.154596,z:18208938.351349,vx:-1997.594482,vy:-977.425110,vz:1868.790527,tb:0.0000518258
i = 6
$pseudo_cd_ph,prn:18,pseudo_cd_ph:1.180132
$meas,msRange:78.874798,x:-15310151.004851,y:-1419876.958759,z:21181381.724687,vx:-313.861115,vy:-2789.000977,vz:-391.316681,tb:0.0000515362
i = 7
i = 8
$pseudo_cd_ph,prn:22,pseudo_cd_ph:2.443597
$meas,msRange:76.861833,x:-22858766.269314,y:6776921.814155,z:11863385.503874,vx:959.766907,vy:-1173.184326,vz:2578.106201,tb:-0.0006978093
i = 9
$pseudo_cd_ph,prn:28,pseudo_cd_ph:10.608462
$meas,msRange:70.162538,x:-4797362.860039,y:17794607.243156,z:19768118.747166,vx:-2110.751953,vy:1084.648926,vz:-1527.180054,tb:0.0007678343
i = 10
$pseudo_cd_ph,prn:30,pseudo_cd_ph:7.322828
$meas,msRange:72.579259,x:-955106.724950,y:26318935.476699,z:-2492189.415859,vx:-368.130829,vy:-309.710205,vz:-3122.950684,tb:-0.0001012576
i = 11
i = 12
i = 13
i = 14
i = 15
i = 16
i = 17
i = 18
i = 19
i = 20
i = 21
i = 22
i = 23
i = 24
i = 25
Refix G01: 2, 374520.927868, 1573
Refix G03: 2, 374520.924557, -2607
Refix G06: 2, 374520.921759, -4437
Refix G07: 2, 374520.921292, 2495
Refix G11: 2, 374520.924973, 1694
Refix G17: 2, 374520.926976, -1913
Refix G18: 2, 374520.921180, 2423
Refix G22: 2, 374520.922444, -1063
Refix G28: 2, 374520.930608, -2402
Refix G30: 2, 374520.927323, 1485
$GNGGA,080143.000,2944.9084,N,10633.0900,E,1,10,1.0,326.5,M,,,,0000*1D
$GNRMC,080143.000,A,2944.9084,N,10633.0900,E,0.40,0.00,090519,,*13
$GPGSA,A,3,01,03,06,07,,,,,,,,,1.2,1.0,0.5*36
$BDGSA,A,3,02,03,04,07,08,10,,,,,,,1.2,1.0,0.5*2F
$GLGSA,A,3,,,,,,,,,,,,,1.2,1.0,0.5*29
$GPGSV,3,1,11,01,42,041,44,03,30,104,42,06,21,218,41,07,17,176,38*7B
$GPGSV,3,2,11,11,30,045,43,17,46,303,44,18,16,041,36,19,00,000,36*7A
$GPGSV,3,3,11,22,27,078,42,28,67,356,44,30,41,203,44*49
$BDGSV,3,1,11,02,47,219,40,03,55,171,43,04,23,109,40,07,61,129,43*62
$BDGSV,3,2,11,08,83,325,42,10,88,016,42,27,46,032,44,30,54,295,45*63
$BDGSV,3,3,11,01,40,125,00,13,61,232,00,32,12,139,00*54
$B3CN0,0,0,0,0,0,0,20,0,0,0,0,0,0,0*7E
$ini_pos,lastpos_good = 1,ini_pos.x:-1578910.529556,ini_pos.y:5312772.278982,ini_pos.z:3146358.913232
$rtc_local_time,localRTC.weeks:2052,localRTC.seconds:374521.058462,localGtime.weeks:2052,localGtime.seconds:374522.000000
i = 0
$pseudo_cd_ph,prn:1,pseudo_cd_ph:374521927.867234
$meas,msRange:72.124651,x:-13509119.312074,y:8884406.482915,z:20822429.635923,vx:-277.770508,vy:-2676.111572,vz:984.848450,tb:-0.0000121512
i = 1
$pseudo_cd_ph,prn:3,pseudo_cd_ph:374521924.559038
$meas,msRange:75.632947,x:-23217808.734076,y:11917235.520696,z:4649378.042208,vx:335.875092,vy:-566.091736,vz:3111.203613,tb:0.0001881321
i = 2
$pseudo_cd_ph,prn:6,pseudo_cd_ph:374521921.761388
$meas,msRange:78.452643,x:6986982.794812,y:24483765.950482,z:-7449158.210524,vx:-150.730225,vy:966.181458,vz:3019.484131,tb:0.0002102800
i = 3
$pseudo_cd_ph,prn:7,pseudo_cd_ph:374521921.290857
$meas,msRange:78.692584,x:-7789377.594978,y:21481188.457536,z:-12871402.866082,vx:-382.745911,vy:-1675.126709,vz:-2561.266113,tb:-0.0000206457
i = 4
$pseudo_cd_ph,prn:11,pseudo_cd_ph:374521924.971892
$meas,msRange:74.421709,x:-15716038.364404,y:4468489.341936,z:20386235.453732,vx:-1285.703613,vy:-2415.327881,vz:-474.852783,tb:-0.0006104401
i = 5
$pseudo_cd_ph,prn:17,pseudo_cd_ph:374521926.977301
$meas,msRange:73.078419,x:7861478.270401,y:18115775.737148,z:18210806.954601,vx:-1997.856812,vy:-977.409851,vz:1868.416016,tb:0.0000518259
i = 6
$pseudo_cd_ph,prn:18,pseudo_cd_ph:374521921.178568
$meas,msRange:78.877060,x:-15310464.939916,y:-1422665.924766,z:21180990.172585,vx:-314.009033,vy:-2788.931152,vz:-391.787537,tb:0.0000515362
i = 7
i = 8
$pseudo_cd_ph,prn:22,pseudo_cd_ph:374521922.444242
$meas,msRange:76.861881,x:-22857806.407570,y:6775748.506400,z:11865963.484884,vx:959.956665,vy:-1173.431274,vz:2577.855957,tb:-0.0006978093
i = 9
$pseudo_cd_ph,prn:28,pseudo_cd_ph:374521930.609954
$meas,msRange:70.161737,x:-4799473.497095,y:17795691.913664,z:19766591.367638,vx:-2110.522461,vy:1084.692139,vz:-1527.579102,tb:0.0007678343
i = 10
$pseudo_cd_ph,prn:30,pseudo_cd_ph:374521927.321852
$meas,msRange:72.580925,x:-955474.870622,y:26318625.579961,z:-2495312.339519,vx:-368.160553,vy:-310.083282,vz:-3122.896973,tb:-0.0001012576
i = 11
i = 12
i = 13
i = 14
i = 15
i = 16
i = 17
i = 18
i = 19
i = 20
i = 21
i = 22
i = 23
i = 24
i = 25
i = 26
Refix G01: 2, 374521.927867, 1578
Refix G03: 2, 374521.924559, -2601
Refix G06: 2, 374521.921761, -4433
Refix G07: 2, 374521.921291, 2499
Refix G11: 2, 374521.924972, 1698
Refix G17: 2, 374521.926977, -1908
Refix G18: 2, 374521.921179, 2427
Refix G22: 2, 374521.922444, -1058
Refix G28: 2, 374521.930610, -2396
Refix G30: 2, 374521.927322, 1492
$GNGGA,080144.000,2944.9083,N,10633.0898,E,1,16,0.7,326.8,M,,,,0000*10
$GNRMC,080144.000,A,2944.9083,N,10633.0898,E,0.04,0.00,090519,,*13
$GPGSA,A,3,01,03,06,07,11,17,18,22,28,30,,,0.9,0.7,0.5*3C
$BDGSA,A,3,02,03,04,07,08,10,,,,,,,0.9,0.7,0.5*23
$GLGSA,A,3,,,,,,,,,,,,,0.9,0.7,0.5*25
$GPGSV,3,1,11,01,42,041,45,03,30,104,42,06,21,218,41,07,17,176,37*75
$GPGSV,3,2,11,11,30,045,42,17,46,303,43,18,16,041,36,19,00,000,36*7C
$GPGSV,3,3,11,22,27,078,42,28,67,356,44,30,41,203,44*49
$BDGSV,3,1,11,01,40,125,21,02,47,219,40,03,55,171,43,04,23,109,40*6F
$BDGSV,3,2,11,07,61,129,42,08,83,325,42,10,88,016,42,27,46,032,44*62
$BDGSV,3,3,11,30,54,295,44,13,61,232,00,32,12,139,00*5B
$B3CN0,0,0,0,0,0,0,27,0,0,0,0,0,0,0*79
$ini_pos,lastpos_good = 1,ini_pos.x:-1578910.389626,ini_pos.y:5312772.707315,ini_pos.z:3146358.911614
$rtc_local_time,localRTC.weeks:2052,localRTC.seconds:374522.058462,localGtime.weeks:2052,localGtime.seconds:374523.000000
i = 0
$pseudo_cd_ph,prn:1,pseudo_cd_ph:374522927.866202
$meas,msRange:72.126373,x:-13509397.166725,y:8881730.318630,z:20823414.257838,vx:-277.938812,vy:-2676.217041,vz:984.395447,tb:-0.0000121512
i = 1
$pseudo_cd_ph,prn:3,pseudo_cd_ph:374522924.560660
$meas,msRange:75.632016,x:-23217472.713589,y:11916669.308658,z:4652489.195902,vx:336.165894,vy:-566.332397,vz:3111.104004,tb:0.0001881321
i = 2
$pseudo_cd_ph,prn:6,pseudo_cd_ph:374522921.764173
$meas,msRange:78.450548,x:6986832.079026,y:24484731.946610,z:-7446138.646853,vx:-150.701370,vy:965.810852,vz:3019.643311,tb:0.0002102800
i = 3
$pseudo_cd_ph,prn:7,pseudo_cd_ph:374522921.289243
$meas,msRange:78.694890,x:-7789760.397674,y:21479513.178549,z:-12873963.989828,vx:-382.859528,vy:-1675.431396,vz:-2560.981445,tb:-0.0000206457
i = 4
$pseudo_cd_ph,prn:11,pseudo_cd_ph:374522924.970793
$meas,msRange:74.423508,x:-15717324.110302,y:4466074.069813,z:20385760.373131,vx:-1285.788208,vy:-2415.216553,vz:-475.308441,tb:-0.0006104401
i = 5
$pseudo_cd_ph,prn:17,pseudo_cd_ph:374522926.978483
$meas,msRange:73.077926,x:7859480.282463,y:18114798.334945,z:18212675.183368,vx:-1998.119141,vy:-977.394592,vz:1868.041626,tb:0.0000518259
i = 6
$pseudo_cd_ph,prn:18,pseudo_cd_ph:374522921.177000
$meas,msRange:78.879322,x:-15310779.022864,y:-1425454.820920,z:21180598.149644,vx:-314.156891,vy:-2788.861328,vz:-392.258362,tb:0.0000515362
i = 7
i = 8
$pseudo_cd_ph,prn:22,pseudo_cd_ph:374522922.444883
$meas,msRange:76.861929,x:-22856846.356083,y:6774574.951671,z:11868541.215411,vx:960.146362,vy:-1173.678223,vz:2577.605469,tb:-0.0006978093
i = 9
$pseudo_cd_ph,prn:28,pseudo_cd_ph:374522930.611448
$meas,msRange:70.160936,x:-4801583.904588,y:17796776.627348,z:19765063.588989,vx:-2110.292725,vy:1084.735229,vz:-1527.978271,tb:0.0007678343
i = 10
$pseudo_cd_ph,prn:30,pseudo_cd_ph:374522927.320879
$meas,msRange:72.582591,x:-955843.046026,y:26318315.310147,z:-2498435.209432,vx:-368.190308,vy:-310.456360,vz:-3122.843018,tb:-0.0001012576
i = 11
i = 12
i = 13
i = 14
i = 15
i = 16
i = 17
i = 18
i = 19
i = 20
i = 21
i = 22
i = 23
i = 24
i = 25
Refix G01: 2, 374522.927866, 1572
Refix G03: 2, 374522.924561, -2607
Refix G06: 2, 374522.921764, -4438
Refix G07: 2, 374522.921289, 2494
Refix G11: 2, 374522.924971, 1692
Refix G17: 2, 374522.926978, -1914
Refix G18: 2, 374522.921177, 2421
Refix G22: 2, 374522.922445, -1064
Refix G28: 2, 374522.930611, -2402
Refix G30: 2, 374522.927321, 1486
$GNGGA,080145.000,2944.9084,N,10633.0896,E,1,16,0.7,326.2,M,,,,0000*12
$GNRMC,080145.000,A,2944.9084,N,10633.0896,E,0.26,0.00,090519,,*1B
$GPGSA,A,3,01,03,06,07,11,17,18,22,28,30,,,0.9,0.7,0.5*3C
$BDGSA,A,3,02,03,04,07,08,10,,,,,,,0.9,0.7,0.5*23
$GLGSA,A,3,,,,,,,,,,,,,0.9,0.7,0.5*25
$GPGSV,3,1,11,01,42,041,45,03,30,104,42,06,21,218,41,07,17,176,37*75
$GPGSV,3,2,11,11,30,045,42,17,46,303,43,18,16,041,35,19,00,000,36*7F
$GPGSV,3,3,11,22,27,078,42,28,67,356,43,30,41,203,44*4E
$BDGSV,3,1,11,02,47,219,41,03,55,171,42,04,23,109,39,07,61,129,42*6D
$BDGSV,3,2,11,08,83,325,43,10,88,016,43,27,46,032,44,30,54,295,44*62
$BDGSV,3,3,11,01,40,125,00,13,61,232,00,32,12,139,00*54
$B3CN0,0,0,0,0,0,0,28,0,0,0,0,0,0,0*76
$ini_pos,lastpos_good = 1,ini_pos.x:-1578909.950802,ini_pos.y:5312772.210260,ini_pos.z:3146358.709106
$rtc_local_time,localRTC.weeks:2052,localRTC.seconds:374523.058462,localGtime.weeks:2052,localGtime.seconds:374524.000000
i = 0
$pseudo_cd_ph,prn:1,pseudo_cd_ph:374523927.865170
$meas,msRange:72.128097,x:-13509675.189682,y:8879054.048931,z:20824398.426747,vx:-278.107117,vy:-2676.322510,vz:983.942444,tb:-0.0000121512
i = 1
$pseudo_cd_ph,prn:3,pseudo_cd_ph:374523924.562284
$meas,msRange:75.631087,x:-23217136.402299,y:11916102.855947,z:4655600.250015,vx:336.456696,vy:-566.573059,vz:3111.004395,tb:0.0001881321
i = 2
$pseudo_cd_ph,prn:6,pseudo_cd_ph:374523921.766957
$meas,msRange:78.448455,x:6986681.392071,y:24485697.572138,z:-7443118.924166,vx:-150.672562,vy:965.440247,vz:3019.802246,tb:0.0002102800
i = 3
$pseudo_cd_ph,prn:7,pseudo_cd_ph:374523921.287627
$meas,msRange:78.697199,x:-7790143.314006,y:21477837.594971,z:-12876524.829030,vx:-382.973175,vy:-1675.735962,vz:-2560.697021,tb:-0.0000206457
i = 4
$pseudo_cd_ph,prn:11,pseudo_cd_ph:374523924.969691
$meas,msRange:74.425307,x:-15718609.940764,y:4463658.909156,z:20385284.836858,vx:-1285.872803,vy:-2415.104980,vz:-475.764130,tb:-0.0006104401
i = 5
$pseudo_cd_ph,prn:17,pseudo_cd_ph:374523926.979665
$meas,msRange:73.077436,x:7857482.032179,y:18113820.948041,z:18214543.037616,vx:-1998.381470,vy:-977.379272,vz:1867.666992,tb:0.0000518259
i = 6
$pseudo_cd_ph,prn:18,pseudo_cd_ph:374523921.175429
$meas,msRange:78.881584,x:-15311093.253679,y:-1428243.647152,z:21180205.655873,vx:-314.304749,vy:-2788.791260,vz:-392.729187,tb:0.0000515362
i = 7
i = 8
$pseudo_cd_ph,prn:22,pseudo_cd_ph:374523922.445526
$meas,msRange:76.861980,x:-22855886.114907,y:6773401.149961,z:11871118.695402,vx:960.336060,vy:-1173.925293,vz:2577.354736,tb:-0.0006978093
i = 9
$pseudo_cd_ph,prn:28,pseudo_cd_ph:374523930.612940
$meas,msRange:70.160137,x:-4803694.082481,y:17797861.384158,z:19763535.411250,vx:-2110.063232,vy:1084.778442,vz:-1528.377319,tb:0.0007678343
i = 10
$pseudo_cd_ph,prn:30,pseudo_cd_ph:374523927.319904
$meas,msRange:72.584259,x:-956211.251211,y:26318004.667265,z:-2501558.025533,vx:-368.220093,vy:-310.829437,vz:-3122.789307,tb:-0.0001012576
i = 11
i = 12
i = 13
i = 14
i = 15
i = 16
i = 17
i = 18
i = 19
i = 20
i = 21
i = 22
i = 23
i = 24
i = 25
Refix G01: 2, 374523.927865, 1578
Refix G03: 2, 374523.924562, -2602
Refix G06: 2, 374523.921767, -4434
Refix G07: 2, 374523.921288, 2498
Refix G11: 2, 374523.924970, 1697
Refix G17: 2, 374523.926980, -1909
Refix G18: 2, 374523.921175, 2425
Refix G22: 2, 374523.922446, -1059
Refix G28: 2, 374523.930613, -2396
Refix G30: 2, 374523.927320, 1491
$GNGGA,080146.000,2944.9083,N,10633.0897,E,1,18,0.7,326.3,M,,,,0000*18
$GNRMC,080146.000,A,2944.9083,N,10633.0897,E,0.08,0.00,090519,,*12
$GPGSA,A,3,01,03,06,07,11,17,18,22,28,30,,,0.8,0.7,0.4*3C
$BDGSA,A,3,02,03,04,07,08,10,27,30,,,,,0.8,0.7,0.4*25
$GLGSA,A,3,,,,,,,,,,,,,0.8,0.7,0.4*25
$GPGSV,3,1,11,01,42,041,45,03,30,104,42,06,21,218,42,07,17,176,37*76
$GPGSV,3,2,11,11,30,045,43,17,46,303,44,18,16,041,36,19,00,000,36*7A
$GPGSV,3,3,11,22,27,078,43,28,67,356,44,30,41,203,45*49
$BDGSV,3,1,11,02,47,219,41,03,55,171,42,04,23,109,39,07,61,129,43*6C
$BDGSV,3,2,11,08,83,325,43,10,88,016,42,27,46,032,44,30,54,295,44*63
$BDGSV,3,3,11,01,40,125,00,13,61,232,00,32,12,139,00*54
$B3CN0,0,0,0,0,0,0,28,0,0,0,0,0,0,0*76
$ini_pos,lastpos_good = 1,ini_pos.x:-1578910.153150,ini_pos.y:5312772.322489,ini_pos.z:3146358.628838
$rtc_local_time,localRTC.weeks:2052,localRTC.seconds:374524.058462,localGtime.weeks:2052,localGtime.seconds:374525.000000
i = 0
$pseudo_cd_ph,prn:1,pseudo_cd_ph:374524927.864135
$meas,msRange:72.129820,x:-13509953.380955,y:8876377.673888,z:20825382.142628,vx:-278.275452,vy:-2676.427734,vz:983.489380,tb:-0.0000121512
i = 1
$pseudo_cd_ph,prn:3,pseudo_cd_ph:374524924.563904
$meas,msRange:75.630156,x:-23216799.800247,y:11915536.162528,z:4658711.204481,vx:336.747437,vy:-566.813782,vz:3110.904785,tb:0.0001881321
i = 2
$pseudo_cd_ph,prn:6,pseudo_cd_ph:374524921.769741
$meas,msRange:78.446362,x:6986530.733895,y:24486662.827045,z:-7440099.042525,vx:-150.643814,vy:965.069641,vz:3019.961182,tb:0.0002102800
i = 3
$pseudo_cd_ph,prn:7,pseudo_cd_ph:374524921.286006
$meas,msRange:78.699506,x:-7790526.344014,y:21476161.706845,z:-12879085.383633,vx:-383.086884,vy:-1676.040405,vz:-2560.412354,tb:-0.0000206458
i = 4
$pseudo_cd_ph,prn:11,pseudo_cd_ph:374524924.968580
$meas,msRange:74.427106,x:-15719895.855753,y:4461243.860018,z:20384808.844922,vx:-1285.957275,vy:-2414.993408,vz:-476.219788,tb:-0.0006104401
i = 5
$pseudo_cd_ph,prn:17,pseudo_cd_ph:374524926.980843
$meas,msRange:73.076945,x:7855483.519583,y:18112843.576490,z:18216410.517304,vx:-1998.643799,vy:-977.363892,vz:1867.292480,tb:0.0000518259
i = 6
$pseudo_cd_ph,prn:18,pseudo_cd_ph:374524921.173855
$meas,msRange:78.883846,x:-15311407.632348,y:-1431032.403395,z:21179812.691282,vx:-314.452606,vy:-2788.721436,vz:-393.200012,tb:0.0000515362
i = 7
i = 8
$pseudo_cd_ph,prn:22,pseudo_cd_ph:374524922.446168
$meas,msRange:76.862029,x:-22854925.684093,y:6772227.101260,z:11873695.924803,vx:960.525635,vy:-1174.172241,vz:2577.104248,tb:-0.0006978093
i = 9
$pseudo_cd_ph,prn:28,pseudo_cd_ph:374524930.614430
$meas,msRange:70.159336,x:-4805804.030734,y:17798946.184042,z:19762006.834449,vx:-2109.833496,vy:1084.821411,vz:-1528.776367,tb:0.0007678343
i = 10
$pseudo_cd_ph,prn:30,pseudo_cd_ph:374524927.318924
$meas,msRange:72.585927,x:-956579.486226,y:26317693.651327,z:-2504680.787754,vx:-368.249969,vy:-311.202484,vz:-3122.735352,tb:-0.0001012576
i = 11
i = 12
i = 13
i = 14
i = 15
i = 16
i = 17
i = 18
i = 19
i = 20
i = 21
i = 22
i = 23
i = 24
i = 25
Refix G01: 2, 374524.927864, 1581
Refix G03: 2, 374524.924564, -2599
Refix G06: 2, 374524.921770, -4431
Refix G07: 2, 374524.921286, 2501
Refix G11: 2, 374524.924969, 1700
Refix G17: 2, 374524.926981, -1906
Refix G18: 2, 374524.921174, 2429
Refix G22: 2, 374524.922446, -1055
Refix G28: 2, 374524.930614, -2393
Refix G30: 2, 374524.927319, 1494
$GNGGA,080147.000,2944.9082,N,10633.0899,E,1,18,0.7,326.2,M,,,,0000*17
$GNRMC,080147.000,A,2944.9082,N,10633.0899,E,0.08,0.00,090519,,*1C
$GPGSA,A,3,01,03,06,07,11,17,18,22,28,30,,,0.8,0.7,0.4*3C
$BDGSA,A,3,02,03,04,07,08,10,27,30,,,,,0.8,0.7,0.4*25
$GLGSA,A,3,,,,,,,,,,,,,0.8,0.7,0.4*25
$GPGSV,3,1,11,01,42,041,45,03,30,104,42,06,21,218,42,07,17,176,37*76
$GPGSV,3,2,11,11,30,045,43,17,46,303,44,18,16,041,36,19,00,000,36*7A
$GPGSV,3,3,11,22,27,078,43,28,67,356,44,30,41,203,45*49
$BDGSV,3,1,11,02,47,219,40,03,55,171,42,04,23,109,41,07,61,129,43*62
$BDGSV,3,2,11,08,83,325,43,10,88,016,43,27,46,032,44,30,54,295,44*62
$BDGSV,3,3,11,01,40,125,00,13,61,232,00,32,12,139,00*54
$B3CN0,0,0,0,0,0,0,27,0,0,0,0,0,0,0*79
$ini_pos,lastpos_good = 1,ini_pos.x:-1578910.327031,ini_pos.y:5312772.208616,ini_pos.z:3146358.421295
$rtc_local_time,localRTC.weeks:2052,localRTC.seconds:374525.058462,localGtime.weeks:2052,localGtime.seconds:374526.000000
i = 0
$pseudo_cd_ph,prn:1,pseudo_cd_ph:374525927.863103
$meas,msRange:72.131543,x:-13510231.740558,y:8873701.193568,z:20826365.405462,vx:-278.443787,vy:-2676.532959,vz:983.036316,tb:-0.0000121512
i = 1
$pseudo_cd_ph,prn:3,pseudo_cd_ph:374525924.565526
$meas,msRange:75.629225,x:-23216462.907474,y:11914969.228369,z:4661822.059233,vx:337.038116,vy:-567.054565,vz:3110.804932,tb:0.0001881321
i = 2
$pseudo_cd_ph,prn:6,pseudo_cd_ph:374525921.772524
$meas,msRange:78.444269,x:6986380.104447,y:24487627.711313,z:-7437079.001997,vx:-150.615112,vy:964.698975,vz:3020.120117,tb:0.0002102799
i = 3
$pseudo_cd_ph,prn:7,pseudo_cd_ph:374525921.284395
$meas,msRange:78.701813,x:-7790909.487734,y:21474485.514217,z:-12881645.653578,vx:-383.200592,vy:-1676.344971,vz:-2560.127686,tb:-0.0000206458
i = 4
$pseudo_cd_ph,prn:11,pseudo_cd_ph:374525924.967474
$meas,msRange:74.428905,x:-15721181.855229,y:4458828.922454,z:20384332.397334,vx:-1286.041748,vy:-2414.881836,vz:-476.675415,tb:-0.0006104401
i = 5
$pseudo_cd_ph,prn:17,pseudo_cd_ph:374525926.982023
$meas,msRange:73.076454,x:7853484.744708,y:18111866.220345,z:18218277.622398,vx:-1998.906128,vy:-977.348450,vz:1866.917847,tb:0.0000518259
i = 6
$pseudo_cd_ph,prn:18,pseudo_cd_ph:374525921.172286
$meas,msRange:78.886108,x:-15311722.158854,y:-1433821.089578,z:21179419.255881,vx:-314.600433,vy:-2788.651123,vz:-393.670807,tb:0.0000515362
i = 7
i = 8
$pseudo_cd_ph,prn:22,pseudo_cd_ph:374525922.446810
$meas,msRange:76.862078,x:-22853965.063696,y:6771052.805559,z:11876272.903561,vx:960.715210,vy:-1174.419189,vz:2576.853516,tb:-0.0006978093
i = 9
$pseudo_cd_ph,prn:28,pseudo_cd_ph:374525930.615921
$meas,msRange:70.158536,x:-4807913.749311,y:17800031.026950,z:19760477.858616,vx:-2109.603760,vy:1084.864380,vz:-1529.175415,tb:0.0007678343
i = 10
$pseudo_cd_ph,prn:30,pseudo_cd_ph:374525927.317946
$meas,msRange:72.587595,x:-956947.751118,y:26317382.262340,z:-2507803.496028,vx:-368.279846,vy:-311.575531,vz:-3122.681396,tb:-0.0001012576
i = 11
i = 12
i = 13
i = 14
i = 15
i = 16
i = 17
i = 18
i = 19
i = 20
i = 21
i = 22
i = 23
i = 24
i = 25
Refix G01: 2, 374525.927863, 1573
Refix G03: 2, 374525.924566, -2607
Refix G06: 2, 374525.921773, -4438
Refix G07: 2, 374525.921284, 2493
Refix G11: 2, 374525.924967, 1692
Refix G17: 2, 374525.926982, -1915
Refix G18: 2, 374525.921172, 2422
Refix G22: 2, 374525.922447, -1063
Refix G28: 2, 374525.930616, -2402
Refix G30: 2, 374525.927318, 1486
$GNGGA,080148.000,2944.9082,N,10633.0899,E,1,18,0.7,325.8,M,,,,0000*11
$GNRMC,080148.000,A,2944.9082,N,10633.0899,E,0.23,0.00,090519,,*1A
$GPGSA,A,3,01,03,06,07,11,17,18,22,28,30,,,0.8,0.7,0.4*3C
$BDGSA,A,3,02,03,04,07,08,10,27,30,,,,,0.8,0.7,0.4*25
$GLGSA,A,3,,,,,,,,,,,,,0.8,0.7,0.4*25
$GPGSV,3,1,11,01,42,041,45,03,30,104,42,06,21,218,42,07,17,176,37*76
$GPGSV,3,2,11,11,30,045,41,17,46,303,44,18,16,041,36,19,00,000,35*7B
$GPGSV,3,3,11,22,27,078,43,28,67,356,44,30,41,203,44*48
$BDGSV,3,1,11,02,47,219,40,03,55,171,43,04,23,109,40,07,61,129,43*62
$BDGSV,3,2,11,08,83,325,43,10,88,016,43,27,46,032,43,30,54,295,44*65
$BDGSV,3,3,11,01,40,125,00,13,61,232,00,32,12,139,00*54
$B3CN0,0,0,0,0,0,0,27,0,0,0,0,0,0,0*79
$ini_pos,lastpos_good = 1,ini_pos.x:-1578910.373099,ini_pos.y:5312771.946140,ini_pos.z:3146358.173345
$rtc_local_time,localRTC.weeks:2052,localRTC.seconds:374526.058462,localGtime.weeks:2052,localGtime.seconds:374527.000000
i = 0
$pseudo_cd_ph,prn:1,pseudo_cd_ph:374526927.862075
$meas,msRange:72.133268,x:-13510510.268500,y:8871024.608042,z:20827348.215229,vx:-278.612122,vy:-2676.638184,vz:982.583252,tb:-0.0000121512
i = 1
$pseudo_cd_ph,prn:3,pseudo_cd_ph:374526924.567153
$meas,msRange:75.628295,x:-23216125.724020,y:11914402.053437,z:4664932.814205,vx:337.328796,vy:-567.295349,vz:3110.705078,tb:0.0001881321
i = 2
$pseudo_cd_ph,prn:6,pseudo_cd_ph:374526921.775311
$meas,msRange:78.442177,x:6986229.503674,y:24488592.224922,z:-7434058.802645,vx:-150.586456,vy:964.328308,vz:3020.278809,tb:0.0002102799
i = 3
$pseudo_cd_ph,prn:7,pseudo_cd_ph:374526921.282782
$meas,msRange:78.704120,x:-7791292.745204,y:21472809.017132,z:-12884205.638810,vx:-383.314362,vy:-1676.649414,vz:-2559.843018,tb:-0.0000206458
i = 4
$pseudo_cd_ph,prn:11,pseudo_cd_ph:374526924.966374
$meas,msRange:74.430704,x:-15722467.939155,y:4456414.096516,z:20383855.494104,vx:-1286.126221,vy:-2414.770264,vz:-477.131073,tb:-0.0006104401
i = 5
$pseudo_cd_ph,prn:17,pseudo_cd_ph:374526926.983210
$meas,msRange:73.075965,x:7851485.707586,y:18110888.879662,z:18220144.352858,vx:-1999.168335,vy:-977.332947,vz:1866.543213,tb:0.0000518259
i = 6
$pseudo_cd_ph,prn:18,pseudo_cd_ph:374526921.170724
$meas,msRange:78.888370,x:-15312036.833184,y:-1436609.705634,z:21179025.349680,vx:-314.748260,vy:-2788.581055,vz:-394.141602,tb:0.0000515362
i = 7
i = 8
$pseudo_cd_ph,prn:22,pseudo_cd_ph:374526922.447458
$meas,msRange:76.862128,x:-22853004.253767,y:6769878.262851,z:11878849.631622,vx:960.904724,vy:-1174.666260,vz:2576.602783,tb:-0.0006978093
i = 9
$pseudo_cd_ph,prn:28,pseudo_cd_ph:374526930.617415
$meas,msRange:70.157737,x:-4810023.238173,y:17801115.912831,z:19758948.483781,vx:-2109.374023,vy:1084.907349,vz:-1529.574341,tb:0.0007678343
i = 10
$pseudo_cd_ph,prn:30,pseudo_cd_ph:374526927.316972
$meas,msRange:72.589264,x:-957316.045936,y:26317070.500314,z:-2510926.150286,vx:-368.309814,vy:-311.948547,vz:-3122.627441,tb:-0.0001012576
i = 11
i = 12
i = 13
i = 14
i = 15
i = 16
i = 17
i = 18
i = 19
i = 20
i = 21
i = 22
i = 23
i = 24
i = 25
Refix G01: 2, 374526.927862, 1572
Refix G03: 2, 374526.924567, -2607
Refix G06: 2, 374526.921775, -4439
Refix G07: 2, 374526.921283, 2492
Refix G11: 2, 374526.924966, 1691
Refix G17: 2, 374526.926983, -1916
Refix G18: 2, 374526.921171, 2420
Refix G22: 2, 374526.922447, -1064
Refix G28: 2, 374526.930617, -2403
Refix G30: 2, 374526.927317, 1485
$GNGGA,080149.000,2944.9082,N,10633.0900,E,1,18,0.7,325.7,M,,,,0000*1E
$GNRMC,080149.000,A,2944.9082,N,10633.0900,E,0.21,0.00,090519,,*18
$GPGSA,A,3,01,03,06,07,11,17,18,22,28,30,,,0.8,0.7,0.4*3C
$BDGSA,A,3,02,03,04,07,08,10,27,30,,,,,0.8,0.7,0.4*25
$GLGSA,A,3,,,,,,,,,,,,,0.8,0.7,0.4*25
$GPGSV,3,1,11,01,42,041,45,03,30,104,42,06,21,218,41,07,17,176,36*74
$GPGSV,3,2,11,11,30,045,42,17,46,303,44,18,16,041,35,19,00,000,36*78
$GPGSV,3,3,11,22,27,078,43,28,67,356,44,30,41,203,45*49
$BDGSV,3,1,11,02,47,219,40,03,55,171,43,04,23,109,41,07,61,129,43*63
$BDGSV,3,2,11,08,83,325,43,10,88,016,43,27,46,032,44,30,54,295,45*63
$BDGSV,3,3,11,01,40,125,00,13,61,232,00,32,12,139,00*54
$B3CN0,0,0,0,0,0,0,27,0,0,0,0,0,0,0*79
$ini_pos,lastpos_good = 1,ini_pos.x:-1578910.412143,ini_pos.y:5312771.792731,ini_pos.z:3146358.207411
$rtc_local_time,localRTC.weeks:2052,localRTC.seconds:374527.058462,localGtime.weeks:2052,localGtime.seconds:374528.000000
i = 0
$pseudo_cd_ph,prn:1,pseudo_cd_ph:374527927.861046
$meas,msRange:72.134991,x:-13510788.964793,y:8868347.917378,z:20828330.571907,vx:-278.780487,vy:-2676.743408,vz:982.130188,tb:-0.0000121512
i = 1
$pseudo_cd_ph,prn:3,pseudo_cd_ph:374527924.568778
$meas,msRange:75.627366,x:-23215788.249926,y:11913834.637697,z:4668043.469330,vx:337.619415,vy:-567.536194,vz:3110.605225,tb:0.0001881321
i = 2
$pseudo_cd_ph,prn:6,pseudo_cd_ph:374527921.778096
$meas,msRange:78.440084,x:6986078.931526,y:24489556.367852,z:-7431038.444534,vx:-150.557861,vy:963.957642,vz:3020.437500,tb:0.0002102799
i = 3
$pseudo_cd_ph,prn:7,pseudo_cd_ph:374527921.281176
$meas,msRange:78.706428,x:-7791676.116463,y:21471132.215633,z:-12886765.339272,vx:-383.428192,vy:-1676.953735,vz:-2559.558105,tb:-0.0000206458
i = 4
$pseudo_cd_ph,prn:11,pseudo_cd_ph:374527924.965266
$meas,msRange:74.432503,x:-15723754.107491,y:4453999.382257,z:20383378.135242,vx:-1286.210571,vy:-2414.658447,vz:-477.586700,tb:-0.0006104401
i = 5
$pseudo_cd_ph,prn:17,pseudo_cd_ph:374527926.984393
$meas,msRange:73.075474,x:7849486.408251,y:18109911.554494,z:18222010.708648,vx:-1999.430542,vy:-977.317444,vz:1866.168457,tb:0.0000518259
i = 6
$pseudo_cd_ph,prn:18,pseudo_cd_ph:374527921.169162
$meas,msRange:78.890631,x:-15312351.655322,y:-1439398.251493,z:21178630.972687,vx:-314.896057,vy:-2788.510742,vz:-394.612396,tb:0.0000515362
i = 7
i = 8
$pseudo_cd_ph,prn:22,pseudo_cd_ph:374527922.448100
$meas,msRange:76.862178,x:-22852043.254359,y:6768703.473126,z:11881426.108933,vx:961.094177,vy:-1174.913330,vz:2576.352051,tb:-0.0006978093
i = 9
$pseudo_cd_ph,prn:28,pseudo_cd_ph:374527930.618905
$meas,msRange:70.156937,x:-4812132.497282,y:17802200.841635,z:19757418.709974,vx:-2109.144287,vy:1084.950317,vz:-1529.973389,tb:0.0007678343
i = 10
$pseudo_cd_ph,prn:30,pseudo_cd_ph:374527927.315995
$meas,msRange:72.590933,x:-957684.370729,y:26316758.365259,z:-2514048.750463,vx:-368.339813,vy:-312.321564,vz:-3122.573242,tb:-0.0001012577
i = 11
i = 12
i = 13
i = 14
i = 15
i = 16
i = 17
i = 18
i = 19
i = 20
i = 21
i = 22
i = 23
i = 24
i = 25
Refix G01: 2, 374527.927861, 1577
Refix G03: 2, 374527.924569, -2602
Refix G06: 2, 374527.921778, -4435
Refix G07: 2, 374527.921281, 2496
Refix G11: 2, 374527.924965, 1695
Refix G17: 2, 374527.926984, -1911
Refix G18: 2, 374527.921169, 2423
Refix G22: 2, 374527.922448, -1058
Refix G28: 2, 374527.930619, -2397
Refix G30: 2, 374527.927316, 1490
$GNGGA,080150.000,2944.9083,N,10633.0901,E,1,18,0.7,325.3,M,,,,0000*12
$GNRMC,080150.000,A,2944.9083,N,10633.0901,E,0.23,0.00,090519,,*12
$GPGSA,A,3,01,03,06,07,11,17,18,22,28,30,,,0.8,0.7,0.4*3C
$BDGSA,A,3,02,03,04,07,08,10,27,30,,,,,0.8,0.7,0.4*25
$GLGSA,A,3,,,,,,,,,,,,,0.8,0.7,0.4*25
$GPGSV,3,1,11,01,42,041,45,03,30,104,42,06,21,218,42,07,17,176,37*76
$GPGSV,3,2,11,11,30,045,43,17,46,303,44,18,16,041,36,19,00,000,36*7A
$GPGSV,3,3,11,22,27,078,42,28,67,356,44,30,41,203,44*49
$BDGSV,3,1,11,02,47,219,41,03,55,171,43,04,23,109,41,07,61,129,43*62
$BDGSV,3,2,11,08,83,325,43,10,88,016,43,27,46,032,44,30,54,295,45*63
$BDGSV,3,3,11,01,40,125,00,13,61,232,00,32,12,139,00*54
$B3CN0,0,0,0,0,0,0,27,0,0,0,0,0,0,0*79
$ini_pos,lastpos_good = 1,ini_pos.x:-1578910.419789,ini_pos.y:5312771.392188,ini_pos.z:3146358.074660
$rtc_local_time,localRTC.weeks:2052,localRTC.seconds:374528.058462,localGtime.weeks:2052,localGtime.seconds:374529.000000
i = 0
$pseudo_cd_ph,prn:1,pseudo_cd_ph:374528927.860014
$meas,msRange:72.136715,x:-13511067.829448,y:8865671.121644,z:20829312.475476,vx:-278.948853,vy:-2676.848389,vz:981.677063,tb:-0.0000121512
i = 1
$pseudo_cd_ph,prn:3,pseudo_cd_ph:374528924.570400
$meas,msRange:75.626437,x:-23215450.485231,y:11913266.981116,z:4671154.024542,vx:337.910004,vy:-567.777039,vz:3110.505371,tb:0.0001881321
i = 2
$pseudo_cd_ph,prn:6,pseudo_cd_ph:374528921.780881
$meas,msRange:78.437993,x:6985928.387950,y:24490520.140085,z:-7428017.927728,vx:-150.529312,vy:963.586914,vz:3020.596191,tb:0.0002102799
i = 3
$pseudo_cd_ph,prn:7,pseudo_cd_ph:374528921.279561
$meas,msRange:78.708736,x:-7792059.601549,y:21469455.109766,z:-12889324.754908,vx:-383.542023,vy:-1677.258057,vz:-2559.273193,tb:-0.0000206458
i = 4
$pseudo_cd_ph,prn:11,pseudo_cd_ph:374528924.964154
$meas,msRange:74.434302,x:-15725040.360199,y:4451584.779732,z:20382900.320759,vx:-1286.294922,vy:-2414.546631,vz:-478.042297,tb:-0.0006104401
i = 5
$pseudo_cd_ph,prn:17,pseudo_cd_ph:374528926.985575
$meas,msRange:73.074984,x:7847486.846736,y:18108934.244896,z:18223876.689730,vx:-1999.692627,vy:-977.301819,vz:1865.793823,tb:0.0000518259
i = 6
$pseudo_cd_ph,prn:18,pseudo_cd_ph:374528921.167594
$meas,msRange:78.892893,x:-15312666.625254,y:-1442186.727088,z:21178236.124914,vx:-315.043823,vy:-2788.440430,vz:-395.083160,tb:0.0000515362
i = 7
i = 8
$pseudo_cd_ph,prn:22,pseudo_cd_ph:374528922.448740
$meas,msRange:76.862229,x:-22851082.065524,y:6767528.436376,z:11884002.335439,vx:961.283569,vy:-1175.160278,vz:2576.101074,tb:-0.0006978093
i = 9
$pseudo_cd_ph,prn:28,pseudo_cd_ph:374528930.620396
$meas,msRange:70.156138,x:-4814241.526600,y:17803285.813310,z:19755888.537223,vx:-2108.914551,vy:1084.993164,vz:-1530.372314,tb:0.0007678343
i = 10
$pseudo_cd_ph,prn:30,pseudo_cd_ph:374528927.315018
$meas,msRange:72.592603,x:-958052.725545,y:26316445.857184,z:-2517171.296491,vx:-368.369843,vy:-312.694580,vz:-3122.519043,tb:-0.0001012577
i = 11
i = 12
i = 13
i = 14
i = 15
i = 16
i = 17
i = 18
i = 19
i = 20
i = 21
i = 22
i = 23
i = 24
i = 25
i = 26
i = 27
Refix G01: 2, 374528.927860, 1580
Refix G03: 2, 374528.924570, -2599
Refix G06: 2, 374528.921781, -4433
Refix G07: 2, 374528.921280, 2498
Refix G11: 2, 374528.924964, 1698
Refix G17: 2, 374528.926986, -1908
Refix G18: 2, 374528.921168, 2426
Refix G22: 2, 374528.922449, -1055
Refix G28: 2, 374528.930620, -2394
Refix G30: 2, 374528.927315, 1494
$GNGGA,080151.000,2944.9083,N,10633.0901,E,1,18,0.7,324.9,M,,,,0000*18
$GNRMC,080151.000,A,2944.9083,N,10633.0901,E,0.30,0.00,090519,,*11
$GPGSA,A,3,01,03,06,07,11,17,18,22,28,30,,,0.8,0.7,0.4*3C
$BDGSA,A,3,02,03,04,07,08,10,27,30,,,,,0.8,0.7,0.4*25
$GLGSA,A,3,,,,,,,,,,,,,0.8,0.7,0.4*25
$GPGSV,3,1,11,01,42,041,45,03,30,104,42,06,21,218,43,07,17,176,36*76
$GPGSV,3,2,11,11,30,045,42,17,46,303,44,18,16,041,35,19,00,000,36*78
$GPGSV,3,3,11,22,27,078,42,28,67,356,44,30,41,203,44*49
$BDGSV,3,1,11,01,40,125,39,02,47,219,40,03,55,171,43,04,23,109,41*67
$BDGSV,3,2,11,07,61,129,43,08,83,325,43,10,88,016,43,27,46,032,44*63
$BDGSV,3,3,11,30,54,295,45,13,61,232,00,32,12,139,00*5A
$B3CN0,0,18,0,0,0,0,26,0,0,0,0,0,0,0*41
$ini_pos,lastpos_good = 1,ini_pos.x:-1578910.384354,ini_pos.y:5312771.029239,ini_pos.z:3146357.889195
$rtc_local_time,localRTC.weeks:2052,localRTC.seconds:374529.058462,localGtime.weeks:2052,localGtime.seconds:374530.000000
i = 0
$pseudo_cd_ph,prn:1,pseudo_cd_ph:374529927.858976
$meas,msRange:72.138440,x:-13511346.862478,y:8862994.220911,z:20830293.925916,vx:-279.117218,vy:-2676.953369,vz:981.223877,tb:-0.0000121513
i = 1
$pseudo_cd_ph,prn:3,pseudo_cd_ph:374529924.572014
$meas,msRange:75.625508,x:-23215112.429977,y:11912699.083662,z:4674264.479774,vx:338.200531,vy:-568.017944,vz:3110.405273,tb:0.0001881321
i = 2
$pseudo_cd_ph,prn:6,pseudo_cd_ph:374529921.783658
$meas,msRange:78.435901,x:6985777.872895,y:24491483.541601,z:-7424997.252293,vx:-150.500809,vy:963.216187,vz:3020.754883,tb:0.0002102799
i = 3
$pseudo_cd_ph,prn:7,pseudo_cd_ph:374529921.277948
$meas,msRange:78.711044,x:-7792443.200499,y:21467777.699575,z:-12891883.885660,vx:-383.655914,vy:-1677.562378,vz:-2558.988281,tb:-0.0000206458
i = 4
$pseudo_cd_ph,prn:11,pseudo_cd_ph:374529924.963041
$meas,msRange:74.436102,x:-15726326.697240,y:4449170.288993,z:20382422.050664,vx:-1286.379272,vy:-2414.434814,vz:-478.497925,tb:-0.0006104401
i = 5
$pseudo_cd_ph,prn:17,pseudo_cd_ph:374529926.986751
$meas,msRange:73.074494,x:7845487.023074,y:18107956.950921,z:18225742.296067,vx:-1999.954834,vy:-977.286194,vz:1865.419067,tb:0.0000518259
i = 6
$pseudo_cd_ph,prn:18,pseudo_cd_ph:374529921.166017
$meas,msRange:78.895155,x:-15312981.742965,y:-1444975.132349,z:21177840.806369,vx:-315.191620,vy:-2788.370117,vz:-395.553925,tb:0.0000515362
i = 7
i = 8
$pseudo_cd_ph,prn:22,pseudo_cd_ph:374529922.449375
$meas,msRange:76.862281,x:-22850120.687316,y:6766353.152592,z:11886578.311088,vx:961.472900,vy:-1175.407349,vz:2575.850342,tb:-0.0006978093
i = 9
$pseudo_cd_ph,prn:28,pseudo_cd_ph:374529930.621883
$meas,msRange:70.155339,x:-4816350.326090,y:17804370.827806,z:19754357.965560,vx:-2108.684570,vy:1085.035889,vz:-1530.771118,tb:0.0007678343
i = 10
$pseudo_cd_ph,prn:30,pseudo_cd_ph:374529927.314036
$meas,msRange:72.594273,x:-958421.110433,y:26316132.976099,z:-2520293.788303,vx:-368.399963,vy:-313.067596,vz:-3122.464844,tb:-0.0001012577
i = 11
i = 12
i = 13
i = 14
i = 15
i = 16
i = 17
i = 18
i = 19
i = 20
i = 21
i = 22
i = 23
i = 24
i = 25
i = 26
Refix G01: 2, 374529.927859, 1582
Refix G03: 2, 374529.924572, -2597
Refix G06: 2, 374529.921784, -4431
Refix G07: 2, 374529.921278, 2500
Refix G11: 2, 374529.924963, 1700
Refix G17: 2, 374529.926987, -1907
Refix G18: 2, 374529.921166, 2428
Refix G22: 2, 374529.922449, -1053
Refix G28: 2, 374529.930622, -2392
Refix G30: 2, 374529.927314, 1495
$GNGGA,080152.000,2944.9083,N,10633.0902,E,1,18,0.7,324.4,M,,,,0000*15
$GNRMC,080152.000,A,2944.9083,N,10633.0902,E,0.24,0.00,090519,,*14
$GPGSA,A,3,01,03,06,07,11,17,18,22,28,30,,,0.8,0.7,0.4*3C
$BDGSA,A,3,02,03,04,07,08,10,27,30,,,,,0.8,0.7,0.4*25
$GLGSA,A,3,,,,,,,,,,,,,0.8,0.7,0.4*25
$GPGSV,3,1,11,01,42,041,44,03,30,104,42,06,21,218,42,07,17,176,36*76
$GPGSV,3,2,11,11,30,045,42,17,46,303,45,18,16,041,36,19,00,000,37*7B
$GPGSV,3,3,11,22,27,078,43,28,67,356,44,30,41,203,44*48
$BDGSV,3,1,11,01,40,125,40,02,47,219,41,03,55,171,42,04,23,109,40*68
$BDGSV,3,2,11,07,61,129,43,08,83,325,43,10,88,016,43,13,61,232,30*60
$BDGSV,3,3,11,27,46,032,44,30,54,295,45,32,12,139,00*5A
$B3CN0,0,21,0,0,0,0,0,0,0,0,0,0,0,0*7F
$ini_pos,lastpos_good = 1,ini_pos.x:-1578910.341951,ini_pos.y:5312770.528320,ini_pos.z:3146357.582615
$rtc_local_time,localRTC.weeks:2052,localRTC.seconds:374530.058462,localGtime.weeks:2052,localGtime.seconds:374530.999999
i = 0
$pseudo_cd_ph,prn:1,pseudo_cd_ph:374530927.857943
$meas,msRange:72.140166,x:-13511626.063893,y:8860317.215246,z:20831274.923207,vx:-279.285614,vy:-2677.058105,vz:980.770752,tb:-0.0000121513
i = 1
$pseudo_cd_ph,prn:3,pseudo_cd_ph:374530924.573633
$meas,msRange:75.624580,x:-23214774.084203,y:11912130.945300,z:4677374.834959,vx:338.491028,vy:-568.258850,vz:3110.305176,tb:0.0001881321
i = 2
$pseudo_cd_ph,prn:6,pseudo_cd_ph:374530921.786442
$meas,msRange:78.433810,x:6985627.386310,y:24492446.572380,z:-7421976.418293,vx:-150.472366,vy:962.845459,vz:3020.913330,tb:0.0002102799
i = 3
$pseudo_cd_ph,prn:7,pseudo_cd_ph:374530921.276335
$meas,msRange:78.713352,x:-7792826.913351,y:21466099.985105,z:-12894442.731473,vx:-383.769836,vy:-1677.866699,vz:-2558.703369,tb:-0.0000206458
i = 4
$pseudo_cd_ph,prn:11,pseudo_cd_ph:374530924.961931
$meas,msRange:74.437902,x:-15727613.118576,y:4446755.910094,z:20381943.324967,vx:-1286.463501,vy:-2414.322998,vz:-478.953522,tb:-0.0006104401
i = 5
$pseudo_cd_ph,prn:17,pseudo_cd_ph:374530926.987932
$meas,msRange:73.074005,x:7843486.937299,y:18106979.672623,z:18227607.527621,vx:-2000.216919,vy:-977.270447,vz:1865.044189,tb:0.0000518259
i = 6
$pseudo_cd_ph,prn:18,pseudo_cd_ph:374530921.164441
$meas,msRange:78.897418,x:-15313297.008439,y:-1447763.467209,z:21177445.017063,vx:-315.339355,vy:-2788.299805,vz:-396.024689,tb:0.0000515362
i = 7
i = 8
$pseudo_cd_ph,prn:22,pseudo_cd_ph:374530922.450011
$meas,msRange:76.862333,x:-22849159.119787,y:6765177.621765,z:11889154.035825,vx:961.662231,vy:-1175.654419,vz:2575.599365,tb:-0.0006978093
i = 9
$pseudo_cd_ph,prn:28,pseudo_cd_ph:374530930.623374
$meas,msRange:70.154542,x:-4818458.895714,y:17805455.885071,z:19752826.995012,vx:-2108.454834,vy:1085.078613,vz:-1531.170044,tb:0.0007678343
i = 10
$pseudo_cd_ph,prn:30,pseudo_cd_ph:374530927.313058
$meas,msRange:72.595943,x:-958789.525440,y:26315819.722012,z:-2523416.225831,vx:-368.430084,vy:-313.440582,vz:-3122.410400,tb:-0.0001012577
i = 11
i = 12
i = 13
i = 14
i = 15
i = 16
i = 17
i = 18
i = 19
i = 20
i = 21
i = 22
i = 23
i = 24
i = 25
i = 26
Refix G01: 2, 374530.927858, 1579
Refix G03: 2, 374530.924574, -2601
Refix G06: 2, 374530.921786, -4434
Refix G07: 2, 374530.921276, 2496
Refix G11: 2, 374530.924962, 1696
Refix G17: 2, 374530.926988, -1910
Refix G18: 2, 374530.921164, 2425
Refix G22: 2, 374530.922450, -1056
Refix G28: 2, 374530.930623, -2396
Refix G30: 2, 374530.927313, 1491
$GNGGA,080153.000,2944.9082,N,10633.0902,E,1,18,0.7,323.9,M,,,,0000*1F
$GNRMC,080153.000,A,2944.9082,N,10633.0902,E,0.12,0.00,090519,,*11
$GPGSA,A,3,01,03,06,07,11,17,18,22,28,30,,,0.8,0.7,0.4*3C
$BDGSA,A,3,02,03,04,07,08,10,27,30,,,,,0.8,0.7,0.4*25
$GLGSA,A,3,,,,,,,,,,,,,0.8,0.7,0.4*25
$GPGSV,3,1,11,01,42,041,44,03,30,104,42,06,21,218,42,07,17,176,36*76
$GPGSV,3,2,11,11,30,045,42,17,46,303,44,18,16,041,36,19,00,000,37*7A
$GPGSV,3,3,11,22,27,078,43,28,67,356,44,30,41,203,44*48
$BDGSV,3,1,11,01,40,125,41,02,47,219,40,03,55,171,42,04,23,109,40*68
$BDGSV,3,2,11,07,61,129,43,08,83,325,42,10,88,016,43,13,61,232,43*65
$BDGSV,3,3,11,27,46,032,44,30,54,295,44,32,12,139,00*5B
$B3CN0,0,20,0,0,0,0,0,0,0,0,0,0,0,0*7E
$ini_pos,lastpos_good = 1,ini_pos.x:-1578910.295752,ini_pos.y:5312770.131288,ini_pos.z:3146357.298570
$rtc_local_time,localRTC.weeks:2052,localRTC.seconds:374531.058462,localGtime.weeks:2052,localGtime.seconds:374531.999999
i = 0
$pseudo_cd_ph,prn:1,pseudo_cd_ph:374531927.856906
$meas,msRange:72.141891,x:-13511905.433704,y:8857640.104719,z:20832255.467328,vx:-279.454010,vy:-2677.163086,vz:980.317566,tb:-0.0000121513
i = 1
$pseudo_cd_ph,prn:3,pseudo_cd_ph:374531924.575250
$meas,msRange:75.623652,x:-23214435.447950,y:11911562.565998,z:4680485.090030,vx:338.781494,vy:-568.499817,vz:3110.205078,tb:0.0001881321
i = 2
$pseudo_cd_ph,prn:6,pseudo_cd_ph:374531921.789222
$meas,msRange:78.431718,x:6985476.928143,y:24493409.232403,z:-7418955.425792,vx:-150.443985,vy:962.474670,vz:3021.071777,tb:0.0002102799
i = 3
$pseudo_cd_ph,prn:7,pseudo_cd_ph:374531921.274711
$meas,msRange:78.715660,x:-7793210.740144,y:21464421.966400,z:-12897001.292289,vx:-383.883789,vy:-1678.170898,vz:-2558.418457,tb:-0.0000206458
i = 4
$pseudo_cd_ph,prn:11,pseudo_cd_ph:374531924.960818
$meas,msRange:74.439702,x:-15728899.624168,y:4444341.643087,z:20381464.143679,vx:-1286.547729,vy:-2414.211182,vz:-479.409088,tb:-0.0006104401
i = 5
$pseudo_cd_ph,prn:17,pseudo_cd_ph:374531926.989114
$meas,msRange:73.073516,x:7841486.589444,y:18106002.410057,z:18229472.384355,vx:-2000.479004,vy:-977.254700,vz:1864.669312,tb:0.0000518260
i = 6
$pseudo_cd_ph,prn:18,pseudo_cd_ph:374531921.162866
$meas,msRange:78.899680,x:-15313612.421663,y:-1450551.731597,z:21177048.757005,vx:-315.487091,vy:-2788.229248,vz:-396.495453,tb:0.0000515362
i = 7
i = 8
$pseudo_cd_ph,prn:22,pseudo_cd_ph:374531922.450646
$meas,msRange:76.862385,x:-22848197.362989,y:6764001.843887,z:11891729.509596,vx:961.851440,vy:-1175.901489,vz:2575.348389,tb:-0.0006978093
i = 9
$pseudo_cd_ph,prn:28,pseudo_cd_ph:374531930.624863
$meas,msRange:70.153744,x:-4820567.235433,y:17806540.985056,z:19751295.625611,vx:-2108.224854,vy:1085.121338,vz:-1531.568848,tb:0.0007678343
i = 10
$pseudo_cd_ph,prn:30,pseudo_cd_ph:374531927.312078
$meas,msRange:72.597614,x:-959157.970615,y:26315506.094934,z:-2526538.609007,vx:-368.460297,vy:-313.813568,vz:-3122.356201,tb:-0.0001012577
i = 11
i = 12
i = 13
i = 14
i = 15
i = 16
i = 17
i = 18
i = 19
i = 20
i = 21
i = 22
i = 23
i = 24
i = 25
i = 26
Refix G01: 2, 374531.927857, 1586
Refix G03: 2, 374531.924575, -2594
Refix G06: 2, 374531.921789, -4428
Refix G07: 2, 374531.921275, 2502
Refix G11: 2, 374531.924961, 1703
Refix G17: 2, 374531.926989, -1904
Refix G18: 2, 374531.921163, 2431
Refix G22: 2, 374531.922451, -1050
Refix G28: 2, 374531.930625, -2389
Refix G30: 2, 374531.927312, 1498
$GNGGA,080154.000,2944.9082,N,10633.0902,E,1,19,0.7,324.0,M,,,,0000*17
$GNRMC,080154.000,A,2944.9082,N,10633.0902,E,0.21,0.00,090519,,*16
$GPGSA,A,3,01,03,06,07,11,17,18,22,28,30,,,0.8,0.7,0.4*3C
$BDGSA,A,3,01,02,03,04,07,08,10,27,30,,,,0.8,0.7,0.4*24
$GLGSA,A,3,,,,,,,,,,,,,0.8,0.7,0.4*25
$GPGSV,3,1,11,01,42,041,44,03,30,104,42,06,21,218,42,07,17,176,35*75
$GPGSV,3,2,11,11,30,045,42,17,46,303,44,18,16,041,36,19,00,000,37*7A
$GPGSV,3,3,11,22,27,078,43,28,67,356,44,30,41,203,44*48
$BDGSV,3,1,11,01,40,125,40,02,47,219,40,03,55,171,43,04,23,109,41*69
$BDGSV,3,2,11,07,61,129,43,08,83,325,43,10,88,016,43,13,61,232,43*64
$BDGSV,3,3,11,27,46,032,44,30,54,295,45,32,12,139,00*5A
$B3CN0,0,0,0,0,0,0,0,0,0,0,0,0,0,0*4C
