$meas,msRange:72.996434,x:-1046685.067SD initialized success
Create debug.log Failed! 3
bbram_blkflag = 1
rtcflag = 0
BBRAM Block OK: 01 EPHflag: 28270465 a40012cf, rtc 00
Hot-start nowtime:day = 9,minute = 6,seconds = 31.00
GPS 0 Init Dop:  1932, 2
GPS 1 Init Dop: 10000,80
GPS 2 Init Dop: -2216, 2
GPS 3 Init Dop: 10000,80
GPS 4 Init Dop: 10000,80
GPS 5 Init Dop: -4111, 2
GPS 6 Init Dop:  2758, 2
GPS 7 Init Dop: 10000,80
GPS 8 Init Dop: 10000,80
GPS 9 Init Dop: 10000,80
GPS10 Init Dop:  1989, 2
GPS11 Init Dop: 10000,80
GPS12 Init Dop: 10000,80
GPS13 Init Dop: 10000,80
GPS14 Init Dop: 10000,80
GPS15 Init Dop: 10000,80
GPS16 Init Dop: -1629, 2
GPS17 Init Dop:  2712, 2
GPS18 Init Dop: -2733, 2
GPS19 Init Dop: 10000,80
GPS20 Init Dop: 10000,80
GPS21 Init Dop:  -654, 2
GPS22 Init Dop: 10000,80
GPS23 Init Dop: 10000,80
GPS24 Init Dop: 10000,80
GPS25 Init Dop: 10000,80
GPS26 Init Dop: 10000,80
GPS27 Init Dop: -2068, 2
GPS28 Init Dop: 10000,80
GPS29 Init Dop:  1843, 2
GPS30 Init Dop: 10000,80
GPS31 Init Dop: 10000,80
BDS 0 Init Dop:  -853, 2
BDS 1 Init Dop:  -912, 2
BDS 2 Init Dop:  -873, 2
BDS 3 Init Dop:  -871, 2
BDS 4 Init Dop: 10000,80
BDS 5 Init Dop: 10000,80
BDS 6 Init Dop:  -522, 2
BDS 7 Init Dop:  -651, 2
BDS 8 Init Dop: 10000,80
BDS 9 Init Dop:  -993, 2
BDS10 Init Dop: 10000,80
BDS11 Init Dop: 10000,80
BDS12 Init Dop: -1157, 2
BDS13 Init Dop: 10000,80
BDS14 Init Dop: 10000,80
BDS15 Init Dop: 10000,80
BDS16 Init Dop: 10000,80
BDS17 Init Dop: 10000,80
BDS18 Init Dop: 10000,80
BDS19 Init Dop: 10000,80
BDS20 Init Dop: 10000,80
BDS21 Init Dop: 10000,80
BDS22 Init Dop: 10000,80
BDS23 Init Dop: 10000,80
BDS24 Init Dop: 10000,80
BDS25 Init Dop: 10000,80
BDS26 Init Dop:   788, 2
BDS27 Init Dop: 10000,80
BDS28 Init Dop: 10000,80
BDS29 Init Dop: -1349, 2
BDS30 Init Dop: 10000,80
BDS31 Init Dop: -3278, 2
Good luck!
$ini_pos,lastpos_good = 1,ini_pos.x:-1578915.000000,ini_pos.y:5312782.000000,ini_pos.z:3146362.000000
$rtc_local_time,localRTC.weeks:2052,localRTC.seconds:374810.026014,localGtime.weeks:0,localGtime.seconds:19.026010
$GNGGA,000000.000,,,,,0,00,,,M,,,,0000*2B
$GNRMC,000000.000,A,,,,,,,060180,,*29
$GPGSA,A,1,,,,,,,,,,,,,,,*1E
$BDGSA,A,1,,,,,,,,,,,,,,,*0F
$GLGSA,A,1,,,,,,,,,,,,,,,*02
$B3CN0,0,0,0,0,0,0,0,0,0,0,0,0,0,0*4C
$ini_pos,lastpos_good = 1,ini_pos.x:-1578915.000000,ini_pos.y:5312782.000000,ini_pos.z:3146362.000000
$rtc_local_time,localRTC.weeks:2052,localRTC.seconds:374811.026014,localGtime.weeks:2052,localGtime.seconds:374811.026014
i = 0
i = 1
$GNGGA,000000.000,,,,,0,00,,,M,,,,0000*2B
$GNRMC,000000.000,A,,,,,,,060180,,*29
$GPGSA,A,1,,,,,,,,,,,,,,,*1E
$BDGSA,A,1,,,,,,,,,,,,,,,*0F
$GLGSA,A,1,,,,,,,,,,,,,,,*02
$B3CN0,0,0,0,0,0,0,0,0,0,0,0,0,0,0*4C
$ini_pos,lastpos_good = 1,ini_pos.x:-1578915.000000,ini_pos.y:5312782.000000,ini_pos.z:3146362.000000
$rtc_local_time,localRTC.weeks:2052,localRTC.seconds:374812.026013,localGtime.weeks:2052,localGtime.seconds:374812.026013
i = 0
$pseudo_cd_ph,prn:1,pseudo_cd_ph:16.050368
$meas,msRange:72.634008,x:-13596800.872684,y:8104109.025264,z:21088929.726749,vx:-327.009796,vy:-2703.792480,vz:852.651367,tb:-0.000012154718
i = 1
$pseudo_cd_ph,prn:3,pseudo_cd_ph:13.510931
$meas,msRange:75.375450,x:-23108330.879086,y:11742800.476714,z:5547252.594870,vx:418.492065,vy:-637.247375,vz:3079.548340,tb:0.000188131961
i = 2
$pseudo_cd_ph,prn:6,pseudo_cd_ph:11.056806
$meas,msRange:77.852406,x:6944271.376959,y:24748322.779515,z:-6567002.210552,vx:-144.534668,vy:857.939453,vz:3062.893799,tb:0.000210276665
i = 3
$pseudo_cd_ph,prn:7,pseudo_cd_ph:9.312496
$meas,msRange:79.362995,x:-7905313.660778,y:20982730.433380,z:-13602043.654095,vx:-417.256287,vy:-1761.558594,vz:-2476.402832,tb:-0.000020649127
i = 4
$pseudo_cd_ph,prn:11,pseudo_cd_ph:13.138841
$meas,msRange:74.947295,x:-16092324.720124,y:3772882.104263,z:20229395.017537,vx:-1308.583496,vy:-2380.801758,vz:-606.545654,tb:-0.000610439566
i = 5
i = 6
i = 7
$GNGGA,000000.000,,,,,0,00,,,M,,,,0000*2B
$GNRMC,000000.000,A,,,,,,,060180,,*29
$GPGSA,A,1,,,,,,,,,,,,,,,*1E
$BDGSA,A,1,,,,,,,,,,,,,,,*0F
$GLGSA,A,1,,,,,,,,,,,,,,,*02
$GPGSV,1,1,04,01,00,000,26,03,00,000,24,06,00,000,18,07,00,000,17*73
$B3CN0,0,0,0,0,0,0,0,0,0,0,0,0,0,0*4C
$ini_pos,lastpos_good = 1,ini_pos.x:-1578915.000000,ini_pos.y:5312782.000000,ini_pos.z:3146362.000000
$rtc_local_time,localRTC.weeks:2052,localRTC.seconds:374813.026013,localGtime.weeks:2052,localGtime.seconds:374813.026013
i = 0
$pseudo_cd_ph,prn:1,pseudo_cd_ph:16.049255
$meas,msRange:72.635798,x:-13597127.968012,y:8101405.190245,z:21089782.148839,vx:-327.180878,vy:-2703.877686,vz:852.192871,tb:-0.000012154729
i = 1
$pseudo_cd_ph,prn:3,pseudo_cd_ph:13.512438
$meas,msRange:75.374606,x:-23107912.247662,y:11742163.104390,z:5550332.083706,vx:418.770782,vy:-637.497314,vz:3079.429443,tb:0.000188131960
i = 2
$pseudo_cd_ph,prn:6,pseudo_cd_ph:11.059526
$meas,msRange:77.850361,x:6944126.849181,y:24749180.531085,z:-6563939.246783,vx:-144.520905,vy:857.563782,vz:3063.033936,tb:0.000210276654
i = 3
$pseudo_cd_ph,prn:7,pseudo_cd_ph:9.310879
$meas,msRange:79.365310,x:-7905730.979183,y:20980968.729238,z:-13604519.906429,vx:-417.380554,vy:-1761.849854,vz:-2476.102051,tb:-0.000020649138
i = 4
$pseudo_cd_ph,prn:11,pseudo_cd_ph:13.137682
$meas,msRange:74.949120,x:-16093633.340103,y:3770501.365797,z:20228788.245741,vx:-1308.656494,vy:-2380.675293,vz:-606.997986,tb:-0.000610439564
i = 5
$pseudo_cd_ph,prn:17,pseudo_cd_ph:15.811982
$meas,msRange:72.938482,x:7269078.235330,y:17832190.340540,z:18738554.370513,vx:-2072.767578,vy:-970.704285,vz:1757.877197,tb:0.000051828640
i = 6
$pseudo_cd_ph,prn:19,pseudo_cd_ph:12.951970
$meas,msRange:75.425959,x:14546355.328386,y:18112504.727330,z:12497841.929487,vx:-1509.367188,vy:-657.143555,vz:2653.489746,tb:-0.000321134933
i = 7
$pseudo_cd_ph,prn:22,pseudo_cd_ph:11.109993
$meas,msRange:76.890482,x:-22570616.103976,y:6423757.793210,z:12605360.690839,vx:1012.932312,vy:-1245.628418,vz:2502.708740,tb:-0.000697810797
i = 8
$pseudo_cd_ph,prn:28,pseudo_cd_ph:19.530789
$meas,msRange:69.935960,x:-5403815.694389,y:18112983.390633,z:19305248.047029,vx:-2042.148071,vy:1095.080933,vz:-1642.449097,tb:0.000767836082
i = 9
$pseudo_cd_ph,prn:30,pseudo_cd_ph:15.519966
$meas,msRange:73.076030,x:-1064076.793360,y:26212626.490082,z:-3401604.829637,vx:-378.856964,vy:-418.208801,vz:-3104.413086,tb:-0.000101260052
i = 10
i = 11
i = 12
i = 13
i = 14
i = 15
$GNGGA,000000.000,,,,,0,00,,,M,,,,0000*2B
$GNRMC,000000.000,A,,,,,,,060180,,*29
$GPGSA,A,1,,,,,,,,,,,,,,,*1E
$BDGSA,A,1,,,,,,,,,,,,,,,*0F
$GLGSA,A,1,,,,,,,,,,,,,,,*02
$GPGSV,2,1,08,01,00,000,45,03,00,000,42,06,00,000,43,07,00,000,37*75
$GPGSV,2,2,08,11,00,000,35,17,00,000,28,19,00,000,27,22,00,000,23*77
$B3CN0,0,0,0,0,0,0,0,0,0,0,0,0,0,0*4C
$ini_pos,lastpos_good = 1,ini_pos.x:-1578915.000000,ini_pos.y:5312782.000000,ini_pos.z:3146362.000000
$rtc_local_time,localRTC.weeks:2052,localRTC.seconds:374814.026013,localGtime.weeks:2052,localGtime.seconds:374814.026013
i = 0
$pseudo_cd_ph,prn:1,pseudo_cd_ph:16.048145
$meas,msRange:72.637588,x:-13597455.234426,y:8098701.269928,z:21090634.112418,vx:-327.351959,vy:-2703.963135,vz:851.734375,tb:-0.000012154740
i = 1
$pseudo_cd_ph,prn:3,pseudo_cd_ph:13.513945
$meas,msRange:75.373763,x:-23107493.337535,y:11741525.482130,z:5553411.453734,vx:419.049469,vy:-637.747253,vz:3079.310791,tb:0.000188131959
i = 2
$pseudo_cd_ph,prn:6,pseudo_cd_ph:11.062241
$meas,msRange:77.848317,x:6943982.335150,y:24750037.906984,z:-6560876.142855,vx:-144.507172,vy:857.188110,vz:3063.174072,tb:0.000210276644
i = 3
$pseudo_cd_ph,prn:7,pseudo_cd_ph:9.309254
$meas,msRange:79.367625,x:-7906148.421883,y:20979206.733908,z:-13606995.858073,vx:-417.504883,vy:-1762.140991,vz:-2475.801270,tb:-0.000020649150
i = 4
$pseudo_cd_ph,prn:11,pseudo_cd_ph:13.136527
$meas,msRange:74.950946,x:-16094942.033092,y:3768120.753953,z:20228181.021646,vx:-1308.729492,vy:-2380.548584,vz:-607.450256,tb:-0.000610439561
i = 5
$pseudo_cd_ph,prn:17,pseudo_cd_ph:15.813127
$meas,msRange:72.938011,x:7267005.341652,y:17831219.651660,z:18740312.055134,vx:-2073.019775,vy:-970.673523,vz:1757.492188,tb:0.000051828649
i = 6
$pseudo_cd_ph,prn:19,pseudo_cd_ph:12.953812
$meas,msRange:75.424788,x:14544845.794085,y:18111847.545377,z:12500495.283306,vx:-1509.701538,vy:-657.220398,vz:2653.218262,tb:-0.000321134931
i = 7
$pseudo_cd_ph,prn:22,pseudo_cd_ph:11.110511
$meas,msRange:76.890631,x:-22569603.084565,y:6422512.040346,z:12607863.266520,vx:1013.106567,vy:-1245.877441,vz:2502.442871,tb:-0.000697810803
i = 8
$pseudo_cd_ph,prn:28,pseudo_cd_ph:19.532173
$meas,msRange:69.935210,x:-5405857.722350,y:18114078.485635,z:19303605.402855,vx:-2041.907959,vy:1095.109131,vz:-1642.839355,tb:0.000767836088
i = 9
$pseudo_cd_ph,prn:30,pseudo_cd_ph:15.518904
$meas,msRange:73.077765,x:-1064455.672204,y:26212208.096395,z:-3404709.206017,vx:-378.900726,vy:-418.578583,vz:-3104.339844,tb:-0.000101260060
i = 10
i = 11
i = 12
i = 13
i = 14
i = 15
i = 16
i = 17
$GNGGA,000000.000,,,,,0,00,,,M,,,,0000*2B
$GNRMC,000000.000,A,,,,,,,060180,,*29
$GPGSA,A,1,,,,,,,,,,,,,,,*1E
$BDGSA,A,1,,,,,,,,,,,,,,,*0F
$GLGSA,A,1,,,,,,,,,,,,,,,*02
$GPGSV,3,1,10,01,00,000,44,03,00,000,42,06,00,000,43,07,00,000,38*73
$GPGSV,3,2,10,11,00,000,40,17,00,000,46,19,00,000,38,22,00,000,39*70
$GPGSV,3,3,10,28,00,000,36,30,00,000,34*73
$BDGSV,2,1,06,01,00,000,43,02,00,000,41,03,00,000,43,04,00,000,39*66
$BDGSV,2,2,06,07,00,000,23,08,00,000,22*60
$B3CN0,0,0,0,0,0,0,0,0,0,0,0,0,0,0*4C
tow update,374815859.533581
$ini_pos,lastpos_good = 1,ini_pos.x:-1578915.000000,ini_pos.y:5312782.000000,ini_pos.z:3146362.000000
$rtc_local_time,localRTC.weeks:2052,localRTC.seconds:374815.026013,localGtime.weeks:2052,localGtime.seconds:374815.859534
i = 0
$pseudo_cd_ph,prn:1,pseudo_cd_ph:374815656.047041
$meas,msRange:72.640870,x:-13598055.728459,y:8093743.356000,z:21092195.013757,vx:-327.665680,vy:-2704.119141,vz:850.893616,tb:-0.000012154761
i = 1
$pseudo_cd_ph,prn:3,pseudo_cd_ph:374815653.515465
$meas,msRange:75.372219,x:-23106724.533510,y:11740355.739470,z:5559057.232114,vx:419.560333,vy:-638.205627,vz:3079.092529,tb:0.000188131958
i = 2
$pseudo_cd_ph,prn:6,pseudo_cd_ph:374815651.064968
$meas,msRange:77.844568,x:6943717.401289,y:24751608.947111,z:-6555259.515987,vx:-144.482162,vy:856.499207,vz:3063.430908,tb:0.000210276625
i = 3
$pseudo_cd_ph,prn:7,pseudo_cd_ph:374815649.307631
$meas,msRange:79.371869,x:-7906914.134506,y:20975975.323583,z:-13611534.784215,vx:-417.732880,vy:-1762.674683,vz:-2475.249756,tb:-0.000020649172
i = 4
$pseudo_cd_ph,prn:11,pseudo_cd_ph:374815653.135382
$meas,msRange:74.954294,x:-16097341.737674,y:3763756.183086,z:20227066.489115,vx:-1308.863281,vy:-2380.316162,vz:-608.279541,tb:-0.000610439557
i = 5
$pseudo_cd_ph,prn:17,pseudo_cd_ph:374815655.814280
$meas,msRange:72.937149,x:7263203.994001,y:17829439.954040,z:18743533.805069,vx:-2073.482178,vy:-970.616943,vz:1756.786011,tb:0.000051828668
i = 6
$pseudo_cd_ph,prn:19,pseudo_cd_ph:374815652.955663
$meas,msRange:75.422642,x:14542077.163904,y:18110642.389509,z:12505359.555895,vx:-1510.314575,vy:-657.361084,vz:2652.720215,tb:-0.000321134927
i = 7
$pseudo_cd_ph,prn:22,pseudo_cd_ph:374815651.111039
$meas,msRange:76.890904,x:-22567745.240474,y:6420227.280374,z:12612451.098850,vx:1013.425903,vy:-1246.333984,vz:2501.955078,tb:-0.000697810813
i = 8
$pseudo_cd_ph,prn:28,pseudo_cd_ph:374815659.533581
$meas,msRange:69.933837,x:-5409601.197915,y:18116086.437371,z:19300592.568087,vx:-2041.467407,vy:1095.160522,vz:-1643.554565,tb:0.000767836099
i = 9
$pseudo_cd_ph,prn:30,pseudo_cd_ph:374815655.517851
$meas,msRange:73.080946,x:-1065150.468006,y:26211440.002535,z:-3410400.952347,vx:-378.981110,vy:-419.256592,vz:-3104.205322,tb:-0.000101260075
i = 10
i = 11
i = 12
i = 13
i = 14
i = 15
i = 16
i = 17
$GNGGA,080637.729,2944.9083,N,10633.0954,E,1,10,0.9,354.7,M,,,,0000*1C
$GNRMC,080637.729,A,2944.9083,N,10633.0954,E,0.19,0.00,090519,,*11
$GPGSA,A,3,01,03,06,07,11,17,19,22,28,30,,,2.4,0.9,2.2*39
$BDGSA,A,3,,,,,,,,,,,,,2.4,0.9,2.2*2C
$GLGSA,A,3,,,,,,,,,,,,,2.4,0.9,2.2*21
$GPGSV,3,1,10,01,00,000,44,03,00,000,41,06,00,000,43,07,00,000,37*7F
$GPGSV,3,2,10,11,00,000,39,17,00,000,44,19,00,000,38,22,00,000,40*72
$GPGSV,3,3,10,28,00,000,43,30,00,000,43*71
$BDGSV,2,1,08,01,00,000,42,02,00,000,41,03,00,000,42,04,00,000,40*66
$BDGSV,2,2,08,07,00,000,43,08,00,000,44,10,00,000,44,13,00,000,33*6B
$B3CN0,0,0,0,0,0,0,0,0,0,0,0,0,0,0*4C
$ini_pos,lastpos_good = 1,ini_pos.x:-1578925.940530,ini_pos.y:5312793.372720,ini_pos.z:3146372.663424
$rtc_local_time,localRTC.weeks:2052,localRTC.seconds:374816.297314,localGtime.weeks:2052,localGtime.seconds:374817.000000
i = 0
$pseudo_cd_ph,prn:1,pseudo_cd_ph:374816927.345902
$meas,msRange:72.642857,x:-13598429.531413,y:8090659.343835,z:21093165.131019,vx:-327.860840,vy:-2704.216309,vz:850.370605,tb:-0.000012154773
i = 1
$pseudo_cd_ph,prn:3,pseudo_cd_ph:374816924.817673
$meas,msRange:75.371209,x:-23106245.857919,y:11739627.724842,z:5562568.756142,vx:419.878021,vy:-638.490784,vz:3078.956787,tb:0.000188131956
i = 2
$pseudo_cd_ph,prn:6,pseudo_cd_ph:374816922.368705
$meas,msRange:77.842233,x:6943552.633086,y:24752585.511284,z:-6551765.685291,vx:-144.466675,vy:856.070740,vz:3063.590332,tb:0.000210276613
i = 3
$pseudo_cd_ph,prn:7,pseudo_cd_ph:374816920.605836
$meas,msRange:79.374500,x:-7907390.625705,y:20973964.863193,z:-13614357.527628,vx:-417.874786,vy:-1763.006592,vz:-2474.906738,tb:-0.000020649185
i = 4
$pseudo_cd_ph,prn:11,pseudo_cd_ph:374816924.434190
$meas,msRange:74.956328,x:-16098834.499512,y:3761041.595038,z:20226372.472706,vx:-1308.946411,vy:-2380.171631,vz:-608.795288,tb:-0.000610439555
i = 5
$pseudo_cd_ph,prn:17,pseudo_cd_ph:374816927.116019
$meas,msRange:72.936581,x:7260839.093344,y:17828333.018232,z:18745537.109841,vx:-2073.769775,vy:-970.581665,vz:1756.346680,tb:0.000051828679
i = 6
$pseudo_cd_ph,prn:19,pseudo_cd_ph:374816924.258290
$meas,msRange:75.421297,x:14540354.483629,y:18109892.641444,z:12508384.717365,vx:-1510.695801,vy:-657.448547,vz:2652.410400,tb:-0.000321134924
i = 7
$pseudo_cd_ph,prn:22,pseudo_cd_ph:374816922.411986
$meas,msRange:76.891025,x:-22566589.349155,y:6418805.716432,z:12615304.321435,vx:1013.624451,vy:-1246.618042,vz:2501.651855,tb:-0.000697810819
i = 8
$pseudo_cd_ph,prn:28,pseudo_cd_ph:374816930.835657
$meas,msRange:69.932925,x:-5411929.266512,y:18117335.449197,z:19298717.895743,vx:-2041.193359,vy:1095.192383,vz:-1643.999512,tb:0.000767836105
i = 9
$pseudo_cd_ph,prn:30,pseudo_cd_ph:374816926.816786
$meas,msRange:73.082900,x:-1065582.711738,y:26210961.614052,z:-3413941.146089,vx:-379.031189,vy:-419.678284,vz:-3104.121338,tb:-0.000101260085
i = 10
i = 11
i = 12
i = 13
i = 14
i = 15
i = 16
i = 17
i = 18
i = 19
i = 20
Refix G01: 2, 374816.927346, 1690
Refix G03: 2, 374816.924818, -2456
Refix G06: 2, 374816.922369, -4350
Refix G07: 2, 374816.920606, 2516
Refix G11: 2, 374816.924434, 1745
Refix G17: 2, 374816.927116, -1870
Refix G18: 2, 374816.920505, 2468
Refix G19: 2, 374816.924258, -2974
Refix G22: 2, 374816.922412, -894
Refix G28: 2, 374816.930836, -2309
Refix G30: 2, 374816.926817, 1604
$GNGGA,080639.000,2944.9067,N,10633.0951,E,1,14,0.9,351.6,M,,,,0000*11
$GNRMC,080639.000,A,2944.9067,N,10633.0951,E,0.35,0.00,090519,,*12
$GPGSA,A,3,01,03,06,07,11,17,19,22,28,30,,,2.4,0.9,2.2*39
$BDGSA,A,3,01,02,03,04,,,,,,,,,2.4,0.9,2.2*28
$GLGSA,A,3,,,,,,,,,,,,,2.4,0.9,2.2*21
$GPGSV,3,1,10,01,00,000,43,03,00,000,41,06,00,000,43,07,00,000,37*78
$GPGSV,3,2,10,11,00,000,40,17,00,000,45,19,00,000,38,22,00,000,40*7D
$GPGSV,3,3,10,28,00,000,44,30,00,000,43*76
$BDGSV,3,1,11,01,00,000,41,02,00,000,40,03,00,000,42,04,00,000,40*6D
$BDGSV,3,2,11,07,00,000,42,08,00,000,43,10,00,000,43,13,00,000,43*64
$BDGSV,3,3,11,27,00,000,30,30,00,000,24,32,00,000,16*5D
$B3CN0,0,0,0,0,0,0,0,0,0,0,0,0,0,0*4C
$ini_pos,lastpos_good = 1,ini_pos.x:-1578925.069712,ini_pos.y:5312792.347765,ini_pos.z:3146368.548525
$rtc_local_time,localRTC.weeks:2052,localRTC.seconds:374817.297314,localGtime.weeks:2052,localGtime.seconds:374818.000000
i = 0
$pseudo_cd_ph,prn:1,pseudo_cd_ph:374817927.344796
$meas,msRange:72.644661,x:-13598757.477792,y:8087955.085234,z:21094015.272309,vx:-328.031952,vy:-2704.301270,vz:849.912048,tb:-0.000012154784
i = 1
$pseudo_cd_ph,prn:3,pseudo_cd_ph:374817924.819195
$meas,msRange:75.370372,x:-23105825.840652,y:11738989.109036,z:5565647.653377,vx:420.156525,vy:-638.740845,vz:3078.837891,tb:0.000188131955
i = 2
$pseudo_cd_ph,prn:6,pseudo_cd_ph:374817922.371431
$meas,msRange:77.840186,x:6943408.173170,y:24753441.394111,z:-6548702.025018,vx:-144.453171,vy:855.695007,vz:3063.730225,tb:0.000210276603
i = 3
$pseudo_cd_ph,prn:7,pseudo_cd_ph:374817920.604208
$meas,msRange:79.376808,x:-7907808.562699,y:20972201.711152,z:-13616832.283796,vx:-417.999237,vy:-1763.297607,vz:-2474.605713,tb:-0.000020649197
i = 4
$pseudo_cd_ph,prn:11,pseudo_cd_ph:374817924.433043
$meas,msRange:74.958166,x:-16100143.482238,y:3758661.486895,z:20225763.451314,vx:-1309.019165,vy:-2380.044678,vz:-609.247559,tb:-0.000610439552
i = 5
$pseudo_cd_ph,prn:17,pseudo_cd_ph:374817927.117169
$meas,msRange:72.936121,x:7258765.197537,y:17827362.452102,z:18747293.263902,vx:-2074.021973,vy:-970.550659,vz:1755.961548,tb:0.000051828689
i = 6
$pseudo_cd_ph,prn:19,pseudo_cd_ph:374817924.260144
$meas,msRange:75.420132,x:14538843.620708,y:18109235.154620,z:12511036.991917,vx:-1511.030151,vy:-657.525146,vz:2652.138672,tb:-0.000321134922
i = 7
$pseudo_cd_ph,prn:22,pseudo_cd_ph:374817922.412520
$meas,msRange:76.891184,x:-22565575.637732,y:6417558.973890,z:12617805.840072,vx:1013.798462,vy:-1246.867065,vz:2501.385742,tb:-0.000697810825
i = 8
$pseudo_cd_ph,prn:28,pseudo_cd_ph:374817930.837080
$meas,msRange:69.932189,x:-5413970.339693,y:18118430.655478,z:19297073.701304,vx:-2040.953125,vy:1095.220215,vz:-1644.389526,tb:0.000767836111
i = 9
$pseudo_cd_ph,prn:30,pseudo_cd_ph:374817926.815733
$meas,msRange:73.084635,x:-1065961.764875,y:26210541.750911,z:-3417045.230649,vx:-379.075134,vy:-420.048035,vz:-3104.047852,tb:-0.000101260093
i = 10
i = 11
i = 12
i = 13
i = 14
i = 15
i = 16
i = 17
i = 18
i = 19
i = 20
i = 21
Refix G01: 2, 374817.927345, 1693
Refix G03: 2, 374817.924819, -2453
Refix G06: 2, 374817.922371, -4348
Refix G07: 2, 374817.920604, 2518
Refix G11: 2, 374817.924433, 1748
Refix G17: 2, 374817.927117, -1867
Refix G18: 2, 374817.920503, 2471
Refix G19: 2, 374817.924260, -2971
Refix G22: 2, 374817.922413, -891
Refix G28: 2, 374817.930837, -2306
Refix G30: 2, 374817.926816, 1606
$GNGGA,080640.000,2944.9061,N,10633.0944,E,1,19,0.7,347.3,M,,,,0000*1C
$GNRMC,080640.000,A,2944.9061,N,10633.0944,E,0.15,0.00,090519,,*1C
$GPGSA,A,3,01,03,06,07,11,17,19,22,28,30,,,0.8,0.7,0.4*3D
$BDGSA,A,3,01,02,03,04,07,08,10,13,27,,,,0.8,0.7,0.4*25
$GLGSA,A,3,,,,,,,,,,,,,0.8,0.7,0.4*25
$GPGSV,3,1,11,01,40,040,44,03,31,101,42,06,23,219,44,07,15,175,37*74
$GPGSV,3,2,11,11,28,046,39,17,46,306,45,19,30,282,39,22,27,076,41*72
$GPGSV,3,3,11,28,69,000,44,30,39,202,44,18,14,041,00*4C
$BDGSV,3,1,11,01,40,125,41,02,47,219,40,03,55,171,43,04,23,109,39*67
$BDGSV,3,2,11,07,61,132,42,08,82,328,43,10,89,023,43,13,62,235,44*67
$BDGSV,3,3,11,27,45,034,45,30,55,298,46,32,14,138,41*53
$B3CN0,36,0,0,0,0,0,0,0,0,0,0,0,0,0*79
$ini_pos,lastpos_good = 1,ini_pos.x:-1578923.105971,ini_pos.y:5312789.579645,ini_pos.z:3146365.510449
$rtc_local_time,localRTC.weeks:2052,localRTC.seconds:374818.297314,localGtime.weeks:2052,localGtime.seconds:374819.000000
i = 0
$pseudo_cd_ph,prn:1,pseudo_cd_ph:374818927.343692
$meas,msRange:72.646465,x:-13599085.595294,y:8085250.741682,z:21094864.955001,vx:-328.203064,vy:-2704.385986,vz:849.453430,tb:-0.000012154796
i = 1
$pseudo_cd_ph,prn:3,pseudo_cd_ph:374818924.820718
$meas,msRange:75.369541,x:-23105405.544895,y:11738350.243143,z:5568726.431476,vx:420.434998,vy:-638.990967,vz:3078.718506,tb:0.000188131954
i = 2
$pseudo_cd_ph,prn:6,pseudo_cd_ph:374818922.374162
$meas,msRange:77.838143,x:6943263.726740,y:24754296.901188,z:-6545638.224911,vx:-144.439713,vy:855.319214,vz:3063.870117,tb:0.000210276593
i = 3
$pseudo_cd_ph,prn:7,pseudo_cd_ph:374818920.602581
$meas,msRange:79.379124,x:-7908226.624163,y:20970438.268160,z:-13619306.739002,vx:-418.123718,vy:-1763.588501,vz:-2474.304688,tb:-0.000020649209
i = 4
$pseudo_cd_ph,prn:11,pseudo_cd_ph:374818924.431902
$meas,msRange:74.960003,x:-16101452.537771,y:3756281.505628,z:20225153.977688,vx:-1309.091919,vy:-2379.917969,vz:-609.699768,tb:-0.000610439550
i = 5
$pseudo_cd_ph,prn:17,pseudo_cd_ph:374818927.118325
$meas,msRange:72.935661,x:7256691.049650,y:17826391.916990,z:18749049.032731,vx:-2074.273926,vy:-970.519592,vz:1755.576294,tb:0.000051828699
i = 6
$pseudo_cd_ph,prn:19,pseudo_cd_ph:374818924.262001
$meas,msRange:75.418967,x:14537332.423491,y:18108577.591225,z:12513688.994741,vx:-1511.364380,vy:-657.601685,vz:2651.866943,tb:-0.000321134920
i = 7
$pseudo_cd_ph,prn:22,pseudo_cd_ph:374818922.413054
$meas,msRange:76.891345,x:-22564561.752307,y:6416311.982295,z:12620307.092588,vx:1013.972412,vy:-1247.116211,vz:2501.119629,tb:-0.000697810830
i = 8
$pseudo_cd_ph,prn:28,pseudo_cd_ph:374818930.838509
$meas,msRange:69.931455,x:-5416011.172530,y:18119525.889630,z:19295429.116841,vx:-2040.712769,vy:1095.248047,vz:-1644.779541,tb:0.000767836117
i = 9
$pseudo_cd_ph,prn:30,pseudo_cd_ph:374818926.814682
$meas,msRange:73.086376,x:-1066340.861990,y:26210121.518034,z:-3420149.241611,vx:-379.119141,vy:-420.417755,vz:-3103.974121,tb:-0.000101260102
i = 10
i = 11
i = 12
i = 13
i = 14
i = 15
i = 16
i = 17
i = 18
i = 19
i = 20
i = 21
i = 22
Refix G01: 2, 374818.927344, 1690
Refix G03: 2, 374818.924821, -2456
Refix G06: 2, 374818.922374, -4350
Refix G07: 2, 374818.920603, 2516
Refix G11: 2, 374818.924432, 1745
Refix G17: 2, 374818.927118, -1870
Refix G18: 2, 374818.920502, 2468
Refix G19: 2, 374818.924262, -2973
Refix G22: 2, 374818.922413, -893
Refix G28: 2, 374818.930839, -2309
Refix G30: 2, 374818.926815, 1604
$GNGGA,080641.000,2944.9060,N,10633.0943,E,1,19,0.7,346.2,M,,,,0000*1B
$GNRMC,080641.000,A,2944.9060,N,10633.0943,E,0.18,0.00,090519,,*16
$GPGSA,A,3,01,03,06,07,11,17,19,22,28,30,,,0.8,0.7,0.4*3D
$BDGSA,A,3,01,02,03,04,07,08,10,13,27,,,,0.8,0.7,0.4*25
$GLGSA,A,3,,,,,,,,,,,,,0.8,0.7,0.4*25
$GPGSV,3,1,11,01,40,040,44,03,31,101,42,06,23,219,43,07,15,175,37*73
$GPGSV,3,2,11,11,28,046,39,17,46,306,44,19,30,282,39,22,27,076,41*73
$GPGSV,3,3,11,28,69,000,43,30,39,202,43,18,14,041,00*4C
$BDGSV,3,1,11,01,40,125,42,02,47,219,39,03,55,171,42,04,23,109,40*65
$BDGSV,3,2,11,07,61,132,43,08,82,328,42,10,89,023,43,13,62,235,43*60
$BDGSV,3,3,11,27,45,034,44,30,55,298,45,32,14,138,40*50
$B3CN0,36,0,0,0,0,0,0,0,0,0,0,0,0,0*79
$ini_pos,lastpos_good = 1,ini_pos.x:-1578922.678166,ini_pos.y:5312788.743101,ini_pos.z:3146364.820167
$rtc_local_time,localRTC.weeks:2052,localRTC.seconds:374819.297314,localGtime.weeks:2052,localGtime.seconds:374820.000000
i = 0
$pseudo_cd_ph,prn:1,pseudo_cd_ph:374819927.342587
$meas,msRange:72.648260,x:-13599413.883927,y:8082546.313248,z:21095714.179078,vx:-328.374207,vy:-2704.470947,vz:848.994812,tb:-0.000012154807
i = 1
$pseudo_cd_ph,prn:3,pseudo_cd_ph:374819924.822242
$meas,msRange:75.368702,x:-23104984.970692,y:11737711.127132,z:5571805.090373,vx:420.713440,vy:-639.241089,vz:3078.599365,tb:0.000188131953
i = 2
$pseudo_cd_ph,prn:6,pseudo_cd_ph:374819922.376891
$meas,msRange:77.836100,x:6943119.293744,y:24755152.032500,z:-6542574.285035,vx:-144.426300,vy:854.943481,vz:3064.009766,tb:0.000210276583
i = 3
$pseudo_cd_ph,prn:7,pseudo_cd_ph:374819920.600948
$meas,msRange:79.381439,x:-7908644.810133,y:20968674.534263,z:-13621780.893193,vx:-418.248260,vy:-1763.879395,vz:-2474.003662,tb:-0.000020649220
i = 4
$pseudo_cd_ph,prn:11,pseudo_cd_ph:374819924.430762
$meas,msRange:74.961832,x:-16102761.666069,y:3753901.651290,z:20224544.051844,vx:-1309.164673,vy:-2379.791016,vz:-610.151978,tb:-0.000610439548
i = 5
$pseudo_cd_ph,prn:17,pseudo_cd_ph:374819927.119480
$meas,msRange:72.935194,x:7254616.649717,y:17825421.412949,z:18750804.416293,vx:-2074.526123,vy:-970.488525,vz:1755.190918,tb:0.000051828708
i = 6
$pseudo_cd_ph,prn:19,pseudo_cd_ph:374819924.263856
$meas,msRange:75.417799,x:14535820.891988,y:18107919.951316,z:12516340.725778,vx:-1511.698730,vy:-657.678162,vz:2651.595215,tb:-0.000321134917
i = 7
$pseudo_cd_ph,prn:22,pseudo_cd_ph:374819922.413588
$meas,msRange:76.891498,x:-22563547.692935,y:6415064.741643,z:12622808.078934,vx:1014.146362,vy:-1247.365234,vz:2500.853271,tb:-0.000697810836
i = 8
$pseudo_cd_ph,prn:28,pseudo_cd_ph:374819930.839938
$meas,msRange:69.930711,x:-5418051.764988,y:18120621.151600,z:19293784.142385,vx:-2040.472290,vy:1095.275879,vz:-1645.169434,tb:0.000767836123
i = 9
$pseudo_cd_ph,prn:30,pseudo_cd_ph:374819926.813630
$meas,msRange:73.088114,x:-1066720.003130,y:26209700.915435,z:-3423253.178908,vx:-379.163177,vy:-420.787476,vz:-3103.900635,tb:-0.000101260110
i = 10
i = 11
i = 12
i = 13
i = 14
i = 15
i = 16
i = 17
i = 18
i = 19
i = 20
i = 21
i = 22
Refix G01: 2, 374819.927343, 1695
Refix G03: 2, 374819.924822, -2451
Refix G06: 2, 374819.922377, -4347
Refix G07: 2, 374819.920601, 2519
Refix G11: 2, 374819.924431, 1749
Refix G17: 2, 374819.927119, -1867
Refix G18: 2, 374819.920500, 2472
Refix G19: 2, 374819.924264, -2971
Refix G22: 2, 374819.922414, -889
Refix G28: 2, 374819.930840, -2305
Refix G30: 2, 374819.926814, 1607
$GNGGA,080642.000,2944.9061,N,10633.0942,E,1,19,0.7,345.4,M,,,,0000*1D
$GNRMC,080642.000,A,2944.9061,N,10633.0942,E,0.20,0.00,090519,,*1E
$GPGSA,A,3,01,03,06,07,11,17,19,22,28,30,,,0.8,0.7,0.4*3D
$BDGSA,A,3,01,02,03,04,07,08,10,13,27,,,,0.8,0.7,0.4*25
$GLGSA,A,3,,,,,,,,,,,,,0.8,0.7,0.4*25
$GPGSV,3,1,11,01,40,040,44,03,31,101,41,06,23,219,43,07,15,175,38*7F
$GPGSV,3,2,11,11,28,046,40,17,46,306,44,19,30,282,39,22,27,076,42*7E
$GPGSV,3,3,11,28,69,000,43,30,39,202,43,18,14,041,00*4C
$BDGSV,3,1,11,01,40,125,41,02,47,219,41,03,55,171,42,04,23,109,41*68
$BDGSV,3,2,11,07,61,132,42,08,82,328,43,10,89,023,43,13,62,235,43*60
$BDGSV,3,3,11,27,45,034,44,30,55,298,45,32,14,138,40*50
$B3CN0,0,0,0,0,0,0,18,0,0,0,0,0,0,0*75
$ini_pos,lastpos_good = 1,ini_pos.x:-1578922.341921,ini_pos.y:5312788.079990,ini_pos.z:3146364.585643
$rtc_local_time,localRTC.weeks:2052,localRTC.seconds:374820.297313,localGtime.weeks:2052,localGtime.seconds:374821.000000
i = 0
$pseudo_cd_ph,prn:1,pseudo_cd_ph:374820927.341480
$meas,msRange:72.650052,x:-13599742.343699,y:8079841.800003,z:21096562.944522,vx:-328.545349,vy:-2704.555664,vz:848.536133,tb:-0.000012154818
i = 1
$pseudo_cd_ph,prn:3,pseudo_cd_ph:374820924.823770
$meas,msRange:75.367863,x:-23104564.118086,y:11737071.760972,z:5574883.630002,vx:420.991821,vy:-639.491272,vz:3078.479980,tb:0.000188131952
i = 2
$pseudo_cd_ph,prn:6,pseudo_cd_ph:374820922.379625
$meas,msRange:77.834058,x:6942974.874130,y:24756006.788032,z:-6539510.205456,vx:-144.412949,vy:854.567688,vz:3064.149414,tb:0.000210276572
i = 3
$pseudo_cd_ph,prn:7,pseudo_cd_ph:374820920.599321
$meas,msRange:79.383756,x:-7909063.120644,y:20966910.509511,z:-13624254.746313,vx:-418.372803,vy:-1764.170166,vz:-2473.702637,tb:-0.000020649232
i = 4
$pseudo_cd_ph,prn:11,pseudo_cd_ph:374820924.429620
$meas,msRange:74.963659,x:-16104070.867092,y:3751521.923929,z:20223933.673792,vx:-1309.237427,vy:-2379.663818,vz:-610.604187,tb:-0.000610439546
i = 5
$pseudo_cd_ph,prn:17,pseudo_cd_ph:374820927.120637
$meas,msRange:72.934725,x:7252541.997776,y:17824450.940032,z:18752559.414552,vx:-2074.778076,vy:-970.457397,vz:1754.805664,tb:0.000051828718
i = 6
$pseudo_cd_ph,prn:19,pseudo_cd_ph:374820924.265714
$meas,msRange:75.416629,x:14534309.026213,y:18107262.234953,z:12518992.184970,vx:-1512.032959,vy:-657.754578,vz:2651.323242,tb:-0.000321134915
i = 7
$pseudo_cd_ph,prn:22,pseudo_cd_ph:374820922.414125
$meas,msRange:76.891650,x:-22562533.459668,y:6413817.251927,z:12625308.799055,vx:1014.320251,vy:-1247.614258,vz:2500.587158,tb:-0.000697810841
i = 8
$pseudo_cd_ph,prn:28,pseudo_cd_ph:374820930.841376
$meas,msRange:69.929965,x:-5420092.117032,y:18121716.441336,z:19292138.777970,vx:-2040.231934,vy:1095.303589,vz:-1645.559448,tb:0.000767836128
i = 9
$pseudo_cd_ph,prn:30,pseudo_cd_ph:374820926.812585
$meas,msRange:73.089852,x:-1067099.188342,y:26209279.943127,z:-3426357.042473,vx:-379.207275,vy:-421.157166,vz:-3103.826660,tb:-0.000101260118
i = 10
i = 11
i = 12
i = 13
i = 14
i = 15
i = 16
i = 17
i = 18
i = 19
i = 20
i = 21
i = 22
i = 23
i = 24
i = 25
i = 26
Refix G01: 2, 374820.927341, 1684
Refix G03: 2, 374820.924824, -2461
Refix G06: 2, 374820.922380, -4356
Refix G07: 2, 374820.920599, 2510
Refix G11: 2, 374820.924430, 1740
Refix G17: 2, 374820.927121, -1877
Refix G18: 2, 374820.920498, 2464
Refix G19: 2, 374820.924266, -2980
Refix G22: 2, 374820.922414, -898
Refix G28: 2, 374820.930841, -2316
Refix G30: 2, 374820.926813, 1597
$GNGGA,080643.000,2944.9062,N,10633.0940,E,1,19,0.7,344.2,M,,,,0000*1A
$GNRMC,080643.000,A,2944.9062,N,10633.0940,E,0.12,0.00,090519,,*1F
$GPGSA,A,3,01,03,06,07,11,17,19,22,28,30,,,0.8,0.7,0.4*3D
$BDGSA,A,3,01,02,03,04,07,08,10,13,27,,,,0.8,0.7,0.4*25
$GLGSA,A,3,,,,,,,,,,,,,0.8,0.7,0.4*25
$GPGSV,3,1,11,01,40,040,44,03,31,101,41,06,23,219,44,07,15,175,38*78
$GPGSV,3,2,11,11,28,046,40,17,46,306,44,19,30,282,39,22,27,076,41*7D
$GPGSV,3,3,11,28,69,000,43,30,39,202,43,18,14,041,00*4C
$BDGSV,3,1,11,01,40,125,41,02,47,219,40,03,55,171,43,04,23,109,40*69
$BDGSV,3,2,11,07,61,132,42,08,82,328,42,10,89,023,43,13,62,235,43*61
$BDGSV,3,3,11,27,45,034,44,30,55,298,44,32,14,138,40*51
$B3CN0,0,0,0,0,0,0,0,0,0,0,0,0,0,0*4C
$ini_pos,lastpos_good = 1,ini_pos.x:-1578921.756434,ini_pos.y:5312787.143366,ini_pos.z:3146364.069969
$rtc_local_time,localRTC.weeks:2052,localRTC.seconds:374821.297313,localGtime.weeks:2052,localGtime.seconds:374822.000000
i = 0
$pseudo_cd_ph,prn:1,pseudo_cd_ph:374821927.340379
$meas,msRange:72.651847,x:-13600070.974617,y:8077137.202016,z:21097411.251316,vx:-328.716492,vy:-2704.640381,vz:848.077515,tb:-0.000012154829
i = 1
$pseudo_cd_ph,prn:3,pseudo_cd_ph:374821924.825301
$meas,msRange:75.367026,x:-23104142.987119,y:11736432.144633,z:5577962.050298,vx:421.270142,vy:-639.741455,vz:3078.360596,tb:0.000188131951
i = 2
$pseudo_cd_ph,prn:6,pseudo_cd_ph:374821922.382362
$meas,msRange:77.832016,x:6942830.467846,y:24756861.167768,z:-6536445.986240,vx:-144.399643,vy:854.191833,vz:3064.289062,tb:0.000210276562
i = 3
$pseudo_cd_ph,prn:7,pseudo_cd_ph:374821920.597697
$meas,msRange:79.386072,x:-7909481.555732,y:20965146.193951,z:-13626728.298308,vx:-418.497406,vy:-1764.461060,vz:-2473.401611,tb:-0.000020649244
i = 4
$pseudo_cd_ph,prn:11,pseudo_cd_ph:374821924.428481
$meas,msRange:74.965488,x:-16105380.140796,y:3749142.323599,z:20223322.843548,vx:-1309.310059,vy:-2379.536865,vz:-611.056335,tb:-0.000610439543
i = 5
$pseudo_cd_ph,prn:17,pseudo_cd_ph:374821927.121796
$meas,msRange:72.934258,x:7250467.093863,y:17823480.498291,z:18754314.027473,vx:-2075.030029,vy:-970.426147,vz:1754.420288,tb:0.000051828728
i = 6
$pseudo_cd_ph,prn:19,pseudo_cd_ph:374821924.267572
$meas,msRange:75.415461,x:14532796.826179,y:18106604.442193,z:12521643.372259,vx:-1512.367188,vy:-657.830933,vz:2651.051514,tb:-0.000321134913
i = 7
$pseudo_cd_ph,prn:22,pseudo_cd_ph:374821922.414663
$meas,msRange:76.891805,x:-22561519.052560,y:6412569.513143,z:12627809.252900,vx:1014.494019,vy:-1247.863403,vz:2500.320801,tb:-0.000697810847
i = 8
$pseudo_cd_ph,prn:28,pseudo_cd_ph:374821930.842811
$meas,msRange:69.929220,x:-5422132.228628,y:18122811.758786,z:19290493.023626,vx:-2039.991455,vy:1095.331299,vz:-1645.949341,tb:0.000767836134
i = 9
$pseudo_cd_ph,prn:30,pseudo_cd_ph:374821926.811539
$meas,msRange:73.091591,x:-1067478.417676,y:26208858.601123,z:-3429460.832239,vx:-379.251434,vy:-421.526855,vz:-3103.752930,tb:-0.000101260127
i = 10
i = 11
i = 12
i = 13
i = 14
i = 15
i = 16
i = 17
i = 18
i = 19
i = 20
i = 21
i = 22
i = 23
i = 24
i = 25
i = 26
Refix G01: 2, 374821.927340, 1688
Refix G03: 2, 374821.924825, -2458
Refix G06: 2, 374821.922382, -4353
Refix G07: 2, 374821.920598, 2512
Refix G11: 2, 374821.924428, 1743
Refix G17: 2, 374821.927122, -1873
Refix G18: 2, 374821.920497, 2466
Refix G19: 2, 374821.924268, -2976
Refix G22: 2, 374821.922415, -895
Refix G28: 2, 374821.930843, -2311
Refix G30: 2, 374821.926812, 1601
$GNGGA,080644.000,2944.9062,N,10633.0938,E,1,19,0.7,343.0,M,,,,0000*17
$GNRMC,080644.000,A,2944.9062,N,10633.0938,E,0.18,0.00,090519,,*1D
$GPGSA,A,3,01,03,06,07,11,17,19,22,28,30,,,0.8,0.7,0.4*3D
$BDGSA,A,3,01,02,03,04,07,08,10,13,27,,,,0.8,0.7,0.4*25
$GLGSA,A,3,,,,,,,,,,,,,0.8,0.7,0.4*25
$GPGSV,3,1,11,01,40,040,44,03,31,101,42,06,23,219,43,07,15,175,39*7D
$GPGSV,3,2,11,11,28,046,40,17,46,306,45,19,30,282,39,22,27,076,41*7C
$GPGSV,3,3,11,28,69,000,44,30,39,202,44,18,14,041,00*4C
$BDGSV,3,1,11,01,40,125,40,02,47,219,41,03,55,171,42,04,23,109,40*68
$BDGSV,3,2,11,07,61,132,42,08,82,328,43,10,89,023,43,13,62,235,43*60
$BDGSV,3,3,11,27,45,034,44,30,55,298,44,32,14,138,40*51
$B3CN0,0,0,0,0,0,0,0,0,0,0,0,0,0,0*4C
$ini_pos,lastpos_good = 1,ini_pos.x:-1578921.166191,ini_pos.y:5312786.258717,ini_pos.z:3146363.466811
$rtc_local_time,localRTC.weeks:2052,localRTC.seconds:374822.297313,localGtime.weeks:2052,localGtime.seconds:374823.000000
i = 0
$pseudo_cd_ph,prn:1,pseudo_cd_ph:374822927.339278
$meas,msRange:72.653642,x:-13600399.776689,y:8074432.519357,z:21098259.099443,vx:-328.887665,vy:-2704.725098,vz:847.618835,tb:-0.000012154840
i = 1
$pseudo_cd_ph,prn:3,pseudo_cd_ph:374822924.826829
$meas,msRange:75.366188,x:-23103721.577836,y:11735792.278085,z:5581040.351194,vx:421.548431,vy:-639.991699,vz:3078.241211,tb:0.000188131950
i = 2
$pseudo_cd_ph,prn:6,pseudo_cd_ph:374822922.385095
$meas,msRange:77.829973,x:6942686.074838,y:24757715.171693,z:-6533381.627452,vx:-144.386383,vy:853.816040,vz:3064.428711,tb:0.000210276552
i = 3
$pseudo_cd_ph,prn:7,pseudo_cd_ph:374822920.596069
$meas,msRange:79.388388,x:-7909900.115433,y:20963381.587630,z:-13629201.549122,vx:-418.622040,vy:-1764.751709,vz:-2473.100342,tb:-0.000020649256
i = 4
$pseudo_cd_ph,prn:11,pseudo_cd_ph:374822924.427341
$meas,msRange:74.967317,x:-16106689.487143,y:3746762.850349,z:20222711.561124,vx:-1309.382690,vy:-2379.409668,vz:-611.508545,tb:-0.000610439541
i = 5
$pseudo_cd_ph,prn:17,pseudo_cd_ph:374822927.122955
$meas,msRange:72.933791,x:7248391.938014,y:17822510.087777,z:18756068.255022,vx:-2075.281982,vy:-970.394897,vz:1754.034912,tb:0.000051828738
i = 6
$pseudo_cd_ph,prn:19,pseudo_cd_ph:374822924.269431
$meas,msRange:75.414292,x:14531284.291898,y:18105946.573095,z:12524294.287587,vx:-1512.701416,vy:-657.907288,vz:2650.779297,tb:-0.000321134911
i = 7
$pseudo_cd_ph,prn:22,pseudo_cd_ph:374822922.415196
$meas,msRange:76.891959,x:-22560504.471665,y:6411321.525286,z:12630309.440418,vx:1014.667786,vy:-1248.112427,vz:2500.054443,tb:-0.000697810852
i = 8
$pseudo_cd_ph,prn:28,pseudo_cd_ph:374822930.844247
$meas,msRange:69.928476,x:-5424172.099741,y:18123907.103895,z:19288846.879385,vx:-2039.750977,vy:1095.359009,vz:-1646.339233,tb:0.000767836140
i = 9
$pseudo_cd_ph,prn:30,pseudo_cd_ph:374822926.810491
$meas,msRange:73.093330,x:-1067857.691177,y:26208436.889437,z:-3432564.548139,vx:-379.295624,vy:-421.896545,vz:-3103.678955,tb:-0.000101260135
i = 10
i = 11
i = 12
i = 13
i = 14
i = 15
i = 16
i = 17
i = 18
i = 19
i = 20
i = 21
i = 22
i = 23
i = 24
i = 25
i = 26
Refix G01: 2, 374822.927339, 1694
Refix G03: 2, 374822.924827, -2452
Refix G06: 2, 374822.922385, -4348
Refix G07: 2, 374822.920596, 2517
Refix G11: 2, 374822.924427, 1748
Refix G17: 2, 374822.927123, -1869
Refix G18: 2, 374822.920495, 2470
Refix G19: 2, 374822.924269, -2972
Refix G22: 2, 374822.922415, -889
Refix G28: 2, 374822.930844, -2306
Refix G30: 2, 374822.926810, 1607
$GNGGA,080645.000,2944.9061,N,10633.0937,E,1,19,0.7,342.6,M,,,,0000*1D
$GNRMC,080645.000,A,2944.9061,N,10633.0937,E,0.28,0.00,090519,,*13
$GPGSA,A,3,01,03,06,07,11,17,19,22,28,30,,,0.8,0.7,0.4*3D
$BDGSA,A,3,01,02,03,04,07,08,10,13,27,,,,0.8,0.7,0.4*25
$GLGSA,A,3,,,,,,,,,,,,,0.8,0.7,0.4*25
$GPGSV,3,1,11,01,40,040,44,03,31,101,41,06,23,219,44,07,15,175,38*78
$GPGSV,3,2,11,11,28,046,39,17,46,306,45,19,30,282,39,22,27,076,41*72
$GPGSV,3,3,11,28,69,000,43,30,39,202,44,18,14,041,00*4B
$BDGSV,3,1,11,01,40,125,40,02,47,219,40,03,55,171,42,04,23,109,40*69
$BDGSV,3,2,11,07,61,132,43,08,82,328,43,10,89,023,44,13,62,235,43*66
$BDGSV,3,3,11,27,45,034,43,30,55,298,44,32,14,138,40*56
$B3CN0,0,0,0,0,0,0,0,0,0,0,0,0,0,0*4C
$ini_pos,lastpos_good = 1,ini_pos.x:-1578920.871683,ini_pos.y:5312785.951946,ini_pos.z:3146363.198593
$rtc_local_time,localRTC.weeks:2052,localRTC.seconds:374823.297313,localGtime.weeks:2052,localGtime.seconds:374824.000000
i = 0
$pseudo_cd_ph,prn:1,pseudo_cd_ph:374823927.338173
$meas,msRange:72.655435,x:-13600728.749922,y:8071727.752096,z:21099106.488885,vx:-329.058838,vy:-2704.809570,vz:847.160095,tb:-0.000012154852
i = 1
$pseudo_cd_ph,prn:3,pseudo_cd_ph:374823924.828355
$meas,msRange:75.365350,x:-23103299.890278,y:11735152.161296,z:5584118.532624,vx:421.826691,vy:-640.241943,vz:3078.121826,tb:0.000188131949
i = 2
$pseudo_cd_ph,prn:6,pseudo_cd_ph:374823922.387822
$meas,msRange:77.827931,x:6942541.695056,y:24758568.799791,z:-6530317.129158,vx:-144.373184,vy:853.440186,vz:3064.568115,tb:0.000210276542
i = 3
$pseudo_cd_ph,prn:7,pseudo_cd_ph:374823920.594440
$meas,msRange:79.390704,x:-7910318.799781,y:20961616.690596,z:-13631674.498703,vx:-418.746704,vy:-1765.042480,vz:-2472.799072,tb:-0.000020649268
i = 4
$pseudo_cd_ph,prn:11,pseudo_cd_ph:374823924.426195
$meas,msRange:74.969145,x:-16107998.906091,y:3744383.504232,z:20222099.826533,vx:-1309.455322,vy:-2379.282715,vz:-611.960693,tb:-0.000610439539
i = 5
$pseudo_cd_ph,prn:17,pseudo_cd_ph:374823927.124109
$meas,msRange:72.933322,x:7246316.530267,y:17821539.708545,z:18757822.097163,vx:-2075.533691,vy:-970.363586,vz:1753.649536,tb:0.000051828748
i = 6
$pseudo_cd_ph,prn:19,pseudo_cd_ph:374823924.271287
$meas,msRange:75.413123,x:14529771.423383,y:18105288.627717,z:12526944.930894,vx:-1513.035645,vy:-657.983521,vz:2650.507324,tb:-0.000321134908
i = 7
$pseudo_cd_ph,prn:22,pseudo_cd_ph:374823922.415728
$meas,msRange:76.892112,x:-22559489.717038,y:6410073.288349,z:12632809.361556,vx:1014.841492,vy:-1248.361572,vz:2499.788086,tb:-0.000697810858
i = 8
$pseudo_cd_ph,prn:28,pseudo_cd_ph:374823930.845678
$meas,msRange:69.927730,x:-5426211.730335,y:18125002.476613,z:19287200.345280,vx:-2039.510376,vy:1095.386597,vz:-1646.729126,tb:0.000767836146
i = 9
$pseudo_cd_ph,prn:30,pseudo_cd_ph:374823926.809440
$meas,msRange:73.095067,x:-1068237.008895,y:26208014.808082,z:-3435668.190106,vx:-379.339844,vy:-422.266205,vz:-3103.604980,tb:-0.000101260144
i = 10
i = 11
i = 12
i = 13
i = 14
i = 15
i = 16
i = 17
i = 18
i = 19
i = 20
i = 21
i = 22
i = 23
i = 24
i = 25
i = 26
Refix G01: 2, 374823.927338, 1692
Refix G03: 2, 374823.924828, -2453
Refix G06: 2, 374823.922388, -4349
Refix G07: 2, 374823.920594, 2516
Refix G11: 2, 374823.924426, 1746
Refix G17: 2, 374823.927124, -1870
Refix G18: 2, 374823.920494, 2469
Refix G19: 2, 374823.924271, -2973
Refix G22: 2, 374823.922416, -891
Refix G28: 2, 374823.930846, -2308
Refix G30: 2, 374823.926809, 1605
$GNGGA,080646.000,2944.9063,N,10633.0933,E,1,21,0.6,341.1,M,,,,0000*16
$GNRMC,080646.000,A,2944.9063,N,10633.0933,E,0.11,0.00,090519,,*1C
$GPGSA,A,3,01,03,06,07,11,17,19,22,28,30,,,0.7,0.6,0.4*33
$BDGSA,A,3,01,02,03,04,07,08,10,13,27,30,32,,0.7,0.6,0.4*29
$GLGSA,A,3,,,,,,,,,,,,,0.7,0.6,0.4*2B
$GPGSV,3,1,11,01,40,040,43,03,31,101,42,06,23,219,43,07,15,175,38*7B
$GPGSV,3,2,11,11,28,046,39,17,46,306,45,19,30,282,38,22,27,076,41*73
$GPGSV,3,3,11,28,69,000,44,30,39,202,43,18,14,041,00*4B
$BDGSV,3,1,11,01,40,125,41,02,47,219,40,03,55,171,41,04,23,109,40*6B
$BDGSV,3,2,11,07,61,132,42,08,82,328,43,10,89,023,44,13,62,235,43*67
$BDGSV,3,3,11,27,45,034,44,30,55,298,44,32,14,138,39*5F
$B3CN0,0,0,0,0,0,0,0,0,0,0,0,0,0,0*4C
$ini_pos,lastpos_good = 1,ini_pos.x:-1578919.868305,ini_pos.y:5312784.732724,ini_pos.z:3146362.775514
$rtc_local_time,localRTC.weeks:2052,localRTC.seconds:374824.297313,localGtime.weeks:2052,localGtime.seconds:374825.000000
i = 0
$pseudo_cd_ph,prn:1,pseudo_cd_ph:374824927.337067
$meas,msRange:72.657231,x:-13601057.894324,y:8069022.900302,z:21099953.419624,vx:-329.230011,vy:-2704.894043,vz:846.701416,tb:-0.000012154863
i = 1
$pseudo_cd_ph,prn:3,pseudo_cd_ph:374824924.829882
$meas,msRange:75.364515,x:-23102877.924490,y:11734511.794238,z:5587196.594522,vx:422.104889,vy:-640.492249,vz:3078.002197,tb:0.000188131948
i = 2
$pseudo_cd_ph,prn:6,pseudo_cd_ph:374824922.390552
$meas,msRange:77.825889,x:6942397.328445,y:24759422.052047,z:-6527252.491422,vx:-144.360046,vy:853.064331,vz:3064.707520,tb:0.000210276531
i = 3
$pseudo_cd_ph,prn:7,pseudo_cd_ph:374824920.592812
$meas,msRange:79.393021,x:-7910737.608813,y:20959851.502899,z:-13634147.146994,vx:-418.871399,vy:-1765.333130,vz:-2472.497803,tb:-0.000020649279
i = 4
$pseudo_cd_ph,prn:11,pseudo_cd_ph:374824924.425055
$meas,msRange:74.970974,x:-16109308.397597,y:3742004.285297,z:20221487.639789,vx:-1309.527832,vy:-2379.155518,vz:-612.412842,tb:-0.000610439537
i = 5
$pseudo_cd_ph,prn:17,pseudo_cd_ph:374824927.125266
$meas,msRange:72.932854,x:7244240.870657,y:17820569.360646,z:18759575.553860,vx:-2075.785645,vy:-970.332275,vz:1753.264038,tb:0.000051828758
i = 6
$pseudo_cd_ph,prn:19,pseudo_cd_ph:374824924.273144
$meas,msRange:75.411954,x:14528258.220646,y:18104630.606118,z:12529595.302123,vx:-1513.369873,vy:-658.059692,vz:2650.235352,tb:-0.000321134906
i = 7
$pseudo_cd_ph,prn:22,pseudo_cd_ph:374824922.416258
$meas,msRange:76.892269,x:-22558474.788730,y:6408824.802329,z:12635309.016262,vx:1015.015137,vy:-1248.610596,vz:2499.521484,tb:-0.000697810863
i = 8
$pseudo_cd_ph,prn:28,pseudo_cd_ph:374824930.847110
$meas,msRange:69.926986,x:-5428251.120376,y:18126097.876885,z:19285553.421342,vx:-2039.269775,vy:1095.414062,vz:-1647.118896,tb:0.000767836151
i = 9
$pseudo_cd_ph,prn:30,pseudo_cd_ph:374824926.808389
$meas,msRange:73.096808,x:-1068616.370877,y:26207592.357072,z:-3438771.758074,vx:-379.384155,vy:-422.635834,vz:-3103.531006,tb:-0.000101260152
i = 10
i = 11
i = 12
i = 13
i = 14
i = 15
i = 16
i = 17
i = 18
i = 19
i = 20
i = 21
i = 22
i = 23
i = 24
i = 25
i = 26
Refix G01: 2, 374824.927337, 1691
Refix G03: 2, 374824.924830, -2454
Refix G06: 2, 374824.922391, -4350
Refix G07: 2, 374824.920593, 2514
Refix G11: 2, 374824.924425, 1745
Refix G17: 2, 374824.927125, -1872
Refix G18: 2, 374824.920492, 2468
Refix G19: 2, 374824.924273, -2974
Refix G22: 2, 374824.922416, -891
Refix G28: 2, 374824.930847, -2309
Refix G30: 2, 374824.926808, 1604
$GNGGA,080647.000,2944.9064,N,10633.0932,E,1,21,0.6,340.4,M,,,,0000*15
$GNRMC,080647.000,A,2944.9064,N,10633.0932,E,0.09,0.00,090519,,*12
$GPGSA,A,3,01,03,06,07,11,17,19,22,28,30,,,0.7,0.6,0.4*33
$BDGSA,A,3,01,02,03,04,07,08,10,13,27,30,32,,0.7,0.6,0.4*29
$GLGSA,A,3,,,,,,,,,,,,,0.7,0.6,0.4*2B
$GPGSV,3,1,11,01,40,040,43,03,31,101,42,06,23,219,43,07,15,175,38*7B
$GPGSV,3,2,11,11,28,046,40,17,46,306,45,19,30,282,39,22,27,076,41*7C
$GPGSV,3,3,11,28,69,000,43,30,39,202,43,18,14,041,00*4C
$BDGSV,3,1,11,01,40,125,41,02,47,219,41,03,55,171,42,04,23,109,40*69
$BDGSV,3,2,11,07,61,132,42,08,82,328,43,10,89,023,44,13,62,235,44*60
$BDGSV,3,3,11,27,45,034,44,30,55,298,45,32,14,138,39*5E
$B3CN0,0,0,0,0,0,0,0,0,0,0,0,0,0,0*4C
$ini_pos,lastpos_good = 1,ini_pos.x:-1578919.456829,ini_pos.y:5312784.112192,ini_pos.z:3146362.597464
$rtc_local_time,localRTC.weeks:2052,localRTC.seconds:374825.297313,localGtime.weeks:2052,localGtime.seconds:374826.000000
i = 0
$pseudo_cd_ph,prn:1,pseudo_cd_ph:374825927.335961
$meas,msRange:72.659025,x:-13601387.209903,y:8066317.964046,z:21100799.891644,vx:-329.401184,vy:-2704.978516,vz:846.242676,tb:-0.000012154874
i = 1
$pseudo_cd_ph,prn:3,pseudo_cd_ph:374825924.831408
$meas,msRange:75.363678,x:-23102455.680514,y:11733871.176879,z:5590274.536824,vx:422.383057,vy:-640.742554,vz:3077.882568,tb:0.000188131947
i = 2
$pseudo_cd_ph,prn:6,pseudo_cd_ph:374825922.393281
$meas,msRange:77.823848,x:6942252.974954,y:24760274.928445,z:-6524187.714312,vx:-144.346954,vy:852.688477,vz:3064.846924,tb:0.000210276521
i = 3
$pseudo_cd_ph,prn:7,pseudo_cd_ph:374825920.591186
$meas,msRange:79.395338,x:-7911156.542562,y:20958086.024584,z:-13636619.493941,vx:-418.996124,vy:-1765.623657,vz:-2472.196289,tb:-0.000020649291
i = 4
$pseudo_cd_ph,prn:11,pseudo_cd_ph:374825924.423916
$meas,msRange:74.972802,x:-16110617.961622,y:3739625.193596,z:20220875.000906,vx:-1309.600342,vy:-2379.028076,vz:-612.864990,tb:-0.000610439534
i = 5
$pseudo_cd_ph,prn:17,pseudo_cd_ph:374825927.126421
$meas,msRange:72.932386,x:7242164.959221,y:17819599.044131,z:18761328.625079,vx:-2076.037354,vy:-970.300842,vz:1752.878540,tb:0.000051828768
i = 6
$pseudo_cd_ph,prn:19,pseudo_cd_ph:374825924.275002
$meas,msRange:75.410785,x:14526744.683702,y:18103972.508356,z:12532245.401215,vx:-1513.704102,vy:-658.135864,vz:2649.963135,tb:-0.000321134904
i = 7
$pseudo_cd_ph,prn:22,pseudo_cd_ph:374825922.416788
$meas,msRange:76.892423,x:-22557459.686797,y:6407576.067220,z:12637808.404484,vx:1015.188782,vy:-1248.859741,vz:2499.255127,tb:-0.000697810869
i = 8
$pseudo_cd_ph,prn:28,pseudo_cd_ph:374825930.848544
$meas,msRange:69.926241,x:-5430290.269830,y:18127193.304661,z:19283906.107604,vx:-2039.029175,vy:1095.441528,vz:-1647.508667,tb:0.000767836157
i = 9
$pseudo_cd_ph,prn:30,pseudo_cd_ph:374825926.807338
$meas,msRange:73.098547,x:-1068995.777171,y:26207169.536419,z:-3441875.251976,vx:-379.428467,vy:-423.005493,vz:-3103.457031,tb:-0.000101260160
i = 10
i = 11
i = 12
i = 13
i = 14
i = 15
i = 16
i = 17
i = 18
i = 19
i = 20
i = 21
i = 22
i = 23
i = 24
i = 25
i = 26
Refix G01: 2, 374825.927336, 1700
Refix G03: 2, 374825.924831, -2445
Refix G06: 2, 374825.922393, -4341
Refix G07: 2, 374825.920591, 2522
Refix G11: 2, 374825.924424, 1753
Refix G17: 2, 374825.927126, -1863
Refix G18: 2, 374825.920490, 2475
Refix G19: 2, 374825.924275, -2966
Refix G22: 2, 374825.922417, -883
Refix G28: 2, 374825.930849, -2299
Refix G30: 2, 374825.926807, 1614
$GNGGA,080648.000,2944.9065,N,10633.0931,E,1,21,0.6,339.9,M,,,,0000*1B
$GNRMC,080648.000,A,2944.9065,N,10633.0931,E,0.29,0.00,090519,,*1D
$GPGSA,A,3,01,03,06,07,11,17,19,22,28,30,,,0.7,0.6,0.4*33
$BDGSA,A,3,01,02,03,04,07,08,10,13,27,30,32,,0.7,0.6,0.4*29
$GLGSA,A,3,,,,,,,,,,,,,0.7,0.6,0.4*2B
$GPGSV,3,1,11,01,40,040,44,03,31,101,43,06,23,219,43,07,15,175,39*7C
$GPGSV,3,2,11,11,28,046,40,17,46,306,44,19,30,282,39,22,27,076,41*7D
$GPGSV,3,3,11,28,69,000,44,30,39,202,44,18,14,041,00*4C
$BDGSV,3,1,11,01,40,125,41,02,47,219,41,03,55,171,43,04,23,109,41*69
$BDGSV,3,2,11,07,61,132,43,08,82,328,43,10,89,023,43,13,62,235,43*61
$BDGSV,3,3,11,27,45,034,44,30,55,298,45,32,14,138,39*5E
$B3CN0,0,0,0,0,0,0,0,0,0,0,0,0,0,0*4C
$ini_pos,lastpos_good = 1,ini_pos.x:-1578919.168413,ini_pos.y:5312783.644365,ini_pos.z:3146362.471262
$rtc_local_time,localRTC.weeks:2052,localRTC.seconds:374826.297313,localGtime.weeks:2052,localGtime.seconds:374827.000000
i = 0
$pseudo_cd_ph,prn:1,pseudo_cd_ph:374826927.334853
$meas,msRange:72.660819,x:-13601716.696666,y:8063612.943396,z:21101645.904927,vx:-329.572357,vy:-2705.062988,vz:845.783936,tb:-0.000012154885
i = 1
$pseudo_cd_ph,prn:3,pseudo_cd_ph:374826924.832930
$meas,msRange:75.362840,x:-23102033.158393,y:11733230.309190,z:5593352.359461,vx:422.661194,vy:-640.992859,vz:3077.762939,tb:0.000188131946
i = 2
$pseudo_cd_ph,prn:6,pseudo_cd_ph:374826922.396007
$meas,msRange:77.821806,x:6942108.634531,y:24761127.428971,z:-6521122.797891,vx:-144.333908,vy:852.312622,vz:3064.986084,tb:0.000210276511
i = 3
$pseudo_cd_ph,prn:7,pseudo_cd_ph:374826920.589556
$meas,msRange:79.397654,x:-7911575.601066,y:20956320.255701,z:-13639091.539490,vx:-419.120911,vy:-1765.914185,vz:-2471.895020,tb:-0.000020649303
i = 4
$pseudo_cd_ph,prn:11,pseudo_cd_ph:374826924.422772
$meas,msRange:74.974630,x:-16111927.598124,y:3737246.229180,z:20220261.909895,vx:-1309.672729,vy:-2378.900879,vz:-613.317078,tb:-0.000610439532
i = 5
$pseudo_cd_ph,prn:17,pseudo_cd_ph:374826927.127575
$meas,msRange:72.931917,x:7240088.795996,y:17818628.759055,z:18763081.310785,vx:-2076.289062,vy:-970.269348,vz:1752.493042,tb:0.000051828777
i = 6
$pseudo_cd_ph,prn:19,pseudo_cd_ph:374826924.276857
$meas,msRange:75.409616,x:14525230.812561,y:18103314.334490,z:12534895.228112,vx:-1514.038330,vy:-658.211914,vz:2649.690918,tb:-0.000321134902
i = 7
$pseudo_cd_ph,prn:22,pseudo_cd_ph:374826922.417316
$meas,msRange:76.892577,x:-22556444.411292,y:6406327.083015,z:12640307.526171,vx:1015.362305,vy:-1249.108765,vz:2498.988525,tb:-0.000697810874
i = 8
$pseudo_cd_ph,prn:28,pseudo_cd_ph:374826930.849973
$meas,msRange:69.925495,x:-5432329.178661,y:18128288.759885,z:19282258.404096,vx:-2038.788574,vy:1095.468994,vz:-1647.898438,tb:0.000767836163
i = 9
$pseudo_cd_ph,prn:30,pseudo_cd_ph:374826926.806282
$meas,msRange:73.100286,x:-1069375.227824,y:26206746.346136,z:-3444978.671744,vx:-379.472870,vy:-423.375092,vz:-3103.382812,tb:-0.000101260169
i = 10
i = 11
i = 12
i = 13
i = 14
i = 15
i = 16
i = 17
i = 18
i = 19
i = 20
i = 21
i = 22
i = 23
i = 24
i = 25
i = 26
i = 27
Refix G01: 2, 374826.927335, 1699
Refix G03: 2, 374826.924833, -2445
Refix G06: 2, 374826.922396, -4342
Refix G07: 2, 374826.920590, 2522
Refix G11: 2, 374826.924423, 1752
Refix G17: 2, 374826.927128, -1863
Refix G18: 2, 374826.920489, 2475
Refix G19: 2, 374826.924277, -2966
Refix G22: 2, 374826.922417, -883
Refix G28: 2, 374826.930850, -2300
Refix G30: 2, 374826.926806, 1613
$GNGGA,080649.000,2944.9067,N,10633.0930,E,1,21,0.6,338.7,M,,,,0000*16
$GNRMC,080649.000,A,2944.9067,N,10633.0930,E,0.14,0.00,090519,,*11
$GPGSA,A,3,01,03,06,07,11,17,19,22,28,30,,,0.7,0.6,0.4*33
$BDGSA,A,3,01,02,03,04,07,08,10,13,27,30,32,,0.7,0.6,0.4*29
$GLGSA,A,3,,,,,,,,,,,,,0.7,0.6,0.4*2B
$GPGSV,3,1,11,01,40,040,43,03,31,101,42,06,23,219,44,07,15,175,38*7C
$GPGSV,3,2,11,11,28,046,40,17,46,306,44,19,30,282,38,22,27,076,43*7E
$GPGSV,3,3,11,28,69,000,44,30,39,202,44,18,14,041,00*4C
$BDGSV,3,1,11,01,40,125,41,02,47,219,40,03,55,171,42,04,23,109,40*68
$BDGSV,3,2,11,07,61,132,43,08,82,328,42,10,89,023,44,13,62,235,43*67
$BDGSV,3,3,11,27,45,034,44,30,55,298,45,32,14,138,39*5E
$B3CN0,0,0,0,0,0,0,21,0,0,0,0,0,0,0*7F
$ini_pos,lastpos_good = 1,ini_pos.x:-1578918.629326,ini_pos.y:5312782.635977,ini_pos.z:3146362.128860
$rtc_local_time,localRTC.weeks:2052,localRTC.seconds:374827.297313,localGtime.weeks:2052,localGtime.seconds:374828.000000
i = 0
$pseudo_cd_ph,prn:1,pseudo_cd_ph:374827927.333747
$meas,msRange:72.662614,x:-13602046.354621,y:8060907.838424,z:21102491.459455,vx:-329.743561,vy:-2705.147217,vz:845.325195,tb:-0.000012154896
i = 1
$pseudo_cd_ph,prn:3,pseudo_cd_ph:374827924.834454
$meas,msRange:75.362004,x:-23101610.358171,y:11732589.191139,z:5596430.062369,vx:422.939270,vy:-641.243286,vz:3077.643066,tb:0.000188131945
i = 2
$pseudo_cd_ph,prn:6,pseudo_cd_ph:374827922.398734
$meas,msRange:77.819766,x:6941964.307122,y:24761979.553609,z:-6518057.742226,vx:-144.320923,vy:851.936707,vz:3065.125244,tb:0.000210276500
i = 3
$pseudo_cd_ph,prn:7,pseudo_cd_ph:374827920.587925
$meas,msRange:79.399971,x:-7911994.784359,y:20954554.196296,z:-13641563.283585,vx:-419.245697,vy:-1766.204712,vz:-2471.593506,tb:-0.000020649315
i = 4
$pseudo_cd_ph,prn:11,pseudo_cd_ph:374827924.421632
$meas,msRange:74.976459,x:-16113237.307062,y:3734867.392101,z:20219648.366771,vx:-1309.745239,vy:-2378.773438,vz:-613.769165,tb:-0.000610439530
i = 5
$pseudo_cd_ph,prn:17,pseudo_cd_ph:374827927.128730
$meas,msRange:72.931450,x:7238012.381018,y:17817658.505469,z:18764833.610943,vx:-2076.541016,vy:-970.237854,vz:1752.107422,tb:0.000051828787
i = 6
$pseudo_cd_ph,prn:19,pseudo_cd_ph:374827924.278711
$meas,msRange:75.408448,x:14523716.607238,y:18102656.084578,z:12537544.782755,vx:-1514.372437,vy:-658.287964,vz:2649.418701,tb:-0.000321134899
i = 7
$pseudo_cd_ph,prn:22,pseudo_cd_ph:374827922.417847
$meas,msRange:76.892733,x:-22555428.962269,y:6405077.849711,z:12642806.381271,vx:1015.535828,vy:-1249.357910,vz:2498.721924,tb:-0.000697810880
i = 8
$pseudo_cd_ph,prn:28,pseudo_cd_ph:374827930.851405
$meas,msRange:69.924752,x:-5434367.846836,y:18129384.242507,z:19280610.310852,vx:-2038.547852,vy:1095.496338,vz:-1648.288208,tb:0.000767836169
i = 9
$pseudo_cd_ph,prn:30,pseudo_cd_ph:374827926.805230
$meas,msRange:73.102026,x:-1069754.722884,y:26206322.786238,z:-3448082.017313,vx:-379.517303,vy:-423.744720,vz:-3103.308594,tb:-0.000101260177
i = 10
i = 11
i = 12
i = 13
i = 14
i = 15
i = 16
i = 17
i = 18
i = 19
i = 20
i = 21
i = 22
i = 23
i = 24
i = 25
i = 26
i = 27
Refix G01: 2, 374827.927334, 1702
Refix G03: 2, 374827.924834, -2443
Refix G06: 2, 374827.922399, -4340
Refix G07: 2, 374827.920588, 2523
Refix G11: 2, 374827.924422, 1755
Refix G17: 2, 374827.927129, -1861
Refix G18: 2, 374827.920487, 2478
Refix G19: 2, 374827.924279, -2965
Refix G22: 2, 374827.922418, -880
Refix G28: 2, 374827.930851, -2298
Refix G30: 2, 374827.926805, 1614
$GNGGA,080650.000,2944.9067,N,10633.0929,E,1,21,0.6,338.3,M,,,,0000*12
$GNRMC,080650.000,A,2944.9067,N,10633.0929,E,0.17,0.00,090519,,*12
$GPGSA,A,3,01,03,06,07,11,17,19,22,28,30,,,0.7,0.6,0.4*33
$BDGSA,A,3,01,02,03,04,07,08,10,13,27,30,32,,0.7,0.6,0.4*29
$GLGSA,A,3,,,,,,,,,,,,,0.7,0.6,0.4*2B
$GPGSV,3,1,11,01,40,040,43,03,31,101,42,06,23,219,43,07,15,175,38*7B
$GPGSV,3,2,11,11,28,046,40,17,46,306,44,19,30,282,38,22,27,076,42*7F
$GPGSV,3,3,11,28,69,000,44,30,39,202,44,18,14,041,00*4C
$BDGSV,3,1,11,01,40,125,42,02,47,219,39,03,55,171,42,04,23,109,39*6B
$BDGSV,3,2,11,07,61,132,42,08,82,328,43,10,89,023,43,13,62,235,43*60
$BDGSV,3,3,11,27,45,034,44,30,55,298,45,32,14,138,39*5E
$B3CN0,0,0,0,0,0,0,26,0,0,0,0,0,0,0*78
$ini_pos,lastpos_good = 1,ini_pos.x:-1578918.429469,ini_pos.y:5312782.273282,ini_pos.z:3146361.990526
$rtc_local_time,localRTC.weeks:2052,localRTC.seconds:374828.297313,localGtime.weeks:2052,localGtime.seconds:374829.000000
i = 0
$pseudo_cd_ph,prn:1,pseudo_cd_ph:374828927.332641
$meas,msRange:72.664408,x:-13602376.183775,y:8058202.649198,z:21103336.555212,vx:-329.914764,vy:-2705.231445,vz:844.866394,tb:-0.000012154907
i = 1
$pseudo_cd_ph,prn:3,pseudo_cd_ph:374828924.835977
$meas,msRange:75.361167,x:-23101187.279891,y:11731947.822697,z:5599507.645482,vx:423.217316,vy:-641.493652,vz:3077.523193,tb:0.000188131944
i = 2
$pseudo_cd_ph,prn:6,pseudo_cd_ph:374828922.401462
$meas,msRange:77.817724,x:6941819.992676,y:24762831.302344,z:-6514992.547382,vx:-144.307983,vy:851.560791,vz:3065.264404,tb:0.000210276490
i = 3
$pseudo_cd_ph,prn:7,pseudo_cd_ph:374828920.586299
$meas,msRange:79.402287,x:-7912414.092476,y:20952787.846419,z:-13644034.726174,vx:-419.370544,vy:-1766.495117,vz:-2471.291992,tb:-0.000020649326
i = 4
$pseudo_cd_ph,prn:11,pseudo_cd_ph:374828924.420492
$meas,msRange:74.978286,x:-16114547.088395,y:3732488.682408,z:20219034.371547,vx:-1309.817505,vy:-2378.645996,vz:-614.221313,tb:-0.000610439528
i = 5
$pseudo_cd_ph,prn:17,pseudo_cd_ph:374828927.129887
$meas,msRange:72.930981,x:7235935.714324,y:17816688.283425,z:18766585.525517,vx:-2076.792725,vy:-970.206299,vz:1751.721802,tb:0.000051828797
i = 6
$pseudo_cd_ph,prn:19,pseudo_cd_ph:374828924.280564
$meas,msRange:75.407279,x:14522202.067744,y:18101997.758677,z:12540194.065087,vx:-1514.706665,vy:-658.363892,vz:2649.146240,tb:-0.000321134897
i = 7
$pseudo_cd_ph,prn:22,pseudo_cd_ph:374828922.418375
$meas,msRange:76.892888,x:-22554413.339781,y:6403828.367302,z:12645304.969731,vx:1015.709229,vy:-1249.607056,vz:2498.455322,tb:-0.000697810885
i = 8
$pseudo_cd_ph,prn:28,pseudo_cd_ph:374828930.852836
$meas,msRange:69.924006,x:-5436406.274318,y:18130479.752474,z:19278961.827903,vx:-2038.307129,vy:1095.523682,vz:-1648.677856,tb:0.000767836174
i = 9
$pseudo_cd_ph,prn:30,pseudo_cd_ph:374828926.804177
$meas,msRange:73.103765,x:-1070134.262399,y:26205898.856738,z:-3451185.288614,vx:-379.561768,vy:-424.114319,vz:-3103.234131,tb:-0.000101260186
i = 10
i = 11
i = 12
i = 13
i = 14
i = 15
i = 16
i = 17
i = 18
i = 19
i = 20
i = 21
i = 22
i = 23
i = 24
i = 25
i = 26
Refix G01: 2, 374828.927333, 1693
Refix G03: 2, 374828.924836, -2452
Refix G06: 2, 374828.922401, -4349
Refix G07: 2, 374828.920586, 2515
Refix G11: 2, 374828.924420, 1746
Refix G17: 2, 374828.927130, -1870
Refix G18: 2, 374828.920486, 2470
Refix G19: 2, 374828.924281, -2973
Refix G22: 2, 374828.922418, -889
Refix G28: 2, 374828.930853, -2308
Refix G30: 2, 374828.926804, 1605
$GNGGA,080651.000,2944.9067,N,10633.0928,E,1,21,0.6,338.0,M,,,,0000*11
$GNRMC,080651.000,A,2944.9067,N,10633.0928,E,0.31,0.00,090519,,*16
$GPGSA,A,3,01,03,06,07,11,17,19,22,28,30,,,0.7,0.6,0.4*33
$BDGSA,A,3,01,02,03,04,07,08,10,13,27,30,32,,0.7,0.6,0.4*29
$GLGSA,A,3,,,,,,,,,,,,,0.7,0.6,0.4*2B
$GPGSV,3,1,11,01,40,040,44,03,31,101,42,06,23,219,43,07,15,175,39*7D
$GPGSV,3,2,11,11,28,046,39,17,46,306,44,19,30,282,39,22,27,076,42*70
$GPGSV,3,3,11,28,69,000,43,30,39,202,44,18,14,041,00*4B
$BDGSV,3,1,11,01,40,125,41,02,47,219,40,03,55,171,43,04,23,109,40*69
$BDGSV,3,2,11,07,61,132,42,08,82,328,43,10,89,023,43,13,62,235,43*60
$BDGSV,3,3,11,27,45,034,44,30,55,298,45,32,14,138,39*5E
$B3CN0,0,0,0,0,0,0,0,0,0,0,0,0,0,0*4C
$ini_pos,lastpos_good = 1,ini_pos.x:-1578918.161451,ini_pos.y:5312781.997479,ini_pos.z:3146361.856889
$rtc_local_time,localRTC.weeks:2052,localRTC.seconds:374829.297313,localGtime.weeks:2052,localGtime.seconds:374829.999999
i = 0
$pseudo_cd_ph,prn:1,pseudo_cd_ph:374829927.331535
$meas,msRange:72.666202,x:-13602706.184136,y:8055497.375788,z:21104181.192179,vx:-330.085968,vy:-2705.315674,vz:844.407593,tb:-0.000012154919
i = 1
$pseudo_cd_ph,prn:3,pseudo_cd_ph:374829924.837500
$meas,msRange:75.360330,x:-23100763.923596,y:11731306.203833,z:5602585.108734,vx:423.495300,vy:-641.744080,vz:3077.403320,tb:0.000188131943
i = 2
$pseudo_cd_ph,prn:6,pseudo_cd_ph:374829922.404192
$meas,msRange:77.815683,x:6941675.691140,y:24763682.675159,z:-6511927.213424,vx:-144.295105,vy:851.184875,vz:3065.403564,tb:0.000210276480
i = 3
$pseudo_cd_ph,prn:7,pseudo_cd_ph:374829920.584675
$meas,msRange:79.404603,x:-7912833.525453,y:20951021.206117,z:-13646505.867200,vx:-419.495422,vy:-1766.785522,vz:-2470.990234,tb:-0.000020649338
i = 4
$pseudo_cd_ph,prn:11,pseudo_cd_ph:374829924.419358
$meas,msRange:74.980114,x:-16115856.942081,y:3730110.100154,z:20218419.924237,vx:-1309.889893,vy:-2378.518555,vz:-614.673340,tb:-0.000610439525
i = 5
$pseudo_cd_ph,prn:17,pseudo_cd_ph:374829927.131047
$meas,msRange:72.930512,x:7233858.795950,y:17815718.092976,z:18768337.054472,vx:-2077.044189,vy:-970.174683,vz:1751.336182,tb:0.000051828807
i = 6
$pseudo_cd_ph,prn:19,pseudo_cd_ph:374829924.282417
$meas,msRange:75.406110,x:14520687.194094,y:18101339.356848,z:12542843.075048,vx:-1515.040771,vy:-658.439819,vz:2648.873779,tb:-0.000321134895
i = 7
$pseudo_cd_ph,prn:22,pseudo_cd_ph:374829922.418909
$meas,msRange:76.893043,x:-22553397.543882,y:6402578.635783,z:12647803.291499,vx:1015.882629,vy:-1249.856079,vz:2498.188477,tb:-0.000697810891
i = 8
$pseudo_cd_ph,prn:28,pseudo_cd_ph:374829930.854270
$meas,msRange:69.923260,x:-5438444.461073,y:18131575.289732,z:19277312.955281,vx:-2038.066406,vy:1095.550903,vz:-1649.067505,tb:0.000767836180
i = 9
$pseudo_cd_ph,prn:30,pseudo_cd_ph:374829926.803126
$meas,msRange:73.105504,x:-1070513.846418,y:26205474.557648,z:-3454288.485582,vx:-379.606293,vy:-424.483887,vz:-3103.159912,tb:-0.000101260194
i = 10
i = 11
i = 12
i = 13
i = 14
i = 15
i = 16
i = 17
i = 18
i = 19
i = 20
i = 21
i = 22
i = 23
i = 24
i = 25
i = 26
i = 27
Refix G01: 2, 374829.927332, 1694
Refix G03: 2, 374829.924837, -2451
Refix G06: 2, 374829.922404, -4347
Refix G07: 2, 374829.920585, 2516
Refix G11: 2, 374829.924419, 1747
Refix G17: 2, 374829.927131, -1869
Refix G18: 2, 374829.920484, 2470
Refix G19: 2, 374829.924282, -2971
Refix G22: 2, 374829.922419, -888
Refix G28: 2, 374829.930854, -2307
Refix G30: 2, 374829.926803, 1607
$GNGGA,080652.000,2944.9068,N,10633.0928,E,1,21,0.6,338.1,M,,,,0000*1C
$GNRMC,080652.000,A,2944.9068,N,10633.0928,E,0.34,0.00,090519,,*1F
$GPGSA,A,3,01,03,06,07,11,17,19,22,28,30,,,0.7,0.6,0.4*33
$BDGSA,A,3,01,02,03,04,07,08,10,13,27,30,32,,0.7,0.6,0.4*29
$GLGSA,A,3,,,,,,,,,,,,,0.7,0.6,0.4*2B
$GPGSV,3,1,11,01,40,040,44,03,31,101,42,06,23,219,43,07,15,175,39*7D
$GPGSV,3,2,11,11,28,046,40,17,46,306,45,19,30,282,39,22,27,076,42*7F
$GPGSV,3,3,11,28,69,000,44,30,39,202,44,18,14,041,00*4C
