SD initialized success
Create debug.log Failed! 3
bbram_blkflag = 1
rtcflag = 128
BBRAM Block OK: 01 EPHflag: 4660a1c4 8c44837f, rtc 80
GPS 0 Init Dop: 10000,80
GPS 1 Init Dop: 10000,80
GPS 2 Init Dop: 10000,80
GPS 3 Init Dop: 10000,80
GPS 4 Init Dop: 10000,80
GPS 5 Init Dop: 10000,80
GPS 6 Init Dop: 10000,80
GPS 7 Init Dop: 10000,80
GPS 8 Init Dop: 10000,80
GPS 9 Init Dop: 10000,80
GPS10 Init Dop: 10000,80
GPS11 Init Dop: 10000,80
GPS12 Init Dop: 10000,80
GPS13 Init Dop: 10000,80
GPS14 Init Dop: 10000,80
GPS15 Init Dop: 10000,80
GPS16 Init Dop: 10000,80
GPS17 Init Dop: 10000,80
GPS18 Init Dop: 10000,80
GPS19 Init Dop: 10000,80
GPS20 Init Dop: 10000,80
GPS21 Init Dop: 10000,80
GPS22 Init Dop: 10000,80
GPS23 Init Dop: 10000,80
GPS24 Init Dop: 10000,80
GPS25 Init Dop: 10000,80
GPS26 Init Dop: 10000,80
GPS27 Init Dop: 10000,80
GPS28 Init Dop: 10000,80
GPS29 Init Dop: 10000,80
GPS30 Init Dop: 10000,80
GPS31 Init Dop: 10000,80
BDS 0 Init Dop: 10000,80
BDS 1 Init Dop: 10000,80
BDS 2 Init Dop: 10000,80
BDS 3 Init Dop: 10000,80
BDS 4 Init Dop: 10000,80
BDS 5 Init Dop: 10000,80
BDS 6 Init Dop: 10000,80
BDS 7 Init Dop: 10000,80
BDS 8 Init Dop: 10000,80
BDS 9 Init Dop: 10000,80
BDS10 Init Dop: 10000,80
BDS11 Init Dop: 10000,80
BDS12 Init Dop: 10000,80
BDS13 Init Dop: 10000,80
BDS14 Init Dop: 10000,80
BDS15 Init Dop: 10000,80
BDS16 Init Dop: 10000,80
BDS17 Init Dop: 10000,80
BDS18 Init Dop: 10000,80
BDS19 Init Dop: 10000,80
BDS20 Init Dop: 10000,80
BDS21 Init Dop: 10000,80
BDS22 Init Dop: 10000,80
BDS23 Init Dop: 10000,80
BDS24 Init Dop: 10000,80
BDS25 Init Dop: 10000,80
BDS26 Init Dop: 10000,80
BDS27 Init Dop: 10000,80
BDS28 Init Dop: 10000,80
BDS29 Init Dop: 10000,80
BDS30 Init Dop: 10000,80
BDS31 Init Dop: 10000,80
Good luck!
$ini_pos,lastpos_good = 0,ini_pos.x:-2046739898144079604584181494893243150538612660687552759866211436395811498176008283937217445670253342138979921839890088464044843714967523004413381681481950795692746949771761461944886978122913274336967586102276507303936.000000,ini_pos.y:0.000000,ini_pos.z:0.000000
$GNGGA,000000.000,,,,,0,00,,,M,,,,0000*2B
$GNRMC,000000.000,A,,,,,,,060180,,*29
$GPGSA,A,1,,,,,,,,,,,,,,,*1E
$BDGSA,A,1,,,,,,,,,,,,,,,*0F
$GLGSA,A,1,,,,,,,,,,,,,,,*02
$B3CN0,0,0,0,0,0,0,0,0,0,0,0,0,0,0*4C
$ini_pos,lastpos_good = 0,ini_pos.x:-2046739898144079604584181494893243150538612660687552759866211436395811498176008283937217445670253342138979921839890088464044843714967523004413381681481950795692746949771761461944886978122913274336967586102276507303936.000000,ini_pos.y:0.000000,ini_pos.z:0.000000
$GNGGA,000000.000,,,,,0,00,,,M,,,,0000*2B
$GNRMC,000000.000,A,,,,,,,060180,,*29
$GPGSA,A,1,,,,,,,,,,,,,,,*1E
$BDGSA,A,1,,,,,,,,,,,,,,,*0F
$GLGSA,A,1,,,,,,,,,,,,,,,*02
$B3CN0,0,0,0,0,0,0,0,0,0,0,0,0,0,0*4C
$ini_pos,lastpos_good = 0,ini_pos.x:-2046739898144079604584181494893243150538612660687552759866211436395811498176008283937217445670253342138979921839890088464044843714967523004413381681481950795692746949771761461944886978122913274336967586102276507303936.000000,ini_pos.y:0.000000,ini_pos.z:0.000000
$GNGGA,000000.000,,,,,0,00,,,M,,,,0000*2B
$GNRMC,000000.000,A,,,,,,,060180,,*29
$GPGSA,A,1,,,,,,,,,,,,,,,*1E
$BDGSA,A,1,,,,,,,,,,,,,,,*0F
$GLGSA,A,1,,,,,,,,,,,,,,,*02
$GPGSV,1,1,02,01,00,000,26,03,00,000,20*7F
$B3CN0,0,0,0,0,0,0,0,0,0,0,0,0,0,0*4C
$ini_pos,lastpos_good = 0,ini_pos.x:-2046739898144079604584181494893243150538612660687552759866211436395811498176008283937217445670253342138979921839890088464044843714967523004413381681481950795692746949771761461944886978122913274336967586102276507303936.000000,ini_pos.y:0.000000,ini_pos.z:0.000000
$GNGGA,000000.000,,,,,0,00,,,M,,,,0000*2B
$GNRMC,000000.000,A,,,,,,,060180,,*29
$GPGSA,A,1,,,,,,,,,,,,,,,*1E
$BDGSA,A,1,,,,,,,,,,,,,,,*0F
$GLGSA,A,1,,,,,,,,,,,,,,,*02
$GPGSV,1,1,04,01,00,000,47,03,00,000,40,07,00,000,36,11,00,000,30*79
$B3CN0,0,0,0,0,0,0,0,0,0,0,0,0,0,0*4C
$ini_pos,lastpos_good = 0,ini_pos.x:-2046739898144079604584181494893243150538612660687552759866211436395811498176008283937217445670253342138979921839890088464044843714967523004413381681481950795692746949771761461944886978122913274336967586102276507303936.000000,ini_pos.y:0.000000,ini_pos.z:0.000000
$GNGGA,000000.000,,,,,0,00,,,M,,,,0000*2B
$GNRMC,000000.000,A,,,,,,,060180,,*29
$GPGSA,A,1,,,,,,,,,,,,,,,*1E
$BDGSA,A,1,,,,,,,,,,,,,,,*0F
$GLGSA,A,1,,,,,,,,,,,,,,,*02
$GPGSV,3,1,09,01,00,000,46,03,00,000,40,07,00,000,44,11,00,000,44*71
$GPGSV,3,2,09,17,00,000,35,18,00,000,44,22,00,000,32,28,00,000,24*75
$GPGSV,3,3,09,30,00,000,18*4A
$B3CN0,0,0,0,0,0,0,0,0,0,0,0,0,0,0*4C
tow update,370765967.833512
$ini_pos,lastpos_good = 0,ini_pos.x:-2046739898144079604584181494893243150538612660687552759866211436395811498176008283937217445670253342138979921839890088464044843714967523004413381681481950795692746949771761461944886978122913274336967586102276507303936.000000,ini_pos.y:0.000000,ini_pos.z:0.000000
$GNGGA,065907.968,,,,,0,00,,,M,,,,0000*21
$GNRMC,065907.968,A,,,,,,,100180,,*24
$GPGSA,A,1,,,,,,,,,,,,,,,*1E
$BDGSA,A,1,,,,,,,,,,,,,,,*0F
$GLGSA,A,1,,,,,,,,,,,,,,,*02
$GPGSV,3,1,09,01,00,000,46,03,00,000,39,07,00,000,44,11,00,000,44*7F
$GPGSV,3,2,09,17,00,000,36,18,00,000,43,22,00,000,38,28,00,000,44*7D
$GPGSV,3,3,09,30,00,000,46*41
$BDGSV,1,1,02,03,00,000,19,04,00,000,38*6E
$B3CN0,0,0,0,0,0,0,0,0,0,0,0,0,0,0*4C
$ini_pos,lastpos_good = 0,ini_pos.x:-2046739898144079604584181494893243150538612660687552759866211436395811498176008283937217445670253342138979921839890088464044843714967523004413381681481950795692746949771761461944886978122913274336967586102276507303936.000000,ini_pos.y:0.000000,ini_pos.z:0.000000
$GNGGA,065908.968,,,,,0,00,,,M,,,,0000*2E
$GNRMC,065908.968,A,,,,,,,100180,,*2B
$GPGSA,A,1,,,,,,,,,,,,,,,*1E
$BDGSA,A,1,,,,,,,,,,,,,,,*0F
$GLGSA,A,1,,,,,,,,,,,,,,,*02
$GPGSV,3,1,09,01,00,000,45,03,00,000,39,07,00,000,44,11,00,000,44*7C
$GPGSV,3,2,09,17,00,000,36,18,00,000,42,22,00,000,39,28,00,000,43*7A
$GPGSV,3,3,09,30,00,000,45*42
$BDGSV,2,1,05,02,00,000,40,04,00,000,39,07,00,000,40,10,00,000,31*66
$BDGSV,2,2,05,13,00,000,23*5E
$B3CN0,0,0,0,0,0,0,0,0,0,0,0,0,0,0*4C
$ini_pos,lastpos_good = 0,ini_pos.x:-2046739898144079604584181494893243150538612660687552759866211436395811498176008283937217445670253342138979921839890088464044843714967523004413381681481950795692746949771761461944886978122913274336967586102276507303936.000000,ini_pos.y:0.000000,ini_pos.z:0.000000
$GNGGA,065909.968,,,,,0,00,,,M,,,,0000*2F
$GNRMC,065909.968,A,,,,,,,100180,,*2A
$GPGSA,A,1,,,,,,,,,,,,,,,*1E
$BDGSA,A,1,,,,,,,,,,,,,,,*0F
$GLGSA,A,1,,,,,,,,,,,,,,,*02
$GPGSV,3,1,09,01,00,000,46,03,00,000,39,07,00,000,44,11,00,000,43*78
$GPGSV,3,2,09,17,00,000,36,18,00,000,43,22,00,000,40,28,00,000,43*75
$GPGSV,3,3,09,30,00,000,45*42
$BDGSV,2,1,06,02,00,000,40,03,00,000,18,04,00,000,39,07,00,000,43*6F
$BDGSV,2,2,06,10,00,000,44,13,00,000,42*6B
$B3CN0,0,0,0,0,0,0,0,0,0,0,0,0,0,0*4C
$ini_pos,lastpos_good = 0,ini_pos.x:-2046739898144079604584181494893243150538612660687552759866211436395811498176008283937217445670253342138979921839890088464044843714967523004413381681481950795692746949771761461944886978122913274336967586102276507303936.000000,ini_pos.y:0.000000,ini_pos.z:0.000000
$GNGGA,065910.968,,,,,0,00,,,M,,,,0000*27
$GNRMC,065910.968,A,,,,,,,100180,,*22
$GPGSA,A,1,,,,,,,,,,,,,,,*1E
$BDGSA,A,1,,,,,,,,,,,,,,,*0F
$GLGSA,A,1,,,,,,,,,,,,,,,*02
$GPGSV,3,1,09,01,00,000,45,03,00,000,40,07,00,000,44,11,00,000,44*72
$GPGSV,3,2,09,17,00,000,36,18,00,000,43,22,00,000,40,28,00,000,43*75
$GPGSV,3,3,09,30,00,000,45*42
$BDGSV,2,1,06,02,00,000,42,03,00,000,22,04,00,000,39,07,00,000,43*64
$BDGSV,2,2,06,10,00,000,43,13,00,000,42*6C
$B3CN0,0,0,0,0,0,0,0,0,0,0,0,0,0,0*4C
$ini_pos,lastpos_good = 0,ini_pos.x:-2046739898144079604584181494893243150538612660687552759866211436395811498176008283937217445670253342138979921839890088464044843714967523004413381681481950795692746949771761461944886978122913274336967586102276507303936.000000,ini_pos.y:0.000000,ini_pos.z:0.000000
$GNGGA,065911.968,,,,,0,00,,,M,,,,0000*26
$GNRMC,065911.968,A,,,,,,,100180,,*23
$GPGSA,A,1,,,,,,,,,,,,,,,*1E
$BDGSA,A,1,,,,,,,,,,,,,,,*0F
$GLGSA,A,1,,,,,,,,,,,,,,,*02
$GPGSV,3,1,09,01,00,000,46,03,00,000,40,07,00,000,44,11,00,000,43*76
$GPGSV,3,2,09,17,00,000,37,18,00,000,42,22,00,000,39,28,00,000,43*7B
$GPGSV,3,3,09,30,00,000,45*42
$BDGSV,2,1,08,02,00,000,40,04,00,000,40,07,00,000,43,10,00,000,43*63
$BDGSV,2,2,08,13,00,000,42,27,00,000,45,28,00,000,43,30,00,000,44*6E
$B3CN0,0,0,0,0,0,0,0,0,0,0,0,0,0,0*4C
$ini_pos,lastpos_good = 0,ini_pos.x:-2046739898144079604584181494893243150538612660687552759866211436395811498176008283937217445670253342138979921839890088464044843714967523004413381681481950795692746949771761461944886978122913274336967586102276507303936.000000,ini_pos.y:0.000000,ini_pos.z:0.000000
$GNGGA,065912.968,,,,,0,00,,,M,,,,0000*25
$GNRMC,065912.968,A,,,,,,,100180,,*20
$GPGSA,A,1,,,,,,,,,,,,,,,*1E
$BDGSA,A,1,,,,,,,,,,,,,,,*0F
$GLGSA,A,1,,,,,,,,,,,,,,,*02
$GPGSV,3,1,09,01,00,000,46,03,00,000,40,07,00,000,45,11,00,000,43*77
$GPGSV,3,2,09,17,00,000,37,18,00,000,43,22,00,000,40,28,00,000,43*74
$GPGSV,3,3,09,30,00,000,45*42
$BDGSV,2,1,08,02,00,000,41,04,00,000,41,07,00,000,43,10,00,000,43*63
$BDGSV,2,2,08,13,00,000,42,27,00,000,45,28,00,000,42,30,00,000,44*6F
$B3CN0,0,0,0,0,0,0,0,0,0,0,0,0,0,0*4C
$ini_pos,lastpos_good = 0,ini_pos.x:-2046739898144079604584181494893243150538612660687552759866211436395811498176008283937217445670253342138979921839890088464044843714967523004413381681481950795692746949771761461944886978122913274336967586102276507303936.000000,ini_pos.y:0.000000,ini_pos.z:0.000000
$GNGGA,065913.968,,,,,0,00,,,M,,,,0000*24
$GNRMC,065913.968,A,,,,,,,100180,,*21
$GPGSA,A,1,,,,,,,,,,,,,,,*1E
$BDGSA,A,1,,,,,,,,,,,,,,,*0F
$GLGSA,A,1,,,,,,,,,,,,,,,*02
$GPGSV,3,1,09,01,00,000,46,03,00,000,39,07,00,000,45,11,00,000,44*7E
$GPGSV,3,2,09,17,00,000,37,18,00,000,43,22,00,000,39,28,00,000,42*7B
$GPGSV,3,3,09,30,00,000,46*41
$BDGSV,2,1,08,02,00,000,41,04,00,000,40,07,00,000,43,10,00,000,43*62
$BDGSV,2,2,08,13,00,000,43,27,00,000,45,28,00,000,42,30,00,000,44*6E
$B3CN0,0,0,0,0,0,0,0,0,0,0,0,0,0,0*4C
$ini_pos,lastpos_good = 0,ini_pos.x:-2046739898144079604584181494893243150538612660687552759866211436395811498176008283937217445670253342138979921839890088464044843714967523004413381681481950795692746949771761461944886978122913274336967586102276507303936.000000,ini_pos.y:0.000000,ini_pos.z:0.000000
$GNGGA,065914.968,,,,,0,00,,,M,,,,0000*23
$GNRMC,065914.968,A,,,,,,,100180,,*26
$GPGSA,A,1,,,,,,,,,,,,,,,*1E
$BDGSA,A,1,,,,,,,,,,,,,,,*0F
$GLGSA,A,1,,,,,,,,,,,,,,,*02
$GPGSV,3,1,10,01,00,000,46,03,00,000,39,07,00,000,44,11,00,000,44*77
$GPGSV,3,2,10,17,00,000,37,18,00,000,43,22,00,000,39,28,00,000,43*72
$GPGSV,3,3,10,30,00,000,46,08,00,000,34*76
$BDGSV,2,1,08,02,00,000,40,04,00,000,40,07,00,000,43,10,00,000,43*63
$BDGSV,2,2,08,13,00,000,43,27,00,000,44,28,00,000,42,30,00,000,44*6F
$B3CN0,0,0,0,0,0,0,0,0,0,0,0,0,0,0*4C
$ini_pos,lastpos_good = 0,ini_pos.x:-2046739898144079604584181494893243150538612660687552759866211436395811498176008283937217445670253342138979921839890088464044843714967523004413381681481950795692746949771761461944886978122913274336967586102276507303936.000000,ini_pos.y:0.000000,ini_pos.z:0.000000
$GNGGA,065915.968,,,,,0,00,,,M,,,,0000*22
$GNRMC,065915.968,A,,,,,,,100180,,*27
$GPGSA,A,1,,,,,,,,,,,,,,,*1E
$BDGSA,A,1,,,,,,,,,,,,,,,*0F
$GLGSA,A,1,,,,,,,,,,,,,,,*02
$GPGSV,3,1,10,01,00,000,45,03,00,000,40,07,00,000,44,11,00,000,44*7A
$GPGSV,3,2,10,17,00,000,37,18,00,000,43,22,00,000,39,28,00,000,43*72
$GPGSV,3,3,10,30,00,000,46,08,00,000,37*75
$BDGSV,2,1,08,02,00,000,40,04,00,000,40,07,00,000,43,10,00,000,43*63
$BDGSV,2,2,08,13,00,000,42,27,00,000,44,28,00,000,42,30,00,000,43*69
$B3CN0,0,0,0,0,0,0,0,0,0,0,0,0,0,0*4C
$ini_pos,lastpos_good = 0,ini_pos.x:-2046739898144079604584181494893243150538612660687552759866211436395811498176008283937217445670253342138979921839890088464044843714967523004413381681481950795692746949771761461944886978122913274336967586102276507303936.000000,ini_pos.y:0.000000,ini_pos.z:0.000000
$GNGGA,065916.968,,,,,0,00,,,M,,,,0000*21
$GNRMC,065916.968,A,,,,,,,100180,,*24
$GPGSA,A,1,,,,,,,,,,,,,,,*1E
$BDGSA,A,1,,,,,,,,,,,,,,,*0F
$GLGSA,A,1,,,,,,,,,,,,,,,*02
$GPGSV,3,1,10,01,00,000,46,03,00,000,40,07,00,000,45,11,00,000,43*7F
$GPGSV,3,2,10,17,00,000,37,18,00,000,43,22,00,000,40,28,00,000,44*7B
$GPGSV,3,3,10,30,00,000,46,08,00,000,38*7A
$BDGSV,3,1,09,02,00,000,41,04,00,000,39,07,00,000,43,08,00,000,35*64
$BDGSV,3,2,09,10,00,000,43,13,00,000,43,27,00,000,45,28,00,000,42*6B
$BDGSV,3,3,09,30,00,000,44*52
$B3CN0,0,0,0,0,0,0,0,0,0,0,0,0,0,0*4C
$ini_pos,lastpos_good = 0,ini_pos.x:-2046739898144079604584181494893243150538612660687552759866211436395811498176008283937217445670253342138979921839890088464044843714967523004413381681481950795692746949771761461944886978122913274336967586102276507303936.000000,ini_pos.y:0.000000,ini_pos.z:0.000000
$GNGGA,065917.968,,,,,0,00,,,M,,,,0000*20
$GNRMC,065917.968,A,,,,,,,100180,,*25
$GPGSA,A,1,,,,,,,,,,,,,,,*1E
$BDGSA,A,1,,,,,,,,,,,,,,,*0F
$GLGSA,A,1,,,,,,,,,,,,,,,*02
$GPGSV,3,1,10,01,00,000,46,03,00,000,40,07,00,000,45,11,00,000,44*78
$GPGSV,3,2,10,17,00,000,37,18,00,000,43,22,00,000,40,28,00,000,43*7C
$GPGSV,3,3,10,30,00,000,46,08,00,000,37*75
$BDGSV,3,1,11,01,00,000,40,02,00,000,40,03,00,000,16,04,00,000,41*6C
$BDGSV,3,2,11,07,00,000,43,08,00,000,43,10,00,000,43,13,00,000,43*65
$BDGSV,3,3,11,27,00,000,45,28,00,000,42,30,00,000,44*53
$B3CN0,0,0,0,0,0,0,0,0,0,0,0,0,0,0*4C
$ini_pos,lastpos_good = 0,ini_pos.x:-2046739898144079604584181494893243150538612660687552759866211436395811498176008283937217445670253342138979921839890088464044843714967523004413381681481950795692746949771761461944886978122913274336967586102276507303936.000000,ini_pos.y:0.000000,ini_pos.z:0.000000
$GNGGA,065918.968,,,,,0,00,,,M,,,,0000*2F
$GNRMC,065918.968,A,,,,,,,090519,,*26
$GPGSA,A,1,,,,,,,,,,,,,,,*1E
$BDGSA,A,1,,,,,,,,,,,,,,,*0F
$GLGSA,A,1,,,,,,,,,,,,,,,*02
$GPGSV,3,1,10,01,00,000,45,03,00,000,40,07,00,000,45,11,00,000,44*7B
$GPGSV,3,2,10,17,00,000,37,18,00,000,43,22,00,000,39,28,00,000,43*72
$GPGSV,3,3,10,30,00,000,46,08,00,000,37*75
$BDGSV,3,1,10,01,00,000,39,02,00,000,41,04,00,000,39,07,00,000,43*69
$BDGSV,3,2,10,08,00,000,43,10,00,000,43,13,00,000,43,27,00,000,46*63
$BDGSV,3,3,10,28,00,000,43,30,00,000,44*67
$B3CN0,0,0,0,0,0,0,0,0,0,0,0,0,0,0*4C
$ini_pos,lastpos_good = 0,ini_pos.x:-2046739898144079604584181494893243150538612660687552759866211436395811498176008283937217445670253342138979921839890088464044843714967523004413381681481950795692746949771761461944886978122913274336967586102276507303936.000000,ini_pos.y:0.000000,ini_pos.z:0.000000
$GNGGA,065919.968,,,,,0,00,,,M,,,,0000*2E
$GNRMC,065919.968,A,,,,,,,090519,,*27
$GPGSA,A,1,,,,,,,,,,,,,,,*1E
$BDGSA,A,1,,,,,,,,,,,,,,,*0F
$GLGSA,A,1,,,,,,,,,,,,,,,*02
$GPGSV,3,1,10,01,00,000,45,03,00,000,40,07,00,000,44,11,00,000,44*7A
$GPGSV,3,2,10,17,00,000,37,18,00,000,43,22,00,000,40,28,00,000,43*7C
$GPGSV,3,3,10,30,00,000,45,08,00,000,37*76
$BDGSV,3,1,10,01,00,000,41,02,00,000,40,04,00,000,40,07,00,000,43*69
$BDGSV,3,2,10,08,00,000,43,10,00,000,43,13,00,000,43,27,00,000,46*63
$BDGSV,3,3,10,28,00,000,43,30,00,000,44*67
$B3CN0,22,0,0,0,0,0,0,0,0,0,0,0,0,0*7C
$ini_pos,lastpos_good = 0,ini_pos.x:-2046739898144079604584181494893243150538612660687552759866211436395811498176008283937217445670253342138979921839890088464044843714967523004413381681481950795692746949771761461944886978122913274336967586102276507303936.000000,ini_pos.y:0.000000,ini_pos.z:0.000000
$GNGGA,065920.968,,,,,0,00,,,M,,,,0000*24
$GNRMC,065920.968,A,,,,,,,090519,,*2D
$GPGSA,A,1,,,,,,,,,,,,,,,*1E
$BDGSA,A,1,,,,,,,,,,,,,,,*0F
$GLGSA,A,1,,,,,,,,,,,,,,,*02
$GPGSV,3,1,10,01,00,000,46,03,00,000,40,07,00,000,44,11,00,000,44*79
$GPGSV,3,2,10,17,00,000,37,18,00,000,43,22,00,000,40,28,00,000,42*7D
$GPGSV,3,3,10,30,00,000,45,08,00,000,37*76
$BDGSV,3,1,11,01,00,000,41,02,00,000,40,03,00,000,18,04,00,000,40*62
$BDGSV,3,2,11,07,00,000,43,08,00,000,43,10,00,000,43,13,00,000,42*64
$BDGSV,3,3,11,27,00,000,45,28,00,000,42,30,00,000,44*53
$B3CN0,0,0,0,0,0,0,0,0,0,0,0,0,0,0*4C
$ini_pos,lastpos_good = 0,ini_pos.x:-2046739898144079604584181494893243150538612660687552759866211436395811498176008283937217445670253342138979921839890088464044843714967523004413381681481950795692746949771761461944886978122913274336967586102276507303936.000000,ini_pos.y:0.000000,ini_pos.z:0.000000
$GNGGA,065921.968,,,,,0,00,,,M,,,,0000*25
$GNRMC,065921.968,A,,,,,,,090519,,*2C
$GPGSA,A,1,,,,,,,,,,,,,,,*1E
$BDGSA,A,1,,,,,,,,,,,,,,,*0F
$GLGSA,A,1,,,,,,,,,,,,,,,*02
$GPGSV,3,1,10,01,00,000,45,03,00,000,41,07,00,000,44,11,00,000,42*7D
$GPGSV,3,2,10,17,00,000,37,18,00,000,42,22,00,000,40,28,00,000,43*7D
$GPGSV,3,3,10,30,00,000,45,08,00,000,37*76
$BDGSV,3,1,10,01,00,000,41,02,00,000,39,04,00,000,39,07,00,000,43*69
$BDGSV,3,2,10,08,00,000,42,10,00,000,43,13,00,000,42,27,00,000,45*60
$BDGSV,3,3,10,28,00,000,42,30,00,000,44*66
$B3CN0,36,0,0,0,0,0,0,0,0,0,0,0,0,0*79
$ini_pos,lastpos_good = 0,ini_pos.x:-2046739898144079604584181494893243150538612660687552759866211436395811498176008283937217445670253342138979921839890088464044843714967523004413381681481950795692746949771761461944886978122913274336967586102276507303936.000000,ini_pos.y:0.000000,ini_pos.z:0.000000
$GNGGA,065922.968,,,,,0,00,,,M,,,,0000*26
$GNRMC,065922.968,A,,,,,,,090519,,*2F
$GPGSA,A,1,,,,,,,,,,,,,,,*1E
$BDGSA,A,1,,,,,,,,,,,,,,,*0F
$GLGSA,A,1,,,,,,,,,,,,,,,*02
$GPGSV,3,1,10,01,00,000,45,03,00,000,40,07,00,000,44,11,00,000,43*7D
$GPGSV,3,2,10,17,00,000,38,18,00,000,43,22,00,000,40,28,00,000,43*73
$GPGSV,3,3,10,30,00,000,45,08,00,000,36*77
$BDGSV,3,1,10,01,00,000,41,02,00,000,40,04,00,000,40,07,00,000,43*69
$BDGSV,3,2,10,08,00,000,43,10,00,000,43,13,00,000,42,27,00,000,45*61
$BDGSV,3,3,10,28,00,000,42,30,00,000,44*66
$B3CN0,17,0,0,0,0,0,0,0,0,0,0,0,0,0*7A
$ini_pos,lastpos_good = 0,ini_pos.x:-2046739898144079604584181494893243150538612660687552759866211436395811498176008283937217445670253342138979921839890088464044843714967523004413381681481950795692746949771761461944886978122913274336967586102276507303936.000000,ini_pos.y:0.000000,ini_pos.z:0.000000
$GNGGA,065923.968,,,,,0,00,,,M,,,,0000*27
$GNRMC,065923.968,A,,,,,,,090519,,*2E
$GPGSA,A,1,,,,,,,,,,,,,,,*1E
$BDGSA,A,1,,,,,,,,,,,,,,,*0F
$GLGSA,A,1,,,,,,,,,,,,,,,*02
$GPGSV,3,1,10,01,00,000,45,03,00,000,40,07,00,000,44,11,00,000,43*7D
$GPGSV,3,2,10,17,00,000,38,18,00,000,43,22,00,000,40,28,00,000,43*73
$GPGSV,3,3,10,30,00,000,45,08,00,000,36*77
$BDGSV,3,1,10,01,00,000,41,02,00,000,41,04,00,000,41,07,00,000,43*69
$BDGSV,3,2,10,08,00,000,42,10,00,000,43,13,00,000,42,27,00,000,45*60
$BDGSV,3,3,10,28,00,000,43,30,00,000,44*67
$B3CN0,0,0,0,0,0,0,0,0,0,0,0,0,0,0*4C
$ini_pos,lastpos_good = 0,ini_pos.x:-2046739898144079604584181494893243150538612660687552759866211436395811498176008283937217445670253342138979921839890088464044843714967523004413381681481950795692746949771761461944886978122913274336967586102276507303936.000000,ini_pos.y:0.000000,ini_pos.z:0.000000
$GNGGA,065924.968,,,,,0,00,,,M,,,,0000*20
$GNRMC,065924.968,A,,,,,,,090519,,*29
$GPGSA,A,1,,,,,,,,,,,,,,,*1E
$BDGSA,A,1,,,,,,,,,,,,,,,*0F
$GLGSA,A,1,,,,,,,,,,,,,,,*02
$GPGSV,3,1,10,01,00,000,45,03,00,000,39,07,00,000,44,11,00,000,44*74
$GPGSV,3,2,10,17,00,000,38,18,00,000,43,22,00,000,40,28,00,000,43*73
$GPGSV,3,3,10,30,00,000,45,08,00,000,36*77
$BDGSV,3,1,10,01,00,000,41,02,00,000,40,04,00,000,41,07,00,000,43*68
$BDGSV,3,2,10,08,00,000,42,10,00,000,43,13,00,000,42,27,00,000,45*60
$BDGSV,3,3,10,28,00,000,42,30,00,000,44*66
$B3CN0,0,0,0,0,0,0,0,0,0,0,0,0,0,0*4C
$ini_pos,lastpos_good = 0,ini_pos.x:-2046739898144079604584181494893243150538612660687552759866211436395811498176008283937217445670253342138979921839890088464044843714967523004413381681481950795692746949771761461944886978122913274336967586102276507303936.000000,ini_pos.y:0.000000,ini_pos.z:0.000000
$GNGGA,065925.968,,,,,0,00,,,M,,,,0000*21
$GNRMC,065925.968,A,,,,,,,090519,,*28
$GPGSA,A,1,,,,,,,,,,,,,,,*1E
$BDGSA,A,1,,,,,,,,,,,,,,,*0F
$GLGSA,A,1,,,,,,,,,,,,,,,*02
$GPGSV,3,1,10,01,00,000,45,03,00,000,40,07,00,000,44,11,00,000,44*7A
$GPGSV,3,2,10,17,00,000,37,18,00,000,42,22,00,000,40,28,00,000,42*7C
$GPGSV,3,3,10,30,00,000,45,08,00,000,35*74
$BDGSV,3,1,11,01,00,000,41,02,00,000,42,03,00,000,22,04,00,000,40*69
$BDGSV,3,2,11,07,00,000,43,08,00,000,43,10,00,000,43,13,00,000,42*64
$BDGSV,3,3,11,27,00,000,45,28,00,000,42,30,00,000,44*53
$B3CN0,0,22,0,0,0,0,0,0,0,0,0,0,0,0*7C
$ini_pos,lastpos_good = 0,ini_pos.x:-2046739898144079604584181494893243150538612660687552759866211436395811498176008283937217445670253342138979921839890088464044843714967523004413381681481950795692746949771761461944886978122913274336967586102276507303936.000000,ini_pos.y:0.000000,ini_pos.z:0.000000
$GNGGA,065926.968,,,,,0,00,,,M,,,,0000*22
$GNRMC,065926.968,A,,,,,,,090519,,*2B
$GPGSA,A,1,,,,,,,,,,,,,,,*1E
$BDGSA,A,1,,,,,,,,,,,,,,,*0F
$GLGSA,A,1,,,,,,,,,,,,,,,*02
$GPGSV,3,1,10,01,00,000,46,03,00,000,40,07,00,000,44,11,00,000,44*79
$GPGSV,3,2,10,17,00,000,37,18,00,000,43,22,00,000,40,28,00,000,43*7C
$GPGSV,3,3,10,30,00,000,45,08,00,000,36*77
$BDGSV,3,1,11,01,00,000,40,02,00,000,39,03,00,000,18,04,00,000,41*6C
$BDGSV,3,2,11,07,00,000,43,08,00,000,43,10,00,000,43,13,00,000,42*64
$BDGSV,3,3,11,27,00,000,45,28,00,000,42,30,00,000,44*53
$B3CN0,19,17,0,0,0,0,0,0,0,0,0,0,0,0*42
$ini_pos,lastpos_good = 0,ini_pos.x:-2046739898144079604584181494893243150538612660687552759866211436395811498176008283937217445670253342138979921839890088464044843714967523004413381681481950795692746949771761461944886978122913274336967586102276507303936.000000,ini_pos.y:0.000000,ini_pos.z:0.000000
$GNGGA,065927.968,,,,,0,00,,,M,,,,0000*23
$GNRMC,065927.968,A,,,,,,,090519,,*2A
$GPGSA,A,1,,,,,,,,,,,,,,,*1E
$BDGSA,A,1,,,,,,,,,,,,,,,*0F
$GLGSA,A,1,,,,,,,,,,,,,,,*02
$GPGSV,3,1,10,01,00,000,46,03,00,000,41,07,00,000,44,11,00,000,44*78
$GPGSV,3,2,10,17,00,000,37,18,00,000,43,22,00,000,39,28,00,000,43*72
$GPGSV,3,3,10,30,00,000,45,08,00,000,36*77
$BDGSV,3,1,10,01,00,000,42,02,00,000,40,04,00,000,39,07,00,000,42*65
$BDGSV,3,2,10,08,00,000,43,10,00,000,43,13,00,000,42,27,00,000,44*60
$BDGSV,3,3,10,28,00,000,42,30,00,000,43*61
$B3CN0,0,0,0,0,0,0,0,0,0,0,0,0,0,0*4C
$ini_pos,lastpos_good = 0,ini_pos.x:-2046739898144079604584181494893243150538612660687552759866211436395811498176008283937217445670253342138979921839890088464044843714967523004413381681481950795692746949771761461944886978122913274336967586102276507303936.000000,ini_pos.y:0.000000,ini_pos.z:0.000000
$GNGGA,065928.968,,,,,0,00,,,M,,,,0000*2C
$GNRMC,065928.968,A,,,,,,,090519,,*25
$GPGSA,A,1,,,,,,,,,,,,,,,*1E
$BDGSA,A,1,,,,,,,,,,,,,,,*0F
$GLGSA,A,1,,,,,,,,,,,,,,,*02
$GPGSV,3,1,10,01,00,000,46,03,00,000,40,07,00,000,45,11,00,000,44*78
$GPGSV,3,2,10,17,00,000,38,18,00,000,43,22,00,000,39,28,00,000,43*7D
$GPGSV,3,3,10,30,00,000,45,08,00,000,35*74
$BDGSV,3,1,11,01,00,000,41,02,00,000,41,03,00,000,19,04,00,000,40*62
$BDGSV,3,2,11,07,00,000,43,08,00,000,43,10,00,000,43,13,00,000,42*64
$BDGSV,3,3,11,27,00,000,45,28,00,000,42,30,00,000,44*53
$B3CN0,0,0,0,0,0,0,0,0,0,0,0,0,0,0*4C
$ini_pos,lastpos_good = 0,ini_pos.x:-2046739898144079604584181494893243150538612660687552759866211436395811498176008283937217445670253342138979921839890088464044843714967523004413381681481950795692746949771761461944886978122913274336967586102276507303936.000000,ini_pos.y:0.000000,ini_pos.z:0.000000
$GNGGA,065929.968,,,,,0,00,,,M,,,,0000*2D
$GNRMC,065929.968,A,,,,,,,090519,,*24
$GPGSA,A,1,,,,,,,,,,,,,,,*1E
$BDGSA,A,1,,,,,,,,,,,,,,,*0F
$GLGSA,A,1,,,,,,,,,,,,,,,*02
$GPGSV,3,1,10,01,00,000,46,03,00,000,40,07,00,000,45,11,00,000,44*78
$GPGSV,3,2,10,17,00,000,38,18,00,000,43,22,00,000,40,28,00,000,43*73
$GPGSV,3,3,10,30,00,000,45,08,00,000,36*77
$BDGSV,3,1,11,01,00,000,41,02,00,000,40,03,00,000,36,04,00,000,40*6E
$BDGSV,3,2,11,07,00,000,43,08,00,000,43,10,00,000,43,13,00,000,43*65
$BDGSV,3,3,11,27,00,000,45,28,00,000,42,30,00,000,43*54
$B3CN0,0,0,0,0,0,0,0,0,0,0,0,0,0,0*4C
$ini_pos,lastpos_good = 0,ini_pos.x:-2046739898144079604584181494893243150538612660687552759866211436395811498176008283937217445670253342138979921839890088464044843714967523004413381681481950795692746949771761461944886978122913274336967586102276507303936.000000,ini_pos.y:0.000000,ini_pos.z:0.000000
$GNGGA,065930.836,2944.9090,N,10633.0889,E,1,09,1.1,333.5,M,,,,0000*1F
$GNRMC,065930.836,A,2944.9090,N,10633.0889,E,0.08,0.00,090519,,*10
$GPGSA,A,3,01,03,07,11,17,18,22,28,30,,,,2.1,1.1,1.8*3B
$BDGSA,A,3,,,,,,,,,,,,,2.1,1.1,1.8*29
$GLGSA,A,3,,,,,,,,,,,,,2.1,1.1,1.8*24
$GPGSV,3,1,10,01,00,000,46,03,00,000,40,07,00,000,44,11,00,000,44*79
$GPGSV,3,2,10,17,00,000,38,18,00,000,43,22,00,000,39,28,00,000,43*7D
$GPGSV,3,3,10,30,00,000,45,08,00,000,36*77
$BDGSV,3,1,10,01,00,000,41,02,00,000,41,04,00,000,41,07,00,000,43*69
$BDGSV,3,2,10,08,00,000,43,10,00,000,43,13,00,000,42,27,00,000,44*60
$BDGSV,3,3,10,28,00,000,42,30,00,000,43*61
$B3CN0,0,0,0,0,0,0,0,0,0,0,0,0,0,0*4C
$ini_pos,lastpos_good = 1,ini_pos.x:-1578910.536037,ini_pos.y:5312778.053964,ini_pos.z:3146363.269958
Refix G01: 2, 370789.932057, -508
Refix G03: 2, 370789.919602, -3593
Refix G07: 2, 370789.929021, 1498
Refix G11: 2, 370789.930565, 571
Refix G17: 2, 370789.924444, -2571
Refix G18: 2, 370789.928415, 1167
Refix G22: 2, 370789.920507, -2687
Refix G28: 2, 370789.926806, -2939
Refix G30: 2, 370789.931344, -533
$GNGGA,065932.000,2944.9076,N,10633.0904,E,1,09,1.1,334.2,M,,,,0000*1C
$GNRMC,065932.000,A,2944.9076,N,10633.0904,E,0.03,0.00,090519,,*18
$GPGSA,A,3,01,03,07,11,17,18,22,28,30,,,,2.1,1.1,1.8*3B
$BDGSA,A,3,,,,,,,,,,,,,2.1,1.1,1.8*29
$GLGSA,A,3,,,,,,,,,,,,,2.1,1.1,1.8*24
$GPGSV,3,1,10,01,00,000,45,03,00,000,40,07,00,000,45,11,00,000,44*7B
$GPGSV,3,2,10,17,00,000,38,18,00,000,43,22,00,000,39,28,00,000,43*7D
$GPGSV,3,3,10,30,00,000,45,08,00,000,36*77
$BDGSV,3,1,11,01,00,000,42,02,00,000,41,03,00,000,36,04,00,000,40*6C
$BDGSV,3,2,11,07,00,000,43,08,00,000,43,10,00,000,43,13,00,000,43*65
$BDGSV,3,3,11,27,00,000,45,28,00,000,42,30,00,000,43*54
$B3CN0,0,0,0,0,0,0,0,0,0,0,0,0,0,0*4C
$ini_pos,lastpos_good = 1,ini_pos.x:-1578913.286958,ini_pos.y:5312779.171424,ini_pos.z:3146361.416905
Refix G01: 2, 370790.932057, -510
Refix G03: 2, 370790.919604, -3594
Refix G07: 2, 370790.929020, 1496
Refix G11: 2, 370790.930565, 569
Refix G17: 2, 370790.924445, -2574
Refix G18: 2, 370790.928414, 1165
Refix G22: 2, 370790.920509, -2688
Refix G28: 2, 370790.926808, -2941
Refix G30: 2, 370790.931345, -536
$GNGGA,065933.000,2944.9079,N,10633.0908,E,1,09,1.1,333.0,M,,,,0000*1B
$GNRMC,065933.000,A,2944.9079,N,10633.0908,E,0.26,0.00,090519,,*1D
$GPGSA,A,3,01,03,07,11,17,18,22,28,30,,,,2.1,1.1,1.8*3B
$BDGSA,A,3,,,,,,,,,,,,,2.1,1.1,1.8*29
$GLGSA,A,3,,,,,,,,,,,,,2.1,1.1,1.8*24
$GPGSV,3,1,10,01,66,074,45,03,14,130,40,07,46,182,45,11,57,041,44*71
$GPGSV,3,2,10,17,33,268,38,18,41,048,43,22,20,108,39,28,45,328,42*7A
$GPGSV,3,3,10,30,65,242,45,08,00,000,36*70
$BDGSV,3,1,10,01,00,000,41,02,00,000,40,04,00,000,41,07,00,000,43*68
$BDGSV,3,2,10,08,00,000,43,10,00,000,43,13,00,000,42,27,00,000,45*61
$BDGSV,3,3,10,28,00,000,42,30,00,000,43*61
$B3CN0,0,0,0,0,0,0,0,0,0,0,0,0,0,0*4C
$ini_pos,lastpos_good = 1,ini_pos.x:-1578913.566385,ini_pos.y:5312777.777974,ini_pos.z:3146361.233363
Refix G01: 2, 370791.932058, -512
Refix G03: 2, 370791.919606, -3595
Refix G07: 2, 370791.929020, 1495
Refix G11: 2, 370791.930564, 567
Refix G17: 2, 370791.924447, -2575
Refix G18: 2, 370791.928413, 1163
Refix G22: 2, 370791.920510, -2689
Refix G28: 2, 370791.926810, -2943
Refix G30: 2, 370791.931345, -537
$GNGGA,065934.000,2944.9079,N,10633.0907,E,1,09,1.1,332.6,M,,,,0000*14
$GNRMC,065934.000,A,2944.9079,N,10633.0907,E,0.14,0.00,090519,,*14
$GPGSA,A,3,01,03,07,11,17,18,22,28,30,,,,2.1,1.1,1.8*3B
$BDGSA,A,3,,,,,,,,,,,,,2.1,1.1,1.8*29
$GLGSA,A,3,,,,,,,,,,,,,2.1,1.1,1.8*24
$GPGSV,3,1,10,01,66,074,45,03,14,130,40,07,46,182,45,11,57,041,44*71
$GPGSV,3,2,10,17,33,268,37,18,41,048,43,22,20,108,39,28,45,328,43*74
$GPGSV,3,3,10,30,65,242,45,08,00,000,36*70
$BDGSV,3,1,11,01,00,000,41,02,00,000,41,03,00,000,18,04,00,000,40*63
$BDGSV,3,2,11,07,00,000,43,08,00,000,43,10,00,000,44,13,00,000,43*62
$BDGSV,3,3,11,27,00,000,46,28,00,000,42,30,00,000,44*50
$B3CN0,0,0,0,0,0,0,0,0,0,0,0,0,0,0*4C
$ini_pos,lastpos_good = 1,ini_pos.x:-1578913.266354,ini_pos.y:5312777.524130,ini_pos.z:3146361.046649
Refix G01: 2, 370792.932058, -499
Refix G03: 2, 370792.919609, -3587
Refix G07: 2, 370792.929019, 1507
Refix G11: 2, 370792.930564, 579
Refix G17: 2, 370792.924449, -2564
Refix G18: 2, 370792.928413, 1175
Refix G22: 2, 370792.920512, -2680
Refix G28: 2, 370792.926811, -2932
Refix G30: 2, 370792.931345, -524
$GNGGA,065935.000,2944.9080,N,10633.0907,E,1,09,1.1,332.7,M,,,,0000*12
$GNRMC,065935.000,A,2944.9080,N,10633.0907,E,0.10,0.00,090519,,*17
$GPGSA,A,3,01,03,07,11,17,18,22,28,30,,,,2.1,1.1,1.8*3B
$BDGSA,A,3,,,,,,,,,,,,,2.1,1.1,1.8*29
$GLGSA,A,3,,,,,,,,,,,,,2.1,1.1,1.8*24
$GPGSV,3,1,10,01,66,074,45,03,14,130,40,07,46,182,44,11,57,041,44*70
$GPGSV,3,2,10,17,33,268,38,18,41,048,43,22,20,108,39,28,45,328,44*7C
$GPGSV,3,3,10,30,65,242,45,08,00,000,36*70
$BDGSV,3,1,10,01,00,000,40,02,00,000,41,04,00,000,41,07,00,000,43*68
$BDGSV,3,2,10,08,00,000,42,10,00,000,44,13,00,000,43,27,00,000,46*65
$BDGSV,3,3,10,28,00,000,42,30,00,000,44*66
$B3CN0,0,22,0,0,0,0,0,0,0,0,0,0,0,0*7C
$ini_pos,lastpos_good = 1,ini_pos.x:-1578913.371415,ini_pos.y:5312777.420573,ini_pos.z:3146361.239401
Refix G01: 2, 370793.932058, -505
Refix G03: 2, 370793.919611, -3592
Refix G07: 2, 370793.929018, 1501
Refix G11: 2, 370793.930563, 573
Refix G17: 2, 370793.924450, -2569
Refix G18: 2, 370793.928412, 1170
Refix G22: 2, 370793.920514, -2685
Refix G28: 2, 370793.926813, -2938
Refix G30: 2, 370793.931346, -530
$GNGGA,065936.000,2944.9080,N,10633.0907,E,1,09,1.1,331.9,M,,,,0000*1C
$GNRMC,065936.000,A,2944.9080,N,10633.0907,E,0.06,0.00,090519,,*13
$GPGSA,A,3,01,03,07,11,17,18,22,28,30,,,,2.1,1.1,1.8*3B
$BDGSA,A,3,,,,,,,,,,,,,2.1,1.1,1.8*29
$GLGSA,A,3,,,,,,,,,,,,,2.1,1.1,1.8*24
$GPGSV,3,1,10,01,66,074,45,03,14,130,40,07,46,182,45,11,57,041,44*71
$GPGSV,3,2,10,17,33,268,38,18,41,048,43,22,20,108,39,28,45,328,43*7B
$GPGSV,3,3,10,30,65,242,45,08,00,000,35*73
$BDGSV,3,1,11,01,00,000,41,02,00,000,41,04,00,000,40,07,00,000,43*69
$BDGSV,3,2,11,08,00,000,42,10,00,000,43,13,00,000,42,27,00,000,45*61
$BDGSV,3,3,11,28,00,000,42,30,00,000,44,05,00,000,17*54
$B3CN0,0,0,0,0,0,0,0,0,0,0,0,0,0,0*4C
$ini_pos,lastpos_good = 1,ini_pos.x:-1578913.120044,ini_pos.y:5312776.817330,ini_pos.z:3146360.860442
Refix G01: 2, 370794.932059, -517
Refix G03: 2, 370794.919613, -3602
Refix G07: 2, 370794.929017, 1489
Refix G11: 2, 370794.930563, 561
Refix G17: 2, 370794.924452, -2580
Refix G18: 2, 370794.928411, 1159
Refix G22: 2, 370794.920515, -2695
Refix G28: 2, 370794.926815, -2949
Refix G30: 2, 370794.931346, -542
$GNGGA,065937.000,2944.9079,N,10633.0907,E,1,09,1.1,331.7,M,,,,0000*15
$GNRMC,065937.000,A,2944.9079,N,10633.0907,E,0.35,0.00,090519,,*14
$GPGSA,A,3,01,03,07,11,17,18,22,28,30,,,,2.1,1.1,1.8*3B
$BDGSA,A,3,,,,,,,,,,,,,2.1,1.1,1.8*29
$GLGSA,A,3,,,,,,,,,,,,,2.1,1.1,1.8*24
$GPGSV,3,1,10,01,66,074,45,03,14,130,40,07,46,182,45,11,57,041,44*71
$GPGSV,3,2,10,17,33,268,38,18,41,048,43,22,20,108,39,28,45,328,43*7B
$GPGSV,3,3,10,30,65,242,45,08,00,000,36*70
$BDGSV,3,1,11,01,00,000,41,02,00,000,40,03,00,000,22,04,00,000,41*6A
$BDGSV,3,2,11,07,00,000,43,08,00,000,42,10,00,000,43,13,00,000,43*64
$BDGSV,3,3,11,27,00,000,45,28,00,000,42,30,00,000,44*53
$B3CN0,0,0,0,0,0,0,0,0,0,0,0,0,0,0*4C
$ini_pos,lastpos_good = 1,ini_pos.x:-1578913.025024,ini_pos.y:5312776.717686,ini_pos.z:3146360.727824
Refix G01: 2, 370795.932059, -520
Refix G03: 2, 370795.919615, -3605
Refix G07: 2, 370795.929016, 1486
Refix G11: 2, 370795.930563, 558
Refix G17: 2, 370795.924453, -2583
Refix G18: 2, 370795.928410, 1156
Refix G22: 2, 370795.920517, -2698
Refix G28: 2, 370795.926817, -2952
Refix G30: 2, 370795.931346, -545
$GNGGA,065938.000,2944.9081,N,10633.0907,E,1,09,1.1,331.9,M,,,,0000*13
$GNRMC,065938.000,A,2944.9081,N,10633.0907,E,0.25,0.00,090519,,*1D
$GPGSA,A,3,01,03,07,11,17,18,22,28,30,,,,2.1,1.1,1.8*3B
$BDGSA,A,3,,,,,,,,,,,,,2.1,1.1,1.8*29
$GLGSA,A,3,,,,,,,,,,,,,2.1,1.1,1.8*24
$GPGSV,3,1,10,01,66,074,45,03,14,130,40,07,46,182,44,11,57,041,44*70
$GPGSV,3,2,10,17,33,268,38,18,41,048,43,22,20,108,39,28,45,328,43*7B
$GPGSV,3,3,10,30,65,242,45,08,00,000,36*70
$BDGSV,3,1,12,01,00,000,41,02,00,000,40,03,00,000,19,04,00,000,40*60
$BDGSV,3,2,12,07,00,000,43,08,00,000,42,10,00,000,43,13,00,000,43*67
$BDGSV,3,3,12,27,00,000,45,28,00,000,42,30,00,000,44,05,00,000,19*6D
$B3CN0,0,0,0,0,0,0,0,0,0,0,0,0,0,0*4C
$ini_pos,lastpos_good = 1,ini_pos.x:-1578913.056933,ini_pos.y:5312776.728806,ini_pos.z:3146361.034537
Refix G01: 2, 370796.932059, -512
Refix G03: 2, 370796.919618, -3600
Refix G07: 2, 370796.929015, 1493
Refix G11: 2, 370796.930562, 565
Refix G17: 2, 370796.924455, -2578
Refix G18: 2, 370796.928410, 1162
Refix G22: 2, 370796.920519, -2693
Refix G28: 2, 370796.926819, -2947
Refix G30: 2, 370796.931347, -538
$GNGGA,065939.000,2944.9080,N,10633.0906,E,1,09,1.1,332.3,M,,,,0000*1B
$GNRMC,065939.000,A,2944.9080,N,10633.0906,E,0.14,0.00,090519,,*1E
$GPGSA,A,3,01,03,07,11,17,18,22,28,30,,,,2.1,1.1,1.8*3B
$BDGSA,A,3,,,,,,,,,,,,,2.1,1.1,1.8*29
$GLGSA,A,3,,,,,,,,,,,,,2.1,1.1,1.8*24
$GPGSV,3,1,10,01,66,074,45,03,14,130,40,07,46,182,45,11,57,041,44*71
$GPGSV,3,2,10,17,33,268,38,18,41,048,42,22,20,108,40,28,45,328,43*74
$GPGSV,3,3,10,30,65,242,45,08,00,000,36*70
$BDGSV,3,1,10,01,00,000,41,02,00,000,39,04,00,000,41,07,00,000,43*66
$BDGSV,3,2,10,08,00,000,42,10,00,000,43,13,00,000,43,27,00,000,45*61
$BDGSV,3,3,10,28,00,000,42,30,00,000,44*66
$B3CN0,17,0,0,0,0,0,0,0,0,0,0,0,0,0*7A
$GLGSV,2,1,06,23,00,000,49,24,00,000,44,11,00,000,36,12,00,000,46*6E
$GLGSV,2,2,06,13,00,000,45,22,00,000,43*67
$ini_pos,lastpos_good = 1,ini_pos.x:-1578913.072283,ini_pos.y:5312777.113795,ini_pos.z:3146361.085422
Refix G01: 2, 370797.932059, -510
Refix G03: 2, 370797.919620, -3600
Refix G07: 2, 370797.929014, 1495
Refix G11: 2, 370797.930562, 567
Refix G17: 2, 370797.924457, -2578
Refix G18: 2, 370797.928409, 1163
Refix G22: 2, 370797.920520, -2692
Refix G28: 2, 370797.926821, -2947
Refix G30: 2, 370797.931347, -536
$GNGGA,065940.000,2944.9080,N,10633.0906,E,1,09,1.1,332.0,M,,,,0000*16
$GNRMC,065940.000,A,2944.9080,N,10633.0906,E,0.25,0.00,090519,,*12
$GPGSA,A,3,01,03,07,11,17,18,22,28,30,,,,2.1,1.1,1.8*3B
$BDGSA,A,3,,,,,,,,,,,,,2.1,1.1,1.8*29
$GLGSA,A,3,,,,,,,,,,,,,2.1,1.1,1.8*24
$GPGSV,3,1,10,01,66,074,45,03,14,130,40,07,46,182,45,11,57,041,44*71
$GPGSV,3,2,10,17,33,268,38,18,41,048,43,22,20,108,39,28,45,328,43*7B
$GPGSV,3,3,10,30,65,242,45,08,00,000,35*73
$BDGSV,3,1,11,01,00,000,41,02,00,000,41,04,00,000,40,07,00,000,43*69
$BDGSV,3,2,11,08,00,000,42,10,00,000,43,13,00,000,43,27,00,000,45*60
$BDGSV,3,3,11,28,00,000,42,30,00,000,43,05,00,000,21*56
$B3CN0,19,0,0,0,0,0,0,0,0,0,0,0,0,0*74
$GLGSV,2,1,06,23,68,324,49,24,39,241,43,11,01,145,36,12,42,140,46*6D
$GLGSV,2,2,06,13,68,343,44,22,21,029,43*64
$ini_pos,lastpos_good = 1,ini_pos.x:-1578912.888290,ini_pos.y:5312776.863767,ini_pos.z:3146361.007034
Refix G01: 2, 370798.932060, -510
Refix G03: 2, 370798.919622, -3600
Refix G07: 2, 370798.929013, 1495
Refix G11: 2, 370798.930561, 567
Refix G17: 2, 370798.924458, -2578
Refix G18: 2, 370798.928408, 1164
Refix G22: 2, 370798.920522, -2691
Refix G28: 2, 370798.926822, -2947
Refix G30: 2, 370798.931347, -536
$GNGGA,065941.000,2944.9085,N,10633.0901,E,1,15,1.1,332.5,M,,,,0000*1D
$GNRMC,065941.000,A,2944.9085,N,10633.0901,E,0.40,0.00,090519,,*12
$GPGSA,A,3,01,03,07,11,17,18,22,28,30,,,,2.1,1.1,1.8*3B
$BDGSA,A,3,,,,,,,,,,,,,2.1,1.1,1.8*29
$GLGSA,A,3,11,12,13,22,23,24,,,,,,,2.1,1.1,1.8*22
$GPGSV,3,1,10,01,66,074,45,03,14,130,40,07,46,182,44,11,57,041,44*70
$GPGSV,3,2,10,17,33,268,38,18,41,048,43,22,20,108,39,28,45,328,43*7B
$GPGSV,3,3,10,30,65,242,45,08,00,000,35*73
$BDGSV,3,1,12,01,00,000,41,02,00,000,41,03,00,000,20,04,00,000,41*6A
$BDGSV,3,2,12,07,00,000,43,08,00,000,43,10,00,000,43,13,00,000,42*67
$BDGSV,3,3,12,27,00,000,44,28,00,000,42,30,00,000,44,05,00,000,19*6C
$B3CN0,0,0,0,0,0,0,0,0,0,0,0,0,0,0*4C
$GLGSV,2,1,06,23,68,324,49,24,39,241,44,11,01,145,37,12,42,140,45*68
$GLGSV,2,2,06,13,68,343,44,22,21,029,43*64
$ini_pos,lastpos_good = 1,ini_pos.x:-1578912.136120,ini_pos.y:5312777.199534,ini_pos.z:3146361.930944
Refix G01: 2, 370799.932060, -505
Refix G03: 2, 370799.919624, -3596
Refix G07: 2, 370799.929012, 1500
Refix G11: 2, 370799.930561, 571
Refix G17: 2, 370799.924460, -2573
Refix G18: 2, 370799.928407, 1168
Refix G22: 2, 370799.920524, -2687
Refix G28: 2, 370799.926824, -2943
Refix G30: 2, 370799.931347, -531
$GNGGA,065942.000,2944.9082,N,10633.0903,E,1,15,0.7,333.4,M,,,,0000*1C
$GNRMC,065942.000,A,2944.9082,N,10633.0903,E,0.24,0.00,090519,,*16
$GPGSA,A,3,01,03,07,11,17,18,22,28,30,,,,0.9,0.7,0.6*39
$BDGSA,A,3,,,,,,,,,,,,,0.9,0.7,0.6*2B
$GLGSA,A,3,11,12,13,22,23,24,,,,,,,0.9,0.7,0.6*20
$GPGSV,3,1,10,01,66,074,45,03,14,130,40,07,46,182,45,11,57,041,44*71
$GPGSV,3,2,10,17,33,268,38,18,41,048,43,22,20,108,39,28,45,328,43*7B
$GPGSV,3,3,10,30,65,242,45,08,00,000,37*71
$BDGSV,3,1,12,01,00,000,41,02,00,000,41,03,00,000,18,04,00,000,41*61
$BDGSV,3,2,12,07,00,000,43,08,00,000,43,10,00,000,43,13,00,000,43*66
$BDGSV,3,3,12,27,00,000,45,28,00,000,42,30,00,000,44,05,00,000,21*66
$B3CN0,0,0,0,0,0,0,0,0,0,0,0,0,0,0*4C
$GLGSV,2,1,06,23,68,324,48,24,39,241,43,11,01,145,37,12,42,140,45*6E
$GLGSV,2,2,06,13,68,343,45,22,21,029,43*65
$ini_pos,lastpos_good = 1,ini_pos.x:-1578912.745840,ini_pos.y:5312778.047863,ini_pos.z:3146362.058342
Refix G01: 2, 370800.932060, -508
Refix G03: 2, 370800.919627, -3598
Refix G07: 2, 370800.929011, 1497
Refix G11: 2, 370800.930561, 569
Refix G17: 2, 370800.924461, -2576
Refix G18: 2, 370800.928406, 1166
Refix G22: 2, 370800.920525, -2690
Refix G28: 2, 370800.926826, -2946
Refix G30: 2, 370800.931348, -534
$GNGGA,065943.000,2944.9081,N,10633.0904,E,1,15,0.7,333.1,M,,,,0000*1C
$GNRMC,065943.000,A,2944.9081,N,10633.0904,E,0.27,0.00,090519,,*10
$GPGSA,A,3,01,03,07,11,17,18,22,28,30,,,,0.9,0.7,0.6*39
$BDGSA,A,3,,,,,,,,,,,,,0.9,0.7,0.6*2B
$GLGSA,A,3,11,12,13,22,23,24,,,,,,,0.9,0.7,0.6*20
$GPGSV,3,1,10,01,66,074,45,03,14,130,40,07,46,182,44,11,57,041,44*70
$GPGSV,3,2,10,17,33,268,38,18,41,048,43,22,20,108,40,28,45,328,43*75
$GPGSV,3,3,10,30,65,242,45,08,00,000,36*70
$BDGSV,3,1,10,01,00,000,41,02,00,000,41,04,00,000,41,07,00,000,43*69
$BDGSV,3,2,10,08,00,000,43,10,00,000,43,13,00,000,42,27,00,000,44*60
$BDGSV,3,3,10,28,00,000,42,30,00,000,43*61
$B3CN0,0,0,0,0,0,0,0,0,0,0,0,0,0,0*4C
$GLGSV,2,1,06,23,68,324,49,24,39,241,43,11,01,145,37,12,42,140,45*6F
$GLGSV,2,2,06,13,68,343,44,22,21,029,43*64
$ini_pos,lastpos_good = 1,ini_pos.x:-1578912.837308,ini_pos.y:5312777.836531,ini_pos.z:3146361.691112
Refix G01: 2, 370801.932061, -514
Refix G03: 2, 370801.919629, -3605
Refix G07: 2, 370801.929010, 1490
Refix G11: 2, 370801.930560, 562
Refix G17: 2, 370801.924463, -2582
Refix G18: 2, 370801.928406, 1160
Refix G22: 2, 370801.920527, -2696
Refix G28: 2, 370801.926828, -2952
Refix G30: 2, 370801.931348, -540
$GNGGA,065944.000,2944.9080,N,10633.0905,E,1,15,0.7,332.6,M,,,,0000*1D
$GNRMC,065944.000,A,2944.9080,N,10633.0905,E,0.22,0.00,090519,,*12
$GPGSA,A,3,01,03,07,11,17,18,22,28,30,,,,0.9,0.7,0.6*39
$BDGSA,A,3,,,,,,,,,,,,,0.9,0.7,0.6*2B
$GLGSA,A,3,11,12,13,22,23,24,,,,,,,0.9,0.7,0.6*20
$GPGSV,3,1,10,01,66,074,45,03,14,130,40,07,46,182,45,11,57,041,44*71
$GPGSV,3,2,10,17,33,268,39,18,41,048,43,22,20,108,40,28,45,328,43*74
$GPGSV,3,3,10,30,65,242,45,08,00,000,37*71
$BDGSV,3,1,10,01,00,000,41,02,00,000,41,04,00,000,40,07,00,000,43*68
$BDGSV,3,2,10,08,00,000,43,10,00,000,43,13,00,000,43,27,00,000,44*61
$BDGSV,3,3,10,28,00,000,42,30,00,000,43*61
$B3CN0,0,0,0,0,0,0,0,0,0,0,0,0,0,0*4C
$GLGSV,2,1,06,23,68,324,49,24,39,241,43,11,01,145,36,12,42,140,45*6E
$GLGSV,2,2,06,13,68,343,44,22,21,029,44*63
$ini_pos,lastpos_good = 1,ini_pos.x:-1578912.919357,ini_pos.y:5312777.568883,ini_pos.z:3146361.203127
Refix G01: 2, 370802.932061, -507
Refix G03: 2, 370802.919631, -3600
Refix G07: 2, 370802.929009, 1496
Refix G11: 2, 370802.930560, 569
Refix G17: 2, 370802.924465, -2576
Refix G18: 2, 370802.928405, 1166
Refix G22: 2, 370802.920529, -2691
Refix G28: 2, 370802.926830, -2946
Refix G30: 2, 370802.931348, -533
$GNGGA,065945.000,2944.9082,N,10633.0903,E,1,22,0.7,335.0,M,,,,0000*1D
$GNRMC,065945.000,A,2944.9082,N,10633.0903,E,0.23,0.00,090519,,*16
$GPGSA,A,3,01,03,07,11,17,18,22,28,30,,,,0.9,0.7,0.6*39
$BDGSA,A,3,07,08,10,13,27,28,30,,,,,,0.9,0.7,0.6*2B
$GLGSA,A,3,11,12,13,22,23,24,,,,,,,0.9,0.7,0.6*20
$GPGSV,3,1,10,01,66,074,45,03,14,130,40,07,46,182,45,11,57,041,44*71
$GPGSV,3,2,10,17,33,268,38,18,41,048,43,22,20,108,40,28,45,328,43*75
$GPGSV,3,3,10,30,65,242,45,08,00,000,37*71
$BDGSV,3,1,12,01,00,000,41,02,00,000,40,03,00,000,16,04,00,000,40*6F
$BDGSV,3,2,12,07,00,000,42,08,00,000,43,10,00,000,43,13,00,000,42*66
$BDGSV,3,3,12,27,00,000,44,28,00,000,41,30,00,000,43,05,00,000,36*65
$B3CN0,0,0,0,0,0,0,0,0,0,0,0,0,0,0*4C
$GLGSV,2,1,06,23,68,324,49,24,39,241,43,11,01,145,35,12,42,140,45*6D
$GLGSV,2,2,06,13,68,343,44,22,21,029,44*63
$ini_pos,lastpos_good = 1,ini_pos.x:-1578913.276974,ini_pos.y:5312779.411705,ini_pos.z:3146362.718208
Refix G01: 2, 370803.932061, -502
Refix G03: 2, 370803.919633, -3596
Refix G07: 2, 370803.929008, 1501
Refix G11: 2, 370803.930559, 573
Refix G17: 2, 370803.924466, -2572
Refix G18: 2, 370803.928404, 1170
Refix G22: 2, 370803.920531, -2687
Refix G28: 2, 370803.926832, -2942
Refix G30: 2, 370803.931349, -528
$GNGGA,065946.000,2944.9078,N,10633.0906,E,1,22,0.6,335.0,M,,,,0000*1F
$GNRMC,065946.000,A,2944.9078,N,10633.0906,E,0.06,0.00,090519,,*12
$GPGSA,A,3,01,03,07,11,17,18,22,28,30,,,,0.7,0.6,0.4*34
$BDGSA,A,3,07,08,10,13,27,28,30,,,,,,0.7,0.6,0.4*26
$GLGSA,A,3,11,12,13,22,23,24,,,,,,,0.7,0.6,0.4*2D
$GPGSV,3,1,10,01,66,074,45,03,14,130,40,07,46,182,45,11,57,041,44*71
$GPGSV,3,2,10,17,33,268,38,18,41,048,43,22,20,108,40,28,45,328,43*75
$GPGSV,3,3,10,30,65,242,46,08,00,000,37*72
$BDGSV,3,1,11,01,00,000,41,02,00,000,41,03,00,000,20,04,00,000,40*68
$BDGSV,3,2,11,07,65,097,43,08,80,170,43,10,76,004,43,13,53,205,42*63
$BDGSV,3,3,11,27,67,004,46,28,20,045,41,30,42,256,43*55
$B3CN0,0,0,0,0,0,0,0,0,0,0,0,0,0,0*4C
$GLGSV,2,1,07,23,68,324,48,24,39,241,43,11,01,145,35,12,42,140,45*6D
$GLGSV,2,2,07,13,68,343,44,22,21,029,43,21,20,029,00*5F
$ini_pos,lastpos_good = 1,ini_pos.x:-1578913.743536,ini_pos.y:5312779.562968,ini_pos.z:3146362.185210
Refix G01: 2, 370804.932062, -509
Refix G03: 2, 370804.919636, -3603
Refix G07: 2, 370804.929007, 1494
Refix G11: 2, 370804.930559, 566
Refix G17: 2, 370804.924468, -2578
Refix G18: 2, 370804.928403, 1164
Refix G22: 2, 370804.920532, -2693
Refix G28: 2, 370804.926833, -2949
Refix G30: 2, 370804.931349, -535
$GNGGA,065947.000,2944.9076,N,10633.0908,E,1,22,0.6,334.3,M,,,,0000*1C
$GNRMC,065947.000,A,2944.9076,N,10633.0908,E,0.11,0.00,090519,,*15
$GPGSA,A,3,01,03,07,11,17,18,22,28,30,,,,0.7,0.6,0.4*34
$BDGSA,A,3,07,08,10,13,27,28,30,,,,,,0.7,0.6,0.4*26
$GLGSA,A,3,11,12,13,22,23,24,,,,,,,0.7,0.6,0.4*2D
$GPGSV,3,1,10,01,66,074,45,03,14,130,40,07,46,182,45,11,57,041,44*71
$GPGSV,3,2,10,17,33,268,38,18,41,048,43,22,20,108,40,28,45,328,42*74
$GPGSV,3,3,10,30,65,242,45,08,00,000,36*70
$BDGSV,3,1,11,01,00,000,41,02,00,000,40,04,00,000,41,07,65,097,42*65
$BDGSV,3,2,11,08,80,170,42,10,76,004,43,13,53,205,42,27,67,004,45*6E
$BDGSV,3,3,11,28,20,045,41,30,42,256,43,05,00,000,18*5B
$B3CN0,0,17,0,0,0,0,0,0,0,0,0,0,0,0*7A
$GLGSV,2,1,07,23,68,324,48,24,39,241,43,11,01,145,33,12,42,140,45*6B
$GLGSV,2,2,07,13,68,343,44,22,21,029,43,21,20,029,00*5F
$ini_pos,lastpos_good = 1,ini_pos.x:-1578913.969050,ini_pos.y:5312779.128385,ini_pos.z:3146361.460691
Refix G01: 2, 370805.932062, -505
Refix G03: 2, 370805.919638, -3600
Refix G07: 2, 370805.929006, 1498
Refix G11: 2, 370805.930559, 570
Refix G17: 2, 370805.924469, -2576
Refix G18: 2, 370805.928403, 1167
Refix G22: 2, 370805.920534, -2690
Refix G28: 2, 370805.926835, -2946
Refix G30: 2, 370805.931349, -532
$GNGGA,065948.000,2944.9074,N,10633.0911,E,1,22,0.6,334.2,M,,,,0000*18
$GNRMC,065948.000,A,2944.9074,N,10633.0911,E,0.08,0.00,090519,,*18
$GPGSA,A,3,01,03,07,11,17,18,22,28,30,,,,0.7,0.6,0.4*34
$BDGSA,A,3,07,08,10,13,27,28,30,,,,,,0.7,0.6,0.4*26
$GLGSA,A,3,11,12,13,22,23,24,,,,,,,0.7,0.6,0.4*2D
$GPGSV,3,1,10,01,66,074,45,03,14,130,40,07,46,182,45,11,57,041,44*71
$GPGSV,3,2,10,17,33,268,38,18,41,048,44,22,20,108,40,28,45,328,43*72
$GPGSV,3,3,10,30,65,242,45,08,00,000,35*73
$BDGSV,3,1,11,01,00,000,41,02,00,000,40,04,00,000,41,07,65,097,43*64
$BDGSV,3,2,11,08,80,170,43,10,76,004,43,13,53,205,42,27,67,004,46*6C
$BDGSV,3,3,11,28,20,045,41,30,42,256,43,05,00,000,17*54
$B3CN0,0,0,0,0,0,0,0,0,0,0,0,0,0,0*4C
$GLGSV,2,1,07,23,68,324,48,24,39,241,43,11,01,145,33,12,42,140,45*6B
$GLGSV,2,2,07,13,68,343,44,22,21,029,43,21,20,029,00*5F
$ini_pos,lastpos_good = 1,ini_pos.x:-1578914.398260,ini_pos.y:5312779.064316,ini_pos.z:3146361.076511
Refix G01: 2, 370806.932062, -504
Refix G03: 2, 370806.919640, -3599
Refix G07: 2, 370806.929005, 1499
Refix G08: 2, 370806.920100, 1403
Refix G11: 2, 370806.930558, 570
Refix G17: 2, 370806.924471, -2576
Refix G18: 2, 370806.928402, 1168
Refix G22: 2, 370806.920536, -2689
Refix G28: 2, 370806.926837, -2946
Refix G30: 2, 370806.931350, -530
$GNGGA,065949.000,2944.9072,N,10633.0913,E,1,23,0.6,333.6,M,,,,0000*1F
$GNRMC,065949.000,A,2944.9072,N,10633.0913,E,0.26,0.00,090519,,*11
$GPGSA,A,3,01,03,07,08,11,17,18,22,28,30,,,0.7,0.6,0.4*3C
$BDGSA,A,3,07,08,10,13,27,28,30,,,,,,0.7,0.6,0.4*26
$GLGSA,A,3,11,12,13,22,23,24,,,,,,,0.7,0.6,0.4*2D
$GPGSV,3,1,10,01,66,074,45,03,14,130,41,07,46,182,45,11,57,041,44*70
$GPGSV,3,2,10,17,33,268,38,18,41,048,43,22,20,108,40,28,45,328,43*75
$GPGSV,3,3,10,30,65,242,46,08,00,000,36*73
$BDGSV,3,1,11,01,00,000,40,02,00,000,40,03,00,000,22,04,00,000,40*6A
$BDGSV,3,2,11,07,65,097,43,08,80,170,42,10,76,004,44,13,53,205,42*65
$BDGSV,3,3,11,27,67,004,46,28,20,045,41,30,42,256,43*55
$B3CN0,0,0,0,0,0,0,0,0,0,0,0,0,0,0*4C
$GLGSV,2,1,07,23,68,324,48,24,39,241,44,11,01,145,33,12,42,140,45*6C
$GLGSV,2,2,07,13,68,343,45,22,21,029,43,21,20,029,00*5E
$ini_pos,lastpos_good = 1,ini_pos.x:-1578914.625679,ini_pos.y:5312778.611912,ini_pos.z:3146360.468416
Refix G01: 2, 370807.932062, -501
Refix G03: 2, 370807.919642, -3597
Refix G07: 2, 370807.929004, 1501
Refix G08: 2, 370807.920099, 1406
Refix G11: 2, 370807.930558, 574
Refix G17: 2, 370807.924473, -2573
Refix G18: 2, 370807.928401, 1171
Refix G22: 2, 370807.920537, -2687
Refix G28: 2, 370807.926839, -2944
Refix G30: 2, 370807.931350, -528
$GNGGA,065950.000,2944.9071,N,10633.0914,E,1,23,0.6,332.9,M,,,,0000*1D
$GNRMC,065950.000,A,2944.9071,N,10633.0914,E,0.32,0.00,090519,,*18
$GPGSA,A,3,01,03,07,08,11,17,18,22,28,30,,,0.7,0.6,0.4*3C
$BDGSA,A,3,07,08,10,13,27,28,30,,,,,,0.7,0.6,0.4*26
$GLGSA,A,3,11,12,13,22,23,24,,,,,,,0.7,0.6,0.4*2D
$GPGSV,3,1,10,01,66,074,45,03,14,130,40,07,46,182,45,11,57,041,44*71
$GPGSV,3,2,10,17,33,268,38,18,41,048,43,22,20,108,39,28,45,328,43*7B
$GPGSV,3,3,10,30,65,242,45,08,18,054,36*78
$BDGSV,3,1,10,01,00,000,41,02,00,000,40,04,00,000,39,07,65,097,43*6A
$BDGSV,3,2,10,08,80,170,43,10,76,004,43,13,53,205,43,27,67,004,45*6F
$BDGSV,3,3,10,28,20,045,41,30,42,256,44*61
$B3CN0,0,0,0,0,0,0,0,0,0,0,0,0,0,0*4C
$GLGSV,2,1,07,23,68,324,48,24,39,241,43,11,01,145,34,12,42,140,46*6F
$GLGSV,2,2,07,13,68,343,45,22,21,029,43,21,20,029,00*5E
$ini_pos,lastpos_good = 1,ini_pos.x:-1578914.618373,ini_pos.y:5312778.121977,ini_pos.z:3146360.009284
Refix G01: 2, 370808.932063, -502
Refix G03: 2, 370808.919645, -3599
Refix G07: 2, 370808.929003, 1500
Refix G08: 2, 370808.920098, 1404
Refix G11: 2, 370808.930558, 572
Refix G17: 2, 370808.924474, -2575
Refix G18: 2, 370808.928400, 1170
Refix G22: 2, 370808.920539, -2688
Refix G28: 2, 370808.926841, -2946
Refix G30: 2, 370808.931350, -529
$GNGGA,065951.000,2944.9069,N,10633.0915,E,1,23,0.6,332.4,M,,,,0000*19
$GNRMC,065951.000,A,2944.9069,N,10633.0915,E,0.20,0.00,090519,,*12
$GPGSA,A,3,01,03,07,08,11,17,18,22,28,30,,,0.7,0.6,0.4*3C
$BDGSA,A,3,07,08,10,13,27,28,30,,,,,,0.7,0.6,0.4*26
$GLGSA,A,3,11,12,13,22,23,24,,,,,,,0.7,0.6,0.4*2D
$GPGSV,3,1,10,01,66,074,45,03,14,130,40,07,46,182,45,11,57,041,44*71
$GPGSV,3,2,10,17,33,268,39,18,41,048,43,22,20,108,40,28,45,328,43*74
$GPGSV,3,3,10,30,65,242,45,08,18,054,37*79
$BDGSV,3,1,10,01,00,000,41,02,00,000,40,04,00,000,41,07,65,097,43*65
$BDGSV,3,2,10,08,80,170,43,10,76,004,43,13,53,205,42,27,67,004,45*6E
$BDGSV,3,3,10,28,20,045,41,30,42,256,44*61
$B3CN0,19,0,0,0,0,0,0,0,0,0,0,0,0,0*74
$GLGSV,2,1,07,23,68,324,48,24,39,241,43,11,01,145,35,12,42,140,46*6E
$GLGSV,2,2,07,13,68,343,45,22,21,029,44,21,20,029,00*59
$ini_pos,lastpos_good = 1,ini_pos.x:-1578914.731301,ini_pos.y:5312777.759842,ini_pos.z:3146359.457074
Refix G01: 2, 370809.932063, -504
Refix G03: 2, 370809.919647, -3601
Refix G07: 2, 370809.929002, 1498
Refix G08: 2, 370809.920097, 1402
Refix G11: 2, 370809.930557, 570
Refix G17: 2, 370809.924476, -2576
Refix G18: 2, 370809.928399, 1168
Refix G22: 2, 370809.920541, -2690
Refix G28: 2, 370809.926843, -2948
Refix G30: 2, 370809.931351, -530
$GNGGA,065952.000,2944.9069,N,10633.0917,E,1,23,0.6,332.2,M,,,,0000*1E
$GNRMC,065952.000,A,2944.9069,N,10633.0917,E,0.05,0.00,090519,,*14
$GPGSA,A,3,01,03,07,08,11,17,18,22,28,30,,,0.7,0.6,0.4*3C
$BDGSA,A,3,07,08,10,13,27,28,30,,,,,,0.7,0.6,0.4*26
$GLGSA,A,3,11,12,13,22,23,24,,,,,,,0.7,0.6,0.4*2D
$GPGSV,3,1,10,01,66,074,45,03,14,130,40,07,46,182,45,11,57,041,43*76
$GPGSV,3,2,10,17,33,268,39,18,41,048,44,22,20,108,39,28,45,328,43*7D
$GPGSV,3,3,10,30,65,242,45,08,18,054,36*78
$BDGSV,3,1,11,01,00,000,41,02,00,000,41,04,00,000,41,07,65,097,43*65
$BDGSV,3,2,11,08,80,170,43,10,76,004,43,13,53,205,43,27,67,004,45*6E
$BDGSV,3,3,11,28,20,045,41,30,42,256,44,05,00,000,23*54
$B3CN0,0,0,0,0,0,0,0,0,0,0,0,0,0,0*4C
$GLGSV,2,1,07,23,68,324,48,24,39,241,43,11,01,145,35,12,42,140,45*6D
$GLGSV,2,2,07,13,68,343,44,22,21,029,44,21,20,029,00*58
$ini_pos,lastpos_good = 1,ini_pos.x:-1578914.941045,ini_pos.y:5312777.577128,ini_pos.z:3146359.185141
Refix G01: 2, 370810.932063, -491
Refix G03: 2, 370810.919649, -3591
Refix G07: 2, 370810.929001, 1510
Refix G08: 2, 370810.920096, 1412
Refix G11: 2, 370810.930557, 582
Refix G17: 2, 370810.924477, -2565
Refix G18: 2, 370810.928399, 1180
Refix G22: 2, 370810.920542, -2679
Refix G28: 2, 370810.926844, -2936
Refix G30: 2, 370810.931351, -518
$GNGGA,065953.000,2944.9068,N,10633.0918,E,1,23,0.6,331.8,M,,,,0000*18
$GNRMC,065953.000,A,2944.9068,N,10633.0918,E,0.24,0.00,090519,,*18
$GPGSA,A,3,01,03,07,08,11,17,18,22,28,30,,,0.7,0.6,0.4*3C
$BDGSA,A,3,07,08,10,13,27,28,30,,,,,,0.7,0.6,0.4*26
$GLGSA,A,3,11,12,13,22,23,24,,,,,,,0.7,0.6,0.4*2D
$GPGSV,3,1,10,01,66,074,45,03,15,130,39,07,46,182,45,11,57,041,44*7E
$GPGSV,3,2,10,17,33,268,39,18,41,048,44,22,20,108,39,28,45,328,44*7A
$GPGSV,3,3,10,30,64,242,45,08,18,054,35*7A
$BDGSV,3,1,11,01,00,000,43,02,00,000,41,03,00,000,18,04,00,000,41*60
$BDGSV,3,2,11,07,65,097,43,08,80,170,43,10,76,004,43,13,53,205,42*63
$BDGSV,3,3,11,27,67,004,45,28,20,045,41,30,42,256,43*56
$B3CN0,0,0,0,0,0,0,0,0,0,0,0,0,0,0*4C
$GLGSV,2,1,07,23,68,324,48,24,39,241,43,11,01,145,35,12,42,140,45*6D
$GLGSV,2,2,07,13,68,343,44,22,21,029,44,21,20,029,00*58
$ini_pos,lastpos_good = 1,ini_pos.x:-1578915.106083,ini_pos.y:5312777.295984,ini_pos.z:3146358.848918
Refix G01: 2, 370811.932064, -500
Refix G03: 2, 370811.919651, -3598
Refix G07: 2, 370811.929000, 1502
Refix G08: 2, 370811.920096, 1405
Refix G11: 2, 370811.930556, 574
Refix G17: 2, 370811.924479, -2572
Refix G18: 2, 370811.928398, 1172
Refix G22: 2, 370811.920544, -2687
Refix G28: 2, 370811.926846, -2944
Refix G30: 2, 370811.931351, -526
$GNGGA,065954.000,2944.9067,N,10633.0918,E,1,26,0.6,330.9,M,,,,0000*15
$GNRMC,065954.000,A,2944.9067,N,10633.0918,E,0.17,0.00,090519,,*10
$GPGSA,A,3,01,03,07,08,11,17,18,22,28,30,,,0.7,0.6,0.3*3B
$BDGSA,A,3,01,02,04,07,08,10,13,27,28,30,,,0.7,0.6,0.3*26
$GLGSA,A,3,11,12,13,22,23,24,,,,,,,0.7,0.6,0.3*2A
$GPGSV,3,1,10,01,66,074,44,03,15,130,39,07,46,182,45,11,57,041,44*7F
$GPGSV,3,2,10,17,33,268,39,18,41,048,44,22,20,108,40,28,45,328,43*73
$GPGSV,3,3,10,30,64,242,45,08,18,054,35*7A
$BDGSV,3,1,12,01,00,000,40,02,00,000,41,03,00,000,36,04,00,000,41*6C
$BDGSV,3,2,12,07,65,097,43,08,80,170,42,10,76,004,43,13,53,205,42*61
$BDGSV,3,3,12,27,67,004,45,28,20,045,41,30,42,256,44,05,00,000,20*65
$B3CN0,0,0,0,0,0,0,0,0,0,0,0,0,0,0*4C
$GLGSV,2,1,07,23,68,324,48,24,39,241,43,11,01,145,35,12,42,140,46*6E
$GLGSV,2,2,07,13,68,343,45,22,21,029,44,21,20,029,00*59
$ini_pos,lastpos_good = 1,ini_pos.x:-1578914.879513,ini_pos.y:5312776.560109,ini_pos.z:3146358.393261
Refix G01: 2, 370812.932064, -495
Refix G03: 2, 370812.919654, -3595
Refix G07: 2, 370812.928999, 1506
Refix G08: 2, 370812.920095, 1408
Refix G11: 2, 370812.930556, 578
Refix G17: 2, 370812.924481, -2568
Refix G18: 2, 370812.928397, 1176
Refix G22: 2, 370812.920546, -2683
Refix G28: 2, 370812.926848, -2940
Refix G30: 2, 370812.931351, -521
$GNGGA,065955.000,2944.9068,N,10633.0919,E,1,26,0.6,330.6,M,,,,0000*15
$GNRMC,065955.000,A,2944.9068,N,10633.0919,E,0.08,0.00,090519,,*11
$GPGSA,A,3,01,03,07,08,11,17,18,22,28,30,,,0.7,0.6,0.3*3B
$BDGSA,A,3,01,02,04,07,08,10,13,27,28,30,,,0.7,0.6,0.3*26
$GLGSA,A,3,11,12,13,22,23,24,,,,,,,0.7,0.6,0.3*2A
$GPGSV,3,1,11,01,66,074,44,03,15,130,40,07,46,182,45,11,57,041,44*70
$GPGSV,3,2,11,17,33,268,38,18,41,048,44,22,20,108,40,28,45,328,43*73
$GPGSV,3,3,11,30,64,242,45,08,18,054,35,13,00,000,29*42
$BDGSV,3,1,11,01,40,125,41,02,46,219,40,04,23,109,40,07,65,097,43*66
$BDGSV,3,2,11,08,80,170,42,10,76,004,43,13,53,205,42,27,67,004,45*6E
$BDGSV,3,3,11,28,20,045,41,30,42,256,43,05,00,000,17*54
$B3CN0,0,0,0,0,0,0,0,0,0,0,0,0,0,0*4C
$GLGSV,2,1,07,23,68,324,48,24,39,241,43,11,01,145,35,12,42,140,46*6E
$GLGSV,2,2,07,13,68,343,44,22,21,029,44,21,20,029,00*58
$ini_pos,lastpos_good = 1,ini_pos.x:-1578914.920800,ini_pos.y:5312776.257482,ini_pos.z:3146358.352613
Refix G01: 2, 370813.932064, -498
Refix G03: 2, 370813.919656, -3598
Refix G07: 2, 370813.928998, 1504
Refix G08: 2, 370813.920094, 1404
Refix G11: 2, 370813.930556, 575
Refix G17: 2, 370813.924482, -2572
Refix G18: 2, 370813.928396, 1173
Refix G22: 2, 370813.920547, -2686
Refix G28: 2, 370813.926850, -2944
Refix G30: 2, 370813.931352, -524
$GNGGA,065956.000,2944.9068,N,10633.0919,E,1,26,0.6,330.1,M,,,,0000*11
$GNRMC,065956.000,A,2944.9068,N,10633.0919,E,0.10,0.00,090519,,*1B
$GPGSA,A,3,01,03,07,08,11,17,18,22,28,30,,,0.7,0.6,0.3*3B
$BDGSA,A,3,01,02,04,07,08,10,13,27,28,30,,,0.7,0.6,0.3*26
$GLGSA,A,3,11,12,13,22,23,24,,,,,,,0.7,0.6,0.3*2A
$GPGSV,3,1,11,01,66,074,45,03,15,130,40,07,46,182,44,11,57,041,44*70
$GPGSV,3,2,11,17,33,268,39,18,41,048,44,22,20,108,40,28,45,328,44*75
$GPGSV,3,3,11,30,64,242,45,08,18,054,36,13,00,000,33*4A
$BDGSV,3,1,11,01,40,125,41,02,46,219,40,03,00,000,20,04,23,109,41*6B
$BDGSV,3,2,11,07,65,097,43,08,80,170,43,10,76,004,43,13,53,205,43*62
$BDGSV,3,3,11,27,67,004,45,28,20,045,41,30,42,256,43*56
$B3CN0,18,0,0,0,0,0,0,0,0,0,0,0,0,0*75
$GLGSV,2,1,07,23,68,324,48,24,39,241,43,11,01,145,36,12,42,140,46*6D
$GLGSV,2,2,07,13,68,343,45,22,21,029,44,21,20,029,00*59
$ini_pos,lastpos_good = 1,ini_pos.x:-1578914.848876,ini_pos.y:5312775.763371,ini_pos.z:3146358.054860
Refix G01: 2, 370814.932064, -489
Refix G03: 2, 370814.919658, -3590
Refix G07: 2, 370814.928997, 1512
Refix G08: 2, 370814.920093, 1412
Refix G11: 2, 370814.930555, 583
Refix G17: 2, 370814.924484, -2565
Refix G18: 2, 370814.928396, 1181
Refix G22: 2, 370814.920549, -2678
Refix G28: 2, 370814.926852, -2937
Refix G30: 2, 370814.931352, -516
$GNGGA,065957.000,2944.9070,N,10633.0919,E,1,26,0.6,329.9,M,,,,0000*19
$GNRMC,065957.000,A,2944.9070,N,10633.0919,E,0.39,0.00,090519,,*18
$GPGSA,A,3,01,03,07,08,11,17,18,22,28,30,,,0.7,0.6,0.3*3B
$BDGSA,A,3,01,02,04,07,08,10,13,27,28,30,,,0.7,0.6,0.3*26
$GLGSA,A,3,11,12,13,22,23,24,,,,,,,0.7,0.6,0.3*2A
$GPGSV,3,1,11,01,66,074,45,03,15,130,40,07,46,182,44,11,57,041,44*70
$GPGSV,3,2,11,17,33,268,38,18,41,048,43,22,20,108,40,28,45,328,43*74
$GPGSV,3,3,11,30,64,242,45,08,18,054,36,13,00,000,34*4D
$BDGSV,3,1,10,01,40,125,41,02,46,219,41,04,23,109,41,07,65,097,43*67
$BDGSV,3,2,10,08,80,170,42,10,76,004,43,13,53,205,43,27,67,004,45*6E
$BDGSV,3,3,10,28,20,045,41,30,42,256,44*61
$B3CN0,0,0,0,0,0,0,0,0,0,0,0,0,0,0*4C
$GLGSV,2,1,07,23,68,324,48,24,39,241,43,11,01,145,37,12,42,140,45*6F
$GLGSV,2,2,07,13,68,343,44,22,21,029,44,21,20,029,00*58
$ini_pos,lastpos_good = 1,ini_pos.x:-1578914.694079,ini_pos.y:5312775.472841,ini_pos.z:3146358.209934
Refix G01: 2, 370815.932065, -493
Refix G03: 2, 370815.919660, -3593
Refix G07: 2, 370815.928996, 1508
Refix G08: 2, 370815.920092, 1409
Refix G11: 2, 370815.930555, 580
Refix G17: 2, 370815.924485, -2568
Refix G18: 2, 370815.928395, 1178
Refix G22: 2, 370815.920551, -2681
Refix G28: 2, 370815.926854, -2940
Refix G30: 2, 370815.931352, -519
$GNGGA,065958.000,2944.9071,N,10633.0918,E,1,26,0.6,329.7,M,,,,0000*18
$GNRMC,065958.000,A,2944.9071,N,10633.0918,E,0.12,0.00,090519,,*1E
$GPGSA,A,3,01,03,07,08,11,17,18,22,28,30,,,0.7,0.6,0.3*3B
$BDGSA,A,3,01,02,04,07,08,10,13,27,28,30,,,0.7,0.6,0.3*26
$GLGSA,A,3,11,12,13,22,23,24,,,,,,,0.7,0.6,0.3*2A
$GPGSV,3,1,11,01,66,074,45,03,15,130,39,07,46,182,44,11,57,041,43*79
$GPGSV,3,2,11,17,33,268,40,18,41,048,43,22,20,108,40,28,45,328,43*7B
$GPGSV,3,3,11,30,64,242,45,08,18,054,36,13,00,000,34*4D
$BDGSV,3,1,11,01,40,125,41,02,46,219,41,03,00,000,19,04,23,109,40*61
$BDGSV,3,2,11,07,65,097,43,08,80,170,43,10,76,004,43,13,53,205,42*63
$BDGSV,3,3,11,27,67,004,45,28,20,045,41,30,42,256,43*56
$B3CN0,0,0,0,0,0,0,0,0,0,0,0,0,0,0*4C
$GLGSV,2,1,07,23,68,324,49,24,39,241,43,11,01,145,38,12,42,140,46*62
$GLGSV,2,2,07,13,68,343,44,22,21,029,43,21,20,029,00*5F
$ini_pos,lastpos_good = 1,ini_pos.x:-1578914.429738,ini_pos.y:5312775.231472,ini_pos.z:3146358.397817
Refix G01: 2, 370816.932065, -488
Refix G03: 2, 370816.919663, -3591
Refix G07: 2, 370816.928995, 1512
Refix G08: 2, 370816.920091, 1412
Refix G11: 2, 370816.930554, 584
Refix G17: 2, 370816.924487, -2564
Refix G18: 2, 370816.928394, 1182
Refix G22: 2, 370816.920552, -2678
Refix G28: 2, 370816.926856, -2937
Refix G30: 2, 370816.931353, -515
$GNGGA,065959.000,2944.9073,N,10633.0917,E,1,26,0.6,329.6,M,,,,0000*15
$GNRMC,065959.000,A,2944.9073,N,10633.0917,E,0.07,0.00,090519,,*16
$GPGSA,A,3,01,03,07,08,11,17,18,22,28,30,,,0.7,0.6,0.3*3B
$BDGSA,A,3,01,02,04,07,08,10,13,27,28,30,,,0.7,0.6,0.3*26
$GLGSA,A,3,11,12,13,22,23,24,,,,,,,0.7,0.6,0.3*2A
$GPGSV,3,1,11,01,66,074,45,03,15,130,40,07,46,182,44,11,57,041,43*77
$GPGSV,3,2,11,17,33,268,40,18,41,048,43,22,20,108,39,28,45,328,43*75
$GPGSV,3,3,11,30,64,242,45,08,18,054,36,13,00,000,35*4C
$BDGSV,3,1,11,01,40,125,41,02,46,219,41,04,23,109,41,07,65,097,43*66
$BDGSV,3,2,11,08,80,170,43,10,76,004,43,13,53,205,42,27,67,004,45*6F
$BDGSV,3,3,11,28,20,045,41,30,42,256,44,05,00,000,19*5D
$B3CN0,0,0,0,0,0,0,0,0,0,0,0,0,0,0*4C
$GLGSV,2,1,07,23,68,324,49,24,39,241,43,11,01,145,38,12,42,140,46*62
$GLGSV,2,2,07,13,68,343,44,22,21,029,44,21,20,029,00*58
$ini_pos,lastpos_good = 1,ini_pos.x:-1578914.236201,ini_pos.y:5312775.047392,ini_pos.z:3146358.544987
Refix G01: 2, 370817.932065, -492
Refix G03: 2, 370817.919665, -3594
Refix G07: 2, 370817.928994, 1508
Refix G08: 2, 370817.920090, 1408
Refix G11: 2, 370817.930554, 580
Refix G17: 2, 370817.924489, -2568
Refix G18: 2, 370817.928393, 1178
Refix G22: 2, 370817.920554, -2681
Refix G28: 2, 370817.926857, -2941
Refix G30: 2, 370817.931353, -519
$GNGGA,070000.000,2944.9072,N,10633.0917,E,1,26,0.6,329.9,M,,,,0000*1A
$GNRMC,070000.000,A,2944.9072,N,10633.0917,E,0.21,0.00,090519,,*12
$GPGSA,A,3,01,03,07,08,11,17,18,22,28,30,,,0.7,0.6,0.3*3B
$BDGSA,A,3,01,02,04,07,08,10,13,27,28,30,,,0.7,0.6,0.3*26
$GLGSA,A,3,11,12,13,22,23,24,,,,,,,0.7,0.6,0.3*2A
$GPGSV,3,1,11,01,66,074,45,03,15,130,40,07,46,182,45,11,57,041,44*71
$GPGSV,3,2,11,17,33,268,40,18,41,048,43,22,20,108,39,28,45,328,42*74
$GPGSV,3,3,11,30,64,242,45,08,18,054,36,13,00,000,35*4C
$BDGSV,3,1,12,01,40,125,41,02,46,219,40,03,00,000,17,04,23,109,41*6C
