SD initialized success
Create debug.log Failed! 3
bbram_blkflag = 1
rtcflag = 0
BBRAM Block OK: 01 EPHflag: 4660a1c4 8c44837f, rtc 00
Hot-start nowtime:day = 8,minute = 21,seconds = 54.00
GPS 0 Init Dop: 10000,80
GPS 1 Init Dop: 10000,80
GPS 2 Init Dop:  1069, 2
GPS 3 Init Dop: 10000,80
GPS 4 Init Dop: 10000,80
GPS 5 Init Dop: 10000,80
GPS 6 Init Dop: -3716, 2
GPS 7 Init Dop: -2633, 2
GPS 8 Init Dop: -1966, 2
GPS 9 Init Dop: 10000,80
GPS10 Init Dop: 10000,80
GPS11 Init Dop: 10000,80
GPS12 Init Dop: 10000,80
GPS13 Init Dop:  2633, 2
GPS14 Init Dop: 10000,80
GPS15 Init Dop:  1300, 2
GPS16 Init Dop: 10000,80
GPS17 Init Dop: 10000,80
GPS18 Init Dop: 10000,80
GPS19 Init Dop: 10000,80
GPS20 Init Dop: 10000,80
GPS21 Init Dop:   379, 2
GPS22 Init Dop:    53, 2
GPS23 Init Dop: 10000,80
GPS24 Init Dop: 10000,80
GPS25 Init Dop:  1583, 2
GPS26 Init Dop:  -269, 2
GPS27 Init Dop: 10000,80
GPS28 Init Dop: 10000,80
GPS29 Init Dop: 10000,80
GPS30 Init Dop:  1749, 2
GPS31 Init Dop: 10000,80
BDS 0 Init Dop:  -873, 2
BDS 1 Init Dop:  -857, 2
BDS 2 Init Dop:  -880, 2
BDS 3 Init Dop:  -869, 2
BDS 4 Init Dop:  -867, 2
BDS 5 Init Dop:   711, 2
BDS 6 Init Dop:  -782, 2
BDS 7 Init Dop: 10000,80
BDS 8 Init Dop:   424, 2
BDS 9 Init Dop:  -824, 2
BDS10 Init Dop: 10000,80
BDS11 Init Dop: 10000,80
BDS12 Init Dop: 10000,80
BDS13 Init Dop: 10000,80
BDS14 Init Dop: 10000,80
BDS15 Init Dop:   779, 2
BDS16 Init Dop: 10000,80
BDS17 Init Dop: 10000,80
BDS18 Init Dop:   349, 2
BDS19 Init Dop: 10000,80
BDS20 Init Dop: 10000,80
BDS21 Init Dop: 10000,80
BDS22 Init Dop:  1158, 2
BDS23 Init Dop: 10000,80
BDS24 Init Dop: 10000,80
BDS25 Init Dop: 10000,80
BDS26 Init Dop: -2390, 2
BDS27 Init Dop:   633, 2
BDS28 Init Dop: 10000,80
BDS29 Init Dop: 10000,80
BDS30 Init Dop: 10000,80
BDS31 Init Dop:  1237, 2
Good luck!
$ini_pos,lastpos_good = 1,ini_pos.x:-1578911.000000,ini_pos.y:5312770.000000,ini_pos.z:3146351.000000
$rtc_local_time,localRTC.weeks:2052,localRTC.seconds:271333.026011,localGtime.weeks:0,localGtime.seconds:19.026011
$GNGGA,000000.000,,,,,0,00,,,M,,,,0000*2B
$GNRMC,000000.000,A,,,,,,,060180,,*29
$GPGSA,A,1,,,,,,,,,,,,,,,*1E
$BDGSA,A,1,,,,,,,,,,,,,,,*0F
$GLGSA,A,1,,,,,,,,,,,,,,,*02
$B3CN0,0,0,0,0,0,0,0,0,0,0,0,0,0,0*4C
$ini_pos,lastpos_good = 1,ini_pos.x:-1578911.000000,ini_pos.y:5312770.000000,ini_pos.z:3146351.000000
$rtc_local_time,localRTC.weeks:2052,localRTC.seconds:271334.026011,localGtime.weeks:2052,localGtime.seconds:271334.026011
$GNGGA,000000.000,,,,,0,00,,,M,,,,0000*2B
$GNRMC,000000.000,A,,,,,,,060180,,*29
$GPGSA,A,1,,,,,,,,,,,,,,,*1E
$BDGSA,A,1,,,,,,,,,,,,,,,*0F
$GLGSA,A,1,,,,,,,,,,,,,,,*02
$B3CN0,0,0,0,0,0,0,0,0,0,0,0,0,0,0*4C
$ini_pos,lastpos_good = 1,ini_pos.x:-1578911.000000,ini_pos.y:5312770.000000,ini_pos.z:3146351.000000
$rtc_local_time,localRTC.weeks:2052,localRTC.seconds:271335.026011,localGtime.weeks:2052,localGtime.seconds:271335.026011
i = 0
i = 1
$pseudo_cd_ph,prn:7,pseudo_cd_ph:18.508382
$meas,msRange:78.365631,x:12564082.437903,y:10907163.829803,z:21052175.811272,vx:-2389.835205,vy:1041.642700,vz:850.415100
i = 2
$pseudo_cd_ph,prn:8,pseudo_cd_ph:8.044964
$meas,msRange:68.706283,x:-5738230.478826,y:25446508.435499,z:4409172.670065,vx:-203.034195,vy:-582.998962,vz:3144.311035
i = 3
$pseudo_cd_ph,prn:9,pseudo_cd_ph:4.837317
$meas,msRange:72.472112,x:9407910.185155,y:18991716.844634,z:15961192.056911,vx:-422.763336,vy:2003.437134,vz:-2130.337402
i = 4
$GNGGA,000000.000,,,,,0,00,,,M,,,,0000*2B
$GNRMC,000000.000,A,,,,,,,060180,,*29
$GPGSA,A,1,,,,,,,,,,,,,,,*1E
$BDGSA,A,1,,,,,,,,,,,,,,,*0F
$GLGSA,A,1,,,,,,,,,,,,,,,*02
$GPGSV,1,1,01,04,00,000,16*4B
$B3CN0,0,0,0,0,0,0,0,0,0,0,0,0,0,0*4C
$ini_pos,lastpos_good = 1,ini_pos.x:-1578911.000000,ini_pos.y:5312770.000000,ini_pos.z:3146351.000000
$rtc_local_time,localRTC.weeks:2052,localRTC.seconds:271336.026011,localGtime.weeks:2052,localGtime.seconds:271336.026011
i = 0
i = 1
$pseudo_cd_ph,prn:7,pseudo_cd_ph:18.510878
$meas,msRange:78.363822,x:12561692.582581,y:10908205.563296,z:21053026.009186,vx:-2389.875488,vy:1041.824341,vz:849.980774
i = 2
$pseudo_cd_ph,prn:8,pseudo_cd_ph:8.046751
$meas,msRange:68.705162,x:-5738433.509029,y:25445925.245087,z:4412316.933453,vx:-203.026230,vy:-583.381897,vz:3144.216064
i = 3
$pseudo_cd_ph,prn:9,pseudo_cd_ph:4.838682
$meas,msRange:72.471415,x:9407487.492556,y:18993720.160410,z:15959061.549192,vx:-422.621887,vy:2003.194458,vz:-2130.678223
i = 4
$pseudo_cd_ph,prn:16,pseudo_cd_ph:4.248661
$meas,msRange:72.608004,x:-12375248.903694,y:8413189.691591,z:21791559.095578,vx:-2082.563721,vy:-1874.062378,vz:-413.141418
i = 5
$pseudo_cd_ph,prn:23,pseudo_cd_ph:7.247901
$meas,msRange:69.459988,x:2072795.709153,y:25558062.267889,z:6373448.688423,vx:-427.129761,vy:739.051636,vz:-3020.621582
i = 6
$pseudo_cd_ph,prn:26,pseudo_cd_ph:17.852706
$meas,msRange:79.238192,x:-20047093.619792,y:1024055.386103,z:17458408.006297,vx:-1706.522339,vy:-1426.132202,vz:-1856.133667
i = 7
$pseudo_cd_ph,prn:27,pseudo_cd_ph:9.227735
$meas,msRange:67.540715,x:-11874635.029835,y:18725483.096840,z:14285785.545621,vx:21.708384,vy:-1850.861816,vz:2455.528076
i = 8
$pseudo_cd_ph,prn:31,pseudo_cd_ph:12.354618
$meas,msRange:84.580083,x:-25554663.509469,y:6291842.729803,z:-5048579.128788,vx:501.334961,vy:-454.140808,vz:-3060.855225
i = 9
i = 10
i = 11
i = 12
i = 13
i = 14
i = 15
i = 16
$GNGGA,000000.000,,,,,0,00,,,M,,,,0000*2B
$GNRMC,000000.000,A,,,,,,,060180,,*29
$GPGSA,A,1,,,,,,,,,,,,,,,*1E
$BDGSA,A,1,,,,,,,,,,,,,,,*0F
$GLGSA,A,1,,,,,,,,,,,,,,,*02
$GPGSV,2,1,05,04,00,000,38,07,00,000,40,08,00,000,39,09,00,000,41*7D
$GPGSV,2,2,05,16,00,000,29*40
$B3CN0,0,0,0,0,0,0,0,0,0,0,0,0,0,0*4C
$ini_pos,lastpos_good = 1,ini_pos.x:-1578911.000000,ini_pos.y:5312770.000000,ini_pos.z:3146351.000000
$rtc_local_time,localRTC.weeks:2052,localRTC.seconds:271337.026011,localGtime.weeks:2052,localGtime.seconds:271337.026011
i = 0
i = 1
$pseudo_cd_ph,prn:7,pseudo_cd_ph:18.513375
$meas,msRange:78.362012,x:12559302.686882,y:10909247.478331,z:21053875.772752,vx:-2389.916016,vy:1042.005859,vz:849.546387
i = 2
$pseudo_cd_ph,prn:8,pseudo_cd_ph:8.048544
$meas,msRange:68.704042,x:-5738636.531288,y:25445341.671765,z:4415461.101832,vx:-203.018311,vy:-583.764771,vz:3144.120850
i = 3
$pseudo_cd_ph,prn:9,pseudo_cd_ph:4.840053
$meas,msRange:72.470719,x:9407064.941375,y:18995723.233500,z:15956930.700847,vx:-422.480499,vy:2002.951782,vz:-2131.018799
i = 4
$pseudo_cd_ph,prn:16,pseudo_cd_ph:4.247959
$meas,msRange:72.609379,x:-12377331.503433,y:8411315.712812,z:21791145.719087,vx:-2082.635986,vy:-1873.895386,vz:-413.611603
i = 5
$pseudo_cd_ph,prn:23,pseudo_cd_ph:7.247977
$meas,msRange:69.460573,x:2072368.616398,y:25558801.142460,z:6370427.998178,vx:-427.055786,vy:738.697510,vz:-3020.759277
i = 6
$pseudo_cd_ph,prn:26,pseudo_cd_ph:17.851806
$meas,msRange:79.239746,x:-20048800.087190,y:1022629.370267,z:17456551.687875,vx:-1706.412598,vy:-1425.899536,vz:-1856.503296
i = 7
$pseudo_cd_ph,prn:27,pseudo_cd_ph:9.228013
$meas,msRange:67.541095,x:-11874613.359045,y:18723632.079957,z:14288240.918419,vx:21.633192,vy:-1851.172119,vz:2455.217773
i = 8
$pseudo_cd_ph,prn:31,pseudo_cd_ph:12.353651
$meas,msRange:84.581743,x:-25554162.010903,y:6291388.504004,z:-5051639.931720,vx:501.662201,vy:-454.310822,vz:-3060.750732
i = 9
i = 10
i = 11
i = 12
i = 13
i = 14
i = 15
i = 16
i = 17
$GNGGA,000000.000,,,,,0,00,,,M,,,,0000*2B
$GNRMC,000000.000,A,,,,,,,060180,,*29
$GPGSA,A,1,,,,,,,,,,,,,,,*1E
$BDGSA,A,1,,,,,,,,,,,,,,,*0F
$GLGSA,A,1,,,,,,,,,,,,,,,*02
$GPGSV,3,1,09,04,00,000,39,07,00,000,44,08,00,000,45,09,00,000,44*7B
$GPGSV,3,2,09,16,00,000,43,23,00,000,45,26,00,000,34,27,00,000,39*7D
$GPGSV,3,3,09,31,00,000,31*40
$BDGSV,2,1,08,01,00,000,41,03,00,000,45,04,00,000,40,05,00,000,40*64
$BDGSV,2,2,08,06,00,000,29,07,00,000,29,09,00,000,26,10,00,000,26*69
$B3CN0,0,0,0,0,0,0,0,0,0,0,0,0,0,0*4C
$ini_pos,lastpos_good = 1,ini_pos.x:-1578911.000000,ini_pos.y:5312770.000000,ini_pos.z:3146351.000000
$rtc_local_time,localRTC.weeks:2052,localRTC.seconds:271338.026011,localGtime.weeks:2052,localGtime.seconds:271338.026011
i = 0
i = 1
$pseudo_cd_ph,prn:7,pseudo_cd_ph:18.515872
$meas,msRange:78.360203,x:12556912.750869,y:10910289.574896,z:21054725.101949,vx:-2389.956299,vy:1042.187378,vz:849.112061
i = 2
$pseudo_cd_ph,prn:8,pseudo_cd_ph:8.050344
$meas,msRange:68.702922,x:-5738839.545655,y:25444757.715542,z:4418605.175134,vx:-203.010452,vy:-584.147705,vz:3144.025879
i = 3
$pseudo_cd_ph,prn:9,pseudo_cd_ph:4.841429
$meas,msRange:72.470023,x:9406642.531586,y:18997726.063851,z:15954799.511921,vx:-422.339111,vy:2002.708984,vz:-2131.359375
i = 4
$pseudo_cd_ph,prn:16,pseudo_cd_ph:4.247262
$meas,msRange:72.610754,x:-12379414.175272,y:8409441.901043,z:21790731.872411,vx:-2082.708008,vy:-1873.728271,vz:-414.081787
i = 5
$pseudo_cd_ph,prn:23,pseudo_cd_ph:7.248063
$meas,msRange:69.461159,x:2071941.597609,y:25559539.662884,z:6367407.170239,vx:-426.981842,vy:738.343384,vz:-3020.896973
i = 6
$pseudo_cd_ph,prn:26,pseudo_cd_ph:17.850913
$meas,msRange:79.241300,x:-20050506.444758,y:1021203.587092,z:17454694.999857,vx:-1706.302734,vy:-1425.666870,vz:-1856.872803
i = 7
$pseudo_cd_ph,prn:27,pseudo_cd_ph:9.228301
$meas,msRange:67.541475,x:-11874591.763469,y:18721780.752812,z:14290695.980823,vx:21.557955,vy:-1851.482300,vz:2454.907227
i = 8
$pseudo_cd_ph,prn:31,pseudo_cd_ph:12.352684
$meas,msRange:84.583403,x:-25553660.185135,y:6290934.108173,z:-5054700.629986,vx:501.989380,vy:-454.480865,vz:-3060.645996
i = 9
i = 10
i = 11
i = 12
i = 13
i = 14
i = 15
i = 16
i = 17
i = 18
i = 19
i = 20
$GNGGA,000000.000,,,,,0,00,,,M,,,,0000*2B
$GNRMC,000000.000,A,,,,,,,060180,,*29
$GPGSA,A,1,,,,,,,,,,,,,,,*1E
$BDGSA,A,1,,,,,,,,,,,,,,,*0F
$GLGSA,A,1,,,,,,,,,,,,,,,*02
$GPGSV,3,1,09,04,00,000,39,07,00,000,44,08,00,000,45,09,00,000,44*7B
$GPGSV,3,2,09,16,00,000,42,23,00,000,44,26,00,000,35,27,00,000,45*77
$GPGSV,3,3,09,31,00,000,41*47
$BDGSV,3,1,09,01,00,000,42,03,00,000,43,04,00,000,40,05,00,000,38*6E
$BDGSV,3,2,09,06,00,000,40,07,00,000,43,09,00,000,42,10,00,000,43*6B
$BDGSV,3,3,09,16,00,000,29*5D
$B3CN0,0,0,0,0,0,0,0,0,0,0,0,0,0,0*4C
$ini_pos,lastpos_good = 1,ini_pos.x:-1578911.000000,ini_pos.y:5312770.000000,ini_pos.z:3146351.000000
$rtc_local_time,localRTC.weeks:2052,localRTC.seconds:271339.026011,localGtime.weeks:2052,localGtime.seconds:271339.026011
i = 0
i = 1
$pseudo_cd_ph,prn:7,pseudo_cd_ph:18.518372
$meas,msRange:78.358393,x:12554522.774605,y:10911331.852981,z:21055573.996759,vx:-2389.996338,vy:1042.368896,vz:848.677612
i = 2
$pseudo_cd_ph,prn:8,pseudo_cd_ph:8.052150
$meas,msRange:68.701802,x:-5739042.552183,y:25444173.376428,z:4421749.153291,vx:-203.002640,vy:-584.530579,vz:3143.930664
i = 3
$pseudo_cd_ph,prn:9,pseudo_cd_ph:4.842812
$meas,msRange:72.469327,x:9406220.263159,y:18999728.651410,z:15952667.982459,vx:-422.197754,vy:2002.466187,vz:-2131.699707
i = 4
$pseudo_cd_ph,prn:16,pseudo_cd_ph:4.246570
$meas,msRange:72.612128,x:-12381496.919155,y:8407568.256324,z:21790317.555560,vx:-2082.780029,vy:-1873.561279,vz:-414.551941
i = 5
$pseudo_cd_ph,prn:23,pseudo_cd_ph:7.248157
$meas,msRange:69.461746,x:2071514.652740,y:25560277.829138,z:6364386.204673,vx:-426.907928,vy:737.989197,vz:-3021.034424
i = 6
$pseudo_cd_ph,prn:26,pseudo_cd_ph:17.850032
$meas,msRange:79.242854,x:-20052212.692436,y:1019778.036584,z:17452837.942284,vx:-1706.192749,vy:-1425.434204,vz:-1857.242432
i = 7
$pseudo_cd_ph,prn:27,pseudo_cd_ph:9.228597
$meas,msRange:67.541856,x:-11874570.243153,y:18719929.115445,z:14293150.732781,vx:21.482672,vy:-1851.792480,vz:2454.596680
i = 8
$pseudo_cd_ph,prn:31,pseudo_cd_ph:12.351714
$meas,msRange:84.585063,x:-25553158.032199,y:6290479.542270,z:-5057761.223521,vx:502.316528,vy:-454.650970,vz:-3060.541260
i = 9
i = 10
i = 11
i = 12
i = 13
i = 14
i = 15
i = 16
i = 17
i = 18
i = 19
i = 20
i = 21
i = 22
i = 23
i = 24
i = 25
$GNGGA,000000.000,,,,,0,00,,,M,,,,0000*2B
$GNRMC,000000.000,A,,,,,,,060180,,*29
$GPGSA,A,1,,,,,,,,,,,,,,,*1E
$BDGSA,A,1,,,,,,,,,,,,,,,*0F
$GLGSA,A,1,,,,,,,,,,,,,,,*02
$GPGSV,3,1,09,04,00,000,39,07,00,000,44,08,00,000,45,09,00,000,45*7A
$GPGSV,3,2,09,16,00,000,43,23,00,000,44,26,00,000,37,27,00,000,45*74
$GPGSV,3,3,09,31,00,000,41*47
$BDGSV,3,1,12,01,00,000,41,03,00,000,43,04,00,000,39,05,00,000,38*69
$BDGSV,3,2,12,06,00,000,40,07,00,000,43,09,00,000,42,10,00,000,42*60
$BDGSV,3,3,12,16,00,000,42,23,00,000,32,27,00,000,23,28,00,000,23*65
$B3CN0,0,0,0,0,0,0,0,0,0,0,0,0,0,0*4C
tow update,271340089.228898
$ini_pos,lastpos_good = 1,ini_pos.x:-1578911.000000,ini_pos.y:5312770.000000,ini_pos.z:3146351.000000
$rtc_local_time,localRTC.weeks:2052,localRTC.seconds:271340.026011,localGtime.weeks:2052,localGtime.seconds:271340.089229
i = 0
i = 1
$pseudo_cd_ph,prn:7,pseudo_cd_ph:271339878.520871
$meas,msRange:78.356469,x:12551981.663901,y:10912440.221251,z:21056476.080833,vx:-2390.039062,vy:1042.561890,vz:848.215759
i = 2
$pseudo_cd_ph,prn:8,pseudo_cd_ph:271339888.053957
$meas,msRange:68.700612,x:-5739258.383911,y:25443551.676403,z:4425091.784132,vx:-202.994385,vy:-584.937683,vz:3143.829346
i = 3
$pseudo_cd_ph,prn:9,pseudo_cd_ph:271339884.844195
$meas,msRange:72.468588,x:9405771.454636,y:19001857.572894,z:15950401.327762,vx:-422.047516,vy:2002.208008,vz:-2132.061768
i = 4
$pseudo_cd_ph,prn:16,pseudo_cd_ph:271339884.245878
$meas,msRange:72.613590,x:-12383711.409628,y:8405576.346148,z:21789876.530593,vx:-2082.856445,vy:-1873.383545,vz:-415.051819
i = 5
$pseudo_cd_ph,prn:23,pseudo_cd_ph:271339887.248253
$meas,msRange:69.462370,x:2071060.798147,y:25561062.272551,z:6361174.107762,vx:-426.829407,vy:737.612610,vz:-3021.180664
i = 6
$pseudo_cd_ph,prn:26,pseudo_cd_ph:271339877.849154
$meas,msRange:79.244506,x:-20054026.685682,y:1018262.620326,z:17450863.079299,vx:-1706.075806,vy:-1425.186890,vz:-1857.635254
i = 7
$pseudo_cd_ph,prn:27,pseudo_cd_ph:271339889.228898
$meas,msRange:67.542261,x:-11874547.444957,y:18717960.080405,z:14295760.329546,vx:21.402578,vy:-1852.122314,vz:2454.266602
i = 8
$pseudo_cd_ph,prn:31,pseudo_cd_ph:271339872.350742
$meas,msRange:84.586829,x:-25552623.775170,y:6289996.052873,z:-5061015.187792,vx:502.664337,vy:-454.831848,vz:-3060.429688
i = 9
i = 10
i = 11
i = 12
i = 13
i = 14
i = 15
i = 16
i = 17
i = 18
i = 19
i = 20
i = 21
i = 22
i = 23
i = 24
i = 25
$GNGGA,032201.957,2944.9157,N,10633.0902,E,1,12,1.0,345.6,M,,,,0000*13
$GNRMC,032201.957,A,2944.9157,N,10633.0902,E,0.24,0.00,080519,,*1A
$GPGSA,A,3,07,08,09,16,23,26,27,31,,,,,1.6,1.0,1.3*35
$BDGSA,A,3,01,03,04,05,,,,,,,,,1.6,1.0,1.3*24
$GLGSA,A,3,,,,,,,,,,,,,1.6,1.0,1.3*2A
$GPGSV,3,1,09,04,00,000,39,07,00,000,44,08,00,000,45,09,00,000,45*7A
$GPGSV,3,2,09,16,00,000,43,23,00,000,44,26,00,000,37,27,00,000,45*74
$GPGSV,3,3,09,31,00,000,40*46
$BDGSV,3,1,12,01,00,000,41,03,00,000,43,04,00,000,39,05,00,000,39*68
$BDGSV,3,2,12,06,00,000,40,07,00,000,42,09,00,000,41,10,00,000,43*63
$BDGSV,3,3,12,16,00,000,42,23,00,000,39,27,00,000,45,28,00,000,45*6E
$B3CN0,17,0,0,0,0,0,0,0,0,0,0,0,0,0*7A
$ini_pos,lastpos_good = 1,ini_pos.x:-1578913.728374,ini_pos.y:5312781.726710,ini_pos.z:3146379.985827
$rtc_local_time,localRTC.weeks:2052,localRTC.seconds:271341.069113,localGtime.weeks:2052,localGtime.seconds:271341.000000
i = 0
i = 1
$pseudo_cd_ph,prn:7,pseudo_cd_ph:271340921.625933
$meas,msRange:78.354743,x:12549804.868861,y:10913389.831656,z:21057248.430991,vx:-2390.075684,vy:1042.727173,vz:847.820068
i = 2
$pseudo_cd_ph,prn:8,pseudo_cd_ph:271340931.158297
$meas,msRange:68.699546,x:-5739443.262115,y:25443018.773333,z:4427955.053335,vx:-202.987366,vy:-585.286377,vz:3143.742676
i = 3
$pseudo_cd_ph,prn:9,pseudo_cd_ph:271340927.948094
$meas,msRange:72.467878,x:9405387.124587,y:19003681.025169,z:15948459.366475,vx:-421.918823,vy:2001.986694,vz:-2132.371826
i = 4
$pseudo_cd_ph,prn:16,pseudo_cd_ph:271340927.347613
$meas,msRange:72.614749,x:-12385608.444771,y:8403870.192001,z:21789498.318418,vx:-2082.921875,vy:-1873.231323,vz:-415.480011
i = 5
$pseudo_cd_ph,prn:23,pseudo_cd_ph:271340930.350810
$meas,msRange:69.462853,x:2070672.084893,y:25561733.921800,z:6358422.446908,vx:-426.762207,vy:737.289978,vz:-3021.305908
i = 6
$pseudo_cd_ph,prn:26,pseudo_cd_ph:271340920.950697
$meas,msRange:79.245863,x:-20055580.484487,y:1016964.697954,z:17449171.045696,vx:-1705.975586,vy:-1424.974854,vz:-1857.971680
i = 7
$pseudo_cd_ph,prn:27,pseudo_cd_ph:271340932.331669
$meas,msRange:67.542525,x:-11874527.983369,y:18716273.092460,z:14297995.475684,vx:21.333927,vy:-1852.404785,vz:2453.983887
i = 8
$pseudo_cd_ph,prn:31,pseudo_cd_ph:271340915.452184
$meas,msRange:84.588362,x:-25552165.827402,y:6289581.734615,z:-5063802.495084,vx:502.962219,vy:-454.986847,vz:-3060.334229
i = 9
i = 10
i = 11
i = 12
i = 13
i = 14
i = 15
i = 16
i = 17
i = 18
i = 19
i = 20
i = 21
i = 22
i = 23
i = 24
i = 25
i = 26
i = 27
i = 28
i = 29
i = 30
Refix G07: 2, 271340.921626, -3989
Refix G08: 2, 271340.931158, -2900
Refix G09: 2, 271340.927948, -2232
Refix G16: 2, 271340.927348, 1027
Refix G23: 2, 271340.930351, -212
Refix G26: 2, 271340.920951, 1309
Refix G27: 2, 271340.932332, -536
Refix G31: 2, 271340.915452, 1476
$GNGGA,032203.000,2944.9128,N,10633.0887,E,1,12,1.0,343.2,M,,,,0000*1C
$GNRMC,032203.000,A,2944.9128,N,10633.0887,E,0.05,0.00,080519,,*14
$GPGSA,A,3,07,08,09,16,23,26,27,31,,,,,1.3,1.0,0.8*3A
$BDGSA,A,3,01,03,04,05,,,,,,,,,1.3,1.0,0.8*2B
$GLGSA,A,3,,,,,,,,,,,,,1.3,1.0,0.8*25
$GPGSV,3,1,09,04,00,000,39,07,00,000,44,08,00,000,44,09,00,000,44*7A
$GPGSV,3,2,09,16,00,000,43,23,00,000,44,26,00,000,37,27,00,000,45*74
$GPGSV,3,3,09,31,00,000,41*47
$BDGSV,3,1,12,01,00,000,41,03,00,000,43,04,00,000,40,05,00,000,39*66
$BDGSV,3,2,12,06,00,000,40,07,00,000,43,09,00,000,41,10,00,000,43*62
$BDGSV,3,3,12,16,00,000,42,23,00,000,39,27,00,000,45,28,00,000,44*6F
$B3CN0,17,0,0,0,0,0,0,0,0,0,0,0,0,0*7A
$ini_pos,lastpos_good = 1,ini_pos.x:-1578911.592096,ini_pos.y:5312782.956192,ini_pos.z:3146374.154057
$rtc_local_time,localRTC.weeks:2052,localRTC.seconds:271342.069113,localGtime.weeks:2052,localGtime.seconds:271342.000000
i = 0
i = 1
$pseudo_cd_ph,prn:7,pseudo_cd_ph:271341921.628435
$meas,msRange:78.352943,x:12547414.773257,y:10914432.649515,z:21058096.033828,vx:-2390.115723,vy:1042.908691,vz:847.385620
i = 2
$pseudo_cd_ph,prn:8,pseudo_cd_ph:271341931.160106
$meas,msRange:68.698426,x:-5739646.245642,y:25442433.295555,z:4431098.748134,vx:-202.979706,vy:-585.669250,vz:3143.647217
i = 3
$pseudo_cd_ph,prn:9,pseudo_cd_ph:271341927.949479
$meas,msRange:72.467189,x:9404965.276401,y:19005682.890358,z:15946326.824534,vx:-421.777557,vy:2001.743774,vz:-2132.712158
i = 4
$pseudo_cd_ph,prn:16,pseudo_cd_ph:271341927.346928
$meas,msRange:72.616144,x:-12387691.402574,y:8401997.044337,z:21789082.603338,vx:-2082.993896,vy:-1873.064087,vz:-415.950165
i = 5
$pseudo_cd_ph,prn:23,pseudo_cd_ph:271341930.350910
$meas,msRange:69.463438,x:2070245.359595,y:25562471.034598,z:6355401.072418,vx:-426.688446,vy:736.935669,vz:-3021.443359
i = 6
$pseudo_cd_ph,prn:26,pseudo_cd_ph:271341920.949826
$meas,msRange:79.247435,x:-20057286.404997,y:1015539.839434,z:17447312.889304,vx:-1705.865479,vy:-1424.742188,vz:-1858.341187
i = 7
$pseudo_cd_ph,prn:27,pseudo_cd_ph:271341932.331976
$meas,msRange:67.542918,x:-11874506.687147,y:18714420.532746,z:14300449.304063,vx:21.258509,vy:-1852.714844,vz:2453.673096
i = 8
$pseudo_cd_ph,prn:31,pseudo_cd_ph:271341915.451213
$meas,msRange:84.590023,x:-25551662.701658,y:6289126.662675,z:-5066862.776778,vx:503.289276,vy:-455.157074,vz:-3060.229248
i = 9
i = 10
i = 11
i = 12
i = 13
i = 14
i = 15
i = 16
i = 17
i = 18
i = 19
i = 20
i = 21
i = 22
i = 23
i = 24
i = 25
i = 26
i = 27
i = 28
i = 29
i = 30
Refix G07: 2, 271341.921628, -3987
Refix G08: 2, 271341.931160, -2898
Refix G09: 2, 271341.927949, -2229
Refix G16: 2, 271341.927347, 1030
Refix G23: 2, 271341.930351, -209
Refix G26: 2, 271341.920950, 1311
Refix G27: 2, 271341.932332, -533
Refix G31: 2, 271341.915451, 1477
$GNGGA,032204.000,2944.9092,N,10633.0885,E,1,20,0.6,338.1,M,,,,0000*10
$GNRMC,032204.000,A,2944.9092,N,10633.0885,E,0.31,0.00,080519,,*16
$GPGSA,A,3,07,08,09,16,23,26,27,31,,,,,0.8,0.6,0.4*3B
$BDGSA,A,3,01,03,04,05,06,07,09,10,16,23,27,28,0.8,0.6,0.4*2A
$GLGSA,A,3,,,,,,,,,,,,,0.8,0.6,0.4*24
$GPGSV,3,1,10,04,00,000,39,07,25,314,43,08,63,190,45,09,43,292,44*76
$GPGSV,3,2,10,16,41,035,42,23,57,235,44,26,19,058,37,27,71,072,45*7E
$GPGSV,3,3,10,31,05,115,41,18,00,000,21*75
$BDGSV,3,1,12,01,40,125,40,03,54,172,43,04,23,109,41,05,27,244,39*6F
$BDGSV,3,2,12,06,29,178,40,07,61,020,43,09,52,206,41,10,60,320,43*66
$BDGSV,3,3,12,16,35,184,42,23,08,099,38,27,58,140,44,28,37,056,44*63
$B3CN0,0,0,0,0,0,0,0,0,0,0,0,0,0,0*4C
$ini_pos,lastpos_good = 1,ini_pos.x:-1578910.914561,ini_pos.y:5312781.878475,ini_pos.z:3146365.944100
$rtc_local_time,localRTC.weeks:2052,localRTC.seconds:271343.069113,localGtime.weeks:2052,localGtime.seconds:271343.000000
i = 0
i = 1
$pseudo_cd_ph,prn:7,pseudo_cd_ph:271342921.630933
$meas,msRange:78.351154,x:12545024.637648,y:10915475.648850,z:21058943.202204,vx:-2390.155762,vy:1043.090088,vz:846.951172
i = 2
$pseudo_cd_ph,prn:8,pseudo_cd_ph:271342931.161913
$meas,msRange:68.697314,x:-5739849.221538,y:25441847.434920,z:4434242.347519,vx:-202.972107,vy:-586.052063,vz:3143.551758
i = 3
$pseudo_cd_ph,prn:9,pseudo_cd_ph:271342927.950863
$meas,msRange:72.466512,x:9404543.569463,y:19007684.512545,z:15944193.942239,vx:-421.636322,vy:2001.500732,vz:-2133.052490
i = 4
$pseudo_cd_ph,prn:16,pseudo_cd_ph:271342927.346241
$meas,msRange:72.617544,x:-12389774.432194,y:8400124.063889,z:21788666.418127,vx:-2083.065674,vy:-1872.896851,vz:-416.420288
i = 5
$pseudo_cd_ph,prn:23,pseudo_cd_ph:271342930.351008
$meas,msRange:69.464034,x:2069818.708039,y:25563207.793123,z:6352379.560556,vx:-426.614716,vy:736.581421,vz:-3021.580566
i = 6
$pseudo_cd_ph,prn:26,pseudo_cd_ph:271342920.948955
$meas,msRange:79.249007,x:-20058992.215376,y:1014115.213607,z:17445454.363516,vx:-1705.755371,vy:-1424.509521,vz:-1858.710571
i = 7
$pseudo_cd_ph,prn:27,pseudo_cd_ph:271342932.332281
$meas,msRange:67.543319,x:-11874485.466368,y:18712567.662976,z:14302902.821784,vx:21.183044,vy:-1853.024902,vz:2453.362549
i = 8
$pseudo_cd_ph,prn:31,pseudo_cd_ph:271342915.450240
$meas,msRange:84.591677,x:-25551159.248872,y:6288671.420500,z:-5069922.953490,vx:503.616302,vy:-455.327332,vz:-3060.124268
i = 9
i = 10
i = 11
i = 12
i = 13
i = 14
i = 15
i = 16
i = 17
i = 18
i = 19
i = 20
i = 21
i = 22
i = 23
i = 24
i = 25
i = 26
i = 27
i = 28
i = 29
i = 30
i = 31
Refix G07: 2, 271342.921631, -3983
Refix G08: 2, 271342.931162, -2893
Refix G09: 2, 271342.927951, -2225
Refix G16: 2, 271342.927346, 1034
Refix G23: 2, 271342.930351, -205
Refix G26: 2, 271342.920949, 1315
Refix G27: 2, 271342.932332, -528
Refix G31: 2, 271342.915450, 1482
$GNGGA,032205.000,2944.9087,N,10633.0887,E,1,20,0.6,336.5,M,,,,0000*1D
$GNRMC,032205.000,A,2944.9087,N,10633.0887,E,0.31,0.00,080519,,*11
$GPGSA,A,3,07,08,09,16,23,26,27,31,,,,,0.8,0.6,0.4*3B
$BDGSA,A,3,01,03,04,05,06,07,09,10,16,23,27,28,0.8,0.6,0.4*2A
$GLGSA,A,3,,,,,,,,,,,,,0.8,0.6,0.4*24
$GPGSV,3,1,10,04,00,000,39,07,25,314,44,08,63,190,46,09,43,292,45*73
$GPGSV,3,2,10,16,41,035,43,23,57,235,44,26,19,058,37,27,71,072,45*7F
$GPGSV,3,3,10,31,05,115,41,18,00,000,37*72
$BDGSV,3,1,12,01,40,125,41,02,45,218,31,03,54,172,43,04,23,109,40*6D
$BDGSV,3,2,12,05,27,244,37,06,29,178,40,07,61,020,43,09,52,206,41*61
$BDGSV,3,3,12,10,60,320,43,16,35,184,42,23,08,099,38,27,58,140,44*6F
$B3CN0,0,0,0,0,0,0,0,0,0,0,0,0,0,0*4C
$ini_pos,lastpos_good = 1,ini_pos.x:-1578910.884029,ini_pos.y:5312780.873160,ini_pos.z:3146364.367086
$rtc_local_time,localRTC.weeks:2052,localRTC.seconds:271344.069113,localGtime.weeks:2052,localGtime.seconds:271344.000000
i = 0
i = 1
$pseudo_cd_ph,prn:7,pseudo_cd_ph:271343921.633432
$meas,msRange:78.349349,x:12542634.462097,y:10916518.829651,z:21059789.936098,vx:-2390.195557,vy:1043.271606,vz:846.516663
i = 2
$pseudo_cd_ph,prn:8,pseudo_cd_ph:271343931.163719
$meas,msRange:68.696199,x:-5740052.189858,y:25441261.191437,z:4437385.851423,vx:-202.964554,vy:-586.434937,vz:3143.456299
i = 3
$pseudo_cd_ph,prn:9,pseudo_cd_ph:271343927.952245
$meas,msRange:72.465823,x:9404122.003745,y:19009685.891680,z:15942060.719634,vx:-421.495117,vy:2001.257690,vz:-2133.392822
i = 4
$pseudo_cd_ph,prn:16,pseudo_cd_ph:271343927.345558
$meas,msRange:72.618924,x:-12391857.533574,y:8398251.250699,z:21788249.762796,vx:-2083.137207,vy:-1872.729614,vz:-416.890411
i = 5
$pseudo_cd_ph,prn:23,pseudo_cd_ph:271343930.351107
$meas,msRange:69.464626,x:2069392.130179,y:25563944.197348,z:6349357.911387,vx:-426.541046,vy:736.227112,vz:-3021.718018
i = 6
$pseudo_cd_ph,prn:26,pseudo_cd_ph:271343920.948090
$meas,msRange:79.250563,x:-20060697.915566,y:1012690.820479,z:17443595.468369,vx:-1705.645142,vy:-1424.276855,vz:-1859.079834
i = 7
$pseudo_cd_ph,prn:27,pseudo_cd_ph:271343932.332587
$meas,msRange:67.543707,x:-11874464.321077,y:18710714.483192,z:14305356.028795,vx:21.107533,vy:-1853.334839,vz:2453.051758
i = 8
$pseudo_cd_ph,prn:31,pseudo_cd_ph:271343915.449268
$meas,msRange:84.593336,x:-25550655.469077,y:6288216.008049,z:-5072983.025156,vx:503.943298,vy:-455.497620,vz:-3060.019287
i = 9
i = 10
i = 11
i = 12
i = 13
i = 14
i = 15
i = 16
i = 17
i = 18
i = 19
i = 20
i = 21
i = 22
i = 23
i = 24
i = 25
i = 26
i = 27
i = 28
i = 29
i = 30
i = 31
Refix G07: 2, 271343.921633, -3988
Refix G08: 2, 271343.931164, -2897
Refix G09: 2, 271343.927952, -2229
Refix G16: 2, 271343.927346, 1029
Refix G23: 2, 271343.930351, -209
Refix G26: 2, 271343.920948, 1311
Refix G27: 2, 271343.932333, -533
Refix G31: 2, 271343.915449, 1479
$GNGGA,032206.000,2944.9082,N,10633.0885,E,1,21,0.6,332.6,M,,,,0000*1F
$GNRMC,032206.000,A,2944.9082,N,10633.0885,E,0.14,0.00,080519,,*12
$GPGSA,A,3,07,08,09,16,23,26,27,31,,,,,0.8,0.6,0.4*3B
$BDGSA,A,3,01,02,03,04,05,06,07,09,10,16,23,27,0.8,0.6,0.4*22
$GLGSA,A,3,,,,,,,,,,,,,0.8,0.6,0.4*24
$GPGSV,3,1,10,04,00,000,39,07,25,314,45,08,63,190,46,09,43,292,45*72
$GPGSV,3,2,10,16,41,035,43,23,57,235,44,26,19,058,36,27,71,072,46*7D
$GPGSV,3,3,10,31,05,115,40,18,00,000,36*72
$BDGSV,3,1,12,01,40,125,41,02,45,218,34,03,54,172,45,04,23,109,40*6E
$BDGSV,3,2,12,05,27,244,39,06,29,178,40,07,61,020,43,09,52,206,41*6F
$BDGSV,3,3,12,10,60,320,43,16,35,184,42,23,08,099,38,27,58,140,44*6F
$B3CN0,0,0,0,0,0,0,0,0,0,0,0,0,0,0*4C
$ini_pos,lastpos_good = 1,ini_pos.x:-1578909.780097,ini_pos.y:5312778.226990,ini_pos.z:3146361.660122
$rtc_local_time,localRTC.weeks:2052,localRTC.seconds:271345.069113,localGtime.weeks:2052,localGtime.seconds:271345.000000
i = 0
i = 1
$pseudo_cd_ph,prn:7,pseudo_cd_ph:271344921.635934
$meas,msRange:78.347546,x:12540244.246666,y:10917562.191907,z:21060636.235494,vx:-2390.235352,vy:1043.453003,vz:846.082153
i = 2
$pseudo_cd_ph,prn:8,pseudo_cd_ph:271344931.165527
$meas,msRange:68.695092,x:-5740255.150653,y:25440674.565115,z:4440529.259779,vx:-202.957062,vy:-586.817749,vz:3143.360596
i = 3
$pseudo_cd_ph,prn:9,pseudo_cd_ph:271344927.953628
$meas,msRange:72.465139,x:9403700.579219,y:19011687.027708,z:15939927.156767,vx:-421.353943,vy:2001.014526,vz:-2133.733154
i = 4
$pseudo_cd_ph,prn:16,pseudo_cd_ph:271344927.344878
$meas,msRange:72.620310,x:-12393940.706657,y:8396378.604810,z:21787832.637356,vx:-2083.208984,vy:-1872.562256,vz:-417.360504
i = 5
$pseudo_cd_ph,prn:23,pseudo_cd_ph:271344930.351208
$meas,msRange:69.465224,x:2068965.625971,y:25564680.247248,z:6346336.124976,vx:-426.467407,vy:735.872742,vz:-3021.855225
i = 6
$pseudo_cd_ph,prn:26,pseudo_cd_ph:271344920.947230
$meas,msRange:79.252124,x:-20062403.505505,y:1011266.660058,z:17441736.203905,vx:-1705.534790,vy:-1424.044067,vz:-1859.449219
i = 7
$pseudo_cd_ph,prn:27,pseudo_cd_ph:271344932.332895
$meas,msRange:67.544103,x:-11874443.251319,y:18708860.993436,z:14307808.925041,vx:21.031977,vy:-1853.644775,vz:2452.740967
i = 8
$pseudo_cd_ph,prn:31,pseudo_cd_ph:271344915.448294
$meas,msRange:84.594998,x:-25550151.362304,y:6287760.425281,z:-5076042.991712,vx:504.270264,vy:-455.667969,vz:-3059.914062
i = 9
i = 10
i = 11
i = 12
i = 13
i = 14
i = 15
i = 16
i = 17
i = 18
i = 19
i = 20
i = 21
i = 22
i = 23
i = 24
i = 25
i = 26
i = 27
i = 28
i = 29
i = 30
i = 31
Refix G07: 2, 271344.921636, -3988
Refix G08: 2, 271344.931166, -2896
Refix G09: 2, 271344.927954, -2228
Refix G16: 2, 271344.927345, 1030
Refix G23: 2, 271344.930351, -208
Refix G26: 2, 271344.920947, 1311
Refix G27: 2, 271344.932333, -531
Refix G31: 2, 271344.915448, 1479
$GNGGA,032207.000,2944.9083,N,10633.0884,E,1,21,0.6,333.3,M,,,,0000*1A
$GNRMC,032207.000,A,2944.9083,N,10633.0884,E,0.21,0.00,080519,,*15
$GPGSA,A,3,07,08,09,16,23,26,27,31,,,,,0.8,0.6,0.4*3B
$BDGSA,A,3,01,02,03,04,05,06,07,09,10,16,23,27,0.8,0.6,0.4*22
$GLGSA,A,3,,,,,,,,,,,,,0.8,0.6,0.4*24
$GPGSV,3,1,10,04,00,000,40,07,25,314,44,08,63,190,46,09,43,292,45*7D
$GPGSV,3,2,10,16,41,035,43,23,57,235,43,26,19,058,36,27,71,072,45*79
$GPGSV,3,3,10,31,05,115,41,18,00,000,36*73
$BDGSV,3,1,12,01,40,125,41,02,45,218,36,03,54,172,42,04,23,109,41*6A
$BDGSV,3,2,12,05,27,244,37,06,29,178,40,07,61,020,43,09,52,206,41*61
$BDGSV,3,3,12,10,60,320,43,16,35,184,42,23,08,099,38,27,58,140,44*6F
$B3CN0,0,0,0,0,0,0,0,0,0,0,0,0,0,0*4C
$ini_pos,lastpos_good = 1,ini_pos.x:-1578909.737960,ini_pos.y:5312778.756666,ini_pos.z:3146362.148334
$rtc_local_time,localRTC.weeks:2052,localRTC.seconds:271346.069113,localGtime.weeks:2052,localGtime.seconds:271346.000000
i = 0
i = 1
$pseudo_cd_ph,prn:7,pseudo_cd_ph:271345921.638435
$meas,msRange:78.345735,x:12537853.991418,y:10918605.735607,z:21061482.100371,vx:-2390.275146,vy:1043.634399,vz:845.647644
i = 2
$pseudo_cd_ph,prn:8,pseudo_cd_ph:271345931.167335
$meas,msRange:68.693973,x:-5740458.103977,y:25440087.555963,z:4443672.572519,vx:-202.949615,vy:-587.200562,vz:3143.264893
i = 3
$pseudo_cd_ph,prn:9,pseudo_cd_ph:271345927.955012
$meas,msRange:72.464444,x:9403279.295855,y:19013687.920579,z:15937793.253682,vx:-421.212799,vy:2000.771362,vz:-2134.073242
i = 4
$pseudo_cd_ph,prn:16,pseudo_cd_ph:271345927.344197
$meas,msRange:72.621684,x:-12396023.951385,y:8394506.126262,z:21787415.041818,vx:-2083.280518,vy:-1872.394897,vz:-417.830597
i = 5
$pseudo_cd_ph,prn:23,pseudo_cd_ph:271345930.351308
$meas,msRange:69.465812,x:2068539.195369,y:25565415.942797,z:6343314.201386,vx:-426.393829,vy:735.518372,vz:-3021.992188
i = 6
$pseudo_cd_ph,prn:26,pseudo_cd_ph:271345920.946366
$meas,msRange:79.253677,x:-20064108.985133,y:1009842.732349,z:17439876.570164,vx:-1705.424561,vy:-1423.811401,vz:-1859.818481
i = 7
$pseudo_cd_ph,prn:27,pseudo_cd_ph:271345932.333202
$meas,msRange:67.544485,x:-11874422.257142,y:18707007.193750,z:14310261.510471,vx:20.956373,vy:-1853.954712,vz:2452.430176
i = 8
$pseudo_cd_ph,prn:31,pseudo_cd_ph:271345915.447323
$meas,msRange:84.596660,x:-25549646.928586,y:6287304.672156,z:-5079102.853096,vx:504.597198,vy:-455.838318,vz:-3059.808838
i = 9
i = 10
i = 11
i = 12
i = 13
i = 14
i = 15
i = 16
i = 17
i = 18
i = 19
i = 20
i = 21
i = 22
i = 23
i = 24
i = 25
i = 26
i = 27
i = 28
i = 29
i = 30
i = 31
Refix G07: 2, 271345.921638, -3984
Refix G08: 2, 271345.931167, -2892
Refix G09: 2, 271345.927955, -2224
Refix G16: 2, 271345.927344, 1033
Refix G23: 2, 271345.930351, -203
Refix G26: 2, 271345.920946, 1314
Refix G27: 2, 271345.932333, -527
Refix G31: 2, 271345.915447, 1483
$GNGGA,032208.000,2944.9084,N,10633.0883,E,1,21,0.6,333.3,M,,,,0000*15
$GNRMC,032208.000,A,2944.9084,N,10633.0883,E,0.18,0.00,080519,,*10
$GPGSA,A,3,07,08,09,16,23,26,27,31,,,,,0.8,0.6,0.4*3B
$BDGSA,A,3,01,02,03,04,05,06,07,09,10,16,23,27,0.8,0.6,0.4*22
$GLGSA,A,3,,,,,,,,,,,,,0.8,0.6,0.4*24
$GPGSV,3,1,10,04,00,000,40,07,25,314,44,08,63,190,46,09,43,292,45*7D
$GPGSV,3,2,10,16,41,035,43,23,57,235,44,26,19,058,35,27,71,072,45*7D
$GPGSV,3,3,10,31,05,115,41,18,00,000,35*70
$BDGSV,3,1,12,01,40,125,42,02,45,218,36,03,54,172,43,04,23,109,39*67
$BDGSV,3,2,12,05,27,244,39,06,29,178,40,07,61,020,43,09,52,206,42*6C
$BDGSV,3,3,12,10,60,320,43,16,35,184,42,23,08,099,38,27,58,140,45*6E
$B3CN0,0,0,0,0,0,0,0,0,0,0,0,0,0,0*4C
$ini_pos,lastpos_good = 1,ini_pos.x:-1578909.649165,ini_pos.y:5312778.729339,ini_pos.z:3146362.164786
$rtc_local_time,localRTC.weeks:2052,localRTC.seconds:271347.069113,localGtime.weeks:2052,localGtime.seconds:271347.000000
i = 0
i = 1
$pseudo_cd_ph,prn:7,pseudo_cd_ph:271346921.640931
$meas,msRange:78.343925,x:12535463.696415,y:10919649.460741,z:21062327.530711,vx:-2390.314941,vy:1043.815918,vz:845.213074
i = 2
$pseudo_cd_ph,prn:8,pseudo_cd_ph:271346931.169141
$meas,msRange:68.692856,x:-5740661.049881,y:25439500.163990,z:4446815.789575,vx:-202.942215,vy:-587.583374,vz:3143.169189
i = 3
$pseudo_cd_ph,prn:9,pseudo_cd_ph:271346927.956393
$meas,msRange:72.463752,x:9402858.153626,y:19015688.570238,z:15935659.010426,vx:-421.071686,vy:2000.528076,vz:-2134.413330
i = 4
$pseudo_cd_ph,prn:16,pseudo_cd_ph:271346927.343513
$meas,msRange:72.623059,x:-12398107.267701,y:8392633.815097,z:21786996.976193,vx:-2083.352051,vy:-1872.227539,vz:-418.300690
i = 5
$pseudo_cd_ph,prn:23,pseudo_cd_ph:271346930.351406
$meas,msRange:69.466401,x:2068112.838329,y:25566151.283969,z:6340292.140683,vx:-426.320282,vy:735.164001,vz:-3022.129395
i = 6
$pseudo_cd_ph,prn:26,pseudo_cd_ph:271346920.945500
$meas,msRange:79.255231,x:-20065814.354390,y:1008419.037360,z:17438016.567185,vx:-1705.314087,vy:-1423.578613,vz:-1860.187622
i = 7
$pseudo_cd_ph,prn:27,pseudo_cd_ph:271346932.333505
$meas,msRange:67.544869,x:-11874401.338589,y:18705153.084175,z:14312713.785031,vx:20.880726,vy:-1854.264526,vz:2452.119141
i = 8
$pseudo_cd_ph,prn:31,pseudo_cd_ph:271346915.446350
$meas,msRange:84.598321,x:-25549142.167955,y:6286848.748633,z:-5082162.609243,vx:504.924103,vy:-456.008759,vz:-3059.703613
i = 9
i = 10
i = 11
i = 12
i = 13
i = 14
i = 15
i = 16
i = 17
i = 18
i = 19
i = 20
i = 21
i = 22
i = 23
i = 24
i = 25
i = 26
i = 27
i = 28
i = 29
i = 30
i = 31
Refix G07: 2, 271346.921641, -3987
Refix G08: 2, 271346.931169, -2895
Refix G09: 2, 271346.927956, -2226
Refix G16: 2, 271346.927343, 1030
Refix G23: 2, 271346.930351, -206
Refix G26: 2, 271346.920945, 1311
Refix G27: 2, 271346.932333, -530
Refix G31: 2, 271346.915446, 1479
$GNGGA,032209.000,2944.9083,N,10633.0882,E,1,21,0.6,333.1,M,,,,0000*10
$GNRMC,032209.000,A,2944.9083,N,10633.0882,E,0.17,0.00,080519,,*18
$GPGSA,A,3,07,08,09,16,23,26,27,31,,,,,0.8,0.6,0.4*3B
$BDGSA,A,3,01,02,03,04,05,06,07,09,10,16,23,27,0.8,0.6,0.4*22
$GLGSA,A,3,,,,,,,,,,,,,0.8,0.6,0.4*24
$GPGSV,3,1,10,04,00,000,39,07,25,314,45,08,63,190,45,09,43,292,45*71
$GPGSV,3,2,10,16,41,035,43,23,57,235,44,26,19,058,36,27,71,072,46*7D
$GPGSV,3,3,10,31,05,115,41,18,00,000,35*70
$BDGSV,3,1,12,01,40,125,41,02,45,218,39,03,54,172,42,04,23,109,40*64
$BDGSV,3,2,12,05,27,244,38,06,29,178,40,07,61,020,43,09,52,206,42*6D
$BDGSV,3,3,12,10,60,320,43,16,35,184,42,23,08,099,39,27,58,140,45*6F
$B3CN0,0,0,0,0,0,0,0,0,0,0,0,0,0,0*4C
$ini_pos,lastpos_good = 1,ini_pos.x:-1578909.498201,ini_pos.y:5312778.609705,ini_pos.z:3146362.018832
$rtc_local_time,localRTC.weeks:2052,localRTC.seconds:271348.069113,localGtime.weeks:2052,localGtime.seconds:271348.000000
i = 0
i = 1
$pseudo_cd_ph,prn:7,pseudo_cd_ph:271347921.643431
$meas,msRange:78.342115,x:12533073.361718,y:10920693.367297,z:21063172.526495,vx:-2390.354492,vy:1043.997314,vz:844.778503
i = 2
$pseudo_cd_ph,prn:8,pseudo_cd_ph:271347931.170949
$meas,msRange:68.691740,x:-5740863.988419,y:25438912.389204,z:4449958.910880,vx:-202.934875,vy:-587.966187,vz:3143.073486
i = 3
$pseudo_cd_ph,prn:9,pseudo_cd_ph:271347927.957776
$meas,msRange:72.463060,x:9402437.152501,y:19017688.976634,z:15933524.427043,vx:-420.930603,vy:2000.284790,vz:-2134.753418
i = 4
$pseudo_cd_ph,prn:16,pseudo_cd_ph:271347927.342828
$meas,msRange:72.624435,x:-12400190.655549,y:8390761.671358,z:21786578.440493,vx:-2083.423584,vy:-1872.060059,vz:-418.770752
i = 5
$pseudo_cd_ph,prn:23,pseudo_cd_ph:271347930.351506
$meas,msRange:69.466992,x:2067686.554805,y:25566886.270738,z:6337269.942931,vx:-426.246796,vy:734.809570,vz:-3022.266357
i = 6
$pseudo_cd_ph,prn:26,pseudo_cd_ph:271347920.944637
$meas,msRange:79.256786,x:-20067519.613214,y:1006995.575096,z:17436156.195009,vx:-1705.203613,vy:-1423.345947,vz:-1860.556763
i = 7
$pseudo_cd_ph,prn:27,pseudo_cd_ph:271347932.333810
$meas,msRange:67.545255,x:-11874380.495707,y:18703298.664754,z:14315165.748669,vx:20.805031,vy:-1854.574341,vz:2451.808350
i = 8
$pseudo_cd_ph,prn:31,pseudo_cd_ph:271347915.445381
$meas,msRange:84.599982,x:-25548637.080443,y:6286392.654670,z:-5085222.260091,vx:505.250946,vy:-456.179199,vz:-3059.598389
i = 9
i = 10
i = 11
i = 12
i = 13
i = 14
i = 15
i = 16
i = 17
i = 18
i = 19
i = 20
i = 21
i = 22
i = 23
i = 24
i = 25
i = 26
i = 27
i = 28
i = 29
i = 30
i = 31
Refix G07: 2, 271347.921643, -3986
Refix G08: 2, 271347.931171, -2893
Refix G09: 2, 271347.927958, -2224
Refix G16: 2, 271347.927343, 1031
Refix G23: 2, 271347.930352, -204
Refix G26: 2, 271347.920945, 1311
Refix G27: 2, 271347.932334, -528
Refix G31: 2, 271347.915445, 1480
$GNGGA,032210.000,2944.9084,N,10633.0882,E,1,21,0.6,333.3,M,,,,0000*1D
$GNRMC,032210.000,A,2944.9084,N,10633.0882,E,0.23,0.00,080519,,*10
$GPGSA,A,3,07,08,09,16,23,26,27,31,,,,,0.8,0.6,0.4*3B
$BDGSA,A,3,01,02,03,04,05,06,07,09,10,16,23,27,0.8,0.6,0.4*22
$GLGSA,A,3,,,,,,,,,,,,,0.8,0.6,0.4*24
$GPGSV,3,1,10,04,00,000,39,07,25,314,44,08,63,190,46,09,43,292,45*73
$GPGSV,3,2,10,16,41,035,42,23,57,235,45,26,19,058,35,27,71,072,46*7E
$GPGSV,3,3,10,31,05,115,42,18,00,000,35*73
$BDGSV,3,1,12,01,40,125,42,02,45,218,39,03,54,172,43,04,23,109,39*68
$BDGSV,3,2,12,05,27,244,37,06,29,178,40,07,61,020,43,09,52,206,42*62
$BDGSV,3,3,12,10,60,320,43,16,35,184,41,23,08,099,39,27,58,140,45*6C
$B3CN0,0,0,19,0,0,0,0,0,0,0,0,0,0,0*74
$ini_pos,lastpos_good = 1,ini_pos.x:-1578909.471182,ini_pos.y:5312778.778506,ini_pos.z:3146362.150031
$rtc_local_time,localRTC.weeks:2052,localRTC.seconds:271349.069113,localGtime.weeks:2052,localGtime.seconds:271349.000000
i = 0
i = 1
$pseudo_cd_ph,prn:7,pseudo_cd_ph:271348921.645932
$meas,msRange:78.340305,x:12530682.987391,y:10921737.455264,z:21064017.087704,vx:-2390.394287,vy:1044.178711,vz:844.343933
i = 2
$pseudo_cd_ph,prn:8,pseudo_cd_ph:271348931.172755
$meas,msRange:68.690623,x:-5741066.919643,y:25438324.231615,z:4453101.936365,vx:-202.927597,vy:-588.348999,vz:3142.977539
i = 3
$pseudo_cd_ph,prn:9,pseudo_cd_ph:271348927.959158
$meas,msRange:72.462367,x:9402016.292454,y:19019689.139714,z:15931389.503580,vx:-420.789520,vy:2000.041504,vz:-2135.093506
i = 4
$pseudo_cd_ph,prn:16,pseudo_cd_ph:271348927.342141
$meas,msRange:72.625810,x:-12402274.114871,y:8388889.695085,z:21786159.434728,vx:-2083.495117,vy:-1871.892578,vz:-419.240814
i = 5
$pseudo_cd_ph,prn:23,pseudo_cd_ph:271348930.351605
$meas,msRange:69.467581,x:2067260.344752,y:25567620.903080,z:6334247.608195,vx:-426.173340,vy:734.455139,vz:-3022.403320
i = 6
$pseudo_cd_ph,prn:26,pseudo_cd_ph:271348920.943777
$meas,msRange:79.258339,x:-20069224.761547,y:1005572.345564,z:17434295.453675,vx:-1705.093140,vy:-1423.113159,vz:-1860.925903
i = 7
$pseudo_cd_ph,prn:27,pseudo_cd_ph:271348932.334114
$meas,msRange:67.545639,x:-11874359.728543,y:18701443.935527,z:14317617.401330,vx:20.729292,vy:-1854.884155,vz:2451.497314
i = 8
$pseudo_cd_ph,prn:31,pseudo_cd_ph:271348915.444409
$meas,msRange:84.601644,x:-25548131.666083,y:6285936.390228,z:-5088281.805575,vx:505.577789,vy:-456.349701,vz:-3059.492920
i = 9
i = 10
i = 11
i = 12
i = 13
i = 14
i = 15
i = 16
i = 17
i = 18
i = 19
i = 20
i = 21
i = 22
i = 23
i = 24
i = 25
i = 26
i = 27
i = 28
i = 29
i = 30
i = 31
Refix G07: 2, 271348.921646, -3986
Refix G08: 2, 271348.931173, -2892
Refix G09: 2, 271348.927959, -2224
Refix G16: 2, 271348.927342, 1031
Refix G23: 2, 271348.930352, -203
Refix G26: 2, 271348.920944, 1312
Refix G27: 2, 271348.932334, -527
Refix G31: 2, 271348.915444, 1481
$GNGGA,032211.000,2944.9085,N,10633.0881,E,1,21,0.6,333.5,M,,,,0000*18
$GNRMC,032211.000,A,2944.9085,N,10633.0881,E,0.09,0.00,080519,,*1B
$GPGSA,A,3,07,08,09,16,23,26,27,31,,,,,0.8,0.6,0.4*3B
$BDGSA,A,3,01,02,03,04,05,06,07,09,10,16,23,27,0.8,0.6,0.4*22
$GLGSA,A,3,,,,,,,,,,,,,0.8,0.6,0.4*24
$GPGSV,3,1,10,04,00,000,39,07,25,314,44,08,63,190,45,09,43,292,45*70
$GPGSV,3,2,10,16,41,035,43,23,57,235,45,26,19,058,36,27,71,072,46*7C
$GPGSV,3,3,10,31,05,115,41,18,00,000,36*73
$BDGSV,3,1,12,01,40,125,41,02,45,218,39,03,54,172,45,04,23,109,40*63
$BDGSV,3,2,12,05,27,244,37,06,29,178,40,07,61,020,43,09,52,206,42*62
$BDGSV,3,3,12,10,60,320,43,16,35,184,42,23,08,099,38,27,58,140,45*6E
$B3CN0,0,0,18,0,0,0,0,0,0,0,0,0,0,0*75
$ini_pos,lastpos_good = 1,ini_pos.x:-1578909.438365,ini_pos.y:5312778.902317,ini_pos.z:3146362.452606
$rtc_local_time,localRTC.weeks:2052,localRTC.seconds:271350.069113,localGtime.weeks:2052,localGtime.seconds:271350.000000
i = 0
i = 1
$pseudo_cd_ph,prn:7,pseudo_cd_ph:271349921.648430
$meas,msRange:78.338494,x:12528292.573495,y:10922781.724631,z:21064861.214320,vx:-2390.433838,vy:1044.360107,vz:843.909363
i = 2
$pseudo_cd_ph,prn:8,pseudo_cd_ph:271349931.174559
$meas,msRange:68.689507,x:-5741269.843606,y:25437735.691232,z:4456244.865965,vx:-202.920349,vy:-588.731812,vz:3142.881836
i = 3
$pseudo_cd_ph,prn:9,pseudo_cd_ph:271349927.960538
$meas,msRange:72.461675,x:9401595.573454,y:19021689.059425,z:15929254.240081,vx:-420.648499,vy:1999.798096,vz:-2135.433594
i = 4
$pseudo_cd_ph,prn:16,pseudo_cd_ph:271349927.341453
$meas,msRange:72.627185,x:-12404357.645610,y:8387017.886320,z:21785739.958909,vx:-2083.566406,vy:-1871.725098,vz:-419.710846
i = 5
$pseudo_cd_ph,prn:23,pseudo_cd_ph:271349930.351702
$meas,msRange:69.468172,x:2066834.208126,y:25568355.180968,z:6331225.136539,vx:-426.099945,vy:734.100647,vz:-3022.540283
i = 6
$pseudo_cd_ph,prn:26,pseudo_cd_ph:271349920.942908
$meas,msRange:79.259893,x:-20070929.799327,y:1004149.348771,z:17432434.343222,vx:-1704.982544,vy:-1422.880493,vz:-1861.295044
i = 7
$pseudo_cd_ph,prn:27,pseudo_cd_ph:271349932.334414
$meas,msRange:67.546024,x:-11874339.037140,y:18699588.896537,z:14320068.742962,vx:20.653507,vy:-1855.193970,vz:2451.186279
i = 8
$pseudo_cd_ph,prn:31,pseudo_cd_ph:271349915.443437
$meas,msRange:84.603305,x:-25547625.924905,y:6285479.955265,z:-5091341.245632,vx:505.904602,vy:-456.520264,vz:-3059.387451
i = 9
i = 10
i = 11
i = 12
i = 13
i = 14
i = 15
i = 16
i = 17
i = 18
i = 19
i = 20
i = 21
i = 22
i = 23
i = 24
i = 25
i = 26
i = 27
i = 28
i = 29
i = 30
i = 31
i = 32
Refix G07: 2, 271349.921648, -3981
Refix G08: 2, 271349.931175, -2885
Refix G09: 2, 271349.927961, -2218
Refix G16: 2, 271349.927341, 1037
Refix G23: 2, 271349.930352, -197
Refix G26: 2, 271349.920943, 1317
Refix G27: 2, 271349.932334, -520
Refix G31: 2, 271349.915443, 1486
$GNGGA,032212.000,2944.9086,N,10633.0881,E,1,21,0.6,333.5,M,,,,0000*18
$GNRMC,032212.000,A,2944.9086,N,10633.0881,E,0.25,0.00,080519,,*15
$GPGSA,A,3,07,08,09,16,23,26,27,31,,,,,0.8,0.6,0.4*3B
$BDGSA,A,3,01,02,03,04,05,06,07,09,10,16,23,27,0.8,0.6,0.4*22
$GLGSA,A,3,,,,,,,,,,,,,0.8,0.6,0.4*24
$GPGSV,3,1,10,04,00,000,37,07,25,314,44,08,63,190,45,09,43,292,45*7E
$GPGSV,3,2,10,16,41,035,43,23,57,235,45,26,19,058,36,27,71,072,45*7F
$GPGSV,3,3,10,31,05,115,42,18,00,000,36*70
$BDGSV,3,1,12,01,40,125,41,02,45,218,39,03,54,172,42,04,23,109,39*6A
$BDGSV,3,2,12,05,27,244,37,06,29,178,40,07,61,020,43,09,52,206,42*62
$BDGSV,3,3,12,10,60,320,43,16,35,184,41,23,08,099,39,27,58,140,45*6C
$B3CN0,0,18,0,0,0,0,0,0,0,0,0,0,0,0*75
$ini_pos,lastpos_good = 1,ini_pos.x:-1578909.272456,ini_pos.y:5312778.810537,ini_pos.z:3146362.599436
$rtc_local_time,localRTC.weeks:2052,localRTC.seconds:271351.069113,localGtime.weeks:2052,localGtime.seconds:271351.000000
i = 0
i = 1
$pseudo_cd_ph,prn:7,pseudo_cd_ph:271350921.650928
$meas,msRange:78.336684,x:12525902.120092,y:10923826.175389,z:21065704.906323,vx:-2390.473145,vy:1044.541504,vz:843.474731
i = 2
$pseudo_cd_ph,prn:8,pseudo_cd_ph:271350931.176361
$meas,msRange:68.688392,x:-5741472.760360,y:25437146.768063,z:4459387.699610,vx:-202.913177,vy:-589.114563,vz:3142.785645
i = 3
$pseudo_cd_ph,prn:9,pseudo_cd_ph:271350927.961918
$meas,msRange:72.460984,x:9401174.995473,y:19023688.735716,z:15927118.636594,vx:-420.507507,vy:1999.554565,vz:-2135.773438
i = 4
$pseudo_cd_ph,prn:16,pseudo_cd_ph:271350927.340763
$meas,msRange:72.628560,x:-12406441.247709,y:8385146.245105,z:21785320.013047,vx:-2083.637939,vy:-1871.557495,vz:-420.180908
i = 5
$pseudo_cd_ph,prn:23,pseudo_cd_ph:271350930.351798
$meas,msRange:69.468763,x:2066408.144882,y:25569089.104376,z:6328202.528028,vx:-426.026581,vy:733.746155,vz:-3022.677002
i = 6
$pseudo_cd_ph,prn:26,pseudo_cd_ph:271350920.942038
$meas,msRange:79.261447,x:-20072634.726494,y:1002726.584723,z:17430572.863692,vx:-1704.871948,vy:-1422.647705,vz:-1861.664062
i = 7
$pseudo_cd_ph,prn:27,pseudo_cd_ph:271350932.334714
$meas,msRange:67.546410,x:-11874318.421546,y:18697733.547826,z:14322519.773512,vx:20.577675,vy:-1855.503662,vz:2450.875000
i = 8
$pseudo_cd_ph,prn:31,pseudo_cd_ph:271350915.442463
$meas,msRange:84.604967,x:-25547119.856944,y:6285023.349741,z:-5094400.580199,vx:506.231354,vy:-456.690826,vz:-3059.281982
i = 9
i = 10
i = 11
i = 12
i = 13
i = 14
i = 15
i = 16
i = 17
i = 18
i = 19
i = 20
i = 21
i = 22
i = 23
i = 24
i = 25
i = 26
i = 27
i = 28
i = 29
i = 30
i = 31
i = 32
i = 33
Refix G07: 2, 271350.921651, -3981
Refix G08: 2, 271350.931176, -2886
Refix G09: 2, 271350.927962, -2218
Refix G16: 2, 271350.927341, 1037
Refix G23: 2, 271350.930352, -198
Refix G26: 2, 271350.920942, 1317
Refix G27: 2, 271350.932335, -521
Refix G31: 2, 271350.915443, 1486
$GNGGA,032213.000,2944.9086,N,10633.0880,E,1,21,0.6,333.3,M,,,,0000*1E
$GNRMC,032213.000,A,2944.9086,N,10633.0880,E,0.16,0.00,080519,,*15
$GPGSA,A,3,07,08,09,16,23,26,27,31,,,,,0.8,0.6,0.4*3B
$BDGSA,A,3,01,02,03,04,05,06,07,09,10,16,23,27,0.8,0.6,0.4*22
$GLGSA,A,3,,,,,,,,,,,,,0.8,0.6,0.4*24
$GPGSV,3,1,10,04,00,000,39,07,25,314,44,08,63,190,45,09,43,292,45*70
$GPGSV,3,2,10,16,41,035,42,23,57,235,44,26,19,058,36,27,71,072,45*7F
$GPGSV,3,3,10,31,05,115,41,18,00,000,35*70
$BDGSV,3,1,12,01,40,125,41,02,45,218,39,03,54,172,43,04,23,109,39*6B
$BDGSV,3,2,12,05,27,244,38,06,29,178,39,07,61,020,43,09,52,206,42*63
$BDGSV,3,3,12,10,60,320,43,16,35,184,41,23,08,099,39,27,58,140,44*6D
$B3CN0,0,23,0,0,0,0,0,0,0,0,0,0,0,0*7D
$ini_pos,lastpos_good = 1,ini_pos.x:-1578909.189481,ini_pos.y:5312778.619965,ini_pos.z:3146362.545887
$rtc_local_time,localRTC.weeks:2052,localRTC.seconds:271352.069113,localGtime.weeks:2052,localGtime.seconds:271352.000000
i = 0
i = 1
$pseudo_cd_ph,prn:7,pseudo_cd_ph:271351921.653426
$meas,msRange:78.334874,x:12523511.627246,y:10924870.807525,z:21066548.163695,vx:-2390.512695,vy:1044.722900,vz:843.040100
i = 2
$pseudo_cd_ph,prn:8,pseudo_cd_ph:271351931.178163
$meas,msRange:68.687278,x:-5741675.669959,y:25436557.462118,z:4462530.437233,vx:-202.906052,vy:-589.497375,vz:3142.689697
i = 3
$pseudo_cd_ph,prn:9,pseudo_cd_ph:271351927.963298
$meas,msRange:72.460294,x:9400754.558483,y:19025688.168532,z:15924982.693163,vx:-420.366516,vy:1999.311157,vz:-2136.113525
i = 4
$pseudo_cd_ph,prn:16,pseudo_cd_ph:271351927.340074
$meas,msRange:72.629936,x:-12408524.921111,y:8383274.771482,z:21784899.597154,vx:-2083.708984,vy:-1871.389893,vz:-420.650909
i = 5
$pseudo_cd_ph,prn:23,pseudo_cd_ph:271351930.351894
$meas,msRange:69.469355,x:2065982.154974,y:25569822.673279,z:6325179.782727,vx:-425.953278,vy:733.391663,vz:-3022.813721
i = 6
$pseudo_cd_ph,prn:26,pseudo_cd_ph:271351920.941172
$meas,msRange:79.263001,x:-20074339.542988,y:1001304.053426,z:17428711.015124,vx:-1704.761230,vy:-1422.414917,vz:-1862.033081
i = 7
$pseudo_cd_ph,prn:27,pseudo_cd_ph:271351932.335014
$meas,msRange:67.546797,x:-11874297.881805,y:18695877.889435,z:14324970.492927,vx:20.501799,vy:-1855.813232,vz:2450.563965
i = 8
$pseudo_cd_ph,prn:31,pseudo_cd_ph:271351915.441490
$meas,msRange:84.606629,x:-25546613.462230,y:6284566.573615,z:-5097459.809212,vx:506.558105,vy:-456.861450,vz:-3059.176270
i = 9
i = 10
i = 11
i = 12
i = 13
i = 14
i = 15
i = 16
i = 17
i = 18
i = 19
i = 20
i = 21
i = 22
i = 23
i = 24
i = 25
i = 26
i = 27
i = 28
i = 29
i = 30
i = 31
i = 32
Refix G07: 2, 271351.921653, -3984
Refix G08: 2, 271351.931178, -2890
Refix G09: 2, 271351.927963, -2221
Refix G16: 2, 271351.927340, 1033
Refix G23: 2, 271351.930352, -201
Refix G26: 2, 271351.920941, 1313
Refix G27: 2, 271351.932335, -524
Refix G31: 2, 271351.915442, 1482
$GNGGA,032214.000,2944.9086,N,10633.0880,E,1,21,0.6,333.1,M,,,,0000*1B
$GNRMC,032214.000,A,2944.9086,N,10633.0880,E,0.23,0.00,080519,,*14
$GPGSA,A,3,07,08,09,16,23,26,27,31,,,,,0.8,0.6,0.4*3B
$BDGSA,A,3,01,02,03,04,05,06,07,09,10,16,23,27,0.8,0.6,0.4*22
$GLGSA,A,3,,,,,,,,,,,,,0.8,0.6,0.4*24
$GPGSV,3,1,10,04,00,000,39,07,25,314,44,08,63,190,45,09,43,292,45*70
$GPGSV,3,2,10,16,41,035,43,23,57,235,44,26,19,058,37,27,71,072,45*7F
$GPGSV,3,3,10,31,05,115,41,18,00,000,36*73
$BDGSV,3,1,12,01,40,125,41,02,45,218,40,03,54,172,43,04,23,109,40*6B
$BDGSV,3,2,12,05,27,244,39,06,29,178,40,07,61,020,42,09,52,206,42*6D
$BDGSV,3,3,12,10,60,320,42,16,35,184,42,23,08,099,39,27,58,140,45*6E
$B3CN0,0,0,0,0,0,0,0,0,0,0,0,0,0,0*4C
$ini_pos,lastpos_good = 1,ini_pos.x:-1578909.110266,ini_pos.y:5312778.475322,ini_pos.z:3146362.466927
$rtc_local_time,localRTC.weeks:2052,localRTC.seconds:271353.069113,localGtime.weeks:2052,localGtime.seconds:271353.000000
i = 0
i = 1
$pseudo_cd_ph,prn:7,pseudo_cd_ph:271352921.655924
$meas,msRange:78.333065,x:12521121.095018,y:10925915.621028,z:21067390.986418,vx:-2390.552002,vy:1044.904175,vz:842.605408
i = 2
$pseudo_cd_ph,prn:8,pseudo_cd_ph:271352931.179965
$meas,msRange:68.686164,x:-5741878.572454,y:25435967.773405,z:4465673.078767,vx:-202.898972,vy:-589.880127,vz:3142.593506
i = 3
$pseudo_cd_ph,prn:9,pseudo_cd_ph:271352927.964678
$meas,msRange:72.459604,x:9400334.262455,y:19027687.357823,z:15922846.409834,vx:-420.225555,vy:1999.067627,vz:-2136.453369
i = 4
$pseudo_cd_ph,prn:16,pseudo_cd_ph:271352927.339386
$meas,msRange:72.631312,x:-12410608.665758,y:8381403.465492,z:21784478.711240,vx:-2083.780273,vy:-1871.222168,vz:-421.120941
i = 5
$pseudo_cd_ph,prn:23,pseudo_cd_ph:271352930.351990
$meas,msRange:69.469947,x:2065556.238358,y:25570555.887652,z:6322156.900700,vx:-425.880005,vy:733.037109,vz:-3022.950439
i = 6
$pseudo_cd_ph,prn:26,pseudo_cd_ph:271352920.940312
$meas,msRange:79.264555,x:-20076044.248748,y:999881.754888,z:17426848.797558,vx:-1704.650391,vy:-1422.182251,vz:-1862.402100
i = 7
$pseudo_cd_ph,prn:27,pseudo_cd_ph:271352932.335318
$meas,msRange:67.547184,x:-11874277.417965,y:18694021.921406,z:14327420.901154,vx:20.425877,vy:-1856.122925,vz:2450.252686
i = 8
$pseudo_cd_ph,prn:31,pseudo_cd_ph:271352915.440515
$meas,msRange:84.608291,x:-25546106.740796,y:6284109.626846,z:-5100518.932608,vx:506.884796,vy:-457.032104,vz:-3059.070557
i = 9
i = 10
i = 11
i = 12
i = 13
i = 14
i = 15
i = 16
i = 17
i = 18
i = 19
i = 20
i = 21
i = 22
i = 23
i = 24
i = 25
i = 26
i = 27
i = 28
i = 29
i = 30
i = 31
i = 32
Refix G07: 2, 271352.921656, -3982
Refix G08: 2, 271352.931180, -2885
Refix G09: 2, 271352.927965, -2217
Refix G16: 2, 271352.927339, 1036
Refix G23: 2, 271352.930352, -197
Refix G26: 2, 271352.920940, 1316
Refix G27: 2, 271352.932335, -520
Refix G31: 2, 271352.915441, 1485
$GNGGA,032215.000,2944.9088,N,10633.0878,E,1,21,0.6,333.3,M,,,,0000*11
$GNRMC,032215.000,A,2944.9088,N,10633.0878,E,0.12,0.00,080519,,*1E
$GPGSA,A,3,07,08,09,16,23,26,27,31,,,,,0.8,0.6,0.4*3B
$BDGSA,A,3,01,02,03,04,05,06,07,09,10,16,23,27,0.8,0.6,0.4*22
$GLGSA,A,3,,,,,,,,,,,,,0.8,0.6,0.4*24
$GPGSV,3,1,10,04,00,000,39,07,25,314,44,08,63,190,45,09,43,292,45*70
$GPGSV,3,2,10,16,41,035,43,23,57,235,44,26,19,058,37,27,71,072,46*7C
$GPGSV,3,3,10,31,05,115,42,18,00,000,37*71
$BDGSV,3,1,12,01,40,125,42,02,45,218,39,03,54,172,43,04,23,109,40*66
$BDGSV,3,2,12,05,27,244,38,06,29,178,40,07,61,020,43,09,52,206,41*6E
$BDGSV,3,3,12,10,60,320,43,16,35,184,42,23,08,099,39,27,58,140,44*6E
$B3CN0,0,0,0,0,0,0,0,0,0,0,0,0,0,0*4C
$ini_pos,lastpos_good = 1,ini_pos.x:-1578908.849160,ini_pos.y:5312778.628141,ini_pos.z:3146362.820337
$rtc_local_time,localRTC.weeks:2052,localRTC.seconds:271354.069113,localGtime.weeks:2052,localGtime.seconds:271354.000000
i = 0
i = 1
$pseudo_cd_ph,prn:7,pseudo_cd_ph:271353921.658422
$meas,msRange:78.331253,x:12518730.523469,y:10926960.615889,z:21068233.374472,vx:-2390.591309,vy:1045.085571,vz:842.170715
i = 2
$pseudo_cd_ph,prn:8,pseudo_cd_ph:271353931.181768
$meas,msRange:68.685049,x:-5742081.467899,y:25435377.701933,z:4468815.624144,vx:-202.891937,vy:-590.262878,vz:3142.497314
i = 3
$pseudo_cd_ph,prn:9,pseudo_cd_ph:271353927.966057
$meas,msRange:72.458913,x:9399914.107359,y:19029686.303536,z:15920709.786653,vx:-420.084656,vy:1998.823975,vz:-2136.793213
i = 4
$pseudo_cd_ph,prn:16,pseudo_cd_ph:271353927.338696
$meas,msRange:72.632687,x:-12412692.481593,y:8379532.327176,z:21784057.355317,vx:-2083.851562,vy:-1871.054565,vz:-421.590942
i = 5
$pseudo_cd_ph,prn:23,pseudo_cd_ph:271353930.352086
$meas,msRange:69.470539,x:2065130.394989,y:25571288.747468,z:6319133.882011,vx:-425.806763,vy:732.682556,vz:-3023.087158
i = 6
$pseudo_cd_ph,prn:26,pseudo_cd_ph:271353920.939448
$meas,msRange:79.266108,x:-20077748.843715,y:998459.689114,z:17424986.211034,vx:-1704.539551,vy:-1421.949463,vz:-1862.770996
i = 7
$pseudo_cd_ph,prn:27,pseudo_cd_ph:271353932.335619
$meas,msRange:67.547571,x:-11874257.030069,y:18692165.643781,z:14329870.998141,vx:20.349909,vy:-1856.432495,vz:2449.941406
i = 8
$pseudo_cd_ph,prn:31,pseudo_cd_ph:271353915.439542
$meas,msRange:84.609954,x:-25545599.692674,y:6283652.509394,z:-5103577.950323,vx:507.211487,vy:-457.202820,vz:-3058.964844
i = 9
i = 10
i = 11
i = 12
i = 13
i = 14
i = 15
i = 16
i = 17
i = 18
i = 19
i = 20
i = 21
i = 22
i = 23
i = 24
i = 25
i = 26
i = 27
i = 28
i = 29
i = 30
i = 31
i = 32
i = 33
Refix G07: 2, 271353.921658, -3987
Refix G08: 2, 271353.931182, -2890
Refix G09: 2, 271353.927966, -2222
Refix G16: 2, 271353.927339, 1031
Refix G23: 2, 271353.930352, -202
Refix G26: 2, 271353.920939, 1311
Refix G27: 2, 271353.932336, -525
Refix G31: 2, 271353.915440, 1481
$GNGGA,032216.000,2944.9088,N,10633.0879,E,1,21,0.6,333.2,M,,,,0000*12
$GNRMC,032216.000,A,2944.9088,N,10633.0879,E,0.13,0.00,080519,,*1D
$GPGSA,A,3,07,08,09,16,23,26,27,31,,,,,0.8,0.6,0.4*3B
$BDGSA,A,3,01,02,03,04,05,06,07,09,10,16,23,27,0.8,0.6,0.4*22
$GLGSA,A,3,,,,,,,,,,,,,0.8,0.6,0.4*24
$GPGSV,3,1,10,04,00,000,39,07,25,314,44,08,63,190,45,09,43,292,44*71
$GPGSV,3,2,10,16,41,035,43,23,57,235,44,26,19,058,37,27,71,072,45*7F
$GPGSV,3,3,10,31,05,115,41,18,00,000,36*73
$BDGSV,3,1,12,01,40,125,41,02,45,218,41,03,54,172,43,04,23,109,40*6A
$BDGSV,3,2,12,05,27,244,38,06,29,178,40,07,61,020,42,09,52,206,41*6F
$BDGSV,3,3,12,10,60,320,43,16,35,184,42,23,08,099,39,27,58,140,44*6E
$B3CN0,0,0,22,0,0,0,0,0,0,0,0,0,0,0*7C
$ini_pos,lastpos_good = 1,ini_pos.x:-1578908.838365,ini_pos.y:5312778.456426,ini_pos.z:3146362.848615
$rtc_local_time,localRTC.weeks:2052,localRTC.seconds:271355.069113,localGtime.weeks:2052,localGtime.seconds:271354.999999
i = 0
i = 1
$pseudo_cd_ph,prn:7,pseudo_cd_ph:271354921.660925
$meas,msRange:78.329444,x:12516339.912664,y:10928005.792095,z:21069075.327838,vx:-2390.630371,vy:1045.266968,vz:841.736023
i = 2
$pseudo_cd_ph,prn:8,pseudo_cd_ph:271354931.183573
$meas,msRange:68.683936,x:-5742284.356346,y:25434787.247712,z:4471958.073297,vx:-202.884979,vy:-590.645630,vz:3142.401123
i = 3
$pseudo_cd_ph,prn:9,pseudo_cd_ph:271354927.967438
$meas,msRange:72.458224,x:9399494.093168,y:19031685.005617,z:15918572.823665,vx:-419.943756,vy:1998.580322,vz:-2137.133057
i = 4
$pseudo_cd_ph,prn:16,pseudo_cd_ph:271354927.338009
$meas,msRange:72.634063,x:-12414776.368560,y:8377661.356577,z:21783635.529395,vx:-2083.922607,vy:-1870.886841,vz:-422.060944
i = 5
$pseudo_cd_ph,prn:23,pseudo_cd_ph:271354930.352185
$meas,msRange:69.471132,x:2064704.624821,y:25572021.252703,z:6316110.726726,vx:-425.733582,vy:732.327942,vz:-3023.223633
i = 6
$pseudo_cd_ph,prn:26,pseudo_cd_ph:271354920.938587
$meas,msRange:79.267662,x:-20079453.327827,y:997037.856110,z:17423123.255591,vx:-1704.428711,vy:-1421.716675,vz:-1863.139893
i = 7
$pseudo_cd_ph,prn:27,pseudo_cd_ph:271354932.335925
$meas,msRange:67.547959,x:-11874236.718164,y:18690309.056602,z:14332320.783833,vx:20.273895,vy:-1856.741943,vz:2449.630127
i = 8
$pseudo_cd_ph,prn:31,pseudo_cd_ph:271354915.438575
$meas,msRange:84.611616,x:-25545092.317897,y:6283195.221217,z:-5106636.862294,vx:507.538116,vy:-457.373566,vz:-3058.859131
i = 9
i = 10
i = 11
i = 12
i = 13
i = 14
i = 15
i = 16
i = 17
i = 18
i = 19
i = 20
i = 21
i = 22
i = 23
i = 24
i = 25
i = 26
i = 27
i = 28
i = 29
i = 30
i = 31
i = 32
i = 33
Refix G07: 2, 271354.921661, -3990
Refix G08: 2, 271354.931184, -2893
Refix G09: 2, 271354.927967, -2224
Refix G16: 2, 271354.927338, 1028
Refix G23: 2, 271354.930352, -204
Refix G26: 2, 271354.920939, 1308
Refix G27: 2, 271354.932336, -528
Refix G31: 2, 271354.915439, 1478
$GNGGA,032217.000,2944.9088,N,10633.0879,E,1,21,0.6,333.2,M,,,,0000*13
$GNRMC,032217.000,A,2944.9088,N,10633.0879,E,0.14,0.00,080519,,*1B
$GPGSA,A,3,07,08,09,16,23,26,27,31,,,,,0.8,0.6,0.4*3B
$BDGSA,A,3,01,02,03,04,05,06,07,09,10,16,23,27,0.8,0.6,0.4*22
$GLGSA,A,3,,,,,,,,,,,,,0.8,0.6,0.4*24
$GPGSV,3,1,10,04,00,000,39,07,25,314,44,08,63,190,45,09,43,292,44*71
$GPGSV,3,2,10,16,41,035,43,23,57,235,44,26,19,058,36,27,71,072,45*7E
$GPGSV,3,3,10,31,05,115,41,18,00,000,36*73
$BDGSV,3,1,12,01,40,125,42,02,45,218,41,03,54,172,43,04,23,109,40*69
$BDGSV,3,2,12,05,27,244,37,06,29,178,40,07,61,020,43,09,52,206,42*62
$BDGSV,3,3,12,10,60,320,43,16,35,184,41,23,08,099,39,27,58,140,44*6D
$B3CN0,19,0,24,0,0,0,0,0,0,0,0,0,0,0*42
$ini_pos,lastpos_good = 1,ini_pos.x:-1578908.872412,ini_pos.y:5312778.480834,ini_pos.z:3146362.867594
$rtc_local_time,localRTC.weeks:2052,localRTC.seconds:271356.069112,localGtime.weeks:2052,localGtime.seconds:271355.999999
i = 0
i = 1
$pseudo_cd_ph,prn:7,pseudo_cd_ph:271355921.663426
$meas,msRange:78.327634,x:12513949.262663,y:10929051.149635,z:21069916.846498,vx:-2390.669678,vy:1045.448242,vz:841.301331
i = 2
$pseudo_cd_ph,prn:8,pseudo_cd_ph:271355931.185378
$meas,msRange:68.682822,x:-5742487.237847,y:25434196.410751,z:4475100.426157,vx:-202.878052,vy:-591.028320,vz:3142.304688
i = 3
$pseudo_cd_ph,prn:9,pseudo_cd_ph:271355927.968819
$meas,msRange:72.457535,x:9399074.219853,y:19033683.464015,z:15916435.520917,vx:-419.802887,vy:1998.336548,vz:-2137.472656
i = 4
$pseudo_cd_ph,prn:16,pseudo_cd_ph:271355927.337324
$meas,msRange:72.635439,x:-12416860.326601,y:8375790.553735,z:21783213.233487,vx:-2083.993652,vy:-1870.718994,vz:-422.530914
i = 5
$pseudo_cd_ph,prn:23,pseudo_cd_ph:271355930.352283
$meas,msRange:69.471725,x:2064278.927809,y:25572753.403330,z:6313087.434909,vx:-425.660461,vy:731.973328,vz:-3023.360107
i = 6
$pseudo_cd_ph,prn:26,pseudo_cd_ph:271355920.937729
$meas,msRange:79.269216,x:-20081157.701024,y:995616.255884,z:17421259.931270,vx:-1704.317749,vy:-1421.483887,vz:-1863.508789
i = 7
$pseudo_cd_ph,prn:27,pseudo_cd_ph:271355932.336230
$meas,msRange:67.548346,x:-11874216.482296,y:18688452.159911,z:14334770.258178,vx:20.197836,vy:-1857.051514,vz:2449.318848
i = 8
$pseudo_cd_ph,prn:31,pseudo_cd_ph:271355915.437610
$meas,msRange:84.613277,x:-25544584.616496,y:6282737.762275,z:-5109695.668457,vx:507.864716,vy:-457.544342,vz:-3058.753418
i = 9
i = 10
i = 11
i = 12
i = 13
i = 14
i = 15
i = 16
i = 17
i = 18
i = 19
i = 20
i = 21
i = 22
i = 23
i = 24
i = 25
i = 26
i = 27
i = 28
i = 29
i = 30
i = 31
i = 32
i = 33
Refix G07: 2, 271355.921663, -3988
Refix G08: 2, 271355.931185, -2890
Refix G09: 2, 271355.927969, -2221
Refix G16: 2, 271355.927337, 1030
Refix G23: 2, 271355.930352, -202
Refix G26: 2, 271355.920938, 1310
Refix G27: 2, 271355.932336, -524
Refix G31: 2, 271355.915438, 1480
$GNGGA,032218.000,2944.9088,N,10633.0879,E,1,21,0.6,333.3,M,,,,0000*1D
$GNRMC,032218.000,A,2944.9088,N,10633.0879,E,0.19,0.00,080519,,*19
$GPGSA,A,3,07,08,09,16,23,26,27,31,,,,,0.8,0.6,0.4*3B
$BDGSA,A,3,01,02,03,04,05,06,07,09,10,16,23,27,0.8,0.6,0.4*22
$GLGSA,A,3,,,,,,,,,,,,,0.8,0.6,0.4*24
$GPGSV,3,1,10,04,00,000,39,07,25,314,44,08,63,190,45,09,43,292,44*71
$GPGSV,3,2,10,16,41,035,43,23,57,235,44,26,19,058,36,27,71,072,45*7E
$GPGSV,3,3,10,31,05,115,41,18,00,000,37*72
$BDGSV,3,1,12,01,40,125,41,02,45,218,41,03,54,172,45,04,23,109,39*62
$BDGSV,3,2,12,05,27,244,39,06,29,178,40,07,61,020,43,09,52,206,42*6C
$BDGSV,3,3,12,10,60,320,43,16,35,184,41,23,08,099,39,27,58,140,44*6D
