SD initialized success
Create debug.log Failed! 3
bbram_blkflag = 1
rtcflag = 0
BBRAM Block OK: 01 EPHflag: 28270465 a40012cf, rtc 00
Hot-start nowtime:day = 9,minute = 3,seconds = 29.00
GPS 0 Init Dop:  1864, 2
GPS 1 Init Dop: 10000,80
GPS 2 Init Dop: -2306, 2
GPS 3 Init Dop: 10000,80
GPS 4 Init Dop: 10000,80
GPS 5 Init Dop: -4160, 2
GPS 6 Init Dop:  2750, 2
GPS 7 Init Dop: 10000,80
GPS 8 Init Dop: 10000,80
GPS 9 Init Dop: 10000,80
GPS10 Init Dop:  1960, 2
GPS11 Init Dop: 10000,80
GPS12 Init Dop: 10000,80
GPS13 Init Dop: 10000,80
GPS14 Init Dop: 10000,80
GPS15 Init Dop: 10000,80
GPS16 Init Dop: -1650, 2
GPS17 Init Dop:  2687, 2
GPS18 Init Dop: -2765, 2
GPS19 Init Dop: 10000,80
GPS20 Init Dop: 10000,80
GPS21 Init Dop:  -756, 2
GPS22 Init Dop: 10000,80
GPS23 Init Dop: 10000,80
GPS24 Init Dop: 10000,80
GPS25 Init Dop: 10000,80
GPS26 Init Dop: 10000,80
GPS27 Init Dop: -2121, 2
GPS28 Init Dop: 10000,80
GPS29 Init Dop:  1777, 2
GPS30 Init Dop: 10000,80
GPS31 Init Dop: 10000,80
BDS 0 Init Dop:  -855, 2
BDS 1 Init Dop:  -912, 2
BDS 2 Init Dop:  -874, 2
BDS 3 Init Dop:  -874, 2
BDS 4 Init Dop: 10000,80
BDS 5 Init Dop: 10000,80
BDS 6 Init Dop:  -547, 2
BDS 7 Init Dop:  -672, 2
BDS 8 Init Dop: 10000,80
BDS 9 Init Dop: -1013, 2
BDS10 Init Dop: 10000,80
BDS11 Init Dop: 10000,80
BDS12 Init Dop: -1181, 2
BDS13 Init Dop: 10000,80
BDS14 Init Dop: 10000,80
BDS15 Init Dop: 10000,80
BDS16 Init Dop: 10000,80
BDS17 Init Dop: 10000,80
BDS18 Init Dop: 10000,80
BDS19 Init Dop: 10000,80
BDS20 Init Dop: 10000,80
BDS21 Init Dop: 10000,80
BDS22 Init Dop: 10000,80
BDS23 Init Dop: 10000,80
BDS24 Init Dop: 10000,80
BDS25 Init Dop: 10000,80
BDS26 Init Dop:   774, 2
BDS27 Init Dop: 10000,80
BDS28 Init Dop: 10000,80
BDS29 Init Dop: -1386, 2
BDS30 Init Dop: 10000,80
BDS31 Init Dop: -3276, 2
Good luck!
$ini_pos,lastpos_good = 1,ini_pos.x:-1578915.000000,ini_pos.y:5312779.000000,ini_pos.z:3146363.000000
$rtc_local_time,localRTC.weeks:2052,localRTC.seconds:374628.026014,localGtime.weeks:0,localGtime.seconds:19.026010
$GNGGA,000000.000,,,,,0,00,,,M,,,,0000*2B
$GNRMC,000000.000,A,,,,,,,060180,,*29
$GPGSA,A,1,,,,,,,,,,,,,,,*1E
$BDGSA,A,1,,,,,,,,,,,,,,,*0F
$GLGSA,A,1,,,,,,,,,,,,,,,*02
$B3CN0,0,0,0,0,0,0,0,0,0,0,0,0,0,0*4C
$ini_pos,lastpos_good = 1,ini_pos.x:-1578915.000000,ini_pos.y:5312779.000000,ini_pos.z:3146363.000000
$rtc_local_time,localRTC.weeks:2052,localRTC.seconds:374629.026014,localGtime.weeks:2052,localGtime.seconds:374629.026014
i = 0
i = 1
$GNGGA,000000.000,,,,,0,00,,,M,,,,0000*2B
$GNRMC,000000.000,A,,,,,,,060180,,*29
$GPGSA,A,1,,,,,,,,,,,,,,,*1E
$BDGSA,A,1,,,,,,,,,,,,,,,*0F
$GLGSA,A,1,,,,,,,,,,,,,,,*02
$B3CN0,0,0,0,0,0,0,0,0,0,0,0,0,0,0*4C
tow update,374630527.049331
$ini_pos,lastpos_good = 1,ini_pos.x:-1578915.000000,ini_pos.y:5312779.000000,ini_pos.z:3146363.000000
$rtc_local_time,localRTC.weeks:2052,localRTC.seconds:374630.026014,localGtime.weeks:2052,localGtime.seconds:374630.527049
i = 0
$pseudo_cd_ph,prn:1,pseudo_cd_ph:9.952121
$meas,msRange:72.312946,x:-13540258.437970,y:8593369.080213,z:20926640.478268,vx:-296.099792,vy:-2687.152100,vz:935.568909,tb:-0.0000121527
i = 1
$pseudo_cd_ph,prn:3,pseudo_cd_ph:6.931295
$meas,msRange:75.533603,x:-23179653.057428,y:11854374.862390,z:4986427.806838,vx:367.199982,vy:-592.401855,vz:3100.010986,tb:0.0001881321
i = 2
$pseudo_cd_ph,prn:6,pseudo_cd_ph:4.260433
$meas,msRange:78.226389,x:6970783.666689,y:24586436.321677,z:-7120539.518817,vx:-147.899826,vy:925.851501,vz:3036.367676,tb:0.0002102785
i = 3
$pseudo_cd_ph,prn:7,pseudo_cd_ph:3.313499
$meas,msRange:78.943180,x:-7831592.963844,y:21297607.445142,z:-13147682.195153,vx:-395.296906,vy:-1707.923462,vz:-2530.060059,tb:-0.0000206470
i = 4
$pseudo_cd_ph,prn:11,pseudo_cd_ph:374630327.049331
$meas,msRange:74.617443,x:-15856061.943840,y:4207028.597979,z:20332019.789405,vx:-1294.656616,vy:-2402.924072,vz:-524.245300,tb:-0.0006104400
i = 5
i = 6
i = 7
$GNGGA,080332.527,,,,,0,00,,,M,,,,0000*21
$GNRMC,080332.527,A,,,,,,,090519,,*28
$GPGSA,A,1,,,,,,,,,,,,,,,*1E
$BDGSA,A,1,,,,,,,,,,,,,,,*0F
$GLGSA,A,1,,,,,,,,,,,,,,,*02
$GPGSV,1,1,03,01,00,000,26,03,00,000,24,06,00,000,17*4A
$B3CN0,0,0,0,0,0,0,0,0,0,0,0,0,0,0*4C
$ini_pos,lastpos_good = 1,ini_pos.x:-1578915.000000,ini_pos.y:5312779.000000,ini_pos.z:3146363.000000
$rtc_local_time,localRTC.weeks:2052,localRTC.seconds:374631.026014,localGtime.weeks:2052,localGtime.seconds:374631.527049
i = 0
$pseudo_cd_ph,prn:1,pseudo_cd_ph:9.951052
$meas,msRange:72.314694,x:-13540554.622478,y:8590681.879258,z:20927575.819561,vx:-296.269257,vy:-2687.250000,vz:935.113770,tb:-0.0000121527
i = 1
$pseudo_cd_ph,prn:3,pseudo_cd_ph:6.932871
$meas,msRange:75.532704,x:-23179285.714264,y:11853782.338444,z:4989527.764457,vx:367.486359,vy:-592.646057,vz:3099.904297,tb:0.0001881321
i = 2
$pseudo_cd_ph,prn:6,pseudo_cd_ph:4.263184
$meas,msRange:78.224314,x:6970635.778496,y:24587361.986867,z:-7117503.075106,vx:-147.876587,vy:925.478882,vz:3036.519775,tb:0.0002102785
i = 3
$pseudo_cd_ph,prn:7,pseudo_cd_ph:3.311879
$meas,msRange:78.945491,x:-7831988.319566,y:21295899.371854,z:-13150212.109755,vx:-395.414581,vy:-1708.223145,vz:-2529.769287,tb:-0.0000206470
i = 4
$pseudo_cd_ph,prn:11,pseudo_cd_ph:374631327.048211
$meas,msRange:74.619252,x:-15857356.640644,y:4204625.732469,z:20331495.316875,vx:-1294.737061,vy:-2402.806885,vz:-524.699829,tb:-0.0006104400
i = 5
$pseudo_cd_ph,prn:17,pseudo_cd_ph:9.304351
$meas,msRange:73.025023,x:7641092.639983,y:18008826.241685,z:18413194.657661,vx:-2026.393799,vy:-975.416992,vz:1827.177124,tb:0.0000518269
i = 6
$pseudo_cd_ph,prn:18,pseudo_cd_ph:3.204305
$meas,msRange:79.125250,x:-15345741.122244,y:-1727694.901671,z:21135256.971095,vx:-330.114899,vy:-2780.869629,vz:-443.297058,tb:0.0000515360
i = 7
$pseudo_cd_ph,prn:22,pseudo_cd_ph:4.710575
$meas,msRange:76.869215,x:-22751538.555374,y:6645742.246962,z:12146794.756350,vx:980.421875,vy:-1200.530518,vz:2550.099854,tb:-0.0006978098
i = 8
$pseudo_cd_ph,prn:28,pseudo_cd_ph:12.970360
$meas,msRange:70.075000,x:-5029247.346660,y:17914742.845674,z:19596892.815333,vx:-2085.153320,vy:1089.114502,vz:-1571.114746,tb:0.0007678350
i = 9
$pseudo_cd_ph,prn:30,pseudo_cd_ph:9.411761
$meas,msRange:72.764940,x:-995987.342562,y:26282427.453976,z:-2837017.000166,vx:-371.707886,vy:-350.886444,vz:-3116.608154,tb:-0.0001012585
i = 10
i = 11
i = 12
i = 13
i = 14
i = 15
$GNGGA,080333.527,,,,,0,00,,,M,,,,0000*20
$GNRMC,080333.527,A,,,,,,,090519,,*29
$GPGSA,A,1,,,,,,,,,,,,,,,*1E
$BDGSA,A,1,,,,,,,,,,,,,,,*0F
$GLGSA,A,1,,,,,,,,,,,,,,,*02
$GPGSV,2,1,08,01,00,000,43,03,00,000,41,06,00,000,43,07,00,000,35*72
$GPGSV,2,2,08,11,00,000,35,17,00,000,27,18,00,000,26,22,00,000,24*7F
$B3CN0,0,0,0,0,0,0,0,0,0,0,0,0,0,0*4C
$ini_pos,lastpos_good = 1,ini_pos.x:-1578915.000000,ini_pos.y:5312779.000000,ini_pos.z:3146363.000000
$rtc_local_time,localRTC.weeks:2052,localRTC.seconds:374632.026014,localGtime.weeks:2052,localGtime.seconds:374632.527049
i = 0
$pseudo_cd_ph,prn:1,pseudo_cd_ph:9.949987
$meas,msRange:72.316443,x:-13540850.976458,y:8587994.580389,z:20928510.705687,vx:-296.438721,vy:-2687.347900,vz:934.658569,tb:-0.0000121527
i = 1
$pseudo_cd_ph,prn:3,pseudo_cd_ph:6.934457
$meas,msRange:75.531805,x:-23178918.084734,y:11853189.570260,z:4992627.615279,vx:367.772705,vy:-592.890320,vz:3099.797607,tb:0.0001881321
i = 2
$pseudo_cd_ph,prn:6,pseudo_cd_ph:4.265939
$meas,msRange:78.222238,x:6970487.913517,y:24588287.279424,z:-7114466.479403,vx:-147.853394,vy:925.106262,vz:3036.671875,tb:0.0002102785
i = 3
$pseudo_cd_ph,prn:7,pseudo_cd_ph:3.310268
$meas,msRange:78.947802,x:-7832383.792997,y:21294190.998884,z:-13152741.733705,vx:-395.532318,vy:-1708.522827,vz:-2529.478760,tb:-0.0000206470
i = 4
$pseudo_cd_ph,prn:11,pseudo_cd_ph:374632327.047099
$meas,msRange:74.621061,x:-15858651.417776,y:4202222.984172,z:20330970.389830,vx:-1294.817383,vy:-2402.689697,vz:-525.154297,tb:-0.0006104400
i = 5
$pseudo_cd_ph,prn:17,pseudo_cd_ph:9.305505
$meas,msRange:73.024540,x:7639066.116923,y:18007850.835305,z:18415021.645409,vx:-2026.652466,vy:-975.395813,vz:1826.798584,tb:0.0000518269
i = 6
$pseudo_cd_ph,prn:18,pseudo_cd_ph:3.202713
$meas,msRange:79.127521,x:-15346071.310214,y:-1730475.732539,z:21134813.439188,vx:-330.261078,vy:-2780.792236,vz:-443.766785,tb:0.0000515360
i = 7
$pseudo_cd_ph,prn:22,pseudo_cd_ph:4.711175
$meas,msRange:76.869301,x:-22750558.041584,y:6644541.592549,z:12149344.727955,vx:980.605774,vy:-1200.778442,vz:2549.843506,tb:-0.0006978098
i = 8
$pseudo_cd_ph,prn:28,pseudo_cd_ph:12.971798
$meas,msRange:70.074218,x:-5031332.383171,y:17915831.978972,z:19595321.502771,vx:-2084.919678,vy:1089.152100,vz:-1571.510498,tb:0.0007678350
i = 9
$pseudo_cd_ph,prn:30,pseudo_cd_ph:9.410728
$meas,msRange:72.766633,x:-996359.067965,y:26282076.381546,z:-2840133.577541,vx:-371.742950,vy:-351.258423,vz:-3116.546875,tb:-0.0001012585
i = 10
i = 11
i = 12
i = 13
i = 14
i = 15
i = 16
$GNGGA,080334.527,,,,,0,00,,,M,,,,0000*27
$GNRMC,080334.527,A,,,,,,,090519,,*2E
$GPGSA,A,1,,,,,,,,,,,,,,,*1E
$BDGSA,A,1,,,,,,,,,,,,,,,*0F
$GLGSA,A,1,,,,,,,,,,,,,,,*02
$GPGSV,3,1,10,01,00,000,43,03,00,000,41,06,00,000,42,07,00,000,34*7A
$GPGSV,3,2,10,11,00,000,41,17,00,000,45,18,00,000,37,22,00,000,41*73
$GPGSV,3,3,10,28,00,000,36,30,00,000,33*74
$BDGSV,2,1,06,01,00,000,41,02,00,000,40,04,00,000,37,05,00,000,31*68
$BDGSV,2,2,06,07,00,000,23,08,00,000,23*61
$B3CN0,0,0,0,0,0,0,0,0,0,0,0,0,0,0*4C
$ini_pos,lastpos_good = 1,ini_pos.x:-1578915.000000,ini_pos.y:5312779.000000,ini_pos.z:3146363.000000
$rtc_local_time,localRTC.weeks:2052,localRTC.seconds:374633.026013,localGtime.weeks:2052,localGtime.seconds:374633.527049
i = 0
$pseudo_cd_ph,prn:1,pseudo_cd_ph:9.948929
$meas,msRange:72.318191,x:-13541147.499918,y:8585307.183674,z:20929445.136627,vx:-296.608215,vy:-2687.445801,vz:934.203369,tb:-0.0000121527
i = 1
$pseudo_cd_ph,prn:3,pseudo_cd_ph:6.936049
$meas,msRange:75.530907,x:-23178550.168878,y:11852596.557804,z:4995727.359237,vx:368.059021,vy:-593.134644,vz:3099.690674,tb:0.0001881321
i = 2
$pseudo_cd_ph,prn:6,pseudo_cd_ph:4.268704
$meas,msRange:78.220163,x:6970340.071701,y:24589212.199331,z:-7111429.731772,vx:-147.830261,vy:924.733582,vz:3036.823730,tb:0.0002102785
i = 3
$pseudo_cd_ph,prn:7,pseudo_cd_ph:3.308654
$meas,msRange:78.950113,x:-7832779.384174,y:21292482.326278,z:-13155271.066947,vx:-395.650085,vy:-1708.822510,vz:-2529.187988,tb:-0.0000206470
i = 4
$pseudo_cd_ph,prn:11,pseudo_cd_ph:374633327.045988
$meas,msRange:74.622870,x:-15859946.275194,y:4199820.353140,z:20330445.008282,vx:-1294.897583,vy:-2402.572510,vz:-525.608826,tb:-0.0006104400
i = 5
$pseudo_cd_ph,prn:17,pseudo_cd_ph:9.306668
$meas,msRange:73.024057,x:7637039.335212,y:18006875.450120,z:18416848.254581,vx:-2026.911133,vy:-975.374573,vz:1826.419922,tb:0.0000518269
i = 6
$pseudo_cd_ph,prn:18,pseudo_cd_ph:3.201131
$meas,msRange:79.129792,x:-15346401.644357,y:-1733256.485990,z:21134369.437580,vx:-330.407227,vy:-2780.714844,vz:-444.236481,tb:0.0000515360
i = 7
$pseudo_cd_ph,prn:22,pseudo_cd_ph:4.711778
$meas,msRange:76.869388,x:-22749577.343891,y:6643340.690268,z:12151894.443181,vx:980.789673,vy:-1201.026245,vz:2549.587158,tb:-0.0006978098
i = 8
$pseudo_cd_ph,prn:28,pseudo_cd_ph:12.973252
$meas,msRange:70.073436,x:-5033417.185984,y:17916921.149798,z:19593749.794405,vx:-2084.686035,vy:1089.189575,vz:-1571.906250,tb:0.0007678350
i = 9
$pseudo_cd_ph,prn:30,pseudo_cd_ph:9.409710
$meas,msRange:72.768327,x:-996730.828442,y:26281724.937151,z:-2843250.093742,vx:-371.778046,vy:-351.630371,vz:-3116.485596,tb:-0.0001012585
i = 10
i = 11
i = 12
i = 13
i = 14
i = 15
i = 16
$GNGGA,080335.527,,,,,0,00,,,M,,,,0000*26
$GNRMC,080335.527,A,,,,,,,090519,,*2F
$GPGSA,A,1,,,,,,,,,,,,,,,*1E
$BDGSA,A,1,,,,,,,,,,,,,,,*0F
$GLGSA,A,1,,,,,,,,,,,,,,,*02
$GPGSV,3,1,10,01,00,000,43,03,00,000,41,06,00,000,42,07,00,000,34*7A
$GPGSV,3,2,10,11,00,000,41,17,00,000,44,18,00,000,37,22,00,000,41*72
$GPGSV,3,3,10,28,00,000,43,30,00,000,44*76
$BDGSV,2,1,07,01,00,000,41,02,00,000,41,03,00,000,33,04,00,000,38*63
$BDGSV,2,2,07,05,00,000,33,07,00,000,43,08,00,000,43*55
$B3CN0,0,0,0,0,0,0,0,0,0,0,0,0,0,0*4C
$ini_pos,lastpos_good = 1,ini_pos.x:-1578915.000000,ini_pos.y:5312779.000000,ini_pos.z:3146363.000000
$rtc_local_time,localRTC.weeks:2052,localRTC.seconds:374634.026013,localGtime.weeks:2052,localGtime.seconds:374634.527049
i = 0
$pseudo_cd_ph,prn:1,pseudo_cd_ph:9.947873
$meas,msRange:72.319940,x:-13541444.192869,y:8582619.689183,z:20930379.112361,vx:-296.777710,vy:-2687.543457,vz:933.748169,tb:-0.0000121527
i = 1
$pseudo_cd_ph,prn:3,pseudo_cd_ph:6.937643
$meas,msRange:75.530009,x:-23178181.966739,y:11852003.301045,z:4998826.996265,vx:368.345276,vy:-593.378967,vz:3099.583740,tb:0.0001881321
i = 2
$pseudo_cd_ph,prn:6,pseudo_cd_ph:4.271472
$meas,msRange:78.218088,x:6970192.252997,y:24590136.746568,z:-7108392.832280,vx:-147.807175,vy:924.360901,vz:3036.975586,tb:0.0002102785
i = 3
$pseudo_cd_ph,prn:7,pseudo_cd_ph:3.307037
$meas,msRange:78.952424,x:-7833175.093133,y:21290773.354080,z:-13157800.109426,vx:-395.767883,vy:-1709.122070,vz:-2528.897217,tb:-0.0000206470
i = 4
$pseudo_cd_ph,prn:11,pseudo_cd_ph:374634327.044869
$meas,msRange:74.624680,x:-15861241.212859,y:4197417.839426,z:20329919.172241,vx:-1294.977783,vy:-2402.455078,vz:-526.063293,tb:-0.0006104400
i = 5
$pseudo_cd_ph,prn:17,pseudo_cd_ph:9.307836
$meas,msRange:73.023573,x:7635012.294885,y:18005900.086181,z:18418674.485141,vx:-2027.169678,vy:-975.353333,vz:1826.041260,tb:0.0000518269
i = 6
$pseudo_cd_ph,prn:18,pseudo_cd_ph:3.199545
$meas,msRange:79.132063,x:-15346732.124657,y:-1736037.161953,z:21133924.966280,vx:-330.553375,vy:-2780.637207,vz:-444.706146,tb:0.0000515360
i = 7
$pseudo_cd_ph,prn:22,pseudo_cd_ph:4.712386
$meas,msRange:76.869475,x:-22748596.462349,y:6642139.540112,z:12154443.901974,vx:980.973511,vy:-1201.274170,vz:2549.330566,tb:-0.0006978098
i = 8
$pseudo_cd_ph,prn:28,pseudo_cd_ph:12.974711
$meas,msRange:70.072654,x:-5035501.755063,y:17918010.358100,z:19592177.690267,vx:-2084.452148,vy:1089.227051,vz:-1572.302124,tb:0.0007678350
i = 9
$pseudo_cd_ph,prn:30,pseudo_cd_ph:9.408696
$meas,msRange:72.770020,x:-997102.624041,y:26281373.120804,z:-2846366.548704,vx:-371.813202,vy:-352.002319,vz:-3116.424316,tb:-0.0001012586
i = 10
i = 11
i = 12
i = 13
i = 14
i = 15
i = 16
i = 17
i = 18
$GNGGA,080336.527,,,,,0,00,,,M,,,,0000*25
$GNRMC,080336.527,A,,,,,,,090519,,*2C
$GPGSA,A,1,,,,,,,,,,,,,,,*1E
$BDGSA,A,1,,,,,,,,,,,,,,,*0F
$GLGSA,A,1,,,,,,,,,,,,,,,*02
$GPGSV,3,1,10,01,00,000,44,03,00,000,41,06,00,000,43,07,00,000,35*7D
$GPGSV,3,2,10,11,00,000,41,17,00,000,44,18,00,000,37,22,00,000,41*72
$GPGSV,3,3,10,28,00,000,43,30,00,000,44*76
$BDGSV,2,1,07,01,00,000,41,02,00,000,39,03,00,000,31,04,00,000,39*6F
$BDGSV,2,2,07,05,00,000,33,07,00,000,43,08,00,000,43*55
$B3CN0,0,0,0,0,0,0,0,0,0,0,0,0,0,0*4C
$ini_pos,lastpos_good = 1,ini_pos.x:-1578915.000000,ini_pos.y:5312779.000000,ini_pos.z:3146363.000000
$rtc_local_time,localRTC.weeks:2052,localRTC.seconds:374635.026013,localGtime.weeks:2052,localGtime.seconds:374635.527049
i = 0
$pseudo_cd_ph,prn:1,pseudo_cd_ph:374635349.946819
$meas,msRange:72.321689,x:-13541741.055321,y:8579932.096985,z:20931312.632871,vx:-296.947205,vy:-2687.641113,vz:933.292908,tb:-0.0000121527
i = 1
$pseudo_cd_ph,prn:3,pseudo_cd_ph:374635346.939236
$meas,msRange:75.529111,x:-23177813.478357,y:11851409.799950,z:5001926.526296,vx:368.631500,vy:-593.623291,vz:3099.476562,tb:0.0001881321
i = 2
$pseudo_cd_ph,prn:6,pseudo_cd_ph:374635344.274241
$meas,msRange:78.216012,x:6970044.457352,y:24591060.921119,z:-7105355.780990,vx:-147.784134,vy:923.988220,vz:3037.127197,tb:0.0002102785
i = 3
$pseudo_cd_ph,prn:7,pseudo_cd_ph:374635343.305421
$meas,msRange:78.954735,x:-7833570.919913,y:21289064.082338,z:-13160328.861086,vx:-395.885712,vy:-1709.421509,vz:-2528.606201,tb:-0.0000206470
i = 4
$pseudo_cd_ph,prn:11,pseudo_cd_ph:374635327.043754
$meas,msRange:74.626489,x:-15862536.230732,y:4195015.443082,z:20329392.881719,vx:-1295.057983,vy:-2402.337646,vz:-526.517761,tb:-0.0006104400
i = 5
$pseudo_cd_ph,prn:17,pseudo_cd_ph:374635349.309008
$meas,msRange:73.023090,x:7632984.995977,y:18004924.743544,z:18420500.337051,vx:-2027.428223,vy:-975.331970,vz:1825.662598,tb:0.0000518269
i = 6
$pseudo_cd_ph,prn:18,pseudo_cd_ph:374635343.197966
$meas,msRange:79.134334,x:-15347062.751099,y:-1738817.760362,z:21133480.025300,vx:-330.699524,vy:-2780.559814,vz:-445.175842,tb:0.0000515360
i = 7
$pseudo_cd_ph,prn:22,pseudo_cd_ph:374635344.712992
$meas,msRange:76.869562,x:-22747615.397010,y:6640938.142075,z:12156993.104281,vx:981.157227,vy:-1201.521973,vz:2549.074219,tb:-0.0006978098
i = 8
$pseudo_cd_ph,prn:28,pseudo_cd_ph:374635352.976178
$meas,msRange:70.071872,x:-5037586.090371,y:17919099.603826,z:19590605.190386,vx:-2084.218506,vy:1089.264404,vz:-1572.697754,tb:0.0007678351
i = 9
$pseudo_cd_ph,prn:30,pseudo_cd_ph:374635349.407688
$meas,msRange:72.771714,x:-997474.454809,y:26281020.932514,z:-2849482.942357,vx:-371.848389,vy:-352.374268,vz:-3116.363037,tb:-0.0001012586
i = 10
i = 11
i = 12
i = 13
i = 14
i = 15
i = 16
i = 17
i = 18
i = 19
i = 20
i = 21
$GNGGA,080337.527,,,,,0,00,,,M,,,,0000*24
$GNRMC,080337.527,A,,,,,,,090519,,*2D
$GPGSA,A,1,,,,,,,,,,,,,,,*1E
$BDGSA,A,1,,,,,,,,,,,,,,,*0F
$GLGSA,A,1,,,,,,,,,,,,,,,*02
$GPGSV,3,1,10,01,00,000,44,03,00,000,40,06,00,000,42,07,00,000,35*7D
$GPGSV,3,2,10,11,00,000,41,17,00,000,44,18,00,000,37,22,00,000,41*72
$GPGSV,3,3,10,28,00,000,44,30,00,000,44*71
$BDGSV,3,1,09,01,00,000,41,02,00,000,40,03,00,000,30,04,00,000,39*6F
$BDGSV,3,2,09,05,00,000,34,07,00,000,42,08,00,000,43,27,00,000,30*6A
$BDGSV,3,3,09,30,00,000,24*54
$B3CN0,0,0,0,0,0,0,0,0,0,0,0,0,0,0*4C
$ini_pos,lastpos_good = 1,ini_pos.x:-1578915.000000,ini_pos.y:5312779.000000,ini_pos.z:3146363.000000
$rtc_local_time,localRTC.weeks:2052,localRTC.seconds:374636.026013,localGtime.weeks:2052,localGtime.seconds:374636.527049
i = 0
$pseudo_cd_ph,prn:1,pseudo_cd_ph:374636349.945764
$meas,msRange:72.323439,x:-13542038.087285,y:8577244.407150,z:20932245.698137,vx:-297.116730,vy:-2687.738770,vz:932.837646,tb:-0.0000121528
i = 1
$pseudo_cd_ph,prn:3,pseudo_cd_ph:374636346.940825
$meas,msRange:75.528214,x:-23177444.703774,y:11850816.054487,z:5005025.949263,vx:368.917694,vy:-593.867676,vz:3099.369629,tb:0.0001881321
i = 2
$pseudo_cd_ph,prn:6,pseudo_cd_ph:374636344.277007
$meas,msRange:78.213938,x:6969896.684714,y:24591984.722966,z:-7102318.577967,vx:-147.761154,vy:923.615540,vz:3037.279053,tb:0.0002102785
i = 3
$pseudo_cd_ph,prn:7,pseudo_cd_ph:374636343.303804
$meas,msRange:78.957046,x:-7833966.864549,y:21287354.511096,z:-13162857.321870,vx:-396.003601,vy:-1709.721069,vz:-2528.315430,tb:-0.0000206471
i = 4
$pseudo_cd_ph,prn:11,pseudo_cd_ph:374636327.042648
$meas,msRange:74.628298,x:-15863831.328774,y:4192613.164161,z:20328866.136727,vx:-1295.138184,vy:-2402.220215,vz:-526.972229,tb:-0.0006104400
i = 5
$pseudo_cd_ph,prn:17,pseudo_cd_ph:374636349.310182
$meas,msRange:73.022607,x:7630957.438522,y:18003949.422261,z:18422325.810275,vx:-2027.686768,vy:-975.310608,vz:1825.283936,tb:0.0000518269
i = 6
$pseudo_cd_ph,prn:18,pseudo_cd_ph:374636343.196387
$meas,msRange:79.136605,x:-15347393.523666,y:-1741598.281148,z:21133034.614651,vx:-330.845642,vy:-2780.481934,vz:-445.645508,tb:0.0000515360
i = 7
$pseudo_cd_ph,prn:22,pseudo_cd_ph:374636344.713597
$meas,msRange:76.869649,x:-22746634.147928,y:6639736.496147,z:12159542.050050,vx:981.340942,vy:-1201.769897,vz:2548.817627,tb:-0.0006978098
i = 8
$pseudo_cd_ph,prn:28,pseudo_cd_ph:374636352.977647
$meas,msRange:70.071091,x:-5039670.191871,y:17920188.886926,z:19589032.294793,vx:-2083.984619,vy:1089.301758,vz:-1573.093506,tb:0.0007678351
i = 9
$pseudo_cd_ph,prn:30,pseudo_cd_ph:374636349.406683
$meas,msRange:72.773409,x:-997846.320796,y:26280668.372292,z:-2852599.274637,vx:-371.883636,vy:-352.746185,vz:-3116.301758,tb:-0.0001012586
i = 10
i = 11
i = 12
i = 13
i = 14
i = 15
i = 16
i = 17
i = 18
i = 19
i = 20
i = 21
i = 22
i = 23
$GNGGA,080338.527,,,,,0,00,,,M,,,,0000*2B
$GNRMC,080338.527,A,,,,,,,090519,,*22
$GPGSA,A,1,,,,,,,,,,,,,,,*1E
$BDGSA,A,1,,,,,,,,,,,,,,,*0F
$GLGSA,A,1,,,,,,,,,,,,,,,*02
$GPGSV,3,1,10,01,00,000,44,03,00,000,41,06,00,000,43,07,00,000,35*7D
$GPGSV,3,2,10,11,00,000,41,17,00,000,44,18,00,000,37,22,00,000,41*72
$GPGSV,3,3,10,28,00,000,44,30,00,000,44*71
$BDGSV,3,1,09,01,00,000,41,02,00,000,42,03,00,000,28,04,00,000,37*6A
$BDGSV,3,2,09,05,00,000,34,07,00,000,43,08,00,000,43,27,00,000,45*69
$BDGSV,3,3,09,30,00,000,46*50
$B3CN0,0,0,0,0,0,0,0,0,0,0,0,0,0,0*4C
$ini_pos,lastpos_good = 1,ini_pos.x:-1578915.000000,ini_pos.y:5312779.000000,ini_pos.z:3146363.000000
$rtc_local_time,localRTC.weeks:2052,localRTC.seconds:374637.026013,localGtime.weeks:2052,localGtime.seconds:374637.527049
i = 0
$pseudo_cd_ph,prn:1,pseudo_cd_ph:374637349.944711
$meas,msRange:72.325188,x:-13542335.288769,y:8574556.619746,z:20933178.308139,vx:-297.286255,vy:-2687.836182,vz:932.382385,tb:-0.0000121528
i = 1
$pseudo_cd_ph,prn:3,pseudo_cd_ph:374637346.942417
$meas,msRange:75.527317,x:-23177075.643032,y:11850222.064624,z:5008125.265101,vx:369.203827,vy:-594.112122,vz:3099.262451,tb:0.0001881321
i = 2
$pseudo_cd_ph,prn:6,pseudo_cd_ph:374637344.279778
$meas,msRange:78.211863,x:6969748.935032,y:24592908.152090,z:-7099281.223278,vx:-147.738220,vy:923.242798,vz:3037.430664,tb:0.0002102785
i = 3
$pseudo_cd_ph,prn:7,pseudo_cd_ph:374637343.302182
$meas,msRange:78.959357,x:-7834362.927079,y:21285644.640401,z:-13165385.491723,vx:-396.121490,vy:-1710.020508,vz:-2528.024414,tb:-0.0000206471
i = 4
$pseudo_cd_ph,prn:11,pseudo_cd_ph:374637327.041540
$meas,msRange:74.630108,x:-15865126.506944,y:4190211.002714,z:20328338.937277,vx:-1295.218262,vy:-2402.102783,vz:-527.426697,tb:-0.0006104400
i = 5
$pseudo_cd_ph,prn:17,pseudo_cd_ph:374637349.311357
$meas,msRange:73.022124,x:7628929.622554,y:18002974.122387,z:18424150.904777,vx:-2027.945312,vy:-975.289185,vz:1824.905151,tb:0.0000518269
i = 6
$pseudo_cd_ph,prn:18,pseudo_cd_ph:374637343.194810
$meas,msRange:79.138876,x:-15347724.442342,y:-1744378.724243,z:21132588.734344,vx:-330.991730,vy:-2780.404297,vz:-446.115143,tb:0.0000515360
i = 7
$pseudo_cd_ph,prn:22,pseudo_cd_ph:374637344.714201
$meas,msRange:76.869737,x:-22745652.715155,y:6638534.602322,z:12162090.739226,vx:981.524658,vy:-1202.017822,vz:2548.561035,tb:-0.0006978098
i = 8
$pseudo_cd_ph,prn:28,pseudo_cd_ph:374637352.979119
$meas,msRange:70.070310,x:-5041754.059526,y:17921278.207347,z:19587459.003518,vx:-2083.750732,vy:1089.339111,vz:-1573.489136,tb:0.0007678351
i = 9
$pseudo_cd_ph,prn:30,pseudo_cd_ph:374637349.405680
$meas,msRange:72.775103,x:-998218.222050,y:26280315.440149,z:-2855715.545474,vx:-371.918915,vy:-353.118103,vz:-3116.240234,tb:-0.0001012586
i = 10
i = 11
i = 12
i = 13
i = 14
i = 15
i = 16
i = 17
i = 18
i = 19
i = 20
i = 21
i = 22
i = 23
$GNGGA,080339.422,2944.9049,N,10633.0912,E,1,07,1.4,329.3,M,,,,0000*1F
$GNRMC,080339.422,A,2944.9049,N,10633.0912,E,0.39,0.00,090519,,*14
$GPGSA,A,3,,,,,,,,,,,,,3.2,1.4,2.8*3C
$BDGSA,A,3,01,02,04,07,08,27,30,,,,,,3.2,1.4,2.8*23
$GLGSA,A,3,,,,,,,,,,,,,3.2,1.4,2.8*20
$GPGSV,3,1,10,01,00,000,43,03,00,000,41,06,00,000,43,07,00,000,36*79
$GPGSV,3,2,10,11,00,000,40,17,00,000,44,18,00,000,38,22,00,000,41*7C
$GPGSV,3,3,10,28,00,000,44,30,00,000,44*71
$BDGSV,3,1,09,01,00,000,41,02,00,000,41,03,00,000,25,04,00,000,41*65
$BDGSV,3,2,09,05,00,000,35,07,00,000,43,08,00,000,43,27,00,000,44*69
$BDGSV,3,3,09,30,00,000,45*53
$B3CN0,0,0,0,0,0,0,0,0,0,0,0,0,0,0*4C
$ini_pos,lastpos_good = 1,ini_pos.x:-1578913.963202,ini_pos.y:5312777.117893,ini_pos.z:3146354.712593
$rtc_local_time,localRTC.weeks:2052,localRTC.seconds:374638.603731,localGtime.weeks:2052,localGtime.seconds:374639.000000
i = 0
$pseudo_cd_ph,prn:1,pseudo_cd_ph:374638927.660807
$meas,msRange:72.327791,x:-13542773.360719,y:8570597.463382,z:20934551.167662,vx:-297.535980,vy:-2687.979736,vz:931.711792,tb:-0.0000121528
i = 1
$pseudo_cd_ph,prn:3,pseudo_cd_ph:374638924.662679
$meas,msRange:75.526004,x:-23176531.513602,y:11849346.701548,z:5012690.209831,vx:369.625214,vy:-594.472168,vz:3099.104492,tb:0.0001881321
i = 2
$pseudo_cd_ph,prn:6,pseudo_cd_ph:374638922.001903
$meas,msRange:78.208799,x:6969531.348706,y:24594267.638963,z:-7094807.072934,vx:-147.704544,vy:922.693726,vz:3037.653809,tb:0.0002102784
i = 3
$pseudo_cd_ph,prn:7,pseudo_cd_ph:374638921.017380
$meas,msRange:78.962747,x:-7834946.522525,y:21283125.539574,z:-13169108.831744,vx:-396.295258,vy:-1710.461426,vz:-2527.595703,tb:-0.0000206471
i = 4
$pseudo_cd_ph,prn:11,pseudo_cd_ph:374638904.757533
$meas,msRange:74.632797,x:-15867034.386617,y:4186672.950970,z:20327561.570718,vx:-1295.336182,vy:-2401.929688,vz:-528.096069,tb:-0.0006104400
i = 5
$pseudo_cd_ph,prn:17,pseudo_cd_ph:374638927.030968
$meas,msRange:73.021435,x:7625942.278497,y:18001537.592683,z:18426838.489492,vx:-2028.325928,vy:-975.257507,vz:1824.347290,tb:0.0000518269
i = 6
$pseudo_cd_ph,prn:18,pseudo_cd_ph:374638920.910087
$meas,msRange:79.142243,x:-15348212.135364,y:-1748474.038697,z:21131931.119203,vx:-331.206909,vy:-2780.289795,vz:-446.806915,tb:0.0000515360
i = 7
$pseudo_cd_ph,prn:22,pseudo_cd_ph:374638922.432918
$meas,msRange:76.869881,x:-22744206.778453,y:6636763.820256,z:12165844.365750,vx:981.795044,vy:-1202.382935,vz:2548.182861,tb:-0.0006978098
i = 8
$pseudo_cd_ph,prn:28,pseudo_cd_ph:374638930.699202
$meas,msRange:70.069185,x:-5044823.068244,y:17922882.790679,z:19585140.902178,vx:-2083.406250,vy:1089.393921,vz:-1574.071899,tb:0.0007678351
i = 9
$pseudo_cd_ph,prn:30,pseudo_cd_ph:374638927.121856
$meas,msRange:72.777598,x:-998766.078659,y:26279794.911096,z:-2860305.547293,vx:-371.970978,vy:-353.665894,vz:-3116.149414,tb:-0.0001012586
i = 10
i = 11
i = 12
i = 13
i = 14
i = 15
i = 16
i = 17
i = 18
i = 19
i = 20
i = 21
i = 22
i = 23
Refix G01: 2, 374638.927661, 1620
Refix G03: 2, 374638.924663, -2549
Refix G06: 2, 374638.922002, -4406
Refix G07: 2, 374638.921018, 2503
Refix G11: 2, 374638.924758, 1715
Refix G17: 2, 374638.927031, -1898
Refix G18: 2, 374638.920911, 2443
Refix G19: 2, 374638.924049, -3010
Refix G22: 2, 374638.922433, -996
Refix G28: 2, 374638.930700, -2368
Refix G30: 2, 374638.927122, 1531
$GNGGA,080341.000,2944.9059,N,10633.0907,E,1,07,1.4,331.0,M,,,,0000*1B
$GNRMC,080341.000,A,2944.9059,N,10633.0907,E,0.62,0.00,090519,,*14
$GPGSA,A,3,,,,,,,,,,,,,3.2,1.4,2.8*3C
$BDGSA,A,3,01,02,04,07,08,27,30,,,,,,3.2,1.4,2.8*23
$GLGSA,A,3,,,,,,,,,,,,,3.2,1.4,2.8*20
$GPGSV,3,1,10,01,00,000,44,03,00,000,40,06,00,000,43,07,00,000,36*7F
$GPGSV,3,2,10,11,00,000,42,17,00,000,45,18,00,000,36,22,00,000,41*71
$GPGSV,3,3,10,28,00,000,43,30,00,000,44*76
$BDGSV,3,1,09,01,00,000,41,02,00,000,41,03,00,000,20,04,00,000,40*61
$BDGSV,3,2,09,05,00,000,34,07,00,000,42,08,00,000,42,27,00,000,44*68
$BDGSV,3,3,09,30,00,000,44*52
$B3CN0,0,18,0,0,0,0,0,0,0,0,0,0,0,0*75
$ini_pos,lastpos_good = 1,ini_pos.x:-1578913.449153,ini_pos.y:5312777.963890,ini_pos.z:3146357.031935
$rtc_local_time,localRTC.weeks:2052,localRTC.seconds:374639.603731,localGtime.weeks:2052,localGtime.seconds:374640.000000
i = 0
$pseudo_cd_ph,prn:1,pseudo_cd_ph:374639927.659752
$meas,msRange:72.329536,x:-13543070.981463,y:8567909.434995,z:20935482.651737,vx:-297.705536,vy:-2688.077148,vz:931.256470,tb:-0.0000121528
i = 1
$pseudo_cd_ph,prn:3,pseudo_cd_ph:374639924.664265
$meas,msRange:75.525108,x:-23176161.745379,y:11848752.107156,z:5015789.260458,vx:369.911255,vy:-594.716675,vz:3098.997070,tb:0.0001881321
i = 2
$pseudo_cd_ph,prn:6,pseudo_cd_ph:374639922.004671
$meas,msRange:78.206725,x:6969383.655569,y:24595190.146286,z:-7091769.343457,vx:-147.681747,vy:922.320984,vz:3037.805420,tb:0.0002102784
i = 3
$pseudo_cd_ph,prn:7,pseudo_cd_ph:374639921.015756
$meas,msRange:78.965062,x:-7835342.876760,y:21281414.928544,z:-13171636.281899,vx:-396.413239,vy:-1710.760742,vz:-2527.304688,tb:-0.0000206471
i = 4
$pseudo_cd_ph,prn:11,pseudo_cd_ph:374639904.756417
$meas,msRange:74.634602,x:-15868329.762771,y:4184271.080259,z:20327033.247463,vx:-1295.416138,vy:-2401.812012,vz:-528.550476,tb:-0.0006104400
i = 5
$pseudo_cd_ph,prn:17,pseudo_cd_ph:374639927.032144
$meas,msRange:73.020944,x:7623913.823388,y:18000562.345979,z:18428662.647274,vx:-2028.584351,vy:-975.235962,vz:1823.968384,tb:0.0000518269
i = 6
$pseudo_cd_ph,prn:18,pseudo_cd_ph:374639920.908516
$meas,msRange:79.144511,x:-15348543.415290,y:-1751254.289373,z:21131484.077501,vx:-331.352966,vy:-2780.211914,vz:-447.276520,tb:0.0000515360
i = 7
$pseudo_cd_ph,prn:22,pseudo_cd_ph:374639922.433525
$meas,msRange:76.869968,x:-22743224.891651,y:6635561.313362,z:12168392.420160,vx:981.978577,vy:-1202.630859,vz:2547.926025,tb:-0.0006978098
i = 8
$pseudo_cd_ph,prn:28,pseudo_cd_ph:374639930.700676
$meas,msRange:70.068397,x:-5046906.357455,y:17923972.203173,z:19583566.632533,vx:-2083.172363,vy:1089.431152,vz:-1574.467529,tb:0.0007678351
i = 9
$pseudo_cd_ph,prn:30,pseudo_cd_ph:374639927.120854
$meas,msRange:72.779292,x:-999138.067333,y:26279441.059259,z:-2863421.665900,vx:-372.006409,vy:-354.037781,vz:-3116.087891,tb:-0.0001012586
i = 10
i = 11
i = 12
i = 13
i = 14
i = 15
i = 16
i = 17
i = 18
i = 19
i = 20
i = 21
i = 22
i = 23
Refix G01: 2, 374639.927660, 1615
Refix G03: 2, 374639.924665, -2553
Refix G06: 2, 374639.922005, -4407
Refix G07: 2, 374639.921016, 2500
Refix G11: 2, 374639.924757, 1710
Refix G17: 2, 374639.927033, -1901
Refix G18: 2, 374639.920909, 2438
Refix G19: 2, 374639.924050, -3012
Refix G22: 2, 374639.922434, -1001
Refix G28: 2, 374639.930701, -2372
Refix G30: 2, 374639.927121, 1528
$GNGGA,080342.000,2944.9060,N,10633.0906,E,1,07,1.4,331.5,M,,,,0000*16
$GNRMC,080342.000,A,2944.9060,N,10633.0906,E,0.52,0.00,090519,,*1F
$GPGSA,A,3,,,,,,,,,,,,,3.2,1.4,2.8*3C
$BDGSA,A,3,01,02,04,07,08,27,30,,,,,,3.2,1.4,2.8*23
$GLGSA,A,3,,,,,,,,,,,,,3.2,1.4,2.8*20
$GPGSV,3,1,11,01,41,040,44,03,31,103,41,06,22,219,43,07,16,176,37*72
$GPGSV,3,2,11,11,29,046,41,17,46,304,45,18,15,041,36,22,27,077,41*7B
$GPGSV,3,3,11,28,68,358,44,30,40,203,45,19,29,281,00*4C
$BDGSV,3,1,12,01,40,125,41,02,47,219,41,04,23,109,39,05,00,000,36*66
$BDGSV,3,2,12,07,61,130,42,08,83,326,43,10,88,018,44,27,46,033,44*62
$BDGSV,3,3,12,30,54,296,44,03,55,171,00,13,61,234,00,32,13,139,00*68
$B3CN0,16,0,0,0,0,0,0,0,0,0,0,0,0,0*7B
$ini_pos,lastpos_good = 1,ini_pos.x:-1578913.436191,ini_pos.y:5312778.283170,ini_pos.z:3146357.449434
$rtc_local_time,localRTC.weeks:2052,localRTC.seconds:374640.603731,localGtime.weeks:2052,localGtime.seconds:374641.000000
i = 0
$pseudo_cd_ph,prn:1,pseudo_cd_ph:374640927.658697
$meas,msRange:72.331285,x:-13543368.771763,y:8565221.309280,z:20936413.680482,vx:-297.875092,vy:-2688.174561,vz:930.801086,tb:-0.0000121528
i = 1
$pseudo_cd_ph,prn:3,pseudo_cd_ph:374640924.665851
$meas,msRange:75.524211,x:-23175791.691140,y:11848157.268252,z:5018888.203725,vx:370.197235,vy:-594.961182,vz:3098.889648,tb:0.0001881321
i = 2
$pseudo_cd_ph,prn:6,pseudo_cd_ph:374640922.007437
$meas,msRange:78.204651,x:6969235.985206,y:24596112.280824,z:-7088731.462537,vx:-147.658997,vy:921.948181,vz:3037.956787,tb:0.0002102784
i = 3
$pseudo_cd_ph,prn:7,pseudo_cd_ph:374640921.014137
$meas,msRange:78.967374,x:-7835739.349018,y:21279704.018219,z:-13174163.440928,vx:-396.531281,vy:-1711.060059,vz:-2527.013428,tb:-0.0000206471
i = 4
$pseudo_cd_ph,prn:11,pseudo_cd_ph:374640904.755304
$meas,msRange:74.636411,x:-15869625.218917,y:4181869.327206,z:20326504.469788,vx:-1295.496216,vy:-2401.694336,vz:-529.004883,tb:-0.0006104400
i = 5
$pseudo_cd_ph,prn:17,pseudo_cd_ph:374640927.033319
$meas,msRange:73.020460,x:7621885.109885,y:17999587.120868,z:18430486.426208,vx:-2028.842773,vy:-975.214355,vz:1823.589600,tb:0.0000518269
i = 6
$pseudo_cd_ph,prn:18,pseudo_cd_ph:374640920.906935
$meas,msRange:79.146781,x:-15348874.841268,y:-1754034.462120,z:21131036.566178,vx:-331.499023,vy:-2780.133789,vz:-447.746155,tb:0.0000515360
i = 7
$pseudo_cd_ph,prn:22,pseudo_cd_ph:374640922.434133
$meas,msRange:76.870057,x:-22742242.821342,y:6634358.558545,z:12170940.217795,vx:982.162048,vy:-1202.878784,vz:2547.669189,tb:-0.0006978098
i = 8
$pseudo_cd_ph,prn:28,pseudo_cd_ph:374640930.702151
$meas,msRange:70.067615,x:-5048989.412693,y:17925061.652810,z:19581991.967312,vx:-2082.938232,vy:1089.468262,vz:-1574.863037,tb:0.0007678351
i = 9
$pseudo_cd_ph,prn:30,pseudo_cd_ph:374640927.119851
$meas,msRange:72.780987,x:-999510.091440,y:26279086.835538,z:-2866537.722833,vx:-372.041840,vy:-354.409668,vz:-3116.026123,tb:-0.0001012586
i = 10
i = 11
i = 12
i = 13
i = 14
i = 15
i = 16
i = 17
i = 18
i = 19
i = 20
i = 21
i = 22
i = 23
i = 24
i = 25
i = 26
Refix G01: 2, 374640.927659, 1620
Refix G03: 2, 374640.924666, -2548
Refix G06: 2, 374640.922008, -4403
Refix G07: 2, 374640.921015, 2504
Refix G11: 2, 374640.924756, 1714
Refix G17: 2, 374640.927034, -1896
Refix G18: 2, 374640.920907, 2442
Refix G19: 2, 374640.924052, -3008
Refix G22: 2, 374640.922435, -996
Refix G28: 2, 374640.930703, -2366
Refix G30: 2, 374640.927120, 1534
$GNGGA,080343.000,2944.9060,N,10633.0907,E,1,07,1.4,332.1,M,,,,0000*11
$GNRMC,080343.000,A,2944.9060,N,10633.0907,E,0.31,0.00,090519,,*1A
$GPGSA,A,3,,,,,,,,,,,,,3.2,1.4,2.8*3C
$BDGSA,A,3,01,02,04,07,08,27,30,,,,,,3.2,1.4,2.8*23
$GLGSA,A,3,,,,,,,,,,,,,3.2,1.4,2.8*20
$GPGSV,3,1,11,01,41,040,44,03,31,103,41,06,22,219,43,07,16,176,37*72
$GPGSV,3,2,11,11,29,046,42,17,46,304,45,18,15,041,36,22,27,077,40*79
$GPGSV,3,3,11,28,68,358,44,30,40,203,45,19,29,281,00*4C
$BDGSV,3,1,12,01,40,125,41,02,47,219,40,03,55,171,17,04,23,109,41*6A
$BDGSV,3,2,12,05,00,000,35,07,61,130,43,08,83,326,43,10,88,018,43*60
$BDGSV,3,3,12,27,46,033,44,30,54,296,45,13,61,234,00,32,13,139,00*6A
$B3CN0,0,0,0,0,0,0,0,0,0,0,0,0,0,0*4C
$ini_pos,lastpos_good = 1,ini_pos.x:-1578913.666965,ini_pos.y:5312778.732281,ini_pos.z:3146357.717612
$rtc_local_time,localRTC.weeks:2052,localRTC.seconds:374641.603731,localGtime.weeks:2052,localGtime.seconds:374642.000000
i = 0
$pseudo_cd_ph,prn:1,pseudo_cd_ph:374641927.657638
$meas,msRange:72.333034,x:-13543666.731628,y:8562533.086306,z:20937344.253878,vx:-298.044647,vy:-2688.271729,vz:930.345764,tb:-0.0000121528
i = 1
$pseudo_cd_ph,prn:3,pseudo_cd_ph:374641924.667436
$meas,msRange:75.523314,x:-23175421.350927,y:11847562.184803,z:5021987.039565,vx:370.483185,vy:-595.205750,vz:3098.782227,tb:0.0001881321
i = 2
$pseudo_cd_ph,prn:6,pseudo_cd_ph:374641922.010202
$meas,msRange:78.202576,x:6969088.337567,y:24597034.042559,z:-7085693.430241,vx:-147.636292,vy:921.575378,vz:3038.108154,tb:0.0002102784
i = 3
$pseudo_cd_ph,prn:7,pseudo_cd_ph:374641921.012515
$meas,msRange:78.969684,x:-7836135.939335,y:21277992.808646,z:-13176690.308777,vx:-396.649384,vy:-1711.359253,vz:-2526.722412,tb:-0.0000206471
i = 4
$pseudo_cd_ph,prn:11,pseudo_cd_ph:374641904.754187
$meas,msRange:74.638220,x:-15870920.755014,y:4179467.691863,z:20325975.237706,vx:-1295.576050,vy:-2401.576660,vz:-529.459290,tb:-0.0006104400
i = 5
$pseudo_cd_ph,prn:17,pseudo_cd_ph:374641927.034494
$meas,msRange:73.019976,x:7619856.138024,y:17998611.917404,z:18432309.826255,vx:-2029.101074,vy:-975.192627,vz:1823.210693,tb:0.0000518270
i = 6
$pseudo_cd_ph,prn:18,pseudo_cd_ph:374641920.905356
$meas,msRange:79.149052,x:-15349206.413283,y:-1756814.556871,z:21130588.585246,vx:-331.645050,vy:-2780.055908,vz:-448.215759,tb:0.0000515360
i = 7
$pseudo_cd_ph,prn:22,pseudo_cd_ph:374641922.434738
$meas,msRange:76.870145,x:-22741260.567580,y:6633155.555798,z:12173487.758600,vx:982.345520,vy:-1203.126709,vz:2547.412354,tb:-0.0006978098
i = 8
$pseudo_cd_ph,prn:28,pseudo_cd_ph:374641930.703623
$meas,msRange:70.066833,x:-5051072.233922,y:17926151.139537,z:19580416.906546,vx:-2082.704346,vy:1089.505249,vz:-1575.258545,tb:0.0007678351
i = 9
$pseudo_cd_ph,prn:30,pseudo_cd_ph:374641927.118848
$meas,msRange:72.782681,x:-999882.151029,y:26278732.239945,z:-2869653.718023,vx:-372.077362,vy:-354.781525,vz:-3115.964355,tb:-0.0001012586
i = 10
i = 11
i = 12
i = 13
i = 14
i = 15
i = 16
i = 17
i = 18
i = 19
i = 20
i = 21
i = 22
i = 23
Refix G01: 2, 374641.927658, 1622
Refix G03: 2, 374641.924668, -2546
Refix G06: 2, 374641.922011, -4402
Refix G07: 2, 374641.921013, 2505
Refix G11: 2, 374641.924755, 1715
Refix G17: 2, 374641.927035, -1896
Refix G18: 2, 374641.920906, 2443
Refix G19: 2, 374641.924054, -3008
Refix G22: 2, 374641.922435, -994
Refix G28: 2, 374641.930704, -2365
Refix G30: 2, 374641.927119, 1535
$GNGGA,080344.000,2944.9060,N,10633.0907,E,1,07,1.4,332.5,M,,,,0000*12
$GNRMC,080344.000,A,2944.9060,N,10633.0907,E,0.02,0.00,090519,,*1D
$GPGSA,A,3,,,,,,,,,,,,,3.2,1.4,2.8*3C
$BDGSA,A,3,01,02,04,07,08,27,30,,,,,,3.2,1.4,2.8*23
$GLGSA,A,3,,,,,,,,,,,,,3.2,1.4,2.8*20
$GPGSV,3,1,11,01,41,040,44,03,31,103,42,06,22,219,43,07,16,176,36*70
$GPGSV,3,2,11,11,29,046,41,17,46,304,45,18,15,041,36,22,27,077,40*7A
$GPGSV,3,3,11,28,68,358,44,30,40,203,45,19,29,281,00*4C
$BDGSV,3,1,12,01,40,125,41,02,47,219,40,04,23,109,40,05,00,000,37*68
$BDGSV,3,2,12,07,61,130,43,08,83,326,43,10,88,018,43,27,46,033,44*64
$BDGSV,3,3,12,30,54,296,44,03,55,171,00,13,61,234,00,32,13,139,00*68
$B3CN0,17,36,0,0,0,0,0,0,0,0,0,0,0,0*4F
$ini_pos,lastpos_good = 1,ini_pos.x:-1578913.731620,ini_pos.y:5312779.056853,ini_pos.z:3146358.003421
$rtc_local_time,localRTC.weeks:2052,localRTC.seconds:374642.603731,localGtime.weeks:2052,localGtime.seconds:374643.000000
i = 0
$pseudo_cd_ph,prn:1,pseudo_cd_ph:374642927.656579
$meas,msRange:72.334784,x:-13543964.861068,y:8559844.766144,z:20938274.371904,vx:-298.214233,vy:-2688.368896,vz:929.890381,tb:-0.0000121528
i = 1
$pseudo_cd_ph,prn:3,pseudo_cd_ph:374642924.669019
$meas,msRange:75.522418,x:-23175050.724781,y:11846966.856778,z:5025085.767912,vx:370.769104,vy:-595.450317,vz:3098.674561,tb:0.0001881321
i = 2
$pseudo_cd_ph,prn:6,pseudo_cd_ph:374642922.012966
$meas,msRange:78.200502,x:6968940.712599,y:24597955.431475,z:-7082655.246633,vx:-147.613647,vy:921.202515,vz:3038.259277,tb:0.0002102784
i = 3
$pseudo_cd_ph,prn:7,pseudo_cd_ph:374642921.010894
$meas,msRange:78.971995,x:-7836532.647749,y:21276281.299872,z:-13179216.885388,vx:-396.767487,vy:-1711.658447,vz:-2526.431152,tb:-0.0000206471
i = 4
$pseudo_cd_ph,prn:11,pseudo_cd_ph:374642904.753064
$meas,msRange:74.640029,x:-15872216.371023,y:4177066.174282,z:20325445.551227,vx:-1295.656006,vy:-2401.458740,vz:-529.913696,tb:-0.0006104399
i = 5
$pseudo_cd_ph,prn:17,pseudo_cd_ph:374642927.035667
$meas,msRange:73.019492,x:7617826.907838,y:17997636.735641,z:18434132.847380,vx:-2029.359375,vy:-975.170898,vz:1822.831665,tb:0.0000518270
i = 6
$pseudo_cd_ph,prn:18,pseudo_cd_ph:374642920.903769
$meas,msRange:79.151324,x:-15349538.131318,y:-1759594.573558,z:21130140.134715,vx:-331.791046,vy:-2779.977783,vz:-448.685333,tb:0.0000515360
i = 7
$pseudo_cd_ph,prn:22,pseudo_cd_ph:374642922.435337
$meas,msRange:76.870234,x:-22740278.130418,y:6631952.305114,z:12176035.042524,vx:982.528870,vy:-1203.374634,vz:2547.155518,tb:-0.0006978099
i = 8
$pseudo_cd_ph,prn:28,pseudo_cd_ph:374642930.705093
$meas,msRange:70.066051,x:-5053154.821105,y:17927240.663305,z:19578841.450265,vx:-2082.470215,vy:1089.542358,vz:-1575.654053,tb:0.0007678351
i = 9
$pseudo_cd_ph,prn:30,pseudo_cd_ph:374642927.117841
$meas,msRange:72.784376,x:-1000254.246149,y:26278377.272491,z:-2872769.651405,vx:-372.112915,vy:-355.153381,vz:-3115.902588,tb:-0.0001012586
i = 10
i = 11
i = 12
i = 13
i = 14
i = 15
i = 16
i = 17
i = 18
i = 19
i = 20
i = 21
i = 22
i = 23
Refix G01: 2, 374642.927657, 1621
Refix G03: 2, 374642.924669, -2546
Refix G06: 2, 374642.922013, -4403
Refix G07: 2, 374642.921011, 2504
Refix G11: 2, 374642.924754, 1715
Refix G17: 2, 374642.927036, -1897
Refix G18: 2, 374642.920904, 2443
Refix G19: 2, 374642.924056, -3009
Refix G22: 2, 374642.922436, -994
Refix G28: 2, 374642.930706, -2366
Refix G30: 2, 374642.927118, 1534
$GNGGA,080345.000,2944.9061,N,10633.0906,E,1,07,1.4,333.4,M,,,,0000*13
$GNRMC,080345.000,A,2944.9061,N,10633.0906,E,0.20,0.00,090519,,*1C
$GPGSA,A,3,,,,,,,,,,,,,3.2,1.4,2.8*3C
$BDGSA,A,3,01,02,04,07,08,27,30,,,,,,3.2,1.4,2.8*23
$GLGSA,A,3,,,,,,,,,,,,,3.2,1.4,2.8*20
$GPGSV,3,1,11,01,41,040,44,03,31,103,41,06,22,219,43,07,16,176,38*7D
$GPGSV,3,2,11,11,29,046,41,17,46,304,45,18,15,041,37,22,27,077,40*7B
$GPGSV,3,3,11,28,68,358,44,30,40,203,45,19,29,281,00*4C
$BDGSV,3,1,12,01,40,125,41,02,47,219,42,03,55,171,18,04,23,109,40*66
$BDGSV,3,2,12,05,00,000,36,07,61,130,43,08,83,326,43,10,88,018,43*63
$BDGSV,3,3,12,27,46,033,45,30,54,296,45,13,61,234,00,32,13,139,00*6B
$B3CN0,0,0,0,0,0,0,0,0,0,0,0,0,0,0*4C
$ini_pos,lastpos_good = 1,ini_pos.x:-1578913.872902,ini_pos.y:5312779.748457,ini_pos.z:3146358.519052
$rtc_local_time,localRTC.weeks:2052,localRTC.seconds:374643.603731,localGtime.weeks:2052,localGtime.seconds:374644.000000
i = 0
$pseudo_cd_ph,prn:1,pseudo_cd_ph:374643927.655520
$meas,msRange:72.336533,x:-13544263.160094,y:8557156.348862,z:20939204.034543,vx:-298.383820,vy:-2688.465820,vz:929.434998,tb:-0.0000121528
i = 1
$pseudo_cd_ph,prn:3,pseudo_cd_ph:374643924.670605
$meas,msRange:75.521522,x:-23174679.812744,y:11846371.284144,z:5028184.388701,vx:371.054993,vy:-595.694946,vz:3098.567139,tb:0.0001881321
i = 2
$pseudo_cd_ph,prn:6,pseudo_cd_ph:374643922.015734
$meas,msRange:78.198428,x:6968793.110250,y:24598876.447552,z:-7079616.911778,vx:-147.591064,vy:920.829712,vz:3038.410645,tb:0.0002102784
i = 3
$pseudo_cd_ph,prn:7,pseudo_cd_ph:374643921.009274
$meas,msRange:78.974306,x:-7836929.474296,y:21274569.491941,z:-13181743.170707,vx:-396.885651,vy:-1711.957520,vz:-2526.139648,tb:-0.0000206471
i = 4
$pseudo_cd_ph,prn:11,pseudo_cd_ph:374643904.751942
$meas,msRange:74.641838,x:-15873512.066904,y:4174664.774516,z:20324915.410363,vx:-1295.735840,vy:-2401.340820,vz:-530.368042,tb:-0.0006104399
i = 5
$pseudo_cd_ph,prn:17,pseudo_cd_ph:374643927.036842
$meas,msRange:73.019008,x:7615797.419363,y:17996661.575632,z:18435955.489546,vx:-2029.617676,vy:-975.149170,vz:1822.452759,tb:0.0000518270
i = 6
$pseudo_cd_ph,prn:18,pseudo_cd_ph:374643920.902186
$meas,msRange:79.153595,x:-15349869.995357,y:-1762374.512112,z:21129691.214597,vx:-331.937042,vy:-2779.899658,vz:-449.154907,tb:0.0000515360
i = 7
$pseudo_cd_ph,prn:22,pseudo_cd_ph:374643922.435941
$meas,msRange:76.870323,x:-22739295.509909,y:6630748.806484,z:12178582.069513,vx:982.712219,vy:-1203.622681,vz:2546.898682,tb:-0.0006978099
i = 8
$pseudo_cd_ph,prn:28,pseudo_cd_ph:374643930.706564
$meas,msRange:70.065268,x:-5055237.174205,y:17928330.224060,z:19577265.598500,vx:-2082.236084,vy:1089.579224,vz:-1576.049561,tb:0.0007678351
i = 9
$pseudo_cd_ph,prn:30,pseudo_cd_ph:374643927.116838
$meas,msRange:72.786071,x:-1000626.376847,y:26278021.933187,z:-2875885.522910,vx:-372.148529,vy:-355.525238,vz:-3115.840576,tb:-0.0001012586
i = 10
i = 11
i = 12
i = 13
i = 14
i = 15
i = 16
i = 17
i = 18
i = 19
i = 20
i = 21
i = 22
i = 23
Refix G01: 2, 374643.927656, 1621
Refix G03: 2, 374643.924671, -2547
Refix G06: 2, 374643.922016, -4402
Refix G07: 2, 374643.921010, 2505
Refix G11: 2, 374643.924752, 1714
Refix G17: 2, 374643.927037, -1896
Refix G18: 2, 374643.920903, 2442
Refix G19: 2, 374643.924058, -3008
Refix G22: 2, 374643.922436, -994
Refix G28: 2, 374643.930707, -2366
Refix G30: 2, 374643.927117, 1535
$GNGGA,080346.000,2944.9062,N,10633.0906,E,1,08,1.4,334.1,M,,,,0000*1E
$GNRMC,080346.000,A,2944.9062,N,10633.0906,E,0.27,0.00,090519,,*1B
$GPGSA,A,3,,,,,,,,,,,,,2.8,1.4,2.5*3A
$BDGSA,A,3,01,02,04,07,08,10,27,30,,,,,2.8,1.4,2.5*24
$GLGSA,A,3,,,,,,,,,,,,,2.8,1.4,2.5*26
$GPGSV,3,1,11,01,41,040,44,03,31,103,41,06,22,219,43,07,16,176,38*7D
$GPGSV,3,2,11,11,29,046,42,17,46,304,45,18,15,041,36,22,27,077,40*79
$GPGSV,3,3,11,28,68,358,44,30,40,203,45,19,29,281,00*4C
$BDGSV,3,1,12,01,40,125,41,02,47,219,40,03,55,171,36,04,23,109,39*66
$BDGSV,3,2,12,05,00,000,36,07,61,130,43,08,83,326,43,10,88,018,43*63
$BDGSV,3,3,12,27,46,033,44,30,54,296,45,13,61,234,00,32,13,139,00*6A
$B3CN0,0,0,0,0,0,0,0,0,0,0,0,0,0,0*4C
$ini_pos,lastpos_good = 1,ini_pos.x:-1578914.012468,ini_pos.y:5312780.219011,ini_pos.z:3146359.067681
$rtc_local_time,localRTC.weeks:2052,localRTC.seconds:374644.603731,localGtime.weeks:2052,localGtime.seconds:374645.000000
i = 0
$pseudo_cd_ph,prn:1,pseudo_cd_ph:374644927.654458
$meas,msRange:72.338282,x:-13544561.628715,y:8554467.834530,z:20940133.241774,vx:-298.553436,vy:-2688.562988,vz:928.979553,tb:-0.0000121528
i = 1
$pseudo_cd_ph,prn:3,pseudo_cd_ph:374644924.672190
$meas,msRange:75.520626,x:-23174308.614857,y:11845775.466868,z:5031282.901863,vx:371.340820,vy:-595.939636,vz:3098.459473,tb:0.0001881321
i = 2
$pseudo_cd_ph,prn:6,pseudo_cd_ph:374644922.018500
$meas,msRange:78.196354,x:6968645.530468,y:24599797.090773,z:-7076578.425740,vx:-147.568512,vy:920.456787,vz:3038.561768,tb:0.0002102784
i = 3
$pseudo_cd_ph,prn:7,pseudo_cd_ph:374644921.007651
$meas,msRange:78.976617,x:-7837326.419013,y:21272857.384900,z:-13184269.164677,vx:-397.003815,vy:-1712.256592,vz:-2525.848389,tb:-0.0000206472
i = 4
$pseudo_cd_ph,prn:11,pseudo_cd_ph:374644904.750819
$meas,msRange:74.643646,x:-15874807.842618,y:4172263.492618,z:20324384.815125,vx:-1295.815674,vy:-2401.223145,vz:-530.822449,tb:-0.0006104399
i = 5
$pseudo_cd_ph,prn:17,pseudo_cd_ph:374644927.038015
$meas,msRange:73.018523,x:7613767.672633,y:17995686.437431,z:18437777.752716,vx:-2029.875854,vy:-975.127319,vz:1822.073730,tb:0.0000518270
i = 6
$pseudo_cd_ph,prn:18,pseudo_cd_ph:374644920.900604
$meas,msRange:79.155865,x:-15350202.005383,y:-1765154.372465,z:21129241.824903,vx:-332.083038,vy:-2779.821289,vz:-449.624481,tb:0.0000515360
i = 7
$pseudo_cd_ph,prn:22,pseudo_cd_ph:374644922.436541
$meas,msRange:76.870412,x:-22738312.706106,y:6629545.059903,z:12181128.839513,vx:982.895447,vy:-1203.870605,vz:2546.641602,tb:-0.0006978099
i = 8
$pseudo_cd_ph,prn:28,pseudo_cd_ph:374644930.708035
$meas,msRange:70.064486,x:-5057319.293187,y:17929419.821751,z:19575689.351282,vx:-2082.001953,vy:1089.616211,vz:-1576.444946,tb:0.0007678351
i = 9
$pseudo_cd_ph,prn:30,pseudo_cd_ph:374644927.115832
$meas,msRange:72.787766,x:-1000998.543172,y:26277666.222043,z:-2879001.332472,vx:-372.184174,vy:-355.897064,vz:-3115.778564,tb:-0.0001012586
i = 10
i = 11
i = 12
i = 13
i = 14
i = 15
i = 16
i = 17
i = 18
i = 19
i = 20
i = 21
i = 22
i = 23
Refix G01: 2, 374644.927655, 1624
Refix G03: 2, 374644.924673, -2543
Refix G06: 2, 374644.922019, -4401
Refix G07: 2, 374644.921008, 2506
Refix G11: 2, 374644.924751, 1717
Refix G17: 2, 374644.927038, -1894
Refix G18: 2, 374644.920901, 2444
Refix G19: 2, 374644.924060, -3007
Refix G22: 2, 374644.922437, -991
Refix G28: 2, 374644.930709, -2363
Refix G30: 2, 374644.927116, 1537
$GNGGA,080347.000,2944.9067,N,10633.0904,E,1,08,1.4,333.0,M,,,,0000*1E
$GNRMC,080347.000,A,2944.9067,N,10633.0904,E,0.17,0.00,090519,,*1E
$GPGSA,A,3,,,,,,,,,,,,,2.8,1.4,2.5*3A
$BDGSA,A,3,01,02,04,07,08,10,27,30,,,,,2.8,1.4,2.5*24
$GLGSA,A,3,,,,,,,,,,,,,2.8,1.4,2.5*26
$GPGSV,3,1,11,01,41,040,44,03,31,103,42,06,22,219,43,07,16,176,37*71
$GPGSV,3,2,11,11,29,046,42,17,46,304,45,18,15,041,36,22,27,077,40*79
$GPGSV,3,3,11,28,68,358,44,30,40,203,45,19,29,281,00*4C
$BDGSV,3,1,12,01,40,125,42,02,47,219,41,04,23,109,40,05,00,000,36*6B
$BDGSV,3,2,12,07,61,130,43,08,83,326,43,10,88,018,43,27,46,033,44*64
$BDGSV,3,3,12,30,54,296,45,03,55,171,00,13,61,234,00,32,13,139,00*69
$B3CN0,0,0,0,0,0,0,0,0,0,0,0,0,0,0*4C
$ini_pos,lastpos_good = 1,ini_pos.x:-1578913.180835,ini_pos.y:5312778.999430,ini_pos.z:3146359.320538
$rtc_local_time,localRTC.weeks:2052,localRTC.seconds:374645.603731,localGtime.weeks:2052,localGtime.seconds:374646.000000
i = 0
$pseudo_cd_ph,prn:1,pseudo_cd_ph:374645927.653396
$meas,msRange:72.340035,x:-13544860.266941,y:8551779.223217,z:20941061.993578,vx:-298.723053,vy:-2688.659912,vz:928.524109,tb:-0.0000121529
i = 1
$pseudo_cd_ph,prn:3,pseudo_cd_ph:374645924.673774
$meas,msRange:75.519736,x:-23173937.131162,y:11845179.404920,z:5034381.307334,vx:371.626587,vy:-596.184326,vz:3098.351807,tb:0.0001881321
i = 2
$pseudo_cd_ph,prn:6,pseudo_cd_ph:374645922.021261
$meas,msRange:78.194283,x:6968497.973202,y:24600717.361120,z:-7073539.788585,vx:-147.546036,vy:920.083923,vz:3038.712891,tb:0.0002102784
i = 3
$pseudo_cd_ph,prn:7,pseudo_cd_ph:374645921.006029
$meas,msRange:78.978933,x:-7837723.481938,y:21271144.978795,z:-13186794.867243,vx:-397.122040,vy:-1712.555664,vz:-2525.556885,tb:-0.0000206472
i = 4
$pseudo_cd_ph,prn:11,pseudo_cd_ph:374645904.749699
$meas,msRange:74.645458,x:-15876103.698125,y:4169862.328639,z:20323853.765524,vx:-1295.895386,vy:-2401.104980,vz:-531.276794,tb:-0.0006104399
i = 5
$pseudo_cd_ph,prn:17,pseudo_cd_ph:374645927.039185
$meas,msRange:73.018042,x:7611737.667681,y:17994711.321091,z:18439599.636854,vx:-2030.134155,vy:-975.105408,vz:1821.694702,tb:0.0000518270
i = 6
$pseudo_cd_ph,prn:18,pseudo_cd_ph:374645920.899021
$meas,msRange:79.158137,x:-15350534.161381,y:-1767934.154549,z:21128791.965643,vx:-332.229004,vy:-2779.742920,vz:-450.094055,tb:0.0000515360
i = 7
$pseudo_cd_ph,prn:22,pseudo_cd_ph:374645922.437142
$meas,msRange:76.870505,x:-22737329.719063,y:6628341.065361,z:12183675.352473,vx:983.078674,vy:-1204.118530,vz:2546.384521,tb:-0.0006978099
i = 8
$pseudo_cd_ph,prn:28,pseudo_cd_ph:374645930.709504
$meas,msRange:70.063708,x:-5059401.178012,y:17930509.456328,z:19574112.708640,vx:-2081.767822,vy:1089.653076,vz:-1576.840454,tb:0.0007678351
i = 9
$pseudo_cd_ph,prn:30,pseudo_cd_ph:374645927.114826
$meas,msRange:72.789466,x:-1001370.745172,y:26277310.139071,z:-2882117.080023,vx:-372.219879,vy:-356.268890,vz:-3115.716553,tb:-0.0001012587
i = 10
i = 11
i = 12
i = 13
i = 14
i = 15
i = 16
i = 17
i = 18
i = 19
i = 20
i = 21
i = 22
i = 23
Refix G01: 2, 374645.927654, 1621
Refix G03: 2, 374645.924674, -2547
Refix G06: 2, 374645.922022, -4404
Refix G07: 2, 374645.921007, 2502
Refix G11: 2, 374645.924750, 1713
Refix G17: 2, 374645.927040, -1897
Refix G18: 2, 374645.920899, 2441
Refix G19: 2, 374645.924062, -3009
Refix G22: 2, 374645.922438, -995
Refix G28: 2, 374645.930710, -2366
Refix G30: 2, 374645.927115, 1534
$GNGGA,080348.000,2944.9067,N,10633.0903,E,1,08,1.4,332.7,M,,,,0000*10
$GNRMC,080348.000,A,2944.9067,N,10633.0903,E,0.25,0.00,090519,,*17
$GPGSA,A,3,,,,,,,,,,,,,2.8,1.4,2.5*3A
$BDGSA,A,3,01,02,04,07,08,10,27,30,,,,,2.8,1.4,2.5*24
$GLGSA,A,3,,,,,,,,,,,,,2.8,1.4,2.5*26
$GPGSV,3,1,11,01,41,040,44,03,31,103,42,06,22,219,43,07,16,176,38*7E
$GPGSV,3,2,11,11,29,046,42,17,46,304,45,18,15,041,36,22,27,077,41*78
$GPGSV,3,3,11,28,68,358,44,30,40,203,45,19,29,281,00*4C
$BDGSV,3,1,12,01,40,125,41,02,47,219,40,04,23,109,41,05,00,000,36*68
$BDGSV,3,2,12,07,61,130,43,08,83,326,43,10,88,018,43,27,46,033,44*64
$BDGSV,3,3,12,30,54,296,45,03,55,171,00,13,61,234,00,32,13,139,00*69
$B3CN0,0,0,0,0,0,0,0,0,0,0,0,0,0,0*4C
$ini_pos,lastpos_good = 1,ini_pos.x:-1578913.044546,ini_pos.y:5312778.804290,ini_pos.z:3146359.266944
$rtc_local_time,localRTC.weeks:2052,localRTC.seconds:374646.603731,localGtime.weeks:2052,localGtime.seconds:374647.000000
i = 0
$pseudo_cd_ph,prn:1,pseudo_cd_ph:374646927.652336
$meas,msRange:72.341788,x:-13545159.074782,y:8549090.514991,z:20941990.289937,vx:-298.892670,vy:-2688.756836,vz:928.068665,tb:-0.0000121529
i = 1
$pseudo_cd_ph,prn:3,pseudo_cd_ph:374646924.675362
$meas,msRange:75.518842,x:-23173565.361700,y:11844583.098266,z:5037479.605047,vx:371.912354,vy:-596.429016,vz:3098.243896,tb:0.0001881321
i = 2
$pseudo_cd_ph,prn:6,pseudo_cd_ph:374646922.024028
$meas,msRange:78.192210,x:6968350.438400,y:24601637.258575,z:-7070501.000378,vx:-147.523590,vy:919.711060,vz:3038.863770,tb:0.0002102784
i = 3
$pseudo_cd_ph,prn:7,pseudo_cd_ph:374646921.004404
$meas,msRange:78.981244,x:-7838120.663107,y:21269432.273672,z:-13189320.278349,vx:-397.240326,vy:-1712.854614,vz:-2525.265381,tb:-0.0000206472
i = 4
$pseudo_cd_ph,prn:11,pseudo_cd_ph:374646904.748581
$meas,msRange:74.647269,x:-15877399.633386,y:4167461.282632,z:20323322.261573,vx:-1295.975220,vy:-2400.987061,vz:-531.731140,tb:-0.0006104399
i = 5
$pseudo_cd_ph,prn:17,pseudo_cd_ph:374646927.040360
$meas,msRange:73.017560,x:7609707.404544,y:17993736.226664,z:18441421.141924,vx:-2030.392334,vy:-975.083496,vz:1821.315552,tb:0.0000518270
i = 6
$pseudo_cd_ph,prn:18,pseudo_cd_ph:374646920.897441
$meas,msRange:79.160409,x:-15350866.463333,y:-1770713.858295,z:21128341.636829,vx:-332.374939,vy:-2779.664551,vz:-450.563599,tb:0.0000515360
i = 7
$pseudo_cd_ph,prn:22,pseudo_cd_ph:374646922.437746
$meas,msRange:76.870597,x:-22736346.548831,y:6627136.822853,z:12186221.608340,vx:983.261841,vy:-1204.366577,vz:2546.127441,tb:-0.0006978099
i = 8
$pseudo_cd_ph,prn:28,pseudo_cd_ph:374646930.710976
$meas,msRange:70.062929,x:-5061482.828644,y:17931599.127737,z:19572535.670606,vx:-2081.533691,vy:1089.689819,vz:-1577.235718,tb:0.0007678351
i = 9
$pseudo_cd_ph,prn:30,pseudo_cd_ph:374646927.113822
$meas,msRange:72.791164,x:-1001742.982895,y:26276953.684281,z:-2885232.765498,vx:-372.255615,vy:-356.640717,vz:-3115.654541,tb:-0.0001012587
i = 10
i = 11
i = 12
i = 13
i = 14
i = 15
i = 16
i = 17
i = 18
i = 19
i = 20
i = 21
i = 22
i = 23
i = 24
i = 25
Refix G01: 2, 374646.927653, 1620
Refix G03: 2, 374646.924676, -2548
Refix G06: 2, 374646.922025, -4405
Refix G07: 2, 374646.921005, 2501
Refix G11: 2, 374646.924749, 1712
Refix G17: 2, 374646.927041, -1898
Refix G18: 2, 374646.920898, 2440
Refix G19: 2, 374646.924064, -3011
Refix G22: 2, 374646.922438, -996
Refix G28: 2, 374646.930711, -2367
Refix G30: 2, 374646.927114, 1533
$GNGGA,080349.000,2944.9067,N,10633.0903,E,1,08,1.4,332.6,M,,,,0000*10
$GNRMC,080349.000,A,2944.9067,N,10633.0903,E,0.34,0.00,090519,,*16
$GPGSA,A,3,,,,,,,,,,,,,2.8,1.4,2.5*3A
$BDGSA,A,3,01,02,04,07,08,10,27,30,,,,,2.8,1.4,2.5*24
$GLGSA,A,3,,,,,,,,,,,,,2.8,1.4,2.5*26
$GPGSV,3,1,11,01,41,040,44,03,31,103,42,06,22,219,43,07,16,176,38*7E
$GPGSV,3,2,11,11,29,046,42,17,46,304,45,18,15,041,37,22,27,077,40*78
$GPGSV,3,3,11,28,68,358,44,30,40,203,45,19,29,281,00*4C
$BDGSV,3,1,12,01,40,125,41,02,47,219,39,03,55,171,18,04,23,109,41*6B
$BDGSV,3,2,12,05,00,000,36,07,61,130,43,08,83,326,43,10,88,018,43*63
$BDGSV,3,3,12,27,46,033,44,30,54,296,44,13,61,234,00,32,13,139,00*6B
$B3CN0,0,0,0,0,0,0,0,0,0,0,0,0,0,0*4C
$ini_pos,lastpos_good = 1,ini_pos.x:-1578913.039496,ini_pos.y:5312778.705185,ini_pos.z:3146359.229606
$rtc_local_time,localRTC.weeks:2052,localRTC.seconds:374647.603731,localGtime.weeks:2052,localGtime.seconds:374648.000000
i = 0
$pseudo_cd_ph,prn:1,pseudo_cd_ph:374647927.651273
$meas,msRange:72.343540,x:-13545458.052248,y:8546401.709924,z:20942918.130831,vx:-299.062286,vy:-2688.853516,vz:927.613159,tb:-0.0000121529
i = 1
$pseudo_cd_ph,prn:3,pseudo_cd_ph:374647924.676949
$meas,msRange:75.517948,x:-23173193.306513,y:11843986.546874,z:5040577.794935,vx:372.198059,vy:-596.673767,vz:3098.135986,tb:0.0001881321
i = 2
$pseudo_cd_ph,prn:6,pseudo_cd_ph:374647922.026793
$meas,msRange:78.190138,x:6968202.926008,y:24602556.783121,z:-7067462.061183,vx:-147.501205,vy:919.338135,vz:3039.014648,tb:0.0002102783
i = 3
$pseudo_cd_ph,prn:7,pseudo_cd_ph:374647921.002786
$meas,msRange:78.983556,x:-7838517.962558,y:21267719.269577,z:-13191845.397938,vx:-397.358612,vy:-1713.153564,vz:-2524.973877,tb:-0.0000206472
i = 4
$pseudo_cd_ph,prn:11,pseudo_cd_ph:374647904.747461
$meas,msRange:74.649079,x:-15878695.648360,y:4165060.354650,z:20322790.303282,vx:-1296.054810,vy:-2400.869141,vz:-532.185486,tb:-0.0006104399
i = 5
$pseudo_cd_ph,prn:17,pseudo_cd_ph:374647927.041533
$meas,msRange:73.017078,x:7607676.883255,y:17992761.154206,z:18443242.267889,vx:-2030.650391,vy:-975.061462,vz:1820.936401,tb:0.0000518270
i = 6
$pseudo_cd_ph,prn:18,pseudo_cd_ph:374647920.895863
$meas,msRange:79.162681,x:-15351198.911225,y:-1773493.483637,z:21127890.838471,vx:-332.520874,vy:-2779.586182,vz:-451.033142,tb:0.0000515360
i = 7
$pseudo_cd_ph,prn:22,pseudo_cd_ph:374647922.438345
$meas,msRange:76.870688,x:-22735363.195466,y:6625932.332371,z:12188767.607059,vx:983.444946,vy:-1204.614502,vz:2545.870117,tb:-0.0006978099
i = 8
$pseudo_cd_ph,prn:28,pseudo_cd_ph:374647930.712447
$meas,msRange:70.062150,x:-5063564.245047,y:17932688.835929,z:19570958.237209,vx:-2081.299316,vy:1089.726562,vz:-1577.631104,tb:0.0007678351
i = 9
$pseudo_cd_ph,prn:30,pseudo_cd_ph:374647927.112817
$meas,msRange:72.792861,x:-1002115.256389,y:26276596.857685,z:-2888348.388827,vx:-372.291412,vy:-357.012512,vz:-3115.592285,tb:-0.0001012587
i = 10
i = 11
i = 12
i = 13
i = 14
i = 15
i = 16
i = 17
i = 18
i = 19
i = 20
i = 21
i = 22
i = 23
i = 24
Refix G01: 2, 374647.927652, 1624
Refix G03: 2, 374647.924677, -2543
Refix G06: 2, 374647.922027, -4402
Refix G07: 2, 374647.921003, 2504
Refix G11: 2, 374647.924748, 1716
Refix G17: 2, 374647.927042, -1895
Refix G18: 2, 374647.920896, 2443
Refix G19: 2, 374647.924065, -3008
Refix G22: 2, 374647.922439, -991
Refix G28: 2, 374647.930713, -2363
Refix G30: 2, 374647.927113, 1536
$GNGGA,080350.000,2944.9067,N,10633.0903,E,1,08,1.4,333.1,M,,,,0000*1E
$GNRMC,080350.000,A,2944.9067,N,10633.0903,E,0.26,0.00,090519,,*1D
$GPGSA,A,3,,,,,,,,,,,,,2.8,1.4,2.5*3A
$BDGSA,A,3,01,02,04,07,08,10,27,30,,,,,2.8,1.4,2.5*24
$GLGSA,A,3,,,,,,,,,,,,,2.8,1.4,2.5*26
$GPGSV,3,1,11,01,41,040,44,03,31,103,42,06,22,219,43,07,16,176,37*71
$GPGSV,3,2,11,11,29,046,42,17,46,304,45,18,15,041,37,22,27,077,40*78
$GPGSV,3,3,11,28,68,358,44,30,40,203,44,19,29,281,00*4D
$BDGSV,3,1,12,01,40,125,41,02,47,219,41,03,55,171,16,04,23,109,40*6B
$BDGSV,3,2,12,05,00,000,36,07,61,130,43,08,83,326,43,10,88,018,43*63
$BDGSV,3,3,12,27,46,033,44,30,54,296,45,13,61,234,00,32,13,139,00*6A
$B3CN0,0,0,0,0,0,0,0,0,0,0,0,0,0,0*4C
$ini_pos,lastpos_good = 1,ini_pos.x:-1578913.160386,ini_pos.y:5312779.055088,ini_pos.z:3146359.463348
$rtc_local_time,localRTC.weeks:2052,localRTC.seconds:374648.603731,localGtime.weeks:2052,localGtime.seconds:374649.000000
i = 0
$pseudo_cd_ph,prn:1,pseudo_cd_ph:374648927.650211
$meas,msRange:72.345291,x:-13545757.199349,y:8543712.808082,z:20943845.516240,vx:-299.231934,vy:-2688.950195,vz:927.157715,tb:-0.0000121529
i = 1
$pseudo_cd_ph,prn:3,pseudo_cd_ph:374648924.678537
$meas,msRange:75.517054,x:-23172820.965642,y:11843389.750712,z:5043675.876932,vx:372.483704,vy:-596.918579,vz:3098.028076,tb:0.0001881321
i = 2
$pseudo_cd_ph,prn:6,pseudo_cd_ph:374648922.029558
$meas,msRange:78.188064,x:6968055.435977,y:24603475.934740,z:-7064422.971067,vx:-147.478867,vy:918.965210,vz:3039.165771,tb:0.0002102783
i = 3
$pseudo_cd_ph,prn:7,pseudo_cd_ph:374648921.001163
$meas,msRange:78.985867,x:-7838915.380326,y:21266005.966556,z:-13194370.225955,vx:-397.476959,vy:-1713.452515,vz:-2524.682373,tb:-0.0000206472
i = 4
$pseudo_cd_ph,prn:11,pseudo_cd_ph:374648904.746341
$meas,msRange:74.650889,x:-15879991.743008,y:4162659.544745,z:20322257.890663,vx:-1296.134521,vy:-2400.750977,vz:-532.639771,tb:-0.0006104399
i = 5
$pseudo_cd_ph,prn:17,pseudo_cd_ph:374648927.042707
$meas,msRange:73.016595,x:7605646.103849,y:17991786.103769,z:18445063.014712,vx:-2030.908569,vy:-975.039429,vz:1820.557251,tb:0.0000518270
i = 6
$pseudo_cd_ph,prn:18,pseudo_cd_ph:374648920.894284
$meas,msRange:79.164953,x:-15351531.505039,y:-1776273.030505,z:21127439.570581,vx:-332.666779,vy:-2779.507812,vz:-451.502655,tb:0.0000515360
i = 7
$pseudo_cd_ph,prn:22,pseudo_cd_ph:374648922.438946
$meas,msRange:76.870779,x:-22734379.659018,y:6624727.593908,z:12191313.348579,vx:983.627991,vy:-1204.862549,vz:2545.613037,tb:-0.0006978099
i = 8
$pseudo_cd_ph,prn:28,pseudo_cd_ph:374648930.713918
$meas,msRange:70.061369,x:-5065645.427184,y:17933778.580850,z:19569380.408482,vx:-2081.064941,vy:1089.763306,vz:-1578.026489,tb:0.0007678351
i = 9
$pseudo_cd_ph,prn:30,pseudo_cd_ph:374648927.111813
$meas,msRange:72.794557,x:-1002487.565703,y:26276239.659293,z:-2891463.949945,vx:-372.327240,vy:-357.384308,vz:-3115.530029,tb:-0.0001012587
i = 10
i = 11
i = 12
i = 13
i = 14
i = 15
i = 16
i = 17
i = 18
i = 19
i = 20
i = 21
i = 22
i = 23
Refix G01: 2, 374648.927651, 1622
Refix G03: 2, 374648.924679, -2546
Refix G06: 2, 374648.922030, -4404
Refix G07: 2, 374648.921002, 2502
Refix G11: 2, 374648.924747, 1714
Refix G17: 2, 374648.927043, -1898
Refix G18: 2, 374648.920895, 2441
Refix G19: 2, 374648.924067, -3010
Refix G22: 2, 374648.922439, -993
Refix G28: 2, 374648.930714, -2366
Refix G30: 2, 374648.927112, 1534
$GNGGA,080351.000,2944.9067,N,10633.0903,E,1,08,1.4,333.1,M,,,,0000*1F
$GNRMC,080351.000,A,2944.9067,N,10633.0903,E,0.23,0.00,090519,,*19
$GPGSA,A,3,,,,,,,,,,,,,2.8,1.4,2.5*3A
$BDGSA,A,3,01,02,04,07,08,10,27,30,,,,,2.8,1.4,2.5*24
$GLGSA,A,3,,,,,,,,,,,,,2.8,1.4,2.5*26
