SD initialized success
Create debug.log Failed! 3
bbram_blkflag = 1
rtcflag = 0
BBRAM Block OK: 01 EPHflag: 4660a1c4 8c44837f, rtc 00
Hot-start nowtime:day = 8,minute = 20,seconds = 48.00
GPS 0 Init Dop: 10000,80
GPS 1 Init Dop: 10000,80
GPS 2 Init Dop:  1088, 2
GPS 3 Init Dop: 10000,80
GPS 4 Init Dop: 10000,80
GPS 5 Init Dop: 10000,80
GPS 6 Init Dop: -3715, 2
GPS 7 Init Dop: -2672, 2
GPS 8 Init Dop: -2006, 2
GPS 9 Init Dop: 10000,80
GPS10 Init Dop: 10000,80
GPS11 Init Dop: 10000,80
GPS12 Init Dop: 10000,80
GPS13 Init Dop:  2645, 2
GPS14 Init Dop: 10000,80
GPS15 Init Dop:  1294, 2
GPS16 Init Dop: 10000,80
GPS17 Init Dop: 10000,80
GPS18 Init Dop: 10000,80
GPS19 Init Dop: 10000,80
GPS20 Init Dop: 10000,80
GPS21 Init Dop:   403, 2
GPS22 Init Dop:    12, 2
GPS23 Init Dop: 10000,80
GPS24 Init Dop: 10000,80
GPS25 Init Dop:  1585, 2
GPS26 Init Dop:  -314, 2
GPS27 Init Dop: 10000,80
GPS28 Init Dop: 10000,80
GPS29 Init Dop: 10000,80
GPS30 Init Dop:  1739, 2
GPS31 Init Dop: 10000,80
BDS 0 Init Dop:  -873, 2
BDS 1 Init Dop:  -857, 2
BDS 2 Init Dop:  -880, 2
BDS 3 Init Dop:  -869, 2
BDS 4 Init Dop:  -867, 2
BDS 5 Init Dop:   707, 2
BDS 6 Init Dop:  -778, 2
BDS 7 Init Dop: 10000,80
BDS 8 Init Dop:   414, 2
BDS 9 Init Dop:  -821, 2
BDS10 Init Dop: 10000,80
BDS11 Init Dop: 10000,80
BDS12 Init Dop: 10000,80
BDS13 Init Dop: 10000,80
BDS14 Init Dop: 10000,80
BDS15 Init Dop:   774, 2
BDS16 Init Dop: 10000,80
BDS17 Init Dop: 10000,80
BDS18 Init Dop:   326, 2
BDS19 Init Dop: 10000,80
BDS20 Init Dop: 10000,80
BDS21 Init Dop: 10000,80
BDS22 Init Dop:  1151, 2
BDS23 Init Dop: 10000,80
BDS24 Init Dop: 10000,80
BDS25 Init Dop: 10000,80
BDS26 Init Dop: -2422, 2
BDS27 Init Dop:   601, 2
BDS28 Init Dop: 10000,80
BDS29 Init Dop: 10000,80
BDS30 Init Dop: 10000,80
BDS31 Init Dop:  1259, 2
Good luck!
$ini_pos,lastpos_good = 1,ini_pos.x:-1578911.000000,ini_pos.y:5312770.000000,ini_pos.z:3146351.000000
$rtc_local_time,localRTC.weeks:2052,localRTC.seconds:271267.025977,localGtime.weeks:0,localGtime.seconds:19.025977
$GNGGA,000000.000,,,,,0,00,,,M,,,,0000*2B
$GNRMC,000000.000,A,,,,,,,060180,,*29
$GPGSA,A,1,,,,,,,,,,,,,,,*1E
$BDGSA,A,1,,,,,,,,,,,,,,,*0F
$GLGSA,A,1,,,,,,,,,,,,,,,*02
$B3CN0,0,0,0,0,0,0,0,0,0,0,0,0,0,0*4C
$ini_pos,lastpos_good = 1,ini_pos.x:-1578911.000000,ini_pos.y:5312770.000000,ini_pos.z:3146351.000000
$rtc_local_time,localRTC.weeks:2052,localRTC.seconds:271268.025977,localGtime.weeks:2052,localGtime.seconds:271268.025977
$GNGGA,000000.000,,,,,0,00,,,M,,,,0000*2B
$GNRMC,000000.000,A,,,,,,,060180,,*29
$GPGSA,A,1,,,,,,,,,,,,,,,*1E
$BDGSA,A,1,,,,,,,,,,,,,,,*0F
$GLGSA,A,1,,,,,,,,,,,,,,,*02
$B3CN0,0,0,0,0,0,0,0,0,0,0,0,0,0,0*4C
$ini_pos,lastpos_good = 1,ini_pos.x:-1578911.000000,ini_pos.y:5312770.000000,ini_pos.z:3146351.000000
$rtc_local_time,localRTC.weeks:2052,localRTC.seconds:271269.025977,localGtime.weeks:2052,localGtime.seconds:271269.025977
i = 0
i = 1
$pseudo_cd_ph,prn:7,pseudo_cd_ph:3.539596
$meas,msRange:78.485025,x:12721720.583486,y:10838811.299372,z:20995103.326144,vx:-2387.030762,vy:1029.637451,vz:879.039307
i = 2
$pseudo_cd_ph,prn:8,pseudo_cd_ph:13.120472
$meas,msRange:68.781082,x:-5724810.273336,y:25484151.982823,z:4201444.497880,vx:-203.676743,vy:-557.707947,vz:3150.429688
i = 3
$pseudo_cd_ph,prn:9,pseudo_cd_ph:9.940601
$meas,msRange:72.518967,x:9436122.014419,y:18858963.994560,z:16101050.239746,vx:-432.160645,vy:2019.336060,vz:-2107.754150
i = 4
$GNGGA,000000.000,,,,,0,00,,,M,,,,0000*2B
$GNRMC,000000.000,A,,,,,,,060180,,*29
$GPGSA,A,1,,,,,,,,,,,,,,,*1E
$BDGSA,A,1,,,,,,,,,,,,,,,*0F
$GLGSA,A,1,,,,,,,,,,,,,,,*02
$GPGSV,1,1,01,04,00,000,16*4B
$B3CN0,0,0,0,0,0,0,0,0,0,0,0,0,0,0*4C
$ini_pos,lastpos_good = 1,ini_pos.x:-1578911.000000,ini_pos.y:5312770.000000,ini_pos.z:3146351.000000
$rtc_local_time,localRTC.weeks:2052,localRTC.seconds:271270.025977,localGtime.weeks:2052,localGtime.seconds:271270.025977
i = 0
i = 1
$pseudo_cd_ph,prn:7,pseudo_cd_ph:3.542099
$meas,msRange:78.483216,x:12719333.530657,y:10839841.027918,z:20995982.148892,vx:-2387.075195,vy:1029.819702,vz:878.606262
i = 2
$pseudo_cd_ph,prn:8,pseudo_cd_ph:13.122300
$meas,msRange:68.779937,x:-5725013.944341,y:25483594.083133,z:4204594.882267,vx:-203.665298,vy:-558.091431,vz:3150.339111
i = 3
$pseudo_cd_ph,prn:9,pseudo_cd_ph:9.942006
$meas,msRange:72.518244,x:9435689.925441,y:18860983.210915,z:16098942.313775,vx:-432.017334,vy:2019.096802,vz:-2108.097900
i = 4
$pseudo_cd_ph,prn:16,pseudo_cd_ph:9.488465
$meas,msRange:72.517406,x:-12237959.515034,y:8537239.513992,z:21817801.837872,vx:-2077.677246,vy:-1884.990723,vz:-382.085114
i = 5
$pseudo_cd_ph,prn:23,pseudo_cd_ph:12.435231
$meas,msRange:69.422215,x:2101149.630732,y:25508514.805884,z:6572506.682521,vx:-432.112030,vy:762.366760,vz:-3011.389160
i = 6
$pseudo_cd_ph,prn:26,pseudo_cd_ph:3.104523
$meas,msRange:79.135580,x:-19934226.902945,y:1118686.553118,z:17580105.923156,vx:-1713.635620,vy:-1441.472290,vz:-1831.651367
i = 7
$pseudo_cd_ph,prn:27,pseudo_cd_ph:14.401481
$meas,msRange:67.516591,x:-11876229.301143,y:18846962.209523,z:14123047.238470,vx:26.569418,vy:-1830.291626,vz:2475.894531
i = 8
$pseudo_cd_ph,prn:31,pseudo_cd_ph:17.613177
$meas,msRange:84.470725,x:-25587037.392937,y:6321447.760345,z:-4846337.791212,vx:479.668304,vy:-443.010681,vz:-3067.620850
i = 9
i = 10
i = 11
i = 12
i = 13
$GNGGA,000000.000,,,,,0,00,,,M,,,,0000*2B
$GNRMC,000000.000,A,,,,,,,060180,,*29
$GPGSA,A,1,,,,,,,,,,,,,,,*1E
$BDGSA,A,1,,,,,,,,,,,,,,,*0F
$GLGSA,A,1,,,,,,,,,,,,,,,*02
$GPGSV,2,1,05,04,00,000,39,07,00,000,40,08,00,000,39,09,00,000,38*72
$GPGSV,2,2,05,16,00,000,29*40
$B3CN0,0,0,0,0,0,0,0,0,0,0,0,0,0,0*4C
$ini_pos,lastpos_good = 1,ini_pos.x:-1578911.000000,ini_pos.y:5312770.000000,ini_pos.z:3146351.000000
$rtc_local_time,localRTC.weeks:2052,localRTC.seconds:271271.025977,localGtime.weeks:2052,localGtime.seconds:271271.025977
i = 0
i = 1
$pseudo_cd_ph,prn:7,pseudo_cd_ph:3.544605
$meas,msRange:78.481408,x:12716946.433342,y:10840870.938689,z:20996860.538557,vx:-2387.119629,vy:1030.001953,vz:878.173157
i = 2
$pseudo_cd_ph,prn:8,pseudo_cd_ph:13.124134
$meas,msRange:68.778792,x:-5725217.603925,y:25483035.799984,z:4207745.176112,vx:-203.653900,vy:-558.474915,vz:3150.248535
i = 3
$pseudo_cd_ph,prn:9,pseudo_cd_ph:9.943418
$meas,msRange:72.517522,x:9435257.979747,y:18863002.188074,z:16096834.044186,vx:-431.874084,vy:2018.857666,vz:-2108.441406
i = 4
$pseudo_cd_ph,prn:16,pseudo_cd_ph:9.487798
$meas,msRange:72.518777,x:-12240037.230280,y:8535354.605484,z:21817419.517332,vx:-2077.753174,vy:-1884.826416,vz:-382.556000
i = 5
$pseudo_cd_ph,prn:23,pseudo_cd_ph:12.435357
$meas,msRange:69.422774,x:2100717.557184,y:25509276.996437,z:6569495.222547,vx:-432.035095,vy:762.014404,vz:-3011.531006
i = 6
$pseudo_cd_ph,prn:26,pseudo_cd_ph:3.103629
$meas,msRange:79.137135,x:-19935940.485568,y:1117245.196937,z:17578274.085733,vx:-1713.529785,vy:-1441.240112,vz:-1832.023560
i = 7
$pseudo_cd_ph,prn:27,pseudo_cd_ph:14.401823
$meas,msRange:67.516943,x:-11876202.767799,y:18845131.761471,z:14125522.979505,vx:26.497265,vy:-1830.604614,vz:2475.587646
i = 8
$pseudo_cd_ph,prn:31,pseudo_cd_ph:17.612209
$meas,msRange:84.472379,x:-25586557.560006,y:6321004.666020,z:-4849405.361629,vx:479.997589,vy:-443.177979,vz:-3067.520264
i = 9
i = 10
i = 11
i = 12
i = 13
$GNGGA,000000.000,,,,,0,00,,,M,,,,0000*2B
$GNRMC,000000.000,A,,,,,,,060180,,*29
$GPGSA,A,1,,,,,,,,,,,,,,,*1E
$BDGSA,A,1,,,,,,,,,,,,,,,*0F
$GLGSA,A,1,,,,,,,,,,,,,,,*02
$GPGSV,3,1,09,04,00,000,38,07,00,000,44,08,00,000,45,09,00,000,43*7D
$GPGSV,3,2,09,16,00,000,43,23,00,000,45,26,00,000,33,27,00,000,38*7B
$GPGSV,3,3,09,31,00,000,32*43
$BDGSV,2,1,05,01,00,000,39,02,00,000,41,04,00,000,38,06,00,000,29*60
$BDGSV,2,2,05,07,00,000,29*51
$B3CN0,0,0,0,0,0,0,0,0,0,0,0,0,0,0*4C
$ini_pos,lastpos_good = 1,ini_pos.x:-1578911.000000,ini_pos.y:5312770.000000,ini_pos.z:3146351.000000
$rtc_local_time,localRTC.weeks:2052,localRTC.seconds:271272.025977,localGtime.weeks:2052,localGtime.seconds:271272.025977
i = 0
i = 1
$pseudo_cd_ph,prn:7,pseudo_cd_ph:3.547111
$meas,msRange:78.479600,x:12714559.291603,y:10841901.031676,z:20997738.495120,vx:-2387.164062,vy:1030.184082,vz:877.740051
i = 2
$pseudo_cd_ph,prn:8,pseudo_cd_ph:13.125970
$meas,msRange:68.777648,x:-5725421.252140,y:25482477.133387,z:4210895.379349,vx:-203.642548,vy:-558.858337,vz:3150.157959
i = 3
$pseudo_cd_ph,prn:9,pseudo_cd_ph:9.944832
$meas,msRange:72.516800,x:9434826.177309,y:18865020.925984,z:16094725.431025,vx:-431.730835,vy:2018.618286,vz:-2108.784912
i = 4
$pseudo_cd_ph,prn:16,pseudo_cd_ph:9.487129
$meas,msRange:72.520147,x:-12242115.021377,y:8533469.861203,z:21817036.725907,vx:-2077.829102,vy:-1884.662231,vz:-383.026886
i = 5
$pseudo_cd_ph,prn:23,pseudo_cd_ph:12.435487
$meas,msRange:69.423334,x:2100285.560554,y:25510038.834575,z:6566483.620628,vx:-431.958191,vy:761.661926,vz:-3011.672852
i = 6
$pseudo_cd_ph,prn:26,pseudo_cd_ph:3.102747
$meas,msRange:79.138690,x:-19937653.962348,y:1115804.072952,z:17576441.876103,vx:-1713.423950,vy:-1441.007935,vz:-1832.395752
i = 7
$pseudo_cd_ph,prn:27,pseudo_cd_ph:14.402165
$meas,msRange:67.517295,x:-11876176.306631,y:18843301.000433,z:14127998.413667,vx:26.425064,vy:-1830.917603,vz:2475.280762
i = 8
$pseudo_cd_ph,prn:31,pseudo_cd_ph:17.611245
$meas,msRange:84.474033,x:-25586077.397781,y:6320561.404375,z:-4852472.831574,vx:480.326874,vy:-443.345337,vz:-3067.419678
i = 9
i = 10
i = 11
i = 12
i = 13
$GNGGA,000000.000,,,,,0,00,,,M,,,,0000*2B
$GNRMC,000000.000,A,,,,,,,060180,,*29
$GPGSA,A,1,,,,,,,,,,,,,,,*1E
$BDGSA,A,1,,,,,,,,,,,,,,,*0F
$GLGSA,A,1,,,,,,,,,,,,,,,*02
$GPGSV,3,1,09,04,00,000,38,07,00,000,44,08,00,000,45,09,00,000,45*7B
$GPGSV,3,2,09,16,00,000,43,23,00,000,44,26,00,000,34,27,00,000,45*77
$GPGSV,3,3,09,31,00,000,41*47
$BDGSV,2,1,06,01,00,000,40,02,00,000,41,03,00,000,19,04,00,000,39*6A
$BDGSV,2,2,06,06,00,000,41,07,00,000,43*6D
$B3CN0,0,0,0,0,0,0,0,0,0,0,0,0,0,0*4C
tow update,271273514.402509
$ini_pos,lastpos_good = 1,ini_pos.x:-1578911.000000,ini_pos.y:5312770.000000,ini_pos.z:3146351.000000
$rtc_local_time,localRTC.weeks:2052,localRTC.seconds:271273.025977,localGtime.weeks:2052,localGtime.seconds:271273.514403
i = 0
i = 1
$pseudo_cd_ph,prn:7,pseudo_cd_ph:271273303.549618
$meas,msRange:78.476908,x:12711006.125848,y:10843434.586197,z:20999044.466305,vx:-2387.229980,vy:1030.455322,vz:877.095337
i = 2
$pseudo_cd_ph,prn:8,pseudo_cd_ph:271273313.127808
$meas,msRange:68.775945,x:-5725724.346478,y:25481644.889447,z:4215584.055526,vx:-203.625763,vy:-559.429077,vz:3150.022949
i = 3
$pseudo_cd_ph,prn:9,pseudo_cd_ph:271273309.946247
$meas,msRange:72.515727,x:9434183.736609,y:18868025.224613,z:16091586.280386,vx:-431.517670,vy:2018.262085,vz:-2109.296387
i = 4
$pseudo_cd_ph,prn:16,pseudo_cd_ph:271273309.486459
$meas,msRange:72.522188,x:-12245207.799836,y:8530664.863210,z:21816466.097212,vx:-2077.941895,vy:-1884.417603,vz:-383.727722
i = 5
$pseudo_cd_ph,prn:23,pseudo_cd_ph:271273312.435619
$meas,msRange:69.424168,x:2099642.707931,y:25511172.121495,z:6562000.811564,vx:-431.843811,vy:761.137329,vz:-3011.884033
i = 6
$pseudo_cd_ph,prn:26,pseudo_cd_ph:271273303.101878
$meas,msRange:79.141005,x:-19940204.149444,y:1113659.496696,z:17573714.078599,vx:-1713.266235,vy:-1440.662354,vz:-1832.949707
i = 7
$pseudo_cd_ph,prn:27,pseudo_cd_ph:271273314.402509
$meas,msRange:67.517819,x:-11876137.054908,y:18840575.468732,z:14131682.345595,vx:26.317516,vy:-1831.383301,vz:2474.823975
i = 8
$pseudo_cd_ph,prn:31,pseudo_cd_ph:271273297.610283
$meas,msRange:84.476495,x:-25585362.102126,y:6319901.332302,z:-4857038.347124,vx:480.816925,vy:-443.594482,vz:-3067.270020
i = 9
i = 10
i = 11
i = 12
i = 13
i = 14
i = 15
i = 16
i = 17
i = 18
i = 19
$GNGGA,032055.382,2944.9157,N,10633.0926,E,1,11,1.0,339.9,M,,,,0000*13
$GNRMC,032055.382,A,2944.9157,N,10633.0926,E,0.33,0.00,080519,,*1B
$GPGSA,A,3,07,08,09,16,23,26,27,31,,,,,1.8,1.0,1.4*3C
$BDGSA,A,3,01,02,04,,,,,,,,,,1.8,1.0,1.4*29
$GLGSA,A,3,,,,,,,,,,,,,1.8,1.0,1.4*23
$GPGSV,3,1,09,04,00,000,39,07,00,000,44,08,00,000,45,09,00,000,44*7B
$GPGSV,3,2,09,16,00,000,42,23,00,000,45,26,00,000,35,27,00,000,45*76
$GPGSV,3,3,09,31,00,000,41*47
$BDGSV,2,1,06,01,00,000,40,02,00,000,40,03,00,000,20,04,00,000,40*6F
$BDGSV,2,2,06,06,00,000,40,07,00,000,43*6C
$B3CN0,0,0,0,0,0,0,0,0,0,0,0,0,0,0*4C
$ini_pos,lastpos_good = 1,ini_pos.x:-1578915.928653,ini_pos.y:5312775.779235,ini_pos.z:3146377.267044
$rtc_local_time,localRTC.weeks:2052,localRTC.seconds:271274.643930,localGtime.weeks:2052,localGtime.seconds:271275.000000
i = 0
i = 1
$pseudo_cd_ph,prn:7,pseudo_cd_ph:271274921.506953
$meas,msRange:78.474160,x:12707459.614339,y:10844965.629000,z:21000346.998895,vx:-2387.295654,vy:1030.725952,vz:876.451843
i = 2
$pseudo_cd_ph,prn:8,pseudo_cd_ph:271274931.084062
$meas,msRange:68.774219,x:-5726026.840023,y:25480813.379975,z:4220263.621328,vx:-203.609131,vy:-559.998657,vz:3149.887939
i = 3
$pseudo_cd_ph,prn:9,pseudo_cd_ph:271274927.901814
$meas,msRange:72.514600,x:9433542.833044,y:18871023.285391,z:16088452.336300,vx:-431.304993,vy:2017.906372,vz:-2109.806396
i = 4
$pseudo_cd_ph,prn:16,pseudo_cd_ph:271274927.438647
$meas,msRange:72.524139,x:-12248294.868378,y:8527865.558552,z:21815895.512699,vx:-2078.054199,vy:-1884.173462,vz:-384.427216
i = 5
$pseudo_cd_ph,prn:23,pseudo_cd_ph:271274930.389114
$meas,msRange:69.424971,x:2099001.246592,y:25512302.476175,z:6557526.207912,vx:-431.729767,vy:760.613647,vz:-3012.094727
i = 6
$pseudo_cd_ph,prn:26,pseudo_cd_ph:271274921.053760
$meas,msRange:79.143253,x:-19942749.256299,y:1111519.508739,z:17570990.642670,vx:-1713.108643,vy:-1440.317261,vz:-1833.502441
i = 7
$pseudo_cd_ph,prn:27,pseudo_cd_ph:271274932.356343
$meas,msRange:67.518275,x:-11876098.037473,y:18837854.425137,z:14135358.598782,vx:26.210070,vy:-1831.848145,vz:2474.367676
i = 8
$pseudo_cd_ph,prn:31,pseudo_cd_ph:271274915.562007
$meas,msRange:84.478964,x:-25584647.438470,y:6319242.144700,z:-4861594.964578,vx:481.305969,vy:-443.843262,vz:-3067.120605
i = 9
i = 10
i = 11
i = 12
i = 13
i = 14
i = 15
i = 16
i = 17
i = 18
i = 19
i = 20
i = 21
Refix G03: 2, 271274.914091, 802
Refix G07: 2, 271274.921507, -3999
Refix G08: 2, 271274.931084, -2950
Refix G09: 2, 271274.927902, -2284
Refix G16: 2, 271274.927439, 1009
Refix G23: 2, 271274.930389, -265
Refix G26: 2, 271274.921054, 1298
Refix G27: 2, 271274.932356, -592
Refix G31: 2, 271274.915562, 1454
$GNGGA,032057.000,2944.9119,N,10633.0890,E,1,11,1.0,338.2,M,,,,0000*14
$GNRMC,032057.000,A,2944.9119,N,10633.0890,E,0.30,0.00,080519,,*15
$GPGSA,A,3,07,08,09,16,23,26,27,31,,,,,1.3,1.0,0.9*3B
$BDGSA,A,3,01,02,04,,,,,,,,,,1.3,1.0,0.9*2E
$GLGSA,A,3,,,,,,,,,,,,,1.3,1.0,0.9*24
$GPGSV,3,1,09,04,00,000,39,07,00,000,43,08,00,000,45,09,00,000,44*7C
$GPGSV,3,2,09,16,00,000,43,23,00,000,44,26,00,000,35,27,00,000,45*76
$GPGSV,3,3,09,31,00,000,40*46
$BDGSV,2,1,05,01,00,000,41,02,00,000,40,04,00,000,40,06,00,000,40*6E
$BDGSV,2,2,05,07,00,000,43*5D
$B3CN0,0,0,0,0,0,0,0,0,0,0,0,0,0,0*4C
$ini_pos,lastpos_good = 1,ini_pos.x:-1578910.991094,ini_pos.y:5312779.429679,ini_pos.z:3146370.197314
$rtc_local_time,localRTC.weeks:2052,localRTC.seconds:271275.643930,localGtime.weeks:2052,localGtime.seconds:271276.000000
i = 0
i = 1
$pseudo_cd_ph,prn:7,pseudo_cd_ph:271275921.509458
$meas,msRange:78.472356,x:12705072.296674,y:10845996.446018,z:21001223.234108,vx:-2387.339844,vy:1030.908081,vz:876.018616
i = 2
$pseudo_cd_ph,prn:8,pseudo_cd_ph:271275931.085904
$meas,msRange:68.773068,x:-5726230.443577,y:25480253.189619,z:4223413.463812,vx:-203.597992,vy:-560.382080,vz:3149.797119
i = 3
$pseudo_cd_ph,prn:9,pseudo_cd_ph:271275927.903232
$meas,msRange:72.513878,x:9433111.599630,y:18873041.071994,z:16086342.358218,vx:-431.161865,vy:2017.666870,vz:-2110.149902
i = 4
$pseudo_cd_ph,prn:16,pseudo_cd_ph:271275927.437976
$meas,msRange:72.525536,x:-12250372.960354,y:8525981.467340,z:21815510.850065,vx:-2078.129883,vy:-1884.009033,vz:-384.898071
i = 5
$pseudo_cd_ph,prn:23,pseudo_cd_ph:271275930.389249
$meas,msRange:69.425521,x:2098569.555203,y:25513062.913540,z:6554514.042536,vx:-431.653046,vy:760.261108,vz:-3012.236328
i = 6
$pseudo_cd_ph,prn:26,pseudo_cd_ph:271275921.052898
$meas,msRange:79.144838,x:-19944462.311859,y:1110079.307581,z:17569156.954267,vx:-1713.002563,vy:-1440.085083,vz:-1833.874512
i = 7
$pseudo_cd_ph,prn:27,pseudo_cd_ph:271275932.356688
$meas,msRange:67.518642,x:-11876071.863593,y:18836022.420695,z:14137832.812891,vx:26.137686,vy:-1832.160889,vz:2474.060547
i = 8
$pseudo_cd_ph,prn:31,pseudo_cd_ph:271275915.561048
$meas,msRange:84.480626,x:-25584165.967935,y:6318798.217709,z:-4864662.034621,vx:481.635132,vy:-444.010773,vz:-3067.019775
i = 9
i = 10
i = 11
i = 12
i = 13
i = 14
i = 15
i = 16
i = 17
i = 18
i = 19
i = 20
i = 21
i = 22
i = 23
i = 24
Refix G03: 2, 271275.914091, 802
Refix G07: 2, 271275.921509, -3999
Refix G08: 2, 271275.931086, -2949
Refix G09: 2, 271275.927903, -2283
Refix G16: 2, 271275.927438, 1009
Refix G23: 2, 271275.930389, -264
Refix G26: 2, 271275.921053, 1299
Refix G27: 2, 271275.932357, -591
Refix G31: 2, 271275.915561, 1454
$GNGGA,032058.000,2944.9099,N,10633.0890,E,1,13,0.8,333.8,M,,,,0000*18
$GNRMC,032058.000,A,2944.9099,N,10633.0890,E,0.27,0.00,080519,,*15
$GPGSA,A,3,07,08,09,16,23,26,27,31,,,,,1.0,0.8,0.6*3E
$BDGSA,A,3,01,02,04,06,07,,,,,,,,1.0,0.8,0.6*2A
$GLGSA,A,3,,,,,,,,,,,,,1.0,0.8,0.6*21
$GPGSV,3,1,10,04,00,000,40,07,25,314,43,08,62,190,45,09,43,293,44*78
$GPGSV,3,2,10,16,42,035,43,23,57,236,44,26,20,057,35,27,71,074,45*7E
$GPGSV,3,3,10,31,06,115,40,03,00,207,00*7B
$BDGSV,3,1,12,01,40,125,40,02,45,218,41,03,54,172,19,04,23,109,40*64
$BDGSV,3,2,12,06,30,177,40,07,61,019,43,27,57,141,22,28,38,057,22*65
$BDGSV,3,3,12,05,27,244,00,09,52,206,00,10,60,319,00,16,35,184,00*63
$B3CN0,0,0,0,0,0,0,0,0,0,0,0,0,0,0*4C
$ini_pos,lastpos_good = 1,ini_pos.x:-1578910.518704,ini_pos.y:5312777.478019,ini_pos.z:3146364.960179
$rtc_local_time,localRTC.weeks:2052,localRTC.seconds:271276.643930,localGtime.weeks:2052,localGtime.seconds:271277.000000
i = 0
i = 1
$pseudo_cd_ph,prn:7,pseudo_cd_ph:271276921.511966
$meas,msRange:78.470562,x:12702684.934895,y:10847027.445201,z:21002099.036121,vx:-2387.383789,vy:1031.090332,vz:875.585449
i = 2
$pseudo_cd_ph,prn:8,pseudo_cd_ph:271276931.087745
$meas,msRange:68.771933,x:-5726434.036024,y:25479692.615852,z:4226563.215348,vx:-203.586914,vy:-560.765503,vz:3149.706055
i = 3
$pseudo_cd_ph,prn:9,pseudo_cd_ph:271276927.904650
$meas,msRange:72.513171,x:9432680.509334,y:18875058.619083,z:16084232.036788,vx:-431.018768,vy:2017.427368,vz:-2110.493164
i = 4
$pseudo_cd_ph,prn:16,pseudo_cd_ph:271276927.437305
$meas,msRange:72.526924,x:-12252451.127901,y:8524097.540568,z:21815125.716598,vx:-2078.205322,vy:-1883.844604,vz:-385.368896
i = 5
$pseudo_cd_ph,prn:23,pseudo_cd_ph:271276930.389387
$meas,msRange:69.426092,x:2098137.940512,y:25513822.998356,z:6551501.735535,vx:-431.576385,vy:759.908569,vz:-3012.377930
i = 6
$pseudo_cd_ph,prn:26,pseudo_cd_ph:271276921.052035
$meas,msRange:79.146404,x:-19946175.261276,y:1108639.338656,z:17567322.893852,vx:-1712.896362,vy:-1439.852905,vz:-1834.246460
i = 7
$pseudo_cd_ph,prn:27,pseudo_cd_ph:271276932.357032
$meas,msRange:67.519011,x:-11876045.762119,y:18834190.103470,z:14140306.719860,vx:26.065256,vy:-1832.473633,vz:2473.753418
i = 8
$pseudo_cd_ph,prn:31,pseudo_cd_ph:271276915.560091
$meas,msRange:84.482276,x:-25583684.168264,y:6318354.123191,z:-4867729.003877,vx:481.964233,vy:-444.178314,vz:-3066.918945
i = 9
i = 10
i = 11
i = 12
i = 13
i = 14
i = 15
i = 16
i = 17
i = 18
i = 19
i = 20
i = 21
i = 22
i = 23
i = 24
Refix G03: 2, 271276.914090, 801
Refix G07: 2, 271276.921512, -3998
Refix G08: 2, 271276.931088, -2949
Refix G09: 2, 271276.927905, -2283
Refix G16: 2, 271276.927437, 1010
Refix G23: 2, 271276.930389, -263
Refix G26: 2, 271276.921052, 1299
Refix G27: 2, 271276.932357, -590
Refix G31: 2, 271276.915560, 1455
$GNGGA,032059.000,2944.9097,N,10633.0890,E,1,13,0.8,333.3,M,,,,0000*1C
$GNRMC,032059.000,A,2944.9097,N,10633.0890,E,0.26,0.00,080519,,*1B
$GPGSA,A,3,07,08,09,16,23,26,27,31,,,,,1.0,0.8,0.6*3E
$BDGSA,A,3,01,02,04,06,07,,,,,,,,1.0,0.8,0.6*2A
$GLGSA,A,3,,,,,,,,,,,,,1.0,0.8,0.6*21
$GPGSV,3,1,11,04,00,000,38,07,25,314,44,08,62,190,45,09,43,293,44*71
$GPGSV,3,2,11,16,42,035,42,23,57,236,44,26,20,057,35,27,71,074,45*7E
$GPGSV,3,3,11,31,06,115,39,18,00,000,22,03,00,207,00*4D
$BDGSV,3,1,12,01,40,125,41,02,45,218,40,04,23,109,40,06,30,177,40*6A
$BDGSV,3,2,12,07,61,019,43,27,57,141,46,28,38,057,45,03,54,172,00*60
$BDGSV,3,3,12,05,27,244,00,09,52,206,00,10,60,319,00,16,35,184,00*63
$B3CN0,0,0,0,0,0,0,0,0,0,0,0,0,0,0*4C
$ini_pos,lastpos_good = 1,ini_pos.x:-1578910.450263,ini_pos.y:5312777.221918,ini_pos.z:3146364.321428
$rtc_local_time,localRTC.weeks:2052,localRTC.seconds:271277.643930,localGtime.weeks:2052,localGtime.seconds:271278.000000
i = 0
i = 1
$pseudo_cd_ph,prn:7,pseudo_cd_ph:271277921.514470
$meas,msRange:78.468755,x:12700297.529065,y:10848058.626541,z:21002974.404917,vx:-2387.427979,vy:1031.272461,vz:875.152222
i = 2
$pseudo_cd_ph,prn:8,pseudo_cd_ph:271277931.089587
$meas,msRange:68.770792,x:-5726637.617416,y:25479131.658683,z:4229712.875871,vx:-203.575882,vy:-561.148865,vz:3149.614990
i = 3
$pseudo_cd_ph,prn:9,pseudo_cd_ph:271277927.906065
$meas,msRange:72.512454,x:9432249.562126,y:18877075.926606,z:16082121.372055,vx:-430.875671,vy:2017.187744,vz:-2110.836426
i = 4
$pseudo_cd_ph,prn:16,pseudo_cd_ph:271277927.436632
$meas,msRange:72.528297,x:-12254529.370962,y:8522213.778278,z:21814740.112307,vx:-2078.280762,vy:-1883.680054,vz:-385.839722
i = 5
$pseudo_cd_ph,prn:23,pseudo_cd_ph:271277930.389523
$meas,msRange:69.426655,x:2097706.402474,y:25514582.730597,z:6548489.286973,vx:-431.499725,vy:759.555969,vz:-3012.519531
i = 6
$pseudo_cd_ph,prn:26,pseudo_cd_ph:271277921.051172
$meas,msRange:79.147960,x:-19947888.104488,y:1107199.601972,z:17565488.461465,vx:-1712.790161,vy:-1439.620605,vz:-1834.618408
i = 7
$pseudo_cd_ph,prn:27,pseudo_cd_ph:271277932.357377
$meas,msRange:67.519367,x:-11876019.733098,y:18832357.473505,z:14142780.319636,vx:25.992781,vy:-1832.786377,vz:2473.446289
i = 8
$pseudo_cd_ph,prn:31,pseudo_cd_ph:271277915.559137
$meas,msRange:84.483931,x:-25583202.039486,y:6317909.861106,z:-4870795.872282,vx:482.293335,vy:-444.345886,vz:-3066.818115
i = 9
i = 10
i = 11
i = 12
i = 13
i = 14
i = 15
i = 16
i = 17
i = 18
i = 19
i = 20
i = 21
i = 22
i = 23
i = 24
i = 25
i = 26
Refix G03: 2, 271277.914090, 802
Refix G07: 2, 271277.921514, -3998
Refix G08: 2, 271277.931090, -2947
Refix G09: 2, 271277.927906, -2281
Refix G16: 2, 271277.927437, 1011
Refix G23: 2, 271277.930390, -262
Refix G26: 2, 271277.921051, 1300
Refix G27: 2, 271277.932357, -589
Refix G31: 2, 271277.915559, 1456
$GNGGA,032100.000,2944.9095,N,10633.0891,E,1,13,0.8,332.7,M,,,,0000*17
$GNRMC,032100.000,A,2944.9095,N,10633.0891,E,0.13,0.00,080519,,*13
$GPGSA,A,3,07,08,09,16,23,26,27,31,,,,,1.0,0.8,0.6*3E
$BDGSA,A,3,01,02,04,06,07,,,,,,,,1.0,0.8,0.6*2A
$GLGSA,A,3,,,,,,,,,,,,,1.0,0.8,0.6*21
$GPGSV,3,1,11,04,00,000,39,07,25,314,44,08,62,190,45,09,43,293,45*71
$GPGSV,3,2,11,16,42,035,42,23,57,236,44,26,20,057,35,27,71,074,45*7E
$GPGSV,3,3,11,31,06,115,40,18,00,000,37,03,00,207,00*47
$BDGSV,3,1,12,01,40,125,41,02,45,218,40,03,54,172,18,04,23,109,40*65
$BDGSV,3,2,12,06,30,177,40,07,61,019,42,27,57,141,45,28,38,057,43*62
$BDGSV,3,3,12,05,27,244,00,09,52,206,00,10,60,319,00,16,35,184,00*63
$B3CN0,0,0,0,0,0,0,0,0,0,0,0,0,0,0*4C
$ini_pos,lastpos_good = 1,ini_pos.x:-1578910.492543,ini_pos.y:5312776.910854,ini_pos.z:3146363.636295
$rtc_local_time,localRTC.weeks:2052,localRTC.seconds:271278.643930,localGtime.weeks:2052,localGtime.seconds:271279.000000
i = 0
i = 1
$pseudo_cd_ph,prn:7,pseudo_cd_ph:271278921.516978
$meas,msRange:78.466948,x:12697910.079245,y:10849089.990026,z:21003849.340474,vx:-2387.471924,vy:1031.454590,vz:874.718933
i = 2
$pseudo_cd_ph,prn:8,pseudo_cd_ph:271278931.091430
$meas,msRange:68.769651,x:-5726841.187807,y:25478570.318120,z:4232862.445312,vx:-203.564911,vy:-561.532288,vz:3149.523926
i = 3
$pseudo_cd_ph,prn:9,pseudo_cd_ph:271278927.907482
$meas,msRange:72.511737,x:9431818.757979,y:18879092.994509,z:16080010.364064,vx:-430.732635,vy:2016.948120,vz:-2111.179688
i = 4
$pseudo_cd_ph,prn:16,pseudo_cd_ph:271278927.435957
$meas,msRange:72.529671,x:-12256607.689480,y:8520330.180513,z:21814354.037202,vx:-2078.356201,vy:-1883.515503,vz:-386.310516
i = 5
$pseudo_cd_ph,prn:23,pseudo_cd_ph:271278930.389660
$meas,msRange:69.427219,x:2097274.941045,y:25515342.110237,z:6545476.696915,vx:-431.423157,vy:759.203369,vz:-3012.660889
i = 6
$pseudo_cd_ph,prn:26,pseudo_cd_ph:271278921.050309
$meas,msRange:79.149517,x:-19949600.841437,y:1105760.097536,z:17563653.657144,vx:-1712.683838,vy:-1439.388306,vz:-1834.990356
i = 7
$pseudo_cd_ph,prn:27,pseudo_cd_ph:271278932.357721
$meas,msRange:67.519724,x:-11875993.776575,y:18830524.530840,z:14145253.612164,vx:25.920258,vy:-1833.098999,vz:2473.138916
i = 8
$pseudo_cd_ph,prn:31,pseudo_cd_ph:271278915.558182
$meas,msRange:84.485584,x:-25582719.581634,y:6317465.431411,z:-4873862.639773,vx:482.622406,vy:-444.513519,vz:-3066.717041
i = 9
i = 10
i = 11
i = 12
i = 13
i = 14
i = 15
i = 16
i = 17
i = 18
i = 19
i = 20
i = 21
i = 22
i = 23
i = 24
i = 25
i = 26
i = 27
Refix G03: 2, 271278.914089, 801
Refix G07: 2, 271278.921517, -3999
Refix G08: 2, 271278.931091, -2947
Refix G09: 2, 271278.927907, -2282
Refix G16: 2, 271278.927436, 1010
Refix G23: 2, 271278.930390, -262
Refix G26: 2, 271278.921050, 1299
Refix G27: 2, 271278.932358, -589
Refix G31: 2, 271278.915558, 1456
$GNGGA,032101.000,2944.9093,N,10633.0892,E,1,13,0.8,332.2,M,,,,0000*16
$GNRMC,032101.000,A,2944.9093,N,10633.0892,E,0.19,0.00,080519,,*1D
$GPGSA,A,3,07,08,09,16,23,26,27,31,,,,,1.0,0.8,0.6*3E
$BDGSA,A,3,01,02,04,06,07,,,,,,,,1.0,0.8,0.6*2A
$GLGSA,A,3,,,,,,,,,,,,,1.0,0.8,0.6*21
$GPGSV,3,1,11,04,00,000,39,07,25,314,44,08,62,190,46,09,43,293,45*72
$GPGSV,3,2,11,16,42,035,43,23,57,236,45,26,20,057,36,27,71,074,46*7E
$GPGSV,3,3,11,31,06,115,40,18,00,000,37,03,00,207,00*47
$BDGSV,3,1,12,01,40,125,41,02,45,218,40,04,23,109,39,05,27,244,38*6D
$BDGSV,3,2,12,06,30,177,40,07,61,019,43,09,52,206,39,10,60,319,36*6C
$BDGSV,3,3,12,27,57,141,45,28,38,057,44,03,54,172,00,16,35,184,00*60
$B3CN0,0,0,0,0,0,0,0,0,0,0,0,0,0,0*4C
$ini_pos,lastpos_good = 1,ini_pos.x:-1578910.527630,ini_pos.y:5312776.561998,ini_pos.z:3146363.188562
$rtc_local_time,localRTC.weeks:2052,localRTC.seconds:271279.643930,localGtime.weeks:2052,localGtime.seconds:271280.000000
i = 0
i = 1
$pseudo_cd_ph,prn:7,pseudo_cd_ph:271279921.519484
$meas,msRange:78.465141,x:12695522.585498,y:10850121.535647,z:21004723.842775,vx:-2387.515869,vy:1031.636719,vz:874.285706
i = 2
$pseudo_cd_ph,prn:8,pseudo_cd_ph:271279931.093272
$meas,msRange:68.768510,x:-5727044.747249,y:25478008.594170,z:4236011.923604,vx:-203.553986,vy:-561.915649,vz:3149.432861
i = 3
$pseudo_cd_ph,prn:9,pseudo_cd_ph:271279927.908899
$meas,msRange:72.511019,x:9431388.096865,y:18881109.822740,z:16077899.012860,vx:-430.589630,vy:2016.708496,vz:-2111.522949
i = 4
$pseudo_cd_ph,prn:16,pseudo_cd_ph:271279927.435284
$meas,msRange:72.531043,x:-12258686.083398,y:8518446.747316,z:21813967.491294,vx:-2078.431641,vy:-1883.350952,vz:-386.781311
i = 5
$pseudo_cd_ph,prn:23,pseudo_cd_ph:271279930.389796
$meas,msRange:69.427784,x:2096843.556180,y:25516101.137249,z:6542463.965424,vx:-431.346619,vy:758.850708,vz:-3012.802246
i = 6
$pseudo_cd_ph,prn:26,pseudo_cd_ph:271279921.049450
$meas,msRange:79.151072,x:-19951313.472060,y:1104320.825355,z:17561818.480930,vx:-1712.577515,vy:-1439.156128,vz:-1835.362183
i = 7
$pseudo_cd_ph,prn:27,pseudo_cd_ph:271279932.358065
$meas,msRange:67.520081,x:-11875967.892598,y:18828691.275517,z:14147726.597392,vx:25.847691,vy:-1833.411743,vz:2472.831543
i = 8
$pseudo_cd_ph,prn:31,pseudo_cd_ph:271279915.557228
$meas,msRange:84.487239,x:-25582236.794739,y:6317020.834067,z:-4876929.306285,vx:482.951416,vy:-444.681183,vz:-3066.616211
i = 9
i = 10
i = 11
i = 12
i = 13
i = 14
i = 15
i = 16
i = 17
i = 18
i = 19
i = 20
i = 21
i = 22
i = 23
i = 24
i = 25
i = 26
i = 27
i = 28
Refix G03: 2, 271279.914088, 802
Refix G07: 2, 271279.921519, -3997
Refix G08: 2, 271279.931093, -2946
Refix G09: 2, 271279.927909, -2279
Refix G16: 2, 271279.927435, 1011
Refix G23: 2, 271279.930390, -260
Refix G26: 2, 271279.921049, 1300
Refix G27: 2, 271279.932358, -587
Refix G31: 2, 271279.915557, 1456
$GNGGA,032102.000,2944.9091,N,10633.0894,E,1,13,0.8,332.0,M,,,,0000*13
$GNRMC,032102.000,A,2944.9091,N,10633.0894,E,0.26,0.00,080519,,*16
$GPGSA,A,3,07,08,09,16,23,26,27,31,,,,,1.0,0.8,0.6*3E
$BDGSA,A,3,01,02,04,06,07,,,,,,,,1.0,0.8,0.6*2A
$GLGSA,A,3,,,,,,,,,,,,,1.0,0.8,0.6*21
$GPGSV,3,1,11,04,00,000,39,07,25,314,44,08,62,190,46,09,43,293,44*73
$GPGSV,3,2,11,16,42,035,43,23,57,236,45,26,20,057,36,27,71,074,45*7D
$GPGSV,3,3,11,31,06,115,40,18,00,000,37,03,00,207,00*47
$BDGSV,3,1,12,01,40,125,40,02,45,218,40,04,23,109,39,05,27,244,40*63
$BDGSV,3,2,12,06,30,177,40,07,61,019,43,09,52,206,42,10,60,319,42*63
$BDGSV,3,3,12,27,57,141,44,28,38,057,44,03,54,172,00,16,35,184,00*61
$B3CN0,0,0,0,0,0,0,0,0,0,0,0,0,0,0*4C
$ini_pos,lastpos_good = 1,ini_pos.x:-1578910.837247,ini_pos.y:5312776.505253,ini_pos.z:3146362.804521
$rtc_local_time,localRTC.weeks:2052,localRTC.seconds:271280.643930,localGtime.weeks:2052,localGtime.seconds:271281.000000
i = 0
i = 1
$pseudo_cd_ph,prn:7,pseudo_cd_ph:271280921.521991
$meas,msRange:78.463334,x:12693135.047886,y:10851153.263393,z:21005597.911799,vx:-2387.559570,vy:1031.818848,vz:873.852417
i = 2
$pseudo_cd_ph,prn:8,pseudo_cd_ph:271280931.095112
$meas,msRange:68.767369,x:-5727248.295795,y:25477446.486842,z:4239161.310678,vx:-203.543121,vy:-562.299011,vz:3149.341553
i = 3
$pseudo_cd_ph,prn:9,pseudo_cd_ph:271280927.910317
$meas,msRange:72.510303,x:9430957.578755,y:18883126.411245,z:16075787.318488,vx:-430.446625,vy:2016.468628,vz:-2111.865967
i = 4
$pseudo_cd_ph,prn:16,pseudo_cd_ph:271280927.434611
$meas,msRange:72.532415,x:-12260764.552661,y:8516563.478727,z:21813580.474593,vx:-2078.507080,vy:-1883.186279,vz:-387.252106
i = 5
$pseudo_cd_ph,prn:23,pseudo_cd_ph:271280930.389929
$meas,msRange:69.428348,x:2096412.247834,y:25516859.811606,z:6539451.092566,vx:-431.270111,vy:758.498047,vz:-3012.943604
i = 6
$pseudo_cd_ph,prn:26,pseudo_cd_ph:271280921.048586
$meas,msRange:79.152628,x:-19953025.996298,y:1102881.785437,z:17559982.932861,vx:-1712.471069,vy:-1438.923828,vz:-1835.734009
i = 7
$pseudo_cd_ph,prn:27,pseudo_cd_ph:271280932.358407
$meas,msRange:67.520437,x:-11875942.081212,y:18826857.707575,z:14150199.275267,vx:25.775076,vy:-1833.724243,vz:2472.524170
i = 8
$pseudo_cd_ph,prn:31,pseudo_cd_ph:271280915.556269
$meas,msRange:84.488892,x:-25581753.678832,y:6316576.069031,z:-4879995.871756,vx:483.280426,vy:-444.848907,vz:-3066.515137
i = 9
i = 10
i = 11
i = 12
i = 13
i = 14
i = 15
i = 16
i = 17
i = 18
i = 19
i = 20
i = 21
i = 22
i = 23
i = 24
i = 25
i = 26
i = 27
i = 28
Refix G03: 2, 271280.914088, 802
Refix G07: 2, 271280.921522, -3998
Refix G08: 2, 271280.931095, -2945
Refix G09: 2, 271280.927910, -2279
Refix G16: 2, 271280.927435, 1012
Refix G23: 2, 271280.930390, -260
Refix G26: 2, 271280.921049, 1301
Refix G27: 2, 271280.932358, -586
Refix G31: 2, 271280.915556, 1458
$GNGGA,032103.000,2944.9091,N,10633.0895,E,1,14,0.8,332.3,M,,,,0000*17
$GNRMC,032103.000,A,2944.9091,N,10633.0895,E,0.11,0.00,080519,,*12
$GPGSA,A,3,07,08,09,16,23,26,27,31,,,,,1.0,0.8,0.6*3E
$BDGSA,A,3,01,02,04,05,06,07,,,,,,,1.0,0.8,0.6*2F
$GLGSA,A,3,,,,,,,,,,,,,1.0,0.8,0.6*21
$GPGSV,3,1,11,04,00,000,38,07,25,314,44,08,62,190,45,09,43,293,45*70
$GPGSV,3,2,11,16,42,035,42,23,57,236,45,26,20,057,37,27,71,074,45*7D
$GPGSV,3,3,11,31,06,115,39,18,00,000,37,03,00,207,00*49
$BDGSV,3,1,12,01,40,125,41,02,45,218,41,03,54,172,21,04,23,109,40*6E
$BDGSV,3,2,12,05,27,244,38,06,30,177,40,07,61,019,43,09,52,206,42*60
$BDGSV,3,3,12,10,60,319,42,30,00,000,25,27,57,141,44,28,38,057,44*65
$B3CN0,0,0,0,0,0,0,0,0,0,0,0,0,0,0*4C
$ini_pos,lastpos_good = 1,ini_pos.x:-1578911.072397,ini_pos.y:5312776.712400,ini_pos.z:3146362.842007
$rtc_local_time,localRTC.weeks:2052,localRTC.seconds:271281.643930,localGtime.weeks:2052,localGtime.seconds:271282.000000
i = 0
i = 1
$pseudo_cd_ph,prn:7,pseudo_cd_ph:271281921.524498
$meas,msRange:78.461526,x:12690747.466472,y:10852185.173255,z:21006471.547527,vx:-2387.603271,vy:1032.000977,vz:873.419128
i = 2
$pseudo_cd_ph,prn:8,pseudo_cd_ph:271281931.096950
$meas,msRange:68.766227,x:-5727451.833497,y:25476883.996144,z:4242310.606467,vx:-203.532303,vy:-562.682373,vz:3149.250244
i = 3
$pseudo_cd_ph,prn:9,pseudo_cd_ph:271281927.911731
$meas,msRange:72.509584,x:9430527.203622,y:18885142.759971,z:16073675.280993,vx:-430.303680,vy:2016.228882,vz:-2112.209229
i = 4
$pseudo_cd_ph,prn:16,pseudo_cd_ph:271281927.433936
$meas,msRange:72.533786,x:-12262843.097210,y:8514680.374791,z:21813192.987110,vx:-2078.582275,vy:-1883.021606,vz:-387.722870
i = 5
$pseudo_cd_ph,prn:23,pseudo_cd_ph:271281930.390062
$meas,msRange:69.428911,x:2095981.015963,y:25517618.133283,z:6536438.078404,vx:-431.193665,vy:758.145325,vz:-3013.084961
i = 6
$pseudo_cd_ph,prn:26,pseudo_cd_ph:271281921.047723
$meas,msRange:79.154182,x:-19954738.414091,y:1101442.977789,z:17558147.012978,vx:-1712.364624,vy:-1438.691528,vz:-1836.105835
i = 7
$pseudo_cd_ph,prn:27,pseudo_cd_ph:271281932.358748
$meas,msRange:67.520792,x:-11875916.342464,y:18825023.827057,z:14152671.645733,vx:25.702415,vy:-1834.036865,vz:2472.216797
i = 8
$pseudo_cd_ph,prn:31,pseudo_cd_ph:271281915.555312
$meas,msRange:84.490546,x:-25581270.233945,y:6316131.136262,z:-4883062.336121,vx:483.609375,vy:-445.016663,vz:-3066.413818
i = 9
i = 10
i = 11
i = 12
i = 13
i = 14
i = 15
i = 16
i = 17
i = 18
i = 19
i = 20
i = 21
i = 22
i = 23
i = 24
i = 25
i = 26
i = 27
i = 28
i = 29
Refix G03: 2, 271281.914087, 803
Refix G07: 2, 271281.921524, -3995
Refix G08: 2, 271281.931097, -2942
Refix G09: 2, 271281.927912, -2276
Refix G16: 2, 271281.927434, 1015
Refix G23: 2, 271281.930390, -256
Refix G26: 2, 271281.921048, 1303
Refix G27: 2, 271281.932359, -583
Refix G31: 2, 271281.915555, 1459
$GNGGA,032104.000,2944.9088,N,10633.0895,E,1,18,0.7,331.7,M,,,,0000*1C
$GNRMC,032104.000,A,2944.9088,N,10633.0895,E,0.11,0.00,080519,,*1D
$GPGSA,A,3,07,08,09,16,23,26,27,31,,,,,0.8,0.7,0.4*3A
$BDGSA,A,3,01,02,04,05,06,07,09,10,27,28,,,0.8,0.7,0.4*2C
$GLGSA,A,3,,,,,,,,,,,,,0.8,0.7,0.4*25
$GPGSV,3,1,11,04,00,000,38,07,25,314,44,08,62,190,45,09,43,293,45*70
$GPGSV,3,2,11,16,42,035,43,23,57,236,45,26,20,057,37,27,71,074,45*7C
$GPGSV,3,3,11,31,06,115,39,18,00,000,37,03,00,207,00*49
$BDGSV,3,1,12,01,40,125,41,02,45,218,39,03,54,172,19,04,23,109,40*6A
$BDGSV,3,2,12,05,27,244,39,06,30,177,40,07,61,019,43,09,52,206,41*62
$BDGSV,3,3,12,10,60,319,42,30,00,000,43,27,57,141,44,28,38,057,44*65
$B3CN0,0,0,0,0,0,0,0,0,0,0,0,0,0,0*4C
$ini_pos,lastpos_good = 1,ini_pos.x:-1578910.956972,ini_pos.y:5312776.430709,ini_pos.z:3146362.090666
$rtc_local_time,localRTC.weeks:2052,localRTC.seconds:271282.643930,localGtime.weeks:2052,localGtime.seconds:271283.000000
i = 0
i = 1
$pseudo_cd_ph,prn:7,pseudo_cd_ph:271282921.527003
$meas,msRange:78.459719,x:12688359.841317,y:10853217.265222,z:21007344.749940,vx:-2387.646973,vy:1032.183105,vz:872.985779
i = 2
$pseudo_cd_ph,prn:8,pseudo_cd_ph:271282931.098786
$meas,msRange:68.765088,x:-5727655.360408,y:25476321.122083,z:4245459.810904,vx:-203.521545,vy:-563.065735,vz:3149.158936
i = 3
$pseudo_cd_ph,prn:9,pseudo_cd_ph:271282927.913144
$meas,msRange:72.508869,x:9430096.971438,y:18887158.868865,z:16071562.900421,vx:-430.160736,vy:2015.989014,vz:-2112.552246
i = 4
$pseudo_cd_ph,prn:16,pseudo_cd_ph:271282927.433262
$meas,msRange:72.535160,x:-12264921.716991,y:8512797.435549,z:21812805.028854,vx:-2078.657471,vy:-1882.856934,vz:-388.193665
i = 5
$pseudo_cd_ph,prn:23,pseudo_cd_ph:271282930.390194
$meas,msRange:69.429476,x:2095549.860521,y:25518376.102252,z:6533424.923002,vx:-431.117249,vy:757.792603,vz:-3013.226074
i = 6
$pseudo_cd_ph,prn:26,pseudo_cd_ph:271282921.046863
$meas,msRange:79.155739,x:-19956450.725377,y:1100004.402418,z:17556310.721319,vx:-1712.258057,vy:-1438.459229,vz:-1836.477539
i = 7
$pseudo_cd_ph,prn:27,pseudo_cd_ph:271282932.359086
$meas,msRange:67.521151,x:-11875890.676399,y:18823189.634003,z:14155143.708739,vx:25.629709,vy:-1834.349365,vz:2471.909424
i = 8
$pseudo_cd_ph,prn:31,pseudo_cd_ph:271282915.554353
$meas,msRange:84.492201,x:-25580786.460110,y:6315686.035719,z:-4886128.699318,vx:483.938324,vy:-445.184448,vz:-3066.312744
i = 9
i = 10
i = 11
i = 12
i = 13
i = 14
i = 15
i = 16
i = 17
i = 18
i = 19
i = 20
i = 21
i = 22
i = 23
i = 24
i = 25
i = 26
i = 27
i = 28
Refix G03: 2, 271282.914087, 805
Refix G07: 2, 271282.921527, -3992
Refix G08: 2, 271282.931099, -2938
Refix G09: 2, 271282.927913, -2272
Refix G16: 2, 271282.927433, 1017
Refix G23: 2, 271282.930390, -253
Refix G26: 2, 271282.921047, 1305
Refix G27: 2, 271282.932359, -579
Refix G31: 2, 271282.915554, 1462
$GNGGA,032105.000,2944.9086,N,10633.0896,E,1,18,0.7,331.1,M,,,,0000*16
$GNRMC,032105.000,A,2944.9086,N,10633.0896,E,0.20,0.00,080519,,*13
$GPGSA,A,3,07,08,09,16,23,26,27,31,,,,,0.8,0.7,0.4*3A
$BDGSA,A,3,01,02,04,05,06,07,09,10,27,28,,,0.8,0.7,0.4*2C
$GLGSA,A,3,,,,,,,,,,,,,0.8,0.7,0.4*25
$GPGSV,3,1,11,04,00,000,39,07,25,314,45,08,62,190,46,09,43,293,44*72
$GPGSV,3,2,11,16,42,035,43,23,57,236,44,26,20,057,36,27,71,074,45*7C
$GPGSV,3,3,11,31,06,115,39,18,00,000,37,03,00,207,00*49
$BDGSV,3,1,12,01,40,125,41,02,45,218,40,04,23,109,40,05,27,244,38*63
$BDGSV,3,2,12,06,30,177,40,07,61,019,43,09,52,206,41,10,60,319,42*60
$BDGSV,3,3,12,30,00,000,42,27,57,141,44,28,38,057,44,03,54,172,00*68
$B3CN0,18,0,0,0,0,0,0,0,0,0,0,0,0,0*75
$ini_pos,lastpos_good = 1,ini_pos.x:-1578911.001471,ini_pos.y:5312776.097693,ini_pos.z:3146361.464437
$rtc_local_time,localRTC.weeks:2052,localRTC.seconds:271283.643930,localGtime.weeks:2052,localGtime.seconds:271284.000000
i = 0
i = 1
$pseudo_cd_ph,prn:7,pseudo_cd_ph:271283921.529507
$meas,msRange:78.457912,x:12685972.172485,y:10854249.539285,z:21008217.519019,vx:-2387.690674,vy:1032.365112,vz:872.552429
i = 2
$pseudo_cd_ph,prn:8,pseudo_cd_ph:271283931.100621
$meas,msRange:68.763949,x:-5727858.876582,y:25475757.864667,z:4248608.923920,vx:-203.510834,vy:-563.449097,vz:3149.067383
i = 3
$pseudo_cd_ph,prn:9,pseudo_cd_ph:271283927.914558
$meas,msRange:72.508154,x:9429666.882174,y:18889174.737875,z:16069450.176817,vx:-430.017822,vy:2015.749146,vz:-2112.895264
i = 4
$pseudo_cd_ph,prn:16,pseudo_cd_ph:271283927.432589
$meas,msRange:72.536533,x:-12267000.411944,y:8510914.661044,z:21812416.599837,vx:-2078.732666,vy:-1882.692139,vz:-388.664398
i = 5
$pseudo_cd_ph,prn:23,pseudo_cd_ph:271283930.390326
$meas,msRange:69.430042,x:2095118.781466,y:25519133.718487,z:6530411.626427,vx:-431.040894,vy:757.439880,vz:-3013.367188
i = 6
$pseudo_cd_ph,prn:26,pseudo_cd_ph:271283921.046010
$meas,msRange:79.157295,x:-19958162.930097,y:1098566.059331,z:17554474.057924,vx:-1712.151489,vy:-1438.226929,vz:-1836.849365
i = 7
$pseudo_cd_ph,prn:27,pseudo_cd_ph:271283932.359424
$meas,msRange:67.521510,x:-11875865.083063,y:18821355.128454,z:14157615.464230,vx:25.556955,vy:-1834.661865,vz:2471.601807
i = 8
$pseudo_cd_ph,prn:31,pseudo_cd_ph:271283915.553397
$meas,msRange:84.493855,x:-25580302.357357,y:6315240.767361,z:-4889194.961281,vx:484.267212,vy:-445.352295,vz:-3066.211426
i = 9
i = 10
i = 11
i = 12
i = 13
i = 14
i = 15
i = 16
i = 17
i = 18
i = 19
i = 20
i = 21
i = 22
i = 23
i = 24
i = 25
i = 26
i = 27
i = 28
i = 29
Refix G03: 2, 271283.914086, 801
Refix G07: 2, 271283.921529, -3997
Refix G08: 2, 271283.931101, -2943
Refix G09: 2, 271283.927915, -2277
Refix G16: 2, 271283.927433, 1013
Refix G23: 2, 271283.930390, -257
Refix G26: 2, 271283.921046, 1301
Refix G27: 2, 271283.932359, -584
Refix G31: 2, 271283.915553, 1458
$GNGGA,032106.000,2944.9085,N,10633.0895,E,1,18,0.7,330.6,M,,,,0000*13
$GNRMC,032106.000,A,2944.9085,N,10633.0895,E,0.18,0.00,080519,,*1B
$GPGSA,A,3,07,08,09,16,23,26,27,31,,,,,0.8,0.7,0.4*3A
$BDGSA,A,3,01,02,04,05,06,07,09,10,27,28,,,0.8,0.7,0.4*2C
$GLGSA,A,3,,,,,,,,,,,,,0.8,0.7,0.4*25
$GPGSV,3,1,11,04,00,000,40,07,25,314,43,08,62,190,45,09,43,293,45*78
$GPGSV,3,2,11,16,42,035,43,23,57,236,44,26,20,057,37,27,71,074,45*7D
$GPGSV,3,3,11,31,06,115,39,18,00,000,37,03,00,207,00*49
$BDGSV,3,1,12,01,40,125,41,02,45,218,40,03,54,172,21,04,23,109,40*6F
$BDGSV,3,2,12,05,27,244,38,06,30,177,40,07,61,019,43,09,52,206,42*60
$BDGSV,3,3,12,10,60,319,42,30,00,000,42,27,57,141,45,28,38,057,44*65
$B3CN0,0,0,0,0,0,0,0,0,0,0,0,0,0,0*4C
$ini_pos,lastpos_good = 1,ini_pos.x:-1578910.857242,ini_pos.y:5312775.861299,ini_pos.z:3146360.993867
$rtc_local_time,localRTC.weeks:2052,localRTC.seconds:271284.643930,localGtime.weeks:2052,localGtime.seconds:271285.000000
i = 0
i = 1
$pseudo_cd_ph,prn:7,pseudo_cd_ph:271284921.532014
$meas,msRange:78.456104,x:12683584.460036,y:10855281.995433,z:21009089.854743,vx:-2387.734375,vy:1032.547241,vz:872.119080
i = 2
$pseudo_cd_ph,prn:8,pseudo_cd_ph:271284931.102459
$meas,msRange:68.762810,x:-5728062.382070,y:25475194.223906,z:4251757.945448,vx:-203.500168,vy:-563.832458,vz:3148.975830
i = 3
$pseudo_cd_ph,prn:9,pseudo_cd_ph:271284927.915977
$meas,msRange:72.507438,x:9429236.935803,y:18891190.366946,z:16067337.110225,vx:-429.874939,vy:2015.509155,vz:-2113.238037
i = 4
$pseudo_cd_ph,prn:16,pseudo_cd_ph:271284927.431917
$meas,msRange:72.537907,x:-12269079.182016,y:8509032.051318,z:21812027.700068,vx:-2078.807617,vy:-1882.527344,vz:-389.135162
i = 5
$pseudo_cd_ph,prn:23,pseudo_cd_ph:271284930.390461
$meas,msRange:69.430608,x:2094687.778750,y:25519890.981962,z:6527398.188740,vx:-430.964569,vy:757.087097,vz:-3013.508301
i = 6
$pseudo_cd_ph,prn:26,pseudo_cd_ph:271284921.045162
$meas,msRange:79.158851,x:-19959875.028190,y:1097127.948536,z:17552637.022832,vx:-1712.044800,vy:-1437.994751,vz:-1837.220947
i = 7
$pseudo_cd_ph,prn:27,pseudo_cd_ph:271284932.359764
$meas,msRange:67.521869,x:-11875839.562504,y:18819520.310451,z:14160086.912153,vx:25.484156,vy:-1834.974243,vz:2471.294189
i = 8
$pseudo_cd_ph,prn:31,pseudo_cd_ph:271284915.552439
$meas,msRange:84.495510,x:-25579817.925718,y:6314795.331147,z:-4892261.121949,vx:484.596100,vy:-445.520172,vz:-3066.110107
i = 9
i = 10
i = 11
i = 12
i = 13
i = 14
i = 15
i = 16
i = 17
i = 18
i = 19
i = 20
i = 21
i = 22
i = 23
i = 24
i = 25
i = 26
i = 27
i = 28
Refix G03: 2, 271284.914086, 800
Refix G07: 2, 271284.921532, -3998
Refix G08: 2, 271284.931102, -2944
Refix G09: 2, 271284.927916, -2277
Refix G16: 2, 271284.927432, 1012
Refix G23: 2, 271284.930390, -258
Refix G26: 2, 271284.921045, 1300
Refix G27: 2, 271284.932360, -584
Refix G31: 2, 271284.915552, 1457
$GNGGA,032107.000,2944.9084,N,10633.0895,E,1,18,0.7,330.4,M,,,,0000*11
$GNRMC,032107.000,A,2944.9084,N,10633.0895,E,0.22,0.00,080519,,*12
$GPGSA,A,3,07,08,09,16,23,26,27,31,,,,,0.8,0.7,0.4*3A
$BDGSA,A,3,01,02,04,05,06,07,09,10,27,28,,,0.8,0.7,0.4*2C
$GLGSA,A,3,,,,,,,,,,,,,0.8,0.7,0.4*25
$GPGSV,3,1,11,04,00,000,39,07,25,314,44,08,62,190,45,09,43,293,44*70
$GPGSV,3,2,11,16,42,035,43,23,57,236,45,26,20,057,36,27,71,074,45*7D
$GPGSV,3,3,11,31,06,115,40,18,00,000,37,03,00,207,00*47
$BDGSV,3,1,12,01,40,125,40,02,45,218,41,04,23,109,39,05,27,244,37*62
$BDGSV,3,2,12,06,30,177,40,07,61,019,43,09,52,206,41,10,60,319,42*60
$BDGSV,3,3,12,30,00,000,42,27,57,141,45,28,38,057,44,03,54,172,00*69
$B3CN0,0,0,0,0,0,0,0,0,0,0,0,0,0,0*4C
$ini_pos,lastpos_good = 1,ini_pos.x:-1578910.768550,ini_pos.y:5312775.754555,ini_pos.z:3146360.865525
$rtc_local_time,localRTC.weeks:2052,localRTC.seconds:271285.643929,localGtime.weeks:2052,localGtime.seconds:271286.000000
i = 0
i = 1
$pseudo_cd_ph,prn:7,pseudo_cd_ph:271285921.534521
$meas,msRange:78.454296,x:12681196.704035,y:10856314.633656,z:21009961.757095,vx:-2387.777832,vy:1032.729248,vz:871.685669
i = 2
$pseudo_cd_ph,prn:8,pseudo_cd_ph:271285931.104296
$meas,msRange:68.761671,x:-5728265.876926,y:25474630.199806,z:4254906.875420,vx:-203.489563,vy:-564.215759,vz:3148.884277
i = 3
$pseudo_cd_ph,prn:9,pseudo_cd_ph:271285927.917394
$meas,msRange:72.506722,x:9428807.132296,y:18893205.756026,z:16065223.700692,vx:-429.732086,vy:2015.269165,vz:-2113.581055
i = 4
$pseudo_cd_ph,prn:16,pseudo_cd_ph:271285927.431243
$meas,msRange:72.539279,x:-12271158.027147,y:8507149.606413,z:21811638.329559,vx:-2078.882812,vy:-1882.362549,vz:-389.605896
i = 5
$pseudo_cd_ph,prn:23,pseudo_cd_ph:271285930.390595
$meas,msRange:69.431174,x:2094256.852331,y:25520647.892650,z:6524384.610008,vx:-430.888306,vy:756.734314,vz:-3013.649414
i = 6
$pseudo_cd_ph,prn:26,pseudo_cd_ph:271285921.044313
$meas,msRange:79.160407,x:-19961587.019595,y:1095690.070041,z:17550799.616083,vx:-1711.938110,vy:-1437.762329,vz:-1837.592651
i = 7
$pseudo_cd_ph,prn:27,pseudo_cd_ph:271285932.360104
$meas,msRange:67.522228,x:-11875814.114768,y:18817685.180035,z:14162558.052454,vx:25.411312,vy:-1835.286621,vz:2470.986572
i = 8
$pseudo_cd_ph,prn:31,pseudo_cd_ph:271285915.551482
$meas,msRange:84.497166,x:-25579333.165225,y:6314349.727035,z:-4895327.181256,vx:484.924927,vy:-445.688080,vz:-3066.008789
i = 9
i = 10
i = 11
i = 12
i = 13
i = 14
i = 15
i = 16
i = 17
i = 18
i = 19
i = 20
i = 21
i = 22
i = 23
i = 24
i = 25
i = 26
i = 27
i = 28
Refix G03: 2, 271285.914085, 800
Refix G07: 2, 271285.921535, -3997
Refix G08: 2, 271285.931104, -2943
Refix G09: 2, 271285.927917, -2276
Refix G16: 2, 271285.927431, 1012
Refix G23: 2, 271285.930391, -257
Refix G26: 2, 271285.921044, 1300
Refix G27: 2, 271285.932360, -583
Refix G31: 2, 271285.915552, 1457
$GNGGA,032108.000,2944.9084,N,10633.0894,E,1,18,0.7,330.0,M,,,,0000*1B
$GNRMC,032108.000,A,2944.9084,N,10633.0894,E,0.22,0.00,080519,,*1C
$GPGSA,A,3,07,08,09,16,23,26,27,31,,,,,0.8,0.7,0.4*3A
$BDGSA,A,3,01,02,04,05,06,07,09,10,27,28,,,0.8,0.7,0.4*2C
$GLGSA,A,3,,,,,,,,,,,,,0.8,0.7,0.4*25
$GPGSV,3,1,11,04,00,000,39,07,25,314,44,08,62,190,45,09,43,293,44*70
$GPGSV,3,2,11,16,42,035,43,23,57,236,44,26,20,057,36,27,71,074,45*7C
$GPGSV,3,3,11,31,06,115,39,18,00,000,37,03,00,207,00*49
$BDGSV,3,1,12,01,40,125,41,02,45,218,40,04,23,109,41,05,27,244,38*62
$BDGSV,3,2,12,06,30,177,40,07,61,019,43,09,52,206,41,10,60,319,42*60
$BDGSV,3,3,12,30,00,000,42,27,57,141,45,28,38,057,44,03,54,172,00*69
$B3CN0,0,20,0,0,0,0,0,0,0,0,0,0,0,0*7E
$ini_pos,lastpos_good = 1,ini_pos.x:-1578910.597761,ini_pos.y:5312775.439794,ini_pos.z:3146360.662260
$rtc_local_time,localRTC.weeks:2052,localRTC.seconds:271286.643929,localGtime.weeks:2052,localGtime.seconds:271287.000000
i = 0
i = 1
$pseudo_cd_ph,prn:7,pseudo_cd_ph:271286921.537030
$meas,msRange:78.452488,x:12678808.904542,y:10857347.453943,z:21010833.226053,vx:-2387.821289,vy:1032.911377,vz:871.252258
i = 2
$pseudo_cd_ph,prn:8,pseudo_cd_ph:271286931.106134
$meas,msRange:68.760533,x:-5728469.361201,y:25474065.792376,z:4258055.713768,vx:-203.479004,vy:-564.599121,vz:3148.792725
i = 3
$pseudo_cd_ph,prn:9,pseudo_cd_ph:271286927.918809
$meas,msRange:72.506007,x:9428377.471626,y:18895220.905063,z:16063109.948262,vx:-429.589264,vy:2015.029053,vz:-2113.923828
i = 4
$pseudo_cd_ph,prn:16,pseudo_cd_ph:271286927.430567
$meas,msRange:72.540652,x:-12273236.947282,y:8505267.326372,z:21811248.488319,vx:-2078.957764,vy:-1882.197632,vz:-390.076630
i = 5
$pseudo_cd_ph,prn:23,pseudo_cd_ph:271286930.390727
$meas,msRange:69.431741,x:2093826.002163,y:25521404.450525,z:6521370.890294,vx:-430.812073,vy:756.381470,vz:-3013.790283
i = 6
$pseudo_cd_ph,prn:26,pseudo_cd_ph:271286921.043456
$meas,msRange:79.161963,x:-19963298.904253,y:1094252.423851,z:17548961.837716,vx:-1711.831299,vy:-1437.530029,vz:-1837.964233
i = 7
$pseudo_cd_ph,prn:27,pseudo_cd_ph:271286932.360443
$meas,msRange:67.522588,x:-11875788.739899,y:18815849.737247,z:14165028.885081,vx:25.338419,vy:-1835.598999,vz:2470.678955
i = 8
$pseudo_cd_ph,prn:31,pseudo_cd_ph:271286915.550527
$meas,msRange:84.498822,x:-25578848.075910,y:6313903.954984,z:-4898393.139140,vx:485.253723,vy:-445.856049,vz:-3065.907227
i = 9
i = 10
i = 11
i = 12
i = 13
i = 14
i = 15
i = 16
i = 17
i = 18
i = 19
i = 20
i = 21
i = 22
i = 23
i = 24
i = 25
i = 26
i = 27
i = 28
i = 29
Refix G03: 2, 271286.914085, 799
Refix G07: 2, 271286.921537, -3998
Refix G08: 2, 271286.931106, -2942
Refix G09: 2, 271286.927919, -2276
Refix G16: 2, 271286.927431, 1012
Refix G23: 2, 271286.930391, -257
Refix G26: 2, 271286.921043, 1300
Refix G27: 2, 271286.932360, -583
Refix G31: 2, 271286.915551, 1457
$GNGGA,032109.000,2944.9084,N,10633.0894,E,1,18,0.7,329.4,M,,,,0000*16
$GNRMC,032109.000,A,2944.9084,N,10633.0894,E,0.17,0.00,080519,,*1B
$GPGSA,A,3,07,08,09,16,23,26,27,31,,,,,0.8,0.7,0.4*3A
$BDGSA,A,3,01,02,04,05,06,07,09,10,27,28,,,0.8,0.7,0.4*2C
$GLGSA,A,3,,,,,,,,,,,,,0.8,0.7,0.4*25
$GPGSV,3,1,11,04,00,000,39,07,25,314,44,08,62,190,45,09,43,293,45*71
$GPGSV,3,2,11,16,42,035,43,23,57,236,44,26,20,057,36,27,71,074,45*7C
$GPGSV,3,3,11,31,06,115,40,18,00,000,38,03,00,207,00*48
$BDGSV,3,1,12,01,40,125,41,02,45,218,40,03,54,172,18,04,23,109,40*65
$BDGSV,3,2,12,05,27,244,39,06,30,177,40,07,61,019,43,09,52,206,41*62
$BDGSV,3,3,12,10,60,319,43,30,00,000,42,08,00,000,25,27,57,141,45*68
$B3CN0,0,0,0,0,0,0,0,0,0,0,0,0,0,0*4C
$GLGSV,2,1,08,08,00,000,42,07,00,000,38,21,00,000,45,20,00,000,43*6B
$GLGSV,2,2,08,01,00,000,39,11,00,000,42,09,00,000,45,26,00,000,46*6E
$ini_pos,lastpos_good = 1,ini_pos.x:-1578910.423299,ini_pos.y:5312774.972032,ini_pos.z:3146360.221108
$rtc_local_time,localRTC.weeks:2052,localRTC.seconds:271287.643929,localGtime.weeks:2052,localGtime.seconds:271288.000000
i = 0
i = 1
$pseudo_cd_ph,prn:7,pseudo_cd_ph:271287921.539538
$meas,msRange:78.450680,x:12676421.061621,y:10858380.456285,z:21011704.261600,vx:-2387.864746,vy:1033.093384,vz:870.818848
i = 2
$pseudo_cd_ph,prn:8,pseudo_cd_ph:271287931.107971
$meas,msRange:68.759396,x:-5728672.834950,y:25473501.001623,z:4261204.460424,vx:-203.468506,vy:-564.982422,vz:3148.700928
i = 3
$pseudo_cd_ph,prn:9,pseudo_cd_ph:271287927.920223
$meas,msRange:72.505293,x:9427947.953764,y:18897235.814002,z:16060995.852980,vx:-429.446472,vy:2014.788940,vz:-2114.266846
i = 4
$pseudo_cd_ph,prn:16,pseudo_cd_ph:271287927.429895
$meas,msRange:72.542025,x:-12275315.942365,y:8503385.211237,z:21810858.176359,vx:-2079.032715,vy:-1882.032715,vz:-390.547333
i = 5
$pseudo_cd_ph,prn:23,pseudo_cd_ph:271287930.390859
$meas,msRange:69.432308,x:2093395.228202,y:25522160.655560,z:6518357.029662,vx:-430.735901,vy:756.028625,vz:-3013.931152
i = 6
$pseudo_cd_ph,prn:26,pseudo_cd_ph:271287921.042593
$meas,msRange:79.163519,x:-19965010.682103,y:1092815.009976,z:17547123.687771,vx:-1711.724487,vy:-1437.297729,vz:-1838.335815
i = 7
$pseudo_cd_ph,prn:27,pseudo_cd_ph:271287932.360783
$meas,msRange:67.522949,x:-11875763.437945,y:18814013.982129,z:14167499.409979,vx:25.265482,vy:-1835.911377,vz:2470.371094
i = 8
$pseudo_cd_ph,prn:31,pseudo_cd_ph:271287915.549572
$meas,msRange:84.500477,x:-25578362.657803,y:6313458.014953,z:-4901458.995537,vx:485.582520,vy:-446.024048,vz:-3065.805664
i = 9
i = 10
i = 11
i = 12
i = 13
i = 14
i = 15
i = 16
i = 17
i = 18
i = 19
i = 20
i = 21
i = 22
i = 23
i = 24
i = 25
i = 26
i = 27
i = 28
i = 29
i = 30
Refix G03: 2, 271287.914084, 799
Refix G07: 2, 271287.921540, -3997
Refix G08: 2, 271287.931108, -2941
Refix G09: 2, 271287.927920, -2274
Refix G16: 2, 271287.927430, 1014
Refix G23: 2, 271287.930391, -255
Refix G26: 2, 271287.921043, 1302
Refix G27: 2, 271287.932361, -581
Refix G31: 2, 271287.915550, 1459
$GNGGA,032110.000,2944.9083,N,10633.0894,E,1,18,0.7,328.8,M,,,,0000*14
$GNRMC,032110.000,A,2944.9083,N,10633.0894,E,0.32,0.00,080519,,*13
$GPGSA,A,3,07,08,09,16,23,26,27,31,,,,,0.8,0.7,0.4*3A
$BDGSA,A,3,01,02,04,05,06,07,09,10,27,28,,,0.8,0.7,0.4*2C
$GLGSA,A,3,,,,,,,,,,,,,0.8,0.7,0.4*25
$GPGSV,3,1,11,04,00,000,39,07,25,314,44,08,62,190,45,09,43,293,45*71
$GPGSV,3,2,11,16,42,035,43,23,57,236,45,26,20,057,37,27,71,074,45*7C
$GPGSV,3,3,11,31,06,115,41,18,00,000,38,03,00,207,00*49
$BDGSV,3,1,12,01,40,125,41,02,45,218,40,04,23,109,42,05,27,244,39*60
$BDGSV,3,2,12,06,30,177,40,07,61,019,43,09,52,206,41,10,60,319,43*61
$BDGSV,3,3,12,30,00,000,42,08,00,000,38,16,35,184,28,27,57,141,45*69
$B3CN0,0,0,0,0,0,0,0,0,0,0,0,0,0,0*4C
$GLGSV,2,1,08,08,28,245,42,07,07,199,38,21,30,165,45,20,52,089,43*63
$GLGSV,2,2,08,01,23,296,39,11,20,308,42,09,28,067,45,26,00,000,46*60
$ini_pos,lastpos_good = 1,ini_pos.x:-1578910.207043,ini_pos.y:5312774.530166,ini_pos.z:3146359.808342
$rtc_local_time,localRTC.weeks:2052,localRTC.seconds:271288.643929,localGtime.weeks:2052,localGtime.seconds:271288.999999
i = 0
i = 1
$pseudo_cd_ph,prn:7,pseudo_cd_ph:271288921.542045
$meas,msRange:78.448872,x:12674033.175333,y:10859413.640672,z:21012574.863716,vx:-2387.907959,vy:1033.275391,vz:870.385437
i = 2
$pseudo_cd_ph,prn:8,pseudo_cd_ph:271288931.109805
$meas,msRange:68.758260,x:-5728876.298224,y:25472935.827557,z:4264353.115322,vx:-203.458054,vy:-565.365723,vz:3148.609131
i = 3
$pseudo_cd_ph,prn:9,pseudo_cd_ph:271288927.921636
$meas,msRange:72.504579,x:9427518.578682,y:18899250.482791,z:16058881.414892,vx:-429.303711,vy:2014.548706,vz:-2114.609619
i = 4
$pseudo_cd_ph,prn:16,pseudo_cd_ph:271288927.429219
$meas,msRange:72.543399,x:-12277395.012337,y:8501503.261051,z:21810467.393689,vx:-2079.107422,vy:-1881.867798,vz:-391.018036
i = 5
$pseudo_cd_ph,prn:23,pseudo_cd_ph:271288930.390990
$meas,msRange:69.432876,x:2092964.530402,y:25522916.507729,z:6515343.028178,vx:-430.659760,vy:755.675781,vz:-3014.072021
i = 6
$pseudo_cd_ph,prn:26,pseudo_cd_ph:271288921.041726
$meas,msRange:79.165075,x:-19966722.353084,y:1091377.828421,z:17545285.166287,vx:-1711.617554,vy:-1437.065430,vz:-1838.707275
i = 7
$pseudo_cd_ph,prn:27,pseudo_cd_ph:271288932.361121
$meas,msRange:67.523310,x:-11875738.208952,y:18812177.914720,z:14169969.627096,vx:25.192499,vy:-1836.223633,vz:2470.063232
i = 8
$pseudo_cd_ph,prn:31,pseudo_cd_ph:271288915.548617
$meas,msRange:84.502133,x:-25577876.910936,y:6313011.906901,z:-4904524.750384,vx:485.911255,vy:-446.192078,vz:-3065.704102
i = 9
i = 10
i = 11
i = 12
i = 13
i = 14
i = 15
i = 16
i = 17
i = 18
i = 19
i = 20
i = 21
i = 22
i = 23
i = 24
i = 25
i = 26
i = 27
i = 28
i = 29
i = 30
Refix G03: 2, 271288.914084, 800
Refix G07: 2, 271288.921542, -3996
Refix G08: 2, 271288.931110, -2939
Refix G09: 2, 271288.927922, -2272
Refix G16: 2, 271288.927429, 1014
Refix G23: 2, 271288.930391, -253
Refix G26: 2, 271288.921042, 1301
Refix G27: 2, 271288.932361, -579
Refix G31: 2, 271288.915549, 1459
$GNGGA,032111.000,2944.9083,N,10633.0893,E,1,25,0.7,327.8,M,,,,0000*13
$GNRMC,032111.000,A,2944.9083,N,10633.0893,E,0.14,0.00,080519,,*11
$GPGSA,A,3,07,08,09,16,23,26,27,31,,,,,0.8,0.7,0.4*3A
$BDGSA,A,3,01,02,04,05,06,07,09,10,27,28,,,0.8,0.7,0.4*2C
$GLGSA,A,3,01,07,08,09,11,20,21,,,,,,0.8,0.7,0.4*23
$GPGSV,3,1,11,04,00,000,39,07,25,314,44,08,62,190,45,09,43,293,44*70
$GPGSV,3,2,11,16,42,035,43,23,57,236,44,26,20,057,36,27,71,074,46*7F
$GPGSV,3,3,11,31,06,115,40,18,00,000,36,03,00,207,00*46
$BDGSV,3,1,12,01,40,125,41,02,45,218,39,04,23,109,41,05,27,244,39*6D
$BDGSV,3,2,12,06,30,177,40,07,61,019,43,09,52,206,42,10,60,319,43*62
$BDGSV,3,3,12,30,00,000,42,08,00,000,38,16,35,184,42,27,57,141,45*65
$B3CN0,20,0,0,0,0,0,0,0,0,0,0,0,0,0*7E
$GLGSV,2,1,08,08,28,245,42,07,07,199,38,21,30,165,45,20,52,089,43*63
$GLGSV,2,2,08,01,23,296,39,11,20,308,42,09,28,067,45,26,00,000,46*60
$ini_pos,lastpos_good = 1,ini_pos.x:-1578909.892601,ini_pos.y:5312773.701782,ini_pos.z:3146359.338866
$rtc_local_time,localRTC.weeks:2052,localRTC.seconds:271289.643929,localGtime.weeks:2052,localGtime.seconds:271289.999999
i = 0
i = 1
$pseudo_cd_ph,prn:7,pseudo_cd_ph:271289921.544554
$meas,msRange:78.447065,x:12671645.245741,y:10860447.007093,z:21013445.032381,vx:-2387.951416,vy:1033.457520,vz:869.951965
i = 2
$pseudo_cd_ph,prn:8,pseudo_cd_ph:271289931.111639
$meas,msRange:68.757125,x:-5729079.751076,y:25472370.270184,z:4267501.678393,vx:-203.447662,vy:-565.749023,vz:3148.517334
i = 3
$pseudo_cd_ph,prn:9,pseudo_cd_ph:271289927.923046
$meas,msRange:72.503866,x:9427089.346353,y:18901264.911378,z:16056766.634043,vx:-429.160980,vy:2014.308472,vz:-2114.952393
i = 4
$pseudo_cd_ph,prn:16,pseudo_cd_ph:271289927.428545
$meas,msRange:72.544773,x:-12279474.157143,y:8499621.475855,z:21810076.140320,vx:-2079.182373,vy:-1881.702759,vz:-391.488739
i = 5
$pseudo_cd_ph,prn:23,pseudo_cd_ph:271289930.391120
$meas,msRange:69.433446,x:2092533.908720,y:25523672.007005,z:6512328.885904,vx:-430.583649,vy:755.322876,vz:-3014.212646
i = 6
$pseudo_cd_ph,prn:26,pseudo_cd_ph:271289921.040856
$meas,msRange:79.166631,x:-19968433.917136,y:1089940.879194,z:17543446.273303,vx:-1711.510620,vy:-1436.833130,vz:-1839.078735
i = 7
$pseudo_cd_ph,prn:27,pseudo_cd_ph:271289932.361458
$meas,msRange:67.523673,x:-11875713.052965,y:18810341.535063,z:14172439.536377,vx:25.119469,vy:-1836.535767,vz:2469.755371
i = 8
$pseudo_cd_ph,prn:31,pseudo_cd_ph:271289915.547659
$meas,msRange:84.503789,x:-25577390.835341,y:6312565.630787,z:-4907590.403616,vx:486.239960,vy:-446.360168,vz:-3065.602539
i = 9
i = 10
i = 11
i = 12
i = 13
i = 14
i = 15
i = 16
i = 17
i = 18
i = 19
i = 20
i = 21
i = 22
i = 23
i = 24
i = 25
i = 26
i = 27
i = 28
i = 29
i = 30
i = 31
Refix G03: 2, 271289.914083, 801
Refix G07: 2, 271289.921545, -3995
Refix G08: 2, 271289.931112, -2936
Refix G09: 2, 271289.927923, -2270
Refix G16: 2, 271289.927429, 1016
Refix G23: 2, 271289.930391, -250
Refix G26: 2, 271289.921041, 1303
Refix G27: 2, 271289.932361, -576
Refix G31: 2, 271289.915548, 1461
$GNGGA,032112.000,2944.9080,N,10633.0897,E,1,25,0.5,327.5,M,,,,0000*18
$GNRMC,032112.000,A,2944.9080,N,10633.0897,E,0.10,0.00,080519,,*11
$GPGSA,A,3,07,08,09,16,23,26,27,31,,,,,0.7,0.5,0.4*37
$BDGSA,A,3,01,02,04,05,06,07,09,10,27,28,,,0.7,0.5,0.4*21
$GLGSA,A,3,01,07,08,09,11,20,21,,,,,,0.7,0.5,0.4*2E
$GPGSV,3,1,11,04,00,000,39,07,25,314,44,08,63,190,45,09,43,293,44*71
$GPGSV,3,2,11,16,41,035,43,23,57,236,44,26,20,057,37,27,71,073,45*79
$GPGSV,3,3,11,31,06,115,40,18,00,000,36,03,00,207,00*46
$BDGSV,3,1,12,01,40,125,41,02,45,218,40,04,23,109,41,05,27,244,38*62
$BDGSV,3,2,12,06,30,177,40,07,61,019,42,09,52,206,42,10,60,319,42*62
$BDGSV,3,3,12,30,00,000,43,08,00,000,37,16,35,184,42,27,58,141,45*64
$B3CN0,36,0,0,0,0,0,0,0,0,0,0,0,0,0*79
$GLGSV,2,1,08,08,28,245,42,07,07,199,37,21,30,165,45,20,52,089,43*6C
$GLGSV,2,2,08,01,23,296,39,11,20,308,42,09,28,067,45,26,00,000,46*60
$ini_pos,lastpos_good = 1,ini_pos.x:-1578910.549774,ini_pos.y:5312773.568551,ini_pos.z:3146358.655102
$rtc_local_time,localRTC.weeks:2052,localRTC.seconds:271290.643929,localGtime.weeks:2052,localGtime.seconds:271290.999999
i = 0
i = 1
$pseudo_cd_ph,prn:7,pseudo_cd_ph:271290921.547060
$meas,msRange:78.445259,x:12669257.272906,y:10861480.555539,z:21014314.767576,vx:-2387.994629,vy:1033.639526,vz:869.518494
i = 2
$pseudo_cd_ph,prn:8,pseudo_cd_ph:271290931.113475
$meas,msRange:68.755987,x:-5729283.193559,y:25471804.329514,z:4270650.149569,vx:-203.437317,vy:-566.132324,vz:3148.425293
i = 3
$pseudo_cd_ph,prn:9,pseudo_cd_ph:271290927.924457
$meas,msRange:72.503154,x:9426660.256747,y:18903279.099708,z:16054651.510478,vx:-429.018280,vy:2014.068237,vz:-2115.294922
i = 4
$pseudo_cd_ph,prn:16,pseudo_cd_ph:271290927.427871
$meas,msRange:72.546146,x:-12281553.376726,y:8497739.855692,z:21809684.416262,vx:-2079.257080,vy:-1881.537720,vz:-391.959412
i = 5
$pseudo_cd_ph,prn:23,pseudo_cd_ph:271290930.391250
$meas,msRange:69.434015,x:2092103.363110,y:25524427.153363,z:6509314.602907,vx:-430.507599,vy:754.969910,vz:-3014.353516
i = 6
$pseudo_cd_ph,prn:26,pseudo_cd_ph:271290921.039991
$meas,msRange:79.168186,x:-19970145.374198,y:1088504.162303,z:17541607.008859,vx:-1711.403564,vy:-1436.600708,vz:-1839.450195
i = 7
$pseudo_cd_ph,prn:27,pseudo_cd_ph:271290932.361795
$meas,msRange:67.524034,x:-11875687.970031,y:18808504.843198,z:14174909.137770,vx:25.046392,vy:-1836.848022,vz:2469.447510
i = 8
$pseudo_cd_ph,prn:31,pseudo_cd_ph:271290915.546698
$meas,msRange:84.505442,x:-25576904.431049,y:6312119.186569,z:-4910655.955170,vx:486.568634,vy:-446.528290,vz:-3065.500732
i = 9
i = 10
i = 11
i = 12
i = 13
i = 14
i = 15
i = 16
i = 17
i = 18
i = 19
i = 20
i = 21
i = 22
i = 23
i = 24
i = 25
i = 26
i = 27
i = 28
i = 29
i = 30
i = 31
Refix G03: 2, 271290.914083, 797
Refix G07: 2, 271290.921547, -3997
Refix G08: 2, 271290.931113, -2939
Refix G09: 2, 271290.927924, -2272
Refix G16: 2, 271290.927428, 1013
