SD initialized success
Create debug.log Failed! 3
bbram_blkflag = 1
rtcflag = 0
BBRAM Block OK: 01 EPHflag: 282314c5 2c0012cb, rtc 00
Hot-start nowtime:day = 9,minute = 1,seconds = 32.00
GPS 0 Init Dop:  -177, 2
GPS 1 Init Dop: 10000,80
GPS 2 Init Dop: -3337, 2
GPS 3 Init Dop: 10000,80
GPS 4 Init Dop: 10000,80
GPS 5 Init Dop: 10000,80
GPS 6 Init Dop:  1802, 2
GPS 7 Init Dop:  1654, 2
GPS 8 Init Dop: 10000,80
GPS 9 Init Dop: 10000,80
GPS10 Init Dop:   872, 2
GPS11 Init Dop: 10000,80
GPS12 Init Dop:  -377, 2
GPS13 Init Dop: 10000,80
GPS14 Init Dop: 10000,80
GPS15 Init Dop: 10000,80
GPS16 Init Dop: -2296, 2
GPS17 Init Dop:  1478, 2
GPS18 Init Dop: 10000,80
GPS19 Init Dop: 10000,80
GPS20 Init Dop: 10000,80
GPS21 Init Dop: -2403, 2
GPS22 Init Dop: 10000,80
GPS23 Init Dop: 10000,80
GPS24 Init Dop: 10000,80
GPS25 Init Dop: 10000,80
GPS26 Init Dop: 10000,80
GPS27 Init Dop: -2686, 2
GPS28 Init Dop: 10000,80
GPS29 Init Dop:  -208, 2
GPS30 Init Dop: 10000,80
GPS31 Init Dop: 10000,80
BDS 0 Init Dop:  -862, 2
BDS 1 Init Dop:  -908, 2
BDS 2 Init Dop: 10000,80
BDS 3 Init Dop:  -877, 2
BDS 4 Init Dop: 10000,80
BDS 5 Init Dop: 10000,80
BDS 6 Init Dop:  -941, 2
BDS 7 Init Dop: -1199, 2
BDS 8 Init Dop: 10000,80
BDS 9 Init Dop: -1293, 2
BDS10 Init Dop: 10000,80
BDS11 Init Dop: 10000,80
BDS12 Init Dop: -1705, 2
BDS13 Init Dop: 10000,80
BDS14 Init Dop: 10000,80
BDS15 Init Dop: 10000,80
BDS16 Init Dop: 10000,80
BDS17 Init Dop: 10000,80
BDS18 Init Dop: 10000,80
BDS19 Init Dop: 10000,80
BDS20 Init Dop: 10000,80
BDS21 Init Dop: 10000,80
BDS22 Init Dop: 10000,80
BDS23 Init Dop: 10000,80
BDS24 Init Dop: 10000,80
BDS25 Init Dop: 10000,80
BDS26 Init Dop:   193, 2
BDS27 Init Dop:  1754, 2
BDS28 Init Dop: 10000,80
BDS29 Init Dop: -2327, 2
BDS30 Init Dop: 10000,80
BDS31 Init Dop: 10000,80
Good luck!
$ini_pos,lastpos_good = 1,ini_pos.x:-1578914.000000,ini_pos.y:5312775.000000,ini_pos.z:3146360.000000
$rtc_local_time,localRTC.weeks:2052,localRTC.seconds:370911.026007,localGtime.weeks:0,localGtime.seconds:19.026010
$GNGGA,000000.000,,,,,0,00,,,M,,,,0000*2B
$GNRMC,000000.000,A,,,,,,,060180,,*29
$GPGSA,A,1,,,,,,,,,,,,,,,*1E
$BDGSA,A,1,,,,,,,,,,,,,,,*0F
$GLGSA,A,1,,,,,,,,,,,,,,,*02
$B3CN0,0,0,0,0,0,0,0,0,0,0,0,0,0,0*4C
$ini_pos,lastpos_good = 1,ini_pos.x:-1578914.000000,ini_pos.y:5312775.000000,ini_pos.z:3146360.000000
$rtc_local_time,localRTC.weeks:2052,localRTC.seconds:370912.026007,localGtime.weeks:2052,localGtime.seconds:370912.026007
$GNGGA,000000.000,,,,,0,00,,,M,,,,0000*2B
$GNRMC,000000.000,A,,,,,,,060180,,*29
$GPGSA,A,1,,,,,,,,,,,,,,,*1E
$BDGSA,A,1,,,,,,,,,,,,,,,*0F
$GLGSA,A,1,,,,,,,,,,,,,,,*02
$B3CN0,0,0,0,0,0,0,0,0,0,0,0,0,0,0*4C
$ini_pos,lastpos_good = 1,ini_pos.x:-1578914.000000,ini_pos.y:5312775.000000,ini_pos.z:3146360.000000
$rtc_local_time,localRTC.weeks:2052,localRTC.seconds:370913.026007,localGtime.weeks:2052,localGtime.seconds:370913.026007
$GNGGA,000000.000,,,,,0,00,,,M,,,,0000*2B
$GNRMC,000000.000,A,,,,,,,060180,,*29
$GPGSA,A,1,,,,,,,,,,,,,,,*1E
$BDGSA,A,1,,,,,,,,,,,,,,,*0F
$GLGSA,A,1,,,,,,,,,,,,,,,*02
$B3CN0,0,0,0,0,0,0,0,0,0,0,0,0,0,0*4C
$ini_pos,lastpos_good = 1,ini_pos.x:-1578914.000000,ini_pos.y:5312775.000000,ini_pos.z:3146360.000000
$rtc_local_time,localRTC.weeks:2052,localRTC.seconds:370914.026007,localGtime.weeks:2052,localGtime.seconds:370914.026007
i = 0
i = 1
i = 2
i = 3
i = 4
i = 5
i = 6
$GNGGA,000000.000,,,,,0,00,,,M,,,,0000*2B
$GNRMC,000000.000,A,,,,,,,060180,,*29
$GPGSA,A,1,,,,,,,,,,,,,,,*1E
$BDGSA,A,1,,,,,,,,,,,,,,,*0F
$GLGSA,A,1,,,,,,,,,,,,,,,*02
$B3CN0,0,0,0,0,0,0,0,0,0,0,0,0,0,0*4C
$ini_pos,lastpos_good = 1,ini_pos.x:-1578914.000000,ini_pos.y:5312775.000000,ini_pos.z:3146360.000000
$rtc_local_time,localRTC.weeks:2052,localRTC.seconds:370915.026007,localGtime.weeks:2052,localGtime.seconds:370915.026007
i = 0
$pseudo_cd_ph,prn:1,pseudo_cd_ph:6.369166
$meas,msRange:67.984601,x:-13428501.717292,y:17349714.913193,z:14552322.124251,vx:163.660294,vy:-1893.242432,vz:2410.222168,tb:-0.000012
i = 1
$pseudo_cd_ph,prn:7,pseudo_cd_ph:3.174092
$meas,msRange:71.170103,x:-6804846.918033,y:25279162.444734,z:-2263718.446288,vx:-267.227142,vy:-383.836273,vz:-3178.618652,tb:-0.000021
i = 2
$pseudo_cd_ph,prn:8,pseudo_cd_ph:14.277971
$meas,msRange:79.944041,x:-19426622.684509,y:17042.598892,z:18239889.108934,vx:-1680.090942,vy:-1574.331299,vz:-1771.029053,tb:-0.000143
i = 3
$pseudo_cd_ph,prn:11,pseudo_cd_ph:4.791861
$meas,msRange:68.962988,x:-11860111.478856,y:13449708.504110,z:19131544.633558,vx:-809.345703,vy:-2431.518799,vz:1150.730835,tb:-0.000610
i = 4
$pseudo_cd_ph,prn:17,pseudo_cd_ph:18.923075
$meas,msRange:75.495792,x:13188406.744308,y:21292121.768255,z:9378646.219420,vx:-932.816162,vy:-656.451416,vz:2920.837402,tb:0.000052
i = 5
$pseudo_cd_ph,prn:18,pseudo_cd_ph:2.593737
$meas,msRange:71.822797,x:-15167767.129625,y:8544947.974674,z:19532969.148382,vx:218.333557,vy:-2588.336914,vz:1283.718750,tb:0.000052
i = 6
$pseudo_cd_ph,prn:22,pseudo_cd_ph:14.995223
$meas,msRange:78.674116,x:-24715548.647300,y:9545195.762314,z:1391631.899925,vx:-18.019537,vy:-421.001190,vz:3096.653076,tb:-0.000698
i = 7
$pseudo_cd_ph,prn:30,pseudo_cd_ph:5.658681
$meas,msRange:68.606022,x:557002.493769,y:25030998.613270,z:8591903.694538,vx:-571.207703,vy:992.743958,vz:-2880.724609,tb:-0.000101
i = 8
i = 9
i = 10
i = 11
i = 12
$GNGGA,000000.000,,,,,0,00,,,M,,,,0000*2B
$GNRMC,000000.000,A,,,,,,,060180,,*29
$GPGSA,A,1,,,,,,,,,,,,,,,*1E
$BDGSA,A,1,,,,,,,,,,,,,,,*0F
$GLGSA,A,1,,,,,,,,,,,,,,,*02
$GPGSV,1,1,04,01,00,000,26,17,00,000,29,18,00,000,29,22,00,000,23*76
$BDGSV,1,1,04,02,00,000,40,04,00,000,41,05,00,000,34,07,00,000,19*66
$B3CN0,0,0,0,0,0,0,0,0,0,0,0,0,0,0*4C
$ini_pos,lastpos_good = 1,ini_pos.x:-1578914.000000,ini_pos.y:5312775.000000,ini_pos.z:3146360.000000
$rtc_local_time,localRTC.weeks:2052,localRTC.seconds:370916.026007,localGtime.weeks:2052,localGtime.seconds:370916.026007
i = 0
$pseudo_cd_ph,prn:1,pseudo_cd_ph:6.369415
$meas,msRange:67.985053,x:-13428338.084113,y:17347821.515597,z:14554732.187372,vx:163.606064,vy:-1893.552979,vz:2409.904297,tb:-0.000012
i = 1
$pseudo_cd_ph,prn:7,pseudo_cd_ph:3.173090
$meas,msRange:71.171811,x:-6805114.116494,y:25278778.417447,z:-2266897.039968,vx:-267.169800,vy:-384.218323,vz:-3178.568848,tb:-0.000021
i = 2
$pseudo_cd_ph,prn:8,pseudo_cd_ph:14.277060
$meas,msRange:79.945655,x:-19428302.737212,y:15468.390020,z:18238117.887864,vx:-1680.014648,vy:-1574.086548,vz:-1771.413208,tb:-0.000143
i = 3
$pseudo_cd_ph,prn:11,pseudo_cd_ph:4.791446
$meas,msRange:68.964107,x:-11860920.902269,y:13447276.931554,z:19132695.152866,vx:-809.501221,vy:-2431.626465,vz:1150.307861,tb:-0.000610
i = 4
$pseudo_cd_ph,prn:17,pseudo_cd_ph:18.924658
$meas,msRange:75.494899,x:13187473.777941,y:21291465.219655,z:9381566.958868,vx:-933.116638,vy:-656.645813,vz:2920.641846,tb:0.000052
i = 5
$pseudo_cd_ph,prn:18,pseudo_cd_ph:2.592935
$meas,msRange:71.824300,x:-15167548.856424,y:8542359.549692,z:19534252.649812,vx:218.212845,vy:-2588.513184,vz:1283.284180,tb:0.000052
i = 6
$pseudo_cd_ph,prn:22,pseudo_cd_ph:14.996869
$meas,msRange:78.673154,x:-24715566.499470,y:9544774.685957,z:1394728.538076,vx:-17.684807,vy:-421.151550,vz:3096.623291,tb:-0.000698
i = 7
$pseudo_cd_ph,prn:30,pseudo_cd_ph:5.658939
$meas,msRange:68.606455,x:556431.353963,y:25031991.196436,z:8589022.877636,vx:-571.071960,vy:992.422424,vz:-2880.909424,tb:-0.000101
i = 8
i = 9
i = 10
i = 11
i = 12
$GNGGA,000000.000,,,,,0,00,,,M,,,,0000*2B
$GNRMC,000000.000,A,,,,,,,060180,,*29
$GPGSA,A,1,,,,,,,,,,,,,,,*1E
$BDGSA,A,1,,,,,,,,,,,,,,,*0F
$GLGSA,A,1,,,,,,,,,,,,,,,*02
$GPGSV,2,1,08,01,00,000,46,07,00,000,45,08,00,000,35,11,00,000,36*7C
$GPGSV,2,2,08,17,00,000,42,18,00,000,44,22,00,000,39,30,00,000,34*76
$BDGSV,2,1,05,02,00,000,40,04,00,000,40,05,00,000,34,07,00,000,43*6A
$BDGSV,2,2,05,10,00,000,40*58
$B3CN0,0,0,0,0,0,0,0,0,0,0,0,0,0,0*4C
$ini_pos,lastpos_good = 1,ini_pos.x:-1578914.000000,ini_pos.y:5312775.000000,ini_pos.z:3146360.000000
$rtc_local_time,localRTC.weeks:2052,localRTC.seconds:370917.026007,localGtime.weeks:2052,localGtime.seconds:370917.026007
i = 0
$pseudo_cd_ph,prn:1,pseudo_cd_ph:6.369666
$meas,msRange:67.985506,x:-13428174.505185,y:17345927.807461,z:14557141.932514,vx:163.551788,vy:-1893.863403,vz:2409.586182,tb:-0.000012
i = 1
$pseudo_cd_ph,prn:7,pseudo_cd_ph:3.172088
$meas,msRange:71.173520,x:-6805381.257661,y:25278394.008127,z:-2270075.583827,vx:-267.112549,vy:-384.600342,vz:-3178.519043,tb:-0.000021
i = 2
$pseudo_cd_ph,prn:8,pseudo_cd_ph:14.276148
$meas,msRange:79.947268,x:-19429982.713582,y:13894.425926,z:18236346.282577,vx:-1679.938232,vy:-1573.841797,vz:-1771.797485,tb:-0.000143
i = 3
$pseudo_cd_ph,prn:11,pseudo_cd_ph:4.791033
$meas,msRange:68.965225,x:-11861730.481202,y:13444845.251316,z:19133845.249163,vx:-809.656738,vy:-2431.734131,vz:1149.884766,tb:-0.000610
i = 4
$pseudo_cd_ph,prn:17,pseudo_cd_ph:18.926246
$meas,msRange:75.494006,x:13186540.511123,y:21290808.476679,z:9384487.502784,vx:-933.417053,vy:-656.840149,vz:2920.446289,tb:0.000052
i = 5
$pseudo_cd_ph,prn:18,pseudo_cd_ph:2.592134
$meas,msRange:71.825804,x:-15167330.703943,y:8539770.948262,z:19535535.716556,vx:218.092117,vy:-2588.689697,vz:1282.849487,tb:0.000052
i = 6
$pseudo_cd_ph,prn:22,pseudo_cd_ph:14.998524
$meas,msRange:78.672193,x:-24715584.016922,y:9544353.459200,z:1397825.146453,vx:-17.350100,vy:-421.301971,vz:3096.593506,tb:-0.000698
i = 7
$pseudo_cd_ph,prn:30,pseudo_cd_ph:5.659202
$meas,msRange:68.606888,x:555860.349890,y:25032983.458013,z:8586141.876106,vx:-570.936218,vy:992.100830,vz:-2881.093994,tb:-0.000101
i = 8
i = 9
i = 10
i = 11
i = 12
i = 13
i = 14
$GNGGA,000000.000,,,,,0,00,,,M,,,,0000*2B
$GNRMC,000000.000,A,,,,,,,060180,,*29
$GPGSA,A,1,,,,,,,,,,,,,,,*1E
$BDGSA,A,1,,,,,,,,,,,,,,,*0F
$GLGSA,A,1,,,,,,,,,,,,,,,*02
$GPGSV,2,1,08,01,00,000,45,07,00,000,45,08,00,000,34,11,00,000,44*7B
$GPGSV,2,2,08,17,00,000,42,18,00,000,43,22,00,000,40,30,00,000,46*7A
$BDGSV,2,1,05,02,00,000,39,04,00,000,39,05,00,000,36,07,00,000,43*68
$BDGSV,2,2,05,10,00,000,44*5C
$B3CN0,0,0,0,0,0,0,0,0,0,0,0,0,0,0*4C
$ini_pos,lastpos_good = 1,ini_pos.x:-1578914.000000,ini_pos.y:5312775.000000,ini_pos.z:3146360.000000
$rtc_local_time,localRTC.weeks:2052,localRTC.seconds:370918.026007,localGtime.weeks:2052,localGtime.seconds:370918.026007
i = 0
$pseudo_cd_ph,prn:1,pseudo_cd_ph:6.369912
$meas,msRange:67.985959,x:-13428010.980555,y:17344033.788825,z:14559551.359623,vx:163.497467,vy:-1894.173950,vz:2409.268066,tb:-0.000012
i = 1
$pseudo_cd_ph,prn:7,pseudo_cd_ph:3.171082
$meas,msRange:71.175230,x:-6805648.341582,y:25278009.216771,z:-2273254.077794,vx:-267.055328,vy:-384.982391,vz:-3178.468994,tb:-0.000021
i = 2
$pseudo_cd_ph,prn:8,pseudo_cd_ph:14.275238
$meas,msRange:79.948881,x:-19431662.613556,y:12320.706623,z:18234574.293111,vx:-1679.861816,vy:-1573.596924,vz:-1772.181641,tb:-0.000143
i = 3
$pseudo_cd_ph,prn:11,pseudo_cd_ph:4.790615
$meas,msRange:68.966344,x:-11862540.215657,y:13442413.463456,z:19134994.922423,vx:-809.812256,vy:-2431.841797,vz:1149.461792,tb:-0.000610
i = 4
$pseudo_cd_ph,prn:17,pseudo_cd_ph:18.927833
$meas,msRange:75.493113,x:13185606.943841,y:21290151.539384,z:9387407.851107,vx:-933.717529,vy:-657.034485,vz:2920.250488,tb:0.000052
i = 5
$pseudo_cd_ph,prn:18,pseudo_cd_ph:2.591331
$meas,msRange:71.827308,x:-15167112.672209,y:8537182.170445,z:19536818.348586,vx:217.971359,vy:-2588.865967,vz:1282.414673,tb:0.000052
i = 6
$pseudo_cd_ph,prn:22,pseudo_cd_ph:15.000175
$meas,msRange:78.671232,x:-24715601.199677,y:9543932.082000,z:1400921.724990,vx:-17.015417,vy:-421.452454,vz:3096.563721,tb:-0.000698
i = 7
$pseudo_cd_ph,prn:30,pseudo_cd_ph:5.659463
$meas,msRange:68.607322,x:555289.481513,y:25033975.397964,z:8583260.690011,vx:-570.800537,vy:991.779175,vz:-2881.278564,tb:-0.000101
i = 8
i = 9
i = 10
i = 11
i = 12
i = 13
i = 14
i = 15
i = 16
i = 17
i = 18
$GNGGA,000000.000,,,,,0,00,,,M,,,,0000*2B
$GNRMC,000000.000,A,,,,,,,060180,,*29
$GPGSA,A,1,,,,,,,,,,,,,,,*1E
$BDGSA,A,1,,,,,,,,,,,,,,,*0F
$GLGSA,A,1,,,,,,,,,,,,,,,*02
$GPGSV,2,1,08,01,00,000,45,07,00,000,44,08,00,000,34,11,00,000,43*7D
$GPGSV,2,2,08,17,00,000,41,18,00,000,43,22,00,000,39,30,00,000,45*74
$BDGSV,2,1,07,02,00,000,41,04,00,000,40,05,00,000,36,07,00,000,42*6A
$BDGSV,2,2,07,10,00,000,43,27,00,000,29,28,00,000,29*56
$B3CN0,0,0,0,0,0,0,0,0,0,0,0,0,0,0*4C
$ini_pos,lastpos_good = 1,ini_pos.x:-1578914.000000,ini_pos.y:5312775.000000,ini_pos.z:3146360.000000
$rtc_local_time,localRTC.weeks:2052,localRTC.seconds:370919.026006,localGtime.weeks:2052,localGtime.seconds:370919.026006
i = 0
$pseudo_cd_ph,prn:1,pseudo_cd_ph:6.370154
$meas,msRange:67.986413,x:-13427847.510272,y:17342139.459727,z:14561960.468646,vx:163.443100,vy:-1894.484375,vz:2408.949951,tb:-0.000012
i = 1
$pseudo_cd_ph,prn:7,pseudo_cd_ph:3.170070
$meas,msRange:71.176939,x:-6805915.368310,y:25277624.043376,z:-2276432.521800,vx:-266.998169,vy:-385.364441,vz:-3178.419189,tb:-0.000021
i = 2
$pseudo_cd_ph,prn:8,pseudo_cd_ph:14.274323
$meas,msRange:79.950494,x:-19433342.437072,y:10747.232125,z:18232801.919505,vx:-1679.785278,vy:-1573.352173,vz:-1772.565674,tb:-0.000143
i = 3
$pseudo_cd_ph,prn:11,pseudo_cd_ph:4.790193
$meas,msRange:68.967463,x:-11863350.105632,y:13439981.568038,z:19136144.172618,vx:-809.967773,vy:-2431.949219,vz:1149.038696,tb:-0.000610
i = 4
$pseudo_cd_ph,prn:17,pseudo_cd_ph:18.929414
$meas,msRange:75.492220,x:13184673.076083,y:21289494.407827,z:9390328.003778,vx:-934.018005,vy:-657.228699,vz:2920.054932,tb:0.000052
i = 5
$pseudo_cd_ph,prn:18,pseudo_cd_ph:2.590525
$meas,msRange:71.828812,x:-15166894.761252,y:8534593.216303,z:19538100.545871,vx:217.850571,vy:-2589.042480,vz:1281.979980,tb:0.000052
i = 6
$pseudo_cd_ph,prn:22,pseudo_cd_ph:15.001826
$meas,msRange:78.670271,x:-24715618.047761,y:9543510.554318,z:1404018.273621,vx:-16.680756,vy:-421.602966,vz:3096.533691,tb:-0.000698
i = 7
$pseudo_cd_ph,prn:30,pseudo_cd_ph:5.659722
$meas,msRange:68.607756,x:554718.748794,y:25034967.016254,z:8580379.319413,vx:-570.664917,vy:991.457458,vz:-2881.462891,tb:-0.000101
i = 8
i = 9
i = 10
i = 11
i = 12
i = 13
i = 14
i = 15
i = 16
i = 17
i = 18
i = 19
$GNGGA,000000.000,,,,,0,00,,,M,,,,0000*2B
$GNRMC,000000.000,A,,,,,,,060180,,*29
$GPGSA,A,1,,,,,,,,,,,,,,,*1E
$BDGSA,A,1,,,,,,,,,,,,,,,*0F
$GLGSA,A,1,,,,,,,,,,,,,,,*02
$GPGSV,2,1,08,01,00,000,45,07,00,000,44,08,00,000,34,11,00,000,44*7A
$GPGSV,2,2,08,17,00,000,41,18,00,000,44,22,00,000,39,30,00,000,45*73
$BDGSV,2,1,07,02,00,000,39,04,00,000,40,05,00,000,35,07,00,000,42*66
$BDGSV,2,2,07,10,00,000,43,27,00,000,46,28,00,000,41*51
$B3CN0,0,0,0,0,0,0,0,0,0,0,0,0,0,0*4C
$ini_pos,lastpos_good = 1,ini_pos.x:-1578914.000000,ini_pos.y:5312775.000000,ini_pos.z:3146360.000000
$rtc_local_time,localRTC.weeks:2052,localRTC.seconds:370920.026006,localGtime.weeks:2052,localGtime.seconds:370920.026006
i = 0
$pseudo_cd_ph,prn:1,pseudo_cd_ph:6.370394
$meas,msRange:67.986867,x:-13427684.094382,y:17340244.820208,z:14564369.259531,vx:163.388687,vy:-1894.794800,vz:2408.631836,tb:-0.000012
i = 1
$pseudo_cd_ph,prn:7,pseudo_cd_ph:3.169056
$meas,msRange:71.178649,x:-6806182.337895,y:25277238.487937,z:-2279610.915775,vx:-266.941040,vy:-385.746460,vz:-3178.369141,tb:-0.000021
i = 2
$pseudo_cd_ph,prn:8,pseudo_cd_ph:14.273403
$meas,msRange:79.952108,x:-19435022.184070,y:9174.002446,z:18231029.161795,vx:-1679.708740,vy:-1573.107300,vz:-1772.949829,tb:-0.000143
i = 3
$pseudo_cd_ph,prn:11,pseudo_cd_ph:4.789768
$meas,msRange:68.968583,x:-11864160.151131,y:13437549.565122,z:19137292.999720,vx:-810.123291,vy:-2432.056641,vz:1148.615601,tb:-0.000610
i = 4
$pseudo_cd_ph,prn:17,pseudo_cd_ph:18.931000
$meas,msRange:75.491327,x:13183738.907836,y:21288837.082062,z:9393247.960736,vx:-934.318542,vy:-657.422852,vz:2919.859131,tb:0.000052
i = 5
$pseudo_cd_ph,prn:18,pseudo_cd_ph:2.589712
$meas,msRange:71.830316,x:-15166676.971101,y:8532004.085896,z:19539382.308383,vx:217.729752,vy:-2589.218506,vz:1281.545166,tb:0.000052
i = 6
$pseudo_cd_ph,prn:22,pseudo_cd_ph:15.003486
$meas,msRange:78.669310,x:-24715634.561196,y:9543088.876112,z:1407114.792279,vx:-16.346119,vy:-421.753510,vz:3096.503662,tb:-0.000698
i = 7
$pseudo_cd_ph,prn:30,pseudo_cd_ph:5.659979
$meas,msRange:68.608191,x:554148.151694,y:25035958.312846,z:8577497.764373,vx:-570.529297,vy:991.135742,vz:-2881.647217,tb:-0.000101
i = 8
i = 9
i = 10
i = 11
i = 12
i = 13
i = 14
i = 15
i = 16
i = 17
i = 18
i = 19
$GNGGA,000000.000,,,,,0,00,,,M,,,,0000*2B
$GNRMC,000000.000,A,,,,,,,060180,,*29
$GPGSA,A,1,,,,,,,,,,,,,,,*1E
$BDGSA,A,1,,,,,,,,,,,,,,,*0F
$GLGSA,A,1,,,,,,,,,,,,,,,*02
$GPGSV,2,1,08,01,00,000,45,07,00,000,44,08,00,000,33,11,00,000,44*7D
$GPGSV,2,2,08,17,00,000,41,18,00,000,43,22,00,000,39,30,00,000,45*74
$BDGSV,2,1,07,02,00,000,41,04,00,000,41,05,00,000,37,07,00,000,43*6B
$BDGSV,2,2,07,10,00,000,43,27,00,000,45,28,00,000,41*52
$B3CN0,0,0,0,0,0,0,0,0,0,0,0,0,0,0*4C
tow update,370922086.370632
$ini_pos,lastpos_good = 1,ini_pos.x:-1578914.000000,ini_pos.y:5312775.000000,ini_pos.z:3146360.000000
$rtc_local_time,localRTC.weeks:2052,localRTC.seconds:370921.026006,localGtime.weeks:2052,localGtime.seconds:370922.086371
i = 0
$pseudo_cd_ph,prn:1,pseudo_cd_ph:370921886.370632
$meas,msRange:67.987804,x:-13427347.569823,y:17336340.194176,z:14569331.242917,vx:163.276413,vy:-1895.434204,vz:2407.976074,tb:-0.000012
i = 1
$pseudo_cd_ph,prn:7,pseudo_cd_ph:370921883.168041
$meas,msRange:71.182173,x:-6806732.212542,y:25276442.898801,z:-2286159.407044,vx:-266.823517,vy:-386.533630,vz:-3178.265625,tb:-0.000021
i = 2
$pseudo_cd_ph,prn:8,pseudo_cd_ph:370921874.272473
$meas,msRange:79.955431,x:-19438482.833217,y:5933.348172,z:18227375.424382,vx:-1679.550903,vy:-1572.602783,vz:-1773.741089,tb:-0.000143
i = 3
$pseudo_cd_ph,prn:11,pseudo_cd_ph:370921884.789342
$meas,msRange:68.970890,x:-11865829.630236,y:13432538.414629,z:19139658.667989,vx:-810.443726,vy:-2432.277832,vz:1147.743774,tb:-0.000610
i = 4
$pseudo_cd_ph,prn:17,pseudo_cd_ph:370921878.932584
$meas,msRange:75.489489,x:13181813.233567,y:21287482.139518,z:9399263.518365,vx:-934.937683,vy:-657.822754,vz:2919.455566,tb:0.000052
i = 5
$pseudo_cd_ph,prn:18,pseudo_cd_ph:370921882.588897
$meas,msRange:71.833418,x:-15166228.625053,y:8526668.978726,z:19542021.835185,vx:217.480713,vy:-2589.581543,vz:1280.649292,tb:0.000052
i = 6
$pseudo_cd_ph,prn:22,pseudo_cd_ph:370921875.005142
$meas,msRange:78.667332,x:-24715667.529929,y:9542219.590672,z:1413494.653830,vx:-15.656718,vy:-422.063812,vz:3096.441650,tb:-0.000698
i = 7
i = 8
$pseudo_cd_ph,prn:30,pseudo_cd_ph:370921885.660237
$meas,msRange:68.609087,x:552972.941244,y:25037999.730516,z:8571560.130167,vx:-570.250061,vy:990.472778,vz:-2882.027100,tb:-0.000101
i = 9
i = 10
i = 11
i = 12
i = 13
i = 14
i = 15
i = 16
i = 17
i = 18
i = 19
i = 20
i = 21
i = 22
$GNGGA,070143.954,2944.9077,N,10633.0906,E,1,12,1.1,324.5,M,,,,0000*11
$GNRMC,070143.954,A,2944.9077,N,10633.0906,E,0.18,0.00,090519,,*13
$GPGSA,A,3,01,07,08,11,17,18,22,30,,,,,1.9,1.1,1.5*3C
$BDGSA,A,3,02,04,07,10,,,,,,,,,1.9,1.1,1.5*2F
$GLGSA,A,3,,,,,,,,,,,,,1.9,1.1,1.5*22
$GPGSV,3,1,09,01,00,000,45,07,00,000,44,08,00,000,35,11,00,000,43*7C
$GPGSV,3,2,09,17,00,000,41,18,00,000,43,22,00,000,40,28,00,000,30*71
$GPGSV,3,3,09,30,00,000,45*42
$BDGSV,3,1,09,01,00,000,40,02,00,000,41,03,00,000,28,04,00,000,41*69
$BDGSV,3,2,09,05,00,000,35,07,00,000,43,10,00,000,43,27,00,000,45*61
$BDGSV,3,3,09,28,00,000,41*5E
$B3CN0,0,0,0,0,0,0,0,0,0,0,0,0,0,0*4C
$ini_pos,lastpos_good = 1,ini_pos.x:-1578911.233381,ini_pos.y:5312770.905544,ini_pos.z:3146356.792068
$rtc_local_time,localRTC.weeks:2052,localRTC.seconds:370922.071636,localGtime.weeks:2052,localGtime.seconds:370923.000000
i = 0
$pseudo_cd_ph,prn:1,pseudo_cd_ph:370922932.000399
$meas,msRange:67.988239,x:-13427198.418477,y:17334608.340399,z:14571531.107727,vx:163.226562,vy:-1895.717651,vz:2407.685303,tb:-0.000012
i = 1
$pseudo_cd_ph,prn:7,pseudo_cd_ph:370922928.796497
$meas,msRange:71.183749,x:-6806975.966555,y:25276089.590879,z:-2289063.142794,vx:-266.771484,vy:-386.882690,vz:-3178.219727,tb:-0.000021
i = 2
$pseudo_cd_ph,prn:8,pseudo_cd_ph:370922919.901021
$meas,msRange:79.956915,x:-19440017.288119,y:4496.674286,z:18225754.722288,vx:-1679.480713,vy:-1572.379150,vz:-1774.091797,tb:-0.000143
i = 3
$pseudo_cd_ph,prn:11,pseudo_cd_ph:370922930.418414
$meas,msRange:68.971932,x:-11866570.140301,y:13430316.169383,z:19140707.103717,vx:-810.585815,vy:-2432.375977,vz:1147.357056,tb:-0.000610
i = 4
$pseudo_cd_ph,prn:17,pseudo_cd_ph:370922924.563759
$meas,msRange:75.488680,x:13180958.921639,y:21286881.052364,z:9401930.736941,vx:-935.212280,vy:-658.000000,vz:2919.276611,tb:0.000052
i = 5
$pseudo_cd_ph,prn:18,pseudo_cd_ph:370922928.217564
$meas,msRange:71.834809,x:-15166029.978748,y:8524302.987621,z:19543191.692399,vx:217.370255,vy:-2589.742432,vz:1280.251953,tb:0.000052
i = 6
$pseudo_cd_ph,prn:22,pseudo_cd_ph:370922920.636392
$meas,msRange:78.666465,x:-24715681.694730,y:9541833.917920,z:1416323.641203,vx:-15.351048,vy:-422.201447,vz:3096.414062,tb:-0.000698
i = 7
$pseudo_cd_ph,prn:28,pseudo_cd_ph:6.957994
$meas,msRange:73.810489,x:3923402.723606,y:14508849.954756,z:22506030.740157,vx:-2621.685547,vy:666.383301,vz:37.398430,tb:0.000768
i = 8
$pseudo_cd_ph,prn:30,pseudo_cd_ph:370922931.290022
$meas,msRange:68.609500,x:552452.000621,y:25038904.521198,z:8568926.948794,vx:-570.126282,vy:990.178772,vz:-2882.195312,tb:-0.000101
i = 9
i = 10
i = 11
i = 12
i = 13
i = 14
i = 15
i = 16
i = 17
i = 18
i = 19
i = 20
i = 21
i = 22
i = 23
Refix G01: 2, 370922.932000, -422
Refix G03: 2, 370922.919809, -3591
Refix G07: 2, 370922.928796, 1554
Refix G08: 2, 370922.919901, 1399
Refix G11: 2, 370922.930418, 624
Refix G13: 2, 370922.916466, -625
Refix G17: 2, 370922.924564, -2546
Refix G18: 2, 370922.928218, 1231
Refix G22: 2, 370922.920636, -2654
Refix G28: 2, 370922.926958, -2938
Refix G30: 2, 370922.931290, -453
$GNGGA,070145.000,2944.9065,N,10633.0910,E,1,12,1.0,324.6,M,,,,0000*19
$GNRMC,070145.000,A,2944.9065,N,10633.0910,E,0.15,0.00,090519,,*14
$GPGSA,A,3,01,07,08,11,17,18,22,30,,,,,1.1,1.0,0.6*37
$BDGSA,A,3,02,04,07,10,,,,,,,,,1.1,1.0,0.6*24
$GLGSA,A,3,,,,,,,,,,,,,1.1,1.0,0.6*29
$GPGSV,3,1,09,01,00,000,45,07,00,000,44,08,00,000,34,11,00,000,44*7A
$GPGSV,3,2,09,17,00,000,42,18,00,000,43,22,00,000,40,28,00,000,43*76
$GPGSV,3,3,09,30,00,000,45*42
$BDGSV,3,1,10,01,00,000,41,02,00,000,40,03,00,000,30,04,00,000,40*69
$BDGSV,3,2,10,05,00,000,35,07,00,000,43,08,00,000,37,10,00,000,43*61
$BDGSV,3,3,10,27,00,000,45,28,00,000,41*62
$B3CN0,0,0,0,0,0,0,0,0,0,0,0,0,0,0*4C
$ini_pos,lastpos_good = 1,ini_pos.x:-1578912.153189,ini_pos.y:5312771.923936,ini_pos.z:3146354.850204
$rtc_local_time,localRTC.weeks:2052,localRTC.seconds:370923.071636,localGtime.weeks:2052,localGtime.seconds:370924.000000
i = 0
$pseudo_cd_ph,prn:1,pseudo_cd_ph:370923932.000637
$meas,msRange:67.988695,x:-13427035.219225,y:17332712.467653,z:14573938.633815,vx:163.171951,vy:-1896.027954,vz:2407.366943,tb:-0.000012
i = 1
$pseudo_cd_ph,prn:7,pseudo_cd_ph:370923928.795479
$meas,msRange:71.185454,x:-6807242.709557,y:25275702.517168,z:-2292241.337253,vx:-266.714569,vy:-387.264740,vz:-3178.169434,tb:-0.000021
i = 2
$pseudo_cd_ph,prn:8,pseudo_cd_ph:370923919.900093
$meas,msRange:79.958531,x:-19441696.730422,y:2924.417648,z:18223980.438528,vx:-1679.403931,vy:-1572.134277,vz:-1774.475830,tb:-0.000143
i = 3
$pseudo_cd_ph,prn:11,pseudo_cd_ph:370923930.417987
$meas,msRange:68.973055,x:-11867380.803853,y:13427883.739890,z:19141854.249181,vx:-810.741333,vy:-2432.483154,vz:1146.933838,tb:-0.000610
i = 4
$pseudo_cd_ph,prn:17,pseudo_cd_ph:370923924.565347
$meas,msRange:75.487789,x:13180023.559127,y:21286222.955377,z:9404849.915548,vx:-935.512817,vy:-658.193970,vz:2919.080811,tb:0.000052
i = 5
$pseudo_cd_ph,prn:18,pseudo_cd_ph:370923928.216753
$meas,msRange:71.836318,x:-15165812.668963,y:8521713.157344,z:19544471.726836,vx:217.249313,vy:-2589.918457,vz:1279.817017,tb:0.000052
i = 6
$pseudo_cd_ph,prn:22,pseudo_cd_ph:370923920.638042
$meas,msRange:78.665501,x:-24715696.878504,y:9541411.641120,z:1419420.040100,vx:-15.016504,vy:-422.352173,vz:3096.383789,tb:-0.000698
i = 7
$pseudo_cd_ph,prn:28,pseudo_cd_ph:6.959818
$meas,msRange:73.809353,x:3920781.057730,y:14509516.421950,z:22506067.912307,vx:-2621.646240,vy:666.551086,vz:36.945869,tb:0.000768
i = 8
$pseudo_cd_ph,prn:30,pseudo_cd_ph:370923931.290280
$meas,msRange:68.609935,x:551881.942102,y:25039894.539005,z:8566044.661393,vx:-569.990845,vy:989.856934,vz:-2882.379639,tb:-0.000101
i = 9
i = 10
i = 11
i = 12
i = 13
i = 14
i = 15
i = 16
i = 17
i = 18
i = 19
i = 20
i = 21
i = 22
i = 23
Refix G01: 2, 370923.932001, -421
Refix G03: 2, 370923.919811, -3589
Refix G07: 2, 370923.928795, 1555
Refix G08: 2, 370923.919900, 1400
Refix G11: 2, 370923.930418, 625
Refix G13: 2, 370923.916466, -624
Refix G17: 2, 370923.924565, -2545
Refix G18: 2, 370923.928217, 1232
Refix G22: 2, 370923.920638, -2652
Refix G28: 2, 370923.926960, -2938
Refix G30: 2, 370923.931290, -452
$GNGGA,070146.000,2944.9064,N,10633.0910,E,1,15,0.9,325.1,M,,,,0000*12
$GNRMC,070146.000,A,2944.9064,N,10633.0910,E,0.03,0.00,090519,,*11
$GPGSA,A,3,01,07,08,11,17,18,22,30,,,,,1.0,0.9,0.5*3D
$BDGSA,A,3,02,04,07,08,10,27,28,,,,,,1.0,0.9,0.5*29
$GLGSA,A,3,,,,,,,,,,,,,1.0,0.9,0.5*23
$GPGSV,3,1,11,01,65,072,45,07,45,182,45,08,18,054,34,11,56,041,44*70
$GPGSV,3,2,11,17,34,269,42,18,41,048,43,22,20,107,39,28,45,329,43*7F
$GPGSV,3,3,11,30,64,240,46,03,15,130,00,13,06,293,00*45
$BDGSV,3,1,12,01,40,125,41,02,46,219,40,03,00,000,31,04,23,109,40*69
$BDGSV,3,2,12,05,00,000,37,07,65,098,43,08,80,171,42,10,76,004,43*6B
$BDGSV,3,3,12,27,66,006,45,28,19,046,41,13,53,206,00,30,43,257,00*68
$B3CN0,0,0,0,0,0,0,0,0,0,0,0,0,0,0*4C
$ini_pos,lastpos_good = 1,ini_pos.x:-1578912.376655,ini_pos.y:5312772.400146,ini_pos.z:3146354.915340
$rtc_local_time,localRTC.weeks:2052,localRTC.seconds:370924.071636,localGtime.weeks:2052,localGtime.seconds:370925.000000
i = 0
$pseudo_cd_ph,prn:1,pseudo_cd_ph:370924932.000873
$meas,msRange:67.989150,x:-13426872.074606,y:17330816.284682,z:14576345.841504,vx:163.117294,vy:-1896.338135,vz:2407.048584,tb:-0.000012
i = 1
$pseudo_cd_ph,prn:7,pseudo_cd_ph:370924928.794460
$meas,msRange:71.187164,x:-6807509.395668,y:25275315.061396,z:-2295419.481334,vx:-266.657684,vy:-387.646820,vz:-3178.118896,tb:-0.000021
i = 2
$pseudo_cd_ph,prn:8,pseudo_cd_ph:370924919.899176
$meas,msRange:79.960144,x:-19443376.095899,y:1352.405897,z:18222205.770853,vx:-1679.327148,vy:-1571.889404,vz:-1774.859619,tb:-0.000143
i = 3
$pseudo_cd_ph,prn:11,pseudo_cd_ph:370924930.417558
$meas,msRange:68.974174,x:-11868191.622931,y:13425451.203209,z:19143000.971416,vx:-810.896851,vy:-2432.590332,vz:1146.510620,tb:-0.000610
i = 4
$pseudo_cd_ph,prn:17,pseudo_cd_ph:370924924.566930
$meas,msRange:75.486897,x:13179087.896065,y:21285564.664463,z:9407768.898143,vx:-935.813354,vy:-658.387878,vz:2918.884766,tb:0.000052
i = 5
$pseudo_cd_ph,prn:18,pseudo_cd_ph:370924928.215940
$meas,msRange:71.837823,x:-15165595.480128,y:8519123.151108,z:19545751.326356,vx:217.128357,vy:-2590.094238,vz:1279.382080,tb:0.000052
i = 6
$pseudo_cd_ph,prn:22,pseudo_cd_ph:370924920.639686
$meas,msRange:78.664541,x:-24715711.727746,y:9540989.213591,z:1422516.408697,vx:-14.681983,vy:-422.502930,vz:3096.353516,tb:-0.000698
i = 7
$pseudo_cd_ph,prn:28,pseudo_cd_ph:6.961643
$meas,msRange:73.808211,x:3918159.431085,y:14510183.056938,z:22506104.631896,vx:-2621.607178,vy:666.718872,vz:36.493309,tb:0.000768
i = 8
$pseudo_cd_ph,prn:30,pseudo_cd_ph:370924931.290535
$meas,msRange:68.610370,x:551312.019015,y:25040884.234933,z:8563162.189859,vx:-569.855408,vy:989.535034,vz:-2882.563721,tb:-0.000101
i = 9
i = 10
i = 11
i = 12
i = 13
i = 14
i = 15
i = 16
i = 17
i = 18
i = 19
i = 20
i = 21
i = 22
i = 23
i = 24
Refix G01: 2, 370924.932001, -415
Refix G03: 2, 370924.919814, -3586
Refix G07: 2, 370924.928794, 1560
Refix G08: 2, 370924.919899, 1404
Refix G11: 2, 370924.930418, 630
Refix G13: 2, 370924.916466, -621
Refix G17: 2, 370924.924567, -2542
Refix G18: 2, 370924.928216, 1237
Refix G22: 2, 370924.920640, -2648
Refix G28: 2, 370924.926962, -2934
Refix G30: 2, 370924.931291, -447
$GNGGA,070147.000,2944.9064,N,10633.0911,E,1,15,0.9,325.4,M,,,,0000*17
$GNRMC,070147.000,A,2944.9064,N,10633.0911,E,0.21,0.00,090519,,*11
$GPGSA,A,3,01,07,08,11,17,18,22,30,,,,,1.0,0.9,0.5*3D
$BDGSA,A,3,02,04,07,08,10,27,28,,,,,,1.0,0.9,0.5*29
$GLGSA,A,3,,,,,,,,,,,,,1.0,0.9,0.5*23
$GPGSV,3,1,11,01,65,072,45,07,45,182,44,08,18,054,34,11,56,041,43*76
$GPGSV,3,2,11,17,34,269,41,18,41,048,43,22,20,107,40,28,45,329,43*72
$GPGSV,3,3,11,30,64,240,46,03,15,130,00,13,06,293,00*45
$BDGSV,3,1,12,01,40,125,40,02,46,219,40,03,00,000,32,04,23,109,39*65
$BDGSV,3,2,12,05,00,000,35,07,65,098,43,08,80,171,42,10,76,004,43*69
$BDGSV,3,3,12,27,66,006,45,28,19,046,42,13,53,206,00,30,43,257,00*6B
$B3CN0,0,0,0,0,0,0,0,0,0,0,0,0,0,0*4C
$ini_pos,lastpos_good = 1,ini_pos.x:-1578912.473989,ini_pos.y:5312772.679123,ini_pos.z:3146355.081117
$rtc_local_time,localRTC.weeks:2052,localRTC.seconds:370925.071636,localGtime.weeks:2052,localGtime.seconds:370926.000000
i = 0
$pseudo_cd_ph,prn:1,pseudo_cd_ph:370925932.001108
$meas,msRange:67.989606,x:-13426708.984668,y:17328919.791523,z:14578752.730741,vx:163.062592,vy:-1896.648315,vz:2406.729980,tb:-0.000012
i = 1
$pseudo_cd_ph,prn:7,pseudo_cd_ph:370925928.793438
$meas,msRange:71.188875,x:-6807776.024940,y:25274927.223559,z:-2298597.574965,vx:-266.600891,vy:-388.028870,vz:-3178.068604,tb:-0.000021
i = 2
$pseudo_cd_ph,prn:8,pseudo_cd_ph:370925919.898265
$meas,msRange:79.961756,x:-19445055.384489,y:-219.360954,z:18220430.719302,vx:-1679.250122,vy:-1571.644409,vz:-1775.243530,tb:-0.000143
i = 3
$pseudo_cd_ph,prn:11,pseudo_cd_ph:370925930.417130
$meas,msRange:68.975294,x:-11869002.597537,y:13423018.559402,z:19144147.270395,vx:-811.052368,vy:-2432.697510,vz:1146.087402,tb:-0.000610
i = 4
$pseudo_cd_ph,prn:17,pseudo_cd_ph:370925924.568512
$meas,msRange:75.486004,x:13178151.932439,y:21284906.179678,z:9410687.684669,vx:-936.113953,vy:-658.581726,vz:2918.688477,tb:0.000052
i = 5
$pseudo_cd_ph,prn:18,pseudo_cd_ph:370925928.215125
$meas,msRange:71.839329,x:-15165378.412271,y:8516532.968972,z:19547030.490928,vx:217.007370,vy:-2590.270264,vz:1278.947144,tb:0.000052
i = 6
$pseudo_cd_ph,prn:22,pseudo_cd_ph:370925920.641332
$meas,msRange:78.663581,x:-24715726.242478,y:9540566.635289,z:1425612.746927,vx:-14.347486,vy:-422.653717,vz:3096.323242,tb:-0.000698
i = 7
$pseudo_cd_ph,prn:28,pseudo_cd_ph:6.963469
$meas,msRange:73.807068,x:3915537.843733,y:14510849.859705,z:22506140.898924,vx:-2621.567871,vy:666.886658,vz:36.040749,tb:0.000768
i = 8
$pseudo_cd_ph,prn:30,pseudo_cd_ph:370925931.290788
$meas,msRange:68.610806,x:550742.231323,y:25041873.608946,z:8560279.534251,vx:-569.720032,vy:989.213074,vz:-2882.747803,tb:-0.000101
i = 9
i = 10
i = 11
i = 12
i = 13
i = 14
i = 15
i = 16
i = 17
i = 18
i = 19
i = 20
i = 21
i = 22
i = 23
Refix G01: 2, 370925.932001, -418
Refix G03: 2, 370925.919816, -3588
Refix G07: 2, 370925.928793, 1557
Refix G08: 2, 370925.919898, 1401
Refix G11: 2, 370925.930417, 627
Refix G13: 2, 370925.916467, -621
Refix G17: 2, 370925.924569, -2543
Refix G18: 2, 370925.928215, 1234
Refix G22: 2, 370925.920641, -2650
Refix G28: 2, 370925.926963, -2937
Refix G30: 2, 370925.931291, -449
$GNGGA,070148.000,2944.9065,N,10633.0911,E,1,16,0.8,325.5,M,,,,0000*1A
$GNRMC,070148.000,A,2944.9065,N,10633.0911,E,0.15,0.00,090519,,*18
$GPGSA,A,3,01,07,08,11,17,18,22,30,,,,,0.9,0.8,0.4*35
$BDGSA,A,3,01,02,04,07,08,10,27,28,,,,,0.9,0.8,0.4*20
$GLGSA,A,3,,,,,,,,,,,,,0.9,0.8,0.4*2B
$GPGSV,3,1,11,01,65,072,46,07,45,182,45,08,18,054,34,11,56,041,43*74
$GPGSV,3,2,11,17,34,269,42,18,41,048,43,22,20,107,40,28,45,329,43*71
$GPGSV,3,3,11,30,64,240,46,03,15,130,00,13,06,293,00*45
$BDGSV,3,1,12,01,40,125,41,02,46,219,40,03,00,000,32,04,23,109,39*64
$BDGSV,3,2,12,05,00,000,35,07,65,098,43,08,80,171,42,10,76,004,44*6E
$BDGSV,3,3,12,27,66,006,46,28,19,046,41,13,53,206,00,30,43,257,00*6B
$B3CN0,0,18,0,0,0,0,0,0,0,0,0,0,0,0*75
$ini_pos,lastpos_good = 1,ini_pos.x:-1578912.494390,ini_pos.y:5312772.672623,ini_pos.z:3146355.266591
$rtc_local_time,localRTC.weeks:2052,localRTC.seconds:370926.071636,localGtime.weeks:2052,localGtime.seconds:370927.000000
i = 0
$pseudo_cd_ph,prn:1,pseudo_cd_ph:370926932.001344
$meas,msRange:67.990062,x:-13426545.949460,y:17327022.988217,z:14581159.301474,vx:163.007828,vy:-1896.958374,vz:2406.411621,tb:-0.000012
i = 1
$pseudo_cd_ph,prn:7,pseudo_cd_ph:370926928.792416
$meas,msRange:71.190587,x:-6808042.597424,y:25274539.003655,z:-2301775.618077,vx:-266.544128,vy:-388.410950,vz:-3178.017822,tb:-0.000021
i = 2
$pseudo_cd_ph,prn:8,pseudo_cd_ph:370926919.897341
$meas,msRange:79.963369,x:-19446734.596130,y:-1790.882893,z:18218655.283911,vx:-1679.173218,vy:-1571.399536,vz:-1775.627319,tb:-0.000143
i = 3
$pseudo_cd_ph,prn:11,pseudo_cd_ph:370926930.416700
$meas,msRange:68.976415,x:-11869813.727670,y:13420585.808532,z:19145293.146091,vx:-811.207947,vy:-2432.804443,vz:1145.664062,tb:-0.000610
i = 4
$pseudo_cd_ph,prn:17,pseudo_cd_ph:370926924.570096
$meas,msRange:75.485113,x:13177215.668238,y:21284247.501077,z:9413606.275064,vx:-936.414551,vy:-658.775513,vz:2918.492432,tb:0.000052
i = 5
$pseudo_cd_ph,prn:18,pseudo_cd_ph:370926928.214309
$meas,msRange:71.840835,x:-15165161.465421,y:8513942.610998,z:19548309.220524,vx:216.886337,vy:-2590.446045,vz:1278.512085,tb:0.000052
i = 6
$pseudo_cd_ph,prn:22,pseudo_cd_ph:370926920.642984
$meas,msRange:78.662621,x:-24715740.422725,y:9540143.906175,z:1428709.054725,vx:-14.013012,vy:-422.804535,vz:3096.292725,tb:-0.000698
i = 7
$pseudo_cd_ph,prn:28,pseudo_cd_ph:6.965298
$meas,msRange:73.805926,x:3912916.295739,y:14511516.830235,z:22506176.713390,vx:-2621.528320,vy:667.054443,vz:35.588184,tb:0.000768
i = 8
$pseudo_cd_ph,prn:30,pseudo_cd_ph:370926931.291043
$meas,msRange:68.611244,x:550172.578988,y:25042862.661008,z:8557396.694632,vx:-569.584717,vy:988.891113,vz:-2882.931641,tb:-0.000101
i = 9
i = 10
i = 11
i = 12
i = 13
i = 14
i = 15
i = 16
i = 17
i = 18
i = 19
i = 20
i = 21
i = 22
i = 23
i = 24
Refix G01: 2, 370926.932001, -413
Refix G03: 2, 370926.919818, -3584
Refix G07: 2, 370926.928792, 1562
Refix G08: 2, 370926.919897, 1405
Refix G11: 2, 370926.930417, 633
Refix G13: 2, 370926.916467, -616
Refix G17: 2, 370926.924570, -2538
Refix G18: 2, 370926.928214, 1240
Refix G22: 2, 370926.920643, -2646
Refix G28: 2, 370926.926965, -2931
Refix G30: 2, 370926.931291, -444
$GNGGA,070149.000,2944.9065,N,10633.0912,E,1,16,0.8,325.9,M,,,,0000*14
$GNRMC,070149.000,A,2944.9065,N,10633.0912,E,0.27,0.00,090519,,*1B
$GPGSA,A,3,01,07,08,11,17,18,22,30,,,,,0.9,0.8,0.4*35
$BDGSA,A,3,01,02,04,07,08,10,27,28,,,,,0.9,0.8,0.4*20
$GLGSA,A,3,,,,,,,,,,,,,0.9,0.8,0.4*2B
$GPGSV,3,1,11,01,65,072,46,07,45,182,45,08,18,054,35,11,56,041,44*72
$GPGSV,3,2,11,17,34,269,42,18,41,048,43,22,20,107,39,28,45,329,42*7E
$GPGSV,3,3,11,30,64,240,46,03,15,130,00,13,06,293,00*45
$BDGSV,3,1,12,01,40,125,41,02,46,219,41,03,00,000,33,04,23,109,40*6A
$BDGSV,3,2,12,05,00,000,34,07,65,098,43,08,80,171,42,10,76,004,44*6F
$BDGSV,3,3,12,27,66,006,45,28,19,046,41,13,53,206,00,30,43,257,00*68
$B3CN0,23,20,0,0,0,0,0,0,0,0,0,0,0,0*4F
$ini_pos,lastpos_good = 1,ini_pos.x:-1578912.712741,ini_pos.y:5312772.884427,ini_pos.z:3146355.571698
$rtc_local_time,localRTC.weeks:2052,localRTC.seconds:370927.071636,localGtime.weeks:2052,localGtime.seconds:370928.000000
i = 0
$pseudo_cd_ph,prn:1,pseudo_cd_ph:370927932.001576
$meas,msRange:67.990519,x:-13426382.969028,y:17325125.874802,z:14583565.553650,vx:162.953033,vy:-1897.268555,vz:2406.093018,tb:-0.000012
i = 1
$pseudo_cd_ph,prn:7,pseudo_cd_ph:370927928.791392
$meas,msRange:71.192299,x:-6808309.113170,y:25274150.401680,z:-2304953.610600,vx:-266.487396,vy:-388.793030,vz:-3177.967285,tb:-0.000021
i = 2
$pseudo_cd_ph,prn:8,pseudo_cd_ph:370927919.896412
$meas,msRange:79.964981,x:-19448413.730761,y:-3362.159904,z:18216879.464718,vx:-1679.096191,vy:-1571.154541,vz:-1776.011108,tb:-0.000143
i = 3
$pseudo_cd_ph,prn:11,pseudo_cd_ph:370927930.416268
$meas,msRange:68.977536,x:-11870625.013333,y:13418152.950661,z:19146438.598476,vx:-811.363464,vy:-2432.911377,vz:1145.240723,tb:-0.000610
i = 4
$pseudo_cd_ph,prn:17,pseudo_cd_ph:370927924.571676
$meas,msRange:75.484221,x:13176279.103448,y:21283588.628717,z:9416524.669269,vx:-936.715149,vy:-658.969238,vz:2918.296143,tb:0.000052
i = 5
$pseudo_cd_ph,prn:18,pseudo_cd_ph:370927928.213491
$meas,msRange:71.842341,x:-15164944.639607,y:8511352.077248,z:19549587.515114,vx:216.765289,vy:-2590.621582,vz:1278.077148,tb:0.000052
i = 6
$pseudo_cd_ph,prn:22,pseudo_cd_ph:370927920.644633
$meas,msRange:78.661662,x:-24715754.268509,y:9539721.026206,z:1431805.332024,vx:-13.678561,vy:-422.955414,vz:3096.262207,tb:-0.000698
i = 7
$pseudo_cd_ph,prn:28,pseudo_cd_ph:370927926.967125
$meas,msRange:73.804784,x:3910294.787165,y:14512183.968513,z:22506212.075295,vx:-2621.489014,vy:667.222168,vz:35.135624,tb:0.000768
i = 8
$pseudo_cd_ph,prn:30,pseudo_cd_ph:370927931.291293
$meas,msRange:68.611681,x:549603.061971,y:25043851.391082,z:8554513.671064,vx:-569.449402,vy:988.569092,vz:-2883.115723,tb:-0.000101
i = 9
i = 10
i = 11
i = 12
i = 13
i = 14
i = 15
i = 16
i = 17
i = 18
i = 19
i = 20
i = 21
i = 22
i = 23
Refix G01: 2, 370927.932002, -411
Refix G03: 2, 370927.919820, -3583
Refix G07: 2, 370927.928791, 1564
Refix G08: 2, 370927.919896, 1406
Refix G11: 2, 370927.930416, 634
Refix G13: 2, 370927.916468, -616
Refix G17: 2, 370927.924572, -2537
Refix G18: 2, 370927.928213, 1241
Refix G22: 2, 370927.920645, -2645
Refix G28: 2, 370927.926967, -2931
Refix G30: 2, 370927.931291, -442
$GNGGA,070150.000,2944.9068,N,10633.0911,E,1,17,0.8,325.7,M,,,,0000*1D
$GNRMC,070150.000,A,2944.9068,N,10633.0911,E,0.22,0.00,090519,,*18
$GPGSA,A,3,01,07,08,11,17,18,22,28,30,,,,0.9,0.8,0.4*3F
$BDGSA,A,3,01,02,04,07,08,10,27,28,,,,,0.9,0.8,0.4*20
$GLGSA,A,3,,,,,,,,,,,,,0.9,0.8,0.4*2B
$GPGSV,3,1,11,01,65,072,46,07,45,182,44,08,18,054,36,11,56,041,44*70
$GPGSV,3,2,11,17,34,269,41,18,41,048,43,22,20,107,39,28,45,329,43*7C
$GPGSV,3,3,11,30,64,240,45,03,15,130,00,13,06,293,00*46
$BDGSV,3,1,12,01,40,125,41,02,46,219,41,03,00,000,33,04,23,109,41*6B
$BDGSV,3,2,12,05,00,000,37,07,65,098,43,08,80,171,42,10,76,004,44*6C
$BDGSV,3,3,12,27,66,006,45,28,19,046,41,13,53,206,00,30,43,257,00*68
$B3CN0,0,20,0,0,0,0,0,0,0,0,0,0,0,0*7E
$ini_pos,lastpos_good = 1,ini_pos.x:-1578912.529502,ini_pos.y:5312772.523833,ini_pos.z:3146355.861911
$rtc_local_time,localRTC.weeks:2052,localRTC.seconds:370928.071636,localGtime.weeks:2052,localGtime.seconds:370929.000000
i = 0
$pseudo_cd_ph,prn:1,pseudo_cd_ph:370928932.001812
$meas,msRange:67.990977,x:-13426220.043422,y:17323228.451320,z:14585971.487217,vx:162.898178,vy:-1897.578613,vz:2405.774414,tb:-0.000012
i = 1
$pseudo_cd_ph,prn:7,pseudo_cd_ph:370928928.790372
$meas,msRange:71.194013,x:-6808575.572230,y:25273761.417629,z:-2308131.552463,vx:-266.430756,vy:-389.175110,vz:-3177.916504,tb:-0.000021
i = 2
$pseudo_cd_ph,prn:8,pseudo_cd_ph:370928919.895492
$meas,msRange:79.966593,x:-19450092.788319,y:-4933.191975,z:18215103.261763,vx:-1679.019043,vy:-1570.909668,vz:-1776.394897,tb:-0.000143
i = 3
$pseudo_cd_ph,prn:11,pseudo_cd_ph:370928930.415835
$meas,msRange:68.978658,x:-11871436.454525,y:13415719.985850,z:19147583.627522,vx:-811.518982,vy:-2433.018311,vz:1144.817383,tb:-0.000610
i = 4
$pseudo_cd_ph,prn:17,pseudo_cd_ph:370928924.573261
$meas,msRange:75.483330,x:13175342.238057,y:21282929.562654,z:9419442.867223,vx:-937.015747,vy:-659.162903,vz:2918.099854,tb:0.000052
i = 5
$pseudo_cd_ph,prn:18,pseudo_cd_ph:370928928.212676
$meas,msRange:71.843849,x:-15164727.934857,y:8508761.367782,z:19550865.374669,vx:216.644211,vy:-2590.797363,vz:1277.642090,tb:0.000052
i = 6
$pseudo_cd_ph,prn:22,pseudo_cd_ph:370928920.646287
$meas,msRange:78.660703,x:-24715767.779855,y:9539297.995341,z:1434901.578758,vx:-13.344134,vy:-423.106354,vz:3096.231445,tb:-0.000698
i = 7
$pseudo_cd_ph,prn:28,pseudo_cd_ph:370928926.968957
$meas,msRange:73.803642,x:3907673.318075,y:14512851.274523,z:22506246.984637,vx:-2621.449463,vy:667.389893,vz:34.683060,tb:0.000768
i = 8
$pseudo_cd_ph,prn:30,pseudo_cd_ph:370928931.291546
$meas,msRange:68.612120,x:549033.680237,y:25044839.799133,z:8551630.463609,vx:-569.314148,vy:988.247070,vz:-2883.299561,tb:-0.000101
i = 9
i = 10
i = 11
i = 12
i = 13
i = 14
i = 15
i = 16
i = 17
i = 18
i = 19
i = 20
i = 21
i = 22
i = 23
Refix G01: 2, 370928.932002, -416
Refix G03: 2, 370928.919822, -3586
Refix G07: 2, 370928.928790, 1560
Refix G08: 2, 370928.919895, 1402
Refix G11: 2, 370928.930416, 629
Refix G13: 2, 370928.916468, -619
Refix G17: 2, 370928.924573, -2542
Refix G18: 2, 370928.928213, 1236
Refix G22: 2, 370928.920646, -2648
Refix G28: 2, 370928.926969, -2936
Refix G30: 2, 370928.931292, -447
$GNGGA,070151.000,2944.9069,N,10633.0911,E,1,17,0.8,325.7,M,,,,0000*1D
$GNRMC,070151.000,A,2944.9069,N,10633.0911,E,0.11,0.00,090519,,*18
$GPGSA,A,3,01,07,08,11,17,18,22,28,30,,,,0.9,0.8,0.4*3F
$BDGSA,A,3,01,02,04,07,08,10,27,28,,,,,0.9,0.8,0.4*20
$GLGSA,A,3,,,,,,,,,,,,,0.9,0.8,0.4*2B
$GPGSV,3,1,11,01,65,072,45,07,45,182,45,08,18,054,35,11,56,041,44*71
$GPGSV,3,2,11,17,34,269,42,18,41,048,43,22,20,107,39,28,45,329,44*78
$GPGSV,3,3,11,30,64,240,45,03,15,130,00,13,06,293,00*46
$BDGSV,3,1,12,01,40,125,40,02,46,219,41,03,00,000,32,04,23,109,40*6A
$BDGSV,3,2,12,05,00,000,35,07,65,098,43,08,80,171,42,10,76,004,43*69
$BDGSV,3,3,12,27,66,006,45,28,19,046,41,13,53,206,00,30,43,257,00*68
$B3CN0,0,0,0,0,0,0,0,0,0,0,0,0,0,0*4C
$ini_pos,lastpos_good = 1,ini_pos.x:-1578912.432022,ini_pos.y:5312772.406328,ini_pos.z:3146356.127308
$rtc_local_time,localRTC.weeks:2052,localRTC.seconds:370929.071636,localGtime.weeks:2052,localGtime.seconds:370930.000000
i = 0
$pseudo_cd_ph,prn:1,pseudo_cd_ph:370929932.002045
$meas,msRange:67.991436,x:-13426057.172689,y:17321330.717807,z:14588377.102121,vx:162.843292,vy:-1897.888550,vz:2405.455566,tb:-0.000012
i = 1
$pseudo_cd_ph,prn:7,pseudo_cd_ph:370929928.789350
$meas,msRange:71.195726,x:-6808841.974653,y:25273372.051501,z:-2311309.443597,vx:-266.374146,vy:-389.557190,vz:-3177.865967,tb:-0.000021
i = 2
$pseudo_cd_ph,prn:8,pseudo_cd_ph:370929919.894566
$meas,msRange:79.968206,x:-19451771.768744,y:-6503.979093,z:18213326.675081,vx:-1678.941895,vy:-1570.664673,vz:-1776.778564,tb:-0.000143
i = 3
$pseudo_cd_ph,prn:11,pseudo_cd_ph:370929930.415403
$meas,msRange:68.979779,x:-11872248.051247,y:13413286.914162,z:19148728.233203,vx:-811.674500,vy:-2433.125244,vz:1144.394043,tb:-0.000610
i = 4
$pseudo_cd_ph,prn:17,pseudo_cd_ph:370929924.574847
$meas,msRange:75.482438,x:13174405.072053,y:21282270.302944,z:9422360.868868,vx:-937.316345,vy:-659.356506,vz:2917.903564,tb:0.000052
i = 5
$pseudo_cd_ph,prn:18,pseudo_cd_ph:370929928.211859
$meas,msRange:71.845356,x:-15164511.351200,y:8506170.482662,z:19552142.799160,vx:216.523102,vy:-2590.972900,vz:1277.207031,tb:0.000052
i = 6
$pseudo_cd_ph,prn:22,pseudo_cd_ph:370929920.647938
$meas,msRange:78.659745,x:-24715780.956785,y:9538874.813539,z:1437997.794862,vx:-13.009731,vy:-423.257294,vz:3096.200928,tb:-0.000698
i = 7
$pseudo_cd_ph,prn:28,pseudo_cd_ph:370929926.970788
$meas,msRange:73.802500,x:3905051.888533,y:14513518.748251,z:22506281.441416,vx:-2621.409912,vy:667.557617,vz:34.230499,tb:0.000768
i = 8
$pseudo_cd_ph,prn:30,pseudo_cd_ph:370929931.291797
$meas,msRange:68.612558,x:548464.433746,y:25045827.885124,z:8548747.072328,vx:-569.178894,vy:987.924988,vz:-2883.483154,tb:-0.000101
i = 9
i = 10
i = 11
i = 12
i = 13
i = 14
i = 15
i = 16
i = 17
i = 18
i = 19
i = 20
i = 21
i = 22
i = 23
Refix G01: 2, 370929.932002, -413
Refix G03: 2, 370929.919825, -3585
Refix G07: 2, 370929.928789, 1561
Refix G08: 2, 370929.919895, 1403
Refix G11: 2, 370929.930415, 631
Refix G13: 2, 370929.916468, -618
Refix G17: 2, 370929.924575, -2541
Refix G18: 2, 370929.928212, 1239
Refix G22: 2, 370929.920648, -2647
Refix G28: 2, 370929.926971, -2935
Refix G30: 2, 370929.931292, -445
$GNGGA,070152.000,2944.9070,N,10633.0910,E,1,17,0.8,325.7,M,,,,0000*17
$GNRMC,070152.000,A,2944.9070,N,10633.0910,E,0.19,0.00,090519,,*1A
$GPGSA,A,3,01,07,08,11,17,18,22,28,30,,,,0.9,0.8,0.4*3F
$BDGSA,A,3,01,02,04,07,08,10,27,28,,,,,0.9,0.8,0.4*20
$GLGSA,A,3,,,,,,,,,,,,,0.9,0.8,0.4*2B
$GPGSV,3,1,11,01,65,072,45,07,45,182,44,08,18,054,35,11,56,041,45*71
$GPGSV,3,2,11,17,34,269,41,18,41,048,43,22,20,107,39,28,45,329,43*7C
$GPGSV,3,3,11,30,64,240,46,03,15,130,00,13,06,293,00*45
$BDGSV,3,1,12,01,40,125,41,02,46,219,41,03,00,000,32,04,23,109,40*6B
$BDGSV,3,2,12,05,00,000,36,07,65,098,43,08,80,171,42,10,76,004,44*6D
$BDGSV,3,3,12,27,66,006,45,28,19,046,41,13,53,206,00,21,37,040,00*6F
$B3CN0,0,0,0,0,0,0,0,0,0,0,0,0,0,0*4C
$ini_pos,lastpos_good = 1,ini_pos.x:-1578912.361946,ini_pos.y:5312772.337896,ini_pos.z:3146356.283118
$rtc_local_time,localRTC.weeks:2052,localRTC.seconds:370930.071636,localGtime.weeks:2052,localGtime.seconds:370931.000000
i = 0
$pseudo_cd_ph,prn:1,pseudo_cd_ph:370930932.002278
$meas,msRange:67.991895,x:-13425894.356876,y:17319432.674305,z:14590782.398312,vx:162.788345,vy:-1898.198486,vz:2405.136963,tb:-0.000012
i = 1
$pseudo_cd_ph,prn:7,pseudo_cd_ph:370930928.788328
$meas,msRange:71.197440,x:-6809108.320492,y:25272982.303291,z:-2314487.283932,vx:-266.317566,vy:-389.939270,vz:-3177.814941,tb:-0.000021
i = 2
$pseudo_cd_ph,prn:8,pseudo_cd_ph:370930919.893642
$meas,msRange:79.969818,x:-19453450.671974,y:-8074.521243,z:18211549.704712,vx:-1678.864624,vy:-1570.419678,vz:-1777.162231,tb:-0.000143
i = 3
$pseudo_cd_ph,prn:11,pseudo_cd_ph:370930930.414970
$meas,msRange:68.980902,x:-11873059.803501,y:13410853.735659,z:19149872.415492,vx:-811.830017,vy:-2433.231934,vz:1143.970581,tb:-0.000610
i = 4
$pseudo_cd_ph,prn:17,pseudo_cd_ph:370930924.576428
$meas,msRange:75.481547,x:13173467.605423,y:21281610.849644,z:9425278.674143,vx:-937.617004,vy:-659.550110,vz:2917.707275,tb:0.000052
i = 5
$pseudo_cd_ph,prn:18,pseudo_cd_ph:370930928.211039
$meas,msRange:71.846864,x:-15164294.888666,y:8503579.421950,z:19553419.788559,vx:216.401978,vy:-2591.148682,vz:1276.771851,tb:0.000052
i = 6
$pseudo_cd_ph,prn:22,pseudo_cd_ph:370930920.649587
$meas,msRange:78.658787,x:-24715793.799324,y:9538451.480758,z:1441093.980270,vx:-12.675351,vy:-423.408295,vz:3096.170166,tb:-0.000698
i = 7
$pseudo_cd_ph,prn:28,pseudo_cd_ph:370930926.972618
$meas,msRange:73.801358,x:3902430.498600,y:14514186.389680,z:22506315.445632,vx:-2621.370117,vy:667.725281,vz:33.777935,tb:0.000768
i = 8
$pseudo_cd_ph,prn:30,pseudo_cd_ph:370930931.292049
$meas,msRange:68.612998,x:547895.322460,y:25046815.649018,z:8545863.497284,vx:-569.043701,vy:987.602844,vz:-2883.666992,tb:-0.000101
i = 9
i = 10
i = 11
i = 12
i = 13
i = 14
i = 15
i = 16
i = 17
i = 18
i = 19
i = 20
i = 21
i = 22
i = 23
Refix G01: 2, 370930.932002, -413
Refix G03: 2, 370930.919827, -3586
Refix G07: 2, 370930.928788, 1562
Refix G08: 2, 370930.919894, 1403
Refix G11: 2, 370930.930415, 632
Refix G13: 2, 370930.916469, -618
Refix G17: 2, 370930.924576, -2540
Refix G18: 2, 370930.928211, 1239
Refix G22: 2, 370930.920650, -2647
Refix G28: 2, 370930.926973, -2935
Refix G30: 2, 370930.931292, -444
$GNGGA,070153.000,2944.9070,N,10633.0910,E,1,17,0.8,325.8,M,,,,0000*19
$GNRMC,070153.000,A,2944.9070,N,10633.0910,E,0.13,0.00,090519,,*11
$GPGSA,A,3,01,07,08,11,17,18,22,28,30,,,,0.9,0.8,0.4*3F
$BDGSA,A,3,01,02,04,07,08,10,27,28,,,,,0.9,0.8,0.4*20
$GLGSA,A,3,,,,,,,,,,,,,0.9,0.8,0.4*2B
$GPGSV,3,1,11,01,65,072,45,07,45,182,45,08,18,054,36,11,56,041,44*72
$GPGSV,3,2,11,17,34,269,42,18,41,048,43,22,20,107,39,28,45,329,44*78
$GPGSV,3,3,11,30,64,240,45,03,15,130,00,13,06,293,00*46
$BDGSV,3,1,12,01,40,125,41,02,46,219,40,03,00,000,32,04,23,109,40*6A
$BDGSV,3,2,12,05,00,000,37,07,65,098,44,08,80,171,43,10,76,004,43*6D
$BDGSV,3,3,12,27,66,006,45,28,19,046,41,13,53,206,00,21,37,040,00*6F
$B3CN0,0,0,0,0,0,0,0,0,0,0,0,0,0,0*4C
$ini_pos,lastpos_good = 1,ini_pos.x:-1578912.337527,ini_pos.y:5312772.481874,ini_pos.z:3146356.313147
$rtc_local_time,localRTC.weeks:2052,localRTC.seconds:370931.071636,localGtime.weeks:2052,localGtime.seconds:370932.000000
i = 0
$pseudo_cd_ph,prn:1,pseudo_cd_ph:370931932.002513
$meas,msRange:67.992354,x:-13425731.596033,y:17317534.320853,z:14593187.375735,vx:162.733353,vy:-1898.508423,vz:2404.818115,tb:-0.000012
i = 1
$pseudo_cd_ph,prn:7,pseudo_cd_ph:370931928.787310
$meas,msRange:71.199153,x:-6809374.609796,y:25272592.172996,z:-2317665.073398,vx:-266.261047,vy:-390.321350,vz:-3177.764160,tb:-0.000021
i = 2
$pseudo_cd_ph,prn:8,pseudo_cd_ph:370931919.892727
$meas,msRange:79.971431,x:-19455129.497946,y:-9644.818413,z:18209772.350693,vx:-1678.787354,vy:-1570.174683,vz:-1777.545898,tb:-0.000143
i = 3
$pseudo_cd_ph,prn:11,pseudo_cd_ph:370931930.414540
$meas,msRange:68.982024,x:-11873871.711286,y:13408420.450403,z:19151016.174360,vx:-811.985596,vy:-2433.338623,vz:1143.547241,tb:-0.000610
i = 4
$pseudo_cd_ph,prn:17,pseudo_cd_ph:370931924.578012
$meas,msRange:75.480656,x:13172529.838155,y:21280951.202808,z:9428196.282988,vx:-937.917603,vy:-659.743591,vz:2917.510742,tb:0.000052
i = 5
$pseudo_cd_ph,prn:18,pseudo_cd_ph:370931928.210223
$meas,msRange:71.848373,x:-15164078.547282,y:8500988.185705,z:19554696.342835,vx:216.280807,vy:-2591.323975,vz:1276.336792,tb:0.000052
i = 6
$pseudo_cd_ph,prn:22,pseudo_cd_ph:370931920.651235
$meas,msRange:78.657829,x:-24715806.307494,y:9538027.996957,z:1444190.134914,vx:-12.340994,vy:-423.559326,vz:3096.139404,tb:-0.000698
i = 7
$pseudo_cd_ph,prn:28,pseudo_cd_ph:370931926.974453
$meas,msRange:73.800216,x:3899809.148342,y:14514854.198796,z:22506348.997286,vx:-2621.330566,vy:667.892944,vz:33.325371,tb:0.000768
i = 8
$pseudo_cd_ph,prn:30,pseudo_cd_ph:370931931.292302
$meas,msRange:68.613437,x:547326.346343,y:25047803.090780,z:8542979.738537,vx:-568.908569,vy:987.280701,vz:-2883.850586,tb:-0.000101
i = 9
i = 10
i = 11
i = 12
i = 13
i = 14
i = 15
i = 16
i = 17
i = 18
i = 19
i = 20
i = 21
i = 22
i = 23
i = 24
Refix G01: 2, 370931.932003, -417
Refix G03: 2, 370931.919829, -3590
Refix G07: 2, 370931.928787, 1557
Refix G08: 2, 370931.919893, 1399
Refix G11: 2, 370931.930415, 627
Refix G13: 2, 370931.916469, -621
Refix G17: 2, 370931.924578, -2545
Refix G18: 2, 370931.928210, 1235
Refix G22: 2, 370931.920651, -2651
Refix G28: 2, 370931.926974, -2939
Refix G30: 2, 370931.931292, -448
$GNGGA,070154.000,2944.9070,N,10633.0910,E,1,17,0.8,325.8,M,,,,0000*1E
$GNRMC,070154.000,A,2944.9070,N,10633.0910,E,0.11,0.00,090519,,*14
$GPGSA,A,3,01,07,08,11,17,18,22,28,30,,,,0.9,0.8,0.4*3F
$BDGSA,A,3,01,02,04,07,08,10,27,28,,,,,0.9,0.8,0.4*20
$GLGSA,A,3,,,,,,,,,,,,,0.9,0.8,0.4*2B
$GPGSV,3,1,11,01,65,072,45,07,45,182,44,08,18,054,36,11,56,041,44*73
$GPGSV,3,2,11,17,34,269,41,18,41,048,43,22,20,107,39,28,45,329,44*7B
$GPGSV,3,3,11,30,64,240,45,03,15,130,00,13,06,293,00*46
$BDGSV,3,1,12,01,40,125,41,02,46,219,39,03,00,000,32,04,23,109,40*64
$BDGSV,3,2,12,05,00,000,36,07,65,098,43,08,80,171,43,10,76,004,43*6B
$BDGSV,3,3,12,13,53,206,32,27,66,006,45,28,19,046,41,21,37,040,00*6E
$B3CN0,0,0,0,0,0,0,0,0,0,0,0,0,0,0*4C
$ini_pos,lastpos_good = 1,ini_pos.x:-1578912.320248,ini_pos.y:5312772.463538,ini_pos.z:3146356.311988
$rtc_local_time,localRTC.weeks:2052,localRTC.seconds:370932.071636,localGtime.weeks:2052,localGtime.seconds:370933.000000
i = 0
$pseudo_cd_ph,prn:1,pseudo_cd_ph:370932932.002747
$meas,msRange:67.992814,x:-13425568.890206,y:17315635.657490,z:14595592.034340,vx:162.678314,vy:-1898.818359,vz:2404.499268,tb:-0.000012
i = 1
$pseudo_cd_ph,prn:7,pseudo_cd_ph:370932928.786290
$meas,msRange:71.200867,x:-6809640.842616,y:25272201.660612,z:-2320842.811924,vx:-266.204590,vy:-390.703430,vz:-3177.713135,tb:-0.000021
i = 2
$pseudo_cd_ph,prn:8,pseudo_cd_ph:370932919.891811
$meas,msRange:79.973044,x:-19456808.246600,y:-11214.870588,z:18207994.613063,vx:-1678.710083,vy:-1569.929688,vz:-1777.929443,tb:-0.000143
i = 3
$pseudo_cd_ph,prn:11,pseudo_cd_ph:370932930.414112
$meas,msRange:68.983147,x:-11874683.774603,y:13405987.058456,z:19152159.509782,vx:-812.141113,vy:-2433.445312,vz:1143.123779,tb:-0.000610
i = 4
$pseudo_cd_ph,prn:17,pseudo_cd_ph:370932924.579599
$meas,msRange:75.479765,x:13171591.770237,y:21280291.362495,z:9431113.695343,vx:-938.218262,vy:-659.937073,vz:2917.314209,tb:0.000052
i = 5
$pseudo_cd_ph,prn:18,pseudo_cd_ph:370932928.209408
$meas,msRange:71.849882,x:-15163862.327079,y:8498396.773991,z:19555972.461961,vx:216.159607,vy:-2591.499512,vz:1275.901611,tb:0.000052
i = 6
$pseudo_cd_ph,prn:22,pseudo_cd_ph:370932920.652890
$meas,msRange:78.656871,x:-24715818.481319,y:9537604.362096,z:1447286.258731,vx:-12.006660,vy:-423.710419,vz:3096.108398,tb:-0.000698
i = 7
$pseudo_cd_ph,prn:28,pseudo_cd_ph:370932926.976287
$meas,msRange:73.799075,x:3897187.837821,y:14515522.175582,z:22506382.096375,vx:-2621.290771,vy:668.060608,vz:32.872807,tb:0.000768
i = 8
$pseudo_cd_ph,prn:30,pseudo_cd_ph:370932931.292556
$meas,msRange:68.613876,x:546757.505356,y:25048790.210374,z:8540095.796151,vx:-568.773438,vy:986.958557,vz:-2884.034180,tb:-0.000101
i = 9
i = 10
i = 11
i = 12
i = 13
i = 14
i = 15
i = 16
i = 17
i = 18
i = 19
i = 20
i = 21
i = 22
i = 23
i = 24
Refix G01: 2, 370932.932003, -414
Refix G03: 2, 370932.919831, -3588
Refix G07: 2, 370932.928786, 1560
Refix G08: 2, 370932.919892, 1400
Refix G11: 2, 370932.930414, 630
Refix G13: 2, 370932.916469, -619
Refix G17: 2, 370932.924580, -2542
Refix G18: 2, 370932.928209, 1237
Refix G22: 2, 370932.920653, -2649
Refix G28: 2, 370932.926976, -2937
Refix G30: 2, 370932.931293, -445
$GNGGA,070155.000,2944.9070,N,10633.0910,E,1,17,0.8,325.9,M,,,,0000*1E
$GNRMC,070155.000,A,2944.9070,N,10633.0910,E,0.13,0.00,090519,,*17
$GPGSA,A,3,01,07,08,11,17,18,22,28,30,,,,0.9,0.8,0.4*3F
$BDGSA,A,3,01,02,04,07,08,10,27,28,,,,,0.9,0.8,0.4*20
$GLGSA,A,3,,,,,,,,,,,,,0.9,0.8,0.4*2B
$GPGSV,3,1,11,01,65,072,45,07,45,182,44,08,18,054,35,11,56,041,44*70
$GPGSV,3,2,11,17,34,269,42,18,41,048,44,22,20,107,38,28,45,329,44*7E
$GPGSV,3,3,11,30,64,240,46,03,15,130,00,13,06,293,00*45
$BDGSV,3,1,12,01,40,125,41,02,46,219,41,03,55,171,32,04,23,109,40*6C
$BDGSV,3,2,12,05,00,000,35,07,65,098,43,08,80,171,43,10,76,004,43*68
$BDGSV,3,3,12,13,53,206,43,27,66,006,45,28,19,046,41,21,37,040,00*68
$B3CN0,0,16,0,0,0,0,0,0,0,0,0,0,0,0*7B
$ini_pos,lastpos_good = 1,ini_pos.x:-1578912.406856,ini_pos.y:5312772.533628,ini_pos.z:3146356.353490
$rtc_local_time,localRTC.weeks:2052,localRTC.seconds:370933.071636,localGtime.weeks:2052,localGtime.seconds:370934.000000
i = 0
$pseudo_cd_ph,prn:1,pseudo_cd_ph:370933932.002976
$meas,msRange:67.993273,x:-13425406.239444,y:17313736.684255,z:14597996.374072,vx:162.623215,vy:-1899.128174,vz:2404.180420,tb:-0.000012
i = 1
$pseudo_cd_ph,prn:7,pseudo_cd_ph:370933928.785266
$meas,msRange:71.202581,x:-6809907.019005,y:25271810.766137,z:-2324020.499441,vx:-266.148193,vy:-391.085541,vz:-3177.662109,tb:-0.000021
i = 2
$pseudo_cd_ph,prn:8,pseudo_cd_ph:370933919.890892
$meas,msRange:79.974656,x:-19458486.917873,y:-12784.677756,z:18206216.491858,vx:-1678.632568,vy:-1569.684692,vz:-1778.312988,tb:-0.000143
i = 3
$pseudo_cd_ph,prn:11,pseudo_cd_ph:370933930.413677
$meas,msRange:68.984270,x:-11875495.993454,y:13403553.559881,z:19153302.421728,vx:-812.296631,vy:-2433.552002,vz:1142.700195,tb:-0.000610
i = 4
$pseudo_cd_ph,prn:17,pseudo_cd_ph:370933924.581180
$meas,msRange:75.478875,x:13170653.401656,y:21279631.328759,z:9434030.911149,vx:-938.518921,vy:-660.130432,vz:2917.117676,tb:0.000052
i = 5
$pseudo_cd_ph,prn:18,pseudo_cd_ph:370933928.208587
$meas,msRange:71.851391,x:-15163646.228083,y:8495805.186867,z:19557248.145906,vx:216.038391,vy:-2591.674805,vz:1275.466431,tb:0.000052
i = 6
$pseudo_cd_ph,prn:22,pseudo_cd_ph:370933920.654542
$meas,msRange:78.655912,x:-24715830.320823,y:9537180.576131,z:1450382.351653,vx:-11.672351,vy:-423.861542,vz:3096.077637,tb:-0.000698
i = 7
$pseudo_cd_ph,prn:28,pseudo_cd_ph:370933926.978117
$meas,msRange:73.797933,x:3894566.567100,y:14516190.320025,z:22506414.742902,vx:-2621.250977,vy:668.228271,vz:32.420246,tb:0.000768
i = 8
$pseudo_cd_ph,prn:30,pseudo_cd_ph:370933931.292803
$meas,msRange:68.614317,x:546188.799462,y:25049777.007763,z:8537211.670185,vx:-568.638367,vy:986.636292,vz:-2884.217773,tb:-0.000101
i = 9
i = 10
i = 11
i = 12
i = 13
i = 14
i = 15
i = 16
i = 17
i = 18
i = 19
i = 20
i = 21
i = 22
i = 23
i = 24
i = 25
Refix G01: 2, 370933.932003, -402
Refix G03: 2, 370933.919834, -3580
Refix G07: 2, 370933.928785, 1570
Refix G08: 2, 370933.919891, 1409
Refix G11: 2, 370933.930414, 641
Refix G13: 2, 370933.916470, -611
Refix G17: 2, 370933.924581, -2533
Refix G18: 2, 370933.928209, 1248
Refix G22: 2, 370933.920655, -2640
Refix G28: 2, 370933.926978, -2927
Refix G30: 2, 370933.931293, -434
$GNGGA,070156.000,2944.9070,N,10633.0911,E,1,17,0.8,325.7,M,,,,0000*12
$GNRMC,070156.000,A,2944.9070,N,10633.0911,E,0.10,0.00,090519,,*16
$GPGSA,A,3,01,07,08,11,17,18,22,28,30,,,,0.9,0.8,0.4*3F
$BDGSA,A,3,01,02,04,07,08,10,27,28,,,,,0.9,0.8,0.4*20
$GLGSA,A,3,,,,,,,,,,,,,0.9,0.8,0.4*2B
$GPGSV,3,1,11,01,65,071,46,07,45,182,45,08,18,055,35,11,56,041,44*70
$GPGSV,3,2,11,17,34,269,42,18,40,048,44,22,20,107,39,28,46,329,44*7D
$GPGSV,3,3,11,30,64,239,46,03,15,129,00,13,06,293,00*43
$BDGSV,3,1,12,01,40,125,40,02,46,219,40,03,55,171,33,04,23,109,40*6D
$BDGSV,3,2,12,05,00,000,35,07,65,098,43,08,81,171,43,10,76,004,43*69
$BDGSV,3,3,12,13,53,206,42,27,66,006,45,28,19,046,41,30,43,257,26*6A
$B3CN0,0,36,0,0,0,0,0,0,0,0,0,0,0,0*79
$ini_pos,lastpos_good = 1,ini_pos.x:-1578912.458289,ini_pos.y:5312772.397120,ini_pos.z:3146356.157514
$rtc_local_time,localRTC.weeks:2052,localRTC.seconds:370934.071636,localGtime.weeks:2052,localGtime.seconds:370935.000000
i = 0
$pseudo_cd_ph,prn:1,pseudo_cd_ph:370934932.003204
$meas,msRange:67.993735,x:-13425243.643795,y:17311837.401189,z:14600400.394880,vx:162.568085,vy:-1899.437988,vz:2403.861328,tb:-0.000012
i = 1
$pseudo_cd_ph,prn:7,pseudo_cd_ph:370934928.784244
$meas,msRange:71.204295,x:-6810173.139011,y:25271419.489566,z:-2327198.135879,vx:-266.091827,vy:-391.467621,vz:-3177.611084,tb:-0.000021
i = 2
$pseudo_cd_ph,prn:8,pseudo_cd_ph:370934919.889964
$meas,msRange:79.976269,x:-19460165.511704,y:-14354.239903,z:18204437.987118,vx:-1678.555176,vy:-1569.439697,vz:-1778.696533,tb:-0.000143
i = 3
$pseudo_cd_ph,prn:11,pseudo_cd_ph:370934930.413244
$meas,msRange:68.985395,x:-11876308.367838,y:13401119.954739,z:19154444.910173,vx:-812.452148,vy:-2433.658447,vz:1142.276733,tb:-0.000610
i = 4
$pseudo_cd_ph,prn:17,pseudo_cd_ph:370934924.582762
$meas,msRange:75.477985,x:13169714.732401,y:21278971.101657,z:9436947.930346,vx:-938.819641,vy:-660.323792,vz:2916.920898,tb:0.000052
i = 5
$pseudo_cd_ph,prn:18,pseudo_cd_ph:370934928.207768
$meas,msRange:71.852901,x:-15163430.250324,y:8493213.424396,z:19558523.394642,vx:215.917130,vy:-2591.850098,vz:1275.031128,tb:0.000052
i = 6
$pseudo_cd_ph,prn:22,pseudo_cd_ph:370934920.656193
$meas,msRange:78.654954,x:-24715841.826029,y:9536756.639023,z:1453478.413614,vx:-11.338065,vy:-424.012695,vz:3096.046631,tb:-0.000698
i = 7
$pseudo_cd_ph,prn:28,pseudo_cd_ph:370934926.979948
$meas,msRange:73.796793,x:3891945.336243,y:14516858.632107,z:22506446.936864,vx:-2621.210938,vy:668.395935,vz:31.967680,tb:0.000768
i = 8
$pseudo_cd_ph,prn:30,pseudo_cd_ph:370934931.293050
$meas,msRange:68.614758,x:545620.228622,y:25050763.482910,z:8534327.360704,vx:-568.503357,vy:986.314026,vz:-2884.401367,tb:-0.000101
i = 9
i = 10
i = 11
i = 12
i = 13
i = 14
i = 15
i = 16
i = 17
i = 18
i = 19
i = 20
i = 21
i = 22
i = 23
i = 24
i = 25
Refix G01: 2, 370934.932003, -410
Refix G03: 2, 370934.919836, -3586
Refix G07: 2, 370934.928784, 1563
Refix G08: 2, 370934.919890, 1402
Refix G11: 2, 370934.930413, 633
Refix G13: 2, 370934.916470, -616
Refix G17: 2, 370934.924583, -2539
Refix G18: 2, 370934.928208, 1241
Refix G22: 2, 370934.920656, -2647
Refix G28: 2, 370934.926980, -2934
Refix G30: 2, 370934.931293, -441
$GNGGA,070157.000,2944.9069,N,10633.0911,E,1,17,0.8,325.1,M,,,,0000*1D
$GNRMC,070157.000,A,2944.9069,N,10633.0911,E,0.17,0.00,090519,,*18
$GPGSA,A,3,01,07,08,11,17,18,22,28,30,,,,0.9,0.8,0.4*3F
$BDGSA,A,3,01,02,04,07,08,10,27,28,,,,,0.9,0.8,0.4*20
$GLGSA,A,3,,,,,,,,,,,,,0.9,0.8,0.4*2B
$GPGSV,3,1,11,01,65,071,45,07,45,182,44,08,18,055,35,11,56,041,44*72
$GPGSV,3,2,11,17,34,269,42,18,40,048,44,22,20,107,38,28,46,329,43*7B
