SD initialized success
Create debug.log Failed! 3
bbram_blkflag = 1
rtcflag = 0
BBRAM Block OK: 01 EPHflag: 28230445 b40012cf, rtc 00
Hot-start nowtime:day = 16,minute = 10,seconds = 10.00
GPS 0 Init Dop:  1185, 2
GPS 1 Init Dop: 10000,80
GPS 2 Init Dop: -2934, 2
GPS 3 Init Dop: 10000,80
GPS 4 Init Dop: 10000,80
GPS 5 Init Dop: 10000,80
GPS 6 Init Dop:  2533, 2
GPS 7 Init Dop: 10000,80
GPS 8 Init Dop: 10000,80
GPS 9 Init Dop: 10000,80
GPS10 Init Dop:  1634, 2
GPS11 Init Dop: 10000,80
GPS12 Init Dop: 10000,80
GPS13 Init Dop: 10000,80
GPS14 Init Dop: 10000,80
GPS15 Init Dop: 10000,80
GPS16 Init Dop: -1882, 2
GPS17 Init Dop:  2358, 2
GPS18 Init Dop: 10000,80
GPS19 Init Dop: 10000,80
GPS20 Init Dop: 10000,80
GPS21 Init Dop: -1556, 2
GPS22 Init Dop: 10000,80
GPS23 Init Dop: 10000,80
GPS24 Init Dop: 10000,80
GPS25 Init Dop: 10000,80
GPS26 Init Dop: 10000,80
GPS27 Init Dop: -2474, 2
GPS28 Init Dop: 10000,80
GPS29 Init Dop:  1115, 2
GPS30 Init Dop: 10000,80
GPS31 Init Dop: 10000,80
BDS 0 Init Dop:  -877, 2
BDS 1 Init Dop:  -930, 2
BDS 2 Init Dop:  -895, 2
BDS 3 Init Dop:  -895, 2
BDS 4 Init Dop: 10000,80
BDS 5 Init Dop: 10000,80
BDS 6 Init Dop:  -746, 2
BDS 7 Init Dop:  -887, 2
BDS 8 Init Dop: 10000,80
BDS 9 Init Dop: -1181, 2
BDS10 Init Dop: 10000,80
BDS11 Init Dop: 10000,80
BDS12 Init Dop: -1414, 2
BDS13 Init Dop: 10000,80
BDS14 Init Dop: 10000,80
BDS15 Init Dop: 10000,80
BDS16 Init Dop: 10000,80
BDS17 Init Dop: 10000,80
BDS18 Init Dop: 10000,80
BDS19 Init Dop: 10000,80
BDS20 Init Dop: 10000,80
BDS21 Init Dop: 10000,80
BDS22 Init Dop: 10000,80
BDS23 Init Dop: 10000,80
BDS24 Init Dop: 10000,80
BDS25 Init Dop: 10000,80
BDS26 Init Dop:   600, 2
BDS27 Init Dop: 10000,80
BDS28 Init Dop: -3127, 2
BDS29 Init Dop: -1743, 2
BDS30 Init Dop: 10000,80
BDS31 Init Dop: -3146, 2
Good luck!
$ini_pos,lastpos_good = 1,ini_pos.x:-1578918.000000,ini_pos.y:5312782.000000,ini_pos.z:3146359.000000
$rtc_local_time,localRTC.weeks:2053,localRTC.seconds:371429.025974,localGtime.weeks:0,localGtime.seconds:19.025977
source<tow,snapshot
$GNGGA,000000.000,,,,,0,00,,,M,,,,0000*2B
$GNRMC,000000.000,A,,,,,,,060180,,*29
$GPGSA,A,1,,,,,,,,,,,,,,,*1E
$BDGSA,A,1,,,,,,,,,,,,,,,*0F
$GLGSA,A,1,,,,,,,,,,,,,,,*02
$B3CN0,0,0,0,0,0,0,0,0,0,0,0,0,0,0*4C
$ini_pos,lastpos_good = 1,ini_pos.x:-1578918.000000,ini_pos.y:5312782.000000,ini_pos.z:3146359.000000
$rtc_local_time,localRTC.weeks:2053,localRTC.seconds:371430.025974,localGtime.weeks:2053,localGtime.seconds:371430.025974
source<tow,snapshot
$GNGGA,000000.000,,,,,0,00,,,M,,,,0000*2B
$GNRMC,000000.000,A,,,,,,,060180,,*29
$GPGSA,A,1,,,,,,,,,,,,,,,*1E
$BDGSA,A,1,,,,,,,,,,,,,,,*0F
$GLGSA,A,1,,,,,,,,,,,,,,,*02
$B3CN0,0,0,0,0,0,0,0,0,0,0,0,0,0,0*4C
tow update,371431486.320527
$ini_pos,lastpos_good = 1,ini_pos.x:-1578918.000000,ini_pos.y:5312782.000000,ini_pos.z:3146359.000000
$rtc_local_time,localRTC.weeks:2053,localRTC.seconds:371431.025974,localGtime.weeks:2053,localGtime.seconds:371431.486321
$pseudo_cd_ph,prn:1,pseudo_cd_ph:371431286.320527374744
measnum = 0,full_prange = 20980235.077631
$oldmeas,msRange:0.000000,x:-13282789.107680,y:12408881.315721,z:19064437.294153,vx:-62.535275,vy:-2469.712402,vz:1580.611938,tb:-0.000017468693
$newmeas,x:-13282784.731649,y:12409054.151960,z:19064326.677911,vx:-62.525391,vy:-2469.698730,vz:1580.640991,tb:-0.000017468692
$pseudo_cd_ph,prn:3,pseudo_cd_ph:19.383272515947
measnum = 1,full_prange = 23121530.419194
$oldmeas,msRange:77.168305,x:-23346538.425393,y:12564774.298813,z:182501.513014,vx:-111.614120,vy:-263.248444,vz:3184.572754,tb:0.000187868893
$newmeas,x:-23346529.816139,y:12564794.601328,z:182255.902435,vx:-111.640099,vy:-263.234100,vz:3184.572998,tb:0.000187868893
$pseudo_cd_ph,prn:7,pseudo_cd_ph:0.807685717809
measnum = 2,full_prange = 22630637.499264
$oldmeas,msRange:75.531627,x:-7299690.164857,y:23521927.553190,z:-9037319.962382,vx:-266.917358,vy:-1210.386597,vz:-2900.942139,tb:-0.000025160430
$newmeas,x:-7299670.016039,y:23522018.921460,z:-9037100.976415,vx:-266.913269,vy:-1210.359863,vz:-2900.957275,tb:-0.000025160429
$pseudo_cd_ph,prn:11,pseudo_cd_ph:3.708336361226
measnum = 3,full_prange = 21587009.812334
$oldmeas,msRange:72.050231,x:-14030135.546937,y:7891792.446900,z:20607216.444990,vx:-1138.706177,vy:-2514.566162,vz:158.103989,tb:-0.000605677061
$newmeas,x:-14030053.553004,y:7891973.512136,z:20607205.059283,vx:-1138.697021,vy:-2514.568604,vz:158.137070,tb:-0.000605677061
source>=tow,snapshot
$GNGGA,071013.486,,,,,0,00,,,M,,,,0000*25
$GNRMC,071013.486,A,,,,,,,160519,,*22
$GPGSA,A,1,,,,,,,,,,,,,,,*1E
$BDGSA,A,1,,,,,,,,,,,,,,,*0F
$GLGSA,A,1,,,,,,,,,,,,,,,*02
$GPGSV,1,1,02,01,00,000,26,03,00,000,24*7B
$B3CN0,0,0,0,0,0,0,0,0,0,0,0,0,0,0*4C
$ini_pos,lastpos_good = 1,ini_pos.x:-1578918.000000,ini_pos.y:5312782.000000,ini_pos.z:3146359.000000
$rtc_local_time,localRTC.weeks:2053,localRTC.seconds:371432.025974,localGtime.weeks:2053,localGtime.seconds:371432.486320
$pseudo_cd_ph,prn:1,pseudo_cd_ph:371432286.319888532162
measnum = 0,full_prange = 20980416.927188
$oldmeas,msRange:0.000000,x:-13282851.713548,y:12406411.505780,z:19066017.698132,vx:-62.676472,vy:-2469.907715,vz:1580.196167,tb:-0.000017468704
$newmeas,x:-13282847.327598,y:12406584.357195,z:19065907.110031,vx:-62.666588,vy:-2469.894043,vz:1580.225220,tb:-0.000017468704
$pseudo_cd_ph,prn:3,pseudo_cd_ph:19.385243815760
measnum = 1,full_prange = 23120929.769504
$oldmeas,msRange:77.167019,x:-23346649.871109,y:12564510.957557,z:185686.083696,vx:-111.277321,vy:-263.434113,vz:3184.568848,tb:0.000187868891
$newmeas,x:-23346641.288053,y:12564531.273865,z:185440.479801,vx:-111.303299,vy:-263.419769,vz:3184.569092,tb:0.000187868892
$pseudo_cd_ph,prn:7,pseudo_cd_ph:0.806169384968
measnum = 2,full_prange = 22631082.416569
$oldmeas,msRange:75.533812,x:-7299957.109301,y:23520716.988934,z:-9040220.804669,vx:-266.971558,vy:-1210.741943,vz:-2900.742676,tb:-0.000025160442
$newmeas,x:-7299936.955995,y:23520808.385819,z:-9040001.829464,vx:-266.967468,vy:-1210.715088,vz:-2900.757568,tb:-0.000025160441
$pseudo_cd_ph,prn:11,pseudo_cd_ph:3.707427202898
measnum = 3,full_prange = 21587272.702210
$oldmeas,msRange:72.051845,x:-14031274.317441,y:7889277.896780,z:20607374.319275,vx:-1138.834839,vy:-2514.534180,vz:157.644592,tb:-0.000605677058
$newmeas,x:-14031192.313248,y:7889458.961904,z:20607362.966508,vx:-1138.825562,vy:-2514.536377,vz:157.677673,tb:-0.000605677058
$pseudo_cd_ph,prn:17,pseudo_cd_ph:2.548776695572
measnum = 4,full_prange = 22132848.710867
$oldmeas,msRange:73.871300,x:10421872.559550,y:19451863.422901,z:15250671.971246,vx:-1605.837036,vy:-940.889709,vz:2352.178711,tb:0.000055518102
$newmeas,x:10421991.113255,y:19451932.886013,z:15250498.315531,vx:-1605.815186,vy:-940.884949,vz:2352.201904,tb:0.000055518101
$pseudo_cd_ph,prn:18,pseudo_cd_ph:0.563731300749
measnum = 5,full_prange = 22727367.300126
$oldmeas,msRange:75.854915,x:-15017551.779754,y:2479472.176364,z:21271401.892139,vx:-103.435028,vy:-2819.020020,vz:262.939758,tb:0.000053573281
$newmeas,x:-15017543.938760,y:2479685.887140,z:21271381.957227,vx:-103.423164,vy:-2819.017822,vz:262.975677,tb:0.000053573281
$pseudo_cd_ph,prn:28,pseudo_cd_ph:371432265.718903720379
measnum = 6,full_prange = 21396023.018131
$oldmeas,msRange:71.413424,x:-1662713.989705,y:16361252.820399,z:21484248.507347,vx:-2386.560059,vy:981.430115,vz:-950.293701,tb:0.000767859181
$newmeas,x:-1662543.661806,y:16361182.776539,z:21484316.328184,vx:-2386.572021,vy:981.422546,vz:-950.262817,tb:0.000767859180
$pseudo_cd_ph,prn:30,pseudo_cd_ph:5.681763754329
measnum = 7,full_prange = 21145325.906854
$oldmeas,msRange:70.577524,x:-524625.398084,y:26396246.756440,z:1710275.639273,vx:-372.677643,vy:191.916519,vz:-3134.184326,tb:-0.000105516323
$newmeas,x:-524599.111841,y:26396233.219022,z:1710496.703279,vx:-372.680206,vy:191.942856,vz:-3134.181641,tb:-0.000105516322
source>=tow,snapshot
nits = 2
$GNGGA,071014.367,2944.9088,N,10633.0848,E,1,12,0.0,287.3,M,,,,0000*1C
$GNRMC,071014.367,A,2944.9088,N,10633.0848,E,0.00,0.00,160519,,*17
$GPGSA,A,3,01,03,07,11,17,18,28,30,,,,,0.0,0.0,0.0*31
$BDGSA,A,3,01,02,03,04,,,,,,,,,0.0,0.0,0.0*27
$GLGSA,A,3,,,,,,,,,,,,,0.0,0.0,0.0*2E
$GPGSV,2,1,06,01,00,000,45,03,00,000,39,07,00,000,44,11,00,000,34*75
$GPGSV,2,2,06,17,00,000,26,18,00,000,26*70
$B3CN0,0,0,0,0,0,0,0,0,0,0,0,0,0,0*4C
$ini_pos,lastpos_good = 1,ini_pos.x:-1578892.757429,ini_pos.y:5312741.639196,ini_pos.z:3146340.063652
$rtc_local_time,localRTC.weeks:2053,localRTC.seconds:371433.025974,localGtime.weeks:2053,localGtime.seconds:371433.486320
$pseudo_cd_ph,prn:1,pseudo_cd_ph:371433286.319251656532
measnum = 0,full_prange = 20980598.187067
$oldmeas,msRange:0.000000,x:-13282914.460629,y:12403941.500429,z:19067597.686295,vx:-62.817699,vy:-2470.103027,vz:1579.780273,tb:-0.000017468716
$newmeas,x:-13282910.064757,y:12404114.367011,z:19067487.126339,vx:-62.807816,vy:-2470.089355,vz:1579.809448,tb:-0.000017468715
$pseudo_cd_ph,prn:3,pseudo_cd_ph:19.387216286459
measnum = 1,full_prange = 23120328.780302
$oldmeas,msRange:77.165847,x:-23346760.980043,y:12564247.430606,z:188870.650405,vx:-110.940552,vy:-263.619812,vz:3184.564697,tb:0.000187868890
$newmeas,x:-23346752.423182,y:12564267.760709,z:188625.053203,vx:-110.966530,vy:-263.605499,vz:3184.565186,tb:0.000187868890
$pseudo_cd_ph,prn:7,pseudo_cd_ph:0.804659987941
measnum = 2,full_prange = 22631525.261067
$oldmeas,msRange:75.536093,x:-7300224.107975,y:23519506.069411,z:-9043121.447333,vx:-267.025818,vy:-1211.097168,vz:-2900.542969,tb:-0.000025160453
$newmeas,x:-7300203.950179,y:23519597.494903,z:-9042902.482915,vx:-267.021729,vy:-1211.070312,vz:-2900.558105,tb:-0.000025160452
$pseudo_cd_ph,prn:11,pseudo_cd_ph:3.706513398321
measnum = 3,full_prange = 21587536.985871
$oldmeas,msRange:72.053576,x:-14032413.216549,y:7886763.378864,z:20607531.734170,vx:-1138.963379,vy:-2514.501953,vz:157.185196,tb:-0.000605677055
$newmeas,x:-14032331.202093,y:7886944.443884,z:20607520.414344,vx:-1138.954224,vy:-2514.504150,vz:157.218277,tb:-0.000605677055
$pseudo_cd_ph,prn:17,pseudo_cd_ph:2.550075221505
measnum = 4,full_prange = 22132449.752050
$oldmeas,msRange:73.870757,x:10420266.574019,y:19450922.501230,z:15253023.992425,vx:-1606.134033,vy:-940.953674,vz:2351.863770,tb:0.000055518111
$newmeas,x:10420385.147512,y:19450991.967815,z:15252850.363095,vx:-1606.112183,vy:-940.948975,vz:2351.886963,tb:0.000055518110
$pseudo_cd_ph,prn:18,pseudo_cd_ph:0.562352595325
measnum = 5,full_prange = 22727770.960830
$oldmeas,msRange:75.857073,x:-15017655.293056,y:2476653.143032,z:21271664.594971,vx:-103.591583,vy:-2819.046875,vz:262.465942,tb:0.000053573279
$newmeas,x:-15017647.440054,y:2476866.859645,z:21271644.695625,vx:-103.579712,vy:-2819.044922,vz:262.501862,tb:0.000053573280
$pseudo_cd_ph,prn:28,pseudo_cd_ph:371433265.720577538013
measnum = 6,full_prange = 21395511.554955
$oldmeas,msRange:71.412553,x:-1665100.465684,y:16362234.303417,z:21483297.997507,vx:-2386.392090,vy:981.535950,vz:-950.726074,tb:0.000767859187
$newmeas,x:-1664930.153830,y:16362164.253679,z:21483365.847580,vx:-2386.404053,vy:981.528381,vz:-950.695190,tb:0.000767859186
$pseudo_cd_ph,prn:30,pseudo_cd_ph:5.681196524134
measnum = 7,full_prange = 21145486.296668
$oldmeas,msRange:70.578936,x:-524998.057473,y:26396438.486206,z:1707141.436635,vx:-372.641174,vy:191.543030,vz:-3134.221191,tb:-0.000105516331
$newmeas,x:-524971.773603,y:26396424.975030,z:1707362.504913,vx:-372.643738,vy:191.569366,vz:-3134.218506,tb:-0.000105516330
Refix G01: 2, 371433.286201, 2043
Refix G03: 2, 371433.279397, -3233
Refix G07: 2, 371433.280870, 1666
Refix G11: 2, 371433.283580, 2547
Refix G17: 2, 371433.282455, -1237
Refix G18: 2, 371433.280436, 3266
Refix G22: 2, 371433.278559, -1411
Refix G28: 2, 371433.285585, -1489
Refix G30: 2, 371433.285679, 864
$GNGGA,071015.356,2924.3658,,10634.0603,E,1,04,1668.0,-18849.4,M,,,,0000*45
$GNRMC,071015.356,A,2924.3658,,10634.0603,E,428.80,0.00,160519,,*5D
$GPGSA,A,3,,,,,,,,,,,,,1865.7,1668.0,835.9*31
$BDGSA,A,3,01,02,03,04,,,,,,,,,1865.7,1668.0,835.9*24
$GLGSA,A,3,,,,,,,,,,,,,1865.7,1668.0,835.9*2D
$GPGSV,2,1,08,01,00,000,45,03,00,000,39,07,00,000,43,11,00,000,43*7C
$GPGSV,2,2,08,17,00,000,45,18,00,000,41,28,00,000,32,30,00,000,31*70
$BDGSV,2,1,05,01,00,000,41,02,00,000,40,03,00,000,41,04,00,000,40*6A
$BDGSV,2,2,05,05,00,000,35*5E
$B3CN0,0,0,0,0,0,0,0,0,0,0,0,0,0,0*4C
$ini_pos,lastpos_good = 1,ini_pos.x:-1578892.757429,ini_pos.y:5312741.639196,ini_pos.z:3146340.063652
$rtc_local_time,localRTC.weeks:2053,localRTC.seconds:371434.669625,localGtime.weeks:2053,localGtime.seconds:371435.000000
$pseudo_cd_ph,prn:1,pseudo_cd_ph:371434929.969490230083
measnum = 0,full_prange = 20989343.728350
$oldmeas,msRange:0.000000,x:-13283009.708308,y:12400202.332442,z:19069988.490776,vx:-63.031525,vy:-2470.398682,vz:1579.150757,tb:-0.000017468734
$newmeas,x:-13283005.295634,y:12400375.291779,z:19069877.928807,vx:-63.021633,vy:-2470.385010,vz:1579.179932,tb:-0.000017468733
$pseudo_cd_ph,prn:3,pseudo_cd_ph:3.041741864306
measnum = 1,full_prange = 23127789.114725
$oldmeas,msRange:77.163901,x:-23346928.522698,y:12563848.181895,z:193691.055912,vx:-110.430840,vy:-263.901031,vz:3184.558594,tb:0.000187868889
$newmeas,x:-23346920.002398,y:12563868.540251,z:193445.379940,vx:-110.456818,vy:-263.886688,vz:3184.558838,tb:0.000187868889
$pseudo_cd_ph,prn:7,pseudo_cd_ph:4.453478845800
measnum = 2,full_prange = 22640696.406727
$oldmeas,msRange:75.539400,x:-7300628.361657,y:23517672.449586,z:-9047511.710632,vx:-267.108032,vy:-1211.634888,vz:-2900.240479,tb:-0.000025160471
$newmeas,x:-7300608.189484,y:23517763.952734,z:-9047292.680314,vx:-267.103912,vy:-1211.608032,vz:-2900.255615,tb:-0.000025160470
$pseudo_cd_ph,prn:11,pseudo_cd_ph:7.356293365986
measnum = 3,full_prange = 21596420.017925
$oldmeas,msRange:72.056020,x:-14034137.389344,y:7882957.266145,z:20607769.135883,vx:-1139.158081,vy:-2514.452881,vz:156.489822,tb:-0.000605677051
$newmeas,x:-14034055.327121,y:7883138.402148,z:20607757.861492,vx:-1139.148804,vy:-2514.455322,vz:156.522919,tb:-0.000605677051
$pseudo_cd_ph,prn:17,pseudo_cd_ph:6.203500794292
measnum = 4,full_prange = 22140239.864155
$oldmeas,msRange:73.869822,x:10417835.061714,y:19449498.125753,z:15256583.599252,vx:-1606.583618,vy:-941.050476,vz:2351.386963,tb:0.000055518126
$newmeas,x:10417953.710141,y:19449567.623933,z:15256409.944026,vx:-1606.561646,vy:-941.045715,vz:2351.410156,tb:0.000055518125
$pseudo_cd_ph,prn:18,pseudo_cd_ph:4.211365633580
measnum = 5,full_prange = 22736883.911582
$oldmeas,msRange:75.860213,x:-15017812.276848,y:2472385.979072,z:21272061.341449,vx:-103.828552,vy:-2819.087402,vz:261.748749,tb:0.000053573277
$newmeas,x:-15017804.402725,y:2472599.784456,z:21272041.488518,vx:-103.816681,vy:-2819.085449,vz:261.784668,tb:0.000053573277
$pseudo_cd_ph,prn:28,pseudo_cd_ph:371434909.374621629715
measnum = 6,full_prange = 21403116.238707
$oldmeas,msRange:71.411048,x:-1668712.506102,y:16363720.155389,z:21481858.407754,vx:-2386.138184,vy:981.696106,vz:-951.380493,tb:0.000767859196
$newmeas,x:-1668542.151851,y:16363650.069321,z:21481926.328664,vx:-2386.150146,vy:981.688538,vz:-951.349609,tb:0.000767859196
$pseudo_cd_ph,prn:30,pseudo_cd_ph:9.331533221322
measnum = 7,full_prange = 21154202.426981
$oldmeas,msRange:70.580882,x:-525562.075011,y:26396727.993044,z:1702397.188581,vx:-372.586060,vy:190.977646,vz:-3134.276611,tb:-0.000105516344
$newmeas,x:-525535.784196,y:26396714.516192,z:1702618.351903,vx:-372.588623,vy:191.004013,vz:-3134.274170,tb:-0.000105516343
Refix G01: 2, 371434.929906, 1468
Refix G03: 2, 371434.923047, -3210
Refix G07: 2, 371434.924489, 1979
Refix G11: 2, 371434.927288, 1940
Refix G17: 2, 371434.926153, -1704
Refix G18: 2, 371434.924144, 2662
Refix G22: 2, 371434.922230, -1617
Refix G28: 2, 371434.929302, -2133
Refix G30: 2, 371434.929330, 859
$GNGGA,071017.000,2933.8317,,10633.6123,E,1,04,1668.1,-10060.6,M,,,,0000*48
$GNRMC,071017.000,A,2933.8317,,10633.6123,E,206.12,0.00,160519,,*59
$GPGSA,A,3,,,,,,,,,,,,,1868.5,1668.1,841.9*3C
$BDGSA,A,3,01,02,03,04,,,,,,,,,1868.5,1668.1,841.9*29
$GLGSA,A,3,,,,,,,,,,,,,1868.5,1668.1,841.9*20
$GPGSV,3,1,09,01,52,046,44,03,25,115,38,07,27,179,43,11,39,042,42*7C
$GPGSV,3,2,09,17,42,289,44,18,25,042,40,28,58,344,43,30,51,212,44*7B
$GPGSV,3,3,09,22,26,090,00*4D
$BDGSV,3,1,12,01,40,125,42,02,47,219,39,03,55,171,43,04,23,109,39*69
$BDGSV,3,2,12,05,00,000,35,07,63,117,43,08,87,260,43,10,83,007,43*65
$BDGSV,3,3,12,13,58,221,44,27,53,023,00,29,05,250,00,30,51,279,00*65
$B3CN0,0,0,0,0,0,0,0,0,0,0,0,0,0,0*4C
$ini_pos,lastpos_good = 1,ini_pos.x:-1578892.757429,ini_pos.y:5312741.639196,ini_pos.z:3146340.063652
$rtc_local_time,localRTC.weeks:2053,localRTC.seconds:371435.669625,localGtime.weeks:2053,localGtime.seconds:371436.000000
$pseudo_cd_ph,prn:1,pseudo_cd_ph:371435929.968860030174
measnum = 0,full_prange = 20989522.986899
$oldmeas,msRange:0.000000,x:-13283072.810475,y:12397731.836163,z:19071567.433559,vx:-63.172821,vy:-2470.593994,vz:1578.734863,tb:-0.000017468745
$newmeas,x:-13283068.387871,y:12397904.810646,z:19071456.899766,vx:-63.162926,vy:-2470.580322,vz:1578.764038,tb:-0.000017468745
$pseudo_cd_ph,prn:3,pseudo_cd_ph:3.043726618106
measnum = 1,full_prange = 23127184.426636
$oldmeas,msRange:77.162616,x:-23347038.785181,y:12563584.187966,z:196875.612337,vx:-110.094139,vy:-264.086853,vz:3184.554443,tb:0.000187868887
$newmeas,x:-23347030.291079,y:12563604.560125,z:196629.943110,vx:-110.120110,vy:-264.072510,vz:3184.554688,tb:0.000187868887
$pseudo_cd_ph,prn:7,pseudo_cd_ph:4.451988518529
measnum = 2,full_prange = 22641133.533138
$oldmeas,msRange:75.541585,x:-7300895.496853,y:23516460.637159,z:-9050411.851221,vx:-267.162384,vy:-1211.990112,vz:-2900.040771,tb:-0.000025160483
$newmeas,x:-7300875.320185,y:23516552.168898,z:-9050192.831764,vx:-267.158295,vy:-1211.963257,vz:-2900.055908,tb:-0.000025160482
$pseudo_cd_ph,prn:11,pseudo_cd_ph:7.355380747209
measnum = 3,full_prange = 21596683.944205
$oldmeas,msRange:72.057635,x:-14035276.611612,y:7880442.829448,z:20607925.395995,vx:-1139.286621,vy:-2514.420654,vz:156.030411,tb:-0.000605677048
$newmeas,x:-14035194.539127,y:7880623.965331,z:20607914.154562,vx:-1139.277344,vy:-2514.422852,vz:156.063507,tb:-0.000605677049
$pseudo_cd_ph,prn:17,pseudo_cd_ph:6.204816920783
measnum = 4,full_prange = 22139835.633977
$oldmeas,msRange:73.869204,x:10416228.329690,y:19448557.043406,z:15258934.828489,vx:-1606.880493,vy:-941.114319,vz:2351.071777,tb:0.000055518135
$newmeas,x:10416346.997880,y:19448626.545033,z:15258761.199705,vx:-1606.858643,vy:-941.109558,vz:2351.094971,tb:0.000055518134
$pseudo_cd_ph,prn:18,pseudo_cd_ph:4.209992670710
measnum = 5,full_prange = 22737285.856860
$oldmeas,msRange:75.862288,x:-15017916.183676,y:2469566.878312,z:21272322.853264,vx:-103.985107,vy:-2819.114258,vz:261.274902,tb:0.000053573275
$newmeas,x:-15017908.297540,y:2469780.689504,z:21272303.035918,vx:-103.973236,vy:-2819.112305,vz:261.310852,tb:0.000053573275
$pseudo_cd_ph,prn:28,pseudo_cd_ph:371435909.376312375069
measnum = 6,full_prange = 21402599.700728
$oldmeas,msRange:71.410054,x:-1671098.560182,y:16364701.904307,z:21480906.811142,vx:-2385.970215,vy:981.801819,vz:-951.812805,tb:0.000767859202
$newmeas,x:-1670928.222030,y:16364631.812382,z:21480974.761278,vx:-2385.982178,vy:981.794250,vz:-951.781921,tb:0.000767859202
$pseudo_cd_ph,prn:30,pseudo_cd_ph:9.330957548826
measnum = 7,full_prange = 21154365.336326
$oldmeas,msRange:70.582169,x:-525934.642874,y:26396918.783932,z:1699262.893684,vx:-372.549713,vy:190.604126,vz:-3134.313232,tb:-0.000105516352
$newmeas,x:-525908.354422,y:26396905.333332,z:1699484.061294,vx:-372.552277,vy:190.630493,vz:-3134.310791,tb:-0.000105516352
Refix G01: 2, 371435.929926, 711
Refix G03: 2, 371435.923047, -3156
Refix G07: 2, 371435.924476, 2398
Refix G11: 2, 371435.927309, 1137
Refix G17: 2, 371435.926171, -2309
Refix G18: 2, 371435.924164, 1864
Refix G22: 2, 371435.922238, -1871
Refix G28: 2, 371435.929327, -2992
Refix G30: 2, 371435.929330, 848
$GNGGA,071018.000,2937.4240,N,10633.4422,E,1,04,1669.0,-6704.8,M,,,,0000*38
$GNRMC,071018.000,A,2937.4240,N,10633.4422,E,90.25,0.00,160519,,*2C
$GPGSA,A,3,,,,,,,,,,,,,1870.5,1669.0,844.6*3F
$BDGSA,A,3,01,02,03,04,,,,,,,,,1870.5,1669.0,844.6*2A
$GLGSA,A,3,,,,,,,,,,,,,1870.5,1669.0,844.6*23
$GPGSV,3,1,09,01,52,045,44,03,25,115,40,07,27,179,44,11,39,042,43*76
$GPGSV,3,2,09,17,41,290,44,18,25,041,40,28,58,344,43,30,51,212,44*73
$GPGSV,3,3,09,22,26,090,00*4D
$BDGSV,3,1,12,01,40,125,41,02,47,219,39,03,56,171,43,04,23,109,40*67
$BDGSV,3,2,12,05,00,000,33,07,63,117,43,08,87,269,43,10,82,007,43*6B
$BDGSV,3,3,12,13,58,221,43,27,53,023,28,29,05,250,24,30,51,279,24*68
$B3CN0,0,19,0,0,0,0,0,0,0,0,0,0,0,0*74
$ini_pos,lastpos_good = 1,ini_pos.x:-1578892.757429,ini_pos.y:5312741.639196,ini_pos.z:3146340.063652
$rtc_local_time,localRTC.weeks:2053,localRTC.seconds:371436.669625,localGtime.weeks:2053,localGtime.seconds:371437.000000
$pseudo_cd_ph,prn:1,pseudo_cd_ph:371436929.968230068684
measnum = 0,full_prange = 20989702.173971
$oldmeas,msRange:0.000000,x:-13283136.053953,y:12395261.144691,z:19073145.960407,vx:-63.314144,vy:-2470.789062,vz:1578.318970,tb:-0.000017468757
$newmeas,x:-13283131.621416,y:12395434.134314,z:19073035.454793,vx:-63.304249,vy:-2470.775391,vz:1578.348022,tb:-0.000017468756
$pseudo_cd_ph,prn:3,pseudo_cd_ph:3.045714571329
measnum = 1,full_prange = 23126578.791488
$oldmeas,msRange:77.161332,x:-23347148.710970,y:12563320.008182,z:200060.164550,vx:-109.757454,vy:-264.272736,vz:3184.550293,tb:0.000187868886
$newmeas,x:-23347140.243063,y:12563340.394146,z:199814.502083,vx:-109.783424,vy:-264.258392,vz:3184.550537,tb:0.000187868886
$pseudo_cd_ph,prn:7,pseudo_cd_ph:4.450499116034
measnum = 2,full_prange = 22641570.373644
$oldmeas,msRange:75.543771,x:-7301162.686445,y:23515248.469563,z:-9053311.791959,vx:-267.216827,vy:-1212.345215,vz:-2899.840820,tb:-0.000025160494
$newmeas,x:-7301142.505278,y:23515340.029890,z:-9053092.783373,vx:-267.212708,vy:-1212.318359,vz:-2899.855957,tb:-0.000025160493
$pseudo_cd_ph,prn:11,pseudo_cd_ph:7.354468471494
measnum = 3,full_prange = 21596947.781139
$oldmeas,msRange:72.059250,x:-14036415.962398,y:7877928.425168,z:20608081.196701,vx:-1139.415039,vy:-2514.388184,vz:155.570999,tb:-0.000605677046
$newmeas,x:-14036333.879653,y:7878109.560927,z:20608069.988226,vx:-1139.405762,vy:-2514.390381,vz:155.604095,tb:-0.000605677046
$pseudo_cd_ph,prn:17,pseudo_cd_ph:6.206133032358
measnum = 4,full_prange = 22139431.421668
$oldmeas,msRange:73.868587,x:10414621.300721,y:19447615.897243,z:15261285.742590,vx:-1607.177490,vy:-941.178101,vz:2350.756592,tb:0.000055518145
$newmeas,x:10414739.988674,y:19447685.402312,z:15261112.140250,vx:-1607.155518,vy:-941.173401,vz:2350.779785,tb:0.000055518144
$pseudo_cd_ph,prn:18,pseudo_cd_ph:4.208618932222
measnum = 5,full_prange = 22737688.016566
$oldmeas,msRange:75.864364,x:-15018020.247061,y:2466747.750852,z:21272583.891255,vx:-104.141670,vy:-2819.140869,vz:260.801086,tb:0.000053573273
$newmeas,x:-15018012.348911,y:2466961.567848,z:21272564.109496,vx:-104.129791,vy:-2819.138916,vz:260.837036,tb:0.000053573273
$pseudo_cd_ph,prn:28,pseudo_cd_ph:371436909.378004670143
measnum = 6,full_prange = 21402082.698155
$oldmeas,msRange:71.409060,x:-1673484.446333,y:16365683.758936,z:21479954.782220,vx:-2385.802246,vy:981.907532,vz:-952.245117,tb:0.000767859209
$newmeas,x:-1673314.124286,y:16365613.661159,z:21480022.761576,vx:-2385.814209,vy:981.899963,vz:-952.214233,tb:0.000767859208
$pseudo_cd_ph,prn:30,pseudo_cd_ph:9.330380257973
measnum = 7,full_prange = 21154528.728136
$oldmeas,msRange:70.583456,x:-526307.174411,y:26397109.201296,z:1696128.562203,vx:-372.513397,vy:190.230606,vz:-3134.349854,tb:-0.000105516361
$newmeas,x:-526280.888317,y:26397095.776951,z:1696349.734101,vx:-372.515961,vy:190.256958,vz:-3134.347168,tb:-0.000105516360
Refix G01: 2, 371436.929940, 639
Refix G03: 2, 371436.923048, -3153
Refix G07: 2, 371436.924467, 2444
Refix G11: 2, 371436.927324, 1061
Refix G17: 2, 371436.926183, -2365
Refix G18: 2, 371436.924178, 1787
Refix G22: 2, 371436.922244, -1898
Refix G28: 2, 371436.929345, -3071
Refix G30: 2, 371436.929330, 855
$GNGGA,071019.000,2939.9029,N,10633.3244,E,1,04,1670.2,-4383.7,M,,,,0000*3A
$GNRMC,071019.000,A,2939.9029,N,10633.3244,E,119.26,0.00,160519,,*11
$GPGSA,A,3,,,,,,,,,,,,,1872.5,1670.2,846.7*34
$BDGSA,A,3,01,02,03,04,,,,,,,,,1872.5,1670.2,846.7*21
$GLGSA,A,3,,,,,,,,,,,,,1872.5,1670.2,846.7*28
$GPGSV,3,1,09,01,52,045,44,03,25,115,40,07,27,179,43,11,39,042,42*70
$GPGSV,3,2,09,17,41,289,44,18,25,041,41,28,58,344,44,30,51,212,44*7D
$GPGSV,3,3,09,22,26,090,00*4D
$BDGSV,3,1,12,01,40,125,41,02,47,219,38,03,56,171,42,04,23,109,37*67
$BDGSV,3,2,12,05,00,000,36,07,63,117,43,08,87,265,43,10,82,007,43*62
$BDGSV,3,3,12,13,58,221,43,27,53,023,45,29,05,250,40,30,51,279,45*66
$B3CN0,0,17,0,0,0,0,0,0,0,0,0,0,0,0*7A
$ini_pos,lastpos_good = 1,ini_pos.x:-1578892.757429,ini_pos.y:5312741.639196,ini_pos.z:3146340.063652
$rtc_local_time,localRTC.weeks:2053,localRTC.seconds:371437.669625,localGtime.weeks:2053,localGtime.seconds:371438.000000
$pseudo_cd_ph,prn:1,pseudo_cd_ph:371437929.967601716518
measnum = 0,full_prange = 20989880.878580
$oldmeas,msRange:0.000000,x:-13283199.438769,y:12392790.258086,z:19074724.071285,vx:-63.455498,vy:-2470.984131,vz:1577.902954,tb:-0.000017468769
$newmeas,x:-13283194.996298,y:12392963.262843,z:19074613.593855,vx:-63.445599,vy:-2470.970459,vz:1577.932007,tb:-0.000017468768
$pseudo_cd_ph,prn:3,pseudo_cd_ph:371437923.047700345516
measnum = 1,full_prange = 23125973.799625
$oldmeas,msRange:77.160047,x:-23347258.300090,y:12563055.642499,z:203244.712483,vx:-109.420799,vy:-264.458649,vz:3184.545898,tb:0.000187868885
$newmeas,x:-23347249.858374,y:12563076.042272,z:202999.056776,vx:-109.446770,vy:-264.444305,vz:3184.546143,tb:0.000187868885
$pseudo_cd_ph,prn:7,pseudo_cd_ph:371437924.449014306068
measnum = 2,full_prange = 22642005.838236
$oldmeas,msRange:75.545956,x:-7301429.930479,y:23514035.946824,z:-9056211.532783,vx:-267.271271,vy:-1212.700317,vz:-2899.640869,tb:-0.000025160506
$newmeas,x:-7301409.744810,y:23514127.535734,z:-9055992.535085,vx:-267.267151,vy:-1212.673462,vz:-2899.656006,tb:-0.000025160505
$pseudo_cd_ph,prn:11,pseudo_cd_ph:371437927.353558063507
measnum = 3,full_prange = 21597211.046265
$oldmeas,msRange:72.060865,x:-14037555.441675,y:7875414.053367,z:20608236.537994,vx:-1139.543579,vy:-2514.355713,vz:155.111588,tb:-0.000605677043
$newmeas,x:-14037473.348674,y:7875595.188992,z:20608225.362479,vx:-1139.534302,vy:-2514.357910,vz:155.144684,tb:-0.000605677043
$pseudo_cd_ph,prn:17,pseudo_cd_ph:371437926.207452774048
measnum = 4,full_prange = 22139026.101480
$oldmeas,msRange:73.867969,x:10413013.974825,y:19446674.687322,z:15263636.341507,vx:-1607.474365,vy:-941.241821,vz:2350.441406,tb:0.000055518154
$newmeas,x:10413132.682531,y:19446744.195825,z:15263462.765623,vx:-1607.452515,vy:-941.237122,vz:2350.464600,tb:0.000055518153
$pseudo_cd_ph,prn:18,pseudo_cd_ph:371437924.207243978977
measnum = 5,full_prange = 22738090.551521
$oldmeas,msRange:75.866439,x:-15018124.467007,y:2463928.596762,z:21272844.455417,vx:-104.298233,vy:-2819.167480,vz:260.327240,tb:0.000053573271
$newmeas,x:-15018116.556843,y:2464142.419561,z:21272824.709246,vx:-104.286354,vy:-2819.165527,vz:260.363190,tb:0.000053573272
$pseudo_cd_ph,prn:28,pseudo_cd_ph:371437909.379699110985
measnum = 6,full_prange = 21401565.052297
$oldmeas,msRange:71.408066,x:-1675870.164503,y:16366665.719237,z:21479002.321006,vx:-2385.634277,vy:982.013184,vz:-952.677368,tb:0.000767859215
$newmeas,x:-1675699.858568,y:16366595.615613,z:21479070.329577,vx:-2385.646240,vy:982.005615,vz:-952.646545,tb:0.000767859214
$pseudo_cd_ph,prn:30,pseudo_cd_ph:371437929.329800248146
measnum = 7,full_prange = 21154692.941920
$oldmeas,msRange:70.584743,x:-526679.669670,y:26397299.245130,z:1692994.194206,vx:-372.477142,vy:189.857071,vz:-3134.386230,tb:-0.000105516369
$newmeas,x:-526653.385931,y:26397285.847038,z:1693215.370395,vx:-372.479706,vy:189.883423,vz:-3134.383789,tb:-0.000105516369
Refix G01: 2, 371437.929950, 664
Refix G03: 2, 371437.923049, -3158
Refix G07: 2, 371437.924459, 2431
Refix G11: 2, 371437.927335, 1090
Refix G17: 2, 371437.926194, -2347
Refix G18: 2, 371437.924189, 1817
Refix G22: 2, 371437.922249, -1891
Refix G28: 2, 371437.929360, -3040
Refix G30: 2, 371437.929330, 858
$GNGGA,071020.000,2941.8513,N,10633.2320,E,1,04,1671.5,-2554.4,M,,,,0000*3F
$GNRMC,071020.000,A,2941.8513,N,10633.2320,E,108.33,0.00,160519,,*1F
$GPGSA,A,3,,,,,,,,,,,,,1874.6,1671.5,848.7*39
$BDGSA,A,3,01,02,03,04,,,,,,,,,1874.6,1671.5,848.7*2C
$GLGSA,A,3,,,,,,,,,,,,,1874.6,1671.5,848.7*25
$GPGSV,3,1,09,01,52,046,44,03,25,115,39,07,27,179,43,11,39,042,42*7D
$GPGSV,3,2,09,17,41,289,44,18,25,041,40,28,58,344,43,30,51,212,45*7A
$GPGSV,3,3,09,22,26,090,00*4D
$BDGSV,3,1,12,01,40,125,41,02,47,219,41,03,56,171,43,04,23,109,40*68
$BDGSV,3,2,12,05,00,000,36,07,63,117,43,08,87,263,43,10,82,007,43*64
$BDGSV,3,3,12,13,58,221,43,27,53,023,45,29,05,250,39,30,51,279,44*69
$B3CN0,0,0,0,0,0,0,0,0,0,0,0,0,0,0*4C
$ini_pos,lastpos_good = 1,ini_pos.x:-1578892.757429,ini_pos.y:5312741.639196,ini_pos.z:3146340.063652
$rtc_local_time,localRTC.weeks:2053,localRTC.seconds:371438.669625,localGtime.weeks:2053,localGtime.seconds:371439.000000
$pseudo_cd_ph,prn:1,pseudo_cd_ph:371438929.966973662376
measnum = 0,full_prange = 20990059.493844
$oldmeas,msRange:0.000000,x:-13283262.964951,y:12390319.176410,z:19076301.766160,vx:-63.596878,vy:-2471.179199,vz:1577.486938,tb:-0.000017468780
$newmeas,x:-13283258.512543,y:12390492.196295,z:19076191.316918,vx:-63.586975,vy:-2471.165527,vz:1577.515991,tb:-0.000017468780
$pseudo_cd_ph,prn:3,pseudo_cd_ph:371438923.049693346024
measnum = 1,full_prange = 23125366.645610
$oldmeas,msRange:77.158762,x:-23347367.552567,y:12562791.090873,z:206429.256068,vx:-109.084167,vy:-264.644623,vz:3184.541504,tb:0.000187868884
$newmeas,x:-23347359.137040,y:12562811.504455,z:206183.607148,vx:-109.110130,vy:-264.630280,vz:3184.541748,tb:0.000187868884
$pseudo_cd_ph,prn:7,pseudo_cd_ph:371438924.447532653809
measnum = 2,full_prange = 22642440.355769
$oldmeas,msRange:75.548142,x:-7301697.229002,y:23512823.068971,z:-9059111.073628,vx:-267.325806,vy:-1213.055420,vz:-2899.440918,tb:-0.000025160518
$newmeas,x:-7301677.038829,y:23512914.686459,z:-9058892.086834,vx:-267.321686,vy:-1213.028564,vz:-2899.456055,tb:-0.000025160517
$pseudo_cd_ph,prn:11,pseudo_cd_ph:371438927.352644205093
measnum = 3,full_prange = 21597475.347794
$oldmeas,msRange:72.062481,x:-14038695.049420,y:7872899.714105,z:20608391.419870,vx:-1139.671997,vy:-2514.322998,vz:154.652176,tb:-0.000605677040
$newmeas,x:-14038612.946160,y:7873080.849601,z:20608380.277316,vx:-1139.662720,vy:-2514.325439,vz:154.685272,tb:-0.000605677040
$pseudo_cd_ph,prn:17,pseudo_cd_ph:371438926.208770871162
measnum = 4,full_prange = 22138621.281625
$oldmeas,msRange:73.867352,x:10411406.352016,y:19445733.413703,z:15265986.625193,vx:-1607.771362,vy:-941.305481,vz:2350.126221,tb:0.000055518164
$newmeas,x:10411525.079478,y:19445802.925637,z:15265813.075764,vx:-1607.749390,vy:-941.300781,vz:2350.149414,tb:0.000055518163
$pseudo_cd_ph,prn:18,pseudo_cd_ph:371438924.205866873264
measnum = 5,full_prange = 22738493.729762
$oldmeas,msRange:75.868515,x:-15018228.843515,y:2461109.416113,z:21273104.545744,vx:-104.454796,vy:-2819.194092,vz:259.853424,tb:0.000053573270
$newmeas,x:-15018220.921335,y:2461323.244715,z:21273084.835161,vx:-104.442917,vy:-2819.191895,vz:259.889343,tb:0.000053573270
$pseudo_cd_ph,prn:22,pseudo_cd_ph:2.255743449967
measnum = 6,full_prange = 23096716.265661
$oldmeas,msRange:77.063317,x:-23968981.303980,y:8270835.123867,z:8012916.925642,vx:639.990662,vy:-841.771790,vz:2875.036377,tb:-0.000701648399
$newmeas,x:-23969030.609602,y:8270899.975277,z:8012695.425578,vx:639.970825,vy:-841.754456,vz:2875.049316,tb:-0.000701648398
$pseudo_cd_ph,prn:28,pseudo_cd_ph:371438909.381394803524
measnum = 7,full_prange = 21401047.031189
$oldmeas,msRange:71.407072,x:-1678255.714641,y:16367647.785171,z:21478049.427518,vx:-2385.466064,vy:982.118774,vz:-953.109619,tb:0.000767859221
$newmeas,x:-1678085.424825,y:16367577.675704,z:21478117.465301,vx:-2385.478271,vy:982.111206,vz:-953.078796,tb:0.000767859221
$pseudo_cd_ph,prn:30,pseudo_cd_ph:371438929.329219341278
measnum = 8,full_prange = 21154857.423740
$oldmeas,msRange:70.586030,x:-527052.128700,y:26397488.915423,z:1689859.789759,vx:-372.440948,vy:189.483521,vz:-3134.422852,tb:-0.000105516378
$newmeas,x:-527025.847312,y:26397475.543586,z:1690080.970237,vx:-372.443512,vy:189.509888,vz:-3134.420166,tb:-0.000105516377
Refix G01: 0,      0.000000, 858
Refix G03: 0,      0.000000, 858
Refix G07: 0,      0.000000, 858
Refix G11: 0,      0.000000, 858
Refix G17: 0,      0.000000, 858
Refix G18: 0,      0.000000, 858
Refix G22: 0,      0.000000, 858
Refix G28: 0,      0.000000, 858
Refix G30: 0,      0.000000, 858
$GNGGA,071021.000,,,,,0,00,,,M,,,,0000*2E
$GNRMC,071021.000,A,,,,,,,160519,,*29
$GPGSA,A,1,,,,,,,,,,,,,,,*1E
$BDGSA,A,1,,,,,,,,,,,,,,,*0F
$GLGSA,A,1,,,,,,,,,,,,,,,*02
$GPGSV,3,1,09,01,52,046,45,03,25,115,40,07,27,179,43,11,39,042,42*72
$GPGSV,3,2,09,17,41,289,44,18,25,041,41,28,58,344,43,30,51,212,44*7A
$GPGSV,3,3,09,22,26,090,00*4D
$BDGSV,3,1,12,01,40,125,42,02,47,219,41,03,55,171,45,04,23,109,39*60
$BDGSV,3,2,12,05,00,000,36,07,63,117,43,08,87,262,43,10,82,007,43*65
$BDGSV,3,3,12,13,58,221,43,27,53,023,44,29,05,250,39,30,51,279,44*68
$B3CN0,0,0,0,0,0,0,0,0,0,0,0,0,0,0*4C
$ini_pos,lastpos_good = 1,ini_pos.x:-1578892.757429,ini_pos.y:5312741.639196,ini_pos.z:3146340.063652
$rtc_local_time,localRTC.weeks:2053,localRTC.seconds:371439.669625,localGtime.weeks:2053,localGtime.seconds:371440.000000
$pseudo_cd_ph,prn:1,pseudo_cd_ph:371439929.966346204281
measnum = 0,full_prange = 20990237.930418
$oldmeas,msRange:0.000000,x:-13283326.632528,y:12387847.899726,z:19077879.044998,vx:-63.738285,vy:-2471.374268,vz:1577.070801,tb:-0.000017468792
$newmeas,x:-13283322.170181,y:12388020.934734,z:19077768.623947,vx:-63.728382,vy:-2471.360596,vz:1577.099976,tb:-0.000017468791
$pseudo_cd_ph,prn:3,pseudo_cd_ph:371439923.051680088043
measnum = 1,full_prange = 23124761.367842
$oldmeas,msRange:77.157478,x:-23347476.468425,y:12562526.353257,z:209613.795238,vx:-108.747559,vy:-264.830627,vz:3184.537109,tb:0.000187868883
$newmeas,x:-23347468.079083,y:12562546.780653,z:209368.153091,vx:-108.773521,vy:-264.816284,vz:3184.537354,tb:0.000187868883
$pseudo_cd_ph,prn:7,pseudo_cd_ph:371439924.446052312851
measnum = 2,full_prange = 22642874.480184
$oldmeas,msRange:75.550328,x:-7301964.582061,y:23511609.836031,z:-9062010.414430,vx:-267.380341,vy:-1213.410522,vz:-2899.240967,tb:-0.000025160529
$newmeas,x:-7301944.387380,y:23511701.482094,z:-9061791.438549,vx:-267.376221,vy:-1213.383667,vz:-2899.255859,tb:-0.000025160528
$pseudo_cd_ph,prn:11,pseudo_cd_ph:371439927.351733028889
measnum = 3,full_prange = 21597738.845217
$oldmeas,msRange:72.064096,x:-14039834.785607,y:7870385.407444,z:20608545.842326,vx:-1139.800415,vy:-2514.290527,vz:154.192749,tb:-0.000605677038
$newmeas,x:-14039752.672093,y:7870566.542799,z:20608534.732733,vx:-1139.791138,vy:-2514.292725,vz:154.225845,tb:-0.000605677038
$pseudo_cd_ph,prn:17,pseudo_cd_ph:371439926.210089385509
measnum = 4,full_prange = 22138216.336686
$oldmeas,msRange:73.866735,x:10409798.432313,y:19444792.076444,z:15268336.593601,vx:-1608.068237,vy:-941.369080,vz:2349.810791,tb:0.000055518173
$newmeas,x:10409917.179526,y:19444861.591804,z:15268163.070629,vx:-1608.046265,vy:-941.364380,vz:2349.834229,tb:0.000055518173
$pseudo_cd_ph,prn:18,pseudo_cd_ph:371439924.204496026039
measnum = 5,full_prange = 22738895.031755
$oldmeas,msRange:75.870590,x:-15018333.376588,y:2458290.208976,z:21273364.162230,vx:-104.611359,vy:-2819.220459,vz:259.379578,tb:0.000053573268
$newmeas,x:-15018325.442393,y:2458504.043358,z:21273344.487240,vx:-104.599487,vy:-2819.218506,vz:259.415527,tb:0.000053573268
$pseudo_cd_ph,prn:22,pseudo_cd_ph:2.256828576589
measnum = 6,full_prange = 23096381.273326
$oldmeas,msRange:77.062909,x:-23968341.184383,y:8269993.239774,z:8015791.876878,vx:640.248535,vy:-841.996460,vz:2874.866455,tb:-0.000701648405
$newmeas,x:-23968390.509157,y:8270058.107555,z:8015570.393118,vx:640.228699,vy:-841.979187,vz:2874.879395,tb:-0.000701648404
$pseudo_cd_ph,prn:28,pseudo_cd_ph:371439909.383090615273
measnum = 7,full_prange = 21400528.974343
$oldmeas,msRange:71.406079,x:-1680641.096696,y:16368629.956697,z:21477096.101775,vx:-2385.298096,vy:982.224365,vz:-953.541870,tb:0.000767859227
$newmeas,x:-1680470.823003,y:16368559.841392,z:21477164.168767,vx:-2385.310059,vy:982.216797,vz:-953.511047,tb:0.000767859227
$pseudo_cd_ph,prn:30,pseudo_cd_ph:371439929.328639924526
measnum = 8,full_prange = 21155021.458834
$oldmeas,msRange:70.587318,x:-527424.551550,y:26397678.212167,z:1686725.348931,vx:-372.404785,vy:189.109970,vz:-3134.458984,tb:-0.000105516386
$newmeas,x:-527398.272509,y:26397664.866587,z:1686946.533689,vx:-372.407349,vy:189.136337,vz:-3134.456543,tb:-0.000105516386
Refix G01: 0,      0.000000, 858
Refix G03: 0,      0.000000, 858
Refix G07: 0,      0.000000, 858
Refix G11: 0,      0.000000, 858
Refix G17: 0,      0.000000, 858
Refix G18: 0,      0.000000, 858
Refix G22: 0,      0.000000, 858
Refix G28: 0,      0.000000, 858
Refix G30: 0,      0.000000, 858
$GNGGA,071022.000,,,,,0,00,,,M,,,,0000*2D
$GNRMC,071022.000,A,,,,,,,160519,,*2A
$GPGSA,A,1,,,,,,,,,,,,,,,*1E
$BDGSA,A,1,,,,,,,,,,,,,,,*0F
$GLGSA,A,1,,,,,,,,,,,,,,,*02
$GPGSV,3,1,09,01,52,046,46,03,25,115,40,07,27,179,44,11,39,042,43*77
$GPGSV,3,2,09,17,41,289,44,18,25,041,41,22,26,090,38,28,58,344,43*7A
$GPGSV,3,3,09,30,51,212,44*46
$BDGSV,3,1,12,01,40,125,41,02,47,219,39,03,55,171,45,04,23,109,41*63
$BDGSV,3,2,12,05,00,000,35,07,63,117,43,08,87,261,43,10,82,007,43*65
$BDGSV,3,3,12,13,58,221,43,27,53,023,44,29,05,250,39,30,51,279,44*68
$B3CN0,0,0,0,0,0,0,0,0,0,0,0,0,0,0*4C
$ini_pos,lastpos_good = 1,ini_pos.x:-1578892.757429,ini_pos.y:5312741.639196,ini_pos.z:3146340.063652
$rtc_local_time,localRTC.weeks:2053,localRTC.seconds:371440.669625,localGtime.weeks:2053,localGtime.seconds:371441.000000
$pseudo_cd_ph,prn:1,pseudo_cd_ph:371440929.965716362000
measnum = 0,full_prange = 20990417.081753
$oldmeas,msRange:0.000000,x:-13283390.441526,y:12385376.428095,z:19079455.907765,vx:-63.879719,vy:-2471.569092,vz:1576.654785,tb:-0.000017468804
$newmeas,x:-13283385.969238,y:12385549.478227,z:19079345.514905,vx:-63.869816,vy:-2471.555420,vz:1576.683960,tb:-0.000017468803
$pseudo_cd_ph,prn:3,pseudo_cd_ph:371440923.053664863110
measnum = 1,full_prange = 23124156.679753
$oldmeas,msRange:77.156194,x:-23347585.047690,y:12562261.429607,z:212798.329924,vx:-108.410980,vy:-265.016693,vz:3184.532471,tb:0.000187868881
$newmeas,x:-23347576.684529,y:12562281.870820,z:212552.694548,vx:-108.436943,vy:-265.002350,vz:3184.532959,tb:0.000187868882
$pseudo_cd_ph,prn:7,pseudo_cd_ph:371440924.444567918777
measnum = 2,full_prange = 22643309.819692
$oldmeas,msRange:75.552514,x:-7302231.989703,y:23510396.248032,z:-9064909.555126,vx:-267.434967,vy:-1213.765503,vz:-2899.040771,tb:-0.000025160541
$newmeas,x:-7302211.790510,y:23510487.922673,z:-9064690.590150,vx:-267.430817,vy:-1213.738770,vz:-2899.055908,tb:-0.000025160540
$pseudo_cd_ph,prn:11,pseudo_cd_ph:371440927.350819587708
measnum = 3,full_prange = 21598003.021662
$oldmeas,msRange:72.065712,x:-14040974.650211,y:7867871.133445,z:20608699.805355,vx:-1139.928833,vy:-2514.257812,vz:153.733322,tb:-0.000605677035
$newmeas,x:-14040892.526442,y:7868052.268661,z:20608688.728725,vx:-1139.919556,vy:-2514.260010,vz:153.766418,tb:-0.000605677035
$pseudo_cd_ph,prn:17,pseudo_cd_ph:371440926.211408734322
measnum = 4,full_prange = 22137811.141582
$oldmeas,msRange:73.866117,x:10408190.215729,y:19443850.675606,z:15270686.246683,vx:-1608.365112,vy:-941.432617,vz:2349.495361,tb:0.000055518183
$newmeas,x:10408308.982691,y:19443920.194386,z:15270512.750174,vx:-1608.343140,vy:-941.427917,vz:2349.518799,tb:0.000055518182
$pseudo_cd_ph,prn:18,pseudo_cd_ph:371440924.203126549721
measnum = 5,full_prange = 22739295.922760
$oldmeas,msRange:75.872666,x:-15018438.066228,y:2455470.975421,z:21273623.304870,vx:-104.767929,vy:-2819.246826,vz:258.905731,tb:0.000053573266
$newmeas,x:-15018430.120017,y:2455684.815574,z:21273603.665475,vx:-104.756050,vy:-2819.244873,vz:258.941650,tb:0.000053573266
$pseudo_cd_ph,prn:22,pseudo_cd_ph:2.257922242464
measnum = 6,full_prange = 23096043.743590
$oldmeas,msRange:77.062501,x:-23967700.806932,y:8269151.130963,z:8018666.658154,vx:640.506409,vy:-842.221191,vz:2874.696289,tb:-0.000701648411
$newmeas,x:-23967750.150849,y:8269216.015110,z:8018445.190727,vx:640.486511,vy:-842.203918,vz:2874.709473,tb:-0.000701648410
$pseudo_cd_ph,prn:28,pseudo_cd_ph:371440909.384786427021
measnum = 7,full_prange = 21400010.917497
$oldmeas,msRange:71.405085,x:-1683026.310617,y:16369612.233777,z:21476142.343796,vx:-2385.129883,vy:982.329895,vz:-953.974121,tb:0.000767859234
$newmeas,x:-1682856.053050,y:16369542.112635,z:21476210.439994,vx:-2385.141846,vy:982.322327,vz:-953.943298,tb:0.000767859233
$pseudo_cd_ph,prn:30,pseudo_cd_ph:371440929.328055918217
measnum = 8,full_prange = 21155186.869842
$oldmeas,msRange:70.588606,x:-527796.938267,y:26397867.135354,z:1683590.871788,vx:-372.368683,vy:188.736404,vz:-3134.495361,tb:-0.000105516395
$newmeas,x:-527770.661569,y:26397853.816030,z:1683812.060836,vx:-372.371216,vy:188.762772,vz:-3134.492920,tb:-0.000105516394
Refix G01: 0,      0.000000, 858
Refix G03: 0,      0.000000, 858
Refix G07: 0,      0.000000, 858
Refix G11: 0,      0.000000, 858
Refix G17: 0,      0.000000, 858
Refix G18: 0,      0.000000, 858
Refix G22: 0,      0.000000, 858
Refix G28: 0,      0.000000, 858
Refix G30: 0,      0.000000, 858
$GNGGA,071023.000,,,,,0,00,,,M,,,,0000*2C
$GNRMC,071023.000,A,,,,,,,160519,,*2B
$GPGSA,A,1,,,,,,,,,,,,,,,*1E
$BDGSA,A,1,,,,,,,,,,,,,,,*0F
$GLGSA,A,1,,,,,,,,,,,,,,,*02
$GPGSV,3,1,09,01,52,046,45,03,25,115,40,07,27,179,44,11,39,042,44*73
$GPGSV,3,2,09,17,41,289,45,18,25,041,40,22,26,090,38,28,58,344,44*7D
$GPGSV,3,3,09,30,51,212,45*47
$BDGSV,3,1,12,01,40,125,41,02,47,219,39,03,55,171,45,04,23,109,39*6C
$BDGSV,3,2,12,05,00,000,35,07,63,117,43,08,87,261,43,10,82,007,43*65
$BDGSV,3,3,12,13,58,221,43,27,53,023,44,29,05,250,39,30,51,279,44*68
$B3CN0,0,0,0,0,0,0,0,0,0,0,0,0,0,0*4C
$ini_pos,lastpos_good = 1,ini_pos.x:-1578892.757429,ini_pos.y:5312741.639196,ini_pos.z:3146340.063652
$rtc_local_time,localRTC.weeks:2053,localRTC.seconds:371441.669625,localGtime.weeks:2053,localGtime.seconds:371442.000000
$pseudo_cd_ph,prn:1,pseudo_cd_ph:371441929.965088367462
measnum = 0,full_prange = 20990595.679148
$oldmeas,msRange:0.000000,x:-13283454.391973,y:12382904.761579,z:19081032.354427,vx:-64.021187,vy:-2471.763916,vz:1576.238647,tb:-0.000017468815
$newmeas,x:-13283449.909743,y:12383077.826827,z:19080921.989763,vx:-64.011276,vy:-2471.750488,vz:1576.267822,tb:-0.000017468814
$pseudo_cd_ph,prn:3,pseudo_cd_ph:371441923.055655062199
measnum = 1,full_prange = 23123550.365582
$oldmeas,msRange:77.154910,x:-23347693.290387,y:12561996.319879,z:215982.860058,vx:-108.074425,vy:-265.202789,vz:3184.527832,tb:0.000187868880
$newmeas,x:-23347684.953404,y:12562016.774910,z:215737.231476,vx:-108.100380,vy:-265.188446,vz:3184.528320,tb:0.000187868880
$pseudo_cd_ph,prn:7,pseudo_cd_ph:371441924.443084955215
measnum = 2,full_prange = 22643744.730344
$oldmeas,msRange:75.554700,x:-7302499.451976,y:23509182.305001,z:-9067808.495649,vx:-267.489624,vy:-1214.120605,vz:-2898.840576,tb:-0.000025160553
$newmeas,x:-7302479.248267,y:23509274.008218,z:-9067589.541589,vx:-267.485474,vy:-1214.093750,vz:-2898.855713,tb:-0.000025160552
$pseudo_cd_ph,prn:11,pseudo_cd_ph:371441927.349909305573
measnum = 3,full_prange = 21598266.251049
$oldmeas,msRange:72.067328,x:-14042114.643207,y:7865356.892168,z:20608853.308953,vx:-1140.057251,vy:-2514.225098,vz:153.273880,tb:-0.000605677032
$newmeas,x:-14042032.509188,y:7865538.027232,z:20608842.265288,vx:-1140.047974,vy:-2514.227295,vz:153.306992,tb:-0.000605677032
$pseudo_cd_ph,prn:17,pseudo_cd_ph:371441926.212732076645
measnum = 4,full_prange = 22137404.749253
$oldmeas,msRange:73.865500,x:10406581.702283,y:19442909.211247,z:15273035.584391,vx:-1608.661865,vy:-941.496155,vz:2349.180176,tb:0.000055518192
$newmeas,x:10406700.488985,y:19442978.733439,z:15272862.114356,vx:-1608.640015,vy:-941.491455,vz:2349.203369,tb:0.000055518192
$pseudo_cd_ph,prn:18,pseudo_cd_ph:371441924.201757609844
measnum = 5,full_prange = 22739696.652944
$oldmeas,msRange:75.874742,x:-15018542.912437,y:2452651.715518,z:21273881.973659,vx:-104.924500,vy:-2819.273193,vz:258.431885,tb:0.000053573264
$newmeas,x:-15018534.954211,y:2452865.561436,z:21273862.369860,vx:-104.912621,vy:-2819.271240,vz:258.467804,tb:0.000053573265
$pseudo_cd_ph,prn:22,pseudo_cd_ph:2.259025349995
measnum = 6,full_prange = 23095703.372679
$oldmeas,msRange:77.062094,x:-23967060.171671,y:8268308.797411,z:8021541.269411,vx:640.764160,vy:-842.445984,vz:2874.526367,tb:-0.000701648417
$newmeas,x:-23967109.534720,y:8268373.697916,z:8021319.818348,vx:640.744324,vy:-842.428650,vz:2874.539307,tb:-0.000701648416
$pseudo_cd_ph,prn:28,pseudo_cd_ph:371441909.386486709118
measnum = 7,full_prange = 21399491.520474
$oldmeas,msRange:71.404091,x:-1685411.356355,y:16370594.616370,z:21475188.153598,vx:-2384.961670,vy:982.435364,vz:-954.406311,tb:0.000767859240
$newmeas,x:-1685241.114927,y:16370524.489400,z:21475256.278995,vx:-2384.973633,vy:982.427856,vz:-954.375488,tb:0.000767859239
$pseudo_cd_ph,prn:30,pseudo_cd_ph:371441929.327474236488
measnum = 8,full_prange = 21155351.583959
$oldmeas,msRange:70.589895,x:-528169.288901,y:26398055.684975,z:1680456.358399,vx:-372.332611,vy:188.362839,vz:-3134.531494,tb:-0.000105516403
$newmeas,x:-528143.014543,y:26398042.391909,z:1680677.551725,vx:-372.335175,vy:188.389206,vz:-3134.529053,tb:-0.000105516402
Refix G01: 0,      0.000000, 858
Refix G03: 0,      0.000000, 858
Refix G07: 0,      0.000000, 858
Refix G11: 0,      0.000000, 858
Refix G17: 0,      0.000000, 858
Refix G18: 0,      0.000000, 858
Refix G22: 0,      0.000000, 858
Refix G28: 0,      0.000000, 858
Refix G30: 0,      0.000000, 858
$GNGGA,071024.000,,,,,0,00,,,M,,,,0000*2B
$GNRMC,071024.000,A,,,,,,,160519,,*2C
$GPGSA,A,1,,,,,,,,,,,,,,,*1E
$BDGSA,A,1,,,,,,,,,,,,,,,*0F
$GLGSA,A,1,,,,,,,,,,,,,,,*02
$GPGSV,3,1,09,01,52,046,45,03,25,115,40,07,27,179,44,11,39,042,43*74
$GPGSV,3,2,09,17,41,289,44,18,25,041,40,22,26,090,39,28,58,344,43*7A
$GPGSV,3,3,09,30,51,212,44*46
$BDGSV,3,1,12,01,40,125,41,02,47,219,39,03,55,171,43,04,23,109,41*65
$BDGSV,3,2,12,05,00,000,35,07,63,117,44,08,87,261,43,10,82,007,43*62
$BDGSV,3,3,12,13,58,221,43,27,53,023,44,29,05,250,39,30,51,279,43*6F
$B3CN0,0,0,0,0,0,0,0,0,0,0,0,0,0,0*4C
$ini_pos,lastpos_good = 1,ini_pos.x:-1578892.757429,ini_pos.y:5312741.639196,ini_pos.z:3146340.063652
$rtc_local_time,localRTC.weeks:2053,localRTC.seconds:371442.669625,localGtime.weeks:2053,localGtime.seconds:371443.000000
$pseudo_cd_ph,prn:1,pseudo_cd_ph:371442929.964459478855
measnum = 0,full_prange = 20990774.544579
$oldmeas,msRange:0.000000,x:-13283518.483898,y:12380432.900240,z:19082608.384951,vx:-64.162674,vy:-2471.958740,vz:1575.822510,tb:-0.000017468827
$newmeas,x:-13283513.991723,y:12380605.980601,z:19082498.048485,vx:-64.152771,vy:-2471.945068,vz:1575.851685,tb:-0.000017468826
$pseudo_cd_ph,prn:3,pseudo_cd_ph:371442923.057641267776
measnum = 1,full_prange = 23122945.248636
$oldmeas,msRange:77.153627,x:-23347801.196540,y:12561731.024027,z:219167.385571,vx:-107.737892,vy:-265.388947,vz:3184.523193,tb:0.000187868879
$newmeas,x:-23347792.885732,y:12561751.492880,z:218921.763776,vx:-107.763847,vy:-265.374573,vz:3184.523682,tb:0.000187868879
$pseudo_cd_ph,prn:7,pseudo_cd_ph:371442924.441601991653
measnum = 2,full_prange = 22644179.640996
$oldmeas,msRange:75.556886,x:-7302766.968926,y:23507968.006967,z:-9070707.235937,vx:-267.544312,vy:-1214.475586,vz:-2898.640137,tb:-0.000025160564
$newmeas,x:-7302746.760697,y:23508059.738759,z:-9070488.292799,vx:-267.540192,vy:-1214.448730,vz:-2898.655273,tb:-0.000025160563
$pseudo_cd_ph,prn:11,pseudo_cd_ph:371442927.348997116089
measnum = 3,full_prange = 21598530.052245
$oldmeas,msRange:72.068944,x:-14043254.764571,y:7862842.683675,z:20609006.353117,vx:-1140.185547,vy:-2514.192139,vz:152.814453,tb:-0.000605677029
$newmeas,x:-14043172.620301,y:7863023.818587,z:20608995.342416,vx:-1140.176270,vy:-2514.194580,vz:152.847549,tb:-0.000605677030
$pseudo_cd_ph,prn:17,pseudo_cd_ph:371442926.214051663876
measnum = 4,full_prange = 22136999.482673
$oldmeas,msRange:73.864883,x:10404972.891989,y:19441967.683425,z:15275384.606679,vx:-1608.958740,vy:-941.559570,vz:2348.864746,tb:0.000055518202
$newmeas,x:10405091.698436,y:19442037.209030,z:15275211.163112,vx:-1608.936890,vy:-941.554871,vz:2348.887939,tb:0.000055518201
$pseudo_cd_ph,prn:18,pseudo_cd_ph:371442924.200380980968
measnum = 5,full_prange = 22740099.688233
$oldmeas,msRange:75.876819,x:-15018647.915218,y:2449832.429340,z:21274140.168591,vx:-105.081070,vy:-2819.299316,vz:257.958008,tb:0.000053573263
$newmeas,x:-15018639.944974,y:2450046.281038,z:21274120.600388,vx:-105.069191,vy:-2819.297363,vz:257.993958,tb:0.000053573263
$pseudo_cd_ph,prn:22,pseudo_cd_ph:2.260130292160
measnum = 6,full_prange = 23095362.447829
$oldmeas,msRange:77.061686,x:-23966419.278643,y:8267466.239094,z:8024415.710587,vx:641.021912,vy:-842.670715,vz:2874.356201,tb:-0.000701648422
$newmeas,x:-23966468.660820,y:8267531.155957,z:8024194.275898,vx:641.002075,vy:-842.653442,vz:2874.369385,tb:-0.000701648422
$pseudo_cd_ph,prn:28,pseudo_cd_ph:371442909.388183951378
measnum = 7,full_prange = 21398973.034771
$oldmeas,msRange:71.403098,x:-1687796.233858,y:16371577.104437,z:21474233.531201,vx:-2384.793457,vy:982.540833,vz:-954.838501,tb:0.000767859246
$newmeas,x:-1687626.008564,y:16371506.971639,z:21474301.685796,vx:-2384.805420,vy:982.533325,vz:-954.807678,tb:0.000767859246
$pseudo_cd_ph,prn:30,pseudo_cd_ph:371442929.326890230179
measnum = 8,full_prange = 21155516.994968
$oldmeas,msRange:70.591183,x:-528541.603499,y:26398243.861022,z:1677321.808830,vx:-372.296600,vy:187.989258,vz:-3134.567627,tb:-0.000105516412
$newmeas,x:-528515.331477,y:26398230.594214,z:1677543.006436,vx:-372.299133,vy:188.015625,vz:-3134.565186,tb:-0.000105516411
Refix G01: 0,      0.000000, 858
Refix G03: 0,      0.000000, 858
Refix G07: 0,      0.000000, 858
Refix G11: 0,      0.000000, 858
Refix G17: 0,      0.000000, 858
Refix G18: 0,      0.000000, 858
Refix G22: 0,      0.000000, 858
Refix G28: 0,      0.000000, 858
Refix G30: 0,      0.000000, 858
$GNGGA,071025.000,,,,,0,00,,,M,,,,0000*2A
$GNRMC,071025.000,A,,,,,,,160519,,*2D
$GPGSA,A,1,,,,,,,,,,,,,,,*1E
$BDGSA,A,1,,,,,,,,,,,,,,,*0F
$GLGSA,A,1,,,,,,,,,,,,,,,*02
$GPGSV,3,1,09,01,52,046,45,03,25,115,40,07,27,179,43,11,39,042,43*73
$GPGSV,3,2,09,17,41,289,44,18,25,041,41,22,26,090,40,28,58,344,44*72
$GPGSV,3,3,09,30,51,212,44*46
$BDGSV,3,1,12,01,40,125,42,02,47,219,41,03,55,171,43,04,23,109,40*68
$BDGSV,3,2,12,05,00,000,36,07,63,117,43,08,87,261,43,10,82,007,43*66
$BDGSV,3,3,12,13,58,221,43,27,53,023,45,29,05,250,39,30,51,279,43*6E
$B3CN0,0,0,0,0,0,0,0,0,0,0,0,0,0,0*4C
$ini_pos,lastpos_good = 1,ini_pos.x:-1578892.757429,ini_pos.y:5312741.639196,ini_pos.z:3146340.063652
$rtc_local_time,localRTC.weeks:2053,localRTC.seconds:371443.669625,localGtime.weeks:2053,localGtime.seconds:371444.000000
$pseudo_cd_ph,prn:1,pseudo_cd_ph:371443929.963830649853
measnum = 0,full_prange = 20990953.392140
$oldmeas,msRange:0.000000,x:-13283582.717329,y:12377960.844138,z:19084183.999303,vx:-64.304192,vy:-2472.153564,vz:1575.406250,tb:-0.000017468839
$newmeas,x:-13283578.215206,y:12378133.939609,z:19084073.691037,vx:-64.294281,vy:-2472.139893,vz:1575.435425,tb:-0.000017468838
$pseudo_cd_ph,prn:3,pseudo_cd_ph:371443923.059628903866
measnum = 1,full_prange = 23122339.702833
$oldmeas,msRange:77.152343,x:-23347908.766176,y:12561465.542005,z:222351.906397,vx:-107.401390,vy:-265.575134,vz:3184.518555,tb:0.000187868878
$newmeas,x:-23347900.481540,y:12561486.024683,z:222106.291398,vx:-107.427345,vy:-265.560760,vz:3184.519043,tb:0.000187868878
$pseudo_cd_ph,prn:7,pseudo_cd_ph:371443924.440120518208
measnum = 2,full_prange = 22644614.104922
$oldmeas,msRange:75.559072,x:-7303034.540601,y:23506753.353956,z:-9073605.775925,vx:-267.599060,vy:-1214.830566,vz:-2898.439941,tb:-0.000025160576
$newmeas,x:-7303014.327849,y:23506845.114320,z:-9073386.843718,vx:-267.594910,vy:-1214.803711,vz:-2898.455078,tb:-0.000025160575
$pseudo_cd_ph,prn:11,pseudo_cd_ph:371443927.348083317280
measnum = 3,full_prange = 21598794.335905
$oldmeas,msRange:72.070561,x:-14044395.014278,y:7860328.508026,z:20609158.937840,vx:-1140.313965,vy:-2514.159180,vz:152.355011,tb:-0.000605677027
$newmeas,x:-14044312.859757,y:7860509.642786,z:20609147.960106,vx:-1140.304688,vy:-2514.161621,vz:152.388107,tb:-0.000605677027
$pseudo_cd_ph,prn:17,pseudo_cd_ph:371443926.215371012688
measnum = 4,full_prange = 22136594.287568
$oldmeas,msRange:73.864266,x:10403363.784864,y:19441026.092202,z:15277733.313498,vx:-1609.255615,vy:-941.622925,vz:2348.549072,tb:0.000055518211
$newmeas,x:10403482.611053,y:19441095.621213,z:15277559.896402,vx:-1609.233643,vy:-941.618286,vz:2348.572510,tb:0.000055518211
$pseudo_cd_ph,prn:18,pseudo_cd_ph:371443924.199004054070
measnum = 5,full_prange = 22740502.812866
$oldmeas,msRange:75.878895,x:-15018753.074574,y:2447013.116955,z:21274397.889661,vx:-105.237648,vy:-2819.325439,vz:257.484131,tb:0.000053573261
$newmeas,x:-15018745.092312,y:2447226.974430,z:21274378.357056,vx:-105.225769,vy:-2819.323486,vz:257.520081,tb:0.000053573261
$pseudo_cd_ph,prn:22,pseudo_cd_ph:371443922.261237204075
measnum = 6,full_prange = 23095020.933301
$oldmeas,msRange:77.061280,x:-23965778.127895,y:8266623.455988,z:8027289.981622,vx:641.279602,vy:-842.895508,vz:2874.186035,tb:-0.000701648428
$newmeas,x:-23965827.529194,y:8266688.389209,z:8027068.563317,vx:641.259766,vy:-842.878235,vz:2874.199219,tb:-0.000701648428
$pseudo_cd_ph,prn:28,pseudo_cd_ph:371443909.389881610870
measnum = 7,full_prange = 21398454.423986
$oldmeas,msRange:71.402105,x:-1690180.943075,y:16372559.697939,z:21473278.476622,vx:-2384.625244,vy:982.646240,vz:-955.270691,tb:0.000767859252
$newmeas,x:-1690010.733920,y:16372489.559316,z:21473346.660413,vx:-2384.637207,vy:982.638733,vz:-955.239868,tb:0.000767859252
$pseudo_cd_ph,prn:30,pseudo_cd_ph:371443929.326306879520
measnum = 8,full_prange = 21155682.209417
$oldmeas,msRange:70.592472,x:-528913.882111,y:26398431.663486,z:1674187.223149,vx:-372.260651,vy:187.615677,vz:-3134.603760,tb:-0.000105516420
$newmeas,x:-528887.612421,y:26398418.422938,z:1674408.425029,vx:-372.263184,vy:187.642044,vz:-3134.601318,tb:-0.000105516419
Refix G01: 0,      0.000000, 858
Refix G03: 0,      0.000000, 858
Refix G07: 0,      0.000000, 858
Refix G11: 0,      0.000000, 858
Refix G17: 0,      0.000000, 858
Refix G18: 0,      0.000000, 858
Refix G22: 0,      0.000000, 858
Refix G28: 0,      0.000000, 858
Refix G30: 0,      0.000000, 858
$GNGGA,071026.000,,,,,0,00,,,M,,,,0000*29
$GNRMC,071026.000,A,,,,,,,160519,,*2E
$GPGSA,A,1,,,,,,,,,,,,,,,*1E
$BDGSA,A,1,,,,,,,,,,,,,,,*0F
$GLGSA,A,1,,,,,,,,,,,,,,,*02
$GPGSV,3,1,09,01,52,046,45,03,25,115,41,07,27,179,44,11,39,042,43*75
$GPGSV,3,2,09,17,41,289,45,18,25,041,42,22,26,090,40,28,58,344,43*77
$GPGSV,3,3,09,30,51,212,45*47
$BDGSV,3,1,12,01,40,125,40,02,47,219,40,03,55,171,41,04,23,109,40*69
$BDGSV,3,2,12,05,00,000,36,07,63,117,44,08,87,261,43,10,82,007,43*61
$BDGSV,3,3,12,13,58,221,44,27,53,023,45,29,05,250,39,30,51,279,44*6E
$B3CN0,0,0,0,0,0,0,0,0,0,0,0,0,0,0*4C
$ini_pos,lastpos_good = 1,ini_pos.x:-1578892.757429,ini_pos.y:5312741.639196,ini_pos.z:3146340.063652
$rtc_local_time,localRTC.weeks:2053,localRTC.seconds:371444.669625,localGtime.weeks:2053,localGtime.seconds:371445.000000
$pseudo_cd_ph,prn:1,pseudo_cd_ph:371444929.963203728199
measnum = 0,full_prange = 20991131.667893
$oldmeas,msRange:0.000000,x:-13283647.092292,y:12375488.593337,z:19085759.197448,vx:-64.445740,vy:-2472.348145,vz:1574.990112,tb:-0.000017468850
$newmeas,x:-13283642.580220,y:12375661.703909,z:19085648.917389,vx:-64.435829,vy:-2472.334473,vz:1575.019287,tb:-0.000017468849
$pseudo_cd_ph,prn:3,pseudo_cd_ph:371444923.061616778374
measnum = 1,full_prange = 23121734.085554
$oldmeas,msRange:77.151060,x:-23348015.999319,y:12561199.873771,z:225536.422465,vx:-107.064911,vy:-265.761353,vz:3184.513672,tb:0.000187868877
$newmeas,x:-23348007.740851,y:12561220.370275,z:225290.814269,vx:-107.090858,vy:-265.747009,vz:3184.514160,tb:0.000187868877
$pseudo_cd_ph,prn:7,pseudo_cd_ph:371444924.438639283180
measnum = 2,full_prange = 22645048.497372
$oldmeas,msRange:75.561259,x:-7303302.167048,y:23505538.345997,z:-9076504.115549,vx:-267.653870,vy:-1215.185425,vz:-2898.239502,tb:-0.000025160588
$newmeas,x:-7303281.949769,y:23505630.134931,z:-9076285.194278,vx:-267.649719,vy:-1215.158691,vz:-2898.254639,tb:-0.000025160587
$pseudo_cd_ph,prn:11,pseudo_cd_ph:371444927.347175359726
measnum = 3,full_prange = 21599056.868400
$oldmeas,msRange:72.072177,x:-14045535.392301,y:7857814.365282,z:20609311.063118,vx:-1140.442261,vy:-2514.126465,vz:151.895554,tb:-0.000605677024
$newmeas,x:-14045453.227538,y:7857995.499871,z:20609300.118352,vx:-1140.432983,vy:-2514.128662,vz:151.928665,tb:-0.000605677024
$pseudo_cd_ph,prn:17,pseudo_cd_ph:371444926.216693937778
measnum = 4,full_prange = 22136188.020323
$oldmeas,msRange:73.863650,x:10401754.380924,y:19440084.437634,z:15280081.704802,vx:-1609.552368,vy:-941.686279,vz:2348.233643,tb:0.000055518221
$newmeas,x:10401873.226848,y:19440153.970045,z:15279908.314187,vx:-1609.530518,vy:-941.681580,vz:2348.256836,tb:0.000055518220
$pseudo_cd_ph,prn:18,pseudo_cd_ph:371444924.197627365589
measnum = 5,full_prange = 22740905.866023
$oldmeas,msRange:75.880972,x:-15018858.390505,y:2444193.778435,z:21274655.136864,vx:-105.394226,vy:-2819.351562,vz:257.010284,tb:0.000053573259
$newmeas,x:-15018850.396224,y:2444407.641681,z:21274635.639858,vx:-105.382347,vy:-2819.349609,vz:257.046234,tb:0.000053573259
$pseudo_cd_ph,prn:22,pseudo_cd_ph:371444922.262348592281
measnum = 6,full_prange = 23094678.078596
$oldmeas,msRange:77.060873,x:-23965136.719470,y:8265780.448069,z:8030164.082457,vx:641.537292,vy:-843.120361,vz:2874.015869,tb:-0.000701648434
$newmeas,x:-23965186.139884,y:8265845.397646,z:8029942.680552,vx:641.517395,vy:-843.103027,vz:2874.028809,tb:-0.000701648434
$pseudo_cd_ph,prn:28,pseudo_cd_ph:371444909.391581535339
measnum = 7,full_prange = 21397935.134177
$oldmeas,msRange:71.401112,x:-1692565.483956,y:16373542.396835,z:21472322.989881,vx:-2384.456787,vy:982.751587,vz:-955.702820,tb:0.000767859259
$newmeas,x:-1692395.290949,y:16373472.252393,z:21472391.202863,vx:-2384.468750,vy:982.744080,vz:-955.671997,tb:0.000767859258
$pseudo_cd_ph,prn:30,pseudo_cd_ph:371444929.325721383095
measnum = 8,full_prange = 21155848.067152
$oldmeas,msRange:70.593762,x:-529286.124783,y:26398619.092358,z:1671052.601424,vx:-372.224731,vy:187.242081,vz:-3134.639893,tb:-0.000105516428
$newmeas,x:-529259.857423,y:26398605.878070,z:1671273.807580,vx:-372.227264,vy:187.268448,vz:-3134.637207,tb:-0.000105516428
Refix G01: 0,      0.000000, 858
Refix G03: 0,      0.000000, 858
Refix G07: 0,      0.000000, 858
Refix G11: 0,      0.000000, 858
Refix G17: 0,      0.000000, 858
Refix G18: 0,      0.000000, 858
Refix G22: 0,      0.000000, 858
Refix G28: 0,      0.000000, 858
Refix G30: 0,      0.000000, 858
$GNGGA,071027.000,,,,,0,00,,,M,,,,0000*28
$GNRMC,071027.000,A,,,,,,,160519,,*2F
$GPGSA,A,1,,,,,,,,,,,,,,,*1E
$BDGSA,A,1,,,,,,,,,,,,,,,*0F
$GLGSA,A,1,,,,,,,,,,,,,,,*02
$GPGSV,3,1,09,01,52,046,45,03,25,115,40,07,27,179,43,11,39,042,43*73
$GPGSV,3,2,09,17,41,289,45,18,25,041,40,22,26,090,41,28,58,344,44*73
$GPGSV,3,3,09,30,51,212,44*46
$BDGSV,3,1,12,01,40,125,40,02,47,219,41,03,55,171,45,04,23,109,41*6D
$BDGSV,3,2,12,05,00,000,36,07,63,117,43,08,87,261,43,10,82,007,43*66
$BDGSV,3,3,12,13,58,221,44,27,53,023,45,29,05,250,39,30,51,279,44*6E
$B3CN0,0,0,0,0,0,0,0,0,0,0,0,0,0,0*4C
$ini_pos,lastpos_good = 1,ini_pos.x:-1578892.757429,ini_pos.y:5312741.639196,ini_pos.z:3146340.063652
