SD initialized success
Create debug.log Failed! 3
bbram_blkflag = 1
rtcflag = 0
BBRAM Block OK: 01 EPHflag: 0805093a 03341adf, rtc 00
Hot-start nowtime:day = 28,minute = 18,seconds = 30.00
GPS 0 Init Dop: 10000,80
GPS 1 Init Dop: -2152, 2
GPS 2 Init Dop: 10000,80
GPS 3 Init Dop: -3164, 2
GPS 4 Init Dop: -4699, 2
GPS 5 Init Dop:  -660, 2
GPS 6 Init Dop: 10000,80
GPS 7 Init Dop: 10000,80
GPS 8 Init Dop: -2930, 2
GPS 9 Init Dop: 10000,80
GPS10 Init Dop: 10000,80
GPS11 Init Dop: -4113, 2
GPS12 Init Dop: 10000,80
GPS13 Init Dop: 10000,80
GPS14 Init Dop: 10000,80
GPS15 Init Dop: 10000,80
GPS16 Init Dop:  -649, 2
GPS17 Init Dop: 10000,80
GPS18 Init Dop: -1223, 2
GPS19 Init Dop: 10000,80
GPS20 Init Dop: 10000,80
GPS21 Init Dop: 10000,80
GPS22 Init Dop: 10000,80
GPS23 Init Dop: 10000,80
GPS24 Init Dop: 10000,80
GPS25 Init Dop: 10000,80
GPS26 Init Dop: 10000,80
GPS27 Init Dop:  2002, 2
GPS28 Init Dop: 10000,80
GPS29 Init Dop: 10000,80
GPS30 Init Dop: 10000,80
GPS31 Init Dop: 10000,80
BDS 0 Init Dop:  -830, 2
BDS 1 Init Dop:  -898, 2
BDS 2 Init Dop:  -847, 2
BDS 3 Init Dop:  -851, 2
BDS 4 Init Dop:  -877, 2
BDS 5 Init Dop: 10000,80
BDS 6 Init Dop:   588, 2
BDS 7 Init Dop:  -479, 2
BDS 8 Init Dop: 10000,80
BDS 9 Init Dop:   274, 2
BDS10 Init Dop: 10000,80
BDS11 Init Dop: -1727, 2
BDS12 Init Dop:  -638, 2
BDS13 Init Dop: 10000,80
BDS14 Init Dop: 10000,80
BDS15 Init Dop: 10000,80
BDS16 Init Dop: 10000,80
BDS17 Init Dop: 10000,80
BDS18 Init Dop:   522, 2
BDS19 Init Dop: 10000,80
BDS20 Init Dop: -4105, 2
BDS21 Init Dop: -2354, 2
BDS22 Init Dop: 10000,80
BDS23 Init Dop: 10000,80
BDS24 Init Dop: -1915, 2
BDS25 Init Dop:  1814, 2
BDS26 Init Dop: 10000,80
BDS27 Init Dop: 10000,80
BDS28 Init Dop: 10000,80
BDS29 Init Dop: 10000,80
BDS30 Init Dop: 10000,80
BDS31 Init Dop: 10000,80
Good luck!
$ini_pos,lastpos_good = 1,ini_pos.x:-1578917.000000,ini_pos.y:5312776.000000,ini_pos.z:3146358.000000
$rtc_local_time,localRTC.weeks:2055,localRTC.seconds:206329.026011,localGtime.weeks:0,localGtime.seconds:19.026011
source<tow,snapshot
$GNGGA,000000.000,,,,,0,00,,,M,,,,0000*2B
$GNRMC,000000.000,A,,,,,,,060180,,*29
$GPGSA,A,1,,,,,,,,,,,,,,,*1E
$BDGSA,A,1,,,,,,,,,,,,,,,*0F
$GLGSA,A,1,,,,,,,,,,,,,,,*02
$B3CN0,0,0,0,0,0,0,0,0,0,0,0,0,0,0*4C
$ini_pos,lastpos_good = 1,ini_pos.x:-1578917.000000,ini_pos.y:5312776.000000,ini_pos.z:3146358.000000
$rtc_local_time,localRTC.weeks:2055,localRTC.seconds:206330.026011,localGtime.weeks:2055,localGtime.seconds:206330.026011
source<tow,snapshot
$GNGGA,000000.000,,,,,0,00,,,M,,,,0000*2B
$GNRMC,000000.000,A,,,,,,,060180,,*29
$GPGSA,A,1,,,,,,,,,,,,,,,*1E
$BDGSA,A,1,,,,,,,,,,,,,,,*0F
$GLGSA,A,1,,,,,,,,,,,,,,,*02
$B3CN0,0,0,0,0,0,0,0,0,0,0,0,0,0,0*4C
$ini_pos,lastpos_good = 1,ini_pos.x:-1578917.000000,ini_pos.y:5312776.000000,ini_pos.z:3146358.000000
$rtc_local_time,localRTC.weeks:2055,localRTC.seconds:206331.026011,localGtime.weeks:2055,localGtime.seconds:206331.026011
$pseudo_cd_ph,prn:2,pseudo_cd_ph:9.727895846698
measnum = 0,full_prange = 22502178.359496
$oldmeas,msRange:0.000000,x:12495810.223659,y:21545990.999089,z:10043404.558602,vx:-1027.559570,vy:-637.169617,vz:2801.644287,tb:-0.000223819709
$newmeas,x:12495887.350644,y:21546038.824020,z:10043194.268872,vx:-1027.538208,vy:-637.156189,vz:2801.659912,tb:-0.000223819708
$pseudo_cd_ph,prn:5,pseudo_cd_ph:2.588550347620
measnum = 1,full_prange = 24709839.034216
$oldmeas,msRange:82.631974,x:4415275.538567,y:22027016.969913,z:-14127234.789760,vx:-716.663635,vy:1653.538696,vz:2394.666016,tb:0.000000798149
$newmeas,x:4415334.608823,y:22026880.679205,z:-14127432.164664,vx:-716.677673,vy:1653.559082,vz:2394.641357,tb:0.000000798149
$pseudo_cd_ph,prn:6,pseudo_cd_ph:16.257132812679
measnum = 2,full_prange = 20669916.371670
$oldmeas,msRange:69.158045,x:298143.294878,y:18846446.179258,z:18740456.077781,vx:-1712.254639,vy:-1640.590210,vz:1684.319458,tb:0.000193649112
$newmeas,x:298261.349834,y:18846559.293604,z:18740339.947357,vx:-1712.237793,vy:-1640.586792,vz:1684.346802,tb:0.000193649113
$pseudo_cd_ph,prn:9,pseudo_cd_ph:4.098379185472
measnum = 3,full_prange = 24377750.847543
$oldmeas,msRange:81.525104,x:-25037927.618287,y:8378138.417595,z:-2987423.561087,vx:-437.128540,vy:-205.848434,vz:3125.756104,tb:0.000402900030
$newmeas,x:-25037892.071776,y:8378155.156017,z:-2987677.733063,vx:-437.158508,vy:-205.842758,vz:3125.750977,tb:0.000402900030
$pseudo_cd_ph,prn:12,pseudo_cd_ph:5.745918669193
measnum = 4,full_prange = 23834524.626397
$oldmeas,msRange:79.712578,x:13158725.924415,y:6525655.967954,z:21918876.872530,vx:-1007.656677,vy:2642.929932,vz:-163.617401,tb:0.000238431867
$newmeas,x:13158806.037098,y:6525445.846119,z:21918889.879168,vx:-1007.670166,vy:2642.926758,vz:-163.579575,tb:0.000238431867
$pseudo_cd_ph,prn:17,pseudo_cd_ph:14.356332601806
measnum = 5,full_prange = 21200335.051515
$oldmeas,msRange:70.927315,x:-14825707.817162,y:14216446.475884,z:17195667.625197,vx:-2093.403076,vy:241.152985,vz:-2061.413330,tb:0.000062135184
$newmeas,x:-14825559.777940,y:14216429.422554,z:17195813.400673,vx:-2093.421631,vy:241.146896,vz:-2061.388184,tb:0.000062135184
$pseudo_cd_ph,prn:19,pseudo_cd_ph:16.151845132151
measnum = 6,full_prange = 20549408.884744
$oldmeas,msRange:68.755794,x:-7774079.055649,y:14736179.197311,z:20400154.174666,vx:-2640.013428,vy:258.672089,vz:-1168.324219,tb:-0.000313608267
$newmeas,x:-7773898.094358,y:14736161.466849,z:20400234.256933,vx:-2640.024658,vy:258.662354,vz:-1168.293701,tb:-0.000313608267
$pseudo_cd_ph,prn:28,pseudo_cd_ph:11.638446737012
measnum = 7,full_prange = 22226691.763473
$oldmeas,msRange:74.352043,x:-13019864.313827,y:22402893.990730,z:-5449289.384292,vx:93.838219,vy:-789.601562,vz:-3115.465332,tb:0.000767806812
$newmeas,x:-13019871.270755,y:22402952.530963,z:-5449058.402556,vx:93.831161,vy:-789.573669,vz:-3115.473877,tb:0.000767806812
source<tow,snapshot
nits = 2
$GNGGA,091832.420,2944.9089,N,10633.0932,E,1,20,0.0,333.8,M,,,,0000*13
$GNRMC,091832.420,A,2944.9089,N,10633.0932,E,0.00,0.00,280519,,*11
$GPGSA,A,3,02,05,06,09,12,17,19,28,,,,,0.0,0.0,0.0*3D
$BDGSA,A,3,01,02,04,05,08,10,12,13,19,21,22,26,0.0,0.0,0.0*26
$GLGSA,A,3,,,,,,,,,,,,,0.0,0.0,0.0*2E
$GPGSV,3,1,09,02,00,000,25,04,00,000,25,05,00,000,25,06,00,000,26*74
$GPGSV,3,2,09,09,00,000,24,12,00,000,25,17,00,000,26,19,00,000,26*74
$GPGSV,3,3,09,28,00,000,25*4D
$BDGSV,3,1,12,01,00,000,41,02,00,000,37,04,00,000,40,05,00,000,38*65
$BDGSV,3,2,12,08,00,000,24,10,00,000,24,12,00,000,24,13,00,000,24*62
$BDGSV,3,3,12,19,00,000,23,21,00,000,23,22,00,000,23,26,00,000,23*64
$B3CN0,0,0,0,0,0,0,0,0,0,0,0,0,0,0*4C
$ini_pos,lastpos_good = 1,ini_pos.x:-1578917.170540,ini_pos.y:5312776.414018,ini_pos.z:3146363.315580
$rtc_local_time,localRTC.weeks:2055,localRTC.seconds:206332.026011,localGtime.weeks:2055,localGtime.seconds:206332.026011
$pseudo_cd_ph,prn:2,pseudo_cd_ph:9.729361958285
measnum = 0,full_prange = 22501729.166370
$oldmeas,msRange:0.000000,x:12494782.522338,y:21545353.739993,z:10046206.099484,vx:-1027.843140,vy:-637.348572,vz:2801.437500,tb:-0.000223819714
$newmeas,x:12494859.669073,y:21545401.577400,z:10045995.829469,vx:-1027.821899,vy:-637.335144,vz:2801.453125,tb:-0.000223819714
$pseudo_cd_ph,prn:5,pseudo_cd_ph:2.591644205073
measnum = 1,full_prange = 24708901.857449
$oldmeas,msRange:82.629558,x:4414558.960169,y:22028670.384442,z:-14124839.973055,vx:-716.493164,vy:1653.290527,vz:2394.967529,tb:0.000000798149
$newmeas,x:4414618.014135,y:22028534.119354,z:-14125037.365307,vx:-716.507263,vy:1653.310913,vz:2394.942627,tb:0.000000798149
$pseudo_cd_ph,prn:6,pseudo_cd_ph:16.257656168262
measnum = 2,full_prange = 20669749.802547
$oldmeas,msRange:69.158168,x:296430.918343,y:18844805.564042,z:18742140.198237,vx:-1712.498535,vy:-1640.640259,vz:1683.921631,tb:0.000193649102
$newmeas,x:296548.989170,y:18844918.680925,z:18742024.096179,vx:-1712.481812,vy:-1640.636841,vz:1683.948975,tb:0.000193649103
$pseudo_cd_ph,prn:9,pseudo_cd_ph:4.100340514122
measnum = 3,full_prange = 24377153.189124
$oldmeas,msRange:81.523804,x:-25038364.562354,y:8377932.534299,z:-2984297.773319,vx:-436.759644,vy:-205.918182,vz:3125.819580,tb:0.000402900022
$newmeas,x:-25038329.046710,y:8377949.277982,z:-2984551.944224,vx:-436.789642,vy:-205.912506,vz:3125.814453,tb:0.000402900023
$pseudo_cd_ph,prn:12,pseudo_cd_ph:5.748626612032
measnum = 4,full_prange = 23833703.132085
$oldmeas,msRange:79.710511,x:13157718.352770,y:6528298.917862,z:21918713.017329,vx:-1007.486694,vy:2642.969971,vz:-164.093018,tb:0.000238431861
$newmeas,x:13157798.449181,y:6528088.800085,z:21918726.061332,vx:-1007.500183,vy:2642.966797,vz:-164.055206,tb:0.000238431861
$pseudo_cd_ph,prn:17,pseudo_cd_ph:14.356863295927
measnum = 5,full_prange = 21200166.290285
$oldmeas,msRange:70.927446,x:-14827801.088204,y:14216687.671933,z:17193606.033534,vx:-2093.139160,vy:241.239120,vz:-2061.770020,tb:0.000062135193
$newmeas,x:-14827653.068812,y:14216670.612649,z:17193751.833065,vx:-2093.157959,vy:241.233032,vz:-2061.744873,tb:0.000062135193
$pseudo_cd_ph,prn:19,pseudo_cd_ph:16.152740791746
measnum = 6,full_prange = 20549130.700354
$oldmeas,msRange:68.755558,x:-7776718.985914,y:14736437.940396,z:20398985.627945,vx:-2639.847412,vy:258.814087,vz:-1168.769287,tb:-0.000313608265
$newmeas,x:-7776538.038449,y:14736420.200442,z:20399065.739629,vx:-2639.858643,vy:258.804352,vz:-1168.738770,tb:-0.000313608265
$pseudo_cd_ph,prn:28,pseudo_cd_ph:11.637277396194
measnum = 7,full_prange = 22227032.659378
$oldmeas,msRange:74.353876,x:-13019770.428025,y:22402104.201409,z:-5452404.790907,vx:93.933380,vy:-789.977173,vz:-3115.348145,tb:0.000767806811
$newmeas,x:-13019777.392115,y:22402162.770389,z:-5452173.814309,vx:93.926323,vy:-789.949341,vz:-3115.356934,tb:0.000767806811
source<tow,snapshot
nits = 2
$GNGGA,091833.421,2944.9085,N,10633.0933,E,1,20,0.0,332.3,M,,,,0000*14
$GNRMC,091833.421,A,2944.9085,N,10633.0933,E,0.00,0.00,280519,,*1C
$GPGSA,A,3,02,05,06,09,12,17,19,28,,,,,0.0,0.0,0.0*3D
$BDGSA,A,3,01,02,04,05,08,10,12,13,19,21,22,26,0.0,0.0,0.0*26
$GLGSA,A,3,,,,,,,,,,,,,0.0,0.0,0.0*2E
$GPGSV,3,1,09,02,00,000,40,04,00,000,37,05,00,000,40,06,00,000,47*70
$GPGSV,3,2,09,09,00,000,36,12,00,000,40,17,00,000,45,19,00,000,44*75
$GPGSV,3,3,09,28,00,000,42*4C
$BDGSV,3,1,12,01,00,000,41,02,00,000,37,04,00,000,40,05,00,000,37*6A
$BDGSV,3,2,12,08,00,000,43,10,00,000,42,12,00,000,43,13,00,000,43*63
$BDGSV,3,3,12,19,00,000,43,21,00,000,41,22,00,000,45,26,00,000,42*61
$B3CN0,0,0,0,0,0,0,0,0,0,0,0,0,0,0*4C
$ini_pos,lastpos_good = 1,ini_pos.x:-1578917.050286,ini_pos.y:5312775.515711,ini_pos.z:3146361.975565
$rtc_local_time,localRTC.weeks:2055,localRTC.seconds:206333.026011,localGtime.weeks:2055,localGtime.seconds:206333.026011
$pseudo_cd_ph,prn:2,pseudo_cd_ph:9.730827875967
measnum = 0,full_prange = 22501280.017917
$oldmeas,msRange:0.000000,x:12493754.537378,y:21544716.301986,z:10049007.433588,vx:-1028.126831,vy:-637.527466,vz:2801.230713,tb:-0.000223819720
$newmeas,x:12493831.703862,y:21544764.151866,z:10048797.183292,vx:-1028.105469,vy:-637.514038,vz:2801.246338,tb:-0.000223819719
$pseudo_cd_ph,prn:5,pseudo_cd_ph:2.594728777486
measnum = 1,full_prange = 24707967.450380
$oldmeas,msRange:82.627130,x:4413842.552218,y:22030323.550807,z:-14122444.855057,vx:-716.322754,vy:1653.042358,vz:2395.268799,tb:0.000000798148
$newmeas,x:4413901.589903,y:22030187.311327,z:-14122642.264675,vx:-716.336792,vy:1653.062744,vz:2395.243896,tb:0.000000798148
$pseudo_cd_ph,prn:6,pseudo_cd_ph:16.258179337398
measnum = 2,full_prange = 20669583.278098
$oldmeas,msRange:69.158310,x:294718.297818,y:18843164.898828,z:18743823.920838,vx:-1712.742554,vy:-1640.690186,vz:1683.523682,tb:0.000193649092
$newmeas,x:294836.384515,y:18843278.018245,z:18743707.847146,vx:-1712.725708,vy:-1640.686768,vz:1683.551147,tb:0.000193649093
$pseudo_cd_ph,prn:9,pseudo_cd_ph:4.102303953348
measnum = 3,full_prange = 24376554.887421
$oldmeas,msRange:81.522501,x:-25038801.137536,y:8377726.581222,z:-2981171.922123,vx:-436.390747,vy:-205.987991,vz:3125.883057,tb:0.000402900015
$newmeas,x:-25038765.652758,y:8377743.330170,z:-2981426.091945,vx:-436.420746,vy:-205.982315,vz:3125.877930,tb:0.000402900016
$pseudo_cd_ph,prn:12,pseudo_cd_ph:5.751337851247
measnum = 4,full_prange = 23832880.646042
$oldmeas,msRange:79.708460,x:13156710.951092,y:6530941.907788,z:21918548.686510,vx:-1007.316711,vy:2643.010010,vz:-164.568634,tb:0.000238431855
$newmeas,x:13156791.031226,y:6530731.794083,z:21918561.767873,vx:-1007.330261,vy:2643.006836,vz:-164.530823,tb:0.000238431856
$pseudo_cd_ph,prn:17,pseudo_cd_ph:14.357387188476
measnum = 5,full_prange = 21199999.557188
$oldmeas,msRange:70.927595,x:-14829894.095480,y:14216928.954086,z:17191544.085321,vx:-2092.875488,vy:241.325195,vz:-2062.126465,tb:0.000062135203
$newmeas,x:-14829746.095906,y:14216911.888848,z:17191689.908918,vx:-2092.894043,vy:241.319107,vz:-2062.101318,tb:0.000062135202
$pseudo_cd_ph,prn:19,pseudo_cd_ph:16.153631424741
measnum = 6,full_prange = 20548854.025896
$oldmeas,msRange:68.755342,x:-7779358.750183,y:14736696.825453,z:20397816.636251,vx:-2639.681396,vy:258.956055,vz:-1169.214233,tb:-0.000313608263
$newmeas,x:-7779177.816534,y:14736679.076007,z:20397896.777355,vx:-2639.692627,vy:258.946320,vz:-1169.183716,tb:-0.000313608264
$pseudo_cd_ph,prn:28,pseudo_cd_ph:11.636106854660
measnum = 7,full_prange = 22227373.903729
$oldmeas,msRange:74.355704,x:-13019676.447091,y:22401314.036459,z:-5455520.080416,vx:94.028488,vy:-790.352783,vz:-3115.230957,tb:0.000767806810
$newmeas,x:-13019683.418340,y:22401372.634188,z:-5455289.108957,vx:94.021439,vy:-790.324951,vz:-3115.239746,tb:0.000767806810
source<tow,snapshot
nits = 2
$GNGGA,091834.421,2944.9085,N,10633.0934,E,1,20,0.0,331.1,M,,,,0000*15
$GNRMC,091834.421,A,2944.9085,N,10633.0934,E,0.00,0.00,280519,,*1C
$GPGSA,A,3,02,05,06,09,12,17,19,28,,,,,0.0,0.0,0.0*3D
$BDGSA,A,3,01,02,04,05,08,10,12,13,19,21,22,26,0.0,0.0,0.0*26
$GLGSA,A,3,,,,,,,,,,,,,0.0,0.0,0.0*2E
$GPGSV,3,1,09,02,36,270,40,04,00,000,38,05,09,205,40,06,63,322,46*76
$GPGSV,3,2,09,09,12,114,36,12,16,320,41,17,56,059,44,19,60,018,43*73
$GPGSV,3,3,09,28,34,160,41*4F
$BDGSV,3,1,12,01,40,126,41,02,48,220,40,04,23,109,39,05,28,246,38*65
$BDGSV,3,2,12,08,58,002,42,10,56,204,42,12,52,339,42,13,57,305,43*63
$BDGSV,3,3,12,19,30,056,43,21,21,183,41,22,51,126,44,26,20,210,42*69
$B3CN0,0,0,0,0,0,0,0,0,0,0,0,0,0,0*4C
$ini_pos,lastpos_good = 1,ini_pos.x:-1578916.978524,ini_pos.y:5312774.424273,ini_pos.z:3146361.306294
$rtc_local_time,localRTC.weeks:2055,localRTC.seconds:206334.026011,localGtime.weeks:2055,localGtime.seconds:206334.026011
$pseudo_cd_ph,prn:2,pseudo_cd_ph:9.732301460333
measnum = 0,full_prange = 22500828.573294
$oldmeas,msRange:0.000000,x:12492726.268771,y:21544078.685124,z:10051808.560859,vx:-1028.410522,vy:-637.706299,vz:2801.023926,tb:-0.000223819725
$newmeas,x:12492803.454996,y:21544126.547466,z:10051598.330307,vx:-1028.389160,vy:-637.692871,vz:2801.039551,tb:-0.000223819725
$pseudo_cd_ph,prn:5,pseudo_cd_ph:2.597821904068
measnum = 1,full_prange = 24707030.488041
$oldmeas,msRange:82.624704,x:4413126.314688,y:22031976.468956,z:-14120049.435818,vx:-716.152344,vy:1652.794067,vz:2395.569824,tb:0.000000798148
$newmeas,x:4413185.336091,y:22031840.255101,z:-14120246.862774,vx:-716.166382,vy:1652.814575,vz:2395.545166,tb:0.000000798148
$pseudo_cd_ph,prn:6,pseudo_cd_ph:16.258706936505
measnum = 2,full_prange = 20669415.440275
$oldmeas,msRange:69.158451,x:293005.433322,y:18841524.183678,z:18745507.245547,vx:-1712.986572,vy:-1640.740112,vz:1683.125854,tb:0.000193649082
$newmeas,x:293123.535881,y:18841637.305618,z:18745391.200233,vx:-1712.969727,vy:-1640.736694,vz:1683.153198,tb:0.000193649083
$pseudo_cd_ph,prn:9,pseudo_cd_ph:4.104271889665
measnum = 3,full_prange = 24375955.245541
$oldmeas,msRange:81.521198,x:-25039237.343836,y:8377520.558313,z:-2978046.007565,vx:-436.021881,vy:-206.057846,vz:3125.946289,tb:0.000402900008
$newmeas,x:-25039201.889924,y:8377537.312529,z:-2978300.176284,vx:-436.051880,vy:-206.052170,vz:3125.941162,tb:0.000402900009
$pseudo_cd_ph,prn:12,pseudo_cd_ph:5.754056287301
measnum = 4,full_prange = 23832056.015717
$oldmeas,msRange:79.706408,x:13155703.719405,y:6533584.937662,z:21918383.880076,vx:-1007.146729,vy:2643.049805,vz:-165.044250,tb:0.000238431850
$newmeas,x:13155783.783254,y:6533374.828054,z:21918396.998796,vx:-1007.160217,vy:2643.046631,vz:-165.006439,tb:0.000238431850
$pseudo_cd_ph,prn:17,pseudo_cd_ph:14.357912781418
measnum = 5,full_prange = 21199832.323759
$oldmeas,msRange:70.927742,x:-14831986.838944,y:14217170.322299,z:17189481.780599,vx:-2092.611572,vy:241.411240,vz:-2062.482910,tb:0.000062135212
$newmeas,x:-14831838.859194,y:14217153.251112,z:17189627.628255,vx:-2092.630371,vy:241.405151,vz:-2062.457764,tb:0.000062135211
$pseudo_cd_ph,prn:19,pseudo_cd_ph:16.154522781148
measnum = 6,full_prange = 20548577.137010
$oldmeas,msRange:68.755126,x:-7781998.348392,y:14736955.852453,z:20396647.199609,vx:-2639.515137,vy:259.097961,vz:-1169.659180,tb:-0.000313608262
$newmeas,x:-7781817.428565,y:14736938.093518,z:20396727.370131,vx:-2639.526611,vy:259.088257,vz:-1169.628662,tb:-0.000313608262
$pseudo_cd_ph,prn:28,pseudo_cd_ph:11.634943375723
measnum = 7,full_prange = 22227713.039535
$oldmeas,msRange:74.357534,x:-13019582.371080,y:22400523.495875,z:-5458635.252752,vx:94.123535,vy:-790.728455,vz:-3115.113770,tb:0.000767806808
$newmeas,x:-13019589.349483,y:22400582.122350,z:-5458404.286458,vx:94.116486,vy:-790.700562,vz:-3115.122559,tb:0.000767806808
source<tow,snapshot
nits = 2
$GNGGA,091835.421,2944.9085,N,10633.0934,E,1,20,0.0,329.9,M,,,,0000*15
$GNRMC,091835.421,A,2944.9085,N,10633.0934,E,0.00,0.00,280519,,*1D
$GPGSA,A,3,02,05,06,09,12,17,19,28,,,,,0.0,0.0,0.0*3D
$BDGSA,A,3,01,02,04,05,08,10,12,13,19,21,22,26,0.0,0.0,0.0*26
$GLGSA,A,3,,,,,,,,,,,,,0.0,0.0,0.0*2E
$GPGSV,3,1,09,02,36,270,39,04,00,000,38,05,09,205,40,06,63,322,45*7B
$GPGSV,3,2,09,09,12,114,36,12,16,320,40,17,56,059,45,19,60,018,43*73
$GPGSV,3,3,09,28,34,160,42*4C
$BDGSV,3,1,12,01,40,126,41,02,48,220,40,04,23,109,40,05,28,246,39*6A
$BDGSV,3,2,12,08,58,002,42,10,56,204,42,12,52,339,42,13,57,305,43*63
$BDGSV,3,3,12,19,30,056,43,21,21,183,40,22,51,126,44,26,20,210,42*68
$B3CN0,0,0,0,0,0,0,0,0,0,0,0,0,0,0*4C
$ini_pos,lastpos_good = 1,ini_pos.x:-1578916.723260,ini_pos.y:5312773.427638,ini_pos.z:3146360.755652
$rtc_local_time,localRTC.weeks:2055,localRTC.seconds:206335.026011,localGtime.weeks:2055,localGtime.seconds:206335.026011
$pseudo_cd_ph,prn:2,pseudo_cd_ph:9.733777147817
measnum = 0,full_prange = 22500376.512191
$oldmeas,msRange:0.000000,x:12491697.716507,y:21543440.889460,z:10054609.481240,vx:-1028.694092,vy:-637.885071,vz:2800.816895,tb:-0.000223819731
$newmeas,x:12491774.922471,y:21543488.764258,z:10054399.270442,vx:-1028.672852,vy:-637.871643,vz:2800.832520,tb:-0.000223819730
$pseudo_cd_ph,prn:5,pseudo_cd_ph:2.600919811141
measnum = 1,full_prange = 24706092.087246
$oldmeas,msRange:82.622279,x:4412410.247556,y:22033629.138838,z:-14117653.715388,vx:-715.981995,vy:1652.545776,vz:2395.871094,tb:0.000000798147
$newmeas,x:4412469.252676,y:22033492.950618,z:-14117851.159665,vx:-715.996033,vy:1652.566284,vz:2395.846191,tb:0.000000798147
$pseudo_cd_ph,prn:6,pseudo_cd_ph:16.259235445472
measnum = 2,full_prange = 20669247.325482
$oldmeas,msRange:69.158591,x:291292.324876,y:18839883.418654,z:18747190.172330,vx:-1713.230469,vy:-1640.790039,vz:1682.727905,tb:0.000193649072
$newmeas,x:291410.443292,y:18839996.543110,z:18747074.155396,vx:-1713.213623,vy:-1640.786499,vz:1682.755249,tb:0.000193649073
$pseudo_cd_ph,prn:9,pseudo_cd_ph:4.106241429423
measnum = 3,full_prange = 24375355.121197
$oldmeas,msRange:81.519896,x:-25039673.181256,y:8377314.465522,z:-2974920.029712,vx:-435.652985,vy:-206.127762,vz:3126.009521,tb:0.000402900001
$newmeas,x:-25039637.758210,y:8377331.225009,z:-2975174.197316,vx:-435.682983,vy:-206.122070,vz:3126.004395,tb:0.000402900002
$pseudo_cd_ph,prn:12,pseudo_cd_ph:5.756780346584
measnum = 4,full_prange = 23831229.687834
$oldmeas,msRange:79.704356,x:13154696.657730,y:6536228.007418,z:21918218.598033,vx:-1006.976685,vy:2643.089844,vz:-165.519852,tb:0.000238431844
$newmeas,x:13154776.705287,y:6536017.901927,z:21918231.754105,vx:-1006.990234,vy:2643.086670,vz:-165.482040,tb:0.000238431844
$pseudo_cd_ph,prn:17,pseudo_cd_ph:14.358437911972
measnum = 5,full_prange = 21199665.224347
$oldmeas,msRange:70.927890,x:-14834079.318550,y:14217411.776529,z:17187419.119409,vx:-2092.347656,vy:241.497238,vz:-2062.839355,tb:0.000062135221
$newmeas,x:-14833931.358626,y:14217394.699395,z:17187564.991121,vx:-2092.366455,vy:241.491150,vz:-2062.814209,tb:0.000062135220
$pseudo_cd_ph,prn:19,pseudo_cd_ph:16.155415755912
measnum = 6,full_prange = 20548299.765660
$oldmeas,msRange:68.754909,x:-7784637.780477,y:14737215.021368,z:20395477.318047,vx:-2639.349121,vy:259.239868,vz:-1170.104004,tb:-0.000313608260
$newmeas,x:-7784456.874480,y:14737197.252947,z:20395557.517981,vx:-2639.360596,vy:259.230133,vz:-1170.073608,tb:-0.000313608260
$pseudo_cd_ph,prn:28,pseudo_cd_ph:11.633778845227
measnum = 7,full_prange = 22228052.488048
$oldmeas,msRange:74.359365,x:-13019488.200046,y:22399732.579653,z:-5461750.307846,vx:94.218529,vy:-791.104065,vz:-3114.996582,tb:0.000767806807
$newmeas,x:-13019495.185599,y:22399791.234876,z:-5461519.346721,vx:94.211487,vy:-791.076233,vz:-3115.005371,tb:0.000767806807
source<tow,snapshot
nits = 2
$GNGGA,091836.422,2944.9086,N,10633.0934,E,1,20,0.0,328.5,M,,,,0000*1B
$GNRMC,091836.422,A,2944.9086,N,10633.0934,E,0.00,0.00,280519,,*1E
$GPGSA,A,3,02,05,06,09,12,17,19,28,,,,,0.0,0.0,0.0*3D
$BDGSA,A,3,01,02,04,05,08,10,12,13,19,21,22,26,0.0,0.0,0.0*26
$GLGSA,A,3,,,,,,,,,,,,,0.0,0.0,0.0*2E
$GPGSV,3,1,09,02,36,270,39,04,00,000,39,05,09,205,40,06,63,322,45*7A
$GPGSV,3,2,09,09,12,114,37,12,16,320,41,17,56,059,44,19,60,018,43*72
$GPGSV,3,3,09,28,34,160,42*4C
$BDGSV,3,1,12,01,40,126,41,02,48,220,39,04,23,109,39,05,28,246,39*6A
$BDGSV,3,2,12,08,58,002,42,10,56,204,42,12,52,339,42,13,57,305,42*62
$BDGSV,3,3,12,19,30,056,43,21,21,183,40,22,51,126,44,26,20,210,42*68
$B3CN0,16,0,0,0,0,0,0,0,0,0,0,0,0,0*7B
tow update,206335556.259762
$ini_pos,lastpos_good = 1,ini_pos.x:-1578916.261835,ini_pos.y:5312772.152391,ini_pos.z:3146360.247222
$rtc_local_time,localRTC.weeks:2055,localRTC.seconds:206336.026011,localGtime.weeks:2055,localGtime.seconds:206335.556260
$pseudo_cd_ph,prn:2,pseudo_cd_ph:206335349.735250622034
measnum = 0,full_prange = 22574579.585851
$oldmeas,msRange:0.000000,x:12491152.212608,y:21543102.626421,z:10056094.582531,vx:-1028.844482,vy:-637.979858,vz:2800.707275,tb:-0.000223819733
$newmeas,x:12491229.684510,y:21543150.666238,z:10055883.686748,vx:-1028.823242,vy:-637.966370,vz:2800.722900,tb:-0.000223819733
$pseudo_cd_ph,prn:5,pseudo_cd_ph:206335342.604008376598
measnum = 1,full_prange = 24779810.973723
$oldmeas,msRange:82.620993,x:4412030.622794,y:22034505.364657,z:-14116383.264834,vx:-715.891602,vy:1652.414062,vz:2396.030762,tb:0.000000798147
$newmeas,x:4412089.796510,y:22034368.780955,z:-14116581.311447,vx:-715.905701,vy:1652.434570,vz:2396.005859,tb:0.000000798147
$pseudo_cd_ph,prn:6,pseudo_cd_ph:206335356.259762495756
measnum = 2,full_prange = 20743734.131681
$oldmeas,msRange:69.158668,x:290383.851861,y:18839013.384419,z:18748082.381129,vx:-1713.359863,vy:-1640.816406,vz:1682.516846,tb:0.000193649067
$newmeas,x:290502.404894,y:18839126.918374,z:18747965.960697,vx:-1713.342896,vy:-1640.812988,vz:1682.544434,tb:0.000193649067
$pseudo_cd_ph,prn:9,pseudo_cd_ph:206335344.108206003904
measnum = 3,full_prange = 24449410.971703
$oldmeas,msRange:81.519206,x:-25039904.133959,y:8377205.156655,z:-2973262.457407,vx:-435.457397,vy:-206.164841,vz:3126.043213,tb:0.000402899997
$newmeas,x:-25039868.619241,y:8377221.970084,z:-2973517.399943,vx:-435.487488,vy:-206.159134,vz:3126.037842,tb:0.000402899998
$pseudo_cd_ph,prn:12,pseudo_cd_ph:206335345.759496629238
measnum = 4,full_prange = 23905060.183381
$oldmeas,msRange:79.703268,x:13154162.733262,y:6537629.508684,z:21918130.764437,vx:-1006.886536,vy:2643.110840,vz:-165.772034,tb:0.000238431841
$newmeas,x:13154243.021623,y:6537418.750592,z:21918143.981372,vx:-1006.900085,vy:2643.107666,vz:-165.734116,tb:0.000238431841
$pseudo_cd_ph,prn:17,pseudo_cd_ph:206335354.358959853649
measnum = 5,full_prange = 21274153.570347
$oldmeas,msRange:70.927970,x:-14835188.746714,y:14217539.842278,z:17186325.250757,vx:-2092.207764,vy:241.542816,vz:-2063.028564,tb:0.000062135226
$newmeas,x:-14835040.276839,y:14217522.701906,z:17186471.648420,vx:-2092.226562,vy:241.536713,vz:-2063.003174,tb:0.000062135225
$pseudo_cd_ph,prn:19,pseudo_cd_ph:206335356.156305283308
measnum = 6,full_prange = 20622677.903296
$oldmeas,msRange:68.754796,x:-7786037.269295,y:14737352.502994,z:20394856.809014,vx:-2639.260986,vy:259.315094,vz:-1170.339966,tb:-0.000313608259
$newmeas,x:-7785855.714539,y:14737334.665083,z:20394937.315470,vx:-2639.272461,vy:259.305359,vz:-1170.309326,tb:-0.000313608259
$pseudo_cd_ph,prn:28,pseudo_cd_ph:206335351.632616370916
measnum = 7,full_prange = 22303045.802039
$oldmeas,msRange:74.360337,x:-13019438.227415,y:22399313.044713,z:-5463402.015123,vx:94.268883,vy:-791.303284,vz:-3114.934326,tb:0.000767806806
$newmeas,x:-13019445.240281,y:22399371.912642,z:-5463170.279405,vx:94.261818,vy:-791.275330,vz:-3114.943115,tb:0.000767806806
$GNGGA,091837.425,2944.9083,N,10633.0936,E,1,20,0.6,331.2,M,,,,0000*13
$GNRMC,091837.425,A,2944.9083,N,10633.0936,E,0.30,0.00,280519,,*1C
$GPGSA,A,3,02,05,06,09,12,17,19,28,,,,,1.3,0.6,1.1*39
$BDGSA,A,3,01,02,04,05,08,10,12,13,19,21,22,26,1.3,0.6,1.1*22
$GLGSA,A,3,,,,,,,,,,,,,1.3,0.6,1.1*2A
$GPGSV,3,1,09,02,36,270,40,04,00,000,38,05,09,205,40,06,63,322,46*76
$GPGSV,3,2,09,09,12,114,36,12,16,320,41,17,56,059,44,19,60,018,43*73
$GPGSV,3,3,09,28,34,160,42*4C
$BDGSV,3,1,12,01,40,126,42,02,48,220,38,04,23,109,40,05,28,246,38*67
$BDGSV,3,2,12,08,58,002,42,10,56,204,42,12,52,339,42,13,57,305,43*63
$BDGSV,3,3,12,19,30,056,42,21,21,183,40,22,51,126,44,26,20,210,42*69
$B3CN0,18,0,0,0,0,0,0,0,0,0,0,0,0,0*75
$ini_pos,lastpos_good = 1,ini_pos.x:-1578917.243008,ini_pos.y:5312774.572560,ini_pos.z:3146361.094779
$rtc_local_time,localRTC.weeks:2055,localRTC.seconds:206337.600786,localGtime.weeks:2055,localGtime.seconds:206337.000000
$pseudo_cd_ph,prn:2,pseudo_cd_ph:206336924.512811899185
measnum = 0,full_prange = 22563375.509546
$oldmeas,msRange:0.000000,x:12489666.532752,y:21542181.363052,z:10060137.860431,vx:-1029.254150,vy:-638.237793,vz:2800.408447,tb:-0.000223819741
$newmeas,x:12489743.997028,y:21542229.398442,z:10059927.091814,vx:-1029.232788,vy:-638.224365,vz:2800.424072,tb:-0.000223819741
$pseudo_cd_ph,prn:5,pseudo_cd_ph:206336917.384122788906
measnum = 1,full_prange = 24767841.488927
$oldmeas,msRange:82.617487,x:4410997.238813,y:22036890.762453,z:-14112923.705141,vx:-715.645691,vy:1652.055542,vz:2396.465332,tb:0.000000798147
$newmeas,x:4411056.363628,y:22036754.274353,z:-14113121.692003,vx:-715.659790,vy:1652.076050,vz:2396.440674,tb:0.000000798147
$pseudo_cd_ph,prn:6,pseudo_cd_ph:206336931.035838484764
measnum = 2,full_prange = 20732975.331539
$oldmeas,msRange:69.158859,x:287909.951243,y:18836644.419996,z:18750511.083516,vx:-1713.711914,vy:-1640.888184,vz:1681.942261,tb:0.000193649052
$newmeas,x:288028.467142,y:18836757.900032,z:18750394.763205,vx:-1713.695068,vy:-1640.884766,vz:1681.969727,tb:0.000193649053
$pseudo_cd_ph,prn:9,pseudo_cd_ph:206336918.886552065611
measnum = 3,full_prange = 24437971.622161
$oldmeas,msRange:81.517322,x:-25040532.436871,y:8376907.435246,z:-2968749.197529,vx:-434.924835,vy:-206.265900,vz:3126.134277,tb:0.000402899987
$newmeas,x:-25040496.982182,y:8376924.249046,z:-2969004.028215,vx:-434.954926,vy:-206.260193,vz:3126.129150,tb:0.000402899987
$pseudo_cd_ph,prn:12,pseudo_cd_ph:206336920.539020478725
measnum = 4,full_prange = 23893267.742557
$oldmeas,msRange:79.700303,x:13152709.227950,y:6541445.515477,z:21917890.937011,vx:-1006.640991,vy:2643.168213,vz:-166.458679,tb:0.000238431832
$newmeas,x:13152789.457136,y:6541234.856781,z:21917904.202151,vx:-1006.654541,vy:2643.165039,vz:-166.420776,tb:0.000238431833
$pseudo_cd_ph,prn:17,pseudo_cd_ph:206336929.135024935007
measnum = 5,full_prange = 21263398.048582
$oldmeas,msRange:70.928171,x:-14838209.076092,y:14217888.656899,z:17183346.402228,vx:-2091.826660,vy:241.666855,vz:-2063.542969,tb:0.000062135239
$newmeas,x:-14838060.708307,y:14217871.516395,z:17183492.762371,vx:-2091.845459,vy:241.660767,vz:-2063.517822,tb:0.000062135239
$pseudo_cd_ph,prn:19,pseudo_cd_ph:206336930.932947814465
measnum = 6,full_prange = 20611749.263265
$oldmeas,msRange:68.754471,x:-7789847.503138,y:14737727.034477,z:20393166.678553,vx:-2639.020996,vy:259.519897,vz:-1170.982178,tb:-0.000313608256
$newmeas,x:-7789666.061098,y:14737709.191937,z:20393247.186504,vx:-2639.032227,vy:259.510162,vz:-1170.951660,tb:-0.000313608256
$pseudo_cd_ph,prn:28,pseudo_cd_ph:206336926.406027197838
measnum = 7,full_prange = 22293086.001206
$oldmeas,msRange:74.362971,x:-13019302.028724,y:22398170.216906,z:-5467899.048683,vx:94.405891,vy:-791.845581,vz:-3114.764893,tb:0.000767806805
$newmeas,x:-13019309.048647,y:22398229.098876,z:-5467667.429053,vx:94.398842,vy:-791.817688,vz:-3114.773682,tb:0.000767806805
$GNGGA,091839.000,2944.9080,N,10633.0936,E,1,20,0.6,330.3,M,,,,0000*1D
$GNRMC,091839.000,A,2944.9080,N,10633.0936,E,0.16,0.00,280519,,*16
$GPGSA,A,3,02,05,06,09,12,17,19,28,,,,,0.7,0.6,0.4*38
$BDGSA,A,3,01,02,04,05,08,10,12,13,19,21,22,26,0.7,0.6,0.4*23
$GLGSA,A,3,,,,,,,,,,,,,0.7,0.6,0.4*2B
$GPGSV,3,1,10,02,36,270,39,04,00,000,37,05,09,205,40,06,63,322,45*7C
$GPGSV,3,2,10,09,12,114,37,12,16,320,39,17,56,059,44,19,60,018,43*75
$GPGSV,3,3,10,28,34,160,41,24,00,000,35*77
$BDGSV,3,1,12,01,40,126,41,02,48,220,40,16,00,000,24,04,23,109,40*6E
$BDGSV,3,2,12,05,28,246,39,08,58,002,42,10,56,204,42,12,52,339,42*67
$BDGSV,3,3,12,13,57,305,43,19,30,056,42,21,21,183,40,22,51,126,44*6B
$B3CN0,0,0,0,0,0,0,0,0,0,0,0,0,0,0*4C
$ini_pos,lastpos_good = 1,ini_pos.x:-1578917.287001,ini_pos.y:5312774.184382,ini_pos.z:3146360.064945
$rtc_local_time,localRTC.weeks:2055,localRTC.seconds:206338.600786,localGtime.weeks:2055,localGtime.seconds:206338.000000
$pseudo_cd_ph,prn:2,pseudo_cd_ph:206337924.514288991690
measnum = 0,full_prange = 22562923.019586
$oldmeas,msRange:0.000000,x:12488637.136846,y:21541543.035952,z:10062938.165192,vx:-1029.537842,vy:-638.416443,vz:2800.201416,tb:-0.000223819747
$newmeas,x:12488714.620919,y:21541591.083822,z:10062727.416387,vx:-1029.516479,vy:-638.402954,vz:2800.216797,tb:-0.000223819746
$pseudo_cd_ph,prn:5,pseudo_cd_ph:206337917.387218147516
measnum = 1,full_prange = 24766903.856500
$oldmeas,msRange:82.615059,x:4410281.678293,y:22038542.693677,z:-14110527.089268,vx:-715.475403,vy:1651.807007,vz:2396.766357,tb:0.000000798146
$newmeas,x:4410340.786799,y:22038406.231270,z:-14110725.093503,vx:-715.489441,vy:1651.827515,vz:2396.741699,tb:0.000000798146
$pseudo_cd_ph,prn:6,pseudo_cd_ph:206337931.036370456219
measnum = 2,full_prange = 20732806.180343
$oldmeas,msRange:69.159000,x:286196.117409,y:18835003.507013,z:18752192.826660,vx:-1713.955811,vy:-1640.937866,vz:1681.544189,tb:0.000193649042
$newmeas,x:286314.649207,y:18835116.989558,z:18752076.534826,vx:-1713.938965,vy:-1640.934448,vz:1681.571655,tb:0.000193649043
$pseudo_cd_ph,prn:9,pseudo_cd_ph:206337918.888525992632
measnum = 3,full_prange = 24437370.184444
$oldmeas,msRange:81.516018,x:-25040967.177266,y:8376701.134327,z:-2965623.031828,vx:-434.555969,vy:-206.335953,vz:3126.197266,tb:0.000402899980
$newmeas,x:-25040931.753517,y:8376717.953424,z:-2965877.861383,vx:-434.586029,vy:-206.330246,vz:3126.192139,tb:0.000402899980
$pseudo_cd_ph,prn:12,pseudo_cd_ph:206337920.541740179062
measnum = 4,full_prange = 23892442.728048
$oldmeas,msRange:79.698253,x:13151702.672026,y:6544088.703438,z:21917724.240534,vx:-1006.470886,vy:2643.207764,vz:-166.934280,tb:0.000238431827
$newmeas,x:13151782.884886,y:6543878.048856,z:21917737.543120,vx:-1006.484436,vy:2643.204590,vz:-166.896378,tb:0.000238431827
$pseudo_cd_ph,prn:17,pseudo_cd_ph:206337929.135548949242
measnum = 5,full_prange = 21263231.288681
$oldmeas,msRange:70.928319,x:-14840300.770713,y:14218130.366685,z:17181282.681149,vx:-2091.562744,vy:241.752716,vz:-2063.899414,tb:0.000062135248
$newmeas,x:-14840152.422818,y:14218113.220225,z:17181429.065418,vx:-2091.581299,vy:241.746628,vz:-2063.874023,tb:0.000062135248
$pseudo_cd_ph,prn:19,pseudo_cd_ph:206337930.933838218451
measnum = 6,full_prange = 20611472.660284
$oldmeas,msRange:68.754254,x:-7792486.440794,y:14737986.625283,z:20391995.473958,vx:-2638.854492,vy:259.661713,vz:-1171.427002,tb:-0.000313608254
$newmeas,x:-7792305.012626,y:14737968.773232,z:20392076.011412,vx:-2638.865967,vy:259.651978,vz:-1171.396484,tb:-0.000313608254
$pseudo_cd_ph,prn:28,pseudo_cd_ph:206337926.404864042997
measnum = 7,full_prange = 22293425.038731
$oldmeas,msRange:74.364799,x:-13019207.575410,y:22397378.183510,z:-5471013.754701,vx:94.500732,vy:-792.221252,vz:-3114.647461,tb:0.000767806803
$newmeas,x:-13019214.602492,y:22397437.094310,z:-5470782.140285,vx:94.493683,vy:-792.193298,vz:-3114.656006,tb:0.000767806803
$GNGGA,091840.000,2944.9082,N,10633.0937,E,1,20,0.6,330.0,M,,,,0000*13
$GNRMC,091840.000,A,2944.9082,N,10633.0937,E,0.19,0.00,280519,,*14
$GPGSA,A,3,02,05,06,09,12,17,19,28,,,,,0.7,0.6,0.4*38
$BDGSA,A,3,01,02,04,05,08,10,12,13,19,21,22,26,0.7,0.6,0.4*23
$GLGSA,A,3,,,,,,,,,,,,,0.7,0.6,0.4*2B
$GPGSV,3,1,10,02,36,270,40,04,00,000,38,05,09,205,39,06,63,322,45*73
$GPGSV,3,2,10,09,12,114,37,12,16,320,40,17,56,059,44,19,60,018,42*7A
$GPGSV,3,3,10,28,34,160,42,24,00,000,36*77
$BDGSV,3,1,12,01,40,126,40,02,48,220,40,16,00,000,37,04,23,109,40*6D
$BDGSV,3,2,12,05,28,246,39,08,58,002,42,10,56,204,41,12,52,339,42*64
$BDGSV,3,3,12,13,57,305,42,19,30,056,42,21,21,183,40,22,51,126,44*6A
$B3CN0,0,16,0,0,0,0,0,0,0,0,0,0,0,0*7B
$ini_pos,lastpos_good = 1,ini_pos.x:-1578917.240655,ini_pos.y:5312773.613031,ini_pos.z:3146360.276920
$rtc_local_time,localRTC.weeks:2055,localRTC.seconds:206339.600786,localGtime.weeks:2055,localGtime.seconds:206339.000000
$pseudo_cd_ph,prn:2,pseudo_cd_ph:206338924.515763521194
measnum = 0,full_prange = 22562471.297995
$oldmeas,msRange:0.000000,x:12487607.457249,y:21540904.530265,z:10065738.262839,vx:-1029.821533,vy:-638.594971,vz:2799.994141,tb:-0.000223819752
$newmeas,x:12487684.961122,y:21540952.590611,z:10065527.533842,vx:-1029.800171,vy:-638.581543,vz:2800.009766,tb:-0.000223819752
$pseudo_cd_ph,prn:5,pseudo_cd_ph:206338917.390308886766
measnum = 1,full_prange = 24765967.608921
$oldmeas,msRange:82.612634,x:4409566.288070,y:22040194.376425,z:-14108130.172404,vx:-715.305115,vy:1651.558594,vz:2397.067383,tb:0.000000798146
$newmeas,x:4409625.380275,y:22040057.939705,z:-14108328.194018,vx:-715.319153,vy:1651.579102,vz:2397.042480,tb:0.000000798146
$pseudo_cd_ph,prn:6,pseudo_cd_ph:206338931.036901116371
measnum = 2,full_prange = 20732637.422266
$oldmeas,msRange:69.159139,x:284482.039704,y:18833362.544402,z:18753874.171736,vx:-1714.199707,vy:-1640.987427,vz:1681.146118,tb:0.000193649032
$newmeas,x:284600.587403,y:18833476.029453,z:18753757.908379,vx:-1714.182861,vy:-1640.984009,vz:1681.173584,tb:0.000193649033
$pseudo_cd_ph,prn:9,pseudo_cd_ph:206338918.890497446060
measnum = 3,full_prange = 24436769.488291
$oldmeas,msRange:81.514716,x:-25041401.548794,y:8376494.763324,z:-2962496.803096,vx:-434.187103,vy:-206.406067,vz:3126.260254,tb:0.000402899973
$newmeas,x:-25041366.155983,y:8376511.587722,z:-2962751.631522,vx:-434.217163,vy:-206.400345,vz:3126.255127,tb:0.000402899973
$pseudo_cd_ph,prn:12,pseudo_cd_ph:206338920.544455677271
measnum = 4,full_prange = 23891618.973305
$oldmeas,msRange:79.696199,x:13150696.286206,y:6546731.931010,z:21917557.068465,vx:-1006.300781,vy:2643.247559,vz:-167.409866,tb:0.000238431821
$newmeas,x:13150776.482744,y:6546521.280537,z:21917570.408494,vx:-1006.314331,vy:2643.244385,vz:-167.371964,tb:0.000238431821
$pseudo_cd_ph,prn:17,pseudo_cd_ph:206338929.136072784662
measnum = 5,full_prange = 21263064.582388
$oldmeas,msRange:70.928464,x:-14842392.201294,y:14218372.162316,z:17179218.603767,vx:-2091.298584,vy:241.838547,vz:-2064.255615,tb:0.000062135258
$newmeas,x:-14842243.873291,y:14218355.009903,z:17179365.012157,vx:-2091.317383,vy:241.832458,vz:-2064.230225,tb:0.000062135257
$pseudo_cd_ph,prn:19,pseudo_cd_ph:206338930.934726893902
measnum = 6,full_prange = 20611196.575504
$oldmeas,msRange:68.754035,x:-7795125.212072,y:14738246.357894,z:20390823.824548,vx:-2638.688232,vy:259.803497,vz:-1171.871826,tb:-0.000313608252
$newmeas,x:-7794943.797774,y:14738228.496334,z:20390904.391504,vx:-2638.699707,vy:259.793762,vz:-1171.841309,tb:-0.000313608252
$pseudo_cd_ph,prn:28,pseudo_cd_ph:206338926.403701633215
measnum = 7,full_prange = 22293763.852893
$oldmeas,msRange:74.366630,x:-13019113.027287,y:22396585.774455,z:-5474128.343209,vx:94.595512,vy:-792.596924,vz:-3114.529785,tb:0.000767806802
$newmeas,x:-13019120.061525,y:22396644.714087,z:-5473896.734014,vx:94.588463,vy:-792.568970,vz:-3114.538574,tb:0.000767806802
$GNGGA,091841.000,2944.9083,N,10633.0937,E,1,20,0.6,330.9,M,,,,0000*1A
$GNRMC,091841.000,A,2944.9083,N,10633.0937,E,0.20,0.00,280519,,*1E
$GPGSA,A,3,02,05,06,09,12,17,19,28,,,,,0.7,0.6,0.4*38
$BDGSA,A,3,01,02,04,05,08,10,12,13,19,21,22,26,0.7,0.6,0.4*23
$GLGSA,A,3,,,,,,,,,,,,,0.7,0.6,0.4*2B
$GPGSV,3,1,10,02,36,270,40,04,00,000,38,05,09,205,40,06,63,322,45*7D
$GPGSV,3,2,10,09,12,114,37,12,16,320,41,17,56,059,45,19,60,018,43*7B
$GPGSV,3,3,10,28,34,160,42,24,00,000,35*74
$BDGSV,3,1,12,01,40,126,41,02,48,220,39,16,00,000,37,04,23,109,39*6C
$BDGSV,3,2,12,05,28,246,37,08,58,002,43,10,56,204,42,12,52,339,43*69
$BDGSV,3,3,12,13,57,305,43,19,30,056,43,21,21,183,40,22,51,126,45*6B
$B3CN0,0,0,0,0,0,0,0,0,0,0,0,0,0,0*4C
$ini_pos,lastpos_good = 1,ini_pos.x:-1578917.478477,ini_pos.y:5312774.342197,ini_pos.z:3146360.862782
$rtc_local_time,localRTC.weeks:2055,localRTC.seconds:206340.600786,localGtime.weeks:2055,localGtime.seconds:206340.000000
$pseudo_cd_ph,prn:2,pseudo_cd_ph:206339924.517241567373
measnum = 0,full_prange = 22562018.522132
$oldmeas,msRange:0.000000,x:12486577.493952,y:21540265.846044,z:10068538.153316,vx:-1030.105225,vy:-638.773499,vz:2799.786865,tb:-0.000223819757
$newmeas,x:12486655.017622,y:21540313.918861,z:10068327.444142,vx:-1030.083862,vy:-638.760071,vz:2799.802490,tb:-0.000223819757
$pseudo_cd_ph,prn:5,pseudo_cd_ph:206339917.393405228853
measnum = 1,full_prange = 24765029.681654
$oldmeas,msRange:82.610207,x:4408851.068120,y:22041845.810643,z:-14105732.954600,vx:-715.134827,vy:1651.309937,vz:2397.368408,tb:0.000000798145
$newmeas,x:4408910.144022,y:22041709.399622,z:-14105930.993572,vx:-715.148926,vy:1651.330566,vz:2397.343506,tb:0.000000798145
$pseudo_cd_ph,prn:6,pseudo_cd_ph:206339931.037435293198
measnum = 2,full_prange = 20732467.609916
$oldmeas,msRange:69.159274,x:282767.718149,y:18831721.532225,z:18755555.118710,vx:-1714.443481,vy:-1641.036987,vz:1680.747925,tb:0.000193649022
$newmeas,x:282886.281739,y:18831835.019772,z:18755438.883837,vx:-1714.426636,vy:-1641.033569,vz:1680.775513,tb:0.000193649023
$pseudo_cd_ph,prn:9,pseudo_cd_ph:206339918.892471402884
measnum = 3,full_prange = 24436168.041639
$oldmeas,msRange:81.513413,x:-25041835.551457,y:8376288.322187,z:-2959370.511398,vx:-433.818237,vy:-206.476227,vz:3126.323242,tb:0.000402899965
$newmeas,x:-25041800.189584,y:8376305.151890,z:-2959625.338682,vx:-433.848328,vy:-206.470505,vz:3126.318115,tb:0.000402899966
$pseudo_cd_ph,prn:12,pseudo_cd_ph:206339920.547179728746
measnum = 4,full_prange = 23890792.654357
$oldmeas,msRange:79.694145,x:13149690.070512,y:6549375.198126,z:21917389.420808,vx:-1006.130676,vy:2643.286865,vz:-167.885452,tb:0.000238431815
$newmeas,x:13149770.250718,y:6549164.551790,z:21917402.798276,vx:-1006.144226,vy:2643.283691,vz:-167.847549,tb:0.000238431816
$pseudo_cd_ph,prn:17,pseudo_cd_ph:206339929.136600613594
measnum = 5,full_prange = 21262896.678869
$oldmeas,msRange:70.928606,x:-14844483.367787,y:14218614.043747,z:17177154.170122,vx:-2091.034424,vy:241.924332,vz:-2064.611816,tb:0.000062135267
$newmeas,x:-14844335.059687,y:14218596.885386,z:17177300.602623,vx:-2091.053223,vy:241.918243,vz:-2064.586670,tb:0.000062135266
$pseudo_cd_ph,prn:19,pseudo_cd_ph:206339930.935616910458
measnum = 6,full_prange = 20610920.088671
$oldmeas,msRange:68.753813,x:-7797763.816908,y:14738506.232281,z:20389651.730349,vx:-2638.521729,vy:259.945282,vz:-1172.316650,tb:-0.000313608250
$newmeas,x:-7797582.416489,y:14738488.361215,z:20389732.326803,vx:-2638.533203,vy:259.935516,vz:-1172.286011,tb:-0.000313608251
$pseudo_cd_ph,prn:28,pseudo_cd_ph:206339926.402545124292
measnum = 7,full_prange = 22294100.898021
$oldmeas,msRange:74.368458,x:-13019018.384409,y:22395792.989737,z:-5477242.814138,vx:94.690239,vy:-792.972595,vz:-3114.412109,tb:0.000767806801
$newmeas,x:-13019025.425798,y:22395851.958196,z:-5477011.210187,vx:94.683197,vy:-792.944641,vz:-3114.420898,tb:0.000767806801
$GNGGA,091842.000,2944.9083,N,10633.0938,E,1,20,0.6,331.0,M,,,,0000*1E
$GNRMC,091842.000,A,2944.9083,N,10633.0938,E,0.38,0.00,280519,,*1B
$GPGSA,A,3,02,05,06,09,12,17,19,28,,,,,0.7,0.6,0.4*38
$BDGSA,A,3,01,02,04,05,08,10,12,13,19,21,22,26,0.7,0.6,0.4*23
$GLGSA,A,3,,,,,,,,,,,,,0.7,0.6,0.4*2B
$GPGSV,3,1,10,02,36,270,40,04,00,000,38,05,09,205,40,06,63,322,46*7E
$GPGSV,3,2,10,09,12,114,35,12,16,320,40,17,56,059,45,19,60,018,43*78
$GPGSV,3,3,10,28,34,160,42,24,00,000,36*77
$BDGSV,3,1,12,01,40,126,41,02,48,220,40,16,00,000,37,04,23,109,38*63
$BDGSV,3,2,12,05,28,246,38,08,58,002,43,10,56,204,42,12,52,339,43*66
$BDGSV,3,3,12,13,57,305,43,19,30,056,43,21,21,183,40,22,51,126,45*6B
$B3CN0,0,0,0,0,0,0,0,0,0,0,0,0,0,0*4C
$ini_pos,lastpos_good = 1,ini_pos.x:-1578917.623070,ini_pos.y:5312774.333455,ini_pos.z:3146360.970846
$rtc_local_time,localRTC.weeks:2055,localRTC.seconds:206341.600786,localGtime.weeks:2055,localGtime.seconds:206341.000000
$pseudo_cd_ph,prn:2,pseudo_cd_ph:206340924.518722146749
measnum = 0,full_prange = 22561564.986836
$oldmeas,msRange:0.000000,x:12485547.246948,y:21539626.983344,z:10071337.836568,vx:-1030.388916,vy:-638.951965,vz:2799.579590,tb:-0.000223819763
$newmeas,x:12485624.790410,y:21539675.068624,z:10071127.147226,vx:-1030.367554,vy:-638.938538,vz:2799.595215,tb:-0.000223819762
$pseudo_cd_ph,prn:5,pseudo_cd_ph:206340917.396503925323
measnum = 1,full_prange = 24764091.048561
$oldmeas,msRange:82.607781,x:4408136.018418,y:22043496.996280,z:-14103335.435905,vx:-714.964600,vy:1651.061401,vz:2397.669189,tb:0.000000798145
$newmeas,x:4408195.078018,y:22043360.610965,z:-14103533.492224,vx:-714.978699,vy:1651.081909,vz:2397.644287,tb:0.000000798145
$pseudo_cd_ph,prn:6,pseudo_cd_ph:206340931.037969052792
measnum = 2,full_prange = 20732297.922649
$oldmeas,msRange:69.159412,x:281053.152763,y:18830080.470544,z:18757235.667545,vx:-1714.687378,vy:-1641.086426,vz:1680.349854,tb:0.000193649012
$newmeas,x:281171.732244,y:18830193.960584,z:18757119.461158,vx:-1714.670532,vy:-1641.083008,vz:1680.377319,tb:0.000193649012
$pseudo_cd_ph,prn:9,pseudo_cd_ph:206340918.894445806742
measnum = 3,full_prange = 24435566.460970
$oldmeas,msRange:81.512110,x:-25042269.185260,y:8376081.810866,z:-2956244.156802,vx:-433.449402,vy:-206.546432,vz:3126.386230,tb:0.000402899958
$newmeas,x:-25042233.854322,y:8376098.645877,z:-2956498.982937,vx:-433.479462,vy:-206.540710,vz:3126.381104,tb:0.000402899959
$pseudo_cd_ph,prn:12,pseudo_cd_ph:206340920.549905478954
measnum = 4,full_prange = 23889965.826142
$oldmeas,msRange:79.692093,x:13148684.024967,y:6552018.504718,z:21917221.297568,vx:-1005.960510,vy:2643.326416,vz:-168.361038,tb:0.000238431810
$newmeas,x:13148764.188838,y:6551807.862529,z:21917234.712471,vx:-1005.974060,vy:2643.323242,vz:-168.323135,tb:0.000238431810
$pseudo_cd_ph,prn:17,pseudo_cd_ph:206340929.137128025293
measnum = 5,full_prange = 21262728.900433
$oldmeas,msRange:70.928751,x:-14846574.270146,y:14218856.010935,z:17175089.380255,vx:-2090.770264,vy:242.010056,vz:-2064.968018,tb:0.000062135276
$newmeas,x:-14846425.981952,y:14218838.846629,z:17175235.836864,vx:-2090.789062,vy:242.003983,vz:-2064.942871,tb:0.000062135275
$pseudo_cd_ph,prn:19,pseudo_cd_ph:206340930.936508178711
measnum = 6,full_prange = 20610643.226589
$oldmeas,msRange:68.753593,x:-7800402.255239,y:14738766.248418,z:20388479.191388,vx:-2638.355225,vy:260.087006,vz:-1172.761353,tb:-0.000313608249
$newmeas,x:-7800220.868706,y:14738748.367848,z:20388559.817336,vx:-2638.366699,vy:260.077271,vz:-1172.730835,tb:-0.000313608249
$pseudo_cd_ph,prn:28,pseudo_cd_ph:206340926.401387423277
measnum = 7,full_prange = 22294438.300530
$oldmeas,msRange:74.370287,x:-13018923.646831,y:22394999.829351,z:-5480357.167420,vx:94.784912,vy:-793.348267,vz:-3114.294434,tb:0.000767806799
$newmeas,x:-13018930.695367,y:22395058.826639,z:-5480125.568715,vx:94.777878,vy:-793.320312,vz:-3114.303223,tb:0.000767806800
$GNGGA,091843.000,2944.9083,N,10633.0939,E,1,20,0.6,331.4,M,,,,0000*1A
$GNRMC,091843.000,A,2944.9083,N,10633.0939,E,0.17,0.00,280519,,*16
$GPGSA,A,3,02,05,06,09,12,17,19,28,,,,,0.7,0.6,0.4*38
$BDGSA,A,3,01,02,04,05,08,10,12,13,19,21,22,26,0.7,0.6,0.4*23
$GLGSA,A,3,,,,,,,,,,,,,0.7,0.6,0.4*2B
$GPGSV,3,1,10,02,36,270,41,04,00,000,38,05,09,205,40,06,63,322,46*7F
$GPGSV,3,2,10,09,12,114,36,12,16,320,41,17,56,059,45,19,60,018,44*7D
$GPGSV,3,3,10,28,34,160,43,24,00,000,36*76
$BDGSV,3,1,12,01,40,126,41,02,48,220,39,16,00,000,38,04,23,109,40*6D
$BDGSV,3,2,12,05,28,246,37,08,58,002,42,10,56,204,42,12,52,339,43*68
$BDGSV,3,3,12,13,57,305,43,19,30,056,43,21,21,183,40,22,51,126,45*6B
$B3CN0,0,0,0,0,0,0,0,0,0,0,0,0,0,0*4C
$ini_pos,lastpos_good = 1,ini_pos.x:-1578917.841171,ini_pos.y:5312774.610014,ini_pos.z:3146361.125155
$rtc_local_time,localRTC.weeks:2055,localRTC.seconds:206342.600786,localGtime.weeks:2055,localGtime.seconds:206342.000000
$pseudo_cd_ph,prn:2,pseudo_cd_ph:206341924.520198464394
measnum = 0,full_prange = 22561112.729175
$oldmeas,msRange:0.000000,x:12484516.716227,y:21538987.942219,z:10074137.312537,vx:-1030.672607,vy:-639.130371,vz:2799.372314,tb:-0.000223819768
$newmeas,x:12484594.279486,y:21539036.039961,z:10073926.643020,vx:-1030.651245,vy:-639.116943,vz:2799.387939,tb:-0.000223819768
$pseudo_cd_ph,prn:5,pseudo_cd_ph:206341917.399599760771
measnum = 1,full_prange = 24763153.273181
$oldmeas,msRange:82.605354,x:4407421.138938,y:22045147.933283,z:-14100937.616370,vx:-714.794373,vy:1650.812744,vz:2397.969971,tb:0.000000798145
$newmeas,x:4407480.182243,y:22045011.573672,z:-14101135.690037,vx:-714.808472,vy:1650.833252,vz:2397.945068,tb:0.000000798145
$pseudo_cd_ph,prn:6,pseudo_cd_ph:206341931.038500219584
measnum = 2,full_prange = 20732129.012685
$oldmeas,msRange:69.159549,x:279338.343566,y:18828439.359421,z:18758915.818206,vx:-1714.931152,vy:-1641.135864,vz:1679.951660,tb:0.000193649002
$newmeas,x:279456.938941,y:18828552.851953,z:18758799.640303,vx:-1714.914307,vy:-1641.132446,vz:1679.979126,tb:0.000193649002
$pseudo_cd_ph,prn:9,pseudo_cd_ph:206341918.896417975426
measnum = 3,full_prange = 24434965.550389
$oldmeas,msRange:81.510807,x:-25042702.450204,y:8375875.229309,z:-2953117.739373,vx:-433.080536,vy:-206.616699,vz:3126.448975,tb:0.000402899951
$newmeas,x:-25042667.150199,y:8375892.069633,z:-2953372.564360,vx:-433.110596,vy:-206.610962,vz:3126.443848,tb:0.000402899952
$pseudo_cd_ph,prn:12,pseudo_cd_ph:206341920.552624613047
measnum = 4,full_prange = 23889140.981389
$oldmeas,msRange:79.690041,x:13147678.149594,y:6554661.850718,z:21917052.698749,vx:-1005.790283,vy:2643.365723,vz:-168.836609,tb:0.000238431804
$newmeas,x:13147758.297136,y:6554451.212664,z:21917066.151085,vx:-1005.803894,vy:2643.362549,vz:-168.798721,tb:0.000238431804
$pseudo_cd_ph,prn:17,pseudo_cd_ph:206341929.137650430202
measnum = 5,full_prange = 21262562.622996
$oldmeas,msRange:70.928895,x:-14848664.908327,y:14219098.063838,z:17173024.234209,vx:-2090.506104,vy:242.095749,vz:-2065.324219,tb:0.000062135285
$newmeas,x:-14848516.640031,y:14219080.893587,z:17173170.714933,vx:-2090.524902,vy:242.089676,vz:-2065.298828,tb:0.000062135284
$pseudo_cd_ph,prn:19,pseudo_cd_ph:206341930.937395930290
measnum = 6,full_prange = 20610367.418780
$oldmeas,msRange:68.753373,x:-7803040.527000,y:14739026.406277,z:20387306.207691,vx:-2638.188477,vy:260.228729,vz:-1173.206055,tb:-0.000313608247
$newmeas,x:-7802859.154348,y:14739008.516203,z:20387386.863134,vx:-2638.199951,vy:260.218964,vz:-1173.175537,tb:-0.000313608247
$pseudo_cd_ph,prn:28,pseudo_cd_ph:206341926.400228261948
measnum = 7,full_prange = 22294776.140829
$oldmeas,msRange:74.372116,x:-13018828.814606,y:22394206.293291,z:-5483471.402987,vx:94.879532,vy:-793.723938,vz:-3114.176758,tb:0.000767806798
$newmeas,x:-13018835.870285,y:22394265.319412,z:-5483239.809530,vx:94.872498,vy:-793.695984,vz:-3114.185547,tb:0.000767806798
$GNGGA,091844.000,2944.9083,N,10633.0940,E,1,20,0.6,331.3,M,,,,0000*14
$GNRMC,091844.000,A,2944.9083,N,10633.0940,E,0.17,0.00,280519,,*1F
$GPGSA,A,3,02,05,06,09,12,17,19,28,,,,,0.7,0.6,0.4*38
$BDGSA,A,3,01,02,04,05,08,10,12,13,19,21,22,26,0.7,0.6,0.4*23
$GLGSA,A,3,,,,,,,,,,,,,0.7,0.6,0.4*2B
$GPGSV,3,1,11,02,36,270,40,04,00,000,38,05,09,205,39,06,63,322,46*71
$GPGSV,3,2,11,09,12,114,36,12,16,320,41,17,56,059,45,19,60,018,45*7D
$GPGSV,3,3,11,28,34,160,42,24,00,000,36,03,10,038,00*4F
$BDGSV,3,1,12,01,40,126,41,02,48,220,41,16,00,000,38,04,23,109,39*6C
$BDGSV,3,2,12,05,28,246,37,07,35,173,17,08,58,002,42,10,56,204,42*60
$BDGSV,3,3,12,12,52,339,42,13,57,305,43,19,30,056,43,21,21,183,40*60
$B3CN0,0,0,0,0,0,0,0,0,0,0,0,0,0,0*4C
$ini_pos,lastpos_good = 1,ini_pos.x:-1578917.924466,ini_pos.y:5312774.493139,ini_pos.z:3146361.067194
$rtc_local_time,localRTC.weeks:2055,localRTC.seconds:206343.600786,localGtime.weeks:2055,localGtime.seconds:206343.000000
$pseudo_cd_ph,prn:2,pseudo_cd_ph:206342924.521676808596
measnum = 0,full_prange = 22560659.863967
$oldmeas,msRange:0.000000,x:12483485.901780,y:21538348.722723,z:10076936.581167,vx:-1030.956299,vy:-639.308655,vz:2799.165039,tb:-0.000223819774
$newmeas,x:12483563.484834,y:21538396.832921,z:10076725.931484,vx:-1030.934937,vy:-639.295288,vz:2799.180664,tb:-0.000223819773
$pseudo_cd_ph,prn:5,pseudo_cd_ph:206342917.402696162462
measnum = 1,full_prange = 24762215.328045
$oldmeas,msRange:82.602928,x:4406706.429656,y:22046798.621599,z:-14098539.496046,vx:-714.624207,vy:1650.563965,vz:2398.270752,tb:0.000000798144
$newmeas,x:4406765.456667,y:22046662.287696,z:-14098737.587053,vx:-714.638245,vy:1650.584595,vz:2398.245850,tb:0.000000798144
$pseudo_cd_ph,prn:6,pseudo_cd_ph:206342931.039031863213
measnum = 2,full_prange = 20731959.959769
$oldmeas,msRange:69.159688,x:277623.290578,y:18826798.198917,z:18760595.570658,vx:-1715.174927,vy:-1641.185181,vz:1679.553345,tb:0.000193648992
$newmeas,x:277741.901845,y:18826911.693937,z:18760479.421241,vx:-1715.158081,vy:-1641.181763,vz:1679.580933,tb:0.000193648992
$pseudo_cd_ph,prn:9,pseudo_cd_ph:206342918.898384481668
measnum = 3,full_prange = 24434366.337365
$oldmeas,msRange:81.509505,x:-25043135.346293,y:8375668.577467,z:-2949991.259178,vx:-432.711670,vy:-206.687012,vz:3126.511719,tb:0.000402899944
$newmeas,x:-25043100.077217,y:8375685.423108,z:-2950246.083030,vx:-432.741730,vy:-206.681274,vz:3126.506592,tb:0.000402899945
$pseudo_cd_ph,prn:12,pseudo_cd_ph:206342920.555345505476
measnum = 4,full_prange = 23888315.609500
$oldmeas,msRange:79.687989,x:13146672.444415,y:6557305.236058,z:21916883.624355,vx:-1005.620117,vy:2643.405029,vz:-169.312180,tb:0.000238431798
$newmeas,x:13146752.575625,y:6557094.602149,z:21916897.114121,vx:-1005.633667,vy:2643.401855,vz:-169.274292,tb:0.000238431799
$pseudo_cd_ph,prn:17,pseudo_cd_ph:206342929.138174802065
measnum = 5,full_prange = 21262395.755880
$oldmeas,msRange:70.929041,x:-14850755.282282,y:14219340.202410,z:17170958.732024,vx:-2090.241943,vy:242.181396,vz:-2065.680420,tb:0.000062135294
$newmeas,x:-14850607.033890,y:14219323.026220,z:17171105.236856,vx:-2090.260742,vy:242.175323,vz:-2065.655029,tb:0.000062135294
$pseudo_cd_ph,prn:19,pseudo_cd_ph:206342930.938284963369
measnum = 6,full_prange = 20610091.226786
$oldmeas,msRange:68.753154,x:-7805678.632128,y:14739286.705828,z:20386132.779285,vx:-2638.021973,vy:260.370392,vz:-1173.650757,tb:-0.000313608245
$newmeas,x:-7805497.273364,y:14739268.806254,z:20386213.464219,vx:-2638.033447,vy:260.360657,vz:-1173.620239,tb:-0.000313608245
$pseudo_cd_ph,prn:28,pseudo_cd_ph:206342926.399069249630
measnum = 7,full_prange = 22295113.936455
$oldmeas,msRange:74.373946,x:-13018733.887788,y:22393412.381553,z:-5486585.520772,vx:94.974098,vy:-794.099609,vz:-3114.059082,tb:0.000767806797
$newmeas,x:-13018740.950607,y:22393471.436507,z:-5486353.932567,vx:94.967072,vy:-794.071655,vz:-3114.067627,tb:0.000767806797
$GNGGA,091845.000,2944.9083,N,10633.0940,E,1,20,0.6,331.2,M,,,,0000*14
$GNRMC,091845.000,A,2944.9083,N,10633.0940,E,0.22,0.00,280519,,*18
$GPGSA,A,3,02,05,06,09,12,17,19,28,,,,,0.7,0.6,0.4*38
$BDGSA,A,3,01,02,04,05,08,10,12,13,19,21,22,26,0.7,0.6,0.4*23
$GLGSA,A,3,,,,,,,,,,,,,0.7,0.6,0.4*2B
$GPGSV,3,1,11,02,36,270,41,04,00,000,37,05,09,205,40,06,63,322,46*71
$GPGSV,3,2,11,09,12,114,36,12,16,320,41,17,56,059,45,19,60,018,44*7C
$GPGSV,3,3,11,28,34,160,42,24,00,000,35,03,10,038,00*4C
$BDGSV,3,1,12,01,40,126,40,02,48,220,39,16,00,000,38,04,23,109,39*62
$BDGSV,3,2,12,05,28,246,37,07,35,173,41,08,58,002,42,10,56,204,42*63
$BDGSV,3,3,12,12,52,339,43,13,57,305,43,19,30,056,43,21,21,183,40*61
$B3CN0,36,0,0,0,0,0,0,21,0,0,0,0,0,0*4A
$ini_pos,lastpos_good = 1,ini_pos.x:-1578917.931924,ini_pos.y:5312774.455592,ini_pos.z:3146361.048581
$rtc_local_time,localRTC.weeks:2055,localRTC.seconds:206344.600786,localGtime.weeks:2055,localGtime.seconds:206344.000000
$pseudo_cd_ph,prn:2,pseudo_cd_ph:206343924.523157030344
measnum = 0,full_prange = 22560206.435885
$oldmeas,msRange:0.000000,x:12482454.803599,y:21537709.324910,z:10079735.642403,vx:-1031.240112,vy:-639.487000,vz:2798.957520,tb:-0.000223819779
$newmeas,x:12482532.406447,y:21537757.447557,z:10079525.012563,vx:-1031.218750,vy:-639.473572,vz:2798.973145,tb:-0.000223819779
$pseudo_cd_ph,prn:5,pseudo_cd_ph:206343917.405796021223
measnum = 1,full_prange = 24761276.346505
$oldmeas,msRange:82.600501,x:4405991.890547,y:22048449.061177,z:-14096141.074982,vx:-714.454041,vy:1650.315186,vz:2398.571533,tb:0.000000798144
$newmeas,x:4406050.901265,y:22048312.752990,z:-14096339.183315,vx:-714.468079,vy:1650.335815,vz:2398.546631,tb:0.000000798144
$pseudo_cd_ph,prn:6,pseudo_cd_ph:206343931.039565593004
measnum = 2,full_prange = 20731790.281436
$oldmeas,msRange:69.159827,x:275907.993820,y:18825156.989095,z:18762274.924865,vx:-1715.418701,vy:-1641.234497,vz:1679.155151,tb:0.000193648981
$newmeas,x:276026.620973,y:18825270.486595,z:18762158.803940,vx:-1715.401855,vy:-1641.231079,vz:1679.182617,tb:0.000193648982
$pseudo_cd_ph,prn:9,pseudo_cd_ph:206343918.900353640318
measnum = 3,full_prange = 24433766.329170
$oldmeas,msRange:81.508202,x:-25043567.873530,y:8375461.855288,z:-2946864.716284,vx:-432.342834,vy:-206.757370,vz:3126.574219,tb:0.000402899937
$newmeas,x:-25043532.635383,y:8375478.706250,z:-2947119.538986,vx:-432.372894,vy:-206.751633,vz:3126.569336,tb:0.000402899937
$pseudo_cd_ph,prn:12,pseudo_cd_ph:206343920.558072984219
measnum = 4,full_prange = 23887488.263083
$oldmeas,msRange:79.685937,x:13145666.909453,y:6559948.660670,z:21916714.074390,vx:-1005.449890,vy:2643.444336,vz:-169.787750,tb:0.000238431792
$newmeas,x:13145747.024324,y:6559738.030930,z:21916727.601583,vx:-1005.463440,vy:2643.441162,vz:-169.749863,tb:0.000238431793
$pseudo_cd_ph,prn:17,pseudo_cd_ph:206343929.138701707125
measnum = 5,full_prange = 21262228.129331
$oldmeas,msRange:70.929187,x:-14852845.391965,y:14219582.426609,z:17168892.873742,vx:-2089.977539,vy:242.267014,vz:-2066.036377,tb:0.000062135304
$newmeas,x:-14852697.163487,y:14219565.244483,z:17169039.402673,vx:-2089.996338,vy:242.260941,vz:-2066.011230,tb:0.000062135303
$pseudo_cd_ph,prn:19,pseudo_cd_ph:206343930.939175575972
measnum = 6,full_prange = 20609814.561263
$oldmeas,msRange:68.752935,x:-7808316.570559,y:14739547.147045,z:20384958.906196,vx:-2637.855225,vy:260.512054,vz:-1174.095459,tb:-0.000313608243
$newmeas,x:-7808135.225692,y:14739529.237973,z:20385039.620617,vx:-2637.866699,vy:260.502319,vz:-1174.064941,tb:-0.000313608243
$pseudo_cd_ph,prn:28,pseudo_cd_ph:206343926.397913545370
measnum = 7,full_prange = 22295450.740351
$oldmeas,msRange:74.375777,x:-13018638.866431,y:22392618.094132,z:-5489699.520706,vx:95.068611,vy:-794.475281,vz:-3113.941162,tb:0.000767806796
$newmeas,x:-13018645.936386,y:22392677.177917,z:-5489467.937770,vx:95.061584,vy:-794.447327,vz:-3113.949951,tb:0.000767806796
$GNGGA,091846.000,2944.9082,N,10633.0940,E,1,21,0.6,331.5,M,,,,0000*10
$GNRMC,091846.000,A,2944.9082,N,10633.0940,E,0.35,0.00,280519,,*1C
$GPGSA,A,3,02,05,06,09,12,17,19,28,,,,,0.7,0.6,0.4*38
$BDGSA,A,3,01,02,04,05,07,08,10,12,13,19,21,22,0.7,0.6,0.4*20
$GLGSA,A,3,,,,,,,,,,,,,0.7,0.6,0.4*2B
$GPGSV,3,1,11,02,36,270,41,04,00,000,37,05,09,205,40,06,63,322,45*72
$GPGSV,3,2,11,09,12,114,36,12,16,320,40,17,56,059,45,19,60,018,43*7A
$GPGSV,3,3,11,28,34,160,43,24,00,000,36,03,10,038,00*4E
$BDGSV,3,1,12,01,40,126,41,02,48,220,39,16,00,000,38,04,23,109,39*63
$BDGSV,3,2,12,05,28,246,38,07,35,173,41,08,58,002,42,10,56,204,41*6F
$BDGSV,3,3,12,12,52,339,42,13,57,305,43,19,30,056,42,21,21,183,40*61
$B3CN0,0,0,0,0,0,0,0,27,0,0,0,0,0,0*79
$ini_pos,lastpos_good = 1,ini_pos.x:-1578918.018292,ini_pos.y:5312774.724709,ini_pos.z:3146361.087673
$rtc_local_time,localRTC.weeks:2055,localRTC.seconds:206345.600786,localGtime.weeks:2055,localGtime.seconds:206345.000000
$pseudo_cd_ph,prn:2,pseudo_cd_ph:206344924.524635940790
measnum = 0,full_prange = 22559753.400922
$oldmeas,msRange:0.000000,x:12481423.421676,y:21537069.748833,z:10082534.496188,vx:-1031.523804,vy:-639.665222,vz:2798.750244,tb:-0.000223819785
$newmeas,x:12481501.044317,y:21537117.883927,z:10082323.886190,vx:-1031.502441,vy:-639.651794,vz:2798.765625,tb:-0.000223819784
$pseudo_cd_ph,prn:5,pseudo_cd_ph:206344917.408892661333
measnum = 1,full_prange = 24760338.329893
$oldmeas,msRange:82.598074,x:4405277.521585,y:22050099.251963,z:-14093742.353230,vx:-714.283936,vy:1650.066406,vz:2398.872070,tb:0.000000798143
$newmeas,x:4405336.516016,y:22049962.969491,z:-14093940.478890,vx:-714.297974,vy:1650.087036,vz:2398.847412,tb:0.000000798143
$pseudo_cd_ph,prn:6,pseudo_cd_ph:206344931.040096700191
measnum = 2,full_prange = 20731621.389341
$oldmeas,msRange:69.159965,x:274192.453312,y:18823515.730017,z:18763953.880792,vx:-1715.662476,vy:-1641.283691,vz:1678.756836,tb:0.000193648971
$newmeas,x:274311.096354,y:18823629.229996,z:18763837.788357,vx:-1715.645630,vy:-1641.280396,vz:1678.784424,tb:0.000193648972
$pseudo_cd_ph,prn:9,pseudo_cd_ph:206344918.902324587107
measnum = 3,full_prange = 24433165.784904
$oldmeas,msRange:81.506900,x:-25044000.031918,y:8375255.062723,z:-2943738.110757,vx:-431.973969,vy:-206.827789,vz:3126.636963,tb:0.000402899930
$newmeas,x:-25043964.824698,y:8375271.919008,z:-2943992.932298,vx:-432.004028,vy:-206.822037,vz:3126.631836,tb:0.000402899930
$pseudo_cd_ph,prn:12,pseudo_cd_ph:206344920.560796111822
measnum = 4,full_prange = 23886662.221106
$oldmeas,msRange:79.683885,x:13144661.544731,y:6562592.124487,z:21916544.048861,vx:-1005.279602,vy:2643.483398,vz:-170.263321,tb:0.000238431787
$newmeas,x:13144741.643266,y:6562381.498909,z:21916557.613477,vx:-1005.293213,vy:2643.480469,vz:-170.225418,tb:0.000238431787
$pseudo_cd_ph,prn:17,pseudo_cd_ph:206344929.139227032661
measnum = 5,full_prange = 21262060.976310
$oldmeas,msRange:70.929332,x:-14854935.237332,y:14219824.736391,z:17166826.659403,vx:-2089.713379,vy:242.352570,vz:-2066.392334,tb:0.000062135313
$newmeas,x:-14854787.028766,y:14219807.548332,z:17166973.212434,vx:-2089.731934,vy:242.346497,vz:-2066.367188,tb:0.000062135312
$pseudo_cd_ph,prn:19,pseudo_cd_ph:206344930.940064907074
measnum = 6,full_prange = 20609538.279925
$oldmeas,msRange:68.752716,x:-7810954.342230,y:14739807.729900,z:20383784.588451,vx:-2637.688232,vy:260.653687,vz:-1174.540161,tb:-0.000313608241
$newmeas,x:-7810773.011259,y:14739789.811332,z:20383865.332358,vx:-2637.699707,vy:260.643951,vz:-1174.509521,tb:-0.000313608241
