SD initialized success
Create debug.log Failed! 3
bbram_blkflag = 1
rtcflag = 0
BBRAM Block OK: 01 EPHflag: 28250427 12a41adf, rtc 00
Hot-start nowtime:day = 28,minute = 44,seconds = 35.00
GPS 0 Init Dop:  2536, 2
GPS 1 Init Dop: -3588, 2
GPS 2 Init Dop:  -310, 2
GPS 3 Init Dop: 10000,80
GPS 4 Init Dop: 10000,80
GPS 5 Init Dop: -2860, 2
GPS 6 Init Dop: 10000,80
GPS 7 Init Dop: 10000,80
GPS 8 Init Dop: 10000,80
GPS 9 Init Dop: 10000,80
GPS10 Init Dop:  2133, 2
GPS11 Init Dop: 10000,80
GPS12 Init Dop: 10000,80
GPS13 Init Dop: 10000,80
GPS14 Init Dop: 10000,80
GPS15 Init Dop: 10000,80
GPS16 Init Dop: -1387, 2
GPS17 Init Dop: 10000,80
GPS18 Init Dop: -2235, 2
GPS19 Init Dop: 10000,80
GPS20 Init Dop: 10000,80
GPS21 Init Dop:  1064, 2
GPS22 Init Dop: 10000,80
GPS23 Init Dop: 10000,80
GPS24 Init Dop: 10000,80
GPS25 Init Dop: 10000,80
GPS26 Init Dop: 10000,80
GPS27 Init Dop:  -746, 2
GPS28 Init Dop: 10000,80
GPS29 Init Dop:  2385, 2
GPS30 Init Dop: 10000,80
GPS31 Init Dop: 10000,80
BDS 0 Init Dop:  -849, 2
BDS 1 Init Dop:  -915, 2
BDS 2 Init Dop:  -869, 2
BDS 3 Init Dop:  -869, 2
BDS 4 Init Dop:  -897, 2
BDS 5 Init Dop: 10000,80
BDS 6 Init Dop:   -82, 2
BDS 7 Init Dop:  -423, 2
BDS 8 Init Dop: 10000,80
BDS 9 Init Dop:  -598, 2
BDS10 Init Dop: 10000,80
BDS11 Init Dop: -2051, 2
BDS12 Init Dop:  -829, 2
BDS13 Init Dop: 10000,80
BDS14 Init Dop: 10000,80
BDS15 Init Dop: 10000,80
BDS16 Init Dop: 10000,80
BDS17 Init Dop: 10000,80
BDS18 Init Dop: -2265, 2
BDS19 Init Dop: 10000,80
BDS20 Init Dop: 10000,80
BDS21 Init Dop: -3700, 2
BDS22 Init Dop: 10000,80
BDS23 Init Dop: -2475, 2
BDS24 Init Dop: 10000,80
BDS25 Init Dop:   237, 2
BDS26 Init Dop: 10000,80
BDS27 Init Dop: 10000,80
BDS28 Init Dop:  1005, 2
BDS29 Init Dop: 10000,80
BDS30 Init Dop: 10000,80
BDS31 Init Dop: 10000,80
Good luck!
$ini_pos,lastpos_good = 1,ini_pos.x:-1578915.000000,ini_pos.y:5312769.000000,ini_pos.z:3146358.000000
$rtc_local_time,localRTC.weeks:2055,localRTC.seconds:200694.026007,localGtime.weeks:0,localGtime.seconds:19.026010
source<tow,snapshot
$GNGGA,000000.000,,,,,0,00,,,M,,,,0000*2B
$GNRMC,000000.000,A,,,,,,,060180,,*29
$GPGSA,A,1,,,,,,,,,,,,,,,*1E
$BDGSA,A,1,,,,,,,,,,,,,,,*0F
$GLGSA,A,1,,,,,,,,,,,,,,,*02
$B3CN0,0,0,0,0,0,0,0,0,0,0,0,0,0,0*4C
$ini_pos,lastpos_good = 1,ini_pos.x:-1578915.000000,ini_pos.y:5312769.000000,ini_pos.z:3146358.000000
$rtc_local_time,localRTC.weeks:2055,localRTC.seconds:200695.026007,localGtime.weeks:2055,localGtime.seconds:200695.026007
source<tow,snapshot
$GNGGA,000000.000,,,,,0,00,,,M,,,,0000*2B
$GNRMC,000000.000,A,,,,,,,060180,,*29
$GPGSA,A,1,,,,,,,,,,,,,,,*1E
$BDGSA,A,1,,,,,,,,,,,,,,,*0F
$GLGSA,A,1,,,,,,,,,,,,,,,*02
$B3CN0,0,0,0,0,0,0,0,0,0,0,0,0,0,0*4C
tow update,200697272.386050
$ini_pos,lastpos_good = 1,ini_pos.x:-1578915.000000,ini_pos.y:5312769.000000,ini_pos.z:3146358.000000
$rtc_local_time,localRTC.weeks:2055,localRTC.seconds:200696.026007,localGtime.weeks:2055,localGtime.seconds:200697.272386
$pseudo_cd_ph,prn:1,pseudo_cd_ph:18.078618576333
measnum = 0,full_prange = 23767704.903992
$oldmeas,msRange:0.000000,x:-15634649.079643,y:-1048704.487763,z:21309953.428269,vx:-862.114868,vy:-2600.380615,vz:-722.480469,tb:-0.000026902094
$newmeas,x:-15634580.731116,y:-1048498.327769,z:21310010.705461,vx:-862.104858,vy:-2600.391846,vz:-722.444092,tb:-0.000026902093
$pseudo_cd_ph,prn:3,pseudo_cd_ph:3.382313852320
measnum = 1,full_prange = 22241870.562890
$oldmeas,msRange:74.402646,x:-20497590.130172,y:8400883.292669,z:14551490.481213,vx:1044.780518,vy:-1550.509521,vz:2368.886230,tb:0.000187157653
$newmeas,x:-20497667.643087,y:8400998.325563,z:14551314.730571,vx:1044.772827,vy:-1550.488159,vz:2368.909424,tb:0.000187157653
$pseudo_cd_ph,prn:6,pseudo_cd_ph:5.752906993221
measnum = 2,full_prange = 21533147.916726
$oldmeas,msRange:72.037418,x:6020554.754722,y:25494252.189182,z:4310020.160703,vx:-401.914307,vy:-431.381470,vz:3147.993896,tb:0.000193706532
$newmeas,x:6020583.622550,y:25494283.173053,z:4309794.049981,vx:-401.902863,vy:-431.356384,vz:3148.000488,tb:0.000193706532
$pseudo_cd_ph,prn:17,pseudo_cd_ph:5.949133514076
measnum = 3,full_prange = 21434859.590418
$oldmeas,msRange:71.710298,x:-529049.895462,y:15093638.173053,z:22261928.690121,vx:-2649.425537,vy:-621.562805,vz:356.701294,tb:0.000062078473
$newmeas,x:-528860.464409,y:15093682.614571,z:22261903.185171,vx:-2649.419678,vy:-621.574036,vz:356.733887,tb:0.000062078472
$pseudo_cd_ph,prn:19,pseudo_cd_ph:5.279506224691
measnum = 4,full_prange = 21522978.194154
$oldmeas,msRange:72.003791,x:7672398.380694,y:15836229.714146,z:19566864.397736,vx:-2476.507080,vy:-607.851501,vz:1448.019897,tb:-0.000313616783
$newmeas,x:7672576.175839,y:15836273.353841,z:19566760.439044,vx:-2476.491699,vy:-607.858643,vz:1448.050659,tb:-0.000313616783
$pseudo_cd_ph,prn:22,pseudo_cd_ph:17.846446927575
measnum = 5,full_prange = 23633099.555812
$oldmeas,msRange:79.043918,x:-18674151.372428,y:1275064.267691,z:19051950.968972,vx:1271.800903,vy:-2025.209839,vz:1407.291992,tb:-0.000708068861
$newmeas,x:-18674251.630462,y:1275223.917450,z:19051840.028746,vx:1271.801270,vy:-2025.193604,vz:1407.323364,tb:-0.000708068860
$pseudo_cd_ph,prn:28,pseudo_cd_ph:9.647365215820
measnum = 6,full_prange = 20537727.442178
$oldmeas,msRange:68.718022,x:-10649830.479808,y:21581557.244099,z:11947063.483923,vx:-1123.475342,vy:877.334961,vz:-2716.331055,tb:0.000767799437
$newmeas,x:-10649753.513784,y:21581497.140579,z:11947249.569631,vx:-1123.495117,vy:877.346252,vz:-2716.314209,tb:0.000767799436
$pseudo_cd_ph,prn:30,pseudo_cd_ph:17.663829382098
measnum = 7,full_prange = 23866258.904365
$oldmeas,msRange:79.822366,x:-3051047.219062,y:22742369.277548,z:-13184391.765048,vx:-769.746033,vy:-1531.667480,vz:-2478.548584,tb:-0.000112950534
$newmeas,x:-3050985.940691,y:22742491.211667,z:-13184194.448712,vx:-769.732178,vy:-1531.647095,vz:-2478.571045,tb:-0.000112950534
source>=tow,snapshot
nits = 2
$GNGGA,074438.575,2944.9120,N,10633.0868,E,1,19,0.0,317.5,M,,,,0000*12
$GNRMC,074438.575,A,2944.9120,N,10633.0868,E,0.00,0.00,280519,,*11
$GPGSA,A,3,01,03,06,17,19,22,28,30,,,,,0.0,0.0,0.0*31
$BDGSA,A,3,01,02,04,07,08,10,12,13,19,24,26,,0.0,0.0,0.0*21
$GLGSA,A,3,,,,,,,,,,,,,0.0,0.0,0.0*2E
$GPGSV,2,1,08,01,00,000,24,03,00,000,26,06,00,000,26,17,00,000,26*72
$GPGSV,2,2,08,19,00,000,26,22,00,000,26,28,00,000,25,30,00,000,26*73
$BDGSV,3,1,12,01,00,000,41,02,00,000,38,03,00,000,19,04,00,000,40*6F
$BDGSV,3,2,12,05,00,000,30,07,00,000,24,08,00,000,24,10,00,000,24*64
$BDGSV,3,3,12,12,00,000,24,13,00,000,24,19,00,000,23,24,00,000,23*64
$B3CN0,0,0,0,0,0,0,0,0,0,0,0,0,0,0*4C
$ini_pos,lastpos_good = 1,ini_pos.x:-1578902.408201,ini_pos.y:5312763.039867,ini_pos.z:3146360.228155
$rtc_local_time,localRTC.weeks:2055,localRTC.seconds:200697.026007,localGtime.weeks:2055,localGtime.seconds:200698.272386
$pseudo_cd_ph,prn:1,pseudo_cd_ph:18.077109089811
measnum = 0,full_prange = 23768147.766684
$oldmeas,msRange:0.000000,x:-15635511.257322,y:-1051304.796814,z:21309230.718342,vx:-862.240540,vy:-2600.237793,vz:-722.939453,tb:-0.000026902105
$newmeas,x:-15635442.897555,y:-1051098.644298,z:21309288.032988,vx:-862.230591,vy:-2600.249023,vz:-722.903015,tb:-0.000026902104
$pseudo_cd_ph,prn:3,pseudo_cd_ph:3.382650604696
measnum = 1,full_prange = 22241759.935314
$oldmeas,msRange:74.403049,x:-20496545.297863,y:8399332.639456,z:14553859.211528,vx:1044.884155,vy:-1550.796997,vz:2368.574707,tb:0.000187157652
$newmeas,x:-20496622.818083,y:8399447.693111,z:14553683.484877,vx:1044.876465,vy:-1550.775757,vz:2368.597656,tb:0.000187157652
$pseudo_cd_ph,prn:6,pseudo_cd_ph:5.754855636045
measnum = 2,full_prange = 21532554.063439
$oldmeas,msRange:72.036171,x:6020152.760849,y:25493820.633248,z:4313168.108562,vx:-402.073486,vy:-431.730438,vz:3147.902100,tb:0.000193706521
$newmeas,x:6020181.639314,y:25493851.641329,z:4312942.010674,vx:-402.062042,vy:-431.705353,vz:3147.908691,tb:0.000193706522
$pseudo_cd_ph,prn:17,pseudo_cd_ph:5.950140683649
measnum = 3,full_prange = 21434547.984638
$oldmeas,msRange:71.709981,x:-531699.362228,y:15093016.689138,z:22262285.163528,vx:-2649.508057,vy:-621.405090,vz:356.245514,tb:0.000062078483
$newmeas,x:-531509.928022,y:15093061.118735,z:22262259.691536,vx:-2649.502197,vy:-621.416382,vz:356.278107,tb:0.000062078482
$pseudo_cd_ph,prn:19,pseudo_cd_ph:5.281062486934
measnum = 4,full_prange = 21522501.976226
$oldmeas,msRange:72.002922,x:7669921.765785,y:15835621.912200,z:19568312.203615,vx:-2476.722900,vy:-607.752441,vz:1447.591919,tb:-0.000313616782
$newmeas,x:7670099.572475,y:15835665.543815,z:19568208.277949,vx:-2476.707275,vy:-607.759521,vz:1447.622681,tb:-0.000313616782
$pseudo_cd_ph,prn:22,pseudo_cd_ph:17.845916002261
measnum = 5,full_prange = 23633249.055736
$oldmeas,msRange:79.045182,x:-18672879.573528,y:1273038.955276,z:19053358.061602,vx:1271.796875,vy:-2025.415161,vz:1406.893311,tb:-0.000708068865
$newmeas,x:-18672979.831877,y:1273198.622233,z:19053247.152099,vx:1271.797241,vy:-2025.398926,vz:1406.924805,tb:-0.000708068864
$pseudo_cd_ph,prn:28,pseudo_cd_ph:9.647980079390
measnum = 6,full_prange = 20537533.439274
$oldmeas,msRange:68.718144,x:-10650953.809980,y:21582434.496559,z:11944347.030289,vx:-1123.185181,vy:877.170044,vz:-2716.576416,tb:0.000767799440
$newmeas,x:-10650876.864562,y:21582374.404905,z:11944533.131060,vx:-1123.204956,vy:877.181335,vz:-2716.559570,tb:0.000767799440
$pseudo_cd_ph,prn:30,pseudo_cd_ph:17.662441130607
measnum = 7,full_prange = 23866665.422129
$oldmeas,msRange:79.824467,x:-3051817.052091,y:22740837.482184,z:-13186870.171655,vx:-769.920044,vy:-1531.923340,vz:-2478.264893,tb:-0.000112950543
$newmeas,x:-3051755.758824,y:22740959.438750,z:-13186672.874537,vx:-769.906189,vy:-1531.902954,vz:-2478.287354,tb:-0.000112950542
$GNGGA,074439.598,2944.9053,N,10633.0874,E,1,11,1.3,325.3,M,,,,0000*15
$GNRMC,074439.598,A,2944.9053,N,10633.0874,E,0.29,0.00,280519,,*10
$GPGSA,A,3,,,,,,,,,,,,,2.2,1.3,1.7*36
$BDGSA,A,3,01,02,04,07,08,10,12,13,19,24,26,,2.2,1.3,1.7*25
$GLGSA,A,3,,,,,,,,,,,,,2.2,1.3,1.7*2A
$GPGSV,2,1,08,01,00,000,33,03,00,000,41,06,00,000,45,17,00,000,45*75
$GPGSV,2,2,08,19,00,000,43,22,00,000,42,28,00,000,44,30,00,000,39*7B
$BDGSV,3,1,12,01,00,000,41,02,00,000,37,04,00,000,40,05,00,000,31*6C
$BDGSV,3,2,12,07,00,000,42,08,00,000,43,10,00,000,43,12,00,000,42*67
$BDGSV,3,3,12,13,00,000,44,19,00,000,44,24,00,000,40,26,00,000,45*66
$B3CN0,0,0,0,0,0,0,0,0,0,0,0,0,0,0*4C
$ini_pos,lastpos_good = 1,ini_pos.x:-1578907.055968,ini_pos.y:5312775.149467,ini_pos.z:3146353.276487
$rtc_local_time,localRTC.weeks:2055,localRTC.seconds:200698.428408,localGtime.weeks:2055,localGtime.seconds:200699.000000
$pseudo_cd_ph,prn:1,pseudo_cd_ph:0.476243161736
measnum = 0,full_prange = 23832519.829598
$oldmeas,msRange:0.000000,x:-15636138.668761,y:-1053196.728023,z:21308704.576107,vx:-862.331970,vy:-2600.133789,vz:-723.273376,tb:-0.000026902112
$newmeas,x:-15636070.116586,y:-1052990.025437,z:21308762.072523,vx:-862.322021,vy:-2600.145264,vz:-723.236877,tb:-0.000026902112
$pseudo_cd_ph,prn:3,pseudo_cd_ph:5.784367461591
measnum = 1,full_prange = 22305357.699702
$oldmeas,msRange:74.403310,x:-20495784.998240,y:8398204.181934,z:14555582.536721,vx:1044.959595,vy:-1551.006226,vz:2368.347900,tb:0.000187157651
$newmeas,x:-20495862.745728,y:8398319.580135,z:14555406.324470,vx:1044.951782,vy:-1550.984863,vz:2368.371094,tb:0.000187157651
$pseudo_cd_ph,prn:6,pseudo_cd_ph:8.158836551193
measnum = 2,full_prange = 21595473.079990
$oldmeas,msRange:72.035230,x:6019860.164462,y:25493506.407833,z:4315458.541352,vx:-402.189331,vy:-431.984314,vz:3147.835205,tb:0.000193706514
$newmeas,x:6019889.135655,y:25493537.524808,z:4315231.787615,vx:-402.177856,vy:-431.959198,vz:3147.841797,tb:0.000193706514
$pseudo_cd_ph,prn:17,pseudo_cd_ph:8.352803048500
measnum = 3,full_prange = 21497862.295357
$oldmeas,msRange:71.709754,x:-533627.202921,y:15092564.587943,z:22262544.252057,vx:-2649.568115,vy:-621.290344,vz:355.913879,tb:0.000062078491
$newmeas,x:-533437.204849,y:15092609.140549,z:22262518.728603,vx:-2649.562256,vy:-621.301636,vz:355.946564,tb:0.000062078490
$pseudo_cd_ph,prn:19,pseudo_cd_ph:7.684488798050
measnum = 4,full_prange = 21585587.257708
$oldmeas,msRange:72.002305,x:7668119.610903,y:15835179.729359,z:19569365.378254,vx:-2476.879639,vy:-607.680298,vz:1447.280518,tb:-0.000313616780
$newmeas,x:7668297.950059,y:15835223.483672,z:19569261.170389,vx:-2476.864014,vy:-607.687439,vz:1447.311279,tb:-0.000313616781
$pseudo_cd_ph,prn:22,pseudo_cd_ph:0.246415303250
measnum = 5,full_prange = 23697211.830074
$oldmeas,msRange:79.046097,x:-18671954.197549,y:1271565.180789,z:19054381.631170,vx:1271.793945,vy:-2025.564575,vz:1406.603271,tb:-0.000708068868
$newmeas,x:-18672054.727010,y:1271725.291688,z:19054270.444419,vx:1271.794312,vy:-2025.548340,vz:1406.634766,tb:-0.000708068867
$pseudo_cd_ph,prn:28,pseudo_cd_ph:12.050087855126
measnum = 6,full_prange = 20601014.010791
$oldmeas,msRange:68.718181,x:-10651770.978230,y:21583072.693956,z:11942370.346617,vx:-1122.973999,vy:877.049988,vz:-2716.755127,tb:0.000767799443
$newmeas,x:-10651693.809482,y:21583012.424808,z:11942557.034890,vx:-1122.993896,vy:877.061340,vz:-2716.738281,tb:0.000767799443
$pseudo_cd_ph,prn:30,pseudo_cd_ph:0.061743220742
measnum = 7,full_prange = 23930987.112751
$oldmeas,msRange:79.825933,x:-3052377.302660,y:22739722.765809,z:-13188673.316426,vx:-770.046692,vy:-1532.109497,vz:-2478.058350,tb:-0.000112950549
$newmeas,x:-3052315.834099,y:22739845.065910,z:-13188475.504057,vx:-770.032776,vy:-1532.089111,vz:-2478.081055,tb:-0.000112950548
$GNGGA,074441.000,2944.9088,N,10633.0909,E,1,11,1.3,326.3,M,,,,0000*10
$GNRMC,074441.000,A,2944.9088,N,10633.0909,E,0.18,0.00,280519,,*14
$GPGSA,A,3,,,,,,,,,,,,,2.2,1.3,1.7*36
$BDGSA,A,3,01,02,04,07,08,10,12,13,19,24,26,,2.2,1.3,1.7*25
$GLGSA,A,3,,,,,,,,,,,,,2.2,1.3,1.7*2A
$GPGSV,3,1,10,01,17,042,35,03,35,071,41,06,45,240,44,17,53,342,44*7F
$GPGSV,3,2,10,19,42,311,44,22,21,052,42,28,77,109,43,30,16,188,39*7C
$GPGSV,3,3,10,02,09,234,00,11,09,059,00*73
$BDGSV,3,1,12,01,40,126,41,02,47,220,38,04,23,109,39,05,28,245,36*68
$BDGSV,3,2,12,07,53,153,42,08,71,342,43,10,79,201,42,12,36,290,41*64
$BDGSV,3,3,12,13,62,264,43,19,29,102,43,24,26,307,40,26,50,247,44*6F
$B3CN0,18,0,0,0,0,0,0,0,0,0,0,0,0,0*75
$ini_pos,lastpos_good = 1,ini_pos.x:-1578911.854771,ini_pos.y:5312771.313164,ini_pos.z:3146359.462342
$rtc_local_time,localRTC.weeks:2055,localRTC.seconds:200699.428408,localGtime.weeks:2055,localGtime.seconds:200700.000000
$pseudo_cd_ph,prn:1,pseudo_cd_ph:0.474755399971
measnum = 0,full_prange = 23832956.179032
$oldmeas,msRange:0.000000,x:-15637001.063544,y:-1055796.790333,z:21307981.073296,vx:-862.457642,vy:-2599.990967,vz:-723.732300,tb:-0.000026902123
$newmeas,x:-15636932.500125,y:-1055590.095321,z:21308038.607250,vx:-862.447632,vy:-2600.002197,vz:-723.695801,tb:-0.000026902122
$pseudo_cd_ph,prn:3,pseudo_cd_ph:5.784711313854
measnum = 1,full_prange = 22305244.954647
$oldmeas,msRange:74.403657,x:-20494739.986946,y:8396653.031975,z:14557950.728633,vx:1045.063110,vy:-1551.293823,vz:2368.036133,tb:0.000187157649
$newmeas,x:-20494817.741746,y:8396768.450986,z:14557774.540462,vx:1045.055420,vy:-1551.272339,vz:2368.059326,tb:0.000187157649
$pseudo_cd_ph,prn:6,pseudo_cd_ph:8.160793800391
measnum = 2,full_prange = 21594876.635695
$oldmeas,msRange:72.033996,x:6019457.895503,y:25493074.249056,z:4318606.330383,vx:-402.348602,vy:-432.333252,vz:3147.743164,tb:0.000193706503
$newmeas,x:6019486.877368,y:25493105.390306,z:4318379.589535,vx:-402.337128,vy:-432.308105,vz:3147.749756,tb:0.000193706504
$pseudo_cd_ph,prn:17,pseudo_cd_ph:8.353823895795
measnum = 3,full_prange = 21497546.588635
$oldmeas,msRange:71.709425,x:-536276.812298,y:15091943.376518,z:22262899.938038,vx:-2649.650635,vy:-621.132568,vz:355.458099,tb:0.000062078502
$newmeas,x:-536086.811101,y:15091987.917158,z:22262874.447642,vx:-2649.644775,vy:-621.143860,vz:355.490784,tb:0.000062078501
$pseudo_cd_ph,prn:19,pseudo_cd_ph:7.686050400123
measnum = 4,full_prange = 21585109.440502
$oldmeas,msRange:72.001448,x:7665642.623588,y:15834572.098668,z:19570812.444668,vx:-2477.095215,vy:-607.581116,vz:1446.852417,tb:-0.000313616779
$newmeas,x:7665820.974314,y:15834615.844872,z:19570708.269930,vx:-2477.079590,vy:-607.588257,vz:1446.883301,tb:-0.000313616779
$pseudo_cd_ph,prn:22,pseudo_cd_ph:0.245888457387
measnum = 5,full_prange = 23697360.105970
$oldmeas,msRange:79.047311,x:-18670682.405706,y:1269539.513641,z:19055788.035062,vx:1271.789795,vy:-2025.769897,vz:1406.204590,tb:-0.000708068872
$newmeas,x:-18670782.935470,y:1269699.641771,z:19055676.879130,vx:1271.790161,vy:-2025.753662,vz:1406.236084,tb:-0.000708068872
$pseudo_cd_ph,prn:28,pseudo_cd_ph:12.050707551391
measnum = 6,full_prange = 20600818.569431
$oldmeas,msRange:68.718267,x:-10652893.807109,y:21583949.661414,z:11939653.468887,vx:-1122.683838,vy:876.884949,vz:-2717.000488,tb:0.000767799446
$newmeas,x:-10652816.659033,y:21583889.404177,z:11939840.172254,vx:-1122.703735,vy:876.896301,vz:-2716.983643,tb:0.000767799446
$pseudo_cd_ph,prn:30,pseudo_cd_ph:0.060365522129
measnum = 7,full_prange = 23931390.467698
$oldmeas,msRange:79.828034,x:-3053147.436339,y:22738190.528472,z:-13191151.232965,vx:-770.220703,vy:-1532.365234,vz:-2477.774658,tb:-0.000112950557
$newmeas,x:-3053085.952849,y:22738312.851054,z:-13190953.439909,vx:-770.206848,vy:-1532.344849,vz:-2477.797363,tb:-0.000112950556
$GNGGA,074442.000,2944.9087,N,10633.0908,E,1,12,1.1,325.6,M,,,,0000*1A
$GNRMC,074442.000,A,2944.9087,N,10633.0908,E,0.30,0.00,280519,,*13
$GPGSA,A,3,,,,,,,,,,,,,1.9,1.1,1.5*3E
$BDGSA,A,3,01,02,04,05,07,08,10,12,13,19,24,26,1.9,1.1,1.5*28
$GLGSA,A,3,,,,,,,,,,,,,1.9,1.1,1.5*22
$GPGSV,3,1,10,01,17,042,35,03,35,071,41,06,45,240,44,17,53,342,44*7F
$GPGSV,3,2,10,19,42,311,44,22,21,052,42,28,77,109,44,30,16,188,39*7B
$GPGSV,3,3,10,02,09,234,00,11,09,059,00*73
$BDGSV,3,1,12,01,40,126,41,02,47,220,40,04,23,109,40,05,28,245,34*6B
$BDGSV,3,2,12,07,53,153,42,08,71,342,43,10,79,201,42,12,36,290,41*64
$BDGSV,3,3,12,13,62,264,43,19,29,102,43,24,26,307,40,26,50,247,44*6F
$B3CN0,0,0,0,0,0,0,0,0,0,0,0,0,0,0*4C
$ini_pos,lastpos_good = 1,ini_pos.x:-1578911.506566,ini_pos.y:5312770.834647,ini_pos.z:3146358.896980
$rtc_local_time,localRTC.weeks:2055,localRTC.seconds:200700.428408,localGtime.weeks:2055,localGtime.seconds:200701.000000
$pseudo_cd_ph,prn:1,pseudo_cd_ph:0.473278340240
measnum = 0,full_prange = 23833389.320976
$oldmeas,msRange:0.000000,x:-15637863.583949,y:-1058396.709739,z:21307257.111563,vx:-862.583252,vy:-2599.847900,vz:-724.191223,tb:-0.000026902134
$newmeas,x:-15637795.009299,y:-1058190.022333,z:21307314.683046,vx:-862.573242,vy:-2599.859375,vz:-724.154724,tb:-0.000026902133
$pseudo_cd_ph,prn:3,pseudo_cd_ph:5.785056769557
measnum = 1,full_prange = 22305131.718194
$oldmeas,msRange:74.404029,x:-20493694.872130,y:8395101.594497,z:14560318.608829,vx:1045.166626,vy:-1551.581299,vz:2367.724365,tb:0.000187157648
$newmeas,x:-20493772.634235,y:8395217.034313,z:14560142.444747,vx:1045.158936,vy:-1551.559937,vz:2367.747559,tb:0.000187157648
$pseudo_cd_ph,prn:6,pseudo_cd_ph:8.162756277552
measnum = 2,full_prange = 21594278.636794
$oldmeas,msRange:72.032748,x:6019055.467254,y:25492641.741376,z:4321754.027387,vx:-402.507935,vy:-432.682129,vz:3147.651123,tb:0.000193706493
$newmeas,x:6019084.459792,y:25492672.906894,z:4321527.299449,vx:-402.496429,vy:-432.657013,vz:3147.657715,tb:0.000193706494
$pseudo_cd_ph,prn:17,pseudo_cd_ph:8.354848941866
measnum = 3,full_prange = 21497229.622147
$oldmeas,msRange:71.709111,x:-538926.504136,y:15091322.322848,z:22263255.168219,vx:-2649.733154,vy:-620.974792,vz:355.002289,tb:0.000062078512
$newmeas,x:-538736.499829,y:15091366.851518,z:22263229.710884,vx:-2649.727295,vy:-620.986145,vz:355.034973,tb:0.000062078511
$pseudo_cd_ph,prn:19,pseudo_cd_ph:7.687615895201
measnum = 4,full_prange = 21584630.443940
$oldmeas,msRange:72.000595,x:7663165.420789,y:15833964.567161,z:19572259.083012,vx:-2477.310547,vy:-607.481934,vz:1446.424316,tb:-0.000313616777
$newmeas,x:7663343.783069,y:15834008.305252,z:19572154.941407,vx:-2477.295166,vy:-607.489075,vz:1446.455200,tb:-0.000313616777
$pseudo_cd_ph,prn:22,pseudo_cd_ph:0.245364385849
measnum = 5,full_prange = 23697507.550957
$oldmeas,msRange:79.048555,x:-18669410.618018,y:1267513.641207,z:19057194.040250,vx:1271.785645,vy:-2025.975098,vz:1405.805908,tb:-0.000708068876
$newmeas,x:-18669511.148078,y:1267673.786559,z:19057082.915144,vx:1271.786011,vy:-2025.958862,vz:1405.837402,tb:-0.000708068876
$pseudo_cd_ph,prn:28,pseudo_cd_ph:12.051329499932
measnum = 6,full_prange = 20600622.449047
$oldmeas,msRange:68.718361,x:-10654016.345831,y:21584826.463823,z:11936936.345749,vx:-1122.393677,vy:876.719910,vz:-2717.245850,tb:0.000767799450
$newmeas,x:-10653939.218428,y:21584766.218503,z:11937123.064201,vx:-1122.413574,vy:876.731262,vz:-2717.229004,tb:0.000767799450
$pseudo_cd_ph,prn:30,pseudo_cd_ph:0.058995915298
measnum = 7,full_prange = 23931791.401393
$oldmeas,msRange:79.830113,x:-3053917.744079,y:22736658.035376,z:-13193628.865764,vx:-770.394775,vy:-1532.620972,vz:-2477.490967,tb:-0.000112950565
$newmeas,x:-3053856.245662,y:22736780.380422,z:-13193431.092047,vx:-770.380920,vy:-1532.600586,vz:-2477.513672,tb:-0.000112950565
$GNGGA,074443.000,2944.9085,N,10633.0907,E,1,12,1.1,324.7,M,,,,0000*16
$GNRMC,074443.000,A,2944.9085,N,10633.0907,E,0.20,0.00,280519,,*1E
$GPGSA,A,3,,,,,,,,,,,,,1.9,1.1,1.5*3E
$BDGSA,A,3,01,02,04,05,07,08,10,12,13,19,24,26,1.9,1.1,1.5*28
$GLGSA,A,3,,,,,,,,,,,,,1.9,1.1,1.5*22
$GPGSV,3,1,10,01,17,042,35,03,35,071,41,06,45,240,44,17,53,342,43*78
$GPGSV,3,2,10,19,42,311,43,22,21,052,41,28,77,109,43,30,16,188,39*78
$GPGSV,3,3,10,02,09,234,00,11,09,059,00*73
$BDGSV,3,1,12,01,40,126,41,02,47,220,39,04,23,109,40,05,28,245,34*65
$BDGSV,3,2,12,07,53,153,41,08,71,342,43,10,79,201,43,12,36,290,41*66
$BDGSV,3,3,12,13,62,264,43,19,29,102,42,24,26,307,40,26,50,247,44*6E
$B3CN0,0,0,0,0,0,0,0,0,0,0,0,0,0,0*4C
$ini_pos,lastpos_good = 1,ini_pos.x:-1578911.205035,ini_pos.y:5312770.413535,ini_pos.z:3146358.056806
$rtc_local_time,localRTC.weeks:2055,localRTC.seconds:200701.428408,localGtime.weeks:2055,localGtime.seconds:200702.000000
$pseudo_cd_ph,prn:1,pseudo_cd_ph:200701920.471806555986
measnum = 0,full_prange = 23833820.881512
$oldmeas,msRange:0.000000,x:-15638726.229941,y:-1060996.486180,z:21306532.690923,vx:-862.708801,vy:-2599.705078,vz:-724.650085,tb:-0.000026902144
$newmeas,x:-15638657.644066,y:-1060789.806400,z:21306590.299931,vx:-862.698792,vy:-2599.716309,vz:-724.613647,tb:-0.000026902143
$pseudo_cd_ph,prn:3,pseudo_cd_ph:200701925.785393327475
measnum = 1,full_prange = 22305021.153159
$oldmeas,msRange:74.404402,x:-20492649.653851,y:8393549.869509,z:14562686.177261,vx:1045.270020,vy:-1551.868774,vz:2367.412598,tb:0.000187157646
$newmeas,x:-20492727.423266,y:8393665.330144,z:14562510.037249,vx:1045.262329,vy:-1551.847412,vz:2367.435791,tb:0.000187157646
$pseudo_cd_ph,prn:6,pseudo_cd_ph:200701928.164713859558
measnum = 2,full_prange = 21593682.094219
$oldmeas,msRange:72.031499,x:6018652.879671,y:25492208.884822,z:4324901.632298,vx:-402.667267,vy:-433.031006,vz:3147.558838,tb:0.000193706482
$newmeas,x:6018681.882887,y:25492240.074607,z:4324674.917259,vx:-402.655792,vy:-433.005859,vz:3147.565674,tb:0.000193706483
$pseudo_cd_ph,prn:17,pseudo_cd_ph:200701928.355870515108
measnum = 3,full_prange = 21496913.700998
$oldmeas,msRange:71.708797,x:-541576.278373,y:15090701.426954,z:22263609.942594,vx:-2649.815430,vy:-620.817017,vz:354.546478,tb:0.000062078523
$newmeas,x:-541386.270952,y:15090745.943656,z:22263584.518318,vx:-2649.809570,vy:-620.828308,vz:354.579163,tb:0.000062078522
$pseudo_cd_ph,prn:19,pseudo_cd_ph:200701927.689173936844
measnum = 4,full_prange = 21584153.689941
$oldmeas,msRange:71.999744,x:7660688.002559,y:15833357.134879,z:19573705.293253,vx:-2477.526123,vy:-607.382690,vz:1445.996216,tb:-0.000313616776
$newmeas,x:7660866.376408,y:15833400.864859,z:19573601.184772,vx:-2477.510498,vy:-607.389832,vz:1446.027100,tb:-0.000313616776
$pseudo_cd_ph,prn:22,pseudo_cd_ph:200701920.244836568832
measnum = 5,full_prange = 23697656.121693
$oldmeas,msRange:79.049800,x:-18668138.834535,y:1265487.563518,z:19058599.646706,vx:1271.781372,vy:-2026.180420,vz:1405.407104,tb:-0.000708068880
$newmeas,x:-18668239.364891,y:1265647.726098,z:19058488.552423,vx:1271.781738,vy:-2026.164185,vz:1405.438599,tb:-0.000708068880
$pseudo_cd_ph,prn:28,pseudo_cd_ph:200701932.051945805550
measnum = 6,full_prange = 20600428.017285
$oldmeas,msRange:68.718455,x:-10655138.594401,y:21585703.101125,z:11934218.977259,vx:-1122.103516,vy:876.554749,vz:-2717.491211,tb:0.000767799454
$newmeas,x:-10655061.487663,y:21585642.867721,z:11934405.710805,vx:-1122.123413,vy:876.566101,vz:-2717.474365,tb:0.000767799453
$pseudo_cd_ph,prn:30,pseudo_cd_ph:200701920.057622313499
measnum = 7,full_prange = 23932193.523378
$oldmeas,msRange:79.832191,x:-3054688.225903,y:22735125.286571,z:-13196106.214771,vx:-770.568909,vy:-1532.876709,vz:-2477.207275,tb:-0.000112950574
$newmeas,x:-3054626.712555,y:22735247.654084,z:-13195908.460388,vx:-770.554993,vy:-1532.856323,vz:-2477.229736,tb:-0.000112950573
$GNGGA,074444.000,2944.9077,N,10633.0900,E,1,20,99.0,322.6,M,,,,0000*2D
$GNRMC,074444.000,A,2944.9077,N,10633.0900,E,0.65,0.00,280519,,*12
$GPGSA,A,3,01,03,06,17,19,22,28,30,,,,,99.0,99.0,99.0*01
$BDGSA,A,3,01,02,04,05,07,08,10,12,13,19,24,26,99.0,99.0,99.0*14
$GLGSA,A,3,,,,,,,,,,,,,99.0,99.0,99.0*1E
$GPGSV,3,1,11,01,17,042,36,03,35,071,41,06,45,240,44,17,53,342,44*7D
$GPGSV,3,2,11,19,42,311,43,22,21,052,42,28,77,109,43,30,16,188,39*7A
$GPGSV,3,3,11,24,00,000,31,02,09,234,00,11,09,059,00*46
$BDGSV,3,1,12,01,40,126,40,02,47,220,39,04,23,109,39,05,28,245,35*6B
$BDGSV,3,2,12,07,53,153,42,08,71,342,42,10,79,201,42,12,36,290,41*65
$BDGSV,3,3,12,13,62,264,43,19,29,102,43,24,26,307,39,26,50,247,44*61
$B3CN0,0,0,0,0,0,0,0,27,0,0,0,0,0,0*79
$ini_pos,lastpos_good = 1,ini_pos.x:-1578909.873435,ini_pos.y:5312769.695729,ini_pos.z:3146355.768345
$rtc_local_time,localRTC.weeks:2055,localRTC.seconds:200702.428408,localGtime.weeks:2055,localGtime.seconds:200703.000000
$pseudo_cd_ph,prn:1,pseudo_cd_ph:200702920.470338702202
measnum = 0,full_prange = 23834251.262692
$oldmeas,msRange:0.000000,x:-15639589.001488,y:-1063596.119597,z:21305807.811394,vx:-862.834351,vy:-2599.562012,vz:-725.109009,tb:-0.000026902155
$newmeas,x:-15639520.404394,y:-1063389.447457,z:21305865.457925,vx:-862.824341,vy:-2599.573242,vz:-725.072510,tb:-0.000026902154
$pseudo_cd_ph,prn:3,pseudo_cd_ph:200702925.785732358694
measnum = 1,full_prange = 22304909.846560
$oldmeas,msRange:74.404780,x:-20491604.332167,y:8391997.857022,z:14565053.433877,vx:1045.373413,vy:-1552.156250,vz:2367.100830,tb:0.000187157645
$newmeas,x:-20491682.108885,y:8392113.338470,z:14564877.317945,vx:1045.365723,vy:-1552.134888,vz:2367.124023,tb:0.000187157645
$pseudo_cd_ph,prn:6,pseudo_cd_ph:200702928.166672140360
measnum = 2,full_prange = 21593085.346150
$oldmeas,msRange:72.030251,x:6018250.132710,y:25491775.679426,z:4328049.145048,vx:-402.826691,vy:-433.379822,vz:3147.466797,tb:0.000193706472
$newmeas,x:6018279.146605,y:25491806.893474,z:4327822.442915,vx:-402.815186,vy:-433.354706,vz:3147.473389,tb:0.000193706473
$pseudo_cd_ph,prn:17,pseudo_cd_ph:200702928.356894075871
measnum = 3,full_prange = 21496597.181235
$oldmeas,msRange:71.708488,x:-544226.134945,y:15090080.688859,z:22263964.261156,vx:-2649.897705,vy:-620.659180,vz:354.090668,tb:0.000062078533
$newmeas,x:-544036.124420,y:15090125.193589,z:22263938.869938,vx:-2649.891846,vy:-620.670532,vz:354.123352,tb:0.000062078533
$pseudo_cd_ph,prn:19,pseudo_cd_ph:200702927.690734684467
measnum = 4,full_prange = 21583676.122902
$oldmeas,msRange:71.998894,x:7658210.368955,y:15832749.801864,z:19575151.075360,vx:-2477.741455,vy:-607.283386,vz:1445.568115,tb:-0.000313616774
$newmeas,x:7658388.754362,y:15832793.523728,z:19575047.000007,vx:-2477.725830,vy:-607.290527,vz:1445.598877,tb:-0.000313616774
$pseudo_cd_ph,prn:22,pseudo_cd_ph:200702920.244306355715
measnum = 5,full_prange = 23697805.407189
$oldmeas,msRange:79.051051,x:-18666867.055308,y:1263461.280607,z:19060004.854401,vx:1271.777100,vy:-2026.385620,vz:1405.008301,tb:-0.000708068885
$newmeas,x:-18666967.585958,y:1263621.460417,z:19059893.790940,vx:1271.777466,vy:-2026.369385,vz:1405.039917,tb:-0.000708068884
$pseudo_cd_ph,prn:28,pseudo_cd_ph:200702932.052562564611
measnum = 6,full_prange = 20600233.451506
$oldmeas,msRange:68.718554,x:-10656260.552824,y:21586579.573261,z:11931501.363469,vx:-1121.813354,vy:876.389587,vz:-2717.736572,tb:0.000767799457
$newmeas,x:-10656183.466752,y:21586519.351777,z:11931688.112106,vx:-1121.833374,vy:876.400940,vz:-2717.719727,tb:0.000767799457
$pseudo_cd_ph,prn:30,pseudo_cd_ph:200702920.056251138449
measnum = 7,full_prange = 23932594.921668
$oldmeas,msRange:79.834266,x:-3055458.881837,y:22733592.282108,z:-13198583.279932,vx:-770.743042,vy:-1533.132324,vz:-2476.923340,tb:-0.000112950582
$newmeas,x:-3055397.353558,y:22733714.672081,z:-13198385.544893,vx:-770.729126,vy:-1533.111938,vz:-2476.946045,tb:-0.000112950582
$GNGGA,074445.000,2944.9079,N,10633.0902,E,1,20,0.7,321.5,M,,,,0000*17
$GNRMC,074445.000,A,2944.9079,N,10633.0902,E,0.28,0.00,280519,,*16
$GPGSA,A,3,01,03,06,17,19,22,28,30,,,,,0.8,0.7,0.4*3A
$BDGSA,A,3,01,02,04,05,07,08,10,12,13,19,24,26,0.8,0.7,0.4*2F
$GLGSA,A,3,,,,,,,,,,,,,0.8,0.7,0.4*25
$GPGSV,3,1,11,01,17,042,35,03,35,071,42,06,45,240,44,17,53,342,44*7D
$GPGSV,3,2,11,19,42,311,43,22,21,052,41,28,77,109,43,30,16,188,39*79
$GPGSV,3,3,11,24,00,000,37,02,09,234,00,11,09,059,00*40
$BDGSV,3,1,12,01,40,126,41,02,47,220,40,04,23,109,40,05,28,245,35*6A
$BDGSV,3,2,12,07,53,153,42,08,71,342,43,10,79,201,42,12,36,290,42*67
$BDGSV,3,3,12,13,62,264,43,19,29,102,43,24,26,307,40,26,50,247,44*6F
$B3CN0,0,0,0,0,0,0,0,27,0,0,0,0,0,0*79
$ini_pos,lastpos_good = 1,ini_pos.x:-1578909.768725,ini_pos.y:5312768.398154,ini_pos.z:3146355.638707
$rtc_local_time,localRTC.weeks:2055,localRTC.seconds:200703.428408,localGtime.weeks:2055,localGtime.seconds:200704.000000
$pseudo_cd_ph,prn:1,pseudo_cd_ph:200703920.468876451254
measnum = 0,full_prange = 23834679.964184
$oldmeas,msRange:0.000000,x:-15640451.898555,y:-1066195.609927,z:21305082.472993,vx:-862.959839,vy:-2599.418945,vz:-725.567871,tb:-0.000026902165
$newmeas,x:-15640383.290249,y:-1065988.945449,z:21305140.157042,vx:-862.949890,vy:-2599.430176,vz:-725.531372,tb:-0.000026902164
$pseudo_cd_ph,prn:3,pseudo_cd_ph:200703925.786076784134
measnum = 1,full_prange = 22304796.922815
$oldmeas,msRange:74.405152,x:-20490558.907137,y:8390445.557044,z:14567420.378626,vx:1045.476685,vy:-1552.443726,vz:2366.788818,tb:0.000187157643
$newmeas,x:-20490636.691149,y:8390561.059298,z:14567244.286791,vx:1045.468994,vy:-1552.422363,vz:2366.812012,tb:0.000187157643
$pseudo_cd_ph,prn:6,pseudo_cd_ph:200703928.168633490801
measnum = 2,full_prange = 21592487.677826
$oldmeas,msRange:72.029006,x:6017847.226327,y:25491342.125218,z:4331196.565571,vx:-402.986115,vy:-433.728607,vz:3147.374512,tb:0.000193706462
$newmeas,x:6017876.250903,y:25491373.363524,z:4330969.876357,vx:-402.974640,vy:-433.703491,vz:3147.381104,tb:0.000193706462
$pseudo_cd_ph,prn:17,pseudo_cd_ph:200703928.357922375202
measnum = 3,full_prange = 21496279.240886
$oldmeas,msRange:71.708174,x:-546876.073790,y:15089460.108582,z:22264318.123898,vx:-2649.979980,vy:-620.501404,vz:353.634827,tb:0.000062078544
$newmeas,x:-546686.060178,y:15089504.601338,z:22264292.765740,vx:-2649.974121,vy:-620.512695,vz:353.667511,tb:0.000062078543
$pseudo_cd_ph,prn:19,pseudo_cd_ph:200703927.692300856113
measnum = 4,full_prange = 21583196.929781
$oldmeas,msRange:71.998043,x:7655732.520031,y:15832142.568156,z:19576596.429300,vx:-2477.956543,vy:-607.184082,vz:1445.139893,tb:-0.000313616773
$newmeas,x:7655910.916977,y:15832186.281898,z:19576492.387085,vx:-2477.941162,vy:-607.191223,vz:1445.170776,tb:-0.000313616773
$pseudo_cd_ph,prn:22,pseudo_cd_ph:200703920.243778795004
measnum = 5,full_prange = 23697953.897514
$oldmeas,msRange:79.052294,x:-18665595.280387,y:1261434.792506,z:19061409.663307,vx:1271.772827,vy:-2026.590698,vz:1404.609497,tb:-0.000708068889
$newmeas,x:-18665695.811325,y:1261594.989539,z:19061298.630675,vx:1271.773193,vy:-2026.574585,vz:1404.641113,tb:-0.000708068888
$pseudo_cd_ph,prn:28,pseudo_cd_ph:200703932.053183555603
measnum = 6,full_prange = 20600037.617026
$oldmeas,msRange:68.718651,x:-10657382.221107,y:21587455.880173,z:11928783.504435,vx:-1121.523193,vy:876.224304,vz:-2717.981689,tb:0.000767799461
$newmeas,x:-10657305.155705,y:21587395.670617,z:11928970.268147,vx:-1121.543213,vy:876.235657,vz:-2717.964844,tb:0.000767799461
$pseudo_cd_ph,prn:30,pseudo_cd_ph:200703920.054883182049
measnum = 7,full_prange = 23932995.355030
$oldmeas,msRange:79.836348,x:-3056229.711906,y:22732059.022038,z:-13201060.061194,vx:-770.917175,vy:-1533.387939,vz:-2476.639404,tb:-0.000112950591
$newmeas,x:-3056168.168695,y:22732181.434462,z:-13200862.345513,vx:-770.903259,vy:-1533.367554,vz:-2476.662109,tb:-0.000112950590
$GNGGA,074446.000,2944.9083,N,10633.0904,E,1,20,0.7,321.4,M,,,,0000*16
$GNRMC,074446.000,A,2944.9083,N,10633.0904,E,0.09,0.00,280519,,*15
$GPGSA,A,3,01,03,06,17,19,22,28,30,,,,,0.8,0.7,0.4*3A
$BDGSA,A,3,01,02,04,05,07,08,10,12,13,19,24,26,0.8,0.7,0.4*2F
$GLGSA,A,3,,,,,,,,,,,,,0.8,0.7,0.4*25
$GPGSV,3,1,11,01,17,042,35,03,35,071,41,06,45,240,44,17,53,342,45*7F
$GPGSV,3,2,11,19,42,311,44,22,21,052,41,28,77,109,43,30,16,188,40*70
$GPGSV,3,3,11,24,00,000,37,02,09,234,00,11,09,059,00*40
$BDGSV,3,1,12,01,40,126,40,02,47,220,40,04,23,109,39,05,28,245,35*65
$BDGSV,3,2,12,07,53,153,42,08,71,342,43,10,79,201,42,12,36,290,41*64
$BDGSV,3,3,12,13,62,264,43,19,29,102,43,24,26,307,40,26,50,247,44*6F
$B3CN0,0,0,0,0,0,0,0,27,0,0,0,0,0,0*79
$ini_pos,lastpos_good = 1,ini_pos.x:-1578910.049343,ini_pos.y:5312767.937817,ini_pos.z:3146356.164229
$rtc_local_time,localRTC.weeks:2055,localRTC.seconds:200704.428408,localGtime.weeks:2055,localGtime.seconds:200705.000000
$pseudo_cd_ph,prn:1,pseudo_cd_ph:200704920.467409849167
measnum = 0,full_prange = 23835109.970116
$oldmeas,msRange:0.000000,x:-15641314.921109,y:-1068794.957113,z:21304356.675738,vx:-863.085327,vy:-2599.275635,vz:-726.026672,tb:-0.000026902176
$newmeas,x:-15641246.301589,y:-1068588.300288,z:21304414.397308,vx:-863.075317,vy:-2599.287109,vz:-725.990234,tb:-0.000026902175
$pseudo_cd_ph,prn:3,pseudo_cd_ph:200704925.786416620016
measnum = 1,full_prange = 22304685.374984
$oldmeas,msRange:74.405522,x:-20489513.378820,y:8388892.969587,z:14569787.011457,vx:1045.579956,vy:-1552.731201,vz:2366.477051,tb:0.000187157642
$newmeas,x:-20489591.170126,y:8389008.492651,z:14569610.943712,vx:1045.572266,vy:-1552.709839,vz:2366.500244,tb:0.000187157642
$pseudo_cd_ph,prn:6,pseudo_cd_ph:200704928.170591950417
measnum = 2,full_prange = 21591890.876150
$oldmeas,msRange:72.027759,x:6017444.160477,y:25490908.222228,z:4334343.893800,vx:-403.145599,vy:-434.077393,vz:3147.282227,tb:0.000193706451
$newmeas,x:6017473.195737,y:25490939.484790,z:4334117.217501,vx:-403.134125,vy:-434.052277,vz:3147.288818,tb:0.000193706452
$pseudo_cd_ph,prn:17,pseudo_cd_ph:200704928.358948051929
measnum = 3,full_prange = 21495962.086774
$oldmeas,msRange:71.707856,x:-549526.094843,y:15088839.686146,z:22264671.530811,vx:-2650.062256,vy:-620.343506,vz:353.179016,tb:0.000062078554
$newmeas,x:-549336.078143,y:15088884.166927,z:22264646.205711,vx:-2650.056396,vy:-620.354858,vz:353.211700,tb:0.000062078554
$pseudo_cd_ph,prn:19,pseudo_cd_ph:200704927.693862289190
measnum = 4,full_prange = 21582719.157247
$oldmeas,msRange:71.997188,x:7653254.455843,y:15831535.433796,z:19578041.355041,vx:-2478.171875,vy:-607.084717,vz:1444.711670,tb:-0.000313616771
$newmeas,x:7653432.864336,y:15831579.139418,z:19577937.345957,vx:-2478.156494,vy:-607.091858,vz:1444.742554,tb:-0.000313616771
$pseudo_cd_ph,prn:22,pseudo_cd_ph:200704920.243243932724
measnum = 5,full_prange = 23698104.576795
$oldmeas,msRange:79.053536,x:-18664323.509822,y:1259408.099248,z:19062814.073395,vx:1271.768433,vy:-2026.795898,vz:1404.210693,tb:-0.000708068893
$newmeas,x:-18664424.041053,y:1259568.313515,z:19062703.071584,vx:1271.768799,vy:-2026.779663,vz:1404.242188,tb:-0.000708068893
$pseudo_cd_ph,prn:28,pseudo_cd_ph:200704932.053799748421
measnum = 6,full_prange = 20599843.221002
$oldmeas,msRange:68.718743,x:-10658503.599255,y:21588332.021802,z:11926065.400210,vx:-1121.233154,vy:876.059021,vz:-2718.226807,tb:0.000767799464
$newmeas,x:-10658426.554515,y:21588271.824173,z:11926252.179006,vx:-1121.253052,vy:876.070374,vz:-2718.209961,tb:0.000767799464
$pseudo_cd_ph,prn:30,pseudo_cd_ph:200704920.053511947393
measnum = 7,full_prange = 23933396.771188
$oldmeas,msRange:79.838429,x:-3057000.716134,y:22730525.506411,z:-13203536.558505,vx:-771.091370,vy:-1533.643433,vz:-2476.355469,tb:-0.000112950599
$newmeas,x:-3056939.157986,y:22730647.941288,z:-13203338.862178,vx:-771.077454,vy:-1533.623047,vz:-2476.378174,tb:-0.000112950598
$GNGGA,074447.000,2944.9086,N,10633.0908,E,1,20,0.7,321.6,M,,,,0000*1C
$GNRMC,074447.000,A,2944.9086,N,10633.0908,E,0.24,0.00,280519,,*12
$GPGSA,A,3,01,03,06,17,19,22,28,30,,,,,0.8,0.7,0.4*3A
$BDGSA,A,3,01,02,04,05,07,08,10,12,13,19,24,26,0.8,0.7,0.4*2F
$GLGSA,A,3,,,,,,,,,,,,,0.8,0.7,0.4*25
$GPGSV,3,1,11,01,17,042,35,03,35,071,42,06,45,240,45,17,53,342,45*7D
$GPGSV,3,2,11,19,42,311,44,22,21,052,41,28,77,109,44,30,16,188,40*77
$GPGSV,3,3,11,24,00,000,37,02,09,234,00,11,09,059,00*40
$BDGSV,3,1,12,01,40,126,41,02,47,220,41,04,23,109,39,05,28,245,36*66
$BDGSV,3,2,12,07,53,153,42,08,71,342,43,10,79,201,42,12,36,290,41*64
$BDGSV,3,3,12,13,62,264,43,19,29,102,44,24,26,307,40,26,50,247,44*68
$B3CN0,18,0,0,0,0,0,0,27,0,0,0,0,0,0*40
$ini_pos,lastpos_good = 1,ini_pos.x:-1578910.622614,ini_pos.y:5312767.634228,ini_pos.z:3146356.824659
$rtc_local_time,localRTC.weeks:2055,localRTC.seconds:200705.428408,localGtime.weeks:2055,localGtime.seconds:200706.000000
$pseudo_cd_ph,prn:1,pseudo_cd_ph:200705920.465940982103
measnum = 0,full_prange = 23835540.655070
$oldmeas,msRange:0.000000,x:-15642178.069116,y:-1071394.161091,z:21303630.419645,vx:-863.210754,vy:-2599.132324,vz:-726.485535,tb:-0.000026902186
$newmeas,x:-15642109.438383,y:-1071187.511921,z:21303688.178738,vx:-863.200806,vy:-2599.143799,vz:-726.449036,tb:-0.000026902186
$pseudo_cd_ph,prn:3,pseudo_cd_ph:200705925.786752253771
measnum = 1,full_prange = 22304575.086920
$oldmeas,msRange:74.405891,x:-20488467.747276,y:8387340.094660,z:14572153.332322,vx:1045.683228,vy:-1553.018677,vz:2366.165039,tb:0.000187157640
$newmeas,x:-20488545.545875,y:8387455.638540,z:14571977.288658,vx:1045.675537,vy:-1552.997314,vz:2366.188232,tb:0.000187157640
$pseudo_cd_ph,prn:6,pseudo_cd_ph:200705928.172549366951
measnum = 2,full_prange = 21591294.387182
$oldmeas,msRange:72.026512,x:6017040.935116,y:25490473.970488,z:4337491.129667,vx:-403.305145,vy:-434.426117,vz:3147.189697,tb:0.000193706441
$newmeas,x:6017069.981063,y:25490505.257302,z:4337264.466284,vx:-403.293640,vy:-434.401001,vz:3147.196533,tb:0.000193706442
$pseudo_cd_ph,prn:17,pseudo_cd_ph:200705928.359971791506
measnum = 3,full_prange = 21495645.513404
$oldmeas,msRange:71.707538,x:-552176.198043,y:15088219.421572,z:22265024.481889,vx:-2650.144287,vy:-620.185669,vz:352.723175,tb:0.000062078565
$newmeas,x:-551986.178253,y:15088263.890378,z:22264999.189847,vx:-2650.138428,vy:-620.196960,vz:352.755859,tb:0.000062078564
$pseudo_cd_ph,prn:19,pseudo_cd_ph:200705927.695424258709
measnum = 4,full_prange = 21582241.223893
$oldmeas,msRange:71.996334,x:7650776.176447,y:15830928.398826,z:19579485.852552,vx:-2478.386963,vy:-606.985291,vz:1444.283447,tb:-0.000313616770
$newmeas,x:7650954.596480,y:15830972.096323,z:19579381.876600,vx:-2478.371582,vy:-606.992432,vz:1444.314209,tb:-0.000313616770
$pseudo_cd_ph,prn:22,pseudo_cd_ph:200705920.242709845304
measnum = 5,full_prange = 23698255.023778
$oldmeas,msRange:79.054777,x:-18663051.743665,y:1257381.200865,z:19064218.084637,vx:1271.763916,vy:-2027.000977,vz:1403.811890,tb:-0.000708068897
$newmeas,x:-18663152.275184,y:1257541.432362,z:19064107.113650,vx:1271.764282,vy:-2026.984741,vz:1403.843384,tb:-0.000708068897
$pseudo_cd_ph,prn:28,pseudo_cd_ph:200705932.054414719343
measnum = 6,full_prange = 20599649.191293
$oldmeas,msRange:68.718835,x:-10659624.687273,y:21589207.998089,z:11923347.050850,vx:-1120.942993,vy:875.893616,vz:-2718.471924,tb:0.000767799468
$newmeas,x:-10659547.663195,y:21589147.812391,z:11923533.844728,vx:-1120.962891,vy:875.904968,vz:-2718.455078,tb:0.000767799468
$pseudo_cd_ph,prn:30,pseudo_cd_ph:200705920.052143722773
measnum = 7,full_prange = 23933797.284961
$oldmeas,msRange:79.840509,x:-3057771.894547,y:22728991.735278,z:-13206012.771810,vx:-771.265564,vy:-1533.898926,vz:-2476.071289,tb:-0.000112950607
$newmeas,x:-3057710.321462,y:22729114.192600,z:-13205815.094851,vx:-771.251648,vy:-1533.878540,vz:-2476.093994,tb:-0.000112950607
$GNGGA,074448.000,2944.9088,N,10633.0909,E,1,20,0.7,321.4,M,,,,0000*1E
$GNRMC,074448.000,A,2944.9088,N,10633.0909,E,0.21,0.00,280519,,*17
$GPGSA,A,3,01,03,06,17,19,22,28,30,,,,,0.8,0.7,0.4*3A
$BDGSA,A,3,01,02,04,05,07,08,10,12,13,19,24,26,0.8,0.7,0.4*2F
$GLGSA,A,3,,,,,,,,,,,,,0.8,0.7,0.4*25
$GPGSV,3,1,11,01,17,042,35,03,35,071,42,06,45,240,45,17,53,342,45*7D
$GPGSV,3,2,11,19,42,311,44,22,21,052,41,28,77,109,44,30,16,188,40*77
$GPGSV,3,3,11,24,00,000,38,02,09,234,00,11,09,059,00*4F
$BDGSV,3,1,12,01,40,126,41,02,47,220,41,04,23,109,40,05,28,245,36*68
$BDGSV,3,2,12,07,53,153,42,08,71,342,43,10,79,201,43,12,36,290,42*66
$BDGSV,3,3,12,13,62,264,44,19,29,102,43,24,26,307,40,26,50,247,44*68
$B3CN0,18,0,0,0,0,0,0,27,0,0,0,0,0,0*40
$ini_pos,lastpos_good = 1,ini_pos.x:-1578910.674479,ini_pos.y:5312767.240284,ini_pos.z:3146356.899410
$rtc_local_time,localRTC.weeks:2055,localRTC.seconds:200706.428407,localGtime.weeks:2055,localGtime.seconds:200707.000000
$pseudo_cd_ph,prn:1,pseudo_cd_ph:200706920.464473873377
measnum = 0,full_prange = 23835970.812888
$oldmeas,msRange:0.000000,x:-15643041.342542,y:-1073993.221804,z:21302903.704731,vx:-863.336182,vy:-2598.989258,vz:-726.944336,tb:-0.000026902197
$newmeas,x:-15642972.700600,y:-1073786.580297,z:21302961.501347,vx:-863.326172,vy:-2599.000488,vz:-726.907837,tb:-0.000026902196
$pseudo_cd_ph,prn:3,pseudo_cd_ph:200706925.787091881037
measnum = 1,full_prange = 22304463.601630
$oldmeas,msRange:74.406263,x:-20487422.012562,y:8385786.932273,z:14574519.341167,vx:1045.786255,vy:-1553.306152,vz:2365.852783,tb:0.000187157639
$newmeas,x:-20487499.818446,y:8385902.496962,z:14574343.321600,vx:1045.778687,vy:-1553.284790,vz:2365.876221,tb:0.000187157639
$pseudo_cd_ph,prn:6,pseudo_cd_ph:200706928.174510210752
measnum = 2,full_prange = 21590696.870745
$oldmeas,msRange:72.025265,x:6016637.550199,y:25490039.370027,z:4340638.273105,vx:-403.464722,vy:-434.774811,vz:3147.097412,tb:0.000193706431
$newmeas,x:6016666.606835,y:25490070.681089,z:4340411.622654,vx:-403.453217,vy:-434.749725,vz:3147.104004,tb:0.000193706431
$pseudo_cd_ph,prn:17,pseudo_cd_ph:200706928.361000657082
measnum = 3,full_prange = 21495327.403299
$oldmeas,msRange:71.707222,x:-554826.383326,y:15087599.314882,z:22265376.977125,vx:-2650.226318,vy:-620.027771,vz:352.267334,tb:0.000062078576
$newmeas,x:-554636.360464,y:15087643.771709,z:22265351.718141,vx:-2650.220459,vy:-620.039062,vz:352.300018,tb:0.000062078575
$pseudo_cd_ph,prn:19,pseudo_cd_ph:200706927.696990847588
measnum = 4,full_prange = 21581761.905688
$oldmeas,msRange:71.995481,x:7648297.681897,y:15830321.463287,z:19580929.921799,vx:-2478.602295,vy:-606.885803,vz:1443.855103,tb:-0.000313616768
$newmeas,x:7648476.113455,y:15830365.152654,z:19580825.978988,vx:-2478.586670,vy:-606.893005,vz:1443.885986,tb:-0.000313616768
$pseudo_cd_ph,prn:22,pseudo_cd_ph:200706920.242174863815
measnum = 5,full_prange = 23698405.738797
$oldmeas,msRange:79.056020,x:-18661779.981966,y:1255354.097388,z:19065621.697003,vx:1271.759521,vy:-2027.206055,vz:1403.412964,tb:-0.000708068901
$newmeas,x:-18661880.513770,y:1255514.346116,z:19065510.756842,vx:1271.759888,vy:-2027.189819,vz:1403.444458,tb:-0.000708068901
$pseudo_cd_ph,prn:28,pseudo_cd_ph:200706932.055032879114
measnum = 6,full_prange = 20599454.205591
$oldmeas,msRange:68.718929,x:-10660745.485167,y:21590083.808977,z:11920628.456407,vx:-1120.652832,vy:875.728210,vz:-2718.717041,tb:0.000767799472
$newmeas,x:-10660668.481753,y:21590023.635215,z:11920815.265356,vx:-1120.672852,vy:875.739563,vz:-2718.700195,tb:0.000767799471
$pseudo_cd_ph,prn:30,pseudo_cd_ph:200706920.050777167082
measnum = 7,full_prange = 23934197.298402
$oldmeas,msRange:79.842589,x:-3058543.247169,y:22727457.708689,z:-13208488.701058,vx:-771.439758,vy:-1534.154297,vz:-2475.787354,tb:-0.000112950616
$newmeas,x:-3058481.659146,y:22727580.188451,z:-13208291.043475,vx:-771.425842,vy:-1534.133911,vz:-2475.810059,tb:-0.000112950615
$GNGGA,074449.000,2944.9089,N,10633.0910,E,1,20,0.7,321.2,M,,,,0000*10
$GNRMC,074449.000,A,2944.9089,N,10633.0910,E,0.14,0.00,280519,,*19
$GPGSA,A,3,01,03,06,17,19,22,28,30,,,,,0.8,0.7,0.4*3A
$BDGSA,A,3,01,02,04,05,07,08,10,12,13,19,24,26,0.8,0.7,0.4*2F
$GLGSA,A,3,,,,,,,,,,,,,0.8,0.7,0.4*25
$GPGSV,3,1,11,01,17,042,35,03,35,071,42,06,45,240,44,17,53,342,45*7C
$GPGSV,3,2,11,19,42,311,43,22,21,052,41,28,77,109,44,30,16,188,39*7E
$GPGSV,3,3,11,24,00,000,37,02,09,234,00,11,09,059,00*40
$BDGSV,3,1,12,01,40,126,42,02,47,220,40,04,23,109,40,05,28,245,34*68
$BDGSV,3,2,12,07,53,153,42,08,71,342,42,10,79,201,42,12,36,290,41*65
$BDGSV,3,3,12,13,62,264,43,19,29,102,44,24,26,307,39,26,50,247,44*66
$B3CN0,16,20,0,0,0,0,0,27,0,0,0,0,0,0*7C
$ini_pos,lastpos_good = 1,ini_pos.x:-1578910.739413,ini_pos.y:5312766.958532,ini_pos.z:3146356.942896
$rtc_local_time,localRTC.weeks:2055,localRTC.seconds:200707.428407,localGtime.weeks:2055,localGtime.seconds:200708.000000
$pseudo_cd_ph,prn:1,pseudo_cd_ph:200707920.463006258011
measnum = 0,full_prange = 23836401.122593
$oldmeas,msRange:0.000000,x:-15643904.741354,y:-1076592.139189,z:21302176.531015,vx:-863.461548,vy:-2598.845703,vz:-727.403137,tb:-0.000026902208
$newmeas,x:-15643836.088204,y:-1076385.505350,z:21302234.365153,vx:-863.451538,vy:-2598.857178,vz:-727.366638,tb:-0.000026902207
$pseudo_cd_ph,prn:3,pseudo_cd_ph:200707925.787432104349
measnum = 1,full_prange = 22304351.937651
$oldmeas,msRange:74.406636,x:-20486376.174738,y:8384233.482436,z:14576885.037944,vx:1045.889404,vy:-1553.593628,vz:2365.540771,tb:0.000187157637
$newmeas,x:-20486453.987901,y:8384349.067933,z:14576709.042477,vx:1045.881714,vy:-1553.572266,vz:2365.563965,tb:0.000187157637
$pseudo_cd_ph,prn:6,pseudo_cd_ph:200707928.176470845938
measnum = 2,full_prange = 21590099.416849
$oldmeas,msRange:72.024019,x:6016234.005682,y:25489604.420876,z:4343785.324049,vx:-403.624359,vy:-435.123505,vz:3147.004883,tb:0.000193706420
$newmeas,x:6016263.073009,y:25489635.756182,z:4343558.686533,vx:-403.612854,vy:-435.098389,vz:3147.011475,tb:0.000193706421
$pseudo_cd_ph,prn:17,pseudo_cd_ph:200707928.362028777599
measnum = 3,full_prange = 21495009.516557
$oldmeas,msRange:71.706906,x:-557476.650628,y:15086979.366096,z:22265729.016510,vx:-2650.308350,vy:-619.869873,vz:351.811462,tb:0.000062078586
$newmeas,x:-557286.624698,y:15087023.810943,z:22265703.790585,vx:-2650.302490,vy:-619.881165,vz:351.844147,tb:0.000062078586
$pseudo_cd_ph,prn:19,pseudo_cd_ph:200707927.698557645082
measnum = 4,full_prange = 21581282.524943
$oldmeas,msRange:71.994628,x:7645818.972249,y:15829714.627219,z:19582373.562751,vx:-2478.817139,vy:-606.786316,vz:1443.426880,tb:-0.000313616766
$newmeas,x:7645997.415326,y:15829758.308454,z:19582269.653081,vx:-2478.801758,vy:-606.793518,vz:1443.457642,tb:-0.000313616767
$pseudo_cd_ph,prn:22,pseudo_cd_ph:200707920.241641908884
measnum = 5,full_prange = 23698555.846268
$oldmeas,msRange:79.057264,x:-18660508.224775,y:1253326.788851,z:19067024.910466,vx:1271.755005,vy:-2027.411133,vz:1403.014038,tb:-0.000708068905
$newmeas,x:-18660608.756857,y:1253487.054803,z:19066914.001137,vx:1271.755371,vy:-2027.394897,vz:1403.045532,tb:-0.000708068905
$pseudo_cd_ph,prn:28,pseudo_cd_ph:200707932.055652558804
measnum = 6,full_prange = 20599258.764229
$oldmeas,msRange:68.719024,x:-10661865.992942,y:21590959.454406,z:11917909.616938,vx:-1120.362793,vy:875.562683,vz:-2718.962158,tb:0.000767799475
$newmeas,x:-10661789.010193,y:21590899.292586,z:11918096.440949,vx:-1120.382690,vy:875.574097,vz:-2718.945312,tb:0.000767799475
$pseudo_cd_ph,prn:30,pseudo_cd_ph:200707920.049410879612
measnum = 7,full_prange = 23934597.231431
$oldmeas,msRange:79.844668,x:-3059314.774025,y:22725923.426695,z:-13210964.346195,vx:-771.614014,vy:-1534.409668,vz:-2475.503174,tb:-0.000112950624
$newmeas,x:-3059253.171061,y:22726045.928893,z:-13210766.707994,vx:-771.600098,vy:-1534.389282,vz:-2475.525879,tb:-0.000112950623
$GNGGA,074450.000,2944.9089,N,10633.0911,E,1,20,0.7,321.3,M,,,,0000*18
$GNRMC,074450.000,A,2944.9089,N,10633.0911,E,0.23,0.00,280519,,*14
$GPGSA,A,3,01,03,06,17,19,22,28,30,,,,,0.8,0.7,0.4*3A
$BDGSA,A,3,01,02,04,05,07,08,10,12,13,19,24,26,0.8,0.7,0.4*2F
$GLGSA,A,3,,,,,,,,,,,,,0.8,0.7,0.4*25
$GPGSV,3,1,11,01,17,042,36,03,35,071,42,06,45,240,44,17,53,342,45*7F
$GPGSV,3,2,11,19,42,311,43,22,21,052,41,28,77,109,44,30,16,188,39*7E
$GPGSV,3,3,11,24,00,000,37,02,09,234,00,11,09,059,00*40
$BDGSV,3,1,12,01,40,126,40,02,47,220,40,04,23,109,40,05,28,245,36*68
$BDGSV,3,2,12,07,53,153,42,08,71,342,42,10,79,201,42,12,36,290,42*66
$BDGSV,3,3,12,13,62,264,43,19,29,102,44,24,26,307,40,26,50,247,44*68
$B3CN0,0,18,0,0,0,0,0,27,0,0,0,0,0,0*40
$ini_pos,lastpos_good = 1,ini_pos.x:-1578910.942005,ini_pos.y:5312766.979015,ini_pos.z:3146357.078818
$rtc_local_time,localRTC.weeks:2055,localRTC.seconds:200708.428407,localGtime.weeks:2055,localGtime.seconds:200709.000000
$pseudo_cd_ph,prn:1,pseudo_cd_ph:200708920.461540490389
measnum = 0,full_prange = 23836830.878358
$oldmeas,msRange:0.000000,x:-15644768.265517,y:-1079190.913187,z:21301448.898513,vx:-863.586853,vy:-2598.702393,vz:-727.861938,tb:-0.000026902218
$newmeas,x:-15644699.601165,y:-1078984.287026,z:21301506.770171,vx:-863.576904,vy:-2598.713867,vz:-727.825439,tb:-0.000026902217
$pseudo_cd_ph,prn:3,pseudo_cd_ph:200708925.787771284580
measnum = 1,full_prange = 22304240.586380
$oldmeas,msRange:74.407008,x:-20485330.233862,y:8382679.745159,z:14579250.422601,vx:1045.992432,vy:-1553.881104,vz:2365.228760,tb:0.000187157635
$newmeas,x:-20485408.054302,y:8382795.351464,z:14579074.451236,vx:1045.984741,vy:-1553.859619,vz:2365.251953,tb:0.000187157636
$pseudo_cd_ph,prn:6,pseudo_cd_ph:200708928.178429096937
measnum = 2,full_prange = 21589502.677715
$oldmeas,msRange:72.022771,x:6015830.301521,y:25489169.123066,z:4346932.282429,vx:-403.783997,vy:-435.472137,vz:3146.912109,tb:0.000193706410
$newmeas,x:6015859.379543,y:25489200.482614,z:4346705.657846,vx:-403.772522,vy:-435.447052,vz:3146.918945,tb:0.000193706410
$pseudo_cd_ph,prn:17,pseudo_cd_ph:200708928.363056242466
measnum = 3,full_prange = 21494691.826374
$oldmeas,msRange:71.706589,x:-560126.999886,y:15086359.575236,z:22266080.600039,vx:-2650.390381,vy:-619.711914,vz:351.355621,tb:0.000062078597
$newmeas,x:-559936.970891,y:15086404.008102,z:22266055.407171,vx:-2650.384521,vy:-619.723206,vz:351.388306,tb:0.000062078596
$pseudo_cd_ph,prn:19,pseudo_cd_ph:200708927.700123608112
measnum = 4,full_prange = 21580803.394363
$oldmeas,msRange:71.993774,x:7643340.047558,y:15829107.890663,z:19583816.775375,vx:-2479.032227,vy:-606.686829,vz:1442.998535,tb:-0.000313616765
$newmeas,x:7643518.502151,y:15829151.563763,z:19583712.898847,vx:-2479.016846,vy:-606.693970,vz:1443.029297,tb:-0.000313616765
$pseudo_cd_ph,prn:22,pseudo_cd_ph:200708920.241109848022
measnum = 5,full_prange = 23698705.685705
$oldmeas,msRange:79.058508,x:-18659236.472143,y:1251299.275286,z:19068427.724997,vx:1271.750366,vy:-2027.616089,vz:1402.615112,tb:-0.000708068910
$newmeas,x:-18659337.004499,y:1251459.558457,z:19068316.846503,vx:1271.750732,vy:-2027.599976,vz:1402.646606,tb:-0.000708068909
$pseudo_cd_ph,prn:28,pseudo_cd_ph:200708932.056271880865
measnum = 6,full_prange = 20599063.430080
$oldmeas,msRange:68.719117,x:-10662986.210605,y:21591834.934318,z:11915190.532495,vx:-1120.072632,vy:875.397156,vz:-2719.207031,tb:0.000767799479
$newmeas,x:-10662909.248520,y:21591774.784443,z:11915377.371565,vx:-1120.092529,vy:875.408569,vz:-2719.190186,tb:0.000767799479
$pseudo_cd_ph,prn:30,pseudo_cd_ph:200708920.048042625189
measnum = 7,full_prange = 23934997.754139
$oldmeas,msRange:79.846747,x:-3060086.475140,y:22724388.889348,z:-13213439.707169,vx:-771.788269,vy:-1534.665039,vz:-2475.218994,tb:-0.000112950632
$newmeas,x:-3060024.857232,y:22724511.413980,z:-13213242.088349,vx:-771.774353,vy:-1534.644653,vz:-2475.241699,tb:-0.000112950632
$GNGGA,074451.000,2944.9089,N,10633.0913,E,1,20,0.7,321.6,M,,,,0000*1E
$GNRMC,074451.000,A,2944.9089,N,10633.0913,E,0.19,0.00,280519,,*1E
$GPGSA,A,3,01,03,06,17,19,22,28,30,,,,,0.8,0.7,0.4*3A
$BDGSA,A,3,01,02,04,05,07,08,10,12,13,19,24,26,0.8,0.7,0.4*2F
$GLGSA,A,3,,,,,,,,,,,,,0.8,0.7,0.4*25
$GPGSV,3,1,11,01,17,042,35,03,35,071,42,06,45,240,45,17,53,342,45*7D
$GPGSV,3,2,11,19,42,311,44,22,21,052,41,28,77,109,43,30,16,188,39*7E
$GPGSV,3,3,11,24,00,000,38,02,09,234,00,11,09,059,00*4F
$BDGSV,3,1,12,01,40,126,41,02,47,220,40,04,23,109,40,05,28,245,36*69
$BDGSV,3,2,12,07,53,153,42,08,71,342,43,10,79,201,42,12,36,290,42*67
$BDGSV,3,3,12,13,62,264,43,19,29,102,43,24,26,307,40,26,50,247,44*6F
$B3CN0,0,0,0,0,0,0,0,27,0,0,0,0,0,0*79
$ini_pos,lastpos_good = 1,ini_pos.x:-1578911.199261,ini_pos.y:5312767.141941,ini_pos.z:3146357.305258
$rtc_local_time,localRTC.weeks:2055,localRTC.seconds:200709.428407,localGtime.weeks:2055,localGtime.seconds:200710.000000
$pseudo_cd_ph,prn:1,pseudo_cd_ph:200709920.460072845221
measnum = 0,full_prange = 23837261.196997
$oldmeas,msRange:0.000000,x:-15645631.914999,y:-1081789.543737,z:21300720.807243,vx:-863.712158,vy:-2598.558838,vz:-728.320679,tb:-0.000026902229
$newmeas,x:-15645563.239444,y:-1081582.925254,z:21300778.716423,vx:-863.702209,vy:-2598.570312,vz:-728.284180,tb:-0.000026902228
$pseudo_cd_ph,prn:3,pseudo_cd_ph:200709925.788108587265
measnum = 1,full_prange = 22304129.797983
$oldmeas,msRange:74.407380,x:-20484284.189993,y:8381125.720452,z:14581615.495088,vx:1046.095337,vy:-1554.168457,vz:2364.916504,tb:0.000187157634
$newmeas,x:-20484362.017707,y:8381241.347567,z:14581439.547824,vx:1046.087769,vy:-1554.147095,vz:2364.939697,tb:0.000187157634
$pseudo_cd_ph,prn:6,pseudo_cd_ph:200709928.180386126041
measnum = 2,full_prange = 21588906.304895
$oldmeas,msRange:72.021524,x:6015426.437671,y:25488733.476628,z:4350079.148181,vx:-403.943726,vy:-435.820770,vz:3146.819580,tb:0.000193706399
$newmeas,x:6015455.526392,y:25488764.860414,z:4349852.536530,vx:-403.932220,vy:-435.795654,vz:3146.826172,tb:0.000193706400
$pseudo_cd_ph,prn:17,pseudo_cd_ph:200709928.364083677530
measnum = 3,full_prange = 21494374.145125
$oldmeas,msRange:71.706272,x:-562777.431038,y:15085739.942323,z:22266431.727702,vx:-2650.472168,vy:-619.553955,vz:350.899750,tb:0.000062078607
$newmeas,x:-562587.398982,y:15085784.363207,z:22266406.567891,vx:-2650.466309,vy:-619.565308,vz:350.932434,tb:0.000062078607
$pseudo_cd_ph,prn:19,pseudo_cd_ph:200709927.701690286398
measnum = 4,full_prange = 21580324.049356
$oldmeas,msRange:71.992920,x:7640860.907880,y:15828501.253661,z:19585259.559640,vx:-2479.247314,vy:-606.587219,vz:1442.570068,tb:-0.000313616763
$newmeas,x:7641039.373983,y:15828544.918623,z:19585155.716256,vx:-2479.231689,vy:-606.594421,vz:1442.600952,tb:-0.000313616763
$pseudo_cd_ph,prn:22,pseudo_cd_ph:200709920.240573614836
measnum = 5,full_prange = 23698856.775973
$oldmeas,msRange:79.059752,x:-18657964.724120,y:1249271.556725,z:19069830.140567,vx:1271.745728,vy:-2027.821167,vz:1402.216187,tb:-0.000708068914
$newmeas,x:-18658065.256751,y:1249431.857122,z:19069719.292906,vx:1271.746094,vy:-2027.804932,vz:1402.247681,tb:-0.000708068914
$pseudo_cd_ph,prn:28,pseudo_cd_ph:200709932.056889683008
measnum = 6,full_prange = 20598868.551591
$oldmeas,msRange:68.719210,x:-10664106.138161,y:21592710.248655,z:11912471.203133,vx:-1119.782593,vy:875.231567,vz:-2719.451904,tb:0.000767799482
$newmeas,x:-10664029.196737,y:21592650.110727,z:11912658.057262,vx:-1119.802490,vy:875.242920,vz:-2719.435059,tb:0.000767799482
$pseudo_cd_ph,prn:30,pseudo_cd_ph:200709920.046677410603
measnum = 7,full_prange = 23935397.365526
$oldmeas,msRange:79.848826,x:-3060858.350539,y:22722854.096696,z:-13215914.783926,vx:-771.962585,vy:-1534.920288,vz:-2474.934814,tb:-0.000112950641
$newmeas,x:-3060796.717686,y:22722976.643756,z:-13215717.184500,vx:-771.948669,vy:-1534.899902,vz:-2474.957520,tb:-0.000112950640
$GNGGA,074452.000,2944.9089,N,10633.0913,E,1,20,0.7,321.6,M,,,,0000*1D
$GNRMC,074452.000,A,2944.9089,N,10633.0913,E,0.13,0.00,280519,,*17
$GPGSA,A,3,01,03,06,17,19,22,28,30,,,,,0.8,0.7,0.4*3A
$BDGSA,A,3,01,02,04,05,07,08,10,12,13,19,24,26,0.8,0.7,0.4*2F
$GLGSA,A,3,,,,,,,,,,,,,0.8,0.7,0.4*25
$GPGSV,3,1,11,01,17,042,34,03,35,071,42,06,45,240,44,17,53,342,45*7D
$GPGSV,3,2,11,19,42,311,43,22,21,052,41,28,77,109,43,30,16,188,40*77
$GPGSV,3,3,11,24,00,000,38,02,09,234,00,11,09,059,00*4F
$BDGSV,3,1,12,01,40,126,40,02,47,220,40,04,23,109,40,05,28,245,35*6B
$BDGSV,3,2,12,07,53,153,42,08,71,342,43,10,79,201,42,12,36,290,41*64
$BDGSV,3,3,12,13,62,264,43,19,29,102,43,24,26,307,40,26,50,247,44*6F
$B3CN0,0,17,0,0,0,0,0,27,0,0,0,0,0,0*4F
$ini_pos,lastpos_good = 1,ini_pos.x:-1578911.262809,ini_pos.y:5312767.161742,ini_pos.z:3146357.308591
$rtc_local_time,localRTC.weeks:2055,localRTC.seconds:200710.428407,localGtime.weeks:2055,localGtime.seconds:200710.999999
$pseudo_cd_ph,prn:1,pseudo_cd_ph:200710920.458614230156
measnum = 0,full_prange = 23837688.808480
$oldmeas,msRange:0.000000,x:-15646495.689765,y:-1084388.030780,z:21299992.257221,vx:-863.837402,vy:-2598.415283,vz:-728.779419,tb:-0.000026902239
$newmeas,x:-15646427.003017,y:-1084181.420003,z:21300050.203916,vx:-863.827454,vy:-2598.426758,vz:-728.742920,tb:-0.000026902239
$pseudo_cd_ph,prn:3,pseudo_cd_ph:200710925.788443624973
measnum = 1,full_prange = 22304019.688608
$oldmeas,msRange:74.407753,x:-20483238.043191,y:8379571.408326,z:14583980.255354,vx:1046.198242,vy:-1554.455933,vz:2364.604248,tb:0.000187157632
$newmeas,x:-20483315.878177,y:8379687.056252,z:14583804.332189,vx:1046.190674,vy:-1554.434448,vz:2364.627441,tb:0.000187157633
$pseudo_cd_ph,prn:6,pseudo_cd_ph:200710928.182341307402
measnum = 2,full_prange = 21588310.486016
$oldmeas,msRange:72.020277,x:6015022.414089,y:25488297.481591,z:4353225.921236,vx:-404.103485,vy:-436.169342,vz:3146.726807,tb:0.000193706389
$newmeas,x:6015051.513511,y:25488328.889613,z:4352999.322517,vx:-404.091980,vy:-436.144226,vz:3146.733398,tb:0.000193706390
$pseudo_cd_ph,prn:17,pseudo_cd_ph:200710928.365109711885
measnum = 3,full_prange = 21494056.883798
$oldmeas,msRange:71.705956,x:-565427.944020,y:15085120.467378,z:22266782.399495,vx:-2650.553955,vy:-619.395996,vz:350.443878,tb:0.000062078618
$newmeas,x:-565237.908903,y:15085164.876281,z:22266757.272740,vx:-2650.548096,vy:-619.407288,vz:350.476562,tb:0.000062078617
$pseudo_cd_ph,prn:19,pseudo_cd_ph:200710927.703254193068
measnum = 4,full_prange = 21579845.535257
$oldmeas,msRange:71.992066,x:7638381.553269,y:15827894.716253,z:19586701.915514,vx:-2479.462158,vy:-606.487610,vz:1442.141724,tb:-0.000313616762
$newmeas,x:7638560.030885,y:15827938.373077,z:19586598.105270,vx:-2479.446777,vy:-606.494812,vz:1442.172607,tb:-0.000313616762
$pseudo_cd_ph,prn:22,pseudo_cd_ph:200710920.240035802126
measnum = 5,full_prange = 23699008.339771
$oldmeas,msRange:79.060998,x:-18656692.980758,y:1247243.633200,z:19071232.157148,vx:1271.741089,vy:-2028.026001,vz:1401.817139,tb:-0.000708068918
$newmeas,x:-18656793.513661,y:1247403.950824,z:19071121.340319,vx:1271.741455,vy:-2028.009888,vz:1401.848633,tb:-0.000708068918
$pseudo_cd_ph,prn:28,pseudo_cd_ph:200710932.057505488396
measnum = 6,full_prange = 20598674.271715
$oldmeas,msRange:68.719305,x:-10665225.775616,y:21593585.397357,z:11909751.628906,vx:-1119.492432,vy:875.065918,vz:-2719.696777,tb:0.000767799486
$newmeas,x:-10665148.854850,y:21593525.271380,z:11909938.498096,vx:-1119.512329,vy:875.077271,vz:-2719.679932,tb:0.000767799486
