$ini_pos,lastpos_good = 1,ini_pos.x:-1578917.000000,ini_pos.y:5312776.000000,ini_pos.z:3146358.000000
$rtc_local_time,localRTC.weeks:2055,localRTC.seconds:206229.026010,localGtime.weeks:0,localGtime.seconds:19.026010
source<tow,snapshot
$GNGGA,000000.000,,,,,0,00,,,M,,,,0000*2B
$GNRMC,000000.000,A,,,,,,,060180,,*29
$GPGSA,A,1,,,,,,,,,,,,,,,*1E
$BDGSA,A,1,,,,,,,,,,,,,,,*0F
$GLGSA,A,1,,,,,,,,,,,,,,,*02
$B3CN0,0,0,0,0,0,0,0,0,0,0,0,0,0,0*4C
$ini_pos,lastpos_good = 1,ini_pos.x:-1578917.000000,ini_pos.y:5312776.000000,ini_pos.z:3146358.000000
$rtc_local_time,localRTC.weeks:2055,localRTC.seconds:206230.026010,localGtime.weeks:2055,localGtime.seconds:206230.026010
source<tow,snapshot
$GNGGA,000000.000,,,,,0,00,,,M,,,,0000*2B
$GNRMC,000000.000,A,,,,,,,060180,,*29
$GPGSA,A,1,,,,,,,,,,,,,,,*1E
$BDGSA,A,1,,,,,,,,,,,,,,,*0F
$GLGSA,A,1,,,,,,,,,,,,,,,*02
$B3CN0,0,0,0,0,0,0,0,0,0,0,0,0,0,0*4C
$ini_pos,lastpos_good = 1,ini_pos.x:-1578917.000000,ini_pos.y:5312776.000000,ini_pos.z:3146358.000000
$rtc_local_time,localRTC.weeks:2055,localRTC.seconds:206231.026010,localGtime.weeks:2055,localGtime.seconds:206231.026010
$pseudo_cd_ph,prn:2,pseudo_cd_ph:13.769189933411
measnum = 0,full_prange = 22489653.821270
$oldmeas,msRange:0.000000,x:12597149.530570,y:21608804.158606,z:9762215.923608,vx:-999.242126,vy:-619.003845,vz:2822.034180,tb:-0.000223819163
$newmeas,x:12597224.490331,y:21608850.594153,z:9762004.221353,vx:-999.220886,vy:-618.989990,vz:2822.049072,tb:-0.000223819162
$pseudo_cd_ph,prn:5,pseudo_cd_ph:6.470162355306
measnum = 1,full_prange = 24745185.822643
$oldmeas,msRange:82.874724,x:4487798.378917,y:21860431.331270,z:-14365186.330356,vx:-733.833862,vy:1678.085938,vz:2364.281250,tb:0.000000798188
$newmeas,x:4487858.950927,y:21860292.819453,z:-14365381.479590,vx:-733.848145,vy:1678.106079,vz:2364.256104,tb:0.000000798188
$pseudo_cd_ph,prn:6,pseudo_cd_ph:0.392169531023
measnum = 2,full_prange = 20629288.627226
$oldmeas,msRange:69.145305,x:468145.433942,y:19010244.575648,z:18570040.987208,vx:-1687.755981,vy:-1635.274292,vz:1723.922485,tb:0.000193650122
$newmeas,x:468261.571058,y:19010357.101844,z:18569922.359893,vx:-1687.739136,vy:-1635.270386,vz:1723.949585,tb:0.000193650122
$pseudo_cd_ph,prn:12,pseudo_cd_ph:9.663709042009
measnum = 3,full_prange = 23859025.569929
$oldmeas,msRange:79.918872,x:13260337.453165,y:6261574.682233,z:21932859.811588,vx:-1024.534790,vy:2638.583008,vz:-116.034981,tb:0.000238432441
$newmeas,x:13260418.991444,y:6261364.690377,z:21932869.044740,vx:-1024.548096,vy:2638.579346,vz:-115.997093,tb:0.000238432442
$pseudo_cd_ph,prn:17,pseudo_cd_ph:18.492245253696
measnum = 4,full_prange = 21159444.133909
$oldmeas,msRange:70.913679,x:-14615056.644882,y:14192769.111208,z:17400019.164167,vx:-2119.542725,vy:232.322662,vz:-2025.549194,tb:0.000062134262
$newmeas,x:-14614907.046254,y:14192752.714029,z:17400162.127153,vx:-2119.561035,vy:232.316269,vz:-2025.523682,tb:0.000062134262
$pseudo_cd_ph,prn:19,pseudo_cd_ph:0.251546343284
measnum = 5,full_prange = 20519374.101873
$oldmeas,msRange:68.778716,x:-7509258.735990,y:14711026.563739,z:20514757.236907,vx:-2656.285889,vy:244.335236,vz:-1123.693726,tb:-0.000313608452
$newmeas,x:-7509076.925420,y:14711009.840489,z:20514834.147373,vx:-2656.296875,vy:244.325317,vz:-1123.663086,tb:-0.000313608453
$pseudo_cd_ph,prn:28,pseudo_cd_ph:15.940921280041
measnum = 6,full_prange = 22135867.165938
$oldmeas,msRange:74.170452,x:-13028763.220486,y:22479976.937014,z:-5137168.988272,vx:84.050133,vy:-752.067078,vz:-3126.829346,tb:0.000767806934
$newmeas,x:-13028769.426247,y:22480032.466597,z:-5136938.111315,vx:84.042702,vy:-752.039368,vz:-3126.837646,tb:0.000767806934
source<tow,snapshot
nits = 2
$GNGGA,091653.235,2944.9079,N,10633.0922,E,1,16,0.0,325.6,M,,,,0000*1A
$GNRMC,091653.235,A,2944.9079,N,10633.0922,E,0.00,0.00,280519,,*14
$GPGSA,A,3,02,05,06,12,17,19,28,,,,,,0.0,0.0,0.0*34
$BDGSA,A,3,02,04,07,10,12,13,19,21,22,,,,0.0,0.0,0.0*29
$GLGSA,A,3,,,,,,,,,,,,,0.0,0.0,0.0*2E
$GPGSV,2,1,07,02,00,000,25,05,00,000,25,06,00,000,26,12,00,000,25*7C
$GPGSV,2,2,07,17,00,000,26,19,00,000,26,28,00,000,26*4E
$BDGSV,3,1,10,02,00,000,40,03,00,000,16,04,00,000,39,07,00,000,24*66
$BDGSV,3,2,10,10,00,000,24,12,00,000,24,13,00,000,23,19,00,000,23*60
$BDGSV,3,3,10,21,00,000,23,22,00,000,24*6D
$B3CN0,0,0,0,0,0,0,0,0,0,0,0,0,0,0*4C
$ini_pos,lastpos_good = 1,ini_pos.x:-1578913.958200,ini_pos.y:5312770.889171,ini_pos.z:3146357.652019
$rtc_local_time,localRTC.weeks:2055,localRTC.seconds:206232.026010,localGtime.weeks:2055,localGtime.seconds:206232.026010
$pseudo_cd_ph,prn:2,pseudo_cd_ph:13.770685928658
measnum = 0,full_prange = 22489195.657873
$oldmeas,msRange:0.000000,x:12596150.147132,y:21608185.062623,z:9765037.857055,vx:-999.524841,vy:-619.188171,vz:2821.833008,tb:-0.000223819168
$newmeas,x:12596225.126573,y:21608231.511051,z:9764826.174198,vx:-999.503601,vy:-619.174316,vz:2821.848145,tb:-0.000223819168
$pseudo_cd_ph,prn:5,pseudo_cd_ph:6.473283806854
measnum = 1,full_prange = 24744240.372526
$oldmeas,msRange:82.872304,x:4487064.631533,y:21862109.295793,z:-14362821.895927,vx:-733.660950,vy:1677.843140,vz:2364.587646,tb:0.000000798187
$newmeas,x:4487125.186958,y:21861970.809313,z:-14363017.062987,vx:-733.675232,vy:1677.863159,vz:2364.562500,tb:0.000000798187
$pseudo_cd_ph,prn:6,pseudo_cd_ph:0.392717363315
measnum = 2,full_prange = 20629114.722868
$oldmeas,msRange:69.145435,x:466457.555011,y:19008609.273307,z:18571764.712514,vx:-1688.001953,vy:-1635.330444,vz:1723.528198,tb:0.000193650112
$newmeas,x:466573.708071,y:19008721.802424,z:18571646.113328,vx:-1687.984985,vy:-1635.326660,vz:1723.555420,tb:0.000193650112
$pseudo_cd_ph,prn:12,pseudo_cd_ph:9.666450522862
measnum = 3,full_prange = 23858194.024286
$oldmeas,msRange:79.916796,x:13259313.002207,y:6264213.288562,z:21932743.538611,vx:-1024.367188,vy:2638.629883,vz:-116.510986,tb:0.000238432435
$newmeas,x:13259394.524305,y:6264003.300299,z:21932752.809324,vx:-1024.380493,vy:2638.625977,vz:-116.473099,tb:0.000238432436
$pseudo_cd_ph,prn:17,pseudo_cd_ph:18.492799261099
measnum = 4,full_prange = 21159268.385904
$oldmeas,msRange:70.913822,x:-14617176.058053,y:14193001.479072,z:17397993.434725,vx:-2119.283691,vy:232.413086,vz:-2025.909790,tb:0.000062134272
$newmeas,x:-14617026.478953,y:14192985.075646,z:17398136.421980,vx:-2119.302002,vy:232.406693,vz:-2025.884399,tb:0.000062134271
$pseudo_cd_ph,prn:19,pseudo_cd_ph:0.252451340124
measnum = 5,full_prange = 20519093.129908
$oldmeas,msRange:68.778490,x:-7511914.942117,y:14711270.971316,z:20513633.319418,vx:-2656.126465,vy:244.479935,vz:-1124.141357,tb:-0.000313608451
$newmeas,x:-7511733.144956,y:14711254.238391,z:20513710.259465,vx:-2656.137451,vy:244.470032,vz:-1124.110718,tb:-0.000313608451
$pseudo_cd_ph,prn:28,pseudo_cd_ph:15.939782509007
measnum = 6,full_prange = 22136198.895062
$oldmeas,msRange:74.172274,x:-13028679.120083,y:22479224.682453,z:-5140295.762438,vx:84.150673,vy:-752.442139,vz:-3126.719238,tb:0.000767806933
$newmeas,x:-13028685.333361,y:22479280.240560,z:-5140064.890164,vx:84.143250,vy:-752.414429,vz:-3126.727295,tb:0.000767806933
source<tow,snapshot
nits = 2
$GNGGA,091654.240,2944.9077,N,10633.0927,E,1,17,0.0,329.5,M,,,,0000*1A
$GNRMC,091654.240,A,2944.9077,N,10633.0927,E,0.00,0.00,280519,,*1A
$GPGSA,A,3,02,05,06,12,17,19,28,,,,,,0.0,0.0,0.0*34
$BDGSA,A,3,02,04,07,10,12,13,19,21,22,25,,,0.0,0.0,0.0*2E
$GLGSA,A,3,,,,,,,,,,,,,0.0,0.0,0.0*2E
$GPGSV,2,1,07,02,00,000,40,05,00,000,36,06,00,000,46,12,00,000,39*76
$GPGSV,2,2,07,17,00,000,45,19,00,000,44,28,00,000,43*4C
$BDGSV,3,1,11,02,00,000,40,03,00,000,18,04,00,000,41,07,00,000,41*65
$BDGSV,3,2,11,10,00,000,42,12,00,000,43,13,00,000,43,19,00,000,43*60
$BDGSV,3,3,11,21,00,000,41,22,00,000,45,25,00,000,22*58
$B3CN0,0,0,0,0,0,0,0,0,0,0,0,0,0,0*4C
$ini_pos,lastpos_good = 1,ini_pos.x:-1578915.727389,ini_pos.y:5312774.182397,ini_pos.z:3146359.172289
$rtc_local_time,localRTC.weeks:2055,localRTC.seconds:206233.026010,localGtime.weeks:2055,localGtime.seconds:206233.026010
$pseudo_cd_ph,prn:2,pseudo_cd_ph:13.772180037065
measnum = 0,full_prange = 22488738.057350
$oldmeas,msRange:0.000000,x:12595150.480986,y:21607565.782348,z:9767859.589379,vx:-999.807556,vy:-619.372437,vz:2821.631836,tb:-0.000223819174
$newmeas,x:12595225.480109,y:21607612.243653,z:9767647.925919,vx:-999.786316,vy:-619.358582,vz:2821.646973,tb:-0.000223819173
$pseudo_cd_ph,prn:5,pseudo_cd_ph:6.476399172786
measnum = 1,full_prange = 24743296.727181
$oldmeas,msRange:82.869874,x:4486331.057041,y:21863787.017439,z:-14360457.155206,vx:-733.488098,vy:1677.600220,vz:2364.894043,tb:0.000000798187
$newmeas,x:4486391.595888,y:21863648.556288,z:-14360652.340101,vx:-733.502319,vy:1677.620239,vz:2364.868652,tb:0.000000798187
$pseudo_cd_ph,prn:6,pseudo_cd_ph:0.393263711491
measnum = 2,full_prange = 20628941.256301
$oldmeas,msRange:69.145543,x:464769.430158,y:19006973.914764,z:18573488.043557,vx:-1688.247803,vy:-1635.386719,vz:1723.133911,tb:0.000193650101
$newmeas,x:464885.599163,y:19007086.446801,z:18573369.472499,vx:-1688.230957,vy:-1635.382812,vz:1723.161133,tb:0.000193650102
$pseudo_cd_ph,prn:12,pseudo_cd_ph:9.669189915513
measnum = 3,full_prange = 23857363.095124
$oldmeas,msRange:79.914724,x:13258288.718870,y:6266851.941672,z:21932626.789630,vx:-1024.199585,vy:2638.676514,vz:-116.986984,tb:0.000238432430
$newmeas,x:13258370.224788,y:6266641.957001,z:21932636.097900,vx:-1024.212891,vy:2638.672852,vz:-116.949104,tb:0.000238432430
$pseudo_cd_ph,prn:17,pseudo_cd_ph:18.493347071017
measnum = 4,full_prange = 21159094.478408
$oldmeas,msRange:70.913940,x:-14619295.212118,y:14193233.937338,z:17395967.344644,vx:-2119.024658,vy:232.503464,vz:-2026.270508,tb:0.000062134281
$newmeas,x:-14619145.652536,y:14193217.527668,z:17396110.356176,vx:-2119.042969,vy:232.497086,vz:-2026.244995,tb:0.000062134280
$pseudo_cd_ph,prn:19,pseudo_cd_ph:0.253353510434
measnum = 5,full_prange = 20518812.988853
$oldmeas,msRange:68.778242,x:-7514570.988670,y:14711515.523586,z:20512508.954360,vx:-2655.966797,vy:244.624619,vz:-1124.588867,tb:-0.000313608449
$newmeas,x:-7514389.204915,y:14711498.780986,z:20512585.923989,vx:-2655.977783,vy:244.614716,vz:-1124.558228,tb:-0.000313608449
$pseudo_cd_ph,prn:28,pseudo_cd_ph:15.938643573899
measnum = 6,full_prange = 22136530.659924
$oldmeas,msRange:74.174069,x:-13028594.919160,y:22478472.052842,z:-5143422.426293,vx:84.251167,vy:-752.817139,vz:-3126.608887,tb:0.000767806932
$newmeas,x:-13028601.139952,y:22478527.639476,z:-5143191.558706,vx:84.243752,vy:-752.789490,vz:-3126.616943,tb:0.000767806932
source<tow,snapshot
nits = 2
$GNGGA,091655.243,2944.9075,N,10633.0928,E,1,17,0.0,330.5,M,,,,0000*1D
$GNRMC,091655.243,A,2944.9075,N,10633.0928,E,0.00,0.00,280519,,*15
$GPGSA,A,3,02,05,06,12,17,19,28,,,,,,0.0,0.0,0.0*34
$BDGSA,A,3,02,04,07,10,12,13,19,21,22,25,,,0.0,0.0,0.0*2E
$GLGSA,A,3,,,,,,,,,,,,,0.0,0.0,0.0*2E
$GPGSV,2,1,08,02,36,270,40,05,08,205,36,06,63,321,46,12,15,321,40*79
$GPGSV,2,2,08,17,56,057,45,19,60,017,44,28,35,160,42,09,12,115,00*7D
$BDGSV,3,1,12,02,48,220,39,04,23,109,40,07,35,173,40,10,56,204,41*65
$BDGSV,3,2,12,12,52,338,43,13,58,304,43,19,31,057,43,21,20,183,40*6E
$BDGSV,3,3,12,22,51,127,44,25,06,314,37,01,40,126,00,03,56,171,00*6F
$B3CN0,0,0,0,0,0,0,0,0,0,0,0,0,0,0*4C
tow update,206234380.393817
$ini_pos,lastpos_good = 1,ini_pos.x:-1578916.165841,ini_pos.y:5312775.078121,ini_pos.z:3146359.423870
$rtc_local_time,localRTC.weeks:2055,localRTC.seconds:206234.026010,localGtime.weeks:2055,localGtime.seconds:206234.380394
$pseudo_cd_ph,prn:2,pseudo_cd_ph:206234173.773677885532
measnum = 0,full_prange = 22603247.972036
$oldmeas,msRange:0.000000,x:12593796.098887,y:21606726.745623,z:9771680.976331,vx:-1000.190430,vy:-619.621887,vz:2821.359375,tb:-0.000223819181
$newmeas,x:12593871.508762,y:21606773.462311,z:9771468.255651,vx:-1000.169128,vy:-619.608032,vz:2821.374512,tb:-0.000223819181
$pseudo_cd_ph,prn:5,pseudo_cd_ph:206234166.479508519173
measnum = 1,full_prange = 24857323.528107
$oldmeas,msRange:82.866584,x:4485337.791457,y:21866058.908632,z:-14357253.901124,vx:-733.253967,vy:1677.271118,vz:2365.308594,tb:0.000000798186
$newmeas,x:4485398.589882,y:21865919.836679,z:-14357450.019890,vx:-733.268311,vy:1677.291382,vz:2365.283203,tb:0.000000798186
$pseudo_cd_ph,prn:6,pseudo_cd_ph:206234180.393816649914
measnum = 2,full_prange = 20743734.437806
$oldmeas,msRange:69.145701,x:462482.669647,y:19004758.922635,z:18575821.466031,vx:-1688.580933,vy:-1635.462646,vz:1722.599854,tb:0.000193650088
$newmeas,x:462599.508134,y:19004872.086131,z:18575702.272113,vx:-1688.563843,vy:-1635.458740,vz:1722.627197,tb:0.000193650088
$pseudo_cd_ph,prn:12,pseudo_cd_ph:206234169.671935170889
measnum = 3,full_prange = 23971499.046793
$oldmeas,msRange:79.911919,x:13256901.713707,y:6270425.764385,z:21932467.907815,vx:-1023.972473,vy:2638.739746,vz:-117.631668,tb:0.000238432422
$newmeas,x:13256983.591403,y:6270214.770074,z:21932477.312159,vx:-1023.985901,vy:2638.736084,vz:-117.593613,tb:0.000238432422
$pseudo_cd_ph,prn:17,pseudo_cd_ph:206234178.493896484375
measnum = 4,full_prange = 21273888.730971
$oldmeas,msRange:70.914112,x:-14622164.946232,y:14193548.919040,z:17393222.666736,vx:-2118.673584,vy:232.625809,vz:-2026.758789,tb:0.000062134293
$newmeas,x:-14622014.600153,y:14193532.411662,z:17393366.488797,vx:-2118.691895,vy:232.619400,vz:-2026.733276,tb:0.000062134293
$pseudo_cd_ph,prn:19,pseudo_cd_ph:206234180.254261553288
measnum = 5,full_prange = 20633499.720500
$oldmeas,msRange:68.777918,x:-7518168.039778,y:14711846.971792,z:20510985.419327,vx:-2655.750488,vy:244.820526,vz:-1125.194946,tb:-0.000313608446
$newmeas,x:-7517985.254853,y:14711830.122131,z:20511062.860877,vx:-2655.761475,vy:244.810562,vz:-1125.164185,tb:-0.000313608446
$pseudo_cd_ph,prn:28,pseudo_cd_ph:206234175.937510877848
measnum = 6,full_prange = 22251829.189953
$oldmeas,msRange:74.176511,x:-13028480.718652,y:22477452.105734,z:-5147656.952247,vx:84.387184,vy:-753.325134,vz:-3126.459229,tb:0.000767806930
$newmeas,x:-13028486.981940,y:22477508.019591,z:-5147424.893282,vx:84.379730,vy:-753.297302,vz:-3126.467529,tb:0.000767806931
$GNGGA,091656.249,2944.9095,N,10633.0921,E,1,09,1.0,333.2,M,,,,0000*19
$GNRMC,091656.249,A,2944.9095,N,10633.0921,E,0.34,0.00,280519,,*1C
$GPGSA,A,3,02,05,06,12,17,19,28,,,,,,1.7,1.0,1.4*36
$BDGSA,A,3,02,04,,,,,,,,,,,1.7,1.0,1.4*27
$GLGSA,A,3,,,,,,,,,,,,,1.7,1.0,1.4*2C
$GPGSV,2,1,08,02,36,270,41,05,08,205,36,06,63,321,46,12,15,321,40*78
$GPGSV,2,2,08,17,56,057,45,19,60,017,45,28,35,160,42,09,12,115,00*7C
$BDGSV,3,1,12,02,48,220,40,03,56,171,23,04,23,109,40,07,35,173,41*6D
$BDGSV,3,2,12,10,56,204,42,12,52,338,42,13,58,304,43,19,31,057,43*62
$BDGSV,3,3,12,21,20,183,40,22,51,127,44,25,06,314,37,01,40,126,00*67
$B3CN0,0,0,0,0,0,0,0,0,0,0,0,0,0,0*4C
$ini_pos,lastpos_good = 1,ini_pos.x:-1578915.153596,ini_pos.y:5312775.980335,ini_pos.z:3146363.923694
$rtc_local_time,localRTC.weeks:2055,localRTC.seconds:206235.776664,localGtime.weeks:2055,localGtime.seconds:206236.000000
$pseudo_cd_ph,prn:2,pseudo_cd_ph:206235924.430442094803
measnum = 0,full_prange = 22588054.207176
$oldmeas,msRange:0.000000,x:12592175.813515,y:21605722.960710,z:9776250.203031,vx:-1000.648376,vy:-619.920105,vz:2821.033203,tb:-0.000223819190
$newmeas,x:12592251.207204,y:21605769.668464,z:9776037.649905,vx:-1000.627075,vy:-619.906250,vz:2821.048340,tb:-0.000223819190
$pseudo_cd_ph,prn:5,pseudo_cd_ph:206235917.139086186886
measnum = 1,full_prange = 24841286.312112
$oldmeas,msRange:82.862659,x:4484150.435529,y:21868775.108479,z:-14353422.631310,vx:-732.974060,vy:1676.877563,vz:2365.804443,tb:0.000000798186
$newmeas,x:4484211.171536,y:21868636.158868,z:-14353618.664631,vx:-732.988403,vy:1676.897705,vz:2365.779053,tb:0.000000798186
$pseudo_cd_ph,prn:6,pseudo_cd_ph:206235931.048924356699
measnum = 2,full_prange = 20729037.277663
$oldmeas,msRange:69.145881,x:459747.511295,y:19002110.043900,z:18578610.882051,vx:-1688.979126,vy:-1635.553345,vz:1721.961182,tb:0.000193650071
$newmeas,x:459864.294534,y:19002223.133491,z:18578491.816749,vx:-1688.962036,vy:-1635.549438,vz:1721.988403,tb:0.000193650072
$pseudo_cd_ph,prn:12,pseudo_cd_ph:206235920.330883413553
measnum = 3,full_prange = 23955650.525068
$oldmeas,msRange:79.908551,x:13255243.501598,y:6274699.544466,z:21932276.766550,vx:-1023.700867,vy:2638.815186,vz:-118.402596,tb:0.000238432413
$newmeas,x:13255325.303458,y:6274488.683624,z:21932286.226279,vx:-1023.714294,vy:2638.811523,vz:-118.364555,tb:0.000238432413
$pseudo_cd_ph,prn:17,pseudo_cd_ph:206235929.148991882801
measnum = 4,full_prange = 21259195.270169
$oldmeas,msRange:70.914313,x:-14625596.022751,y:14193925.799617,z:17389939.642995,vx:-2118.253662,vy:232.772003,vz:-2027.342651,tb:0.000062134308
$newmeas,x:-14625445.810290,y:14193909.293273,z:17390083.407127,vx:-2118.271973,vy:232.765610,vz:-2027.317139,tb:0.000062134308
$pseudo_cd_ph,prn:19,pseudo_cd_ph:206235930.909990519285
measnum = 5,full_prange = 20618616.317327
$oldmeas,msRange:68.777522,x:-7522469.100006,y:14712243.674274,z:20509162.459756,vx:-2655.491699,vy:245.054733,vz:-1125.919800,tb:-0.000313608443
$newmeas,x:-7522286.464726,y:14712226.820658,z:20509239.895293,vx:-2655.502686,vy:245.044785,vz:-1125.888916,tb:-0.000313608443
$pseudo_cd_ph,prn:28,pseudo_cd_ph:206235926.589664191008
measnum = 6,full_prange = 22238017.739066
$oldmeas,msRange:74.179440,x:-13028343.913022,y:22476231.523836,z:-5152720.439680,vx:84.549713,vy:-753.932617,vz:-3126.280273,tb:0.000767806929
$newmeas,x:-13028350.184478,y:22476287.448049,z:-5152488.538029,vx:84.542267,vy:-753.904785,vz:-3126.288330,tb:0.000767806929
$GNGGA,091658.000,2944.9076,N,10633.0923,E,1,17,0.7,327.7,M,,,,0000*1E
$GNRMC,091658.000,A,2944.9076,N,10633.0923,E,0.31,0.00,280519,,*17
$GPGSA,A,3,02,05,06,12,17,19,28,,,,,,0.8,0.7,0.5*3E
$BDGSA,A,3,02,04,07,10,12,13,19,21,22,25,,,0.8,0.7,0.5*24
$GLGSA,A,3,,,,,,,,,,,,,0.8,0.7,0.5*24
$GPGSV,2,1,08,02,36,270,41,05,08,205,36,06,63,321,45,12,15,321,40*7B
$GPGSV,2,2,08,17,56,057,44,19,60,017,43,28,35,160,43,09,12,115,00*7A
$BDGSV,3,1,12,02,48,220,41,04,23,109,39,07,35,173,41,10,56,204,42*66
$BDGSV,3,2,12,12,52,338,42,13,58,304,43,19,31,057,42,21,20,183,40*6E
$BDGSV,3,3,12,22,51,127,44,25,06,314,38,01,40,126,00,03,56,171,00*60
$B3CN0,0,0,0,0,0,0,0,0,0,0,0,0,0,0*4C
$ini_pos,lastpos_good = 1,ini_pos.x:-1578914.691047,ini_pos.y:5312772.809415,ini_pos.z:3146358.228746
$rtc_local_time,localRTC.weeks:2055,localRTC.seconds:206236.776664,localGtime.weeks:2055,localGtime.seconds:206237.000000
$pseudo_cd_ph,prn:2,pseudo_cd_ph:206236924.431944817305
measnum = 0,full_prange = 22587594.033515
$oldmeas,msRange:0.000000,x:12591175.023791,y:21605102.948589,z:9779071.135535,vx:-1000.931152,vy:-620.104187,vz:2820.831787,tb:-0.000223819195
$newmeas,x:12591250.437247,y:21605149.669259,z:9778858.601912,vx:-1000.909851,vy:-620.090271,vz:2820.847168,tb:-0.000223819195
$pseudo_cd_ph,prn:5,pseudo_cd_ph:206236917.142202466726
measnum = 1,full_prange = 24840342.407666
$oldmeas,msRange:82.860225,x:4483417.547866,y:21870451.864407,z:-14351056.673878,vx:-732.801270,vy:1676.634399,vz:2366.110596,tb:0.000000798185
$newmeas,x:4483478.267249,y:21870312.940221,z:-14351252.725111,vx:-732.815613,vy:1676.654541,vz:2366.085205,tb:0.000000798185
$pseudo_cd_ph,prn:6,pseudo_cd_ph:206236931.049484401941
measnum = 2,full_prange = 20728859.710155
$oldmeas,msRange:69.146021,x:458058.409340,y:19000474.462630,z:18580332.645937,vx:-1689.224976,vy:-1635.609253,vz:1721.566772,tb:0.000193650061
$newmeas,x:458175.208577,y:19000587.555119,z:18580213.608927,vx:-1689.207886,vy:-1635.605469,vz:1721.593994,tb:0.000193650062
$pseudo_cd_ph,prn:12,pseudo_cd_ph:206236920.333630353212
measnum = 3,full_prange = 23954817.344409
$oldmeas,msRange:79.906494,x:13254219.884625,y:6277338.382814,z:21932158.125966,vx:-1023.533142,vy:2638.861572,vz:-118.878586,tb:0.000238432407
$newmeas,x:13254301.670238,y:6277127.525593,z:21932167.623400,vx:-1023.546570,vy:2638.857910,vz:-118.840546,tb:0.000238432407
$pseudo_cd_ph,prn:17,pseudo_cd_ph:206236929.149542361498
measnum = 4,full_prange = 21259020.576436
$oldmeas,msRange:70.914461,x:-14627714.146663,y:14194158.616723,z:17387912.120134,vx:-2117.994385,vy:232.862213,vz:-2027.703125,tb:0.000062134318
$newmeas,x:-14627563.953824,y:14194142.104118,z:17388055.908646,vx:-2118.012695,vy:232.855820,vz:-2027.677612,tb:0.000062134317
$pseudo_cd_ph,prn:19,pseudo_cd_ph:206236930.910905957222
measnum = 5,full_prange = 20618332.209349
$oldmeas,msRange:68.777306,x:-7525124.511778,y:14712488.801287,z:20508036.316316,vx:-2655.332031,vy:245.199310,vz:-1126.367188,tb:-0.000313608441
$newmeas,x:-7524941.890009,y:14712471.937960,z:20508113.781560,vx:-2655.343018,vy:245.189362,vz:-1126.336426,tb:-0.000313608442
$pseudo_cd_ph,prn:28,pseudo_cd_ph:206236926.588537245989
measnum = 6,full_prange = 22238345.921188
$oldmeas,msRange:74.181247,x:-13028259.313172,y:22475477.403721,z:-5155846.664488,vx:84.649986,vy:-754.307678,vz:-3126.169678,tb:0.000767806927
$newmeas,x:-13028265.592159,y:22475533.356582,z:-5155614.767620,vx:84.642548,vy:-754.279846,vz:-3126.177734,tb:0.000767806927
$GNGGA,091659.000,2944.9076,N,10633.0925,E,1,17,0.7,328.2,M,,,,0000*13
$GNRMC,091659.000,A,2944.9076,N,10633.0925,E,0.10,0.00,280519,,*13
$GPGSA,A,3,02,05,06,12,17,19,28,,,,,,0.8,0.7,0.5*3E
$BDGSA,A,3,02,04,07,10,12,13,19,21,22,25,,,0.8,0.7,0.5*24
$GLGSA,A,3,,,,,,,,,,,,,0.8,0.7,0.5*24
$GPGSV,3,1,09,02,36,270,42,05,08,205,36,06,63,321,45,12,15,321,41*79
$GPGSV,3,2,09,17,56,057,44,19,60,017,44,28,35,160,42,24,00,000,31*77
$GPGSV,3,3,09,09,12,115,00*4F
$BDGSV,3,1,12,02,48,220,40,04,23,109,39,07,35,173,41,10,56,204,41*64
$BDGSV,3,2,12,12,52,338,42,13,58,304,43,19,31,057,42,21,20,183,40*6E
$BDGSV,3,3,12,22,51,127,44,25,06,314,38,01,40,126,00,03,56,171,00*60
$B3CN0,0,0,0,0,0,0,0,0,0,0,0,0,0,0*4C
$ini_pos,lastpos_good = 1,ini_pos.x:-1578915.133790,ini_pos.y:5312773.258684,ini_pos.z:3146358.460445
$rtc_local_time,localRTC.weeks:2055,localRTC.seconds:206237.776664,localGtime.weeks:2055,localGtime.seconds:206238.000000
$pseudo_cd_ph,prn:2,pseudo_cd_ph:206237924.433448970318
measnum = 0,full_prange = 22587133.430997
$oldmeas,msRange:0.000000,x:12590173.951309,y:21604482.752442,z:9781891.866634,vx:-1001.213867,vy:-620.288147,vz:2820.630371,tb:-0.000223819201
$newmeas,x:12590249.384532,y:21604529.486023,z:9781679.352521,vx:-1001.192566,vy:-620.274292,vz:2820.645752,tb:-0.000223819201
$pseudo_cd_ph,prn:5,pseudo_cd_ph:206237917.145312607288
measnum = 1,full_prange = 24839400.343728
$oldmeas,msRange:82.857796,x:4482684.832976,y:21872128.377194,z:-14348690.410400,vx:-732.628540,vy:1676.391235,vz:2366.416504,tb:0.000000798185
$newmeas,x:4482745.535741,y:21871989.478423,z:-14348886.479553,vx:-732.642822,vy:1676.411377,vz:2366.391113,tb:0.000000798185
$pseudo_cd_ph,prn:6,pseudo_cd_ph:206237931.050047099590
measnum = 2,full_prange = 20728681.347476
$oldmeas,msRange:69.146139,x:456369.061556,y:18998838.825467,z:18582054.015379,vx:-1689.470703,vy:-1635.665161,vz:1721.172241,tb:0.000193650051
$newmeas,x:456485.876785,y:18998951.920846,z:18581935.006668,vx:-1689.453735,vy:-1635.661255,vz:1721.199585,tb:0.000193650052
$pseudo_cd_ph,prn:12,pseudo_cd_ph:206237920.336382716894
measnum = 3,full_prange = 23953982.537670
$oldmeas,msRange:79.904424,x:13253196.435393,y:6279977.267608,z:21932039.009394,vx:-1023.365356,vy:2638.907959,vz:-119.354568,tb:0.000238432401
$newmeas,x:13253278.204752,y:6279766.414026,z:21932048.544530,vx:-1023.378784,vy:2638.904297,vz:-119.316536,tb:0.000238432401
$pseudo_cd_ph,prn:17,pseudo_cd_ph:206237929.150095522404
measnum = 4,full_prange = 21258845.078596
$oldmeas,msRange:70.914589,x:-14629832.011234,y:14194391.524021,z:17385884.236834,vx:-2117.734863,vy:232.952393,vz:-2028.063599,tb:0.000062134327
$newmeas,x:-14629681.838027,y:14194375.005158,z:17386028.049717,vx:-2117.753418,vy:232.945999,vz:-2028.037964,tb:0.000062134326
$pseudo_cd_ph,prn:19,pseudo_cd_ph:206237930.911824405193
measnum = 5,full_prange = 20618047.198985
$oldmeas,msRange:68.777068,x:-7527779.763656,y:14712734.072861,z:20506909.725434,vx:-2655.171875,vy:245.343857,vz:-1126.814575,tb:-0.000313608440
$newmeas,x:-7527597.155410,y:14712717.199826,z:20506987.220379,vx:-2655.183105,vy:245.333908,vz:-1126.783813,tb:-0.000313608440
$pseudo_cd_ph,prn:28,pseudo_cd_ph:206237926.587413370609
measnum = 6,full_prange = 22238673.183055
$oldmeas,msRange:74.183051,x:-13028174.613070,y:22474722.908525,z:-5158972.778646,vx:84.750214,vy:-754.682739,vz:-3126.058838,tb:0.000767806926
$newmeas,x:-13028180.899584,y:22474778.890033,z:-5158740.886576,vx:84.742783,vy:-754.654968,vz:-3126.067139,tb:0.000767806926
$GNGGA,091700.000,2944.9077,N,10633.0926,E,1,17,0.7,327.0,M,,,,0000*11
$GNRMC,091700.000,A,2944.9077,N,10633.0926,E,0.13,0.00,280519,,*1F
$GPGSA,A,3,02,05,06,12,17,19,28,,,,,,0.8,0.7,0.5*3E
$BDGSA,A,3,02,04,07,10,12,13,19,21,22,25,,,0.8,0.7,0.5*24
$GLGSA,A,3,,,,,,,,,,,,,0.8,0.7,0.5*24
$GPGSV,3,1,09,02,36,270,41,05,08,205,37,06,63,321,45,12,15,321,41*7B
$GPGSV,3,2,09,17,56,057,45,19,60,017,44,28,35,160,43,24,00,000,37*71
$GPGSV,3,3,09,09,12,115,00*4F
$BDGSV,3,1,12,02,48,220,40,04,23,109,39,07,35,173,41,10,56,204,41*64
$BDGSV,3,2,12,12,52,338,42,13,58,304,43,19,31,057,42,21,20,183,40*6E
$BDGSV,3,3,12,22,51,127,44,25,06,314,38,01,40,126,00,03,56,171,00*60
$B3CN0,0,0,0,0,0,0,0,0,0,0,0,0,0,0*4C
$ini_pos,lastpos_good = 1,ini_pos.x:-1578914.910334,ini_pos.y:5312772.072393,ini_pos.z:3146357.945321
$rtc_local_time,localRTC.weeks:2055,localRTC.seconds:206238.776664,localGtime.weeks:2055,localGtime.seconds:206239.000000
$pseudo_cd_ph,prn:2,pseudo_cd_ph:206238924.434951931238
measnum = 0,full_prange = 22586673.185861
$oldmeas,msRange:0.000000,x:12589172.596059,y:21603862.372323,z:9784712.396271,vx:-1001.496643,vy:-620.472107,vz:2820.428955,tb:-0.000223819206
$newmeas,x:12589248.049050,y:21603909.118810,z:9784499.901669,vx:-1001.475342,vy:-620.458252,vz:2820.444092,tb:-0.000223819206
$pseudo_cd_ph,prn:5,pseudo_cd_ph:206238917.148419767618
measnum = 1,full_prange = 24838459.173242
$oldmeas,msRange:82.855370,x:4481952.290833,y:21873804.646785,z:-14346323.840927,vx:-732.455811,vy:1676.148071,vz:2366.722412,tb:0.000000798185
$newmeas,x:4482012.976987,y:21873665.773429,z:-14346519.928001,vx:-732.470093,vy:1676.168213,vz:2366.697266,tb:0.000000798185
$pseudo_cd_ph,prn:6,pseudo_cd_ph:206238931.050608307123
measnum = 2,full_prange = 20728503.431522
$oldmeas,msRange:69.146263,x:454679.467964,y:18997203.132475,z:18583774.990341,vx:-1689.716553,vy:-1635.720947,vz:1720.777710,tb:0.000193650041
$newmeas,x:454796.299185,y:18997316.230741,z:18583656.009928,vx:-1689.699585,vy:-1635.717041,vz:1720.805054,tb:0.000193650042
$pseudo_cd_ph,prn:12,pseudo_cd_ph:206238920.339132726192
measnum = 3,full_prange = 23953148.436757
$oldmeas,msRange:79.902355,x:13252173.153926,y:6282616.198780,z:21931919.416838,vx:-1023.197632,vy:2638.954346,vz:-119.830551,tb:0.000238432395
$newmeas,x:13252254.907033,y:6282405.348837,z:21931928.989672,vx:-1023.210999,vy:2638.950684,vz:-119.792519,tb:0.000238432396
$pseudo_cd_ph,prn:17,pseudo_cd_ph:206238929.150647401810
measnum = 4,full_prange = 21258669.964941
$oldmeas,msRange:70.914722,x:-14631949.616416,y:14194624.521468,z:17383855.993136,vx:-2117.475586,vy:233.042511,vz:-2028.423950,tb:0.000062134336
$newmeas,x:-14631799.462842,y:14194607.996349,z:17383999.830389,vx:-2117.493896,vy:233.036118,vz:-2028.398438,tb:0.000062134335
$pseudo_cd_ph,prn:19,pseudo_cd_ph:206238930.912742197514
measnum = 5,full_prange = 20617762.385180
$oldmeas,msRange:68.776836,x:-7530434.855574,y:14712979.488967,z:20505782.687136,vx:-2655.011963,vy:245.488373,vz:-1127.262085,tb:-0.000313608438
$newmeas,x:-7530252.260854,y:14712962.606226,z:20505860.211780,vx:-2655.022949,vy:245.478439,vz:-1127.231323,tb:-0.000313608438
$pseudo_cd_ph,prn:28,pseudo_cd_ph:206238926.586286723614
measnum = 6,full_prange = 22239001.275830
$oldmeas,msRange:74.184860,x:-13028089.812771,y:22473968.038241,z:-5162098.782087,vx:84.850380,vy:-755.057861,vz:-3125.948242,tb:0.000767806925
$newmeas,x:-13028096.106809,y:22474024.048400,z:-5161866.894811,vx:84.842957,vy:-755.030029,vz:-3125.956299,tb:0.000767806925
$GNGGA,091701.000,2944.9077,N,10633.0927,E,1,17,0.7,327.2,M,,,,0000*13
$GNRMC,091701.000,A,2944.9077,N,10633.0927,E,0.19,0.00,280519,,*15
$GPGSA,A,3,02,05,06,12,17,19,28,,,,,,0.8,0.7,0.5*3E
$BDGSA,A,3,02,04,07,10,12,13,19,21,22,25,,,0.8,0.7,0.5*24
$GLGSA,A,3,,,,,,,,,,,,,0.8,0.7,0.5*24
$GPGSV,3,1,09,02,36,270,41,05,08,205,36,06,63,321,46,12,15,321,41*79
$GPGSV,3,2,09,17,56,057,45,19,60,017,44,28,35,160,43,24,00,000,38*7E
$GPGSV,3,3,09,09,12,115,00*4F
$BDGSV,3,1,12,02,48,220,39,26,21,211,24,04,23,109,39,07,35,173,41*68
$BDGSV,3,2,12,10,56,204,41,12,52,338,42,13,58,304,43,19,31,057,42*60
$BDGSV,3,3,12,21,20,183,40,22,51,127,45,25,06,314,37,01,40,126,00*66
$B3CN0,0,0,0,0,0,0,0,0,0,0,0,0,0,0*4C
$ini_pos,lastpos_good = 1,ini_pos.x:-1578915.055782,ini_pos.y:5312772.174830,ini_pos.z:3146358.144703
$rtc_local_time,localRTC.weeks:2055,localRTC.seconds:206239.776664,localGtime.weeks:2055,localGtime.seconds:206240.000000
$pseudo_cd_ph,prn:2,pseudo_cd_ph:206239924.436459064484
measnum = 0,full_prange = 22586211.680958
$oldmeas,msRange:0.000000,x:12588170.958033,y:21603241.808287,z:9787532.724390,vx:-1001.779480,vy:-620.656006,vz:2820.227539,tb:-0.000223819212
$newmeas,x:12588246.430786,y:21603288.567673,z:9787320.249314,vx:-1001.758118,vy:-620.642151,vz:2820.242676,tb:-0.000223819212
$pseudo_cd_ph,prn:5,pseudo_cd_ph:206239917.151534646749
measnum = 1,full_prange = 24837515.679783
$oldmeas,msRange:82.852942,x:4481219.921414,y:21875480.673128,z:-14343956.965508,vx:-732.283081,vy:1675.904785,vz:2367.028564,tb:0.000000798184
$newmeas,x:4481280.590953,y:21875341.825202,z:-14344153.070480,vx:-732.297424,vy:1675.924927,vz:2367.003174,tb:0.000000798184
$pseudo_cd_ph,prn:6,pseudo_cd_ph:206239931.051172286272
measnum = 2,full_prange = 20728324.675725
$oldmeas,msRange:69.146382,x:452989.628581,y:18995567.383715,z:18585495.570786,vx:-1689.962280,vy:-1635.776733,vz:1720.383179,tb:0.000193650031
$newmeas,x:453106.475789,y:18995680.484860,z:18585376.618678,vx:-1689.945312,vy:-1635.772827,vz:1720.410522,tb:0.000193650032
$pseudo_cd_ph,prn:12,pseudo_cd_ph:206239920.341886371374
measnum = 3,full_prange = 23952313.236899
$oldmeas,msRange:79.900285,x:13251150.040249,y:6285255.176262,z:21931799.348302,vx:-1023.029785,vy:2639.000732,vz:-120.306526,tb:0.000238432390
$newmeas,x:13251231.777098,y:6285044.329973,z:21931808.958831,vx:-1023.043213,vy:2638.997070,vz:-120.268501,tb:0.000238432390
$pseudo_cd_ph,prn:17,pseudo_cd_ph:206239929.151203125715
measnum = 4,full_prange = 21258493.689798
$oldmeas,msRange:70.914852,x:-14634066.962164,y:14194857.609021,z:17381827.389081,vx:-2117.216064,vy:233.132599,vz:-2028.784302,tb:0.000062134345
$newmeas,x:-14633916.828233,y:14194841.077651,z:17381971.250693,vx:-2117.234375,vy:233.126205,vz:-2028.758789,tb:0.000062134345
$pseudo_cd_ph,prn:19,pseudo_cd_ph:206239930.913664162159
measnum = 5,full_prange = 20617476.311609
$oldmeas,msRange:68.776599,x:-7533089.787469,y:14713225.049580,z:20504655.201447,vx:-2654.852051,vy:245.632858,vz:-1127.709473,tb:-0.000313608436
$newmeas,x:-7532907.206290,y:14713208.157136,z:20504732.755783,vx:-2654.863037,vy:245.622925,vz:-1127.678589,tb:-0.000313608436
$pseudo_cd_ph,prn:28,pseudo_cd_ph:206239926.585164666176
measnum = 6,full_prange = 22239327.983757
$oldmeas,msRange:74.186666,x:-13028004.912328,y:22473212.792863,z:-5165224.674743,vx:84.950500,vy:-755.432922,vz:-3125.837402,tb:0.000767806924
$newmeas,x:-13028011.213886,y:22473268.831670,z:-5164992.792280,vx:84.943077,vy:-755.405151,vz:-3125.845459,tb:0.000767806924
$GNGGA,091702.000,2944.9078,N,10633.0927,E,1,17,0.7,327.2,M,,,,0000*1F
$GNRMC,091702.000,A,2944.9078,N,10633.0927,E,0.20,0.00,280519,,*13
$GPGSA,A,3,02,05,06,12,17,19,28,,,,,,0.8,0.7,0.5*3E
$BDGSA,A,3,02,04,07,10,12,13,19,21,22,25,,,0.8,0.7,0.5*24
$GLGSA,A,3,,,,,,,,,,,,,0.8,0.7,0.5*24
$GPGSV,3,1,09,02,36,270,40,05,08,205,37,06,63,321,47,12,15,321,41*78
$GPGSV,3,2,09,17,56,057,45,19,60,017,44,28,35,160,42,24,00,000,37*70
$GPGSV,3,3,09,09,12,115,00*4F
$BDGSV,3,1,12,02,48,220,39,26,21,211,43,04,23,109,40,07,35,173,41*67
$BDGSV,3,2,12,10,56,204,41,12,52,338,42,13,58,304,43,19,31,057,42*60
$BDGSV,3,3,12,21,20,183,41,22,51,127,45,25,06,314,38,01,40,126,00*68
$B3CN0,0,0,0,0,0,0,0,0,0,0,0,0,0,0*4C
$ini_pos,lastpos_good = 1,ini_pos.x:-1578915.160628,ini_pos.y:5312772.164295,ini_pos.z:3146358.196790
$rtc_local_time,localRTC.weeks:2055,localRTC.seconds:206240.776664,localGtime.weeks:2055,localGtime.seconds:206241.000000
$pseudo_cd_ph,prn:2,pseudo_cd_ph:206240924.437965661287
measnum = 0,full_prange = 22585750.345811
$oldmeas,msRange:0.000000,x:12587169.037219,y:21602621.060385,z:9790352.850933,vx:-1002.062256,vy:-620.839844,vz:2820.025879,tb:-0.000223819217
$newmeas,x:12587244.529736,y:21602667.832666,z:9790140.395385,vx:-1002.040955,vy:-620.825989,vz:2820.041016,tb:-0.000223819217
$pseudo_cd_ph,prn:5,pseudo_cd_ph:206240917.154649347067
measnum = 1,full_prange = 24836572.248865
$oldmeas,msRange:82.850514,x:4480487.724695,y:21877156.456170,z:-14341589.784193,vx:-732.110413,vy:1675.661377,vz:2367.334229,tb:0.000000798184
$newmeas,x:4480548.377623,y:21877017.633677,z:-14341785.907056,vx:-732.124695,vy:1675.681641,vz:2367.309082,tb:0.000000798184
$pseudo_cd_ph,prn:6,pseudo_cd_ph:206240931.051735222340
measnum = 2,full_prange = 20728146.241569
$oldmeas,msRange:69.146502,x:451299.543426,y:18993931.579249,z:18587215.756679,vx:-1690.208130,vy:-1635.832397,vz:1719.988647,tb:0.000193650021
$newmeas,x:451416.406620,y:18994044.683270,z:18587096.832876,vx:-1690.191040,vy:-1635.828491,vz:1720.015991,tb:0.000193650022
$pseudo_cd_ph,prn:12,pseudo_cd_ph:206240920.344639599323
measnum = 3,full_prange = 23951478.171059
$oldmeas,msRange:79.898215,x:13250127.094384,y:6287894.199986,z:21931678.803788,vx:-1022.862000,vy:2639.046875,vz:-120.782509,tb:0.000238432384
$newmeas,x:13250208.814976,y:6287683.357356,z:21931688.452009,vx:-1022.875366,vy:2639.043213,vz:-120.744476,tb:0.000238432384
$pseudo_cd_ph,prn:17,pseudo_cd_ph:206240929.151755273342
measnum = 4,full_prange = 21258318.495732
$oldmeas,msRange:70.914982,x:-14636184.048430,y:14195090.786637,z:17379798.424708,vx:-2116.956543,vy:233.222641,vz:-2029.144531,tb:0.000062134355
$newmeas,x:-14636033.934137,y:14195074.249018,z:17379942.310684,vx:-2116.975098,vy:233.216263,vz:-2029.119019,tb:0.000062134354
$pseudo_cd_ph,prn:19,pseudo_cd_ph:206240930.914582431316
measnum = 5,full_prange = 20617191.354853
$oldmeas,msRange:68.776363,x:-7535744.559276,y:14713470.754673,z:20503527.268393,vx:-2654.691895,vy:245.777328,vz:-1128.156738,tb:-0.000313608434
$newmeas,x:-7535561.991632,y:14713453.852527,z:20503604.852422,vx:-2654.702881,vy:245.767395,vz:-1128.125977,tb:-0.000313608434
$pseudo_cd_ph,prn:28,pseudo_cd_ph:206240926.584042906761
measnum = 6,full_prange = 22239654.611272
$oldmeas,msRange:74.188473,x:-13027919.911795,y:22472457.172385,z:-5168350.456545,vx:85.050560,vy:-755.808044,vz:-3125.726562,tb:0.000767806923
$newmeas,x:-13027926.220869,y:22472513.239842,z:-5168118.578903,vx:85.043144,vy:-755.780212,vz:-3125.734619,tb:0.000767806923
$GNGGA,091703.000,2944.9078,N,10633.0928,E,1,17,0.7,327.4,M,,,,0000*17
$GNRMC,091703.000,A,2944.9078,N,10633.0928,E,0.24,0.00,280519,,*19
$GPGSA,A,3,02,05,06,12,17,19,28,,,,,,0.8,0.7,0.5*3E
$BDGSA,A,3,02,04,07,10,12,13,19,21,22,25,,,0.8,0.7,0.5*24
$GLGSA,A,3,,,,,,,,,,,,,0.8,0.7,0.5*24
$GPGSV,3,1,10,02,36,270,41,05,08,205,37,06,63,321,46,12,15,321,40*71
$GPGSV,3,2,10,17,56,057,45,19,60,017,44,28,35,160,43,04,00,000,17*79
$GPGSV,3,3,10,24,00,000,37,09,12,115,00*75
$BDGSV,3,1,12,02,48,220,40,26,21,211,43,04,23,109,40,07,35,173,41*69
$BDGSV,3,2,12,10,56,204,41,12,52,338,42,13,58,304,43,19,31,057,43*61
$BDGSV,3,3,12,21,20,183,40,22,51,127,45,25,06,314,38,01,40,126,00*69
$B3CN0,0,0,0,0,0,0,0,0,0,0,0,0,0,0*4C
$ini_pos,lastpos_good = 1,ini_pos.x:-1578915.297124,ini_pos.y:5312772.302191,ini_pos.z:3146358.349918
$rtc_local_time,localRTC.weeks:2055,localRTC.seconds:206241.776664,localGtime.weeks:2055,localGtime.seconds:206242.000000
$pseudo_cd_ph,prn:2,pseudo_cd_ph:206241924.439472198486
measnum = 0,full_prange = 22585289.028534
$oldmeas,msRange:0.000000,x:12586166.833609,y:21602000.128673,z:9793172.775844,vx:-1002.345032,vy:-621.023621,vz:2819.824219,tb:-0.000223819223
$newmeas,x:12586242.345889,y:21602046.913844,z:9792960.339828,vx:-1002.323730,vy:-621.009766,vz:2819.839355,tb:-0.000223819223
$pseudo_cd_ph,prn:5,pseudo_cd_ph:206241917.157766371965
measnum = 1,full_prange = 24835628.121055
$oldmeas,msRange:82.848086,x:4479755.700652,y:21878831.995857,z:-14339222.297031,vx:-731.937744,vy:1675.418091,vz:2367.640137,tb:0.000000798183
$newmeas,x:4479816.336970,y:21878693.198803,z:-14339418.437775,vx:-731.952026,vy:1675.438232,vz:2367.614746,tb:0.000000798183
$pseudo_cd_ph,prn:6,pseudo_cd_ph:206241931.052298605442
measnum = 2,full_prange = 20727967.673396
$oldmeas,msRange:69.146621,x:449609.212518,y:18992295.719140,z:18588935.547982,vx:-1690.453857,vy:-1635.887939,vz:1719.593994,tb:0.000193650011
$newmeas,x:449726.091697,y:18992408.826032,z:18588816.652487,vx:-1690.436890,vy:-1635.884155,vz:1719.621338,tb:0.000193650012
$pseudo_cd_ph,prn:12,pseudo_cd_ph:206241920.347391128540
measnum = 3,full_prange = 23950643.614486
$oldmeas,msRange:79.896145,x:13249104.316357,y:6290533.269886,z:21931557.783300,vx:-1022.694153,vy:2639.093018,vz:-121.258476,tb:0.000238432378
$newmeas,x:13249186.020691,y:6290322.430916,z:21931567.469211,vx:-1022.707520,vy:2639.089355,vz:-121.220451,tb:0.000238432378
$pseudo_cd_ph,prn:17,pseudo_cd_ph:206241929.152308911085
measnum = 4,full_prange = 21258142.854940
$oldmeas,msRange:70.915111,x:-14638300.875167,y:14195324.054273,z:17377769.100059,vx:-2116.697021,vy:233.312637,vz:-2029.504883,tb:0.000062134364
$newmeas,x:-14638150.780519,y:14195307.510409,z:17377913.010392,vx:-2116.715332,vy:233.306259,vz:-2029.479248,tb:0.000062134363
$pseudo_cd_ph,prn:19,pseudo_cd_ph:206241930.915501922369
measnum = 5,full_prange = 20616906.031781
$oldmeas,msRange:68.776126,x:-7538399.170930,y:14713716.604219,z:20502398.887999,vx:-2654.531738,vy:245.921768,vz:-1128.604126,tb:-0.000313608432
$newmeas,x:-7538216.616828,y:14713699.692374,z:20502476.501717,vx:-2654.542725,vy:245.911835,vz:-1128.573364,tb:-0.000313608432
$pseudo_cd_ph,prn:28,pseudo_cd_ph:206241926.582920968533
measnum = 6,full_prange = 22239981.292395
$oldmeas,msRange:74.190279,x:-13027834.811226,y:22471701.176800,z:-5171476.127425,vx:85.150574,vy:-756.183167,vz:-3125.615479,tb:0.000767806921
$newmeas,x:-13027841.127812,y:22471757.272908,z:-5171244.254608,vx:85.143158,vy:-756.155334,vz:-3125.623779,tb:0.000767806922
$pseudo_cd_ph,prn:9,pseudo_cd_ph:18.766630036623
measnum = 7,full_prange = 24473850.223757
$oldmeas,msRange:81.641448,x:-24997549.663736,y:8396193.908751,z:-3265437.738978,vx:-469.979218,vy:-199.841339,vz:3119.840576,tb:0.000402900665
$newmeas,x:-24997511.295293,y:8396210.222776,z:-3265692.429973,vx:-470.009369,vy:-199.836014,vz:3119.834717,tb:0.000402900666
$GNGGA,091704.000,2944.9078,N,10633.0929,E,1,18,0.6,327.6,M,,,,0000*1D
$GNRMC,091704.000,A,2944.9078,N,10633.0929,E,0.39,0.00,280519,,*13
$GPGSA,A,3,02,05,06,12,17,19,28,,,,,,0.8,0.6,0.5*3F
$BDGSA,A,3,02,04,07,10,12,13,19,21,22,25,26,,0.8,0.6,0.5*21
$GLGSA,A,3,,,,,,,,,,,,,0.8,0.6,0.5*25
$GPGSV,3,1,10,02,36,270,42,05,08,205,36,06,63,321,46,12,15,321,40*73
$GPGSV,3,2,10,17,56,057,45,19,60,017,44,28,35,160,44,04,00,000,34*7F
$GPGSV,3,3,10,24,00,000,37,09,12,115,33*75
$BDGSV,3,1,12,02,48,220,39,26,21,211,43,04,23,109,39,07,35,173,41*69
$BDGSV,3,2,12,10,56,204,42,12,52,338,43,13,58,304,43,19,31,057,43*63
$BDGSV,3,3,12,21,20,183,40,22,51,127,45,25,06,314,38,01,40,126,00*69
$B3CN0,0,0,0,0,0,0,0,0,0,0,0,0,0,0*4C
$ini_pos,lastpos_good = 1,ini_pos.x:-1578915.486410,ini_pos.y:5312772.340134,ini_pos.z:3146358.501748
$rtc_local_time,localRTC.weeks:2055,localRTC.seconds:206242.776664,localGtime.weeks:2055,localGtime.seconds:206243.000000
$pseudo_cd_ph,prn:2,pseudo_cd_ph:206242924.440983444452
measnum = 0,full_prange = 22584826.299604
$oldmeas,msRange:0.000000,x:12585164.347192,y:21601379.013203,z:9795992.499067,vx:-1002.627869,vy:-621.207336,vz:2819.622559,tb:-0.000223819228
$newmeas,x:12585239.879231,y:21601425.811258,z:9795780.082600,vx:-1002.606567,vy:-621.193481,vz:2819.637695,tb:-0.000223819228
$pseudo_cd_ph,prn:5,pseudo_cd_ph:206242917.160885691643
measnum = 1,full_prange = 24834683.305288
$oldmeas,msRange:82.845659,x:4479023.849260,y:21880507.292136,z:-14336854.504074,vx:-731.765076,vy:1675.174561,vz:2367.945801,tb:0.000000798183
$newmeas,x:4479084.468971,y:21880368.520528,z:-14337050.662685,vx:-731.779419,vy:1675.194824,vz:2367.920654,tb:0.000000798183
$pseudo_cd_ph,prn:6,pseudo_cd_ph:206242931.052867174149
measnum = 2,full_prange = 20727787.550618
$oldmeas,msRange:69.146741,x:447918.635876,y:18990659.803450,z:18590654.944661,vx:-1690.699585,vy:-1635.943481,vz:1719.199463,tb:0.000193650001
$newmeas,x:448035.531028,y:18990772.913199,z:18590536.077484,vx:-1690.682617,vy:-1635.939697,vz:1719.226685,tb:0.000193650001
$pseudo_cd_ph,prn:12,pseudo_cd_ph:206242920.350150197744
measnum = 3,full_prange = 23949806.797482
$oldmeas,msRange:79.894075,x:13248081.706190,y:6293172.385894,z:21931436.286841,vx:-1022.526245,vy:2639.139160,vz:-121.734444,tb:0.000238432372
$newmeas,x:13248163.394259,y:6292961.550610,z:21931446.010438,vx:-1022.539673,vy:2639.135498,vz:-121.696426,tb:0.000238432373
$pseudo_cd_ph,prn:17,pseudo_cd_ph:206242929.152867823839
measnum = 4,full_prange = 21257965.632739
$oldmeas,msRange:70.915241,x:-14640417.442328,y:14195557.411888,z:17375739.415175,vx:-2116.437500,vy:233.402603,vz:-2029.865112,tb:0.000062134373
$newmeas,x:-14640267.367339,y:14195540.861783,z:17375883.349850,vx:-2116.455811,vy:233.396225,vz:-2029.839478,tb:0.000062134372
$pseudo_cd_ph,prn:19,pseudo_cd_ph:206242930.916426748037
measnum = 5,full_prange = 20616619.109432
$oldmeas,msRange:68.775890,x:-7541053.622368,y:14713962.598192,z:20501270.060290,vx:-2654.371338,vy:246.066177,vz:-1129.051392,tb:-0.000313608430
$newmeas,x:-7540871.081826,y:14713945.676651,z:20501347.703689,vx:-2654.382324,vy:246.056259,vz:-1129.020630,tb:-0.000313608430
$pseudo_cd_ph,prn:28,pseudo_cd_ph:206242926.581804037094
measnum = 6,full_prange = 22240306.472519
$oldmeas,msRange:74.192086,x:-13027749.610675,y:22470944.806102,z:-5174601.687317,vx:85.250526,vy:-756.558289,vz:-3125.504395,tb:0.000767806920
$newmeas,x:-13027755.934768,y:22471000.930858,z:-5174369.819346,vx:85.243111,vy:-756.530457,vz:-3125.512695,tb:0.000767806920
$pseudo_cd_ph,prn:9,pseudo_cd_ph:18.768625835519
measnum = 7,full_prange = 24473242.228110
$oldmeas,msRange:81.640137,x:-24998019.458397,y:8395994.034802,z:-3262317.863902,vx:-469.610138,vy:-199.906586,vz:3119.909912,tb:0.000402900658
$newmeas,x:-24997981.121038,y:8396010.353748,z:-3262572.554233,vx:-469.640259,vy:-199.901260,vz:3119.904297,tb:0.000402900659
$GNGGA,091705.000,2944.9078,N,10633.0929,E,1,18,0.6,328.2,M,,,,0000*17
$GNRMC,091705.000,A,2944.9078,N,10633.0929,E,0.36,0.00,280519,,*1D
$GPGSA,A,3,02,05,06,12,17,19,28,,,,,,0.8,0.6,0.5*3F
$BDGSA,A,3,02,04,07,10,12,13,19,21,22,25,26,,0.8,0.6,0.5*21
$GLGSA,A,3,,,,,,,,,,,,,0.8,0.6,0.5*25
$GPGSV,3,1,10,02,36,270,41,05,08,205,36,06,63,321,45,12,15,321,40*73
$GPGSV,3,2,10,17,56,057,45,19,60,017,44,28,35,160,43,04,00,000,34*78
$GPGSV,3,3,10,24,00,000,36,09,12,115,35*72
$BDGSV,3,1,12,02,48,220,40,26,21,211,43,04,23,109,40,01,40,126,40*6C
$BDGSV,3,2,12,07,35,173,41,10,56,204,41,12,52,338,42,13,58,304,43*6F
$BDGSV,3,3,12,19,31,057,43,21,20,183,40,22,51,127,45,25,06,314,39*67
$B3CN0,0,0,0,0,0,0,0,0,0,0,0,0,0,0*4C
$ini_pos,lastpos_good = 1,ini_pos.x:-1578915.662556,ini_pos.y:5312772.837419,ini_pos.z:3146358.706398
$rtc_local_time,localRTC.weeks:2055,localRTC.seconds:206243.776664,localGtime.weeks:2055,localGtime.seconds:206244.000000
$pseudo_cd_ph,prn:2,pseudo_cd_ph:206243924.442491233349
measnum = 0,full_prange = 22584364.607077
$oldmeas,msRange:0.000000,x:12584161.577959,y:21600757.714030,z:9798812.020544,vx:-1002.910706,vy:-621.391052,vz:2819.420654,tb:-0.000223819234
$newmeas,x:12584237.129759,y:21600804.524965,z:9798599.623619,vx:-1002.889343,vy:-621.377197,vz:2819.435791,tb:-0.000223819233
$pseudo_cd_ph,prn:5,pseudo_cd_ph:206243917.164004236460
measnum = 1,full_prange = 24833738.721818
$oldmeas,msRange:82.843230,x:4478292.170496,y:21882182.344955,z:-14334486.405369,vx:-731.592468,vy:1674.931152,vz:2368.251709,tb:0.000000798183
$newmeas,x:4478352.773602,y:21882043.598794,z:-14334682.581845,vx:-731.606750,vy:1674.951294,vz:2368.226318,tb:0.000000798183
$pseudo_cd_ph,prn:6,pseudo_cd_ph:206243931.053433686495
measnum = 2,full_prange = 20727608.044322
$oldmeas,msRange:69.146860,x:446227.813518,y:18989023.832240,z:18592373.946677,vx:-1690.945312,vy:-1635.999023,vz:1718.804688,tb:0.000193649991
$newmeas,x:446344.724647,y:18989136.944846,z:18592255.107818,vx:-1690.928223,vy:-1635.995117,vz:1718.832031,tb:0.000193649991
$pseudo_cd_ph,prn:12,pseudo_cd_ph:206243920.352909266949
measnum = 3,full_prange = 23948969.980478
$oldmeas,msRange:79.892005,x:13247059.263909,y:6295811.547942,z:21931314.314415,vx:-1022.358337,vy:2639.185059,vz:-122.210411,tb:0.000238432367
$newmeas,x:13247140.935712,y:6295600.716349,z:21931324.075695,vx:-1022.371765,vy:2639.181396,vz:-122.172386,tb:0.000238432367
$pseudo_cd_ph,prn:17,pseudo_cd_ph:206243929.153424412012
measnum = 4,full_prange = 21257789.107429
$oldmeas,msRange:70.915371,x:-14642533.749866,y:14195790.859439,z:17373709.370095,vx:-2116.177734,vy:233.492508,vz:-2030.225220,tb:0.000062134382
$newmeas,x:-14642383.694535,y:14195774.303095,z:17373853.329115,vx:-2116.196289,vy:233.486130,vz:-2030.199707,tb:0.000062134382
$pseudo_cd_ph,prn:19,pseudo_cd_ph:206243930.917348980904
measnum = 5,full_prange = 20616332.964385
$oldmeas,msRange:68.775653,x:-7543707.913523,y:14714208.736564,z:20500140.785293,vx:-2654.211182,vy:246.210571,vz:-1129.498657,tb:-0.000313608429
$newmeas,x:-7543525.386540,y:14714191.805328,z:20500218.458373,vx:-2654.222168,vy:246.200638,vz:-1129.467896,tb:-0.000313608429
$pseudo_cd_ph,prn:28,pseudo_cd_ph:206243926.580682069063
measnum = 6,full_prange = 22240633.162575
$oldmeas,msRange:74.193892,x:-13027664.310196,y:22470188.060285,z:-5177727.136151,vx:85.350426,vy:-756.933411,vz:-3125.393311,tb:0.000767806919
$newmeas,x:-13027670.641793,y:22470244.213694,z:-5177495.273015,vx:85.343018,vy:-756.905579,vz:-3125.401611,tb:0.000767806919
$pseudo_cd_ph,prn:9,pseudo_cd_ph:18.770624557898
measnum = 7,full_prange = 24472633.356881
$oldmeas,msRange:81.638827,x:-24998488.883963,y:8395794.095583,z:-3259197.919491,vx:-469.241028,vy:-199.971878,vz:3119.979248,tb:0.000402900651
$newmeas,x:-24998450.577687,y:8395810.419453,z:-3259452.609143,vx:-469.271179,vy:-199.966537,vz:3119.973389,tb:0.000402900652
$GNGGA,091706.000,2944.9079,N,10633.0926,E,1,19,0.6,328.4,M,,,,0000*1D
$GNRMC,091706.000,A,2944.9079,N,10633.0926,E,0.30,0.00,280519,,*16
$GPGSA,A,3,02,05,06,12,17,19,28,,,,,,0.8,0.6,0.5*3F
$BDGSA,A,3,01,02,04,07,10,12,13,19,21,22,25,26,0.8,0.6,0.5*20
$GLGSA,A,3,,,,,,,,,,,,,0.8,0.6,0.5*25
$GPGSV,3,1,10,02,36,270,41,05,08,205,36,06,63,321,46,12,15,321,40*70
$GPGSV,3,2,10,17,56,057,45,19,60,017,44,28,35,160,43,04,00,000,33*7F
$GPGSV,3,3,10,24,00,000,36,09,12,115,36*71
$BDGSV,3,1,12,02,48,220,39,26,21,211,43,04,23,109,41,01,40,126,41*62
$BDGSV,3,2,12,07,35,173,41,08,58,001,32,10,56,204,42,12,52,338,42*66
$BDGSV,3,3,12,13,58,304,43,19,31,057,42,21,20,183,41,22,51,127,44*64
$B3CN0,0,19,0,0,0,0,0,0,0,0,0,0,0,0*74
$ini_pos,lastpos_good = 1,ini_pos.x:-1578915.219809,ini_pos.y:5312773.056286,ini_pos.z:3146359.010760
$rtc_local_time,localRTC.weeks:2055,localRTC.seconds:206244.776664,localGtime.weeks:2055,localGtime.seconds:206245.000000
$pseudo_cd_ph,prn:2,pseudo_cd_ph:206244924.443997293711
measnum = 0,full_prange = 22583903.432753
$oldmeas,msRange:0.000000,x:12583158.525900,y:21600136.231207,z:9801631.340219,vx:-1003.193481,vy:-621.574646,vz:2819.218750,tb:-0.000223819239
$newmeas,x:12583234.097463,y:21600183.055019,z:9801418.962835,vx:-1003.172180,vy:-621.560791,vz:2819.234131,tb:-0.000223819239
$pseudo_cd_ph,prn:5,pseudo_cd_ph:206244917.167113661766
measnum = 1,full_prange = 24832796.872309
$oldmeas,msRange:82.840802,x:4477560.664336,y:21883857.154259,z:-14332118.000967,vx:-731.419861,vy:1674.687622,vz:2368.557373,tb:0.000000798182
$newmeas,x:4477621.250847,y:21883718.433534,z:-14332314.195323,vx:-731.434204,vy:1674.707764,vz:2368.531982,tb:0.000000798182
$pseudo_cd_ph,prn:6,pseudo_cd_ph:206244931.053997993469
measnum = 2,full_prange = 20727429.199179
$oldmeas,msRange:69.146980,x:444536.745464,y:18987387.805573,z:18594092.553996,vx:-1691.190918,vy:-1636.054443,vz:1718.410034,tb:0.000193649981
$newmeas,x:444653.672571,y:18987500.921036,z:18593973.743453,vx:-1691.173950,vy:-1636.050537,vz:1718.437256,tb:0.000193649981
$pseudo_cd_ph,prn:12,pseudo_cd_ph:206244920.355665862560
measnum = 3,full_prange = 23948133.905038
$oldmeas,msRange:79.889934,x:13246036.989537,y:6298450.755963,z:21931191.866026,vx:-1022.190430,vy:2639.230957,vz:-122.686371,tb:0.000238432361
$newmeas,x:13246118.645074,y:6298239.928060,z:21931201.664986,vx:-1022.203857,vy:2639.227295,vz:-122.648354,tb:0.000238432361
$pseudo_cd_ph,prn:17,pseudo_cd_ph:206244929.153977572918
measnum = 4,full_prange = 21257613.609589
$oldmeas,msRange:70.915501,x:-14644649.797735,y:14196024.396882,z:17371678.964861,vx:-2115.917969,vy:233.582382,vz:-2030.585327,tb:0.000062134391
$newmeas,x:-14644499.762056,y:14196007.834302,z:17371822.948229,vx:-2115.936523,vy:233.576019,vz:-2030.559814,tb:0.000062134391
$pseudo_cd_ph,prn:19,pseudo_cd_ph:206244930.918269932270
measnum = 5,full_prange = 20616047.203523
$oldmeas,msRange:68.775417,x:-7546362.044332,y:14714455.019309,z:20499011.063032,vx:-2654.050781,vy:246.354935,vz:-1129.945923,tb:-0.000313608427
$newmeas,x:-7546179.530908,y:14714438.078381,z:20499088.765792,vx:-2654.061768,vy:246.345001,vz:-1129.915161,tb:-0.000313608427
$pseudo_cd_ph,prn:28,pseudo_cd_ph:206244926.579557776451
measnum = 6,full_prange = 22240960.549523
$oldmeas,msRange:74.195700,x:-13027578.909841,y:22469430.939341,z:-5180852.473859,vx:85.450279,vy:-757.308533,vz:-3125.282227,tb:0.000767806918
$newmeas,x:-13027585.248939,y:22469487.121408,z:-5180620.615557,vx:85.442871,vy:-757.280701,vz:-3125.290527,tb:0.000767806918
$pseudo_cd_ph,prn:9,pseudo_cd_ph:18.772619663212
measnum = 7,full_prange = 24472025.566727
$oldmeas,msRange:81.637518,x:-24998957.940436,y:8395594.091044,z:-3256077.905813,vx:-468.871948,vy:-200.037216,vz:3120.048340,tb:0.000402900644
$newmeas,x:-24998919.665241,y:8395610.419842,z:-3256332.594792,vx:-468.902069,vy:-200.031891,vz:3120.042725,tb:0.000402900645
$GNGGA,091707.000,2944.9081,N,10633.0925,E,1,19,0.6,328.2,M,,,,0000*1E
$GNRMC,091707.000,A,2944.9081,N,10633.0925,E,0.07,0.00,280519,,*17
$GPGSA,A,3,02,05,06,12,17,19,28,,,,,,0.8,0.6,0.5*3F
$BDGSA,A,3,01,02,04,07,10,12,13,19,21,22,25,26,0.8,0.6,0.5*20
$GLGSA,A,3,,,,,,,,,,,,,0.8,0.6,0.5*25
$GPGSV,3,1,10,02,36,270,41,05,08,205,36,06,63,321,46,12,15,321,41*71
$GPGSV,3,2,10,17,56,057,45,19,60,017,44,28,35,160,43,04,00,000,34*78
$GPGSV,3,3,10,24,00,000,37,09,12,115,36*70
$BDGSV,3,1,12,02,48,220,39,26,21,211,43,04,23,109,40,01,40,126,42*60
$BDGSV,3,2,12,07,35,173,42,08,58,001,42,10,56,204,42,12,52,338,42*62
$BDGSV,3,3,12,13,58,304,43,19,31,057,43,21,20,183,41,22,51,127,45*64
$B3CN0,0,18,0,0,0,0,0,0,0,0,0,0,0,0*75
$ini_pos,lastpos_good = 1,ini_pos.x:-1578914.907833,ini_pos.y:5312772.848616,ini_pos.z:3146359.209138
$rtc_local_time,localRTC.weeks:2055,localRTC.seconds:206245.776664,localGtime.weeks:2055,localGtime.seconds:206246.000000
$pseudo_cd_ph,prn:2,pseudo_cd_ph:206245924.445500254631
measnum = 0,full_prange = 22583443.187618
$oldmeas,msRange:0.000000,x:12582155.191005,y:21599514.564788,z:9804450.458034,vx:-1003.476318,vy:-621.758240,vz:2819.016846,tb:-0.000223819245
$newmeas,x:12582230.782335,y:21599561.401474,z:9804238.100187,vx:-1003.455017,vy:-621.744385,vz:2819.032227,tb:-0.000223819244
$pseudo_cd_ph,prn:5,pseudo_cd_ph:206245917.170220375061
measnum = 1,full_prange = 24831855.835839
$oldmeas,msRange:82.838375,x:4476829.330756,y:21885531.719996,z:-14329749.290918,vx:-731.247314,vy:1674.443970,vz:2368.863037,tb:0.000000798182
$newmeas,x:4476889.900677,y:21885393.024705,z:-14329945.503154,vx:-731.261597,vy:1674.464111,vz:2368.837646,tb:0.000000798182
$pseudo_cd_ph,prn:6,pseudo_cd_ph:206245931.054557472467
measnum = 2,full_prange = 20727251.801427
$oldmeas,msRange:69.147100,x:442845.431732,y:18985751.723511,z:18595810.766581,vx:-1691.436646,vy:-1636.109741,vz:1718.015259,tb:0.000193649970
$newmeas,x:442962.374823,y:18985864.841834,z:18595691.984347,vx:-1691.419678,vy:-1636.105957,vz:1718.042603,tb:0.000193649971
$pseudo_cd_ph,prn:12,pseudo_cd_ph:206245920.358418405056
measnum = 3,full_prange = 23947299.044692
$oldmeas,msRange:79.887864,x:13245014.883098,y:6301090.009889,z:21931068.941676,vx:-1022.022522,vy:2639.276855,vz:-123.162331,tb:0.000238432355
$newmeas,x:13245096.522373,y:6300879.185671,z:21931078.778315,vx:-1022.035889,vy:2639.273193,vz:-123.124313,tb:0.000238432355
$pseudo_cd_ph,prn:17,pseudo_cd_ph:206245929.154527693987
measnum = 4,full_prange = 21257439.023068
$oldmeas,msRange:70.915633,x:-14646765.585886,y:14196258.024175,z:17369648.199513,vx:-2115.658447,vy:233.672211,vz:-2030.945435,tb:0.000062134401
$newmeas,x:-14646615.569857,y:14196241.455362,z:17369792.207232,vx:-2115.676758,vy:233.665848,vz:-2030.919922,tb:0.000062134400
$pseudo_cd_ph,prn:19,pseudo_cd_ph:206245930.919187396765
measnum = 5,full_prange = 20615762.487998
$oldmeas,msRange:68.775182,x:-7549016.014731,y:14714701.446400,z:20497880.893534,vx:-2653.890137,vy:246.499268,vz:-1130.393188,tb:-0.000313608425
$newmeas,x:-7548833.514860,y:14714684.495780,z:20497958.625975,vx:-2653.901367,vy:246.489334,vz:-1130.362427,tb:-0.000313608425
$pseudo_cd_ph,prn:28,pseudo_cd_ph:206245926.578430414200
measnum = 6,full_prange = 22241288.856725
$oldmeas,msRange:74.197509,x:-13027493.409665,y:22468673.443266,z:-5183977.700375,vx:85.550072,vy:-757.683655,vz:-3125.170898,tb:0.000767806917
$newmeas,x:-13027499.756261,y:22468729.653992,z:-5183745.846901,vx:85.542671,vy:-757.655823,vz:-3125.179199,tb:0.000767806917
$pseudo_cd_ph,prn:9,pseudo_cd_ph:206245918.774611502886
measnum = 7,full_prange = 24471418.759370
$oldmeas,msRange:81.636210,x:-24999426.627817,y:8395394.021133,z:-3252957.822933,vx:-468.502838,vy:-200.102615,vz:3120.117676,tb:0.000402900637
$newmeas,x:-24999388.383699,y:8395410.354865,z:-3253212.511243,vx:-468.532990,vy:-200.097275,vz:3120.111816,tb:0.000402900637
$GNGGA,091708.000,2944.9082,N,10633.0923,E,1,20,0.6,328.4,M,,,,0000*18
$GNRMC,091708.000,A,2944.9082,N,10633.0923,E,0.16,0.00,280519,,*1D
$GPGSA,A,3,02,05,06,09,12,17,19,28,,,,,0.7,0.6,0.4*38
$BDGSA,A,3,01,02,04,07,10,12,13,19,21,22,25,26,0.7,0.6,0.4*2E
$GLGSA,A,3,,,,,,,,,,,,,0.7,0.6,0.4*2B
$GPGSV,3,1,10,02,36,270,42,05,08,205,37,06,63,321,46,12,15,321,41*73
$GPGSV,3,2,10,17,56,057,45,19,60,017,44,28,35,160,43,04,00,000,35*79
$GPGSV,3,3,10,24,00,000,37,09,12,115,36*70
$BDGSV,3,1,12,02,48,220,38,26,21,211,43,04,23,109,39,01,40,126,41*6C
$BDGSV,3,2,12,07,35,173,42,08,58,001,43,10,56,204,41,12,52,338,42*60
$BDGSV,3,3,12,13,58,304,44,19,31,057,43,21,20,183,41,22,51,127,44*62
$B3CN0,0,0,0,0,0,0,0,0,0,0,0,0,0,0*4C
$ini_pos,lastpos_good = 1,ini_pos.x:-1578914.733352,ini_pos.y:5312772.979785,ini_pos.z:3146359.493617
$rtc_local_time,localRTC.weeks:2055,localRTC.seconds:206246.776664,localGtime.weeks:2055,localGtime.seconds:206247.000000
$pseudo_cd_ph,prn:2,pseudo_cd_ph:206246924.447001129389
measnum = 0,full_prange = 22582983.567899
$oldmeas,msRange:0.000000,x:12581151.573265,y:21598892.714826,z:9807269.373935,vx:-1003.759216,vy:-621.941711,vz:2818.814941,tb:-0.000223819250
$newmeas,x:12581227.184363,y:21598939.564384,z:9807057.035621,vx:-1003.737915,vy:-621.927917,vz:2818.830322,tb:-0.000223819250
$pseudo_cd_ph,prn:5,pseudo_cd_ph:206246917.173321753740
measnum = 1,full_prange = 24830916.398648
$oldmeas,msRange:82.835947,x:4476098.169732,y:21887206.042113,z:-14327380.275271,vx:-731.074768,vy:1674.200317,vz:2369.168457,tb:0.000000798182
$newmeas,x:4476158.723070,y:21887067.372249,z:-14327576.505394,vx:-731.089050,vy:1674.220581,vz:2369.143311,tb:0.000000798182
$pseudo_cd_ph,prn:6,pseudo_cd_ph:206246931.055113315582
measnum = 2,full_prange = 20727075.493685
$oldmeas,msRange:69.147220,x:441153.872342,y:18984115.586116,z:18597528.584395,vx:-1691.682251,vy:-1636.165039,vz:1717.620483,tb:0.000193649960
$newmeas,x:441270.831422,y:18984228.707300,z:18597409.830467,vx:-1691.665283,vy:-1636.161255,vz:1717.647827,tb:0.000193649961
$pseudo_cd_ph,prn:12,pseudo_cd_ph:206246920.361165881157
measnum = 3,full_prange = 23946465.703213
$oldmeas,msRange:79.885794,x:13243992.944615,y:6303729.309653,z:21930945.541370,vx:-1021.854553,vy:2639.322754,vz:-123.638290,tb:0.000238432349
$newmeas,x:13244074.567633,y:6303518.489113,z:21930955.415684,vx:-1021.867920,vy:2639.319092,vz:-123.600273,tb:0.000238432350
$pseudo_cd_ph,prn:17,pseudo_cd_ph:206246929.155073553324
measnum = 4,full_prange = 21257265.714183
$oldmeas,msRange:70.915764,x:-14648881.114274,y:14196491.741275,z:17367617.074092,vx:-2115.398438,vy:233.761993,vz:-2031.305542,tb:0.000062134410
$newmeas,x:-14648731.117888,y:14196475.166231,z:17367761.106167,vx:-2115.416992,vy:233.755630,vz:-2031.280029,tb:0.000062134409
$pseudo_cd_ph,prn:19,pseudo_cd_ph:206246930.920102059841
measnum = 5,full_prange = 20615478.612318
$oldmeas,msRange:68.774946,x:-7551669.824655,y:14714948.017810,z:20496750.276824,vx:-2653.729736,vy:246.643570,vz:-1130.840332,tb:-0.000313608423
$newmeas,x:-7551487.338334,y:14714931.057500,z:20496828.038947,vx:-2653.740723,vy:246.633652,vz:-1130.809570,tb:-0.000313608423
$pseudo_cd_ph,prn:28,pseudo_cd_ph:206246926.577298790216
measnum = 6,full_prange = 22241618.441562
$oldmeas,msRange:74.199317,x:-13027407.809723,y:22467915.572052,z:-5187102.815629,vx:85.649811,vy:-758.058838,vz:-3125.059814,tb:0.000767806915
$newmeas,x:-13027414.163812,y:22467971.811443,z:-5186870.966976,vx:85.642410,vy:-758.031006,vz:-3125.067871,tb:0.000767806916
$pseudo_cd_ph,prn:9,pseudo_cd_ph:206246918.776597261429
measnum = 7,full_prange = 24470813.774654
$oldmeas,msRange:81.634901,x:-24999894.946109,y:8395193.885801,z:-3249837.670918,vx:-468.133759,vy:-200.168060,vz:3120.186768,tb:0.000402900630
$newmeas,x:-24999856.733064,y:8395210.224471,z:-3250092.358572,vx:-468.163879,vy:-200.162720,vz:3120.180908,tb:0.000402900630
$GNGGA,091709.000,2944.9082,N,10633.0924,E,1,20,0.6,327.9,M,,,,0000*1C
$GNRMC,091709.000,A,2944.9082,N,10633.0924,E,0.25,0.00,280519,,*1B
$GPGSA,A,3,02,05,06,09,12,17,19,28,,,,,0.7,0.6,0.4*38
$BDGSA,A,3,01,02,04,07,10,12,13,19,21,22,25,26,0.7,0.6,0.4*2E
$GLGSA,A,3,,,,,,,,,,,,,0.7,0.6,0.4*2B
$GPGSV,3,1,10,02,36,270,42,05,08,205,37,06,63,321,46,12,15,321,40*72
$GPGSV,3,2,10,17,56,057,45,19,60,017,44,28,35,160,43,04,00,000,35*79
$GPGSV,3,3,10,24,00,000,36,09,12,115,36*71
$BDGSV,3,1,12,02,48,220,40,26,21,211,43,04,23,109,39,01,40,126,41*63
$BDGSV,3,2,12,07,35,173,42,08,58,001,42,10,56,204,42,12,52,338,42*62
$BDGSV,3,3,12,13,58,304,44,19,31,057,43,21,20,183,41,22,51,127,44*62
$B3CN0,0,36,0,0,0,0,0,0,0,0,0,0,0,0*79
$GLGSV,2,1,06,04,00,000,45,20,00,000,42,05,00,000,48,11,00,000,36*6D
$GLGSV,2,2,06,09,00,000,45,26,00,000,46*6D
