SD initialized success
Create debug.log Failed! 3
bbram_blkflag = 1
rtcflag = 0
BBRAM Block OK: 01 EPHflag: 0805093a 03341adf, rtc 00
Hot-start nowtime:day = 28,minute = 21,seconds = 17.00
GPS 0 Init Dop: 10000,80
GPS 1 Init Dop: -2116, 2
GPS 2 Init Dop: 10000,80
GPS 3 Init Dop: -3172, 2
GPS 4 Init Dop: -4693, 2
GPS 5 Init Dop:  -613, 2
GPS 6 Init Dop: 10000,80
GPS 7 Init Dop: 10000,80
GPS 8 Init Dop: -2907, 2
GPS 9 Init Dop: 10000,80
GPS10 Init Dop: 10000,80
GPS11 Init Dop: -4065, 2
GPS12 Init Dop: 10000,80
GPS13 Init Dop: 10000,80
GPS14 Init Dop: 10000,80
GPS15 Init Dop: 10000,80
GPS16 Init Dop:  -609, 2
GPS17 Init Dop: 10000,80
GPS18 Init Dop: -1179, 2
GPS19 Init Dop: 10000,80
GPS20 Init Dop: 10000,80
GPS21 Init Dop: 10000,80
GPS22 Init Dop: 10000,80
GPS23 Init Dop: 10000,80
GPS24 Init Dop: 10000,80
GPS25 Init Dop: 10000,80
GPS26 Init Dop: 10000,80
GPS27 Init Dop:  2061, 2
GPS28 Init Dop: 10000,80
GPS29 Init Dop: 10000,80
GPS30 Init Dop: 10000,80
GPS31 Init Dop: 10000,80
BDS 0 Init Dop:  -830, 2
BDS 1 Init Dop:  -898, 2
BDS 2 Init Dop:  -847, 2
BDS 3 Init Dop:  -851, 2
BDS 4 Init Dop:  -877, 2
BDS 5 Init Dop: 10000,80
BDS 6 Init Dop:   601, 2
BDS 7 Init Dop:  -489, 2
BDS 8 Init Dop: 10000,80
BDS 9 Init Dop:   297, 2
BDS10 Init Dop: 10000,80
BDS11 Init Dop: -1717, 2
BDS12 Init Dop:  -641, 2
BDS13 Init Dop: 10000,80
BDS14 Init Dop: 10000,80
BDS15 Init Dop: 10000,80
BDS16 Init Dop: 10000,80
BDS17 Init Dop: 10000,80
BDS18 Init Dop:   602, 2
BDS19 Init Dop: 10000,80
BDS20 Init Dop: -4094, 2
BDS21 Init Dop: -2275, 2
BDS22 Init Dop: 10000,80
BDS23 Init Dop: 10000,80
BDS24 Init Dop: -1838, 2
BDS25 Init Dop:  1817, 2
BDS26 Init Dop: 10000,80
BDS27 Init Dop: 10000,80
BDS28 Init Dop: 10000,80
BDS29 Init Dop: 10000,80
BDS30 Init Dop: 10000,80
BDS31 Init Dop: 10000,80
Good luck!
$ini_pos,lastpos_good = 1,ini_pos.x:-1578917.000000,ini_pos.y:5312776.000000,ini_pos.z:3146358.000000
$rtc_local_time,localRTC.weeks:2055,localRTC.seconds:206496.025977,localGtime.weeks:0,localGtime.seconds:19.025977
source<tow,snapshot
$GNGGA,000000.000,,,,,0,00,,,M,,,,0000*2B
$GNRMC,000000.000,A,,,,,,,060180,,*29
$GPGSA,A,1,,,,,,,,,,,,,,,*1E
$BDGSA,A,1,,,,,,,,,,,,,,,*0F
$GLGSA,A,1,,,,,,,,,,,,,,,*02
$B3CN0,0,0,0,0,0,0,0,0,0,0,0,0,0,0*4C
$ini_pos,lastpos_good = 1,ini_pos.x:-1578917.000000,ini_pos.y:5312776.000000,ini_pos.z:3146358.000000
$rtc_local_time,localRTC.weeks:2055,localRTC.seconds:206497.025977,localGtime.weeks:2055,localGtime.seconds:206497.025977
source<tow,snapshot
nits = 3
$GNGGA,092121.792,2945.9223,N,10633.1193,E,1,05,0.0,1416.0,M,,,,0000*2E
$GNRMC,092121.792,A,2945.9223,N,10633.1193,E,0.00,0.00,280519,,*12
$GPGSA,A,3,,,,,,,,,,,,,0.0,0.0,0.0*32
$BDGSA,A,3,01,02,03,04,05,,,,,,,,0.0,0.0,0.0*22
$GLGSA,A,3,,,,,,,,,,,,,0.0,0.0,0.0*2E
$B3CN0,0,0,0,0,0,0,0,0,0,0,0,0,0,0*4C
$ini_pos,lastpos_good = 1,ini_pos.x:-1578917.000000,ini_pos.y:5312776.000000,ini_pos.z:3146358.000000
$rtc_local_time,localRTC.weeks:2055,localRTC.seconds:206498.025977,localGtime.weeks:2055,localGtime.seconds:206498.025977
$pseudo_cd_ph,prn:2,pseudo_cd_ph:14.198612716541
measnum = 0,full_prange = 22350935.484566
$oldmeas,msRange:0.000000,x:12320246.338416,y:21437130.155303,z:10508352.899864,vx:-1075.038452,vy:-666.300964,vz:2766.340576,tb:-0.000223820605
$newmeas,x:12320326.486785,y:21437179.830699,z:10508146.655585,vx:-1075.017212,vy:-666.288330,vz:2766.356689,tb:-0.000223820605
$pseudo_cd_ph,prn:5,pseudo_cd_ph:7.332355786395
measnum = 1,full_prange = 24476726.511850
$oldmeas,msRange:82.226976,x:4297950.182323,y:22299657.581583,z:-13723162.847537,vx:-688.550659,vy:1611.377930,vz:2444.283203,tb:0.000000798079
$newmeas,x:4298006.399987,y:22299526.018853,z:-13723362.411465,vx:-688.564209,vy:1611.398926,vz:2444.259277,tb:0.000000798079
$pseudo_cd_ph,prn:6,pseudo_cd_ph:0.568329110989
measnum = 2,full_prange = 20566496.314316
$oldmeas,msRange:69.183321,x:8810.130381,y:18571817.602960,z:19016162.675529,vx:-1752.716309,vy:-1648.088501,vz:1617.394897,tb:0.000193647428
$newmeas,x:8930.370442,y:18571930.665767,z:19016051.717331,vx:-1752.699829,vy:-1648.085693,vz:1617.422607,tb:0.000193647429
$pseudo_cd_ph,prn:9,pseudo_cd_ph:8.652572065038
measnum = 3,full_prange = 24201482.406003
$oldmeas,msRange:81.308644,x:-25105786.813865,y:8342750.147333,z:-2464588.580298,vx:-375.575378,vy:-218.197876,vz:3135.432617,tb:0.000402898836
$newmeas,x:-25105756.493420,y:8342767.761638,z:-2464841.695636,vx:-375.605103,vy:-218.191559,vz:3135.428467,tb:0.000402898836
$pseudo_cd_ph,prn:12,pseudo_cd_ph:10.424817097385
measnum = 4,full_prange = 23620870.472248
$oldmeas,msRange:79.372061,x:12992834.405923,y:6967531.375598,z:21884924.180840,vx:-978.967285,vy:2648.675537,vz:-242.977356,tb:0.000238430912
$newmeas,x:12992911.540020,y:6967322.684577,z:21884943.323733,vx:-978.980957,vy:2648.673340,vz:-242.939957,tb:0.000238430912
$pseudo_cd_ph,prn:17,pseudo_cd_ph:18.666751395456
measnum = 5,full_prange = 21097149.058912
$oldmeas,msRange:70.953431,x:-15171593.129453,y:14257886.337232,z:16846471.433005,vx:-2048.726562,vy:254.927963,vz:-2120.383057,tb:0.000062136714
$newmeas,x:-15171448.954750,y:14257868.397505,z:16846620.648823,vx:-2048.745605,vy:254.922424,vz:-2120.358398,tb:0.000062136713
$pseudo_cd_ph,prn:19,pseudo_cd_ph:0.523242790095
measnum = 6,full_prange = 20427941.516890
$oldmeas,msRange:68.721243,x:-8212597.990018,y:14781335.598062,z:20198859.601099,vx:-2611.417480,vy:281.989685,vz:-1242.263062,tb:-0.000313607952
$newmeas,x:-8212420.046902,y:14781316.383525,z:20198944.248224,vx:-2611.429443,vy:281.980347,vz:-1242.233032,tb:-0.000313607952
$pseudo_cd_ph,prn:28,pseudo_cd_ph:15.665113216038
measnum = 7,full_prange = 22208572.051140
$oldmeas,msRange:74.660358,x:-13002908.003891,y:22265789.192749,z:-5967887.300529,vx:108.979591,vy:-852.390564,vz:-3094.974609,tb:0.000767806587
$newmeas,x:-13002916.076844,y:22265852.336658,z:-5967658.025011,vx:108.973206,vy:-852.362671,vz:-3094.984131,tb:0.000767806587
source<tow,snapshot
nits = 2
$GNGGA,092120.312,2944.9063,N,10633.0980,E,1,20,0.0,334.0,M,,,,0000*1E
$GNRMC,092120.312,A,2944.9063,N,10633.0980,E,0.00,0.00,280519,,*13
$GPGSA,A,3,02,05,06,09,12,17,19,28,,,,,0.0,0.0,0.0*3D
$BDGSA,A,3,01,02,03,04,05,07,08,10,12,19,22,26,0.0,0.0,0.0*23
$GLGSA,A,3,,,,,,,,,,,,,0.0,0.0,0.0*2E
$GPGSV,2,1,08,02,00,000,26,05,00,000,25,06,00,000,26,09,00,000,25*7A
$GPGSV,2,2,08,12,00,000,26,17,00,000,26,19,00,000,26,28,00,000,26*76
$BDGSV,3,1,12,01,00,000,40,02,00,000,40,03,00,000,41,04,00,000,37*6C
$BDGSV,3,2,12,05,00,000,38,07,00,000,24,08,00,000,24,10,00,000,24*6C
$BDGSV,3,3,12,12,00,000,24,19,00,000,23,22,00,000,24,26,00,000,23*64
$B3CN0,0,0,0,0,0,0,0,0,0,0,0,0,0,0*4C
$ini_pos,lastpos_good = 1,ini_pos.x:-1578925.420766,ini_pos.y:5312776.700482,ini_pos.z:3146359.140328
$rtc_local_time,localRTC.weeks:2055,localRTC.seconds:206499.025977,localGtime.weeks:2055,localGtime.seconds:206499.025977
$pseudo_cd_ph,prn:2,pseudo_cd_ph:14.200087166019
measnum = 0,full_prange = 22350483.789813
$oldmeas,msRange:0.000000,x:12319171.157580,y:21436463.769391,z:10511119.132300,vx:-1075.323364,vy:-666.470886,vz:2766.124512,tb:-0.000223820610
$newmeas,x:12319251.325572,y:21436513.456448,z:10510912.908298,vx:-1075.302124,vy:-666.458191,vz:2766.140625,tb:-0.000223820610
$pseudo_cd_ph,prn:5,pseudo_cd_ph:7.335442193442
measnum = 1,full_prange = 24475791.568697
$oldmeas,msRange:82.224560,x:4297261.714781,y:22301268.831097,z:-13720718.417937,vx:-688.384460,vy:1611.121216,vz:2444.576172,tb:0.000000798078
$newmeas,x:4297317.916733,y:22301137.294357,z:-13720917.998149,vx:-688.398071,vy:1611.142090,vz:2444.552246,tb:0.000000798078
$pseudo_cd_ph,prn:6,pseudo_cd_ph:0.568838087811
measnum = 2,full_prange = 20566334.060566
$oldmeas,msRange:69.183485,x:7057.293898,y:18570169.494704,z:19017779.868563,vx:-1752.956787,vy:-1648.128174,vz:1616.991211,tb:0.000193647418
$newmeas,x:7177.549509,y:18570282.559344,z:19017668.938931,vx:-1752.940308,vy:-1648.125488,vz:1617.018921,tb:0.000193647419
$pseudo_cd_ph,prn:9,pseudo_cd_ph:8.654528687776
measnum = 3,full_prange = 24200886.159235
$oldmeas,msRange:81.307329,x:-25106162.205127,y:8342531.910380,z:-2461453.121478,vx:-375.207184,vy:-218.276062,vz:3135.485107,tb:0.000402898828
$newmeas,x:-25106131.915153,y:8342549.530562,z:-2461706.234806,vx:-375.236877,vy:-218.269745,vz:3135.480957,tb:0.000402898829
$pseudo_cd_ph,prn:12,pseudo_cd_ph:10.427526002289
measnum = 4,full_prange = 23620048.692041
$oldmeas,msRange:79.370052,x:12991855.525473,y:6970180.065356,z:21884680.966112,vx:-978.793701,vy:2648.704102,vz:-243.452103,tb:0.000238430906
$newmeas,x:12991932.643210,y:6969971.379336,z:21884700.145744,vx:-978.807373,vy:2648.701904,vz:-243.414703,tb:0.000238430907
$pseudo_cd_ph,prn:17,pseudo_cd_ph:18.667256777587
measnum = 5,full_prange = 21096987.883059
$oldmeas,msRange:70.953579,x:-15173641.720197,y:14258141.304572,z:16844350.875283,vx:-2048.455078,vy:255.006729,vz:-2120.732666,tb:0.000062136723
$newmeas,x:-15173497.565687,y:14258123.359440,z:16844500.114561,vx:-2048.474365,vy:255.001190,vz:-2120.708008,tb:0.000062136722
$pseudo_cd_ph,prn:19,pseudo_cd_ph:0.524108752477
measnum = 6,full_prange = 20427672.249154
$oldmeas,msRange:68.721037,x:-8215209.319041,y:14781617.656333,z:20197617.117918,vx:-2611.240723,vy:282.126862,vz:-1242.703491,tb:-0.000313607950
$newmeas,x:-8215031.390299,y:14781598.432701,z:20197701.793938,vx:-2611.252930,vy:282.117523,vz:-1242.673462,tb:-0.000313607951
$pseudo_cd_ph,prn:28,pseudo_cd_ph:15.663924872584
measnum = 7,full_prange = 22208918.638283
$oldmeas,msRange:74.662208,x:-13002798.981244,y:22264936.614079,z:-5970982.210813,vx:109.065704,vy:-852.766846,vz:-3094.846191,tb:0.000767806586
$newmeas,x:-13002807.060702,y:22264999.786848,z:-5970752.941227,vx:109.059326,vy:-852.738953,vz:-3094.855713,tb:0.000767806586
source<tow,snapshot
nits = 2
$GNGGA,092121.308,2944.9070,N,10633.0961,E,1,20,0.0,332.4,M,,,,0000*1B
$GNRMC,092121.308,A,2944.9070,N,10633.0961,E,0.00,0.00,280519,,*14
$GPGSA,A,3,02,05,06,09,12,17,19,28,,,,,0.0,0.0,0.0*3D
$BDGSA,A,3,01,02,03,04,05,07,08,10,12,19,22,26,0.0,0.0,0.0*23
$GLGSA,A,3,,,,,,,,,,,,,0.0,0.0,0.0*2E
$GPGSV,2,1,08,02,37,272,41,05,10,205,38,06,63,325,46,09,13,113,39*79
$GPGSV,2,2,08,12,17,320,43,17,55,061,45,19,60,021,44,28,33,160,42*74
$BDGSV,3,1,12,01,39,126,40,02,48,220,40,03,55,171,41,04,23,109,38*6E
$BDGSV,3,2,12,05,28,246,39,07,34,173,41,08,58,002,43,10,55,204,42*6E
$BDGSV,3,3,12,12,52,341,43,19,30,055,43,22,52,124,45,26,19,210,41*69
$B3CN0,0,0,0,0,0,0,0,0,0,0,0,0,0,0*4C
$ini_pos,lastpos_good = 1,ini_pos.x:-1578921.793887,ini_pos.y:5312775.619351,ini_pos.z:3146359.457971
$rtc_local_time,localRTC.weeks:2055,localRTC.seconds:206500.025977,localGtime.weeks:2055,localGtime.seconds:206500.025977
$pseudo_cd_ph,prn:2,pseudo_cd_ph:14.201557625540
measnum = 0,full_prange = 22350033.274415
$oldmeas,msRange:0.000000,x:12318095.691813,y:21435797.213635,z:10513885.148624,vx:-1075.608276,vy:-666.640686,vz:2765.908447,tb:-0.000223820616
$newmeas,x:12318175.879432,y:21435846.912350,z:10513678.944893,vx:-1075.587036,vy:-666.628052,vz:2765.924561,tb:-0.000223820615
$pseudo_cd_ph,prn:5,pseudo_cd_ph:7.338539936442
measnum = 1,full_prange = 24474853.212561
$oldmeas,msRange:82.222138,x:4296573.413377,y:22302879.823787,z:-13718273.695545,vx:-688.218384,vy:1610.864258,vz:2444.868896,tb:0.000000798078
$newmeas,x:4296629.599612,y:22302748.313060,z:-13718473.292006,vx:-688.231934,vy:1610.885254,vz:2444.844971,tb:0.000000798078
$pseudo_cd_ph,prn:6,pseudo_cd_ph:0.569352441752
measnum = 2,full_prange = 20566170.180735
$oldmeas,msRange:69.183652,x:5304.216937,y:18568521.346759,z:19019396.657932,vx:-1753.197266,vy:-1648.167847,vz:1616.587524,tb:0.000193647408
$newmeas,x:5424.488086,y:18568634.413219,z:19019285.756876,vx:-1753.180786,vy:-1648.165161,vz:1616.615234,tb:0.000193647409
$pseudo_cd_ph,prn:9,pseudo_cd_ph:8.656488711300
measnum = 3,full_prange = 24200288.876063
$oldmeas,msRange:81.306053,x:-25106537.228179,y:8342313.595218,z:-2458317.610338,vx:-374.838959,vy:-218.354294,vz:3135.537354,tb:0.000402898821
$newmeas,x:-25106506.968676,y:8342331.221280,z:-2458570.721639,vx:-374.868683,vy:-218.347977,vz:3135.533203,tb:0.000402898822
$pseudo_cd_ph,prn:12,pseudo_cd_ph:10.430228687335
measnum = 4,full_prange = 23619228.770213
$oldmeas,msRange:79.368021,x:12990876.818625,y:6972828.783754,z:21884437.276644,vx:-978.620056,vy:2648.732666,vz:-243.926849,tb:0.000238430900
$newmeas,x:12990953.920008,y:6972620.102724,z:21884456.493012,vx:-978.633728,vy:2648.730469,vz:-243.889450,tb:0.000238430901
$pseudo_cd_ph,prn:17,pseudo_cd_ph:18.667754314046
measnum = 5,full_prange = 21096829.048047
$oldmeas,msRange:70.953757,x:-15175690.039614,y:14258396.350653,z:16842229.968007,vx:-2048.183838,vy:255.085449,vz:-2121.082031,tb:0.000062136732
$newmeas,x:-15175545.905284,y:14258378.400116,z:16842379.230758,vx:-2048.202881,vy:255.079910,vz:-2121.057617,tb:0.000062136731
$pseudo_cd_ph,prn:19,pseudo_cd_ph:0.524974953511
measnum = 6,full_prange = 20427402.892074
$oldmeas,msRange:68.720849,x:-8217820.471501,y:14781899.851775,z:20196374.194317,vx:-2611.064209,vy:282.264038,vz:-1243.143799,tb:-0.000313607948
$newmeas,x:-8217642.557138,y:14781880.619051,z:20196458.899228,vx:-2611.076172,vy:282.254669,vz:-1243.113892,tb:-0.000313607949
$pseudo_cd_ph,prn:28,pseudo_cd_ph:15.662735127051
measnum = 7,full_prange = 22209265.636413
$oldmeas,msRange:74.664082,x:-13002689.872513,y:22264083.659132,z:-5974076.992677,vx:109.151756,vy:-853.143127,vz:-3094.717773,tb:0.000767806584
$newmeas,x:-13002697.958472,y:22264146.860764,z:-5973847.729024,vx:109.145386,vy:-853.115234,vz:-3094.727295,tb:0.000767806585
source<tow,snapshot
nits = 2
$GNGGA,092122.307,2944.9071,N,10633.0946,E,1,20,0.0,331.3,M,,,,0000*17
$GNRMC,092122.307,A,2944.9071,N,10633.0946,E,0.00,0.00,280519,,*1C
$GPGSA,A,3,02,05,06,09,12,17,19,28,,,,,0.0,0.0,0.0*3D
$BDGSA,A,3,01,02,03,04,05,07,08,10,12,19,22,26,0.0,0.0,0.0*23
$GLGSA,A,3,,,,,,,,,,,,,0.0,0.0,0.0*2E
$GPGSV,2,1,08,02,37,272,41,05,10,205,37,06,63,325,45,09,13,113,39*75
$GPGSV,2,2,08,12,17,320,43,17,55,061,45,19,60,021,44,28,33,160,42*74
$BDGSV,3,1,12,01,39,126,40,02,48,220,38,03,56,171,41,04,23,109,38*62
$BDGSV,3,2,12,05,28,246,38,07,34,173,41,08,58,002,42,10,55,204,42*6E
$BDGSV,3,3,12,12,52,341,42,19,30,055,43,22,52,124,44,26,19,210,41*69
$B3CN0,0,0,0,0,0,0,0,0,0,0,0,0,0,0*4C
$ini_pos,lastpos_good = 1,ini_pos.x:-1578919.221343,ini_pos.y:5312775.312031,ini_pos.z:3146359.157043
$rtc_local_time,localRTC.weeks:2055,localRTC.seconds:206501.025977,localGtime.weeks:2055,localGtime.seconds:206501.025977
$pseudo_cd_ph,prn:2,pseudo_cd_ph:14.203027234865
measnum = 0,full_prange = 22349583.018118
$oldmeas,msRange:0.000000,x:12317019.941109,y:21435130.488088,z:10516650.948782,vx:-1075.893188,vy:-666.810425,vz:2765.692139,tb:-0.000223820621
$newmeas,x:12317100.148354,y:21435180.198458,z:10516444.765321,vx:-1075.871948,vy:-666.797791,vz:2765.708252,tb:-0.000223820620
$pseudo_cd_ph,prn:5,pseudo_cd_ph:7.341635419709
measnum = 1,full_prange = 24473915.535447
$oldmeas,msRange:82.219712,x:4295885.278082,y:22304490.559604,z:-13715828.680410,vx:-688.052246,vy:1610.607422,vz:2445.161621,tb:0.000000798077
$newmeas,x:4295941.448605,y:22304359.074887,z:-13716028.293121,vx:-688.065857,vy:1610.628418,vz:2445.137695,tb:0.000000798077
$pseudo_cd_ph,prn:6,pseudo_cd_ph:0.569863499318
measnum = 2,full_prange = 20566007.292635
$oldmeas,msRange:69.183819,x:3550.899517,y:18566873.159187,z:19021013.043601,vx:-1753.437744,vy:-1648.207397,vz:1616.183838,tb:0.000193647398
$newmeas,x:3671.186209,y:18566986.227468,z:19020902.171119,vx:-1753.421143,vy:-1648.204712,vz:1616.211548,tb:0.000193647399
$pseudo_cd_ph,prn:9,pseudo_cd_ph:8.658453843461
measnum = 3,full_prange = 24199690.065089
$oldmeas,msRange:81.304772,x:-25106911.883029,y:8342095.201797,z:-2455182.046944,vx:-374.470764,vy:-218.432571,vz:3135.589600,tb:0.000402898814
$newmeas,x:-25106881.653996,y:8342112.833742,z:-2455435.156198,vx:-374.500488,vy:-218.426254,vz:3135.585449,tb:0.000402898815
$pseudo_cd_ph,prn:12,pseudo_cd_ph:10.432933072773
measnum = 4,full_prange = 23618408.339118
$oldmeas,msRange:79.365993,x:12989898.285401,y:6975477.530723,z:21884193.112440,vx:-978.446411,vy:2648.761230,vz:-244.401581,tb:0.000238430895
$newmeas,x:12989975.370426,y:6975268.854693,z:21884212.365542,vx:-978.460144,vy:2648.759033,vz:-244.364182,tb:0.000238430895
$pseudo_cd_ph,prn:17,pseudo_cd_ph:18.668258495461
measnum = 5,full_prange = 21096668.229574
$oldmeas,msRange:70.953933,x:-15177738.087661,y:14258651.475429,z:16840108.711221,vx:-2047.912354,vy:255.164124,vz:-2121.431641,tb:0.000062136741
$newmeas,x:-15177593.973528,y:14258633.519492,z:16840257.997428,vx:-2047.931519,vy:255.158585,vz:-2121.406982,tb:0.000062136740
$pseudo_cd_ph,prn:19,pseudo_cd_ph:0.525844413631
measnum = 6,full_prange = 20427132.552197
$oldmeas,msRange:68.720661,x:-8220431.447336,y:14782182.184359,z:20195130.830323,vx:-2610.887695,vy:282.401154,vz:-1243.584229,tb:-0.000313607947
$newmeas,x:-8220253.547364,y:14782162.942546,z:20195215.564120,vx:-2610.899658,vy:282.391815,vz:-1243.554199,tb:-0.000313607947
$pseudo_cd_ph,prn:28,pseudo_cd_ph:15.661548924003
measnum = 7,full_prange = 22209611.580270
$oldmeas,msRange:74.665952,x:-13002580.677751,y:22263230.327905,z:-5977171.646053,vx:109.237762,vy:-853.519409,vz:-3094.589111,tb:0.000767806583
$newmeas,x:-13002588.770208,y:22263293.558397,z:-5976942.388350,vx:109.231392,vy:-853.491516,vz:-3094.598633,tb:0.000767806583
source<tow,snapshot
nits = 2
$GNGGA,092123.306,2944.9074,N,10633.0937,E,1,20,0.0,330.1,M,,,,0000*17
$GNRMC,092123.306,A,2944.9074,N,10633.0937,E,0.00,0.00,280519,,*1F
$GPGSA,A,3,02,05,06,09,12,17,19,28,,,,,0.0,0.0,0.0*3D
$BDGSA,A,3,01,02,03,04,05,07,08,10,12,19,22,26,0.0,0.0,0.0*23
$GLGSA,A,3,,,,,,,,,,,,,0.0,0.0,0.0*2E
$GPGSV,2,1,08,02,37,272,41,05,10,205,37,06,63,325,45,09,13,113,38*74
$GPGSV,2,2,08,12,17,320,42,17,55,061,45,19,60,021,43,28,33,160,42*72
$BDGSV,3,1,12,01,39,126,41,02,48,220,39,03,56,171,42,04,23,109,39*60
$BDGSV,3,2,12,05,28,246,38,07,34,173,41,08,58,002,42,10,55,204,42*6E
$BDGSV,3,3,12,12,52,341,42,19,30,055,43,22,52,124,44,26,19,210,41*69
$B3CN0,0,0,0,0,0,0,0,0,0,0,0,0,0,0*4C
$ini_pos,lastpos_good = 1,ini_pos.x:-1578917.428473,ini_pos.y:5312774.475914,ini_pos.z:3146358.960858
$rtc_local_time,localRTC.weeks:2055,localRTC.seconds:206502.025977,localGtime.weeks:2055,localGtime.seconds:206502.025977
$pseudo_cd_ph,prn:2,pseudo_cd_ph:14.204504376632
measnum = 0,full_prange = 22349130.519260
$oldmeas,msRange:0.000000,x:12315943.905459,y:21434463.592806,z:10519416.532716,vx:-1076.178101,vy:-666.980164,vz:2765.475830,tb:-0.000223820626
$newmeas,x:12316024.132323,y:21434513.314821,z:10519210.369552,vx:-1076.156860,vy:-666.967529,vz:2765.491943,tb:-0.000223820626
$pseudo_cd_ph,prn:5,pseudo_cd_ph:7.344745393606
measnum = 1,full_prange = 24472973.516161
$oldmeas,msRange:82.217289,x:4295197.308872,y:22306101.038494,z:-13713383.372586,vx:-687.886169,vy:1610.350464,vz:2445.454346,tb:0.000000798077
$newmeas,x:4295253.463675,y:22305969.579814,z:-13713583.001505,vx:-687.899780,vy:1610.371460,vz:2445.430420,tb:0.000000798077
$pseudo_cd_ph,prn:6,pseudo_cd_ph:0.570382961896
measnum = 2,full_prange = 20565841.893937
$oldmeas,msRange:69.183988,x:1797.341663,y:18565224.932050,z:19022629.025535,vx:-1753.678101,vy:-1648.246948,vz:1615.780151,tb:0.000193647388
$newmeas,x:1917.643880,y:18565338.002134,z:19022518.181643,vx:-1753.661621,vy:-1648.244263,vz:1615.807861,tb:0.000193647389
$pseudo_cd_ph,prn:9,pseudo_cd_ph:8.660426142628
measnum = 3,full_prange = 24199089.118767
$oldmeas,msRange:81.303490,x:-25107286.169679,y:8341876.730065,z:-2452046.431362,vx:-374.102570,vy:-218.510910,vz:3135.641846,tb:0.000402898807
$newmeas,x:-25107255.971118,y:8341894.367896,z:-2452299.538541,vx:-374.132294,vy:-218.504578,vz:3135.637451,tb:0.000402898808
$pseudo_cd_ph,prn:12,pseudo_cd_ph:10.435644923534
measnum = 4,full_prange = 23617585.674395
$oldmeas,msRange:79.363967,x:12988919.925821,y:6978126.306195,z:21883948.473508,vx:-978.272766,vy:2648.789795,vz:-244.876297,tb:0.000238430889
$newmeas,x:12988996.994481,y:6977917.635191,z:21883967.763338,vx:-978.286438,vy:2648.787598,vz:-244.838898,tb:0.000238430889
$pseudo_cd_ph,prn:17,pseudo_cd_ph:18.668773982998
measnum = 5,full_prange = 21096504.024921
$oldmeas,msRange:70.954108,x:-15179785.864293,y:14258906.678856,z:16837987.104966,vx:-2047.640991,vy:255.242752,vz:-2121.781006,tb:0.000062136750
$newmeas,x:-15179641.770383,y:14258888.717526,z:16838136.414603,vx:-2047.660034,vy:255.237213,vz:-2121.756348,tb:0.000062136749
$pseudo_cd_ph,prn:19,pseudo_cd_ph:0.526721055673
measnum = 6,full_prange = 20426860.076972
$oldmeas,msRange:68.720473,x:-8223042.246483,y:14782464.654054,z:20193887.025964,vx:-2610.710938,vy:282.538239,vz:-1244.024536,tb:-0.000313607945
$newmeas,x:-8222864.360926,y:14782445.403157,z:20193971.788635,vx:-2610.722900,vy:282.528900,vz:-1243.994629,tb:-0.000313607945
$pseudo_cd_ph,prn:28,pseudo_cd_ph:15.660368679789
measnum = 7,full_prange = 22209955.737225
$oldmeas,msRange:74.667823,x:-13002471.397015,y:22262376.620395,z:-5980266.170873,vx:109.323708,vy:-853.895691,vz:-3094.460693,tb:0.000767806582
$newmeas,x:-13002479.495964,y:22262439.879744,z:-5980036.919145,vx:109.317345,vy:-853.867798,vz:-3094.470215,tb:0.000767806582
source<tow,snapshot
nits = 2
$GNGGA,092124.305,2944.9074,N,10633.0930,E,1,20,0.0,329.6,M,,,,0000*1B
$GNRMC,092124.305,A,2944.9074,N,10633.0930,E,0.00,0.00,280519,,*1C
$GPGSA,A,3,02,05,06,09,12,17,19,28,,,,,0.0,0.0,0.0*3D
$BDGSA,A,3,01,02,03,04,05,07,08,10,12,19,22,26,0.0,0.0,0.0*23
$GLGSA,A,3,,,,,,,,,,,,,0.0,0.0,0.0*2E
$GPGSV,2,1,08,02,37,272,41,05,10,205,37,06,63,325,45,09,13,113,39*75
$GPGSV,2,2,08,12,17,320,42,17,55,061,44,19,60,021,43,28,33,160,42*73
$BDGSV,3,1,12,01,39,126,41,02,48,220,40,03,56,171,43,04,23,109,40*61
$BDGSV,3,2,12,05,28,246,39,07,34,173,41,08,58,002,42,10,55,204,42*6F
$BDGSV,3,3,12,12,52,341,43,19,30,055,42,22,52,124,44,26,19,210,41*69
$B3CN0,19,0,0,0,0,0,0,0,0,0,0,0,0,0*74
tow update,206503440.570899
$ini_pos,lastpos_good = 1,ini_pos.x:-1578916.284850,ini_pos.y:5312774.368480,ini_pos.z:3146358.825305
$rtc_local_time,localRTC.weeks:2055,localRTC.seconds:206503.025977,localGtime.weeks:2055,localGtime.seconds:206503.440571
$pseudo_cd_ph,prn:2,pseudo_cd_ph:206503234.205977886915
measnum = 0,full_prange = 22526735.140978
$oldmeas,msRange:0.000000,x:12314421.265295,y:21433519.917004,z:10523328.341623,vx:-1076.581299,vy:-667.220154,vz:2765.169922,tb:-0.000223820634
$newmeas,x:12314502.159990,y:21433570.052180,z:10523120.563104,vx:-1076.559814,vy:-667.207397,vz:2765.186035,tb:-0.000223820633
$pseudo_cd_ph,prn:5,pseudo_cd_ph:206503227.347852647305
measnum = 1,full_prange = 24650088.358954
$oldmeas,msRange:82.213861,x:4294224.395384,y:22308378.773294,z:-13709923.755179,vx:-687.651306,vy:1609.986938,vz:2445.868164,tb:0.000000798076
$newmeas,x:4294280.937280,y:22308246.393113,z:-13710124.862872,vx:-687.664978,vy:1610.008057,vz:2445.843994,tb:0.000000798076
$pseudo_cd_ph,prn:6,pseudo_cd_ph:206503240.570898771286
measnum = 2,full_prange = 20743733.624157
$oldmeas,msRange:69.184224,x:-683.641240,y:18562893.292471,z:19024914.294218,vx:-1754.018188,vy:-1648.302734,vz:1615.208862,tb:0.000193647374
$newmeas,x:-562.274900,y:18563007.344457,z:19024802.531055,vx:-1754.001587,vy:-1648.300049,vz:1615.236816,tb:0.000193647374
$pseudo_cd_ph,prn:9,pseudo_cd_ph:206503228.662395417690
measnum = 3,full_prange = 24376545.114102
$oldmeas,msRange:81.301671,x:-25107815.004496,y:8341567.547439,z:-2447610.719552,vx:-373.581726,vy:-218.621811,vz:3135.715332,tb:0.000402898797
$newmeas,x:-25107784.626825,y:8341585.323626,z:-2447865.688797,vx:-373.611664,vy:-218.615433,vz:3135.711182,tb:0.000402898797
$pseudo_cd_ph,prn:12,pseudo_cd_ph:206503230.438354432583
measnum = 4,full_prange = 23794819.754951
$oldmeas,msRange:79.361104,x:12987536.240879,y:6981873.296482,z:21883601.598010,vx:-978.027100,vy:2648.829834,vz:-245.547836,tb:0.000238430881
$newmeas,x:12987613.868391,y:6981663.056356,z:21883621.085886,vx:-978.040894,vy:2648.827637,vz:-245.510162,tb:0.000238430881
$pseudo_cd_ph,prn:17,pseudo_cd_ph:206503238.669287979603
measnum = 5,full_prange = 21274396.308286
$oldmeas,msRange:70.954351,x:-15182682.173098,y:14259267.822314,z:16834985.296855,vx:-2047.256958,vy:255.353897,vz:-2122.275391,tb:0.000062136763
$newmeas,x:-15182536.891390,y:14259249.701642,z:16835135.900584,vx:-2047.276245,vy:255.348328,vz:-2122.250488,tb:0.000062136762
$pseudo_cd_ph,prn:19,pseudo_cd_ph:206503240.527596265078
measnum = 6,full_prange = 20604644.071001
$oldmeas,msRange:68.720203,x:-8226735.165271,y:14782864.468082,z:20192126.795835,vx:-2610.460693,vy:282.732147,vz:-1244.647461,tb:-0.000313607942
$newmeas,x:-8226555.748682,y:14782845.036312,z:20192212.339034,vx:-2610.472900,vy:282.722717,vz:-1244.617188,tb:-0.000313607942
$pseudo_cd_ph,prn:28,pseudo_cd_ph:206503235.659185856581
measnum = 7,full_prange = 22388356.711464
$oldmeas,msRange:74.670464,x:-13002316.662419,y:22261168.328287,z:-5984643.447263,vx:109.445198,vy:-854.427979,vz:-3094.278564,tb:0.000767806580
$newmeas,x:-13002324.835495,y:22261232.135509,z:-5984412.367665,vx:109.438789,vy:-854.399902,vz:-3094.288330,tb:0.000767806580
$GNGGA,092125.310,2944.9070,N,10633.0927,E,1,20,0.6,331.6,M,,,,0000*13
$GNRMC,092125.310,A,2944.9070,N,10633.0927,E,0.26,0.00,280519,,*1F
$GPGSA,A,3,02,05,06,09,12,17,19,28,,,,,1.3,0.6,1.1*39
$BDGSA,A,3,01,02,03,04,05,07,08,10,12,19,22,26,1.3,0.6,1.1*27
$GLGSA,A,3,,,,,,,,,,,,,1.3,0.6,1.1*2A
$GPGSV,2,1,08,02,37,272,41,05,10,205,37,06,63,325,46,09,13,113,39*76
$GPGSV,2,2,08,12,17,320,43,17,55,061,45,19,60,021,44,28,33,160,42*74
$BDGSV,3,1,12,01,39,126,41,02,48,220,39,03,56,171,43,04,23,109,40*6F
$BDGSV,3,2,12,05,28,246,38,07,34,173,41,08,58,002,42,10,55,204,42*6E
$BDGSV,3,3,12,12,52,341,42,19,30,055,43,22,52,124,44,26,19,210,41*69
$B3CN0,16,0,0,0,0,0,0,0,0,0,0,0,0,0*7B
$ini_pos,lastpos_good = 1,ini_pos.x:-1578916.416052,ini_pos.y:5312776.444215,ini_pos.z:3146359.168215
$rtc_local_time,localRTC.weeks:2055,localRTC.seconds:206504.716415,localGtime.weeks:2055,localGtime.seconds:206505.000000
$pseudo_cd_ph,prn:2,pseudo_cd_ph:206504924.646979898214
measnum = 0,full_prange = 22523136.531702
$oldmeas,msRange:0.000000,x:12312742.066775,y:21432479.228399,z:10527640.164636,vx:-1077.025635,vy:-667.484558,vz:2764.832520,tb:-0.000223820642
$newmeas,x:12312822.981934,y:21432529.375431,z:10527432.444662,vx:-1077.004272,vy:-667.471802,vz:2764.848633,tb:-0.000223820642
$pseudo_cd_ph,prn:5,pseudo_cd_ph:206504917.791610002518
measnum = 1,full_prange = 24645663.720624
$oldmeas,msRange:82.210078,x:4293152.253816,y:22310889.120961,z:-13706109.241768,vx:-687.392456,vy:1609.585938,vz:2446.324219,tb:0.000000798075
$newmeas,x:4293208.764282,y:22310756.797501,z:-13706310.350864,vx:-687.406128,vy:1609.607178,vz:2446.300293,tb:0.000000798075
$pseudo_cd_ph,prn:6,pseudo_cd_ph:206504931.010285049677
measnum = 2,full_prange = 20740619.397188
$oldmeas,msRange:69.184480,x:-3419.200332,y:18560322.833439,z:19027432.606800,vx:-1754.393066,vy:-1648.364136,vz:1614.579102,tb:0.000193647358
$newmeas,x:-3297.826280,y:18560436.872550,z:19027320.903986,vx:-1754.376343,vy:-1648.361450,vz:1614.607056,tb:0.000193647359
$pseudo_cd_ph,prn:9,pseudo_cd_ph:206504919.104239523411
measnum = 3,full_prange = 24372694.050404
$oldmeas,msRange:81.299661,x:-25108397.130996,y:8341226.526855,z:-2442720.730785,vx:-373.007568,vy:-218.744171,vz:3135.796387,tb:0.000402898786
$newmeas,x:-25108366.804802,y:8341244.310181,z:-2442975.666339,vx:-373.037506,vy:-218.737793,vz:3135.792236,tb:0.000402898786
$pseudo_cd_ph,prn:12,pseudo_cd_ph:206504920.881446093321
measnum = 4,full_prange = 23790594.684347
$oldmeas,msRange:79.357949,x:12986011.288272,y:6986003.993115,z:21883218.106390,vx:-977.756226,vy:2648.874023,vz:-246.288116,tb:0.000238430872
$newmeas,x:12986088.880503,y:6985793.786819,z:21883237.649552,vx:-977.770020,vy:2648.871826,vz:-246.250443,tb:0.000238430872
$pseudo_cd_ph,prn:17,pseudo_cd_ph:206504929.108664631844
measnum = 5,full_prange = 21271284.976139
$oldmeas,msRange:70.954612,x:-15185874.394742,y:14259666.124057,z:16831675.334448,vx:-2046.833496,vy:255.476318,vz:-2122.820068,tb:0.000062136777
$newmeas,x:-15185729.164328,y:14259647.997349,z:16831825.954804,vx:-2046.852661,vy:255.470749,vz:-2122.795166,tb:0.000062136776
$pseudo_cd_ph,prn:19,pseudo_cd_ph:206504930.967586129904
measnum = 6,full_prange = 20601348.898975
$oldmeas,msRange:68.719900,x:-8230805.778441,y:14783305.535385,z:20190185.321181,vx:-2610.184814,vy:282.945801,vz:-1245.333984,tb:-0.000313607939
$newmeas,x:-8230626.409500,y:14783286.092039,z:20190270.897880,vx:-2610.197021,vy:282.936401,vz:-1245.303711,tb:-0.000313607939
$pseudo_cd_ph,prn:28,pseudo_cd_ph:206504926.095695883036
measnum = 7,full_prange = 22386104.767177
$oldmeas,msRange:74.673369,x:-13002145.886057,y:22259835.450994,z:-5989468.598494,vx:109.579002,vy:-855.014771,vz:-3094.077881,tb:0.000767806577
$newmeas,x:-13002154.068302,y:22259899.295614,z:-5989237.557133,vx:109.572601,vy:-854.986694,vz:-3094.087402,tb:0.000767806578
$GNGGA,092127.000,2944.9069,N,10633.0925,E,1,20,0.6,330.7,M,,,,0000*19
$GNRMC,092127.000,A,2944.9069,N,10633.0925,E,0.15,0.00,280519,,*15
$GPGSA,A,3,02,05,06,09,12,17,19,28,,,,,0.7,0.6,0.4*38
$BDGSA,A,3,01,02,03,04,05,07,08,10,12,19,22,26,0.7,0.6,0.4*26
$GLGSA,A,3,,,,,,,,,,,,,0.7,0.6,0.4*2B
$GPGSV,3,1,09,02,37,272,41,05,10,205,38,06,63,325,45,09,13,113,39*7A
$GPGSV,3,2,09,12,17,320,42,17,55,061,44,19,60,021,43,28,33,160,42*73
$GPGSV,3,3,09,23,00,000,34*46
$BDGSV,3,1,12,01,39,126,42,02,48,220,40,03,56,171,43,04,23,109,39*6C
$BDGSV,3,2,12,05,28,246,39,07,34,173,40,08,58,002,42,10,55,204,41*6D
$BDGSV,3,3,12,12,52,341,43,19,30,055,43,22,52,124,44,26,19,210,41*68
$B3CN0,0,0,0,0,0,0,0,0,0,0,0,0,0,0*4C
$ini_pos,lastpos_good = 1,ini_pos.x:-1578915.882512,ini_pos.y:5312775.875705,ini_pos.z:3146358.599302
$rtc_local_time,localRTC.weeks:2055,localRTC.seconds:206505.716415,localGtime.weeks:2055,localGtime.seconds:206506.000000
$pseudo_cd_ph,prn:2,pseudo_cd_ph:206505924.648450613022
measnum = 0,full_prange = 22522685.953764
$oldmeas,msRange:0.000000,x:12311664.898683,y:21431811.659122,z:10530404.888750,vx:-1077.310669,vy:-667.654053,vz:2764.615967,tb:-0.000223820647
$newmeas,x:12311745.833633,y:21431861.817886,z:10530197.189194,vx:-1077.289185,vy:-667.641296,vz:2764.632324,tb:-0.000223820647
$pseudo_cd_ph,prn:5,pseudo_cd_ph:206505917.794718772173
measnum = 1,full_prange = 24644722.067653
$oldmeas,msRange:82.207655,x:4292464.944361,y:22312498.578316,z:-13703662.771296,vx:-687.226501,vy:1609.328857,vz:2446.616699,tb:0.000000798075
$newmeas,x:4292521.439025,y:22312366.281052,z:-13703863.896750,vx:-687.240112,vy:1609.349976,vz:2446.592773,tb:0.000000798075
$pseudo_cd_ph,prn:6,pseudo_cd_ph:206505931.010804682970
measnum = 2,full_prange = 20740453.944883
$oldmeas,msRange:69.184649,x:-5173.713463,y:18558674.449675,z:19029046.983951,vx:-1754.633301,vy:-1648.403442,vz:1614.175293,tb:0.000193647348
$newmeas,x:-5052.323752,y:18558788.490595,z:19028935.309970,vx:-1754.616699,vy:-1648.400757,vz:1614.203247,tb:0.000193647349
$pseudo_cd_ph,prn:9,pseudo_cd_ph:206505919.106210172176
measnum = 3,full_prange = 24372093.595481
$oldmeas,msRange:81.298375,x:-25108769.954469,y:8341007.743422,z:-2439584.908470,vx:-372.639404,vy:-218.822708,vz:3135.848389,tb:0.000402898779
$newmeas,x:-25108739.658953,y:8341025.532694,z:-2439839.841962,vx:-372.669342,vy:-218.816330,vz:3135.844238,tb:0.000402898779
$pseudo_cd_ph,prn:12,pseudo_cd_ph:206505920.884155392647
measnum = 4,full_prange = 23789772.787993
$oldmeas,msRange:79.355927,x:12985033.618962,y:6988652.881181,z:21882971.580937,vx:-977.582458,vy:2648.902344,vz:-246.762817,tb:0.000238430866
$newmeas,x:12985111.194725,y:6988442.679910,z:21882991.161093,vx:-977.596252,vy:2648.899902,vz:-246.725143,tb:0.000238430867
$pseudo_cd_ph,prn:17,pseudo_cd_ph:206505929.109171837568
measnum = 5,full_prange = 21271123.255279
$oldmeas,msRange:70.954786,x:-15187921.092325,y:14259921.639602,z:16829552.339820,vx:-2046.561890,vy:255.554779,vz:-2123.169434,tb:0.000062136786
$newmeas,x:-15187775.882288,y:14259903.507465,z:16829702.983813,vx:-2046.581055,vy:255.549210,vz:-2123.144531,tb:0.000062136786
$pseudo_cd_ph,prn:19,pseudo_cd_ph:206505930.968459069729
measnum = 6,full_prange = 20601077.531630
$oldmeas,msRange:68.719711,x:-8233415.874808,y:14783588.549672,z:20188939.767082,vx:-2610.008057,vy:283.082794,vz:-1245.774292,tb:-0.000313607937
$newmeas,x:-8233236.520390,y:14783569.097170,z:20189025.372906,vx:-2610.020020,vy:283.073364,vz:-1245.744019,tb:-0.000313607937
$pseudo_cd_ph,prn:28,pseudo_cd_ph:206505926.094510763884
measnum = 7,full_prange = 22386450.389391
$oldmeas,msRange:74.675237,x:-13002036.264189,y:22258980.248101,z:-5992562.611765,vx:109.664734,vy:-855.391052,vz:-3093.948975,tb:0.000767806576
$newmeas,x:-13002044.452962,y:22259044.121807,z:-5992331.576459,vx:109.658333,vy:-855.362976,vz:-3093.958496,tb:0.000767806576
$GNGGA,092128.000,2944.9070,N,10633.0921,E,1,20,0.6,329.9,M,,,,0000*1C
$GNRMC,092128.000,A,2944.9070,N,10633.0921,E,0.14,0.00,280519,,*17
$GPGSA,A,3,02,05,06,09,12,17,19,28,,,,,0.7,0.6,0.4*38
$BDGSA,A,3,01,02,03,04,05,07,08,10,12,19,22,26,0.7,0.6,0.4*26
$GLGSA,A,3,,,,,,,,,,,,,0.7,0.6,0.4*2B
$GPGSV,3,1,09,02,37,272,40,05,10,205,37,06,63,325,46,09,13,113,39*77
$GPGSV,3,2,09,12,17,320,43,17,55,061,45,19,60,021,44,28,33,160,42*74
$GPGSV,3,3,09,23,00,000,35*47
$BDGSV,3,1,12,01,39,126,41,02,48,220,40,03,56,171,43,04,23,109,40*61
$BDGSV,3,2,12,05,28,246,38,07,34,173,41,08,58,002,42,10,55,204,42*6E
$BDGSV,3,3,12,12,52,341,42,16,00,000,22,19,30,055,43,22,52,124,45*65
$B3CN0,0,0,0,0,0,0,0,0,0,0,0,0,0,0*4C
$ini_pos,lastpos_good = 1,ini_pos.x:-1578915.047463,ini_pos.y:5312775.315561,ini_pos.z:3146358.355609
$rtc_local_time,localRTC.weeks:2055,localRTC.seconds:206506.716415,localGtime.weeks:2055,localGtime.seconds:206507.000000
$pseudo_cd_ph,prn:2,pseudo_cd_ph:206506924.649921417236
measnum = 0,full_prange = 22522235.349023
$oldmeas,msRange:0.000000,x:12310587.445613,y:21431143.920382,z:10533169.396365,vx:-1077.595581,vy:-667.823486,vz:2764.399414,tb:-0.000223820653
$newmeas,x:12310668.400353,y:21431194.090871,z:10532961.717232,vx:-1077.574219,vy:-667.810730,vz:2764.415771,tb:-0.000223820652
$pseudo_cd_ph,prn:5,pseudo_cd_ph:206506917.797823369503
measnum = 1,full_prange = 24643781.665513
$oldmeas,msRange:82.205232,x:4291777.800857,y:22314107.778492,z:-13701216.008389,vx:-687.060547,vy:1609.071655,vz:2446.909180,tb:0.000000798075
$newmeas,x:4291834.279724,y:22313975.507418,z:-13701417.150206,vx:-687.074219,vy:1609.092773,vz:2446.885254,tb:0.000000798075
$pseudo_cd_ph,prn:6,pseudo_cd_ph:206506931.011322677135
measnum = 2,full_prange = 20740288.983976
$oldmeas,msRange:69.184819,x:-6928.466919,y:18557026.026651,z:19030660.957199,vx:-1754.873657,vy:-1648.442627,vz:1613.771362,tb:0.000193647338
$newmeas,x:-6807.061548,y:18557140.069378,z:19030549.312049,vx:-1754.857056,vy:-1648.439941,vz:1613.799316,tb:0.000193647339
$pseudo_cd_ph,prn:9,pseudo_cd_ph:206506919.108174949884
measnum = 3,full_prange = 24371494.900656
$oldmeas,msRange:81.297089,x:-25109142.409769,y:8340788.881428,z:-2436449.034300,vx:-372.271240,vy:-218.901291,vz:3135.900146,tb:0.000402898771
$newmeas,x:-25109112.144928,y:8340806.676652,z:-2436703.965743,vx:-372.301147,vy:-218.894913,vz:3135.895996,tb:0.000402898772
$pseudo_cd_ph,prn:12,pseudo_cd_ph:206506920.886863201857
measnum = 4,full_prange = 23788951.338364
$oldmeas,msRange:79.353905,x:12984056.123398,y:6991301.797410,z:21882724.580786,vx:-977.408691,vy:2648.930420,vz:-247.237503,tb:0.000238430861
$newmeas,x:12984133.682695,y:6991091.601164,z:21882744.197934,vx:-977.422485,vy:2648.928223,vz:-247.199844,tb:0.000238430861
$pseudo_cd_ph,prn:17,pseudo_cd_ph:206506929.109686166048
measnum = 5,full_prange = 21270959.399071
$oldmeas,msRange:70.954959,x:-15189967.518274,y:14260177.233574,z:16827428.995935,vx:-2046.290161,vy:255.633179,vz:-2123.518555,tb:0.000062136795
$newmeas,x:-15189822.328629,y:14260159.096014,z:16827579.663547,vx:-2046.309448,vy:255.627625,vz:-2123.493896,tb:0.000062136795
$pseudo_cd_ph,prn:19,pseudo_cd_ph:206506930.969334781170
measnum = 6,full_prange = 20600805.333375
$oldmeas,msRange:68.719522,x:-8236025.794175,y:14783871.700924,z:20187693.772759,vx:-2609.830811,vy:283.219727,vz:-1246.214478,tb:-0.000313607935
$newmeas,x:-8235846.454292,y:14783852.239268,z:20187779.407702,vx:-2609.843018,vy:283.210327,vz:-1246.184204,tb:-0.000313607935
$pseudo_cd_ph,prn:28,pseudo_cd_ph:206506926.093332648277
measnum = 7,full_prange = 22386793.911994
$oldmeas,msRange:74.677106,x:-13001926.556615,y:22258124.668914,z:-5995656.496144,vx:109.750412,vy:-855.767334,vz:-3093.820068,tb:0.000767806575
$newmeas,x:-13001934.751912,y:22258188.571699,z:-5995425.466921,vx:109.744019,vy:-855.739258,vz:-3093.829590,tb:0.000767806575
$GNGGA,092129.000,2944.9070,N,10633.0919,E,1,20,0.6,329.7,M,,,,0000*18
$GNRMC,092129.000,A,2944.9070,N,10633.0919,E,0.20,0.00,280519,,*1A
$GPGSA,A,3,02,05,06,09,12,17,19,28,,,,,0.7,0.6,0.4*38
$BDGSA,A,3,01,02,03,04,05,07,08,10,12,19,22,26,0.7,0.6,0.4*26
$GLGSA,A,3,,,,,,,,,,,,,0.7,0.6,0.4*2B
$GPGSV,3,1,09,02,37,272,41,05,10,205,37,06,63,325,46,09,13,113,40*78
$GPGSV,3,2,09,12,17,320,43,17,55,061,45,19,60,021,44,28,33,160,42*74
$GPGSV,3,3,09,23,00,000,35*47
$BDGSV,3,1,12,01,39,126,42,02,48,220,39,03,56,171,43,04,23,109,40*6C
$BDGSV,3,2,12,05,28,246,37,07,34,173,40,08,58,002,42,10,55,204,41*63
$BDGSV,3,3,12,12,52,341,42,16,00,000,38,19,30,055,43,22,52,124,44*6F
$B3CN0,0,20,0,0,0,0,0,0,0,0,0,0,0,0*7E
$ini_pos,lastpos_good = 1,ini_pos.x:-1578914.655698,ini_pos.y:5312775.329746,ini_pos.z:3146358.186328
$rtc_local_time,localRTC.weeks:2055,localRTC.seconds:206507.716415,localGtime.weeks:2055,localGtime.seconds:206508.000000
$pseudo_cd_ph,prn:2,pseudo_cd_ph:206507924.651389569044
measnum = 0,full_prange = 22521785.539454
$oldmeas,msRange:0.000000,x:12309509.707559,y:21430476.012232,z:10535933.687427,vx:-1077.880615,vy:-667.992859,vz:2764.182861,tb:-0.000223820658
$newmeas,x:12309590.682092,y:21430526.194444,z:10535726.028712,vx:-1077.859131,vy:-667.980164,vz:2764.199219,tb:-0.000223820657
$pseudo_cd_ph,prn:5,pseudo_cd_ph:206507917.800930708647
measnum = 1,full_prange = 24642840.441397
$oldmeas,msRange:82.202808,x:4291090.823276,y:22315716.721436,z:-13698768.953101,vx:-686.894653,vy:1608.814331,vz:2447.201660,tb:0.000000798074
$newmeas,x:4291147.286349,y:22315584.476561,z:-13698970.111267,vx:-686.908264,vy:1608.835571,vz:2447.177490,tb:0.000000798074
$pseudo_cd_ph,prn:6,pseudo_cd_ph:206507931.011836051941
measnum = 2,full_prange = 20740125.407919
$oldmeas,msRange:69.184987,x:-8683.460678,y:18555377.564429,z:19032274.526509,vx:-1755.114014,vy:-1648.481812,vz:1613.367432,tb:0.000193647328
$newmeas,x:-8562.039641,y:18555491.608967,z:19032162.910187,vx:-1755.097290,vy:-1648.479126,vz:1613.395386,tb:0.000193647328
$pseudo_cd_ph,prn:9,pseudo_cd_ph:206507919.110145151615
measnum = 3,full_prange = 24370894.579750
$oldmeas,msRange:81.295803,x:-25109514.496902,y:8340569.940824,z:-2433313.108341,vx:-371.903076,vy:-218.979935,vz:3135.951904,tb:0.000402898764
$newmeas,x:-25109484.262735,y:8340587.742003,z:-2433568.037711,vx:-371.932983,vy:-218.973541,vz:3135.947754,tb:0.000402898765
$pseudo_cd_ph,prn:12,pseudo_cd_ph:206507920.889568299055
measnum = 4,full_prange = 23788130.701775
$oldmeas,msRange:79.351882,x:12983078.801601,y:6993950.741733,z:21882477.105943,vx:-977.234924,vy:2648.958496,vz:-247.712189,tb:0.000238430855
$newmeas,x:12983156.344434,y:6993740.550511,z:21882496.760080,vx:-977.248718,vy:2648.956299,vz:-247.674530,tb:0.000238430855
$pseudo_cd_ph,prn:17,pseudo_cd_ph:206507929.110198169947
measnum = 5,full_prange = 21270796.239755
$oldmeas,msRange:70.955131,x:-15192013.672542,y:14260432.905930,z:16825305.302837,vx:-2046.018433,vy:255.711548,vz:-2123.867676,tb:0.000062136804
$newmeas,x:-15191868.503289,y:14260414.762949,z:16825455.994069,vx:-2046.037720,vy:255.705978,vz:-2123.843018,tb:0.000062136804
$pseudo_cd_ph,prn:19,pseudo_cd_ph:206507930.970204412937
measnum = 6,full_prange = 20600534.957760
$oldmeas,msRange:68.719332,x:-8238635.536481,y:14784154.989110,z:20186447.338239,vx:-2609.653809,vy:283.356659,vz:-1246.654663,tb:-0.000313607933
$newmeas,x:-8238456.211121,y:14784135.518301,z:20186533.002306,vx:-2609.666016,vy:283.347260,vz:-1246.624390,tb:-0.000313607933
$pseudo_cd_ph,prn:28,pseudo_cd_ph:206507926.092147856951
measnum = 7,full_prange = 22387139.435927
$oldmeas,msRange:74.678974,x:-13001816.763390,y:22257268.713427,z:-5998750.251565,vx:109.836037,vy:-856.143677,vz:-3093.690918,tb:0.000767806573
$newmeas,x:-13001824.965208,y:22257332.645299,z:-5998519.228408,vx:109.829643,vy:-856.115540,vz:-3093.700684,tb:0.000767806573
$GNGGA,092130.000,2944.9069,N,10633.0917,E,1,20,0.6,329.2,M,,,,0000*13
$GNRMC,092130.000,A,2944.9069,N,10633.0917,E,0.25,0.00,280519,,*11
$GPGSA,A,3,02,05,06,09,12,17,19,28,,,,,0.7,0.6,0.4*38
$BDGSA,A,3,01,02,03,04,05,07,08,10,12,19,22,26,0.7,0.6,0.4*26
$GLGSA,A,3,,,,,,,,,,,,,0.7,0.6,0.4*2B
$GPGSV,3,1,10,02,37,272,41,05,10,205,37,06,63,325,46,09,13,113,39*7E
$GPGSV,3,2,10,12,17,320,43,17,55,061,45,19,60,021,44,28,33,160,43*7D
$GPGSV,3,3,10,23,00,000,35,04,00,000,18*72
$BDGSV,3,1,12,01,39,126,41,02,48,220,40,03,56,171,42,04,23,109,39*6E
$BDGSV,3,2,12,05,28,246,38,07,34,173,40,08,58,002,43,10,55,204,42*6E
$BDGSV,3,3,12,12,52,341,43,16,00,000,38,19,30,055,43,22,52,124,45*6F
$B3CN0,0,23,0,0,0,0,0,0,0,0,0,0,0,0*7D
$ini_pos,lastpos_good = 1,ini_pos.x:-1578914.296485,ini_pos.y:5312774.969197,ini_pos.z:3146357.857921
$rtc_local_time,localRTC.weeks:2055,localRTC.seconds:206508.716415,localGtime.weeks:2055,localGtime.seconds:206509.000000
$pseudo_cd_ph,prn:2,pseudo_cd_ph:206508924.652859032154
measnum = 0,full_prange = 22521335.336766
$oldmeas,msRange:0.000000,x:12308431.684514,y:21429807.934727,z:10538697.761880,vx:-1078.165527,vy:-668.162170,vz:2763.966309,tb:-0.000223820663
$newmeas,x:12308512.678837,y:21429858.128656,z:10538490.123590,vx:-1078.144165,vy:-668.149475,vz:2763.982422,tb:-0.000223820663
$pseudo_cd_ph,prn:5,pseudo_cd_ph:206508917.804038345814
measnum = 1,full_prange = 24641899.127937
$oldmeas,msRange:82.200385,x:4290404.011594,y:22317325.407097,z:-13696321.605481,vx:-686.728760,vy:1608.557007,vz:2447.493896,tb:0.000000798074
$newmeas,x:4290460.458874,y:22317193.188423,z:-13696522.779990,vx:-686.742371,vy:1608.578247,vz:2447.469727,tb:0.000000798074
$pseudo_cd_ph,prn:6,pseudo_cd_ph:206508931.012350380421
measnum = 2,full_prange = 20739961.545957
$oldmeas,msRange:69.185156,x:-10438.694718,y:18553729.063070,z:19033887.691848,vx:-1755.354248,vy:-1648.520996,vz:1612.963379,tb:0.000193647318
$newmeas,x:-10317.258018,y:18553843.109413,z:19033776.104356,vx:-1755.337646,vy:-1648.518311,vz:1612.991333,tb:0.000193647318
$pseudo_cd_ph,prn:9,pseudo_cd_ph:206508919.112120717764
measnum = 3,full_prange = 24370292.650632
$oldmeas,msRange:81.294516,x:-25109886.215872,y:8340350.921560,z:-2430177.130659,vx:-371.534912,vy:-219.058624,vz:3136.003662,tb:0.000402898757
$newmeas,x:-25109856.012381,y:8340368.728695,z:-2430432.057935,vx:-371.564819,vy:-219.052216,vz:3135.999512,tb:0.000402898758
$pseudo_cd_ph,prn:12,pseudo_cd_ph:206508920.892270803452
measnum = 4,full_prange = 23787310.842489
$oldmeas,msRange:79.349861,x:12982101.653592,y:6996599.714081,z:21882229.156415,vx:-977.061157,vy:2648.986328,vz:-248.186874,tb:0.000238430849
$newmeas,x:12982179.179962,y:6996389.527882,z:21882248.847539,vx:-977.074951,vy:2648.984131,vz:-248.149216,tb:0.000238430850
$pseudo_cd_ph,prn:17,pseudo_cd_ph:206508929.110713660717
measnum = 5,full_prange = 21270632.035101
$oldmeas,msRange:70.955304,x:-15194059.555086,y:14260688.656624,z:16823181.260568,vx:-2045.746704,vy:255.789856,vz:-2124.216797,tb:0.000062136814
$newmeas,x:-15193914.406234,y:14260670.508226,z:16823331.975410,vx:-2045.765991,vy:255.784302,vz:-2124.192139,tb:0.000062136813
$pseudo_cd_ph,prn:19,pseudo_cd_ph:206508930.971079647541
measnum = 6,full_prange = 20600262.902458
$oldmeas,msRange:68.719143,x:-8241245.101662,y:14784438.414201,z:20185200.463551,vx:-2609.476562,vy:283.493530,vz:-1247.094849,tb:-0.000313607931
$newmeas,x:-8241065.790843,y:14784418.934242,z:20185286.156731,vx:-2609.488770,vy:283.484131,vz:-1247.064575,tb:-0.000313607931
$pseudo_cd_ph,prn:28,pseudo_cd_ph:206508926.090964227915
measnum = 7,full_prange = 22387484.611414
$oldmeas,msRange:74.680842,x:-13001706.884569,y:22256412.381640,z:-6001843.877958,vx:109.921608,vy:-856.519958,vz:-3093.562012,tb:0.000767806572
$newmeas,x:-13001715.092903,y:22256476.342599,z:-6001612.860877,vx:109.915215,vy:-856.491882,vz:-3093.571533,tb:0.000767806572
$GNGGA,092131.000,2944.9069,N,10633.0918,E,1,20,0.6,328.9,M,,,,0000*17
$GNRMC,092131.000,A,2944.9069,N,10633.0918,E,0.34,0.00,280519,,*1F
$GPGSA,A,3,02,05,06,09,12,17,19,28,,,,,0.7,0.6,0.4*38
$BDGSA,A,3,01,02,03,04,05,07,08,10,12,19,22,26,0.7,0.6,0.4*26
$GLGSA,A,3,,,,,,,,,,,,,0.7,0.6,0.4*2B
$GPGSV,3,1,10,02,37,272,41,05,10,205,37,06,63,325,46,09,13,113,40*70
$GPGSV,3,2,10,12,17,320,43,17,55,061,45,19,60,021,44,28,33,160,43*7D
$GPGSV,3,3,10,23,00,000,35,04,00,000,35*7D
$BDGSV,3,1,12,01,39,126,42,02,48,220,40,03,56,171,41,04,23,109,39*6E
$BDGSV,3,2,12,05,28,246,37,07,34,173,41,08,58,002,42,10,55,204,42*61
$BDGSV,3,3,12,12,52,341,43,16,00,000,37,19,30,055,42,22,52,124,45*61
$B3CN0,0,0,0,0,0,0,0,0,0,0,0,0,0,0*4C
$ini_pos,lastpos_good = 1,ini_pos.x:-1578914.347293,ini_pos.y:5312774.782878,ini_pos.z:3146357.672297
$rtc_local_time,localRTC.weeks:2055,localRTC.seconds:206509.716415,localGtime.weeks:2055,localGtime.seconds:206510.000000
$pseudo_cd_ph,prn:2,pseudo_cd_ph:206509924.654328227043
measnum = 0,full_prange = 22520885.214489
$oldmeas,msRange:0.000000,x:12307353.376470,y:21429139.687922,z:10541461.619668,vx:-1078.450562,vy:-668.331482,vz:2763.749512,tb:-0.000223820668
$newmeas,x:12307434.390585,y:21429189.893564,z:10541254.001806,vx:-1078.429199,vy:-668.318726,vz:2763.765869,tb:-0.000223820668
$pseudo_cd_ph,prn:5,pseudo_cd_ph:206509917.807149678469
measnum = 1,full_prange = 24640956.706597
$oldmeas,msRange:82.197962,x:4289717.365781,y:22318933.835425,z:-13693873.965582,vx:-686.562927,vy:1608.299683,vz:2447.786133,tb:0.000000798073
$newmeas,x:4289773.797270,y:22318801.642961,z:-13694075.156418,vx:-686.576538,vy:1608.320801,vz:2447.761963,tb:0.000000798073
$pseudo_cd_ph,prn:6,pseudo_cd_ph:206509931.012866854668
measnum = 2,full_prange = 20739797.040710
$oldmeas,msRange:69.185325,x:-12194.169017,y:18552080.522637,z:19035500.453182,vx:-1755.594482,vy:-1648.560059,vz:1612.559326,tb:0.000193647308
$newmeas,x:-12072.716659,y:18552194.570776,z:19035388.894526,vx:-1755.577881,vy:-1648.557251,vz:1612.587280,tb:0.000193647308
$pseudo_cd_ph,prn:9,pseudo_cd_ph:206509919.114093422890
measnum = 3,full_prange = 24369691.579227
$oldmeas,msRange:81.293228,x:-25110257.566686,y:8340131.823585,z:-2427041.101322,vx:-371.166748,vy:-219.137360,vz:3136.055176,tb:0.000402898750
$newmeas,x:-25110227.393866,y:8340149.636681,z:-2427296.026507,vx:-371.196686,vy:-219.130951,vz:3136.051025,tb:0.000402898750
$pseudo_cd_ph,prn:12,pseudo_cd_ph:206509920.894976586103
measnum = 4,full_prange = 23786490.000407
$oldmeas,msRange:79.347840,x:12981124.679392,y:6999248.714386,z:21881980.732207,vx:-976.887329,vy:2649.014404,vz:-248.661560,tb:0.000238430844
$newmeas,x:12981202.189296,y:6999038.533225,z:21882000.460314,vx:-976.901123,vy:2649.012207,vz:-248.623886,tb:0.000238430844
$pseudo_cd_ph,prn:17,pseudo_cd_ph:206509929.111232161522
measnum = 5,full_prange = 21270466.928061
$oldmeas,msRange:70.955475,x:-15196105.165861,y:14260944.485612,z:16821056.869170,vx:-2045.474976,vy:255.868134,vz:-2124.565918,tb:0.000062136823
$newmeas,x:-15195960.037419,y:14260926.331801,z:16821207.607611,vx:-2045.494263,vy:255.862579,vz:-2124.541260,tb:0.000062136822
$pseudo_cd_ph,prn:19,pseudo_cd_ph:206509930.971956819296
measnum = 6,full_prange = 20599990.266412
$oldmeas,msRange:68.718953,x:-8243854.489655,y:14784721.976166,z:20183953.148723,vx:-2609.299561,vy:283.630402,vz:-1247.534912,tb:-0.000313607929
$newmeas,x:-8243675.193387,y:14784702.487061,z:20184038.871012,vx:-2609.311523,vy:283.621002,vz:-1247.504639,tb:-0.000313607930
$pseudo_cd_ph,prn:28,pseudo_cd_ph:206509926.089783519506
measnum = 7,full_prange = 22387828.911319
$oldmeas,msRange:74.682709,x:-13001596.920206,y:22255555.673550,z:-6004937.375258,vx:110.007118,vy:-856.896301,vz:-3093.432861,tb:0.000767806570
$newmeas,x:-13001605.135053,y:22255619.663593,z:-6004706.364266,vx:110.000732,vy:-856.868164,vz:-3093.442383,tb:0.000767806570
$GNGGA,092132.000,2944.9068,N,10633.0918,E,1,20,0.6,329.0,M,,,,0000*1D
$GNRMC,092132.000,A,2944.9068,N,10633.0918,E,0.34,0.00,280519,,*1D
$GPGSA,A,3,02,05,06,09,12,17,19,28,,,,,0.7,0.6,0.4*38
$BDGSA,A,3,01,02,03,04,05,07,08,10,12,19,22,26,0.7,0.6,0.4*26
$GLGSA,A,3,,,,,,,,,,,,,0.7,0.6,0.4*2B
$GPGSV,3,1,10,02,37,272,40,05,10,205,37,06,63,325,46,09,13,113,40*71
$GPGSV,3,2,10,12,17,320,43,17,55,061,45,19,60,021,44,28,33,160,42*7C
$GPGSV,3,3,10,23,00,000,36,04,00,000,35*7E
$BDGSV,3,1,12,01,39,126,41,02,48,220,40,03,56,171,42,04,23,109,39*6E
$BDGSV,3,2,12,05,28,246,37,07,34,173,41,08,58,002,43,10,55,204,42*60
$BDGSV,3,3,12,12,52,341,43,16,00,000,37,19,30,055,43,22,52,124,44*61
$B3CN0,0,21,0,0,0,0,0,0,0,0,0,0,0,0*7F
$ini_pos,lastpos_good = 1,ini_pos.x:-1578914.382070,ini_pos.y:5312774.925166,ini_pos.z:3146357.615443
$rtc_local_time,localRTC.weeks:2055,localRTC.seconds:206510.716415,localGtime.weeks:2055,localGtime.seconds:206511.000000
$pseudo_cd_ph,prn:2,pseudo_cd_ph:206510924.655799061060
measnum = 0,full_prange = 22520434.600814
$oldmeas,msRange:0.000000,x:12306274.783423,y:21428471.271870,z:10544225.260736,vx:-1078.735596,vy:-668.500671,vz:2763.532715,tb:-0.000223820674
$newmeas,x:12306355.817326,y:21428521.489220,z:10544017.663310,vx:-1078.714233,vy:-668.487976,vz:2763.549072,tb:-0.000223820673
$pseudo_cd_ph,prn:5,pseudo_cd_ph:206510917.810264408588
measnum = 1,full_prange = 24640013.266723
$oldmeas,msRange:82.195539,x:4289030.885812,y:22320542.006368,z:-13691426.033454,vx:-686.397095,vy:1608.042236,vz:2448.078369,tb:0.000000798073
$newmeas,x:4289087.301511,y:22320409.840121,z:-13691627.240604,vx:-686.410706,vy:1608.063477,vz:2448.054199,tb:0.000000798073
$pseudo_cd_ph,prn:6,pseudo_cd_ph:206510931.013385504484
measnum = 2,full_prange = 20739631.883244
$oldmeas,msRange:69.185493,x:-13949.883552,y:18550431.943189,z:19037112.810477,vx:-1755.834717,vy:-1648.598999,vz:1612.155273,tb:0.000193647298
$newmeas,x:-13828.415542,y:18550545.993117,z:19037001.280661,vx:-1755.818115,vy:-1648.596313,vz:1612.183228,tb:0.000193647298
$pseudo_cd_ph,prn:9,pseudo_cd_ph:206510919.116069048643
measnum = 3,full_prange = 24369089.632239
$oldmeas,msRange:81.291940,x:-25110628.549348,y:8339912.646849,z:-2423905.020395,vx:-370.798615,vy:-219.216141,vz:3136.106689,tb:0.000402898743
$newmeas,x:-25110598.407199,y:8339930.465908,z:-2424159.943475,vx:-370.828522,vy:-219.209732,vz:3136.102539,tb:0.000402898743
$pseudo_cd_ph,prn:12,pseudo_cd_ph:206510920.897684663534
measnum = 4,full_prange = 23785668.470368
$oldmeas,msRange:79.345819,x:12980147.879021,y:7001897.742580,z:21881731.833327,vx:-976.713501,vy:2649.042236,vz:-249.136230,tb:0.000238430838
$newmeas,x:12980225.372455,y:7001687.566468,z:21881751.598413,vx:-976.727295,vy:2649.040039,vz:-249.098557,tb:0.000238430838
$pseudo_cd_ph,prn:17,pseudo_cd_ph:206510929.111749470234
measnum = 5,full_prange = 21270302.178401
$oldmeas,msRange:70.955646,x:-15198150.504823,y:14261200.392848,z:16818932.128687,vx:-2045.203125,vy:255.946350,vz:-2124.915039,tb:0.000062136832
$newmeas,x:-15198005.396792,y:14261182.233628,z:16819082.890726,vx:-2045.222412,vy:255.940811,vz:-2124.890381,tb:0.000062136831
$pseudo_cd_ph,prn:19,pseudo_cd_ph:206510930.972833782434
measnum = 6,full_prange = 20599717.692908
$oldmeas,msRange:68.718762,x:-8246463.700400,y:14785005.674976,z:20182705.393783,vx:-2609.122070,vy:283.767242,vz:-1247.974976,tb:-0.000313607928
$newmeas,x:-8246284.418685,y:14784986.176727,z:20182791.145179,vx:-2609.134277,vy:283.757843,vz:-1247.944824,tb:-0.000313607928
$pseudo_cd_ph,prn:28,pseudo_cd_ph:206510926.088602364063
measnum = 7,full_prange = 22388173.345241
$oldmeas,msRange:74.684576,x:-13001486.870355,y:22254698.589153,z:-6008030.743395,vx:110.092583,vy:-857.272583,vz:-3093.303711,tb:0.000767806569
$newmeas,x:-13001495.091710,y:22254762.608283,z:-6007799.738498,vx:110.086197,vy:-857.244446,vz:-3093.313232,tb:0.000767806569
$GNGGA,092133.000,2944.9068,N,10633.0918,E,1,20,0.6,328.8,M,,,,0000*15
$GNRMC,092133.000,A,2944.9068,N,10633.0918,E,0.38,0.00,280519,,*10
$GPGSA,A,3,02,05,06,09,12,17,19,28,,,,,0.7,0.6,0.4*38
$BDGSA,A,3,01,02,03,04,05,07,08,10,12,19,22,26,0.7,0.6,0.4*26
$GLGSA,A,3,,,,,,,,,,,,,0.7,0.6,0.4*2B
$GPGSV,3,1,10,02,37,272,41,05,10,205,36,06,63,325,46,09,13,113,39*7F
$GPGSV,3,2,10,12,17,320,43,17,55,061,45,19,60,021,44,28,33,160,42*7C
$GPGSV,3,3,10,23,00,000,36,04,00,000,35*7E
$BDGSV,3,1,12,01,39,126,41,02,48,220,40,03,56,171,43,04,23,109,39*6F
$BDGSV,3,2,12,05,28,246,37,07,34,173,41,08,58,002,43,10,55,204,42*60
$BDGSV,3,3,12,12,52,341,42,16,00,000,37,19,30,055,42,13,57,306,36*61
$B3CN0,20,0,0,0,0,0,0,0,0,0,0,0,0,0*7E
$ini_pos,lastpos_good = 1,ini_pos.x:-1578914.353385,ini_pos.y:5312774.759655,ini_pos.z:3146357.407788
$rtc_local_time,localRTC.weeks:2055,localRTC.seconds:206511.716415,localGtime.weeks:2055,localGtime.seconds:206512.000000
$pseudo_cd_ph,prn:2,pseudo_cd_ph:206511924.657273918390
measnum = 0,full_prange = 22519982.780980
$oldmeas,msRange:0.000000,x:12305195.905364,y:21427802.686628,z:10546988.685028,vx:-1079.020630,vy:-668.669861,vz:2763.315918,tb:-0.000223820679
$newmeas,x:12305276.959052,y:21427852.915677,z:10546781.108053,vx:-1078.999146,vy:-668.657166,vz:2763.332275,tb:-0.000223820679
$pseudo_cd_ph,prn:5,pseudo_cd_ph:206511917.813377171755
measnum = 1,full_prange = 24639070.416526
$oldmeas,msRange:82.193116,x:4288344.571660,y:22322149.919875,z:-13688977.809151,vx:-686.231262,vy:1607.784790,vz:2448.370361,tb:0.000000798072
$newmeas,x:4288400.971573,y:22322017.779845,z:-13689179.032612,vx:-686.244873,vy:1607.806030,vz:2448.346436,tb:0.000000798072
$pseudo_cd_ph,prn:6,pseudo_cd_ph:206511931.013907134533
measnum = 2,full_prange = 20739465.832327
$oldmeas,msRange:69.185663,x:-15705.838300,y:18548783.324790,z:19038724.763699,vx:-1756.074951,vy:-1648.637939,vz:1611.751221,tb:0.000193647287
$newmeas,x:-15584.354647,y:18548897.376497,z:19038613.262731,vx:-1756.058228,vy:-1648.635254,vz:1611.779175,tb:0.000193647288
$pseudo_cd_ph,prn:9,pseudo_cd_ph:206511919.118043184280
measnum = 3,full_prange = 24368488.131978
$oldmeas,msRange:81.290653,x:-25110999.163865,y:8339693.391301,z:-2420768.887946,vx:-370.430450,vy:-219.294983,vz:3136.158203,tb:0.000402898736
$newmeas,x:-25110969.052384,y:8339711.216329,z:-2421023.808919,vx:-370.460388,vy:-219.288574,vz:3136.154053,tb:0.000402898736
$pseudo_cd_ph,prn:12,pseudo_cd_ph:206511920.900394737720
measnum = 4,full_prange = 23784846.341716
$oldmeas,msRange:79.343799,x:12979171.252499,y:7004546.798595,z:21881482.459780,vx:-976.539612,vy:2649.070068,vz:-249.610886,tb:0.000238430832
$newmeas,x:12979248.729462,y:7004336.627542,z:21881502.261842,vx:-976.553406,vy:2649.067871,vz:-249.573227,tb:0.000238430833
$pseudo_cd_ph,prn:17,pseudo_cd_ph:206511929.112267345190
measnum = 5,full_prange = 21270137.258986
$oldmeas,msRange:70.955818,x:-15200195.571927,y:14261456.378289,z:16816807.039159,vx:-2044.931274,vy:256.024536,vz:-2125.264160,tb:0.000062136841
$newmeas,x:-15200050.484311,y:14261438.213662,z:16816957.824793,vx:-2044.950562,vy:256.018982,vz:-2125.239258,tb:0.000062136840
$pseudo_cd_ph,prn:19,pseudo_cd_ph:206511930.973713070154
measnum = 6,full_prange = 20599444.422513
$oldmeas,msRange:68.718573,x:-8249072.733832,y:14785289.510601,z:20181457.198759,vx:-2608.944824,vy:283.904022,vz:-1248.415039,tb:-0.000313607926
$newmeas,x:-8248893.466681,y:14785270.003211,z:20181542.979256,vx:-2608.957031,vy:283.894623,vz:-1248.384888,tb:-0.000313607926
$pseudo_cd_ph,prn:28,pseudo_cd_ph:206511926.087427467108
measnum = 7,full_prange = 22388515.902916
$oldmeas,msRange:74.686444,x:-13001376.735070,y:22253841.128448,z:-6011123.982303,vx:110.177986,vy:-857.648865,vz:-3093.174316,tb:0.000767806567
$newmeas,x:-13001384.962930,y:22253905.176661,z:-6010892.983524,vx:110.171608,vy:-857.620789,vz:-3093.184082,tb:0.000767806567
$GNGGA,092134.000,2944.9068,N,10633.0918,E,1,21,0.6,328.8,M,,,,0000*13
$GNRMC,092134.000,A,2944.9068,N,10633.0918,E,0.22,0.00,280519,,*1C
$GPGSA,A,3,02,05,06,09,12,17,19,28,,,,,0.7,0.6,0.4*38
$BDGSA,A,3,01,02,03,04,05,07,08,10,12,13,19,22,0.7,0.6,0.4*20
$GLGSA,A,3,,,,,,,,,,,,,0.7,0.6,0.4*2B
$GPGSV,3,1,10,02,37,272,41,05,10,205,36,06,63,325,46,09,13,113,40*71
$GPGSV,3,2,10,12,17,320,43,17,55,061,44,19,60,021,44,28,33,160,43*7C
$GPGSV,3,3,10,23,00,000,35,04,00,000,35*7D
$BDGSV,3,1,12,01,39,126,41,02,48,220,40,03,56,171,42,04,23,109,39*6E
$BDGSV,3,2,12,05,28,246,37,07,34,173,41,08,58,002,43,10,55,204,42*60
$BDGSV,3,3,12,12,52,341,43,16,00,000,37,19,30,055,43,13,57,306,42*62
$B3CN0,0,0,0,0,0,0,0,0,0,0,0,0,0,0*4C
$ini_pos,lastpos_good = 1,ini_pos.x:-1578914.379918,ini_pos.y:5312774.780175,ini_pos.z:3146357.366948
$rtc_local_time,localRTC.weeks:2055,localRTC.seconds:206512.716415,localGtime.weeks:2055,localGtime.seconds:206513.000000
$pseudo_cd_ph,prn:2,pseudo_cd_ph:206512924.658748388290
measnum = 0,full_prange = 22519531.077295
$oldmeas,msRange:0.000000,x:12304116.742287,y:21427133.932248,z:10549751.892490,vx:-1079.305664,vy:-668.838928,vz:2763.099121,tb:-0.000223820684
$newmeas,x:12304197.815759,y:21427184.172994,z:10549544.335968,vx:-1079.284180,vy:-668.826233,vz:2763.115479,tb:-0.000223820684
$pseudo_cd_ph,prn:5,pseudo_cd_ph:206512917.816483795643
measnum = 1,full_prange = 24638129.406839
$oldmeas,msRange:82.190693,x:4287658.423299,y:22323757.575894,z:-13686529.292722,vx:-686.065491,vy:1607.527344,vz:2448.662598,tb:0.000000798072
$newmeas,x:4287714.807434,y:22323625.462075,z:-13686730.532505,vx:-686.079102,vy:1607.548462,vz:2448.638428,tb:0.000000798072
$pseudo_cd_ph,prn:6,pseudo_cd_ph:206512931.014428794384
measnum = 2,full_prange = 20739299.772475
$oldmeas,msRange:69.185831,x:-17462.033241,y:18547134.667500,z:19040336.312814,vx:-1756.315063,vy:-1648.676758,vz:1611.347046,tb:0.000193647277
$newmeas,x:-17340.533944,y:18547248.720982,z:19040224.840695,vx:-1756.298462,vy:-1648.674072,vz:1611.375000,tb:0.000193647278
$pseudo_cd_ph,prn:9,pseudo_cd_ph:206512919.120020955801
measnum = 3,full_prange = 24367885.541706
$oldmeas,msRange:81.289365,x:-25111369.410240,y:8339474.056891,z:-2417632.704042,vx:-370.062317,vy:-219.373871,vz:3136.209717,tb:0.000402898728
$newmeas,x:-25111339.329427,y:8339491.887890,z:-2417887.622891,vx:-370.092255,vy:-219.367447,vz:3136.205566,tb:0.000402898729
$pseudo_cd_ph,prn:12,pseudo_cd_ph:206512920.903106123209
measnum = 4,full_prange = 23784023.819946
$oldmeas,msRange:79.341778,x:12978194.799848,y:7007195.882361,z:21881232.611572,vx:-976.365723,vy:2649.097656,vz:-250.085541,tb:0.000238430826
$newmeas,x:12978272.260336,y:7006985.716377,z:21881252.450606,vx:-976.379517,vy:2649.095459,vz:-250.047882,tb:0.000238430827
$pseudo_cd_ph,prn:17,pseudo_cd_ph:206512929.112787008286
measnum = 5,full_prange = 21269971.803499
$oldmeas,msRange:70.955989,x:-15202240.367130,y:14261712.441888,z:16814681.600632,vx:-2044.659302,vy:256.102661,vz:-2125.613037,tb:0.000062136850
$newmeas,x:-15202095.299935,y:14261694.271859,z:16814832.409852,vx:-2044.678589,vy:256.097137,vz:-2125.588379,tb:0.000062136849
$pseudo_cd_ph,prn:19,pseudo_cd_ph:206512930.974594026804
measnum = 6,full_prange = 20599170.651784
$oldmeas,msRange:68.718383,x:-8251681.589889,y:14785573.483011,z:20180208.563680,vx:-2608.767334,vy:284.040802,vz:-1248.855103,tb:-0.000313607924
$newmeas,x:-8251502.337310,y:14785553.966482,z:20180294.373272,vx:-2608.779541,vy:284.031403,vz:-1248.824951,tb:-0.000313607924
$pseudo_cd_ph,prn:28,pseudo_cd_ph:206512926.086249202490
measnum = 7,full_prange = 22388859.470190
