SD initialized success
Create debug.log Failed! 3
bbram_blkflag = 1
rtcflag = 128
BBRAM Block OK: 01 EPHflag: 464081c8 8900876f, rtc 80
GPS 0 Init Dop: 10000,80
GPS 1 Init Dop: 10000,80
GPS 2 Init Dop: 10000,80
GPS 3 Init Dop: 10000,80
GPS 4 Init Dop: 10000,80
GPS 5 Init Dop: 10000,80
GPS 6 Init Dop: 10000,80
GPS 7 Init Dop: 10000,80
GPS 8 Init Dop: 10000,80
GPS 9 Init Dop: 10000,80
GPS10 Init Dop: 10000,80
GPS11 Init Dop: 10000,80
GPS12 Init Dop: 10000,80
GPS13 Init Dop: 10000,80
GPS14 Init Dop: 10000,80
GPS15 Init Dop: 10000,80
GPS16 Init Dop: 10000,80
GPS17 Init Dop: 10000,80
GPS18 Init Dop: 10000,80
GPS19 Init Dop: 10000,80
GPS20 Init Dop: 10000,80
GPS21 Init Dop: 10000,80
GPS22 Init Dop: 10000,80
GPS23 Init Dop: 10000,80
GPS24 Init Dop: 10000,80
GPS25 Init Dop: 10000,80
GPS26 Init Dop: 10000,80
GPS27 Init Dop: 10000,80
GPS28 Init Dop: 10000,80
GPS29 Init Dop: 10000,80
GPS30 Init Dop: 10000,80
GPS31 Init Dop: 10000,80
BDS 0 Init Dop: 10000,80
BDS 1 Init Dop: 10000,80
BDS 2 Init Dop: 10000,80
BDS 3 Init Dop: 10000,80
BDS 4 Init Dop: 10000,80
BDS 5 Init Dop: 10000,80
BDS 6 Init Dop: 10000,80
BDS 7 Init Dop: 10000,80
BDS 8 Init Dop: 10000,80
BDS 9 Init Dop: 10000,80
BDS10 Init Dop: 10000,80
BDS11 Init Dop: 10000,80
BDS12 Init Dop: 10000,80
BDS13 Init Dop: 10000,80
BDS14 Init Dop: 10000,80
BDS15 Init Dop: 10000,80
BDS16 Init Dop: 10000,80
BDS17 Init Dop: 10000,80
BDS18 Init Dop: 10000,80
BDS19 Init Dop: 10000,80
BDS20 Init Dop: 10000,80
BDS21 Init Dop: 10000,80
BDS22 Init Dop: 10000,80
BDS23 Init Dop: 10000,80
BDS24 Init Dop: 10000,80
BDS25 Init Dop: 10000,80
BDS26 Init Dop: 10000,80
BDS27 Init Dop: 10000,80
BDS28 Init Dop: 10000,80
BDS29 Init Dop: 10000,80
BDS30 Init Dop: 10000,80
BDS31 Init Dop: 10000,80
Good luck!
$ini_pos,lastpos_good = 0,ini_pos.x:0.000000,ini_pos.y:1870047718374314371710976.000000,ini_pos.z:-2046739898144079604584181494893243150538612660687552759866211436395811498176008283937217445670253342138979921839890088464044843714967523004413381681481950795692746949771761461944886978122913274336967586102276507303936.000000
source<tow,snapshot
$GNGGA,000000.000,,,,,0,00,,,M,,,,0000*2B
$GNRMC,000000.000,A,,,,,,,060180,,*29
$GPGSA,A,1,,,,,,,,,,,,,,,*1E
$BDGSA,A,1,,,,,,,,,,,,,,,*0F
$GLGSA,A,1,,,,,,,,,,,,,,,*02
$B3CN0,0,0,0,0,0,0,0,0,0,0,0,0,0,0*4C
$ini_pos,lastpos_good = 0,ini_pos.x:0.000000,ini_pos.y:1870047718374314371710976.000000,ini_pos.z:-2046739898144079604584181494893243150538612660687552759866211436395811498176008283937217445670253342138979921839890088464044843714967523004413381681481950795692746949771761461944886978122913274336967586102276507303936.000000
source<tow,snapshot
$GNGGA,000000.000,,,,,0,00,,,M,,,,0000*2B
$GNRMC,000000.000,A,,,,,,,060180,,*29
$GPGSA,A,1,,,,,,,,,,,,,,,*1E
$BDGSA,A,1,,,,,,,,,,,,,,,*0F
$GLGSA,A,1,,,,,,,,,,,,,,,*02
$B3CN0,0,0,0,0,0,0,0,0,0,0,0,0,0,0*4C
$ini_pos,lastpos_good = 0,ini_pos.x:0.000000,ini_pos.y:1870047718374314371710976.000000,ini_pos.z:-2046739898144079604584181494893243150538612660687552759866211436395811498176008283937217445670253342138979921839890088464044843714967523004413381681481950795692746949771761461944886978122913274336967586102276507303936.000000
source<tow,snapshot
$GNGGA,000000.000,,,,,0,00,,,M,,,,0000*2B
$GNRMC,000000.000,A,,,,,,,060180,,*29
$GPGSA,A,1,,,,,,,,,,,,,,,*1E
$BDGSA,A,1,,,,,,,,,,,,,,,*0F
$GLGSA,A,1,,,,,,,,,,,,,,,*02
$GPGSV,1,1,02,01,00,000,26,03,00,000,20*7F
$B3CN0,0,0,0,0,0,0,0,0,0,0,0,0,0,0*4C
tow update,371317685.417949
$ini_pos,lastpos_good = 0,ini_pos.x:0.000000,ini_pos.y:1870047718374314371710976.000000,ini_pos.z:-2046739898144079604584181494893243150538612660687552759866211436395811498176008283937217445670253342138979921839890088464044843714967523004413381681481950795692746949771761461944886978122913274336967586102276507303936.000000
source>=tow,snapshot
$GNGGA,070819.685,,,,,0,00,,,M,,,,0000*27
$GNRMC,070819.685,A,,,,,,,100180,,*22
$GPGSA,A,1,,,,,,,,,,,,,,,*1E
$BDGSA,A,1,,,,,,,,,,,,,,,*0F
$GLGSA,A,1,,,,,,,,,,,,,,,*02
$GPGSV,2,1,05,01,00,000,46,03,00,000,40,07,00,000,36,11,00,000,30*7A
$GPGSV,2,2,05,17,00,000,18*43
$B3CN0,0,0,0,0,0,0,0,0,0,0,0,0,0,0*4C
$ini_pos,lastpos_good = 0,ini_pos.x:0.000000,ini_pos.y:1870047718374314371710976.000000,ini_pos.z:-2046739898144079604584181494893243150538612660687552759866211436395811498176008283937217445670253342138979921839890088464044843714967523004413381681481950795692746949771761461944886978122913274336967586102276507303936.000000
source>=tow,snapshot
$GNGGA,070820.685,,,,,0,00,,,M,,,,0000*2D
$GNRMC,070820.685,A,,,,,,,100180,,*28
$GPGSA,A,1,,,,,,,,,,,,,,,*1E
$BDGSA,A,1,,,,,,,,,,,,,,,*0F
$GLGSA,A,1,,,,,,,,,,,,,,,*02
$GPGSV,3,1,09,01,00,000,45,03,00,000,40,07,00,000,43,11,00,000,42*73
$GPGSV,3,2,09,17,00,000,44,18,00,000,42,22,00,000,32,28,00,000,25*74
$GPGSV,3,3,09,30,00,000,20*41
$B3CN0,0,0,0,0,0,0,0,0,0,0,0,0,0,0*4C
$ini_pos,lastpos_good = 0,ini_pos.x:0.000000,ini_pos.y:1870047718374314371710976.000000,ini_pos.z:-2046739898144079604584181494893243150538612660687552759866211436395811498176008283937217445670253342138979921839890088464044843714967523004413381681481950795692746949771761461944886978122913274336967586102276507303936.000000
source>=tow,snapshot
$GNGGA,070821.685,,,,,0,00,,,M,,,,0000*2C
$GNRMC,070821.685,A,,,,,,,100180,,*29
$GPGSA,A,1,,,,,,,,,,,,,,,*1E
$BDGSA,A,1,,,,,,,,,,,,,,,*0F
$GLGSA,A,1,,,,,,,,,,,,,,,*02
$GPGSV,3,1,09,01,00,000,44,03,00,000,40,07,00,000,43,11,00,000,43*73
$GPGSV,3,2,09,17,00,000,43,18,00,000,41,22,00,000,38,28,00,000,44*7D
$GPGSV,3,3,09,30,00,000,45*42
$BDGSV,1,1,04,01,00,000,40,02,00,000,40,03,00,000,43,04,00,000,39*65
$B3CN0,0,0,0,0,0,0,0,0,0,0,0,0,0,0*4C
$ini_pos,lastpos_good = 0,ini_pos.x:0.000000,ini_pos.y:1870047718374314371710976.000000,ini_pos.z:-2046739898144079604584181494893243150538612660687552759866211436395811498176008283937217445670253342138979921839890088464044843714967523004413381681481950795692746949771761461944886978122913274336967586102276507303936.000000
source>=tow,snapshot
$GNGGA,070822.685,,,,,0,00,,,M,,,,0000*2F
$GNRMC,070822.685,A,,,,,,,100180,,*2A
$GPGSA,A,1,,,,,,,,,,,,,,,*1E
$BDGSA,A,1,,,,,,,,,,,,,,,*0F
$GLGSA,A,1,,,,,,,,,,,,,,,*02
$GPGSV,3,1,09,01,00,000,45,03,00,000,40,07,00,000,44,11,00,000,43*75
$GPGSV,3,2,09,17,00,000,44,18,00,000,41,22,00,000,38,28,00,000,44*7A
$GPGSV,3,3,09,30,00,000,43*44
$BDGSV,2,1,07,01,00,000,41,02,00,000,39,03,00,000,45,04,00,000,40*62
$BDGSV,2,2,07,08,00,000,38,10,00,000,32,13,00,000,24*58
$B3CN0,0,0,0,0,0,0,0,0,0,0,0,0,0,0*4C
$ini_pos,lastpos_good = 0,ini_pos.x:0.000000,ini_pos.y:1870047718374314371710976.000000,ini_pos.z:-2046739898144079604584181494893243150538612660687552759866211436395811498176008283937217445670253342138979921839890088464044843714967523004413381681481950795692746949771761461944886978122913274336967586102276507303936.000000
source>=tow,snapshot
$GNGGA,070823.685,,,,,0,00,,,M,,,,0000*2E
$GNRMC,070823.685,A,,,,,,,100180,,*2B
$GPGSA,A,1,,,,,,,,,,,,,,,*1E
$BDGSA,A,1,,,,,,,,,,,,,,,*0F
$GLGSA,A,1,,,,,,,,,,,,,,,*02
$GPGSV,3,1,09,01,00,000,44,03,00,000,40,07,00,000,43,11,00,000,43*73
$GPGSV,3,2,09,17,00,000,43,18,00,000,41,22,00,000,38,28,00,000,44*7D
$GPGSV,3,3,09,30,00,000,43*44
$BDGSV,2,1,08,01,00,000,40,02,00,000,39,03,00,000,45,04,00,000,40*6C
$BDGSV,2,2,08,07,00,000,44,08,00,000,43,10,00,000,43,13,00,000,44*6C
$B3CN0,0,21,0,0,0,0,0,0,0,0,0,0,0,0*7F
$ini_pos,lastpos_good = 0,ini_pos.x:0.000000,ini_pos.y:1870047718374314371710976.000000,ini_pos.z:-2046739898144079604584181494893243150538612660687552759866211436395811498176008283937217445670253342138979921839890088464044843714967523004413381681481950795692746949771761461944886978122913274336967586102276507303936.000000
source>=tow,snapshot
$GNGGA,070824.685,,,,,0,00,,,M,,,,0000*29
$GNRMC,070824.685,A,,,,,,,100180,,*2C
$GPGSA,A,1,,,,,,,,,,,,,,,*1E
$BDGSA,A,1,,,,,,,,,,,,,,,*0F
$GLGSA,A,1,,,,,,,,,,,,,,,*02
$GPGSV,3,1,09,01,00,000,45,03,00,000,40,07,00,000,44,11,00,000,43*75
$GPGSV,3,2,09,17,00,000,44,18,00,000,41,22,00,000,38,28,00,000,44*7A
$GPGSV,3,3,09,30,00,000,44*43
$BDGSV,2,1,08,01,00,000,41,02,00,000,40,03,00,000,45,04,00,000,40*63
$BDGSV,2,2,08,07,00,000,44,08,00,000,43,10,00,000,43,13,00,000,43*6B
$B3CN0,0,0,0,0,0,0,0,0,0,0,0,0,0,0*4C
$ini_pos,lastpos_good = 0,ini_pos.x:0.000000,ini_pos.y:1870047718374314371710976.000000,ini_pos.z:-2046739898144079604584181494893243150538612660687552759866211436395811498176008283937217445670253342138979921839890088464044843714967523004413381681481950795692746949771761461944886978122913274336967586102276507303936.000000
source>=tow,snapshot
$GNGGA,070825.685,,,,,0,00,,,M,,,,0000*28
$GNRMC,070825.685,A,,,,,,,100180,,*2D
$GPGSA,A,1,,,,,,,,,,,,,,,*1E
$BDGSA,A,1,,,,,,,,,,,,,,,*0F
$GLGSA,A,1,,,,,,,,,,,,,,,*02
$GPGSV,3,1,09,01,00,000,44,03,00,000,40,07,00,000,43,11,00,000,43*73
$GPGSV,3,2,09,17,00,000,45,18,00,000,42,22,00,000,37,28,00,000,43*70
$GPGSV,3,3,09,30,00,000,44*43
$BDGSV,3,1,09,01,00,000,41,02,00,000,40,03,00,000,43,04,00,000,40*65
$BDGSV,3,2,09,07,00,000,43,08,00,000,43,10,00,000,43,13,00,000,43*6C
$BDGSV,3,3,09,32,00,000,41*55
$B3CN0,0,0,0,0,0,0,0,0,0,0,0,0,0,0*4C
$ini_pos,lastpos_good = 0,ini_pos.x:0.000000,ini_pos.y:1870047718374314371710976.000000,ini_pos.z:-2046739898144079604584181494893243150538612660687552759866211436395811498176008283937217445670253342138979921839890088464044843714967523004413381681481950795692746949771761461944886978122913274336967586102276507303936.000000
source>=tow,snapshot
$GNGGA,070826.685,,,,,0,00,,,M,,,,0000*2B
$GNRMC,070826.685,A,,,,,,,100180,,*2E
$GPGSA,A,1,,,,,,,,,,,,,,,*1E
$BDGSA,A,1,,,,,,,,,,,,,,,*0F
$GLGSA,A,1,,,,,,,,,,,,,,,*02
$GPGSV,3,1,09,01,00,000,45,03,00,000,41,07,00,000,43,11,00,000,43*73
$GPGSV,3,2,09,17,00,000,44,18,00,000,42,22,00,000,38,28,00,000,43*7E
$GPGSV,3,3,09,30,00,000,43*44
$BDGSV,3,1,09,01,00,000,41,02,00,000,40,03,00,000,42,04,00,000,39*6A
$BDGSV,3,2,09,07,00,000,43,08,00,000,43,10,00,000,43,13,00,000,43*6C
$BDGSV,3,3,09,32,00,000,41*55
$B3CN0,0,0,0,0,0,0,0,0,0,0,0,0,0,0*4C
$ini_pos,lastpos_good = 0,ini_pos.x:0.000000,ini_pos.y:1870047718374314371710976.000000,ini_pos.z:-2046739898144079604584181494893243150538612660687552759866211436395811498176008283937217445670253342138979921839890088464044843714967523004413381681481950795692746949771761461944886978122913274336967586102276507303936.000000
source>=tow,snapshot
$GNGGA,070827.685,,,,,0,00,,,M,,,,0000*2A
$GNRMC,070827.685,A,,,,,,,160519,,*2D
$GPGSA,A,1,,,,,,,,,,,,,,,*1E
$BDGSA,A,1,,,,,,,,,,,,,,,*0F
$GLGSA,A,1,,,,,,,,,,,,,,,*02
$GPGSV,3,1,09,01,00,000,45,03,00,000,40,07,00,000,44,11,00,000,43*75
$GPGSV,3,2,09,17,00,000,44,18,00,000,41,22,00,000,38,28,00,000,44*7A
$GPGSV,3,3,09,30,00,000,44*43
$BDGSV,3,1,12,01,00,000,40,02,00,000,40,03,00,000,45,04,00,000,40*68
$BDGSV,3,2,12,07,00,000,43,08,00,000,42,10,00,000,43,13,00,000,43*67
$BDGSV,3,3,12,27,00,000,46,29,00,000,33,30,00,000,32,32,00,000,41*61
$B3CN0,36,0,0,0,0,0,0,0,0,0,0,0,0,0*79
$ini_pos,lastpos_good = 0,ini_pos.x:0.000000,ini_pos.y:1870047718374314371710976.000000,ini_pos.z:-2046739898144079604584181494893243150538612660687552759866211436395811498176008283937217445670253342138979921839890088464044843714967523004413381681481950795692746949771761461944886978122913274336967586102276507303936.000000
source>=tow,snapshot
$GNGGA,070828.685,,,,,0,00,,,M,,,,0000*25
$GNRMC,070828.685,A,,,,,,,160519,,*22
$GPGSA,A,1,,,,,,,,,,,,,,,*1E
$BDGSA,A,1,,,,,,,,,,,,,,,*0F
$GLGSA,A,1,,,,,,,,,,,,,,,*02
$GPGSV,3,1,09,01,00,000,45,03,00,000,40,07,00,000,44,11,00,000,43*75
$GPGSV,3,2,09,17,00,000,45,18,00,000,42,22,00,000,37,28,00,000,44*77
$GPGSV,3,3,09,30,00,000,44*43
$BDGSV,3,1,12,01,00,000,41,02,00,000,39,03,00,000,43,04,00,000,40*61
$BDGSV,3,2,12,07,00,000,43,08,00,000,43,10,00,000,43,13,00,000,43*66
$BDGSV,3,3,12,27,00,000,44,29,00,000,41,30,00,000,44,32,00,000,41*67
$B3CN0,0,0,0,0,0,0,0,0,0,0,0,0,0,0*4C
$ini_pos,lastpos_good = 0,ini_pos.x:0.000000,ini_pos.y:1870047718374314371710976.000000,ini_pos.z:-2046739898144079604584181494893243150538612660687552759866211436395811498176008283937217445670253342138979921839890088464044843714967523004413381681481950795692746949771761461944886978122913274336967586102276507303936.000000
source>=tow,snapshot
$GNGGA,070829.685,,,,,0,00,,,M,,,,0000*24
$GNRMC,070829.685,A,,,,,,,160519,,*23
$GPGSA,A,1,,,,,,,,,,,,,,,*1E
$BDGSA,A,1,,,,,,,,,,,,,,,*0F
$GLGSA,A,1,,,,,,,,,,,,,,,*02
$GPGSV,3,1,09,01,00,000,45,03,00,000,40,07,00,000,44,11,00,000,43*75
$GPGSV,3,2,09,17,00,000,45,18,00,000,42,22,00,000,38,28,00,000,44*78
$GPGSV,3,3,09,30,00,000,44*43
$BDGSV,3,1,12,01,00,000,40,02,00,000,39,03,00,000,43,04,00,000,40*60
$BDGSV,3,2,12,07,00,000,43,08,00,000,43,10,00,000,43,13,00,000,43*66
$BDGSV,3,3,12,27,00,000,44,29,00,000,41,30,00,000,43,32,00,000,40*61
$B3CN0,0,0,0,0,0,0,0,0,0,0,0,0,0,0*4C
$ini_pos,lastpos_good = 0,ini_pos.x:0.000000,ini_pos.y:1870047718374314371710976.000000,ini_pos.z:-2046739898144079604584181494893243150538612660687552759866211436395811498176008283937217445670253342138979921839890088464044843714967523004413381681481950795692746949771761461944886978122913274336967586102276507303936.000000
source>=tow,snapshot
$GNGGA,070830.685,,,,,0,00,,,M,,,,0000*2C
$GNRMC,070830.685,A,,,,,,,160519,,*2B
$GPGSA,A,1,,,,,,,,,,,,,,,*1E
$BDGSA,A,1,,,,,,,,,,,,,,,*0F
$GLGSA,A,1,,,,,,,,,,,,,,,*02
$GPGSV,3,1,09,01,00,000,44,03,00,000,40,07,00,000,44,11,00,000,43*74
$GPGSV,3,2,09,17,00,000,44,18,00,000,42,22,00,000,38,28,00,000,44*79
$GPGSV,3,3,09,30,00,000,44*43
$BDGSV,3,1,12,01,00,000,40,02,00,000,40,03,00,000,45,04,00,000,40*68
$BDGSV,3,2,12,07,00,000,43,08,00,000,44,10,00,000,43,13,00,000,43*61
$BDGSV,3,3,12,27,00,000,44,29,00,000,41,30,00,000,44,32,00,000,40*66
$B3CN0,22,0,0,0,0,0,0,0,0,0,0,0,0,0*7C
$ini_pos,lastpos_good = 0,ini_pos.x:0.000000,ini_pos.y:1870047718374314371710976.000000,ini_pos.z:-2046739898144079604584181494893243150538612660687552759866211436395811498176008283937217445670253342138979921839890088464044843714967523004413381681481950795692746949771761461944886978122913274336967586102276507303936.000000
source>=tow,snapshot
$GNGGA,070831.685,,,,,0,00,,,M,,,,0000*2D
$GNRMC,070831.685,A,,,,,,,160519,,*2A
$GPGSA,A,1,,,,,,,,,,,,,,,*1E
$BDGSA,A,1,,,,,,,,,,,,,,,*0F
$GLGSA,A,1,,,,,,,,,,,,,,,*02
$GPGSV,3,1,09,01,00,000,44,03,00,000,39,07,00,000,43,11,00,000,44*7A
$GPGSV,3,2,09,17,00,000,45,18,00,000,42,22,00,000,37,28,00,000,44*77
$GPGSV,3,3,09,30,00,000,44*43
$BDGSV,3,1,12,01,00,000,41,02,00,000,39,03,00,000,45,04,00,000,40*67
$BDGSV,3,2,12,07,00,000,43,08,00,000,43,10,00,000,43,13,00,000,43*66
$BDGSV,3,3,12,27,00,000,44,29,00,000,40,30,00,000,44,32,00,000,40*67
$B3CN0,0,0,0,0,0,0,0,0,0,0,0,0,0,0*4C
$ini_pos,lastpos_good = 0,ini_pos.x:0.000000,ini_pos.y:1870047718374314371710976.000000,ini_pos.z:-2046739898144079604584181494893243150538612660687552759866211436395811498176008283937217445670253342138979921839890088464044843714967523004413381681481950795692746949771761461944886978122913274336967586102276507303936.000000
source>=tow,snapshot
$GNGGA,070832.685,,,,,0,00,,,M,,,,0000*2E
$GNRMC,070832.685,A,,,,,,,160519,,*29
$GPGSA,A,1,,,,,,,,,,,,,,,*1E
$BDGSA,A,1,,,,,,,,,,,,,,,*0F
$GLGSA,A,1,,,,,,,,,,,,,,,*02
$GPGSV,3,1,09,01,00,000,45,03,00,000,39,07,00,000,43,11,00,000,43*7C
$GPGSV,3,2,09,17,00,000,44,18,00,000,42,22,00,000,38,28,00,000,44*79
$GPGSV,3,3,09,30,00,000,44*43
$BDGSV,3,1,12,01,00,000,40,02,00,000,40,03,00,000,42,04,00,000,40*6F
$BDGSV,3,2,12,07,00,000,43,08,00,000,43,10,00,000,43,13,00,000,43*66
$BDGSV,3,3,12,27,00,000,44,29,00,000,41,30,00,000,43,32,00,000,40*61
$B3CN0,0,0,0,0,0,0,0,0,0,0,0,0,0,0*4C
$ini_pos,lastpos_good = 0,ini_pos.x:0.000000,ini_pos.y:1870047718374314371710976.000000,ini_pos.z:-2046739898144079604584181494893243150538612660687552759866211436395811498176008283937217445670253342138979921839890088464044843714967523004413381681481950795692746949771761461944886978122913274336967586102276507303936.000000
source>=tow,snapshot
$GNGGA,070833.685,,,,,0,00,,,M,,,,0000*2F
$GNRMC,070833.685,A,,,,,,,160519,,*28
$GPGSA,A,1,,,,,,,,,,,,,,,*1E
$BDGSA,A,1,,,,,,,,,,,,,,,*0F
$GLGSA,A,1,,,,,,,,,,,,,,,*02
$GPGSV,3,1,09,01,00,000,44,03,00,000,40,07,00,000,43,11,00,000,43*73
$GPGSV,3,2,09,17,00,000,44,18,00,000,42,22,00,000,38,28,00,000,45*78
$GPGSV,3,3,09,30,00,000,43*44
$BDGSV,3,1,12,01,00,000,41,02,00,000,40,03,00,000,42,04,00,000,40*6E
$BDGSV,3,2,12,07,00,000,43,08,00,000,43,10,00,000,43,13,00,000,43*66
$BDGSV,3,3,12,27,00,000,44,29,00,000,41,30,00,000,43,32,00,000,40*61
$B3CN0,0,0,0,0,0,0,0,0,0,0,0,0,0,0*4C
$ini_pos,lastpos_good = 0,ini_pos.x:0.000000,ini_pos.y:1870047718374314371710976.000000,ini_pos.z:-2046739898144079604584181494893243150538612660687552759866211436395811498176008283937217445670253342138979921839890088464044843714967523004413381681481950795692746949771761461944886978122913274336967586102276507303936.000000
source>=tow,snapshot
$GNGGA,070834.685,,,,,0,00,,,M,,,,0000*28
$GNRMC,070834.685,A,,,,,,,160519,,*2F
$GPGSA,A,1,,,,,,,,,,,,,,,*1E
$BDGSA,A,1,,,,,,,,,,,,,,,*0F
$GLGSA,A,1,,,,,,,,,,,,,,,*02
$GPGSV,3,1,09,01,00,000,45,03,00,000,41,07,00,000,44,11,00,000,43*74
$GPGSV,3,2,09,17,00,000,44,18,00,000,42,22,00,000,37,28,00,000,43*71
$GPGSV,3,3,09,30,00,000,44*43
$BDGSV,3,1,12,01,00,000,40,02,00,000,41,03,00,000,43,04,00,000,41*6E
$BDGSV,3,2,12,07,00,000,43,08,00,000,43,10,00,000,43,13,00,000,43*66
$BDGSV,3,3,12,27,00,000,45,29,00,000,40,30,00,000,43,32,00,000,40*61
$B3CN0,0,0,17,0,0,0,0,0,0,0,0,0,0,0*7A
$ini_pos,lastpos_good = 0,ini_pos.x:0.000000,ini_pos.y:1870047718374314371710976.000000,ini_pos.z:-2046739898144079604584181494893243150538612660687552759866211436395811498176008283937217445670253342138979921839890088464044843714967523004413381681481950795692746949771761461944886978122913274336967586102276507303936.000000
source>=tow,snapshot
$GNGGA,070835.685,,,,,0,00,,,M,,,,0000*29
$GNRMC,070835.685,A,,,,,,,160519,,*2E
$GPGSA,A,1,,,,,,,,,,,,,,,*1E
$BDGSA,A,1,,,,,,,,,,,,,,,*0F
$GLGSA,A,1,,,,,,,,,,,,,,,*02
$GPGSV,3,1,09,01,00,000,44,03,00,000,41,07,00,000,43,11,00,000,43*72
$GPGSV,3,2,09,17,00,000,44,18,00,000,42,22,00,000,36,28,00,000,44*77
$GPGSV,3,3,09,30,00,000,43*44
$BDGSV,3,1,12,01,00,000,40,02,00,000,40,03,00,000,42,04,00,000,41*6E
$BDGSV,3,2,12,07,00,000,43,08,00,000,43,10,00,000,43,13,00,000,43*66
$BDGSV,3,3,12,27,00,000,44,29,00,000,41,30,00,000,44,32,00,000,40*66
$B3CN0,0,0,0,0,0,0,0,0,0,0,0,0,0,0*4C
$ini_pos,lastpos_good = 0,ini_pos.x:0.000000,ini_pos.y:1870047718374314371710976.000000,ini_pos.z:-2046739898144079604584181494893243150538612660687552759866211436395811498176008283937217445670253342138979921839890088464044843714967523004413381681481950795692746949771761461944886978122913274336967586102276507303936.000000
source>=tow,snapshot
$GNGGA,070836.685,,,,,0,00,,,M,,,,0000*2A
$GNRMC,070836.685,A,,,,,,,160519,,*2D
$GPGSA,A,1,,,,,,,,,,,,,,,*1E
$BDGSA,A,1,,,,,,,,,,,,,,,*0F
$GLGSA,A,1,,,,,,,,,,,,,,,*02
$GPGSV,3,1,09,01,00,000,44,03,00,000,40,07,00,000,44,11,00,000,44*73
$GPGSV,3,2,09,17,00,000,44,18,00,000,42,22,00,000,38,28,00,000,44*79
$GPGSV,3,3,09,30,00,000,43*44
$BDGSV,3,1,12,01,00,000,40,02,00,000,40,03,00,000,43,04,00,000,41*6F
$BDGSV,3,2,12,07,00,000,43,08,00,000,43,10,00,000,43,13,00,000,43*66
$BDGSV,3,3,12,27,00,000,44,29,00,000,41,30,00,000,44,32,00,000,41*67
$B3CN0,0,0,24,0,0,0,0,0,0,0,0,0,0,0*7A
$ini_pos,lastpos_good = 0,ini_pos.x:0.000000,ini_pos.y:1870047718374314371710976.000000,ini_pos.z:-2046739898144079604584181494893243150538612660687552759866211436395811498176008283937217445670253342138979921839890088464044843714967523004413381681481950795692746949771761461944886978122913274336967586102276507303936.000000
source>=tow,snapshot
$GNGGA,070837.685,,,,,0,00,,,M,,,,0000*2B
$GNRMC,070837.685,A,,,,,,,160519,,*2C
$GPGSA,A,1,,,,,,,,,,,,,,,*1E
$BDGSA,A,1,,,,,,,,,,,,,,,*0F
$GLGSA,A,1,,,,,,,,,,,,,,,*02
$GPGSV,3,1,09,01,00,000,44,03,00,000,40,07,00,000,43,11,00,000,43*73
$GPGSV,3,2,09,17,00,000,44,18,00,000,41,22,00,000,37,28,00,000,44*75
$GPGSV,3,3,09,30,00,000,44*43
$BDGSV,3,1,12,01,00,000,41,02,00,000,39,03,00,000,43,04,00,000,41*60
$BDGSV,3,2,12,07,00,000,43,08,00,000,43,10,00,000,43,13,00,000,43*66
$BDGSV,3,3,12,27,00,000,44,29,00,000,40,30,00,000,44,32,00,000,40*67
$B3CN0,0,0,0,0,0,0,0,0,0,0,0,0,0,0*4C
$ini_pos,lastpos_good = 0,ini_pos.x:0.000000,ini_pos.y:1870047718374314371710976.000000,ini_pos.z:-2046739898144079604584181494893243150538612660687552759866211436395811498176008283937217445670253342138979921839890088464044843714967523004413381681481950795692746949771761461944886978122913274336967586102276507303936.000000
source>=tow,snapshot
$GNGGA,070838.685,,,,,0,00,,,M,,,,0000*24
$GNRMC,070838.685,A,,,,,,,160519,,*23
$GPGSA,A,1,,,,,,,,,,,,,,,*1E
$BDGSA,A,1,,,,,,,,,,,,,,,*0F
$GLGSA,A,1,,,,,,,,,,,,,,,*02
$GPGSV,3,1,09,01,00,000,44,03,00,000,39,07,00,000,43,11,00,000,43*7D
$GPGSV,3,2,09,17,00,000,45,18,00,000,42,22,00,000,38,28,00,000,44*78
$GPGSV,3,3,09,30,00,000,43*44
$BDGSV,3,1,12,01,00,000,41,02,00,000,41,03,00,000,45,04,00,000,39*66
$BDGSV,3,2,12,07,00,000,43,08,00,000,43,10,00,000,43,13,00,000,43*66
$BDGSV,3,3,12,27,00,000,44,29,00,000,41,30,00,000,44,32,00,000,40*66
$B3CN0,0,0,22,0,0,0,0,0,0,0,0,0,0,0*7C
$GLGSV,2,1,07,21,00,000,37,23,00,000,47,24,00,000,37,11,00,000,47*65
$GLGSV,2,2,07,12,00,000,46,13,00,000,39,22,00,000,47*58
$ini_pos,lastpos_good = 0,ini_pos.x:0.000000,ini_pos.y:1870047718374314371710976.000000,ini_pos.z:-2046739898144079604584181494893243150538612660687552759866211436395811498176008283937217445670253342138979921839890088464044843714967523004413381681481950795692746949771761461944886978122913274336967586102276507303936.000000
source>=tow,snapshot
$GNGGA,070839.685,,,,,0,00,,,M,,,,0000*25
$GNRMC,070839.685,A,,,,,,,160519,,*22
$GPGSA,A,1,,,,,,,,,,,,,,,*1E
$BDGSA,A,1,,,,,,,,,,,,,,,*0F
$GLGSA,A,1,,,,,,,,,,,,,,,*02
$GPGSV,3,1,09,01,00,000,43,03,00,000,40,07,00,000,43,11,00,000,43*74
$GPGSV,3,2,09,17,00,000,44,18,00,000,42,22,00,000,38,28,00,000,44*79
$GPGSV,3,3,09,30,00,000,44*43
$BDGSV,3,1,12,01,00,000,41,02,00,000,40,03,00,000,42,04,00,000,39*60
$BDGSV,3,2,12,07,00,000,43,08,00,000,43,10,00,000,43,13,00,000,43*66
$BDGSV,3,3,12,27,00,000,44,29,00,000,41,30,00,000,44,32,00,000,40*66
$B3CN0,21,0,20,0,0,0,0,0,0,0,0,0,0,0*4D
$GLGSV,2,1,07,21,00,000,37,23,00,000,47,24,00,000,36,11,00,000,47*64
$GLGSV,2,2,07,12,00,000,46,13,00,000,40,22,00,000,47*56
$ini_pos,lastpos_good = 0,ini_pos.x:0.000000,ini_pos.y:1870047718374314371710976.000000,ini_pos.z:-2046739898144079604584181494893243150538612660687552759866211436395811498176008283937217445670253342138979921839890088464044843714967523004413381681481950795692746949771761461944886978122913274336967586102276507303936.000000
$GNGGA,070840.555,2944.9052,N,10633.0927,E,1,07,1.0,351.4,M,,,,0000*14
$GNRMC,070840.555,A,2944.9052,N,10633.0927,E,0.39,0.00,160519,,*1D
$GPGSA,A,3,,,,,,,,,,,,,1.6,1.0,1.2*37
$BDGSA,A,3,,,,,,,,,,,,,1.6,1.0,1.2*26
$GLGSA,A,3,12,13,14,22,23,24,25,,,,,,1.6,1.0,1.2*2F
$GPGSV,3,1,09,01,00,000,44,03,00,000,40,07,00,000,43,11,00,000,43*73
$GPGSV,3,2,09,17,00,000,44,18,00,000,41,22,00,000,38,28,00,000,44*7A
$GPGSV,3,3,09,30,00,000,43*44
$BDGSV,3,1,12,01,00,000,41,02,00,000,40,03,00,000,43,04,00,000,40*6F
$BDGSV,3,2,12,07,00,000,43,08,00,000,43,10,00,000,42,13,00,000,43*67
$BDGSV,3,3,12,27,00,000,44,29,00,000,41,30,00,000,44,32,00,000,40*66
$B3CN0,19,0,22,0,0,0,0,0,0,0,0,0,0,0*44
$GLGSV,2,1,07,21,00,000,37,23,00,000,47,24,00,000,36,11,00,000,47*64
$GLGSV,2,2,07,12,00,000,46,13,00,000,40,22,00,000,47*56
$ini_pos,lastpos_good = 1,ini_pos.x:-1578921.742684,ini_pos.y:5312794.585072,ini_pos.z:3146366.062949
$GNGGA,070842.000,2944.9051,N,10633.0939,E,1,07,1.0,351.0,M,,,,0000*1B
$GNRMC,070842.000,A,2944.9051,N,10633.0939,E,0.32,0.00,160519,,*1D
$GPGSA,A,3,,,,,,,,,,,,,1.6,1.0,1.2*37
$BDGSA,A,3,,,,,,,,,,,,,1.6,1.0,1.2*26
$GLGSA,A,3,11,12,13,21,22,23,24,,,,,,1.6,1.0,1.2*2E
$GPGSV,3,1,09,01,00,000,44,03,00,000,40,07,00,000,43,11,00,000,43*73
$GPGSV,3,2,09,17,00,000,44,18,00,000,42,22,00,000,37,28,00,000,43*71
$GPGSV,3,3,09,30,00,000,43*44
$BDGSV,3,1,12,01,00,000,42,02,00,000,41,03,00,000,45,04,00,000,39*65
$BDGSV,3,2,12,07,00,000,43,08,00,000,42,10,00,000,43,13,00,000,43*67
$BDGSV,3,3,12,27,00,000,44,29,00,000,41,30,00,000,44,32,00,000,40*66
$B3CN0,0,0,24,0,0,0,0,0,0,0,0,0,0,0*7A
$GLGSV,2,1,07,21,00,000,37,23,00,000,48,24,00,000,37,11,00,000,47*6A
$GLGSV,2,2,07,12,00,000,46,13,00,000,40,22,00,000,47*56
$ini_pos,lastpos_good = 1,ini_pos.x:-1578923.473273,ini_pos.y:5312793.761546,ini_pos.z:3146365.705880
Refix G03: 1, 371340.922720, -3208
$GNGGA,070843.000,2944.9053,N,10633.0937,E,1,07,1.0,350.3,M,,,,0000*14
$GNRMC,070843.000,A,2944.9053,N,10633.0937,E,0.22,0.00,160519,,*11
$GPGSA,A,3,,,,,,,,,,,,,1.6,1.0,1.2*37
$BDGSA,A,3,,,,,,,,,,,,,1.6,1.0,1.2*26
$GLGSA,A,3,11,12,13,21,22,23,24,,,,,,1.6,1.0,1.2*2E
$GPGSV,3,1,09,01,00,000,44,03,00,000,40,07,00,000,43,11,00,000,43*73
$GPGSV,3,2,09,17,00,000,45,18,00,000,42,22,00,000,38,28,00,000,43*7F
$GPGSV,3,3,09,30,00,000,44*43
$BDGSV,3,1,12,01,00,000,41,02,00,000,40,03,00,000,43,04,00,000,40*6F
$BDGSV,3,2,12,07,00,000,43,08,00,000,43,10,00,000,43,13,58,220,43*6B
$BDGSV,3,3,12,27,00,000,44,29,00,000,41,30,00,000,43,32,00,000,40*61
$B3CN0,0,0,26,0,0,0,0,0,0,0,0,0,0,0*78
$GLGSV,2,1,07,21,03,040,37,23,45,263,47,24,06,236,36,11,32,153,47*62
$GLGSV,2,2,07,12,79,168,46,13,33,329,40,22,49,005,47*57
$ini_pos,lastpos_good = 1,ini_pos.x:-1578922.980142,ini_pos.y:5312793.126647,ini_pos.z:3146365.677135
Refix G03: 1, 371341.922722, -3207
$GNGGA,070844.000,2944.9056,N,10633.0935,E,1,07,1.0,349.4,M,,,,0000*1B
$GNRMC,070844.000,A,2944.9056,N,10633.0935,E,0.55,0.00,160519,,*11
$GPGSA,A,3,,,,,,,,,,,,,1.6,1.0,1.2*37
$BDGSA,A,3,,,,,,,,,,,,,1.6,1.0,1.2*26
$GLGSA,A,3,11,12,13,21,22,23,24,,,,,,1.6,1.0,1.2*2E
$GPGSV,3,1,09,01,00,000,44,03,25,116,41,07,00,000,44,11,00,000,42*75
$GPGSV,3,2,09,17,00,000,45,18,00,000,42,22,00,000,38,28,00,000,44*78
$GPGSV,3,3,09,30,00,000,44*43
$BDGSV,3,1,12,01,00,000,41,02,00,000,41,03,00,000,43,04,00,000,40*6E
$BDGSV,3,2,12,07,00,000,43,08,00,000,43,10,00,000,42,13,58,220,43*6A
$BDGSV,3,3,12,27,00,000,44,29,00,000,41,30,00,000,43,32,00,000,40*61
$B3CN0,0,0,17,0,0,0,0,0,0,0,0,0,0,0*7A
$GLGSV,2,1,07,21,03,040,37,23,45,263,48,24,06,236,37,11,32,153,47*6C
$GLGSV,2,2,07,12,79,168,46,13,33,329,40,22,49,005,47*57
$ini_pos,lastpos_good = 1,ini_pos.x:-1578922.431936,ini_pos.y:5312792.201864,ini_pos.z:3146365.678001
Refix G03: 1, 371342.922724, -3206
$GNGGA,070845.000,2944.9055,N,10633.0927,E,1,12,99.0,350.5,M,,,,0000*26
$GNRMC,070845.000,A,2944.9055,N,10633.0927,E,0.25,0.00,160519,,*17
$GPGSA,A,3,,,,,,,,,,,,,99.0,99.0,99.0*02
$BDGSA,A,3,07,08,10,13,32,,,,,,,,99.0,99.0,99.0*1E
$GLGSA,A,3,11,12,13,21,22,23,24,,,,,,99.0,99.0,99.0*1B
$GPGSV,3,1,09,01,00,000,44,03,25,116,41,07,00,000,44,11,00,000,43*74
$GPGSV,3,2,09,17,00,000,45,18,00,000,42,22,00,000,38,28,00,000,44*78
$GPGSV,3,3,09,30,00,000,44*43
$BDGSV,3,1,12,01,00,000,41,02,00,000,40,03,00,000,43,04,00,000,40*6F
$BDGSV,3,2,12,07,00,000,43,08,00,000,43,10,00,000,43,13,58,220,43*6B
$BDGSV,3,3,12,27,00,000,44,29,00,000,41,30,00,000,43,32,00,000,40*61
$B3CN0,0,0,22,0,0,0,0,0,0,0,0,0,0,0*7C
$GLGSV,2,1,07,21,03,040,37,23,45,263,48,24,06,236,36,11,32,153,47*6D
$GLGSV,2,2,07,12,79,168,46,13,33,329,39,22,49,005,47*59
$ini_pos,lastpos_good = 1,ini_pos.x:-1578921.513381,ini_pos.y:5312793.515094,ini_pos.z:3146366.085786
Refix G03: 1, 371343.922726, -3210
$GNGGA,070846.000,2944.9055,N,10633.0925,E,1,12,0.9,349.9,M,,,,0000*1A
$GNRMC,070846.000,A,2944.9055,N,10633.0925,E,0.17,0.00,160519,,*17
$GPGSA,A,3,,,,,,,,,,,,,1.1,0.9,0.6*3D
$BDGSA,A,3,07,08,10,13,32,,,,,,,,1.1,0.9,0.6*21
$GLGSA,A,3,11,12,13,21,22,23,24,,,,,,1.1,0.9,0.6*24
$GPGSV,3,1,09,01,00,000,44,03,25,116,40,07,00,000,44,11,00,000,43*75
$GPGSV,3,2,09,17,00,000,45,18,00,000,42,22,00,000,37,28,00,000,44*77
$GPGSV,3,3,09,30,00,000,45*42
$BDGSV,3,1,12,01,00,000,42,02,00,000,40,03,00,000,43,04,00,000,39*62
$BDGSV,3,2,12,07,63,117,43,08,87,251,44,10,82,007,43,13,58,220,43*6A
$BDGSV,3,3,12,27,00,000,43,29,00,000,41,30,00,000,44,32,06,146,39*6A
$B3CN0,0,0,0,0,0,0,0,0,0,0,0,0,0,0*4C
$GLGSV,2,1,07,21,03,040,38,23,45,263,47,24,06,236,37,11,32,153,46*6D
$GLGSV,2,2,07,12,79,168,46,13,33,329,39,22,49,005,47*59
$ini_pos,lastpos_good = 1,ini_pos.x:-1578921.047661,ini_pos.y:5312793.067996,ini_pos.z:3146365.864003
Refix G03: 1, 371344.922728, -3207
$GNGGA,070847.000,2944.9055,N,10633.0923,E,1,12,0.9,349.4,M,,,,0000*10
$GNRMC,070847.000,A,2944.9055,N,10633.0923,E,0.52,0.00,160519,,*11
$GPGSA,A,3,,,,,,,,,,,,,1.1,0.9,0.6*3D
$BDGSA,A,3,07,08,10,13,32,,,,,,,,1.1,0.9,0.6*21
$GLGSA,A,3,11,12,13,21,22,23,24,,,,,,1.1,0.9,0.6*24
$GPGSV,3,1,09,01,00,000,44,03,25,116,40,07,00,000,44,11,00,000,43*75
$GPGSV,3,2,09,17,00,000,44,18,00,000,42,22,00,000,38,28,00,000,44*79
$GPGSV,3,3,09,30,00,000,44*43
$BDGSV,3,1,12,01,00,000,41,02,00,000,40,03,00,000,43,04,00,000,40*6F
$BDGSV,3,2,12,07,63,117,43,08,87,251,43,10,82,007,43,13,58,220,43*6D
$BDGSV,3,3,12,27,00,000,44,29,00,000,41,30,00,000,43,32,06,146,40*64
$B3CN0,0,0,0,0,0,0,0,0,0,0,0,0,0,0*4C
$GLGSV,2,1,07,21,03,040,37,23,45,263,47,24,06,236,36,11,32,153,46*63
$GLGSV,2,2,07,12,79,168,46,13,33,329,39,22,49,005,47*59
$ini_pos,lastpos_good = 1,ini_pos.x:-1578920.598044,ini_pos.y:5312792.808743,ini_pos.z:3146365.569715
Refix G03: 1, 371345.922730, -3206
$GNGGA,070848.000,2944.9055,N,10633.0922,E,1,12,0.9,348.9,M,,,,0000*12
$GNRMC,070848.000,A,2944.9055,N,10633.0922,E,0.37,0.00,160519,,*1C
$GPGSA,A,3,,,,,,,,,,,,,1.1,0.9,0.6*3D
$BDGSA,A,3,07,08,10,13,32,,,,,,,,1.1,0.9,0.6*21
$GLGSA,A,3,11,12,13,21,22,23,24,,,,,,1.1,0.9,0.6*24
$GPGSV,3,1,09,01,00,000,44,03,25,116,40,07,00,000,44,11,00,000,43*75
$GPGSV,3,2,09,17,00,000,44,18,00,000,42,22,00,000,38,28,00,000,44*79
$GPGSV,3,3,09,30,00,000,44*43
$BDGSV,3,1,12,01,00,000,40,02,00,000,39,03,00,000,43,04,00,000,41*61
$BDGSV,3,2,12,07,63,117,43,08,87,251,43,10,82,007,43,13,58,220,43*6D
$BDGSV,3,3,12,27,00,000,44,29,00,000,41,30,00,000,43,32,06,146,40*64
$B3CN0,0,0,0,0,0,0,0,0,0,0,0,0,0,0*4C
$GLGSV,2,1,07,21,03,040,37,23,45,263,47,24,06,236,36,11,32,153,47*62
$GLGSV,2,2,07,12,79,168,46,13,33,329,40,22,49,005,47*57
$ini_pos,lastpos_good = 1,ini_pos.x:-1578920.313662,ini_pos.y:5312792.482703,ini_pos.z:3146365.285801
Refix G01: 2, 371346.930073, 898
Refix G03: 2, 371346.922916, -3204
Refix G07: 2, 371346.924633, 2270
Refix G11: 2, 371346.927486, 1368
$GNGGA,070849.000,2944.9052,N,10633.0919,E,1,16,99.0,348.8,M,,,,0000*20
$GNRMC,070849.000,A,2944.9052,N,10633.0919,E,0.37,0.00,160519,,*12
$GPGSA,A,3,01,03,07,11,,,,,,,,,99.0,99.0,99.0*07
$BDGSA,A,3,07,08,10,13,32,,,,,,,,99.0,99.0,99.0*1E
$GLGSA,A,3,11,12,13,21,22,23,24,,,,,,99.0,99.0,99.0*1B
$GPGSV,3,1,09,01,00,000,44,03,25,116,41,07,00,000,44,11,00,000,43*74
$GPGSV,3,2,09,17,00,000,44,18,00,000,42,22,00,000,39,28,00,000,44*78
$GPGSV,3,3,09,30,00,000,45*42
$BDGSV,3,1,12,01,00,000,41,02,00,000,41,03,00,000,43,04,00,000,40*6E
$BDGSV,3,2,12,07,63,117,43,08,87,251,43,10,82,007,43,13,58,220,43*6D
$BDGSV,3,3,12,27,00,000,44,29,00,000,40,30,00,000,43,32,06,146,39*6B
$B3CN0,21,0,0,0,0,0,0,0,0,0,0,0,0,0*7F
$GLGSV,2,1,07,21,03,040,37,23,45,263,47,24,06,236,36,11,32,153,46*63
$GLGSV,2,2,07,12,79,168,46,13,33,329,40,22,49,005,46*56
$ini_pos,lastpos_good = 1,ini_pos.x:-1578919.915365,ini_pos.y:5312792.779153,ini_pos.z:3146364.792419
Refix G01: 2, 371347.930073, 897
Refix G03: 2, 371347.922918, -3205
Refix G07: 2, 371347.924632, 2269
Refix G11: 2, 371347.927485, 1367
$GNGGA,070850.000,2944.9050,N,10633.0918,E,1,16,0.8,348.2,M,,,,0000*19
$GNRMC,070850.000,A,2944.9050,N,10633.0918,E,0.62,0.00,160519,,*19
$GPGSA,A,3,01,03,07,11,,,,,,,,,0.9,0.8,0.4*32
$BDGSA,A,3,07,08,10,13,32,,,,,,,,0.9,0.8,0.4*2B
$GLGSA,A,3,11,12,13,21,22,23,24,,,,,,0.9,0.8,0.4*2E
$GPGSV,3,1,09,01,53,046,44,03,25,116,40,07,28,179,44,11,40,042,44*71
$GPGSV,3,2,09,17,00,000,44,18,00,000,41,22,00,000,39,28,00,000,44*7B
$GPGSV,3,3,09,30,00,000,44*43
$BDGSV,3,1,12,01,00,000,41,02,00,000,39,03,00,000,43,04,00,000,40*61
$BDGSV,3,2,12,07,63,117,43,08,87,251,43,10,82,007,43,13,58,220,43*6D
$BDGSV,3,3,12,27,00,000,44,29,00,000,40,30,00,000,43,32,06,146,39*6B
$B3CN0,19,0,0,0,0,0,0,0,0,0,0,0,0,0*74
$GLGSV,2,1,07,21,03,040,37,23,45,263,47,24,06,236,36,11,32,153,47*62
$GLGSV,2,2,07,12,79,168,46,13,33,329,40,22,49,005,47*57
$ini_pos,lastpos_good = 1,ini_pos.x:-1578919.582645,ini_pos.y:5312792.493976,ini_pos.z:3146364.157743
Refix G01: 2, 371348.930072, 896
Refix G03: 2, 371348.922920, -3206
Refix G07: 2, 371348.924630, 2268
Refix G11: 2, 371348.927484, 1366
$GNGGA,070851.000,2944.9049,N,10633.0917,E,1,16,0.8,347.5,M,,,,0000*17
$GNRMC,070851.000,A,2944.9049,N,10633.0917,E,0.55,0.00,160519,,*1B
$GPGSA,A,3,01,03,07,11,,,,,,,,,0.9,0.8,0.4*32
$BDGSA,A,3,07,08,10,13,32,,,,,,,,0.9,0.8,0.4*2B
$GLGSA,A,3,11,12,13,21,22,23,24,,,,,,0.9,0.8,0.4*2E
$GPGSV,3,1,09,01,53,046,44,03,25,116,40,07,28,179,43,11,40,042,44*76
$GPGSV,3,2,09,17,00,000,45,18,00,000,41,22,00,000,39,28,00,000,44*7A
$GPGSV,3,3,09,30,00,000,44*43
$BDGSV,3,1,12,01,00,000,40,02,00,000,41,03,00,000,43,04,00,000,39*61
$BDGSV,3,2,12,07,63,117,43,08,87,251,43,10,82,007,43,13,58,220,43*6D
$BDGSV,3,3,12,27,00,000,45,29,00,000,40,30,00,000,44,32,06,146,39*6D
$B3CN0,0,0,0,0,0,0,0,0,0,0,0,0,0,0*4C
$GLGSV,2,1,07,21,03,040,37,23,45,263,47,24,06,236,36,11,32,153,47*62
$GLGSV,2,2,07,12,79,168,46,13,33,329,40,22,49,005,46*56
$ini_pos,lastpos_good = 1,ini_pos.x:-1578919.289983,ini_pos.y:5312792.017699,ini_pos.z:3146363.718635
Refix G01: 2, 371349.930072, 897
Refix G03: 2, 371349.922922, -3206
Refix G07: 2, 371349.924629, 2268
Refix G11: 2, 371349.927483, 1366
$GNGGA,070852.000,2944.9049,N,10633.0916,E,1,16,0.8,347.0,M,,,,0000*10
$GNRMC,070852.000,A,2944.9049,N,10633.0916,E,0.63,0.00,160519,,*1C
$GPGSA,A,3,01,03,07,11,,,,,,,,,0.9,0.8,0.4*32
$BDGSA,A,3,07,08,10,13,32,,,,,,,,0.9,0.8,0.4*2B
$GLGSA,A,3,11,12,13,21,22,23,24,,,,,,0.9,0.8,0.4*2E
$GPGSV,3,1,09,01,53,046,44,03,25,116,40,07,28,179,43,11,40,042,43*71
$GPGSV,3,2,09,17,00,000,44,18,00,000,42,22,00,000,38,28,00,000,44*79
$GPGSV,3,3,09,30,00,000,44*43
$BDGSV,3,1,12,01,00,000,41,02,00,000,38,03,00,000,45,04,00,000,40*66
$BDGSV,3,2,12,07,63,117,43,08,87,251,43,10,82,007,43,13,58,220,43*6D
$BDGSV,3,3,12,27,00,000,44,29,00,000,40,30,00,000,44,32,06,146,39*6C
$B3CN0,0,0,0,0,0,0,0,0,0,0,0,0,0,0*4C
$GLGSV,2,1,07,21,03,040,37,23,45,263,47,24,06,236,36,11,32,153,46*63
$GLGSV,2,2,07,12,79,168,46,13,33,329,40,22,49,005,47*57
$ini_pos,lastpos_good = 1,ini_pos.x:-1578919.083965,ini_pos.y:5312791.604169,ini_pos.z:3146363.431771
Refix G01: 2, 371350.930071, 899
Refix G03: 2, 371350.922924, -3203
Refix G07: 2, 371350.924628, 2270
Refix G11: 2, 371350.927482, 1369
$GNGGA,070853.000,2944.9049,N,10633.0916,E,1,16,0.8,346.5,M,,,,0000*15
$GNRMC,070853.000,A,2944.9049,N,10633.0916,E,0.52,0.00,160519,,*1F
$GPGSA,A,3,01,03,07,11,,,,,,,,,0.9,0.8,0.4*32
$BDGSA,A,3,07,08,10,13,32,,,,,,,,0.9,0.8,0.4*2B
$GLGSA,A,3,11,12,13,21,22,23,24,,,,,,0.9,0.8,0.4*2E
$GPGSV,3,1,09,01,53,046,44,03,25,116,41,07,28,179,43,11,40,042,43*70
$GPGSV,3,2,09,17,00,000,44,18,00,000,41,22,00,000,38,28,00,000,43*7D
$GPGSV,3,3,09,30,00,000,44*43
$BDGSV,3,1,12,01,00,000,40,02,00,000,40,03,00,000,42,04,00,000,39*61
$BDGSV,3,2,12,07,63,117,43,08,87,251,43,10,82,007,43,13,58,220,44*6A
$BDGSV,3,3,12,27,00,000,44,29,00,000,40,30,00,000,44,32,06,146,39*6C
$B3CN0,0,0,0,0,0,0,0,0,0,0,0,0,0,0*4C
$GLGSV,2,1,07,21,03,040,37,23,45,263,47,24,06,236,36,11,32,153,47*62
$GLGSV,2,2,07,12,79,168,46,13,33,329,40,22,49,005,46*56
$ini_pos,lastpos_good = 1,ini_pos.x:-1578918.879541,ini_pos.y:5312791.273066,ini_pos.z:3146363.196469
Refix G01: 2, 371351.930070, 897
Refix G03: 2, 371351.922926, -3206
Refix G07: 2, 371351.924626, 2268
Refix G11: 2, 371351.927481, 1366
$GNGGA,070854.000,2944.9048,N,10633.0916,E,1,20,0.7,345.5,M,,,,0000*1A
$GNRMC,070854.000,A,2944.9048,N,10633.0916,E,0.54,0.00,160519,,*1F
$GPGSA,A,3,01,03,07,11,,,,,,,,,0.7,0.7,0.4*33
$BDGSA,A,3,01,02,03,04,07,08,10,13,32,,,,0.7,0.7,0.4*2E
$GLGSA,A,3,11,12,13,21,22,23,24,,,,,,0.7,0.7,0.4*2F
$GPGSV,3,1,09,01,53,046,44,03,25,116,41,07,28,179,44,11,40,042,43*77
$GPGSV,3,2,09,17,00,000,44,18,00,000,42,22,00,000,38,28,00,000,44*79
$GPGSV,3,3,09,30,00,000,44*43
$BDGSV,3,1,12,01,00,000,41,02,00,000,40,03,00,000,43,04,00,000,40*6F
$BDGSV,3,2,12,07,63,117,43,08,87,251,43,10,82,007,43,13,58,220,43*6D
$BDGSV,3,3,12,27,00,000,45,29,00,000,40,30,00,000,44,32,06,146,39*6D
$B3CN0,0,0,0,0,0,0,0,0,0,0,0,0,0,0*4C
$GLGSV,2,1,07,21,03,040,37,23,45,263,47,24,06,236,36,11,32,153,46*63
$GLGSV,2,2,07,12,79,168,46,13,33,329,40,22,49,005,46*56
$ini_pos,lastpos_good = 1,ini_pos.x:-1578918.729517,ini_pos.y:5312790.485645,ini_pos.z:3146362.586004
Refix G01: 2, 371352.930070, 897
Refix G03: 2, 371352.922928, -3206
Refix G07: 2, 371352.924625, 2268
Refix G11: 2, 371352.927481, 1366
Refix G17: 2, 371352.926145, -2142
Refix G18: 2, 371352.924373, 2089
Refix G28: 2, 371352.929285, -2735
Refix G30: 2, 371352.929428, 828
$GNGGA,070855.000,2944.9048,N,10633.0921,E,1,24,0.6,344.6,M,,,,0000*18
$GNRMC,070855.000,A,2944.9048,N,10633.0921,E,0.23,0.00,160519,,*1A
$GPGSA,A,3,01,03,07,11,17,18,28,30,,,,,0.7,0.6,0.4*34
$BDGSA,A,3,01,02,03,04,07,08,10,13,32,,,,0.7,0.6,0.4*2F
$GLGSA,A,3,11,12,13,21,22,23,24,,,,,,0.7,0.6,0.4*2E
$GPGSV,3,1,09,01,53,046,44,03,25,116,41,07,28,179,44,11,40,042,43*77
$GPGSV,3,2,09,17,00,000,44,18,00,000,42,22,00,000,38,28,00,000,44*79
$GPGSV,3,3,09,30,00,000,44*43
$BDGSV,3,1,12,01,40,125,40,02,46,219,40,03,55,171,42,04,23,109,41*6A
$BDGSV,3,2,12,07,63,117,42,08,87,251,43,10,82,007,43,13,58,220,43*6C
$BDGSV,3,3,12,27,00,000,44,29,00,000,40,30,00,000,43,32,06,146,39*6B
$B3CN0,0,0,0,0,0,0,0,0,0,0,0,0,0,0*4C
$GLGSV,2,1,07,21,03,040,37,23,45,263,47,24,06,236,36,11,32,153,46*63
$GLGSV,2,2,07,12,79,168,46,13,33,329,40,22,49,005,46*56
$ini_pos,lastpos_good = 1,ini_pos.x:-1578919.322983,ini_pos.y:5312789.509899,ini_pos.z:3146362.014129
Refix G01: 2, 371353.930069, 901
Refix G03: 2, 371353.922930, -3202
Refix G07: 2, 371353.924623, 2271
Refix G11: 2, 371353.927480, 1370
Refix G17: 2, 371353.926146, -2139
Refix G18: 2, 371353.924372, 2092
Refix G28: 2, 371353.929287, -2732
Refix G30: 2, 371353.929428, 832
$GNGGA,070856.000,2944.9047,N,10633.0925,E,1,24,0.6,344.0,M,,,,0000*16
$GNRMC,070856.000,A,2944.9047,N,10633.0925,E,0.22,0.00,160519,,*13
$GPGSA,A,3,01,03,07,11,17,18,28,30,,,,,0.7,0.6,0.4*34
$BDGSA,A,3,01,02,03,04,07,08,10,13,32,,,,0.7,0.6,0.4*2F
$GLGSA,A,3,11,12,13,21,22,23,24,,,,,,0.7,0.6,0.4*2E
$GPGSV,3,1,09,01,53,046,44,03,25,116,41,07,28,179,43,11,40,042,43*70
$GPGSV,3,2,09,17,41,288,45,18,26,042,41,22,00,000,38,28,58,343,43*70
$GPGSV,3,3,09,30,51,212,44*46
$BDGSV,3,1,12,01,40,125,41,02,46,219,40,03,55,171,43,04,23,109,40*6B
$BDGSV,3,2,12,07,63,117,43,08,87,251,43,10,82,007,42,13,58,220,43*6C
$BDGSV,3,3,12,27,00,000,44,29,00,000,40,30,00,000,44,32,06,146,39*6C
$B3CN0,0,0,0,0,0,0,0,0,0,0,0,0,0,0*4C
$GLGSV,2,1,07,21,03,040,36,23,45,263,47,24,06,236,36,11,32,153,46*62
$GLGSV,2,2,07,12,79,168,46,13,33,329,40,22,49,005,46*56
$ini_pos,lastpos_good = 1,ini_pos.x:-1578919.705907,ini_pos.y:5312788.932783,ini_pos.z:3146361.538008
Refix G01: 2, 371354.930069, 899
Refix G03: 2, 371354.922932, -3205
Refix G07: 2, 371354.924622, 2269
Refix G11: 2, 371354.927479, 1367
Refix G17: 2, 371354.926148, -2142
Refix G18: 2, 371354.924371, 2089
Refix G28: 2, 371354.929289, -2735
Refix G30: 2, 371354.929427, 830
$GNGGA,070857.000,2944.9047,N,10633.0927,E,1,24,0.6,343.2,M,,,,0000*10
$GNRMC,070857.000,A,2944.9047,N,10633.0927,E,0.36,0.00,160519,,*15
$GPGSA,A,3,01,03,07,11,17,18,28,30,,,,,0.7,0.6,0.4*34
$BDGSA,A,3,01,02,03,04,07,08,10,13,32,,,,0.7,0.6,0.4*2F
$GLGSA,A,3,11,12,13,21,22,23,24,,,,,,0.7,0.6,0.4*2E
$GPGSV,3,1,09,01,53,046,44,03,25,116,41,07,28,179,44,11,40,042,43*77
$GPGSV,3,2,09,17,41,288,44,18,26,042,42,22,00,000,38,28,58,343,44*75
$GPGSV,3,3,09,30,51,212,44*46
$BDGSV,3,1,12,01,40,125,40,02,46,219,40,03,55,171,42,04,23,109,40*6B
$BDGSV,3,2,12,07,63,117,43,08,87,251,43,10,82,007,43,13,58,220,43*6D
$BDGSV,3,3,12,27,00,000,44,29,00,000,41,30,00,000,44,32,06,146,39*6D
$B3CN0,0,0,0,0,0,0,0,0,0,0,0,0,0,0*4C
$GLGSV,2,1,07,21,03,040,36,23,45,263,47,24,06,236,36,11,32,153,46*62
$GLGSV,2,2,07,12,79,168,46,13,33,329,40,22,49,005,47*57
$ini_pos,lastpos_good = 1,ini_pos.x:-1578919.804548,ini_pos.y:5312788.229696,ini_pos.z:3146361.190883
Refix G01: 2, 371355.930068, 897
Refix G03: 2, 371355.922934, -3207
Refix G07: 2, 371355.924620, 2267
Refix G11: 2, 371355.927478, 1365
Refix G17: 2, 371355.926149, -2144
Refix G18: 2, 371355.924369, 2087
Refix G28: 2, 371355.929290, -2737
Refix G30: 2, 371355.929427, 828
$GNGGA,070858.000,2944.9047,N,10633.0928,E,1,24,0.6,342.8,M,,,,0000*1B
$GNRMC,070858.000,A,2944.9047,N,10633.0928,E,0.41,0.00,160519,,*15
$GPGSA,A,3,01,03,07,11,17,18,28,30,,,,,0.7,0.6,0.4*34
$BDGSA,A,3,01,02,03,04,07,08,10,13,32,,,,0.7,0.6,0.4*2F
$GLGSA,A,3,11,12,13,21,22,23,24,,,,,,0.7,0.6,0.4*2E
$GPGSV,3,1,09,01,53,046,45,03,25,116,41,07,28,179,44,11,40,042,42*77
$GPGSV,3,2,09,17,41,288,44,18,26,042,42,22,00,000,38,28,58,343,43*72
$GPGSV,3,3,09,30,51,212,44*46
$BDGSV,3,1,12,01,40,125,41,02,46,219,39,03,55,171,43,04,23,109,40*65
$BDGSV,3,2,12,07,63,117,43,08,87,251,43,10,82,007,43,13,58,220,43*6D
$BDGSV,3,3,12,27,00,000,44,29,00,000,41,30,00,000,43,32,06,146,39*6A
$B3CN0,0,0,0,0,0,0,0,0,0,0,0,0,0,0*4C
$GLGSV,2,1,07,21,03,040,37,23,45,263,47,24,06,236,35,11,32,153,46*60
$GLGSV,2,2,07,12,79,168,45,13,33,329,40,22,49,005,47*54
$ini_pos,lastpos_good = 1,ini_pos.x:-1578919.886665,ini_pos.y:5312787.763071,ini_pos.z:3146361.046819
Refix G01: 2, 371356.930067, 900
Refix G03: 2, 371356.922936, -3204
Refix G07: 2, 371356.924619, 2269
Refix G11: 2, 371356.927477, 1368
Refix G17: 2, 371356.926150, -2142
Refix G18: 2, 371356.924368, 2090
Refix G28: 2, 371356.929292, -2735
Refix G30: 2, 371356.929426, 831
$GNGGA,070859.000,2944.9047,N,10633.0929,E,1,24,0.6,342.5,M,,,,0000*16
$GNRMC,070859.000,A,2944.9047,N,10633.0929,E,0.51,0.00,160519,,*14
$GPGSA,A,3,01,03,07,11,17,18,28,30,,,,,0.7,0.6,0.4*34
$BDGSA,A,3,01,02,03,04,07,08,10,13,32,,,,0.7,0.6,0.4*2F
$GLGSA,A,3,11,12,13,21,22,23,24,,,,,,0.7,0.6,0.4*2E
$GPGSV,3,1,09,01,53,046,45,03,25,116,41,07,28,179,43,11,40,042,43*71
$GPGSV,3,2,09,17,41,288,45,18,26,042,42,22,00,000,37,28,58,343,43*7C
$GPGSV,3,3,09,30,51,212,44*46
$BDGSV,3,1,12,01,40,125,41,02,46,219,40,03,55,171,43,04,23,109,40*6B
$BDGSV,3,2,12,07,63,117,43,08,87,251,43,10,82,007,43,13,58,220,43*6D
$BDGSV,3,3,12,27,00,000,44,29,00,000,40,30,00,000,44,32,06,146,39*6C
$B3CN0,0,0,0,0,0,0,0,0,0,0,0,0,0,0*4C
$GLGSV,2,1,07,21,03,040,36,23,45,263,47,24,06,236,35,11,32,153,46*61
$GLGSV,2,2,07,12,79,168,46,13,33,329,41,22,49,005,47*56
$ini_pos,lastpos_good = 1,ini_pos.x:-1578919.912219,ini_pos.y:5312787.466135,ini_pos.z:3146360.903222
Refix G01: 2, 371357.930067, 896
Refix G03: 2, 371357.922938, -3208
Refix G07: 2, 371357.924617, 2266
Refix G11: 2, 371357.927476, 1364
Refix G17: 2, 371357.926152, -2145
Refix G18: 2, 371357.924367, 2086
Refix G28: 2, 371357.929294, -2738
Refix G30: 2, 371357.929426, 827
$GNGGA,070900.000,2944.9048,N,10633.0929,E,1,24,0.6,342.1,M,,,,0000*10
$GNRMC,070900.000,A,2944.9048,N,10633.0929,E,0.34,0.00,160519,,*15
$GPGSA,A,3,01,03,07,11,17,18,28,30,,,,,0.7,0.6,0.4*34
$BDGSA,A,3,01,02,03,04,07,08,10,13,32,,,,0.7,0.6,0.4*2F
$GLGSA,A,3,11,12,13,21,22,23,24,,,,,,0.7,0.6,0.4*2E
$GPGSV,3,1,09,01,53,046,45,03,25,116,41,07,28,179,43,11,40,042,43*71
$GPGSV,3,2,09,17,41,288,45,18,26,042,41,22,00,000,37,28,58,343,43*7F
$GPGSV,3,3,09,30,51,212,44*46
$BDGSV,3,1,12,01,40,125,40,02,46,219,40,03,55,171,43,04,23,109,40*6A
$BDGSV,3,2,12,07,63,117,43,08,87,251,43,10,82,007,43,13,58,220,43*6D
$BDGSV,3,3,12,27,00,000,44,29,00,000,40,30,00,000,44,32,06,146,39*6C
$B3CN0,36,36,0,0,0,0,0,0,0,0,0,0,0,0*4C
$GLGSV,2,1,07,21,03,040,36,23,45,263,47,24,06,236,35,11,32,153,46*61
$GLGSV,2,2,07,12,79,168,45,13,33,329,40,22,49,006,46*56
$ini_pos,lastpos_good = 1,ini_pos.x:-1578919.877469,ini_pos.y:5312787.112982,ini_pos.z:3146360.817395
Refix G01: 2, 371358.930066, 898
Refix G03: 2, 371358.922940, -3207
Refix G07: 2, 371358.924616, 2266
Refix G11: 2, 371358.927475, 1365
Refix G17: 2, 371358.926153, -2144
Refix G18: 2, 371358.924365, 2088
Refix G22: 2, 371358.922216, -1840
Refix G28: 2, 371358.929295, -2737
Refix G30: 2, 371358.929425, 829
$GNGGA,070901.000,2944.9048,N,10633.0930,E,1,25,0.6,341.8,M,,,,0000*12
$GNRMC,070901.000,A,2944.9048,N,10633.0930,E,0.12,0.00,160519,,*18
$GPGSA,A,3,01,03,07,11,17,18,22,28,30,,,,0.7,0.6,0.4*34
$BDGSA,A,3,01,02,03,04,07,08,10,13,32,,,,0.7,0.6,0.4*2F
$GLGSA,A,3,11,12,13,21,22,23,24,,,,,,0.7,0.6,0.4*2E
$GPGSV,3,1,09,01,53,046,44,03,25,116,40,07,28,179,43,11,40,042,43*71
$GPGSV,3,2,09,17,41,288,45,18,26,042,42,22,00,000,37,28,58,343,44*7B
$GPGSV,3,3,09,30,51,212,45*47
$BDGSV,3,1,12,01,40,125,41,02,46,219,41,03,55,171,45,04,23,109,41*6D
$BDGSV,3,2,12,07,63,117,43,08,87,251,43,10,82,007,42,13,58,220,43*6C
$BDGSV,3,3,12,27,00,000,44,29,00,000,41,30,00,000,43,32,06,146,38*6B
$B3CN0,0,0,0,0,0,0,0,0,0,0,0,0,0,0*4C
$GLGSV,2,1,07,21,03,040,35,23,45,263,47,24,06,236,35,11,32,153,46*62
$GLGSV,2,2,07,12,79,168,46,13,33,329,40,22,49,006,47*54
$ini_pos,lastpos_good = 1,ini_pos.x:-1578919.989435,ini_pos.y:5312786.793372,ini_pos.z:3146360.625255
Refix G01: 2, 371359.930066, 901
Refix G03: 2, 371359.922942, -3203
Refix G07: 2, 371359.924614, 2270
Refix G11: 2, 371359.927474, 1368
Refix G17: 2, 371359.926154, -2141
Refix G18: 2, 371359.924364, 2091
Refix G22: 2, 371359.922217, -1836
Refix G28: 2, 371359.929297, -2734
Refix G30: 2, 371359.929424, 832
$GNGGA,070902.000,2944.9048,N,10633.0931,E,1,25,0.6,341.5,M,,,,0000*1D
$GNRMC,070902.000,A,2944.9048,N,10633.0931,E,0.28,0.00,160519,,*13
$GPGSA,A,3,01,03,07,11,17,18,22,28,30,,,,0.7,0.6,0.4*34
$BDGSA,A,3,01,02,03,04,07,08,10,13,32,,,,0.7,0.6,0.4*2F
$GLGSA,A,3,11,12,13,21,22,23,24,,,,,,0.7,0.6,0.4*2E
$GPGSV,3,1,09,01,53,046,45,03,25,116,40,07,28,179,44,11,40,042,43*77
$GPGSV,3,2,09,17,41,288,45,18,26,042,41,22,26,091,37,28,58,343,45*75
$GPGSV,3,3,09,30,51,212,45*47
$BDGSV,3,1,12,01,40,125,41,02,46,219,39,03,55,171,43,04,23,109,39*6B
$BDGSV,3,2,12,07,63,117,43,08,87,251,43,10,82,007,43,13,58,220,44*6A
$BDGSV,3,3,12,27,00,000,44,29,00,000,40,30,00,000,44,32,06,146,38*6D
$B3CN0,0,0,0,0,0,0,0,0,0,0,0,0,0,0*4C
$GLGSV,2,1,07,21,03,040,35,23,45,263,47,24,06,236,35,11,32,153,47*63
$GLGSV,2,2,07,12,79,168,46,13,33,329,40,22,49,006,46*55
$ini_pos,lastpos_good = 1,ini_pos.x:-1578919.998734,ini_pos.y:5312786.574312,ini_pos.z:3146360.501390
Refix G01: 2, 371360.930065, 898
Refix G03: 2, 371360.922944, -3207
Refix G07: 2, 371360.924613, 2266
Refix G11: 2, 371360.927473, 1365
Refix G17: 2, 371360.926156, -2144
Refix G18: 2, 371360.924362, 2088
Refix G22: 2, 371360.922218, -1839
Refix G28: 2, 371360.929299, -2737
Refix G30: 2, 371360.929424, 829
$GNGGA,070903.000,2944.9049,N,10633.0931,E,1,25,0.6,341.1,M,,,,0000*19
$GNRMC,070903.000,A,2944.9049,N,10633.0931,E,0.19,0.00,160519,,*11
$GPGSA,A,3,01,03,07,11,17,18,22,28,30,,,,0.7,0.6,0.4*34
$BDGSA,A,3,01,02,03,04,07,08,10,13,32,,,,0.7,0.6,0.4*2F
$GLGSA,A,3,11,12,13,21,22,23,24,,,,,,0.7,0.6,0.4*2E
$GPGSV,3,1,09,01,53,046,45,03,25,116,40,07,28,179,43,11,40,042,43*70
$GPGSV,3,2,09,17,41,288,45,18,26,042,41,22,26,091,38,28,58,343,44*7B
$GPGSV,3,3,09,30,51,212,45*47
$BDGSV,3,1,12,01,40,125,41,02,46,219,39,03,55,171,42,04,23,109,41*65
$BDGSV,3,2,12,07,63,117,43,08,87,251,43,10,82,007,43,13,58,220,44*6A
$BDGSV,3,3,12,27,00,000,44,29,00,000,40,30,00,000,44,32,06,146,38*6D
$B3CN0,0,0,0,0,0,0,0,0,0,0,0,0,0,0*4C
$GLGSV,2,1,07,21,03,040,35,23,45,263,47,24,06,236,35,11,32,153,47*63
$GLGSV,2,2,07,12,79,168,46,13,33,329,40,22,49,006,47*54
$ini_pos,lastpos_good = 1,ini_pos.x:-1578919.887178,ini_pos.y:5312786.100998,ini_pos.z:3146360.412443
Refix G01: 2, 371361.930064, 905
Refix G03: 2, 371361.922946, -3201
Refix G07: 2, 371361.924611, 2273
Refix G11: 2, 371361.927472, 1371
Refix G17: 2, 371361.926157, -2139
Refix G18: 2, 371361.924361, 2093
Refix G22: 2, 371361.922219, -1833
Refix G28: 2, 371361.929300, -2731
Refix G30: 2, 371361.929423, 836
$GNGGA,070904.000,2944.9049,N,10633.0931,E,1,25,0.6,340.8,M,,,,0000*16
$GNRMC,070904.000,A,2944.9049,N,10633.0931,E,0.36,0.00,160519,,*1B
$GPGSA,A,3,01,03,07,11,17,18,22,28,30,,,,0.7,0.6,0.4*34
$BDGSA,A,3,01,02,03,04,07,08,10,13,32,,,,0.7,0.6,0.4*2F
$GLGSA,A,3,11,12,13,21,22,23,24,,,,,,0.7,0.6,0.4*2E
$GPGSV,3,1,09,01,53,046,45,03,25,116,41,07,28,179,44,11,40,042,43*76
$GPGSV,3,2,09,17,41,288,45,18,26,042,42,22,26,091,37,28,58,343,44*77
$GPGSV,3,3,09,30,51,212,45*47
$BDGSV,3,1,12,01,40,125,42,02,46,219,40,03,55,171,42,04,23,109,39*67
$BDGSV,3,2,12,07,63,117,43,08,87,251,43,10,82,007,43,13,58,220,43*6D
$BDGSV,3,3,12,27,00,000,45,29,00,000,40,30,00,000,43,32,06,146,38*6B
$B3CN0,0,0,0,0,0,0,0,0,0,0,0,0,0,0*4C
$GLGSV,2,1,07,21,03,040,35,23,45,263,47,24,06,236,35,11,32,153,47*63
$GLGSV,2,2,07,12,79,168,46,13,33,329,40,22,49,006,47*54
$ini_pos,lastpos_good = 1,ini_pos.x:-1578919.773676,ini_pos.y:5312785.780220,ini_pos.z:3146360.380771
Refix G01: 2, 371362.930064, 904
Refix G03: 2, 371362.922948, -3202
Refix G07: 2, 371362.924610, 2272
Refix G11: 2, 371362.927472, 1370
Refix G17: 2, 371362.926158, -2139
Refix G18: 2, 371362.924360, 2093
Refix G22: 2, 371362.922220, -1834
Refix G28: 2, 371362.929302, -2732
Refix G30: 2, 371362.929423, 835
$GNGGA,070905.000,2944.9050,N,10633.0931,E,1,25,0.6,340.3,M,,,,0000*14
$GNRMC,070905.000,A,2944.9050,N,10633.0931,E,0.15,0.00,160519,,*13
$GPGSA,A,3,01,03,07,11,17,18,22,28,30,,,,0.7,0.6,0.4*34
$BDGSA,A,3,01,02,03,04,07,08,10,13,32,,,,0.7,0.6,0.4*2F
$GLGSA,A,3,11,12,13,21,22,23,24,,,,,,0.7,0.6,0.4*2E
$GPGSV,3,1,09,01,53,046,44,03,25,116,41,07,28,179,43,11,40,042,43*70
$GPGSV,3,2,09,17,41,288,45,18,26,042,41,22,26,091,36,28,58,343,44*75
$GPGSV,3,3,09,30,51,212,44*46
$BDGSV,3,1,12,01,40,125,41,02,46,219,39,03,55,171,43,04,23,109,38*6A
$BDGSV,3,2,12,07,63,117,43,08,87,251,43,10,82,007,43,13,58,220,43*6D
$BDGSV,3,3,12,27,00,000,45,29,00,000,40,30,00,000,43,32,06,146,38*6B
$B3CN0,0,0,0,0,0,0,0,0,0,0,0,0,0,0*4C
$GLGSV,2,1,07,21,03,040,35,23,45,263,47,24,06,236,35,11,32,153,47*63
$GLGSV,2,2,07,12,79,168,46,13,33,329,40,22,49,006,47*54
$ini_pos,lastpos_good = 1,ini_pos.x:-1578919.605765,ini_pos.y:5312785.325968,ini_pos.z:3146360.220196
Refix G01: 2, 371363.930063, 905
Refix G03: 2, 371363.922950, -3200
Refix G07: 2, 371363.924608, 2273
Refix G11: 2, 371363.927471, 1371
Refix G17: 2, 371363.926160, -2138
Refix G18: 2, 371363.924358, 2094
Refix G22: 2, 371363.922222, -1832
Refix G28: 2, 371363.929304, -2731
Refix G30: 2, 371363.929422, 836
$GNGGA,070906.000,2944.9050,N,10633.0930,E,1,25,0.6,339.8,M,,,,0000*13
$GNRMC,070906.000,A,2944.9050,N,10633.0930,E,0.26,0.00,160519,,*11
$GPGSA,A,3,01,03,07,11,17,18,22,28,30,,,,0.7,0.6,0.4*34
$BDGSA,A,3,01,02,03,04,07,08,10,13,32,,,,0.7,0.6,0.4*2F
$GLGSA,A,3,11,12,13,21,22,23,24,,,,,,0.7,0.6,0.4*2E
$GPGSV,3,1,09,01,53,046,44,03,25,116,40,07,28,179,44,11,40,042,43*76
$GPGSV,3,2,09,17,41,288,45,18,26,042,41,22,26,091,37,28,58,343,44*74
$GPGSV,3,3,09,30,51,212,45*47
$BDGSV,3,1,12,01,40,125,41,02,46,219,41,03,55,171,43,04,23,109,41*6B
$BDGSV,3,2,12,07,63,117,43,08,87,251,43,10,82,007,43,13,58,220,43*6D
$BDGSV,3,3,12,27,00,000,45,29,00,000,40,30,00,000,44,32,06,146,38*6C
$B3CN0,0,0,0,0,0,0,0,0,0,0,0,0,0,0*4C
$GLGSV,2,1,07,21,03,040,34,23,45,263,47,24,06,236,35,11,32,153,46*63
$GLGSV,2,2,07,12,79,168,46,13,33,329,40,22,49,006,46*55
$ini_pos,lastpos_good = 1,ini_pos.x:-1578919.462498,ini_pos.y:5312784.899227,ini_pos.z:3146360.029564
Refix G01: 2, 371364.930063, 900
Refix G03: 2, 371364.922952, -3206
Refix G07: 2, 371364.924607, 2267
Refix G11: 2, 371364.927470, 1366
Refix G17: 2, 371364.926161, -2144
Refix G18: 2, 371364.924357, 2088
Refix G22: 2, 371364.922223, -1838
Refix G28: 2, 371364.929306, -2737
Refix G30: 2, 371364.929422, 830
$GNGGA,070907.000,2944.9050,N,10633.0930,E,1,25,0.6,339.3,M,,,,0000*19
$GNRMC,070907.000,A,2944.9050,N,10633.0930,E,0.22,0.00,160519,,*14
$GPGSA,A,3,01,03,07,11,17,18,22,28,30,,,,0.7,0.6,0.4*34
$BDGSA,A,3,01,02,03,04,07,08,10,13,32,,,,0.7,0.6,0.4*2F
$GLGSA,A,3,11,12,13,21,22,23,24,,,,,,0.7,0.6,0.4*2E
$GPGSV,3,1,09,01,53,046,44,03,25,116,41,07,28,179,44,11,40,042,43*77
$GPGSV,3,2,09,17,41,288,45,18,26,042,41,22,26,091,38,28,58,343,44*7B
$GPGSV,3,3,09,30,51,212,44*46
$BDGSV,3,1,12,01,40,125,41,02,46,219,41,03,55,171,43,04,23,109,41*6B
$BDGSV,3,2,12,07,63,117,43,08,87,253,43,10,82,007,43,13,58,220,43*6F
$BDGSV,3,3,12,27,00,000,45,29,00,000,40,30,00,000,44,32,06,146,39*6D
$B3CN0,0,0,0,0,0,0,0,0,0,0,0,0,0,0*4C
$GLGSV,2,1,07,21,03,040,33,23,45,263,47,24,06,236,35,11,32,153,47*65
$GLGSV,2,2,07,12,79,168,46,13,33,329,40,22,49,006,46*55
$ini_pos,lastpos_good = 1,ini_pos.x:-1578919.320697,ini_pos.y:5312784.547050,ini_pos.z:3146359.811037
Refix G01: 2, 371365.930062, 902
Refix G03: 2, 371365.922954, -3204
Refix G07: 2, 371365.924605, 2269
Refix G11: 2, 371365.927469, 1368
Refix G17: 2, 371365.926162, -2142
Refix G18: 2, 371365.924356, 2090
Refix G22: 2, 371365.922224, -1835
Refix G28: 2, 371365.929307, -2735
Refix G30: 2, 371365.929421, 834
$GNGGA,070908.000,2944.9050,N,10633.0930,E,1,25,0.6,339.2,M,,,,0000*17
$GNRMC,070908.000,A,2944.9050,N,10633.0930,E,0.19,0.00,160519,,*13
$GPGSA,A,3,01,03,07,11,17,18,22,28,30,,,,0.7,0.6,0.4*34
$BDGSA,A,3,01,02,03,04,07,08,10,13,32,,,,0.7,0.6,0.4*2F
$GLGSA,A,3,11,12,13,21,22,23,24,,,,,,0.7,0.6,0.4*2E
$GPGSV,3,1,09,01,53,046,44,03,25,116,40,07,28,179,43,11,40,042,43*71
$GPGSV,3,2,09,17,41,288,45,18,26,042,42,22,26,091,38,28,58,343,43*7F
$GPGSV,3,3,09,30,51,212,45*47
$BDGSV,3,1,12,01,40,125,41,02,46,219,41,03,55,171,43,04,23,109,40*6A
$BDGSV,3,2,12,07,63,117,43,08,87,253,43,10,82,007,42,13,58,220,43*6E
$BDGSV,3,3,12,27,00,000,45,29,00,000,39,30,00,000,44,32,06,146,39*63
$B3CN0,23,21,0,0,0,0,0,0,0,0,0,0,0,0*4E
$GLGSV,2,1,07,21,03,040,33,23,45,263,47,24,06,236,35,11,32,153,47*65
$GLGSV,2,2,07,12,79,168,46,13,33,329,40,22,49,006,46*55
$ini_pos,lastpos_good = 1,ini_pos.x:-1578919.297771,ini_pos.y:5312784.405142,ini_pos.z:3146359.710781
Refix G01: 2, 371366.930061, 906
Refix G03: 2, 371366.922956, -3201
Refix G07: 2, 371366.924604, 2272
Refix G11: 2, 371366.927468, 1372
Refix G17: 2, 371366.926163, -2138
Refix G18: 2, 371366.924354, 2094
Refix G22: 2, 371366.922225, -1832
Refix G28: 2, 371366.929309, -2731
Refix G30: 2, 371366.929421, 837
$GNGGA,070909.000,2944.9050,N,10633.0930,E,1,25,0.6,338.9,M,,,,0000*1C
$GNRMC,070909.000,A,2944.9050,N,10633.0930,E,0.05,0.00,160519,,*1F
$GPGSA,A,3,01,03,07,11,17,18,22,28,30,,,,0.7,0.6,0.4*34
$BDGSA,A,3,01,02,03,04,07,08,10,13,32,,,,0.7,0.6,0.4*2F
$GLGSA,A,3,11,12,13,21,22,23,24,,,,,,0.7,0.6,0.4*2E
$GPGSV,3,1,09,01,53,046,45,03,25,116,40,07,28,179,43,11,40,042,43*70
$GPGSV,3,2,09,17,41,288,45,18,26,042,42,22,26,091,38,28,58,343,44*78
$GPGSV,3,3,09,30,51,212,44*46
$BDGSV,3,1,12,01,40,125,41,02,46,219,40,03,55,171,43,04,23,109,40*6B
$BDGSV,3,2,12,07,63,117,43,08,87,253,43,10,82,007,43,13,58,220,43*6F
$BDGSV,3,3,12,27,00,000,44,29,00,000,40,30,00,000,44,32,06,146,39*6C
$B3CN0,18,0,0,0,0,0,0,0,0,0,0,0,0,0*75
$GLGSV,2,1,07,21,03,040,32,23,45,263,47,24,06,236,36,11,32,153,47*67
$GLGSV,2,2,07,12,79,168,46,13,33,329,40,22,49,006,46*55
$ini_pos,lastpos_good = 1,ini_pos.x:-1578919.236233,ini_pos.y:5312784.136220,ini_pos.z:3146359.585782
Refix G01: 2, 371367.930061, 909
Refix G03: 2, 371367.922958, -3198
Refix G07: 2, 371367.924603, 2275
Refix G11: 2, 371367.927467, 1374
Refix G17: 2, 371367.926165, -2137
Refix G18: 2, 371367.924353, 2096
Refix G22: 2, 371367.922226, -1829
Refix G28: 2, 371367.929311, -2729
Refix G30: 2, 371367.929420, 840
$GNGGA,070910.000,2944.9050,N,10633.0930,E,1,25,0.6,338.6,M,,,,0000*1B
$GNRMC,070910.000,A,2944.9050,N,10633.0930,E,0.30,0.00,160519,,*11
$GPGSA,A,3,01,03,07,11,17,18,22,28,30,,,,0.7,0.6,0.4*34
$BDGSA,A,3,01,02,03,04,07,08,10,13,32,,,,0.7,0.6,0.4*2F
$GLGSA,A,3,11,12,13,21,22,23,24,,,,,,0.7,0.6,0.4*2E
$GPGSV,3,1,09,01,53,046,44,03,25,116,40,07,28,179,43,11,40,042,43*71
$GPGSV,3,2,09,17,41,288,44,18,26,042,42,22,26,091,38,28,58,343,43*7E
$GPGSV,3,3,09,30,51,212,44*46
$BDGSV,3,1,12,01,40,125,41,02,46,219,40,03,55,171,43,04,23,109,41*6A
$BDGSV,3,2,12,07,63,117,43,08,87,253,43,10,82,007,43,13,58,220,43*6F
$BDGSV,3,3,12,27,00,000,44,29,00,000,40,30,00,000,44,32,06,146,38*6D
$B3CN0,19,0,0,0,0,0,0,0,0,0,0,0,0,0*74
$GLGSV,2,1,07,21,03,040,32,23,45,263,47,24,06,236,35,11,32,153,47*64
$GLGSV,2,2,07,12,79,168,46,13,33,329,40,22,49,006,46*55
$ini_pos,lastpos_good = 1,ini_pos.x:-1578919.089997,ini_pos.y:5312783.867188,ini_pos.z:3146359.463703
Refix G01: 2, 371368.930060, 900
Refix G03: 2, 371368.922960, -3206
Refix G07: 2, 371368.924601, 2266
Refix G11: 2, 371368.927466, 1365
Refix G17: 2, 371368.926166, -2145
Refix G18: 2, 371368.924352, 2088
Refix G22: 2, 371368.922227, -1837
Refix G28: 2, 371368.929312, -2738
Refix G30: 2, 371368.929419, 830
$GNGGA,070911.000,2944.9051,N,10633.0929,E,1,25,0.6,338.1,M,,,,0000*14
$GNRMC,070911.000,A,2944.9051,N,10633.0929,E,0.24,0.00,160519,,*1C
$GPGSA,A,3,01,03,07,11,17,18,22,28,30,,,,0.7,0.6,0.4*34
$BDGSA,A,3,01,02,03,04,07,08,10,13,32,,,,0.7,0.6,0.4*2F
$GLGSA,A,3,11,12,13,21,22,23,24,,,,,,0.7,0.6,0.4*2E
$GPGSV,3,1,09,01,53,046,45,03,25,116,40,07,28,179,43,11,40,042,43*70
$GPGSV,3,2,09,17,41,288,44,18,26,042,41,22,26,091,38,28,58,343,44*7A
$GPGSV,3,3,09,30,51,212,44*46
$BDGSV,3,1,12,01,40,125,42,02,46,219,40,03,55,171,43,04,23,109,40*68
$BDGSV,3,2,12,07,63,117,43,08,87,253,42,10,82,007,42,13,58,220,43*6F
$BDGSV,3,3,12,27,00,000,44,29,00,000,40,30,00,000,44,32,06,146,38*6D
$B3CN0,0,0,0,0,0,0,0,0,0,0,0,0,0,0*4C
$GLGSV,2,1,07,21,03,040,31,23,45,263,47,24,06,236,35,11,32,153,47*67
$GLGSV,2,2,07,12,79,168,46,13,33,329,41,22,49,006,46*54
$ini_pos,lastpos_good = 1,ini_pos.x:-1578918.766393,ini_pos.y:5312783.457331,ini_pos.z:3146359.298786
Refix G01: 2, 371369.930060, 901
Refix G03: 2, 371369.922962, -3205
Refix G07: 2, 371369.924600, 2267
Refix G11: 2, 371369.927465, 1366
Refix G17: 2, 371369.926167, -2144
Refix G18: 2, 371369.924350, 2088
Refix G22: 2, 371369.922228, -1836
Refix G28: 2, 371369.929314, -2737
Refix G30: 2, 371369.929419, 832
$GNGGA,070912.000,2944.9051,N,10633.0929,E,1,25,0.6,338.0,M,,,,0000*16
$GNRMC,070912.000,A,2944.9051,N,10633.0929,E,0.21,0.00,160519,,*1A
$GPGSA,A,3,01,03,07,11,17,18,22,28,30,,,,0.7,0.6,0.4*34
$BDGSA,A,3,01,02,03,04,07,08,10,13,32,,,,0.7,0.6,0.4*2F
$GLGSA,A,3,11,12,13,21,22,23,24,,,,,,0.7,0.6,0.4*2E
$GPGSV,3,1,09,01,53,046,45,03,25,116,41,07,28,179,44,11,40,042,44*71
$GPGSV,3,2,09,17,41,288,45,18,26,042,41,22,26,091,39,28,58,343,43*7D
$GPGSV,3,3,09,30,51,212,44*46
$BDGSV,3,1,12,01,40,125,41,02,46,219,39,03,55,171,43,04,23,109,40*65
$BDGSV,3,2,12,07,63,117,43,08,87,253,43,10,82,007,42,13,58,220,43*6E
$BDGSV,3,3,12,27,00,000,44,29,00,000,40,30,00,000,44,32,06,146,38*6D
$B3CN0,0,0,0,0,0,0,0,0,0,0,0,0,0,0*4C
$GLGSV,2,1,07,21,03,040,31,23,45,263,48,24,06,236,36,11,32,153,47*6B
$GLGSV,2,2,07,12,79,168,46,13,33,329,41,22,49,006,46*54
$ini_pos,lastpos_good = 1,ini_pos.x:-1578918.718671,ini_pos.y:5312783.452951,ini_pos.z:3146359.295824
Refix G01: 2, 371370.930059, 905
Refix G03: 2, 371370.922964, -3202
Refix G07: 2, 371370.924598, 2270
Refix G11: 2, 371370.927464, 1369
Refix G17: 2, 371370.926169, -2141
Refix G18: 2, 371370.924349, 2092
Refix G22: 2, 371370.922229, -1833
Refix G28: 2, 371370.929316, -2734
Refix G30: 2, 371370.929418, 836
$GNGGA,070913.000,2944.9051,N,10633.0928,E,1,25,0.6,337.9,M,,,,0000*10
$GNRMC,070913.000,A,2944.9051,N,10633.0928,E,0.23,0.00,160519,,*18
$GPGSA,A,3,01,03,07,11,17,18,22,28,30,,,,0.7,0.6,0.4*34
$BDGSA,A,3,01,02,03,04,07,08,10,13,32,,,,0.7,0.6,0.4*2F
$GLGSA,A,3,11,12,13,21,22,23,24,,,,,,0.7,0.6,0.4*2E
$GPGSV,3,1,09,01,53,046,45,03,25,116,41,07,28,179,43,11,40,042,43*71
$GPGSV,3,2,09,17,41,288,45,18,26,042,41,22,26,091,39,28,58,343,44*7A
$GPGSV,3,3,09,30,51,212,44*46
$BDGSV,3,1,12,01,40,125,40,02,46,219,41,03,55,171,42,04,23,109,40*6A
$BDGSV,3,2,12,07,63,117,43,08,87,253,43,10,82,007,42,13,58,220,43*6E
$BDGSV,3,3,12,27,00,000,44,29,00,000,40,30,00,000,44,32,06,146,38*6D
$B3CN0,0,0,19,0,0,0,0,0,0,0,0,0,0,0*74
$GLGSV,2,1,07,21,03,040,31,23,45,263,48,24,06,236,36,11,32,153,46*6A
$GLGSV,2,2,07,12,79,168,46,13,33,329,41,22,49,006,46*54
$ini_pos,lastpos_good = 1,ini_pos.x:-1578918.641448,ini_pos.y:5312783.280552,ini_pos.z:3146359.252979
