SD initialized success
Create debug.log Failed! 3
bbram_blkflag = 1
rtcflag = 0
BBRAM Block OK: 01 EPHflag: 28250427 12241adf, rtc 00
Hot-start nowtime:day = 28,minute = 36,seconds = 17.00
GPS 0 Init Dop:  2489, 2
GPS 1 Init Dop: -3720, 2
GPS 2 Init Dop:  -650, 2
GPS 3 Init Dop: 10000,80
GPS 4 Init Dop: 10000,80
GPS 5 Init Dop: -3094, 2
GPS 6 Init Dop: 10000,80
GPS 7 Init Dop: 10000,80
GPS 8 Init Dop: 10000,80
GPS 9 Init Dop: 10000,80
GPS10 Init Dop:  2118, 2
GPS11 Init Dop: 10000,80
GPS12 Init Dop: 10000,80
GPS13 Init Dop: 10000,80
GPS14 Init Dop: 10000,80
GPS15 Init Dop: 10000,80
GPS16 Init Dop: -1443, 2
GPS17 Init Dop: 10000,80
GPS18 Init Dop: -2326, 2
GPS19 Init Dop: 10000,80
GPS20 Init Dop: 10000,80
GPS21 Init Dop:   799, 2
GPS22 Init Dop: 10000,80
GPS23 Init Dop: 10000,80
GPS24 Init Dop: 10000,80
GPS25 Init Dop: 10000,80
GPS26 Init Dop: 10000,80
GPS27 Init Dop: -1010, 2
GPS28 Init Dop: 10000,80
GPS29 Init Dop:  2365, 2
GPS30 Init Dop: 10000,80
GPS31 Init Dop: 10000,80
BDS 0 Init Dop:  -874, 2
BDS 1 Init Dop:  -938, 2
BDS 2 Init Dop:  -894, 2
BDS 3 Init Dop:  -893, 2
BDS 4 Init Dop:  -920, 2
BDS 5 Init Dop: 10000,80
BDS 6 Init Dop:  -175, 2
BDS 7 Init Dop:  -471, 2
BDS 8 Init Dop: 10000,80
BDS 9 Init Dop:  -694, 2
BDS10 Init Dop: 10000,80
BDS11 Init Dop: -2124, 2
BDS12 Init Dop:  -896, 2
BDS13 Init Dop: 10000,80
BDS14 Init Dop: 10000,80
BDS15 Init Dop: 10000,80
BDS16 Init Dop: 10000,80
BDS17 Init Dop: 10000,80
BDS18 Init Dop: -2470, 2
BDS19 Init Dop: 10000,80
BDS20 Init Dop: 10000,80
BDS21 Init Dop: -3703, 2
BDS22 Init Dop: 10000,80
BDS23 Init Dop: 10000,80
BDS24 Init Dop: 10000,80
BDS25 Init Dop:   -37, 2
BDS26 Init Dop: 10000,80
BDS27 Init Dop: 10000,80
BDS28 Init Dop:   991, 2
BDS29 Init Dop: 10000,80
BDS30 Init Dop: 10000,80
BDS31 Init Dop: 10000,80
Good luck!
$ini_pos,lastpos_good = 1,ini_pos.x:-1578913.000000,ini_pos.y:5312770.000000,ini_pos.z:3146357.000000
$rtc_local_time,localRTC.weeks:2055,localRTC.seconds:200196.026007,localGtime.weeks:0,localGtime.seconds:19.026011
source<tow,snapshot
$GNGGA,000000.000,,,,,0,00,,,M,,,,0000*2B
$GNRMC,000000.000,A,,,,,,,060180,,*29
$GPGSA,A,1,,,,,,,,,,,,,,,*1E
$BDGSA,A,1,,,,,,,,,,,,,,,*0F
$GLGSA,A,1,,,,,,,,,,,,,,,*02
$B3CN0,0,0,0,0,0,0,0,0,0,0,0,0,0,0*4C
tow update,200198164.911014
$ini_pos,lastpos_good = 1,ini_pos.x:-1578913.000000,ini_pos.y:5312770.000000,ini_pos.z:3146357.000000
$rtc_local_time,localRTC.weeks:2055,localRTC.seconds:200197.026007,localGtime.weeks:2055,localGtime.seconds:200198.164911
source>=tow,snapshot
$GNGGA,073620.165,,,,,0,00,,,M,,,,0000*29
$GNRMC,073620.165,A,,,,,,,280519,,*23
$GPGSA,A,1,,,,,,,,,,,,,,,*1E
$BDGSA,A,1,,,,,,,,,,,,,,,*0F
$GLGSA,A,1,,,,,,,,,,,,,,,*02
$B3CN0,0,0,0,0,0,0,0,0,0,0,0,0,0,0*4C
$ini_pos,lastpos_good = 1,ini_pos.x:-1578913.000000,ini_pos.y:5312770.000000,ini_pos.z:3146357.000000
$rtc_local_time,localRTC.weeks:2055,localRTC.seconds:200198.026007,localGtime.weeks:2055,localGtime.seconds:200199.164911
$pseudo_cd_ph,prn:1,pseudo_cd_ph:11.675684170989
measnum = 0,full_prange = 23446288.832916
$oldmeas,msRange:0.000000,x:-15221483.752238,y:263008.631284,z:21612560.898987,vx:-795.546814,vy:-2663.833984,vz:-491.941986,tb:-0.000026896775
$newmeas,x:-15221421.534224,y:263216.965817,z:21612599.371556,vx:-795.535767,vy:-2663.842773,vz:-491.905518,tb:-0.000026896774
$pseudo_cd_ph,prn:3,pseudo_cd_ph:16.032810781708
measnum = 1,full_prange = 22204227.271789
$oldmeas,msRange:74.269121,x:-21003930.548249,y:9137362.793632,z:13333938.425374,vx:985.851318,vy:-1406.329956,vz:2517.663086,tb:0.000187158411
$newmeas,x:-21004003.565286,y:9137466.953122,z:13333751.953037,vx:985.841431,vy:-1406.308350,vz:2517.684326,tb:0.000187158411
$pseudo_cd_ph,prn:6,pseudo_cd_ph:17.613495984269
measnum = 2,full_prange = 21732314.401268
$oldmeas,msRange:72.693789,x:6201937.091313,y:25665236.527383,z:2731972.550420,vx:-328.275208,vy:-254.021042,vz:3185.388916,tb:0.000193711712
$newmeas,x:6201960.888018,y:25665254.940719,z:2731741.637609,vx:-328.265320,vy:-253.994751,vz:3185.393066,tb:0.000193711713
$pseudo_cd_ph,prn:17,pseudo_cd_ph:18.303211834890
measnum = 3,full_prange = 21486078.552945
$oldmeas,msRange:71.873272,x:779108.870549,y:15422335.024548,z:22027886.051540,vx:-2600.528564,vy:-697.213806,vz:582.629211,tb:0.000062073195
$newmeas,x:779295.249738,y:15422384.994125,z:22027844.293437,vx:-2600.520508,vy:-697.224243,vz:582.661560,tb:0.000062073194
$pseudo_cd_ph,prn:19,pseudo_cd_ph:17.360198482390
measnum = 4,full_prange = 21656157.588108
$oldmeas,msRange:72.440113,x:8878102.393065,y:16150425.654320,z:18793188.750305,vx:-2362.453369,vy:-651.914429,vz:1657.012329,tb:-0.000313617580
$newmeas,x:8878273.049370,y:16150472.746974,z:18793069.051360,vx:-2362.435791,vy:-651.920044,vz:1657.041992,tb:-0.000313617580
$pseudo_cd_ph,prn:22,pseudo_cd_ph:10.944083294910
measnum = 5,full_prange = 23461407.639619
$oldmeas,msRange:78.463307,x:-19307088.774714,y:2257721.500950,z:18302127.462819,vx:1267.427612,vy:-1919.129150,vz:1602.129028,tb:-0.000708066745
$newmeas,x:-19307187.962048,y:2257871.689079,z:18302002.080901,vx:1267.425903,vy:-1919.111938,vz:1602.158936,tb:-0.000708066744
$pseudo_cd_ph,prn:28,pseudo_cd_ph:2.171089798824
measnum = 6,full_prange = 20538088.753590
$oldmeas,msRange:68.711277,x:-10054140.084803,y:21125307.351460,z:13268523.143764,vx:-1268.438232,vy:952.152954,vz:-2587.406982,tb:0.000767797558
$newmeas,x:-10054053.186344,y:21125242.121341,z:13268700.400395,vx:-1268.458252,vy:952.162231,vz:-2587.388184,tb:0.000767797558
$pseudo_cd_ph,prn:30,pseudo_cd_ph:11.217416839749
measnum = 7,full_prange = 23557876.907062
$oldmeas,msRange:78.785807,x:-2688676.765636,y:23472537.338297,z:-11915735.515591,vx:-686.375427,vy:-1398.093628,vz:-2613.100098,tb:-0.000112946356
$newmeas,x:-2688622.830323,y:23472647.200497,z:-11915530.175772,vx:-686.362854,vy:-1398.071655,vz:-2613.120361,tb:-0.000112946355
source>=tow,snapshot
nits = 2
$GNGGA,073620.484,2944.9118,N,10633.0936,E,1,21,0.0,319.1,M,,,,0000*11
$GNRMC,073620.484,A,2944.9118,N,10633.0936,E,0.00,0.00,280519,,*13
$GPGSA,A,3,01,03,06,17,19,22,28,30,,,,,0.0,0.0,0.0*31
$BDGSA,A,3,01,02,03,04,07,08,10,12,13,19,22,26,0.0,0.0,0.0*24
$GLGSA,A,3,,,,,,,,,,,,,0.0,0.0,0.0*2E
$GPGSV,2,1,08,01,00,000,25,03,00,000,26,06,00,000,26,17,00,000,26*73
$GPGSV,2,2,08,19,00,000,26,22,00,000,25,28,00,000,25,30,00,000,25*73
$BDGSV,3,1,12,01,00,000,40,02,00,000,40,03,00,000,42,04,00,000,40*6F
$BDGSV,3,2,12,07,00,000,24,08,00,000,24,10,00,000,23,12,00,000,23*67
$BDGSV,3,3,12,13,00,000,23,19,00,000,23,22,00,000,23,26,00,000,23*65
$B3CN0,0,0,0,0,0,0,0,0,0,0,0,0,0,0*4C
$ini_pos,lastpos_good = 1,ini_pos.x:-1578913.490960,ini_pos.y:5312761.441849,ini_pos.z:3146360.700940
$rtc_local_time,localRTC.weeks:2055,localRTC.seconds:200199.026007,localGtime.weeks:2055,localGtime.seconds:200200.164911
$pseudo_cd_ph,prn:1,pseudo_cd_ph:11.674169650409
measnum = 0,full_prange = 23446733.205484
$oldmeas,msRange:0.000000,x:-15222279.369593,y:260344.853342,z:21612068.723895,vx:-795.687927,vy:-2663.722168,vz:-492.408234,tb:-0.000026896786
$newmeas,x:-15222217.139365,y:260553.183082,z:21612107.233660,vx:-795.676880,vy:-2663.730957,vz:-492.371765,tb:-0.000026896785
$pseudo_cd_ph,prn:3,pseudo_cd_ph:16.033323599330
measnum = 1,full_prange = 22204063.868052
$oldmeas,msRange:74.269287,x:-21002944.630554,y:9135956.318371,z:13336455.945708,vx:985.984131,vy:-1406.620728,vz:2517.377686,tb:0.000187158409
$newmeas,x:-21003017.656894,y:9136060.498634,z:13336269.495892,vx:985.974304,vy:-1406.599121,vz:2517.398682,tb:0.000187158409
$pseudo_cd_ph,prn:6,pseudo_cd_ph:17.615567092672
measnum = 2,full_prange = 21731683.827128
$oldmeas,msRange:72.692432,x:6201608.747987,y:25664982.325041,z:2735157.910098,vx:-328.411469,vy:-254.383667,vz:3185.330566,tb:0.000193711702
$newmeas,x:6201632.553879,y:25665000.764130,z:2734927.008211,vx:-328.401581,vy:-254.357376,vz:3185.334961,tb:0.000193711703
$pseudo_cd_ph,prn:17,pseudo_cd_ph:18.304219653296
measnum = 3,full_prange = 21485766.750605
$oldmeas,msRange:71.872938,x:776508.285261,y:15421637.883581,z:22028468.455227,vx:-2600.642090,vy:-697.068176,vz:582.178223,tb:0.000062073206
$newmeas,x:776694.669877,y:15421687.841998,z:22028426.730054,vx:-2600.634033,vy:-697.078613,vz:582.210510,tb:0.000062073205
$pseudo_cd_ph,prn:19,pseudo_cd_ph:17.361783270962
measnum = 4,full_prange = 21655672.810941
$oldmeas,msRange:72.439221,x:8875739.818845,y:16149773.778643,z:18794845.557172,vx:-2362.695312,vy:-651.836914,vz:1656.601562,tb:-0.000313617579
$newmeas,x:8875910.488801,y:16149820.864644,z:18794725.890580,vx:-2362.677734,vy:-651.842529,vz:1656.631226,tb:-0.000313617579
$pseudo_cd_ph,prn:22,pseudo_cd_ph:10.943670069600
measnum = 5,full_prange = 23461521.857123
$oldmeas,msRange:78.464383,x:-19305821.336325,y:2255802.261852,z:18303729.400076,vx:1267.449341,vy:-1919.349243,vz:1601.745605,tb:-0.000708066749
$newmeas,x:-19305920.525842,y:2255952.467937,z:18303604.047550,vx:1267.447632,vy:-1919.332031,vz:1601.775635,tb:-0.000708066749
$pseudo_cd_ph,prn:28,pseudo_cd_ph:2.171833504447
measnum = 6,full_prange = 20537856.126896
$oldmeas,msRange:68.711231,x:-10055408.377346,y:21126259.436683,z:13265935.601029,vx:-1268.146851,vy:952.017517,vz:-2587.678711,tb:0.000767797562
$newmeas,x:-10055321.499832,y:21126194.216583,z:13266112.874275,vx:-1268.166870,vy:952.026794,vz:-2587.660156,tb:0.000767797562
$pseudo_cd_ph,prn:30,pseudo_cd_ph:11.216015760733
measnum = 7,full_prange = 23558287.275588
$oldmeas,msRange:78.787917,x:-2689363.221254,y:23471139.104654,z:-11918348.487445,vx:-686.535828,vy:-1398.373657,vz:-2612.843750,tb:-0.000112946365
$newmeas,x:-2689309.272399,y:23471248.990776,z:-11918143.164200,vx:-686.523193,vy:-1398.351685,vz:-2612.863770,tb:-0.000112946364
$GNGGA,073621.490,2944.9075,N,10633.0919,E,1,13,1.0,325.2,M,,,,0000*1E
$GNRMC,073621.490,A,2944.9075,N,10633.0919,E,0.59,0.00,280519,,*1C
$GPGSA,A,3,,,,,,,,,,,,,1.8,1.0,1.5*3E
$BDGSA,A,3,01,02,03,04,07,08,10,12,13,19,22,26,1.8,1.0,1.5*28
$GLGSA,A,3,,,,,,,,,,,,,1.8,1.0,1.5*22
$GPGSV,2,1,08,01,00,000,37,03,00,000,42,06,00,000,44,17,00,000,45*73
$GPGSV,2,2,08,19,00,000,43,22,00,000,41,28,00,000,44,30,00,000,42*74
$BDGSV,3,1,12,01,00,000,41,02,00,000,40,03,00,000,43,04,00,000,39*61
$BDGSV,3,2,12,07,00,000,42,08,00,000,44,10,00,000,43,12,00,000,40*62
$BDGSV,3,3,12,13,00,000,44,19,00,000,42,22,00,000,39,26,00,000,44*69
$B3CN0,0,0,0,0,0,0,0,0,0,0,0,0,0,0*4C
$ini_pos,lastpos_good = 1,ini_pos.x:-1578913.373469,ini_pos.y:5312771.173520,ini_pos.z:3146356.709564
$rtc_local_time,localRTC.weeks:2055,localRTC.seconds:200200.535891,localGtime.weeks:2055,localGtime.seconds:200201.000000
$pseudo_cd_ph,prn:1,pseudo_cd_ph:1.556085282640
measnum = 0,full_prange = 23508794.928424
$oldmeas,msRange:0.000000,x:-15222943.888967,y:258120.447469,z:21611657.356646,vx:-795.805725,vy:-2663.628662,vz:-492.797607,tb:-0.000026896795
$newmeas,x:-15222881.484783,y:258329.321319,z:21611695.998873,vx:-795.794678,vy:-2663.637451,vz:-492.761047,tb:-0.000026896794
$pseudo_cd_ph,prn:3,pseudo_cd_ph:5.918285716664
measnum = 1,full_prange = 22265212.271806
$oldmeas,msRange:74.269428,x:-21002121.199792,y:9134781.563581,z:13338558.080323,vx:986.095032,vy:-1406.863525,vz:2517.139160,tb:0.000187158408
$newmeas,x:-21002194.435477,y:9134886.048782,z:13338371.134749,vx:986.085205,vy:-1406.841919,vz:2517.160400,tb:0.000187158408
$pseudo_cd_ph,prn:6,pseudo_cd_ph:7.502873581992
measnum = 2,full_prange = 21792129.413178
$oldmeas,msRange:72.691246,x:6201334.447671,y:25664769.765627,z:2737817.924123,vx:-328.525299,vy:-254.686462,vz:3185.281982,tb:0.000193711693
$newmeas,x:6201358.328052,y:25664788.278011,z:2737586.383534,vx:-328.515411,vy:-254.660110,vz:3185.286133,tb:0.000193711694
$pseudo_cd_ph,prn:17,pseudo_cd_ph:8.189931479833
measnum = 3,full_prange = 21546690.409755
$oldmeas,msRange:71.872652,x:774336.478287,y:15421055.820422,z:22028954.468539,vx:-2600.736816,vy:-696.946594,vz:581.801575,tb:0.000062073214
$newmeas,x:774523.398209,y:15421105.911760,z:22028912.652119,vx:-2600.728760,vy:-696.957031,vz:581.833984,tb:0.000062073214
$pseudo_cd_ph,prn:19,pseudo_cd_ph:7.248355809545
measnum = 4,full_prange = 21716338.430224
$oldmeas,msRange:72.438465,x:8873766.673898,y:16149229.463864,z:18796228.823514,vx:-2362.897217,vy:-651.772156,vz:1656.258423,tb:-0.000313617577
$newmeas,x:8873937.836590,y:16149276.677080,z:18796108.846540,vx:-2362.879639,vy:-651.777832,vz:1656.288208,tb:-0.000313617577
$pseudo_cd_ph,prn:22,pseudo_cd_ph:0.827233755460
measnum = 5,full_prange = 23523089.503196
$oldmeas,msRange:78.465306,x:-19304762.895885,y:2254199.357831,z:18305066.866437,vx:1267.467407,vy:-1919.532959,vz:1601.425415,tb:-0.000708066753
$newmeas,x:-19304862.347117,y:2254349.972505,z:18304941.210079,vx:1267.465698,vy:-1919.515747,vz:1601.455566,tb:-0.000708066752
$pseudo_cd_ph,prn:28,pseudo_cd_ph:12.057142218537
measnum = 6,full_prange = 20598900.632582
$oldmeas,msRange:68.711161,x:-10056467.291193,y:21127054.408722,z:13263774.564391,vx:-1267.903564,vy:951.904358,vz:-2587.905762,tb:0.000767797566
$newmeas,x:-10056380.172170,y:21126989.002544,z:13263952.380139,vx:-1267.923584,vy:951.913635,vz:-2587.886963,tb:0.000767797565
$pseudo_cd_ph,prn:30,pseudo_cd_ph:1.098086523986
measnum = 7,full_prange = 23620302.486052
$oldmeas,msRange:78.789621,x:-2689936.595650,y:23469971.240606,z:-11920530.354878,vx:-686.669800,vy:-1398.607544,vz:-2612.629639,tb:-0.000112946372
$newmeas,x:-2689882.494228,y:23470081.434415,z:-11920324.508011,vx:-686.657104,vy:-1398.585449,vz:-2612.649658,tb:-0.000112946371
$GNGGA,073623.000,2944.9064,N,10633.0919,E,1,13,1.0,324.7,M,,,,0000*15
$GNRMC,073623.000,A,2944.9064,N,10633.0919,E,0.40,0.00,280519,,*1B
$GPGSA,A,3,,,,,,,,,,,,,1.8,1.0,1.5*3E
$BDGSA,A,3,01,02,03,04,07,08,10,12,13,19,22,26,1.8,1.0,1.5*28
$GLGSA,A,3,,,,,,,,,,,,,1.8,1.0,1.5*22
$GPGSV,3,1,10,01,20,041,37,03,35,076,41,06,42,236,43,17,52,336,45*7F
$GPGSV,3,2,10,19,40,307,43,22,23,055,41,28,79,089,43,30,19,190,41*76
$GPGSV,3,3,10,02,06,232,00,11,11,057,00*7D
$BDGSV,3,1,12,01,40,126,41,02,47,220,40,03,55,171,43,04,23,109,39*6D
$BDGSV,3,2,12,07,54,150,42,08,73,340,42,10,81,201,42,12,34,286,40*62
$BDGSV,3,3,12,13,62,259,43,19,28,105,42,22,15,159,39,26,51,252,43*65
$B3CN0,19,0,0,0,0,0,0,0,0,0,0,0,0,0*74
$ini_pos,lastpos_good = 1,ini_pos.x:-1578913.630877,ini_pos.y:5312771.590368,ini_pos.z:3146354.780142
$rtc_local_time,localRTC.weeks:2055,localRTC.seconds:200201.535891,localGtime.weeks:2055,localGtime.seconds:200202.000000
$pseudo_cd_ph,prn:1,pseudo_cd_ph:1.554596461858
measnum = 0,full_prange = 23509231.599443
$oldmeas,msRange:0.000000,x:-15223739.765206,y:255456.874765,z:21611164.325933,vx:-795.946777,vy:-2663.516846,vz:-493.263855,tb:-0.000026896805
$newmeas,x:-15223677.348801,y:255665.743720,z:21611203.005439,vx:-795.935730,vy:-2663.525635,vz:-493.227295,tb:-0.000026896805
$pseudo_cd_ph,prn:3,pseudo_cd_ph:5.918805514846
measnum = 1,full_prange = 22265046.777393
$oldmeas,msRange:74.269599,x:-21001135.038387,y:9133374.554655,z:13341075.076552,vx:986.227783,vy:-1407.154419,vz:2516.853516,tb:0.000187158406
$newmeas,x:-21001208.283386,y:9133479.060678,z:13340888.153582,vx:986.217957,vy:-1407.132812,vz:2516.874756,tb:0.000187158406
$pseudo_cd_ph,prn:6,pseudo_cd_ph:7.504945704664
measnum = 2,full_prange = 21791498.535264
$oldmeas,msRange:72.689861,x:6201005.854200,y:25664514.897878,z:2741003.176759,vx:-328.661652,vy:-255.049042,vz:3185.223633,tb:0.000193711683
$newmeas,x:6201029.743801,y:25664533.436082,z:2740771.647117,vx:-328.651764,vy:-255.022690,vz:3185.227783,tb:0.000193711683
$pseudo_cd_ph,prn:17,pseudo_cd_ph:8.190951790162
measnum = 3,full_prange = 21546374.863854
$oldmeas,msRange:71.872320,x:771735.684895,y:15420358.946673,z:22029536.044576,vx:-2600.850098,vy:-696.800964,vz:581.350525,tb:0.000062073225
$newmeas,x:771922.610226,y:15420409.026810,z:22029494.261183,vx:-2600.842041,vy:-696.811401,vz:581.382935,tb:0.000062073224
$pseudo_cd_ph,prn:19,pseudo_cd_ph:7.249942932427
measnum = 4,full_prange = 21715852.956166
$oldmeas,msRange:72.437572,x:8871403.655930,y:16148577.730489,z:18797884.876471,vx:-2363.138916,vy:-651.694580,vz:1655.847534,tb:-0.000313617576
$newmeas,x:8871574.832308,y:16148624.937030,z:18797764.931941,vx:-2363.121338,vy:-651.700195,vz:1655.877319,tb:-0.000313617576
$pseudo_cd_ph,prn:22,pseudo_cd_ph:0.826829479587
measnum = 5,full_prange = 23523201.031412
$oldmeas,msRange:78.466398,x:-19303495.417702,y:2252279.714866,z:18306668.100137,vx:1267.489014,vy:-1919.753052,vz:1601.041992,tb:-0.000708066757
$newmeas,x:-19303594.871102,y:2252430.347521,z:18306542.473269,vx:1267.487305,vy:-1919.735840,vz:1601.072144,tb:-0.000708066757
$pseudo_cd_ph,prn:28,pseudo_cd_ph:12.057892986756
measnum = 6,full_prange = 20598665.897343
$oldmeas,msRange:68.711101,x:-10057735.049059,y:21128006.245254,z:13261186.522901,vx:-1267.612183,vy:951.768799,vz:-2588.177490,tb:0.000767797570
$newmeas,x:-10057647.951047,y:21127940.849136,z:13261364.355294,vx:-1267.632202,vy:951.778076,vz:-2588.158691,tb:0.000767797569
$pseudo_cd_ph,prn:30,pseudo_cd_ph:1.096692447905
measnum = 7,full_prange = 23620710.754968
$oldmeas,msRange:78.791696,x:-2690623.345610,y:23468572.493112,z:-11923142.856051,vx:-686.830200,vy:-1398.887573,vz:-2612.373047,tb:-0.000112946380
$newmeas,x:-2690569.230612,y:23468682.710884,z:-11922937.025838,vx:-686.817566,vy:-1398.865479,vz:-2612.393311,tb:-0.000112946379
$GNGGA,073624.000,2944.9065,N,10633.0918,E,1,13,1.0,325.0,M,,,,0000*14
$GNRMC,073624.000,A,2944.9065,N,10633.0918,E,0.34,0.00,280519,,*1F
$GPGSA,A,3,,,,,,,,,,,,,1.8,1.0,1.5*3E
$BDGSA,A,3,01,02,03,04,07,08,10,12,13,19,22,26,1.8,1.0,1.5*28
$GLGSA,A,3,,,,,,,,,,,,,1.8,1.0,1.5*22
$GPGSV,3,1,10,01,20,041,38,03,35,076,42,06,42,236,43,17,52,336,45*73
$GPGSV,3,2,10,19,40,307,42,22,23,055,41,28,79,089,43,30,19,190,42*74
$GPGSV,3,3,10,02,06,232,00,11,11,057,00*7D
$BDGSV,3,1,12,01,40,126,42,02,47,220,39,03,55,171,42,04,23,109,39*61
$BDGSV,3,2,12,07,54,150,42,08,73,340,43,10,81,201,42,12,34,286,40*63
$BDGSV,3,3,12,13,62,259,43,19,28,105,42,22,15,159,39,26,51,252,43*65
$B3CN0,0,0,0,0,0,0,0,0,0,0,0,0,0,0*4C
$ini_pos,lastpos_good = 1,ini_pos.x:-1578913.533181,ini_pos.y:5312771.853614,ini_pos.z:3146355.117510
$rtc_local_time,localRTC.weeks:2055,localRTC.seconds:200202.535891,localGtime.weeks:2055,localGtime.seconds:200203.000000
$pseudo_cd_ph,prn:1,pseudo_cd_ph:1.553117739024
measnum = 0,full_prange = 23509665.232728
$oldmeas,msRange:0.000000,x:-15224535.782479,y:252793.413993,z:21610670.828980,vx:-796.087830,vy:-2663.404785,vz:-493.730072,tb:-0.000026896816
$newmeas,x:-15224473.353864,y:253002.278021,z:21610709.545762,vx:-796.076721,vy:-2663.413574,vz:-493.693512,tb:-0.000026896815
$pseudo_cd_ph,prn:3,pseudo_cd_ph:5.919325514390
measnum = 1,full_prange = 22264881.220439
$oldmeas,msRange:74.269768,x:-21000148.744258,y:9131967.254922,z:13343591.787102,vx:986.360474,vy:-1407.445190,vz:2516.567871,tb:0.000187158405
$newmeas,x:-21000221.998568,y:9132071.781766,z:13343404.886740,vx:986.350647,vy:-1407.423584,vz:2516.589111,tb:0.000187158405
$pseudo_cd_ph,prn:6,pseudo_cd_ph:7.507017901916
measnum = 2,full_prange = 21790867.630547
$oldmeas,msRange:72.688477,x:6200677.124350,y:25664259.667562,z:2744188.370967,vx:-328.798065,vy:-255.411606,vz:3185.165039,tb:0.000193711672
$newmeas,x:6200701.023174,y:25664278.231582,z:2743956.852278,vx:-328.788147,vy:-255.385254,vz:3185.169434,tb:0.000193711673
$pseudo_cd_ph,prn:17,pseudo_cd_ph:8.191972838819
measnum = 3,full_prange = 21546059.094590
$oldmeas,msRange:71.871981,x:769134.778185,y:15419662.218579,z:22030117.169581,vx:-2600.963379,vy:-696.655273,vz:580.899475,tb:0.000062073236
$newmeas,x:769321.708919,y:15419712.287513,z:22030075.419217,vx:-2600.955322,vy:-696.665771,vz:580.931946,tb:0.000062073235
$pseudo_cd_ph,prn:19,pseudo_cd_ph:7.251527564383
measnum = 4,full_prange = 21715368.223672
$oldmeas,msRange:72.436674,x:8869040.396219,y:16147926.074724,z:18799540.518546,vx:-2363.380615,vy:-651.616943,vz:1655.436646,tb:-0.000313617574
$newmeas,x:8869211.586285,y:16147973.274588,z:18799420.606457,vx:-2363.363037,vy:-651.622620,vz:1655.466431,tb:-0.000313617574
$pseudo_cd_ph,prn:22,pseudo_cd_ph:0.826422653124
measnum = 5,full_prange = 23523313.327996
$oldmeas,msRange:78.467487,x:-19302227.917908,y:2250359.851859,z:18308268.950399,vx:1267.510620,vy:-1919.973022,vz:1600.658569,tb:-0.000708066761
$newmeas,x:-19302327.373477,y:2250510.502498,z:18308143.353019,vx:1267.508911,vy:-1919.955811,vz:1600.688721,tb:-0.000708066761
$pseudo_cd_ph,prn:28,pseudo_cd_ph:12.058639392126
measnum = 6,full_prange = 20598432.466542
$oldmeas,msRange:68.711039,x:-10059002.515559,y:21128957.946181,z:13258598.209696,vx:-1267.320801,vy:951.633118,vz:-2588.449219,tb:0.000767797573
$newmeas,x:-10058915.438554,y:21128892.560123,z:13258776.058741,vx:-1267.340820,vy:951.642456,vz:-2588.430420,tb:0.000767797573
$pseudo_cd_ph,prn:30,pseudo_cd_ph:1.095298662680
measnum = 7,full_prange = 23621118.934538
$oldmeas,msRange:78.793777,x:-2691310.256007,y:23467173.465669,z:-11925755.100655,vx:-686.990662,vy:-1399.167480,vz:-2612.116455,tb:-0.000112946388
$newmeas,x:-2691256.127432,y:23467283.707402,z:-11925549.287103,vx:-686.978027,vy:-1399.145386,vz:-2612.136719,tb:-0.000112946388
$GNGGA,073625.000,2944.9065,N,10633.0918,E,1,13,1.0,325.4,M,,,,0000*11
$GNRMC,073625.000,A,2944.9065,N,10633.0918,E,0.38,0.00,280519,,*12
$GPGSA,A,3,,,,,,,,,,,,,1.8,1.0,1.5*3E
$BDGSA,A,3,01,02,03,04,07,08,10,12,13,19,22,26,1.8,1.0,1.5*28
$GLGSA,A,3,,,,,,,,,,,,,1.8,1.0,1.5*22
$GPGSV,3,1,10,01,20,041,39,03,35,076,42,06,42,236,43,17,52,336,44*73
$GPGSV,3,2,10,19,40,307,43,22,23,055,42,28,79,089,42,30,19,190,42*77
$GPGSV,3,3,10,02,06,232,00,11,11,057,00*7D
$BDGSV,3,1,12,01,40,126,40,02,47,220,40,03,55,171,42,04,23,109,38*6C
$BDGSV,3,2,12,07,54,150,42,08,73,340,43,10,81,201,42,12,34,286,40*63
$BDGSV,3,3,12,13,62,259,44,19,28,105,43,22,15,159,40,26,51,252,43*6D
$B3CN0,19,0,0,0,0,0,0,0,0,0,0,0,0,0*74
$ini_pos,lastpos_good = 1,ini_pos.x:-1578913.579662,ini_pos.y:5312772.179802,ini_pos.z:3146355.268247
$rtc_local_time,localRTC.weeks:2055,localRTC.seconds:200203.535891,localGtime.weeks:2055,localGtime.seconds:200204.000000
$pseudo_cd_ph,prn:1,pseudo_cd_ph:200203921.551638484001
measnum = 0,full_prange = 23510099.035770
$oldmeas,msRange:0.000000,x:-15225331.940758,y:250130.065217,z:21610176.865801,vx:-796.228821,vy:-2663.292725,vz:-494.196320,tb:-0.000026896827
$newmeas,x:-15225269.499934,y:250338.924313,z:21610215.619859,vx:-796.217712,vy:-2663.301514,vz:-494.159729,tb:-0.000026896826
$pseudo_cd_ph,prn:3,pseudo_cd_ph:200203925.919844806194
measnum = 1,full_prange = 22264715.868978
$oldmeas,msRange:74.269937,x:-20999162.317465,y:9130559.664386,z:13346108.211920,vx:986.493164,vy:-1407.735962,vz:2516.281982,tb:0.000187158403
$newmeas,x:-20999235.581082,y:9130664.212050,z:13345921.334169,vx:986.483276,vy:-1407.714355,vz:2516.303223,tb:0.000187158403
$pseudo_cd_ph,prn:6,pseudo_cd_ph:200203927.509085863829
measnum = 2,full_prange = 21790238.003465
$oldmeas,msRange:72.687093,x:6200348.258074,y:25664004.074702,z:2747373.506680,vx:-328.934509,vy:-255.774139,vz:3185.106445,tb:0.000193711662
$newmeas,x:6200372.166125,y:25664022.664536,z:2747141.998934,vx:-328.924591,vy:-255.747787,vz:3185.110840,tb:0.000193711663
$pseudo_cd_ph,prn:17,pseudo_cd_ph:200203928.192994207144
measnum = 3,full_prange = 21545743.235981
$oldmeas,msRange:71.871643,x:766533.758220,y:15418965.636167,z:22030697.843544,vx:-2601.076660,vy:-696.509583,vz:580.448486,tb:0.000062073246
$newmeas,x:766720.694351,y:15419015.693896,z:22030656.126208,vx:-2601.068604,vy:-696.520081,vz:580.480896,tb:0.000062073245
$pseudo_cd_ph,prn:19,pseudo_cd_ph:200203927.253112047911
measnum = 4,full_prange = 21714883.544784
$oldmeas,msRange:72.435776,x:8866676.894816,y:16147274.496614,z:18801195.749703,vx:-2363.622314,vy:-651.539307,vz:1655.025757,tb:-0.000313617572
$newmeas,x:8866848.098566,y:16147321.689799,z:18801075.870055,vx:-2363.604736,vy:-651.544922,vz:1655.055542,tb:-0.000313617573
$pseudo_cd_ph,prn:22,pseudo_cd_ph:200203920.826017171144
measnum = 5,full_prange = 23523425.222527
$oldmeas,msRange:78.468577,x:-19300960.396557,y:2248439.768837,z:18309869.417192,vx:1267.532104,vy:-1920.193115,vz:1600.275146,tb:-0.000708066766
$newmeas,x:-19301059.854289,y:2248590.437455,z:18309743.849305,vx:1267.530518,vy:-1920.175781,vz:1600.305176,tb:-0.000708066765
$pseudo_cd_ph,prn:28,pseudo_cd_ph:200203932.059387356043
measnum = 6,full_prange = 20598198.562212
$oldmeas,msRange:68.710977,x:-10060269.690694,y:21129909.511443,z:13256009.624826,vx:-1267.029541,vy:951.497437,vz:-2588.720703,tb:0.000767797577
$newmeas,x:-10060182.634698,y:21129844.135451,z:13256187.490516,vx:-1267.049561,vy:951.506775,vz:-2588.702148,tb:0.000767797577
$pseudo_cd_ph,prn:30,pseudo_cd_ph:200203921.093904793262
measnum = 7,full_prange = 23621527.131978
$oldmeas,msRange:78.795857,x:-2691997.326873,y:23465774.158323,z:-11928367.088634,vx:-687.151123,vy:-1399.447266,vz:-2611.859619,tb:-0.000112946397
$newmeas,x:-2691943.184718,y:23465884.424014,z:-11928161.291748,vx:-687.138489,vy:-1399.425293,vz:-2611.879883,tb:-0.000112946396
$GNGGA,073626.000,2944.9069,N,10633.0917,E,1,21,99.0,326.2,M,,,,0000*24
$GNRMC,073626.000,A,2944.9069,N,10633.0917,E,0.54,0.00,280519,,*18
$GPGSA,A,3,01,03,06,17,19,22,28,30,,,,,99.0,99.0,99.0*01
$BDGSA,A,3,01,02,03,04,07,08,10,12,13,19,22,26,99.0,99.0,99.0*14
$GLGSA,A,3,,,,,,,,,,,,,99.0,99.0,99.0*1E
$GPGSV,3,1,10,01,20,041,39,03,35,076,41,06,42,236,43,17,52,336,45*71
$GPGSV,3,2,10,19,40,307,43,22,23,055,41,28,79,089,43,30,19,190,42*75
$GPGSV,3,3,10,02,06,232,00,11,11,057,00*7D
$BDGSV,3,1,12,01,40,126,41,02,47,220,40,03,55,171,42,04,23,109,39*6C
$BDGSV,3,2,12,07,54,150,42,08,73,340,43,10,81,201,42,12,34,286,40*63
$BDGSV,3,3,12,13,62,259,43,19,28,105,43,22,15,159,39,26,51,252,43*64
$B3CN0,0,0,0,0,0,0,27,0,0,0,0,0,0,0*79
$ini_pos,lastpos_good = 1,ini_pos.x:-1578913.470033,ini_pos.y:5312772.571583,ini_pos.z:3146356.353537
$rtc_local_time,localRTC.weeks:2055,localRTC.seconds:200204.535891,localGtime.weeks:2055,localGtime.seconds:200205.000000
$pseudo_cd_ph,prn:1,pseudo_cd_ph:200204921.550159871578
measnum = 0,full_prange = 23510532.642252
$oldmeas,msRange:0.000000,x:-15226128.240014,y:247466.828499,z:21609682.436407,vx:-796.369751,vy:-2663.180664,vz:-494.662506,tb:-0.000026896838
$newmeas,x:-15226065.786985,y:247675.682657,z:21609721.227741,vx:-796.358704,vy:-2663.189453,vz:-494.625946,tb:-0.000026896837
$pseudo_cd_ph,prn:3,pseudo_cd_ph:200204925.920363187790
measnum = 1,full_prange = 22264550.794487
$oldmeas,msRange:74.270105,x:-20998175.758066,y:9129151.783050,z:13348624.350951,vx:986.625732,vy:-1408.026733,vz:2515.996094,tb:0.000187158402
$newmeas,x:-20998249.030986,y:9129256.351536,z:13348437.495812,vx:986.615845,vy:-1408.005127,vz:2516.017334,tb:0.000187158402
$pseudo_cd_ph,prn:6,pseudo_cd_ph:200204927.511156022549
measnum = 2,full_prange = 21789607.715229
$oldmeas,msRange:72.685709,x:6200019.255324,y:25663748.119323,z:2750558.583830,vx:-329.071014,vy:-256.136627,vz:3185.047852,tb:0.000193711651
$newmeas,x:6200043.172604,y:25663766.734967,z:2750327.087040,vx:-329.061096,vy:-256.110291,vz:3185.052246,tb:0.000193711652
$pseudo_cd_ph,prn:17,pseudo_cd_ph:200204928.194017440081
measnum = 3,full_prange = 21545426.814498
$oldmeas,msRange:71.871302,x:763932.625059,y:15418269.199464,z:22031278.066453,vx:-2601.189941,vy:-696.363892,vz:579.997375,tb:0.000062073257
$newmeas,x:764119.566578,y:15418319.245985,z:22031236.382146,vx:-2601.181641,vy:-696.374329,vz:580.029785,tb:0.000062073256
$pseudo_cd_ph,prn:19,pseudo_cd_ph:200204927.254694789648
measnum = 4,full_prange = 21714399.384099
$oldmeas,msRange:72.434876,x:8864313.151771,y:16146622.996205,z:18802850.569903,vx:-2363.864014,vy:-651.461548,vz:1654.614746,tb:-0.000313617571
$newmeas,x:8864484.369205,y:16146670.182708,z:18802730.722696,vx:-2363.846436,vy:-651.467224,vz:1654.644531,tb:-0.000313617571
$pseudo_cd_ph,prn:22,pseudo_cd_ph:200204920.825614869595
measnum = 5,full_prange = 23523536.161065
$oldmeas,msRange:78.469665,x:-19299692.853701,y:2246519.465826,z:18311469.500481,vx:1267.553589,vy:-1920.413086,vz:1599.891602,tb:-0.000708066770
$newmeas,x:-19299792.313588,y:2246670.152416,z:18311343.962095,vx:1267.552002,vy:-1920.395752,vz:1599.921631,tb:-0.000708066769
$pseudo_cd_ph,prn:28,pseudo_cd_ph:200204932.060135543346
measnum = 6,full_prange = 20597964.595341
$oldmeas,msRange:68.710914,x:-10061536.574463,y:21130860.940981,z:13253420.768345,vx:-1266.738159,vy:951.361694,vz:-2588.992432,tb:0.000767797581
$newmeas,x:-10061449.539474,y:21130795.575059,z:13253598.650674,vx:-1266.758179,vy:951.371033,vz:-2588.973633,tb:0.000767797581
$pseudo_cd_ph,prn:30,pseudo_cd_ph:200204921.092510879040
measnum = 7,full_prange = 23621935.347287
$oldmeas,msRange:78.797939,x:-2692684.558236,y:23464374.571122,z:-11930978.819933,vx:-687.311646,vy:-1399.727173,vz:-2611.603027,tb:-0.000112946405
$newmeas,x:-2692630.402498,y:23464484.860768,z:-11930773.039717,vx:-687.299011,vy:-1399.705078,vz:-2611.623291,tb:-0.000112946405
$GNGGA,073627.000,2944.9078,N,10633.0922,E,1,21,0.6,327.8,M,,,,0000*1E
$GNRMC,073627.000,A,2944.9078,N,10633.0922,E,0.34,0.00,280519,,*19
$GPGSA,A,3,01,03,06,17,19,22,28,30,,,,,0.7,0.6,0.4*34
$BDGSA,A,3,01,02,03,04,07,08,10,12,13,19,22,26,0.7,0.6,0.4*21
$GLGSA,A,3,,,,,,,,,,,,,0.7,0.6,0.4*2B
$GPGSV,3,1,10,01,20,041,38,03,35,076,42,06,42,236,43,17,52,336,44*72
$GPGSV,3,2,10,19,40,307,42,22,23,055,42,28,79,089,43,30,19,190,42*77
$GPGSV,3,3,10,02,06,232,00,11,11,057,00*7D
$BDGSV,3,1,12,01,40,126,40,02,47,220,40,03,55,171,42,04,23,109,39*6D
$BDGSV,3,2,12,07,54,150,42,08,73,340,43,10,81,201,42,12,34,286,40*63
$BDGSV,3,3,12,13,62,259,43,19,28,105,42,22,15,159,39,26,51,252,44*62
$B3CN0,0,0,0,0,0,0,26,0,0,0,0,0,0,0*78
$ini_pos,lastpos_good = 1,ini_pos.x:-1578914.430081,ini_pos.y:5312772.838127,ini_pos.z:3146358.582163
$rtc_local_time,localRTC.weeks:2055,localRTC.seconds:200205.535891,localGtime.weeks:2055,localGtime.seconds:200206.000000
$pseudo_cd_ph,prn:1,pseudo_cd_ph:200205921.548684865236
measnum = 0,full_prange = 23510965.167658
$oldmeas,msRange:0.000000,x:-15226924.680221,y:244803.703905,z:21609187.540811,vx:-796.510681,vy:-2663.068604,vz:-495.128723,tb:-0.000026896848
$newmeas,x:-15226862.214989,y:245012.553110,z:21609226.369420,vx:-796.499634,vy:-2663.077393,vz:-495.092163,tb:-0.000026896848
$pseudo_cd_ph,prn:3,pseudo_cd_ph:200205925.920884907246
measnum = 1,full_prange = 22264384.719331
$oldmeas,msRange:74.270269,x:-20997189.066118,y:9127743.610918,z:13351140.204143,vx:986.758240,vy:-1408.317627,vz:2515.710449,tb:0.000187158400
$newmeas,x:-20997262.348333,y:9127848.200219,z:13350953.371627,vx:986.748413,vy:-1408.296021,vz:2515.731445,tb:0.000187158400
$pseudo_cd_ph,prn:6,pseudo_cd_ph:200205927.513231545687
measnum = 2,full_prange = 21788975.818782
$oldmeas,msRange:72.684326,x:6199690.116052,y:25663491.801449,z:2753743.602349,vx:-329.207550,vy:-256.499115,vz:3184.989258,tb:0.000193711641
$newmeas,x:6199714.042563,y:25663510.442899,z:2753512.116536,vx:-329.197632,vy:-256.472778,vz:3184.993652,tb:0.000193711642
$pseudo_cd_ph,prn:17,pseudo_cd_ph:200205928.195045381784
measnum = 3,full_prange = 21545108.981363
$oldmeas,msRange:71.870958,x:761331.378764,y:15417572.908498,z:22031857.838295,vx:-2601.302979,vy:-696.218140,vz:579.546326,tb:0.000062073267
$newmeas,x:761518.325653,y:15417622.943806,z:22031816.187020,vx:-2601.294922,vy:-696.228577,vz:579.578735,tb:0.000062073267
$pseudo_cd_ph,prn:19,pseudo_cd_ph:200205927.256282955408
measnum = 4,full_prange = 21713913.597332
$oldmeas,msRange:72.433975,x:8861949.167134,y:16145971.573542,z:18804504.979112,vx:-2364.105469,vy:-651.383789,vz:1654.203735,tb:-0.000313617569
$newmeas,x:8862120.398235,y:16146018.753357,z:18804385.164354,vx:-2364.087891,vy:-651.389404,vz:1654.233521,tb:-0.000313617569
$pseudo_cd_ph,prn:22,pseudo_cd_ph:200205920.825215637684
measnum = 5,full_prange = 23523646.179349
$oldmeas,msRange:78.470748,x:-19298425.289393,y:2244598.942855,z:18313069.200235,vx:1267.575073,vy:-1920.633057,vz:1599.508057,tb:-0.000708066774
$newmeas,x:-19298524.751427,y:2244749.647407,z:18312943.691357,vx:1267.573364,vy:-1920.615723,vz:1599.538086,tb:-0.000708066774
$pseudo_cd_ph,prn:28,pseudo_cd_ph:200205932.060886651278
measnum = 6,full_prange = 20597729.752887
$oldmeas,msRange:68.710848,x:-10062803.166866,y:21131812.234736,z:13250831.640302,vx:-1266.446777,vy:951.225891,vz:-2589.263916,tb:0.000767797585
$newmeas,x:-10062716.152888,y:21131746.878891,z:13251009.539259,vx:-1266.466797,vy:951.235229,vz:-2589.245117,tb:0.000767797585
$pseudo_cd_ph,prn:30,pseudo_cd_ph:200205921.091120839119
measnum = 7,full_prange = 23622342.401109
$oldmeas,msRange:78.800023,x:-2693371.950127,y:23462974.704112,z:-11933590.294495,vx:-687.472168,vy:-1400.006958,vz:-2611.346191,tb:-0.000112946414
$newmeas,x:-2693317.780806,y:23463085.017704,z:-11933384.530965,vx:-687.459534,vy:-1399.984863,vz:-2611.366455,tb:-0.000112946413
$GNGGA,073628.000,2944.9082,N,10633.0924,E,1,21,0.6,328.3,M,,,,0000*16
$GNRMC,073628.000,A,2944.9082,N,10633.0924,E,0.21,0.00,280519,,*11
$GPGSA,A,3,01,03,06,17,19,22,28,30,,,,,0.7,0.6,0.4*34
$BDGSA,A,3,01,02,03,04,07,08,10,12,13,19,22,26,0.7,0.6,0.4*21
$GLGSA,A,3,,,,,,,,,,,,,0.7,0.6,0.4*2B
$GPGSV,3,1,10,01,20,041,39,03,35,076,41,06,42,236,43,17,52,336,45*71
$GPGSV,3,2,10,19,40,307,43,22,23,055,42,28,79,089,42,30,19,190,42*77
$GPGSV,3,3,10,02,06,232,00,11,11,057,00*7D
$BDGSV,3,1,12,01,40,126,41,02,47,220,40,03,55,171,42,04,23,109,40*62
$BDGSV,3,2,12,07,54,150,42,08,73,340,42,10,81,201,42,12,34,286,40*62
$BDGSV,3,3,12,13,62,259,44,19,28,105,42,22,15,159,39,26,51,252,44*65
$B3CN0,0,0,0,0,0,0,27,0,0,0,0,0,0,0*79
$ini_pos,lastpos_good = 1,ini_pos.x:-1578914.745360,ini_pos.y:5312772.831601,ini_pos.z:3146359.408733
$rtc_local_time,localRTC.weeks:2055,localRTC.seconds:200206.535891,localGtime.weeks:2055,localGtime.seconds:200207.000000
$pseudo_cd_ph,prn:1,pseudo_cd_ph:200206921.547211021185
measnum = 0,full_prange = 23511397.344619
$oldmeas,msRange:0.000000,x:-15227721.261349,y:242140.691498,z:21608692.179024,vx:-796.651611,vy:-2662.956299,vz:-495.594879,tb:-0.000026896859
$newmeas,x:-15227658.783918,y:242349.535741,z:21608731.044908,vx:-796.640564,vy:-2662.965088,vz:-495.558319,tb:-0.000026896858
$pseudo_cd_ph,prn:3,pseudo_cd_ph:200206925.921406507492
measnum = 1,full_prange = 22264218.679913
$oldmeas,msRange:74.270438,x:-20996202.241681,y:9126335.147992,z:13353655.771441,vx:986.890686,vy:-1408.608398,vz:2515.424316,tb:0.000187158399
$newmeas,x:-20996275.533187,y:9126439.758109,z:13353468.961552,vx:986.880859,vy:-1408.586792,vz:2515.445557,tb:0.000187158399
$pseudo_cd_ph,prn:6,pseudo_cd_ph:200206927.515309184790
measnum = 2,full_prange = 21788343.287983
$oldmeas,msRange:72.682944,x:6199360.840211,y:25663235.121104,z:2756928.562170,vx:-329.344147,vy:-256.861572,vz:3184.930664,tb:0.000193711631
$newmeas,x:6199384.775954,y:25663253.788356,z:2756697.087345,vx:-329.334229,vy:-256.835236,vz:3184.934814,tb:0.000193711631
$pseudo_cd_ph,prn:17,pseudo_cd_ph:200206928.196075171232
measnum = 3,full_prange = 21544790.594287
$oldmeas,msRange:71.870619,x:758730.019394,y:15416876.763294,z:22032437.159059,vx:-2601.416016,vy:-696.072327,vz:579.095215,tb:0.000062073278
$newmeas,x:758916.971645,y:15416926.787387,z:22032395.540818,vx:-2601.407959,vy:-696.082825,vz:579.127686,tb:0.000062073277
$pseudo_cd_ph,prn:19,pseudo_cd_ph:200206927.257872492075
measnum = 4,full_prange = 21713427.399578
$oldmeas,msRange:72.433076,x:8859584.940956,y:16145320.228671,z:18806158.977291,vx:-2364.346924,vy:-651.305969,vz:1653.792725,tb:-0.000313617567
$newmeas,x:8859756.185715,y:16145367.401794,z:18806039.194987,vx:-2364.329590,vy:-651.311646,vz:1653.822510,tb:-0.000313617568
$pseudo_cd_ph,prn:22,pseudo_cd_ph:200206920.824818819761
measnum = 5,full_prange = 23523755.473937
$oldmeas,msRange:78.471837,x:-19297157.703687,y:2242678.199949,z:18314668.516420,vx:1267.596436,vy:-1920.852905,vz:1599.124390,tb:-0.000708066778
$newmeas,x:-19297257.167859,y:2242828.922459,z:18314543.037058,vx:1267.594727,vy:-1920.835693,vz:1599.154541,tb:-0.000708066778
$pseudo_cd_ph,prn:28,pseudo_cd_ph:200206932.061638772488
measnum = 6,full_prange = 20597494.606659
$oldmeas,msRange:68.710786,x:-10064069.467900,y:21132763.392648,z:13248242.240750,vx:-1266.155396,vy:951.090027,vz:-2589.535400,tb:0.000767797589
$newmeas,x:-10063982.474935,y:21132698.046884,z:13248420.156329,vx:-1266.175415,vy:951.099365,vz:-2589.516602,tb:0.000767797589
$pseudo_cd_ph,prn:30,pseudo_cd_ph:200206921.089735537767
measnum = 7,full_prange = 23622748.034344
$oldmeas,msRange:78.802105,x:-2694059.502575,y:23461574.557338,z:-11936201.512264,vx:-687.632751,vy:-1400.286743,vz:-2611.089355,tb:-0.000112946422
$newmeas,x:-2694005.319671,y:23461684.894868,z:-11935995.765437,vx:-687.620117,vy:-1400.264648,vz:-2611.109619,tb:-0.000112946421
$GNGGA,073629.000,2944.9083,N,10633.0925,E,1,21,0.6,329.0,M,,,,0000*15
$GNRMC,073629.000,A,2944.9083,N,10633.0925,E,0.03,0.00,280519,,*10
$GPGSA,A,3,01,03,06,17,19,22,28,30,,,,,0.7,0.6,0.4*34
$BDGSA,A,3,01,02,03,04,07,08,10,12,13,19,22,26,0.7,0.6,0.4*21
$GLGSA,A,3,,,,,,,,,,,,,0.7,0.6,0.4*2B
$GPGSV,3,1,10,01,20,041,39,03,35,076,42,06,42,236,44,17,52,336,45*75
$GPGSV,3,2,10,19,40,307,43,22,23,055,42,28,79,089,43,30,19,190,42*76
$GPGSV,3,3,10,02,06,232,00,11,11,057,00*7D
$BDGSV,3,1,12,01,40,126,42,02,47,220,38,03,55,171,42,04,23,109,40*6E
$BDGSV,3,2,12,07,54,150,42,08,73,340,43,10,81,201,43,12,34,286,40*62
$BDGSV,3,3,12,13,62,259,44,19,28,105,43,22,15,159,39,26,51,252,44*64
$B3CN0,0,0,0,0,0,0,26,0,0,0,0,0,0,0*78
$ini_pos,lastpos_good = 1,ini_pos.x:-1578915.126225,ini_pos.y:5312773.288485,ini_pos.z:3146359.931867
$rtc_local_time,localRTC.weeks:2055,localRTC.seconds:200207.535891,localGtime.weeks:2055,localGtime.seconds:200208.000000
$pseudo_cd_ph,prn:1,pseudo_cd_ph:200207921.545743852854
measnum = 0,full_prange = 23511827.511315
$oldmeas,msRange:0.000000,x:-15228517.983369,y:239477.791341,z:21608196.351060,vx:-796.792480,vy:-2662.843994,vz:-496.061066,tb:-0.000026896870
$newmeas,x:-15228455.493747,y:239686.630600,z:21608235.254215,vx:-796.781433,vy:-2662.852783,vz:-496.024506,tb:-0.000026896869
$pseudo_cd_ph,prn:3,pseudo_cd_ph:200207925.921930760145
measnum = 1,full_prange = 22264051.836390
$oldmeas,msRange:74.270607,x:-20995215.284813,y:9124926.394276,z:13356171.052790,vx:987.023071,vy:-1408.899170,vz:2515.138428,tb:0.000187158397
$newmeas,x:-20995288.585603,y:9125031.025205,z:13355984.265540,vx:987.013245,vy:-1408.877563,vz:2515.159668,tb:0.000187158397
$pseudo_cd_ph,prn:6,pseudo_cd_ph:200207927.517386734486
measnum = 2,full_prange = 21787710.775054
$oldmeas,msRange:72.681561,x:6199031.427754,y:25662978.078314,z:2760113.463224,vx:-329.480804,vy:-257.223999,vz:3184.871826,tb:0.000193711620
$newmeas,x:6199055.372732,y:25662996.771364,z:2759881.999392,vx:-329.470856,vy:-257.197662,vz:3184.875977,tb:0.000193711621
$pseudo_cd_ph,prn:17,pseudo_cd_ph:200207928.197106182575
measnum = 3,full_prange = 21544471.831962
$oldmeas,msRange:71.870280,x:756128.547011,y:15416180.763881,z:22033016.028733,vx:-2601.529053,vy:-695.926514,vz:578.644165,tb:0.000062073289
$newmeas,x:756315.504616,y:15416230.776755,z:22032974.443526,vx:-2601.520752,vy:-695.937012,vz:578.676575,tb:0.000062073288
$pseudo_cd_ph,prn:19,pseudo_cd_ph:200207927.259463697672
measnum = 4,full_prange = 21712940.692557
$oldmeas,msRange:72.432178,x:8857220.473286,y:16144668.961637,z:18807812.564404,vx:-2364.588379,vy:-651.228149,vz:1653.381592,tb:-0.000313617566
$newmeas,x:8857391.731696,y:16144716.128064,z:18807692.814559,vx:-2364.571045,vy:-651.233765,vz:1653.411377,tb:-0.000313617566
$pseudo_cd_ph,prn:22,pseudo_cd_ph:200207920.824423074722
measnum = 5,full_prange = 23523864.437949
$oldmeas,msRange:78.472926,x:-19295890.096634,y:2240757.237136,z:18316267.449005,vx:1267.617798,vy:-1921.072876,vz:1598.740845,tb:-0.000708066783
$newmeas,x:-19295989.562940,y:2240907.977598,z:18316141.999163,vx:1267.616089,vy:-1921.055542,vz:1598.770874,tb:-0.000708066782
$pseudo_cd_ph,prn:28,pseudo_cd_ph:200207932.062391102314
measnum = 6,full_prange = 20597259.388955
$oldmeas,msRange:68.710724,x:-10065335.477567,y:21133714.414657,z:13245652.569739,vx:-1265.864014,vy:950.954041,vz:-2589.806885,tb:0.000767797593
$newmeas,x:-10065248.505613,y:21133649.078978,z:13245830.501935,vx:-1265.884033,vy:950.963440,vz:-2589.788086,tb:0.000767797593
$pseudo_cd_ph,prn:30,pseudo_cd_ph:200207921.088348358870
measnum = 7,full_prange = 23623154.221519
$oldmeas,msRange:78.804186,x:-2694747.215610,y:23460174.130848,z:-11938812.473184,vx:-687.793335,vy:-1400.566406,vz:-2610.832520,tb:-0.000112946430
$newmeas,x:-2694693.019120,y:23460284.492314,z:-11938606.743060,vx:-687.780701,vy:-1400.544312,vz:-2610.852783,tb:-0.000112946430
$GNGGA,073630.000,2944.9083,N,10633.0926,E,1,21,0.6,329.4,M,,,,0000*1A
$GNRMC,073630.000,A,2944.9083,N,10633.0926,E,0.18,0.00,280519,,*11
$GPGSA,A,3,01,03,06,17,19,22,28,30,,,,,0.7,0.6,0.4*34
$BDGSA,A,3,01,02,03,04,07,08,10,12,13,19,22,26,0.7,0.6,0.4*21
$GLGSA,A,3,,,,,,,,,,,,,0.7,0.6,0.4*2B
$GPGSV,3,1,10,01,20,041,39,03,35,076,42,06,42,236,44,17,52,336,45*75
$GPGSV,3,2,10,19,40,307,43,22,23,055,41,28,79,089,43,30,19,190,42*75
$GPGSV,3,3,10,02,06,232,00,11,11,057,00*7D
$BDGSV,3,1,12,01,40,126,40,02,47,220,41,03,55,171,43,04,23,109,39*6D
$BDGSV,3,2,12,07,54,150,42,08,73,340,43,10,81,201,43,12,34,286,40*62
$BDGSV,3,3,12,13,62,259,43,19,28,105,43,22,15,159,39,26,51,252,44*63
$B3CN0,18,0,0,0,0,0,26,0,0,0,0,0,0,0*41
$ini_pos,lastpos_good = 1,ini_pos.x:-1578915.311316,ini_pos.y:5312773.592405,ini_pos.z:3146360.171206
$rtc_local_time,localRTC.weeks:2055,localRTC.seconds:200208.535891,localGtime.weeks:2055,localGtime.seconds:200209.000000
$pseudo_cd_ph,prn:1,pseudo_cd_ph:200208921.544274777174
measnum = 0,full_prange = 23512258.258754
$oldmeas,msRange:0.000000,x:-15229314.846255,y:236815.003500,z:21607700.056930,vx:-796.933350,vy:-2662.731689,vz:-496.527222,tb:-0.000026896881
$newmeas,x:-15229252.344441,y:237023.837773,z:21607738.997357,vx:-796.922302,vy:-2662.740479,vz:-496.490662,tb:-0.000026896880
$pseudo_cd_ph,prn:3,pseudo_cd_ph:200208925.922450453043
measnum = 1,full_prange = 22263886.368780
$oldmeas,msRange:74.270777,x:-20994228.195572,y:9123517.349773,z:13358686.048139,vx:987.155457,vy:-1409.189941,vz:2514.852295,tb:0.000187158396
$newmeas,x:-20994301.505645,y:9123622.001520,z:13358499.283518,vx:987.145630,vy:-1409.168335,vz:2514.873535,tb:0.000187158396
$pseudo_cd_ph,prn:6,pseudo_cd_ph:200208927.519458204508
measnum = 2,full_prange = 21787080.093700
$oldmeas,msRange:72.680179,x:6198701.878632,y:25662720.673101,z:2763298.305444,vx:-329.617493,vy:-257.586426,vz:3184.812988,tb:0.000193711610
$newmeas,x:6198725.832851,y:25662739.391948,z:2763066.852590,vx:-329.607544,vy:-257.560089,vz:3184.817139,tb:0.000193711610
$pseudo_cd_ph,prn:17,pseudo_cd_ph:200208928.198132753372
measnum = 3,full_prange = 21544154.409814
$oldmeas,msRange:71.869942,x:753526.961676,y:15415484.910286,z:22033594.447306,vx:-2601.641846,vy:-695.780701,vz:578.193054,tb:0.000062073299
$newmeas,x:753713.924641,y:15415534.911943,z:22033552.895129,vx:-2601.633789,vy:-695.791199,vz:578.225464,tb:0.000062073298
$pseudo_cd_ph,prn:19,pseudo_cd_ph:200208927.261052221060
measnum = 4,full_prange = 21712454.798576
$oldmeas,msRange:72.431281,x:8854855.764175,y:16144017.772486,z:18809465.740414,vx:-2364.829834,vy:-651.150208,vz:1652.970459,tb:-0.000313617564
$newmeas,x:8855027.036237,y:16144064.932215,z:18809346.023024,vx:-2364.812500,vy:-651.155884,vz:1653.000244,tb:-0.000313617564
$pseudo_cd_ph,prn:22,pseudo_cd_ph:200208920.824021160603
measnum = 5,full_prange = 23523975.260339
$oldmeas,msRange:78.474016,x:-19294622.468288,y:2238836.054443,z:18317865.997956,vx:1267.639038,vy:-1921.292725,vz:1598.357178,tb:-0.000708066787
$newmeas,x:-19294721.936732,y:2238986.812868,z:18317740.577627,vx:1267.637329,vy:-1921.275391,vz:1598.387329,tb:-0.000708066787
$pseudo_cd_ph,prn:28,pseudo_cd_ph:200208932.063140690327
measnum = 6,full_prange = 20597025.002160
$oldmeas,msRange:68.710663,x:-10066601.195865,y:21134665.300704,z:13243062.627321,vx:-1265.572632,vy:950.818054,vz:-2590.078125,tb:0.000767797597
$newmeas,x:-10066514.244919,y:21134599.975111,z:13243240.576138,vx:-1265.592651,vy:950.827393,vz:-2590.059570,tb:0.000767797597
$pseudo_cd_ph,prn:30,pseudo_cd_ph:200208921.086960315704
measnum = 7,full_prange = 23623560.676729
$oldmeas,msRange:78.806266,x:-2695435.089262,y:23458773.424688,z:-11941423.177199,vx:-687.953979,vy:-1400.846069,vz:-2610.575684,tb:-0.000112946439
$newmeas,x:-2695380.879182,y:23458883.810090,z:-11941217.463782,vx:-687.941345,vy:-1400.823975,vz:-2610.595947,tb:-0.000112946438
$GNGGA,073631.000,2944.9084,N,10633.0926,E,1,21,0.6,329.6,M,,,,0000*1E
$GNRMC,073631.000,A,2944.9084,N,10633.0926,E,0.17,0.00,280519,,*18
$GPGSA,A,3,01,03,06,17,19,22,28,30,,,,,0.7,0.6,0.4*34
$BDGSA,A,3,01,02,03,04,07,08,10,12,13,19,22,26,0.7,0.6,0.4*21
$GLGSA,A,3,,,,,,,,,,,,,0.7,0.6,0.4*2B
$GPGSV,3,1,10,01,20,041,39,03,35,076,42,06,42,236,43,17,52,336,45*72
$GPGSV,3,2,10,19,40,307,43,22,23,055,42,28,79,089,43,30,19,190,42*76
$GPGSV,3,3,10,02,06,232,00,11,11,057,00*7D
$BDGSV,3,1,12,01,40,126,40,02,47,220,39,03,55,171,43,04,23,109,39*62
$BDGSV,3,2,12,07,54,150,43,08,73,340,43,10,81,201,43,12,34,286,40*63
$BDGSV,3,3,12,13,62,259,44,19,28,105,43,22,15,159,39,26,51,252,44*64
$B3CN0,36,0,0,0,0,0,26,0,0,0,0,0,0,0*4D
$ini_pos,lastpos_good = 1,ini_pos.x:-1578915.439847,ini_pos.y:5312773.673128,ini_pos.z:3146360.391136
$rtc_local_time,localRTC.weeks:2055,localRTC.seconds:200209.535891,localGtime.weeks:2055,localGtime.seconds:200210.000000
$pseudo_cd_ph,prn:1,pseudo_cd_ph:200209921.542811661959
measnum = 0,full_prange = 23512687.219290
$oldmeas,msRange:0.000000,x:-15230111.849978,y:234152.328036,z:21607203.296646,vx:-797.074158,vy:-2662.619385,vz:-496.993378,tb:-0.000026896892
$newmeas,x:-15230049.335979,y:234361.157304,z:21607242.274344,vx:-797.063110,vy:-2662.628174,vz:-496.956818,tb:-0.000026896891
$pseudo_cd_ph,prn:3,pseudo_cd_ph:200209925.922974050045
measnum = 1,full_prange = 22263719.730750
$oldmeas,msRange:74.270948,x:-20993240.974016,y:9122108.014487,z:13361200.757432,vx:987.287720,vy:-1409.480713,vz:2514.566406,tb:0.000187158394
$newmeas,x:-20993314.293365,y:9122212.687045,z:13361014.015454,vx:987.277893,vy:-1409.459106,vz:2514.587646,tb:0.000187158394
$pseudo_cd_ph,prn:6,pseudo_cd_ph:200209927.521532058716
measnum = 2,full_prange = 21786448.697585
$oldmeas,msRange:72.678797,x:6198372.192799,y:25662462.905492,z:2766483.088761,vx:-329.754211,vy:-257.948822,vz:3184.753906,tb:0.000193711599
$newmeas,x:6198396.156261,y:25662481.650132,z:2766251.646898,vx:-329.744263,vy:-257.922485,vz:3184.758301,tb:0.000193711600
$pseudo_cd_ph,prn:17,pseudo_cd_ph:200209928.199163228273
measnum = 3,full_prange = 21543835.817244
$oldmeas,msRange:71.869604,x:750925.263448,y:15414789.202535,z:22034172.414766,vx:-2601.754639,vy:-695.634827,vz:577.741943,tb:0.000062073310
$newmeas,x:751112.231759,y:15414839.192972,z:22034130.895622,vx:-2601.746582,vy:-695.645325,vz:577.774353,tb:0.000062073309
$pseudo_cd_ph,prn:19,pseudo_cd_ph:200209927.262642532587
measnum = 4,full_prange = 21711968.368524
$oldmeas,msRange:72.430384,x:8852490.813673,y:16143366.661263,z:18811118.505285,vx:-2365.071289,vy:-651.072266,vz:1652.559326,tb:-0.000313617563
$newmeas,x:8852662.099378,y:16143413.814289,z:18810998.820354,vx:-2365.053711,vy:-651.077942,vz:1652.589111,tb:-0.000313617563
$pseudo_cd_ph,prn:22,pseudo_cd_ph:200209920.823624819517
measnum = 5,full_prange = 23524084.411975
$oldmeas,msRange:78.475107,x:-19293354.818701,y:2236914.651897,z:18319464.163241,vx:1267.660278,vy:-1921.512573,vz:1597.973511,tb:-0.000708066791
$newmeas,x:-19293454.289271,y:2237065.428272,z:18319338.772436,vx:1267.658569,vy:-1921.495239,vz:1598.003540,tb:-0.000708066791
$pseudo_cd_ph,prn:28,pseudo_cd_ph:200209932.063894063234
measnum = 6,full_prange = 20596789.480682
$oldmeas,msRange:68.710603,x:-10067866.622793,y:21135616.050729,z:13240472.413548,vx:-1265.281250,vy:950.682007,vz:-2590.349609,tb:0.000767797601
$newmeas,x:-10067779.692860,y:21135550.735231,z:13240650.378972,vx:-1265.301270,vy:950.691345,vz:-2590.330811,tb:0.000767797601
$pseudo_cd_ph,prn:30,pseudo_cd_ph:200209921.085574090481
measnum = 7,full_prange = 23623966.586934
$oldmeas,msRange:78.808347,x:-2696123.123561,y:23457372.438905,z:-11944033.624253,vx:-688.114624,vy:-1401.125610,vz:-2610.318604,tb:-0.000112946447
$newmeas,x:-2696068.899888,y:23457482.848236,z:-11943827.927552,vx:-688.101990,vy:-1401.103638,vz:-2610.338867,tb:-0.000112946447
$GNGGA,073632.000,2944.9084,N,10633.0927,E,1,21,0.6,330.0,M,,,,0000*12
$GNRMC,073632.000,A,2944.9084,N,10633.0927,E,0.06,0.00,280519,,*1A
$GPGSA,A,3,01,03,06,17,19,22,28,30,,,,,0.7,0.6,0.4*34
$BDGSA,A,3,01,02,03,04,07,08,10,12,13,19,22,26,0.7,0.6,0.4*21
$GLGSA,A,3,,,,,,,,,,,,,0.7,0.6,0.4*2B
$GPGSV,3,1,10,01,20,041,39,03,35,076,42,06,42,236,44,17,52,336,45*75
$GPGSV,3,2,10,19,40,307,43,22,23,055,42,28,79,089,42,30,19,190,42*77
$GPGSV,3,3,10,02,06,232,00,11,11,057,00*7D
$BDGSV,3,1,12,01,40,126,41,02,47,220,40,03,55,171,42,04,23,109,40*62
$BDGSV,3,2,12,07,54,150,42,08,73,340,43,10,81,201,42,12,34,286,41*62
$BDGSV,3,3,12,13,62,259,43,19,28,105,43,22,15,159,39,26,51,252,44*63
$B3CN0,0,0,0,0,0,0,26,0,0,0,0,0,0,0*78
$ini_pos,lastpos_good = 1,ini_pos.x:-1578915.557927,ini_pos.y:5312773.918681,ini_pos.z:3146360.594549
$rtc_local_time,localRTC.weeks:2055,localRTC.seconds:200210.535891,localGtime.weeks:2055,localGtime.seconds:200211.000000
$pseudo_cd_ph,prn:1,pseudo_cd_ph:200210921.541346967220
measnum = 0,full_prange = 23513116.653356
$oldmeas,msRange:0.000000,x:-15230908.994509,y:231489.765015,z:21606706.070221,vx:-797.214966,vy:-2662.506836,vz:-497.459503,tb:-0.000026896902
$newmeas,x:-15230846.468325,y:231698.589276,z:21606745.085191,vx:-797.203918,vy:-2662.515625,vz:-497.422943,tb:-0.000026896901
$pseudo_cd_ph,prn:3,pseudo_cd_ph:200210925.923498839140
measnum = 1,full_prange = 22263552.735340
$oldmeas,msRange:74.271120,x:-20992253.620204,y:9120698.388422,z:13363715.180615,vx:987.419983,vy:-1409.771484,vz:2514.280273,tb:0.000187158393
$newmeas,x:-20992326.948823,y:9120803.081788,z:13363528.461288,vx:987.410156,vy:-1409.749878,vz:2514.301514,tb:0.000187158393
$pseudo_cd_ph,prn:6,pseudo_cd_ph:200210927.523607820272
measnum = 2,full_prange = 21785816.729661
$oldmeas,msRange:72.677415,x:6198042.370207,y:25662204.775509,z:2769667.813108,vx:-329.890991,vy:-258.311157,vz:3184.694824,tb:0.000193711589
$newmeas,x:6198066.342913,y:25662223.545938,z:2769436.382246,vx:-329.881042,vy:-258.284851,vz:3184.699219,tb:0.000193711590
$pseudo_cd_ph,prn:17,pseudo_cd_ph:200210928.200194716454
measnum = 3,full_prange = 21543516.920902
$oldmeas,msRange:71.869266,x:748323.452389,y:15414093.640656,z:22034749.931101,vx:-2601.867432,vy:-695.488953,vz:577.290771,tb:0.000062073320
$newmeas,x:748510.426038,y:15414143.619869,z:22034708.444991,vx:-2601.859375,vy:-695.499451,vz:577.323181,tb:0.000062073320
$pseudo_cd_ph,prn:19,pseudo_cd_ph:200210927.264231443405
measnum = 4,full_prange = 21711482.358394
$oldmeas,msRange:72.429487,x:8850125.621829,y:16142715.628013,z:18812770.858979,vx:-2365.312500,vy:-650.994263,vz:1652.148193,tb:-0.000313617561
$newmeas,x:8850296.921177,y:16142762.774336,z:18812651.206507,vx:-2365.295166,vy:-650.999939,vz:1652.177979,tb:-0.000313617561
$pseudo_cd_ph,prn:22,pseudo_cd_ph:200210920.823226988316
measnum = 5,full_prange = 23524194.010337
$oldmeas,msRange:78.476199,x:-19292087.147926,y:2234993.029525,z:18321061.944827,vx:1267.681396,vy:-1921.732300,vz:1597.589722,tb:-0.000708066796
$newmeas,x:-19292186.620620,y:2235143.823850,z:18320936.583547,vx:1267.679688,vy:-1921.715088,vz:1597.619873,tb:-0.000708066795
$pseudo_cd_ph,prn:28,pseudo_cd_ph:200210932.064646422863
measnum = 6,full_prange = 20596554.262978
$oldmeas,msRange:68.710543,x:-10069131.758352,y:21136566.664673,z:13237881.928471,vx:-1264.989868,vy:950.545898,vz:-2590.620850,tb:0.000767797605
$newmeas,x:-10069044.849429,y:21136501.359271,z:13238059.910500,vx:-1265.009888,vy:950.555237,vz:-2590.602051,tb:0.000767797605
$pseudo_cd_ph,prn:30,pseudo_cd_ph:200210921.084187984467
measnum = 7,full_prange = 23624372.461401
$oldmeas,msRange:78.810427,x:-2696811.318535,y:23455971.173545,z:-11946643.814291,vx:-688.275330,vy:-1401.405151,vz:-2610.061523,tb:-0.000112946456
$newmeas,x:-2696757.081268,y:23456081.606802,z:-11946438.134312,vx:-688.262695,vy:-1401.383179,vz:-2610.081787,tb:-0.000112946455
$GNGGA,073633.000,2944.9084,N,10633.0927,E,1,21,0.6,330.1,M,,,,0000*12
$GNRMC,073633.000,A,2944.9084,N,10633.0927,E,0.17,0.00,280519,,*1B
$GPGSA,A,3,01,03,06,17,19,22,28,30,,,,,0.7,0.6,0.4*34
$BDGSA,A,3,01,02,03,04,07,08,10,12,13,19,22,26,0.7,0.6,0.4*21
$GLGSA,A,3,,,,,,,,,,,,,0.7,0.6,0.4*2B
$GPGSV,3,1,10,01,20,041,39,03,35,076,42,06,42,236,44,17,52,336,45*75
$GPGSV,3,2,10,19,40,307,43,22,23,055,42,28,79,089,43,30,19,190,42*76
$GPGSV,3,3,10,02,06,232,00,11,11,057,00*7D
$BDGSV,3,1,12,01,40,126,41,02,47,220,39,03,55,171,41,04,23,109,40*6F
$BDGSV,3,2,12,07,54,150,42,08,73,340,43,10,81,201,42,12,34,286,40*63
$BDGSV,3,3,12,13,62,259,43,19,28,105,43,22,15,159,39,26,51,252,43*64
$B3CN0,19,0,0,0,0,0,22,0,0,0,0,0,0,0*44
$ini_pos,lastpos_good = 1,ini_pos.x:-1578915.656366,ini_pos.y:5312774.030433,ini_pos.z:3146360.698084
$rtc_local_time,localRTC.weeks:2055,localRTC.seconds:200211.535891,localGtime.weeks:2055,localGtime.seconds:200212.000000
$pseudo_cd_ph,prn:1,pseudo_cd_ph:200211921.539871245623
measnum = 0,full_prange = 23513549.393192
$oldmeas,msRange:0.000000,x:-15231706.279820,y:228827.314501,z:21606208.377667,vx:-797.355713,vy:-2662.394287,vz:-497.925629,tb:-0.000026896913
$newmeas,x:-15231643.741445,y:229036.133777,z:21606247.429914,vx:-797.344666,vy:-2662.403076,vz:-497.889069,tb:-0.000026896912
$pseudo_cd_ph,prn:3,pseudo_cd_ph:200211925.924019426107
measnum = 1,full_prange = 22263386.999695
$oldmeas,msRange:74.271292,x:-20991266.134193,y:9119288.471580,z:13366229.317636,vx:987.552124,vy:-1410.062256,vz:2513.993896,tb:0.000187158391
$newmeas,x:-20991339.472082,y:9119393.185761,z:13366042.620951,vx:987.542297,vy:-1410.040649,vz:2514.015137,tb:0.000187158391
$pseudo_cd_ph,prn:6,pseudo_cd_ph:200211927.525681972504
measnum = 2,full_prange = 21785185.244201
$oldmeas,msRange:72.676034,x:6197712.410808,y:25661946.283179,z:2772852.478418,vx:-330.027832,vy:-258.673492,vz:3184.635986,tb:0.000193711578
$newmeas,x:6197736.392763,y:25661965.079393,z:2772621.058556,vx:-330.017883,vy:-258.647186,vz:3184.640137,tb:0.000193711579
$pseudo_cd_ph,prn:17,pseudo_cd_ph:200211928.201225072145
measnum = 3,full_prange = 21543198.364071
$oldmeas,msRange:71.868929,x:745721.528559,y:15413398.224676,z:22035326.996299,vx:-2601.980225,vy:-695.343018,vz:576.839661,tb:0.000062073331
$newmeas,x:745908.507546,y:15413448.192665,z:22035285.543221,vx:-2601.972168,vy:-695.353516,vz:576.872070,tb:0.000062073330
$pseudo_cd_ph,prn:19,pseudo_cd_ph:200211927.265820175409
measnum = 4,full_prange = 21710996.401872
$oldmeas,msRange:72.428590,x:8847760.188695,y:16142064.672782,z:18814422.801461,vx:-2365.553955,vy:-650.916199,vz:1651.736938,tb:-0.000313617559
$newmeas,x:8847931.501681,y:16142111.812398,z:18814303.181448,vx:-2365.536377,vy:-650.921875,vz:1651.766724,tb:-0.000313617559
$pseudo_cd_ph,prn:22,pseudo_cd_ph:200211920.822824954987
measnum = 5,full_prange = 23524304.868466
$oldmeas,msRange:78.477290,x:-19290819.456016,y:2233071.187353,z:18322659.342681,vx:1267.702515,vy:-1921.952148,vz:1597.206055,tb:-0.000708066800
$newmeas,x:-19290918.930835,y:2233221.999635,z:18322534.010923,vx:1267.700806,vy:-1921.934937,vz:1597.236084,tb:-0.000708066800
$pseudo_cd_ph,prn:28,pseudo_cd_ph:200211932.065397620201
measnum = 6,full_prange = 20596319.393719
$oldmeas,msRange:68.710484,x:-10070396.602540,y:21137517.142475,z:13235291.172141,vx:-1264.698486,vy:950.409729,vz:-2590.892090,tb:0.000767797609
$newmeas,x:-10070309.714626,y:21137451.847174,z:13235469.170774,vx:-1264.718506,vy:950.419128,vz:-2590.873291,tb:0.000767797609
$pseudo_cd_ph,prn:30,pseudo_cd_ph:200211921.082796841860
measnum = 7,full_prange = 23624779.845800
$oldmeas,msRange:78.812508,x:-2697499.674215,y:23454569.628654,z:-11949253.747256,vx:-688.436035,vy:-1401.684692,vz:-2609.804443,tb:-0.000112946464
$newmeas,x:-2697445.423348,y:23454680.085842,z:-11949048.083990,vx:-688.423401,vy:-1401.662720,vz:-2609.824707,tb:-0.000112946463
$GNGGA,073634.000,2944.9085,N,10633.0927,E,1,21,0.6,330.6,M,,,,0000*13
$GNRMC,073634.000,A,2944.9085,N,10633.0927,E,0.30,0.00,280519,,*18
$GPGSA,A,3,01,03,06,17,19,22,28,30,,,,,0.7,0.6,0.4*34
$BDGSA,A,3,01,02,03,04,07,08,10,12,13,19,22,26,0.7,0.6,0.4*21
$GLGSA,A,3,,,,,,,,,,,,,0.7,0.6,0.4*2B
$GPGSV,3,1,10,01,20,041,39,03,35,076,42,06,42,236,43,17,52,336,45*72
$GPGSV,3,2,10,19,40,307,43,22,23,055,43,28,79,089,44,30,19,190,42*70
$GPGSV,3,3,10,02,06,232,00,11,11,057,00*7D
$BDGSV,3,1,12,01,40,126,41,02,47,220,41,03,55,171,42,04,23,109,40*63
$BDGSV,3,2,12,07,54,150,42,08,73,340,43,10,81,201,42,12,34,286,40*63
$BDGSV,3,3,12,13,62,259,43,19,28,105,43,22,15,159,39,26,51,252,44*63
$B3CN0,0,0,0,0,0,0,0,0,0,0,0,0,0,0*4C
$ini_pos,lastpos_good = 1,ini_pos.x:-1578915.794312,ini_pos.y:5312774.326381,ini_pos.z:3146361.055254
$rtc_local_time,localRTC.weeks:2055,localRTC.seconds:200212.535891,localGtime.weeks:2055,localGtime.seconds:200212.999999
$pseudo_cd_ph,prn:1,pseudo_cd_ph:200212921.538400858641
measnum = 0,full_prange = 23513980.533750
$oldmeas,msRange:0.000000,x:-15232503.705883,y:226164.976556,z:21605710.218997,vx:-797.496460,vy:-2662.281738,vz:-498.391754,tb:-0.000026896924
$newmeas,x:-15232441.155322,y:226373.790830,z:21605749.308519,vx:-797.485413,vy:-2662.290527,vz:-498.355194,tb:-0.000026896923
$pseudo_cd_ph,prn:3,pseudo_cd_ph:200212925.924540281296
measnum = 1,full_prange = 22263221.183640
$oldmeas,msRange:74.271464,x:-20990278.516044,y:9117878.263965,z:13368743.168440,vx:987.684204,vy:-1410.353027,vz:2513.707764,tb:0.000187158389
$newmeas,x:-20990351.863197,y:9117982.998959,z:13368556.494403,vx:987.674438,vy:-1410.331421,vz:2513.729004,tb:0.000187158390
$pseudo_cd_ph,prn:6,pseudo_cd_ph:200212927.527755260468
measnum = 2,full_prange = 21784554.017842
$oldmeas,msRange:72.674652,x:6197382.314555,y:25661687.428524,z:2776037.084621,vx:-330.164703,vy:-259.035828,vz:3184.576660,tb:0.000193711568
$newmeas,x:6197406.305761,y:25661706.250522,z:2775805.675762,vx:-330.154755,vy:-259.009491,vz:3184.581055,tb:0.000193711569
$pseudo_cd_ph,prn:17,pseudo_cd_ph:200212928.202256411314
measnum = 3,full_prange = 21542879.512400
$oldmeas,msRange:71.868590,x:743119.492019,y:15412702.954622,z:22035903.610349,vx:-2602.093018,vy:-695.197083,vz:576.388489,tb:0.000062073341
$newmeas,x:743306.476336,y:15412752.911384,z:22035862.190304,vx:-2602.084961,vy:-695.207581,vz:576.420898,tb:0.000062073341
$pseudo_cd_ph,prn:19,pseudo_cd_ph:200212927.267411649227
measnum = 4,full_prange = 21710509.623374
$oldmeas,msRange:72.427693,x:8845394.514320,y:16141413.795615,z:18816074.332693,vx:-2365.795166,vy:-650.838135,vz:1651.325684,tb:-0.000313617558
$newmeas,x:8845565.840934,y:16141460.928519,z:18815954.745145,vx:-2365.777588,vy:-650.843811,vz:1651.355469,tb:-0.000313617558
$pseudo_cd_ph,prn:22,pseudo_cd_ph:200212920.822425454855
measnum = 5,full_prange = 23524414.967160
$oldmeas,msRange:78.478382,x:-19289551.743023,y:2231149.125409,z:18324256.356772,vx:1267.723511,vy:-1922.171875,vz:1596.822266,tb:-0.000708066804
$newmeas,x:-19289651.219961,y:2231299.955642,z:18324131.054542,vx:1267.721924,vy:-1922.154663,vz:1596.852417,tb:-0.000708066804
$pseudo_cd_ph,prn:28,pseudo_cd_ph:200212932.066150099039
measnum = 6,full_prange = 20596084.140276
$oldmeas,msRange:68.710424,x:-10071661.155356,y:21138467.484077,z:13232700.144610,vx:-1264.407227,vy:950.273499,vz:-2591.163086,tb:0.000767797613
$newmeas,x:-10071574.288453,y:21138402.198881,z:13232878.159840,vx:-1264.427246,vy:950.282898,vz:-2591.144531,tb:0.000767797613
$pseudo_cd_ph,prn:30,pseudo_cd_ph:200212921.081409871578
measnum = 7,full_prange = 23625185.979368
