SD initialized success
Create debug.log Failed! 3
bbram_blkflag = 1
rtcflag = 0
BBRAM Block OK: 01 EPHflag: 08050922 02241adf, rtc 00
Hot-start nowtime:day = 28,minute = 11,seconds = 05.00
GPS 0 Init Dop: 10000,80
GPS 1 Init Dop: -2272, 2
GPS 2 Init Dop: 10000,80
GPS 3 Init Dop: 10000,80
GPS 4 Init Dop: 10000,80
GPS 5 Init Dop:  -811, 2
GPS 6 Init Dop: 10000,80
GPS 7 Init Dop: 10000,80
GPS 8 Init Dop: -2997, 2
GPS 9 Init Dop: 10000,80
GPS10 Init Dop: 10000,80
GPS11 Init Dop: -4249, 2
GPS12 Init Dop: 10000,80
GPS13 Init Dop: 10000,80
GPS14 Init Dop: 10000,80
GPS15 Init Dop: 10000,80
GPS16 Init Dop:  -769, 2
GPS17 Init Dop: 10000,80
GPS18 Init Dop: -1356, 2
GPS19 Init Dop: 10000,80
GPS20 Init Dop: 10000,80
GPS21 Init Dop: 10000,80
GPS22 Init Dop: 10000,80
GPS23 Init Dop: 10000,80
GPS24 Init Dop: 10000,80
GPS25 Init Dop: 10000,80
GPS26 Init Dop: 10000,80
GPS27 Init Dop:  1814, 2
GPS28 Init Dop: 10000,80
GPS29 Init Dop: 10000,80
GPS30 Init Dop: 10000,80
GPS31 Init Dop: 10000,80
BDS 0 Init Dop:  -850, 2
BDS 1 Init Dop:  -919, 2
BDS 2 Init Dop:  -868, 2
BDS 3 Init Dop:  -871, 2
BDS 4 Init Dop:  -899, 2
BDS 5 Init Dop: 10000,80
BDS 6 Init Dop:   530, 2
BDS 7 Init Dop:  -474, 2
BDS 8 Init Dop: 10000,80
BDS 9 Init Dop:   190, 2
BDS10 Init Dop: 10000,80
BDS11 Init Dop: -1771, 2
BDS12 Init Dop:  -652, 2
BDS13 Init Dop: 10000,80
BDS14 Init Dop: 10000,80
BDS15 Init Dop: 10000,80
BDS16 Init Dop: 10000,80
BDS17 Init Dop: 10000,80
BDS18 Init Dop:   281, 2
BDS19 Init Dop: 10000,80
BDS20 Init Dop: 10000,80
BDS21 Init Dop: -2576, 2
BDS22 Init Dop: 10000,80
BDS23 Init Dop: 10000,80
BDS24 Init Dop: 10000,80
BDS25 Init Dop:  1773, 2
BDS26 Init Dop: 10000,80
BDS27 Init Dop: 10000,80
BDS28 Init Dop: 10000,80
BDS29 Init Dop: 10000,80
BDS30 Init Dop: 10000,80
BDS31 Init Dop: 10000,80
Good luck!
$ini_pos,lastpos_good = 1,ini_pos.x:-1578917.000000,ini_pos.y:5312772.000000,ini_pos.z:3146357.000000
$rtc_local_time,localRTC.weeks:2055,localRTC.seconds:205884.025977,localGtime.weeks:0,localGtime.seconds:19.025977
source<tow,snapshot
$GNGGA,000000.000,,,,,0,00,,,M,,,,0000*2B
$GNRMC,000000.000,A,,,,,,,060180,,*29
$GPGSA,A,1,,,,,,,,,,,,,,,*1E
$BDGSA,A,1,,,,,,,,,,,,,,,*0F
$GLGSA,A,1,,,,,,,,,,,,,,,*02
$B3CN0,0,0,0,0,0,0,0,0,0,0,0,0,0,0*4C
tow update,205885907.851486
$ini_pos,lastpos_good = 1,ini_pos.x:-1578917.000000,ini_pos.y:5312772.000000,ini_pos.z:3146357.000000
$rtc_local_time,localRTC.weeks:2055,localRTC.seconds:205885.025977,localGtime.weeks:2055,localGtime.seconds:205885.907851
$GNGGA,100309.393,0104.8391,836223.03,17318.7299,6223.03,808334130,04,99.0,39246649836223.03,M,,,,0000*23
$GNRMC,100309.393,A,0104.8391,836223.03,17318.7299,6223.03,423809870.00,0.00,280519,,*1C
$GPGSA,A,3,06,17,19,28,,,,,,,,,99.0,99.0,99.0*00
$BDGSA,A,3,,,,,,,,,,,,,99.0,99.0,99.0*13
$GLGSA,A,3,,,,,,,,,,,,,99.0,99.0,99.0*1E
$B3CN0,0,0,0,0,0,0,0,0,0,0,0,0,0,0*4C
$ini_pos,lastpos_good = 1,ini_pos.x:-1578917.000000,ini_pos.y:5312772.000000,ini_pos.z:3146357.000000
$rtc_local_time,localRTC.weeks:2055,localRTC.seconds:205886.633069,localGtime.weeks:2055,localGtime.seconds:209009.000000
$pseudo_cd_ph,prn:2,pseudo_cd_ph:8.262613298373
measnum = 0,full_prange = 22038771.940886
$oldmeas,msRange:0.000000,x:8724554.146593,y:19375255.247645,z:16636041.243018,vx:-1780.295898,vy:-917.259460,vz:2063.509033,tb:-0.000223831942
$newmeas,x:8724685.021540,y:19375322.678452,z:16635889.546484,vx:-1780.276489,vy:-917.257202,vz:2063.533691,tb:-0.000223831942
$pseudo_cd_ph,prn:6,pseudo_cd_ph:205887295.207069367170
measnum = 1,full_prange = 20981403.394770
$oldmeas,msRange:70.071111,x:-5071839.690675,y:14463856.056869,z:21729748.674364,vx:-2255.078613,vy:-1565.467407,vz:520.083191,tb:0.000193622305
$newmeas,x:-5071681.866140,y:14463965.618582,z:21729712.274470,vx:-2255.068359,vy:-1565.474365,vz:520.115417,tb:0.000193622305
$pseudo_cd_ph,prn:12,pseudo_cd_ph:3.726918337049
measnum = 2,full_prange = 22637740.556886
$oldmeas,msRange:75.056216,x:11114934.486137,y:13525519.475443,z:19811409.457890,vx:-512.323242,vy:2501.725342,vz:-1388.686768,tb:0.000238417346
$newmeas,x:11114973.172895,y:13525330.566318,z:19811514.318315,vx:-512.337158,vy:2501.736084,vz:-1388.654419,tb:0.000238417346
$pseudo_cd_ph,prn:17,pseudo_cd_ph:205887313.313406407833
measnum = 3,full_prange = 21509697.263215
$oldmeas,msRange:71.939015,x:-19361676.007122,y:15017130.660468,z:10544024.123207,vx:-1257.020508,vy:294.716736,vz:-2845.821045,tb:0.000062158008
$newmeas,x:-19361585.816739,y:15017109.514812,z:10544228.306394,vx:-1257.045288,vy:294.720490,vz:-2845.805176,tb:0.000062158007
$pseudo_cd_ph,prn:19,pseudo_cd_ph:205887314.945591807365
measnum = 4,full_prange = 20607937.849323
$oldmeas,msRange:68.847445,x:-14062723.918177,y:15826601.100606,z:15780508.566824,vx:-1994.843018,vy:506.497559,vz:-2235.521729,tb:-0.000313602223
$newmeas,x:-14062586.790592,y:15826566.283695,z:15780662.237303,vx:-1994.863892,vy:506.495331,vz:-2235.498291,tb:-0.000313602223
$pseudo_cd_ph,prn:28,pseudo_cd_ph:205887311.332520186901
measnum = 5,full_prange = 23814060.507572
$oldmeas,msRange:79.885216,x:-12601750.011362,y:18956193.197979,z:-13160345.139339,vx:153.896759,vy:-1767.377441,vz:-2566.590332,tb:0.000767800193
$newmeas,x:-12601762.236327,y:18956333.588819,z:-13160141.260923,vx:153.900604,vy:-1767.350708,vz:-2566.613281,tb:0.000767800193
$GNGGA,100311.000,2048.3913,N,10757.0294,E,1,00,99.0,0.0,M,,,,0000*2E
$GNRMC,100311.000,A,2048.3913,N,10757.0294,E,0.00,0.00,280519,,*15
$GPGSA,A,1,,,,,,,,,,,,,99.0,99.0,99.0*00
$BDGSA,A,1,,,,,,,,,,,,,99.0,99.0,99.0*11
$GLGSA,A,1,,,,,,,,,,,,,99.0,99.0,99.0*1C
$GPGSV,2,1,06,02,00,000,39,06,00,000,46,12,00,000,39,17,00,000,46*7D
$GPGSV,2,2,06,19,00,000,45,28,00,000,43*7B
$BDGSV,3,1,12,01,00,000,41,02,00,000,40,03,00,000,43,04,00,000,41*6E
$BDGSV,3,2,12,05,00,000,37,08,00,000,42,10,00,000,41,12,00,000,43*65
$BDGSV,3,3,12,13,00,000,43,19,00,000,42,22,00,000,45,26,00,000,43*62
$B3CN0,0,0,0,0,0,0,0,0,0,0,0,0,0,0*4C
$ini_pos,lastpos_good = 1,ini_pos.x:-1578917.000000,ini_pos.y:5312772.000000,ini_pos.z:3146357.000000
$rtc_local_time,localRTC.weeks:2055,localRTC.seconds:205887.633069,localGtime.weeks:2055,localGtime.seconds:209010.000000
$pseudo_cd_ph,prn:2,pseudo_cd_ph:8.264177040853
measnum = 0,full_prange = 22038293.469846
$oldmeas,msRange:0.000000,x:8722773.718558,y:19374337.973105,z:16638104.583193,vx:-1780.560181,vy:-917.289673,vz:2063.171631,tb:-0.000223831946
$newmeas,x:8722904.610093,y:19374405.404670,z:16637952.914759,vx:-1780.540771,vy:-917.287476,vz:2063.196289,tb:-0.000223831946
$pseudo_cd_ph,prn:6,pseudo_cd_ph:205888295.207692265511
measnum = 1,full_prange = 20981206.984424
$oldmeas,msRange:70.071622,x:-5074094.843090,y:14462290.639185,z:21730268.527235,vx:-2255.226318,vy:-1565.368042,vz:519.622559,tb:0.000193622295
$newmeas,x:-5073937.009691,y:14462400.192924,z:21730232.159919,vx:-2255.216064,vy:-1565.375000,vz:519.654785,tb:0.000193622295
$pseudo_cd_ph,prn:12,pseudo_cd_ph:3.729734217550
measnum = 2,full_prange = 22636886.710910
$oldmeas,msRange:75.054867,x:11114422.255041,y:13528021.128065,z:19810020.557545,vx:-512.138977,vy:2501.580078,vz:-1389.114014,tb:0.000238417340
$newmeas,x:11114460.926427,y:13527832.237021,z:19810125.446282,vx:-512.152893,vy:2501.591064,vz:-1389.081787,tb:0.000238417341
$pseudo_cd_ph,prn:17,pseudo_cd_ph:205888313.314015984535
measnum = 3,full_prange = 21509504.851912
$oldmeas,msRange:71.939658,x:-19362932.854216,y:15017425.351097,z:10541178.191471,vx:-1256.673828,vy:294.664520,vz:-2846.042480,tb:0.000062158015
$newmeas,x:-19362842.689510,y:15017404.209377,z:10541382.388720,vx:-1256.698730,vy:294.668274,vz:-2846.026611,tb:0.000062158015
$pseudo_cd_ph,prn:19,pseudo_cd_ph:205888314.946578383446
measnum = 4,full_prange = 20607632.414926
$oldmeas,msRange:68.847766,x:-14064718.609358,y:15827107.614382,z:15778272.874346,vx:-1994.539429,vy:506.530029,vz:-2235.863281,tb:-0.000313602220
$newmeas,x:-14064581.504670,y:15827072.795757,z:15778426.566033,vx:-1994.560303,vy:506.527802,vz:-2235.839844,tb:-0.000313602220
$pseudo_cd_ph,prn:28,pseudo_cd_ph:205888311.331477791071
measnum = 5,full_prange = 23814363.341752
$oldmeas,msRange:79.887450,x:-12601596.138844,y:18954425.651910,z:-13162911.585306,vx:153.848282,vy:-1767.714722,vz:-2566.301758,tb:0.000767800189
$newmeas,x:-12601608.360115,y:18954566.071329,z:-13162707.727228,vx:153.852142,vy:-1767.687988,vz:-2566.324707,tb:0.000767800189
$GNGGA,100312.000,2048.3897,N,10757.1136,E,1,00,99.0,-0.0,M,,,,0000*07
$GNRMC,100312.000,A,2048.3897,N,10757.1136,E,0.00,0.00,280519,,*11
$GPGSA,A,1,,,,,,,,,,,,,99.0,99.0,99.0*00
$BDGSA,A,1,,,,,,,,,,,,,99.0,99.0,99.0*11
$GLGSA,A,1,,,,,,,,,,,,,99.0,99.0,99.0*1C
$B3CN0,0,0,0,0,0,0,0,0,0,0,0,0,0,0*4C
$ini_pos,lastpos_good = 1,ini_pos.x:-1578917.000000,ini_pos.y:5312772.000000,ini_pos.z:3146357.000000
$rtc_local_time,localRTC.weeks:2055,localRTC.seconds:205888.633069,localGtime.weeks:2055,localGtime.seconds:209011.000000
$pseudo_cd_ph,prn:2,pseudo_cd_ph:8.265745437040
measnum = 0,full_prange = 22037813.613956
$oldmeas,msRange:0.000000,x:8720993.026234,y:19373420.668368,z:16640167.585895,vx:-1780.824463,vy:-917.319824,vz:2062.833984,tb:-0.000223831950
$newmeas,x:8721123.934346,y:19373488.100682,z:16640015.945573,vx:-1780.805054,vy:-917.317627,vz:2062.858887,tb:-0.000223831950
$pseudo_cd_ph,prn:6,pseudo_cd_ph:205889295.208321452141
measnum = 1,full_prange = 20981008.688897
$oldmeas,msRange:70.072133,x:-5076350.143245,y:14460725.320798,z:21730787.919468,vx:-2255.374023,vy:-1565.268799,vz:519.161926,tb:0.000193622285
$newmeas,x:-5076192.300999,y:14460834.866551,z:21730751.584734,vx:-2255.363770,vy:-1565.275757,vz:519.194153,tb:0.000193622286
$pseudo_cd_ph,prn:12,pseudo_cd_ph:3.732551000452
measnum = 2,full_prange = 22636032.587964
$oldmeas,msRange:75.053519,x:11113910.208187,y:13530522.635568,z:19808631.229895,vx:-511.954742,vy:2501.435059,vz:-1389.541382,tb:0.000238417335
$newmeas,x:11113948.864203,y:13530333.762610,z:19808736.146937,vx:-511.968658,vy:2501.446045,vz:-1389.509033,tb:0.000238417336
$pseudo_cd_ph,prn:17,pseudo_cd_ph:205889313.314626693726
measnum = 3,full_prange = 21509312.101097
$oldmeas,msRange:71.940302,x:-19364189.354673,y:15017719.989488,z:10538332.038325,vx:-1256.327148,vy:294.612274,vz:-2846.263916,tb:0.000062158023
$newmeas,x:-19364099.215645,y:15017698.851706,z:10538536.249627,vx:-1256.352051,vy:294.616028,vz:-2846.248047,tb:0.000062158023
$pseudo_cd_ph,prn:19,pseudo_cd_ph:205889314.947565257549
measnum = 4,full_prange = 20607326.891185
$oldmeas,msRange:68.848087,x:-14066712.996993,y:15827614.160592,z:15776036.840244,vx:-1994.235962,vy:506.562439,vz:-2236.205078,tb:-0.000313602217
$newmeas,x:-14066575.915204,y:15827579.340255,z:15776190.553134,vx:-1994.256836,vy:506.560211,vz:-2236.181396,tb:-0.000313602217
$pseudo_cd_ph,prn:28,pseudo_cd_ph:205889311.330442577600
measnum = 5,full_prange = 23814664.022714
$oldmeas,msRange:79.889685,x:-12601442.314821,y:18952657.768563,z:-13165477.742582,vx:153.799759,vy:-1768.052002,vz:-2566.012939,tb:0.000767800186
$newmeas,x:-12601454.532392,y:18952798.216546,z:-13165273.904864,vx:153.803619,vy:-1768.025269,vz:-2566.035889,tb:0.000767800186
$GNGGA,100313.000,2048.3881,N,10757.1979,E,1,00,99.0,0.0,M,,,,0000*2F
$GNRMC,100313.000,A,2048.3881,N,10757.1979,E,0.00,0.00,280519,,*14
$GPGSA,A,1,,,,,,,,,,,,,99.0,99.0,99.0*00
$BDGSA,A,1,,,,,,,,,,,,,99.0,99.0,99.0*11
$GLGSA,A,1,,,,,,,,,,,,,99.0,99.0,99.0*1C
$GPGSV,2,1,07,02,33,276,39,06,53,325,45,12,05,324,38,17,50,040,45*7D
$GPGSV,2,2,07,19,48,007,45,28,48,157,43,09,16,114,00*44
$BDGSV,3,1,12,01,46,119,41,02,54,232,41,03,66,172,45,04,27,104,41*64
$BDGSV,3,2,12,05,30,253,38,08,48,359,42,10,66,217,41,12,40,339,43*67
$BDGSV,3,3,12,13,50,313,43,19,27,053,41,22,56,119,44,26,30,218,43*65
$B3CN0,0,0,0,0,0,0,0,0,0,0,0,0,0,0*4C
$ini_pos,lastpos_good = 1,ini_pos.x:-1578917.000000,ini_pos.y:5312772.000000,ini_pos.z:3146357.000000
$rtc_local_time,localRTC.weeks:2055,localRTC.seconds:205889.633069,localGtime.weeks:2055,localGtime.seconds:209012.000000
$pseudo_cd_ph,prn:2,pseudo_cd_ph:8.267313848143
measnum = 0,full_prange = 22037333.749133
$oldmeas,msRange:0.000000,x:8719212.069644,y:19372503.333488,z:16642230.251085,vx:-1781.088745,vy:-917.349976,vz:2062.496582,tb:-0.000223831954
$newmeas,x:8719342.994331,y:19372570.766548,z:16642078.638876,vx:-1781.069336,vy:-917.347778,vz:2062.521240,tb:-0.000223831953
$pseudo_cd_ph,prn:6,pseudo_cd_ph:205890295.208955556154
measnum = 1,full_prange = 20980808.919174
$oldmeas,msRange:70.072644,x:-5078605.591088,y:14459160.101755,z:21731306.851052,vx:-2255.521729,vy:-1565.169434,vz:518.701294,tb:0.000193622275
$newmeas,x:-5078447.740011,y:14459269.639512,z:21731270.548903,vx:-2255.511475,vy:-1565.176392,vz:518.733521,tb:0.000193622276
$pseudo_cd_ph,prn:12,pseudo_cd_ph:3.735369237637
measnum = 2,full_prange = 22635178.036161
$oldmeas,msRange:75.052171,x:11113398.345563,y:13533023.997884,z:19807241.474969,vx:-511.770538,vy:2501.289795,vz:-1389.968628,tb:0.000238417330
$newmeas,x:11113436.986210,y:13532835.143020,z:19807346.420310,vx:-511.784424,vy:2501.300781,vz:-1389.936279,tb:0.000238417331
$pseudo_cd_ph,prn:17,pseudo_cd_ph:205890313.315239250660
measnum = 3,full_prange = 21509118.796342
$oldmeas,msRange:71.940946,x:-19365445.508478,y:15018014.575582,z:10535485.663827,vx:-1255.980469,vy:294.559937,vz:-2846.485352,tb:0.000062158031
$newmeas,x:-19365355.395132,y:15017993.441745,z:10535689.889174,vx:-1256.005371,vy:294.563690,vz:-2846.469482,tb:0.000062158030
$pseudo_cd_ph,prn:19,pseudo_cd_ph:205890314.948552072048
measnum = 4,full_prange = 20607021.385312
$oldmeas,msRange:68.848409,x:-14068707.081046,y:15828120.739185,z:15773800.464568,vx:-1993.932373,vy:506.594788,vz:-2236.546631,tb:-0.000313602215
$newmeas,x:-14068570.022158,y:15828085.917139,z:15773954.198655,vx:-1993.953125,vy:506.592560,vz:-2236.522949,tb:-0.000313602215
$pseudo_cd_ph,prn:28,pseudo_cd_ph:205890311.329408466816
measnum = 5,full_prange = 23814964.373100
$oldmeas,msRange:79.891920,x:-12601288.539340,y:18950889.547972,z:-13168043.611107,vx:153.751190,vy:-1768.389282,vz:-2565.724121,tb:0.000767800182
$newmeas,x:-12601300.753208,y:18951030.024515,z:-13167839.793759,vx:153.755051,vy:-1768.362427,vz:-2565.747070,tb:0.000767800182
$GNGGA,100314.000,2048.3864,N,10757.2821,E,1,00,99.0,0.0,M,,,,0000*2C
$GNRMC,100314.000,A,2048.3864,N,10757.2821,E,0.00,0.00,280519,,*17
$GPGSA,A,1,,,,,,,,,,,,,99.0,99.0,99.0*00
$BDGSA,A,1,,,,,,,,,,,,,99.0,99.0,99.0*11
$GLGSA,A,1,,,,,,,,,,,,,99.0,99.0,99.0*1C
$GPGSV,2,1,07,02,33,276,39,06,53,325,45,12,05,324,38,17,50,040,45*7D
$GPGSV,2,2,07,19,48,007,44,28,48,157,43,09,16,114,00*45
$BDGSV,3,1,12,01,46,119,41,02,54,232,39,03,66,172,45,04,27,104,40*6A
$BDGSV,3,2,12,05,30,253,38,08,48,359,42,10,66,217,41,12,40,339,43*67
$BDGSV,3,3,12,13,50,313,43,19,27,053,42,22,56,119,44,26,30,218,42*67
$B3CN0,0,0,0,0,0,0,0,0,0,0,0,0,0,0*4C
$ini_pos,lastpos_good = 1,ini_pos.x:-1578917.000000,ini_pos.y:5312772.000000,ini_pos.z:3146357.000000
$rtc_local_time,localRTC.weeks:2055,localRTC.seconds:205890.633069,localGtime.weeks:2055,localGtime.seconds:209013.000000
$pseudo_cd_ph,prn:2,pseudo_cd_ph:205891308.268883585930
measnum = 0,full_prange = 22036853.482256
$oldmeas,msRange:0.000000,x:8717430.848811,y:19371585.968519,z:16644292.578721,vx:-1781.353027,vy:-917.380005,vz:2062.158936,tb:-0.000223831957
$newmeas,x:8717561.790068,y:19371653.402320,z:16644140.994630,vx:-1781.333618,vy:-917.377808,vz:2062.183838,tb:-0.000223831957
$pseudo_cd_ph,prn:6,pseudo_cd_ph:205891295.209590166807
measnum = 1,full_prange = 20980608.997566
$oldmeas,msRange:70.073155,x:-5080861.186570,y:14457594.982103,z:21731825.321976,vx:-2255.669434,vy:-1565.069946,vz:518.240601,tb:0.000193622265
$newmeas,x:-5080703.326667,y:14457704.511859,z:21731789.052412,vx:-2255.658936,vy:-1565.076904,vz:518.272827,tb:0.000193622266
$pseudo_cd_ph,prn:12,pseudo_cd_ph:205891303.738188177347
measnum = 2,full_prange = 22634323.269931
$oldmeas,msRange:75.050823,x:11112886.667158,y:13535525.214946,z:19805851.292799,vx:-511.586304,vy:2501.144531,vz:-1390.395874,tb:0.000238417325
$newmeas,x:11112925.292437,y:13535336.378184,z:19805956.266432,vx:-511.600220,vy:2501.155518,vz:-1390.363525,tb:0.000238417326
$pseudo_cd_ph,prn:17,pseudo_cd_ph:205891313.315851897001
measnum = 3,full_prange = 21508925.464784
$oldmeas,msRange:71.941591,x:-19366701.315617,y:15018309.109324,z:10532639.068037,vx:-1255.633789,vy:294.507568,vz:-2846.706543,tb:0.000062158039
$newmeas,x:-19366611.227953,y:15018287.979434,z:10532843.307422,vx:-1255.658691,vy:294.511322,vz:-2846.690674,tb:0.000062158038
$pseudo_cd_ph,prn:19,pseudo_cd_ph:205891314.949538171291
measnum = 4,full_prange = 20606716.093868
$oldmeas,msRange:68.848730,x:-14070700.861480,y:15828627.350108,z:15771563.747366,vx:-1993.628662,vy:506.627075,vz:-2236.887939,tb:-0.000313602212
$newmeas,x:-14070563.825493,y:15828592.526358,z:15771717.502650,vx:-1993.649536,vy:506.624878,vz:-2236.864502,tb:-0.000313602212
$pseudo_cd_ph,prn:28,pseudo_cd_ph:205891311.328374624252
measnum = 5,full_prange = 23815264.643074
$oldmeas,msRange:79.894154,x:-12601134.812454,y:18949120.990169,z:-13170609.190824,vx:153.702576,vy:-1768.726440,vz:-2565.435303,tb:0.000767800178
$newmeas,x:-12601147.022613,y:18949261.495270,z:-13170405.393851,vx:153.706436,vy:-1768.699707,vz:-2565.458252,tb:0.000767800179
$GNGGA,100315.000,2329.0037,N,10330.1580,E,1,00,99.0,0.0,M,,,,0000*24
$GNRMC,100315.000,A,2329.0037,N,10330.1580,E,0.00,0.00,280519,,*1F
$GPGSA,A,1,,,,,,,,,,,,,99.0,99.0,99.0*00
$BDGSA,A,1,,,,,,,,,,,,,99.0,99.0,99.0*11
$GLGSA,A,1,,,,,,,,,,,,,99.0,99.0,99.0*1C
$GPGSV,2,1,07,02,33,276,39,06,53,325,45,12,05,324,39,17,50,040,45*7C
$GPGSV,2,2,07,19,48,007,44,28,48,157,43,09,16,114,00*45
$BDGSV,3,1,12,01,46,119,42,02,54,232,39,03,66,172,43,04,27,104,39*61
$BDGSV,3,2,12,05,30,253,39,08,48,359,42,10,66,217,41,12,40,339,42*67
$BDGSV,3,3,12,13,50,313,43,19,27,053,41,22,56,119,44,26,30,218,43*65
$B3CN0,0,0,0,0,0,0,0,0,0,0,0,0,0,0*4C
$ini_pos,lastpos_good = 1,ini_pos.x:-1578917.000000,ini_pos.y:5312772.000000,ini_pos.z:3146357.000000
$rtc_local_time,localRTC.weeks:2055,localRTC.seconds:205891.633069,localGtime.weeks:2055,localGtime.seconds:209014.000000
$pseudo_cd_ph,prn:2,pseudo_cd_ph:205892308.270450413227
measnum = 0,full_prange = 22036374.090962
$oldmeas,msRange:0.000000,x:8715649.363758,y:19370668.573516,z:16646354.568764,vx:-1781.617188,vy:-917.410034,vz:2061.821289,tb:-0.000223831961
$newmeas,x:8715780.321587,y:19370736.008056,z:16646203.012787,vx:-1781.597778,vy:-917.407837,vz:2061.846191,tb:-0.000223831961
$pseudo_cd_ph,prn:6,pseudo_cd_ph:205892295.210225999355
measnum = 1,full_prange = 20980408.709642
$oldmeas,msRange:70.073666,x:-5083116.929641,y:14456029.961888,z:21732343.332229,vx:-2255.816895,vy:-1564.970581,vz:517.779907,tb:0.000193622255
$newmeas,x:-5082959.060917,y:14456139.483638,z:21732307.095251,vx:-2255.806641,vy:-1564.977539,vz:517.812195,tb:0.000193622256
$pseudo_cd_ph,prn:12,pseudo_cd_ph:205892303.741006076336
measnum = 2,full_prange = 22633468.816408
$oldmeas,msRange:75.049476,x:11112375.172958,y:13538026.286688,z:19804460.683416,vx:-511.402130,vy:2500.999023,vz:-1390.822998,tb:0.000238417320
$newmeas,x:11112413.782872,y:13537837.468028,z:19804565.685339,vx:-511.416016,vy:2501.010010,vz:-1390.790771,tb:0.000238417321
$pseudo_cd_ph,prn:17,pseudo_cd_ph:205892313.316463142633
measnum = 3,full_prange = 21508732.553147
$oldmeas,msRange:71.942235,x:-19367956.776076,y:15018603.590655,z:10529792.251012,vx:-1255.287109,vy:294.455109,vz:-2846.927734,tb:0.000062158047
$newmeas,x:-19367866.714093,y:15018582.464717,z:10529996.504436,vx:-1255.312012,vy:294.458893,vz:-2846.911865,tb:0.000062158046
$pseudo_cd_ph,prn:19,pseudo_cd_ph:205892314.950522303581
measnum = 4,full_prange = 20606411.392102
$oldmeas,msRange:68.849052,x:-14072694.338259,y:15829133.993310,z:15769326.688688,vx:-1993.324951,vy:506.659332,vz:-2237.229492,tb:-0.000313602209
$newmeas,x:-14072557.325172,y:15829099.167858,z:15769480.465168,vx:-1993.345825,vy:506.657135,vz:-2237.206055,tb:-0.000313602209
$pseudo_cd_ph,prn:28,pseudo_cd_ph:205892311.327341973782
measnum = 5,full_prange = 23815564.555668
$oldmeas,msRange:79.896389,x:-12600981.134210,y:18947352.095189,z:-13173174.481674,vx:153.653915,vy:-1769.063599,vz:-2565.146484,tb:0.000767800175
$newmeas,x:-12600993.340657,y:18947492.628844,z:-13172970.705084,vx:153.657776,vy:-1769.036865,vz:-2565.169434,tb:0.000767800175
$GNGGA,100316.000,2329.0185,N,10330.2470,E,1,00,99.0,0.0,M,,,,0000*22
$GNRMC,100316.000,A,2329.0185,N,10330.2470,E,0.00,0.00,280519,,*19
$GPGSA,A,1,,,,,,,,,,,,,99.0,99.0,99.0*00
$BDGSA,A,1,,,,,,,,,,,,,99.0,99.0,99.0*11
$GLGSA,A,1,,,,,,,,,,,,,99.0,99.0,99.0*1C
$GPGSV,2,1,08,02,32,276,39,06,53,325,45,12,05,324,38,17,50,040,45*73
$GPGSV,2,2,08,19,48,007,44,28,48,157,42,04,00,000,33,09,16,114,00*7F
$BDGSV,3,1,12,01,46,119,41,02,54,232,40,03,66,172,45,04,27,104,40*64
$BDGSV,3,2,12,05,30,253,39,08,48,359,42,10,66,217,41,12,40,339,43*66
$BDGSV,3,3,12,13,50,313,43,19,27,053,42,22,56,119,44,26,30,218,42*67
$B3CN0,0,0,0,0,0,0,0,0,0,0,0,0,0,0*4C
$ini_pos,lastpos_good = 1,ini_pos.x:-1578917.000000,ini_pos.y:5312772.000000,ini_pos.z:3146357.000000
$rtc_local_time,localRTC.weeks:2055,localRTC.seconds:205892.633069,localGtime.weeks:2055,localGtime.seconds:209015.000000
$pseudo_cd_ph,prn:2,pseudo_cd_ph:205893308.272015005350
measnum = 0,full_prange = 22035895.369756
$oldmeas,msRange:0.000000,x:8713867.614508,y:19369751.148532,z:16648416.221172,vx:-1781.881348,vy:-917.440002,vz:2061.483643,tb:-0.000223831965
$newmeas,x:8713998.588911,y:19369818.583808,z:16648264.693307,vx:-1781.861938,vy:-917.437805,vz:2061.508545,tb:-0.000223831965
$pseudo_cd_ph,prn:6,pseudo_cd_ph:205893295.210862159729
measnum = 1,full_prange = 20980208.323439
$oldmeas,msRange:70.074177,x:-5085372.820249,y:14454465.041157,z:21732860.881801,vx:-2255.964355,vy:-1564.870972,vz:517.319275,tb:0.000193622245
$newmeas,x:-5085214.942710,y:14454574.554897,z:21732824.677409,vx:-2255.954102,vy:-1564.877930,vz:517.351501,tb:0.000193622246
$pseudo_cd_ph,prn:12,pseudo_cd_ph:205893303.743822962046
measnum = 2,full_prange = 22632614.666659
$oldmeas,msRange:75.048128,x:11111863.862951,y:13540527.213044,z:19803069.646851,vx:-511.217926,vy:2500.853760,vz:-1391.250244,tb:0.000238417315
$newmeas,x:11111902.457504,y:13540338.412487,z:19803174.677060,vx:-511.231842,vy:2500.864746,vz:-1391.217896,tb:0.000238417316
$pseudo_cd_ph,prn:17,pseudo_cd_ph:205893313.317072540522
measnum = 3,full_prange = 21508540.195450
$oldmeas,msRange:71.942880,x:-19369211.889840,y:15018898.019520,z:10526945.212811,vx:-1254.940430,vy:294.402618,vz:-2847.148926,tb:0.000062158054
$newmeas,x:-19369121.853537,y:15018876.897538,z:10527149.480274,vx:-1254.965332,vy:294.406403,vz:-2847.133057,tb:0.000062158054
$pseudo_cd_ph,prn:19,pseudo_cd_ph:205893314.951505988836
measnum = 4,full_prange = 20606106.824353
$oldmeas,msRange:68.849374,x:-14074687.511346,y:15829640.668741,z:15767089.288584,vx:-1993.021240,vy:506.691559,vz:-2237.570801,tb:-0.000313602206
$newmeas,x:-14074550.521160,y:15829605.841590,z:15767243.086258,vx:-1993.042114,vy:506.689331,vz:-2237.547363,tb:-0.000313602207
$pseudo_cd_ph,prn:28,pseudo_cd_ph:205893311.326307952404
measnum = 5,full_prange = 23815864.879249
$oldmeas,msRange:79.898624,x:-12600827.504660,y:18945582.863065,z:-13175739.483599,vx:153.605194,vy:-1769.400757,vz:-2564.857422,tb:0.000767800171
$newmeas,x:-12600839.707391,y:18945723.425274,z:-13175535.727394,vx:153.609070,vy:-1769.373901,vz:-2564.880371,tb:0.000767800171
$GNGGA,100317.000,2329.0333,N,10330.3361,E,1,00,99.0,0.0,M,,,,0000*2A
$GNRMC,100317.000,A,2329.0333,N,10330.3361,E,0.00,0.00,280519,,*11
$GPGSA,A,1,,,,,,,,,,,,,99.0,99.0,99.0*00
$BDGSA,A,1,,,,,,,,,,,,,99.0,99.0,99.0*11
$GLGSA,A,1,,,,,,,,,,,,,99.0,99.0,99.0*1C
$GPGSV,2,1,08,02,38,272,39,06,59,328,45,12,10,323,39,17,49,046,45*76
$GPGSV,2,2,08,19,51,013,44,28,43,151,42,04,00,000,33,09,11,113,00*7F
$BDGSV,3,1,12,01,41,117,41,02,55,222,40,03,62,161,43,04,22,104,39*66
$BDGSV,3,2,12,05,33,248,38,08,51,003,42,10,65,203,41,12,45,341,43*66
$BDGSV,3,3,12,13,56,313,43,19,25,055,41,22,50,118,44,26,30,212,43*6A
$B3CN0,0,0,0,0,0,0,0,0,0,0,0,0,0,0*4C
$ini_pos,lastpos_good = 1,ini_pos.x:-1578917.000000,ini_pos.y:5312772.000000,ini_pos.z:3146357.000000
$rtc_local_time,localRTC.weeks:2055,localRTC.seconds:205893.633069,localGtime.weeks:2055,localGtime.seconds:209016.000000
$pseudo_cd_ph,prn:2,pseudo_cd_ph:205894308.273581027985
measnum = 0,full_prange = 22035416.219694
$oldmeas,msRange:0.000000,x:8712085.601084,y:19368833.693621,z:16650477.535907,vx:-1782.145508,vy:-917.469910,vz:2061.145996,tb:-0.000223831969
$newmeas,x:8712216.592055,y:19368901.129629,z:16650326.036157,vx:-1782.126099,vy:-917.467712,vz:2061.170654,tb:-0.000223831969
$pseudo_cd_ph,prn:6,pseudo_cd_ph:205894295.211499512196
measnum = 1,full_prange = 20980007.579855
$oldmeas,msRange:70.074688,x:-5087628.858346,y:14452900.219956,z:21733377.970681,vx:-2256.111816,vy:-1564.771484,vz:516.858521,tb:0.000193622235
$newmeas,x:-5087470.971998,y:14453009.725681,z:21733341.798876,vx:-2256.101562,vy:-1564.778442,vz:516.890808,tb:0.000193622236
$pseudo_cd_ph,prn:12,pseudo_cd_ph:205894303.746641576290
measnum = 2,full_prange = 22631759.998708
$oldmeas,msRange:75.046782,x:11111352.737126,y:13543027.993945,z:19801678.183135,vx:-511.033752,vy:2500.708252,vz:-1391.677368,tb:0.000238417310
$newmeas,x:11111391.316317,y:13542839.211501,z:19801783.241623,vx:-511.047668,vy:2500.719238,vz:-1391.645142,tb:0.000238417310
$pseudo_cd_ph,prn:17,pseudo_cd_ph:205894313.317683488131
measnum = 3,full_prange = 21508347.373158
$oldmeas,msRange:71.943525,x:-19370466.656896,y:15019192.395862,z:10524097.953492,vx:-1254.593750,vy:294.350067,vz:-2847.369873,tb:0.000062158062
$newmeas,x:-19370376.646275,y:15019171.277839,z:10524302.234987,vx:-1254.618652,vy:294.353851,vz:-2847.354004,tb:0.000062158062
$pseudo_cd_ph,prn:19,pseudo_cd_ph:205894314.952491164207
measnum = 4,full_prange = 20605801.809879
$oldmeas,msRange:68.849696,x:-14076680.380707,y:15830147.376348,z:15764851.547103,vx:-1992.717529,vy:506.723694,vz:-2237.912109,tb:-0.000313602204
$newmeas,x:-14076543.413425,y:15830112.547502,z:15765005.365963,vx:-1992.738403,vy:506.721497,vz:-2237.888672,tb:-0.000313602204
$pseudo_cd_ph,prn:28,pseudo_cd_ph:205894311.325278520584
measnum = 5,full_prange = 23816163.826915
$oldmeas,msRange:79.900859,x:-12600673.923852,y:18943813.293831,z:-13178304.196540,vx:153.556427,vy:-1769.737793,vz:-2564.568604,tb:0.000767800167
$newmeas,x:-12600686.122862,y:18943953.884583,z:-13178100.460737,vx:153.560303,vy:-1769.711060,vz:-2564.591553,tb:0.000767800168
$GNGGA,100318.000,2329.0481,N,10330.4251,E,1,00,99.0,-0.0,M,,,,0000*03
$GNRMC,100318.000,A,2329.0481,N,10330.4251,E,0.00,0.00,280519,,*15
$GPGSA,A,1,,,,,,,,,,,,,99.0,99.0,99.0*00
$BDGSA,A,1,,,,,,,,,,,,,99.0,99.0,99.0*11
$GLGSA,A,1,,,,,,,,,,,,,99.0,99.0,99.0*1C
$GPGSV,2,1,08,02,38,272,39,06,59,328,46,12,10,323,39,17,49,046,46*76
$GPGSV,2,2,08,19,51,013,44,28,43,151,42,04,00,000,33,09,11,113,00*7F
$BDGSV,3,1,12,01,41,117,41,02,55,222,40,03,62,161,42,04,22,104,39*67
$BDGSV,3,2,12,05,33,248,37,08,51,003,42,10,65,203,41,12,45,341,43*69
$BDGSV,3,3,12,13,56,313,43,19,25,055,42,22,50,118,44,26,30,212,43*69
$B3CN0,0,16,0,0,0,0,0,0,0,0,0,0,0,0*7B
$ini_pos,lastpos_good = 1,ini_pos.x:-1578917.000000,ini_pos.y:5312772.000000,ini_pos.z:3146357.000000
$rtc_local_time,localRTC.weeks:2055,localRTC.seconds:205894.633069,localGtime.weeks:2055,localGtime.seconds:209017.000000
$pseudo_cd_ph,prn:2,pseudo_cd_ph:205895308.275145918131
measnum = 0,full_prange = 22034937.409144
$oldmeas,msRange:0.000000,x:8710303.323509,y:19367916.208836,z:16652538.512927,vx:-1782.409668,vy:-917.499756,vz:2060.808105,tb:-0.000223831973
$newmeas,x:8710434.331048,y:19367983.645573,z:16652387.041292,vx:-1782.390259,vy:-917.497559,vz:2060.833008,tb:-0.000223831972
$pseudo_cd_ph,prn:6,pseudo_cd_ph:205895295.212136209011
measnum = 1,full_prange = 20979807.032830
$oldmeas,msRange:70.075200,x:-5089885.043880,y:14451335.498331,z:21733894.598858,vx:-2256.259277,vy:-1564.671875,vz:516.397827,tb:0.000193622225
$newmeas,x:-5089727.148725,y:14451444.996039,z:21733858.459639,vx:-2256.249023,vy:-1564.678833,vz:516.430054,tb:0.000193622226
$pseudo_cd_ph,prn:12,pseudo_cd_ph:205895303.749458670616
measnum = 2,full_prange = 22630905.786417
$oldmeas,msRange:75.045435,x:11110841.795469,y:13545528.629327,z:19800286.292299,vx:-510.849579,vy:2500.562744,vz:-1392.104370,tb:0.000238417305
$newmeas,x:11110880.359302,y:13545339.864996,z:19800391.379063,vx:-510.863495,vy:2500.573730,vz:-1392.072144,tb:0.000238417305
$pseudo_cd_ph,prn:17,pseudo_cd_ph:205895313.318293362856
measnum = 3,full_prange = 21508154.872509
$oldmeas,msRange:71.944170,x:-19371721.077229,y:15019486.719623,z:10521250.473116,vx:-1254.246948,vy:294.297455,vz:-2847.591064,tb:0.000062158070
$newmeas,x:-19371631.092289,y:15019465.605563,z:10521454.768640,vx:-1254.271851,vy:294.301239,vz:-2847.575195,tb:0.000062158069
$pseudo_cd_ph,prn:19,pseudo_cd_ph:205895314.953475952148
measnum = 4,full_prange = 20605496.911554
$oldmeas,msRange:68.850019,x:-14078672.946304,y:15830654.116080,z:15762613.464296,vx:-1992.413818,vy:506.755798,vz:-2238.253418,tb:-0.000313602201
$newmeas,x:-14078536.001929,y:15830619.285543,z:15762767.304338,vx:-1992.434692,vy:506.753601,vz:-2238.229980,tb:-0.000313602201
$pseudo_cd_ph,prn:28,pseudo_cd_ph:205895311.324249356985
measnum = 5,full_prange = 23816462.694170
$oldmeas,msRange:79.903094,x:-12600520.391836,y:18942043.387519,z:-13180868.620440,vx:153.507614,vy:-1770.074951,vz:-2564.279541,tb:0.000767800164
$newmeas,x:-12600532.587121,y:18942184.006813,z:-13180664.905044,vx:153.511490,vy:-1770.048096,vz:-2564.302490,tb:0.000767800164
$GNGGA,100319.000,2329.0628,N,10330.5142,E,1,00,99.0,0.0,M,,,,0000*2E
$GNRMC,100319.000,A,2329.0628,N,10330.5142,E,0.00,0.00,280519,,*15
$GPGSA,A,1,,,,,,,,,,,,,99.0,99.0,99.0*00
$BDGSA,A,1,,,,,,,,,,,,,99.0,99.0,99.0*11
$GLGSA,A,1,,,,,,,,,,,,,99.0,99.0,99.0*1C
$GPGSV,2,1,08,02,38,272,39,06,59,328,46,12,10,323,39,17,49,046,45*75
$GPGSV,2,2,08,19,51,013,45,28,43,151,43,04,00,000,34,09,11,113,00*78
$BDGSV,3,1,12,01,41,117,41,02,55,222,41,03,62,161,43,04,22,104,40*69
$BDGSV,3,2,12,05,33,248,38,08,51,003,43,10,65,203,41,12,45,341,43*67
$BDGSV,3,3,12,13,56,313,43,19,25,055,42,22,50,118,44,26,30,212,43*69
$B3CN0,36,18,0,0,0,0,0,20,0,0,0,0,0,0*72
$ini_pos,lastpos_good = 1,ini_pos.x:-1578917.000000,ini_pos.y:5312772.000000,ini_pos.z:3146357.000000
$rtc_local_time,localRTC.weeks:2055,localRTC.seconds:205895.633069,localGtime.weeks:2055,localGtime.seconds:209018.000000
$pseudo_cd_ph,prn:2,pseudo_cd_ph:205896308.276704609394
measnum = 0,full_prange = 22034460.456971
$oldmeas,msRange:0.000000,x:8708520.781806,y:19366998.694233,z:16654599.152191,vx:-1782.673828,vy:-917.529541,vz:2060.470459,tb:-0.000223831977
$newmeas,x:8708651.805922,y:19367066.131700,z:16654447.708662,vx:-1782.654419,vy:-917.527344,vz:2060.495361,tb:-0.000223831976
$pseudo_cd_ph,prn:6,pseudo_cd_ph:205896295.212765574455
measnum = 1,full_prange = 20979608.683696
$oldmeas,msRange:70.075711,x:-5092141.376802,y:14449770.876329,z:21734410.766321,vx:-2256.406738,vy:-1564.572266,vz:515.937134,tb:0.000193622215
$newmeas,x:-5091983.472827,y:14449880.366029,z:21734374.659685,vx:-2256.396240,vy:-1564.579224,vz:515.969360,tb:0.000193622216
$pseudo_cd_ph,prn:12,pseudo_cd_ph:205896303.752269327641
measnum = 2,full_prange = 22630053.503981
$oldmeas,msRange:75.044089,x:11110331.037969,y:13548029.119121,z:19798893.974375,vx:-510.665436,vy:2500.416992,vz:-1392.531494,tb:0.000238417300
$newmeas,x:11110369.586449,y:13547840.372891,z:19798999.089420,vx:-510.679352,vy:2500.427979,vz:-1392.499268,tb:0.000238417300
$pseudo_cd_ph,prn:17,pseudo_cd_ph:205896313.318896144629
measnum = 3,full_prange = 21507964.498273
$oldmeas,msRange:71.944816,x:-19372975.150825,y:15019780.990747,z:10518402.771739,vx:-1253.900269,vy:294.244781,vz:-2847.812012,tb:0.000062158078
$newmeas,x:-19372885.191558,y:15019759.880652,z:10518607.081308,vx:-1253.925171,vy:294.248566,vz:-2847.796143,tb:0.000062158077
$pseudo_cd_ph,prn:19,pseudo_cd_ph:205896314.954453021288
measnum = 4,full_prange = 20605194.327267
$oldmeas,msRange:68.850341,x:-14080665.208101,y:15831160.887886,z:15760375.040211,vx:-1992.109985,vy:506.787842,vz:-2238.594727,tb:-0.000313602198
$newmeas,x:-14080528.286619,y:15831126.055658,z:15760528.901449,vx:-1992.130859,vy:506.785645,vz:-2238.571289,tb:-0.000313602198
$pseudo_cd_ph,prn:28,pseudo_cd_ph:205896311.323212891817
measnum = 5,full_prange = 23816763.750380
$oldmeas,msRange:79.905329,x:-12600366.908663,y:18940273.144164,z:-13183432.755239,vx:153.458740,vy:-1770.411865,vz:-2563.990234,tb:0.000767800160
$newmeas,x:-12600379.100220,y:18940413.792011,z:-13183229.060238,vx:153.462631,vy:-1770.385132,vz:-2564.013184,tb:0.000767800160
$GNGGA,100320.000,2329.0775,N,10330.6032,E,1,00,99.0,0.0,M,,,,0000*28
$GNRMC,100320.000,A,2329.0775,N,10330.6032,E,0.00,0.00,280519,,*13
$GPGSA,A,1,,,,,,,,,,,,,99.0,99.0,99.0*00
$BDGSA,A,1,,,,,,,,,,,,,99.0,99.0,99.0*11
$GLGSA,A,1,,,,,,,,,,,,,99.0,99.0,99.0*1C
$GPGSV,2,1,08,02,38,272,38,06,59,328,46,12,10,323,38,17,49,046,46*76
$GPGSV,2,2,08,19,51,013,44,28,43,151,43,04,00,000,33,09,11,113,00*7E
$BDGSV,3,1,12,01,41,117,41,02,55,222,40,03,62,161,42,04,22,104,39*67
$BDGSV,3,2,12,05,33,248,37,08,51,003,42,10,65,203,41,12,45,341,43*69
$BDGSV,3,3,12,13,56,313,43,19,25,055,42,22,50,118,45,26,30,212,43*68
$B3CN0,0,0,0,0,0,0,0,27,0,0,0,0,0,0*79
$ini_pos,lastpos_good = 1,ini_pos.x:-1578917.000000,ini_pos.y:5312772.000000,ini_pos.z:3146357.000000
$rtc_local_time,localRTC.weeks:2055,localRTC.seconds:205896.633069,localGtime.weeks:2055,localGtime.seconds:209019.000000
$pseudo_cd_ph,prn:2,pseudo_cd_ph:205897308.278265774250
measnum = 0,full_prange = 22033982.763235
$oldmeas,msRange:0.000000,x:8706737.975998,y:19366081.149864,z:16656659.453660,vx:-1782.937866,vy:-917.559265,vz:2060.132568,tb:-0.000223831980
$newmeas,x:8706869.016684,y:19366148.588055,z:16656508.038243,vx:-1782.918457,vy:-917.557068,vz:2060.157471,tb:-0.000223831980
$pseudo_cd_ph,prn:6,pseudo_cd_ph:205897295.213400840759
measnum = 1,full_prange = 20979408.565528
$oldmeas,msRange:70.076223,x:-5094397.857061,y:14448206.353997,z:21734926.473059,vx:-2256.553955,vy:-1564.472534,vz:515.476379,tb:0.000193622205
$newmeas,x:-5094239.944283,y:14448315.835676,z:21734890.399010,vx:-2256.543701,vy:-1564.479492,vz:515.508606,tb:0.000193622206
$pseudo_cd_ph,prn:12,pseudo_cd_ph:205897303.755090951920
measnum = 2,full_prange = 22629197.933645
$oldmeas,msRange:75.042743,x:11109820.464614,y:13550529.463262,z:19797501.229393,vx:-510.481293,vy:2500.271484,vz:-1392.958496,tb:0.000238417295
$newmeas,x:11109858.997737,y:13550340.735165,z:19797606.372699,vx:-510.495209,vy:2500.282471,vz:-1392.926270,tb:0.000238417295
$pseudo_cd_ph,prn:17,pseudo_cd_ph:205897313.319504261017
measnum = 3,full_prange = 21507772.524759
$oldmeas,msRange:71.945461,x:-19374228.877670,y:15020075.209177,z:10515554.849421,vx:-1253.553467,vy:294.192078,vz:-2848.032959,tb:0.000062158086
$newmeas,x:-19374138.944083,y:15020054.103053,z:10515759.173016,vx:-1253.578369,vy:294.195862,vz:-2848.017090,tb:0.000062158085
$pseudo_cd_ph,prn:19,pseudo_cd_ph:205897314.955434679985
measnum = 4,full_prange = 20604890.367066
$oldmeas,msRange:68.850664,x:-14082657.166062,y:15831667.691714,z:15758136.274898,vx:-1991.806152,vy:506.819824,vz:-2238.936035,tb:-0.000313602196
$newmeas,x:-14082520.267484,y:15831632.857801,z:15758290.157318,vx:-1991.827026,vy:506.817627,vz:-2238.912598,tb:-0.000313602196
$pseudo_cd_ph,prn:28,pseudo_cd_ph:205897311.322180628777
measnum = 5,full_prange = 23817063.546824
$oldmeas,msRange:79.907564,x:-12600213.474381,y:18938502.563799,z:-13185996.600880,vx:153.409821,vy:-1770.748901,vz:-2563.701172,tb:0.000767800157
$newmeas,x:-12600225.662206,y:18938643.240189,z:-13185792.926290,vx:153.413712,vy:-1770.722168,vz:-2563.724121,tb:0.000767800157
$GNGGA,100321.000,2329.0922,N,10330.6923,E,1,00,99.0,0.0,M,,,,0000*2C
$GNRMC,100321.000,A,2329.0922,N,10330.6923,E,0.00,0.00,280519,,*17
$GPGSA,A,1,,,,,,,,,,,,,99.0,99.0,99.0*00
$BDGSA,A,1,,,,,,,,,,,,,99.0,99.0,99.0*11
$GLGSA,A,1,,,,,,,,,,,,,99.0,99.0,99.0*1C
$GPGSV,2,1,08,02,38,272,38,06,59,328,46,12,10,323,37,17,49,046,45*7A
$GPGSV,2,2,08,19,51,013,44,28,43,151,42,04,00,000,32,09,11,113,00*7E
$BDGSV,3,1,12,01,41,117,41,02,55,222,40,03,62,161,43,04,22,104,37*68
$BDGSV,3,2,12,05,33,248,37,08,51,003,42,10,65,203,41,12,45,341,43*69
$BDGSV,3,3,12,13,56,313,43,19,25,055,41,22,50,118,44,26,30,212,43*6A
$B3CN0,0,0,0,0,0,0,0,27,0,0,0,0,0,0*79
$ini_pos,lastpos_good = 1,ini_pos.x:-1578917.000000,ini_pos.y:5312772.000000,ini_pos.z:3146357.000000
$rtc_local_time,localRTC.weeks:2055,localRTC.seconds:205897.633069,localGtime.weeks:2055,localGtime.seconds:209020.000000
$pseudo_cd_ph,prn:2,pseudo_cd_ph:205898308.279824584723
measnum = 0,full_prange = 22033505.775325
$oldmeas,msRange:0.000000,x:8704954.906109,y:19365163.575784,z:16658719.417294,vx:-1783.202026,vy:-917.588928,vz:2059.794678,tb:-0.000223831984
$newmeas,x:8705085.963366,y:19365231.014697,z:16658568.029985,vx:-1783.182617,vy:-917.586792,vz:2059.819580,tb:-0.000223831984
$pseudo_cd_ph,prn:6,pseudo_cd_ph:205898295.214034616947
measnum = 1,full_prange = 20979208.894085
$oldmeas,msRange:70.076734,x:-5096654.484606,y:14446641.931381,z:21735441.719063,vx:-2256.701172,vy:-1564.372803,vz:515.015625,tb:0.000193622195
$newmeas,x:-5096496.563026,y:14446751.405038,z:21735405.677599,vx:-2256.690918,vy:-1564.379761,vz:515.047913,tb:0.000193622196
$pseudo_cd_ph,prn:12,pseudo_cd_ph:205898303.757908612490
measnum = 2,full_prange = 22628343.551599
$oldmeas,msRange:75.041398,x:11109310.075391,y:13553029.661682,z:19796108.057386,vx:-510.297180,vy:2500.125732,vz:-1393.385498,tb:0.000238417290
$newmeas,x:11109348.593161,y:13552840.951712,z:19796213.228952,vx:-510.311066,vy:2500.136719,vz:-1393.353271,tb:0.000238417290
$pseudo_cd_ph,prn:17,pseudo_cd_ph:205898313.320111900568
measnum = 3,full_prange = 21507580.694197
$oldmeas,msRange:71.946107,x:-19375482.257750,y:15020369.374856,z:10512706.706221,vx:-1253.206787,vy:294.139282,vz:-2848.253662,tb:0.000062158093
$newmeas,x:-19375392.349843,y:15020348.272707,z:10512911.043837,vx:-1253.231567,vy:294.143097,vz:-2848.237793,tb:0.000062158093
$pseudo_cd_ph,prn:19,pseudo_cd_ph:205898314.956412792206
measnum = 4,full_prange = 20604587.470071
$oldmeas,msRange:68.850987,x:-14084648.820152,y:15832174.527514,z:15755897.168408,vx:-1991.502197,vy:506.851776,vz:-2239.277100,tb:-0.000313602193
$newmeas,x:-14084511.944472,y:15832139.691916,z:15756051.072013,vx:-1991.523071,vy:506.849579,vz:-2239.253662,tb:-0.000313602193
$pseudo_cd_ph,prn:28,pseudo_cd_ph:205898311.321146816015
measnum = 5,full_prange = 23817363.807863
$oldmeas,msRange:79.909800,x:-12600060.089041,y:18936731.646458,z:-13188560.157305,vx:153.360855,vy:-1771.085815,vz:-2563.411865,tb:0.000767800153
$newmeas,x:-12600072.273129,y:18936872.351391,z:-13188356.503125,vx:153.364746,vy:-1771.059082,vz:-2563.434814,tb:0.000767800153
$GNGGA,100322.000,2329.1069,N,10330.7813,E,1,00,99.0,0.0,M,,,,0000*2B
$GNRMC,100322.000,A,2329.1069,N,10330.7813,E,0.00,0.00,280519,,*10
$GPGSA,A,1,,,,,,,,,,,,,99.0,99.0,99.0*00
$BDGSA,A,1,,,,,,,,,,,,,99.0,99.0,99.0*11
$GLGSA,A,1,,,,,,,,,,,,,99.0,99.0,99.0*1C
$GPGSV,3,1,10,02,38,272,38,06,59,328,45,05,00,000,36,12,10,323,38*76
$GPGSV,3,2,10,17,49,046,45,19,51,013,44,28,43,151,42,04,00,000,32*74
$GPGSV,3,3,10,24,00,000,32,09,11,113,00*75
$BDGSV,3,1,12,01,41,117,42,02,55,222,40,03,62,161,43,04,22,104,40*6B
$BDGSV,3,2,12,05,33,248,37,08,51,003,42,10,65,203,41,12,45,341,43*69
$BDGSV,3,3,12,13,56,313,43,19,25,055,42,22,50,118,44,26,30,212,43*69
$B3CN0,0,0,0,0,0,0,0,27,0,0,0,0,0,0*79
$ini_pos,lastpos_good = 1,ini_pos.x:-1578917.000000,ini_pos.y:5312772.000000,ini_pos.z:3146357.000000
$rtc_local_time,localRTC.weeks:2055,localRTC.seconds:205898.633069,localGtime.weeks:2055,localGtime.seconds:209020.999999
$pseudo_cd_ph,prn:2,pseudo_cd_ph:205899308.281382769346
measnum = 0,full_prange = 22033028.975040
$oldmeas,msRange:0.000000,x:8703171.572161,y:19364245.972047,z:16660779.043051,vx:-1783.466064,vy:-917.618591,vz:2059.456787,tb:-0.000223831988
$newmeas,x:8703302.645988,y:19364313.411678,z:16660627.683851,vx:-1783.446655,vy:-917.616394,vz:2059.481689,tb:-0.000223831988
$pseudo_cd_ph,prn:6,pseudo_cd_ph:205899295.214666903019
measnum = 1,full_prange = 20979009.669369
$oldmeas,msRange:70.077246,x:-5098911.259388,y:14445077.608527,z:21735956.504320,vx:-2256.848389,vy:-1564.272949,vz:514.554871,tb:0.000193622185
$newmeas,x:-5098753.329005,y:14445187.074162,z:21735920.495441,vx:-2256.838135,vy:-1564.280029,vz:514.587158,tb:0.000193622186
$pseudo_cd_ph,prn:12,pseudo_cd_ph:205899303.760720342398
measnum = 2,full_prange = 22627490.947520
$oldmeas,msRange:75.040053,x:11108799.870287,y:13555529.714315,z:19794714.458383,vx:-510.113068,vy:2499.979736,vz:-1393.812500,tb:0.000238417285
$newmeas,x:11108838.372710,y:13555341.022461,z:19794819.658214,vx:-510.126953,vy:2499.990723,vz:-1393.780273,tb:0.000238417285
$pseudo_cd_ph,prn:17,pseudo_cd_ph:205899313.320718884468
measnum = 3,full_prange = 21507389.060195
$oldmeas,msRange:71.946753,x:-19376735.291051,y:15020663.487728,z:10509858.342197,vx:-1252.859985,vy:294.086456,vz:-2848.474609,tb:0.000062158101
$newmeas,x:-19376645.408824,y:15020642.389556,z:10510062.693833,vx:-1252.884766,vy:294.090240,vz:-2848.458740,tb:0.000062158101
$pseudo_cd_ph,prn:19,pseudo_cd_ph:205899314.957390427589
measnum = 4,full_prange = 20604284.716029
$oldmeas,msRange:68.851311,x:-14086640.170333,y:15832681.395232,z:15753657.720788,vx:-1991.198242,vy:506.883667,vz:-2239.618164,tb:-0.000313602190
$newmeas,x:-14086503.317552,y:15832646.557955,z:15753811.645576,vx:-1991.219116,vy:506.881500,vz:-2239.594727,tb:-0.000313602190
$pseudo_cd_ph,prn:28,pseudo_cd_ph:205899311.320110678673
measnum = 5,full_prange = 23817664.765793
$oldmeas,msRange:79.912035,x:-12599906.752692,y:18934960.392174,z:-13191123.424454,vx:153.311844,vy:-1771.422852,vz:-2563.122559,tb:0.000767800149
$newmeas,x:-12599918.933040,y:18935101.125653,z:-13190919.790685,vx:153.315735,vy:-1771.395996,vz:-2563.145508,tb:0.000767800150
$GNGGA,100323.000,2029.1228,N,10415.0963,E,1,00,99.0,0.0,M,,,,0000*2F
$GNRMC,100323.000,A,2029.1228,N,10415.0963,E,0.00,0.00,280519,,*14
$GPGSA,A,1,,,,,,,,,,,,,99.0,99.0,99.0*00
$BDGSA,A,1,,,,,,,,,,,,,99.0,99.0,99.0*11
$GLGSA,A,1,,,,,,,,,,,,,99.0,99.0,99.0*1C
$GPGSV,3,1,10,02,38,272,39,06,59,328,46,05,00,000,36,12,10,323,39*75
$GPGSV,3,2,10,17,49,046,46,19,51,013,44,28,43,151,43,04,00,000,32*76
$GPGSV,3,3,10,24,00,000,34,09,11,113,00*73
$BDGSV,3,1,12,01,41,117,40,02,55,222,40,03,62,161,43,04,22,104,39*67
$BDGSV,3,2,12,05,33,248,37,07,43,167,38,08,51,003,42,10,65,203,42*62
$BDGSV,3,3,12,12,45,341,43,13,56,313,43,19,25,055,42,22,50,118,44*6B
$B3CN0,0,0,0,0,0,0,0,27,0,0,0,0,0,0*79
$ini_pos,lastpos_good = 1,ini_pos.x:-1578917.000000,ini_pos.y:5312772.000000,ini_pos.z:3146357.000000
$rtc_local_time,localRTC.weeks:2055,localRTC.seconds:205899.633069,localGtime.weeks:2055,localGtime.seconds:209021.999999
$pseudo_cd_ph,prn:2,pseudo_cd_ph:205900308.282940715551
measnum = 0,full_prange = 22032552.246232
$oldmeas,msRange:0.000000,x:8701387.974177,y:19363328.338706,z:16662838.330892,vx:-1783.730103,vy:-917.648132,vz:2059.118896,tb:-0.000223831992
$newmeas,x:8701519.064572,y:19363395.779052,z:16662686.999803,vx:-1783.710693,vy:-917.645996,vz:2059.143799,tb:-0.000223831992
$pseudo_cd_ph,prn:6,pseudo_cd_ph:205900295.215300112963
measnum = 1,full_prange = 20978810.167682
$oldmeas,msRange:70.077758,x:-5101168.181356,y:14443513.385482,z:21736470.828820,vx:-2256.995605,vy:-1564.173218,vz:514.094116,tb:0.000193622176
$newmeas,x:-5101010.242177,y:14443622.843090,z:21736434.852527,vx:-2256.985352,vy:-1564.180176,vz:514.126404,tb:0.000193622176
$pseudo_cd_ph,prn:12,pseudo_cd_ph:205900303.763531386852
measnum = 2,full_prange = 22626638.548936
$oldmeas,msRange:75.038708,x:11108289.849291,y:13558029.621095,z:19793320.432417,vx:-509.928955,vy:2499.833984,vz:-1394.239502,tb:0.000238417280
$newmeas,x:11108328.336368,y:13557840.947359,z:19793425.660509,vx:-509.942871,vy:2499.844971,vz:-1394.207275,tb:0.000238417280
$pseudo_cd_ph,prn:17,pseudo_cd_ph:205900313.321327149868
measnum = 3,full_prange = 21507197.042008
$oldmeas,msRange:71.947399,x:-19377987.977559,y:15020957.547735,z:10507009.757407,vx:-1252.513184,vy:294.033569,vz:-2848.695312,tb:0.000062158109
$newmeas,x:-19377898.121013,y:15020936.453546,z:10507214.123054,vx:-1252.538086,vy:294.037354,vz:-2848.679443,tb:0.000062158108
$pseudo_cd_ph,prn:19,pseudo_cd_ph:205900314.958370327950
measnum = 4,full_prange = 20603981.282965
$oldmeas,msRange:68.851635,x:-14088631.216569,y:15833188.294819,z:15751417.932090,vx:-1990.894287,vy:506.915527,vz:-2239.959229,tb:-0.000313602187
$newmeas,x:-14088494.386694,y:15833153.455866,z:15751571.878050,vx:-1990.915161,vy:506.913330,vz:-2239.935791,tb:-0.000313602188
$pseudo_cd_ph,prn:28,pseudo_cd_ph:205900311.319076180458
measnum = 5,full_prange = 23817965.232324
$oldmeas,msRange:79.914270,x:-12599753.465384,y:18933188.800981,z:-13193686.402269,vx:153.262772,vy:-1771.759644,vz:-2562.833252,tb:0.000767800146
$newmeas,x:-12599765.641988,y:18933329.563001,z:-13193482.788921,vx:153.266678,vy:-1771.732910,vz:-2562.856201,tb:0.000767800146
$GNGGA,100324.000,2029.1219,N,10415.1706,E,1,00,99.0,0.0,M,,,,0000*26
$GNRMC,100324.000,A,2029.1219,N,10415.1706,E,0.00,0.00,280519,,*1D
$GPGSA,A,1,,,,,,,,,,,,,99.0,99.0,99.0*00
$BDGSA,A,1,,,,,,,,,,,,,99.0,99.0,99.0*11
$GLGSA,A,1,,,,,,,,,,,,,99.0,99.0,99.0*1C
$GPGSV,3,1,10,02,38,272,39,06,59,328,45,05,00,000,37,12,10,323,38*76
$GPGSV,3,2,10,17,49,046,45,19,51,013,44,28,43,151,43,04,00,000,32*75
$GPGSV,3,3,10,24,00,000,35,09,11,113,00*72
$BDGSV,3,1,12,01,41,117,41,02,55,222,40,03,62,161,42,04,22,104,38*66
$BDGSV,3,2,12,05,33,248,38,07,43,167,41,08,51,003,43,10,65,203,41*61
$BDGSV,3,3,12,12,45,341,43,13,56,313,43,19,25,055,42,22,50,118,44*6B
$B3CN0,0,0,0,0,0,0,0,27,0,0,0,0,0,0*79
$ini_pos,lastpos_good = 1,ini_pos.x:-1578917.000000,ini_pos.y:5312772.000000,ini_pos.z:3146357.000000
$rtc_local_time,localRTC.weeks:2055,localRTC.seconds:205900.633069,localGtime.weeks:2055,localGtime.seconds:209022.999999
$pseudo_cd_ph,prn:2,pseudo_cd_ph:205901308.284499168396
measnum = 0,full_prange = 22032075.365536
$oldmeas,msRange:0.000000,x:8699604.112181,y:19362410.675816,z:16664897.280776,vx:-1783.994019,vy:-917.677673,vz:2058.781006,tb:-0.000223831996
$newmeas,x:8699735.219141,y:19362478.116872,z:16664745.977801,vx:-1783.974609,vy:-917.675537,vz:2058.805908,tb:-0.000223831995
$pseudo_cd_ph,prn:6,pseudo_cd_ph:205901295.215931564569
measnum = 1,full_prange = 20978611.193131
$oldmeas,msRange:70.078270,x:-5103425.250459,y:14441949.262292,z:21736984.692554,vx:-2257.142822,vy:-1564.073242,vz:513.633362,tb:0.000193622166
$newmeas,x:-5103267.302484,y:14442058.711873,z:21736948.748845,vx:-2257.132324,vy:-1564.080322,vz:513.665588,tb:0.000193622166
$pseudo_cd_ph,prn:12,pseudo_cd_ph:205901303.766342341900
measnum = 2,full_prange = 22625786.177155
$oldmeas,msRange:75.037364,x:11107780.012389,y:13560529.381954,z:19791925.979518,vx:-509.744873,vy:2499.687988,vz:-1394.666382,tb:0.000238417275
$newmeas,x:11107818.484123,y:13560340.726341,z:19792031.235866,vx:-509.758759,vy:2499.698975,vz:-1394.634155,tb:0.000238417275
$pseudo_cd_ph,prn:17,pseudo_cd_ph:205901313.321933507919
measnum = 3,full_prange = 21507005.595630
$oldmeas,msRange:71.948046,x:-19379240.317259,y:15021251.554820,z:10504160.951911,vx:-1252.166382,vy:293.980621,vz:-2848.916016,tb:0.000062158117
$newmeas,x:-19379150.486393,y:15021230.464618,z:10504365.331571,vx:-1252.191162,vy:293.984406,vz:-2848.900146,tb:0.000062158116
$pseudo_cd_ph,prn:19,pseudo_cd_ph:205901314.959348201752
measnum = 4,full_prange = 20603678.457447
$oldmeas,msRange:68.851958,x:-14090621.958825,y:15833695.226222,z:15749177.802362,vx:-1990.590332,vy:506.947296,vz:-2240.300293,tb:-0.000313602185
$newmeas,x:-14090485.151854,y:15833660.385596,z:15749331.769497,vx:-1990.611206,vy:506.945129,vz:-2240.276855,tb:-0.000313602185
$pseudo_cd_ph,prn:28,pseudo_cd_ph:205901311.318039804697
measnum = 5,full_prange = 23818266.261730
$oldmeas,msRange:79.916506,x:-12599600.227167,y:18931416.872912,z:-13196249.090694,vx:153.213654,vy:-1772.096558,vz:-2562.543701,tb:0.000767800142
$newmeas,x:-12599612.400023,y:18931557.663475,z:-13196045.497766,vx:153.217560,vy:-1772.069824,vz:-2562.566895,tb:0.000767800142
$GNGGA,100325.000,2029.1210,N,10415.2448,E,1,00,99.0,0.0,M,,,,0000*24
$GNRMC,100325.000,A,2029.1210,N,10415.2448,E,0.00,0.00,280519,,*1F
$GPGSA,A,1,,,,,,,,,,,,,99.0,99.0,99.0*00
$BDGSA,A,1,,,,,,,,,,,,,99.0,99.0,99.0*11
$GLGSA,A,1,,,,,,,,,,,,,99.0,99.0,99.0*1C
$GPGSV,3,1,10,02,36,276,38,06,55,330,45,05,00,000,36,12,07,323,38*7F
$GPGSV,3,2,10,17,47,042,45,19,47,011,44,28,47,150,42,04,00,000,31*7D
$GPGSV,3,3,10,24,00,000,35,09,13,112,00*71
$BDGSV,3,1,12,01,43,115,40,02,57,227,39,03,65,161,42,04,24,102,40*66
$BDGSV,3,2,12,05,34,251,36,07,46,167,41,08,48,002,42,10,68,208,41*6B
$BDGSV,3,3,12,12,41,342,43,13,53,316,43,19,24,053,42,22,53,114,44*64
$B3CN0,0,0,0,0,0,0,0,23,0,0,0,0,0,0*7D
$ini_pos,lastpos_good = 1,ini_pos.x:-1578917.000000,ini_pos.y:5312772.000000,ini_pos.z:3146357.000000
$rtc_local_time,localRTC.weeks:2055,localRTC.seconds:205901.633069,localGtime.weeks:2055,localGtime.seconds:209023.999999
$pseudo_cd_ph,prn:2,pseudo_cd_ph:205902308.286058783531
measnum = 0,full_prange = 22031598.136395
$oldmeas,msRange:0.000000,x:8697819.986196,y:19361492.983430,z:16666955.892663,vx:-1784.258057,vy:-917.707153,vz:2058.442871,tb:-0.000223832000
$newmeas,x:8697951.109715,y:19361560.425190,z:16666804.617805,vx:-1784.238647,vy:-917.704956,vz:2058.467773,tb:-0.000223831999
$pseudo_cd_ph,prn:6,pseudo_cd_ph:205902295.216561496258
measnum = 1,full_prange = 20978412.674241
$oldmeas,msRange:70.078782,x:-5105682.466648,y:14440385.239004,z:21737498.095509,vx:-2257.289795,vy:-1563.973389,vz:513.172607,tb:0.000193622156
$newmeas,x:-5105524.509877,y:14440494.680557,z:21737462.184384,vx:-2257.279541,vy:-1563.980347,vz:513.204834,tb:0.000193622156
$pseudo_cd_ph,prn:12,pseudo_cd_ph:205902303.769155919552
measnum = 2,full_prange = 22624933.019138
$oldmeas,msRange:75.036020,x:11107270.359571,y:13563028.996825,z:19790531.099718,vx:-509.560791,vy:2499.541992,vz:-1395.093262,tb:0.000238417270
$newmeas,x:11107308.815962,y:13562840.359346,z:19790636.384314,vx:-509.574677,vy:2499.552979,vz:-1395.061035,tb:0.000238417270
$pseudo_cd_ph,prn:17,pseudo_cd_ph:205902313.322538912296
measnum = 3,full_prange = 21506814.435156
$oldmeas,msRange:71.948693,x:-19380492.310137,y:15021545.508927,z:10501311.925767,vx:-1251.819458,vy:293.927612,vz:-2849.136475,tb:0.000062158124
$newmeas,x:-19380402.504951,y:15021524.422715,z:10501516.319437,vx:-1251.844360,vy:293.931427,vz:-2849.120605,tb:0.000062158124
$pseudo_cd_ph,prn:19,pseudo_cd_ph:205902314.960324853659
measnum = 4,full_prange = 20603375.998244
$oldmeas,msRange:68.852283,x:-14092612.397064,y:15834202.189390,z:15746937.331655,vx:-1990.286255,vy:506.979065,vz:-2240.641357,tb:-0.000313602182
$newmeas,x:-14092475.612997,y:15834167.347094,z:15747091.319962,vx:-1990.307129,vy:506.976868,vz:-2240.617920,tb:-0.000313602182
$pseudo_cd_ph,prn:28,pseudo_cd_ph:205902311.317000269890
measnum = 5,full_prange = 23818568.238193
$oldmeas,msRange:79.918741,x:-12599447.038090,y:18929644.608002,z:-13198811.489668,vx:153.164490,vy:-1772.433350,vz:-2562.254395,tb:0.000767800138
$newmeas,x:-12599459.207194,y:18929785.427110,z:-13198607.917158,vx:153.168396,vy:-1772.406616,vz:-2562.277344,tb:0.000767800139
$GNGGA,100326.000,2029.1202,N,10415.3191,E,1,00,99.0,0.0,M,,,,0000*24
$GNRMC,100326.000,A,2029.1202,N,10415.3191,E,0.00,0.00,280519,,*1F
$GPGSA,A,1,,,,,,,,,,,,,99.0,99.0,99.0*00
$BDGSA,A,1,,,,,,,,,,,,,99.0,99.0,99.0*11
$GLGSA,A,1,,,,,,,,,,,,,99.0,99.0,99.0*1C
$GPGSV,3,1,11,02,36,276,38,06,55,330,45,05,00,000,38,12,07,323,38*70
$GPGSV,3,2,11,17,47,042,45,19,47,011,44,28,47,150,42,04,00,000,31*7C
$GPGSV,3,3,11,24,00,000,35,03,00,000,19,09,13,112,00*4B
$BDGSV,3,1,12,01,43,115,40,02,57,227,40,03,65,161,42,04,24,102,41*69
$BDGSV,3,2,12,05,34,251,38,07,46,167,40,08,48,002,42,10,68,208,41*64
$BDGSV,3,3,12,12,41,342,43,13,53,316,43,19,24,053,42,22,53,114,44*64
$B3CN0,0,0,0,0,0,0,0,0,0,0,0,0,0,0*4C
$ini_pos,lastpos_good = 1,ini_pos.x:-1578917.000000,ini_pos.y:5312772.000000,ini_pos.z:3146357.000000
$rtc_local_time,localRTC.weeks:2055,localRTC.seconds:205902.633069,localGtime.weeks:2055,localGtime.seconds:209024.999999
$pseudo_cd_ph,prn:2,pseudo_cd_ph:205903308.287614822388
measnum = 0,full_prange = 22031121.979396
$oldmeas,msRange:0.000000,x:8696035.596245,y:19360575.261602,z:16669014.166512,vx:-1784.521973,vy:-917.736572,vz:2058.104980,tb:-0.000223832003
$newmeas,x:8696166.736328,y:19360642.704067,z:16668862.919767,vx:-1784.502563,vy:-917.734375,vz:2058.129639,tb:-0.000223832003
$pseudo_cd_ph,prn:6,pseudo_cd_ph:205903295.217187613249
measnum = 1,full_prange = 20978215.298968
$oldmeas,msRange:70.079295,x:-5107939.829872,y:14438821.315664,z:21738011.037675,vx:-2257.436768,vy:-1563.873413,vz:512.711792,tb:0.000193622146
$newmeas,x:-5107781.864299,y:14438930.749192,z:21737975.159133,vx:-2257.426514,vy:-1563.880371,vz:512.744019,tb:0.000193622146
$pseudo_cd_ph,prn:12,pseudo_cd_ph:205903303.771964401007
measnum = 2,full_prange = 22624081.388921
$oldmeas,msRange:75.034676,x:11106760.890823,y:13565528.465643,z:19789135.793048,vx:-509.376740,vy:2499.395752,vz:-1395.520142,tb:0.000238417265
$newmeas,x:11106799.331876,y:13565339.846289,z:19789241.105894,vx:-509.390625,vy:2499.406982,vz:-1395.487915,tb:0.000238417265
$pseudo_cd_ph,prn:17,pseudo_cd_ph:205903313.323141306639
measnum = 3,full_prange = 21506624.177067
$oldmeas,msRange:71.949340,x:-19381743.956180,y:15021839.409999,z:10498462.679034,vx:-1251.472656,vy:293.874542,vz:-2849.357178,tb:0.000062158132
$newmeas,x:-19381654.176671,y:15021818.327780,z:10498667.086719,vx:-1251.497559,vy:293.878357,vz:-2849.341309,tb:0.000062158132
$pseudo_cd_ph,prn:19,pseudo_cd_ph:205903314.961299747229
measnum = 4,full_prange = 20603074.066177
$oldmeas,msRange:68.852607,x:-14094602.531251,y:15834709.184271,z:15744696.520018,vx:-1989.982178,vy:507.010742,vz:-2240.982178,tb:-0.000313602179
$newmeas,x:-14094465.770085,y:15834674.340308,z:15744850.529497,vx:-1990.003052,vy:507.008575,vz:-2240.958740,tb:-0.000313602179
$pseudo_cd_ph,prn:28,pseudo_cd_ph:205903311.315959960222
measnum = 5,full_prange = 23818870.446954
$oldmeas,msRange:79.920977,x:-12599293.898203,y:18927872.006283,z:-13201373.599134,vx:153.115280,vy:-1772.770142,vz:-2561.964844,tb:0.000767800135
$newmeas,x:-12599306.063551,y:18928012.853936,z:-13201170.047045,vx:153.119186,vy:-1772.743408,vz:-2561.987793,tb:0.000767800135
$GNGGA,100327.000,2029.1193,N,10415.3933,E,1,00,99.0,0.0,M,,,,0000*2E
$GNRMC,100327.000,A,2029.1193,N,10415.3933,E,0.00,0.00,280519,,*15
$GPGSA,A,1,,,,,,,,,,,,,99.0,99.0,99.0*00
$BDGSA,A,1,,,,,,,,,,,,,99.0,99.0,99.0*11
$GLGSA,A,1,,,,,,,,,,,,,99.0,99.0,99.0*1C
$GPGSV,3,1,11,02,36,276,39,06,55,330,45,05,00,000,37,12,07,323,39*7F
$GPGSV,3,2,11,17,47,042,45,19,47,011,43,28,47,150,43,04,00,000,32*79
$GPGSV,3,3,11,24,00,000,35,03,00,000,33,09,13,112,00*43
$BDGSV,3,1,12,01,43,115,42,02,57,227,40,03,65,161,43,04,24,102,40*6B
$BDGSV,3,2,12,05,34,251,37,07,46,167,40,08,48,002,42,10,68,208,41*6B
$BDGSV,3,3,12,12,41,342,43,13,53,316,43,19,24,053,41,22,53,114,44*67
$B3CN0,23,0,0,0,0,0,0,0,0,0,0,0,0,0*7D
$ini_pos,lastpos_good = 1,ini_pos.x:-1578917.000000,ini_pos.y:5312772.000000,ini_pos.z:3146357.000000
$rtc_local_time,localRTC.weeks:2055,localRTC.seconds:205903.633069,localGtime.weeks:2055,localGtime.seconds:209025.999999
$pseudo_cd_ph,prn:2,pseudo_cd_ph:205904308.289178162813
measnum = 0,full_prange = 22030643.633441
$oldmeas,msRange:0.000000,x:8694250.942350,y:19359657.510386,z:16671072.102284,vx:-1784.785889,vy:-917.765930,vz:2057.766846,tb:-0.000223832007
$newmeas,x:8694382.098981,y:19359724.953544,z:16670920.883669,vx:-1784.766479,vy:-917.763794,vz:2057.791748,tb:-0.000223832007
$pseudo_cd_ph,prn:6,pseudo_cd_ph:205904295.217821598053
measnum = 1,full_prange = 20978015.564984
$oldmeas,msRange:70.079807,x:-5110197.340080,y:14437257.492319,z:21738523.519042,vx:-2257.583740,vy:-1563.773438,vz:512.250977,tb:0.000193622136
$newmeas,x:-5110039.365728,y:14437366.917806,z:21738487.673086,vx:-2257.573486,vy:-1563.780396,vz:512.283203,tb:0.000193622136
$pseudo_cd_ph,prn:12,pseudo_cd_ph:205904303.774779498577
measnum = 2,full_prange = 22623227.775244
$oldmeas,msRange:75.033333,x:11106251.606132,y:13568027.788340,z:19787740.059539,vx:-509.192688,vy:2499.249756,vz:-1395.947021,tb:0.000238417260
$newmeas,x:11106290.031846,y:13567839.187132,z:19787845.400621,vx:-509.206573,vy:2499.260742,vz:-1395.914795,tb:0.000238417260
$pseudo_cd_ph,prn:17,pseudo_cd_ph:205904313.323751270771
measnum = 3,full_prange = 21506431.649612
$oldmeas,msRange:71.949987,x:-19382995.255373,y:15022133.257979,z:10495613.211770,vx:-1251.125854,vy:293.821411,vz:-2849.577637,tb:0.000062158140
$newmeas,x:-19382905.501551,y:15022112.179759,z:10495817.633443,vx:-1251.150635,vy:293.825226,vz:-2849.561768,tb:0.000062158139
$pseudo_cd_ph,prn:19,pseudo_cd_ph:205904314.962279349566
measnum = 4,full_prange = 20602770.722458
$oldmeas,msRange:68.852932,x:-14096592.361349,y:15835216.210815,z:15742455.367501,vx:-1989.678101,vy:507.042389,vz:-2241.322998,tb:-0.000313602176
$newmeas,x:-14096455.623095,y:15835181.365191,z:15742609.398137,vx:-1989.698975,vy:507.040192,vz:-2241.299561,tb:-0.000313602177
$pseudo_cd_ph,prn:28,pseudo_cd_ph:205904311.314923793077
measnum = 5,full_prange = 23819171.413817
$oldmeas,msRange:79.923213,x:-12599140.807556,y:18926099.067789,z:-13203935.419033,vx:153.066010,vy:-1773.106934,vz:-2561.675293,tb:0.000767800131
$newmeas,x:-12599152.969144,y:18926239.943979,z:-13203731.887381,vx:153.069931,vy:-1773.080200,vz:-2561.698242,tb:0.000767800131
$pseudo_cd_ph,prn:9,pseudo_cd_ph:2.456026996452
measnum = 6,full_prange = 23667469.602445
$oldmeas,msRange:78.529504,x:-24914429.104619,y:7411632.803011,z:5448931.442432,vx:504.440002,vy:-566.648132,vz:3054.231445,tb:0.000402880565
$newmeas,x:-24914468.927249,y:7411677.537121,z:5448690.322163,vx:504.415131,vy:-566.632996,vz:3054.240723,tb:0.000402880565
$GNGGA,100328.000,2029.1184,N,10415.4676,E,1,00,99.0,0.0,M,,,,0000*2E
$GNRMC,100328.000,A,2029.1184,N,10415.4676,E,0.00,0.00,280519,,*15
$GPGSA,A,1,,,,,,,,,,,,,99.0,99.0,99.0*00
$BDGSA,A,1,,,,,,,,,,,,,99.0,99.0,99.0*11
$GLGSA,A,1,,,,,,,,,,,,,99.0,99.0,99.0*1C
$GPGSV,3,1,11,02,36,276,39,06,55,330,45,05,00,000,38,12,07,323,39*70
$GPGSV,3,2,11,17,47,042,45,19,47,011,43,28,47,150,43,04,00,000,32*79
$GPGSV,3,3,11,24,00,000,35,03,00,000,33,09,13,112,34*44
$BDGSV,3,1,12,01,43,115,41,02,57,227,39,03,65,161,43,04,24,102,41*67
$BDGSV,3,2,12,05,34,251,37,07,46,167,40,08,48,002,42,10,68,208,41*6B
$BDGSV,3,3,12,12,41,342,42,13,53,316,43,19,24,053,42,22,53,114,44*65
$B3CN0,0,0,0,0,0,0,0,0,0,0,0,0,0,0*4C
$ini_pos,lastpos_good = 1,ini_pos.x:-1578917.000000,ini_pos.y:5312772.000000,ini_pos.z:3146357.000000
$rtc_local_time,localRTC.weeks:2055,localRTC.seconds:205904.633069,localGtime.weeks:2055,localGtime.seconds:209026.999999
$pseudo_cd_ph,prn:2,pseudo_cd_ph:205905308.290738642216
measnum = 0,full_prange = 22030166.145200
$oldmeas,msRange:0.000000,x:8692466.024536,y:19358739.729836,z:16673129.699938,vx:-1785.049805,vy:-917.795227,vz:2057.428711,tb:-0.000223832011
$newmeas,x:8692597.197718,y:19358807.173687,z:16672978.509448,vx:-1785.030396,vy:-917.793091,vz:2057.453613,tb:-0.000223832011
$pseudo_cd_ph,prn:6,pseudo_cd_ph:205905295.218454807997
measnum = 1,full_prange = 20977816.063298
$oldmeas,msRange:70.080319,x:-5112454.997223,y:14435693.769014,z:21739035.539599,vx:-2257.730713,vy:-1563.673340,vz:511.790161,tb:0.000193622126
$newmeas,x:-5112297.014093,y:14435803.186459,z:21738999.726229,vx:-2257.720459,vy:-1563.680298,vz:511.822418,tb:0.000193622127
$pseudo_cd_ph,prn:12,pseudo_cd_ph:205905303.777596533298
measnum = 2,full_prange = 22622373.580823
