SD initialized success
Create debug.log Failed! 3
bbram_blkflag = 1
rtcflag = 128
BBRAM Block OK: 01 EPHflag: 28230445 b40012cf, rtc 80
GPS 0 Init Dop: 10000,80
GPS 1 Init Dop: 10000,80
GPS 2 Init Dop: 10000,80
GPS 3 Init Dop: 10000,80
GPS 4 Init Dop: 10000,80
GPS 5 Init Dop: 10000,80
GPS 6 Init Dop: 10000,80
GPS 7 Init Dop: 10000,80
GPS 8 Init Dop: 10000,80
GPS 9 Init Dop: 10000,80
GPS10 Init Dop: 10000,80
GPS11 Init Dop: 10000,80
GPS12 Init Dop: 10000,80
GPS13 Init Dop: 10000,80
GPS14 Init Dop: 10000,80
GPS15 Init Dop: 10000,80
GPS16 Init Dop: 10000,80
GPS17 Init Dop: 10000,80
GPS18 Init Dop: 10000,80
GPS19 Init Dop: 10000,80
GPS20 Init Dop: 10000,80
GPS21 Init Dop: 10000,80
GPS22 Init Dop: 10000,80
GPS23 Init Dop: 10000,80
GPS24 Init Dop: 10000,80
GPS25 Init Dop: 10000,80
GPS26 Init Dop: 10000,80
GPS27 Init Dop: 10000,80
GPS28 Init Dop: 10000,80
GPS29 Init Dop: 10000,80
GPS30 Init Dop: 10000,80
GPS31 Init Dop: 10000,80
BDS 0 Init Dop: 10000,80
BDS 1 Init Dop: 10000,80
BDS 2 Init Dop: 10000,80
BDS 3 Init Dop: 10000,80
BDS 4 Init Dop: 10000,80
BDS 5 Init Dop: 10000,80
BDS 6 Init Dop: 10000,80
BDS 7 Init Dop: 10000,80
BDS 8 Init Dop: 10000,80
BDS 9 Init Dop: 10000,80
BDS10 Init Dop: 10000,80
BDS11 Init Dop: 10000,80
BDS12 Init Dop: 10000,80
BDS13 Init Dop: 10000,80
BDS14 Init Dop: 10000,80
BDS15 Init Dop: 10000,80
BDS16 Init Dop: 10000,80
BDS17 Init Dop: 10000,80
BDS18 Init Dop: 10000,80
BDS19 Init Dop: 10000,80
BDS20 Init Dop: 10000,80
BDS21 Init Dop: 10000,80
BDS22 Init Dop: 10000,80
BDS23 Init Dop: 10000,80
BDS24 Init Dop: 10000,80
BDS25 Init Dop: 10000,80
BDS26 Init Dop: 10000,80
BDS27 Init Dop: 10000,80
BDS28 Init Dop: 10000,80
BDS29 Init Dop: 10000,80
BDS30 Init Dop: 10000,80
BDS31 Init Dop: 10000,80
Good luck!
$ini_pos,lastpos_good = 0,ini_pos.x:0.000000,ini_pos.y:1870047718373214860083200.000000,ini_pos.z:-2046739898144079604584181494893243150538612660687552759866211436395811498176008283937217445670253342138979921839890088464044843714967523004413381681481950795692746949771761461944886978122913274336967586102276507303936.000000
source<tow,snapshot
$GNGGA,000000.000,,,,,0,00,,,M,,,,0000*2B
$GNRMC,000000.000,A,,,,,,,060180,,*29
$GPGSA,A,1,,,,,,,,,,,,,,,*1E
$BDGSA,A,1,,,,,,,,,,,,,,,*0F
$GLGSA,A,1,,,,,,,,,,,,,,,*02
$B3CN0,0,0,0,0,0,0,0,0,0,0,0,0,0,0*4C
$ini_pos,lastpos_good = 0,ini_pos.x:0.000000,ini_pos.y:1870047718373214860083200.000000,ini_pos.z:-2046739898144079604584181494893243150538612660687552759866211436395811498176008283937217445670253342138979921839890088464044843714967523004413381681481950795692746949771761461944886978122913274336967586102276507303936.000000
source<tow,snapshot
$GNGGA,000000.000,,,,,0,00,,,M,,,,0000*2B
$GNRMC,000000.000,A,,,,,,,060180,,*29
$GPGSA,A,1,,,,,,,,,,,,,,,*1E
$BDGSA,A,1,,,,,,,,,,,,,,,*0F
$GLGSA,A,1,,,,,,,,,,,,,,,*02
$B3CN0,0,0,0,0,0,0,0,0,0,0,0,0,0,0*4C
$ini_pos,lastpos_good = 0,ini_pos.x:0.000000,ini_pos.y:1870047718373214860083200.000000,ini_pos.z:-2046739898144079604584181494893243150538612660687552759866211436395811498176008283937217445670253342138979921839890088464044843714967523004413381681481950795692746949771761461944886978122913274336967586102276507303936.000000
source<tow,snapshot
$GNGGA,000000.000,,,,,0,00,,,M,,,,0000*2B
$GNRMC,000000.000,A,,,,,,,060180,,*29
$GPGSA,A,1,,,,,,,,,,,,,,,*1E
$BDGSA,A,1,,,,,,,,,,,,,,,*0F
$GLGSA,A,1,,,,,,,,,,,,,,,*02
$GPGSV,1,1,02,01,00,000,25,03,00,000,22*7E
$B3CN0,0,0,0,0,0,0,0,0,0,0,0,0,0,0*4C
$ini_pos,lastpos_good = 0,ini_pos.x:0.000000,ini_pos.y:1870047718373214860083200.000000,ini_pos.z:-2046739898144079604584181494893243150538612660687552759866211436395811498176008283937217445670253342138979921839890088464044843714967523004413381681481950795692746949771761461944886978122913274336967586102276507303936.000000
source<tow,snapshot
$GNGGA,000000.000,,,,,0,00,,,M,,,,0000*2B
$GNRMC,000000.000,A,,,,,,,060180,,*29
$GPGSA,A,1,,,,,,,,,,,,,,,*1E
$BDGSA,A,1,,,,,,,,,,,,,,,*0F
$GLGSA,A,1,,,,,,,,,,,,,,,*02
$GPGSV,1,1,04,01,00,000,40,03,00,000,42,07,00,000,35,17,00,000,19*72
$B3CN0,0,0,0,0,0,0,0,0,0,0,0,0,0,0*4C
$ini_pos,lastpos_good = 0,ini_pos.x:0.000000,ini_pos.y:1870047718373214860083200.000000,ini_pos.z:-2046739898144079604584181494893243150538612660687552759866211436395811498176008283937217445670253342138979921839890088464044843714967523004413381681481950795692746949771761461944886978122913274336967586102276507303936.000000
source<tow,snapshot
$GNGGA,000000.000,,,,,0,00,,,M,,,,0000*2B
$GNRMC,000000.000,A,,,,,,,060180,,*29
$GPGSA,A,1,,,,,,,,,,,,,,,*1E
$BDGSA,A,1,,,,,,,,,,,,,,,*0F
$GLGSA,A,1,,,,,,,,,,,,,,,*02
$GPGSV,2,1,08,01,00,000,40,03,00,000,42,07,00,000,37,17,00,000,45*76
$GPGSV,2,2,08,19,00,000,44,22,00,000,34,28,00,000,26,30,00,000,23*72
$B3CN0,0,0,0,0,0,0,0,0,0,0,0,0,0,0*4C
$ini_pos,lastpos_good = 0,ini_pos.x:0.000000,ini_pos.y:1870047718373214860083200.000000,ini_pos.z:-2046739898144079604584181494893243150538612660687552759866211436395811498176008283937217445670253342138979921839890088464044843714967523004413381681481950795692746949771761461944886978122913274336967586102276507303936.000000
source<tow,snapshot
$GNGGA,000000.000,,,,,0,00,,,M,,,,0000*2B
$GNRMC,000000.000,A,,,,,,,060180,,*29
$GPGSA,A,1,,,,,,,,,,,,,,,*1E
$BDGSA,A,1,,,,,,,,,,,,,,,*0F
$GLGSA,A,1,,,,,,,,,,,,,,,*02
$GPGSV,2,1,08,01,00,000,41,03,00,000,42,07,00,000,38,17,00,000,44*79
$GPGSV,2,2,08,19,00,000,44,22,00,000,41,28,00,000,44,30,00,000,42*73
$BDGSV,1,1,03,01,00,000,40,02,00,000,39,04,00,000,41*57
$B3CN0,0,0,0,0,0,0,0,0,0,0,0,0,0,0*4C
$ini_pos,lastpos_good = 0,ini_pos.x:0.000000,ini_pos.y:1870047718373214860083200.000000,ini_pos.z:-2046739898144079604584181494893243150538612660687552759866211436395811498176008283937217445670253342138979921839890088464044843714967523004413381681481950795692746949771761461944886978122913274336967586102276507303936.000000
source<tow,snapshot
$GNGGA,000000.000,,,,,0,00,,,M,,,,0000*2B
$GNRMC,000000.000,A,,,,,,,060180,,*29
$GPGSA,A,1,,,,,,,,,,,,,,,*1E
$BDGSA,A,1,,,,,,,,,,,,,,,*0F
$GLGSA,A,1,,,,,,,,,,,,,,,*02
$GPGSV,2,1,08,01,00,000,40,03,00,000,42,07,00,000,38,17,00,000,44*78
$GPGSV,2,2,08,19,00,000,43,22,00,000,41,28,00,000,43,30,00,000,42*73
$BDGSV,1,1,03,01,00,000,41,02,00,000,41,04,00,000,40*58
$B3CN0,0,0,0,0,0,0,0,0,0,0,0,0,0,0*4C
$ini_pos,lastpos_good = 0,ini_pos.x:0.000000,ini_pos.y:1870047718373214860083200.000000,ini_pos.z:-2046739898144079604584181494893243150538612660687552759866211436395811498176008283937217445670253342138979921839890088464044843714967523004413381681481950795692746949771761461944886978122913274336967586102276507303936.000000
source<tow,snapshot
$GNGGA,000000.000,,,,,0,00,,,M,,,,0000*2B
$GNRMC,000000.000,A,,,,,,,060180,,*29
$GPGSA,A,1,,,,,,,,,,,,,,,*1E
$BDGSA,A,1,,,,,,,,,,,,,,,*0F
$GLGSA,A,1,,,,,,,,,,,,,,,*02
$GPGSV,2,1,08,01,00,000,41,03,00,000,42,07,00,000,39,17,00,000,44*78
$GPGSV,2,2,08,19,00,000,42,22,00,000,41,28,00,000,43,30,00,000,42*72
$BDGSV,1,1,03,01,00,000,40,02,00,000,40,04,00,000,40*58
$B3CN0,0,0,0,0,0,0,0,0,0,0,0,0,0,0*4C
tow update,374804086.588416
$ini_pos,lastpos_good = 0,ini_pos.x:0.000000,ini_pos.y:1870047718373214860083200.000000,ini_pos.z:-2046739898144079604584181494893243150538612660687552759866211436395811498176008283937217445670253342138979921839890088464044843714967523004413381681481950795692746949771761461944886978122913274336967586102276507303936.000000
source>=tow,snapshot
$GNGGA,080626.087,,,,,0,00,,,M,,,,0000*2E
$GNRMC,080626.087,A,,,,,,,100180,,*2B
$GPGSA,A,1,,,,,,,,,,,,,,,*1E
$BDGSA,A,1,,,,,,,,,,,,,,,*0F
$GLGSA,A,1,,,,,,,,,,,,,,,*02
$GPGSV,2,1,08,01,00,000,42,03,00,000,42,07,00,000,38,17,00,000,44*7A
$GPGSV,2,2,08,19,00,000,43,22,00,000,41,28,00,000,43,30,00,000,42*73
$BDGSV,1,1,04,01,00,000,41,02,00,000,40,04,00,000,39,27,00,000,24*63
$B3CN0,0,0,0,0,0,0,0,0,0,0,0,0,0,0*4C
$ini_pos,lastpos_good = 0,ini_pos.x:0.000000,ini_pos.y:1870047718373214860083200.000000,ini_pos.z:-2046739898144079604584181494893243150538612660687552759866211436395811498176008283937217445670253342138979921839890088464044843714967523004413381681481950795692746949771761461944886978122913274336967586102276507303936.000000
source>=tow,snapshot
$GNGGA,080627.087,,,,,0,00,,,M,,,,0000*2F
$GNRMC,080627.087,A,,,,,,,160519,,*28
$GPGSA,A,1,,,,,,,,,,,,,,,*1E
$BDGSA,A,1,,,,,,,,,,,,,,,*0F
$GLGSA,A,1,,,,,,,,,,,,,,,*02
$GPGSV,2,1,08,01,00,000,41,03,00,000,42,07,00,000,38,17,00,000,44*79
$GPGSV,2,2,08,19,00,000,43,22,00,000,41,28,00,000,43,30,00,000,42*73
$BDGSV,2,1,05,01,00,000,40,02,00,000,40,04,00,000,39,27,00,000,43*61
$BDGSV,2,2,05,30,00,000,45*5F
$B3CN0,0,0,0,0,0,0,0,0,0,0,0,0,0,0*4C
$ini_pos,lastpos_good = 0,ini_pos.x:0.000000,ini_pos.y:1870047718373214860083200.000000,ini_pos.z:-2046739898144079604584181494893243150538612660687552759866211436395811498176008283937217445670253342138979921839890088464044843714967523004413381681481950795692746949771761461944886978122913274336967586102276507303936.000000
source>=tow,snapshot
$GNGGA,080628.087,,,,,0,00,,,M,,,,0000*20
$GNRMC,080628.087,A,,,,,,,160519,,*27
$GPGSA,A,1,,,,,,,,,,,,,,,*1E
$BDGSA,A,1,,,,,,,,,,,,,,,*0F
$GLGSA,A,1,,,,,,,,,,,,,,,*02
$GPGSV,2,1,08,01,00,000,40,03,00,000,42,07,00,000,38,17,00,000,45*79
$GPGSV,2,2,08,19,00,000,42,22,00,000,40,28,00,000,43,30,00,000,42*73
$BDGSV,2,1,05,01,00,000,41,02,00,000,40,04,00,000,40,27,00,000,43*6E
$BDGSV,2,2,05,30,00,000,45*5F
$B3CN0,0,19,0,0,0,0,0,0,0,0,0,0,0,0*74
$ini_pos,lastpos_good = 0,ini_pos.x:0.000000,ini_pos.y:1870047718373214860083200.000000,ini_pos.z:-2046739898144079604584181494893243150538612660687552759866211436395811498176008283937217445670253342138979921839890088464044843714967523004413381681481950795692746949771761461944886978122913274336967586102276507303936.000000
source>=tow,snapshot
$GNGGA,080629.087,,,,,0,00,,,M,,,,0000*21
$GNRMC,080629.087,A,,,,,,,160519,,*26
$GPGSA,A,1,,,,,,,,,,,,,,,*1E
$BDGSA,A,1,,,,,,,,,,,,,,,*0F
$GLGSA,A,1,,,,,,,,,,,,,,,*02
$GPGSV,2,1,08,01,00,000,41,03,00,000,42,07,00,000,38,17,00,000,45*78
$GPGSV,2,2,08,19,00,000,43,22,00,000,41,28,00,000,43,30,00,000,42*73
$BDGSV,2,1,05,01,00,000,40,02,00,000,41,04,00,000,40,27,00,000,43*6E
$BDGSV,2,2,05,30,00,000,44*5E
$B3CN0,0,0,0,0,0,0,0,0,0,0,0,0,0,0*4C
$ini_pos,lastpos_good = 0,ini_pos.x:0.000000,ini_pos.y:1870047718373214860083200.000000,ini_pos.z:-2046739898144079604584181494893243150538612660687552759866211436395811498176008283937217445670253342138979921839890088464044843714967523004413381681481950795692746949771761461944886978122913274336967586102276507303936.000000
source>=tow,snapshot
$GNGGA,080630.087,,,,,0,00,,,M,,,,0000*29
$GNRMC,080630.087,A,,,,,,,160519,,*2E
$GPGSA,A,1,,,,,,,,,,,,,,,*1E
$BDGSA,A,1,,,,,,,,,,,,,,,*0F
$GLGSA,A,1,,,,,,,,,,,,,,,*02
$GPGSV,3,1,09,01,00,000,41,03,00,000,42,06,00,000,44,07,00,000,39*78
$GPGSV,3,2,09,17,00,000,45,19,00,000,44,22,00,000,40,28,00,000,44*70
$GPGSV,3,3,09,30,00,000,42*45
$BDGSV,2,1,05,01,00,000,41,02,00,000,40,04,00,000,40,27,00,000,43*6E
$BDGSV,2,2,05,30,00,000,44*5E
$B3CN0,0,0,0,0,0,0,0,0,0,0,0,0,0,0*4C
$ini_pos,lastpos_good = 0,ini_pos.x:0.000000,ini_pos.y:1870047718373214860083200.000000,ini_pos.z:-2046739898144079604584181494893243150538612660687552759866211436395811498176008283937217445670253342138979921839890088464044843714967523004413381681481950795692746949771761461944886978122913274336967586102276507303936.000000
source>=tow,snapshot
$GNGGA,080631.087,,,,,0,00,,,M,,,,0000*28
$GNRMC,080631.087,A,,,,,,,160519,,*2F
$GPGSA,A,1,,,,,,,,,,,,,,,*1E
$BDGSA,A,1,,,,,,,,,,,,,,,*0F
$GLGSA,A,1,,,,,,,,,,,,,,,*02
$GPGSV,3,1,09,01,00,000,41,03,00,000,43,06,00,000,43,07,00,000,39*7E
$GPGSV,3,2,09,17,00,000,45,19,00,000,44,22,00,000,40,28,00,000,44*70
$GPGSV,3,3,09,30,00,000,42*45
$BDGSV,2,1,06,01,00,000,41,02,00,000,41,04,00,000,40,05,00,000,37*6F
$BDGSV,2,2,06,27,00,000,43,30,00,000,45*6E
$B3CN0,0,0,0,0,0,0,0,0,0,0,0,0,0,0*4C
$ini_pos,lastpos_good = 0,ini_pos.x:0.000000,ini_pos.y:1870047718373214860083200.000000,ini_pos.z:-2046739898144079604584181494893243150538612660687552759866211436395811498176008283937217445670253342138979921839890088464044843714967523004413381681481950795692746949771761461944886978122913274336967586102276507303936.000000
source>=tow,snapshot
$GNGGA,080632.087,,,,,0,00,,,M,,,,0000*2B
$GNRMC,080632.087,A,,,,,,,160519,,*2C
$GPGSA,A,1,,,,,,,,,,,,,,,*1E
$BDGSA,A,1,,,,,,,,,,,,,,,*0F
$GLGSA,A,1,,,,,,,,,,,,,,,*02
$GPGSV,3,1,09,01,00,000,41,03,00,000,42,06,00,000,43,07,00,000,39*7F
$GPGSV,3,2,09,17,00,000,45,19,00,000,44,22,00,000,40,28,00,000,43*77
$GPGSV,3,3,09,30,00,000,42*45
$BDGSV,3,1,10,01,00,000,42,02,00,000,39,04,00,000,40,05,00,000,36*64
$BDGSV,3,2,10,07,00,000,36,08,00,000,34,10,00,000,29,27,00,000,43*6D
$BDGSV,3,3,10,30,00,000,44,13,00,000,19*60
$B3CN0,17,0,0,0,0,0,0,0,0,0,0,0,0,0*7A
$ini_pos,lastpos_good = 0,ini_pos.x:0.000000,ini_pos.y:1870047718373214860083200.000000,ini_pos.z:-2046739898144079604584181494893243150538612660687552759866211436395811498176008283937217445670253342138979921839890088464044843714967523004413381681481950795692746949771761461944886978122913274336967586102276507303936.000000
source>=tow,snapshot
$GNGGA,080633.087,,,,,0,00,,,M,,,,0000*2A
$GNRMC,080633.087,A,,,,,,,160519,,*2D
$GPGSA,A,1,,,,,,,,,,,,,,,*1E
$BDGSA,A,1,,,,,,,,,,,,,,,*0F
$GLGSA,A,1,,,,,,,,,,,,,,,*02
$GPGSV,3,1,09,01,00,000,41,03,00,000,42,06,00,000,44,07,00,000,38*79
$GPGSV,3,2,09,17,00,000,45,19,00,000,44,22,00,000,41,28,00,000,43*76
$GPGSV,3,3,09,30,00,000,42*45
$BDGSV,3,1,10,01,00,000,41,02,00,000,40,04,00,000,39,05,00,000,37*66
$BDGSV,3,2,10,07,00,000,43,08,00,000,43,10,00,000,43,27,00,000,43*63
$BDGSV,3,3,10,30,00,000,45,13,00,000,44*69
$B3CN0,0,0,0,0,0,0,0,0,0,0,0,0,0,0*4C
$ini_pos,lastpos_good = 0,ini_pos.x:0.000000,ini_pos.y:1870047718373214860083200.000000,ini_pos.z:-2046739898144079604584181494893243150538612660687552759866211436395811498176008283937217445670253342138979921839890088464044843714967523004413381681481950795692746949771761461944886978122913274336967586102276507303936.000000
source>=tow,snapshot
$GNGGA,080634.087,,,,,0,00,,,M,,,,0000*2D
$GNRMC,080634.087,A,,,,,,,160519,,*2A
$GPGSA,A,1,,,,,,,,,,,,,,,*1E
$BDGSA,A,1,,,,,,,,,,,,,,,*0F
$GLGSA,A,1,,,,,,,,,,,,,,,*02
$GPGSV,3,1,09,01,00,000,41,03,00,000,42,06,00,000,44,07,00,000,38*79
$GPGSV,3,2,09,17,00,000,45,19,00,000,44,22,00,000,41,28,00,000,44*71
$GPGSV,3,3,09,30,00,000,42*45
$BDGSV,3,1,10,01,00,000,41,02,00,000,40,04,00,000,40,05,00,000,36*69
$BDGSV,3,2,10,07,00,000,43,08,00,000,43,10,00,000,42,27,00,000,44*65
$BDGSV,3,3,10,30,00,000,45,13,00,000,43*6E
$B3CN0,0,0,0,0,0,0,0,0,0,0,0,0,0,0*4C
$ini_pos,lastpos_good = 0,ini_pos.x:0.000000,ini_pos.y:1870047718373214860083200.000000,ini_pos.z:-2046739898144079604584181494893243150538612660687552759866211436395811498176008283937217445670253342138979921839890088464044843714967523004413381681481950795692746949771761461944886978122913274336967586102276507303936.000000
source>=tow,snapshot
$GNGGA,080635.087,,,,,0,00,,,M,,,,0000*2C
$GNRMC,080635.087,A,,,,,,,160519,,*2B
$GPGSA,A,1,,,,,,,,,,,,,,,*1E
$BDGSA,A,1,,,,,,,,,,,,,,,*0F
$GLGSA,A,1,,,,,,,,,,,,,,,*02
$GPGSV,3,1,09,01,00,000,41,03,00,000,42,06,00,000,44,07,00,000,38*79
$GPGSV,3,2,09,17,00,000,45,19,00,000,44,22,00,000,40,28,00,000,44*70
$GPGSV,3,3,09,30,00,000,42*45
$BDGSV,3,1,10,01,00,000,41,02,00,000,41,04,00,000,41,05,00,000,35*6A
$BDGSV,3,2,10,07,00,000,43,08,00,000,43,10,00,000,43,27,00,000,43*63
$BDGSV,3,3,10,30,00,000,45,13,00,000,43*6E
$B3CN0,0,0,0,0,0,0,0,0,0,0,0,0,0,0*4C
$ini_pos,lastpos_good = 0,ini_pos.x:0.000000,ini_pos.y:1870047718373214860083200.000000,ini_pos.z:-2046739898144079604584181494893243150538612660687552759866211436395811498176008283937217445670253342138979921839890088464044843714967523004413381681481950795692746949771761461944886978122913274336967586102276507303936.000000
source>=tow,snapshot
$GNGGA,080636.087,,,,,0,00,,,M,,,,0000*2F
$GNRMC,080636.087,A,,,,,,,160519,,*28
$GPGSA,A,1,,,,,,,,,,,,,,,*1E
$BDGSA,A,1,,,,,,,,,,,,,,,*0F
$GLGSA,A,1,,,,,,,,,,,,,,,*02
$GPGSV,3,1,09,01,00,000,40,03,00,000,42,06,00,000,44,07,00,000,38*78
$GPGSV,3,2,09,17,00,000,45,19,00,000,44,22,00,000,40,28,00,000,43*77
$GPGSV,3,3,09,30,00,000,42*45
$BDGSV,3,1,10,01,00,000,40,02,00,000,41,04,00,000,40,05,00,000,36*69
$BDGSV,3,2,10,07,00,000,43,08,00,000,43,10,00,000,42,27,00,000,44*65
$BDGSV,3,3,10,30,00,000,45,13,00,000,43*6E
$B3CN0,0,21,0,0,0,0,0,0,0,0,0,0,0,0*7F
$ini_pos,lastpos_good = 0,ini_pos.x:0.000000,ini_pos.y:1870047718373214860083200.000000,ini_pos.z:-2046739898144079604584181494893243150538612660687552759866211436395811498176008283937217445670253342138979921839890088464044843714967523004413381681481950795692746949771761461944886978122913274336967586102276507303936.000000
source>=tow,snapshot
$GNGGA,080637.087,,,,,0,00,,,M,,,,0000*2E
$GNRMC,080637.087,A,,,,,,,160519,,*29
$GPGSA,A,1,,,,,,,,,,,,,,,*1E
$BDGSA,A,1,,,,,,,,,,,,,,,*0F
$GLGSA,A,1,,,,,,,,,,,,,,,*02
$GPGSV,3,1,09,01,00,000,41,03,00,000,42,06,00,000,43,07,00,000,38*7E
$GPGSV,3,2,09,17,00,000,44,19,00,000,44,22,00,000,39,28,00,000,44*7F
$GPGSV,3,3,09,30,00,000,41*46
$BDGSV,3,1,10,01,00,000,40,02,00,000,40,04,00,000,40,05,00,000,37*69
$BDGSV,3,2,10,07,00,000,42,08,00,000,43,10,00,000,42,27,00,000,43*63
$BDGSV,3,3,10,30,00,000,44,13,00,000,43*6F
$B3CN0,0,21,0,0,0,0,0,0,0,0,0,0,0,0*7F
$ini_pos,lastpos_good = 0,ini_pos.x:0.000000,ini_pos.y:1870047718373214860083200.000000,ini_pos.z:-2046739898144079604584181494893243150538612660687552759866211436395811498176008283937217445670253342138979921839890088464044843714967523004413381681481950795692746949771761461944886978122913274336967586102276507303936.000000
source>=tow,snapshot
$GNGGA,080638.087,,,,,0,00,,,M,,,,0000*21
$GNRMC,080638.087,A,,,,,,,160519,,*26
$GPGSA,A,1,,,,,,,,,,,,,,,*1E
$BDGSA,A,1,,,,,,,,,,,,,,,*0F
$GLGSA,A,1,,,,,,,,,,,,,,,*02
$GPGSV,3,1,09,01,00,000,41,03,00,000,42,06,00,000,44,07,00,000,38*79
$GPGSV,3,2,09,17,00,000,44,19,00,000,44,22,00,000,40,28,00,000,44*71
$GPGSV,3,3,09,30,00,000,42*45
$BDGSV,3,1,10,01,00,000,41,02,00,000,40,04,00,000,41,05,00,000,37*69
$BDGSV,3,2,10,07,00,000,42,08,00,000,43,10,00,000,42,27,00,000,43*63
$BDGSV,3,3,10,30,00,000,45,13,00,000,43*6E
$B3CN0,19,0,0,0,0,0,0,0,0,0,0,0,0,0*74
$ini_pos,lastpos_good = 0,ini_pos.x:0.000000,ini_pos.y:1870047718373214860083200.000000,ini_pos.z:-2046739898144079604584181494893243150538612660687552759866211436395811498176008283937217445670253342138979921839890088464044843714967523004413381681481950795692746949771761461944886978122913274336967586102276507303936.000000
source>=tow,snapshot
$GNGGA,080639.087,,,,,0,00,,,M,,,,0000*20
$GNRMC,080639.087,A,,,,,,,160519,,*27
$GPGSA,A,1,,,,,,,,,,,,,,,*1E
$BDGSA,A,1,,,,,,,,,,,,,,,*0F
$GLGSA,A,1,,,,,,,,,,,,,,,*02
$GPGSV,3,1,09,01,00,000,41,03,00,000,42,06,00,000,44,07,00,000,38*79
$GPGSV,3,2,09,17,00,000,45,19,00,000,43,22,00,000,40,28,00,000,43*70
$GPGSV,3,3,09,30,00,000,42*45
$BDGSV,3,1,10,01,00,000,41,02,00,000,40,04,00,000,41,05,00,000,35*6B
$BDGSV,3,2,10,07,00,000,43,08,00,000,43,10,00,000,42,27,00,000,44*65
$BDGSV,3,3,10,30,00,000,44,13,00,000,43*6F
$B3CN0,22,0,0,0,0,0,0,20,0,0,0,0,0,0*4E
$GLGSV,2,1,06,08,00,000,41,23,00,000,47,11,00,000,40,12,00,000,46*6A
$GLGSV,2,2,06,13,00,000,45,22,00,000,45*61
$ini_pos,lastpos_good = 0,ini_pos.x:0.000000,ini_pos.y:1870047718373214860083200.000000,ini_pos.z:-2046739898144079604584181494893243150538612660687552759866211436395811498176008283937217445670253342138979921839890088464044843714967523004413381681481950795692746949771761461944886978122913274336967586102276507303936.000000
source>=tow,snapshot
$GNGGA,080640.087,,,,,0,00,,,M,,,,0000*2E
$GNRMC,080640.087,A,,,,,,,160519,,*29
$GPGSA,A,1,,,,,,,,,,,,,,,*1E
$BDGSA,A,1,,,,,,,,,,,,,,,*0F
$GLGSA,A,1,,,,,,,,,,,,,,,*02
$GPGSV,3,1,09,01,00,000,41,03,00,000,43,06,00,000,44,07,00,000,38*78
$GPGSV,3,2,09,17,00,000,44,19,00,000,43,22,00,000,40,28,00,000,44*76
$GPGSV,3,3,09,30,00,000,42*45
$BDGSV,3,1,11,01,00,000,41,02,00,000,41,03,00,000,39,04,00,000,40*60
$BDGSV,3,2,11,05,00,000,35,07,00,000,43,08,00,000,43,10,00,000,42*62
$BDGSV,3,3,11,27,00,000,43,30,00,000,44,13,00,000,43*5C
$B3CN0,18,0,0,0,0,0,0,27,0,0,0,0,0,0*40
$GLGSV,2,1,06,08,00,000,41,23,00,000,48,11,00,000,41,12,00,000,46*64
$GLGSV,2,2,06,13,00,000,45,22,00,000,45*61
$ini_pos,lastpos_good = 0,ini_pos.x:0.000000,ini_pos.y:1870047718373214860083200.000000,ini_pos.z:-2046739898144079604584181494893243150538612660687552759866211436395811498176008283937217445670253342138979921839890088464044843714967523004413381681481950795692746949771761461944886978122913274336967586102276507303936.000000
$GNGGA,080640.955,2944.9062,N,10633.1208,E,1,06,1.9,401.3,M,,,,0000*10
$GNRMC,080640.955,A,2944.9062,N,10633.1208,E,0.30,0.00,160519,,*1D
$GPGSA,A,3,,,,,,,,,,,,,3.5,1.9,3.0*3F
$BDGSA,A,3,,,,,,,,,,,,,3.5,1.9,3.0*2E
$GLGSA,A,3,09,12,13,14,23,24,,,,,,,3.5,1.9,3.0*29
$GPGSV,3,1,09,01,00,000,41,03,00,000,42,06,00,000,44,07,00,000,38*79
$GPGSV,3,2,09,17,00,000,44,19,00,000,43,22,00,000,40,28,00,000,44*76
$GPGSV,3,3,09,30,00,000,42*45
$BDGSV,3,1,11,01,00,000,41,02,00,000,40,03,00,000,41,04,00,000,40*6E
$BDGSV,3,2,11,05,00,000,36,07,00,000,43,08,00,000,43,10,00,000,43*60
$BDGSV,3,3,11,27,00,000,43,30,00,000,44,13,00,000,43*5C
$B3CN0,0,0,0,0,0,0,0,27,0,0,0,0,0,0*79
$GLGSV,2,1,06,08,00,000,42,23,00,000,47,11,00,000,41,12,00,000,46*68
$GLGSV,2,2,06,13,00,000,45,22,00,000,45*61
$ini_pos,lastpos_good = 1,ini_pos.x:-1578977.294035,ini_pos.y:5312822.275794,ini_pos.z:3146392.463408
$GNGGA,080642.000,2944.9073,N,10633.1204,E,1,06,1.9,400.0,M,,,,0000*15
$GNRMC,080642.000,A,2944.9073,N,10633.1204,E,0.55,0.00,160519,,*19
$GPGSA,A,3,,,,,,,,,,,,,3.5,1.9,3.0*3F
$BDGSA,A,3,,,,,,,,,,,,,3.5,1.9,3.0*2E
$GLGSA,A,3,08,11,12,13,22,23,,,,,,,3.5,1.9,3.0*2B
$GPGSV,3,1,09,01,00,000,41,03,00,000,42,06,00,000,44,07,00,000,38*79
$GPGSV,3,2,09,17,00,000,44,19,00,000,43,22,00,000,40,28,00,000,43*71
$GPGSV,3,3,09,30,00,000,42*45
$BDGSV,3,1,11,01,00,000,40,02,00,000,41,03,00,000,41,04,00,000,41*6F
$BDGSV,3,2,11,05,00,000,35,07,00,000,43,08,00,000,43,10,00,000,43*63
$BDGSV,3,3,11,27,00,000,44,30,00,000,44,13,00,000,44*5C
$B3CN0,0,0,0,0,0,0,0,27,0,0,0,0,0,0*79
$GLGSV,2,1,06,08,00,000,41,23,00,000,48,11,00,000,40,12,00,000,46*65
$GLGSV,2,2,06,13,00,000,45,22,00,000,45*61
$ini_pos,lastpos_good = 1,ini_pos.x:-1578975.983355,ini_pos.y:5312820.462531,ini_pos.z:3146393.646191
Refix G19: 1, 374820.926466, -2726
$GNGGA,080643.000,2944.9075,N,10633.1203,E,1,06,1.9,399.8,M,,,,0000*1A
$GNRMC,080643.000,A,2944.9075,N,10633.1203,E,0.49,0.00,160519,,*14
$GPGSA,A,3,,,,,,,,,,,,,3.5,1.9,3.0*3F
$BDGSA,A,3,,,,,,,,,,,,,3.5,1.9,3.0*2E
$GLGSA,A,3,08,11,12,13,22,23,,,,,,,3.5,1.9,3.0*2B
$GPGSV,3,1,09,01,00,000,41,03,00,000,42,06,00,000,43,07,00,000,38*7E
$GPGSV,3,2,09,17,00,000,44,19,00,000,43,22,00,000,40,28,00,000,42*70
$GPGSV,3,3,09,30,00,000,41*46
$BDGSV,3,1,11,01,00,000,41,02,00,000,40,03,00,000,42,04,00,000,41*6C
$BDGSV,3,2,11,05,00,000,37,07,00,000,43,08,00,000,43,10,00,000,43*61
$BDGSV,3,3,11,27,00,000,43,30,00,000,44,13,00,000,43*5C
$B3CN0,0,0,0,0,0,0,0,23,0,0,0,0,0,0*7D
$GLGSV,2,1,06,08,09,122,41,23,50,314,48,11,04,162,41,12,44,178,46*60
$GLGSV,2,2,06,13,59,303,45,22,27,031,44*6B
$ini_pos,lastpos_good = 1,ini_pos.x:-1578975.694345,ini_pos.y:5312820.119592,ini_pos.z:3146393.857361
Refix G19: 1, 374821.926467, -2724
$GNGGA,080644.000,2944.9076,N,10633.1197,E,1,06,1.9,398.5,M,,,,0000*1C
$GNRMC,080644.000,A,2944.9076,N,10633.1197,E,0.85,0.00,160519,,*1E
$GPGSA,A,3,,,,,,,,,,,,,3.5,1.9,3.0*3F
$BDGSA,A,3,,,,,,,,,,,,,3.5,1.9,3.0*2E
$GLGSA,A,3,08,11,12,13,22,23,,,,,,,3.5,1.9,3.0*2B
$GPGSV,3,1,09,01,00,000,40,03,00,000,42,06,00,000,43,07,00,000,38*7F
$GPGSV,3,2,09,17,00,000,45,19,36,297,43,22,00,000,40,28,00,000,43*79
$GPGSV,3,3,09,30,00,000,42*45
$BDGSV,3,1,11,01,00,000,41,02,00,000,39,03,00,000,43,04,00,000,41*63
$BDGSV,3,2,11,05,00,000,37,07,00,000,43,08,00,000,43,10,00,000,43*61
$BDGSV,3,3,11,27,00,000,43,30,00,000,44,13,00,000,43*5C
$B3CN0,0,0,0,0,0,0,0,0,0,0,0,0,0,0*4C
$GLGSV,2,1,06,08,09,122,42,23,50,314,48,11,04,162,41,12,44,178,46*63
$GLGSV,2,2,06,13,59,303,45,22,27,031,44*6B
$ini_pos,lastpos_good = 1,ini_pos.x:-1578974.557199,ini_pos.y:5312819.289614,ini_pos.z:3146393.254680
Refix G19: 1, 374822.926469, -2725
$GNGGA,080645.000,2944.9075,N,10633.1189,E,1,08,99.0,396.1,M,,,,0000*2D
$GNRMC,080645.000,A,2944.9075,N,10633.1189,E,0.37,0.00,160519,,*1A
$GPGSA,A,3,,,,,,,,,,,,,99.0,99.0,99.0*02
$BDGSA,A,3,27,30,,,,,,,,,,,99.0,99.0,99.0*15
$GLGSA,A,3,08,11,12,13,22,23,,,,,,,99.0,99.0,99.0*16
$GPGSV,3,1,09,01,00,000,41,03,00,000,42,06,00,000,44,07,00,000,38*79
$GPGSV,3,2,09,17,00,000,45,19,36,297,44,22,00,000,40,28,00,000,43*7E
$GPGSV,3,3,09,30,00,000,42*45
$BDGSV,3,1,11,01,00,000,41,02,00,000,39,03,00,000,43,04,00,000,41*63
$BDGSV,3,2,11,05,00,000,36,07,00,000,43,08,00,000,43,10,00,000,42*61
$BDGSV,3,3,11,27,00,000,44,30,00,000,44,13,00,000,43*5B
$B3CN0,0,18,0,0,0,0,0,0,0,0,0,0,0,0*75
$GLGSV,2,1,06,08,09,122,42,23,50,314,48,11,04,162,40,12,44,178,46*62
$GLGSV,2,2,06,13,59,303,45,22,27,031,44*6B
$ini_pos,lastpos_good = 1,ini_pos.x:-1578972.726683,ini_pos.y:5312817.635348,ini_pos.z:3146392.020391
Refix G19: 1, 374823.926471, -2727
$GNGGA,080646.000,2944.9076,N,10633.1152,E,1,08,1.0,386.9,M,,,,0000*13
$GNRMC,080646.000,A,2944.9076,N,10633.1152,E,0.17,0.00,160519,,*1E
$GPGSA,A,3,,,,,,,,,,,,,1.3,1.0,0.7*36
$BDGSA,A,3,27,30,,,,,,,,,,,1.3,1.0,0.7*21
$GLGSA,A,3,08,11,12,13,22,23,,,,,,,1.3,1.0,0.7*22
$GPGSV,3,1,09,01,00,000,41,03,00,000,43,06,00,000,44,07,00,000,38*78
$GPGSV,3,2,09,17,00,000,46,19,36,297,44,22,00,000,40,28,00,000,44*7A
$GPGSV,3,3,09,30,00,000,42*45
$BDGSV,3,1,11,01,00,000,41,02,00,000,39,03,00,000,42,04,00,000,40*63
$BDGSV,3,2,11,05,00,000,36,07,00,000,42,08,00,000,43,10,00,000,43*61
$BDGSV,3,3,11,27,37,044,43,30,57,320,44,13,00,000,43*5B
$B3CN0,0,0,0,0,0,0,0,0,0,0,0,0,0,0*4C
$GLGSV,2,1,06,08,09,122,42,23,50,314,48,11,04,162,40,12,44,178,46*62
$GLGSV,2,2,06,13,59,303,45,22,27,031,45*6A
$ini_pos,lastpos_good = 1,ini_pos.x:-1578964.702662,ini_pos.y:5312811.625952,ini_pos.z:3146387.522729
Refix G19: 1, 374824.926473, -2724
$GNGGA,080647.000,2944.9076,N,10633.1140,E,1,08,1.0,384.1,M,,,,0000*1B
$GNRMC,080647.000,A,2944.9076,N,10633.1140,E,0.80,0.00,160519,,*12
$GPGSA,A,3,,,,,,,,,,,,,1.3,1.0,0.7*36
$BDGSA,A,3,27,30,,,,,,,,,,,1.3,1.0,0.7*21
$GLGSA,A,3,08,11,12,13,22,23,,,,,,,1.3,1.0,0.7*22
$GPGSV,3,1,09,01,00,000,41,03,00,000,42,06,00,000,44,07,00,000,37*76
$GPGSV,3,2,09,17,00,000,45,19,36,297,44,22,00,000,40,28,00,000,44*79
$GPGSV,3,3,09,30,00,000,41*46
$BDGSV,3,1,11,01,00,000,41,02,00,000,39,03,00,000,43,04,00,000,41*63
$BDGSV,3,2,11,05,00,000,35,07,00,000,43,08,00,000,43,10,00,000,43*63
$BDGSV,3,3,11,27,37,044,43,30,57,320,44,13,00,000,44*5C
$B3CN0,0,0,0,0,0,0,0,0,0,0,0,0,0,0*4C
$GLGSV,2,1,06,08,09,122,42,23,50,314,48,11,04,162,41,12,44,178,46*63
$GLGSV,2,2,06,13,59,303,45,22,27,031,44*6B
$ini_pos,lastpos_good = 1,ini_pos.x:-1578962.172785,ini_pos.y:5312809.902481,ini_pos.z:3146386.161524
Refix G19: 1, 374825.926474, -2726
$GNGGA,080648.000,2944.9077,N,10633.1128,E,1,08,1.0,381.3,M,,,,0000*1C
$GNRMC,080648.000,A,2944.9077,N,10633.1128,E,0.53,0.00,160519,,*1C
$GPGSA,A,3,,,,,,,,,,,,,1.3,1.0,0.7*36
$BDGSA,A,3,27,30,,,,,,,,,,,1.3,1.0,0.7*21
$GLGSA,A,3,08,11,12,13,22,23,,,,,,,1.3,1.0,0.7*22
$GPGSV,3,1,10,01,00,000,40,03,00,000,43,06,00,000,43,07,00,000,37*79
$GPGSV,3,2,10,17,00,000,45,19,36,297,44,22,00,000,40,28,00,000,44*71
$GPGSV,3,3,10,30,00,000,42,11,00,000,32*7C
$BDGSV,3,1,11,01,00,000,41,02,00,000,40,03,00,000,43,04,00,000,40*6C
$BDGSV,3,2,11,05,00,000,35,07,00,000,42,08,00,000,43,10,00,000,43*62
$BDGSV,3,3,11,27,37,044,43,30,57,320,45,13,00,000,43*5A
$B3CN0,19,0,0,0,0,0,0,0,0,0,0,0,0,0*74
$GLGSV,2,1,06,08,09,122,41,23,50,314,48,11,04,162,40,12,44,178,46*61
$GLGSV,2,2,06,13,59,303,45,22,27,031,44*6B
$ini_pos,lastpos_good = 1,ini_pos.x:-1578959.615894,ini_pos.y:5312808.028578,ini_pos.z:3146384.958279
Refix G19: 1, 374826.926476, -2725
$GNGGA,080649.000,2944.9077,N,10633.1119,E,1,08,1.0,379.7,M,,,,0000*1C
$GNRMC,080649.000,A,2944.9077,N,10633.1119,E,0.51,0.00,160519,,*1D
$GPGSA,A,3,,,,,,,,,,,,,1.3,1.0,0.7*36
$BDGSA,A,3,27,30,,,,,,,,,,,1.3,1.0,0.7*21
$GLGSA,A,3,08,11,12,13,22,23,,,,,,,1.3,1.0,0.7*22
$GPGSV,3,1,10,01,00,000,41,03,00,000,42,06,00,000,43,07,00,000,37*79
$GPGSV,3,2,10,17,00,000,45,19,36,297,44,22,00,000,40,28,00,000,44*71
$GPGSV,3,3,10,30,00,000,42,11,00,000,35*7B
$BDGSV,3,1,11,01,00,000,41,02,00,000,40,03,00,000,42,04,00,000,40*6D
$BDGSV,3,2,11,05,00,000,36,07,00,000,42,08,00,000,43,10,00,000,43*61
$BDGSV,3,3,11,27,37,044,44,30,57,320,45,13,00,000,43*5D
$B3CN0,0,24,0,0,0,0,24,0,0,0,0,0,0,0*4C
$GLGSV,2,1,06,08,09,122,41,23,50,314,48,11,04,162,41,12,44,178,46*60
$GLGSV,2,2,06,13,59,303,45,22,27,031,44*6B
$ini_pos,lastpos_good = 1,ini_pos.x:-1578957.814825,ini_pos.y:5312807.028994,ini_pos.z:3146384.140975
Refix G19: 1, 374827.926478, -2725
$GNGGA,080650.000,2944.9077,N,10633.1114,E,1,08,1.0,378.7,M,,,,0000*18
$GNRMC,080650.000,A,2944.9077,N,10633.1114,E,0.43,0.00,160519,,*1B
$GPGSA,A,3,,,,,,,,,,,,,1.3,1.0,0.7*36
$BDGSA,A,3,27,30,,,,,,,,,,,1.3,1.0,0.7*21
$GLGSA,A,3,08,11,12,13,22,23,,,,,,,1.3,1.0,0.7*22
$GPGSV,3,1,10,01,00,000,41,03,00,000,42,06,00,000,43,07,00,000,37*79
$GPGSV,3,2,10,17,00,000,45,19,36,297,43,22,00,000,40,28,00,000,44*76
$GPGSV,3,3,10,30,00,000,42,11,00,000,35*7B
$BDGSV,3,1,11,01,00,000,40,02,00,000,40,03,00,000,43,04,00,000,40*6D
$BDGSV,3,2,11,05,00,000,34,07,00,000,42,08,00,000,43,10,00,000,43*63
$BDGSV,3,3,11,27,37,044,43,30,57,320,44,13,00,000,43*5B
$B3CN0,20,0,0,0,0,0,27,0,0,0,0,0,0,0*4B
$GLGSV,2,1,06,08,09,122,42,23,50,314,48,11,04,162,41,12,44,178,46*63
$GLGSV,2,2,06,13,59,303,45,22,27,031,45*6A
$ini_pos,lastpos_good = 1,ini_pos.x:-1578956.735242,ini_pos.y:5312806.549820,ini_pos.z:3146383.565785
Refix G19: 1, 374828.926479, -2724
$GNGGA,080651.000,2944.9075,N,10633.1107,E,1,08,1.0,377.9,M,,,,0000*18
$GNRMC,080651.000,A,2944.9075,N,10633.1107,E,0.57,0.00,160519,,*1F
$GPGSA,A,3,,,,,,,,,,,,,1.3,1.0,0.7*36
$BDGSA,A,3,27,30,,,,,,,,,,,1.3,1.0,0.7*21
$GLGSA,A,3,08,11,12,13,22,23,,,,,,,1.3,1.0,0.7*22
$GPGSV,3,1,10,01,00,000,41,03,00,000,43,06,00,000,44,07,00,000,37*7F
$GPGSV,3,2,10,17,00,000,45,19,36,297,44,22,00,000,40,28,00,000,43*76
$GPGSV,3,3,10,30,00,000,43,11,00,000,35*7A
$BDGSV,3,1,11,01,00,000,41,02,00,000,41,03,00,000,43,04,00,000,40*6D
$BDGSV,3,2,11,05,00,000,36,07,00,000,42,08,00,000,42,10,00,000,42*61
$BDGSV,3,3,11,27,37,044,44,30,57,320,45,13,00,000,43*5D
$B3CN0,18,0,0,0,0,0,28,0,0,0,0,0,0,0*4F
$GLGSV,2,1,06,08,09,122,42,23,50,314,48,11,04,162,41,12,44,178,46*63
$GLGSV,2,2,06,13,59,303,45,22,27,031,45*6A
$ini_pos,lastpos_good = 1,ini_pos.x:-1578955.506950,ini_pos.y:5312806.340822,ini_pos.z:3146382.898917
Refix G19: 1, 374829.926481, -2728
$GNGGA,080652.000,2944.9072,N,10633.1102,E,1,08,1.0,377.0,M,,,,0000*10
$GNRMC,080652.000,A,2944.9072,N,10633.1102,E,0.44,0.00,160519,,*1C
$GPGSA,A,3,,,,,,,,,,,,,1.3,1.0,0.7*36
$BDGSA,A,3,27,30,,,,,,,,,,,1.3,1.0,0.7*21
$GLGSA,A,3,08,11,12,13,22,23,,,,,,,1.3,1.0,0.7*22
$GPGSV,3,1,10,01,00,000,41,03,00,000,42,06,00,000,43,07,00,000,37*79
$GPGSV,3,2,10,17,00,000,45,19,36,297,44,22,00,000,41,28,00,000,44*70
$GPGSV,3,3,10,30,00,000,42,11,00,000,35*7B
$BDGSV,3,1,11,01,00,000,41,02,00,000,41,03,00,000,43,04,00,000,40*6D
$BDGSV,3,2,11,05,00,000,34,07,00,000,43,08,00,000,42,10,00,000,42*62
$BDGSV,3,3,11,27,37,044,44,30,57,320,45,13,00,000,43*5D
$B3CN0,0,17,0,0,0,0,27,0,0,0,0,0,0,0*4F
$GLGSV,2,1,06,08,09,122,42,23,50,314,48,11,04,162,40,12,44,178,46*62
$GLGSV,2,2,06,13,59,303,45,22,27,031,44*6B
$ini_pos,lastpos_good = 1,ini_pos.x:-1578954.616159,ini_pos.y:5312805.989276,ini_pos.z:3146382.051499
Refix G19: 1, 374830.926483, -2724
$GNGGA,080653.000,2944.9071,N,10633.1097,E,1,08,1.0,376.1,M,,,,0000*1F
$GNRMC,080653.000,A,2944.9071,N,10633.1097,E,1.00,0.00,160519,,*12
$GPGSA,A,3,,,,,,,,,,,,,1.3,1.0,0.7*36
$BDGSA,A,3,27,30,,,,,,,,,,,1.3,1.0,0.7*21
$GLGSA,A,3,08,11,12,13,22,23,,,,,,,1.3,1.0,0.7*22
$GPGSV,3,1,10,01,00,000,41,03,00,000,42,06,00,000,43,07,00,000,37*79
$GPGSV,3,2,10,17,00,000,45,19,36,297,44,22,00,000,40,28,00,000,43*76
$GPGSV,3,3,10,30,00,000,42,11,00,000,35*7B
$BDGSV,3,1,11,01,00,000,41,02,00,000,41,03,00,000,45,04,00,000,40*6B
$BDGSV,3,2,11,05,00,000,35,07,00,000,43,08,00,000,42,10,00,000,43*62
$BDGSV,3,3,11,27,37,044,44,30,57,320,44,13,00,000,43*5C
$B3CN0,0,0,0,0,0,0,22,0,0,0,0,0,0,0*7C
$GLGSV,2,1,06,08,09,122,42,23,50,314,48,11,04,162,40,12,44,178,46*62
$GLGSV,2,2,06,13,59,303,45,22,27,031,44*6B
$ini_pos,lastpos_good = 1,ini_pos.x:-1578953.680591,ini_pos.y:5312805.707867,ini_pos.z:3146381.353387
Refix G19: 1, 374831.926484, -2725
$GNGGA,080654.000,2944.9068,N,10633.1087,E,1,11,0.8,374.5,M,,,,0000*16
$GNRMC,080654.000,A,2944.9068,N,10633.1087,E,0.41,0.00,160519,,*18
$GPGSA,A,3,,,,,,,,,,,,,1.1,0.8,0.7*3D
$BDGSA,A,3,01,02,04,27,30,,,,,,,,1.1,0.8,0.7*2D
$GLGSA,A,3,08,11,12,13,22,23,,,,,,,1.1,0.8,0.7*29
$GPGSV,3,1,10,01,00,000,41,03,00,000,43,06,00,000,44,07,00,000,37*7F
$GPGSV,3,2,10,17,00,000,45,19,36,297,44,22,00,000,41,28,00,000,43*77
$GPGSV,3,3,10,30,00,000,42,11,00,000,36*78
$BDGSV,3,1,11,01,00,000,41,02,00,000,41,03,00,000,43,04,00,000,40*6D
$BDGSV,3,2,11,05,00,000,37,07,00,000,43,08,00,000,42,10,00,000,43*60
$BDGSV,3,3,11,27,37,044,43,30,57,320,44,13,00,000,43*5B
$B3CN0,0,0,0,0,0,0,0,0,0,0,0,0,0,0*4C
$GLGSV,2,1,06,08,09,122,42,23,50,314,48,11,04,162,40,12,44,178,46*62
$GLGSV,2,2,06,13,59,303,45,22,27,031,45*6A
$ini_pos,lastpos_good = 1,ini_pos.x:-1578951.729718,ini_pos.y:5312805.054887,ini_pos.z:3146380.142607
Refix G01: 2, 374832.923957, 2120
Refix G03: 2, 374832.925813, -1535
Refix G07: 2, 374832.916697, 2383
Refix G17: 2, 374832.927830, -1741
Refix G19: 2, 374832.926167, -2722
Refix G22: 2, 374832.921719, 17
Refix G28: 2, 374832.931826, -1724
Refix G30: 2, 374832.923489, 2025
$GNGGA,080655.000,2944.9066,N,10633.1070,E,1,19,99.0,371.5,M,,,,0000*24
$GNRMC,080655.000,A,2944.9066,N,10633.1070,E,0.73,0.00,160519,,*1E
$GPGSA,A,3,01,03,07,17,19,22,28,30,,,,,99.0,99.0,99.0*00
$BDGSA,A,3,01,02,04,27,30,,,,,,,,99.0,99.0,99.0*12
$GLGSA,A,3,08,11,12,13,22,23,,,,,,,99.0,99.0,99.0*16
$GPGSV,3,1,10,01,00,000,41,03,00,000,43,06,00,000,44,07,00,000,37*7F
$GPGSV,3,2,10,17,00,000,45,19,36,297,44,22,00,000,41,28,00,000,43*77
$GPGSV,3,3,10,30,00,000,42,11,00,000,36*78
$BDGSV,3,1,11,01,40,125,41,02,47,219,40,03,00,000,43,04,23,109,40*6E
$BDGSV,3,2,11,05,00,000,37,07,00,000,43,08,00,000,43,10,00,000,43*61
$BDGSV,3,3,11,27,37,044,44,30,57,320,45,13,00,000,43*5D
$B3CN0,0,0,0,0,0,0,0,0,0,0,0,0,0,0*4C
$GLGSV,2,1,06,08,09,122,42,23,50,314,48,11,04,162,40,12,44,178,46*62
$GLGSV,2,2,06,13,59,303,45,22,27,031,44*6B
$ini_pos,lastpos_good = 1,ini_pos.x:-1578948.433026,ini_pos.y:5312803.499641,ini_pos.z:3146378.287358
Refix G01: 2, 374833.923955, 2118
Refix G03: 2, 374833.925814, -1538
Refix G07: 2, 374833.916695, 2382
Refix G17: 2, 374833.927831, -1742
Refix G19: 2, 374833.926169, -2723
Refix G22: 2, 374833.921719, 15
Refix G28: 2, 374833.931827, -1726
Refix G30: 2, 374833.923487, 2023
$GNGGA,080656.000,2944.9068,N,10633.1031,E,1,19,0.6,359.4,M,,,,0000*11
$GNRMC,080656.000,A,2944.9068,N,10633.1031,E,0.34,0.00,160519,,*15
$GPGSA,A,3,01,03,07,17,19,22,28,30,,,,,0.8,0.6,0.5*3B
$BDGSA,A,3,01,02,04,27,30,,,,,,,,0.8,0.6,0.5*29
$GLGSA,A,3,08,11,12,13,22,23,,,,,,,0.8,0.6,0.5*2D
$GPGSV,3,1,10,01,28,039,41,03,35,086,43,06,00,000,44,07,04,172,37*77
$GPGSV,3,2,10,17,50,324,45,19,36,297,44,22,26,062,40,28,78,039,44*74
$GPGSV,3,3,10,30,27,194,42,11,00,000,36*71
$BDGSV,3,1,11,01,40,125,41,02,47,219,39,03,00,000,43,04,23,109,39*6E
$BDGSV,3,2,11,05,00,000,37,07,00,000,43,08,00,000,43,10,00,000,42*60
$BDGSV,3,3,11,27,37,044,44,30,57,320,44,13,00,000,43*5C
$B3CN0,0,0,0,0,0,0,0,0,0,0,0,0,0,0*4C
$GLGSV,2,1,06,08,09,122,42,23,50,314,48,11,04,162,40,12,44,178,46*62
$GLGSV,2,2,06,13,59,303,44,22,27,031,44*6A
$ini_pos,lastpos_good = 1,ini_pos.x:-1578939.382318,ini_pos.y:5312795.098659,ini_pos.z:3146372.603377
Refix G01: 2, 374834.923954, 2113
Refix G03: 2, 374834.925815, -1543
Refix G07: 2, 374834.916694, 2377
Refix G17: 2, 374834.927832, -1748
Refix G19: 2, 374834.926170, -2728
Refix G22: 2, 374834.921719, 10
Refix G28: 2, 374834.931828, -1732
Refix G30: 2, 374834.923486, 2018
$GNGGA,080657.000,2944.9067,N,10633.1014,E,1,19,0.6,354.9,M,,,,0000*18
$GNRMC,080657.000,A,2944.9067,N,10633.1014,E,0.27,0.00,160519,,*1E
$GPGSA,A,3,01,03,07,17,19,22,28,30,,,,,0.8,0.6,0.5*3B
$BDGSA,A,3,01,02,04,27,30,,,,,,,,0.8,0.6,0.5*29
$GLGSA,A,3,08,11,12,13,22,23,,,,,,,0.8,0.6,0.5*2D
$GPGSV,3,1,10,01,28,039,41,03,35,086,43,06,00,000,43,07,04,172,38*7F
$GPGSV,3,2,10,17,50,324,45,19,36,297,43,22,26,062,40,28,78,039,43*74
$GPGSV,3,3,10,30,27,194,42,11,00,000,37*70
$BDGSV,3,1,11,01,40,125,40,02,47,219,40,03,00,000,45,04,23,109,38*66
$BDGSV,3,2,11,05,00,000,36,07,00,000,43,08,00,000,43,10,00,000,42*61
$BDGSV,3,3,11,27,37,044,44,30,57,320,44,13,00,000,43*5C
$B3CN0,16,19,0,0,0,0,0,0,0,0,0,0,0,0*43
$GLGSV,2,1,06,08,09,122,42,23,50,314,48,11,04,162,40,12,44,178,46*62
$GLGSV,2,2,06,13,59,303,45,22,27,031,44*6B
$ini_pos,lastpos_good = 1,ini_pos.x:-1578935.733798,ini_pos.y:5312792.164166,ini_pos.z:3146370.148755
Refix G01: 2, 374835.923953, 2115
Refix G03: 2, 374835.925816, -1540
Refix G07: 2, 374835.916692, 2378
Refix G17: 2, 374835.927833, -1745
Refix G19: 2, 374835.926172, -2726
Refix G22: 2, 374835.921719, 13
Refix G28: 2, 374835.931829, -1729
Refix G30: 2, 374835.923485, 2020
$GNGGA,080658.000,2944.9066,N,10633.1003,E,1,19,0.6,351.4,M,,,,0000*18
$GNRMC,080658.000,A,2944.9066,N,10633.1003,E,0.18,0.00,160519,,*1A
$GPGSA,A,3,01,03,07,17,19,22,28,30,,,,,0.8,0.6,0.5*3B
$BDGSA,A,3,01,02,04,27,30,,,,,,,,0.8,0.6,0.5*29
$GLGSA,A,3,08,11,12,13,22,23,,,,,,,0.8,0.6,0.5*2D
$GPGSV,3,1,10,01,28,039,41,03,35,086,42,06,00,000,43,07,04,172,38*7E
$GPGSV,3,2,10,17,50,324,45,19,36,297,43,22,26,062,40,28,78,039,43*74
$GPGSV,3,3,10,30,27,194,42,11,00,000,36*71
$BDGSV,3,1,11,01,40,125,41,02,47,219,40,03,00,000,43,04,23,109,40*6E
$BDGSV,3,2,11,05,00,000,36,07,00,000,43,08,00,000,43,10,00,000,43*60
$BDGSV,3,3,11,27,37,044,43,30,57,320,44,13,00,000,43*5B
$B3CN0,0,0,0,0,0,0,0,0,0,0,0,0,0,0*4C
$GLGSV,2,1,06,08,09,122,43,23,50,314,48,11,04,162,40,12,44,178,46*63
$GLGSV,2,2,06,13,59,303,44,22,27,031,44*6A
$ini_pos,lastpos_good = 1,ini_pos.x:-1578933.183373,ini_pos.y:5312789.808270,ini_pos.z:3146368.409286
Refix G01: 2, 374836.923951, 2115
Refix G03: 2, 374836.925817, -1540
Refix G07: 2, 374836.916691, 2379
Refix G17: 2, 374836.927834, -1746
Refix G19: 2, 374836.926174, -2727
Refix G22: 2, 374836.921719, 13
Refix G28: 2, 374836.931830, -1729
Refix G30: 2, 374836.923483, 2020
$GNGGA,080659.000,2944.9066,N,10633.0994,E,1,19,0.6,348.4,M,,,,0000*17
$GNRMC,080659.000,A,2944.9066,N,10633.0994,E,0.22,0.00,160519,,*14
$GPGSA,A,3,01,03,07,17,19,22,28,30,,,,,0.8,0.6,0.5*3B
$BDGSA,A,3,01,02,04,27,30,,,,,,,,0.8,0.6,0.5*29
$GLGSA,A,3,08,11,12,13,22,23,,,,,,,0.8,0.6,0.5*2D
$GPGSV,3,1,10,01,28,039,41,03,35,086,43,06,00,000,43,07,04,172,37*70
$GPGSV,3,2,10,17,50,324,45,19,36,297,43,22,26,062,41,28,78,039,43*75
$GPGSV,3,3,10,30,27,194,42,11,00,000,36*71
$BDGSV,3,1,11,01,40,125,41,02,47,219,40,03,00,000,42,04,23,109,40*6F
$BDGSV,3,2,11,05,00,000,36,07,00,000,43,08,00,000,43,10,00,000,42*61
$BDGSV,3,3,11,27,37,044,44,30,57,320,44,13,00,000,43*5C
$B3CN0,0,0,23,0,0,0,0,0,0,0,0,0,0,0*7D
$GLGSV,2,1,06,08,09,122,42,23,50,314,48,11,04,162,40,12,44,178,46*62
$GLGSV,2,2,06,13,59,303,44,22,27,031,44*6A
$ini_pos,lastpos_good = 1,ini_pos.x:-1578930.964659,ini_pos.y:5312787.800392,ini_pos.z:3146366.807019
Refix G01: 2, 374837.923950, 2117
Refix G03: 2, 374837.925817, -1538
Refix G07: 2, 374837.916689, 2380
Refix G17: 2, 374837.927835, -1744
Refix G19: 2, 374837.926175, -2725
Refix G22: 2, 374837.921719, 15
Refix G28: 2, 374837.931831, -1727
Refix G30: 2, 374837.923482, 2022
$GNGGA,080700.000,2944.9066,N,10633.0986,E,1,19,0.6,346.0,M,,,,0000*13
$GNRMC,080700.000,A,2944.9066,N,10633.0986,E,0.25,0.00,160519,,*1D
$GPGSA,A,3,01,03,07,17,19,22,28,30,,,,,0.8,0.6,0.5*3B
$BDGSA,A,3,01,02,04,27,30,,,,,,,,0.8,0.6,0.5*29
$GLGSA,A,3,08,11,12,13,22,23,,,,,,,0.8,0.6,0.5*2D
$GPGSV,3,1,10,01,28,039,41,03,35,086,42,06,00,000,43,07,04,172,38*7E
$GPGSV,3,2,10,17,50,324,46,19,36,297,43,22,26,062,41,28,78,039,43*76
$GPGSV,3,3,10,30,27,194,42,11,00,000,36*71
$BDGSV,3,1,11,01,40,125,42,02,47,219,40,03,00,000,43,04,23,109,41*6C
$BDGSV,3,2,11,05,00,000,37,07,00,000,43,08,00,000,43,10,00,000,43*61
$BDGSV,3,3,11,27,37,044,43,30,57,320,44,13,00,000,43*5B
$B3CN0,0,19,16,0,0,0,0,0,0,0,0,0,0,0*43
$GLGSV,2,1,06,08,09,122,42,23,50,314,48,11,04,162,41,12,44,178,45*60
$GLGSV,2,2,06,13,59,303,45,22,27,031,44*6B
$ini_pos,lastpos_good = 1,ini_pos.x:-1578929.180637,ini_pos.y:5312786.102312,ini_pos.z:3146365.686745
Refix G01: 2, 374838.923948, 2123
Refix G03: 2, 374838.925818, -1530
Refix G06: 2, 374838.925714, -3785
Refix G07: 2, 374838.916688, 2386
Refix G17: 2, 374838.927837, -1738
Refix G19: 2, 374838.926177, -2718
Refix G22: 2, 374838.921719, 22
Refix G28: 2, 374838.931832, -1719
Refix G30: 2, 374838.923481, 2029
$GNGGA,080701.000,2944.9066,N,10633.0977,E,1,20,0.6,343.9,M,,,,0000*1A
$GNRMC,080701.000,A,2944.9066,N,10633.0977,E,0.38,0.00,160519,,*1E
$GPGSA,A,3,01,03,06,07,17,19,22,28,30,,,,0.7,0.6,0.5*32
$BDGSA,A,3,01,02,04,27,30,,,,,,,,0.7,0.6,0.5*26
$GLGSA,A,3,08,11,12,13,22,23,,,,,,,0.7,0.6,0.5*22
$GPGSV,3,1,10,01,28,039,41,03,35,086,42,06,00,000,43,07,04,172,38*7E
$GPGSV,3,2,10,17,50,324,46,19,36,297,44,22,26,062,41,28,78,039,43*71
$GPGSV,3,3,10,30,27,194,42,11,00,000,36*71
$BDGSV,3,1,11,01,40,125,41,02,47,219,40,03,00,000,43,04,23,109,41*6F
$BDGSV,3,2,11,05,00,000,36,07,00,000,42,08,00,000,43,10,00,000,43*61
$BDGSV,3,3,11,27,37,044,44,30,57,320,44,13,00,000,44*5B
$B3CN0,0,0,25,0,0,0,0,0,0,0,0,0,0,0*7B
$GLGSV,2,1,06,08,09,121,42,23,50,314,48,11,04,162,41,12,43,178,46*67
$GLGSV,2,2,06,13,59,303,45,22,27,031,44*6B
$ini_pos,lastpos_good = 1,ini_pos.x:-1578927.315555,ini_pos.y:5312784.762971,ini_pos.z:3146364.605849
Refix G01: 2, 374839.923947, 2114
Refix G03: 2, 374839.925819, -1540
Refix G06: 2, 374839.925717, -3794
Refix G07: 2, 374839.916686, 2377
Refix G17: 2, 374839.927838, -1747
Refix G19: 2, 374839.926179, -2727
Refix G22: 2, 374839.921719, 13
Refix G28: 2, 374839.931833, -1730
Refix G30: 2, 374839.923480, 2019
$GNGGA,080702.000,2944.9067,N,10633.0970,E,1,20,0.6,341.6,M,,,,0000*12
$GNRMC,080702.000,A,2944.9067,N,10633.0970,E,0.18,0.00,160519,,*19
$GPGSA,A,3,01,03,06,07,17,19,22,28,30,,,,0.7,0.6,0.5*32
$BDGSA,A,3,01,02,04,27,30,,,,,,,,0.7,0.6,0.5*26
$GLGSA,A,3,08,11,12,13,22,23,,,,,,,0.7,0.6,0.5*22
$GPGSV,3,1,10,01,28,039,41,03,35,086,42,06,35,228,43,07,04,172,38*70
$GPGSV,3,2,10,17,50,324,45,19,36,297,44,22,26,062,42,28,78,039,44*76
$GPGSV,3,3,10,30,27,194,42,11,00,000,36*71
$BDGSV,3,1,11,01,40,125,41,02,47,219,40,03,00,000,45,04,23,109,40*68
$BDGSV,3,2,11,05,00,000,36,07,00,000,42,08,00,000,43,10,00,000,43*61
$BDGSV,3,3,11,27,37,044,43,30,57,320,45,13,00,000,43*5A
$B3CN0,0,0,22,0,0,0,28,0,0,0,0,0,0,0*46
$GLGSV,2,1,06,08,09,121,42,23,50,314,47,11,04,162,42,12,43,178,46*6B
$GLGSV,2,2,06,13,59,303,45,22,27,031,45*6A
$ini_pos,lastpos_good = 1,ini_pos.x:-1578925.619103,ini_pos.y:5312783.149431,ini_pos.z:3146363.597711
Refix G01: 2, 374840.923946, 2113
Refix G03: 2, 374840.925820, -1540
Refix G06: 2, 374840.925719, -3795
Refix G07: 2, 374840.916685, 2376
Refix G17: 2, 374840.927839, -1748
Refix G19: 2, 374840.926181, -2727
Refix G22: 2, 374840.921718, 13
Refix G28: 2, 374840.931834, -1730
Refix G30: 2, 374840.923478, 2019
$GNGGA,080703.000,2944.9068,N,10633.0965,E,1,20,0.6,340.2,M,,,,0000*1D
$GNRMC,080703.000,A,2944.9068,N,10633.0965,E,0.22,0.00,160519,,*1A
$GPGSA,A,3,01,03,06,07,17,19,22,28,30,,,,0.7,0.6,0.5*32
$BDGSA,A,3,01,02,04,27,30,,,,,,,,0.7,0.6,0.5*26
$GLGSA,A,3,08,11,12,13,22,23,,,,,,,0.7,0.6,0.5*22
$GPGSV,3,1,10,01,28,039,41,03,35,086,42,06,35,228,43,07,04,172,37*7F
$GPGSV,3,2,10,17,50,324,45,19,36,297,44,22,26,062,41,28,78,039,44*75
$GPGSV,3,3,10,30,27,194,42,11,00,000,36*71
$BDGSV,3,1,11,01,40,125,41,02,47,219,41,03,00,000,43,04,23,109,40*6F
$BDGSV,3,2,11,05,00,000,35,07,00,000,43,08,00,000,43,10,00,000,43*63
$BDGSV,3,3,11,27,37,044,43,30,57,320,44,13,00,000,43*5B
$B3CN0,18,0,0,0,0,0,27,0,0,0,0,0,0,0*40
$GLGSV,2,1,06,08,09,121,42,23,50,314,48,11,04,162,42,12,43,178,46*64
$GLGSV,2,2,06,13,59,303,45,22,27,031,44*6B
$ini_pos,lastpos_good = 1,ini_pos.x:-1578924.479652,ini_pos.y:5312782.137154,ini_pos.z:3146363.048312
Refix G01: 2, 374841.923944, 2119
Refix G03: 2, 374841.925821, -1534
Refix G06: 2, 374841.925721, -3789
Refix G07: 2, 374841.916683, 2381
Refix G17: 2, 374841.927840, -1742
Refix G19: 2, 374841.926182, -2722
Refix G22: 2, 374841.921718, 19
Refix G28: 2, 374841.931835, -1724
Refix G30: 2, 374841.923477, 2024
$GNGGA,080704.000,2944.9069,N,10633.0962,E,1,20,0.6,338.9,M,,,,0000*18
$GNRMC,080704.000,A,2944.9069,N,10633.0962,E,0.16,0.00,160519,,*1C
$GPGSA,A,3,01,03,06,07,17,19,22,28,30,,,,0.7,0.6,0.5*32
$BDGSA,A,3,01,02,04,27,30,,,,,,,,0.7,0.6,0.5*26
$GLGSA,A,3,08,11,12,13,22,23,,,,,,,0.7,0.6,0.5*22
$GPGSV,3,1,10,01,28,039,40,03,35,086,41,06,35,228,43,07,04,172,37*7D
$GPGSV,3,2,10,17,50,324,45,19,36,297,44,22,26,062,41,28,78,039,44*75
$GPGSV,3,3,10,30,27,194,42,11,00,000,36*71
$BDGSV,3,1,11,01,40,125,42,02,47,219,40,03,00,000,43,04,23,109,40*6D
$BDGSV,3,2,11,05,00,000,35,07,00,000,42,08,00,000,43,10,00,000,43*62
$BDGSV,3,3,11,27,37,044,44,30,57,320,45,13,00,000,44*5A
$B3CN0,0,36,0,0,0,0,28,0,0,0,0,0,0,0*43
$GLGSV,2,1,06,08,09,121,42,23,50,314,47,11,04,162,41,12,43,178,46*68
$GLGSV,2,2,06,13,59,303,45,22,27,031,45*6A
$ini_pos,lastpos_good = 1,ini_pos.x:-1578923.589440,ini_pos.y:5312781.147591,ini_pos.z:3146362.551023
Refix G01: 2, 374842.923943, 2117
Refix G03: 2, 374842.925822, -1536
Refix G06: 2, 374842.925724, -3791
Refix G07: 2, 374842.916682, 2378
Refix G17: 2, 374842.927841, -1744
Refix G19: 2, 374842.926184, -2724
Refix G22: 2, 374842.921718, 17
Refix G28: 2, 374842.931836, -1726
Refix G30: 2, 374842.923476, 2022
$GNGGA,080705.000,2944.9069,N,10633.0959,E,1,20,0.6,337.6,M,,,,0000*11
$GNRMC,080705.000,A,2944.9069,N,10633.0959,E,0.34,0.00,160519,,*15
$GPGSA,A,3,01,03,06,07,17,19,22,28,30,,,,0.7,0.6,0.5*32
$BDGSA,A,3,01,02,04,27,30,,,,,,,,0.7,0.6,0.5*26
$GLGSA,A,3,08,11,12,13,22,23,,,,,,,0.7,0.6,0.5*22
$GPGSV,3,1,10,01,28,039,41,03,35,086,41,06,35,228,43,07,04,172,38*73
$GPGSV,3,2,10,17,50,324,45,19,36,297,44,22,26,062,40,28,78,039,44*74
$GPGSV,3,3,10,30,27,194,42,11,00,000,36*71
$BDGSV,3,1,11,01,40,125,41,02,47,219,40,03,00,000,42,04,23,109,40*6F
$BDGSV,3,2,11,05,00,000,36,07,00,000,42,08,00,000,43,10,00,000,43*61
$BDGSV,3,3,11,27,37,044,44,30,57,320,45,13,00,000,43*5D
$B3CN0,0,21,20,0,0,0,27,0,0,0,0,0,0,0*78
$GLGSV,2,1,06,08,09,121,42,23,50,314,48,11,04,162,41,12,43,178,46*67
$GLGSV,2,2,06,13,59,303,45,22,27,031,44*6B
$ini_pos,lastpos_good = 1,ini_pos.x:-1578922.862002,ini_pos.y:5312780.159718,ini_pos.z:3146361.973944
Refix G01: 2, 374843.923942, 2119
Refix G03: 2, 374843.925823, -1533
Refix G06: 2, 374843.925726, -3789
Refix G07: 2, 374843.916680, 2380
Refix G17: 2, 374843.927842, -1742
Refix G19: 2, 374843.926186, -2722
Refix G22: 2, 374843.921718, 20
Refix G28: 2, 374843.931838, -1723
Refix G30: 2, 374843.923474, 2024
$GNGGA,080706.000,2944.9068,N,10633.0957,E,1,20,0.6,336.5,M,,,,0000*1F
$GNRMC,080706.000,A,2944.9068,N,10633.0957,E,0.25,0.00,160519,,*19
$GPGSA,A,3,01,03,06,07,17,19,22,28,30,,,,0.7,0.6,0.5*32
$BDGSA,A,3,01,02,04,27,30,,,,,,,,0.7,0.6,0.5*26
$GLGSA,A,3,08,11,12,13,22,23,,,,,,,0.7,0.6,0.5*22
$GPGSV,3,1,10,01,28,039,40,03,35,086,41,06,35,228,43,07,04,172,38*72
$GPGSV,3,2,10,17,50,324,45,19,36,297,44,22,26,062,41,28,78,039,44*75
$GPGSV,3,3,10,30,27,194,42,11,00,000,36*71
$BDGSV,3,1,11,01,40,125,42,02,47,219,39,03,00,000,43,04,23,109,41*62
$BDGSV,3,2,11,05,00,000,37,07,00,000,43,08,00,000,43,10,00,000,43*61
$BDGSV,3,3,11,27,37,044,44,30,57,320,44,13,00,000,43*5C
$B3CN0,0,0,21,0,0,0,27,0,0,0,0,0,0,0*4A
$GLGSV,2,1,06,08,09,121,43,23,50,314,48,11,04,162,40,12,43,178,46*67
$GLGSV,2,2,06,13,59,303,45,22,27,031,44*6B
$ini_pos,lastpos_good = 1,ini_pos.x:-1578922.209246,ini_pos.y:5312779.371070,ini_pos.z:3146361.297596
Refix G01: 2, 374844.923940, 2118
Refix G03: 2, 374844.925824, -1533
Refix G06: 2, 374844.925729, -3789
Refix G07: 2, 374844.916678, 2380
Refix G17: 2, 374844.927843, -1743
Refix G19: 2, 374844.926187, -2723
Refix G22: 2, 374844.921718, 19
Refix G28: 2, 374844.931839, -1723
Refix G30: 2, 374844.923473, 2024
$GNGGA,080707.000,2944.9069,N,10633.0955,E,1,20,0.6,335.6,M,,,,0000*1D
$GNRMC,080707.000,A,2944.9069,N,10633.0955,E,0.11,0.00,160519,,*1C
$GPGSA,A,3,01,03,06,07,17,19,22,28,30,,,,0.7,0.6,0.5*32
$BDGSA,A,3,01,02,04,27,30,,,,,,,,0.7,0.6,0.5*26
$GLGSA,A,3,08,11,12,13,22,23,,,,,,,0.7,0.6,0.5*22
$GPGSV,3,1,10,01,28,039,40,03,35,086,42,06,35,228,43,07,04,172,38*71
$GPGSV,3,2,10,17,50,324,45,19,36,297,44,22,26,062,41,28,78,039,44*75
$GPGSV,3,3,10,30,27,194,42,11,00,000,36*71
$BDGSV,3,1,11,01,40,125,41,02,47,219,40,03,00,000,45,04,23,109,41*69
$BDGSV,3,2,11,05,00,000,36,07,00,000,42,08,00,000,42,10,00,000,42*61
$BDGSV,3,3,11,27,37,044,43,30,57,320,44,13,00,000,43*5B
$B3CN0,0,0,23,0,0,0,28,0,0,0,0,0,0,0*47
$GLGSV,2,1,06,08,09,121,42,23,50,314,48,11,04,162,41,12,43,178,46*67
$GLGSV,2,2,06,13,59,303,45,22,27,031,45*6A
$ini_pos,lastpos_good = 1,ini_pos.x:-1578921.667204,ini_pos.y:5312778.669371,ini_pos.z:3146360.957713
Refix G01: 2, 374845.923939, 2118
Refix G03: 2, 374845.925825, -1533
Refix G06: 2, 374845.925731, -3789
Refix G07: 2, 374845.916677, 2379
Refix G17: 2, 374845.927844, -1744
Refix G19: 2, 374845.926189, -2724
Refix G22: 2, 374845.921718, 19
Refix G28: 2, 374845.931840, -1724
Refix G30: 2, 374845.923472, 2023
$GNGGA,080708.000,2944.9070,N,10633.0953,E,1,20,0.6,335.2,M,,,,0000*18
$GNRMC,080708.000,A,2944.9070,N,10633.0953,E,0.13,0.00,160519,,*1F
$GPGSA,A,3,01,03,06,07,17,19,22,28,30,,,,0.7,0.6,0.5*32
$BDGSA,A,3,01,02,04,27,30,,,,,,,,0.7,0.6,0.5*26
$GLGSA,A,3,08,11,12,13,22,23,,,,,,,0.7,0.6,0.5*22
$GPGSV,3,1,10,01,28,039,40,03,35,086,42,06,35,228,42,07,04,172,38*70
$GPGSV,3,2,10,17,50,324,45,19,36,297,44,22,26,062,41,28,78,039,44*75
$GPGSV,3,3,10,30,27,194,42,11,00,000,36*71
$BDGSV,3,1,11,01,40,125,41,02,47,219,40,03,00,000,43,04,23,109,41*6F
$BDGSV,3,2,11,05,00,000,36,07,00,000,42,08,00,000,43,10,00,000,42*60
$BDGSV,3,3,11,27,37,044,43,30,57,320,44,13,00,000,43*5B
$B3CN0,0,0,0,0,0,0,27,0,0,0,0,0,0,0*79
$GLGSV,2,1,06,08,09,121,42,23,50,314,48,11,04,162,42,12,43,178,46*64
$GLGSV,2,2,06,13,59,303,45,22,27,031,44*6B
$ini_pos,lastpos_good = 1,ini_pos.x:-1578921.347660,ini_pos.y:5312778.318724,ini_pos.z:3146360.946549
Refix G01: 2, 374846.923937, 2116
Refix G03: 2, 374846.925826, -1535
Refix G06: 2, 374846.925733, -3791
Refix G07: 2, 374846.916675, 2376
Refix G17: 2, 374846.927845, -1746
Refix G19: 2, 374846.926191, -2726
Refix G22: 2, 374846.921718, 17
Refix G28: 2, 374846.931841, -1726
Refix G30: 2, 374846.923470, 2021
$GNGGA,080709.000,2944.9071,N,10633.0953,E,1,22,0.5,334.9,M,,,,0000*13
$GNRMC,080709.000,A,2944.9071,N,10633.0953,E,0.15,0.00,160519,,*19
$GPGSA,A,3,01,03,06,07,17,19,22,28,30,,,,0.7,0.5,0.5*31
$BDGSA,A,3,01,02,04,27,30,,,,,,,,0.7,0.5,0.5*25
$GLGSA,A,3,07,08,11,12,13,22,23,24,,,,,0.7,0.5,0.5*20
$GPGSV,3,1,10,01,28,039,41,03,35,086,42,06,35,228,42,07,04,172,38*71
$GPGSV,3,2,10,17,50,324,45,19,36,297,44,22,26,062,41,28,78,039,43*72
$GPGSV,3,3,10,30,27,194,42,11,00,000,36*71
$BDGSV,3,1,11,01,40,125,41,02,47,219,40,03,00,000,43,04,23,109,40*6E
$BDGSV,3,2,11,05,00,000,35,07,00,000,42,08,00,000,43,10,00,000,42*63
$BDGSV,3,3,11,27,37,044,44,30,57,320,44,13,00,000,43*5C
$B3CN0,0,0,19,0,0,0,27,0,0,0,0,0,0,0*41
$GLGSV,2,1,08,08,09,121,42,07,00,000,36,23,50,314,48,24,00,000,32*60
$GLGSV,2,2,08,11,04,162,41,12,43,178,46,13,59,303,45,22,27,031,44*69
$ini_pos,lastpos_good = 1,ini_pos.x:-1578921.124085,ini_pos.y:5312778.003178,ini_pos.z:3146360.883340
Refix G01: 2, 374847.923936, 2119
Refix G03: 2, 374847.925827, -1530
Refix G06: 2, 374847.925736, -3786
Refix G07: 2, 374847.916674, 2379
Refix G17: 2, 374847.927846, -1741
Refix G19: 2, 374847.926192, -2721
Refix G22: 2, 374847.921718, 21
Refix G28: 2, 374847.931842, -1721
Refix G30: 2, 374847.923469, 2025
$GNGGA,080710.000,2944.9070,N,10633.0952,E,1,22,0.5,334.5,M,,,,0000*17
$GNRMC,080710.000,A,2944.9070,N,10633.0952,E,0.14,0.00,160519,,*10
$GPGSA,A,3,01,03,06,07,17,19,22,28,30,,,,0.7,0.5,0.5*31
$BDGSA,A,3,01,02,04,27,30,,,,,,,,0.7,0.5,0.5*25
$GLGSA,A,3,07,08,11,12,13,22,23,24,,,,,0.7,0.5,0.5*20
$GPGSV,3,1,10,01,28,039,41,03,35,086,42,06,35,228,43,07,04,172,38*70
$GPGSV,3,2,10,17,50,324,45,19,36,297,44,22,26,062,41,28,78,039,43*72
$GPGSV,3,3,10,30,27,194,42,11,00,000,37*70
$BDGSV,3,1,11,01,40,125,41,02,47,219,40,03,00,000,43,04,23,109,41*6F
$BDGSV,3,2,11,05,00,000,35,07,00,000,43,08,00,000,43,10,00,000,43*63
$BDGSV,3,3,11,27,37,044,43,30,57,320,44,13,00,000,43*5B
$B3CN0,0,0,0,0,0,0,28,0,0,0,0,0,0,0*76
$GLGSV,2,1,08,08,09,121,42,07,13,074,36,23,50,314,48,24,22,263,32*66
$GLGSV,2,2,08,11,04,162,41,12,43,178,46,13,59,303,45,22,27,031,44*69
$ini_pos,lastpos_good = 1,ini_pos.x:-1578920.982285,ini_pos.y:5312777.718894,ini_pos.z:3146360.579640
Refix G01: 2, 374848.923935, 2118
Refix G03: 2, 374848.925828, -1531
Refix G06: 2, 374848.925738, -3789
Refix G07: 2, 374848.916672, 2377
Refix G17: 2, 374848.927847, -1744
Refix G19: 2, 374848.926194, -2724
Refix G22: 2, 374848.921718, 20
Refix G28: 2, 374848.931843, -1722
Refix G30: 2, 374848.923468, 2023
$GNGGA,080711.000,2944.9070,N,10633.0952,E,1,22,0.5,333.7,M,,,,0000*13
$GNRMC,080711.000,A,2944.9070,N,10633.0952,E,0.18,0.00,160519,,*1D
$GPGSA,A,3,01,03,06,07,17,19,22,28,30,,,,0.7,0.5,0.5*31
$BDGSA,A,3,01,02,04,27,30,,,,,,,,0.7,0.5,0.5*25
$GLGSA,A,3,07,08,11,12,13,22,23,24,,,,,0.7,0.5,0.5*20
$GPGSV,3,1,10,01,28,039,40,03,35,086,42,06,35,228,43,07,04,172,38*71
$GPGSV,3,2,10,17,50,324,45,19,36,297,44,22,26,062,40,28,78,039,43*73
$GPGSV,3,3,10,30,27,194,42,11,00,000,36*71
$BDGSV,3,1,11,01,40,125,41,02,47,219,41,03,00,000,43,04,23,109,40*6F
$BDGSV,3,2,11,05,00,000,35,07,00,000,42,08,00,000,42,10,00,000,43*63
$BDGSV,3,3,11,27,37,044,43,30,57,320,44,13,00,000,43*5B
$B3CN0,18,0,0,0,0,0,27,0,0,0,0,0,0,0*40
$GLGSV,2,1,08,08,09,121,43,07,13,074,36,23,50,314,48,24,22,263,32*67
$GLGSV,2,2,08,11,04,162,41,12,43,178,46,13,59,303,45,22,27,031,44*69
$ini_pos,lastpos_good = 1,ini_pos.x:-1578920.703176,ini_pos.y:5312777.072109,ini_pos.z:3146360.214702
Refix G01: 2, 374849.923933, 2114
Refix G03: 2, 374849.925829, -1536
Refix G06: 2, 374849.925740, -3793
Refix G07: 2, 374849.916671, 2373
Refix G17: 2, 374849.927848, -1749
Refix G19: 2, 374849.926196, -2728
Refix G22: 2, 374849.921718, 17
Refix G28: 2, 374849.931844, -1727
Refix G30: 2, 374849.923466, 2018
$GNGGA,080712.000,2944.9070,N,10633.0951,E,1,22,0.5,333.1,M,,,,0000*15
$GNRMC,080712.000,A,2944.9070,N,10633.0951,E,0.23,0.00,160519,,*15
$GPGSA,A,3,01,03,06,07,17,19,22,28,30,,,,0.7,0.5,0.5*31
$BDGSA,A,3,01,02,04,27,30,,,,,,,,0.7,0.5,0.5*25
$GLGSA,A,3,07,08,11,12,13,22,23,24,,,,,0.7,0.5,0.5*20
$GPGSV,3,1,10,01,28,039,41,03,35,086,42,06,35,228,43,07,04,172,37*7F
$GPGSV,3,2,10,17,50,324,44,19,36,297,43,22,26,062,41,28,78,039,43*74
$GPGSV,3,3,10,30,27,194,42,11,00,000,36*71
$BDGSV,3,1,11,01,40,125,41,02,47,219,40,03,00,000,43,04,23,109,40*6E
$BDGSV,3,2,11,05,00,000,36,07,00,000,43,08,00,000,42,10,00,000,42*60
$BDGSV,3,3,11,27,37,044,43,30,57,320,44,13,00,000,44*5C
$B3CN0,0,19,0,0,0,0,27,0,0,0,0,0,0,0*41
$GLGSV,2,1,08,08,09,121,42,07,13,074,36,23,50,314,48,24,22,263,32*66
$GLGSV,2,2,08,11,04,162,41,12,43,178,46,13,59,303,45,22,27,031,44*69
$ini_pos,lastpos_good = 1,ini_pos.x:-1578920.540239,ini_pos.y:5312776.638695,ini_pos.z:3146359.942252
Refix G01: 2, 374850.923932, 2119
Refix G03: 2, 374850.925830, -1529
Refix G06: 2, 374850.925743, -3787
Refix G07: 2, 374850.916669, 2377
Refix G17: 2, 374850.927849, -1743
Refix G19: 2, 374850.926198, -2723
Refix G22: 2, 374850.921718, 22
Refix G28: 2, 374850.931845, -1720
Refix G30: 2, 374850.923465, 2024
$GNGGA,080713.000,2944.9071,N,10633.0950,E,1,22,0.5,332.4,M,,,,0000*10
$GNRMC,080713.000,A,2944.9071,N,10633.0950,E,0.25,0.00,160519,,*12
$GPGSA,A,3,01,03,06,07,17,19,22,28,30,,,,0.7,0.5,0.5*31
$BDGSA,A,3,01,02,04,27,30,,,,,,,,0.7,0.5,0.5*25
$GLGSA,A,3,07,08,11,12,13,22,23,24,,,,,0.7,0.5,0.5*20
$GPGSV,3,1,10,01,28,039,41,03,35,086,42,06,35,228,44,07,04,172,37*78
$GPGSV,3,2,10,17,50,324,45,19,36,297,43,22,26,062,41,28,78,039,44*72
$GPGSV,3,3,10,30,27,194,42,11,00,000,35*72
$BDGSV,3,1,11,01,40,125,40,02,47,219,41,03,00,000,43,04,23,109,40*6E
$BDGSV,3,2,11,05,00,000,35,07,00,000,43,08,00,000,43,10,00,000,43*63
$BDGSV,3,3,11,27,37,044,43,30,57,320,44,13,00,000,44*5C
$B3CN0,0,0,22,0,0,0,22,0,0,0,0,0,0,0*4C
$GLGSV,2,1,08,08,09,121,42,07,13,074,36,23,50,314,48,24,22,263,32*66
$GLGSV,2,2,08,11,04,162,41,12,43,178,46,13,59,303,45,22,27,031,44*69
$ini_pos,lastpos_good = 1,ini_pos.x:-1578920.171153,ini_pos.y:5312776.012621,ini_pos.z:3146359.672228
Refix G01: 2, 374851.923931, 2118
Refix G03: 2, 374851.925831, -1530
Refix G06: 2, 374851.925745, -3788
Refix G07: 2, 374851.916668, 2377
Refix G17: 2, 374851.927851, -1744
Refix G19: 2, 374851.926199, -2724
Refix G22: 2, 374851.921718, 22
Refix G28: 2, 374851.931846, -1721
Refix G30: 2, 374851.923464, 2023
$GNGGA,080714.000,2944.9070,N,10633.0950,E,1,22,0.5,331.9,M,,,,0000*18
$GNRMC,080714.000,A,2944.9070,N,10633.0950,E,0.32,0.00,160519,,*12
$GPGSA,A,3,01,03,06,07,17,19,22,28,30,,,,0.7,0.5,0.5*31
$BDGSA,A,3,01,02,04,27,30,,,,,,,,0.7,0.5,0.5*25
$GLGSA,A,3,07,08,11,12,13,22,23,24,,,,,0.7,0.5,0.5*20
$GPGSV,3,1,10,01,28,039,41,03,35,086,42,06,35,228,43,07,04,172,37*7F
$GPGSV,3,2,10,17,50,324,45,19,36,297,42,22,26,062,40,28,78,039,43*75
$GPGSV,3,3,10,30,27,194,42,11,00,000,36*71
$BDGSV,3,1,11,01,40,125,42,02,47,219,40,03,00,000,43,04,23,109,41*6C
$BDGSV,3,2,11,05,00,000,35,07,00,000,43,08,00,000,42,10,00,000,43*62
$BDGSV,3,3,11,27,37,044,43,30,57,320,44,13,00,000,44*5C
$B3CN0,0,0,0,0,0,0,0,0,0,0,0,0,0,0*4C
$GLGSV,2,1,08,08,09,121,43,07,13,074,36,23,50,314,48,24,22,263,32*67
$GLGSV,2,2,08,11,04,162,41,12,43,178,46,13,59,303,45,22,27,031,45*68
$ini_pos,lastpos_good = 1,ini_pos.x:-1578919.957421,ini_pos.y:5312775.696219,ini_pos.z:3146359.366020
Refix G01: 2, 374852.923929, 2117
Refix G03: 2, 374852.925832, -1530
Refix G06: 2, 374852.925748, -3788
Refix G07: 2, 374852.916666, 2376
Refix G17: 2, 374852.927852, -1745
Refix G19: 2, 374852.926201, -2724
Refix G22: 2, 374852.921718, 21
Refix G28: 2, 374852.931847, -1723
Refix G30: 2, 374852.923462, 2023
$GNGGA,080715.000,2944.9069,N,10633.0947,E,1,26,0.5,331.8,M,,,,0000*12
$GNRMC,080715.000,A,2944.9069,N,10633.0947,E,0.16,0.00,160519,,*1B
$GPGSA,A,3,01,03,06,07,17,19,22,28,30,,,,0.6,0.5,0.3*36
$BDGSA,A,3,01,02,04,07,08,10,13,27,30,,,,0.6,0.5,0.3*2E
$GLGSA,A,3,07,08,11,12,13,22,23,24,,,,,0.6,0.5,0.3*27
$GPGSV,3,1,10,01,28,039,41,03,35,086,42,06,35,228,43,07,04,172,38*70
$GPGSV,3,2,10,17,50,324,45,19,36,297,43,22,26,062,40,28,78,039,43*74
$GPGSV,3,3,10,30,27,194,42,11,00,000,35*72
$BDGSV,3,1,11,01,40,125,41,02,47,219,41,03,00,000,43,04,23,109,40*6F
$BDGSV,3,2,11,05,00,000,36,07,00,000,43,08,00,000,43,10,00,000,43*60
$BDGSV,3,3,11,27,37,044,43,30,57,320,44,13,00,000,44*5C
$B3CN0,0,0,23,0,0,0,0,0,0,0,0,0,0,0*7D
$GLGSV,2,1,08,08,09,121,42,07,13,074,37,23,50,314,48,24,22,263,32*67
$GLGSV,2,2,08,11,04,162,41,12,43,178,45,13,59,303,45,22,27,031,44*6A
$ini_pos,lastpos_good = 1,ini_pos.x:-1578919.515831,ini_pos.y:5312775.864123,ini_pos.z:3146359.097098
Refix G01: 2, 374853.923928, 2120
Refix G03: 2, 374853.925833, -1527
Refix G06: 2, 374853.925750, -3784
Refix G07: 2, 374853.916665, 2379
Refix G17: 2, 374853.927853, -1741
Refix G19: 2, 374853.926203, -2720
Refix G22: 2, 374853.921718, 25
Refix G28: 2, 374853.931848, -1718
Refix G30: 2, 374853.923461, 2027
$GNGGA,080716.000,2944.9069,N,10633.0944,E,1,26,0.5,331.7,M,,,,0000*1D
$GNRMC,080716.000,A,2944.9069,N,10633.0944,E,0.15,0.00,160519,,*18
$GPGSA,A,3,01,03,06,07,17,19,22,28,30,,,,0.6,0.5,0.3*36
$BDGSA,A,3,01,02,04,07,08,10,13,27,30,,,,0.6,0.5,0.3*2E
$GLGSA,A,3,07,08,11,12,13,22,23,24,,,,,0.6,0.5,0.3*27
$GPGSV,3,1,10,01,28,039,41,03,35,086,42,06,35,228,43,07,04,172,38*70
$GPGSV,3,2,10,17,50,324,45,19,36,297,44,22,26,062,41,28,78,039,43*72
$GPGSV,3,3,10,30,27,194,42,11,00,000,35*72
$BDGSV,3,1,11,01,40,125,40,02,47,219,39,03,00,000,43,04,23,109,39*6F
