SD initialized success
Create debug.log Failed! 3
bbram_blkflag = 1
rtcflag = 128
BBRAM Block OK: 01 EPHflag: 4660a1c8 8940877f, rtc 80
GPS 0 Init Dop: 10000,80
GPS 1 Init Dop: 10000,80
GPS 2 Init Dop: 10000,80
GPS 3 Init Dop: 10000,80
GPS 4 Init Dop: 10000,80
GPS 5 Init Dop: 10000,80
GPS 6 Init Dop: 10000,80
GPS 7 Init Dop: 10000,80
GPS 8 Init Dop: 10000,80
GPS 9 Init Dop: 10000,80
GPS10 Init Dop: 10000,80
GPS11 Init Dop: 10000,80
GPS12 Init Dop: 10000,80
GPS13 Init Dop: 10000,80
GPS14 Init Dop: 10000,80
GPS15 Init Dop: 10000,80
GPS16 Init Dop: 10000,80
GPS17 Init Dop: 10000,80
GPS18 Init Dop: 10000,80
GPS19 Init Dop: 10000,80
GPS20 Init Dop: 10000,80
GPS21 Init Dop: 10000,80
GPS22 Init Dop: 10000,80
GPS23 Init Dop: 10000,80
GPS24 Init Dop: 10000,80
GPS25 Init Dop: 10000,80
GPS26 Init Dop: 10000,80
GPS27 Init Dop: 10000,80
GPS28 Init Dop: 10000,80
GPS29 Init Dop: 10000,80
GPS30 Init Dop: 10000,80
GPS31 Init Dop: 10000,80
BDS 0 Init Dop: 10000,80
BDS 1 Init Dop: 10000,80
BDS 2 Init Dop: 10000,80
BDS 3 Init Dop: 10000,80
BDS 4 Init Dop: 10000,80
BDS 5 Init Dop: 10000,80
BDS 6 Init Dop: 10000,80
BDS 7 Init Dop: 10000,80
BDS 8 Init Dop: 10000,80
BDS 9 Init Dop: 10000,80
BDS10 Init Dop: 10000,80
BDS11 Init Dop: 10000,80
BDS12 Init Dop: 10000,80
BDS13 Init Dop: 10000,80
BDS14 Init Dop: 10000,80
BDS15 Init Dop: 10000,80
BDS16 Init Dop: 10000,80
BDS17 Init Dop: 10000,80
BDS18 Init Dop: 10000,80
BDS19 Init Dop: 10000,80
BDS20 Init Dop: 10000,80
BDS21 Init Dop: 10000,80
BDS22 Init Dop: 10000,80
BDS23 Init Dop: 10000,80
BDS24 Init Dop: 10000,80
BDS25 Init Dop: 10000,80
BDS26 Init Dop: 10000,80
BDS27 Init Dop: 10000,80
BDS28 Init Dop: 10000,80
BDS29 Init Dop: 10000,80
BDS30 Init Dop: 10000,80
BDS31 Init Dop: 10000,80
Good luck!
$ini_pos,lastpos_good = 0,ini_pos.x:0.000000,ini_pos.y:1832268791013857325744128.000000,ini_pos.z:-2046739898144001222451210977414251984932190234453880404157689486540431763527198422811356380866323511550038979724535148422609241732229251359221322048288590112150694265332788463926754404092183270268386059782336546865152.000000
source<tow,snapshot
$GNGGA,000000.000,,,,,0,00,,,M,,,,0000*2B
$GNRMC,000000.000,A,,,,,,,000000,,*26
$GPGSA,A,1,,,,,,,,,,,,,,,*1E
$BDGSA,A,1,,,,,,,,,,,,,,,*0F
$GLGSA,A,1,,,,,,,,,,,,,,,*02
$B3CN0,0,0,0,0,0,0,0,0,0,0,0,0,0,0*4C
$ini_pos,lastpos_good = 0,ini_pos.x:0.000000,ini_pos.y:1832268791013857325744128.000000,ini_pos.z:-2046739898144001222451210977414251984932190234453880404157689486540431763527198422811356380866323511550038979724535148422609241732229251359221322048288590112150694265332788463926754404092183270268386059782336546865152.000000
source<tow,snapshot
$GNGGA,000000.000,,,,,0,00,,,M,,,,0000*2B
$GNRMC,000000.000,A,,,,,,,000000,,*26
$GPGSA,A,1,,,,,,,,,,,,,,,*1E
$BDGSA,A,1,,,,,,,,,,,,,,,*0F
$GLGSA,A,1,,,,,,,,,,,,,,,*02
$B3CN0,0,0,0,0,0,0,0,0,0,0,0,0,0,0*4C
$ini_pos,lastpos_good = 0,ini_pos.x:0.000000,ini_pos.y:1832268791013857325744128.000000,ini_pos.z:-2046739898144001222451210977414251984932190234453880404157689486540431763527198422811356380866323511550038979724535148422609241732229251359221322048288590112150694265332788463926754404092183270268386059782336546865152.000000
source<tow,snapshot
$GNGGA,000000.000,,,,,0,00,,,M,,,,0000*2B
$GNRMC,000000.000,A,,,,,,,000000,,*26
$GPGSA,A,1,,,,,,,,,,,,,,,*1E
$BDGSA,A,1,,,,,,,,,,,,,,,*0F
$GLGSA,A,1,,,,,,,,,,,,,,,*02
$B3CN0,0,0,0,0,0,0,0,0,0,0,0,0,0,0*4C
$ini_pos,lastpos_good = 0,ini_pos.x:0.000000,ini_pos.y:1832268791013857325744128.000000,ini_pos.z:-2046739898144001222451210977414251984932190234453880404157689486540431763527198422811356380866323511550038979724535148422609241732229251359221322048288590112150694265332788463926754404092183270268386059782336546865152.000000
source<tow,snapshot
$GNGGA,000000.000,,,,,0,00,,,M,,,,0000*2B
$GNRMC,000000.000,A,,,,,,,000000,,*26
$GPGSA,A,1,,,,,,,,,,,,,,,*1E
$BDGSA,A,1,,,,,,,,,,,,,,,*0F
$GLGSA,A,1,,,,,,,,,,,,,,,*02
$GPGSV,1,1,03,08,00,000,33,09,00,000,32,16,00,000,21*4E
$B3CN0,0,0,0,0,0,0,0,0,0,0,0,0,0,0*4C
tow update,353612181.557629
$ini_pos,lastpos_good = 0,ini_pos.x:0.000000,ini_pos.y:1832268791013857325744128.000000,ini_pos.z:-2046739898144001222451210977414251984932190234453880404157689486540431763527198422811356380866323511550038979724535148422609241732229251359221322048288590112150694265332788463926754404092183270268386059782336546865152.000000
source>=tow,snapshot
$GNGGA,000000.000,,,,,0,00,,,M,,,,0000*2B
$GNRMC,000000.000,A,,,,,,,000000,,*26
$GPGSA,A,1,,,,,,,,,,,,,,,*1E
$BDGSA,A,1,,,,,,,,,,,,,,,*0F
$GLGSA,A,1,,,,,,,,,,,,,,,*02
$GPGSV,2,1,06,08,00,000,43,09,00,000,42,16,00,000,45,23,00,000,31*79
$GPGSV,2,2,06,26,00,000,27,27,00,000,27*7E
$B3CN0,0,0,0,0,0,0,0,0,0,0,0,0,0,0*4C
$ini_pos,lastpos_good = 0,ini_pos.x:0.000000,ini_pos.y:1832268791013857325744128.000000,ini_pos.z:-2046739898144001222451210977414251984932190234453880404157689486540431763527198422811356380866323511550038979724535148422609241732229251359221322048288590112150694265332788463926754404092183270268386059782336546865152.000000
source>=tow,snapshot
$GNGGA,000000.000,,,,,0,00,,,M,,,,0000*2B
$GNRMC,000000.000,A,,,,,,,000000,,*26
$GPGSA,A,1,,,,,,,,,,,,,,,*1E
$BDGSA,A,1,,,,,,,,,,,,,,,*0F
$GLGSA,A,1,,,,,,,,,,,,,,,*02
$GPGSV,2,1,07,08,00,000,43,09,00,000,42,16,00,000,44,23,00,000,45*7A
$GPGSV,2,2,07,26,00,000,41,27,00,000,45,31,00,000,39*43
$BDGSV,1,1,04,01,00,000,38,03,00,000,41,04,00,000,34,05,00,000,19*6E
$B3CN0,0,0,0,0,0,0,0,0,0,0,0,0,0,0*4C
$ini_pos,lastpos_good = 0,ini_pos.x:0.000000,ini_pos.y:1832268791013857325744128.000000,ini_pos.z:-2046739898144001222451210977414251984932190234453880404157689486540431763527198422811356380866323511550038979724535148422609241732229251359221322048288590112150694265332788463926754404092183270268386059782336546865152.000000
source>=tow,snapshot
$GNGGA,000000.000,,,,,0,00,,,M,,,,0000*2B
$GNRMC,000000.000,A,,,,,,,000000,,*26
$GPGSA,A,1,,,,,,,,,,,,,,,*1E
$BDGSA,A,1,,,,,,,,,,,,,,,*0F
$GLGSA,A,1,,,,,,,,,,,,,,,*02
$GPGSV,2,1,07,08,00,000,43,09,00,000,43,16,00,000,44,23,00,000,44*7A
$GPGSV,2,2,07,26,00,000,41,27,00,000,45,31,00,000,40*4D
$BDGSV,2,1,07,01,00,000,40,03,00,000,41,04,00,000,36,07,00,000,44*69
$BDGSV,2,2,07,09,00,000,33,10,00,000,32,11,00,000,30*55
$B3CN0,0,0,0,0,0,0,0,0,0,0,0,0,0,0*4C
$ini_pos,lastpos_good = 0,ini_pos.x:0.000000,ini_pos.y:1832268791013857325744128.000000,ini_pos.z:-2046739898144001222451210977414251984932190234453880404157689486540431763527198422811356380866323511550038979724535148422609241732229251359221322048288590112150694265332788463926754404092183270268386059782336546865152.000000
source>=tow,snapshot
$GNGGA,000000.000,,,,,0,00,,,M,,,,0000*2B
$GNRMC,000000.000,A,,,,,,,000000,,*26
$GPGSA,A,1,,,,,,,,,,,,,,,*1E
$BDGSA,A,1,,,,,,,,,,,,,,,*0F
$GLGSA,A,1,,,,,,,,,,,,,,,*02
$GPGSV,2,1,07,08,00,000,44,09,00,000,43,16,00,000,43,23,00,000,45*7B
$GPGSV,2,2,07,26,00,000,41,27,00,000,45,31,00,000,40*4D
$BDGSV,3,1,09,01,00,000,40,03,00,000,42,04,00,000,36,05,00,000,16*60
$BDGSV,3,2,09,07,00,000,43,09,00,000,43,10,00,000,42,11,00,000,42*6F
$BDGSV,3,3,09,16,00,000,36*53
$B3CN0,0,0,0,0,0,0,0,0,0,0,0,0,0,0*4C
$ini_pos,lastpos_good = 0,ini_pos.x:0.000000,ini_pos.y:1832268791013857325744128.000000,ini_pos.z:-2046739898144001222451210977414251984932190234453880404157689486540431763527198422811356380866323511550038979724535148422609241732229251359221322048288590112150694265332788463926754404092183270268386059782336546865152.000000
source>=tow,snapshot
$GNGGA,000000.000,,,,,0,00,,,M,,,,0000*2B
$GNRMC,000000.000,A,,,,,,,000000,,*26
$GPGSA,A,1,,,,,,,,,,,,,,,*1E
$BDGSA,A,1,,,,,,,,,,,,,,,*0F
$GLGSA,A,1,,,,,,,,,,,,,,,*02
$GPGSV,2,1,07,08,00,000,43,09,00,000,43,16,00,000,44,23,00,000,45*7B
$GPGSV,2,2,07,26,00,000,42,27,00,000,45,31,00,000,40*4E
$BDGSV,3,1,10,01,00,000,40,03,00,000,43,04,00,000,37,05,00,000,21*6C
$BDGSV,3,2,10,07,00,000,43,09,00,000,43,10,00,000,42,11,00,000,41*64
$BDGSV,3,3,10,16,00,000,41,25,00,000,28*66
$B3CN0,0,0,0,0,0,0,0,0,0,0,0,0,0,0*4C
$ini_pos,lastpos_good = 0,ini_pos.x:0.000000,ini_pos.y:1832268791013857325744128.000000,ini_pos.z:-2046739898144001222451210977414251984932190234453880404157689486540431763527198422811356380866323511550038979724535148422609241732229251359221322048288590112150694265332788463926754404092183270268386059782336546865152.000000
source>=tow,snapshot
$GNGGA,000000.000,,,,,0,00,,,M,,,,0000*2B
$GNRMC,000000.000,A,,,,,,,000000,,*26
$GPGSA,A,1,,,,,,,,,,,,,,,*1E
$BDGSA,A,1,,,,,,,,,,,,,,,*0F
$GLGSA,A,1,,,,,,,,,,,,,,,*02
$GPGSV,2,1,07,08,00,000,44,09,00,000,43,16,00,000,44,23,00,000,45*7C
$GPGSV,2,2,07,26,00,000,41,27,00,000,45,31,00,000,41*4C
$BDGSV,3,1,11,01,00,000,40,03,00,000,43,04,00,000,40,05,00,000,36*6B
$BDGSV,3,2,11,07,00,000,43,09,00,000,43,10,00,000,42,11,00,000,41*65
$BDGSV,3,3,11,16,00,000,42,25,00,000,39,28,00,000,45*5F
$B3CN0,0,0,0,0,0,0,0,0,0,0,0,0,0,0*4C
$ini_pos,lastpos_good = 0,ini_pos.x:0.000000,ini_pos.y:1832268791013857325744128.000000,ini_pos.z:-2046739898144001222451210977414251984932190234453880404157689486540431763527198422811356380866323511550038979724535148422609241732229251359221322048288590112150694265332788463926754404092183270268386059782336546865152.000000
source>=tow,snapshot
$GNGGA,000000.000,,,,,0,00,,,M,,,,0000*2B
$GNRMC,000000.000,A,,,,,,,000000,,*26
$GPGSA,A,1,,,,,,,,,,,,,,,*1E
$BDGSA,A,1,,,,,,,,,,,,,,,*0F
$GLGSA,A,1,,,,,,,,,,,,,,,*02
$GPGSV,2,1,07,08,00,000,44,09,00,000,43,16,00,000,44,23,00,000,44*7D
$GPGSV,2,2,07,26,00,000,42,27,00,000,45,31,00,000,41*4F
$BDGSV,3,1,10,01,00,000,39,03,00,000,42,04,00,000,39,07,00,000,43*6B
$BDGSV,3,2,10,09,00,000,42,10,00,000,42,11,00,000,41,16,00,000,41*67
$BDGSV,3,3,10,25,00,000,39,28,00,000,44*6E
$B3CN0,0,0,0,0,0,0,0,0,0,0,0,0,0,0*4C
$ini_pos,lastpos_good = 0,ini_pos.x:0.000000,ini_pos.y:1832268791013857325744128.000000,ini_pos.z:-2046739898144001222451210977414251984932190234453880404157689486540431763527198422811356380866323511550038979724535148422609241732229251359221322048288590112150694265332788463926754404092183270268386059782336546865152.000000
source>=tow,snapshot
$GNGGA,000000.000,,,,,0,00,,,M,,,,0000*2B
$GNRMC,000000.000,A,,,,,,,000000,,*26
$GPGSA,A,1,,,,,,,,,,,,,,,*1E
$BDGSA,A,1,,,,,,,,,,,,,,,*0F
$GLGSA,A,1,,,,,,,,,,,,,,,*02
$GPGSV,2,1,08,04,00,000,26,08,00,000,44,09,00,000,44,16,00,000,44*74
$GPGSV,2,2,08,23,00,000,45,26,00,000,41,27,00,000,45,31,00,000,40*72
$BDGSV,3,1,11,01,00,000,41,03,00,000,43,04,00,000,39,05,00,000,20*63
$BDGSV,3,2,11,07,00,000,42,09,00,000,42,10,00,000,42,11,00,000,41*65
$BDGSV,3,3,11,16,00,000,41,25,00,000,39,28,00,000,43*5A
$B3CN0,0,0,0,0,0,0,0,0,0,0,0,0,0,0*4C
$ini_pos,lastpos_good = 0,ini_pos.x:0.000000,ini_pos.y:1832268791013857325744128.000000,ini_pos.z:-2046739898144001222451210977414251984932190234453880404157689486540431763527198422811356380866323511550038979724535148422609241732229251359221322048288590112150694265332788463926754404092183270268386059782336546865152.000000
source>=tow,snapshot
$GNGGA,000000.000,,,,,0,00,,,M,,,,0000*2B
$GNRMC,000000.000,A,,,,,,,000000,,*26
$GPGSA,A,1,,,,,,,,,,,,,,,*1E
$BDGSA,A,1,,,,,,,,,,,,,,,*0F
$GLGSA,A,1,,,,,,,,,,,,,,,*02
$GPGSV,2,1,08,04,00,000,37,08,00,000,44,09,00,000,43,16,00,000,44*73
$GPGSV,2,2,08,23,00,000,46,26,00,000,41,27,00,000,46,31,00,000,40*72
$BDGSV,3,1,11,01,00,000,41,03,00,000,42,04,00,000,39,05,00,000,17*66
$BDGSV,3,2,11,07,00,000,42,09,00,000,42,10,00,000,42,11,00,000,41*65
$BDGSV,3,3,11,16,00,000,41,25,00,000,39,28,00,000,43*5A
$B3CN0,0,0,0,0,0,0,0,0,0,0,0,0,0,0*4C
$ini_pos,lastpos_good = 0,ini_pos.x:0.000000,ini_pos.y:1832268791013857325744128.000000,ini_pos.z:-2046739898144001222451210977414251984932190234453880404157689486540431763527198422811356380866323511550038979724535148422609241732229251359221322048288590112150694265332788463926754404092183270268386059782336546865152.000000
source>=tow,snapshot
$GNGGA,000000.000,,,,,0,00,,,M,,,,0000*2B
$GNRMC,000000.000,A,,,,,,,000000,,*26
$GPGSA,A,1,,,,,,,,,,,,,,,*1E
$BDGSA,A,1,,,,,,,,,,,,,,,*0F
$GLGSA,A,1,,,,,,,,,,,,,,,*02
$GPGSV,3,1,09,04,00,000,38,07,00,000,33,08,00,000,43,09,00,000,44*7C
$GPGSV,3,2,09,16,00,000,44,23,00,000,45,26,00,000,42,27,00,000,46*73
$GPGSV,3,3,09,31,00,000,40*46
$BDGSV,3,1,11,01,00,000,41,02,00,000,34,03,00,000,42,04,00,000,39*60
$BDGSV,3,2,11,07,00,000,43,09,00,000,42,10,00,000,43,11,00,000,41*65
$BDGSV,3,3,11,16,00,000,42,25,00,000,38,28,00,000,43*58
$B3CN0,0,0,0,0,0,0,0,0,0,0,0,0,0,0*4C
$ini_pos,lastpos_good = 0,ini_pos.x:0.000000,ini_pos.y:1832268791013857325744128.000000,ini_pos.z:-2046739898144001222451210977414251984932190234453880404157689486540431763527198422811356380866323511550038979724535148422609241732229251359221322048288590112150694265332788463926754404092183270268386059782336546865152.000000
source>=tow,snapshot
$GNGGA,000000.000,,,,,0,00,,,M,,,,0000*2B
$GNRMC,000000.000,A,,,,,,,000000,,*26
$GPGSA,A,1,,,,,,,,,,,,,,,*1E
$BDGSA,A,1,,,,,,,,,,,,,,,*0F
$GLGSA,A,1,,,,,,,,,,,,,,,*02
$GPGSV,3,1,09,04,00,000,38,07,00,000,41,08,00,000,44,09,00,000,43*79
$GPGSV,3,2,09,16,00,000,44,23,00,000,45,26,00,000,42,27,00,000,45*70
$GPGSV,3,3,09,31,00,000,40*46
$BDGSV,3,1,12,01,00,000,40,02,00,000,35,03,00,000,43,04,00,000,40*6C
$BDGSV,3,2,12,06,00,000,40,07,00,000,43,09,00,000,43,10,00,000,43*60
$BDGSV,3,3,12,11,00,000,41,16,00,000,41,25,00,000,38,28,00,000,43*6D
$B3CN0,0,0,0,0,0,0,0,0,0,0,19,0,0,0*74
$ini_pos,lastpos_good = 0,ini_pos.x:0.000000,ini_pos.y:1832268791013857325744128.000000,ini_pos.z:-2046739898144001222451210977414251984932190234453880404157689486540431763527198422811356380866323511550038979724535148422609241732229251359221322048288590112150694265332788463926754404092183270268386059782336546865152.000000
source>=tow,snapshot
$GNGGA,000000.000,,,,,0,00,,,M,,,,0000*2B
$GNRMC,000000.000,A,,,,,,,000000,,*26
$GPGSA,A,1,,,,,,,,,,,,,,,*1E
$BDGSA,A,1,,,,,,,,,,,,,,,*0F
$GLGSA,A,1,,,,,,,,,,,,,,,*02
$GPGSV,3,1,09,04,00,000,37,07,00,000,40,08,00,000,44,09,00,000,43*77
$GPGSV,3,2,09,16,00,000,45,23,00,000,45,26,00,000,42,27,00,000,45*71
$GPGSV,3,3,09,31,00,000,40*46
$BDGSV,3,1,12,01,00,000,41,02,00,000,37,03,00,000,42,04,00,000,40*6E
$BDGSV,3,2,12,06,00,000,40,07,00,000,43,09,00,000,43,10,00,000,43*60
$BDGSV,3,3,12,11,00,000,42,16,00,000,42,25,00,000,38,28,00,000,44*6A
$B3CN0,0,0,0,0,0,0,0,0,0,0,26,0,0,0*78
$ini_pos,lastpos_good = 0,ini_pos.x:0.000000,ini_pos.y:1832268791013857325744128.000000,ini_pos.z:-2046739898144001222451210977414251984932190234453880404157689486540431763527198422811356380866323511550038979724535148422609241732229251359221322048288590112150694265332788463926754404092183270268386059782336546865152.000000
source>=tow,snapshot
$GNGGA,000000.000,,,,,0,00,,,M,,,,0000*2B
$GNRMC,000000.000,A,,,,,,,000000,,*26
$GPGSA,A,1,,,,,,,,,,,,,,,*1E
$BDGSA,A,1,,,,,,,,,,,,,,,*0F
$GLGSA,A,1,,,,,,,,,,,,,,,*02
$GPGSV,3,1,09,04,00,000,37,07,00,000,41,08,00,000,44,09,00,000,42*77
$GPGSV,3,2,09,16,00,000,45,23,00,000,45,26,00,000,42,27,00,000,45*71
$GPGSV,3,3,09,31,00,000,40*46
$BDGSV,3,1,12,01,00,000,40,02,00,000,38,03,00,000,45,04,00,000,40*67
$BDGSV,3,2,12,06,00,000,40,07,00,000,43,09,00,000,43,10,00,000,43*60
$BDGSV,3,3,12,11,00,000,41,16,00,000,41,32,00,000,22,25,00,000,38*61
$B3CN0,0,0,0,0,0,0,0,0,0,0,26,0,0,0*78
$ini_pos,lastpos_good = 0,ini_pos.x:0.000000,ini_pos.y:1832268791013857325744128.000000,ini_pos.z:-2046739898144001222451210977414251984932190234453880404157689486540431763527198422811356380866323511550038979724535148422609241732229251359221322048288590112150694265332788463926754404092183270268386059782336546865152.000000
source>=tow,snapshot
$GNGGA,000000.000,,,,,0,00,,,M,,,,0000*2B
$GNRMC,000000.000,A,,,,,,,000000,,*26
$GPGSA,A,1,,,,,,,,,,,,,,,*1E
$BDGSA,A,1,,,,,,,,,,,,,,,*0F
$GLGSA,A,1,,,,,,,,,,,,,,,*02
$GPGSV,3,1,09,04,00,000,38,07,00,000,41,08,00,000,44,09,00,000,43*79
$GPGSV,3,2,09,16,00,000,44,23,00,000,45,26,00,000,42,27,00,000,45*70
$GPGSV,3,3,09,31,00,000,40*46
$BDGSV,3,1,12,01,00,000,40,02,00,000,37,03,00,000,43,04,00,000,40*6E
$BDGSV,3,2,12,05,00,000,17,06,00,000,39,07,00,000,43,09,00,000,43*6B
$BDGSV,3,3,12,10,00,000,42,11,00,000,42,16,00,000,42,32,00,000,45*6B
$B3CN0,0,0,0,0,0,0,0,0,0,0,19,0,0,0*74
$ini_pos,lastpos_good = 0,ini_pos.x:0.000000,ini_pos.y:1832268791013857325744128.000000,ini_pos.z:-2046739898144001222451210977414251984932190234453880404157689486540431763527198422811356380866323511550038979724535148422609241732229251359221322048288590112150694265332788463926754404092183270268386059782336546865152.000000
source>=tow,snapshot
$GNGGA,000000.000,,,,,0,00,,,M,,,,0000*2B
$GNRMC,000000.000,A,,,,,,,000000,,*26
$GPGSA,A,1,,,,,,,,,,,,,,,*1E
$BDGSA,A,1,,,,,,,,,,,,,,,*0F
$GLGSA,A,1,,,,,,,,,,,,,,,*02
$GPGSV,3,1,09,04,00,000,38,07,00,000,40,08,00,000,44,09,00,000,43*78
$GPGSV,3,2,09,16,00,000,44,23,00,000,45,26,00,000,42,27,00,000,45*70
$GPGSV,3,3,09,31,00,000,40*46
$BDGSV,3,1,12,01,00,000,40,02,00,000,37,03,00,000,42,04,00,000,40*6F
$BDGSV,3,2,12,06,00,000,40,07,00,000,43,09,00,000,43,10,00,000,43*60
$BDGSV,3,3,12,11,00,000,42,16,00,000,42,32,00,000,43,25,00,000,38*66
$B3CN0,0,0,0,0,0,0,0,0,0,0,0,0,0,0*4C
$ini_pos,lastpos_good = 0,ini_pos.x:0.000000,ini_pos.y:1832268791013857325744128.000000,ini_pos.z:-2046739898144001222451210977414251984932190234453880404157689486540431763527198422811356380866323511550038979724535148422609241732229251359221322048288590112150694265332788463926754404092183270268386059782336546865152.000000
source>=tow,snapshot
$GNGGA,000000.000,,,,,0,00,,,M,,,,0000*2B
$GNRMC,000000.000,A,,,,,,,000000,,*26
$GPGSA,A,1,,,,,,,,,,,,,,,*1E
$BDGSA,A,1,,,,,,,,,,,,,,,*0F
$GLGSA,A,1,,,,,,,,,,,,,,,*02
$GPGSV,3,1,09,04,00,000,38,07,00,000,40,08,00,000,44,09,00,000,43*78
$GPGSV,3,2,09,16,00,000,44,23,00,000,45,26,00,000,42,27,00,000,45*70
$GPGSV,3,3,09,31,00,000,40*46
$BDGSV,3,1,12,01,00,000,41,02,00,000,39,03,00,000,45,04,00,000,41*66
$BDGSV,3,2,12,06,00,000,40,07,00,000,43,09,00,000,43,10,00,000,42*61
$BDGSV,3,3,12,11,00,000,42,16,00,000,42,32,00,000,43,25,00,000,38*66
$B3CN0,17,0,0,0,0,0,0,0,0,0,0,0,0,0*7A
$ini_pos,lastpos_good = 0,ini_pos.x:0.000000,ini_pos.y:1832268791013857325744128.000000,ini_pos.z:-2046739898144001222451210977414251984932190234453880404157689486540431763527198422811356380866323511550038979724535148422609241732229251359221322048288590112150694265332788463926754404092183270268386059782336546865152.000000
source>=tow,snapshot
$GNGGA,000000.000,,,,,0,00,,,M,,,,0000*2B
$GNRMC,000000.000,A,,,,,,,000000,,*26
$GPGSA,A,1,,,,,,,,,,,,,,,*1E
$BDGSA,A,1,,,,,,,,,,,,,,,*0F
$GLGSA,A,1,,,,,,,,,,,,,,,*02
$GPGSV,3,1,09,04,00,000,39,07,00,000,40,08,00,000,43,09,00,000,43*7E
$GPGSV,3,2,09,16,00,000,44,23,00,000,45,26,00,000,42,27,00,000,45*70
$GPGSV,3,3,09,31,00,000,40*46
$BDGSV,3,1,12,01,00,000,40,02,00,000,39,03,00,000,43,04,00,000,41*61
$BDGSV,3,2,12,06,00,000,39,07,00,000,43,09,00,000,43,10,00,000,42*6F
$BDGSV,3,3,12,11,00,000,41,16,00,000,42,32,00,000,43,25,00,000,39*64
$B3CN0,18,0,0,0,0,0,0,0,0,0,0,0,0,0*75
$ini_pos,lastpos_good = 0,ini_pos.x:0.000000,ini_pos.y:1832268791013857325744128.000000,ini_pos.z:-2046739898144001222451210977414251984932190234453880404157689486540431763527198422811356380866323511550038979724535148422609241732229251359221322048288590112150694265332788463926754404092183270268386059782336546865152.000000
source>=tow,snapshot
$GNGGA,000000.000,,,,,0,00,,,M,,,,0000*2B
$GNRMC,000000.000,A,,,,,,,000000,,*26
$GPGSA,A,1,,,,,,,,,,,,,,,*1E
$BDGSA,A,1,,,,,,,,,,,,,,,*0F
$GLGSA,A,1,,,,,,,,,,,,,,,*02
$GPGSV,3,1,09,04,00,000,38,07,00,000,39,08,00,000,43,09,00,000,42*70
$GPGSV,3,2,09,16,00,000,44,23,00,000,45,26,00,000,42,27,00,000,44*71
$GPGSV,3,3,09,31,00,000,41*47
$BDGSV,3,1,12,01,00,000,41,02,00,000,40,03,00,000,43,04,00,000,40*6F
$BDGSV,3,2,12,05,00,000,21,06,00,000,40,07,00,000,43,09,00,000,43*60
$BDGSV,3,3,12,10,00,000,43,11,00,000,41,16,00,000,42,32,00,000,43*6F
$B3CN0,0,0,0,0,0,0,0,0,0,0,0,0,0,0*4C
$ini_pos,lastpos_good = 0,ini_pos.x:0.000000,ini_pos.y:1832268791013857325744128.000000,ini_pos.z:-2046739898144001222451210977414251984932190234453880404157689486540431763527198422811356380866323511550038979724535148422609241732229251359221322048288590112150694265332788463926754404092183270268386059782336546865152.000000
source>=tow,snapshot
$GNGGA,000000.000,,,,,0,00,,,M,,,,0000*2B
$GNRMC,000000.000,A,,,,,,,000000,,*26
$GPGSA,A,1,,,,,,,,,,,,,,,*1E
$BDGSA,A,1,,,,,,,,,,,,,,,*0F
$GLGSA,A,1,,,,,,,,,,,,,,,*02
$GPGSV,3,1,09,04,00,000,38,07,00,000,40,08,00,000,43,09,00,000,42*7E
$GPGSV,3,2,09,16,00,000,44,23,00,000,45,26,00,000,42,27,00,000,45*70
$GPGSV,3,3,09,31,00,000,41*47
$BDGSV,3,1,12,01,00,000,41,02,00,000,40,03,00,000,42,04,00,000,41*6F
$BDGSV,3,2,12,05,00,000,22,06,00,000,40,07,00,000,43,09,00,000,43*63
$BDGSV,3,3,12,10,00,000,43,11,00,000,42,16,00,000,42,32,00,000,43*6C
$B3CN0,0,0,0,0,0,0,0,0,0,0,0,0,0,0*4C
$ini_pos,lastpos_good = 0,ini_pos.x:0.000000,ini_pos.y:1832268791013857325744128.000000,ini_pos.z:-2046739898144001222451210977414251984932190234453880404157689486540431763527198422811356380866323511550038979724535148422609241732229251359221322048288590112150694265332788463926754404092183270268386059782336546865152.000000
source>=tow,snapshot
$GNGGA,000000.000,,,,,0,00,,,M,,,,0000*2B
$GNRMC,000000.000,A,,,,,,,000000,,*26
$GPGSA,A,1,,,,,,,,,,,,,,,*1E
$BDGSA,A,1,,,,,,,,,,,,,,,*0F
$GLGSA,A,1,,,,,,,,,,,,,,,*02
$GPGSV,3,1,09,04,00,000,38,07,00,000,40,08,00,000,43,09,00,000,43*7F
$GPGSV,3,2,09,16,00,000,44,23,00,000,45,26,00,000,42,27,00,000,45*70
$GPGSV,3,3,09,31,00,000,41*47
$BDGSV,3,1,12,01,00,000,40,02,00,000,40,03,00,000,42,04,00,000,39*61
$BDGSV,3,2,12,06,00,000,40,07,00,000,43,09,00,000,43,10,00,000,42*61
$BDGSV,3,3,12,11,00,000,42,16,00,000,42,32,00,000,43,25,00,000,38*66
$B3CN0,0,0,0,0,0,0,0,0,0,0,0,0,0,0*4C
$ini_pos,lastpos_good = 0,ini_pos.x:0.000000,ini_pos.y:1832268791013857325744128.000000,ini_pos.z:-2046739898144001222451210977414251984932190234453880404157689486540431763527198422811356380866323511550038979724535148422609241732229251359221322048288590112150694265332788463926754404092183270268386059782336546865152.000000
source>=tow,snapshot
$GNGGA,000000.000,,,,,0,00,,,M,,,,0000*2B
$GNRMC,000000.000,A,,,,,,,000000,,*26
$GPGSA,A,1,,,,,,,,,,,,,,,*1E
$BDGSA,A,1,,,,,,,,,,,,,,,*0F
$GLGSA,A,1,,,,,,,,,,,,,,,*02
$GPGSV,3,1,09,04,00,000,38,07,00,000,40,08,00,000,43,09,00,000,43*7F
$GPGSV,3,2,09,16,00,000,44,23,00,000,45,26,00,000,42,27,00,000,44*71
$GPGSV,3,3,09,31,00,000,40*46
$BDGSV,3,1,12,01,00,000,41,02,00,000,40,03,00,000,43,04,00,000,40*6F
$BDGSV,3,2,12,06,00,000,39,07,00,000,42,09,00,000,42,10,00,000,43*6E
$BDGSV,3,3,12,11,00,000,41,16,00,000,41,32,00,000,43,25,00,000,39*67
$B3CN0,36,0,0,0,0,0,0,0,0,0,0,0,0,0*79
$ini_pos,lastpos_good = 0,ini_pos.x:0.000000,ini_pos.y:1832268791013857325744128.000000,ini_pos.z:-2046739898144001222451210977414251984932190234453880404157689486540431763527198422811356380866323511550038979724535148422609241732229251359221322048288590112150694265332788463926754404092183270268386059782336546865152.000000
source>=tow,snapshot
$GNGGA,000000.000,,,,,0,00,,,M,,,,0000*2B
$GNRMC,000000.000,A,,,,,,,000000,,*26
$GPGSA,A,1,,,,,,,,,,,,,,,*1E
$BDGSA,A,1,,,,,,,,,,,,,,,*0F
$GLGSA,A,1,,,,,,,,,,,,,,,*02
$GPGSV,3,1,09,04,00,000,38,07,00,000,40,08,00,000,43,09,00,000,43*7F
$GPGSV,3,2,09,16,00,000,43,23,00,000,45,26,00,000,41,27,00,000,45*74
$GPGSV,3,3,09,31,00,000,40*46
$BDGSV,3,1,12,01,00,000,42,02,00,000,39,03,00,000,43,04,00,000,40*62
$BDGSV,3,2,12,05,00,000,20,06,00,000,40,07,00,000,43,09,00,000,43*61
$BDGSV,3,3,12,10,00,000,42,11,00,000,41,16,00,000,42,32,00,000,44*69
$B3CN0,19,0,0,0,0,0,0,0,0,0,16,0,0,0*43
$ini_pos,lastpos_good = 0,ini_pos.x:0.000000,ini_pos.y:1832268791013857325744128.000000,ini_pos.z:-2046739898144001222451210977414251984932190234453880404157689486540431763527198422811356380866323511550038979724535148422609241732229251359221322048288590112150694265332788463926754404092183270268386059782336546865152.000000
source>=tow,snapshot
$GNGGA,000000.000,,,,,0,00,,,M,,,,0000*2B
$GNRMC,000000.000,A,,,,,,,000000,,*26
$GPGSA,A,1,,,,,,,,,,,,,,,*1E
$BDGSA,A,1,,,,,,,,,,,,,,,*0F
$GLGSA,A,1,,,,,,,,,,,,,,,*02
$GPGSV,3,1,09,04,00,000,38,07,00,000,40,08,00,000,43,09,00,000,43*7F
$GPGSV,3,2,09,16,00,000,44,23,00,000,45,26,00,000,42,27,00,000,45*70
$GPGSV,3,3,09,31,00,000,40*46
$BDGSV,3,1,12,01,00,000,41,02,00,000,39,03,00,000,43,04,00,000,40*61
$BDGSV,3,2,12,06,00,000,40,07,00,000,43,09,00,000,42,10,00,000,42*60
$BDGSV,3,3,12,11,00,000,41,16,00,000,42,32,00,000,43,25,00,000,38*65
$B3CN0,22,19,0,0,0,0,0,0,0,0,26,0,0,0*70
$ini_pos,lastpos_good = 0,ini_pos.x:0.000000,ini_pos.y:1832268791013857325744128.000000,ini_pos.z:-2046739898144001222451210977414251984932190234453880404157689486540431763527198422811356380866323511550038979724535148422609241732229251359221322048288590112150694265332788463926754404092183270268386059782336546865152.000000
source>=tow,snapshot
$GNGGA,000000.000,,,,,0,00,,,M,,,,0000*2B
$GNRMC,000000.000,A,,,,,,,000000,,*26
$GPGSA,A,1,,,,,,,,,,,,,,,*1E
$BDGSA,A,1,,,,,,,,,,,,,,,*0F
$GLGSA,A,1,,,,,,,,,,,,,,,*02
$GPGSV,3,1,09,04,00,000,38,07,00,000,40,08,00,000,44,09,00,000,43*78
$GPGSV,3,2,09,16,00,000,44,23,00,000,46,26,00,000,42,27,00,000,46*70
$GPGSV,3,3,09,31,00,000,40*46
$BDGSV,3,1,12,01,00,000,41,02,00,000,40,03,00,000,41,04,00,000,40*6D
$BDGSV,3,2,12,06,00,000,40,07,00,000,43,09,00,000,42,10,00,000,42*60
$BDGSV,3,3,12,11,00,000,42,16,00,000,42,32,00,000,43,25,00,000,38*66
$B3CN0,0,21,0,0,0,0,0,0,0,0,26,0,0,0*4B
$ini_pos,lastpos_good = 0,ini_pos.x:0.000000,ini_pos.y:1832268791013857325744128.000000,ini_pos.z:-2046739898144001222451210977414251984932190234453880404157689486540431763527198422811356380866323511550038979724535148422609241732229251359221322048288590112150694265332788463926754404092183270268386059782336546865152.000000
source>=tow,snapshot
$GNGGA,000000.000,,,,,0,00,,,M,,,,0000*2B
$GNRMC,000000.000,A,,,,,,,000000,,*26
$GPGSA,A,1,,,,,,,,,,,,,,,*1E
$BDGSA,A,1,,,,,,,,,,,,,,,*0F
$GLGSA,A,1,,,,,,,,,,,,,,,*02
$GPGSV,3,1,09,04,00,000,38,07,00,000,41,08,00,000,44,09,00,000,44*7E
$GPGSV,3,2,09,16,00,000,44,23,00,000,46,26,00,000,41,27,00,000,46*73
$GPGSV,3,3,09,31,00,000,40*46
$BDGSV,3,1,12,01,00,000,42,02,00,000,39,03,00,000,43,04,00,000,40*62
$BDGSV,3,2,12,06,00,000,40,07,00,000,43,09,00,000,42,10,00,000,42*60
$BDGSV,3,3,12,11,00,000,42,16,00,000,42,32,00,000,43,25,00,000,38*66
$B3CN0,0,0,0,0,0,0,0,0,0,0,26,0,0,0*78
$ini_pos,lastpos_good = 0,ini_pos.x:0.000000,ini_pos.y:1832268791013857325744128.000000,ini_pos.z:-2046739898144001222451210977414251984932190234453880404157689486540431763527198422811356380866323511550038979724535148422609241732229251359221322048288590112150694265332788463926754404092183270268386059782336546865152.000000
source>=tow,snapshot
$GNGGA,000000.000,,,,,0,00,,,M,,,,0000*2B
$GNRMC,000000.000,A,,,,,,,000000,,*26
$GPGSA,A,1,,,,,,,,,,,,,,,*1E
$BDGSA,A,1,,,,,,,,,,,,,,,*0F
$GLGSA,A,1,,,,,,,,,,,,,,,*02
$GPGSV,3,1,09,04,00,000,39,07,00,000,41,08,00,000,43,09,00,000,44*78
$GPGSV,3,2,09,16,00,000,44,23,00,000,45,26,00,000,42,27,00,000,45*70
$GPGSV,3,3,09,31,00,000,40*46
$BDGSV,3,1,12,01,00,000,41,02,00,000,40,03,00,000,43,04,00,000,40*6F
$BDGSV,3,2,12,06,00,000,39,07,00,000,43,09,00,000,43,10,00,000,42*6F
$BDGSV,3,3,12,11,00,000,41,16,00,000,42,32,00,000,43,25,00,000,38*65
$B3CN0,0,0,0,0,0,0,0,0,0,0,25,0,0,0*7B
$GLGSV,2,1,06,08,00,000,45,20,00,000,43,01,00,000,42,11,00,000,40*6F
$GLGSV,2,2,06,09,00,000,45,26,00,000,46*6D
$ini_pos,lastpos_good = 0,ini_pos.x:0.000000,ini_pos.y:1832268791013857325744128.000000,ini_pos.z:-2046739898144001222451210977414251984932190234453880404157689486540431763527198422811356380866323511550038979724535148422609241732229251359221322048288590112150694265332788463926754404092183270268386059782336546865152.000000
source>=tow,snapshot
$GNGGA,000000.000,,,,,0,00,,,M,,,,0000*2B
$GNRMC,000000.000,A,,,,,,,000000,,*26
$GPGSA,A,1,,,,,,,,,,,,,,,*1E
$BDGSA,A,1,,,,,,,,,,,,,,,*0F
$GLGSA,A,1,,,,,,,,,,,,,,,*02
$GPGSV,3,1,09,04,00,000,38,07,00,000,40,08,00,000,44,09,00,000,44*7F
$GPGSV,3,2,09,16,00,000,45,23,00,000,45,26,00,000,42,27,00,000,45*71
$GPGSV,3,3,09,31,00,000,40*46
$BDGSV,3,1,12,01,00,000,41,02,00,000,38,03,00,000,45,04,00,000,38*69
$BDGSV,3,2,12,06,00,000,40,07,00,000,44,09,00,000,43,10,00,000,42*66
$BDGSV,3,3,12,11,00,000,41,16,00,000,41,32,00,000,43,25,00,000,39*67
$B3CN0,0,0,0,0,0,0,0,0,0,0,26,0,0,0*78
$GLGSV,2,1,06,08,00,000,44,20,00,000,43,01,00,000,42,11,00,000,40*6E
$GLGSV,2,2,06,09,00,000,46,26,00,000,46*6E
$ini_pos,lastpos_good = 0,ini_pos.x:0.000000,ini_pos.y:1832268791013857325744128.000000,ini_pos.z:-2046739898144001222451210977414251984932190234453880404157689486540431763527198422811356380866323511550038979724535148422609241732229251359221322048288590112150694265332788463926754404092183270268386059782336546865152.000000
$GNGGA,021341.052,2944.9071,N,10633.0956,E,1,08,1.2,324.4,M,,,,0000*10
$GNRMC,021341.052,A,2944.9071,N,10633.0956,E,0.30,0.00,160519,,*1F
$GPGSA,A,3,08,09,16,,,,,,,,,,3.7,1.2,3.5*35
$BDGSA,A,3,,,,,,,,,,,,,3.7,1.2,3.5*22
$GLGSA,A,3,02,09,10,12,21,,,,,,,,3.7,1.2,3.5*25
$GPGSV,3,1,09,04,00,000,38,07,00,000,40,08,00,000,44,09,00,000,43*78
$GPGSV,3,2,09,16,00,000,43,23,00,000,45,26,00,000,41,27,00,000,45*74
$GPGSV,3,3,09,31,00,000,40*46
$BDGSV,3,1,12,01,00,000,41,02,00,000,40,03,00,000,42,04,00,000,39*60
$BDGSV,3,2,12,05,00,000,36,06,00,000,40,07,00,000,43,09,00,000,43*66
$BDGSV,3,3,12,10,00,000,42,11,00,000,41,16,00,000,41,32,00,000,43*6D
$B3CN0,0,0,0,0,0,0,0,0,0,0,0,0,0,0*4C
$GLGSV,2,1,06,08,00,000,44,20,00,000,42,01,00,000,42,11,00,000,40*6F
$GLGSV,2,2,06,09,00,000,46,26,00,000,46*6E
$ini_pos,lastpos_good = 1,ini_pos.x:-1578919.040666,ini_pos.y:5312769.076969,ini_pos.z:3146355.766679
Refix G08: 2, 353640.927929, -4037
Refix G09: 2, 353640.925615, -3445
Refix G16: 2, 353640.930040, 694
$GNGGA,021343.000,2944.9080,N,10633.0960,E,1,08,1.0,321.1,M,,,,0000*1C
$GNRMC,021343.000,A,2944.9080,N,10633.0960,E,0.55,0.00,160519,,*12
$GPGSA,A,3,08,09,16,,,,,,,,,,1.3,1.0,0.9*3E
$BDGSA,A,3,,,,,,,,,,,,,1.3,1.0,0.9*29
$GLGSA,A,3,01,08,09,11,20,,,,,,,,1.3,1.0,0.9*26
$GPGSV,3,1,09,04,00,000,37,07,00,000,40,08,00,000,44,09,00,000,44*70
$GPGSV,3,2,09,16,00,000,44,23,00,000,45,26,00,000,41,27,00,000,46*70
$GPGSV,3,3,09,31,00,000,40*46
$BDGSV,3,1,12,01,00,000,41,02,00,000,39,03,00,000,43,04,00,000,40*61
$BDGSV,3,2,12,05,00,000,36,06,00,000,40,07,00,000,43,09,00,000,43*66
$BDGSV,3,3,12,10,00,000,42,11,00,000,41,16,00,000,41,32,00,000,43*6D
$B3CN0,16,0,0,0,0,0,0,0,0,0,0,0,0,0*7B
$GLGSV,2,1,06,08,00,000,44,20,00,000,43,01,00,000,42,11,00,000,40*6E
$GLGSV,2,2,06,09,00,000,46,26,00,000,45*6D
$ini_pos,lastpos_good = 1,ini_pos.x:-1578918.576267,ini_pos.y:5312765.395629,ini_pos.z:3146355.605138
Refix G08: 2, 353641.927931, -4033
Refix G09: 2, 353641.925617, -3443
Refix G16: 2, 353641.930040, 697
$GNGGA,021344.000,2944.9080,N,10633.0958,E,1,08,1.0,320.2,M,,,,0000*12
$GNRMC,021344.000,A,2944.9080,N,10633.0958,E,0.13,0.00,160519,,*1C
$GPGSA,A,3,08,09,16,,,,,,,,,,1.3,1.0,0.9*3E
$BDGSA,A,3,,,,,,,,,,,,,1.3,1.0,0.9*29
$GLGSA,A,3,01,08,09,11,20,,,,,,,,1.3,1.0,0.9*26
$GPGSV,3,1,09,04,00,000,38,07,00,000,41,08,44,189,44,09,34,309,42*75
$GPGSV,3,2,09,16,53,020,44,23,00,000,44,26,00,000,41,27,00,000,45*76
$GPGSV,3,3,09,31,00,000,40*46
$BDGSV,3,1,12,01,00,000,41,02,00,000,39,03,00,000,43,04,00,000,41*60
$BDGSV,3,2,12,05,00,000,35,06,00,000,39,07,00,000,44,09,00,000,43*6C
$BDGSV,3,3,12,10,00,000,42,11,36,164,42,16,00,000,41,32,00,000,43*68
$B3CN0,19,0,0,0,0,0,0,0,0,0,0,0,0,0*74
$GLGSV,2,1,06,08,38,266,44,20,42,117,43,01,20,314,42,11,12,292,40*68
$GLGSV,2,2,06,09,34,046,45,26,00,000,45*6B
$ini_pos,lastpos_good = 1,ini_pos.x:-1578918.029119,ini_pos.y:5312764.772667,ini_pos.z:3146355.067354
Refix G08: 2, 353642.927934, -4030
Refix G09: 2, 353642.925619, -3439
Refix G16: 2, 353642.930039, 700
$GNGGA,021345.000,2944.9077,N,10633.0956,E,1,17,1.0,319.2,M,,,,0000*11
$GNRMC,021345.000,A,2944.9077,N,10633.0956,E,0.47,0.00,160519,,*1A
$GPGSA,A,3,08,09,16,,,,,,,,,,1.3,1.0,0.9*3E
$BDGSA,A,3,06,07,09,10,11,16,25,28,32,,,,1.3,1.0,0.9*2B
$GLGSA,A,3,01,08,09,11,20,,,,,,,,1.3,1.0,0.9*26
$GPGSV,3,1,09,04,00,000,38,07,00,000,40,08,44,189,44,09,34,309,44*72
$GPGSV,3,2,09,16,53,020,44,23,00,000,45,26,00,000,41,27,00,000,45*77
$GPGSV,3,3,09,31,00,000,40*46
$BDGSV,3,1,12,01,00,000,41,02,00,000,40,03,00,000,42,04,00,000,39*60
$BDGSV,3,2,12,05,00,000,37,06,00,000,40,07,00,000,43,09,00,000,43*67
$BDGSV,3,3,12,10,00,000,42,11,36,164,42,16,00,000,42,32,00,000,43*6B
$B3CN0,23,18,0,0,0,0,0,0,0,0,0,0,0,0*44
$GLGSV,2,1,06,08,38,266,44,20,42,117,43,01,20,314,42,11,12,292,40*68
$GLGSV,2,2,06,09,34,046,45,26,00,000,45*6B
$ini_pos,lastpos_good = 1,ini_pos.x:-1578917.582777,ini_pos.y:5312764.297698,ini_pos.z:3146354.093142
Refix G08: 2, 353643.927936, -4033
Refix G09: 2, 353643.925621, -3444
Refix G16: 2, 353643.930039, 695
$GNGGA,021346.000,2944.9072,N,10633.0947,E,1,17,0.6,319.6,M,,,,0000*14
$GNRMC,021346.000,A,2944.9072,N,10633.0947,E,0.19,0.00,160519,,*17
$GPGSA,A,3,08,09,16,,,,,,,,,,0.8,0.6,0.4*3E
$BDGSA,A,3,06,07,09,10,11,16,25,28,32,,,,0.8,0.6,0.4*2B
$GLGSA,A,3,01,08,09,11,20,,,,,,,,0.8,0.6,0.4*26
$GPGSV,3,1,09,04,00,000,38,07,00,000,41,08,44,189,43,09,34,309,43*73
$GPGSV,3,2,09,16,53,020,44,23,00,000,45,26,00,000,41,27,00,000,44*76
$GPGSV,3,3,09,31,00,000,41*47
$BDGSV,3,1,12,01,00,000,40,02,00,000,40,03,00,000,43,04,00,000,40*6E
$BDGSV,3,2,12,05,00,000,37,06,37,173,39,07,63,013,43,09,62,206,43*6F
$BDGSV,3,3,12,10,61,308,42,11,32,056,41,16,43,179,41,32,26,238,43*66
$B3CN0,0,0,0,0,0,0,0,0,0,0,0,0,0,0*4C
$GLGSV,2,1,06,08,38,266,43,20,42,117,43,01,20,314,42,11,12,292,40*6F
$GLGSV,2,2,06,09,34,046,45,26,00,000,45*6B
$ini_pos,lastpos_good = 1,ini_pos.x:-1578916.502319,ini_pos.y:5312765.424267,ini_pos.z:3146353.435006
Refix G08: 2, 353644.927939, -4033
Refix G09: 2, 353644.925623, -3443
Refix G16: 2, 353644.930038, 695
$GNGGA,021347.000,2944.9069,N,10633.0943,E,1,17,0.6,319.7,M,,,,0000*1A
$GNRMC,021347.000,A,2944.9069,N,10633.0943,E,0.07,0.00,160519,,*17
$GPGSA,A,3,08,09,16,,,,,,,,,,0.8,0.6,0.4*3E
$BDGSA,A,3,06,07,09,10,11,16,25,28,32,,,,0.8,0.6,0.4*2B
$GLGSA,A,3,01,08,09,11,20,,,,,,,,0.8,0.6,0.4*26
$GPGSV,3,1,09,04,00,000,38,07,00,000,41,08,44,189,43,09,34,309,44*74
$GPGSV,3,2,09,16,53,020,44,23,00,000,45,26,00,000,42,27,00,000,44*75
$GPGSV,3,3,09,31,00,000,40*46
$BDGSV,3,1,12,01,00,000,40,02,00,000,40,03,00,000,42,04,00,000,39*61
$BDGSV,3,2,12,05,00,000,36,06,37,173,40,07,63,013,43,09,62,206,43*60
$BDGSV,3,3,12,10,61,308,42,11,32,056,41,16,43,179,42,32,26,238,42*64
$B3CN0,0,0,0,0,0,0,0,0,0,0,0,0,0,0*4C
$GLGSV,2,1,06,08,38,266,44,20,42,117,43,01,20,314,42,11,12,292,40*68
$GLGSV,2,2,06,09,34,046,46,26,00,000,45*68
$ini_pos,lastpos_good = 1,ini_pos.x:-1578915.935350,ini_pos.y:5312765.917906,ini_pos.z:3146353.157763
Refix G08: 2, 353645.927941, -4030
Refix G09: 2, 353645.925625, -3440
Refix G16: 2, 353645.930038, 697
$GNGGA,021348.000,2944.9068,N,10633.0940,E,1,17,0.6,319.6,M,,,,0000*16
$GNRMC,021348.000,A,2944.9068,N,10633.0940,E,0.24,0.00,160519,,*1B
$GPGSA,A,3,08,09,16,,,,,,,,,,0.8,0.6,0.4*3E
$BDGSA,A,3,06,07,09,10,11,16,25,28,32,,,,0.8,0.6,0.4*2B
$GLGSA,A,3,01,08,09,11,20,,,,,,,,0.8,0.6,0.4*26
$GPGSV,3,1,09,04,00,000,38,07,00,000,40,08,44,189,44,09,34,309,43*75
$GPGSV,3,2,09,16,53,020,44,23,00,000,45,26,00,000,41,27,00,000,45*77
$GPGSV,3,3,09,31,00,000,40*46
$BDGSV,3,1,12,01,00,000,41,02,00,000,40,03,00,000,42,04,00,000,40*6E
$BDGSV,3,2,12,05,00,000,37,06,37,173,40,07,63,013,43,09,62,206,43*61
$BDGSV,3,3,12,10,61,308,42,11,32,056,42,16,43,179,41,32,26,238,43*65
$B3CN0,0,0,0,0,0,0,0,0,0,0,0,0,0,0*4C
$GLGSV,2,1,06,08,38,266,44,20,42,117,42,01,20,314,42,11,12,292,40*69
$GLGSV,2,2,06,09,34,046,46,26,00,000,46*6B
$ini_pos,lastpos_good = 1,ini_pos.x:-1578915.460427,ini_pos.y:5312766.082812,ini_pos.z:3146352.928570
Refix G08: 2, 353646.927944, -4027
Refix G09: 2, 353646.925627, -3437
Refix G16: 2, 353646.930038, 701
Refix G23: 2, 353646.930709, -1583
Refix G26: 2, 353646.924229, 1316
Refix G27: 2, 353646.932148, -2029
Refix G31: 2, 353646.918696, 1131
$GNGGA,021349.000,2944.9067,N,10633.0937,E,1,21,0.6,320.9,M,,,,0000*18
$GNRMC,021349.000,A,2944.9067,N,10633.0937,E,0.14,0.00,160519,,*16
$GPGSA,A,3,08,09,16,23,26,27,31,,,,,,0.7,0.6,0.4*33
$BDGSA,A,3,06,07,09,10,11,16,25,28,32,,,,0.7,0.6,0.4*24
$GLGSA,A,3,01,08,09,11,20,,,,,,,,0.7,0.6,0.4*29
$GPGSV,3,1,09,04,00,000,37,07,00,000,40,08,44,189,43,09,34,309,43*7D
$GPGSV,3,2,09,16,53,020,44,23,00,000,45,26,00,000,41,27,00,000,45*77
$GPGSV,3,3,09,31,00,000,41*47
$BDGSV,3,1,12,01,40,125,40,02,00,000,39,03,00,000,43,04,00,000,40*62
$BDGSV,3,2,12,05,00,000,36,06,37,173,40,07,63,013,43,09,62,206,43*60
$BDGSV,3,3,12,10,61,308,42,11,32,056,41,16,43,179,41,32,26,238,42*67
$B3CN0,0,0,0,0,0,0,0,0,0,0,0,0,0,0*4C
$GLGSV,2,1,06,08,38,266,44,20,42,117,43,01,20,314,42,11,12,292,40*68
$GLGSV,2,2,06,09,34,046,45,26,00,000,46*68
$ini_pos,lastpos_good = 1,ini_pos.x:-1578915.264509,ini_pos.y:5312767.357127,ini_pos.z:3146353.415157
Refix G08: 2, 353647.927946, -4026
Refix G09: 2, 353647.925630, -3435
Refix G16: 2, 353647.930037, 702
Refix G23: 2, 353647.930710, -1581
Refix G26: 2, 353647.924229, 1317
Refix G27: 2, 353647.932150, -2028
Refix G31: 2, 353647.918695, 1133
$GNGGA,021350.000,2944.9067,N,10633.0935,E,1,21,0.6,321.5,M,,,,0000*1F
$GNRMC,021350.000,A,2944.9067,N,10633.0935,E,0.02,0.00,160519,,*1B
$GPGSA,A,3,08,09,16,23,26,27,31,,,,,,0.7,0.6,0.4*33
$BDGSA,A,3,06,07,09,10,11,16,25,28,32,,,,0.7,0.6,0.4*24
$GLGSA,A,3,01,08,09,11,20,,,,,,,,0.7,0.6,0.4*29
$GPGSV,3,1,09,04,00,000,38,07,00,000,40,08,44,189,44,09,34,309,43*75
$GPGSV,3,2,09,16,53,020,43,23,62,269,45,26,30,047,42,27,69,131,45*76
$GPGSV,3,3,09,31,15,103,41*41
$BDGSV,3,1,12,01,40,125,41,02,00,000,40,03,00,000,43,04,00,000,40*6D
$BDGSV,3,2,12,05,00,000,37,06,37,173,40,07,63,013,43,09,62,206,43*61
$BDGSV,3,3,12,10,61,308,42,11,32,056,42,16,43,179,41,32,26,238,43*65
$B3CN0,0,0,0,0,0,0,0,0,0,0,0,0,0,0*4C
$GLGSV,2,1,06,08,38,266,44,20,42,117,43,01,20,314,42,11,12,292,40*68
$GLGSV,2,2,06,09,34,046,45,26,00,000,46*68
$ini_pos,lastpos_good = 1,ini_pos.x:-1578915.257230,ini_pos.y:5312767.925593,ini_pos.z:3146353.644790
Refix G08: 2, 353648.927949, -4032
Refix G09: 2, 353648.925632, -3442
Refix G16: 2, 353648.930037, 695
Refix G23: 2, 353648.930711, -1588
Refix G26: 2, 353648.924228, 1310
Refix G27: 2, 353648.932151, -2034
Refix G31: 2, 353648.918694, 1127
$GNGGA,021351.000,2944.9068,N,10633.0936,E,1,21,0.6,321.7,M,,,,0000*10
$GNRMC,021351.000,A,2944.9068,N,10633.0936,E,0.13,0.00,160519,,*16
$GPGSA,A,3,08,09,16,23,26,27,31,,,,,,0.7,0.6,0.4*33
$BDGSA,A,3,06,07,09,10,11,16,25,28,32,,,,0.7,0.6,0.4*24
$GLGSA,A,3,01,08,09,11,20,,,,,,,,0.7,0.6,0.4*29
$GPGSV,3,1,09,04,00,000,39,07,00,000,40,08,44,189,43,09,34,309,43*73
$GPGSV,3,2,09,16,53,020,43,23,62,269,45,26,30,047,41,27,69,131,45*75
$GPGSV,3,3,09,31,15,103,41*41
$BDGSV,3,1,12,01,40,125,40,02,00,000,41,03,00,000,43,04,00,000,40*6D
$BDGSV,3,2,12,05,00,000,38,06,37,173,40,07,63,013,43,09,62,206,43*6E
$BDGSV,3,3,12,10,61,308,42,11,32,056,41,16,43,179,41,32,26,238,44*61
$B3CN0,0,0,0,0,0,0,0,0,0,0,0,0,0,0*4C
$GLGSV,2,1,06,08,38,266,44,20,42,117,43,01,20,314,42,11,12,292,40*68
$GLGSV,2,2,06,09,34,046,45,26,00,000,46*68
$ini_pos,lastpos_good = 1,ini_pos.x:-1578915.443441,ini_pos.y:5312768.077992,ini_pos.z:3146353.870814
Refix G08: 2, 353649.927951, -4032
Refix G09: 2, 353649.925634, -3442
Refix G16: 2, 353649.930036, 695
Refix G23: 2, 353649.930712, -1587
Refix G26: 2, 353649.924227, 1310
Refix G27: 2, 353649.932152, -2033
Refix G31: 2, 353649.918694, 1126
$GNGGA,021352.000,2944.9069,N,10633.0938,E,1,21,0.6,322.1,M,,,,0000*19
$GNRMC,021352.000,A,2944.9069,N,10633.0938,E,0.09,0.00,160519,,*11
$GPGSA,A,3,08,09,16,23,26,27,31,,,,,,0.7,0.6,0.4*33
$BDGSA,A,3,06,07,09,10,11,16,25,28,32,,,,0.7,0.6,0.4*24
$GLGSA,A,3,01,08,09,11,20,,,,,,,,0.7,0.6,0.4*29
$GPGSV,3,1,09,04,00,000,38,07,00,000,40,08,44,189,43,09,34,309,43*72
$GPGSV,3,2,09,16,53,020,43,23,62,269,45,26,30,047,41,27,69,131,45*75
$GPGSV,3,3,09,31,15,103,40*40
$BDGSV,3,1,12,01,40,125,40,02,45,218,40,03,00,000,43,04,23,109,40*6F
$BDGSV,3,2,12,05,00,000,38,06,37,173,40,07,63,013,43,09,62,206,43*6E
$BDGSV,3,3,12,10,61,308,42,11,32,056,41,16,43,179,41,32,26,238,43*66
$B3CN0,0,0,0,0,0,0,0,0,0,0,0,0,0,0*4C
$GLGSV,2,1,06,08,38,266,44,20,42,117,43,01,20,314,43,11,12,292,40*69
$GLGSV,2,2,06,09,34,046,45,26,00,000,46*68
$ini_pos,lastpos_good = 1,ini_pos.x:-1578915.739031,ini_pos.y:5312768.255957,ini_pos.z:3146354.241432
Refix G08: 2, 353650.927954, -4029
Refix G09: 2, 353650.925636, -3439
Refix G16: 2, 353650.930036, 697
Refix G23: 2, 353650.930713, -1585
Refix G26: 2, 353650.924226, 1311
Refix G27: 2, 353650.932153, -2031
Refix G31: 2, 353650.918693, 1128
$GNGGA,021353.000,2944.9069,N,10633.0940,E,1,21,0.6,322.4,M,,,,0000*12
$GNRMC,021353.000,A,2944.9069,N,10633.0940,E,0.15,0.00,160519,,*12
$GPGSA,A,3,08,09,16,23,26,27,31,,,,,,0.7,0.6,0.4*33
$BDGSA,A,3,06,07,09,10,11,16,25,28,32,,,,0.7,0.6,0.4*24
$GLGSA,A,3,01,08,09,11,20,,,,,,,,0.7,0.6,0.4*29
$GPGSV,3,1,09,04,00,000,38,07,00,000,40,08,44,189,44,09,34,309,43*75
$GPGSV,3,2,09,16,53,020,44,23,62,269,45,26,30,047,41,27,69,131,46*71
$GPGSV,3,3,09,31,15,103,40*40
$BDGSV,3,1,12,01,40,125,40,02,45,218,39,03,00,000,43,04,23,109,40*61
$BDGSV,3,2,12,05,00,000,37,06,37,173,40,07,63,013,43,09,62,206,43*61
$BDGSV,3,3,12,10,61,308,42,11,32,056,41,16,43,179,41,32,26,238,43*66
$B3CN0,0,0,0,0,0,0,0,0,0,0,0,0,0,0*4C
$GLGSV,2,1,06,08,38,266,44,20,42,117,43,01,20,314,43,11,12,292,40*69
$GLGSV,2,2,06,09,34,046,45,26,00,000,46*68
$ini_pos,lastpos_good = 1,ini_pos.x:-1578916.069803,ini_pos.y:5312768.367659,ini_pos.z:3146354.425428
Refix G08: 2, 353651.927956, -4030
Refix G09: 2, 353651.925638, -3440
Refix G16: 2, 353651.930035, 696
Refix G23: 2, 353651.930714, -1585
Refix G26: 2, 353651.924225, 1310
Refix G27: 2, 353651.932155, -2031
Refix G31: 2, 353651.918692, 1127
$GNGGA,021354.000,2944.9070,N,10633.0943,E,1,25,0.6,322.9,M,,,,0000*17
$GNRMC,021354.000,A,2944.9070,N,10633.0943,E,0.08,0.00,160519,,*12
$GPGSA,A,3,08,09,16,23,26,27,31,,,,,,0.7,0.6,0.4*33
$BDGSA,A,3,01,02,03,04,06,07,09,10,11,16,25,28,0.7,0.6,0.4*21
$GLGSA,A,3,01,08,09,11,20,,,,,,,,0.7,0.6,0.4*29
$GPGSV,3,1,09,04,00,000,38,07,00,000,40,08,44,189,44,09,34,309,43*75
$GPGSV,3,2,09,16,53,020,44,23,62,269,45,26,30,047,42,27,69,131,45*71
$GPGSV,3,3,09,31,15,103,40*40
$BDGSV,3,1,12,01,40,125,41,02,45,218,40,03,00,000,43,04,23,109,39*60
$BDGSV,3,2,12,05,00,000,38,06,37,173,40,07,63,013,43,09,62,206,43*6E
$BDGSV,3,3,12,10,61,308,42,11,32,056,41,16,43,179,41,32,26,238,43*66
$B3CN0,0,0,0,0,0,0,0,0,0,0,0,0,0,0*4C
$GLGSV,2,1,06,08,38,266,44,20,42,117,43,01,20,314,43,11,12,292,40*69
$GLGSV,2,2,06,09,34,046,46,26,00,000,46*6B
$ini_pos,lastpos_good = 1,ini_pos.x:-1578916.717096,ini_pos.y:5312768.539455,ini_pos.z:3146354.799771
Refix G07: 2, 353652.917776, -3869
Refix G08: 2, 353652.927959, -4030
Refix G09: 2, 353652.925640, -3440
Refix G16: 2, 353652.930035, 696
Refix G23: 2, 353652.930715, -1585
Refix G26: 2, 353652.924224, 1310
Refix G27: 2, 353652.932156, -2031
Refix G31: 2, 353652.918691, 1127
$GNGGA,021355.000,2944.9071,N,10633.0945,E,1,26,0.5,323.0,M,,,,0000*19
$GNRMC,021355.000,A,2944.9071,N,10633.0945,E,0.10,0.00,160519,,*1D
$GPGSA,A,3,07,08,09,16,23,26,27,31,,,,,0.7,0.5,0.4*37
$BDGSA,A,3,01,02,03,04,06,07,09,10,11,16,25,28,0.7,0.5,0.4*22
$GLGSA,A,3,01,08,09,11,20,,,,,,,,0.7,0.5,0.4*2A
$GPGSV,3,1,09,04,00,000,37,07,00,000,40,08,44,189,44,09,34,309,43*7A
$GPGSV,3,2,09,16,53,020,43,23,62,269,45,26,30,047,42,27,69,131,45*76
$GPGSV,3,3,09,31,15,103,39*4E
$BDGSV,3,1,12,01,40,125,41,02,45,218,40,03,54,172,45,04,23,109,39*63
$BDGSV,3,2,12,05,00,000,37,06,37,173,40,07,63,013,43,09,62,206,43*61
$BDGSV,3,3,12,10,61,308,42,11,32,056,41,16,43,179,41,32,26,238,43*66
$B3CN0,19,0,0,0,0,0,0,0,0,0,0,0,0,0*74
$GLGSV,2,1,06,08,38,266,44,20,42,117,43,01,20,314,43,11,12,292,41*68
$GLGSV,2,2,06,09,34,046,45,26,00,000,46*68
$ini_pos,lastpos_good = 1,ini_pos.x:-1578917.087746,ini_pos.y:5312768.404627,ini_pos.z:3146355.138049
Refix G07: 2, 353653.917779, -3868
Refix G08: 2, 353653.927961, -4028
Refix G09: 2, 353653.925642, -3438
Refix G16: 2, 353653.930034, 697
Refix G23: 2, 353653.930716, -1583
Refix G26: 2, 353653.924223, 1311
Refix G27: 2, 353653.932157, -2029
Refix G31: 2, 353653.918691, 1129
$GNGGA,021356.000,2944.9071,N,10633.0946,E,1,26,0.5,323.3,M,,,,0000*1A
$GNRMC,021356.000,A,2944.9071,N,10633.0946,E,0.22,0.00,160519,,*1C
$GPGSA,A,3,07,08,09,16,23,26,27,31,,,,,0.7,0.5,0.4*37
$BDGSA,A,3,01,02,03,04,06,07,09,10,11,16,25,28,0.7,0.5,0.4*22
$GLGSA,A,3,01,08,09,11,20,,,,,,,,0.7,0.5,0.4*2A
$GPGSV,3,1,09,04,00,000,38,07,13,306,41,08,44,189,44,09,34,309,43*73
$GPGSV,3,2,09,16,53,020,44,23,62,269,45,26,30,047,41,27,69,131,45*72
$GPGSV,3,3,09,31,15,103,39*4E
$BDGSV,3,1,12,01,40,125,41,02,45,218,39,03,54,172,43,04,23,109,39*6B
$BDGSV,3,2,12,05,00,000,37,06,37,173,40,07,63,013,43,09,62,206,43*61
$BDGSV,3,3,12,10,61,308,42,11,32,056,41,16,43,179,42,32,26,238,43*65
$B3CN0,36,22,0,0,0,0,0,0,0,0,0,0,0,0*49
$GLGSV,2,1,06,08,38,266,44,20,42,117,43,01,20,314,43,11,12,292,40*69
$GLGSV,2,2,06,09,34,046,46,26,00,000,45*68
$ini_pos,lastpos_good = 1,ini_pos.x:-1578917.299056,ini_pos.y:5312768.637485,ini_pos.z:3146355.212327
Refix G07: 2, 353654.917781, -3866
Refix G08: 2, 353654.927964, -4026
Refix G09: 2, 353654.925645, -3435
Refix G16: 2, 353654.930034, 701
Refix G23: 2, 353654.930716, -1580
Refix G26: 2, 353654.924223, 1314
Refix G27: 2, 353654.932158, -2026
Refix G31: 2, 353654.918690, 1132
$GNGGA,021357.000,2944.9071,N,10633.0948,E,1,26,0.5,323.7,M,,,,0000*11
$GNRMC,021357.000,A,2944.9071,N,10633.0948,E,0.15,0.00,160519,,*17
$GPGSA,A,3,07,08,09,16,23,26,27,31,,,,,0.7,0.5,0.4*37
$BDGSA,A,3,01,02,03,04,06,07,09,10,11,16,25,28,0.7,0.5,0.4*22
$GLGSA,A,3,01,08,09,11,20,,,,,,,,0.7,0.5,0.4*2A
$GPGSV,3,1,09,04,00,000,38,07,13,306,40,08,44,189,44,09,34,309,44*75
$GPGSV,3,2,09,16,53,020,44,23,62,269,45,26,30,047,41,27,69,131,45*72
$GPGSV,3,3,09,31,15,103,40*40
$BDGSV,3,1,12,01,40,125,40,02,45,218,39,03,54,172,42,04,23,109,39*6B
$BDGSV,3,2,12,05,00,000,38,06,37,173,40,07,63,013,44,09,62,206,43*69
$BDGSV,3,3,12,10,61,308,42,11,32,056,42,16,43,179,42,32,26,238,43*66
$B3CN0,0,0,0,0,0,0,0,0,0,0,0,0,0,0*4C
$GLGSV,2,1,06,08,38,266,45,20,42,117,43,01,20,314,43,11,12,292,40*68
$GLGSV,2,2,06,09,34,046,46,26,00,000,46*6B
$ini_pos,lastpos_good = 1,ini_pos.x:-1578917.648642,ini_pos.y:5312768.829314,ini_pos.z:3146355.411203
Refix G07: 2, 353655.917784, -3865
Refix G08: 2, 353655.927966, -4025
Refix G09: 2, 353655.925647, -3434
Refix G16: 2, 353655.930033, 701
Refix G23: 2, 353655.930717, -1579
Refix G26: 2, 353655.924222, 1314
Refix G27: 2, 353655.932160, -2025
Refix G31: 2, 353655.918689, 1131
$GNGGA,021358.000,2944.9070,N,10633.0947,E,1,26,0.5,323.8,M,,,,0000*1F
$GNRMC,021358.000,A,2944.9070,N,10633.0947,E,0.11,0.00,160519,,*12
$GPGSA,A,3,07,08,09,16,23,26,27,31,,,,,0.7,0.5,0.4*37
$BDGSA,A,3,01,02,03,04,06,07,09,10,11,16,25,28,0.7,0.5,0.4*22
$GLGSA,A,3,01,08,09,11,20,,,,,,,,0.7,0.5,0.4*2A
$GPGSV,3,1,09,04,00,000,38,07,13,306,40,08,44,189,44,09,34,309,43*72
$GPGSV,3,2,09,16,53,020,44,23,62,269,45,26,30,047,41,27,69,131,45*72
$GPGSV,3,3,09,31,15,103,40*40
$BDGSV,3,1,12,01,40,125,41,02,45,218,39,03,54,172,43,04,23,109,39*6B
$BDGSV,3,2,12,05,00,000,37,06,37,173,40,07,63,013,43,09,62,206,43*61
$BDGSV,3,3,12,10,61,308,43,11,32,056,41,16,43,179,42,32,26,238,43*64
$B3CN0,0,20,0,0,0,0,0,0,0,0,0,0,0,0*7E
$GLGSV,2,1,06,08,38,266,45,20,42,117,43,01,20,314,43,11,12,292,40*68
$GLGSV,2,2,06,09,34,046,45,26,00,000,46*68
$ini_pos,lastpos_good = 1,ini_pos.x:-1578917.547054,ini_pos.y:5312769.066711,ini_pos.z:3146355.356452
Refix G07: 2, 353656.917786, -3869
Refix G08: 2, 353656.927969, -4028
Refix G09: 2, 353656.925649, -3438
Refix G16: 2, 353656.930033, 697
Refix G23: 2, 353656.930718, -1583
Refix G26: 2, 353656.924221, 1311
Refix G27: 2, 353656.932161, -2028
Refix G31: 2, 353656.918688, 1129
$GNGGA,021359.000,2944.9071,N,10633.0947,E,1,26,0.5,324.0,M,,,,0000*10
$GNRMC,021359.000,A,2944.9071,N,10633.0947,E,0.24,0.00,160519,,*14
$GPGSA,A,3,07,08,09,16,23,26,27,31,,,,,0.7,0.5,0.4*37
$BDGSA,A,3,01,02,03,04,06,07,09,10,11,16,25,28,0.7,0.5,0.4*22
$GLGSA,A,3,01,08,09,11,20,,,,,,,,0.7,0.5,0.4*2A
$GPGSV,3,1,09,04,00,000,38,07,13,306,41,08,44,189,43,09,34,309,43*74
$GPGSV,3,2,09,16,53,020,44,23,62,269,45,26,30,047,41,27,69,131,45*72
$GPGSV,3,3,09,31,15,103,40*40
$BDGSV,3,1,12,01,40,125,41,02,45,218,40,03,54,172,41,04,23,109,40*69
$BDGSV,3,2,12,05,00,000,37,06,37,173,40,07,63,013,43,09,62,206,43*61
$BDGSV,3,3,12,10,61,308,42,11,32,056,41,16,43,179,41,32,26,238,43*66
$B3CN0,0,0,0,0,0,0,0,0,0,0,0,0,0,0*4C
$GLGSV,2,1,06,08,38,266,44,20,42,117,43,01,20,314,43,11,12,292,40*69
$GLGSV,2,2,06,09,34,046,46,26,00,000,46*6B
$ini_pos,lastpos_good = 1,ini_pos.x:-1578917.541596,ini_pos.y:5312769.193593,ini_pos.z:3146355.440974
Refix G07: 2, 353657.917789, -3869
Refix G08: 2, 353657.927972, -4029
Refix G09: 2, 353657.925651, -3438
Refix G16: 2, 353657.930032, 697
Refix G23: 2, 353657.930719, -1583
Refix G26: 2, 353657.924220, 1310
Refix G27: 2, 353657.932162, -2028
Refix G31: 2, 353657.918688, 1128
$GNGGA,021400.000,2944.9070,N,10633.0946,E,1,26,0.5,324.2,M,,,,0000*19
$GNRMC,021400.000,A,2944.9070,N,10633.0946,E,0.06,0.00,160519,,*1F
$GPGSA,A,3,07,08,09,16,23,26,27,31,,,,,0.7,0.5,0.4*37
$BDGSA,A,3,01,02,03,04,06,07,09,10,11,16,25,28,0.7,0.5,0.4*22
$GLGSA,A,3,01,08,09,11,20,,,,,,,,0.7,0.5,0.4*2A
$GPGSV,3,1,09,04,00,000,38,07,13,306,42,08,44,189,43,09,34,309,43*77
$GPGSV,3,2,09,16,53,020,44,23,62,269,45,26,30,047,41,27,69,131,45*72
$GPGSV,3,3,09,31,15,103,40*40
$BDGSV,3,1,12,01,40,125,40,02,45,218,40,03,54,172,43,04,23,109,41*6B
$BDGSV,3,2,12,05,00,000,38,06,37,173,40,07,63,013,43,09,62,206,43*6E
$BDGSV,3,3,12,10,61,308,43,11,32,056,41,16,43,179,41,32,26,238,43*67
$B3CN0,0,0,0,0,0,0,0,0,0,0,0,0,0,0*4C
$GLGSV,2,1,06,08,38,266,45,20,42,117,43,01,20,314,43,11,12,292,40*68
$GLGSV,2,2,06,09,34,046,45,26,00,000,45*6B
$ini_pos,lastpos_good = 1,ini_pos.x:-1578917.519500,ini_pos.y:5312769.411916,ini_pos.z:3146355.507182
Refix G07: 2, 353658.917791, -3869
Refix G08: 2, 353658.927974, -4028
Refix G09: 2, 353658.925653, -3437
Refix G16: 2, 353658.930032, 697
Refix G23: 2, 353658.930720, -1582
Refix G26: 2, 353658.924219, 1311
Refix G27: 2, 353658.932163, -2027
Refix G31: 2, 353658.918687, 1129
$GNGGA,021401.000,2944.9071,N,10633.0947,E,1,26,0.5,324.4,M,,,,0000*1E
$GNRMC,021401.000,A,2944.9071,N,10633.0947,E,0.08,0.00,160519,,*10
$GPGSA,A,3,07,08,09,16,23,26,27,31,,,,,0.7,0.5,0.4*37
$BDGSA,A,3,01,02,03,04,06,07,09,10,11,16,25,28,0.7,0.5,0.4*22
$GLGSA,A,3,01,08,09,11,20,,,,,,,,0.7,0.5,0.4*2A
$GPGSV,3,1,09,04,00,000,38,07,13,306,41,08,44,189,44,09,34,309,44*74
$GPGSV,3,2,09,16,53,020,44,23,62,269,45,26,30,047,41,27,69,131,45*72
$GPGSV,3,3,09,31,15,103,40*40
$BDGSV,3,1,12,01,40,125,41,02,45,218,40,03,54,172,42,04,23,109,41*6B
$BDGSV,3,2,12,05,27,244,37,06,37,173,40,07,63,013,43,09,62,206,43*66
$BDGSV,3,3,12,10,61,308,42,11,32,056,41,16,43,179,41,32,26,238,43*66
$B3CN0,0,0,0,0,0,0,0,0,0,0,0,0,0,0*4C
$GLGSV,2,1,06,08,38,266,45,20,42,116,43,01,20,314,43,11,12,293,40*68
$GLGSV,2,2,06,09,34,047,45,26,00,000,46*69
$ini_pos,lastpos_good = 1,ini_pos.x:-1578917.627387,ini_pos.y:5312769.574233,ini_pos.z:3146355.698463
Refix G07: 2, 353659.917793, -3866
Refix G08: 2, 353659.927977, -4024
Refix G09: 2, 353659.925655, -3433
Refix G16: 2, 353659.930031, 701
Refix G23: 2, 353659.930721, -1577
Refix G26: 2, 353659.924218, 1314
Refix G27: 2, 353659.932165, -2023
Refix G31: 2, 353659.918686, 1131
$GNGGA,021402.000,2944.9071,N,10633.0948,E,1,26,0.5,324.4,M,,,,0000*12
$GNRMC,021402.000,A,2944.9071,N,10633.0948,E,0.13,0.00,160519,,*16
$GPGSA,A,3,07,08,09,16,23,26,27,31,,,,,0.7,0.5,0.4*37
$BDGSA,A,3,01,02,03,04,06,07,09,10,11,16,25,28,0.7,0.5,0.4*22
$GLGSA,A,3,01,08,09,11,20,,,,,,,,0.7,0.5,0.4*2A
$GPGSV,3,1,09,04,00,000,37,07,13,306,41,08,44,189,44,09,34,309,44*7B
$GPGSV,3,2,09,16,53,020,44,23,62,269,44,26,30,047,42,27,69,131,45*70
$GPGSV,3,3,09,31,15,103,40*40
$BDGSV,3,1,12,01,40,125,41,02,45,218,39,03,54,172,41,04,23,109,40*67
$BDGSV,3,2,12,05,27,244,37,06,37,173,40,07,63,013,43,09,62,206,43*66
$BDGSV,3,3,12,10,61,308,42,11,32,056,41,16,43,179,42,32,26,238,43*65
$B3CN0,0,0,0,0,0,0,0,0,0,0,0,0,0,0*4C
$GLGSV,2,1,06,08,38,266,45,20,42,116,43,01,20,314,44,11,12,293,41*6E
$GLGSV,2,2,06,09,34,047,45,26,00,000,45*6A
$ini_pos,lastpos_good = 1,ini_pos.x:-1578917.805832,ini_pos.y:5312769.415828,ini_pos.z:3146355.732074
Refix G07: 2, 353660.917796, -3868
Refix G08: 2, 353660.927979, -4024
Refix G09: 2, 353660.925658, -3434
Refix G16: 2, 353660.930031, 700
Refix G23: 2, 353660.930722, -1578
Refix G26: 2, 353660.924217, 1312
Refix G27: 2, 353660.932166, -2023
Refix G31: 2, 353660.918685, 1130
$GNGGA,021403.000,2944.9072,N,10633.0950,E,1,26,0.5,324.1,M,,,,0000*1C
$GNRMC,021403.000,A,2944.9072,N,10633.0950,E,0.12,0.00,160519,,*1C
$GPGSA,A,3,07,08,09,16,23,26,27,31,,,,,0.7,0.5,0.4*37
$BDGSA,A,3,01,02,03,04,06,07,09,10,11,16,25,28,0.7,0.5,0.4*22
$GLGSA,A,3,01,08,09,11,20,,,,,,,,0.7,0.5,0.4*2A
$GPGSV,3,1,09,04,00,000,38,07,13,306,41,08,44,189,43,09,34,309,44*73
$GPGSV,3,2,09,16,53,020,43,23,62,269,45,26,30,047,41,27,69,131,45*75
$GPGSV,3,3,09,31,15,103,40*40
$BDGSV,3,1,12,01,40,125,41,02,45,218,39,03,54,172,42,04,23,109,40*64
$BDGSV,3,2,12,05,27,244,38,06,37,173,40,07,63,013,43,09,62,206,43*69
$BDGSV,3,3,12,10,61,308,42,11,32,056,41,16,43,179,42,32,26,238,43*65
$B3CN0,21,0,0,0,0,0,0,0,0,0,0,0,0,0*7F
$GLGSV,2,1,06,08,38,266,45,20,42,116,43,01,20,314,43,11,12,293,40*68
$GLGSV,2,2,06,09,34,047,45,26,00,000,45*6A
$ini_pos,lastpos_good = 1,ini_pos.x:-1578918.039655,ini_pos.y:5312769.087756,ini_pos.z:3146355.721610
Refix G07: 2, 353661.917798, -3866
Refix G08: 2, 353661.927982, -4021
Refix G09: 2, 353661.925660, -3430
Refix G16: 2, 353661.930030, 703
Refix G23: 2, 353661.930723, -1574
Refix G26: 2, 353661.924217, 1315
Refix G27: 2, 353661.932167, -2019
Refix G31: 2, 353661.918685, 1133
$GNGGA,021404.000,2944.9072,N,10633.0951,E,1,26,0.5,323.9,M,,,,0000*15
$GNRMC,021404.000,A,2944.9072,N,10633.0951,E,0.01,0.00,160519,,*18
$GPGSA,A,3,07,08,09,16,23,26,27,31,,,,,0.7,0.5,0.4*37
$BDGSA,A,3,01,02,03,04,06,07,09,10,11,16,25,28,0.7,0.5,0.4*22
$GLGSA,A,3,01,08,09,11,20,,,,,,,,0.7,0.5,0.4*2A
$GPGSV,3,1,09,04,00,000,37,07,13,306,40,08,44,189,43,09,34,309,43*7A
$GPGSV,3,2,09,16,53,020,43,23,62,269,44,26,30,047,42,27,69,131,44*76
$GPGSV,3,3,09,31,15,103,40*40
$BDGSV,3,1,12,01,40,125,41,02,45,218,38,03,54,172,41,04,23,109,39*68
$BDGSV,3,2,12,05,27,244,38,06,37,173,40,07,63,013,43,09,62,206,42*68
$BDGSV,3,3,12,10,61,308,42,11,32,056,42,16,43,179,42,32,26,238,43*66
$B3CN0,0,0,0,0,0,0,0,0,0,0,0,0,0,0*4C
$GLGSV,2,1,06,08,38,266,45,20,42,116,43,01,20,314,43,11,12,293,40*68
$GLGSV,2,2,06,09,34,047,45,26,00,000,45*6A
$ini_pos,lastpos_good = 1,ini_pos.x:-1578918.201381,ini_pos.y:5312768.808448,ini_pos.z:3146355.628002
Refix G07: 2, 353662.917801, -3867
Refix G08: 2, 353662.927984, -4022
Refix G09: 2, 353662.925662, -3431
Refix G16: 2, 353662.930030, 702
Refix G23: 2, 353662.930724, -1575
Refix G26: 2, 353662.924216, 1314
Refix G27: 2, 353662.932168, -2021
Refix G31: 2, 353662.918684, 1132
$GNGGA,021405.000,2944.9072,N,10633.0952,E,1,26,0.5,323.9,M,,,,0000*17
$GNRMC,021405.000,A,2944.9072,N,10633.0952,E,0.11,0.00,160519,,*1B
$GPGSA,A,3,07,08,09,16,23,26,27,31,,,,,0.7,0.5,0.4*37
$BDGSA,A,3,01,02,03,04,06,07,09,10,11,16,25,28,0.7,0.5,0.4*22
$GLGSA,A,3,01,08,09,11,20,,,,,,,,0.7,0.5,0.4*2A
$GPGSV,3,1,09,04,00,000,37,07,13,306,41,08,44,189,43,09,34,309,43*7B
$GPGSV,3,2,09,16,53,020,44,23,62,269,44,26,30,047,41,27,69,131,45*73
$GPGSV,3,3,09,31,15,103,40*40
$BDGSV,3,1,12,01,40,125,40,02,45,218,40,03,54,172,41,04,23,109,39*66
$BDGSV,3,2,12,05,27,244,37,06,37,173,40,07,63,013,43,09,62,206,43*66
$BDGSV,3,3,12,10,61,308,42,11,32,056,41,16,43,179,42,32,26,238,43*65
$B3CN0,0,0,0,0,0,0,0,0,0,0,0,0,0,0*4C
$GLGSV,2,1,06,08,38,266,45,20,42,116,43,01,20,314,44,11,12,293,40*6F
$GLGSV,2,2,06,09,34,047,45,26,00,000,46*69
$ini_pos,lastpos_good = 1,ini_pos.x:-1578918.260333,ini_pos.y:5312768.789539,ini_pos.z:3146355.585434
Refix G07: 2, 353663.917803, -3863
Refix G08: 2, 353663.927987, -4018
Refix G09: 2, 353663.925664, -3427
Refix G16: 2, 353663.930029, 706
Refix G23: 2, 353663.930725, -1570
Refix G26: 2, 353663.924215, 1318
Refix G27: 2, 353663.932170, -2016
Refix G31: 2, 353663.918683, 1136
$GNGGA,021406.000,2944.9071,N,10633.0953,E,1,26,0.5,323.7,M,,,,0000*18
$GNRMC,021406.000,A,2944.9071,N,10633.0953,E,0.02,0.00,160519,,*18
$GPGSA,A,3,07,08,09,16,23,26,27,31,,,,,0.7,0.5,0.4*37
$BDGSA,A,3,01,02,03,04,06,07,09,10,11,16,25,28,0.7,0.5,0.4*22
$GLGSA,A,3,01,08,09,11,20,,,,,,,,0.7,0.5,0.4*2A
$GPGSV,3,1,09,04,00,000,38,07,13,306,40,08,44,189,43,09,34,309,43*75
$GPGSV,3,2,09,16,53,020,44,23,62,269,44,26,30,047,42,27,69,131,45*70
$GPGSV,3,3,09,31,15,103,41*41
$BDGSV,3,1,12,01,40,125,41,02,45,218,40,03,54,172,42,04,23,109,40*6A
$BDGSV,3,2,12,05,27,244,37,06,37,173,40,07,63,013,43,09,62,206,43*66
$BDGSV,3,3,12,10,61,308,42,11,32,056,42,16,43,179,41,32,26,238,43*65
$B3CN0,0,0,0,0,0,0,0,0,0,0,0,0,0,0*4C
$GLGSV,2,1,06,08,38,266,45,20,42,116,43,01,20,314,43,11,12,293,40*68
$GLGSV,2,2,06,09,34,047,45,26,00,000,46*69
$ini_pos,lastpos_good = 1,ini_pos.x:-1578918.404418,ini_pos.y:5312768.680894,ini_pos.z:3146355.347683
Refix G07: 2, 353664.917806, -3865
Refix G08: 2, 353664.927989, -4020
Refix G09: 2, 353664.925666, -3428
Refix G16: 2, 353664.930029, 705
Refix G23: 2, 353664.930726, -1572
Refix G26: 2, 353664.924214, 1316
Refix G27: 2, 353664.932171, -2017
Refix G31: 2, 353664.918682, 1135
$GNGGA,021407.000,2944.9070,N,10633.0953,E,1,26,0.5,323.4,M,,,,0000*1B
$GNRMC,021407.000,A,2944.9070,N,10633.0953,E,0.08,0.00,160519,,*12
$GPGSA,A,3,07,08,09,16,23,26,27,31,,,,,0.7,0.5,0.4*37
$BDGSA,A,3,01,02,03,04,06,07,09,10,11,16,25,28,0.7,0.5,0.4*22
$GLGSA,A,3,01,08,09,11,20,,,,,,,,0.7,0.5,0.4*2A
$GPGSV,3,1,09,04,00,000,38,07,13,306,41,08,44,189,43,09,34,309,43*74
$GPGSV,3,2,09,16,53,020,44,23,62,269,44,26,30,047,42,27,69,131,44*71
$GPGSV,3,3,09,31,15,103,40*40
$BDGSV,3,1,12,01,40,125,40,02,45,218,39,03,54,172,43,04,23,109,40*64
$BDGSV,3,2,12,05,27,244,37,06,37,173,40,07,63,013,43,09,62,206,42*67
$BDGSV,3,3,12,10,61,308,42,11,32,056,41,16,43,180,42,32,26,238,43*63
$B3CN0,0,0,0,0,0,0,0,0,0,0,0,0,0,0*4C
$GLGSV,2,1,06,08,38,266,44,20,42,116,43,01,20,314,44,11,12,293,41*6F
$GLGSV,2,2,06,09,34,047,45,26,00,000,46*69
$ini_pos,lastpos_good = 1,ini_pos.x:-1578918.335975,ini_pos.y:5312768.473811,ini_pos.z:3146355.110283
Refix G07: 2, 353665.917808, -3872
Refix G08: 2, 353665.927992, -4027
Refix G09: 2, 353665.925668, -3436
Refix G16: 2, 353665.930029, 696
Refix G23: 2, 353665.930727, -1580
Refix G26: 2, 353665.924213, 1308
Refix G27: 2, 353665.932172, -2025
Refix G31: 2, 353665.918682, 1128
$GNGGA,021408.000,2944.9069,N,10633.0953,E,1,26,0.5,323.6,M,,,,0000*1E
$GNRMC,021408.000,A,2944.9069,N,10633.0953,E,0.16,0.00,160519,,*1A
$GPGSA,A,3,07,08,09,16,23,26,27,31,,,,,0.7,0.5,0.4*37
$BDGSA,A,3,01,02,03,04,06,07,09,10,11,16,25,28,0.7,0.5,0.4*22
$GLGSA,A,3,01,08,09,11,20,,,,,,,,0.7,0.5,0.4*2A
$GPGSV,3,1,09,04,00,000,38,07,13,306,41,08,44,189,43,09,34,309,43*74
$GPGSV,3,2,09,16,53,020,44,23,62,269,45,26,30,047,41,27,69,131,45*72
$GPGSV,3,3,09,31,15,103,40*40
$BDGSV,3,1,12,01,40,125,41,02,45,218,40,03,54,172,42,04,23,109,41*6B
$BDGSV,3,2,12,05,27,244,38,06,37,173,40,07,63,013,43,09,62,206,42*68
$BDGSV,3,3,12,10,61,308,42,11,32,056,41,16,43,180,41,32,26,238,43*60
$B3CN0,0,21,0,0,0,0,0,0,0,0,0,0,0,0*7F
$GLGSV,2,1,06,08,38,266,45,20,42,116,42,01,20,314,43,11,12,293,40*69
$GLGSV,2,2,06,09,34,047,45,26,00,000,46*69
$ini_pos,lastpos_good = 1,ini_pos.x:-1578918.495577,ini_pos.y:5312768.736982,ini_pos.z:3146355.073233
Refix G07: 2, 353666.917810, -3869
Refix G08: 2, 353666.927994, -4023
Refix G09: 2, 353666.925670, -3432
Refix G16: 2, 353666.930028, 701
Refix G23: 2, 353666.930728, -1575
Refix G26: 2, 353666.924212, 1312
Refix G27: 2, 353666.932173, -2020
Refix G31: 2, 353666.918681, 1132
$GNGGA,021409.000,2944.9067,N,10633.0955,E,1,27,0.5,323.9,M,,,,0000*19
$GNRMC,021409.000,A,2944.9067,N,10633.0955,E,0.18,0.00,160519,,*1D
$GPGSA,A,3,07,08,09,16,23,26,27,31,,,,,0.6,0.5,0.4*36
$BDGSA,A,3,01,02,03,04,06,07,09,10,11,16,25,28,0.6,0.5,0.4*23
