SD initialized success
Create debug.log Failed! 3
bbram_blkflag = 1
rtcflag = 0
BBRAM Block OK: 01 EPHflag: 464081c8 8900876f, rtc 00
Hot-start nowtime:day = 16,minute = 17,seconds = 29.00
GPS 0 Init Dop: 10000,80
GPS 1 Init Dop: 10000,80
GPS 2 Init Dop: 10000,80
GPS 3 Init Dop: -3918, 2
GPS 4 Init Dop: 10000,80
GPS 5 Init Dop: 10000,80
GPS 6 Init Dop: -3642, 2
GPS 7 Init Dop: -3689, 2
GPS 8 Init Dop: -3087, 2
GPS 9 Init Dop: 10000,80
GPS10 Init Dop: 10000,80
GPS11 Init Dop: 10000,80
GPS12 Init Dop: 10000,80
GPS13 Init Dop: 10000,80
GPS14 Init Dop: 10000,80
GPS15 Init Dop:   989, 2
GPS16 Init Dop: 10000,80
GPS17 Init Dop: 10000,80
GPS18 Init Dop: 10000,80
GPS19 Init Dop: 10000,80
GPS20 Init Dop: 10000,80
GPS21 Init Dop: 10000,80
GPS22 Init Dop: -1200, 2
GPS23 Init Dop: 10000,80
GPS24 Init Dop: 10000,80
GPS25 Init Dop:  1562, 2
GPS26 Init Dop: -1635, 2
GPS27 Init Dop: 10000,80
GPS28 Init Dop: 10000,80
GPS29 Init Dop: 10000,80
GPS30 Init Dop:  1410, 2
GPS31 Init Dop: 10000,80
BDS 0 Init Dop:  -924, 2
BDS 1 Init Dop:  -899, 2
BDS 2 Init Dop:  -927, 2
BDS 3 Init Dop:  -917, 2
BDS 4 Init Dop: 10000,80
BDS 5 Init Dop:   512, 2
BDS 6 Init Dop:  -721, 2
BDS 7 Init Dop: 10000,80
BDS 8 Init Dop:    68, 2
BDS 9 Init Dop:  -795, 2
BDS10 Init Dop:   522, 2
BDS11 Init Dop: 10000,80
BDS12 Init Dop: 10000,80
BDS13 Init Dop: 10000,80
BDS14 Init Dop: 10000,80
BDS15 Init Dop:   557, 2
BDS16 Init Dop: 10000,80
BDS17 Init Dop: 10000,80
BDS18 Init Dop: 10000,80
BDS19 Init Dop: 10000,80
BDS20 Init Dop: 10000,80
BDS21 Init Dop: 10000,80
BDS22 Init Dop: 10000,80
BDS23 Init Dop: 10000,80
BDS24 Init Dop:   763, 2
BDS25 Init Dop: 10000,80
BDS26 Init Dop: 10000,80
BDS27 Init Dop: -3524, 2
BDS28 Init Dop: 10000,80
BDS29 Init Dop: 10000,80
BDS30 Init Dop: 10000,80
BDS31 Init Dop:  1224, 2
Good luck!
$ini_pos,lastpos_good = 1,ini_pos.x:-1578918.000000,ini_pos.y:5312768.000000,ini_pos.z:3146355.000000
$rtc_local_time,localRTC.weeks:2053,localRTC.seconds:353868.026014,localGtime.weeks:0,localGtime.seconds:19.026011
source<tow,snapshot
$GNGGA,000000.000,,,,,0,00,,,M,,,,0000*2B
$GNRMC,000000.000,A,,,,,,,000000,,*26
$GPGSA,A,1,,,,,,,,,,,,,,,*1E
$BDGSA,A,1,,,,,,,,,,,,,,,*0F
$GLGSA,A,1,,,,,,,,,,,,,,,*02
$B3CN0,0,0,0,0,0,0,0,0,0,0,0,0,0,0*4C
$ini_pos,lastpos_good = 1,ini_pos.x:-1578918.000000,ini_pos.y:5312768.000000,ini_pos.z:3146355.000000
$rtc_local_time,localRTC.weeks:2053,localRTC.seconds:353869.026014,localGtime.weeks:2053,localGtime.seconds:353869.026014
source<tow,snapshot
$GNGGA,000000.000,,,,,0,00,,,M,,,,0000*2B
$GNRMC,000000.000,A,,,,,,,000000,,*26
$GPGSA,A,1,,,,,,,,,,,,,,,*1E
$BDGSA,A,1,,,,,,,,,,,,,,,*0F
$GLGSA,A,1,,,,,,,,,,,,,,,*02
$B3CN0,0,0,0,0,0,0,0,0,0,0,0,0,0,0*4C
$ini_pos,lastpos_good = 1,ini_pos.x:-1578918.000000,ini_pos.y:5312768.000000,ini_pos.z:3146355.000000
$rtc_local_time,localRTC.weeks:2053,localRTC.seconds:353870.026014,localGtime.weeks:2053,localGtime.seconds:353870.026014
$pseudo_cd_ph,prn:7,pseudo_cd_ph:18.542506198380
measnum = 0,full_prange = 24416997.671074
$oldmeas,msRange:0.000000,x:17050583.735843,y:9203946.713745,z:18627694.362743,vx:-2194.345215,vy:690.404724,vz:1643.792480,tb:-0.000025025354
$newmeas,x:17050762.456704,y:9203890.483408,z:18627560.480601,vx:-2194.332275,vy:690.390015,vz:1643.823608,tb:-0.000025025354
$pseudo_cd_ph,prn:8,pseudo_cd_ph:8.739393508329
measnum = 1,full_prange = 21324457.999644
$oldmeas,msRange:71.518040,x:-5214938.672792,y:25866875.869318,z:-1753223.070835,vx:-315.770935,vy:155.873627,vz:3199.975342,tb:-0.000143740013
$newmeas,x:-5214916.211500,y:25866864.780966,z:-1753450.687333,vx:-315.778595,vy:155.900223,vz:3199.972656,tb:-0.000143740013
$pseudo_cd_ph,prn:9,pseudo_cd_ph:6.338377966559
measnum = 2,full_prange = 22210435.310124
$oldmeas,msRange:74.473145,x:10496052.383254,y:14804982.479324,z:19350185.633601,vx:-731.104919,vy:2361.822021,vz:-1408.628662,tb:0.000410546606
$newmeas,x:10496106.548402,y:14804807.500923,z:19350289.992187,vx:-731.117920,vy:2361.831787,vz:-1408.598145,tb:0.000410546607
source<tow,snapshot
$GNGGA,000000.000,,,,,0,00,,,M,,,,0000*2B
$GNRMC,000000.000,A,,,,,,,000000,,*26
$GPGSA,A,1,,,,,,,,,,,,,,,*1E
$BDGSA,A,1,,,,,,,,,,,,,,,*0F
$GLGSA,A,1,,,,,,,,,,,,,,,*02
$B3CN0,0,0,0,0,0,0,0,0,0,0,0,0,0,0*4C
$ini_pos,lastpos_good = 1,ini_pos.x:-1578918.000000,ini_pos.y:5312768.000000,ini_pos.z:3146355.000000
$rtc_local_time,localRTC.weeks:2053,localRTC.seconds:353871.026014,localGtime.weeks:2053,localGtime.seconds:353871.026014
$pseudo_cd_ph,prn:7,pseudo_cd_ph:18.544920532585
measnum = 0,full_prange = 24416264.200219
$oldmeas,msRange:0.000000,x:17048389.311318,y:9204637.208450,z:18629337.963914,vx:-2194.503906,vy:690.584778,vz:1643.410034,tb:-0.000025025357
$newmeas,x:17048568.039727,y:9204580.965137,z:18629204.116940,vx:-2194.490967,vy:690.570068,vz:1643.441162,tb:-0.000025025357
$pseudo_cd_ph,prn:8,pseudo_cd_ph:8.741825801070
measnum = 1,full_prange = 21323719.132566
$oldmeas,msRange:71.516278,x:-5215254.390038,y:25867031.555980,z:-1750023.076785,vx:-315.663574,vy:155.499695,vz:3200.012939,tb:-0.000143740016
$newmeas,x:-5215231.937162,y:25867020.494609,z:-1750250.688083,vx:-315.671204,vy:155.526291,vz:3200.010254,tb:-0.000143740016
$pseudo_cd_ph,prn:9,pseudo_cd_ph:6.340418296359
measnum = 2,full_prange = 22209813.948356
$oldmeas,msRange:74.471766,x:10495321.366496,y:14807344.236020,z:19348776.798369,vx:-730.928650,vy:2361.691406,vz:-1409.041870,tb:0.000410546599
$newmeas,x:10495375.517074,y:14807169.272197,z:19348881.184641,vx:-730.941711,vy:2361.701172,vz:-1409.011230,tb:0.000410546600
$pseudo_cd_ph,prn:16,pseudo_cd_ph:10.164610033977
measnum = 3,full_prange = 20928159.767591
$oldmeas,msRange:70.195006,x:-8714189.462858,y:12121142.071399,z:21736173.502818,vx:-1851.599365,vy:-2106.650635,vz:470.814026,tb:-0.000040399824
$newmeas,x:-8714060.205280,y:12121289.134375,z:21736140.634691,vx:-1851.587891,vy:-2106.655518,vz:470.847015,tb:-0.000040399823
$pseudo_cd_ph,prn:23,pseudo_cd_ph:11.154860130153
measnum = 4,full_prange = 20587644.117265
$oldmeas,msRange:69.060061,x:2982929.242067,y:23606367.481935,z:11700641.966788,vx:-640.084900,vy:1340.272217,vz:-2656.102051,tb:-0.000185987661
$newmeas,x:2982973.198960,y:23606275.440759,z:11700824.368657,vx:-640.095032,vy:1340.291870,vz:-2656.084717,tb:-0.000185987661
$pseudo_cd_ph,prn:26,pseudo_cd_ph:4.271868164122
measnum = 5,full_prange = 22767548.204739
$oldmeas,msRange:76.330342,x:-16735962.844837,y:4056083.175707,z:20243994.562079,vx:-1802.855225,vy:-1839.970581,vz:-1103.056763,tb:0.000202397715
$newmeas,x:-16735825.928145,y:4056222.911680,z:20244078.331786,vx:-1802.855103,vy:-1839.985718,vz:-1103.024170,tb:0.000202397714
$pseudo_cd_ph,prn:27,pseudo_cd_ph:12.657467354544
measnum = 6,full_prange = 20153089.877517
$oldmeas,msRange:67.610763,x:-12010024.884856,y:21623203.901278,z:9146548.803421,vx:76.135902,vy:-1203.503174,vz:2940.619629,tb:-0.000132897353
$newmeas,x:-12010030.002927,y:21623284.804115,z:9146351.124306,vx:76.134453,vy:-1203.478638,vz:2940.633057,tb:-0.000132897352
source<tow,snapshot
nits = 2
$GNGGA,021733.743,2944.9171,N,10633.1038,E,1,07,0.0,368.8,M,,,,0000*1F
$GNRMC,021733.743,A,2944.9171,N,10633.1038,E,0.00,0.00,160519,,*1B
$GPGSA,A,3,07,08,09,16,23,26,27,,,,,,0.0,0.0,0.0*33
$BDGSA,A,3,,,,,,,,,,,,,0.0,0.0,0.0*23
$GLGSA,A,3,,,,,,,,,,,,,0.0,0.0,0.0*2E
$GPGSV,1,1,04,07,00,000,39,08,00,000,38,09,00,000,38,16,00,000,27*73
$B3CN0,0,0,0,0,0,0,0,0,0,0,0,0,0,0*4C
$ini_pos,lastpos_good = 1,ini_pos.x:-1578940.104283,ini_pos.y:5312793.492400,ini_pos.z:3146393.768451
$rtc_local_time,localRTC.weeks:2053,localRTC.seconds:353872.026014,localGtime.weeks:2053,localGtime.seconds:353872.026014
$pseudo_cd_ph,prn:7,pseudo_cd_ph:18.547336447857
measnum = 0,full_prange = 24415530.246900
$oldmeas,msRange:0.000000,x:17046194.728237,y:9205327.883222,z:18630981.182637,vx:-2194.662354,vy:690.764832,vz:1643.027588,tb:-0.000025025361
$newmeas,x:17046373.464184,y:9205271.626935,z:18630847.370836,vx:-2194.649414,vy:690.750183,vz:1643.058716,tb:-0.000025025361
$pseudo_cd_ph,prn:8,pseudo_cd_ph:8.744266595775
measnum = 1,full_prange = 21322977.745956
$oldmeas,msRange:71.514452,x:-5215569.999933,y:25867186.868700,z:-1746823.045007,vx:-315.556244,vy:155.125748,vz:3200.050781,tb:-0.000143740019
$newmeas,x:-5215547.555472,y:25867175.834311,z:-1747050.651072,vx:-315.563873,vy:155.152344,vz:3200.048096,tb:-0.000143740019
$pseudo_cd_ph,prn:9,pseudo_cd_ph:6.342472102519
measnum = 2,full_prange = 22209188.566059
$oldmeas,msRange:74.470296,x:10494590.525948,y:14809705.861982,z:19347367.550045,vx:-730.752441,vy:2361.560547,vz:-1409.454956,tb:0.000410546592
$newmeas,x:10494644.661947,y:14809530.912773,z:19347471.963979,vx:-730.765503,vy:2361.570312,vz:-1409.424316,tb:0.000410546592
$pseudo_cd_ph,prn:16,pseudo_cd_ph:10.164092711806
measnum = 3,full_prange = 20928305.184092
$oldmeas,msRange:70.196047,x:-8716041.144218,y:12119035.456458,z:21736644.080573,vx:-1851.763550,vy:-2106.579346,vz:470.341492,tb:-0.000040399829
$newmeas,x:-8715911.874283,y:12119182.515494,z:21736611.245205,vx:-1851.752075,vy:-2106.584473,vz:470.374481,tb:-0.000040399829
$pseudo_cd_ph,prn:23,pseudo_cd_ph:11.155716009504
measnum = 4,full_prange = 20587377.869133
$oldmeas,msRange:69.059768,x:2982289.230936,y:23607707.611221,z:11697985.739822,vx:-639.937378,vy:1339.986328,vz:-2656.352051,tb:-0.000185987660
$newmeas,x:2982333.177128,y:23607615.590867,z:11698168.156514,vx:-639.947510,vy:1340.005981,vz:-2656.334961,tb:-0.000185987660
$pseudo_cd_ph,prn:26,pseudo_cd_ph:4.270981289891
measnum = 5,full_prange = 22767804.413755
$oldmeas,msRange:76.331772,x:-16737765.701038,y:4054243.304372,z:20242891.290443,vx:-1802.857300,vy:-1839.772217,vz:-1103.486572,tb:0.000202397725
$newmeas,x:-16737628.782651,y:4054383.026849,z:20242975.093735,vx:-1802.857178,vy:-1839.787231,vz:-1103.453979,tb:0.000202397724
$pseudo_cd_ph,prn:27,pseudo_cd_ph:12.658581440050
measnum = 6,full_prange = 20152746.216922
$oldmeas,msRange:67.610161,x:-12009948.738143,y:21622000.215077,z:9149489.323606,vx:76.157516,vy:-1203.869263,vz:2940.420898,tb:-0.000132897364
$newmeas,x:-12009953.857580,y:21622081.141142,z:9149291.661229,vx:76.156067,vy:-1203.844727,vz:2940.434326,tb:-0.000132897364
source<tow,snapshot
nits = 2
Refix G07: 2, 353872.648952, -2730
Refix G08: 2, 353872.659149, -2774
Refix G09: 2, 353872.656747, -2172
Refix G16: 2, 353872.660568, 1903
Refix G23: 2, 353872.661560, -283
Refix G26: 2, 353872.654675, 2475
Refix G27: 2, 353872.663063, -719
Refix G31: 2, 353872.649166, 2323
$GNGGA,021734.731,2944.9146,N,10633.1005,E,1,07,0.0,356.3,M,,,,0000*11
$GNRMC,021734.731,A,2944.9146,N,10633.1005,E,0.00,0.00,160519,,*13
$GPGSA,A,3,07,08,09,16,23,26,27,,,,,,0.0,0.0,0.0*33
$BDGSA,A,3,,,,,,,,,,,,,0.0,0.0,0.0*23
$GLGSA,A,3,,,,,,,,,,,,,0.0,0.0,0.0*2E
$GPGSV,2,1,07,07,00,000,41,08,00,000,44,09,00,000,42,16,00,000,44*7F
$GPGSV,2,2,07,23,00,000,38,26,00,000,33,27,00,000,34*42
$BDGSV,2,1,06,02,00,000,30,03,00,000,41,04,00,000,39,05,00,000,38*6A
$BDGSV,2,2,06,06,00,000,22,07,00,000,23*6E
$B3CN0,0,0,0,0,0,0,0,0,0,0,0,0,0,0*4C
$ini_pos,lastpos_good = 1,ini_pos.x:-1578932.555935,ini_pos.y:5312786.798297,ini_pos.z:3146383.556152
$rtc_local_time,localRTC.weeks:2053,localRTC.seconds:353873.026014,localGtime.weeks:2053,localGtime.seconds:353873.026014
$pseudo_cd_ph,prn:7,pseudo_cd_ph:18.549752512286
measnum = 0,full_prange = 24414796.257843
$oldmeas,msRange:0.000000,x:17043999.986658,y:9206018.738074,z:18632624.018879,vx:-2194.820801,vy:690.944946,vz:1642.645020,tb:-0.000025025365
$newmeas,x:17044178.730138,y:9205962.468812,z:18632490.242250,vx:-2194.807861,vy:690.930237,vz:1642.676147,tb:-0.000025025364
$pseudo_cd_ph,prn:8,pseudo_cd_ph:8.746710306505
measnum = 1,full_prange = 21322235.465895
$oldmeas,msRange:71.512708,x:-5215885.502526,y:25867341.807461,z:-1743622.975569,vx:-315.448975,vy:154.751785,vz:3200.088379,tb:-0.000143740022
$newmeas,x:-5215863.066476,y:25867330.800054,z:-1743850.576388,vx:-315.456604,vy:154.778381,vz:3200.085693,tb:-0.000143740022
$pseudo_cd_ph,prn:9,pseudo_cd_ph:6.344528563678
measnum = 2,full_prange = 22208562.379655
$oldmeas,msRange:74.468938,x:10493859.861603,y:14812067.357146,z:19345957.888659,vx:-730.576294,vy:2361.429932,vz:-1409.867920,tb:0.000410546584
$newmeas,x:10493913.983023,y:14811892.422562,z:19346062.330248,vx:-730.589294,vy:2361.439453,vz:-1409.837402,tb:0.000410546585
$pseudo_cd_ph,prn:16,pseudo_cd_ph:10.163572167837
measnum = 3,full_prange = 20928451.565521
$oldmeas,msRange:70.197301,x:-8717892.989714,y:12116928.912623,z:21737114.185792,vx:-1851.927612,vy:-2106.508301,vz:469.868958,tb:-0.000040399834
$newmeas,x:-8717763.707417,y:12117075.967722,z:21737081.383182,vx:-1851.916138,vy:-2106.513184,vz:469.901947,tb:-0.000040399834
$pseudo_cd_ph,prn:23,pseudo_cd_ph:11.156575587954
measnum = 4,full_prange = 20587110.513121
$oldmeas,msRange:69.059616,x:2981649.367317,y:23609047.454592,z:11695329.262681,vx:-639.789917,vy:1339.700439,vz:-2656.602295,tb:-0.000185987659
$newmeas,x:2981693.302810,y:23608955.455069,z:11695511.694183,vx:-639.800049,vy:1339.720093,vz:-2656.585205,tb:-0.000185987659
$pseudo_cd_ph,prn:26,pseudo_cd_ph:4.270098659184
measnum = 5,full_prange = 22768059.354071
$oldmeas,msRange:76.333384,x:-16739568.559245,y:4052403.631467,z:20241787.589001,vx:-1802.859253,vy:-1839.573730,vz:-1103.916382,tb:0.000202397735
$newmeas,x:-16739431.639174,y:4052543.340438,z:20241871.425873,vx:-1802.859131,vy:-1839.588867,vz:-1103.883789,tb:0.000202397734
$pseudo_cd_ph,prn:27,pseudo_cd_ph:12.659705116369
measnum = 6,full_prange = 20152399.679416
$oldmeas,msRange:67.609746,x:-12009872.569845,y:21620796.162812,z:9152429.644896,vx:76.179077,vy:-1204.235352,vz:2940.221924,tb:-0.000132897376
$newmeas,x:-12009877.690643,y:21620877.112092,z:9152231.999290,vx:76.177628,vy:-1204.210693,vz:2940.235352,tb:-0.000132897375
source<tow,snapshot
nits = 2
Refix G07: 2, 353873.639737, -2730
Refix G08: 2, 353873.649934, -2774
Refix G09: 2, 353873.647532, -2171
Refix G16: 2, 353873.651351, 1903
Refix G23: 2, 353873.652344, -283
Refix G26: 2, 353873.645457, 2475
Refix G27: 2, 353873.653847, -718
Refix G31: 2, 353873.639948, 2323
$GNGGA,021735.722,2944.9123,N,10633.0983,E,1,07,0.0,346.0,M,,,,0000*15
$GNRMC,021735.722,A,2944.9123,N,10633.0983,E,0.00,0.00,160519,,*15
$GPGSA,A,3,07,08,09,16,23,26,27,,,,,,0.0,0.0,0.0*33
$BDGSA,A,3,,,,,,,,,,,,,0.0,0.0,0.0*23
$GLGSA,A,3,,,,,,,,,,,,,0.0,0.0,0.0*2E
$GPGSV,2,1,08,07,15,306,42,08,46,189,43,09,35,308,42,16,52,022,43*7A
$GPGSV,2,2,08,23,62,265,43,26,29,048,40,27,70,126,46,31,14,105,00*73
$BDGSV,3,1,12,02,45,218,33,03,54,172,40,04,23,109,39,05,00,000,39*6B
$BDGSV,3,2,12,06,36,174,40,07,63,013,44,09,61,206,43,10,61,309,44*6E
$BDGSV,3,3,12,11,31,054,42,16,42,180,26,01,40,125,00,25,23,085,00*6A
$B3CN0,0,0,0,0,0,0,0,0,0,0,0,0,0,0*4C
$ini_pos,lastpos_good = 1,ini_pos.x:-1578927.271366,ini_pos.y:5312781.231994,ini_pos.z:3146374.775999
$rtc_local_time,localRTC.weeks:2053,localRTC.seconds:353874.026014,localGtime.weeks:2053,localGtime.seconds:353874.026014
$pseudo_cd_ph,prn:7,pseudo_cd_ph:18.552176608834
measnum = 0,full_prange = 24414059.874337
$oldmeas,msRange:0.000000,x:17041805.086641,y:9206709.773018,z:18634266.472604,vx:-2194.979248,vy:691.125000,vz:1642.262451,tb:-0.000025025368
$newmeas,x:17041983.837630,y:9206653.490786,z:18634132.731163,vx:-2194.966309,vy:691.110352,vz:1642.293701,tb:-0.000025025368
$pseudo_cd_ph,prn:8,pseudo_cd_ph:8.749165405393
measnum = 1,full_prange = 21321489.772851
$oldmeas,msRange:71.510961,x:-5216200.897866,y:25867496.372244,z:-1740422.868542,vx:-315.341736,vy:154.377792,vz:3200.125977,tb:-0.000143740025
$newmeas,x:-5216178.470227,y:25867485.391821,z:-1740650.464071,vx:-315.349365,vy:154.404388,vz:3200.123291,tb:-0.000143740024
$pseudo_cd_ph,prn:9,pseudo_cd_ph:6.346596241463
measnum = 2,full_prange = 22207932.833875
$oldmeas,msRange:74.467579,x:10493129.373453,y:14814428.721450,z:19344547.814241,vx:-730.400085,vy:2361.298828,vz:-1410.281006,tb:0.000410546577
$newmeas,x:10493183.480288,y:14814253.801521,z:19344652.283465,vx:-730.413147,vy:2361.308594,vz:-1410.250366,tb:0.000410546577
$pseudo_cd_ph,prn:16,pseudo_cd_ph:10.163057053194
measnum = 3,full_prange = 20928596.338738
$oldmeas,msRange:70.198547,x:-8719744.999304,y:12114822.439952,z:21737583.818465,vx:-1852.091675,vy:-2106.437256,vz:469.396423,tb:-0.000040399840
$newmeas,x:-8719615.704659,y:12114969.491098,z:21737551.048617,vx:-1852.080200,vy:-2106.442139,vz:469.429413,tb:-0.000040399839
$pseudo_cd_ph,prn:23,pseudo_cd_ph:11.157444787049
measnum = 4,full_prange = 20586840.262327
$oldmeas,msRange:69.059461,x:2981009.651180,y:23610387.012004,z:11692672.535422,vx:-639.642456,vy:1339.414429,vz:-2656.852295,tb:-0.000185987658
$newmeas,x:2981053.575970,y:23610295.033327,z:11692854.981703,vx:-639.652527,vy:1339.434082,vz:-2656.835205,tb:-0.000185987658
$pseudo_cd_ph,prn:26,pseudo_cd_ph:4.269227379345
measnum = 5,full_prange = 22768310.899273
$oldmeas,msRange:76.334988,x:-16741371.419399,y:4050564.157022,z:20240683.457778,vx:-1802.861206,vy:-1839.375244,vz:-1104.346191,tb:0.000202397745
$newmeas,x:-16741234.497669,y:4050703.852463,z:20240767.328216,vx:-1802.861084,vy:-1839.390381,vz:-1104.313477,tb:0.000202397744
$pseudo_cd_ph,prn:27,pseudo_cd_ph:12.660841821575
measnum = 6,full_prange = 20152049.228593
$oldmeas,msRange:67.609322,x:-12009796.380015,y:21619591.744500,z:9155369.767229,vx:76.200577,vy:-1204.601318,vz:2940.022949,tb:-0.000132897388
$newmeas,x:-12009801.502170,y:21619672.716978,z:9155172.138436,vx:76.199135,vy:-1204.576782,vz:2940.036377,tb:-0.000132897387
source<tow,snapshot
nits = 2
Refix G07: 2, 353874.632516, -2730
Refix G08: 2, 353874.642713, -2774
Refix G09: 2, 353874.640310, -2171
Refix G16: 2, 353874.644127, 1903
Refix G23: 2, 353874.645121, -282
Refix G26: 2, 353874.638233, 2475
Refix G27: 2, 353874.646625, -718
Refix G31: 2, 353874.632724, 2323
$GNGGA,021736.714,2944.9100,N,10633.0970,E,1,07,0.0,336.4,M,,,,0000*1D
$GNRMC,021736.714,A,2944.9100,N,10633.0970,E,0.00,0.00,160519,,*1E
$GPGSA,A,3,07,08,09,16,23,26,27,,,,,,0.0,0.0,0.0*33
$BDGSA,A,3,,,,,,,,,,,,,0.0,0.0,0.0*23
$GLGSA,A,3,,,,,,,,,,,,,0.0,0.0,0.0*2E
$GPGSV,2,1,08,07,15,306,42,08,46,189,44,09,35,308,42,16,52,022,43*7D
$GPGSV,2,2,08,23,62,265,44,26,29,048,41,27,70,126,45,31,14,105,00*76
$BDGSV,3,1,12,02,45,218,34,03,54,172,41,04,23,109,39,05,00,000,38*6C
$BDGSV,3,2,12,06,36,174,39,07,63,013,43,09,61,206,43,10,61,309,43*60
$BDGSV,3,3,12,11,31,054,42,16,42,180,42,23,00,000,25,25,23,085,20*6F
$B3CN0,0,0,0,0,0,0,0,0,0,0,0,0,0,0*4C
tow update,353875832.661977
$ini_pos,lastpos_good = 1,ini_pos.x:-1578923.426790,ini_pos.y:5312775.857318,ini_pos.z:3146366.421948
$rtc_local_time,localRTC.weeks:2053,localRTC.seconds:353875.026014,localGtime.weeks:2053,localGtime.seconds:353875.832662
$pseudo_cd_ph,prn:7,pseudo_cd_ph:353875618.554597377777
measnum = 0,full_prange = 24607670.754104
$oldmeas,msRange:0.000000,x:17037839.272764,y:9207958.686750,z:18637232.838918,vx:-2195.265381,vy:691.450439,vz:1641.571289,tb:-0.000025025375
$newmeas,x:17038019.464777,y:9207901.931479,z:18637098.093591,vx:-2195.252441,vy:691.435608,vz:1641.602783,tb:-0.000025025374
$pseudo_cd_ph,prn:8,pseudo_cd_ph:353875628.751612067223
measnum = 1,full_prange = 21515092.897864
$oldmeas,msRange:71.507793,x:-5216770.434560,y:25867774.668238,z:-1734641.305554,vx:-315.148132,vy:153.702087,vz:3200.193604,tb:-0.000143740030
$newmeas,x:-5216747.817166,y:25867763.636595,z:-1734870.972550,vx:-315.155823,vy:153.728928,vz:3200.190918,tb:-0.000143740029
$pseudo_cd_ph,prn:9,pseudo_cd_ph:353875626.348659098148
measnum = 2,full_prange = 22401651.015026
$oldmeas,msRange:74.465110,x:10491810.084971,y:14818694.544267,z:19341999.258630,vx:-730.081787,vy:2361.062256,vz:-1411.027100,tb:0.000410546563
$newmeas,x:10491864.639995,y:14818518.116202,z:19342104.694872,vx:-730.094971,vy:2361.072021,vz:-1410.996216,tb:0.000410546564
$pseudo_cd_ph,prn:16,pseudo_cd_ph:353875630.162539660931
measnum = 3,full_prange = 21123088.053152
$oldmeas,msRange:70.200766,x:-8723091.345175,y:12111016.965307,z:21738431.081456,vx:-1852.388062,vy:-2106.308350,vz:468.542664,tb:-0.000040399849
$newmeas,x:-8722960.828106,y:12111165.373944,z:21738398.067218,vx:-1852.376465,vy:-2106.313477,vz:468.575958,tb:-0.000040399849
$pseudo_cd_ph,prn:23,pseudo_cd_ph:353875631.158309519291
measnum = 4,full_prange = 20780917.633299
$oldmeas,msRange:69.059162,x:2979854.282920,y:23612806.395973,z:11687872.129698,vx:-639.376099,vy:1338.897705,vz:-2657.303955,tb:-0.000185987656
$newmeas,x:2979898.603341,y:23612713.586005,z:11688056.327250,vx:-639.386292,vy:1338.917480,vz:-2657.286865,tb:-0.000185987656
$pseudo_cd_ph,prn:26,pseudo_cd_ph:353875624.268347978592
measnum = 5,full_prange = 22962911.158394
$oldmeas,msRange:76.337855,x:-16744628.558378,y:4047241.376905,z:20238687.591432,vx:-1802.864502,vy:-1839.016602,vz:-1105.122559,tb:0.000202397763
$newmeas,x:-16744490.466127,y:4047382.238854,z:20238772.238166,vx:-1802.864380,vy:-1839.031860,vz:-1105.089600,tb:0.000202397762
$pseudo_cd_ph,prn:27,pseudo_cd_ph:353875632.661977052689
measnum = 6,full_prange = 20346045.502976
$oldmeas,msRange:67.608528,x:-12009658.677377,y:21617414.856219,z:9160681.029604,vx:76.239288,vy:-1205.262573,vz:2939.663330,tb:-0.000132897409
$newmeas,x:-12009663.851467,y:21617496.653059,z:9160481.522717,vx:76.237839,vy:-1205.237793,vz:2939.676758,tb:-0.000132897409
Refix G07: 2, 353875.618555, -3869
Refix G08: 2, 353875.628752, -3911
Refix G09: 2, 353875.626349, -3308
Refix G16: 2, 353875.630163, 765
Refix G23: 2, 353875.631158, -1419
Refix G26: 2, 353875.624268, 1336
Refix G27: 2, 353875.632662, -1855
Refix G31: 2, 353875.618759, 1184
$GNGGA,021737.700,2944.9076,N,10633.0869,E,1,10,1.2,338.3,M,,,,0000*1C
$GNRMC,021737.700,A,2944.9076,N,10633.0869,E,0.22,0.00,160519,,*13
$GPGSA,A,3,07,08,09,16,23,26,27,,,,,,2.2,1.2,1.8*39
$BDGSA,A,3,02,03,04,,,,,,,,,,2.2,1.2,1.8*2C
$GLGSA,A,3,,,,,,,,,,,,,2.2,1.2,1.8*24
$GPGSV,2,1,08,07,15,306,43,08,46,189,43,09,35,308,43,16,52,022,44*7D
$GPGSV,2,2,08,23,62,265,44,26,29,048,40,27,70,126,45,31,14,105,00*77
$BDGSV,3,1,12,02,45,218,36,03,54,172,41,04,23,109,38,05,00,000,38*6F
$BDGSV,3,2,12,06,36,174,40,07,63,013,43,09,61,206,42,10,61,309,43*6F
$BDGSV,3,3,12,11,31,054,42,16,42,180,41,23,00,000,45,25,23,085,37*6C
$B3CN0,0,0,0,0,0,0,0,0,0,0,0,0,0,0*4C
$ini_pos,lastpos_good = 1,ini_pos.x:-1578908.908734,ini_pos.y:5312784.205130,ini_pos.z:3146363.499585
$rtc_local_time,localRTC.weeks:2053,localRTC.seconds:353876.325610,localGtime.weeks:2053,localGtime.seconds:353877.000000
$pseudo_cd_ph,prn:7,pseudo_cd_ph:353876918.154205858707
measnum = 0,full_prange = 24529220.613628
$oldmeas,msRange:0.000000,x:17035276.548466,y:9208765.965782,z:18639148.846680,vx:-2195.449951,vy:691.660706,vz:1641.124634,tb:-0.000025025379
$newmeas,x:17035456.181136,y:9208709.374241,z:18639014.567475,vx:-2195.437012,vy:691.645935,vz:1641.156006,tb:-0.000025025379
$pseudo_cd_ph,prn:8,pseudo_cd_ph:353876928.351256489754
measnum = 1,full_prange = 21436631.982626
$oldmeas,msRange:71.505718,x:-5217138.245972,y:25867953.835668,z:-1730905.572755,vx:-315.023132,vy:153.265457,vz:3200.237305,tb:-0.000143740033
$newmeas,x:-5217115.719998,y:25867942.875479,z:-1731134.405323,vx:-315.030792,vy:153.292206,vz:3200.234619,tb:-0.000143740033
$pseudo_cd_ph,prn:9,pseudo_cd_ph:353876925.947806894779
measnum = 2,full_prange = 22323338.982871
$oldmeas,msRange:74.463471,x:10490957.952852,y:14821450.612527,z:19340351.831866,vx:-729.876099,vy:2360.909180,vz:-1411.509155,tb:0.000410546554
$newmeas,x:10491012.301847,y:14821274.812617,z:19340456.935421,vx:-729.889221,vy:2360.918945,vz:-1411.478394,tb:0.000410546555
$pseudo_cd_ph,prn:16,pseudo_cd_ph:353876929.758328676224
measnum = 3,full_prange = 21045782.959040
$oldmeas,msRange:70.202193,x:-8725253.819667,y:12108558.240285,z:21738977.707092,vx:-1852.579346,vy:-2106.225098,vz:467.990997,tb:-0.000040399856
$newmeas,x:-8725123.766820,y:12108706.099936,z:21738944.852409,vx:-1852.567871,vy:-2106.229980,vz:468.024170,tb:-0.000040399855
$pseudo_cd_ph,prn:23,pseudo_cd_ph:353876930.755898356438
measnum = 4,full_prange = 20703072.968406
$oldmeas,msRange:69.058922,x:2979108.015376,y:23614369.147071,z:11684769.987576,vx:-639.204041,vy:1338.563721,vz:-2657.595703,tb:-0.000185987655
$newmeas,x:2979152.157893,y:23614276.707834,z:11684953.515281,vx:-639.214233,vy:1338.583496,vz:-2657.578613,tb:-0.000185987655
$pseudo_cd_ph,prn:26,pseudo_cd_ph:353876923.863663196564
measnum = 5,full_prange = 22885748.110483
$oldmeas,msRange:76.339730,x:-16746733.111678,y:4045094.758344,z:20237397.247222,vx:-1802.866577,vy:-1838.784790,vz:-1105.624146,tb:0.000202397774
$newmeas,x:-16746595.483306,y:4045235.129254,z:20237481.647811,vx:-1802.866455,vy:-1838.799927,vz:-1105.591309,tb:0.000202397773
$pseudo_cd_ph,prn:27,pseudo_cd_ph:353876932.259918630123
measnum = 6,full_prange = 20268095.084707
$oldmeas,msRange:67.608002,x:-12009569.665810,y:21616007.658073,z:9164112.474324,vx:76.264206,vy:-1205.689819,vz:2939.430664,tb:-0.000132897423
$newmeas,x:-12009574.821762,y:21616089.170417,z:9163913.747515,vx:76.262772,vy:-1205.665161,vz:2939.444336,tb:-0.000132897422
Refix G07: 2, 353876.918154, -3865
Refix G08: 2, 353876.928351, -3907
Refix G09: 2, 353876.925948, -3303
Refix G16: 2, 353876.929758, 770
Refix G23: 2, 353876.930756, -1414
Refix G26: 2, 353876.923864, 1340
Refix G27: 2, 353876.932260, -1850
Refix G31: 2, 353876.918355, 1187
$GNGGA,021739.000,2944.9072,N,10633.0913,E,1,10,1.2,330.8,M,,,,0000*1E
$GNRMC,021739.000,A,2944.9072,N,10633.0913,E,0.44,0.00,160519,,*12
$GPGSA,A,3,07,08,09,16,23,26,27,,,,,,1.6,1.2,1.1*37
$BDGSA,A,3,02,03,04,,,,,,,,,,1.6,1.2,1.1*22
$GLGSA,A,3,,,,,,,,,,,,,1.6,1.2,1.1*2A
$GPGSV,2,1,08,07,15,306,42,08,46,189,44,09,35,308,43,16,52,022,43*7C
$GPGSV,2,2,08,23,62,265,44,26,29,048,41,27,70,126,45,31,14,105,00*76
$BDGSV,3,1,12,02,45,218,38,03,54,172,43,04,23,109,41,05,00,000,37*62
$BDGSV,3,2,12,06,36,174,40,07,63,013,43,09,61,206,42,10,61,309,43*6F
$BDGSV,3,3,12,11,31,054,41,16,42,180,42,23,00,000,44,25,23,085,36*6C
$B3CN0,0,0,0,0,0,0,0,0,0,0,0,0,0,0*4C
$ini_pos,lastpos_good = 1,ini_pos.x:-1578913.912672,ini_pos.y:5312776.359325,ini_pos.z:3146359.056642
$rtc_local_time,localRTC.weeks:2053,localRTC.seconds:353877.325610,localGtime.weeks:2053,localGtime.seconds:353878.000000
$pseudo_cd_ph,prn:7,pseudo_cd_ph:353877918.156633436680
measnum = 0,full_prange = 24528483.175849
$oldmeas,msRange:0.000000,x:17033081.019399,y:9209457.716530,z:18640789.779951,vx:-2195.608154,vy:691.840820,vz:1640.741943,tb:-0.000025025382
$newmeas,x:17033260.659611,y:9209401.111951,z:18640655.536092,vx:-2195.595215,vy:691.826111,vz:1640.773315,tb:-0.000025025382
$pseudo_cd_ph,prn:8,pseudo_cd_ph:353877928.353710472584
measnum = 1,full_prange = 21435886.629093
$oldmeas,msRange:71.503976,x:-5217453.215581,y:25868106.914092,z:-1727705.317025,vx:-314.916107,vy:152.891403,vz:3200.274414,tb:-0.000143740036
$newmeas,x:-5217430.698043,y:25868095.981031,z:-1727934.144303,vx:-314.923767,vy:152.918152,vz:3200.271729,tb:-0.000143740036
$pseudo_cd_ph,prn:9,pseudo_cd_ph:353877925.949875295162
measnum = 2,full_prange = 22322709.222663
$oldmeas,msRange:74.462125,x:10490228.164829,y:14823811.456163,z:19338940.116363,vx:-729.699951,vy:2360.778076,vz:-1411.921997,tb:0.000410546547
$newmeas,x:10490282.499173,y:14823635.670978,z:19339045.247697,vx:-729.713074,vy:2360.787842,vz:-1411.891235,tb:0.000410546548
$pseudo_cd_ph,prn:16,pseudo_cd_ph:353877929.757815063000
measnum = 3,full_prange = 21045927.267663
$oldmeas,msRange:70.203417,x:-8727106.480971,y:12106452.051009,z:21739445.461793,vx:-1852.743286,vy:-2106.153564,vz:467.518433,tb:-0.000040399861
$newmeas,x:-8726976.415724,y:12106599.906659,z:21739412.640060,vx:-1852.731812,vy:-2106.158691,vz:467.551605,tb:-0.000040399861
$pseudo_cd_ph,prn:23,pseudo_cd_ph:353877930.756769180298
measnum = 4,full_prange = 20702802.235148
$oldmeas,msRange:69.058777,x:2978468.885013,y:23615707.567628,z:11682112.266897,vx:-639.056702,vy:1338.277466,vz:-2657.845703,tb:-0.000185987654
$newmeas,x:2978513.016778,y:23615615.149362,z:11682295.809457,vx:-639.066895,vy:1338.297241,vz:-2657.828369,tb:-0.000185987654
$pseudo_cd_ph,prn:26,pseudo_cd_ph:353877923.862785935402
measnum = 5,full_prange = 22886001.442587
$oldmeas,msRange:76.341300,x:-16748535.979008,y:4043256.072869,z:20236291.408291,vx:-1802.868286,vy:-1838.586182,vz:-1106.053833,tb:0.000202397784
$newmeas,x:-16748398.348983,y:4043396.430172,z:20236375.842615,vx:-1802.868164,vy:-1838.601440,vz:-1106.020996,tb:0.000202397783
$pseudo_cd_ph,prn:27,pseudo_cd_ph:353877932.261062443256
measnum = 6,full_prange = 20267742.507470
$oldmeas,msRange:67.607565,x:-12009493.390955,y:21614801.785258,z:9167051.805369,vx:76.285500,vy:-1206.055786,vz:2939.231445,tb:-0.000132897435
$newmeas,x:-12009498.548257,y:21614883.320927,z:9166853.095487,vx:76.284058,vy:-1206.031128,vz:2939.244873,tb:-0.000132897434
Refix G07: 2, 353877.918157, -3871
Refix G08: 2, 353877.928354, -3915
Refix G09: 2, 353877.925950, -3311
Refix G16: 2, 353877.929758, 761
Refix G23: 2, 353877.930757, -1423
Refix G26: 2, 353877.923863, 1332
Refix G27: 2, 353877.932261, -1859
Refix G31: 2, 353877.918354, 1181
$GNGGA,021740.000,2944.9065,N,10633.0916,E,1,18,0.7,328.0,M,,,,0000*1E
$GNRMC,021740.000,A,2944.9065,N,10633.0916,E,0.34,0.00,160519,,*18
$GPGSA,A,3,07,08,09,16,23,26,27,,,,,,0.9,0.7,0.5*38
$BDGSA,A,3,02,03,04,06,07,09,10,11,16,25,28,,0.9,0.7,0.5*2E
$GLGSA,A,3,,,,,,,,,,,,,0.9,0.7,0.5*25
$GPGSV,3,1,09,07,15,306,42,08,46,189,43,09,35,308,42,16,52,022,43*7A
$GPGSV,3,2,09,23,62,265,44,26,29,048,40,27,70,126,45,04,00,000,35*76
$GPGSV,3,3,09,31,14,105,00*43
$BDGSV,3,1,12,02,45,218,37,03,54,172,42,04,23,109,38,05,00,000,38*6D
$BDGSV,3,2,12,06,36,174,40,07,63,013,42,09,61,206,42,10,61,309,42*6F
$BDGSV,3,3,12,11,31,054,42,16,42,180,42,23,00,000,44,25,23,085,36*6F
$B3CN0,0,0,0,0,0,0,0,0,0,0,0,0,0,0*4C
$ini_pos,lastpos_good = 1,ini_pos.x:-1578913.978579,ini_pos.y:5312774.462005,ini_pos.z:3146356.610592
$rtc_local_time,localRTC.weeks:2053,localRTC.seconds:353878.325610,localGtime.weeks:2053,localGtime.seconds:353879.000000
$pseudo_cd_ph,prn:7,pseudo_cd_ph:353878918.159060299397
measnum = 0,full_prange = 24527745.952499
$oldmeas,msRange:0.000000,x:17030885.332187,y:9210149.647431,z:18642430.330534,vx:-2195.766357,vy:692.020996,vz:1640.359253,tb:-0.000025025386
$newmeas,x:17031064.979936,y:9210093.029814,z:18642296.122022,vx:-2195.753418,vy:692.006287,vz:1640.390625,tb:-0.000025025386
$pseudo_cd_ph,prn:8,pseudo_cd_ph:353878928.356163740158
measnum = 1,full_prange = 21435141.489988
$oldmeas,msRange:71.502221,x:-5217768.078183,y:25868259.618449,z:-1724505.024049,vx:-314.809113,vy:152.517319,vz:3200.311768,tb:-0.000143740039
$newmeas,x:-5217745.569077,y:25868248.712514,z:-1724733.846034,vx:-314.816772,vy:152.544067,vz:3200.309082,tb:-0.000143740038
$pseudo_cd_ph,prn:9,pseudo_cd_ph:353878925.951942086220
measnum = 2,full_prange = 22322079.944918
$oldmeas,msRange:74.460757,x:10489498.552964,y:14826172.168623,z:19337527.987978,vx:-729.523804,vy:2360.646973,vz:-1412.334839,tb:0.000410546540
$newmeas,x:10489552.872661,y:14825996.398162,z:19337633.147090,vx:-729.536926,vy:2360.656738,vz:-1412.304077,tb:0.000410546540
$pseudo_cd_ph,prn:16,pseudo_cd_ph:353878929.757300078869
measnum = 3,full_prange = 21046071.987273
$oldmeas,msRange:70.204635,x:-8728959.306169,y:12104345.933192,z:21739912.743906,vx:-1852.907227,vy:-2106.082031,vz:467.045837,tb:-0.000040399866
$newmeas,x:-8728829.228524,y:12104493.784841,z:21739879.955125,vx:-1852.895630,vy:-2106.087158,vz:467.079010,tb:-0.000040399866
$pseudo_cd_ph,prn:23,pseudo_cd_ph:353878930.757640302181
measnum = 4,full_prange = 20702531.412545
$oldmeas,msRange:69.058608,x:2977829.901973,y:23617045.701997,z:11679454.296374,vx:-638.909424,vy:1337.991333,vz:-2658.095459,tb:-0.000185987653
$newmeas,x:2977874.022988,y:23616953.304704,z:11679637.853784,vx:-638.919556,vy:1338.011108,vz:-2658.078369,tb:-0.000185987653
$pseudo_cd_ph,prn:26,pseudo_cd_ph:353878923.861909925938
measnum = 5,full_prange = 22886254.399442
$oldmeas,msRange:76.342877,x:-16750338.848003,y:4041417.586001,z:20235185.139699,vx:-1802.869873,vy:-1838.387573,vz:-1106.483398,tb:0.000202397794
$newmeas,x:-16750201.216332,y:4041557.929692,z:20235269.607756,vx:-1802.869751,vy:-1838.402832,vz:-1106.450684,tb:0.000202397793
$pseudo_cd_ph,prn:27,pseudo_cd_ph:353878932.262207210064
measnum = 6,full_prange = 20267389.644329
$oldmeas,msRange:67.607118,x:-12009417.094841,y:21613595.546480,z:9169990.937138,vx:76.306732,vy:-1206.421753,vz:2939.032227,tb:-0.000132897447
$newmeas,x:-12009422.253489,y:21613677.105469,z:9169792.244190,vx:76.305298,vy:-1206.397095,vz:2939.045654,tb:-0.000132897446
Refix G07: 2, 353878.918159, -3870
Refix G08: 2, 353878.928356, -3911
Refix G09: 2, 353878.925952, -3308
Refix G16: 2, 353878.929757, 764
Refix G23: 2, 353878.930758, -1419
Refix G26: 2, 353878.923862, 1335
Refix G27: 2, 353878.932262, -1854
Refix G31: 2, 353878.918353, 1184
$GNGGA,021741.000,2944.9064,N,10633.0917,E,1,18,0.7,327.2,M,,,,0000*12
$GNRMC,021741.000,A,2944.9064,N,10633.0917,E,0.22,0.00,160519,,*1E
$GPGSA,A,3,07,08,09,16,23,26,27,,,,,,0.9,0.7,0.5*38
$BDGSA,A,3,02,03,04,06,07,09,10,11,16,25,28,,0.9,0.7,0.5*2E
$GLGSA,A,3,,,,,,,,,,,,,0.9,0.7,0.5*25
$GPGSV,3,1,09,07,15,306,42,08,46,189,44,09,35,308,43,16,52,022,43*7C
$GPGSV,3,2,09,23,62,265,44,26,29,048,39,27,70,126,45,04,00,000,39*74
$GPGSV,3,3,09,31,14,105,21*40
$BDGSV,3,1,12,02,45,218,38,03,54,172,42,04,23,109,39,05,00,000,37*6C
$BDGSV,3,2,12,06,36,174,40,07,63,013,43,09,61,206,42,10,61,309,42*6E
$BDGSV,3,3,12,11,31,054,42,16,42,180,42,23,00,000,44,25,23,085,37*6E
$B3CN0,0,0,0,0,0,0,0,0,0,0,0,0,0,0*4C
$ini_pos,lastpos_good = 1,ini_pos.x:-1578913.951203,ini_pos.y:5312773.890608,ini_pos.z:3146355.959046
$rtc_local_time,localRTC.weeks:2053,localRTC.seconds:353879.325610,localGtime.weeks:2053,localGtime.seconds:353880.000000
$pseudo_cd_ph,prn:7,pseudo_cd_ph:353879918.161482870579
measnum = 0,full_prange = 24527010.015718
$oldmeas,msRange:0.000000,x:17028689.486890,y:9210841.758497,z:18644070.498396,vx:-2195.924316,vy:692.201172,vz:1639.976562,tb:-0.000025025390
$newmeas,x:17028869.142180,y:9210785.127838,z:18643936.325224,vx:-2195.911377,vy:692.186462,vz:1640.007812,tb:-0.000025025389
$pseudo_cd_ph,prn:8,pseudo_cd_ph:353879928.358613789082
measnum = 1,full_prange = 21434397.315811
$oldmeas,msRange:71.500463,x:-5218082.833828,y:25868411.948722,z:-1721304.693895,vx:-314.702179,vy:152.143234,vz:3200.348877,tb:-0.000143740041
$newmeas,x:-5218060.333149,y:25868401.069912,z:-1721533.510591,vx:-314.709839,vy:152.169983,vz:3200.346191,tb:-0.000143740041
$pseudo_cd_ph,prn:9,pseudo_cd_ph:353879925.954008340836
measnum = 2,full_prange = 22321450.827995
$oldmeas,msRange:74.459382,x:10488769.117251,y:14828532.749842,z:19336115.446741,vx:-729.347656,vy:2360.515625,vz:-1412.747681,tb:0.000410546532
$newmeas,x:10488823.422301,y:14828356.994109,z:19336220.633627,vx:-729.360779,vy:2360.525391,vz:-1412.716919,tb:0.000410546533
$pseudo_cd_ph,prn:16,pseudo_cd_ph:353879929.756783127785
measnum = 3,full_prange = 21046217.296561
$oldmeas,msRange:70.205847,x:-8730812.295223,y:12102239.886896,z:21740379.553423,vx:-1853.071045,vy:-2106.010498,vz:466.573242,tb:-0.000040399872
$newmeas,x:-8730682.205177,y:12102387.734542,z:21740346.797593,vx:-1853.059570,vy:-2106.015625,vz:466.606415,tb:-0.000040399871
$pseudo_cd_ph,prn:23,pseudo_cd_ph:353879930.758508563042
measnum = 4,full_prange = 20702261.447654
$oldmeas,msRange:69.058433,x:2977191.066225,y:23618383.550131,z:11676796.076063,vx:-638.762146,vy:1337.705078,vz:-2658.345215,tb:-0.000185987652
$newmeas,x:2977235.176494,y:23618291.173811,z:11676979.648327,vx:-638.772278,vy:1337.724854,vz:-2658.328125,tb:-0.000185987652
$pseudo_cd_ph,prn:26,pseudo_cd_ph:353879923.861038208008
measnum = 5,full_prange = 22886506.069727
$oldmeas,msRange:76.344449,x:-16752141.718604,y:4039579.297770,z:20234078.441468,vx:-1802.871460,vy:-1838.188965,vz:-1106.913086,tb:0.000202397804
$newmeas,x:-16752004.085299,y:4039719.627839,z:20234162.943253,vx:-1802.871338,vy:-1838.204102,vz:-1106.880249,tb:0.000202397803
$pseudo_cd_ph,prn:27,pseudo_cd_ph:353879932.263351559639
measnum = 6,full_prange = 20267036.906272
$oldmeas,msRange:67.606666,x:-12009340.777522,y:21612388.941753,z:9172929.869568,vx:76.327904,vy:-1206.787720,vz:2938.832764,tb:-0.000132897459
$newmeas,x:-12009345.937512,y:21612470.524062,z:9172731.193556,vx:76.326477,vy:-1206.762939,vz:2938.846191,tb:-0.000132897458
$pseudo_cd_ph,prn:31,pseudo_cd_ph:18.352331338623
measnum = 7,full_prange = 24488663.266352
$oldmeas,msRange:81.688805,x:-25905458.611413,y:6840056.067870,z:772972.913025,vx:-152.094650,vy:-215.222076,vz:-3143.724121,tb:0.000037912093
$newmeas,x:-25905446.186277,y:6840073.648092,z:773229.709294,vx:-152.124634,vy:-215.215286,vz:-3143.722900,tb:0.000037912093
Refix G07: 2, 353879.918161, -3865
Refix G08: 2, 353879.928359, -3903
Refix G09: 2, 353879.925954, -3302
Refix G16: 2, 353879.929757, 772
Refix G23: 2, 353879.930759, -1411
Refix G26: 2, 353879.923861, 1341
Refix G27: 2, 353879.932263, -1846
Refix G31: 2, 353879.918352, 1190
$GNGGA,021742.000,2944.9064,N,10633.0918,E,1,18,0.7,326.7,M,,,,0000*1A
$GNRMC,021742.000,A,2944.9064,N,10633.0918,E,0.25,0.00,160519,,*15
$GPGSA,A,3,07,08,09,16,23,26,27,,,,,,0.9,0.7,0.5*38
$BDGSA,A,3,02,03,04,06,07,09,10,11,16,25,28,,0.9,0.7,0.5*2E
$GLGSA,A,3,,,,,,,,,,,,,0.9,0.7,0.5*25
$GPGSV,3,1,09,07,15,306,43,08,46,189,44,09,35,308,43,16,52,022,43*7D
$GPGSV,3,2,09,23,62,265,44,26,29,048,39,27,70,126,46,04,00,000,39*77
$GPGSV,3,3,09,31,14,105,32*42
$BDGSV,3,1,12,01,40,125,41,02,45,218,38,03,54,172,42,04,23,109,40*65
$BDGSV,3,2,12,05,00,000,38,06,36,174,40,07,63,013,43,09,61,206,42*6A
$BDGSV,3,3,12,10,61,309,42,11,31,054,42,16,42,180,41,23,00,000,44*68
$B3CN0,0,20,0,0,0,0,0,0,0,0,0,0,0,0*7E
$ini_pos,lastpos_good = 1,ini_pos.x:-1578913.923619,ini_pos.y:5312773.455939,ini_pos.z:3146355.707716
$rtc_local_time,localRTC.weeks:2053,localRTC.seconds:353880.325610,localGtime.weeks:2053,localGtime.seconds:353881.000000
$pseudo_cd_ph,prn:7,pseudo_cd_ph:353880918.163902938366
measnum = 0,full_prange = 24526274.829436
$oldmeas,msRange:0.000000,x:17026493.483565,y:9211534.049740,z:18645710.283502,vx:-2196.082275,vy:692.381348,vz:1639.593750,tb:-0.000025025393
$newmeas,x:17026673.146396,y:9211477.406038,z:18645576.145666,vx:-2196.069580,vy:692.366638,vz:1639.625122,tb:-0.000025025393
$pseudo_cd_ph,prn:8,pseudo_cd_ph:353880928.361058354378
measnum = 1,full_prange = 21433654.785583
$oldmeas,msRange:71.498705,x:-5218397.482565,y:25868563.904892,z:-1718104.326632,vx:-314.595306,vy:151.769119,vz:3200.385986,tb:-0.000143740044
$newmeas,x:-5218374.990308,y:25868553.053206,z:-1718333.138052,vx:-314.602936,vy:151.795868,vz:3200.383301,tb:-0.000143740044
$pseudo_cd_ph,prn:9,pseudo_cd_ph:353880925.956068992615
measnum = 2,full_prange = 22320823.390760
$oldmeas,msRange:74.458007,x:10488039.857682,y:14830893.199758,z:19334702.492683,vx:-729.171509,vy:2360.384277,vz:-1413.160522,tb:0.000410546525
$newmeas,x:10488094.148091,y:14830717.458743,z:19334807.707348,vx:-729.184631,vy:2360.394043,vz:-1413.129761,tb:0.000410546525
$pseudo_cd_ph,prn:16,pseudo_cd_ph:353880929.756260752678
measnum = 3,full_prange = 21046364.231930
$oldmeas,msRange:70.207058,x:-8732665.448091,y:12100133.912178,z:21740845.890336,vx:-1853.234863,vy:-2105.938965,vz:466.100616,tb:-0.000040399877
$newmeas,x:-8732535.345638,y:12100281.755830,z:21740813.167456,vx:-1853.223267,vy:-2105.944092,vz:466.133789,tb:-0.000040399877
$pseudo_cd_ph,prn:23,pseudo_cd_ph:353880930.759372591972
measnum = 4,full_prange = 20701992.751464
$oldmeas,msRange:69.058258,x:2976552.377735,y:23619721.111986,z:11674137.606019,vx:-638.614868,vy:1337.418701,vz:-2658.594971,tb:-0.000185987651
$newmeas,x:2976596.477264,y:23619628.756634,z:11674321.193144,vx:-638.625061,vy:1337.438477,vz:-2658.577637,tb:-0.000185987651
$pseudo_cd_ph,prn:26,pseudo_cd_ph:353880923.860158443451
measnum = 5,full_prange = 22886760.152331
$oldmeas,msRange:76.346021,x:-16753944.590756,y:4037741.208206,z:20232971.313625,vx:-1802.872925,vy:-1837.990234,vz:-1107.342651,tb:0.000202397814
$newmeas,x:-16753806.955806,y:4037881.524665,z:20233055.849144,vx:-1802.872803,vy:-1838.005493,vz:-1107.309937,tb:0.000202397813
$pseudo_cd_ph,prn:27,pseudo_cd_ph:353880932.264490127563
measnum = 6,full_prange = 20266685.901509
$oldmeas,msRange:67.606215,x:-12009264.439052,y:21611181.971096,z:9175868.602594,vx:76.349030,vy:-1207.153687,vz:2938.633301,tb:-0.000132897470
$newmeas,x:-12009269.600380,y:21611263.576729,z:9175669.943505,vx:76.347603,vy:-1207.128906,vz:2938.646973,tb:-0.000132897470
$pseudo_cd_ph,prn:31,pseudo_cd_ph:18.351498660687
measnum = 7,full_prange = 24488903.229591
$oldmeas,msRange:81.690281,x:-25905610.522519,y:6839840.804282,z:769829.181045,vx:-151.727570,vy:-215.305130,vz:-3143.739990,tb:0.000037912093
$newmeas,x:-25905598.127247,y:6839858.391460,z:770085.981135,vx:-151.757553,vy:-215.298340,vz:-3143.738770,tb:0.000037912093
Refix G07: 2, 353880.918164, -3861
Refix G08: 2, 353880.928361, -3899
Refix G09: 2, 353880.925956, -3296
Refix G16: 2, 353880.929756, 777
Refix G21: 1, 353880.914531, -642
Refix G23: 2, 353880.930759, -1405
Refix G26: 2, 353880.923860, 1346
Refix G27: 2, 353880.932264, -1840
Refix G31: 2, 353880.918351, 1194
$GNGGA,021743.000,2944.9064,N,10633.0919,E,1,18,0.7,326.1,M,,,,0000*1C
$GNRMC,021743.000,A,2944.9064,N,10633.0919,E,0.14,0.00,160519,,*17
$GPGSA,A,3,07,08,09,16,23,26,27,,,,,,0.9,0.7,0.5*38
$BDGSA,A,3,02,03,04,06,07,09,10,11,16,25,28,,0.9,0.7,0.5*2E
$GLGSA,A,3,,,,,,,,,,,,,0.9,0.7,0.5*25
$GPGSV,3,1,09,07,15,306,43,08,46,189,45,09,35,308,43,16,52,022,44*7B
$GPGSV,3,2,09,23,62,265,45,26,29,048,39,27,70,126,46,04,00,000,39*76
$GPGSV,3,3,09,31,14,105,34*44
$BDGSV,3,1,12,01,40,125,40,02,45,218,39,03,54,172,43,04,23,109,39*6A
$BDGSV,3,2,12,05,00,000,38,06,36,174,39,07,63,013,43,09,61,206,42*64
$BDGSV,3,3,12,10,61,309,42,11,31,054,42,16,42,180,42,23,00,000,44*6B
$B3CN0,0,0,0,0,0,0,0,0,0,0,0,0,0,0*4C
$ini_pos,lastpos_good = 1,ini_pos.x:-1578913.955310,ini_pos.y:5312772.846923,ini_pos.z:3146355.459325
$rtc_local_time,localRTC.weeks:2053,localRTC.seconds:353881.325610,localGtime.weeks:2053,localGtime.seconds:353882.000000
$pseudo_cd_ph,prn:7,pseudo_cd_ph:353881918.166318833828
measnum = 0,full_prange = 24525540.893986
$oldmeas,msRange:0.000000,x:17024297.322273,y:9212226.521172,z:18647349.685817,vx:-2196.240234,vy:692.561523,vz:1639.210938,tb:-0.000025025397
$newmeas,x:17024476.992649,y:9212169.864424,z:18647215.583313,vx:-2196.227295,vy:692.546814,vz:1639.242310,tb:-0.000025025396
$pseudo_cd_ph,prn:8,pseudo_cd_ph:353881928.363502085209
measnum = 1,full_prange = 21432912.505522
$oldmeas,msRange:71.496948,x:-5218712.024445,y:25868715.486941,z:-1714903.922329,vx:-314.488464,vy:151.394989,vz:3200.422852,tb:-0.000143740047
$newmeas,x:-5218689.540604,y:25868704.662379,z:-1715132.728471,vx:-314.496124,vy:151.421738,vz:3200.420166,tb:-0.000143740047
$pseudo_cd_ph,prn:9,pseudo_cd_ph:353881925.958130300045
measnum = 2,full_prange = 22320195.756965
$oldmeas,msRange:74.456633,x:10487310.774249,y:14833253.518306,z:19333289.125833,vx:-728.995361,vy:2360.252930,vz:-1413.573242,tb:0.000410546517
$newmeas,x:10487365.050018,y:14833077.792016,z:19333394.368272,vx:-729.008484,vy:2360.262695,vz:-1413.542603,tb:0.000410546518
$pseudo_cd_ph,prn:16,pseudo_cd_ph:353881929.755736649036
measnum = 3,full_prange = 21046511.685502
$oldmeas,msRange:70.208268,x:-8734518.764733,y:12098028.009099,z:21741311.754636,vx:-1853.398560,vy:-2105.867188,vz:465.628021,tb:-0.000040399882
$newmeas,x:-8734388.649873,y:12098175.848755,z:21741279.064707,vx:-1853.387085,vy:-2105.872314,vz:465.661194,tb:-0.000040399882
$pseudo_cd_ph,prn:23,pseudo_cd_ph:353881930.760232448578
measnum = 4,full_prange = 20701725.306105
$oldmeas,msRange:69.058083,x:2975913.836473,y:23621058.387514,z:11671478.886299,vx:-638.467651,vy:1337.132446,vz:-2658.844727,tb:-0.000185987650
$newmeas,x:2975957.925267,y:23620966.053129,z:11671662.488292,vx:-638.477844,vy:1337.152222,vz:-2658.827393,tb:-0.000185987650
$pseudo_cd_ph,prn:26,pseudo_cd_ph:353881923.859269857407
measnum = 5,full_prange = 22887016.879550
$oldmeas,msRange:76.347593,x:-16755747.464399,y:4035903.317337,z:20231863.756193,vx:-1802.874390,vy:-1837.791626,vz:-1107.772217,tb:0.000202397824
$newmeas,x:-16755609.827794,y:4036043.620200,z:20231948.325455,vx:-1802.874268,vy:-1837.806763,vz:-1107.739502,tb:0.000202397823
$pseudo_cd_ph,prn:27,pseudo_cd_ph:353881932.265626370907
measnum = 6,full_prange = 20266335.593638
$oldmeas,msRange:67.605764,x:-12009188.079486,y:21609974.634523,z:9178807.136153,vx:76.370102,vy:-1207.519531,vz:2938.433838,tb:-0.000132897482
$newmeas,x:-12009193.242150,y:21610056.263481,z:9178608.493983,vx:76.368675,vy:-1207.494873,vz:2938.447266,tb:-0.000132897482
$pseudo_cd_ph,prn:31,pseudo_cd_ph:353881918.350685179234
measnum = 7,full_prange = 24489137.439004
$oldmeas,msRange:81.691756,x:-25905762.066547,y:6839625.457616,z:766685.433129,vx:-151.360504,vy:-215.388229,vz:-3143.755859,tb:0.000037912094
$newmeas,x:-25905749.701142,y:6839643.051751,z:766942.236974,vx:-151.390488,vy:-215.381439,vz:-3143.754639,tb:0.000037912093
Refix G07: 2, 353881.918166, -3860
Refix G08: 2, 353881.928364, -3899
Refix G09: 2, 353881.925958, -3296
Refix G16: 2, 353881.929756, 777
Refix G21: 1, 353881.914531, -641
Refix G23: 2, 353881.930760, -1405
Refix G26: 2, 353881.923859, 1345
Refix G27: 2, 353881.932266, -1840
Refix G31: 2, 353881.918351, 1194
$GNGGA,021744.000,2944.9064,N,10633.0921,E,1,19,0.7,325.3,M,,,,0000*10
$GNRMC,021744.000,A,2944.9064,N,10633.0921,E,0.17,0.00,160519,,*18
$GPGSA,A,3,07,08,09,16,23,26,27,31,,,,,0.8,0.7,0.5*3B
$BDGSA,A,3,02,03,04,06,07,09,10,11,16,25,28,,0.8,0.7,0.5*2F
$GLGSA,A,3,,,,,,,,,,,,,0.8,0.7,0.5*24
$GPGSV,3,1,10,07,15,306,42,08,46,189,44,09,35,308,43,16,52,022,43*74
$GPGSV,3,2,10,23,62,265,45,26,29,048,40,27,70,126,45,04,00,000,39*73
$GPGSV,3,3,10,31,14,105,34,21,05,057,00*78
$BDGSV,3,1,12,01,40,125,41,02,45,218,40,03,54,172,43,04,23,109,39*65
$BDGSV,3,2,12,05,00,000,37,06,36,174,40,07,63,013,43,09,61,206,43*64
$BDGSV,3,3,12,10,61,309,42,11,31,054,42,16,42,180,42,23,00,000,44*6B
$B3CN0,0,0,0,0,0,0,0,0,0,0,0,0,0,0*4C
$ini_pos,lastpos_good = 1,ini_pos.x:-1578914.017137,ini_pos.y:5312772.090437,ini_pos.z:3146355.102594
$rtc_local_time,localRTC.weeks:2053,localRTC.seconds:353882.325610,localGtime.weeks:2053,localGtime.seconds:353883.000000
$pseudo_cd_ph,prn:7,pseudo_cd_ph:353882918.168742358685
measnum = 0,full_prange = 24524804.671301
$oldmeas,msRange:0.000000,x:17022101.003072,y:9212919.172806,z:18648988.705308,vx:-2196.398193,vy:692.741760,vz:1638.828125,tb:-0.000025025400
$newmeas,x:17022280.680969,y:9212862.503016,z:18648854.638148,vx:-2196.385254,vy:692.726990,vz:1638.859497,tb:-0.000025025400
$pseudo_cd_ph,prn:8,pseudo_cd_ph:353882928.365948677063
measnum = 1,full_prange = 21432169.367748
$oldmeas,msRange:71.495191,x:-5219026.459515,y:25868866.694852,z:-1711703.481054,vx:-314.381683,vy:151.020844,vz:3200.459961,tb:-0.000143740050
$newmeas,x:-5219003.984088,y:25868855.897412,z:-1711932.281904,vx:-314.389313,vy:151.047592,vz:3200.457275,tb:-0.000143740050
$pseudo_cd_ph,prn:9,pseudo_cd_ph:353882925.960197508335
measnum = 2,full_prange = 22319566.354138
$oldmeas,msRange:74.455259,x:10486581.866946,y:14835613.705423,z:19331875.346222,vx:-728.819275,vy:2360.121338,vz:-1413.986084,tb:0.000410546510
$newmeas,x:10486636.128072,y:14835437.993876,z:19331980.616422,vx:-728.832397,vy:2360.131348,vz:-1413.955322,tb:0.000410546510
$pseudo_cd_ph,prn:16,pseudo_cd_ph:353882929.755217671394
measnum = 3,full_prange = 21046657.602337
$oldmeas,msRange:70.209480,x:-8736372.245110,y:12095922.177718,z:21741777.146315,vx:-1853.562256,vy:-2105.795654,vz:465.155396,tb:-0.000040399888
$newmeas,x:-8736242.117854,y:12096070.013363,z:21741744.489339,vx:-1853.550781,vy:-2105.800537,vz:465.188568,tb:-0.000040399887
$pseudo_cd_ph,prn:23,pseudo_cd_ph:353882930.761098921299
measnum = 4,full_prange = 20701455.877285
$oldmeas,msRange:69.057910,x:2975275.442407,y:23622395.376670,z:11668819.916957,vx:-638.320496,vy:1336.845947,vz:-2659.094238,tb:-0.000185987649
$newmeas,x:2975319.520464,y:23622303.063263,z:11669003.533796,vx:-638.330688,vy:1336.865723,vz:-2659.076904,tb:-0.000185987649
$pseudo_cd_ph,prn:26,pseudo_cd_ph:353882923.858384668827
measnum = 5,full_prange = 22887272.588234
$oldmeas,msRange:76.349165,x:-16757550.339479,y:4034065.625194,z:20230755.769196,vx:-1802.875854,vy:-1837.592773,vz:-1108.201782,tb:0.000202397833
$newmeas,x:-16757412.701228,y:4034205.914453,z:20230840.372197,vx:-1802.875732,vy:-1837.608032,vz:-1108.169067,tb:0.000202397833
$pseudo_cd_ph,prn:27,pseudo_cd_ph:353882932.266768217087
measnum = 6,full_prange = 20265983.606079
$oldmeas,msRange:67.605314,x:-12009111.698879,y:21608766.932053,z:9181745.470180,vx:76.391113,vy:-1207.885498,vz:2938.234375,tb:-0.000132897494
$newmeas,x:-12009116.862874,y:21608848.584328,z:9181546.844951,vx:76.389694,vy:-1207.860718,vz:2938.247803,tb:-0.000132897493
$pseudo_cd_ph,prn:31,pseudo_cd_ph:353882918.349884748459
measnum = 7,full_prange = 24489367.735101
$oldmeas,msRange:81.693232,x:-25905913.243508,y:6839410.027824,z:763541.669341,vx:-150.993439,vy:-215.471375,vz:-3143.771729,tb:0.000037912094
$newmeas,x:-25905900.907972,y:6839427.628916,z:763798.476895,vx:-151.023422,vy:-215.464584,vz:-3143.770508,tb:0.000037912094
Refix G07: 2, 353882.918169, -3871
Refix G08: 2, 353882.928366, -3911
Refix G09: 2, 353882.925960, -3307
Refix G16: 2, 353882.929755, 763
Refix G21: 1, 353882.914532, -652
Refix G23: 2, 353882.930761, -1418
Refix G26: 2, 353882.923858, 1333
Refix G27: 2, 353882.932267, -1854
Refix G31: 2, 353882.918350, 1182
$GNGGA,021745.000,2944.9064,N,10633.0922,E,1,20,0.7,324.8,M,,,,0000*12
$GNRMC,021745.000,A,2944.9064,N,10633.0922,E,0.48,0.00,160519,,*10
$GPGSA,A,3,07,08,09,16,23,26,27,31,,,,,0.8,0.7,0.4*3A
$BDGSA,A,3,01,02,03,04,06,07,09,10,11,16,25,28,0.8,0.7,0.4*2F
$GLGSA,A,3,,,,,,,,,,,,,0.8,0.7,0.4*25
$GPGSV,3,1,10,07,15,306,42,08,46,189,44,09,35,308,43,16,52,022,43*74
$GPGSV,3,2,10,23,62,265,44,26,29,048,40,27,70,126,45,04,00,000,39*72
$GPGSV,3,3,10,31,14,105,34,21,05,057,00*78
$BDGSV,3,1,12,01,40,125,41,02,45,218,40,03,54,172,43,04,23,109,39*65
$BDGSV,3,2,12,05,00,000,37,06,36,174,40,07,63,013,43,09,61,206,42*65
$BDGSV,3,3,12,10,61,309,42,11,31,054,41,16,42,180,42,23,00,000,44*68
$B3CN0,0,0,0,0,0,0,0,0,0,0,0,0,0,0*4C
$ini_pos,lastpos_good = 1,ini_pos.x:-1578914.130287,ini_pos.y:5312771.514061,ini_pos.z:3146354.843997
$rtc_local_time,localRTC.weeks:2053,localRTC.seconds:353883.325610,localGtime.weeks:2053,localGtime.seconds:353884.000000
$pseudo_cd_ph,prn:7,pseudo_cd_ph:353883918.171169281006
measnum = 0,full_prange = 24524067.430081
$oldmeas,msRange:0.000000,x:17019904.526021,y:9213612.004654,z:18650627.341940,vx:-2196.555908,vy:692.921997,vz:1638.445190,tb:-0.000025025404
$newmeas,x:17020084.211428,y:9213555.321825,z:18650493.310130,vx:-2196.543213,vy:692.907227,vz:1638.476562,tb:-0.000025025403
$pseudo_cd_ph,prn:8,pseudo_cd_ph:353883928.368398189545
measnum = 1,full_prange = 21431425.354392
$oldmeas,msRange:71.493434,x:-5219340.787827,y:25869017.528606,z:-1708503.002878,vx:-314.274963,vy:150.646683,vz:3200.496826,tb:-0.000143740053
$newmeas,x:-5219318.320810,y:25869006.758290,z:-1708731.798421,vx:-314.282593,vy:150.673431,vz:3200.494141,tb:-0.000143740053
$pseudo_cd_ph,prn:9,pseudo_cd_ph:353883925.962267041206
measnum = 2,full_prange = 22318936.254418
$oldmeas,msRange:74.453885,x:10485853.135764,y:14837973.761047,z:19330461.153880,vx:-728.643127,vy:2359.989990,vz:-1414.398682,tb:0.000410546502
$newmeas,x:10485907.382247,y:14837798.064251,z:19330566.451835,vx:-728.656250,vy:2359.999756,vz:-1414.368042,tb:0.000410546503
$pseudo_cd_ph,prn:16,pseudo_cd_ph:353883929.754698991776
measnum = 3,full_prange = 21046803.429827
$oldmeas,msRange:70.210691,x:-8738225.889181,y:12093816.418094,z:21742242.065364,vx:-1853.725952,vy:-2105.723877,vz:464.682739,tb:-0.000040399893
$newmeas,x:-8738095.749533,y:12093964.249724,z:21742209.441343,vx:-1853.714478,vy:-2105.728760,vz:464.715942,tb:-0.000040399893
$pseudo_cd_ph,prn:23,pseudo_cd_ph:353883930.761965930462
measnum = 4,full_prange = 20701186.287643
$oldmeas,msRange:69.057736,x:2974637.195505,y:23623732.079409,z:11666160.698049,vx:-638.173340,vy:1336.559570,vz:-2659.343750,tb:-0.000185987648
$newmeas,x:2974681.262826,y:23623639.786983,z:11666344.329727,vx:-638.183533,vy:1336.579346,vz:-2659.326416,tb:-0.000185987648
$pseudo_cd_ph,prn:26,pseudo_cd_ph:353883923.857505500317
measnum = 5,full_prange = 22887526.492148
$oldmeas,msRange:76.350736,x:-16759353.215936,y:4032228.131807,z:20229647.352658,vx:-1802.877197,vy:-1837.394043,vz:-1108.631348,tb:0.000202397843
$newmeas,x:-16759215.576055,y:4032368.407447,z:20229731.989390,vx:-1802.877075,vy:-1837.409180,vz:-1108.598511,tb:0.000202397843
$pseudo_cd_ph,prn:27,pseudo_cd_ph:353883932.267912447453
measnum = 6,full_prange = 20265630.903760
$oldmeas,msRange:67.604863,x:-12009035.297286,y:21607558.863702,z:9184683.604612,vx:76.412071,vy:-1208.251343,vz:2938.034668,tb:-0.000132897506
$newmeas,x:-12009040.462607,y:21607640.539288,z:9184484.996334,vx:76.410660,vy:-1208.226562,vz:2938.048096,tb:-0.000132897505
$pseudo_cd_ph,prn:31,pseudo_cd_ph:353883918.349087715149
measnum = 7,full_prange = 24489597.012664
$oldmeas,msRange:81.694707,x:-25906064.053412,y:6839194.514853,z:760397.889746,vx:-150.626389,vy:-215.554581,vz:-3143.787598,tb:0.000037912094
$newmeas,x:-25906051.747744,y:6839212.122907,z:760654.700993,vx:-150.656372,vy:-215.547791,vz:-3143.786377,tb:0.000037912094
Refix G07: 2, 353883.918171, -3869
Refix G08: 2, 353883.928368, -3908
Refix G09: 2, 353883.925962, -3304
Refix G16: 2, 353883.929755, 766
Refix G21: 1, 353883.914532, -649
Refix G23: 2, 353883.930762, -1414
Refix G26: 2, 353883.923857, 1335
Refix G27: 2, 353883.932268, -1850
Refix G31: 2, 353883.918349, 1185
$GNGGA,021746.000,2944.9065,N,10633.0924,E,1,20,0.7,324.8,M,,,,0000*16
$GNRMC,021746.000,A,2944.9065,N,10633.0924,E,0.36,0.00,160519,,*1D
$GPGSA,A,3,07,08,09,16,23,26,27,31,,,,,0.8,0.7,0.4*3A
$BDGSA,A,3,01,02,03,04,06,07,09,10,11,16,25,28,0.8,0.7,0.4*2F
$GLGSA,A,3,,,,,,,,,,,,,0.8,0.7,0.4*25
$GPGSV,3,1,10,07,15,306,42,08,46,189,44,09,35,308,42,16,52,022,44*72
$GPGSV,3,2,10,23,62,265,45,26,29,048,40,27,70,126,45,04,00,000,39*73
$GPGSV,3,3,10,31,14,105,34,21,05,057,00*78
$BDGSV,3,1,12,01,40,125,39,02,45,218,39,03,54,172,43,04,23,109,40*6A
$BDGSV,3,2,12,05,00,000,37,06,36,174,40,07,63,013,43,09,61,206,42*65
$BDGSV,3,3,12,10,61,309,43,11,31,054,42,16,42,180,42,23,00,000,44*6A
$B3CN0,20,0,0,0,0,0,0,0,0,0,0,0,0,0*7E
$ini_pos,lastpos_good = 1,ini_pos.x:-1578914.332001,ini_pos.y:5312771.454755,ini_pos.z:3146354.982846
$rtc_local_time,localRTC.weeks:2053,localRTC.seconds:353884.325610,localGtime.weeks:2053,localGtime.seconds:353885.000000
$pseudo_cd_ph,prn:7,pseudo_cd_ph:353884918.173601150513
measnum = 0,full_prange = 24523328.705733
$oldmeas,msRange:0.000000,x:17017707.891179,y:9214305.016728,z:18652265.595678,vx:-2196.713867,vy:693.102234,vz:1638.062378,tb:-0.000025025407
$newmeas,x:17017887.584079,y:9214248.320863,z:18652131.599228,vx:-2196.700928,vy:693.087463,vz:1638.093628,tb:-0.000025025407
$pseudo_cd_ph,prn:8,pseudo_cd_ph:353884928.370850801468
measnum = 1,full_prange = 21430680.411847
$oldmeas,msRange:71.491677,x:-5219655.009429,y:25869167.988186,z:-1705302.487869,vx:-314.168274,vy:150.272491,vz:3200.533447,tb:-0.000143740056
$newmeas,x:-5219632.550820,y:25869157.244993,z:-1705531.278089,vx:-314.175903,vy:150.299240,vz:3200.530762,tb:-0.000143740055
$pseudo_cd_ph,prn:9,pseudo_cd_ph:353884925.964335918427
measnum = 2,full_prange = 22318306.351258
$oldmeas,msRange:74.452511,x:10485124.580697,y:14840333.685112,z:19329046.548838,vx:-728.467041,vy:2359.858398,vz:-1414.811401,tb:0.000410546495
$newmeas,x:10485178.812537,y:14840158.003072,z:19329151.874543,vx:-728.480164,vy:2359.868164,vz:-1414.780762,tb:0.000410546495
$pseudo_cd_ph,prn:16,pseudo_cd_ph:353884929.754182100296
measnum = 3,full_prange = 21046948.721247
$oldmeas,msRange:70.211900,x:-8740079.696906,y:12091710.730287,z:21742706.511776,vx:-1853.889648,vy:-2105.651855,vz:464.210114,tb:-0.000040399898
$newmeas,x:-8739949.544872,y:12091858.557894,z:21742673.920711,vx:-1853.878052,vy:-2105.656982,vz:464.243286,tb:-0.000040399898
$pseudo_cd_ph,prn:23,pseudo_cd_ph:353884930.762835383415
measnum = 4,full_prange = 20700915.965371
$oldmeas,msRange:69.057561,x:2973999.095734,y:23625068.495684,z:11663501.229630,vx:-638.026245,vy:1336.273071,vz:-2659.593262,tb:-0.000185987647
$newmeas,x:2974043.152321,y:23624976.224245,z:11663684.876138,vx:-638.036377,vy:1336.292847,vz:-2659.575928,tb:-0.000185987647
$pseudo_cd_ph,prn:26,pseudo_cd_ph:353884923.856631755829
measnum = 5,full_prange = 22887778.769980
$oldmeas,msRange:76.352307,x:-16761156.093715,y:4030390.837205,z:20228538.506604,vx:-1802.878418,vy:-1837.195312,vz:-1109.060791,tb:0.000202397853
$newmeas,x:-16761018.452218,y:4030531.099213,z:20228623.177059,vx:-1802.878418,vy:-1837.210449,vz:-1109.028076,tb:0.000202397852
$pseudo_cd_ph,prn:27,pseudo_cd_ph:353884932.269057631493
measnum = 6,full_prange = 20265277.915535
$oldmeas,msRange:67.604412,x:-12008958.874760,y:21606350.429486,z:9187621.539384,vx:76.432976,vy:-1208.617188,vz:2937.834961,tb:-0.000132897518
$newmeas,x:-12008964.041405,y:21606432.128381,z:9187422.948064,vx:76.431564,vy:-1208.592407,vz:2937.848633,tb:-0.000132897517
$pseudo_cd_ph,prn:31,pseudo_cd_ph:353884918.348297834396
measnum = 7,full_prange = 24489824.145944
$oldmeas,msRange:81.696183,x:-25906214.496268,y:6838978.918655,z:757254.094410,vx:-150.259338,vy:-215.637833,vz:-3143.803223,tb:0.000037912095
$newmeas,x:-25906202.220469,y:6838996.533673,z:757510.909322,vx:-150.289322,vy:-215.631027,vz:-3143.802002,tb:0.000037912095
Refix G07: 2, 353884.918174, -3868
Refix G08: 2, 353884.928371, -3905
Refix G09: 2, 353884.925964, -3302
Refix G16: 2, 353884.929754, 768
Refix G21: 1, 353884.914532, -648
Refix G23: 2, 353884.930763, -1411
Refix G26: 2, 353884.923857, 1337
Refix G27: 2, 353884.932269, -1847
Refix G31: 2, 353884.918348, 1186
$GNGGA,021747.000,2944.9065,N,10633.0925,E,1,20,0.7,324.7,M,,,,0000*19
$GNRMC,021747.000,A,2944.9065,N,10633.0925,E,0.40,0.00,160519,,*1C
$GPGSA,A,3,07,08,09,16,23,26,27,31,,,,,0.8,0.7,0.4*3A
$BDGSA,A,3,01,02,03,04,06,07,09,10,11,16,25,28,0.8,0.7,0.4*2F
$GLGSA,A,3,,,,,,,,,,,,,0.8,0.7,0.4*25
$GPGSV,3,1,10,07,15,306,42,08,46,189,44,09,35,308,43,16,52,022,44*73
$GPGSV,3,2,10,23,62,265,44,26,29,048,39,27,70,126,45,04,00,000,39*7C
$GPGSV,3,3,10,31,14,105,34,21,05,057,00*78
$BDGSV,3,1,12,01,40,125,41,02,45,218,40,03,54,172,42,04,23,109,40*6A
$BDGSV,3,2,12,05,00,000,38,06,36,174,39,07,63,013,43,09,61,206,42*64
$BDGSV,3,3,12,10,61,309,42,11,31,054,42,16,42,180,42,23,00,000,44*6B
$B3CN0,16,0,0,0,0,0,0,0,0,0,0,0,0,0*7B
$ini_pos,lastpos_good = 1,ini_pos.x:-1578914.468752,ini_pos.y:5312771.277472,ini_pos.z:3146355.011373
$rtc_local_time,localRTC.weeks:2053,localRTC.seconds:353885.325610,localGtime.weeks:2053,localGtime.seconds:353886.000000
$pseudo_cd_ph,prn:7,pseudo_cd_ph:353885918.176024496555
measnum = 0,full_prange = 24522592.536654
$oldmeas,msRange:0.000000,x:17015511.098606,y:9214998.209039,z:18653903.466488,vx:-2196.871582,vy:693.282471,vz:1637.679443,tb:-0.000025025411
$newmeas,x:17015690.799011,y:9214941.500133,z:18653769.505385,vx:-2196.858643,vy:693.267700,vz:1637.710693,tb:-0.000025025411
$pseudo_cd_ph,prn:8,pseudo_cd_ph:353885928.373297691345
measnum = 1,full_prange = 21429937.184727
$oldmeas,msRange:71.489919,x:-5219969.124370,y:25869318.073575,z:-1702101.936095,vx:-314.061646,vy:149.898285,vz:3200.570312,tb:-0.000143740058
$newmeas,x:-5219946.674163,y:25869307.357503,z:-1702330.721007,vx:-314.069244,vy:149.925034,vz:3200.567627,tb:-0.000143740058
$pseudo_cd_ph,prn:9,pseudo_cd_ph:353885925.966398537159
measnum = 2,full_prange = 22317678.324345
$oldmeas,msRange:74.451136,x:10484396.201736,y:14842693.477557,z:19327631.531126,vx:-728.290955,vy:2359.726807,vz:-1415.224121,tb:0.000410546487
