SD initialized success
Create debug.log Failed! 3
bbram_blkflag = 1
rtcflag = 128
BBRAM Block OK: 01 EPHflag: 282714cd 300012df, rtc 80
GPS 0 Init Dop: 10000,80
GPS 1 Init Dop: 10000,80
GPS 2 Init Dop: 10000,80
GPS 3 Init Dop: 10000,80
GPS 4 Init Dop: 10000,80
GPS 5 Init Dop: 10000,80
GPS 6 Init Dop: 10000,80
GPS 7 Init Dop: 10000,80
GPS 8 Init Dop: 10000,80
GPS 9 Init Dop: 10000,80
GPS10 Init Dop: 10000,80
GPS11 Init Dop: 10000,80
GPS12 Init Dop: 10000,80
GPS13 Init Dop: 10000,80
GPS14 Init Dop: 10000,80
GPS15 Init Dop: 10000,80
GPS16 Init Dop: 10000,80
GPS17 Init Dop: 10000,80
GPS18 Init Dop: 10000,80
GPS19 Init Dop: 10000,80
GPS20 Init Dop: 10000,80
GPS21 Init Dop: 10000,80
GPS22 Init Dop: 10000,80
GPS23 Init Dop: 10000,80
GPS24 Init Dop: 10000,80
GPS25 Init Dop: 10000,80
GPS26 Init Dop: 10000,80
GPS27 Init Dop: 10000,80
GPS28 Init Dop: 10000,80
GPS29 Init Dop: 10000,80
GPS30 Init Dop: 10000,80
GPS31 Init Dop: 10000,80
BDS 0 Init Dop: 10000,80
BDS 1 Init Dop: 10000,80
BDS 2 Init Dop: 10000,80
BDS 3 Init Dop: 10000,80
BDS 4 Init Dop: 10000,80
BDS 5 Init Dop: 10000,80
BDS 6 Init Dop: 10000,80
BDS 7 Init Dop: 10000,80
BDS 8 Init Dop: 10000,80
BDS 9 Init Dop: 10000,80
BDS10 Init Dop: 10000,80
BDS11 Init Dop: 10000,80
BDS12 Init Dop: 10000,80
BDS13 Init Dop: 10000,80
BDS14 Init Dop: 10000,80
BDS15 Init Dop: 10000,80
BDS16 Init Dop: 10000,80
BDS17 Init Dop: 10000,80
BDS18 Init Dop: 10000,80
BDS19 Init Dop: 10000,80
BDS20 Init Dop: 10000,80
BDS21 Init Dop: 10000,80
BDS22 Init Dop: 10000,80
BDS23 Init Dop: 10000,80
BDS24 Init Dop: 10000,80
BDS25 Init Dop: 10000,80
BDS26 Init Dop: 10000,80
BDS27 Init Dop: 10000,80
BDS28 Init Dop: 10000,80
BDS29 Init Dop: 10000,80
BDS30 Init Dop: 10000,80
BDS31 Init Dop: 10000,80
Good luck!
$ini_pos,lastpos_good = 0,ini_pos.x:-0.000000,ini_pos.y:2150498990544607202280210432.000000,ini_pos.z:-0.000000
$GNGGA,000000.000,,,,,0,00,,,M,,,,0000*2B
$GNRMC,000000.000,A,,,,,,,060180,,*29
$GPGSA,A,1,,,,,,,,,,,,,,,*1E
$BDGSA,A,1,,,,,,,,,,,,,,,*0F
$GLGSA,A,1,,,,,,,,,,,,,,,*02
$B3CN0,0,0,0,0,0,0,0,0,0,0,0,0,0,0*4C
---00000001--- Acq_st=3 0  2000-1-1 0:2:3 
[00]  00(G01)  1 24  7  0   -446.1  2046001.6  0.4  1 0 2167 4461 2063
[01]  06(G07)  1  7  7  0   1500.0  2046001.2  0.1  1 0 1714 3371 3075
[02]  10(G11)  1  7  7  0    750.0  2046001.1  0.0  1 0 1543 3057 2297
$ini_pos,lastpos_good = 0,ini_pos.x:-0.000000,ini_pos.y:2150498990544607202280210432.000000,ini_pos.z:-0.000000
$GNGGA,000000.000,,,,,0,00,,,M,,,,0000*2B
$GNRMC,000000.000,A,,,,,,,060180,,*29
$GPGSA,A,1,,,,,,,,,,,,,,,*1E
$BDGSA,A,1,,,,,,,,,,,,,,,*0F
$GLGSA,A,1,,,,,,,,,,,,,,,*02
$B3CN0,0,0,0,0,0,0,0,0,0,0,0,0,0,0*4C
---00000002--- Acq_st=3 0  2000-1-1 0:2:4 
[00]  00(G01)  7 25  7  0   -435.7  2046000.4  0.7 10 0 2797 4122 2112
[01]  06(G07)  1 43  7  0   1544.7  2045997.6  0.9  1 0 3457 3135 1243
[02]  10(G11)  1 27  7  0    614.4  2045999.0  0.4  1 0 2529 2878 1057
[03]  16(G17)  1 22  7  0  -2553.9  2046003.9  0.2  1 0 1495 2500 1421
[04]  17(G18)  1 24  7  0   1220.0  2045999.5  0.1  1 0 1974 3279 1470
[05]  21(G22)  1  7  7  0  -2750.0  2046004.8  0.0  1 0   85  570 1297
$ini_pos,lastpos_good = 0,ini_pos.x:-0.000000,ini_pos.y:2150498990544607202280210432.000000,ini_pos.z:-0.000000
$GNGGA,000000.000,,,,,0,00,,,M,,,,0000*2B
$GNRMC,000000.000,A,,,,,,,060180,,*29
$GPGSA,A,1,,,,,,,,,,,,,,,*1E
$BDGSA,A,1,,,,,,,,,,,,,,,*0F
$GLGSA,A,1,,,,,,,,,,,,,,,*02
$GPGSV,1,1,01,01,00,000,25*4E
$B3CN0,0,0,0,0,0,0,0,0,0,0,0,0,0,0*4C
---00000003--- Acq_st=3 0  2000-1-1 0:2:5 
[00]  00(G01)  7 45  7  0   -432.0  2046000.4  0.0  2 0 3406 4297 1613
[01]  06(G07)  7 38  7  0   1552.5  2045997.8  0.1  2 0 2829 3238 1389
[02]  10(G11)  7 30  7  0    615.8  2045999.1  0.3  5 0 1808 2697 1586
[03]  16(G17)  7 20  7  0  -2552.0  2046003.3  0.8 10 0 1688 2119 1066
[04]  17(G18)  7 14  7  0   1223.4  2045998.3  0.9 10 0 1921 1979  764
[05]  21(G22)  1 25  7  0  -2657.9  2046004.1  0.5  1 0  688  916  409
[06]  27(G28)  1 24 12  0  -2948.1  2046004.8  0.4  1 0 1384 2832 1759
[08]  29(G30)  1 27  7  0   -471.8  2046001.7  0.3  1 0 2969 5089 1887
[16]  37(B01)  1 10 13  0  -1250.0  4092003.5  0.0  1 0  146   58  459
[17]  38(B02)  1 21 26  1  -1000.0  4092002.7 -0.1  1 0  377   25  572
[18]  39(B03)  1 17 34  1  -1000.0  4092002.0 -0.0  1 0  156  670 1794
[19]  40(B04)  1 10 10  0  -1000.0  4092002.5 -0.1  1 0  104  120  220
$ini_pos,lastpos_good = 0,ini_pos.x:-0.000000,ini_pos.y:2150498990544607202280210432.000000,ini_pos.z:-0.000000
$GNGGA,000000.000,,,,,0,00,,,M,,,,0000*2B
$GNRMC,000000.000,A,,,,,,,060180,,*29
$GPGSA,A,1,,,,,,,,,,,,,,,*1E
$BDGSA,A,1,,,,,,,,,,,,,,,*0F
$GLGSA,A,1,,,,,,,,,,,,,,,*02
$GPGSV,1,1,04,01,00,000,45,07,00,000,37,11,00,000,30,17,00,000,19*73
$B3CN0,0,0,0,0,0,0,0,0,0,0,0,0,0,0*4C
---00000004--- Acq_st=3 0  2000-1-1 0:2:6 
[00]  00(G01)  7 44  7  0   -435.9  2046000.5  0.1  2 0 3013 4347 1704
[01]  06(G07)  7 44  7  0   1547.1  2045997.9  0.1  2 0 2768 3194 1721
[02]  10(G11)  7 45  7  0    612.1  2045999.1 -0.0  2 0 1948 3713 1733
[03]  16(G17)  7 42  7  0  -2555.3  2046003.2 -0.1  2 0 1600 2108 1390
[04]  17(G18)  7 43 11  0   1220.4  2045998.3 -0.0  2 0 1996 2873  856
[05]  21(G22)  7 32  7  0  -2663.3  2046003.3  0.5  5 0  731  994  653
[06]  27(G28)  7 25  7  0  -2949.0  2046003.7  0.7 10 0 1705 2658 1010
[08]  29(G30)  7 21  7  0   -474.2  2046000.5  0.8 10 0 2861 4218 1690
[16]  37(B01)  1 10 10  1   -575.9  4092003.7 -0.0  1 0  494  487  859
[17]  38(B02)  1 13 13  0  -1218.6  4092004.8 -0.1  1 0  675  217 1369
[18]  39(B03)  1 10 10  1   -718.8  4092003.2 -0.0  1 0  439  754 1327
[19]  40(B04)  1 10 19  0   -254.4  4092003.1 -0.3  1 0  498  593  534
[20]  43(B07)  1  7  7  0  -1207.8  4092004.7 -0.0  1 0 1202 2821 1857
[21]  44(B08)  1  7  7  0  -1465.5  4092005.8  0.0  1 0  966 1914 1711
[22]  46(B10)  1  7  7  0  -1750.0  4092004.5 -0.0  1 0 1225 2640 1335
$ini_pos,lastpos_good = 0,ini_pos.x:-0.000000,ini_pos.y:2150498990544607202280210432.000000,ini_pos.z:-0.000000
$GNGGA,000000.000,,,,,0,00,,,M,,,,0000*2B
$GNRMC,000000.000,A,,,,,,,060180,,*29
$GPGSA,A,1,,,,,,,,,,,,,,,*1E
$BDGSA,A,1,,,,,,,,,,,,,,,*0F
$GLGSA,A,1,,,,,,,,,,,,,,,*02
$GPGSV,2,1,08,01,00,000,44,07,00,000,44,11,00,000,45,17,00,000,42*75
$GPGSV,2,2,08,18,00,000,43,22,00,000,32,28,00,000,24,30,00,000,21*72
$B3CN0,0,0,0,0,0,0,0,0,0,0,0,0,0,0*4C
---00000005--- Acq_st=3 0  2000-1-1 0:2:7 
[00]  00(G01)  7 44  7  0   -433.2  2046000.5  0.0  2 0 2538 4153 1926
[01]  06(G07)  7 44  7  0   1551.1  2045997.9 -0.0  2 0 3221 3801 1771
[02]  10(G11)  7 44  7  0    619.6  2045999.1  0.0  2 0 1720 3098 1887
[03]  16(G17)  7 42  7  0  -2552.8  2046003.2  0.0  2 0 1267 2577 2195
[04]  17(G18)  7 43  7  0   1225.2  2045998.3  0.0  2 0 1659 2505 1154
[05]  21(G22)  7 38  7  0  -2655.2  2046003.4 -0.4  2 0 1265 1734  989
[06]  27(G28)  7 43  7  0  -2940.0  2046003.7  0.0  2 0 1923 2429  874
[08]  29(G30)  7 47  7  0   -467.5  2046000.5  0.0  2 0 2213 3828 1960
[16]  37(B01)  1 10 10  1   -618.2  4092005.0 -0.1  1 0  752  727  164
[17]  38(B02)  7 37 24  0  -1171.2  4092003.3 -0.8  2 0  143  986 1272
[18]  39(B03)  1 10 10  1   -483.4  4092003.2  0.0  1 0  337  274  477
[19]  40(B04)  1 10 10  0   -179.7  4092003.3  0.0  1 0  580  360  441
[20]  43(B07)  1  7  7  0  -1205.7  4092002.8 -0.1  1 0 1846 2470 1098
[21]  44(B08)  1  7  7  0  -1458.8  4092003.6  0.4  1 0 1520 2042 1062
[22]  46(B10)  1  7  8  0  -1554.7  4092003.9  0.4  1 0  903 2095  462
[24]  49(B13)  1 28  7  0  -1965.4  4092005.4  0.3  1 0 1465 2436 1021
$ini_pos,lastpos_good = 0,ini_pos.x:-0.000000,ini_pos.y:2150498990544607202280210432.000000,ini_pos.z:-0.000000
$GNGGA,000000.000,,,,,0,00,,,M,,,,0000*2B
$GNRMC,000000.000,A,,,,,,,060180,,*29
$GPGSA,A,1,,,,,,,,,,,,,,,*1E
$BDGSA,A,1,,,,,,,,,,,,,,,*0F
$GLGSA,A,1,,,,,,,,,,,,,,,*02
$GPGSV,2,1,08,01,00,000,44,07,00,000,44,11,00,000,44,17,00,000,42*74
$GPGSV,2,2,08,18,00,000,43,22,00,000,38,28,00,000,43,30,00,000,47*79
$BDGSV,1,1,01,02,00,000,38*50
$B3CN0,0,0,0,0,0,0,0,0,0,0,0,0,0,0*4C
---00000006--- Acq_st=3 0  2000-1-1 0:2:8 
[00]  00(G01)  7 45  7  0   -430.5  2046000.5 -0.0  2 0 2977 4106 1588
[01]  06(G07)  7 45  7  0   1555.5  2045997.9 -0.0  2 0 2552 3141 1328
[02]  10(G11)  7 43  7  0    622.6  2045999.1  0.1  2 0 1866 3140 2063
[03]  16(G17)  7 41  7  0  -2550.7  2046003.2  0.0  2 0 1748 2345 1477
[04]  17(G18)  7 43  7  0   1228.8  2045998.3  0.0  2 0 2157 2956 1915
[05]  21(G22)  7 38  7  0  -2658.2  2046003.4  0.2  2 0  703 1518  759
[06]  27(G28)  7 43  7  0  -2940.1  2046003.8  0.0  2 0 1883 3135 1424
[08]  29(G30)  7 45  7  0   -466.1  2046000.5  0.0  2 0 3185 4726 2418
[16]  37(B01)  1 10 10  0   -533.3  4092005.6 -0.0  1 0  341  466  314
[17]  38(B02)  f 40 23  0  -1165.7  4092003.2 -0.3  2 0  465 1347 1641
[18]  39(B03)  1 10 10  1    388.0  4092003.3  0.2  1 0  209  615  660
[19]  40(B04)  1 10 16  1    250.6  4092005.0 -0.1  1 0  494  464  622
[20]  43(B07)  1  7  7  0  -1199.9  4092003.0  0.0  1 0 1735 2650 1106
[21]  44(B08)  7 39  7  0  -1455.3  4092003.7  0.1  2 0 1107 1849  924
[22]  46(B10)  7 32  7  0  -1550.8  4092004.0  0.2  5 0 1726 2882 1476
[24]  49(B13)  7 25  7  0  -1960.2  4092005.1  0.8 10 0 1163 2433 1681
tow update
$ini_pos,lastpos_good = 0,ini_pos.x:-0.000000,ini_pos.y:2150498990544607202280210432.000000,ini_pos.z:-0.000000
$GNGGA,070950.317,,,,,0,00,,,M,,,,0000*25
$GNRMC,070950.317,A,,,,,,,080180,,*29
$GPGSA,A,1,,,,,,,,,,,,,,,*1E
$BDGSA,A,1,,,,,,,,,,,,,,,*0F
$GLGSA,A,1,,,,,,,,,,,,,,,*02
$GPGSV,2,1,08,01,00,000,45,07,00,000,45,11,00,000,43,17,00,000,41*70
$GPGSV,2,2,08,18,00,000,43,22,00,000,38,28,00,000,43,30,00,000,45*7B
$BDGSV,1,1,04,02,00,000,39,08,00,000,38,10,00,000,32,13,00,000,25*62
$B3CN0,0,0,0,0,0,0,0,0,0,0,0,0,0,0*4C
---00000007--- Acq_st=3 0  2000-1-1 0:2:9 
[00]  00(G01)  f 45  7  0   -427.1  2046000.5 -0.0  2 0 2547 4466 1803
[01]  06(G07)  f 44  8  0   1557.0  2045997.9  0.0  2 0 2655 3357 1583
[02]  10(G11)  f 44  7  0    621.4  2045999.1 -0.0  2 0 2427 3199 1177
[03]  16(G17)  f 41  7  0  -2548.0  2046003.3 -0.0  2 0 1665 2259  749
[04]  17(G18)  f 44  7  0   1227.5  2045998.3 -0.0  2 0 2358 3047  953
[05]  21(G22)  f 38  7  0  -2654.5  2046003.4 -0.3  2 0  964 1742  530
[06]  27(G28)  f 42  7  0  -2937.9  2046003.7 -0.1  2 0 1776 2940 1493
[08]  29(G30)  f 45  7  0   -465.5  2046000.5  0.0  2 0 2554 4419 1858
[16]  37(B01)  1 16 13  1   -659.3  4092004.4 -0.0  1 0  439  297  147
[17]  38(B02)  f 41 24  0  -1160.8  4092003.1  0.2  2 0  574 1563 1035
[18]  39(B03)  1 10 10  1    659.2  4092005.0 -0.1  1 0  588  347  398
[19]  40(B04)  1 19 22  0     33.4  4092004.8 -0.1  1 0  200  190  355
[20]  43(B07)  1  7  7  0  -1199.9  4092003.1 -0.0  1 0 1204 2556 1835
[21]  44(B08)  7 42  7  0  -1450.7  4092003.7  0.0  2 0 1673 2066  432
[22]  46(B10)  7 44  7  0  -1547.1  4092004.0 -0.0  2 0 1735 2670 1655
[24]  49(B13)  7 43  7  0  -1956.3  4092005.1 -0.0  2 0 1561 2597 1154
[25]  62(B26)  1  7  7  0  -3500.7  4092010.2  0.3  1 0 1525 2432 1172
[26]  65(B29)  1  7  7  0    250.0  4091996.9  0.0  1 0 3310 1471  573
[49]  38(B02)  1 10 14  1  -1381.3 20460018.7  0.2  1 0  585  543  415
$ini_pos,lastpos_good = 0,ini_pos.x:-0.000000,ini_pos.y:2150498990544607202280210432.000000,ini_pos.z:-0.000000
$GNGGA,070951.317,,,,,0,00,,,M,,,,0000*24
$GNRMC,070951.317,A,,,,,,,080180,,*28
$GPGSA,A,1,,,,,,,,,,,,,,,*1E
$BDGSA,A,1,,,,,,,,,,,,,,,*0F
$GLGSA,A,1,,,,,,,,,,,,,,,*02
$GPGSV,2,1,08,01,00,000,45,07,00,000,44,11,00,000,44,17,00,000,41*76
$GPGSV,2,2,08,18,00,000,44,22,00,000,38,28,00,000,42,30,00,000,45*7D
$BDGSV,1,1,04,02,00,000,41,08,00,000,42,10,00,000,44,13,00,000,43*61
$B3CN0,0,0,0,0,0,0,0,0,0,0,0,0,0,0*4C
---00000008--- Acq_st=3 0  2000-1-1 0:2:10 
[00]  00(G01)  f 45  7  0   -431.0  2046000.5 -0.0  2 0 2941 4455 2466
[01]  06(G07)  f 45  7  0   1553.7  2045997.9 -0.0  2 0 2416 3307  958
[02]  10(G11)  f 43  7  0    619.7  2045999.1  0.0  2 0 1884 3147 1780
[03]  16(G17)  f 41  7  0  -2544.3  2046003.3  0.0  2 0 1400 2093 1490
[04]  17(G18)  f 43  7  0   1228.7  2045998.3  0.0  2 0 1836 3188 1355
[05]  21(G22)  f 38  7  0  -2654.9  2046003.4 -0.1  2 0 1476 2238 1036
[06]  27(G28)  f 43  7  0  -2945.2  2046003.7  0.0  2 0 2013 2968 1880
[08]  29(G30)  f 45  7  0   -464.4  2046000.5 -0.0  2 0 2650 4371 2051
[17]  38(B02) 1f 41 16  0  -1163.8  4092003.0 -0.3  2 0 1062 1685 1275
[19]  40(B04)  7 10 18  0   -440.5  4092000.8 -0.1  2 0  632  474   88
[20]  43(B07)  7  7  7  0  -1201.6  4092003.1  0.6 10 0 2059 3057 1455
[21]  44(B08)  7 42  7  0  -1455.5  4092003.7  0.0  2 0 1387 2203 1229
[22]  46(B10)  7 44  7  0  -1548.7  4092004.0 -0.0  2 0 1734 2265 1477
[24]  49(B13)  7 42  7  0  -1958.9  4092005.1  0.1  2 0 1495 2003  516
[25]  62(B26)  7 23  7  0  -3501.4  4092009.0  0.4 10 0 2036 2604 1009
[26]  65(B29)  1  7 13  0    474.0  4091998.4  0.4  1 0 1569 3048 1624
[32]  77(N-4)  1 19 19  0    404.2  1022000.6 -0.0  1 0  2446 4386 1970
[33]  79(N-2)  1 17 17  0   2500.0  1022000.2 -0.0  1 0   154  110  324
[34]  81(N00)  1 20  7  0  -2750.0  1022004.0 -0.0  1 0   288 1928 4290
[35]  82(N01)  1  7  7  0  -5026.6  1022004.1 -0.0  1 0   400  269  307
[36]  83(N02)  1  7  7  0 -31154.2  1022000.4  0.0  1 0   293  612  964
[49]  38(B02)  1 22 18  1  -1460.4 20460021.9 -0.0  1 0  488  235  457
$ini_pos,lastpos_good = 0,ini_pos.x:-0.000000,ini_pos.y:2150498990544607202280210432.000000,ini_pos.z:-0.000000
$GNGGA,070952.317,,,,,0,00,,,M,,,,0000*27
$GNRMC,070952.317,A,,,,,,,080180,,*2B
$GPGSA,A,1,,,,,,,,,,,,,,,*1E
$BDGSA,A,1,,,,,,,,,,,,,,,*0F
$GLGSA,A,1,,,,,,,,,,,,,,,*02
$GPGSV,2,1,08,01,00,000,45,07,00,000,44,11,00,000,43,17,00,000,41*71
$GPGSV,2,2,08,18,00,000,43,22,00,000,38,28,00,000,43,30,00,000,45*7B
$BDGSV,2,1,05,02,00,000,41,08,00,000,42,10,00,000,44,13,00,000,42*62
$BDGSV,2,2,05,26,00,000,23*58
$B3CN0,0,0,0,0,0,0,0,0,0,0,0,0,0,0*4C
---00000009--- Acq_st=7 0  2000-1-1 0:2:11 
[00]  00(G01)  f 45  9  0   -428.8  2046000.5 -0.0  2 0 2444 4071 2232
[01]  06(G07)  f 45  7  0   1552.7  2045997.9 -0.0  2 0 2454 3627 1606
[02]  10(G11)  f 44 12  0    618.6  2045999.1 -0.0  2 0 2003 2916 1142
[03]  16(G17)  f 41  7  0  -2547.6  2046003.3  0.0  2 0 1766 2335 1203
[04]  17(G18)  f 44  7  0   1228.5  2045998.3  0.0  2 0 1946 3372 1611
[05]  21(G22)  f 39  7  0  -2650.8  2046003.4  0.3  2 0 1137 1207  178
[06]  27(G28)  f 43  7  0  -2941.4  2046003.7 -0.0  2 0 2588 2960 1444
[08]  29(G30)  f 45  7  0   -463.9  2046000.5 -0.0  2 0 3037 4976 2093
[17]  38(B02) 1f 41 14  0  -1166.4  4092003.0  0.5  2 0 1120 1162  540
[19]  40(B04)  7 10 16  1   -915.7  4092002.3 -0.2  2 0  580  670  685
[20]  43(B07)  7 44  7  0  -1198.7  4092003.1 -0.1  2 0 1694 2588 1159
[21]  44(B08) 1f 42  7  0  -1452.3  4092003.7  0.0  2 0 1393 1687  987
[22]  46(B10) 1f 44  7  0  -1548.9  4092003.9  0.0  2 0 2042 2548  939
[24]  49(B13) 1f 42  7  0  -1954.3  4092005.0  0.0  2 0 1660 2351  934
[25]  62(B26)  7 43  7  0  -3501.5  4092009.0 -0.0  2 0 1762 2243  956
[26]  65(B29)  7 36  7  0    476.2  4091998.8  0.1  2 0 2065 3884 2027
[32]  77(N-4)  1 51 13  0    403.0  1021999.4  1.0  1 0  2911 4051 1711
[33]  79(N-2)  1 26 16  0   2611.5  1021998.3  0.1  1 0   384  519  276
[34]  81(N00)  1 28 15  0  -2785.6  1022002.0  1.0  1 0  2832 3912 1534
[35]  82(N01)  1 29 14  0  -4973.6  1022004.6  0.6  1 0    40  797  716
[36]  83(N02)  1 27 17  0   2865.5  1021998.4  0.5  1 0   568  577  161
[37]  84(N03)  1 29 15  0  -3323.9  1022002.5  0.8  1 0  2405 3526 1719
[38]  86(N05)  1 24 20  0   2574.8  1021999.1  0.1  1 0    75  355  317
[49]  38(B02)  1 10 10  0   -557.9 20460016.0 -0.1  1 0  238   45  169
$ini_pos,lastpos_good = 0,ini_pos.x:-0.000000,ini_pos.y:2150498990544607202280210432.000000,ini_pos.z:-0.000000
$GNGGA,070953.317,,,,,0,00,,,M,,,,0000*26
$GNRMC,070953.317,A,,,,,,,080180,,*2A
$GPGSA,A,1,,,,,,,,,,,,,,,*1E
$BDGSA,A,1,,,,,,,,,,,,,,,*0F
$GLGSA,A,1,,,,,,,,,,,,,,,*02
$GPGSV,2,1,08,01,00,000,46,07,00,000,44,11,00,000,44,17,00,000,41*75
$GPGSV,2,2,08,18,00,000,43,22,00,000,39,28,00,000,43,30,00,000,45*7A
$BDGSV,2,1,07,02,00,000,41,07,00,000,43,08,00,000,42,10,00,000,43*63
$BDGSV,2,2,07,13,00,000,42,26,00,000,42,29,00,000,44*52
$B3CN0,0,0,0,0,0,0,0,0,0,0,0,0,0,0*4C
---00000010--- Acq_st=7 0  2000-1-1 0:2:12 
[00]  00(G01)  f 46  7  0   -428.1  2046000.5  0.0  2 0 2690 4095 1778
[01]  06(G07)  f 44  7  0   1555.6  2045997.9  0.0  2 0 2581 4095 2545
[02]  10(G11)  f 44  8  0    624.6  2045999.1 -0.0  2 0 2388 3152 1324
[03]  16(G17)  f 41  7  0  -2545.9  2046003.3  0.1  2 0 1912 2223  918
[04]  17(G18)  f 43  7  0   1228.7  2045998.3 -0.0  2 0 2274 3621 1872
[05]  21(G22)  f 39  7  0  -2655.2  2046003.4 -0.0  2 0 1050 1780  839
[06]  27(G28)  f 43  7  0  -2938.2  2046003.7  0.1  2 0 1340 2717 1095
[08]  29(G30)  f 45  7  0   -460.9  2046000.5  0.0  2 0 3439 5256 2605
[17]  38(B02) 1f 42 24  0  -1166.4  4092003.0  0.1  2 0  594 1443 1073
[19]  40(B04)  7 10 13  1   -782.8  4092002.2  0.3  2 0  653  601 1296
[20]  43(B07)  7 44  7  0  -1195.2  4092003.1  0.1  2 0 1736 2636 1275
[21]  44(B08) 1f 42  7  0  -1453.1  4092003.7  0.0  2 0 2243 2710 1185
[22]  46(B10) 1f 43  7  0  -1546.2  4092003.9 -0.0  2 0 1917 2647 1070
[24]  49(B13) 1f 42  9  0  -1958.3  4092005.0  0.0  2 0 1754 2223  912
[25]  62(B26)  7 42  7  0  -3499.3  4092009.0  0.0  2 0 2276 2798 1202
[26]  65(B29)  7 44  7  0    478.7  4091998.7 -0.0  2 0 2265 3652 1476
[32]  77(N-4)  7 50 17  0    407.9  1021999.7 -0.1  2 0  2415 4028 2166
[33]  79(N-2)  7 33 17  0   2616.1  1021998.2  0.0  5 0   629  479  472
[34]  81(N00)  7 50 16  0  -2779.8  1022001.7 -0.1  2 0  2484 4029 1854
[35]  82(N01)  7 35 17  0  -4972.4  1022003.0  0.2  2 0   413  321    9
[36]  83(N02)  7 34 15  0   2867.4  1021998.1  0.7  5 0   891  971  441
[37]  84(N03)  7 34  9  0  -3319.5  1022002.0  0.3  5 0  2476 3308 1303
[38]  86(N05)  7 25  7  0   2591.1  1021998.2  0.3 10 0   898  857  289
[49]  38(B02)  1 10 10  1    167.3 20460014.7  0.1  1 0  238  427  355
[53]  44(B08)  1  7  7  0   -799.5 20460022.6  0.1  1 0  185  529  729
[54]  46(B10)  1  7  7  0  -1298.9 20460023.7 -0.1  1 0  223  484   77
[56]  49(B13)  1  7  7  0  -1418.5 20460030.2  0.2  1 0  620  385  475
---00000011--- Acq_st=3 0  2000-1-1 0:2:13 
[00]  00(G01)  f 46  7  0   -426.4  2046000.5  0.0  2 0 3206 4817 2251
[01]  06(G07)  f 45  7  0   1553.5  2045997.9  0.0  2 0 2920 3848 1751
[02]  10(G11)  f 44  7  0    623.1  2045999.1 -0.0  2 0 1397 2660 1623
[03]  16(G17)  f 41  7  0  -2549.0  2046003.2 -0.1  2 0 1807 2614 1555
[04]  17(G18)  f 43  7  0   1231.4  2045998.3 -0.0  2 0 2314 3205 1507
[05]  21(G22)  f 39  7  0  -2649.5  2046003.4 -0.0  2 0 1457 1157  464
[06]  27(G28)  f 43  7  0  -2942.2  2046003.7 -0.0  2 0 2139 2765  907
[08]  29(G30)  f 45  8  0   -461.6  2046000.5 -0.0  2 0 2040 3949 1704
[17]  38(B02) 1f 40 10  0  -1163.1  4092002.9 -0.7  2 0  907 1044  435
[19]  40(B04)  7 13 21  0   -852.2  4092002.3 -0.1  2 0  480  540  980
[20]  43(B07)  7 43  7  0  -1196.6  4092003.0  0.0  2 0 1629 2224 1093
[21]  44(B08) 1f 42  7  0  -1449.9  4092003.7 -0.1  2 0 1733 2320 1032
[22]  46(B10) 1f 43  7  0  -1545.1  4092003.9 -0.0  2 0 1921 2823  819
[24]  49(B13) 1f 42  8  0  -1958.4  4092005.0  0.1  2 0 1694 2266  623
[25]  62(B26)  7 42  7  0  -3496.2  4092009.0  0.0  2 0 1783 2454 1079
[26]  65(B29)  7 44 13  0    478.8  4091998.7  0.1  2 0 2487 3680 1686
[32]  77(N-4)  7 49 16  0    408.4  1021999.7  0.1  2 0  2491 4123 2194
[33]  79(N-2)  7 34 16  0   2618.6  1021998.2  0.1  5 0   247  617  198
[34]  81(N00)  7 49 16  0  -2779.5  1022001.7  0.0  2 0  2527 4335 2239
[35]  82(N01)  7 36 19  0  -4972.8  1022003.1 -0.0  2 0   482  544  125
[36]  83(N02)  7 39 17  0   2868.0  1021998.1  0.7  2 0   414  703  379
[37]  84(N03)  7 48 16  0  -3317.9  1022002.1  0.1  2 0  2110 3377 1555
[38]  86(N05)  7 35 15  0   2590.7  1021998.3 -0.4  2 0   518  696   91
[53]  44(B08)  1  7  7  0  -1488.5 20460021.4  0.1  1 0  198  228  534
[54]  46(B10)  1  7  9  0   -865.4 20460022.5 -0.1  1 0  588  934  925
[56]  49(B13)  1  8  7  0  -1421.2 20460031.0 -0.0  1 0  490  368  466
$ini_pos,lastpos_good = 0,ini_pos.x:-0.000000,ini_pos.y:2150498990544607202280210432.000000,ini_pos.z:-0.000000
$GNGGA,070954.317,,,,,0,00,,,M,,,,0000*21
$GNRMC,070954.317,A,,,,,,,080180,,*2D
$GPGSA,A,1,,,,,,,,,,,,,,,*1E
$BDGSA,A,1,,,,,,,,,,,,,,,*0F
$GLGSA,A,1,,,,,,,,,,,,,,,*02
$GPGSV,2,1,08,01,00,000,46,07,00,000,45,11,00,000,44,17,00,000,41*74
$GPGSV,2,2,08,18,00,000,43,22,00,000,39,28,00,000,43,30,00,000,45*7A
$BDGSV,2,1,07,02,00,000,40,07,00,000,43,08,00,000,42,10,00,000,43*62
$BDGSV,2,2,07,13,00,000,42,26,00,000,42,29,00,000,44*52
$B3CN0,0,0,0,0,0,0,0,0,0,0,0,0,0,0*4C
---00000012--- Acq_st=3 0  2000-1-1 0:2:14 
[00]  00(G01)  f 46  7  0   -427.7  2046000.5  0.0  2 0 2303 4430 2218
[01]  06(G07)  f 45  7  0   1556.7  2045997.9 -0.0  2 0 3090 4223 2319
[02]  10(G11)  f 44  7  0    622.2  2045999.1  0.0  2 0 1952 3281 1567
[03]  16(G17)  f 41  9  0  -2550.1  2046003.2  0.0  2 0 1284 1653  518
[04]  17(G18)  f 44  7  0   1230.0  2045998.3  0.0  2 0 1999 3047 1362
[05]  21(G22)  f 39  7  0  -2654.6  2046003.3  0.1  2 0  943  884  129
[06]  27(G28)  f 42 10  0  -2942.7  2046003.8  0.0  2 0 1996 2756 1157
[08]  29(G30)  f 45  7  0   -462.2  2046000.5 -0.1  2 0 2944 4808 2212
[17]  38(B02) 1f 40 14  0  -1163.9  4092003.0 -0.3  2 0 1231 1735  959
[19]  40(B04)  7 27 36  1  -1170.1  4092003.2 -0.1  2 0  870  701  817
[20]  43(B07)  7 43  7  0  -1196.4  4092003.0  0.0  2 0 1596 2251 1089
[21]  44(B08) 1f 42  7  0  -1450.9  4092003.7  0.1  2 0 2096 2381  592
[22]  46(B10) 1f 43  8  0  -1549.2  4092003.9 -0.0  2 0 2094 2764 1109
[24]  49(B13) 1f 42 14  0  -1957.7  4092005.0 -0.1  2 0 2285 2665 1103
[25]  62(B26)  7 43  7  0  -3497.7  4092009.0 -0.0  2 0 1842 1956  180
[26]  65(B29)  7 44 11  0    478.0  4091998.7 -0.0  2 0 2152 3078 1336
[32]  77(N-4)  7 49 16  0    408.5  1021999.7 -0.0  2 0  2369 4044 2178
[33]  79(N-2)  7 35 17  0   2616.6  1021998.1  0.1  2 0   660  840  411
[34]  81(N00)  7 50 15  0  -2779.9  1022001.7  0.0  2 0  2853 4364 1949
[35]  82(N01)  7 36 14  0  -4974.2  1022003.1 -0.1  2 0   392  463  439
[36]  83(N02)  7 39 17  0   2864.4  1021998.1 -0.5  2 0   860 1026  507
[37]  84(N03)  7 48 16  0  -3318.7  1022002.1  0.1  2 0  1547 3292 2152
[38]  86(N05)  7 36 14  0   2588.3  1021998.3  0.2  2 0   283  651  647
[49]  38(B02)  1 18 17  0   -636.0 20460018.1  0.2  1 0  281  240  187
[53]  44(B08)  1  7  7  0  -1987.9 20460023.0 -0.0  1 0  556  157  771
[54]  46(B10)  1  7  7  0  -1253.5 20460023.9  0.1  1 0  664  306  348
[56]  49(B13)  1  7  7  0  -1994.4 20460031.6  0.1  1 0  223  136  449
$ini_pos,lastpos_good = 0,ini_pos.x:-0.000000,ini_pos.y:2150498990544607202280210432.000000,ini_pos.z:-0.000000
$GNGGA,070955.317,,,,,0,00,,,M,,,,0000*20
$GNRMC,070955.317,A,,,,,,,080180,,*2C
$GPGSA,A,1,,,,,,,,,,,,,,,*1E
$BDGSA,A,1,,,,,,,,,,,,,,,*0F
$GLGSA,A,1,,,,,,,,,,,,,,,*02
$GPGSV,2,1,08,01,00,000,46,07,00,000,45,11,00,000,44,17,00,000,41*74
$GPGSV,2,2,08,18,00,000,44,22,00,000,39,28,00,000,42,30,00,000,45*7C
$BDGSV,2,1,08,02,00,000,41,04,00,000,26,07,00,000,43,08,00,000,42*6A
$BDGSV,2,2,08,10,00,000,43,13,00,000,42,26,00,000,43,29,00,000,44*6A
$B3CN0,0,0,0,0,0,0,0,0,0,0,0,0,0,0*4C
---00000013--- Acq_st=3 0  2000-1-1 0:2:15 
[00]  00(G01)  f 46  7  0   -422.7  2046000.5 -0.0  2 0 2767 4701 2466
[01]  06(G07)  f 45 10  0   1558.3  2045997.9  0.0  2 0 2868 3907 2076
[02]  10(G11)  f 44  7  0    627.6  2045999.1  0.1  2 0 1406 2421 1419
[03]  16(G17)  f 42  7  0  -2544.9  2046003.2 -0.0  2 0 1464 2407 1156
[04]  17(G18)  f 44  7  0   1233.8  2045998.3  0.1  2 0 2238 3063 1639
[05]  21(G22)  f 37  7  0  -2649.6  2046003.4  0.2  2 0  854 1837 1259
[06]  27(G28)  f 44  8  0  -2940.8  2046003.8  0.0  2 0 1820 2832 1769
[08]  29(G30)  f 46  7  0   -459.6  2046000.5 -0.0  2 0 2804 4730 2263
[16]  37(B01)  1 40 19  0  -1118.8  4092003.9  1.0  1 0 1428 1713  879
[17]  38(B02) 1f 40 23  0  -1160.0  4092002.8 -0.1  2 0 1034 1456  263
[18]  39(B03)  1 18 31  1  -1126.0  4092003.1  0.1  1 0  575   69 1116
[19]  40(B04)  7 35 25  0  -1133.6  4092003.2  0.2  2 0   69  789 1402
[20]  43(B07)  7 43  7  0  -1195.6  4092003.0  0.0  2 0 1723 2314  595
[21]  44(B08) 1f 42 11  0  -1449.8  4092003.7  0.0  2 0 1500 2203 1020
[22]  46(B10) 1f 43  7  0  -1546.8  4092003.9  0.0  2 0 2052 2695  542
[24]  49(B13) 1f 42  7  0  -1955.4  4092005.0  0.1  2 0 1570 2154  748
[25]  62(B26)  7 42  7  0  -3498.8  4092009.0  0.0  2 0 1911 2681 1700
[26]  65(B29)  7 44  7  0    476.6  4091998.6 -0.0  2 0 1836 2844 1002
[27]  41(B05)  1 36 21  0  -1153.4  4092004.0  0.8  1 0  750 1098  709
[32]  77(N-4)  f 30  7  0    409.4  1021999.7  0.1  5 0  2652 4137 1674
[33]  79(N-2)  f 28  9  0   2621.0  1021998.3 -0.1  5 0   212  591  210
[34]  81(N00)  f 30  7  0  -2778.5  1022001.7 -0.1  5 0  2692 4636 2244
[35]  82(N01)  f 28  8  0  -4969.9  1022003.1 -0.3  5 0   426  565  509
[36]  83(N02)  f 29 10  0   2868.1  1021998.0  0.3  5 0   738 1003  583
[37]  84(N03)  f 30  7  0  -3317.2  1022002.1  0.0  5 0  2297 3602 1623
[38]  86(N05)  f 28  7  0   2592.9  1021998.4 -0.1  5 0   456  661  440
[49]  38(B02)  f 19 10  1   -705.3 20460011.6  0.1  2 0  661  344  331
[53]  44(B08)  1  7  7  0  -2488.5 20460022.7  0.0  1 0  581  518  843
[54]  46(B10)  1  7  7  0  -1738.3 20460024.5  0.2  1 0  788  785  505
[56]  49(B13)  1  7  9  0  -2434.7 20460030.5  0.1  1 0  267  104  468
$ini_pos,lastpos_good = 0,ini_pos.x:-0.000000,ini_pos.y:2150498990544607202280210432.000000,ini_pos.z:-0.000000
$GNGGA,070956.317,,,,,0,00,,,M,,,,0000*23
$GNRMC,070956.317,A,,,,,,,080180,,*2F
$GPGSA,A,1,,,,,,,,,,,,,,,*1E
$BDGSA,A,1,,,,,,,,,,,,,,,*0F
$GLGSA,A,1,,,,,,,,,,,,,,,*02
$GPGSV,2,1,08,01,00,000,46,07,00,000,45,11,00,000,44,17,00,000,42*77
$GPGSV,2,2,08,18,00,000,44,22,00,000,37,28,00,000,44,30,00,000,46*77
$BDGSV,2,1,08,02,00,000,40,04,00,000,35,07,00,000,43,08,00,000,42*69
$BDGSV,2,2,08,10,00,000,43,13,00,000,42,26,00,000,42,29,00,000,44*6B
$B3CN0,0,20,0,0,0,0,0,0,0,0,0,0,0,0*7E
---00000014--- Acq_st=3 0  2000-1-1 0:2:16 
[00]  00(G01)  f 46  7  0   -420.6  2046000.5  0.0  2 0 2693 4503 2511
[01]  06(G07)  f 45  7  0   1561.5  2045997.9 -0.0  2 0 2556 3730 2134
[02]  10(G11)  f 44  7  0    626.8  2045999.1 -0.0  2 0 2749 3600 1422
[03]  16(G17)  f 41  7  0  -2544.2  2046003.3 -0.0  2 0 1582 2008  906
[04]  17(G18)  f 43  7  0   1232.7  2045998.3 -0.0  2 0 1851 3051 1278
[05]  21(G22)  f 38  7  0  -2646.5  2046003.4  0.0  2 0  960 1498 1031
[06]  27(G28)  f 43  7  0  -2938.8  2046003.8  0.0  2 0 1520 2957 1340
[08]  29(G30)  f 46 10  0   -455.9  2046000.5 -0.0  2 0 3431 5041 2212
[16]  37(B01) 1f 40 16  0  -1115.2  4092002.7 -0.4  2 0 2005 1703  690
[17]  38(B02) 1f 42 23  0  -1159.7  4092003.0 -0.6  2 0 1194 1510  583
[18]  39(B03)  7 23 10  1  -1284.5  4092003.3  0.1  2 0  216  507 1134
[19]  40(B04) 1f 38 14  0  -1134.8  4092003.2  0.2  2 0  441 1038  931
[20]  43(B07)  7 43  7  0  -1192.4  4092003.0  0.0  2 0 2049 2803 1403
[21]  44(B08) 1f 43  7  0  -1449.6  4092003.7 -0.1  2 0 1987 2318  687
[22]  46(B10) 1f 43  7  0  -1542.1  4092003.9  0.0  2 0 2339 2900 1179
[24]  49(B13) 1f 42  7  0  -1954.4  4092005.0 -0.1  2 0 1706 1882  357
[25]  62(B26)  7 43  9  0  -3495.0  4092009.0 -0.0  2 0 1850 2520 1391
[26]  65(B29)  7 44 11  0    482.3  4091998.6  0.0  2 0 1520 2935 1473
[27]  41(B05) 1f 10 10  0  -1141.0  4092002.8  0.3  2 0  983 1033  705
[32]  77(N-4)  f 48  9  0    412.5  1021999.7 -0.1  2 0  2339 4151 2159
[33]  79(N-2)  f 35  7  0   2620.8  1021998.2 -0.1  2 0   738  612   30
[34]  81(N00)  f 48  7  0  -2775.3  1022001.7  0.1  2 0  2521 4466 2185
[35]  82(N01)  f 36  7  0  -4969.5  1022003.1 -0.0  2 0   432  688  300
[36]  83(N02)  f 38  7  0   2868.2  1021998.1 -0.2  2 0   543  539  246
[37]  84(N03)  f 47  7  0  -3313.8  1022002.1  0.0  2 0  2131 3539 1363
[38]  86(N05)  f 34  8  0   2592.8  1021998.2  0.1  5 0   418  822  403
[49]  38(B02)  f 19 24  0  -1259.4 20460022.1 -0.1  2 0  222  406  352
$ini_pos,lastpos_good = 0,ini_pos.x:-0.000000,ini_pos.y:2150498990544607202280210432.000000,ini_pos.z:-0.000000
$GNGGA,070957.317,,,,,0,00,,,M,,,,0000*22
$GNRMC,070957.317,A,,,,,,,070519,,*25
$GPGSA,A,1,,,,,,,,,,,,,,,*1E
$BDGSA,A,1,,,,,,,,,,,,,,,*0F
$GLGSA,A,1,,,,,,,,,,,,,,,*02
$GPGSV,2,1,08,01,00,000,46,07,00,000,45,11,00,000,44,17,00,000,41*74
$GPGSV,2,2,08,18,00,000,43,22,00,000,38,28,00,000,43,30,00,000,46*78
$BDGSV,3,1,10,01,00,000,40,02,00,000,42,03,00,000,24,04,00,000,38*60
$BDGSV,3,2,10,07,00,000,43,08,00,000,43,10,00,000,43,13,00,000,42*65
$BDGSV,3,3,10,26,00,000,43,29,00,000,44*61
$B3CN0,0,18,0,0,0,0,0,0,0,0,0,0,0,0*75
---00000015--- Acq_st=3 0  2000-1-1 0:2:17 
[00]  00(G01)  f 45  7  0   -422.5  2046000.5 -0.0  2 0 2950 4449 2146
[01]  06(G07)  f 44  7  0   1558.8  2045997.9 -0.0  2 0 3106 4351 2076
[02]  10(G11)  f 44  7  0    626.9  2045999.1 -0.0  2 0 1999 3409 1730
[03]  16(G17)  f 42  7  0  -2546.7  2046003.2  0.0  2 0 1570 2256 1009
[04]  17(G18)  f 44  7  0   1233.4  2045998.3 -0.1  2 0 1925 3196 1745
[05]  21(G22)  f 39 12  0  -2654.4  2046003.3 -0.1  2 0 1435 1897  315
[06]  27(G28)  f 43  7  0  -2938.2  2046003.8 -0.0  2 0 1384 2748 1648
[08]  29(G30)  f 46  9  0   -457.7  2046000.5  0.0  2 0 2934 4654 2112
[16]  37(B01) 1f 40 13  0  -1114.6  4092002.8 -0.5  2 0 1777 1945 1117
[17]  38(B02) 1f 40 10  0  -1162.8  4092002.9  0.2  2 0  752 1228  871
[18]  39(B03)  7 10 10  0  -1385.9  4092003.9  0.1  2 0  298 1119 1980
[19]  40(B04) 1f 39 26  0  -1127.2  4092003.1 -0.6  2 0  872 1850 1768
[20]  43(B07) 1f 43  7  0  -1194.8  4092003.0 -0.0  2 0 2042 2338 1018
[21]  44(B08) 1f 43  7  0  -1446.2  4092003.7  0.0  2 0 1654 2072 1095
[22]  46(B10) 1f 43  7  0  -1545.6  4092003.9  0.0  2 0 2324 2604  988
[24]  49(B13) 1f 42 10  0  -1957.8  4092005.0  0.0  2 0 1343 1886  630
[25]  62(B26) 1f 42  7  0  -3495.7  4092009.0 -0.0  2 0 1825 2407  965
[26]  65(B29) 1f 44  7  0    483.1  4091998.6  0.1  2 0 2317 3240 1735
[27]  41(B05) 1f 35 22  0  -1154.2  4092002.9 -0.6  2 0  661  422  522
[32]  77(N-4)  f 46  7  0    412.6  1021999.7 -0.0  2 0  2684 4352 1944
[33]  79(N-2)  f 34 12  0   2619.6  1021998.3 -0.0  2 0   653  748  298
[34]  81(N00)  f 46  7  0  -2774.6  1022001.7 -0.0  2 0  2609 3945 1711
[35]  82(N01)  f 36  7  0  -4968.8  1022003.1  0.1  2 0   566 1044  801
[36]  83(N02)  f 38  7  0   2869.2  1021998.1 -0.3  2 0   858  914  485
[37]  84(N03)  f 46  7  0  -3314.0  1022002.1  0.0  2 0  2032 3500 1970
[38]  86(N05)  f 34  7  0   2593.5  1021998.3 -0.1  2 0   720  972  573
[48]  37(B01)  1 36 13  0   -479.0 20460018.2  0.1  1 0  580  294  332
[49]  38(B02)  f 10 10  0  -1443.3 20460022.1  0.1  2 0  364  255  515
[51]  40(B04)  1 21 22  0  -1037.8 20460017.0 -0.1  1 0 1185  945  503
[53]  44(B08)  1  7  7  0  -1211.9 20460021.2 -0.1  1 0  587  366  156
[54]  46(B10)  1  7  7  0  -1184.8 20460023.5 -0.1  1 0  148  382  131
[56]  49(B13)  1  8  9  0  -1645.7 20460028.8  0.1  1 0  354  460  155
$ini_pos,lastpos_good = 0,ini_pos.x:-0.000000,ini_pos.y:2150498990544607202280210432.000000,ini_pos.z:-0.000000
$GNGGA,070958.317,,,,,0,00,,,M,,,,0000*2D
$GNRMC,070958.317,A,,,,,,,070519,,*2A
$GPGSA,A,1,,,,,,,,,,,,,,,*1E
$BDGSA,A,1,,,,,,,,,,,,,,,*0F
$GLGSA,A,1,,,,,,,,,,,,,,,*02
$GPGSV,2,1,08,01,00,000,45,07,00,000,44,11,00,000,44,17,00,000,42*75
$GPGSV,2,2,08,18,00,000,44,22,00,000,39,28,00,000,43,30,00,000,46*7E
$BDGSV,3,1,10,01,00,000,40,02,00,000,40,04,00,000,39,07,00,000,43*66
$BDGSV,3,2,10,08,00,000,43,10,00,000,43,13,00,000,42,26,00,000,42*67
$BDGSV,3,3,10,29,00,000,44,05,00,000,35*61
$B3CN0,0,0,0,0,0,0,0,0,0,0,0,0,0,0*4C
---00000016--- Acq_st=3 0  2000-1-1 0:2:18 
[00]  00(G01)  f 45  7  0   -425.0  2046000.5  0.1  2 0 2902 4368 1989
[01]  06(G07)  f 44  7  0   1554.9  2045997.9  0.0  2 0 2299 3264 1593
[02]  10(G11)  f 43  7  0    619.5  2045999.1 -0.0  2 0 2934 3961 1892
[03]  16(G17)  f 41  7  0  -2551.9  2046003.3  0.1  2 0 1189 1427  660
[04]  17(G18)  f 43  7  0   1234.8  2045998.3 -0.0  2 0 1198 2853 1560
[05]  21(G22)  f 38  7  0  -2656.3  2046003.4  0.1  2 0 1028 1799  934
[06]  27(G28)  f 43  7  0  -2942.1  2046003.8 -0.1  2 0 1327 3142 1698
[08]  29(G30)  f 46  7  0   -461.0  2046000.5  0.0  2 0 2620 4254 2017
[16]  37(B01) 1f 41 22  0  -1118.5  4092002.7 -0.3  2 0 1299 1172  260
[17]  38(B02) 1f 39 19  0  -1164.6  4092002.9 -0.1  2 0 1574 1616  657
[18]  39(B03)  7 26 33  1  -1000.9  4092002.6  0.1  2 0  411 1315 2367
[19]  40(B04) 1f 41 22  0  -1134.3  4092003.0 -0.4  2 0  259 1284  805
[20]  43(B07) 1f 43  7  0  -1198.9  4092003.0 -0.0  2 0 1744 2107  824
[21]  44(B08) 1f 43  7  0  -1457.2  4092003.7 -0.1  2 0 1557 1756  704
[22]  46(B10) 1f 43  7  0  -1548.5  4092003.9 -0.0  2 0 1426 2481 1277
[24]  49(B13) 1f 42  7  0  -1958.0  4092005.0 -0.0  2 0 1656 1616  215
[25]  62(B26) 1f 42  7  0  -3502.9  4092009.0  0.0  2 0 2160 2082  790
[26]  65(B29) 1f 44  7  0    477.9  4091998.7 -0.0  2 0 2264 3035 1181
[27]  41(B05) 1f 34 18  0  -1154.7  4092002.8  0.1  2 0  928  615  471
[32]  77(N-4)  f 46  7  0    408.9  1021999.7  0.0  2 0  2286 4207 2197
[33]  79(N-2)  f 35  7  0   2616.4  1021998.3  0.0  2 0   246  252  278
[34]  81(N00)  f 46  7  0  -2778.4  1022001.7 -0.0  2 0  2551 4265 2152
[35]  82(N01)  f 36  7  0  -4975.2  1022003.1 -0.2  2 0   686  690  245
[36]  83(N02)  f 38  8  0   2865.7  1021998.1  0.3  2 0   213  486  231
[37]  84(N03)  f 46  7  0  -3317.0  1022002.1 -0.1  2 0  2071 3824 2007
[38]  86(N05)  f 34  7  0   2590.0  1021998.4  0.1  2 0   432  206   40
[48]  37(B01)  1 19 10  0    546.7 20460020.6 -0.2  1 0  713  524  368
[49]  38(B02)  f 10 19  0  -1983.4 20460032.5 -0.1  2 0  486  486  873
[51]  40(B04)  1 19 20  0  -2047.2 20460024.3  0.1  1 0  232  298  581
[52]  43(B07)  1  7  7  0   -874.5 20460015.8 -0.0  1 0  706  406  660
[53]  44(B08)  1  7  7  0  -1765.8 20460021.7  0.0  1 0  408  305  426
[54]  46(B10)  1  7  7  0  -1352.6 20460023.5  0.1  1 0  271  801  794
[56]  49(B13)  1  7  7  0  -1468.2 20460030.3  0.0  1 0  141  277   67
[57]  62(B26)  1  7  7  0  -2410.7 20460055.6 -0.1  1 0  374  315  359
[58]  65(B29)  1  7  7  0    923.5 20459992.7 -0.0  1 0  303  123  571
$ini_pos,lastpos_good = 0,ini_pos.x:-0.000000,ini_pos.y:2150498990544607202280210432.000000,ini_pos.z:-0.000000
$GNGGA,070959.317,,,,,0,00,,,M,,,,0000*2C
$GNRMC,070959.317,A,,,,,,,070519,,*2B
$GPGSA,A,1,,,,,,,,,,,,,,,*1E
$BDGSA,A,1,,,,,,,,,,,,,,,*0F
$GLGSA,A,1,,,,,,,,,,,,,,,*02
$GPGSV,2,1,08,01,00,000,45,07,00,000,44,11,00,000,43,17,00,000,41*71
$GPGSV,2,2,08,18,00,000,43,22,00,000,38,28,00,000,43,30,00,000,46*78
$BDGSV,3,1,11,01,00,000,41,02,00,000,39,03,00,000,26,04,00,000,41*60
$BDGSV,3,2,11,07,00,000,43,08,00,000,43,10,00,000,43,13,00,000,42*64
$BDGSV,3,3,11,26,00,000,42,29,00,000,44,05,00,000,34*53
$B3CN0,0,36,0,0,0,0,0,0,0,0,0,0,0,0*79
---00000017--- Acq_st=7 0  2000-1-1 0:2:19 
[00]  00(G01)  f 45 11  0   -419.4  2046000.5 -0.0  2 0 3121 4261 1891
[01]  06(G07)  f 44  7  0   1562.1  2045997.9 -0.0  2 0 2214 3415 1560
[02]  10(G11)  f 44  7  0    633.2  2045999.1 -0.0  2 0 1636 3234 1808
[03]  16(G17)  f 41 11  0  -2541.4  2046003.2  0.0  2 0 1499 2064 1281
[04]  17(G18)  f 42  7  0   1237.6  2045998.3 -0.0  2 0 2256 3250 2023
[05]  21(G22)  f 38  7  0  -2649.2  2046003.4 -0.4  2 0  525 1454 1133
[06]  27(G28)  f 44  7  0  -2935.0  2046003.7  0.0  2 0 1700 2850 1504
[08]  29(G30)  f 45  7  0   -454.8  2046000.5  0.0  2 0 2854 4298 1961
[16]  37(B01) 1f 40 23  0  -1118.1  4092002.8 -0.3  2 0 1547 1518  554
[17]  38(B02) 1f 40 17  0  -1159.4  4092002.9  0.0  2 0 1240 1338  500
[18]  39(B03)  7 24 34  1  -1008.5  4092002.6 -0.0  2 0  376  685 1999
[19]  40(B04) 1f 41 24  0  -1128.3  4092002.9 -0.9  2 0  835 1370  658
[20]  43(B07) 1f 43  7  0  -1192.9  4092003.0  0.0  2 0 1725 2491 1035
[21]  44(B08) 1f 42  7  0  -1448.6  4092003.6  0.0  2 0 1301 1936  765
[22]  46(B10) 1f 43  7  0  -1543.1  4092003.9  0.0  2 0 2293 2831  751
[24]  49(B13) 1f 42  7  0  -1951.5  4092005.0 -0.1  2 0 1837 2567 1041
[25]  62(B26) 1f 43  7  0  -3492.4  4092009.0 -0.0  2 0 1784 2288 1327
[26]  65(B29) 1f 44  7  0    483.3  4091998.6  0.0  2 0 2027 2839 1077
[27]  41(B05) 1f 36 19  0  -1150.7  4092002.8  0.4  2 0 1225 1238  307
[32]  77(N-4)  f 46  7  0    415.4  1021999.7 -0.1  2 0  2317 4039 1788
[33]  79(N-2)  f 34  7  0   2621.9  1021998.3 -0.0  2 0   414  612  352
[34]  81(N00)  f 46  7  0  -2771.8  1022001.7  0.0  2 0  2581 4264 2021
[35]  82(N01)  f 36  7  0  -4967.1  1022003.1  0.1  2 0   827  923  356
[36]  83(N02)  f 38  7  0   2871.1  1021998.1  0.2  2 0   438  758  611
[37]  84(N03)  f 46  7  0  -3310.6  1022002.1  0.0  2 0  2179 3752 1622
[38]  86(N05)  f 34  7  0   2590.1  1021998.4 -0.1  2 0   146  223  316
[48]  37(B01)  1 18 10  0    290.1 20460017.4  0.1  1 0  527  735  178
[51]  40(B04)  1 22 19  1  -2099.9 20460023.1 -0.1  1 0  424  404  622
[52]  43(B07)  1  7  8  0  -1066.1 20460015.1  0.0  1 0  470  408  388
[53]  44(B08)  1  7  9  0  -1871.4 20460020.2 -0.2  1 0  373  401  832
[54]  46(B10)  1  7  7  0  -1136.4 20460023.5 -0.0  1 0  189  193  410
[56]  49(B13)  1  8  7  0  -1417.1 20460030.9 -0.0  1 0  984  954 1050
[57]  62(B26)  1  7  7  0  -2549.0 20460055.7  0.1  1 0  117  492  218
[58]  65(B29)  1  7  8  0    898.3 20459993.6  0.2  1 0  512  279  345
$ini_pos,lastpos_good = 0,ini_pos.x:-0.000000,ini_pos.y:2150498990544607202280210432.000000,ini_pos.z:-0.000000
$GNGGA,071000.317,,,,,0,00,,,M,,,,0000*28
$GNRMC,071000.317,A,,,,,,,070519,,*2F
$GPGSA,A,1,,,,,,,,,,,,,,,*1E
$BDGSA,A,1,,,,,,,,,,,,,,,*0F
$GLGSA,A,1,,,,,,,,,,,,,,,*02
$GPGSV,2,1,08,01,00,000,45,07,00,000,44,11,00,000,44,17,00,000,41*76
$GPGSV,2,2,08,18,00,000,42,22,00,000,38,28,00,000,44,30,00,000,45*7D
$BDGSV,3,1,11,01,00,000,40,02,00,000,40,03,00,000,24,04,00,000,41*6D
$BDGSV,3,2,11,07,00,000,43,08,00,000,42,10,00,000,43,13,00,000,42*65
$BDGSV,3,3,11,26,00,000,43,29,00,000,44,05,00,000,36*50
$B3CN0,0,0,0,0,0,0,0,0,0,0,0,0,0,0*4C
---00000018--- Acq_st=7 0  2000-1-1 0:2:20 
[00]  00(G01)  f 45  7  0   -420.9  2046000.5 -0.0  2 0 2982 4556 1794
[01]  06(G07)  f 44  7  0   1561.4  2045997.9 -0.0  2 0 2470 3759 1424
[02]  10(G11)  f 44  7  0    628.7  2045999.1  0.0  2 0 2282 2840  778
[03]  16(G17)  f 41  7  0  -2544.4  2046003.3 -0.0  2 0 1270 2103 1524
[04]  17(G18)  f 43  7  0   1237.1  2045998.3 -0.0  2 0 1844 2883 1419
[05]  21(G22)  f 38  8  0  -2654.3  2046003.4  0.1  2 0  688 1618  668
[06]  27(G28)  f 44  7  0  -2940.7  2046003.8 -0.0  2 0 1835 3130 1328
[08]  29(G30)  f 46  9  0   -454.1  2046000.5  0.0  2 0 2846 4603 2046
[16]  37(B01) 1f 41 10  0  -1119.6  4092002.7 -0.2  2 0 1248 1360  438
[17]  38(B02) 1f 40 24  0  -1160.6  4092002.9  0.8  2 0  905 1506  707
[18]  39(B03)  7 32 32  1  -1008.2  4092002.6 -0.0  2 0  838  303 2010
[19]  40(B04) 1f 41 10  0  -1136.1  4092003.0  0.4  2 0  630 1172  666
[20]  43(B07) 1f 43  7  0  -1194.9  4092003.0 -0.1  2 0 2262 2393  909
[21]  44(B08) 1f 42 11  0  -1448.7  4092003.7  0.0  2 0 1598 1965  888
[22]  46(B10) 1f 43  7  0  -1546.6  4092004.0  0.0  2 0 1852 2291  954
[24]  49(B13) 1f 42  9  0  -1957.6  4092005.0 -0.0  2 0 1553 1943  673
[25]  62(B26) 1f 43  7  0  -3491.4  4092009.0  0.0  2 0 1412 2035 1020
[26]  65(B29) 1f 44  7  0    478.7  4091998.6  0.0  2 0 2387 3151 1606
[27]  41(B05) 1f 34 20  0  -1154.9  4092002.8  0.4  2 0 1404 1343  432
[32]  77(N-4)  f 47  7  0    412.4  1021999.7 -0.0  2 0  2578 4072 1977
[33]  79(N-2)  f 35  8  0   2617.6  1021998.2  0.0  2 0   626  642  541
[34]  81(N00)  f 47  7  0  -2774.9  1022001.7 -0.0  2 0  2126 3931 1797
[35]  82(N01)  f 36  7  0  -4971.9  1022003.1  0.0  2 0   379  711  555
[36]  83(N02)  f 38  7  0   2868.1  1021998.1 -0.4  2 0   452  821  584
[37]  84(N03)  f 46  7  0  -3314.0  1022002.1  0.0  2 0  2226 3915 1676
[38]  86(N05)  f 34  7  0   2590.1  1021998.4  0.0  2 0   376  688  715
[48]  37(B01)  1 10 19  0    106.1 20460026.3  0.1  1 0  464  705  744
[49]  38(B02)  1 17 19  1  -1116.3 20460022.2 -0.2  1 0  553  376  116
[51]  40(B04)  1 20 23  0  -1938.7 20460023.2  0.1  1 0  551  846  681
[52]  43(B07)  1 11  7  0  -1027.6 20460016.3  0.0  1 0  674  606   76
[53]  44(B08)  1  7  7  0  -1817.9 20460021.2 -0.3  1 0  263  123  237
[54]  46(B10)  1  7  7  0  -1821.1 20460023.2 -0.1  1 0  406  396  147
[56]  49(B13)  1  7  7  0  -1358.1 20460030.9  0.0  1 0  276  567  575
[57]  62(B26)  1  7  7  0  -3201.4 20460055.3 -0.1  1 0  485  136  246
[58]  65(B29)  1  7  7  0    519.8 20459993.1 -0.1  1 0  392  108  412
[59]  41(B05)  1 24 24  0   -643.3 20460019.0  0.0  1 0  190  248  604
$ini_pos,lastpos_good = 0,ini_pos.x:-0.000000,ini_pos.y:2150498990544607202280210432.000000,ini_pos.z:-0.000000
$GNGGA,071001.317,,,,,0,00,,,M,,,,0000*29
$GNRMC,071001.317,A,,,,,,,070519,,*2E
$GPGSA,A,1,,,,,,,,,,,,,,,*1E
$BDGSA,A,1,,,,,,,,,,,,,,,*0F
$GLGSA,A,1,,,,,,,,,,,,,,,*02
$GPGSV,2,1,08,01,00,000,45,07,00,000,44,11,00,000,44,17,00,000,41*76
$GPGSV,2,2,08,18,00,000,43,22,00,000,38,28,00,000,44,30,00,000,46*7F
$BDGSV,3,1,11,01,00,000,41,02,00,000,40,03,00,000,32,04,00,000,41*6B
$BDGSV,3,2,11,07,00,000,43,08,00,000,42,10,00,000,43,13,00,000,42*65
$BDGSV,3,3,11,26,00,000,43,29,00,000,44,05,00,000,35*53
$B3CN0,0,0,0,0,0,0,0,0,0,0,0,0,0,0*4C
---00000019--- Acq_st=7 0  2000-1-1 0:2:21 
[00]  00(G01)  f 45  7  0   -414.6  2046000.5 -0.0  2 0 3013 4668 1693
[01]  06(G07)  f 44  7  0   1567.5  2045997.9  0.0  2 0 2032 3242 1304
[02]  10(G11)  f 44  7  0    630.7  2045999.1 -0.0  2 0 2527 3897 1429
[03]  16(G17)  f 41  7  0  -2545.2  2046003.2  0.0  2 0  982 1218  244
[04]  17(G18)  f 43  7  0   1241.1  2045998.3 -0.1  2 0 1715 2759 1358
[05]  21(G22)  f 38  7  0  -2642.8  2046003.4 -0.1  2 0 1170 1673  655
[06]  27(G28)  f 43  7  0  -2934.2  2046003.7  0.0  2 0 2068 3459 1827
[08]  29(G30)  f 45  7  0   -450.6  2046000.5 -0.0  2 0 3035 4453 1773
[16]  37(B01) 1f 40 19  0  -1113.5  4092002.8 -0.3  2 0  656  947  329
[17]  38(B02) 1f 41 23  0  -1162.8  4092002.9  0.6  2 0  884  814  420
[18]  39(B03)  7 24 32  1  -1021.9  4092002.8 -0.1  2 0  564  830 1682
[19]  40(B04) 1f 41 23  0  -1127.9  4092002.9 -0.2  2 0 1264 1639  668
[20]  43(B07) 1f 43  7  0  -1192.6  4092003.0 -0.0  2 0 2081 2445 1435
[21]  44(B08) 1f 42  7  0  -1445.8  4092003.7 -0.0  2 0 1188 1665  815
[22]  46(B10) 1f 43  7  0  -1542.7  4092003.9  0.0  2 0 2046 2826 1058
[24]  49(B13) 1f 43  7  0  -1953.4  4092005.0  0.0  2 0 1245 2024 1154
[25]  62(B26) 1f 43  7  0  -3490.8  4092009.0 -0.0  2 0 1714 2286  931
[26]  65(B29) 1f 45  9  0    485.7  4091998.6  0.0  2 0 2176 2969 1034
[27]  41(B05) 1f 36 20  0  -1143.6  4092002.9  0.5  2 0  436  608  362
[32]  77(N-4) 8f 47  7  0    417.2  1021999.7  0.1  2 0  2442 4363 2078
[33]  79(N-2) 8f 35  7  0   2622.3  1021998.3 -0.0  2 0   319  689  147
[34]  81(N00) 8f 47  7  0  -2769.7  1022001.7  0.0  2 0  2341 4400 2294
[35]  82(N01) 8f 36  7  0  -4968.6  1022003.2 -0.1  2 0   750  821  163
[36]  83(N02) 8f 38  9  0   2872.2  1021998.1  0.2  2 0   503 1158  688
[37]  84(N03) 8f 47  7  0  -3309.7  1022002.1 -0.1  2 0  1912 3716 2146
[38]  86(N05) 8f 35  7  0   2597.2  1021998.4  0.1  2 0    77  604  530
[49]  38(B02)  1 18 10  1  -1219.7 20460021.3 -0.1  1 0  256  198  475
[52]  43(B07)  1  7  7  0  -1197.6 20460016.2  0.2  1 0  295  302   31
[57]  62(B26)  1  7  7  0  -3817.3 20460056.7 -0.0  1 0  512  345  701
[58]  65(B29)  1  7  7  0    729.5 20459993.0  0.0  1 0  400  297  369
[59]  41(B05)  1 24 23  0   -882.7 20460013.8 -0.1  1 0  399  477  487
$ini_pos,lastpos_good = 0,ini_pos.x:-0.000000,ini_pos.y:2150498990544607202280210432.000000,ini_pos.z:-0.000000
$GNGGA,071002.317,,,,,0,00,,,M,,,,0000*2A
$GNRMC,071002.317,A,,,,,,,070519,,*2D
$GPGSA,A,1,,,,,,,,,,,,,,,*1E
$BDGSA,A,1,,,,,,,,,,,,,,,*0F
$GLGSA,A,1,,,,,,,,,,,,,,,*02
$GPGSV,2,1,08,01,00,000,45,07,00,000,44,11,00,000,44,17,00,000,41*76
$GPGSV,2,2,08,18,00,000,43,22,00,000,38,28,00,000,43,30,00,000,45*7B
$BDGSV,3,1,11,01,00,000,40,02,00,000,41,03,00,000,24,04,00,000,41*6C
$BDGSV,3,2,11,07,00,000,43,08,00,000,42,10,00,000,43,13,00,000,43*64
$BDGSV,3,3,11,26,00,000,43,29,00,000,45,05,00,000,36*51
$B3CN0,0,0,0,0,0,0,0,0,0,0,0,0,0,0*4C
---00000020--- Acq_st=3 0  2000-1-1 0:2:22 
[00]  00(G01)  f 45  7  0   -414.8  2046000.5 -0.0  2 0 2557 4608 2436
[01]  06(G07)  f 45  7  0   1564.6  2045997.9 -0.0  2 0 2649 3895 1636
[02]  10(G11)  f 44  7  0    633.2  2045999.1  0.0  2 0 2609 3845 2045
[03]  16(G17)  f 42  7  0  -2539.4  2046003.2  0.0  2 0 1218 2279 1159
[04]  17(G18)  f 43  7  0   1238.9  2045998.3 -0.0  2 0 1789 3004 1644
[05]  21(G22)  f 38  7  0  -2648.3  2046003.4 -0.0  2 0  753 1531  557
[06]  27(G28)  f 43  7  0  -2934.2  2046003.7 -0.1  2 0 1959 2818 1019
[08]  29(G30)  f 45  7  0   -451.4  2046000.5  0.0  2 0 2843 4825 2372
[09]  02(G03)  1 12  7  0  -3544.1  2046005.7  0.0  1 0  368  498  963
[10]  07(G08)  1  7  7  0   1500.0  2045999.7  0.1  1 0  519  942  544
[16]  37(B01) 1f 40 18  0  -1115.2  4092002.9 -0.3  2 0 1142 1213  228
[17]  38(B02) 1f 40 24  0  -1159.0  4092002.9  0.1  2 0 1080 1701  797
[18]  39(B03)  7 18 33  1  -1005.1  4092002.7  0.2  2 0  178  256 1535
[19]  40(B04) 1f 41 10  0  -1127.6  4092002.7 -0.4  2 0 1192 1196  195
[20]  43(B07) 1f 43  7  0  -1191.1  4092003.0  0.0  2 0 2032 2771 1426
[21]  44(B08) 1f 42  7  0  -1445.0  4092003.7 -0.0  2 0 1642 2438 1504
[22]  46(B10) 1f 43  7  0  -1539.1  4092003.9 -0.0  2 0 1563 2063  887
[24]  49(B13) 1f 42  7  0  -1950.2  4092005.0  0.1  2 0 1497 1927  778
[25]  62(B26) 1f 42  7  0  -3491.5  4092009.0  0.0  2 0 1743 2014  719
[26]  65(B29) 1f 44  7  0    483.5  4091998.6 -0.0  2 0 2592 3918 1870
[27]  41(B05) 1f 36 10  0  -1152.2  4092002.8  0.1  2 0 1145 1551  753
[32]  77(N-4) 8f 47  7  0    417.3  1021999.7 -0.0  2 0  2438 4291 2027
[33]  79(N-2) 8f 35 11  0   2620.8  1021998.3  0.0  2 0   891  690  317
[34]  81(N00) 8f 47  7  0  -2769.0  1022001.7 -0.0  2 0  2512 4056 1766
[35]  82(N01) 8f 36  7  0  -4967.6  1022003.1 -0.2  2 0   308  580  290
[36]  83(N02) 8f 38  7  0   2871.8  1021998.1 -0.1  2 0   554  638  256
[37]  84(N03) 8f 47  7  0  -3308.3  1022002.1  0.0  2 0  1886 3358 1606
[38]  86(N05) 8f 34  7  0   2593.5  1021998.3  0.1  2 0   934  847  425
[48]  37(B01)  1 10 17  0   -988.2 20460018.9 -0.1  1 0  246  558  157
[49]  38(B02)  7 10 10  0  -1851.8 20460029.8 -0.1  2 0  348  484  408
[51]  40(B04)  1 14 23  1  -1403.6 20460016.9  0.1  1 0  698  192  461
[53]  44(B08)  1  7  7  0   -760.4 20460022.5  0.0  1 0  603  396  847
[54]  46(B10)  1  7  7  0  -1229.1 20460024.4 -0.1  1 0  233  475  127
[56]  49(B13)  1  7  7  0  -1412.8 20460032.2 -0.1  1 0  559  228  341
[59]  41(B05)  1 16 19  1   -615.1 20460021.1 -0.1  1 0  456  422  310
$ini_pos,lastpos_good = 0,ini_pos.x:-0.000000,ini_pos.y:2150498990544607202280210432.000000,ini_pos.z:-0.000000
$GNGGA,071003.317,,,,,0,00,,,M,,,,0000*2B
$GNRMC,071003.317,A,,,,,,,070519,,*2C
$GPGSA,A,1,,,,,,,,,,,,,,,*1E
$BDGSA,A,1,,,,,,,,,,,,,,,*0F
$GLGSA,A,1,,,,,,,,,,,,,,,*02
$GPGSV,2,1,08,01,00,000,45,07,00,000,45,11,00,000,44,17,00,000,42*74
$GPGSV,2,2,08,18,00,000,43,22,00,000,38,28,00,000,43,30,00,000,45*7B
$BDGSV,3,1,11,01,00,000,40,02,00,000,39,03,00,000,18,04,00,000,41*6C
$BDGSV,3,2,11,07,00,000,43,08,00,000,42,10,00,000,43,13,00,000,42*65
$BDGSV,3,3,11,26,00,000,42,29,00,000,44,05,00,000,36*51
$B3CN0,0,0,0,0,0,0,0,0,0,0,0,0,0,0*4C
---00000021--- Acq_st=3 0  2000-1-1 0:2:23 
[00]  00(G01)  f 45  7  0   -416.9  2046000.5 -0.0  2 0 2686 4100 1857
[01]  06(G07)  f 45  7  0   1562.0  2045997.9 -0.0  2 0 2448 3782 1692
[02]  10(G11)  f 44  7  0    629.2  2045999.1  0.1  2 0 2717 3513 1346
[03]  16(G17)  f 42  7  0  -2542.1  2046003.2  0.1  2 0 1762 1955  446
[04]  17(G18)  f 43  7  0   1237.1  2045998.3  0.1  2 0 2714 3251 1434
[05]  21(G22)  f 38  7  0  -2648.9  2046003.4  0.1  2 0  765 1166  410
[06]  27(G28)  f 43  7  0  -2938.4  2046003.8 -0.0  2 0 2070 2773  941
[08]  29(G30)  f 45  7  0   -452.9  2046000.5 -0.0  2 0 2222 4224 1928
[09]  02(G03)  7 21  7  0  -3592.2  2046004.7  0.3 10 0  354 1101  792
[10]  07(G08)  1 29  7  0   1401.6  2045998.2  0.7  1 0  789 1194  501
[11]  18(G19)  1  7  7  0  -3669.9  2046005.9 -0.0  1 0  379  964  744
[16]  37(B01) 1f 41 19  0  -1117.5  4092002.7 -0.0  2 0  993 1251  412
[17]  38(B02) 1f 39 19  0  -1159.0  4092002.9 -0.3  2 0 1172 1574  769
[18]  39(B03)  7 19 34  1  -1009.3  4092002.6  0.1  2 0  430  270 1413
[19]  40(B04) 1f 41 21  0  -1131.1  4092002.9 -0.6  2 0  924 1494  223
[20]  43(B07) 1f 43  7  0  -1193.1  4092003.0  0.0  2 0 1640 1976  791
[21]  44(B08) 1f 42  8  0  -1447.7  4092003.7  0.0  2 0 1676 2398 1063
[22]  46(B10) 1f 43  9  0  -1542.2  4092003.9  0.0  2 0 2576 3222 1725
[24]  49(B13) 1f 42  9  0  -1956.8  4092005.0 -0.0  2 0 1472 2187  864
[25]  62(B26) 1f 43  7  0  -3494.6  4092009.0 -0.0  2 0 1725 2320 1364
[26]  65(B29) 1f 44  7  0    480.0  4091998.6  0.0  2 0 2852 3525 1491
[27]  41(B05) 1f 35 22  0  -1153.0  4092002.8 -0.2  2 0  648  894  246
[32]  77(N-4) 8f 47  7  0    414.9  1021999.7 -0.0  2 0  2336 3981 1712
[33]  79(N-2) 8f 35  7  0   2619.5  1021998.3 -0.0  2 0   164  267  143
[34]  81(N00) 8f 47  7  0  -2771.3  1022001.7 -0.0  2 0  2243 4259 2046
[35]  82(N01) 8f 36  7  0  -4965.5  1022003.1 -0.0  2 0   485  691  349
[36]  83(N02) 8f 37  7  0   2865.6  1021998.1  0.2  2 0   423  311  198
[37]  84(N03) 8f 46  7  0  -3310.6  1022002.1 -0.0  2 0  2153 3658 1803
[38]  86(N05) 8f 35  8  0   2593.2  1021998.3  0.0  2 0   573  644  152
[48]  37(B01)  1 10 10  1   -894.7 20460020.9 -0.3  1 0  260  199  592
[49]  38(B02)  7 36 10  0  -2018.9 20460032.3 -0.1  2 0  283  383   52
[51]  40(B04)  1 22 22  1  -1062.0 20460021.1  0.1  1 0  562  461  389
[52]  43(B07)  1  7  7  0   -703.6 20460014.7  0.2  1 0  245  948  602
[53]  44(B08)  1  7  7  0  -1098.0 20460020.2 -0.0  1 0   95  292  119
[54]  46(B10)  1  7  7  0  -1022.6 20460025.5  0.0  1 0  393  717  697
[56]  49(B13)  1  7  7  0  -1441.1 20460032.6 -0.2  1 0  634  402  458
[57]  62(B26)  1  7  8  0  -2668.6 20460057.8  0.1  1 0  794 1026  485
[58]  65(B29)  1  7  7  0    626.9 20459993.7 -0.1  1 0  230  651  496
[59]  41(B05)  1 25 22  1   -844.9 20460023.0  0.0  1 0  731  395  756
$ini_pos,lastpos_good = 0,ini_pos.x:-0.000000,ini_pos.y:2150498990544607202280210432.000000,ini_pos.z:-0.000000
$GNGGA,071004.317,,,,,0,00,,,M,,,,0000*2C
$GNRMC,071004.317,A,,,,,,,070519,,*2B
$GPGSA,A,1,,,,,,,,,,,,,,,*1E
$BDGSA,A,1,,,,,,,,,,,,,,,*0F
$GLGSA,A,1,,,,,,,,,,,,,,,*02
$GPGSV,3,1,09,01,00,000,45,07,00,000,45,11,00,000,44,17,00,000,42*74
$GPGSV,3,2,09,18,00,000,43,22,00,000,38,28,00,000,43,30,00,000,45*7B
$GPGSV,3,3,09,03,00,000,21*40
$BDGSV,3,1,11,01,00,000,41,02,00,000,39,03,00,000,19,04,00,000,41*6C
$BDGSV,3,2,11,07,00,000,43,08,00,000,42,10,00,000,43,13,00,000,42*65
$BDGSV,3,3,11,26,00,000,43,29,00,000,44,05,00,000,35*53
$B3CN0,0,36,0,0,0,0,0,0,0,0,0,0,0,0*79
---00000022--- Acq_st=3 0  2000-1-1 0:2:24 
[00]  00(G01)  f 45  7  0   -415.7  2046000.5  0.0  2 0 2590 4448 2381
[01]  06(G07)  f 45  7  0   1566.9  2045997.9  0.0  2 0 2641 4080 2258
[02]  10(G11)  f 44  8  0    633.5  2045999.1  0.0  2 0 2033 3377 1825
[03]  16(G17)  f 41  7  0  -2536.5  2046003.2 -0.0  2 0  761 1976 1471
[04]  17(G18)  f 44  7  0   1240.8  2045998.3  0.0  2 0 1901 2704 1106
[05]  21(G22)  f 38  7  0  -2643.4  2046003.3  0.1  2 0  531 1124  546
[06]  27(G28)  f 43  7  0  -2935.9  2046003.8 -0.0  2 0 2183 3004 1365
[08]  29(G30)  f 45  7  0   -450.7  2046000.5  0.0  2 0 2650 4709 2037
[09]  02(G03)  7 36  7  0  -3583.2  2046004.7  0.4  2 0  702 1220  672
[10]  07(G08)  7 33  7  0   1402.7  2045998.0  0.2  5 0 1068 1103  554
[11]  18(G19)  7 20  7  0  -3704.5  2046004.9 -0.1 10 0  106  506  683
[16]  37(B01) 1f 41 19  0  -1110.8  4092002.8  0.1  2 0 1061 1290  409
[17]  38(B02) 1f 40 20  0  -1160.0  4092002.9 -0.5  2 0  861 1519  603
[18]  39(B03)  7 23 33  1  -1005.1  4092002.6  0.2  2 0   30  143  208
[19]  40(B04) 1f 40 10  0  -1129.5  4092002.8  0.2  2 0 1431 2000 1024
[20]  43(B07) 1f 43  7  0  -1191.9  4092003.0 -0.0  2 0 1948 2324  679
[21]  44(B08) 1f 42  7  0  -1447.0  4092003.7 -0.0  2 0 1532 2326 1526
[22]  46(B10) 1f 44  7  0  -1543.7  4092003.9 -0.1  2 0 2162 2593  727
[24]  49(B13) 1f 42  7  0  -1953.0  4092005.0  0.0  2 0 1531 2025  647
[25]  62(B26) 1f 42  7  0  -3490.3  4092009.0 -0.0  2 0 1810 2268 1172
[26]  65(B29) 1f 44  8  0    483.3  4091998.6  0.0  2 0 2391 3078 1171
[27]  41(B05) 1f 35 14  0  -1150.9  4092002.9 -0.2  2 0 1095  712  618
[32]  77(N-4) 8f 47  7  0    418.0  1021999.7  0.0  2 0  2453 4189 2198
[33]  79(N-2) 8f 34 11  0   2624.2  1021998.3  0.0  2 0   461  705  616
[34]  81(N00) 8f 47  7  0  -2767.9  1022001.7  0.0  2 0  2775 4475 2156
[35]  82(N01) 8f 35  7  0  -4966.5  1022003.1 -0.0  2 0   516  874  758
[36]  83(N02) 8f 37  7  0   2873.0  1021998.2  0.2  2 0   233  974  760
[37]  84(N03) 8f 46  7  0  -3307.3  1022002.1 -0.0  2 0  2093 3355 1621
[38]  86(N05) 8f 35 10  0   2592.9  1021998.4 -0.2  2 0   630  437  265
[48]  37(B01)  7 10 10  0   -716.1 20460010.6 -0.2  2 0  247  337  270
[49]  38(B02)  7 17 20  1  -2035.5 20460033.7  0.0  2 0  494  275  261
[51]  40(B04)  1 10 18  0  -1396.2 20460025.1  0.3  1 0  591  548  812
[52]  43(B07)  1  9  7  0    291.7 20460016.1 -0.1  1 0  410  203  212
[53]  44(B08)  1  7 10  0  -1469.7 20460022.3 -0.1  1 0  195  228   29
[54]  46(B10)  1  7  7  0   -989.3 20460022.8  0.0  1 0  315  291  136
[56]  49(B13)  1  7  7  0  -1270.9 20460032.8 -0.0  1 0  124  217  171
[57]  62(B26)  1  8  7  0  -2820.2 20460055.7 -0.2  1 0  429  612  475
[58]  65(B29)  1  8  7  0   -120.7 20459993.1 -0.0  1 0  649  252  155
$ini_pos,lastpos_good = 0,ini_pos.x:-0.000000,ini_pos.y:2150498990544607202280210432.000000,ini_pos.z:-0.000000
$GNGGA,071005.317,,,,,0,00,,,M,,,,0000*2D
$GNRMC,071005.317,A,,,,,,,070519,,*2A
$GPGSA,A,1,,,,,,,,,,,,,,,*1E
$BDGSA,A,1,,,,,,,,,,,,,,,*0F
$GLGSA,A,1,,,,,,,,,,,,,,,*02
$GPGSV,3,1,11,01,00,000,45,07,00,000,45,11,00,000,44,17,00,000,41*7E
$GPGSV,3,2,11,18,00,000,44,22,00,000,38,28,00,000,43,30,00,000,45*75
$GPGSV,3,3,11,03,00,000,36,08,00,000,33,19,00,000,19*47
$BDGSV,3,1,11,01,00,000,41,02,00,000,40,03,00,000,23,04,00,000,40*6A
$BDGSV,3,2,11,07,00,000,43,08,00,000,42,10,00,000,44,13,00,000,42*62
$BDGSV,3,3,11,26,00,000,42,29,00,000,44,05,00,000,35*52
$B3CN0,0,19,0,0,0,0,0,0,0,0,0,0,0,0*74
---00000023--- Acq_st=3 0  2000-1-1 0:2:25 
[00]  00(G01)  f 45  8  0   -416.8  2046000.5  0.0  2 0 2384 4241 1715
[01]  06(G07)  f 44  8  0   1563.0  2045997.9 -0.0  2 0 2900 3878 2008
[02]  10(G11)  f 43  7  0    628.7  2045999.1  0.0  2 0 1938 3027 1493
[03]  16(G17)  f 41  7  0  -2542.8  2046003.2  0.1  2 0 1203 2121 1839
[04]  17(G18)  f 44  7  0   1235.8  2045998.3  0.1  2 0 1765 2721 1750
[05]  21(G22)  f 38  7  0  -2649.2  2046003.4  0.0  2 0  678 1505  433
[06]  27(G28)  f 43  7  0  -2940.1  2046003.8 -0.0  2 0 1910 3577 2044
[08]  29(G30)  f 45  7  0   -453.6  2046000.5  0.0  2 0 2266 4501 2289
[09]  02(G03)  7 34  7  0  -3596.0  2046004.6 -0.2  2 0  813 1482  598
[10]  07(G08)  7 34  9  0   1393.3  2045998.1 -0.2  2 0  460  779  394
[11]  18(G19)  7 35  7  0  -3708.3  2046004.9 -0.4  2 0  103  564  486
[16]  37(B01) 1f 41 10  0  -1117.9  4092002.8 -0.2  2 0 1330 1588  960
[17]  38(B02) 1f 40 18  0  -1162.3  4092002.9  0.3  2 0 1478 1616  540
[18]  39(B03)  7 24 33  1  -1006.5  4092002.6  0.1  2 0  418  194 1012
[19]  40(B04) 1f 40 22  0  -1136.5  4092003.0  0.4  2 0  795 1379  757
[20]  43(B07) 1f 43  7  0  -1198.3  4092003.0 -0.0  2 0 2499 2745  870
[21]  44(B08) 1f 42  9  0  -1451.2  4092003.7  0.0  2 0 1420 1811  381
[22]  46(B10) 1f 43  8  0  -1545.6  4092003.9  0.0  2 0 1799 2605 1192
[24]  49(B13) 1f 42  8  0  -1958.6  4092005.0  0.1  2 0 1735 2001  525
[25]  62(B26) 1f 42  7  0  -3494.8  4092009.0 -0.0  2 0 1704 2321 1265
[26]  65(B29) 1f 44  8  0    479.3  4091998.6 -0.0  2 0 3259 3163  949
[27]  41(B05) 1f 35 23  0  -1163.0  4092002.9  0.4  2 0  646 1066  633
[32]  77(N-4) 8f 47  7  0    414.3  1021999.7 -0.0  2 0  2186 3981 1779
[33]  79(N-2) 8f 34 12  0   2617.5  1021998.3 -0.2  2 0   199  452   96
[34]  81(N00) 8f 47  7  0  -2772.3  1022001.7 -0.0  2 0  2468 4421 2081
[35]  82(N01) 8f 36  7  0  -4969.6  1022003.1 -0.1  2 0   423 1067  540
[36]  83(N02) 8f 37  7  0   2868.8  1021998.1  0.4  2 0   809 1190  761
[37]  84(N03) 8f 46  7  0  -3312.1  1022002.1 -0.0  2 0  1926 3764 2017
[38]  86(N05) 8f 35  7  0   2589.2  1021998.2  0.0  2 0   148  711  430
[48]  37(B01)  7 23 10  1  -1285.2 20460022.5 -0.1  2 0  357  143  485
[49]  38(B02)  7 10 10  1  -2908.6 20460048.1 -0.1  2 0  347  331  325
[51]  40(B04)  1 10 23  0  -1342.7 20460015.6  0.1  1 0  495  388   57
[52]  43(B07)  1  7  7  0   -353.9 20460019.0 -0.1  1 0  110  813  818
[53]  44(B08)  1  7  7  0  -1330.8 20460021.9  0.0  1 0  653 1000  196
[54]  46(B10)  1  7  7  0   -535.4 20460024.2 -0.2  1 0  518  943  420
[56]  49(B13)  1  7  7  0  -1842.2 20460032.0 -0.1  1 0  471  180  175
[57]  62(B26)  1  7  7  0  -2148.2 20460055.6  0.2  1 0  425  340  725
[58]  65(B29)  1  7  7  0   -244.1 20459993.8 -0.2  1 0  133  264  376
$ini_pos,lastpos_good = 0,ini_pos.x:-0.000000,ini_pos.y:2150498990544607202280210432.000000,ini_pos.z:-0.000000
$GNGGA,071006.317,,,,,0,00,,,M,,,,0000*2E
$GNRMC,071006.317,A,,,,,,,070519,,*29
$GPGSA,A,1,,,,,,,,,,,,,,,*1E
$BDGSA,A,1,,,,,,,,,,,,,,,*0F
$GLGSA,A,1,,,,,,,,,,,,,,,*02
$GPGSV,3,1,11,01,00,000,45,07,00,000,44,11,00,000,43,17,00,000,41*78
$GPGSV,3,2,11,18,00,000,44,22,00,000,38,28,00,000,43,30,00,000,45*75
$GPGSV,3,3,11,03,00,000,34,08,00,000,34,19,00,000,35*4C
$BDGSV,3,1,11,01,00,000,41,02,00,000,40,03,00,000,25,04,00,000,40*6C
$BDGSV,3,2,11,07,00,000,43,08,00,000,42,10,00,000,43,13,00,000,42*65
$BDGSV,3,3,11,26,00,000,42,29,00,000,44,05,00,000,35*52
$B3CN0,23,0,0,0,0,0,0,0,0,0,0,0,0,0*7D
---00000024--- Acq_st=3 0  2000-1-1 0:2:26 
[00]  00(G01)  f 45  7  0   -419.2  2046000.5  0.0  2 0 2609 4396 2624
[01]  06(G07)  f 44  7  0   1560.3  2045997.9  0.0  2 0 2237 3786 2234
[02]  10(G11)  f 44 12  0    627.7  2045999.1 -0.0  2 0 1498 2331 1553
[03]  16(G17)  f 42  7  0  -2545.3  2046003.3  0.0  2 0 2178 2541 1065
[04]  17(G18)  f 44  7  0   1236.3  2045998.3  0.0  2 0 1071 2503 1206
[05]  21(G22)  f 37  7  0  -2656.3  2046003.4  0.1  2 0  904 1348  838
[06]  27(G28)  f 43  7  0  -2941.3  2046003.8  0.0  2 0 2318 3280 1768
[08]  29(G30)  f 45  7  0   -455.1  2046000.5  0.0  2 0 2833 4379 2010
[09]  02(G03)  7 35  7  0  -3599.5  2046004.7 -0.0  2 0 1149 1366  947
[10]  07(G08)  7 33  7  0   1379.5  2045998.2  0.1  2 0  651  750  171
[11]  18(G19)  7 35  7  0  -3708.7  2046004.8  0.1  2 0  503  962  558
[16]  37(B01) 1f 41 13  0  -1119.3  4092002.8 -0.2  2 0  847 1444  784
[17]  38(B02) 1f 40 22  0  -1164.6  4092003.0  0.2  2 0 1060 1546  644
[18]  39(B03)  7 19 32  1  -1003.7  4092002.7 -0.0  2 0  199  256  584
[19]  40(B04) 1f 40 17  0  -1136.8  4092002.8 -0.3  2 0 1381 1633  645
[20]  43(B07) 1f 43  7  0  -1197.3  4092003.0 -0.0  2 0 1730 2110  753
[21]  44(B08) 1f 42  7  0  -1455.2  4092003.7 -0.0  2 0 1716 2443 1564
[22]  46(B10) 1f 43  7  0  -1548.0  4092003.9 -0.0  2 0 1512 2201 1215
[24]  49(B13) 1f 42  7  0  -1954.2  4092005.0 -0.0  2 0 1539 2118  943
[25]  62(B26) 1f 43  7  0  -3494.1  4092009.1  0.0  2 0 1985 2591 1168
[26]  65(B29) 1f 44  7  0    478.0  4091998.6 -0.0  2 0 2427 3198 1523
[27]  41(B05) 1f 35 20  0  -1157.5  4092002.9 -0.4  2 0  992  784  327
[32]  77(N-4) 8f 46  7  0    412.3  1021999.7  0.0  2 0  2276 4057 1930
[33]  79(N-2) 8f 35 10  0   2613.4  1021998.3 -0.0  2 0    89  252  331
[34]  81(N00) 8f 47  7  0  -2773.8  1022001.7 -0.0  2 0  2344 4315 2156
[35]  82(N01) 8f 36  7  0  -4974.5  1022003.1 -0.2  2 0   367  798  546
[36]  83(N02) 8f 37  7  0   2865.2  1021998.1 -0.1  2 0   601  911  614
[37]  84(N03) 8f 46  7  0  -3313.7  1022002.1  0.0  2 0  1991 3532 1572
[38]  86(N05) 8f 34  7  0   2585.8  1021998.4 -0.1  2 0    68  400  310
[48]  37(B01)  7 18 13  1  -1962.0 20460031.8 -0.0  2 0  291  539  544
[52]  43(B07)  1  8  7  0   -366.3 20460016.7 -0.1  1 0  476  163  352
[57]  62(B26)  1  7  7  0  -1690.4 20460056.2  0.1  1 0  363  377  297
[58]  65(B29)  1  7  7  0   -735.7 20459992.2  0.1  1 0  208  407  318
$ini_pos,lastpos_good = 0,ini_pos.x:-0.000000,ini_pos.y:2150498990544607202280210432.000000,ini_pos.z:-0.000000
