SD initialized success
Create debug.log Failed! 3
bbram_blkflag = 1
rtcflag = 0
BBRAM Block OK: 01 EPHflag: 28250465 240012cf, rtc 00
Hot-start nowtime:day = 16,minute = 11,seconds = 19.00
GPS 0 Init Dop:  2413, 2
GPS 1 Init Dop: 10000,80
GPS 2 Init Dop: -1123, 2
GPS 3 Init Dop: 10000,80
GPS 4 Init Dop: 10000,80
GPS 5 Init Dop: -3436, 2
GPS 6 Init Dop:  2595, 2
GPS 7 Init Dop: 10000,80
GPS 8 Init Dop: 10000,80
GPS 9 Init Dop: 10000,80
GPS10 Init Dop:  2130, 2
GPS11 Init Dop: 10000,80
GPS12 Init Dop: 10000,80
GPS13 Init Dop: 10000,80
GPS14 Init Dop: 10000,80
GPS15 Init Dop: 10000,80
GPS16 Init Dop: -1468, 2
GPS17 Init Dop: 10000,80
GPS18 Init Dop: -2430, 2
GPS19 Init Dop: 10000,80
GPS20 Init Dop: 10000,80
GPS21 Init Dop:   410, 2
GPS22 Init Dop: 10000,80
GPS23 Init Dop: 10000,80
GPS24 Init Dop: 10000,80
GPS25 Init Dop: 10000,80
GPS26 Init Dop: 10000,80
GPS27 Init Dop: -1361, 2
GPS28 Init Dop: 10000,80
GPS29 Init Dop:  2313, 2
GPS30 Init Dop: 10000,80
GPS31 Init Dop: 10000,80
BDS 0 Init Dop:  -859, 2
BDS 1 Init Dop:  -920, 2
BDS 2 Init Dop:  -877, 2
BDS 3 Init Dop:  -879, 2
BDS 4 Init Dop: 10000,80
BDS 5 Init Dop: 10000,80
BDS 6 Init Dop:  -266, 2
BDS 7 Init Dop:  -491, 2
BDS 8 Init Dop: 10000,80
BDS 9 Init Dop:  -767, 2
BDS10 Init Dop: 10000,80
BDS11 Init Dop: 10000,80
BDS12 Init Dop:  -946, 2
BDS13 Init Dop: 10000,80
BDS14 Init Dop: 10000,80
BDS15 Init Dop: 10000,80
BDS16 Init Dop: 10000,80
BDS17 Init Dop: 10000,80
BDS18 Init Dop: 10000,80
BDS19 Init Dop: 10000,80
BDS20 Init Dop: 10000,80
BDS21 Init Dop: 10000,80
BDS22 Init Dop: 10000,80
BDS23 Init Dop: 10000,80
BDS24 Init Dop: 10000,80
BDS25 Init Dop: 10000,80
BDS26 Init Dop:   848, 2
BDS27 Init Dop: 10000,80
BDS28 Init Dop: 10000,80
BDS29 Init Dop: -1033, 2
BDS30 Init Dop: 10000,80
BDS31 Init Dop: 10000,80
Good luck!
$ini_pos,lastpos_good = 1,ini_pos.x:-1578918.000000,ini_pos.y:5312777.000000,ini_pos.z:3146360.000000
$rtc_local_time,localRTC.weeks:2053,localRTC.seconds:375098.025980,localGtime.weeks:0,localGtime.seconds:19.025977
source<tow,snapshot
$GNGGA,000000.000,,,,,0,00,,,M,,,,0000*2B
$GNRMC,000000.000,A,,,,,,,060180,,*29
$GPGSA,A,1,,,,,,,,,,,,,,,*1E
$BDGSA,A,1,,,,,,,,,,,,,,,*0F
$GLGSA,A,1,,,,,,,,,,,,,,,*02
$B3CN0,0,0,0,0,0,0,0,0,0,0,0,0,0,0*4C
$ini_pos,lastpos_good = 1,ini_pos.x:-1578918.000000,ini_pos.y:5312777.000000,ini_pos.z:3146360.000000
$rtc_local_time,localRTC.weeks:2053,localRTC.seconds:375099.025980,localGtime.weeks:2053,localGtime.seconds:375099.025980
source<tow,snapshot
$GNGGA,000000.000,,,,,0,00,,,M,,,,0000*2B
$GNRMC,000000.000,A,,,,,,,060180,,*29
$GPGSA,A,1,,,,,,,,,,,,,,,*1E
$BDGSA,A,1,,,,,,,,,,,,,,,*0F
$GLGSA,A,1,,,,,,,,,,,,,,,*02
$B3CN0,0,0,0,0,0,0,0,0,0,0,0,0,0,0*4C
$ini_pos,lastpos_good = 1,ini_pos.x:-1578918.000000,ini_pos.y:5312777.000000,ini_pos.z:3146360.000000
$rtc_local_time,localRTC.weeks:2053,localRTC.seconds:375100.025980,localGtime.weeks:2053,localGtime.seconds:375100.025980
$pseudo_cd_ph,prn:1,pseudo_cd_ph:0.412132643535
measnum = 0,full_prange = 22949248.327996
$oldmeas,msRange:0.000000,x:-14601164.277421,y:2579715.619618,z:21860379.741703,vx:-668.281128,vy:-2733.969238,vz:-91.311653,tb:-0.000017509570
$newmeas,x:-14601113.120670,y:2579924.906371,z:21860386.730266,vx:-668.268799,vy:-2733.973633,vz:-91.275459,tb:-0.000017509569
$pseudo_cd_ph,prn:3,pseudo_cd_ph:2.877525501121
measnum = 1,full_prange = 22271711.784680
$oldmeas,msRange:74.332908,x:-21777101.422305,y:10042136.055010,z:11286638.077837,vx:869.597778,vy:-1175.729370,vz:2723.034668,tb:0.000187864677
$newmeas,x:-21777166.024607,y:10042223.399664,z:11286435.781739,vx:869.584473,vy:-1175.708008,vz:2723.052734,tb:0.000187864677
$pseudo_cd_ph,prn:6,pseudo_cd_ph:3.151505404087
measnum = 2,full_prange = 22194482.399262
$oldmeas,msRange:74.074823,x:6543373.708713,y:25720395.246477,z:-126373.387206,vx:-226.533066,vy:78.957718,vz:3209.790283,tb:0.000204235079
$newmeas,x:6543390.479340,y:25720389.399977,z:-126611.017046,vx:-226.526169,vy:78.985756,vz:3209.790283,tb:0.000204235080
$pseudo_cd_ph,prn:11,pseudo_cd_ph:17.711581262792
measnum = 3,full_prange = 23582527.868093
$oldmeas,msRange:78.706088,x:-18794121.712495,y:-657460.161451,z:18137738.039253,vx:-1364.748047,vy:-2036.304077,vz:-1471.213501,tb:-0.000605667733
$newmeas,x:-18794014.357457,y:-657299.979323,z:18137853.767836,vx:-1364.749878,vy:-2036.320679,vz:-1471.181519,tb:-0.000605667733
source<tow,snapshot
$GNGGA,000000.000,,,,,0,00,,,M,,,,0000*2B
$GNRMC,000000.000,A,,,,,,,060180,,*29
$GPGSA,A,1,,,,,,,,,,,,,,,*1E
$BDGSA,A,1,,,,,,,,,,,,,,,*0F
$GLGSA,A,1,,,,,,,,,,,,,,,*02
$GPGSV,1,1,03,01,00,000,26,03,00,000,24,06,00,000,17*4A
$B3CN0,0,0,0,0,0,0,0,0,0,0,0,0,0,0*4C
$ini_pos,lastpos_good = 1,ini_pos.x:-1578918.000000,ini_pos.y:5312777.000000,ini_pos.z:3146360.000000
$rtc_local_time,localRTC.weeks:2053,localRTC.seconds:375101.025980,localGtime.weeks:2053,localGtime.seconds:375101.025980
$pseudo_cd_ph,prn:1,pseudo_cd_ph:0.410713583610
measnum = 0,full_prange = 22949664.047571
$oldmeas,msRange:0.000000,x:-14601832.638831,y:2576981.678074,z:21860288.193669,vx:-668.441772,vy:-2733.913818,vz:-91.784424,tb:-0.000017509581
$newmeas,x:-14601781.468856,y:2577190.964375,z:21860295.218550,vx:-668.429443,vy:-2733.918213,vz:-91.748230,tb:-0.000017509580
$pseudo_cd_ph,prn:3,pseudo_cd_ph:2.878343598934
measnum = 1,full_prange = 22271456.846943
$oldmeas,msRange:74.332765,x:-21776231.735092,y:10040960.181409,z:11289360.991628,vx:869.776672,vy:-1176.017822,vz:2722.792969,tb:0.000187864676
$newmeas,x:-21776296.349947,y:10041047.546490,z:11289158.715802,vx:869.763428,vy:-1175.996460,vz:2722.811035,tb:0.000187864676
$pseudo_cd_ph,prn:6,pseudo_cd_ph:3.153795087559
measnum = 2,full_prange = 22193786.290530
$oldmeas,msRange:74.073211,x:6543147.129039,y:25720474.014864,z:-123163.595599,vx:-226.626312,vy:78.579063,vz:3209.792969,tb:0.000204235069
$newmeas,x:6543163.906043,y:25720468.196579,z:-123401.218183,vx:-226.619400,vy:78.607094,vz:3209.792725,tb:0.000204235069
$pseudo_cd_ph,prn:11,pseudo_cd_ph:17.710308615646
measnum = 3,full_prange = 23582899.723185
$oldmeas,msRange:78.708010,x:-18795486.448976,y:-659496.360393,z:18136266.623147,vx:-1364.724976,vy:-2036.093872,vz:-1471.618896,tb:-0.000605667731
$newmeas,x:-18795379.094062,y:-659336.192278,z:18136382.385444,vx:-1364.726807,vy:-2036.110474,vz:-1471.586914,tb:-0.000605667731
$pseudo_cd_ph,prn:17,pseudo_cd_ph:4.942531298566
measnum = 4,full_prange = 21612963.421523
$oldmeas,msRange:72.136166,x:2756233.601167,y:16028178.922721,z:21423800.440991,vx:-2488.911133,vy:-811.949829,vz:937.258362,tb:0.000055554745
$newmeas,x:2756413.034027,y:16028237.459002,z:21423732.870003,vx:-2488.899414,vy:-811.958496,vz:937.289978,tb:0.000055554744
$pseudo_cd_ph,prn:19,pseudo_cd_ph:3.444409330336
measnum = 5,full_prange = 21949987.209392
$oldmeas,msRange:73.260192,x:10838518.459765,y:16718257.620802,z:17220744.596282,vx:-2138.009766,vy:-697.949036,vz:1996.230103,tb:-0.000318376883
$newmeas,x:10838674.998270,y:16718308.722824,z:17220598.436748,vx:-2137.989258,vy:-697.951660,vz:1996.257568,tb:-0.000318376883
$pseudo_cd_ph,prn:22,pseudo_cd_ph:18.521837385519
measnum = 6,full_prange = 23310829.394396
$oldmeas,msRange:77.800024,x:-20303095.752468,y:3568186.689340,z:16943649.492454,vx:1243.092529,vy:-1734.398438,vz:1888.678101,tb:-0.000701667859
$newmeas,x:-20303192.410863,y:3568321.549472,z:16943502.634271,vx:1243.087402,vy:-1734.380005,vz:1888.705811,tb:-0.000701667859
$pseudo_cd_ph,prn:28,pseudo_cd_ph:8.927888730404
measnum = 7,full_prange = 20631733.047413
$oldmeas,msRange:68.863155,x:-8941379.827202,y:20288267.165488,z:15300814.392789,vx:-1508.302612,vy:1041.127319,vz:-2346.954346,tb:0.000767879989
$newmeas,x:-8941276.025056,y:20288195.514850,z:15300975.909572,vx:-1508.322388,vy:1041.133179,vz:-2346.932861,tb:0.000767879989
$pseudo_cd_ph,prn:30,pseudo_cd_ph:19.959279654196
measnum = 8,full_prange = 23058607.557579
$oldmeas,msRange:76.959113,x:-2043595.556918,y:24615941.672570,z:-9482091.065788,vx:-559.379578,vy:-1127.780396,vz:-2819.572266,tb:-0.000105547104
$newmeas,x:-2043552.532495,y:24616028.415129,z:-9481874.197124,vx:-559.369446,vy:-1127.755981,vz:-2819.587891,tb:-0.000105547103
source<tow,snapshot
nits = 2
$GNGGA,081122.790,2944.9080,N,10633.0952,E,1,13,0.0,287.9,M,,,,0000*12
$GNRMC,081122.790,A,2944.9080,N,10633.0952,E,0.00,0.00,160519,,*12
$GPGSA,A,3,01,03,06,11,17,19,22,28,30,,,,0.0,0.0,0.0*31
$BDGSA,A,3,01,02,03,04,,,,,,,,,0.0,0.0,0.0*27
$GLGSA,A,3,,,,,,,,,,,,,0.0,0.0,0.0*2E
$GPGSV,2,1,07,01,00,000,41,03,00,000,42,06,00,000,43,11,00,000,31*7F
$GPGSV,2,2,07,17,00,000,27,19,00,000,26,22,00,000,21*42
$B3CN0,0,0,0,0,0,0,0,0,0,0,0,0,0,0*4C
$ini_pos,lastpos_good = 1,ini_pos.x:-1578909.173534,ini_pos.y:5312738.088643,ini_pos.z:3146339.013602
$rtc_local_time,localRTC.weeks:2053,localRTC.seconds:375102.025980,localGtime.weeks:2053,localGtime.seconds:375102.025980
$pseudo_cd_ph,prn:1,pseudo_cd_ph:0.409298536015
measnum = 0,full_prange = 22950078.605661
$oldmeas,msRange:0.000000,x:-14602501.160876,y:2574247.791998,z:21860196.172864,vx:-668.602356,vy:-2733.858398,vz:-92.257195,tb:-0.000017509592
$newmeas,x:-14602449.977680,y:2574457.077830,z:21860203.234064,vx:-668.590088,vy:-2733.862549,vz:-92.221001,tb:-0.000017509591
$pseudo_cd_ph,prn:3,pseudo_cd_ph:2.879166850130
measnum = 1,full_prange = 22271200.372469
$oldmeas,msRange:74.332701,x:-21775361.868981,y:10039784.019381,z:11292083.663679,vx:869.955566,vy:-1176.306274,vz:2722.551270,tb:0.000187864675
$newmeas,x:-21775426.496380,y:10039871.404882,z:11291881.408142,vx:869.942261,vy:-1176.284912,vz:2722.569092,tb:0.000187864675
$pseudo_cd_ph,prn:6,pseudo_cd_ph:3.156091766507
measnum = 2,full_prange = 22193088.091123
$oldmeas,msRange:74.071697,x:6542920.456095,y:25720552.404599,z:-119953.801363,vx:-226.719604,vy:78.200417,vz:3209.795654,tb:0.000204235058
$newmeas,x:6542937.239478,y:25720546.614528,z:-120191.416664,vx:-226.712692,vy:78.228447,vz:3209.795410,tb:0.000204235059
$pseudo_cd_ph,prn:11,pseudo_cd_ph:17.709049176377
measnum = 3,full_prange = 23583267.629224
$oldmeas,msRange:78.709966,x:-18796851.162348,y:-661532.349072,z:18134794.801686,vx:-1364.701782,vy:-2035.883545,vz:-1472.024170,tb:-0.000605667728
$newmeas,x:-18796743.807579,y:-661372.195000,z:18134910.597675,vx:-1364.703613,vy:-2035.900146,vz:-1471.992310,tb:-0.000605667728
$pseudo_cd_ph,prn:17,pseudo_cd_ph:4.943587608002
measnum = 4,full_prange = 21612637.082684
$oldmeas,msRange:72.135920,x:2753744.610140,y:16027367.032903,z:21424737.479905,vx:-2489.071289,vy:-811.829834,vz:936.819519,tb:0.000055554755
$newmeas,x:2753924.051838,y:16027425.559650,z:21424669.941574,vx:-2489.059570,vy:-811.838501,vz:936.851135,tb:0.000055554755
$pseudo_cd_ph,prn:19,pseudo_cd_ph:3.446069025690
measnum = 5,full_prange = 21949479.979814
$oldmeas,msRange:73.259314,x:10836380.309667,y:16717559.689771,z:17222740.638324,vx:-2138.290527,vy:-697.913086,vz:1995.854126,tb:-0.000318376882
$newmeas,x:10836536.865102,y:16717610.787982,z:17222594.509688,vx:-2138.270020,vy:-697.915710,vz:1995.881714,tb:-0.000318376882
$pseudo_cd_ph,prn:22,pseudo_cd_ph:18.521698042794
measnum = 6,full_prange = 23310861.503616
$oldmeas,msRange:77.800910,x:-20301852.627545,y:3566452.172403,z:16945537.992756,vx:1243.157471,vy:-1734.635620,vz:1888.322632,tb:-0.000701667864
$newmeas,x:-20301949.291124,y:3566587.051162,z:16945391.162015,vx:1243.152344,vy:-1734.617188,vz:1888.350220,tb:-0.000701667864
$pseudo_cd_ph,prn:28,pseudo_cd_ph:8.928868246218
measnum = 7,full_prange = 20631429.740055
$oldmeas,msRange:68.863005,x:-8942887.986463,y:20289308.249820,z:15298467.282545,vx:-1508.015991,vy:1041.041504,vz:-2347.266357,tb:0.000767879994
$newmeas,x:-8942784.205567,y:20289236.606142,z:15298628.818425,vx:-1508.035767,vy:1041.047363,vz:-2347.244873,tb:0.000767879994
$pseudo_cd_ph,prn:30,pseudo_cd_ph:19.957931026336
measnum = 8,full_prange = 23059002.192419
$oldmeas,msRange:76.961222,x:-2044155.002164,y:24614813.733538,z:-9484910.535830,vx:-559.510986,vy:-1128.097656,vz:-2819.368164,tb:-0.000105547112
$newmeas,x:-2044111.966899,y:24614900.501986,z:-9484693.679156,vx:-559.500854,vy:-1128.073364,vz:-2819.383789,tb:-0.000105547112
source<tow,snapshot
nits = 2
Refix G01: 2, 375101.706448, 3310
Refix G03: 2, 375101.708918, -224
Refix G06: 2, 375101.709195, -2539
Refix G07: 2, 375101.699151, 3492
Refix G11: 2, 375101.703748, 3028
Refix G17: 2, 375101.710983, -573
Refix G19: 2, 375101.709485, -1534
Refix G22: 2, 375101.704561, 1309
Refix G28: 2, 375101.714968, -465
Refix G30: 2, 375101.705997, 3210
$GNGGA,081123.783,2944.9091,N,10633.0903,E,1,12,0.0,294.5,M,,,,0000*1A
$GNRMC,081123.783,A,2944.9091,N,10633.0903,E,0.00,0.00,160519,,*15
$GPGSA,A,3,01,03,06,11,17,19,22,28,30,,,,0.0,0.0,0.0*31
$BDGSA,A,3,02,03,04,,,,,,,,,,0.0,0.0,0.0*26
$GLGSA,A,3,,,,,,,,,,,,,0.0,0.0,0.0*2E
$GPGSV,3,1,09,01,00,000,41,03,00,000,42,06,00,000,43,11,00,000,34*75
$GPGSV,3,2,09,17,00,000,45,19,00,000,43,22,00,000,42,28,00,000,34*72
$GPGSV,3,3,09,30,00,000,32*42
$BDGSV,1,1,03,02,00,000,40,03,00,000,42,04,00,000,41*59
$B3CN0,0,0,0,0,0,0,0,0,0,0,0,0,0,0*4C
$ini_pos,lastpos_good = 1,ini_pos.x:-1578902.914080,ini_pos.y:5312744.903151,ini_pos.z:3146344.094422
$rtc_local_time,localRTC.weeks:2053,localRTC.seconds:375103.025980,localGtime.weeks:2053,localGtime.seconds:375103.025980
$pseudo_cd_ph,prn:1,pseudo_cd_ph:0.407882518899
measnum = 0,full_prange = 22950493.449654
$oldmeas,msRange:0.000000,x:-14603169.843537,y:2571513.961457,z:21860103.679291,vx:-668.763000,vy:-2733.802734,vz:-92.729958,tb:-0.000017509602
$newmeas,x:-14603118.647121,y:2571723.246818,z:21860110.776811,vx:-668.750671,vy:-2733.807129,vz:-92.693764,tb:-0.000017509602
$pseudo_cd_ph,prn:3,pseudo_cd_ph:2.879992532590
measnum = 1,full_prange = 22270943.165366
$oldmeas,msRange:74.332567,x:-21774491.824027,y:10038607.568918,z:11294806.093930,vx:870.134399,vy:-1176.594727,vz:2722.309326,tb:0.000187864673
$newmeas,x:-21774556.463964,y:10038694.974838,z:11294603.858694,vx:870.121094,vy:-1176.573242,vz:2722.327393,tb:0.000187864673
$pseudo_cd_ph,prn:6,pseudo_cd_ph:3.158387423727
measnum = 2,full_prange = 22192390.195489
$oldmeas,msRange:74.070060,x:6542693.689831,y:25720630.415696,z:-116744.004567,vx:-226.812943,vy:77.821785,vz:3209.798096,tb:0.000204235048
$newmeas,x:6542710.479595,y:25720624.653835,z:-116981.612583,vx:-226.806046,vy:77.849815,vz:3209.797852,tb:0.000204235049
$pseudo_cd_ph,prn:11,pseudo_cd_ph:17.707795069481
measnum = 3,full_prange = 23583633.927051
$oldmeas,msRange:78.711898,x:-18798215.852557,y:-663568.127457,z:18133322.574903,vx:-1364.678711,vy:-2035.673340,vz:-1472.429443,tb:-0.000605667726
$newmeas,x:-18798108.497944,y:-663407.987441,z:18133438.404575,vx:-1364.680420,vy:-2035.689819,vz:-1472.397583,tb:-0.000605667726
$pseudo_cd_ph,prn:17,pseudo_cd_ph:4.944639696287
measnum = 4,full_prange = 21612312.012545
$oldmeas,msRange:72.135526,x:2751255.458967,y:16026555.263097,z:21425674.079977,vx:-2489.231201,vy:-811.709839,vz:936.380676,tb:0.000055554766
$newmeas,x:2751434.909509,y:16026613.780311,z:21425606.574299,vx:-2489.219727,vy:-811.718445,vz:936.412292,tb:0.000055554765
$pseudo_cd_ph,prn:19,pseudo_cd_ph:3.447728303404
measnum = 5,full_prange = 21948972.875319
$oldmeas,msRange:73.258305,x:10834241.878940,y:16716861.794680,z:17224736.304458,vx:-2138.571045,vy:-697.877136,vz:1995.478271,tb:-0.000318376880
$newmeas,x:10834398.451303,y:16716912.889077,z:17224590.206722,vx:-2138.550537,vy:-697.879761,vz:1995.505737,tb:-0.000318376880
$pseudo_cd_ph,prn:22,pseudo_cd_ph:18.521550205563
measnum = 6,full_prange = 23310896.168105
$oldmeas,msRange:77.801750,x:-20300609.437689,y:3564717.418309,z:16947426.137522,vx:1243.222290,vy:-1734.872681,vz:1887.967041,tb:-0.000701667869
$newmeas,x:-20300706.106459,y:3564852.315709,z:16947279.334209,vx:1243.217285,vy:-1734.854248,vz:1887.994751,tb:-0.000701667868
$pseudo_cd_ph,prn:28,pseudo_cd_ph:8.929847568128
measnum = 7,full_prange = 20631126.486304
$oldmeas,msRange:68.862691,x:-8944395.859109,y:20290349.248289,z:15296119.860319,vx:-1507.729370,vy:1040.955566,vz:-2347.578369,tb:0.000767879999
$newmeas,x:-8944292.099464,y:20290277.611575,z:15296281.415293,vx:-1507.749146,vy:1040.961426,vz:-2347.556885,tb:0.000767879998
$pseudo_cd_ph,prn:30,pseudo_cd_ph:19.956582659500
measnum = 8,full_prange = 23059396.755783
$oldmeas,msRange:76.963251,x:-2044714.578808,y:24613685.477243,z:-9487729.801699,vx:-559.642395,vy:-1128.414917,vz:-2819.163818,tb:-0.000105547121
$newmeas,x:-2044671.532699,y:24613772.271577,z:-9487512.957021,vx:-559.632263,vy:-1128.390503,vz:-2819.179443,tb:-0.000105547120
source<tow,snapshot
nits = 2
Refix G01: 2, 375102.704161, 3310
Refix G03: 2, 375102.706633, -224
Refix G06: 2, 375102.706912, -2538
Refix G07: 2, 375102.696864, 3491
Refix G11: 2, 375102.701461, 3028
Refix G17: 2, 375102.708698, -573
Refix G19: 2, 375102.707201, -1534
Refix G22: 2, 375102.702275, 1309
Refix G28: 2, 375102.712683, -465
Refix G30: 2, 375102.703710, 3211
$GNGGA,081124.781,2944.9083,N,10633.0900,E,1,12,0.0,303.0,M,,,,0000*15
$GNRMC,081124.781,A,2944.9083,N,10633.0900,E,0.00,0.00,160519,,*10
$GPGSA,A,3,01,03,06,11,17,19,22,28,30,,,,0.0,0.0,0.0*31
$BDGSA,A,3,02,03,04,,,,,,,,,,0.0,0.0,0.0*26
$GLGSA,A,3,,,,,,,,,,,,,0.0,0.0,0.0*2E
$GPGSV,3,1,10,01,26,040,41,03,35,083,41,06,37,230,43,11,16,053,34*77
$GPGSV,3,2,10,17,51,327,44,19,37,299,43,22,25,061,41,28,79,050,44*70
$GPGSV,3,3,10,30,25,193,42,07,02,171,00*73
$BDGSV,3,1,10,02,47,219,40,03,55,171,43,04,23,109,39,01,40,125,00*63
$BDGSV,3,2,10,07,57,145,00,08,75,339,00,10,83,196,00,13,62,253,00*68
$BDGSV,3,3,10,27,36,046,00,30,57,323,00*68
$B3CN0,0,0,0,0,0,0,0,0,0,0,0,0,0,0*4C
tow update,375103908.930831
$ini_pos,lastpos_good = 1,ini_pos.x:-1578904.823591,ini_pos.y:5312752.760600,ini_pos.z:3146347.043087
$rtc_local_time,localRTC.weeks:2053,localRTC.seconds:375104.025980,localGtime.weeks:2053,localGtime.seconds:375103.908931
$pseudo_cd_ph,prn:1,pseudo_cd_ph:375103700.406467616558
measnum = 0,full_prange = 22936177.643304
$oldmeas,msRange:0.000000,x:-14603760.390972,y:2569100.169646,z:21860021.619014,vx:-668.904785,vy:-2733.753662,vz:-93.147385,tb:-0.000017509612
$newmeas,x:-14603709.215642,y:2569309.320704,z:21860028.744043,vx:-668.892517,vy:-2733.758057,vz:-93.111214,tb:-0.000017509611
$pseudo_cd_ph,prn:3,pseudo_cd_ph:375103702.880819737911
measnum = 1,full_prange = 22255955.200369
$oldmeas,msRange:74.332426,x:-21773723.468464,y:10037568.581194,z:11297209.665017,vx:870.292236,vy:-1176.849365,vz:2722.095947,tb:0.000187864672
$newmeas,x:-21773788.076617,y:10037655.947199,z:11297007.581737,vx:870.278931,vy:-1176.828003,vz:2722.113770,tb:0.000187864672
$pseudo_cd_ph,prn:6,pseudo_cd_ph:375103703.160683393478
measnum = 2,full_prange = 22176961.899657
$oldmeas,msRange:74.068617,x:6542493.388745,y:25720698.980918,z:-113909.909649,vx:-226.895416,vy:77.487480,vz:3209.800293,tb:0.000204235039
$newmeas,x:6542510.172938,y:25720693.247794,z:-114147.352639,vx:-226.888504,vy:77.515488,vz:3209.800049,tb:0.000204235040
$pseudo_cd_ph,prn:11,pseudo_cd_ph:375103697.706537902355
measnum = 3,full_prange = 23569270.842769
$oldmeas,msRange:78.713591,x:-18799420.787655,y:-665365.444898,z:18132022.334090,vx:-1364.658081,vy:-2035.487549,vz:-1472.787354,tb:-0.000605667724
$newmeas,x:-18799313.500037,y:-665205.417014,z:18132138.121351,vx:-1364.659912,vy:-2035.504150,vz:-1472.755493,tb:-0.000605667724
$pseudo_cd_ph,prn:17,pseudo_cd_ph:375103704.945692181587
measnum = 4,full_prange = 21597256.505745
$oldmeas,msRange:72.135185,x:2749057.527714,y:16025838.610039,z:21426500.687004,vx:-2489.372559,vy:-811.603821,vz:935.993164,tb:0.000055554775
$newmeas,x:2749236.863429,y:16025897.078851,z:21426433.256268,vx:-2489.361084,vy:-811.612427,vz:936.024780,tb:0.000055554774
$pseudo_cd_ph,prn:19,pseudo_cd_ph:375103703.449388682842
measnum = 5,full_prange = 21933735.120040
$oldmeas,msRange:73.257429,x:10832353.516440,y:16716245.617525,z:17226498.067072,vx:-2138.818848,vy:-697.845337,vz:1995.146240,tb:-0.000318376878
$newmeas,x:10832509.998230,y:16716296.674124,z:17226352.095050,vx:-2138.798340,vy:-697.847961,vz:1995.173828,tb:-0.000318376878
$pseudo_cd_ph,prn:22,pseudo_cd_ph:375103698.521403372288
measnum = 6,full_prange = 23296200.199906
$oldmeas,msRange:77.802475,x:-20299511.708201,y:3563185.518560,z:16949092.980990,vx:1243.279663,vy:-1735.082153,vz:1887.653076,tb:-0.000701667873
$newmeas,x:-20299608.320477,y:3563320.347186,z:16948946.294625,vx:1243.274536,vy:-1735.063721,vz:1887.680664,tb:-0.000701667872
$pseudo_cd_ph,prn:28,pseudo_cd_ph:375103708.930830657482
measnum = 7,full_prange = 20616091.777555
$oldmeas,msRange:68.862403,x:-8945726.998297,y:20291268.327359,z:15294046.942536,vx:-1507.476318,vy:1040.879639,vz:-2347.853760,tb:0.000767880003
$newmeas,x:-8945623.331669,y:20291196.748068,z:15294208.398719,vx:-1507.495972,vy:1040.885620,vz:-2347.832275,tb:0.000767880003
$pseudo_cd_ph,prn:30,pseudo_cd_ph:375103699.955234050751
measnum = 8,full_prange = 23045061.079707
$oldmeas,msRange:76.965034,x:-2045208.766745,y:24612689.018672,z:-9490218.905154,vx:-559.758423,vy:-1128.695068,vz:-2818.983398,tb:-0.000105547128
$newmeas,x:-2045165.738475,y:24612775.780577,z:-9490002.209149,vx:-559.748352,vy:-1128.670654,vz:-2818.999268,tb:-0.000105547128
Refix G01: 2, 375103.700406, 2175
Refix G03: 2, 375103.702881, -1358
Refix G06: 2, 375103.703161, -3672
Refix G07: 2, 375103.693108, 2355
Refix G11: 2, 375103.697707, 1891
Refix G17: 2, 375103.704946, -1706
Refix G19: 2, 375103.703449, -2668
Refix G22: 2, 375103.698521, 174
Refix G28: 2, 375103.708931, -1597
Refix G30: 2, 375103.699955, 2076
$GNGGA,081125.777,2944.9076,N,10633.0897,E,1,12,1.0,313.2,M,,,,0000*1A
$GNRMC,081125.777,A,2944.9076,N,10633.0897,E,0.14,0.00,160519,,*18
$GPGSA,A,3,01,03,06,11,17,19,22,28,30,,,,2.0,1.0,1.7*34
$BDGSA,A,3,02,03,04,,,,,,,,,,2.0,1.0,1.7*23
$GLGSA,A,3,,,,,,,,,,,,,2.0,1.0,1.7*2B
$GPGSV,3,1,10,01,26,040,41,03,35,083,41,06,37,230,43,11,16,053,34*77
$GPGSV,3,2,10,17,51,327,44,19,37,299,43,22,25,061,41,28,79,050,44*70
$GPGSV,3,3,10,30,25,193,42,07,02,171,00*73
$BDGSV,3,1,10,01,40,125,20,02,47,219,40,03,55,171,43,04,23,109,41*6E
$BDGSV,3,2,10,07,57,145,00,08,75,339,00,10,83,196,00,13,62,253,00*68
$BDGSV,3,3,10,27,36,046,00,30,57,323,00*68
$B3CN0,0,0,0,0,0,0,0,0,0,0,0,0,0,0*4C
$ini_pos,lastpos_good = 1,ini_pos.x:-1578906.971352,ini_pos.y:5312762.086664,ini_pos.z:3146350.969390
$rtc_local_time,localRTC.weeks:2053,localRTC.seconds:375105.248955,localGtime.weeks:2053,localGtime.seconds:375105.000000
$pseudo_cd_ph,prn:1,pseudo_cd_ph:375104923.379348993301
measnum = 0,full_prange = 22965030.572457
$oldmeas,msRange:0.000000,x:-14604490.307901,y:2566117.488520,z:21859919.707383,vx:-669.079956,vy:-2733.692871,vz:-93.663200,tb:-0.000017509624
$newmeas,x:-14604439.054774,y:2566326.898027,z:21859926.880887,vx:-669.067688,vy:-2733.697266,vz:-93.626984,tb:-0.000017509623
$pseudo_cd_ph,prn:3,pseudo_cd_ph:375104925.856447756290
measnum = 1,full_prange = 22283984.710192
$oldmeas,msRange:74.332254,x:-21772773.813117,y:10036284.385456,z:11300179.515751,vx:870.487183,vy:-1177.164185,vz:2721.831787,tb:0.000187864671
$newmeas,x:-21772838.517132,y:10036371.884884,z:11299977.197585,vx:870.473938,vy:-1177.142700,vz:2721.849854,tb:0.000187864671
$pseudo_cd_ph,prn:6,pseudo_cd_ph:375104926.138110280037
measnum = 2,full_prange = 22204452.119435
$oldmeas,msRange:74.066835,x:6542245.774550,y:25720783.299762,z:-110407.794182,vx:-226.997375,vy:77.074394,vz:3209.802979,tb:0.000204235028
$newmeas,x:6542262.587099,y:25720777.590126,z:-110645.531696,vx:-226.990448,vy:77.102432,vz:3209.802734,tb:0.000204235029
$pseudo_cd_ph,prn:11,pseudo_cd_ph:375104920.679630756378
measnum = 3,full_prange = 23598060.376959
$oldmeas,msRange:78.715682,x:-18800909.710152,y:-667586.177331,z:18130415.180112,vx:-1364.632690,vy:-2035.258057,vz:-1473.229492,tb:-0.000605667721
$newmeas,x:-18800802.293483,y:-667425.972041,z:18130531.143608,vx:-1364.634521,vy:-2035.274658,vz:-1473.197510,tb:-0.000605667721
$pseudo_cd_ph,prn:17,pseudo_cd_ph:375104927.921594619751
measnum = 4,full_prange = 21625203.750421
$oldmeas,msRange:72.134763,x:2746341.354841,y:16024953.165667,z:21427521.659027,vx:-2489.547119,vy:-811.472778,vz:935.514343,tb:0.000055554787
$newmeas,x:2746520.935213,y:16025011.700687,z:21427454.175575,vx:-2489.535645,vy:-811.481445,vz:935.545959,tb:0.000055554786
$pseudo_cd_ph,prn:19,pseudo_cd_ph:375104926.426032245159
measnum = 5,full_prange = 21961460.178426
$oldmeas,msRange:73.256346,x:10830019.750273,y:16715484.241495,z:17228674.685757,vx:-2139.125000,vy:-697.805969,vz:1994.735962,tb:-0.000318376876
$newmeas,x:10830176.452283,y:16715535.359750,z:17228528.559272,vx:-2139.104248,vy:-697.808594,vz:1994.763550,tb:-0.000318376877
$pseudo_cd_ph,prn:22,pseudo_cd_ph:375104921.495842218399
measnum = 6,full_prange = 23324586.213484
$oldmeas,msRange:77.803372,x:-20298155.165632,y:3561292.282920,z:16951152.329307,vx:1243.350342,vy:-1735.340820,vz:1887.265015,tb:-0.000701667878
$newmeas,x:-20298251.901130,y:3561427.295960,z:16951005.494394,vx:1243.345215,vy:-1735.322388,vz:1887.292725,tb:-0.000701667878
$pseudo_cd_ph,prn:28,pseudo_cd_ph:375104931.906646311283
measnum = 7,full_prange = 20644065.037684
$oldmeas,msRange:68.862049,x:-8947371.588535,y:20292403.947833,z:15291485.086239,vx:-1507.163574,vy:1040.785767,vz:-2348.193848,tb:0.000767880008
$newmeas,x:-8947267.802781,y:20292332.277880,z:15291646.784927,vx:-1507.183350,vy:1040.791748,vz:-2348.172363,tb:0.000767880008
$pseudo_cd_ph,prn:30,pseudo_cd_ph:375104922.928193747997
measnum = 8,full_prange = 23073890.529741
$oldmeas,msRange:76.967239,x:-2045819.580154,y:24611457.345583,z:-9493294.489407,vx:-559.901917,vy:-1129.041138,vz:-2818.760498,tb:-0.000105547138
$newmeas,x:-2045776.487014,y:24611544.242662,z:-9493077.539472,vx:-559.891785,vy:-1129.016724,vz:-2818.776367,tb:-0.000105547137
Refix G01: 2, 375104.923379, 2185
Refix G03: 2, 375104.925856, -1347
Refix G06: 2, 375104.926138, -3662
Refix G07: 2, 375104.916081, 2365
Refix G11: 2, 375104.920680, 1902
Refix G17: 2, 375104.927922, -1698
Refix G19: 2, 375104.926426, -2659
Refix G22: 2, 375104.921496, 185
Refix G28: 2, 375104.931907, -1588
Refix G30: 2, 375104.922928, 2086
$GNGGA,081127.000,2944.9070,N,10633.0897,E,1,12,0.9,316.0,M,,,,0000*16
$GNRMC,081127.000,A,2944.9070,N,10633.0897,E,0.26,0.00,160519,,*1A
$GPGSA,A,3,01,03,06,11,17,19,22,28,30,,,,1.2,0.9,0.8*33
$BDGSA,A,3,02,03,04,,,,,,,,,,1.2,0.9,0.8*24
$GLGSA,A,3,,,,,,,,,,,,,1.2,0.9,0.8*2C
$GPGSV,3,1,10,01,26,040,41,03,35,083,41,06,37,230,43,11,16,053,35*76
$GPGSV,3,2,10,17,51,327,44,19,37,299,42,22,25,061,41,28,79,050,43*76
$GPGSV,3,3,10,30,25,193,42,07,02,171,00*73
$BDGSV,3,1,11,02,47,219,40,03,55,171,43,04,23,109,40,32,00,000,38*65
$BDGSV,3,2,11,01,40,125,00,07,57,145,00,08,75,339,00,10,83,196,00*68
$BDGSV,3,3,11,13,62,253,00,27,36,046,00,30,57,323,00*5B
$B3CN0,0,0,0,0,0,0,0,0,0,0,0,0,0,0*4C
$ini_pos,lastpos_good = 1,ini_pos.x:-1578907.820583,ini_pos.y:5312764.944653,ini_pos.z:3146351.390075
$rtc_local_time,localRTC.weeks:2053,localRTC.seconds:375106.248955,localGtime.weeks:2053,localGtime.seconds:375106.000000
$pseudo_cd_ph,prn:1,pseudo_cd_ph:375105923.377925515175
measnum = 0,full_prange = 22965447.650079
$oldmeas,msRange:0.000000,x:-14605159.468133,y:2563383.823546,z:21859825.807810,vx:-669.240540,vy:-2733.637207,vz:-94.135956,tb:-0.000017509635
$newmeas,x:-14605108.201776,y:2563593.232584,z:21859833.017660,vx:-669.228210,vy:-2733.641357,vz:-94.099739,tb:-0.000017509634
$pseudo_cd_ph,prn:3,pseudo_cd_ph:375105925.857270598412
measnum = 1,full_prange = 22283728.360802
$oldmeas,msRange:74.332108,x:-21771903.236615,y:10035107.077141,z:11302901.226543,vx:870.665833,vy:-1177.452637,vz:2721.589844,tb:0.000187864670
$newmeas,x:-21771967.953164,y:10035194.597004,z:11302698.928692,vx:870.652588,vy:-1177.431152,vz:2721.607910,tb:0.000187864670
$pseudo_cd_ph,prn:6,pseudo_cd_ph:375105926.140399277210
measnum = 2,full_prange = 22203756.225132
$oldmeas,msRange:74.065216,x:6542018.730442,y:25720860.184856,z:-107197.990177,vx:-227.090866,vy:76.695801,vz:3209.805176,tb:0.000204235018
$newmeas,x:6542035.549389,y:25720854.503438,z:-107435.720413,vx:-227.083939,vy:76.723839,vz:3209.805176,tb:0.000204235018
$pseudo_cd_ph,prn:11,pseudo_cd_ph:375105920.678385794163
measnum = 3,full_prange = 23598423.940825
$oldmeas,msRange:78.717604,x:-18802274.331158,y:-669621.330113,z:18128941.748092,vx:-1364.609375,vy:-2035.047607,vz:-1473.634644,tb:-0.000605667719
$newmeas,x:-18802166.914672,y:-669461.138917,z:18129057.745270,vx:-1364.611206,vy:-2035.064209,vz:-1473.602783,tb:-0.000605667719
$pseudo_cd_ph,prn:17,pseudo_cd_ph:375105927.922638833523
measnum = 4,full_prange = 21624881.038994
$oldmeas,msRange:72.134394,x:2743851.727717,y:16024141.752989,z:21428456.953864,vx:-2489.707275,vy:-811.352661,vz:935.075439,tb:0.000055554797
$newmeas,x:2744031.316947,y:16024200.278470,z:21428389.503078,vx:-2489.695557,vy:-811.361328,vz:935.107056,tb:0.000055554796
$pseudo_cd_ph,prn:19,pseudo_cd_ph:375105926.427684187889
measnum = 5,full_prange = 21960955.271821
$oldmeas,msRange:73.255368,x:10827880.485186,y:16714786.453595,z:17230669.233673,vx:-2139.405273,vy:-697.769836,vz:1994.359985,tb:-0.000318376875
$newmeas,x:10828037.204141,y:16714837.568028,z:17230523.138096,vx:-2139.384766,vy:-697.772522,vz:1994.387451,tb:-0.000318376875
$pseudo_cd_ph,prn:22,pseudo_cd_ph:375105921.495688736439
measnum = 6,full_prange = 23324622.557662
$oldmeas,msRange:77.804201,x:-20296911.782988,y:3559556.823624,z:16953039.416474,vx:1243.415039,vy:-1735.577881,vz:1886.909424,tb:-0.000701667883
$newmeas,x:-20297008.523674,y:3559691.855321,z:16952892.609004,vx:1243.410034,vy:-1735.559448,vz:1886.937012,tb:-0.000701667882
$pseudo_cd_ph,prn:28,pseudo_cd_ph:375105931.907618463039
measnum = 7,full_prange = 20643763.928215
$oldmeas,msRange:68.861746,x:-8948878.608719,y:20293444.690590,z:15289136.736445,vx:-1506.876953,vy:1040.699707,vz:-2348.505859,tb:0.000767880013
$newmeas,x:-8948774.844218,y:20293373.027609,z:15289298.454247,vx:-1506.896606,vy:1040.705688,vz:-2348.484375,tb:0.000767880013
$pseudo_cd_ph,prn:30,pseudo_cd_ph:375105922.926829576492
measnum = 8,full_prange = 23074289.828396
$oldmeas,msRange:76.969270,x:-2046379.547797,y:24610328.145963,z:-9496113.147705,vx:-560.033447,vy:-1129.358276,vz:-2818.556152,tb:-0.000105547146
$newmeas,x:-2046336.443788,y:24610415.068955,z:-9495896.209746,vx:-560.023315,vy:-1129.333862,vz:-2818.572021,tb:-0.000105547145
Refix G01: 2, 375105.923378, 2185
Refix G03: 2, 375105.925857, -1347
Refix G06: 2, 375105.926140, -3662
Refix G07: 2, 375105.916080, 2365
Refix G11: 2, 375105.920678, 1902
Refix G17: 2, 375105.927923, -1697
Refix G19: 2, 375105.926428, -2658
Refix G22: 2, 375105.921496, 185
Refix G28: 2, 375105.931908, -1587
Refix G30: 2, 375105.922927, 2086
$GNGGA,081128.000,2944.9073,N,10633.0896,E,1,12,0.9,316.9,M,,,,0000*12
$GNRMC,081128.000,A,2944.9073,N,10633.0896,E,0.08,0.00,160519,,*1B
$GPGSA,A,3,01,03,06,11,17,19,22,28,30,,,,1.2,0.9,0.8*33
$BDGSA,A,3,02,03,04,,,,,,,,,,1.2,0.9,0.8*24
$GLGSA,A,3,,,,,,,,,,,,,1.2,0.9,0.8*2C
$GPGSV,3,1,10,01,26,040,41,03,35,083,41,06,37,230,43,11,16,053,36*75
$GPGSV,3,2,10,17,51,327,44,19,37,299,43,22,25,061,42,28,79,050,44*73
$GPGSV,3,3,10,30,25,193,42,07,02,171,00*73
$BDGSV,3,1,11,02,47,219,39,03,55,171,43,04,23,109,40,27,36,046,29*68
$BDGSV,3,2,11,32,00,000,41,01,40,125,00,07,57,145,00,08,75,339,00*68
$BDGSV,3,3,11,10,83,196,00,13,62,253,00,30,57,323,00*5D
$B3CN0,0,0,0,0,0,0,0,0,0,0,0,0,0,0*4C
$ini_pos,lastpos_good = 1,ini_pos.x:-1578907.881381,ini_pos.y:5312765.406909,ini_pos.z:3146352.289468
$rtc_local_time,localRTC.weeks:2053,localRTC.seconds:375107.248954,localGtime.weeks:2053,localGtime.seconds:375107.000000
$pseudo_cd_ph,prn:1,pseudo_cd_ph:375106923.376508057117
measnum = 0,full_prange = 22965862.922929
$oldmeas,msRange:0.000000,x:-14605828.788910,y:2560650.214378,z:21859731.435483,vx:-669.401062,vy:-2733.581299,vz:-94.608704,tb:-0.000017509645
$newmeas,x:-14605777.509328,y:2560859.622926,z:21859738.681678,vx:-669.388794,vy:-2733.585693,vz:-94.572495,tb:-0.000017509645
$pseudo_cd_ph,prn:3,pseudo_cd_ph:375106925.858096182346
measnum = 1,full_prange = 22283471.189436
$oldmeas,msRange:74.331965,x:-21771032.481494,y:10033929.480364,z:11305622.695304,vx:870.844421,vy:-1177.741089,vz:2721.347900,tb:0.000187864668
$newmeas,x:-21771097.210571,y:10034017.020657,z:11305420.417780,vx:870.831177,vy:-1177.719604,vz:2721.365723,tb:0.000187864668
$pseudo_cd_ph,prn:6,pseudo_cd_ph:375106926.142693877220
measnum = 2,full_prange = 22203058.651140
$oldmeas,msRange:74.063605,x:6541791.592809,y:25720936.691362,z:-103988.183885,vx:-227.184418,vy:76.317215,vz:3209.807617,tb:0.000204235007
$newmeas,x:6541808.418156,y:25720931.038161,z:-104225.906819,vx:-227.177490,vy:76.345253,vz:3209.807373,tb:0.000204235008
$pseudo_cd_ph,prn:11,pseudo_cd_ph:375106920.677162647247
measnum = 3,full_prange = 23598780.964629
$oldmeas,msRange:78.719524,x:-18803638.928789,y:-671656.272476,z:18127467.910882,vx:-1364.585938,vy:-2034.837158,vz:-1474.039795,tb:-0.000605667716
$newmeas,x:-18803531.512520,y:-671496.095421,z:18127583.941710,vx:-1364.587769,vy:-2034.853760,vz:-1474.007935,tb:-0.000605667716
$pseudo_cd_ph,prn:17,pseudo_cd_ph:375106927.923688054085
measnum = 4,full_prange = 21624556.826569
$oldmeas,msRange:72.134027,x:2741361.940666,y:16023330.460466,z:21429391.809784,vx:-2489.867188,vy:-811.232483,vz:934.636475,tb:0.000055554807
$newmeas,x:2741541.538738,y:16023388.976402,z:21429324.391670,vx:-2489.855469,vy:-811.241150,vz:934.668152,tb:0.000055554807
$pseudo_cd_ph,prn:19,pseudo_cd_ph:375106926.429341018200
measnum = 5,full_prange = 21960448.899955
$oldmeas,msRange:73.254392,x:10825740.939630,y:16714088.701840,z:17232663.405506,vx:-2139.685791,vy:-697.733704,vz:1993.983887,tb:-0.000318376873
$newmeas,x:10825897.675515,y:16714139.812446,z:17232517.340848,vx:-2139.665283,vy:-697.736328,vz:1994.011353,tb:-0.000318376873
$pseudo_cd_ph,prn:22,pseudo_cd_ph:375106921.495544373989
measnum = 6,full_prange = 23324656.167879
$oldmeas,msRange:77.805032,x:-20295668.335630,y:3557821.127242,z:16954926.147951,vx:1243.479736,vy:-1735.814941,vz:1886.553711,tb:-0.000701667887
$newmeas,x:-20295765.081488,y:3557956.177579,z:16954779.367945,vx:1243.474731,vy:-1735.796509,vz:1886.581299,tb:-0.000701667887
$pseudo_cd_ph,prn:28,pseudo_cd_ph:375106931.908597826958
measnum = 7,full_prange = 20643460.656594
$oldmeas,msRange:68.861449,x:-8950385.342244,y:20294485.347246,z:15286788.074853,vx:-1506.590210,vy:1040.613647,vz:-2348.817627,tb:0.000767880018
$newmeas,x:-8950281.599006,y:20294413.691248,z:15286949.811748,vx:-1506.609985,vy:1040.619507,vz:-2348.796143,tb:0.000767880018
$pseudo_cd_ph,prn:30,pseudo_cd_ph:375106922.925478577614
measnum = 8,full_prange = 23074685.177997
$oldmeas,msRange:76.971309,x:-2046939.646985,y:24609198.629230,z:-9498931.601590,vx:-560.164978,vy:-1129.675293,vz:-2818.351807,tb:-0.000105547154
$newmeas,x:-2046896.532112,y:24609285.578118,z:-9498714.675649,vx:-560.154846,vy:-1129.650879,vz:-2818.367432,tb:-0.000105547154
Refix G01: 2, 375106.923377, 2176
Refix G03: 2, 375106.925858, -1357
Refix G06: 2, 375106.926143, -3672
Refix G07: 2, 375106.916078, 2357
Refix G11: 2, 375106.920677, 1893
Refix G17: 2, 375106.927924, -1709
Refix G19: 2, 375106.926429, -2669
Refix G22: 2, 375106.921496, 176
Refix G28: 2, 375106.931909, -1600
Refix G30: 2, 375106.922925, 2076
$GNGGA,081129.000,2944.9074,N,10633.0897,E,1,12,0.9,317.1,M,,,,0000*1C
$GNRMC,081129.000,A,2944.9074,N,10633.0897,E,0.23,0.00,160519,,*15
$GPGSA,A,3,01,03,06,11,17,19,22,28,30,,,,1.2,0.9,0.8*33
$BDGSA,A,3,02,03,04,,,,,,,,,,1.2,0.9,0.8*24
$GLGSA,A,3,,,,,,,,,,,,,1.2,0.9,0.8*2C
$GPGSV,3,1,10,01,26,040,41,03,35,083,41,06,37,230,43,11,16,053,35*76
$GPGSV,3,2,10,17,51,327,44,19,37,299,42,22,25,061,42,28,79,050,43*75
$GPGSV,3,3,10,30,25,193,42,07,02,171,00*73
$BDGSV,3,1,11,02,47,219,40,03,55,171,41,04,23,109,40,27,36,046,44*6F
$BDGSV,3,2,11,32,00,000,41,01,40,125,00,07,57,145,00,08,75,339,00*68
$BDGSV,3,3,11,10,83,196,00,13,62,253,00,30,57,323,00*5D
$B3CN0,0,21,0,0,0,0,0,0,0,0,0,0,0,0*7F
$ini_pos,lastpos_good = 1,ini_pos.x:-1578907.984530,ini_pos.y:5312765.500552,ini_pos.z:3146352.521312
$rtc_local_time,localRTC.weeks:2053,localRTC.seconds:375108.248954,localGtime.weeks:2053,localGtime.seconds:375108.000000
$pseudo_cd_ph,prn:1,pseudo_cd_ph:375107923.375092267990
measnum = 0,full_prange = 22966277.695447
$oldmeas,msRange:0.000000,x:-14606498.270214,y:2557916.661085,z:21859636.590405,vx:-669.561584,vy:-2733.525391,vz:-95.081459,tb:-0.000017509656
$newmeas,x:-14606446.977409,y:2558126.069132,z:21859643.872947,vx:-669.549316,vy:-2733.529785,vz:-95.045242,tb:-0.000017509655
$pseudo_cd_ph,prn:3,pseudo_cd_ph:375107925.858923971653
measnum = 1,full_prange = 22283213.356917
$oldmeas,msRange:74.331824,x:-21770161.547809,y:10032751.595116,z:11308343.921976,vx:871.022949,vy:-1178.029541,vz:2721.105713,tb:0.000187864667
$newmeas,x:-21770226.289408,y:10032839.155839,z:11308141.664789,vx:871.009705,vy:-1178.008057,vz:2721.123779,tb:0.000187864667
$pseudo_cd_ph,prn:6,pseudo_cd_ph:375107926.144991993904
measnum = 2,full_prange = 22202360.022876
$oldmeas,msRange:74.061994,x:6541564.361598,y:25721012.819292,z:-100778.375373,vx:-227.278030,vy:75.938652,vz:3209.809814,tb:0.000204234997
$newmeas,x:6541581.193348,y:25721007.194306,z:-101016.090989,vx:-227.271088,vy:75.966682,vz:3209.809570,tb:0.000204234998
$pseudo_cd_ph,prn:11,pseudo_cd_ph:375107920.675938963890
measnum = 3,full_prange = 23599138.149254
$oldmeas,msRange:78.721446,x:-18805003.502991,y:-673691.004390,z:18125993.668517,vx:-1364.562500,vy:-2034.626709,vz:-1474.444946,tb:-0.000605667714
$newmeas,x:-18804896.086943,y:-673530.841478,z:18126109.732993,vx:-1364.564331,vy:-2034.643311,vz:-1474.413086,tb:-0.000605667714
$pseudo_cd_ph,prn:17,pseudo_cd_ph:375107927.924739122391
measnum = 4,full_prange = 21624232.060204
$oldmeas,msRange:72.133663,x:2738871.993745,y:16022519.288133,z:21430326.226768,vx:-2490.026855,vy:-811.112244,vz:934.197571,tb:0.000055554818
$newmeas,x:2739051.600649,y:16022577.794519,z:21430258.841328,vx:-2490.015381,vy:-811.120911,vz:934.229187,tb:0.000055554817
$pseudo_cd_ph,prn:19,pseudo_cd_ph:375107926.430999875069
measnum = 5,full_prange = 21959941.920543
$oldmeas,msRange:73.253418,x:10823601.113644,y:16713390.986282,z:17234657.201212,vx:-2139.966309,vy:-697.697449,vz:1993.607666,tb:-0.000318376871
$newmeas,x:10823757.866451,y:16713442.093055,z:17234511.167479,vx:-2139.945801,vy:-697.700134,vz:1993.635254,tb:-0.000318376872
$pseudo_cd_ph,prn:22,pseudo_cd_ph:375107921.495400249958
measnum = 6,full_prange = 23324689.706621
$oldmeas,msRange:77.805864,x:-20294424.823612,y:3556085.193793,z:16956812.523699,vx:1243.544312,vy:-1736.052002,vz:1886.197876,tb:-0.000701667892
$newmeas,x:-20294521.574638,y:3556220.262767,z:16956665.771160,vx:1243.539307,vy:-1736.033569,vz:1886.225586,tb:-0.000701667892
$pseudo_cd_ph,prn:28,pseudo_cd_ph:375107931.909577786922
measnum = 7,full_prange = 20643157.206283
$oldmeas,msRange:68.861154,x:-8951891.789099,y:20295525.917741,z:15284439.101509,vx:-1506.303589,vy:1040.527466,vz:-2349.129395,tb:0.000767880023
$newmeas,x:-8951788.067126,y:20295454.268732,z:15284600.857491,vx:-1506.323364,vy:1040.533325,vz:-2349.107910,tb:0.000767880022
$pseudo_cd_ph,prn:30,pseudo_cd_ph:375107922.924129724503
measnum = 8,full_prange = 23075079.884313
$oldmeas,msRange:76.973347,x:-2047499.877757,y:24608068.795422,z:-9501749.851001,vx:-560.296570,vy:-1129.992432,vz:-2818.147217,tb:-0.000105547163
$newmeas,x:-2047456.752016,y:24608155.770201,z:-9501532.937090,vx:-560.286438,vy:-1129.968018,vz:-2818.163086,tb:-0.000105547162
Refix G01: 2, 375107.923375, 2177
Refix G03: 2, 375107.925859, -1355
Refix G06: 2, 375107.926145, -3669
Refix G07: 2, 375107.916077, 2357
Refix G11: 2, 375107.920676, 1893
Refix G17: 2, 375107.927925, -1706
Refix G19: 2, 375107.926431, -2666
Refix G22: 2, 375107.921495, 178
Refix G28: 2, 375107.931910, -1596
Refix G30: 2, 375107.922924, 2078
$GNGGA,081130.000,2944.9073,N,10633.0898,E,1,12,0.9,317.8,M,,,,0000*15
$GNRMC,081130.000,A,2944.9073,N,10633.0898,E,0.31,0.00,160519,,*16
$GPGSA,A,3,01,03,06,11,17,19,22,28,30,,,,1.2,0.9,0.8*33
$BDGSA,A,3,02,03,04,,,,,,,,,,1.2,0.9,0.8*24
$GLGSA,A,3,,,,,,,,,,,,,1.2,0.9,0.8*2C
$GPGSV,3,1,10,01,26,040,41,03,35,083,41,06,37,230,44,11,16,053,34*70
$GPGSV,3,2,10,17,51,327,45,19,37,299,43,22,25,061,42,28,79,050,44*72
$GPGSV,3,3,10,30,25,193,42,07,02,171,00*73
$BDGSV,3,1,11,02,47,219,40,03,55,171,43,04,23,109,41,27,36,046,44*6C
$BDGSV,3,2,11,32,00,000,41,01,40,125,00,07,57,145,00,08,75,339,00*68
$BDGSV,3,3,11,10,83,196,00,13,62,253,00,30,57,323,00*5D
$B3CN0,0,16,0,0,0,0,0,0,0,0,0,0,0,0*7B
$ini_pos,lastpos_good = 1,ini_pos.x:-1578908.409648,ini_pos.y:5312766.060685,ini_pos.z:3146352.743670
$rtc_local_time,localRTC.weeks:2053,localRTC.seconds:375109.248954,localGtime.weeks:2053,localGtime.seconds:375109.000000
$pseudo_cd_ph,prn:1,pseudo_cd_ph:375108923.373681008816
measnum = 0,full_prange = 22966691.109920
$oldmeas,msRange:0.000000,x:-14607167.912027,y:2555183.163735,z:21859541.272580,vx:-669.722107,vy:-2733.469482,vz:-95.554199,tb:-0.000017509667
$newmeas,x:-14607116.606003,y:2555392.571264,z:21859548.591469,vx:-669.709778,vy:-2733.473633,vz:-95.517982,tb:-0.000017509666
$pseudo_cd_ph,prn:3,pseudo_cd_ph:375108925.859756350517
measnum = 1,full_prange = 22282954.148483
$oldmeas,msRange:74.331682,x:-21769290.435617,y:10031573.421392,z:11311064.906501,vx:871.201477,vy:-1178.317993,vz:2720.863525,tb:0.000187864666
$newmeas,x:-21769355.189729,y:10031661.002538,z:11310862.669667,vx:871.188171,vy:-1178.296509,vz:2720.881592,tb:0.000187864666
$pseudo_cd_ph,prn:6,pseudo_cd_ph:375108926.147293627262
measnum = 2,full_prange = 22201660.340340
$oldmeas,msRange:74.060383,x:6541337.036759,y:25721088.568660,z:-97568.564711,vx:-227.371674,vy:75.560097,vz:3209.811768,tb:0.000204234987
$newmeas,x:6541353.874914,y:25721082.971886,z:-97806.272992,vx:-227.364746,vy:75.588127,vz:3209.811768,tb:0.000204234988
$pseudo_cd_ph,prn:11,pseudo_cd_ph:375108920.674708425999
measnum = 3,full_prange = 23599497.388817
$oldmeas,msRange:78.723367,x:-18806368.053712,y:-675725.525824,z:18124519.021031,vx:-1364.539062,vy:-2034.416260,vz:-1474.850098,tb:-0.000605667711
$newmeas,x:-18806260.637879,y:-675565.377043,z:18124635.119163,vx:-1364.540894,vy:-2034.432861,vz:-1474.818237,tb:-0.000605667712
$pseudo_cd_ph,prn:17,pseudo_cd_ph:375108927.925792217255
measnum = 4,full_prange = 21623906.686292
$oldmeas,msRange:72.133298,x:2736381.887008,y:16021708.236026,z:21431260.204798,vx:-2490.186768,vy:-810.992004,vz:933.758606,tb:0.000055554828
$newmeas,x:2736561.502735,y:16021766.732858,z:21431192.852034,vx:-2490.175293,vy:-811.000671,vz:933.790222,tb:0.000055554827
$pseudo_cd_ph,prn:19,pseudo_cd_ph:375108926.432660400867
measnum = 5,full_prange = 21959434.440799
$oldmeas,msRange:73.252444,x:10821461.007269,y:16712693.306973,z:17236650.620745,vx:-2140.246582,vy:-697.661194,vz:1993.231445,tb:-0.000318376870
$newmeas,x:10821617.776990,y:16712744.409907,z:17236504.617943,vx:-2140.226074,vy:-697.663818,vz:1993.259033,tb:-0.000318376870
$pseudo_cd_ph,prn:22,pseudo_cd_ph:375108921.495256364346
measnum = 6,full_prange = 23324723.173886
$oldmeas,msRange:77.806696,x:-20293181.246990,y:3554349.023294,z:16958698.543681,vx:1243.608887,vy:-1736.289062,vz:1885.842163,tb:-0.000701667897
$newmeas,x:-20293278.003180,y:3554484.110905,z:16958551.818612,vx:1243.603882,vy:-1736.270630,vz:1885.869873,tb:-0.000701667896
$pseudo_cd_ph,prn:28,pseudo_cd_ph:375108931.910564243793
measnum = 7,full_prange = 20642851.808248
$oldmeas,msRange:68.860858,x:-8953397.949273,y:20296566.402016,z:15282089.816459,vx:-1506.016846,vy:1040.441162,vz:-2349.440918,tb:0.000767880027
$newmeas,x:-8953294.248575,y:20296494.760006,z:15282251.591510,vx:-1506.036621,vy:1040.447144,vz:-2349.419434,tb:0.000767880027
$pseudo_cd_ph,prn:30,pseudo_cd_ph:375108922.922783255577
measnum = 8,full_prange = 23075473.875869
$oldmeas,msRange:76.975385,x:-2048060.240147,y:24606938.644576,z:-9504567.895877,vx:-560.428223,vy:-1130.309448,vz:-2817.942627,tb:-0.000105547171
$newmeas,x:-2048017.103538,y:24607025.645241,z:-9504350.994008,vx:-560.418091,vy:-1130.285034,vz:-2817.958496,tb:-0.000105547171
Refix G01: 2, 375108.923374, 2169
Refix G03: 2, 375108.925860, -1363
Refix G06: 2, 375108.926147, -3678
Refix G07: 2, 375108.916075, 2349
Refix G11: 2, 375108.920675, 1885
Refix G17: 2, 375108.927926, -1715
Refix G19: 2, 375108.926433, -2675
Refix G22: 2, 375108.921495, 170
Refix G28: 2, 375108.931911, -1605
Refix G30: 2, 375108.922923, 2069
$GNGGA,081131.000,2944.9071,N,10633.0901,E,1,12,0.9,318.4,M,,,,0000*14
$GNRMC,081131.000,A,2944.9071,N,10633.0901,E,0.15,0.00,160519,,*12
$GPGSA,A,3,01,03,06,11,17,19,22,28,30,,,,1.2,0.9,0.8*33
$BDGSA,A,3,02,03,04,,,,,,,,,,1.2,0.9,0.8*24
$GLGSA,A,3,,,,,,,,,,,,,1.2,0.9,0.8*2C
$GPGSV,3,1,10,01,26,040,41,03,35,083,42,06,37,230,44,11,16,053,34*73
$GPGSV,3,2,10,17,51,327,45,19,37,299,43,22,25,061,42,28,79,050,44*72
$GPGSV,3,3,10,30,25,193,41,07,02,171,00*70
$BDGSV,3,1,11,02,47,219,41,03,55,171,43,04,23,109,40,08,75,339,33*6D
$BDGSV,3,2,11,10,83,196,29,27,36,046,43,32,00,000,41,01,40,125,00*64
$BDGSV,3,3,11,07,57,145,00,13,62,253,00,30,57,323,00*5C
$B3CN0,0,0,0,0,0,0,0,0,0,0,0,0,0,0*4C
$ini_pos,lastpos_good = 1,ini_pos.x:-1578909.065507,ini_pos.y:5312766.584372,ini_pos.z:3146352.740891
$rtc_local_time,localRTC.weeks:2053,localRTC.seconds:375110.248954,localGtime.weeks:2053,localGtime.seconds:375110.000000
$pseudo_cd_ph,prn:1,pseudo_cd_ph:375109923.372279703617
measnum = 0,full_prange = 22967101.540265
$oldmeas,msRange:0.000000,x:-14607837.714330,y:2552449.722396,z:21859445.482011,vx:-669.882568,vy:-2733.413330,vz:-96.026939,tb:-0.000017509678
$newmeas,x:-14607786.395095,y:2552659.129373,z:21859452.837248,vx:-669.870300,vy:-2733.417725,vz:-95.990723,tb:-0.000017509677
$pseudo_cd_ph,prn:3,pseudo_cd_ph:375109925.860591530800
measnum = 1,full_prange = 22282694.100204
$oldmeas,msRange:74.331540,x:-21768419.144974,y:10030394.959183,z:11313785.648820,vx:871.379883,vy:-1178.606445,vz:2720.621338,tb:0.000187864664
$newmeas,x:-21768483.911592,y:10030482.560750,z:11313583.432351,vx:871.366638,vy:-1178.585083,vz:2720.639404,tb:0.000187864664
$pseudo_cd_ph,prn:6,pseudo_cd_ph:375109926.149599373341
measnum = 2,full_prange = 22200959.424841
$oldmeas,msRange:74.058772,x:6541109.618240,y:25721163.939479,z:-94358.751966,vx:-227.465378,vy:75.181549,vz:3209.813965,tb:0.000204234977
$newmeas,x:6541126.462802,y:25721158.370914,z:-94596.452895,vx:-227.458450,vy:75.209579,vz:3209.813721,tb:0.000204234977
$pseudo_cd_ph,prn:11,pseudo_cd_ph:375109920.673479497433
measnum = 3,full_prange = 23599856.145916
$oldmeas,msRange:78.725288,x:-18807732.580897,y:-677759.836745,z:18123043.968455,vx:-1364.515503,vy:-2034.205688,vz:-1475.255127,tb:-0.000605667709
$newmeas,x:-18807625.165286,y:-677599.702103,z:18123160.100240,vx:-1364.517334,vy:-2034.222290,vz:-1475.223267,tb:-0.000605667709
$pseudo_cd_ph,prn:17,pseudo_cd_ph:375109927.926850438118
measnum = 4,full_prange = 21623579.775645
$oldmeas,msRange:72.132934,x:2733891.620510,y:16020897.304180,z:21432193.743856,vx:-2490.346436,vy:-810.871704,vz:933.319580,tb:0.000055554839
$newmeas,x:2734071.245043,y:16020955.791453,z:21432126.423773,vx:-2490.334961,vy:-810.880432,vz:933.351257,tb:0.000055554838
$pseudo_cd_ph,prn:19,pseudo_cd_ph:375109926.434328854084
measnum = 5,full_prange = 21958924.584474
$oldmeas,msRange:73.251471,x:10819320.620544,y:16711995.663964,z:17238643.664063,vx:-2140.526855,vy:-697.624878,vz:1992.855225,tb:-0.000318376868
$newmeas,x:10819477.407159,y:16712046.763051,z:17238497.692208,vx:-2140.506348,vy:-697.627502,vz:1992.882812,tb:-0.000318376868
$pseudo_cd_ph,prn:22,pseudo_cd_ph:375109921.495122790337
measnum = 6,full_prange = 23324753.549811
$oldmeas,msRange:77.807528,x:-20291937.605820,y:3552612.615763,z:16960584.207856,vx:1243.673462,vy:-1736.526123,vz:1885.486328,tb:-0.000701667902
$newmeas,x:-20292034.367155,y:3552747.721991,z:16960437.510281,vx:1243.668457,vy:-1736.507690,vz:1885.514038,tb:-0.000701667901
$pseudo_cd_ph,prn:28,pseudo_cd_ph:375109931.911554217339
measnum = 7,full_prange = 20642545.355941
$oldmeas,msRange:68.860563,x:-8954903.822754,y:20297606.800012,z:15279740.219750,vx:-1505.730225,vy:1040.354858,vz:-2349.752686,tb:0.000767880032
$newmeas,x:-8954800.143337,y:20297535.165008,z:15279902.013857,vx:-1505.749878,vy:1040.360840,vz:-2349.731201,tb:0.000767880032
$pseudo_cd_ph,prn:30,pseudo_cd_ph:375109922.921438694000
measnum = 8,full_prange = 23075867.295616
$oldmeas,msRange:76.977422,x:-2048620.734195,y:24605808.176730,z:-9507385.736159,vx:-560.559875,vy:-1130.626343,vz:-2817.738037,tb:-0.000105547180
$newmeas,x:-2048577.586715,y:24605895.203277,z:-9507168.846342,vx:-560.549744,vy:-1130.601929,vz:-2817.753906,tb:-0.000105547179
Refix G01: 2, 375109.923372, 2174
Refix G03: 2, 375109.925861, -1356
Refix G06: 2, 375109.926150, -3672
Refix G07: 2, 375109.916074, 2353
Refix G11: 2, 375109.920673, 1890
Refix G17: 2, 375109.927927, -1709
Refix G19: 2, 375109.926434, -2669
Refix G22: 2, 375109.921495, 176
Refix G28: 2, 375109.931912, -1598
Refix G30: 2, 375109.922921, 2075
$GNGGA,081132.000,2944.9070,N,10633.0904,E,1,12,0.9,319.4,M,,,,0000*12
$GNRMC,081132.000,A,2944.9070,N,10633.0904,E,0.14,0.00,160519,,*14
$GPGSA,A,3,01,03,06,11,17,19,22,28,30,,,,1.2,0.9,0.8*33
$BDGSA,A,3,02,03,04,,,,,,,,,,1.2,0.9,0.8*24
$GLGSA,A,3,,,,,,,,,,,,,1.2,0.9,0.8*2C
$GPGSV,3,1,10,01,26,040,41,03,35,083,42,06,37,230,43,11,16,053,34*74
$GPGSV,3,2,10,17,51,327,45,19,37,299,43,22,25,061,41,28,79,050,44*71
$GPGSV,3,3,10,30,25,193,43,07,02,171,00*72
$BDGSV,3,1,11,02,47,219,39,03,55,171,45,04,23,109,40,08,75,339,42*62
$BDGSV,3,2,11,10,83,196,42,27,36,046,43,32,00,000,41,01,40,125,00*69
$BDGSV,3,3,11,07,57,145,00,13,62,253,00,30,57,323,00*5C
$B3CN0,0,0,0,0,0,0,0,0,0,0,0,0,0,0*4C
$ini_pos,lastpos_good = 1,ini_pos.x:-1578909.780790,ini_pos.y:5312767.377356,ini_pos.z:3146353.071580
$rtc_local_time,localRTC.weeks:2053,localRTC.seconds:375111.248954,localGtime.weeks:2053,localGtime.seconds:375111.000000
$pseudo_cd_ph,prn:1,pseudo_cd_ph:375110923.370869338512
measnum = 0,full_prange = 22967514.686702
$oldmeas,msRange:0.000000,x:-14608507.677106,y:2549716.337136,z:21859349.218703,vx:-670.043030,vy:-2733.357178,vz:-96.499680,tb:-0.000017509689
$newmeas,x:-14608456.344654,y:2549925.743581,z:21859356.610289,vx:-670.030762,vy:-2733.361572,vz:-96.463463,tb:-0.000017509688
$pseudo_cd_ph,prn:3,pseudo_cd_ph:375110925.861421048641
measnum = 1,full_prange = 22282435.749483
$oldmeas,msRange:74.331397,x:-21767547.675937,y:10029216.208483,z:11316506.148876,vx:871.558228,vy:-1178.895020,vz:2720.378906,tb:0.000187864663
$newmeas,x:-21767612.455061,y:10029303.830477,z:11316303.952760,vx:871.544983,vy:-1178.873535,vz:2720.396973,tb:0.000187864663
$pseudo_cd_ph,prn:6,pseudo_cd_ph:375110926.151899993420
measnum = 2,full_prange = 22200260.046078
$oldmeas,msRange:74.057161,x:6540882.105989,y:25721238.931760,z:-91148.937207,vx:-227.559143,vy:74.803017,vz:3209.815918,tb:0.000204234966
$newmeas,x:6540898.956963,y:25721233.391402,z:-91386.630794,vx:-227.552200,vy:74.831047,vz:3209.815674,tb:0.000204234967
$pseudo_cd_ph,prn:11,pseudo_cd_ph:375110920.672233462334
measnum = 3,full_prange = 23600220.031425
$oldmeas,msRange:78.727208,x:-18809097.084493,y:-679793.937124,z:18121568.510825,vx:-1364.491821,vy:-2033.995117,vz:-1475.660156,tb:-0.000605667706
$newmeas,x:-18808989.669085,y:-679633.816588,z:18121684.676286,vx:-1364.493652,vy:-2034.011719,vz:-1475.628296,tb:-0.000605667707
$pseudo_cd_ph,prn:17,pseudo_cd_ph:375110927.927904486656
measnum = 4,full_prange = 21623254.115829
$oldmeas,msRange:72.132569,x:2731401.194307,y:16020086.492633,z:21433126.843921,vx:-2490.506104,vy:-810.751404,vz:932.880615,tb:0.000055554849
$newmeas,x:2731580.827653,y:16020144.970347,z:21433059.556516,vx:-2490.494629,vy:-810.760071,vz:932.912231,tb:0.000055554848
$pseudo_cd_ph,prn:19,pseudo_cd_ph:375110926.435989618301
measnum = 5,full_prange = 21958417.033253
$oldmeas,msRange:73.250497,x:10817179.953511,y:16711298.057307,z:17240636.331119,vx:-2140.807129,vy:-697.588501,vz:1992.479004,tb:-0.000318376866
$newmeas,x:10817336.757031,y:16711349.152549,z:17240490.390200,vx:-2140.786621,vy:-697.591125,vz:1992.506592,tb:-0.000318376866
$pseudo_cd_ph,prn:22,pseudo_cd_ph:375110921.494977891445
measnum = 6,full_prange = 23324787.320850
$oldmeas,msRange:77.808359,x:-20290693.900155,y:3550875.971219,z:16962469.516187,vx:1243.737915,vy:-1736.763062,vz:1885.130493,tb:-0.000701667906
$newmeas,x:-20290790.666646,y:3551011.096083,z:16962322.846087,vx:1243.732910,vy:-1736.744629,vz:1885.158203,tb:-0.000701667906
$pseudo_cd_ph,prn:28,pseudo_cd_ph:375110931.912537097931
measnum = 7,full_prange = 20642241.030047
$oldmeas,msRange:68.860266,x:-8956409.409533,y:20298647.111668,z:15277390.311426,vx:-1505.443481,vy:1040.268555,vz:-2350.064209,tb:0.000767880037
$newmeas,x:-8956305.751386,y:20298575.483667,z:15277552.124603,vx:-1505.463257,vy:1040.274414,vz:-2350.042725,tb:0.000767880037
$pseudo_cd_ph,prn:30,pseudo_cd_ph:375110922.920088171959
measnum = 8,full_prange = 23076262.502265
$oldmeas,msRange:76.979459,x:-2049181.359938,y:24604677.391921,z:-9510203.371785,vx:-560.691589,vy:-1130.943359,vz:-2817.533447,tb:-0.000105547188
$newmeas,x:-2049138.201580,y:24604764.444356,z:-9509986.494009,vx:-560.681458,vy:-1130.918945,vz:-2817.549072,tb:-0.000105547188
Refix G01: 2, 375110.923371, 2179
Refix G03: 2, 375110.925861, -1350
Refix G06: 2, 375110.926152, -3666
Refix G07: 2, 375110.916072, 2358
Refix G11: 2, 375110.920672, 1895
Refix G17: 2, 375110.927928, -1704
Refix G19: 2, 375110.926436, -2664
Refix G22: 2, 375110.921495, 181
Refix G28: 2, 375110.931913, -1592
Refix G30: 2, 375110.922920, 2081
$GNGGA,081133.000,2944.9070,N,10633.0906,E,1,12,0.9,320.2,M,,,,0000*1D
$GNRMC,081133.000,A,2944.9070,N,10633.0906,E,0.43,0.00,160519,,*15
$GPGSA,A,3,01,03,06,11,17,19,22,28,30,,,,1.2,0.9,0.8*33
$BDGSA,A,3,02,03,04,,,,,,,,,,1.2,0.9,0.8*24
$GLGSA,A,3,,,,,,,,,,,,,1.2,0.9,0.8*2C
$GPGSV,3,1,10,01,26,040,42,03,35,083,43,06,37,230,43,11,16,053,34*76
$GPGSV,3,2,10,17,51,327,45,19,37,299,43,22,25,061,42,28,79,050,44*72
$GPGSV,3,3,10,30,25,193,42,07,02,171,00*73
$BDGSV,3,1,11,02,47,219,40,03,55,171,43,04,23,109,40,08,75,339,43*6B
$BDGSV,3,2,11,10,83,196,42,27,36,046,43,32,00,000,41,01,40,125,00*69
$BDGSV,3,3,11,07,57,145,00,13,62,253,00,30,57,323,00*5C
$B3CN0,0,0,0,0,0,0,0,0,0,0,0,0,0,0*4C
$ini_pos,lastpos_good = 1,ini_pos.x:-1578910.319431,ini_pos.y:5312767.971813,ini_pos.z:3146353.406696
$rtc_local_time,localRTC.weeks:2053,localRTC.seconds:375112.248954,localGtime.weeks:2053,localGtime.seconds:375112.000000
$pseudo_cd_ph,prn:1,pseudo_cd_ph:375111923.369454026222
measnum = 0,full_prange = 22967929.316269
$oldmeas,msRange:0.000000,x:-14609177.800336,y:2546983.008023,z:21859252.482657,vx:-670.203491,vy:-2733.301025,vz:-96.972412,tb:-0.000017509700
$newmeas,x:-14609126.454666,y:2547192.413945,z:21859259.910595,vx:-670.191162,vy:-2733.305420,vz:-96.936195,tb:-0.000017509699
$pseudo_cd_ph,prn:3,pseudo_cd_ph:375111925.862245082855
measnum = 1,full_prange = 22282179.042712
$oldmeas,msRange:74.331256,x:-21766676.028560,y:10028037.169285,z:11319226.406610,vx:871.736572,vy:-1179.183472,vz:2720.136719,tb:0.000187864662
$newmeas,x:-21766740.820191,y:10028124.811713,z:11319024.230835,vx:871.723328,vy:-1179.161987,vz:2720.154541,tb:0.000187864662
$pseudo_cd_ph,prn:6,pseudo_cd_ph:375111926.154195666313
measnum = 2,full_prange = 22199562.150444
$oldmeas,msRange:74.055551,x:6540654.499954,y:25721313.545518,z:-87939.120502,vx:-227.652954,vy:74.424500,vz:3209.817871,tb:0.000204234956
$newmeas,x:6540671.357345,y:25721308.033363,z:-88176.806759,vx:-227.645996,vy:74.452530,vz:3209.817627,tb:0.000204234957
$pseudo_cd_ph,prn:11,pseudo_cd_ph:375111920.670992016792
measnum = 3,full_prange = 23600582.541019
$oldmeas,msRange:78.729129,x:-18810461.564448,y:-681827.826928,z:18120092.648173,vx:-1364.468140,vy:-2033.784546,vz:-1476.065186,tb:-0.000605667704
$newmeas,x:-18810354.149252,y:-681667.720511,z:18120208.847302,vx:-1364.469971,vy:-2033.801147,vz:-1476.033325,tb:-0.000605667704
$pseudo_cd_ph,prn:17,pseudo_cd_ph:375111927.928955554962
measnum = 4,full_prange = 21622929.349464
$oldmeas,msRange:72.132204,x:2728910.608455,y:16019275.801419,z:21434059.504977,vx:-2490.665771,vy:-810.631042,vz:932.441589,tb:0.000055554860
$newmeas,x:2729090.250615,y:16019334.269574,z:21433992.250247,vx:-2490.654297,vy:-810.639771,vz:932.473267,tb:0.000055554859
$pseudo_cd_ph,prn:19,pseudo_cd_ph:375111926.437650561333
measnum = 5,full_prange = 21957909.428425
$oldmeas,msRange:73.249524,x:10815039.006208,y:16710600.487054,z:17242628.621872,vx:-2141.087402,vy:-697.552063,vz:1992.102661,tb:-0.000318376865
$newmeas,x:10815195.826630,y:16710651.578447,z:17242482.711890,vx:-2141.066895,vy:-697.554749,vz:1992.130249,tb:-0.000318376865
$pseudo_cd_ph,prn:22,pseudo_cd_ph:375111921.494832932949
measnum = 6,full_prange = 23324821.109758
$oldmeas,msRange:77.809192,x:-20289450.130051,y:3549139.089679,z:16964354.468635,vx:1243.802368,vy:-1737.000122,vz:1884.774536,tb:-0.000701667911
$newmeas,x:-20289546.901694,y:3549274.233177,z:16964207.826013,vx:1243.797363,vy:-1736.981689,vz:1884.802246,tb:-0.000701667911
$pseudo_cd_ph,prn:28,pseudo_cd_ph:375111931.913516700268
measnum = 7,full_prange = 20641937.686949
$oldmeas,msRange:68.859971,x:-8957914.709597,y:20299687.336924,z:15275040.091536,vx:-1505.156738,vy:1040.182129,vz:-2350.375732,tb:0.000767880042
$newmeas,x:-8957811.072715,y:20299615.715926,z:15275201.923786,vx:-1505.176514,vy:1040.187988,vz:-2350.354248,tb:0.000767880041
$pseudo_cd_ph,prn:30,pseudo_cd_ph:375111922.918737113476
measnum = 8,full_prange = 23076657.869735
$oldmeas,msRange:76.981497,x:-2049742.117411,y:24603546.290189,z:-9513020.802695,vx:-560.823364,vy:-1131.260254,vz:-2817.328613,tb:-0.000105547197
$newmeas,x:-2049698.948173,y:24603633.368509,z:-9512803.936964,vx:-560.813232,vy:-1131.235840,vz:-2817.344482,tb:-0.000105547196
Refix G01: 2, 375111.923369, 2180
Refix G03: 2, 375111.925862, -1350
Refix G06: 2, 375111.926154, -3666
Refix G07: 2, 375111.916071, 2358
Refix G11: 2, 375111.920671, 1896
Refix G17: 2, 375111.927929, -1703
Refix G19: 2, 375111.926438, -2664
Refix G22: 2, 375111.921495, 182
Refix G28: 2, 375111.931914, -1591
Refix G30: 2, 375111.922919, 2081
$GNGGA,081134.000,2944.9069,N,10633.0907,E,1,15,0.8,321.0,M,,,,0000*16
$GNRMC,081134.000,A,2944.9069,N,10633.0907,E,0.28,0.00,160519,,*16
$GPGSA,A,3,01,03,06,11,17,19,22,28,30,,,,0.9,0.8,0.5*35
$BDGSA,A,3,02,03,04,08,10,27,,,,,,,0.9,0.8,0.5*2E
$GLGSA,A,3,,,,,,,,,,,,,0.9,0.8,0.5*2A
$GPGSV,3,1,10,01,26,040,42,03,35,083,42,06,37,230,43,11,16,053,35*76
$GPGSV,3,2,10,17,51,327,45,19,37,299,44,22,25,061,42,28,79,050,44*75
$GPGSV,3,3,10,30,25,193,42,07,02,171,00*73
$BDGSV,3,1,11,02,47,219,40,03,55,171,43,04,23,109,40,08,75,339,43*6B
$BDGSV,3,2,11,10,83,196,42,27,36,046,43,32,00,000,41,01,40,125,00*69
$BDGSV,3,3,11,07,57,145,00,13,62,253,00,30,57,323,00*5C
$B3CN0,0,0,0,0,0,0,0,0,0,0,0,0,0,0*4C
$ini_pos,lastpos_good = 1,ini_pos.x:-1578910.729920,ini_pos.y:5312768.691689,ini_pos.z:3146353.754600
$rtc_local_time,localRTC.weeks:2053,localRTC.seconds:375113.248954,localGtime.weeks:2053,localGtime.seconds:375113.000000
$pseudo_cd_ph,prn:1,pseudo_cd_ph:375112923.368040144444
measnum = 0,full_prange = 22968343.516978
$oldmeas,msRange:0.000000,x:-14609848.084003,y:2544249.735126,z:21859155.273879,vx:-670.363892,vy:-2733.244873,vz:-97.445145,tb:-0.000017509710
$newmeas,x:-14609796.725115,y:2544459.140515,z:21859162.738169,vx:-670.351624,vy:-2733.249268,vz:-97.408928,tb:-0.000017509710
$pseudo_cd_ph,prn:3,pseudo_cd_ph:375112925.863071084023
measnum = 1,full_prange = 22281921.746264
$oldmeas,msRange:74.331115,x:-21765804.202900,y:10026857.841582,z:11321946.421963,vx:871.914795,vy:-1179.472046,vz:2719.894287,tb:0.000187864661
$newmeas,x:-21765869.007032,y:10026945.504441,z:11321744.266540,vx:871.901550,vy:-1179.450562,vz:2719.912354,tb:0.000187864661
$pseudo_cd_ph,prn:6,pseudo_cd_ph:375112926.156493067741
measnum = 2,full_prange = 22198863.736609
