SD initialized success
Create debug.log Failed! 3
bbram_blkflag = 1
rtcflag = 0
BBRAM Block OK: 01 EPHflag: 28250427 12241adf, rtc 00
Hot-start nowtime:day = 28,minute = 33,seconds = 37.00
GPS 0 Init Dop:  2471, 2
GPS 1 Init Dop: -3760, 2
GPS 2 Init Dop:  -757, 2
GPS 3 Init Dop: 10000,80
GPS 4 Init Dop: 10000,80
GPS 5 Init Dop: -3167, 2
GPS 6 Init Dop: 10000,80
GPS 7 Init Dop: 10000,80
GPS 8 Init Dop: 10000,80
GPS 9 Init Dop: 10000,80
GPS10 Init Dop:  2113, 2
GPS11 Init Dop: 10000,80
GPS12 Init Dop: 10000,80
GPS13 Init Dop: 10000,80
GPS14 Init Dop: 10000,80
GPS15 Init Dop: 10000,80
GPS16 Init Dop: -1460, 2
GPS17 Init Dop: 10000,80
GPS18 Init Dop: -2354, 2
GPS19 Init Dop: 10000,80
GPS20 Init Dop: 10000,80
GPS21 Init Dop:   713, 2
GPS22 Init Dop: 10000,80
GPS23 Init Dop: 10000,80
GPS24 Init Dop: 10000,80
GPS25 Init Dop: 10000,80
GPS26 Init Dop: 10000,80
GPS27 Init Dop: -1091, 2
GPS28 Init Dop: 10000,80
GPS29 Init Dop:  2353, 2
GPS30 Init Dop: 10000,80
GPS31 Init Dop: 10000,80
BDS 0 Init Dop:  -880, 2
BDS 1 Init Dop:  -945, 2
BDS 2 Init Dop:  -901, 2
BDS 3 Init Dop:  -899, 2
BDS 4 Init Dop:  -927, 2
BDS 5 Init Dop: 10000,80
BDS 6 Init Dop:  -204, 2
BDS 7 Init Dop:  -485, 2
BDS 8 Init Dop: 10000,80
BDS 9 Init Dop:  -723, 2
BDS10 Init Dop: 10000,80
BDS11 Init Dop: -2147, 2
BDS12 Init Dop:  -916, 2
BDS13 Init Dop: 10000,80
BDS14 Init Dop: 10000,80
BDS15 Init Dop: 10000,80
BDS16 Init Dop: 10000,80
BDS17 Init Dop: 10000,80
BDS18 Init Dop: -2530, 2
BDS19 Init Dop: 10000,80
BDS20 Init Dop: 10000,80
BDS21 Init Dop: -3698, 2
BDS22 Init Dop: 10000,80
BDS23 Init Dop: 10000,80
BDS24 Init Dop: 10000,80
BDS25 Init Dop:  -127, 2
BDS26 Init Dop: 10000,80
BDS27 Init Dop: 10000,80
BDS28 Init Dop:   989, 2
BDS29 Init Dop: 10000,80
BDS30 Init Dop: 10000,80
BDS31 Init Dop: 10000,80
Good luck!
$ini_pos,lastpos_good = 1,ini_pos.x:-1578910.000000,ini_pos.y:5312766.000000,ini_pos.z:3146354.000000
$rtc_local_time,localRTC.weeks:2055,localRTC.seconds:200036.026007,localGtime.weeks:0,localGtime.seconds:19.026010
source<tow,snapshot
$GNGGA,000000.000,,,,,0,00,,,M,,,,0000*2B
$GNRMC,000000.000,A,,,,,,,060180,,*29
$GPGSA,A,1,,,,,,,,,,,,,,,*1E
$BDGSA,A,1,,,,,,,,,,,,,,,*0F
$GLGSA,A,1,,,,,,,,,,,,,,,*02
$B3CN0,0,0,0,0,0,0,0,0,0,0,0,0,0,0*4C
$ini_pos,lastpos_good = 1,ini_pos.x:-1578910.000000,ini_pos.y:5312766.000000,ini_pos.z:3146354.000000
$rtc_local_time,localRTC.weeks:2055,localRTC.seconds:200037.026007,localGtime.weeks:2055,localGtime.seconds:200037.026007
source<tow,snapshot
$GNGGA,000000.000,,,,,0,00,,,M,,,,0000*2B
$GNRMC,000000.000,A,,,,,,,060180,,*29
$GPGSA,A,1,,,,,,,,,,,,,,,*1E
$BDGSA,A,1,,,,,,,,,,,,,,,*0F
$GLGSA,A,1,,,,,,,,,,,,,,,*02
$B3CN0,0,0,0,0,0,0,0,0,0,0,0,0,0,0*4C
tow update,200039041.982497
$ini_pos,lastpos_good = 1,ini_pos.x:-1578910.000000,ini_pos.y:5312766.000000,ini_pos.z:3146354.000000
$rtc_local_time,localRTC.weeks:2055,localRTC.seconds:200038.026007,localGtime.weeks:2055,localGtime.seconds:200039.041982
$pseudo_cd_ph,prn:1,pseudo_cd_ph:9.088884057188
measnum = 0,full_prange = 23343854.784216
$oldmeas,msRange:0.000000,x:-15095926.439325,y:690938.233797,z:21685346.568441,vx:-772.598389,vy:-2680.904297,vz:-417.131927,tb:-0.000026895045
$newmeas,x:-15095866.280066,y:691146.987330,z:21685379.047715,vx:-772.587036,vy:-2680.912354,vz:-417.095459,tb:-0.000026895044
$pseudo_cd_ph,prn:3,pseudo_cd_ph:13.122539606029
measnum = 1,full_prange = 22198766.955681
$oldmeas,msRange:74.247416,x:-21160044.500874,y:9358818.412238,z:12927179.511764,vx:963.826416,vy:-1359.730713,vz:2562.687500,tb:0.000187158654
$newmeas,x:-21160115.869048,y:9358919.095577,z:12926989.751389,vx:963.815857,vy:-1359.709106,vz:2562.708008,tb:0.000187158655
$pseudo_cd_ph,prn:6,pseudo_cd_ph:14.456518879850
measnum = 2,full_prange = 21800815.086428
$oldmeas,msRange:72.918840,x:6252787.564797,y:25701245.969621,z:2221218.667951,vx:-307.072845,vy:-195.652054,vz:3193.842773,tb:0.000193713381
$newmeas,x:6252809.894700,y:25701260.196409,z:2220986.412563,vx:-307.063507,vy:-195.625412,vz:3193.846191,tb:0.000193713382
$pseudo_cd_ph,prn:17,pseudo_cd_ph:15.316681303470
measnum = 3,full_prange = 21503479.640704
$oldmeas,msRange:71.927849,x:1194016.907810,y:15535822.281292,z:21928820.444936,vx:-2581.583008,vy:-720.167786,vz:654.686646,tb:0.000062071499
$newmeas,x:1194202.078991,y:15535873.937770,z:21928773.484489,vx:-2581.574219,vy:-720.177917,vz:654.718872,tb:0.000062071498
$pseudo_cd_ph,prn:19,pseudo_cd_ph:14.283495518003
measnum = 4,full_prange = 21700592.113200
$oldmeas,msRange:72.584923,x:9253250.508088,y:16255774.010820,z:18522622.509831,vx:-2323.087891,vy:-663.731689,vz:1722.308716,tb:-0.000313617845
$newmeas,x:9253418.665036,y:16255822.055479,z:18522497.838797,vx:-2323.069824,vy:-663.736816,vz:1722.338013,tb:-0.000313617846
$pseudo_cd_ph,prn:22,pseudo_cd_ph:8.182313876185
measnum = 5,full_prange = 23411427.752269
$oldmeas,msRange:78.293110,x:-19509717.799529,y:2562178.109824,z:18040698.117758,vx:1263.263794,vy:-1883.545532,vz:1663.086548,tb:-0.000708066052
$newmeas,x:-19509816.450383,y:2562325.199200,z:18040568.242656,vx:1263.261475,vy:-1883.528076,vz:1663.116089,tb:-0.000708066052
$pseudo_cd_ph,prn:28,pseudo_cd_ph:19.225334294264
measnum = 6,full_prange = 20543266.111266
$oldmeas,msRange:68.725065,x:-9847299.715971,y:20971150.384823,z:13679306.172777,vx:-1315.073853,vy:973.074707,vz:-2543.221436,tb:0.000767796919
$newmeas,x:-9847209.599900,y:20971083.704621,z:13679480.446274,vx:-1315.093872,vy:973.083374,vz:-2543.202393,tb:0.000767796919
$pseudo_cd_ph,prn:30,pseudo_cd_ph:8.618497757152
measnum = 7,full_prange = 23459075.918189
$oldmeas,msRange:78.452904,x:-2580807.376751,y:23692782.140231,z:-11494069.671191,vx:-661.087158,vy:-1352.657593,vz:-2653.435059,tb:-0.000112945009
$newmeas,x:-2580755.646462,y:23692887.986233,z:-11493862.036344,vx:-661.074951,vy:-1352.635132,vz:-2653.454346,tb:-0.000112945008
source>=tow,snapshot
nits = 2
$GNGGA,073340.359,2944.9004,N,10633.0947,E,1,19,0.0,313.1,M,,,,0000*1E
$GNRMC,073340.359,A,2944.9004,N,10633.0947,E,0.00,0.00,280519,,*1D
$GPGSA,A,3,01,03,06,17,19,22,28,30,,,,,0.0,0.0,0.0*31
$BDGSA,A,3,01,03,04,07,08,10,12,19,22,26,29,,0.0,0.0,0.0*2F
$GLGSA,A,3,,,,,,,,,,,,,0.0,0.0,0.0*2E
$GPGSV,2,1,08,01,00,000,25,03,00,000,26,06,00,000,26,17,00,000,26*73
$GPGSV,2,2,08,19,00,000,26,22,00,000,25,28,00,000,26,30,00,000,25*70
$BDGSV,3,1,10,01,00,000,39,03,00,000,39,07,00,000,24,08,00,000,24*66
$BDGSV,3,2,10,10,00,000,24,12,00,000,23,19,00,000,23,22,00,000,23*65
$BDGSV,3,3,10,26,00,000,23,29,00,000,23*66
$B3CN0,0,0,0,0,0,0,0,0,0,0,0,0,0,0*4C
$ini_pos,lastpos_good = 1,ini_pos.x:-1578916.585512,ini_pos.y:5312765.978270,ini_pos.z:3146339.369688
$rtc_local_time,localRTC.weeks:2055,localRTC.seconds:200039.026007,localGtime.weeks:2055,localGtime.seconds:200040.041982
$pseudo_cd_ph,prn:1,pseudo_cd_ph:9.087429035444
measnum = 0,full_prange = 23344281.314547
$oldmeas,msRange:0.000000,x:-15096699.110401,y:688257.380228,z:21684929.202495,vx:-772.743835,vy:-2680.802979,vz:-417.600006,tb:-0.000026895056
$newmeas,x:-15096638.938717,y:688466.129675,z:21684961.718811,vx:-772.732483,vy:-2680.810791,vz:-417.563568,tb:-0.000026895055
$pseudo_cd_ph,prn:3,pseudo_cd_ph:13.123137913142
measnum = 1,full_prange = 22198577.918830
$oldmeas,msRange:74.247522,x:-21159080.603427,y:9357458.536003,z:12929742.060725,vx:963.968567,vy:-1360.021851,vz:2562.410645,tb:0.000187158653
$newmeas,x:-21159151.981521,y:9357559.240044,z:12929552.322465,vx:963.958008,vy:-1360.000244,vz:2562.431152,tb:0.000187158653
$pseudo_cd_ph,prn:6,pseudo_cd_ph:14.458651746823
measnum = 2,full_prange = 21800165.999977
$oldmeas,msRange:72.917420,x:6252480.427672,y:25701050.134397,z:2224412.486946,vx:-307.201416,vy:-196.018402,vz:3193.795410,tb:0.000193713371
$newmeas,x:6252502.766260,y:25701064.387402,z:2224180.241919,vx:-307.192078,vy:-195.991760,vz:3193.798828,tb:0.000193713372
$pseudo_cd_ph,prn:17,pseudo_cd_ph:15.317732019508
measnum = 3,full_prange = 21503154.981599
$oldmeas,msRange:71.927551,x:1191435.263298,y:15535102.184057,z:21929474.907082,vx:-2581.706055,vy:-720.026733,vz:654.237671,tb:0.000062071510
$newmeas,x:1191620.440513,y:15535153.829635,z:21929427.979550,vx:-2581.697266,vy:-720.036804,vz:654.269897,tb:0.000062071509
$pseudo_cd_ph,prn:19,pseudo_cd_ph:14.285107699308
measnum = 4,full_prange = 21700099.125227
$oldmeas,msRange:72.584057,x:9250927.295483,y:16255110.314174,z:18524344.616066,vx:-2323.337646,vy:-663.661621,vz:1721.903931,tb:-0.000313617844
$newmeas,x:9251095.466688,y:16255158.352666,z:18524219.977163,vx:-2323.319580,vy:-663.666687,vz:1721.933228,tb:-0.000313617844
$pseudo_cd_ph,prn:22,pseudo_cd_ph:8.181980024918
measnum = 5,full_prange = 23411518.177157
$oldmeas,msRange:78.294162,x:-19508454.520624,y:2560294.452191,z:18042361.015237,vx:1263.294067,vy:-1883.769775,vz:1662.708496,tb:-0.000708066056
$newmeas,x:-19508553.174221,y:2560441.559649,z:18042231.169155,vx:1263.291748,vy:-1883.752319,vz:1662.738037,tb:-0.000708066056
$pseudo_cd_ph,prn:28,pseudo_cd_ph:19.226159462132
measnum = 6,full_prange = 20543009.066583
$oldmeas,msRange:68.724971,x:-9848614.644300,y:20972123.396574,z:13676762.811320,vx:-1314.782837,vy:972.948792,vz:-2543.501465,tb:0.000767796923
$newmeas,x:-9848524.549303,y:20972056.725833,z:13676937.101821,vx:-1314.802734,vy:972.957458,vz:-2543.482422,tb:0.000767796923
$pseudo_cd_ph,prn:30,pseudo_cd_ph:8.617098311408
measnum = 7,full_prange = 23459485.795313
$oldmeas,msRange:78.454951,x:-2581468.541607,y:23691429.338999,z:-11496722.982458,vx:-661.242615,vy:-1352.944946,vz:-2653.187744,tb:-0.000112945017
$newmeas,x:-2581416.798247,y:23691535.209338,z:-11496515.363342,vx:-661.230469,vy:-1352.922485,vz:-2653.207031,tb:-0.000112945016
source>=tow,snapshot
nits = 2
Refix G01: 2, 200039.284252, 3390
Refix G02: 2, 200039.278618, -2839
Refix G03: 2, 200039.288287, 163
Refix G06: 2, 200039.289623, -2247
Refix G11: 2, 200039.281779, 3032
Refix G17: 2, 200039.290482, -542
Refix G19: 2, 200039.289449, -1435
Refix G22: 2, 200039.283346, 1634
Refix G28: 2, 200039.294390, -172
Refix G30: 2, 200039.283781, 3272
$GNGGA,073341.362,2944.9026,N,10633.0941,E,1,19,0.0,317.0,M,,,,0000*14
$GNRMC,073341.362,A,2944.9026,N,10633.0941,E,0.00,0.00,280519,,*12
$GPGSA,A,3,01,03,06,17,19,22,28,30,,,,,0.0,0.0,0.0*31
$BDGSA,A,3,01,03,04,07,08,10,12,19,22,26,29,,0.0,0.0,0.0*2F
$GLGSA,A,3,,,,,,,,,,,,,0.0,0.0,0.0*2E
$GPGSV,2,1,08,01,00,000,41,03,00,000,43,06,00,000,43,17,00,000,45*74
$GPGSV,2,2,08,19,00,000,43,22,00,000,41,28,00,000,44,30,00,000,40*76
$BDGSV,3,1,11,01,00,000,40,03,00,000,40,04,00,000,34,07,00,000,43*6B
$BDGSV,3,2,11,08,00,000,43,10,00,000,43,12,00,000,40,19,00,000,43*68
$BDGSV,3,3,11,22,00,000,39,26,00,000,44,29,00,000,44*5D
$B3CN0,0,0,0,0,0,0,0,0,0,0,0,0,0,0*4C
$ini_pos,lastpos_good = 1,ini_pos.x:-1578916.149515,ini_pos.y:5312767.542163,ini_pos.z:3146344.821390
$rtc_local_time,localRTC.weeks:2055,localRTC.seconds:200040.026007,localGtime.weeks:2055,localGtime.seconds:200041.041982
$pseudo_cd_ph,prn:1,pseudo_cd_ph:9.085980241017
measnum = 0,full_prange = 23344705.986499
$oldmeas,msRange:0.000000,x:-15097471.926923,y:685576.628165,z:21684511.368468,vx:-772.889282,vy:-2680.701416,vz:-418.068085,tb:-0.000026895067
$newmeas,x:-15097411.742819,y:685785.373502,z:21684543.921825,vx:-772.877930,vy:-2680.709229,vz:-418.031616,tb:-0.000026895066
$pseudo_cd_ph,prn:3,pseudo_cd_ph:13.123738860338
measnum = 1,full_prange = 22198388.095742
$oldmeas,msRange:74.247618,x:-21158116.563834,y:9356098.368598,z:12932304.332811,vx:964.110657,vy:-1360.312988,vz:2562.133789,tb:0.000187158651
$newmeas,x:-21158187.951842,y:9356199.093338,z:12932114.616677,vx:964.100159,vy:-1360.291504,vz:2562.154297,tb:0.000187158652
$pseudo_cd_ph,prn:6,pseudo_cd_ph:14.460783838177
measnum = 2,full_prange = 21799517.145823
$oldmeas,msRange:72.915989,x:6252173.161941,y:25700853.932836,z:2227606.258520,vx:-307.330048,vy:-196.384735,vz:3193.748047,tb:0.000193713360
$newmeas,x:6252195.509217,y:25700868.212054,z:2227374.023857,vx:-307.320709,vy:-196.358093,vz:3193.751465,tb:0.000193713361
$pseudo_cd_ph,prn:17,pseudo_cd_ph:15.318782489437
measnum = 3,full_prange = 21502830.393971
$oldmeas,msRange:71.927188,x:1188853.495721,y:15534382.227931,z:21930128.920223,vx:-2581.829102,vy:-719.885559,vz:653.788635,tb:0.000062071520
$newmeas,x:1189038.678965,y:15534433.862607,z:21930082.025605,vx:-2581.820312,vy:-719.895691,vz:653.820862,tb:0.000062071520
$pseudo_cd_ph,prn:19,pseudo_cd_ph:14.286721342353
measnum = 4,full_prange = 21699605.699462
$oldmeas,msRange:72.583130,x:9248603.833167,y:16254446.687661,z:18526066.317500,vx:-2323.587158,vy:-663.591431,vz:1721.499023,tb:-0.000313617842
$newmeas,x:9248772.018621,y:16254494.719983,z:18525941.710733,vx:-2323.569092,vy:-663.596558,vz:1721.528320,tb:-0.000313617842
$pseudo_cd_ph,prn:22,pseudo_cd_ph:8.181648865939
measnum = 5,full_prange = 23411607.780070
$oldmeas,msRange:78.295190,x:-19507191.211511,y:2558410.570295,z:18044023.534678,vx:1263.324219,vy:-1883.994019,vz:1662.330444,tb:-0.000708066061
$newmeas,x:-19507289.867842,y:2558557.695829,z:18043893.717621,vx:1263.321899,vy:-1883.976562,vz:1662.359985,tb:-0.000708066060
$pseudo_cd_ph,prn:28,pseudo_cd_ph:19.226980431222
measnum = 6,full_prange = 20542753.281667
$oldmeas,msRange:68.724849,x:-9849929.281545,y:20973096.282384,z:13674219.169907,vx:-1314.491699,vy:972.822876,vz:-2543.781494,tb:0.000767796927
$newmeas,x:-9849839.207616,y:20973029.621105,z:13674393.477420,vx:-1314.511719,vy:972.831482,vz:-2543.762207,tb:0.000767796927
$pseudo_cd_ph,prn:30,pseudo_cd_ph:8.615707017110
measnum = 7,full_prange = 23459893.224381
$oldmeas,msRange:78.457035,x:-2582129.861963,y:23690076.250416,z:-11499376.046303,vx:-661.398132,vy:-1353.232300,vz:-2652.940186,tb:-0.000112945025
$newmeas,x:-2582078.105534,y:23690182.145079,z:-11499168.442945,vx:-661.385986,vy:-1353.209839,vz:-2652.959473,tb:-0.000112945025
source>=tow,snapshot
nits = 2
Refix G01: 2, 200040.286335, 3390
Refix G02: 2, 200040.280706, -2839
Refix G03: 2, 200040.290373, 163
Refix G06: 2, 200040.291710, -2246
Refix G11: 2, 200040.283863, 3032
Refix G17: 2, 200040.292568, -542
Refix G19: 2, 200040.291536, -1435
Refix G22: 2, 200040.285431, 1635
Refix G28: 2, 200040.296476, -172
Refix G30: 2, 200040.285865, 3272
$GNGGA,073342.364,2944.9043,N,10633.0937,E,1,19,0.0,319.4,M,,,,0000*19
$GNRMC,073342.364,A,2944.9043,N,10633.0937,E,0.00,0.00,280519,,*15
$GPGSA,A,3,01,03,06,17,19,22,28,30,,,,,0.0,0.0,0.0*31
$BDGSA,A,3,01,03,04,07,08,10,12,19,22,26,29,,0.0,0.0,0.0*2F
$GLGSA,A,3,,,,,,,,,,,,,0.0,0.0,0.0*2E
$GPGSV,3,1,10,01,21,041,40,03,35,077,43,06,41,234,43,17,52,335,45*7F
$GPGSV,3,2,10,19,40,305,43,22,23,056,42,28,80,082,43,30,20,191,40*73
$GPGSV,3,3,10,02,05,231,00,11,12,056,00*7F
$BDGSV,3,1,12,01,40,126,41,03,55,171,41,04,23,109,33,07,55,149,43*6C
$BDGSV,3,2,12,08,73,339,43,10,81,202,42,12,34,285,39,19,27,107,42*6A
$BDGSV,3,3,12,22,14,160,39,26,52,254,44,29,23,059,42,02,47,220,00*62
$B3CN0,0,0,0,0,0,0,0,0,0,0,0,0,0,0*4C
$ini_pos,lastpos_good = 1,ini_pos.x:-1578915.562220,ini_pos.y:5312768.287966,ini_pos.z:3146348.826666
$rtc_local_time,localRTC.weeks:2055,localRTC.seconds:200041.026007,localGtime.weeks:2055,localGtime.seconds:200042.041982
$pseudo_cd_ph,prn:1,pseudo_cd_ph:200041289.084533601999
measnum = 0,full_prange = 23345130.006233
$oldmeas,msRange:0.000000,x:-15098244.888865,y:682895.977672,z:21684093.066372,vx:-773.034668,vy:-2680.599854,vz:-418.536133,tb:-0.000026895078
$newmeas,x:-15098184.692345,y:683104.718889,z:21684125.656768,vx:-773.023315,vy:-2680.607666,vz:-418.499695,tb:-0.000026895077
$pseudo_cd_ph,prn:3,pseudo_cd_ph:200041293.124339014292
measnum = 1,full_prange = 22198198.504952
$oldmeas,msRange:74.247718,x:-21157152.382155,y:9354737.910025,z:12934866.327968,vx:964.252747,vy:-1360.604248,vz:2561.856689,tb:0.000187158650
$newmeas,x:-21157223.780071,y:9354838.655464,z:12934676.633962,vx:964.242249,vy:-1360.582642,vz:2561.877197,tb:0.000187158650
$pseudo_cd_ph,prn:6,pseudo_cd_ph:200041294.462913781404
measnum = 2,full_prange = 21798868.934954
$oldmeas,msRange:72.914561,x:6251865.767554,y:25700657.364959,z:2230799.982607,vx:-307.458740,vy:-196.751038,vz:3193.700439,tb:0.000193713350
$newmeas,x:6251888.123523,y:25700671.670388,z:2230567.758304,vx:-307.449371,vy:-196.724396,vz:3193.703857,tb:0.000193713351
$pseudo_cd_ph,prn:17,pseudo_cd_ph:200041295.319830983877
measnum = 3,full_prange = 21502506.396021
$oldmeas,msRange:71.926831,x:1186271.605139,y:15533662.412942,z:21930782.484347,vx:-2581.952148,vy:-719.744446,vz:653.339661,tb:0.000062071531
$newmeas,x:1186456.794414,y:15533714.036716,z:21930735.622642,vx:-2581.943359,vy:-719.754578,vz:653.371826,tb:0.000062071530
$pseudo_cd_ph,prn:19,pseudo_cd_ph:200041294.288334280252
measnum = 4,full_prange = 21699112.488125
$oldmeas,msRange:72.582207,x:9246280.121187,y:16253783.131329,z:18527787.614096,vx:-2323.836914,vy:-663.521240,vz:1721.094238,tb:-0.000313617840
$newmeas,x:9246448.320887,y:16253831.157478,z:18527663.039465,vx:-2323.818848,vy:-663.526306,vz:1721.123535,tb:-0.000313617841
$pseudo_cd_ph,prn:22,pseudo_cd_ph:200041288.181318104267
measnum = 5,full_prange = 23411697.275769
$oldmeas,msRange:78.296222,x:-19505927.872241,y:2556526.464163,z:18045685.676045,vx:1263.354370,vy:-1884.218262,vz:1661.952393,tb:-0.000708066065
$newmeas,x:-19506026.531303,y:2556673.607770,z:18045555.888018,vx:1263.352051,vy:-1884.200806,vz:1661.981934,tb:-0.000708066065
$pseudo_cd_ph,prn:28,pseudo_cd_ph:200041299.227796256542
measnum = 6,full_prange = 20542499.033486
$oldmeas,msRange:68.724732,x:-9851243.627703,y:20974069.042194,z:13671675.248588,vx:-1314.200684,vy:972.696838,vz:-2544.061279,tb:0.000767796931
$newmeas,x:-9851153.574836,y:20974002.390377,z:13671849.573122,vx:-1314.220581,vy:972.705444,vz:-2544.042236,tb:0.000767796931
$pseudo_cd_ph,prn:30,pseudo_cd_ph:200041288.614320427179
measnum = 7,full_prange = 23460299.241796
$oldmeas,msRange:78.459119,x:-2582791.337849,y:23688722.874528,z:-11502028.862669,vx:-661.553711,vy:-1353.519531,vz:-2652.692627,tb:-0.000112945034
$newmeas,x:-2582739.568352,y:23688828.793505,z:-11501821.275086,vx:-661.541504,vy:-1353.497070,vz:-2652.712158,tb:-0.000112945033
Refix G01: 2, 200041.289085, 2229
Refix G02: 2, 200041.283459, -4000
Refix G03: 2, 200041.293124, -996
Refix G06: 2, 200041.294463, -3405
Refix G11: 2, 200041.286613, 1870
Refix G17: 2, 200041.295320, -1701
Refix G19: 2, 200041.294288, -2594
Refix G22: 2, 200041.288181, 474
Refix G28: 2, 200041.299228, -1330
Refix G30: 2, 200041.288614, 2111
$GNGGA,073343.367,2944.9081,N,10633.0901,E,1,11,1.1,304.4,M,,,,0000*14
$GNRMC,073343.367,A,2944.9081,N,10633.0901,E,0.24,0.00,280519,,*1A
$GPGSA,A,3,01,03,06,17,19,22,28,30,,,,,2.0,1.1,1.7*35
$BDGSA,A,3,01,03,04,,,,,,,,,,2.0,1.1,1.7*21
$GLGSA,A,3,,,,,,,,,,,,,2.0,1.1,1.7*2A
$GPGSV,3,1,10,01,21,041,40,03,35,077,43,06,41,234,43,17,52,335,45*7F
$GPGSV,3,2,10,19,40,305,43,22,23,056,41,28,80,082,43,30,20,191,40*70
$GPGSV,3,3,10,02,05,231,00,11,12,056,00*7F
$BDGSV,3,1,12,01,40,126,40,03,55,171,40,04,23,109,36,07,55,149,42*68
$BDGSV,3,2,12,08,73,339,43,10,81,202,43,12,34,285,39,19,27,107,42*6B
$BDGSV,3,3,12,22,14,160,38,26,52,254,44,29,23,059,43,02,47,220,00*62
$B3CN0,0,0,0,0,0,0,0,0,0,0,0,0,0,0*4C
$ini_pos,lastpos_good = 1,ini_pos.x:-1578905.418064,ini_pos.y:5312754.112488,ini_pos.z:3146347.383181
$rtc_local_time,localRTC.weeks:2055,localRTC.seconds:200042.658822,localGtime.weeks:2055,localGtime.seconds:200043.000000
$pseudo_cd_ph,prn:1,pseudo_cd_ph:200042921.897251635790
measnum = 0,full_prange = 23406518.611598
$oldmeas,msRange:0.000000,x:-15098985.536313,y:680327.962861,z:21683691.886638,vx:-773.173950,vy:-2680.502441,vz:-418.984558,tb:-0.000026895088
$newmeas,x:-15098925.170627,y:680537.245383,z:21683724.597741,vx:-773.162598,vy:-2680.510254,vz:-418.947998,tb:-0.000026895087
$pseudo_cd_ph,prn:3,pseudo_cd_ph:200042925.940401554108
measnum = 1,full_prange = 22258584.455308
$oldmeas,msRange:74.247859,x:-21156228.546003,y:9353434.293791,z:12937320.504428,vx:964.388794,vy:-1360.883179,vz:2561.591309,tb:0.000187158648
$newmeas,x:-21156300.148243,y:9353535.333997,z:12937130.314097,vx:964.378235,vy:-1360.861572,vz:2561.612061,tb:0.000187158649
$pseudo_cd_ph,prn:6,pseudo_cd_ph:200042927.281478643417
measnum = 2,full_prange = 21858504.705430
$oldmeas,msRange:72.913227,x:6251571.157635,y:25700468.705938,z:2233859.581630,vx:-307.582062,vy:-197.101944,vz:3193.654785,tb:0.000193713340
$newmeas,x:6251593.583754,y:25700483.076086,z:2233626.725349,vx:-307.572662,vy:-197.075241,vz:3193.658203,tb:0.000193713341
$pseudo_cd_ph,prn:17,pseudo_cd_ph:200042928.136627852917
measnum = 3,full_prange = 21562672.203492
$oldmeas,msRange:71.926524,x:1183797.993417,y:15532972.949973,z:21931408.189078,vx:-2582.069824,vy:-719.609192,vz:652.909424,tb:0.000062071541
$newmeas,x:1183983.709335,y:15533024.708467,z:21931361.227188,vx:-2582.061035,vy:-719.619324,vz:652.941772,tb:0.000062071540
$pseudo_cd_ph,prn:19,pseudo_cd_ph:200042927.106053501368
measnum = 4,full_prange = 21759001.778839
$oldmeas,msRange:72.581345,x:9244053.730283,y:16253147.498604,z:18529436.266655,vx:-2324.075928,vy:-663.453918,vz:1720.706299,tb:-0.000313617839
$newmeas,x:9244222.411566,y:16253195.652421,z:18529311.376350,vx:-2324.057861,vy:-663.459045,vz:1720.735718,tb:-0.000313617839
$pseudo_cd_ph,prn:22,pseudo_cd_ph:200042920.995857149363
measnum = 5,full_prange = 23472539.957541
$oldmeas,msRange:78.297240,x:-19504717.542855,y:2554721.247189,z:18047277.681964,vx:1263.383179,vy:-1884.433105,vz:1661.590088,tb:-0.000708066069
$newmeas,x:-19504816.460569,y:2554868.790010,z:18047147.585002,vx:1263.380859,vy:-1884.415527,vz:1661.619751,tb:-0.000708066069
$pseudo_cd_ph,prn:28,pseudo_cd_ph:200042932.044213443995
measnum = 6,full_prange = 20602778.664755
$oldmeas,msRange:68.724680,x:-9852502.521334,y:20975000.844903,z:13669237.864918,vx:-1313.921753,vy:972.576050,vz:-2544.329346,tb:0.000767796935
$newmeas,x:-9852412.223379,y:20974934.005804,z:13669412.719410,vx:-1313.941772,vy:972.584717,vz:-2544.310303,tb:0.000767796935
$pseudo_cd_ph,prn:30,pseudo_cd_ph:200042921.427147656679
measnum = 7,full_prange = 23521655.111803
$oldmeas,msRange:78.461145,x:-2583425.189238,y:23687426.047292,z:-11504570.075057,vx:-661.702698,vy:-1353.794800,vz:-2652.455566,tb:-0.000112945042
$newmeas,x:-2583373.272656,y:23687532.264868,z:-11504361.963176,vx:-661.690491,vy:-1353.772217,vz:-2652.474854,tb:-0.000112945041
Refix G01: 2, 200042.921897, 2227
Refix G02: 2, 200042.916278, -4001
Refix G03: 2, 200042.925940, -997
Refix G06: 2, 200042.927281, -3407
Refix G11: 2, 200042.919426, 1869
Refix G17: 2, 200042.928137, -1703
Refix G19: 2, 200042.927106, -2597
Refix G22: 2, 200042.920996, 473
Refix G28: 2, 200042.932044, -1332
Refix G30: 2, 200042.921427, 2110
$GNGGA,073345.000,2944.9099,N,10633.0885,E,1,11,0.9,305.3,M,,,,0000*1B
$GNRMC,073345.000,A,2944.9099,N,10633.0885,E,0.12,0.00,280519,,*1F
$GPGSA,A,3,01,03,06,17,19,22,28,30,,,,,1.2,0.9,0.9*32
$BDGSA,A,3,01,03,04,,,,,,,,,,1.2,0.9,0.9*26
$GLGSA,A,3,,,,,,,,,,,,,1.2,0.9,0.9*2D
$GPGSV,3,1,10,01,21,041,39,03,35,077,43,06,41,234,43,17,52,335,44*70
$GPGSV,3,2,10,19,40,305,42,22,23,056,41,28,80,082,43,30,20,191,41*70
$GPGSV,3,3,10,02,05,231,00,11,12,056,00*7F
$BDGSV,3,1,12,01,40,126,40,03,55,171,42,04,23,109,37,07,55,149,42*6B
$BDGSV,3,2,12,08,73,339,42,10,81,202,42,12,34,285,39,19,27,107,42*6B
$BDGSV,3,3,12,22,14,160,39,26,52,254,43,29,23,059,43,02,47,220,00*64
$B3CN0,0,0,0,0,0,0,0,0,0,0,0,0,0,0*4C
$ini_pos,lastpos_good = 1,ini_pos.x:-1578902.684429,ini_pos.y:5312754.045187,ini_pos.z:3146350.686164
$rtc_local_time,localRTC.weeks:2055,localRTC.seconds:200043.658822,localGtime.weeks:2055,localGtime.seconds:200044.000000
$pseudo_cd_ph,prn:1,pseudo_cd_ph:200043921.895796239376
measnum = 0,full_prange = 23406945.258078
$oldmeas,msRange:0.000000,x:-15099758.782913,y:677647.511433,z:21683272.668084,vx:-773.319275,vy:-2680.400635,vz:-419.452576,tb:-0.000026895099
$newmeas,x:-15099698.404777,y:677856.789827,z:21683305.416326,vx:-773.307922,vy:-2680.408691,vz:-419.416046,tb:-0.000026895098
$pseudo_cd_ph,prn:3,pseudo_cd_ph:200043925.940999358892
measnum = 1,full_prange = 22258395.570344
$oldmeas,msRange:74.247968,x:-21155264.086282,y:9352073.265109,z:12939881.957193,vx:964.530701,vy:-1361.174316,vz:2561.314209,tb:0.000187158647
$newmeas,x:-21155335.698454,y:9352174.326075,z:12939691.789047,vx:964.520203,vy:-1361.152710,vz:2561.334961,tb:0.000187158647
$pseudo_cd_ph,prn:6,pseudo_cd_ph:200043927.283606886864
measnum = 2,full_prange = 21857857.003828
$oldmeas,msRange:72.911799,x:6251263.511199,y:25700271.420872,z:2237053.212536,vx:-307.710846,vy:-197.468201,vz:3193.607178,tb:0.000193713330
$newmeas,x:6251285.946042,y:25700285.817298,z:2236820.366629,vx:-307.701447,vy:-197.441498,vz:3193.610596,tb:0.000193713330
$pseudo_cd_ph,prn:17,pseudo_cd_ph:200043928.137675702572
measnum = 3,full_prange = 21562348.402101
$oldmeas,msRange:71.926169,x:1181215.862162,y:15532253.411417,z:21932060.873979,vx:-2582.192871,vy:-719.467957,vz:652.460388,tb:0.000062071552
$newmeas,x:1181401.584128,y:15532305.158978,z:21932013.945091,vx:-2582.183838,vy:-719.478149,vz:652.492676,tb:0.000062071551
$pseudo_cd_ph,prn:19,pseudo_cd_ph:200043927.107667505741
measnum = 4,full_prange = 21758508.245860
$oldmeas,msRange:72.580422,x:9241729.529598,y:16252484.079822,z:18531156.770460,vx:-2324.325439,vy:-663.383667,vz:1720.301392,tb:-0.000313617837
$newmeas,x:9241898.225166,y:16252532.227445,z:18531031.912377,vx:-2324.307373,vy:-663.388733,vz:1720.330811,tb:-0.000313617837
$pseudo_cd_ph,prn:22,pseudo_cd_ph:200043920.995518922806
measnum = 5,full_prange = 23472631.686868
$oldmeas,msRange:78.298279,x:-19503454.144695,y:2552836.702069,z:18048939.082959,vx:1263.413208,vy:-1884.657227,vz:1661.211914,tb:-0.000708066074
$newmeas,x:-19503553.065146,y:2552984.263019,z:18048809.015097,vx:1263.410889,vy:-1884.639771,vz:1661.241577,tb:-0.000708066073
$pseudo_cd_ph,prn:28,pseudo_cd_ph:200043932.045027256012
measnum = 6,full_prange = 20602525.024121
$oldmeas,msRange:68.724570,x:-9853816.297531,y:20975973.357831,z:13666693.395686,vx:-1313.630737,vy:972.449890,vz:-2544.609131,tb:0.000767796939
$newmeas,x:-9853726.020693,y:20975906.528223,z:13666868.267252,vx:-1313.650757,vy:972.458557,vz:-2544.590088,tb:0.000767796939
$pseudo_cd_ph,prn:30,pseudo_cd_ph:200043921.425769686699
measnum = 7,full_prange = 23522058.547145
$oldmeas,msRange:78.463230,x:-2584086.969746,y:23686072.108985,z:-11507222.406690,vx:-661.858337,vy:-1354.081909,vz:-2652.208008,tb:-0.000112945050
$newmeas,x:-2584035.040064,y:23686178.350917,z:-11507014.310667,vx:-661.846130,vy:-1354.059448,vz:-2652.227295,tb:-0.000112945050
Refix G01: 2, 200043.921896, 2231
Refix G02: 2, 200043.916281, -3999
Refix G03: 2, 200043.925941, -992
Refix G06: 2, 200043.927284, -3403
Refix G11: 2, 200043.919425, 1872
Refix G17: 2, 200043.928138, -1699
Refix G19: 2, 200043.927108, -2593
Refix G22: 2, 200043.920996, 477
Refix G28: 2, 200043.932045, -1327
Refix G30: 2, 200043.921426, 2113
$GNGGA,073346.000,2944.9081,N,10633.0892,E,1,19,0.6,308.0,M,,,,0000*1E
$GNRMC,073346.000,A,2944.9081,N,10633.0892,E,0.01,0.00,280519,,*11
$GPGSA,A,3,01,03,06,17,19,22,28,30,,,,,0.8,0.6,0.4*3B
$BDGSA,A,3,01,03,04,07,08,10,12,19,22,26,29,,0.8,0.6,0.4*25
$GLGSA,A,3,,,,,,,,,,,,,0.8,0.6,0.4*24
$GPGSV,3,1,10,01,21,041,40,03,35,077,42,06,41,234,43,17,52,335,45*7E
$GPGSV,3,2,10,19,40,305,42,22,23,056,41,28,80,082,43,30,20,191,41*70
$GPGSV,3,3,10,02,05,231,00,11,12,056,00*7F
$BDGSV,3,1,12,01,40,126,41,03,55,171,42,04,23,109,38,07,55,149,42*65
$BDGSV,3,2,12,08,73,339,43,10,81,202,42,12,34,285,39,19,27,107,42*6A
$BDGSV,3,3,12,22,14,160,38,26,52,254,43,29,23,059,43,02,47,220,00*65
$B3CN0,0,0,0,0,0,0,0,0,0,0,0,0,0,0*4C
$ini_pos,lastpos_good = 1,ini_pos.x:-1578904.794291,ini_pos.y:5312757.476365,ini_pos.z:3146349.229260
$rtc_local_time,localRTC.weeks:2055,localRTC.seconds:200044.658822,localGtime.weeks:2055,localGtime.seconds:200045.000000
$pseudo_cd_ph,prn:1,pseudo_cd_ph:200044921.894343674183
measnum = 0,full_prange = 23407371.055779
$oldmeas,msRange:0.000000,x:-15100532.174855,y:674967.161767,z:21682852.981491,vx:-773.464600,vy:-2680.298828,vz:-419.920624,tb:-0.000026895110
$newmeas,x:-15100471.784273,y:675176.436020,z:21682885.766872,vx:-773.453308,vy:-2680.306885,vz:-419.884094,tb:-0.000026895109
$pseudo_cd_ph,prn:3,pseudo_cd_ph:200044925.941595703363
measnum = 1,full_prange = 22258207.123171
$oldmeas,msRange:74.248067,x:-21154299.484645,y:9350711.945263,z:12942443.132867,vx:964.672607,vy:-1361.465454,vz:2561.037109,tb:0.000187158645
$newmeas,x:-21154371.106745,y:9350813.026991,z:12942252.986906,vx:964.662048,vy:-1361.443848,vz:2561.057861,tb:0.000187158646
$pseudo_cd_ph,prn:6,pseudo_cd_ph:200044927.285736262798
measnum = 2,full_prange = 21857208.962714
$oldmeas,msRange:72.910365,x:6250955.735965,y:25700073.769556,z:2240246.795753,vx:-307.839661,vy:-197.834442,vz:3193.559570,tb:0.000193713319
$newmeas,x:6250978.179535,y:25700088.192257,z:2240013.960228,vx:-307.830261,vy:-197.807739,vz:3193.562988,tb:0.000193713320
$pseudo_cd_ph,prn:17,pseudo_cd_ph:200044928.138725459576
measnum = 3,full_prange = 21562024.028901
$oldmeas,msRange:71.925825,x:1178633.608079,y:15531534.014084,z:21932713.109822,vx:-2582.315674,vy:-719.326721,vz:652.011353,tb:0.000062071562
$newmeas,x:1178819.336083,y:15531585.750708,z:21932666.213939,vx:-2582.306641,vy:-719.336914,vz:652.043640,tb:0.000062071562
$pseudo_cd_ph,prn:19,pseudo_cd_ph:200044927.109281808138
measnum = 4,full_prange = 21758014.623535
$oldmeas,msRange:72.579512,x:9239405.079392,y:16251820.731359,z:18532876.869314,vx:-2324.574951,vy:-663.313293,vz:1719.896362,tb:-0.000313617835
$newmeas,x:9239573.789241,y:16251868.872784,z:18532752.043454,vx:-2324.556885,vy:-663.318420,vz:1719.925781,tb:-0.000313617836
$pseudo_cd_ph,prn:22,pseudo_cd_ph:200044920.995183289051
measnum = 5,full_prange = 23472722.638892
$oldmeas,msRange:78.299317,x:-19502190.716537,y:2550951.932787,z:18050600.105780,vx:1263.443237,vy:-1884.881470,vz:1660.833740,tb:-0.000708066078
$newmeas,x:-19502289.639718,y:2551099.511859,z:18050470.067024,vx:1263.440796,vy:-1884.863892,vz:1660.863403,tb:-0.000708066078
$pseudo_cd_ph,prn:28,pseudo_cd_ph:200044932.045842975378
measnum = 6,full_prange = 20602270.811678
$oldmeas,msRange:68.724453,x:-9855129.782633,y:20976945.744582,z:13664148.646697,vx:-1313.339600,vy:972.323669,vz:-2544.888916,tb:0.000767796943
$newmeas,x:-9855039.526913,y:20976878.924472,z:13664323.535330,vx:-1313.359619,vy:972.332336,vz:-2544.869629,tb:0.000767796943
$pseudo_cd_ph,prn:30,pseudo_cd_ph:200044921.424396365881
measnum = 7,full_prange = 23522460.588702
$oldmeas,msRange:78.465295,x:-2584748.905877,y:23684717.883506,z:-11509874.490674,vx:-662.013977,vy:-1354.369141,vz:-2651.960205,tb:-0.000112945059
$newmeas,x:-2584696.963096,y:23684824.149784,z:-11509666.410528,vx:-662.001770,vy:-1354.346558,vz:-2651.979736,tb:-0.000112945058
Refix G01: 2, 200044.921894, 2234
Refix G02: 2, 200044.916283, -3996
Refix G03: 2, 200044.925942, -988
Refix G06: 2, 200044.927286, -3401
Refix G11: 2, 200044.919424, 1875
Refix G17: 2, 200044.928139, -1696
Refix G19: 2, 200044.927109, -2590
Refix G22: 2, 200044.920995, 480
Refix G28: 2, 200044.932046, -1324
Refix G30: 2, 200044.921424, 2115
$GNGGA,073347.000,2944.9077,N,10633.0895,E,1,19,0.6,311.1,M,,,,0000*18
$GNRMC,073347.000,A,2944.9077,N,10633.0895,E,0.20,0.00,280519,,*1D
$GPGSA,A,3,01,03,06,17,19,22,28,30,,,,,0.8,0.6,0.4*3B
$BDGSA,A,3,01,03,04,07,08,10,12,19,22,26,29,,0.8,0.6,0.4*25
$GLGSA,A,3,,,,,,,,,,,,,0.8,0.6,0.4*24
$GPGSV,3,1,10,01,21,041,40,03,35,077,42,06,41,234,43,17,52,335,44*7F
$GPGSV,3,2,10,19,40,305,42,22,23,056,41,28,80,082,43,30,20,191,40*71
$GPGSV,3,3,10,02,05,231,00,11,12,056,00*7F
$BDGSV,3,1,12,01,40,126,40,03,55,171,41,04,23,109,39,07,55,149,42*66
$BDGSV,3,2,12,08,73,339,42,10,81,202,42,12,34,285,39,19,27,107,42*6B
$BDGSV,3,3,12,22,14,160,38,26,52,254,43,29,23,059,43,02,47,220,00*65
$B3CN0,0,0,0,0,0,0,0,0,0,0,0,0,0,0*4C
$ini_pos,lastpos_good = 1,ini_pos.x:-1578906.184878,ini_pos.y:5312760.233084,ini_pos.z:3146350.112452
$rtc_local_time,localRTC.weeks:2055,localRTC.seconds:200045.658822,localGtime.weeks:2055,localGtime.seconds:200046.000000
$pseudo_cd_ph,prn:1,pseudo_cd_ph:200045921.892893493176
measnum = 0,full_prange = 23407796.138720
$oldmeas,msRange:0.000000,x:-15101305.712112,y:672286.913928,z:21682432.826870,vx:-773.609924,vy:-2680.197021,vz:-420.388641,tb:-0.000026895120
$newmeas,x:-15101245.309089,y:672496.184028,z:21682465.649390,vx:-773.598572,vy:-2680.204834,vz:-420.352112,tb:-0.000026895120
$pseudo_cd_ph,prn:3,pseudo_cd_ph:200045925.942191362381
measnum = 1,full_prange = 22258018.881491
$oldmeas,msRange:74.248166,x:-21153334.741151,y:9349350.334253,z:12945004.031395,vx:964.814453,vy:-1361.756592,vz:2560.760010,tb:0.000187158644
$newmeas,x:-21153406.373176,y:9349451.436744,z:12944813.907620,vx:964.803894,vy:-1361.734985,vz:2560.780518,tb:0.000187158644
$pseudo_cd_ph,prn:6,pseudo_cd_ph:200045927.287865102291
measnum = 2,full_prange = 21856561.082422
$oldmeas,msRange:72.908934,x:6250647.831883,y:25699875.752012,z:2243440.331212,vx:-307.968536,vy:-198.200653,vz:3193.511719,tb:0.000193713309
$newmeas,x:6250670.284184,y:25699890.200985,z:2243207.506072,vx:-307.959137,vy:-198.173965,vz:3193.515137,tb:0.000193713309
$pseudo_cd_ph,prn:17,pseudo_cd_ph:200045928.139772295952
measnum = 3,full_prange = 21561700.531284
$oldmeas,msRange:71.925475,x:1176051.231227,y:15530814.758003,z:21933364.896596,vx:-2582.438232,vy:-719.185486,vz:651.562256,tb:0.000062071573
$newmeas,x:1176236.965273,y:15530866.483691,z:21933318.033715,vx:-2582.429443,vy:-719.195618,vz:651.594543,tb:0.000062071572
$pseudo_cd_ph,prn:19,pseudo_cd_ph:200045927.110893964767
measnum = 4,full_prange = 21757521.644496
$oldmeas,msRange:72.578597,x:9237080.379713,y:16251157.453262,z:18534596.563177,vx:-2324.824463,vy:-663.242920,vz:1719.491455,tb:-0.000313617834
$newmeas,x:9237249.103844,y:16251205.588488,z:18534471.769540,vx:-2324.806396,vy:-663.248047,vz:1719.520752,tb:-0.000313617834
$pseudo_cd_ph,prn:22,pseudo_cd_ph:200045920.994848310947
measnum = 5,full_prange = 23472813.394358
$oldmeas,msRange:78.300352,x:-19500927.258434,y:2549066.939368,z:18052260.750393,vx:1263.473145,vy:-1885.105591,vz:1660.455566,tb:-0.000708066082
$newmeas,x:-19501026.184341,y:2549214.536559,z:18052130.740748,vx:1263.470703,vy:-1885.088013,vz:1660.485107,tb:-0.000708066082
$pseudo_cd_ph,prn:28,pseudo_cd_ph:200045932.046654075384
measnum = 6,full_prange = 20602017.984084
$oldmeas,msRange:68.724335,x:-9856442.976638,y:20977918.005096,z:13661603.618003,vx:-1313.048462,vy:972.197388,vz:-2545.168701,tb:0.000767796947
$newmeas,x:-9856352.742030,y:20977851.194483,z:13661778.523709,vx:-1313.068481,vy:972.206116,vz:-2545.149414,tb:0.000767796947
$pseudo_cd_ph,prn:30,pseudo_cd_ph:200045921.423019975424
measnum = 7,full_prange = 23522863.550515
$oldmeas,msRange:78.467367,x:-2585410.997662,y:23683363.370899,z:-11512526.326955,vx:-662.169617,vy:-1354.656250,vz:-2651.712402,tb:-0.000112945067
$newmeas,x:-2585359.041777,y:23683469.661524,z:-11512318.262682,vx:-662.157410,vy:-1354.633667,vz:-2651.731934,tb:-0.000112945067
Refix G01: 2, 200045.921893, 2228
Refix G02: 2, 200045.916286, -4001
Refix G03: 2, 200045.925942, -994
Refix G06: 2, 200045.927288, -3406
Refix G11: 2, 200045.919422, 1870
Refix G17: 2, 200045.928140, -1703
Refix G19: 2, 200045.927111, -2596
Refix G22: 2, 200045.920995, 475
Refix G28: 2, 200045.932047, -1331
Refix G30: 2, 200045.921423, 2110
$GNGGA,073348.000,2944.9076,N,10633.0897,E,1,19,0.6,312.9,M,,,,0000*1F
$GNRMC,073348.000,A,2944.9076,N,10633.0897,E,0.09,0.00,280519,,*1A
$GPGSA,A,3,01,03,06,17,19,22,28,30,,,,,0.8,0.6,0.4*3B
$BDGSA,A,3,01,03,04,07,08,10,12,19,22,26,29,,0.8,0.6,0.4*25
$GLGSA,A,3,,,,,,,,,,,,,0.8,0.6,0.4*24
$GPGSV,3,1,10,01,21,041,40,03,35,077,42,06,41,234,43,17,52,335,44*7F
$GPGSV,3,2,10,19,40,305,43,22,23,056,42,28,80,082,42,30,20,191,41*73
$GPGSV,3,3,10,02,05,231,00,11,12,056,00*7F
$BDGSV,3,1,12,01,40,126,39,03,55,171,42,04,23,109,39,07,55,149,42*6B
$BDGSV,3,2,12,08,73,339,43,10,81,202,42,12,34,285,39,19,27,107,42*6A
$BDGSV,3,3,12,22,14,160,38,26,52,254,43,29,23,059,43,02,47,220,00*65
$B3CN0,0,0,0,0,0,0,0,0,0,0,0,0,0,0*4C
$ini_pos,lastpos_good = 1,ini_pos.x:-1578906.904735,ini_pos.y:5312761.829225,ini_pos.z:3146350.787176
$rtc_local_time,localRTC.weeks:2055,localRTC.seconds:200046.658822,localGtime.weeks:2055,localGtime.seconds:200047.000000
$pseudo_cd_ph,prn:1,pseudo_cd_ph:200046921.891448378563
measnum = 0,full_prange = 23408219.693859
$oldmeas,msRange:0.000000,x:-15102079.394658,y:669606.767981,z:21682012.204232,vx:-773.755188,vy:-2680.094971,vz:-420.856659,tb:-0.000026895131
$newmeas,x:-15102018.979198,y:669816.033910,z:21682045.063889,vx:-773.743835,vy:-2680.103027,vz:-420.820129,tb:-0.000026895130
$pseudo_cd_ph,prn:3,pseudo_cd_ph:200046925.942791044712
measnum = 1,full_prange = 22257829.424718
$oldmeas,msRange:74.248269,x:-21152369.855857,y:9347988.432081,z:12947564.652722,vx:964.956177,vy:-1362.047852,vz:2560.482910,tb:0.000187158642
$newmeas,x:-21152441.497798,y:9348089.555329,z:12947374.551147,vx:964.945679,vy:-1362.026123,vz:2560.503418,tb:0.000187158642
$pseudo_cd_ph,prn:6,pseudo_cd_ph:200046927.289999991655
measnum = 2,full_prange = 21855911.379490
$oldmeas,msRange:72.907505,x:6250339.798907,y:25699677.368263,z:2246633.818845,vx:-308.097443,vy:-198.566849,vz:3193.463867,tb:0.000193713298
$newmeas,x:6250362.259939,y:25699691.843503,z:2246401.004115,vx:-308.088043,vy:-198.540161,vz:3193.467285,tb:0.000193713299
$pseudo_cd_ph,prn:17,pseudo_cd_ph:200046928.140824317932
measnum = 3,full_prange = 21561375.470127
$oldmeas,msRange:71.925127,x:1173468.731666,y:15530095.643202,z:21934016.234286,vx:-2582.561035,vy:-719.044189,vz:651.113159,tb:0.000062071583
$newmeas,x:1173654.471735,y:15530147.357949,z:21933969.404410,vx:-2582.552246,vy:-719.054321,vz:651.145447,tb:0.000062071583
$pseudo_cd_ph,prn:19,pseudo_cd_ph:200046927.112512081861
measnum = 4,full_prange = 21757026.869619
$oldmeas,msRange:72.577683,x:9234755.430611,y:16250494.245577,z:18536315.852013,vx:-2325.073975,vy:-663.172485,vz:1719.086304,tb:-0.000313617832
$newmeas,x:9234924.169005,y:16250542.374597,z:18536191.090609,vx:-2325.055664,vy:-663.177612,vz:1719.115723,tb:-0.000313617832
$pseudo_cd_ph,prn:22,pseudo_cd_ph:200046920.994519472122
measnum = 5,full_prange = 23472902.300379
$oldmeas,msRange:78.301390,x:-19499663.770441,y:2547181.721836,z:18053921.016765,vx:1263.502930,vy:-1885.329590,vz:1660.077271,tb:-0.000708066087
$newmeas,x:-19499762.699061,y:2547329.337132,z:18053791.036244,vx:1263.500610,vy:-1885.312134,vz:1660.106934,tb:-0.000708066086
$pseudo_cd_ph,prn:28,pseudo_cd_ph:200046932.047470182180
measnum = 6,full_prange = 20601763.646557
$oldmeas,msRange:68.724221,x:-9857755.879542,y:20978890.139314,z:13659058.309653,vx:-1312.757446,vy:972.071106,vz:-2545.448242,tb:0.000767796951
$newmeas,x:-9857665.666053,y:20978823.338207,z:13659233.232416,vx:-1312.777344,vy:972.079773,vz:-2545.428955,tb:0.000767796951
$pseudo_cd_ph,prn:30,pseudo_cd_ph:200046921.421646565199
measnum = 7,full_prange = 23523265.609941
$oldmeas,msRange:78.469442,x:-2586073.245132,y:23682008.571209,z:-11515177.915474,vx:-662.325317,vy:-1354.943237,vz:-2651.464600,tb:-0.000112945076
$newmeas,x:-2586021.276142,y:23682114.886176,z:-11514969.867087,vx:-662.313110,vy:-1354.920776,vz:-2651.484131,tb:-0.000112945075
Refix G01: 2, 200046.921891, 2229
Refix G02: 2, 200046.916288, -4001
Refix G03: 2, 200046.925943, -993
Refix G06: 2, 200046.927290, -3406
Refix G11: 2, 200046.919421, 1870
Refix G17: 2, 200046.928141, -1703
Refix G19: 2, 200046.927113, -2596
Refix G22: 2, 200046.920995, 476
Refix G28: 2, 200046.932047, -1330
Refix G30: 2, 200046.921422, 2110
$GNGGA,073349.000,2944.9076,N,10633.0898,E,1,19,0.6,315.0,M,,,,0000*1F
$GNRMC,073349.000,A,2944.9076,N,10633.0898,E,0.17,0.00,280519,,*1B
$GPGSA,A,3,01,03,06,17,19,22,28,30,,,,,0.8,0.6,0.4*3B
$BDGSA,A,3,01,03,04,07,08,10,12,19,22,26,29,,0.8,0.6,0.4*25
$GLGSA,A,3,,,,,,,,,,,,,0.8,0.6,0.4*24
$GPGSV,3,1,10,01,21,041,40,03,35,077,43,06,41,234,43,17,52,335,44*7E
$GPGSV,3,2,10,19,40,305,43,22,23,056,41,28,80,082,43,30,20,191,41*71
$GPGSV,3,3,10,02,05,231,00,11,12,056,00*7F
$BDGSV,3,1,12,01,40,126,40,03,55,171,42,04,23,109,39,07,55,149,43*64
$BDGSV,3,2,12,08,73,339,43,10,81,202,42,12,34,285,39,19,27,107,42*6A
$BDGSV,3,3,12,22,14,160,38,26,52,254,43,29,23,059,43,02,47,220,00*65
$B3CN0,0,0,0,0,0,0,0,0,0,0,0,0,0,0*4C
$ini_pos,lastpos_good = 1,ini_pos.x:-1578907.599967,ini_pos.y:5312763.578077,ini_pos.z:3146351.806109
$rtc_local_time,localRTC.weeks:2055,localRTC.seconds:200047.658822,localGtime.weeks:2055,localGtime.seconds:200048.000000
$pseudo_cd_ph,prn:1,pseudo_cd_ph:200047921.890002071857
measnum = 0,full_prange = 23408643.615313
$oldmeas,msRange:0.000000,x:-15102853.222467,y:666926.723990,z:21681591.113587,vx:-773.900452,vy:-2679.993164,vz:-421.324646,tb:-0.000026895142
$newmeas,x:-15102792.794572,y:667135.985746,z:21681624.010382,vx:-773.889099,vy:-2680.000977,vz:-421.288116,tb:-0.000026895141
$pseudo_cd_ph,prn:3,pseudo_cd_ph:200047925.943387567997
measnum = 1,full_prange = 22257640.923938
$oldmeas,msRange:74.248371,x:-21151404.828822,y:9346626.238749,z:12950124.996792,vx:965.097900,vy:-1362.338989,vz:2560.205566,tb:0.000187158641
$newmeas,x:-21151476.480677,y:9346727.382757,z:12949934.917414,vx:965.087402,vy:-1362.317383,vz:2560.226074,tb:0.000187158641
$pseudo_cd_ph,prn:6,pseudo_cd_ph:200047927.292129158974
measnum = 2,full_prange = 21855263.400918
$oldmeas,msRange:72.906077,x:6250031.636987,y:25699478.618330,z:2249827.258584,vx:-308.226410,vy:-198.933029,vz:3193.415771,tb:0.000193713288
$newmeas,x:6250054.106755,y:25699493.119835,z:2249594.454251,vx:-308.217010,vy:-198.906326,vz:3193.419434,tb:0.000193713289
$pseudo_cd_ph,prn:17,pseudo_cd_ph:200047928.141872555017
measnum = 3,full_prange = 21561051.552587
$oldmeas,msRange:71.924778,x:1170886.109456,y:15529376.669711,z:21934667.122880,vx:-2582.683594,vy:-718.902832,vz:650.664062,tb:0.000062071594
$newmeas,x:1171071.855554,y:15529428.373517,z:21934620.326007,vx:-2582.674805,vy:-718.913025,vz:650.696350,tb:0.000062071593
$pseudo_cd_ph,prn:19,pseudo_cd_ph:200047927.114127874374
measnum = 4,full_prange = 21756532.800569
$oldmeas,msRange:72.576769,x:9232430.232133,y:16249831.108352,z:18538034.735783,vx:-2325.323242,vy:-663.101990,vz:1718.681274,tb:-0.000313617830
$newmeas,x:9232598.984792,y:16249879.231164,z:18537910.006610,vx:-2325.305176,vy:-663.107117,vz:1718.710693,tb:-0.000313617831
$pseudo_cd_ph,prn:22,pseudo_cd_ph:200047920.994182199240
measnum = 5,full_prange = 23472993.743802
$oldmeas,msRange:78.302427,x:-19498400.252609,y:2545296.280218,z:18055580.904861,vx:1263.532715,vy:-1885.553711,vz:1659.698975,tb:-0.000708066091
$newmeas,x:-19498499.183949,y:2545443.913633,z:18055450.953453,vx:1263.530396,vy:-1885.536133,vz:1659.728638,tb:-0.000708066091
$pseudo_cd_ph,prn:28,pseudo_cd_ph:200047932.048281073570
measnum = 6,full_prange = 20601510.881504
$oldmeas,msRange:68.724107,x:-9859068.491343,y:20979862.147176,z:13656512.721698,vx:-1312.466309,vy:971.944702,vz:-2545.727783,tb:0.000767796955
$newmeas,x:-9858978.298965,y:20979795.355574,z:13656687.661528,vx:-1312.486328,vy:971.953369,vz:-2545.708496,tb:0.000767796955
$pseudo_cd_ph,prn:30,pseudo_cd_ph:200047921.420271247625
measnum = 7,full_prange = 23523668.250111
$oldmeas,msRange:78.471517,x:-2586735.648318,y:23680653.484482,z:-11517829.256175,vx:-662.481079,vy:-1355.230225,vz:-2651.216797,tb:-0.000112945084
$newmeas,x:-2586683.666219,y:23680759.823790,z:-11517621.223675,vx:-662.468872,vy:-1355.207764,vz:-2651.236328,tb:-0.000112945083
Refix G01: 2, 200047.921890, 2227
Refix G02: 2, 200047.916291, -4001
Refix G03: 2, 200047.925943, -994
Refix G06: 2, 200047.927292, -3407
Refix G11: 2, 200047.919420, 1868
Refix G17: 2, 200047.928142, -1704
Refix G19: 2, 200047.927114, -2597
Refix G22: 2, 200047.920994, 475
Refix G28: 2, 200047.932048, -1331
Refix G30: 2, 200047.921420, 2108
$GNGGA,073350.000,2944.9076,N,10633.0898,E,1,19,0.6,316.5,M,,,,0000*11
$GNRMC,073350.000,A,2944.9076,N,10633.0898,E,0.11,0.00,280519,,*15
$GPGSA,A,3,01,03,06,17,19,22,28,30,,,,,0.8,0.6,0.4*3B
$BDGSA,A,3,01,03,04,07,08,10,12,19,22,26,29,,0.8,0.6,0.4*25
$GLGSA,A,3,,,,,,,,,,,,,0.8,0.6,0.4*24
$GPGSV,3,1,10,01,21,041,40,03,35,077,43,06,41,234,44,17,52,335,45*78
$GPGSV,3,2,10,19,40,305,43,22,23,056,41,28,80,082,43,30,20,191,41*71
$GPGSV,3,3,10,02,05,231,00,11,12,056,00*7F
$BDGSV,3,1,12,01,40,126,42,03,55,171,41,04,23,109,40,07,55,149,43*6B
$BDGSV,3,2,12,08,73,339,43,10,81,202,43,12,34,285,39,19,27,107,42*6B
$BDGSV,3,3,12,22,14,160,39,26,52,254,43,29,23,059,43,02,47,220,00*64
$B3CN0,0,0,0,0,0,0,0,0,0,0,0,0,0,0*4C
$ini_pos,lastpos_good = 1,ini_pos.x:-1578908.060113,ini_pos.y:5312764.741954,ini_pos.z:3146352.539128
$rtc_local_time,localRTC.weeks:2055,localRTC.seconds:200048.658822,localGtime.weeks:2055,localGtime.seconds:200049.000000
$pseudo_cd_ph,prn:1,pseudo_cd_ph:200048921.888556391001
measnum = 0,full_prange = 23409067.349143
$oldmeas,msRange:0.000000,x:-15103627.195512,y:664246.782022,z:21681169.554946,vx:-774.045654,vy:-2679.891113,vz:-421.792664,tb:-0.000026895153
$newmeas,x:-15103566.755183,y:664456.039596,z:21681202.488880,vx:-774.034363,vy:-2679.898926,vz:-421.756104,tb:-0.000026895152
$pseudo_cd_ph,prn:3,pseudo_cd_ph:200048925.943984448910
measnum = 1,full_prange = 22257452.315944
$oldmeas,msRange:74.248475,x:-21150439.660103,y:9345263.754257,z:12952685.063552,vx:965.239563,vy:-1362.630127,vz:2559.928223,tb:0.000187158639
$newmeas,x:-21150511.321868,y:9345364.919024,z:12952495.006375,vx:965.229065,vy:-1362.608521,vz:2559.948730,tb:0.000187158639
$pseudo_cd_ph,prn:6,pseudo_cd_ph:200048927.294260472059
measnum = 2,full_prange = 21854614.779061
$oldmeas,msRange:72.904650,x:6249723.346075,y:25699279.502236,z:2253020.650361,vx:-308.355438,vy:-199.299179,vz:3193.367920,tb:0.000193713277
$newmeas,x:6249745.824581,y:25699294.030003,z:2252787.856436,vx:-308.346039,vy:-199.272476,vz:3193.371338,tb:0.000193713278
$pseudo_cd_ph,prn:17,pseudo_cd_ph:200048928.142920613289
measnum = 3,full_prange = 21560727.688654
$oldmeas,msRange:71.924430,x:1168303.364657,y:15528657.837559,z:21935317.562365,vx:-2582.806152,vy:-718.761475,vz:650.214966,tb:0.000062071605
$newmeas,x:1168489.116779,y:15528709.530422,z:21935270.798494,vx:-2582.797363,vy:-718.771667,vz:650.247253,tb:0.000062071604
$pseudo_cd_ph,prn:19,pseudo_cd_ph:200048927.115740329027
measnum = 4,full_prange = 21756039.732184
$oldmeas,msRange:72.575855,x:9230104.784329,y:16249168.041633,z:18539753.214448,vx:-2325.572510,vy:-663.031494,vz:1718.276123,tb:-0.000313617829
$newmeas,x:9230273.551255,y:16249216.158236,z:18539628.517502,vx:-2325.554443,vy:-663.036621,vz:1718.305542,tb:-0.000313617829
$pseudo_cd_ph,prn:22,pseudo_cd_ph:200048920.993845760822
measnum = 5,full_prange = 23473084.937058
$oldmeas,msRange:78.303465,x:-19497136.704994,y:2543410.614537,z:18057240.414647,vx:1263.562500,vy:-1885.777710,vz:1659.320679,tb:-0.000708066095
$newmeas,x:-19497235.639048,y:2543558.266070,z:18057110.492357,vx:1263.560181,vy:-1885.760254,vz:1659.350342,tb:-0.000708066095
$pseudo_cd_ph,prn:28,pseudo_cd_ph:200048932.049093157053
measnum = 6,full_prange = 20601257.759071
$oldmeas,msRange:68.723995,x:-9860380.812038,y:20980834.028623,z:13653966.854189,vx:-1312.175171,vy:971.818237,vz:-2546.007324,tb:0.000767796959
$newmeas,x:-9860290.640773,y:20980767.246530,z:13654141.811078,vx:-1312.195190,vy:971.826965,vz:-2545.988037,tb:0.000767796959
$pseudo_cd_ph,prn:30,pseudo_cd_ph:200048921.418895810843
measnum = 7,full_prange = 23524070.926019
$oldmeas,msRange:78.473593,x:-2587398.207252,y:23679298.110762,z:-11520480.349001,vx:-662.636841,vy:-1355.517212,vz:-2650.968994,tb:-0.000112945092
$newmeas,x:-2587346.212041,y:23679404.474409,z:-11520272.332392,vx:-662.624634,vy:-1355.494751,vz:-2650.988525,tb:-0.000112945092
$pseudo_cd_ph,prn:11,pseudo_cd_ph:19.418728959875
measnum = 8,full_prange = 23978508.440173
$oldmeas,msRange:79.989456,x:-19716558.479504,y:-1964477.835980,z:17043127.093242,vx:-1339.470947,vy:-1884.708374,vz:-1739.358276,tb:-0.000597271573
$newmeas,x:-19716451.343478,y:-1964327.089310,z:17043266.212325,vx:-1339.475708,vy:-1884.726685,vz:-1739.327881,tb:-0.000597271574
Refix G01: 2, 200048.921889, 2237
Refix G02: 2, 200048.916293, -3993
Refix G03: 2, 200048.925944, -984
Refix G06: 2, 200048.927294, -3397
Refix G11: 2, 200048.919419, 1877
Refix G17: 2, 200048.928143, -1694
Refix G19: 2, 200048.927116, -2588
Refix G22: 2, 200048.920994, 485
Refix G28: 2, 200048.932049, -1320
Refix G30: 2, 200048.921419, 2117
$GNGGA,073351.000,2944.9075,N,10633.0899,E,1,19,0.6,317.9,M,,,,0000*1F
$GNRMC,073351.000,A,2944.9075,N,10633.0899,E,0.32,0.00,280519,,*17
$GPGSA,A,3,01,03,06,17,19,22,28,30,,,,,0.8,0.6,0.4*3B
$BDGSA,A,3,01,03,04,07,08,10,12,19,22,26,29,,0.8,0.6,0.4*25
$GLGSA,A,3,,,,,,,,,,,,,0.8,0.6,0.4*24
$GPGSV,3,1,10,01,21,041,40,03,35,077,43,06,41,234,43,17,52,335,45*7F
$GPGSV,3,2,10,19,40,305,43,22,23,056,41,28,80,082,44,30,20,191,41*76
$GPGSV,3,3,10,11,12,056,29,02,05,231,00*74
$BDGSV,3,1,12,01,40,126,40,03,55,171,42,04,23,109,39,07,55,149,42*65
$BDGSV,3,2,12,08,73,339,43,10,81,202,43,12,34,285,39,19,27,107,42*6B
$BDGSV,3,3,12,22,14,160,39,26,52,254,43,29,23,059,43,02,47,220,00*64
$B3CN0,0,0,0,0,0,0,0,0,0,0,0,0,0,0*4C
$ini_pos,lastpos_good = 1,ini_pos.x:-1578908.573297,ini_pos.y:5312765.924316,ini_pos.z:3146353.216734
$rtc_local_time,localRTC.weeks:2055,localRTC.seconds:200049.658821,localGtime.weeks:2055,localGtime.seconds:200050.000000
$pseudo_cd_ph,prn:1,pseudo_cd_ph:200049921.887110710144
measnum = 0,full_prange = 23409491.082973
$oldmeas,msRange:0.000000,x:-15104401.313767,y:661566.942139,z:21680747.528320,vx:-774.190857,vy:-2679.788818,vz:-422.260620,tb:-0.000026895164
$newmeas,x:-15104340.861007,y:661776.195528,z:21680780.499392,vx:-774.179565,vy:-2679.796875,vz:-422.224091,tb:-0.000026895163
$pseudo_cd_ph,prn:3,pseudo_cd_ph:200049925.944578349590
measnum = 1,full_prange = 22257264.601401
$oldmeas,msRange:74.248580,x:-21149474.349759,y:9343900.978606,z:12955244.852946,vx:965.381165,vy:-1362.921265,vz:2559.650879,tb:0.000187158638
$newmeas,x:-21149546.021432,y:9344002.164137,z:12955054.817966,vx:965.370667,vy:-1362.899658,vz:2559.671387,tb:0.000187158638
$pseudo_cd_ph,prn:6,pseudo_cd_ph:200049927.296386867762
measnum = 2,full_prange = 21853967.631399
$oldmeas,msRange:72.903223,x:6249414.926123,y:25699080.020004,z:2256213.994108,vx:-308.484497,vy:-199.665298,vz:3193.319824,tb:0.000193713267
$newmeas,x:6249437.413371,y:25699094.574031,z:2255981.210580,vx:-308.475098,vy:-199.638611,vz:3193.323242,tb:0.000193713268
$pseudo_cd_ph,prn:17,pseudo_cd_ph:200049928.143965512514
measnum = 3,full_prange = 21560404.771780
$oldmeas,msRange:71.924083,x:1165720.497328,y:15527939.146774,z:21935967.552726,vx:-2582.928711,vy:-718.620117,vz:649.765808,tb:0.000062071615
$newmeas,x:1165906.255478,y:15527990.828695,z:21935920.821857,vx:-2582.919922,vy:-718.630310,vz:649.798096,tb:0.000062071614
$pseudo_cd_ph,prn:19,pseudo_cd_ph:200049927.117351412773
measnum = 4,full_prange = 21755547.074786
$oldmeas,msRange:72.574942,x:9227779.087245,y:16248505.045466,z:18541471.287971,vx:-2325.821777,vy:-662.960876,vz:1717.870972,tb:-0.000313617827
$newmeas,x:9227947.868438,y:16248553.155858,z:18541346.623250,vx:-2325.803711,vy:-662.966003,vz:1717.900391,tb:-0.000313617827
$pseudo_cd_ph,prn:22,pseudo_cd_ph:200049920.993507713079
measnum = 5,full_prange = 23473176.612779
$oldmeas,msRange:78.304503,x:-19495873.127647,y:2541524.724821,z:18058899.546091,vx:1263.592285,vy:-1886.001831,vz:1658.942261,tb:-0.000708066100
$newmeas,x:-19495972.064414,y:2541672.394470,z:18058769.652918,vx:1263.589966,vy:-1885.984253,vz:1658.971924,tb:-0.000708066099
$pseudo_cd_ph,prn:28,pseudo_cd_ph:200049932.049902141094
measnum = 6,full_prange = 20601005.565826
$oldmeas,msRange:68.723884,x:-9861692.841625,y:20981805.783594,z:13651420.707175,vx:-1311.884033,vy:971.691772,vz:-2546.286865,tb:0.000767796963
$newmeas,x:-9861602.691468,y:20981739.011012,z:13651595.681128,vx:-1311.904053,vy:971.700439,vz:-2546.267578,tb:0.000767796963
$pseudo_cd_ph,prn:30,pseudo_cd_ph:200049921.417522460222
measnum = 7,full_prange = 23524472.976511
$oldmeas,msRange:78.475669,x:-2588060.921965,y:23677942.450096,z:-11523131.193895,vx:-662.792664,vy:-1355.804199,vz:-2650.720947,tb:-0.000112945101
$newmeas,x:-2588008.913640,y:23678048.838075,z:-11522923.193188,vx:-662.780396,vy:-1355.781616,vz:-2650.740479,tb:-0.000112945100
$pseudo_cd_ph,prn:11,pseudo_cd_ph:19.417503819321
measnum = 8,full_prange = 23978866.053789
$oldmeas,msRange:79.991380,x:-19717897.920139,y:-1966362.429898,z:17041387.544759,vx:-1339.410400,vy:-1884.479614,vz:-1739.738770,tb:-0.000597271570
$newmeas,x:-19717790.787352,y:-1966211.699278,z:17041526.696355,vx:-1339.415283,vy:-1884.497925,vz:-1739.708374,tb:-0.000597271571
Refix G01: 2, 200049.921887, 2233
Refix G02: 2, 200049.916296, -3995
Refix G03: 2, 200049.925945, -987
Refix G06: 2, 200049.927296, -3399
Refix G11: 2, 200049.919417, 1874
Refix G17: 2, 200049.928144, -1698
Refix G19: 2, 200049.927117, -2591
Refix G22: 2, 200049.920994, 482
Refix G28: 2, 200049.932050, -1324
Refix G30: 2, 200049.921418, 2115
$GNGGA,073352.000,2944.9075,N,10633.0900,E,1,19,0.6,318.5,M,,,,0000*1E
$GNRMC,073352.000,A,2944.9075,N,10633.0900,E,0.05,0.00,280519,,*11
$GPGSA,A,3,01,03,06,17,19,22,28,30,,,,,0.8,0.6,0.4*3B
$BDGSA,A,3,01,03,04,07,08,10,12,19,22,26,29,,0.8,0.6,0.4*25
$GLGSA,A,3,,,,,,,,,,,,,0.8,0.6,0.4*24
$GPGSV,3,1,10,01,21,041,40,03,35,077,43,06,41,234,43,17,52,335,45*7F
$GPGSV,3,2,10,19,40,305,43,22,23,056,41,28,80,082,44,30,20,191,41*76
$GPGSV,3,3,10,11,12,056,33,02,05,231,00*7F
$BDGSV,3,1,12,01,40,126,41,03,55,171,41,04,23,109,38,07,55,149,43*67
$BDGSV,3,2,12,08,73,339,43,10,81,202,43,12,34,285,39,02,47,220,37*63
$BDGSV,3,3,12,19,27,107,42,22,14,160,38,26,52,254,43,29,23,059,43*69
$B3CN0,0,0,0,0,0,0,0,0,0,0,0,0,0,0*4C
$ini_pos,lastpos_good = 1,ini_pos.x:-1578908.768095,ini_pos.y:5312766.433475,ini_pos.z:3146353.496120
$rtc_local_time,localRTC.weeks:2055,localRTC.seconds:200050.658821,localGtime.weeks:2055,localGtime.seconds:200051.000000
$pseudo_cd_ph,prn:1,pseudo_cd_ph:200050921.885664075613
measnum = 0,full_prange = 23409915.102707
$oldmeas,msRange:0.000000,x:-15105175.577206,y:658887.204408,z:21680325.033719,vx:-774.336060,vy:-2679.686768,vz:-422.728607,tb:-0.000026895175
$newmeas,x:-15105115.112014,y:659096.453608,z:21680358.041931,vx:-774.324707,vy:-2679.694580,vz:-422.692047,tb:-0.000026895174
$pseudo_cd_ph,prn:3,pseudo_cd_ph:200050925.945175290108
measnum = 1,full_prange = 22257075.975538
$oldmeas,msRange:74.248687,x:-21148508.897847,y:9342537.911799,z:12957804.364920,vx:965.522705,vy:-1363.212402,vz:2559.373291,tb:0.000187158636
$newmeas,x:-21148580.579421,y:9342639.118088,z:12957614.352149,vx:965.512207,vy:-1363.190796,vz:2559.394043,tb:0.000187158636
$pseudo_cd_ph,prn:6,pseudo_cd_ph:200050927.298517614603
measnum = 2,full_prange = 21853319.179298
$oldmeas,msRange:72.901798,x:6249106.377082,y:25698880.171656,z:2259407.289758,vx:-308.613617,vy:-200.031403,vz:3193.271729,tb:0.000193713257
$newmeas,x:6249128.873074,y:25698894.751938,z:2259174.516645,vx:-308.604187,vy:-200.004715,vz:3193.275146,tb:0.000193713257
$pseudo_cd_ph,prn:17,pseudo_cd_ph:200050928.145013302565
measnum = 3,full_prange = 21560080.988258
$oldmeas,msRange:71.923738,x:1163137.507529,y:15527220.597386,z:21936617.093952,vx:-2583.051025,vy:-718.478699,vz:649.316650,tb:0.000062071626
$newmeas,x:1163323.271695,y:15527272.268361,z:21936570.396085,vx:-2583.042236,vy:-718.488892,vz:649.348999,tb:0.000062071625
$pseudo_cd_ph,prn:19,pseudo_cd_ph:200050927.118965715170
measnum = 4,full_prange = 21755053.452461
$oldmeas,msRange:72.574031,x:9225453.140932,y:16247842.119899,z:18543188.956313,vx:-2326.071045,vy:-662.890259,vz:1717.465820,tb:-0.000313617825
$newmeas,x:9225621.936379,y:16247890.224075,z:18543064.323825,vx:-2326.052979,vy:-662.895386,vz:1717.495239,tb:-0.000313617826
$pseudo_cd_ph,prn:22,pseudo_cd_ph:200050920.993171960115
measnum = 5,full_prange = 23473267.600542
$oldmeas,msRange:78.305544,x:-19494609.520623,y:2539638.611093,z:18060558.299157,vx:1263.621826,vy:-1886.225830,vz:1658.563965,tb:-0.000708066104
$newmeas,x:-19494708.460095,y:2539786.298854,z:18060428.435108,vx:1263.619507,vy:-1886.208252,vz:1658.593506,tb:-0.000708066104
$pseudo_cd_ph,prn:28,pseudo_cd_ph:200050932.050712913275
measnum = 6,full_prange = 20600752.836511
$oldmeas,msRange:68.723776,x:-9863004.580101,y:20982777.412030,z:13648874.280708,vx:-1311.593018,vy:971.565186,vz:-2546.566162,tb:0.000767796967
$newmeas,x:-9862914.451054,y:20982710.648964,z:13649049.271716,vx:-1311.612915,vy:971.573853,vz:-2546.547119,tb:0.000767796967
$pseudo_cd_ph,prn:30,pseudo_cd_ph:200050921.416154533625
measnum = 7,full_prange = 23524873.400923
$oldmeas,msRange:78.477746,x:-2588723.792488,y:23676586.502526,z:-11525781.790800,vx:-662.948486,vy:-1356.091064,vz:-2650.472900,tb:-0.000112945109
$newmeas,x:-2588671.771050,y:23676692.914828,z:-11525573.806014,vx:-662.936218,vy:-1356.068481,vz:-2650.492432,tb:-0.000112945109
$pseudo_cd_ph,prn:11,pseudo_cd_ph:19.416283004328
measnum = 8,full_prange = 23979222.380836
$oldmeas,msRange:79.993304,x:-19719237.300261,y:-1968246.795031,z:17039647.615752,vx:-1339.349854,vy:-1884.250732,vz:-1740.119263,tb:-0.000597271568
$newmeas,x:-19719130.170725,y:-1968096.080472,z:17039786.799851,vx:-1339.354736,vy:-1884.269043,vz:-1740.088867,tb:-0.000597271568
Refix G01: 2, 200050.921886, 2238
Refix G02: 2, 200050.916298, -3992
Refix G03: 2, 200050.925945, -981
Refix G06: 2, 200050.927299, -3396
Refix G11: 2, 200050.919416, 1879
Refix G17: 2, 200050.928145, -1693
Refix G19: 2, 200050.927119, -2587
Refix G22: 2, 200050.920993, 487
Refix G28: 2, 200050.932051, -1319
Refix G30: 2, 200050.921416, 2118
$GNGGA,073353.000,2944.9074,N,10633.0900,E,1,19,0.6,319.2,M,,,,0000*18
$GNRMC,073353.000,A,2944.9074,N,10633.0900,E,0.35,0.00,280519,,*12
$GPGSA,A,3,01,03,06,17,19,22,28,30,,,,,0.8,0.6,0.4*3B
$BDGSA,A,3,01,03,04,07,08,10,12,19,22,26,29,,0.8,0.6,0.4*25
$GLGSA,A,3,,,,,,,,,,,,,0.8,0.6,0.4*24
$GPGSV,3,1,10,01,21,041,40,03,35,077,44,06,41,234,43,17,52,335,45*78
$GPGSV,3,2,10,19,40,305,42,22,23,056,41,28,80,082,44,30,20,191,41*77
$GPGSV,3,3,10,11,12,056,33,02,05,231,00*7F
$BDGSV,3,1,12,01,40,126,41,03,55,171,43,04,23,109,39,07,55,149,43*64
$BDGSV,3,2,12,08,73,339,42,10,81,202,43,12,34,285,39,02,47,220,39*6C
$BDGSV,3,3,12,19,27,107,42,22,14,160,38,26,52,254,43,29,23,059,43*69
$B3CN0,18,0,0,0,0,0,0,0,0,0,0,0,0,0*75
$ini_pos,lastpos_good = 1,ini_pos.x:-1578909.011130,ini_pos.y:5312767.012561,ini_pos.z:3146353.674353
$rtc_local_time,localRTC.weeks:2055,localRTC.seconds:200051.658821,localGtime.weeks:2055,localGtime.seconds:200052.000000
$pseudo_cd_ph,prn:1,pseudo_cd_ph:200051921.884215176105
measnum = 0,full_prange = 23410339.801464
$oldmeas,msRange:0.000000,x:-15105949.985801,y:656207.568893,z:21679902.071154,vx:-774.481201,vy:-2679.584473,vz:-423.196564,tb:-0.000026895185
$newmeas,x:-15105889.508179,y:656416.813905,z:21679935.116507,vx:-774.469849,vy:-2679.592529,vz:-423.160004,tb:-0.000026895185
$pseudo_cd_ph,prn:3,pseudo_cd_ph:200051925.945768743753
measnum = 1,full_prange = 22256888.395013
$oldmeas,msRange:74.248794,x:-21147543.304426,y:9341174.553836,z:12960363.599419,vx:965.664185,vy:-1363.503540,vz:2559.095703,tb:0.000187158635
$newmeas,x:-21147614.995900,y:9341275.780887,z:12960173.608850,vx:965.653687,vy:-1363.481934,vz:2559.116455,tb:0.000187158635
$pseudo_cd_ph,prn:6,pseudo_cd_ph:200051927.300644546747
measnum = 2,full_prange = 21852671.870815
$oldmeas,msRange:72.900373,x:6248797.698904,y:25698679.957214,z:2262600.537241,vx:-308.742767,vy:-200.397491,vz:3193.223389,tb:0.000193713246
$newmeas,x:6248820.203645,y:25698694.563749,z:2262367.774537,vx:-308.733368,vy:-200.370804,vz:3193.227051,tb:0.000193713247
$pseudo_cd_ph,prn:17,pseudo_cd_ph:200051928.146059513092
measnum = 3,full_prange = 21559757.678265
$oldmeas,msRange:71.923393,x:1160554.395320,y:15526502.189422,z:21937266.186028,vx:-2583.173584,vy:-718.337280,vz:648.867493,tb:0.000062071636
