SD initialized success
Create debug.log Failed! 3
bbram_blkflag = 1
rtcflag = 0
BBRAM Block OK: 01 EPHflag: 28250465 a40012cf, rtc 00
Hot-start nowtime:day = 16,minute = 17,seconds = 28.00
GPS 0 Init Dop:  2459, 2
GPS 1 Init Dop: 10000,80
GPS 2 Init Dop:  -896, 2
GPS 3 Init Dop: 10000,80
GPS 4 Init Dop: 10000,80
GPS 5 Init Dop: -3292, 2
GPS 6 Init Dop:  2526, 2
GPS 7 Init Dop: 10000,80
GPS 8 Init Dop: 10000,80
GPS 9 Init Dop: 10000,80
GPS10 Init Dop:  2136, 2
GPS11 Init Dop: 10000,80
GPS12 Init Dop: 10000,80
GPS13 Init Dop: 10000,80
GPS14 Init Dop: 10000,80
GPS15 Init Dop: 10000,80
GPS16 Init Dop: -1444, 2
GPS17 Init Dop: 10000,80
GPS18 Init Dop: -2379, 2
GPS19 Init Dop: 10000,80
GPS20 Init Dop: 10000,80
GPS21 Init Dop:   602, 2
GPS22 Init Dop: 10000,80
GPS23 Init Dop: 10000,80
GPS24 Init Dop: 10000,80
GPS25 Init Dop: 10000,80
GPS26 Init Dop: 10000,80
GPS27 Init Dop: -1202, 2
GPS28 Init Dop: 10000,80
GPS29 Init Dop:  2350, 2
GPS30 Init Dop: 10000,80
GPS31 Init Dop: 10000,80
BDS 0 Init Dop:  -859, 2
BDS 1 Init Dop:  -920, 2
BDS 2 Init Dop:  -878, 2
BDS 3 Init Dop:  -879, 2
BDS 4 Init Dop: 10000,80
BDS 5 Init Dop: 10000,80
BDS 6 Init Dop:  -217, 2
BDS 7 Init Dop:  -469, 2
BDS 8 Init Dop: 10000,80
BDS 9 Init Dop:  -718, 2
BDS10 Init Dop: 10000,80
BDS11 Init Dop: 10000,80
BDS12 Init Dop:  -911, 2
BDS13 Init Dop: 10000,80
BDS14 Init Dop: 10000,80
BDS15 Init Dop: 10000,80
BDS16 Init Dop: 10000,80
BDS17 Init Dop: 10000,80
BDS18 Init Dop: 10000,80
BDS19 Init Dop: 10000,80
BDS20 Init Dop: 10000,80
BDS21 Init Dop: 10000,80
BDS22 Init Dop: 10000,80
BDS23 Init Dop: 10000,80
BDS24 Init Dop: 10000,80
BDS25 Init Dop: 10000,80
BDS26 Init Dop:   851, 2
BDS27 Init Dop: 10000,80
BDS28 Init Dop: 10000,80
BDS29 Init Dop:  -987, 2
BDS30 Init Dop: 10000,80
BDS31 Init Dop: -3085, 2
Good luck!
$ini_pos,lastpos_good = 1,ini_pos.x:-1578918.000000,ini_pos.y:5312772.000000,ini_pos.z:3146356.000000
$rtc_local_time,localRTC.weeks:2053,localRTC.seconds:375467.026014,localGtime.weeks:0,localGtime.seconds:19.026011
source<tow,snapshot
$GNGGA,000000.000,,,,,0,00,,,M,,,,0000*2B
$GNRMC,000000.000,A,,,,,,,060180,,*29
$GPGSA,A,1,,,,,,,,,,,,,,,*1E
$BDGSA,A,1,,,,,,,,,,,,,,,*0F
$GLGSA,A,1,,,,,,,,,,,,,,,*02
$B3CN0,0,0,0,0,0,0,0,0,0,0,0,0,0,0*4C
$ini_pos,lastpos_good = 1,ini_pos.x:-1578918.000000,ini_pos.y:5312772.000000,ini_pos.z:3146356.000000
$rtc_local_time,localRTC.weeks:2053,localRTC.seconds:375468.026014,localGtime.weeks:2053,localGtime.seconds:375468.026014
source<tow,snapshot
$GNGGA,000000.000,,,,,0,00,,,M,,,,0000*2B
$GNRMC,000000.000,A,,,,,,,060180,,*29
$GPGSA,A,1,,,,,,,,,,,,,,,*1E
$BDGSA,A,1,,,,,,,,,,,,,,,*0F
$GLGSA,A,1,,,,,,,,,,,,,,,*02
$B3CN0,0,0,0,0,0,0,0,0,0,0,0,0,0,0*4C
$ini_pos,lastpos_good = 1,ini_pos.x:-1578918.000000,ini_pos.y:5312772.000000,ini_pos.z:3146356.000000
$rtc_local_time,localRTC.weeks:2053,localRTC.seconds:375469.026014,localGtime.weeks:2053,localGtime.seconds:375469.026014
$pseudo_cd_ph,prn:1,pseudo_cd_ph:3.840681916924
measnum = 0,full_prange = 23130747.021436
$oldmeas,msRange:0.000000,x:-14858537.000737,y:1575220.204860,z:21794535.580462,vx:-726.232727,vy:-2708.920166,vz:-265.446472,tb:-0.000017513539
$newmeas,x:-14858480.968079,y:1575429.214180,z:21794556.059813,vx:-726.220886,vy:-2708.926270,vz:-265.410156,tb:-0.000017513538
$pseudo_cd_ph,prn:3,pseudo_cd_ph:7.115024040871
measnum = 1,full_prange = 22210694.646512
$oldmeas,msRange:74.306701,x:-21444508.851065,y:9588605.899611,z:12274499.937183,vx:931.784302,vy:-1282.537231,vz:2629.928711,tb:0.000187864201
$newmeas,x:-21444577.883643,y:9588700.918025,z:12274305.093186,vx:931.772583,vy:-1282.515747,vz:2629.948242,tb:0.000187864201
$pseudo_cd_ph,prn:6,pseudo_cd_ph:7.941964940941
measnum = 2,full_prange = 21967690.736364
$oldmeas,msRange:73.496831,x:6453008.036136,y:25723867.536855,z:1057649.783177,vx:-264.407501,vy:-59.793697,vz:3206.125977,tb:0.000204231301
$newmeas,x:6453027.410645,y:25723871.917316,z:1057414.849977,vx:-264.399292,vy:-59.766361,vz:3206.127686,tb:0.000204231302
$pseudo_cd_ph,prn:11,pseudo_cd_ph:1.211137370746
measnum = 3,full_prange = 23742740.726675
$oldmeas,msRange:79.416171,x:-19295694.662352,y:-1394290.679134,z:17567548.123095,vx:-1352.579468,vy:-1956.695312,vz:-1618.449341,tb:-0.000605666830
$newmeas,x:-19295587.541631,y:-1394135.713535,z:17567676.298617,vx:-1352.582886,vy:-1956.712891,vz:-1618.418335,tb:-0.000605666830
source<tow,snapshot
$GNGGA,000000.000,,,,,0,00,,,M,,,,0000*2B
$GNRMC,000000.000,A,,,,,,,060180,,*29
$GPGSA,A,1,,,,,,,,,,,,,,,*1E
$BDGSA,A,1,,,,,,,,,,,,,,,*0F
$GLGSA,A,1,,,,,,,,,,,,,,,*02
$GPGSV,1,1,03,01,00,000,26,03,00,000,24,06,00,000,17*4A
$B3CN0,0,0,0,0,0,0,0,0,0,0,0,0,0,0*4C
$ini_pos,lastpos_good = 1,ini_pos.x:-1578918.000000,ini_pos.y:5312772.000000,ini_pos.z:3146356.000000
$rtc_local_time,localRTC.weeks:2053,localRTC.seconds:375470.026014,localGtime.weeks:2053,localGtime.seconds:375470.026014
$pseudo_cd_ph,prn:1,pseudo_cd_ph:3.839201963542
measnum = 0,full_prange = 23131181.003191
$oldmeas,msRange:0.000000,x:-14859263.310002,y:1572511.324962,z:21794269.898599,vx:-726.385864,vy:-2708.839844,vz:-265.917267,tb:-0.000017513550
$newmeas,x:-14859207.264475,y:1572720.332008,z:21794290.414661,vx:-726.374023,vy:-2708.845947,vz:-265.880951,tb:-0.000017513549
$pseudo_cd_ph,prn:3,pseudo_cd_ph:7.115703854976
measnum = 1,full_prange = 22210481.147039
$oldmeas,msRange:74.306703,x:-21443576.987810,y:9587323.217330,z:12277129.734418,vx:931.942261,vy:-1282.827393,vz:2629.665771,tb:0.000187864200
$newmeas,x:-21443646.031429,y:9587418.256330,z:12276934.911769,vx:931.930603,vy:-1282.805908,vz:2629.685303,tb:0.000187864200
$pseudo_cd_ph,prn:6,pseudo_cd_ph:7.944180605116
measnum = 2,full_prange = 21967016.803097
$oldmeas,msRange:73.495311,x:6452743.572659,y:25723807.556626,z:1060855.897736,vx:-264.519501,vy:-60.166759,vz:3206.103271,tb:0.000204231291
$newmeas,x:6452762.954781,y:25723811.964289,z:1060620.973398,vx:-264.511292,vy:-60.139423,vz:3206.104980,tb:0.000204231291
$pseudo_cd_ph,prn:11,pseudo_cd_ph:1.209880579019
measnum = 3,full_prange = 23743107.810758
$oldmeas,msRange:79.418097,x:-19297047.220287,y:-1396247.263912,z:17565929.477564,vx:-1352.536499,vy:-1956.474365,vz:-1618.841797,tb:-0.000605666827
$newmeas,x:-19296940.101316,y:-1396092.313420,z:17566057.686147,vx:-1352.539917,vy:-1956.491821,vz:-1618.810669,tb:-0.000605666827
$pseudo_cd_ph,prn:17,pseudo_cd_ph:9.285424076800
measnum = 4,full_prange = 21520351.182385
$oldmeas,msRange:72.004893,x:1827387.382455,y:15737030.592018,z:21739622.680134,vx:-2544.200195,vy:-765.316956,vz:774.124695,tb:0.000055558600
$newmeas,x:1827570.015388,y:15737085.529998,z:21739567.109094,vx:-2544.190186,vy:-765.326477,vz:774.156616,tb:0.000055558599
$pseudo_cd_ph,prn:19,pseudo_cd_ph:8.009837832036
measnum = 5,full_prange = 21790659.464219
$oldmeas,msRange:72.906861,x:10030829.641831,y:16463585.997854,z:17931399.988876,vx:-2238.746338,vy:-681.237915,vz:1854.589844,tb:-0.000318376273
$newmeas,x:10030992.366238,y:16463635.514330,z:17931265.185465,vx:-2238.727051,vy:-681.241882,vz:1854.618286,tb:-0.000318376273
$pseudo_cd_ph,prn:22,pseudo_cd_ph:2.403137788745
measnum = 6,full_prange = 23356597.395825
$oldmeas,msRange:78.129260,x:-19840430.006040,y:2912205.157908,z:17616050.717312,vx:1263.339111,vy:-1820.603149,vz:1754.925171,tb:-0.000701669583
$newmeas,x:-19840528.431673,y:2912346.998991,z:17615913.991339,vx:1263.335571,vy:-1820.585327,vz:1754.953857,tb:-0.000701669583
$pseudo_cd_ph,prn:28,pseudo_cd_ph:13.229727885823
measnum = 7,full_prange = 20551427.746308
$oldmeas,msRange:68.772786,x:-9478347.298915,y:20666100.820763,z:14413936.808037,vx:-1401.888184,vy:1005.393127,vz:-2458.894775,tb:0.000767881718
$newmeas,x:-9478251.195736,y:20666031.898616,z:14414105.369953,vx:-1401.908081,vy:1005.400513,vz:-2458.874512,tb:0.000767881718
$pseudo_cd_ph,prn:30,pseudo_cd_ph:3.412324094353
measnum = 8,full_prange = 23232763.054149
$oldmeas,msRange:77.715700,x:-2259255.535595,y:24178512.628261,z:-10508113.493827,vx:-610.321289,vy:-1242.208618,vz:-2740.169189,tb:-0.000105550216
$newmeas,x:-2259208.238476,y:24178608.893749,z:-10507901.140576,vx:-610.310059,vy:-1242.185181,vz:-2740.186523,tb:-0.000105550216
source<tow,snapshot
nits = 2
$GNGGA,081732.570,2944.9155,N,10633.0840,E,1,13,0.0,316.9,M,,,,0000*1B
$GNRMC,081732.570,A,2944.9155,N,10633.0840,E,0.00,0.00,160519,,*12
$GPGSA,A,3,01,03,06,11,17,19,22,28,30,,,,0.0,0.0,0.0*31
$BDGSA,A,3,01,02,03,04,,,,,,,,,0.0,0.0,0.0*27
$GLGSA,A,3,,,,,,,,,,,,,0.0,0.0,0.0*2E
$GPGSV,2,1,07,01,00,000,40,03,00,000,43,06,00,000,44,11,00,000,33*7A
$GPGSV,2,2,07,17,00,000,27,19,00,000,26,22,00,000,21*42
$B3CN0,0,0,0,0,0,0,0,0,0,0,0,0,0,0*4C
$ini_pos,lastpos_good = 1,ini_pos.x:-1578897.082594,ini_pos.y:5312760.840497,ini_pos.z:3146365.431040
$rtc_local_time,localRTC.weeks:2053,localRTC.seconds:375471.026014,localGtime.weeks:2053,localGtime.seconds:375471.026014
$pseudo_cd_ph,prn:1,pseudo_cd_ph:3.837732876268
measnum = 0,full_prange = 23131611.768523
$oldmeas,msRange:0.000000,x:-14859989.772414,y:1569802.525399,z:21794003.745932,vx:-726.539001,vy:-2708.759521,vz:-266.388062,tb:-0.000017513560
$newmeas,x:-14859933.714028,y:1570011.530136,z:21794024.298702,vx:-726.527161,vy:-2708.765625,vz:-266.351746,tb:-0.000017513560
$pseudo_cd_ph,prn:3,pseudo_cd_ph:7.116385779656
measnum = 1,full_prange = 22210267.057888
$oldmeas,msRange:74.306762,x:-21442644.966591,y:9586040.244858,z:12279759.268763,vx:932.100220,vy:-1283.117554,vz:2629.403076,tb:0.000187864198
$newmeas,x:-21442714.021246,y:9586135.304441,z:12279564.467470,vx:932.088501,vy:-1283.096069,vz:2629.422363,tb:0.000187864198
$pseudo_cd_ph,prn:6,pseudo_cd_ph:7.946392607479
measnum = 2,full_prange = 21966343.995579
$oldmeas,msRange:73.493804,x:6452478.997157,y:25723747.203344,z:1064061.989675,vx:-264.631531,vy:-60.539806,vz:3206.080811,tb:0.000204231280
$newmeas,x:6452498.386895,y:25723751.638206,z:1063827.074192,vx:-264.623322,vy:-60.512470,vz:3206.082275,tb:0.000204231281
$pseudo_cd_ph,prn:11,pseudo_cd_ph:1.208635645295
measnum = 3,full_prange = 23743471.374643
$oldmeas,msRange:79.420045,x:-19298399.735199,y:-1398203.627676,z:17564310.439643,vx:-1352.493408,vy:-1956.253296,vz:-1619.234131,tb:-0.000605666825
$newmeas,x:-19298292.617997,y:-1398048.692316,z:17564438.681264,vx:-1352.496826,vy:-1956.270874,vz:-1619.203125,tb:-0.000605666825
$pseudo_cd_ph,prn:17,pseudo_cd_ph:9.286444290176
measnum = 4,full_prange = 21520035.654313
$oldmeas,msRange:72.004525,x:1824843.112607,y:15736265.341361,z:21740396.582189,vx:-2544.339600,vy:-765.184387,vz:773.679504,tb:0.000055558611
$newmeas,x:1825025.752861,y:15736320.269020,z:21740341.043921,vx:-2544.329590,vy:-765.193909,vz:773.711426,tb:0.000055558610
$pseudo_cd_ph,prn:19,pseudo_cd_ph:8.011438893666
measnum = 5,full_prange = 21790169.799867
$oldmeas,msRange:72.905881,x:10028590.763006,y:16462904.787262,z:17933254.382826,vx:-2239.011475,vy:-681.183350,vz:1854.198120,tb:-0.000318376271
$newmeas,x:10028753.503021,y:16462954.298660,z:17933119.610912,vx:-2238.992188,vy:-681.187317,vz:1854.226685,tb:-0.000318376271
$pseudo_cd_ph,prn:22,pseudo_cd_ph:2.402871453517
measnum = 6,full_prange = 23356667.583962
$oldmeas,msRange:78.130245,x:-19839166.644579,y:2910384.439879,z:17617805.457723,vx:1263.383911,vy:-1820.833008,vz:1754.555786,tb:-0.000701669588
$newmeas,x:-19839265.073996,y:2910526.299290,z:17617668.760111,vx:1263.380371,vy:-1820.815063,vz:1754.584595,tb:-0.000701669587
$pseudo_cd_ph,prn:28,pseudo_cd_ph:13.230603289861
measnum = 7,full_prange = 20551155.638197
$oldmeas,msRange:68.772630,x:-9479749.042120,y:20667106.159886,z:14411477.766052,vx:-1401.598267,vy:1005.285217,vz:-2459.189209,tb:0.000767881723
$newmeas,x:-9479652.960086,y:20667037.246049,z:14411646.345926,vx:-1401.618164,vy:1005.292603,vz:-2459.169189,tb:0.000767881722
$pseudo_cd_ph,prn:30,pseudo_cd_ph:3.410941727117
measnum = 8,full_prange = 23233167.802863
$oldmeas,msRange:77.717812,x:-2259865.929144,y:24177270.268301,z:-10510853.549763,vx:-610.465881,vy:-1242.511353,vz:-2739.942871,tb:-0.000105550225
$newmeas,x:-2259818.619997,y:24177366.558921,z:-10510641.210340,vx:-610.454651,vy:-1242.487915,vz:-2739.960449,tb:-0.000105550224
source<tow,snapshot
nits = 2
Refix G01: 2, 375471.500359, 3357
Refix G03: 2, 375471.503638, 4
Refix G06: 2, 375471.504468, -2393
Refix G07: 2, 375471.493032, 3422
Refix G11: 2, 375471.497730, 3034
Refix G17: 2, 375471.505808, -547
Refix G19: 2, 375471.504533, -1482
Refix G22: 2, 375471.498924, 1502
Refix G28: 2, 375471.509752, -304
Refix G30: 2, 375471.499932, 3247
$GNGGA,081733.578,2944.9115,N,10633.0873,E,1,15,0.0,310.4,M,,,,0000*1B
$GNRMC,081733.578,A,2944.9115,N,10633.0873,E,0.00,0.00,160519,,*1F
$GPGSA,A,3,01,03,06,11,17,19,22,28,30,,,,0.0,0.0,0.0*31
$BDGSA,A,3,01,02,03,04,08,10,,,,,,,0.0,0.0,0.0*2E
$GLGSA,A,3,,,,,,,,,,,,,0.0,0.0,0.0*2E
$GPGSV,3,1,09,01,00,000,40,03,00,000,42,06,00,000,44,11,00,000,35*72
$GPGSV,3,2,09,17,00,000,45,19,00,000,43,22,00,000,42,28,00,000,34*72
$GPGSV,3,3,09,30,00,000,32*42
$BDGSV,2,1,05,01,00,000,40,02,00,000,39,03,00,000,43,04,00,000,39*69
$BDGSV,2,2,05,08,00,000,19*5D
$B3CN0,0,0,0,0,0,0,0,0,0,0,0,0,0,0*4C
$ini_pos,lastpos_good = 1,ini_pos.x:-1578901.557141,ini_pos.y:5312757.443064,ini_pos.z:3146355.860157
$rtc_local_time,localRTC.weeks:2053,localRTC.seconds:375472.026014,localGtime.weeks:2053,localGtime.seconds:375472.026014
$pseudo_cd_ph,prn:1,pseudo_cd_ph:3.836267189779
measnum = 0,full_prange = 23132041.497451
$oldmeas,msRange:0.000000,x:-14860716.387953,y:1567093.806237,z:21793737.122469,vx:-726.692139,vy:-2708.678955,vz:-266.858856,tb:-0.000017513571
$newmeas,x:-14860660.316711,y:1567302.808651,z:21793757.711947,vx:-726.680298,vy:-2708.685303,vz:-266.822540,tb:-0.000017513570
$pseudo_cd_ph,prn:3,pseudo_cd_ph:7.117066242595
measnum = 1,full_prange = 22210053.379724
$oldmeas,msRange:74.306767,x:-21441712.787465,y:9584756.982190,z:12282388.540162,vx:932.258118,vy:-1283.407837,vz:2629.139893,tb:0.000187864197
$newmeas,x:-21441781.853152,y:9584852.062358,z:12282193.760226,vx:932.246399,vy:-1283.386353,vz:2629.159424,tb:0.000187864197
$pseudo_cd_ph,prn:6,pseudo_cd_ph:7.948600634801
measnum = 2,full_prange = 21965672.367416
$oldmeas,msRange:73.492297,x:6452214.309578,y:25723686.477027,z:1067268.058927,vx:-264.743652,vy:-60.912830,vz:3206.058105,tb:0.000204231270
$newmeas,x:6452233.706937,y:25723690.939085,z:1067033.152291,vx:-264.735413,vy:-60.885502,vz:3206.059570,tb:0.000204231271
$pseudo_cd_ph,prn:11,pseudo_cd_ph:1.207380926854
measnum = 3,full_prange = 23743837.851179
$oldmeas,msRange:79.421976,x:-19299752.207032,y:-1400159.770399,z:17562691.009367,vx:-1352.450317,vy:-1956.032227,vz:-1619.626465,tb:-0.000605666822
$newmeas,x:-19299645.091590,y:-1400004.850156,z:17562819.284041,vx:-1352.453735,vy:-1956.049805,vz:-1619.595459,tb:-0.000605666822
$pseudo_cd_ph,prn:17,pseudo_cd_ph:9.287466517175
measnum = 4,full_prange = 21519719.536564
$oldmeas,msRange:72.004213,x:1822298.703510,y:15735500.223276,z:21741170.039057,vx:-2544.478760,vy:-765.051819,vz:773.234314,tb:0.000055558621
$newmeas,x:1822481.351075,y:15735555.140611,z:21741114.533561,vx:-2544.468750,vy:-765.061340,vz:773.266235,tb:0.000055558620
$pseudo_cd_ph,prn:19,pseudo_cd_ph:8.013045854466
measnum = 5,full_prange = 21789678.384350
$oldmeas,msRange:72.904975,x:10026351.619175,y:16462223.631254,z:17935108.385091,vx:-2239.276367,vy:-681.128723,vz:1853.806519,tb:-0.000318376270
$newmeas,x:10026514.374779,y:16462273.137567,z:17934973.644687,vx:-2239.257080,vy:-681.132690,vz:1853.834961,tb:-0.000318376270
$pseudo_cd_ph,prn:22,pseudo_cd_ph:2.402599659134
measnum = 6,full_prange = 23356739.398179
$oldmeas,msRange:78.131206,x:-19837903.238371,y:2908563.492071,z:17619559.828821,vx:1263.428589,vy:-1821.062744,vz:1754.186523,tb:-0.000701669592
$newmeas,x:-19838001.671574,y:2908705.369819,z:17619423.159563,vx:1263.425171,vy:-1821.044800,vz:1754.215210,tb:-0.000701669592
$pseudo_cd_ph,prn:28,pseudo_cd_ph:13.231477739291
measnum = 7,full_prange = 20550883.815990
$oldmeas,msRange:68.772457,x:-9481150.495435,y:20668111.391061,z:14409018.429567,vx:-1401.308472,vy:1005.177185,vz:-2459.483887,tb:0.000767881727
$newmeas,x:-9481054.434544,y:20668042.485538,z:14409187.027398,vx:-1401.328247,vy:1005.184631,vz:-2459.463623,tb:0.000767881727
$pseudo_cd_ph,prn:30,pseudo_cd_ph:3.409561201974
measnum = 8,full_prange = 23233571.997637
$oldmeas,msRange:77.719863,x:-2260476.467292,y:24176027.605711,z:-10513593.379490,vx:-610.610474,vy:-1242.813965,vz:-2739.716797,tb:-0.000105550233
$newmeas,x:-2260429.146114,y:24176123.921458,z:-10513381.053906,vx:-610.599243,vy:-1242.790527,vz:-2739.734131,tb:-0.000105550233
source<tow,snapshot
nits = 2
Refix G01: 2, 375472.501844, 3357
Refix G03: 2, 375472.505125, 5
Refix G06: 2, 375472.505956, -2393
Refix G07: 2, 375472.494517, 3422
Refix G11: 2, 375472.499215, 3034
Refix G17: 2, 375472.507295, -547
Refix G19: 2, 375472.506020, -1482
Refix G22: 2, 375472.500410, 1502
Refix G28: 2, 375472.511239, -303
Refix G30: 2, 375472.501417, 3247
$GNGGA,081734.579,2944.9096,N,10633.0886,E,1,15,0.0,315.7,M,,,,0000*1B
$GNRMC,081734.579,A,2944.9096,N,10633.0886,E,0.00,0.00,160519,,*19
$GPGSA,A,3,01,03,06,11,17,19,22,28,30,,,,0.0,0.0,0.0*31
$BDGSA,A,3,01,02,03,04,08,10,,,,,,,0.0,0.0,0.0*2E
$GLGSA,A,3,,,,,,,,,,,,,0.0,0.0,0.0*2E
$GPGSV,3,1,10,01,23,040,41,03,35,080,43,06,39,232,44,11,14,055,35*7D
$GPGSV,3,2,10,17,52,332,45,19,39,302,43,22,24,058,42,28,80,067,43*76
$GPGSV,3,3,10,30,22,192,40,07,00,170,00*74
$BDGSV,3,1,11,01,40,125,41,02,47,219,40,03,55,171,43,04,23,109,39*67
$BDGSV,3,2,11,08,74,340,44,10,82,197,40,07,56,148,00,13,63,256,00*6A
$BDGSV,3,3,11,27,34,048,00,30,57,328,00,32,25,125,00*5E
$B3CN0,0,0,0,0,0,0,0,0,0,0,0,0,0,0*4C
$ini_pos,lastpos_good = 1,ini_pos.x:-1578905.470762,ini_pos.y:5312762.866169,ini_pos.z:3146355.477858
$rtc_local_time,localRTC.weeks:2053,localRTC.seconds:375473.026014,localGtime.weeks:2053,localGtime.seconds:375473.026014
$pseudo_cd_ph,prn:1,pseudo_cd_ph:3.834814412853
measnum = 0,full_prange = 23132467.348801
$oldmeas,msRange:0.000000,x:-14861443.156596,y:1564385.167544,z:21793470.028216,vx:-726.845215,vy:-2708.598633,vz:-267.329651,tb:-0.000017513582
$newmeas,x:-14861387.072509,y:1564594.167594,z:21793490.654400,vx:-726.833374,vy:-2708.604736,vz:-267.293335,tb:-0.000017513581
$pseudo_cd_ph,prn:3,pseudo_cd_ph:7.117748331348
measnum = 1,full_prange = 22209839.236966
$oldmeas,msRange:74.306755,x:-21440780.450491,y:9583473.429326,z:12285017.548559,vx:932.415894,vy:-1283.697998,vz:2628.876953,tb:0.000187864196
$newmeas,x:-21440849.527204,y:9583568.530076,z:12284822.789987,vx:932.404236,vy:-1283.676514,vz:2628.896484,tb:0.000187864196
$pseudo_cd_ph,prn:6,pseudo_cd_ph:7.950809475031
measnum = 2,full_prange = 21965000.506956
$oldmeas,msRange:73.490766,x:6451949.509873,y:25723625.377693,z:1070474.105421,vx:-264.855804,vy:-61.285839,vz:3206.035156,tb:0.000204231260
$newmeas,x:6451968.914856,y:25723629.866943,z:1070239.207641,vx:-264.847565,vy:-61.258511,vz:3206.036865,tb:0.000204231261
$pseudo_cd_ph,prn:11,pseudo_cd_ph:1.206133524577
measnum = 3,full_prange = 23744202.147695
$oldmeas,msRange:79.423898,x:-19301104.635733,y:-1402115.692055,z:17561071.186773,vx:-1352.407104,vy:-1955.811157,vz:-1620.018799,tb:-0.000605666820
$newmeas,x:-19300997.522066,y:-1401960.786945,z:17561199.494487,vx:-1352.410522,vy:-1955.828735,vz:-1619.987671,tb:-0.000605666820
$pseudo_cd_ph,prn:17,pseudo_cd_ph:9.288493979595
measnum = 4,full_prange = 21519401.846341
$oldmeas,msRange:72.003859,x:1819754.155221,y:15734735.237795,z:21741943.050722,vx:-2544.617920,vy:-764.919189,vz:772.789062,tb:0.000055558632
$newmeas,x:1819936.810079,y:15734790.144800,z:21741887.578003,vx:-2544.607910,vy:-764.928711,vz:772.821045,tb:0.000055558631
$pseudo_cd_ph,prn:19,pseudo_cd_ph:8.014660563986
measnum = 5,full_prange = 21789184.645861
$oldmeas,msRange:72.904032,x:10024112.210381,y:16461542.529882,z:17936961.995632,vx:-2239.541260,vy:-681.074036,vz:1853.414673,tb:-0.000318376268
$newmeas,x:10024274.981553,y:16461592.031099,z:17936827.286753,vx:-2239.521973,vy:-681.078064,vz:1853.443237,tb:-0.000318376268
$pseudo_cd_ph,prn:22,pseudo_cd_ph:2.402332160480
measnum = 6,full_prange = 23356809.907958
$oldmeas,msRange:78.132152,x:-19836639.787468,y:2906742.314506,z:17621313.830569,vx:1263.473267,vy:-1821.292480,vz:1753.817139,tb:-0.000701669597
$newmeas,x:-19836738.224449,y:2906884.210583,z:17621177.189676,vx:1263.469849,vy:-1821.274536,vz:1753.845947,tb:-0.000701669596
$pseudo_cd_ph,prn:28,pseudo_cd_ph:13.232355582050
measnum = 7,full_prange = 20550610.975248
$oldmeas,msRange:68.772247,x:-9482551.658854,y:20669116.514229,z:14406558.798630,vx:-1401.018555,vy:1005.069153,vz:-2459.778320,tb:0.000767881732
$newmeas,x:-9482455.619111,y:20669047.617027,z:14406727.414406,vx:-1401.038330,vy:1005.076599,vz:-2459.758057,tb:0.000767881731
$pseudo_cd_ph,prn:30,pseudo_cd_ph:3.408182414513
measnum = 8,full_prange = 23233975.674210
$oldmeas,msRange:77.721908,x:-2261087.150074,y:24174784.640533,z:-10516332.982951,vx:-610.755127,vy:-1243.116455,vz:-2739.490479,tb:-0.000105550242
$newmeas,x:-2261039.816863,y:24174880.981403,z:-10516120.671216,vx:-610.743896,vy:-1243.093018,vz:-2739.508057,tb:-0.000105550241
source<tow,snapshot
nits = 2
Refix G01: 2, 375473.502501, 3357
Refix G03: 2, 375473.505784, 5
Refix G06: 2, 375473.506617, -2392
Refix G07: 2, 375473.495174, 3422
Refix G11: 2, 375473.499872, 3034
Refix G17: 2, 375473.507954, -547
Refix G19: 2, 375473.506680, -1482
Refix G22: 2, 375473.501068, 1503
Refix G28: 2, 375473.511898, -303
Refix G30: 2, 375473.502074, 3247
$GNGGA,081735.580,2944.9086,N,10633.0896,E,1,15,0.0,319.2,M,,,,0000*15
$GNRMC,081735.580,A,2944.9086,N,10633.0896,E,0.00,0.00,160519,,*1E
$GPGSA,A,3,01,03,06,11,17,19,22,28,30,,,,0.0,0.0,0.0*31
$BDGSA,A,3,01,02,03,04,08,10,,,,,,,0.0,0.0,0.0*2E
$GLGSA,A,3,,,,,,,,,,,,,0.0,0.0,0.0*2E
$GPGSV,3,1,10,01,23,040,41,03,35,080,42,06,39,232,44,11,14,055,36*7F
$GPGSV,3,2,10,17,52,332,45,19,39,302,43,22,24,058,42,28,80,067,43*76
$GPGSV,3,3,10,30,22,192,40,07,00,170,00*74
$BDGSV,3,1,11,01,40,125,41,02,47,219,41,03,55,171,42,04,23,109,39*67
$BDGSV,3,2,11,08,74,340,43,10,82,197,43,07,56,148,00,13,63,256,00*6E
$BDGSV,3,3,11,27,34,048,00,30,57,328,00,32,25,125,00*5E
$B3CN0,0,0,0,0,0,0,0,0,0,0,0,0,0,0*4C
$ini_pos,lastpos_good = 1,ini_pos.x:-1578908.039250,ini_pos.y:5312766.185300,ini_pos.z:3146355.612065
$rtc_local_time,localRTC.weeks:2053,localRTC.seconds:375474.026014,localGtime.weeks:2053,localGtime.seconds:375474.026014
$pseudo_cd_ph,prn:1,pseudo_cd_ph:3.833362888847
measnum = 0,full_prange = 23132892.842771
$oldmeas,msRange:0.000000,x:-14862170.078320,y:1561676.609386,z:21793202.463181,vx:-726.998291,vy:-2708.518066,vz:-267.800446,tb:-0.000017513593
$newmeas,x:-14862113.981389,y:1561885.607064,z:21793223.126071,vx:-726.986450,vy:-2708.524170,vz:-267.764099,tb:-0.000017513592
$pseudo_cd_ph,prn:3,pseudo_cd_ph:7.118430934693
measnum = 1,full_prange = 22209624.933386
$oldmeas,msRange:74.306749,x:-21439847.955725,y:9582189.586263,z:12287646.293898,vx:932.573669,vy:-1283.988159,vz:2628.613770,tb:0.000187864194
$newmeas,x:-21439917.043459,y:9582284.707595,z:12287451.556695,vx:932.562012,vy:-1283.966675,vz:2628.633301,tb:0.000187864194
$pseudo_cd_ph,prn:6,pseudo_cd_ph:7.953015496188
measnum = 2,full_prange = 21964329.486340
$oldmeas,msRange:73.489240,x:6451684.597992,y:25723563.905358,z:1073680.129091,vx:-264.967987,vy:-61.658833,vz:3206.012451,tb:0.000204231250
$newmeas,x:6451704.010602,y:25723568.421798,z:1073445.240161,vx:-264.959778,vy:-61.631504,vz:3206.013916,tb:0.000204231250
$pseudo_cd_ph,prn:11,pseudo_cd_ph:1.204891984181
measnum = 3,full_prange = 23744564.693046
$oldmeas,msRange:79.425821,x:-19302457.021246,y:-1404071.392616,z:17559450.971899,vx:-1352.363892,vy:-1955.590088,vz:-1620.411011,tb:-0.000605666817
$newmeas,x:-19302349.909366,y:-1403916.502653,z:17559579.312640,vx:-1352.367310,vy:-1955.607544,vz:-1620.380005,tb:-0.000605666817
$pseudo_cd_ph,prn:17,pseudo_cd_ph:9.289522389163
measnum = 4,full_prange = 21519083.870214
$oldmeas,msRange:72.003507,x:1817209.467798,y:15733970.384950,z:21742715.617168,vx:-2544.757080,vy:-764.786560,vz:772.343872,tb:0.000055558642
$newmeas,x:1817392.129942,y:15734025.281622,z:21742660.177227,vx:-2544.747070,vy:-764.796082,vz:772.375793,tb:0.000055558641
$pseudo_cd_ph,prn:19,pseudo_cd_ph:8.016279367874
measnum = 5,full_prange = 21788689.674409
$oldmeas,msRange:72.903090,x:10021872.536668,y:16460861.483192,z:17938815.214406,vx:-2239.806152,vy:-681.019348,vz:1853.022949,tb:-0.000318376266
$newmeas,x:10022035.323396,y:16460910.979310,z:17938680.537062,vx:-2239.786865,vy:-681.023315,vz:1853.051392,tb:-0.000318376266
$pseudo_cd_ph,prn:22,pseudo_cd_ph:2.402063602809
measnum = 6,full_prange = 23356880.757248
$oldmeas,msRange:78.133101,x:-19835376.291927,y:2904920.907208,z:17623067.462933,vx:1263.517822,vy:-1821.522217,vz:1753.447754,tb:-0.000701669601
$newmeas,x:-19835474.732682,y:2905062.821613,z:17622930.850406,vx:1263.514404,vy:-1821.504272,vz:1753.476440,tb:-0.000701669601
$pseudo_cd_ph,prn:28,pseudo_cd_ph:13.233233588882
measnum = 7,full_prange = 20550338.098768
$oldmeas,msRange:68.772043,x:-9483952.532370,y:20670121.529330,z:14404098.873291,vx:-1400.728638,vy:1004.961060,vz:-2460.072510,tb:0.000767881736
$newmeas,x:-9483856.513775,y:20670052.640452,z:14404267.507007,vx:-1400.748535,vy:1004.968506,vz:-2460.052490,tb:0.000767881736
$pseudo_cd_ph,prn:30,pseudo_cd_ph:3.406804350464
measnum = 8,full_prange = 23234379.154223
$oldmeas,msRange:77.723960,x:-2261697.977523,y:24173541.372808,z:-10519072.360087,vx:-610.899841,vy:-1243.419067,vz:-2739.264160,tb:-0.000105550250
$newmeas,x:-2261650.632277,y:24173637.738797,z:-10518860.062207,vx:-610.888611,vy:-1243.395630,vz:-2739.281494,tb:-0.000105550250
source<tow,snapshot
nits = 2
Refix G01: 2, 375474.504382, 3357
Refix G03: 2, 375474.507667, 6
Refix G06: 2, 375474.508502, -2392
Refix G07: 2, 375474.497056, 3421
Refix G11: 2, 375474.501754, 3034
Refix G17: 2, 375474.509839, -547
Refix G19: 2, 375474.508565, -1482
Refix G22: 2, 375474.502951, 1503
Refix G28: 2, 375474.513782, -302
Refix G30: 2, 375474.503956, 3247
$GNGGA,081736.582,2944.9062,N,10633.0908,E,1,18,0.0,325.0,M,,,,0000*18
$GNRMC,081736.582,A,2944.9062,N,10633.0908,E,0.00,0.00,160519,,*13
$GPGSA,A,3,01,03,06,11,17,19,22,28,30,,,,0.0,0.0,0.0*31
$BDGSA,A,3,01,02,03,04,08,10,27,30,32,,,,0.0,0.0,0.0*29
$GLGSA,A,3,,,,,,,,,,,,,0.0,0.0,0.0*2E
$GPGSV,3,1,10,01,23,040,41,03,35,080,42,06,39,232,44,11,14,055,35*7C
$GPGSV,3,2,10,17,52,332,44,19,39,302,43,22,24,058,42,28,80,067,43*77
$GPGSV,3,3,10,30,22,192,40,07,00,170,00*74
$BDGSV,3,1,11,01,40,125,41,02,47,219,41,03,55,171,43,04,23,109,41*69
$BDGSV,3,2,11,08,74,340,43,10,82,197,42,27,34,048,29,30,57,328,21*6E
$BDGSV,3,3,11,07,56,148,00,13,63,256,00,32,25,125,00*57
$B3CN0,0,0,0,0,0,0,0,0,0,0,0,0,0,0*4C
tow update,375475713.234113
$ini_pos,lastpos_good = 1,ini_pos.x:-1578912.092505,ini_pos.y:5312772.547233,ini_pos.z:3146354.616606
$rtc_local_time,localRTC.weeks:2053,localRTC.seconds:375475.026014,localGtime.weeks:2053,localGtime.seconds:375475.713234
$pseudo_cd_ph,prn:1,pseudo_cd_ph:375475503.831916093826
measnum = 0,full_prange = 23199344.499480
$oldmeas,msRange:0.000000,x:-14863396.902351,y:1557106.857923,z:21792749.954804,vx:-727.256470,vy:-2708.381836,vz:-268.594727,tb:-0.000017513611
$newmeas,x:-14863340.624296,y:1557316.445439,z:21792770.738513,vx:-727.244629,vy:-2708.388184,vz:-268.558289,tb:-0.000017513610
$pseudo_cd_ph,prn:3,pseudo_cd_ph:375475507.119114160538
measnum = 1,full_prange = 22275438.027444
$oldmeas,msRange:74.306741,x:-21438274.274108,y:9580022.802350,z:12292080.969807,vx:932.839722,vy:-1284.477783,vz:2628.169922,tb:0.000187864192
$newmeas,x:-21438343.586336,y:9580118.241930,z:12291885.688534,vx:932.828003,vy:-1284.456299,vz:2628.189453,tb:0.000187864192
$pseudo_cd_ph,prn:6,pseudo_cd_ph:375475507.955222308636
measnum = 2,full_prange = 22029685.825782
$oldmeas,msRange:73.486663,x:6451237.378859,y:25723459.342460,z:1079089.345269,vx:-265.157410,vy:-62.288109,vz:3205.973633,tb:0.000204231232
$newmeas,x:6451256.863150,y:25723463.918577,z:1078853.760256,vx:-265.149170,vy:-62.260704,vz:3205.975342,tb:0.000204231233
$pseudo_cd_ph,prn:11,pseudo_cd_ph:375475501.203653275967
measnum = 3,full_prange = 23810953.975658
$oldmeas,msRange:79.429068,x:-19304738.695436,y:-1407370.588949,z:17556716.423342,vx:-1352.290894,vy:-1955.216919,vz:-1621.072754,tb:-0.000605666813
$newmeas,x:-19304631.289873,y:-1407215.295550,z:17556845.175477,vx:-1352.294312,vy:-1955.234497,vz:-1621.041626,tb:-0.000605666813
$pseudo_cd_ph,prn:17,pseudo_cd_ph:375475509.290555417538
measnum = 4,full_prange = 21584792.114789
$oldmeas,msRange:72.002916,x:1812915.704356,y:15732680.210501,z:21744018.097593,vx:-2544.991699,vy:-764.562683,vz:771.592651,tb:0.000055558660
$newmeas,x:1813098.941144,y:15732735.258681,z:21743962.542452,vx:-2544.981689,vy:-764.572205,vz:771.624695,tb:0.000055558659
$pseudo_cd_ph,prn:19,pseudo_cd_ph:375475508.017903745174
measnum = 5,full_prange = 21854220.618064
$oldmeas,msRange:72.901501,x:10018093.113354,y:16459712.531519,z:17941941.114444,vx:-2240.253174,vy:-680.926941,vz:1852.361816,tb:-0.000318376264
$newmeas,x:10018256.422245,y:16459762.169763,z:17941806.080241,vx:-2240.233643,vy:-680.930908,vz:1852.390381,tb:-0.000318376264
$pseudo_cd_ph,prn:22,pseudo_cd_ph:375475502.401796460152
measnum = 6,full_prange = 23422978.771192
$oldmeas,msRange:78.134705,x:-19833244.395599,y:2901847.271162,z:17626025.389514,vx:1263.593018,vy:-1821.909790,vz:1752.824341,tb:-0.000701669609
$newmeas,x:-19833343.120804,y:2901989.617449,z:17625888.439084,vx:1263.589600,vy:-1821.891846,vz:1752.853271,tb:-0.000701669609
$pseudo_cd_ph,prn:28,pseudo_cd_ph:375475513.234113276005
measnum = 7,full_prange = 20616092.299490
$oldmeas,msRange:68.771699,x:-9486315.457339,y:20671816.966024,z:14399947.770138,vx:-1400.239502,vy:1004.778564,vz:-2460.569092,tb:0.000767881744
$newmeas,x:-9486219.165152,y:20671747.869275,z:14400116.977572,vx:-1400.259399,vy:1004.786011,vz:-2460.548828,tb:0.000767881744
$pseudo_cd_ph,prn:30,pseudo_cd_ph:375475503.405429720879
measnum = 8,full_prange = 23300809.172691
$oldmeas,msRange:77.727418,x:-2262728.906028,y:24171443.020558,z:-10523693.779471,vx:-611.143982,vy:-1243.929321,vz:-2738.882080,tb:-0.000105550264
$newmeas,x:-2262681.406438,y:24171539.701732,z:-10523480.904296,vx:-611.132751,vy:-1243.905884,vz:-2738.899658,tb:-0.000105550264
Refix G01: 2, 375475.503832, 2226
Refix G03: 2, 375475.507119, -1123
Refix G06: 2, 375475.507955, -3522
Refix G07: 2, 375475.496505, 2289
Refix G11: 2, 375475.501204, 1902
Refix G17: 2, 375475.509291, -1677
Refix G19: 2, 375475.508018, -2612
Refix G22: 2, 375475.502402, 373
Refix G28: 2, 375475.513234, -1431
Refix G30: 2, 375475.503405, 2116
$GNGGA,081737.581,2944.9082,N,10633.0906,E,1,13,1.0,325.0,M,,,,0000*10
$GNRMC,081737.581,A,2944.9082,N,10633.0906,E,0.11,0.00,160519,,*11
$GPGSA,A,3,01,03,06,11,17,19,22,28,30,,,,1.9,1.0,1.6*3F
$BDGSA,A,3,01,02,03,04,,,,,,,,,1.9,1.0,1.6*29
$GLGSA,A,3,,,,,,,,,,,,,1.9,1.0,1.6*20
$GPGSV,3,1,10,01,23,040,41,03,35,080,42,06,39,232,44,11,14,055,35*7C
$GPGSV,3,2,10,17,52,332,45,19,39,302,44,22,24,058,42,28,80,067,43*71
$GPGSV,3,3,10,30,22,192,40,07,00,170,00*74
$BDGSV,3,1,11,01,40,125,41,02,47,219,40,03,55,171,42,04,23,109,40*68
$BDGSV,3,2,11,08,74,340,43,10,82,197,43,27,34,048,44,30,57,328,45*66
$BDGSV,3,3,11,32,25,125,42,07,56,148,00,13,63,256,00*51
$B3CN0,0,0,0,0,0,0,0,0,0,0,0,0,0,0*4C
$ini_pos,lastpos_good = 1,ini_pos.x:-1578911.192533,ini_pos.y:5312770.890550,ini_pos.z:3146357.815166
$rtc_local_time,localRTC.weeks:2053,localRTC.seconds:375476.444776,localGtime.weeks:2053,localGtime.seconds:375477.000000
$pseudo_cd_ph,prn:1,pseudo_cd_ph:375476922.591845214367
measnum = 0,full_prange = 23201103.629191
$oldmeas,msRange:0.000000,x:-14864332.837805,y:1553621.871614,z:21792403.946568,vx:-727.453369,vy:-2708.278076,vz:-269.200470,tb:-0.000017513624
$newmeas,x:-14864276.540245,y:1553831.466980,z:21792424.778732,vx:-727.441528,vy:-2708.284180,vz:-269.164032,tb:-0.000017513624
$pseudo_cd_ph,prn:3,pseudo_cd_ph:375476925.882063746452
measnum = 1,full_prange = 22276291.648042
$oldmeas,msRange:74.306746,x:-21437073.797373,y:9578369.739939,z:12295462.590967,vx:933.042542,vy:-1284.851318,vz:2627.831055,tb:0.000187864191
$newmeas,x:-21437143.127325,y:9578465.210925,z:12295267.327381,vx:933.030823,vy:-1284.829712,vz:2627.850586,tb:0.000187864191
$pseudo_cd_ph,prn:6,pseudo_cd_ph:375476926.720332264900
measnum = 2,full_prange = 22029891.780196
$oldmeas,msRange:73.484714,x:6450896.090367,y:25723378.883496,z:1083214.663390,vx:-265.301971,vy:-62.767998,vz:3205.943848,tb:0.000204231219
$newmeas,x:6450915.585463,y:25723383.494921,z:1082979.078354,vx:-265.293732,vy:-62.740593,vz:3205.945557,tb:0.000204231220
$pseudo_cd_ph,prn:11,pseudo_cd_ph:375476919.963882923126
measnum = 3,full_prange = 23812623.014837
$oldmeas,msRange:79.431541,x:-19306478.741230,y:-1409886.312134,z:17554630.157636,vx:-1352.235107,vy:-1954.932373,vz:-1621.577393,tb:-0.000605666810
$newmeas,x:-19306371.332571,y:-1409731.030456,z:17554758.958878,vx:-1352.238525,vy:-1954.949951,vz:-1621.546265,tb:-0.000605666810
$pseudo_cd_ph,prn:17,pseudo_cd_ph:375476928.054002940655
measnum = 4,full_prange = 21585496.462103
$oldmeas,msRange:72.002462,x:1809640.781146,y:15731696.507318,z:21745010.587964,vx:-2545.170410,vy:-764.391846,vz:771.019653,tb:0.000055558673
$newmeas,x:1809824.036786,y:15731751.544995,z:21744955.072264,vx:-2545.160400,vy:-764.401428,vz:771.051758,tb:0.000055558672
$pseudo_cd_ph,prn:19,pseudo_cd_ph:375476926.782191574574
measnum = 5,full_prange = 21854673.044479
$oldmeas,msRange:72.900285,x:10015210.213127,y:16458836.383426,z:17944324.345826,vx:-2240.593750,vy:-680.856384,vz:1851.857544,tb:-0.000318376262
$newmeas,x:10015373.550236,y:16458886.017553,z:17944189.345588,vx:-2240.574463,vy:-680.860352,vz:1851.886108,tb:-0.000318376262
$pseudo_cd_ph,prn:22,pseudo_cd_ph:375476921.163398385048
measnum = 6,full_prange = 23424236.409114
$oldmeas,msRange:78.135930,x:-19831618.410489,y:2899502.709861,z:17628280.558062,vx:1263.650269,vy:-1822.205322,vz:1752.348877,tb:-0.000701669615
$newmeas,x:-19831717.145466,y:2899645.086882,z:17628143.637429,vx:1263.646729,vy:-1822.187378,vz:1752.377808,tb:-0.000701669615
$pseudo_cd_ph,prn:28,pseudo_cd_ph:375476931.997340321541
measnum = 7,full_prange = 20616862.742046
$oldmeas,msRange:68.771452,x:-9488116.997558,y:20673109.791087,z:14396781.350276,vx:-1399.866333,vy:1004.639221,vz:-2460.947754,tb:0.000767881750
$newmeas,x:-9488020.727428,y:20673040.701336,z:14396950.590072,vx:-1399.886353,vy:1004.646667,vz:-2460.927490,tb:0.000767881750
$pseudo_cd_ph,prn:30,pseudo_cd_ph:375476922.165464758873
measnum = 8,full_prange = 23302536.550023
$oldmeas,msRange:77.730082,x:-2263515.425090,y:24169842.124440,z:-10527217.891624,vx:-611.330322,vy:-1244.318481,vz:-2738.590576,tb:-0.000105550275
$newmeas,x:-2263467.907498,y:24169938.843028,z:-10527005.023325,vx:-611.319031,vy:-1244.295044,vz:-2738.608154,tb:-0.000105550275
Refix G01: 2, 375476.922592, 2221
Refix G03: 2, 375476.925882, -1127
Refix G06: 2, 375476.926720, -3527
Refix G07: 2, 375476.915265, 2285
Refix G11: 2, 375476.919964, 1898
Refix G17: 2, 375476.928054, -1683
Refix G19: 2, 375476.926782, -2618
Refix G22: 2, 375476.921163, 369
Refix G28: 2, 375476.931997, -1437
Refix G30: 2, 375476.922165, 2111
$GNGGA,081739.000,2944.9078,N,10633.0911,E,1,13,0.8,323.5,M,,,,0000*1B
$GNRMC,081739.000,A,2944.9078,N,10633.0911,E,0.36,0.00,160519,,*15
$GPGSA,A,3,01,03,06,11,17,19,22,28,30,,,,1.1,0.8,0.8*31
$BDGSA,A,3,01,02,03,04,,,,,,,,,1.1,0.8,0.8*27
$GLGSA,A,3,,,,,,,,,,,,,1.1,0.8,0.8*2E
$GPGSV,3,1,10,01,23,040,40,03,35,080,42,06,39,232,44,11,14,055,35*7D
$GPGSV,3,2,10,17,52,332,44,19,39,302,43,22,24,058,42,28,80,067,43*77
$GPGSV,3,3,10,30,22,192,40,07,00,170,00*74
$BDGSV,3,1,11,01,40,125,41,02,47,219,41,03,55,171,42,04,23,109,40*69
$BDGSV,3,2,11,08,74,340,43,10,82,197,43,27,34,048,44,30,57,328,44*67
$BDGSV,3,3,11,32,25,125,42,07,56,148,00,13,63,256,00*51
$B3CN0,0,0,0,0,0,0,0,0,0,0,0,0,0,0*4C
$ini_pos,lastpos_good = 1,ini_pos.x:-1578911.762794,ini_pos.y:5312769.754307,ini_pos.z:3146356.478798
$rtc_local_time,localRTC.weeks:2053,localRTC.seconds:375477.444776,localGtime.weeks:2053,localGtime.seconds:375478.000000
$pseudo_cd_ph,prn:1,pseudo_cd_ph:375477922.590400993824
measnum = 0,full_prange = 23201526.925272
$oldmeas,msRange:0.000000,x:-14865060.367647,y:1550913.634157,z:21792134.510724,vx:-727.606323,vy:-2708.197021,vz:-269.671234,tb:-0.000017513635
$newmeas,x:-14865004.057221,y:1551123.227092,z:21792155.379700,vx:-727.594543,vy:-2708.203369,vz:-269.634796,tb:-0.000017513634
$pseudo_cd_ph,prn:3,pseudo_cd_ph:375477925.882750034332
measnum = 1,full_prange = 22276076.236583
$oldmeas,msRange:74.306752,x:-21436140.676111,y:9577084.743605,z:12298090.290358,vx:933.200073,vy:-1285.141479,vz:2627.567871,tb:0.000187864189
$newmeas,x:-21436210.017099,y:9577180.235232,z:12297895.048225,vx:933.188354,vy:-1285.119873,vz:2627.587402,tb:0.000187864189
$pseudo_cd_ph,prn:6,pseudo_cd_ph:375477926.722539424896
measnum = 2,full_prange = 22029220.420069
$oldmeas,msRange:73.483200,x:6450630.732204,y:25723315.929039,z:1086420.595679,vx:-265.414368,vy:-63.140919,vz:3205.920898,tb:0.000204231209
$newmeas,x:6450650.234965,y:25723320.567726,z:1086185.019522,vx:-265.406128,vy:-63.113518,vz:3205.922607,tb:0.000204231210
$pseudo_cd_ph,prn:11,pseudo_cd_ph:375477919.962652981281
measnum = 3,full_prange = 23812982.075729
$oldmeas,msRange:79.433467,x:-19307830.954578,y:-1411841.133802,z:17553008.384208,vx:-1352.191650,vy:-1954.711060,vz:-1621.969482,tb:-0.000605666807
$newmeas,x:-19307723.547749,y:-1411685.867354,z:17553137.218539,vx:-1352.195068,vy:-1954.728638,vz:-1621.938354,tb:-0.000605666808
$pseudo_cd_ph,prn:17,pseudo_cd_ph:375477928.055039942265
measnum = 4,full_prange = 21585175.912836
$oldmeas,msRange:72.002120,x:1807095.541379,y:15730932.181884,z:21745781.384963,vx:-2545.309326,vy:-764.259094,vz:770.574402,tb:0.000055558684
$newmeas,x:1807278.804298,y:15730987.209185,z:21745725.902148,vx:-2545.299316,vy:-764.268616,vz:770.606445,tb:0.000055558683
$pseudo_cd_ph,prn:19,pseudo_cd_ph:375477926.783819437027
measnum = 5,full_prange = 21854175.356935
$oldmeas,msRange:72.899350,x:10012969.487075,y:16458155.554535,z:17946176.007319,vx:-2240.858398,vy:-680.801453,vz:1851.465576,tb:-0.000318376260
$newmeas,x:10013132.839761,y:16458205.183530,z:17946041.038728,vx:-2240.839111,vy:-680.805481,vz:1851.494141,tb:-0.000318376260
$pseudo_cd_ph,prn:22,pseudo_cd_ph:375477921.163132548332
measnum = 6,full_prange = 23424306.436430
$oldmeas,msRange:78.136886,x:-19830354.738089,y:2897680.389820,z:17630032.722140,vx:1263.694580,vy:-1822.434937,vz:1751.979370,tb:-0.000701669620
$newmeas,x:-19830453.476829,y:2897822.785209,z:17629895.829972,vx:1263.691162,vy:-1822.416992,vz:1752.008179,tb:-0.000701669619
$pseudo_cd_ph,prn:28,pseudo_cd_ph:375477931.998220443726
measnum = 7,full_prange = 20616589.222281
$oldmeas,msRange:68.771266,x:-9489516.718940,y:20674114.376137,z:14394320.255464,vx:-1399.576416,vy:1004.530884,vz:-2461.241943,tb:0.000767881754
$newmeas,x:-9489420.470026,y:20674045.294753,z:14394489.513246,vx:-1399.596436,vy:1004.538391,vz:-2461.221680,tb:0.000767881754
$pseudo_cd_ph,prn:30,pseudo_cd_ph:375477922.164096117020
measnum = 8,full_prange = 23302937.188862
$oldmeas,msRange:77.732143,x:-2264126.827786,y:24168597.654810,z:-10529956.368764,vx:-611.475098,vy:-1244.620850,vz:-2738.364014,tb:-0.000105550284
$newmeas,x:-2264079.298120,y:24168694.398563,z:-10529743.514417,vx:-611.463867,vy:-1244.597290,vz:-2738.381592,tb:-0.000105550283
Refix G01: 2, 375477.922590, 2224
Refix G03: 2, 375477.925883, -1124
Refix G06: 2, 375477.926723, -3524
Refix G07: 2, 375477.915263, 2286
Refix G11: 2, 375477.919963, 1900
Refix G17: 2, 375477.928055, -1680
Refix G19: 2, 375477.926784, -2615
Refix G22: 2, 375477.921163, 371
Refix G28: 2, 375477.931998, -1433
Refix G30: 2, 375477.922164, 2113
$GNGGA,081740.000,2944.9070,N,10633.0911,E,1,18,0.7,323.7,M,,,,0000*1B
$GNRMC,081740.000,A,2944.9070,N,10633.0911,E,0.13,0.00,160519,,*14
$GPGSA,A,3,01,03,06,11,17,19,22,28,30,,,,0.8,0.7,0.4*3A
$BDGSA,A,3,01,02,03,04,08,10,27,30,32,,,,0.8,0.7,0.4*22
$GLGSA,A,3,,,,,,,,,,,,,0.8,0.7,0.4*25
$GPGSV,3,1,10,01,23,040,41,03,35,080,42,06,39,232,44,11,14,055,35*7C
$GPGSV,3,2,10,17,52,332,45,19,39,302,44,22,24,058,42,28,80,067,43*71
$GPGSV,3,3,10,30,22,192,40,07,00,170,00*74
$BDGSV,3,1,11,01,40,125,41,02,47,219,40,03,55,171,43,04,23,109,41*68
$BDGSV,3,2,11,08,74,340,43,10,82,197,42,27,34,048,44,30,57,328,44*66
$BDGSV,3,3,11,32,25,125,42,07,56,148,00,13,63,256,00*51
$B3CN0,0,0,0,0,0,0,0,0,0,0,0,0,0,0*4C
$ini_pos,lastpos_good = 1,ini_pos.x:-1578911.976977,ini_pos.y:5312770.700923,ini_pos.z:3146355.244502
$rtc_local_time,localRTC.weeks:2053,localRTC.seconds:375478.444776,localGtime.weeks:2053,localGtime.seconds:375479.000000
$pseudo_cd_ph,prn:1,pseudo_cd_ph:375478922.588957309723
measnum = 0,full_prange = 23201950.060531
$oldmeas,msRange:0.000000,x:-14865788.050459,y:1548205.477566,z:21791864.604134,vx:-727.759338,vy:-2708.116211,vz:-270.141968,tb:-0.000017513646
$newmeas,x:-14865731.727167,y:1548415.068063,z:21791885.509923,vx:-727.747498,vy:-2708.122559,vz:-270.105530,tb:-0.000017513645
$pseudo_cd_ph,prn:3,pseudo_cd_ph:375478925.883434772491
measnum = 1,full_prange = 22275861.289719
$oldmeas,msRange:74.306758,x:-21435207.397344,y:9575799.457061,z:12300717.726410,vx:933.357544,vy:-1285.431641,vz:2627.304443,tb:0.000187864188
$newmeas,x:-21435276.749364,y:9575894.969330,z:12300522.505731,vx:933.345825,vy:-1285.410156,vz:2627.323975,tb:0.000187864188
$pseudo_cd_ph,prn:6,pseudo_cd_ph:375478926.724743127823
measnum = 2,full_prange = 22028550.096345
$oldmeas,msRange:73.481679,x:6450365.261616,y:25723252.601671,z:1089626.504803,vx:-265.526825,vy:-63.513821,vz:3205.897705,tb:0.000204231199
$newmeas,x:6450384.772046,y:25723257.267617,z:1089390.937518,vx:-265.518555,vy:-63.486420,vz:3205.899414,tb:0.000204231200
$pseudo_cd_ph,prn:11,pseudo_cd_ph:375478919.961421012878
measnum = 3,full_prange = 23813341.744167
$oldmeas,msRange:79.435396,x:-19309183.124467,y:-1413795.734242,z:17551386.218683,vx:-1352.148193,vy:-1954.489868,vz:-1622.361572,tb:-0.000605666805
$newmeas,x:-19309075.719470,y:-1413640.483023,z:17551515.086103,vx:-1352.151611,vy:-1954.507446,vz:-1622.330444,tb:-0.000605666805
$pseudo_cd_ph,prn:17,pseudo_cd_ph:375478928.056075632572
measnum = 4,full_prange = 21584855.756688
$oldmeas,msRange:72.001775,x:1804550.162767,y:15730167.989247,z:21746551.736667,vx:-2545.447998,vy:-764.126282,vz:770.129089,tb:0.000055558694
$newmeas,x:1804733.432962,y:15730223.006168,z:21746496.286736,vx:-2545.437988,vy:-764.135803,vz:770.161133,tb:0.000055558693
$pseudo_cd_ph,prn:19,pseudo_cd_ph:375478926.785447597504
measnum = 5,full_prange = 21853677.580046
$oldmeas,msRange:72.898411,x:10010728.496326,y:16457474.780573,z:17948027.276841,vx:-2241.123047,vy:-680.746521,vz:1851.073608,tb:-0.000318376258
$newmeas,x:10010891.864585,y:16457524.404432,z:17947892.339899,vx:-2241.103760,vy:-680.750488,vz:1851.102173,tb:-0.000318376258
$pseudo_cd_ph,prn:22,pseudo_cd_ph:375478921.162865698338
measnum = 6,full_prange = 23424376.767519
$oldmeas,msRange:78.137844,x:-19829091.021319,y:2895857.840155,z:17631784.516655,vx:1263.739014,vy:-1822.664551,vz:1751.609741,tb:-0.000701669624
$newmeas,x:-19829189.763821,y:2896000.253913,z:17631647.652953,vx:1263.735474,vy:-1822.646606,vz:1751.638672,tb:-0.000701669624
$pseudo_cd_ph,prn:28,pseudo_cd_ph:375478931.999099254608
measnum = 7,full_prange = 20616316.095634
$oldmeas,msRange:68.771074,x:-9490916.150387,y:20675118.852823,z:14391858.866491,vx:-1399.286499,vy:1004.422485,vz:-2461.536133,tb:0.000767881759
$newmeas,x:-9490819.922687,y:20675049.779808,z:14392028.142258,vx:-1399.306519,vy:1004.429993,vz:-2461.515869,tb:0.000767881759
$pseudo_cd_ph,prn:30,pseudo_cd_ph:375478922.162722170353
measnum = 8,full_prange = 23303339.418044
$oldmeas,msRange:77.734200,x:-2264738.375320,y:24167352.882839,z:-10532694.619285,vx:-611.619995,vy:-1244.923218,vz:-2738.137207,tb:-0.000105550292
$newmeas,x:-2264690.833574,y:24167449.651762,z:-10532481.778882,vx:-611.608704,vy:-1244.899658,vz:-2738.154785,tb:-0.000105550291
Refix G01: 2, 375478.922589, 2227
Refix G03: 2, 375478.925883, -1121
Refix G06: 2, 375478.926725, -3521
Refix G07: 2, 375478.915262, 2288
Refix G11: 2, 375478.919961, 1902
Refix G17: 2, 375478.928056, -1677
Refix G19: 2, 375478.926785, -2612
Refix G22: 2, 375478.921163, 375
Refix G28: 2, 375478.931999, -1430
Refix G30: 2, 375478.922163, 2116
$GNGGA,081741.000,2944.9071,N,10633.0912,E,1,18,0.7,324.1,M,,,,0000*19
$GNRMC,081741.000,A,2944.9071,N,10633.0912,E,0.11,0.00,160519,,*15
$GPGSA,A,3,01,03,06,11,17,19,22,28,30,,,,0.8,0.7,0.4*3A
$BDGSA,A,3,01,02,03,04,08,10,27,30,32,,,,0.8,0.7,0.4*22
$GLGSA,A,3,,,,,,,,,,,,,0.8,0.7,0.4*25
$GPGSV,3,1,10,01,23,040,41,03,35,080,42,06,39,232,44,11,14,055,34*7D
$GPGSV,3,2,10,17,52,332,45,19,39,302,44,22,24,058,41,28,80,067,43*72
$GPGSV,3,3,10,30,22,192,40,07,00,170,00*74
$BDGSV,3,1,11,01,40,125,41,02,47,219,41,03,55,171,42,04,23,109,41*68
$BDGSV,3,2,11,08,74,340,43,10,82,197,43,07,56,148,36,27,34,048,43*64
$BDGSV,3,3,11,30,57,328,44,32,25,125,42,13,63,256,00*50
$B3CN0,0,0,0,0,0,0,0,0,0,0,0,0,0,0*4C
$ini_pos,lastpos_good = 1,ini_pos.x:-1578912.180783,ini_pos.y:5312770.902573,ini_pos.z:3146355.507692
$rtc_local_time,localRTC.weeks:2053,localRTC.seconds:375479.444776,localGtime.weeks:2053,localGtime.seconds:375480.000000
$pseudo_cd_ph,prn:1,pseudo_cd_ph:375479922.587510824203
measnum = 0,full_prange = 23202374.035635
$oldmeas,msRange:0.000000,x:-14866515.886216,y:1545497.401907,z:21791594.226805,vx:-727.912231,vy:-2708.035156,vz:-270.612701,tb:-0.000017513656
$newmeas,x:-14866459.550059,y:1545706.989967,z:21791615.169408,vx:-727.900391,vy:-2708.041504,vz:-270.576263,tb:-0.000017513656
$pseudo_cd_ph,prn:3,pseudo_cd_ph:375479925.884117186069
measnum = 1,full_prange = 22275647.039746
$oldmeas,msRange:74.306763,x:-21434273.961128,y:9574513.880304,z:12303344.899068,vx:933.514954,vy:-1285.721924,vz:2627.041016,tb:0.000187864187
$newmeas,x:-21434343.324178,y:9574609.413218,z:12303149.699839,vx:933.503235,vy:-1285.700317,vz:2627.060547,tb:0.000187864187
$pseudo_cd_ph,prn:6,pseudo_cd_ph:375479926.726944386959
measnum = 2,full_prange = 22027880.505251
$oldmeas,msRange:73.480162,x:6450099.678553,y:25723188.901408,z:1092832.390694,vx:-265.639313,vy:-63.886707,vz:3205.874268,tb:0.000204231189
$newmeas,x:6450119.196656,y:25723193.594611,z:1092596.832279,vx:-265.631073,vy:-63.859310,vz:3205.875977,tb:0.000204231189
$pseudo_cd_ph,prn:11,pseudo_cd_ph:375479919.960179686546
measnum = 3,full_prange = 23813704.218043
$oldmeas,msRange:79.437321,x:-19310535.250843,y:-1415750.113427,z:17549763.661097,vx:-1352.104614,vy:-1954.268555,vz:-1622.753662,tb:-0.000605666802
$newmeas,x:-19310427.847670,y:-1415594.877420,z:17549892.561621,vx:-1352.108154,vy:-1954.286133,vz:-1622.722534,tb:-0.000605666803
$pseudo_cd_ph,prn:17,pseudo_cd_ph:375479928.057108223438
measnum = 4,full_prange = 21584536.529729
$oldmeas,msRange:72.001426,x:1802004.645368,y:15729403.929436,z:21747321.643058,vx:-2545.586914,vy:-763.993408,vz:769.683777,tb:0.000055558704
$newmeas,x:1802187.922843,y:15729458.935980,z:21747266.226010,vx:-2545.576904,vy:-764.002991,vz:769.715820,tb:0.000055558704
$pseudo_cd_ph,prn:19,pseudo_cd_ph:375479926.787072777748
measnum = 5,full_prange = 21853180.696608
$oldmeas,msRange:72.897470,x:10008487.240926,y:16456794.061589,z:17949878.154351,vx:-2241.387695,vy:-680.691528,vz:1850.681519,tb:-0.000318376257
$newmeas,x:10008650.624761,y:16456843.680310,z:17949743.249054,vx:-2241.368408,vy:-680.695496,vz:1850.710083,tb:-0.000318376257
$pseudo_cd_ph,prn:22,pseudo_cd_ph:375479921.162599980831
measnum = 6,full_prange = 23424446.759096
$oldmeas,msRange:78.138800,x:-19827827.260234,y:2894035.060889,z:17633535.941571,vx:1263.783325,vy:-1822.894165,vz:1751.240112,tb:-0.000701669629
$newmeas,x:-19827926.006491,y:2894177.493011,z:17633399.106340,vx:1263.779785,vy:-1822.876221,vz:1751.269043,tb:-0.000701669629
$pseudo_cd_ph,prn:28,pseudo_cd_ph:375479931.999975264072
measnum = 7,full_prange = 20616043.808830
$oldmeas,msRange:68.770882,x:-9492315.291893,y:20676123.221083,z:14389397.183405,vx:-1398.996582,vy:1004.314087,vz:-2461.830322,tb:0.000767881764
$newmeas,x:-9492219.085402,y:20676054.156438,z:14389566.477160,vx:-1399.016479,vy:1004.321533,vz:-2461.810059,tb:0.000767881763
$pseudo_cd_ph,prn:30,pseudo_cd_ph:375479922.161342918873
measnum = 8,full_prange = 23303743.237569
$oldmeas,msRange:77.736261,x:-2265350.067726,y:24166107.808570,z:-10535432.643130,vx:-611.764893,vy:-1245.225464,vz:-2737.910645,tb:-0.000105550300
$newmeas,x:-2265302.513894,y:24166204.602667,z:-10535219.816661,vx:-611.753601,vy:-1245.201904,vz:-2737.928223,tb:-0.000105550300
Refix G01: 2, 375479.922588, 2229
Refix G03: 2, 375479.925884, -1118
Refix G06: 2, 375479.926727, -3519
Refix G07: 2, 375479.915260, 2290
Refix G11: 2, 375479.919960, 1904
Refix G17: 2, 375479.928057, -1675
Refix G19: 2, 375479.926787, -2610
Refix G22: 2, 375479.921163, 377
Refix G28: 2, 375479.932000, -1428
Refix G30: 2, 375479.922161, 2118
$GNGGA,081742.000,2944.9072,N,10633.0913,E,1,18,0.7,324.2,M,,,,0000*1B
$GNRMC,081742.000,A,2944.9072,N,10633.0913,E,0.25,0.00,160519,,*13
$GPGSA,A,3,01,03,06,11,17,19,22,28,30,,,,0.8,0.7,0.4*3A
$BDGSA,A,3,01,02,03,04,08,10,27,30,32,,,,0.8,0.7,0.4*22
$GLGSA,A,3,,,,,,,,,,,,,0.8,0.7,0.4*25
$GPGSV,3,1,10,01,23,040,40,03,35,080,42,06,39,232,45,11,14,055,35*7C
$GPGSV,3,2,10,17,52,332,45,19,39,302,44,22,24,058,42,28,80,067,44*76
$GPGSV,3,3,10,30,22,192,40,07,00,170,00*74
$BDGSV,3,1,11,01,40,125,40,02,47,219,40,03,55,171,42,04,23,109,39*67
$BDGSV,3,2,11,08,74,340,43,10,82,197,42,07,56,148,43,27,34,048,44*60
$BDGSV,3,3,11,30,57,328,43,32,25,125,41,13,63,256,00*54
$B3CN0,36,0,0,0,0,0,0,0,0,0,0,0,0,0*79
$ini_pos,lastpos_good = 1,ini_pos.x:-1578912.414312,ini_pos.y:5312770.830419,ini_pos.z:3146355.809288
$rtc_local_time,localRTC.weeks:2053,localRTC.seconds:375480.444776,localGtime.weeks:2053,localGtime.seconds:375481.000000
$pseudo_cd_ph,prn:1,pseudo_cd_ph:375480922.586064934731
measnum = 0,full_prange = 23202797.832048
$oldmeas,msRange:0.000000,x:-14867243.874897,y:1542789.407247,z:21791323.378745,vx:-728.065186,vy:-2707.954346,vz:-271.083435,tb:-0.000017513667
$newmeas,x:-14867187.525876,y:1542998.992864,z:21791344.358163,vx:-728.053345,vy:-2707.960449,vz:-271.046997,tb:-0.000017513666
$pseudo_cd_ph,prn:3,pseudo_cd_ph:375480925.884797394276
measnum = 1,full_prange = 22275433.450928
$oldmeas,msRange:74.306769,x:-21433340.367520,y:9573228.013332,z:12305971.808275,vx:933.672302,vy:-1286.012085,vz:2626.777588,tb:0.000187864185
$newmeas,x:-21433409.741597,y:9573323.566894,z:12305776.630495,vx:933.660645,vy:-1285.990601,vz:2626.797119,tb:0.000187864185
$pseudo_cd_ph,prn:6,pseudo_cd_ph:375480926.729146957397
measnum = 2,full_prange = 22027210.521039
$oldmeas,msRange:73.478645,x:6449833.982964,y:25723124.828268,z:1096038.253283,vx:-265.751862,vy:-64.259575,vz:3205.851074,tb:0.000204231178
$newmeas,x:6449853.508743,y:25723129.548725,z:1095802.703748,vx:-265.743591,vy:-64.232178,vz:3205.852783,tb:0.000204231179
$pseudo_cd_ph,prn:11,pseudo_cd_ph:375480919.958936870098
measnum = 3,full_prange = 23814067.138644
$oldmeas,msRange:79.439246,x:-19311887.333652,y:-1417704.271329,z:17548140.711488,vx:-1352.061035,vy:-1954.047363,vz:-1623.145630,tb:-0.000605666800
$newmeas,x:-19311779.932305,y:-1417549.050535,z:17548269.645115,vx:-1352.064453,vy:-1954.064941,vz:-1623.114502,tb:-0.000605666800
$pseudo_cd_ph,prn:17,pseudo_cd_ph:375480928.058141469955
measnum = 4,full_prange = 21584217.106210
$oldmeas,msRange:72.001078,x:1799458.989238,y:15728640.002486,z:21748091.104122,vx:-2545.725586,vy:-763.860535,vz:769.238403,tb:0.000055558715
$newmeas,x:1799642.273987,y:15728694.998649,z:21748035.719957,vx:-2545.715576,vy:-763.870117,vz:769.270508,tb:0.000055558714
$pseudo_cd_ph,prn:19,pseudo_cd_ph:375480926.788697719574
measnum = 5,full_prange = 21852683.884647
$oldmeas,msRange:72.896530,x:10006245.720919,y:16456113.397632,z:17951728.639807,vx:-2241.652344,vy:-680.636475,vz:1850.289429,tb:-0.000318376255
$newmeas,x:10006409.120326,y:16456163.011212,z:17951593.766157,vx:-2241.633057,vy:-680.640442,vz:1850.318115,tb:-0.000318376255
$pseudo_cd_ph,prn:22,pseudo_cd_ph:375480921.162332415581
measnum = 6,full_prange = 23424517.304614
$oldmeas,msRange:78.139755,x:-19826563.454888,y:2892212.052042,z:17635286.996851,vx:1263.827515,vy:-1823.123657,vz:1750.870483,tb:-0.000701669634
$newmeas,x:-19826662.204899,y:2892354.502532,z:17635150.190091,vx:1263.824097,vy:-1823.105713,vz:1750.899414,tb:-0.000701669633
$pseudo_cd_ph,prn:28,pseudo_cd_ph:375480932.000851809978
measnum = 7,full_prange = 20615771.361206
$oldmeas,msRange:68.770691,x:-9493714.143451,y:20677127.480858,z:14386935.206255,vx:-1398.706665,vy:1004.205566,vz:-2462.124268,tb:0.000767881768
$newmeas,x:-9493617.958171,y:20677058.424588,z:14387104.517993,vx:-1398.726562,vy:1004.213013,vz:-2462.104004,tb:0.000767881768
$pseudo_cd_ph,prn:30,pseudo_cd_ph:375480922.159965753555
measnum = 8,full_prange = 23304146.431678
$oldmeas,msRange:77.738324,x:-2265961.905039,y:24164862.432045,z:-10538170.440239,vx:-611.909790,vy:-1245.527710,vz:-2737.683838,tb:-0.000105550309
$newmeas,x:-2265914.339118,y:24164959.251311,z:-10537957.627715,vx:-611.898560,vy:-1245.504150,vz:-2737.701416,tb:-0.000105550308
Refix G01: 2, 375480.922586, 2230
Refix G03: 2, 375480.925885, -1117
Refix G06: 2, 375480.926729, -3517
Refix G07: 2, 375480.915259, 2292
Refix G11: 2, 375480.919959, 1905
Refix G17: 2, 375480.928058, -1674
Refix G19: 2, 375480.926789, -2608
Refix G22: 2, 375480.921162, 379
Refix G28: 2, 375480.932001, -1426
Refix G30: 2, 375480.922160, 2119
$GNGGA,081743.000,2944.9073,N,10633.0916,E,1,18,0.7,324.6,M,,,,0000*1A
$GNRMC,081743.000,A,2944.9073,N,10633.0916,E,0.08,0.00,160519,,*19
$GPGSA,A,3,01,03,06,11,17,19,22,28,30,,,,0.8,0.7,0.4*3A
$BDGSA,A,3,01,02,03,04,08,10,27,30,32,,,,0.8,0.7,0.4*22
$GLGSA,A,3,,,,,,,,,,,,,0.8,0.7,0.4*25
$GPGSV,3,1,10,01,23,040,41,03,35,080,42,06,39,232,45,11,14,055,35*7D
$GPGSV,3,2,10,17,52,332,45,19,39,302,44,22,24,058,42,28,80,067,43*71
$GPGSV,3,3,10,30,22,192,40,07,00,170,00*74
$BDGSV,3,1,12,01,40,125,42,02,47,219,40,03,55,171,43,04,23,109,39*67
$BDGSV,3,2,12,05,00,000,31,08,74,340,43,10,82,197,43,07,56,148,42*6A
$BDGSV,3,3,12,27,34,048,43,30,57,328,44,32,25,125,42,13,63,256,00*6A
$B3CN0,36,0,0,0,0,0,0,0,0,0,0,0,0,0*79
$ini_pos,lastpos_good = 1,ini_pos.x:-1578912.848351,ini_pos.y:5312770.911098,ini_pos.z:3146356.087561
$rtc_local_time,localRTC.weeks:2053,localRTC.seconds:375481.444776,localGtime.weeks:2053,localGtime.seconds:375482.000000
$pseudo_cd_ph,prn:1,pseudo_cd_ph:375481922.584621787071
measnum = 0,full_prange = 23203220.806487
$oldmeas,msRange:0.000000,x:-14867972.016478,y:1540081.493652,z:21791052.059961,vx:-728.218018,vy:-2707.873047,vz:-271.554138,tb:-0.000017513678
$newmeas,x:-14867915.654597,y:1540291.076813,z:21791073.076195,vx:-728.206238,vy:-2707.879395,vz:-271.517731,tb:-0.000017513677
$pseudo_cd_ph,prn:3,pseudo_cd_ph:375481925.885477900505
measnum = 1,full_prange = 22275219.772764
$oldmeas,msRange:74.306774,x:-21432406.616577,y:9571941.856142,z:12308598.453975,vx:933.829651,vy:-1286.302368,vz:2626.513916,tb:0.000187864184
$newmeas,x:-21432476.001678,y:9572037.430351,z:12308403.297648,vx:933.817932,vy:-1286.280762,vz:2626.533691,tb:0.000187864184
$pseudo_cd_ph,prn:6,pseudo_cd_ph:375481926.731352925301
measnum = 2,full_prange = 22026539.518292
$oldmeas,msRange:73.477129,x:6449568.174800,y:25723060.382270,z:1099244.092502,vx:-265.864471,vy:-64.632423,vz:3205.827637,tb:0.000204231168
$newmeas,x:6449587.708257,y:25723065.129978,z:1099008.551862,vx:-265.856201,vy:-64.605034,vz:3205.829346,tb:0.000204231169
$pseudo_cd_ph,prn:11,pseudo_cd_ph:375481919.957693874836
measnum = 3,full_prange = 23814430.112852
$oldmeas,msRange:79.441171,x:-19313239.372838,y:-1419658.207922,z:17546517.369892,vx:-1352.017456,vy:-1953.826050,vz:-1623.537598,tb:-0.000605666797
$newmeas,x:-19313131.973321,y:-1419503.002344,z:17546646.336621,vx:-1352.020874,vy:-1953.843628,vz:-1623.506470,tb:-0.000605666798
$pseudo_cd_ph,prn:17,pseudo_cd_ph:375481928.059176623821
measnum = 4,full_prange = 21583897.110883
$oldmeas,msRange:72.000730,x:1796913.194437,y:15727876.208427,z:21748860.119844,vx:-2545.864258,vy:-763.727600,vz:768.793091,tb:0.000055558725
$newmeas,x:1797096.486450,y:15727931.194206,z:21748804.768563,vx:-2545.854248,vy:-763.737183,vz:768.825134,tb:0.000055558725
$pseudo_cd_ph,prn:19,pseudo_cd_ph:375481926.790325641632
measnum = 5,full_prange = 21852186.179234
$oldmeas,msRange:72.895590,x:10004003.936349,y:16455432.788751,z:17953578.733170,vx:-2241.916992,vy:-680.581360,vz:1849.897339,tb:-0.000318376253
$newmeas,x:10004167.351318,y:16455482.397185,z:17953443.891172,vx:-2241.897705,vy:-680.585388,vz:1849.925903,tb:-0.000318376254
$pseudo_cd_ph,prn:22,pseudo_cd_ph:375481921.162064969540
measnum = 6,full_prange = 23424587.814393
$oldmeas,msRange:78.140710,x:-19825299.605335,y:2890388.813639,z:17637037.682461,vx:1263.871704,vy:-1823.353271,vz:1750.500854,tb:-0.000701669638
$newmeas,x:-19825398.359096,y:2890531.282493,z:17636900.904175,vx:1263.868286,vy:-1823.335327,vz:1750.529663,tb:-0.000701669638
$pseudo_cd_ph,prn:28,pseudo_cd_ph:375481932.001729905605
measnum = 7,full_prange = 20615498.448986
$oldmeas,msRange:68.770500,x:-9495112.705054,y:20678131.632088,z:14384472.935090,vx:-1398.416626,vy:1004.096985,vz:-2462.418213,tb:0.000767881773
$newmeas,x:-9495016.540986,y:20678062.584198,z:14384642.264803,vx:-1398.436646,vy:1004.104431,vz:-2462.397949,tb:0.000767881772
$pseudo_cd_ph,prn:30,pseudo_cd_ph:375481922.158593356609
measnum = 8,full_prange = 23304548.196265
$oldmeas,msRange:77.740385,x:-2266573.887292,y:24163616.753304,z:-10540908.010554,vx:-612.054749,vy:-1245.829834,vz:-2737.457031,tb:-0.000105550317
$newmeas,x:-2266526.309283,y:24163713.597731,z:-10540695.211993,vx:-612.043457,vy:-1245.806396,vz:-2737.474609,tb:-0.000105550317
Refix G01: 2, 375481.922585, 2226
Refix G03: 2, 375481.925885, -1120
Refix G06: 2, 375481.926731, -3520
Refix G07: 2, 375481.915257, 2289
Refix G11: 2, 375481.919958, 1902
Refix G17: 2, 375481.928059, -1678
Refix G19: 2, 375481.926790, -2612
Refix G22: 2, 375481.921162, 375
Refix G28: 2, 375481.932002, -1430
Refix G30: 2, 375481.922159, 2116
$GNGGA,081744.000,2944.9074,N,10633.0918,E,1,18,0.7,324.7,M,,,,0000*15
$GNRMC,081744.000,A,2944.9074,N,10633.0918,E,0.20,0.00,160519,,*1D
$GPGSA,A,3,01,03,06,11,17,19,22,28,30,,,,0.8,0.7,0.4*3A
$BDGSA,A,3,01,02,03,04,08,10,27,30,32,,,,0.8,0.7,0.4*22
$GLGSA,A,3,,,,,,,,,,,,,0.8,0.7,0.4*25
$GPGSV,3,1,10,01,23,040,41,03,35,080,43,06,39,232,43,11,14,055,36*79
$GPGSV,3,2,10,17,52,332,45,19,39,302,44,22,24,058,42,28,80,067,43*71
$GPGSV,3,3,10,30,22,192,39,07,00,170,00*7A
$BDGSV,3,1,12,01,40,125,41,02,47,219,41,03,55,171,42,04,23,109,40*6A
$BDGSV,3,2,12,05,00,000,35,08,74,340,43,10,82,197,43,07,56,148,42*6E
$BDGSV,3,3,12,27,34,048,44,30,57,328,44,32,25,125,42,13,63,256,00*6D
$B3CN0,0,0,0,0,0,0,0,0,0,0,0,0,0,0*4C
$ini_pos,lastpos_good = 1,ini_pos.x:-1578913.123218,ini_pos.y:5312770.855890,ini_pos.z:3146356.275412
$rtc_local_time,localRTC.weeks:2053,localRTC.seconds:375482.444776,localGtime.weeks:2053,localGtime.seconds:375483.000000
$pseudo_cd_ph,prn:1,pseudo_cd_ph:375482922.583173871040
measnum = 0,full_prange = 23203645.210448
$oldmeas,msRange:0.000000,x:-14868700.310938,y:1537373.661189,z:21790780.270461,vx:-728.370911,vy:-2707.791992,vz:-272.024872,tb:-0.000017513688
$newmeas,x:-14868643.936194,y:1537583.241901,z:21790801.323512,vx:-728.359070,vy:-2707.798340,vz:-271.988434,tb:-0.000017513688
$pseudo_cd_ph,prn:3,pseudo_cd_ph:375482925.886153161526
measnum = 1,full_prange = 22275007.667074
$oldmeas,msRange:74.306780,x:-21431472.708358,y:9570655.408732,z:12311224.836111,vx:933.986877,vy:-1286.592529,vz:2626.250488,tb:0.000187864183
