SD initialized success
Create debug.log Failed! 3
bbram_blkflag = 1
rtcflag = 0
BBRAM Block OK: 01 EPHflag: 28250427 12a41adf, rtc 00
Hot-start nowtime:day = 28,minute = 48,seconds = 04.00
GPS 0 Init Dop:  2540, 2
GPS 1 Init Dop: -3540, 2
GPS 2 Init Dop:  -177, 2
GPS 3 Init Dop: 10000,80
GPS 4 Init Dop: 10000,80
GPS 5 Init Dop: -2770, 2
GPS 6 Init Dop: 10000,80
GPS 7 Init Dop: 10000,80
GPS 8 Init Dop: 10000,80
GPS 9 Init Dop: 10000,80
GPS10 Init Dop:  2128, 2
GPS11 Init Dop: 10000,80
GPS12 Init Dop: 10000,80
GPS13 Init Dop: 10000,80
GPS14 Init Dop: 10000,80
GPS15 Init Dop: 10000,80
GPS16 Init Dop: -1373, 2
GPS17 Init Dop: 10000,80
GPS18 Init Dop: -2207, 2
GPS19 Init Dop: 10000,80
GPS20 Init Dop: 10000,80
GPS21 Init Dop:  1161, 2
GPS22 Init Dop: 10000,80
GPS23 Init Dop: 10000,80
GPS24 Init Dop: 10000,80
GPS25 Init Dop: 10000,80
GPS26 Init Dop: 10000,80
GPS27 Init Dop:  -642, 2
GPS28 Init Dop: 10000,80
GPS29 Init Dop:  2377, 2
GPS30 Init Dop: 10000,80
GPS31 Init Dop: 10000,80
BDS 0 Init Dop:  -849, 2
BDS 1 Init Dop:  -915, 2
BDS 2 Init Dop:  -869, 2
BDS 3 Init Dop:  -869, 2
BDS 4 Init Dop:  -897, 2
BDS 5 Init Dop: 10000,80
BDS 6 Init Dop:   -54, 2
BDS 7 Init Dop:  -414, 2
BDS 8 Init Dop: 10000,80
BDS 9 Init Dop:  -567, 2
BDS10 Init Dop: 10000,80
BDS11 Init Dop: -2033, 2
BDS12 Init Dop:  -812, 2
BDS13 Init Dop: 10000,80
BDS14 Init Dop: 10000,80
BDS15 Init Dop: 10000,80
BDS16 Init Dop: 10000,80
BDS17 Init Dop: 10000,80
BDS18 Init Dop: -2183, 2
BDS19 Init Dop: 10000,80
BDS20 Init Dop: 10000,80
BDS21 Init Dop: -3702, 2
BDS22 Init Dop: 10000,80
BDS23 Init Dop: -2377, 2
BDS24 Init Dop: 10000,80
BDS25 Init Dop:   339, 2
BDS26 Init Dop: 10000,80
BDS27 Init Dop: 10000,80
BDS28 Init Dop:  1001, 2
BDS29 Init Dop: 10000,80
BDS30 Init Dop: 10000,80
BDS31 Init Dop: 10000,80
Good luck!
$ini_pos,lastpos_good = 1,ini_pos.x:-1578915.000000,ini_pos.y:5312769.000000,ini_pos.z:3146358.000000
$rtc_local_time,localRTC.weeks:2055,localRTC.seconds:200903.025974,localGtime.weeks:0,localGtime.seconds:19.025977
source<tow,snapshot
$GNGGA,000000.000,,,,,0,00,,,M,,,,0000*2B
$GNRMC,000000.000,A,,,,,,,060180,,*29
$GPGSA,A,1,,,,,,,,,,,,,,,*1E
$BDGSA,A,1,,,,,,,,,,,,,,,*0F
$GLGSA,A,1,,,,,,,,,,,,,,,*02
$B3CN0,0,0,0,0,0,0,0,0,0,0,0,0,0,0*4C
$ini_pos,lastpos_good = 1,ini_pos.x:-1578915.000000,ini_pos.y:5312769.000000,ini_pos.z:3146358.000000
$rtc_local_time,localRTC.weeks:2055,localRTC.seconds:200904.025974,localGtime.weeks:2055,localGtime.seconds:200904.025974
source<tow,snapshot
$GNGGA,000000.000,,,,,0,00,,,M,,,,0000*2B
$GNRMC,000000.000,A,,,,,,,060180,,*29
$GPGSA,A,1,,,,,,,,,,,,,,,*1E
$BDGSA,A,1,,,,,,,,,,,,,,,*0F
$GLGSA,A,1,,,,,,,,,,,,,,,*02
$B3CN0,0,0,0,0,0,0,0,0,0,0,0,0,0,0*4C
$ini_pos,lastpos_good = 1,ini_pos.x:-1578915.000000,ini_pos.y:5312769.000000,ini_pos.z:3146358.000000
$rtc_local_time,localRTC.weeks:2055,localRTC.seconds:200905.025974,localGtime.weeks:2055,localGtime.seconds:200905.025974
$pseudo_cd_ph,prn:3,pseudo_cd_ph:4.134314036439
measnum = 0,full_prange = 22492414.701981
$oldmeas,msRange:0.000000,x:-20278383.602985,y:8072569.665703,z:15036835.825533,vx:1065.051270,vy:-1610.015747,vz:2303.071777,tb:0.000187157338
$newmeas,x:-20278463.509926,y:8072690.458943,z:15036663.032940,vx:1065.044434,vy:-1609.994385,vz:2303.095947,tb:0.000187157339
$pseudo_cd_ph,prn:6,pseudo_cd_ph:6.846518426114
measnum = 1,full_prange = 21681279.031770
$oldmeas,msRange:71.783467,x:5933554.853309,y:25397146.203505,z:4961945.130326,vx:-435.929382,vy:-503.209290,vz:3127.469971,tb:0.000193704376
$newmeas,x:5933586.379702,y:25397182.595189,z:4961718.948420,vx:-435.917236,vy:-503.184509,vz:3127.477539,tb:0.000193704377
$pseudo_cd_ph,prn:17,pseudo_cd_ph:6.852373967772
measnum = 2,full_prange = 21640063.794496
$oldmeas,msRange:71.645357,x:-1081166.162180,y:14967940.586763,z:22326188.288382,vx:-2665.223877,vy:-588.356140,vz:261.865967,tb:0.000062080673
$newmeas,x:-1080973.777211,y:14967983.056782,z:22326169.384793,vx:-2665.218994,vy:-588.367859,vz:261.898956,tb:0.000062080672
$pseudo_cd_ph,prn:19,pseudo_cd_ph:6.294315684925
measnum = 3,full_prange = 21694734.285032
$oldmeas,msRange:71.828088,x:7153324.833486,y:15712145.095953,z:19858412.157378,vx:-2520.099854,vy:-586.396606,vz:1358.424438,tb:-0.000313616462
$newmeas,x:7153507.202111,y:15712187.531318,z:19858313.852709,vx:-2520.085205,vy:-586.404358,vz:1358.455933,tb:-0.000313616462
$pseudo_cd_ph,prn:22,pseudo_cd_ph:18.418120897877
measnum = 4,full_prange = 23937703.971482
$oldmeas,msRange:79.308208,x:-18410092.057837,y:849936.502679,z:19335676.145031,vx:1269.882324,vy:-2067.166016,vz:1323.870728,tb:-0.000708069726
$newmeas,x:-18410193.454918,y:850101.560258,z:19335570.435856,vx:1269.883423,vy:-2067.150146,vz:1323.903076,tb:-0.000708069726
$pseudo_cd_ph,prn:28,pseudo_cd_ph:10.459496491582
measnum = 5,full_prange = 20770245.043966
$oldmeas,msRange:68.743603,x:-10876983.561060,y:21760180.992723,z:11377518.193512,vx:-1063.328491,vy:841.819153,vz:-2766.167236,tb:0.000767800169
$newmeas,x:-10876909.890755,y:21760122.669319,z:11377709.838769,vx:-1063.348511,vy:841.831360,vz:-2766.151123,tb:0.000767800168
$pseudo_cd_ph,prn:30,pseudo_cd_ph:18.067247854999
measnum = 6,full_prange = 24221304.782516
$oldmeas,msRange:80.253716,x:-3214756.054842,y:22418713.615927,z:-13693120.091117,vx:-806.416016,vy:-1583.727661,vz:-2418.494873,tb:-0.000112952270
$newmeas,x:-3214690.902194,y:22418841.570147,z:-13692924.691307,vx:-806.401550,vy:-1583.707886,vz:-2418.518555,tb:-0.000112952270
source<tow,snapshot
nits = 2
$GNGGA,074807.843,2944.9042,N,10633.0893,E,1,19,0.0,323.0,M,,,,0000*19
$GNRMC,074807.843,A,2944.9042,N,10633.0893,E,0.00,0.00,280519,,*18
$GPGSA,A,3,03,06,17,19,22,28,30,,,,,,0.0,0.0,0.0*30
$BDGSA,A,3,01,02,03,04,07,08,12,13,19,22,24,26,0.0,0.0,0.0*23
$GLGSA,A,3,,,,,,,,,,,,,0.0,0.0,0.0*2E
$GPGSV,2,1,07,03,00,000,26,06,00,000,26,17,00,000,26,19,00,000,26*76
$GPGSV,2,2,07,22,00,000,25,28,00,000,25,30,00,000,24*41
$BDGSV,3,1,12,01,00,000,40,02,00,000,39,03,00,000,42,04,00,000,39*6F
$BDGSV,3,2,12,07,00,000,24,08,00,000,24,12,00,000,24,13,00,000,24*64
$BDGSV,3,3,12,19,00,000,24,22,00,000,23,24,00,000,23,26,00,000,24*61
$B3CN0,0,0,0,0,0,0,0,0,0,0,0,0,0,0*4C
$ini_pos,lastpos_good = 1,ini_pos.x:-1578909.672142,ini_pos.y:5312773.364209,ini_pos.z:3146350.440625
$rtc_local_time,localRTC.weeks:2055,localRTC.seconds:200906.025974,localGtime.weeks:2055,localGtime.seconds:200906.025974
$pseudo_cd_ph,prn:3,pseudo_cd_ph:4.134567037006
measnum = 0,full_prange = 22492329.189318
$oldmeas,msRange:0.000000,x:-20277318.506006,y:8070959.507343,z:15039138.736208,vx:1065.142700,vy:-1610.301025,vz:2302.749756,tb:0.000187157337
$newmeas,x:-20277398.419503,y:8071080.321522,z:15038965.968428,vx:1065.135864,vy:-1610.279663,vz:2302.773926,tb:0.000187157337
$pseudo_cd_ph,prn:6,pseudo_cd_ph:6.848420845099
measnum = 1,full_prange = 21680699.026980
$oldmeas,msRange:71.782256,x:5933118.839806,y:25396642.823046,z:4965072.547204,vx:-436.097656,vy:-503.551666,vz:3127.364014,tb:0.000193704366
$newmeas,x:5933150.377524,y:25396679.238518,z:4964846.378997,vx:-436.085480,vy:-503.526917,vz:3127.371826,tb:0.000193704366
$pseudo_cd_ph,prn:17,pseudo_cd_ph:6.853374417809
measnum = 2,full_prange = 21639754.198979
$oldmeas,msRange:71.645064,x:-1083831.420774,y:14967352.311562,z:22326449.925786,vx:-2665.293457,vy:-588.194275,vz:261.408844,tb:0.000062080684
$newmeas,x:-1083639.033548,y:14967394.769287,z:22326431.055463,vx:-2665.288330,vy:-588.205933,vz:261.441833,tb:0.000062080683
$pseudo_cd_ph,prn:19,pseudo_cd_ph:6.295849827145
measnum = 3,full_prange = 21694264.696503
$oldmeas,msRange:71.827257,x:7150804.631661,y:15711558.753089,z:19859770.364537,vx:-2520.303955,vy:-586.289185,vz:1357.989990,tb:-0.000313616460
$newmeas,x:7150987.011096,y:15711601.179763,z:19859672.093436,vx:-2520.289062,vy:-586.296936,vz:1358.021362,tb:-0.000313616460
$pseudo_cd_ph,prn:22,pseudo_cd_ph:18.417511702283
measnum = 4,full_prange = 23937876.933447
$oldmeas,msRange:79.309543,x:-18408822.182802,y:847869.237551,z:19336999.813569,vx:1269.867798,vy:-2067.364502,vz:1323.466431,tb:-0.000708069730
$newmeas,x:-18408923.579463,y:848034.312168,z:19336894.135921,vx:1269.869019,vy:-2067.348633,vz:1323.498657,tb:-0.000708069730
$pseudo_cd_ph,prn:28,pseudo_cd_ph:10.460029915281
measnum = 5,full_prange = 20770075.459037
$oldmeas,msRange:68.743766,x:-10878046.745164,y:21761022.723315,z:11374751.909291,vx:-1063.039795,vy:841.642090,vz:-2766.401367,tb:0.000767800172
$newmeas,x:-10877973.095467,y:21760964.412651,z:11374943.569206,vx:-1063.059814,vy:841.654358,vz:-2766.385254,tb:0.000767800172
$pseudo_cd_ph,prn:30,pseudo_cd_ph:18.065853816207
measnum = 6,full_prange = 24221713.042516
$oldmeas,msRange:80.255762,x:-3215562.560285,y:22417129.765722,z:-13695538.438659,vx:-806.594971,vy:-1583.972900,vz:-2418.200439,tb:-0.000112952279
$newmeas,x:-3215497.392081,y:22417257.741910,z:-13695343.059349,vx:-806.580505,vy:-1583.953003,vz:-2418.224121,tb:-0.000112952278
source<tow,snapshot
nits = 2
$GNGGA,074808.846,2944.9050,N,10633.0896,E,1,19,0.0,325.1,M,,,,0000*12
$GNRMC,074808.846,A,2944.9050,N,10633.0896,E,0.00,0.00,280519,,*14
$GPGSA,A,3,03,06,17,19,22,28,30,,,,,,0.0,0.0,0.0*30
$BDGSA,A,3,01,02,03,04,07,08,12,13,19,22,24,26,0.0,0.0,0.0*23
$GLGSA,A,3,,,,,,,,,,,,,0.0,0.0,0.0*2E
$GPGSV,2,1,07,03,00,000,43,06,00,000,45,17,00,000,45,19,00,000,45*70
$GPGSV,2,2,07,22,00,000,42,28,00,000,44,30,00,000,35*47
$BDGSV,3,1,12,01,00,000,41,02,00,000,39,03,00,000,42,04,00,000,39*6E
$BDGSV,3,2,12,07,00,000,42,08,00,000,43,12,00,000,42,13,00,000,44*63
$BDGSV,3,3,12,19,00,000,44,22,00,000,40,24,00,000,43,26,00,000,44*62
$B3CN0,0,0,0,0,0,0,0,0,0,0,0,0,0,0*4C
$ini_pos,lastpos_good = 1,ini_pos.x:-1578910.457365,ini_pos.y:5312774.335972,ini_pos.z:3146352.720298
$rtc_local_time,localRTC.weeks:2055,localRTC.seconds:200907.025974,localGtime.weeks:2055,localGtime.seconds:200907.025974
$pseudo_cd_ph,prn:3,pseudo_cd_ph:4.134815421156
measnum = 0,full_prange = 22492245.043635
$oldmeas,msRange:0.000000,x:-20276253.317627,y:8069349.063783,z:15041441.324877,vx:1065.234131,vy:-1610.586182,vz:2302.427734,tb:0.000187157335
$newmeas,x:-20276333.237680,y:8069469.898907,z:15041268.581904,vx:1065.227295,vy:-1610.564819,vz:2302.451904,tb:0.000187157335
$pseudo_cd_ph,prn:6,pseudo_cd_ph:6.850318871402
measnum = 1,full_prange = 21680120.335563
$oldmeas,msRange:71.781059,x:5932682.658026,y:25396139.100222,z:4968199.858293,vx:-436.265961,vy:-503.894012,vz:3127.258301,tb:0.000193704355
$newmeas,x:5932714.207073,y:25396175.539479,z:4967973.703776,vx:-436.253784,vy:-503.869263,vz:3127.265869,tb:0.000193704356
$pseudo_cd_ph,prn:17,pseudo_cd_ph:6.854376829265
measnum = 2,full_prange = 21639444.013784
$oldmeas,msRange:71.644748,x:-1086496.748727,y:14966764.198270,z:22326711.106068,vx:-2665.362793,vy:-588.032349,vz:260.951721,tb:0.000062080694
$newmeas,x:-1086304.359255,y:14966806.643700,z:22326692.269012,vx:-2665.357666,vy:-588.044067,vz:260.984711,tb:0.000062080694
$pseudo_cd_ph,prn:19,pseudo_cd_ph:6.297383827664
measnum = 3,full_prange = 21693795.143712
$oldmeas,msRange:71.826414,x:7148284.225939,y:15710972.517664,z:19861128.137200,vx:-2520.507812,vy:-586.181702,vz:1357.555420,tb:-0.000313616459
$newmeas,x:7148466.616179,y:15711014.935644,z:19861029.899669,vx:-2520.492920,vy:-586.189514,vz:1357.586914,tb:-0.000313616459
$pseudo_cd_ph,prn:22,pseudo_cd_ph:18.416904244372
measnum = 4,full_prange = 23938049.368276
$oldmeas,msRange:79.310840,x:-18407552.322233,y:845801.774003,z:19338323.077687,vx:1269.853394,vy:-2067.562744,vz:1323.061890,tb:-0.000708069735
$newmeas,x:-18407653.718467,y:845966.865651,z:19338217.431572,vx:1269.854492,vy:-2067.546875,vz:1323.094238,tb:-0.000708069734
$pseudo_cd_ph,prn:28,pseudo_cd_ph:10.460564487491
measnum = 5,full_prange = 20769905.525662
$oldmeas,msRange:68.743915,x:-10879109.640519,y:21761864.276857,z:11371985.390958,vx:-1062.750977,vy:841.465027,vz:-2766.635498,tb:0.000767800175
$newmeas,x:-10879036.011429,y:21761805.978937,z:11372177.065522,vx:-1062.770996,vy:841.477295,vz:-2766.619141,tb:0.000767800175
$pseudo_cd_ph,prn:30,pseudo_cd_ph:18.064462984296
measnum = 6,full_prange = 24222120.319720
$oldmeas,msRange:80.257838,x:-3216369.244699,y:22415545.670349,z:-13697956.491665,vx:-806.773926,vy:-1584.218018,vz:-2417.905762,tb:-0.000112952287
$newmeas,x:-3216304.060937,y:22415673.668495,z:-13697761.132870,vx:-806.759460,vy:-1584.198242,vz:-2417.929688,tb:-0.000112952286
source<tow,snapshot
nits = 2
$GNGGA,074809.848,2944.9056,N,10633.0898,E,1,19,0.0,326.6,M,,,,0000*11
$GNRMC,074809.848,A,2944.9056,N,10633.0898,E,0.00,0.00,280519,,*13
$GPGSA,A,3,03,06,17,19,22,28,30,,,,,,0.0,0.0,0.0*30
$BDGSA,A,3,01,02,03,04,07,08,12,13,19,22,24,26,0.0,0.0,0.0*23
$GLGSA,A,3,,,,,,,,,,,,,0.0,0.0,0.0*2E
$GPGSV,3,1,10,03,35,069,42,06,47,242,44,17,54,345,45,19,43,313,45*7C
$GPGSV,3,2,10,22,20,051,42,28,76,115,43,30,15,188,34,01,16,042,00*71
$GPGSV,3,3,10,02,10,235,00,11,08,060,00*71
$BDGSV,3,1,12,01,40,126,40,02,47,220,40,03,55,171,42,04,23,109,39*6D
$BDGSV,3,2,12,07,53,154,41,08,71,343,43,12,36,292,41,13,62,265,44*6E
$BDGSV,3,3,12,19,30,100,43,22,19,156,40,24,26,305,42,26,49,245,43*67
$B3CN0,0,0,0,0,0,0,0,0,0,0,0,0,0,0*4C
tow update,200908970.461102
$ini_pos,lastpos_good = 1,ini_pos.x:-1578910.966783,ini_pos.y:5312774.924974,ini_pos.z:3146354.447348
$rtc_local_time,localRTC.weeks:2055,localRTC.seconds:200908.025974,localGtime.weeks:2055,localGtime.seconds:200908.970461
$pseudo_cd_ph,prn:3,pseudo_cd_ph:4.135063753100
measnum = 0,full_prange = 22338494.072380
$oldmeas,msRange:0.000000,x:-20274181.810749,y:8066216.760072,z:15045917.757645,vx:1065.411621,vy:-1611.140747,vz:2301.801514,tb:0.000187157332
$newmeas,x:-20274261.197718,y:8066336.810525,z:15045746.242172,vx:1065.404785,vy:-1611.119507,vz:2301.825439,tb:0.000187157333
$pseudo_cd_ph,prn:6,pseudo_cd_ph:6.852216785837
measnum = 1,full_prange = 21525874.833937
$oldmeas,msRange:71.778738,x:5931834.026123,y:25395158.637522,z:4974280.572374,vx:-436.593323,vy:-504.559601,vz:3127.052246,tb:0.000193704335
$newmeas,x:5931865.374221,y:25395194.865327,z:4974056.041647,vx:-436.581238,vy:-504.535034,vz:3127.059814,tb:0.000193704336
$pseudo_cd_ph,prn:17,pseudo_cd_ph:6.855382059793
measnum = 2,full_prange = 21485466.139796
$oldmeas,msRange:71.644143,x:-1091679.643813,y:14965621.082933,z:22327217.659197,vx:-2665.497314,vy:-587.717468,vz:260.062836,tb:0.000062080715
$newmeas,x:-1091488.613660,y:14965663.203766,z:22327199.019892,vx:-2665.492432,vy:-587.729065,vz:260.095612,tb:0.000062080714
$pseudo_cd_ph,prn:19,pseudo_cd_ph:6.298920841161
measnum = 3,full_prange = 21539657.837023
$oldmeas,msRange:71.824782,x:7143382.745145,y:15709832.897956,z:19863767.065140,vx:-2520.904053,vy:-585.972656,vz:1356.710449,tb:-0.000313616456
$newmeas,x:7143563.867953,y:15709874.999527,z:19863669.586318,vx:-2520.889404,vy:-585.980347,vz:1356.741699,tb:-0.000313616456
$pseudo_cd_ph,prn:22,pseudo_cd_ph:18.416299486207
measnum = 4,full_prange = 23784554.145880
$oldmeas,msRange:79.313370,x:-18405083.135887,y:841781.049174,z:19340894.990306,vx:1269.825073,vy:-2067.948486,vz:1322.275391,tb:-0.000708069743
$newmeas,x:-18405183.879703,y:841945.112828,z:19340790.084019,vx:1269.826172,vy:-2067.932861,vz:1322.307495,tb:-0.000708069742
$pseudo_cd_ph,prn:28,pseudo_cd_ph:200908770.461102068424
measnum = 5,full_prange = 20616067.847864
$oldmeas,msRange:68.744216,x:-10881175.600609,y:21763500.160088,z:11366605.260768,vx:-1062.189575,vy:841.120544,vz:-2767.090576,tb:0.000767800182
$newmeas,x:-10881102.555486,y:21763442.317660,z:11366795.546940,vx:-1062.209473,vy:841.132690,vz:-2767.074463,tb:0.000767800182
$pseudo_cd_ph,prn:30,pseudo_cd_ph:18.063075210109
measnum = 6,full_prange = 24068859.840229
$oldmeas,msRange:80.261872,x:-3217938.344854,y:22412464.715110,z:-13702657.522021,vx:-807.122009,vy:-1584.694458,vz:-2417.332764,tb:-0.000112952303
$newmeas,x:-3217873.545579,y:22412591.941638,z:-13702463.445321,vx:-807.107666,vy:-1584.674805,vz:-2417.356445,tb:-0.000112952303
$GNGGA,074810.838,2944.9068,N,10633.0908,E,1,13,1.1,333.1,M,,,,0000*12
$GNRMC,074810.838,A,2944.9068,N,10633.0908,E,0.27,0.00,280519,,*1C
$GPGSA,A,3,28,,,,,,,,,,,,1.9,1.1,1.6*37
$BDGSA,A,3,01,02,03,04,07,08,12,13,19,22,24,26,1.9,1.1,1.6*2C
$GLGSA,A,3,,,,,,,,,,,,,1.9,1.1,1.6*21
$GPGSV,3,1,10,03,35,069,43,06,47,242,44,17,54,345,44,19,43,313,44*7D
$GPGSV,3,2,10,22,20,051,42,28,76,115,44,30,15,188,35,01,16,042,00*77
$GPGSV,3,3,10,02,10,235,00,11,08,060,00*71
$BDGSV,3,1,12,01,40,126,41,02,47,220,40,03,55,171,42,04,23,109,38*6D
$BDGSV,3,2,12,07,53,154,42,08,71,343,42,12,36,292,41,13,62,265,43*6B
$BDGSV,3,3,12,19,30,100,43,22,19,156,40,24,26,305,42,26,49,245,43*67
$B3CN0,0,0,0,0,0,0,0,0,0,0,0,0,0,0*4C
$ini_pos,lastpos_good = 1,ini_pos.x:-1578913.854905,ini_pos.y:5312778.780603,ini_pos.z:3146359.523004
$rtc_local_time,localRTC.weeks:2055,localRTC.seconds:200909.187536,localGtime.weeks:2055,localGtime.seconds:200910.000000
$pseudo_cd_ph,prn:3,pseudo_cd_ph:5.697850493042
measnum = 0,full_prange = 22331307.356370
$oldmeas,msRange:0.000000,x:-20273084.879817,y:8064557.877029,z:15048287.380789,vx:1065.505493,vy:-1611.434326,vz:2301.469727,tb:0.000187157331
$newmeas,x:-20273164.248241,y:8064677.910728,z:15048115.945204,vx:1065.498657,vy:-1611.413086,vz:2301.493652,tb:0.000187157331
$pseudo_cd_ph,prn:6,pseudo_cd_ph:8.416915475914
measnum = 1,full_prange = 21518114.921609
$oldmeas,msRange:71.777499,x:5931384.447087,y:25394638.992429,z:4977499.937928,vx:-436.766724,vy:-504.911987,vz:3126.943115,tb:0.000193704324
$newmeas,x:5931415.796331,y:25394675.232465,z:4977275.495976,vx:-436.754639,vy:-504.887421,vz:3126.950684,tb:0.000193704325
$pseudo_cd_ph,prn:17,pseudo_cd_ph:8.419046374011
measnum = 2,full_prange = 21478016.332962
$oldmeas,msRange:71.643805,x:-1094423.913415,y:14965016.090851,z:22327485.161711,vx:-2665.568604,vy:-587.550659,vz:259.592194,tb:0.000062080726
$newmeas,x:-1094232.944399,y:14965058.185132,z:22327466.562587,vx:-2665.563477,vy:-587.562317,vz:259.624939,tb:0.000062080725
$pseudo_cd_ph,prn:19,pseudo_cd_ph:7.863203419735
measnum = 3,full_prange = 21532022.680953
$oldmeas,msRange:71.823906,x:7140787.268683,y:15709229.673379,z:19865163.620897,vx:-2521.113770,vy:-585.861877,vz:1356.263062,tb:-0.000313616454
$newmeas,x:7140968.342351,y:15709271.752072,z:19865066.208766,vx:-2521.099121,vy:-585.869629,vz:1356.294189,tb:-0.000313616454
$pseudo_cd_ph,prn:22,pseudo_cd_ph:19.978092167501
measnum = 4,full_prange = 23777665.439688
$oldmeas,msRange:79.314696,x:-18403775.809471,y:839651.910822,z:19342256.109827,vx:1269.809937,vy:-2068.152588,vz:1321.859009,tb:-0.000708069747
$newmeas,x:-18403876.522914,y:839815.943151,z:19342151.266955,vx:1269.811157,vy:-2068.136963,vz:1321.891113,tb:-0.000708069747
$pseudo_cd_ph,prn:28,pseudo_cd_ph:200909932.024225652218
measnum = 5,full_prange = 20608780.146601
$oldmeas,msRange:68.744357,x:-10882269.012990,y:21764366.032387,z:11363756.309740,vx:-1061.892334,vy:840.938049,vz:-2767.331299,tb:0.000767800186
$newmeas,x:-10882196.014123,y:21764308.222951,z:11363946.545202,vx:-1061.912231,vy:840.950256,vz:-2767.315186,tb:0.000767800185
$pseudo_cd_ph,prn:30,pseudo_cd_ph:19.623964289183
measnum = 6,full_prange = 24062242.027129
$oldmeas,msRange:80.264009,x:-3218769.403196,y:22410833.080753,z:-13705146.103866,vx:-807.306335,vy:-1584.946777,vz:-2417.029541,tb:-0.000112952312
$newmeas,x:-3218704.606942,y:22410960.292544,z:-13704952.104881,vx:-807.291992,vy:-1584.927124,vz:-2417.053223,tb:-0.000112952311
$GNGGA,074812.000,2944.9065,N,10633.0903,E,1,13,1.0,331.9,M,,,,0000*1E
$GNRMC,074812.000,A,2944.9065,N,10633.0903,E,0.42,0.00,280519,,*18
$GPGSA,A,3,28,,,,,,,,,,,,1.2,1.0,0.5*3F
$BDGSA,A,3,01,02,03,04,07,08,12,13,19,22,24,26,1.2,1.0,0.5*24
$GLGSA,A,3,,,,,,,,,,,,,1.2,1.0,0.5*29
$GPGSV,3,1,10,03,35,069,42,06,47,242,43,17,54,345,44,19,43,313,44*7B
$GPGSV,3,2,10,22,20,051,41,28,76,115,43,30,15,188,35,01,16,042,00*73
$GPGSV,3,3,10,02,10,235,00,11,08,060,00*71
$BDGSV,3,1,12,01,40,126,40,02,47,220,39,03,55,171,42,04,23,109,41*6C
$BDGSV,3,2,12,07,53,154,41,08,71,343,42,12,36,292,41,13,62,265,43*68
$BDGSV,3,3,12,19,30,100,43,22,19,156,40,24,26,305,42,26,49,245,43*67
$B3CN0,19,0,0,0,0,0,0,0,0,0,0,0,0,0*74
$ini_pos,lastpos_good = 1,ini_pos.x:-1578912.849954,ini_pos.y:5312778.308879,ini_pos.z:3146358.522525
$rtc_local_time,localRTC.weeks:2055,localRTC.seconds:200910.187536,localGtime.weeks:2055,localGtime.seconds:200911.000000
$pseudo_cd_ph,prn:3,pseudo_cd_ph:5.698105969620
measnum = 0,full_prange = 22331221.102143
$oldmeas,msRange:0.000000,x:-20272019.328788,y:8062946.300199,z:15050588.689314,vx:1065.596680,vy:-1611.719482,vz:2301.147461,tb:0.000187157329
$newmeas,x:-20272098.703694,y:8063066.354674,z:15050417.278393,vx:1065.589844,vy:-1611.698242,vz:2301.171387,tb:0.000187157329
$pseudo_cd_ph,prn:6,pseudo_cd_ph:8.418815351768
measnum = 1,full_prange = 21517535.685187
$oldmeas,msRange:71.776307,x:5930947.596140,y:25394133.909359,z:4980626.827957,vx:-436.935211,vy:-505.254181,vz:3126.837158,tb:0.000193704314
$newmeas,x:5930978.956630,y:25394170.172982,z:4980402.399661,vx:-436.923096,vy:-505.229645,vz:3126.844727,tb:0.000193704315
$pseudo_cd_ph,prn:17,pseudo_cd_ph:8.420059204102
measnum = 2,full_prange = 21477703.029622
$oldmeas,msRange:71.643500,x:-1097089.516376,y:14964428.621179,z:22327744.525323,vx:-2665.637695,vy:-587.388672,vz:259.135040,tb:0.000062080736
$newmeas,x:-1096898.545197,y:14964470.703240,z:22327725.959222,vx:-2665.632568,vy:-587.400269,vz:259.167786,tb:0.000062080736
$pseudo_cd_ph,prn:19,pseudo_cd_ph:7.864747794143
measnum = 3,full_prange = 21531550.018951
$oldmeas,msRange:71.823071,x:7138266.053237,y:15708643.865306,z:19866519.666567,vx:-2521.317383,vy:-585.754272,vz:1355.828369,tb:-0.000313616452
$newmeas,x:7138447.137555,y:15708685.935347,z:19866422.287790,vx:-2521.302734,vy:-585.762024,vz:1355.859619,tb:-0.000313616453
$pseudo_cd_ph,prn:22,pseudo_cd_ph:200910899.977495014668
measnum = 4,full_prange = 23777834.792111
$oldmeas,msRange:79.316004,x:-18402506.006879,y:837583.659087,z:19343577.766506,vx:1269.795288,vy:-2068.350830,vz:1321.454468,tb:-0.000708069751
$newmeas,x:-18402606.719874,y:837747.708310,z:19343472.954973,vx:1269.796509,vy:-2068.335205,vz:1321.486572,tb:-0.000708069751
$pseudo_cd_ph,prn:28,pseudo_cd_ph:200910932.024772673845
measnum = 5,full_prange = 20608606.487534
$oldmeas,msRange:68.744518,x:-10883330.760925,y:21765206.881752,z:11360988.861582,vx:-1061.603638,vy:840.760742,vz:-2767.565186,tb:0.000767800189
$newmeas,x:-10883257.782519,y:21765149.084992,z:11361179.111518,vx:-1061.623413,vy:840.772949,vz:-2767.549072,tb:0.000767800189
$pseudo_cd_ph,prn:30,pseudo_cd_ph:19.622586493618
measnum = 6,full_prange = 24062645.408886
$oldmeas,msRange:80.266081,x:-3219576.799067,y:22409248.011591,z:-13707562.985874,vx:-807.485413,vy:-1585.191650,vz:-2416.734619,tb:-0.000112952320
$newmeas,x:-3219511.987354,y:22409375.245174,z:-13707369.007295,vx:-807.471069,vy:-1585.171997,vz:-2416.758301,tb:-0.000112952319
$GNGGA,074813.000,2944.9065,N,10633.0902,E,1,13,1.0,332.1,M,,,,0000*15
$GNRMC,074813.000,A,2944.9065,N,10633.0902,E,0.10,0.00,280519,,*1F
$GPGSA,A,3,28,,,,,,,,,,,,1.2,1.0,0.5*3F
$BDGSA,A,3,01,02,03,04,07,08,12,13,19,22,24,26,1.2,1.0,0.5*24
$GLGSA,A,3,,,,,,,,,,,,,1.2,1.0,0.5*29
$GPGSV,3,1,11,03,35,069,41,06,47,242,44,17,54,345,44,19,43,313,44*7E
$GPGSV,3,2,11,22,20,051,41,28,76,115,43,30,15,188,36,24,00,000,31*75
$GPGSV,3,3,11,01,16,042,00,02,10,235,00,11,08,060,00*40
$BDGSV,3,1,12,01,40,126,42,02,47,220,40,03,55,171,42,04,23,109,39*6F
$BDGSV,3,2,12,07,53,154,42,08,71,343,43,12,36,292,40,13,62,265,43*6B
$BDGSV,3,3,12,19,30,100,43,22,19,156,40,24,26,305,42,26,49,245,44*60
$B3CN0,22,0,0,0,0,0,26,0,0,0,0,0,0,0*48
$ini_pos,lastpos_good = 1,ini_pos.x:-1578912.816548,ini_pos.y:5312778.565036,ini_pos.z:3146358.549100
$rtc_local_time,localRTC.weeks:2055,localRTC.seconds:200911.187536,localGtime.weeks:2055,localGtime.seconds:200912.000000
$pseudo_cd_ph,prn:3,pseudo_cd_ph:200911945.698355138302
measnum = 0,full_prange = 22331136.733097
$oldmeas,msRange:0.000000,x:-20270953.686650,y:8061334.438231,z:15052889.675588,vx:1065.687744,vy:-1612.004639,vz:2300.825195,tb:0.000187157328
$newmeas,x:-20271033.068041,y:8061454.513492,z:15052718.289321,vx:1065.680908,vy:-1611.983398,vz:2300.849121,tb:0.000187157328
$pseudo_cd_ph,prn:6,pseudo_cd_ph:200911948.420711725950
measnum = 1,full_prange = 21516957.494103
$oldmeas,msRange:71.775114,x:5930510.576700,y:25393628.484087,z:4983753.611866,vx:-437.103699,vy:-505.596375,vz:3126.730957,tb:0.000193704304
$newmeas,x:5930541.948443,y:25393664.771296,z:4983529.197220,vx:-437.091614,vy:-505.571808,vz:3126.738525,tb:0.000193704304
$pseudo_cd_ph,prn:17,pseudo_cd_ph:200911948.421067446470
measnum = 2,full_prange = 21477391.102197
$oldmeas,msRange:71.643192,x:-1099755.188379,y:14963841.313510,z:22328003.431787,vx:-2665.706543,vy:-587.226685,vz:258.677887,tb:0.000062080747
$newmeas,x:-1099564.215030,y:14963883.383353,z:22327984.898705,vx:-2665.701660,vy:-587.238281,vz:258.710632,tb:0.000062080746
$pseudo_cd_ph,prn:19,pseudo_cd_ph:200911947.866287857294
measnum = 3,full_prange = 21531078.652454
$oldmeas,msRange:71.822235,x:7135744.634178,y:15708058.164867,z:19867875.277592,vx:-2521.520996,vy:-585.646606,vz:1355.393677,tb:-0.000313616451
$newmeas,x:7135925.729154,y:15708100.226255,z:19867777.932163,vx:-2521.506348,vy:-585.654358,vz:1355.424927,tb:-0.000313616451
$pseudo_cd_ph,prn:22,pseudo_cd_ph:200911899.976892411709
measnum = 4,full_prange = 23778005.779550
$oldmeas,msRange:79.317309,x:-18401236.218998,y:835515.209102,z:19344899.018632,vx:1269.780518,vy:-2068.549072,vz:1321.049927,tb:-0.000708069755
$newmeas,x:-18401336.931549,y:835679.275227,z:19344794.238433,vx:1269.781738,vy:-2068.533447,vz:1321.082031,tb:-0.000708069755
$pseudo_cd_ph,prn:28,pseudo_cd_ph:200911932.025316238403
measnum = 5,full_prange = 20608433.864870
$oldmeas,msRange:68.744676,x:-10884392.220150,y:21766047.553779,z:11358221.179586,vx:-1061.314941,vy:840.583374,vz:-2767.799072,tb:0.000767800193
$newmeas,x:-10884319.262202,y:21765989.769696,z:11358411.444002,vx:-1061.334717,vy:840.595581,vz:-2767.782959,tb:0.000767800192
$pseudo_cd_ph,prn:30,pseudo_cd_ph:200911939.621211051941
measnum = 6,full_prange = 24063048.084816
$oldmeas,msRange:80.268153,x:-3220384.374021,y:22407662.697520,z:-13709979.573089,vx:-807.664551,vy:-1585.436523,vz:-2416.439941,tb:-0.000112952329
$newmeas,x:-3220319.546849,y:22407789.952888,z:-13709785.614929,vx:-807.650146,vy:-1585.416870,vz:-2416.463623,tb:-0.000112952328
$GNGGA,074814.000,2944.9065,N,10633.0903,E,1,13,1.0,332.0,M,,,,0000*12
$GNRMC,074814.000,A,2944.9065,N,10633.0903,E,0.09,0.00,280519,,*11
$GPGSA,A,3,28,,,,,,,,,,,,1.2,1.0,0.5*3F
$BDGSA,A,3,01,02,03,04,07,08,12,13,19,22,24,26,1.2,1.0,0.5*24
$GLGSA,A,3,,,,,,,,,,,,,1.2,1.0,0.5*29
$GPGSV,3,1,11,03,35,069,42,06,47,242,43,17,54,345,45,19,43,313,44*7B
$GPGSV,3,2,11,22,20,051,41,28,76,115,43,30,15,188,35,24,00,000,38*7F
$GPGSV,3,3,11,01,16,042,00,02,10,235,00,11,08,060,00*40
$BDGSV,3,1,12,01,40,126,40,02,47,220,40,03,55,171,43,04,23,109,40*62
$BDGSV,3,2,12,07,53,154,42,08,71,343,43,12,36,292,41,13,62,265,43*6A
$BDGSV,3,3,12,19,30,100,43,22,19,156,40,24,26,305,42,26,49,245,43*67
$B3CN0,0,0,0,0,0,0,28,0,0,0,0,0,0,0*76
$ini_pos,lastpos_good = 1,ini_pos.x:-1578912.941985,ini_pos.y:5312778.363540,ini_pos.z:3146358.558011
$rtc_local_time,localRTC.weeks:2055,localRTC.seconds:200912.187536,localGtime.weeks:2055,localGtime.seconds:200913.000000
$pseudo_cd_ph,prn:3,pseudo_cd_ph:200912945.698605477810
measnum = 0,full_prange = 22331052.015605
$oldmeas,msRange:0.000000,x:-20269887.953463,y:8059722.291137,z:15055190.339564,vx:1065.778687,vy:-1612.289673,vz:2300.502930,tb:0.000187157326
$newmeas,x:-20269967.341332,y:8059842.387181,z:15055018.977956,vx:1065.771973,vy:-1612.268433,vz:2300.526855,tb:0.000187157326
$pseudo_cd_ph,prn:6,pseudo_cd_ph:200912948.422609120607
measnum = 1,full_prange = 21516378.999246
$oldmeas,msRange:71.773923,x:5930073.388726,y:25393122.716646,z:4986880.289591,vx:-437.272278,vy:-505.938538,vz:3126.624756,tb:0.000193704293
$newmeas,x:5930104.771722,y:25393159.027436,z:4986655.888601,vx:-437.260162,vy:-505.913971,vz:3126.632324,tb:0.000193704294
$pseudo_cd_ph,prn:17,pseudo_cd_ph:200912948.422077715397
measnum = 2,full_prange = 21477078.567226
$oldmeas,msRange:71.642884,x:-1102420.929361,y:14963254.167863,z:22328261.881095,vx:-2665.775635,vy:-587.064636,vz:258.220734,tb:0.000062080758
$newmeas,x:-1102229.953850,y:14963296.225486,z:22328243.381034,vx:-2665.770508,vy:-587.076233,vz:258.253479,tb:0.000062080757
$pseudo_cd_ph,prn:19,pseudo_cd_ph:200912947.867829710245
measnum = 3,full_prange = 21530606.749886
$oldmeas,msRange:71.821399,x:7133223.011566,y:15707472.572100,z:19869230.453940,vx:-2521.724365,vy:-585.538940,vz:1354.958984,tb:-0.000313616449
$newmeas,x:7133404.117190,y:15707514.624832,z:19869133.141864,vx:-2521.709717,vy:-585.546692,vz:1354.990234,tb:-0.000313616449
$pseudo_cd_ph,prn:22,pseudo_cd_ph:200912899.976289987564
measnum = 4,full_prange = 23778176.713381
$oldmeas,msRange:79.318613,x:-18399966.445879,y:833446.560903,z:19346219.866178,vx:1269.765747,vy:-2068.747314,vz:1320.645264,tb:-0.000708069759
$newmeas,x:-18400067.157981,y:833610.643928,z:19346115.117317,vx:1269.766968,vy:-2068.731689,vz:1320.677368,tb:-0.000708069759
$pseudo_cd_ph,prn:28,pseudo_cd_ph:200912932.025861620903
measnum = 5,full_prange = 20608260.697200
$oldmeas,msRange:68.744835,x:-10885453.390674,y:21766888.048409,z:11355453.263808,vx:-1061.026245,vy:840.405945,vz:-2768.032715,tb:0.000767800196
$newmeas,x:-10885380.453184,y:21766830.277008,z:11355643.542694,vx:-1061.046021,vy:840.418152,vz:-2768.016602,tb:0.000767800196
$pseudo_cd_ph,prn:30,pseudo_cd_ph:200912939.619841784239
measnum = 6,full_prange = 24063448.911303
$oldmeas,msRange:80.270227,x:-3221192.128082,y:22406077.138593,z:-13712395.865462,vx:-807.843628,vy:-1585.681396,vz:-2416.145020,tb:-0.000112952337
$newmeas,x:-3221127.285452,y:22406204.415733,z:-13712201.927738,vx:-807.829285,vy:-1585.661743,vz:-2416.168701,tb:-0.000112952336
$GNGGA,074815.000,2944.9065,N,10633.0903,E,1,13,1.0,331.3,M,,,,0000*13
$GNRMC,074815.000,A,2944.9065,N,10633.0903,E,0.20,0.00,280519,,*1B
$GPGSA,A,3,28,,,,,,,,,,,,1.2,1.0,0.5*3F
$BDGSA,A,3,01,02,03,04,07,08,12,13,19,22,24,26,1.2,1.0,0.5*24
$GLGSA,A,3,,,,,,,,,,,,,1.2,1.0,0.5*29
$GPGSV,3,1,11,03,35,069,42,06,47,242,44,17,54,345,45,19,43,313,44*7C
$GPGSV,3,2,11,22,20,051,41,28,76,115,43,30,15,188,36,24,00,000,38*7C
$GPGSV,3,3,11,01,16,042,00,02,10,235,00,11,08,060,00*40
$BDGSV,3,1,12,01,40,126,41,02,47,220,40,03,55,171,42,04,23,109,39*6C
$BDGSV,3,2,12,07,53,154,42,08,71,343,43,12,36,292,41,13,62,265,43*6A
$BDGSV,3,3,12,19,30,100,43,22,19,156,40,24,26,305,42,26,49,245,43*67
$B3CN0,0,0,0,0,0,0,27,0,0,0,0,0,0,0*79
$ini_pos,lastpos_good = 1,ini_pos.x:-1578912.797228,ini_pos.y:5312777.755626,ini_pos.z:3146358.200779
$rtc_local_time,localRTC.weeks:2055,localRTC.seconds:200913.187536,localGtime.weeks:2055,localGtime.seconds:200914.000000
$pseudo_cd_ph,prn:3,pseudo_cd_ph:200913945.698851078749
measnum = 0,full_prange = 22330968.718701
$oldmeas,msRange:0.000000,x:-20268822.129284,y:8058109.858932,z:15057490.681190,vx:1065.869629,vy:-1612.574829,vz:2300.180420,tb:0.000187157325
$newmeas,x:-20268901.523633,y:8058229.975764,z:15057319.344234,vx:1065.862915,vy:-1612.553589,vz:2300.204590,tb:0.000187157325
$pseudo_cd_ph,prn:6,pseudo_cd_ph:200913948.424501180649
measnum = 1,full_prange = 21515802.103666
$oldmeas,msRange:71.772733,x:5929636.032174,y:25392616.607069,z:4990006.861063,vx:-437.440857,vy:-506.280640,vz:3126.518311,tb:0.000193704283
$newmeas,x:5929667.426429,y:25392652.941439,z:4989782.473718,vx:-437.428772,vy:-506.256104,vz:3126.526123,tb:0.000193704284
$pseudo_cd_ph,prn:17,pseudo_cd_ph:200913948.423085182905
measnum = 2,full_prange = 21476766.872098
$oldmeas,msRange:71.642578,x:-1105086.739255,y:14962667.184257,z:22328519.873244,vx:-2665.844482,vy:-586.902588,vz:257.763580,tb:0.000062080768
$newmeas,x:-1104895.761582,y:14962709.229661,z:22328501.406202,vx:-2665.839600,vy:-586.914185,vz:257.796326,tb:0.000062080767
$pseudo_cd_ph,prn:19,pseudo_cd_ph:200913947.869365930557
measnum = 3,full_prange = 21530136.535941
$oldmeas,msRange:71.820564,x:7130701.185456,y:15706887.087044,z:19870585.195584,vx:-2521.927979,vy:-585.431213,vz:1354.524292,tb:-0.000313616448
$newmeas,x:7130882.301737,y:15706929.131121,z:19870487.916853,vx:-2521.913330,vy:-585.438965,vz:1354.555542,tb:-0.000313616448
$pseudo_cd_ph,prn:22,pseudo_cd_ph:200913899.975684732199
measnum = 4,full_prange = 23778348.495992
$oldmeas,msRange:79.319919,x:-18398696.687571,y:831377.714523,z:19347540.309117,vx:1269.750977,vy:-2068.945557,vz:1320.240723,tb:-0.000708069764
$newmeas,x:-18398797.399224,y:831541.814451,z:19347435.591592,vx:1269.752075,vy:-2068.929688,vz:1320.272705,tb:-0.000708069763
$pseudo_cd_ph,prn:28,pseudo_cd_ph:200913932.026402890682
measnum = 5,full_prange = 20608088.762493
$oldmeas,msRange:68.744996,x:-10886514.272504,y:21767728.365585,z:11352685.114304,vx:-1060.737549,vy:840.228455,vz:-2768.266357,tb:0.000767800199
$newmeas,x:-10886441.355468,y:21767670.606866,z:11352875.407667,vx:-1060.757324,vy:840.240662,vz:-2768.250488,tb:0.000767800199
$pseudo_cd_ph,prn:30,pseudo_cd_ph:200913939.618463665247
measnum = 6,full_prange = 24063852.391340
$oldmeas,msRange:80.272300,x:-3222000.061270,y:22404491.334861,z:-13714811.862939,vx:-808.022766,vy:-1585.926147,vz:-2415.850098,tb:-0.000112952345
$newmeas,x:-3221935.203174,y:22404618.633783,z:-13714617.945636,vx:-808.008423,vy:-1585.906494,vz:-2415.873779,tb:-0.000112952345
$GNGGA,074816.000,2944.9066,N,10633.0904,E,1,13,1.0,331.3,M,,,,0000*14
$GNRMC,074816.000,A,2944.9066,N,10633.0904,E,0.25,0.00,280519,,*19
$GPGSA,A,3,28,,,,,,,,,,,,1.2,1.0,0.5*3F
$BDGSA,A,3,01,02,03,04,07,08,12,13,19,22,24,26,1.2,1.0,0.5*24
$GLGSA,A,3,,,,,,,,,,,,,1.2,1.0,0.5*29
$GPGSV,3,1,11,03,35,069,42,06,47,242,44,17,54,345,45,19,43,313,45*7D
$GPGSV,3,2,11,22,20,051,41,28,76,115,43,30,15,188,36,24,00,000,37*73
$GPGSV,3,3,11,01,16,042,00,02,10,235,00,11,08,060,00*40
$BDGSV,3,1,12,01,40,126,40,02,47,220,40,03,55,171,43,04,23,109,40*62
$BDGSV,3,2,12,07,53,154,41,08,71,343,43,29,20,064,33,12,36,292,40*63
$BDGSV,3,3,12,13,62,265,44,19,30,100,44,22,19,156,40,24,26,305,43*6B
$B3CN0,0,0,0,0,0,0,27,0,0,0,0,0,0,0*79
$ini_pos,lastpos_good = 1,ini_pos.x:-1578912.823870,ini_pos.y:5312777.659372,ini_pos.z:3146358.350550
$rtc_local_time,localRTC.weeks:2055,localRTC.seconds:200914.187536,localGtime.weeks:2055,localGtime.seconds:200915.000000
$pseudo_cd_ph,prn:3,pseudo_cd_ph:200914945.699098169804
measnum = 0,full_prange = 22330884.975071
$oldmeas,msRange:0.000000,x:-20267756.214173,y:8056497.141626,z:15059790.700419,vx:1065.960571,vy:-1612.859863,vz:2299.858154,tb:0.000187157323
$newmeas,x:-20267835.614996,y:8056617.279245,z:15059619.388122,vx:1065.953857,vy:-1612.838623,vz:2299.882080,tb:0.000187157323
$pseudo_cd_ph,prn:6,pseudo_cd_ph:200914948.426394015551
measnum = 1,full_prange = 21515224.975788
$oldmeas,msRange:71.771542,x:5929198.507002,y:25392110.155389,z:4993133.326217,vx:-437.609497,vy:-506.622742,vz:3126.412109,tb:0.000193704273
$newmeas,x:5929229.912518,y:25392146.513336,z:4992908.952523,vx:-437.597412,vy:-506.598175,vz:3126.419678,tb:0.000193704273
$pseudo_cd_ph,prn:17,pseudo_cd_ph:200914948.424092441797
measnum = 2,full_prange = 21476455.239512
$oldmeas,msRange:71.642270,x:-1107752.618000,y:14962080.362712,z:22328777.408226,vx:-2665.913330,vy:-586.740540,vz:257.306396,tb:0.000062080779
$newmeas,x:-1107561.638168,y:14962122.395895,z:22328758.974203,vx:-2665.908203,vy:-586.752136,vz:257.339172,tb:0.000062080778
$pseudo_cd_ph,prn:19,pseudo_cd_ph:200914947.870900452137
measnum = 3,full_prange = 21529666.831263
$oldmeas,msRange:71.819728,x:7128179.155906,y:15706301.709738,z:19871939.502491,vx:-2522.131348,vy:-585.323425,vz:1354.089600,tb:-0.000313616446
$newmeas,x:7128360.282845,y:15706343.745158,z:19871842.257105,vx:-2522.116699,vy:-585.331177,vz:1354.120850,tb:-0.000313616446
$pseudo_cd_ph,prn:22,pseudo_cd_ph:200914899.975080728531
measnum = 4,full_prange = 23778519.903352
$oldmeas,msRange:79.321224,x:-18397426.944123,y:829308.669998,z:19348860.347423,vx:1269.736084,vy:-2069.143555,vz:1319.836060,tb:-0.000708069768
$newmeas,x:-18397527.655322,y:829472.786824,z:19348755.661238,vx:1269.737183,vy:-2069.127930,vz:1319.868164,tb:-0.000708069767
$pseudo_cd_ph,prn:28,pseudo_cd_ph:200914932.026943475008
measnum = 5,full_prange = 20607917.033279
$oldmeas,msRange:68.745155,x:-10887574.865649,y:21768568.505248,z:11349916.731128,vx:-1060.448853,vy:840.050903,vz:-2768.500000,tb:0.000767800203
$newmeas,x:-10887501.969065,y:21768510.759214,z:11350107.038966,vx:-1060.468628,vy:840.063110,vz:-2768.484131,tb:0.000767800203
$pseudo_cd_ph,prn:30,pseudo_cd_ph:200914939.617092549801
measnum = 6,full_prange = 24064253.771766
$oldmeas,msRange:80.274374,x:-3222808.173611,y:22402905.286378,z:-13717227.565469,vx:-808.201965,vy:-1586.170898,vz:-2415.555176,tb:-0.000112952354
$newmeas,x:-3222743.300052,y:22403032.607067,z:-13717033.668609,vx:-808.187561,vy:-1586.151245,vz:-2415.578857,tb:-0.000112952353
$GNGGA,074817.000,2944.9067,N,10633.0905,E,1,13,1.0,331.1,M,,,,0000*17
$GNRMC,074817.000,A,2944.9067,N,10633.0905,E,0.07,0.00,280519,,*18
$GPGSA,A,3,28,,,,,,,,,,,,1.2,1.0,0.5*3F
$BDGSA,A,3,01,02,03,04,07,08,12,13,19,22,24,26,1.2,1.0,0.5*24
$GLGSA,A,3,,,,,,,,,,,,,1.2,1.0,0.5*29
$GPGSV,3,1,11,03,35,069,42,06,47,242,43,17,54,345,45,19,43,313,45*7A
$GPGSV,3,2,11,22,20,051,41,28,76,115,44,30,15,188,37,24,00,000,38*7A
$GPGSV,3,3,11,01,16,042,00,02,10,235,00,11,08,060,00*40
$BDGSV,3,1,12,01,40,126,40,02,47,220,42,03,55,171,41,04,23,109,39*6C
$BDGSV,3,2,12,07,53,154,42,08,71,343,43,29,20,064,41,12,36,292,40*65
$BDGSV,3,3,12,13,62,265,44,19,30,100,43,22,19,156,40,24,26,305,42*6D
$B3CN0,0,0,0,0,0,0,27,0,0,0,0,0,0,0*79
$ini_pos,lastpos_good = 1,ini_pos.x:-1578912.907392,ini_pos.y:5312777.452095,ini_pos.z:3146358.365423
$rtc_local_time,localRTC.weeks:2055,localRTC.seconds:200915.187536,localGtime.weeks:2055,localGtime.seconds:200916.000000
$pseudo_cd_ph,prn:3,pseudo_cd_ph:200915945.699346572161
measnum = 0,full_prange = 22330800.838323
$oldmeas,msRange:0.000000,x:-20266690.208189,y:8054884.139234,z:15062090.397201,vx:1066.051392,vy:-1613.145020,vz:2299.535645,tb:0.000187157322
$newmeas,x:-20266769.615480,y:8055004.297635,z:15061919.109570,vx:1066.044678,vy:-1613.123779,vz:2299.559570,tb:0.000187157322
$pseudo_cd_ph,prn:6,pseudo_cd_ph:200915948.428287118673
measnum = 1,full_prange = 21514647.767501
$oldmeas,msRange:71.770352,x:5928760.813167,y:25391603.361640,z:4996259.684986,vx:-437.778198,vy:-506.964783,vz:3126.305664,tb:0.000193704262
$newmeas,x:5928792.229946,y:25391639.743158,z:4996035.324948,vx:-437.766083,vy:-506.940247,vz:3126.313232,tb:0.000193704263
$pseudo_cd_ph,prn:17,pseudo_cd_ph:200915948.425102889538
measnum = 2,full_prange = 21476142.650933
$oldmeas,msRange:71.641963,x:-1110418.565531,y:14961493.703245,z:22329034.486038,vx:-2665.981934,vy:-586.578430,vz:256.849243,tb:0.000062080789
$newmeas,x:-1110227.583553,y:14961535.724205,z:22329016.085033,vx:-2665.977051,vy:-586.590027,vz:256.881989,tb:0.000062080789
$pseudo_cd_ph,prn:19,pseudo_cd_ph:200915947.872438609600
measnum = 3,full_prange = 21529196.036574
$oldmeas,msRange:71.818893,x:7125656.922974,y:15705716.440222,z:19873293.374633,vx:-2522.334717,vy:-585.215637,vz:1353.654785,tb:-0.000313616445
$newmeas,x:7125838.060555,y:15705758.466981,z:19873196.162596,vx:-2522.320068,vy:-585.223389,vz:1353.686035,tb:-0.000313616445
$pseudo_cd_ph,prn:22,pseudo_cd_ph:200915899.974478095770
measnum = 4,full_prange = 23778690.899726
$oldmeas,msRange:79.322529,x:-18396157.215585,y:827239.427361,z:19350179.981068,vx:1269.721069,vy:-2069.341797,vz:1319.431396,tb:-0.000708069772
$newmeas,x:-18396257.926324,y:827403.561080,z:19350075.326228,vx:1269.722290,vy:-2069.325928,vz:1319.463501,tb:-0.000708069771
$pseudo_cd_ph,prn:28,pseudo_cd_ph:200915932.027486443520
measnum = 5,full_prange = 20607744.589305
$oldmeas,msRange:68.745314,x:-10888635.170118,y:21769408.467341,z:11347148.114336,vx:-1060.160156,vy:839.873291,vz:-2768.733643,tb:0.000767800206
$newmeas,x:-10888562.293987,y:21769350.733999,z:11347338.436638,vx:-1060.180054,vy:839.885498,vz:-2768.717529,tb:0.000767800206
$pseudo_cd_ph,prn:30,pseudo_cd_ph:200915939.615718305111
measnum = 6,full_prange = 24064656.090317
$oldmeas,msRange:80.276447,x:-3223616.465126,y:22401318.993194,z:-13719642.973001,vx:-808.381165,vy:-1586.415527,vz:-2415.260010,tb:-0.000112952362
$newmeas,x:-3223551.576098,y:22401446.335653,z:-13719449.096581,vx:-808.366760,vy:-1586.395874,vz:-2415.283691,tb:-0.000112952361
$GNGGA,074818.000,2944.9067,N,10633.0905,E,1,13,1.0,331.3,M,,,,0000*1A
$GNRMC,074818.000,A,2944.9067,N,10633.0905,E,0.36,0.00,280519,,*15
$GPGSA,A,3,28,,,,,,,,,,,,1.2,1.0,0.5*3F
$BDGSA,A,3,01,02,03,04,07,08,12,13,19,22,24,26,1.2,1.0,0.5*24
$GLGSA,A,3,,,,,,,,,,,,,1.2,1.0,0.5*29
$GPGSV,3,1,11,03,35,069,43,06,47,242,44,17,54,345,45,19,43,313,45*7C
$GPGSV,3,2,11,22,20,051,41,28,76,115,44,30,15,188,36,24,00,000,38*7B
$GPGSV,3,3,11,01,16,042,00,02,10,235,00,11,08,060,00*40
$BDGSV,3,1,12,01,40,126,41,02,47,220,41,03,55,171,41,04,23,109,39*6E
$BDGSV,3,2,12,07,53,154,42,08,71,343,43,29,20,064,41,12,36,292,41*64
$BDGSV,3,3,12,13,62,265,43,19,30,100,44,22,19,156,40,24,26,305,43*6C
$B3CN0,0,0,0,0,0,0,27,0,0,0,0,0,0,0*79
$ini_pos,lastpos_good = 1,ini_pos.x:-1578913.039406,ini_pos.y:5312777.492002,ini_pos.z:3146358.601177
$rtc_local_time,localRTC.weeks:2055,localRTC.seconds:200916.187536,localGtime.weeks:2055,localGtime.seconds:200917.000000
$pseudo_cd_ph,prn:3,pseudo_cd_ph:200916945.699589997530
measnum = 0,full_prange = 22330718.193638
$oldmeas,msRange:0.000000,x:-20265624.111391,y:8053270.851768,z:15064389.771487,vx:1066.142212,vy:-1613.430054,vz:2299.213135,tb:0.000187157320
$newmeas,x:-20265703.525150,y:8053391.030958,z:15064218.508513,vx:1066.135498,vy:-1613.408813,vz:2299.237061,tb:0.000187157320
$pseudo_cd_ph,prn:6,pseudo_cd_ph:200916948.430176347494
measnum = 1,full_prange = 21514071.720699
$oldmeas,msRange:71.769161,x:5928322.950627,y:25391096.225854,z:4999385.937303,vx:-437.946930,vy:-507.306824,vz:3126.199219,tb:0.000193704252
$newmeas,x:5928354.378673,y:25391132.630943,z:4999161.590914,vx:-437.934814,vy:-507.282257,vz:3126.206787,tb:0.000193704253
$pseudo_cd_ph,prn:17,pseudo_cd_ph:200916948.426109880209
measnum = 2,full_prange = 21475831.098758
$oldmeas,msRange:71.641654,x:-1113084.581783,y:14960907.205876,z:22329291.106673,vx:-2666.050781,vy:-586.416321,vz:256.392059,tb:0.000062080800
$newmeas,x:-1112893.597655,y:14960949.214614,z:22329272.738686,vx:-2666.045654,vy:-586.427917,vz:256.424805,tb:0.000062080799
$pseudo_cd_ph,prn:19,pseudo_cd_ph:200916947.873971819878
measnum = 3,full_prange = 21528726.725015
$oldmeas,msRange:71.818056,x:7123134.486716,y:15705131.278534,z:19874646.811979,vx:-2522.538086,vy:-585.107788,vz:1353.219971,tb:-0.000313616443
$newmeas,x:7123315.634948,y:15705173.296632,z:19874549.633285,vx:-2522.523438,vy:-585.115540,vz:1353.251221,tb:-0.000313616443
$pseudo_cd_ph,prn:22,pseudo_cd_ph:200916899.973869264126
measnum = 4,full_prange = 23778863.754478
$oldmeas,msRange:79.323834,x:-18394887.502007,y:825169.986647,z:19351499.210026,vx:1269.706177,vy:-2069.539795,vz:1319.026611,tb:-0.000708069776
$newmeas,x:-18394988.212289,y:825334.137269,z:19351394.586525,vx:1269.707275,vy:-2069.524170,vz:1319.058716,tb:-0.000708069776
$pseudo_cd_ph,prn:28,pseudo_cd_ph:200916932.028024643660
measnum = 5,full_prange = 20607573.574851
$oldmeas,msRange:68.745473,x:-10889695.185918,y:21770248.251806,z:11344379.263983,vx:-1059.871460,vy:839.695679,vz:-2768.967285,tb:0.000767800210
$newmeas,x:-10889622.330234,y:21770190.531155,z:11344569.600760,vx:-1059.891357,vy:839.707886,vz:-2768.951172,tb:0.000767800210
$pseudo_cd_ph,prn:30,pseudo_cd_ph:200916939.614342570305
measnum = 6,full_prange = 24065058.855593
$oldmeas,msRange:80.278521,x:-3224424.935837,y:22399732.455364,z:-13722058.085483,vx:-808.560364,vy:-1586.660156,vz:-2414.965088,tb:-0.000112952370
$newmeas,x:-3224360.031338,y:22399859.819591,z:-13721864.229504,vx:-808.545959,vy:-1586.640503,vz:-2414.988770,tb:-0.000112952370
$GNGGA,074819.000,2944.9067,N,10633.0906,E,1,13,1.0,331.4,M,,,,0000*1F
$GNRMC,074819.000,A,2944.9067,N,10633.0906,E,0.16,0.00,280519,,*15
$GPGSA,A,3,28,,,,,,,,,,,,1.2,1.0,0.5*3F
$BDGSA,A,3,01,02,03,04,07,08,12,13,19,22,24,26,1.2,1.0,0.5*24
$GLGSA,A,3,,,,,,,,,,,,,1.2,1.0,0.5*29
$GPGSV,3,1,11,03,35,069,43,06,47,242,44,17,54,345,45,19,43,313,44*7D
$GPGSV,3,2,11,22,20,051,42,28,76,115,44,30,15,188,36,24,00,000,38*78
$GPGSV,3,3,11,01,16,042,00,02,10,235,00,11,08,060,00*40
$BDGSV,3,1,12,01,40,126,41,02,47,220,40,03,55,171,43,04,23,109,39*6D
$BDGSV,3,2,12,07,53,154,42,08,71,343,43,29,20,064,41,12,36,292,41*64
$BDGSV,3,3,12,13,62,265,44,19,30,100,43,22,19,156,41,24,26,305,42*6C
$B3CN0,0,0,0,0,0,0,28,0,0,0,0,0,0,0*76
$ini_pos,lastpos_good = 1,ini_pos.x:-1578913.121558,ini_pos.y:5312777.502987,ini_pos.z:3146358.627791
$rtc_local_time,localRTC.weeks:2055,localRTC.seconds:200917.187536,localGtime.weeks:2055,localGtime.seconds:200918.000000
$pseudo_cd_ph,prn:3,pseudo_cd_ph:200917945.699840575457
measnum = 0,full_prange = 22330633.404670
$oldmeas,msRange:0.000000,x:-20264557.923836,y:8051657.279240,z:15066688.823227,vx:1066.232910,vy:-1613.715088,vz:2298.890625,tb:0.000187157319
$newmeas,x:-20264637.344052,y:8051777.479206,z:15066517.584931,vx:1066.226196,vy:-1613.693848,vz:2298.914551,tb:0.000187157319
$pseudo_cd_ph,prn:6,pseudo_cd_ph:200917948.432070285082
measnum = 1,full_prange = 21513494.262245
$oldmeas,msRange:71.767970,x:5927884.919337,y:25390588.748064,z:5002512.083102,vx:-438.115692,vy:-507.648804,vz:3126.092529,tb:0.000193704241
$newmeas,x:5927916.358651,y:25390625.176718,z:5002287.750381,vx:-438.103577,vy:-507.624268,vz:3126.100342,tb:0.000193704242
$pseudo_cd_ph,prn:17,pseudo_cd_ph:200917948.427121579647
measnum = 2,full_prange = 21475518.134929
$oldmeas,msRange:71.641346,x:-1115750.666694,y:14960320.870623,z:22329547.270127,vx:-2666.119385,vy:-586.254211,vz:255.934875,tb:0.000062080811
$newmeas,x:-1115559.680432,y:14960362.867135,z:22329528.935157,vx:-2666.114502,vy:-586.265808,vz:255.967621,tb:0.000062080810
$pseudo_cd_ph,prn:19,pseudo_cd_ph:200917947.875511527061
measnum = 3,full_prange = 21528255.465732
$oldmeas,msRange:71.817221,x:7120611.847190,y:15704546.224714,z:19875999.814498,vx:-2522.741211,vy:-584.999878,vz:1352.785156,tb:-0.000313616442
$newmeas,x:7120793.006052,y:15704588.234145,z:19875902.669158,vx:-2522.726562,vy:-585.007629,vz:1352.816406,tb:-0.000313616442
$pseudo_cd_ph,prn:22,pseudo_cd_ph:200917899.973262876272
measnum = 4,full_prange = 23779035.876600
$oldmeas,msRange:79.325140,x:-18393617.803437,y:823100.347892,z:19352818.034270,vx:1269.691040,vy:-2069.737793,vz:1318.621948,tb:-0.000708069780
$newmeas,x:-18393718.513256,y:823264.515409,z:19352713.442113,vx:1269.692261,vy:-2069.722168,vz:1318.654053,tb:-0.000708069780
$pseudo_cd_ph,prn:28,pseudo_cd_ph:200917932.028568059206
measnum = 5,full_prange = 20607400.996858
$oldmeas,msRange:68.745633,x:-10890754.913057,y:21771087.858585,z:11341610.180126,vx:-1059.582886,vy:839.517944,vz:-2769.200684,tb:0.000767800213
$newmeas,x:-10890682.077826,y:21771030.150633,z:11341800.531357,vx:-1059.602661,vy:839.530151,vz:-2769.184570,tb:0.000767800213
$pseudo_cd_ph,prn:30,pseudo_cd_ph:200917939.612972408533
measnum = 6,full_prange = 24065459.950115
$oldmeas,msRange:80.280593,x:-3225233.585768,y:22398145.672938,z:-13724472.902862,vx:-808.739563,vy:-1586.904785,vz:-2414.669922,tb:-0.000112952379
$newmeas,x:-3225168.665800,y:22398273.058920,z:-13724279.067344,vx:-808.725159,vy:-1586.885132,vz:-2414.693604,tb:-0.000112952378
$GNGGA,074820.000,2944.9068,N,10633.0906,E,1,13,1.0,331.1,M,,,,0000*1F
$GNRMC,074820.000,A,2944.9068,N,10633.0906,E,0.32,0.00,280519,,*16
$GPGSA,A,3,28,,,,,,,,,,,,1.2,1.0,0.5*3F
$BDGSA,A,3,01,02,03,04,07,08,12,13,19,22,24,26,1.2,1.0,0.5*24
$GLGSA,A,3,,,,,,,,,,,,,1.2,1.0,0.5*29
$GPGSV,3,1,11,03,35,069,42,06,47,242,44,17,54,345,44,19,43,313,44*7D
$GPGSV,3,2,11,22,20,051,41,28,76,115,43,30,15,188,35,24,00,000,37*70
$GPGSV,3,3,11,01,16,042,00,02,10,235,00,11,08,060,00*40
$BDGSV,3,1,12,01,40,126,39,02,47,220,39,03,55,171,43,04,23,109,39*6C
$BDGSV,3,2,12,10,78,201,34,07,53,154,42,08,71,343,42,29,20,064,41*65
$BDGSV,3,3,12,12,36,292,41,13,62,265,43,19,30,100,43,22,19,156,40*62
$B3CN0,0,0,0,0,0,0,27,20,0,0,0,0,0,0*4B
$ini_pos,lastpos_good = 1,ini_pos.x:-1578913.057038,ini_pos.y:5312777.277601,ini_pos.z:3146358.596766
$rtc_local_time,localRTC.weeks:2055,localRTC.seconds:200918.187536,localGtime.weeks:2055,localGtime.seconds:200919.000000
$pseudo_cd_ph,prn:3,pseudo_cd_ph:200918945.700094580650
measnum = 0,full_prange = 22330547.588233
$oldmeas,msRange:0.000000,x:-20263491.645585,y:8050043.421663,z:15068987.552373,vx:1066.323608,vy:-1614.000122,vz:2298.567871,tb:0.000187157317
$newmeas,x:-20263571.072249,y:8050163.642400,z:15068816.338766,vx:1066.316895,vy:-1613.978882,vz:2298.592041,tb:0.000187157317
$pseudo_cd_ph,prn:6,pseudo_cd_ph:200918948.433968514204
measnum = 1,full_prange = 21512915.517221
$oldmeas,msRange:71.766780,x:5927446.719257,y:25390080.928304,z:5005638.122317,vx:-438.284515,vy:-507.990753,vz:3125.986084,tb:0.000193704231
$newmeas,x:5927478.169838,y:25390117.380516,z:5005413.803281,vx:-438.272400,vy:-507.966217,vz:3125.993652,tb:0.000193704232
$pseudo_cd_ph,prn:17,pseudo_cd_ph:200918948.428137362003
measnum = 2,full_prange = 21475203.947073
$oldmeas,msRange:71.641039,x:-1118416.820197,y:14959734.697506,z:22329802.976393,vx:-2666.187744,vy:-586.092041,vz:255.477676,tb:0.000062080821
$newmeas,x:-1118225.831819,y:14959776.681788,z:22329784.674442,vx:-2666.182861,vy:-586.103699,vz:255.510437,tb:0.000062080820
$pseudo_cd_ph,prn:19,pseudo_cd_ph:200918947.877054214478
measnum = 3,full_prange = 21527783.312997
$oldmeas,msRange:71.816385,x:7118089.004454,y:15703961.278800,z:19877352.382162,vx:-2522.944336,vy:-584.891968,vz:1352.350220,tb:-0.000313616440
$newmeas,x:7118270.173933,y:15704003.279559,z:19877255.270180,vx:-2522.929932,vy:-584.899719,vz:1352.381470,tb:-0.000313616440
$pseudo_cd_ph,prn:22,pseudo_cd_ph:200918899.972658455372
measnum = 4,full_prange = 23779207.409044
$oldmeas,msRange:79.326447,x:-18392348.119925,y:821030.511128,z:19354136.453773,vx:1269.676025,vy:-2069.935791,vz:1318.217163,tb:-0.000708069784
$newmeas,x:-18392448.829275,y:821194.695533,z:19354031.892967,vx:1269.677246,vy:-2069.920166,vz:1318.249268,tb:-0.000708069784
$pseudo_cd_ph,prn:28,pseudo_cd_ph:200918932.029113739729
measnum = 5,full_prange = 20607227.739842
$oldmeas,msRange:68.745794,x:-10891814.351545,y:21771927.287620,z:11338840.862819,vx:-1059.294189,vy:839.340149,vz:-2769.434082,tb:0.000767800217
$newmeas,x:-10891741.536767,y:21771869.592372,z:11339031.228495,vx:-1059.314087,vy:839.352417,vz:-2769.417969,tb:0.000767800216
$pseudo_cd_ph,prn:30,pseudo_cd_ph:200918939.611610949039
measnum = 6,full_prange = 24065858.435760
$oldmeas,msRange:80.282667,x:-3226042.414941,y:22396558.645970,z:-13726887.425088,vx:-808.918823,vy:-1587.149292,vz:-2414.374756,tb:-0.000112952387
$newmeas,x:-3225977.479508,y:22396686.053690,z:-13726693.610055,vx:-808.904419,vy:-1587.129639,vz:-2414.398438,tb:-0.000112952386
$GNGGA,074821.000,2944.9068,N,10633.0906,E,1,13,1.0,331.5,M,,,,0000*1A
$GNRMC,074821.000,A,2944.9068,N,10633.0906,E,0.21,0.00,280519,,*15
$GPGSA,A,3,28,,,,,,,,,,,,1.2,1.0,0.5*3F
$BDGSA,A,3,01,02,03,04,07,08,12,13,19,22,24,26,1.2,1.0,0.5*24
$GLGSA,A,3,,,,,,,,,,,,,1.2,1.0,0.5*29
$GPGSV,3,1,11,03,35,069,41,06,47,242,43,17,54,345,44,19,43,313,44*79
$GPGSV,3,2,11,22,20,051,41,28,76,115,43,30,15,188,35,24,00,000,37*70
$GPGSV,3,3,11,01,16,042,00,02,10,235,00,11,08,060,00*40
$BDGSV,3,1,12,01,40,126,41,02,47,220,41,03,55,171,41,04,23,109,38*6F
$BDGSV,3,2,12,10,78,201,42,07,53,154,42,08,71,343,43,29,20,064,41*65
$BDGSV,3,3,12,12,36,292,41,13,62,265,43,19,30,100,43,22,19,156,40*62
$B3CN0,0,0,0,0,0,0,27,27,0,0,0,0,0,0*4C
$ini_pos,lastpos_good = 1,ini_pos.x:-1578913.212294,ini_pos.y:5312777.546510,ini_pos.z:3146358.782755
$rtc_local_time,localRTC.weeks:2055,localRTC.seconds:200919.187536,localGtime.weeks:2055,localGtime.seconds:200920.000000
$pseudo_cd_ph,prn:3,pseudo_cd_ph:200919945.700341492891
measnum = 0,full_prange = 22330463.898211
$oldmeas,msRange:0.000000,x:-20262425.276696,y:8048429.279051,z:15071285.958876,vx:1066.414185,vy:-1614.285156,vz:2298.245117,tb:0.000187157316
$newmeas,x:-20262504.709811,y:8048549.520567,z:15071114.769944,vx:1066.407471,vy:-1614.263916,vz:2298.269287,tb:0.000187157316
$pseudo_cd_ph,prn:6,pseudo_cd_ph:200919948.435860008001
measnum = 1,full_prange = 21512338.791397
$oldmeas,msRange:71.765590,x:5927008.350342,y:25389572.766606,z:5008764.054880,vx:-438.453369,vy:-508.332672,vz:3125.879395,tb:0.000193704221
$newmeas,x:5927039.812197,y:25389609.242376,z:5008539.749513,vx:-438.441254,vy:-508.308136,vz:3125.886963,tb:0.000193704221
$pseudo_cd_ph,prn:17,pseudo_cd_ph:200919948.429149329662
measnum = 2,full_prange = 21474890.902834
$oldmeas,msRange:71.640731,x:-1121083.042231,y:14959148.686542,z:22330058.225467,vx:-2666.256348,vy:-585.929871,vz:255.020477,tb:0.000062080832
$newmeas,x:-1120892.051730,y:14959190.658597,z:22330039.956533,vx:-2666.251465,vy:-585.941528,vz:255.053238,tb:0.000062080831
$pseudo_cd_ph,prn:19,pseudo_cd_ph:200919947.878594994545
measnum = 3,full_prange = 21527311.732071
$oldmeas,msRange:71.815549,x:7115565.958564,y:15703376.440830,z:19878704.514939,vx:-2523.147461,vy:-584.783997,vz:1351.915405,tb:-0.000313616439
$newmeas,x:7115747.138660,y:15703418.432917,z:19878607.436314,vx:-2523.133057,vy:-584.791748,vz:1351.946655,tb:-0.000313616439
$pseudo_cd_ph,prn:22,pseudo_cd_ph:200919899.972053647041
measnum = 4,full_prange = 23779379.057637
$oldmeas,msRange:79.327753,x:-18391078.451521,y:818960.476391,z:19355454.468509,vx:1269.660889,vy:-2070.133789,vz:1317.812378,tb:-0.000708069788
$newmeas,x:-18391179.160397,y:819124.677683,z:19355349.939054,vx:1269.662109,vy:-2070.118164,vz:1317.844482,tb:-0.000708069788
$pseudo_cd_ph,prn:28,pseudo_cd_ph:200919932.029657244682
measnum = 5,full_prange = 20607055.135046
$oldmeas,msRange:68.745954,x:-10892873.501389,y:21772766.538853,z:11336071.312117,vx:-1059.005615,vy:839.162354,vz:-2769.667480,tb:0.000767800220
$newmeas,x:-10892800.707061,y:21772708.856312,z:11336261.692240,vx:-1059.025391,vy:839.174561,vz:-2769.651367,tb:0.000767800220
$pseudo_cd_ph,prn:30,pseudo_cd_ph:200919939.610246270895
measnum = 6,full_prange = 24066257.886332
$oldmeas,msRange:80.284739,x:-3226851.423378,y:22394971.374510,z:-13729301.652109,vx:-809.098083,vy:-1587.393799,vz:-2414.079590,tb:-0.000112952395
$newmeas,x:-3226786.472477,y:22395098.803970,z:-13729107.857559,vx:-809.083740,vy:-1587.374146,vz:-2414.103271,tb:-0.000112952395
$GNGGA,074822.000,2944.9069,N,10633.0907,E,1,15,0.9,331.3,M,,,,0000*11
$GNRMC,074822.000,A,2944.9069,N,10633.0907,E,0.15,0.00,280519,,*11
$GPGSA,A,3,28,,,,,,,,,,,,1.0,0.9,0.4*34
$BDGSA,A,3,01,02,03,04,07,08,10,12,13,19,22,24,1.0,0.9,0.4*2A
$GLGSA,A,3,,,,,,,,,,,,,1.0,0.9,0.4*22
$GPGSV,3,1,11,03,35,069,42,06,47,242,43,17,54,345,44,19,43,313,44*7A
$GPGSV,3,2,11,22,20,051,42,28,76,115,43,30,15,188,36,24,00,000,38*7F
$GPGSV,3,3,11,01,16,042,00,02,10,235,00,11,08,060,00*40
$BDGSV,3,1,12,01,40,126,41,02,47,220,40,03,55,171,42,04,23,109,39*6C
$BDGSV,3,2,12,10,78,201,43,07,53,154,42,08,71,343,43,29,20,064,41*64
$BDGSV,3,3,12,12,36,292,41,13,62,265,44,19,30,100,43,22,19,156,40*65
$B3CN0,0,19,0,0,0,0,27,27,0,0,0,0,0,0*74
$ini_pos,lastpos_good = 1,ini_pos.x:-1578913.313457,ini_pos.y:5312777.260955,ini_pos.z:3146358.746163
$rtc_local_time,localRTC.weeks:2055,localRTC.seconds:200920.187536,localGtime.weeks:2055,localGtime.seconds:200921.000000
$pseudo_cd_ph,prn:3,pseudo_cd_ph:200920945.700585275888
measnum = 0,full_prange = 22330381.146312
$oldmeas,msRange:0.000000,x:-20261358.817227,y:8046814.851415,z:15073584.042685,vx:1066.504761,vy:-1614.570190,vz:2297.922607,tb:0.000187157314
$newmeas,x:-20261438.256793,y:8046935.113716,z:15073412.878426,vx:1066.498047,vy:-1614.548950,vz:2297.946533,tb:0.000187157314
$pseudo_cd_ph,prn:6,pseudo_cd_ph:200920948.437752395868
measnum = 1,full_prange = 21511761.797538
$oldmeas,msRange:71.764401,x:5926569.812549,y:25389064.263004,z:5011889.880726,vx:-438.622253,vy:-508.674561,vz:3125.772461,tb:0.000193704210
$newmeas,x:5926601.285680,y:25389100.762328,z:5011665.589035,vx:-438.610138,vy:-508.650024,vz:3125.780273,tb:0.000193704211
$pseudo_cd_ph,prn:17,pseudo_cd_ph:200920948.430160552263
measnum = 2,full_prange = 21474578.081958
$oldmeas,msRange:71.640424,x:-1123749.332730,y:14958562.837751,z:22330313.017342,vx:-2666.324707,vy:-585.767700,vz:254.563278,tb:0.000062080842
$newmeas,x:-1123558.340109,y:14958604.797577,z:22330294.781424,vx:-2666.319824,vy:-585.779358,vz:254.596039,tb:0.000062080842
$pseudo_cd_ph,prn:19,pseudo_cd_ph:200920947.880133658648
measnum = 3,full_prange = 21526840.785496
$oldmeas,msRange:71.814714,x:7113042.709578,y:15702791.710845,z:19880056.212800,vx:-2523.350586,vy:-584.676025,vz:1351.480469,tb:-0.000313616437
$newmeas,x:7113223.900292,y:15702833.694258,z:19879959.167529,vx:-2523.335938,vy:-584.683777,vz:1351.511719,tb:-0.000313616437
$pseudo_cd_ph,prn:22,pseudo_cd_ph:200920899.971454232931
measnum = 4,full_prange = 23779549.089083
$oldmeas,msRange:79.329059,x:-18389808.798274,y:816890.243715,z:19356772.078450,vx:1269.645752,vy:-2070.331787,vz:1317.407593,tb:-0.000708069793
$newmeas,x:-18389909.506666,y:817054.461881,z:19356667.580358,vx:1269.646851,vy:-2070.315918,vz:1317.439697,tb:-0.000708069792
$pseudo_cd_ph,prn:28,pseudo_cd_ph:200920932.030199170113
measnum = 5,full_prange = 20606883.003778
$oldmeas,msRange:68.746115,x:-10893932.362597,y:21773605.612226,z:11333301.528077,vx:-1058.716919,vy:838.984436,vz:-2769.900879,tb:0.000767800224
$newmeas,x:-10893859.588717,y:21773547.942395,z:11333491.922647,vx:-1058.736816,vy:838.996704,vz:-2769.884766,tb:0.000767800223
$pseudo_cd_ph,prn:30,pseudo_cd_ph:200920939.608876973391
measnum = 6,full_prange = 24066658.721754
$oldmeas,msRange:80.286813,x:-3227660.611103,y:22393383.858613,z:-13731715.583874,vx:-809.277405,vy:-1587.638184,vz:-2413.784180,tb:-0.000112952404
$newmeas,x:-3227595.644726,y:22393511.309816,z:-13731521.809800,vx:-809.263000,vy:-1587.618530,vz:-2413.807861,tb:-0.000112952403
$GNGGA,074823.000,2944.9069,N,10633.0908,E,1,15,0.9,331.0,M,,,,0000*1C
$GNRMC,074823.000,A,2944.9069,N,10633.0908,E,0.27,0.00,280519,,*1E
$GPGSA,A,3,28,,,,,,,,,,,,1.0,0.9,0.4*34
$BDGSA,A,3,01,02,03,04,07,08,10,12,13,19,22,24,1.0,0.9,0.4*2A
$GLGSA,A,3,,,,,,,,,,,,,1.0,0.9,0.4*22
$GPGSV,3,1,11,03,35,069,41,06,47,242,44,17,54,345,45,19,43,313,44*7F
$GPGSV,3,2,11,22,20,051,41,28,76,115,43,30,15,188,35,24,00,000,37*70
$GPGSV,3,3,11,01,16,042,00,02,10,235,00,11,08,060,00*40
$BDGSV,3,1,12,01,40,126,41,02,47,220,41,03,55,171,42,04,23,109,40*63
$BDGSV,3,2,12,10,78,201,42,07,53,154,42,08,71,343,43,29,20,064,41*65
$BDGSV,3,3,12,12,36,292,41,13,62,265,44,19,30,100,43,22,19,156,40*65
$B3CN0,0,0,0,0,0,0,23,23,0,0,0,0,0,0*4C
$ini_pos,lastpos_good = 1,ini_pos.x:-1578913.378402,ini_pos.y:5312776.939191,ini_pos.z:3146358.708338
$rtc_local_time,localRTC.weeks:2055,localRTC.seconds:200921.187536,localGtime.weeks:2055,localGtime.seconds:200922.000000
$pseudo_cd_ph,prn:3,pseudo_cd_ph:200921945.700829267502
measnum = 0,full_prange = 22330298.331871
$oldmeas,msRange:0.000000,x:-20260292.267238,y:8045200.138769,z:15075881.803753,vx:1066.595215,vy:-1614.855225,vz:2297.599854,tb:0.000187157313
$newmeas,x:-20260371.713250,y:8045320.421853,z:15075710.664170,vx:1066.588501,vy:-1614.833984,vz:2297.623779,tb:0.000187157313
$pseudo_cd_ph,prn:6,pseudo_cd_ph:200921948.439644575119
measnum = 1,full_prange = 21511184.866220
$oldmeas,msRange:71.763212,x:5926131.105838,y:25388555.417531,z:5015015.599787,vx:-438.791199,vy:-509.016418,vz:3125.665771,tb:0.000193704200
$newmeas,x:5926162.590246,y:25388591.940406,z:5014791.321776,vx:-438.779083,vy:-508.991882,vz:3125.673340,tb:0.000193704201
$pseudo_cd_ph,prn:17,pseudo_cd_ph:200921948.431172281504
