SD initialized success
Create debug.log Failed! 3
bbram_blkflag = 1
rtcflag = 0
BBRAM Block OK: 01 EPHflag: 28250427 12a41adf, rtc 00
Hot-start nowtime:day = 28,minute = 46,seconds = 58.00
GPS 0 Init Dop:  2539, 2
GPS 1 Init Dop: -3555, 2
GPS 2 Init Dop:  -219, 2
GPS 3 Init Dop: 10000,80
GPS 4 Init Dop: 10000,80
GPS 5 Init Dop: -2798, 2
GPS 6 Init Dop: 10000,80
GPS 7 Init Dop: 10000,80
GPS 8 Init Dop: 10000,80
GPS 9 Init Dop: 10000,80
GPS10 Init Dop:  2130, 2
GPS11 Init Dop: 10000,80
GPS12 Init Dop: 10000,80
GPS13 Init Dop: 10000,80
GPS14 Init Dop: 10000,80
GPS15 Init Dop: 10000,80
GPS16 Init Dop: -1378, 2
GPS17 Init Dop: 10000,80
GPS18 Init Dop: -2216, 2
GPS19 Init Dop: 10000,80
GPS20 Init Dop: 10000,80
GPS21 Init Dop:  1131, 2
GPS22 Init Dop: 10000,80
GPS23 Init Dop: 10000,80
GPS24 Init Dop: 10000,80
GPS25 Init Dop: 10000,80
GPS26 Init Dop: 10000,80
GPS27 Init Dop:  -675, 2
GPS28 Init Dop: 10000,80
GPS29 Init Dop:  2380, 2
GPS30 Init Dop: 10000,80
GPS31 Init Dop: 10000,80
BDS 0 Init Dop:  -849, 2
BDS 1 Init Dop:  -915, 2
BDS 2 Init Dop:  -869, 2
BDS 3 Init Dop:  -869, 2
BDS 4 Init Dop:  -897, 2
BDS 5 Init Dop: 10000,80
BDS 6 Init Dop:   -63, 2
BDS 7 Init Dop:  -417, 2
BDS 8 Init Dop: 10000,80
BDS 9 Init Dop:  -577, 2
BDS10 Init Dop: 10000,80
BDS11 Init Dop: -2038, 2
BDS12 Init Dop:  -817, 2
BDS13 Init Dop: 10000,80
BDS14 Init Dop: 10000,80
BDS15 Init Dop: 10000,80
BDS16 Init Dop: 10000,80
BDS17 Init Dop: 10000,80
BDS18 Init Dop: -2209, 2
BDS19 Init Dop: 10000,80
BDS20 Init Dop: 10000,80
BDS21 Init Dop: -3702, 2
BDS22 Init Dop: 10000,80
BDS23 Init Dop: -2408, 2
BDS24 Init Dop: 10000,80
BDS25 Init Dop:   307, 2
BDS26 Init Dop: 10000,80
BDS27 Init Dop: 10000,80
BDS28 Init Dop:  1002, 2
BDS29 Init Dop: 10000,80
BDS30 Init Dop: 10000,80
BDS31 Init Dop: 10000,80
Good luck!
$ini_pos,lastpos_good = 1,ini_pos.x:-1578915.000000,ini_pos.y:5312769.000000,ini_pos.z:3146358.000000
$rtc_local_time,localRTC.weeks:2055,localRTC.seconds:200837.026007,localGtime.weeks:0,localGtime.seconds:19.026011
source<tow,snapshot
$GNGGA,000000.000,,,,,0,00,,,M,,,,0000*2B
$GNRMC,000000.000,A,,,,,,,060180,,*29
$GPGSA,A,1,,,,,,,,,,,,,,,*1E
$BDGSA,A,1,,,,,,,,,,,,,,,*0F
$GLGSA,A,1,,,,,,,,,,,,,,,*02
$B3CN0,0,0,0,0,0,0,0,0,0,0,0,0,0,0*4C
tow update,200838811.518246
$ini_pos,lastpos_good = 1,ini_pos.x:-1578915.000000,ini_pos.y:5312769.000000,ini_pos.z:3146358.000000
$rtc_local_time,localRTC.weeks:2055,localRTC.seconds:200838.026007,localGtime.weeks:2055,localGtime.seconds:200838.811518
source>=tow,snapshot
nits = 3
$GNGGA,074658.205,2943.5575,N,10633.0835,E,1,05,0.0,-1072.7,M,,,,0000*02
$GNRMC,074658.205,A,2943.5575,N,10633.0835,E,0.00,0.00,280519,,*12
$GPGSA,A,3,,,,,,,,,,,,,0.0,0.0,0.0*32
$BDGSA,A,3,01,02,03,04,05,,,,,,,,0.0,0.0,0.0*22
$GLGSA,A,3,,,,,,,,,,,,,0.0,0.0,0.0*2E
$B3CN0,0,0,0,0,0,0,0,0,0,0,0,0,0,0*4C
$ini_pos,lastpos_good = 1,ini_pos.x:-1578915.000000,ini_pos.y:5312769.000000,ini_pos.z:3146358.000000
$rtc_local_time,localRTC.weeks:2055,localRTC.seconds:200839.026007,localGtime.weeks:2055,localGtime.seconds:200839.811518
$pseudo_cd_ph,prn:3,pseudo_cd_ph:2.460865553989
measnum = 0,full_prange = 22257942.844418
$oldmeas,msRange:0.000000,x:-20347643.137678,y:8176958.902012,z:14885959.910146,vx:1058.961670,vy:-1591.389648,vz:2323.962891,tb:0.000187157437
$newmeas,x:-20347721.759502,y:8177077.053157,z:14885787.367792,vx:1058.954590,vy:-1591.368408,vz:2323.986572,tb:0.000187157437
$pseudo_cd_ph,prn:6,pseudo_cd_ph:5.064536489000
measnum = 1,full_prange = 21479344.863643
$oldmeas,msRange:71.861916,x:5961627.992260,y:25429233.110458,z:4757767.153215,vx:-425.049530,vy:-480.810425,vz:3134.222656,tb:0.000193705052
$newmeas,x:5961658.445522,y:25429267.558381,z:4757542.594100,vx:-425.037689,vy:-480.785736,vz:3134.229980,tb:0.000193705053
$pseudo_cd_ph,prn:17,pseudo_cd_ph:5.129347188731
measnum = 2,full_prange = 21420454.903416
$oldmeas,msRange:71.665548,x:-907505.615531,y:15006653.283318,z:22308139.061640,vx:-2660.560547,vy:-598.872925,vz:291.664459,tb:0.000062079983
$newmeas,x:-907315.516147,y:15006696.073766,z:22308118.220773,vx:-2660.555420,vy:-598.884399,vz:291.697083,tb:0.000062079982
$pseudo_cd_ph,prn:19,pseudo_cd_ph:4.536261930494
measnum = 3,full_prange = 21485626.400549
$oldmeas,msRange:71.882844,x:7317235.441238,y:15750613.199018,z:19768900.776602,vx:-2506.677979,vy:-593.317078,vz:1386.693237,tb:-0.000313616562
$newmeas,x:7317415.090142,y:15750655.721336,z:19768801.393500,vx:-2506.663086,vy:-593.324585,vz:1386.724121,tb:-0.000313616562
$pseudo_cd_ph,prn:22,pseudo_cd_ph:16.801120940774
measnum = 4,full_prange = 23686309.325153
$oldmeas,msRange:79.223882,x:-18492935.103501,y:984322.018550,z:19248481.956127,vx:1270.716919,vy:-2054.151123,vz:1350.185425,tb:-0.000708069456
$newmeas,x:-18493035.501639,y:984484.314407,z:19248375.278035,vx:1270.717773,vy:-2054.135498,vz:1350.217285,tb:-0.000708069455
$pseudo_cd_ph,prn:28,pseudo_cd_ph:8.766598609186
measnum = 5,full_prange = 20541603.876202
$oldmeas,msRange:68.734105,x:-10807024.772145,y:21704908.529221,z:11557411.777327,vx:-1082.176392,vy:853.238281,vz:-2750.778564,tb:0.000767799942
$newmeas,x:-10806950.621373,y:21704850.065428,z:11557600.258506,vx:-1082.196167,vy:853.250122,vz:-2750.762207,tb:0.000767799942
$pseudo_cd_ph,prn:30,pseudo_cd_ph:16.501815020281
measnum = 6,full_prange = 23954450.788360
$oldmeas,msRange:80.118441,x:-3162545.539406,y:22521471.694494,z:-13534775.454903,vx:-794.794922,vy:-1567.625122,vz:-2437.589111,tb:-0.000112951726
$newmeas,x:-3162482.033117,y:22521596.952353,z:-13534580.682204,vx:-794.780762,vy:-1567.605225,vz:-2437.612305,tb:-0.000112951725
source>=tow,snapshot
nits = 2
$GNGGA,074701.733,2944.9056,N,10633.0858,E,1,21,0.0,322.1,M,,,,0000*11
$GNRMC,074701.733,A,2944.9056,N,10633.0858,E,0.00,0.00,280519,,*1B
$GPGSA,A,3,03,06,17,19,22,28,30,,,,,,0.0,0.0,0.0*30
$BDGSA,A,3,01,02,03,04,05,07,08,10,12,13,19,22,0.0,0.0,0.0*25
$GLGSA,A,3,,,,,,,,,,,,,0.0,0.0,0.0*2E
$GPGSV,2,1,07,03,00,000,26,06,00,000,26,17,00,000,26,19,00,000,26*76
$GPGSV,2,2,07,22,00,000,25,28,00,000,25,30,00,000,25*40
$BDGSV,3,1,12,01,00,000,41,02,00,000,38,03,00,000,43,04,00,000,40*60
$BDGSV,3,2,12,05,00,000,34,07,00,000,24,08,00,000,24,10,00,000,24*60
$BDGSV,3,3,12,12,00,000,24,13,00,000,24,19,00,000,23,22,00,000,23*62
$B3CN0,0,0,0,0,0,0,0,0,0,0,0,0,0,0*4C
$ini_pos,lastpos_good = 1,ini_pos.x:-1578903.779547,ini_pos.y:5312772.978417,ini_pos.z:3146352.273978
$rtc_local_time,localRTC.weeks:2055,localRTC.seconds:200840.026007,localGtime.weeks:2055,localGtime.seconds:200840.811518
$pseudo_cd_ph,prn:3,pseudo_cd_ph:2.461143113301
measnum = 0,full_prange = 22257849.969717
$oldmeas,msRange:0.000000,x:-20346584.128387,y:8175367.369472,z:14888283.713587,vx:1059.057007,vy:-1591.675537,vz:2323.644043,tb:0.000187157436
$newmeas,x:-20346662.756957,y:8175485.541358,z:14888111.195618,vx:1059.049927,vy:-1591.654297,vz:2323.667725,tb:0.000187157436
$pseudo_cd_ph,prn:6,pseudo_cd_ph:5.066438027957
measnum = 1,full_prange = 21478765.126887
$oldmeas,msRange:71.860681,x:5961202.860027,y:25428752.127799,z:4760901.325164,vx:-425.214966,vy:-481.154938,vz:3134.121338,tb:0.000193705042
$newmeas,x:5961233.324320,y:25428786.599475,z:4760676.779374,vx:-425.203125,vy:-481.130249,vz:3134.128662,tb:0.000193705043
$pseudo_cd_ph,prn:17,pseudo_cd_ph:5.130370019818
measnum = 2,full_prange = 21420138.598081
$oldmeas,msRange:71.665247,x:-910166.212813,y:15006054.490724,z:22308430.497715,vx:-2660.634033,vy:-598.712280,vz:291.207703,tb:0.000062079993
$newmeas,x:-909976.110980,y:15006097.269063,z:22308409.689789,vx:-2660.628906,vy:-598.723755,vz:291.240356,tb:0.000062079992
$pseudo_cd_ph,prn:19,pseudo_cd_ph:4.537814672625
measnum = 3,full_prange = 21485151.227953
$oldmeas,msRange:71.881995,x:7314728.659521,y:15750019.934373,z:19770287.253492,vx:-2506.885498,vy:-593.212219,vz:1386.260742,tb:-0.000313616560
$newmeas,x:7314908.319333,y:15750062.448235,z:19770187.903583,vx:-2506.870850,vy:-593.219727,vz:1386.291626,tb:-0.000313616560
$pseudo_cd_ph,prn:22,pseudo_cd_ph:16.800539980653
measnum = 4,full_prange = 23686473.826132
$oldmeas,msRange:79.225208,x:-18491664.392215,y:982267.767045,z:19249831.940232,vx:1270.705688,vy:-2054.351807,vz:1349.782837,tb:-0.000708069460
$newmeas,x:-18491764.790165,y:982430.079883,z:19249725.293212,vx:1270.706665,vy:-2054.335938,vz:1349.814697,tb:-0.000708069459
$pseudo_cd_ph,prn:28,pseudo_cd_ph:8.767163788468
measnum = 5,full_prange = 20541424.776033
$oldmeas,msRange:68.734254,x:-10808106.803857,y:21705761.680832,z:11554660.879986,vx:-1081.887085,vy:853.065002,vz:-2751.016357,tb:0.000767799946
$newmeas,x:-10808032.673552,y:21705703.229419,z:11554849.375812,vx:-1081.906982,vy:853.076904,vz:-2751.000000,tb:0.000767799945
$pseudo_cd_ph,prn:30,pseudo_cd_ph:16.500433406289
measnum = 6,full_prange = 23954855.313732
$oldmeas,msRange:80.120496,x:-3163340.423048,y:22519903.945112,z:-13537212.898349,vx:-794.972412,vy:-1567.873779,vz:-2437.297852,tb:-0.000112951734
$newmeas,x:-3163276.901507,y:22520029.224949,z:-13537018.145622,vx:-794.958191,vy:-1567.853882,vz:-2437.321289,tb:-0.000112951734
$GNGGA,074702.737,2944.8827,N,10633.0814,E,1,05,153.8,297.7,M,,,,0000*11
$GNRMC,074702.737,A,2944.8827,N,10633.0814,E,51.71,0.00,280519,,*29
$GPGSA,A,3,,,,,,,,,,,,,176.6,153.8,86.8*0D
$BDGSA,A,3,01,02,03,04,05,,,,,,,,176.6,153.8,86.8*1D
$GLGSA,A,3,,,,,,,,,,,,,176.6,153.8,86.8*11
$GPGSV,3,1,10,03,35,070,41,06,46,241,44,17,54,344,45,19,43,313,44*75
$GPGSV,3,2,10,22,21,051,41,28,77,113,43,30,15,188,38,01,16,042,00*78
$GPGSV,3,3,10,02,10,235,00,11,08,059,00*7B
$BDGSV,3,1,12,01,40,126,41,02,47,220,39,03,56,171,43,04,23,109,41*6F
$BDGSV,3,2,12,05,28,245,33,07,53,153,43,08,71,343,44,10,78,201,42*66
$BDGSV,3,3,12,12,36,291,41,13,62,265,43,19,30,101,44,22,19,157,40*66
$B3CN0,0,0,0,0,0,0,0,0,0,0,0,0,0,0*4C
$ini_pos,lastpos_good = 1,ini_pos.x:-1578903.779547,ini_pos.y:5312772.978417,ini_pos.z:3146352.273978
$rtc_local_time,localRTC.weeks:2055,localRTC.seconds:200841.289273,localGtime.weeks:2055,localGtime.seconds:200842.000000
$pseudo_cd_ph,prn:3,pseudo_cd_ph:5.727468518568
measnum = 0,full_prange = 22322441.081818
$oldmeas,msRange:0.000000,x:-20345325.391252,y:8173475.490055,z:14891045.097149,vx:1059.170044,vy:-1592.015503,vz:2323.265137,tb:0.000187157434
$newmeas,x:-20345404.256422,y:8173594.030176,z:14890872.106752,vx:1059.162964,vy:-1591.994141,vz:2323.289062,tb:0.000187157434
$pseudo_cd_ph,prn:6,pseudo_cd_ph:8.334823190758
measnum = 1,full_prange = 21542738.736005
$oldmeas,msRange:71.859241,x:5960697.382909,y:25428180.040654,z:4764626.099605,vx:-425.411652,vy:-481.564331,vz:3134.000732,tb:0.000193705030
$newmeas,x:5960727.952070,y:25428214.644419,z:4764400.893681,vx:-425.399750,vy:-481.539581,vz:3134.008057,tb:0.000193705030
$pseudo_cd_ph,prn:17,pseudo_cd_ph:8.397634922001
measnum = 2,full_prange = 21484448.062956
$oldmeas,msRange:71.664877,x:-913328.379919,y:15005343.045538,z:22308776.270201,vx:-2660.721436,vy:-598.521362,vz:290.664886,tb:0.000062080006
$newmeas,x:-913137.701086,y:15005385.938627,z:22308755.438702,vx:-2660.716309,vy:-598.532837,vz:290.697601,tb:0.000062080005
$pseudo_cd_ph,prn:19,pseudo_cd_ph:7.805751535783
measnum = 3,full_prange = 21549259.243173
$oldmeas,msRange:71.880994,x:7311749.125045,y:15749314.986515,z:19771934.493595,vx:-2507.132324,vy:-593.087585,vz:1385.746582,tb:-0.000313616559
$newmeas,x:7311929.338663,y:15749357.618271,z:19771834.884189,vx:-2507.117432,vy:-593.095093,vz:1385.777710,tb:-0.000313616559
$pseudo_cd_ph,prn:22,pseudo_cd_ph:0.065783630252
measnum = 4,full_prange = 23751389.242188
$oldmeas,msRange:79.226734,x:-18490154.189560,y:979826.065556,z:19251435.848153,vx:1270.692383,vy:-2054.590332,vz:1349.304321,tb:-0.000708069465
$newmeas,x:-18490254.861602,y:979988.842119,z:19251328.946765,vx:1270.693237,vy:-2054.574463,vz:1349.336182,tb:-0.000708069464
$pseudo_cd_ph,prn:28,pseudo_cd_ph:12.033856329447
measnum = 5,full_prange = 20605905.825671
$oldmeas,msRange:68.734416,x:-10809392.402704,y:21706775.410675,z:11551391.179379,vx:-1081.543335,vy:852.859070,vz:-2751.298828,tb:0.000767799950
$newmeas,x:-10809318.063325,y:21706716.789934,z:11551580.286322,vx:-1081.563232,vy:852.870972,vz:-2751.282471,tb:0.000767799950
$pseudo_cd_ph,prn:30,pseudo_cd_ph:19.764668782552
measnum = 6,full_prange = 24020073.000687
$oldmeas,msRange:80.122962,x:-3164285.358594,y:22518040.380241,z:-13540109.376926,vx:-795.183350,vy:-1568.169067,vz:-2436.951904,tb:-0.000112951744
$newmeas,x:-3164221.647216,y:22518166.024819,z:-13539914.121704,vx:-795.169128,vy:-1568.149170,vz:-2436.975342,tb:-0.000112951743
$GNGGA,074704.000,2944.9052,N,10633.0857,E,1,14,1.0,324.2,M,,,,0000*1A
$GNRMC,074704.000,A,2944.9052,N,10633.0857,E,0.38,0.00,280519,,*19
$GPGSA,A,3,,,,,,,,,,,,,1.6,1.0,1.3*36
$BDGSA,A,3,01,02,03,04,05,07,08,10,12,13,19,22,1.6,1.0,1.3*21
$GLGSA,A,3,,,,,,,,,,,,,1.6,1.0,1.3*2A
$GPGSV,3,1,10,03,35,070,42,06,46,241,43,17,54,344,44,19,43,313,44*70
$GPGSV,3,2,10,22,21,051,42,28,77,113,43,30,15,188,38,01,16,042,00*7B
$GPGSV,3,3,10,02,10,235,00,11,08,059,00*7B
$BDGSV,3,1,12,01,40,126,41,02,47,220,39,03,55,171,42,04,23,109,40*6C
$BDGSV,3,2,12,05,28,245,35,07,53,153,41,08,71,343,43,10,78,201,42*65
$BDGSV,3,3,12,12,36,291,41,13,62,265,43,19,30,101,43,22,19,157,40*61
$B3CN0,0,0,0,0,0,0,0,0,0,0,0,0,0,0*4C
$ini_pos,lastpos_good = 1,ini_pos.x:-1578904.225212,ini_pos.y:5312775.125503,ini_pos.z:3146352.638669
$rtc_local_time,localRTC.weeks:2055,localRTC.seconds:200842.289273,localGtime.weeks:2055,localGtime.seconds:200843.000000
$pseudo_cd_ph,prn:3,pseudo_cd_ph:5.727753312007
measnum = 0,full_prange = 22322346.036030
$oldmeas,msRange:0.000000,x:-20344266.173613,y:8171883.331635,z:14893368.202882,vx:1059.265259,vy:-1592.301514,vz:2322.946289,tb:0.000187157432
$newmeas,x:-20344345.045531,y:8172001.892545,z:14893195.236964,vx:1059.258179,vy:-1592.280151,vz:2322.970215,tb:0.000187157432
$pseudo_cd_ph,prn:6,pseudo_cd_ph:8.336736058210
measnum = 1,full_prange = 21542155.604134
$oldmeas,msRange:71.858023,x:5960271.888499,y:25427698.304127,z:4767760.049462,vx:-425.577209,vy:-481.908752,vz:3133.899170,tb:0.000193705019
$newmeas,x:5960302.468728,y:25427732.931705,z:4767534.856932,vx:-425.565308,vy:-481.884003,vz:3133.906494,tb:0.000193705020
$pseudo_cd_ph,prn:17,pseudo_cd_ph:8.398656723902
measnum = 2,full_prange = 21484132.070329
$oldmeas,msRange:71.664562,x:-915989.138029,y:15004744.604548,z:22309066.706691,vx:-2660.794922,vy:-598.360657,vz:290.208130,tb:0.000062080016
$newmeas,x:-915798.456739,y:15004787.485491,z:22309045.908232,vx:-2660.789551,vy:-598.372192,vz:290.240845,tb:0.000062080016
$pseudo_cd_ph,prn:19,pseudo_cd_ph:7.807303099572
measnum = 3,full_prange = 21548784.427957
$oldmeas,msRange:71.880148,x:7309241.889055,y:15748721.951429,z:19773320.023913,vx:-2507.339844,vy:-592.982605,vz:1385.314087,tb:-0.000313616557
$newmeas,x:7309422.113618,y:15748764.574703,z:19773220.447794,vx:-2507.324951,vy:-592.990173,vz:1385.345215,tb:-0.000313616557
$pseudo_cd_ph,prn:22,pseudo_cd_ph:0.065201350088
measnum = 4,full_prange = 23751554.136286
$oldmeas,msRange:79.228017,x:-18488883.502906,y:977771.374995,z:19252784.951033,vx:1270.681030,vy:-2054.791016,vz:1348.901611,tb:-0.000708069469
$newmeas,x:-18488984.174752,y:977934.168580,z:19252678.080808,vx:1270.681885,vy:-2054.775146,vz:1348.933472,tb:-0.000708069469
$pseudo_cd_ph,prn:28,pseudo_cd_ph:12.034424834937
measnum = 5,full_prange = 20605725.724836
$oldmeas,msRange:68.734545,x:-10810473.801402,y:21707628.183022,z:11548639.761879,vx:-1081.254150,vy:852.685669,vz:-2751.536377,tb:0.000767799953
$newmeas,x:-10810399.482553,y:21707569.574709,z:11548828.883501,vx:-1081.274048,vy:852.697632,vz:-2751.520020,tb:0.000767799953
$pseudo_cd_ph,prn:30,pseudo_cd_ph:19.763298892322
measnum = 6,full_prange = 24020474.014797
$oldmeas,msRange:80.125033,x:-3165080.630642,y:22516472.086968,z:-13542546.183133,vx:-795.360840,vy:-1568.417603,vz:-2436.660645,tb:-0.000112951752
$newmeas,x:-3165016.903978,y:22516597.753552,z:-13542350.947987,vx:-795.346619,vy:-1568.397705,vz:-2436.684082,tb:-0.000112951752
$GNGGA,074705.000,2944.9069,N,10633.0885,E,1,14,1.0,326.6,M,,,,0000*1A
$GNRMC,074705.000,A,2944.9069,N,10633.0885,E,0.40,0.00,280519,,*10
$GPGSA,A,3,,,,,,,,,,,,,1.6,1.0,1.3*36
$BDGSA,A,3,01,02,03,04,05,07,08,10,12,13,19,22,1.6,1.0,1.3*21
$GLGSA,A,3,,,,,,,,,,,,,1.6,1.0,1.3*2A
$GPGSV,3,1,10,03,35,070,42,06,46,241,44,17,54,344,44,19,43,313,44*77
$GPGSV,3,2,10,22,21,051,42,28,77,113,43,30,15,188,38,01,16,042,17*7D
$GPGSV,3,3,10,02,10,235,00,11,08,059,00*7B
$BDGSV,3,1,12,01,40,126,40,02,47,220,41,03,55,171,42,04,23,109,41*63
$BDGSV,3,2,12,05,28,245,36,07,53,153,42,08,71,343,43,10,78,201,42*65
$BDGSV,3,3,12,12,36,291,41,13,62,265,43,19,30,101,43,22,19,157,40*61
$B3CN0,0,0,0,0,0,0,0,0,0,0,0,0,0,0*4C
$ini_pos,lastpos_good = 1,ini_pos.x:-1578908.656026,ini_pos.y:5312774.364298,ini_pos.z:3146356.483920
$rtc_local_time,localRTC.weeks:2055,localRTC.seconds:200843.289273,localGtime.weeks:2055,localGtime.seconds:200844.000000
$pseudo_cd_ph,prn:3,pseudo_cd_ph:5.728037292540
measnum = 0,full_prange = 22322251.231475
$oldmeas,msRange:0.000000,x:-20343206.860864,y:8170290.887245,z:14895690.989727,vx:1059.360352,vy:-1592.587402,vz:2322.627441,tb:0.000187157431
$newmeas,x:-20343285.739527,y:8170409.468944,z:14895518.048289,vx:1059.353271,vy:-1592.566162,vz:2322.651123,tb:0.000187157431
$pseudo_cd_ph,prn:6,pseudo_cd_ph:8.338651036237
measnum = 1,full_prange = 21541571.837914
$oldmeas,msRange:71.856819,x:5959846.228528,y:25427216.223181,z:4770893.897732,vx:-425.742767,vy:-482.253174,vz:3133.797607,tb:0.000193705009
$newmeas,x:5959876.819826,y:25427250.874568,z:4770668.718606,vx:-425.730865,vy:-482.228424,vz:3133.804932,tb:0.000193705010
$pseudo_cd_ph,prn:17,pseudo_cd_ph:8.399677198304
measnum = 2,full_prange = 21483816.479755
$oldmeas,msRange:71.664242,x:-918649.969525,y:15004146.324250,z:22309356.686424,vx:-2660.868164,vy:-598.199951,vz:289.751373,tb:0.000062080027
$newmeas,x:-918459.285780,y:15004189.193047,z:22309335.921002,vx:-2660.863037,vy:-598.211487,vz:289.784088,tb:0.000062080026
$pseudo_cd_ph,prn:19,pseudo_cd_ph:7.808857631590
measnum = 3,full_prange = 21548308.728224
$oldmeas,msRange:71.879303,x:7306734.445580,y:15748129.021300,z:19774705.121659,vx:-2507.547363,vy:-592.877686,vz:1384.881470,tb:-0.000313616555
$newmeas,x:7306914.681076,y:15748171.636088,z:19774605.578831,vx:-2507.532471,vy:-592.885193,vz:1384.912598,tb:-0.000313616556
$pseudo_cd_ph,prn:22,pseudo_cd_ph:0.064619621806
measnum = 4,full_prange = 23751718.860627
$oldmeas,msRange:79.229282,x:-18487612.827588,y:975716.483868,z:19254133.651205,vx:1270.669678,vy:-2054.991455,vz:1348.498901,tb:-0.000708069473
$newmeas,x:-18487713.499232,y:975879.294471,z:19254026.812144,vx:1270.670532,vy:-2054.975586,vz:1348.530762,tb:-0.000708069473
$pseudo_cd_ph,prn:28,pseudo_cd_ph:12.034995010988
measnum = 5,full_prange = 20605545.123668
$oldmeas,msRange:68.734671,x:-10811554.910863,y:21708480.781976,z:11545888.106785,vx:-1080.964844,vy:852.512268,vz:-2751.773926,tb:0.000767799957
$newmeas,x:-10811480.612545,y:21708422.186097,z:11546077.243079,vx:-1080.984741,vy:852.524170,vz:-2751.757568,tb:0.000767799957
$pseudo_cd_ph,prn:30,pseudo_cd_ph:19.761929919410
measnum = 6,full_prange = 24020874.751936
$oldmeas,msRange:80.127118,x:-3165876.080205,y:22514903.545252,z:-13544982.698080,vx:-795.538330,vy:-1568.666016,vz:-2436.369385,tb:-0.000112951761
$newmeas,x:-3165812.338254,y:22515029.233837,z:-13544787.483016,vx:-795.524109,vy:-1568.646118,vz:-2436.392822,tb:-0.000112951760
$pseudo_cd_ph,prn:1,pseudo_cd_ph:0.162212584375
measnum = 7,full_prange = 23926669.608843
$oldmeas,msRange:79.813072,x:-15762480.462094,y:-1428683.932674,z:21199014.226326,vx:-880.192810,vy:-2578.790283,vz:-789.634338,tb:-0.000026903643
$newmeas,x:-15762410.213603,y:-1428478.116929,z:21199077.246204,vx:-880.183167,vy:-2578.802490,vz:-789.597900,tb:-0.000026903642
$GNGGA,074706.000,2944.9068,N,10633.0886,E,1,14,1.0,326.6,M,,,,0000*1B
$GNRMC,074706.000,A,2944.9068,N,10633.0886,E,0.41,0.00,280519,,*10
$GPGSA,A,3,,,,,,,,,,,,,1.6,1.0,1.3*36
$BDGSA,A,3,01,02,03,04,05,07,08,10,12,13,19,22,1.6,1.0,1.3*21
$GLGSA,A,3,,,,,,,,,,,,,1.6,1.0,1.3*2A
$GPGSV,3,1,10,03,35,070,42,06,46,241,44,17,54,344,44,19,43,313,44*77
$GPGSV,3,2,10,22,21,051,41,28,77,113,43,30,15,188,37,01,16,042,31*75
$GPGSV,3,3,10,11,08,059,26,02,10,235,00*7F
$BDGSV,3,1,12,01,40,126,41,02,47,220,41,03,55,171,45,04,23,109,40*64
$BDGSV,3,2,12,05,28,245,34,07,53,153,42,08,71,343,43,10,78,201,42*67
$BDGSV,3,3,12,12,36,291,41,13,62,265,43,19,30,101,43,22,19,157,40*61
$B3CN0,19,0,0,0,0,0,0,0,0,0,0,0,0,0*74
$ini_pos,lastpos_good = 1,ini_pos.x:-1578908.928975,ini_pos.y:5312774.416340,ini_pos.z:3146356.291906
$rtc_local_time,localRTC.weeks:2055,localRTC.seconds:200844.289273,localGtime.weeks:2055,localGtime.seconds:200845.000000
$pseudo_cd_ph,prn:3,pseudo_cd_ph:5.728316753607
measnum = 0,full_prange = 22322157.784965
$oldmeas,msRange:0.000000,x:-20342147.453066,y:8168698.156897,z:14898013.457634,vx:1059.455322,vy:-1592.873413,vz:2322.308594,tb:0.000187157429
$newmeas,x:-20342226.338474,y:8168816.759391,z:14897840.540669,vx:1059.448242,vy:-1592.852051,vz:2322.332275,tb:0.000187157429
$pseudo_cd_ph,prn:6,pseudo_cd_ph:8.340564903043
measnum = 1,full_prange = 21540988.402270
$oldmeas,msRange:71.855609,x:5959420.402952,y:25426733.797847,z:4774027.644347,vx:-425.908417,vy:-482.597534,vz:3133.695801,tb:0.000193704998
$newmeas,x:5959451.005322,y:25426768.473040,z:4773802.478626,vx:-425.896515,vy:-482.572784,vz:3133.703125,tb:0.000193704999
$pseudo_cd_ph,prn:17,pseudo_cd_ph:8.400695838071
measnum = 2,full_prange = 21483501.434186
$oldmeas,msRange:71.663931,x:-921310.874345,y:15003548.204665,z:22309646.209392,vx:-2660.941650,vy:-598.039246,vz:289.294586,tb:0.000062080037
$newmeas,x:-921120.188143,y:15003591.061315,z:22309625.477008,vx:-2660.936279,vy:-598.050781,vz:289.327332,tb:0.000062080037
$pseudo_cd_ph,prn:19,pseudo_cd_ph:7.810410977808
measnum = 3,full_prange = 21547833.376938
$oldmeas,msRange:71.878462,x:7304226.794677,y:15747536.196168,z:19776089.786800,vx:-2507.754639,vy:-592.772644,vz:1384.448853,tb:-0.000313616554
$newmeas,x:7304407.041104,y:15747578.802468,z:19775990.277263,vx:-2507.739746,vy:-592.780212,vz:1384.479980,tb:-0.000313616554
$pseudo_cd_ph,prn:22,pseudo_cd_ph:0.064043173692
measnum = 4,full_prange = 23751882.012495
$oldmeas,msRange:79.230567,x:-18486342.163654,y:973661.392207,z:19255481.948640,vx:1270.658325,vy:-2055.191895,vz:1348.096069,tb:-0.000708069477
$newmeas,x:-18486442.835086,y:973824.219815,z:19255375.140755,vx:1270.659180,vy:-2055.176025,vz:1348.128052,tb:-0.000708069477
$pseudo_cd_ph,prn:28,pseudo_cd_ph:12.035564135480
measnum = 5,full_prange = 20605364.844142
$oldmeas,msRange:68.734808,x:-10812635.731095,y:21709333.207480,z:11543136.214154,vx:-1080.675659,vy:852.338806,vz:-2752.011475,tb:0.000767799960
$newmeas,x:-10812561.453306,y:21709274.624036,z:11543325.365117,vx:-1080.695557,vy:852.350708,vz:-2751.995117,tb:0.000767799960
$pseudo_cd_ph,prn:30,pseudo_cd_ph:19.760562109924
measnum = 6,full_prange = 24021275.140630
$oldmeas,msRange:80.129193,x:-3166671.707307,y:22513334.755146,z:-13547418.921713,vx:-795.715881,vy:-1568.914307,vz:-2436.078125,tb:-0.000112951769
$newmeas,x:-3166607.950066,y:22513460.465727,z:-13547223.726739,vx:-795.701660,vy:-1568.894409,vz:-2436.101318,tb:-0.000112951768
$pseudo_cd_ph,prn:1,pseudo_cd_ph:0.160691500875
measnum = 7,full_prange = 23927115.947078
$oldmeas,msRange:79.815249,x:-15763360.715213,y:-1431262.647121,z:21198224.363848,vx:-880.313477,vy:-2578.638672,vz:-790.090698,tb:-0.000026903653
$newmeas,x:-15763290.455783,y:-1431056.839631,z:21198287.421322,vx:-880.303833,vy:-2578.650879,vz:-790.054260,tb:-0.000026903652
$pseudo_cd_ph,prn:11,pseudo_cd_ph:17.886084331911
measnum = 8,full_prange = 24438034.733867
$oldmeas,msRange:81.519367,x:-20758957.032326,y:-3390491.212920,z:15541504.899273,vx:-1273.739624,vy:-1696.312866,vz:-2029.023071,tb:-0.000597269207
$newmeas,x:-20758853.201173,y:-3390352.934604,z:15541670.297004,vx:-1273.748169,vy:-1696.332764,vz:-2028.994873,tb:-0.000597269207
$GNGGA,074707.000,2944.9069,N,10633.0888,E,1,14,1.0,326.8,M,,,,0000*1B
$GNRMC,074707.000,A,2944.9069,N,10633.0888,E,0.35,0.00,280519,,*1D
$GPGSA,A,3,,,,,,,,,,,,,1.6,1.0,1.3*36
$BDGSA,A,3,01,02,03,04,05,07,08,10,12,13,19,22,1.6,1.0,1.3*21
$GLGSA,A,3,,,,,,,,,,,,,1.6,1.0,1.3*2A
$GPGSV,3,1,11,03,35,070,42,06,46,241,44,17,54,344,44,19,43,313,43*71
$GPGSV,3,2,11,22,21,051,41,28,77,113,43,30,15,188,38,01,16,042,33*79
$GPGSV,3,3,11,11,08,059,34,24,00,000,29,02,10,235,00*40
$BDGSV,3,1,12,01,40,126,40,02,47,220,40,03,55,171,42,04,23,109,39*6D
$BDGSV,3,2,12,05,28,245,34,07,53,153,42,08,71,343,43,10,78,201,42*67
$BDGSV,3,3,12,12,36,291,41,13,62,265,43,19,30,101,44,22,19,157,40*66
$B3CN0,0,36,0,0,0,0,0,0,0,0,0,0,0,0*79
$ini_pos,lastpos_good = 1,ini_pos.x:-1578909.184502,ini_pos.y:5312774.414128,ini_pos.z:3146356.530733
$rtc_local_time,localRTC.weeks:2055,localRTC.seconds:200845.289273,localGtime.weeks:2055,localGtime.seconds:200846.000000
$pseudo_cd_ph,prn:3,pseudo_cd_ph:200845925.728594005108
measnum = 0,full_prange = 22322064.999609
$oldmeas,msRange:0.000000,x:-20341087.950276,y:8167105.140604,z:14900335.606553,vx:1059.550293,vy:-1593.159302,vz:2321.989502,tb:0.000187157428
$newmeas,x:-20341166.842427,y:8167223.763895,z:14900162.714060,vx:1059.543213,vy:-1593.138062,vz:2322.013184,tb:0.000187157428
$pseudo_cd_ph,prn:6,pseudo_cd_ph:200845928.342481255531
measnum = 1,full_prange = 21540404.225061
$oldmeas,msRange:71.854399,x:5958994.411728,y:25426251.028159,z:4777161.289240,vx:-426.074066,vy:-482.941864,vz:3133.593994,tb:0.000193704988
$newmeas,x:5959025.025172,y:25426285.727153,z:4776936.136936,vx:-426.062164,vy:-482.917145,vz:3133.601318,tb:0.000193704989
$pseudo_cd_ph,prn:17,pseudo_cd_ph:200845928.401713907719
measnum = 2,full_prange = 21483186.558373
$oldmeas,msRange:71.663620,x:-923971.852424,y:15002950.245811,z:22309935.275592,vx:-2661.014893,vy:-597.878479,vz:288.837830,tb:0.000062080048
$newmeas,x:-923781.163769,y:15002993.090315,z:22309914.576244,vx:-2661.009521,vy:-597.890015,vz:288.870544,tb:0.000062080047
$pseudo_cd_ph,prn:19,pseudo_cd_ph:200845927.811964184046
measnum = 3,full_prange = 21547358.070323
$oldmeas,msRange:71.877620,x:7301718.936403,y:15746943.476074,z:19777474.019307,vx:-2507.961914,vy:-592.667603,vz:1384.016235,tb:-0.000313616552
$newmeas,x:7301899.193757,y:15746986.073883,z:19777374.543061,vx:-2507.947021,vy:-592.675110,vz:1384.047363,tb:-0.000313616552
$pseudo_cd_ph,prn:22,pseudo_cd_ph:200845920.063471198082
measnum = 4,full_prange = 23752043.815252
$oldmeas,msRange:79.231851,x:-18485071.511156,y:971606.100047,z:19256829.843312,vx:1270.646851,vy:-2055.392578,vz:1347.693359,tb:-0.000708069481
$newmeas,x:-18485172.182366,y:971768.944648,z:19256723.066611,vx:1270.647705,vy:-2055.376465,vz:1347.725220,tb:-0.000708069481
$pseudo_cd_ph,prn:28,pseudo_cd_ph:200845932.036132633686
measnum = 5,full_prange = 20605184.743306
$oldmeas,msRange:68.734944,x:-10813716.262104,y:21710185.459474,z:11540384.084040,vx:-1080.386475,vy:852.165222,vz:-2752.249023,tb:0.000767799964
$newmeas,x:-10813642.004843,y:21710126.888470,z:11540573.249671,vx:-1080.406372,vy:852.177185,vz:-2752.232666,tb:0.000767799964
$pseudo_cd_ph,prn:30,pseudo_cd_ph:200845919.759196460247
measnum = 6,full_prange = 24021674.886039
$oldmeas,msRange:80.131268,x:-3167467.511969,y:22511765.716702,z:-13549854.853982,vx:-795.893494,vy:-1569.162598,vz:-2435.786621,tb:-0.000112951778
$newmeas,x:-3167403.739439,y:22511891.449271,z:-13549659.679107,vx:-795.879272,vy:-1569.142700,vz:-2435.810059,tb:-0.000112951777
$pseudo_cd_ph,prn:1,pseudo_cd_ph:200845920.159184783697
measnum = 7,full_prange = 23927557.978878
$oldmeas,msRange:79.817425,x:-15764241.088962,y:-1433841.209985,z:21197434.045039,vx:-880.434082,vy:-2578.487061,vz:-790.546997,tb:-0.000026903664
$newmeas,x:-15764170.818608,y:-1433635.410794,z:21197497.140100,vx:-880.424438,vy:-2578.499268,vz:-790.510559,tb:-0.000026903663
$pseudo_cd_ph,prn:11,pseudo_cd_ph:17.884864501356
measnum = 8,full_prange = 24438390.757207
$oldmeas,msRange:81.521283,x:-20760230.719477,y:-3392187.404137,z:15539475.703054,vx:-1273.634766,vy:-1696.069580,vz:-2029.369507,tb:-0.000597269203
$newmeas,x:-20760126.895353,y:-3392049.143639,z:15539641.131428,vx:-1273.643311,vy:-1696.089478,vz:-2029.341187,tb:-0.000597269204
$GNGGA,074708.000,2944.9067,N,10633.0886,E,1,22,99.0,326.6,M,,,,0000*2E
$GNRMC,074708.000,A,2944.9067,N,10633.0886,E,0.50,0.00,280519,,*11
$GPGSA,A,3,01,03,06,17,19,22,28,30,,,,,99.0,99.0,99.0*01
$BDGSA,A,3,01,02,03,04,05,07,08,10,12,13,19,22,99.0,99.0,99.0*15
$GLGSA,A,3,,,,,,,,,,,,,99.0,99.0,99.0*1E
$GPGSV,3,1,11,03,35,070,42,06,46,241,44,17,54,344,44,19,43,313,43*71
$GPGSV,3,2,11,22,21,051,41,28,77,113,43,30,15,188,37,01,16,042,33*76
$GPGSV,3,3,11,11,08,059,34,24,00,000,36,02,10,235,00*4E
$BDGSV,3,1,12,01,40,126,40,02,47,220,39,03,55,171,43,04,23,109,40*6C
$BDGSV,3,2,12,05,28,245,35,07,53,153,41,08,71,343,42,10,78,201,42*64
$BDGSV,3,3,12,12,36,291,41,13,62,265,43,19,30,101,43,22,19,157,41*60
$B3CN0,0,0,0,0,0,0,0,0,0,0,0,0,0,0*4C
$ini_pos,lastpos_good = 1,ini_pos.x:-1578908.835869,ini_pos.y:5312774.494478,ini_pos.z:3146356.208685
$rtc_local_time,localRTC.weeks:2055,localRTC.seconds:200846.289273,localGtime.weeks:2055,localGtime.seconds:200847.000000
$pseudo_cd_ph,prn:3,pseudo_cd_ph:200846925.728870123625
measnum = 0,full_prange = 22321972.553765
$oldmeas,msRange:0.000000,x:-20340028.352554,y:8165511.838376,z:14902657.436435,vx:1059.645142,vy:-1593.445190,vz:2321.670410,tb:0.000187157426
$newmeas,x:-20340107.251445,y:8165630.482466,z:14902484.568415,vx:1059.638184,vy:-1593.423950,vz:2321.694092,tb:0.000187157426
$pseudo_cd_ph,prn:6,pseudo_cd_ph:200846928.344396114349
measnum = 1,full_prange = 21539820.494579
$oldmeas,msRange:71.853188,x:5958568.254812,y:25425767.914148,z:4780294.832346,vx:-426.239777,vy:-483.286163,vz:3133.492188,tb:0.000193704978
$newmeas,x:5958598.879333,y:25425802.636940,z:4780069.693459,vx:-426.227875,vy:-483.261444,vz:3133.499512,tb:0.000193704978
$pseudo_cd_ph,prn:17,pseudo_cd_ph:200846928.402731060982
measnum = 2,full_prange = 21482871.959530
$oldmeas,msRange:71.663310,x:-926632.903698,y:15002352.447708,z:22310223.885015,vx:-2661.087891,vy:-597.717712,vz:288.381042,tb:0.000062080059
$newmeas,x:-926442.212593,y:15002395.280065,z:22310203.218702,vx:-2661.082764,vy:-597.729248,vz:288.413788,tb:0.000062080058
$pseudo_cd_ph,prn:19,pseudo_cd_ph:200846927.813515365124
measnum = 3,full_prange = 21546883.371256
$oldmeas,msRange:71.876778,x:7299210.870815,y:15746350.861056,z:19778857.819148,vx:-2508.169189,vy:-592.562500,vz:1383.583496,tb:-0.000313616551
$newmeas,x:7299391.139096,y:15746393.450374,z:19778758.376192,vx:-2508.154297,vy:-592.570068,vz:1383.614624,tb:-0.000313616551
$pseudo_cd_ph,prn:22,pseudo_cd_ph:200846920.062898993492
measnum = 4,full_prange = 23752205.689484
$oldmeas,msRange:79.233138,x:-18483800.870142,y:969550.607421,z:19258177.335193,vx:1270.635254,vy:-2055.593018,vz:1347.290527,tb:-0.000708069485
$newmeas,x:-18483901.541126,y:969713.469013,z:19258070.589678,vx:1270.636230,vy:-2055.577148,vz:1347.322388,tb:-0.000708069485
$pseudo_cd_ph,prn:28,pseudo_cd_ph:200846932.036702126265
measnum = 5,full_prange = 20605004.347631
$oldmeas,msRange:68.735083,x:-10814796.503899,y:21711037.537901,z:11537631.716498,vx:-1080.097168,vy:851.991638,vz:-2752.486328,tb:0.000767799967
$newmeas,x:-10814722.267166,y:21710978.979341,z:11537820.896789,vx:-1080.117065,vy:852.003601,vz:-2752.469971,tb:0.000767799967
$pseudo_cd_ph,prn:30,pseudo_cd_ph:200846919.757826149464
measnum = 6,full_prange = 24022076.025232
$oldmeas,msRange:80.133343,x:-3168263.494217,y:22510196.429970,z:-13552290.494832,vx:-796.071045,vy:-1569.410889,vz:-2435.495117,tb:-0.000112951786
$newmeas,x:-3168199.706392,y:22510322.184532,z:-13552095.340052,vx:-796.056824,vy:-1569.390991,vz:-2435.518555,tb:-0.000112951785
$pseudo_cd_ph,prn:1,pseudo_cd_ph:200846920.157694518566
measnum = 7,full_prange = 23927995.078828
$oldmeas,msRange:79.819603,x:-15765121.583305,y:-1436419.621209,z:21196643.269919,vx:-880.554626,vy:-2578.335449,vz:-791.003296,tb:-0.000026903674
$newmeas,x:-15765051.302043,y:-1436213.830364,z:21196706.402552,vx:-880.545044,vy:-2578.347656,vz:-790.966858,tb:-0.000026903674
$pseudo_cd_ph,prn:11,pseudo_cd_ph:17.883645334551
measnum = 8,full_prange = 24438746.592922
$oldmeas,msRange:81.523201,x:-20761504.301807,y:-3393883.352058,z:15537446.160520,vx:-1273.529907,vy:-1695.826294,vz:-2029.715698,tb:-0.000597269200
$newmeas,x:-20761400.484719,y:-3393745.109380,z:15537611.619531,vx:-1273.538452,vy:-1695.846191,vz:-2029.687500,tb:-0.000597269201
$GNGGA,074709.000,2944.9075,N,10633.0893,E,1,22,0.6,325.6,M,,,,0000*1D
$GNRMC,074709.000,A,2944.9075,N,10633.0893,E,0.12,0.00,280519,,*11
$GPGSA,A,3,01,03,06,17,19,22,28,30,,,,,0.7,0.6,0.4*34
$BDGSA,A,3,01,02,03,04,05,07,08,10,12,13,19,22,0.7,0.6,0.4*20
$GLGSA,A,3,,,,,,,,,,,,,0.7,0.6,0.4*2B
$GPGSV,3,1,11,03,35,070,42,06,46,241,44,17,54,344,45,19,43,313,44*77
$GPGSV,3,2,11,22,21,051,41,28,77,113,43,30,15,188,38,01,16,042,34*7E
$GPGSV,3,3,11,11,08,059,34,24,00,000,36,02,10,235,00*4E
$BDGSV,3,1,12,01,40,126,40,02,47,220,39,03,55,171,42,04,23,109,40*6D
$BDGSV,3,2,12,05,28,245,37,07,53,153,42,08,71,343,42,10,78,201,42*65
$BDGSV,3,3,12,12,36,291,42,13,62,265,43,19,30,101,43,22,19,157,40*62
$B3CN0,0,0,0,0,0,0,0,0,0,0,0,0,0,0*4C
$ini_pos,lastpos_good = 1,ini_pos.x:-1578909.503713,ini_pos.y:5312772.686740,ini_pos.z:3146356.926900
$rtc_local_time,localRTC.weeks:2055,localRTC.seconds:200847.289273,localGtime.weeks:2055,localGtime.seconds:200848.000000
$pseudo_cd_ph,prn:3,pseudo_cd_ph:200847925.729147732258
measnum = 0,full_prange = 22321879.661195
$oldmeas,msRange:0.000000,x:-20338968.659959,y:8163918.250226,z:14904978.947230,vx:1059.739990,vy:-1593.731201,vz:2321.351318,tb:0.000187157425
$newmeas,x:-20339047.565583,y:8164036.915111,z:14904806.103690,vx:1059.733032,vy:-1593.709839,vz:2321.375000,tb:0.000187157425
$pseudo_cd_ph,prn:6,pseudo_cd_ph:200847928.346313059330
measnum = 1,full_prange = 21539236.138680
$oldmeas,msRange:71.851985,x:5958141.932162,y:25425284.455846,z:4783428.273596,vx:-426.405548,vy:-483.630463,vz:3133.390381,tb:0.000193704967
$newmeas,x:5958172.567761,y:25425319.202431,z:4783203.148138,vx:-426.393646,vy:-483.605713,vz:3133.397705,tb:0.000193704968
$pseudo_cd_ph,prn:17,pseudo_cd_ph:200847928.403748184443
measnum = 2,full_prange = 21482557.369621
$oldmeas,msRange:71.663000,x:-929294.028104,y:15001754.810377,z:22310512.037656,vx:-2661.161133,vy:-597.556946,vz:287.924255,tb:0.000062080069
$newmeas,x:-929103.334553,y:15001797.630585,z:22310491.404379,vx:-2661.155762,vy:-597.568481,vz:287.957001,tb:0.000062080069
$pseudo_cd_ph,prn:19,pseudo_cd_ph:200847927.815065383911
measnum = 3,full_prange = 21546409.020634
$oldmeas,msRange:71.875938,x:7296702.597969,y:15745758.351155,z:19780241.186293,vx:-2508.376465,vy:-592.457336,vz:1383.150879,tb:-0.000313616549
$newmeas,x:7296882.877175,y:15745800.931978,z:19780141.776625,vx:-2508.361572,vy:-592.464905,vz:1383.181885,tb:-0.000313616549
$pseudo_cd_ph,prn:22,pseudo_cd_ph:200847920.062323004007
measnum = 4,full_prange = 23752368.698400
$oldmeas,msRange:79.234420,x:-18482530.240663,y:967494.914363,z:19259524.424256,vx:1270.623779,vy:-2055.793213,vz:1346.887695,tb:-0.000708069490
$newmeas,x:-18482630.911423,y:967657.792952,z:19259417.709924,vx:1270.624634,vy:-2055.777344,vz:1346.919556,tb:-0.000708069489
$pseudo_cd_ph,prn:28,pseudo_cd_ph:200847932.037272155285
measnum = 5,full_prange = 20604823.791135
$oldmeas,msRange:68.735223,x:-10815876.456487,y:21711889.442703,z:11534879.111583,vx:-1079.807983,vy:851.817993,vz:-2752.723633,tb:0.000767799971
$newmeas,x:-10815802.240281,y:21711830.896591,z:11535068.306530,vx:-1079.827881,vy:851.829956,vz:-2752.707275,tb:0.000767799971
$pseudo_cd_ph,prn:30,pseudo_cd_ph:200847919.756457626820
measnum = 6,full_prange = 24022476.628354
$oldmeas,msRange:80.135423,x:-3169059.654073,y:22508626.895003,z:-13554725.844214,vx:-796.248718,vy:-1569.659058,vz:-2435.203613,tb:-0.000112951794
$newmeas,x:-3168995.850951,y:22508752.671551,z:-13554530.709536,vx:-796.234436,vy:-1569.639282,vz:-2435.227051,tb:-0.000112951794
$pseudo_cd_ph,prn:1,pseudo_cd_ph:200847920.156221657991
measnum = 7,full_prange = 23928426.961023
$oldmeas,msRange:79.821775,x:-15766002.198206,y:-1438997.880733,z:21195852.038507,vx:-880.675171,vy:-2578.183838,vz:-791.459595,tb:-0.000026903685
$newmeas,x:-15765931.906054,y:-1438792.098284,z:21195915.208698,vx:-880.665588,vy:-2578.195801,vz:-791.423157,tb:-0.000026903684
$pseudo_cd_ph,prn:11,pseudo_cd_ph:17.882418747172
measnum = 8,full_prange = 24439104.644397
$oldmeas,msRange:81.525113,x:-20762777.779260,y:-3395579.056668,z:15535416.271716,vx:-1273.425049,vy:-1695.583008,vz:-2030.062012,tb:-0.000597269197
$newmeas,x:-20762673.969202,y:-3395440.831801,z:15535581.761378,vx:-1273.433594,vy:-1695.602783,vz:-2030.033813,tb:-0.000597269198
$GNGGA,074710.000,2944.9078,N,10633.0897,E,1,22,0.6,325.5,M,,,,0000*1F
$GNRMC,074710.000,A,2944.9078,N,10633.0897,E,0.10,0.00,280519,,*12
$GPGSA,A,3,01,03,06,17,19,22,28,30,,,,,0.7,0.6,0.4*34
$BDGSA,A,3,01,02,03,04,05,07,08,10,12,13,19,22,0.7,0.6,0.4*20
$GLGSA,A,3,,,,,,,,,,,,,0.7,0.6,0.4*2B
$GPGSV,3,1,11,03,35,070,42,06,46,241,44,17,54,344,45,19,43,313,45*76
$GPGSV,3,2,11,22,21,051,40,28,77,113,44,30,15,188,37,01,16,042,33*70
$GPGSV,3,3,11,11,08,059,35,24,00,000,36,02,10,235,00*4F
$BDGSV,3,1,12,01,40,126,40,02,47,220,39,03,55,171,43,04,23,109,40*6C
$BDGSV,3,2,12,05,28,245,36,07,53,153,42,08,71,343,42,10,78,201,43*65
$BDGSV,3,3,12,12,36,291,41,13,62,265,43,19,30,101,43,22,19,157,40*61
$B3CN0,0,0,0,0,0,0,0,0,0,0,0,0,0,0*4C
$ini_pos,lastpos_good = 1,ini_pos.x:-1578910.059596,ini_pos.y:5312772.152782,ini_pos.z:3146357.356955
$rtc_local_time,localRTC.weeks:2055,localRTC.seconds:200848.289273,localGtime.weeks:2055,localGtime.seconds:200849.000000
$pseudo_cd_ph,prn:3,pseudo_cd_ph:200848925.729427754879
measnum = 0,full_prange = 22321786.044929
$oldmeas,msRange:0.000000,x:-20337908.872548,y:8162324.376165,z:14907300.138889,vx:1059.834839,vy:-1594.017090,vz:2321.032227,tb:0.000187157423
$newmeas,x:-20337987.784899,y:8162443.061840,z:14907127.319837,vx:1059.827759,vy:-1593.995728,vz:2321.055908,tb:0.000187157423
$pseudo_cd_ph,prn:6,pseudo_cd_ph:200848928.348233252764
measnum = 1,full_prange = 21538650.808920
$oldmeas,msRange:71.850777,x:5957715.443734,y:25424800.653286,z:4786561.612925,vx:-426.571350,vy:-483.974701,vz:3133.288330,tb:0.000193704957
$newmeas,x:5957746.090412,y:25424835.423659,z:4786336.500909,vx:-426.559418,vy:-483.949951,vz:3133.295654,tb:0.000193704958
$pseudo_cd_ph,prn:17,pseudo_cd_ph:200848928.404766708612
measnum = 2,full_prange = 21482242.359790
$oldmeas,msRange:71.662689,x:-931955.225578,y:15001157.333836,z:22310799.733510,vx:-2661.234131,vy:-597.396179,vz:287.467468,tb:0.000062080080
$newmeas,x:-931764.529590,y:15001200.141894,z:22310779.133267,vx:-2661.228760,vy:-597.407654,vz:287.500214,tb:0.000062080079
$pseudo_cd_ph,prn:19,pseudo_cd_ph:200848927.816617339849
measnum = 3,full_prange = 21545934.089270
$oldmeas,msRange:71.875097,x:7294194.117921,y:15745165.946409,z:19781624.120711,vx:-2508.583740,vy:-592.352173,vz:1382.718140,tb:-0.000313616548
$newmeas,x:7294374.408043,y:15745208.518736,z:19781524.744335,vx:-2508.568848,vy:-592.359741,vz:1382.749146,tb:-0.000313616548
$pseudo_cd_ph,prn:22,pseudo_cd_ph:200848920.061745047569
measnum = 4,full_prange = 23752532.296994
$oldmeas,msRange:79.235703,x:-18481259.622769,y:965439.020906,z:19260871.110473,vx:1270.612183,vy:-2055.993652,vz:1346.484863,tb:-0.000708069494
$newmeas,x:-18481360.293302,y:965601.916494,z:19260764.427324,vx:1270.613037,vy:-2055.977783,vz:1346.516724,tb:-0.000708069493
$pseudo_cd_ph,prn:28,pseudo_cd_ph:200848932.037844449282
measnum = 5,full_prange = 20604642.555615
$oldmeas,msRange:68.735361,x:-10816956.119875,y:21712741.173821,z:11532126.269351,vx:-1079.518799,vy:851.644287,vz:-2752.960938,tb:0.000767799974
$newmeas,x:-10816881.924198,y:21712682.640163,z:11532315.478943,vx:-1079.538696,vy:851.656250,vz:-2752.944580,tb:0.000767799974
$pseudo_cd_ph,prn:30,pseudo_cd_ph:200848919.755090951920
measnum = 6,full_prange = 24022876.677536
$oldmeas,msRange:80.137501,x:-3169855.991560,y:22507057.111852,z:-13557160.902073,vx:-796.426331,vy:-1569.907227,vz:-2434.912109,tb:-0.000112951803
$newmeas,x:-3169792.173141,y:22507182.910381,z:-13556965.787508,vx:-796.412109,vy:-1569.887451,vz:-2434.935547,tb:-0.000112951802
$pseudo_cd_ph,prn:1,pseudo_cd_ph:200848920.154750078917
measnum = 7,full_prange = 23928858.459034
$oldmeas,msRange:79.823949,x:-15766882.933631,y:-1441575.988498,z:21195060.350820,vx:-880.795715,vy:-2578.031982,vz:-791.915833,tb:-0.000026903695
$newmeas,x:-15766812.630593,y:-1441370.214453,z:21195123.558569,vx:-880.786072,vy:-2578.043945,vz:-791.879456,tb:-0.000026903695
$pseudo_cd_ph,prn:11,pseudo_cd_ph:17.881201019735
measnum = 8,full_prange = 24439460.042321
$oldmeas,msRange:81.527027,x:-20764051.151780,y:-3397274.517957,z:15533386.036689,vx:-1273.320068,vy:-1695.339722,vz:-2030.408203,tb:-0.000597269194
$newmeas,x:-20763947.348769,y:-3397136.310915,z:15533551.556980,vx:-1273.328613,vy:-1695.359497,vz:-2030.380005,tb:-0.000597269194
$GNGGA,074711.000,2944.9080,N,10633.0901,E,1,22,0.6,325.6,M,,,,0000*14
$GNRMC,074711.000,A,2944.9080,N,10633.0901,E,0.09,0.00,280519,,*12
$GPGSA,A,3,01,03,06,17,19,22,28,30,,,,,0.7,0.6,0.4*34
$BDGSA,A,3,01,02,03,04,05,07,08,10,12,13,19,22,0.7,0.6,0.4*20
$GLGSA,A,3,,,,,,,,,,,,,0.7,0.6,0.4*2B
$GPGSV,3,1,11,03,35,070,42,06,46,241,44,17,54,344,45,19,43,313,45*76
$GPGSV,3,2,11,22,21,051,41,28,77,113,44,30,15,188,37,01,16,042,33*71
$GPGSV,3,3,11,11,08,059,35,24,00,000,37,02,10,235,00*4E
$BDGSV,3,1,12,01,40,126,41,02,47,220,40,03,55,171,42,04,23,109,40*62
$BDGSV,3,2,12,05,28,245,35,07,53,153,42,08,71,343,42,10,78,201,42*67
$BDGSV,3,3,12,12,36,291,42,13,62,265,43,19,30,101,43,22,19,157,40*62
$B3CN0,0,0,0,0,0,0,0,0,0,0,0,0,0,0*4C
$ini_pos,lastpos_good = 1,ini_pos.x:-1578910.560831,ini_pos.y:5312771.836489,ini_pos.z:3146357.744618
$rtc_local_time,localRTC.weeks:2055,localRTC.seconds:200849.289273,localGtime.weeks:2055,localGtime.seconds:200850.000000
$pseudo_cd_ph,prn:3,pseudo_cd_ph:200849925.729703158140
measnum = 0,full_prange = 22321693.813513
$oldmeas,msRange:0.000000,x:-20336848.990382,y:8160730.216206,z:14909621.011361,vx:1059.929565,vy:-1594.302979,vz:2320.712891,tb:0.000187157422
$newmeas,x:-20336927.909460,y:8160848.922678,z:14909448.216791,vx:1059.922485,vy:-1594.281616,vz:2320.736816,tb:0.000187157422
$pseudo_cd_ph,prn:6,pseudo_cd_ph:200849928.350149780512
measnum = 1,full_prange = 21538066.578105
$oldmeas,msRange:71.849570,x:5957288.789484,y:25424316.506501,z:4789694.850266,vx:-426.737183,vy:-484.318909,vz:3133.186523,tb:0.000193704947
$newmeas,x:5957319.447245,y:25424351.300660,z:4789469.751685,vx:-426.725281,vy:-484.294189,vz:3133.193848,tb:0.000193704947
$pseudo_cd_ph,prn:17,pseudo_cd_ph:200849928.405783802271
measnum = 2,full_prange = 21481927.778816
$oldmeas,msRange:71.662378,x:-934616.496056,y:15000560.018106,z:22311086.972569,vx:-2661.307129,vy:-597.235352,vz:287.010681,tb:0.000062080090
$newmeas,x:-934425.797631,y:15000602.814013,z:22311066.405360,vx:-2661.301758,vy:-597.246887,vz:287.043396,tb:0.000062080090
$pseudo_cd_ph,prn:19,pseudo_cd_ph:200849927.818167030811
measnum = 3,full_prange = 21545459.836928
$oldmeas,msRange:71.874256,x:7291685.430729,y:15744573.646859,z:19783006.622371,vx:-2508.790771,vy:-592.246948,vz:1382.285278,tb:-0.000313616546
$newmeas,x:7291865.731768,y:15744616.210687,z:19782907.279285,vx:-2508.775879,vy:-592.254517,vz:1382.316406,tb:-0.000313616546
$pseudo_cd_ph,prn:22,pseudo_cd_ph:200849920.061162322760
measnum = 4,full_prange = 23752697.325109
$oldmeas,msRange:79.236987,x:-18479989.016508,y:963382.927086,z:19262217.393818,vx:1270.600464,vy:-2056.194092,vz:1346.081909,tb:-0.000708069498
$newmeas,x:-18480089.686817,y:963545.839678,z:19262110.741848,vx:1270.601440,vy:-2056.178223,vz:1346.113892,tb:-0.000708069498
$pseudo_cd_ph,prn:28,pseudo_cd_ph:200849932.038413614035
measnum = 5,full_prange = 20604462.258219
$oldmeas,msRange:68.735499,x:-10818035.494071,y:21713592.731198,z:11529373.189857,vx:-1079.229614,vy:851.470520,vz:-2753.198242,tb:0.000767799978
$newmeas,x:-10817961.318919,y:21713534.209995,z:11529562.414098,vx:-1079.249512,vy:851.482483,vz:-2753.181885,tb:0.000767799978
$pseudo_cd_ph,prn:30,pseudo_cd_ph:200849919.753719240427
measnum = 6,full_prange = 24023278.236651
$oldmeas,msRange:80.139577,x:-3170652.506703,y:22505487.080570,z:-13559595.668359,vx:-796.604004,vy:-1570.155396,vz:-2434.620605,tb:-0.000112951811
$newmeas,x:-3170588.672980,y:22505612.901083,z:-13559400.573898,vx:-796.589783,vy:-1570.135498,vz:-2434.644043,tb:-0.000112951810
$pseudo_cd_ph,prn:1,pseudo_cd_ph:200849920.153276711702
measnum = 7,full_prange = 23929290.493116
$oldmeas,msRange:79.826123,x:-15767763.789545,y:-1444153.944444,z:21194268.206878,vx:-880.916199,vy:-2577.880127,vz:-792.372070,tb:-0.000026903706
$newmeas,x:-15767693.475621,y:-1443948.178804,z:21194331.452185,vx:-880.906555,vy:-2577.892334,vz:-792.335693,tb:-0.000026903705
$pseudo_cd_ph,prn:11,pseudo_cd_ph:17.879983642817
measnum = 8,full_prange = 24439815.341967
$oldmeas,msRange:81.528941,x:-20765324.419312,y:-3398969.735909,z:15531355.455485,vx:-1273.215088,vy:-1695.096313,vz:-2030.754395,tb:-0.000597269191
$newmeas,x:-20765220.623353,y:-3398831.546696,z:15531521.006402,vx:-1273.223633,vy:-1695.116211,vz:-2030.726074,tb:-0.000597269191
$GNGGA,074712.000,2944.9081,N,10633.0902,E,1,22,0.6,325.6,M,,,,0000*15
$GNRMC,074712.000,A,2944.9081,N,10633.0902,E,0.36,0.00,280519,,*1F
$GPGSA,A,3,01,03,06,17,19,22,28,30,,,,,0.7,0.6,0.4*34
$BDGSA,A,3,01,02,03,04,05,07,08,10,12,13,19,22,0.7,0.6,0.4*20
$GLGSA,A,3,,,,,,,,,,,,,0.7,0.6,0.4*2B
$GPGSV,3,1,11,03,35,070,42,06,46,241,44,17,54,344,45,19,43,313,44*77
$GPGSV,3,2,11,22,21,051,42,28,77,113,43,30,15,188,37,01,16,042,33*75
$GPGSV,3,3,11,11,08,059,36,24,00,000,37,02,10,235,00*4D
$BDGSV,3,1,12,01,40,126,41,02,47,220,40,03,55,171,41,04,23,109,39*6F
$BDGSV,3,2,12,05,28,245,35,07,53,153,42,08,71,343,43,10,78,201,43*67
$BDGSV,3,3,12,12,36,291,42,13,62,265,43,19,30,101,44,22,19,157,40*65
$B3CN0,0,0,0,0,0,0,0,0,0,0,0,0,0,0*4C
$ini_pos,lastpos_good = 1,ini_pos.x:-1578910.816723,ini_pos.y:5312771.641923,ini_pos.z:3146357.992981
$rtc_local_time,localRTC.weeks:2055,localRTC.seconds:200850.289273,localGtime.weeks:2055,localGtime.seconds:200851.000000
$pseudo_cd_ph,prn:3,pseudo_cd_ph:200850925.729977369308
measnum = 0,full_prange = 22321601.939478
$oldmeas,msRange:0.000000,x:-20335789.013519,y:8159135.770361,z:14911941.564598,vx:1060.024170,vy:-1594.588867,vz:2320.393799,tb:0.000187157420
$newmeas,x:-20335867.939321,y:8159254.497629,z:14911768.794510,vx:1060.017212,vy:-1594.567505,vz:2320.417480,tb:0.000187157420
$pseudo_cd_ph,prn:6,pseudo_cd_ph:200850928.352065145969
measnum = 1,full_prange = 21537482.695735
$oldmeas,msRange:71.848362,x:5956861.969369,y:25423832.015521,z:4792827.985552,vx:-426.903076,vy:-484.663086,vz:3133.084229,tb:0.000193704936
$newmeas,x:5956892.638217,y:25423866.833463,z:4792602.900408,vx:-426.891144,vy:-484.638367,vz:3133.091553,tb:0.000193704937
$pseudo_cd_ph,prn:17,pseudo_cd_ph:200850928.406800121069
measnum = 2,full_prange = 21481613.430139
$oldmeas,msRange:71.662067,x:-937277.839475,y:14999962.863205,z:22311373.754829,vx:-2661.379883,vy:-597.074524,vz:286.553864,tb:0.000062080101
$newmeas,x:-937087.138616,y:15000005.646961,z:22311353.220653,vx:-2661.374756,vy:-597.085999,vz:286.586609,tb:0.000062080100
$pseudo_cd_ph,prn:19,pseudo_cd_ph:200850927.819713979959
measnum = 3,full_prange = 21544986.406561
$oldmeas,msRange:71.873414,x:7289176.536449,y:15743981.452544,z:19784388.691242,vx:-2508.997803,vy:-592.141724,vz:1381.852539,tb:-0.000313616545
$newmeas,x:7289356.848407,y:15744024.007873,z:19784289.381443,vx:-2508.982910,vy:-592.149292,vz:1381.883667,tb:-0.000313616545
$pseudo_cd_ph,prn:22,pseudo_cd_ph:200850920.060581088066
measnum = 4,full_prange = 23752861.906499
$oldmeas,msRange:79.238273,x:-18478718.421932,y:961326.632935,z:19263563.274261,vx:1270.588745,vy:-2056.394287,vz:1345.679077,tb:-0.000708069502
$newmeas,x:-18478819.092011,y:961489.562527,z:19263456.653476,vx:1270.589722,vy:-2056.378418,vz:1345.710938,tb:-0.000708069502
$pseudo_cd_ph,prn:28,pseudo_cd_ph:200850932.038982182741
measnum = 5,full_prange = 20604282.139513
$oldmeas,msRange:68.735638,x:-10819114.579081,y:21714444.114775,z:11526619.873154,vx:-1078.940430,vy:851.296692,vz:-2753.435303,tb:0.000767799981
$newmeas,x:-10819040.424453,y:21714385.606031,z:11526809.112043,vx:-1078.960327,vy:851.308655,vz:-2753.419189,tb:0.000767799981
$pseudo_cd_ph,prn:30,pseudo_cd_ph:200850919.752352952957
measnum = 6,full_prange = 24023678.169685
$oldmeas,msRange:80.141653,x:-3171449.199524,y:22503916.801207,z:-13562030.143019,vx:-796.781677,vy:-1570.403442,vz:-2434.328857,tb:-0.000112951819
$newmeas,x:-3171385.350500,y:22504042.643692,z:-13561835.068682,vx:-796.767456,vy:-1570.383545,vz:-2434.352295,tb:-0.000112951819
$pseudo_cd_ph,prn:1,pseudo_cd_ph:200850920.151798814535
measnum = 7,full_prange = 23929723.885244
$oldmeas,msRange:79.828299,x:-15768644.765911,y:-1446731.748512,z:21193475.606699,vx:-881.036621,vy:-2577.728271,vz:-792.828308,tb:-0.000026903716
$newmeas,x:-15768574.441100,y:-1446525.991271,z:21193538.889568,vx:-881.026978,vy:-2577.740234,vz:-792.791931,tb:-0.000026903716
$pseudo_cd_ph,prn:11,pseudo_cd_ph:17.878765631981
measnum = 8,full_prange = 24440170.820302
$oldmeas,msRange:81.530856,x:-20766597.581800,y:-3400664.710512,z:15529324.528150,vx:-1273.109985,vy:-1694.853027,vz:-2031.100464,tb:-0.000597269188
$newmeas,x:-20766493.792897,y:-3400526.539128,z:15529490.109691,vx:-1273.118530,vy:-1694.872803,vz:-2031.072266,tb:-0.000597269188
$GNGGA,074713.000,2944.9083,N,10633.0905,E,1,22,0.6,325.7,M,,,,0000*10
$GNRMC,074713.000,A,2944.9083,N,10633.0905,E,0.06,0.00,280519,,*18
$GPGSA,A,3,01,03,06,17,19,22,28,30,,,,,0.7,0.6,0.4*34
$BDGSA,A,3,01,02,03,04,05,07,08,10,12,13,19,22,0.7,0.6,0.4*20
$GLGSA,A,3,,,,,,,,,,,,,0.7,0.6,0.4*2B
$GPGSV,3,1,11,03,35,070,42,06,46,241,45,17,54,344,45,19,43,313,45*77
$GPGSV,3,2,11,22,21,051,41,28,77,113,43,30,15,188,37,01,16,042,33*76
$GPGSV,3,3,11,11,08,059,36,24,00,000,36,02,10,235,00*4C
$BDGSV,3,1,12,01,40,126,40,02,47,220,40,03,55,171,41,04,23,109,39*6E
$BDGSV,3,2,12,05,28,245,34,07,53,153,42,08,71,343,42,10,78,201,42*66
$BDGSV,3,3,12,12,36,291,41,13,62,265,43,19,30,101,43,22,19,157,41*60
$B3CN0,18,0,0,0,0,0,0,0,0,0,0,0,0,0*75
$ini_pos,lastpos_good = 1,ini_pos.x:-1578911.237383,ini_pos.y:5312771.505248,ini_pos.z:3146358.295821
$rtc_local_time,localRTC.weeks:2055,localRTC.seconds:200851.289273,localGtime.weeks:2055,localGtime.seconds:200852.000000
$pseudo_cd_ph,prn:3,pseudo_cd_ph:200851925.730253994465
measnum = 0,full_prange = 22321509.341746
$oldmeas,msRange:0.000000,x:-20334728.942017,y:8157541.038640,z:14914261.798549,vx:1060.118774,vy:-1594.874756,vz:2320.074463,tb:0.000187157419
$newmeas,x:-20334807.874536,y:8157659.786701,z:14914089.052953,vx:1060.111816,vy:-1594.853394,vz:2320.098145,tb:0.000187157419
$pseudo_cd_ph,prn:6,pseudo_cd_ph:200851928.353982239962
measnum = 1,full_prange = 21536898.295164
$oldmeas,msRange:71.847154,x:5956434.983347,y:25423347.180381,z:4795961.018716,vx:-427.069000,vy:-485.007233,vz:3132.982178,tb:0.000193704926
$newmeas,x:5956465.663283,y:25423382.022101,z:4795735.947018,vx:-427.057068,vy:-484.982513,vz:3132.989502,tb:0.000193704927
$pseudo_cd_ph,prn:17,pseudo_cd_ph:200851928.407818734646
measnum = 2,full_prange = 21481298.393505
$oldmeas,msRange:71.661756,x:-939939.255769,y:14999365.869154,z:22311660.080282,vx:-2661.452881,vy:-596.913635,vz:286.097046,tb:0.000062080112
$newmeas,x:-939748.552487,y:14999408.640757,z:22311639.579140,vx:-2661.447510,vy:-596.925171,vz:286.129791,tb:0.000062080111
$pseudo_cd_ph,prn:19,pseudo_cd_ph:200851927.821262240410
measnum = 3,full_prange = 21544512.583075
$oldmeas,msRange:71.872573,x:7286667.435138,y:15743389.363504,z:19785770.327294,vx:-2509.204834,vy:-592.036438,vz:1381.419678,tb:-0.000313616543
$newmeas,x:7286847.758007,y:15743431.910330,z:19785671.050785,vx:-2509.189941,vy:-592.044006,vz:1381.450806,tb:-0.000313616543
$pseudo_cd_ph,prn:22,pseudo_cd_ph:200851920.060001641512
measnum = 4,full_prange = 23753025.951818
$oldmeas,msRange:79.239558,x:-18477447.839090,y:959270.138487,z:19264908.751778,vx:1270.577026,vy:-2056.594727,vz:1345.276123,tb:-0.000708069506
$newmeas,x:-18477548.508932,y:959433.085073,z:19264802.162182,vx:1270.577881,vy:-2056.578857,vz:1345.307983,tb:-0.000708069506
$pseudo_cd_ph,prn:28,pseudo_cd_ph:200851932.039551675320
measnum = 5,full_prange = 20604101.743837
$oldmeas,msRange:68.735776,x:-10820193.374914,y:21715295.324494,z:11523866.319300,vx:-1078.651245,vy:851.122803,vz:-2753.672607,tb:0.000767799985
$newmeas,x:-10820119.240809,y:21715236.828213,z:11524055.572828,vx:-1078.671143,vy:851.134766,vz:-2753.656250,tb:0.000767799984
$pseudo_cd_ph,prn:30,pseudo_cd_ph:200851919.750986784697
measnum = 6,full_prange = 24024078.066981
$oldmeas,msRange:80.143729,x:-3172246.070047,y:22502346.273816,z:-13564464.326001,vx:-796.959412,vy:-1570.651489,vz:-2434.037109,tb:-0.000112951828
$newmeas,x:-3172182.205718,y:22502472.138270,z:-13564269.271792,vx:-796.945190,vy:-1570.631592,vz:-2434.060547,tb:-0.000112951827
$pseudo_cd_ph,prn:1,pseudo_cd_ph:200851920.150323480368
measnum = 7,full_prange = 23930156.509005
$oldmeas,msRange:79.830474,x:-15769525.862695,y:-1449309.400643,z:21192682.550302,vx:-881.156982,vy:-2577.576172,vz:-793.284546,tb:-0.000026903727
$newmeas,x:-15769455.527002,y:-1449103.651813,z:21192745.870731,vx:-881.147400,vy:-2577.588379,vz:-793.248108,tb:-0.000026903726
$pseudo_cd_ph,prn:11,pseudo_cd_ph:200851917.877562969923
measnum = 8,full_prange = 24440521.706299
$oldmeas,msRange:81.532771,x:-20767870.639187,y:-3402359.441752,z:15527293.254730,vx:-1273.004883,vy:-1694.609619,vz:-2031.446533,tb:-0.000597269185
$newmeas,x:-20767766.857365,y:-3402221.288225,z:15527458.866861,vx:-1273.013428,vy:-1694.629395,vz:-2031.418335,tb:-0.000597269185
$GNGGA,074714.000,2944.9083,N,10633.0906,E,1,23,0.6,325.7,M,,,,0000*15
$GNRMC,074714.000,A,2944.9083,N,10633.0906,E,0.23,0.00,280519,,*1B
$GPGSA,A,3,01,03,06,11,17,19,22,28,30,,,,0.7,0.6,0.4*34
$BDGSA,A,3,01,02,03,04,05,07,08,10,12,13,19,22,0.7,0.6,0.4*20
$GLGSA,A,3,,,,,,,,,,,,,0.7,0.6,0.4*2B
$GPGSV,3,1,11,03,35,070,42,06,46,241,44,17,54,344,44,19,43,313,44*76
$GPGSV,3,2,11,22,21,051,41,28,77,113,43,30,15,188,37,01,16,042,34*71
$GPGSV,3,3,11,11,08,059,35,24,00,000,37,02,10,235,00*4E
$BDGSV,3,1,12,01,40,126,40,02,47,220,40,03,55,171,42,04,23,109,39*6D
$BDGSV,3,2,12,05,28,245,34,07,53,153,42,08,71,343,42,10,78,201,42*66
$BDGSV,3,3,12,12,36,291,41,13,62,265,43,19,30,101,43,22,19,157,41*60
$B3CN0,0,0,0,0,0,0,0,0,0,0,0,0,0,0*4C
$ini_pos,lastpos_good = 1,ini_pos.x:-1578911.351226,ini_pos.y:5312771.412935,ini_pos.z:3146358.234981
$rtc_local_time,localRTC.weeks:2055,localRTC.seconds:200852.289273,localGtime.weeks:2055,localGtime.seconds:200853.000000
$pseudo_cd_ph,prn:3,pseudo_cd_ph:200852925.730530142784
measnum = 0,full_prange = 22321416.886968
$oldmeas,msRange:0.000000,x:-20333668.775936,y:8155946.021056,z:14916581.713166,vx:1060.213379,vy:-1595.160522,vz:2319.755127,tb:0.000187157417
$newmeas,x:-20333747.715168,y:8156064.789909,z:14916408.992063,vx:1060.206299,vy:-1595.139282,vz:2319.778809,tb:0.000187157417
$pseudo_cd_ph,prn:6,pseudo_cd_ph:200852928.355897933245
measnum = 1,full_prange = 21536314.314515
$oldmeas,msRange:71.845946,x:5956007.831373,y:25422862.001111,z:4799093.949692,vx:-427.234985,vy:-485.351349,vz:3132.879883,tb:0.000193704915
$newmeas,x:5956038.522400,y:25422896.866607,z:4798868.891440,vx:-427.223053,vy:-485.326630,vz:3132.887207,tb:0.000193704916
$pseudo_cd_ph,prn:17,pseudo_cd_ph:200852928.408837646246
measnum = 2,full_prange = 21480983.267525
$oldmeas,msRange:71.661446,x:-942600.744877,y:14998769.035973,z:22311945.948924,vx:-2661.525635,vy:-596.752747,vz:285.640228,tb:0.000062080122
$newmeas,x:-942410.039177,y:14998811.795420,z:22311925.480815,vx:-2661.520264,vy:-596.764282,vz:285.672974,tb:0.000062080121
$pseudo_cd_ph,prn:19,pseudo_cd_ph:200852927.822809576988
measnum = 3,full_prange = 21544039.036560
$oldmeas,msRange:71.871732,x:7284158.126852,y:15742797.379779,z:19787151.530496,vx:-2509.411865,vy:-591.931091,vz:1380.986816,tb:-0.000313616542
$newmeas,x:7284338.460629,y:15742839.918099,z:19787052.287276,vx:-2509.396973,vy:-591.938660,vz:1381.017944,tb:-0.000313616542
$pseudo_cd_ph,prn:22,pseudo_cd_ph:200852920.059425681829
measnum = 4,full_prange = 23753188.951800
$oldmeas,msRange:79.240845,x:-18476177.268031,y:957213.443776,z:19266253.826339,vx:1270.565186,vy:-2056.794922,vz:1344.873169,tb:-0.000708069510
$newmeas,x:-18476277.937629,y:957376.407346,z:19266147.267939,vx:1270.566162,vy:-2056.779053,vz:1344.905029,tb:-0.000708069510
$pseudo_cd_ph,prn:28,pseudo_cd_ph:200852932.040120720863
measnum = 5,full_prange = 20603921.482179
$oldmeas,msRange:68.735915,x:-10821271.881576,y:21716146.360297,z:11521112.528348,vx:-1078.362061,vy:850.948853,vz:-2753.909668,tb:0.000767799988
$newmeas,x:-10821197.767994,y:21716087.876483,z:11521301.796514,vx:-1078.381958,vy:850.960815,vz:-2753.893311,tb:0.000767799988
$pseudo_cd_ph,prn:30,pseudo_cd_ph:200852919.749620974064
measnum = 6,full_prange = 24024477.857062
$oldmeas,msRange:80.145804,x:-3173043.118294,y:22500775.498449,z:-13566898.217253,vx:-797.137146,vy:-1570.899414,vz:-2433.745361,tb:-0.000112951836
$newmeas,x:-3172979.238660,y:22500901.384868,z:-13566703.183178,vx:-797.122925,vy:-1570.879517,vz:-2433.768799,tb:-0.000112951835
$pseudo_cd_ph,prn:1,pseudo_cd_ph:200852920.148848861456
measnum = 7,full_prange = 23930588.918337
$oldmeas,msRange:79.832651,x:-15770407.079861,y:-1451886.900778,z:21191889.037705,vx:-881.277344,vy:-2577.424316,vz:-793.740723,tb:-0.000026903738
$newmeas,x:-15770336.733290,y:-1451681.160365,z:21191952.395694,vx:-881.267761,vy:-2577.436279,vz:-793.704285,tb:-0.000026903737
$pseudo_cd_ph,prn:11,pseudo_cd_ph:200852917.876349270344
measnum = 8,full_prange = 24440875.898065
$oldmeas,msRange:81.534688,x:-20769143.591419,y:-3404053.929617,z:15525261.635273,vx:-1272.899658,vy:-1694.366211,vz:-2031.792480,tb:-0.000597269182
$newmeas,x:-20769039.816668,y:-3403915.793930,z:15525427.278013,vx:-1272.908203,vy:-1694.386108,vz:-2031.764282,tb:-0.000597269182
$GNGGA,074715.000,2944.9083,N,10633.0907,E,1,23,0.6,325.8,M,,,,0000*1A
$GNRMC,074715.000,A,2944.9083,N,10633.0907,E,0.22,0.00,280519,,*1A
$GPGSA,A,3,01,03,06,11,17,19,22,28,30,,,,0.7,0.6,0.4*34
$BDGSA,A,3,01,02,03,04,05,07,08,10,12,13,19,22,0.7,0.6,0.4*20
$GLGSA,A,3,,,,,,,,,,,,,0.7,0.6,0.4*2B
$GPGSV,3,1,11,03,35,070,42,06,46,241,44,17,54,344,45,19,43,313,44*77
$GPGSV,3,2,11,22,21,051,41,28,77,113,43,30,15,188,38,01,16,042,34*7E
$GPGSV,3,3,11,11,08,059,35,24,00,000,37,02,10,235,00*4E
$BDGSV,3,1,12,01,40,126,40,02,47,220,40,03,55,171,41,04,23,109,40*60
$BDGSV,3,2,12,05,28,245,36,07,53,153,42,08,71,343,43,10,78,201,42*65
$BDGSV,3,3,12,12,36,291,42,13,62,265,43,19,30,101,44,22,19,157,41*64
$B3CN0,19,0,0,0,0,0,0,0,0,0,0,0,0,0*74
