SD initialized success
Create debug.log Failed! 3
bbram_blkflag = 1
rtcflag = 0
BBRAM Block OK: 01 EPHflag: 08050922 00241adf, rtc 00
Hot-start nowtime:day = 28,minute = 8,seconds = 30.00
GPS 0 Init Dop: 10000,80
GPS 1 Init Dop: -2319, 2
GPS 2 Init Dop: 10000,80
GPS 3 Init Dop: 10000,80
GPS 4 Init Dop: 10000,80
GPS 5 Init Dop:  -869, 2
GPS 6 Init Dop: 10000,80
GPS 7 Init Dop: 10000,80
GPS 8 Init Dop: -3019, 2
GPS 9 Init Dop: 10000,80
GPS10 Init Dop: 10000,80
GPS11 Init Dop: -4296, 2
GPS12 Init Dop: 10000,80
GPS13 Init Dop: 10000,80
GPS14 Init Dop: 10000,80
GPS15 Init Dop: 10000,80
GPS16 Init Dop:  -811, 2
GPS17 Init Dop: 10000,80
GPS18 Init Dop: -1403, 2
GPS19 Init Dop: 10000,80
GPS20 Init Dop: 10000,80
GPS21 Init Dop: 10000,80
GPS22 Init Dop: 10000,80
GPS23 Init Dop: 10000,80
GPS24 Init Dop: 10000,80
GPS25 Init Dop: 10000,80
GPS26 Init Dop: 10000,80
GPS27 Init Dop:  1742, 2
GPS28 Init Dop: 10000,80
GPS29 Init Dop: 10000,80
GPS30 Init Dop: 10000,80
GPS31 Init Dop: 10000,80
BDS 0 Init Dop:  -860, 2
BDS 1 Init Dop:  -930, 2
BDS 2 Init Dop:  -878, 2
BDS 3 Init Dop:  -882, 2
BDS 4 Init Dop:  -910, 2
BDS 5 Init Dop: 10000,80
BDS 6 Init Dop:   506, 2
BDS 7 Init Dop:  -476, 2
BDS 8 Init Dop: 10000,80
BDS 9 Init Dop:   157, 2
BDS10 Init Dop: 10000,80
BDS11 Init Dop: -1788, 2
BDS12 Init Dop:  -661, 2
BDS13 Init Dop: 10000,80
BDS14 Init Dop: 10000,80
BDS15 Init Dop: 10000,80
BDS16 Init Dop: 10000,80
BDS17 Init Dop: 10000,80
BDS18 Init Dop:   193, 2
BDS19 Init Dop: 10000,80
BDS20 Init Dop: 10000,80
BDS21 Init Dop: -2654, 2
BDS22 Init Dop: 10000,80
BDS23 Init Dop: 10000,80
BDS24 Init Dop: 10000,80
BDS25 Init Dop: 10000,80
BDS26 Init Dop: 10000,80
BDS27 Init Dop: 10000,80
BDS28 Init Dop: 10000,80
BDS29 Init Dop: 10000,80
BDS30 Init Dop: 10000,80
BDS31 Init Dop: 10000,80
Good luck!
$ini_pos,lastpos_good = 1,ini_pos.x:-1578921.000000,ini_pos.y:5312780.000000,ini_pos.z:3146360.000000
$rtc_local_time,localRTC.weeks:2055,localRTC.seconds:205729.026010,localGtime.weeks:0,localGtime.seconds:19.026010
source<tow,snapshot
$GNGGA,000000.000,,,,,0,00,,,M,,,,0000*2B
$GNRMC,000000.000,A,,,,,,,060180,,*29
$GPGSA,A,1,,,,,,,,,,,,,,,*1E
$BDGSA,A,1,,,,,,,,,,,,,,,*0F
$GLGSA,A,1,,,,,,,,,,,,,,,*02
$B3CN0,0,0,0,0,0,0,0,0,0,0,0,0,0,0*4C
tow update,205731057.657535
$ini_pos,lastpos_good = 1,ini_pos.x:-1578921.000000,ini_pos.y:5312780.000000,ini_pos.z:3146360.000000
$rtc_local_time,localRTC.weeks:2055,localRTC.seconds:205730.026010,localGtime.weeks:2055,localGtime.seconds:205731.057658
source>=tow,snapshot
nits = 3
$GNGGA,090828.194,2945.6905,N,10633.0786,E,1,05,0.0,1113.3,M,,,,0000*2C
$GNRMC,090828.194,A,2945.6905,N,10633.0786,E,0.00,0.00,280519,,*13
$GPGSA,A,3,,,,,,,,,,,,,0.0,0.0,0.0*32
$BDGSA,A,3,01,02,03,04,05,,,,,,,,0.0,0.0,0.0*22
$GLGSA,A,3,,,,,,,,,,,,,0.0,0.0,0.0*2E
$B3CN0,0,0,0,0,0,0,0,0,0,0,0,0,0,0*4C
$ini_pos,lastpos_good = 1,ini_pos.x:-1578921.000000,ini_pos.y:5312780.000000,ini_pos.z:3146360.000000
$rtc_local_time,localRTC.weeks:2055,localRTC.seconds:205731.026010,localGtime.weeks:2055,localGtime.seconds:205732.057658
$pseudo_cd_ph,prn:2,pseudo_cd_ph:6.964787167188
measnum = 0,full_prange = 22625006.829028
$oldmeas,msRange:0.000000,x:13060783.072027,y:21893619.076571,z:8330268.472537,vx:-859.657104,vy:-520.428650,vz:2915.193848,tb:-0.000223816327
$newmeas,x:13060847.948616,y:21893658.352148,z:8330048.465569,vx:-859.636292,vy:-520.412781,vz:2915.207031,tb:-0.000223816327
$pseudo_cd_ph,prn:6,pseudo_cd_ph:14.053092367372
measnum = 1,full_prange = 20625141.194031
$oldmeas,msRange:69.109727,x:1279313.966640,y:19817900.221052,z:17661557.160534,vx:-1562.987427,vy:-1599.434570,vz:1915.932007,tb:0.000193655167
$newmeas,x:1279421.496555,y:19818010.258848,z:17661425.347228,vx:-1562.970093,vy:-1599.428589,vz:1915.957886,tb:0.000193655168
$pseudo_cd_ph,prn:9,pseudo_cd_ph:1.053213766477
measnum = 2,full_prange = 24585138.060374
$oldmeas,msRange:82.317791,x:-24709895.866342,y:8490745.850901,z:-4845893.127092,vx:-658.131592,vy:-173.201141,vz:3075.871826,tb:0.000402904299
$newmeas,x:-24709841.893577,y:8490760.054508,z:-4846145.370358,vx:-658.161804,vy:-173.197922,vz:3075.863281,tb:0.000402904300
$pseudo_cd_ph,prn:17,pseudo_cd_ph:12.164450346200
measnum = 3,full_prange = 21151911.451333
$oldmeas,msRange:70.866907,x:-13526222.300129,y:14088965.509326,z:18364985.978477,vx:-2242.748535,vy:182.074707,vz:-1840.697510,tb:0.000062129597
$newmeas,x:-13526064.062007,y:14088952.663287,z:18365115.848279,vx:-2242.765137,vy:182.066895,vz:-1840.670654,tb:0.000062129596
$pseudo_cd_ph,prn:19,pseudo_cd_ph:13.738306353169
measnum = 4,full_prange = 20567437.593442
$oldmeas,msRange:68.917049,x:-6165353.810449,y:14607647.270714,z:21019225.048381,vx:-2727.701904,vy:169.054459,vz:-897.397095,tb:-0.000313609343
$newmeas,x:-6165166.674566,y:14607635.673002,z:21019286.613755,vx:-2727.710449,vy:169.043716,vz:-897.365601,tb:-0.000313609343
$pseudo_cd_ph,prn:28,pseudo_cd_ph:10.438096561973
measnum = 5,full_prange = 21881016.183663
$oldmeas,msRange:73.300167,x:-13057076.661337,y:22808718.969530,z:-3564667.534911,vx:27.239309,vy:-566.036011,vz:-3173.348633,tb:0.000767807406
$newmeas,x:-13057078.649120,y:22808760.281934,z:-3564435.920843,vx:27.230040,vy:-566.008972,vz:-3173.354004,tb:0.000767807406
$GNGGA,090833.383,2944.9060,N,10633.0923,E,1,08,1.2,309.2,M,,,,0000*10
$GNRMC,090833.383,A,2944.9060,N,10633.0923,E,0.11,0.00,280519,,*18
$GPGSA,A,3,,,,,,,,,,,,,2.8,1.2,2.5*3C
$BDGSA,A,3,01,02,03,04,05,07,12,13,,,,,2.8,1.2,2.5*2A
$GLGSA,A,3,,,,,,,,,,,,,2.8,1.2,2.5*20
$GPGSV,2,1,06,02,00,000,26,06,00,000,26,09,00,000,25,17,00,000,26*74
$GPGSV,2,2,06,19,00,000,25,28,00,000,25*7D
$BDGSV,3,1,10,01,00,000,41,02,00,000,41,03,00,000,45,04,00,000,37*6A
$BDGSV,3,2,10,05,00,000,37,07,00,000,24,12,00,000,24,13,00,000,24*69
$BDGSV,3,3,10,19,00,000,23,22,00,000,23*61
$B3CN0,0,0,0,0,0,0,0,0,0,0,0,0,0,0*4C
$ini_pos,lastpos_good = 1,ini_pos.x:-1578910.421223,ini_pos.y:5312758.964452,ini_pos.z:3146346.485719
$rtc_local_time,localRTC.weeks:2055,localRTC.seconds:205732.643041,localGtime.weeks:2055,localGtime.seconds:205733.000000
$pseudo_cd_ph,prn:2,pseudo_cd_ph:3.997586963463
measnum = 0,full_prange = 22717816.781488
$oldmeas,msRange:0.000000,x:13059972.857998,y:21893128.561104,z:8333015.506891,vx:-859.917542,vy:-520.627075,vz:2915.031738,tb:-0.000223816333
$newmeas,x:13060038.020447,y:21893168.012827,z:8332794.609726,vx:-859.896606,vy:-520.611145,vz:2915.044678,tb:-0.000223816332
$pseudo_cd_ph,prn:6,pseudo_cd_ph:11.084440222001
measnum = 1,full_prange = 20718386.425753
$oldmeas,msRange:69.109825,x:1277840.984687,y:19816392.967273,z:17663362.457953,vx:-1563.226440,vy:-1599.516968,vz:1915.578613,tb:0.000193655158
$newmeas,x:1277949.017253,y:19816503.508236,z:17663230.073149,vx:-1563.208984,vy:-1599.510864,vz:1915.604492,tb:0.000193655159
$pseudo_cd_ph,prn:9,pseudo_cd_ph:18.086765494398
measnum = 2,full_prange = 24677722.594758
$oldmeas,msRange:82.316556,x:-24710515.888146,y:8490582.618697,z:-4842994.557049,vx:-657.784607,vy:-173.238144,vz:3075.968750,tb:0.000402904293
$newmeas,x:-24710461.740688,y:8490596.878839,z:-4843247.758214,vx:-657.814880,vy:-173.234909,vz:3075.960205,tb:0.000402904293
$pseudo_cd_ph,prn:17,pseudo_cd_ph:9.195729797304
measnum = 3,full_prange = 21245177.202226
$oldmeas,msRange:70.867045,x:-13528335.633138,y:14089137.135131,z:18363251.242518,vx:-2242.527832,vy:182.178894,vz:-1841.055542,tb:0.000062129606
$newmeas,x:-13528176.712945,y:14089124.225067,z:18363381.710326,vx:-2242.544434,vy:182.171066,vz:-1841.028564,tb:0.000062129605
$pseudo_cd_ph,prn:19,pseudo_cd_ph:10.770174229716
measnum = 4,full_prange = 20660526.930223
$oldmeas,msRange:68.916830,x:-6167924.183318,y:14607806.647390,z:21018379.189242,vx:-2727.582520,vy:169.201950,vz:-897.829651,tb:-0.000313609341
$newmeas,x:-6167736.208663,y:14607794.987023,z:21018441.063072,vx:-2727.591309,vy:169.191162,vz:-897.798035,tb:-0.000313609341
$pseudo_cd_ph,prn:28,pseudo_cd_ph:7.466743036682
measnum = 5,full_prange = 21975071.277903
$oldmeas,msRange:73.301813,x:-13057050.936199,y:22808185.405529,z:-3567657.881868,vx:27.358967,vy:-566.384705,vz:-3173.276611,tb:0.000767807405
$newmeas,x:-13057052.941296,y:22808226.921070,z:-3567425.277475,vx:27.349661,vy:-566.357544,vz:-3173.282227,tb:0.000767807405
$GNGGA,090835.000,2944.9059,N,10633.0917,E,1,08,1.2,312.2,M,,,,0000*19
$GNRMC,090835.000,A,2944.9059,N,10633.0917,E,0.26,0.00,280519,,*1F
$GPGSA,A,3,,,,,,,,,,,,,2.8,1.2,2.5*3C
$BDGSA,A,3,01,02,03,04,05,07,12,13,,,,,2.8,1.2,2.5*2A
$GLGSA,A,3,,,,,,,,,,,,,2.8,1.2,2.5*20
$GPGSV,2,1,07,02,34,266,39,06,63,311,46,09,10,118,38,17,56,050,44*79
$GPGSV,2,2,07,19,59,009,44,28,39,159,42,12,12,321,00*48
$BDGSV,3,1,12,01,40,126,41,02,48,220,41,03,56,171,45,04,23,109,39*66
$BDGSV,3,2,12,05,28,246,36,07,37,172,41,12,50,333,43,13,58,301,43*6A
$BDGSV,3,3,12,19,32,060,43,22,48,131,44,08,59,000,00,10,58,204,00*62
$B3CN0,0,0,0,0,0,0,0,0,0,0,0,0,0,0*4C
$ini_pos,lastpos_good = 1,ini_pos.x:-1578910.293718,ini_pos.y:5312761.824051,ini_pos.z:3146347.778338
$rtc_local_time,localRTC.weeks:2055,localRTC.seconds:205733.643040,localGtime.weeks:2055,localGtime.seconds:205734.000000
$pseudo_cd_ph,prn:2,pseudo_cd_ph:3.999172721557
measnum = 0,full_prange = 22717331.716165
$oldmeas,msRange:0.000000,x:13059112.802340,y:21892607.828788,z:8335930.452367,vx:-860.193848,vy:-520.837585,vz:2914.859375,tb:-0.000223816338
$newmeas,x:13059177.984338,y:21892647.295622,z:8335709.572971,vx:-860.172913,vy:-520.821655,vz:2914.872559,tb:-0.000223816338
$pseudo_cd_ph,prn:6,pseudo_cd_ph:11.085120207636
measnum = 1,full_prange = 20718172.905761
$oldmeas,msRange:69.109838,x:1276277.631454,y:19814793.406720,z:17665277.848918,vx:-1563.480103,vy:-1599.604248,vz:1915.203491,tb:0.000193655148
$newmeas,x:1276385.680434,y:19814903.952581,z:17665145.491402,vx:-1563.462524,vy:-1599.598267,vz:1915.229370,tb:0.000193655149
$pseudo_cd_ph,prn:9,pseudo_cd_ph:18.088810254169
measnum = 2,full_prange = 24677099.919717
$oldmeas,msRange:82.315217,x:-24711173.488575,y:8490409.360913,z:-4839918.536930,vx:-657.416321,vy:-173.277451,vz:3076.071533,tb:0.000402904285
$newmeas,x:-24711119.372797,y:8490423.623930,z:-4840171.740174,vx:-657.446655,vy:-173.274216,vz:3076.063232,tb:0.000402904286
$pseudo_cd_ph,prn:17,pseudo_cd_ph:9.196369055546
measnum = 3,full_prange = 21244975.892648
$oldmeas,msRange:70.867098,x:-13530578.043561,y:14089319.369294,z:18361409.997116,vx:-2242.293213,vy:182.289429,vz:-1841.435425,tb:0.000062129615
$newmeas,x:-13530419.141490,y:14089306.451520,z:18361540.490608,vx:-2242.309814,vy:182.281601,vz:-1841.408447,tb:0.000062129615
$pseudo_cd_ph,prn:19,pseudo_cd_ph:10.771182450847
measnum = 4,full_prange = 20660215.009077
$oldmeas,msRange:68.916506,x:-6170651.702550,y:14607975.927589,z:21017481.130088,vx:-2727.456055,vy:169.358459,vz:-898.288696,tb:-0.000313609339
$newmeas,x:-6170463.739456,y:14607964.256613,z:21017543.034617,vx:-2727.464844,vy:169.347672,vz:-898.257080,tb:-0.000313609339
$pseudo_cd_ph,prn:28,pseudo_cd_ph:7.465757293552
measnum = 5,full_prange = 21975357.128449
$oldmeas,msRange:73.303489,x:-13057023.513766,y:22807618.835820,z:-3570831.120325,vx:27.485893,vy:-566.754761,vz:-3173.200439,tb:0.000767807405
$newmeas,x:-13057025.528193,y:22807660.379027,z:-3570598.518496,vx:27.476591,vy:-566.727661,vz:-3173.206055,tb:0.000767807405
$GNGGA,090836.000,2944.9058,N,10633.0916,E,1,08,1.2,314.0,M,,,,0000*1E
$GNRMC,090836.000,A,2944.9058,N,10633.0916,E,0.56,0.00,280519,,*1B
$GPGSA,A,3,,,,,,,,,,,,,2.8,1.2,2.5*3C
$BDGSA,A,3,01,02,03,04,05,07,12,13,,,,,2.8,1.2,2.5*2A
$GLGSA,A,3,,,,,,,,,,,,,2.8,1.2,2.5*20
$GPGSV,2,1,07,02,34,266,40,06,63,311,46,09,10,118,37,17,56,050,44*78
$GPGSV,2,2,07,19,59,009,44,28,39,159,42,12,12,321,00*48
$BDGSV,3,1,12,01,40,126,41,02,48,220,40,03,56,171,43,04,23,109,39*61
$BDGSV,3,2,12,05,28,246,38,07,37,172,41,12,50,333,42,13,58,301,43*65
$BDGSV,3,3,12,19,32,060,43,22,48,131,44,08,59,000,00,10,58,204,00*62
$B3CN0,0,0,0,0,0,0,0,0,0,0,0,0,0,0*4C
$ini_pos,lastpos_good = 1,ini_pos.x:-1578910.684783,ini_pos.y:5312763.453563,ini_pos.z:3146348.473555
$rtc_local_time,localRTC.weeks:2055,localRTC.seconds:205734.643040,localGtime.weeks:2055,localGtime.seconds:205735.000000
$pseudo_cd_ph,prn:2,pseudo_cd_ph:4.000760202417
measnum = 0,full_prange = 22716846.132641
$oldmeas,msRange:0.000000,x:13058252.470333,y:21892086.885986,z:8338845.225573,vx:-860.470215,vy:-521.048035,vz:2914.687256,tb:-0.000223816344
$newmeas,x:13058317.671879,y:21892126.367924,z:8338624.363953,vx:-860.449280,vy:-521.032104,vz:2914.700195,tb:-0.000223816344
$pseudo_cd_ph,prn:6,pseudo_cd_ph:11.085796158568
measnum = 1,full_prange = 20717960.591928
$oldmeas,msRange:69.109857,x:1274714.024621,y:19813193.758849,z:17667192.864745,vx:-1563.733643,vy:-1599.691528,vz:1914.828247,tb:0.000193655138
$newmeas,x:1274822.090019,y:19813304.309610,z:17667060.534512,vx:-1563.716187,vy:-1599.685547,vz:1914.854248,tb:0.000193655138
$pseudo_cd_ph,prn:9,pseudo_cd_ph:18.090849517494
measnum = 2,full_prange = 24676478.897561
$oldmeas,msRange:82.313876,x:-24711830.720731,y:8490236.063790,z:-4836842.413975,vx:-657.048035,vy:-173.316818,vz:3076.174561,tb:0.000402904278
$newmeas,x:-24711776.636628,y:8490250.329689,z:-4837095.619309,vx:-657.078369,vy:-173.313568,vz:3076.166016,tb:0.000402904279
$pseudo_cd_ph,prn:17,pseudo_cd_ph:9.197006531358
measnum = 3,full_prange = 21244775.119141
$oldmeas,msRange:70.867153,x:-13532820.219481,y:14089501.713973,z:18359568.371853,vx:-2242.058838,vy:182.399933,vz:-1841.815186,tb:0.000062129625
$newmeas,x:-13532661.335531,y:14089488.788490,z:18359698.891029,vx:-2242.075439,vy:182.392105,vz:-1841.788330,tb:0.000062129624
$pseudo_cd_ph,prn:19,pseudo_cd_ph:10.772192596107
measnum = 4,full_prange = 20659902.507188
$oldmeas,msRange:68.916185,x:-6173379.095158,y:14608145.364278,z:21016582.611928,vx:-2727.329346,vy:169.514938,vz:-898.747681,tb:-0.000313609338
$newmeas,x:-6173191.143636,y:14608133.682695,z:21016644.547151,vx:-2727.338135,vy:169.504150,vz:-898.716064,tb:-0.000313609338
$pseudo_cd_ph,prn:28,pseudo_cd_ph:7.464771438554
measnum = 5,full_prange = 21975643.005799
$oldmeas,msRange:73.305167,x:-13056995.964431,y:22807051.896045,z:-3574004.282466,vx:27.612770,vy:-567.124817,vz:-3173.124023,tb:0.000767807404
$newmeas,x:-13056997.988185,y:22807093.466920,z:-3573771.683209,vx:27.603472,vy:-567.097717,vz:-3173.129639,tb:0.000767807404
$GNGGA,090837.000,2944.9057,N,10633.0914,E,1,08,1.2,315.6,M,,,,0000*15
$GNRMC,090837.000,A,2944.9057,N,10633.0914,E,0.69,0.00,280519,,*1B
$GPGSA,A,3,,,,,,,,,,,,,2.8,1.2,2.5*3C
$BDGSA,A,3,01,02,03,04,05,07,12,13,,,,,2.8,1.2,2.5*2A
$GLGSA,A,3,,,,,,,,,,,,,2.8,1.2,2.5*20
$GPGSV,2,1,07,02,34,266,40,06,63,311,46,09,10,118,36,17,56,050,45*78
$GPGSV,2,2,07,19,59,009,44,28,39,159,41,12,12,321,00*4B
$BDGSV,3,1,12,01,40,126,43,02,48,220,40,03,56,171,43,04,23,109,40*6D
$BDGSV,3,2,12,05,28,246,38,07,37,172,40,12,50,333,42,13,58,301,43*64
$BDGSV,3,3,12,19,32,060,43,22,48,131,44,08,59,000,00,10,58,204,00*62
$B3CN0,0,0,0,0,0,0,0,0,0,0,0,0,0,0*4C
$ini_pos,lastpos_good = 1,ini_pos.x:-1578910.788570,ini_pos.y:5312764.992164,ini_pos.z:3146349.067560
$rtc_local_time,localRTC.weeks:2055,localRTC.seconds:205735.643040,localGtime.weeks:2055,localGtime.seconds:205736.000000
$pseudo_cd_ph,prn:2,pseudo_cd_ph:205735924.002349406481
measnum = 0,full_prange = 22716360.030916
$oldmeas,msRange:0.000000,x:13057391.861962,y:21891565.732748,z:8341759.826448,vx:-860.746582,vy:-521.258484,vz:2914.514893,tb:-0.000223816350
$newmeas,x:13057457.083054,y:21891605.229785,z:8341538.982615,vx:-860.725647,vy:-521.242493,vz:2914.527832,tb:-0.000223816350
$pseudo_cd_ph,prn:6,pseudo_cd_ph:205735931.086474031210
measnum = 1,full_prange = 20717747.697352
$oldmeas,msRange:69.109875,x:1273150.164198,y:19811594.023722,z:17669107.505395,vx:-1563.987305,vy:-1599.778809,vz:1914.453125,tb:0.000193655128
$newmeas,x:1273258.246010,y:19811704.579375,z:17668975.202450,vx:-1563.969727,vy:-1599.772705,vz:1914.479004,tb:0.000193655128
$pseudo_cd_ph,prn:9,pseudo_cd_ph:205735918.092893272638
measnum = 2,full_prange = 24675856.526293
$oldmeas,msRange:82.312537,x:-24712487.584608,y:8490062.727280,z:-4833766.188248,vx:-656.679749,vy:-173.356232,vz:3076.277100,tb:0.000402904271
$newmeas,x:-24712433.532183,y:8490076.996062,z:-4834019.395653,vx:-656.710083,vy:-173.352982,vz:3076.268799,tb:0.000402904272
$pseudo_cd_ph,prn:17,pseudo_cd_ph:205735929.197646796703
measnum = 3,full_prange = 21244573.505789
$oldmeas,msRange:70.867209,x:-13535062.160846,y:14089684.169130,z:18357726.366765,vx:-2241.824219,vy:182.510391,vz:-1842.195068,tb:0.000062129634
$newmeas,x:-13534903.295027,y:14089671.235942,z:18357856.911618,vx:-2241.840820,vy:182.502563,vz:-1842.168091,tb:0.000062129634
$pseudo_cd_ph,prn:19,pseudo_cd_ph:205735930.773206055164
measnum = 4,full_prange = 20659589.013568
$oldmeas,msRange:68.915866,x:-6176106.361077,y:14608314.957437,z:21015683.634781,vx:-2727.202637,vy:169.671387,vz:-899.206665,tb:-0.000313609336
$newmeas,x:-6175918.421139,y:14608303.265249,z:21015745.600694,vx:-2727.211426,vy:169.660614,vz:-899.175049,tb:-0.000313609336
$pseudo_cd_ph,prn:28,pseudo_cd_ph:205735927.463788866997
measnum = 5,full_prange = 21975927.909286
$oldmeas,msRange:73.306846,x:-13056968.288246,y:22806484.586190,z:-3577177.368225,vx:27.739594,vy:-567.494934,vz:-3173.047607,tb:0.000767807403
$newmeas,x:-13056970.321323,y:22806526.184732,z:-3576944.771553,vx:27.730299,vy:-567.467773,vz:-3173.053223,tb:0.000767807403
$GNGGA,090838.000,2944.9056,N,10633.0911,E,1,14,0.1,315.4,M,,,,0000*13
$GNRMC,090838.000,A,2944.9056,N,10633.0911,E,0.16,0.00,280519,,*18
$GPGSA,A,3,02,06,09,17,19,28,,,,,,,0.1,0.1,0.0*3B
$BDGSA,A,3,01,02,03,04,05,07,12,13,,,,,0.1,0.1,0.0*24
$GLGSA,A,3,,,,,,,,,,,,,0.1,0.1,0.0*2E
$GPGSV,2,1,07,02,34,266,40,06,63,311,46,09,10,118,37,17,56,050,44*78
$GPGSV,2,2,07,19,59,009,45,28,39,159,42,12,12,321,00*49
$BDGSV,3,1,12,01,40,126,41,02,48,220,41,03,56,171,43,04,23,109,40*6E
$BDGSV,3,2,12,05,28,246,39,07,37,172,40,12,50,333,42,13,58,301,43*65
$BDGSV,3,3,12,19,32,060,42,22,48,131,44,08,59,000,00,10,58,204,00*63
$B3CN0,0,0,0,0,0,0,0,0,0,0,0,0,0,0*4C
$ini_pos,lastpos_good = 1,ini_pos.x:-1578910.306189,ini_pos.y:5312764.912692,ini_pos.z:3146348.917287
$rtc_local_time,localRTC.weeks:2055,localRTC.seconds:205736.643040,localGtime.weeks:2055,localGtime.seconds:205737.000000
$pseudo_cd_ph,prn:2,pseudo_cd_ph:205736924.003939628601
measnum = 0,full_prange = 22715873.625417
$oldmeas,msRange:0.000000,x:13056530.977211,y:21891044.369126,z:8344674.254935,vx:-861.022949,vy:-521.468811,vz:2914.342285,tb:-0.000223816356
$newmeas,x:13056596.217849,y:21891083.881256,z:8344453.428895,vx:-861.002014,vy:-521.452881,vz:2914.355469,tb:-0.000223816356
$pseudo_cd_ph,prn:6,pseudo_cd_ph:205736931.087150901556
measnum = 1,full_prange = 20717535.106549
$oldmeas,msRange:69.109900,x:1271586.050199,y:19809994.201401,z:17671021.770826,vx:-1564.240845,vy:-1599.865967,vz:1914.077881,tb:0.000193655117
$newmeas,x:1271694.148425,y:19810104.761943,z:17670889.495169,vx:-1564.223267,vy:-1599.859985,vz:1914.103760,tb:0.000193655118
$pseudo_cd_ph,prn:9,pseudo_cd_ph:205736918.094930797815
measnum = 2,full_prange = 24675236.022339
$oldmeas,msRange:82.311199,x:-24713144.080203,y:8489889.351329,z:-4830689.859816,vx:-656.311462,vy:-173.395691,vz:3076.379883,tb:0.000402904264
$newmeas,x:-24713090.059449,y:8489903.623001,z:-4830943.069305,vx:-656.341797,vy:-173.392441,vz:3076.371338,tb:0.000402904265
$pseudo_cd_ph,prn:17,pseudo_cd_ph:205736929.198286712170
measnum = 3,full_prange = 21244371.999652
$oldmeas,msRange:70.867271,x:-13537303.867606,y:14089866.734725,z:18355883.981890,vx:-2241.589600,vy:182.620804,vz:-1842.574829,tb:0.000062129644
$newmeas,x:-13537145.019920,y:14089853.793835,z:18356014.552416,vx:-2241.606201,vy:182.612991,vz:-1842.547852,tb:0.000062129643
$pseudo_cd_ph,prn:19,pseudo_cd_ph:205736930.774220734835
measnum = 4,full_prange = 20659275.153633
$oldmeas,msRange:68.915551,x:-6178833.500238,y:14608484.707045,z:21014784.198669,vx:-2727.075928,vy:169.827835,vz:-899.665588,tb:-0.000313609334
$newmeas,x:-6178645.571893,y:14608473.004254,z:21014846.195268,vx:-2727.084473,vy:169.817047,vz:-899.633972,tb:-0.000313609334
$pseudo_cd_ph,prn:28,pseudo_cd_ph:205736927.462802737951
measnum = 5,full_prange = 21976213.875980
$oldmeas,msRange:73.308530,x:-13056940.485264,y:22805916.906241,z:-3580350.377532,vx:27.866364,vy:-567.864990,vz:-3172.971191,tb:0.000767807403
$newmeas,x:-13056942.527661,y:22805958.532455,z:-3580117.783440,vx:27.857073,vy:-567.837891,vz:-3172.976807,tb:0.000767807403
$GNGGA,090839.000,2944.9058,N,10633.0923,E,1,14,0.8,323.4,M,,,,0000*11
$GNRMC,090839.000,A,2944.9058,N,10633.0923,E,0.20,0.00,280519,,*13
$GPGSA,A,3,02,06,09,17,19,28,,,,,,,1.0,0.8,0.5*37
$BDGSA,A,3,01,02,03,04,05,07,12,13,,,,,1.0,0.8,0.5*28
$GLGSA,A,3,,,,,,,,,,,,,1.0,0.8,0.5*22
$GPGSV,2,1,07,02,34,266,40,06,63,311,45,09,10,118,36,17,56,050,44*7A
$GPGSV,2,2,07,19,59,009,44,28,39,159,42,12,12,321,00*48
$BDGSV,3,1,12,01,40,126,40,02,48,220,40,03,56,171,43,04,23,109,40*6E
$BDGSV,3,2,12,05,28,246,36,07,37,172,41,12,50,333,42,13,58,301,43*6B
$BDGSV,3,3,12,19,32,060,43,22,48,131,44,08,59,000,00,10,58,204,00*62
$B3CN0,0,0,0,0,0,0,0,0,0,0,0,0,0,0*4C
$ini_pos,lastpos_good = 1,ini_pos.x:-1578914.012173,ini_pos.y:5312770.865250,ini_pos.z:3146353.179989
$rtc_local_time,localRTC.weeks:2055,localRTC.seconds:205737.643040,localGtime.weeks:2055,localGtime.seconds:205738.000000
$pseudo_cd_ph,prn:2,pseudo_cd_ph:205737924.005533933640
measnum = 0,full_prange = 22715385.995891
$oldmeas,msRange:0.000000,x:13055669.816065,y:21890522.795172,z:8347588.510973,vx:-861.299377,vy:-521.679138,vz:2914.169922,tb:-0.000223816362
$newmeas,x:13055735.076245,y:21890562.322389,z:8347367.702742,vx:-861.278442,vy:-521.663208,vz:2914.182861,tb:-0.000223816361
$pseudo_cd_ph,prn:6,pseudo_cd_ph:205737931.087829619646
measnum = 1,full_prange = 20717321.961806
$oldmeas,msRange:69.109902,x:1270021.682634,y:19808394.291950,z:17672935.660998,vx:-1564.494385,vy:-1599.953003,vz:1913.702637,tb:0.000193655107
$newmeas,x:1270129.797271,y:19808504.857373,z:17672803.412636,vx:-1564.476929,vy:-1599.947021,vz:1913.728516,tb:0.000193655108
$pseudo_cd_ph,prn:9,pseudo_cd_ph:205737918.096977442503
measnum = 2,full_prange = 24674612.784424
$oldmeas,msRange:82.309850,x:-24713800.207510,y:8489715.935888,z:-4827613.428743,vx:-655.943176,vy:-173.435211,vz:3076.482422,tb:0.000402904257
$newmeas,x:-24713746.218433,y:8489730.210452,z:-4827866.640282,vx:-655.973511,vy:-173.431961,vz:3076.474121,tb:0.000402904258
$pseudo_cd_ph,prn:17,pseudo_cd_ph:205737929.198928058147
measnum = 3,full_prange = 21244170.064658
$oldmeas,msRange:70.867306,x:-13539545.339707,y:14090049.410723,z:18354041.217263,vx:-2241.354736,vy:182.731186,vz:-1842.954590,tb:0.000062129653
$newmeas,x:-13539386.510162,y:14090036.462133,z:18354171.813458,vx:-2241.371338,vy:182.723373,vz:-1842.927612,tb:0.000062129652
$pseudo_cd_ph,prn:19,pseudo_cd_ph:205737930.775237381458
measnum = 4,full_prange = 20658960.704020
$oldmeas,msRange:68.915212,x:-6181560.512574,y:14608654.613081,z:21013884.303611,vx:-2726.948975,vy:169.984253,vz:-900.124573,tb:-0.000313609332
$newmeas,x:-6181372.595831,y:14608642.899689,z:21013946.330892,vx:-2726.957764,vy:169.973465,vz:-900.092957,tb:-0.000313609332
$pseudo_cd_ph,prn:28,pseudo_cd_ph:205737927.461819857359
measnum = 5,full_prange = 21976498.868812
$oldmeas,msRange:73.310196,x:-13056912.555537,y:22805348.856186,z:-3583523.310319,vx:27.993084,vy:-568.235107,vz:-3172.894531,tb:0.000767807402
$newmeas,x:-13056914.607249,y:22805390.510071,z:-3583290.718823,vx:27.983797,vy:-568.208008,vz:-3172.900146,tb:0.000767807402
$GNGGA,090840.000,2944.9059,N,10633.0925,E,1,16,0.7,323.9,M,,,,0000*18
$GNRMC,090840.000,A,2944.9059,N,10633.0925,E,0.20,0.00,280519,,*1A
$GPGSA,A,3,02,06,09,17,19,28,,,,,,,0.9,0.7,0.5*30
$BDGSA,A,3,01,02,03,04,05,07,12,13,19,22,,,0.9,0.7,0.5*27
$GLGSA,A,3,,,,,,,,,,,,,0.9,0.7,0.5*25
$GPGSV,2,1,07,02,34,266,40,06,63,311,45,09,10,118,37,17,56,050,44*7B
$GPGSV,2,2,07,19,59,009,43,28,39,159,42,12,12,321,00*4F
$BDGSV,3,1,12,01,40,126,41,02,48,220,40,03,56,171,43,04,23,109,40*6F
$BDGSV,3,2,12,05,28,246,39,07,37,172,41,12,50,333,42,13,58,301,43*64
$BDGSV,3,3,12,19,32,060,42,22,48,131,44,08,59,000,00,10,58,204,00*63
$B3CN0,0,0,0,0,0,0,0,0,0,0,0,0,0,0*4C
$ini_pos,lastpos_good = 1,ini_pos.x:-1578914.452601,ini_pos.y:5312771.091052,ini_pos.z:3146353.586938
$rtc_local_time,localRTC.weeks:2055,localRTC.seconds:205738.643040,localGtime.weeks:2055,localGtime.seconds:205739.000000
$pseudo_cd_ph,prn:2,pseudo_cd_ph:205738924.007132470608
measnum = 0,full_prange = 22714897.097664
$oldmeas,msRange:0.000000,x:13054808.378507,y:21890001.010936,z:8350502.594505,vx:-861.575806,vy:-521.889404,vz:2913.997314,tb:-0.000223816368
$newmeas,x:13054873.658227,y:21890040.553234,z:8350281.804099,vx:-861.554871,vy:-521.873474,vz:2914.010498,tb:-0.000223816367
$pseudo_cd_ph,prn:6,pseudo_cd_ph:205738931.088509142399
measnum = 1,full_prange = 20717108.575832
$oldmeas,msRange:69.109924,x:1268457.061517,y:19806794.295431,z:17674849.175871,vx:-1564.747925,vy:-1600.040039,vz:1913.327271,tb:0.000193655097
$newmeas,x:1268565.192561,y:19806904.865730,z:17674716.954808,vx:-1564.730469,vy:-1600.034058,vz:1913.353149,tb:0.000193655098
$pseudo_cd_ph,prn:9,pseudo_cd_ph:205738918.099020928144
measnum = 2,full_prange = 24673990.493567
$oldmeas,msRange:82.308509,x:-24714455.966523,y:8489542.480906,z:-4824536.895096,vx:-655.574890,vy:-173.474777,vz:3076.584961,tb:0.000402904250
$newmeas,x:-24714402.009120,y:8489556.758365,z:-4824790.108688,vx:-655.605225,vy:-173.471512,vz:3076.576660,tb:0.000402904250
$pseudo_cd_ph,prn:17,pseudo_cd_ph:205738929.199570149183
measnum = 3,full_prange = 21243967.906301
$oldmeas,msRange:70.867364,x:-13541786.577099,y:14090232.197083,z:18352198.072923,vx:-2241.120117,vy:182.841537,vz:-1843.334229,tb:0.000062129663
$newmeas,x:-13541627.765699,y:14090219.240797,z:18352328.694780,vx:-2241.136719,vy:182.833710,vz:-1843.307373,tb:0.000062129662
$pseudo_cd_ph,prn:19,pseudo_cd_ph:205738930.776254564524
measnum = 4,full_prange = 20658646.093587
$oldmeas,msRange:68.914895,x:-6184287.398017,y:14608824.675524,z:21012983.949629,vx:-2726.822021,vy:170.140640,vz:-900.583496,tb:-0.000313609331
$newmeas,x:-6184099.492882,y:14608812.951533,z:21013046.007589,vx:-2726.830811,vy:170.129868,vz:-900.551819,tb:-0.000313609331
$pseudo_cd_ph,prn:28,pseudo_cd_ph:205738927.460839837790
measnum = 5,full_prange = 21976783.003930
$oldmeas,msRange:73.311878,x:-13056884.499116,y:22804780.436010,z:-3586696.166518,vx:28.119751,vy:-568.605286,vz:-3172.817871,tb:0.000767807401
$newmeas,x:-13056886.560141,y:22804822.117567,z:-3586463.577632,vx:28.110468,vy:-568.578125,vz:-3172.823486,tb:0.000767807401
$GNGGA,090841.000,2944.9060,N,10633.0928,E,1,16,0.7,324.3,M,,,,0000*13
$GNRMC,090841.000,A,2944.9060,N,10633.0928,E,0.19,0.00,280519,,*16
$GPGSA,A,3,02,06,09,17,19,28,,,,,,,0.9,0.7,0.5*30
$BDGSA,A,3,01,02,03,04,05,07,12,13,19,22,,,0.9,0.7,0.5*27
$GLGSA,A,3,,,,,,,,,,,,,0.9,0.7,0.5*25
$GPGSV,2,1,07,02,34,266,40,06,63,311,46,09,10,118,37,17,56,050,45*79
$GPGSV,2,2,07,19,59,009,43,28,39,159,42,12,12,321,00*4F
$BDGSV,3,1,12,01,40,126,40,02,48,220,40,03,56,171,43,04,23,109,41*6F
$BDGSV,3,2,12,05,28,246,39,07,37,172,41,12,50,333,42,13,58,301,44*63
$BDGSV,3,3,12,19,32,060,42,22,48,131,45,08,59,000,00,10,58,204,00*62
$B3CN0,0,0,0,0,0,0,0,0,0,0,0,0,0,0*4C
$ini_pos,lastpos_good = 1,ini_pos.x:-1578914.922092,ini_pos.y:5312771.229568,ini_pos.z:3146353.950741
$rtc_local_time,localRTC.weeks:2055,localRTC.seconds:205739.643040,localGtime.weeks:2055,localGtime.seconds:205740.000000
$pseudo_cd_ph,prn:2,pseudo_cd_ph:205739924.008735090494
measnum = 0,full_prange = 22714406.975409
$oldmeas,msRange:0.000000,x:13053946.664523,y:21889479.016471,z:8353416.505471,vx:-861.852234,vy:-522.099609,vz:2913.824707,tb:-0.000223816374
$newmeas,x:13054011.963779,y:21889518.573842,z:8353195.732906,vx:-861.831299,vy:-522.083679,vz:2913.837891,tb:-0.000223816373
$pseudo_cd_ph,prn:6,pseudo_cd_ph:205739931.089189171791
measnum = 1,full_prange = 20716895.037971
$oldmeas,msRange:69.109948,x:1266892.186860,y:19805194.211906,z:17676762.315405,vx:-1565.001465,vy:-1600.127075,vz:1912.951904,tb:0.000193655087
$newmeas,x:1267000.334310,y:19805304.787077,z:17676630.121643,vx:-1564.984009,vy:-1600.121094,vz:1912.977905,tb:0.000193655088
$pseudo_cd_ph,prn:9,pseudo_cd_ph:205739918.101067036390
measnum = 2,full_prange = 24673367.416472
$oldmeas,msRange:82.307169,x:-24715111.357239,y:8489368.986330,z:-4821460.258939,vx:-655.206604,vy:-173.514389,vz:3076.687500,tb:0.000402904243
$newmeas,x:-24715057.431510,y:8489383.266690,z:-4821713.474571,vx:-655.236877,vy:-173.511139,vz:3076.678955,tb:0.000402904243
$pseudo_cd_ph,prn:17,pseudo_cd_ph:205739929.200211107731
measnum = 3,full_prange = 21243766.087455
$oldmeas,msRange:70.867423,x:-13544027.579730,y:14090415.093768,z:18350354.548904,vx:-2240.885254,vy:182.951843,vz:-1843.713867,tb:0.000062129672
$newmeas,x:-13543868.786476,y:14090402.129789,z:18350485.196424,vx:-2240.901855,vy:182.944031,vz:-1843.687012,tb:0.000062129671
$pseudo_cd_ph,prn:19,pseudo_cd_ph:205739930.777273744345
measnum = 4,full_prange = 20658330.884541
$oldmeas,msRange:68.914579,x:-6187014.156499,y:14608994.894354,z:21012083.136742,vx:-2726.695068,vy:170.297028,vz:-901.042358,tb:-0.000313609329
$newmeas,x:-6186826.262982,y:14608983.159766,z:21012145.225378,vx:-2726.703857,vy:170.286240,vz:-901.010742,tb:-0.000313609329
$pseudo_cd_ph,prn:28,pseudo_cd_ph:205739927.459860980511
measnum = 5,full_prange = 21977066.790602
$oldmeas,msRange:73.313561,x:-13056856.316054,y:22804211.645701,z:-3589868.946061,vx:28.246367,vy:-568.975403,vz:-3172.741211,tb:0.000767807400
$newmeas,x:-13056858.386388,y:22804253.354930,z:-3589636.359792,vx:28.237085,vy:-568.948242,vz:-3172.746826,tb:0.000767807400
$GNGGA,090842.000,2944.9061,N,10633.0929,E,1,16,0.7,325.8,M,,,,0000*1A
$GNRMC,090842.000,A,2944.9061,N,10633.0929,E,0.35,0.00,280519,,*1B
$GPGSA,A,3,02,06,09,17,19,28,,,,,,,0.9,0.7,0.5*30
$BDGSA,A,3,01,02,03,04,05,07,12,13,19,22,,,0.9,0.7,0.5*27
$GLGSA,A,3,,,,,,,,,,,,,0.9,0.7,0.5*25
$GPGSV,2,1,07,02,34,266,41,06,63,311,46,09,10,118,37,17,56,050,45*78
$GPGSV,2,2,07,19,59,009,45,28,39,159,42,12,12,321,00*49
$BDGSV,3,1,12,01,40,126,41,02,48,220,40,03,56,171,43,04,23,109,40*6F
$BDGSV,3,2,12,05,28,246,38,07,37,172,41,12,50,333,43,13,58,301,43*64
$BDGSV,3,3,12,19,32,060,43,22,48,131,44,26,00,000,43,08,59,000,00*6B
$B3CN0,22,0,0,0,0,0,0,0,0,0,0,0,0,0*7C
$ini_pos,lastpos_good = 1,ini_pos.x:-1578915.583245,ini_pos.y:5312772.411192,ini_pos.z:3146354.782908
$rtc_local_time,localRTC.weeks:2055,localRTC.seconds:205740.643040,localGtime.weeks:2055,localGtime.seconds:205741.000000
$pseudo_cd_ph,prn:2,pseudo_cd_ph:205740924.010333329439
measnum = 0,full_prange = 22713918.166528
$oldmeas,msRange:0.000000,x:13053084.674097,y:21888956.811827,z:8356330.243811,vx:-862.128662,vy:-522.309753,vz:2913.652100,tb:-0.000223816380
$newmeas,x:13053149.992893,y:21888996.384269,z:8356109.489078,vx:-862.107727,vy:-522.293823,vz:2913.665283,tb:-0.000223816379
$pseudo_cd_ph,prn:6,pseudo_cd_ph:205740931.089865624905
measnum = 1,full_prange = 20716682.572251
$oldmeas,msRange:69.109968,x:1265327.058675,y:19803594.041439,z:17678675.079559,vx:-1565.255005,vy:-1600.213989,vz:1912.576538,tb:0.000193655077
$newmeas,x:1265435.222535,y:19803704.621482,z:17678542.913094,vx:-1565.237427,vy:-1600.208008,vz:1912.602417,tb:0.000193655078
$pseudo_cd_ph,prn:9,pseudo_cd_ph:205740918.103117495775
measnum = 2,full_prange = 24672743.034940
$oldmeas,msRange:82.305828,x:-24715766.379652,y:8489195.452111,z:-4818383.520337,vx:-654.838257,vy:-173.554062,vz:3076.789795,tb:0.000402904236
$newmeas,x:-24715712.485599,y:8489209.735374,z:-4818636.737990,vx:-654.868591,vy:-173.550797,vz:3076.781494,tb:0.000402904236
$pseudo_cd_ph,prn:17,pseudo_cd_ph:205740929.200853496790
measnum = 3,full_prange = 21243563.839753
$oldmeas,msRange:70.867479,x:-13546268.347549,y:14090598.100740,z:18348510.645245,vx:-2240.650391,vy:183.062103,vz:-1844.093506,tb:0.000062129681
$newmeas,x:-13546109.572447,y:14090585.129070,z:18348641.318422,vx:-2240.666992,vy:183.054291,vz:-1844.066650,tb:0.000062129681
$pseudo_cd_ph,prn:19,pseudo_cd_ph:205740930.778290420771
measnum = 4,full_prange = 20658016.425994
$oldmeas,msRange:68.914260,x:-6189740.787954,y:14609165.269550,z:21011181.864972,vx:-2726.568115,vy:170.453384,vz:-901.501221,tb:-0.000313609327
$newmeas,x:-6189552.906052,y:14609153.524366,z:21011243.984282,vx:-2726.576660,vy:170.442596,vz:-901.469604,tb:-0.000313609327
$pseudo_cd_ph,prn:28,pseudo_cd_ph:205740927.458878546953
measnum = 5,full_prange = 21977351.649415
$oldmeas,msRange:73.315242,x:-13056828.006403,y:22803642.485245,z:-3593041.648878,vx:28.372929,vy:-569.345581,vz:-3172.664551,tb:0.000767807400
$newmeas,x:-13056830.086042,y:22803684.222150,z:-3592809.065221,vx:28.363653,vy:-569.318420,vz:-3172.670166,tb:0.000767807400
$GNGGA,090843.000,2944.9061,N,10633.0930,E,1,16,0.7,326.1,M,,,,0000*19
$GNRMC,090843.000,A,2944.9061,N,10633.0930,E,0.24,0.00,280519,,*12
$GPGSA,A,3,02,06,09,17,19,28,,,,,,,0.9,0.7,0.5*30
$BDGSA,A,3,01,02,03,04,05,07,12,13,19,22,,,0.9,0.7,0.5*27
$GLGSA,A,3,,,,,,,,,,,,,0.9,0.7,0.5*25
$GPGSV,2,1,08,02,34,266,39,06,63,311,46,09,10,118,37,04,00,000,17*7B
$GPGSV,2,2,08,17,56,050,45,19,59,009,45,28,39,159,42,12,12,321,00*77
$BDGSV,3,1,12,01,40,126,41,02,48,220,41,03,56,171,43,04,23,109,39*60
$BDGSV,3,2,12,05,28,246,37,07,37,172,41,12,50,333,43,13,58,301,44*6C
$BDGSV,3,3,12,19,32,060,43,22,48,131,45,26,00,000,42,08,59,000,00*6B
$B3CN0,0,0,0,0,0,0,0,0,0,0,0,0,0,0*4C
$ini_pos,lastpos_good = 1,ini_pos.x:-1578915.710822,ini_pos.y:5312772.628006,ini_pos.z:3146354.951442
$rtc_local_time,localRTC.weeks:2055,localRTC.seconds:205741.643040,localGtime.weeks:2055,localGtime.seconds:205742.000000
$pseudo_cd_ph,prn:2,pseudo_cd_ph:205741924.011934101582
measnum = 0,full_prange = 22713428.598214
$oldmeas,msRange:0.000000,x:13052222.407213,y:21888434.397057,z:8359243.809467,vx:-862.405151,vy:-522.519836,vz:2913.479492,tb:-0.000223816385
$newmeas,x:13052287.745547,y:21888473.984564,z:8359023.072578,vx:-862.384216,vy:-522.503906,vz:2913.492432,tb:-0.000223816385
$pseudo_cd_ph,prn:6,pseudo_cd_ph:205741931.090542495251
measnum = 1,full_prange = 20716469.981449
$oldmeas,msRange:69.109992,x:1263761.676974,y:19801993.784093,z:17680587.468292,vx:-1565.508545,vy:-1600.300781,vz:1912.201050,tb:0.000193655067
$newmeas,x:1263869.857242,y:19802104.369002,z:17680455.329128,vx:-1565.490967,vy:-1600.294800,vz:1912.227051,tb:0.000193655067
$pseudo_cd_ph,prn:9,pseudo_cd_ph:205741918.105164051056
measnum = 2,full_prange = 24672119.823828
$oldmeas,msRange:82.304489,x:-24716421.033757,y:8489021.878197,z:-4815306.679356,vx:-654.469971,vy:-173.593781,vz:3076.892334,tb:0.000402904229
$newmeas,x:-24716367.171377,y:8489036.164368,z:-4815559.899036,vx:-654.500305,vy:-173.590515,vz:3076.883789,tb:0.000402904229
$pseudo_cd_ph,prn:17,pseudo_cd_ph:205741929.201495260000
measnum = 3,full_prange = 21243361.779675
$oldmeas,msRange:70.867539,x:-13548508.880504,y:14090781.217960,z:18346666.361981,vx:-2240.415527,vy:183.172333,vz:-1844.473145,tb:0.000062129691
$newmeas,x:-13548350.123556,y:14090768.238603,z:18346797.060813,vx:-2240.432129,vy:183.164536,vz:-1844.446167,tb:0.000062129690
$pseudo_cd_ph,prn:19,pseudo_cd_ph:205741930.779307961464
measnum = 4,full_prange = 20657701.708346
$oldmeas,msRange:68.913944,x:-6192467.292313,y:14609335.801091,z:21010280.134338,vx:-2726.440918,vy:170.609711,vz:-901.960083,tb:-0.000313609325
$newmeas,x:-6192279.422033,y:14609324.045314,z:21010342.284320,vx:-2726.449707,vy:170.598938,vz:-901.928467,tb:-0.000313609326
$pseudo_cd_ph,prn:28,pseudo_cd_ph:205741927.457895398140
measnum = 5,full_prange = 21977636.722657
$oldmeas,msRange:73.316926,x:-13056799.570215,y:22803072.954628,z:-3596214.274901,vx:28.499439,vy:-569.715698,vz:-3172.587646,tb:0.000767807399
$newmeas,x:-13056801.659155,y:22803114.719211,z:-3595981.693860,vx:28.490168,vy:-569.688599,vz:-3172.593262,tb:0.000767807399
$pseudo_cd_ph,prn:12,pseudo_cd_ph:19.294058858474
measnum = 6,full_prange = 24266391.575539
$oldmeas,msRange:80.951113,x:13780902.427787,y:4978144.896783,z:21932646.574144,vx:-1103.370850,vy:2607.695068,vz:116.936661,tb:0.000238435276
$newmeas,x:13780991.739513,y:4977933.819856,z:21932637.107266,vx:-1103.383423,vy:2607.688721,vz:116.975220,tb:0.000238435277
$GNGGA,090844.000,2944.9061,N,10633.0930,E,1,16,0.7,325.5,M,,,,0000*19
$GNRMC,090844.000,A,2944.9061,N,10633.0930,E,0.19,0.00,280519,,*1B
$GPGSA,A,3,02,06,09,17,19,28,,,,,,,0.9,0.7,0.5*30
$BDGSA,A,3,01,02,03,04,05,07,12,13,19,22,,,0.9,0.7,0.5*27
$GLGSA,A,3,,,,,,,,,,,,,0.9,0.7,0.5*25
$GPGSV,2,1,08,02,34,266,39,06,63,311,46,09,10,118,36,04,00,000,35*7A
$GPGSV,2,2,08,17,56,050,44,19,59,009,45,28,39,159,42,12,12,321,30*75
$BDGSV,3,1,12,01,40,126,40,02,48,220,40,03,56,171,43,04,23,109,40*6E
$BDGSV,3,2,12,05,28,246,36,07,37,172,41,12,50,333,43,13,58,301,44*6D
$BDGSV,3,3,12,19,32,060,43,22,48,131,45,26,00,000,43,08,59,000,00*6A
$B3CN0,0,0,0,0,0,0,0,0,0,0,0,0,20,0*7E
$ini_pos,lastpos_good = 1,ini_pos.x:-1578915.538818,ini_pos.y:5312772.146393,ini_pos.z:3146354.668400
$rtc_local_time,localRTC.weeks:2055,localRTC.seconds:205742.643040,localGtime.weeks:2055,localGtime.seconds:205743.000000
$pseudo_cd_ph,prn:2,pseudo_cd_ph:205742924.013534486294
measnum = 0,full_prange = 22712939.146048
$oldmeas,msRange:0.000000,x:13051359.863856,y:21887911.772211,z:8362157.202380,vx:-862.681641,vy:-522.729858,vz:2913.306641,tb:-0.000223816391
$newmeas,x:13051425.221729,y:21887951.374780,z:8361936.483337,vx:-862.660706,vy:-522.713989,vz:2913.319824,tb:-0.000223816391
$pseudo_cd_ph,prn:6,pseudo_cd_ph:205742931.091222703457
measnum = 1,full_prange = 20716256.389981
$oldmeas,msRange:69.110019,x:1262196.041770,y:19800393.439929,z:17682499.481565,vx:-1565.761963,vy:-1600.387573,vz:1911.825562,tb:0.000193655057
$newmeas,x:1262304.238440,y:19800504.029695,z:17682367.369710,vx:-1565.744507,vy:-1600.381592,vz:1911.851562,tb:0.000193655057
$pseudo_cd_ph,prn:9,pseudo_cd_ph:205742918.107209771872
measnum = 2,full_prange = 24671496.862883
$oldmeas,msRange:82.303150,x:-24717075.319550,y:8488848.264537,z:-4812229.736061,vx:-654.101685,vy:-173.633560,vz:3076.994629,tb:0.000402904221
$newmeas,x:-24717021.488840,y:8488862.553620,z:-4812482.957765,vx:-654.131958,vy:-173.630280,vz:3076.986084,tb:0.000402904222
$pseudo_cd_ph,prn:17,pseudo_cd_ph:205742929.202138215303
measnum = 3,full_prange = 21243159.362216
$oldmeas,msRange:70.867601,x:-13550749.178542,y:14090964.445391,z:18344821.699150,vx:-2240.180664,vy:183.282532,vz:-1844.852661,tb:0.000062129700
$newmeas,x:-13550590.439755,y:14090951.458350,z:18344952.423631,vx:-2240.197266,vy:183.274719,vz:-1844.825806,tb:0.000062129700
$pseudo_cd_ph,prn:19,pseudo_cd_ph:205742930.780329793692
measnum = 4,full_prange = 20657385.704129
$oldmeas,msRange:68.913631,x:-6195193.669508,y:14609506.488956,z:21009377.944862,vx:-2726.313721,vy:170.766022,vz:-902.418945,tb:-0.000313609324
$newmeas,x:-6195005.810867,y:14609494.722588,z:21009440.125510,vx:-2726.322510,vy:170.755249,vz:-902.387329,tb:-0.000313609324
$pseudo_cd_ph,prn:28,pseudo_cd_ph:205742927.456918716431
measnum = 5,full_prange = 21977919.857109
$oldmeas,msRange:73.318612,x:-13056771.007542,y:22802503.053838,z:-3599386.824062,vx:28.625898,vy:-570.085876,vz:-3172.510742,tb:0.000767807398
$newmeas,x:-13056773.105780,y:22802544.846097,z:-3599154.245662,vx:28.616631,vy:-570.058777,vz:-3172.516357,tb:0.000767807398
$pseudo_cd_ph,prn:12,pseudo_cd_ph:19.296905696567
measnum = 6,full_prange = 24265528.446371
$oldmeas,msRange:80.948966,x:13779799.134096,y:4980752.631356,z:21932763.272612,vx:-1103.216553,vy:2607.774170,vz:116.460289,tb:0.000238435271
$newmeas,x:13779888.430153,y:4980541.555522,z:21932753.844629,vx:-1103.229004,vy:2607.767822,vz:116.498848,tb:0.000238435271
$GNGGA,090845.000,2944.9061,N,10633.0930,E,1,16,0.7,325.8,M,,,,0000*15
$GNRMC,090845.000,A,2944.9061,N,10633.0930,E,0.18,0.00,280519,,*1B
$GPGSA,A,3,02,06,09,17,19,28,,,,,,,0.9,0.7,0.5*30
$BDGSA,A,3,01,02,03,04,05,07,12,13,19,22,,,0.9,0.7,0.5*27
$GLGSA,A,3,,,,,,,,,,,,,0.9,0.7,0.5*25
$GPGSV,2,1,08,02,34,266,40,06,63,311,46,09,10,118,36,04,00,000,35*74
$GPGSV,2,2,08,17,56,050,44,19,59,009,45,28,39,159,43,12,12,321,39*7D
$BDGSV,3,1,12,01,40,126,40,02,48,220,41,03,56,171,43,04,23,109,40*6F
$BDGSV,3,2,12,05,28,246,39,07,37,172,41,12,50,333,43,13,58,301,44*62
$BDGSV,3,3,12,19,32,060,43,22,48,131,44,26,00,000,42,08,59,000,00*6A
$B3CN0,17,0,0,0,0,0,0,0,0,0,0,0,26,0*4E
$ini_pos,lastpos_good = 1,ini_pos.x:-1578915.671921,ini_pos.y:5312772.325396,ini_pos.z:3146354.764797
$rtc_local_time,localRTC.weeks:2055,localRTC.seconds:205743.643040,localGtime.weeks:2055,localGtime.seconds:205744.000000
$pseudo_cd_ph,prn:2,pseudo_cd_ph:205743924.015134781599
measnum = 0,full_prange = 22712449.720686
$oldmeas,msRange:0.000000,x:13050497.044010,y:21887388.937342,z:8365070.422492,vx:-862.958130,vy:-522.939880,vz:2913.133789,tb:-0.000223816397
$newmeas,x:13050562.421422,y:21887428.554967,z:8364849.721298,vx:-862.937195,vy:-522.923950,vz:2913.146973,tb:-0.000223816397
$pseudo_cd_ph,prn:6,pseudo_cd_ph:205743931.091901510954
measnum = 1,full_prange = 20716043.218435
$oldmeas,msRange:69.110044,x:1260630.153074,y:19798793.009010,z:17684411.119337,vx:-1566.015503,vy:-1600.474365,vz:1911.450073,tb:0.000193655047
$newmeas,x:1260738.366147,y:19798903.603631,z:17684279.034790,vx:-1565.997925,vy:-1600.468384,vz:1911.476074,tb:0.000193655047
$pseudo_cd_ph,prn:9,pseudo_cd_ph:205743918.109255671501
measnum = 2,full_prange = 24670873.848330
$oldmeas,msRange:82.301811,x:-24717729.237025,y:8488674.611081,z:-4809152.690518,vx:-653.733337,vy:-173.673370,vz:3077.096680,tb:0.000402904214
$newmeas,x:-24717675.437984,y:8488688.903080,z:-4809405.914240,vx:-653.763672,vy:-173.670105,vz:3077.088379,tb:0.000402904215
$pseudo_cd_ph,prn:17,pseudo_cd_ph:205743929.202780783176
measnum = 3,full_prange = 21242957.060907
$oldmeas,msRange:70.867662,x:-13552989.241614,y:14091147.782994,z:18342976.656788,vx:-2239.945557,vy:183.392685,vz:-1845.232178,tb:0.000062129710
$newmeas,x:-13552830.520990,y:14091134.788271,z:18343107.406916,vx:-2239.962402,vy:183.384872,vz:-1845.205322,tb:0.000062129709
$pseudo_cd_ph,prn:19,pseudo_cd_ph:205743930.781348258257
measnum = 4,full_prange = 20657070.709511
$oldmeas,msRange:68.913316,x:-6197919.919473,y:14609677.333125,z:21008475.296564,vx:-2726.186523,vy:170.922318,vz:-902.877747,tb:-0.000313609322
$newmeas,x:-6197732.072465,y:14609665.556167,z:21008537.507877,vx:-2726.195068,vy:170.911545,vz:-902.846130,tb:-0.000313609322
$pseudo_cd_ph,prn:28,pseudo_cd_ph:205743927.455936431885
measnum = 5,full_prange = 21978204.671248
$oldmeas,msRange:73.320296,x:-13056742.318437,y:22801932.782861,z:-3602559.296293,vx:28.752306,vy:-570.456116,vz:-3172.433838,tb:0.000767807397
$newmeas,x:-13056744.425969,y:22801974.602800,z:-3602326.720521,vx:28.743040,vy:-570.428955,vz:-3172.439453,tb:0.000767807398
$pseudo_cd_ph,prn:12,pseudo_cd_ph:19.299749514225
measnum = 6,full_prange = 24264666.219590
$oldmeas,msRange:80.946819,x:13778695.994771,y:4983360.445151,z:21932879.494708,vx:-1103.062134,vy:2607.853516,vz:115.983910,tb:0.000238435265
$newmeas,x:13778785.275159,y:4983149.370407,z:21932870.105617,vx:-1103.074707,vy:2607.847168,vz:116.022469,tb:0.000238435265
$GNGGA,090846.000,2944.9060,N,10633.0931,E,1,16,0.7,326.4,M,,,,0000*19
$GNRMC,090846.000,A,2944.9060,N,10633.0931,E,0.43,0.00,280519,,*16
$GPGSA,A,3,02,06,09,17,19,28,,,,,,,0.9,0.7,0.5*30
$BDGSA,A,3,01,02,03,04,05,07,12,13,19,22,,,0.9,0.7,0.5*27
$GLGSA,A,3,,,,,,,,,,,,,0.9,0.7,0.5*25
$GPGSV,2,1,08,02,34,266,40,06,63,311,46,09,10,118,37,04,00,000,36*76
$GPGSV,2,2,08,17,56,050,45,19,59,009,45,28,39,159,42,12,12,321,39*7D
$BDGSV,3,1,12,01,40,126,40,02,48,220,39,03,56,171,42,04,23,109,39*6F
$BDGSV,3,2,12,05,28,246,38,07,37,172,41,08,59,000,40,10,58,204,32*67
$BDGSV,3,3,12,12,50,333,42,13,58,301,44,19,32,060,43,22,48,131,45*63
$B3CN0,0,0,0,0,0,0,0,0,0,0,0,0,27,0*79
$ini_pos,lastpos_good = 1,ini_pos.x:-1578915.966188,ini_pos.y:5312772.835125,ini_pos.z:3146355.044540
$rtc_local_time,localRTC.weeks:2055,localRTC.seconds:205744.643040,localGtime.weeks:2055,localGtime.seconds:205744.999999
$pseudo_cd_ph,prn:2,pseudo_cd_ph:205744924.016731470823
measnum = 0,full_prange = 22711961.376400
$oldmeas,msRange:0.000000,x:13049633.947659,y:21886865.892501,z:8367983.469742,vx:-863.234619,vy:-523.149841,vz:2912.960938,tb:-0.000223816403
$newmeas,x:13049699.344614,y:21886905.525179,z:8367762.786391,vx:-863.213684,vy:-523.133911,vz:2912.973877,tb:-0.000223816403
$pseudo_cd_ph,prn:6,pseudo_cd_ph:205744931.092575371265
measnum = 1,full_prange = 20715831.530018
$oldmeas,msRange:69.110067,x:1259064.010899,y:19797192.491401,z:17686322.381567,vx:-1566.268921,vy:-1600.561035,vz:1911.074463,tb:0.000193655036
$newmeas,x:1259172.240382,y:19797303.090880,z:17686190.324321,vx:-1566.251465,vy:-1600.555054,vz:1911.100464,tb:0.000193655037
$pseudo_cd_ph,prn:9,pseudo_cd_ph:205744918.111297041178
measnum = 2,full_prange = 24670252.191823
$oldmeas,msRange:82.300471,x:-24718382.786177,y:8488500.917776,z:-4806075.542792,vx:-653.364990,vy:-173.713257,vz:3077.198975,tb:0.000402904207
$newmeas,x:-24718329.018802,y:8488515.212696,z:-4806328.768539,vx:-653.395325,vy:-173.709961,vz:3077.190430,tb:0.000402904208
$pseudo_cd_ph,prn:17,pseudo_cd_ph:205744929.203418761492
measnum = 3,full_prange = 21242756.135511
$oldmeas,msRange:70.867721,x:-13555229.069666,y:14091331.230731,z:18341131.234931,vx:-2239.710693,vy:183.502792,vz:-1845.611694,tb:0.000062129719
$newmeas,x:-13555070.367199,y:14091318.228329,z:18341262.010712,vx:-2239.727295,vy:183.494995,vz:-1845.584717,tb:0.000062129719
$pseudo_cd_ph,prn:19,pseudo_cd_ph:205744930.782362490892
measnum = 4,full_prange = 20656756.983595
$oldmeas,msRange:68.913000,x:-6200646.042139,y:14609848.333577,z:21007572.189464,vx:-2726.059082,vy:171.078598,vz:-903.336548,tb:-0.000313609320
$newmeas,x:-6200458.206758,y:14609836.546030,z:21007634.431445,vx:-2726.067871,vy:171.067825,vz:-903.304932,tb:-0.000313609320
$pseudo_cd_ph,prn:28,pseudo_cd_ph:205744927.454948723316
measnum = 5,full_prange = 21978491.111469
$oldmeas,msRange:73.321979,x:-13056713.502951,y:22801362.141683,z:-3605731.691524,vx:28.878660,vy:-570.826294,vz:-3172.356934,tb:0.000767807397
$newmeas,x:-13056715.619774,y:22801403.989308,z:-3605499.118369,vx:28.869398,vy:-570.799133,vz:-3172.362549,tb:0.000767807397
$pseudo_cd_ph,prn:12,pseudo_cd_ph:19.302589244973
measnum = 6,full_prange = 24263805.225771
$oldmeas,msRange:80.944672,x:13777593.009840,y:4985968.338102,z:21932995.240429,vx:-1102.907715,vy:2607.932617,vz:115.507538,tb:0.000238435259
$newmeas,x:13777682.274562,y:4985757.264444,z:21932985.890227,vx:-1102.920288,vy:2607.926270,vz:115.546097,tb:0.000238435259
$GNGGA,090847.000,2944.9060,N,10633.0931,E,1,16,0.7,326.3,M,,,,0000*1F
$GNRMC,090847.000,A,2944.9060,N,10633.0931,E,0.38,0.00,280519,,*1B
$GPGSA,A,3,02,06,09,17,19,28,,,,,,,0.9,0.7,0.5*30
$BDGSA,A,3,01,02,03,04,05,07,12,13,19,22,,,0.9,0.7,0.5*27
$GLGSA,A,3,,,,,,,,,,,,,0.9,0.7,0.5*25
$GPGSV,2,1,08,02,34,266,39,06,63,311,46,09,10,118,38,04,00,000,36*77
$GPGSV,2,2,08,17,56,050,45,19,59,009,45,28,39,159,43,12,12,321,40*72
$BDGSV,3,1,12,01,40,126,41,02,48,220,40,03,56,171,43,04,23,109,41*6E
$BDGSV,3,2,12,05,28,246,37,07,37,172,41,08,59,000,43,10,58,204,42*6C
$BDGSV,3,3,12,12,50,333,43,13,58,301,44,19,32,060,43,22,48,131,45*62
$B3CN0,0,0,0,0,0,0,0,0,0,0,0,0,22,0*7C
$ini_pos,lastpos_good = 1,ini_pos.x:-1578915.960532,ini_pos.y:5312772.778180,ini_pos.z:3146354.975889
$rtc_local_time,localRTC.weeks:2055,localRTC.seconds:205745.643040,localGtime.weeks:2055,localGtime.seconds:205745.999999
$pseudo_cd_ph,prn:2,pseudo_cd_ph:205745924.018327742815
measnum = 0,full_prange = 22711473.157198
$oldmeas,msRange:0.000000,x:13048770.574789,y:21886342.637739,z:8370896.344071,vx:-863.511169,vy:-523.359741,vz:2912.787842,tb:-0.000223816409
$newmeas,x:13048835.991287,y:21886382.285466,z:8370675.678567,vx:-863.490234,vy:-523.343811,vz:2912.801025,tb:-0.000223816408
$pseudo_cd_ph,prn:6,pseudo_cd_ph:205745931.093251109123
measnum = 1,full_prange = 20715619.278727
$oldmeas,msRange:69.110093,x:1257497.615258,y:19795591.887162,z:17688233.268216,vx:-1566.522461,vy:-1600.647583,vz:1910.698853,tb:0.000193655026
$newmeas,x:1257605.861145,y:19795702.491492,z:17688101.238277,vx:-1566.504883,vy:-1600.641602,vz:1910.724854,tb:0.000193655027
$pseudo_cd_ph,prn:9,pseudo_cd_ph:205745918.113339751959
measnum = 2,full_prange = 24669630.133263
$oldmeas,msRange:82.299132,x:-24719035.967003,y:8488327.184572,z:-4802998.292948,vx:-652.996704,vy:-173.753174,vz:3077.301025,tb:0.000402904200
$newmeas,x:-24718982.231293,y:8488341.482417,z:-4803251.520711,vx:-653.026978,vy:-173.749893,vz:3077.292480,tb:0.000402904201
$pseudo_cd_ph,prn:17,pseudo_cd_ph:205745929.204060286283
measnum = 3,full_prange = 21242554.146909
$oldmeas,msRange:70.867783,x:-13557468.662649,y:14091514.788564,z:18339285.433618,vx:-2239.475586,vy:183.612869,vz:-1845.991089,tb:0.000062129729
$newmeas,x:-13557309.978348,y:14091501.778485,z:18339416.235041,vx:-2239.492188,vy:183.605072,vz:-1845.964233,tb:0.000062129728
$pseudo_cd_ph,prn:19,pseudo_cd_ph:205745930.783376932144
measnum = 4,full_prange = 20656443.195136
$oldmeas,msRange:68.912687,x:-6203372.037439,y:14610019.490291,z:21006668.623583,vx:-2725.931641,vy:171.234848,vz:-903.795288,tb:-0.000313609319
$newmeas,x:-6203184.213689,y:14610007.692157,z:21006730.896229,vx:-2725.940430,vy:171.224075,vz:-903.763672,tb:-0.000313609319
$pseudo_cd_ph,prn:28,pseudo_cd_ph:205745927.453963696957
measnum = 5,full_prange = 21978776.747584
$oldmeas,msRange:73.323665,x:-13056684.561136,y:22800791.130291,z:-3608904.009689,vx:29.004963,vy:-571.196533,vz:-3172.279785,tb:0.000767807396
$newmeas,x:-13056686.687247,y:22800833.005603,z:-3608671.439163,vx:28.995705,vy:-571.169373,vz:-3172.285400,tb:0.000767807396
$pseudo_cd_ph,prn:12,pseudo_cd_ph:19.305434822687
measnum = 6,full_prange = 24262942.471854
$oldmeas,msRange:80.942525,x:13776490.179333,y:4988576.310144,z:21933110.509775,vx:-1102.753296,vy:2608.011719,vz:115.031158,tb:0.000238435253
$newmeas,x:13776579.428383,y:4988365.237593,z:21933101.198460,vx:-1102.765869,vy:2608.005371,vz:115.069717,tb:0.000238435254
$GNGGA,090848.000,2944.9060,N,10633.0931,E,1,16,0.7,325.7,M,,,,0000*17
$GNRMC,090848.000,A,2944.9060,N,10633.0931,E,0.04,0.00,280519,,*1B
$GPGSA,A,3,02,06,09,17,19,28,,,,,,,0.9,0.7,0.5*30
$BDGSA,A,3,01,02,03,04,05,07,12,13,19,22,,,0.9,0.7,0.5*27
$GLGSA,A,3,,,,,,,,,,,,,0.9,0.7,0.5*25
$GPGSV,2,1,08,02,34,266,40,06,63,311,46,09,10,118,37,04,00,000,36*76
$GPGSV,2,2,08,17,56,050,45,19,59,009,44,28,39,159,43,12,12,321,40*73
$BDGSV,3,1,12,01,40,126,42,02,48,220,40,03,56,171,42,04,23,109,39*63
$BDGSV,3,2,12,05,28,246,38,07,37,172,41,08,59,000,42,10,58,204,42*62
$BDGSV,3,3,12,12,50,333,42,13,58,301,44,19,32,060,43,22,48,131,44*62
$B3CN0,21,17,0,0,0,0,0,0,0,0,0,0,0,0*49
$ini_pos,lastpos_good = 1,ini_pos.x:-1578915.793576,ini_pos.y:5312772.218913,ini_pos.z:3146354.679417
$rtc_local_time,localRTC.weeks:2055,localRTC.seconds:205746.643040,localGtime.weeks:2055,localGtime.seconds:205746.999999
$pseudo_cd_ph,prn:2,pseudo_cd_ph:205746924.019925445318
measnum = 0,full_prange = 22710984.509139
$oldmeas,msRange:0.000000,x:13047906.925383,y:21885819.173107,z:8373809.045422,vx:-863.787720,vy:-523.569580,vz:2912.614990,tb:-0.000223816415
$newmeas,x:13047972.361423,y:21885858.835879,z:8373588.397772,vx:-863.766785,vy:-523.553650,vz:2912.627930,tb:-0.000223816414
$pseudo_cd_ph,prn:6,pseudo_cd_ph:205746931.093926489353
measnum = 1,full_prange = 20715407.134650
$oldmeas,msRange:69.110121,x:1255930.966162,y:19793991.196357,z:17690143.779243,vx:-1566.775879,vy:-1600.734131,vz:1910.323242,tb:0.000193655016
$newmeas,x:1256039.228454,y:19794101.805534,z:17690011.776613,vx:-1566.758301,vy:-1600.728149,vz:1910.349243,tb:0.000193655017
$pseudo_cd_ph,prn:9,pseudo_cd_ph:205746918.115382045507
measnum = 2,full_prange = 24669008.199787
$oldmeas,msRange:82.297793,x:-24719688.779496,y:8488153.411419,z:-4799920.941052,vx:-652.628357,vy:-173.793152,vz:3077.403076,tb:0.000402904193
$newmeas,x:-24719635.075450,y:8488167.712192,z:-4800174.170825,vx:-652.658630,vy:-173.789856,vz:3077.394531,tb:0.000402904194
$pseudo_cd_ph,prn:17,pseudo_cd_ph:205746929.204699963331
measnum = 3,full_prange = 21242352.712247
$oldmeas,msRange:70.867846,x:-13559708.020509,y:14091698.456455,z:18337439.252883,vx:-2239.240234,vy:183.722916,vz:-1846.370483,tb:0.000062129738
$newmeas,x:-13559549.354375,y:14091685.438702,z:18337570.079949,vx:-2239.257080,vy:183.715118,vz:-1846.343628,tb:0.000062129738
$pseudo_cd_ph,prn:19,pseudo_cd_ph:205746930.784391134977
measnum = 4,full_prange = 20656129.478154
$oldmeas,msRange:68.912375,x:-6206097.905306,y:14610190.803246,z:21005764.598941,vx:-2725.804199,vy:171.391068,vz:-904.254028,tb:-0.000313609317
$newmeas,x:-6205910.093191,y:14610178.994527,z:21005826.902250,vx:-2725.812988,vy:171.380310,vz:-904.222412,tb:-0.000313609317
$pseudo_cd_ph,prn:28,pseudo_cd_ph:205746927.452979475260
measnum = 5,full_prange = 21979062.142466
$oldmeas,msRange:73.325352,x:-13056655.493045,y:22800219.748672,z:-3612076.250717,vx:29.131212,vy:-571.566772,vz:-3172.202637,tb:0.000767807395
$newmeas,x:-13056657.628439,y:22800261.651671,z:-3611843.682828,vx:29.121958,vy:-571.539612,vz:-3172.208252,tb:0.000767807395
$pseudo_cd_ph,prn:12,pseudo_cd_ph:19.308281026861
measnum = 6,full_prange = 24262079.530312
$oldmeas,msRange:80.940379,x:13775387.503282,y:4991184.361213,z:21933225.302743,vx:-1102.598877,vy:2608.090576,vz:114.554779,tb:0.000238435247
$newmeas,x:13775476.736656,y:4990973.289775,z:21933216.030312,vx:-1102.611328,vy:2608.084229,vz:114.593338,tb:0.000238435248
$GNGGA,090849.000,2944.9061,N,10633.0931,E,1,16,0.7,325.2,M,,,,0000*12
$GNRMC,090849.000,A,2944.9061,N,10633.0931,E,0.43,0.00,280519,,*18
$GPGSA,A,3,02,06,09,17,19,28,,,,,,,0.9,0.7,0.5*30
$BDGSA,A,3,01,02,03,04,05,07,12,13,19,22,,,0.9,0.7,0.5*27
$GLGSA,A,3,,,,,,,,,,,,,0.9,0.7,0.5*25
$GPGSV,2,1,08,02,34,266,40,06,63,311,46,09,10,118,37,04,00,000,36*76
$GPGSV,2,2,08,17,56,050,45,19,59,009,44,28,39,159,43,12,12,321,39*7D
$BDGSV,3,1,12,01,40,126,41,02,48,220,40,03,56,171,43,04,23,109,39*61
$BDGSV,3,2,12,05,28,246,37,07,37,172,41,08,59,000,42,10,58,204,42*6D
$BDGSV,3,3,12,12,50,333,43,13,58,301,44,19,32,060,43,22,48,131,44*63
$B3CN0,0,0,0,0,0,0,0,0,0,0,0,0,0,0*4C
$ini_pos,lastpos_good = 1,ini_pos.x:-1578915.611123,ini_pos.y:5312771.870068,ini_pos.z:3146354.472195
$rtc_local_time,localRTC.weeks:2055,localRTC.seconds:205747.643040,localGtime.weeks:2055,localGtime.seconds:205747.999999
$pseudo_cd_ph,prn:2,pseudo_cd_ph:205747924.021522790194
measnum = 0,full_prange = 22710495.968295
$oldmeas,msRange:0.000000,x:13047042.999427,y:21885295.498658,z:8376721.573735,vx:-864.064270,vy:-523.779358,vz:2912.441895,tb:-0.000223816421
$newmeas,x:13047108.455010,y:21885335.176469,z:8376500.943941,vx:-864.043335,vy:-523.763489,vz:2912.455078,tb:-0.000223816420
$pseudo_cd_ph,prn:6,pseudo_cd_ph:205747931.094603538513
measnum = 1,full_prange = 20715194.490240
$oldmeas,msRange:69.110148,x:1254364.063624,y:19792390.419048,z:17692053.914608,vx:-1567.029297,vy:-1600.820557,vz:1909.947632,tb:0.000193655006
$newmeas,x:1254472.342317,y:19792501.033065,z:17691921.939291,vx:-1567.011841,vy:-1600.814575,vz:1909.973511,tb:0.000193655007
$pseudo_cd_ph,prn:9,pseudo_cd_ph:205747918.117420941591
measnum = 2,full_prange = 24668387.284844
$oldmeas,msRange:82.296455,x:-24720341.223652,y:8487979.598264,z:-4796843.487168,vx:-652.260010,vy:-173.833176,vz:3077.504883,tb:0.000402904186
$newmeas,x:-24720287.551267,y:8487993.901971,z:-4797096.718958,vx:-652.290344,vy:-173.829880,vz:3077.496582,tb:0.000402904186
$pseudo_cd_ph,prn:17,pseudo_cd_ph:205747929.205340176821
measnum = 3,full_prange = 21242151.116763
$oldmeas,msRange:70.867909,x:-13561947.143196,y:14091882.234365,z:18335592.692765,vx:-2239.005127,vy:183.832916,vz:-1846.749878,tb:0.000062129748
$newmeas,x:-13561788.495233,y:14091869.208941,z:18335723.545470,vx:-2239.021729,vy:183.825119,vz:-1846.723022,tb:0.000062129747
$pseudo_cd_ph,prn:19,pseudo_cd_ph:205747930.785406529903
measnum = 4,full_prange = 20655815.403792
$oldmeas,msRange:68.912062,x:-6208823.645671,y:14610362.272421,z:21004860.115560,vx:-2725.676758,vy:171.547287,vz:-904.712769,tb:-0.000313609315
$newmeas,x:-6208635.845199,y:14610350.453119,z:21004922.449528,vx:-2725.685547,vy:171.536514,vz:-904.681152,tb:-0.000313609315
$pseudo_cd_ph,prn:28,pseudo_cd_ph:205747927.451994508505
measnum = 5,full_prange = 21979347.760711
$oldmeas,msRange:73.327039,x:-13056626.298730,y:22799647.996813,z:-3615248.414541,vx:29.257410,vy:-571.937012,vz:-3172.125244,tb:0.000767807395
$newmeas,x:-13056628.443404,y:22799689.927501,z:-3615015.849293,vx:29.248161,vy:-571.909851,vz:-3172.130859,tb:0.000767807395
$pseudo_cd_ph,prn:12,pseudo_cd_ph:205747919.311129897833
measnum = 6,full_prange = 24261215.793598
$oldmeas,msRange:80.938232,x:13774284.981715,y:4993792.491242,z:21933339.619331,vx:-1102.444336,vy:2608.169678,vz:114.078400,tb:0.000238435241
$newmeas,x:13774374.199410,y:4993581.420931,z:21933330.385782,vx:-1102.456909,vy:2608.163086,vz:114.116951,tb:0.000238435242
$GNGGA,090850.000,2944.9061,N,10633.0931,E,1,17,0.7,325.6,M,,,,0000*1F
$GNRMC,090850.000,A,2944.9061,N,10633.0931,E,0.33,0.00,280519,,*17
$GPGSA,A,3,02,06,09,12,17,19,28,,,,,,0.8,0.7,0.5*32
$BDGSA,A,3,01,02,03,04,05,07,12,13,19,22,,,0.8,0.7,0.5*26
$GLGSA,A,3,,,,,,,,,,,,,0.8,0.7,0.5*24
$GPGSV,2,1,08,02,34,266,40,06,63,311,46,09,10,118,37,04,00,000,36*76
$GPGSV,2,2,08,17,56,050,45,19,59,009,44,28,39,159,43,12,12,321,39*7D
$BDGSV,3,1,12,01,40,126,41,02,48,220,41,03,56,171,42,04,23,109,39*61
$BDGSV,3,2,12,05,28,246,37,07,37,172,41,08,59,000,43,10,58,204,42*6C
$BDGSV,3,3,12,12,50,333,43,13,58,301,44,19,32,060,43,22,48,131,45*62
$B3CN0,0,0,0,0,0,0,0,0,0,0,0,0,0,0*4C
$ini_pos,lastpos_good = 1,ini_pos.x:-1578915.679123,ini_pos.y:5312772.118893,ini_pos.z:3146354.733041
$rtc_local_time,localRTC.weeks:2055,localRTC.seconds:205748.643040,localGtime.weeks:2055,localGtime.seconds:205748.999999
$pseudo_cd_ph,prn:2,pseudo_cd_ph:205748924.023120641708
measnum = 0,full_prange = 22710007.266630
$oldmeas,msRange:0.000000,x:13046178.796904,y:21884771.614442,z:8379633.928951,vx:-864.340820,vy:-523.989075,vz:2912.268799,tb:-0.000223816426
$newmeas,x:13046244.272030,y:21884811.307288,z:8379413.317019,vx:-864.319885,vy:-523.973206,vz:2912.281738,tb:-0.000223816426
$pseudo_cd_ph,prn:6,pseudo_cd_ph:205748931.095281481743
measnum = 1,full_prange = 20714981.568861
$oldmeas,msRange:69.110173,x:1252796.907657,y:19790789.555298,z:17693963.674269,vx:-1567.282715,vy:-1600.906982,vz:1909.571899,tb:0.000193654996
$newmeas,x:1252905.202748,y:19790900.174149,z:17693831.726271,vx:-1567.265259,vy:-1600.901001,vz:1909.597778,tb:0.000193654997
$pseudo_cd_ph,prn:9,pseudo_cd_ph:205748918.119463354349
measnum = 2,full_prange = 24667765.306695
$oldmeas,msRange:82.295116,x:-24720993.299467,y:8487805.745058,z:-4793765.931363,vx:-651.891663,vy:-173.873260,vz:3077.606934,tb:0.000402904179
$newmeas,x:-24720939.658744,y:8487820.051702,z:-4794019.165151,vx:-651.921997,vy:-173.869949,vz:3077.598389,tb:0.000402904179
$pseudo_cd_ph,prn:17,pseudo_cd_ph:205748929.205982297659
measnum = 3,full_prange = 21241948.940535
$oldmeas,msRange:70.867970,x:-13564186.030658,y:14092066.122256,z:18333745.753299,vx:-2238.770020,vy:183.942871,vz:-1847.129150,tb:0.000062129757
$newmeas,x:-13564027.400873,y:14092053.089165,z:18333876.631636,vx:-2238.786621,vy:183.935089,vz:-1847.102295,tb:0.000062129756
$pseudo_cd_ph,prn:19,pseudo_cd_ph:205748930.786423891783
measnum = 4,full_prange = 20655500.730817
$oldmeas,msRange:68.911748,x:-6211549.258468,y:14610533.897796,z:21003955.173459,vx:-2725.549072,vy:171.703476,vz:-905.171509,tb:-0.000313609313
$newmeas,x:-6211361.469649,y:14610522.067912,z:21004017.538083,vx:-2725.557861,vy:171.692719,vz:-905.139893,tb:-0.000313609313
$pseudo_cd_ph,prn:28,pseudo_cd_ph:205748927.451011329889
measnum = 5,full_prange = 21979632.833950
