SD initialized success
Create debug.log Failed! 3
bbram_blkflag = 1
rtcflag = 0
BBRAM Block OK: 01 EPHflag: 0805093a 03341adf, rtc 00
Hot-start nowtime:day = 28,minute = 20,seconds = 36.00
GPS 0 Init Dop: 10000,80
GPS 1 Init Dop: -2125, 2
GPS 2 Init Dop: 10000,80
GPS 3 Init Dop: -3170, 2
GPS 4 Init Dop: -4695, 2
GPS 5 Init Dop:  -624, 2
GPS 6 Init Dop: 10000,80
GPS 7 Init Dop: 10000,80
GPS 8 Init Dop: -2913, 2
GPS 9 Init Dop: 10000,80
GPS10 Init Dop: 10000,80
GPS11 Init Dop: -4077, 2
GPS12 Init Dop: 10000,80
GPS13 Init Dop: 10000,80
GPS14 Init Dop: 10000,80
GPS15 Init Dop: 10000,80
GPS16 Init Dop:  -619, 2
GPS17 Init Dop: 10000,80
GPS18 Init Dop: -1190, 2
GPS19 Init Dop: 10000,80
GPS20 Init Dop: 10000,80
GPS21 Init Dop: 10000,80
GPS22 Init Dop: 10000,80
GPS23 Init Dop: 10000,80
GPS24 Init Dop: 10000,80
GPS25 Init Dop: 10000,80
GPS26 Init Dop: 10000,80
GPS27 Init Dop:  2047, 2
GPS28 Init Dop: 10000,80
GPS29 Init Dop: 10000,80
GPS30 Init Dop: 10000,80
GPS31 Init Dop: 10000,80
BDS 0 Init Dop:  -830, 2
BDS 1 Init Dop:  -898, 2
BDS 2 Init Dop:  -847, 2
BDS 3 Init Dop:  -851, 2
BDS 4 Init Dop:  -877, 2
BDS 5 Init Dop: 10000,80
BDS 6 Init Dop:   598, 2
BDS 7 Init Dop:  -486, 2
BDS 8 Init Dop: 10000,80
BDS 9 Init Dop:   291, 2
BDS10 Init Dop: 10000,80
BDS11 Init Dop: -1720, 2
BDS12 Init Dop:  -640, 2
BDS13 Init Dop: 10000,80
BDS14 Init Dop: 10000,80
BDS15 Init Dop: 10000,80
BDS16 Init Dop: 10000,80
BDS17 Init Dop: 10000,80
BDS18 Init Dop:   583, 2
BDS19 Init Dop: 10000,80
BDS20 Init Dop: -4097, 2
BDS21 Init Dop: -2295, 2
BDS22 Init Dop: 10000,80
BDS23 Init Dop: 10000,80
BDS24 Init Dop: -1857, 2
BDS25 Init Dop:  1817, 2
BDS26 Init Dop: 10000,80
BDS27 Init Dop: 10000,80
BDS28 Init Dop: 10000,80
BDS29 Init Dop: 10000,80
BDS30 Init Dop: 10000,80
BDS31 Init Dop: 10000,80
Good luck!
$ini_pos,lastpos_good = 1,ini_pos.x:-1578917.000000,ini_pos.y:5312776.000000,ini_pos.z:3146358.000000
$rtc_local_time,localRTC.weeks:2055,localRTC.seconds:206455.026011,localGtime.weeks:0,localGtime.seconds:19.026011
source<tow,snapshot
$GNGGA,000000.000,,,,,0,00,,,M,,,,0000*2B
$GNRMC,000000.000,A,,,,,,,060180,,*29
$GPGSA,A,1,,,,,,,,,,,,,,,*1E
$BDGSA,A,1,,,,,,,,,,,,,,,*0F
$GLGSA,A,1,,,,,,,,,,,,,,,*02
$B3CN0,0,0,0,0,0,0,0,0,0,0,0,0,0,0*4C
$ini_pos,lastpos_good = 1,ini_pos.x:-1578917.000000,ini_pos.y:5312776.000000,ini_pos.z:3146358.000000
$rtc_local_time,localRTC.weeks:2055,localRTC.seconds:206456.026011,localGtime.weeks:2055,localGtime.seconds:206456.026011
source<tow,snapshot
$GNGGA,000000.000,,,,,0,00,,,M,,,,0000*2B
$GNRMC,000000.000,A,,,,,,,060180,,*29
$GPGSA,A,1,,,,,,,,,,,,,,,*1E
$BDGSA,A,1,,,,,,,,,,,,,,,*0F
$GLGSA,A,1,,,,,,,,,,,,,,,*02
$B3CN0,0,0,0,0,0,0,0,0,0,0,0,0,0,0*4C
$ini_pos,lastpos_good = 1,ini_pos.x:-1578917.000000,ini_pos.y:5312776.000000,ini_pos.z:3146358.000000
$rtc_local_time,localRTC.weeks:2055,localRTC.seconds:206457.026011,localGtime.weeks:2055,localGtime.seconds:206457.026011
$pseudo_cd_ph,prn:2,pseudo_cd_ph:2.946433849465
measnum = 0,full_prange = 22436546.074738
$oldmeas,msRange:0.000000,x:12364083.477800,y:21464305.047446,z:10394752.072310,vx:-1063.362305,vy:-659.289307,vz:2775.152100,tb:-0.000223820387
$newmeas,x:12364163.059319,y:21464354.388349,z:10394544.378597,vx:-1063.341064,vy:-659.276428,vz:2775.168213,tb:-0.000223820386
$pseudo_cd_ph,prn:5,pseudo_cd_ph:16.014191531482
measnum = 1,full_prange = 24582118.961754
$oldmeas,msRange:82.326349,x:4326320.700706,y:22233375.911644,z:-13823131.654470,vx:-695.385620,vy:1621.862427,vz:2432.233398,tb:0.000000798097
$newmeas,x:4326377.720888,y:22233242.922732,z:-13823331.089627,vx:-695.399353,vy:1621.883301,vz:2432.209229,tb:0.000000798097
$pseudo_cd_ph,prn:6,pseudo_cd_ph:9.354600460765
measnum = 2,full_prange = 20640579.879629
$oldmeas,msRange:69.176658,x:80469.046456,y:18639355.057128,z:18949510.679012,vx:-1742.837280,vy:-1646.406982,vz:1633.915039,tb:0.000193647842
$newmeas,x:80589.039473,y:18639468.411427,z:18949398.183721,vx:-1742.820679,vy:-1646.404053,vz:1633.942749,tb:0.000193647842
$pseudo_cd_ph,prn:9,pseudo_cd_ph:17.380213956563
measnum = 3,full_prange = 24293142.603220
$oldmeas,msRange:81.361560,x:-25090078.694975,y:8351631.138593,z:-2593096.421756,vx:-390.676300,vy:-215.035675,vz:3133.229004,tb:0.000402899129
$newmeas,x:-25090047.036014,y:8351648.563372,z:-2593350.317143,vx:-390.706177,vy:-215.029510,vz:3133.224365,tb:0.000402899129
$pseudo_cd_ph,prn:12,pseudo_cd_ph:19.122719027313
measnum = 4,full_prange = 23721446.463223
$oldmeas,msRange:79.455186,x:13033117.687425,y:6858960.682944,z:21894487.151293,vx:-986.066589,vy:2647.440918,vz:-223.507721,tb:0.000238431146
$newmeas,x:13033195.711694,y:6858751.201020,z:21894504.835129,vx:-986.080261,vy:2647.438477,vz:-223.470139,tb:0.000238431146
$pseudo_cd_ph,prn:17,pseudo_cd_ph:7.453172208277
measnum = 5,full_prange = 21171187.572612
$oldmeas,msRange:70.946626,x:-15087367.912846,y:14247501.031194,z:16933112.743036,vx:-2059.811523,vy:251.660248,vz:-2106.013916,tb:0.000062136339
$newmeas,x:-15087222.449354,y:14247483.259279,z:16933261.467770,vx:-2059.830566,vy:251.654556,vz:-2105.989014,tb:0.000062136339
$pseudo_cd_ph,prn:19,pseudo_cd_ph:9.295042893754
measnum = 6,full_prange = 20506363.301417
$oldmeas,msRange:68.729289,x:-8105382.337803,y:14769889.687194,z:20249421.824916,vx:-2618.601074,vy:276.339630,vz:-1224.181152,tb:-0.000313608030
$newmeas,x:-8105203.220196,y:14769870.785371,z:20249505.560156,vx:-2618.613037,vy:276.330170,vz:-1224.150879,tb:-0.000313608030
$pseudo_cd_ph,prn:28,pseudo_cd_ph:4.519973926414
measnum = 7,full_prange = 22262092.928193
$oldmeas,msRange:74.584088,x:-13007303.140095,y:22300420.951607,z:-5840886.343372,vx:105.402260,vy:-836.965759,vz:-3100.180176,tb:0.000767806645
$newmeas,x:-13007310.966849,y:22300483.102264,z:-5840656.128766,vx:105.395699,vy:-836.937805,vz:-3100.189453,tb:0.000767806645
source<tow,snapshot
nits = 2
$GNGGA,092039.936,2944.9048,N,10633.0992,E,1,19,0.0,339.6,M,,,,0000*10
$GNRMC,092039.936,A,2944.9048,N,10633.0992,E,0.00,0.00,280519,,*1C
$GPGSA,A,3,02,05,06,09,12,17,19,28,,,,,0.0,0.0,0.0*3D
$BDGSA,A,3,01,03,04,05,07,10,12,19,21,22,25,,0.0,0.0,0.0*29
$GLGSA,A,3,,,,,,,,,,,,,0.0,0.0,0.0*2E
$GPGSV,2,1,08,02,00,000,26,05,00,000,26,06,00,000,26,09,00,000,25*79
$GPGSV,2,2,08,12,00,000,26,17,00,000,26,19,00,000,25,28,00,000,26*75
$BDGSV,3,1,10,01,00,000,40,04,00,000,39,05,00,000,39,07,00,000,24*6E
$BDGSV,3,2,10,10,00,000,24,12,00,000,24,19,00,000,24,21,00,000,23*66
$BDGSV,3,3,10,22,00,000,23,25,00,000,22*6F
$B3CN0,0,0,0,0,0,0,0,0,0,0,0,0,0,0*4C
$ini_pos,lastpos_good = 1,ini_pos.x:-1578928.990995,ini_pos.y:5312782.137165,ini_pos.z:3146359.571775
$rtc_local_time,localRTC.weeks:2055,localRTC.seconds:206458.026010,localGtime.weeks:2055,localGtime.seconds:206458.026010
$pseudo_cd_ph,prn:2,pseudo_cd_ph:2.947900826164
measnum = 0,full_prange = 22436096.613604
$oldmeas,msRange:0.000000,x:12363019.973174,y:21463645.672093,z:10397527.117482,vx:-1063.646973,vy:-659.461426,vz:2774.938232,tb:-0.000223820392
$newmeas,x:12363099.574401,y:21463695.024888,z:10397319.443931,vx:-1063.625732,vy:-659.448547,vz:2774.954346,tb:-0.000223820392
$pseudo_cd_ph,prn:5,pseudo_cd_ph:16.017287044581
measnum = 1,full_prange = 24581181.284643
$oldmeas,msRange:82.323924,x:4325625.398728,y:22234997.646719,z:-13820699.273583,vx:-695.218384,vy:1621.607788,vz:2432.528320,tb:0.000000798096
$newmeas,x:4325682.403023,y:22234864.683763,z:-13820898.725314,vx:-695.232117,vy:1621.628662,vz:2432.504150,tb:0.000000798096
$pseudo_cd_ph,prn:6,pseudo_cd_ph:9.355126777119
measnum = 2,full_prange = 20640412.425993
$oldmeas,msRange:69.176803,x:78726.088494,y:18637708.629108,z:18951144.392884,vx:-1743.078735,vy:-1646.449219,vz:1633.512817,tb:0.000193647832
$newmeas,x:78846.097156,y:18637821.985397,z:18951031.926200,vx:-1743.062134,vy:-1646.446289,vz:1633.540527,tb:0.000193647832
$pseudo_cd_ph,prn:9,pseudo_cd_ph:17.382170624048
measnum = 3,full_prange = 24292546.338583
$oldmeas,msRange:81.360228,x:-25090469.187067,y:8351416.064870,z:-2589963.165409,vx:-390.307892,vy:-215.111801,vz:3133.283936,tb:0.000402899122
$newmeas,x:-25090437.558735,y:8351433.495389,z:-2590217.059028,vx:-390.337738,vy:-215.105621,vz:3133.279541,tb:0.000402899122
$pseudo_cd_ph,prn:12,pseudo_cd_ph:19.125426656923
measnum = 4,full_prange = 23720625.067198
$oldmeas,msRange:79.453174,x:13032131.707252,y:6861608.139616,z:21894263.406081,vx:-985.893860,vy:2647.472412,vz:-223.982712,tb:0.000238431140
$newmeas,x:13032209.715153,y:6861398.662456,z:21894281.126887,vx:-985.907532,vy:2647.469971,vz:-223.945129,tb:0.000238431140
$pseudo_cd_ph,prn:17,pseudo_cd_ph:7.453681289509
measnum = 5,full_prange = 21171025.288884
$oldmeas,msRange:70.946752,x:-15089427.589577,y:14247752.731736,z:16931006.553505,vx:-2059.541992,vy:251.740845,vz:-2106.365234,tb:0.000062136348
$newmeas,x:-15089282.146230,y:14247734.954266,z:16931155.301908,vx:-2059.561035,vy:251.735153,vz:-2106.340332,tb:0.000062136348
$pseudo_cd_ph,prn:19,pseudo_cd_ph:9.295918133718
measnum = 6,full_prange = 20506091.246110
$oldmeas,msRange:68.729063,x:-8108000.851855,y:14770166.096021,z:20248197.423023,vx:-2618.427246,vy:276.478027,vz:-1224.622681,tb:-0.000313608028
$newmeas,x:-8107821.748523,y:14770147.184983,z:20248281.187356,vx:-2618.438965,vy:276.468567,vz:-1224.592529,tb:-0.000313608028
$pseudo_cd_ph,prn:28,pseudo_cd_ph:4.518779325812
measnum = 7,full_prange = 22262441.391594
$oldmeas,msRange:74.585909,x:-13007197.693666,y:22299583.797811,z:-5843986.460633,vx:105.490593,vy:-837.341919,vz:-3100.054443,tb:0.000767806644
$newmeas,x:-13007205.527103,y:22299645.977374,z:-5843756.251751,vx:105.484039,vy:-837.313965,vz:-3100.063965,tb:0.000767806644
source<tow,snapshot
nits = 2
$GNGGA,092040.936,2944.9060,N,10633.0976,E,1,19,0.0,338.4,M,,,,0000*1D
$GNRMC,092040.936,A,2944.9060,N,10633.0976,E,0.00,0.00,280519,,*12
$GPGSA,A,3,02,05,06,09,12,17,19,28,,,,,0.0,0.0,0.0*3D
$BDGSA,A,3,01,03,04,05,07,10,12,19,21,22,25,,0.0,0.0,0.0*29
$GLGSA,A,3,,,,,,,,,,,,,0.0,0.0,0.0*2E
$GPGSV,2,1,08,02,00,000,42,05,00,000,40,06,00,000,46,09,00,000,37*7E
$GPGSV,2,2,08,12,00,000,43,17,00,000,46,19,00,000,44,28,00,000,43*74
$BDGSV,3,1,11,01,00,000,41,03,00,000,43,04,00,000,39,05,00,000,38*6A
$BDGSV,3,2,11,07,00,000,42,10,00,000,42,12,00,000,44,19,00,000,43*63
$BDGSV,3,3,11,21,00,000,40,22,00,000,45,25,00,000,39*53
$B3CN0,0,0,0,0,0,0,0,0,0,0,0,0,0,0*4C
$ini_pos,lastpos_good = 1,ini_pos.x:-1578925.934612,ini_pos.y:5312780.755049,ini_pos.z:3146360.930983
$rtc_local_time,localRTC.weeks:2055,localRTC.seconds:206459.026010,localGtime.weeks:2055,localGtime.seconds:206459.026010
$pseudo_cd_ph,prn:2,pseudo_cd_ph:2.949380272411
measnum = 0,full_prange = 22435643.408909
$oldmeas,msRange:0.000000,x:12361956.183904,y:21462986.124661,z:10400301.948822,vx:-1063.931641,vy:-659.633484,vz:2774.724609,tb:-0.000223820397
$newmeas,x:12362035.804826,y:21463035.489335,z:10400094.295470,vx:-1063.910278,vy:-659.620605,vz:2774.740479,tb:-0.000223820397
$pseudo_cd_ph,prn:5,pseudo_cd_ph:16.020385369294
measnum = 1,full_prange = 24580242.758755
$oldmeas,msRange:82.321504,x:4324930.263972,y:22236619.127078,z:-13818266.597799,vx:-695.051147,vy:1621.353027,vz:2432.823242,tb:0.000000798096
$newmeas,x:4324987.252381,y:22236486.190085,z:-13818466.066093,vx:-695.064880,vy:1621.373901,vz:2432.799072,tb:0.000000798096
$pseudo_cd_ph,prn:6,pseudo_cd_ph:9.355659261127
measnum = 2,full_prange = 20640243.113978
$oldmeas,msRange:69.176961,x:76982.889157,y:18636062.158875,z:18952777.704495,vx:-1743.320068,vy:-1646.491333,vz:1633.110474,tb:0.000193647821
$newmeas,x:77102.913453,y:18636175.517138,z:18952665.266430,vx:-1743.303467,vy:-1646.488525,vz:1633.138184,tb:0.000193647822
$pseudo_cd_ph,prn:9,pseudo_cd_ph:17.384138455955
measnum = 3,full_prange = 24291946.714570
$oldmeas,msRange:81.358947,x:-25090859.310749,y:8351200.915002,z:-2586829.854010,vx:-389.939484,vy:-215.187958,vz:3133.339111,tb:0.000402899115
$newmeas,x:-25090827.713050,y:8351218.351263,z:-2587083.745821,vx:-389.969330,vy:-215.181793,vz:3133.334473,tb:0.000402899115
$pseudo_cd_ph,prn:12,pseudo_cd_ph:19.128143884802
measnum = 4,full_prange = 23719800.785326
$oldmeas,msRange:79.451133,x:13031145.899823,y:6864255.627730,z:21894039.185885,vx:-985.721069,vy:2647.503906,vz:-224.457687,tb:0.000238431134
$newmeas,x:13031223.891344,y:6864046.155364,z:21894056.943657,vx:-985.734741,vy:2647.501465,vz:-224.420105,tb:0.000238431135
$pseudo_cd_ph,prn:17,pseudo_cd_ph:7.454200655135
measnum = 5,full_prange = 21170859.913816
$oldmeas,msRange:70.946920,x:-15091486.996813,y:14248004.512848,z:16928900.012684,vx:-2059.272461,vy:251.821396,vz:-2106.716553,tb:0.000062136358
$newmeas,x:-15091341.573635,y:14247986.729828,z:16929048.784731,vx:-2059.291504,vy:251.815704,vz:-2106.691650,tb:0.000062136357
$pseudo_cd_ph,prn:19,pseudo_cd_ph:9.296802479734
measnum = 6,full_prange = 20505816.447909
$oldmeas,msRange:68.728865,x:-8110619.191919,y:14770442.643227,z:20246972.579566,vx:-2618.253174,vy:276.616394,vz:-1225.064209,tb:-0.000313608026
$newmeas,x:-8110440.102890,y:14770423.722978,z:20247056.372979,vx:-2618.265137,vy:276.606934,vz:-1225.034058,tb:-0.000313608027
$pseudo_cd_ph,prn:28,pseudo_cd_ph:4.517600804363
measnum = 7,full_prange = 22262785.030359
$oldmeas,msRange:74.587776,x:-13007092.158927,y:22298746.267860,z:-5847086.452248,vx:105.578880,vy:-837.718079,vz:-3099.928955,tb:0.000767806642
$newmeas,x:-13007099.999041,y:22298808.476316,z:-5846856.249146,vx:105.572327,vy:-837.690125,vz:-3099.938232,tb:0.000767806642
source<tow,snapshot
nits = 2
$GNGGA,092041.935,2944.9070,N,10633.0964,E,1,19,0.0,338.0,M,,,,0000*19
$GNRMC,092041.935,A,2944.9070,N,10633.0964,E,0.00,0.00,280519,,*12
$GPGSA,A,3,02,05,06,09,12,17,19,28,,,,,0.0,0.0,0.0*3D
$BDGSA,A,3,01,03,04,05,07,10,12,19,21,22,25,,0.0,0.0,0.0*29
$GLGSA,A,3,,,,,,,,,,,,,0.0,0.0,0.0*2E
$GPGSV,2,1,08,02,37,272,41,05,09,205,40,06,63,325,45,09,13,114,37*74
$GPGSV,2,2,08,12,17,320,42,17,55,061,45,19,60,021,44,28,33,160,42*75
$BDGSV,3,1,12,01,39,126,41,02,48,220,20,03,56,171,43,04,23,109,39*69
$BDGSV,3,2,12,05,28,246,39,07,35,173,41,10,55,204,42,12,52,341,42*6B
$BDGSV,3,3,12,19,30,055,42,21,22,183,40,22,52,125,44,25,07,312,39*60
$B3CN0,0,0,0,0,0,0,0,0,0,0,0,0,0,0*4C
$ini_pos,lastpos_good = 1,ini_pos.x:-1578923.669906,ini_pos.y:5312780.096047,ini_pos.z:3146362.307983
$rtc_local_time,localRTC.weeks:2055,localRTC.seconds:206460.026010,localGtime.weeks:2055,localGtime.seconds:206460.026010
$pseudo_cd_ph,prn:2,pseudo_cd_ph:2.950858488111
measnum = 0,full_prange = 22435190.588399
$oldmeas,msRange:0.000000,x:12360892.109983,y:21462326.405205,z:10403076.566273,vx:-1064.216309,vy:-659.805481,vz:2774.510498,tb:-0.000223820403
$newmeas,x:12360971.750600,y:21462375.781754,z:10402868.933121,vx:-1064.194946,vy:-659.792603,vz:2774.526611,tb:-0.000223820402
$pseudo_cd_ph,prn:5,pseudo_cd_ph:16.023485603221
measnum = 1,full_prange = 24579303.661057
$oldmeas,msRange:82.319083,x:4324235.296410,y:22238240.352668,z:-13815833.627170,vx:-694.883972,vy:1621.098267,vz:2433.118164,tb:0.000000798095
$newmeas,x:4324292.268935,y:22238107.441644,z:-13816033.112015,vx:-694.897705,vy:1621.119141,vz:2433.093994,tb:0.000000798095
$pseudo_cd_ph,prn:6,pseudo_cd_ph:9.356187285333
measnum = 2,full_prange = 20640075.142140
$oldmeas,msRange:69.177118,x:75239.448467,y:18634415.646491,z:18954410.613810,vx:-1743.561401,vy:-1646.533447,vz:1632.708252,tb:0.000193647811
$newmeas,x:75359.488402,y:18634529.006731,z:18954298.204358,vx:-1743.544800,vy:-1646.530640,vz:1632.735962,tb:0.000193647812
$pseudo_cd_ph,prn:9,pseudo_cd_ph:17.386107779435
measnum = 3,full_prange = 24291346.661700
$oldmeas,msRange:81.357663,x:-25091249.066028,y:8350985.688940,z:-2583696.487628,vx:-389.571075,vy:-215.264191,vz:3133.394043,tb:0.000402899107
$newmeas,x:-25091217.498959,y:8351003.130946,z:-2583950.377620,vx:-389.600952,vy:-215.258011,vz:3133.389404,tb:0.000402899108
$pseudo_cd_ph,prn:12,pseudo_cd_ph:19.130860829283
measnum = 4,full_prange = 23718976.592799
$oldmeas,msRange:79.449094,x:13030160.265158,y:6866903.147218,z:21893814.490712,vx:-985.548279,vy:2647.535156,vz:-224.932663,tb:0.000238431129
$newmeas,x:13030238.240300,y:6866693.679650,z:21893832.285446,vx:-985.561951,vy:2647.532715,vz:-224.895096,tb:0.000238431129
$pseudo_cd_ph,prn:17,pseudo_cd_ph:7.454719081069
measnum = 5,full_prange = 21170694.833587
$oldmeas,msRange:70.947086,x:-15093546.134507,y:14248256.374483,z:16926793.120615,vx:-2059.002930,vy:251.901886,vz:-2107.067627,tb:0.000062136367
$newmeas,x:-15093400.731499,y:14248238.585917,z:16926941.916305,vx:-2059.021973,vy:251.896210,vz:-2107.042969,tb:0.000062136366
$pseudo_cd_ph,prn:19,pseudo_cd_ph:9.297683581579
measnum = 6,full_prange = 20505542.641439
$oldmeas,msRange:68.728665,x:-8113237.357932,y:14770719.328783,z:20245747.294574,vx:-2618.079102,vy:276.754730,vz:-1225.505737,tb:-0.000313608025
$newmeas,x:-8113058.283202,y:14770700.399324,z:20245831.117068,vx:-2618.091064,vy:276.745270,vz:-1225.475586,tb:-0.000313608025
$pseudo_cd_ph,prn:28,pseudo_cd_ph:4.516420582522
measnum = 7,full_prange = 22263129.187326
$oldmeas,msRange:74.589640,x:-13006986.535932,y:22297908.361750,z:-5850186.318149,vx:105.667107,vy:-838.094238,vz:-3099.803223,tb:0.000767806641
$newmeas,x:-13006994.382719,y:22297970.599103,z:-5849956.120826,vx:105.660561,vy:-838.066284,vz:-3099.812500,tb:0.000767806641
source<tow,snapshot
nits = 2
$GNGGA,092042.935,2944.9077,N,10633.0955,E,1,19,0.0,337.9,M,,,,0000*19
$GNRMC,092042.935,A,2944.9077,N,10633.0955,E,0.00,0.00,280519,,*14
$GPGSA,A,3,02,05,06,09,12,17,19,28,,,,,0.0,0.0,0.0*3D
$BDGSA,A,3,01,03,04,05,07,10,12,19,21,22,25,,0.0,0.0,0.0*29
$GLGSA,A,3,,,,,,,,,,,,,0.0,0.0,0.0*2E
$GPGSV,2,1,08,02,37,272,42,05,09,205,40,06,63,325,45,09,13,114,37*77
$GPGSV,2,2,08,12,17,320,42,17,55,061,45,19,60,021,44,28,33,160,42*75
$BDGSV,3,1,12,01,39,126,41,03,56,171,42,04,23,109,40,05,28,246,39*6F
$BDGSV,3,2,12,07,35,173,41,10,55,204,41,12,52,341,42,19,30,055,42*60
$BDGSV,3,3,12,21,22,183,40,22,52,125,44,25,07,312,39,02,48,220,00*63
$B3CN0,0,0,0,0,0,0,0,0,0,0,0,0,0,0*4C
tow update,206462069.356716
$ini_pos,lastpos_good = 1,ini_pos.x:-1578922.140781,ini_pos.y:5312779.828892,ini_pos.z:3146363.300381
$rtc_local_time,localRTC.weeks:2055,localRTC.seconds:206461.026010,localGtime.weeks:2055,localGtime.seconds:206462.069357
$pseudo_cd_ph,prn:2,pseudo_cd_ph:206461862.952338576317
measnum = 0,full_prange = 22538563.901522
$oldmeas,msRange:0.000000,x:12358716.953308,y:21460977.835206,z:10408745.405472,vx:-1064.797974,vy:-660.156738,vz:2774.073242,tb:-0.000223820414
$newmeas,x:12358797.004606,y:21461027.465673,z:10408536.848492,vx:-1064.776611,vy:-660.143860,vz:2774.089355,tb:-0.000223820413
$pseudo_cd_ph,prn:5,pseudo_cd_ph:206461856.026591211557
measnum = 1,full_prange = 24682189.662120
$oldmeas,msRange:82.314131,x:4322815.756722,y:22241552.285711,z:-13810861.308936,vx:-694.542480,vy:1620.577393,vz:2433.720459,tb:0.000000798094
$newmeas,x:4322872.939611,y:22241418.861211,z:-13811061.678381,vx:-694.556213,vy:1620.598389,vz:2433.696045,tb:0.000000798094
$pseudo_cd_ph,prn:6,pseudo_cd_ph:206461869.356715738773
measnum = 2,full_prange = 20743733.749174
$oldmeas,msRange:69.177442,x:71676.244926,y:18631051.120595,z:18957745.962115,vx:-1744.054443,vy:-1646.619385,vz:1631.885986,tb:0.000193647791
$newmeas,x:71796.921841,y:18631165.056096,z:18957633.045004,vx:-1744.037842,vy:-1646.616455,vz:1631.913940,tb:0.000193647791
$pseudo_cd_ph,prn:9,pseudo_cd_ph:206461857.388080716133
measnum = 3,full_prange = 24394572.223692
$oldmeas,msRange:81.355029,x:-25092044.325595,y:8350545.670422,z:-2577293.764146,vx:-388.818329,vy:-215.420090,vz:3133.506104,tb:0.000402899093
$newmeas,x:-25092012.685631,y:8350563.199233,z:-2577548.742158,vx:-388.848297,vy:-215.413879,vz:3133.501465,tb:0.000402899093
$pseudo_cd_ph,prn:12,pseudo_cd_ph:206461859.133573055267
measnum = 4,full_prange = 23821980.526183
$oldmeas,msRange:79.444940,x:13028146.809416,y:6872313.043795,z:21893353.883821,vx:-985.195190,vy:2647.599121,vz:-225.903183,tb:0.000238431117
$newmeas,x:13028225.095123,y:6872102.661506,z:21893371.832944,vx:-985.208923,vy:2647.596680,vz:-225.865448,tb:0.000238431117
$pseudo_cd_ph,prn:17,pseudo_cd_ph:206461867.455238252878
measnum = 5,full_prange = 21274356.231026
$oldmeas,msRange:70.947422,x:-15097752.827752,y:14248771.265229,z:16922486.918409,vx:-2058.451904,vy:252.066254,vz:-2107.785400,tb:0.000062136385
$newmeas,x:-15097606.751879,y:14248753.377899,z:16922636.493586,vx:-2058.471191,vy:252.060547,vz:-2107.760498,tb:0.000062136385
$pseudo_cd_ph,prn:19,pseudo_cd_ph:206461869.298565775156
measnum = 6,full_prange = 20609095.203159
$oldmeas,msRange:68.728258,x:-8118586.636492,y:14771285.123256,z:20243242.240188,vx:-2617.723145,vy:277.037292,vz:-1226.407837,tb:-0.000313608021
$newmeas,x:-8118406.681901,y:14771266.078780,z:20243326.547993,vx:-2617.735107,vy:277.027802,vz:-1226.377563,tb:-0.000313608021
$pseudo_cd_ph,prn:28,pseudo_cd_ph:206461864.515243649483
measnum = 7,full_prange = 22367299.059235
$oldmeas,msRange:74.593438,x:-13006770.437379,y:22296195.059745,z:-5856520.026694,vx:105.847221,vy:-838.862854,vz:-3099.545898,tb:0.000767806638
$newmeas,x:-13006778.334319,y:22296257.645650,z:-5856288.771455,vx:105.840652,vy:-838.834778,vz:-3099.555420,tb:0.000767806638
$GNGGA,092043.938,2944.9108,N,10633.0951,E,1,12,0.9,334.0,M,,,,0000*10
$GNRMC,092043.938,A,2944.9108,N,10633.0951,E,0.44,0.00,280519,,*15
$GPGSA,A,3,02,05,06,09,12,17,19,28,,,,,1.6,0.9,1.3*31
$BDGSA,A,3,01,03,04,05,,,,,,,,,1.6,0.9,1.3*2C
$GLGSA,A,3,,,,,,,,,,,,,1.6,0.9,1.3*22
$GPGSV,2,1,08,02,37,272,42,05,09,205,41,06,63,325,45,09,13,114,38*79
$GPGSV,2,2,08,12,17,320,43,17,55,061,45,19,60,021,44,28,33,160,42*74
$BDGSV,3,1,12,01,39,126,41,03,56,171,41,04,23,109,40,05,28,246,38*6D
$BDGSV,3,2,12,07,35,173,41,10,55,204,42,12,52,341,42,19,30,055,42*63
$BDGSV,3,3,12,21,22,183,40,22,52,125,44,25,07,312,39,02,48,220,00*63
$B3CN0,0,0,0,0,0,0,0,0,0,0,0,0,0,0*4C
$ini_pos,lastpos_good = 1,ini_pos.x:-1578919.771601,ini_pos.y:5312774.041779,ini_pos.z:3146366.419860
$rtc_local_time,localRTC.weeks:2055,localRTC.seconds:206462.087670,localGtime.weeks:2055,localGtime.seconds:206463.000000
$pseudo_cd_ph,prn:2,pseudo_cd_ph:206462924.613389998674
measnum = 0,full_prange = 22533219.730925
$oldmeas,msRange:0.000000,x:12357725.883026,y:21460363.390382,z:10411326.985291,vx:-1065.062866,vy:-660.316650,vz:2773.874023,tb:-0.000223820419
$newmeas,x:12357805.935256,y:21460413.021101,z:10411118.492737,vx:-1065.041504,vy:-660.303772,vz:2773.890137,tb:-0.000223820418
$pseudo_cd_ph,prn:5,pseudo_cd_ph:206462917.689372628927
measnum = 1,full_prange = 24676326.853433
$oldmeas,msRange:82.311893,x:4322169.457847,y:22243060.354732,z:-13808596.255951,vx:-694.386963,vy:1620.340210,vz:2433.994629,tb:0.000000798094
$newmeas,x:4322226.614352,y:22242926.981454,z:-13808796.600375,vx:-694.400696,vy:1620.361206,vz:2433.970459,tb:0.000000798094
$pseudo_cd_ph,prn:6,pseudo_cd_ph:206462931.016757130623
measnum = 2,full_prange = 20738692.376781
$oldmeas,msRange:69.177594,x:70053.047941,y:18629518.687271,z:18959264.491536,vx:-1744.279053,vy:-1646.658447,vz:1631.511475,tb:0.000193647781
$newmeas,x:70173.711061,y:18629632.597781,z:18959151.627775,vx:-1744.262329,vy:-1646.655518,vz:1631.539429,tb:0.000193647782
$pseudo_cd_ph,prn:9,pseudo_cd_ph:206462919.049658030272
measnum = 3,full_prange = 24389070.394198
$oldmeas,msRange:81.353839,x:-25092406.017211,y:8350345.158110,z:-2574377.564274,vx:-388.475494,vy:-215.491165,vz:3133.556885,tb:0.000402899086
$newmeas,x:-25092374.412274,y:8350362.688749,z:-2574632.488925,vx:-388.505463,vy:-215.484940,vz:3133.552490,tb:0.000402899087
$pseudo_cd_ph,prn:12,pseudo_cd_ph:206462920.795939177275
measnum = 4,full_prange = 23816242.218442
$oldmeas,msRange:79.443038,x:13027230.019021,y:6874777.027412,z:21893143.442869,vx:-985.034363,vy:2647.627930,vz:-226.345200,tb:0.000238431112
$newmeas,x:13027308.273092,y:6874566.693498,z:21893161.422784,vx:-985.048096,vy:2647.625488,vz:-226.307480,tb:0.000238431112
$pseudo_cd_ph,prn:17,pseudo_cd_ph:206462929.115272253752
measnum = 5,full_prange = 21269317.079754
$oldmeas,msRange:70.947580,x:-15099668.395394,y:14249005.883780,z:16920525.170258,vx:-2058.200928,vy:252.141037,vz:-2108.112061,tb:0.000062136394
$newmeas,x:-15099522.371928,y:14248987.995381,z:16920674.733189,vx:-2058.220215,vy:252.135345,vz:-2108.087158,tb:0.000062136393
$pseudo_cd_ph,prn:19,pseudo_cd_ph:206462930.958984255791
measnum = 6,full_prange = 20603940.785735
$oldmeas,msRange:68.728075,x:-8121022.727339,y:14771543.006017,z:20242100.700830,vx:-2617.561035,vy:277.165955,vz:-1226.818726,tb:-0.000313608019
$newmeas,x:-8120842.828903,y:14771523.957462,z:20242185.015785,vx:-2617.572998,vy:277.156464,vz:-1226.788330,tb:-0.000313608019
$pseudo_cd_ph,prn:28,pseudo_cd_ph:206462926.173480063677
measnum = 7,full_prange = 22362798.807955
$oldmeas,msRange:74.595189,x:-13006671.893237,y:22295414.214815,z:-5859404.543609,vx:105.929184,vy:-839.212952,vz:-3099.428711,tb:0.000767806637
$newmeas,x:-13006679.794701,y:22295476.814243,z:-5859173.343641,vx:105.922615,vy:-839.184875,vz:-3099.438232,tb:0.000767806637
$GNGGA,092045.000,2944.9102,N,10633.0956,E,1,12,0.8,333.8,M,,,,0000*17
$GNRMC,092045.000,A,2944.9102,N,10633.0956,E,0.04,0.00,280519,,*18
$GPGSA,A,3,02,05,06,09,12,17,19,28,,,,,1.0,0.8,0.7*33
$BDGSA,A,3,01,03,04,05,,,,,,,,,1.0,0.8,0.7*2E
$GLGSA,A,3,,,,,,,,,,,,,1.0,0.8,0.7*20
$GPGSV,3,1,09,02,37,272,41,05,09,205,41,06,63,325,45,09,13,114,38*7A
$GPGSV,3,2,09,12,17,320,42,17,55,061,45,19,60,021,44,28,33,160,42*75
$GPGSV,3,3,09,23,00,000,32*40
$BDGSV,3,1,12,01,39,126,40,03,56,171,43,04,23,109,40,05,28,246,40*61
$BDGSV,3,2,12,07,35,173,41,10,55,204,42,12,52,341,43,19,30,055,42*62
$BDGSV,3,3,12,21,22,183,40,22,52,125,44,25,07,312,39,02,48,220,00*63
$B3CN0,0,0,0,0,0,0,0,0,0,0,0,0,0,0*4C
$ini_pos,lastpos_good = 1,ini_pos.x:-1578920.509063,ini_pos.y:5312774.236718,ini_pos.z:3146365.385527
$rtc_local_time,localRTC.weeks:2055,localRTC.seconds:206463.087670,localGtime.weeks:2055,localGtime.seconds:206464.000000
$pseudo_cd_ph,prn:2,pseudo_cd_ph:206463924.614864468575
measnum = 0,full_prange = 22532768.027230
$oldmeas,msRange:0.000000,x:12356660.677831,y:21459702.987842,z:10414100.752202,vx:-1065.347534,vy:-660.488464,vz:2773.659912,tb:-0.000223820424
$newmeas,x:12356740.749854,y:21459752.630476,z:10413892.279923,vx:-1065.326172,vy:-660.475525,vz:2773.676025,tb:-0.000223820424
$pseudo_cd_ph,prn:5,pseudo_cd_ph:206463917.692475855350
measnum = 1,full_prange = 24675386.862284
$oldmeas,msRange:82.309467,x:4321475.154457,y:22244680.567365,z:-13806162.114116,vx:-694.219849,vy:1620.085205,vz:2434.289307,tb:0.000000798093
$newmeas,x:4321532.295033,y:22244547.220156,z:-13806362.475157,vx:-694.233643,vy:1620.106201,vz:2434.264893,tb:0.000000798094
$pseudo_cd_ph,prn:6,pseudo_cd_ph:206463931.017279207706
measnum = 2,full_prange = 20738526.191845
$oldmeas,msRange:69.177757,x:68308.648330,y:18627872.007985,z:18960895.801792,vx:-1744.520264,vy:-1646.700317,vz:1631.109131,tb:0.000193647771
$newmeas,x:68429.327173,y:18627985.920480,z:18960782.966775,vx:-1744.503662,vy:-1646.697388,vz:1631.136963,tb:0.000193647772
$pseudo_cd_ph,prn:9,pseudo_cd_ph:206463919.051628947258
measnum = 3,full_prange = 24388469.858864
$oldmeas,msRange:81.352544,x:-25092794.308499,y:8350129.628751,z:-2571243.980044,vx:-388.107117,vy:-215.567581,vz:3133.611572,tb:0.000402899079
$newmeas,x:-25092762.734310,y:8350147.165175,z:-2571498.902866,vx:-388.137085,vy:-215.561356,vz:3133.607178,tb:0.000402899080
$pseudo_cd_ph,prn:12,pseudo_cd_ph:206463920.798655658960
measnum = 4,full_prange = 23815418.168867
$oldmeas,msRange:79.441013,x:13026245.071129,y:6877424.670902,z:21892916.860196,vx:-984.861511,vy:2647.659180,vz:-226.820160,tb:0.000238431106
$newmeas,x:13026323.308760,y:6877214.341797,z:21892934.877219,vx:-984.875244,vy:2647.656738,vz:-226.782425,tb:0.000238431106
$pseudo_cd_ph,prn:17,pseudo_cd_ph:206463929.115785837173
measnum = 5,full_prange = 21269153.446915
$oldmeas,msRange:70.947744,x:-15101726.461494,y:14249258.064980,z:16918416.882750,vx:-2057.931396,vy:252.221375,vz:-2108.463135,tb:0.000062136403
$newmeas,x:-15101580.458288,y:14249240.171020,z:16918566.469436,vx:-2057.950439,vy:252.215668,vz:-2108.438232,tb:0.000062136402
$pseudo_cd_ph,prn:19,pseudo_cd_ph:206463930.959862619638
measnum = 6,full_prange = 20603667.792305
$oldmeas,msRange:68.727879,x:-8123640.201056,y:14771820.241084,z:20240873.661452,vx:-2617.386719,vy:277.304169,vz:-1227.260132,tb:-0.000313608017
$newmeas,x:-8123460.316984,y:14771801.183282,z:20240958.005626,vx:-2617.398682,vy:277.294678,vz:-1227.229736,tb:-0.000313608017
$pseudo_cd_ph,prn:28,pseudo_cd_ph:206463926.172300368547
measnum = 7,full_prange = 22363142.804099
$oldmeas,msRange:74.597043,x:-13006565.920047,y:22294574.813824,z:-5862503.909254,vx:106.017197,vy:-839.589111,vz:-3099.302734,tb:0.000767806635
$newmeas,x:-13006573.828199,y:22294637.442275,z:-5862272.715130,vx:106.010635,vy:-839.561035,vz:-3099.312256,tb:0.000767806635
$GNGGA,092046.000,2944.9093,N,10633.0950,E,1,19,0.6,335.1,M,,,,0000*11
$GNRMC,092046.000,A,2944.9093,N,10633.0950,E,0.18,0.00,280519,,*19
$GPGSA,A,3,02,05,06,09,12,17,19,28,,,,,0.8,0.6,0.5*36
$BDGSA,A,3,01,03,04,05,07,10,12,19,21,22,25,,0.8,0.6,0.5*22
$GLGSA,A,3,,,,,,,,,,,,,0.8,0.6,0.5*25
$GPGSV,3,1,09,02,37,272,41,05,09,205,41,06,63,325,45,09,13,114,37*75
$GPGSV,3,2,09,12,17,320,42,17,55,061,44,19,60,021,43,28,33,160,42*73
$GPGSV,3,3,09,23,00,000,36*44
$BDGSV,3,1,12,01,39,126,41,03,56,171,43,04,23,109,38,05,28,246,37*6F
$BDGSV,3,2,12,07,35,173,41,10,55,204,42,12,52,341,42,19,30,055,42*63
$BDGSV,3,3,12,21,22,183,41,22,52,125,44,25,07,312,38,02,48,220,00*63
$B3CN0,0,0,0,0,0,0,0,0,0,0,0,0,0,0*4C
$ini_pos,lastpos_good = 1,ini_pos.x:-1578920.264645,ini_pos.y:5312776.357413,ini_pos.z:3146364.493624
$rtc_local_time,localRTC.weeks:2055,localRTC.seconds:206464.087670,localGtime.weeks:2055,localGtime.seconds:206465.000000
$pseudo_cd_ph,prn:2,pseudo_cd_ph:206464924.616338461637
measnum = 0,full_prange = 22532316.466487
$oldmeas,msRange:0.000000,x:12355595.187949,y:21459042.413547,z:10416874.304948,vx:-1065.632202,vy:-660.660156,vz:2773.445801,tb:-0.000223820429
$newmeas,x:12355675.279764,y:21459092.068094,z:10416665.852945,vx:-1065.610840,vy:-660.647278,vz:2773.461914,tb:-0.000223820429
$pseudo_cd_ph,prn:5,pseudo_cd_ph:206464917.695587545633
measnum = 1,full_prange = 24674444.333734
$oldmeas,msRange:82.307036,x:4320781.018132,y:22246300.524974,z:-13803727.677690,vx:-694.052795,vy:1619.830078,vz:2434.583740,tb:0.000000798093
$newmeas,x:4320838.142775,y:22246167.203850,z:-13803928.055322,vx:-694.066589,vy:1619.851074,vz:2434.559570,tb:0.000000798093
$pseudo_cd_ph,prn:6,pseudo_cd_ph:206464931.017800360918
measnum = 2,full_prange = 20738360.283880
$oldmeas,msRange:69.177915,x:66564.007474,y:18626225.286854,z:18962526.709581,vx:-1744.761475,vy:-1646.742065,vz:1630.706543,tb:0.000193647761
$newmeas,x:66684.702039,y:18626339.201330,z:18962413.903309,vx:-1744.744873,vy:-1646.739136,vz:1630.734497,tb:0.000193647762
$pseudo_cd_ph,prn:9,pseudo_cd_ph:206464919.053596526384
measnum = 3,full_prange = 24387870.324196
$oldmeas,msRange:81.351251,x:-25093182.231407,y:8349914.022947,z:-2568110.341161,vx:-387.738739,vy:-215.644058,vz:3133.666260,tb:0.000402899072
$newmeas,x:-25093150.687961,y:8349931.565160,z:-2568365.262160,vx:-387.768707,vy:-215.637833,vz:3133.661865,tb:0.000402899072
$pseudo_cd_ph,prn:12,pseudo_cd_ph:206464920.801370888948
measnum = 4,full_prange = 23814594.494543
$oldmeas,msRange:79.438984,x:13025260.296106,y:6880072.345426,z:21892689.802573,vx:-984.688599,vy:2647.690186,vz:-227.295105,tb:0.000238431100
$newmeas,x:13025338.517298,y:6879862.021133,z:21892707.856702,vx:-984.702332,vy:2647.687744,vz:-227.257370,tb:0.000238431101
$pseudo_cd_ph,prn:17,pseudo_cd_ph:206464929.116304278374
measnum = 5,full_prange = 21268988.357750
$oldmeas,msRange:70.947908,x:-15103784.257829,y:14249510.326483,z:16916308.244203,vx:-2057.661621,vy:252.301651,vz:-2108.814209,tb:0.000062136412
$newmeas,x:-15103638.274896,y:14249492.426966,z:16916457.854632,vx:-2057.680664,vy:252.295959,vz:-2108.789307,tb:0.000062136411
$pseudo_cd_ph,prn:19,pseudo_cd_ph:206464930.960743367672
measnum = 6,full_prange = 20603394.084115
$oldmeas,msRange:68.727680,x:-8126257.500408,y:14772097.614355,z:20239646.180677,vx:-2617.212158,vy:277.442383,vz:-1227.701538,tb:-0.000313608015
$newmeas,x:-8126077.630712,y:14772078.547309,z:20239730.554065,vx:-2617.224121,vy:277.432861,vz:-1227.671143,tb:-0.000313608015
$pseudo_cd_ph,prn:28,pseudo_cd_ph:206464926.171123385429
measnum = 7,full_prange = 22363485.987203
$oldmeas,msRange:74.598894,x:-13006459.858871,y:22293735.036659,z:-5865603.148850,vx:106.105156,vy:-839.965271,vz:-3099.176758,tb:0.000767806634
$newmeas,x:-13006467.773706,y:22293797.694133,z:-5865371.960583,vx:106.098595,vy:-839.937195,vz:-3099.186035,tb:0.000767806634
$GNGGA,092047.000,2944.9091,N,10633.0949,E,1,19,0.6,334.8,M,,,,0000*12
$GNRMC,092047.000,A,2944.9091,N,10633.0949,E,0.06,0.00,280519,,*1D
$GPGSA,A,3,02,05,06,09,12,17,19,28,,,,,0.8,0.6,0.5*36
$BDGSA,A,3,01,03,04,05,07,10,12,19,21,22,25,,0.8,0.6,0.5*22
$GLGSA,A,3,,,,,,,,,,,,,0.8,0.6,0.5*25
$GPGSV,3,1,09,02,37,272,42,05,09,205,40,06,63,325,45,09,13,114,37*77
$GPGSV,3,2,09,12,17,320,41,17,55,061,45,19,60,021,44,28,33,160,42*76
$GPGSV,3,3,09,23,00,000,36*44
$BDGSV,3,1,12,01,39,126,41,03,56,171,43,04,23,109,40,05,28,246,39*6E
$BDGSV,3,2,12,07,35,173,41,10,55,204,41,12,52,341,42,19,30,055,42*60
$BDGSV,3,3,12,21,22,183,40,22,52,125,44,25,07,312,38,02,48,220,00*62
$B3CN0,0,0,0,0,0,0,0,0,0,0,0,0,0,0*4C
$ini_pos,lastpos_good = 1,ini_pos.x:-1578920.026926,ini_pos.y:5312776.282664,ini_pos.z:3146364.099505
$rtc_local_time,localRTC.weeks:2055,localRTC.seconds:206465.087670,localGtime.weeks:2055,localGtime.seconds:206466.000000
$pseudo_cd_ph,prn:2,pseudo_cd_ph:206465924.617810696363
measnum = 0,full_prange = 22531865.423946
$oldmeas,msRange:0.000000,x:12354529.413372,y:21458381.667554,z:10419647.643474,vx:-1065.916992,vy:-660.831848,vz:2773.231445,tb:-0.000223820435
$newmeas,x:12354609.524982,y:21458431.334010,z:10419439.211746,vx:-1065.895508,vy:-660.818970,vz:2773.247559,tb:-0.000223820434
$pseudo_cd_ph,prn:5,pseudo_cd_ph:206465917.698690474033
measnum = 1,full_prange = 24673504.422995
$oldmeas,msRange:82.304611,x:4320087.048844,y:22247920.227506,z:-13801292.946724,vx:-693.885803,vy:1619.575073,vz:2434.878418,tb:0.000000798093
$newmeas,x:4320144.157565,y:22247786.932456,z:-13801493.340963,vx:-693.899536,vy:1619.596069,vz:2434.854004,tb:0.000000798093
$pseudo_cd_ph,prn:6,pseudo_cd_ph:206465931.018321692944
measnum = 2,full_prange = 20738194.313372
$oldmeas,msRange:69.178076,x:64819.125395,y:18624578.523940,z:18964157.214869,vx:-1745.002686,vy:-1646.783813,vz:1630.304077,tb:0.000193647751
$newmeas,x:64939.835679,y:18624692.440392,z:18964044.437344,vx:-1744.986084,vy:-1646.781006,vz:1630.331909,tb:0.000193647752
$pseudo_cd_ph,prn:9,pseudo_cd_ph:206465919.055568993092
measnum = 3,full_prange = 24387269.315333
$oldmeas,msRange:81.349960,x:-25093569.785938,y:8349698.340646,z:-2564976.647691,vx:-387.370361,vy:-215.720566,vz:3133.720947,tb:0.000402899065
$newmeas,x:-25093538.273235,y:8349715.888651,z:-2565231.566846,vx:-387.400330,vy:-215.714340,vz:3133.716309,tb:0.000402899065
$pseudo_cd_ph,prn:12,pseudo_cd_ph:206465920.804080307484
measnum = 4,full_prange = 23813772.553513
$oldmeas,msRange:79.436955,x:13024275.693974,y:6882720.050916,z:21892462.270007,vx:-984.515686,vy:2647.720947,vz:-227.770050,tb:0.000238431094
$newmeas,x:13024353.898732,y:6882509.731425,z:21892480.361239,vx:-984.529419,vy:2647.718506,vz:-227.732315,tb:0.000238431095
$pseudo_cd_ph,prn:17,pseudo_cd_ph:206465929.116816699505
measnum = 5,full_prange = 21268825.064422
$oldmeas,msRange:70.948074,x:-15105841.784356,y:14249762.668245,z:16914199.254661,vx:-2057.391602,vy:252.381882,vz:-2109.165039,tb:0.000062136421
$newmeas,x:-15105695.821687,y:14249744.763172,z:16914348.888841,vx:-2057.410889,vy:252.376190,vz:-2109.140137,tb:0.000062136421
$pseudo_cd_ph,prn:19,pseudo_cd_ph:206465930.961619883776
measnum = 6,full_prange = 20603121.635691
$oldmeas,msRange:68.727483,x:-8128874.625335,y:14772375.125801,z:20238418.258530,vx:-2617.037842,vy:277.580536,vz:-1228.142822,tb:-0.000313608013
$newmeas,x:-8128694.770006,y:14772356.049512,z:20238502.661135,vx:-2617.049805,vy:277.571045,vz:-1228.112549,tb:-0.000313608013
$pseudo_cd_ph,prn:28,pseudo_cd_ph:206465926.169944375753
measnum = 7,full_prange = 22363829.768918
$oldmeas,msRange:74.600752,x:-13006353.709763,y:22292894.883316,z:-5868702.262327,vx:106.193062,vy:-840.341431,vz:-3099.050537,tb:0.000767806632
$newmeas,x:-13006361.631277,y:22292957.569815,z:-5868471.079917,vx:106.186508,vy:-840.313416,vz:-3099.059814,tb:0.000767806633
$GNGGA,092048.000,2944.9090,N,10633.0948,E,1,19,0.6,334.8,M,,,,0000*1D
$GNRMC,092048.000,A,2944.9090,N,10633.0948,E,0.18,0.00,280519,,*1D
$GPGSA,A,3,02,05,06,09,12,17,19,28,,,,,0.8,0.6,0.5*36
$BDGSA,A,3,01,03,04,05,07,10,12,19,21,22,25,,0.8,0.6,0.5*22
$GLGSA,A,3,,,,,,,,,,,,,0.8,0.6,0.5*25
$GPGSV,3,1,09,02,37,272,42,05,09,205,39,06,63,325,46,09,13,114,38*75
$GPGSV,3,2,09,12,17,320,42,17,55,061,45,19,60,021,44,28,33,160,43*74
$GPGSV,3,3,09,23,00,000,37*45
$BDGSV,3,1,12,01,39,126,41,03,56,171,43,04,23,109,39,05,28,246,39*60
$BDGSV,3,2,12,07,35,173,41,10,55,204,42,12,52,341,43,19,30,055,42*62
$BDGSV,3,3,12,21,22,183,40,22,52,125,45,25,07,312,38,02,48,220,00*63
$B3CN0,0,0,0,0,0,0,0,0,0,0,0,0,0,0*4C
$ini_pos,lastpos_good = 1,ini_pos.x:-1578919.868073,ini_pos.y:5312776.512052,ini_pos.z:3146363.867876
$rtc_local_time,localRTC.weeks:2055,localRTC.seconds:206466.087670,localGtime.weeks:2055,localGtime.seconds:206467.000000
$pseudo_cd_ph,prn:2,pseudo_cd_ph:206466924.619285017252
measnum = 0,full_prange = 22531413.764924
$oldmeas,msRange:0.000000,x:12353463.354094,y:21457720.749916,z:10422420.767722,vx:-1066.201660,vy:-661.003479,vz:2773.017090,tb:-0.000223820440
$newmeas,x:12353543.485495,y:21457770.428275,z:10422212.356279,vx:-1066.180298,vy:-660.990540,vz:2773.033203,tb:-0.000223820440
$pseudo_cd_ph,prn:5,pseudo_cd_ph:206466917.701797395945
measnum = 1,full_prange = 24672563.323967
$oldmeas,msRange:82.302186,x:4319393.246568,y:22249539.674910,z:-13798857.921270,vx:-693.718811,vy:1619.319824,vz:2435.172852,tb:0.000000798092
$newmeas,x:4319450.339368,y:22249406.405943,z:-13799058.332100,vx:-693.732544,vy:1619.340820,vz:2435.148438,tb:0.000000798092
$pseudo_cd_ph,prn:6,pseudo_cd_ph:206466931.018845200539
measnum = 2,full_prange = 20738027.699580
$oldmeas,msRange:69.178237,x:63074.002113,y:18622931.719303,z:18965787.317621,vx:-1745.243896,vy:-1646.825562,vz:1629.901489,tb:0.000193647741
$newmeas,x:63194.728112,y:18623045.637725,z:18965674.568848,vx:-1745.227295,vy:-1646.822632,vz:1629.929321,tb:0.000193647742
$pseudo_cd_ph,prn:9,pseudo_cd_ph:206466919.057542234659
measnum = 3,full_prange = 24386668.083108
$oldmeas,msRange:81.348668,x:-25093956.972097,y:8349482.581798,z:-2561842.899702,vx:-387.001984,vy:-215.797150,vz:3133.775391,tb:0.000402899058
$newmeas,x:-25093925.490137,y:8349500.135600,z:-2562097.817004,vx:-387.031952,vy:-215.790909,vz:3133.770996,tb:0.000402899058
$pseudo_cd_ph,prn:12,pseudo_cd_ph:206466920.806792527437
measnum = 4,full_prange = 23812949.781574
$oldmeas,msRange:79.434926,x:13023291.264753,y:6885367.787303,z:21892234.262504,vx:-984.342773,vy:2647.751953,vz:-228.244980,tb:0.000238431089
$newmeas,x:13023369.453074,y:6885157.472626,z:21892252.390835,vx:-984.356506,vy:2647.749512,vz:-228.207260,tb:0.000238431089
$pseudo_cd_ph,prn:17,pseudo_cd_ph:206466929.117332279682
measnum = 5,full_prange = 21268660.832970
$oldmeas,msRange:70.948238,x:-15107899.041029,y:14250015.090221,z:16912089.914166,vx:-2057.121826,vy:252.462082,vz:-2109.516113,tb:0.000062136430
$newmeas,x:-15107753.098634,y:14249997.179597,z:16912239.572087,vx:-2057.140869,vy:252.456390,vz:-2109.491211,tb:0.000062136430
$pseudo_cd_ph,prn:19,pseudo_cd_ph:206466930.962499976158
measnum = 6,full_prange = 20602848.124060
$oldmeas,msRange:68.727285,x:-8131491.575772,y:14772652.775393,z:20237189.895042,vx:-2616.863281,vy:277.718658,vz:-1228.584229,tb:-0.000313608011
$newmeas,x:-8131311.734824,y:14772633.689864,z:20237274.326856,vx:-2616.875244,vy:277.709167,vz:-1228.553833,tb:-0.000313608011
$pseudo_cd_ph,prn:28,pseudo_cd_ph:206466926.168770343065
measnum = 7,full_prange = 22364172.067504
$oldmeas,msRange:74.602609,x:-13006247.472776,y:22292054.353793,z:-5871801.249618,vx:106.280914,vy:-840.717651,vz:-3098.924316,tb:0.000767806631
$newmeas,x:-13006255.400965,y:22292117.069314,z:-5871570.073085,vx:106.274361,vy:-840.689575,vz:-3098.933594,tb:0.000767806631
$GNGGA,092049.000,2944.9090,N,10633.0946,E,1,19,0.6,334.4,M,,,,0000*1E
$GNRMC,092049.000,A,2944.9090,N,10633.0946,E,0.11,0.00,280519,,*1B
$GPGSA,A,3,02,05,06,09,12,17,19,28,,,,,0.8,0.6,0.5*36
$BDGSA,A,3,01,03,04,05,07,10,12,19,21,22,25,,0.8,0.6,0.5*22
$GLGSA,A,3,,,,,,,,,,,,,0.8,0.6,0.5*25
$GPGSV,3,1,09,02,37,272,42,05,09,205,40,06,63,325,45,09,13,114,37*77
$GPGSV,3,2,09,12,17,320,43,17,55,061,45,19,60,021,44,28,33,160,42*74
$GPGSV,3,3,09,23,00,000,37*45
$BDGSV,3,1,12,01,39,126,41,03,56,171,42,04,23,109,41,05,28,246,37*60
$BDGSV,3,2,12,07,35,173,41,10,55,204,42,12,52,341,42,19,30,055,42*63
$BDGSV,3,3,12,21,22,183,40,22,52,125,44,25,07,312,38,02,48,220,00*62
$B3CN0,0,0,0,0,0,0,0,0,0,0,0,0,0,0*4C
$ini_pos,lastpos_good = 1,ini_pos.x:-1578919.418434,ini_pos.y:5312776.243034,ini_pos.z:3146363.793105
$rtc_local_time,localRTC.weeks:2055,localRTC.seconds:206467.087670,localGtime.weeks:2055,localGtime.seconds:206468.000000
$pseudo_cd_ph,prn:2,pseudo_cd_ph:206467924.620763689280
measnum = 0,full_prange = 22530960.801464
$oldmeas,msRange:0.000000,x:12352397.010107,y:21457059.660688,z:10425193.677639,vx:-1066.486328,vy:-661.175049,vz:2772.802734,tb:-0.000223820445
$newmeas,x:12352477.161295,y:21457109.350942,z:10424985.286495,vx:-1066.464966,vy:-661.162109,vz:2772.818848,tb:-0.000223820445
$pseudo_cd_ph,prn:5,pseudo_cd_ph:206467917.704907059669
measnum = 1,full_prange = 24671621.402963
$oldmeas,msRange:82.299762,x:4318699.611278,y:22251158.867136,z:-13796422.601380,vx:-693.551819,vy:1619.064697,vz:2435.467285,tb:0.000000798092
$newmeas,x:4318756.688156,y:22251025.624258,z:-13796623.028787,vx:-693.565552,vy:1619.085693,vz:2435.442871,tb:0.000000798092
$pseudo_cd_ph,prn:6,pseudo_cd_ph:206467931.019369453192
measnum = 2,full_prange = 20737860.862425
$oldmeas,msRange:69.178398,x:61328.637651,y:18621284.873006,z:18967417.017804,vx:-1745.485107,vy:-1646.867188,vz:1629.498901,tb:0.000193647731
$newmeas,x:61449.379362,y:18621398.793391,z:18967304.297786,vx:-1745.468384,vy:-1646.864258,vz:1629.526733,tb:0.000193647732
$pseudo_cd_ph,prn:9,pseudo_cd_ph:206467919.059519439936
measnum = 3,full_prange = 24386065.662592
$oldmeas,msRange:81.347378,x:-25094343.789890,y:8349266.746354,z:-2558709.097259,vx:-386.633636,vy:-215.873764,vz:3133.829834,tb:0.000402899050
$newmeas,x:-25094312.338670,y:8349284.305955,z:-2558964.012691,vx:-386.663574,vy:-215.867538,vz:3133.825439,tb:0.000402899051
$pseudo_cd_ph,prn:12,pseudo_cd_ph:206467920.809505194426
measnum = 4,full_prange = 23812126.875617
$oldmeas,msRange:79.432896,x:13022307.008466,y:6888015.554518,z:21892005.780068,vx:-984.169861,vy:2647.782715,vz:-228.719910,tb:0.000238431083
$newmeas,x:13022385.180348,y:6887805.244663,z:21892023.945496,vx:-984.183594,vy:2647.780273,vz:-228.682190,tb:0.000238431084
$pseudo_cd_ph,prn:17,pseudo_cd_ph:206467929.117852509022
measnum = 5,full_prange = 21268495.207734
$oldmeas,msRange:70.948404,x:-15109956.027805,y:14250267.592367,z:16909980.222759,vx:-2056.851807,vy:252.542221,vz:-2109.866943,tb:0.000062136440
$newmeas,x:-15109810.105695,y:14250249.676197,z:16910129.904409,vx:-2056.871094,vy:252.536545,vz:-2109.842041,tb:0.000062136439
$pseudo_cd_ph,prn:19,pseudo_cd_ph:206467930.963383585215
measnum = 6,full_prange = 20602573.558156
$oldmeas,msRange:68.727088,x:-8134108.351656,y:14772930.563101,z:20235961.090238,vx:-2616.688721,vy:277.856750,vz:-1229.025513,tb:-0.000313608009
$newmeas,x:-8133928.525103,y:14772911.468335,z:20236045.551255,vx:-2616.700684,vy:277.847290,vz:-1228.995117,tb:-0.000313608010
$pseudo_cd_ph,prn:28,pseudo_cd_ph:206467926.167598783970
measnum = 7,full_prange = 22364513.624525
$oldmeas,msRange:74.604469,x:-13006141.147966,y:22291213.448086,z:-5874900.110655,vx:106.368706,vy:-841.093811,vz:-3098.798096,tb:0.000767806630
$newmeas,x:-13006149.082826,y:22291276.192628,z:-5874668.940012,vx:106.362160,vy:-841.065735,vz:-3098.807373,tb:0.000767806630
$GNGGA,092050.000,2944.9089,N,10633.0944,E,1,19,0.6,334.7,M,,,,0000*1F
$GNRMC,092050.000,A,2944.9089,N,10633.0944,E,0.06,0.00,280519,,*1F
$GPGSA,A,3,02,05,06,09,12,17,19,28,,,,,0.8,0.6,0.5*36
$BDGSA,A,3,01,03,04,05,07,10,12,19,21,22,25,,0.8,0.6,0.5*22
$GLGSA,A,3,,,,,,,,,,,,,0.8,0.6,0.5*25
$GPGSV,3,1,09,02,37,272,42,05,09,205,40,06,63,325,46,09,13,114,36*75
$GPGSV,3,2,09,12,17,320,43,17,55,061,45,19,60,021,44,28,33,160,43*75
$GPGSV,3,3,09,23,00,000,36*44
$BDGSV,3,1,12,01,39,126,41,03,56,171,42,04,23,109,39,05,28,246,38*60
$BDGSV,3,2,12,07,35,173,42,10,55,204,42,12,52,341,43,19,30,055,42*61
$BDGSV,3,3,12,21,22,183,41,22,52,125,44,25,07,312,39,02,48,220,00*62
$B3CN0,0,0,0,0,0,0,0,0,0,0,0,0,0,0*4C
$ini_pos,lastpos_good = 1,ini_pos.x:-1578919.278984,ini_pos.y:5312776.648996,ini_pos.z:3146363.698131
$rtc_local_time,localRTC.weeks:2055,localRTC.seconds:206468.087670,localGtime.weeks:2055,localGtime.seconds:206469.000000
$pseudo_cd_ph,prn:2,pseudo_cd_ph:206468924.622243195772
measnum = 0,full_prange = 22530507.587837
$oldmeas,msRange:0.000000,x:12351330.381404,y:21456398.399925,z:10427966.373168,vx:-1066.771118,vy:-661.346558,vz:2772.588379,tb:-0.000223820451
$newmeas,x:12351410.552377,y:21456448.102069,z:10427758.002330,vx:-1066.749756,vy:-661.333618,vz:2772.604492,tb:-0.000223820450
$pseudo_cd_ph,prn:5,pseudo_cd_ph:206468917.708020657301
measnum = 1,full_prange = 24670678.302603
$oldmeas,msRange:82.297337,x:4318006.142947,y:22252777.804130,z:-13793986.987103,vx:-693.384888,vy:1618.809448,vz:2435.761475,tb:0.000000798091
$newmeas,x:4318063.203905,y:22252644.587352,z:-13794187.431073,vx:-693.398621,vy:1618.830444,vz:2435.737305,tb:0.000000798091
$pseudo_cd_ph,prn:6,pseudo_cd_ph:206468931.019897401333
measnum = 2,full_prange = 20737692.917390
$oldmeas,msRange:69.178558,x:59583.032030,y:18619637.985111,z:18969046.315382,vx:-1745.726196,vy:-1646.908691,vz:1629.096313,tb:0.000193647721
$newmeas,x:59703.789444,y:18619751.907449,z:18968933.624128,vx:-1745.709595,vy:-1646.905884,vz:1629.124146,tb:0.000193647722
$pseudo_cd_ph,prn:9,pseudo_cd_ph:206468919.061503708363
measnum = 3,full_prange = 24385461.124597
$oldmeas,msRange:81.346087,x:-25094730.239319,y:8349050.834263,z:-2555575.240430,vx:-386.265259,vy:-215.950439,vz:3133.884033,tb:0.000402899043
$newmeas,x:-25094698.818843,y:8349068.399665,z:-2555830.153964,vx:-386.295227,vy:-215.944199,vz:3133.879639,tb:0.000402899044
$pseudo_cd_ph,prn:12,pseudo_cd_ph:206468920.812218666077
measnum = 4,full_prange = 23811303.728429
$oldmeas,msRange:79.430867,x:13021322.925132,y:6890663.352494,z:21891776.822706,vx:-983.996887,vy:2647.813477,vz:-229.194824,tb:0.000238431077
$newmeas,x:13021401.080575,y:6890453.047469,z:21891795.025228,vx:-984.010620,vy:2647.811035,vz:-229.157104,tb:0.000238431078
$pseudo_cd_ph,prn:17,pseudo_cd_ph:206468929.118374258280
measnum = 5,full_prange = 21268329.126838
$oldmeas,msRange:70.948569,x:-15112012.744638,y:14250520.174638,z:16907870.180483,vx:-2056.582031,vy:252.622330,vz:-2110.217773,tb:0.000062136449
$newmeas,x:-15111866.842820,y:14250502.252925,z:16908019.885854,vx:-2056.601074,vy:252.616653,vz:-2110.192871,tb:0.000062136448
$pseudo_cd_ph,prn:19,pseudo_cd_ph:206468930.964268028736
measnum = 6,full_prange = 20602298.742087
$oldmeas,msRange:68.726890,x:-8136724.952926,y:14773208.488895,z:20234731.844148,vx:-2616.513916,vy:277.994843,vz:-1229.466797,tb:-0.000313608008
$newmeas,x:-8136545.140773,y:14773189.384896,z:20234816.334363,vx:-2616.526123,vy:277.985352,vz:-1229.436401,tb:-0.000313608008
$pseudo_cd_ph,prn:28,pseudo_cd_ph:206468926.166428327560
measnum = 7,full_prange = 22364854.850969
$oldmeas,msRange:74.606326,x:-13006034.735387,y:22290372.166191,z:-5877998.845371,vx:106.456451,vy:-841.470032,vz:-3098.671631,tb:0.000767806628
$newmeas,x:-13006042.676914,y:22290434.939755,z:-5877767.680627,vx:106.449905,vy:-841.441956,vz:-3098.681152,tb:0.000767806628
$GNGGA,092051.000,2944.9087,N,10633.0943,E,1,19,0.6,334.9,M,,,,0000*19
$GNRMC,092051.000,A,2944.9087,N,10633.0943,E,0.33,0.00,280519,,*11
$GPGSA,A,3,02,05,06,09,12,17,19,28,,,,,0.8,0.6,0.5*36
$BDGSA,A,3,01,03,04,05,07,10,12,19,21,22,25,,0.8,0.6,0.5*22
$GLGSA,A,3,,,,,,,,,,,,,0.8,0.6,0.5*25
$GPGSV,3,1,09,02,37,272,41,05,09,205,40,06,63,325,45,09,13,114,36*75
$GPGSV,3,2,09,12,17,320,42,17,55,061,45,19,60,021,44,28,33,160,43*74
$GPGSV,3,3,09,23,00,000,36*44
$BDGSV,3,1,12,01,39,126,41,02,48,220,39,03,56,171,43,04,23,109,41*6E
$BDGSV,3,2,12,05,28,246,39,07,35,173,42,10,55,204,42,12,52,341,43*69
$BDGSV,3,3,12,19,30,055,42,21,22,183,40,22,52,125,44,25,07,312,39*60
$B3CN0,0,0,0,0,0,0,0,0,0,0,0,0,0,0*4C
$ini_pos,lastpos_good = 1,ini_pos.x:-1578919.179805,ini_pos.y:5312777.008846,ini_pos.z:3146363.487913
$rtc_local_time,localRTC.weeks:2055,localRTC.seconds:206469.087670,localGtime.weeks:2055,localGtime.seconds:206470.000000
$pseudo_cd_ph,prn:2,pseudo_cd_ph:206469924.623716473579
measnum = 0,full_prange = 22530056.241523
$oldmeas,msRange:0.000000,x:12350263.467978,y:21455736.967680,z:10430738.854254,vx:-1067.055786,vy:-661.518005,vz:2772.374023,tb:-0.000223820456
$newmeas,x:12350343.658743,y:21455786.681713,z:10430530.503708,vx:-1067.034424,vy:-661.505127,vz:2772.390137,tb:-0.000223820456
$pseudo_cd_ph,prn:5,pseudo_cd_ph:206469917.711129426956
measnum = 1,full_prange = 24669736.649635
$oldmeas,msRange:82.294911,x:4317312.841548,y:22254396.485843,z:-13791551.078492,vx:-693.217957,vy:1618.554077,vz:2436.055908,tb:0.000000798091
$newmeas,x:4317369.886592,y:22254263.295158,z:-13791751.539029,vx:-693.231689,vy:1618.575073,vz:2436.031738,tb:0.000000798091
$pseudo_cd_ph,prn:6,pseudo_cd_ph:206469931.020415306091
measnum = 2,full_prange = 20737527.983286
$oldmeas,msRange:69.178719,x:57837.185272,y:18617991.055678,z:18970675.210321,vx:-1745.967407,vy:-1646.950195,vz:1628.693604,tb:0.000193647711
$newmeas,x:57957.958405,y:18618104.979981,z:18970562.547817,vx:-1745.950684,vy:-1646.947388,vz:1628.721558,tb:0.000193647711
$pseudo_cd_ph,prn:9,pseudo_cd_ph:206469919.063479363918
measnum = 3,full_prange = 24384859.168676
$oldmeas,msRange:81.344796,x:-25095116.320391,y:8348834.845474,z:-2552441.329281,vx:-385.896912,vy:-216.027161,vz:3133.938477,tb:0.000402899036
$newmeas,x:-25095084.930652,y:8348852.416683,z:-2552696.240938,vx:-385.926880,vy:-216.020920,vz:3133.934082,tb:0.000402899037
$pseudo_cd_ph,prn:12,pseudo_cd_ph:206469920.814926624298
measnum = 4,full_prange = 23810482.234125
$oldmeas,msRange:79.428838,x:13020339.014774,y:6893311.181163,z:21891547.390425,vx:-983.823914,vy:2647.843994,vz:-229.669754,tb:0.000238431072
$newmeas,x:13020417.153781,y:6893100.880958,z:21891565.630037,vx:-983.837646,vy:2647.841553,vz:-229.632034,tb:0.000238431072
$pseudo_cd_ph,prn:17,pseudo_cd_ph:206469929.118892848492
measnum = 5,full_prange = 21268163.993000
$oldmeas,msRange:70.948734,x:-15114069.191483,y:14250772.836990,z:16905759.787381,vx:-2056.312012,vy:252.702393,vz:-2110.568604,tb:0.000062136458
$newmeas,x:-15113923.309953,y:14250754.909737,z:16905909.516477,vx:-2056.331055,vy:252.696701,vz:-2110.543701,tb:0.000062136457
$pseudo_cd_ph,prn:19,pseudo_cd_ph:206469930.965147048235
measnum = 6,full_prange = 20602025.552099
$oldmeas,msRange:68.726693,x:-8139341.379517,y:14773486.552747,z:20233502.156798,vx:-2616.339355,vy:278.132874,vz:-1229.907959,tb:-0.000313608006
$newmeas,x:-8139161.581755,y:14773467.439515,z:20233586.676216,vx:-2616.351318,vy:278.123383,vz:-1229.877686,tb:-0.000313608006
$pseudo_cd_ph,prn:28,pseudo_cd_ph:206469926.165251374245
measnum = 7,full_prange = 22365198.025137
$oldmeas,msRange:74.608183,x:-13005928.235092,y:22289530.508107,z:-5881097.453698,vx:106.544136,vy:-841.846191,vz:-3098.545166,tb:0.000767806627
$newmeas,x:-13005936.183283,y:22289593.310698,z:-5880866.294839,vx:106.537598,vy:-841.818115,vz:-3098.554688,tb:0.000767806627
$GNGGA,092052.000,2944.9086,N,10633.0941,E,1,19,0.6,335.0,M,,,,0000*11
$GNRMC,092052.000,A,2944.9086,N,10633.0941,E,0.13,0.00,280519,,*13
$GPGSA,A,3,02,05,06,09,12,17,19,28,,,,,0.8,0.6,0.5*36
$BDGSA,A,3,01,03,04,05,07,10,12,19,21,22,25,,0.8,0.6,0.5*22
$GLGSA,A,3,,,,,,,,,,,,,0.8,0.6,0.5*25
$GPGSV,3,1,09,02,37,272,42,05,09,205,40,06,63,325,46,09,13,114,37*74
$GPGSV,3,2,09,12,17,320,43,17,55,061,45,19,60,021,43,28,33,160,42*73
$GPGSV,3,3,09,23,00,000,36*44
$BDGSV,3,1,12,01,39,126,41,02,48,220,38,03,56,171,42,04,23,109,40*6F
$BDGSV,3,2,12,05,28,246,37,07,35,173,41,08,58,002,43,10,55,204,42*61
$BDGSV,3,3,12,12,52,341,42,13,57,306,31,19,30,055,42,21,22,183,41*69
$B3CN0,20,0,0,0,0,0,0,0,0,0,0,0,0,0*7E
$ini_pos,lastpos_good = 1,ini_pos.x:-1578919.042910,ini_pos.y:5312777.300309,ini_pos.z:3146363.350271
$rtc_local_time,localRTC.weeks:2055,localRTC.seconds:206470.087670,localGtime.weeks:2055,localGtime.seconds:206471.000000
$pseudo_cd_ph,prn:2,pseudo_cd_ph:206470924.625191658735
measnum = 0,full_prange = 22529604.323401
$oldmeas,msRange:0.000000,x:12349196.269822,y:21455075.364008,z:10433511.120840,vx:-1067.340576,vy:-661.689392,vz:2772.159424,tb:-0.000223820461
$newmeas,x:12349276.480376,y:21455125.089925,z:10433302.790595,vx:-1067.319214,vy:-661.676514,vz:2772.175537,tb:-0.000223820461
$pseudo_cd_ph,prn:5,pseudo_cd_ph:206470917.714236438274
measnum = 1,full_prange = 24668795.523802
$oldmeas,msRange:82.292486,x:4316619.707056,y:22256014.912222,z:-13789114.875597,vx:-693.051086,vy:1618.298706,vz:2436.350098,tb:0.000000798090
$newmeas,x:4316676.736191,y:22255881.747630,z:-13789315.352701,vx:-693.064819,vy:1618.319702,vz:2436.325928,tb:0.000000798090
$pseudo_cd_ph,prn:6,pseudo_cd_ph:206470931.020938456059
measnum = 2,full_prange = 20737361.476708
$oldmeas,msRange:69.178880,x:56091.097399,y:18616344.084770,z:18972303.702588,vx:-1746.208496,vy:-1646.991699,vz:1628.291016,tb:0.000193647701
$newmeas,x:56211.886240,y:18616458.011025,z:18972191.068843,vx:-1746.191772,vy:-1646.988770,vz:1628.318848,tb:0.000193647701
$pseudo_cd_ph,prn:9,pseudo_cd_ph:206470919.065448433161
measnum = 3,full_prange = 24384259.187282
$oldmeas,msRange:81.343505,x:-25095502.033111,y:8348618.779937,z:-2549307.363878,vx:-385.528564,vy:-216.103928,vz:3133.992676,tb:0.000402899029
$newmeas,x:-25095470.674105,y:8348636.356958,z:-2549562.273674,vx:-385.558533,vy:-216.097687,vz:3133.988281,tb:0.000402899029
$pseudo_cd_ph,prn:12,pseudo_cd_ph:206470920.817636907101
measnum = 4,full_prange = 23809660.042929
$oldmeas,msRange:79.426809,x:13019355.277412,y:6895959.040455,z:21891317.483228,vx:-983.650879,vy:2647.874756,vz:-230.144653,tb:0.000238431066
$newmeas,x:13019433.399981,y:6895748.745082,z:21891335.759929,vx:-983.664612,vy:2647.872314,vz:-230.106949,tb:0.000238431066
$pseudo_cd_ph,prn:17,pseudo_cd_ph:206470929.119410634041
measnum = 5,full_prange = 21267999.100394
$oldmeas,msRange:70.948899,x:-15116125.368296,y:14251025.579379,z:16903649.043494,vx:-2056.041748,vy:252.782394,vz:-2110.919434,tb:0.000062136467
$newmeas,x:-15115979.507055,y:14251007.646588,z:16903798.796313,vx:-2056.061035,vy:252.776718,vz:-2110.894531,tb:0.000062136466
$pseudo_cd_ph,prn:19,pseudo_cd_ph:206470930.966026961803
measnum = 6,full_prange = 20601752.094075
$oldmeas,msRange:68.726495,x:-8141957.631368,y:14773764.754628,z:20232272.028217,vx:-2616.164551,vy:278.270905,vz:-1230.349243,tb:-0.000313608004
$newmeas,x:-8141777.848002,y:14773745.632165,z:20232356.576833,vx:-2616.176514,vy:278.261414,vz:-1230.318848,tb:-0.000313608004
$pseudo_cd_ph,prn:28,pseudo_cd_ph:206470926.164075553417
measnum = 7,full_prange = 22365540.859792
$oldmeas,msRange:74.610041,x:-13005821.647137,y:22288688.473829,z:-5884195.935569,vx:106.631775,vy:-842.222412,vz:-3098.418701,tb:0.000767806625
$newmeas,x:-13005829.601987,y:22288751.305449,z:-5883964.782602,vx:106.625237,vy:-842.194336,vz:-3098.428223,tb:0.000767806626
$GNGGA,092053.000,2944.9085,N,10633.0940,E,1,19,0.6,335.0,M,,,,0000*12
$GNRMC,092053.000,A,2944.9085,N,10633.0940,E,0.49,0.00,280519,,*1F
$GPGSA,A,3,02,05,06,09,12,17,19,28,,,,,0.8,0.6,0.5*36
$BDGSA,A,3,01,03,04,05,07,10,12,19,21,22,25,,0.8,0.6,0.5*22
$GLGSA,A,3,,,,,,,,,,,,,0.8,0.6,0.5*25
$GPGSV,3,1,09,02,37,272,41,05,09,205,40,06,63,325,45,09,13,114,38*7B
$GPGSV,3,2,09,12,17,320,43,17,55,061,45,19,60,021,43,28,33,160,43*72
$GPGSV,3,3,09,23,00,000,36*44
$BDGSV,3,1,12,01,39,126,41,02,48,220,40,03,56,171,43,04,23,109,40*61
$BDGSV,3,2,12,05,28,246,38,07,35,173,42,08,58,002,42,10,55,204,42*6C
$BDGSV,3,3,12,12,52,341,43,13,57,306,43,19,30,055,42,21,22,183,41*6D
$B3CN0,0,0,0,0,0,0,0,0,0,0,0,0,0,0*4C
$ini_pos,lastpos_good = 1,ini_pos.x:-1578918.927237,ini_pos.y:5312777.459755,ini_pos.z:3146363.174218
$rtc_local_time,localRTC.weeks:2055,localRTC.seconds:206471.087670,localGtime.weeks:2055,localGtime.seconds:206472.000000
$pseudo_cd_ph,prn:2,pseudo_cd_ph:206471924.626664459705
measnum = 0,full_prange = 22529153.120040
$oldmeas,msRange:0.000000,x:12348128.786928,y:21454413.588964,z:10436283.172872,vx:-1067.625244,vy:-661.860718,vz:2771.944824,tb:-0.000223820467
$newmeas,x:12348209.017275,y:21454463.326762,z:10436074.862925,vx:-1067.603882,vy:-661.847839,vz:2771.960938,tb:-0.000223820466
$pseudo_cd_ph,prn:5,pseudo_cd_ph:206471917.717342078686
measnum = 1,full_prange = 24667854.808957
$oldmeas,msRange:82.290062,x:4315926.739444,y:22257633.083215,z:-13786678.378471,vx:-692.884216,vy:1618.043335,vz:2436.644287,tb:0.000000798090
$newmeas,x:4315983.752673,y:22257499.944718,z:-13786878.872138,vx:-692.897949,vy:1618.064331,vz:2436.620117,tb:0.000000798090
$pseudo_cd_ph,prn:6,pseudo_cd_ph:206471931.021461486816
measnum = 2,full_prange = 20737195.005868
$oldmeas,msRange:69.179042,x:54344.768432,y:18614697.072448,z:18973931.792147,vx:-1746.449585,vy:-1647.033081,vz:1627.888306,tb:0.000193647691
$newmeas,x:54465.572979,y:18614811.000651,z:18973819.187163,vx:-1746.432861,vy:-1647.030151,vz:1627.916138,tb:0.000193647691
$pseudo_cd_ph,prn:9,pseudo_cd_ph:206471919.067419677973
measnum = 3,full_prange = 24383658.553669
$oldmeas,msRange:81.342214,x:-25095887.377482,y:8348402.637602,z:-2546173.344289,vx:-385.160217,vy:-216.180756,vz:3134.046875,tb:0.000402899022
$newmeas,x:-25095856.049208,y:8348420.220438,z:-2546428.252210,vx:-385.190186,vy:-216.174515,vz:3134.042480,tb:0.000402899022
$pseudo_cd_ph,prn:12,pseudo_cd_ph:206471920.820347040892
measnum = 4,full_prange = 23808837.896406
$oldmeas,msRange:79.424781,x:13018371.713068,y:6898606.930303,z:21891087.101123,vx:-983.477844,vy:2647.905273,vz:-230.619568,tb:0.000238431060
$newmeas,x:13018449.819197,y:6898396.639767,z:21891105.414909,vx:-983.491577,vy:2647.902832,vz:-230.581848,tb:0.000238431061
$pseudo_cd_ph,prn:17,pseudo_cd_ph:206471929.119927138090
measnum = 5,full_prange = 21267834.591972
$oldmeas,msRange:70.949064,x:-15118181.275032,y:14251278.401759,z:16901537.948865,vx:-2055.771729,vy:252.862366,vz:-2111.270020,tb:0.000062136476
$newmeas,x:-15118035.434080,y:14251260.463433,z:16901687.725407,vx:-2055.791016,vy:252.856705,vz:-2111.245117,tb:0.000062136475
$pseudo_cd_ph,prn:19,pseudo_cd_ph:206471930.966905832291
measnum = 6,full_prange = 20601478.948759
$oldmeas,msRange:68.726298,x:-8144573.708414,y:14774043.094507,z:20231041.458433,vx:-2615.989746,vy:278.408875,vz:-1230.790405,tb:-0.000313608002
$newmeas,x:-8144393.939447,y:14774023.962815,z:20231126.036246,vx:-2616.001709,vy:278.399384,vz:-1230.760132,tb:-0.000313608002
$pseudo_cd_ph,prn:28,pseudo_cd_ph:206471926.162898719311
measnum = 7,full_prange = 22365883.998221
$oldmeas,msRange:74.611900,x:-13005714.971575,y:22287846.063355,z:-5887294.290915,vx:106.719353,vy:-842.598572,vz:-3098.292236,tb:0.000767806624
$newmeas,x:-13005722.933082,y:22287908.924005,z:-5887063.143844,vx:106.712822,vy:-842.570557,vz:-3098.301514,tb:0.000767806624
