SD initialized success
Create debug.log Failed! 3
bbram_blkflag = 1
rtcflag = 0
BBRAM Block OK: 01 EPHflag: 4640a1c0 8940876f, rtc 00
Hot-start nowtime:day = 16,minute = 52,seconds = 53.00
GPS 0 Init Dop: 10000,80
GPS 1 Init Dop: 10000,80
GPS 2 Init Dop: 10000,80
GPS 3 Init Dop: 10000,80
GPS 4 Init Dop: 10000,80
GPS 5 Init Dop: 10000,80
GPS 6 Init Dop: -3481, 2
GPS 7 Init Dop: -4245, 2
GPS 8 Init Dop: -3729, 2
GPS 9 Init Dop: 10000,80
GPS10 Init Dop: 10000,80
GPS11 Init Dop: 10000,80
GPS12 Init Dop: 10000,80
GPS13 Init Dop:  2757, 2
GPS14 Init Dop: 10000,80
GPS15 Init Dop:   601, 2
GPS16 Init Dop: 10000,80
GPS17 Init Dop: 10000,80
GPS18 Init Dop: 10000,80
GPS19 Init Dop: 10000,80
GPS20 Init Dop: 10000,80
GPS21 Init Dop: 10000,80
GPS22 Init Dop: -2124, 2
GPS23 Init Dop: 10000,80
GPS24 Init Dop: 10000,80
GPS25 Init Dop:  1494, 2
GPS26 Init Dop: -2624, 2
GPS27 Init Dop: 10000,80
GPS28 Init Dop: 10000,80
GPS29 Init Dop: 10000,80
GPS30 Init Dop:  1180, 2
GPS31 Init Dop: 10000,80
BDS 0 Init Dop:  -928, 2
BDS 1 Init Dop:  -896, 2
BDS 2 Init Dop:  -929, 2
BDS 3 Init Dop:  -919, 2
BDS 4 Init Dop: 10000,80
BDS 5 Init Dop:   351, 2
BDS 6 Init Dop:  -658, 2
BDS 7 Init Dop: 10000,80
BDS 8 Init Dop:  -176, 2
BDS 9 Init Dop:  -767, 2
BDS10 Init Dop:  -250, 2
BDS11 Init Dop: 10000,80
BDS12 Init Dop: 10000,80
BDS13 Init Dop: 10000,80
BDS14 Init Dop: 10000,80
BDS15 Init Dop:   379, 2
BDS16 Init Dop: 10000,80
BDS17 Init Dop: 10000,80
BDS18 Init Dop: 10000,80
BDS19 Init Dop: 10000,80
BDS20 Init Dop: 10000,80
BDS21 Init Dop: 10000,80
BDS22 Init Dop:  -964, 2
BDS23 Init Dop: 10000,80
BDS24 Init Dop:   623, 2
BDS25 Init Dop: 10000,80
BDS26 Init Dop: 10000,80
BDS27 Init Dop: -3855, 2
BDS28 Init Dop: 10000,80
BDS29 Init Dop: 10000,80
BDS30 Init Dop: 10000,80
BDS31 Init Dop:   815, 2
Good luck!
$ini_pos,lastpos_good = 1,ini_pos.x:-1578916.000000,ini_pos.y:5312772.000000,ini_pos.z:3146356.000000
$rtc_local_time,localRTC.weeks:2053,localRTC.seconds:352392.026007,localGtime.weeks:0,localGtime.seconds:19.026010
source<tow,snapshot
$GNGGA,000000.000,,,,,0,00,,,M,,,,0000*2B
$GNRMC,000000.000,A,,,,,,,000000,,*26
$GPGSA,A,1,,,,,,,,,,,,,,,*1E
$BDGSA,A,1,,,,,,,,,,,,,,,*0F
$GLGSA,A,1,,,,,,,,,,,,,,,*02
$B3CN0,0,0,0,0,0,0,0,0,0,0,0,0,0,0*4C
$ini_pos,lastpos_good = 1,ini_pos.x:-1578916.000000,ini_pos.y:5312772.000000,ini_pos.z:3146356.000000
$rtc_local_time,localRTC.weeks:2053,localRTC.seconds:352393.026007,localGtime.weeks:2053,localGtime.seconds:352393.026007
source<tow,snapshot
$GNGGA,000000.000,,,,,0,00,,,M,,,,0000*2B
$GNRMC,000000.000,A,,,,,,,000000,,*26
$GPGSA,A,1,,,,,,,,,,,,,,,*1E
$BDGSA,A,1,,,,,,,,,,,,,,,*0F
$GLGSA,A,1,,,,,,,,,,,,,,,*02
$B3CN0,0,0,0,0,0,0,0,0,0,0,0,0,0,0*4C
$ini_pos,lastpos_good = 1,ini_pos.x:-1578916.000000,ini_pos.y:5312772.000000,ini_pos.z:3146356.000000
$rtc_local_time,localRTC.weeks:2053,localRTC.seconds:352394.026007,localGtime.weeks:2053,localGtime.seconds:352394.026007
$pseudo_cd_ph,prn:7,pseudo_cd_ph:16.185213001359
measnum = 0,full_prange = 25121542.588566
$oldmeas,msRange:0.000000,x:20085988.932864,y:8372226.293616,z:15804781.837636,vx:-1898.629028,vy:444.025208,vz:2166.881348,tb:-0.000025020270
$newmeas,x:20086148.030389,y:8372189.086408,z:15804600.259551,vx:-1898.609009,vy:444.012665,vz:2166.908447,tb:-0.000025020270
$pseudo_cd_ph,prn:8,pseudo_cd_ph:5.988898574665
measnum = 1,full_prange = 22146881.700941
$oldmeas,msRange:74.395584,x:-4606403.805095,y:25241757.517249,z:-6398484.272452,vx:-525.252869,vy:681.153076,vz:3069.757568,tb:-0.000143735399
$newmeas,x:-4606365.002065,y:25241707.196807,z:-6398711.047493,vx:-525.265747,vy:681.177673,vz:3069.747559,tb:-0.000143735399
$pseudo_cd_ph,prn:9,pseudo_cd_ph:4.113716647539
measnum = 2,full_prange = 22875219.926847
$oldmeas,msRange:76.824838,x:11768620.121384,y:11211104.852076,z:20964952.161864,vx:-992.615967,vy:2484.346924,vz:-770.903503,tb:0.000410557501
$newmeas,x:11768695.861984,y:11210915.287550,z:20965010.983212,vx:-992.629211,vy:2484.349609,vz:-770.869324,tb:0.000410557501
source<tow,snapshot
$GNGGA,000000.000,,,,,0,00,,,M,,,,0000*2B
$GNRMC,000000.000,A,,,,,,,000000,,*26
$GPGSA,A,1,,,,,,,,,,,,,,,*1E
$BDGSA,A,1,,,,,,,,,,,,,,,*0F
$GLGSA,A,1,,,,,,,,,,,,,,,*02
$B3CN0,0,0,0,0,0,0,0,0,0,0,0,0,0,0*4C
$ini_pos,lastpos_good = 1,ini_pos.x:-1578916.000000,ini_pos.y:5312772.000000,ini_pos.z:3146356.000000
$rtc_local_time,localRTC.weeks:2053,localRTC.seconds:352395.026007,localGtime.weeks:2053,localGtime.seconds:352395.026007
$pseudo_cd_ph,prn:7,pseudo_cd_ph:16.187533724460
measnum = 0,full_prange = 25120837.172138
$oldmeas,msRange:0.000000,x:20084090.183895,y:8372670.393763,z:15806948.556872,vx:-1898.869019,vy:444.175110,vz:2166.557373,tb:-0.000025020274
$newmeas,x:20084249.297058,y:8372633.175039,z:15806767.011026,vx:-1898.848877,vy:444.162537,vz:2166.584473,tb:-0.000025020273
$pseudo_cd_ph,prn:8,pseudo_cd_ph:5.991708958720
measnum = 1,full_prange = 22146029.490646
$oldmeas,msRange:74.393470,x:-4606928.970887,y:25242438.503655,z:-6395414.445928,vx:-525.078735,vy:680.819763,vz:3069.895508,tb:-0.000143735402
$newmeas,x:-4606890.182213,y:25242388.209769,z:-6395641.222431,vx:-525.091614,vy:680.844421,vz:3069.885498,tb:-0.000143735402
$pseudo_cd_ph,prn:9,pseudo_cd_ph:4.116174058364
measnum = 2,full_prange = 22874473.535521
$oldmeas,msRange:76.823052,x:11767627.592268,y:11213589.181537,z:20964181.034568,vx:-992.442322,vy:2484.312012,vz:-771.351135,tb:0.000410557493
$newmeas,x:11767703.317145,y:11213399.625866,z:20964239.888152,vx:-992.455566,vy:2484.314697,vz:-771.316956,tb:0.000410557494
$pseudo_cd_ph,prn:14,pseudo_cd_ph:17.697503411525
measnum = 3,full_prange = 24651589.247055
$oldmeas,msRange:82.747086,x:-17405539.369510,y:14084786.053796,z:-13822895.221867,vx:564.749695,vy:-1743.297852,vz:-2449.500000,tb:-0.000080293217
$newmeas,x:-17405585.808115,y:14084929.402108,z:-13822693.801266,vx:564.746948,vy:-1743.271851,vz:-2449.524902,tb:-0.000080293217
$pseudo_cd_ph,prn:16,pseudo_cd_ph:11.905550691040
measnum = 4,full_prange = 20404085.951223
$oldmeas,msRange:68.580238,x:-6179270.489805,y:15274799.776642,z:20533183.674007,vx:-1571.835205,vy:-2143.393311,vz:1153.345215,tb:-0.000040391824
$newmeas,x:-6179163.510079,y:15274945.657449,z:20533105.175481,vx:-1571.820923,vy:-2143.391846,vz:1153.375732,tb:-0.000040391824
$pseudo_cd_ph,prn:23,pseudo_cd_ph:10.575093415709
measnum = 5,full_prange = 20759297.767712
$oldmeas,msRange:69.766650,x:4103586.175886,y:21343002.022419,z:15320062.230223,vx:-887.380737,vy:1707.810547,vz:-2229.896240,tb:-0.000185990072
$newmeas,x:4103647.623506,y:21342883.763614,z:15320216.639874,vx:-887.393494,vy:1707.825073,vz:-2229.873779,tb:-0.000185990072
$pseudo_cd_ph,prn:26,pseudo_cd_ph:6.692950385757
measnum = 6,full_prange = 22039566.295788
$oldmeas,msRange:74.035098,x:-14106783.617123,y:6969846.312154,z:21392797.593153,vx:-1740.440186,vy:-2094.468018,vz:-447.315430,tb:0.000202383039
$newmeas,x:-14106655.667004,y:6970000.289620,z:21392830.476800,vx:-1740.434204,vy:-2094.478516,vz:-447.281952,tb:0.000202383038
$pseudo_cd_ph,prn:27,pseudo_cd_ph:11.638237357489
measnum = 7,full_prange = 20456497.207491
$oldmeas,msRange:68.756928,x:-12069358.019488,y:22994778.951469,z:4624666.774595,vx:-15.727611,vy:-652.844055,vz:3162.372314,tb:-0.000132880053
$newmeas,x:-12069356.946067,y:22994823.497756,z:4624450.988206,vx:-15.734621,vy:-652.818481,vz:3162.379150,tb:-0.000132880052
source<tow,snapshot
nits = 4
$GNGGA,015258.016,2944.9137,N,10633.0993,E,1,08,0.0,337.5,M,,,,0000*14
$GNRMC,015258.016,A,2944.9137,N,10633.0993,E,0.00,0.00,160519,,*18
$GPGSA,A,3,07,08,09,14,16,23,26,27,,,,,0.0,0.0,0.0*36
$BDGSA,A,3,,,,,,,,,,,,,0.0,0.0,0.0*23
$GLGSA,A,3,,,,,,,,,,,,,0.0,0.0,0.0*2E
$GPGSV,2,1,05,07,00,000,35,08,00,000,36,09,00,000,36,14,00,000,28*70
$GPGSV,2,2,05,16,00,000,27*4E
$B3CN0,0,0,0,0,0,0,0,0,0,0,0,0,0,0*4C
$ini_pos,lastpos_good = 1,ini_pos.x:-1578926.326936,ini_pos.y:5312772.450761,ini_pos.z:3146372.786868
$rtc_local_time,localRTC.weeks:2053,localRTC.seconds:352396.026007,localGtime.weeks:2053,localGtime.seconds:352396.026007
$pseudo_cd_ph,prn:7,pseudo_cd_ph:16.189855372335
measnum = 0,full_prange = 25120131.487676
$oldmeas,msRange:0.000000,x:20082191.195015,y:8373114.643825,z:15809114.952192,vx:-1899.108887,vy:444.325043,vz:2166.233398,tb:-0.000025020277
$newmeas,x:20082350.323809,y:8373077.413583,z:15808933.438589,vx:-1899.088745,vy:444.312469,vz:2166.260498,tb:-0.000025020277
$pseudo_cd_ph,prn:8,pseudo_cd_ph:5.994520737395
measnum = 1,full_prange = 22145176.869364
$oldmeas,msRange:74.391374,x:-4607453.962581,y:25243119.156746,z:-6392344.481516,vx:-524.904663,vy:680.486450,vz:3070.033447,tb:-0.000143735405
$newmeas,x:-4607415.188260,y:25243068.889420,z:-6392571.259472,vx:-524.917542,vy:680.511047,vz:3070.023193,tb:-0.000143735405
$pseudo_cd_ph,prn:9,pseudo_cd_ph:4.118641335943
measnum = 2,full_prange = 22873724.195807
$oldmeas,msRange:76.821243,x:11766635.236829,y:11216073.475982,z:20963409.459647,vx:-992.268616,vy:2484.277100,vz:-771.798767,tb:0.000410557486
$newmeas,x:11766710.945974,y:11215883.929194,z:20963468.345456,vx:-992.281860,vy:2484.279785,vz:-771.764587,tb:0.000410557486
$pseudo_cd_ph,prn:14,pseudo_cd_ph:17.695893594363
measnum = 3,full_prange = 24652062.186023
$oldmeas,msRange:82.749433,x:-17404974.602831,y:14083042.598207,z:-13825344.570655,vx:564.783691,vy:-1743.613403,vz:-2449.197510,tb:-0.000080293219
$newmeas,x:-17405021.045119,y:14083185.975219,z:-13825143.171063,vx:564.780884,vy:-1743.587524,vz:-2449.222412,tb:-0.000080293219
$pseudo_cd_ph,prn:16,pseudo_cd_ph:11.905291351289
measnum = 4,full_prange = 20404154.030433
$oldmeas,msRange:68.581145,x:-6180842.430231,y:15272656.371818,z:20534336.794913,vx:-1572.045776,vy:-2143.416504,vz:1152.896729,tb:-0.000040391830
$newmeas,x:-6180735.435822,y:15272802.254684,z:20534258.326652,vx:-1572.031372,vy:-2143.414795,vz:1152.927246,tb:-0.000040391830
$pseudo_cd_ph,prn:23,pseudo_cd_ph:10.576555291229
measnum = 5,full_prange = 20758849.827639
$oldmeas,msRange:69.765859,x:4102698.887124,y:21344709.728103,z:15317832.171540,vx:-887.196838,vy:1707.600952,vz:-2230.221191,tb:-0.000185990070
$newmeas,x:4102760.320685,y:21344591.486361,z:15317986.600350,vx:-887.209595,vy:1707.615479,vz:-2230.198730,tb:-0.000185990070
$pseudo_cd_ph,prn:26,pseudo_cd_ph:6.692132795078
measnum = 6,full_prange = 22039801.740920
$oldmeas,msRange:74.036561,x:-14108524.097345,y:6967751.915468,z:21392350.050081,vx:-1740.520386,vy:-2094.325439,vz:-447.770721,tb:0.000202383048
$newmeas,x:-14108396.139957,y:6967905.884095,z:21392382.967551,vx:-1740.514526,vy:-2094.335938,vz:-447.737274,tb:0.000202383048
$pseudo_cd_ph,prn:27,pseudo_cd_ph:11.640008436037
measnum = 7,full_prange = 20455956.576682
$oldmeas,msRange:68.755820,x:-12069373.695740,y:22994125.920022,z:4627829.096632,vx:-15.624904,vy:-653.218872,vz:3162.271973,tb:-0.000132880064
$newmeas,x:-12069372.629356,y:22994170.490709,z:4627613.322803,vx:-15.631910,vy:-653.193298,vz:3162.278809,tb:-0.000132880064
$pseudo_cd_ph,prn:31,pseudo_cd_ph:0.955870276905
measnum = 8,full_prange = 23710182.714617
$oldmeas,msRange:79.608594,x:-25272776.929596,y:7095737.340362,z:5385241.892890,vx:-700.712891,vy:-148.189880,vz:-3048.723877,tb:0.000037911729
$newmeas,x:-25272721.510003,y:7095749.060478,z:5385483.012025,vx:-700.742004,vy:-148.189316,vz:-3048.715088,tb:0.000037911729
source<tow,snapshot
nits = 3
Refix G07: 2, 352396.930966, -2567
Refix G08: 2, 352396.940771, -3329
Refix G09: 2, 352396.938895, -2812
Refix G14: 2, 352396.932472, 3672
Refix G16: 2, 352396.946681, 1516
Refix G23: 2, 352396.945353, -1207
Refix G26: 2, 352396.941468, 2408
Refix G27: 2, 352396.946416, -1707
Refix G31: 2, 352396.935732, 2094
$GNGGA,015259.015,2944.9145,N,10633.1049,E,1,09,0.0,329.6,M,,,,0000*11
$GNRMC,015259.015,A,2944.9145,N,10633.1049,E,0.00,0.00,160519,,*10
$GPGSA,A,3,07,08,09,14,16,23,26,27,31,,,,0.0,0.0,0.0*34
$BDGSA,A,3,,,,,,,,,,,,,0.0,0.0,0.0*23
$GLGSA,A,3,,,,,,,,,,,,,0.0,0.0,0.0*2E
$GPGSV,3,1,09,07,00,000,40,08,00,000,42,09,00,000,43,14,00,000,37*70
$GPGSV,3,2,09,16,00,000,44,23,00,000,39,26,00,000,33,27,00,000,34*7B
$GPGSV,3,3,09,31,00,000,29*49
$BDGSV,2,1,07,01,00,000,36,02,00,000,38,03,00,000,41,04,00,000,41*66
$BDGSV,2,2,07,05,00,000,36,06,00,000,23,07,00,000,23*5E
$B3CN0,0,0,0,0,0,0,0,0,0,0,0,0,0,0*4C
$ini_pos,lastpos_good = 1,ini_pos.x:-1578932.710512,ini_pos.y:5312762.668292,ini_pos.z:3146370.109939
$rtc_local_time,localRTC.weeks:2053,localRTC.seconds:352397.026007,localGtime.weeks:2053,localGtime.seconds:352397.026007
$pseudo_cd_ph,prn:7,pseudo_cd_ph:16.192187065952
measnum = 0,full_prange = 25119422.801217
$oldmeas,msRange:0.000000,x:20080291.966276,y:8373559.043830,z:15811281.023551,vx:-1899.348755,vy:444.475006,vz:2165.909424,tb:-0.000025020280
$newmeas,x:20080451.110676,y:8373521.802074,z:15811099.542215,vx:-1899.328613,vy:444.462433,vz:2165.936523,tb:-0.000025020280
$pseudo_cd_ph,prn:8,pseudo_cd_ph:5.997337542671
measnum = 1,full_prange = 22144322.747084
$oldmeas,msRange:74.389283,x:-4607978.780217,y:25243799.476486,z:-6389274.379285,vx:-524.730652,vy:680.153076,vz:3070.171143,tb:-0.000143735408
$newmeas,x:-4607940.020246,y:25243749.235723,z:-6389501.158671,vx:-524.743469,vy:680.177673,vz:3070.161133,tb:-0.000143735408
$pseudo_cd_ph,prn:9,pseudo_cd_ph:4.121119792860
measnum = 2,full_prange = 22872971.496716
$oldmeas,msRange:76.819485,x:11765643.055078,y:11218557.735344,z:20962637.437118,vx:-992.094910,vy:2484.241943,vz:-772.246338,tb:0.000410557478
$newmeas,x:11765718.748479,y:11218368.197473,z:20962696.355139,vx:-992.108215,vy:2484.244629,vz:-772.212219,tb:0.000410557479
$pseudo_cd_ph,prn:14,pseudo_cd_ph:17.694280928298
measnum = 3,full_prange = 24652535.982704
$oldmeas,msRange:82.751756,x:-17404409.802235,y:14081298.827047,z:-13827793.616929,vx:564.817566,vy:-1743.928955,vz:-2448.895020,tb:-0.000080293220
$newmeas,x:-17404456.248202,y:14081442.232764,z:-13827592.238345,vx:564.814758,vy:-1743.903076,vz:-2448.919922,tb:-0.000080293220
$pseudo_cd_ph,prn:16,pseudo_cd_ph:11.905035248250
measnum = 4,full_prange = 20404221.144715
$oldmeas,msRange:68.582126,x:-6182414.581141,y:15270512.943932,z:20535489.467271,vx:-1572.256226,vy:-2143.439453,vz:1152.448120,tb:-0.000040391836
$newmeas,x:-6182307.572055,y:15270658.828846,z:20535411.029282,vx:-1572.241821,vy:-2143.437988,vz:1152.478638,tb:-0.000040391836
$pseudo_cd_ph,prn:23,pseudo_cd_ph:10.578023513391
measnum = 5,full_prange = 20758400.011318
$oldmeas,msRange:69.765128,x:4101811.782239,y:21346417.224186,z:15315601.788068,vx:-887.013000,vy:1707.391357,vz:-2230.545898,tb:-0.000185990068
$newmeas,x:4101873.201738,y:21346298.999522,z:15315756.236020,vx:-887.025696,vy:1707.405884,vz:-2230.523438,tb:-0.000185990068
$pseudo_cd_ph,prn:26,pseudo_cd_ph:6.691313705370
measnum = 6,full_prange = 22040037.632777
$oldmeas,msRange:74.038087,x:-14110264.657819,y:6965657.661413,z:21391902.051718,vx:-1740.600586,vy:-2094.182861,vz:-448.226013,tb:0.000202383058
$newmeas,x:-14110136.693164,y:6965811.621200,z:21391935.003012,vx:-1740.594727,vy:-2094.193359,vz:-448.192535,tb:0.000202383057
$pseudo_cd_ph,prn:27,pseudo_cd_ph:11.641787434836
measnum = 7,full_prange = 20455413.587162
$oldmeas,msRange:68.754754,x:-12069389.269312,y:22993472.513731,z:4630991.318141,vx:-15.522250,vy:-653.593750,vz:3162.171387,tb:-0.000132880076
$newmeas,x:-12069388.209961,y:22993517.108811,z:4630775.556901,vx:-15.529253,vy:-653.568176,vz:3162.178223,tb:-0.000132880075
$pseudo_cd_ph,prn:31,pseudo_cd_ph:0.955242697678
measnum = 8,full_prange = 23710361.190519
$oldmeas,msRange:79.609905,x:-25273477.458696,y:7095589.146948,z:5382193.113229,vx:-700.345337,vy:-148.196976,vz:-3048.835449,tb:0.000037911730
$newmeas,x:-25273422.067758,y:7095600.867713,z:5382434.243001,vx:-700.374390,vy:-148.196411,vz:-3048.826660,tb:0.000037911730
source<tow,snapshot
nits = 3
Refix G07: 2, 352397.925122, -2567
Refix G08: 2, 352397.934927, -3329
Refix G09: 2, 352397.933050, -2812
Refix G14: 2, 352397.926624, 3672
Refix G16: 2, 352397.940834, 1516
Refix G23: 2, 352397.939507, -1207
Refix G26: 2, 352397.935621, 2408
Refix G27: 2, 352397.940571, -1707
Refix G31: 2, 352397.929885, 2094
$GNGGA,015300.009,2944.9135,N,10633.1031,E,1,09,0.0,329.0,M,,,,0000*1F
$GNRMC,015300.009,A,2944.9135,N,10633.1031,E,0.00,0.00,160519,,*18
$GPGSA,A,3,07,08,09,14,16,23,26,27,31,,,,0.0,0.0,0.0*34
$BDGSA,A,3,,,,,,,,,,,,,0.0,0.0,0.0*23
$GLGSA,A,3,,,,,,,,,,,,,0.0,0.0,0.0*2E
$GPGSV,3,1,09,07,07,300,40,08,34,188,42,09,27,315,43,14,06,149,38*75
$GPGSV,3,2,09,16,61,009,44,23,59,290,44,26,37,041,42,27,61,149,44*73
$GPGSV,3,3,09,31,20,095,42*4A
$BDGSV,3,1,12,01,40,125,38,02,45,218,39,03,54,172,41,04,23,109,40*69
$BDGSV,3,2,12,05,00,000,35,06,41,170,41,07,65,009,43,09,67,205,44*6C
$BDGSV,3,3,12,10,62,301,43,11,35,066,42,16,47,176,27,23,58,010,00*67
$B3CN0,0,0,0,0,0,0,0,0,0,0,0,0,0,0*4C
$ini_pos,lastpos_good = 1,ini_pos.x:-1578930.092849,ini_pos.y:5312763.880313,ini_pos.z:3146368.193300
$rtc_local_time,localRTC.weeks:2053,localRTC.seconds:352398.026007,localGtime.weeks:2053,localGtime.seconds:352398.026007
$pseudo_cd_ph,prn:7,pseudo_cd_ph:16.194519766382
measnum = 0,full_prange = 25118713.810985
$oldmeas,msRange:0.000000,x:20078392.497727,y:8374003.593807,z:15813446.770905,vx:-1899.588501,vy:444.625000,vz:2165.585449,tb:-0.000025020284
$newmeas,x:20078551.657727,y:8373966.340535,z:15813265.321841,vx:-1899.568359,vy:444.612427,vz:2165.612549,tb:-0.000025020283
$pseudo_cd_ph,prn:8,pseudo_cd_ph:6.000160664757
measnum = 1,full_prange = 22143466.712818
$oldmeas,msRange:74.387164,x:-4608503.423835,y:25244479.462838,z:-6386204.139298,vx:-524.556641,vy:679.819641,vz:3070.308838,tb:-0.000143735411
$newmeas,x:-4608464.678214,y:25244429.248644,z:-6386430.920091,vx:-524.569519,vy:679.844299,vz:3070.298828,tb:-0.000143735410
$pseudo_cd_ph,prn:9,pseudo_cd_ph:4.123607870421
measnum = 2,full_prange = 22872215.920713
$oldmeas,msRange:76.817699,x:11764651.047024,y:11221041.959559,z:20961864.966997,vx:-991.921204,vy:2484.206787,vz:-772.693909,tb:0.000410557471
$newmeas,x:11764726.724673,y:11220852.430633,z:20961923.917219,vx:-991.934509,vy:2484.209473,vz:-772.659790,tb:0.000410557471
$pseudo_cd_ph,prn:14,pseudo_cd_ph:17.692667218131
measnum = 3,full_prange = 24653010.083158
$oldmeas,msRange:82.754086,x:-17403844.967777,y:14079554.740342,z:-13830242.360636,vx:564.851379,vy:-1744.244507,vz:-2448.592529,tb:-0.000080293222
$newmeas,x:-17403891.417420,y:14079698.174764,z:-13830041.003062,vx:564.848633,vy:-1744.218628,vz:-2448.617432,tb:-0.000080293222
$pseudo_cd_ph,prn:16,pseudo_cd_ph:11.904784746067
measnum = 4,full_prange = 20404286.579309
$oldmeas,msRange:68.583094,x:-6183986.942512,y:15268369.493051,z:20536641.691058,vx:-1572.466675,vy:-2143.462402,vz:1151.999512,tb:-0.000040391842
$newmeas,x:-6183879.918759,y:15268515.379996,z:20536563.283348,vx:-1572.452271,vy:-2143.460938,vz:1152.030029,tb:-0.000040391842
$pseudo_cd_ph,prn:23,pseudo_cd_ph:10.579496471297
measnum = 5,full_prange = 20757948.765476
$oldmeas,msRange:69.764360,x:4100924.861216,y:21348124.510614,z:15313371.079853,vx:-886.829102,vy:1707.181641,vz:-2230.870605,tb:-0.000185990066
$newmeas,x:4100986.266649,y:21348006.303038,z:15313525.546931,vx:-886.841858,vy:1707.196167,vz:-2230.848145,tb:-0.000185990066
$pseudo_cd_ph,prn:26,pseudo_cd_ph:6.690501238244
measnum = 6,full_prange = 22040271.541173
$oldmeas,msRange:74.039626,x:-14112005.298498,y:6963563.550033,z:21391453.598075,vx:-1740.680786,vy:-2094.040039,vz:-448.681305,tb:0.000202383068
$newmeas,x:-14111877.326590,y:6963717.500964,z:21391486.583190,vx:-1740.674927,vy:-2094.050537,vz:-448.647827,tb:0.000202383067
$pseudo_cd_ph,prn:27,pseudo_cd_ph:11.643573555895
measnum = 7,full_prange = 20454868.435490
$oldmeas,msRange:68.753671,x:-12069404.740258,y:22992818.732590,z:4634153.439053,vx:-15.419651,vy:-653.968567,vz:3162.070801,tb:-0.000132880088
$newmeas,x:-12069403.687935,y:22992863.352058,z:4633937.690429,vx:-15.426650,vy:-653.942993,vz:3162.077637,tb:-0.000132880087
$pseudo_cd_ph,prn:31,pseudo_cd_ph:0.954623031243
measnum = 8,full_prange = 23710537.289841
$oldmeas,msRange:79.611244,x:-25274177.620214,y:7095440.946411,z:5379144.222046,vx:-699.977722,vy:-148.204117,vz:-3048.947021,tb:0.000037911730
$newmeas,x:-25274122.257937,y:7095452.667829,z:5379385.362427,vx:-700.006836,vy:-148.203552,vz:-3048.938232,tb:0.000037911730
source<tow,snapshot
nits = 3
Refix G07: 2, 352398.921798, -2567
Refix G08: 2, 352398.931604, -3329
Refix G09: 2, 352398.929727, -2811
Refix G14: 2, 352398.923296, 3672
Refix G16: 2, 352398.937508, 1517
Refix G23: 2, 352398.936183, -1206
Refix G26: 2, 352398.932294, 2408
Refix G27: 2, 352398.937247, -1706
Refix G31: 2, 352398.926558, 2095
$GNGGA,015301.006,2944.9131,N,10633.1027,E,1,09,0.0,329.2,M,,,,0000*10
$GNRMC,015301.006,A,2944.9131,N,10633.1027,E,0.00,0.00,160519,,*15
$GPGSA,A,3,07,08,09,14,16,23,26,27,31,,,,0.0,0.0,0.0*34
$BDGSA,A,3,,,,,,,,,,,,,0.0,0.0,0.0*23
$GLGSA,A,3,,,,,,,,,,,,,0.0,0.0,0.0*2E
$GPGSV,3,1,09,07,07,300,40,08,34,188,42,09,27,315,43,14,06,149,37*7A
$GPGSV,3,2,09,16,61,009,44,23,59,290,44,26,37,041,42,27,61,149,44*73
$GPGSV,3,3,09,31,20,095,42*4A
$BDGSV,3,1,12,01,40,125,37,02,45,218,39,03,54,172,42,04,23,109,39*6B
$BDGSV,3,2,12,05,00,000,37,06,41,170,40,07,65,009,42,09,67,205,43*69
$BDGSV,3,3,12,10,62,301,42,11,35,066,42,16,47,176,42,23,58,010,27*60
$B3CN0,0,0,0,0,0,0,0,0,0,0,0,0,0,0*4C
tow update,352400111.904532
$ini_pos,lastpos_good = 1,ini_pos.x:-1578929.679405,ini_pos.y:5312764.626955,ini_pos.z:3146367.687030
$rtc_local_time,localRTC.weeks:2053,localRTC.seconds:352399.026007,localGtime.weeks:2053,localGtime.seconds:352400.111905
$pseudo_cd_ph,prn:7,pseudo_cd_ph:352399896.196854948997
measnum = 0,full_prange = 25387221.878367
$oldmeas,msRange:0.000000,x:20074429.628396,y:8374931.362531,z:15817963.256101,vx:-1900.088501,vy:444.937927,vz:2164.909424,tb:-0.000025020291
$newmeas,x:20074590.532080,y:8374893.684543,z:15817779.924661,vx:-1900.068237,vy:444.925232,vz:2164.936768,tb:-0.000025020290
$pseudo_cd_ph,prn:8,pseudo_cd_ph:352399906.002982318401
measnum = 1,full_prange = 22411828.951430
$oldmeas,msRange:74.382754,x:-4609597.217042,y:25245896.771898,z:-6379799.488638,vx:-524.193848,vy:679.124084,vz:3070.595947,tb:-0.000143735417
$newmeas,x:-4609558.028971,y:25245846.001133,z:-6380029.039300,vx:-524.206848,vy:679.149048,vz:3070.585693,tb:-0.000143735416
$pseudo_cd_ph,prn:9,pseudo_cd_ph:352399904.126099228859
measnum = 2,full_prange = 23140677.168692
$oldmeas,msRange:76.813976,x:11762582.378446,y:11226223.684598,z:20960252.232605,vx:-991.558899,vy:2484.133057,vz:-773.627502,tb:0.000410557455
$newmeas,x:11762658.916391,y:11226031.936766,z:20960311.946798,vx:-991.572266,vy:2484.135742,vz:-773.592957,tb:0.000410557456
$pseudo_cd_ph,prn:14,pseudo_cd_ph:352399897.691056013107
measnum = 3,full_prange = 24922701.259686
$oldmeas,msRange:82.758948,x:-17402666.671937,y:14075915.737821,z:-13835349.216325,vx:564.921814,vy:-1744.902588,vz:-2447.961182,tb:-0.000080293225
$newmeas,x:-17402713.635567,y:14076060.796041,z:-13835145.708478,vx:564.919006,vy:-1744.876343,vz:-2447.986328,tb:-0.000080293225
$pseudo_cd_ph,prn:16,pseudo_cd_ph:352399911.904532194138
measnum = 4,full_prange = 20673570.428737
$oldmeas,msRange:68.585104,x:-6187267.405286,y:15263898.399328,z:20539043.668604,vx:-1572.905518,vy:-2143.510010,vz:1151.063721,tb:-0.000040391854
$newmeas,x:-6187158.938836,y:15264046.214890,z:20538964.290631,vx:-1572.890991,vy:-2143.508545,vz:1151.094727,tb:-0.000040391854
$pseudo_cd_ph,prn:23,pseudo_cd_ph:352399910.580971777439
measnum = 5,full_prange = 21026714.614724
$oldmeas,msRange:69.762761,x:4099075.426052,y:21351685.061028,z:15308717.004972,vx:-886.445679,vy:1706.744019,vz:-2231.547852,tb:-0.000185990062
$newmeas,x:4099137.599650,y:21351565.353629,z:15308873.519516,vx:-886.458557,vy:1706.758789,vz:-2231.525146,tb:-0.000185990062
$pseudo_cd_ph,prn:26,pseudo_cd_ph:352399906.689688563347
measnum = 6,full_prange = 22309723.315517
$oldmeas,msRange:74.042817,x:-14115636.355417,y:6959195.906586,z:21390516.704250,vx:-1740.847900,vy:-2093.742188,vz:-449.630920,tb:0.000202383088
$newmeas,x:-14115506.806564,y:6959351.717476,z:21390550.163276,vx:-1740.841919,vy:-2093.752930,vz:-449.597046,tb:0.000202383087
$pseudo_cd_ph,prn:27,pseudo_cd_ph:352399911.645362079144
measnum = 7,full_prange = 20723540.392311
$oldmeas,msRange:68.751411,x:-12069436.681016,y:22991453.805336,z:4640748.976829,vx:-15.205814,vy:-654.750488,vz:3161.860596,tb:-0.000132880112
$newmeas,x:-12069435.629649,y:22991499.064914,z:4640530.408898,vx:-15.212897,vy:-654.724609,vz:3161.867432,tb:-0.000132880112
$pseudo_cd_ph,prn:31,pseudo_cd_ph:352399900.954003155231
measnum = 8,full_prange = 23979931.269957
$oldmeas,msRange:79.614019,x:-25275636.902683,y:7095131.792050,z:5372784.187225,vx:-699.210999,vy:-148.219193,vz:-3049.179443,tb:0.000037911731
$newmeas,x:-25275580.972712,y:7095143.647850,z:5373028.085973,vx:-699.240356,vy:-148.218613,vz:-3049.170410,tb:0.000037911731
Refix G07: 2, 352399.896197, -3736
Refix G08: 2, 352399.906003, -4497
Refix G09: 2, 352399.904126, -3979
Refix G14: 2, 352399.897691, 2502
Refix G16: 2, 352399.911905, 350
Refix G23: 2, 352399.910581, -2373
Refix G26: 2, 352399.906690, 1241
Refix G27: 2, 352399.911645, -2873
Refix G31: 2, 352399.900954, 926
$GNGGA,015301.981,2944.9094,N,10633.0916,E,1,13,0.8,338.5,M,,,,0000*16
$GNRMC,015301.981,A,2944.9094,N,10633.0916,E,0.37,0.00,160519,,*13
$GPGSA,A,3,07,08,09,14,16,23,26,27,31,,,,1.4,0.8,1.1*39
$BDGSA,A,3,01,02,03,04,,,,,,,,,1.4,0.8,1.1*2A
$GLGSA,A,3,,,,,,,,,,,,,1.4,0.8,1.1*23
$GPGSV,3,1,09,07,07,300,41,08,34,188,41,09,27,315,43,14,06,149,37*78
$GPGSV,3,2,09,16,61,009,44,23,59,290,44,26,37,041,42,27,61,149,44*73
$GPGSV,3,3,09,31,20,095,42*4A
$BDGSV,3,1,12,01,40,125,38,02,45,218,40,03,54,172,41,04,23,109,40*67
$BDGSV,3,2,12,05,00,000,35,06,41,170,41,07,65,009,43,09,67,205,43*6B
$BDGSV,3,3,12,10,62,301,42,11,35,066,42,16,47,176,42,23,58,010,45*64
$B3CN0,0,0,0,0,0,0,0,0,0,0,0,0,0,0*4C
$ini_pos,lastpos_good = 1,ini_pos.x:-1578915.780427,ini_pos.y:5312780.668304,ini_pos.z:3146366.407259
$rtc_local_time,localRTC.weeks:2053,localRTC.seconds:352400.045477,localGtime.weeks:2053,localGtime.seconds:352401.000000
$pseudo_cd_ph,prn:7,pseudo_cd_ph:352400915.669332504272
measnum = 0,full_prange = 25274168.929211
$oldmeas,msRange:0.000000,x:20072742.074086,y:8375326.569027,z:15819885.774267,vx:-1900.301270,vy:445.071198,vz:2164.621582,tb:-0.000025020294
$newmeas,x:20072902.279187,y:8375289.047587,z:15819703.283504,vx:-1900.281128,vy:445.058563,vz:2164.648926,tb:-0.000025020293
$pseudo_cd_ph,prn:8,pseudo_cd_ph:352400925.475957810879
measnum = 1,full_prange = 22298626.724595
$oldmeas,msRange:74.380834,x:-4610062.682580,y:25246499.767348,z:-6377072.452301,vx:-524.039429,vy:678.827881,vz:3070.718018,tb:-0.000143735419
$newmeas,x:-4610023.703937,y:25246449.275061,z:-6377300.852587,vx:-524.052307,vy:678.852722,vz:3070.708008,tb:-0.000143735419
$pseudo_cd_ph,prn:9,pseudo_cd_ph:352400923.598734796047
measnum = 2,full_prange = 23027576.847665
$oldmeas,msRange:76.812353,x:11761701.848115,y:11228429.817772,z:20959565.001115,vx:-991.404602,vy:2484.101807,vz:-774.024963,tb:0.000410557449
$newmeas,x:11761778.000126,y:11228239.009523,z:20959624.453989,vx:-991.417908,vy:2484.104492,vz:-773.990601,tb:0.000410557449
$pseudo_cd_ph,prn:14,pseudo_cd_ph:352400917.159496247768
measnum = 3,full_prange = 24810858.669285
$oldmeas,msRange:82.761026,x:-17402164.954227,y:14074365.973465,z:-13837523.119885,vx:564.951721,vy:-1745.182739,vz:-2447.692139,tb:-0.000080293227
$newmeas,x:-17402211.709579,y:14074510.403916,z:-13837320.547553,vx:564.948914,vy:-1745.156738,vz:-2447.717285,tb:-0.000080293226
$pseudo_cd_ph,prn:16,pseudo_cd_ph:352400931.374369382858
measnum = 4,full_prange = 20561309.040886
$oldmeas,msRange:68.585948,x:-6188664.378395,y:15261994.748942,z:20540065.746069,vx:-1573.092407,vy:-2143.530273,vz:1150.665283,tb:-0.000040391859
$newmeas,x:-6188556.488121,y:15262141.763225,z:20539986.826468,vx:-1573.078003,vy:-2143.528809,vz:1150.696045,tb:-0.000040391859
$pseudo_cd_ph,prn:23,pseudo_cd_ph:352400930.052571475506
measnum = 5,full_prange = 20913924.841961
$oldmeas,msRange:69.762030,x:4098288.250224,y:21353200.729787,z:15306735.049662,vx:-886.282471,vy:1706.557739,vz:-2231.836182,tb:-0.000185990060
$newmeas,x:4098350.078926,y:21353081.677518,z:15306890.744758,vx:-886.295288,vy:1706.572388,vz:-2231.813477,tb:-0.000185990061
$pseudo_cd_ph,prn:26,pseudo_cd_ph:352400926.158951044083
measnum = 6,full_prange = 22197634.224918
$oldmeas,msRange:74.044200,x:-14117182.425961,y:6957336.520068,z:21390117.209582,vx:-1740.918945,vy:-2093.615479,vz:-450.035217,tb:0.000202383096
$newmeas,x:-14117053.522727,y:6957491.538735,z:21390150.530444,vx:-1740.913086,vy:-2093.625977,vz:-450.001526,tb:0.000202383096
$pseudo_cd_ph,prn:27,pseudo_cd_ph:352400931.117282271385
measnum = 7,full_prange = 20610654.534159
$oldmeas,msRange:68.750427,x:-12069450.144830,y:22990872.176611,z:4643556.970806,vx:-15.114842,vy:-655.083435,vz:3161.770996,tb:-0.000132880123
$newmeas,x:-12069449.105447,y:22990917.212542,z:4643339.599622,vx:-15.121883,vy:-655.057678,vz:3161.777832,tb:-0.000132880122
$pseudo_cd_ph,prn:31,pseudo_cd_ph:352400920.423467695713
measnum = 8,full_prange = 23867781.600897
$oldmeas,msRange:79.615243,x:-25276257.723741,y:7095000.156390,z:5370076.181233,vx:-698.884521,vy:-148.225677,vz:-3049.278320,tb:0.000037911731
$newmeas,x:-25276202.081341,y:7095011.957258,z:5370318.947184,vx:-698.913757,vy:-148.225098,vz:-3049.269287,tb:0.000037911731
Refix G07: 2, 352400.915669, -3728
Refix G08: 2, 352400.925476, -4489
Refix G09: 2, 352400.923599, -3971
Refix G14: 2, 352400.917160, 2511
Refix G16: 2, 352400.931374, 358
Refix G23: 2, 352400.930053, -2365
Refix G26: 2, 352400.926159, 1248
Refix G27: 2, 352400.931117, -2864
Refix G31: 2, 352400.920423, 934
$GNGGA,015303.000,2944.9075,N,10633.0916,E,1,13,0.8,334.9,M,,,,0000*1B
$GNRMC,015303.000,A,2944.9075,N,10633.0916,E,0.06,0.00,160519,,*1C
$GPGSA,A,3,07,08,09,14,16,23,26,27,31,,,,1.0,0.8,0.7*3A
$BDGSA,A,3,01,02,03,04,,,,,,,,,1.0,0.8,0.7*29
$GLGSA,A,3,,,,,,,,,,,,,1.0,0.8,0.7*20
$GPGSV,3,1,09,07,07,300,40,08,34,188,42,09,27,315,44,14,06,149,37*7D
$GPGSV,3,2,09,16,61,009,44,23,59,290,44,26,37,041,41,27,61,149,44*70
$GPGSV,3,3,09,31,20,095,41*49
$BDGSV,3,1,12,01,40,125,39,02,45,218,39,03,54,172,43,04,23,109,41*6B
$BDGSV,3,2,12,05,00,000,37,06,41,170,40,07,65,009,42,09,67,205,43*69
$BDGSV,3,3,12,10,62,301,42,11,35,066,42,16,47,176,42,23,58,010,45*64
$B3CN0,0,0,0,0,0,0,0,0,0,0,0,0,0,0*4C
$ini_pos,lastpos_good = 1,ini_pos.x:-1578915.461670,ini_pos.y:5312779.363365,ini_pos.z:3146361.537637
$rtc_local_time,localRTC.weeks:2053,localRTC.seconds:352401.045477,localGtime.weeks:2053,localGtime.seconds:352402.000000
$pseudo_cd_ph,prn:7,pseudo_cd_ph:352401915.671669304371
measnum = 0,full_prange = 25273458.706016
$oldmeas,msRange:0.000000,x:20070841.653034,y:8375771.715266,z:15822050.233586,vx:-1900.540894,vy:445.221313,vz:2164.297363,tb:-0.000025020297
$newmeas,x:20071001.873831,y:8375734.182226,z:15821867.775282,vx:-1900.520752,vy:445.208649,vz:2164.324707,tb:-0.000025020297
$pseudo_cd_ph,prn:8,pseudo_cd_ph:352401925.478777825832
measnum = 1,full_prange = 22297771.637387
$oldmeas,msRange:74.378718,x:-4610586.635046,y:25247178.428459,z:-6374001.665534,vx:-523.865540,vy:678.494385,vz:3070.855469,tb:-0.000143735422
$newmeas,x:-4610547.670828,y:25247127.962918,z:-6374230.067286,vx:-523.878479,vy:678.519165,vz:3070.845459,tb:-0.000143735422
$pseudo_cd_ph,prn:9,pseudo_cd_ph:352401923.601223766804
measnum = 2,full_prange = 23026821.003627
$oldmeas,msRange:76.810582,x:11760710.530444,y:11230913.901668,z:20958790.752430,vx:-991.230835,vy:2484.066162,vz:-774.472473,tb:0.000410557441
$newmeas,x:11760786.666611,y:11230723.102404,z:20958850.237726,vx:-991.244202,vy:2484.069092,vz:-774.438110,tb:0.000410557442
$pseudo_cd_ph,prn:14,pseudo_cd_ph:352401917.157868325710
measnum = 3,full_prange = 24811337.040435
$oldmeas,msRange:82.763349,x:-17401599.985738,y:14072620.633010,z:-13839970.660654,vx:564.985291,vy:-1745.498169,vz:-2447.389404,tb:-0.000080293228
$newmeas,x:-17401646.744774,y:14072765.092352,z:-13839768.109477,vx:564.982544,vy:-1745.472168,vz:-2447.414551,tb:-0.000080293228
$pseudo_cd_ph,prn:16,pseudo_cd_ph:352401931.374113142490
measnum = 4,full_prange = 20561376.190907
$oldmeas,msRange:68.586927,x:-6190237.575917,y:15259851.207343,z:20541216.186999,vx:-1573.302734,vy:-2143.552979,vz:1150.216675,tb:-0.000040391865
$newmeas,x:-6190129.670863,y:15259998.223663,z:20541137.297913,vx:-1573.288330,vy:-2143.551514,vz:1150.247437,tb:-0.000040391865
$pseudo_cd_ph,prn:23,pseudo_cd_ph:352401930.054043829441
measnum = 5,full_prange = 20913473.774808
$oldmeas,msRange:69.761277,x:4097402.059693,y:21354907.182482,z:15304503.051366,vx:-886.098694,vy:1706.347778,vz:-2232.160645,tb:-0.000185990058
$newmeas,x:4097463.874241,y:21354788.147423,z:15304658.765744,vx:-886.111511,vy:1706.362427,vz:-2232.137939,tb:-0.000185990059
$pseudo_cd_ph,prn:26,pseudo_cd_ph:352401926.158130824566
measnum = 6,full_prange = 22197870.456287
$oldmeas,msRange:74.045744,x:-14118923.384896,y:6955242.976131,z:21389666.946760,vx:-1740.999023,vy:-2093.472656,vz:-450.490448,tb:0.000202383106
$newmeas,x:-14118794.474368,y:6955397.985868,z:21389700.301684,vx:-1740.993042,vy:-2093.483154,vz:-450.456757,tb:0.000202383105
$pseudo_cd_ph,prn:27,pseudo_cd_ph:352401931.119070768356
measnum = 7,full_prange = 20610108.685595
$oldmeas,msRange:68.749350,x:-12069465.208476,y:22990216.905776,z:4646718.691268,vx:-15.012459,vy:-655.458313,vz:3161.670166,tb:-0.000132880135
$newmeas,x:-12069464.176159,y:22990261.966286,z:4646501.332778,vx:-15.019496,vy:-655.432495,vz:3161.677002,tb:-0.000132880134
$pseudo_cd_ph,prn:31,pseudo_cd_ph:352401920.422839403152
measnum = 8,full_prange = 23867960.291227
$oldmeas,msRange:79.616576,x:-25276956.424403,y:7094851.927039,z:5367026.847487,vx:-698.516846,vy:-148.233032,vz:-3049.389404,tb:0.000037911732
$newmeas,x:-25276900.810855,y:7094863.728581,z:5367269.624111,vx:-698.546143,vy:-148.232452,vz:-3049.380615,tb:0.000037911731
Refix G07: 2, 352401.915672, -3730
Refix G08: 2, 352401.925479, -4492
Refix G09: 2, 352401.923601, -3974
Refix G14: 2, 352401.917158, 2508
Refix G16: 2, 352401.931374, 354
Refix G23: 2, 352401.930054, -2368
Refix G26: 2, 352401.926158, 1244
Refix G27: 2, 352401.931119, -2868
Refix G31: 2, 352401.920423, 931
$GNGGA,015304.000,2944.9068,N,10633.0922,E,1,22,0.6,331.5,M,,,,0000*12
$GNRMC,015304.000,A,2944.9068,N,10633.0922,E,0.17,0.00,160519,,*10
$GPGSA,A,3,07,08,09,14,16,23,26,27,31,,,,0.7,0.6,0.4*31
$BDGSA,A,3,01,02,03,04,06,07,09,10,11,16,23,25,0.7,0.6,0.4*2A
$GLGSA,A,3,,,,,,,,,,,,,0.7,0.6,0.4*2B
$GPGSV,3,1,10,07,07,300,40,08,34,188,42,09,27,315,43,14,06,149,38*7D
$GPGSV,3,2,10,16,61,009,44,23,59,290,44,26,37,041,41,27,61,149,44*78
$GPGSV,3,3,10,31,20,095,42,04,00,000,33*76
$BDGSV,3,1,12,01,40,125,40,02,45,218,40,03,54,172,42,04,23,109,39*65
$BDGSV,3,2,12,05,00,000,38,06,41,170,40,07,65,009,42,09,67,205,43*66
$BDGSV,3,3,12,10,62,301,42,11,35,066,42,16,47,176,42,23,58,010,44*65
$B3CN0,0,0,20,0,0,0,0,0,0,0,0,0,0,0*7E
$ini_pos,lastpos_good = 1,ini_pos.x:-1578915.701650,ini_pos.y:5312776.814108,ini_pos.z:3146358.758278
$rtc_local_time,localRTC.weeks:2053,localRTC.seconds:352402.045477,localGtime.weeks:2053,localGtime.seconds:352403.000000
$pseudo_cd_ph,prn:7,pseudo_cd_ph:352402915.674004912376
measnum = 0,full_prange = 25272748.840202
$oldmeas,msRange:0.000000,x:20068940.992423,y:8376217.011615,z:15824214.368677,vx:-1900.780396,vy:445.371429,vz:2163.973145,tb:-0.000025020300
$newmeas,x:20069101.228914,y:8376179.466974,z:15824031.942832,vx:-1900.760254,vy:445.358765,vz:2164.000488,tb:-0.000025020300
$pseudo_cd_ph,prn:8,pseudo_cd_ph:352402925.481598734856
measnum = 1,full_prange = 22296916.282145
$oldmeas,msRange:74.376609,x:-4611110.413694,y:25247856.756002,z:-6370930.741342,vx:-523.691772,vy:678.160767,vz:3070.992920,tb:-0.000143735425
$newmeas,x:-4611071.463896,y:25247806.317207,z:-6371159.144551,vx:-523.704712,vy:678.185608,vz:3070.982666,tb:-0.000143735425
$pseudo_cd_ph,prn:9,pseudo_cd_ph:352402923.603713631630
measnum = 2,full_prange = 23026064.891553
$oldmeas,msRange:76.808808,x:11759719.386525,y:11233397.950093,z:20958016.056234,vx:-991.057068,vy:2484.030762,vz:-774.919983,tb:0.000410557434
$newmeas,x:11759795.506846,y:11233207.159821,z:20958075.573949,vx:-991.070435,vy:2484.033447,vz:-774.885620,tb:0.000410557434
$pseudo_cd_ph,prn:14,pseudo_cd_ph:352402917.156244218349
measnum = 3,full_prange = 24811814.267968
$oldmeas,msRange:82.765677,x:-17401034.983658,y:14070874.977125,z:-13842417.898586,vx:565.018860,vy:-1745.813599,vz:-2447.086670,tb:-0.000080293230
$newmeas,x:-17401081.746372,y:14071019.465350,z:-13842215.368580,vx:565.016113,vy:-1745.787598,vz:-2447.111572,tb:-0.000080293230
$pseudo_cd_ph,prn:16,pseudo_cd_ph:352402931.373858511448
measnum = 4,full_prange = 20561442.858464
$oldmeas,msRange:68.587903,x:-6191810.983789,y:15257707.643082,z:20542366.179239,vx:-1573.513062,vy:-2143.575684,vz:1149.767944,tb:-0.000040391871
$newmeas,x:-6191703.063959,y:15257854.661431,z:20542287.320671,vx:-1573.498657,vy:-2143.573975,vz:1149.798706,tb:-0.000040391871
$pseudo_cd_ph,prn:23,pseudo_cd_ph:352402930.055516242981
measnum = 5,full_prange = 20913022.689786
$oldmeas,msRange:69.760525,x:4096516.052938,y:21356613.425239,z:15302270.728554,vx:-885.914917,vy:1706.137817,vz:-2232.485107,tb:-0.000185990056
$newmeas,x:4096577.853334,y:21356494.407395,z:15302426.462209,vx:-885.927734,vy:1706.152466,vz:-2232.462402,tb:-0.000185990057
$pseudo_cd_ph,prn:26,pseudo_cd_ph:352402926.157312929630
measnum = 6,full_prange = 22198105.990765
$oldmeas,msRange:74.047280,x:-14120664.423797,y:6953149.575095,z:21389216.228708,vx:-1741.078979,vy:-2093.329590,vz:-450.945679,tb:0.000202383116
$newmeas,x:-14120535.505981,y:6953304.575895,z:21389249.617693,vx:-1741.072998,vy:-2093.340332,vz:-450.911957,tb:0.000202383115
$pseudo_cd_ph,prn:27,pseudo_cd_ph:352402931.120860338211
measnum = 7,full_prange = 20609562.515389
$oldmeas,msRange:68.748276,x:-12069480.169766,y:22989561.260069,z:4649880.310790,vx:-14.910130,vy:-655.833191,vz:3161.569092,tb:-0.000132880146
$newmeas,x:-12069479.144511,y:22989606.345156,z:4649662.965002,vx:-14.917163,vy:-655.807373,vz:3161.576172,tb:-0.000132880145
$pseudo_cd_ph,prn:31,pseudo_cd_ph:352402920.422219216824
measnum = 8,full_prange = 23868136.551371
$oldmeas,msRange:79.617906,x:-25277654.757437,y:7094703.690311,z:5363977.402533,vx:-698.149231,vy:-148.240433,vz:-3049.500732,tb:0.000037911732
$newmeas,x:-25277599.172748,y:7094715.492529,z:5364220.189801,vx:-698.178528,vy:-148.239853,vz:-3049.491699,tb:0.000037911732
Refix G07: 2, 352402.915674, -3729
Refix G08: 2, 352402.925482, -4490
Refix G09: 2, 352402.923604, -3972
Refix G14: 2, 352402.917156, 2510
Refix G16: 2, 352402.931374, 357
Refix G23: 2, 352402.930056, -2365
Refix G26: 2, 352402.926157, 1247
Refix G27: 2, 352402.931121, -2865
Refix G31: 2, 352402.920422, 933
$GNGGA,015305.000,2944.9066,N,10633.0924,E,1,22,0.6,330.6,M,,,,0000*19
$GNRMC,015305.000,A,2944.9066,N,10633.0924,E,0.21,0.00,160519,,*1C
$GPGSA,A,3,07,08,09,14,16,23,26,27,31,,,,0.7,0.6,0.4*31
$BDGSA,A,3,01,02,03,04,06,07,09,10,11,16,23,25,0.7,0.6,0.4*2A
$GLGSA,A,3,,,,,,,,,,,,,0.7,0.6,0.4*2B
$GPGSV,3,1,10,07,07,300,41,08,34,188,42,09,27,315,44,14,06,149,37*74
$GPGSV,3,2,10,16,61,009,44,23,59,290,44,26,37,041,41,27,61,149,44*78
$GPGSV,3,3,10,31,20,095,42,04,00,000,36*73
$BDGSV,3,1,12,01,40,125,41,02,45,218,40,03,54,172,42,04,23,109,40*6A
$BDGSV,3,2,12,05,00,000,36,06,41,170,40,07,65,009,42,09,67,205,43*68
$BDGSV,3,3,12,10,62,301,42,11,35,066,42,16,47,176,42,23,58,010,45*64
$B3CN0,0,0,0,0,0,0,0,0,0,0,0,0,0,0*4C
$ini_pos,lastpos_good = 1,ini_pos.x:-1578915.720165,ini_pos.y:5312776.208258,ini_pos.z:3146357.999371
$rtc_local_time,localRTC.weeks:2053,localRTC.seconds:352403.045476,localGtime.weeks:2053,localGtime.seconds:352404.000000
$pseudo_cd_ph,prn:7,pseudo_cd_ph:352403915.676339387894
measnum = 0,full_prange = 25272039.313899
$oldmeas,msRange:0.000000,x:20067040.092304,y:8376662.458104,z:15826378.179497,vx:-1901.019897,vy:445.521576,vz:2163.648682,tb:-0.000025020304
$newmeas,x:20067200.344484,y:8376624.901859,z:15826195.786111,vx:-1900.999756,vy:445.508911,vz:2163.676025,tb:-0.000025020303
$pseudo_cd_ph,prn:8,pseudo_cd_ph:352403925.484418392181
measnum = 1,full_prange = 22296061.302151
$oldmeas,msRange:74.374498,x:-4611634.018562,y:25248534.749940,z:-6367859.679791,vx:-523.518005,vy:677.827148,vz:3071.130371,tb:-0.000143735428
$newmeas,x:-4611595.083181,y:25248484.337890,z:-6368088.084455,vx:-523.530945,vy:677.851929,vz:3071.120117,tb:-0.000143735427
$pseudo_cd_ph,prn:9,pseudo_cd_ph:352403923.606201112270
measnum = 2,full_prange = 23025309.494240
$oldmeas,msRange:76.807027,x:11758728.416369,y:11235881.962981,z:20957240.912546,vx:-990.883301,vy:2483.995117,vz:-775.367432,tb:0.000410557426
$newmeas,x:11758804.520846,y:11235691.181700,z:20957300.462676,vx:-990.896667,vy:2483.997803,vz:-775.333069,tb:0.000410557427
$pseudo_cd_ph,prn:14,pseudo_cd_ph:352403917.154624044895
measnum = 3,full_prange = 24812290.316145
$oldmeas,msRange:82.768007,x:-17400469.948041,y:14069129.005832,z:-13844864.833627,vx:565.052368,vy:-1746.129028,vz:-2446.783691,tb:-0.000080293231
$newmeas,x:-17400516.714426,y:14069273.522933,z:-13844662.324805,vx:565.049622,vy:-1746.102905,vz:-2446.808838,tb:-0.000080293231
$pseudo_cd_ph,prn:16,pseudo_cd_ph:352403931.373601138592
measnum = 4,full_prange = 20561510.347996
$oldmeas,msRange:68.588870,x:-6193384.601990,y:15255564.056227,z:20543515.722765,vx:-1573.723389,vy:-2143.598145,vz:1149.319214,tb:-0.000040391877
$newmeas,x:-6193276.667381,y:15255711.076606,z:20543436.894715,vx:-1573.708984,vy:-2143.596680,vz:1149.349976,tb:-0.000040391877
$pseudo_cd_ph,prn:23,pseudo_cd_ph:352403930.056986808777
measnum = 5,full_prange = 20912572.158703
$oldmeas,msRange:69.759764,x:4095630.229943,y:21358319.458002,z:15300038.081269,vx:-885.731140,vy:1705.927856,vz:-2232.809570,tb:-0.000185990054
$newmeas,x:4095692.016189,y:21358200.457372,z:15300193.834202,vx:-885.743958,vy:1705.942505,vz:-2232.786865,tb:-0.000185990055
$pseudo_cd_ph,prn:26,pseudo_cd_ph:352403926.156493186951
measnum = 6,full_prange = 22198342.079182
$oldmeas,msRange:74.048812,x:-14122405.542614,y:6951056.317007,z:21388765.055438,vx:-1741.158813,vy:-2093.186768,vz:-451.400879,tb:0.000202383125
$newmeas,x:-14122276.617511,y:6951211.308868,z:21388798.478484,vx:-1741.152954,vy:-2093.197266,vz:-451.367188,tb:0.000202383125
$pseudo_cd_ph,prn:27,pseudo_cd_ph:352403931.122649073601
measnum = 7,full_prange = 20609016.595349
$oldmeas,msRange:68.747197,x:-12069495.028753,y:22988905.239485,z:4653041.829305,vx:-14.807855,vy:-656.208069,vz:3161.468018,tb:-0.000132880158
$newmeas,x:-12069494.010556,y:22988950.349149,z:4652824.496220,vx:-14.814883,vy:-656.182251,vz:3161.475098,tb:-0.000132880157
$pseudo_cd_ph,prn:31,pseudo_cd_ph:352403920.421593725681
measnum = 8,full_prange = 23868314.401858
$oldmeas,msRange:79.619237,x:-25278352.722835,y:7094555.446153,z:5360927.846435,vx:-697.781616,vy:-148.247894,vz:-3049.611816,tb:0.000037911732
$newmeas,x:-25278297.167002,y:7094567.249052,z:5361170.644359,vx:-697.810852,vy:-148.247299,vz:-3049.602783,tb:0.000037911732
Refix G07: 2, 352403.915676, -3732
Refix G08: 2, 352403.925484, -4491
Refix G09: 2, 352403.923606, -3974
Refix G14: 2, 352403.917155, 2508
Refix G16: 2, 352403.931374, 354
Refix G23: 2, 352403.930057, -2367
Refix G26: 2, 352403.926156, 1244
Refix G27: 2, 352403.931123, -2867
Refix G31: 2, 352403.920422, 931
$GNGGA,015306.000,2944.9065,N,10633.0924,E,1,22,0.6,330.1,M,,,,0000*1E
$GNRMC,015306.000,A,2944.9065,N,10633.0924,E,0.04,0.00,160519,,*1B
$GPGSA,A,3,07,08,09,14,16,23,26,27,31,,,,0.7,0.6,0.4*31
$BDGSA,A,3,01,02,03,04,06,07,09,10,11,16,23,25,0.7,0.6,0.4*2A
$GLGSA,A,3,,,,,,,,,,,,,0.7,0.6,0.4*2B
$GPGSV,3,1,10,07,07,300,41,08,34,188,42,09,27,315,44,14,06,149,38*7B
$GPGSV,3,2,10,16,61,009,44,23,59,290,44,26,37,041,42,27,61,149,44*7B
$GPGSV,3,3,10,31,20,095,42,04,00,000,35*70
$BDGSV,3,1,12,01,40,125,39,02,45,218,40,03,54,172,43,04,23,109,40*64
$BDGSV,3,2,12,05,00,000,39,06,41,170,40,07,65,009,42,09,67,205,43*67
$BDGSV,3,3,12,10,62,301,42,11,35,066,42,16,47,176,42,23,58,010,45*64
$B3CN0,0,0,22,0,0,0,0,0,0,0,0,0,0,0*7C
$ini_pos,lastpos_good = 1,ini_pos.x:-1578915.729271,ini_pos.y:5312775.797013,ini_pos.z:3146357.615117
$rtc_local_time,localRTC.weeks:2053,localRTC.seconds:352404.045476,localGtime.weeks:2053,localGtime.seconds:352405.000000
$pseudo_cd_ph,prn:7,pseudo_cd_ph:352404915.678676784039
measnum = 0,full_prange = 25271328.912014
$oldmeas,msRange:0.000000,x:20065138.952728,y:8377108.054759,z:15828541.666001,vx:-1901.259399,vy:445.671753,vz:2163.324463,tb:-0.000025020307
$newmeas,x:20065299.220587,y:8377070.486911,z:15828359.305082,vx:-1901.239136,vy:445.659088,vz:2163.351807,tb:-0.000025020307
$pseudo_cd_ph,prn:8,pseudo_cd_ph:352404925.487237870693
measnum = 1,full_prange = 22295206.375765
$oldmeas,msRange:74.372387,x:-4612157.449692,y:25249212.410235,z:-6364788.480947,vx:-523.344299,vy:677.493469,vz:3071.267578,tb:-0.000143735430
$newmeas,x:-4612118.528723,y:25249162.024933,z:-6365016.887062,vx:-523.357178,vy:677.518311,vz:3071.257324,tb:-0.000143735430
$pseudo_cd_ph,prn:9,pseudo_cd_ph:352404923.608690679073
measnum = 2,full_prange = 23024553.471511
$oldmeas,msRange:76.805244,x:11757737.619986,y:11238365.940268,z:20956465.321381,vx:-990.709534,vy:2483.959473,vz:-775.814941,tb:0.000410557419
$newmeas,x:11757813.708618,y:11238175.167988,z:20956524.903922,vx:-990.722900,vy:2483.962402,vz:-775.780579,tb:0.000410557419
$pseudo_cd_ph,prn:14,pseudo_cd_ph:352404917.153002202511
measnum = 3,full_prange = 24812766.864655
$oldmeas,msRange:82.770338,x:-17399904.878942,y:14067382.719155,z:-13847311.465722,vx:565.085815,vy:-1746.444458,vz:-2446.480713,tb:-0.000080293233
$newmeas,x:-17399951.648994,y:14067527.265134,z:-13847108.978087,vx:565.083069,vy:-1746.418335,vz:-2446.505859,tb:-0.000080293233
$pseudo_cd_ph,prn:16,pseudo_cd_ph:352404931.373347580433
measnum = 4,full_prange = 20561576.693911
$oldmeas,msRange:68.589836,x:-6194958.430496,y:15253420.446845,z:20544664.817553,vx:-1573.933716,vy:-2143.620605,vz:1148.870483,tb:-0.000040391883
$newmeas,x:-6194850.481115,y:15253567.469240,z:20544586.020026,vx:-1573.919312,vy:-2143.619141,vz:1148.901245,tb:-0.000040391883
$pseudo_cd_ph,prn:23,pseudo_cd_ph:352404930.058459699154
measnum = 5,full_prange = 20912120.930728
$oldmeas,msRange:69.759002,x:4094744.590689,y:21360025.280714,z:15297805.109557,vx:-885.547424,vy:1705.717773,vz:-2233.134033,tb:-0.000185990053
$newmeas,x:4094806.362786,y:21359906.297306,z:15297960.881759,vx:-885.560242,vy:1705.732422,vz:-2233.111328,tb:-0.000185990053
$pseudo_cd_ph,prn:26,pseudo_cd_ph:352404926.155672729015
measnum = 6,full_prange = 22198578.382028
$oldmeas,msRange:74.050342,x:-14124146.741300,y:6948963.201910,z:21388313.426959,vx:-1741.238647,vy:-2093.043701,vz:-451.856079,tb:0.000202383135
$newmeas,x:-14124017.808913,y:6949118.184832,z:21388346.884068,vx:-1741.232788,vy:-2093.054199,vz:-451.822388,tb:0.000202383134
$pseudo_cd_ph,prn:27,pseudo_cd_ph:352404931.124438464642
measnum = 7,full_prange = 20608470.478749
$oldmeas,msRange:68.746117,x:-12069509.785492,y:22988248.844020,z:4656203.246744,vx:-14.705633,vy:-656.582947,vz:3161.366943,tb:-0.000132880170
$newmeas,x:-12069508.774349,y:22988293.978259,z:4655985.926368,vx:-14.712659,vy:-656.557129,vz:3161.374023,tb:-0.000132880169
$pseudo_cd_ph,prn:31,pseudo_cd_ph:352404920.420971274376
measnum = 8,full_prange = 23868491.341024
$oldmeas,msRange:79.620568,x:-25279050.320588,y:7094407.194515,z:5357878.179256,vx:-697.413940,vy:-148.255402,vz:-3049.722900,tb:0.000037911733
$newmeas,x:-25278994.793613,y:7094418.998099,z:5358120.987821,vx:-697.443237,vy:-148.254807,vz:-3049.713867,tb:0.000037911732
Refix G07: 2, 352404.915679, -3731
Refix G08: 2, 352404.925487, -4490
Refix G09: 2, 352404.923609, -3972
Refix G14: 2, 352404.917153, 2509
Refix G16: 2, 352404.931373, 356
Refix G23: 2, 352404.930058, -2366
Refix G26: 2, 352404.926156, 1245
Refix G27: 2, 352404.931124, -2865
Refix G31: 2, 352404.920421, 932
$GNGGA,015307.000,2944.9065,N,10633.0925,E,1,22,0.6,330.1,M,,,,0000*1E
$GNRMC,015307.000,A,2944.9065,N,10633.0925,E,0.07,0.00,160519,,*18
$GPGSA,A,3,07,08,09,14,16,23,26,27,31,,,,0.7,0.6,0.4*31
$BDGSA,A,3,01,02,03,04,06,07,09,10,11,16,23,25,0.7,0.6,0.4*2A
$GLGSA,A,3,,,,,,,,,,,,,0.7,0.6,0.4*2B
$GPGSV,3,1,10,07,07,300,41,08,34,188,42,09,27,315,44,14,06,149,38*7B
$GPGSV,3,2,10,16,61,009,44,23,59,290,45,26,37,041,42,27,61,149,45*7B
$GPGSV,3,3,10,31,20,095,42,04,00,000,35*70
$BDGSV,3,1,12,01,40,125,40,02,45,218,40,03,54,172,43,04,23,109,40*6A
$BDGSV,3,2,12,05,00,000,37,06,41,170,40,07,65,009,43,09,67,205,44*6F
$BDGSV,3,3,12,10,62,301,42,11,35,066,42,16,47,176,42,23,58,010,44*65
$B3CN0,0,0,18,0,0,0,0,0,0,0,0,0,0,0*75
$ini_pos,lastpos_good = 1,ini_pos.x:-1578915.880145,ini_pos.y:5312775.763414,ini_pos.z:3146357.546153
$rtc_local_time,localRTC.weeks:2053,localRTC.seconds:352405.045476,localGtime.weeks:2053,localGtime.seconds:352406.000000
$pseudo_cd_ph,prn:7,pseudo_cd_ph:352405915.681015610695
measnum = 0,full_prange = 25270618.081272
$oldmeas,msRange:0.000000,x:20063237.573744,y:8377553.801610,z:15830704.828144,vx:-1901.498779,vy:445.821960,vz:2163.000000,tb:-0.000025020310
$newmeas,x:20063397.857273,y:8377516.222156,z:15830522.499698,vx:-1901.478516,vy:445.809296,vz:2163.027344,tb:-0.000025020310
$pseudo_cd_ph,prn:8,pseudo_cd_ph:352405925.490054905415
measnum = 1,full_prange = 22294352.182009
$oldmeas,msRange:74.370275,x:-4612680.707123,y:25249889.736852,z:-6361717.144877,vx:-523.170593,vy:677.159790,vz:3071.404785,tb:-0.000143735433
$newmeas,x:-4612641.800561,y:25249839.378296,z:-6361945.552443,vx:-523.183533,vy:677.184631,vz:3071.394531,tb:-0.000143735433
$pseudo_cd_ph,prn:9,pseudo_cd_ph:352405923.611180245876
measnum = 2,full_prange = 23023797.448782
$oldmeas,msRange:76.803462,x:11756746.997387,y:11240849.881888,z:20955689.282755,vx:-990.535706,vy:2483.923828,vz:-776.262390,tb:0.000410557411
$newmeas,x:11756823.070174,y:11240659.118613,z:20955748.897704,vx:-990.549072,vy:2483.926514,vz:-776.228027,tb:0.000410557412
$pseudo_cd_ph,prn:14,pseudo_cd_ph:352405917.151382386684
measnum = 3,full_prange = 24813242.805618
$oldmeas,msRange:82.772669,x:-17399339.776416,y:14065636.117118,z:-13849757.794817,vx:565.119263,vy:-1746.759766,vz:-2446.177734,tb:-0.000080293234
$newmeas,x:-17399386.550129,y:14065780.691971,z:-13849555.328378,vx:565.116455,vy:-1746.733643,vz:-2446.202637,tb:-0.000080293234
$pseudo_cd_ph,prn:16,pseudo_cd_ph:352405931.373089551926
measnum = 4,full_prange = 20561644.380003
$oldmeas,msRange:68.590801,x:-6196532.469286,y:15251276.815002,z:20545813.463580,vx:-1574.143921,vy:-2143.643066,vz:1148.421631,tb:-0.000040391889
$newmeas,x:-6196424.505127,y:15251423.839420,z:20545734.696573,vx:-1574.129517,vy:-2143.641602,vz:1148.452515,tb:-0.000040391889
$pseudo_cd_ph,prn:23,pseudo_cd_ph:352405930.059930980206
measnum = 5,full_prange = 20911670.185217
$oldmeas,msRange:69.758238,x:4093859.135160,y:21361730.893319,z:15295571.813465,vx:-885.363708,vy:1705.507568,vz:-2233.458252,tb:-0.000185990051
$newmeas,x:4093920.893111,y:21361611.927133,z:15295727.604934,vx:-885.376526,vy:1705.522217,vz:-2233.435791,tb:-0.000185990051
$pseudo_cd_ph,prn:26,pseudo_cd_ph:352405926.154852211475
measnum = 6,full_prange = 22198814.702742
$oldmeas,msRange:74.051871,x:-14125888.019807,y:6946870.229851,z:21387861.343282,vx:-1741.318481,vy:-2092.900635,vz:-452.311279,tb:0.000202383145
$newmeas,x:-14125759.080138,y:6947025.203830,z:21387894.834453,vx:-1741.312500,vy:-2092.911133,vz:-452.277588,tb:0.000202383144
$pseudo_cd_ph,prn:27,pseudo_cd_ph:352405931.126225829124
measnum = 7,full_prange = 20607924.969697
$oldmeas,msRange:68.745036,x:-12069524.440037,y:22987592.073669,z:4659364.563038,vx:-14.603467,vy:-656.957825,vz:3161.265869,tb:-0.000132880181
$newmeas,x:-12069523.435944,y:22987637.232483,z:4659147.255369,vx:-14.610488,vy:-656.932068,vz:3161.272705,tb:-0.000132880181
$pseudo_cd_ph,prn:31,pseudo_cd_ph:352405920.420345485210
measnum = 8,full_prange = 23868669.280856
$oldmeas,msRange:79.621898,x:-25279747.550686,y:7094258.935345,z:5354828.401059,vx:-697.046265,vy:-148.262955,vz:-3049.833740,tb:0.000037911733
$newmeas,x:-25279692.052569,y:7094270.739619,z:5355071.220272,vx:-697.075562,vy:-148.262360,vz:-3049.824951,tb:0.000037911733
Refix G07: 2, 352405.915681, -3732
Refix G08: 2, 352405.925490, -4492
Refix G09: 2, 352405.923611, -3974
Refix G14: 2, 352405.917151, 2508
Refix G16: 2, 352405.931373, 354
Refix G23: 2, 352405.930060, -2367
Refix G26: 2, 352405.926155, 1244
Refix G27: 2, 352405.931126, -2867
Refix G31: 2, 352405.920420, 931
$GNGGA,015308.000,2944.9065,N,10633.0926,E,1,22,0.6,330.0,M,,,,0000*13
$GNRMC,015308.000,A,2944.9065,N,10633.0926,E,0.20,0.00,160519,,*11
$GPGSA,A,3,07,08,09,14,16,23,26,27,31,,,,0.7,0.6,0.4*31
$BDGSA,A,3,01,02,03,04,06,07,09,10,11,16,23,25,0.7,0.6,0.4*2A
$GLGSA,A,3,,,,,,,,,,,,,0.7,0.6,0.4*2B
$GPGSV,3,1,10,07,07,300,40,08,34,188,42,09,27,315,44,14,06,149,38*7A
$GPGSV,3,2,10,16,61,009,45,23,59,290,45,26,37,041,42,27,61,149,44*7B
$GPGSV,3,3,10,31,20,095,42,04,00,000,35*70
$BDGSV,3,1,12,01,40,125,40,02,45,218,40,03,54,172,41,04,23,109,39*66
$BDGSV,3,2,12,05,00,000,36,06,41,170,40,07,65,009,43,09,67,205,43*69
$BDGSV,3,3,12,10,62,301,42,11,35,066,42,16,47,176,42,23,58,010,45*64
$B3CN0,0,0,19,0,0,0,0,0,0,0,0,0,0,0*74
$ini_pos,lastpos_good = 1,ini_pos.x:-1578915.912225,ini_pos.y:5312775.688210,ini_pos.z:3146357.472178
$rtc_local_time,localRTC.weeks:2053,localRTC.seconds:352406.045476,localGtime.weeks:2053,localGtime.seconds:352407.000000
$pseudo_cd_ph,prn:7,pseudo_cd_ph:352406915.683351993561
measnum = 0,full_prange = 25269907.983160
$oldmeas,msRange:0.000000,x:20061335.955403,y:8377999.698684,z:15832867.665881,vx:-1901.738037,vy:445.972198,vz:2162.675537,tb:-0.000025020314
$newmeas,x:20061496.254602,y:8377962.107623,z:15832685.369905,vx:-1901.717896,vy:445.959534,vz:2162.702881,tb:-0.000025020313
$pseudo_cd_ph,prn:8,pseudo_cd_ph:352406925.492876708508
measnum = 1,full_prange = 22293496.558731
$oldmeas,msRange:74.368163,x:-4613203.790896,y:25250566.729755,z:-6358645.671646,vx:-522.996948,vy:676.826050,vz:3071.541992,tb:-0.000143735436
$newmeas,x:-4613164.898740,y:25250516.397948,z:-6358874.080644,vx:-523.009888,vy:676.850891,vz:3071.531738,tb:-0.000143735436
$pseudo_cd_ph,prn:9,pseudo_cd_ph:352406923.613673031330
measnum = 2,full_prange = 23023040.461126
$oldmeas,msRange:76.801679,x:11755756.548583,y:11243333.787776,z:20954912.796686,vx:-990.361938,vy:2483.888184,vz:-776.709839,tb:0.000410557404
$newmeas,x:11755832.605521,y:11243143.033520,z:20954972.444037,vx:-990.375305,vy:2483.890869,vz:-776.675476,tb:0.000410557404
$pseudo_cd_ph,prn:14,pseudo_cd_ph:352406917.149764955044
measnum = 3,full_prange = 24813718.031820
$oldmeas,msRange:82.775001,x:-17398774.640516,y:14063889.199744,z:-13852203.820858,vx:565.152588,vy:-1747.075073,vz:-2445.874512,tb:-0.000080293236
$newmeas,x:-17398821.417885,y:14064033.803464,z:-13852001.375627,vx:565.149841,vy:-1747.048950,vz:-2445.899658,tb:-0.000080293236
$pseudo_cd_ph,prn:16,pseudo_cd_ph:352406931.372833430767
measnum = 4,full_prange = 20561711.494286
$oldmeas,msRange:68.591766,x:-6198106.718336,y:15249133.160766,z:20546961.660821,vx:-1574.354248,vy:-2143.665527,vz:1147.972900,tb:-0.000040391895
$newmeas,x:-6197998.739405,y:15249280.187198,z:20546882.924338,vx:-1574.339844,vy:-2143.664062,vz:1148.003662,tb:-0.000040391894
$pseudo_cd_ph,prn:23,pseudo_cd_ph:352406930.061403393745
measnum = 5,full_prange = 20911219.100193
$oldmeas,msRange:69.757476,x:4092973.863339,y:21363436.295761,z:15293338.193036,vx:-885.179993,vy:1705.297363,vz:-2233.782715,tb:-0.000185990049
$newmeas,x:4093035.607144,y:21363317.346802,z:15293494.003767,vx:-885.192810,vy:1705.312012,vz:-2233.760010,tb:-0.000185990049
$pseudo_cd_ph,prn:26,pseudo_cd_ph:352406926.154032111168
measnum = 6,full_prange = 22199050.898374
$oldmeas,msRange:74.053400,x:-14127629.378086,y:6944777.400875,z:21387408.804418,vx:-1741.398193,vy:-2092.757568,vz:-452.766479,tb:0.000202383154
$newmeas,x:-14127500.431140,y:6944932.365907,z:21387442.329650,vx:-1741.392334,vy:-2092.768066,vz:-452.732758,tb:0.000202383153
$pseudo_cd_ph,prn:27,pseudo_cd_ph:352406931.128013730049
measnum = 7,full_prange = 20607379.299823
$oldmeas,msRange:68.743956,x:-12069538.992442,y:22986934.928427,z:4662525.778117,vx:-14.501354,vy:-657.332703,vz:3161.164551,tb:-0.000132880193
$newmeas,x:-12069537.995395,y:22986980.111815,z:4662308.483162,vx:-14.508371,vy:-657.306946,vz:3161.171631,tb:-0.000132880192
$pseudo_cd_ph,prn:31,pseudo_cd_ph:352406920.419724702835
measnum = 8,full_prange = 23868845.719690
$oldmeas,msRange:79.623228,x:-25280444.413120,y:7094110.668593,z:5351778.511909,vx:-696.678650,vy:-148.270569,vz:-3049.944824,tb:0.000037911733
$newmeas,x:-25280388.943866,y:7094122.473560,z:5352021.341748,vx:-696.707886,vy:-148.269958,vz:-3049.935791,tb:0.000037911733
Refix G07: 2, 352406.915683, -3733
Refix G08: 2, 352406.925493, -4491
Refix G09: 2, 352406.923614, -3973
Refix G14: 2, 352406.917150, 2508
Refix G16: 2, 352406.931373, 355
Refix G23: 2, 352406.930061, -2366
Refix G26: 2, 352406.926154, 1244
Refix G27: 2, 352406.931128, -2865
Refix G31: 2, 352406.920420, 931
$GNGGA,015309.000,2944.9064,N,10633.0926,E,1,22,0.6,329.7,M,,,,0000*1C
$GNRMC,015309.000,A,2944.9064,N,10633.0926,E,0.05,0.00,160519,,*16
$GPGSA,A,3,07,08,09,14,16,23,26,27,31,,,,0.7,0.6,0.4*31
$BDGSA,A,3,01,02,03,04,06,07,09,10,11,16,23,25,0.7,0.6,0.4*2A
$GLGSA,A,3,,,,,,,,,,,,,0.7,0.6,0.4*2B
$GPGSV,3,1,10,07,07,300,41,08,34,188,42,09,27,315,44,14,06,149,37*74
$GPGSV,3,2,10,16,61,009,45,23,59,290,44,26,37,041,42,27,61,149,44*7A
$GPGSV,3,3,10,31,20,095,42,04,00,000,35*70
$BDGSV,3,1,12,01,40,125,40,02,45,218,39,03,54,172,41,04,23,109,40*66
$BDGSV,3,2,12,05,00,000,37,06,41,170,40,07,65,009,43,09,67,205,44*6F
$BDGSV,3,3,12,10,62,301,42,11,35,066,42,16,47,176,42,23,58,010,45*64
$B3CN0,0,0,0,0,0,0,0,0,0,0,0,0,0,0*4C
$ini_pos,lastpos_good = 1,ini_pos.x:-1578915.908285,ini_pos.y:5312775.516090,ini_pos.z:3146357.274342
$rtc_local_time,localRTC.weeks:2053,localRTC.seconds:352407.045476,localGtime.weeks:2053,localGtime.seconds:352408.000000
$pseudo_cd_ph,prn:7,pseudo_cd_ph:352407915.685686647892
measnum = 0,full_prange = 25269198.403250
$oldmeas,msRange:0.000000,x:20059434.097756,y:8378445.746009,z:15835030.179169,vx:-1901.977295,vy:446.122467,vz:2162.351074,tb:-0.000025020317
$newmeas,x:20059594.412623,y:8378408.143337,z:15834847.915662,vx:-1901.957153,vy:446.109802,vz:2162.378418,tb:-0.000025020317
$pseudo_cd_ph,prn:8,pseudo_cd_ph:352407925.495696306229
measnum = 1,full_prange = 22292641.596606
$oldmeas,msRange:74.366052,x:-4613726.701051,y:25251243.388906,z:-6355574.061321,vx:-522.823364,vy:676.492310,vz:3071.678955,tb:-0.000143735439
$newmeas,x:-4613687.823295,y:25251193.083849,z:-6355802.471752,vx:-522.836304,vy:676.517090,vz:3071.668701,tb:-0.000143735439
$pseudo_cd_ph,prn:9,pseudo_cd_ph:352407923.616163313389
measnum = 2,full_prange = 23022284.223968
$oldmeas,msRange:76.799897,x:11754766.273583,y:11245817.657867,z:20954135.863191,vx:-990.188110,vy:2483.852295,vz:-777.157227,tb:0.000410557396
$newmeas,x:11754842.314676,y:11245626.912628,z:20954195.542941,vx:-990.201477,vy:2483.854980,vz:-777.122864,tb:0.000410557397
$pseudo_cd_ph,prn:14,pseudo_cd_ph:352407917.148142039776
measnum = 3,full_prange = 24814194.901972
$oldmeas,msRange:82.777332,x:-17398209.471297,y:14062141.967055,z:-13854649.543791,vx:565.185852,vy:-1747.390381,vz:-2445.571533,tb:-0.000080293237
$newmeas,x:-17398256.252322,y:14062286.599653,z:-13854447.119760,vx:565.183105,vy:-1747.364258,vz:-2445.596436,tb:-0.000080293237
$pseudo_cd_ph,prn:16,pseudo_cd_ph:352407931.372574567795
measnum = 4,full_prange = 20561779.430544
$oldmeas,msRange:68.592731,x:-6199681.177625,y:15246989.484204,z:20548109.409252,vx:-1574.564453,vy:-2143.687744,vz:1147.524048,tb:-0.000040391901
