SD initialized success
Create debug.log Failed! 3
bbram_blkflag = 1
rtcflag = 0
BBRAM Block OK: 01 EPHflag: 0805093a 02341adf, rtc 00
Hot-start nowtime:day = 28,minute = 14,seconds = 34.00
GPS 0 Init Dop: 10000,80
GPS 1 Init Dop: -2225, 2
GPS 2 Init Dop: 10000,80
GPS 3 Init Dop: -3167, 2
GPS 4 Init Dop: -4724, 2
GPS 5 Init Dop:  -748, 2
GPS 6 Init Dop: 10000,80
GPS 7 Init Dop: 10000,80
GPS 8 Init Dop: -2978, 2
GPS 9 Init Dop: 10000,80
GPS10 Init Dop: 10000,80
GPS11 Init Dop: -4198, 2
GPS12 Init Dop: 10000,80
GPS13 Init Dop: 10000,80
GPS14 Init Dop: 10000,80
GPS15 Init Dop: 10000,80
GPS16 Init Dop:  -723, 2
GPS17 Init Dop: 10000,80
GPS18 Init Dop: -1304, 2
GPS19 Init Dop: 10000,80
GPS20 Init Dop: 10000,80
GPS21 Init Dop: 10000,80
GPS22 Init Dop: 10000,80
GPS23 Init Dop: 10000,80
GPS24 Init Dop: 10000,80
GPS25 Init Dop: 10000,80
GPS26 Init Dop: 10000,80
GPS27 Init Dop:  1895, 2
GPS28 Init Dop: 10000,80
GPS29 Init Dop: 10000,80
GPS30 Init Dop: 10000,80
GPS31 Init Dop: 10000,80
BDS 0 Init Dop:  -850, 2
BDS 1 Init Dop:  -919, 2
BDS 2 Init Dop:  -868, 2
BDS 3 Init Dop:  -871, 2
BDS 4 Init Dop:  -899, 2
BDS 5 Init Dop: 10000,80
BDS 6 Init Dop:   548, 2
BDS 7 Init Dop:  -485, 2
BDS 8 Init Dop: 10000,80
BDS 9 Init Dop:   220, 2
BDS10 Init Dop: 10000,80
BDS11 Init Dop: -1760, 2
BDS12 Init Dop:  -655, 2
BDS13 Init Dop: 10000,80
BDS14 Init Dop: 10000,80
BDS15 Init Dop: 10000,80
BDS16 Init Dop: 10000,80
BDS17 Init Dop: 10000,80
BDS18 Init Dop:   386, 2
BDS19 Init Dop: 10000,80
BDS20 Init Dop: -4137, 2
BDS21 Init Dop: -2483, 2
BDS22 Init Dop: 10000,80
BDS23 Init Dop: 10000,80
BDS24 Init Dop: 10000,80
BDS25 Init Dop:  1785, 2
BDS26 Init Dop: 10000,80
BDS27 Init Dop: 10000,80
BDS28 Init Dop: 10000,80
BDS29 Init Dop: 10000,80
BDS30 Init Dop: 10000,80
BDS31 Init Dop: 10000,80
Good luck!
$ini_pos,lastpos_good = 1,ini_pos.x:-1578917.000000,ini_pos.y:5312772.000000,ini_pos.z:3146357.000000
$rtc_local_time,localRTC.weeks:2055,localRTC.seconds:206093.026011,localGtime.weeks:0,localGtime.seconds:19.026011
source<tow,snapshot
$GNGGA,000000.000,,,,,0,00,,,M,,,,0000*2B
$GNRMC,000000.000,A,,,,,,,060180,,*29
$GPGSA,A,1,,,,,,,,,,,,,,,*1E
$BDGSA,A,1,,,,,,,,,,,,,,,*0F
$GLGSA,A,1,,,,,,,,,,,,,,,*02
$B3CN0,0,0,0,0,0,0,0,0,0,0,0,0,0,0*4C
tow update,206094829.389903
$ini_pos,lastpos_good = 1,ini_pos.x:-1578917.000000,ini_pos.y:5312772.000000,ini_pos.z:3146357.000000
$rtc_local_time,localRTC.weeks:2055,localRTC.seconds:206094.026011,localGtime.weeks:2055,localGtime.seconds:206094.829390
source>=tow,snapshot
$GNGGA,091436.829,,,,,0,00,,,M,,,,0000*21
$GNRMC,091436.829,A,,,,,,,280519,,*2B
$GPGSA,A,1,,,,,,,,,,,,,,,*1E
$BDGSA,A,1,,,,,,,,,,,,,,,*0F
$GLGSA,A,1,,,,,,,,,,,,,,,*02
$B3CN0,0,0,0,0,0,0,0,0,0,0,0,0,0,0*4C
$ini_pos,lastpos_good = 1,ini_pos.x:-1578917.000000,ini_pos.y:5312772.000000,ini_pos.z:3146357.000000
$rtc_local_time,localRTC.weeks:2055,localRTC.seconds:206095.026011,localGtime.weeks:2055,localGtime.seconds:206095.829390
$pseudo_cd_ph,prn:2,pseudo_cd_ph:4.689276589909
measnum = 0,full_prange = 22627368.220598
$oldmeas,msRange:0.000000,x:12729664.328339,y:21690784.598185,z:9378872.354383,vx:-961.117493,vy:-593.592285,vz:2848.696533,tb:-0.000223818413
$newmeas,x:12729736.869589,y:21690829.400070,z:9378657.343400,vx:-961.096313,vy:-593.577820,vz:2848.711182,tb:-0.000223818412
$pseudo_cd_ph,prn:6,pseudo_cd_ph:11.439575322096
measnum = 1,full_prange = 20728833.896958
$oldmeas,msRange:69.131012,x:694069.185842,y:19230788.323872,z:18333384.717698,vx:-1654.340698,vy:-1627.099121,vz:1776.885010,tb:0.000193651487
$newmeas,x:694183.572895,y:19230900.827773,z:18333261.855928,vx:-1654.323486,vy:-1627.094604,vz:1776.911865,tb:0.000193651488
$pseudo_cd_ph,prn:9,pseudo_cd_ph:18.945829822171
measnum = 2,full_prange = 24537096.209950
$oldmeas,msRange:81.833720,x:-24924908.822791,y:8424734.541236,z:-3720690.862267,vx:-523.942139,vy:-190.850876,vz:3108.989014,tb:0.000402901708
$newmeas,x:-24924865.938493,y:8424750.161603,z:-3720945.323253,vx:-523.972351,vy:-190.846146,vz:3108.982666,tb:0.000402901709
$pseudo_cd_ph,prn:12,pseudo_cd_ph:0.414573266709
measnum = 3,full_prange = 24047471.590645
$oldmeas,msRange:80.200484,x:13400372.678755,y:5905303.042673,z:21944195.864015,vx:-1046.968018,vy:2631.634766,vz:-51.654354,tb:0.000238433221
$newmeas,x:13400456.660493,y:5905091.949617,z:21944200.005871,vx:-1046.981201,vy:2631.630127,vz:-51.616142,tb:0.000238433221
$pseudo_cd_ph,prn:17,pseudo_cd_ph:9.541509879999
measnum = 4,full_prange = 21258431.355145
$oldmeas,msRange:70.897573,x:-14326153.588358,y:14162203.875430,z:17670553.705495,vx:-2154.132568,vy:219.709198,vz:-1976.419312,tb:0.000062133009
$newmeas,x:-14326000.837124,y:14162188.295985,z:17670693.853443,vx:-2154.150391,vy:219.702377,vz:-1976.393311,tb:0.000062133008
$pseudo_cd_ph,prn:19,pseudo_cd_ph:11.250967695100
measnum = 5,full_prange = 20633304.264786
$oldmeas,msRange:68.812315,x:-7148706.780837,y:14679326.668648,z:20662575.897167,vx:-2677.258057,vy:224.531143,vz:-1062.952026,tb:-0.000313608699
$newmeas,x:-7148522.517408,y:14679311.215577,z:20662649.054085,vx:-2677.268311,vy:224.520935,vz:-1062.921021,tb:-0.000313608699
$pseudo_cd_ph,prn:28,pseudo_cd_ph:7.216267739573
measnum = 6,full_prange = 22167077.175122
$oldmeas,msRange:73.928671,x:-13039185.281077,y:22578229.207844,z:-4713452.730264,vx:69.963066,vy:-701.427979,vz:-3141.111816,tb:0.000767807085
$newmeas,x:-13039190.453950,y:22578281.071397,z:-4713220.471749,vx:69.955093,vy:-701.400330,vz:-3141.119385,tb:0.000767807085
source>=tow,snapshot
nits = 2
$GNGGA,091437.766,2944.9099,N,10633.0913,E,1,15,0.0,341.1,M,,,,0000*13
$GNRMC,091437.766,A,2944.9099,N,10633.0913,E,0.00,0.00,280519,,*1B
$GPGSA,A,3,02,06,09,12,17,19,28,,,,,,0.0,0.0,0.0*38
$BDGSA,A,3,04,08,10,12,13,19,22,26,,,,,0.0,0.0,0.0*23
$GLGSA,A,3,,,,,,,,,,,,,0.0,0.0,0.0*2E
$GPGSV,2,1,08,02,00,000,26,04,00,000,25,06,00,000,26,09,00,000,25*7B
$GPGSV,2,2,08,12,00,000,25,17,00,000,25,19,00,000,25,28,00,000,25*76
$BDGSV,2,1,08,04,00,000,40,08,00,000,24,10,00,000,24,12,00,000,24*6F
$BDGSV,2,2,08,13,00,000,24,19,00,000,23,22,00,000,23,26,00,000,23*69
$B3CN0,0,0,0,0,0,0,0,0,0,0,0,0,0,0*4C
$ini_pos,lastpos_good = 1,ini_pos.x:-1578915.870062,ini_pos.y:5312782.521969,ini_pos.z:3146368.441586
$rtc_local_time,localRTC.weeks:2055,localRTC.seconds:206096.026011,localGtime.weeks:2055,localGtime.seconds:206096.829390
$pseudo_cd_ph,prn:2,pseudo_cd_ph:4.690798687679
measnum = 0,full_prange = 22626902.230539
$oldmeas,msRange:0.000000,x:12728703.070224,y:21690190.910161,z:9381720.954161,vx:-961.398804,vy:-593.783813,vz:2848.503174,tb:-0.000223818418
$newmeas,x:12728775.631209,y:21690235.725580,z:9381505.962202,vx:-961.377563,vy:-593.769348,vz:2848.517822,tb:-0.000223818418
$pseudo_cd_ph,prn:6,pseudo_cd_ph:11.440142000409
measnum = 1,full_prange = 20728654.337051
$oldmeas,msRange:69.131053,x:692414.721013,y:19229161.192477,z:18335161.407967,vx:-1654.588989,vy:-1627.163818,vz:1776.495728,tb:0.000193651477
$newmeas,x:692529.124246,y:19229273.699874,z:18335038.574176,vx:-1654.571899,vy:-1627.159302,vz:1776.522583,tb:0.000193651478
$pseudo_cd_ph,prn:9,pseudo_cd_ph:18.947823749143
measnum = 2,full_prange = 24536488.768245
$oldmeas,msRange:81.832409,x:-24925432.580291,y:8424543.661465,z:-3717581.833786,vx:-523.572937,vy:-190.908691,vz:3109.068115,tb:0.000402901701
$newmeas,x:-24925389.727273,y:8424559.286177,z:-3717836.294941,vx:-523.603149,vy:-190.903961,vz:3109.061523,tb:0.000402901702
$pseudo_cd_ph,prn:12,pseudo_cd_ph:0.417328708682
measnum = 3,full_prange = 24046635.854708
$oldmeas,msRange:80.198357,x:13399325.792900,y:5907934.705221,z:21944143.971482,vx:-1046.803711,vy:2631.690674,vz:-52.130714,tb:0.000238433215
$newmeas,x:13399409.758546,y:5907723.615017,z:21944148.151404,vx:-1046.816895,vy:2631.686035,vz:-52.092506,tb:0.000238433215
$pseudo_cd_ph,prn:17,pseudo_cd_ph:9.542061538174
measnum = 4,full_prange = 21258256.304049
$oldmeas,msRange:70.897644,x:-14328307.594460,y:14162423.632670,z:17668577.103231,vx:-2153.879883,vy:219.805298,vz:-1976.785400,tb:0.000062133018
$newmeas,x:-14328154.862397,y:14162408.046538,z:17668717.275983,vx:-2153.897705,vy:219.798477,vz:-1976.759399,tb:0.000062133018
$pseudo_cd_ph,prn:19,pseudo_cd_ph:11.251883729579
measnum = 5,full_prange = 20633019.978108
$oldmeas,msRange:68.812008,x:-7151383.963399,y:14679551.273886,z:20661512.719716,vx:-2677.107178,vy:224.679337,vz:-1063.402954,tb:-0.000313608697
$newmeas,x:-7151199.712884,y:14679535.810828,z:20661585.906661,vx:-2677.117676,vy:224.669144,vz:-1063.371948,tb:-0.000313608697
$pseudo_cd_ph,prn:28,pseudo_cd_ph:7.215172388220
measnum = 6,full_prange = 22167395.886700
$oldmeas,msRange:73.930432,x:-13039115.264116,y:22577527.592848,z:-4716593.791456,vx:70.070854,vy:-701.802063,vz:-3141.010742,tb:0.000767807084
$newmeas,x:-13039120.445033,y:22577579.484804,z:-4716361.537075,vx:70.062881,vy:-701.774353,vz:-3141.018311,tb:0.000767807084
source>=tow,snapshot
nits = 2
$GNGGA,091438.764,2944.9090,N,10633.0909,E,1,15,0.0,337.2,M,,,,0000*1E
$GNRMC,091438.764,A,2944.9090,N,10633.0909,E,0.00,0.00,280519,,*14
$GPGSA,A,3,02,06,09,12,17,19,28,,,,,,0.0,0.0,0.0*38
$BDGSA,A,3,04,08,10,12,13,19,22,26,,,,,0.0,0.0,0.0*23
$GLGSA,A,3,,,,,,,,,,,,,0.0,0.0,0.0*2E
$GPGSV,2,1,08,02,00,000,40,04,00,000,38,06,00,000,45,09,00,000,38*7E
$GPGSV,2,2,08,12,00,000,39,17,00,000,46,19,00,000,44,28,00,000,43*79
$BDGSV,2,1,08,04,00,000,39,08,00,000,43,10,00,000,42,12,00,000,42*60
$BDGSV,2,2,08,13,00,000,43,19,00,000,44,22,00,000,45,26,00,000,43*6F
$B3CN0,0,0,0,0,0,0,0,0,0,0,0,0,0,0*4C
$ini_pos,lastpos_good = 1,ini_pos.x:-1578914.494443,ini_pos.y:5312780.182577,ini_pos.z:3146365.170910
$rtc_local_time,localRTC.weeks:2055,localRTC.seconds:206097.026011,localGtime.weeks:2055,localGtime.seconds:206097.829390
$pseudo_cd_ph,prn:2,pseudo_cd_ph:4.692321024100
measnum = 0,full_prange = 22626436.177939
$oldmeas,msRange:0.000000,x:12727741.530844,y:21689597.030628,z:9384569.360537,vx:-961.680054,vy:-593.975281,vz:2848.309814,tb:-0.000223818424
$newmeas,x:12727814.111563,y:21689641.859576,z:9384354.387605,vx:-961.658813,vy:-593.960815,vz:2848.324463,tb:-0.000223818423
$pseudo_cd_ph,prn:6,pseudo_cd_ph:11.440714682302
measnum = 1,full_prange = 20728472.981308
$oldmeas,msRange:69.131159,x:690760.007859,y:19227533.996466,z:18336937.708963,vx:-1654.837402,vy:-1627.228394,vz:1776.106445,tb:0.000193651467
$newmeas,x:690874.427261,y:19227646.507344,z:18336814.903163,vx:-1654.820190,vy:-1627.223877,vz:1776.133301,tb:0.000193651468
$pseudo_cd_ph,prn:9,pseudo_cd_ph:18.949819354135
measnum = 2,full_prange = 24535880.835142
$oldmeas,msRange:81.831091,x:-24925955.968579,y:8424352.723853,z:-3714472.726301,vx:-523.203674,vy:-190.966553,vz:3109.146973,tb:0.000402901694
$newmeas,x:-24925913.146840,y:8424368.352913,z:-3714727.187615,vx:-523.233948,vy:-190.961823,vz:3109.140625,tb:0.000402901695
$pseudo_cd_ph,prn:12,pseudo_cd_ph:0.420086044953
measnum = 3,full_prange = 24045799.555898
$oldmeas,msRange:80.196269,x:13398279.071295,y:5910566.423629,z:21944091.602591,vx:-1046.639526,vy:2631.746338,vz:-52.607071,tb:0.000238433209
$newmeas,x:13398363.020846,y:5910355.336289,z:21944095.820575,vx:-1046.652710,vy:2631.741943,vz:-52.568863,tb:0.000238433210
$pseudo_cd_ph,prn:17,pseudo_cd_ph:9.542617313090
measnum = 4,full_prange = 21258080.019992
$oldmeas,msRange:70.897767,x:-14330461.347907,y:14162643.485991,z:17666600.134920,vx:-2153.627197,vy:219.901352,vz:-1977.151367,tb:0.000062133028
$newmeas,x:-14330308.635028,y:14162627.893176,z:17666740.332465,vx:-2153.645020,vy:219.894547,vz:-1977.125488,tb:0.000062133027
$pseudo_cd_ph,prn:19,pseudo_cd_ph:11.252806162904
measnum = 5,full_prange = 20632733.770510
$oldmeas,msRange:68.811763,x:-7154060.995180,y:14679776.027312,z:20660449.091345,vx:-2676.956543,vy:224.827515,vz:-1063.853882,tb:-0.000313608696
$newmeas,x:-7153876.757600,y:14679760.554270,z:20660522.308308,vx:-2676.966797,vy:224.817322,vz:-1063.822876,tb:-0.000313608696
$pseudo_cd_ph,prn:28,pseudo_cd_ph:7.214072942501
measnum = 6,full_prange = 22167715.822306
$oldmeas,msRange:73.932209,x:-13039045.139396,y:22576825.603811,z:-4719734.751543,vx:70.178581,vy:-702.176086,vz:-3140.909668,tb:0.000767807083
$newmeas,x:-13039050.328354,y:22576877.524174,z:-4719502.501288,vx:70.170624,vy:-702.148438,vz:-3140.916992,tb:0.000767807083
$GNGGA,091439.760,2944.9074,N,10633.0921,E,1,08,1.1,333.9,M,,,,0000*18
$GNRMC,091439.760,A,2944.9074,N,10633.0921,E,0.07,0.00,280519,,*16
$GPGSA,A,3,,,,,,,,,,,,,2.5,1.1,2.3*34
$BDGSA,A,3,04,08,10,12,13,19,22,26,,,,,2.5,1.1,2.3*25
$GLGSA,A,3,,,,,,,,,,,,,2.5,1.1,2.3*28
$GPGSV,3,1,09,02,35,269,41,04,00,000,38,06,63,318,45,09,11,116,38*7D
$GPGSV,3,2,09,12,14,321,40,17,56,056,45,19,60,015,44,28,36,160,43*71
$GPGSV,3,3,09,05,07,205,00*45
$BDGSV,3,1,12,04,23,109,40,08,58,001,42,10,57,204,42,12,51,337,41*64
$BDGSV,3,2,12,13,58,303,43,19,31,058,43,22,50,128,44,26,21,211,43*6E
$BDGSV,3,3,12,01,40,126,00,02,48,220,00,03,56,171,00,05,28,246,00*6D
$B3CN0,0,0,0,0,0,0,0,0,0,0,0,0,0,0*4C
$ini_pos,lastpos_good = 1,ini_pos.x:-1578915.945658,ini_pos.y:5312778.368018,ini_pos.z:3146360.945191
$rtc_local_time,localRTC.weeks:2055,localRTC.seconds:206098.265632,localGtime.weeks:2055,localGtime.seconds:206099.000000
$pseudo_cd_ph,prn:2,pseudo_cd_ph:4.315435773117
measnum = 0,full_prange = 22622527.916880
$oldmeas,msRange:0.000000,x:12726615.585765,y:21688901.586004,z:9387903.488067,vx:-962.009338,vy:-594.199402,vz:2848.083252,tb:-0.000223818430
$newmeas,x:12726688.178794,y:21688946.424118,z:9387688.569358,vx:-961.988098,vy:-594.184937,vz:2848.097900,tb:-0.000223818430
$pseudo_cd_ph,prn:6,pseudo_cd_ph:11.062659061316
measnum = 1,full_prange = 20724915.585866
$oldmeas,msRange:69.131284,x:688822.668434,y:19225629.102344,z:18339016.570267,vx:-1655.128052,vy:-1627.303833,vz:1775.650635,tb:0.000193651455
$newmeas,x:688937.088293,y:19225741.599134,z:18338893.817050,vx:-1655.110840,vy:-1627.299438,vz:1775.677612,tb:0.000193651456
$pseudo_cd_ph,prn:9,pseudo_cd_ph:18.573525847345
measnum = 2,full_prange = 24531795.169883
$oldmeas,msRange:81.829538,x:-24926568.183133,y:8424129.136798,z:-3710833.073345,vx:-522.771484,vy:-191.034363,vz:3109.239502,tb:0.000402901686
$newmeas,x:-24926525.403891,y:8424144.768804,z:-3711087.499844,vx:-522.801697,vy:-191.029617,vz:3109.232910,tb:0.000402901686
$pseudo_cd_ph,prn:12,pseudo_cd_ph:0.044738307144
measnum = 3,full_prange = 24041430.363326
$oldmeas,msRange:80.193832,x:13397053.977107,y:5913647.210700,z:21944029.693841,vx:-1046.447144,vy:2631.811768,vz:-53.164696,tb:0.000238433202
$newmeas,x:13397137.895981,y:5913436.156480,z:21944033.955777,vx:-1046.460327,vy:2631.807129,vz:-53.126495,tb:0.000238433203
$pseudo_cd_ph,prn:17,pseudo_cd_ph:9.164542249454
measnum = 4,full_prange = 21254528.456661
$oldmeas,msRange:70.897905,x:-14332982.232424,y:14162900.970525,z:17664285.410816,vx:-2153.331299,vy:220.013748,vz:-1977.579834,tb:0.000062133038
$newmeas,x:-14332829.566034,y:14162885.372346,z:17664425.615313,vx:-2153.349121,vy:220.006943,vz:-1977.553833,tb:0.000062133038
$pseudo_cd_ph,prn:19,pseudo_cd_ph:10.875186260145
measnum = 5,full_prange = 20629045.747757
$oldmeas,msRange:68.811473,x:-7157194.564012,y:14680039.314179,z:20659203.424367,vx:-2676.779785,vy:225.000946,vz:-1064.381714,tb:-0.000313608693
$newmeas,x:-7157010.371518,y:14680023.831970,z:20659276.664562,vx:-2676.790283,vy:224.990753,vz:-1064.350586,tb:-0.000313608694
$pseudo_cd_ph,prn:28,pseudo_cd_ph:6.833943878800
measnum = 6,full_prange = 22164780.030808
$oldmeas,msRange:73.934282,x:-13038962.913855,y:22576003.373126,z:-4723411.462652,vx:70.304626,vy:-702.613953,vz:-3140.791016,tb:0.000767807082
$newmeas,x:-13038968.111446,y:22576055.318986,z:-4723179.251915,vx:70.296669,vy:-702.586304,vz:-3140.798584,tb:0.000767807082
$GNGGA,091441.000,2944.9071,N,10633.0916,E,1,08,1.1,333.3,M,,,,0000*1D
$GNRMC,091441.000,A,2944.9071,N,10633.0916,E,0.26,0.00,280519,,*1A
$GPGSA,A,3,,,,,,,,,,,,,2.5,1.1,2.3*34
$BDGSA,A,3,04,08,10,12,13,19,22,26,,,,,2.5,1.1,2.3*25
$GLGSA,A,3,,,,,,,,,,,,,2.5,1.1,2.3*28
$GPGSV,3,1,09,02,35,269,40,04,00,000,38,06,63,318,44,09,11,116,39*7C
$GPGSV,3,2,09,12,14,321,40,17,56,056,45,19,60,015,43,28,36,160,43*76
$GPGSV,3,3,09,05,07,205,00*45
$BDGSV,3,1,12,04,23,109,38,08,58,001,42,10,57,204,41,12,51,337,41*68
$BDGSV,3,2,12,13,58,303,43,19,31,058,43,22,50,128,44,26,21,211,43*6E
$BDGSV,3,3,12,01,40,126,00,02,48,220,00,03,56,171,00,05,28,246,00*6D
$B3CN0,0,0,0,0,0,0,0,0,0,0,0,0,0,0*4C
$ini_pos,lastpos_good = 1,ini_pos.x:-1578915.050668,ini_pos.y:5312778.279437,ini_pos.z:3146360.205864
$rtc_local_time,localRTC.weeks:2055,localRTC.seconds:206099.265632,localGtime.weeks:2055,localGtime.seconds:206100.000000
$pseudo_cd_ph,prn:2,pseudo_cd_ph:4.316955655901
measnum = 0,full_prange = 22622062.596910
$oldmeas,msRange:0.000000,x:12725653.435830,y:21688307.290962,z:9390751.474444,vx:-962.290588,vy:-594.390747,vz:2847.889648,tb:-0.000223818436
$newmeas,x:12725726.048592,y:21688352.142595,z:9390536.574762,vx:-962.269409,vy:-594.376282,vz:2847.904297,tb:-0.000223818436
$pseudo_cd_ph,prn:6,pseudo_cd_ph:11.063236173180
measnum = 1,full_prange = 20724732.898881
$oldmeas,msRange:69.131380,x:687167.416320,y:19224001.766288,z:18340792.026174,vx:-1655.376343,vy:-1627.368286,vz:1775.261230,tb:0.000193651445
$newmeas,x:687281.852334,y:19224114.266543,z:18340669.300956,vx:-1655.359131,vy:-1627.363892,vz:1775.288208,tb:0.000193651446
$pseudo_cd_ph,prn:9,pseudo_cd_ph:18.575519431255
measnum = 2,full_prange = 24531187.835393
$oldmeas,msRange:81.828220,x:-24927090.770007,y:8423938.073460,z:-3707723.794600,vx:-522.402283,vy:-191.092331,vz:3109.318359,tb:0.000402901679
$newmeas,x:-24927048.022036,y:8423953.709823,z:-3707978.221251,vx:-522.432495,vy:-191.087585,vz:3109.311768,tb:0.000402901679
$pseudo_cd_ph,prn:12,pseudo_cd_ph:206099900.047503590584
measnum = 3,full_prange = 24040591.679001
$oldmeas,msRange:80.191738,x:13396007.612116,y:5916279.050129,z:21943976.290969,vx:-1046.282837,vy:2631.867432,vz:-53.641052,tb:0.000238433197
$newmeas,x:13396091.514886,y:5916067.998807,z:21943980.590955,vx:-1046.296021,vy:2631.862793,vz:-53.602852,tb:0.000238433197
$pseudo_cd_ph,prn:17,pseudo_cd_ph:9.165102096364
measnum = 4,full_prange = 21254350.957510
$oldmeas,msRange:70.898018,x:-14335135.437291,y:14163121.032257,z:17662307.648093,vx:-2153.078613,vy:220.109726,vz:-1977.945801,tb:0.000062133048
$newmeas,x:-14334982.790097,y:14163105.427405,z:17662447.877363,vx:-2153.096436,vy:220.102921,vz:-1977.919800,tb:0.000062133047
$pseudo_cd_ph,prn:19,pseudo_cd_ph:10.876116002177
measnum = 5,full_prange = 20628757.351203
$oldmeas,msRange:68.811218,x:-7159871.268280,y:14680264.389175,z:20658138.817308,vx:-2676.628906,vy:225.149063,vz:-1064.832520,tb:-0.000313608692
$newmeas,x:-7159687.088748,y:14680248.896990,z:20658212.087502,vx:-2676.639160,vy:225.138870,vz:-1064.801514,tb:-0.000313608692
$pseudo_cd_ph,prn:28,pseudo_cd_ph:6.832850138346
measnum = 6,full_prange = 22165098.259922
$oldmeas,msRange:73.936056,x:-13038892.555415,y:22575300.572165,z:-4726552.203044,vx:70.412247,vy:-702.988037,vz:-3140.689941,tb:0.000767807081
$newmeas,x:-13038897.761037,y:22575352.546428,z:-4726319.996462,vx:70.404289,vy:-702.960388,vz:-3140.697266,tb:0.000767807081
$pseudo_cd_ph,prn:5,pseudo_cd_ph:16.808382073456
measnum = 7,full_prange = 24940414.713604
$oldmeas,msRange:83.192945,x:4585442.821516,y:21638494.082893,z:-14672320.538575,vx:-756.691467,vy:1709.442627,vz:2323.718994,tb:0.000000798234
$newmeas,x:4585505.773007,y:21638351.869665,z:-14672513.852938,vx:-756.706116,vy:1709.462280,vz:2323.692871,tb:0.000000798234
$GNGGA,091442.000,2944.9071,N,10633.0915,E,1,09,99.0,333.8,M,,,,0000*27
$GNRMC,091442.000,A,2944.9071,N,10633.0915,E,0.38,0.00,280519,,*15
$GPGSA,A,3,12,,,,,,,,,,,,99.0,99.0,99.0*01
$BDGSA,A,3,04,08,10,12,13,19,22,26,,,,,99.0,99.0,99.0*13
$GLGSA,A,3,,,,,,,,,,,,,99.0,99.0,99.0*1E
$GPGSV,3,1,09,02,35,269,40,04,00,000,38,06,63,318,45,09,11,116,38*7C
$GPGSV,3,2,09,12,14,321,39,17,56,056,45,19,60,015,44,28,36,160,42*7E
$GPGSV,3,3,09,05,07,205,33*45
$BDGSV,3,1,12,04,23,109,41,08,58,001,42,10,57,204,42,12,51,337,42*66
$BDGSV,3,2,12,13,58,303,43,19,31,058,43,22,50,128,44,26,21,211,42*6F
$BDGSV,3,3,12,01,40,126,00,02,48,220,00,03,56,171,00,05,28,246,00*6D
$B3CN0,0,0,0,0,0,0,0,0,0,0,0,0,0,0*4C
$ini_pos,lastpos_good = 1,ini_pos.x:-1578915.079137,ini_pos.y:5312778.801147,ini_pos.z:3146360.407056
$rtc_local_time,localRTC.weeks:2055,localRTC.seconds:206100.265632,localGtime.weeks:2055,localGtime.seconds:206101.000000
$pseudo_cd_ph,prn:2,pseudo_cd_ph:4.318467044178
measnum = 0,full_prange = 22621599.823276
$oldmeas,msRange:0.000000,x:12724691.004593,y:21687712.804580,z:9393599.267237,vx:-962.571899,vy:-594.582031,vz:2847.696045,tb:-0.000223818442
$newmeas,x:12724763.637096,y:21687757.669732,z:9393384.386561,vx:-962.550720,vy:-594.567627,vz:2847.710693,tb:-0.000223818441
$pseudo_cd_ph,prn:6,pseudo_cd_ph:11.063809347293
measnum = 1,full_prange = 20724551.400185
$oldmeas,msRange:69.131472,x:685511.915934,y:19222374.365814,z:18342567.092689,vx:-1655.624512,vy:-1627.432739,vz:1774.871826,tb:0.000193651435
$newmeas,x:685626.368109,y:19222486.869534,z:18342444.395465,vx:-1655.607422,vy:-1627.428223,vz:1774.898804,tb:0.000193651436
$pseudo_cd_ph,prn:9,pseudo_cd_ph:18.577506444787
measnum = 2,full_prange = 24530582.475429
$oldmeas,msRange:81.826900,x:-24927612.987670,y:8423746.952118,z:-3704614.437061,vx:-522.033081,vy:-191.150360,vz:3109.396973,tb:0.000402901672
$newmeas,x:-24927570.270965,y:8423762.592844,z:-3704868.863878,vx:-522.063293,vy:-191.145615,vz:3109.390625,tb:0.000402901672
$pseudo_cd_ph,prn:12,pseudo_cd_ph:206100900.050264626741
measnum = 3,full_prange = 24039754.272311
$oldmeas,msRange:80.189645,x:13394961.411458,y:5918910.945207,z:21943922.411744,vx:-1046.118530,vy:2631.922852,vz:-54.117401,tb:0.000238433191
$newmeas,x:13395045.298126,y:5918699.896777,z:21943926.749778,vx:-1046.131714,vy:2631.918457,vz:-54.079205,tb:0.000238433191
$pseudo_cd_ph,prn:17,pseudo_cd_ph:9.165658624524
measnum = 4,full_prange = 21254174.450088
$oldmeas,msRange:70.898127,x:-14337288.389350,y:14163341.189939,z:17660329.519448,vx:-2152.825684,vy:220.205658,vz:-1978.311646,tb:0.000062133057
$newmeas,x:-14337135.761348,y:14163325.578416,z:17660469.773495,vx:-2152.843750,vy:220.198853,vz:-1978.285767,tb:0.000062133056
$pseudo_cd_ph,prn:19,pseudo_cd_ph:10.877042552243
measnum = 5,full_prange = 20628469.910643
$oldmeas,msRange:68.810958,x:-7162547.821560,y:14680489.612279,z:20657073.759405,vx:-2676.477783,vy:225.297150,vz:-1065.283325,tb:-0.000313608690
$newmeas,x:-7162363.654985,y:14680474.110119,z:20657147.059600,vx:-2676.488281,vy:225.286972,vz:-1065.252319,tb:-0.000313608690
$pseudo_cd_ph,prn:28,pseudo_cd_ph:6.831746799622
measnum = 6,full_prange = 22165419.365948
$oldmeas,msRange:73.937828,x:-13038822.089384,y:22574597.397138,z:-4729692.842115,vx:70.519814,vy:-703.362061,vz:-3140.588379,tb:0.000767807080
$newmeas,x:-13038827.303034,y:22574649.399810,z:-4729460.639662,vx:70.511856,vy:-703.334412,vz:-3140.595947,tb:0.000767807080
$pseudo_cd_ph,prn:5,pseudo_cd_ph:16.811534706332
measnum = 7,full_prange = 24939459.909065
$oldmeas,msRange:83.190515,x:4584686.218024,y:21640203.407590,z:-14669996.663377,vx:-756.515564,vy:1709.206787,vz:2324.031738,tb:0.000000798234
$newmeas,x:4584749.152468,y:21640061.219423,z:-14670189.996359,vx:-756.530151,vy:1709.226440,vz:2324.005615,tb:0.000000798234
$GNGGA,091443.000,2944.9070,N,10633.0915,E,1,09,1.0,333.7,M,,,,0000*19
$GNRMC,091443.000,A,2944.9070,N,10633.0915,E,0.29,0.00,280519,,*15
$GPGSA,A,3,12,,,,,,,,,,,,1.1,1.0,0.5*35
$BDGSA,A,3,04,08,10,12,13,19,22,26,,,,,1.1,1.0,0.5*27
$GLGSA,A,3,,,,,,,,,,,,,1.1,1.0,0.5*2A
$GPGSV,3,1,09,02,35,269,40,04,00,000,38,06,63,318,45,09,11,116,38*7C
$GPGSV,3,2,09,12,14,321,39,17,56,056,45,19,60,015,44,28,36,160,42*7E
$GPGSV,3,3,09,05,07,205,35*43
$BDGSV,3,1,12,05,28,246,24,04,23,109,39,08,58,001,42,10,57,204,41*65
$BDGSV,3,2,12,12,51,337,42,13,58,303,43,19,31,058,43,22,50,128,44*6A
$BDGSV,3,3,12,26,21,211,43,01,40,126,00,02,48,220,00,03,56,171,00*60
$B3CN0,0,0,0,0,0,0,0,0,0,0,0,0,0,0*4C
$ini_pos,lastpos_good = 1,ini_pos.x:-1578914.989053,ini_pos.y:5312778.832795,ini_pos.z:3146360.209104
$rtc_local_time,localRTC.weeks:2055,localRTC.seconds:206101.265632,localGtime.weeks:2055,localGtime.seconds:206102.000000
$pseudo_cd_ph,prn:2,pseudo_cd_ph:206101924.319980502129
measnum = 0,full_prange = 22621136.433161
$oldmeas,msRange:0.000000,x:12723728.292043,y:21687118.126911,z:9396446.866389,vx:-962.853210,vy:-594.773315,vz:2847.502441,tb:-0.000223818447
$newmeas,x:12723800.944286,y:21687163.005575,z:9396232.004727,vx:-962.832031,vy:-594.758911,vz:2847.517090,tb:-0.000223818447
$pseudo_cd_ph,prn:6,pseudo_cd_ph:206101931.064388841391
measnum = 1,full_prange = 20724367.998439
$oldmeas,msRange:69.131567,x:683856.167294,y:19220746.900982,z:18344341.769774,vx:-1655.872803,vy:-1627.497070,vz:1774.482422,tb:0.000193651425
$newmeas,x:683970.635616,y:19220859.408154,z:18344219.100559,vx:-1655.855713,vy:-1627.492554,vz:1774.509399,tb:0.000193651426
$pseudo_cd_ph,prn:9,pseudo_cd_ph:206101918.579497814178
measnum = 2,full_prange = 24529975.811027
$oldmeas,msRange:81.825580,x:-24928134.836121,y:8423555.772724,z:-3701505.000794,vx:-521.663879,vy:-191.208450,vz:3109.475830,tb:0.000402901664
$newmeas,x:-24928092.150682,y:8423571.417815,z:-3701759.427758,vx:-521.694092,vy:-191.203690,vz:3109.469238,tb:0.000402901665
$pseudo_cd_ph,prn:12,pseudo_cd_ph:206101900.053028970957
measnum = 3,full_prange = 24038915.873891
$oldmeas,msRange:80.187552,x:13393915.375158,y:5921542.895867,z:21943868.056170,vx:-1045.954102,vy:2631.978516,vz:-54.593750,tb:0.000238433185
$newmeas,x:13393999.245720,y:5921331.850343,z:21943872.432249,vx:-1045.967285,vy:2631.974121,vz:-54.555553,tb:0.000238433186
$pseudo_cd_ph,prn:17,pseudo_cd_ph:206101929.166220605373
measnum = 4,full_prange = 21253996.307652
$oldmeas,msRange:70.898238,x:-14339441.088552,y:14163561.443530,z:17658351.024919,vx:-2152.572754,vy:220.301544,vz:-1978.677490,tb:0.000062133066
$newmeas,x:-14339288.479758,y:14163545.825339,z:17658491.303728,vx:-2152.590820,vy:220.294739,vz:-1978.651611,tb:0.000062133066
$pseudo_cd_ph,prn:19,pseudo_cd_ph:206101930.877974927425
measnum = 5,full_prange = 20628180.727852
$oldmeas,msRange:68.810700,x:-7165224.223784,y:14680714.983465,z:20656008.250684,vx:-2676.326660,vy:225.445221,vz:-1065.734131,tb:-0.000313608688
$newmeas,x:-7165040.070188,y:14680699.471334,z:20656081.580870,vx:-2676.337158,vy:225.435043,vz:-1065.703125,tb:-0.000313608688
$pseudo_cd_ph,prn:28,pseudo_cd_ph:206101926.830646455288
measnum = 6,full_prange = 22165739.569588
$oldmeas,msRange:73.939602,x:-13038751.515816,y:22573893.848035,z:-4732833.379796,vx:70.627319,vy:-703.736145,vz:-3140.487061,tb:0.000767807078
$newmeas,x:-13038756.737491,y:22573945.879117,z:-4732601.181488,vx:70.619377,vy:-703.708496,vz:-3140.494629,tb:0.000767807079
$pseudo_cd_ph,prn:5,pseudo_cd_ph:16.814687152762
measnum = 7,full_prange = 24938505.158133
$oldmeas,msRange:83.188085,x:4583929.790467,y:21641912.496443,z:-14667672.475439,vx:-756.339600,vy:1708.970947,vz:2324.344482,tb:0.000000798233
$newmeas,x:4583992.707867,y:21641770.333340,z:-14667865.827033,vx:-756.354248,vy:1708.990601,vz:2324.318359,tb:0.000000798233
$GNGGA,091444.000,2944.9071,N,10633.0914,E,1,09,1.0,332.4,M,,,,0000*1C
$GNRMC,091444.000,A,2944.9071,N,10633.0914,E,0.05,0.00,280519,,*1C
$GPGSA,A,3,12,,,,,,,,,,,,1.1,1.0,0.5*35
$BDGSA,A,3,04,08,10,12,13,19,22,26,,,,,1.1,1.0,0.5*27
$GLGSA,A,3,,,,,,,,,,,,,1.1,1.0,0.5*2A
$GPGSV,3,1,09,02,35,269,39,04,00,000,39,06,63,318,44,09,11,116,38*72
$GPGSV,3,2,09,12,14,321,39,17,56,056,45,19,60,015,44,28,36,160,41*7D
$GPGSV,3,3,09,05,07,205,33*45
$BDGSV,3,1,12,05,28,246,36,04,23,109,39,08,58,001,42,10,57,204,41*66
$BDGSV,3,2,12,12,51,337,42,13,58,303,42,19,31,058,43,22,50,128,43*6C
$BDGSV,3,3,12,26,21,211,42,01,40,126,00,02,48,220,00,03,56,171,00*61
$B3CN0,0,0,0,0,0,0,0,0,0,0,0,0,0,0*4C
$ini_pos,lastpos_good = 1,ini_pos.x:-1578914.530245,ini_pos.y:5312777.711098,ini_pos.z:3146359.698179
$rtc_local_time,localRTC.weeks:2055,localRTC.seconds:206102.265632,localGtime.weeks:2055,localGtime.seconds:206103.000000
$pseudo_cd_ph,prn:2,pseudo_cd_ph:206102924.321499556303
measnum = 0,full_prange = 22620671.363359
$oldmeas,msRange:0.000000,x:12722765.298169,y:21686523.258007,z:9399294.271841,vx:-963.134583,vy:-594.964539,vz:2847.308594,tb:-0.000223818453
$newmeas,x:12722837.970146,y:21686568.150176,z:9399079.429214,vx:-963.113342,vy:-594.950073,vz:2847.323242,tb:-0.000223818452
$pseudo_cd_ph,prn:6,pseudo_cd_ph:206102931.064967572689
measnum = 1,full_prange = 20724184.828990
$oldmeas,msRange:69.131665,x:682200.170415,y:19219119.371857,z:18346116.057392,vx:-1656.121094,vy:-1627.561279,vz:1774.092896,tb:0.000193651415
$newmeas,x:682314.654886,y:19219231.882476,z:18345993.416186,vx:-1656.103882,vy:-1627.556885,vz:1774.119873,tb:0.000193651415
$pseudo_cd_ph,prn:9,pseudo_cd_ph:206102918.581490844488
measnum = 2,full_prange = 24529368.646292
$oldmeas,msRange:81.824261,x:-24928656.315359,y:8423364.535225,z:-3698395.485863,vx:-521.294678,vy:-191.266571,vz:3109.554443,tb:0.000402901657
$newmeas,x:-24928613.661187,y:8423380.184684,z:-3698649.912964,vx:-521.324829,vy:-191.261810,vz:3109.547852,tb:0.000402901658
$pseudo_cd_ph,prn:12,pseudo_cd_ph:206102900.055790573359
measnum = 3,full_prange = 24038078.297445
$oldmeas,msRange:80.185459,x:13392869.503242,y:5924174.902042,z:21943813.224247,vx:-1045.789795,vy:2632.033936,vz:-55.070099,tb:0.000238433179
$newmeas,x:13392953.357700,y:5923963.859422,z:21943817.638368,vx:-1045.802979,vy:2632.029541,vz:-55.031902,tb:0.000238433180
$pseudo_cd_ph,prn:17,pseudo_cd_ph:206102929.166781842709
measnum = 4,full_prange = 21253818.388577
$oldmeas,msRange:70.898352,x:-14341593.534851,y:14163781.792987,z:17656372.164546,vx:-2152.319824,vy:220.397385,vz:-1979.043335,tb:0.000062133076
$newmeas,x:-14341440.945266,y:14163766.168132,z:17656512.468117,vx:-2152.337891,vy:220.390594,vz:-1979.017456,tb:0.000062133075
$pseudo_cd_ph,prn:19,pseudo_cd_ph:206102930.878906935453
measnum = 5,full_prange = 20627891.652276
$oldmeas,msRange:68.810445,x:-7167900.474889,y:14680940.502709,z:20654942.291167,vx:-2676.175537,vy:225.593277,vz:-1066.184937,tb:-0.000313608686
$newmeas,x:-7167716.334273,y:14680924.980609,z:20655015.651343,vx:-2676.186035,vy:225.583084,vz:-1066.153931,tb:-0.000313608686
$pseudo_cd_ph,prn:28,pseudo_cd_ph:206102926.829546004534
measnum = 6,full_prange = 22166059.808966
$oldmeas,msRange:73.941379,x:-13038680.834765,y:22573189.924849,z:-4735973.816020,vx:70.734779,vy:-704.110229,vz:-3140.385498,tb:0.000767807077
$newmeas,x:-13038686.064460,y:22573241.984342,z:-4735741.621861,vx:70.726837,vy:-704.082581,vz:-3140.393066,tb:0.000767807078
$pseudo_cd_ph,prn:5,pseudo_cd_ph:16.817822856288
measnum = 7,full_prange = 24937555.437330
$oldmeas,msRange:83.185657,x:4583173.538822,y:21643621.349400,z:-14665347.974809,vx:-756.163696,vy:1708.734985,vz:2324.656982,tb:0.000000798233
$newmeas,x:4583236.439194,y:21643479.211336,z:-14665541.345049,vx:-756.178345,vy:1708.754639,vz:2324.631104,tb:0.000000798233
$GNGGA,091445.000,2944.9070,N,10633.0913,E,1,10,0.9,331.9,M,,,,0000*15
$GNRMC,091445.000,A,2944.9070,N,10633.0913,E,0.26,0.00,280519,,*1A
$GPGSA,A,3,12,,,,,,,,,,,,1.1,0.9,0.5*3D
$BDGSA,A,3,04,05,08,10,12,13,19,22,26,,,,1.1,0.9,0.5*2A
$GLGSA,A,3,,,,,,,,,,,,,1.1,0.9,0.5*22
$GPGSV,3,1,09,02,35,269,40,04,00,000,38,06,63,318,46,09,11,116,38*7F
$GPGSV,3,2,09,12,14,321,40,17,56,056,45,19,60,015,45,28,36,160,42*71
$GPGSV,3,3,09,05,07,205,33*45
$BDGSV,3,1,12,05,28,246,36,25,00,000,20,04,23,109,39,08,58,001,42*63
$BDGSV,3,2,12,10,57,204,41,12,51,337,42,13,58,303,42,19,31,058,43*65
$BDGSV,3,3,12,22,50,128,44,26,21,211,42,01,40,126,00,02,48,220,00*68
$B3CN0,0,0,0,0,0,0,0,0,0,0,0,0,0,0*4C
$ini_pos,lastpos_good = 1,ini_pos.x:-1578914.249133,ini_pos.y:5312777.375655,ini_pos.z:3146359.316911
$rtc_local_time,localRTC.weeks:2055,localRTC.seconds:206103.265632,localGtime.weeks:2055,localGtime.seconds:206104.000000
$pseudo_cd_ph,prn:2,pseudo_cd_ph:206103924.323015093803
measnum = 0,full_prange = 22620207.347828
$oldmeas,msRange:0.000000,x:12721802.022960,y:21685928.197921,z:9402141.483536,vx:-963.415894,vy:-595.155701,vz:2847.114990,tb:-0.000223818458
$newmeas,x:12721874.714674,y:21685973.103593,z:9401926.659938,vx:-963.394653,vy:-595.141235,vz:2847.129395,tb:-0.000223818458
$pseudo_cd_ph,prn:6,pseudo_cd_ph:206103931.065546572208
measnum = 1,full_prange = 20724001.579130
$oldmeas,msRange:69.131761,x:680543.925315,y:19217491.778498,z:18347889.955506,vx:-1656.369263,vy:-1627.625488,vz:1773.703369,tb:0.000193651405
$newmeas,x:680658.425932,y:19217604.292562,z:18347767.342311,vx:-1656.352051,vy:-1627.621094,vz:1773.730347,tb:0.000193651405
$pseudo_cd_ph,prn:9,pseudo_cd_ph:206103918.583479404449
measnum = 2,full_prange = 24528762.821733
$oldmeas,msRange:81.822942,x:-24929177.425386,y:8423173.239571,z:-3695285.892337,vx:-520.925415,vy:-191.324753,vz:3109.632812,tb:0.000402901650
$newmeas,x:-24929134.802476,y:8423188.893404,z:-3695540.319582,vx:-520.955627,vy:-191.319992,vz:3109.626465,tb:0.000402901651
$pseudo_cd_ph,prn:12,pseudo_cd_ph:206103900.058560281992
measnum = 3,full_prange = 24037238.290813
$oldmeas,msRange:80.183367,x:13391823.795735,y:5926806.963664,z:21943757.915977,vx:-1045.625366,vy:2632.089355,vz:-55.546444,tb:0.000238433174
$newmeas,x:13391907.634080,y:5926595.923975,z:21943762.368137,vx:-1045.638550,vy:2632.084961,vz:-55.508251,tb:0.000238433174
$pseudo_cd_ph,prn:17,pseudo_cd_ph:206103929.167345404625
measnum = 4,full_prange = 21253639.772611
$oldmeas,msRange:70.898465,x:-14343745.728197,y:14164002.238269,z:17654392.938369,vx:-2152.066895,vy:220.493195,vz:-1979.409180,tb:0.000062133085
$newmeas,x:-14343593.157828,y:14163986.606753,z:17654533.266693,vx:-2152.084961,vy:220.486404,vz:-1979.383179,tb:0.000062133084
$pseudo_cd_ph,prn:19,pseudo_cd_ph:206103930.879838466644
measnum = 5,full_prange = 20627602.719652
$oldmeas,msRange:68.810189,x:-7170576.574808,y:14681166.169985,z:20653875.880879,vx:-2676.024414,vy:225.741287,vz:-1066.635742,tb:-0.000313608684
$newmeas,x:-7170392.447176,y:14681150.637918,z:20653949.271043,vx:-2676.034912,vy:225.731110,vz:-1066.604736,tb:-0.000313608684
$pseudo_cd_ph,prn:28,pseudo_cd_ph:206103926.828448295593
measnum = 6,full_prange = 22166379.226369
$oldmeas,msRange:73.943154,x:-13038610.046283,y:22572485.627571,z:-4739114.150717,vx:70.842178,vy:-704.484375,vz:-3140.283936,tb:0.000767807076
$newmeas,x:-13038615.283996,y:22572537.715475,z:-4738881.960721,vx:70.834244,vy:-704.456665,vz:-3140.291504,tb:0.000767807076
$pseudo_cd_ph,prn:5,pseudo_cd_ph:16.820949692414
measnum = 7,full_prange = 24936608.361143
$oldmeas,msRange:83.183228,x:4582417.463067,y:21645329.966407,z:-14663023.161536,vx:-755.987854,vy:1708.499023,vz:2324.969727,tb:0.000000798233
$newmeas,x:4582480.346420,y:21645187.853369,z:-14663216.550435,vx:-756.002441,vy:1708.518677,vz:2324.943604,tb:0.000000798233
$GNGGA,091446.000,2944.9070,N,10633.0912,E,1,10,0.9,331.2,M,,,,0000*1C
$GNRMC,091446.000,A,2944.9070,N,10633.0912,E,0.24,0.00,280519,,*1A
$GPGSA,A,3,12,,,,,,,,,,,,1.1,0.9,0.5*3D
$BDGSA,A,3,04,05,08,10,12,13,19,22,26,,,,1.1,0.9,0.5*2A
$GLGSA,A,3,,,,,,,,,,,,,1.1,0.9,0.5*22
$GPGSV,3,1,09,02,35,269,40,04,00,000,38,06,63,318,46,09,11,116,38*7F
$GPGSV,3,2,09,12,14,321,39,17,56,056,46,19,60,015,45,28,36,160,42*7C
$GPGSV,3,3,09,05,07,205,34*42
$BDGSV,3,1,12,05,28,246,37,25,00,000,39,04,23,109,39,08,58,001,42*6A
$BDGSV,3,2,12,10,57,204,42,12,51,337,42,13,58,303,43,19,31,058,43*67
$BDGSV,3,3,12,22,50,128,45,26,21,211,42,01,40,126,00,02,48,220,00*69
$B3CN0,0,0,0,0,0,0,0,0,0,0,0,0,0,0*4C
$ini_pos,lastpos_good = 1,ini_pos.x:-1578913.954430,ini_pos.y:5312776.850709,ini_pos.z:3146359.026376
$rtc_local_time,localRTC.weeks:2055,localRTC.seconds:206104.265632,localGtime.weeks:2055,localGtime.seconds:206105.000000
$pseudo_cd_ph,prn:2,pseudo_cd_ph:206104924.324538379908
measnum = 0,full_prange = 22619741.009326
$oldmeas,msRange:0.000000,x:12720838.466404,y:21685332.946708,z:9404988.501418,vx:-963.697266,vy:-595.346802,vz:2846.921143,tb:-0.000223818464
$newmeas,x:12720911.177848,y:21685377.865873,z:9404773.696874,vx:-963.676025,vy:-595.332336,vz:2846.935791,tb:-0.000223818463
$pseudo_cd_ph,prn:6,pseudo_cd_ph:206104931.066134035587
measnum = 1,full_prange = 20723815.791869
$oldmeas,msRange:69.131858,x:678887.432011,y:19215864.120970,z:18349663.464079,vx:-1656.617432,vy:-1627.689697,vz:1773.313843,tb:0.000193651395
$newmeas,x:679001.948759,y:19215976.638459,z:18349540.878912,vx:-1656.600342,vy:-1627.685181,vz:1773.340820,tb:0.000193651395
$pseudo_cd_ph,prn:9,pseudo_cd_ph:206104918.585474610329
measnum = 2,full_prange = 24528155.004779
$oldmeas,msRange:81.821623,x:-24929698.166201,y:8422981.885710,z:-3692176.220280,vx:-520.556213,vy:-191.382980,vz:3109.711426,tb:0.000402901643
$newmeas,x:-24929655.574555,y:8422997.543920,z:-3692430.647643,vx:-520.586426,vy:-191.378220,vz:3109.705078,tb:0.000402901644
$pseudo_cd_ph,prn:12,pseudo_cd_ph:206104900.061334908009
measnum = 3,full_prange = 24036396.809986
$oldmeas,msRange:80.181274,x:13390778.252664,y:5929439.080667,z:21943702.131364,vx:-1045.460938,vy:2632.144775,vz:-56.022785,tb:0.000238433168
$newmeas,x:13390862.074890,y:5929228.043928,z:21943706.621560,vx:-1045.474121,vy:2632.140381,vz:-55.984596,tb:0.000238433168
$pseudo_cd_ph,prn:17,pseudo_cd_ph:206104929.167915940285
measnum = 4,full_prange = 21253459.065969
$oldmeas,msRange:70.898577,x:-14345897.668542,y:14164222.779335,z:17652413.346427,vx:-2151.813965,vy:220.588959,vz:-1979.774902,tb:0.000062133094
$newmeas,x:-14345745.117408,y:14164207.141163,z:17652553.699487,vx:-2151.831787,vy:220.582169,vz:-1979.748901,tb:0.000062133094
$pseudo_cd_ph,prn:19,pseudo_cd_ph:206104930.880777031183
measnum = 5,full_prange = 20627311.678484
$oldmeas,msRange:68.809933,x:-7173252.523477,y:14681391.985268,z:20652809.019844,vx:-2675.873047,vy:225.889282,vz:-1067.086426,tb:-0.000313608683
$newmeas,x:-7173068.408852,y:14681376.443237,z:20652882.439986,vx:-2675.883545,vy:225.879105,vz:-1067.055420,tb:-0.000313608683
$pseudo_cd_ph,prn:28,pseudo_cd_ph:206104926.827357321978
measnum = 6,full_prange = 22166696.624572
$oldmeas,msRange:73.944930,x:-13038539.150425,y:22571780.956193,z:-4742254.383821,vx:70.949532,vy:-704.858459,vz:-3140.182373,tb:0.000767807075
$newmeas,x:-13038544.396150,y:22571833.072504,z:-4742022.198014,vx:70.941597,vy:-704.830811,vz:-3140.189941,tb:0.000767807075
$pseudo_cd_ph,prn:5,pseudo_cd_ph:16.824082189058
measnum = 7,full_prange = 24935659.596333
$oldmeas,msRange:83.180799,x:4581661.563178,y:21647038.347408,z:-14660698.035667,vx:-755.812012,vy:1708.263062,vz:2325.282227,tb:0.000000798232
$newmeas,x:4581724.429512,y:21646896.259410,z:-14660891.443208,vx:-755.826599,vy:1708.282715,vz:2325.256348,tb:0.000000798232
$GNGGA,091447.000,2944.9071,N,10633.0910,E,1,10,0.9,330.7,M,,,,0000*1A
$GNRMC,091447.000,A,2944.9071,N,10633.0910,E,0.40,0.00,280519,,*1A
$GPGSA,A,3,12,,,,,,,,,,,,1.1,0.9,0.5*3D
$BDGSA,A,3,04,05,08,10,12,13,19,22,26,,,,1.1,0.9,0.5*2A
$GLGSA,A,3,,,,,,,,,,,,,1.1,0.9,0.5*22
$GPGSV,3,1,10,02,35,269,41,04,00,000,38,06,63,318,46,09,11,116,38*76
$GPGSV,3,2,10,12,14,321,40,17,56,056,45,19,60,015,44,28,36,160,42*78
$GPGSV,3,3,10,05,07,205,34,03,00,000,21*7A
$BDGSV,3,1,12,05,28,246,36,25,00,000,38,04,23,109,40,08,58,001,42*64
$BDGSV,3,2,12,10,57,204,41,12,51,337,42,13,58,303,43,19,31,058,43*64
$BDGSV,3,3,12,22,50,128,44,26,21,211,42,01,40,126,00,02,48,220,00*68
$B3CN0,0,0,0,0,0,0,0,0,0,0,0,0,0,0*4C
$ini_pos,lastpos_good = 1,ini_pos.x:-1578913.539543,ini_pos.y:5312776.450819,ini_pos.z:3146358.847540
$rtc_local_time,localRTC.weeks:2055,localRTC.seconds:206105.265632,localGtime.weeks:2055,localGtime.seconds:206106.000000
$pseudo_cd_ph,prn:2,pseudo_cd_ph:206105924.326058208942
measnum = 0,full_prange = 22619275.707226
$oldmeas,msRange:0.000000,x:12719874.628490,y:21684737.504420,z:9407835.325428,vx:-963.978638,vy:-595.537842,vz:2846.727051,tb:-0.000223818470
$newmeas,x:12719947.359667,y:21684782.437076,z:9407620.539932,vx:-963.957397,vy:-595.523438,vz:2846.741699,tb:-0.000223818469
$pseudo_cd_ph,prn:6,pseudo_cd_ph:206105931.066715955734
measnum = 1,full_prange = 20723631.666427
$oldmeas,msRange:69.131954,x:677230.690521,y:19214236.399335,z:18351436.583072,vx:-1656.865601,vy:-1627.753662,vz:1772.924194,tb:0.000193651384
$newmeas,x:677345.223407,y:19214348.920253,z:18351314.025926,vx:-1656.848511,vy:-1627.749268,vz:1772.951172,tb:0.000193651385
$pseudo_cd_ph,prn:9,pseudo_cd_ph:206105918.587473571301
measnum = 2,full_prange = 24527546.062076
$oldmeas,msRange:81.820305,x:-24930218.537804,y:8422790.473593,z:-3689066.469759,vx:-520.187012,vy:-191.441269,vz:3109.789795,tb:0.000402901636
$newmeas,x:-24930175.977422,y:8422806.136182,z:-3689320.897222,vx:-520.217224,vy:-191.436493,vz:3109.783447,tb:0.000402901637
$pseudo_cd_ph,prn:12,pseudo_cd_ph:206105900.064104378223
measnum = 3,full_prange = 24035556.874829
$oldmeas,msRange:80.179181,x:13389732.874054,y:5932071.252984,z:21943645.870408,vx:-1045.296387,vy:2632.199951,vz:-56.499126,tb:0.000238433162
$newmeas,x:13389816.680164,y:5931860.219188,z:21943650.398637,vx:-1045.309570,vy:2632.195557,vz:-56.460938,tb:0.000238433162
$pseudo_cd_ph,prn:17,pseudo_cd_ph:206105929.168482303619
measnum = 4,full_prange = 21253279.610159
$oldmeas,msRange:70.898690,x:-14348049.355837,y:14164443.416144,z:17650433.388761,vx:-2151.560791,vy:220.684677,vz:-1980.140625,tb:0.000062133104
$newmeas,x:-14347896.823933,y:14164427.771318,z:17650573.766561,vx:-2151.578857,vy:220.677887,vz:-1980.114624,tb:0.000062133103
$pseudo_cd_ph,prn:19,pseudo_cd_ph:206105930.881712287664
measnum = 5,full_prange = 20627021.629046
$oldmeas,msRange:68.809676,x:-7175928.320829,y:14681617.948533,z:20651741.708087,vx:-2675.721680,vy:226.037262,vz:-1067.537109,tb:-0.000313608681
$newmeas,x:-7175744.219207,y:14681602.396540,z:20651815.158207,vx:-2675.732178,vy:226.027069,vz:-1067.506104,tb:-0.000313608681
$pseudo_cd_ph,prn:28,pseudo_cd_ph:206105926.826255828142
measnum = 6,full_prange = 22167017.176657
$oldmeas,msRange:73.946706,x:-13038468.147244,y:22571075.910707,z:-4745394.515262,vx:71.056831,vy:-705.232544,vz:-3140.080811,tb:0.000767807074
$newmeas,x:-13038473.400978,y:22571128.055434,z:-4745162.333618,vx:71.048897,vy:-705.204895,vz:-3140.088135,tb:0.000767807074
$pseudo_cd_ph,prn:5,pseudo_cd_ph:16.827207690227
measnum = 7,full_prange = 24934712.931133
$oldmeas,msRange:83.178370,x:4580905.839134,y:21648746.492351,z:-14658372.597254,vx:-755.636169,vy:1708.026978,vz:2325.594727,tb:0.000000798232
$newmeas,x:4580968.688457,y:21648604.429382,z:-14658566.023445,vx:-755.650757,vy:1708.046631,vz:2325.568848,tb:0.000000798232
$GNGGA,091448.000,2944.9070,N,10633.0910,E,1,10,0.9,330.7,M,,,,0000*14
$GNRMC,091448.000,A,2944.9070,N,10633.0910,E,0.47,0.00,280519,,*13
$GPGSA,A,3,12,,,,,,,,,,,,1.1,0.9,0.5*3D
$BDGSA,A,3,04,05,08,10,12,13,19,22,26,,,,1.1,0.9,0.5*2A
$GLGSA,A,3,,,,,,,,,,,,,1.1,0.9,0.5*22
$GPGSV,3,1,10,02,35,269,40,04,00,000,38,06,63,318,46,09,11,116,38*77
$GPGSV,3,2,10,12,14,321,40,17,56,056,45,19,60,015,44,28,36,160,43*79
$GPGSV,3,3,10,05,07,205,33,03,00,000,34*79
$BDGSV,3,1,12,05,28,246,37,25,00,000,39,04,23,109,41,08,58,001,42*65
$BDGSV,3,2,12,10,57,204,42,12,51,337,42,13,58,303,43,19,31,058,43*67
$BDGSV,3,3,12,22,50,128,44,26,21,211,43,01,40,126,00,02,48,220,00*69
$B3CN0,0,0,0,0,0,0,0,0,0,0,0,0,0,0*4C
$ini_pos,lastpos_good = 1,ini_pos.x:-1578913.456357,ini_pos.y:5312776.479590,ini_pos.z:3146358.747700
$rtc_local_time,localRTC.weeks:2055,localRTC.seconds:206106.265632,localGtime.weeks:2055,localGtime.seconds:206107.000000
$pseudo_cd_ph,prn:2,pseudo_cd_ph:206106924.327575981617
measnum = 0,full_prange = 22618811.021608
$oldmeas,msRange:0.000000,x:12718910.509207,y:21684141.871110,z:9410681.955510,vx:-964.260010,vy:-595.728821,vz:2846.533203,tb:-0.000223818475
$newmeas,x:12718983.260119,y:21684186.817253,z:9410467.189060,vx:-964.238770,vy:-595.714417,vz:2846.547852,tb:-0.000223818475
$pseudo_cd_ph,prn:6,pseudo_cd_ph:206106931.067297548056
measnum = 1,full_prange = 20723447.639265
$oldmeas,msRange:69.132049,x:675573.700860,y:19212608.613654,z:18353209.312449,vx:-1657.113770,vy:-1627.817749,vz:1772.534668,tb:0.000193651374
$newmeas,x:675688.249883,y:19212721.137999,z:18353086.783325,vx:-1657.096680,vy:-1627.813354,vz:1772.561523,tb:0.000193651375
$pseudo_cd_ph,prn:9,pseudo_cd_ph:206106918.589475154877
measnum = 2,full_prange = 24526936.333136
$oldmeas,msRange:81.818985,x:-24930738.540194,y:8422599.003167,z:-3685956.640839,vx:-519.817810,vy:-191.499603,vz:3109.868164,tb:0.000402901629
$newmeas,x:-24930696.011077,y:8422614.670139,z:-3686211.068389,vx:-519.848022,vy:-191.494827,vz:3109.861816,tb:0.000402901629
$pseudo_cd_ph,prn:12,pseudo_cd_ph:206106900.066872805357
measnum = 3,full_prange = 24034717.252381
$oldmeas,msRange:80.177089,x:13388687.659931,y:5934703.480548,z:21943589.133112,vx:-1045.131958,vy:2632.255371,vz:-56.975468,tb:0.000238433156
$newmeas,x:13388771.449925,y:5934492.449697,z:21943593.699372,vx:-1045.145142,vy:2632.250732,vz:-56.937279,tb:0.000238433157
$pseudo_cd_ph,prn:17,pseudo_cd_ph:206106929.169049143791
measnum = 4,full_prange = 21253100.011396
$oldmeas,msRange:70.898801,x:-14350200.790035,y:14164664.148653,z:17648453.065408,vx:-2151.307617,vy:220.780350,vz:-1980.506226,tb:0.000062133113
$newmeas,x:-14350048.277364,y:14164648.497176,z:17648593.467946,vx:-2151.325684,vy:220.773575,vz:-1980.480347,tb:0.000062133112
$pseudo_cd_ph,prn:19,pseudo_cd_ph:206106930.882646709681
measnum = 5,full_prange = 20626731.829775
$oldmeas,msRange:68.809419,x:-7178603.966800,y:14681844.059756,z:20650673.945632,vx:-2675.570312,vy:226.185196,vz:-1067.987793,tb:-0.000313608679
$newmeas,x:-7178419.878182,y:14681828.497802,z:20650747.425729,vx:-2675.580811,vy:226.175018,vz:-1067.956787,tb:-0.000313608679
$pseudo_cd_ph,prn:28,pseudo_cd_ph:206106926.825156778097
measnum = 6,full_prange = 22167336.996112
$oldmeas,msRange:73.948481,x:-13038397.036792,y:22570370.491104,z:-4748534.544973,vx:71.164070,vy:-705.606689,vz:-3139.979004,tb:0.000767807073
$newmeas,x:-13038402.298533,y:22570422.664246,z:-4748302.367503,vx:71.156143,vy:-705.579041,vz:-3139.986572,tb:0.000767807073
$pseudo_cd_ph,prn:5,pseudo_cd_ph:16.830320967957
measnum = 7,full_prange = 24933769.929083
$oldmeas,msRange:83.175941,x:4580150.290912,y:21650454.401180,z:-14656046.846343,vx:-755.460327,vy:1707.790771,vz:2325.907227,tb:0.000000798232
$newmeas,x:4580213.123236,y:21650312.363224,z:-14656240.291208,vx:-755.474976,vy:1707.810425,vz:2325.881348,tb:0.000000798232
$GNGGA,091449.000,2944.9070,N,10633.0909,E,1,10,0.9,330.2,M,,,,0000*18
$GNRMC,091449.000,A,2944.9070,N,10633.0909,E,0.42,0.00,280519,,*1F
$GPGSA,A,3,12,,,,,,,,,,,,1.1,0.9,0.5*3D
$BDGSA,A,3,04,05,08,10,12,13,19,22,26,,,,1.1,0.9,0.5*2A
$GLGSA,A,3,,,,,,,,,,,,,1.1,0.9,0.5*22
$GPGSV,3,1,10,02,35,269,40,04,00,000,39,06,63,318,46,09,11,116,38*76
$GPGSV,3,2,10,12,14,321,40,17,56,056,45,19,60,015,44,28,36,160,43*79
$GPGSV,3,3,10,05,07,205,34,03,00,000,34*7E
$BDGSV,3,1,12,05,28,246,38,25,00,000,39,04,23,109,40,01,40,126,40*6D
$BDGSV,3,2,12,08,58,001,43,10,57,204,42,12,51,337,42,13,58,303,43*64
$BDGSV,3,3,12,19,31,058,42,02,48,220,39,22,50,128,44,26,21,211,43*62
$B3CN0,0,0,0,0,0,0,0,0,0,0,0,0,0,0*4C
$ini_pos,lastpos_good = 1,ini_pos.x:-1578913.277711,ini_pos.y:5312776.158631,ini_pos.z:3146358.452038
$rtc_local_time,localRTC.weeks:2055,localRTC.seconds:206107.265632,localGtime.weeks:2055,localGtime.seconds:206108.000000
$pseudo_cd_ph,prn:2,pseudo_cd_ph:206107924.329097688198
measnum = 0,full_prange = 22618345.156635
$oldmeas,msRange:0.000000,x:12717946.108542,y:21683546.046832,z:9413528.391605,vx:-964.541382,vy:-595.919739,vz:2846.339111,tb:-0.000223818481
$newmeas,x:12718018.879185,y:21683591.006455,z:9413313.644216,vx:-964.520142,vy:-595.905334,vz:2846.353760,tb:-0.000223818480
$pseudo_cd_ph,prn:6,pseudo_cd_ph:206107931.067882329226
measnum = 1,full_prange = 20723262.656110
$oldmeas,msRange:69.132146,x:673916.463047,y:19210980.763991,z:18354981.652172,vx:-1657.361938,vy:-1627.881714,vz:1772.144897,tb:0.000193651364
$newmeas,x:674031.028200,y:19211093.291752,z:18354859.151078,vx:-1657.344727,vy:-1627.877319,vz:1772.171875,tb:0.000193651365
$pseudo_cd_ph,prn:9,pseudo_cd_ph:206107918.591477721930
measnum = 2,full_prange = 24526326.309357
$oldmeas,msRange:81.817666,x:-24931258.173372,y:8422407.474383,z:-3682846.733587,vx:-519.448608,vy:-191.557983,vz:3109.946533,tb:0.000402901622
$newmeas,x:-24931215.675519,y:8422423.145741,z:-3683101.161215,vx:-519.478821,vy:-191.553207,vz:3109.940186,tb:0.000402901622
$pseudo_cd_ph,prn:12,pseudo_cd_ph:206107900.069649875164
measnum = 3,full_prange = 24033875.038924
$oldmeas,msRange:80.174997,x:13387642.610320,y:5937335.763292,z:21943531.919477,vx:-1044.967407,vy:2632.310303,vz:-57.451805,tb:0.000238433150
$newmeas,x:13387726.384189,y:5937124.735415,z:21943536.523764,vx:-1044.980591,vy:2632.305908,vz:-57.413616,tb:0.000238433151
$pseudo_cd_ph,prn:17,pseudo_cd_ph:206107929.169619709253
measnum = 4,full_prange = 21252919.295819
$oldmeas,msRange:70.898914,x:-14352351.971088,y:14164884.976822,z:17646472.376410,vx:-2151.054443,vy:220.875992,vz:-1980.871826,tb:0.000062133122
$newmeas,x:-14352199.477661,y:14164869.318698,z:17646612.803674,vx:-2151.072510,vy:220.869217,vz:-1980.845947,tb:0.000062133121
$pseudo_cd_ph,prn:19,pseudo_cd_ph:206107930.883585184813
measnum = 5,full_prange = 20626440.815410
$oldmeas,msRange:68.809163,x:-7181279.461324,y:14682070.318910,z:20649605.732503,vx:-2675.418945,vy:226.333115,vz:-1068.438477,tb:-0.000313608677
$newmeas,x:-7181095.385725,y:14682054.746998,z:20649679.242569,vx:-2675.429199,vy:226.322937,vz:-1068.407471,tb:-0.000313608677
$pseudo_cd_ph,prn:28,pseudo_cd_ph:206107926.824063181877
measnum = 6,full_prange = 22167655.180551
$oldmeas,msRange:73.950257,x:-13038325.819124,y:22569664.697376,z:-4751674.472886,vx:71.271263,vy:-705.980835,vz:-3139.877197,tb:0.000767807072
$newmeas,x:-13038331.088866,y:22569716.898931,z:-4751442.299613,vx:71.263336,vy:-705.953125,vz:-3139.884521,tb:0.000767807072
$pseudo_cd_ph,prn:5,pseudo_cd_ph:206107916.833425700665
measnum = 7,full_prange = 24932829.482303
$oldmeas,msRange:83.173511,x:4579394.918489,y:21652162.073843,z:-14653720.782984,vx:-755.284546,vy:1707.554565,vz:2326.219727,tb:0.000000798231
$newmeas,x:4579457.733823,y:21652020.060887,z:-14653914.246536,vx:-755.299194,vy:1707.574219,vz:2326.193604,tb:0.000000798231
$GNGGA,091450.000,2944.9070,N,10633.0910,E,1,10,0.9,330.1,M,,,,0000*1B
$GNRMC,091450.000,A,2944.9070,N,10633.0910,E,0.44,0.00,280519,,*19
$GPGSA,A,3,12,,,,,,,,,,,,1.1,0.9,0.5*3D
$BDGSA,A,3,04,05,08,10,12,13,19,22,26,,,,1.1,0.9,0.5*2A
$GLGSA,A,3,,,,,,,,,,,,,1.1,0.9,0.5*22
$GPGSV,3,1,10,02,35,269,40,04,00,000,38,06,63,318,46,09,11,116,38*77
$GPGSV,3,2,10,12,14,321,40,17,56,056,45,19,60,015,44,28,36,160,42*78
$GPGSV,3,3,10,05,07,205,35,03,00,000,35*7E
$BDGSV,3,1,12,05,28,246,38,25,00,000,38,04,23,109,41,01,40,126,40*6D
$BDGSV,3,2,12,08,58,001,43,10,57,204,41,12,51,337,42,13,58,303,43*67
$BDGSV,3,3,12,19,31,058,43,02,48,220,41,22,50,128,45,26,21,211,43*6D
$B3CN0,0,0,0,0,0,0,0,0,0,0,0,0,0,0*4C
$ini_pos,lastpos_good = 1,ini_pos.x:-1578913.341267,ini_pos.y:5312776.120228,ini_pos.z:3146358.354190
$rtc_local_time,localRTC.weeks:2055,localRTC.seconds:206108.265632,localGtime.weeks:2055,localGtime.seconds:206109.000000
$pseudo_cd_ph,prn:2,pseudo_cd_ph:206108924.330617606640
measnum = 0,full_prange = 22617879.818798
$oldmeas,msRange:0.000000,x:12716981.426485,y:21682950.031637,z:9416374.633657,vx:-964.822815,vy:-596.110657,vz:2846.145020,tb:-0.000223818486
$newmeas,x:12717054.216861,y:21682995.004738,z:9416159.905328,vx:-964.801575,vy:-596.096252,vz:2846.159668,tb:-0.000223818486
$pseudo_cd_ph,prn:6,pseudo_cd_ph:206108931.068467766047
measnum = 1,full_prange = 20723077.467461
$oldmeas,msRange:69.132242,x:672258.977097,y:19209352.850407,z:18356753.602204,vx:-1657.610107,vy:-1627.945557,vz:1771.755249,tb:0.000193651354
$newmeas,x:672373.558379,y:19209465.381579,z:18356631.129143,vx:-1657.592896,vy:-1627.941162,vz:1771.782227,tb:0.000193651355
$pseudo_cd_ph,prn:9,pseudo_cd_ph:206108918.593480497599
measnum = 2,full_prange = 24525716.214102
$oldmeas,msRange:81.816346,x:-24931777.437338,y:8422215.887189,z:-3679736.748069,vx:-519.079407,vy:-191.616425,vz:3110.024658,tb:0.000402901615
$newmeas,x:-24931734.970746,y:8422231.562938,z:-3679991.175768,vx:-519.109558,vy:-191.611633,vz:3110.018311,tb:0.000402901615
$pseudo_cd_ph,prn:12,pseudo_cd_ph:206108900.072422295809
measnum = 3,full_prange = 24033034.210317
$oldmeas,msRange:80.172906,x:13386597.725248,y:5939968.101150,z:21943474.229506,vx:-1044.802856,vy:2632.365479,vz:-57.928139,tb:0.000238433145
$newmeas,x:13386681.482994,y:5939757.076240,z:21943478.871818,vx:-1044.816040,vy:2632.361084,vz:-57.889954,tb:0.000238433145
$pseudo_cd_ph,prn:17,pseudo_cd_ph:206108929.170189917088
measnum = 4,full_prange = 21252738.678521
$oldmeas,msRange:70.899026,x:-14354502.898946,y:14165105.900609,z:17644491.321805,vx:-2150.801270,vy:220.971588,vz:-1981.237427,tb:0.000062133131
$newmeas,x:-14354350.424766,y:14165090.235840,z:17644631.773792,vx:-2150.819336,vy:220.964813,vz:-1981.211548,tb:0.000062133131
$pseudo_cd_ph,prn:19,pseudo_cd_ph:206108930.884523808956
measnum = 5,full_prange = 20626149.747438
$oldmeas,msRange:68.808906,x:-7183954.804336,y:14682296.725970,z:20648537.068723,vx:-2675.267334,vy:226.481018,vz:-1068.889160,tb:-0.000313608675
$newmeas,x:-7183770.741760,y:14682281.144103,z:20648610.608757,vx:-2675.277832,vy:226.470840,vz:-1068.858154,tb:-0.000313608675
$pseudo_cd_ph,prn:28,pseudo_cd_ph:206108926.822968780994
measnum = 6,full_prange = 22167973.597287
$oldmeas,msRange:73.952032,x:-13038254.494293,y:22568958.529514,z:-4754814.298931,vx:71.378395,vy:-706.354980,vz:-3139.775146,tb:0.000767807071
$newmeas,x:-13038259.772033,y:22569010.759485,z:-4754582.129858,vx:71.370476,vy:-706.327271,vz:-3139.782715,tb:0.000767807071
$pseudo_cd_ph,prn:5,pseudo_cd_ph:206108916.836531341076
measnum = 7,full_prange = 24931888.758553
$oldmeas,msRange:83.171082,x:4578639.721843,y:21653869.510284,z:-14651394.407225,vx:-755.108765,vy:1707.318359,vz:2326.531982,tb:0.000000798231
$newmeas,x:4578702.520189,y:21653727.522334,z:-14651587.889456,vx:-755.123413,vy:1707.338013,vz:2326.506104,tb:0.000000798231
$GNGGA,091451.000,2944.9071,N,10633.0913,E,1,13,0.8,329.4,M,,,,0000*17
$GNRMC,091451.000,A,2944.9071,N,10633.0913,E,0.11,0.00,280519,,*1A
$GPGSA,A,3,12,,,,,,,,,,,,0.9,0.8,0.4*34
$BDGSA,A,3,01,02,03,04,05,08,10,12,13,19,22,26,0.9,0.8,0.4*23
$GLGSA,A,3,,,,,,,,,,,,,0.9,0.8,0.4*2B
$GPGSV,3,1,10,02,35,269,41,04,00,000,39,06,63,318,46,09,11,116,38*77
$GPGSV,3,2,10,12,14,321,40,17,56,056,45,19,60,015,44,28,36,160,43*79
$GPGSV,3,3,10,05,07,205,34,03,00,000,34*7E
$BDGSV,3,1,12,05,28,246,38,25,00,000,39,04,23,109,40,01,40,126,40*6D
$BDGSV,3,2,12,08,58,001,42,10,57,204,42,12,51,337,42,13,58,303,43*65
$BDGSV,3,3,12,19,31,058,43,02,48,220,41,22,50,128,44,26,21,211,43*6C
$B3CN0,0,0,0,0,0,0,0,0,0,0,0,0,0,0*4C
$ini_pos,lastpos_good = 1,ini_pos.x:-1578913.732416,ini_pos.y:5312775.246506,ini_pos.z:3146358.146265
$rtc_local_time,localRTC.weeks:2055,localRTC.seconds:206109.265631,localGtime.weeks:2055,localGtime.seconds:206110.000000
$pseudo_cd_ph,prn:2,pseudo_cd_ph:206109924.332137286663
measnum = 0,full_prange = 22617414.561372
$oldmeas,msRange:0.000000,x:12716016.463025,y:21682353.825581,z:9419220.681608,vx:-965.104187,vy:-596.301514,vz:2845.950928,tb:-0.000223818492
$newmeas,x:12716089.273134,y:21682398.812154,z:9419005.972342,vx:-965.082947,vy:-596.287109,vz:2845.965576,tb:-0.000223818491
$pseudo_cd_ph,prn:6,pseudo_cd_ph:206109931.069048523903
measnum = 1,full_prange = 20722893.690466
$oldmeas,msRange:69.132340,x:670601.243029,y:19207724.872966,z:18358525.162507,vx:-1657.858154,vy:-1628.009399,vz:1771.365479,tb:0.000193651344
$newmeas,x:670715.840445,y:19207837.407551,z:18358402.717473,vx:-1657.841064,vy:-1628.005005,vz:1771.392456,tb:0.000193651345
$pseudo_cd_ph,prn:9,pseudo_cd_ph:206109918.595477789640
measnum = 2,full_prange = 24525107.771732
$oldmeas,msRange:81.815025,x:-24932296.332091,y:8422024.241534,z:-3676626.684350,vx:-518.710144,vy:-191.674911,vz:3110.102783,tb:0.000402901607
$newmeas,x:-24932253.896757,y:8422039.921679,z:-3676881.112133,vx:-518.740356,vy:-191.670120,vz:3110.096436,tb:0.000402901608
$pseudo_cd_ph,prn:12,pseudo_cd_ph:206109900.075192838907
measnum = 3,full_prange = 24032193.953518
$oldmeas,msRange:80.170815,x:13385553.004739,y:5942600.494054,z:21943416.063201,vx:-1044.638306,vy:2632.420410,vz:-58.404472,tb:0.000238433139
$newmeas,x:13385636.746364,y:5942389.472111,z:21943420.743535,vx:-1044.651489,vy:2632.416016,vz:-58.366291,tb:0.000238433139
$pseudo_cd_ph,prn:17,pseudo_cd_ph:206109929.170754492283
measnum = 4,full_prange = 21252559.758781
$oldmeas,msRange:70.899138,x:-14356653.573562,y:14165326.919972,z:17642509.901633,vx:-2150.548096,vy:221.067139,vz:-1981.603027,tb:0.000062133141
$newmeas,x:-14356501.118620,y:14165311.248561,z:17642650.378352,vx:-2150.565918,vy:221.060379,vz:-1981.577148,tb:0.000062133140
$pseudo_cd_ph,prn:19,pseudo_cd_ph:206109930.885458528996
measnum = 5,full_prange = 20625859.858822
$oldmeas,msRange:68.808650,x:-7186629.995769,y:14682523.280912,z:20647467.954318,vx:-2675.115723,vy:226.628876,vz:-1069.339722,tb:-0.000313608673
$newmeas,x:-7186445.946212,y:14682507.689090,z:20647541.524321,vx:-2675.126221,vy:226.618713,vz:-1069.308716,tb:-0.000313608674
$pseudo_cd_ph,prn:28,pseudo_cd_ph:206109926.821867495775
measnum = 6,full_prange = 22168294.086830
$oldmeas,msRange:73.953809,x:-13038183.062352,y:22568251.987511,z:-4757954.023042,vx:71.485481,vy:-706.729126,vz:-3139.673340,tb:0.000767807070
$newmeas,x:-13038188.348087,y:22568304.245904,z:-4757721.858153,vx:71.477562,vy:-706.701416,vz:-3139.680664,tb:0.000767807070
$pseudo_cd_ph,prn:5,pseudo_cd_ph:206109916.839650750160
measnum = 7,full_prange = 24930943.915993
$oldmeas,msRange:83.168655,x:4577884.700951,y:21655576.710449,z:-14649067.719117,vx:-754.933044,vy:1707.082031,vz:2326.844238,tb:0.000000798231
$newmeas,x:4577947.482302,y:21655434.747531,z:-14649261.219989,vx:-754.947632,vy:1707.101685,vz:2326.818359,tb:0.000000798231
$GNGGA,091452.000,2944.9072,N,10633.0916,E,1,13,0.8,328.7,M,,,,0000*10
$GNRMC,091452.000,A,2944.9072,N,10633.0916,E,0.20,0.00,280519,,*1D
$GPGSA,A,3,12,,,,,,,,,,,,0.9,0.8,0.4*34
$BDGSA,A,3,01,02,03,04,05,08,10,12,13,19,22,26,0.9,0.8,0.4*23
$GLGSA,A,3,,,,,,,,,,,,,0.9,0.8,0.4*2B
$GPGSV,3,1,10,02,35,269,40,04,00,000,38,06,63,318,46,09,11,116,39*76
$GPGSV,3,2,10,12,14,321,41,17,56,056,45,19,60,015,44,28,36,160,42*79
$GPGSV,3,3,10,05,07,205,33,03,00,000,34*79
$BDGSV,3,1,12,05,28,246,37,25,00,000,38,04,23,109,39,01,40,126,41*6C
$BDGSV,3,2,12,08,58,001,43,10,57,204,42,12,51,337,42,13,58,303,43*64
$BDGSV,3,3,12,19,31,058,43,02,48,220,41,22,50,128,44,26,21,211,43*6C
$B3CN0,0,16,0,0,0,0,0,0,0,0,0,0,0,0*7B
$ini_pos,lastpos_good = 1,ini_pos.x:-1578913.930353,ini_pos.y:5312774.434065,ini_pos.z:3146358.012985
$rtc_local_time,localRTC.weeks:2055,localRTC.seconds:206110.265631,localGtime.weeks:2055,localGtime.seconds:206110.999999
$pseudo_cd_ph,prn:2,pseudo_cd_ph:206110924.333653479815
measnum = 0,full_prange = 22616950.349285
$oldmeas,msRange:0.000000,x:12715051.218149,y:21681757.428716,z:9422066.535401,vx:-965.385620,vy:-596.492249,vz:2845.756836,tb:-0.000223818497
$newmeas,x:12715124.047995,y:21681802.428758,z:9421851.845191,vx:-965.364380,vy:-596.477905,vz:2845.771484,tb:-0.000223818497
$pseudo_cd_ph,prn:6,pseudo_cd_ph:206110931.069629788399
measnum = 1,full_prange = 20722709.761583
$oldmeas,msRange:69.132439,x:668943.260859,y:19206096.831728,z:18360296.333045,vx:-1658.106323,vy:-1628.073120,vz:1770.975708,tb:0.000193651334
$newmeas,x:669057.874407,y:19206209.369723,z:18360173.916040,vx:-1658.089111,vy:-1628.068726,vz:1771.002686,tb:0.000193651335
$pseudo_cd_ph,prn:9,pseudo_cd_ph:206110918.597478181124
measnum = 2,full_prange = 24524498.400173
$oldmeas,msRange:81.813706,x:-24932814.857632,y:8421832.537368,z:-3673516.542498,vx:-518.340942,vy:-191.733444,vz:3110.180908,tb:0.000402901600
