SD initialized success
Create debug.log Failed! 3
bbram_blkflag = 1
rtcflag = 0
BBRAM Block OK: 01 EPHflag: 464081c8 8900876f, rtc 00
Hot-start nowtime:day = 16,minute = 15,seconds = 08.00
GPS 0 Init Dop: 10000,80
GPS 1 Init Dop: 10000,80
GPS 2 Init Dop: 10000,80
GPS 3 Init Dop: -3962, 2
GPS 4 Init Dop: 10000,80
GPS 5 Init Dop: 10000,80
GPS 6 Init Dop: -3628, 2
GPS 7 Init Dop: -3751, 2
GPS 8 Init Dop: -3157, 2
GPS 9 Init Dop: 10000,80
GPS10 Init Dop: 10000,80
GPS11 Init Dop: 10000,80
GPS12 Init Dop: 10000,80
GPS13 Init Dop: 10000,80
GPS14 Init Dop: 10000,80
GPS15 Init Dop:   959, 2
GPS16 Init Dop: 10000,80
GPS17 Init Dop: 10000,80
GPS18 Init Dop: 10000,80
GPS19 Init Dop: 10000,80
GPS20 Init Dop: 10000,80
GPS21 Init Dop: 10000,80
GPS22 Init Dop: -1291, 2
GPS23 Init Dop: 10000,80
GPS24 Init Dop: 10000,80
GPS25 Init Dop:  1560, 2
GPS26 Init Dop: -1733, 2
GPS27 Init Dop: 10000,80
GPS28 Init Dop: 10000,80
GPS29 Init Dop: 10000,80
GPS30 Init Dop:  1387, 2
GPS31 Init Dop: 10000,80
BDS 0 Init Dop:  -924, 2
BDS 1 Init Dop:  -899, 2
BDS 2 Init Dop:  -927, 2
BDS 3 Init Dop:  -917, 2
BDS 4 Init Dop: 10000,80
BDS 5 Init Dop:   498, 2
BDS 6 Init Dop:  -714, 2
BDS 7 Init Dop: 10000,80
BDS 8 Init Dop:    45, 2
BDS 9 Init Dop:  -791, 2
BDS10 Init Dop:   452, 2
BDS11 Init Dop: 10000,80
BDS12 Init Dop: 10000,80
BDS13 Init Dop: 10000,80
BDS14 Init Dop: 10000,80
BDS15 Init Dop:   542, 2
BDS16 Init Dop: 10000,80
BDS17 Init Dop: 10000,80
BDS18 Init Dop: 10000,80
BDS19 Init Dop: 10000,80
BDS20 Init Dop: 10000,80
BDS21 Init Dop: 10000,80
BDS22 Init Dop: 10000,80
BDS23 Init Dop: 10000,80
BDS24 Init Dop:   748, 2
BDS25 Init Dop: 10000,80
BDS26 Init Dop: 10000,80
BDS27 Init Dop: -3564, 2
BDS28 Init Dop: 10000,80
BDS29 Init Dop: 10000,80
BDS30 Init Dop: 10000,80
BDS31 Init Dop:  1194, 2
Good luck!
$ini_pos,lastpos_good = 1,ini_pos.x:-1578918.000000,ini_pos.y:5312768.000000,ini_pos.z:3146355.000000
$rtc_local_time,localRTC.weeks:2053,localRTC.seconds:353727.026013,localGtime.weeks:0,localGtime.seconds:19.026010
source<tow,snapshot
$GNGGA,000000.000,,,,,0,00,,,M,,,,0000*2B
$GNRMC,000000.000,A,,,,,,,000000,,*26
$GPGSA,A,1,,,,,,,,,,,,,,,*1E
$BDGSA,A,1,,,,,,,,,,,,,,,*0F
$GLGSA,A,1,,,,,,,,,,,,,,,*02
$B3CN0,0,0,0,0,0,0,0,0,0,0,0,0,0,0*4C
$ini_pos,lastpos_good = 1,ini_pos.x:-1578918.000000,ini_pos.y:5312768.000000,ini_pos.z:3146355.000000
$rtc_local_time,localRTC.weeks:2053,localRTC.seconds:353728.026013,localGtime.weeks:2053,localGtime.seconds:353728.026013
source<tow,snapshot
$GNGGA,000000.000,,,,,0,00,,,M,,,,0000*2B
$GNRMC,000000.000,A,,,,,,,000000,,*26
$GPGSA,A,1,,,,,,,,,,,,,,,*1E
$BDGSA,A,1,,,,,,,,,,,,,,,*0F
$GLGSA,A,1,,,,,,,,,,,,,,,*02
$B3CN0,0,0,0,0,0,0,0,0,0,0,0,0,0,0*4C
$ini_pos,lastpos_good = 1,ini_pos.x:-1578918.000000,ini_pos.y:5312768.000000,ini_pos.z:3146355.000000
$rtc_local_time,localRTC.weeks:2053,localRTC.seconds:353729.026013,localGtime.weeks:2053,localGtime.seconds:353729.026013
$pseudo_cd_ph,prn:7,pseudo_cd_ph:10.807621818833
measnum = 0,full_prange = 24637136.536254
$oldmeas,msRange:0.000000,x:17358382.207154,y:9108383.555069,z:18392134.459286,vx:-2171.395996,vy:665.144531,vz:1697.366943,tb:-0.000025024853
$newmeas,x:17358560.653300,y:9108328.893667,z:18391994.967306,vx:-2171.382324,vy:665.129883,vz:1697.397949,tb:-0.000025024853
$pseudo_cd_ph,prn:8,pseudo_cd_ph:0.996935921797
measnum = 1,full_prange = 21546867.236501
$oldmeas,msRange:71.769295,x:-5169324.325620,y:25841189.347211,z:-2204011.640256,vx:-331.403809,vy:208.411316,vz:3193.960449,tb:-0.000143739615
$newmeas,x:-5169300.506466,y:25841174.367186,z:-2204241.198412,vx:-331.412048,vy:208.437988,vz:3193.957031,tb:-0.000143739614
$pseudo_cd_ph,prn:9,pseudo_cd_ph:18.649488753005
measnum = 2,full_prange = 22416785.333032
$oldmeas,msRange:74.670797,x:10600893.081600,y:14470696.356991,z:19544681.713252,vx:-756.018616,vy:2379.613770,vz:-1350.083130,tb:0.000410547656
$newmeas,x:10600949.612893,y:14470518.422582,z:19544782.663673,vx:-756.031860,vy:2379.622803,vz:-1350.052002,tb:0.000410547657
source<tow,snapshot
$GNGGA,000000.000,,,,,0,00,,,M,,,,0000*2B
$GNRMC,000000.000,A,,,,,,,000000,,*26
$GPGSA,A,1,,,,,,,,,,,,,,,*1E
$BDGSA,A,1,,,,,,,,,,,,,,,*0F
$GLGSA,A,1,,,,,,,,,,,,,,,*02
$GPGSV,1,1,01,04,00,000,16*4B
$B3CN0,0,0,0,0,0,0,0,0,0,0,0,0,0,0*4C
$ini_pos,lastpos_good = 1,ini_pos.x:-1578918.000000,ini_pos.y:5312768.000000,ini_pos.z:3146355.000000
$rtc_local_time,localRTC.weeks:2053,localRTC.seconds:353730.026013,localGtime.weeks:2053,localGtime.seconds:353730.026013
$pseudo_cd_ph,prn:7,pseudo_cd_ph:10.810019022325
measnum = 0,full_prange = 24636408.193817
$oldmeas,msRange:0.000000,x:17356210.727867,y:9109048.788677,z:18393831.637443,vx:-2171.562744,vy:665.322754,vz:1696.989502,tb:-0.000025024856
$newmeas,x:17356389.182451,y:9108994.114245,z:18393692.180609,vx:-2171.549072,vy:665.308105,vz:1697.020508,tb:-0.000025024856
$pseudo_cd_ph,prn:8,pseudo_cd_ph:0.999424737686
measnum = 1,full_prange = 21546111.411719
$oldmeas,msRange:71.767493,x:-5169655.672277,y:25841397.572887,z:-2200817.656217,vx:-331.289520,vy:208.040054,vz:3194.007812,tb:-0.000143739617
$newmeas,x:-5169631.862173,y:25841382.620070,z:-2201047.209733,vx:-331.297729,vy:208.066742,vz:3194.004395,tb:-0.000143739617
$pseudo_cd_ph,prn:9,pseudo_cd_ph:18.651600387439
measnum = 2,full_prange = 22416142.599912
$oldmeas,msRange:74.669373,x:10600137.151573,y:14473075.909863,z:19543331.421490,vx:-755.841492,vy:2379.492188,vz:-1350.500488,tb:0.000410547649
$newmeas,x:10600193.668001,y:14472897.989657,z:19543432.400217,vx:-755.854736,vy:2379.501221,vz:-1350.469238,tb:0.000410547649
$pseudo_cd_ph,prn:16,pseudo_cd_ph:2.842444993184
measnum = 3,full_prange = 21024568.556371
$oldmeas,msRange:70.026003,x:-8454764.477073,y:12418858.120091,z:21665095.714154,vx:-1828.057495,vy:-2116.073486,vz:537.350830,tb:-0.000040399064
$newmeas,x:-8454636.275068,y:12419006.521341,z:21665058.028361,vx:-1828.045532,vy:-2116.077637,vz:537.383850,tb:-0.000040399063
$pseudo_cd_ph,prn:23,pseudo_cd_ph:3.634146309085
measnum = 4,full_prange = 20743576.063468
$oldmeas,msRange:69.089660,x:3074662.585626,y:23414569.045343,z:12072639.175712,vx:-661.200439,vy:1380.118530,vz:-2620.272217,tb:-0.000185987813
$newmeas,x:3074708.336513,y:23414473.549966,z:12072820.479907,vx:-661.210938,vy:1380.137817,vz:-2620.254395,tb:-0.000185987813
$pseudo_cd_ph,prn:26,pseudo_cd_ph:17.002091863638
measnum = 5,full_prange = 22848250.602633
$oldmeas,msRange:76.108912,x:-16481807.338872,y:4317477.157895,z:20395241.731457,vx:-1801.999390,vy:-1867.644287,vz:-1042.215454,tb:0.000202396322
$newmeas,x:-16481670.002116,y:4317619.498280,z:20395321.161147,vx:-1801.998535,vy:-1867.659058,vz:-1042.182373,tb:0.000202396321
$pseudo_cd_ph,prn:27,pseudo_cd_ph:5.097356689990
measnum = 6,full_prange = 20320833.257164
$oldmeas,msRange:67.679659,x:-12020519.390247,y:21789251.342210,z:8729974.905071,vx:72.540985,vy:-1151.728149,vz:2968.017090,tb:-0.000132895686
$newmeas,x:-12020524.307225,y:21789329.408959,z:8729773.723529,vx:72.538994,vy:-1151.703247,vz:2968.029785,tb:-0.000132895685
source<tow,snapshot
nits = 2
$GNGGA,021512.673,2944.8991,N,10633.0766,E,1,07,0.0,326.2,M,,,,0000*16
$GNRMC,021512.673,A,2944.8991,N,10633.0766,E,0.00,0.00,160519,,*12
$GPGSA,A,3,07,08,09,16,23,26,27,,,,,,0.0,0.0,0.0*33
$BDGSA,A,3,,,,,,,,,,,,,0.0,0.0,0.0*23
$GLGSA,A,3,,,,,,,,,,,,,0.0,0.0,0.0*2E
$GPGSV,2,1,05,04,00,000,40,07,00,000,37,08,00,000,40,09,00,000,40*7D
$GPGSV,2,2,05,16,00,000,28*41
$B3CN0,0,0,0,0,0,0,0,0,0,0,0,0,0,0*4C
tow update,353731825.098560
$ini_pos,lastpos_good = 1,ini_pos.x:-1578892.183239,ini_pos.y:5312786.367717,ini_pos.z:3146343.740933
$rtc_local_time,localRTC.weeks:2053,localRTC.seconds:353731.026013,localGtime.weeks:2053,localGtime.seconds:353731.825099
$pseudo_cd_ph,prn:7,pseudo_cd_ph:353731610.812422811985
measnum = 0,full_prange = 24661261.054464
$oldmeas,msRange:0.000000,x:17352303.631235,y:9110246.049474,z:18396884.055242,vx:-2171.862793,vy:665.643372,vz:1696.310181,tb:-0.000025024863
$newmeas,x:17352482.290524,y:9110191.293511,z:18396744.513600,vx:-2171.849121,vy:665.628723,vz:1696.341309,tb:-0.000025024863
$pseudo_cd_ph,prn:8,pseudo_cd_ph:353731621.001914620399
measnum = 1,full_prange = 21570938.469879
$oldmeas,msRange:71.764200,x:-5170251.505490,y:25841771.253826,z:-2195071.286861,vx:-331.084015,vy:207.372086,vz:3194.093018,tb:-0.000143739622
$newmeas,x:-5170227.682738,y:25841756.331842,z:-2195301.111020,vx:-331.092224,vy:207.398788,vz:3194.089844,tb:-0.000143739622
$pseudo_cd_ph,prn:9,pseudo_cd_ph:353731618.653715312481
measnum = 2,full_prange = 22441082.051737
$oldmeas,msRange:74.666768,x:10598777.614899,y:14477356.622013,z:19540901.080766,vx:-755.522827,vy:2379.272949,vz:-1351.251099,tb:0.000410547635
$newmeas,x:10598834.170354,y:14477178.520262,z:19541002.228026,vx:-755.536072,vy:2379.281982,vz:-1351.219849,tb:0.000410547636
$pseudo_cd_ph,prn:16,pseudo_cd_ph:353731622.841953277588
measnum = 3,full_prange = 21050289.475272
$oldmeas,msRange:70.028183,x:-8458053.583024,y:12415051.224947,z:21666061.691503,vx:-1828.362793,vy:-2115.960693,vz:536.503052,tb:-0.000040399073
$newmeas,x:-8457925.202745,y:12415199.799835,z:21666024.019133,vx:-1828.350830,vy:-2115.965088,vz:536.536133,tb:-0.000040399073
$pseudo_cd_ph,prn:23,pseudo_cd_ph:353731623.635054349899
measnum = 4,full_prange = 20768877.349762
$oldmeas,msRange:69.089174,x:3073473.275465,y:23417051.544246,z:12067924.665081,vx:-660.927185,vy:1379.615967,vz:-2620.736328,tb:-0.000185987811
$newmeas,x:3073519.063222,y:23416955.967206,z:12068106.222562,vx:-660.937683,vy:1379.635376,vz:-2620.718262,tb:-0.000185987811
$pseudo_cd_ph,prn:26,pseudo_cd_ph:353731617.001236081123
measnum = 5,full_prange = 22874080.673770
$oldmeas,msRange:76.111823,x:-16485049.305634,y:4314117.420642,z:20393365.996081,vx:-1802.017334,vy:-1867.295044,vz:-1042.994629,tb:0.000202396340
$newmeas,x:-16484911.812243,y:4314259.895297,z:20393445.575018,vx:-1802.016602,vy:-1867.309814,vz:-1042.961548,tb:0.000202396339
$pseudo_cd_ph,prn:27,pseudo_cd_ph:353731625.098559975624
measnum = 6,full_prange = 20346046.013337
$oldmeas,msRange:67.678729,x:-12020388.835376,y:21787178.689004,z:8735314.313611,vx:72.593712,vy:-1152.390747,vz:2967.675537,tb:-0.000132895707
$newmeas,x:-12020393.762033,y:21787256.897576,z:8735112.905634,vx:72.591721,vy:-1152.365723,vz:2967.688232,tb:-0.000132895706
$pseudo_cd_ph,prn:31,pseudo_cd_ph:11.477165378783
measnum = 7,full_prange = 24480844.245283
$oldmeas,msRange:81.471350,x:-25878887.068355,y:6871062.388209,z:1238582.967513,vx:-206.589020,vy:-203.472076,vz:-3140.638672,tb:0.000037912029
$newmeas,x:-25878870.197211,y:6871079.003345,z:1238839.429803,vx:-206.619110,vy:-203.465897,vz:-3140.636475,tb:0.000037912029
Refix G07: 2, 353731.610812, -3870
Refix G08: 2, 353731.621002, -3989
Refix G09: 2, 353731.618654, -3394
Refix G16: 2, 353731.622842, 720
Refix G23: 2, 353731.623635, -1527
Refix G26: 2, 353731.617001, 1319
Refix G27: 2, 353731.625099, -1970
Refix G31: 2, 353731.611477, 1146
$GNGGA,021513.693,2944.9058,N,10633.0877,E,1,07,1.3,330.5,M,,,,0000*19
$GNRMC,021513.693,A,2944.9058,N,10633.0877,E,0.21,0.00,160519,,*1C
$GPGSA,A,3,07,08,09,16,23,26,27,,,,,,2.5,1.3,2.2*36
$BDGSA,A,3,,,,,,,,,,,,,2.5,1.3,2.2*26
$GLGSA,A,3,,,,,,,,,,,,,2.5,1.3,2.2*2B
$GPGSV,3,1,09,04,00,000,39,07,00,000,41,08,00,000,44,09,00,000,43*78
$GPGSV,3,2,09,16,00,000,44,23,00,000,40,26,00,000,34,27,00,000,34*72
$GPGSV,3,3,09,31,00,000,28*48
$BDGSV,1,1,04,02,00,000,36,04,00,000,36,06,00,000,22,07,00,000,22*6B
$B3CN0,0,0,0,0,0,0,0,0,0,0,0,0,0,0*4C
$ini_pos,lastpos_good = 1,ini_pos.x:-1578908.678332,ini_pos.y:5312778.939582,ini_pos.z:3146356.648957
$rtc_local_time,localRTC.weeks:2053,localRTC.seconds:353732.333103,localGtime.weeks:2053,localGtime.seconds:353733.000000
$pseudo_cd_ph,prn:7,pseudo_cd_ph:353732917.905262231827
measnum = 0,full_prange = 24603852.456899
$oldmeas,msRange:0.000000,x:17349751.791603,y:9111028.237822,z:18398876.791772,vx:-2172.058594,vy:665.852844,vz:1695.866577,tb:-0.000025024867
$newmeas,x:17349930.051068,y:9110973.592135,z:18398737.611379,vx:-2172.044922,vy:665.838196,vz:1695.897583,tb:-0.000025024867
$pseudo_cd_ph,prn:8,pseudo_cd_ph:353732928.094865798950
measnum = 1,full_prange = 21513496.368146
$oldmeas,msRange:71.762109,x:-5170640.417731,y:25842014.639283,z:-2191318.509902,vx:-330.949890,vy:206.935822,vz:3194.148682,tb:-0.000143739626
$newmeas,x:-5170616.668044,y:25841999.788343,z:-2191547.726041,vx:-330.958069,vy:206.962463,vz:3194.145264,tb:-0.000143739626
$pseudo_cd_ph,prn:9,pseudo_cd_ph:353732925.746170699596
measnum = 2,full_prange = 22383788.582911
$oldmeas,msRange:74.665105,x:10597890.072341,y:14480151.948872,z:19539313.206132,vx:-755.314758,vy:2379.129639,vz:-1351.741211,tb:0.000410547627
$newmeas,x:10597946.467868,y:14479974.312520,z:19539414.131756,vx:-755.328003,vy:2379.138916,vz:-1351.710083,tb:0.000410547627
$pseudo_cd_ph,prn:16,pseudo_cd_ph:353732929.931001365185
measnum = 3,full_prange = 20994017.489858
$oldmeas,msRange:70.029533,x:-8460201.845945,y:12412565.223204,z:21666691.704392,vx:-1828.562012,vy:-2115.886963,vz:535.949341,tb:-0.000040399080
$newmeas,x:-8460073.794897,y:12412713.395758,z:21666654.171503,vx:-1828.550171,vy:-2115.891357,vz:535.982361,tb:-0.000040399079
$pseudo_cd_ph,prn:23,pseudo_cd_ph:353732930.725943267345
measnum = 4,full_prange = 20712053.499747
$oldmeas,msRange:69.088910,x:3072696.856080,y:23418672.264058,z:12064845.380601,vx:-660.748718,vy:1379.287720,vz:-2621.039062,tb:-0.000185987810
$newmeas,x:3072742.506233,y:23418576.971199,z:12065026.462271,vx:-660.759216,vy:1379.307007,vz:-2621.021240,tb:-0.000185987810
$pseudo_cd_ph,prn:26,pseudo_cd_ph:353732924.089784324169
measnum = 5,full_prange = 22817958.543367
$oldmeas,msRange:76.113598,x:-16487166.505107,y:4311923.667193,z:20392140.281377,vx:-1802.029053,vy:-1867.066895,vz:-1043.503418,tb:0.000202396351
$newmeas,x:-16487029.348171,y:4312065.774918,z:20392219.703797,vx:-1802.028320,vy:-1867.081665,vz:-1043.470459,tb:0.000202396351
$pseudo_cd_ph,prn:27,pseudo_cd_ph:353732932.189828336239
measnum = 6,full_prange = 20289108.404563
$oldmeas,msRange:67.678100,x:-12020303.524751,y:21785824.489466,z:8738800.908421,vx:72.628044,vy:-1152.823364,vz:2967.452393,tb:-0.000132895721
$newmeas,x:-12020308.439945,y:21785902.508457,z:8738600.079179,vx:72.626068,vy:-1152.798462,vz:2967.465088,tb:-0.000132895720
$pseudo_cd_ph,prn:31,pseudo_cd_ph:18.565865219280
measnum = 7,full_prange = 24424676.670630
$oldmeas,msRange:81.473017,x:-25879129.535804,y:6870823.276433,z:1234893.009235,vx:-206.156189,vy:-203.560883,vz:-3140.668701,tb:0.000037912030
$newmeas,x:-25879112.738634,y:6870839.860684,z:1235148.885563,vx:-206.186203,vy:-203.554718,vz:-3140.666748,tb:0.000037912029
Refix G07: 2, 353732.917905, -3871
Refix G08: 2, 353732.928095, -3990
Refix G09: 2, 353732.925746, -3395
Refix G16: 2, 353732.929931, 719
Refix G23: 2, 353732.930726, -1527
Refix G26: 2, 353732.924090, 1316
Refix G27: 2, 353732.932190, -1970
Refix G31: 2, 353732.918566, 1143
$GNGGA,021515.000,2944.9054,N,10633.0901,E,1,09,1.3,327.6,M,,,,0000*14
$GNRMC,021515.000,A,2944.9054,N,10633.0901,E,0.48,0.00,160519,,*15
$GPGSA,A,3,07,08,09,16,23,26,27,,,,,,2.5,1.3,2.2*36
$BDGSA,A,3,02,04,,,,,,,,,,,2.5,1.3,2.2*20
$GLGSA,A,3,,,,,,,,,,,,,2.5,1.3,2.2*2B
$GPGSV,3,1,09,04,00,000,39,07,14,306,40,08,45,189,43,09,34,308,43*73
$GPGSV,3,2,09,16,53,021,43,23,62,268,44,26,29,047,41,27,70,129,45*7D
$GPGSV,3,3,09,31,15,104,38*48
$BDGSV,3,1,12,02,45,218,37,03,54,172,22,04,23,109,38,06,37,173,41*67
$BDGSV,3,2,12,07,63,013,44,09,61,206,43,10,61,308,42,11,32,055,41*68
$BDGSV,3,3,12,23,00,000,25,25,23,084,19,01,40,125,00,16,42,180,00*64
$B3CN0,0,0,0,0,0,0,0,0,0,0,0,0,0,0*4C
$ini_pos,lastpos_good = 1,ini_pos.x:-1578911.861119,ini_pos.y:5312775.756900,ini_pos.z:3146354.519262
$rtc_local_time,localRTC.weeks:2053,localRTC.seconds:353733.333103,localGtime.weeks:2053,localGtime.seconds:353734.000000
$pseudo_cd_ph,prn:7,pseudo_cd_ph:353733917.907678127289
measnum = 0,full_prange = 24603118.521457
$oldmeas,msRange:0.000000,x:17347579.649662,y:9111694.179759,z:18400572.469459,vx:-2172.225342,vy:666.031067,vz:1695.488892,tb:-0.000025024871
$newmeas,x:17347757.917485,y:9111639.521073,z:18400433.324211,vx:-2172.211670,vy:666.016479,vz:1695.519897,tb:-0.000025024870
$pseudo_cd_ph,prn:8,pseudo_cd_ph:353733928.097364664078
measnum = 1,full_prange = 21512737.559238
$oldmeas,msRange:71.760316,x:-5170971.310537,y:25842221.389430,z:-2188124.337711,vx:-330.835754,vy:206.564484,vz:3194.195801,tb:-0.000143739629
$newmeas,x:-5170947.569876,y:25842206.565661,z:-2188353.549153,vx:-330.843964,vy:206.591125,vz:3194.192627,tb:-0.000143739628
$pseudo_cd_ph,prn:9,pseudo_cd_ph:353733925.748290121555
measnum = 2,full_prange = 22383143.526819
$oldmeas,msRange:74.663698,x:10597134.846164,y:14482531.017543,z:19537961.256384,vx:-755.137634,vy:2379.007812,vz:-1352.158325,tb:0.000410547619
$newmeas,x:10597191.226843,y:14482353.395416,z:19538062.210246,vx:-755.150879,vy:2379.016846,vz:-1352.127197,tb:0.000410547620
$pseudo_cd_ph,prn:16,pseudo_cd_ph:353733929.930511236191
measnum = 3,full_prange = 20994154.758069
$oldmeas,msRange:70.030729,x:-8462030.492711,y:12410449.367706,z:21667227.418117,vx:-1828.731567,vy:-2115.824219,vz:535.478088,tb:-0.000040399085
$newmeas,x:-8461902.428950,y:12410597.536830,z:21667189.917985,vx:-1828.719727,vy:-2115.828613,vz:535.511108,tb:-0.000040399085
$pseudo_cd_ph,prn:23,pseudo_cd_ph:353733930.726868987083
measnum = 4,full_prange = 20711766.309146
$oldmeas,msRange:69.088687,x:3072036.183287,y:23420051.411971,z:12062224.212628,vx:-660.596924,vy:1379.008179,vz:-2621.296875,tb:-0.000185987809
$newmeas,x:3072081.822318,y:23419956.139741,z:12062405.309596,vx:-660.607361,vy:1379.027588,vz:-2621.279053,tb:-0.000185987809
$pseudo_cd_ph,prn:26,pseudo_cd_ph:353733924.088907957077
measnum = 5,full_prange = 22818211.607428
$oldmeas,msRange:76.115165,x:-16488968.539007,y:4310056.697438,z:20391096.561423,vx:-1802.038940,vy:-1866.872681,vz:-1043.936523,tb:0.000202396361
$newmeas,x:-16488831.379799,y:4310198.791958,z:20391176.017686,vx:-1802.038086,vy:-1866.887451,vz:-1043.903564,tb:0.000202396361
$pseudo_cd_ph,prn:27,pseudo_cd_ph:353733932.191041350365
measnum = 6,full_prange = 20288735.081391
$oldmeas,msRange:67.677587,x:-12020230.882118,y:21784671.482054,z:8741768.265648,vx:72.657211,vy:-1153.191528,vz:2967.262207,tb:-0.000132895733
$newmeas,x:-12020235.799196,y:21784749.524529,z:8741567.452959,vx:72.655243,vy:-1153.166626,vz:2967.275146,tb:-0.000132895732
$pseudo_cd_ph,prn:31,pseudo_cd_ph:18.565110617719
measnum = 7,full_prange = 24424893.225447
$oldmeas,msRange:81.474467,x:-25879335.507785,y:6870619.677739,z:1231752.327812,vx:-205.787796,vy:-203.636520,vz:-3140.694336,tb:0.000037912030
$newmeas,x:-25879318.740481,y:6870636.268300,z:1232008.208489,vx:-205.817810,vy:-203.630356,vz:-3140.692139,tb:0.000037912030
Refix G07: 2, 353733.917908, -3870
Refix G08: 2, 353733.928097, -3989
Refix G09: 2, 353733.925748, -3394
Refix G16: 2, 353733.929931, 720
Refix G23: 2, 353733.930727, -1526
Refix G26: 2, 353733.924089, 1318
Refix G27: 2, 353733.932191, -1969
Refix G31: 2, 353733.918565, 1146
$GNGGA,021516.000,2944.9044,N,10633.0917,E,1,14,0.8,320.2,M,,,,0000*14
$GNRMC,021516.000,A,2944.9044,N,10633.0917,E,0.16,0.00,160519,,*1B
$GPGSA,A,3,07,08,09,16,23,26,27,,,,,,1.0,0.8,0.5*3F
$BDGSA,A,3,02,04,06,07,09,10,11,,,,,,1.0,0.8,0.5*20
$GLGSA,A,3,,,,,,,,,,,,,1.0,0.8,0.5*22
$GPGSV,3,1,09,04,00,000,39,07,14,306,41,08,45,189,43,09,34,308,43*72
$GPGSV,3,2,09,16,53,021,43,23,62,268,45,26,29,047,41,27,70,129,45*7C
$GPGSV,3,3,09,31,15,104,38*48
$BDGSV,3,1,12,02,45,218,38,04,23,109,38,06,37,173,41,07,63,013,43*69
$BDGSV,3,2,12,09,61,206,43,10,61,308,42,11,32,055,41,23,00,000,45*68
$BDGSV,3,3,12,25,23,084,40,28,40,162,35,01,40,125,00,03,54,172,00*6D
$B3CN0,0,0,0,0,0,0,0,0,0,0,0,0,0,0*4C
$ini_pos,lastpos_good = 1,ini_pos.x:-1578912.761514,ini_pos.y:5312769.784808,ini_pos.z:3146349.299051
$rtc_local_time,localRTC.weeks:2053,localRTC.seconds:353734.333103,localGtime.weeks:2053,localGtime.seconds:353735.000000
$pseudo_cd_ph,prn:7,pseudo_cd_ph:353734917.910098791122
measnum = 0,full_prange = 24602383.156494
$oldmeas,msRange:0.000000,x:17345407.341118,y:9112360.299973,z:18402267.769485,vx:-2172.391846,vy:666.209351,vz:1695.111206,tb:-0.000025024874
$newmeas,x:17345585.617283,y:9112305.628290,z:18402128.659390,vx:-2172.378174,vy:666.194763,vz:1695.142212,tb:-0.000025024874
$pseudo_cd_ph,prn:8,pseudo_cd_ph:353734928.099864363670
measnum = 1,full_prange = 21511978.500163
$oldmeas,msRange:71.758530,x:-5171302.089260,y:25842427.768231,z:-2184930.118345,vx:-330.721710,vy:206.193130,vz:3194.242920,tb:-0.000143739631
$newmeas,x:-5171278.357621,y:25842412.971632,z:-2185159.325082,vx:-330.729889,vy:206.219772,vz:3194.239746,tb:-0.000143739631
$pseudo_cd_ph,prn:9,pseudo_cd_ph:353734925.750414073467
measnum = 2,full_prange = 22382497.112680
$oldmeas,msRange:74.662299,x:10596379.797088,y:14484909.964211,z:19536608.889499,vx:-754.960571,vy:2378.885742,vz:-1352.575439,tb:0.000410547612
$newmeas,x:10596436.162917,y:14484732.356325,z:19536709.871587,vx:-754.973755,vy:2378.894775,vz:-1352.544312,tb:0.000410547612
$pseudo_cd_ph,prn:16,pseudo_cd_ph:353734929.930025458336
measnum = 3,full_prange = 20994290.721840
$oldmeas,msRange:70.031939,x:-8463859.309040,y:12408333.575035,z:21667762.660582,vx:-1828.901123,vy:-2115.761230,vz:535.006836,tb:-0.000040399090
$newmeas,x:-8463731.232576,y:12408481.740718,z:21667725.193210,vx:-1828.889282,vy:-2115.765625,vz:535.039856,tb:-0.000040399090
$pseudo_cd_ph,prn:23,pseudo_cd_ph:353734930.727801024914
measnum = 4,full_prange = 20711477.224429
$oldmeas,msRange:69.088476,x:3071375.662310,y:23421430.280400,z:12059602.786897,vx:-660.445129,vy:1378.728760,vz:-2621.554688,tb:-0.000185987808
$newmeas,x:3071421.290216,y:23421335.028809,z:12059783.899144,vx:-660.455566,vy:1378.748047,vz:-2621.536865,tb:-0.000185987808
$pseudo_cd_ph,prn:26,pseudo_cd_ph:353734924.088043272495
measnum = 5,full_prange = 22818461.169161
$oldmeas,msRange:76.116745,x:-16490770.582746,y:4308189.921904,z:20390052.408423,vx:-1802.048706,vy:-1866.678467,vz:-1044.369507,tb:0.000202396371
$newmeas,x:-16490633.421291,y:4308332.003194,z:20390131.898514,vx:-1802.047974,vy:-1866.693237,vz:-1044.336548,tb:0.000202396370
$pseudo_cd_ph,prn:27,pseudo_cd_ph:353734932.192257761955
measnum = 6,full_prange = 20288360.739686
$oldmeas,msRange:67.677088,x:-12020158.210347,y:21783518.106429,z:8744735.432850,vx:72.686325,vy:-1153.559814,vz:2967.072266,tb:-0.000132895745
$newmeas,x:-12020163.129305,y:21783596.172382,z:8744534.636728,vx:72.684357,vy:-1153.534790,vz:2967.085205,tb:-0.000132895744
$pseudo_cd_ph,prn:31,pseudo_cd_ph:18.564358768109
measnum = 7,full_prange = 24425108.958290
$oldmeas,msRange:81.475925,x:-25879541.111376,y:6870416.003374,z:1228611.620889,vx:-205.419403,vy:-203.712219,vz:-3140.719727,tb:0.000037912030
$newmeas,x:-25879524.373937,y:6870432.600249,z:1228867.505901,vx:-205.449417,vy:-203.706055,vz:-3140.717773,tb:0.000037912030
Refix G07: 2, 353734.917910, -3874
Refix G08: 2, 353734.928100, -3993
Refix G09: 2, 353734.925750, -3397
Refix G16: 2, 353734.929930, 717
Refix G23: 2, 353734.930728, -1530
Refix G26: 2, 353734.924088, 1315
Refix G27: 2, 353734.932192, -1972
Refix G31: 2, 353734.918564, 1144
$GNGGA,021517.000,2944.9050,N,10633.0920,E,1,14,0.8,321.1,M,,,,0000*16
$GNRMC,021517.000,A,2944.9050,N,10633.0920,E,0.18,0.00,160519,,*15
$GPGSA,A,3,07,08,09,16,23,26,27,,,,,,1.0,0.8,0.5*3F
$BDGSA,A,3,02,04,06,07,09,10,11,,,,,,1.0,0.8,0.5*20
$GLGSA,A,3,,,,,,,,,,,,,1.0,0.8,0.5*22
$GPGSV,3,1,09,04,00,000,40,07,14,306,40,08,45,189,43,09,34,308,44*7A
$GPGSV,3,2,09,16,53,021,43,23,62,268,44,26,29,047,41,27,70,129,44*7C
$GPGSV,3,3,09,31,15,104,38*48
$BDGSV,3,1,12,02,45,218,37,04,23,109,40,06,37,173,40,07,63,013,43*68
$BDGSV,3,2,12,09,61,206,43,10,61,308,42,11,32,055,40,23,00,000,44*68
$BDGSV,3,3,12,25,23,084,40,28,40,162,43,01,40,125,00,03,54,172,00*6C
$B3CN0,0,0,0,0,0,0,0,0,0,0,0,0,0,0*4C
$ini_pos,lastpos_good = 1,ini_pos.x:-1578913.248310,ini_pos.y:5312769.868088,ini_pos.z:3146350.708153
$rtc_local_time,localRTC.weeks:2053,localRTC.seconds:353735.333103,localGtime.weeks:2053,localGtime.seconds:353736.000000
$pseudo_cd_ph,prn:7,pseudo_cd_ph:353735917.912524044514
measnum = 0,full_prange = 24601646.415615
$oldmeas,msRange:0.000000,x:17343234.866030,y:9113026.598477,z:18403962.691815,vx:-2172.558350,vy:666.387695,vz:1694.733521,tb:-0.000025024878
$newmeas,x:17343413.150521,y:9112971.913799,z:18403823.616882,vx:-2172.544678,vy:666.373047,vz:1694.764526,tb:-0.000025024877
$pseudo_cd_ph,prn:8,pseudo_cd_ph:353735928.102366447449
measnum = 1,full_prange = 21511218.726327
$oldmeas,msRange:71.756730,x:-5171632.753947,y:25842633.775665,z:-2181735.851874,vx:-330.607697,vy:205.821747,vz:3194.290039,tb:-0.000143739634
$newmeas,x:-5171609.031328,y:25842619.006237,z:-2181965.053894,vx:-330.615875,vy:205.848404,vz:3194.286621,tb:-0.000143739634
$pseudo_cd_ph,prn:9,pseudo_cd_ph:353735925.752539455891
measnum = 2,full_prange = 22381850.269685
$oldmeas,msRange:74.660874,x:10595624.925106,y:14487288.788814,z:19535256.105504,vx:-754.783447,vy:2378.763672,vz:-1352.992554,tb:0.000410547604
$newmeas,x:10595681.276085,y:14487111.195175,z:19535357.115814,vx:-754.796692,vy:2378.772705,vz:-1352.961426,tb:0.000410547605
$pseudo_cd_ph,prn:16,pseudo_cd_ph:353735929.929539144039
measnum = 3,full_prange = 20994426.846434
$oldmeas,msRange:70.033124,x:-8465688.294892,y:12406217.845254,z:21668297.431777,vx:-1829.070679,vy:-2115.698486,vz:534.535583,tb:-0.000040399096
$newmeas,x:-8465560.205727,y:12406366.007491,z:21668259.997165,vx:-1829.058838,vy:-2115.702881,vz:534.568604,tb:-0.000040399095
$pseudo_cd_ph,prn:23,pseudo_cd_ph:353735930.728735506535
measnum = 4,full_prange = 20711187.407082
$oldmeas,msRange:69.088237,x:3070715.293117,y:23422808.869295,z:12056981.103464,vx:-660.293335,vy:1378.449097,vz:-2621.812256,tb:-0.000185987806
$newmeas,x:3070760.909900,y:23422713.638351,z:12057162.230978,vx:-660.303833,vy:1378.468506,vz:-2621.794434,tb:-0.000185987807
$pseudo_cd_ph,prn:26,pseudo_cd_ph:353735924.087185800076
measnum = 5,full_prange = 22818708.568742
$oldmeas,msRange:76.118310,x:-16492572.636268,y:4306323.340622,z:20389007.822398,vx:-1802.058472,vy:-1866.484253,vz:-1044.802612,tb:0.000202396381
$newmeas,x:-16492435.472584,y:4306465.408665,z:20389087.346310,vx:-1802.057739,vy:-1866.499023,vz:-1044.769653,tb:0.000202396380
$pseudo_cd_ph,prn:27,pseudo_cd_ph:353735932.193476140499
measnum = 6,full_prange = 20287985.808302
$oldmeas,msRange:67.676569,x:-12020085.509491,y:21782364.362607,z:8747702.409962,vx:72.715385,vy:-1153.927979,vz:2966.882080,tb:-0.000132895756
$newmeas,x:-12020090.430324,y:21782442.452034,z:8747501.630417,vx:72.713417,vy:-1153.903076,vz:2966.895020,tb:-0.000132895756
$pseudo_cd_ph,prn:31,pseudo_cd_ph:18.563604994370
measnum = 7,full_prange = 24425325.262941
$oldmeas,msRange:81.477384,x:-25879746.346584,y:6870212.253289,z:1225470.888529,vx:-205.051025,vy:-203.787964,vz:-3140.745117,tb:0.000037912031
$newmeas,x:-25879729.639011,y:6870228.856482,z:1225726.777878,vx:-205.081039,vy:-203.781799,vz:-3140.743164,tb:0.000037912031
Refix G07: 2, 353735.917913, -3870
Refix G08: 2, 353735.928102, -3988
Refix G09: 2, 353735.925753, -3392
Refix G16: 2, 353735.929930, 721
Refix G23: 2, 353735.930729, -1525
Refix G26: 2, 353735.924087, 1318
Refix G27: 2, 353735.932193, -1967
Refix G31: 2, 353735.918564, 1146
$GNGGA,021518.000,2944.9050,N,10633.0921,E,1,14,0.8,321.1,M,,,,0000*18
$GNRMC,021518.000,A,2944.9050,N,10633.0921,E,0.19,0.00,160519,,*1A
$GPGSA,A,3,07,08,09,16,23,26,27,,,,,,1.0,0.8,0.5*3F
$BDGSA,A,3,02,04,06,07,09,10,11,,,,,,1.0,0.8,0.5*20
$GLGSA,A,3,,,,,,,,,,,,,1.0,0.8,0.5*22
$GPGSV,3,1,09,04,00,000,39,07,14,306,41,08,45,189,44,09,34,308,43*75
$GPGSV,3,2,09,16,53,021,44,23,62,268,45,26,29,047,40,27,70,129,44*7B
$GPGSV,3,3,09,31,15,104,38*48
$BDGSV,3,1,12,02,45,218,41,04,23,109,39,06,37,173,40,07,63,013,43*67
$BDGSV,3,2,12,09,61,206,42,10,61,308,42,11,32,055,41,23,00,000,44*68
$BDGSV,3,3,12,25,23,084,39,28,40,162,43,01,40,125,00,03,54,172,00*62
$B3CN0,0,0,0,0,0,0,0,0,0,0,19,0,0,0*74
$ini_pos,lastpos_good = 1,ini_pos.x:-1578913.308222,ini_pos.y:5312769.766675,ini_pos.z:3146350.736273
$rtc_local_time,localRTC.weeks:2053,localRTC.seconds:353736.333103,localGtime.weeks:2053,localGtime.seconds:353737.000000
$pseudo_cd_ph,prn:7,pseudo_cd_ph:353736917.914947271347
measnum = 0,full_prange = 24600910.282284
$oldmeas,msRange:0.000000,x:17341062.224456,y:9113693.075285,z:18405657.236413,vx:-2172.724854,vy:666.565979,vz:1694.355835,tb:-0.000025024881
$newmeas,x:17341240.517272,y:9113638.377611,z:18405518.196639,vx:-2172.711182,vy:666.551331,vz:1694.386719,tb:-0.000025024881
$pseudo_cd_ph,prn:8,pseudo_cd_ph:353736928.104867398739
measnum = 1,full_prange = 21510459.292002
$oldmeas,msRange:71.754931,x:-5171963.304648,y:25842839.411714,z:-2178541.538366,vx:-330.493744,vy:205.450363,vz:3194.337158,tb:-0.000143739637
$newmeas,x:-5171939.591043,y:25842824.669455,z:-2178770.735666,vx:-330.501923,vy:205.477005,vz:3194.333740,tb:-0.000143739637
$pseudo_cd_ph,prn:9,pseudo_cd_ph:353736925.754660665989
measnum = 2,full_prange = 22381204.677522
$oldmeas,msRange:74.659453,x:10594870.230214,y:14489667.491286,z:19533902.904430,vx:-754.606384,vy:2378.641357,vz:-1353.409668,tb:0.000410547597
$newmeas,x:10594926.566346,y:14489489.911891,z:19534003.942962,vx:-754.619568,vy:2378.650635,vz:-1353.378540,tb:0.000410547597
$pseudo_cd_ph,prn:16,pseudo_cd_ph:353736929.929050743580
measnum = 3,full_prange = 20994563.596443
$oldmeas,msRange:70.034314,x:-8467517.450229,y:12404102.178422,z:21668831.731691,vx:-1829.240112,vy:-2115.635498,vz:534.064270,tb:-0.000040399101
$newmeas,x:-8467389.348362,y:12404250.337213,z:21668794.329839,vx:-1829.228271,vy:-2115.639893,vz:534.097290,tb:-0.000040399101
$pseudo_cd_ph,prn:23,pseudo_cd_ph:353736930.729669809341
measnum = 4,full_prange = 20710897.643342
$oldmeas,msRange:69.088001,x:3070055.075677,y:23424187.178610,z:12054359.162383,vx:-660.141602,vy:1378.169556,vz:-2622.070068,tb:-0.000185987805
$newmeas,x:3070100.681340,y:23424091.968315,z:12054540.305161,vx:-660.152100,vy:1378.188843,vz:-2622.052246,tb:-0.000185987805
$pseudo_cd_ph,prn:26,pseudo_cd_ph:353736924.086319744587
measnum = 5,full_prange = 22818958.541462
$oldmeas,msRange:76.119880,x:-16494374.699517,y:4304456.953623,z:20387962.803371,vx:-1802.068115,vy:-1866.289917,vz:-1045.235596,tb:0.000202396391
$newmeas,x:-16494237.533591,y:4304599.008433,z:20388042.361112,vx:-1802.067383,vy:-1866.304688,vz:-1045.202637,tb:0.000202396390
$pseudo_cd_ph,prn:27,pseudo_cd_ph:353736932.194691777229
measnum = 6,full_prange = 20287611.698894
$oldmeas,msRange:67.676052,x:-12020012.779606,y:21781210.250601,z:8750669.196917,vx:72.744385,vy:-1154.296143,vz:2966.691895,tb:-0.000132895768
$newmeas,x:-12020017.702311,y:21781288.363504,z:8750468.433945,vx:72.742424,vy:-1154.271240,vz:2966.704834,tb:-0.000132895767
$pseudo_cd_ph,prn:31,pseudo_cd_ph:18.562845269256
measnum = 7,full_prange = 24425543.354495
$oldmeas,msRange:81.478845,x:-25879951.213419,y:6870008.427431,z:1222330.130799,vx:-204.682663,vy:-203.863770,vz:-3140.770508,tb:0.000037912031
$newmeas,x:-25879934.535709,y:6870025.036948,z:1222586.024497,vx:-204.712662,vy:-203.857590,vz:-3140.768555,tb:0.000037912031
Refix G07: 2, 353736.917915, -3873
Refix G08: 2, 353736.928105, -3990
Refix G09: 2, 353736.925755, -3395
Refix G16: 2, 353736.929929, 718
Refix G23: 2, 353736.930730, -1527
Refix G26: 2, 353736.924086, 1316
Refix G27: 2, 353736.932195, -1969
Refix G31: 2, 353736.918563, 1144
$GNGGA,021519.000,2944.9051,N,10633.0922,E,1,14,0.8,320.6,M,,,,0000*1D
$GNRMC,021519.000,A,2944.9051,N,10633.0922,E,0.08,0.00,160519,,*19
$GPGSA,A,3,07,08,09,16,23,26,27,,,,,,1.0,0.8,0.5*3F
$BDGSA,A,3,02,04,06,07,09,10,11,,,,,,1.0,0.8,0.5*20
$GLGSA,A,3,,,,,,,,,,,,,1.0,0.8,0.5*22
$GPGSV,3,1,09,04,00,000,40,07,14,306,41,08,45,189,43,09,34,308,43*7C
$GPGSV,3,2,09,16,53,021,43,23,62,268,44,26,29,047,40,27,70,129,45*7C
$GPGSV,3,3,09,31,15,104,38*48
$BDGSV,3,1,12,02,45,218,39,04,23,109,39,06,37,173,41,07,63,013,43*69
$BDGSV,3,2,12,09,61,206,42,10,61,308,42,11,32,055,40,23,00,000,44*69
$BDGSV,3,3,12,25,23,084,39,28,40,162,43,01,40,125,00,03,54,172,00*62
$B3CN0,0,0,0,0,0,0,0,0,0,0,25,0,0,0*7B
$ini_pos,lastpos_good = 1,ini_pos.x:-1578913.326032,ini_pos.y:5312769.281010,ini_pos.z:3146350.661950
$rtc_local_time,localRTC.weeks:2053,localRTC.seconds:353737.333103,localGtime.weeks:2053,localGtime.seconds:353738.000000
$pseudo_cd_ph,prn:7,pseudo_cd_ph:353737917.917374014854
measnum = 0,full_prange = 24600173.094680
$oldmeas,msRange:0.000000,x:17338889.416454,y:9114359.730411,z:18407351.403244,vx:-2172.891357,vy:666.744324,vz:1693.978027,tb:-0.000025024885
$newmeas,x:17339067.717582,y:9114305.019743,z:18407212.398636,vx:-2172.877686,vy:666.729675,vz:1694.009033,tb:-0.000025024884
$pseudo_cd_ph,prn:8,pseudo_cd_ph:353737928.107371926308
measnum = 1,full_prange = 21509698.785537
$oldmeas,msRange:71.753134,x:-5172293.741412,y:25843044.676356,z:-2175347.177890,vx:-330.379822,vy:205.078934,vz:3194.384033,tb:-0.000143739640
$newmeas,x:-5172270.036819,y:25843029.961267,z:-2175576.370455,vx:-330.388000,vy:205.105591,vz:3194.380615,tb:-0.000143739640
$pseudo_cd_ph,prn:9,pseudo_cd_ph:353737925.756786227226
measnum = 2,full_prange = 22380557.780920
$oldmeas,msRange:74.658033,x:10594115.712405,y:14492046.071565,z:19532549.286305,vx:-754.429321,vy:2378.519287,vz:-1353.826660,tb:0.000410547589
$newmeas,x:10594172.033689,y:14491868.506427,z:19532650.353050,vx:-754.442505,vy:2378.528320,vz:-1353.795532,tb:0.000410547590
$pseudo_cd_ph,prn:16,pseudo_cd_ph:353737929.928565025330
measnum = 3,full_prange = 20994699.542346
$oldmeas,msRange:70.035505,x:-8469346.775013,y:12401986.574599,z:21669365.560315,vx:-1829.409546,vy:-2115.572266,vz:533.593018,tb:-0.000040399107
$newmeas,x:-8469218.660452,y:12402134.729936,z:21669328.191226,vx:-1829.397705,vy:-2115.576660,vz:533.625977,tb:-0.000040399106
$pseudo_cd_ph,prn:23,pseudo_cd_ph:353737930.730608046055
measnum = 4,full_prange = 20710606.700245
$oldmeas,msRange:69.087767,x:3069395.009961,y:23425565.208299,z:12051736.963708,vx:-659.989868,vy:1377.889893,vz:-2622.327637,tb:-0.000185987804
$newmeas,x:3069440.604502,y:23425470.018660,z:12051918.121735,vx:-660.000366,vy:1377.909180,vz:-2622.309814,tb:-0.000185987804
$pseudo_cd_ph,prn:26,pseudo_cd_ph:353737924.085449516773
measnum = 5,full_prange = 22819209.765014
$oldmeas,msRange:76.121450,x:-16496176.772436,y:4302590.760938,z:20386917.351366,vx:-1802.077759,vy:-1866.095581,vz:-1045.668579,tb:0.000202396401
$newmeas,x:-16496039.604266,y:4302732.802521,z:20386996.942939,vx:-1802.077026,vy:-1866.110352,vz:-1045.635620,tb:0.000202396400
$pseudo_cd_ph,prn:27,pseudo_cd_ph:353737932.195911824703
measnum = 6,full_prange = 20287236.267178
$oldmeas,msRange:67.675537,x:-12019940.020746,y:21780055.770427,z:8753635.793654,vx:72.773331,vy:-1154.664307,vz:2966.501709,tb:-0.000132895780
$newmeas,x:-12019944.945319,y:21780133.906798,z:8753435.047271,vx:72.771378,vy:-1154.639404,vz:2966.514648,tb:-0.000132895779
$pseudo_cd_ph,prn:31,pseudo_cd_ph:353737918.562088131905
measnum = 7,full_prange = 24425760.677680
$oldmeas,msRange:81.480306,x:-25880155.711887,y:6869804.525752,z:1219189.347763,vx:-204.314301,vy:-203.939621,vz:-3140.795654,tb:0.000037912032
$newmeas,x:-25880139.064041,y:6869821.141596,z:1219445.245797,vx:-204.344299,vy:-203.933426,vz:-3140.793701,tb:0.000037912032
Refix G07: 2, 353737.917917, -3874
Refix G08: 2, 353737.928107, -3990
Refix G09: 2, 353737.925757, -3395
Refix G16: 2, 353737.929929, 718
Refix G23: 2, 353737.930731, -1527
Refix G26: 2, 353737.924085, 1315
Refix G27: 2, 353737.932196, -1969
Refix G31: 2, 353737.918562, 1144
$GNGGA,021520.000,2944.9052,N,10633.0922,E,1,15,0.7,320.5,M,,,,0000*19
$GNRMC,021520.000,A,2944.9052,N,10633.0922,E,0.08,0.00,160519,,*10
$GPGSA,A,3,07,08,09,16,23,26,27,31,,,,,0.9,0.7,0.5*3A
$BDGSA,A,3,02,04,06,07,09,10,11,,,,,,0.9,0.7,0.5*27
$GLGSA,A,3,,,,,,,,,,,,,0.9,0.7,0.5*25
$GPGSV,3,1,09,04,00,000,39,07,14,306,40,08,45,189,44,09,34,308,43*74
$GPGSV,3,2,09,16,53,021,43,23,62,268,45,26,29,047,41,27,70,129,44*7D
$GPGSV,3,3,09,31,15,104,39*49
$BDGSV,3,1,12,01,40,125,40,02,45,218,40,03,54,172,24,04,23,109,40*6B
$BDGSV,3,2,12,05,00,000,34,06,37,173,41,07,63,013,43,09,61,206,42*61
$BDGSV,3,3,12,10,61,308,42,11,32,055,40,23,00,000,44,25,23,084,40*6A
$B3CN0,0,0,0,0,0,0,0,0,0,0,0,0,0,0*4C
$ini_pos,lastpos_good = 1,ini_pos.x:-1578913.304864,ini_pos.y:5312769.112667,ini_pos.z:3146350.742704
$rtc_local_time,localRTC.weeks:2053,localRTC.seconds:353738.333103,localGtime.weeks:2053,localGtime.seconds:353739.000000
$pseudo_cd_ph,prn:7,pseudo_cd_ph:353738917.919800937176
measnum = 0,full_prange = 24599435.853469
$oldmeas,msRange:0.000000,x:17336716.442084,y:9115026.563868,z:18409045.192272,vx:-2173.057617,vy:666.922668,vz:1693.600220,tb:-0.000025024888
$newmeas,x:17336894.751517,y:9114971.840206,z:18408906.222831,vx:-2173.043945,vy:666.908020,vz:1693.631226,tb:-0.000025024888
$pseudo_cd_ph,prn:8,pseudo_cd_ph:353738928.109873950481
measnum = 1,full_prange = 21508939.029570
$oldmeas,msRange:71.751335,x:-5172624.064287,y:25843249.569573,z:-2172152.770515,vx:-330.265961,vy:204.707504,vz:3194.430908,tb:-0.000143739643
$newmeas,x:-5172600.368700,y:25843234.881653,z:-2172381.958347,vx:-330.274139,vy:204.734161,vz:3194.427490,tb:-0.000143739643
$pseudo_cd_ph,prn:9,pseudo_cd_ph:353738925.758908748627
measnum = 2,full_prange = 22379911.795639
$oldmeas,msRange:74.656612,x:10593361.371673,y:14494424.529587,z:19531195.251158,vx:-754.252197,vy:2378.396973,vz:-1354.243652,tb:0.000410547582
$newmeas,x:10593417.678113,y:14494246.978702,z:19531296.346116,vx:-754.265442,vy:2378.406006,vz:-1354.212524,tb:0.000410547583
$pseudo_cd_ph,prn:16,pseudo_cd_ph:353738929.928077578545
measnum = 3,full_prange = 20994836.006451
$oldmeas,msRange:70.036695,x:-8471176.269206,y:12399871.033847,z:21669898.917638,vx:-1829.578979,vy:-2115.509277,vz:533.121704,tb:-0.000040399112
$newmeas,x:-8471048.141949,y:12400019.185727,z:21669861.581312,vx:-1829.567139,vy:-2115.513672,vz:533.154724,tb:-0.000040399112
$pseudo_cd_ph,prn:23,pseudo_cd_ph:353738930.731545090675
measnum = 4,full_prange = 20710316.114530
$oldmeas,msRange:69.087532,x:3068735.095938,y:23426942.958313,z:12049114.507494,vx:-659.838196,vy:1377.610229,vz:-2622.584961,tb:-0.000185987803
$newmeas,x:3068780.679361,y:23426847.789331,z:12049295.680769,vx:-659.848694,vy:1377.629517,vz:-2622.567383,tb:-0.000185987803
$pseudo_cd_ph,prn:26,pseudo_cd_ph:353738924.084577918053
measnum = 5,full_prange = 22819461.399554
$oldmeas,msRange:76.123019,x:-16497978.854968,y:4300724.762599,z:20385871.466406,vx:-1802.087402,vy:-1865.901245,vz:-1046.101440,tb:0.000202396411
$newmeas,x:-16497841.684556,y:4300866.790953,z:20385951.091811,vx:-1802.086670,vy:-1865.916016,vz:-1046.068481,tb:0.000202396410
$pseudo_cd_ph,prn:27,pseudo_cd_ph:353738932.197129547596
measnum = 6,full_prange = 20286861.532354
$oldmeas,msRange:67.675021,x:-12019867.232966,y:21778900.922099,z:8756602.200106,vx:72.802223,vy:-1155.032471,vz:2966.311279,tb:-0.000132895792
$newmeas,x:-12019872.159403,y:21778979.081939,z:8756401.470310,vx:72.800270,vy:-1155.007568,vz:2966.324219,tb:-0.000132895791
$pseudo_cd_ph,prn:31,pseudo_cd_ph:353738918.561334609985
measnum = 7,full_prange = 24425976.910856
$oldmeas,msRange:81.481768,x:-25880359.841997,y:6869600.548200,z:1216048.539486,vx:-203.945938,vy:-204.015518,vz:-3140.821045,tb:0.000037912032
$newmeas,x:-25880343.224016,y:6869617.170375,z:1216304.441839,vx:-203.975952,vy:-204.009323,vz:-3140.818848,tb:0.000037912032
Refix G07: 2, 353738.917920, -3875
Refix G08: 2, 353738.928110, -3992
Refix G09: 2, 353738.925759, -3396
Refix G16: 2, 353738.929928, 716
Refix G23: 2, 353738.930732, -1529
Refix G26: 2, 353738.924085, 1313
Refix G27: 2, 353738.932197, -1971
Refix G31: 2, 353738.918561, 1142
$GNGGA,021521.000,2944.9053,N,10633.0922,E,1,16,0.7,320.6,M,,,,0000*19
$GNRMC,021521.000,A,2944.9053,N,10633.0922,E,0.15,0.00,160519,,*1C
$GPGSA,A,3,07,08,09,16,23,26,27,31,,,,,0.9,0.7,0.5*3A
$BDGSA,A,3,01,02,04,06,07,09,10,11,,,,,0.9,0.7,0.5*26
$GLGSA,A,3,,,,,,,,,,,,,0.9,0.7,0.5*25
$GPGSV,3,1,09,04,00,000,39,07,14,306,41,08,45,189,44,09,34,308,43*75
$GPGSV,3,2,09,16,53,021,44,23,62,268,45,26,29,047,41,27,70,129,45*7B
$GPGSV,3,3,09,31,15,104,38*48
$BDGSV,3,1,12,01,40,125,41,02,45,218,40,04,23,109,40,05,00,000,35*69
$BDGSV,3,2,12,06,37,173,40,07,63,013,43,09,61,206,42,10,61,308,42*69
$BDGSV,3,3,12,11,32,055,40,23,00,000,44,25,23,084,39,28,40,162,43*63
$B3CN0,0,0,0,0,0,0,0,0,0,0,0,0,0,0*4C
$ini_pos,lastpos_good = 1,ini_pos.x:-1578913.315658,ini_pos.y:5312769.086467,ini_pos.z:3146350.874212
$rtc_local_time,localRTC.weeks:2053,localRTC.seconds:353739.333103,localGtime.weeks:2053,localGtime.seconds:353740.000000
$pseudo_cd_ph,prn:7,pseudo_cd_ph:353739917.922228574753
measnum = 0,full_prange = 24598698.397829
$oldmeas,msRange:0.000000,x:17334543.301403,y:9115693.575670,z:18410738.603461,vx:-2173.223877,vy:667.101013,vz:1693.222290,tb:-0.000025024892
$newmeas,x:17334721.619135,y:9115638.839015,z:18410599.669191,vx:-2173.210205,vy:667.086365,vz:1693.253296,tb:-0.000025024892
$pseudo_cd_ph,prn:8,pseudo_cd_ph:353739928.112377703190
measnum = 1,full_prange = 21508178.755401
$oldmeas,msRange:71.749537,x:-5172954.273322,y:25843454.091345,z:-2168958.316310,vx:-330.152130,vy:204.336044,vz:3194.477783,tb:-0.000143739646
$newmeas,x:-5172930.586739,y:25843439.430593,z:-2169187.499398,vx:-330.160309,vy:204.362701,vz:3194.474365,tb:-0.000143739645
$pseudo_cd_ph,prn:9,pseudo_cd_ph:353739925.761032462120
measnum = 2,full_prange = 22379265.452977
$oldmeas,msRange:74.655191,x:10592607.208014,y:14496802.865287,z:19529840.799017,vx:-754.075134,vy:2378.274658,vz:-1354.660645,tb:0.000410547575
$newmeas,x:10592663.499610,y:14496625.328663,z:19529941.922183,vx:-754.088379,vy:2378.283691,vz:-1354.629517,tb:0.000410547575
$pseudo_cd_ph,prn:16,pseudo_cd_ph:353739929.927589535713
measnum = 3,full_prange = 20994972.649246
$oldmeas,msRange:70.037885,x:-8473005.932768,y:12397755.556225,z:21670431.803651,vx:-1829.748291,vy:-2115.446045,vz:532.650391,tb:-0.000040399118
$newmeas,x:-8472877.792817,y:12397903.704647,z:21670394.500089,vx:-1829.736450,vy:-2115.450439,vz:532.683350,tb:-0.000040399117
$pseudo_cd_ph,prn:23,pseudo_cd_ph:353739930.732482433319
measnum = 4,full_prange = 20710025.439468
$oldmeas,msRange:69.087297,x:3068075.333577,y:23428320.428606,z:12046491.793796,vx:-659.686584,vy:1377.330444,vz:-2622.842529,tb:-0.000185987802
$newmeas,x:3068120.905884,y:23428225.280285,z:12046672.982313,vx:-659.697021,vy:1377.349731,vz:-2622.824707,tb:-0.000185987802
$pseudo_cd_ph,prn:26,pseudo_cd_ph:353739924.083710134029
measnum = 5,full_prange = 22819711.890476
$oldmeas,msRange:76.124589,x:-16499780.947058,y:4298858.958636,z:20384825.148513,vx:-1802.096924,vy:-1865.706787,vz:-1046.534424,tb:0.000202396421
$newmeas,x:-16499643.774414,y:4299000.973753,z:20384904.807745,vx:-1802.096191,vy:-1865.721680,vz:-1046.501465,tb:0.000202396420
$pseudo_cd_ph,prn:27,pseudo_cd_ph:353739932.198348104954
measnum = 6,full_prange = 20286486.547363
$oldmeas,msRange:67.674505,x:-12019794.416321,y:21777745.705632,z:8759568.416209,vx:72.831062,vy:-1155.400513,vz:2966.121094,tb:-0.000132895804
$newmeas,x:-12019799.344619,y:21777823.888938,z:8759367.703006,vx:72.829109,vy:-1155.375610,vz:2966.133789,tb:-0.000132895803
$pseudo_cd_ph,prn:31,pseudo_cd_ph:353739918.560586988926
measnum = 7,full_prange = 24426191.374998
$oldmeas,msRange:81.483229,x:-25880563.603757,y:6869396.494725,z:1212907.706033,vx:-203.577591,vy:-204.091461,vz:-3140.846191,tb:0.000037912033
$newmeas,x:-25880547.015642,y:6869413.123234,z:1213163.612683,vx:-203.607605,vy:-204.085266,vz:-3140.843994,tb:0.000037912032
Refix G07: 2, 353739.917922, -3874
Refix G08: 2, 353739.928112, -3989
Refix G09: 2, 353739.925761, -3394
Refix G16: 2, 353739.929928, 719
Refix G23: 2, 353739.930732, -1525
Refix G26: 2, 353739.924084, 1316
Refix G27: 2, 353739.932198, -1967
Refix G31: 2, 353739.918561, 1145
$GNGGA,021522.000,2944.9054,N,10633.0922,E,1,18,0.7,320.8,M,,,,0000*1D
$GNRMC,021522.000,A,2944.9054,N,10633.0922,E,0.08,0.00,160519,,*14
$GPGSA,A,3,07,08,09,16,23,26,27,31,,,,,0.8,0.7,0.5*3B
$BDGSA,A,3,01,02,04,06,07,09,10,11,25,28,,,0.8,0.7,0.5*2A
$GLGSA,A,3,,,,,,,,,,,,,0.8,0.7,0.5*24
$GPGSV,3,1,09,04,00,000,40,07,14,306,41,08,45,189,44,09,34,308,43*7B
$GPGSV,3,2,09,16,53,021,44,23,62,268,46,26,29,047,41,27,70,129,46*7B
$GPGSV,3,3,09,31,15,104,37*47
$BDGSV,3,1,12,01,40,125,39,02,45,218,41,03,54,172,19,04,23,109,40*6A
$BDGSV,3,2,12,05,00,000,35,06,37,173,41,07,63,013,43,09,61,206,43*61
$BDGSV,3,3,12,10,61,308,42,11,32,055,40,23,00,000,44,25,23,084,39*64
$B3CN0,0,0,0,0,0,0,0,0,0,0,0,0,0,0*4C
$ini_pos,lastpos_good = 1,ini_pos.x:-1578913.340432,ini_pos.y:5312769.177015,ini_pos.z:3146351.210530
$rtc_local_time,localRTC.weeks:2053,localRTC.seconds:353740.333103,localGtime.weeks:2053,localGtime.seconds:353741.000000
$pseudo_cd_ph,prn:7,pseudo_cd_ph:353740917.924657106400
measnum = 0,full_prange = 24597960.674154
$oldmeas,msRange:0.000000,x:17332369.994470,y:9116360.765832,z:18412431.636777,vx:-2173.390137,vy:667.279358,vz:1692.844482,tb:-0.000025024895
$newmeas,x:17332548.320493,y:9116306.016183,z:18412292.737680,vx:-2173.376465,vy:667.264709,vz:1692.875488,tb:-0.000025024895
$pseudo_cd_ph,prn:8,pseudo_cd_ph:353740928.114878356457
measnum = 1,full_prange = 21507419.410422
$oldmeas,msRange:71.747738,x:-5173284.368566,y:25843658.241651,z:-2165763.815344,vx:-330.038361,vy:203.964569,vz:3194.524414,tb:-0.000143739648
$newmeas,x:-5173260.690981,y:25843643.608067,z:-2165992.993693,vx:-330.046539,vy:203.991226,vz:3194.520996,tb:-0.000143739648
$pseudo_cd_ph,prn:9,pseudo_cd_ph:353740925.763155937195
measnum = 2,full_prange = 22378619.181791
$oldmeas,msRange:74.653770,x:10591853.221421,y:14499181.078601,z:19528485.929913,vx:-753.898071,vy:2378.152100,vz:-1355.077637,tb:0.000410547567
$newmeas,x:10591909.498174,y:14499003.556242,z:19528587.081283,vx:-753.911316,vy:2378.161377,vz:-1355.046509,tb:0.000410547568
$pseudo_cd_ph,prn:16,pseudo_cd_ph:353740929.927101254463
measnum = 3,full_prange = 20995109.363517
$oldmeas,msRange:70.039075,x:-8474835.765660,y:12395640.141794,z:21670964.218343,vx:-1829.917603,vy:-2115.382812,vz:532.179077,tb:-0.000040399123
$newmeas,x:-8474707.613017,y:12395788.286753,z:21670926.947547,vx:-1829.905762,vy:-2115.387207,vz:532.212036,tb:-0.000040399123
$pseudo_cd_ph,prn:23,pseudo_cd_ph:353740930.733419239521
measnum = 4,full_prange = 20709734.925228
$oldmeas,msRange:69.087061,x:3067415.722848,y:23429697.619131,z:12043868.822667,vx:-659.534973,vy:1377.050659,vz:-2623.099854,tb:-0.000185987801
$newmeas,x:3067461.284042,y:23429602.491472,z:12044050.026424,vx:-659.545410,vy:1377.069946,vz:-2623.082031,tb:-0.000185987801
$pseudo_cd_ph,prn:26,pseudo_cd_ph:353740924.082850515842
measnum = 5,full_prange = 22819959.933342
$oldmeas,msRange:76.126158,x:-16501583.048648,y:4296993.349082,z:20383778.397710,vx:-1802.106323,vy:-1865.512451,vz:-1046.967285,tb:0.000202396430
$newmeas,x:-16501445.873792,y:4297135.350943,z:20383858.090760,vx:-1802.105713,vy:-1865.527222,vz:-1046.934326,tb:0.000202396430
$pseudo_cd_ph,prn:27,pseudo_cd_ph:353740932.199565708637
measnum = 6,full_prange = 20286111.848277
$oldmeas,msRange:67.673990,x:-12019721.570866,y:21776590.121041,z:8762534.441899,vx:72.859848,vy:-1155.768677,vz:2965.930664,tb:-0.000132895815
$newmeas,x:-12019726.501021,y:21776668.327812,z:8762333.745290,vx:72.857895,vy:-1155.743774,vz:2965.943359,tb:-0.000132895815
$pseudo_cd_ph,prn:31,pseudo_cd_ph:353740918.559833645821
measnum = 7,full_prange = 24426407.554566
$oldmeas,msRange:81.484690,x:-25880766.997176,y:6869192.365276,z:1209766.847470,vx:-203.209259,vy:-204.167465,vz:-3140.871094,tb:0.000037912033
$newmeas,x:-25880750.438925,y:6869209.000124,z:1210022.758428,vx:-203.239273,vy:-204.161270,vz:-3140.869141,tb:0.000037912033
Refix G07: 2, 353740.917925, -3873
Refix G08: 2, 353740.928115, -3987
Refix G09: 2, 353740.925763, -3392
Refix G16: 2, 353740.929927, 721
Refix G23: 2, 353740.930733, -1523
Refix G26: 2, 353740.924083, 1317
Refix G27: 2, 353740.932200, -1964
Refix G31: 2, 353740.918560, 1147
$GNGGA,021523.000,2944.9055,N,10633.0922,E,1,18,0.7,320.8,M,,,,0000*1D
$GNRMC,021523.000,A,2944.9055,N,10633.0922,E,0.14,0.00,160519,,*19
$GPGSA,A,3,07,08,09,16,23,26,27,31,,,,,0.8,0.7,0.5*3B
$BDGSA,A,3,01,02,04,06,07,09,10,11,25,28,,,0.8,0.7,0.5*2A
$GLGSA,A,3,,,,,,,,,,,,,0.8,0.7,0.5*24
$GPGSV,3,1,09,04,00,000,40,07,14,306,42,08,45,189,44,09,34,308,44*7F
$GPGSV,3,2,09,16,53,021,44,23,62,268,45,26,29,047,40,27,70,129,45*7A
$GPGSV,3,3,09,31,15,104,37*47
$BDGSV,3,1,12,01,40,125,41,02,45,218,40,04,23,109,40,05,00,000,36*6A
$BDGSV,3,2,12,06,37,173,41,07,63,013,43,09,61,206,43,10,61,308,43*68
$BDGSV,3,3,12,11,32,055,40,32,25,238,26,23,00,000,45,25,23,084,39*65
$B3CN0,0,0,0,0,0,0,0,0,0,0,0,0,0,0*4C
$ini_pos,lastpos_good = 1,ini_pos.x:-1578913.332261,ini_pos.y:5312769.083573,ini_pos.z:3146351.415212
$rtc_local_time,localRTC.weeks:2053,localRTC.seconds:353741.333103,localGtime.weeks:2053,localGtime.seconds:353742.000000
$pseudo_cd_ph,prn:7,pseudo_cd_ph:353741917.927084982395
measnum = 0,full_prange = 24597223.147039
$oldmeas,msRange:0.000000,x:17330196.521343,y:9117028.134366,z:18414124.292184,vx:-2173.556152,vy:667.457764,vz:1692.466553,tb:-0.000025024899
$newmeas,x:17330374.855652,y:9116973.371724,z:18413985.428259,vx:-2173.542725,vy:667.443115,vz:1692.497559,tb:-0.000025024899
$pseudo_cd_ph,prn:8,pseudo_cd_ph:353741928.117378294468
measnum = 1,full_prange = 21506660.279871
$oldmeas,msRange:71.745941,x:-5173614.350069,y:25843862.020473,z:-2162569.267685,vx:-329.924652,vy:203.593079,vz:3194.571045,tb:-0.000143739651
$newmeas,x:-5173590.681477,y:25843847.414055,z:-2162798.441293,vx:-329.932800,vy:203.619736,vz:3194.567627,tb:-0.000143739651
$pseudo_cd_ph,prn:9,pseudo_cd_ph:353741925.765278220177
measnum = 2,full_prange = 22377973.267985
$oldmeas,msRange:74.652350,x:10591099.411888,y:14501559.169466,z:19527130.643874,vx:-753.721008,vy:2378.029785,vz:-1355.494507,tb:0.000410547560
$newmeas,x:10591155.673800,y:14501381.661374,z:19527231.823445,vx:-753.734253,vy:2378.038818,vz:-1355.463379,tb:0.000410547560
$pseudo_cd_ph,prn:16,pseudo_cd_ph:353741929.926610410213
measnum = 3,full_prange = 20995246.846157
$oldmeas,msRange:70.040265,x:-8476665.767845,y:12393524.790615,z:21671496.161706,vx:-1830.086914,vy:-2115.319580,vz:531.707703,tb:-0.000040399128
$newmeas,x:-8476537.602508,y:12393672.932112,z:21671458.923674,vx:-1830.075073,vy:-2115.323975,vz:531.740723,tb:-0.000040399128
$pseudo_cd_ph,prn:23,pseudo_cd_ph:353741930.734354257584
measnum = 4,full_prange = 20709444.947059
$oldmeas,msRange:69.086827,x:3066756.263719,y:23431074.529839,z:12041245.594163,vx:-659.383362,vy:1376.770874,vz:-2623.357178,tb:-0.000185987800
$newmeas,x:3066801.813804,y:23430979.422844,z:12041426.813161,vx:-659.393799,vy:1376.790161,vz:-2623.339600,tb:-0.000185987800
$pseudo_cd_ph,prn:26,pseudo_cd_ph:353741924.081987261772
measnum = 5,full_prange = 22820209.066219
$oldmeas,msRange:76.127727,x:-16503385.159683,y:4295127.933967,z:20382731.214020,vx:-1802.115845,vy:-1865.317993,vz:-1047.400146,tb:0.000202396440
$newmeas,x:-16503247.982612,y:4295269.922577,z:20382810.940891,vx:-1802.115112,vy:-1865.332764,vz:-1047.367188,tb:0.000202396440
$pseudo_cd_ph,prn:27,pseudo_cd_ph:353741932.200781702995
measnum = 6,full_prange = 20285737.631655
$oldmeas,msRange:67.673475,x:-12019648.696656,y:21775434.168339,z:8765500.277112,vx:72.888573,vy:-1156.136841,vz:2965.739990,tb:-0.000132895827
$newmeas,x:-12019653.628664,y:21775512.398575,z:8765299.597096,vx:72.886627,vy:-1156.111938,vz:2965.752930,tb:-0.000132895826
$pseudo_cd_ph,prn:31,pseudo_cd_ph:353741918.559073328972
measnum = 7,full_prange = 24426625.824810
$oldmeas,msRange:81.486152,x:-25880970.022260,y:6868988.159803,z:1206625.963861,vx:-202.840927,vy:-204.243515,vz:-3140.896240,tb:0.000037912033
$newmeas,x:-25880953.493872,y:6869004.800996,z:1206881.879144,vx:-202.870941,vy:-204.237305,vz:-3140.894287,tb:0.000037912033
Refix G07: 2, 353741.917927, -3873
Refix G08: 2, 353741.928117, -3987
Refix G09: 2, 353741.925765, -3391
Refix G16: 2, 353741.929927, 720
Refix G23: 2, 353741.930734, -1523
Refix G26: 2, 353741.924082, 1317
Refix G27: 2, 353741.932201, -1965
Refix G31: 2, 353741.918559, 1146
$GNGGA,021524.000,2944.9057,N,10633.0922,E,1,18,0.7,320.8,M,,,,0000*18
$GNRMC,021524.000,A,2944.9057,N,10633.0922,E,0.04,0.00,160519,,*1D
$GPGSA,A,3,07,08,09,16,23,26,27,31,,,,,0.8,0.7,0.5*3B
$BDGSA,A,3,01,02,04,06,07,09,10,11,25,28,,,0.8,0.7,0.5*2A
$GLGSA,A,3,,,,,,,,,,,,,0.8,0.7,0.5*24
$GPGSV,3,1,09,04,00,000,40,07,14,306,41,08,45,189,44,09,34,308,44*7C
$GPGSV,3,2,09,16,53,021,44,23,62,268,45,26,29,047,40,27,70,129,46*79
$GPGSV,3,3,09,31,15,104,38*48
$BDGSV,3,1,12,01,40,125,41,02,45,218,40,03,54,172,17,04,23,109,40*6A
$BDGSV,3,2,12,05,00,000,36,06,37,173,41,07,63,013,43,09,61,206,43*62
$BDGSV,3,3,12,10,61,308,42,11,32,055,40,32,25,238,43,23,00,000,44*6C
$B3CN0,0,24,0,0,0,0,0,0,0,0,0,0,0,0*7A
$ini_pos,lastpos_good = 1,ini_pos.x:-1578913.266306,ini_pos.y:5312768.890187,ini_pos.z:3146351.611866
$rtc_local_time,localRTC.weeks:2053,localRTC.seconds:353742.333103,localGtime.weeks:2053,localGtime.seconds:353743.000000
$pseudo_cd_ph,prn:7,pseudo_cd_ph:353742917.929512858391
measnum = 0,full_prange = 24596485.619923
$oldmeas,msRange:0.000000,x:17328022.882081,y:9117695.681287,z:18415816.569647,vx:-2173.722412,vy:667.636169,vz:1692.088501,tb:-0.000025024902
$newmeas,x:17328201.224672,y:9117640.905651,z:18415677.740896,vx:-2173.708740,vy:667.621521,vz:1692.119507,tb:-0.000025024902
$pseudo_cd_ph,prn:8,pseudo_cd_ph:353742928.119879424572
measnum = 1,full_prange = 21505900.791939
$oldmeas,msRange:71.744144,x:-5173944.217877,y:25844065.427789,z:-2159374.673403,vx:-329.810974,vy:203.221558,vz:3194.617676,tb:-0.000143739654
$newmeas,x:-5173920.558276,y:25844050.848539,z:-2159603.842260,vx:-329.819153,vy:203.248215,vz:3194.614258,tb:-0.000143739654
$pseudo_cd_ph,prn:9,pseudo_cd_ph:353742925.767401516438
measnum = 2,full_prange = 22377327.050406
$oldmeas,msRange:74.650930,x:10590345.779410,y:14503937.137818,z:19525774.940928,vx:-753.544006,vy:2377.907227,vz:-1355.911377,tb:0.000410547552
$newmeas,x:10590402.026481,y:14503759.643998,z:19525876.148696,vx:-753.557190,vy:2377.916260,vz:-1355.880371,tb:0.000410547553
$pseudo_cd_ph,prn:16,pseudo_cd_ph:353742929.926122188568
measnum = 3,full_prange = 20995383.542560
$oldmeas,msRange:70.041455,x:-8478495.939284,y:12391409.502747,z:21672027.633729,vx:-1830.256104,vy:-2115.256348,vz:531.236389,tb:-0.000040399134
$newmeas,x:-8478367.761261,y:12391557.640773,z:21671990.428464,vx:-1830.244263,vy:-2115.260742,vz:531.269348,tb:-0.000040399133
$pseudo_cd_ph,prn:23,pseudo_cd_ph:353742930.735290467739
measnum = 4,full_prange = 20709154.611508
$oldmeas,msRange:69.086593,x:3066096.956161,y:23432451.160686,z:12038622.108338,vx:-659.231812,vy:1376.490967,vz:-2623.614502,tb:-0.000185987799
$newmeas,x:3066142.495138,y:23432356.074358,z:12038803.342569,vx:-659.242249,vy:1376.510254,vz:-2623.596680,tb:-0.000185987799
$pseudo_cd_ph,prn:26,pseudo_cd_ph:353742924.081119298935
measnum = 5,full_prange = 22820459.610748
$oldmeas,msRange:76.129296,x:-16505187.280105,y:4293262.713322,z:20381683.597465,vx:-1802.125122,vy:-1865.123413,vz:-1047.833008,tb:0.000202396450
$newmeas,x:-16505050.100816,y:4293404.688686,z:20381763.358161,vx:-1802.124390,vy:-1865.138306,vz:-1047.800049,tb:0.000202396449
$pseudo_cd_ph,prn:27,pseudo_cd_ph:353742932.201999008656
measnum = 6,full_prange = 20285363.021914
$oldmeas,msRange:67.672961,x:-12019575.793745,y:21774277.847542,z:8768465.921782,vx:72.917244,vy:-1156.504883,vz:2965.549561,tb:-0.000132895839
$newmeas,x:-12019580.727602,y:21774356.101241,z:8768265.258367,vx:72.915306,vy:-1156.479980,vz:2965.562256,tb:-0.000132895838
$pseudo_cd_ph,prn:31,pseudo_cd_ph:353742918.558315336704
measnum = 7,full_prange = 24426843.398162
$oldmeas,msRange:81.487614,x:-25881172.679018,y:6868783.878255,z:1203485.055271,vx:-202.472610,vy:-204.319611,vz:-3140.921143,tb:0.000037912034
$newmeas,x:-25881156.180494,y:6868800.525796,z:1203740.974866,vx:-202.502609,vy:-204.313400,vz:-3140.919189,tb:0.000037912034
Refix G07: 2, 353742.917930, -3870
Refix G08: 2, 353742.928120, -3984
Refix G09: 2, 353742.925767, -3388
Refix G16: 2, 353742.929926, 723
Refix G23: 2, 353742.930735, -1519
Refix G26: 2, 353742.924081, 1320
Refix G27: 2, 353742.932202, -1961
Refix G31: 2, 353742.918558, 1149
$GNGGA,021525.000,2944.9058,N,10633.0922,E,1,18,0.7,320.9,M,,,,0000*17
$GNRMC,021525.000,A,2944.9058,N,10633.0922,E,0.09,0.00,160519,,*1E
$GPGSA,A,3,07,08,09,16,23,26,27,31,,,,,0.8,0.7,0.5*3B
$BDGSA,A,3,01,02,04,06,07,09,10,11,25,28,,,0.8,0.7,0.5*2A
$GLGSA,A,3,,,,,,,,,,,,,0.8,0.7,0.5*24
$GPGSV,3,1,09,04,00,000,40,07,14,306,41,08,45,189,44,09,34,308,44*7C
$GPGSV,3,2,09,16,53,021,44,23,62,268,45,26,29,047,41,27,70,129,45*7B
$GPGSV,3,3,09,31,15,104,37*47
$BDGSV,3,1,12,01,40,125,41,02,45,218,39,03,54,172,20,04,23,109,39*6E
$BDGSV,3,2,12,05,00,000,36,06,37,173,41,07,63,013,43,09,61,206,43*62
$BDGSV,3,3,12,10,61,308,43,11,32,055,40,32,25,238,43,23,00,000,45*6C
$B3CN0,20,0,0,0,0,0,0,0,0,0,0,0,0,0*7E
$ini_pos,lastpos_good = 1,ini_pos.x:-1578913.320013,ini_pos.y:5312768.848487,ini_pos.z:3146351.855340
$rtc_local_time,localRTC.weeks:2053,localRTC.seconds:353743.333103,localGtime.weeks:2053,localGtime.seconds:353744.000000
$pseudo_cd_ph,prn:7,pseudo_cd_ph:353743917.931935846806
measnum = 0,full_prange = 24595749.558067
$oldmeas,msRange:0.000000,x:17325849.076742,y:9118363.406609,z:18417508.469130,vx:-2173.888428,vy:667.814575,vz:1691.710571,tb:-0.000025024906
$newmeas,x:17326027.427619,y:9118308.617975,z:18417369.675545,vx:-2173.874756,vy:667.799927,vz:1691.741577,tb:-0.000025024906
$pseudo_cd_ph,prn:8,pseudo_cd_ph:353743928.122377514839
measnum = 1,full_prange = 21505142.215328
$oldmeas,msRange:71.742346,x:-5174273.972042,y:25844268.463581,z:-2156180.032566,vx:-329.697357,vy:202.850037,vz:3194.664307,tb:-0.000143739657
$newmeas,x:-5174250.321425,y:25844253.911496,z:-2156409.196677,vx:-329.705505,vy:202.876678,vz:3194.660889,tb:-0.000143739657
$pseudo_cd_ph,prn:9,pseudo_cd_ph:353743925.769520640373
measnum = 2,full_prange = 22376682.083659
$oldmeas,msRange:74.649510,x:10589592.323981,y:14506314.983592,z:19524418.821105,vx:-753.366943,vy:2377.784424,vz:-1356.328247,tb:0.000410547545
$newmeas,x:10589648.556216,y:14506137.504040,z:19524520.057071,vx:-753.380127,vy:2377.793701,vz:-1356.297241,tb:0.000410547545
$pseudo_cd_ph,prn:16,pseudo_cd_ph:353743929.925630211830
measnum = 3,full_prange = 20995521.364711
$oldmeas,msRange:70.042645,x:-8480326.279937,y:12389294.278251,z:21672558.634401,vx:-1830.425293,vy:-2115.192871,vz:530.765015,tb:-0.000040399139
$newmeas,x:-8480198.089223,y:12389442.412810,z:21672521.461903,vx:-1830.413452,vy:-2115.197266,vz:530.798035,tb:-0.000040399139
$pseudo_cd_ph,prn:23,pseudo_cd_ph:353743930.736223340034
measnum = 4,full_prange = 20708865.276623
$oldmeas,msRange:69.086360,x:3065437.800143,y:23433827.511622,z:12035998.365247,vx:-659.080261,vy:1376.211060,vz:-2623.871826,tb:-0.000185987798
$newmeas,x:3065483.328016,y:23433732.445959,z:12036179.614715,vx:-659.090759,vy:1376.230347,vz:-2623.854004,tb:-0.000185987798
$pseudo_cd_ph,prn:26,pseudo_cd_ph:353743924.080245971680
measnum = 5,full_prange = 22820711.763490
$oldmeas,msRange:76.130865,x:-16506989.409858,y:4291397.687179,z:20380635.548070,vx:-1802.134399,vy:-1864.928955,vz:-1048.265869,tb:0.000202396460
$newmeas,x:-16506852.228345,y:4291539.649305,z:20380715.342595,vx:-1802.133789,vy:-1864.943726,vz:-1048.232910,tb:0.000202396459
$pseudo_cd_ph,prn:27,pseudo_cd_ph:353743932.203212618828
measnum = 6,full_prange = 20284989.520052
$oldmeas,msRange:67.672447,x:-12019502.862188,y:21773121.158665,z:8771431.375845,vx:72.945862,vy:-1156.872925,vz:2965.358887,tb:-0.000132895851
$newmeas,x:-12019507.797891,y:21773199.435828,z:8771230.729024,vx:72.943932,vy:-1156.848022,vz:2965.371826,tb:-0.000132895850
