SD initialized success
Create debug.log Failed! 3
bbram_blkflag = 1
rtcflag = 128
BBRAM Block OK: 01 EPHflag: 28250465 a40012df, rtc 80
GPS 0 Init Dop: 10000,80
GPS 1 Init Dop: 10000,80
GPS 2 Init Dop: 10000,80
GPS 3 Init Dop: 10000,80
GPS 4 Init Dop: 10000,80
GPS 5 Init Dop: 10000,80
GPS 6 Init Dop: 10000,80
GPS 7 Init Dop: 10000,80
GPS 8 Init Dop: 10000,80
GPS 9 Init Dop: 10000,80
GPS10 Init Dop: 10000,80
GPS11 Init Dop: 10000,80
GPS12 Init Dop: 10000,80
GPS13 Init Dop: 10000,80
GPS14 Init Dop: 10000,80
GPS15 Init Dop: 10000,80
GPS16 Init Dop: 10000,80
GPS17 Init Dop: 10000,80
GPS18 Init Dop: 10000,80
GPS19 Init Dop: 10000,80
GPS20 Init Dop: 10000,80
GPS21 Init Dop: 10000,80
GPS22 Init Dop: 10000,80
GPS23 Init Dop: 10000,80
GPS24 Init Dop: 10000,80
GPS25 Init Dop: 10000,80
GPS26 Init Dop: 10000,80
GPS27 Init Dop: 10000,80
GPS28 Init Dop: 10000,80
GPS29 Init Dop: 10000,80
GPS30 Init Dop: 10000,80
GPS31 Init Dop: 10000,80
BDS 0 Init Dop: 10000,80
BDS 1 Init Dop: 10000,80
BDS 2 Init Dop: 10000,80
BDS 3 Init Dop: 10000,80
BDS 4 Init Dop: 10000,80
BDS 5 Init Dop: 10000,80
BDS 6 Init Dop: 10000,80
BDS 7 Init Dop: 10000,80
BDS 8 Init Dop: 10000,80
BDS 9 Init Dop: 10000,80
BDS10 Init Dop: 10000,80
BDS11 Init Dop: 10000,80
BDS12 Init Dop: 10000,80
BDS13 Init Dop: 10000,80
BDS14 Init Dop: 10000,80
BDS15 Init Dop: 10000,80
BDS16 Init Dop: 10000,80
BDS17 Init Dop: 10000,80
BDS18 Init Dop: 10000,80
BDS19 Init Dop: 10000,80
BDS20 Init Dop: 10000,80
BDS21 Init Dop: 10000,80
BDS22 Init Dop: 10000,80
BDS23 Init Dop: 10000,80
BDS24 Init Dop: 10000,80
BDS25 Init Dop: 10000,80
BDS26 Init Dop: 10000,80
BDS27 Init Dop: 10000,80
BDS28 Init Dop: 10000,80
BDS29 Init Dop: 10000,80
BDS30 Init Dop: 10000,80
BDS31 Init Dop: 10000,80
Good luck!
$ini_pos,lastpos_good = 0,ini_pos.x:0.000000,ini_pos.y:1870047718373214860083200.000000,ini_pos.z:-2046739918691485470007515507553359880539115260493567614644234325060971275788243261660189407051763249473309809445292310558491006656449680231693865521824977243551656519909353927290373689809099828572603200443265771896832.000000
source<tow,snapshot
$GNGGA,000000.000,,,,,0,00,,,M,,,,0000*2B
$GNRMC,000000.000,A,,,,,,,060180,,*29
$GPGSA,A,1,,,,,,,,,,,,,,,*1E
$BDGSA,A,1,,,,,,,,,,,,,,,*0F
$GLGSA,A,1,,,,,,,,,,,,,,,*02
$B3CN0,0,0,0,0,0,0,0,0,0,0,0,0,0,0*4C
$ini_pos,lastpos_good = 0,ini_pos.x:0.000000,ini_pos.y:1870047718373214860083200.000000,ini_pos.z:-2046739918691485470007515507553359880539115260493567614644234325060971275788243261660189407051763249473309809445292310558491006656449680231693865521824977243551656519909353927290373689809099828572603200443265771896832.000000
source<tow,snapshot
$GNGGA,000000.000,,,,,0,00,,,M,,,,0000*2B
$GNRMC,000000.000,A,,,,,,,060180,,*29
$GPGSA,A,1,,,,,,,,,,,,,,,*1E
$BDGSA,A,1,,,,,,,,,,,,,,,*0F
$GLGSA,A,1,,,,,,,,,,,,,,,*02
$B3CN0,0,0,0,0,0,0,0,0,0,0,0,0,0,0*4C
$ini_pos,lastpos_good = 0,ini_pos.x:0.000000,ini_pos.y:1870047718373214860083200.000000,ini_pos.z:-2046739918691485470007515507553359880539115260493567614644234325060971275788243261660189407051763249473309809445292310558491006656449680231693865521824977243551656519909353927290373689809099828572603200443265771896832.000000
source<tow,snapshot
$GNGGA,000000.000,,,,,0,00,,,M,,,,0000*2B
$GNRMC,000000.000,A,,,,,,,060180,,*29
$GPGSA,A,1,,,,,,,,,,,,,,,*1E
$BDGSA,A,1,,,,,,,,,,,,,,,*0F
$GLGSA,A,1,,,,,,,,,,,,,,,*02
$B3CN0,0,0,0,0,0,0,0,0,0,0,0,0,0,0*4C
$ini_pos,lastpos_good = 0,ini_pos.x:0.000000,ini_pos.y:1870047718373214860083200.000000,ini_pos.z:-2046739918691485470007515507553359880539115260493567614644234325060971275788243261660189407051763249473309809445292310558491006656449680231693865521824977243551656519909353927290373689809099828572603200443265771896832.000000
source<tow,snapshot
$GNGGA,000000.000,,,,,0,00,,,M,,,,0000*2B
$GNRMC,000000.000,A,,,,,,,060180,,*29
$GPGSA,A,1,,,,,,,,,,,,,,,*1E
$BDGSA,A,1,,,,,,,,,,,,,,,*0F
$GLGSA,A,1,,,,,,,,,,,,,,,*02
$B3CN0,0,0,0,0,0,0,0,0,0,0,0,0,0,0*4C
$ini_pos,lastpos_good = 0,ini_pos.x:0.000000,ini_pos.y:1870047718373214860083200.000000,ini_pos.z:-2046739918691485470007515507553359880539115260493567614644234325060971275788243261660189407051763249473309809445292310558491006656449680231693865521824977243551656519909353927290373689809099828572603200443265771896832.000000
source<tow,snapshot
$GNGGA,000000.000,,,,,0,00,,,M,,,,0000*2B
$GNRMC,000000.000,A,,,,,,,060180,,*29
$GPGSA,A,1,,,,,,,,,,,,,,,*1E
$BDGSA,A,1,,,,,,,,,,,,,,,*0F
$GLGSA,A,1,,,,,,,,,,,,,,,*02
$B3CN0,0,0,0,0,0,0,0,0,0,0,0,0,0,0*4C
$ini_pos,lastpos_good = 0,ini_pos.x:0.000000,ini_pos.y:1870047718373214860083200.000000,ini_pos.z:-2046739918691485470007515507553359880539115260493567614644234325060971275788243261660189407051763249473309809445292310558491006656449680231693865521824977243551656519909353927290373689809099828572603200443265771896832.000000
source<tow,snapshot
$GNGGA,000000.000,,,,,0,00,,,M,,,,0000*2B
$GNRMC,000000.000,A,,,,,,,060180,,*29
$GPGSA,A,1,,,,,,,,,,,,,,,*1E
$BDGSA,A,1,,,,,,,,,,,,,,,*0F
$GLGSA,A,1,,,,,,,,,,,,,,,*02
$B3CN0,0,0,0,0,0,0,0,0,0,0,0,0,0,0*4C
$ini_pos,lastpos_good = 0,ini_pos.x:0.000000,ini_pos.y:1870047718373214860083200.000000,ini_pos.z:-2046739918691485470007515507553359880539115260493567614644234325060971275788243261660189407051763249473309809445292310558491006656449680231693865521824977243551656519909353927290373689809099828572603200443265771896832.000000
source<tow,snapshot
$GNGGA,000000.000,,,,,0,00,,,M,,,,0000*2B
$GNRMC,000000.000,A,,,,,,,060180,,*29
$GPGSA,A,1,,,,,,,,,,,,,,,*1E
$BDGSA,A,1,,,,,,,,,,,,,,,*0F
$GLGSA,A,1,,,,,,,,,,,,,,,*02
$GPGSV,1,1,02,01,00,000,24,03,00,000,21*7C
$B3CN0,0,0,0,0,0,0,0,0,0,0,0,0,0,0*4C
$ini_pos,lastpos_good = 0,ini_pos.x:0.000000,ini_pos.y:1870047718373214860083200.000000,ini_pos.z:-2046739918691485470007515507553359880539115260493567614644234325060971275788243261660189407051763249473309809445292310558491006656449680231693865521824977243551656519909353927290373689809099828572603200443265771896832.000000
source<tow,snapshot
$GNGGA,000000.000,,,,,0,00,,,M,,,,0000*2B
$GNRMC,000000.000,A,,,,,,,060180,,*29
$GPGSA,A,1,,,,,,,,,,,,,,,*1E
$BDGSA,A,1,,,,,,,,,,,,,,,*0F
$GLGSA,A,1,,,,,,,,,,,,,,,*02
$GPGSV,1,1,04,01,00,000,40,03,00,000,44,06,00,000,40,17,00,000,17*79
$B3CN0,0,0,0,0,0,0,0,0,0,0,0,0,0,0*4C
tow update,199798732.592628
$ini_pos,lastpos_good = 0,ini_pos.x:0.000000,ini_pos.y:1870047718373214860083200.000000,ini_pos.z:-2046739918691485470007515507553359880539115260493567614644234325060971275788243261660189407051763249473309809445292310558491006656449680231693865521824977243551656519909353927290373689809099828572603200443265771896832.000000
source>=tow,snapshot
$GNGGA,072940.733,,,,,0,00,,,M,,,,0000*24
$GNRMC,072940.733,A,,,,,,,080180,,*28
$GPGSA,A,1,,,,,,,,,,,,,,,*1E
$BDGSA,A,1,,,,,,,,,,,,,,,*0F
$GLGSA,A,1,,,,,,,,,,,,,,,*02
$GPGSV,2,1,08,01,00,000,40,03,00,000,43,06,00,000,43,17,00,000,45*75
$GPGSV,2,2,08,19,00,000,42,22,00,000,34,28,00,000,25,30,00,000,22*76
$B3CN0,0,0,0,0,0,0,0,0,0,0,0,0,0,0*4C
$ini_pos,lastpos_good = 0,ini_pos.x:0.000000,ini_pos.y:1870047718373214860083200.000000,ini_pos.z:-2046739918691485470007515507553359880539115260493567614644234325060971275788243261660189407051763249473309809445292310558491006656449680231693865521824977243551656519909353927290373689809099828572603200443265771896832.000000
source>=tow,snapshot
$GNGGA,072941.733,,,,,0,00,,,M,,,,0000*25
$GNRMC,072941.733,A,,,,,,,080180,,*29
$GPGSA,A,1,,,,,,,,,,,,,,,*1E
$BDGSA,A,1,,,,,,,,,,,,,,,*0F
$GLGSA,A,1,,,,,,,,,,,,,,,*02
$GPGSV,2,1,08,01,00,000,39,03,00,000,43,06,00,000,44,17,00,000,44*7D
$GPGSV,2,2,08,19,00,000,42,22,00,000,43,28,00,000,43,30,00,000,39*7C
$BDGSV,2,1,06,01,00,000,40,02,00,000,36,08,00,000,39,10,00,000,32*6D
$BDGSV,2,2,06,12,00,000,26,13,00,000,24*6D
$B3CN0,0,0,0,0,0,0,0,0,0,0,0,0,0,0*4C
$ini_pos,lastpos_good = 0,ini_pos.x:0.000000,ini_pos.y:1870047718373214860083200.000000,ini_pos.z:-2046739918691485470007515507553359880539115260493567614644234325060971275788243261660189407051763249473309809445292310558491006656449680231693865521824977243551656519909353927290373689809099828572603200443265771896832.000000
source>=tow,snapshot
$GNGGA,072942.733,,,,,0,00,,,M,,,,0000*26
$GNRMC,072942.733,A,,,,,,,080180,,*2A
$GPGSA,A,1,,,,,,,,,,,,,,,*1E
$BDGSA,A,1,,,,,,,,,,,,,,,*0F
$GLGSA,A,1,,,,,,,,,,,,,,,*02
$GPGSV,2,1,08,01,00,000,40,03,00,000,43,06,00,000,43,17,00,000,44*74
$GPGSV,2,2,08,19,00,000,43,22,00,000,42,28,00,000,43,30,00,000,39*7C
$BDGSV,2,1,07,01,00,000,41,02,00,000,38,08,00,000,43,10,00,000,43*68
$BDGSV,2,2,07,12,00,000,39,13,00,000,43,19,00,000,27*5E
$B3CN0,0,0,0,0,0,0,0,0,0,0,0,0,0,0*4C
$ini_pos,lastpos_good = 0,ini_pos.x:0.000000,ini_pos.y:1870047718373214860083200.000000,ini_pos.z:-2046739918691485470007515507553359880539115260493567614644234325060971275788243261660189407051763249473309809445292310558491006656449680231693865521824977243551656519909353927290373689809099828572603200443265771896832.000000
source>=tow,snapshot
$GNGGA,072943.733,,,,,0,00,,,M,,,,0000*27
$GNRMC,072943.733,A,,,,,,,080180,,*2B
$GPGSA,A,1,,,,,,,,,,,,,,,*1E
$BDGSA,A,1,,,,,,,,,,,,,,,*0F
$GLGSA,A,1,,,,,,,,,,,,,,,*02
$GPGSV,2,1,08,01,00,000,40,03,00,000,43,06,00,000,43,17,00,000,45*75
$GPGSV,2,2,08,19,00,000,43,22,00,000,42,28,00,000,43,30,00,000,38*7D
$BDGSV,2,1,08,01,00,000,41,02,00,000,38,08,00,000,43,10,00,000,42*66
$BDGSV,2,2,08,12,00,000,39,13,00,000,42,19,00,000,43,26,00,000,27*63
$B3CN0,0,0,0,0,0,0,0,0,0,0,0,0,0,0*4C
$ini_pos,lastpos_good = 0,ini_pos.x:0.000000,ini_pos.y:1870047718373214860083200.000000,ini_pos.z:-2046739918691485470007515507553359880539115260493567614644234325060971275788243261660189407051763249473309809445292310558491006656449680231693865521824977243551656519909353927290373689809099828572603200443265771896832.000000
source>=tow,snapshot
$GNGGA,072944.733,,,,,0,00,,,M,,,,0000*20
$GNRMC,072944.733,A,,,,,,,080180,,*2C
$GPGSA,A,1,,,,,,,,,,,,,,,*1E
$BDGSA,A,1,,,,,,,,,,,,,,,*0F
$GLGSA,A,1,,,,,,,,,,,,,,,*02
$GPGSV,2,1,08,01,00,000,40,03,00,000,43,06,00,000,43,17,00,000,44*74
$GPGSV,2,2,08,19,00,000,42,22,00,000,42,28,00,000,44,30,00,000,38*7B
$BDGSV,2,1,08,01,00,000,41,02,00,000,39,08,00,000,43,10,00,000,43*66
$BDGSV,2,2,08,12,00,000,39,13,00,000,42,19,00,000,42,26,00,000,43*60
$B3CN0,0,0,0,0,0,0,0,0,0,0,0,0,0,0*4C
$ini_pos,lastpos_good = 0,ini_pos.x:0.000000,ini_pos.y:1870047718373214860083200.000000,ini_pos.z:-2046739918691485470007515507553359880539115260493567614644234325060971275788243261660189407051763249473309809445292310558491006656449680231693865521824977243551656519909353927290373689809099828572603200443265771896832.000000
source>=tow,snapshot
$GNGGA,072945.733,,,,,0,00,,,M,,,,0000*21
$GNRMC,072945.733,A,,,,,,,080180,,*2D
$GPGSA,A,1,,,,,,,,,,,,,,,*1E
$BDGSA,A,1,,,,,,,,,,,,,,,*0F
$GLGSA,A,1,,,,,,,,,,,,,,,*02
$GPGSV,2,1,08,01,00,000,40,03,00,000,43,06,00,000,44,17,00,000,45*72
$GPGSV,2,2,08,19,00,000,43,22,00,000,42,28,00,000,44,30,00,000,38*7A
$BDGSV,2,1,08,01,00,000,41,02,00,000,40,08,00,000,43,10,00,000,42*69
$BDGSV,2,2,08,12,00,000,39,13,00,000,42,19,00,000,42,26,00,000,43*60
$B3CN0,0,0,0,0,0,0,0,0,0,0,0,0,0,0*4C
$ini_pos,lastpos_good = 0,ini_pos.x:0.000000,ini_pos.y:1870047718373214860083200.000000,ini_pos.z:-2046739918691485470007515507553359880539115260493567614644234325060971275788243261660189407051763249473309809445292310558491006656449680231693865521824977243551656519909353927290373689809099828572603200443265771896832.000000
source>=tow,snapshot
$GNGGA,072946.733,,,,,0,00,,,M,,,,0000*22
$GNRMC,072946.733,A,,,,,,,080180,,*2E
$GPGSA,A,1,,,,,,,,,,,,,,,*1E
$BDGSA,A,1,,,,,,,,,,,,,,,*0F
$GLGSA,A,1,,,,,,,,,,,,,,,*02
$GPGSV,2,1,08,01,00,000,39,03,00,000,44,06,00,000,44,17,00,000,45*7B
$GPGSV,2,2,08,19,00,000,43,22,00,000,42,28,00,000,43,30,00,000,38*7D
$BDGSV,2,1,08,01,00,000,41,02,00,000,40,08,00,000,43,10,00,000,42*69
$BDGSV,2,2,08,12,00,000,39,13,00,000,42,19,00,000,42,26,00,000,43*60
$B3CN0,0,0,0,0,0,0,0,0,0,0,0,0,0,0*4C
$ini_pos,lastpos_good = 0,ini_pos.x:0.000000,ini_pos.y:1870047718373214860083200.000000,ini_pos.z:-2046739918691485470007515507553359880539115260493567614644234325060971275788243261660189407051763249473309809445292310558491006656449680231693865521824977243551656519909353927290373689809099828572603200443265771896832.000000
source>=tow,snapshot
$GNGGA,072947.733,,,,,0,00,,,M,,,,0000*23
$GNRMC,072947.733,A,,,,,,,080180,,*2F
$GPGSA,A,1,,,,,,,,,,,,,,,*1E
$BDGSA,A,1,,,,,,,,,,,,,,,*0F
$GLGSA,A,1,,,,,,,,,,,,,,,*02
$GPGSV,3,1,09,01,00,000,40,03,00,000,44,06,00,000,44,17,00,000,45*75
$GPGSV,3,2,09,19,00,000,42,22,00,000,42,28,00,000,43,30,00,000,38*7C
$GPGSV,3,3,09,11,00,000,30*43
$BDGSV,2,1,08,01,00,000,41,02,00,000,39,08,00,000,43,10,00,000,42*67
$BDGSV,2,2,08,12,00,000,39,13,00,000,42,19,00,000,42,26,00,000,43*60
$B3CN0,0,21,0,0,0,0,0,0,0,0,0,0,0,0*7F
$ini_pos,lastpos_good = 0,ini_pos.x:0.000000,ini_pos.y:1870047718373214860083200.000000,ini_pos.z:-2046739918691485470007515507553359880539115260493567614644234325060971275788243261660189407051763249473309809445292310558491006656449680231693865521824977243551656519909353927290373689809099828572603200443265771896832.000000
source>=tow,snapshot
$GNGGA,072948.733,,,,,0,00,,,M,,,,0000*2C
$GNRMC,072948.733,A,,,,,,,080180,,*20
$GPGSA,A,1,,,,,,,,,,,,,,,*1E
$BDGSA,A,1,,,,,,,,,,,,,,,*0F
$GLGSA,A,1,,,,,,,,,,,,,,,*02
$GPGSV,3,1,09,01,00,000,40,03,00,000,44,06,00,000,44,17,00,000,45*75
$GPGSV,3,2,09,19,00,000,43,22,00,000,42,28,00,000,43,30,00,000,38*7D
$GPGSV,3,3,09,11,00,000,35*46
$BDGSV,3,1,10,01,00,000,41,02,00,000,38,03,00,000,42,04,00,000,38*6C
$BDGSV,3,2,10,08,00,000,43,10,00,000,42,12,00,000,39,13,00,000,42*6D
$BDGSV,3,3,10,19,00,000,42,26,00,000,43*64
$B3CN0,0,21,0,0,0,0,0,0,0,0,0,0,0,0*7F
$ini_pos,lastpos_good = 0,ini_pos.x:0.000000,ini_pos.y:1870047718373214860083200.000000,ini_pos.z:-2046739918691485470007515507553359880539115260493567614644234325060971275788243261660189407051763249473309809445292310558491006656449680231693865521824977243551656519909353927290373689809099828572603200443265771896832.000000
source>=tow,snapshot
$GNGGA,072949.733,,,,,0,00,,,M,,,,0000*2D
$GNRMC,072949.733,A,,,,,,,280519,,*27
$GPGSA,A,1,,,,,,,,,,,,,,,*1E
$BDGSA,A,1,,,,,,,,,,,,,,,*0F
$GLGSA,A,1,,,,,,,,,,,,,,,*02
$GPGSV,3,1,09,01,00,000,40,03,00,000,44,06,00,000,44,17,00,000,45*75
$GPGSV,3,2,09,19,00,000,43,22,00,000,43,28,00,000,43,30,00,000,38*7C
$GPGSV,3,3,09,11,00,000,35*46
$BDGSV,3,1,10,01,00,000,40,02,00,000,39,03,00,000,42,04,00,000,39*6D
$BDGSV,3,2,10,08,00,000,43,10,00,000,43,12,00,000,39,13,00,000,42*6C
$BDGSV,3,3,10,19,00,000,42,26,00,000,43*64
$B3CN0,0,0,0,0,0,0,0,24,0,0,0,0,0,0*7A
$ini_pos,lastpos_good = 0,ini_pos.x:0.000000,ini_pos.y:1870047718373214860083200.000000,ini_pos.z:-2046739918691485470007515507553359880539115260493567614644234325060971275788243261660189407051763249473309809445292310558491006656449680231693865521824977243551656519909353927290373689809099828572603200443265771896832.000000
source>=tow,snapshot
$GNGGA,072950.733,,,,,0,00,,,M,,,,0000*25
$GNRMC,072950.733,A,,,,,,,280519,,*2F
$GPGSA,A,1,,,,,,,,,,,,,,,*1E
$BDGSA,A,1,,,,,,,,,,,,,,,*0F
$GLGSA,A,1,,,,,,,,,,,,,,,*02
$GPGSV,3,1,09,01,00,000,40,03,00,000,43,06,00,000,43,17,00,000,45*75
$GPGSV,3,2,09,19,00,000,42,22,00,000,42,28,00,000,43,30,00,000,38*7C
$GPGSV,3,3,09,11,00,000,36*45
$BDGSV,3,1,10,01,00,000,41,02,00,000,41,03,00,000,42,04,00,000,39*63
$BDGSV,3,2,10,08,00,000,42,10,00,000,43,12,00,000,39,13,00,000,43*6C
$BDGSV,3,3,10,19,00,000,42,26,00,000,43*64
$B3CN0,0,0,0,0,0,0,0,27,0,0,0,0,0,0*79
$ini_pos,lastpos_good = 0,ini_pos.x:0.000000,ini_pos.y:1870047718373214860083200.000000,ini_pos.z:-2046739918691485470007515507553359880539115260493567614644234325060971275788243261660189407051763249473309809445292310558491006656449680231693865521824977243551656519909353927290373689809099828572603200443265771896832.000000
source>=tow,snapshot
$GNGGA,072951.733,,,,,0,00,,,M,,,,0000*24
$GNRMC,072951.733,A,,,,,,,280519,,*2E
$GPGSA,A,1,,,,,,,,,,,,,,,*1E
$BDGSA,A,1,,,,,,,,,,,,,,,*0F
$GLGSA,A,1,,,,,,,,,,,,,,,*02
$GPGSV,3,1,09,01,00,000,40,03,00,000,43,06,00,000,44,17,00,000,45*72
$GPGSV,3,2,09,19,00,000,44,22,00,000,43,28,00,000,43,30,00,000,37*74
$GPGSV,3,3,09,11,00,000,35*46
$BDGSV,3,1,11,01,00,000,40,02,00,000,38,03,00,000,42,04,00,000,38*6C
$BDGSV,3,2,11,08,00,000,43,10,00,000,43,12,00,000,39,13,00,000,43*6C
$BDGSV,3,3,11,29,00,000,31,19,00,000,42,26,00,000,43*5C
$B3CN0,19,0,0,0,0,0,0,27,0,0,0,0,0,0*41
$ini_pos,lastpos_good = 0,ini_pos.x:0.000000,ini_pos.y:1870047718373214860083200.000000,ini_pos.z:-2046739918691485470007515507553359880539115260493567614644234325060971275788243261660189407051763249473309809445292310558491006656449680231693865521824977243551656519909353927290373689809099828572603200443265771896832.000000
source>=tow,snapshot
$GNGGA,072952.733,,,,,0,00,,,M,,,,0000*27
$GNRMC,072952.733,A,,,,,,,280519,,*2D
$GPGSA,A,1,,,,,,,,,,,,,,,*1E
$BDGSA,A,1,,,,,,,,,,,,,,,*0F
$GLGSA,A,1,,,,,,,,,,,,,,,*02
$GPGSV,3,1,09,01,00,000,41,03,00,000,43,06,00,000,44,17,00,000,45*73
$GPGSV,3,2,09,19,00,000,43,22,00,000,42,28,00,000,43,30,00,000,38*7D
$GPGSV,3,3,09,11,00,000,35*46
$BDGSV,3,1,11,01,00,000,41,02,00,000,40,03,00,000,41,04,00,000,39*60
$BDGSV,3,2,11,08,00,000,43,10,00,000,42,12,00,000,39,13,00,000,43*6D
$BDGSV,3,3,11,29,00,000,42,19,00,000,42,26,00,000,43*58
$B3CN0,18,0,0,0,0,0,0,27,0,0,0,0,0,0*40
$ini_pos,lastpos_good = 0,ini_pos.x:0.000000,ini_pos.y:1870047718373214860083200.000000,ini_pos.z:-2046739918691485470007515507553359880539115260493567614644234325060971275788243261660189407051763249473309809445292310558491006656449680231693865521824977243551656519909353927290373689809099828572603200443265771896832.000000
source>=tow,snapshot
$GNGGA,072953.733,,,,,0,00,,,M,,,,0000*26
$GNRMC,072953.733,A,,,,,,,280519,,*2C
$GPGSA,A,1,,,,,,,,,,,,,,,*1E
$BDGSA,A,1,,,,,,,,,,,,,,,*0F
$GLGSA,A,1,,,,,,,,,,,,,,,*02
$GPGSV,3,1,09,01,00,000,40,03,00,000,43,06,00,000,44,17,00,000,45*72
$GPGSV,3,2,09,19,00,000,43,22,00,000,42,28,00,000,43,30,00,000,38*7D
$GPGSV,3,3,09,11,00,000,36*45
$BDGSV,3,1,11,01,00,000,40,02,00,000,40,03,00,000,43,04,00,000,39*63
$BDGSV,3,2,11,08,00,000,43,10,00,000,43,12,00,000,40,13,00,000,42*63
$BDGSV,3,3,11,29,00,000,41,19,00,000,42,26,00,000,44*5C
$B3CN0,0,0,0,0,0,0,0,27,0,0,0,0,0,0*79
$ini_pos,lastpos_good = 0,ini_pos.x:0.000000,ini_pos.y:1870047718373214860083200.000000,ini_pos.z:-2046739918691485470007515507553359880539115260493567614644234325060971275788243261660189407051763249473309809445292310558491006656449680231693865521824977243551656519909353927290373689809099828572603200443265771896832.000000
source>=tow,snapshot
$GNGGA,072954.733,,,,,0,00,,,M,,,,0000*21
$GNRMC,072954.733,A,,,,,,,280519,,*2B
$GPGSA,A,1,,,,,,,,,,,,,,,*1E
$BDGSA,A,1,,,,,,,,,,,,,,,*0F
$GLGSA,A,1,,,,,,,,,,,,,,,*02
$GPGSV,3,1,09,01,00,000,40,03,00,000,43,06,00,000,44,17,00,000,44*73
$GPGSV,3,2,09,19,00,000,43,22,00,000,42,28,00,000,43,30,00,000,38*7D
$GPGSV,3,3,09,11,00,000,35*46
$BDGSV,3,1,11,01,00,000,40,02,00,000,39,03,00,000,42,04,00,000,39*6C
$BDGSV,3,2,11,08,00,000,43,10,00,000,43,12,00,000,39,13,00,000,43*6C
$BDGSV,3,3,11,29,00,000,42,19,00,000,42,26,00,000,43*58
$B3CN0,0,0,0,0,0,0,0,27,0,0,0,0,0,0*79
$ini_pos,lastpos_good = 0,ini_pos.x:0.000000,ini_pos.y:1870047718373214860083200.000000,ini_pos.z:-2046739918691485470007515507553359880539115260493567614644234325060971275788243261660189407051763249473309809445292310558491006656449680231693865521824977243551656519909353927290373689809099828572603200443265771896832.000000
source>=tow,snapshot
$GNGGA,072955.733,,,,,0,00,,,M,,,,0000*20
$GNRMC,072955.733,A,,,,,,,280519,,*2A
$GPGSA,A,1,,,,,,,,,,,,,,,*1E
$BDGSA,A,1,,,,,,,,,,,,,,,*0F
$GLGSA,A,1,,,,,,,,,,,,,,,*02
$GPGSV,3,1,09,01,00,000,40,03,00,000,43,06,00,000,44,17,00,000,44*73
$GPGSV,3,2,09,19,00,000,42,22,00,000,42,28,00,000,43,30,00,000,38*7C
$GPGSV,3,3,09,11,00,000,35*46
$BDGSV,3,1,11,01,00,000,39,02,00,000,39,03,00,000,43,04,00,000,40*6D
$BDGSV,3,2,11,08,00,000,43,10,00,000,43,12,00,000,39,13,00,000,42*6D
$BDGSV,3,3,11,29,00,000,41,19,00,000,42,26,00,000,43*5B
$B3CN0,0,22,0,0,0,0,0,27,0,0,0,0,0,0*49
$ini_pos,lastpos_good = 0,ini_pos.x:0.000000,ini_pos.y:1870047718373214860083200.000000,ini_pos.z:-2046739918691485470007515507553359880539115260493567614644234325060971275788243261660189407051763249473309809445292310558491006656449680231693865521824977243551656519909353927290373689809099828572603200443265771896832.000000
source>=tow,snapshot
$GNGGA,072956.733,,,,,0,00,,,M,,,,0000*23
$GNRMC,072956.733,A,,,,,,,280519,,*29
$GPGSA,A,1,,,,,,,,,,,,,,,*1E
$BDGSA,A,1,,,,,,,,,,,,,,,*0F
$GLGSA,A,1,,,,,,,,,,,,,,,*02
$GPGSV,3,1,09,01,00,000,40,03,00,000,44,06,00,000,44,17,00,000,44*74
$GPGSV,3,2,09,19,00,000,43,22,00,000,42,28,00,000,43,30,00,000,38*7D
$GPGSV,3,3,09,11,00,000,36*45
$BDGSV,3,1,11,01,00,000,40,02,00,000,40,03,00,000,41,04,00,000,40*6F
$BDGSV,3,2,11,08,00,000,43,10,00,000,42,12,00,000,39,13,00,000,43*6D
$BDGSV,3,3,11,29,00,000,42,19,00,000,43,26,00,000,43*59
$B3CN0,17,22,0,0,0,0,0,27,0,0,0,0,0,0*7F
$ini_pos,lastpos_good = 0,ini_pos.x:0.000000,ini_pos.y:1870047718373214860083200.000000,ini_pos.z:-2046739918691485470007515507553359880539115260493567614644234325060971275788243261660189407051763249473309809445292310558491006656449680231693865521824977243551656519909353927290373689809099828572603200443265771896832.000000
source>=tow,snapshot
$GNGGA,072957.733,,,,,0,00,,,M,,,,0000*22
$GNRMC,072957.733,A,,,,,,,280519,,*28
$GPGSA,A,1,,,,,,,,,,,,,,,*1E
$BDGSA,A,1,,,,,,,,,,,,,,,*0F
$GLGSA,A,1,,,,,,,,,,,,,,,*02
$GPGSV,3,1,09,01,00,000,40,03,00,000,44,06,00,000,44,17,00,000,45*75
$GPGSV,3,2,09,19,00,000,43,22,00,000,42,28,00,000,43,30,00,000,38*7D
$GPGSV,3,3,09,11,00,000,35*46
$BDGSV,3,1,11,01,00,000,40,02,00,000,40,03,00,000,42,04,00,000,41*6D
$BDGSV,3,2,11,08,00,000,43,10,00,000,42,12,00,000,39,13,00,000,42*6C
$BDGSV,3,3,11,29,00,000,41,19,00,000,43,26,00,000,43*5A
$B3CN0,0,36,17,0,0,0,0,27,0,0,0,0,0,0*7A
$ini_pos,lastpos_good = 0,ini_pos.x:0.000000,ini_pos.y:1870047718373214860083200.000000,ini_pos.z:-2046739918691485470007515507553359880539115260493567614644234325060971275788243261660189407051763249473309809445292310558491006656449680231693865521824977243551656519909353927290373689809099828572603200443265771896832.000000
source>=tow,snapshot
$GNGGA,072958.733,,,,,0,00,,,M,,,,0000*2D
$GNRMC,072958.733,A,,,,,,,280519,,*27
$GPGSA,A,1,,,,,,,,,,,,,,,*1E
$BDGSA,A,1,,,,,,,,,,,,,,,*0F
$GLGSA,A,1,,,,,,,,,,,,,,,*02
$GPGSV,3,1,09,01,00,000,40,03,00,000,44,06,00,000,44,17,00,000,44*74
$GPGSV,3,2,09,19,00,000,43,22,00,000,41,28,00,000,43,30,00,000,38*7E
$GPGSV,3,3,09,11,00,000,36*45
$BDGSV,3,1,12,01,00,000,40,02,00,000,39,03,00,000,43,04,00,000,40*60
$BDGSV,3,2,12,05,00,000,23,08,00,000,42,10,00,000,42,12,00,000,40*60
$BDGSV,3,3,12,13,00,000,42,29,00,000,42,19,00,000,42,22,00,000,31*6E
$B3CN0,0,0,25,0,0,0,0,26,0,0,0,0,0,0*4F
$ini_pos,lastpos_good = 0,ini_pos.x:0.000000,ini_pos.y:1870047718373214860083200.000000,ini_pos.z:-2046739918691485470007515507553359880539115260493567614644234325060971275788243261660189407051763249473309809445292310558491006656449680231693865521824977243551656519909353927290373689809099828572603200443265771896832.000000
source>=tow,snapshot
$GNGGA,072959.733,,,,,0,00,,,M,,,,0000*2C
$GNRMC,072959.733,A,,,,,,,280519,,*26
$GPGSA,A,1,,,,,,,,,,,,,,,*1E
$BDGSA,A,1,,,,,,,,,,,,,,,*0F
$GLGSA,A,1,,,,,,,,,,,,,,,*02
$GPGSV,3,1,09,01,00,000,40,03,00,000,44,06,00,000,43,17,00,000,45*72
$GPGSV,3,2,09,19,00,000,43,22,00,000,42,28,00,000,43,30,00,000,38*7D
$GPGSV,3,3,09,11,00,000,35*46
$BDGSV,3,1,12,01,00,000,41,02,00,000,40,03,00,000,43,04,00,000,40*6F
$BDGSV,3,2,12,08,00,000,43,10,00,000,43,12,00,000,39,13,00,000,43*6F
$BDGSV,3,3,12,29,00,000,42,19,00,000,42,22,00,000,41,26,00,000,43*6E
$B3CN0,0,0,0,0,0,0,0,27,0,0,0,0,0,0*79
$ini_pos,lastpos_good = 0,ini_pos.x:0.000000,ini_pos.y:1870047718373214860083200.000000,ini_pos.z:-2046739918691485470007515507553359880539115260493567614644234325060971275788243261660189407051763249473309809445292310558491006656449680231693865521824977243551656519909353927290373689809099828572603200443265771896832.000000
source>=tow,snapshot
$GNGGA,073000.733,,,,,0,00,,,M,,,,0000*28
$GNRMC,073000.733,A,,,,,,,280519,,*22
$GPGSA,A,1,,,,,,,,,,,,,,,*1E
$BDGSA,A,1,,,,,,,,,,,,,,,*0F
$GLGSA,A,1,,,,,,,,,,,,,,,*02
$GPGSV,3,1,09,01,00,000,40,03,00,000,43,06,00,000,43,17,00,000,44*74
$GPGSV,3,2,09,19,00,000,42,22,00,000,42,28,00,000,43,30,00,000,38*7C
$GPGSV,3,3,09,11,00,000,36*45
$BDGSV,3,1,12,01,00,000,40,02,00,000,38,03,00,000,43,04,00,000,39*6F
$BDGSV,3,2,12,05,00,000,16,08,00,000,43,10,00,000,43,12,00,000,39*68
$BDGSV,3,3,12,13,00,000,43,29,00,000,42,19,00,000,42,22,00,000,40*69
$B3CN0,0,18,0,0,0,0,0,26,0,0,0,0,0,0*41
$ini_pos,lastpos_good = 0,ini_pos.x:0.000000,ini_pos.y:1870047718373214860083200.000000,ini_pos.z:-2046739918691485470007515507553359880539115260493567614644234325060971275788243261660189407051763249473309809445292310558491006656449680231693865521824977243551656519909353927290373689809099828572603200443265771896832.000000
$GNGGA,073001.058,2944.9085,N,10633.0910,E,1,08,1.1,323.3,M,,,,0000*10
$GNRMC,073001.058,A,2944.9085,N,10633.0910,E,0.22,0.00,280519,,*12
$GPGSA,A,3,01,03,06,17,19,22,28,30,,,,,2.2,1.1,1.9*39
$BDGSA,A,3,,,,,,,,,,,,,2.2,1.1,1.9*2B
$GLGSA,A,3,,,,,,,,,,,,,2.2,1.1,1.9*26
$GPGSV,3,1,09,01,00,000,40,03,00,000,43,06,00,000,43,17,00,000,44*74
$GPGSV,3,2,09,19,00,000,43,22,00,000,43,28,00,000,42,30,00,000,39*7C
$GPGSV,3,3,09,11,00,000,36*45
$BDGSV,3,1,12,01,00,000,41,02,00,000,40,03,00,000,43,04,00,000,39*61
$BDGSV,3,2,12,05,00,000,19,08,00,000,43,10,00,000,42,12,00,000,39*66
$BDGSV,3,3,12,13,00,000,42,29,00,000,42,19,00,000,43,22,00,000,41*68
$B3CN0,0,0,0,0,0,0,0,0,0,0,0,0,0,0*4C
$ini_pos,lastpos_good = 1,ini_pos.x:-1578911.271470,ini_pos.y:5312769.087825,ini_pos.z:3146357.390789
Refix G01: 2, 199820.922374, 2211
Refix G03: 2, 199820.925954, -1134
Refix G06: 2, 199820.926959, -3496
Refix G17: 2, 199820.928060, -1715
Refix G19: 2, 199820.926902, -2624
Refix G22: 2, 199820.921219, 363
Refix G28: 2, 199820.932013, -1431
Refix G30: 2, 199820.921888, 2100
$GNGGA,073003.000,2944.9084,N,10633.0913,E,1,08,1.1,326.2,M,,,,0000*19
$GNRMC,073003.000,A,2944.9084,N,10633.0913,E,0.48,0.00,280519,,*13
$GPGSA,A,3,01,03,06,17,19,22,28,30,,,,,2.2,1.1,1.9*39
$BDGSA,A,3,,,,,,,,,,,,,2.2,1.1,1.9*2B
$GLGSA,A,3,,,,,,,,,,,,,2.2,1.1,1.9*26
$GPGSV,3,1,09,01,00,000,40,03,00,000,43,06,00,000,44,17,00,000,45*72
$GPGSV,3,2,09,19,00,000,43,22,00,000,43,28,00,000,43,30,00,000,39*7D
$GPGSV,3,3,09,11,00,000,35*46
$BDGSV,3,1,12,01,00,000,40,02,00,000,40,03,00,000,42,04,00,000,39*61
$BDGSV,3,2,12,08,00,000,43,10,00,000,43,12,00,000,39,13,00,000,42*6E
$BDGSV,3,3,12,29,00,000,42,19,00,000,43,22,00,000,41,26,00,000,43*6F
$B3CN0,0,0,0,0,0,0,0,0,0,0,0,0,0,0*4C
$ini_pos,lastpos_good = 1,ini_pos.x:-1578912.494573,ini_pos.y:5312771.365680,ini_pos.z:3146358.770446
Refix G01: 2, 199821.922373, 2208
Refix G03: 2, 199821.925955, -1136
Refix G06: 2, 199821.926961, -3499
Refix G17: 2, 199821.928061, -1719
Refix G19: 2, 199821.926904, -2628
Refix G22: 2, 199821.921219, 360
Refix G28: 2, 199821.932014, -1435
Refix G30: 2, 199821.921887, 2098
$GNGGA,073004.000,2944.9085,N,10633.0912,E,1,08,1.1,326.1,M,,,,0000*1D
$GNRMC,073004.000,A,2944.9085,N,10633.0912,E,0.30,0.00,280519,,*1B
$GPGSA,A,3,01,03,06,17,19,22,28,30,,,,,2.2,1.1,1.9*39
$BDGSA,A,3,,,,,,,,,,,,,2.2,1.1,1.9*2B
$GLGSA,A,3,,,,,,,,,,,,,2.2,1.1,1.9*26
$GPGSV,3,1,09,01,23,040,41,03,35,079,43,06,40,233,44,17,52,332,45*7D
$GPGSV,3,2,09,19,39,303,43,22,24,058,42,28,80,071,43,30,21,191,39*79
$GPGSV,3,3,09,11,00,000,36*45
$BDGSV,3,1,12,01,00,000,41,02,00,000,40,03,00,000,41,04,00,000,40*6D
$BDGSV,3,2,12,08,00,000,43,10,00,000,43,12,00,000,39,13,00,000,42*6E
$BDGSV,3,3,12,29,00,000,42,19,00,000,42,22,00,000,40,26,00,000,43*6F
$B3CN0,0,0,22,0,0,0,0,0,0,0,0,0,0,0*7C
$ini_pos,lastpos_good = 1,ini_pos.x:-1578912.319397,ini_pos.y:5312771.212608,ini_pos.z:3146358.882727
Refix G01: 2, 199822.922371, 2208
Refix G03: 2, 199822.925956, -1136
Refix G06: 2, 199822.926963, -3498
Refix G17: 2, 199822.928062, -1718
Refix G19: 2, 199822.926905, -2627
Refix G22: 2, 199822.921218, 361
Refix G28: 2, 199822.932015, -1434
Refix G30: 2, 199822.921885, 2098
$GNGGA,073005.000,2944.9086,N,10633.0913,E,1,08,1.1,325.9,M,,,,0000*15
$GNRMC,073005.000,A,2944.9086,N,10633.0913,E,0.34,0.00,280519,,*1C
$GPGSA,A,3,01,03,06,17,19,22,28,30,,,,,2.2,1.1,1.9*39
$BDGSA,A,3,,,,,,,,,,,,,2.2,1.1,1.9*2B
$GLGSA,A,3,,,,,,,,,,,,,2.2,1.1,1.9*26
$GPGSV,3,1,09,01,23,040,40,03,35,079,43,06,40,233,44,17,52,332,45*7C
$GPGSV,3,2,09,19,39,303,42,22,24,058,43,28,80,071,43,30,21,191,39*79
$GPGSV,3,3,09,11,00,000,36*45
$BDGSV,3,1,12,01,00,000,40,02,00,000,40,03,00,000,45,04,00,000,39*66
$BDGSV,3,2,12,05,00,000,16,08,00,000,42,10,00,000,42,12,00,000,40*66
$BDGSV,3,3,12,13,00,000,42,29,00,000,42,19,00,000,42,22,00,000,41*69
$B3CN0,0,0,36,0,0,0,0,0,0,0,0,0,0,0*79
$ini_pos,lastpos_good = 1,ini_pos.x:-1578912.463257,ini_pos.y:5312771.015864,ini_pos.z:3146358.837296
Refix G01: 2, 199823.922370, 2208
Refix G03: 2, 199823.925956, -1135
Refix G06: 2, 199823.926966, -3498
Refix G17: 2, 199823.928063, -1718
Refix G19: 2, 199823.926907, -2627
Refix G22: 2, 199823.921218, 361
Refix G28: 2, 199823.932016, -1433
Refix G30: 2, 199823.921884, 2098
$GNGGA,073006.000,2944.9085,N,10633.0914,E,1,08,1.1,325.9,M,,,,0000*12
$GNRMC,073006.000,A,2944.9085,N,10633.0914,E,0.20,0.00,280519,,*1E
$GPGSA,A,3,01,03,06,17,19,22,28,30,,,,,2.2,1.1,1.9*39
$BDGSA,A,3,,,,,,,,,,,,,2.2,1.1,1.9*2B
$GLGSA,A,3,,,,,,,,,,,,,2.2,1.1,1.9*26
$GPGSV,3,1,09,01,23,040,40,03,35,079,43,06,40,233,44,17,52,332,45*7C
$GPGSV,3,2,09,19,39,303,43,22,24,058,42,28,80,071,43,30,21,191,38*78
$GPGSV,3,3,09,11,00,000,37*44
$BDGSV,3,1,12,01,00,000,41,02,00,000,41,03,00,000,42,04,00,000,39*61
$BDGSV,3,2,12,08,00,000,43,10,00,000,43,12,00,000,40,13,00,000,42*60
$BDGSV,3,3,12,29,00,000,42,19,00,000,42,22,00,000,40,26,00,000,43*6F
$B3CN0,0,0,21,0,0,0,0,0,0,0,0,0,0,0*7F
$ini_pos,lastpos_good = 1,ini_pos.x:-1578912.651695,ini_pos.y:5312771.025384,ini_pos.z:3146358.786215
Refix G01: 2, 199824.922368, 2209
Refix G03: 2, 199824.925957, -1133
Refix G06: 2, 199824.926968, -3496
Refix G17: 2, 199824.928064, -1717
Refix G19: 2, 199824.926909, -2626
Refix G22: 2, 199824.921218, 363
Refix G28: 2, 199824.932017, -1431
Refix G30: 2, 199824.921883, 2099
$GNGGA,073007.000,2944.9086,N,10633.0915,E,1,08,1.1,326.0,M,,,,0000*1B
$GNRMC,073007.000,A,2944.9086,N,10633.0915,E,0.19,0.00,280519,,*17
$GPGSA,A,3,01,03,06,17,19,22,28,30,,,,,2.2,1.1,1.9*39
$BDGSA,A,3,,,,,,,,,,,,,2.2,1.1,1.9*2B
$GLGSA,A,3,,,,,,,,,,,,,2.2,1.1,1.9*26
$GPGSV,3,1,09,01,23,040,40,03,35,079,43,06,40,233,44,17,52,332,45*7C
$GPGSV,3,2,09,19,39,303,44,22,24,058,42,28,80,071,43,30,21,191,39*7E
$GPGSV,3,3,09,11,00,000,37*44
$BDGSV,3,1,12,01,00,000,41,02,00,000,40,03,00,000,43,04,00,000,40*6F
$BDGSV,3,2,12,08,00,000,43,10,00,000,43,12,00,000,40,13,00,000,43*61
$BDGSV,3,3,12,29,00,000,42,19,00,000,42,22,00,000,40,26,00,000,43*6F
$B3CN0,0,0,0,0,0,0,0,0,0,0,0,0,0,0*4C
$ini_pos,lastpos_good = 1,ini_pos.x:-1578912.751555,ini_pos.y:5312770.975912,ini_pos.z:3146358.902623
Refix G01: 2, 199825.922367, 2209
Refix G03: 2, 199825.925958, -1132
Refix G06: 2, 199825.926970, -3495
Refix G17: 2, 199825.928065, -1716
Refix G19: 2, 199825.926910, -2625
Refix G22: 2, 199825.921218, 364
Refix G28: 2, 199825.932018, -1430
Refix G30: 2, 199825.921881, 2100
$GNGGA,073008.000,2944.9087,N,10633.0916,E,1,08,1.1,325.8,M,,,,0000*1D
$GNRMC,073008.000,A,2944.9087,N,10633.0916,E,0.17,0.00,280519,,*14
$GPGSA,A,3,01,03,06,17,19,22,28,30,,,,,2.2,1.1,1.9*39
$BDGSA,A,3,,,,,,,,,,,,,2.2,1.1,1.9*2B
$GLGSA,A,3,,,,,,,,,,,,,2.2,1.1,1.9*26
$GPGSV,3,1,09,01,23,040,40,03,35,079,43,06,40,233,44,17,52,332,45*7C
$GPGSV,3,2,09,19,39,303,44,22,24,058,43,28,80,071,43,30,21,191,38*7E
$GPGSV,3,3,09,11,00,000,36*45
$BDGSV,3,1,12,01,00,000,41,02,00,000,41,03,00,000,43,04,00,000,38*61
$BDGSV,3,2,12,08,00,000,43,10,00,000,43,12,00,000,40,13,00,000,43*61
$BDGSV,3,3,12,29,00,000,42,19,00,000,42,22,00,000,40,26,00,000,43*6F
$B3CN0,0,0,0,0,0,0,0,0,0,0,0,0,0,0*4C
$ini_pos,lastpos_good = 1,ini_pos.x:-1578912.757458,ini_pos.y:5312770.746563,ini_pos.z:3146358.964617
Refix G01: 2, 199826.922365, 2213
Refix G03: 2, 199826.925958, -1127
Refix G06: 2, 199826.926972, -3492
Refix G17: 2, 199826.928066, -1713
Refix G19: 2, 199826.926912, -2622
Refix G22: 2, 199826.921217, 368
Refix G28: 2, 199826.932019, -1425
Refix G30: 2, 199826.921880, 2103
$GNGGA,073009.000,2944.9087,N,10633.0916,E,1,08,1.1,325.9,M,,,,0000*1D
$GNRMC,073009.000,A,2944.9087,N,10633.0916,E,0.30,0.00,280519,,*10
$GPGSA,A,3,01,03,06,17,19,22,28,30,,,,,2.2,1.1,1.9*39
$BDGSA,A,3,,,,,,,,,,,,,2.2,1.1,1.9*2B
$GLGSA,A,3,,,,,,,,,,,,,2.2,1.1,1.9*26
$GPGSV,3,1,09,01,23,040,40,03,35,079,43,06,40,233,44,17,52,332,45*7C
$GPGSV,3,2,09,19,39,303,43,22,24,058,43,28,80,071,43,30,21,191,38*79
$GPGSV,3,3,09,11,00,000,36*45
$BDGSV,3,1,12,01,00,000,41,02,00,000,39,03,00,000,41,04,00,000,40*63
$BDGSV,3,2,12,08,00,000,43,10,00,000,42,12,00,000,40,13,00,000,43*60
$BDGSV,3,3,12,29,00,000,42,19,00,000,42,22,00,000,40,26,00,000,43*6F
$B3CN0,0,0,0,0,0,0,0,0,0,0,0,0,0,0*4C
$ini_pos,lastpos_good = 1,ini_pos.x:-1578912.807829,ini_pos.y:5312770.758548,ini_pos.z:3146359.084691
Refix G01: 2, 199827.922364, 2212
Refix G03: 2, 199827.925959, -1128
Refix G06: 2, 199827.926974, -3492
Refix G17: 2, 199827.928067, -1713
Refix G19: 2, 199827.926913, -2622
Refix G22: 2, 199827.921217, 367
Refix G28: 2, 199827.932019, -1426
Refix G30: 2, 199827.921878, 2102
$GNGGA,073010.000,2944.9087,N,10633.0917,E,1,08,1.1,325.9,M,,,,0000*14
$GNRMC,073010.000,A,2944.9087,N,10633.0917,E,0.22,0.00,280519,,*1A
$GPGSA,A,3,01,03,06,17,19,22,28,30,,,,,2.2,1.1,1.9*39
$BDGSA,A,3,,,,,,,,,,,,,2.2,1.1,1.9*2B
$GLGSA,A,3,,,,,,,,,,,,,2.2,1.1,1.9*26
$GPGSV,3,1,09,01,23,040,40,03,35,079,43,06,40,233,44,17,52,332,44*7D
$GPGSV,3,2,09,19,39,303,43,22,24,058,42,28,80,071,43,30,21,191,38*78
$GPGSV,3,3,09,11,00,000,36*45
$BDGSV,3,1,12,01,00,000,41,02,00,000,40,03,00,000,43,04,00,000,39*61
$BDGSV,3,2,12,08,00,000,43,10,00,000,43,12,00,000,39,13,00,000,42*6E
$BDGSV,3,3,12,29,00,000,42,19,00,000,42,22,00,000,40,26,00,000,43*6F
$B3CN0,0,0,0,0,0,0,0,0,0,0,0,0,0,0*4C
$GLGSV,2,1,07,04,13,119,41,03,14,066,37,19,48,351,37,16,43,183,43*63
$GLGSV,2,2,07,09,58,299,47,18,17,041,43,26,00,000,43*59
$ini_pos,lastpos_good = 1,ini_pos.x:-1578912.905807,ini_pos.y:5312770.734403,ini_pos.z:3146359.037640
Refix G01: 2, 199828.922363, 2207
Refix G03: 2, 199828.925960, -1132
Refix G06: 2, 199828.926976, -3496
Refix G17: 2, 199828.928068, -1718
Refix G19: 2, 199828.926915, -2627
Refix G22: 2, 199828.921217, 363
Refix G28: 2, 199828.932020, -1431
Refix G30: 2, 199828.921877, 2098
$GNGGA,073011.000,2944.9084,N,10633.0917,E,1,14,1.1,324.9,M,,,,0000*1A
$GNRMC,073011.000,A,2944.9084,N,10633.0917,E,0.37,0.00,280519,,*1C
$GPGSA,A,3,01,03,06,17,19,22,28,30,,,,,2.2,1.1,1.9*39
$BDGSA,A,3,,,,,,,,,,,,,2.2,1.1,1.9*2B
$GLGSA,A,3,03,04,09,16,18,19,,,,,,,2.2,1.1,1.9*2E
$GPGSV,3,1,09,01,23,040,40,03,35,079,43,06,40,233,44,17,52,332,44*7D
$GPGSV,3,2,09,19,39,303,43,22,24,058,42,28,80,071,44,30,21,191,39*7E
$GPGSV,3,3,09,11,00,000,36*45
$BDGSV,3,1,12,01,00,000,42,02,00,000,40,03,00,000,43,04,00,000,40*6C
$BDGSV,3,2,12,05,00,000,16,08,00,000,43,10,00,000,42,12,00,000,39*69
$BDGSV,3,3,12,13,00,000,43,29,00,000,42,19,00,000,42,22,00,000,40*69
$B3CN0,0,0,24,0,0,0,0,0,0,0,0,0,0,0*7A
$GLGSV,2,1,07,04,13,119,41,03,14,066,37,19,48,351,37,16,43,183,43*63
$GLGSV,2,2,07,09,58,299,47,18,17,041,43,26,00,000,43*59
$ini_pos,lastpos_good = 1,ini_pos.x:-1578912.901923,ini_pos.y:5312770.163592,ini_pos.z:3146358.113422
Refix G01: 2, 199829.922361, 2207
Refix G03: 2, 199829.925960, -1132
Refix G06: 2, 199829.926979, -3496
Refix G17: 2, 199829.928069, -1718
Refix G19: 2, 199829.926917, -2626
Refix G22: 2, 199829.921216, 363
Refix G28: 2, 199829.932021, -1431
Refix G30: 2, 199829.921876, 2098
$GNGGA,073012.000,2944.9080,N,10633.0925,E,1,14,0.7,323.5,M,,,,0000*10
$GNRMC,073012.000,A,2944.9080,N,10633.0925,E,0.39,0.00,280519,,*14
$GPGSA,A,3,01,03,06,17,19,22,28,30,,,,,1.0,0.7,0.7*30
$BDGSA,A,3,,,,,,,,,,,,,1.0,0.7,0.7*22
$GLGSA,A,3,03,04,09,16,18,19,,,,,,,1.0,0.7,0.7*27
$GPGSV,3,1,09,01,23,040,40,03,35,079,43,06,40,233,44,17,52,332,45*7C
$GPGSV,3,2,09,19,39,303,44,22,24,058,42,28,80,071,43,30,21,191,38*7F
$GPGSV,3,3,09,11,00,000,36*45
$BDGSV,3,1,12,01,00,000,41,02,00,000,39,03,00,000,42,04,00,000,39*6E
$BDGSV,3,2,12,05,00,000,21,08,00,000,42,10,00,000,43,12,00,000,39*6D
$BDGSV,3,3,12,13,00,000,43,29,00,000,42,19,00,000,42,22,00,000,41*68
$B3CN0,0,0,36,0,0,0,0,0,0,0,0,0,0,0*79
$GLGSV,2,1,07,04,13,119,41,03,14,066,37,19,48,351,37,16,43,183,43*63
$GLGSV,2,2,07,09,58,299,47,18,17,041,42,26,00,000,42*59
$ini_pos,lastpos_good = 1,ini_pos.x:-1578913.805879,ini_pos.y:5312768.984660,ini_pos.z:3146356.715015
Refix G01: 2, 199830.922360, 2208
Refix G03: 2, 199830.925961, -1131
Refix G06: 2, 199830.926981, -3495
Refix G11: 1, 199830.920440, 1867
Refix G17: 2, 199830.928070, -1718
Refix G19: 2, 199830.926918, -2626
Refix G22: 2, 199830.921216, 364
Refix G28: 2, 199830.932022, -1430
Refix G30: 2, 199830.921874, 2098
$GNGGA,073013.000,2944.9078,N,10633.0926,E,1,14,0.7,323.7,M,,,,0000*17
$GNRMC,073013.000,A,2944.9078,N,10633.0926,E,0.31,0.00,280519,,*19
$GPGSA,A,3,01,03,06,17,19,22,28,30,,,,,1.0,0.7,0.7*30
$BDGSA,A,3,,,,,,,,,,,,,1.0,0.7,0.7*22
$GLGSA,A,3,03,04,09,16,18,19,,,,,,,1.0,0.7,0.7*27
$GPGSV,3,1,09,01,23,040,40,03,35,079,43,06,40,233,44,17,52,332,45*7C
$GPGSV,3,2,09,19,39,303,43,22,24,058,42,28,80,071,43,30,21,191,38*78
$GPGSV,3,3,09,11,00,000,36*45
$BDGSV,3,1,12,01,00,000,40,02,00,000,39,03,00,000,43,04,00,000,41*61
$BDGSV,3,2,12,05,00,000,36,08,00,000,43,10,00,000,42,12,00,000,39*6B
$BDGSV,3,3,12,13,00,000,42,29,00,000,42,19,00,000,43,07,00,000,22*6A
$B3CN0,0,20,0,0,0,0,0,0,0,0,0,0,0,0*7E
$GLGSV,2,1,07,04,13,119,41,03,14,066,37,19,48,351,37,16,43,183,43*63
$GLGSV,2,2,07,09,58,299,47,18,17,041,43,26,00,000,42*58
$ini_pos,lastpos_good = 1,ini_pos.x:-1578914.115016,ini_pos.y:5312769.226867,ini_pos.z:3146356.542350
Refix G01: 2, 199831.922358, 2209
Refix G03: 2, 199831.925962, -1129
Refix G06: 2, 199831.926983, -3493
Refix G11: 1, 199831.920439, 1868
Refix G17: 2, 199831.928071, -1717
Refix G19: 2, 199831.926920, -2625
Refix G22: 2, 199831.921216, 366
Refix G28: 2, 199831.932023, -1429
Refix G30: 2, 199831.921873, 2100
$GNGGA,073014.000,2944.9078,N,10633.0927,E,1,14,0.7,324.2,M,,,,0000*13
$GNRMC,073014.000,A,2944.9078,N,10633.0927,E,0.18,0.00,280519,,*14
$GPGSA,A,3,01,03,06,17,19,22,28,30,,,,,1.0,0.7,0.7*30
$BDGSA,A,3,,,,,,,,,,,,,1.0,0.7,0.7*22
$GLGSA,A,3,03,04,09,16,18,19,,,,,,,1.0,0.7,0.7*27
$GPGSV,3,1,09,01,23,040,40,03,35,079,43,06,40,233,44,17,52,332,45*7C
$GPGSV,3,2,09,19,39,303,43,22,24,058,43,28,80,071,43,30,21,191,39*78
$GPGSV,3,3,09,11,13,055,36*47
$BDGSV,3,1,12,01,00,000,40,02,00,000,39,03,00,000,43,04,00,000,39*6E
$BDGSV,3,2,12,08,00,000,43,10,00,000,42,12,00,000,39,13,00,000,42*6F
$BDGSV,3,3,12,29,00,000,42,19,00,000,42,07,00,000,42,22,00,000,40*6D
$B3CN0,0,0,18,0,0,0,0,27,0,0,0,0,0,0*40
$GLGSV,2,1,07,04,13,119,41,03,14,066,37,19,48,351,37,16,43,183,43*63
$GLGSV,2,2,07,09,58,299,47,18,17,041,43,26,00,000,43*59
$ini_pos,lastpos_good = 1,ini_pos.x:-1578914.310209,ini_pos.y:5312769.668192,ini_pos.z:3146356.688894
Refix G01: 2, 199832.922357, 2208
Refix G03: 2, 199832.925962, -1129
Refix G06: 2, 199832.926985, -3493
Refix G11: 1, 199832.920437, 1867
Refix G17: 2, 199832.928072, -1717
Refix G19: 2, 199832.926922, -2625
Refix G22: 2, 199832.921216, 365
Refix G28: 2, 199832.932024, -1428
Refix G30: 2, 199832.921872, 2099
$GNGGA,073015.000,2944.9078,N,10633.0928,E,1,21,0.7,323.6,M,,,,0000*18
$GNRMC,073015.000,A,2944.9078,N,10633.0928,E,0.32,0.00,280519,,*12
$GPGSA,A,3,01,03,06,17,19,22,28,30,,,,,1.0,0.7,0.7*30
$BDGSA,A,3,08,10,12,13,19,26,29,,,,,,1.0,0.7,0.7*2D
$GLGSA,A,3,03,04,09,16,18,19,,,,,,,1.0,0.7,0.7*27
$GPGSV,3,1,09,01,23,040,39,03,35,079,43,06,40,233,43,17,52,332,44*74
$GPGSV,3,2,09,19,39,303,43,22,24,058,43,28,80,071,43,30,21,191,39*78
$GPGSV,3,3,09,11,13,055,35*44
$BDGSV,3,1,12,01,00,000,41,02,00,000,39,03,00,000,43,04,00,000,40*61
$BDGSV,3,2,12,08,00,000,43,10,00,000,42,12,00,000,40,13,00,000,42*61
$BDGSV,3,3,12,29,00,000,42,19,00,000,42,07,00,000,42,22,00,000,40*6D
$B3CN0,0,0,24,0,0,0,0,27,0,0,0,0,0,0*4F
$GLGSV,2,1,07,04,13,119,42,03,14,066,36,19,48,351,37,16,43,183,43*61
$GLGSV,2,2,07,09,58,299,47,18,17,041,43,26,00,000,43*59
$ini_pos,lastpos_good = 1,ini_pos.x:-1578914.348682,ini_pos.y:5312769.064713,ini_pos.z:3146356.472407
Refix G01: 2, 199833.922355, 2210
Refix G03: 2, 199833.925963, -1127
Refix G06: 2, 199833.926987, -3492
Refix G11: 1, 199833.920436, 1869
Refix G17: 2, 199833.928073, -1716
Refix G19: 2, 199833.926923, -2625
Refix G22: 2, 199833.921215, 367
Refix G28: 2, 199833.932025, -1427
Refix G30: 2, 199833.921870, 2100
$GNGGA,073016.000,2944.9078,N,10633.0927,E,1,21,0.6,323.3,M,,,,0000*10
$GNRMC,073016.000,A,2944.9078,N,10633.0927,E,0.03,0.00,280519,,*1C
$GPGSA,A,3,01,03,06,17,19,22,28,30,,,,,0.7,0.6,0.4*34
$BDGSA,A,3,08,10,12,13,19,26,29,,,,,,0.7,0.6,0.4*29
$GLGSA,A,3,03,04,09,16,18,19,,,,,,,0.7,0.6,0.4*23
$GPGSV,3,1,09,01,23,040,40,03,35,079,43,06,40,233,43,17,52,332,44*7A
$GPGSV,3,2,09,19,39,303,43,22,24,058,42,28,80,071,43,30,21,191,38*78
$GPGSV,3,3,09,11,13,055,36*47
$BDGSV,3,1,12,01,00,000,41,02,00,000,39,03,00,000,43,04,00,000,40*61
$BDGSV,3,2,12,08,74,338,43,10,82,202,42,12,33,283,39,13,62,256,43*63
$BDGSV,3,3,12,29,24,058,42,19,26,108,42,07,00,000,42,22,00,000,41*6A
$B3CN0,0,0,21,0,0,0,0,27,0,0,0,0,0,0*4A
$GLGSV,2,1,07,04,13,119,42,03,14,066,36,19,48,351,37,16,43,183,43*61
$GLGSV,2,2,07,09,58,299,47,18,17,041,43,26,00,000,43*59
$ini_pos,lastpos_good = 1,ini_pos.x:-1578914.159333,ini_pos.y:5312768.910053,ini_pos.z:3146356.340021
Refix G01: 2, 199834.922354, 2209
Refix G03: 2, 199834.925964, -1127
Refix G06: 2, 199834.926990, -3493
Refix G11: 1, 199834.920435, 1868
Refix G17: 2, 199834.928074, -1717
Refix G19: 2, 199834.926925, -2625
Refix G22: 2, 199834.921215, 367
Refix G28: 2, 199834.932026, -1427
Refix G30: 2, 199834.921869, 2099
$GNGGA,073017.000,2944.9078,N,10633.0926,E,1,21,0.6,323.0,M,,,,0000*13
$GNRMC,073017.000,A,2944.9078,N,10633.0926,E,0.19,0.00,280519,,*17
$GPGSA,A,3,01,03,06,17,19,22,28,30,,,,,0.7,0.6,0.4*34
$BDGSA,A,3,08,10,12,13,19,26,29,,,,,,0.7,0.6,0.4*29
$GLGSA,A,3,03,04,09,16,18,19,,,,,,,0.7,0.6,0.4*23
$GPGSV,3,1,09,01,23,040,40,03,35,079,43,06,40,233,44,17,52,332,44*7D
$GPGSV,3,2,09,19,39,303,43,22,24,058,43,28,80,071,43,30,21,191,38*79
$GPGSV,3,3,09,11,13,055,36*47
$BDGSV,3,1,12,01,00,000,40,02,00,000,40,03,00,000,42,04,00,000,40*6F
$BDGSV,3,2,12,08,74,338,43,10,82,202,42,12,33,283,39,13,62,256,43*63
$BDGSV,3,3,12,29,24,058,42,19,26,108,42,07,00,000,41,22,00,000,40*68
$B3CN0,0,0,24,0,0,0,0,27,0,0,0,0,0,0*4F
$GLGSV,2,1,07,04,13,119,42,03,14,066,36,19,48,351,37,16,43,183,43*61
$GLGSV,2,2,07,09,58,299,47,18,17,041,42,26,00,000,43*58
$ini_pos,lastpos_good = 1,ini_pos.x:-1578913.857468,ini_pos.y:5312768.722761,ini_pos.z:3146356.156828
Refix G01: 2, 199835.922353, 2208
Refix G03: 2, 199835.925965, -1128
Refix G06: 2, 199835.926992, -3493
Refix G11: 1, 199835.920434, 1867
Refix G17: 2, 199835.928075, -1718
Refix G19: 2, 199835.926927, -2626
Refix G22: 2, 199835.921215, 366
Refix G28: 2, 199835.932026, -1428
Refix G30: 2, 199835.921868, 2098
$GNGGA,073018.000,2944.9078,N,10633.0925,E,1,21,0.6,323.0,M,,,,0000*1F
$GNRMC,073018.000,A,2944.9078,N,10633.0925,E,0.31,0.00,280519,,*11
$GPGSA,A,3,01,03,06,17,19,22,28,30,,,,,0.7,0.6,0.4*34
$BDGSA,A,3,08,10,12,13,19,26,29,,,,,,0.7,0.6,0.4*29
$GLGSA,A,3,03,04,09,16,18,19,,,,,,,0.7,0.6,0.4*23
$GPGSV,3,1,09,01,23,040,41,03,35,079,42,06,40,233,44,17,52,332,44*7D
$GPGSV,3,2,09,19,39,303,43,22,24,058,43,28,80,071,44,30,21,191,39*7F
$GPGSV,3,3,09,11,13,055,36*47
$BDGSV,3,1,12,01,00,000,40,02,00,000,39,03,00,000,42,04,00,000,39*6F
$BDGSV,3,2,12,08,74,338,42,10,82,202,42,12,33,283,40,13,62,256,43*6C
$BDGSV,3,3,12,29,24,058,42,19,26,108,43,07,00,000,42,22,00,000,41*6B
$B3CN0,18,0,18,0,0,0,0,27,0,0,0,0,0,0*79
$GLGSV,2,1,07,04,13,119,42,03,14,066,36,19,48,351,37,16,43,183,43*61
$GLGSV,2,2,07,09,58,299,47,18,17,041,42,26,00,000,43*58
$ini_pos,lastpos_good = 1,ini_pos.x:-1578913.724128,ini_pos.y:5312768.737418,ini_pos.z:3146356.190646
Refix G01: 2, 199836.922351, 2210
Refix G03: 2, 199836.925965, -1125
Refix G06: 2, 199836.926994, -3491
Refix G11: 2, 199836.919834, 1869
Refix G17: 2, 199836.928077, -1716
Refix G19: 2, 199836.926928, -2624
Refix G22: 2, 199836.921215, 369
Refix G28: 2, 199836.932027, -1425
Refix G30: 2, 199836.921866, 2100
$GNGGA,073019.000,2944.9079,N,10633.0924,E,1,22,0.6,322.8,M,,,,0000*14
$GNRMC,073019.000,A,2944.9079,N,10633.0924,E,0.12,0.00,280519,,*11
$GPGSA,A,3,01,03,06,11,17,19,22,28,30,,,,0.7,0.6,0.4*34
$BDGSA,A,3,08,10,12,13,19,26,29,,,,,,0.7,0.6,0.4*29
$GLGSA,A,3,03,04,09,16,18,19,,,,,,,0.7,0.6,0.4*23
$GPGSV,3,1,09,01,23,040,40,03,35,079,43,06,40,233,44,17,52,332,45*7C
$GPGSV,3,2,09,19,39,303,43,22,24,058,43,28,80,071,43,30,21,191,38*79
$GPGSV,3,3,09,11,13,055,36*47
$BDGSV,3,1,12,01,00,000,41,02,00,000,39,03,00,000,43,04,00,000,39*6F
$BDGSV,3,2,12,05,00,000,36,08,74,338,43,10,82,202,42,12,33,283,39*63
$BDGSV,3,3,12,13,62,256,42,29,24,058,42,19,26,108,43,07,00,000,42*6F
$B3CN0,19,0,19,0,0,0,0,27,0,0,0,0,0,0*79
$GLGSV,2,1,07,04,13,119,41,03,14,066,36,19,48,351,37,16,43,183,43*62
$GLGSV,2,2,07,09,58,299,47,18,17,041,42,26,00,000,43*58
$ini_pos,lastpos_good = 1,ini_pos.x:-1578913.538865,ini_pos.y:5312768.589422,ini_pos.z:3146356.169406
Refix G01: 2, 199837.922350, 2210
Refix G03: 2, 199837.925966, -1124
Refix G06: 2, 199837.926996, -3491
Refix G11: 2, 199837.919833, 1869
Refix G17: 2, 199837.928078, -1715
Refix G19: 2, 199837.926930, -2624
Refix G22: 2, 199837.921214, 370
Refix G28: 2, 199837.932028, -1424
Refix G30: 2, 199837.921865, 2100
$GNGGA,073020.000,2944.9079,N,10633.0923,E,1,22,0.6,322.4,M,,,,0000*15
$GNRMC,073020.000,A,2944.9079,N,10633.0923,E,0.20,0.00,280519,,*1D
$GPGSA,A,3,01,03,06,11,17,19,22,28,30,,,,0.7,0.6,0.4*34
$BDGSA,A,3,08,10,12,13,19,26,29,,,,,,0.7,0.6,0.4*29
$GLGSA,A,3,03,04,09,16,18,19,,,,,,,0.7,0.6,0.4*23
$GPGSV,3,1,09,01,23,040,40,03,35,079,42,06,40,233,43,17,52,332,45*7A
$GPGSV,3,2,09,19,39,303,43,22,24,058,42,28,80,071,43,30,21,191,38*78
$GPGSV,3,3,09,11,13,055,36*47
$BDGSV,3,1,12,01,00,000,40,02,00,000,40,03,00,000,43,04,00,000,40*6E
$BDGSV,3,2,12,05,00,000,36,08,74,338,43,10,82,202,42,12,33,283,39*63
$BDGSV,3,3,12,13,62,256,43,29,24,058,42,19,26,108,42,07,00,000,42*6F
$B3CN0,17,0,23,0,0,0,0,27,0,0,0,0,0,0*7E
$GLGSV,2,1,07,04,13,119,41,03,14,066,37,19,48,351,37,16,43,183,43*63
$GLGSV,2,2,07,09,58,299,47,18,17,041,42,26,00,000,43*58
$ini_pos,lastpos_good = 1,ini_pos.x:-1578913.236348,ini_pos.y:5312768.261749,ini_pos.z:3146356.097626
Refix G01: 2, 199838.922348, 2209
Refix G03: 2, 199838.925967, -1125
Refix G06: 2, 199838.926998, -3491
Refix G11: 2, 199838.919832, 1869
Refix G17: 2, 199838.928079, -1716
Refix G19: 2, 199838.926931, -2624
Refix G22: 2, 199838.921214, 369
Refix G28: 2, 199838.932029, -1425
Refix G30: 2, 199838.921863, 2100
$GNGGA,073021.000,2944.9079,N,10633.0922,E,1,22,0.6,322.4,M,,,,0000*15
$GNRMC,073021.000,A,2944.9079,N,10633.0922,E,0.14,0.00,280519,,*1A
$GPGSA,A,3,01,03,06,11,17,19,22,28,30,,,,0.7,0.6,0.4*34
$BDGSA,A,3,08,10,12,13,19,26,29,,,,,,0.7,0.6,0.4*29
$GLGSA,A,3,03,04,09,16,18,19,,,,,,,0.7,0.6,0.4*23
$GPGSV,3,1,09,01,23,040,40,03,35,079,43,06,40,233,44,17,52,332,45*7C
$GPGSV,3,2,09,19,39,303,43,22,24,058,42,28,80,071,43,30,21,191,38*78
$GPGSV,3,3,09,11,13,055,36*47
$BDGSV,3,1,12,01,00,000,40,02,00,000,39,03,00,000,42,04,00,000,40*61
$BDGSV,3,2,12,05,00,000,37,08,74,338,43,10,82,202,42,12,33,283,39*62
$BDGSV,3,3,12,13,62,256,42,29,24,058,42,19,26,108,42,07,00,000,41*6D
$B3CN0,19,0,0,0,0,0,0,17,0,0,0,0,0,0*42
$GLGSV,2,1,07,04,13,119,42,03,14,066,37,19,48,351,37,16,43,183,43*60
$GLGSV,2,2,07,09,58,299,47,18,17,041,43,26,00,000,43*59
$ini_pos,lastpos_good = 1,ini_pos.x:-1578913.167407,ini_pos.y:5312768.257859,ini_pos.z:3146356.087436
Refix G01: 2, 199839.922347, 2206
Refix G03: 2, 199839.925967, -1127
Refix G06: 2, 199839.927000, -3493
Refix G11: 2, 199839.919831, 1865
Refix G17: 2, 199839.928080, -1719
Refix G19: 2, 199839.926933, -2627
Refix G22: 2, 199839.921214, 366
Refix G28: 2, 199839.932030, -1428
Refix G30: 2, 199839.921862, 2097
$GNGGA,073022.000,2944.9079,N,10633.0922,E,1,22,0.6,322.3,M,,,,0000*11
$GNRMC,073022.000,A,2944.9079,N,10633.0922,E,0.14,0.00,280519,,*19
$GPGSA,A,3,01,03,06,11,17,19,22,28,30,,,,0.7,0.6,0.4*34
$BDGSA,A,3,08,10,12,13,19,26,29,,,,,,0.7,0.6,0.4*29
$GLGSA,A,3,03,04,09,16,18,19,,,,,,,0.7,0.6,0.4*23
$GPGSV,3,1,09,01,23,040,41,03,35,079,43,06,40,233,44,17,52,332,45*7D
$GPGSV,3,2,09,19,39,303,43,22,24,058,42,28,80,071,43,30,21,191,38*78
$GPGSV,3,3,09,11,13,055,37*46
$BDGSV,3,1,12,01,00,000,41,02,00,000,40,03,00,000,43,04,00,000,39*61
$BDGSV,3,2,12,05,00,000,36,08,74,338,43,10,82,202,42,12,33,283,39*63
$BDGSV,3,3,12,13,62,256,42,29,24,058,42,19,26,108,42,07,00,000,42*6E
$B3CN0,0,19,0,0,0,0,0,0,0,0,0,0,0,0*74
$GLGSV,2,1,07,04,13,119,41,03,14,066,36,19,48,351,37,16,43,183,43*62
$GLGSV,2,2,07,09,58,299,47,18,17,041,43,26,00,000,43*59
$ini_pos,lastpos_good = 1,ini_pos.x:-1578913.084077,ini_pos.y:5312768.148007,ini_pos.z:3146355.983619
Refix G01: 2, 199840.922345, 2210
Refix G03: 2, 199840.925968, -1124
Refix G06: 2, 199840.927003, -3491
Refix G11: 2, 199840.919829, 1869
Refix G17: 2, 199840.928081, -1716
Refix G19: 2, 199840.926935, -2624
Refix G22: 2, 199840.921214, 370
Refix G28: 2, 199840.932031, -1424
Refix G30: 2, 199840.921861, 2099
$GNGGA,073023.000,2944.9079,N,10633.0923,E,1,22,0.6,322.5,M,,,,0000*17
$GNRMC,073023.000,A,2944.9079,N,10633.0923,E,0.35,0.00,280519,,*1A
$GPGSA,A,3,01,03,06,11,17,19,22,28,30,,,,0.7,0.6,0.4*34
$BDGSA,A,3,08,10,12,13,19,26,29,,,,,,0.7,0.6,0.4*29
$GLGSA,A,3,03,04,09,16,18,19,,,,,,,0.7,0.6,0.4*23
$GPGSV,3,1,09,01,22,040,40,03,35,079,43,06,40,233,43,17,52,332,45*7A
$GPGSV,3,2,09,19,39,304,43,22,24,058,42,28,80,072,43,30,21,191,38*7C
$GPGSV,3,3,09,11,13,055,36*47
$BDGSV,3,1,12,01,00,000,40,02,00,000,38,03,00,000,41,04,00,000,40*63
$BDGSV,3,2,12,05,00,000,37,08,74,338,43,10,82,202,43,12,33,283,39*63
$BDGSV,3,3,12,13,62,256,42,29,24,058,42,19,26,108,42,07,00,000,41*6D
$B3CN0,0,0,0,0,0,0,0,0,0,0,0,0,0,0*4C
$GLGSV,2,1,07,04,13,119,41,03,14,066,36,19,48,351,37,16,43,183,43*62
$GLGSV,2,2,07,09,58,299,47,18,17,041,43,26,00,000,43*59
$ini_pos,lastpos_good = 1,ini_pos.x:-1578913.238525,ini_pos.y:5312768.347220,ini_pos.z:3146356.003380
Refix G01: 2, 199841.922344, 2210
Refix G03: 2, 199841.925969, -1123
Refix G06: 2, 199841.927005, -3490
Refix G11: 2, 199841.919828, 1869
Refix G17: 2, 199841.928082, -1716
Refix G19: 2, 199841.926936, -2624
Refix G22: 2, 199841.921213, 371
Refix G28: 2, 199841.932032, -1424
Refix G30: 2, 199841.921859, 2100
$GNGGA,073024.000,2944.9079,N,10633.0923,E,1,26,0.6,322.5,M,,,,0000*14
$GNRMC,073024.000,A,2944.9079,N,10633.0923,E,0.14,0.00,280519,,*1E
$GPGSA,A,3,01,03,06,11,17,19,22,28,30,,,,0.7,0.6,0.4*34
$BDGSA,A,3,01,02,03,04,08,10,12,13,19,26,29,,0.7,0.6,0.4*2D
$GLGSA,A,3,03,04,09,16,18,19,,,,,,,0.7,0.6,0.4*23
$GPGSV,3,1,09,01,22,040,40,03,35,079,43,06,40,233,44,17,52,332,45*7D
$GPGSV,3,2,09,19,39,304,43,22,24,058,42,28,80,072,43,30,21,191,38*7C
$GPGSV,3,3,09,11,13,055,36*47
$BDGSV,3,1,12,01,00,000,39,02,00,000,39,03,00,000,45,04,00,000,39*66
$BDGSV,3,2,12,05,00,000,35,08,74,338,43,10,82,202,43,12,33,283,39*61
$BDGSV,3,3,12,13,62,256,43,29,24,058,42,19,26,108,42,07,00,000,41*6C
$B3CN0,0,19,0,0,0,0,0,0,0,0,0,0,0,0*74
$GLGSV,2,1,07,04,13,119,41,03,14,066,37,19,48,351,37,16,43,183,44*64
$GLGSV,2,2,07,09,58,299,47,18,17,041,42,26,00,000,43*58
$ini_pos,lastpos_good = 1,ini_pos.x:-1578913.258139,ini_pos.y:5312768.405947,ini_pos.z:3146356.034840
Refix G01: 2, 199842.922343, 2207
Refix G03: 2, 199842.925969, -1125
Refix G06: 2, 199842.927007, -3492
Refix G11: 2, 199842.919827, 1866
Refix G17: 2, 199842.928083, -1719
Refix G19: 2, 199842.926938, -2627
Refix G22: 2, 199842.921213, 369
Refix G28: 2, 199842.932033, -1426
Refix G30: 2, 199842.921858, 2097
$GNGGA,073025.000,2944.9079,N,10633.0922,E,1,25,0.6,322.4,M,,,,0000*16
$GNRMC,073025.000,A,2944.9079,N,10633.0922,E,0.16,0.00,280519,,*1C
$GPGSA,A,3,01,03,06,11,17,19,22,28,30,,,,0.7,0.6,0.4*34
$BDGSA,A,3,01,02,04,08,10,12,13,19,26,29,,,0.7,0.6,0.4*2E
$GLGSA,A,3,03,04,09,16,18,19,,,,,,,0.7,0.6,0.4*23
$GPGSV,3,1,09,01,22,040,41,03,35,079,43,06,40,233,44,17,52,332,45*7C
$GPGSV,3,2,09,19,39,304,43,22,24,058,43,28,80,072,43,30,21,191,39*7C
$GPGSV,3,3,09,11,13,055,36*47
$BDGSV,3,1,12,01,40,126,40,02,47,219,38,03,55,171,43,04,23,109,38*68
$BDGSV,3,2,12,05,00,000,36,08,74,338,43,10,82,202,43,12,33,283,39*62
$BDGSV,3,3,12,13,62,256,43,29,24,058,42,19,26,108,43,07,00,000,41*6D
$B3CN0,0,21,0,0,0,0,0,0,0,0,0,0,0,0*7F
$GLGSV,2,1,07,04,13,119,41,03,14,066,37,19,48,351,37,16,43,183,43*63
$GLGSV,2,2,07,09,58,299,47,18,17,041,42,26,00,000,43*58
$ini_pos,lastpos_good = 1,ini_pos.x:-1578913.151350,ini_pos.y:5312768.282687,ini_pos.z:3146355.986685
Refix G01: 2, 199843.922341, 2206
Refix G03: 2, 199843.925970, -1126
Refix G06: 2, 199843.927009, -3493
Refix G11: 2, 199843.919826, 1865
Refix G17: 2, 199843.928084, -1720
Refix G19: 2, 199843.926940, -2628
Refix G22: 2, 199843.921213, 368
Refix G28: 2, 199843.932033, -1427
Refix G30: 2, 199843.921857, 2096
$GNGGA,073026.000,2944.9079,N,10633.0922,E,1,26,0.6,322.5,M,,,,0000*17
$GNRMC,073026.000,A,2944.9079,N,10633.0922,E,0.05,0.00,280519,,*1D
$GPGSA,A,3,01,03,06,11,17,19,22,28,30,,,,0.7,0.6,0.4*34
$BDGSA,A,3,01,02,03,04,08,10,12,13,19,26,29,,0.7,0.6,0.4*2D
$GLGSA,A,3,03,04,09,16,18,19,,,,,,,0.7,0.6,0.4*23
$GPGSV,3,1,09,01,22,040,41,03,35,079,43,06,40,233,44,17,52,332,44*7D
$GPGSV,3,2,09,19,39,304,43,22,24,058,42,28,80,072,43,30,21,191,38*7C
$GPGSV,3,3,09,11,13,055,36*47
$BDGSV,3,1,12,01,40,126,40,02,47,219,40,03,55,171,43,04,23,109,39*66
$BDGSV,3,2,12,05,00,000,36,08,74,338,43,10,82,202,43,12,33,283,40*6C
$BDGSV,3,3,12,13,62,256,43,29,24,058,42,19,26,108,43,07,00,000,41*6D
$B3CN0,0,0,0,0,0,0,0,0,0,0,0,0,0,0*4C
$GLGSV,2,1,07,04,13,119,41,03,14,066,37,19,48,351,37,16,43,183,43*63
$GLGSV,2,2,07,09,58,299,47,18,17,041,42,26,00,000,43*58
$ini_pos,lastpos_good = 1,ini_pos.x:-1578913.167707,ini_pos.y:5312768.378568,ini_pos.z:3146356.022244
Refix G01: 2, 199844.922340, 2207
Refix G03: 2, 199844.925971, -1123
Refix G06: 2, 199844.927011, -3491
Refix G11: 2, 199844.919825, 1866
Refix G17: 2, 199844.928085, -1719
Refix G19: 2, 199844.926941, -2627
Refix G22: 2, 199844.921213, 370
Refix G28: 2, 199844.932034, -1425
Refix G30: 2, 199844.921855, 2097
$GNGGA,073027.000,2944.9079,N,10633.0922,E,1,26,0.6,322.4,M,,,,0000*17
$GNRMC,073027.000,A,2944.9079,N,10633.0922,E,0.05,0.00,280519,,*1C
$GPGSA,A,3,01,03,06,11,17,19,22,28,30,,,,0.7,0.6,0.4*34
$BDGSA,A,3,01,02,03,04,08,10,12,13,19,26,29,,0.7,0.6,0.4*2D
$GLGSA,A,3,03,04,09,16,18,19,,,,,,,0.7,0.6,0.4*23
$GPGSV,3,1,09,01,22,040,41,03,35,079,43,06,40,233,44,17,52,332,45*7C
$GPGSV,3,2,09,19,39,304,43,22,24,058,43,28,80,072,43,30,21,191,38*7D
$GPGSV,3,3,09,11,13,055,36*47
$BDGSV,3,1,12,01,40,126,42,02,47,219,39,03,55,171,43,04,23,109,40*64
$BDGSV,3,2,12,05,00,000,35,08,74,338,42,10,82,202,43,12,33,283,40*6E
$BDGSV,3,3,12,13,62,256,43,29,24,058,42,19,26,108,42,07,00,000,42*6F
$B3CN0,0,0,0,0,0,0,0,0,0,0,0,0,0,0*4C
$GLGSV,2,1,07,04,13,119,41,03,14,066,37,19,48,351,37,16,43,183,43*63
$GLGSV,2,2,07,09,58,299,46,18,17,041,42,26,00,000,43*59
$ini_pos,lastpos_good = 1,ini_pos.x:-1578913.181836,ini_pos.y:5312768.350352,ini_pos.z:3146355.976419
Refix G01: 2, 199845.922338, 2211
Refix G03: 2, 199845.925971, -1119
Refix G06: 2, 199845.927014, -3488
Refix G11: 2, 199845.919823, 1869
Refix G17: 2, 199845.928086, -1715
Refix G19: 2, 199845.926943, -2624
Refix G22: 2, 199845.921212, 373
Refix G28: 2, 199845.932035, -1421
Refix G30: 2, 199845.921854, 2100
$GNGGA,073028.000,2944.9079,N,10633.0922,E,1,26,0.6,322.3,M,,,,0000*1F
$GNRMC,073028.000,A,2944.9079,N,10633.0922,E,0.28,0.00,280519,,*1C
$GPGSA,A,3,01,03,06,11,17,19,22,28,30,,,,0.7,0.6,0.4*34
$BDGSA,A,3,01,02,03,04,08,10,12,13,19,26,29,,0.7,0.6,0.4*2D
$GLGSA,A,3,03,04,09,16,18,19,,,,,,,0.7,0.6,0.4*23
$GPGSV,3,1,09,01,22,040,41,03,35,079,43,06,40,233,43,17,52,332,44*7A
$GPGSV,3,2,09,19,39,304,43,22,24,058,42,28,80,072,43,30,21,191,38*7C
$GPGSV,3,3,09,11,13,055,36*47
$BDGSV,3,1,12,01,40,126,40,02,47,219,39,03,55,171,42,04,23,109,39*69
$BDGSV,3,2,12,05,00,000,35,08,74,338,42,10,82,202,42,12,33,283,39*61
$BDGSV,3,3,12,13,62,256,43,29,24,058,42,19,26,108,42,07,00,000,41*6C
$B3CN0,0,0,0,0,0,0,0,0,0,0,0,0,0,0*4C
$GLGSV,2,1,07,04,13,119,41,03,14,066,38,19,48,351,37,16,43,183,43*6C
$GLGSV,2,2,07,09,58,299,48,18,17,041,42,26,00,000,43*57
$ini_pos,lastpos_good = 1,ini_pos.x:-1578913.093625,ini_pos.y:5312768.178908,ini_pos.z:3146355.979545
Refix G01: 2, 199846.922337, 2208
Refix G03: 2, 199846.925972, -1122
Refix G06: 2, 199846.927016, -3490
Refix G11: 2, 199846.919822, 1867
Refix G17: 2, 199846.928087, -1719
Refix G19: 2, 199846.926945, -2626
Refix G22: 2, 199846.921212, 371
Refix G28: 2, 199846.932036, -1424
Refix G30: 2, 199846.921853, 2098
$GNGGA,073029.000,2944.9079,N,10633.0923,E,1,26,0.6,323.3,M,,,,0000*1E
$GNRMC,073029.000,A,2944.9079,N,10633.0923,E,0.14,0.00,280519,,*13
$GPGSA,A,3,01,03,06,11,17,19,22,28,30,,,,0.7,0.6,0.4*34
$BDGSA,A,3,01,02,03,04,08,10,12,13,19,26,29,,0.7,0.6,0.4*2D
$GLGSA,A,3,03,04,09,16,18,19,,,,,,,0.7,0.6,0.4*23
$GPGSV,3,1,09,01,22,040,41,03,35,079,43,06,40,233,43,17,52,332,45*7B
$GPGSV,3,2,09,19,39,304,43,22,24,058,43,28,80,072,43,30,21,191,38*7D
$GPGSV,3,3,09,11,13,055,36*47
$BDGSV,3,1,12,01,40,126,41,02,47,219,40,03,55,171,42,04,23,109,38*67
$BDGSV,3,2,12,05,00,000,35,08,74,338,43,10,82,202,43,12,33,283,39*61
$BDGSV,3,3,12,13,62,256,43,29,24,058,42,19,26,108,42,07,00,000,41*6C
$B3CN0,0,0,0,0,0,0,0,0,0,0,0,0,0,0*4C
$GLGSV,2,1,07,04,13,119,41,03,14,066,38,19,48,351,37,16,43,183,43*6C
$GLGSV,2,2,07,09,58,299,48,18,17,041,42,26,00,000,44*50
$ini_pos,lastpos_good = 1,ini_pos.x:-1578913.399133,ini_pos.y:5312769.002097,ini_pos.z:3146356.407994
Refix G01: 2, 199847.922335, 2209
Refix G03: 2, 199847.925973, -1120
Refix G06: 2, 199847.927018, -3488
Refix G11: 2, 199847.919821, 1867
Refix G17: 2, 199847.928088, -1717
Refix G19: 2, 199847.926946, -2625
Refix G22: 2, 199847.921212, 372
Refix G28: 2, 199847.932037, -1422
Refix G30: 2, 199847.921851, 2099
$GNGGA,073030.000,2944.9078,N,10633.0922,E,1,26,0.6,323.5,M,,,,0000*10
$GNRMC,073030.000,A,2944.9078,N,10633.0922,E,0.04,0.00,280519,,*1A
$GPGSA,A,3,01,03,06,11,17,19,22,28,30,,,,0.7,0.6,0.4*34
$BDGSA,A,3,01,02,03,04,08,10,12,13,19,26,29,,0.7,0.6,0.4*2D
$GLGSA,A,3,03,04,09,16,18,19,,,,,,,0.7,0.6,0.4*23
$GPGSV,3,1,09,01,22,040,40,03,35,079,43,06,40,233,43,17,52,332,44*7B
$GPGSV,3,2,09,19,39,304,43,22,24,058,43,28,80,072,43,30,21,191,38*7D
$GPGSV,3,3,09,11,13,055,37*46
$BDGSV,3,1,12,01,40,126,41,02,47,219,40,03,55,171,42,04,23,109,39*66
$BDGSV,3,2,12,05,00,000,35,08,74,338,43,10,82,202,43,12,33,283,39*61
$BDGSV,3,3,12,13,62,256,43,29,24,058,42,19,26,108,42,07,00,000,41*6C
$B3CN0,0,0,0,0,0,0,0,0,0,0,0,0,0,0*4C
$GLGSV,2,1,07,04,13,119,41,03,14,066,38,19,48,351,37,16,43,183,43*6C
$GLGSV,2,2,07,09,58,299,47,18,17,041,42,26,00,000,43*58
$ini_pos,lastpos_good = 1,ini_pos.x:-1578913.365905,ini_pos.y:5312769.237904,ini_pos.z:3146356.470637
Refix G01: 2, 199848.922334, 2208
Refix G03: 2, 199848.925973, -1120
Refix G06: 2, 199848.927020, -3489
Refix G11: 2, 199848.919820, 1867
Refix G17: 2, 199848.928089, -1718
Refix G19: 2, 199848.926948, -2626
Refix G22: 2, 199848.921211, 372
Refix G28: 2, 199848.932038, -1422
Refix G30: 2, 199848.921850, 2099
$GNGGA,073031.000,2944.9078,N,10633.0923,E,1,26,0.6,323.8,M,,,,0000*1D
$GNRMC,073031.000,A,2944.9078,N,10633.0923,E,0.18,0.00,280519,,*17
$GPGSA,A,3,01,03,06,11,17,19,22,28,30,,,,0.7,0.6,0.4*34
$BDGSA,A,3,01,02,03,04,08,10,12,13,19,26,29,,0.7,0.6,0.4*2D
$GLGSA,A,3,03,04,09,16,18,19,,,,,,,0.7,0.6,0.4*23
$GPGSV,3,1,09,01,22,040,40,03,35,079,43,06,40,233,44,17,52,332,44*7C
$GPGSV,3,2,09,19,39,304,43,22,24,058,42,28,80,072,42,30,21,191,38*7D
$GPGSV,3,3,09,11,13,055,37*46
