SD initialized success
Create debug.log Failed! 3
bbram_blkflag = 1
rtcflag = 0
BBRAM Block OK: 01 EPHflag: 28250465 a40012cf, rtc 00
Hot-start nowtime:day = 16,minute = 15,seconds = 18.00
GPS 0 Init Dop:  2444, 2
GPS 1 Init Dop: 10000,80
GPS 2 Init Dop:  -977, 2
GPS 3 Init Dop: 10000,80
GPS 4 Init Dop: 10000,80
GPS 5 Init Dop: -3343, 2
GPS 6 Init Dop:  2552, 2
GPS 7 Init Dop: 10000,80
GPS 8 Init Dop: 10000,80
GPS 9 Init Dop: 10000,80
GPS10 Init Dop:  2135, 2
GPS11 Init Dop: 10000,80
GPS12 Init Dop: 10000,80
GPS13 Init Dop: 10000,80
GPS14 Init Dop: 10000,80
GPS15 Init Dop: 10000,80
GPS16 Init Dop: -1453, 2
GPS17 Init Dop: 10000,80
GPS18 Init Dop: -2397, 2
GPS19 Init Dop: 10000,80
GPS20 Init Dop: 10000,80
GPS21 Init Dop:   535, 2
GPS22 Init Dop: 10000,80
GPS23 Init Dop: 10000,80
GPS24 Init Dop: 10000,80
GPS25 Init Dop: 10000,80
GPS26 Init Dop: 10000,80
GPS27 Init Dop: -1260, 2
GPS28 Init Dop: 10000,80
GPS29 Init Dop:  2339, 2
GPS30 Init Dop: 10000,80
GPS31 Init Dop: 10000,80
BDS 0 Init Dop:  -860, 2
BDS 1 Init Dop:  -920, 2
BDS 2 Init Dop:  -878, 2
BDS 3 Init Dop:  -880, 2
BDS 4 Init Dop: 10000,80
BDS 5 Init Dop: 10000,80
BDS 6 Init Dop:  -235, 2
BDS 7 Init Dop:  -477, 2
BDS 8 Init Dop: 10000,80
BDS 9 Init Dop:  -736, 2
BDS10 Init Dop: 10000,80
BDS11 Init Dop: 10000,80
BDS12 Init Dop:  -923, 2
BDS13 Init Dop: 10000,80
BDS14 Init Dop: 10000,80
BDS15 Init Dop: 10000,80
BDS16 Init Dop: 10000,80
BDS17 Init Dop: 10000,80
BDS18 Init Dop: 10000,80
BDS19 Init Dop: 10000,80
BDS20 Init Dop: 10000,80
BDS21 Init Dop: 10000,80
BDS22 Init Dop: 10000,80
BDS23 Init Dop: 10000,80
BDS24 Init Dop: 10000,80
BDS25 Init Dop: 10000,80
BDS26 Init Dop:   849, 2
BDS27 Init Dop: 10000,80
BDS28 Init Dop: 10000,80
BDS29 Init Dop: -1003, 2
BDS30 Init Dop: 10000,80
BDS31 Init Dop: -3110, 2
Good luck!
$ini_pos,lastpos_good = 1,ini_pos.x:-1578918.000000,ini_pos.y:5312772.000000,ini_pos.z:3146356.000000
$rtc_local_time,localRTC.weeks:2053,localRTC.seconds:375337.026014,localGtime.weeks:0,localGtime.seconds:19.026010
source<tow,snapshot
$GNGGA,000000.000,,,,,0,00,,,M,,,,0000*2B
$GNRMC,000000.000,A,,,,,,,060180,,*29
$GPGSA,A,1,,,,,,,,,,,,,,,*1E
$BDGSA,A,1,,,,,,,,,,,,,,,*0F
$GLGSA,A,1,,,,,,,,,,,,,,,*02
$B3CN0,0,0,0,0,0,0,0,0,0,0,0,0,0,0*4C
$ini_pos,lastpos_good = 1,ini_pos.x:-1578918.000000,ini_pos.y:5312772.000000,ini_pos.z:3146356.000000
$rtc_local_time,localRTC.weeks:2053,localRTC.seconds:375338.026014,localGtime.weeks:2053,localGtime.seconds:375338.026014
source<tow,snapshot
$GNGGA,000000.000,,,,,0,00,,,M,,,,0000*2B
$GNRMC,000000.000,A,,,,,,,060180,,*29
$GPGSA,A,1,,,,,,,,,,,,,,,*1E
$BDGSA,A,1,,,,,,,,,,,,,,,*0F
$GLGSA,A,1,,,,,,,,,,,,,,,*02
$B3CN0,0,0,0,0,0,0,0,0,0,0,0,0,0,0*4C
$ini_pos,lastpos_good = 1,ini_pos.x:-1578918.000000,ini_pos.y:5312772.000000,ini_pos.z:3146356.000000
$rtc_local_time,localRTC.weeks:2053,localRTC.seconds:375339.026014,localGtime.weeks:2053,localGtime.seconds:375339.026014
$pseudo_cd_ph,prn:1,pseudo_cd_ph:13.047077302010
measnum = 0,full_prange = 23068784.618426
$oldmeas,msRange:0.000000,x:-14765429.146209,y:1928033.666532,z:21825062.745004,vx:-706.134644,vy:-2718.791016,vz:-204.183762,tb:-0.000017512146
$newmeas,x:-14765374.810189,y:1928242.875484,z:21825078.455380,vx:-706.122620,vy:-2718.796387,vz:-204.147461,tb:-0.000017512145
$pseudo_cd_ph,prn:3,pseudo_cd_ph:16.041743997255
measnum = 1,full_prange = 22232576.459073
$oldmeas,msRange:74.309815,x:-21564284.570863,y:9752884.669713,z:11930408.939485,vx:910.758179,vy:-1244.837646,vz:2663.619385,tb:0.000187864369
$newmeas,x:-21564352.112135,y:9752976.985939,z:11930211.405063,vx:910.745850,vy:-1244.816162,vz:2663.638184,tb:0.000187864369
$pseudo_cd_ph,prn:6,pseudo_cd_ph:16.671943351321
measnum = 2,full_prange = 22048554.521591
$oldmeas,msRange:73.696577,x:6486453.206227,y:25728481.972329,z:640687.883581,vx:-250.275467,vy:-11.150395,vz:3208.479980,tb:0.000204232631
$newmeas,x:6486471.612716,y:25728482.791382,z:640451.912486,vx:-250.267700,vy:-11.122798,vz:3208.480957,tb:0.000204232631
source<tow,snapshot
$GNGGA,000000.000,,,,,0,00,,,M,,,,0000*2B
$GNRMC,000000.000,A,,,,,,,060180,,*29
$GPGSA,A,1,,,,,,,,,,,,,,,*1E
$BDGSA,A,1,,,,,,,,,,,,,,,*0F
$GLGSA,A,1,,,,,,,,,,,,,,,*02
$GPGSV,1,1,03,01,00,000,25,03,00,000,24,06,00,000,16*48
$B3CN0,0,0,0,0,0,0,0,0,0,0,0,0,0,0*4C
$ini_pos,lastpos_good = 1,ini_pos.x:-1578918.000000,ini_pos.y:5312772.000000,ini_pos.z:3146356.000000
$rtc_local_time,localRTC.weeks:2053,localRTC.seconds:375340.026014,localGtime.weeks:2053,localGtime.seconds:375340.026014
$pseudo_cd_ph,prn:1,pseudo_cd_ph:13.045616448217
measnum = 0,full_prange = 23069212.882080
$oldmeas,msRange:0.000000,x:-14766135.358794,y:1925314.911484,z:21824858.325425,vx:-706.290588,vy:-2718.719238,vz:-204.655411,tb:-0.000017512157
$newmeas,x:-14766081.009763,y:1925524.118810,z:21824874.072388,vx:-706.278625,vy:-2718.724854,vz:-204.619125,tb:-0.000017512156
$pseudo_cd_ph,prn:3,pseudo_cd_ph:16.042481207079
measnum = 1,full_prange = 22232345.769600
$oldmeas,msRange:74.309765,x:-21563373.730029,y:9751639.687266,z:11933072.430943,vx:910.923584,vy:-1245.127319,vz:2663.363770,tb:0.000187864367
$newmeas,x:-21563441.282867,y:9751732.024023,z:11932874.917517,vx:910.911316,vy:-1245.105835,vz:2663.382812,tb:0.000187864367
$pseudo_cd_ph,prn:6,pseudo_cd_ph:16.674200250023
measnum = 2,full_prange = 22047868.240827
$oldmeas,msRange:73.695024,x:6486202.878053,y:25728470.634312,z:643896.356508,vx:-250.380920,vy:-11.525638,vz:3208.466064,tb:0.000204232620
$newmeas,x:6486221.291724,y:25728471.480936,z:643660.393765,vx:-250.373154,vy:-11.498042,vz:3208.467285,tb:0.000204232621
$pseudo_cd_ph,prn:17,pseudo_cd_ph:18.169641325085
measnum = 3,full_prange = 21554974.526390
$oldmeas,msRange:72.050470,x:2156935.145766,y:15837629.876625,z:21635230.582735,vx:-2525.603516,vy:-782.271973,vz:831.862061,tb:0.000055557241
$newmeas,x:2157116.735403,y:15837686.122041,z:21635170.770993,vx:-2525.592773,vy:-782.281189,vz:831.893921,tb:0.000055557240
$pseudo_cd_ph,prn:19,pseudo_cd_ph:16.816443278293
measnum = 4,full_prange = 21848550.585757
$oldmeas,msRange:73.029967,x:10319610.811934,y:16552589.624068,z:17687009.113514,vx:-2203.917480,vy:-687.908569,vz:1905.152222,tb:-0.000318376485
$newmeas,x:10319771.430346,y:16552639.758230,z:17686870.267056,vx:-2203.897705,vy:-687.912109,vz:1905.180298,tb:-0.000318376485
$pseudo_cd_ph,prn:22,pseudo_cd_ph:11.454165409271
measnum = 5,full_prange = 23341212.848224
$oldmeas,msRange:78.008121,x:-20004265.617669,y:3146933.806213,z:17384803.305012,vx:1257.055420,vy:-1790.546631,vz:1802.624756,tb:-0.000701668980
$newmeas,x:-20004363.489217,y:3147073.213720,z:17384662.955318,vx:1257.051392,vy:-1790.528564,vz:1802.653198,tb:-0.000701668979
$pseudo_cd_ph,prn:28,pseudo_cd_ph:2.132008534839
measnum = 6,full_prange = 20580636.039203
$oldmeas,msRange:68.800316,x:-9293654.874916,y:20534509.998566,z:14731086.493262,vx:-1439.512939,vy:1018.912354,vz:-2420.195557,tb:0.000767881118
$newmeas,x:-9293556.052232,y:20534440.050391,z:14731252.638037,vx:-1439.532715,vy:1018.919250,vz:-2420.174805,tb:0.000767881118
$pseudo_cd_ph,prn:30,pseudo_cd_ph:12.609754948322
measnum = 7,full_prange = 23173488.063055
$oldmeas,msRange:77.448210,x:-2181122.689604,y:24337427.093385,z:-10150002.149164,vx:-591.820618,vy:-1202.514160,vz:-2769.069580,tb:-0.000105549121
$newmeas,x:-2181076.943216,y:24337520.044924,z:-10149788.103764,vx:-591.809753,vy:-1202.490356,vz:-2769.086426,tb:-0.000105549120
source<tow,snapshot
nits = 2
$GNGGA,081522.507,2944.9161,N,10633.0890,E,1,11,0.0,299.0,M,,,,0000*1F
$GNRMC,081522.507,A,2944.9161,N,10633.0890,E,0.00,0.00,160519,,*1B
$GPGSA,A,3,01,03,06,17,19,22,28,30,,,,,0.0,0.0,0.0*31
$BDGSA,A,3,01,03,04,,,,,,,,,,0.0,0.0,0.0*25
$GLGSA,A,3,,,,,,,,,,,,,0.0,0.0,0.0*2E
$GPGSV,2,1,06,01,00,000,38,03,00,000,43,06,00,000,44,17,00,000,28*78
$GPGSV,2,2,06,19,00,000,26,22,00,000,20*71
$B3CN0,0,0,0,0,0,0,0,0,0,0,0,0,0,0*4C
$ini_pos,lastpos_good = 1,ini_pos.x:-1578900.283706,ini_pos.y:5312743.063075,ini_pos.z:3146357.633216
$rtc_local_time,localRTC.weeks:2053,localRTC.seconds:375341.026014,localGtime.weeks:2053,localGtime.seconds:375341.026014
$pseudo_cd_ph,prn:1,pseudo_cd_ph:13.044169219941
measnum = 0,full_prange = 23069637.071598
$oldmeas,msRange:0.000000,x:-14766841.727355,y:1922596.228080,z:21824653.434190,vx:-706.446594,vy:-2718.647705,vz:-205.127075,tb:-0.000017512168
$newmeas,x:-14766787.365322,y:1922805.433737,z:21824669.217737,vx:-706.434570,vy:-2718.653076,vz:-205.090775,tb:-0.000017512167
$pseudo_cd_ph,prn:3,pseudo_cd_ph:16.043222056339
measnum = 1,full_prange = 22232113.990116
$oldmeas,msRange:74.309786,x:-21562462.723802,y:9750394.415046,z:11935735.666877,vx:911.088928,vy:-1245.417114,vz:2663.108154,tb:0.000187864366
$newmeas,x:-21562530.288199,y:9750486.772330,z:11935538.174462,vx:911.076660,vy:-1245.395630,vz:2663.127197,tb:0.000187864366
$pseudo_cd_ph,prn:6,pseudo_cd_ph:16.676453397421
measnum = 2,full_prange = 22047183.085811
$oldmeas,msRange:73.693540,x:6485952.444400,y:25728458.921060,z:647104.815706,vx:-250.486420,vy:-11.900865,vz:3208.452393,tb:0.000204232610
$newmeas,x:6485970.865258,y:25728459.795253,z:646868.861308,vx:-250.478653,vy:-11.873270,vz:3208.453369,tb:0.000204232611
$pseudo_cd_ph,prn:17,pseudo_cd_ph:18.170681294341
measnum = 3,full_prange = 21554653.083670
$oldmeas,msRange:72.050149,x:2154409.469048,y:15836847.668832,z:21636062.223243,vx:-2525.750244,vy:-782.143677,vz:831.419006,tb:0.000055557251
$newmeas,x:2154591.066529,y:15836903.904186,z:21636002.444250,vx:-2525.739502,vy:-782.152893,vz:831.450867,tb:0.000055557250
$pseudo_cd_ph,prn:19,pseudo_cd_ph:16.818081830604
measnum = 4,full_prange = 21848049.681797
$oldmeas,msRange:73.029029,x:10317406.759099,y:16551901.739556,z:17688914.072508,vx:-2204.188232,vy:-687.860474,vz:1904.765991,tb:-0.000318376483
$newmeas,x:10317567.393558,y:16551951.869064,z:17688775.257381,vx:-2204.168457,vy:-687.864014,vz:1904.794067,tb:-0.000318376483
$pseudo_cd_ph,prn:22,pseudo_cd_ph:11.453955940254
measnum = 5,full_prange = 23341265.971433
$oldmeas,msRange:78.009066,x:-20003008.536322,y:3145143.143345,z:17386605.747452,vx:1257.107300,vy:-1790.779175,vz:1802.260254,tb:-0.000701668984
$newmeas,x:-20003106.412129,y:3145282.569275,z:17386465.425822,vx:1257.103271,vy:-1790.761108,vz:1802.288574,tb:-0.000701668984
$pseudo_cd_ph,prn:28,pseudo_cd_ph:2.132936800214
measnum = 6,full_prange = 20580348.099161
$oldmeas,msRange:68.800177,x:-9295094.243315,y:20535528.860837,z:14728666.147425,vx:-1439.223999,vy:1018.812256,vz:-2420.496338,tb:0.000767881123
$newmeas,x:-9294995.441848,y:20535458.920515,z:14728832.310525,vx:-1439.243774,vy:1018.819092,vz:-2420.475586,tb:0.000767881123
$pseudo_cd_ph,prn:30,pseudo_cd_ph:12.608395931658
measnum = 7,full_prange = 23173885.807109
$oldmeas,msRange:77.450348,x:-2181714.580204,y:24336224.425333,z:-10152771.109409,vx:-591.960632,vy:-1202.822021,vz:-2768.851074,tb:-0.000105549129
$newmeas,x:-2181668.822205,y:24336317.402273,z:-10152557.077225,vx:-591.949829,vy:-1202.798218,vz:-2768.867920,tb:-0.000105549129
source<tow,snapshot
nits = 2
Refix G01: 2, 375341.433690, 3342
Refix G03: 2, 375341.436689, -76
Refix G06: 2, 375341.437322, -2445
Refix G07: 2, 375341.426370, 3448
Refix G11: 2, 375341.431034, 3032
Refix G17: 2, 375341.438816, -556
Refix G19: 2, 375341.437464, -1500
Refix G22: 2, 375341.432100, 1434
Refix G28: 2, 375341.442778, -361
Refix G30: 2, 375341.433254, 3236
$GNGGA,081523.511,2944.9126,N,10633.0914,E,1,15,0.0,304.3,M,,,,0000*15
$GNRMC,081523.511,A,2944.9126,N,10633.0914,E,0.00,0.00,160519,,*13
$GPGSA,A,3,01,03,06,17,19,22,28,30,,,,,0.0,0.0,0.0*31
$BDGSA,A,3,01,03,04,07,08,10,13,,,,,,0.0,0.0,0.0*29
$GLGSA,A,3,,,,,,,,,,,,,0.0,0.0,0.0*2E
$GPGSV,2,1,08,01,00,000,39,03,00,000,43,06,00,000,44,17,00,000,44*7D
$GPGSV,2,2,08,19,00,000,43,22,00,000,43,28,00,000,34,30,00,000,31*75
$BDGSV,2,1,05,01,00,000,40,03,00,000,43,04,00,000,37,07,00,000,19*60
$BDGSV,2,2,05,08,00,000,19*5D
$B3CN0,0,0,0,0,0,0,0,0,0,0,0,0,0,0*4C
$ini_pos,lastpos_good = 1,ini_pos.x:-1578906.120287,ini_pos.y:5312749.454060,ini_pos.z:3146354.651154
$rtc_local_time,localRTC.weeks:2053,localRTC.seconds:375342.026014,localGtime.weeks:2053,localGtime.seconds:375342.026014
$pseudo_cd_ph,prn:1,pseudo_cd_ph:13.042730486172
measnum = 0,full_prange = 23070058.723714
$oldmeas,msRange:0.000000,x:-14767548.251870,y:1919877.616387,z:21824448.071303,vx:-706.602478,vy:-2718.575928,vz:-205.598724,tb:-0.000017512178
$newmeas,x:-14767493.876844,y:1920086.820347,z:21824463.891434,vx:-706.590515,vy:-2718.581543,vz:-205.562424,tb:-0.000017512178
$pseudo_cd_ph,prn:3,pseudo_cd_ph:16.043966254181
measnum = 1,full_prange = 22231881.227836
$oldmeas,msRange:74.309720,x:-21561551.552240,y:9749148.853051,z:11938398.647231,vx:911.254211,vy:-1245.706909,vz:2662.852539,tb:0.000187864365
$newmeas,x:-21561619.128189,y:9749241.230857,z:11938201.175838,vx:911.242004,vy:-1245.685425,vz:2662.871582,tb:0.000187864365
$pseudo_cd_ph,prn:6,pseudo_cd_ph:16.678707633666
measnum = 2,full_prange = 22046497.609153
$oldmeas,msRange:73.691974,x:6485701.905217,y:25728446.832590,z:650313.261105,vx:-250.591965,vy:-12.276074,vz:3208.438477,tb:0.000204232600
$newmeas,x:6485720.333265,y:25728447.734348,z:650077.315060,vx:-250.584213,vy:-12.248483,vz:3208.439697,tb:0.000204232601
$pseudo_cd_ph,prn:17,pseudo_cd_ph:18.171726260367
measnum = 3,full_prange = 21554330.139951
$oldmeas,msRange:72.049797,x:2151883.645609,y:15836065.589350,z:21636893.420663,vx:-2525.896973,vy:-782.015320,vz:830.975891,tb:0.000055557262
$newmeas,x:2152065.250916,y:15836121.814635,z:21636833.674423,vx:-2525.886230,vy:-782.024597,vz:831.007751,tb:0.000055557261
$pseudo_cd_ph,prn:19,pseudo_cd_ph:16.819728735721
measnum = 4,full_prange = 21847546.294044
$oldmeas,msRange:73.028082,x:10315202.435564,y:16551213.903165,z:17690818.645244,vx:-2204.458984,vy:-687.812317,vz:1904.379639,tb:-0.000318376481
$newmeas,x:10315363.086047,y:16551264.028009,z:17690679.861466,vx:-2204.439209,vy:-687.815857,vz:1904.407837,tb:-0.000318376481
$pseudo_cd_ph,prn:22,pseudo_cd_ph:11.453748283498
measnum = 5,full_prange = 23341318.558572
$oldmeas,msRange:78.009970,x:-20001751.403151,y:3143352.247921,z:17388407.825313,vx:1257.159058,vy:-1791.011719,vz:1801.895630,tb:-0.000701668989
$newmeas,x:-20001849.283212,y:3143491.692271,z:17388267.531754,vx:1257.155029,vy:-1790.993652,vz:1801.923950,tb:-0.000701668989
$pseudo_cd_ph,prn:28,pseudo_cd_ph:2.133865923243
measnum = 6,full_prange = 20580059.873215
$oldmeas,msRange:68.799930,x:-9296533.322782,y:20536547.622948,z:14726245.500829,vx:-1438.935059,vy:1018.712036,vz:-2420.797119,tb:0.000767881128
$newmeas,x:-9296434.542534,y:20536477.690483,z:14726411.682247,vx:-1438.954834,vy:1018.718933,vz:-2420.776367,tb:0.000767881127
$pseudo_cd_ph,prn:30,pseudo_cd_ph:12.607041456832
measnum = 7,full_prange = 23174282.193118
$oldmeas,msRange:77.452378,x:-2182306.610877,y:24335021.449336,z:-10155539.851136,vx:-592.100769,vy:-1203.130005,vz:-2768.632568,tb:-0.000105549138
$newmeas,x:-2182260.841266,y:24335114.451670,z:-10155325.832185,vx:-592.089905,vy:-1203.106201,vz:-2768.649414,tb:-0.000105549137
source<tow,snapshot
nits = 2
Refix G01: 2, 375342.433382, 3342
Refix G03: 2, 375342.436383, -76
Refix G06: 2, 375342.437018, -2445
Refix G07: 2, 375342.426062, 3448
Refix G11: 2, 375342.430727, 3032
Refix G17: 2, 375342.438511, -556
Refix G19: 2, 375342.437159, -1500
Refix G22: 2, 375342.431793, 1435
Refix G28: 2, 375342.442473, -361
Refix G30: 2, 375342.432946, 3236
$GNGGA,081524.511,2944.9113,N,10633.0913,E,1,15,0.0,310.8,M,,,,0000*1D
$GNRMC,081524.511,A,2944.9113,N,10633.0913,E,0.00,0.00,160519,,*15
$GPGSA,A,3,01,03,06,17,19,22,28,30,,,,,0.0,0.0,0.0*31
$BDGSA,A,3,01,03,04,07,08,10,13,,,,,,0.0,0.0,0.0*29
$GLGSA,A,3,,,,,,,,,,,,,0.0,0.0,0.0*2E
$GPGSV,3,1,10,01,24,040,39,03,35,081,43,06,38,231,43,17,51,330,43*77
$GPGSV,3,2,10,19,38,301,43,22,24,059,42,28,80,061,43,30,23,193,42*7E
$GPGSV,3,3,10,07,01,170,00,11,15,054,00*7D
$BDGSV,3,1,11,01,40,125,41,03,55,171,45,04,23,109,39,07,56,147,43*6F
$BDGSV,3,2,11,08,74,340,44,10,82,196,40,13,62,255,31,02,47,219,00*69
$BDGSV,3,3,11,27,35,047,00,30,57,326,00,32,24,126,00*5C
$B3CN0,0,0,0,0,0,0,0,0,0,0,0,0,0,0*4C
tow update,375343642.134797
$ini_pos,lastpos_good = 1,ini_pos.x:-1578908.028600,ini_pos.y:5312756.041617,ini_pos.z:3146355.749265
$rtc_local_time,localRTC.weeks:2053,localRTC.seconds:375343.026014,localGtime.weeks:2053,localGtime.seconds:375343.642135
$pseudo_cd_ph,prn:1,pseudo_cd_ph:375343433.041300237179
measnum = 0,full_prange = 23106799.002203
$oldmeas,msRange:0.000000,x:-14768690.410731,y:1915484.162231,z:21824115.182944,vx:-706.854492,vy:-2718.459717,vz:-206.360947,tb:-0.000017512196
$newmeas,x:-14768635.929688,y:1915693.690413,z:21824131.087017,vx:-706.842468,vy:-2718.465332,vz:-206.324600,tb:-0.000017512195
$pseudo_cd_ph,prn:3,pseudo_cd_ph:375343436.044715225697
measnum = 1,full_prange = 22267968.183683
$oldmeas,msRange:74.309631,x:-21560078.639214,y:9747135.261345,z:11942701.805727,vx:911.521301,vy:-1246.175293,vz:2662.439453,tb:0.000187864363
$newmeas,x:-21560146.344687,y:9747227.823884,z:11942504.044489,vx:911.509033,vy:-1246.153687,vz:2662.458496,tb:0.000187864363
$pseudo_cd_ph,prn:6,pseudo_cd_ph:375343436.680964648724
measnum = 2,full_prange = 22082132.474386
$oldmeas,msRange:73.689448,x:6485296.780323,y:25728426.502993,z:655498.468308,vx:-250.762665,vy:-12.882426,vz:3208.416016,tb:0.000204232583
$newmeas,x:6485315.250730,y:25728427.450870,z:655262.142548,vx:-250.754883,vy:-12.854792,vz:3208.416992,tb:0.000204232584
$pseudo_cd_ph,prn:17,pseudo_cd_ph:375343438.172776460648
measnum = 3,full_prange = 21590326.809315
$oldmeas,msRange:72.049213,x:2147801.298845,y:15834801.925469,z:21638235.799690,vx:-2526.133789,vy:-781.807861,vz:830.259766,tb:0.000055557279
$newmeas,x:2147983.224505,y:15834858.229712,z:21638176.005244,vx:-2526.123291,vy:-781.817139,vz:830.291687,tb:0.000055557278
$pseudo_cd_ph,prn:19,pseudo_cd_ph:375343436.821377098560
measnum = 4,full_prange = 21883363.625625
$oldmeas,msRange:73.026533,x:10311639.409479,y:16550102.378063,z:17693895.848922,vx:-2204.896240,vy:-687.734436,vz:1903.755249,tb:-0.000318376479
$newmeas,x:10311800.355260,y:16550152.579395,z:17693756.883192,vx:-2204.876465,vy:-687.737915,vz:1903.783447,tb:-0.000318376479
$pseudo_cd_ph,prn:22,pseudo_cd_ph:375343431.453542172909
measnum = 5,full_prange = 23377691.846013
$oldmeas,msRange:78.011437,x:-19999719.614203,y:3140457.452340,z:17391319.430695,vx:1257.242676,vy:-1791.387573,vz:1801.306274,tb:-0.000701668997
$newmeas,x:-19999817.653311,y:3140597.143291,z:17391178.964466,vx:1257.238647,vy:-1791.369385,vz:1801.334717,tb:-0.000701668996
$pseudo_cd_ph,prn:28,pseudo_cd_ph:375343442.134797453880
measnum = 6,full_prange = 20616092.116993
$oldmeas,msRange:68.799539,x:-9298858.438765,y:20538193.854075,z:14722332.806932,vx:-1438.468018,vy:1018.549988,vz:-2421.282959,tb:0.000767881135
$newmeas,x:-9298759.517680,y:20538123.810313,z:14722499.312720,vx:-1438.487915,vy:1018.556885,vz:-2421.262207,tb:0.000767881135
$pseudo_cd_ph,prn:30,pseudo_cd_ph:375343432.605688333511
measnum = 7,full_prange = 23210999.350208
$oldmeas,msRange:77.455682,x:-2183263.700386,y:24333076.643465,z:-10160014.011169,vx:-592.327209,vy:-1203.627563,vz:-2768.279297,tb:-0.000105549151
$newmeas,x:-2183217.840724,y:24333169.831673,z:-10159799.680482,vx:-592.316345,vy:-1203.603760,vz:-2768.296143,tb:-0.000105549151
Refix G01: 2, 375343.433041, 2185
Refix G03: 2, 375343.436045, -1231
Refix G06: 2, 375343.436681, -3600
Refix G07: 2, 375343.425721, 2291
Refix G11: 2, 375343.430386, 1875
Refix G17: 2, 375343.438173, -1712
Refix G19: 2, 375343.436821, -2656
Refix G22: 2, 375343.431454, 279
Refix G28: 2, 375343.442135, -1515
Refix G30: 2, 375343.432606, 2080
$GNGGA,081525.510,2944.9111,N,10633.0908,E,1,11,1.1,317.7,M,,,,0000*19
$GNRMC,081525.510,A,2944.9111,N,10633.0908,E,0.24,0.00,160519,,*1B
$GPGSA,A,3,01,03,06,17,19,22,28,30,,,,,2.1,1.1,1.8*3B
$BDGSA,A,3,01,03,04,,,,,,,,,,2.1,1.1,1.8*2F
$GLGSA,A,3,,,,,,,,,,,,,2.1,1.1,1.8*24
$GPGSV,3,1,10,01,24,040,39,03,35,081,43,06,38,231,43,17,51,330,43*77
$GPGSV,3,2,10,19,38,301,43,22,24,059,42,28,80,061,43,30,23,193,42*7E
$GPGSV,3,3,10,07,01,170,00,11,15,054,00*7D
$BDGSV,3,1,11,01,40,125,41,03,55,171,43,04,23,109,40,07,56,147,43*67
$BDGSV,3,2,11,08,74,340,43,10,82,196,43,13,62,255,44,02,47,219,00*6F
$BDGSV,3,3,11,27,35,047,00,30,57,326,00,32,24,126,00*5C
$B3CN0,0,0,0,0,0,0,0,0,0,0,0,0,0,0*4C
$ini_pos,lastpos_good = 1,ini_pos.x:-1578908.915086,ini_pos.y:5312762.200103,ini_pos.z:3146358.843571
$rtc_local_time,localRTC.weeks:2053,localRTC.seconds:375344.515847,localGtime.weeks:2053,localGtime.seconds:375345.000000
$pseudo_cd_ph,prn:1,pseudo_cd_ph:375344922.872707188129
measnum = 0,full_prange = 23116918.940299
$oldmeas,msRange:0.000000,x:-14769650.367530,y:1911792.926652,z:21823834.537807,vx:-707.066162,vy:-2718.362061,vz:-207.001358,tb:-0.000017512210
$newmeas,x:-14769595.846305,y:1912002.539068,z:21823850.498226,vx:-707.054138,vy:-2718.367676,vz:-206.964996,tb:-0.000017512209
$pseudo_cd_ph,prn:3,pseudo_cd_ph:375344925.879358887672
measnum = 1,full_prange = 22277117.784070
$oldmeas,msRange:74.309555,x:-21558840.763967,y:9745442.856230,z:11946316.803676,vx:911.745544,vy:-1246.568726,vz:2662.092041,tb:0.000187864361
$newmeas,x:-21558908.513923,y:9745535.486042,z:11946118.986987,vx:911.733276,vy:-1246.547241,vz:2662.111084,tb:0.000187864361
$pseudo_cd_ph,prn:6,pseudo_cd_ph:375344926.517851173878
measnum = 2,full_prange = 22090609.677667
$oldmeas,msRange:73.687325,x:6484956.181001,y:25728408.664527,z:659855.051820,vx:-250.906189,vy:-13.391850,vz:3208.396973,tb:0.000204232570
$newmeas,x:6484974.669073,y:25728409.650305,z:659618.636740,vx:-250.898392,vy:-13.364207,vz:3208.398193,tb:0.000204232570
$pseudo_cd_ph,prn:17,pseudo_cd_ph:375344928.007872819901
measnum = 3,full_prange = 21599340.699253
$oldmeas,msRange:72.048715,x:2144371.014637,y:15833740.454168,z:21639362.771973,vx:-2526.332764,vy:-781.633484,vz:829.658020,tb:0.000055557293
$newmeas,x:2144553.030586,y:15833796.769355,z:21639302.995914,vx:-2526.322266,vy:-781.642761,vz:829.689941,tb:0.000055557292
$pseudo_cd_ph,prn:19,pseudo_cd_ph:375344926.657366693020
measnum = 4,full_prange = 21892109.726798
$oldmeas,msRange:73.025224,x:10308645.208169,y:16549168.571955,z:17696480.535704,vx:-2205.263672,vy:-687.668884,vz:1903.230591,tb:-0.000318376476
$newmeas,x:10308806.245103,y:16549218.788564,z:17696341.552747,vx:-2205.243896,vy:-687.672363,vz:1903.258789,tb:-0.000318376476
$pseudo_cd_ph,prn:22,pseudo_cd_ph:375344921.286756873131
measnum = 5,full_prange = 23387269.836987
$oldmeas,msRange:78.012669,x:-19998012.400524,y:3138024.775285,z:17393765.025568,vx:1257.312866,vy:-1791.703247,vz:1800.811035,tb:-0.000701669003
$newmeas,x:-19998110.485270,y:3138164.548096,z:17393624.540420,vx:1257.308838,vy:-1791.685059,vz:1800.839600,tb:-0.000701669003
$pseudo_cd_ph,prn:28,pseudo_cd_ph:375344931.969713628292
measnum = 6,full_prange = 20625160.022625
$oldmeas,msRange:68.799206,x:-9300811.418062,y:20539576.815124,z:14719044.754013,vx:-1438.075684,vy:1018.413696,vz:-2421.691162,tb:0.000767881142
$newmeas,x:-9300712.480461,y:20539506.749928,z:14719211.361120,vx:-1438.095581,vy:1018.420654,vz:-2421.670410,tb:0.000767881141
$pseudo_cd_ph,prn:30,pseudo_cd_ph:375344922.437199056149
measnum = 7,full_prange = 23221088.179273
$oldmeas,msRange:77.458460,x:-2184068.130114,y:24331441.995758,z:-10163772.759450,vx:-592.517578,vy:-1204.045532,vz:-2767.982178,tb:-0.000105549163
$newmeas,x:-2184022.235775,y:24331535.256845,z:-10163558.358606,vx:-592.506714,vy:-1204.021729,vz:-2767.999268,tb:-0.000105549162
Refix G01: 2, 375344.922873, 2186
Refix G03: 2, 375344.925879, -1230
Refix G06: 2, 375344.926518, -3598
Refix G07: 2, 375344.915553, 2290
Refix G11: 2, 375344.920218, 1875
Refix G17: 2, 375344.928008, -1710
Refix G19: 2, 375344.926657, -2654
Refix G22: 2, 375344.921287, 280
Refix G28: 2, 375344.931970, -1514
Refix G30: 2, 375344.922437, 2080
$GNGGA,081527.000,2944.9105,N,10633.0898,E,1,11,0.9,318.2,M,,,,0000*11
$GNRMC,081527.000,A,2944.9105,N,10633.0898,E,0.35,0.00,160519,,*10
$GPGSA,A,3,01,03,06,17,19,22,28,30,,,,,1.3,0.9,0.9*33
$BDGSA,A,3,01,03,04,,,,,,,,,,1.3,0.9,0.9*27
$GLGSA,A,3,,,,,,,,,,,,,1.3,0.9,0.9*2C
$GPGSV,3,1,10,01,24,040,39,03,35,081,42,06,38,231,44,17,51,330,44*76
$GPGSV,3,2,10,19,38,301,42,22,24,059,42,28,80,061,43,30,23,193,41*7C
$GPGSV,3,3,10,07,01,170,00,11,15,054,00*7D
$BDGSV,3,1,11,01,40,125,39,03,55,171,43,04,23,109,41,07,56,147,43*69
$BDGSV,3,2,11,08,74,340,43,10,82,196,42,13,62,255,43,27,35,047,44*62
$BDGSV,3,3,11,32,24,126,42,02,47,219,00,30,57,326,00*51
$B3CN0,0,0,0,0,0,0,0,0,0,0,0,0,0,0*4C
$ini_pos,lastpos_good = 1,ini_pos.x:-1578907.676794,ini_pos.y:5312763.547738,ini_pos.z:3146358.160569
$rtc_local_time,localRTC.weeks:2053,localRTC.seconds:375345.515847,localGtime.weeks:2053,localGtime.seconds:375346.000000
$pseudo_cd_ph,prn:1,pseudo_cd_ph:375345922.871285855770
measnum = 0,full_prange = 23117335.374661
$oldmeas,msRange:0.000000,x:-14770357.511598,y:1909074.600600,z:21823627.300642,vx:-707.222046,vy:-2718.290039,vz:-207.472977,tb:-0.000017512221
$newmeas,x:-14770302.977372,y:1909284.211240,z:21823643.297717,vx:-707.210022,vy:-2718.295654,vz:-207.436615,tb:-0.000017512220
$pseudo_cd_ph,prn:3,pseudo_cd_ph:375345925.880106449127
measnum = 1,full_prange = 22276884.003255
$oldmeas,msRange:74.309512,x:-21557928.935927,y:9744196.142629,z:11948978.767791,vx:911.910583,vy:-1246.858521,vz:2661.836182,tb:0.000187864360
$newmeas,x:-21557996.697439,y:9744288.793003,z:11948780.972188,vx:911.898315,vy:-1246.837036,vz:2661.855225,tb:0.000187864360
$pseudo_cd_ph,prn:6,pseudo_cd_ph:375345926.520104110241
measnum = 2,full_prange = 22089924.594127
$oldmeas,msRange:73.685768,x:6484705.221946,y:25728395.085103,z:663063.441709,vx:-251.011948,vy:-13.766997,vz:3208.382812,tb:0.000204232559
$newmeas,x:6484723.717237,y:25728396.098492,z:662827.035000,vx:-251.004150,vy:-13.739356,vz:3208.384033,tb:0.000204232560
$pseudo_cd_ph,prn:17,pseudo_cd_ph:375345928.008924603462
measnum = 3,full_prange = 21599015.718466
$oldmeas,msRange:72.048361,x:2141844.608692,y:15832958.884918,z:21640192.208403,vx:-2526.479248,vy:-781.505066,vz:829.214905,tb:0.000055557303
$newmeas,x:2142026.632455,y:15833015.190002,z:21640132.465172,vx:-2526.468750,vy:-781.514282,vz:829.246826,tb:0.000055557302
$pseudo_cd_ph,prn:19,pseudo_cd_ph:375345926.659019589424
measnum = 4,full_prange = 21891604.534272
$oldmeas,msRange:73.024269,x:10306439.809303,y:16548480.927290,z:17698383.573042,vx:-2205.534180,vy:-687.620483,vz:1902.844116,tb:-0.000318376475
$newmeas,x:10306600.862274,y:16548531.139210,z:17698244.621511,vx:-2205.514404,vy:-687.624023,vz:1902.872437,tb:-0.000318376475
$pseudo_cd_ph,prn:22,pseudo_cd_ph:375345921.286552250385
measnum = 5,full_prange = 23387321.512805
$oldmeas,msRange:78.013586,x:-19996755.061952,y:3136232.955894,z:17395565.654233,vx:1257.364380,vy:-1791.935669,vz:1800.446289,tb:-0.000701669008
$newmeas,x:-19996853.150938,y:3136372.747149,z:17395425.197230,vx:1257.360352,vy:-1791.917603,vz:1800.474854,tb:-0.000701669007
$pseudo_cd_ph,prn:28,pseudo_cd_ph:375345931.970645070076
measnum = 6,full_prange = 20624871.117656
$oldmeas,msRange:68.798977,x:-9302249.349240,y:20540595.178604,z:14716622.912676,vx:-1437.786743,vy:1018.313293,vz:-2421.991699,tb:0.000767881146
$newmeas,x:-9302150.432905,y:20540525.121299,z:14716789.538126,vx:-1437.806641,vy:1018.320190,vz:-2421.970947,tb:0.000767881146
$pseudo_cd_ph,prn:30,pseudo_cd_ph:375345922.435847342014
measnum = 7,full_prange = 23221483.743307
$oldmeas,msRange:77.460510,x:-2184660.717785,y:24330237.796387,z:-10166540.632197,vx:-592.657837,vy:-1204.353271,vz:-2767.763428,tb:-0.000105549171
$newmeas,x:-2184614.811802,y:24330331.082902,z:-10166326.244647,vx:-592.646973,vy:-1204.329468,vz:-2767.780273,tb:-0.000105549171
Refix G01: 2, 375345.922871, 2193
Refix G03: 2, 375345.925880, -1222
Refix G06: 2, 375345.926520, -3592
Refix G07: 2, 375345.915551, 2297
Refix G11: 2, 375345.920217, 1883
Refix G17: 2, 375345.928009, -1704
Refix G19: 2, 375345.926659, -2649
Refix G22: 2, 375345.921287, 288
Refix G28: 2, 375345.931971, -1506
Refix G30: 2, 375345.922436, 2087
$GNGGA,081528.000,2944.9087,N,10633.0906,E,1,17,0.7,320.9,M,,,,0000*1B
$GNRMC,081528.000,A,2944.9087,N,10633.0906,E,0.28,0.00,160519,,*1E
$GPGSA,A,3,01,03,06,17,19,22,28,30,,,,,0.8,0.7,0.4*3A
$BDGSA,A,3,01,03,04,07,08,10,13,27,32,,,,0.8,0.7,0.4*26
$GLGSA,A,3,,,,,,,,,,,,,0.8,0.7,0.4*25
$GPGSV,3,1,10,01,24,040,39,03,35,081,43,06,38,231,44,17,51,330,44*77
$GPGSV,3,2,10,19,38,301,43,22,24,059,42,28,80,061,43,30,23,193,42*7E
$GPGSV,3,3,10,07,01,170,00,11,15,054,00*7D
$BDGSV,3,1,11,01,40,125,40,03,55,171,42,04,23,109,40,07,56,147,43*67
$BDGSV,3,2,11,08,74,340,43,10,82,196,42,13,62,255,43,27,35,047,44*62
$BDGSV,3,3,11,32,24,126,41,02,47,219,00,30,57,326,00*52
$B3CN0,36,0,0,0,0,0,0,0,0,0,0,0,0,0*79
$ini_pos,lastpos_good = 1,ini_pos.x:-1578910.074390,ini_pos.y:5312767.077892,ini_pos.z:3146356.629763
$rtc_local_time,localRTC.weeks:2053,localRTC.seconds:375346.515847,localGtime.weeks:2053,localGtime.seconds:375347.000000
$pseudo_cd_ph,prn:1,pseudo_cd_ph:375346922.869857072830
measnum = 0,full_prange = 23117754.042651
$oldmeas,msRange:0.000000,x:-14771064.811516,y:1906356.346593,z:21823419.591856,vx:-707.377869,vy:-2718.218018,vz:-207.944595,tb:-0.000017512232
$newmeas,x:-14771010.264285,y:1906565.955471,z:21823435.625588,vx:-707.365845,vy:-2718.223633,vz:-207.908234,tb:-0.000017512231
$pseudo_cd_ph,prn:3,pseudo_cd_ph:375346925.880850732327
measnum = 1,full_prange = 22276651.205237
$oldmeas,msRange:74.309458,x:-21557016.942836,y:9742949.139232,z:11951640.476042,vx:912.075623,vy:-1247.148315,vz:2661.580322,tb:0.000187864358
$newmeas,x:-21557084.715902,y:9743041.810172,z:11951442.701521,vx:912.063354,vy:-1247.126831,vz:2661.599365,tb:0.000187864358
$pseudo_cd_ph,prn:6,pseudo_cd_ph:375346926.522351920605
measnum = 2,full_prange = 22089241.047324
$oldmeas,msRange:73.684208,x:6484454.157110,y:25728381.130539,z:666271.817460,vx:-251.117752,vy:-14.142129,vz:3208.368652,tb:0.000204232549
$newmeas,x:6484472.659625,y:25728382.171538,z:666035.419110,vx:-251.109955,vy:-14.114489,vz:3208.369873,tb:0.000204232550
$pseudo_cd_ph,prn:17,pseudo_cd_ph:375346928.009971439838
measnum = 3,full_prange = 21598692.220808
$oldmeas,msRange:72.048008,x:2139318.056309,y:15832177.444144,z:21641021.201663,vx:-2526.625732,vy:-781.376526,vz:828.771667,tb:0.000055557314
$newmeas,x:2139500.087894,y:15832233.739128,z:21640961.491256,vx:-2526.615234,vy:-781.385803,vz:828.803650,tb:0.000055557313
$pseudo_cd_ph,prn:19,pseudo_cd_ph:375346926.660668015480
measnum = 4,full_prange = 21891100.681924
$oldmeas,msRange:73.023318,x:10304234.139951,y:16547793.330996,z:17700286.223911,vx:-2205.804688,vy:-687.572144,vz:1902.457642,tb:-0.000318376473
$newmeas,x:10304395.208964,y:16547843.538227,z:17700147.303800,vx:-2205.784912,vy:-687.575623,vz:1902.485962,tb:-0.000318376473
$pseudo_cd_ph,prn:22,pseudo_cd_ph:375346921.286338746548
measnum = 5,full_prange = 23387375.851109
$oldmeas,msRange:78.014496,x:-19995497.671828,y:3134440.904050,z:17397365.918137,vx:1257.415894,vy:-1792.168091,vz:1800.081543,tb:-0.000701669012
$newmeas,x:-19995595.765062,y:3134580.713763,z:17397225.489264,vx:1257.411865,vy:-1792.150024,vz:1800.109985,tb:-0.000701669012
$pseudo_cd_ph,prn:28,pseudo_cd_ph:375346931.971570134163
measnum = 6,full_prange = 20624584.124671
$oldmeas,msRange:68.798740,x:-9303686.991446,y:20541613.441625,z:14714200.770817,vx:-1437.497803,vy:1018.212830,vz:-2422.292236,tb:0.000767881151
$newmeas,x:-9303588.096368,y:20541543.392208,z:14714367.414622,vx:-1437.517700,vy:1018.219727,vz:-2422.271484,tb:0.000767881151
$pseudo_cd_ph,prn:30,pseudo_cd_ph:375346922.434492349625
measnum = 7,full_prange = 23221880.290137
$oldmeas,msRange:77.462551,x:-2185253.445704,y:24329033.289271,z:-10169308.286130,vx:-592.798096,vy:-1204.661011,vz:-2767.544678,tb:-0.000105549180
$newmeas,x:-2185207.528072,y:24329126.601215,z:-10169093.911870,vx:-592.787231,vy:-1204.637207,vz:-2767.561523,tb:-0.000105549179
Refix G01: 2, 375346.922870, 2201
Refix G03: 2, 375346.925881, -1213
Refix G06: 2, 375346.926522, -3584
Refix G07: 2, 375346.915550, 2304
Refix G11: 2, 375346.920216, 1890
Refix G17: 2, 375346.928010, -1697
Refix G19: 2, 375346.926661, -2642
Refix G22: 2, 375346.921286, 296
Refix G28: 2, 375346.931972, -1498
Refix G30: 2, 375346.922435, 2095
$GNGGA,081529.000,2944.9084,N,10633.0909,E,1,17,0.7,322.5,M,,,,0000*18
$GNRMC,081529.000,A,2944.9084,N,10633.0909,E,0.63,0.00,160519,,*1C
$GPGSA,A,3,01,03,06,17,19,22,28,30,,,,,0.8,0.7,0.4*3A
$BDGSA,A,3,01,03,04,07,08,10,13,27,32,,,,0.8,0.7,0.4*26
$GLGSA,A,3,,,,,,,,,,,,,0.8,0.7,0.4*25
$GPGSV,3,1,10,01,24,040,39,03,35,081,43,06,38,231,43,17,51,330,44*70
$GPGSV,3,2,10,19,38,301,42,22,24,059,42,28,80,061,43,30,23,193,42*7F
$GPGSV,3,3,10,07,01,170,00,11,15,054,00*7D
$BDGSV,3,1,11,01,40,125,40,03,55,171,43,04,23,109,40,07,56,147,42*67
$BDGSV,3,2,11,08,74,340,43,10,82,196,43,13,62,255,43,27,35,047,43*64
$BDGSV,3,3,11,32,24,126,41,02,47,219,00,30,57,326,00*52
$B3CN0,0,0,0,0,0,0,0,0,0,0,0,0,0,0*4C
$ini_pos,lastpos_good = 1,ini_pos.x:-1578910.992846,ini_pos.y:5312768.485961,ini_pos.z:3146356.913359
$rtc_local_time,localRTC.weeks:2053,localRTC.seconds:375347.515847,localGtime.weeks:2053,localGtime.seconds:375348.000000
$pseudo_cd_ph,prn:1,pseudo_cd_ph:375347922.868431508541
measnum = 0,full_prange = 23118171.745713
$oldmeas,msRange:0.000000,x:-14771772.267262,y:1903638.164698,z:21823211.411454,vx:-707.533691,vy:-2718.145996,vz:-208.416214,tb:-0.000017512243
$newmeas,x:-14771717.707030,y:1903847.771800,z:21823227.481843,vx:-707.521667,vy:-2718.151367,vz:-208.379852,tb:-0.000017512242
$pseudo_cd_ph,prn:3,pseudo_cd_ph:375347925.881595790386
measnum = 1,full_prange = 22276418.174921
$oldmeas,msRange:74.309407,x:-21556104.784750,y:9741701.846035,z:11954301.928371,vx:912.240601,vy:-1247.438110,vz:2661.324463,tb:0.000187864357
$newmeas,x:-21556172.569365,y:9741794.537539,z:11954104.174938,vx:912.228333,vy:-1247.416626,vz:2661.343506,tb:0.000187864357
$pseudo_cd_ph,prn:6,pseudo_cd_ph:375347926.524602174759
measnum = 2,full_prange = 22088556.767890
$oldmeas,msRange:73.682654,x:6484202.986442,y:25728366.800852,z:669480.179004,vx:-251.223602,vy:-14.517243,vz:3208.354492,tb:0.000204232539
$newmeas,x:6484221.496183,y:25728367.869457,z:669243.789026,vx:-251.215805,vy:-14.489606,vz:3208.355469,tb:0.000204232540
$pseudo_cd_ph,prn:17,pseudo_cd_ph:375347928.011021852493
measnum = 3,full_prange = 21598367.651008
$oldmeas,msRange:72.047652,x:2136791.357545,y:15831396.131879,z:21641849.751735,vx:-2526.771973,vy:-781.248047,vz:828.328491,tb:0.000055557324
$newmeas,x:2136973.396938,y:15831452.416758,z:21641790.074155,vx:-2526.761475,vy:-781.257263,vz:828.360413,tb:0.000055557323
$pseudo_cd_ph,prn:19,pseudo_cd_ph:375347926.662317991257
measnum = 4,full_prange = 21890596.364980
$oldmeas,msRange:73.022365,x:10302028.200156,y:16547105.783122,z:17702188.488271,vx:-2206.074951,vy:-687.523682,vz:1902.071167,tb:-0.000318376471
$newmeas,x:10302189.285205,y:16547155.985658,z:17702049.599585,vx:-2206.055420,vy:-687.527222,vz:1902.099365,tb:-0.000318376472
$pseudo_cd_ph,prn:22,pseudo_cd_ph:375347921.286123633385
measnum = 5,full_prange = 23387430.671875
$oldmeas,msRange:78.015407,x:-19994240.230208,y:3132648.619774,z:17399165.817241,vx:1257.467407,vy:-1792.400513,vz:1799.716797,tb:-0.000701669017
$newmeas,x:-19994338.327688,y:3132788.447946,z:17399025.416499,vx:1257.463379,vy:-1792.382446,vz:1799.745239,tb:-0.000701669017
$pseudo_cd_ph,prn:28,pseudo_cd_ph:375347931.972496271133
measnum = 6,full_prange = 20624296.810045
$oldmeas,msRange:68.798507,x:-9305124.344672,y:20542631.604127,z:14711778.328485,vx:-1437.208740,vy:1018.112244,vz:-2422.592529,tb:0.000767881156
$newmeas,x:-9305025.470852,y:20542561.562603,z:14711944.990637,vx:-1437.228638,vy:1018.119202,vz:-2422.572021,tb:0.000767881155
$pseudo_cd_ph,prn:30,pseudo_cd_ph:375347922.433137536049
measnum = 7,full_prange = 23222276.783360
$oldmeas,msRange:77.464602,x:-2185846.313908,y:24327828.474450,z:-10172075.721188,vx:-592.938354,vy:-1204.968750,vz:-2767.325684,tb:-0.000105549188
$newmeas,x:-2185800.384624,y:24327921.811822,z:-10171861.360225,vx:-592.927490,vy:-1204.944824,vz:-2767.342529,tb:-0.000105549187
Refix G01: 2, 375347.922868, 2191
Refix G03: 2, 375347.925882, -1224
Refix G06: 2, 375347.926525, -3594
Refix G07: 2, 375347.915548, 2296
Refix G11: 2, 375347.920214, 1881
Refix G17: 2, 375347.928011, -1707
Refix G19: 2, 375347.926662, -2651
Refix G22: 2, 375347.921286, 286
Refix G28: 2, 375347.931972, -1510
Refix G30: 2, 375347.922433, 2085
$GNGGA,081530.000,2944.9083,N,10633.0910,E,1,17,0.7,322.8,M,,,,0000*12
$GNRMC,081530.000,A,2944.9083,N,10633.0910,E,0.09,0.00,160519,,*17
$GPGSA,A,3,01,03,06,17,19,22,28,30,,,,,0.8,0.7,0.4*3A
$BDGSA,A,3,01,03,04,07,08,10,13,27,32,,,,0.8,0.7,0.4*26
$GLGSA,A,3,,,,,,,,,,,,,0.8,0.7,0.4*25
$GPGSV,3,1,10,01,24,040,40,03,35,081,43,06,38,231,44,17,51,330,45*78
$GPGSV,3,2,10,19,38,301,43,22,24,059,42,28,80,061,44,30,23,193,42*79
$GPGSV,3,3,10,07,01,170,00,11,15,054,00*7D
$BDGSV,3,1,11,01,40,125,43,03,55,171,43,04,23,109,39,07,56,147,43*6B
$BDGSV,3,2,11,08,74,340,43,10,82,196,43,13,62,255,43,27,35,047,43*64
$BDGSV,3,3,11,32,24,126,41,02,47,219,00,30,57,326,00*52
$B3CN0,0,0,0,0,0,0,0,0,0,0,0,0,0,0*4C
$ini_pos,lastpos_good = 1,ini_pos.x:-1578911.302142,ini_pos.y:5312768.824769,ini_pos.z:3146356.857077
$rtc_local_time,localRTC.weeks:2053,localRTC.seconds:375348.515847,localGtime.weeks:2053,localGtime.seconds:375349.000000
$pseudo_cd_ph,prn:1,pseudo_cd_ph:375348922.867004036903
measnum = 0,full_prange = 23118590.020585
$oldmeas,msRange:0.000000,x:-14772479.878816,y:1900920.054982,z:21823002.759441,vx:-707.689453,vy:-2718.073730,vz:-208.887817,tb:-0.000017512253
$newmeas,x:-14772425.305582,y:1901129.660308,z:21823018.866490,vx:-707.677490,vy:-2718.079346,vz:-208.851456,tb:-0.000017512252
$pseudo_cd_ph,prn:3,pseudo_cd_ph:375348925.882340252399
measnum = 1,full_prange = 22276185.323296
$oldmeas,msRange:74.309360,x:-21555192.461725,y:9740454.263035,z:11956963.124722,vx:912.405518,vy:-1247.727905,vz:2661.068359,tb:0.000187864356
$newmeas,x:-21555260.257886,y:9740546.975104,z:11956765.392378,vx:912.393250,vy:-1247.706421,vz:2661.087402,tb:0.000187864356
$pseudo_cd_ph,prn:6,pseudo_cd_ph:375348926.526850700378
measnum = 2,full_prange = 22087873.006658
$oldmeas,msRange:73.681103,x:6483951.709892,y:25728352.096059,z:672688.526272,vx:-251.329514,vy:-14.892343,vz:3208.340332,tb:0.000204232529
$newmeas,x:6483970.226863,y:25728353.192267,z:672452.144665,vx:-251.321716,vy:-14.864707,vz:3208.341309,tb:0.000204232529
$pseudo_cd_ph,prn:17,pseudo_cd_ph:375348928.012071132660
measnum = 3,full_prange = 21598043.420720
$oldmeas,msRange:72.047299,x:2134264.512458,y:15830614.948158,z:21642677.858603,vx:-2526.918213,vy:-781.119446,vz:827.885315,tb:0.000055557335
$newmeas,x:2134446.559658,y:15830671.222929,z:21642618.213849,vx:-2526.907715,vy:-781.128723,vz:827.917236,tb:0.000055557334
$pseudo_cd_ph,prn:19,pseudo_cd_ph:375348926.663968026638
measnum = 4,full_prange = 21890092.030168
$oldmeas,msRange:73.021413,x:10299821.989962,y:16546418.283718,z:17704090.366079,vx:-2206.345459,vy:-687.475159,vz:1901.684570,tb:-0.000318376470
$newmeas,x:10299983.091042,y:16546468.481557,z:17703951.508819,vx:-2206.325684,vy:-687.478699,vz:1901.712769,tb:-0.000318376470
$pseudo_cd_ph,prn:22,pseudo_cd_ph:375348921.285906970501
measnum = 5,full_prange = 23387485.957237
$oldmeas,msRange:78.016319,x:-19992982.737147,y:3130856.103087,z:17400965.351509,vx:1257.518799,vy:-1792.632935,vz:1799.351929,tb:-0.000701669022
$newmeas,x:-19993080.838869,y:3130995.949720,z:17400824.978898,vx:1257.514771,vy:-1792.614868,vz:1799.380371,tb:-0.000701669021
$pseudo_cd_ph,prn:28,pseudo_cd_ph:375348931.973420083523
measnum = 6,full_prange = 20624010.192309
$oldmeas,msRange:68.798278,x:-9306561.408910,y:20543649.666051,z:14709355.585726,vx:-1436.919800,vy:1018.011658,vz:-2422.893066,tb:0.000767881160
$newmeas,x:-9306462.556345,y:20543579.632421,z:14709522.266229,vx:-1436.939697,vy:1018.018555,vz:-2422.872314,tb:0.000767881160
$pseudo_cd_ph,prn:30,pseudo_cd_ph:375348922.431779742241
measnum = 7,full_prange = 23222674.170034
$oldmeas,msRange:77.466656,x:-2186439.322431,y:24326623.351965,z:-10174842.937313,vx:-593.078735,vy:-1205.276367,vz:-2767.106689,tb:-0.000105549197
$newmeas,x:-2186393.381490,y:24326716.714764,z:-10174628.589643,vx:-593.067810,vy:-1205.252563,vz:-2767.123779,tb:-0.000105549196
Refix G01: 2, 375348.922867, 2203
Refix G03: 2, 375348.925882, -1210
Refix G06: 2, 375348.926527, -3581
Refix G07: 2, 375348.915547, 2306
Refix G11: 2, 375348.920213, 1892
Refix G17: 2, 375348.928012, -1694
Refix G19: 2, 375348.926664, -2638
Refix G22: 2, 375348.921286, 299
Refix G28: 2, 375348.931973, -1495
Refix G30: 2, 375348.922432, 2097
$GNGGA,081531.000,2944.9081,N,10633.0913,E,1,17,0.7,324.3,M,,,,0000*1F
$GNRMC,081531.000,A,2944.9081,N,10633.0913,E,0.29,0.00,160519,,*15
$GPGSA,A,3,01,03,06,17,19,22,28,30,,,,,0.8,0.7,0.4*3A
$BDGSA,A,3,01,03,04,07,08,10,13,27,32,,,,0.8,0.7,0.4*26
$GLGSA,A,3,,,,,,,,,,,,,0.8,0.7,0.4*25
$GPGSV,3,1,10,01,24,040,40,03,35,081,44,06,38,231,44,17,51,330,45*7F
$GPGSV,3,2,10,19,38,301,43,22,24,059,42,28,80,061,44,30,23,193,42*79
$GPGSV,3,3,10,07,01,170,00,11,15,054,00*7D
$BDGSV,3,1,11,01,40,125,39,02,47,219,40,03,55,171,43,04,23,109,40*66
$BDGSV,3,2,11,07,56,147,42,08,74,340,42,10,82,196,42,13,62,255,43*63
$BDGSV,3,3,11,27,35,047,43,32,24,126,41,30,57,326,00*5E
$B3CN0,0,0,0,0,0,0,20,0,0,0,0,0,0,0*7E
$ini_pos,lastpos_good = 1,ini_pos.x:-1578912.055078,ini_pos.y:5312770.114418,ini_pos.z:3146357.300916
$rtc_local_time,localRTC.weeks:2053,localRTC.seconds:375349.515847,localGtime.weeks:2053,localGtime.seconds:375350.000000
$pseudo_cd_ph,prn:1,pseudo_cd_ph:375349922.865575790405
measnum = 0,full_prange = 23119008.527754
$oldmeas,msRange:0.000000,x:-14773187.646157,y:1898202.017512,z:21822793.635825,vx:-707.845276,vy:-2718.001465,vz:-209.359421,tb:-0.000017512264
$newmeas,x:-14773133.059922,y:1898411.621058,z:21822809.779533,vx:-707.833252,vy:-2718.007080,vz:-209.323059,tb:-0.000017512263
$pseudo_cd_ph,prn:3,pseudo_cd_ph:375349925.883083164692
measnum = 1,full_prange = 22275952.936265
$oldmeas,msRange:74.309311,x:-21554279.973820,y:9739206.390226,z:11959624.065038,vx:912.570374,vy:-1248.017700,vz:2660.812256,tb:0.000187864355
$newmeas,x:-21554347.781523,y:9739299.122862,z:11959426.353784,vx:912.558105,vy:-1247.996216,vz:2660.831299,tb:0.000187864355
$pseudo_cd_ph,prn:6,pseudo_cd_ph:375349926.529097318649
measnum = 2,full_prange = 22087189.817235
$oldmeas,msRange:73.679550,x:6483700.327409,y:25728337.016174,z:675896.859197,vx:-251.435471,vy:-15.267426,vz:3208.325928,tb:0.000204232518
$newmeas,x:6483718.851613,y:25728338.139983,z:675660.485961,vx:-251.427673,vy:-15.239792,vz:3208.326904,tb:0.000204232519
$pseudo_cd_ph,prn:17,pseudo_cd_ph:375349928.013120055199
measnum = 3,full_prange = 21597719.297646
$oldmeas,msRange:72.046943,x:2131737.521103,y:15829833.893012,z:21643505.522250,vx:-2527.064453,vy:-780.990845,vz:827.442078,tb:0.000055557345
$newmeas,x:2131919.576107,y:15829890.157675,z:21643445.910323,vx:-2527.053955,vy:-781.000122,vz:827.473999,tb:0.000055557344
$pseudo_cd_ph,prn:19,pseudo_cd_ph:375349926.665616571903
measnum = 4,full_prange = 21889588.142081
$oldmeas,msRange:73.020459,x:10297615.509412,y:16545730.832834,z:17705991.857293,vx:-2206.615723,vy:-687.426636,vz:1901.297974,tb:-0.000318376468
$newmeas,x:10297776.626523,y:16545781.025973,z:17705853.031458,vx:-2206.595947,vy:-687.430176,vz:1901.326172,tb:-0.000318376468
$pseudo_cd_ph,prn:22,pseudo_cd_ph:375349921.285690248013
measnum = 5,full_prange = 23387541.260468
$oldmeas,msRange:78.017230,x:-19991725.192698,y:3129063.354010,z:17402764.520904,vx:1257.570190,vy:-1792.865356,vz:1798.987061,tb:-0.000701669026
$newmeas,x:-19991823.298659,y:3129203.219102,z:17402624.176427,vx:1257.566162,vy:-1792.847168,vz:1799.015503,tb:-0.000701669026
$pseudo_cd_ph,prn:28,pseudo_cd_ph:375349931.974344193935
measnum = 6,full_prange = 20623723.485229
$oldmeas,msRange:68.798046,x:-9307998.184151,y:20544667.627335,z:14706932.542589,vx:-1436.630737,vy:1017.910950,vz:-2423.193359,tb:0.000767881165
$newmeas,x:-9307899.352842,y:20544597.601605,z:14707099.241437,vx:-1436.650635,vy:1017.917908,vz:-2423.172607,tb:0.000767881164
$pseudo_cd_ph,prn:30,pseudo_cd_ph:375349922.430419325829
measnum = 7,full_prange = 23223072.342945
$oldmeas,msRange:77.468708,x:-2187032.471309,y:24325417.921855,z:-10177609.934444,vx:-593.219055,vy:-1205.583984,vz:-2766.887695,tb:-0.000105549205
$newmeas,x:-2186986.518707,y:24325511.310084,z:-10177395.600065,vx:-593.208191,vy:-1205.560181,vz:-2766.904785,tb:-0.000105549204
Refix G01: 2, 375349.922866, 2190
Refix G03: 2, 375349.925883, -1224
Refix G06: 2, 375349.926529, -3594
Refix G07: 2, 375349.915545, 2295
Refix G11: 2, 375349.920212, 1880
Refix G17: 2, 375349.928013, -1708
Refix G19: 2, 375349.926666, -2651
Refix G22: 2, 375349.921286, 286
Refix G28: 2, 375349.931974, -1511
Refix G30: 2, 375349.922430, 2084
$GNGGA,081532.000,2944.9081,N,10633.0913,E,1,17,0.7,324.4,M,,,,0000*1B
$GNRMC,081532.000,A,2944.9081,N,10633.0913,E,0.40,0.00,160519,,*19
$GPGSA,A,3,01,03,06,17,19,22,28,30,,,,,0.8,0.7,0.4*3A
$BDGSA,A,3,01,03,04,07,08,10,13,27,32,,,,0.8,0.7,0.4*26
$GLGSA,A,3,,,,,,,,,,,,,0.8,0.7,0.4*25
$GPGSV,3,1,10,01,24,040,39,03,35,081,43,06,38,231,44,17,51,330,45*76
$GPGSV,3,2,10,19,38,301,43,22,24,059,43,28,80,061,44,30,23,193,42*78
$GPGSV,3,3,10,07,01,170,00,11,15,054,00*7D
$BDGSV,3,1,11,01,40,125,42,02,47,219,40,03,55,171,42,04,23,109,39*65
$BDGSV,3,2,11,07,56,147,43,08,74,340,43,10,82,196,43,13,62,255,43*62
$BDGSV,3,3,11,27,35,047,43,32,24,126,41,30,57,326,00*5E
$B3CN0,0,0,0,0,0,0,27,0,0,0,0,0,0,0*79
$ini_pos,lastpos_good = 1,ini_pos.x:-1578912.151570,ini_pos.y:5312770.262110,ini_pos.z:3146357.311931
$rtc_local_time,localRTC.weeks:2053,localRTC.seconds:375350.515847,localGtime.weeks:2053,localGtime.seconds:375351.000000
$pseudo_cd_ph,prn:1,pseudo_cd_ph:375350922.864150524139
measnum = 0,full_prange = 23119426.141472
$oldmeas,msRange:0.000000,x:-14773895.569264,y:1895484.052356,z:21822584.040611,vx:-708.000977,vy:-2717.928955,vz:-209.831024,tb:-0.000017512275
$newmeas,x:-14773840.970031,y:1895693.654109,z:21822600.220979,vx:-707.989014,vy:-2717.934570,vz:-209.794647,tb:-0.000017512274
$pseudo_cd_ph,prn:3,pseudo_cd_ph:375350925.883831501007
measnum = 1,full_prange = 22275718.923153
$oldmeas,msRange:74.309265,x:-21553367.321090,y:9737958.227605,z:11962284.749262,vx:912.735168,vy:-1248.307617,vz:2660.556152,tb:0.000187864353
$newmeas,x:-21553435.140326,y:9738050.980801,z:11962087.059115,vx:912.722900,vy:-1248.286011,vz:2660.575195,tb:0.000187864353
$pseudo_cd_ph,prn:6,pseudo_cd_ph:375350926.531350374222
measnum = 2,full_prange = 22086504.697957
$oldmeas,msRange:73.677999,x:6483448.838942,y:25728321.561215,z:679105.177709,vx:-251.541489,vy:-15.642492,vz:3208.311279,tb:0.000204232508
$newmeas,x:6483467.370382,y:25728322.712621,z:678868.812869,vx:-251.533676,vy:-15.614861,vz:3208.312500,tb:0.000204232509
$pseudo_cd_ph,prn:17,pseudo_cd_ph:375350928.014174520969
measnum = 3,full_prange = 21597393.512753
$oldmeas,msRange:72.046590,x:2129210.383540,y:15829052.966477,z:21644332.742659,vx:-2527.210693,vy:-780.862244,vz:826.998840,tb:0.000055557355
$newmeas,x:2129392.446328,y:15829109.221025,z:21644273.163564,vx:-2527.200195,vy:-780.871521,vz:827.030762,tb:0.000055557355
$pseudo_cd_ph,prn:19,pseudo_cd_ph:375350926.667270243168
measnum = 4,full_prange = 21889082.717258
$oldmeas,msRange:73.019507,x:10295408.758548,y:16545043.430521,z:17707892.961870,vx:-2206.885986,vy:-687.378052,vz:1900.911255,tb:-0.000318376467
$newmeas,x:10295569.891674,y:16545093.618954,z:17707754.167471,vx:-2206.866455,vy:-687.381592,vz:1900.939575,tb:-0.000318376467
$pseudo_cd_ph,prn:22,pseudo_cd_ph:375350921.285479485989
measnum = 5,full_prange = 23387594.776796
$oldmeas,msRange:78.018144,x:-19990467.596916,y:3127270.372563,z:17404563.325389,vx:1257.621460,vy:-1793.097656,vz:1798.622070,tb:-0.000701669031
$newmeas,x:-19990565.707105,y:3127410.256102,z:17404423.009060,vx:1257.617432,vy:-1793.079590,vz:1798.650513,tb:-0.000701669030
$pseudo_cd_ph,prn:28,pseudo_cd_ph:375350931.975273251534
measnum = 6,full_prange = 20623435.295019
$oldmeas,msRange:68.797818,x:-9309434.670389,y:20545685.487922,z:14704509.199121,vx:-1436.341797,vy:1017.810242,vz:-2423.493652,tb:0.000767881169
$newmeas,x:-9309335.860342,y:20545615.470099,z:14704675.916299,vx:-1436.361694,vy:1017.817200,vz:-2423.473145,tb:0.000767881169
$pseudo_cd_ph,prn:30,pseudo_cd_ph:375350922.429066240788
measnum = 7,full_prange = 23223468.317966
$oldmeas,msRange:77.470762,x:-2187625.760576,y:24324212.184161,z:-10180376.712523,vx:-593.359497,vy:-1205.891479,vz:-2766.668701,tb:-0.000105549213
$newmeas,x:-2187579.796314,y:24324305.597808,z:-10180162.391461,vx:-593.348633,vy:-1205.867676,vz:-2766.685547,tb:-0.000105549213
Refix G01: 2, 375350.922864, 2192
Refix G03: 2, 375350.925884, -1221
Refix G06: 2, 375350.926531, -3592
Refix G07: 2, 375350.915544, 2296
Refix G11: 2, 375350.920211, 1881
Refix G17: 2, 375350.928014, -1706
Refix G19: 2, 375350.926667, -2650
Refix G22: 2, 375350.921285, 288
Refix G28: 2, 375350.931975, -1508
Refix G30: 2, 375350.922429, 2086
$GNGGA,081533.000,2944.9080,N,10633.0913,E,1,18,0.7,325.2,M,,,,0000*13
$GNRMC,081533.000,A,2944.9080,N,10633.0913,E,0.15,0.00,160519,,*19
$GPGSA,A,3,01,03,06,17,19,22,28,30,,,,,0.8,0.7,0.4*3A
$BDGSA,A,3,01,02,03,04,07,08,10,13,27,32,,,0.8,0.7,0.4*24
$GLGSA,A,3,,,,,,,,,,,,,0.8,0.7,0.4*25
$GPGSV,3,1,10,01,24,040,40,03,35,081,43,06,38,231,43,17,51,330,45*7F
$GPGSV,3,2,10,19,38,301,43,22,24,059,42,28,80,061,44,30,23,193,42*79
$GPGSV,3,3,10,07,01,170,00,11,15,054,00*7D
$BDGSV,3,1,11,01,40,125,39,02,47,219,40,03,55,171,43,04,23,109,40*66
$BDGSV,3,2,11,07,56,147,43,08,74,340,43,10,82,196,43,13,62,255,44*65
$BDGSV,3,3,11,27,35,047,43,32,24,126,41,30,57,326,00*5E
$B3CN0,0,0,0,0,0,0,27,0,0,0,0,0,0,0*79
$ini_pos,lastpos_good = 1,ini_pos.x:-1578912.451216,ini_pos.y:5312770.948469,ini_pos.z:3146357.537321
$rtc_local_time,localRTC.weeks:2053,localRTC.seconds:375351.515847,localGtime.weeks:2053,localGtime.seconds:375352.000000
$pseudo_cd_ph,prn:1,pseudo_cd_ph:375351922.862719357014
measnum = 0,full_prange = 23119845.524223
$oldmeas,msRange:0.000000,x:-14774603.648115,y:1892766.159579,z:21822373.973805,vx:-708.156738,vy:-2717.856689,vz:-210.302612,tb:-0.000017512285
$newmeas,x:-14774549.035881,y:1892975.759550,z:21822390.190835,vx:-708.144714,vy:-2717.862305,vz:-210.266235,tb:-0.000017512285
$pseudo_cd_ph,prn:3,pseudo_cd_ph:375351925.884573638439
measnum = 1,full_prange = 22275486.768420
$oldmeas,msRange:74.309219,x:-21552454.503593,y:9736709.775168,z:11964945.177336,vx:912.899902,vy:-1248.597412,vz:2660.300049,tb:0.000187864352
$newmeas,x:-21552522.334363,y:9736802.548932,z:11964747.508284,vx:912.887634,vy:-1248.575806,vz:2660.319092,tb:0.000187864352
$pseudo_cd_ph,prn:6,pseudo_cd_ph:375351926.533595860004
measnum = 2,full_prange = 22085821.848046
$oldmeas,msRange:73.676448,x:6483197.244441,y:25728305.731196,z:682313.481741,vx:-251.647537,vy:-16.017544,vz:3208.296875,tb:0.000204232498
$newmeas,x:6483215.783121,y:25728306.910197,z:682077.125278,vx:-251.639725,vy:-15.989914,vz:3208.297852,tb:0.000204232499
$pseudo_cd_ph,prn:17,pseudo_cd_ph:375351928.015223085880
measnum = 3,full_prange = 21597069.496893
$oldmeas,msRange:72.046236,x:2126683.099823,y:15828272.168585,z:21645159.519815,vx:-2527.356934,vy:-780.733582,vz:826.555542,tb:0.000055557366
$newmeas,x:2126865.170407,y:15828328.413020,z:21645099.973546,vx:-2527.346436,vy:-780.742859,vz:826.587463,tb:0.000055557365
$pseudo_cd_ph,prn:19,pseudo_cd_ph:375351926.668918788433
measnum = 4,full_prange = 21888578.829172
$oldmeas,msRange:73.018554,x:10293201.737415,y:16544356.076829,z:17709793.679768,vx:-2207.156250,vy:-687.329407,vz:1900.524658,tb:-0.000318376465
$newmeas,x:10293362.886563,y:16544406.260555,z:17709654.916798,vx:-2207.136475,vy:-687.332947,vz:1900.552856,tb:-0.000318376465
$pseudo_cd_ph,prn:22,pseudo_cd_ph:375351921.285261869431
measnum = 5,full_prange = 23387650.348062
$oldmeas,msRange:78.019057,x:-19989209.949857,y:3125477.158767,z:17406361.764928,vx:1257.672729,vy:-1793.330078,vz:1798.257080,tb:-0.000701669036
$newmeas,x:-19989308.064277,y:3125617.060764,z:17406221.476737,vx:1257.668701,vy:-1793.311890,vz:1798.285645,tb:-0.000701669035
$pseudo_cd_ph,prn:28,pseudo_cd_ph:375351931.976196646690
measnum = 6,full_prange = 20623148.802367
$oldmeas,msRange:68.797589,x:-9310870.867614,y:20546703.247750,z:14702085.555371,vx:-1436.052734,vy:1017.709473,vz:-2423.793945,tb:0.000767881174
$newmeas,x:-9310772.078822,y:20546633.237833,z:14702252.290887,vx:-1436.072632,vy:1017.716370,vz:-2423.773193,tb:0.000767881174
$pseudo_cd_ph,prn:30,pseudo_cd_ph:375351922.427708983421
measnum = 7,full_prange = 23223865.543819
$oldmeas,msRange:77.472815,x:-2188219.190269,y:24323006.138924,z:-10183143.271491,vx:-593.499939,vy:-1206.198975,vz:-2766.449463,tb:-0.000105549222
$newmeas,x:-2188173.214341,y:24323099.577991,z:-10182928.963738,vx:-593.489075,vy:-1206.175171,vz:-2766.466553,tb:-0.000105549221
Refix G01: 2, 375351.922863, 2200
Refix G03: 2, 375351.925885, -1212
Refix G06: 2, 375351.926534, -3584
Refix G07: 2, 375351.915542, 2302
Refix G11: 2, 375351.920210, 1889
Refix G17: 2, 375351.928015, -1699
Refix G19: 2, 375351.926669, -2642
Refix G22: 2, 375351.921285, 297
Refix G28: 2, 375351.931976, -1499
Refix G30: 2, 375351.922428, 2094
$GNGGA,081534.000,2944.9075,N,10633.0914,E,1,18,0.7,326.6,M,,,,0000*1E
$GNRMC,081534.000,A,2944.9075,N,10633.0914,E,0.34,0.00,160519,,*10
$GPGSA,A,3,01,03,06,17,19,22,28,30,,,,,0.8,0.7,0.4*3A
$BDGSA,A,3,01,02,03,04,07,08,10,13,27,32,,,0.8,0.7,0.4*24
$GLGSA,A,3,,,,,,,,,,,,,0.8,0.7,0.4*25
$GPGSV,3,1,10,01,24,040,40,03,35,081,43,06,38,231,43,17,51,330,45*7F
$GPGSV,3,2,10,19,38,301,43,22,24,059,42,28,80,061,44,30,23,193,42*79
$GPGSV,3,3,10,07,01,170,00,11,15,054,00*7D
$BDGSV,3,1,11,01,40,125,41,02,47,219,40,03,55,171,43,04,23,109,40*69
$BDGSV,3,2,11,07,56,147,43,08,74,340,43,10,82,196,43,13,62,255,44*65
$BDGSV,3,3,11,27,35,047,44,32,24,126,41,30,57,326,00*59
$B3CN0,16,36,0,0,0,0,27,0,0,0,0,0,0,0*7B
$ini_pos,lastpos_good = 1,ini_pos.x:-1578913.030226,ini_pos.y:5312772.517301,ini_pos.z:3146357.491407
$rtc_local_time,localRTC.weeks:2053,localRTC.seconds:375352.515847,localGtime.weeks:2053,localGtime.seconds:375353.000000
$pseudo_cd_ph,prn:1,pseudo_cd_ph:375352922.861293077469
measnum = 0,full_prange = 23120263.441714
$oldmeas,msRange:0.000000,x:-14775311.882689,y:1890048.339251,z:21822163.435413,vx:-708.312439,vy:-2717.784180,vz:-210.774185,tb:-0.000017512296
$newmeas,x:-14775257.257460,y:1890257.937421,z:21822179.689105,vx:-708.300415,vy:-2717.789795,vz:-210.737823,tb:-0.000017512295
$pseudo_cd_ph,prn:3,pseudo_cd_ph:375352925.885316133499
measnum = 1,full_prange = 22275254.506472
$oldmeas,msRange:74.309172,x:-21551541.521386,y:9735461.032912,z:11967605.349204,vx:913.064575,vy:-1248.887207,vz:2660.043945,tb:0.000187864351
$newmeas,x:-21551609.363685,y:9735553.827243,z:11967407.701252,vx:913.052368,vy:-1248.865723,vz:2660.062988,tb:0.000187864351
$pseudo_cd_ph,prn:6,pseudo_cd_ph:375352926.535842597485
measnum = 2,full_prange = 22085138.622884
$oldmeas,msRange:73.674894,x:6482945.543855,y:25728289.526135,z:685521.771223,vx:-251.753647,vy:-16.392578,vz:3208.282227,tb:0.000204232488
$newmeas,x:6482964.089779,y:25728290.732728,z:685285.423146,vx:-251.745834,vy:-16.364950,vz:3208.283447,tb:0.000204232488
$pseudo_cd_ph,prn:17,pseudo_cd_ph:375352928.016273498535
measnum = 3,full_prange = 21596744.927094
$oldmeas,msRange:72.045881,x:2124155.670011,y:15827491.499369,z:21645985.853700,vx:-2527.502930,vy:-780.604919,vz:826.112244,tb:0.000055557376
$newmeas,x:2124337.748382,y:15827547.733688,z:21645926.340259,vx:-2527.492432,vy:-780.614136,vz:826.144226,tb:0.000055557376
$pseudo_cd_ph,prn:19,pseudo_cd_ph:375352926.670566976070
measnum = 4,full_prange = 21888075.048299
$oldmeas,msRange:73.017601,x:10290994.446054,y:16543668.771808,z:17711694.010945,vx:-2207.426514,vy:-687.280701,vz:1900.137817,tb:-0.000318376463
$newmeas,x:10291155.611221,y:16543718.950823,z:17711555.279406,vx:-2207.406738,vy:-687.284241,vz:1900.166138,tb:-0.000318376463
$pseudo_cd_ph,prn:22,pseudo_cd_ph:375352921.285048961639
measnum = 5,full_prange = 23387704.507676
$oldmeas,msRange:78.019971,x:-19987952.251574,y:3123683.712642,z:17408159.839483,vx:1257.723877,vy:-1793.562378,vz:1797.892090,tb:-0.000701669040
$newmeas,x:-19988050.370215,y:3123823.633087,z:17408019.579442,vx:1257.719971,vy:-1793.544189,vz:1797.920532,tb:-0.000701669040
$pseudo_cd_ph,prn:28,pseudo_cd_ph:375352931.977119803429
measnum = 6,full_prange = 20622862.381190
$oldmeas,msRange:68.797358,x:-9312306.775818,y:20547720.906759,z:14699661.611385,vx:-1435.763794,vy:1017.608643,vz:-2424.094238,tb:0.000767881179
$newmeas,x:-9312208.008280,y:20547650.904752,z:14699828.365238,vx:-1435.783569,vy:1017.615540,vz:-2424.073486,tb:0.000767881178
$pseudo_cd_ph,prn:30,pseudo_cd_ph:375352922.426353633404
measnum = 7,full_prange = 23224262.197864
$oldmeas,msRange:77.474865,x:-2188812.760422,y:24321799.786183,z:-10185909.611287,vx:-593.640442,vy:-1206.506470,vz:-2766.230225,tb:-0.000105549230
$newmeas,x:-2188766.772827,y:24321893.250666,z:-10185695.316855,vx:-593.629517,vy:-1206.482666,vz:-2766.247314,tb:-0.000105549230
Refix G01: 2, 375352.922861, 2195
Refix G03: 2, 375352.925885, -1217
Refix G06: 2, 375352.926536, -3589
Refix G07: 2, 375352.915541, 2297
Refix G11: 2, 375352.920208, 1884
Refix G17: 2, 375352.928016, -1704
Refix G19: 2, 375352.926671, -2647
Refix G22: 2, 375352.921285, 292
Refix G28: 2, 375352.931977, -1505
Refix G30: 2, 375352.922426, 2088
$GNGGA,081535.000,2944.9075,N,10633.0914,E,1,18,0.7,326.6,M,,,,0000*1F
$GNRMC,081535.000,A,2944.9075,N,10633.0914,E,0.10,0.00,160519,,*17
$GPGSA,A,3,01,03,06,17,19,22,28,30,,,,,0.8,0.7,0.4*3A
$BDGSA,A,3,01,02,03,04,07,08,10,13,27,32,,,0.8,0.7,0.4*24
$GLGSA,A,3,,,,,,,,,,,,,0.8,0.7,0.4*25
$GPGSV,3,1,10,01,24,040,40,03,35,081,43,06,38,231,44,17,51,330,45*78
$GPGSV,3,2,10,19,38,301,42,22,24,059,42,28,80,061,43,30,23,193,42*7F
$GPGSV,3,3,10,07,01,170,00,11,15,054,00*7D
$BDGSV,3,1,11,01,40,125,41,02,47,219,41,03,55,171,42,04,23,109,40*69
$BDGSV,3,2,11,07,56,147,43,08,74,340,43,10,82,196,43,13,62,255,43*62
$BDGSV,3,3,11,27,35,047,44,32,24,126,41,30,57,326,00*59
$B3CN0,0,0,0,0,0,0,27,0,0,0,0,0,0,0*79
$ini_pos,lastpos_good = 1,ini_pos.x:-1578912.949450,ini_pos.y:5312772.504599,ini_pos.z:3146357.493059
$rtc_local_time,localRTC.weeks:2053,localRTC.seconds:375353.515847,localGtime.weeks:2053,localGtime.seconds:375354.000000
$pseudo_cd_ph,prn:1,pseudo_cd_ph:375353922.859873056412
measnum = 0,full_prange = 23120679.482959
$oldmeas,msRange:0.000000,x:-14776020.272966,y:1887330.591437,z:21821952.425441,vx:-708.468140,vy:-2717.711670,vz:-211.245773,tb:-0.000017512307
$newmeas,x:-14775965.634746,y:1887540.187784,z:21821968.715795,vx:-708.456116,vy:-2717.717285,vz:-211.209396,tb:-0.000017512306
$pseudo_cd_ph,prn:3,pseudo_cd_ph:375353925.886061906815
measnum = 1,full_prange = 22275021.261728
$oldmeas,msRange:74.309128,x:-21550628.374526,y:9734212.000832,z:11970265.264809,vx:913.229187,vy:-1249.177002,vz:2659.787598,tb:0.000187864349
$newmeas,x:-21550696.228346,y:9734304.815726,z:11970067.637969,vx:913.216980,vy:-1249.155518,vz:2659.806641,tb:0.000187864349
$pseudo_cd_ph,prn:6,pseudo_cd_ph:375353926.538094639778
measnum = 2,full_prange = 22084453.807380
$oldmeas,msRange:73.673345,x:6482693.737134,y:25728272.946048,z:688730.046089,vx:-251.859818,vy:-16.767597,vz:3208.267578,tb:0.000204232477
$newmeas,x:6482712.290303,y:25728274.180229,z:688493.706419,vx:-251.851990,vy:-16.739971,vz:3208.268799,tb:0.000204232478
$pseudo_cd_ph,prn:17,pseudo_cd_ph:375353928.017327487469
measnum = 3,full_prange = 21596419.285153
$oldmeas,msRange:72.045528,x:2121628.094161,y:15826710.958863,z:21646811.744298,vx:-2527.648926,vy:-780.476135,vz:825.668945,tb:0.000055557387
