SD initialized success
Create debug.log Failed! 3
bbram_blkflag = 1
rtcflag = 0
BBRAM Block OK: 01 EPHflag: 28a50427 12a41adf, rtc 00
Hot-start nowtime:day = 28,minute = 49,seconds = 55.00
GPS 0 Init Dop:  2532, 2
GPS 1 Init Dop: -3521, 2
GPS 2 Init Dop:  -118, 2
GPS 3 Init Dop: 10000,80
GPS 4 Init Dop: 10000,80
GPS 5 Init Dop: -2732, 2
GPS 6 Init Dop: 10000,80
GPS 7 Init Dop: 10000,80
GPS 8 Init Dop: 10000,80
GPS 9 Init Dop: 10000,80
GPS10 Init Dop:  2115, 2
GPS11 Init Dop: 10000,80
GPS12 Init Dop: 10000,80
GPS13 Init Dop: 10000,80
GPS14 Init Dop: 10000,80
GPS15 Init Dop: 10000,80
GPS16 Init Dop: -1376, 2
GPS17 Init Dop: 10000,80
GPS18 Init Dop: -2201, 2
GPS19 Init Dop: 10000,80
GPS20 Init Dop: 10000,80
GPS21 Init Dop:  1202, 2
GPS22 Init Dop: 10000,80
GPS23 Init Dop: -2142, 2
GPS24 Init Dop: 10000,80
GPS25 Init Dop: 10000,80
GPS26 Init Dop: 10000,80
GPS27 Init Dop:  -597, 2
GPS28 Init Dop: 10000,80
GPS29 Init Dop:  2361, 2
GPS30 Init Dop: 10000,80
GPS31 Init Dop: 10000,80
BDS 0 Init Dop:  -859, 2
BDS 1 Init Dop:  -924, 2
BDS 2 Init Dop:  -879, 2
BDS 3 Init Dop:  -878, 2
BDS 4 Init Dop:  -905, 2
BDS 5 Init Dop: 10000,80
BDS 6 Init Dop:   -49, 2
BDS 7 Init Dop:  -421, 2
BDS 8 Init Dop: 10000,80
BDS 9 Init Dop:  -561, 2
BDS10 Init Dop: 10000,80
BDS11 Init Dop: -2031, 2
BDS12 Init Dop:  -814, 2
BDS13 Init Dop: 10000,80
BDS14 Init Dop: 10000,80
BDS15 Init Dop: 10000,80
BDS16 Init Dop: 10000,80
BDS17 Init Dop: 10000,80
BDS18 Init Dop: -2149, 2
BDS19 Init Dop: 10000,80
BDS20 Init Dop: 10000,80
BDS21 Init Dop: -3711, 2
BDS22 Init Dop: 10000,80
BDS23 Init Dop: -2332, 2
BDS24 Init Dop: 10000,80
BDS25 Init Dop:   383, 2
BDS26 Init Dop: 10000,80
BDS27 Init Dop: 10000,80
BDS28 Init Dop:   989, 2
BDS29 Init Dop: 10000,80
BDS30 Init Dop: 10000,80
BDS31 Init Dop: 10000,80
Good luck!
$ini_pos,lastpos_good = 1,ini_pos.x:-1578922.000000,ini_pos.y:5312780.000000,ini_pos.z:3146372.000000
$rtc_local_time,localRTC.weeks:2055,localRTC.seconds:201014.026007,localGtime.weeks:0,localGtime.seconds:19.026011
source<tow,snapshot
$GNGGA,000000.000,,,,,0,00,,,M,,,,0000*2B
$GNRMC,000000.000,A,,,,,,,060180,,*29
$GPGSA,A,1,,,,,,,,,,,,,,,*1E
$BDGSA,A,1,,,,,,,,,,,,,,,*0F
$GLGSA,A,1,,,,,,,,,,,,,,,*02
$B3CN0,0,0,0,0,0,0,0,0,0,0,0,0,0,0*4C
$ini_pos,lastpos_good = 1,ini_pos.x:-1578922.000000,ini_pos.y:5312780.000000,ini_pos.z:3146372.000000
$rtc_local_time,localRTC.weeks:2055,localRTC.seconds:201015.026007,localGtime.weeks:2055,localGtime.seconds:201015.026007
source<tow,snapshot
$GNGGA,000000.000,,,,,0,00,,,M,,,,0000*2B
$GNRMC,000000.000,A,,,,,,,060180,,*29
$GPGSA,A,1,,,,,,,,,,,,,,,*1E
$BDGSA,A,1,,,,,,,,,,,,,,,*0F
$GLGSA,A,1,,,,,,,,,,,,,,,*02
$B3CN0,0,0,0,0,0,0,0,0,0,0,0,0,0,0*4C
$ini_pos,lastpos_good = 1,ini_pos.x:-1578922.000000,ini_pos.y:5312780.000000,ini_pos.z:3146372.000000
$rtc_local_time,localRTC.weeks:2055,localRTC.seconds:201016.026007,localGtime.weeks:2055,localGtime.seconds:201016.026007
$pseudo_cd_ph,prn:3,pseudo_cd_ph:3.567617899279
measnum = 0,full_prange = 22372551.631106
$oldmeas,msRange:0.000000,x:-20159612.839061,y:7892103.755161,z:15290482.272142,vx:1074.841064,vy:-1641.593872,vz:2267.032715,tb:0.000187157170
$newmeas,x:-20159693.050774,y:7892226.261267,z:15290313.089829,vx:1074.834717,vy:-1641.572632,vz:2267.057129,tb:0.000187157171
$pseudo_cd_ph,prn:6,pseudo_cd_ph:6.462074906246
measnum = 1,full_prange = 21506777.706715
$oldmeas,msRange:71.652585,x:5884120.532385,y:25339188.188910,z:5308427.934486,vx:-454.866028,vy:-541.010010,vz:3115.325195,tb:0.000193703226
$newmeas,x:5884153.163523,y:25339226.999493,z:5308204.444224,vx:-454.853607,vy:-540.985657,vz:3115.333252,tb:0.000193703226
$pseudo_cd_ph,prn:17,pseudo_cd_ph:6.371654447106
measnum = 2,full_prange = 21494425.980887
$oldmeas,msRange:71.611344,x:-1377419.189209,y:14903634.600987,z:22352438.153258,vx:-2672.534912,vy:-570.272339,vz:211.094147,tb:0.000062081848
$newmeas,x:-1377227.574795,y:14903675.488618,z:22352423.017120,vx:-2672.530518,vy:-570.284119,vz:211.126953,tb:0.000062081848
$pseudo_cd_ph,prn:19,pseudo_cd_ph:5.871591167133
measnum = 3,full_prange = 21531709.708873
$oldmeas,msRange:71.735681,x:6872350.297444,y:15647725.537024,z:20006513.969082,vx:-2542.384277,vy:-574.236755,vz:1310.015015,tb:-0.000313616292
$newmeas,x:6872532.896190,y:15647766.780173,z:20006419.879989,vx:-2542.370117,vy:-574.244751,vz:1310.046387,tb:-0.000313616292
$pseudo_cd_ph,prn:22,pseudo_cd_ph:17.758364180549
measnum = 4,full_prange = 23845739.674299
$oldmeas,msRange:79.454527,x:-18269235.141995,y:619266.328178,z:19480128.507885,vx:1267.978394,vy:-2088.980469,vz:1278.819458,tb:-0.000708070185
$newmeas,x:-18269335.998104,y:619432.486789,z:19480026.788241,vx:1267.979980,vy:-2088.964844,vz:1278.851807,tb:-0.000708070185
$pseudo_cd_ph,prn:24,pseudo_cd_ph:14.333846590969
measnum = 5,full_prange = 25064660.429762
$oldmeas,msRange:83.520361,x:17559425.125046,y:4829122.610433,z:19284176.354265,vx:875.343689,vy:2323.901855,vz:-1335.253052,tb:-0.000066705768
$newmeas,x:17559351.940643,y:4828928.315934,z:19284287.988937,vx:875.338867,vy:2323.918945,vz:-1335.218628,tb:-0.000066705768
$pseudo_cd_ph,prn:28,pseudo_cd_ph:9.925865680475
measnum = 6,full_prange = 20640469.403535
$oldmeas,msRange:68.762826,x:-10993236.090350,y:21852519.395799,z:11069043.598032,vx:-1031.329102,vy:821.816772,vz:-2791.817627,tb:0.000767800547
$newmeas,x:-10993165.083492,y:21852462.813939,z:11069235.811884,vx:-1031.348877,vy:821.829407,vz:-2791.802002,tb:0.000767800547
$pseudo_cd_ph,prn:30,pseudo_cd_ph:17.324480588135
measnum = 7,full_prange = 24154226.283432
$oldmeas,msRange:80.483635,x:-3305375.788779,y:22241421.049974,z:-13959747.187579,vx:-826.417114,vy:-1610.624023,vz:-2385.489990,tb:-0.000112953196
$newmeas,x:-3305309.205087,y:22241550.816898,z:-13959554.988090,vx:-826.402466,vy:-1610.604736,vz:-2385.514160,tb:-0.000112953195
source<tow,snapshot
nits = 2
$GNGGA,074958.085,2944.9055,N,10633.0919,E,1,21,0.0,319.9,M,,,,0000*1E
$GNRMC,074958.085,A,2944.9055,N,10633.0919,E,0.00,0.00,280519,,*14
$GPGSA,A,3,03,06,17,19,22,24,28,30,,,,,0.0,0.0,0.0*36
$BDGSA,A,3,01,02,03,04,07,08,10,12,13,19,24,26,0.0,0.0,0.0*22
$GLGSA,A,3,,,,,,,,,,,,,0.0,0.0,0.0*2E
$GPGSV,2,1,08,03,00,000,26,06,00,000,26,17,00,000,26,19,00,000,26*79
$GPGSV,2,2,08,22,00,000,25,24,00,000,25,28,00,000,25,30,00,000,23*78
$BDGSV,3,1,12,01,00,000,41,02,00,000,40,03,00,000,41,04,00,000,40*6D
$BDGSV,3,2,12,07,00,000,25,08,00,000,24,10,00,000,24,12,00,000,23*61
$BDGSV,3,3,12,13,00,000,24,19,00,000,23,24,00,000,23,26,00,000,23*64
$B3CN0,0,0,0,0,0,0,0,0,0,0,0,0,0,0*4C
$ini_pos,lastpos_good = 1,ini_pos.x:-1578912.655338,ini_pos.y:5312768.398393,ini_pos.z:3146350.941301
$rtc_local_time,localRTC.weeks:2055,localRTC.seconds:201017.026007,localGtime.weeks:2055,localGtime.seconds:201017.026007
$pseudo_cd_ph,prn:3,pseudo_cd_ph:3.567808857878
measnum = 0,full_prange = 22372484.711162
$oldmeas,msRange:0.000000,x:-20158537.955553,y:7890462.019487,z:15292749.141172,vx:1074.926025,vy:-1641.877563,vz:2266.705322,tb:0.000187157169
$newmeas,x:-20158618.173363,y:7890584.546400,z:15292579.983797,vx:1074.919678,vy:-1641.856445,vz:2266.729736,tb:0.000187157169
$pseudo_cd_ph,prn:6,pseudo_cd_ph:6.463914239162
measnum = 1,full_prange = 21506216.616288
$oldmeas,msRange:71.651454,x:5883665.579893,y:25338647.009616,z:5311543.203082,vx:-455.039001,vy:-541.348633,vz:3115.212158,tb:0.000193703215
$newmeas,x:5883698.222588,y:25338685.843480,z:5311319.726766,vx:-455.026581,vy:-541.324341,vz:3115.220215,tb:0.000193703216
$pseudo_cd_ph,prn:17,pseudo_cd_ph:6.372639116304
measnum = 2,full_prange = 21494121.120660
$oldmeas,msRange:71.611120,x:-1380091.755190,y:14903064.410602,z:22352649.018555,vx:-2672.597168,vy:-570.108459,vz:210.636459,tb:0.000062081859
$newmeas,x:-1379900.139029,y:14903105.285900,z:22352633.915446,vx:-2672.592773,vy:-570.120178,vz:210.669281,tb:0.000062081858
$pseudo_cd_ph,prn:19,pseudo_cd_ph:5.873108857305
measnum = 3,full_prange = 21531245.052190
$oldmeas,msRange:71.734915,x:6869807.814513,y:15647151.356154,z:20007823.765112,vx:-2542.581787,vy:-574.125061,vz:1309.577148,tb:-0.000313616291
$newmeas,x:6869990.423504,y:15647192.590391,z:20007729.709491,vx:-2542.567627,vy:-574.133057,vz:1309.608643,tb:-0.000313616291
$pseudo_cd_ph,prn:22,pseudo_cd_ph:17.757692391106
measnum = 4,full_prange = 23845931.398746
$oldmeas,msRange:79.455924,x:-18267967.173618,y:617177.250560,z:19481407.123633,vx:1267.958496,vy:-2089.175049,vz:1278.412109,tb:-0.000708070189
$newmeas,x:-18268068.028955,y:617343.425983,z:19481305.435571,vx:1267.960083,vy:-2089.159424,vz:1278.444458,tb:-0.000708070189
$pseudo_cd_ph,prn:24,pseudo_cd_ph:14.335318974619
measnum = 5,full_prange = 25064209.352773
$oldmeas,msRange:83.519593,x:17560300.497326,y:4831446.409637,z:19282840.895292,vx:875.400940,vy:2323.696777,vz:-1335.664917,tb:-0.000066705769
$newmeas,x:17560227.309453,y:4831252.135785,z:19282952.562394,vx:875.396118,vy:2323.713867,vz:-1335.630493,tb:-0.000066705769
$pseudo_cd_ph,prn:28,pseudo_cd_ph:9.926357526583
measnum = 6,full_prange = 20640312.282226
$oldmeas,msRange:68.763090,x:-10994267.275488,y:21853341.120862,z:11066251.666556,vx:-1031.041260,vy:821.633362,vz:-2792.045654,tb:0.000767800550
$newmeas,x:-10994196.288984,y:21853284.552062,z:11066443.894640,vx:-1031.061035,vy:821.645996,vz:-2792.029785,tb:0.000767800550
$pseudo_cd_ph,prn:30,pseudo_cd_ph:17.323057575543
measnum = 7,full_prange = 24154643.227781
$oldmeas,msRange:80.485684,x:-3306202.296550,y:22239810.306275,z:-13962132.527405,vx:-826.598511,vy:-1610.863403,vz:-2385.189697,tb:-0.000112953204
$newmeas,x:-3306135.697091,y:22239940.094725,z:-13961940.348785,vx:-826.583862,vy:-1610.844116,vz:-2385.213867,tb:-0.000112953204
source<tow,snapshot
nits = 2
$GNGGA,074959.091,2944.9063,N,10633.0924,E,1,21,0.0,323.7,M,,,,0000*16
$GNRMC,074959.091,A,2944.9063,N,10633.0924,E,0.00,0.00,280519,,*1B
$GPGSA,A,3,03,06,17,19,22,24,28,30,,,,,0.0,0.0,0.0*36
$BDGSA,A,3,01,02,03,04,07,08,10,12,13,19,24,26,0.0,0.0,0.0*22
$GLGSA,A,3,,,,,,,,,,,,,0.0,0.0,0.0*2E
$GPGSV,2,1,08,03,00,000,43,06,00,000,44,17,00,000,45,19,00,000,44*7F
$GPGSV,2,2,08,22,00,000,40,24,00,000,39,28,00,000,44,30,00,000,35*76
$BDGSV,3,1,12,01,00,000,39,02,00,000,40,03,00,000,41,04,00,000,39*6C
$BDGSV,3,2,12,07,00,000,42,08,00,000,43,10,00,000,42,12,00,000,39*6A
$BDGSV,3,3,12,13,00,000,44,19,00,000,43,24,00,000,44,26,00,000,44*64
$B3CN0,0,0,0,0,0,0,0,0,0,0,0,0,0,0*4C
$ini_pos,lastpos_good = 1,ini_pos.x:-1578914.139676,ini_pos.y:5312770.659607,ini_pos.z:3146354.189520
$rtc_local_time,localRTC.weeks:2055,localRTC.seconds:201018.026007,localGtime.weeks:2055,localGtime.seconds:201018.026007
$pseudo_cd_ph,prn:3,pseudo_cd_ph:3.568007535366
measnum = 0,full_prange = 22372415.477179
$oldmeas,msRange:0.000000,x:-20157462.987170,y:7888820.000093,z:15295015.682774,vx:1075.010864,vy:-1642.161255,vz:2266.377930,tb:0.000187157167
$newmeas,x:-20157543.211064,y:7888942.547800,z:15294846.550359,vx:1075.004517,vy:-1642.140137,vz:2266.402344,tb:0.000187157168
$pseudo_cd_ph,prn:6,pseudo_cd_ph:6.465768338648
measnum = 1,full_prange = 21505651.094344
$oldmeas,msRange:71.650284,x:5883210.454409,y:25338105.491685,z:5314658.358517,vx:-455.212006,vy:-541.687256,vz:3115.098877,tb:0.000193703205
$newmeas,x:5883243.108657,y:25338144.348820,z:5314434.896197,vx:-455.199585,vy:-541.662964,vz:3115.106934,tb:0.000193703206
$pseudo_cd_ph,prn:17,pseudo_cd_ph:6.373632488829
measnum = 2,full_prange = 21493813.642620
$oldmeas,msRange:71.610803,x:-1382764.383402,y:14902494.384153,z:22352859.426175,vx:-2672.659424,vy:-569.944519,vz:210.178787,tb:0.000062081869
$newmeas,x:-1382572.765522,y:14902535.247112,z:22352844.356095,vx:-2672.655029,vy:-569.956238,vz:210.211594,tb:0.000062081869
$pseudo_cd_ph,prn:19,pseudo_cd_ph:5.874633841268
measnum = 3,full_prange = 21530778.197618
$oldmeas,msRange:71.734078,x:6867265.134093,y:15646577.286998,z:20009133.123355,vx:-2542.779297,vy:-574.013306,vz:1309.139404,tb:-0.000313616289
$newmeas,x:6867447.753307,y:15646618.512317,z:20009039.101216,vx:-2542.765137,vy:-574.021301,vz:1309.170776,tb:-0.000313616289
$pseudo_cd_ph,prn:22,pseudo_cd_ph:17.757038291715
measnum = 4,full_prange = 23846117.816092
$oldmeas,msRange:79.457250,x:-18266699.225168,y:615087.978401,z:19482685.332029,vx:1267.938477,vy:-2089.369385,vz:1278.004761,tb:-0.000708070193
$newmeas,x:-18266800.079707,y:615254.170595,z:19482583.675575,vx:1267.940063,vy:-2089.354004,vz:1278.037109,tb:-0.000708070193
$pseudo_cd_ph,prn:24,pseudo_cd_ph:14.336799189026
measnum = 5,full_prange = 25063755.926007
$oldmeas,msRange:83.518802,x:17561175.926840,y:4833770.003677,z:19281505.024414,vx:875.458130,vy:2323.491455,vz:-1336.076904,tb:-0.000066705770
$newmeas,x:17561102.735508,y:4833575.750494,z:19281616.723931,vx:875.453369,vy:2323.508789,vz:-1336.042480,tb:-0.000066705770
$pseudo_cd_ph,prn:28,pseudo_cd_ph:9.926859694376
measnum = 6,full_prange = 20640152.060640
$oldmeas,msRange:68.763270,x:-10995298.172852,y:21854162.662466,z:11063459.507147,vx:-1030.753540,vy:821.449890,vz:-2792.273438,tb:0.000767800554
$newmeas,x:-10995227.206711,y:21854106.106738,z:11063651.749430,vx:-1030.773315,vy:821.462524,vz:-2792.257812,tb:0.000767800553
$pseudo_cd_ph,prn:30,pseudo_cd_ph:17.321659047117
measnum = 7,full_prange = 24155052.810092
$oldmeas,msRange:80.487755,x:-3307028.985753,y:22238199.323244,z:-13964517.566993,vx:-826.779968,vy:-1611.102783,vz:-2384.889648,tb:-0.000112953213
$newmeas,x:-3306962.370545,y:22238329.133177,z:-13964325.409308,vx:-826.765320,vy:-1611.083496,vz:-2384.913818,tb:-0.000112953212
source<tow,snapshot
nits = 2
$GNGGA,075000.094,2944.9068,N,10633.0927,E,1,21,0.0,326.5,M,,,,0000*18
$GNRMC,075000.094,A,2944.9068,N,10633.0927,E,0.00,0.00,280519,,*12
$GPGSA,A,3,03,06,17,19,22,24,28,30,,,,,0.0,0.0,0.0*36
$BDGSA,A,3,01,02,03,04,07,08,10,12,13,19,24,26,0.0,0.0,0.0*22
$GLGSA,A,3,,,,,,,,,,,,,0.0,0.0,0.0*2E
$GPGSV,3,1,11,03,34,068,42,06,47,243,44,17,54,346,45,19,43,314,44*79
$GPGSV,3,2,11,22,20,050,40,24,06,312,39,28,76,118,43,30,14,187,34*7A
$GPGSV,3,3,11,01,15,043,00,02,10,236,00,11,07,060,00*4E
$BDGSV,3,1,12,01,40,126,41,02,47,220,41,03,56,171,41,04,23,109,40*63
$BDGSV,3,2,12,07,52,154,42,08,70,343,43,10,78,201,42,12,37,293,39*6E
$BDGSV,3,3,12,13,62,266,44,19,30,099,43,24,27,305,43,26,48,244,44*6B
$B3CN0,0,0,0,0,0,0,0,0,0,0,0,0,0,0*4C
$ini_pos,lastpos_good = 1,ini_pos.x:-1578915.139762,ini_pos.y:5312772.423250,ini_pos.z:3146356.331708
$rtc_local_time,localRTC.weeks:2055,localRTC.seconds:201019.026007,localGtime.weeks:2055,localGtime.seconds:201019.026007
$pseudo_cd_ph,prn:3,pseudo_cd_ph:3.568201715762
measnum = 0,full_prange = 22372347.592308
$oldmeas,msRange:0.000000,x:-20156387.933972,y:7887177.696994,z:15297281.896899,vx:1075.095581,vy:-1642.444946,vz:2266.050537,tb:0.000187157166
$newmeas,x:-20156468.163949,y:7887300.265500,z:15297112.789438,vx:1075.089355,vy:-1642.423828,vz:2266.074951,tb:0.000187157166
$pseudo_cd_ph,prn:6,pseudo_cd_ph:6.467623310704
measnum = 1,full_prange = 21505085.313298
$oldmeas,msRange:71.649116,x:5882755.155892,y:25337563.635153,z:5317773.400723,vx:-455.385071,vy:-542.025818,vz:3114.985596,tb:0.000193703194
$newmeas,x:5882787.821694,y:25337602.515553,z:5317549.952407,vx:-455.372650,vy:-542.001526,vz:3114.993896,tb:0.000193703195
$pseudo_cd_ph,prn:17,pseudo_cd_ph:6.374628695342
measnum = 2,full_prange = 21493505.324737
$oldmeas,msRange:71.610491,x:-1385437.073782,y:14901924.521658,z:22353069.376114,vx:-2672.721436,vy:-569.780518,vz:209.721100,tb:0.000062081880
$newmeas,x:-1385245.454196,y:14901965.372276,z:22353054.339064,vx:-2672.717041,vy:-569.792297,vz:209.753922,tb:0.000062081879
$pseudo_cd_ph,prn:19,pseudo_cd_ph:5.876156819065
measnum = 3,full_prange = 21530311.959526
$oldmeas,msRange:71.733244,x:6864722.256244,y:15646003.329594,z:20010442.043783,vx:-2542.976562,vy:-573.901550,vz:1308.701538,tb:-0.000313616288
$newmeas,x:6864904.885680,y:15646044.545993,z:20010348.055124,vx:-2542.962402,vy:-573.909546,vz:1308.733032,tb:-0.000313616288
$pseudo_cd_ph,prn:22,pseudo_cd_ph:17.756389711143
measnum = 4,full_prange = 23846302.589489
$oldmeas,msRange:79.458579,x:-18265431.296693,y:612998.511735,z:19483963.133048,vx:1267.918457,vy:-2089.563965,vz:1277.597412,tb:-0.000708070197
$newmeas,x:-18265532.150422,y:613164.720687,z:19483861.508211,vx:1267.920044,vy:-2089.548584,vz:1277.629761,tb:-0.000708070197
$pseudo_cd_ph,prn:24,pseudo_cd_ph:14.338281871986
measnum = 5,full_prange = 25063301.757678
$oldmeas,msRange:83.518012,x:17562051.413546,y:4836093.392507,z:19280168.741660,vx:875.515320,vy:2323.286377,vz:-1336.488770,tb:-0.000066705771
$newmeas,x:17561978.218761,y:4835899.160002,z:19280280.473586,vx:875.510559,vy:2323.303467,vz:-1336.454346,tb:-0.000066705771
$pseudo_cd_ph,prn:28,pseudo_cd_ph:9.927361377407
measnum = 6,full_prange = 20639991.999876
$oldmeas,msRange:68.763453,x:-10996328.782452,y:21854984.020552,z:11060667.119861,vx:-1030.465698,vy:821.266357,vz:-2792.501221,tb:0.000767800557
$newmeas,x:-10996257.836673,y:21854927.477899,z:11060859.376341,vx:-1030.485596,vy:821.278992,vz:-2792.485596,tb:0.000767800557
$pseudo_cd_ph,prn:30,pseudo_cd_ph:17.320265090361
measnum = 7,full_prange = 24155461.043292
$oldmeas,msRange:80.489825,x:-3307855.856410,y:22236588.100935,z:-13966902.306293,vx:-826.961426,vy:-1611.342041,vz:-2384.589111,tb:-0.000112953221
$newmeas,x:-3307789.225455,y:22236717.932339,z:-13966710.169558,vx:-826.946777,vy:-1611.322754,vz:-2384.613525,tb:-0.000112953220
source<tow,snapshot
nits = 2
$GNGGA,075001.097,2944.9073,N,10633.0928,E,1,21,0.0,328.3,M,,,,0000*17
$GNRMC,075001.097,A,2944.9073,N,10633.0928,E,0.00,0.00,280519,,*15
$GPGSA,A,3,03,06,17,19,22,24,28,30,,,,,0.0,0.0,0.0*36
$BDGSA,A,3,01,02,03,04,07,08,10,12,13,19,24,26,0.0,0.0,0.0*22
$GLGSA,A,3,,,,,,,,,,,,,0.0,0.0,0.0*2E
$GPGSV,3,1,11,03,34,068,42,06,47,243,43,17,54,346,45,19,43,314,44*7E
$GPGSV,3,2,11,22,20,050,41,24,06,312,39,28,76,118,43,30,14,187,35*7A
$GPGSV,3,3,11,01,15,043,00,02,10,236,00,11,07,060,00*4E
$BDGSV,3,1,12,01,40,126,40,02,47,220,41,03,56,171,42,04,23,109,40*61
$BDGSV,3,2,12,07,52,154,42,08,70,343,42,10,78,201,42,12,37,293,39*6F
$BDGSV,3,3,12,13,62,266,43,19,30,099,43,24,27,305,43,26,48,244,43*6B
$B3CN0,19,0,0,0,0,0,0,0,0,0,0,0,0,0*74
tow update,201020229.927857
$ini_pos,lastpos_good = 1,ini_pos.x:-1578915.710724,ini_pos.y:5312773.466977,ini_pos.z:3146358.001054
$rtc_local_time,localRTC.weeks:2055,localRTC.seconds:201020.026007,localGtime.weeks:2055,localGtime.seconds:201020.229928
$pseudo_cd_ph,prn:3,pseudo_cd_ph:201020023.568394929171
measnum = 0,full_prange = 22348514.228442
$oldmeas,msRange:0.000000,x:-20155093.542698,y:7885200.117880,z:15300009.804547,vx:1075.197632,vy:-1642.786499,vz:2265.656006,tb:0.000187157164
$newmeas,x:-20155173.694810,y:7885322.581274,z:15299840.906634,vx:1075.191284,vy:-1642.765381,vz:2265.680420,tb:0.000187157164
$pseudo_cd_ph,prn:6,pseudo_cd_ph:201020026.469473451376
measnum = 1,full_prange = 21480755.214205
$oldmeas,msRange:71.647713,x:5882206.782950,y:25336910.833673,z:5321523.514309,vx:-455.593475,vy:-542.433411,vz:3114.849121,tb:0.000193703182
$newmeas,x:5882239.426728,y:25336949.699291,z:5321300.328570,vx:-455.581055,vy:-542.409180,vz:3114.857422,tb:0.000193703183
$pseudo_cd_ph,prn:17,pseudo_cd_ph:201020026.375619381666
measnum = 2,full_prange = 21469432.886644
$oldmeas,msRange:71.610119,x:-1388654.863527,y:14901238.669923,z:22353321.531998,vx:-2672.796143,vy:-569.583130,vz:209.170090,tb:0.000062081893
$newmeas,x:-1388463.453202,y:14901279.460651,z:22353306.551251,vx:-2672.791748,vy:-569.594849,vz:209.202866,tb:0.000062081892
$pseudo_cd_ph,prn:19,pseudo_cd_ph:201020025.877673745155
measnum = 3,full_prange = 21506081.752558
$oldmeas,msRange:71.732243,x:6861660.571039,y:15645312.478687,z:20012017.299343,vx:-2543.214111,vy:-573.766907,vz:1308.174438,tb:-0.000313616286
$newmeas,x:6861843.011987,y:15645353.639044,z:20011923.454276,vx:-2543.199951,vy:-573.774963,vz:1308.205811,tb:-0.000313616286
$pseudo_cd_ph,prn:22,pseudo_cd_ph:201020017.755742013454
measnum = 4,full_prange = 23822721.320858
$oldmeas,msRange:79.460182,x:-18263904.837883,y:610482.701500,z:19485500.963693,vx:1267.894409,vy:-2089.798096,vz:1277.106812,tb:-0.000708070202
$newmeas,x:-18264005.589962,y:610648.764694,z:19485399.478330,vx:1267.895996,vy:-2089.782715,vz:1277.139282,tb:-0.000708070202
$pseudo_cd_ph,prn:24,pseudo_cd_ph:201020014.339759409428
measnum = 5,full_prange = 25039083.361216
$oldmeas,msRange:83.517062,x:17563105.505958,y:4838890.296179,z:19278559.416767,vx:875.584106,vy:2323.039062,vz:-1336.984497,tb:-0.000066705772
$newmeas,x:17563032.376155,y:4838696.272001,z:19278671.082139,vx:875.579346,vy:2323.056396,vz:-1336.950195,tb:-0.000066705772
$pseudo_cd_ph,prn:28,pseudo_cd_ph:201020029.927857041359
measnum = 6,full_prange = 20616067.961413
$oldmeas,msRange:68.763679,x:-10997569.172962,y:21855972.627032,z:11057305.004677,vx:-1030.119385,vy:821.045288,vz:-2792.775635,tb:0.000767800561
$newmeas,x:-10997498.333241,y:21855916.165119,z:11057497.057169,vx:-1030.139160,vy:821.057922,vz:-2792.759766,tb:0.000767800561
$pseudo_cd_ph,prn:30,pseudo_cd_ph:17.318879247760
measnum = 7,full_prange = 24132101.063120
$oldmeas,msRange:80.492317,x:-3308851.583898,y:22234647.999622,z:-13969772.944923,vx:-827.179932,vy:-1611.630005,vz:-2384.227539,tb:-0.000112953231
$newmeas,x:-3308784.999791,y:22234777.728652,z:-13969581.023107,vx:-827.165283,vy:-1611.610718,vz:-2384.251709,tb:-0.000112953230
$GNGGA,075002.098,2944.9067,N,10633.0937,E,1,11,1.5,329.8,M,,,,0000*1D
$GNRMC,075002.098,A,2944.9067,N,10633.0937,E,0.18,0.00,280519,,*1B
$GPGSA,A,3,03,06,17,19,22,24,28,,,,,,2.2,1.5,1.7*37
$BDGSA,A,3,01,02,03,04,,,,,,,,,2.2,1.5,1.7*25
$GLGSA,A,3,,,,,,,,,,,,,2.2,1.5,1.7*2C
$GPGSV,3,1,11,03,34,068,42,06,47,243,44,17,54,346,44,19,43,314,44*78
$GPGSV,3,2,11,22,20,050,40,24,06,312,39,28,76,118,43,30,14,187,35*7B
$GPGSV,3,3,11,01,15,043,00,02,10,236,00,11,07,060,00*4E
$BDGSV,3,1,12,01,40,126,40,02,47,220,40,03,56,171,42,04,23,109,39*6E
$BDGSV,3,2,12,07,52,154,41,08,70,343,43,10,78,201,42,12,37,293,40*63
$BDGSV,3,3,12,13,62,266,44,19,30,099,43,24,27,305,43,26,48,244,43*6C
$B3CN0,19,0,0,0,0,0,0,0,0,0,0,0,0,0*74
$ini_pos,lastpos_good = 1,ini_pos.x:-1578917.618235,ini_pos.y:5312774.827472,ini_pos.z:3146357.739005
$rtc_local_time,localRTC.weeks:2055,localRTC.seconds:201021.928083,localGtime.weeks:2055,localGtime.seconds:201022.000000
$pseudo_cd_ph,prn:3,pseudo_cd_ph:201021925.645089775324
measnum = 0,full_prange = 22347139.152716
$oldmeas,msRange:0.000000,x:-20153190.232766,y:7882291.822876,z:15304019.665978,vx:1075.347412,vy:-1643.288574,vz:2265.076172,tb:0.000187157161
$newmeas,x:-20153270.391114,y:7882414.316163,z:15303850.821686,vx:1075.341064,vy:-1643.267456,vz:2265.100586,tb:0.000187157162
$pseudo_cd_ph,prn:6,pseudo_cd_ph:201021928.549319833517
measnum = 1,full_prange = 21478435.327063
$oldmeas,msRange:71.645654,x:5881400.078417,y:25335950.157103,z:5327036.844374,vx:-455.899963,vy:-543.032593,vz:3114.648438,tb:0.000193703164
$newmeas,x:5881432.740629,y:25335989.061450,z:5326813.697125,vx:-455.887573,vy:-543.008362,vz:3114.656494,tb:0.000193703164
$pseudo_cd_ph,prn:17,pseudo_cd_ph:201021928.453833907843
measnum = 2,full_prange = 21467602.228727
$oldmeas,msRange:71.609581,x:-1393386.002729,y:14900230.723673,z:22353691.061114,vx:-2672.906006,vy:-569.292786,vz:208.359924,tb:0.000062081912
$newmeas,x:-1393194.600869,y:14900271.490134,z:22353676.139658,vx:-2672.901611,vy:-569.304565,vz:208.392700,tb:0.000062081911
$pseudo_cd_ph,prn:19,pseudo_cd_ph:201021927.956885635853
measnum = 3,full_prange = 21503952.087470
$oldmeas,msRange:71.730780,x:6857158.589476,y:15644297.045098,z:20014332.176363,vx:-2543.563232,vy:-573.568909,vz:1307.399292,tb:-0.000313616283
$newmeas,x:6857341.037403,y:15644338.187175,z:20014238.396188,vx:-2543.549316,vy:-573.576904,vz:1307.430664,tb:-0.000313616283
$pseudo_cd_ph,prn:22,pseudo_cd_ph:201021919.830840915442
measnum = 4,full_prange = 23821824.695772
$oldmeas,msRange:79.462544,x:-18261660.604929,y:606783.303659,z:19487760.896629,vx:1267.858765,vy:-2090.142090,vz:1276.385620,tb:-0.000708070210
$newmeas,x:-18261761.350385,y:606949.387945,z:19487659.472395,vx:1267.860352,vy:-2090.126709,vz:1276.417969,tb:-0.000708070209
$pseudo_cd_ph,prn:24,pseudo_cd_ph:201021916.418900758028
measnum = 5,full_prange = 25036974.842766
$oldmeas,msRange:83.515675,x:17564655.442341,y:4843001.921296,z:19276192.212634,vx:875.685059,vy:2322.675537,vz:-1337.713379,tb:-0.000066705774
$newmeas,x:17564582.310261,y:4842807.943812,z:19276303.929476,vx:875.680298,vy:2322.692871,vz:-1337.679077,tb:-0.000066705774
$pseudo_cd_ph,prn:28,pseudo_cd_ph:201021932.005129635334
measnum = 6,full_prange = 20614519.683833
$oldmeas,msRange:68.764015,x:-10999392.107689,y:21857425.648641,z:11052361.233860,vx:-1029.609985,vy:820.720154,vz:-2793.178467,tb:0.000767800567
$newmeas,x:-10999321.308310,y:21857369.213327,z:11052553.299644,vx:-1029.629761,vy:820.732788,vz:-2793.162842,tb:0.000767800567
$pseudo_cd_ph,prn:30,pseudo_cd_ph:19.392578080253
measnum = 7,full_prange = 24131624.170213
$oldmeas,msRange:80.495975,x:-3310316.036352,y:22231794.923776,z:-13973992.729042,vx:-827.501221,vy:-1612.053223,vz:-2383.695801,tb:-0.000112953246
$newmeas,x:-3310249.427698,y:22231924.684312,z:-13973800.853826,vx:-827.486633,vy:-1612.033936,vz:-2383.719971,tb:-0.000112953245
$GNGGA,075004.000,2944.9077,N,10633.0927,E,1,20,0.8,330.3,M,,,,0000*17
$GNRMC,075004.000,A,2944.9077,N,10633.0927,E,0.13,0.00,280519,,*17
$GPGSA,A,3,03,06,17,19,22,24,28,,,,,,0.9,0.8,0.4*30
$BDGSA,A,3,01,02,03,04,07,08,10,12,13,19,24,26,0.9,0.8,0.4*27
$GLGSA,A,3,,,,,,,,,,,,,0.9,0.8,0.4*2B
$GPGSV,3,1,11,03,34,068,42,06,47,243,43,17,54,346,44,19,43,314,44*7F
$GPGSV,3,2,11,22,20,050,40,24,06,312,39,28,76,118,43,30,14,187,35*7B
$GPGSV,3,3,11,01,15,043,00,02,10,236,00,11,07,060,00*4E
$BDGSV,3,1,12,01,40,126,41,02,47,220,41,03,56,171,41,04,23,109,39*6D
$BDGSV,3,2,12,07,52,154,41,08,70,343,42,10,78,201,43,12,37,293,39*6D
$BDGSV,3,3,12,13,62,266,43,19,30,099,43,24,27,305,43,26,48,244,43*6B
$B3CN0,19,22,0,0,0,0,0,0,0,0,0,0,0,0*44
$ini_pos,lastpos_good = 1,ini_pos.x:-1578915.973437,ini_pos.y:5312774.844223,ini_pos.z:3146359.591115
$rtc_local_time,localRTC.weeks:2055,localRTC.seconds:201022.928083,localGtime.weeks:2055,localGtime.seconds:201023.000000
$pseudo_cd_ph,prn:3,pseudo_cd_ph:201022925.645283013582
measnum = 0,full_prange = 22347071.553749
$oldmeas,msRange:0.000000,x:-20152114.843090,y:7880648.392474,z:15306284.578237,vx:1075.432007,vy:-1643.572266,vz:2264.748535,tb:0.000187157160
$newmeas,x:-20152195.007498,y:7880770.906533,z:15306115.758882,vx:1075.425659,vy:-1643.551147,vz:2264.772949,tb:0.000187157160
$pseudo_cd_ph,prn:6,pseudo_cd_ph:201022928.551171272993
measnum = 1,full_prange = 21477870.609224
$oldmeas,msRange:71.644489,x:5880944.091852,y:25335406.955306,z:5330151.435959,vx:-456.073181,vy:-543.371033,vz:3114.534912,tb:0.000193703153
$newmeas,x:5880976.765616,y:25335445.882878,z:5329928.302710,vx:-456.060791,vy:-543.346802,vz:3114.542969,tb:0.000193703154
$pseudo_cd_ph,prn:17,pseudo_cd_ph:201022928.454828202724
measnum = 2,full_prange = 21467294.482652
$oldmeas,msRange:71.609272,x:-1396058.939527,y:14899661.512904,z:22353899.192186,vx:-2672.967773,vy:-569.128784,vz:207.902222,tb:0.000062081922
$newmeas,x:-1395867.535980,y:14899702.267034,z:22353884.303719,vx:-2672.963379,vy:-569.140503,vz:207.934998,tb:0.000062081921
$pseudo_cd_ph,prn:19,pseudo_cd_ph:201022927.958404868841
measnum = 3,full_prange = 21503486.966192
$oldmeas,msRange:71.729946,x:6854614.927618,y:15643723.532169,z:20015639.356626,vx:-2543.760498,vy:-573.456970,vz:1306.961304,tb:-0.000313616281
$newmeas,x:6854797.385741,y:15643764.665328,z:20015545.609893,vx:-2543.746338,vy:-573.465027,vz:1306.992798,tb:-0.000313616282
$pseudo_cd_ph,prn:22,pseudo_cd_ph:201022919.830194205046
measnum = 4,full_prange = 23822008.906295
$oldmeas,msRange:79.463880,x:-18260392.756317,y:604693.064377,z:19489037.078478,vx:1267.838501,vy:-2090.336426,vz:1275.978149,tb:-0.000708070214
$newmeas,x:-18260493.500947,y:604859.165391,z:19488935.685839,vx:1267.840210,vy:-2090.321045,vz:1276.010498,tb:-0.000708070213
$pseudo_cd_ph,prn:24,pseudo_cd_ph:201022916.420381546021
measnum = 5,full_prange = 25036521.246245
$oldmeas,msRange:83.514880,x:17565531.155906,y:4845324.494177,z:19274854.293387,vx:875.742065,vy:2322.470215,vz:-1338.125122,tb:-0.000066705775
$newmeas,x:17565458.020391,y:4845130.537362,z:19274966.042591,vx:875.737305,vy:2322.487305,vz:-1338.090820,tb:-0.000066705775
$pseudo_cd_ph,prn:28,pseudo_cd_ph:201022932.005628138781
measnum = 6,full_prange = 20614360.570126
$oldmeas,msRange:68.764208,x:-11000421.573811,y:21858246.276862,z:11049567.941547,vx:-1029.322266,vy:820.536377,vz:-2793.406250,tb:0.000767800570
$newmeas,x:-11000350.794763,y:21858189.854620,z:11049760.021501,vx:-1029.342041,vy:820.549011,vz:-2793.390625,tb:0.000767800570
$pseudo_cd_ph,prn:30,pseudo_cd_ph:19.391193512947
measnum = 7,full_prange = 24132029.580107
$oldmeas,msRange:80.498049,x:-3311143.628319,y:22230182.751099,z:-13976376.274497,vx:-827.682800,vy:-1612.292236,vz:-2383.395264,tb:-0.000112953254
$newmeas,x:-3311077.003932,y:22230312.533056,z:-13976184.420247,vx:-827.668152,vy:-1612.272949,vz:-2383.419434,tb:-0.000112953254
$GNGGA,075005.000,2944.9076,N,10633.0928,E,1,20,0.8,329.2,M,,,,0000*11
$GNRMC,075005.000,A,2944.9076,N,10633.0928,E,0.22,0.00,280519,,*1A
$GPGSA,A,3,03,06,17,19,22,24,28,,,,,,0.9,0.8,0.4*30
$BDGSA,A,3,01,02,03,04,07,08,10,12,13,19,24,26,0.9,0.8,0.4*27
$GLGSA,A,3,,,,,,,,,,,,,0.9,0.8,0.4*2B
$GPGSV,3,1,11,03,34,068,41,06,47,243,44,17,54,346,45,19,43,314,43*7D
$GPGSV,3,2,11,22,20,050,41,24,06,312,39,28,76,118,43,30,14,187,35*7A
$GPGSV,3,3,11,01,15,043,00,02,10,236,00,11,07,060,00*4E
$BDGSV,3,1,12,01,40,126,41,02,47,220,41,03,56,171,42,04,23,109,39*6E
$BDGSV,3,2,12,07,52,154,41,08,70,343,42,10,78,201,42,12,37,293,39*6C
$BDGSV,3,3,12,13,62,266,43,19,30,099,43,24,27,305,43,26,48,244,43*6B
$B3CN0,0,17,0,0,0,0,0,0,0,0,0,0,0,0*7A
$ini_pos,lastpos_good = 1,ini_pos.x:-1578915.740311,ini_pos.y:5312773.975881,ini_pos.z:3146358.916528
$rtc_local_time,localRTC.weeks:2055,localRTC.seconds:201023.928083,localGtime.weeks:2055,localGtime.seconds:201024.000000
$pseudo_cd_ph,prn:3,pseudo_cd_ph:201023925.645473599434
measnum = 0,full_prange = 22347004.749953
$oldmeas,msRange:0.000000,x:-20151039.368890,y:7879004.678436,z:15308549.162778,vx:1075.516479,vy:-1643.855957,vz:2264.420654,tb:0.000187157158
$newmeas,x:-20151119.539357,y:7879127.213272,z:15308380.368358,vx:1075.510132,vy:-1643.834717,vz:2264.445068,tb:0.000187157159
$pseudo_cd_ph,prn:6,pseudo_cd_ph:201023928.553021669388
measnum = 1,full_prange = 21477306.204094
$oldmeas,msRange:71.643331,x:5880487.932045,y:25334863.415078,z:5333265.913987,vx:-456.246460,vy:-543.709473,vz:3114.421387,tb:0.000193703143
$newmeas,x:5880520.617362,y:25334902.365871,z:5333042.794738,vx:-456.234039,vy:-543.685181,vz:3114.429443,tb:0.000193703144
$pseudo_cd_ph,prn:17,pseudo_cd_ph:201023928.455820530653
measnum = 2,full_prange = 21466987.326255
$oldmeas,msRange:71.608972,x:-1398731.938173,y:14899092.466176,z:22354106.865554,vx:-2673.029541,vy:-568.964722,vz:207.444519,tb:0.000062081933
$newmeas,x:-1398540.532938,y:14899133.207977,z:22354092.010075,vx:-2673.025146,vy:-568.976440,vz:207.477295,tb:0.000062081932
$pseudo_cd_ph,prn:19,pseudo_cd_ph:201023927.959921330214
measnum = 3,full_prange = 21503022.675824
$oldmeas,msRange:71.729122,x:6852071.068619,y:15643150.131180,z:20016946.098929,vx:-2543.957520,vy:-573.345032,vz:1306.523315,tb:-0.000313616280
$newmeas,x:6852253.536940,y:15643191.255421,z:20016852.385634,vx:-2543.943604,vy:-573.353027,vz:1306.554810,tb:-0.000313616280
$pseudo_cd_ph,prn:22,pseudo_cd_ph:201023919.829544246197
measnum = 4,full_prange = 23822194.090679
$oldmeas,msRange:79.465218,x:-18259124.927922,y:602602.630766,z:19490312.852820,vx:1267.818359,vy:-2090.530762,vz:1275.570679,tb:-0.000708070218
$newmeas,x:-18259225.671728,y:602768.748512,z:19490211.491776,vx:1267.819946,vy:-2090.515381,vz:1275.603027,tb:-0.000708070218
$pseudo_cd_ph,prn:24,pseudo_cd_ph:201023916.421855866909
measnum = 5,full_prange = 25036069.588514
$oldmeas,msRange:83.514095,x:17566406.926452,y:4847646.861625,z:19273515.962414,vx:875.799072,vy:2322.264893,vz:-1338.536865,tb:-0.000066705776
$newmeas,x:17566333.787499,y:4847452.925466,z:19273627.743985,vx:875.794312,vy:2322.281982,vz:-1338.502441,tb:-0.000066705776
$pseudo_cd_ph,prn:28,pseudo_cd_ph:201023932.006125181913
measnum = 6,full_prange = 20614201.894210
$oldmeas,msRange:68.764406,x:-11001450.752217,y:21859066.721279,z:11046774.421636,vx:-1029.034546,vy:820.352539,vz:-2793.633789,tb:0.000767800574
$newmeas,x:-11001379.993497,y:21859010.312112,z:11046966.515760,vx:-1029.054321,vy:820.365173,vz:-2793.618164,tb:0.000767800573
$pseudo_cd_ph,prn:30,pseudo_cd_ph:19.389814285472
measnum = 7,full_prange = 24132433.390724
$oldmeas,msRange:80.500118,x:-3311971.401848,y:22228570.339406,z:-13978759.519411,vx:-827.864319,vy:-1612.531250,vz:-2383.094727,tb:-0.000112953263
$newmeas,x:-3311904.761730,y:22228700.142773,z:-13978567.686145,vx:-827.849731,vy:-1612.511963,vz:-2383.118896,tb:-0.000112953262
$GNGGA,075006.000,2944.9076,N,10633.0927,E,1,20,0.8,329.0,M,,,,0000*1F
$GNRMC,075006.000,A,2944.9076,N,10633.0927,E,0.32,0.00,280519,,*17
$GPGSA,A,3,03,06,17,19,22,24,28,,,,,,0.9,0.8,0.4*30
$BDGSA,A,3,01,02,03,04,07,08,10,12,13,19,24,26,0.9,0.8,0.4*27
$GLGSA,A,3,,,,,,,,,,,,,0.9,0.8,0.4*2B
$GPGSV,3,1,11,03,34,068,42,06,47,243,43,17,54,346,45,19,43,314,44*7E
$GPGSV,3,2,11,22,20,050,41,24,06,312,39,28,76,118,43,30,14,187,36*79
$GPGSV,3,3,11,01,15,043,00,02,10,236,00,11,07,060,00*4E
$BDGSV,3,1,12,01,40,126,41,02,47,220,40,03,56,171,41,04,23,109,40*62
$BDGSV,3,2,12,07,52,154,42,08,70,343,43,10,78,201,42,12,37,293,39*6E
$BDGSV,3,3,12,13,62,266,44,19,30,099,43,24,27,305,44,26,48,244,44*6C
$B3CN0,0,0,0,0,0,0,0,0,0,0,0,0,0,0*4C
$ini_pos,lastpos_good = 1,ini_pos.x:-1578915.666786,ini_pos.y:5312773.818120,ini_pos.z:3146358.765982
$rtc_local_time,localRTC.weeks:2055,localRTC.seconds:201024.928083,localGtime.weeks:2055,localGtime.seconds:201025.000000
$pseudo_cd_ph,prn:3,pseudo_cd_ph:201024925.645666688681
measnum = 0,full_prange = 22346937.195659
$oldmeas,msRange:0.000000,x:-20149963.810225,y:7877360.680778,z:15310813.419553,vx:1075.600952,vy:-1644.139526,vz:2264.093018,tb:0.000187157157
$newmeas,x:-20150043.986744,y:7877483.236384,z:15310644.650077,vx:1075.594604,vy:-1644.118408,vz:2264.117432,tb:0.000187157157
$pseudo_cd_ph,prn:6,pseudo_cd_ph:201024928.554875165224
measnum = 1,full_prange = 21476740.869774
$oldmeas,msRange:71.642170,x:5880031.598954,y:25334319.536453,z:5336380.278391,vx:-456.419769,vy:-544.047852,vz:3114.307617,tb:0.000193703133
$newmeas,x:5880064.295826,y:25334358.510462,z:5336157.173157,vx:-456.407349,vy:-544.023621,vz:3114.315918,tb:0.000193703133
$pseudo_cd_ph,prn:17,pseudo_cd_ph:201024928.456816881895
measnum = 2,full_prange = 21466678.963699
$oldmeas,msRange:71.608670,x:-1401404.998602,y:14898523.583507,z:22354314.081214,vx:-2673.091309,vy:-568.800659,vz:206.986816,tb:0.000062081943
$newmeas,x:-1401213.591694,y:14898564.312974,z:22354299.258723,vx:-2673.086914,vy:-568.812378,vz:207.019592,tb:0.000062081943
$pseudo_cd_ph,prn:19,pseudo_cd_ph:201024927.961441308260
measnum = 3,full_prange = 21502557.331183
$oldmeas,msRange:71.728296,x:6849527.012538,y:15642576.842169,z:20018252.403243,vx:-2544.154785,vy:-573.233032,vz:1306.085327,tb:-0.000313616278
$newmeas,x:6849709.491045,y:15642617.957488,z:20018158.723392,vx:-2544.140625,vy:-573.241089,vz:1306.116821,tb:-0.000313616279
$pseudo_cd_ph,prn:22,pseudo_cd_ph:201024919.828895092010
measnum = 4,full_prange = 23822379.033832
$oldmeas,msRange:79.466555,x:-18257857.119795,y:600512.002860,z:19491588.219631,vx:1267.797974,vy:-2090.725098,vz:1275.163086,tb:-0.000708070222
$newmeas,x:-18257957.862770,y:600678.137334,z:19491486.890184,vx:1267.799683,vy:-2090.709717,vz:1275.195435,tb:-0.000708070222
$pseudo_cd_ph,prn:24,pseudo_cd_ph:201024916.423331618309
measnum = 5,full_prange = 25035617.501926
$oldmeas,msRange:83.513309,x:17567282.753934,y:4849969.023592,z:19272177.219745,vx:875.855957,vy:2322.059326,vz:-1338.948608,tb:-0.000066705777
$newmeas,x:17567209.611549,y:4849775.108097,z:19272289.033677,vx:875.851196,vy:2322.076416,vz:-1338.914185,tb:-0.000066705777
$pseudo_cd_ph,prn:28,pseudo_cd_ph:201024932.006623685360
measnum = 6,full_prange = 20614042.780502
$oldmeas,msRange:68.764601,x:-11002479.642915,y:21859886.981834,z:11043980.674183,vx:-1028.746826,vy:820.168640,vz:-2793.861328,tb:0.000767800577
$newmeas,x:-11002408.904524,y:21859830.585747,z:11044172.782468,vx:-1028.766724,vy:820.181274,vz:-2793.845703,tb:0.000767800577
$pseudo_cd_ph,prn:30,pseudo_cd_ph:19.388437183488
measnum = 7,full_prange = 24132836.566991
$oldmeas,msRange:80.502187,x:-3312799.356960,y:22226957.688751,z:-13981142.463732,vx:-828.045959,vy:-1612.770142,vz:-2382.794189,tb:-0.000112953271
$newmeas,x:-3312732.701111,y:22227087.513521,z:-13980950.651461,vx:-828.031311,vy:-1612.750977,vz:-2382.818359,tb:-0.000112953270
$GNGGA,075007.000,2944.9076,N,10633.0926,E,1,20,0.8,329.0,M,,,,0000*1F
$GNRMC,075007.000,A,2944.9076,N,10633.0926,E,0.23,0.00,280519,,*17
$GPGSA,A,3,03,06,17,19,22,24,28,,,,,,0.9,0.8,0.4*30
$BDGSA,A,3,01,02,03,04,07,08,10,12,13,19,24,26,0.9,0.8,0.4*27
$GLGSA,A,3,,,,,,,,,,,,,0.9,0.8,0.4*2B
$GPGSV,3,1,11,03,34,068,42,06,47,243,44,17,54,346,45,19,43,314,44*79
$GPGSV,3,2,11,22,20,050,41,24,06,312,39,28,76,118,43,30,14,187,36*79
$GPGSV,3,3,11,01,15,043,00,02,10,236,00,11,07,060,00*4E
$BDGSV,3,1,12,01,40,126,41,02,47,220,41,03,56,171,43,04,23,109,40*61
$BDGSV,3,2,12,07,52,154,41,08,70,343,43,10,78,201,43,12,37,293,39*6C
$BDGSV,3,3,12,13,62,266,44,19,30,099,43,24,27,305,44,26,48,244,44*6C
$B3CN0,18,0,0,0,0,0,0,0,0,0,0,0,0,0*75
$ini_pos,lastpos_good = 1,ini_pos.x:-1578915.508089,ini_pos.y:5312773.910421,ini_pos.z:3146358.758514
$rtc_local_time,localRTC.weeks:2055,localRTC.seconds:201025.928083,localGtime.weeks:2055,localGtime.seconds:201026.000000
$pseudo_cd_ph,prn:3,pseudo_cd_ph:201025925.645856559277
measnum = 0,full_prange = 22346870.606292
$oldmeas,msRange:0.000000,x:-20148888.167154,y:7875716.399513,z:15313077.348514,vx:1075.685303,vy:-1644.423096,vz:2263.765137,tb:0.000187157155
$newmeas,x:-20148968.349724,y:7875838.975893,z:15312908.603979,vx:1075.678955,vy:-1644.401978,vz:2263.789551,tb:0.000187157156
$pseudo_cd_ph,prn:6,pseudo_cd_ph:201025928.556727886200
measnum = 1,full_prange = 21476175.767751
$oldmeas,msRange:71.641008,x:5879575.092537,y:25333775.319464,z:5339494.529104,vx:-456.593109,vy:-544.386169,vz:3114.193848,tb:0.000193703122
$newmeas,x:5879607.800966,y:25333814.316686,z:5339271.437888,vx:-456.580688,vy:-544.361938,vz:3114.202148,tb:0.000193703123
$pseudo_cd_ph,prn:17,pseudo_cd_ph:201025928.457813471556
measnum = 2,full_prange = 21466370.529666
$oldmeas,msRange:71.608367,x:-1404078.120749,y:14897954.864915,z:22354520.839162,vx:-2673.153076,vy:-568.636597,vz:206.529099,tb:0.000062081954
$newmeas,x:-1403886.712175,y:14897995.582048,z:22354506.049657,vx:-2673.148682,vy:-568.648315,vz:206.561874,tb:0.000062081953
$pseudo_cd_ph,prn:19,pseudo_cd_ph:201025927.962960809469
measnum = 3,full_prange = 21502092.129495
$oldmeas,msRange:71.727469,x:6846982.759434,y:15642003.665175,z:20019558.269538,vx:-2544.351562,vy:-573.120972,vz:1305.647339,tb:-0.000313616277
$newmeas,x:6847165.248122,y:15642044.771569,z:20019464.623131,vx:-2544.337646,vy:-573.129028,vz:1305.678711,tb:-0.000313616277
$pseudo_cd_ph,prn:22,pseudo_cd_ph:201025919.828248858452
measnum = 4,full_prange = 23822563.101403
$oldmeas,msRange:79.467893,x:-18256589.331983,y:598421.180697,z:19492863.178883,vx:1267.777710,vy:-2090.919434,vz:1274.755493,tb:-0.000708070226
$newmeas,x:-18256690.074120,y:598587.331889,z:19492761.881041,vx:1267.779297,vy:-2090.903809,vz:1274.787842,tb:-0.000708070226
$pseudo_cd_ph,prn:24,pseudo_cd_ph:201025916.424809753895
measnum = 5,full_prange = 25035164.700578
$oldmeas,msRange:83.512523,x:17568158.638311,y:4852290.980035,z:19270838.065410,vx:875.912842,vy:2321.853760,vz:-1339.360229,tb:-0.000066705778
$newmeas,x:17568085.492499,y:4852097.085212,z:19270949.911696,vx:875.908081,vy:2321.870850,vz:-1339.325806,tb:-0.000066705778
$pseudo_cd_ph,prn:28,pseudo_cd_ph:201025932.007123619318
measnum = 6,full_prange = 20613883.237938
$oldmeas,msRange:68.764795,x:-11003508.245916,y:21860707.058471,z:11041186.699244,vx:-1028.459229,vy:819.984680,vz:-2794.088867,tb:0.000767800580
$newmeas,x:-11003437.527855,y:21860650.675468,z:11041378.821682,vx:-1028.479004,vy:819.997314,vz:-2794.072998,tb:0.000767800580
$pseudo_cd_ph,prn:30,pseudo_cd_ph:19.387061230015
measnum = 7,full_prange = 24133239.394812
$oldmeas,msRange:80.504256,x:-3313627.493676,y:22225344.799188,z:-13983525.107410,vx:-828.227539,vy:-1613.009033,vz:-2382.493408,tb:-0.000112953279
$newmeas,x:-3313560.822094,y:22225474.645355,z:-13983333.316140,vx:-828.212952,vy:-1612.989868,vz:-2382.517578,tb:-0.000112953279
$GNGGA,075008.000,2944.9075,N,10633.0926,E,1,20,0.8,329.0,M,,,,0000*13
$GNRMC,075008.000,A,2944.9075,N,10633.0926,E,0.20,0.00,280519,,*18
$GPGSA,A,3,03,06,17,19,22,24,28,,,,,,0.9,0.8,0.4*30
$BDGSA,A,3,01,02,03,04,07,08,10,12,13,19,24,26,0.9,0.8,0.4*27
$GLGSA,A,3,,,,,,,,,,,,,0.9,0.8,0.4*2B
$GPGSV,3,1,11,03,34,068,42,06,47,243,44,17,54,346,45,19,43,314,44*79
$GPGSV,3,2,11,22,20,050,40,24,06,312,39,28,76,118,44,30,14,187,35*7C
$GPGSV,3,3,11,01,15,043,00,02,10,236,00,11,07,060,00*4E
$BDGSV,3,1,12,01,40,126,41,02,47,220,39,03,56,171,42,04,23,109,40*6F
$BDGSV,3,2,12,07,52,154,42,08,70,343,43,10,78,201,42,12,37,293,39*6E
$BDGSV,3,3,12,13,62,266,44,19,30,099,43,24,27,305,44,26,48,244,44*6C
$B3CN0,0,21,0,0,0,0,0,0,0,0,0,0,0,0*7F
$ini_pos,lastpos_good = 1,ini_pos.x:-1578915.472727,ini_pos.y:5312773.996524,ini_pos.z:3146358.667096
$rtc_local_time,localRTC.weeks:2055,localRTC.seconds:201026.928083,localGtime.weeks:2055,localGtime.seconds:201027.000000
$pseudo_cd_ph,prn:3,pseudo_cd_ph:201026925.646051466465
measnum = 0,full_prange = 22346802.506992
$oldmeas,msRange:0.000000,x:-20147812.439735,y:7874071.834655,z:15315340.949613,vx:1075.769653,vy:-1644.706665,vz:2263.437256,tb:0.000187157154
$newmeas,x:-20147892.628346,y:7874194.431801,z:15315172.230032,vx:1075.763306,vy:-1644.685547,vz:2263.461670,tb:0.000187157154
$pseudo_cd_ph,prn:6,pseudo_cd_ph:201026928.558584243059
measnum = 1,full_prange = 21475609.575719
$oldmeas,msRange:71.639847,x:5879118.412751,y:25333230.764147,z:5342608.666062,vx:-456.766510,vy:-544.724487,vz:3114.080078,tb:0.000193703112
$newmeas,x:5879151.132739,y:25333269.784576,z:5342385.588878,vx:-456.754089,vy:-544.700256,vz:3114.088379,tb:0.000193703113
$pseudo_cd_ph,prn:17,pseudo_cd_ph:201026928.458810687065
measnum = 2,full_prange = 21466061.908009
$oldmeas,msRange:71.608064,x:-1406751.304550,y:14897386.310416,z:22354727.139393,vx:-2673.214600,vy:-568.472473,vz:206.071381,tb:0.000062081964
$newmeas,x:-1406559.894315,y:14897427.015213,z:22354712.382875,vx:-2673.210205,vy:-568.484192,vz:206.104156,tb:0.000062081964
$pseudo_cd_ph,prn:19,pseudo_cd_ph:201026927.964482218027
measnum = 3,full_prange = 21501626.355997
$oldmeas,msRange:71.726643,x:6844438.309365,y:15641430.600235,z:20020863.697786,vx:-2544.548584,vy:-573.008911,vz:1305.209229,tb:-0.000313616275
$newmeas,x:6844620.808225,y:15641471.697700,z:20020770.084825,vx:-2544.534424,vy:-573.016968,vz:1305.240723,tb:-0.000313616276
$pseudo_cd_ph,prn:22,pseudo_cd_ph:201026919.827605396509
measnum = 4,full_prange = 23822746.338064
$oldmeas,msRange:79.469231,x:-18255321.564535,y:596330.164310,z:19494137.730552,vx:1267.757324,vy:-2091.113525,vz:1274.347900,tb:-0.000708070230
$newmeas,x:-18255422.305827,y:596496.332212,z:19494036.464320,vx:1267.758911,vy:-2091.098145,vz:1274.380249,tb:-0.000708070230
$pseudo_cd_ph,prn:24,pseudo_cd_ph:201026916.426285296679
measnum = 5,full_prange = 25034712.676532
$oldmeas,msRange:83.511738,x:17569034.579540,y:4854612.730908,z:19269498.499439,vx:875.969666,vy:2321.648193,vz:-1339.771851,tb:-0.000066705779
$newmeas,x:17568961.430303,y:4854418.856754,z:19269610.378078,vx:875.964905,vy:2321.665283,vz:-1339.737427,tb:-0.000066705779
$pseudo_cd_ph,prn:28,pseudo_cd_ph:201026932.007622897625
measnum = 6,full_prange = 20613723.891933
$oldmeas,msRange:68.764990,x:-11004536.561229,y:21861526.951132,z:11038392.496874,vx:-1028.171509,vy:819.800659,vz:-2794.316162,tb:0.000767800584
$newmeas,x:-11004465.863495,y:21861470.581217,z:11038584.633464,vx:-1028.191284,vy:819.813354,vz:-2794.300537,tb:0.000767800583
$pseudo_cd_ph,prn:30,pseudo_cd_ph:19.385683412076
measnum = 7,full_prange = 24133642.785507
$oldmeas,msRange:80.506324,x:-3314455.812018,y:22223731.670768,z:-13985907.450393,vx:-828.409180,vy:-1613.247925,vz:-2382.192627,tb:-0.000112953288
$newmeas,x:-3314389.124700,y:22223861.538332,z:-13985715.680126,vx:-828.394592,vy:-1613.228638,vz:-2382.216797,tb:-0.000112953287
$pseudo_cd_ph,prn:2,pseudo_cd_ph:17.988435747104
measnum = 8,full_prange = 24519302.528345
$oldmeas,msRange:81.792446,x:14525463.565135,y:21267592.439607,z:-6200245.628334,vx:98.003014,vy:904.092712,vz:3020.304199,tb:-0.000223778528
$newmeas,x:14525455.549362,y:21267518.494850,z:-6200492.651282,vx:98.011391,vy:904.121887,vz:3020.293213,tb:-0.000223778527
$GNGGA,075009.000,2944.9075,N,10633.0926,E,1,20,0.8,329.2,M,,,,0000*10
$GNRMC,075009.000,A,2944.9075,N,10633.0926,E,0.13,0.00,280519,,*19
$GPGSA,A,3,03,06,17,19,22,24,28,,,,,,0.9,0.8,0.4*30
$BDGSA,A,3,01,02,03,04,07,08,10,12,13,19,24,26,0.9,0.8,0.4*27
$GLGSA,A,3,,,,,,,,,,,,,0.9,0.8,0.4*2B
$GPGSV,3,1,11,03,34,068,42,06,47,243,44,17,54,346,45,19,43,314,44*79
$GPGSV,3,2,11,22,20,050,40,24,06,312,39,28,76,118,44,30,14,187,36*7F
$GPGSV,3,3,11,02,10,236,17,01,15,043,00,11,07,060,00*48
$BDGSV,3,1,12,01,40,126,39,02,47,220,41,03,56,171,41,04,23,109,39*62
$BDGSV,3,2,12,07,52,154,42,08,70,343,42,10,78,201,43,12,37,293,39*6E
$BDGSV,3,3,12,13,62,266,44,19,30,099,43,24,27,305,44,26,48,244,44*6C
$B3CN0,0,16,0,0,0,0,0,0,0,0,0,0,0,0*7B
$ini_pos,lastpos_good = 1,ini_pos.x:-1578915.532684,ini_pos.y:5312774.132372,ini_pos.z:3146358.707337
$rtc_local_time,localRTC.weeks:2055,localRTC.seconds:201027.928083,localGtime.weeks:2055,localGtime.seconds:201028.000000
$pseudo_cd_ph,prn:3,pseudo_cd_ph:201027925.646243512630
measnum = 0,full_prange = 22346735.265406
$oldmeas,msRange:0.000000,x:-20146736.628028,y:7872426.986219,z:15317604.222801,vx:1075.853882,vy:-1644.990234,vz:2263.109375,tb:0.000187157152
$newmeas,x:-20146816.822679,y:7872549.604133,z:15317435.528172,vx:1075.847534,vy:-1644.969116,vz:2263.133789,tb:0.000187157153
$pseudo_cd_ph,prn:6,pseudo_cd_ph:201027928.560440003872
measnum = 1,full_prange = 21475043.562376
$oldmeas,msRange:71.638686,x:5878661.559556,y:25332685.870536,z:5345722.689196,vx:-456.939941,vy:-545.062744,vz:3113.966309,tb:0.000193703102
$newmeas,x:5878694.291105,y:25332724.914168,z:5345499.626048,vx:-456.927490,vy:-545.038513,vz:3113.974365,tb:0.000193703102
$pseudo_cd_ph,prn:17,pseudo_cd_ph:201027928.459808111191
measnum = 2,full_prange = 21465753.223811
$oldmeas,msRange:71.607760,x:-1409424.549941,y:14896817.920029,z:22354932.981902,vx:-2673.276367,vy:-568.308350,vz:205.613647,tb:0.000062081975
$newmeas,x:-1409233.138051,y:14896858.612489,z:22354918.258370,vx:-2673.271729,vy:-568.320068,vz:205.646423,tb:0.000062081974
$pseudo_cd_ph,prn:19,pseudo_cd_ph:201027927.966002821922
measnum = 3,full_prange = 21501160.823732
$oldmeas,msRange:71.725816,x:6841893.662389,y:15640857.647386,z:20022168.687957,vx:-2544.745605,vy:-572.896790,vz:1304.771118,tb:-0.000313616274
$newmeas,x:6842076.171418,y:15640898.735921,z:20022075.108443,vx:-2544.731445,vy:-572.904846,vz:1304.802612,tb:-0.000313616274
$pseudo_cd_ph,prn:22,pseudo_cd_ph:201027919.826961815357
measnum = 4,full_prange = 23822929.610463
$oldmeas,msRange:79.470568,x:-18254053.817501,y:594238.953736,z:19495411.874612,vx:1267.736816,vy:-2091.307617,vz:1273.940308,tb:-0.000708070234
$newmeas,x:-18254154.557944,y:594405.138347,z:19495310.639991,vx:1267.738525,vy:-2091.292236,vz:1273.972656,tb:-0.000708070234
$pseudo_cd_ph,prn:24,pseudo_cd_ph:201027916.427765905857
measnum = 5,full_prange = 25034259.133619
$oldmeas,msRange:83.510953,x:17569910.577578,y:4856934.276166,z:19268158.521862,vx:876.026428,vy:2321.442627,vz:-1340.183472,tb:-0.000066705780
$newmeas,x:17569837.424924,y:4856740.422695,z:19268270.432845,vx:876.021729,vy:2321.459717,vz:-1340.149048,tb:-0.000066705780
$pseudo_cd_ph,prn:28,pseudo_cd_ph:201027932.008121490479
measnum = 6,full_prange = 20613564.751421
$oldmeas,msRange:68.765184,x:-11005564.588864,y:21862346.659759,z:11035598.067130,vx:-1027.883789,vy:819.616638,vz:-2794.543457,tb:0.000767800587
$newmeas,x:-11005493.911456,y:21862290.302935,z:11035790.217869,vx:-1027.903564,vy:819.629272,vz:-2794.527832,tb:0.000767800587
$pseudo_cd_ph,prn:30,pseudo_cd_ph:19.384306302635
measnum = 7,full_prange = 24134045.961773
$oldmeas,msRange:80.508393,x:-3315284.312007,y:22222118.303545,z:-13988289.492632,vx:-828.590820,vy:-1613.486694,vz:-2381.891846,tb:-0.000112953296
$newmeas,x:-3315217.608951,y:22222248.192501,z:-13988097.743374,vx:-828.576233,vy:-1613.467407,vz:-2381.916260,tb:-0.000112953295
$pseudo_cd_ph,prn:2,pseudo_cd_ph:17.990780051969
measnum = 8,full_prange = 24518590.051668
$oldmeas,msRange:81.790782,x:14525561.516948,y:21268496.353642,z:-6197225.257841,vx:97.900604,vy:903.735413,vz:3020.437012,tb:-0.000223778538
$newmeas,x:14525553.509783,y:21268422.440252,z:-6197472.284485,vx:97.908981,vy:903.764648,vz:3020.426270,tb:-0.000223778537
$GNGGA,075010.000,2944.9074,N,10633.0926,E,1,20,0.8,329.6,M,,,,0000*1D
$GNRMC,075010.000,A,2944.9074,N,10633.0926,E,0.32,0.00,280519,,*13
$GPGSA,A,3,03,06,17,19,22,24,28,,,,,,0.9,0.8,0.4*30
$BDGSA,A,3,01,02,03,04,07,08,10,12,13,19,24,26,0.9,0.8,0.4*27
$GLGSA,A,3,,,,,,,,,,,,,0.9,0.8,0.4*2B
$GPGSV,3,1,11,03,34,068,42,06,47,243,45,17,54,346,45,19,43,314,44*78
$GPGSV,3,2,11,22,20,050,42,24,06,312,39,28,76,118,44,30,14,187,36*7D
$GPGSV,3,3,11,02,10,236,35,01,15,043,00,11,07,060,00*48
$BDGSV,3,1,12,01,40,126,40,02,47,220,41,03,56,171,42,04,23,109,39*6F
$BDGSV,3,2,12,07,52,154,42,08,70,343,43,10,78,201,42,12,37,293,40*60
$BDGSV,3,3,12,13,62,266,43,19,30,099,43,24,27,305,44,26,48,244,44*6B
$B3CN0,23,19,0,0,0,0,0,0,0,0,0,0,0,0*45
$GLGSV,1,1,02,05,03,155,39,18,12,049,40*69
$ini_pos,lastpos_good = 1,ini_pos.x:-1578915.661626,ini_pos.y:5312774.507748,ini_pos.z:3146358.755396
$rtc_local_time,localRTC.weeks:2055,localRTC.seconds:201028.928083,localGtime.weeks:2055,localGtime.seconds:201029.000000
$pseudo_cd_ph,prn:3,pseudo_cd_ph:201028925.646435320377
measnum = 0,full_prange = 22346668.095295
$oldmeas,msRange:0.000000,x:-20145660.732091,y:7870781.854219,z:15319867.168030,vx:1075.938110,vy:-1645.273804,vz:2262.781250,tb:0.000187157151
$newmeas,x:-20145740.932777,y:7870904.492901,z:15319698.498356,vx:1075.931763,vy:-1645.252686,vz:2262.805664,tb:0.000187157151
$pseudo_cd_ph,prn:6,pseudo_cd_ph:201028928.562294006348
measnum = 1,full_prange = 21474478.076170
$oldmeas,msRange:71.637525,x:5878204.532909,y:25332140.638665,z:5348836.598442,vx:-457.113403,vy:-545.401001,vz:3113.852295,tb:0.000193703091
$newmeas,x:5878237.276021,y:25332179.705498,z:5348613.549328,vx:-457.100983,vy:-545.376770,vz:3113.860596,tb:0.000193703092
$pseudo_cd_ph,prn:17,pseudo_cd_ph:201028928.460805296898
measnum = 2,full_prange = 21465444.611088
$oldmeas,msRange:71.607456,x:-1412097.856857,y:14896249.693770,z:22355138.366686,vx:-2673.337646,vy:-568.144226,vz:205.155930,tb:0.000062081986
$newmeas,x:-1411906.443316,y:14896290.373894,z:22355123.676140,vx:-2673.333252,vy:-568.155945,vz:205.188705,tb:0.000062081985
$pseudo_cd_ph,prn:19,pseudo_cd_ph:201028927.967523455620
measnum = 3,full_prange = 21500695.282532
$oldmeas,msRange:71.724990,x:6839348.818564,y:15640284.806667,z:20023473.240023,vx:-2544.942383,vy:-572.784668,vz:1304.333008,tb:-0.000313616272
$newmeas,x:6839531.337757,y:15640325.886269,z:20023379.693956,vx:-2544.928223,vy:-572.792725,vz:1304.364502,tb:-0.000313616272
$pseudo_cd_ph,prn:22,pseudo_cd_ph:201028919.826320081949
measnum = 4,full_prange = 23823112.328923
$oldmeas,msRange:79.471906,x:-18252786.090928,y:592147.549010,z:19496685.611036,vx:1267.716309,vy:-2091.501953,vz:1273.532593,tb:-0.000708070239
$newmeas,x:-18252886.830516,y:592313.750323,z:19496584.408033,vx:1267.718018,vy:-2091.486328,vz:1273.565063,tb:-0.000708070238
$pseudo_cd_ph,prn:24,pseudo_cd_ph:201028916.429242610931
measnum = 5,full_prange = 25033806.761128
$oldmeas,msRange:83.510169,x:17570786.632382,y:4859255.615763,z:19266818.132710,vx:876.083191,vy:2321.236816,vz:-1340.594971,tb:-0.000066705781
$newmeas,x:17570713.476311,y:4859061.782971,z:19266930.076037,vx:876.078491,vy:2321.253906,vz:-1340.560669,tb:-0.000066705781
$pseudo_cd_ph,prn:28,pseudo_cd_ph:201028932.008619070053
measnum = 6,full_prange = 20613405.914682
$oldmeas,msRange:68.765379,x:-11006592.328830,y:21863166.184294,z:11032803.410068,vx:-1027.596191,vy:819.432495,vz:-2794.770752,tb:0.000767800590
$newmeas,x:-11006521.671747,y:21863109.840565,z:11032995.574955,vx:-1027.615967,vy:819.445129,vz:-2794.755127,tb:0.000767800590
$pseudo_cd_ph,prn:30,pseudo_cd_ph:19.382928812842
measnum = 7,full_prange = 24134449.254189
$oldmeas,msRange:80.510460,x:-3316112.993665,y:22220504.697573,z:-13990671.234074,vx:-828.772522,vy:-1613.725342,vz:-2381.591064,tb:-0.000112953304
$newmeas,x:-3316046.274868,y:22220634.607917,z:-13990479.505829,vx:-828.757874,vy:-1613.706177,vz:-2381.615234,tb:-0.000112953304
$pseudo_cd_ph,prn:2,pseudo_cd_ph:17.993127705415
measnum = 8,full_prange = 24517876.574327
$oldmeas,msRange:81.789119,x:14525659.366326,y:21269399.910422,z:-6194204.754432,vx:97.798149,vy:903.378174,vz:3020.569824,tb:-0.000223778548
$newmeas,x:14525651.367774,y:21269326.028400,z:-6194451.784755,vx:97.806526,vy:903.407410,vz:3020.559082,tb:-0.000223778547
$GNGGA,075011.000,2944.9074,N,10633.0926,E,1,22,0.8,329.6,M,,,,0000*1E
$GNRMC,075011.000,A,2944.9074,N,10633.0926,E,0.01,0.00,280519,,*12
$GPGSA,A,3,03,06,17,19,22,24,28,,,,,,0.9,0.8,0.4*30
$BDGSA,A,3,01,02,03,04,07,08,10,12,13,19,24,26,0.9,0.8,0.4*27
$GLGSA,A,3,05,18,,,,,,,,,,,0.9,0.8,0.4*27
$GPGSV,3,1,11,03,34,068,42,06,47,243,44,17,54,346,44,19,43,314,44*78
$GPGSV,3,2,11,22,20,050,41,24,06,312,40,28,76,118,43,30,14,187,36*77
$GPGSV,3,3,11,02,10,236,36,01,15,043,00,11,07,060,00*4B
$BDGSV,3,1,12,01,40,126,40,02,47,220,40,03,56,171,42,04,23,109,40*60
$BDGSV,3,2,12,07,52,154,42,08,70,343,43,10,78,201,42,12,37,293,39*6E
$BDGSV,3,3,12,13,62,266,44,19,30,099,43,24,27,305,44,26,48,244,43*6B
$B3CN0,0,0,0,0,0,0,0,0,0,0,0,0,0,0*4C
$GLGSV,1,1,02,05,03,155,40,18,12,049,40*67
$ini_pos,lastpos_good = 1,ini_pos.x:-1578915.711432,ini_pos.y:5312774.544300,ini_pos.z:3146358.779352
$rtc_local_time,localRTC.weeks:2055,localRTC.seconds:201029.928083,localGtime.weeks:2055,localGtime.seconds:201030.000000
$pseudo_cd_ph,prn:3,pseudo_cd_ph:201029925.646630913019
measnum = 0,full_prange = 22346599.790502
$oldmeas,msRange:0.000000,x:-20144584.751983,y:7869136.438669,z:15322129.785251,vx:1076.022217,vy:-1645.557373,vz:2262.453369,tb:0.000187157149
$newmeas,x:-20144664.958696,y:7869259.098111,z:15321961.140544,vx:1076.015991,vy:-1645.536255,vz:2262.477783,tb:0.000187157149
$pseudo_cd_ph,prn:6,pseudo_cd_ph:201029928.564150243998
measnum = 1,full_prange = 21473911.919875
$oldmeas,msRange:71.636365,x:5877747.332767,y:25331595.068568,z:5351950.393733,vx:-457.286926,vy:-545.739197,vz:3113.738281,tb:0.000193703081
$newmeas,x:5877780.087446,y:25331634.158597,z:5351727.358663,vx:-457.274475,vy:-545.714966,vz:3113.746582,tb:0.000193703082
$pseudo_cd_ph,prn:17,pseudo_cd_ph:201029928.461804121733
measnum = 2,full_prange = 21465135.506967
$oldmeas,msRange:71.607153,x:-1414771.225234,y:14895681.631658,z:22355343.293739,vx:-2673.399170,vy:-567.980042,vz:204.698196,tb:0.000062081996
$newmeas,x:-1414579.810051,y:14895722.299442,z:22355328.636178,vx:-2673.394775,vy:-567.991821,vz:204.730972,tb:0.000062081995
$pseudo_cd_ph,prn:19,pseudo_cd_ph:201029927.969046205282
measnum = 3,full_prange = 21500229.106982
$oldmeas,msRange:71.724163,x:6836803.777950,y:15639712.078115,z:20024777.353954,vx:-2545.139160,vy:-572.672485,vz:1303.894897,tb:-0.000313616271
$newmeas,x:6836986.307296,y:15639753.148781,z:20024683.841338,vx:-2545.125000,vy:-572.680542,vz:1303.926270,tb:-0.000313616271
$pseudo_cd_ph,prn:22,pseudo_cd_ph:201029919.825680285692
measnum = 4,full_prange = 23823294.466639
$oldmeas,msRange:79.473245,x:-18251518.384867,y:590055.950169,z:19497958.939798,vx:1267.695801,vy:-2091.696045,vz:1273.125000,tb:-0.000708070243
$newmeas,x:-18251619.123593,y:590222.168176,z:19497857.768418,vx:1267.697510,vy:-2091.680420,vz:1273.157349,tb:-0.000708070242
$pseudo_cd_ph,prn:24,pseudo_cd_ph:201029916.430721402168
measnum = 5,full_prange = 25033353.763220
$oldmeas,msRange:83.509385,x:17571662.743910,y:4861576.749655,z:19265477.332011,vx:876.139893,vy:2321.031006,vz:-1341.006470,tb:-0.000066705782
$newmeas,x:17571589.584428,y:4861382.937549,z:19265589.307677,vx:876.135193,vy:2321.048340,vz:-1340.972168,tb:-0.000066705782
$pseudo_cd_ph,prn:28,pseudo_cd_ph:201029932.009119033813
measnum = 6,full_prange = 20613246.363182
$oldmeas,msRange:68.765574,x:-11007619.781138,y:21863985.524681,z:11030008.525744,vx:-1027.308472,vy:819.248291,vz:-2794.998047,tb:0.000767800594
$newmeas,x:-11007549.144379,y:21863929.194051,z:11030200.704768,vx:-1027.328247,vy:819.260986,vz:-2794.982422,tb:0.000767800594
$pseudo_cd_ph,prn:30,pseudo_cd_ph:19.381557990379
measnum = 7,full_prange = 24134850.545274
$oldmeas,msRange:80.512529,x:-3316941.857013,y:22218890.852903,z:-13993052.674669,vx:-828.954224,vy:-1613.964111,vz:-2381.290283,tb:-0.000112953313
$newmeas,x:-3316875.122480,y:22219020.784622,z:-13992860.967458,vx:-828.939575,vy:-1613.944824,vz:-2381.314453,tb:-0.000112953312
$pseudo_cd_ph,prn:2,pseudo_cd_ph:17.995481056668
measnum = 8,full_prange = 24517161.390493
$oldmeas,msRange:81.787456,x:14525757.113220,y:21270303.109949,z:-6191184.118172,vx:97.695641,vy:903.020935,vz:3020.702881,tb:-0.000223778558
$newmeas,x:14525749.123284,y:21270229.259298,z:-6191431.152151,vx:97.704025,vy:903.050171,vz:3020.691895,tb:-0.000223778557
$GNGGA,075012.000,2944.9082,N,10633.0929,E,1,22,0.6,330.9,M,,,,0000*12
$GNRMC,075012.000,A,2944.9082,N,10633.0929,E,0.13,0.00,280519,,*14
$GPGSA,A,3,03,06,17,19,22,24,28,,,,,,0.8,0.6,0.4*3F
$BDGSA,A,3,01,02,03,04,07,08,10,12,13,19,24,26,0.8,0.6,0.4*28
$GLGSA,A,3,05,18,,,,,,,,,,,0.8,0.6,0.4*28
$GPGSV,3,1,11,03,34,068,42,06,47,243,44,17,54,346,45,19,43,314,44*79
$GPGSV,3,2,11,22,20,050,41,24,06,312,40,28,76,118,44,30,14,187,36*70
$GPGSV,3,3,11,02,10,236,36,01,15,043,00,11,07,060,00*4B
$BDGSV,3,1,12,01,40,126,41,02,47,220,40,03,56,171,41,04,23,109,40*62
$BDGSV,3,2,12,07,52,154,42,08,70,343,43,10,78,201,42,12,37,293,40*60
$BDGSV,3,3,12,13,62,266,44,19,30,099,43,24,27,305,44,26,48,244,44*6C
$B3CN0,0,0,0,0,0,0,17,24,0,0,0,0,0,0*4C
$GLGSV,1,1,02,05,03,155,40,18,12,049,41*66
$ini_pos,lastpos_good = 1,ini_pos.x:-1578916.243977,ini_pos.y:5312774.682967,ini_pos.z:3146360.772844
$rtc_local_time,localRTC.weeks:2055,localRTC.seconds:201030.928083,localGtime.weeks:2055,localGtime.seconds:201031.000000
$pseudo_cd_ph,prn:3,pseudo_cd_ph:201030925.646822094917
measnum = 0,full_prange = 22346532.808016
$oldmeas,msRange:0.000000,x:-20143508.687762,y:7867490.739583,z:15324392.074416,vx:1076.106323,vy:-1645.840942,vz:2262.125244,tb:0.000187157148
$newmeas,x:-20143588.900502,y:7867613.419792,z:15324223.454670,vx:1076.099976,vy:-1645.819824,vz:2262.149658,tb:0.000187157148
$pseudo_cd_ph,prn:6,pseudo_cd_ph:201030928.566002786160
measnum = 1,full_prange = 21473346.871460
$oldmeas,msRange:71.635205,x:5877289.959090,y:25331049.160280,z:5355064.075002,vx:-457.460480,vy:-546.077393,vz:3113.624268,tb:0.000193703070
$newmeas,x:5877322.725338,y:25331088.273503,z:5354841.053971,vx:-457.448029,vy:-546.053162,vz:3113.632568,tb:0.000193703071
$pseudo_cd_ph,prn:17,pseudo_cd_ph:201030928.462801605463
measnum = 2,full_prange = 21464826.804899
