SD initialized success
Create debug.log Failed! 3
bbram_blkflag = 1
rtcflag = 0
BBRAM Block OK: 01 EPHflag: 28230445 b40012cf, rtc 00
Hot-start nowtime:day = 16,minute = 12,seconds = 50.00
GPS 0 Init Dop:  1268, 2
GPS 1 Init Dop: 10000,80
GPS 2 Init Dop: -2882, 2
GPS 3 Init Dop: 10000,80
GPS 4 Init Dop: 10000,80
GPS 5 Init Dop: 10000,80
GPS 6 Init Dop:  2566, 2
GPS 7 Init Dop: 10000,80
GPS 8 Init Dop: 10000,80
GPS 9 Init Dop: 10000,80
GPS10 Init Dop:  1675, 2
GPS11 Init Dop: 10000,80
GPS12 Init Dop: 10000,80
GPS13 Init Dop: 10000,80
GPS14 Init Dop: 10000,80
GPS15 Init Dop: 10000,80
GPS16 Init Dop: -1856, 2
GPS17 Init Dop:  2403, 2
GPS18 Init Dop: 10000,80
GPS19 Init Dop: 10000,80
GPS20 Init Dop: 10000,80
GPS21 Init Dop: -1479, 2
GPS22 Init Dop: 10000,80
GPS23 Init Dop: 10000,80
GPS24 Init Dop: 10000,80
GPS25 Init Dop: 10000,80
GPS26 Init Dop: 10000,80
GPS27 Init Dop: -2446, 2
GPS28 Init Dop: 10000,80
GPS29 Init Dop:  1196, 2
GPS30 Init Dop: 10000,80
GPS31 Init Dop: 10000,80
BDS 0 Init Dop:  -877, 2
BDS 1 Init Dop:  -930, 2
BDS 2 Init Dop:  -895, 2
BDS 3 Init Dop:  -895, 2
BDS 4 Init Dop: 10000,80
BDS 5 Init Dop: 10000,80
BDS 6 Init Dop:  -728, 2
BDS 7 Init Dop:  -866, 2
BDS 8 Init Dop: 10000,80
BDS 9 Init Dop: -1168, 2
BDS10 Init Dop: 10000,80
BDS11 Init Dop: 10000,80
BDS12 Init Dop: -1392, 2
BDS13 Init Dop: 10000,80
BDS14 Init Dop: 10000,80
BDS15 Init Dop: 10000,80
BDS16 Init Dop: 10000,80
BDS17 Init Dop: 10000,80
BDS18 Init Dop: 10000,80
BDS19 Init Dop: 10000,80
BDS20 Init Dop: 10000,80
BDS21 Init Dop: 10000,80
BDS22 Init Dop: 10000,80
BDS23 Init Dop: 10000,80
BDS24 Init Dop: 10000,80
BDS25 Init Dop: 10000,80
BDS26 Init Dop:   621, 2
BDS27 Init Dop: 10000,80
BDS28 Init Dop: -3105, 2
BDS29 Init Dop: -1704, 2
BDS30 Init Dop: 10000,80
BDS31 Init Dop: -3171, 2
Good luck!
$ini_pos,lastpos_good = 1,ini_pos.x:-1578918.000000,ini_pos.y:5312782.000000,ini_pos.z:3146359.000000
$rtc_local_time,localRTC.weeks:2053,localRTC.seconds:371589.026007,localGtime.weeks:0,localGtime.seconds:19.026010
source<tow,snapshot
$GNGGA,000000.000,,,,,0,00,,,M,,,,0000*2B
$GNRMC,000000.000,A,,,,,,,060180,,*29
$GPGSA,A,1,,,,,,,,,,,,,,,*1E
$BDGSA,A,1,,,,,,,,,,,,,,,*0F
$GLGSA,A,1,,,,,,,,,,,,,,,*02
$B3CN0,0,0,0,0,0,0,0,0,0,0,0,0,0,0*4C
$ini_pos,lastpos_good = 1,ini_pos.x:-1578918.000000,ini_pos.y:5312782.000000,ini_pos.z:3146359.000000
$rtc_local_time,localRTC.weeks:2053,localRTC.seconds:371590.026007,localGtime.weeks:2053,localGtime.seconds:371590.026007
source<tow,snapshot
$GNGGA,000000.000,,,,,0,00,,,M,,,,0000*2B
$GNRMC,000000.000,A,,,,,,,060180,,*29
$GPGSA,A,1,,,,,,,,,,,,,,,*1E
$BDGSA,A,1,,,,,,,,,,,,,,,*0F
$GLGSA,A,1,,,,,,,,,,,,,,,*02
$B3CN0,0,0,0,0,0,0,0,0,0,0,0,0,0,0*4C
$ini_pos,lastpos_good = 1,ini_pos.x:-1578918.000000,ini_pos.y:5312782.000000,ini_pos.z:3146359.000000
$rtc_local_time,localRTC.weeks:2053,localRTC.seconds:371591.026007,localGtime.weeks:2053,localGtime.seconds:371591.026007
$pseudo_cd_ph,prn:1,pseudo_cd_ph:12.147700409502
measnum = 0,full_prange = 20937986.540300
$oldmeas,msRange:0.000000,x:-13294581.318993,y:12012418.466729,z:19311293.505431,vx:-85.407166,vy:-2500.107910,vz:1513.853271,tb:-0.000017470548
$newmeas,x:-13294575.354374,y:12012593.077828,z:19311187.774465,vx:-85.397003,vy:-2500.094971,vz:1513.882568,tb:-0.000017470547
$pseudo_cd_ph,prn:3,pseudo_cd_ph:5.630748730135
measnum = 1,full_prange = 22953278.662373
$oldmeas,msRange:76.965791,x:-23360076.209937,y:12520382.757123,z:690471.459925,vx:-58.206654,vy:-293.435577,vz:3183.083008,tb:0.000187868704
$newmeas,x:-23360071.752434,y:12520405.223129,z:690227.750650,vx:-58.232124,vy:-293.420807,vz:3183.083984,tb:0.000187868704
$pseudo_cd_ph,prn:7,pseudo_cd_ph:6.500300417664
measnum = 2,full_prange = 22628728.546902
$oldmeas,msRange:75.881877,x:-7342995.391502,y:23324320.193913,z:-9497552.269116,vx:-276.158112,vy:-1266.710938,vz:-2868.289062,tb:-0.000025162293
$newmeas,x:-7342974.546901,y:23324415.805923,z:-9497335.766299,vx:-276.153442,vy:-1266.684570,vz:-2868.304688,tb:-0.000025162292
$pseudo_cd_ph,prn:11,pseudo_cd_ph:9.492089548419
measnum = 3,full_prange = 21557778.899345
$oldmeas,msRange:72.309858,x:-14213424.266482,y:7491069.550158,z:20626591.021977,vx:-1158.904175,vy:-2508.665039,vz:84.760445,tb:-0.000605676633
$newmeas,x:-14213340.931155,y:7491249.945882,z:20626584.925748,vx:-1158.895142,vy:-2508.667969,vz:84.793526,tb:-0.000605676633
source<tow,snapshot
$GNGGA,000000.000,,,,,0,00,,,M,,,,0000*2B
$GNRMC,000000.000,A,,,,,,,060180,,*29
$GPGSA,A,1,,,,,,,,,,,,,,,*1E
$BDGSA,A,1,,,,,,,,,,,,,,,*0F
$GLGSA,A,1,,,,,,,,,,,,,,,*02
$GPGSV,1,1,02,01,00,000,26,03,00,000,23*7C
$B3CN0,0,0,0,0,0,0,0,0,0,0,0,0,0,0*4C
$ini_pos,lastpos_good = 1,ini_pos.x:-1578918.000000,ini_pos.y:5312782.000000,ini_pos.z:3146359.000000
$rtc_local_time,localRTC.weeks:2053,localRTC.seconds:371592.026007,localGtime.weeks:2053,localGtime.seconds:371592.026007
$pseudo_cd_ph,prn:1,pseudo_cd_ph:12.146999780500
measnum = 0,full_prange = 20938186.902172
$oldmeas,msRange:0.000000,x:-13294666.798903,y:12009918.266123,z:19312807.148063,vx:-85.552666,vy:-2500.293457,vz:1513.432129,tb:-0.000017470560
$newmeas,x:-13294660.824065,y:12010092.891849,z:19312701.445494,vx:-85.542503,vy:-2500.280518,vz:1513.461548,tb:-0.000017470559
$pseudo_cd_ph,prn:3,pseudo_cd_ph:5.632690325277
measnum = 1,full_prange = 22952686.911453
$oldmeas,msRange:76.964539,x:-23360134.250263,y:12520089.225176,z:693654.535360,vx:-57.874004,vy:-293.628357,vz:3183.068115,tb:0.000187868703
$newmeas,x:-23360129.818343,y:12520111.705362,z:693410.833501,vx:-57.899475,vy:-293.613586,vz:3183.069336,tb:0.000187868703
$pseudo_cd_ph,prn:7,pseudo_cd_ph:6.498792392884
measnum = 2,full_prange = 22629170.944668
$oldmeas,msRange:75.884083,x:-7343271.580420,y:23323053.307600,z:-9500420.453106,vx:-276.219757,vy:-1267.061768,vz:-2868.079102,tb:-0.000025162305
$newmeas,x:-7343250.730758,y:23323148.947953,z:-9500203.961892,vx:-276.215118,vy:-1267.035278,vz:-2868.094971,tb:-0.000025162304
$pseudo_cd_ph,prn:11,pseudo_cd_ph:9.491118340665
measnum = 3,full_prange = 21558060.390861
$oldmeas,msRange:72.311499,x:-14214583.232845,y:7488560.906170,z:20626675.552417,vx:-1159.028687,vy:-2508.623047,vz:84.300438,tb:-0.000605676630
$newmeas,x:-14214499.887475,y:7488741.301240,z:20626669.489188,vx:-1159.019653,vy:-2508.626221,vz:84.333519,tb:-0.000605676630
$pseudo_cd_ph,prn:18,pseudo_cd_ph:6.273544505428
measnum = 4,full_prange = 22720302.823554
$oldmeas,msRange:76.188135,x:-15036047.381606,y:2029431.494477,z:21307317.919064,vx:-128.432999,vy:-2822.419678,vz:187.286224,tb:0.000053573003
$newmeas,x:-15036037.648533,y:2029645.396510,z:21307303.723884,vx:-128.421127,vy:-2822.418457,vz:187.322189,tb:0.000053573003
$pseudo_cd_ph,prn:22,pseudo_cd_ph:4.703115006463
measnum = 5,full_prange = 22964695.795951
$oldmeas,msRange:77.004303,x:-23868053.243136,y:8139377.403999,z:8450846.993348,vx:678.930176,vy:-876.427246,vz:2848.332275,tb:-0.000701649294
$newmeas,x:-23868105.249794,y:8139444.539390,z:8450628.804934,vx:678.910950,vy:-876.409729,vz:2848.345947,tb:-0.000701649294
$pseudo_cd_ph,prn:28,pseudo_cd_ph:11.921022700424
measnum = 6,full_prange = 21241369.351917
$oldmeas,msRange:71.256174,x:-2041295.951269,y:16519149.970402,z:21327149.036098,vx:-2359.155518,vy:997.808044,vz:-1019.034668,tb:0.000767860172
$newmeas,x:-2041128.796205,y:16519079.272376,z:21327221.237276,vx:-2359.167969,vy:997.801025,vz:-1019.004272,tb:0.000767860172
$pseudo_cd_ph,prn:30,pseudo_cd_ph:11.516129792960
measnum = 7,full_prange = 21100921.104983
$oldmeas,msRange:70.786725,x:-583650.626950,y:26422106.306519,z:1209825.930528,vx:-367.472534,vy:132.228180,vz:-3139.199707,tb:-0.000105517673
$newmeas,x:-583624.762290,y:26422096.998698,z:1210046.883335,vx:-367.474548,vy:132.254547,vz:-3139.197754,tb:-0.000105517672
source<tow,snapshot
nits = 2
$GNGGA,071254.501,2944.9166,N,10633.0787,E,1,11,0.0,267.6,M,,,,0000*19
$GNRMC,071254.501,A,2944.9166,N,10633.0787,E,0.00,0.00,160519,,*1A
$GPGSA,A,3,01,03,07,11,18,22,28,30,,,,,0.0,0.0,0.0*37
$BDGSA,A,3,01,03,04,,,,,,,,,,0.0,0.0,0.0*25
$GLGSA,A,3,,,,,,,,,,,,,0.0,0.0,0.0*2E
$GPGSV,2,1,06,01,00,000,45,03,00,000,39,07,00,000,43,11,00,000,33*75
$GPGSV,2,2,06,18,00,000,25,22,00,000,16*76
$B3CN0,0,0,0,0,0,0,0,0,0,0,0,0,0,0*4C
tow update,371593612.146304
$ini_pos,lastpos_good = 1,ini_pos.x:-1578876.379403,ini_pos.y:5312721.243412,ini_pos.z:3146342.870406
$rtc_local_time,localRTC.weeks:2053,localRTC.seconds:371593.026007,localGtime.weeks:2053,localGtime.seconds:371593.612146
$pseudo_cd_ph,prn:1,pseudo_cd_ph:371593412.146304070950
measnum = 0,full_prange = 20980234.512458
$oldmeas,msRange:0.000000,x:-13294802.680439,y:12005952.218519,z:19315207.132911,vx:-85.783508,vy:-2500.587646,vz:1512.764160,tb:-0.000017470578
$newmeas,x:-13294796.677449,y:12006127.215507,z:19315101.264817,vx:-85.773323,vy:-2500.574463,vz:1512.793701,tb:-0.000017470577
$pseudo_cd_ph,prn:3,pseudo_cd_ph:371593405.634634852409
measnum = 1,full_prange = 22993943.000457
$oldmeas,msRange:76.962741,x:-23360225.628103,y:12519623.247096,z:698703.306930,vx:-57.346436,vy:-293.934204,vz:3183.044434,tb:0.000187868701
$newmeas,x:-23360221.228679,y:12519645.791146,z:698459.168844,vx:-57.371944,vy:-293.919403,vz:3183.045654,tb:0.000187868701
$pseudo_cd_ph,prn:7,pseudo_cd_ph:371593406.497282326221
measnum = 2,full_prange = 22671462.699379
$oldmeas,msRange:75.887748,x:-7343709.781138,y:23321043.129755,z:-9504969.362967,vx:-276.317657,vy:-1267.617920,vz:-2867.746338,tb:-0.000025162323
$newmeas,x:-7343688.885107,y:23321138.990914,z:-9504752.492325,vx:-276.312988,vy:-1267.591431,vz:-2867.762207,tb:-0.000025162322
$pseudo_cd_ph,prn:11,pseudo_cd_ph:371593409.490154743195
measnum = 3,full_prange = 21600188.311323
$oldmeas,msRange:72.314245,x:-14216421.770639,y:7484581.932490,z:20626808.686018,vx:-1159.226074,vy:-2508.556641,vz:83.570793,tb:-0.000605676626
$newmeas,x:-14216338.248173,y:7484762.675290,z:20626802.663509,vx:-1159.217163,vy:-2508.559570,vz:83.603935,tb:-0.000605676626
$pseudo_cd_ph,prn:18,pseudo_cd_ph:371593406.272127389908
measnum = 4,full_prange = 22762566.707322
$oldmeas,msRange:76.191565,x:-15036251.291481,y:2024954.723315,z:21307614.384203,vx:-128.681671,vy:-2822.444336,vz:186.533524,tb:0.000053573000
$newmeas,x:-15036241.521424,y:2025169.025125,z:21307600.219765,vx:-128.669769,vy:-2822.443359,vz:186.569550,tb:0.000053573000
$pseudo_cd_ph,prn:22,pseudo_cd_ph:371593404.704147458076
measnum = 5,full_prange = 23006225.314539
$oldmeas,msRange:77.003901,x:-23866976.049442,y:8137986.981021,z:8455364.620457,vx:679.328247,vy:-876.789246,vz:2848.048096,tb:-0.000701649303
$newmeas,x:-23867028.180696,y:8138054.265598,z:8455146.059274,vx:679.308960,vy:-876.771729,vz:2848.061768,tb:-0.000701649303
$pseudo_cd_ph,prn:28,pseudo_cd_ph:371593411.922658443451
measnum = 6,full_prange = 21282718.023842
$oldmeas,msRange:71.254780,x:-2045037.680157,y:16520732.758300,z:21325532.164834,vx:-2358.876709,vy:997.965698,vz:-1019.715637,tb:0.000767860182
$newmeas,x:-2044870.219501,y:16520661.911461,z:21325604.554901,vx:-2358.889160,vy:997.958679,vz:-1019.685181,tb:0.000767860182
$pseudo_cd_ph,prn:30,pseudo_cd_ph:371593411.515475451946
measnum = 7,full_prange = 21142956.315663
$oldmeas,msRange:70.789036,x:-584233.453524,y:26422315.567503,z:1204846.689030,vx:-367.426971,vy:131.633835,vz:-3139.240967,tb:-0.000105517687
$newmeas,x:-584207.540550,y:26422306.283054,z:1205068.084906,vx:-367.429016,vy:131.660248,vz:-3139.239014,tb:-0.000105517686
Refix G01: 2, 371593.412146, 1035
Refix G03: 2, 371593.405635, -3115
Refix G07: 2, 371593.406497, 2332
Refix G11: 2, 371593.409490, 1441
Refix G17: 2, 371593.408692, -2091
Refix G18: 2, 371593.406272, 2168
Refix G22: 2, 371593.404704, -1711
Refix G28: 2, 371593.411923, -2680
Refix G30: 2, 371593.411515, 964
$GNGGA,071255.482,2944.9090,N,10633.0901,E,1,08,1.7,327.0,M,,,,0000*17
$GNRMC,071255.482,A,2944.9090,N,10633.0901,E,0.52,0.00,160519,,*1E
$GPGSA,A,3,01,03,07,11,18,22,28,30,,,,,3.9,1.7,3.5*3D
$BDGSA,A,3,,,,,,,,,,,,,3.9,1.7,3.5*29
$GLGSA,A,3,,,,,,,,,,,,,3.9,1.7,3.5*24
$GPGSV,2,1,08,01,00,000,45,03,00,000,39,07,00,000,43,11,00,000,43*7C
$GPGSV,2,2,08,18,00,000,39,22,00,000,40,28,00,000,32,30,00,000,31*7C
$BDGSV,1,1,04,01,00,000,41,02,00,000,29,03,00,000,33,04,00,000,36*63
$B3CN0,0,0,0,0,0,0,0,0,0,0,0,0,0,0*4C
$ini_pos,lastpos_good = 1,ini_pos.x:-1578910.719302,ini_pos.y:5312772.043537,ini_pos.z:3146360.140454
$rtc_local_time,localRTC.weeks:2053,localRTC.seconds:371594.543597,localGtime.weeks:2053,localGtime.seconds:371595.000000
$pseudo_cd_ph,prn:1,pseudo_cd_ph:371594929.735655784607
measnum = 0,full_prange = 21059472.313386
$oldmeas,msRange:0.000000,x:-13294921.875592,y:12002481.590433,z:19317306.222588,vx:-85.985550,vy:-2500.844727,vz:1512.179688,tb:-0.000017470594
$newmeas,x:-13294915.835738,y:12002657.266414,z:19317199.995710,vx:-85.975319,vy:-2500.831787,vz:1512.209229,tb:-0.000017470593
$pseudo_cd_ph,prn:3,pseudo_cd_ph:371594923.227989852428
measnum = 1,full_prange = 23071980.650666
$oldmeas,msRange:76.960849,x:-23360304.896264,y:12519215.123689,z:703120.892473,vx:-56.884872,vy:-294.201904,vz:3183.023682,tb:0.000187868700
$newmeas,x:-23360300.517428,y:12519237.764850,z:702875.927423,vx:-56.910465,vy:-294.187042,vz:3183.024902,tb:0.000187868700
$pseudo_cd_ph,prn:7,pseudo_cd_ph:371594924.085392534733
measnum = 2,full_prange = 22751072.694154
$oldmeas,msRange:75.890678,x:-7344093.329116,y:23319283.523858,z:-9508949.172942,vx:-276.403412,vy:-1268.104614,vz:-2867.454834,tb:-0.000025162340
$newmeas,x:-7344072.353202,y:23319379.758557,z:-9508731.562879,vx:-276.398712,vy:-1268.078003,vz:-2867.470703,tb:-0.000025162339
$pseudo_cd_ph,prn:11,pseudo_cd_ph:371594927.079109430313
measnum = 3,full_prange = 21679545.143750
$oldmeas,msRange:72.316392,x:-14218030.726670,y:7481100.463433,z:20626924.227021,vx:-1159.398804,vy:-2508.498291,vz:82.932358,tb:-0.000605676622
$newmeas,x:-14217946.884864,y:7481281.866047,z:20626918.228550,vx:-1159.389771,vy:-2508.501465,vz:82.965622,tb:-0.000605676622
$pseudo_cd_ph,prn:18,pseudo_cd_ph:371594923.860389292240
measnum = 4,full_prange = 22842131.229575
$oldmeas,msRange:76.194395,x:-15036430.033789,y:2021037.568522,z:21307872.808401,vx:-128.899246,vy:-2822.466064,vz:185.874908,tb:0.000053572998
$newmeas,x:-15036420.213005,y:2021252.621045,z:21307858.644629,vx:-128.887299,vy:-2822.464844,vz:185.911057,tb:0.000053572998
$pseudo_cd_ph,prn:22,pseudo_cd_ph:371594922.296135187149
measnum = 5,full_prange = 23084672.860337
$oldmeas,msRange:77.003256,x:-23866032.999642,y:8136769.906074,z:8459317.121816,vx:679.676453,vy:-877.106018,vz:2847.799316,tb:-0.000701649311
$newmeas,x:-23866085.335465,y:8136837.444472,z:8459097.834527,vx:679.657104,vy:-877.088440,vz:2847.813232,tb:-0.000701649311
$pseudo_cd_ph,prn:28,pseudo_cd_ph:371594929.515563547611
measnum = 6,full_prange = 21360890.552509
$oldmeas,msRange:71.253285,x:-2048311.286531,y:16522117.884354,z:21324116.535328,vx:-2358.632568,vy:998.103577,vz:-1020.311401,tb:0.000767860191
$newmeas,x:-2048143.228173,y:16522046.767469,z:21324189.233734,vx:-2358.645264,vy:998.096497,vz:-1020.280823,tb:0.000767860190
$pseudo_cd_ph,prn:30,pseudo_cd_ph:371594929.104892790318
measnum = 7,full_prange = 21222174.444105
$oldmeas,msRange:70.790734,x:-584743.360818,y:26422497.895111,z:1200489.857106,vx:-367.387238,vy:131.113770,vz:-3139.276855,tb:-0.000105517698
$newmeas,x:-584717.353567,y:26422488.612687,z:1200712.085049,vx:-367.389252,vy:131.140289,vz:-3139.274902,tb:-0.000105517698
Refix G01: 2, 371594.929736, 1041
Refix G03: 2, 371594.923228, -3109
Refix G07: 2, 371594.924085, 2337
Refix G11: 2, 371594.927079, 1446
Refix G17: 2, 371594.926284, -2087
Refix G18: 2, 371594.923860, 2174
Refix G22: 2, 371594.922296, -1705
Refix G28: 2, 371594.929516, -2675
Refix G30: 2, 371594.929105, 969
$GNGGA,071257.000,2944.9081,N,10633.0897,E,1,10,1.7,318.6,M,,,,0000*16
$GNRMC,071257.000,A,2944.9081,N,10633.0897,E,0.58,0.00,160519,,*16
$GPGSA,A,3,01,03,07,11,18,22,28,30,,,,,3.9,1.7,3.5*3D
$BDGSA,A,3,01,04,,,,,,,,,,,3.9,1.7,3.5*2C
$GLGSA,A,3,,,,,,,,,,,,,3.9,1.7,3.5*24
$GPGSV,3,1,09,01,51,045,45,03,26,114,39,07,26,178,43,11,38,042,42*7F
$GPGSV,3,2,09,18,24,041,40,22,27,089,39,28,59,345,43,30,50,210,45*76
$GPGSV,3,3,09,17,42,291,00*4A
$BDGSV,3,1,12,01,40,125,40,02,47,219,34,03,55,171,33,04,23,109,39*61
$BDGSV,3,2,12,08,87,275,43,10,83,007,43,13,59,222,43,07,63,119,00*60
$BDGSV,3,3,12,27,53,024,00,29,06,250,00,30,51,280,00,32,07,145,00*6F
$B3CN0,0,0,0,0,0,0,0,0,0,0,0,0,0,0*4C
$ini_pos,lastpos_good = 1,ini_pos.x:-1578908.295377,ini_pos.y:5312766.079483,ini_pos.z:3146354.549076
$rtc_local_time,localRTC.weeks:2053,localRTC.seconds:371595.543597,localGtime.weeks:2053,localGtime.seconds:371596.000000
$pseudo_cd_ph,prn:1,pseudo_cd_ph:371595929.734964847565
measnum = 0,full_prange = 21059669.780477
$oldmeas,msRange:0.000000,x:-13295007.933939,y:11999980.653116,z:19318818.191576,vx:-86.131157,vy:-2501.030029,vz:1511.758423,tb:-0.000017470606
$newmeas,x:-13295001.883801,y:12000156.343758,z:19318711.993291,vx:-86.120926,vy:-2501.017090,vz:1511.787964,tb:-0.000017470605
$pseudo_cd_ph,prn:3,pseudo_cd_ph:371595923.229934096336
measnum = 1,full_prange = 23071388.113509
$oldmeas,msRange:76.959609,x:-23360361.614860,y:12518920.825329,z:706303.908533,vx:-56.552330,vy:-294.394836,vz:3183.008545,tb:0.000187868698
$newmeas,x:-23360357.261728,y:12518943.480757,z:706058.950934,vx:-56.577919,vy:-294.380005,vz:3183.009766,tb:0.000187868699
$pseudo_cd_ph,prn:7,pseudo_cd_ph:371595924.083880066872
measnum = 2,full_prange = 22751516.449966
$oldmeas,msRange:75.892892,x:-7344369.763446,y:23318015.244018,z:-9511816.522705,vx:-276.465271,vy:-1268.455200,vz:-2867.244873,tb:-0.000025162351
$newmeas,x:-7344348.782429,y:23318111.507201,z:-9511598.924338,vx:-276.460571,vy:-1268.428589,vz:-2867.260742,tb:-0.000025162350
$pseudo_cd_ph,prn:11,pseudo_cd_ph:371595927.078158020973
measnum = 3,full_prange = 21679820.702750
$oldmeas,msRange:72.318055,x:-14219190.187640,y:7478591.986233,z:20627006.929363,vx:-1159.523193,vy:-2508.456299,vz:82.472336,tb:-0.000605676620
$newmeas,x:-14219106.335772,y:7478773.388109,z:20627000.964082,vx:-1159.514160,vy:-2508.459229,vz:82.505600,tb:-0.000605676620
$pseudo_cd_ph,prn:18,pseudo_cd_ph:371595923.858981549740
measnum = 4,full_prange = 22842543.592497
$oldmeas,msRange:76.196515,x:-15036559.011419,y:2018215.094938,z:21308058.446022,vx:-129.056015,vy:-2822.481445,vz:185.400345,tb:0.000053572996
$newmeas,x:-15036549.178512,y:2018430.152518,z:21308044.318153,vx:-129.044083,vy:-2822.480225,vz:185.436508,tb:0.000053572996
$pseudo_cd_ph,prn:22,pseudo_cd_ph:371595922.297184705734
measnum = 5,full_prange = 23084348.553694
$oldmeas,msRange:77.002910,x:-23865353.197812,y:8135892.685963,z:8462164.831411,vx:679.927246,vy:-877.334290,vz:2847.620117,tb:-0.000701649317
$newmeas,x:-23865405.552215,y:8135960.240990,z:8461945.561009,vx:679.907959,vy:-877.316711,vz:2847.633789,tb:-0.000701649317
$pseudo_cd_ph,prn:28,pseudo_cd_ph:371595929.517221748829
measnum = 6,full_prange = 21360383.771008
$oldmeas,msRange:71.252335,x:-2050669.831168,y:16523116.037546,z:21323096.009311,vx:-2358.456787,vy:998.202881,vz:-1020.740662,tb:0.000767860197
$newmeas,x:-2050501.789332,y:16523044.915275,z:21323168.736577,vx:-2358.469238,vy:998.195801,vz:-1020.710083,tb:0.000767860197
$pseudo_cd_ph,prn:30,pseudo_cd_ph:371595929.104244768620
measnum = 7,full_prange = 21222359.046442
$oldmeas,msRange:70.792090,x:-585110.733751,y:26422628.821509,z:1197350.567461,vx:-367.358673,vy:130.739029,vz:-3139.302734,tb:-0.000105517707
$newmeas,x:-585084.728298,y:26422619.565532,z:1197572.799165,vx:-367.360687,vy:130.765564,vz:-3139.300781,tb:-0.000105517706
Refix G01: 2, 371595.929735, 1035
Refix G03: 2, 371595.923230, -3115
Refix G07: 2, 371595.924084, 2332
Refix G11: 2, 371595.927078, 1441
Refix G17: 2, 371595.926286, -2090
Refix G18: 2, 371595.923859, 2169
Refix G22: 2, 371595.922297, -1710
Refix G28: 2, 371595.929517, -2680
Refix G30: 2, 371595.929104, 965
$GNGGA,071258.000,2944.9087,N,10633.0884,E,1,13,0.9,309.6,M,,,,0000*11
$GNRMC,071258.000,A,2944.9087,N,10633.0884,E,0.16,0.00,160519,,*17
$GPGSA,A,3,01,03,07,11,18,22,28,30,,,,,1.0,0.9,0.5*3A
$BDGSA,A,3,01,04,08,10,13,,,,,,,,1.0,0.9,0.5*20
$GLGSA,A,3,,,,,,,,,,,,,1.0,0.9,0.5*23
$GPGSV,3,1,09,01,51,045,45,03,26,114,39,07,26,178,42,11,38,042,42*7E
$GPGSV,3,2,09,18,24,041,40,22,27,089,39,28,59,345,43,30,50,210,45*76
$GPGSV,3,3,09,17,42,291,00*4A
$BDGSV,3,1,12,01,40,125,40,02,47,219,35,03,55,171,33,04,23,109,39*60
$BDGSV,3,2,12,08,87,275,43,10,83,007,42,13,59,222,43,27,53,024,28*65
$BDGSV,3,3,12,30,51,280,24,07,63,119,00,29,06,250,00,32,07,145,00*67
$B3CN0,0,0,0,0,0,0,0,0,0,0,0,0,0,0*4C
$ini_pos,lastpos_good = 1,ini_pos.x:-1578903.867450,ini_pos.y:5312758.652941,ini_pos.z:3146351.046617
$rtc_local_time,localRTC.weeks:2053,localRTC.seconds:371596.543597,localGtime.weeks:2053,localGtime.seconds:371597.000000
$pseudo_cd_ph,prn:1,pseudo_cd_ph:371596929.734275937080
measnum = 0,full_prange = 21059866.640021
$oldmeas,msRange:0.000000,x:-13295094.137908,y:11997479.530571,z:19320329.739334,vx:-86.276787,vy:-2501.215332,vz:1511.337158,tb:-0.000017470617
$newmeas,x:-13295088.077482,y:11997655.235865,z:19320223.569648,vx:-86.266556,vy:-2501.202148,vz:1511.366821,tb:-0.000017470617
$pseudo_cd_ph,prn:3,pseudo_cd_ph:371596923.231879055500
measnum = 1,full_prange = 23070795.361924
$oldmeas,msRange:76.958378,x:-23360418.000928,y:12518626.334002,z:709486.909481,vx:-56.219814,vy:-294.587830,vz:3182.993408,tb:0.000187868697
$newmeas,x:-23360413.673497,y:12518649.003699,z:709241.959341,vx:-56.245403,vy:-294.572968,vz:3182.994629,tb:0.000187868697
$pseudo_cd_ph,prn:7,pseudo_cd_ph:371596924.082369804382
measnum = 2,full_prange = 22751959.544624
$oldmeas,msRange:75.895115,x:-7344646.259645,y:23316746.613590,z:-9514683.662388,vx:-276.527161,vy:-1268.805786,vz:-2867.034668,tb:-0.000025162363
$newmeas,x:-7344625.273523,y:23316842.905254,z:-9514466.075729,vx:-276.522461,vy:-1268.779175,vz:-2867.050781,tb:-0.000025162362
$pseudo_cd_ph,prn:11,pseudo_cd_ph:371596927.077209055424
measnum = 3,full_prange = 21680095.529119
$oldmeas,msRange:72.319716,x:-14220349.773005,y:7476083.551152,z:20627089.171682,vx:-1159.647583,vy:-2508.414062,vz:82.012306,tb:-0.000605676617
$newmeas,x:-14220265.911079,y:7476264.952280,z:20627083.239593,vx:-1159.638550,vy:-2508.417236,vz:82.045578,tb:-0.000605676617
$pseudo_cd_ph,prn:18,pseudo_cd_ph:371596923.857575953007
measnum = 4,full_prange = 22842955.312135
$oldmeas,msRange:76.198632,x:-15036688.145824,y:2015392.605967,z:21308243.609082,vx:-129.212799,vy:-2822.496826,vz:184.925781,tb:0.000053572994
$newmeas,x:-15036678.300795,y:2015607.668594,z:21308229.517118,vx:-129.200851,vy:-2822.495605,vz:184.961945,tb:0.000053572994
$pseudo_cd_ph,prn:22,pseudo_cd_ph:371596922.298243522644
measnum = 5,full_prange = 23084021.459483
$oldmeas,msRange:77.002570,x:-23864673.145165,y:8135015.237562,z:8465012.361669,vx:680.178040,vy:-877.562561,vz:2847.440674,tb:-0.000701649323
$newmeas,x:-23864725.518137,y:8135082.809211,z:8464793.108186,vx:680.158752,vy:-877.544983,vz:2847.454590,tb:-0.000701649322
$pseudo_cd_ph,prn:28,pseudo_cd_ph:371596929.518883824348
measnum = 6,full_prange = 21359875.828020
$oldmeas,msRange:71.251383,x:-2053028.199852,y:16524114.290001,z:21322075.054041,vx:-2358.280762,vy:998.302124,vz:-1021.169922,tb:0.000767860203
$newmeas,x:-2052860.174550,y:16524043.162350,z:21322147.810162,vx:-2358.293213,vy:998.295044,vz:-1021.139343,tb:0.000767860203
$pseudo_cd_ph,prn:30,pseudo_cd_ph:371596929.103599011898
measnum = 7,full_prange = 21222542.969757
$oldmeas,msRange:70.793451,x:-585478.078130,y:26422759.373173,z:1194211.252037,vx:-367.330139,vy:130.364304,vz:-3139.328369,tb:-0.000105517715
$newmeas,x:-585452.074471,y:26422750.143644,z:1194433.487489,vx:-367.332153,vy:130.390823,vz:-3139.326660,tb:-0.000105517715
Refix G01: 2, 371596.929734, 1035
Refix G03: 2, 371596.923232, -3115
Refix G07: 2, 371596.924082, 2332
Refix G11: 2, 371596.927077, 1441
Refix G17: 2, 371596.926287, -2091
Refix G18: 2, 371596.923858, 2169
Refix G22: 2, 371596.922298, -1711
Refix G28: 2, 371596.929519, -2681
Refix G30: 2, 371596.929104, 964
$GNGGA,071259.000,2944.9086,N,10633.0886,E,1,13,0.9,308.8,M,,,,0000*1C
$GNRMC,071259.000,A,2944.9086,N,10633.0886,E,0.23,0.00,160519,,*13
$GPGSA,A,3,01,03,07,11,18,22,28,30,,,,,1.0,0.9,0.5*3A
$BDGSA,A,3,01,04,08,10,13,,,,,,,,1.0,0.9,0.5*20
$GLGSA,A,3,,,,,,,,,,,,,1.0,0.9,0.5*23
$GPGSV,3,1,09,01,51,045,45,03,26,114,39,07,26,178,43,11,38,042,42*7F
$GPGSV,3,2,09,18,24,041,40,22,27,089,39,28,59,345,44,30,50,210,44*70
$GPGSV,3,3,09,17,42,291,00*4A
$BDGSV,3,1,12,01,40,125,40,02,47,219,37,03,55,171,32,04,23,109,40*6D
$BDGSV,3,2,12,08,87,275,43,10,83,007,42,13,59,222,43,27,53,024,45*6E
$BDGSV,3,3,12,29,06,250,23,30,51,280,44,32,07,145,41,07,63,119,00*65
$B3CN0,0,0,0,0,0,0,0,0,0,0,0,0,0,0*4C
$ini_pos,lastpos_good = 1,ini_pos.x:-1578903.911865,ini_pos.y:5312757.969227,ini_pos.z:3146350.450952
$rtc_local_time,localRTC.weeks:2053,localRTC.seconds:371597.543597,localGtime.weeks:2053,localGtime.seconds:371598.000000
$pseudo_cd_ph,prn:1,pseudo_cd_ph:371597929.733583688736
measnum = 0,full_prange = 21060064.500230
$oldmeas,msRange:0.000000,x:-13295180.487522,y:11994978.222863,z:19321840.865830,vx:-86.422447,vy:-2501.400391,vz:1510.915894,tb:-0.000017470629
$newmeas,x:-13295174.416807,y:11995153.942814,z:19321734.724741,vx:-86.412216,vy:-2501.387451,vz:1510.945557,tb:-0.000017470628
$pseudo_cd_ph,prn:3,pseudo_cd_ph:371597923.233827769756
measnum = 1,full_prange = 23070201.484591
$oldmeas,msRange:76.957128,x:-23360474.054495,y:12518331.649665,z:712669.895251,vx:-55.887329,vy:-294.780853,vz:3182.978271,tb:0.000187868696
$newmeas,x:-23360469.752762,y:12518354.333633,z:712424.952587,vx:-55.912914,vy:-294.766022,vz:3182.979492,tb:0.000187868696
$pseudo_cd_ph,prn:7,pseudo_cd_ph:371597924.080856680870
measnum = 2,full_prange = 22752403.496995
$oldmeas,msRange:75.897323,x:-7344922.817760,y:23315477.632604,z:-9517550.591927,vx:-276.589111,vy:-1269.156250,vz:-2866.824463,tb:-0.000025162375
$newmeas,x:-7344901.826527,y:23315573.952751,z:-9517333.016973,vx:-276.584381,vy:-1269.129639,vz:-2866.840576,tb:-0.000025162374
$pseudo_cd_ph,prn:11,pseudo_cd_ph:371597927.076258480549
measnum = 3,full_prange = 21680370.837953
$oldmeas,msRange:72.321359,x:-14221509.482738,y:7473575.158252,z:20627170.953975,vx:-1159.771973,vy:-2508.371826,vz:81.552284,tb:-0.000605676614
$newmeas,x:-14221425.610754,y:7473756.558631,z:20627165.055079,vx:-1159.762939,vy:-2508.375000,vz:81.585548,tb:-0.000605676615
$pseudo_cd_ph,prn:18,pseudo_cd_ph:371597923.856165647507
measnum = 4,full_prange = 22843368.443425
$oldmeas,msRange:76.200737,x:-15036817.437005,y:2012570.101680,z:21308428.297577,vx:-129.369568,vy:-2822.511963,vz:184.451218,tb:0.000053572992
$newmeas,x:-15036807.579851,y:2012785.169361,z:21308414.241520,vx:-129.357620,vy:-2822.510742,vz:184.487381,tb:0.000053572993
$pseudo_cd_ph,prn:22,pseudo_cd_ph:371597922.299296855927
measnum = 5,full_prange = 23083696.009223
$oldmeas,msRange:77.002211,x:-23863992.841746,y:8134137.560849,z:8467859.712532,vx:680.428833,vy:-877.790894,vz:2847.261230,tb:-0.000701649329
$newmeas,x:-23864045.233288,y:8134205.149125,z:8467640.475955,vx:680.409485,vy:-877.773315,vz:2847.275146,tb:-0.000701649328
$pseudo_cd_ph,prn:28,pseudo_cd_ph:371597929.520548284054
measnum = 6,full_prange = 21359367.170271
$oldmeas,msRange:71.250409,x:-2055386.392533,y:16525112.641677,z:21321053.669539,vx:-2358.104736,vy:998.401306,vz:-1021.599121,tb:0.000767860210
$newmeas,x:-2055218.383774,y:16525041.508651,z:21321126.454508,vx:-2358.117188,vy:998.394226,vz:-1021.568542,tb:0.000767860209
$pseudo_cd_ph,prn:30,pseudo_cd_ph:371597929.102952539921
measnum = 7,full_prange = 21222727.107500
$oldmeas,msRange:70.794792,x:-585845.394002,y:26422889.550097,z:1191071.910900,vx:-367.301636,vy:129.989548,vz:-3139.354004,tb:-0.000105517724
$newmeas,x:-585819.392134,y:26422880.347016,z:1191294.150098,vx:-367.303650,vy:130.016083,vz:-3139.352295,tb:-0.000105517723
Refix G01: 2, 371597.929734, 1042
Refix G03: 2, 371597.923234, -3108
Refix G07: 2, 371597.924081, 2338
Refix G11: 2, 371597.927076, 1447
Refix G17: 2, 371597.926288, -2085
Refix G18: 2, 371597.923856, 2175
Refix G22: 2, 371597.922299, -1704
Refix G28: 2, 371597.929521, -2674
Refix G30: 2, 371597.929103, 971
$GNGGA,071300.000,2944.9086,N,10633.0876,E,1,14,0.8,304.0,M,,,,0000*1C
$GNRMC,071300.000,A,2944.9086,N,10633.0876,E,0.09,0.00,160519,,*19
$GPGSA,A,3,01,03,07,11,18,22,28,30,,,,,1.0,0.8,0.5*3B
$BDGSA,A,3,01,02,04,08,10,13,,,,,,,1.0,0.8,0.5*23
$GLGSA,A,3,,,,,,,,,,,,,1.0,0.8,0.5*22
$GPGSV,3,1,09,01,51,045,45,03,26,114,40,07,26,178,42,11,38,042,43*71
$GPGSV,3,2,09,18,24,041,40,22,27,089,40,28,59,345,44,30,50,210,44*7E
$GPGSV,3,3,09,17,42,291,00*4A
$BDGSV,3,1,12,01,40,125,41,02,47,219,36,03,55,171,32,04,23,109,40*6D
$BDGSV,3,2,12,08,87,275,43,10,83,007,43,13,59,222,42,27,53,024,45*6E
$BDGSV,3,3,12,29,06,250,37,30,51,280,44,32,07,145,41,07,63,119,00*60
$B3CN0,36,0,0,0,0,0,0,0,0,0,0,0,0,0*79
$ini_pos,lastpos_good = 1,ini_pos.x:-1578901.312320,ini_pos.y:5312754.403882,ini_pos.z:3146348.056164
$rtc_local_time,localRTC.weeks:2053,localRTC.seconds:371598.543597,localGtime.weeks:2053,localGtime.seconds:371599.000000
$pseudo_cd_ph,prn:1,pseudo_cd_ph:371598929.732886970043
measnum = 0,full_prange = 21060263.700616
$oldmeas,msRange:0.000000,x:-13295266.982809,y:11992476.730054,z:19323351.571032,vx:-86.568138,vy:-2501.585449,vz:1510.494629,tb:-0.000017470641
$newmeas,x:-13295260.901802,y:11992652.464668,z:19323245.458535,vx:-86.557899,vy:-2501.572510,vz:1510.524170,tb:-0.000017470640
$pseudo_cd_ph,prn:3,pseudo_cd_ph:371598923.235767066479
measnum = 1,full_prange = 23069610.430563
$oldmeas,msRange:76.955888,x:-23360529.775588,y:12518036.772273,z:715852.865774,vx:-55.554867,vy:-294.973938,vz:3182.962891,tb:0.000187868695
$newmeas,x:-23360525.499549,y:12518059.470518,z:715607.930561,vx:-55.580448,vy:-294.959076,vz:3182.964111,tb:0.000187868695
$pseudo_cd_ph,prn:7,pseudo_cd_ph:371598924.079337775707
measnum = 2,full_prange = 22752849.182661
$oldmeas,msRange:75.899536,x:-7345199.437837,y:23314208.301089,z:-9520417.311260,vx:-276.651093,vy:-1269.506836,vz:-2866.614258,tb:-0.000025162386
$newmeas,x:-7345178.441489,y:23314304.649725,z:-9520199.748000,vx:-276.646362,vy:-1269.480225,vz:-2866.630371,tb:-0.000025162385
$pseudo_cd_ph,prn:11,pseudo_cd_ph:371598927.075305223465
measnum = 3,full_prange = 21680646.950892
$oldmeas,msRange:72.323013,x:-14222669.316813,y:7471066.807592,z:20627252.276239,vx:-1159.896240,vy:-2508.329590,vz:81.092255,tb:-0.000605676612
$newmeas,x:-14222585.434769,y:7471248.207224,z:20627246.410537,vx:-1159.887329,vy:-2508.332764,vz:81.125519,tb:-0.000605676612
$pseudo_cd_ph,prn:17,pseudo_cd_ph:6.289567889589
measnum = 4,full_prange = 22114426.744088
$oldmeas,msRange:73.769845,x:10150374.034443,y:19294350.279938,z:15637939.047010,vx:-1655.059448,vy:-950.731995,vz:2299.079102,tb:0.000055519695
$newmeas,x:10150496.120410,y:19294420.411285,z:15637769.452754,vx:-1655.037842,vy:-950.727966,vz:2299.102783,tb:0.000055519694
$pseudo_cd_ph,prn:18,pseudo_cd_ph:371598923.854748129845
measnum = 5,full_prange = 22843783.736868
$oldmeas,msRange:76.202850,x:-15036946.884960,y:2009747.582147,z:21308612.511505,vx:-129.526352,vy:-2822.527344,vz:183.976654,tb:0.000053572991
$newmeas,x:-15036937.015681,y:2009962.654897,z:21308598.491353,vx:-129.514404,vy:-2822.526123,vz:184.012802,tb:0.000053572991
$pseudo_cd_ph,prn:22,pseudo_cd_ph:371598922.300342857838
measnum = 6,full_prange = 23083372.756853
$oldmeas,msRange:77.001864,x:-23863312.287601,y:8133259.655801,z:8470706.883939,vx:680.679504,vy:-878.019226,vz:2847.081787,tb:-0.000701649335
$newmeas,x:-23863364.697713,y:8133327.260712,z:8470487.664252,vx:680.660217,vy:-878.001648,vz:2847.095459,tb:-0.000701649334
$pseudo_cd_ph,prn:28,pseudo_cd_ph:371598929.522210717201
measnum = 7,full_prange = 21358859.120069
$oldmeas,msRange:71.249447,x:-2057744.409163,y:16526111.092533,z:21320031.855824,vx:-2357.928711,vy:998.500488,vz:-1022.028320,tb:0.000767860216
$newmeas,x:-2057576.416944,y:16526039.954134,z:21320104.669640,vx:-2357.941162,vy:998.493408,vz:-1021.997742,tb:0.000767860215
$pseudo_cd_ph,prn:30,pseudo_cd_ph:371598929.102303504944
measnum = 8,full_prange = 21222912.013610
$oldmeas,msRange:70.796141,x:-586212.681416,y:26423019.352274,z:1187932.544119,vx:-367.273224,vy:129.614807,vz:-3139.379639,tb:-0.000105517732
$newmeas,x:-586186.681335,y:26423010.175642,z:1188154.787067,vx:-367.275238,vy:129.641327,vz:-3139.377930,tb:-0.000105517732
Refix G01: 2, 371598.929733, 1042
Refix G03: 2, 371598.923236, -3109
Refix G07: 2, 371598.924079, 2337
Refix G11: 2, 371598.927075, 1447
Refix G17: 2, 371598.926290, -2085
Refix G18: 2, 371598.923855, 2174
Refix G22: 2, 371598.922300, -1705
Refix G28: 2, 371598.929522, -2675
Refix G30: 2, 371598.929102, 971
$GNGGA,071301.000,2944.9090,N,10633.0866,E,1,14,0.8,300.2,M,,,,0000*1D
$GNRMC,071301.000,A,2944.9090,N,10633.0866,E,0.04,0.00,160519,,*13
$GPGSA,A,3,01,03,07,11,18,22,28,30,,,,,1.0,0.8,0.5*3B
$BDGSA,A,3,01,02,04,08,10,13,,,,,,,1.0,0.8,0.5*23
$GLGSA,A,3,,,,,,,,,,,,,1.0,0.8,0.5*22
$GPGSV,3,1,09,01,51,045,45,03,26,114,40,07,26,178,42,11,38,042,43*71
$GPGSV,3,2,09,17,42,291,25,18,24,041,39,22,27,089,40,28,59,345,43*7F
$GPGSV,3,3,09,30,50,210,45*44
$BDGSV,3,1,12,01,40,125,41,02,47,219,38,03,55,171,32,04,23,109,39*6D
$BDGSV,3,2,12,08,87,275,43,10,83,007,43,13,59,222,42,27,53,024,44*6F
$BDGSV,3,3,12,29,06,250,37,30,51,280,44,32,07,145,41,07,63,119,00*60
$B3CN0,20,36,0,0,0,0,0,0,0,0,0,0,0,0*4B
$ini_pos,lastpos_good = 1,ini_pos.x:-1578898.665036,ini_pos.y:5312751.423523,ini_pos.z:3146346.823057
$rtc_local_time,localRTC.weeks:2053,localRTC.seconds:371599.543597,localGtime.weeks:2053,localGtime.seconds:371600.000000
$pseudo_cd_ph,prn:1,pseudo_cd_ph:371599929.732197046280
measnum = 0,full_prange = 21060460.863934
$oldmeas,msRange:0.000000,x:-13295353.623794,y:11989975.052207,z:19324861.854907,vx:-86.713844,vy:-2501.770508,vz:1510.073242,tb:-0.000017470652
$newmeas,x:-13295347.532494,y:11990150.801462,z:19324755.771017,vx:-86.703606,vy:-2501.757324,vz:1510.102905,tb:-0.000017470651
$pseudo_cd_ph,prn:3,pseudo_cd_ph:371599923.237712085247
measnum = 1,full_prange = 23069017.661109
$oldmeas,msRange:76.954648,x:-23360585.164234,y:12517741.701783,z:719035.820982,vx:-55.222435,vy:-295.167053,vz:3182.947510,tb:0.000187868694
$newmeas,x:-23360580.913886,y:12517764.414305,z:718790.893244,vx:-55.248013,vy:-295.152191,vz:3182.948730,tb:0.000187868694
$pseudo_cd_ph,prn:7,pseudo_cd_ph:371599924.077826857567
measnum = 2,full_prange = 22753292.473877
$oldmeas,msRange:75.901751,x:-7345476.119923,y:23312938.619075,z:-9523283.820322,vx:-276.713104,vy:-1269.857300,vz:-2866.404053,tb:-0.000025162398
$newmeas,x:-7345455.118458,y:23313034.996189,z:-9523066.268784,vx:-276.708405,vy:-1269.830688,vz:-2866.419922,tb:-0.000025162397
$pseudo_cd_ph,prn:11,pseudo_cd_ph:371599927.074356019497
measnum = 3,full_prange = 21680921.848737
$oldmeas,msRange:72.324664,x:-14223829.275203,y:7468558.499233,z:20627333.138471,vx:-1160.020630,vy:-2508.287354,vz:80.632217,tb:-0.000605676609
$newmeas,x:-14223745.383106,y:7468739.898104,z:20627327.305964,vx:-1160.011597,vy:-2508.290283,vz:80.665489,tb:-0.000605676609
$pseudo_cd_ph,prn:17,pseudo_cd_ph:6.290838135303
measnum = 4,full_prange = 22114036.273076
$oldmeas,msRange:73.769248,x:10148718.827927,y:19293399.520885,z:15640237.964610,vx:-1655.353638,vy:-950.786194,vz:2298.756348,tb:0.000055519705
$newmeas,x:10148840.933435,y:19293469.654990,z:15640068.397160,vx:-1655.331909,vy:-950.782166,vz:2298.780029,tb:0.000055519704
$pseudo_cd_ph,prn:18,pseudo_cd_ph:371599923.853338360786
measnum = 5,full_prange = 22844196.707337
$oldmeas,msRange:76.204961,x:-15037076.489691,y:2006925.047440,z:21308796.250860,vx:-129.683121,vy:-2822.542480,vz:183.502075,tb:0.000053572989
$newmeas,x:-15037066.608287,y:2007140.125231,z:21308782.266617,vx:-129.671173,vy:-2822.541260,vz:183.538239,tb:0.000053572989
$pseudo_cd_ph,prn:22,pseudo_cd_ph:371599922.301393508911
measnum = 6,full_prange = 23083048.110699
$oldmeas,msRange:77.001515,x:-23862631.482777,y:8132381.522396,z:8473553.875831,vx:680.930176,vy:-878.247620,vz:2846.902100,tb:-0.000701649340
$newmeas,x:-23862683.911451,y:8132449.143941,z:8473334.673051,vx:680.910889,vy:-878.230042,vz:2846.916016,tb:-0.000701649340
$pseudo_cd_ph,prn:28,pseudo_cd_ph:371599929.523878753185
measnum = 7,full_prange = 21358349.390179
$oldmeas,msRange:71.248480,x:-2060102.249691,y:16527109.642527,z:21319009.612915,vx:-2357.752441,vy:998.599609,vz:-1022.457520,tb:0.000767860222
$newmeas,x:-2059934.274030,y:16527038.498765,z:21319082.455570,vx:-2357.765137,vy:998.592529,vz:-1022.426941,tb:0.000767860221
$pseudo_cd_ph,prn:30,pseudo_cd_ph:371599929.101658225060
measnum = 8,full_prange = 21223095.793972
$oldmeas,msRange:70.797489,x:-586579.940422,y:26423148.779697,z:1184793.151761,vx:-367.244843,vy:129.240051,vz:-3139.405273,tb:-0.000105517741
$newmeas,x:-586553.942124,y:26423139.629515,z:1185015.398442,vx:-367.246826,vy:129.266571,vz:-3139.403320,tb:-0.000105517740
Refix G01: 2, 371599.929732, 1036
Refix G03: 2, 371599.923238, -3115
Refix G07: 2, 371599.924078, 2331
Refix G11: 2, 371599.927074, 1441
Refix G17: 2, 371599.926291, -2091
Refix G18: 2, 371599.923853, 2169
Refix G22: 2, 371599.922301, -1710
Refix G28: 2, 371599.929524, -2681
Refix G30: 2, 371599.929102, 965
$GNGGA,071302.000,2944.9090,N,10633.0865,E,1,14,0.8,300.1,M,,,,0000*1E
$GNRMC,071302.000,A,2944.9090,N,10633.0865,E,0.08,0.00,160519,,*1F
$GPGSA,A,3,01,03,07,11,18,22,28,30,,,,,1.0,0.8,0.5*3B
$BDGSA,A,3,01,02,04,08,10,13,,,,,,,1.0,0.8,0.5*23
$GLGSA,A,3,,,,,,,,,,,,,1.0,0.8,0.5*22
$GPGSV,3,1,09,01,51,045,46,03,26,114,39,07,26,178,43,11,38,042,43*7D
$GPGSV,3,2,09,17,42,291,44,18,24,041,40,22,27,089,40,28,59,345,43*76
$GPGSV,3,3,09,30,50,210,44*45
$BDGSV,3,1,12,01,40,125,41,02,47,219,38,03,55,171,31,04,23,109,40*60
$BDGSV,3,2,12,08,87,275,43,10,83,007,42,13,59,222,42,27,53,024,44*6E
$BDGSV,3,3,12,29,06,250,37,30,51,280,43,32,07,145,41,07,63,119,00*67
$B3CN0,0,0,0,0,0,0,0,0,0,0,0,0,0,0*4C
$ini_pos,lastpos_good = 1,ini_pos.x:-1578898.570325,ini_pos.y:5312751.392822,ini_pos.z:3146346.715415
$rtc_local_time,localRTC.weeks:2053,localRTC.seconds:371600.543597,localGtime.weeks:2053,localGtime.seconds:371601.000000
$pseudo_cd_ph,prn:1,pseudo_cd_ph:371600929.731508553028
measnum = 0,full_prange = 21060657.598395
$oldmeas,msRange:0.000000,x:-13295440.410504,y:11987473.189384,z:19326371.717424,vx:-86.859581,vy:-2501.955322,vz:1509.651855,tb:-0.000017470664
$newmeas,x:-13295434.308909,y:11987648.953274,z:19326265.662144,vx:-86.849342,vy:-2501.942383,vz:1509.681519,tb:-0.000017470663
$pseudo_cd_ph,prn:3,pseudo_cd_ph:371600923.239660620689
measnum = 1,full_prange = 23068423.837382
$oldmeas,msRange:76.953398,x:-23360640.220460,y:12517446.438152,z:722218.760807,vx:-54.890026,vy:-295.360229,vz:3182.932129,tb:0.000187868693
$newmeas,x:-23360635.995800,y:12517469.164953,z:721973.840560,vx:-54.915604,vy:-295.345367,vz:3182.933350,tb:0.000187868693
$pseudo_cd_ph,prn:7,pseudo_cd_ph:371600924.076318264008
measnum = 2,full_prange = 22753735.068202
$oldmeas,msRange:75.903958,x:-7345752.864063,y:23311668.586592,z:-9526150.119049,vx:-276.775177,vy:-1270.207764,vz:-2866.193604,tb:-0.000025162410
$newmeas,x:-7345731.857478,y:23311764.992180,z:-9525932.579247,vx:-276.770477,vy:-1270.181152,vz:-2866.209717,tb:-0.000025162409
$pseudo_cd_ph,prn:11,pseudo_cd_ph:371600927.073408603668
measnum = 3,full_prange = 21681196.210512
$oldmeas,msRange:72.326306,x:-14224989.357881,y:7466050.233235,z:20627413.540668,vx:-1160.144897,vy:-2508.244873,vz:80.172180,tb:-0.000605676606
$newmeas,x:-14224905.455735,y:7466231.631336,z:20627407.741358,vx:-1160.135864,vy:-2508.248047,vz:80.205452,tb:-0.000605676607
$pseudo_cd_ph,prn:17,pseudo_cd_ph:6.292116860607
measnum = 4,full_prange = 22113643.246794
$oldmeas,msRange:73.768647,x:10147063.327276,y:19292448.707690,z:15642536.559383,vx:-1655.647705,vy:-950.840271,vz:2298.433350,tb:0.000055519714
$newmeas,x:10147185.452310,y:19292518.844539,z:15642367.018760,vx:-1655.626099,vy:-950.836304,vz:2298.457275,tb:0.000055519713
$pseudo_cd_ph,prn:18,pseudo_cd_ph:371600923.851925313473
measnum = 5,full_prange = 22844610.660602
$oldmeas,msRange:76.207065,x:-15037206.251198,y:2004102.497628,z:21308979.515639,vx:-129.839905,vy:-2822.557373,vz:183.027496,tb:0.000053572987
$newmeas,x:-15037196.357669,y:2004317.580466,z:21308965.567306,vx:-129.827957,vy:-2822.556396,vz:183.063660,tb:0.000053572987
$pseudo_cd_ph,prn:22,pseudo_cd_ph:371600922.302442610264
measnum = 6,full_prange = 23082723.929139
$oldmeas,msRange:77.001157,x:-23861950.427317,y:8131503.160613,z:8476400.688148,vx:681.180786,vy:-878.476013,vz:2846.722656,tb:-0.000701649346
$newmeas,x:-23862002.874551,y:8131570.798793,z:8476181.502275,vx:681.161499,vy:-878.458435,vz:2846.736328,tb:-0.000701649346
$pseudo_cd_ph,prn:28,pseudo_cd_ph:371600929.525548517704
measnum = 7,full_prange = 21357839.142087
$oldmeas,msRange:71.247505,x:-2062459.914069,y:16528108.291619,z:21317986.940832,vx:-2357.576416,vy:998.698669,vz:-1022.886719,tb:0.000767860228
$newmeas,x:-2062291.954972,y:16528037.142498,z:21318059.812322,vx:-2357.588867,vy:998.691589,vz:-1022.856140,tb:0.000767860228
$pseudo_cd_ph,prn:30,pseudo_cd_ph:371600929.101013720036
measnum = 8,full_prange = 21223279.342037
$oldmeas,msRange:70.798829,x:-586947.171067,y:26423277.832360,z:1181653.733894,vx:-367.216492,vy:128.865280,vz:-3139.430664,tb:-0.000105517749
$newmeas,x:-586921.174551,y:26423268.708630,z:1181875.984300,vx:-367.218506,vy:128.891815,vz:-3139.428955,tb:-0.000105517748
Refix G01: 2, 371600.929732, 1044
Refix G03: 2, 371600.923240, -3107
Refix G07: 2, 371600.924076, 2338
Refix G11: 2, 371600.927073, 1448
Refix G17: 2, 371600.926292, -2085
Refix G18: 2, 371600.923852, 2176
Refix G22: 2, 371600.922302, -1703
Refix G28: 2, 371600.929526, -2674
Refix G30: 2, 371600.929101, 972
$GNGGA,071303.000,2944.9089,N,10633.0866,E,1,14,0.8,300.4,M,,,,0000*11
$GNRMC,071303.000,A,2944.9089,N,10633.0866,E,0.21,0.00,160519,,*1E
$GPGSA,A,3,01,03,07,11,18,22,28,30,,,,,1.0,0.8,0.5*3B
$BDGSA,A,3,01,02,04,08,10,13,,,,,,,1.0,0.8,0.5*23
$GLGSA,A,3,,,,,,,,,,,,,1.0,0.8,0.5*22
$GPGSV,3,1,09,01,51,045,46,03,26,114,39,07,26,178,43,11,38,042,43*7D
$GPGSV,3,2,09,17,42,291,44,18,24,041,39,22,27,089,40,28,59,345,44*7F
$GPGSV,3,3,09,30,50,210,45*44
$BDGSV,3,1,12,01,40,125,41,02,47,219,39,03,55,171,29,04,23,109,40*68
$BDGSV,3,2,12,07,63,119,44,08,87,275,43,10,83,007,43,13,59,222,43*60
$BDGSV,3,3,12,27,53,024,44,29,06,250,37,30,51,280,43,32,07,145,40*68
$B3CN0,0,0,0,0,0,0,0,0,0,0,0,0,0,0*4C
$ini_pos,lastpos_good = 1,ini_pos.x:-1578898.821124,ini_pos.y:5312751.674812,ini_pos.z:3146346.736822
$rtc_local_time,localRTC.weeks:2053,localRTC.seconds:371601.543597,localGtime.weeks:2053,localGtime.seconds:371602.000000
$pseudo_cd_ph,prn:1,pseudo_cd_ph:371601929.730814516544
measnum = 0,full_prange = 21060855.994675
$oldmeas,msRange:0.000000,x:-13295527.342965,y:11984971.141649,z:19327881.158549,vx:-87.005348,vy:-2502.140137,vz:1509.230469,tb:-0.000017470675
$newmeas,x:-13295521.231072,y:11985146.920183,z:19327775.131875,vx:-86.995110,vy:-2502.127197,vz:1509.260132,tb:-0.000017470675
$pseudo_cd_ph,prn:3,pseudo_cd_ph:371601923.241601169109
measnum = 1,full_prange = 23067832.408105
$oldmeas,msRange:76.952146,x:-23360694.944294,y:12517150.981334,z:725401.685181,vx:-54.557648,vy:-295.553436,vz:3182.916748,tb:0.000187868691
$newmeas,x:-23360690.745317,y:12517173.722419,z:725156.772404,vx:-54.583221,vy:-295.538574,vz:3182.917969,tb:0.000187868691
$pseudo_cd_ph,prn:7,pseudo_cd_ph:371601924.074806332588
measnum = 2,full_prange = 22754178.663192
$oldmeas,msRange:75.906164,x:-7346029.670304,y:23310398.203670,z:-9529016.207380,vx:-276.837311,vy:-1270.558228,vz:-2865.983154,tb:-0.000025162421
$newmeas,x:-7346008.658595,y:23310494.637734,z:-9528798.679307,vx:-276.832611,vy:-1270.531616,vz:-2865.999268,tb:-0.000025162421
$pseudo_cd_ph,prn:11,pseudo_cd_ph:371601927.072457134724
measnum = 3,full_prange = 21681471.787380
$oldmeas,msRange:72.327947,x:-14226149.564821,y:7463542.009658,z:20627493.482828,vx:-1160.269043,vy:-2508.202393,vz:79.712143,tb:-0.000605676604
$newmeas,x:-14226065.652623,y:7463723.406995,z:20627487.716714,vx:-1160.260132,vy:-2508.205566,vz:79.745415,tb:-0.000605676604
$pseudo_cd_ph,prn:17,pseudo_cd_ph:6.293395362175
measnum = 4,full_prange = 22113250.309858
$oldmeas,msRange:73.768046,x:10145407.532509,y:19291497.840411,z:15644834.831281,vx:-1655.941895,vy:-950.894348,vz:2298.110596,tb:0.000055519724
$newmeas,x:10145529.677067,y:19291567.980002,z:15644665.317489,vx:-1655.920166,vy:-950.890320,vz:2298.134277,tb:0.000055519723
$pseudo_cd_ph,prn:18,pseudo_cd_ph:371601923.850507378578
measnum = 5,full_prange = 22845026.079128
$oldmeas,msRange:76.209169,x:-15037336.169482,y:2001279.932783,z:21309162.305839,vx:-129.996674,vy:-2822.572510,vz:182.552917,tb:0.000053572986
$newmeas,x:-15037326.263826,y:2001495.020675,z:21309148.393417,vx:-129.984726,vy:-2822.571289,vz:182.589081,tb:0.000053572986
$pseudo_cd_ph,prn:22,pseudo_cd_ph:371601922.303489148617
measnum = 6,full_prange = 23082400.515948
$oldmeas,msRange:77.000797,x:-23861269.121269,y:8130624.570429,z:8479247.320830,vx:681.431335,vy:-878.704407,vz:2846.542969,tb:-0.000701649352
$newmeas,x:-23861321.587061,y:8130692.225247,z:8479028.151862,vx:681.412048,vy:-878.686829,vz:2846.556885,tb:-0.000701649352
$pseudo_cd_ph,prn:28,pseudo_cd_ph:371601929.527213990688
measnum = 7,full_prange = 21357330.180565
$oldmeas,msRange:71.246529,x:-2064817.402247,y:16529107.039768,z:21316963.839596,vx:-2357.400146,vy:998.797668,vz:-1023.315857,tb:0.000767860234
$newmeas,x:-2064649.459706,y:16529035.885287,z:21317036.739922,vx:-2357.412598,vy:998.790649,vz:-1023.285278,tb:0.000767860234
$pseudo_cd_ph,prn:30,pseudo_cd_ph:371601929.100364923477
measnum = 8,full_prange = 21223464.176672
$oldmeas,msRange:70.800168,x:-587314.373400,y:26423406.510257,z:1178514.290586,vx:-367.188202,vy:128.490509,vz:-3139.456055,tb:-0.000105517758
$newmeas,x:-587288.378660,y:26423397.412979,z:1178736.544726,vx:-367.190216,vy:128.517044,vz:-3139.454346,tb:-0.000105517757
Refix G01: 2, 371601.929731, 1046
Refix G03: 2, 371601.923242, -3105
Refix G07: 2, 371601.924075, 2341
Refix G11: 2, 371601.927072, 1450
Refix G17: 2, 371601.926293, -2082
Refix G18: 2, 371601.923851, 2178
Refix G22: 2, 371601.922303, -1700
Refix G28: 2, 371601.929527, -2672
Refix G30: 2, 371601.929100, 975
$GNGGA,071304.000,2944.9086,N,10633.0873,E,1,19,0.7,302.8,M,,,,0000*11
$GNRMC,071304.000,A,2944.9086,N,10633.0873,E,0.18,0.00,160519,,*18
$GPGSA,A,3,01,03,07,11,18,22,28,30,,,,,0.8,0.7,0.4*3C
$BDGSA,A,3,01,02,04,07,08,10,13,27,29,30,32,,0.8,0.7,0.4*2F
$GLGSA,A,3,,,,,,,,,,,,,0.8,0.7,0.4*25
$GPGSV,3,1,09,01,51,045,46,03,26,114,39,07,26,178,43,11,38,042,43*7D
$GPGSV,3,2,09,17,42,291,44,18,24,041,40,22,27,089,40,28,59,345,45*70
$GPGSV,3,3,09,30,50,210,45*44
$BDGSV,3,1,12,01,40,125,41,02,47,219,39,03,55,171,27,04,23,109,39*68
$BDGSV,3,2,12,07,63,119,43,08,87,275,43,10,83,007,43,13,59,222,43*67
$BDGSV,3,3,12,27,53,024,44,29,06,250,37,30,51,280,43,32,07,145,41*69
$B3CN0,0,0,0,0,0,0,0,0,0,0,0,0,0,0*4C
$ini_pos,lastpos_good = 1,ini_pos.x:-1578900.432339,ini_pos.y:5312753.630687,ini_pos.z:3146347.378838
$rtc_local_time,localRTC.weeks:2053,localRTC.seconds:371602.543597,localGtime.weeks:2053,localGtime.seconds:371603.000000
$pseudo_cd_ph,prn:1,pseudo_cd_ph:371602929.730120599270
measnum = 0,full_prange = 21061054.355217
$oldmeas,msRange:0.000000,x:-13295614.421201,y:11982468.909065,z:19329390.178251,vx:-87.151138,vy:-2502.324951,vz:1508.809082,tb:-0.000017470687
$newmeas,x:-13295608.299009,y:11982644.702238,z:19329284.180185,vx:-87.140892,vy:-2502.312012,vz:1508.838623,tb:-0.000017470686
$pseudo_cd_ph,prn:3,pseudo_cd_ph:371602923.243547677994
measnum = 1,full_prange = 23067239.191925
$oldmeas,msRange:76.950889,x:-23360749.335762,y:12516855.331287,z:728584.594036,vx:-54.225296,vy:-295.746674,vz:3182.901123,tb:0.000187868690
$newmeas,x:-23360745.162466,y:12516878.086656,z:728339.688754,vx:-54.250866,vy:-295.731812,vz:3182.902344,tb:0.000187868690
$pseudo_cd_ph,prn:7,pseudo_cd_ph:371602924.073291301727
measnum = 2,full_prange = 22754623.187372
$oldmeas,msRange:75.908366,x:-7346306.538693,y:23309127.470338,z:-9531882.085249,vx:-276.899475,vy:-1270.908569,vz:-2865.772705,tb:-0.000025162433
$newmeas,x:-7346285.521854,y:23309223.932881,z:-9531664.568903,vx:-276.894775,vy:-1270.881958,vz:-2865.788574,tb:-0.000025162432
$pseudo_cd_ph,prn:11,pseudo_cd_ph:371602927.071507751942
measnum = 3,full_prange = 21681746.738832
$oldmeas,msRange:72.329584,x:-14227309.895996,y:7461033.828563,z:20627572.964946,vx:-1160.393311,vy:-2508.159912,vz:79.252098,tb:-0.000605676601
$newmeas,x:-14227225.973749,y:7461215.225126,z:20627567.232031,vx:-1160.384277,vy:-2508.163086,vz:79.285370,tb:-0.000605676601
$pseudo_cd_ph,prn:17,pseudo_cd_ph:6.294677562844
measnum = 4,full_prange = 22112856.247173
$oldmeas,msRange:73.767443,x:10143751.443645,y:19290546.919109,z:15647132.780260,vx:-1656.235962,vy:-950.948303,vz:2297.787598,tb:0.000055519733
$newmeas,x:10143873.607718,y:19290617.061433,z:15646963.293309,vx:-1656.214233,vy:-950.944336,vz:2297.811279,tb:0.000055519733
$pseudo_cd_ph,prn:18,pseudo_cd_ph:371602923.849096775055
measnum = 5,full_prange = 22845439.299763
$oldmeas,msRange:76.211269,x:-15037466.244542,y:1998457.352976,z:21309344.621456,vx:-130.153458,vy:-2822.587402,vz:182.078323,tb:0.000053572984
$newmeas,x:-15037456.326759,y:1998672.445896,z:21309330.744948,vx:-130.141510,vy:-2822.586182,vz:182.114502,tb:0.000053572984
$pseudo_cd_ph,prn:22,pseudo_cd_ph:371602922.304535269737
measnum = 6,full_prange = 23082077.227840
$oldmeas,msRange:77.000433,x:-23860587.564678,y:8129745.751822,z:8482093.773818,vx:681.681885,vy:-878.932861,vz:2846.363281,tb:-0.000701649358
$newmeas,x:-23860640.049023,y:8129813.423281,z:8481874.621756,vx:681.662598,vy:-878.915283,vz:2846.376953,tb:-0.000701649357
$pseudo_cd_ph,prn:28,pseudo_cd_ph:371602929.528879821301
measnum = 7,full_prange = 21356821.111829
$oldmeas,msRange:71.245548,x:-2067174.714175,y:16530105.886933,z:21315940.309226,vx:-2357.223877,vy:998.896667,vz:-1023.744934,tb:0.000767860241
$newmeas,x:-2067006.788194,y:16530034.727095,z:21316013.238384,vx:-2357.236328,vy:998.889648,vz:-1023.714417,tb:0.000767860240
$pseudo_cd_ph,prn:30,pseudo_cd_ph:371602929.099716305733
measnum = 8,full_prange = 21223648.957699
$oldmeas,msRange:70.801502,x:-587681.547471,y:26423534.813381,z:1175374.821903,vx:-367.159973,vy:128.115738,vz:-3139.481445,tb:-0.000105517766
$newmeas,x:-587655.554504,y:26423525.742555,z:1175597.079773,vx:-367.161957,vy:128.142273,vz:-3139.479736,tb:-0.000105517765
Refix G01: 2, 371602.929730, 1037
Refix G03: 2, 371602.923244, -3114
Refix G07: 2, 371602.924073, 2332
Refix G11: 2, 371602.927071, 1441
Refix G17: 2, 371602.926295, -2091
Refix G18: 2, 371602.923849, 2170
Refix G22: 2, 371602.922305, -1709
Refix G28: 2, 371602.929529, -2681
Refix G30: 2, 371602.929100, 966
$GNGGA,071305.000,2944.9084,N,10633.0875,E,1,19,0.7,303.8,M,,,,0000*15
$GNRMC,071305.000,A,2944.9084,N,10633.0875,E,0.26,0.00,160519,,*10
$GPGSA,A,3,01,03,07,11,18,22,28,30,,,,,0.8,0.7,0.4*3C
$BDGSA,A,3,01,02,04,07,08,10,13,27,29,30,32,,0.8,0.7,0.4*2F
$GLGSA,A,3,,,,,,,,,,,,,0.8,0.7,0.4*25
$GPGSV,3,1,09,01,51,045,46,03,26,114,40,07,26,178,43,11,38,042,44*74
$GPGSV,3,2,09,17,42,291,44,18,24,041,40,22,27,089,40,28,59,345,44*71
$GPGSV,3,3,09,30,50,210,45*44
$BDGSV,3,1,12,01,40,125,41,02,47,219,38,03,55,171,23,04,23,109,40*63
$BDGSV,3,2,12,07,63,119,43,08,87,275,43,10,83,007,43,13,59,222,43*67
$BDGSV,3,3,12,27,53,024,44,29,06,250,37,30,51,280,43,32,07,145,40*68
$B3CN0,0,0,0,0,0,0,0,0,0,0,0,0,0,0*4C
$ini_pos,lastpos_good = 1,ini_pos.x:-1578901.110319,ini_pos.y:5312754.474281,ini_pos.z:3146347.637684
$rtc_local_time,localRTC.weeks:2053,localRTC.seconds:371603.543597,localGtime.weeks:2053,localGtime.seconds:371604.000000
$pseudo_cd_ph,prn:1,pseudo_cd_ph:371603929.729431986809
measnum = 0,full_prange = 21061251.125417
$oldmeas,msRange:0.000000,x:-13295701.645241,y:11979966.491694,z:19330898.776497,vx:-87.296951,vy:-2502.509766,vz:1508.387573,tb:-0.000017470699
$newmeas,x:-13295695.512748,y:11980142.299490,z:19330792.807050,vx:-87.286705,vy:-2502.496826,vz:1508.417114,tb:-0.000017470698
$pseudo_cd_ph,prn:3,pseudo_cd_ph:371603923.245495140553
measnum = 1,full_prange = 23066645.689841
$oldmeas,msRange:76.949636,x:-23360803.394891,y:12516559.487966,z:731767.487303,vx:-53.892971,vy:-295.939972,vz:3182.885498,tb:0.000187868689
$newmeas,x:-23360799.247272,y:12516582.257622,z:731522.589524,vx:-53.918541,vy:-295.925110,vz:3182.886719,tb:0.000187868689
$pseudo_cd_ph,prn:7,pseudo_cd_ph:371603924.071780383587
measnum = 2,full_prange = 22755066.478588
$oldmeas,msRange:75.910571,x:-7346583.469275,y:23307856.386626,z:-9534747.752594,vx:-276.961700,vy:-1271.258911,vz:-2865.562256,tb:-0.000025162445
$newmeas,x:-7346562.447304,y:23307952.877642,z:-9534530.247992,vx:-276.956970,vy:-1271.232300,vz:-2865.578125,tb:-0.000025162444
$pseudo_cd_ph,prn:11,pseudo_cd_ph:371603927.070562303066
measnum = 3,full_prange = 21682020.510929
$oldmeas,msRange:72.331224,x:-14228470.351380,y:7458525.690010,z:20627651.987021,vx:-1160.517456,vy:-2508.117432,vz:78.792053,tb:-0.000605676598
$newmeas,x:-14228386.419091,y:7458707.085784,z:20627646.287306,vx:-1160.508545,vy:-2508.120361,vz:78.825325,tb:-0.000605676599
$pseudo_cd_ph,prn:17,pseudo_cd_ph:6.295968780070
measnum = 4,full_prange = 22112459.486266
$oldmeas,msRange:73.766841,x:10142095.060701,y:19289595.943841,z:15649430.406272,vx:-1656.530029,vy:-951.002258,vz:2297.464600,tb:0.000055519743
$newmeas,x:10142217.244273,y:19289666.088885,z:15649260.946185,vx:-1656.508301,vy:-950.998291,vz:2297.488525,tb:0.000055519742
$pseudo_cd_ph,prn:18,pseudo_cd_ph:371603923.847695648670
measnum = 5,full_prange = 22845849.679224
$oldmeas,msRange:76.213372,x:-15037596.476378,y:1995634.758277,z:21309526.462487,vx:-130.310226,vy:-2822.602295,vz:181.603745,tb:0.000053572982
$newmeas,x:-15037586.546471,y:1995849.856193,z:21309512.621895,vx:-130.298279,vy:-2822.601074,vz:181.639908,tb:0.000053572982
$pseudo_cd_ph,prn:22,pseudo_cd_ph:371603922.305587530136
measnum = 6,full_prange = 23081752.099223
$oldmeas,msRange:77.000072,x:-23859905.757589,y:8128866.704770,z:8484940.047051,vx:681.932373,vy:-879.161316,vz:2846.183350,tb:-0.000701649364
$newmeas,x:-23859958.260480,y:8128934.392865,z:8484720.911918,vx:681.913086,vy:-879.143738,vz:2846.197266,tb:-0.000701649363
$pseudo_cd_ph,prn:28,pseudo_cd_ph:371603929.530550479889
measnum = 7,full_prange = 21356310.595701
$oldmeas,msRange:71.244570,x:-2069531.849804,y:16531104.833072,z:21314916.349742,vx:-2357.047607,vy:998.995667,vz:-1024.174072,tb:0.000767860247
$newmeas,x:-2069363.940398,y:16531033.667886,z:21314989.307725,vx:-2357.060059,vy:998.988586,vz:-1024.143555,tb:0.000767860246
$pseudo_cd_ph,prn:30,pseudo_cd_ph:371603929.099072098732
measnum = 8,full_prange = 21223832.416419
$oldmeas,msRange:70.802840,x:-588048.693327,y:26423662.741725,z:1172235.327914,vx:-367.131775,vy:127.740959,vz:-3139.506836,tb:-0.000105517774
$newmeas,x:-588022.702131,y:26423653.697354,z:1172457.589495,vx:-367.133759,vy:127.767487,vz:-3139.504883,tb:-0.000105517774
Refix G01: 2, 371603.929729, 1039
Refix G03: 2, 371603.923245, -3113
Refix G07: 2, 371603.924072, 2333
Refix G11: 2, 371603.927071, 1443
Refix G17: 2, 371603.926296, -2089
Refix G18: 2, 371603.923848, 2171
Refix G22: 2, 371603.922306, -1707
Refix G28: 2, 371603.929531, -2679
Refix G30: 2, 371603.929099, 967
$GNGGA,071306.000,2944.9082,N,10633.0879,E,1,19,0.7,305.7,M,,,,0000*15
$GNRMC,071306.000,A,2944.9082,N,10633.0879,E,0.28,0.00,160519,,*17
$GPGSA,A,3,01,03,07,11,18,22,28,30,,,,,0.8,0.7,0.4*3C
$BDGSA,A,3,01,02,04,07,08,10,13,27,29,30,32,,0.8,0.7,0.4*2F
$GLGSA,A,3,,,,,,,,,,,,,0.8,0.7,0.4*25
$GPGSV,3,1,09,01,51,045,45,03,26,114,40,07,26,178,43,11,38,042,42*71
$GPGSV,3,2,09,17,42,291,44,18,24,041,40,22,27,089,40,28,59,345,44*71
$GPGSV,3,3,09,30,50,210,45*44
$BDGSV,3,1,12,01,40,125,41,02,47,219,40,03,55,171,18,04,23,109,39*6A
$BDGSV,3,2,12,07,63,119,43,08,87,275,43,10,83,007,43,13,59,222,43*67
$BDGSV,3,3,12,27,53,024,45,29,06,250,37,30,51,280,43,32,07,145,40*69
$B3CN0,22,0,0,0,0,0,0,0,0,0,0,0,0,0*7C
$ini_pos,lastpos_good = 1,ini_pos.x:-1578902.316713,ini_pos.y:5312756.069229,ini_pos.z:3146348.227459
$rtc_local_time,localRTC.weeks:2053,localRTC.seconds:371604.543597,localGtime.weeks:2053,localGtime.seconds:371605.000000
$pseudo_cd_ph,prn:1,pseudo_cd_ph:371604929.728743076324
measnum = 0,full_prange = 21061447.984961
$oldmeas,msRange:0.000000,x:-13295789.015108,y:11977463.889600,z:19332406.953255,vx:-87.442795,vy:-2502.694580,vz:1507.966064,tb:-0.000017470710
$newmeas,x:-13295782.872312,y:11977639.712014,z:19332301.012430,vx:-87.432549,vy:-2502.681641,vz:1507.995605,tb:-0.000017470710
$pseudo_cd_ph,prn:3,pseudo_cd_ph:371604923.247440457344
measnum = 1,full_prange = 23066052.831042
$oldmeas,msRange:76.948382,x:-23360857.121709,y:12516263.451328,z:734950.364915,vx:-53.560673,vy:-296.133331,vz:3182.869873,tb:0.000187868688
$newmeas,x:-23360852.999764,y:12516286.235274,z:734705.474637,vx:-53.586239,vy:-296.118439,vz:3182.871094,tb:0.000187868688
$pseudo_cd_ph,prn:7,pseudo_cd_ph:371604924.070269882679
measnum = 2,full_prange = 22755509.644722
$oldmeas,msRange:75.912774,x:-7346860.462097,y:23306584.952564,z:-9537613.209350,vx:-277.023956,vy:-1271.609253,vz:-2865.351562,tb:-0.000025162456
$newmeas,x:-7346839.434991,y:23306681.472052,z:-9537395.716499,vx:-277.019226,vy:-1271.582642,vz:-2865.367432,tb:-0.000025162456
$pseudo_cd_ph,prn:11,pseudo_cd_ph:371604927.069614529610
measnum = 3,full_prange = 21682294.979917
$oldmeas,msRange:72.332861,x:-14229630.930945,y:7456017.594059,z:20627730.549050,vx:-1160.641724,vy:-2508.074707,vz:78.332008,tb:-0.000605676596
$newmeas,x:-14229546.988613,y:7456198.989046,z:20627724.882535,vx:-1160.632690,vy:-2508.077881,vz:78.365280,tb:-0.000605676596
$pseudo_cd_ph,prn:17,pseudo_cd_ph:6.297259676608
measnum = 4,full_prange = 22112062.814704
$oldmeas,msRange:73.766238,x:10140438.383696,y:19288644.914666,z:15651727.709272,vx:-1656.824097,vy:-951.056152,vz:2297.141602,tb:0.000055519753
$newmeas,x:10140560.586765,y:19288715.062426,z:15651558.276051,vx:-1656.802368,vy:-951.052185,vz:2297.165283,tb:0.000055519752
$pseudo_cd_ph,prn:18,pseudo_cd_ph:371604923.846291184425
measnum = 5,full_prange = 22846261.059351
$oldmeas,msRange:76.215474,x:-15037726.864992,y:1992812.148756,z:21309707.828927,vx:-130.467010,vy:-2822.616943,vz:181.129150,tb:0.000053572980
$newmeas,x:-15037716.922958,y:1993027.251672,z:21309694.024254,vx:-130.455063,vy:-2822.615967,vz:181.165314,tb:0.000053572980
$pseudo_cd_ph,prn:22,pseudo_cd_ph:371604922.306638419628
measnum = 6,full_prange = 23081427.381593
$oldmeas,msRange:76.999710,x:-23859223.700049,y:8127987.429252,z:8487786.140470,vx:682.182800,vy:-879.389771,vz:2846.003662,tb:-0.000701649369
$newmeas,x:-23859276.221482,y:8128055.133985,z:8487567.022266,vx:682.163513,vy:-879.372192,vz:2846.017334,tb:-0.000701649369
$pseudo_cd_ph,prn:28,pseudo_cd_ph:371604929.532220125198
measnum = 7,full_prange = 21355800.383347
$oldmeas,msRange:71.243591,x:-2071888.809085,y:16532103.878144,z:21313891.961164,vx:-2356.871094,vy:999.094543,vz:-1024.603149,tb:0.000767860253
$newmeas,x:-2071720.916254,y:16532032.707612,z:21313964.947970,vx:-2356.883789,vy:999.087524,vz:-1024.572632,tb:0.000767860252
$pseudo_cd_ph,prn:30,pseudo_cd_ph:371604929.098426938057
measnum = 8,full_prange = 21224016.161043
$oldmeas,msRange:70.804175,x:-588415.811018,y:26423790.295284,z:1169095.808686,vx:-367.103638,vy:127.366165,vz:-3139.531982,tb:-0.000105517783
$newmeas,x:-588389.821589,y:26423781.277368,z:1169318.073975,vx:-367.105621,vy:127.392700,vz:-3139.530029,tb:-0.000105517782
Refix G01: 2, 371604.929729, 1044
Refix G03: 2, 371604.923247, -3109
Refix G07: 2, 371604.924070, 2336
Refix G11: 2, 371604.927070, 1447
Refix G17: 2, 371604.926297, -2086
Refix G18: 2, 371604.923846, 2175
