SD initialized success
Create debug.log Failed! 3
bbram_blkflag = 1
rtcflag = 0
BBRAM Block OK: 01 EPHflag: 28250065 240012cb, rtc 00
Hot-start nowtime:day = 16,minute = 8,seconds = 42.00
GPS 0 Init Dop:  2381, 2
GPS 1 Init Dop: 10000,80
GPS 2 Init Dop: -1228, 2
GPS 3 Init Dop: 10000,80
GPS 4 Init Dop: 10000,80
GPS 5 Init Dop: -3505, 2
GPS 6 Init Dop:  2613, 2
GPS 7 Init Dop: 10000,80
GPS 8 Init Dop: 10000,80
GPS 9 Init Dop: 10000,80
GPS10 Init Dop: 10000,80
GPS11 Init Dop: 10000,80
GPS12 Init Dop: 10000,80
GPS13 Init Dop: 10000,80
GPS14 Init Dop: 10000,80
GPS15 Init Dop: 10000,80
GPS16 Init Dop: -1489, 2
GPS17 Init Dop: 10000,80
GPS18 Init Dop: -2462, 2
GPS19 Init Dop: 10000,80
GPS20 Init Dop: 10000,80
GPS21 Init Dop:   318, 2
GPS22 Init Dop: 10000,80
GPS23 Init Dop: 10000,80
GPS24 Init Dop: 10000,80
GPS25 Init Dop: 10000,80
GPS26 Init Dop: 10000,80
GPS27 Init Dop: -1437, 2
GPS28 Init Dop: 10000,80
GPS29 Init Dop:  2285, 2
GPS30 Init Dop: 10000,80
GPS31 Init Dop: 10000,80
BDS 0 Init Dop:  -867, 2
BDS 1 Init Dop:  -928, 2
BDS 2 Init Dop: 10000,80
BDS 3 Init Dop:  -887, 2
BDS 4 Init Dop: 10000,80
BDS 5 Init Dop: 10000,80
BDS 6 Init Dop:  -297, 2
BDS 7 Init Dop:  -511, 2
BDS 8 Init Dop: 10000,80
BDS 9 Init Dop:  -797, 2
BDS10 Init Dop: 10000,80
BDS11 Init Dop: 10000,80
BDS12 Init Dop:  -971, 2
BDS13 Init Dop: 10000,80
BDS14 Init Dop: 10000,80
BDS15 Init Dop: 10000,80
BDS16 Init Dop: 10000,80
BDS17 Init Dop: 10000,80
BDS18 Init Dop: 10000,80
BDS19 Init Dop: 10000,80
BDS20 Init Dop: 10000,80
BDS21 Init Dop: 10000,80
BDS22 Init Dop: 10000,80
BDS23 Init Dop: 10000,80
BDS24 Init Dop: 10000,80
BDS25 Init Dop: 10000,80
BDS26 Init Dop:   837, 2
BDS27 Init Dop: 10000,80
BDS28 Init Dop: 10000,80
BDS29 Init Dop: -1064, 2
BDS30 Init Dop: 10000,80
BDS31 Init Dop: 10000,80
Good luck!
$ini_pos,lastpos_good = 1,ini_pos.x:-1578919.000000,ini_pos.y:5312775.000000,ini_pos.z:3146359.000000
$rtc_local_time,localRTC.weeks:2053,localRTC.seconds:374941.026013,localGtime.weeks:0,localGtime.seconds:19.026010
source<tow,snapshot
$GNGGA,000000.000,,,,,0,00,,,M,,,,0000*2B
$GNRMC,000000.000,A,,,,,,,060180,,*29
$GPGSA,A,1,,,,,,,,,,,,,,,*1E
$BDGSA,A,1,,,,,,,,,,,,,,,*0F
$GLGSA,A,1,,,,,,,,,,,,,,,*02
$B3CN0,0,0,0,0,0,0,0,0,0,0,0,0,0,0*4C
$ini_pos,lastpos_good = 1,ini_pos.x:-1578919.000000,ini_pos.y:5312775.000000,ini_pos.z:3146359.000000
$rtc_local_time,localRTC.weeks:2053,localRTC.seconds:374942.026013,localGtime.weeks:2053,localGtime.seconds:374942.026013
source<tow,snapshot
$GNGGA,000000.000,,,,,0,00,,,M,,,,0000*2B
$GNRMC,000000.000,A,,,,,,,060180,,*29
$GPGSA,A,1,,,,,,,,,,,,,,,*1E
$BDGSA,A,1,,,,,,,,,,,,,,,*0F
$GLGSA,A,1,,,,,,,,,,,,,,,*02
$B3CN0,0,0,0,0,0,0,0,0,0,0,0,0,0,0*4C
$ini_pos,lastpos_good = 1,ini_pos.x:-1578919.000000,ini_pos.y:5312775.000000,ini_pos.z:3146359.000000
$rtc_local_time,localRTC.weeks:2053,localRTC.seconds:374943.026013,localGtime.weeks:2053,localGtime.seconds:374943.026013
$pseudo_cd_ph,prn:1,pseudo_cd_ph:16.436213033756
measnum = 0,full_prange = 22952009.906350
$oldmeas,msRange:0.000000,x:-14498235.434972,y:3009587.414220,z:21868887.019855,vx:-642.844604,vy:-2741.824463,vz:-17.050667,tb:-0.000017507867
$newmeas,x:-14498186.219483,y:3009797.327502,z:21868888.323861,vx:-642.832092,vy:-2741.827881,vz:-17.014439,tb:-0.000017507866
$pseudo_cd_ph,prn:3,pseudo_cd_ph:18.547221358104
measnum = 1,full_prange = 22380714.726014
$oldmeas,msRange:74.360224,x:-21911386.670697,y:10223175.859134,z:10856180.841122,vx:840.813721,vy:-1130.544189,vz:2760.256836,tb:0.000187864880
$newmeas,x:-21911449.440307,y:10223260.258015,z:10855974.776177,vx:840.799744,vy:-1130.522827,vz:2760.274170,tb:0.000187864880
$pseudo_cd_ph,prn:6,pseudo_cd_ph:18.593609076208
measnum = 2,full_prange = 22371716.178745
$oldmeas,msRange:74.330956,x:6577823.835364,y:25703324.223241,z:-630232.976345,vx:-212.534805,vy:138.555222,vz:3208.523193,tb:0.000204236689
$newmeas,x:6577839.695327,y:25703313.882635,z:-630472.409187,vx:-212.528458,vy:138.583618,vz:3208.522217,tb:0.000204236690
$pseudo_cd_ph,prn:7,pseudo_cd_ph:9.159076314052
measnum = 3,full_prange = 25131333.925652
$oldmeas,msRange:83.534188,x:-8869513.746347,y:17357121.475025,z:-17564242.424657,vx:-697.389771,vy:-2202.504150,vz:-1844.953857,tb:-0.000025202104
$newmeas,x:-8869455.285390,y:17357306.108316,z:-17564087.762462,vx:-697.375305,vy:-2202.488281,vz:-1844.986328,tb:-0.000025202103
source<tow,snapshot
$GNGGA,000000.000,,,,,0,00,,,M,,,,0000*2B
$GNRMC,000000.000,A,,,,,,,060180,,*29
$GPGSA,A,1,,,,,,,,,,,,,,,*1E
$BDGSA,A,1,,,,,,,,,,,,,,,*0F
$GLGSA,A,1,,,,,,,,,,,,,,,*02
$GPGSV,1,1,04,01,00,000,25,03,00,000,25,06,00,000,17,07,00,000,16*7F
$B3CN0,0,0,0,0,0,0,0,0,0,0,0,0,0,0*4C
$ini_pos,lastpos_good = 1,ini_pos.x:-1578919.000000,ini_pos.y:5312775.000000,ini_pos.z:3146359.000000
$rtc_local_time,localRTC.weeks:2053,localRTC.seconds:374944.026013,localGtime.weeks:2053,localGtime.seconds:374944.026013
$pseudo_cd_ph,prn:1,pseudo_cd_ph:16.434800499462
measnum = 0,full_prange = 22952423.678186
$oldmeas,msRange:0.000000,x:-14498878.361225,y:3006845.612299,z:21868869.732599,vx:-643.007935,vy:-2741.779541,vz:-17.523848,tb:-0.000017507878
$newmeas,x:-14498829.132345,y:3007055.525945,z:21868871.072856,vx:-642.995422,vy:-2741.783203,vz:-17.487621,tb:-0.000017507877
$pseudo_cd_ph,prn:3,pseudo_cd_ph:18.548114124048
measnum = 1,full_prange = 22380437.398391
$oldmeas,msRange:74.360020,x:-21910545.763143,y:10222045.171367,z:10858940.981696,vx:841.001404,vy:-1130.831421,vz:2760.024414,tb:0.000187864879
$newmeas,x:-21910608.545986,y:10222129.590638,z:10858734.936660,vx:840.987427,vy:-1130.809937,vz:2760.041748,tb:0.000187864879
$pseudo_cd_ph,prn:6,pseudo_cd_ph:18.595932909237
measnum = 2,full_prange = 22371009.831060
$oldmeas,msRange:74.329306,x:6577611.258007,y:25703462.588216,z:-627024.446496,vx:-212.619919,vy:138.174744,vz:3208.536621,tb:0.000204236679
$newmeas,x:6577627.123821,y:25703452.276328,z:-627263.872779,vx:-212.613571,vy:138.203125,vz:3208.535645,tb:0.000204236680
$pseudo_cd_ph,prn:7,pseudo_cd_ph:9.157541493167
measnum = 3,full_prange = 25131784.364500
$oldmeas,msRange:83.536422,x:-8870211.222456,y:17354918.876467,z:-17566087.184636,vx:-697.562500,vy:-2202.693115,vz:-1844.566162,tb:-0.000025202116
$newmeas,x:-8870152.745976,y:17355103.528906,z:-17565932.552164,vx:-697.547974,vy:-2202.677246,vz:-1844.598755,tb:-0.000025202115
$pseudo_cd_ph,prn:17,pseudo_cd_ph:0.582085453753
measnum = 4,full_prange = 21731002.069173
$oldmeas,msRange:72.193871,x:3144982.682207,y:16157110.206610,z:21271254.988851,vx:-2463.083008,vy:-830.336243,vz:1005.916138,tb:0.000055553108
$newmeas,x:3145161.222818,y:16157170.395345,z:21271182.072044,vx:-2463.070801,vy:-830.344543,vz:1005.947754,tb:0.000055553108
$pseudo_cd_ph,prn:19,pseudo_cd_ph:18.988102447719
measnum = 5,full_prange = 22096764.677216
$oldmeas,msRange:73.414237,x:11170701.309950,y:16828244.370829,z:16902733.007440,vx:-2093.459229,vy:-702.941895,vz:2054.689209,tb:-0.000318377152
$newmeas,x:11170855.611504,y:16828296.182553,z:16902581.561723,vx:-2093.437988,vy:-702.943909,vz:2054.716309,tb:-0.000318377152
$pseudo_cd_ph,prn:22,pseudo_cd_ph:14.344411654207
measnum = 6,full_prange = 23374000.705757
$oldmeas,msRange:77.673758,x:-20497424.694530,y:3837552.895817,z:16642770.954245,vx:1232.208984,vy:-1696.949341,vz:1944.008667,tb:-0.000701667115
$newmeas,x:-20497520.766286,y:3837685.201599,z:16642619.384125,vx:1232.203247,vy:-1696.930542,vz:1944.035889,tb:-0.000701667114
$pseudo_cd_ph,prn:28,pseudo_cd_ph:4.575395242909
measnum = 7,full_prange = 20747387.908478
$oldmeas,msRange:68.912880,x:-8701051.672404,y:20123791.234233,z:15665410.943151,vx:-1553.153076,vy:1053.862915,vz:-2297.401123,tb:0.000767879229
$newmeas,x:-8700944.184462,y:20123718.300586,z:15665569.935958,vx:-1553.172852,vy:1053.868164,vz:-2297.379150,tb:0.000767879229
source<tow,snapshot
nits = 2
$GNGGA,080846.565,2944.9124,N,10633.0865,E,1,11,0.0,327.2,M,,,,0000*18
$GNRMC,080846.565,A,2944.9124,N,10633.0865,E,0.00,0.00,160519,,*1A
$GPGSA,A,3,01,03,06,07,17,19,22,28,,,,,0.0,0.0,0.0*35
$BDGSA,A,3,01,02,04,,,,,,,,,,0.0,0.0,0.0*24
$GLGSA,A,3,,,,,,,,,,,,,0.0,0.0,0.0*2E
$GPGSV,2,1,07,01,00,000,39,03,00,000,42,06,00,000,45,07,00,000,35*75
$GPGSV,2,2,07,17,00,000,26,19,00,000,24,22,00,000,16*45
$B3CN0,0,0,0,0,0,0,0,0,0,0,0,0,0,0*4C
$ini_pos,lastpos_good = 1,ini_pos.x:-1578904.360727,ini_pos.y:5312770.859952,ini_pos.z:3146365.661747
$rtc_local_time,localRTC.weeks:2053,localRTC.seconds:374945.026013,localGtime.weeks:2053,localGtime.seconds:374945.026013
$pseudo_cd_ph,prn:1,pseudo_cd_ph:16.433396623748
measnum = 0,full_prange = 22952834.876883
$oldmeas,msRange:0.000000,x:-14499521.450791,y:3004103.855097,z:21868851.972161,vx:-643.171265,vy:-2741.734863,vz:-17.997028,tb:-0.000017507889
$newmeas,x:-14499472.208525,y:3004313.769077,z:21868853.348670,vx:-643.158752,vy:-2741.738281,vz:-17.960800,tb:-0.000017507888
$pseudo_cd_ph,prn:3,pseudo_cd_ph:18.549008031045
measnum = 1,full_prange = 22380159.749126
$oldmeas,msRange:74.359856,x:-21909704.667941,y:10220914.196456,z:10861700.889745,vx:841.189026,vy:-1131.118530,vz:2759.791748,tb:0.000187864877
$newmeas,x:-21909767.464011,y:10220998.636116,z:10861494.864626,vx:841.175049,vy:-1131.097046,vz:2759.809326,tb:0.000187864877
$pseudo_cd_ph,prn:6,pseudo_cd_ph:18.598263968937
measnum = 2,full_prange = 22370301.321223
$oldmeas,msRange:74.327654,x:6577398.595508,y:25703600.572717,z:-623815.903271,vx:-212.705093,vy:137.794266,vz:3208.550049,tb:0.000204236669
$newmeas,x:6577414.467174,y:25703590.289547,z:-624055.322967,vx:-212.698730,vy:137.822662,vz:3208.549072,tb:0.000204236669
$pseudo_cd_ph,prn:7,pseudo_cd_ph:9.156009782211
measnum = 3,full_prange = 25132233.892029
$oldmeas,msRange:83.538694,x:-8870908.871265,y:17352716.089005,z:-17567931.556957,vx:-697.735168,vy:-2202.882080,vz:-1844.178589,tb:-0.000025202127
$newmeas,x:-8870850.379260,y:17352900.760581,z:-17567776.954219,vx:-697.720703,vy:-2202.866211,vz:-1844.211060,tb:-0.000025202126
$pseudo_cd_ph,prn:17,pseudo_cd_ph:0.583138780044
measnum = 4,full_prange = 21730676.623781
$oldmeas,msRange:72.193477,x:3142519.514920,y:16156279.927490,z:21272260.687075,vx:-2463.251709,vy:-830.222046,vz:1005.480347,tb:0.000055553119
$newmeas,x:3142698.065089,y:16156340.107044,z:21272187.802946,vx:-2463.239502,vy:-830.230286,vz:1005.511963,tb:0.000055553118
$pseudo_cd_ph,prn:19,pseudo_cd_ph:18.989767229336
measnum = 5,full_prange = 22096255.910913
$oldmeas,msRange:73.413214,x:11168607.707406,y:16827541.442809,z:16904787.512156,vx:-2093.746094,vy:-702.914185,vz:2054.320312,tb:-0.000318377150
$newmeas,x:11168762.026545,y:16827593.251298,z:16904636.097110,vx:-2093.724854,vy:-702.916199,vz:2054.347656,tb:-0.000318377150
$pseudo_cd_ph,prn:22,pseudo_cd_ph:14.344315485055
measnum = 6,full_prange = 23374019.877791
$oldmeas,msRange:77.674561,x:-20496192.448711,y:3835855.826659,z:16644714.788206,vx:1232.282715,vy:-1697.189087,vz:1943.659302,tb:-0.000701667120
$newmeas,x:-20496288.526286,y:3835988.151249,z:16644563.245198,vx:1232.276978,vy:-1697.170410,vz:1943.686646,tb:-0.000701667119
$pseudo_cd_ph,prn:28,pseudo_cd_ph:4.576403061316
measnum = 7,full_prange = 20747076.095493
$oldmeas,msRange:68.912556,x:-8702604.683124,y:20124845.058876,z:15663113.382453,vx:-1552.868408,vy:1053.786377,vz:-2297.720459,tb:0.000767879234
$newmeas,x:-8702497.216499,y:20124772.131617,z:15663272.394958,vx:-1552.888184,vy:1053.791748,vz:-2297.698242,tb:0.000767879233
$pseudo_cd_ph,prn:30,pseudo_cd_ph:15.972255814926
measnum = 8,full_prange = 23064688.316699
$oldmeas,msRange:76.642157,x:-1957907.006978,y:24787990.863922,z:-9039792.706761,vx:-539.345215,vy:-1077.829346,vz:-2850.673584,tb:-0.000105545786
$newmeas,x:-1957865.512546,y:24788073.786325,z:-9039573.388128,vx:-539.335571,vy:-1077.804443,vz:-2850.688721,tb:-0.000105545785
source<tow,snapshot
nits = 2
Refix G01: 2, 374945.490361, 3287
Refix G03: 2, 374945.492477, -320
Refix G06: 2, 374945.492526, -2599
Refix G07: 2, 374945.483084, 3517
Refix G17: 2, 374945.494511, -584
Refix G19: 2, 374945.492918, -1556
Refix G22: 2, 374945.488272, 1225
Refix G28: 2, 374945.498504, -531
Refix G30: 2, 374945.489900, 3191
$GNGGA,080847.567,2944.9121,N,10633.0874,E,1,12,0.0,321.4,M,,,,0000*1D
$GNRMC,080847.567,A,2944.9121,N,10633.0874,E,0.00,0.00,160519,,*1C
$GPGSA,A,3,01,03,06,07,17,19,22,28,30,,,,0.0,0.0,0.0*36
$BDGSA,A,3,01,02,04,,,,,,,,,,0.0,0.0,0.0*24
$GLGSA,A,3,,,,,,,,,,,,,0.0,0.0,0.0*2E
$GPGSV,3,1,09,01,00,000,39,03,00,000,42,06,00,000,44,07,00,000,35*7B
$GPGSV,3,2,09,17,00,000,45,19,00,000,42,22,00,000,40,28,00,000,32*77
$GPGSV,3,3,09,30,00,000,30*40
$BDGSV,2,1,05,01,00,000,40,02,00,000,39,03,00,000,42,04,00,000,39*68
$BDGSV,2,2,05,05,00,000,33*58
$B3CN0,0,0,0,0,0,0,0,0,0,0,0,0,0,0*4C
$ini_pos,lastpos_good = 1,ini_pos.x:-1578904.307766,ini_pos.y:5312766.014229,ini_pos.z:3146362.244872
$rtc_local_time,localRTC.weeks:2053,localRTC.seconds:374946.026013,localGtime.weeks:2053,localGtime.seconds:374946.026013
$pseudo_cd_ph,prn:1,pseudo_cd_ph:16.431995738636
measnum = 0,full_prange = 22953245.182129
$oldmeas,msRange:0.000000,x:-14500164.703652,y:3001362.142681,z:21868833.738545,vx:-643.334534,vy:-2741.690186,vz:-18.470205,tb:-0.000017507900
$newmeas,x:-14500115.448004,y:3001572.056982,z:21868835.151307,vx:-643.322021,vy:-2741.693604,vz:-18.433977,tb:-0.000017507899
$pseudo_cd_ph,prn:3,pseudo_cd_ph:18.549906338182
measnum = 1,full_prange = 22379880.777552
$oldmeas,msRange:74.359660,x:-21908863.385145,y:10219782.934391,z:10864460.565212,vx:841.376587,vy:-1131.405640,vz:2759.559326,tb:0.000187864876
$newmeas,x:-21908926.194434,y:10219867.394436,z:10864254.560026,vx:841.362610,vy:-1131.384277,vz:2759.576660,tb:0.000187864876
$pseudo_cd_ph,prn:6,pseudo_cd_ph:18.600600510166
measnum = 2,full_prange = 22369591.185305
$oldmeas,msRange:74.326017,x:6577185.847814,y:25703738.176755,z:-620607.346738,vx:-212.790314,vy:137.413818,vz:3208.563232,tb:0.000204236658
$newmeas,x:6577201.725335,y:25703727.922300,z:-620846.759824,vx:-212.783951,vy:137.442200,vz:3208.562256,tb:0.000204236659
$pseudo_cd_ph,prn:7,pseudo_cd_ph:9.154480017758
measnum = 3,full_prange = 25132682.829879
$oldmeas,msRange:83.540925,x:-8871606.692789,y:17350513.112703,z:-17569775.541581,vx:-697.907898,vy:-2203.070801,vz:-1843.790771,tb:-0.000025202139
$newmeas,x:-8871548.185259,y:17350697.803407,z:-17569620.968585,vx:-697.893433,vy:-2203.054932,vz:-1843.823364,tb:-0.000025202138
$pseudo_cd_ph,prn:17,pseudo_cd_ph:0.584197796685
measnum = 4,full_prange = 21730349.462962
$oldmeas,msRange:72.193124,x:3140056.178900,y:16155449.762612,z:21273265.949515,vx:-2463.420410,vy:-830.107788,vz:1005.044556,tb:0.000055553129
$newmeas,x:3140234.738610,y:16155509.932978,z:21273193.098072,vx:-2463.408203,vy:-830.116028,vz:1005.076172,tb:0.000055553128
$pseudo_cd_ph,prn:19,pseudo_cd_ph:18.991436977890
measnum = 5,full_prange = 22095745.679350
$oldmeas,msRange:73.412241,x:11166513.818097,y:16826838.542532,z:16906841.648019,vx:-2094.032715,vy:-702.886414,vz:2053.951416,tb:-0.000318377149
$newmeas,x:11166668.154807,y:16826890.347778,z:16906690.263657,vx:-2094.011719,vy:-702.888428,vz:2053.978760,tb:-0.000318377149
$pseudo_cd_ph,prn:22,pseudo_cd_ph:14.344226042896
measnum = 6,full_prange = 23374037.012756
$oldmeas,msRange:77.675345,x:-20494960.129286,y:3834158.517681,z:16646658.272806,vx:1232.356201,vy:-1697.428955,vz:1943.309937,tb:-0.000701667124
$newmeas,x:-20495056.212669,y:3834290.861065,z:16646506.756928,vx:1232.350464,vy:-1697.410278,vz:1943.337158,tb:-0.000701667124
$pseudo_cd_ph,prn:28,pseudo_cd_ph:4.577418180971
measnum = 7,full_prange = 20746762.102486
$oldmeas,msRange:68.912237,x:-8704157.409141,y:20125898.807021,z:15660815.502604,vx:-1552.583740,vy:1053.709961,vz:-2298.039551,tb:0.000767879239
$newmeas,x:-8704049.963846,y:20125825.886161,z:15660974.534788,vx:-1552.603394,vy:1053.715210,vz:-2298.017334,tb:0.000767879238
$pseudo_cd_ph,prn:30,pseudo_cd_ph:15.970922251950
measnum = 8,full_prange = 23065078.448543
$oldmeas,msRange:76.644190,x:-1958446.414910,y:24786912.873102,z:-9042643.283014,vx:-539.470703,vy:-1078.152344,vz:-2850.479004,tb:-0.000105545794
$newmeas,x:-1958404.910122,y:24786995.821761,z:-9042423.975646,vx:-539.461060,vy:-1078.127563,vz:-2850.493896,tb:-0.000105545794
source<tow,snapshot
nits = 2
Refix G01: 2, 374946.489821, 3287
Refix G03: 2, 374946.491939, -319
Refix G06: 2, 374946.491990, -2598
Refix G07: 2, 374946.482544, 3517
Refix G17: 2, 374946.493974, -584
Refix G19: 2, 374946.492381, -1556
Refix G22: 2, 374946.487734, 1226
Refix G28: 2, 374946.497967, -530
Refix G30: 2, 374946.489360, 3191
$GNGGA,080848.566,2944.9110,N,10633.0880,E,1,12,0.0,319.1,M,,,,0000*14
$GNRMC,080848.566,A,2944.9110,N,10633.0880,E,0.00,0.00,160519,,*1B
$GPGSA,A,3,01,03,06,07,17,19,22,28,30,,,,0.0,0.0,0.0*36
$BDGSA,A,3,01,02,04,,,,,,,,,,0.0,0.0,0.0*24
$GLGSA,A,3,,,,,,,,,,,,,0.0,0.0,0.0*2E
$GPGSV,3,1,09,01,27,040,38,03,35,085,42,06,36,229,44,07,03,171,35*78
$GPGSV,3,2,09,17,51,326,44,19,37,298,42,22,25,062,41,28,79,043,43*7F
$GPGSV,3,3,09,30,26,194,42*4D
$BDGSV,3,1,11,01,40,125,41,02,47,219,41,03,00,000,43,04,23,109,39*61
$BDGSV,3,2,11,05,00,000,36,07,57,144,00,08,76,338,00,10,84,196,00*6F
$BDGSV,3,3,11,13,62,251,00,27,36,045,00,30,57,321,00*58
$B3CN0,0,0,0,0,0,0,0,0,0,0,0,0,0,0*4C
tow update,374947704.578439
$ini_pos,lastpos_good = 1,ini_pos.x:-1578904.901630,ini_pos.y:5312764.733976,ini_pos.z:3146359.430098
$rtc_local_time,localRTC.weeks:2053,localRTC.seconds:374947.026013,localGtime.weeks:2053,localGtime.seconds:374947.704578
$pseudo_cd_ph,prn:1,pseudo_cd_ph:374947496.430596232414
measnum = 0,full_prange = 22823300.301477
$oldmeas,msRange:0.000000,x:-14501244.812579,y:2996760.100492,z:21868802.068495,vx:-643.608582,vy:-2741.614746,vz:-19.264462,tb:-0.000017507918
$newmeas,x:-14501195.814916,y:2996968.820668,z:21868803.533734,vx:-643.596130,vy:-2741.618164,vz:-19.228439,tb:-0.000017507917
$pseudo_cd_ph,prn:3,pseudo_cd_ph:374947498.550802826881
measnum = 1,full_prange = 22249247.569088
$oldmeas,msRange:74.359322,x:-21907450.815545,y:10217883.391685,z:10869092.337403,vx:841.691345,vy:-1131.887695,vz:2759.168701,tb:0.000187864874
$newmeas,x:-21907513.281572,y:10217967.394509,z:10868887.563677,vx:841.677429,vy:-1131.866455,vz:2759.186035,tb:0.000187864874
$pseudo_cd_ph,prn:6,pseudo_cd_ph:374947498.602939724922
measnum = 2,full_prange = 22238525.452625
$oldmeas,msRange:74.323251,x:6576828.545269,y:25703968.298827,z:-615221.545654,vx:-212.933487,vy:136.775223,vz:3208.585449,tb:0.000204236641
$newmeas,x:6576844.340383,y:25703958.151831,z:-615459.557636,vx:-212.927155,vy:136.803436,vz:3208.584473,tb:0.000204236642
$pseudo_cd_ph,prn:7,pseudo_cd_ph:374947489.152944803238
measnum = 3,full_prange = 25002778.636618
$oldmeas,msRange:83.544667,x:-8872778.420040,y:17346814.848978,z:-17572869.918327,vx:-698.197876,vy:-2203.387451,vz:-1843.139893,tb:-0.000025202158
$newmeas,x:-8872720.190734,y:17346998.611488,z:-17572716.198570,vx:-698.183472,vy:-2203.371826,vz:-1843.172241,tb:-0.000025202157
$pseudo_cd_ph,prn:17,pseudo_cd_ph:374947500.585258603096
measnum = 4,full_prange = 21599667.013362
$oldmeas,msRange:72.192512,x:3135920.929596,y:16154056.533663,z:21274952.368341,vx:-2463.703613,vy:-829.915894,vz:1004.313049,tb:0.000055553147
$newmeas,x:3136098.435876,y:16154116.328349,z:21274880.007728,vx:-2463.691406,vy:-829.924133,vz:1004.344421,tb:0.000055553146
$pseudo_cd_ph,prn:19,pseudo_cd_ph:374947498.993111729622
measnum = 5,full_prange = 21964879.156573
$oldmeas,msRange:73.410592,x:11162998.443796,y:16825658.741101,z:16910288.819676,vx:-2094.513916,vy:-702.839661,vz:2053.332275,tb:-0.000318377146
$newmeas,x:11163151.901679,y:16825710.236096,z:16910138.377296,vx:-2094.492920,vy:-702.841736,vz:2053.359131,tb:-0.000318377146
$pseudo_cd_ph,prn:22,pseudo_cd_ph:374947494.344138979912
measnum = 6,full_prange = 23243698.677162
$oldmeas,msRange:77.676656,x:-20492891.435460,y:3831308.934797,z:16649919.752936,vx:1232.479614,vy:-1697.831421,vz:1942.723389,tb:-0.000701667132
$newmeas,x:-20492986.992630,y:3831440.571419,z:16649769.127423,vx:1232.473877,vy:-1697.812866,vz:1942.750488,tb:-0.000701667132
$pseudo_cd_ph,prn:28,pseudo_cd_ph:374947504.578439295292
measnum = 7,full_prange = 20616091.550872
$oldmeas,msRange:68.911680,x:-8706763.120938,y:20127667.419854,z:15656957.644098,vx:-1552.105835,vy:1053.581299,vz:-2298.574951,tb:0.000767879247
$newmeas,x:-8706656.385242,y:20127594.967120,z:15657115.711476,vx:-1552.125366,vy:1053.586548,vz:-2298.553223,tb:0.000767879247
$pseudo_cd_ph,prn:30,pseudo_cd_ph:374947495.969588637352
measnum = 8,full_prange = 22935113.805968
$oldmeas,msRange:76.647589,x:-1959352.128445,y:24785102.669071,z:-9047427.723468,vx:-539.681396,vy:-1078.694580,vz:-2850.152100,tb:-0.000105545808
$newmeas,x:-1959310.841402,y:24785185.191822,z:-9047209.676837,vx:-539.671814,vy:-1078.669800,vz:-2850.166992,tb:-0.000105545808
Refix G01: 2, 374947.496431, 2148
Refix G03: 2, 374947.498551, -1457
Refix G06: 2, 374947.498603, -3738
Refix G07: 2, 374947.489153, 2369
Refix G17: 2, 374947.500585, -1719
Refix G19: 2, 374947.498993, -2694
Refix G22: 2, 374947.494344, 87
Refix G28: 2, 374947.504578, -1664
Refix G30: 2, 374947.495970, 2048
$GNGGA,080849.573,2944.9102,N,10633.0890,E,1,12,1.0,312.7,M,,,,0000*1F
$GNRMC,080849.573,A,2944.9102,N,10633.0890,E,0.88,0.00,160519,,*1C
$GPGSA,A,3,01,03,06,07,17,19,22,28,30,,,,2.0,1.0,1.7*33
$BDGSA,A,3,01,02,04,,,,,,,,,,2.0,1.0,1.7*21
$GLGSA,A,3,,,,,,,,,,,,,2.0,1.0,1.7*2B
$GPGSV,3,1,09,01,27,040,39,03,35,085,42,06,36,229,44,07,03,171,35*79
$GPGSV,3,2,09,17,51,326,45,19,37,298,42,22,25,062,41,28,79,043,43*7E
$GPGSV,3,3,09,30,26,194,42*4D
$BDGSV,3,1,11,01,40,125,40,02,47,219,39,03,00,000,43,04,23,109,40*61
$BDGSV,3,2,11,05,00,000,33,07,57,144,00,08,76,338,00,10,84,196,00*6A
$BDGSV,3,3,11,13,62,251,00,27,36,045,00,30,57,321,00*58
$B3CN0,0,0,0,0,0,0,0,0,0,0,0,0,0,0*4C
$ini_pos,lastpos_good = 1,ini_pos.x:-1578905.196693,ini_pos.y:5312759.657840,ini_pos.z:3146354.815843
$rtc_local_time,localRTC.weeks:2053,localRTC.seconds:374948.453291,localGtime.weeks:2053,localGtime.seconds:374949.000000
$pseudo_cd_ph,prn:1,pseudo_cd_ph:374948923.706229388714
measnum = 0,full_prange = 22867016.951285
$oldmeas,msRange:0.000000,x:-14502078.693913,y:2993208.591747,z:21868776.715877,vx:-643.820068,vy:-2741.556396,vz:-19.877420,tb:-0.000017507932
$newmeas,x:-14502029.586268,y:2993417.707267,z:21868778.230674,vx:-643.807617,vy:-2741.559814,vz:-19.841330,tb:-0.000017507931
$pseudo_cd_ph,prn:3,pseudo_cd_ph:374948925.829706490040
measnum = 1,full_prange = 22291983.749327
$oldmeas,msRange:74.359068,x:-21906360.313295,y:10216416.879092,z:10872666.428379,vx:841.934082,vy:-1132.259766,vz:2758.867188,tb:0.000187864872
$newmeas,x:-21906422.917358,y:10216501.070929,z:10872461.283746,vx:841.920166,vy:-1132.238403,vz:2758.884521,tb:0.000187864872
$pseudo_cd_ph,prn:6,pseudo_cd_ph:374948925.883904457092
measnum = 2,full_prange = 22280643.736435
$oldmeas,msRange:74.321128,x:6576552.635049,y:25704145.161173,z:-611065.064303,vx:-213.044067,vy:136.282394,vz:3208.602295,tb:0.000204236628
$newmeas,x:6576568.468297,y:25704135.031583,z:-611303.528323,vx:-213.037720,vy:136.310669,vz:3208.601318,tb:0.000204236629
$pseudo_cd_ph,prn:7,pseudo_cd_ph:374948916.428383052349
measnum = 3,full_prange = 25046553.717843
$oldmeas,msRange:83.547555,x:-8873683.025506,y:17343960.375170,z:-17575257.235925,vx:-698.421692,vy:-2203.631836,vz:-1842.637573,tb:-0.000025202173
$newmeas,x:-8873624.675554,y:17344144.479828,z:-17575103.289005,vx:-698.407227,vy:-2203.616211,vz:-1842.669922,tb:-0.000025202172
$pseudo_cd_ph,prn:17,pseudo_cd_ph:374948927.864397585392
measnum = 4,full_prange = 21642332.651244
$oldmeas,msRange:72.192053,x:3132729.253774,y:16152981.538765,z:21276253.011279,vx:-2463.921875,vy:-829.767761,vz:1003.748413,tb:0.000055553160
$newmeas,x:3132907.126443,y:16153041.440868,z:21276180.548490,vx:-2463.909668,vy:-829.776001,vz:1003.779907,tb:0.000055553159
$pseudo_cd_ph,prn:19,pseudo_cd_ph:374948926.273124456406
measnum = 5,full_prange = 22007282.849074
$oldmeas,msRange:73.409331,x:11160284.924930,y:16824748.290919,z:16912948.440666,vx:-2094.885254,vy:-702.803528,vz:2052.854248,tb:-0.000318377143
$newmeas,x:11160438.706323,y:16824799.882672,z:16912797.742943,vx:-2094.864258,vy:-702.805542,vz:2052.881348,tb:-0.000318377144
$pseudo_cd_ph,prn:22,pseudo_cd_ph:374948921.621643185616
measnum = 6,full_prange = 23286854.402842
$oldmeas,msRange:77.677672,x:-20491294.793289,y:3829109.326335,z:16652436.105303,vx:1232.574707,vy:-1698.142090,vz:1942.270630,tb:-0.000701667138
$newmeas,x:-20491390.535264,y:3829241.231487,z:16652285.235295,vx:1232.569092,vy:-1698.123413,vz:1942.297852,tb:-0.000701667138
$pseudo_cd_ph,prn:28,pseudo_cd_ph:374948931.857521831989
measnum = 7,full_prange = 20658774.108572
$oldmeas,msRange:68.911265,x:-8708773.513150,y:20129032.187358,z:15653979.752984,vx:-1551.736938,vy:1053.481934,vz:-2298.988281,tb:0.000767879253
$newmeas,x:-8708666.581891,y:20128959.591467,z:15654138.176091,vx:-1551.756592,vy:1053.487305,vz:-2298.966309,tb:0.000767879253
$pseudo_cd_ph,prn:30,pseudo_cd_ph:374948923.245309710503
measnum = 8,full_prange = 22978804.099906
$oldmeas,msRange:76.650220,x:-1960051.348684,y:24783705.034072,z:-9051119.708298,vx:-539.844116,vy:-1079.112915,vz:-2849.899902,tb:-0.000105545819
$newmeas,x:-1960009.970522,y:24783787.746088,z:-9050901.265641,vx:-539.834473,vy:-1079.088135,vz:-2849.914795,tb:-0.000105545819
Refix G01: 2, 374948.923706, 2144
Refix G03: 2, 374948.925830, -1461
Refix G06: 2, 374948.925884, -3741
Refix G07: 2, 374948.916428, 2372
Refix G17: 2, 374948.927864, -1726
Refix G19: 2, 374948.926273, -2698
Refix G22: 2, 374948.921622, 84
Refix G28: 2, 374948.931858, -1671
Refix G30: 2, 374948.923245, 2047
$GNGGA,080851.000,2944.9106,N,10633.0896,E,1,12,0.7,310.2,M,,,,0000*14
$GNRMC,080851.000,A,2944.9106,N,10633.0896,E,0.21,0.00,160519,,*15
$GPGSA,A,3,01,03,06,07,17,19,22,28,30,,,,1.1,0.7,0.8*39
$BDGSA,A,3,01,02,04,,,,,,,,,,1.1,0.7,0.8*2B
$GLGSA,A,3,,,,,,,,,,,,,1.1,0.7,0.8*21
$GPGSV,3,1,09,01,27,040,39,03,35,085,42,06,36,229,44,07,03,171,35*79
$GPGSV,3,2,09,17,51,326,44,19,37,298,42,22,25,062,40,28,79,043,44*79
$GPGSV,3,3,09,30,26,194,42*4D
$BDGSV,3,1,11,01,40,125,41,02,47,219,41,03,00,000,42,04,23,109,41*6F
$BDGSV,3,2,11,05,00,000,36,07,57,144,00,08,76,338,00,10,84,196,00*6F
$BDGSV,3,3,11,13,62,251,00,27,36,045,00,30,57,321,00*58
$B3CN0,0,0,0,0,0,0,0,0,0,0,0,0,0,0*4C
$ini_pos,lastpos_good = 1,ini_pos.x:-1578905.422868,ini_pos.y:5312756.969888,ini_pos.z:3146354.332215
$rtc_local_time,localRTC.weeks:2053,localRTC.seconds:374949.453291,localGtime.weeks:2053,localGtime.seconds:374950.000000
$pseudo_cd_ph,prn:1,pseudo_cd_ph:374949923.704833865166
measnum = 0,full_prange = 22867425.648319
$oldmeas,msRange:0.000000,x:-14502722.595550,y:2990467.057994,z:21868756.601872,vx:-643.983276,vy:-2741.511230,vz:-20.350592,tb:-0.000017507943
$newmeas,x:-14502673.474577,y:2990676.173811,z:21868758.152788,vx:-643.970825,vy:-2741.514648,vz:-20.314499,tb:-0.000017507942
$pseudo_cd_ph,prn:3,pseudo_cd_ph:374949925.830601811409
measnum = 1,full_prange = 22291705.671205
$oldmeas,msRange:74.358868,x:-21905518.285554,y:10215284.475794,z:10875425.178981,vx:842.121460,vy:-1132.546875,vz:2758.634277,tb:0.000187864871
$newmeas,x:-21905580.902766,y:10215368.687935,z:10875220.054221,vx:842.107483,vy:-1132.525635,vz:2758.651611,tb:0.000187864871
$pseudo_cd_ph,prn:6,pseudo_cd_ph:374949925.886245608330
measnum = 2,full_prange = 22279932.206733
$oldmeas,msRange:74.319488,x:6576339.548277,y:25704281.253361,z:-607856.455562,vx:-213.129501,vy:135.901993,vz:3208.615234,tb:0.000204236618
$newmeas,x:6576355.387368,y:25704271.152366,z:-608094.912933,vx:-213.123138,vy:135.930252,vz:3208.614258,tb:0.000204236618
$pseudo_cd_ph,prn:7,pseudo_cd_ph:374949916.426846683025
measnum = 3,full_prange = 25047004.639155
$oldmeas,msRange:83.549790,x:-8874381.533558,y:17341756.649036,z:-17577099.679449,vx:-698.594482,vy:-2203.820557,vz:-1842.249634,tb:-0.000025202185
$newmeas,x:-8874323.168120,y:17341940.772762,z:-17576945.762164,vx:-698.580017,vy:-2203.804688,vz:-1842.282104,tb:-0.000025202184
$pseudo_cd_ph,prn:17,pseudo_cd_ph:374949927.865459501743
measnum = 4,full_prange = 21642004.632713
$oldmeas,msRange:72.191688,x:3130265.247749,y:16152151.828257,z:21277256.541724,vx:-2464.090332,vy:-829.653320,vz:1003.312561,tb:0.000055553171
$newmeas,x:3130443.129886,y:16152211.721193,z:21277184.111499,vx:-2464.078125,vy:-829.661560,vz:1003.343994,tb:0.000055553170
$pseudo_cd_ph,prn:19,pseudo_cd_ph:374949926.274802982807
measnum = 5,full_prange = 22006769.972895
$oldmeas,msRange:73.408350,x:11158189.896397,y:16824045.501417,z:16915001.110268,vx:-2095.171875,vy:-702.775513,vz:2052.485107,tb:-0.000318377142
$newmeas,x:11158343.695245,y:16824097.089913,z:16914850.443148,vx:-2095.150879,vy:-702.777588,vz:2052.512207,tb:-0.000318377142
$pseudo_cd_ph,prn:22,pseudo_cd_ph:374949921.621560394764
measnum = 6,full_prange = 23286869.554347
$oldmeas,msRange:77.678451,x:-20490062.181904,y:3827411.064471,z:16654378.201156,vx:1232.648071,vy:-1698.381836,vz:1941.921143,tb:-0.000701667143
$newmeas,x:-20490157.929640,y:3827542.988332,z:16654227.358201,vx:1232.642456,vy:-1698.363159,vz:1941.948242,tb:-0.000701667143
$pseudo_cd_ph,prn:28,pseudo_cd_ph:374949931.858546376228
measnum = 7,full_prange = 20658457.292259
$oldmeas,msRange:68.910937,x:-8710325.107633,y:20130085.630912,z:15651680.605285,vx:-1551.452148,vy:1053.405151,vz:-2299.307129,tb:0.000767879258
$newmeas,x:-8710218.197636,y:20130013.041424,z:15651839.047942,vx:-1551.471802,vy:1053.410522,vz:-2299.285156,tb:0.000767879258
$pseudo_cd_ph,prn:30,pseudo_cd_ph:374949923.243975341320
measnum = 8,full_prange = 22979194.464047
$oldmeas,msRange:76.652252,x:-1960591.255573,y:24782625.759797,z:-9053969.510580,vx:-539.969727,vy:-1079.435791,vz:-2849.704834,tb:-0.000105545828
$newmeas,x:-1960549.867078,y:24782708.497968,z:-9053751.079150,vx:-539.960083,vy:-1079.411011,vz:-2849.719971,tb:-0.000105545827
Refix G01: 2, 374949.923705, 2146
Refix G03: 2, 374949.925831, -1458
Refix G06: 2, 374949.925886, -3737
Refix G07: 2, 374949.916427, 2374
Refix G17: 2, 374949.927865, -1723
Refix G19: 2, 374949.926275, -2695
Refix G22: 2, 374949.921622, 87
Refix G28: 2, 374949.931859, -1667
Refix G30: 2, 374949.923244, 2051
$GNGGA,080852.000,2944.9105,N,10633.0899,E,1,12,0.7,310.5,M,,,,0000*1C
$GNRMC,080852.000,A,2944.9105,N,10633.0899,E,0.20,0.00,160519,,*1B
$GPGSA,A,3,01,03,06,07,17,19,22,28,30,,,,1.1,0.7,0.8*39
$BDGSA,A,3,01,02,04,,,,,,,,,,1.1,0.7,0.8*2B
$GLGSA,A,3,,,,,,,,,,,,,1.1,0.7,0.8*21
$GPGSV,3,1,09,01,27,040,39,03,35,085,42,06,36,229,43,07,03,171,35*7E
$GPGSV,3,2,09,17,51,326,44,19,37,298,42,22,25,062,40,28,79,043,44*79
$GPGSV,3,3,09,30,26,194,42*4D
$BDGSV,3,1,11,01,40,125,41,02,47,219,41,03,00,000,43,04,23,109,40*6F
$BDGSV,3,2,11,05,00,000,35,27,36,045,26,30,57,321,46,07,57,144,00*68
$BDGSV,3,3,11,08,76,338,00,10,84,196,00,13,62,251,00*5A
$B3CN0,0,0,0,0,0,0,0,0,0,0,0,0,0,0*4C
$ini_pos,lastpos_good = 1,ini_pos.x:-1578905.924932,ini_pos.y:5312757.117923,ini_pos.z:3146354.276245
$rtc_local_time,localRTC.weeks:2053,localRTC.seconds:374950.453291,localGtime.weeks:2053,localGtime.seconds:374951.000000
$pseudo_cd_ph,prn:1,pseudo_cd_ph:374950923.703437745571
measnum = 0,full_prange = 22867834.524043
$oldmeas,msRange:0.000000,x:-14503366.660403,y:2987725.569370,z:21868736.014696,vx:-644.146484,vy:-2741.466064,vz:-20.823761,tb:-0.000017507954
$newmeas,x:-14503317.526103,y:2987934.685482,z:21868737.601733,vx:-644.134033,vy:-2741.469482,vz:-20.787668,tb:-0.000017507953
$pseudo_cd_ph,prn:3,pseudo_cd_ph:374950925.831494808197
measnum = 1,full_prange = 22291428.289975
$oldmeas,msRange:74.358664,x:-21904676.070495,y:10214151.785297,z:10878183.696707,vx:842.308716,vy:-1132.834106,vz:2758.401367,tb:0.000187864870
$newmeas,x:-21904738.700854,y:10214236.017746,z:10877978.591817,vx:842.294800,vy:-1132.812744,vz:2758.418701,tb:0.000187864870
$pseudo_cd_ph,prn:6,pseudo_cd_ph:374950925.888583600521
measnum = 2,full_prange = 22279221.624090
$oldmeas,msRange:74.317839,x:6576126.376052,y:25704416.965139,z:-604647.833853,vx:-213.214981,vy:135.521576,vz:3208.628174,tb:0.000204236607
$newmeas,x:6576142.220990,y:25704406.892737,z:-604886.284580,vx:-213.208618,vy:135.549850,vz:3208.627197,tb:0.000204236608
$pseudo_cd_ph,prn:7,pseudo_cd_ph:374950916.425308525562
measnum = 3,full_prange = 25047456.096539
$oldmeas,msRange:83.552022,x:-8875080.214406,y:17339552.734373,z:-17578941.735077,vx:-698.767273,vy:-2204.009033,vz:-1841.861694,tb:-0.000025202197
$newmeas,x:-8875021.833478,y:17339736.877167,z:-17578787.847428,vx:-698.752808,vy:-2203.993164,vz:-1841.894165,tb:-0.000025202196
$pseudo_cd_ph,prn:17,pseudo_cd_ph:374950927.866520524025
measnum = 4,full_prange = 21641676.882217
$oldmeas,msRange:72.191318,x:3127801.073260,y:16151322.232178,z:21278259.636286,vx:-2464.258789,vy:-829.538879,vz:1002.876648,tb:0.000055553181
$newmeas,x:3127978.964863,y:16151382.115946,z:21278187.238625,vx:-2464.246582,vy:-829.547119,vz:1002.908142,tb:0.000055553180
$pseudo_cd_ph,prn:19,pseudo_cd_ph:374950926.276480615139
measnum = 5,full_prange = 22006257.364752
$oldmeas,msRange:73.407363,x:11156094.581290,y:16823342.739920,z:16917053.410792,vx:-2095.458496,vy:-702.747498,vz:2052.115967,tb:-0.000318377140
$newmeas,x:11156248.397589,y:16823394.325157,z:16916902.774275,vx:-2095.437500,vy:-702.749573,vz:2052.143066,tb:-0.000318377140
$pseudo_cd_ph,prn:22,pseudo_cd_ph:374950921.621470570564
measnum = 6,full_prange = 23286886.814395
$oldmeas,msRange:77.679230,x:-20488829.497188,y:3825712.562867,z:16656319.947451,vx:1232.721436,vy:-1698.621582,vz:1941.571533,tb:-0.000701667148
$newmeas,x:-20488925.250690,y:3825844.505447,z:16656169.131537,vx:1232.715698,vy:-1698.602905,vz:1941.598755,tb:-0.000701667148
$pseudo_cd_ph,prn:28,pseudo_cd_ph:374950931.859571278095
measnum = 7,full_prange = 20658140.368732
$oldmeas,msRange:68.910600,x:-8711876.417347,y:20131138.997671,z:15649381.138661,vx:-1551.167358,vy:1053.328369,vz:-2299.626221,tb:0.000767879263
$newmeas,x:-8711769.528614,y:20131066.414590,z:15649539.600862,vx:-1551.187012,vy:1053.333618,vz:-2299.604248,tb:0.000767879263
$pseudo_cd_ph,prn:30,pseudo_cd_ph:374950923.242639124393
measnum = 8,full_prange = 22979585.382128
$oldmeas,msRange:76.654278,x:-1961131.288113,y:24781546.162647,z:-9056819.117951,vx:-540.095398,vy:-1079.758667,vz:-2849.510010,tb:-0.000105545836
$newmeas,x:-1961089.889281,y:24781628.926973,z:-9056600.697747,vx:-540.085754,vy:-1079.733887,vz:-2849.524902,tb:-0.000105545836
Refix G01: 2, 374950.923703, 2149
Refix G03: 2, 374950.925831, -1454
Refix G06: 2, 374950.925889, -3733
Refix G07: 2, 374950.916425, 2378
Refix G17: 2, 374950.927867, -1721
Refix G19: 2, 374950.926276, -2694
Refix G22: 2, 374950.921621, 90
Refix G28: 2, 374950.931860, -1663
Refix G30: 2, 374950.923243, 2055
$GNGGA,080853.000,2944.9106,N,10633.0899,E,1,12,0.7,310.1,M,,,,0000*1A
$GNRMC,080853.000,A,2944.9106,N,10633.0899,E,0.69,0.00,160519,,*14
$GPGSA,A,3,01,03,06,07,17,19,22,28,30,,,,1.1,0.7,0.8*39
$BDGSA,A,3,01,02,04,,,,,,,,,,1.1,0.7,0.8*2B
$GLGSA,A,3,,,,,,,,,,,,,1.1,0.7,0.8*21
$GPGSV,3,1,09,01,27,040,39,03,35,085,42,06,36,229,44,07,03,171,35*79
$GPGSV,3,2,09,17,51,326,44,19,37,298,41,22,25,062,41,28,79,043,44*7B
$GPGSV,3,3,09,30,26,194,42*4D
$BDGSV,3,1,11,01,40,125,41,02,47,219,40,03,00,000,43,04,23,109,40*6E
$BDGSV,3,2,11,05,00,000,36,27,36,045,45,30,57,321,44,07,57,144,00*6C
$BDGSV,3,3,11,08,76,338,00,10,84,196,00,13,62,251,00*5A
$B3CN0,0,0,0,0,0,0,0,0,0,0,0,0,0,0*4C
$ini_pos,lastpos_good = 1,ini_pos.x:-1578905.769138,ini_pos.y:5312756.760844,ini_pos.z:3146354.322020
$rtc_local_time,localRTC.weeks:2053,localRTC.seconds:374951.453291,localGtime.weeks:2053,localGtime.seconds:374952.000000
$pseudo_cd_ph,prn:1,pseudo_cd_ph:374951923.702038764954
measnum = 0,full_prange = 22868244.257481
$oldmeas,msRange:0.000000,x:-14504010.888455,y:2984984.125944,z:21868714.954353,vx:-644.309692,vy:-2741.420898,vz:-21.296928,tb:-0.000017507965
$newmeas,x:-14503961.740826,y:2985193.242352,z:21868716.577511,vx:-644.297241,vy:-2741.424316,vz:-21.260836,tb:-0.000017507964
$pseudo_cd_ph,prn:3,pseudo_cd_ph:374951925.832386791706
measnum = 1,full_prange = 22291151.212518
$oldmeas,msRange:74.358464,x:-21903833.668173,y:10213018.807592,z:10880941.981497,vx:842.495972,vy:-1133.121338,vz:2758.168457,tb:0.000187864868
$newmeas,x:-21903896.311676,y:10213103.060350,z:10880736.896479,vx:842.482056,vy:-1133.099976,vz:2758.185791,tb:0.000187864868
$pseudo_cd_ph,prn:6,pseudo_cd_ph:374951925.890922009945
measnum = 2,full_prange = 22278510.916363
$oldmeas,msRange:74.316192,x:6575913.118321,y:25704552.296517,z:-601439.199245,vx:-213.300507,vy:135.141190,vz:3208.641113,tb:0.000204236597
$newmeas,x:6575928.969110,y:25704542.252705,z:-601677.643322,vx:-213.294144,vy:135.169449,vz:3208.640137,tb:0.000204236598
$pseudo_cd_ph,prn:7,pseudo_cd_ph:374951916.423771262169
measnum = 3,full_prange = 25047907.285887
$oldmeas,msRange:83.554255,x:-8875779.068065,y:17337348.631243,z:-17580783.402768,vx:-698.940063,vy:-2204.197510,vz:-1841.473755,tb:-0.000025202208
$newmeas,x:-8875720.671646,y:17337532.793099,z:-17580629.544761,vx:-698.925659,vy:-2204.181641,vz:-1841.506226,tb:-0.000025202207
$pseudo_cd_ph,prn:17,pseudo_cd_ph:374951927.867581248283
measnum = 4,full_prange = 21641349.221065
$oldmeas,msRange:72.190947,x:3125336.730362,y:16150492.750566,z:21279262.294945,vx:-2464.427246,vy:-829.424377,vz:1002.440735,tb:0.000055553191
$newmeas,x:3125514.631427,y:16150552.625163,z:21279189.929847,vx:-2464.415039,vy:-829.432678,vz:1002.472229,tb:0.000055553191
$pseudo_cd_ph,prn:19,pseudo_cd_ph:374951926.278157711029
measnum = 5,full_prange = 22005744.917430
$oldmeas,msRange:73.406375,x:11153998.979645,y:16822640.006482,z:16919105.342192,vx:-2095.744873,vy:-702.719421,vz:2051.746826,tb:-0.000318377138
$newmeas,x:11154152.813394,y:16822691.588457,z:16918954.736279,vx:-2095.723877,vy:-702.721497,vz:2051.773926,tb:-0.000318377138
$pseudo_cd_ph,prn:22,pseudo_cd_ph:374951921.621381580830
measnum = 6,full_prange = 23286903.824278
$oldmeas,msRange:77.680011,x:-20487596.739198,y:3824013.821538,z:16658261.344146,vx:1232.794678,vy:-1698.861206,vz:1941.221924,tb:-0.000701667153
$newmeas,x:-20487692.498459,y:3824145.782834,z:16658110.555280,vx:1232.788940,vy:-1698.842651,vz:1941.249146,tb:-0.000701667152
$pseudo_cd_ph,prn:28,pseudo_cd_ph:374951931.860597252846
measnum = 7,full_prange = 20657823.123562
$oldmeas,msRange:68.910265,x:-8713427.442281,y:20132192.287576,z:15647081.353157,vx:-1550.882568,vy:1053.251465,vz:-2299.945068,tb:0.000767879268
$newmeas,x:-8713320.574813,y:20132119.710908,z:15647239.834897,vx:-1550.902222,vy:1053.256836,vz:-2299.923096,tb:0.000767879268
$pseudo_cd_ph,prn:30,pseudo_cd_ph:374951923.241305232048
measnum = 8,full_prange = 22979975.603317
$oldmeas,msRange:76.656305,x:-1961671.446343,y:24780466.242659,z:-9059668.530348,vx:-540.221130,vy:-1080.081421,vz:-2849.314941,tb:-0.000105545845
$newmeas,x:-1961630.037172,y:24780549.033136,z:-9059450.121383,vx:-540.211487,vy:-1080.056641,vz:-2849.329834,tb:-0.000105545844
Refix G01: 2, 374951.923702, 2146
Refix G03: 2, 374951.925832, -1458
Refix G06: 2, 374951.925891, -3738
Refix G07: 2, 374951.916424, 2374
Refix G17: 2, 374951.927868, -1725
Refix G19: 2, 374951.926278, -2697
Refix G22: 2, 374951.921621, 87
Refix G28: 2, 374951.931861, -1669
Refix G30: 2, 374951.923241, 2050
$GNGGA,080854.000,2944.9106,N,10633.0899,E,1,12,0.7,309.9,M,,,,0000*1D
$GNRMC,080854.000,A,2944.9106,N,10633.0899,E,0.10,0.00,160519,,*1D
$GPGSA,A,3,01,03,06,07,17,19,22,28,30,,,,1.1,0.7,0.8*39
$BDGSA,A,3,01,02,04,,,,,,,,,,1.1,0.7,0.8*2B
$GLGSA,A,3,,,,,,,,,,,,,1.1,0.7,0.8*21
$GPGSV,3,1,09,01,27,040,40,03,35,085,42,06,36,229,45,07,03,171,34*77
$GPGSV,3,2,09,17,51,326,45,19,37,298,42,22,25,062,41,28,79,043,44*79
$GPGSV,3,3,09,30,26,194,42*4D
$BDGSV,3,1,11,01,40,125,40,02,47,219,40,03,00,000,42,04,23,109,39*60
$BDGSV,3,2,11,05,00,000,36,27,36,045,44,30,57,321,44,07,57,144,00*6D
$BDGSV,3,3,11,08,76,338,00,10,84,196,00,13,62,251,00*5A
$B3CN0,0,0,0,0,0,0,0,0,0,0,0,0,0,0*4C
$ini_pos,lastpos_good = 1,ini_pos.x:-1578905.738166,ini_pos.y:5312756.496425,ini_pos.z:3146354.186416
$rtc_local_time,localRTC.weeks:2053,localRTC.seconds:374952.453291,localGtime.weeks:2053,localGtime.seconds:374953.000000
$pseudo_cd_ph,prn:1,pseudo_cd_ph:374952923.700641810894
measnum = 0,full_prange = 22868653.383372
$oldmeas,msRange:0.000000,x:-14504655.279691,y:2982242.727783,z:21868693.420843,vx:-644.472839,vy:-2741.375488,vz:-21.770094,tb:-0.000017507975
$newmeas,x:-14504606.118736,y:2982451.844478,z:21868695.080124,vx:-644.460388,vy:-2741.379150,vz:-21.733999,tb:-0.000017507975
$pseudo_cd_ph,prn:3,pseudo_cd_ph:374952925.833280980587
measnum = 1,full_prange = 22290873.473907
$oldmeas,msRange:74.358264,x:-21902991.078645,y:10211885.542671,z:10883700.033293,vx:842.683167,vy:-1133.408569,vz:2757.935303,tb:0.000187864867
$newmeas,x:-21903053.735285,y:10211969.815735,z:10883494.968156,vx:842.669250,vy:-1133.387207,vz:2757.952637,tb:0.000187864867
$pseudo_cd_ph,prn:6,pseudo_cd_ph:374952925.893262028694
measnum = 2,full_prange = 22277799.726173
$oldmeas,msRange:74.314544,x:6575699.775033,y:25704687.247506,z:-598230.551807,vx:-213.386093,vy:134.760803,vz:3208.654053,tb:0.000204236587
$newmeas,x:6575715.631675,y:25704677.232281,z:-598468.989224,vx:-213.379730,vy:134.789062,vz:3208.653076,tb:0.000204236588
$pseudo_cd_ph,prn:7,pseudo_cd_ph:374952916.422231912613
measnum = 3,full_prange = 25048359.100650
$oldmeas,msRange:83.556487,x:-8876478.094552,y:17335144.339711,z:-17582624.682483,vx:-699.112915,vy:-2204.385742,vz:-1841.085815,tb:-0.000025202220
$newmeas,x:-8876419.682639,y:17335328.520627,z:-17582470.854118,vx:-699.098511,vy:-2204.370117,vz:-1841.118164,tb:-0.000025202219
$pseudo_cd_ph,prn:17,pseudo_cd_ph:374952927.868643999100
measnum = 4,full_prange = 21641020.952367
$oldmeas,msRange:72.190577,x:3122872.219110,y:16149663.383459,z:21280264.517680,vx:-2464.595459,vy:-829.309875,vz:1002.004822,tb:0.000055553202
$newmeas,x:3123050.129627,y:16149723.248880,z:21280192.185149,vx:-2464.583252,vy:-829.318115,vz:1002.036255,tb:0.000055553201
$pseudo_cd_ph,prn:19,pseudo_cd_ph:374952926.279835939407
measnum = 5,full_prange = 22005232.130596
$oldmeas,msRange:73.405389,x:11151903.091501,y:16821937.301155,z:16921156.904423,vx:-2096.031494,vy:-702.691284,vz:2051.377686,tb:-0.000318377137
$newmeas,x:11152056.942693,y:16821988.879862,z:16921006.329119,vx:-2096.010498,vy:-702.693359,vz:2051.404785,tb:-0.000318377137
$pseudo_cd_ph,prn:22,pseudo_cd_ph:374952921.621291756630
measnum = 6,full_prange = 23286921.084327
$oldmeas,msRange:77.680791,x:-20486363.907989,y:3822314.840500,z:16660202.391203,vx:1232.867798,vy:-1699.100952,vz:1940.872314,tb:-0.000701667158
$newmeas,x:-20486459.673006,y:3822446.820514,z:16660051.629385,vx:1232.862183,vy:-1699.082275,vz:1940.899414,tb:-0.000701667157
$pseudo_cd_ph,prn:28,pseudo_cd_ph:374952931.861624658108
measnum = 7,full_prange = 20657505.449536
$oldmeas,msRange:68.909931,x:-8714978.182420,y:20133245.500568,z:15644781.248819,vx:-1550.597778,vy:1053.174561,vz:-2300.263916,tb:0.000767879273
$newmeas,x:-8714871.336220,y:20133172.930317,z:15644939.750089,vx:-1550.617432,vy:1053.179810,vz:-2300.241943,tb:0.000767879272
$pseudo_cd_ph,prn:30,pseudo_cd_ph:374952923.239973783493
measnum = 8,full_prange = 22980365.091876
$oldmeas,msRange:76.658332,x:-1962211.730301,y:24779385.999869,z:-9062517.747712,vx:-540.346863,vy:-1080.404175,vz:-2849.119873,tb:-0.000105545853
$newmeas,x:-1962170.310789,y:24779468.816492,z:-9062299.349997,vx:-540.337219,vy:-1080.379517,vz:-2849.134766,tb:-0.000105545853
Refix G01: 2, 374952.923701, 2144
Refix G03: 2, 374952.925833, -1459
Refix G06: 2, 374952.925893, -3740
Refix G07: 2, 374952.916422, 2372
Refix G17: 2, 374952.927869, -1727
Refix G19: 2, 374952.926280, -2699
Refix G22: 2, 374952.921621, 85
Refix G28: 2, 374952.931862, -1671
Refix G30: 2, 374952.923240, 2047
$GNGGA,080855.000,2944.9104,N,10633.0901,E,1,12,0.7,310.0,M,,,,0000*1F
$GNRMC,080855.000,A,2944.9104,N,10633.0901,E,0.11,0.00,160519,,*1F
$GPGSA,A,3,01,03,06,07,17,19,22,28,30,,,,1.1,0.7,0.8*39
$BDGSA,A,3,01,02,04,,,,,,,,,,1.1,0.7,0.8*2B
$GLGSA,A,3,,,,,,,,,,,,,1.1,0.7,0.8*21
$GPGSV,3,1,09,01,27,040,39,03,35,085,42,06,36,229,45,07,03,171,34*79
$GPGSV,3,2,09,17,51,326,45,19,37,298,42,22,25,062,41,28,79,043,44*79
$GPGSV,3,3,09,30,26,194,42*4D
$BDGSV,3,1,11,01,40,125,41,02,47,219,40,03,00,000,42,04,23,109,40*6F
$BDGSV,3,2,11,05,00,000,36,27,36,045,44,30,57,321,44,07,57,144,00*6D
$BDGSV,3,3,11,08,76,338,00,10,84,196,00,13,62,251,00*5A
$B3CN0,0,0,0,0,0,0,0,0,0,0,0,0,0,0*4C
$ini_pos,lastpos_good = 1,ini_pos.x:-1578906.089212,ini_pos.y:5312756.747677,ini_pos.z:3146353.975253
$rtc_local_time,localRTC.weeks:2053,localRTC.seconds:374953.453291,localGtime.weeks:2053,localGtime.seconds:374954.000000
$pseudo_cd_ph,prn:1,pseudo_cd_ph:374953923.699250102043
measnum = 0,full_prange = 22869060.936789
$oldmeas,msRange:0.000000,x:-14505299.834094,y:2979501.374958,z:21868671.414168,vx:-644.635986,vy:-2741.330322,vz:-22.243258,tb:-0.000017507986
$newmeas,x:-14505250.659816,y:2979710.491919,z:21868673.109573,vx:-644.623535,vy:-2741.333740,vz:-22.207163,tb:-0.000017507986
$pseudo_cd_ph,prn:3,pseudo_cd_ph:374953925.834175705910
measnum = 1,full_prange = 22290595.574475
$oldmeas,msRange:74.358062,x:-21902148.301966,y:10210751.990523,z:10886457.852035,vx:842.870239,vy:-1133.695801,vz:2757.702393,tb:0.000187864866
$newmeas,x:-21902210.971738,y:10210836.283893,z:10886252.806785,vx:842.856323,vy:-1133.674438,vz:2757.719727,tb:0.000187864866
$pseudo_cd_ph,prn:6,pseudo_cd_ph:374953925.895600020885
measnum = 2,full_prange = 22277089.143529
$oldmeas,msRange:74.312896,x:6575486.346136,y:25704821.818117,z:-595021.891607,vx:-213.471725,vy:134.380432,vz:3208.666748,tb:0.000204236576
$newmeas,x:6575502.208635,y:25704811.831476,z:-595260.322365,vx:-213.465363,vy:134.408691,vz:3208.665771,tb:0.000204236577
$pseudo_cd_ph,prn:7,pseudo_cd_ph:374953916.420693218708
measnum = 3,full_prange = 25048810.718855
$oldmeas,msRange:83.558718,x:-8877177.293883,y:17332939.859837,z:-17584465.574181,vx:-699.285767,vy:-2204.573975,vz:-1840.697754,tb:-0.000025202232
$newmeas,x:-8877118.866475,y:17333124.059809,z:-17584311.775465,vx:-699.271362,vy:-2204.558350,vz:-1840.730103,tb:-0.000025202231
$pseudo_cd_ph,prn:17,pseudo_cd_ph:374953927.869707763195
measnum = 4,full_prange = 21640692.379896
$oldmeas,msRange:72.190207,x:3120407.539556,y:16148834.130893,z:21281266.304472,vx:-2464.763672,vy:-829.195312,vz:1001.568848,tb:0.000055553212
$newmeas,x:3120585.459519,y:16148893.987135,z:21281194.004508,vx:-2464.751709,vy:-829.203552,vz:1001.600342,tb:0.000055553212
$pseudo_cd_ph,prn:19,pseudo_cd_ph:374953926.281512916088
measnum = 5,full_prange = 22004719.719011
$oldmeas,msRange:73.404402,x:11149806.916896,y:16821234.623992,z:16923208.097439,vx:-2096.317871,vy:-702.663086,vz:2051.008545,tb:-0.000318377135
$newmeas,x:11149960.785531,y:16821286.199429,z:16923057.552743,vx:-2096.296875,vy:-702.665161,vz:2051.035645,tb:-0.000318377135
$pseudo_cd_ph,prn:22,pseudo_cd_ph:374953921.621200680733
measnum = 6,full_prange = 23286938.719626
$oldmeas,msRange:77.681572,x:-20485131.003615,y:3820615.619770,z:16662143.088582,vx:1232.940918,vy:-1699.340576,vz:1940.522583,tb:-0.000701667162
$newmeas,x:-20485226.774386,y:3820747.618502,z:16661992.353813,vx:1232.935303,vy:-1699.322021,vz:1940.549805,tb:-0.000701667162
$pseudo_cd_ph,prn:28,pseudo_cd_ph:374953931.862652420998
measnum = 7,full_prange = 20657187.668295
$oldmeas,msRange:68.909595,x:-8716528.637753,y:20134298.636586,z:15642480.825691,vx:-1550.312988,vy:1053.097534,vz:-2300.582520,tb:0.000767879278
$newmeas,x:-8716421.812821,y:20134226.072758,z:15642639.346487,vx:-1550.332642,vy:1053.102905,vz:-2300.560547,tb:0.000767879277
$pseudo_cd_ph,prn:30,pseudo_cd_ph:374953923.238640010357
measnum = 8,full_prange = 22980755.277327
$oldmeas,msRange:76.660357,x:-1962752.140025,y:24778305.434312,z:-9065366.769980,vx:-540.472656,vy:-1080.726929,vz:-2848.924805,tb:-0.000105545862
$newmeas,x:-1962710.710168,y:24778388.277082,z:-9065148.383515,vx:-540.463013,vy:-1080.702271,vz:-2848.939697,tb:-0.000105545861
Refix G01: 2, 374953.923699, 2151
Refix G03: 2, 374953.925834, -1451
Refix G06: 2, 374953.925896, -3733
Refix G07: 2, 374953.916421, 2377
Refix G17: 2, 374953.927870, -1720
Refix G19: 2, 374953.926282, -2693
Refix G22: 2, 374953.921621, 93
Refix G28: 2, 374953.931863, -1663
Refix G30: 2, 374953.923239, 2054
$GNGGA,080856.000,2944.9103,N,10633.0903,E,1,12,0.7,310.8,M,,,,0000*11
$GNRMC,080856.000,A,2944.9103,N,10633.0903,E,0.29,0.00,160519,,*12
$GPGSA,A,3,01,03,06,07,17,19,22,28,30,,,,1.1,0.7,0.8*39
$BDGSA,A,3,01,02,04,,,,,,,,,,1.1,0.7,0.8*2B
$GLGSA,A,3,,,,,,,,,,,,,1.1,0.7,0.8*21
$GPGSV,3,1,09,01,27,040,39,03,35,085,42,06,36,229,44,07,03,171,33*7F
$GPGSV,3,2,09,17,51,326,45,19,37,298,43,22,25,062,41,28,79,043,44*78
$GPGSV,3,3,09,30,26,194,42*4D
$BDGSV,3,1,11,01,40,125,41,02,47,219,40,03,00,000,42,04,23,109,39*61
$BDGSV,3,2,11,05,00,000,36,27,36,045,44,30,57,321,44,07,57,144,00*6D
$BDGSV,3,3,11,08,76,338,00,10,84,196,00,13,62,251,00*5A
$B3CN0,0,0,0,0,0,0,0,0,0,0,0,0,0,0*4C
$ini_pos,lastpos_good = 1,ini_pos.x:-1578906.594853,ini_pos.y:5312757.416991,ini_pos.z:3146354.072091
$rtc_local_time,localRTC.weeks:2053,localRTC.seconds:374954.453291,localGtime.weeks:2053,localGtime.seconds:374955.000000
$pseudo_cd_ph,prn:1,pseudo_cd_ph:374954923.697860598564
measnum = 0,full_prange = 22869467.829053
$oldmeas,msRange:0.000000,x:-14505944.551648,y:2976760.067537,z:21868648.934332,vx:-644.799133,vy:-2741.284668,vz:-22.716419,tb:-0.000017507997
$newmeas,x:-14505895.364050,y:2976969.184752,z:21868650.665862,vx:-644.786682,vy:-2741.288330,vz:-22.680323,tb:-0.000017507996
$pseudo_cd_ph,prn:3,pseudo_cd_ph:374954925.835069954395
measnum = 1,full_prange = 22290317.817996
$oldmeas,msRange:74.357860,x:-21901305.338190,y:10209618.151140,z:10889215.437664,vx:843.057312,vy:-1133.983032,vz:2757.469238,tb:0.000187864864
$newmeas,x:-21901368.021091,y:10209702.464817,z:10889010.412303,vx:843.043396,vy:-1133.961670,vz:2757.486572,tb:0.000187864865
$pseudo_cd_ph,prn:6,pseudo_cd_ph:374954925.897940874100
measnum = 2,full_prange = 22276377.703173
$oldmeas,msRange:74.311247,x:6575272.831576,y:25704956.008360,z:-591813.218714,vx:-213.557419,vy:134.000061,vz:3208.679199,tb:0.000204236566
$newmeas,x:6575288.699937,y:25704946.050302,z:-592051.642798,vx:-213.551041,vy:134.028336,vz:3208.678467,tb:0.000204236567
$pseudo_cd_ph,prn:7,pseudo_cd_ph:374954916.419154047966
measnum = 3,full_prange = 25049262.480012
$oldmeas,msRange:83.560949,x:-8877876.666074,y:17330735.191686,z:-17586306.077823,vx:-699.458618,vy:-2204.762451,vz:-1840.309692,tb:-0.000025202243
$newmeas,x:-8877818.223168,y:17330919.410709,z:-17586152.308758,vx:-699.444214,vy:-2204.746582,vz:-1840.342041,tb:-0.000025202242
$pseudo_cd_ph,prn:17,pseudo_cd_ph:374954927.870772361755
measnum = 4,full_prange = 21640363.557259
$oldmeas,msRange:72.189835,x:3117942.691756,y:16148004.992906,z:21282267.655300,vx:-2464.931885,vy:-829.080688,vz:1001.132874,tb:0.000055553223
$newmeas,x:3118120.621158,y:16148064.839967,z:21282195.387906,vx:-2464.919922,vy:-829.088989,vz:1001.164368,tb:0.000055553222
$pseudo_cd_ph,prn:19,pseudo_cd_ph:374954926.283191680908
measnum = 5,full_prange = 22004206.771356
$oldmeas,msRange:73.403414,x:11147710.455869,y:16820531.975044,z:16925258.921195,vx:-2096.604248,vy:-702.634827,vz:2050.639160,tb:-0.000318377133
$newmeas,x:11147864.341939,y:16820583.547206,z:16925108.407113,vx:-2096.583252,vy:-702.636902,vz:2050.666260,tb:-0.000318377133
$pseudo_cd_ph,prn:22,pseudo_cd_ph:374954921.621111392975
measnum = 6,full_prange = 23286955.818853
$oldmeas,msRange:77.682352,x:-20483898.026133,y:3818916.159364,z:16664083.436243,vx:1233.014038,vy:-1699.580322,vz:1940.172852,tb:-0.000701667167
$newmeas,x:-20483993.802651,y:3819048.176810,z:16663932.728530,vx:1233.008423,vy:-1699.561646,vz:1940.200073,tb:-0.000701667167
$pseudo_cd_ph,prn:28,pseudo_cd_ph:374954931.863680779934
measnum = 7,full_prange = 20656869.708364
$oldmeas,msRange:68.909258,x:-8718078.808265,y:20135351.695572,z:15640180.083818,vx:-1550.028198,vy:1053.020508,vz:-2300.901367,tb:0.000767879283
$newmeas,x:-8717972.004603,y:20135279.138170,z:15640338.624136,vx:-1550.047729,vy:1053.025757,vz:-2300.879395,tb:0.000767879282
$pseudo_cd_ph,prn:30,pseudo_cd_ph:374954923.237305641174
measnum = 8,full_prange = 22981145.641468
$oldmeas,msRange:76.662381,x:-1963292.675553,y:24777224.546026,z:-9068215.597092,vx:-540.598450,vy:-1081.049683,vz:-2848.729492,tb:-0.000105545870
$newmeas,x:-1963251.235348,y:24777307.414941,z:-9067997.221879,vx:-540.588806,vy:-1081.024902,vz:-2848.744629,tb:-0.000105545869
Refix G01: 2, 374954.923698, 2145
Refix G03: 2, 374954.925835, -1458
Refix G06: 2, 374954.925898, -3738
Refix G07: 2, 374954.916419, 2372
Refix G17: 2, 374954.927871, -1726
Refix G19: 2, 374954.926283, -2698
Refix G22: 2, 374954.921621, 87
Refix G28: 2, 374954.931864, -1670
Refix G30: 2, 374954.923237, 2048
$GNGGA,080857.000,2944.9102,N,10633.0904,E,1,12,0.7,311.0,M,,,,0000*1F
$GNRMC,080857.000,A,2944.9102,N,10633.0904,E,0.21,0.00,160519,,*1D
$GPGSA,A,3,01,03,06,07,17,19,22,28,30,,,,1.1,0.7,0.8*39
$BDGSA,A,3,01,02,04,,,,,,,,,,1.1,0.7,0.8*2B
$GLGSA,A,3,,,,,,,,,,,,,1.1,0.7,0.8*21
$GPGSV,3,1,09,01,27,040,39,03,35,085,42,06,36,229,44,07,03,171,34*78
$GPGSV,3,2,09,17,51,326,45,19,37,298,42,22,25,062,41,28,79,043,44*79
$GPGSV,3,3,09,30,26,194,43*4C
$BDGSV,3,1,11,01,40,125,42,02,47,219,41,03,00,000,42,04,23,109,40*6D
$BDGSV,3,2,11,05,00,000,36,27,36,045,43,30,57,321,44,07,57,144,00*6A
$BDGSV,3,3,11,08,76,338,00,10,84,196,00,13,62,251,00*5A
$B3CN0,0,0,0,0,0,0,0,0,0,0,0,0,0,0*4C
$ini_pos,lastpos_good = 1,ini_pos.x:-1578906.899960,ini_pos.y:5312757.584308,ini_pos.z:3146354.066498
$rtc_local_time,localRTC.weeks:2053,localRTC.seconds:374955.453291,localGtime.weeks:2053,localGtime.seconds:374956.000000
$pseudo_cd_ph,prn:1,pseudo_cd_ph:374955923.696470558643
measnum = 0,full_prange = 22869874.882137
$oldmeas,msRange:0.000000,x:-14506589.432337,y:2974018.805588,z:21868625.981334,vx:-644.962280,vy:-2741.239258,vz:-23.189577,tb:-0.000017508008
$newmeas,x:-14506540.231419,y:2974227.923054,z:21868627.748991,vx:-644.949829,vy:-2741.242676,vz:-23.153482,tb:-0.000017508007
$pseudo_cd_ph,prn:3,pseudo_cd_ph:374955925.835965037346
measnum = 1,full_prange = 22290039.811350
$oldmeas,msRange:74.357660,x:-21900462.187374,y:10208484.024514,z:10891972.790121,vx:843.244324,vy:-1134.270264,vz:2757.235840,tb:0.000187864863
$newmeas,x:-21900524.883398,y:10208568.358496,z:10891767.784656,vx:843.230469,vy:-1134.248901,vz:2757.253174,tb:0.000187864863
$pseudo_cd_ph,prn:6,pseudo_cd_ph:374955925.900281548500
measnum = 2,full_prange = 22275666.316423
$oldmeas,msRange:74.309599,x:6575059.231304,y:25705089.818247,z:-588604.533196,vx:-213.643158,vy:133.619720,vz:3208.691895,tb:0.000204236556
$newmeas,x:6575075.105528,y:25705079.888767,z:-588842.950601,vx:-213.636780,vy:133.647980,vz:3208.690918,tb:0.000204236557
$pseudo_cd_ph,prn:7,pseudo_cd_ph:374955916.417620480061
measnum = 3,full_prange = 25049712.561481
$oldmeas,msRange:83.563180,x:-8878576.211141,y:17328530.335319,z:-17588146.193369,vx:-699.631531,vy:-2204.950439,vz:-1839.921509,tb:-0.000025202255
$newmeas,x:-8878517.752740,y:17328714.573376,z:-17587992.453971,vx:-699.617065,vy:-2204.934814,vz:-1839.953979,tb:-0.000025202254
$pseudo_cd_ph,prn:17,pseudo_cd_ph:374955927.871838688850
measnum = 4,full_prange = 21640034.216419
$oldmeas,msRange:72.189465,x:3115477.675763,y:16147175.969535,z:21283268.570145,vx:-2465.100098,vy:-828.966064,vz:1000.696899,tb:0.000055553233
$newmeas,x:3115655.614596,y:16147235.807411,z:21283196.335322,vx:-2465.087891,vy:-828.974365,vz:1000.728333,tb:0.000055553232
$pseudo_cd_ph,prn:19,pseudo_cd_ph:374955926.284873425961
measnum = 5,full_prange = 22003692.930250
$oldmeas,msRange:73.402427,x:11145613.708457,y:16819829.354366,z:16927309.375645,vx:-2096.890625,vy:-702.606567,vz:2050.269775,tb:-0.000318377131
$newmeas,x:11145767.611952,y:16819880.923247,z:16927158.892185,vx:-2096.869629,vy:-702.608643,vz:2050.296875,tb:-0.000318377131
$pseudo_cd_ph,prn:22,pseudo_cd_ph:374955921.621021151543
measnum = 6,full_prange = 23286973.203986
$oldmeas,msRange:77.683132,x:-20482664.975597,y:3817216.459298,z:16666023.434145,vx:1233.087036,vy:-1699.819946,vz:1939.823120,tb:-0.000701667172
$newmeas,x:-20482760.757860,y:3817348.495458,z:16665872.753489,vx:1233.081421,vy:-1699.801270,vz:1939.850220,tb:-0.000701667171
$pseudo_cd_ph,prn:28,pseudo_cd_ph:374955931.864711165428
measnum = 7,full_prange = 20656551.140887
$oldmeas,msRange:68.908923,x:-8719628.693944,y:20136404.677466,z:15637879.023246,vx:-1549.743286,vy:1052.943359,vz:-2301.219971,tb:0.000767879287
$newmeas,x:-8719521.911556,y:20136332.126497,z:15638037.583077,vx:-1549.762939,vy:1052.948730,vz:-2301.197998,tb:0.000767879287
$pseudo_cd_ph,prn:30,pseudo_cd_ph:374955923.235973775387
measnum = 8,full_prange = 22981535.255111
$oldmeas,msRange:76.664407,x:-1963833.336925,y:24776143.335046,z:-9071064.228986,vx:-540.724304,vy:-1081.372314,vz:-2848.534424,tb:-0.000105545879
$newmeas,x:-1963791.886368,y:24776226.230101,z:-9070845.865038,vx:-540.714661,vy:-1081.347656,vz:-2848.549316,tb:-0.000105545878
Refix G01: 2, 374955.923696, 2143
Refix G03: 2, 374955.925836, -1460
Refix G06: 2, 374955.925900, -3741
Refix G07: 2, 374955.916418, 2369
Refix G17: 2, 374955.927872, -1729
Refix G19: 2, 374955.926285, -2700
Refix G22: 2, 374955.921621, 85
Refix G28: 2, 374955.931865, -1673
Refix G30: 2, 374955.923236, 2046
$GNGGA,080858.000,2944.9097,N,10633.0906,E,1,14,0.7,311.5,M,,,,0000*1C
$GNRMC,080858.000,A,2944.9097,N,10633.0906,E,0.38,0.00,160519,,*15
$GPGSA,A,3,01,03,06,07,17,19,22,28,30,,,,0.9,0.7,0.6*3E
$BDGSA,A,3,01,02,04,27,30,,,,,,,,0.9,0.7,0.6*2A
$GLGSA,A,3,,,,,,,,,,,,,0.9,0.7,0.6*26
$GPGSV,3,1,09,01,27,040,38,03,35,085,43,06,36,229,45,07,03,171,33*7E
$GPGSV,3,2,09,17,51,326,45,19,37,298,43,22,25,062,41,28,79,043,44*78
$GPGSV,3,3,09,30,26,194,42*4D
$BDGSV,3,1,11,01,40,125,41,02,47,219,41,03,00,000,43,04,23,109,40*6F
$BDGSV,3,2,11,05,00,000,35,10,84,196,32,27,36,045,44,30,57,321,44*68
$BDGSV,3,3,11,07,57,144,00,08,76,338,00,13,62,251,00*5D
$B3CN0,0,36,0,0,0,0,0,0,0,0,0,0,0,0*79
$ini_pos,lastpos_good = 1,ini_pos.x:-1578907.528214,ini_pos.y:5312758.331334,ini_pos.z:3146353.538235
$rtc_local_time,localRTC.weeks:2053,localRTC.seconds:374956.453291,localGtime.weeks:2053,localGtime.seconds:374957.000000
$pseudo_cd_ph,prn:1,pseudo_cd_ph:374956923.695080101490
measnum = 0,full_prange = 22870282.060305
$oldmeas,msRange:0.000000,x:-14507234.476144,y:2971277.589181,z:21868602.555178,vx:-645.125366,vy:-2741.193604,vz:-23.662735,tb:-0.000017508019
$newmeas,x:-14507185.261907,y:2971486.706893,z:21868604.358962,vx:-645.112915,vy:-2741.197266,vz:-23.626640,tb:-0.000017508018
$pseudo_cd_ph,prn:3,pseudo_cd_ph:374956925.836860716343
measnum = 1,full_prange = 22289761.626013
$oldmeas,msRange:74.357459,x:-21899618.849573,y:10207349.610634,z:10894729.909347,vx:843.431274,vy:-1134.557495,vz:2757.002686,tb:0.000187864862
$newmeas,x:-21899681.558715,y:10207433.964922,z:10894524.923784,vx:843.417419,vy:-1134.536133,vz:2757.020020,tb:0.000187864862
$pseudo_cd_ph,prn:6,pseudo_cd_ph:374956925.902625203133
measnum = 2,full_prange = 22274954.036223
$oldmeas,msRange:74.307951,x:6574845.545266,y:25705223.247786,z:-585395.835121,vx:-213.728943,vy:133.239380,vz:3208.704346,tb:0.000204236546
$newmeas,x:6574861.425357,y:25705213.346885,z:-585634.245833,vx:-213.722565,vy:133.267639,vz:3208.703613,tb:0.000204236546
$pseudo_cd_ph,prn:7,pseudo_cd_ph:374956916.416088819504
measnum = 3,full_prange = 25050162.071141
$oldmeas,msRange:83.565409,x:-8879275.929100,y:17326325.290800,z:-17589985.920778,vx:-699.804443,vy:-2205.138672,vz:-1839.533447,tb:-0.000025202266
$newmeas,x:-8879217.455202,y:17326509.547882,z:-17589832.211054,vx:-699.789978,vy:-2205.123047,vz:-1839.565796,tb:-0.000025202265
$pseudo_cd_ph,prn:17,pseudo_cd_ph:374956927.872905313969
measnum = 4,full_prange = 21639704.786235
