i=1
Rf R0 Config = ff777073
Rf R1 Config = 00dffbfe
Rf R52 Config = 00dfee80
i=2
Rf R0 Config = 007770f3
Rf R1 Config = 00df9bf2
Rf R52 Config = 00dece70
i=3
Rf R0 Config = 007770f3
Rf R1 Config = 00dffbe6
Rf R52 Config = 00de2e30
i=4
Rf R0 Config = 00777273
Rf R1 Config = 00dfbbfe
Rf R52 Config = 00de8e40
SD initialized success
Create debug.log Failed! 3
Start Channel by LuYu
sat0 = 2651 354 845 5250
sat0 threshold = 3 
sat0 = 3680 1952 958 -5500
sat0 threshold = 3 
sat1 = 2801 1844 844 8250
sat1 threshold = 3 
sat1 = 4032 1688 953 -3250
sat1 threshold = 4 
sat2 = 2619 1754 849 4000
sat2 threshold = 3 
sat2 = 4295 1843 961 -6000
sat2 threshold = 4 
sat3 = 15517 707 846 -1750
sat3 threshold = 18 
sat4 = 2669 940 849 -9500
sat4 threshold = 3 
sat4 = 4891 1835 959 1000
sat4 threshold = 5 
sat5 = 2539 1625 844 -9250
sat5 threshold = 3 
sat5 = 4196 1677 953 -7000
sat5 threshold = 4 
sat6 = 22335 532 854 -3750
sat6 threshold = 26 
sat7 = 2621 1960 840 -9250
sat7 threshold = 3 
sat7 = 4155 2033 964 8500
sat7 threshold = 4 
sat8 = 43657 1213 846 -750
sat8 threshold = 51 
sat9 = 2610 640 845 2250
sat9 threshold = 3 
sat9 = 3784 1919 955 5250
sat9 threshold = 3 
sat10 = 2952 1710 846 -3750
sat10 threshold = 3 
sat10 = 3992 1798 953 -6250
sat10 threshold = 4 
sat11 = 2827 772 846 -8750
sat11 threshold = 3 
sat11 = 4204 1986 955 5250
sat11 threshold = 4 
sat12 = 2610 1354 845 -2750
sat12 threshold = 3 
sat12 = 3426 1748 954 -750
sat12 threshold = 3 
$GNGGA,000000.000,,,,,0,00,,,M,,,,0000*2B
$GNRMC,000000.000,A,,,,,,,060180,,*29
$GPGSA,A,1,,,,,,,,,,,,,,,*1E
$BDGSA,A,1,,,,,,,,,,,,,,,*0F
$GLGSA,A,1,,,,,,,,,,,,,,,*02
$B3CN0,0,0,0,0,0,0,0,0,0,0,0,0,0,0*4C
---00000001--- Acq_st=3 0  2000-1-1 0:2:14 
[00]  03(G04)  1  7  7  0  -1871.6  2046004.7 -0.1  1 0  127  712 1482
[01]  06(G07)  1  7  7  0  -3750.0  2046006.6 -0.2  1 0  364 1143 1724
[02]  08(G09)  1  7  7  0   -750.0  2046002.7  0.0  1 0  319  144 2158
sat13 = 2760 1988 845 6500
sat13 threshold = 3 
sat13 = 3940 1966 948 4750
sat13 threshold = 4 
sat14 = 2747 1806 856 -2750
sat14 threshold = 3 
sat14 = 3411 1974 957 -1250
sat14 threshold = 3 
sat15 = 2729 202 845 2750
sat15 threshold = 3 
sat15 = 3846 1418 964 -6500
sat15 threshold = 3 
sat16 = 2630 1486 854 8750
sat16 threshold = 3 
sat16 = 3675 1834 958 -250
sat16 threshold = 3 
sat17 = 3108 967 846 -8500
sat17 threshold = 3 
sat17 = 3968 1820 956 3750
sat17 threshold = 4 
sat18 = 3262 1120 848 -5000
sat18 threshold = 3 
sat18 = 3976 1653 950 -250
sat18 threshold = 4 
sat19 = 2799 1802 845 -6500
sat19 threshold = 3 
sat19 = 4029 2045 959 -8500
sat19 threshold = 4 
sat20 = 2718 1747 851 -7750
sat20 threshold = 3 
sat20 = 3570 1842 961 -1500
sat20 threshold = 3 
sat21 = 2975 1285 841 -3750
sat21 threshold = 3 
sat21 = 4264 1757 958 8000
sat21 threshold = 4 
sat22 = 25697 321 846 1000
sat22 threshold = 30 
sat23 = 2790 1374 850 3000
sat23 threshold = 3 
sat23 = 3898 1516 957 6000
sat23 threshold = 4 
sat24 = 2508 463 845 3500
sat24 threshold = 2 
sat24 = 4317 1830 956 7000
sat24 threshold = 4 
sat25 = 2747 425 847 3250
sat25 threshold = 3 
$GNGGA,000000.000,,,,,0,00,,,M,,,,0000*2B
$GNRMC,000000.000,A,,,,,,,060180,,*29
$GPGSA,A,1,,,,,,,,,,,,,,,*1E
$BDGSA,A,1,,,,,,,,,,,,,,,*0F
$GLGSA,A,1,,,,,,,,,,,,,,,*02
$B3CN0,0,0,0,0,0,0,0,0,0,0,0,0,0,0*4C
---00000002--- Acq_st=3 0  2000-1-1 0:2:15 
[00]  03(G04)  7  7  7  0  -1813.8  2046002.2  0.8 10 0 1779 1865  419
[01]  06(G07)  1 30  7  0  -3858.3  2046005.4  0.9  1 0 1870 2247 1059
[02]  08(G09)  1 27  7  0   -612.1  2046001.4  0.8  1 0 2945 3492 1324
[03]  22(G23)  1  7  7  0   1000.0  2046001.1 -0.0  1 0  214 1669 2037
sat25 = 3906 1772 955 -7750
sat25 threshold = 4 
sat26 = 2770 0 848 -9250
sat26 threshold = 3 
sat26 = 4217 1778 955 5750
sat26 threshold = 4 
sat27 = 2955 1078 846 750
sat27 threshold = 3 
sat27 = 3480 1504 956 -5250
sat27 threshold = 3 
sat28 = 2767 1258 846 6000
sat28 threshold = 3 
sat28 = 3774 1930 952 5000
sat28 threshold = 3 
sat29 = 13538 551 847 -4250
sat29 threshold = 15 
sat30 = 2522 252 846 2750
sat30 threshold = 2 
sat30 = 3646 2018 953 5000
sat30 threshold = 3 
sat31 = 2580 1740 846 5500
sat31 threshold = 3 
sat31 = 3607 1946 956 -7500
sat31 threshold = 3 
sat37 = 114196 3284 34827 -7000
sat37 threshold = 3 
sat37 = 145885 3592 47211 -9250
sat37 threshold = 3 
sat38 = 262321 4012 35023 -1250
sat38 threshold = 7 
sat38 = 279398 4012 47464 -1250
sat38 threshold = 5 
sat39 = 106296 556 34812 9000
sat39 threshold = 3 
sat39 = 148018 348 47305 -2250
sat39 threshold = 3 
$GNGGA,000000.000,,,,,0,00,,,M,,,,0000*2B
$GNRMC,000000.000,A,,,,,,,060180,,*29
$GPGSA,A,1,,,,,,,,,,,,,,,*1E
$BDGSA,A,1,,,,,,,,,,,,,,,*0F
$GLGSA,A,1,,,,,,,,,,,,,,,*02
$B3CN0,0,0,0,0,0,0,0,0,0,0,0,0,0,0*4C
---00000003--- Acq_st=3 0  2000-1-1 0:2:16 
[00]  03(G04)  7 41  7  0  -1812.9  2046002.3 -0.1  2 0  922 1701  722
[01]  06(G07)  7 36  7  0  -3858.9  2046004.9  0.0  2 0 1210 1799  512
[02]  08(G09)  7 33  7  0   -610.4  2046000.7  0.3  5 0 3316 3263  635
[03]  22(G23)  1 27 10  0   1089.9  2045998.5  0.5  1 0 1694 1940  390
[04]  29(G30)  1 20  7  0  -4316.5  2046007.5  0.1  1 0 1123 1803 1445
[16]  38(B02)  1 10 10  0  -1250.0  4092004.6 -0.1  1 0  389  731  792
sat40 = 108443 3609 34835 6750
sat40 threshold = 3 
sat40 = 154138 3121 47205 -7000
sat40 threshold = 3 
sat41 = 110851 566 34803 2750
sat41 threshold = 3 
sat41 = 211578 4016 47068 -1250
sat41 threshold = 4 
sat42 = 111070 2806 34969 -9750
sat42 threshold = 3 
sat42 = 228193 3381 47301 750
sat42 threshold = 4 
sat43 = 112791 1728 34985 4500
sat43 threshold = 3 
sat43 = 157395 887 47271 1250
sat43 threshold = 3 
sat44 = 110917 1929 34877 4750
sat44 threshold = 3 
sat44 = 141144 3236 47227 250
sat44 threshold = 2 
sat45 = 215800 3211 34957 500
sat45 threshold = 6 
sat45 = 426947 3211 47373 250
sat45 threshold = 9 
$GNGGA,000000.000,,,,,0,00,,,M,,,,0000*2B
$GNRMC,000000.000,A,,,,,,,060180,,*29
$GPGSA,A,1,,,,,,,,,,,,,,,*1E
$BDGSA,A,1,,,,,,,,,,,,,,,*0F
$GLGSA,A,1,,,,,,,,,,,,,,,*02
$GPGSV,1,1,03,04,00,000,41,07,00,000,36,09,00,000,33*40
$B3CN0,0,0,0,0,0,0,0,0,0,0,0,0,0,0*4C
---00000004--- Acq_st=3 0  2000-1-1 0:2:17 
[00]  03(G04)  7 42  7  0  -1808.2  2046002.3 -0.0  2 0  736 1060  361
[01]  06(G07)  7 42  7  0  -3853.0  2046005.0  0.1  2 0 1357 1584 1180
[02]  08(G09)  7 45  7  0   -605.9  2046000.7 -0.1  2 0 2578 3865 1904
[03]  22(G23)  7 31  7  0   1096.4  2045998.5  0.4  5 0 1380 1859 1135
[04]  29(G30)  7 16  7  0  -4313.5  2046005.5  0.9 10 0  977 1433  880
[16]  38(B02)  1 10 25  1  -1101.9  4092005.7  0.5  1 0  933  399  180
[17]  45(B09)  1  7  7  0    250.0  4091998.6 -0.0  1 0  689  505  167
sat46 = 118465 1420 34932 4750
sat46 threshold = 3 
sat46 = 153705 2207 47416 -5750
sat46 threshold = 3 
sat47 = 110930 940 34884 3250
sat47 threshold = 3 
sat47 = 136298 1361 47451 750
sat47 threshold = 2 
sat48 = 146548 2015 34583 -4500
sat48 threshold = 4 
sat48 = 148147 2015 47117 -4000
sat48 threshold = 3 
sat49 = 114274 2614 34754 5750
sat49 threshold = 3 
sat49 = 174540 131 47090 -500
sat49 threshold = 3 
sat50 = 524786 3380 34819 0
sat50 threshold = 15 
sat51 = 120729 2964 34680 4500
sat51 threshold = 3 
sat51 = 161452 3226 47038 9000
sat51 threshold = 3 
sat52 = 107431 1059 35008 -6750
sat52 threshold = 3 
$GNGGA,000000.000,,,,,0,00,,,M,,,,0000*2B
$GNRMC,000000.000,A,,,,,,,060180,,*29
$GPGSA,A,1,,,,,,,,,,,,,,,*1E
$BDGSA,A,1,,,,,,,,,,,,,,,*0F
$GLGSA,A,1,,,,,,,,,,,,,,,*02
$GPGSV,1,1,04,04,00,000,42,07,00,000,42,09,00,000,45,23,00,000,31*75
$B3CN0,0,0,0,0,0,0,0,0,0,0,0,0,0,0*4C
---00000005--- Acq_st=3 0  2000-1-1 0:2:18 
[00]  03(G04)  7 42  7  0  -1810.1  2046002.2 -0.0  2 0 1090 1657  745
[01]  06(G07)  7 42  7  0  -3856.4  2046005.0 -0.0  2 0  747 1533 1076
[02]  08(G09)  7 46  7  0   -603.5  2046000.7  0.0  2 0 2495 3696 1619
[03]  22(G23)  7 42  7  0   1098.1  2045998.5  0.1  2 0 1289 1542  772
[04]  29(G30)  7 42  7  0  -4317.0  2046005.5  0.1  2 0 1535 1562  910
[16]  38(B02)  7 27 26  0  -1109.7  4092002.6  0.2  2 0 1033  692  181
[17]  45(B09)  1 14 10  0     40.4  4091997.6 -0.0  1 0  528  242   92
[18]  48(B12)  1  7  7  0  -4065.7  4092009.9 -0.0  1 0   85  285  108
[19]  50(B14)  1  7  7  0     -0.0  4092001.6  0.1  1 0  183  208  693
sat52 = 149600 1508 47271 3000
sat52 threshold = 3 
sat53 = 113780 2711 34698 -3250
sat53 threshold = 3 
sat53 = 153584 3227 47497 -3250
sat53 threshold = 3 
sat54 = 107305 141 34909 7000
sat54 threshold = 3 
sat54 = 161566 3054 47212 1250
sat54 threshold = 3 
sat55 = 105953 665 34697 750
sat55 threshold = 3 
sat55 = 156626 3253 47172 -6000
sat55 threshold = 3 
sat56 = 121573 1041 34779 -3250
sat56 threshold = 3 
sat56 = 163827 2310 47288 -4250
sat56 threshold = 3 
sat57 = 611307 2708 34804 1000
sat57 threshold = 17 
sat58 = 106245 3668 34858 4000
sat58 threshold = 3 
sat58 = 162477 550 47056 2750
sat58 threshold = 3 
sat59 = 101061 4077 34812 9250
sat59 threshold = 2 
$GNGGA,000000.000,,,,,0,00,,,M,,,,0000*2B
$GNRMC,000000.000,A,,,,,,,060180,,*29
$GPGSA,A,1,,,,,,,,,,,,,,,*1E
$BDGSA,A,1,,,,,,,,,,,,,,,*0F
$GLGSA,A,1,,,,,,,,,,,,,,,*02
$GPGSV,2,1,05,04,00,000,42,07,00,000,42,09,00,000,46,23,00,000,42*70
$GPGSV,2,2,05,30,00,000,42*49
$BDGSV,1,1,01,02,00,000,26*5F
$B3CN0,0,0,0,0,0,0,0,0,0,0,0,0,0,0*4C
---00000006--- Acq_st=3 0  2000-1-1 0:2:19 
[00]  03(G04)  7 43  7  0  -1808.0  2046002.3 -0.0  2 0 1510 1968  500
[01]  06(G07)  7 42  7  0  -3850.7  2046005.0 -0.0  2 0 1370 1919 1000
[02]  08(G09)  7 45  7  0   -602.4  2046000.7 -0.0  2 0 2366 3531 1396
[03]  22(G23)  7 42  7  0   1093.6  2045998.5 -0.1  2 0 1009 1600  890
[04]  29(G30)  7 41  7  0  -4311.3  2046005.6  0.0  2 0 1173 1103  288
[16]  38(B02)  7 31 22  0  -1112.4  4092002.7  0.1  2 0  932  652  210
[17]  45(B09)  1  7  7  0     38.0  4091997.9  0.5  1 0  549 1103  874
[18]  48(B12)  1  7  7  0  -3746.3  4092010.2 -0.1  1 0  303  352  449
[19]  50(B14)  1  7  7  0   -168.5  4092001.6 -0.0  1 0  589 1530 1081
[20]  57(B21)  1  7  7  0   1000.0  4091999.4 -0.1  1 0  923 1665 1173
sat59 = 157143 4041 47299 -6250
sat59 threshold = 3 
sat60 = 125473 3551 34940 7500
sat60 threshold = 3 
sat60 = 169852 1955 47160 -7500
sat60 threshold = 3 
sat61 = 108998 2853 34869 -5500
sat61 threshold = 3 
sat61 = 143075 3919 47285 5250
sat61 threshold = 3 
sat62 = 551185 3005 34770 -3500
sat62 threshold = 15 
sat63 = 115734 40 34777 -4500
sat63 threshold = 3 
sat63 = 152638 4017 47220 -3250
sat63 threshold = 3 
sat64 = 111518 1494 34666 500
sat64 threshold = 3 
sat64 = 158294 192 47231 -5250
sat64 threshold = 3 
sat65 = 105321 2067 34739 -9750
sat65 threshold = 3 
sat65 = 145319 3105 47313 -2250
sat65 threshold = 3 
$GNGGA,000000.000,,,,,0,00,,,M,,,,0000*2B
$GNRMC,000000.000,A,,,,,,,060180,,*29
$GPGSA,A,1,,,,,,,,,,,,,,,*1E
$BDGSA,A,1,,,,,,,,,,,,,,,*0F
$GLGSA,A,1,,,,,,,,,,,,,,,*02
$GPGSV,2,1,05,04,00,000,43,07,00,000,42,09,00,000,45,23,00,000,42*72
$GPGSV,2,2,05,30,00,000,41*4A
$BDGSV,1,1,01,02,00,000,30*58
$B3CN0,0,0,0,0,0,0,0,0,0,0,0,0,0,0*4C
---00000007--- Acq_st=3 0  2000-1-1 0:2:20 
[00]  03(G04)  7 42  7  0  -1809.4  2046002.3 -0.0  2 0 1101 1748  919
[01]  06(G07)  7 42  9  0  -3853.9  2046005.0  0.0  2 0  833 1792  945
[02]  08(G09)  7 45  7  0   -602.2  2046000.7 -0.0  2 0 1710 3250 1543
[03]  22(G23)  7 42  7  0   1099.0  2045998.5  0.1  2 0 1497 1770  733
[04]  29(G30)  7 41  7  0  -4311.1  2046005.5 -0.1  2 0 1556 1673  558
[16]  38(B02)  7 31 28  0  -1108.3  4092002.7  0.0  2 0  741  228  120
[17]  45(B09)  1  7  7  0     28.4  4091998.6  0.5  1 0  611  476  284
[18]  48(B12)  1  7  7  0  -3633.6  4092010.4 -0.2  1 0  173  412  339
[19]  50(B14)  1  7  7  0   -168.3  4091999.9 -0.0  1 0 1192 1334  905
[20]  57(B21)  1  7  9  0    974.7  4091997.1  0.1  1 0 1240 1694  980
[21]  62(B26)  1  7  7  0  -3375.3  4092010.0 -0.0  1 0  748 1550  903
sat66 = 110289 2558 34744 -7750
sat66 threshold = 3 
sat66 = 158893 2669 47386 5000
sat66 threshold = 3 
sat67 = 116022 3776 34957 7000
sat67 threshold = 3 
sat67 = 145049 2875 47401 -5750
sat67 threshold = 3 
sat68 = 119058 2447 34891 -7000
sat68 threshold = 3 
sat68 = 151889 3379 47395 -2250
sat68 threshold = 3 
sat-1 = 0 0 0 0
sat-1 threshold = 0 
sat-1 = 0 0 0 0
sat-1 threshold = 0 
sat74 = 11727 1155 3228 -3250
sat74 threshold = 3 
sat74 = 9263 1176 2876 7500
sat74 threshold = 3 
sat75 = 30784 1033 2871 0
sat75 threshold = 10 
sat76 = 48738 172 2797 2250
sat76 threshold = 17 
sat77 = 37857 657 2805 -5500
sat77 threshold = 13 
sat78 = 7963 1241 2805 6000
sat78 threshold = 2 
sat78 = 8652 222 2781 500
sat78 threshold = 3 
sat79 = 8425 956 2748 6750
sat79 threshold = 3 
sat79 = 8984 1251 2790 -9750
sat79 threshold = 3 
$GNGGA,063425.722,,,,,0,00,,,M,,,,0000*2A
$GNRMC,063425.722,A,,,,,,,070180,,*29
$GPGSA,A,1,,,,,,,,,,,,,,,*1E
$BDGSA,A,1,,,,,,,,,,,,,,,*0F
$GLGSA,A,1,,,,,,,,,,,,,,,*02
$GPGSV,2,1,05,04,00,000,42,07,00,000,42,09,00,000,45,23,00,000,42*73
$GPGSV,2,2,05,30,00,000,41*4A
$BDGSV,1,1,01,02,00,000,31*59
$B3CN0,0,0,0,0,0,0,0,0,0,0,0,0,0,0*4C
---00000008--- Acq_st=3 0  2000-1-1 0:2:21 
[00]  03(G04)  f 42  7  0  -1809.2  2046002.3 -0.0  2 0  720 1630  806
[01]  06(G07)  f 42  7  0  -3853.9  2046005.0  0.0  2 0 1411 1838  779
[02]  08(G09)  f 45  7  0   -604.3  2046000.7  0.0  2 0 1974 3127 1349
[03]  22(G23)  f 42  7  0   1100.9  2045998.5  0.1  2 0 1406 1795 1196
[04]  29(G30)  f 41  7  0  -4316.5  2046005.5  0.1  2 0  802 1424  766
[16]  38(B02)  7 33 23  0  -1113.1  4092002.6 -0.1  2 0 1309 1063  390
[17]  45(B09)  1  7 10  0     40.2  4091998.4  0.7  1 0  409  992  907
[18]  48(B12)  1  7  7  0  -3243.1  4092010.3  0.0  1 0   63  427  574
[19]  50(B14)  1  7  7  0   -171.5  4092000.1 -0.0  1 0  716 1539 1045
[20]  57(B21)  1  7 10  0    973.9  4091997.2  0.1  1 0  974 1809  882
[21]  62(B26)  1  7  8  0  -3370.8  4092008.5 -0.2  1 0 1354 1739  710
[32]  75(N-6)  1 15 20  0      0.0  1022001.6  0.0  1 0   238  446  541
[33]  76(N-5)  1 24  7  0   2250.0  1022000.8 -0.0  1 0   141  412  503
[34]  77(N-4)  1  7  7  0  -5500.0  1022004.0  0.1  1 0   392  671  433
sat80 = 8847 1842 2797 3000
sat80 threshold = 3 
sat80 = 9532 2021 2773 -9500
sat80 threshold = 3 
sat81 = 10965 2037 3651 9750
sat81 threshold = 3 
sat81 = 12261 1523 3761 -8000
sat81 threshold = 3 
sat82 = 8197 469 2762 7500
sat82 threshold = 2 
sat82 = 8019 1602 2714 250
sat82 threshold = 2 
sat83 = 8030 357 2766 -5500
sat83 threshold = 2 
sat83 = 8462 1773 2765 -3750
sat83 threshold = 3 
sat84 = 8481 776 2869 1000
sat84 threshold = 2 
sat84 = 8434 1165 2796 -8750
sat84 threshold = 3 
sat85 = 9937 847 2977 -4500
sat85 threshold = 3 
sat85 = 9315 1465 3008 1750
sat85 threshold = 3 
sat86 = 9160 333 2864 7250
sat86 threshold = 3 
sat86 = 8412 1462 2864 -6250
sat86 threshold = 2 
sat87 = 9286 1996 2893 -1000
sat87 threshold = 3 
sat87 = 8190 514 2811 -250
sat87 threshold = 2 
$GNGGA,063426.722,,,,,0,00,,,M,,,,0000*29
$GNRMC,063426.722,A,,,,,,,070180,,*2A
$GPGSA,A,1,,,,,,,,,,,,,,,*1E
$BDGSA,A,1,,,,,,,,,,,,,,,*0F
$GLGSA,A,1,,,,,,,,,,,,,,,*02
$GPGSV,2,1,05,04,00,000,42,07,00,000,42,09,00,000,45,23,00,000,42*73
$GPGSV,2,2,05,30,00,000,41*4A
$BDGSV,1,1,01,02,00,000,33*5B
$B3CN0,0,0,0,0,0,0,0,0,0,0,0,0,0,0*4C
---00000009--- Acq_st=7 0  2000-1-1 0:2:22 
[00]  03(G04)  f 41  7  0  -1805.6  2046002.3  0.1  2 0 1175 2144  996
[01]  06(G07)  f 41  7  0  -3854.8  2046005.0 -0.0  2 0  904 1572  900
[02]  08(G09)  f 45  7  0   -602.0  2046000.7  0.0  2 0 2466 3392 1615
[03]  22(G23)  f 43  7  0   1103.8  2045998.4 -0.0  2 0 1956 2023  960
[04]  29(G30)  f 41  7  0  -4315.3  2046005.6 -0.1  2 0  963 1771 1151
[16]  38(B02)  f 33 23  0  -1097.4  4092002.6 -0.1  2 0  976  810  436
[18]  48(B12)  1 11  7  0  -3011.9  4092010.4 -0.2  1 0  211  310  147
[19]  50(B14)  1  7  7  0   -164.5  4092000.6  0.3  1 0  635 1475  824
[20]  57(B21)  1  7  7  0    971.7  4091997.1  0.4  1 0  760 1368  579
[21]  62(B26)  1  7  7  0  -3364.9  4092008.6  0.4  1 0 1192 2064 1376
[32]  75(N-6)  1 36  7  0    162.1  1022000.2  0.9  1 0   366  650  727
[33]  76(N-5)  1 32 16  0   2223.4  1021998.3  1.0  1 0   707 1026  451
[34]  77(N-4)  1 32 22  0  -5623.6  1022003.7  0.9  1 0   291  748  514
$GNGGA,063427.722,,,,,0,00,,,M,,,,0000*28
$GNRMC,063427.722,A,,,,,,,010419,,*28
$GPGSA,A,1,,,,,,,,,,,,,,,*1E
$BDGSA,A,1,,,,,,,,,,,,,,,*0F
$GLGSA,A,1,,,,,,,,,,,,,,,*02
$GPGSV,2,1,05,04,00,000,41,07,00,000,41,09,00,000,45,23,00,000,43*72
$GPGSV,2,2,05,30,00,000,41*4A
$BDGSV,1,1,01,02,00,000,34*5C
$B3CN0,0,0,0,0,0,0,0,0,0,0,0,0,0,0*4C
---00000010--- Acq_st=7 0  2000-1-1 0:2:23 
[00]  03(G04)  f 41  7  0  -1808.0  2046002.3  0.0  2 0 1220 1839 1312
[01]  06(G07)  f 41  8  0  -3854.1  2046004.9 -0.1  2 0 1283 1598  982
[02]  08(G09)  f 45  7  0   -599.4  2046000.7  0.0  2 0 2305 3962 2009
[03]  22(G23)  f 43  7  0   1102.5  2045998.5 -0.0  2 0 1491 1921  825
[04]  29(G30)  f 41  7  0  -4312.1  2046005.5  0.1  2 0 1502 1859  788
[16]  38(B02)  f 36 28  0  -1103.8  4092002.6  0.2  2 0  904  533  204
[19]  50(B14)  7 33  7  0   -166.2  4092000.4  0.2  5 0  827 1243  803
[20]  57(B21)  7 32  7  0    974.1  4091997.4  0.2  5 0  855 1906  913
[21]  62(B26)  7 38  7  0  -3364.6  4092008.8  0.0  2 0 1077 1537 1101
[32]  75(N-6)  7 35  7  0    161.5  1021999.8 -0.1  2 0   393  571  276
[33]  76(N-5)  7 39 15  0   2220.3  1021998.5 -0.1  2 0   284  554  378
[34]  77(N-4)  7 38 23  0  -5623.6  1022003.6 -0.0  2 0   610  820  251
sat0 = 10350 1298 3061 -1500
sat0 threshold = 3 
sat0 = 10421 552 3039 -3750
sat0 threshold = 3 
sat1 = 11467 420 3045 5250
sat1 threshold = 3 
sat1 = 10450 359 3030 9500
sat1 threshold = 3 
sat2 = 10682 1550 3050 -8750
sat2 threshold = 3 
sat2 = 9977 1238 3033 -4750
sat2 threshold = 3 
sat4 = 11102 858 3054 -2750
sat4 threshold = 3 
sat4 = 10252 1230 3036 -3000
sat4 threshold = 3 
sat5 = 9563 131 3053 -1250
sat5 threshold = 3 
sat5 = 10325 793 3035 -7500
sat5 threshold = 3 
sat7 = 10954 1973 3021 -750
sat7 threshold = 3 
sat7 = 9644 1352 3010 2500
sat7 threshold = 3 
sat9 = 9763 207 3060 5500
sat9 threshold = 3 
sat9 = 10169 200 3032 -750
sat9 threshold = 3 
sat10 = 10070 1879 3041 -3000
sat10 threshold = 3 
sat10 = 9627 140 3037 7250
sat10 threshold = 3 
sat11 = 12967 1863 3050 2000
sat11 threshold = 4 
sat11 = 9269 1734 3033 -2500
sat11 threshold = 3 
sat12 = 11200 1818 3048 -9000
sat12 threshold = 3 
sat12 = 9547 442 3038 4250
sat12 threshold = 3 
sat13 = 10054 1692 3055 -750
sat13 threshold = 3 
sat13 = 10992 458 3039 4500
sat13 threshold = 3 
sat14 = 10126 793 3060 9500
sat14 threshold = 3 
$GNGGA,063428.722,,,,,0,00,,,M,,,,0000*27
$GNRMC,063428.722,A,,,,,,,010419,,*27
$GPGSA,A,1,,,,,,,,,,,,,,,*1E
$BDGSA,A,1,,,,,,,,,,,,,,,*0F
$GLGSA,A,1,,,,,,,,,,,,,,,*02
$GPGSV,2,1,05,04,00,000,41,07,00,000,41,09,00,000,45,23,00,000,43*72
$GPGSV,2,2,05,30,00,000,41*4A
$BDGSV,1,1,04,02,00,000,36,14,00,000,32,21,00,000,31,26,00,000,37*6E
$B3CN0,0,0,0,0,0,0,0,0,0,0,0,0,0,0*4C
---00000011--- Acq_st=3 0  2000-1-1 0:2:24 
[00]  03(G04)  f 42  7  0  -1810.6  2046002.3  0.0  2 0  909 1343  675
[01]  06(G07)  f 42  7  0  -3853.3  2046004.9 -0.0  2 0 1364 1688 1046
[02]  08(G09)  f 46  7  0   -602.5  2046000.7  0.0  2 0 2155 3642 1732
[03]  22(G23)  f 44  7  0   1103.2  2045998.5  0.0  2 0 1779 2275 1150
[04]  29(G30)  f 42  7  0  -4312.8  2046005.5  0.0  2 0 1078 1466  841
[16]  38(B02)  f 36 26  0  -1097.0  4092002.5 -0.4  2 0  803  630  111
[19]  50(B14)  7 42  7  0   -166.9  4092000.4  0.0  2 0 1073 1353  534
[20]  57(B21)  7 43 10  0    972.6  4091997.4 -0.1  2 0  906 1563 1203
[21]  62(B26)  7 43  7  0  -3365.0  4092008.7 -0.1  2 0 1598 1929  914
[32]  75(N-6)  7 37  7  0    159.2  1021999.8 -0.0  2 0   639  772  166
[33]  76(N-5)  7 39 18  0   2218.6  1021998.5 -0.1  2 0   574  689  556
[34]  77(N-4)  7 35 24  0  -5628.4  1022003.4  0.1  2 0   258  690  668
[48]  38(B02)  1 13 10  1   -757.0 20460015.3  0.0  1 0  308  254  454
sat14 = 9691 903 3042 3250
sat14 threshold = 3 
sat15 = 10473 1795 3064 8500
sat15 threshold = 3 
sat15 = 9568 110 3039 -4250
sat15 threshold = 3 
sat16 = 10742 1706 3061 -4500
sat16 threshold = 3 
sat16 = 10550 1998 3046 -8250
sat16 threshold = 3 
sat17 = 9699 949 3057 -4000
sat17 threshold = 3 
sat17 = 9911 1052 3040 -1250
sat17 threshold = 3 
sat18 = 9518 1691 3067 -3000
sat18 threshold = 3 
sat18 = 10797 258 3034 -6250
sat18 threshold = 3 
sat19 = 10930 1556 3050 -9000
sat19 threshold = 3 
sat19 = 9063 733 3032 -750
sat19 threshold = 2 
sat20 = 10263 1484 3050 -9250
sat20 threshold = 3 
sat20 = 9709 1192 3047 8500
sat20 threshold = 3 
sat21 = 9558 1667 3044 4500
sat21 threshold = 3 
sat21 = 11193 884 3029 3750
sat21 threshold = 3 
sat23 = 10341 89 3058 -8750
sat23 threshold = 3 
sat23 = 10901 1518 3064 -4000
sat23 threshold = 3 
sat24 = 10388 878 3064 2000
sat24 threshold = 3 
sat24 = 10674 1128 3041 -6500
sat24 threshold = 3 
sat25 = 10357 1705 3047 7750
sat25 threshold = 3 
sat25 = 10031 1428 3032 3250
sat25 threshold = 3 
sat26 = 11204 292 3052 -2500
sat26 threshold = 3 
sat26 = 10897 1928 3032 8250
sat26 threshold = 3 
sat27 = 9624 447 3063 -5000
sat27 threshold = 3 
$GNGGA,063429.722,,,,,0,00,,,M,,,,0000*26
$GNRMC,063429.722,A,,,,,,,010419,,*26
$GPGSA,A,1,,,,,,,,,,,,,,,*1E
$BDGSA,A,1,,,,,,,,,,,,,,,*0F
$GLGSA,A,1,,,,,,,,,,,,,,,*02
$GPGSV,2,1,05,04,00,000,42,07,00,000,42,09,00,000,46,23,00,000,44*76
$GPGSV,2,2,05,30,00,000,42*49
$BDGSV,1,1,04,02,00,000,36,14,00,000,42,21,00,000,43,26,00,000,43*6F
$B3CN0,0,0,0,0,0,0,0,0,0,0,0,0,0,0*4C
sat27 = 9511 308 3040 -500
sat27 threshold = 3 
---00000012--- Acq_st=5 0  2000-1-1 0:2:25 
[00]  03(G04)  f 42  7  0  -1801.5  2046002.3  0.0  2 0 1087 1703  688
[01]  06(G07)  f 42  7  0  -3854.0  2046004.9  0.0  2 0 1133 1536  601
[02]  08(G09)  f 46  7  0   -602.1  2046000.7 -0.0  2 0 1972 3199 1651
[03]  22(G23)  f 44  7  0   1103.0  2045998.5  0.0  2 0 1991 2445 1129
[04]  29(G30)  f 42  7  0  -4313.2  2046005.5 -0.1  2 0 1154 1785  736
[16]  38(B02)  f 36 25  0  -1103.3  4092002.6  0.0  2 0 1102 1060  341
[19]  50(B14)  7 41  7  0   -165.8  4092000.3  0.2  2 0 1159 1623  521
[20]  57(B21)  7 43 10  0    976.7  4091997.4 -0.0  2 0 1039 1378  248
[21]  62(B26)  7 42  9  0  -3362.4  4092008.7 -0.0  2 0 1283 2113 1097
[32]  75(N-6)  7 36 16  0    161.9  1021999.8  0.0  2 0   231  274  320
[33]  76(N-5)  7 40 19  0   2221.0  1021998.5  0.1  2 0   693 1220  679
[34]  77(N-4)  7 35 24  0  -5625.8  1022003.5  0.2  2 0   122  416  575
[48]  38(B02)  1 10 10  0   -867.1 20460020.7 -0.0  1 0  585  641  530
sat28 = 9822 517 3059 4250
sat28 threshold = 3 
sat28 = 9799 1366 3039 -2250
sat28 threshold = 3 
sat30 = 9998 1113 3058 -6250
sat30 threshold = 3 
sat30 = 9628 269 3036 -3750
sat30 threshold = 3 
sat31 = 9772 579 3057 -1750
sat31 threshold = 3 
sat31 = 11431 809 3043 -5250
sat31 threshold = 3 
sat37 = 120297 2777 36251 -4750
sat37 threshold = 3 
sat37 = 148766 1610 48167 -3750
sat37 threshold = 3 
sat39 = 116334 3136 36048 -4500
sat39 threshold = 3 
sat39 = 150814 3222 48541 8750
sat39 threshold = 3 
sat40 = 117229 3785 36299 -4750
sat40 threshold = 3 
sat40 = 148906 1504 48408 -7000
sat40 threshold = 3 
sat41 = 131239 3669 36073 -1000
sat41 threshold = 3 
sat41 = 225721 3669 48646 -1250
sat41 threshold = 4 
---00000013--- Acq_st=3 0  2000-1-1 0:2:26 
[00]  03(G04)  f 42  7  0  -1799.0  2046002.3 -0.0  2 0  901 1629  646
[01]  06(G07)  f 42  7  0  -3847.5  2046004.9  0.0  2 0 1244 1953 1030
[02]  08(G09)  f 46  7  0   -596.7  2046000.7  0.1  2 0 2403 3502 1699
[03]  22(G23)  f 44  7  0   1107.7  2045998.5 -0.1  2 0 1547 2226 1010
[04]  29(G30)  f 43  7  0  -4307.5  2046005.5 -0.0  2 0 1543 1707  976
[16]  38(B02) 1f 38 27  0  -1094.5  4092002.6  0.9  2 0 1164 1010  132
[17]  41(B05)  1 10 10  0  -1250.0  4092003.8  0.1  1 0  432  773  195
[19]  50(B14)  7 41  7  0   -156.2  4092000.3  0.0  2 0  923 1190  568
[20]  57(B21)  7 42  9  0    979.6  4091997.3 -0.0  2 0 1400 2163  892
[21]  62(B26)  7 42  7  0  -3360.8  4092008.7  0.0  2 0 1590 1747  901
[32]  75(N-6)  f 31  7  0    168.4  1021999.8 -0.1  5 0   317  562   72
[33]  76(N-5)  f 33  7  0   2227.7  1021998.6  0.0  5 0   421 1033  605
[34]  77(N-4)  f 31 18  0  -5619.6  1022003.5 -0.1  5 0   471  619  293
[48]  38(B02)  1 10 13  0  -1472.8 20460018.7 -0.0  1 0  320  304  195
$GNGGA,063430.722,,,,,0,00,,,M,,,,0000*2E
$GNRMC,063430.722,A,,,,,,,010419,,*2E
$GPGSA,A,1,,,,,,,,,,,,,,,*1E
$BDGSA,A,1,,,,,,,,,,,,,,,*0F
$GLGSA,A,1,,,,,,,,,,,,,,,*02
$GPGSV,2,1,05,04,00,000,42,07,00,000,42,09,00,000,46,23,00,000,44*76
$GPGSV,2,2,05,30,00,000,43*48
$BDGSV,1,1,04,02,00,000,38,14,00,000,41,21,00,000,42,26,00,000,42*62
$B3CN0,0,0,0,0,0,0,0,0,0,0,0,0,0,0*4C
sat42 = 155810 3077 36366 1000
sat42 threshold = 4 
sat42 = 186839 3077 48414 0
sat42 threshold = 3 
sat43 = 115750 967 36154 4500
sat43 threshold = 3 
sat43 = 153842 3411 48225 6750
sat43 threshold = 3 
sat44 = 120660 2877 36204 3500
sat44 threshold = 3 
sat44 = 176637 2027 48443 9000
sat44 threshold = 3 
sat45 = 112307 764 36312 3750
sat45 threshold = 3 
sat45 = 167859 2907 48566 0
sat45 threshold = 3 
sat46 = 126784 3865 36219 -7750
sat46 threshold = 3 
sat46 = 161062 1449 48445 2250
sat46 threshold = 3 
sat47 = 117792 3695 36241 8250
sat47 threshold = 3 
sat47 = 152026 3391 48495 -9000
sat47 threshold = 3 
sat48 = 146090 1583 36062 -4500
sat48 threshold = 4 
---00000014--- Acq_st=3 0  2000-1-1 0:2:27 
[00]  03(G04)  f 42  7  0  -1804.9  2046002.3  0.0  2 0  969 1731 1108
[01]  06(G07)  f 42  7  0  -3854.4  2046004.9 -0.0  2 0  961 1358  639
[02]  08(G09)  f 46  7  0   -599.0  2046000.7  0.0  2 0 2479 3540 1740
[03]  22(G23)  f 44  7  0   1100.0  2045998.5 -0.0  2 0 1475 2402 1369
[04]  29(G30)  f 42  7  0  -4315.3  2046005.6 -0.1  2 0 1129 1467  662
[16]  38(B02) 1f 38 24  0  -1107.3  4092002.8 -0.1  2 0  914 1127  909
[17]  41(B05)  1 10 23  1  -1106.5  4092003.6  0.2  1 0  828  987  650
[19]  50(B14)  7 41  7  0   -161.2  4092000.3  0.0  2 0 1060 1377  464
[20]  57(B21)  7 42  9  0    974.3  4091997.4 -0.0  2 0 1014 1689  892
[21]  62(B26)  7 42  7  0  -3364.5  4092008.7  0.1  2 0 1205 1588  866
[32]  75(N-6)  f 36  7  0    162.1  1021999.9  0.0  2 0   398  286   95
[33]  76(N-5)  f 40 12  0   2219.3  1021998.5  0.1  2 0   603  772  173
[34]  77(N-4)  f 35 21  0  -5626.9  1022003.6  0.0  2 0   424  599  352
[48]  38(B02)  1 16 20  0  -1263.4 20460020.9 -0.0  1 0  958  857  165
$GNGGA,063431.722,,,,,0,00,,,M,,,,0000*2F
$GNRMC,063431.722,A,,,,,,,010419,,*2F
$GPGSA,A,1,,,,,,,,,,,,,,,*1E
$BDGSA,A,1,,,,,,,,,,,,,,,*0F
$GLGSA,A,1,,,,,,,,,,,,,,,*02
$GPGSV,2,1,05,04,00,000,42,07,00,000,42,09,00,000,46,23,00,000,44*76
$GPGSV,2,2,05,30,00,000,42*49
$BDGSV,1,1,04,02,00,000,38,14,00,000,41,21,00,000,42,26,00,000,42*62
$B3CN0,0,0,0,0,0,0,0,0,0,0,0,0,0,0*4C
sat48 = 178242 1583 48235 -4250
sat48 threshold = 3 
sat49 = 113363 2552 36132 1500
sat49 threshold = 3 
sat49 = 169612 3557 48216 6250
sat49 threshold = 3 
sat51 = 119807 3002 36081 -3750
sat51 threshold = 3 
sat51 = 155740 1765 48061 6750
sat51 threshold = 3 
sat52 = 122543 575 36196 1000
sat52 threshold = 3 
sat52 = 156159 574 48496 750
sat52 threshold = 3 
sat53 = 109604 652 36091 2000
sat53 threshold = 3 
sat53 = 159318 3266 48415 -9500
sat53 threshold = 3 
sat54 = 124776 2417 36344 -8500
sat54 threshold = 3 
sat54 = 168477 2013 48081 -1250
sat54 threshold = 3 
sat55 = 113084 3524 36165 3250
sat55 threshold = 3 
---00000015--- Acq_st=3 0  2000-1-1 0:2:28 
[00]  03(G04)  f 42  7  0  -1795.8  2046002.3 -0.1  2 0 1278 2150  728
[01]  06(G07)  f 42  7  0  -3851.8  2046005.0 -0.1  2 0  707 1549  747
[02]  08(G09)  f 46  7  0   -597.4  2046000.7 -0.0  2 0 2683 4275 1875
[03]  22(G23)  f 44  7  0   1107.2  2045998.5  0.0  2 0 1966 2848 1360
[04]  29(G30)  f 43  7  0  -4308.9  2046005.5 -0.0  2 0 1220 2088 1113
[16]  38(B02) 1f 38 26  0  -1105.8  4092002.7  0.9  2 0  955 1086  633
[17]  41(B05)  f 32 26  0  -1112.5  4092002.7 -0.4  2 0  838  732   49
[18]  48(B12)  1  7 10  0  -4136.6  4092011.1 -0.1  1 0  175  141  217
[19]  50(B14)  7 41  9  0   -162.0  4092000.3  0.1  2 0  644 1309  618
[20]  57(B21)  7 42  7  0    981.2  4091997.3  0.0  2 0 1189 1722  846
[21]  62(B26)  7 42  7  0  -3363.9  4092008.7 -0.1  2 0 1157 1617 1021
[22]  52(B16)  1  7  7  0    750.0  4091999.7  0.2  1 0  341  142  450
[32]  75(N-6) 8f 36  7  0    166.7  1021999.9  0.1  2 0   464  699  383
[33]  76(N-5) 8f 39 13  0   2220.7  1021998.5  0.1  2 0   501  937  487
[34]  77(N-4) 8f 36 19  0  -5625.3  1022003.6 -0.0  2 0   459  633  554
$GNGGA,063432.722,,,,,0,00,,,M,,,,0000*2C
$GNRMC,063432.722,A,,,,,,,010419,,*2C
$GPGSA,A,1,,,,,,,,,,,,,,,*1E
$BDGSA,A,1,,,,,,,,,,,,,,,*0F
$GLGSA,A,1,,,,,,,,,,,,,,,*02
$GPGSV,2,1,05,04,00,000,42,07,00,000,42,09,00,000,46,23,00,000,44*76
$GPGSV,2,2,05,30,00,000,43*48
$BDGSV,2,1,05,02,00,000,38,05,00,000,32,14,00,000,41,21,00,000,42*66
$BDGSV,2,2,05,26,00,000,42*5F
$B3CN0,0,0,0,0,0,0,0,0,0,0,0,0,0,0*4C
sat55 = 149803 2520 48046 -9750
sat55 threshold = 3 
sat56 = 116080 2592 35970 -9250
sat56 threshold = 3 
sat56 = 165925 257 48166 2750
sat56 threshold = 3 
sat58 = 110494 2174 36362 9750
sat58 threshold = 3 
sat58 = 156478 1065 48574 8750
sat58 threshold = 3 
sat59 = 118597 3483 36237 -9250
sat59 threshold = 3 
sat59 = 153479 3322 48497 2750
sat59 threshold = 3 
sat60 = 131192 3367 36132 8000
sat60 threshold = 3 
sat60 = 156119 1929 48514 -5750
sat60 threshold = 3 
sat61 = 107583 2846 36253 7500
sat61 threshold = 2 
sat61 = 148249 3984 48365 6750
sat61 threshold = 3 
sat63 = 115508 3671 36071 -6750
sat63 threshold = 3 
---00000016--- Acq_st=3 0  2000-1-1 0:2:29 
[00]  03(G04)  f 42  7  0  -1801.2  2046002.3  0.0  2 0 1362 2388 1161
[01]  06(G07)  f 41  9  0  -3853.7  2046005.0  0.1  2 0  558 1184  691
[02]  08(G09)  f 46  7  0   -598.3  2046000.7 -0.0  2 0 1972 3489 1743
[03]  22(G23)  f 44  7  0   1101.1  2045998.5 -0.0  2 0 1590 2435 1009
[04]  29(G30)  f 43  7  0  -4314.5  2046005.5  0.0  2 0 1514 2164  910
[16]  38(B02) 1f 39 26  0  -1101.3  4092002.8 -0.9  2 0 1124 1132  561
[17]  41(B05) 1f 34 24  0  -1111.5  4092002.8  0.6  2 0 1047  839  564
[18]  48(B12)  1  7  7  0  -4703.1  4092011.1 -0.2  1 0  657  374  192
[19]  50(B14) 1f 41  7  0   -165.6  4092000.3 -0.1  2 0 1124 1817 1152
[20]  57(B21) 1f 42  8  0    973.9  4091997.3 -0.1  2 0 1067 1514  454
[21]  62(B26) 1f 42  7  0  -3368.1  4092008.7  0.0  2 0 1044 1663 1006
[22]  52(B16)  1  7  9  0    644.3  4091998.3  0.1  1 0  821  657  405
[32]  75(N-6) 8f 36  7  0    162.7  1021999.9 -0.0  2 0   209  729  622
[33]  76(N-5) 8f 38 16  0   2219.3  1021998.5 -0.1  2 0   558  519  158
[34]  77(N-4) 8f 35 22  0  -5624.1  1022003.6  0.1  2 0   395  701  240
[48]  38(B02)  1 18 10  0  -1239.2 20460017.5  0.1  1 0  435  581  328
sat63 = 157571 2364 48313 -4250
sat63 threshold = 3 
$GNGGA,063433.722,,,,,0,00,,,M,,,,0000*2D
$GNRMC,063433.722,A,,,,,,,010419,,*2D
$GPGSA,A,1,,,,,,,,,,,,,,,*1E
$BDGSA,A,1,,,,,,,,,,,,,,,*0F
$GLGSA,A,1,,,,,,,,,,,,,,,*02
$GPGSV,2,1,05,04,00,000,42,07,00,000,41,09,00,000,46,23,00,000,44*75
$GPGSV,2,2,05,30,00,000,43*48
$BDGSV,2,1,05,02,00,000,39,05,00,000,34,14,00,000,41,21,00,000,42*61
$BDGSV,2,2,05,26,00,000,42*5F
$B3CN0,0,0,0,0,0,0,0,0,0,0,0,0,0,0*4C
sat64 = 115335 3248 36091 -8750
sat64 threshold = 3 
sat64 = 157273 3757 48270 5000
sat64 threshold = 3 
sat65 = 117363 3863 36176 4750
sat65 threshold = 3 
sat65 = 149678 3237 48634 -4500
sat65 threshold = 3 
sat66 = 114656 1339 36243 -6500
sat66 threshold = 3 
sat66 = 145229 3808 48497 -3000
sat66 threshold = 2 
sat67 = 123336 1848 36047 4750
sat67 threshold = 3 
sat67 = 161914 3448 48528 4750
sat67 threshold = 3 
sat68 = 116204 3725 36231 6750
sat68 threshold = 3 
sat68 = 152899 3587 48519 3250
sat68 threshold = 3 
sat-1 = 0 0 0 0
sat-1 threshold = 0 
sat-1 = 0 0 0 0
sat-1 threshold = 0 
sat74 = 10047 1638 3134 -5500
sat74 threshold = 3 
sat74 = 8706 1171 2942 6750
sat74 threshold = 2 
---00000017--- Acq_st=3 0  2000-1-1 0:2:30 
[00]  03(G04)  f 43  7  0  -1805.2  2046002.2  0.1  2 0  976 1595  762
[01]  06(G07)  f 41  7  0  -3852.8  2046005.0 -0.1  2 0  734 1241  399
[02]  08(G09)  f 46  7  0   -596.8  2046000.7  0.0  2 0 1590 3189 1595
[03]  22(G23)  f 44  7  0   1104.2  2045998.5 -0.1  2 0 1150 1884  725
[04]  29(G30)  f 44  7  0  -4315.4  2046005.5 -0.0  2 0 1490 2287  974
[16]  38(B02) 1f 38 23  0  -1105.2  4092002.7  0.2  2 0 1320 1293  458
[17]  41(B05) 1f 34 23  0  -1109.9  4092002.7  0.3  2 0  643  532  170
[18]  48(B12)  1  7  7  0  -4308.3  4092011.1 -0.1  1 0  570  628  322
[19]  50(B14) 1f 41  7  0   -164.9  4092000.3 -0.0  2 0 1093 1709  761
[20]  57(B21) 1f 42 10  0    974.2  4091997.3  0.1  2 0 1322 1964  787
[21]  62(B26) 1f 41  7  0  -3366.5  4092008.7  0.1  2 0 1196 1750  657
[22]  52(B16)  7 30  7  0    668.6  4091998.1  0.0  5 0  526  397  143
[32]  75(N-6) 8f 36  7  0    165.8  1021999.9 -0.0  2 0   206  438  528
[33]  76(N-5) 8f 39 14  0   2219.8  1021998.5  0.0  2 0   522  918  539
[34]  77(N-4) 8f 36 21  0  -5626.6  1022003.5 -0.1  2 0   180  590  227
[48]  38(B02)  1 10 10  0   -810.0 20460020.9  0.1  1 0  261  345  542
[51]  50(B14)  1  7  7  0    372.8 20460000.8  0.3  1 0  783  462  272
[52]  57(B21)  1  7  7  0    737.0 20459984.8  0.1  1 0  199  449  192
[53]  62(B26)  1  7  7  0  -2922.2 20460054.1 -0.0  1 0  442  583  543
sat78 = 8610 2015 2795 9000
sat78 threshold = 3 
$GNGGA,063434.722,,,,,0,00,,,M,,,,0000*2A
$GNRMC,063434.722,A,,,,,,,010419,,*2A
$GPGSA,A,1,,,,,,,,,,,,,,,*1E
$BDGSA,A,1,,,,,,,,,,,,,,,*0F
$GLGSA,A,1,,,,,,,,,,,,,,,*02
$GPGSV,2,1,05,04,00,000,43,07,00,000,41,09,00,000,46,23,00,000,44*74
$GPGSV,2,2,05,30,00,000,44*4F
$BDGSV,2,1,06,02,00,000,38,05,00,000,34,14,00,000,41,21,00,000,42*63
$BDGSV,2,2,06,26,00,000,41,16,00,000,30*6B
$B3CN0,0,0,0,0,0,0,0,0,0,0,0,0,0,0*4C
sat78 = 8255 1924 2784 1500
sat78 threshold = 2 
sat79 = 8690 108 2834 -6750
sat79 threshold = 3 
sat79 = 8794 1393 2808 7750
sat79 threshold = 3 
sat80 = 8218 797 2755 4250
sat80 threshold = 2 
sat80 = 8573 230 2857 9250
sat80 threshold = 3 
sat81 = 8689 813 2852 10000
sat81 threshold = 3 
sat81 = 8941 615 2918 250
sat81 threshold = 3 
sat82 = 7855 562 2706 -6500
sat82 threshold = 2 
sat82 = 7933 1404 2726 5500
sat82 threshold = 2 
sat83 = 8453 78 2785 -2500
sat83 threshold = 3 
sat83 = 8447 1292 2814 -3500
sat83 threshold = 3 
sat84 = 9302 1450 2798 -9250
sat84 threshold = 3 
sat84 = 8704 308 2828 -9000
sat84 threshold = 3 
sat85 = 9439 1831 2923 2000
sat85 threshold = 3 
sat85 = 9055 648 2923 2500
sat85 threshold = 3 
sat86 = 8254 1640 2840 -1000
sat86 threshold = 2 
sat86 = 10074 879 2801 -9000
sat86 threshold = 3 
sat87 = 8825 1930 2864 2750
sat87 threshold = 3 
---00000018--- Acq_st=3 0  2000-1-1 0:2:31 
[00]  03(G04)  f 43  7  0  -1803.4  2046002.3 -0.0  2 0 1289 1759  752
[01]  06(G07)  f 39  7  0  -3850.5  2046004.9  0.0  2 0 1342 1700 1024
[02]  08(G09)  f 45  7  0   -599.5  2046000.7  0.0  2 0 2678 3634 1099
[03]  22(G23)  f 43  7  0   1102.5  2045998.5 -0.0  2 0 1376 2156 1116
[04]  29(G30)  f 43  7  0  -4312.6  2046005.5  0.1  2 0  886 1609  779
[16]  38(B02) 1f 38 25  0  -1104.0  4092002.8  0.2  2 0  882 1107  731
[17]  41(B05) 1f 33 28  0  -1119.2  4092003.0 -0.4  2 0  402  658  467
[18]  48(B12)  1  9  7  0  -4565.7  4092011.4  0.0  1 0  179  114  162
[19]  50(B14) 1f 41  7  0   -163.9  4092000.3  0.0  2 0 1143 1328  361
[20]  57(B21) 1f 42  7  0    978.2  4091997.3 -0.0  2 0 1268 1826  534
[21]  62(B26) 1f 41  7  0  -3365.5  4092008.8  0.0  2 0  871 1163  525
[22]  52(B16)  7 32  7  0    669.7  4091998.1  0.0  5 0  451  342  254
[32]  75(N-6) 8f 37  7  0    167.5  1021999.8 -0.1  2 0   882  833  145
[33]  76(N-5) 8f 39 12  0   2221.4  1021998.6 -0.1  2 0   405  776  416
[34]  77(N-4) 8f 36 21  0  -5626.4  1022003.5 -0.1  2 0   380  260   62
[48]  38(B02)  1 17 10  1   -608.0 20460024.1 -0.0  1 0  311  463  434
[51]  50(B14)  1  8  7  0    966.0 20460003.7  0.1  1 0  120  220  573
[52]  57(B21)  1 12  7  0   1176.9 20459985.1 -0.1  1 0  112  282  389
[53]  62(B26)  1  7  7  0  -3254.4 20460055.0  0.2  1 0  429  283  581
sat87 = 8630 1424 2870 7250
sat87 threshold = 3 
$GNGGA,063435.722,,,,,0,00,,,M,,,,0000*2B
$GNRMC,063435.722,A,,,,,,,010419,,*2B
$GPGSA,A,1,,,,,,,,,,,,,,,*1E
$BDGSA,A,1,,,,,,,,,,,,,,,*0F
$GLGSA,A,1,,,,,,,,,,,,,,,*02
$GPGSV,2,1,05,04,00,000,43,07,00,000,39,09,00,000,45,23,00,000,43*7F
$GPGSV,2,2,05,30,00,000,43*48
$BDGSV,2,1,06,02,00,000,38,05,00,000,33,14,00,000,41,21,00,000,42*64
$BDGSV,2,2,06,26,00,000,41,16,00,000,32*69
$B3CN0,0,0,0,0,0,0,0,0,0,0,0,0,0,0*4C
---00000019--- Acq_st=7 0  2000-1-1 0:2:32 
[00]  03(G04)  f 43  8  0  -1795.3  2046002.2 -0.0  2 0 1398 2063 1214
[01]  06(G07)  f 41  7  0  -3846.7  2046004.9  0.0  2 0  936 1315  582
[02]  08(G09)  f 46  7  0   -590.4  2046000.7 -0.0  2 0 2067 3685 1447
[03]  22(G23)  f 43  7  0   1109.9  2045998.5  0.0  2 0 1348 1916  874
[04]  29(G30)  f 43  7  0  -4307.7  2046005.6  0.1  2 0 1374 1781  823
[16]  38(B02) 1f 38 26  0  -1099.4  4092002.8 -0.5  2 0  909 1060  674
[17]  41(B05) 1f 33 24  0  -1105.7  4092002.9  0.1  2 0  465  775  261
[19]  50(B14) 1f 40  7  0   -154.8  4092000.3  0.1  2 0 1165 1404  391
[20]  57(B21) 1f 42  7  0    981.2  4091997.3 -0.1  2 0 1414 1788  868
[21]  62(B26) 1f 41  7  0  -3359.8  4092008.7 -0.1  2 0 1167 1293  417
[22]  52(B16)  7 33  7  0    678.6  4091998.1  0.0  5 0  581  953  484
[32]  75(N-6) 8f 38  7  0    171.8  1021999.8 -0.2  2 0   497  620  504
[33]  76(N-5) 8f 39  7  0   2228.7  1021998.6 -0.0  2 0   322  862  505
[34]  77(N-4) 8f 35 20  0  -5619.9  1022003.5 -0.1  2 0   275  460  174
[48]  38(B02)  1 10 17  0   -471.7 20460022.5 -0.1  1 0  336  561  207
[51]  50(B14)  1  8  7  0   1075.1 20460002.5  0.2  1 0  291  168   50
[52]  57(B21)  1  7  7  0   1521.5 20459985.0 -0.0  1 0  619  685  201
[53]  62(B26)  1  7  7  0  -3248.8 20460054.3  0.2  1 0  717  810   34
$GNGGA,063436.722,,,,,0,00,,,M,,,,0000*28
$GNRMC,063436.722,A,,,,,,,010419,,*28
$GPGSA,A,1,,,,,,,,,,,,,,,*1E
$BDGSA,A,1,,,,,,,,,,,,,,,*0F
$GLGSA,A,1,,,,,,,,,,,,,,,*02
$GPGSV,2,1,05,04,00,000,43,07,00,000,41,09,00,000,46,23,00,000,43*73
$GPGSV,2,2,05,30,00,000,43*48
$BDGSV,2,1,06,02,00,000,38,05,00,000,33,14,00,000,40,21,00,000,42*65
$BDGSV,2,2,06,26,00,000,41,16,00,000,33*68
$B3CN0,0,0,0,0,0,0,0,0,0,0,0,0,0,0*4C
sat0 = 10536 259 3072 -6750
sat0 threshold = 3 
sat0 = 10528 966 3082 1250
sat0 threshold = 3 
sat1 = 9507 490 3063 6000
sat1 threshold = 3 
sat1 = 9691 931 3094 -250
sat1 threshold = 3 
sat2 = 10284 1876 3070 8000
sat2 threshold = 3 
sat2 = 9447 268 3101 -6750
sat2 threshold = 3 
sat4 = 10168 1947 3076 -500
sat4 threshold = 3 
sat4 = 11635 364 3084 -8750
sat4 threshold = 3 
sat5 = 10411 998 3083 -1750
sat5 threshold = 3 
sat5 = 9155 641 3099 1000
sat5 threshold = 2 
sat7 = 9171 1657 3064 -2000
sat7 threshold = 2 
sat7 = 9463 473 3085 1750
sat7 threshold = 3 
sat9 = 11945 1268 3069 -3750
sat9 threshold = 3 
sat9 = 10074 1770 3090 -8500
sat9 threshold = 3 
sat10 = 10359 1222 3072 -4750
sat10 threshold = 3 
sat10 = 11895 1221 3091 -4500
sat10 threshold = 3 
sat11 = 9852 1888 3076 -500
sat11 threshold = 3 
sat11 = 11455 657 3089 -7750
sat11 threshold = 3 
sat12 = 9399 444 3072 -9000
sat12 threshold = 3 
sat12 = 10561 2012 3089 -6750
sat12 threshold = 3 
sat13 = 10090 1008 3073 -1000
sat13 threshold = 3 
sat13 = 10731 1702 3089 -8000
sat13 threshold = 3 
sat14 = 9992 1004 3097 4250
sat14 threshold = 3 
---00000020--- Acq_st=3 0  2000-1-1 0:2:33 
[00]  03(G04)  f 43  7  0  -1796.2  2046002.3  0.0  2 0 1171 1531  721
[01]  06(G07)  f 42  7  0  -3846.3  2046004.9 -0.1  2 0 1006 1392  598
[02]  08(G09)  f 45  7  0   -591.6  2046000.7  0.0  2 0 2163 3248 1695
[03]  22(G23)  f 42  7  0   1113.1  2045998.6 -0.1  2 0  926 1938  826
[04]  29(G30)  f 42  7  0  -4309.1  2046005.6  0.0  2 0  811 1738  969
[05]  10(G11)  1 17  7  0  -4500.0  2046005.7  0.0  1 0   98  306  654
[16]  38(B02) 1f 39 24  0  -1096.6  4092002.8  0.6  2 0 1064 1245  576
[17]  41(B05) 1f 34 25  0  -1110.1  4092002.7  0.1  2 0  825  897  200
[19]  50(B14) 1f 40  7  0   -159.9  4092000.3  0.0  2 0  932 1428  602
[20]  57(B21) 1f 43  7  0    979.7  4091997.3  0.0  2 0 1116 1639  679
[21]  62(B26) 1f 41  7  0  -3357.1  4092008.7 -0.0  2 0 1353 1758  938
[22]  52(B16)  7 33  7  0    673.7  4091998.1  0.0  5 0  366  892  707
[32]  75(N-6) 8f 38  7  0    174.0  1021999.9 -0.0  2 0   744  957  772
[33]  76(N-5) 8f 38  9  0   2228.2  1021998.6  0.0  2 0   345  900  410
[34]  77(N-4) 8f 35 21  0  -5621.5  1022003.6 -0.1  2 0   516  582  258
[51]  50(B14)  1  7  7  0   1066.9 20460003.1 -0.2  1 0  484  851  891
[52]  57(B21)  1  7  7  0   1656.2 20459983.8 -0.1  1 0  535  357  706
[53]  62(B26)  1  7  9  0  -3141.0 20460053.1  0.0  1 0   96  668  970
sat14 = 10546 1605 3112 1000
sat14 threshold = 3 
sat15 = 10124 882 3078 -8750
sat15 threshold = 3 
$GNGGA,063437.722,,,,,0,00,,,M,,,,0000*29
$GNRMC,063437.722,A,,,,,,,010419,,*29
$GPGSA,A,1,,,,,,,,,,,,,,,*1E
$BDGSA,A,1,,,,,,,,,,,,,,,*0F
$GLGSA,A,1,,,,,,,,,,,,,,,*02
$GPGSV,2,1,05,04,00,000,43,07,00,000,42,09,00,000,45,23,00,000,42*72
$GPGSV,2,2,05,30,00,000,42*49
$BDGSV,2,1,06,02,00,000,39,05,00,000,34,14,00,000,40,21,00,000,43*62
$BDGSV,2,2,06,26,00,000,41,16,00,000,33*68
$B3CN0,0,0,0,0,0,0,0,0,0,0,0,0,0,0*4C
sat15 = 10188 540 3087 1250
sat15 threshold = 3 
sat16 = 10229 689 3093 -6250
sat16 threshold = 3 
sat16 = 10816 1567 3121 7500
sat16 threshold = 3 
sat17 = 10253 906 3072 3000
sat17 threshold = 3 
sat17 = 9836 1784 3095 4750
sat17 threshold = 3 
sat18 = 9555 106 3069 -4750
sat18 threshold = 3 
sat18 = 10808 707 3080 1000
sat18 threshold = 3 
sat19 = 10171 463 3077 2750
sat19 threshold = 3 
sat19 = 12064 1917 3087 8250
sat19 threshold = 3 
sat20 = 9950 1062 3101 -9750
sat20 threshold = 3 
sat20 = 10666 1482 3112 1750
sat20 threshold = 3 
sat21 = 11175 1130 3053 -8250
sat21 threshold = 3 
sat21 = 9536 1791 3070 -8000
sat21 threshold = 3 
sat23 = 10512 1042 3081 3500
sat23 threshold = 3 
sat23 = 9689 1364 3107 0
sat23 threshold = 3 
sat24 = 9607 451 3071 -6750
sat24 threshold = 3 
sat24 = 9506 113 3095 -8750
sat24 threshold = 3 
sat25 = 10469 955 3083 -2500
sat25 threshold = 3 
sat25 = 11523 890 3096 -1250
sat25 threshold = 3 
sat26 = 9058 1421 3080 5000
sat26 threshold = 2 
sat26 = 9923 437 3101 1000
sat26 threshold = 3 
sat27 = 10005 358 3084 -6500
sat27 threshold = 3 
---00000021--- Acq_st=3 0  2000-1-1 0:2:34 
[00]  03(G04)  f 43  7  0  -1793.6  2046002.3 -0.0  2 0 1502 2047  557
[01]  06(G07)  f 42  7  0  -3849.9  2046004.9  0.1  2 0 1710 1797  709
[02]  08(G09)  f 45  7  0   -592.2  2046000.7  0.0  2 0 2264 3571 1636
[03]  22(G23)  f 42  7  0   1109.6  2045998.5 -0.0  2 0 1397 2265 1262
[04]  29(G30)  f 42  7  0  -4311.1  2046005.6 -0.1  2 0  970 1867 1016
[05]  10(G11)  1 23  7  0  -4516.0  2046006.5  0.1  1 0  502  439  106
[16]  38(B02) 1f 39 27  0  -1100.8  4092002.7 -0.0  2 0  916  763  366
[17]  41(B05) 1f 35 21  0  -1104.3  4092002.6 -0.0  2 0  838  885  261
[19]  50(B14) 1f 40 10  0   -157.7  4092000.3  0.1  2 0 1124  921  247
[20]  57(B21) 1f 43  8  0    980.1  4091997.3 -0.1  2 0 1508 1564  645
[21]  62(B26) 1f 41  7  0  -3364.1  4092008.7 -0.1  2 0  770 1510  641
[22]  52(B16)  7 33  9  0    669.4  4091998.1  0.0  5 0  261  511  262
[32]  75(N-6) 8f 38  7  0    173.5  1021999.9 -0.2  2 0   522  969  358
[33]  76(N-5) 8f 38 10  0   2228.0  1021998.6  0.1  2 0   252  466  114
[34]  77(N-4) 8f 36 19  0  -5618.2  1022003.6 -0.1  2 0   245  672  389
[48]  38(B02)  1 10 10  0  -1492.1 20460016.8 -0.1  1 0  331  333  110
sat27 = 11285 1908 3088 -8000
sat27 threshold = 3 
sat28 = 9486 1453 3074 7750
sat28 threshold = 3 
$GNGGA,063438.722,,,,,0,00,,,M,,,,0000*26
$GNRMC,063438.722,A,,,,,,,010419,,*26
$GPGSA,A,1,,,,,,,,,,,,,,,*1E
$BDGSA,A,1,,,,,,,,,,,,,,,*0F
$GLGSA,A,1,,,,,,,,,,,,,,,*02
$GPGSV,2,1,05,04,00,000,43,07,00,000,42,09,00,000,45,23,00,000,42*72
$GPGSV,2,2,05,30,00,000,42*49
$BDGSV,2,1,06,02,00,000,39,05,00,000,34,14,00,000,40,21,00,000,43*62
$BDGSV,2,2,06,26,00,000,41,16,00,000,33*68
$B3CN0,0,0,0,0,0,0,0,0,0,0,0,0,0,0*4C
$GLGSV,1,1,03,04,00,000,38,03,00,000,38,17,00,000,36*52
sat28 = 9772 1612 3098 -750
sat28 threshold = 3 
sat30 = 10722 1618 3077 7750
sat30 threshold = 3 
sat30 = 9816 423 3085 -750
sat30 threshold = 3 
sat31 = 9960 1434 3079 -4250
sat31 threshold = 3 
sat31 = 9777 1057 3085 8500
sat31 threshold = 3 
sat37 = 108760 3322 34901 7750
sat37 threshold = 3 
sat37 = 144074 4045 45669 -9750
sat37 threshold = 3 
sat39 = 109106 2093 34982 -8250
sat39 threshold = 3 
sat39 = 145894 3278 45986 8500
sat39 threshold = 3 
sat40 = 107396 1956 34972 -10000
sat40 threshold = 3 
sat40 = 149389 3768 46160 3250
sat40 threshold = 3 
sat42 = 124811 741 34861 250
sat42 threshold = 3 
sat42 = 161723 2340 45954 3000
sat42 threshold = 3 
---00000022--- Acq_st=3 0  2000-1-1 0:2:35 
[00]  03(G04)  f 43  7  0  -1796.0  2046002.3 -0.0  2 0 1234 2149 1047
[01]  06(G07)  f 43  7  0  -3844.5  2046004.9 -0.1  2 0 1174 2283 1202
[02]  08(G09)  f 45  7  0   -588.3  2046000.7 -0.0  2 0 2002 3294 1787
[03]  22(G23)  f 43  7  0   1111.3  2045998.5 -0.0  2 0 1634 1706  822
[04]  29(G30)  f 41  7  0  -4311.7  2046005.6  0.0  2 0 1167 1449  291
[05]  10(G11)  7 28  7  0  -4514.9  2046005.9  0.1 10 0   61  562  569
[16]  38(B02) 1f 39 25  0  -1097.2  4092002.7  0.4  2 0 1255 1525  688
[17]  41(B05) 1f 33 24  0  -1111.4  4092002.7 -0.5  2 0  358  512  345
[19]  50(B14) 1f 41  8  0   -157.2  4092000.3  0.1  2 0 1272 1487  386
[20]  57(B21) 1f 43 13  0    977.4  4091997.3 -0.0  2 0 1364 1479  157
[21]  62(B26) 1f 42  8  0  -3359.9  4092008.7  0.0  2 0 1216 1463  525
[22]  52(B16) 1f 33  7  0    676.3  4091998.1 -0.1  5 0  335  424  567
[32]  75(N-6) 8f 39  7  0    177.3  1021999.8  0.2  2 0   842 1080  217
[33]  76(N-5) 8f 38 11  0   2228.9  1021998.5 -0.0  2 0    57  698  642
[34]  77(N-4) 8f 36 19  0  -5618.5  1022003.6 -0.1  2 0   119  359  282
[48]  38(B02)  1 17 10  0  -1706.5 20460018.2  0.1  1 0  498  364  246
[51]  50(B14)  1  7  7  0   -343.1 20460001.5 -0.1  1 0  501  602  607
[52]  57(B21)  1  7  7  0    883.8 20459984.8 -0.1  1 0  264  346  391
[53]  62(B26)  1  7  7  0  -2642.6 20460051.5 -0.1  1 0  961  584  284
sat43 = 111645 3183 34806 -8250
sat43 threshold = 3 
$GNGGA,063439.722,,,,,0,00,,,M,,,,0000*27
$GNRMC,063439.722,A,,,,,,,010419,,*27
$GPGSA,A,1,,,,,,,,,,,,,,,*1E
$BDGSA,A,1,,,,,,,,,,,,,,,*0F
$GLGSA,A,1,,,,,,,,,,,,,,,*02
$GPGSV,2,1,06,04,00,000,43,07,00,000,43,09,00,000,45,23,00,000,43*71
$GPGSV,2,2,06,30,00,000,41,11,00,000,28*73
$BDGSV,2,1,06,02,00,000,39,05,00,000,33,14,00,000,41,21,00,000,43*64
$BDGSV,2,2,06,26,00,000,42,16,00,000,33*6B
$B3CN0,0,0,0,0,0,0,0,0,0,0,0,0,0,0*4C
$GLGSV,1,1,03,04,00,000,39,03,00,000,38,17,00,000,36*53
sat43 = 145376 3730 45893 -7000
sat43 threshold = 3 
sat44 = 110083 764 34713 -9750
sat44 threshold = 3 
sat44 = 156282 2100 46110 -2500
sat44 threshold = 3 
sat45 = 249438 570 34792 750
sat45 threshold = 7 
sat45 = 174011 570 46092 750
sat45 threshold = 3 
sat46 = 126918 3218 35021 -9250
sat46 threshold = 3 
sat46 = 144984 1979 46083 2750
sat46 threshold = 3 
sat47 = 109671 2087 34883 4750
sat47 threshold = 3 
sat47 = 164241 2461 45901 1000
sat47 threshold = 3 
sat48 = 158036 3221 34713 -4500
sat48 threshold = 4 
sat48 = 211162 3221 46018 -4500
sat48 threshold = 4 
sat49 = 109571 2112 34760 7000
sat49 threshold = 3 
---00000023--- Acq_st=3 0  2000-1-1 0:2:36 
[00]  03(G04)  f 43  7  0  -1789.1  2046002.3  0.0  2 0 1172 2075  901
[01]  06(G07)  f 42  7  0  -3842.5  2046004.9 -0.1  2 0 1908 1826  623
[02]  08(G09)  f 45  7  0   -590.0  2046000.7 -0.0  2 0 2020 3059 1455
[03]  22(G23)  f 43  7  0   1111.7  2045998.5  0.0  2 0 1918 2378 1062
[04]  29(G30)  f 41  7  0  -4308.3  2046005.5  0.2  2 0 1073 1852 1078
[05]  10(G11)  7 30  8  0  -4514.3  2046005.9 -0.1  5 0  484  493  167
[16]  38(B02) 1f 38 26  0  -1098.9  4092002.9  0.1  2 0  828 1111  596
[17]  41(B05) 1f 34 28  0  -1106.3  4092002.8 -0.3  2 0  756  622  229
[18]  45(B09)  1  7  7  0    545.9  4092000.1  0.1  1 0  160 1091  934
[19]  50(B14) 1f 41  7  0   -155.7  4092000.3 -0.0  2 0 1358 1469  537
[20]  57(B21) 1f 42  7  0    982.5  4091997.3  0.1  2 0 1065 1412  431
[21]  62(B26) 1f 42  7  0  -3357.4  4092008.6 -0.0  2 0 1254 1556  559
[22]  52(B16) 1f 33  9  0    671.5  4091998.1  0.1  5 0  500  698  371
[24]  48(B12)  1  7  7  0  -4500.0  4092012.2  0.0  1 0  558   95  577
[32]  75(N-6) 8f 38  7  0    174.5  1021999.9 -0.0  2 0   445  881  379
[33]  76(N-5) 8f 38  7  0   2227.0  1021998.5  0.1  2 0   614 1240  587
[34]  77(N-4) 8f 37 19  0  -5618.2  1022003.6  0.1  2 0   792  439  335
[48]  38(B02)  1 10 17  0  -2944.1 20460023.6 -0.1  1 0  217  326  430
[51]  50(B14)  1  7  7  0   -180.8 20460003.0  0.1  1 0  533  326  346
[52]  57(B21)  1  7  7  0    780.0 20459985.2 -0.0  1 0  484  503  538
[53]  62(B26)  1  7  7  0  -2989.0 20460054.1 -0.1  1 0  396  263  524
$GNGGA,063440.722,,,,,0,00,,,M,,,,0000*29
$GNRMC,063440.722,A,,,,,,,010419,,*29
$GPGSA,A,1,,,,,,,,,,,,,,,*1E
$BDGSA,A,1,,,,,,,,,,,,,,,*0F
$GLGSA,A,1,,,,,,,,,,,,,,,*02
$GPGSV,2,1,06,04,00,000,43,07,00,000,42,09,00,000,45,23,00,000,43*70
$GPGSV,2,2,06,30,00,000,41,11,00,000,30*7A
$BDGSV,2,1,06,02,00,000,38,05,00,000,34,14,00,000,41,21,00,000,42*63
$BDGSV,2,2,06,26,00,000,42,16,00,000,33*6B
$B3CN0,0,0,0,0,0,0,0,0,0,0,0,0,0,0*4C
$GLGSV,1,1,03,04,00,000,38,03,00,000,38,17,00,000,37*53
sat49 = 165012 3698 45891 1500
sat49 threshold = 3 
sat51 = 102209 3053 34805 7750
sat51 threshold = 2 
sat51 = 148176 3211 45880 -8500
sat51 threshold = 3 
sat53 = 119881 2793 34777 -7750
sat53 threshold = 3 
sat53 = 162988 2175 45745 3500
sat53 threshold = 3 
sat54 = 107219 1902 34640 5750
sat54 threshold = 3 
sat54 = 161943 2262 45984 -750
sat54 threshold = 3 
sat55 = 110530 487 34675 3500
sat55 threshold = 3 
sat55 = 148878 2941 46107 4250
sat55 threshold = 3 
sat56 = 109892 2532 34651 -5750
sat56 threshold = 3 
sat56 = 153185 2883 45986 1000
sat56 threshold = 3 
sat58 = 107647 2366 34633 4250
sat58 threshold = 3 
---00000024--- Acq_st=3 0  2000-1-1 0:2:37 
[00]  03(G04)  f 43  7  0  -1791.7  2046002.3 -0.0  2 0  950 1876 1329
[01]  06(G07)  f 42  7  0  -3844.4  2046004.9 -0.0  2 0 1286 1749  750
[02]  08(G09)  f 45  7  0   -586.2  2046000.7 -0.0  2 0 2181 3337 1518
[03]  22(G23)  f 43  7  0   1112.8  2045998.5 -0.0  2 0 1435 1872  697
[04]  29(G30)  f 40  7  0  -4311.7  2046005.5 -0.0  2 0  863 1348  725
[05]  10(G11)  7 30  7  0  -4522.1  2046005.9  0.1  5 0  244  389  597
[16]  38(B02) 1f 39 25  0  -1094.1  4092002.7  0.9  2 0 1010 1258  482
[17]  41(B05) 1f 34 23  0  -1103.5  4092002.7  0.0  2 0  701  772  421
[18]  45(B09)  1  7  9  0    542.6  4091998.1 -0.1  1 0  876  862  401
[19]  50(B14) 1f 41 11  0   -154.9  4092000.3  0.0  2 0 1162 1185  534
[20]  57(B21) 1f 42  7  0    979.4  4091997.3 -0.2  2 0 1599 1505  610
[21]  62(B26) 1f 42  7  0  -3358.2  4092008.7  0.0  2 0 1581 1697  832
[22]  52(B16) 1f 33 10  0    671.8  4091998.1  0.1  5 0  830  802  368
[24]  48(B12)  1  7  7  0  -4448.4  4092013.2 -0.0  1 0  433 1078  928
[32]  75(N-6) 8f 38  7  0    176.1  1021999.9  0.1  2 0   474  985  647
[33]  76(N-5) 8f 39 14  0   2226.9  1021998.6  0.2  2 0   629 1292  714
[34]  77(N-4) 8f 37 21  0  -5619.2  1022003.6  0.1  2 0   482  851  780
[48]  38(B02)  f 10 10  1  -2616.4 20460041.0  0.1  2 0  567  692  705
[51]  50(B14)  1  7  7  0   -364.4 20460003.2  0.0  1 0  134  257  447
[52]  57(B21)  1  7  7  0   1158.5 20459985.9  0.0  1 0  963  571  144
[53]  62(B26)  1  7  7  0  -3485.0 20460054.8 -0.0  1 0  242  332  226
sat58 = 153357 2528 46033 -1250
sat58 threshold = 3 
$GNGGA,063441.722,,,,,0,00,,,M,,,,0000*28
$GNRMC,063441.722,A,,,,,,,010419,,*28
$GPGSA,A,1,,,,,,,,,,,,,,,*1E
$BDGSA,A,1,,,,,,,,,,,,,,,*0F
$GLGSA,A,1,,,,,,,,,,,,,,,*02
$GPGSV,2,1,06,04,00,000,43,07,00,000,42,09,00,000,45,23,00,000,43*70
$GPGSV,2,2,06,30,00,000,40,11,00,000,30*7B
$BDGSV,2,1,06,02,00,000,39,05,00,000,34,14,00,000,41,21,00,000,42*62
$BDGSV,2,2,06,26,00,000,42,16,00,000,33*6B
$B3CN0,0,0,0,0,0,0,0,0,0,0,0,0,0,0*4C
$GLGSV,1,1,03,04,00,000,38,03,00,000,39,17,00,000,37*52
sat59 = 108802 3851 34940 -8500
sat59 threshold = 3 
sat59 = 156797 655 45929 -4000
sat59 threshold = 3 
sat60 = 112740 2881 34806 -3750
sat60 threshold = 3 
sat60 = 157053 4022 46149 3500
sat60 threshold = 3 
sat61 = 107787 3071 34707 -5250
sat61 threshold = 3 
sat61 = 154808 2759 45845 8750
sat61 threshold = 3 
sat63 = 116290 3352 34772 5000
sat63 threshold = 3 
sat63 = 148271 2331 46040 -2000
sat63 threshold = 3 
sat64 = 108897 2662 34792 -5000
sat64 threshold = 3 
sat64 = 154608 2816 46055 2750
sat64 threshold = 3 
sat65 = 114469 3176 34808 -2000
sat65 threshold = 3 
---00000025--- Acq_st=3 0  2000-1-1 0:2:38 
[00]  03(G04)  f 42  7  0  -1792.0  2046002.3 -0.0  2 0  727 1916  992
[01]  06(G07)  f 43  7  0  -3845.8  2046004.9  0.0  2 0 1391 2105 1419
[02]  08(G09)  f 45  7  0   -584.9  2046000.7 -0.0  2 0 2215 3077 1475
[03]  22(G23)  f 43  7  0   1114.7  2045998.4 -0.0  2 0 1655 2196  757
[04]  29(G30)  f 40  7  0  -4309.0  2046005.5  0.1  2 0  758 1435  852
[05]  10(G11)  7 25  7  0  -4539.9  2046005.8  0.0 10 0  237  397   12
[16]  38(B02) 1f 39 26  0  -1094.7  4092002.7 -0.3  2 0  968  985  478
[17]  41(B05) 1f 32 27  0  -1100.9  4092002.7 -0.7  2 0  931  827  280
[18]  45(B09)  7 37  9  0    542.2  4091998.4  0.7  2 0  633  816  289
[19]  50(B14) 1f 41  7  0   -152.2  4092000.3  0.0  2 0 1097 1470  873
[20]  57(B21) 1f 42  7  0    982.7  4091997.3  0.1  2 0 1029 1722  765
[21]  62(B26) 1f 42  7  0  -3360.4  4092008.6 -0.1  2 0 1745 1680  873
[22]  52(B16) 1f 32  8  0    677.8  4091998.2 -0.1  5 0  537  691  441
[24]  48(B12)  7 28  7  0  -4450.2  4092011.6  0.4 10 0 1038  838  365
[32]  75(N-6) 8f 37  7  0    177.6  1021999.8 -0.0  2 0   563  613  172
[33]  76(N-5) 8f 40 10  0   2226.8  1021998.5  0.1  2 0   578  843  469
[34]  77(N-4) 8f 36 19  0  -5619.1  1022003.5  0.0  2 0   326  863  392
[48]  38(B02)  f 36 10  0  -2474.4 20460039.7  0.1  2 0  182  144  442
[51]  50(B14)  1  7  7  0     -8.0 20460002.1 -0.0  1 0  596  335  659
[52]  57(B21)  1  7  7  0   1019.4 20459986.3  0.0  1 0  578  330  472
[53]  62(B26)  1  7  7  0  -3160.5 20460053.6  0.1  1 0  659  556   76
sat65 = 155698 630 46024 -500
sat65 threshold = 3 
$GNGGA,063442.722,,,,,0,00,,,M,,,,0000*2B
$GNRMC,063442.722,A,,,,,,,010419,,*2B
$GPGSA,A,1,,,,,,,,,,,,,,,*1E
$BDGSA,A,1,,,,,,,,,,,,,,,*0F
$GLGSA,A,1,,,,,,,,,,,,,,,*02
$GPGSV,2,1,06,04,00,000,42,07,00,000,43,09,00,000,45,23,00,000,43*70
$GPGSV,2,2,06,30,00,000,40,11,00,000,25*7F
$BDGSV,2,1,08,02,00,000,39,05,00,000,32,09,00,000,37,14,00,000,41*62
$BDGSV,2,2,08,21,00,000,42,26,00,000,42,16,00,000,32,12,00,000,28*68
$B3CN0,0,36,0,0,0,0,0,0,0,0,0,0,0,0*79
$GLGSV,1,1,03,04,00,000,37,03,00,000,40,17,00,000,36*52
sat66 = 118650 2833 34777 3500
sat66 threshold = 3 
sat66 = 154188 2923 46124 -2750
sat66 threshold = 3 
sat67 = 111467 3130 34887 -7000
sat67 threshold = 3 
sat67 = 137182 2600 46048 -8000
sat67 threshold = 2 
sat68 = 111800 2480 34540 -7250
sat68 threshold = 3 
sat68 = 154877 2174 46011 -3000
sat68 threshold = 3 
sat-1 = 0 0 0 0
sat-1 threshold = 0 
sat-1 = 0 0 0 0
sat-1 threshold = 0 
sat74 = 9678 166 3174 9000
sat74 threshold = 3 
sat74 = 10588 1548 2936 -6750
sat74 threshold = 3 
sat78 = 11226 418 2848 -2250
sat78 threshold = 3 
sat78 = 8755 1614 2850 1250
sat78 threshold = 3 
sat79 = 8493 1327 2822 -500
sat79 threshold = 3 
sat79 = 8558 1346 2836 7000
sat79 threshold = 3 
sat80 = 9871 1145 2820 -6750
sat80 threshold = 3 
sat80 = 10088 358 2765 -2250
sat80 threshold = 3 
---00000026--- Acq_st=3 0  2000-1-1 0:2:39 
[00]  03(G04)  f 43  7  0  -1798.0  2046002.3  0.0  2 0 1033 1762  840
[01]  06(G07)  f 42  7  0  -3848.0  2046004.9  0.1  2 0 1416 2115 1120
[02]  08(G09)  f 45  7  0   -589.1  2046000.7  0.0  2 0 1403 2881 1392
[03]  22(G23)  f 43  7  0   1109.2  2045998.5 -0.0  2 0 1380 1975  941
[04]  29(G30)  f 40  7  0  -4314.3  2046005.5  0.1  2 0  772 1575  925
[05]  10(G11)  7  7  7  0  -4734.4  2046006.2  0.0 10 0  481  165   69
[16]  38(B02) 1f 39 28  0  -1096.1  4092002.8 -0.7  2 0  823 1023  637
[17]  41(B05) 1f 34 16  0  -1115.1  4092002.7  0.2  2 0  944  662  103
[18]  45(B09)  7 38  8  0    549.8  4091998.4  0.5  2 0  423  450  474
[19]  50(B14) 1f 41  7  0   -157.7  4092000.3  0.1  2 0 1017 1263  314
[20]  57(B21) 1f 42  7  0    977.2  4091997.3 -0.0  2 0 1262 1682  960
[21]  62(B26) 1f 43  7  0  -3360.0  4092008.7 -0.0  2 0 1576 1832  770
[22]  52(B16) 1f 32  8  0    673.3  4091998.3  0.1  5 0  190  645  407
[24]  48(B12)  7 37  8  0  -4457.7  4092011.5  0.1  2 0  607  823  380
[32]  75(N-6) 8f 38  7  0    173.6  1021999.8  0.1  2 0   307  860  403
[33]  76(N-5) 8f 39 15  0   2226.1  1021998.5  0.1  2 0   284  654  392
[34]  77(N-4) 8f 35 20  0  -5622.8  1022003.5 -0.1  2 0   467  451  196
[48]  38(B02)  f 18 21  0  -2802.3 20460043.4 -0.0  2 0  724  350  393
sat81 = 12303 1773 3812 9750
sat81 threshold = 3 
sat81 = 11888 119 3908 -9750
sat81 threshold = 3 
$GNGGA,063443.722,,,,,0,00,,,M,,,,0000*2A
$GNRMC,063443.722,A,,,,,,,010419,,*2A
$GPGSA,A,1,,,,,,,,,,,,,,,*1E
$BDGSA,A,1,,,,,,,,,,,,,,,*0F
$GLGSA,A,1,,,,,,,,,,,,,,,*02
$GPGSV,2,1,05,04,00,000,43,07,00,000,42,09,00,000,45,23,00,000,43*73
$GPGSV,2,2,05,30,00,000,40*4B
$BDGSV,2,1,08,02,00,000,39,05,00,000,34,09,00,000,38,14,00,000,41*6B
$BDGSV,2,2,08,21,00,000,42,26,00,000,43,16,00,000,32,12,00,000,37*67
$B3CN0,0,19,0,0,0,0,0,0,0,0,0,0,0,0*74
$GLGSV,1,1,03,04,00,000,38,03,00,000,39,17,00,000,35*50
sat82 = 8754 1389 2862 9750
sat82 threshold = 3 
sat82 = 8388 1611 2744 -3250
sat82 threshold = 3 
sat83 = 8102 1215 2807 -7750
sat83 threshold = 2 
sat83 = 8119 127 2835 1000
sat83 threshold = 2 
sat84 = 8090 1762 2814 9500
sat84 threshold = 2 
sat84 = 8086 878 2834 -7750
sat84 threshold = 2 
sat85 = 8852 1639 2971 -3000
sat85 threshold = 2 
sat85 = 9042 352 2924 -250
sat85 threshold = 3 
sat86 = 9037 1230 2853 8500
sat86 threshold = 3 
sat86 = 8153 1835 2839 -1750
sat86 threshold = 2 
sat87 = 8442 1800 2892 2000
sat87 threshold = 2 
sat87 = 10688 356 2894 -6500
sat87 threshold = 3 
---00000027--- Acq_st=7 0  2000-1-1 0:2:40 
[00]  03(G04)  f 42  7  0  -1792.2  2046002.3  0.0  2 0  912 1190  527
[01]  06(G07)  f 43  7  0  -3849.5  2046004.9 -0.0  2 0 1261 1805 1042
[02]  08(G09)  f 46  7  0   -590.5  2046000.7 -0.0  2 0 2260 3086 1233
[03]  22(G23)  f 43  7  0   1114.4  2045998.5  0.0  2 0 1344 2108  968
[04]  29(G30)  f 40  7  0  -4312.1  2046005.5  0.0  2 0 1157 1730  777
[05]  10(G11)  7  7  7  0  -4865.2  2046006.2  0.1 10 0  310  126  171
[16]  38(B02) 1f 40 25  0  -1098.8  4092002.8 -0.8  2 0  923 1195  384
[17]  41(B05) 1f 34 25  0  -1103.2  4092002.8  0.6  2 0  966 1210  952
[18]  45(B09)  7 38  9  0    544.5  4091998.4  0.4  2 0  902  937  239
[19]  50(B14) 1f 41  7  0   -156.7  4092000.3  0.1  2 0  824 1060  723
[20]  57(B21) 1f 42 11  0    982.0  4091997.3  0.0  2 0 1232 1104  251
[21]  62(B26) 1f 43  7  0  -3364.4  4092008.7  0.0  2 0 1301 1641  737
[22]  52(B16) 1f 32  9  0    668.4  4091998.1 -0.1  5 0  368  436  290
[24]  48(B12)  7 38  7  0  -4453.8  4092011.5  0.1  2 0  944 1055  569
[32]  75(N-6) 8f 38  7  0    176.2  1021999.9  0.0  2 0   503  820  395
[33]  76(N-5) 8f 39  7  0   2225.4  1021998.5  0.1  2 0   756  952  560
[34]  77(N-4) 8f 35 20  0  -5624.2  1022003.6  0.1  2 0    88  450  641
[48]  38(B02)  f 13 10  1  -3035.7 20460048.0  0.0  2 0  236  378  701
[51]  50(B14)  1  7  7  0      0.5 20460002.1 -0.0  1 0  624  546  609
[52]  57(B21)  1  7  9  0    331.1 20459985.0  0.2  1 0  133  408  534
[53]  62(B26)  1  7  9  0  -3240.5 20460054.6  0.0  1 0  316  405  195
$GNGGA,063444.722,,,,,0,00,,,M,,,,0000*2D
$GNRMC,063444.722,A,,,,,,,010419,,*2D
$GPGSA,A,1,,,,,,,,,,,,,,,*1E
$BDGSA,A,1,,,,,,,,,,,,,,,*0F
$GLGSA,A,1,,,,,,,,,,,,,,,*02
$GPGSV,2,1,05,04,00,000,42,07,00,000,43,09,00,000,46,23,00,000,43*70
$GPGSV,2,2,05,30,00,000,40*4B
$BDGSV,2,1,08,02,00,000,40,05,00,000,34,09,00,000,38,14,00,000,41*65
$BDGSV,2,2,08,21,00,000,42,26,00,000,43,16,00,000,32,12,00,000,38*68
$B3CN0,0,0,0,0,0,0,0,0,0,0,0,0,0,0*4C
$GLGSV,1,1,03,04,00,000,38,03,00,000,39,17,00,000,35*50
---00000028--- Acq_st=7 0  2000-1-1 0:2:41 
[00]  03(G04)  f 42  7  0  -1787.5  2046002.3  0.1  2 0 1080 1760  377
[01]  06(G07)  f 42  7  0  -3844.4  2046004.9  0.1  2 0 1216 1649 1048
