i=1
Rf R0 Config = ff777073
Rf R1 Config = 00dffbfe
Rf R52 Config = 00dfef00
i=2
Rf R0 Config = 007772f3
Rf R1 Config = 00df7bf2
Rf R52 Config = 00db6ef0
i=3
Rf R0 Config = 007772f3
Rf R1 Config = 00dffbfe
Rf R52 Config = 00dfee50
i=4
Rf R0 Config = 00777273
Rf R1 Config = 00df5bfe
Rf R52 Config = 00deae20
SD initialized success
Create debug.log Failed! 3
Start Channel by LuYu
$GNGGA,000000.000,,,,,0,00,,,M,,,,0000*2B
$GNRMC,000000.000,A,,,,,,,060180,,*29
$GPGSA,A,1,,,,,,,,,,,,,,,*1E
$BDGSA,A,1,,,,,,,,,,,,,,,*0F
$GLGSA,A,1,,,,,,,,,,,,,,,*02
$B3CN0,0,0,0,0,0,0,0,0,0,0,0,0,0,0*4C
$GNGGA,000000.000,,,,,0,00,,,M,,,,0000*2B
$GNRMC,000000.000,A,,,,,,,060180,,*29
$GPGSA,A,1,,,,,,,,,,,,,,,*1E
$BDGSA,A,1,,,,,,,,,,,,,,,*0F
$GLGSA,A,1,,,,,,,,,,,,,,,*02
$B3CN0,0,0,0,0,0,0,0,0,0,0,0,0,0,0*4C
$GNGGA,000000.000,,,,,0,00,,,M,,,,0000*2B
$GNRMC,000000.000,A,,,,,,,060180,,*29
$GPGSA,A,1,,,,,,,,,,,,,,,*1E
$BDGSA,A,1,,,,,,,,,,,,,,,*0F
$GLGSA,A,1,,,,,,,,,,,,,,,*02
$B3CN0,0,0,0,0,0,0,0,0,0,0,0,0,0,0*4C
$GNGGA,000000.000,,,,,0,00,,,M,,,,0000*2B
$GNRMC,000000.000,A,,,,,,,060180,,*29
$GPGSA,A,1,,,,,,,,,,,,,,,*1E
$BDGSA,A,1,,,,,,,,,,,,,,,*0F
$GLGSA,A,1,,,,,,,,,,,,,,,*02
$GPGSV,2,1,07,04,00,000,40,07,00,000,36,08,00,000,35,09,00,000,34*7F
$GPGSV,2,2,07,11,00,000,31,16,00,000,23,18,00,000,16*44
$B3CN0,0,0,0,0,0,0,0,0,0,0,0,0,0,0*4C
$GNGGA,000000.000,,,,,0,00,,,M,,,,0000*2B
$GNRMC,000000.000,A,,,,,,,060180,,*29
$GPGSA,A,1,,,,,,,,,,,,,,,*1E
$BDGSA,A,1,,,,,,,,,,,,,,,*0F
$GLGSA,A,1,,,,,,,,,,,,,,,*02
$GPGSV,3,1,10,04,00,000,40,07,00,000,44,08,00,000,45,09,00,000,43*7A
$GPGSV,3,2,10,11,00,000,42,16,00,000,40,18,00,000,41,23,00,000,33*71
$GPGSV,3,3,10,27,00,000,28,30,00,000,23*75
$B3CN0,0,0,0,0,0,0,0,0,0,0,0,0,0,0*4C
$GNGGA,000000.000,,,,,0,00,,,M,,,,0000*2B
$GNRMC,000000.000,A,,,,,,,060180,,*29
$GPGSA,A,1,,,,,,,,,,,,,,,*1E
$BDGSA,A,1,,,,,,,,,,,,,,,*0F
$GLGSA,A,1,,,,,,,,,,,,,,,*02
$GPGSV,3,1,10,04,00,000,40,07,00,000,44,08,00,000,45,09,00,000,44*7D
$GPGSV,3,2,10,11,00,000,42,16,00,000,40,18,00,000,42,23,00,000,43*75
$GPGSV,3,3,10,27,00,000,43,30,00,000,39*73
$BDGSV,1,1,04,02,00,000,40,03,00,000,42,04,00,000,37,07,00,000,23*69
$B3CN0,0,0,0,0,0,0,0,0,0,0,0,0,0,0*4C
PRange Check: SYS0, 38424277.4 40447736.2 2023458.8 
PRange Check: SYS1, 40126039.1 40306718.8 180679.7 
FIXMEAS_G07 44 0f 00 0.0 -3257.09         0.00  60695742.74 [  2085711.18  17335055.69  20128833.39] [-1949.85  1596.52 -1233.86  1729.71]
FIXMEAS_G08 45 0f 00 1.0   101.76         0.00  59917142.67 [ -7737043.70  18401237.86  17458784.97] [ -692.60 -2109.58  1940.54 -41348.94]
FIXMEAS_G09 44 0f 00 0.9   738.90         0.00  61656650.86 [  8213042.15  25106355.63   2670062.96] [ -213.71   408.63 -3134.47 131231.60]
FIXMEAS_G11 42 0f 00 0.0 -3912.83         0.00  61262176.10 [ -8449702.88  25285276.87  -1805078.90] [ -451.95     2.58  3030.03 -190831.79]
FIXMEAS_G16 40 0f 00 0.0  1176.68         0.00  63219566.65 [-21619535.04   2379635.51  15359245.26] [-1774.65  -844.77 -2296.52 -8622.73]
FIXMEAS_G18 42 0f 00 0.0 -3871.84         0.00  61745262.78 [-17027650.02  20182708.15  -2514148.72] [ -407.99   -29.10  3146.38 11755.38]
FIXMEAS_G23 43 0f 00 0.0  1908.23         0.00  62280098.63 [   347830.26  24991758.74  -8027323.70] [ -606.01  -957.31 -2931.71 -57634.07]
FIXMEAS_G27 43 0f 00 1.0  1848.59         0.00  61544300.59 [-13205415.59   7469912.29  21669782.17] [ -689.76 -2686.76   532.60 -28891.15]
FIXMEAS_G30 40 0f 00 0.9 -4249.09         0.00  63058316.55 [ 12696003.10   9559786.09  21311449.14] [-2031.28  1791.39   388.77 -23031.68]
FIXMEAS_B03 43 1f 00 0.2 -1045.54         0.00  76285592.62 [-14698957.83  39476103.72    162795.19] [   -5.28    -1.78    40.36  8441.36]
FIXMEAS_B04 39 1f 00 0.9 -1057.05         0.00  78782586.21 [-39630191.47  14410170.14    478924.14] [    1.35     0.65    39.82 10029.76]
# of Valid meas: 11 [G07 G08 G09 G11 G16 G18 G23 G27 G30 B03 B04  ]
LSQ PV=[11  -1578915.73,   5312760.39,   3146347.73,   0.15,  -1.02,  -0.50, [ 0.16, -1.13], 39568271.12,39568135.54,      0.00,-199.13,5  0.87]
KF  PV=[11  -1578915.73,   5312760.39,   3146347.73,   0.15,  -1.02,  -0.50, [ 0.16, -1.13], 39568271.12,39568135.54,      0.00,-199.13,5  0.87]
LSQ LLH=[ 29.748431, 106.551586, 312.36, 458743.481927 458743.613912]
KF  LLH=[ 29.748431, 106.551586, 312.36, 458743.481927 458743.613912]
KF  FixSet 244285c0        c        0        0
LSQ Dop=[ 2.10, 1.82, 0.87, 1.60]
KF Dop=[ 2.10, 1.82, 0.87, 1.60]
KF UTC=[1980/01/11 - 07:25:25.482 ]
Form BB MSG80:     0.118 1220090 10333326 
$GNGGA,072525.482,2944.9058,N,10633.0952,E,1,11,0.9,312.4,M,,,,0000*13
$GNRMC,072525.482,A,2944.9058,N,10633.0952,E,0.32,0.00,110180,,*1A
$GPGSA,A,3,07,08,09,11,16,18,23,27,30,,,,1.8,0.9,1.6*3A
$BDGSA,A,3,03,04,,,,,,,,,,,1.8,0.9,1.6*23
$GLGSA,A,3,,,,,,,,,,,,,1.8,0.9,1.6*29
$GPGSV,3,1,10,04,00,000,41,07,00,000,44,08,00,000,45,09,00,000,43*7B
$GPGSV,3,2,10,11,00,000,42,16,00,000,40,18,00,000,42,23,00,000,43*75
$GPGSV,3,3,10,27,00,000,42,30,00,000,39*72
$BDGSV,2,1,07,02,00,000,39,03,00,000,43,04,00,000,38,07,00,000,43*6F
$BDGSV,2,2,07,08,00,000,40,10,00,000,36,11,00,000,34*50
$B3CN0,0,0,0,0,0,0,0,0,0,0,0,0,0,0*4C
PRange Check: SYS0,    -241.6    -202.5     39.1 
PRange Check: SYS1,    -409.6    -357.2     52.4 
FIXMEAS_G07 45 0f 00 0.9 -3255.00         0.00  21126779.08 [  2083531.23  17336840.73  20127453.58] [-1949.63  1596.53 -1234.33  1729.71]
FIXMEAS_G08 45 0f 00 0.0   104.19         0.00  20348893.88 [ -7737818.19  18398879.08  17460954.40] [ -692.81 -2109.80  1940.12 -41348.94]
FIXMEAS_G09 43 0f 00 0.9   741.83         0.00  22088537.80 [  8212803.15  25106812.27   2666558.36] [ -213.80   408.22 -3134.54 131231.60]
FIXMEAS_G11 42 0f 00 0.1 -3910.10         0.00  21693074.70 [ -8450208.11  25285279.56  -1801691.08] [ -451.80     2.22  3030.07 -190831.79]
FIXMEAS_G16 41 0f 00 0.0  1180.21         0.00  23651546.77 [-21621519.09   2378691.13  15356677.38] [-1774.41  -844.52 -2296.88 -8622.73]
FIXMEAS_G18 41 0f 00 0.0 -3868.71         0.00  22176170.66 [-17028106.02  20182675.45  -2510630.80] [ -407.69   -29.39  3146.44 11755.38]
FIXMEAS_G23 42 0f 00 0.0  1910.15         0.00  22712233.34 [   347152.60  24990688.19  -8030601.45] [ -606.18  -957.68 -2931.51 -57634.07]
FIXMEAS_G27 43 0f 00 0.0  1851.34         0.00  21976422.55 [-13206186.91   7466908.29  21670377.37] [ -689.96 -2686.78   532.08 -28891.16]
FIXMEAS_G30 40 0f 00 1.0 -4246.34         0.00  23489143.40 [ 12693732.01   9561789.09  21311883.53] [-2031.21  1791.56   388.26 -23031.68]
FIXMEAS_B03 43 1f 00 0.8 -1044.88         0.00  36717089.14 [-14698963.73  39476101.73    162840.32] [   -5.28    -1.78    40.36  8441.38]
FIXMEAS_B04 37 1f 00 0.3 -1053.48         0.00  39214093.54 [-39630189.96  14410170.87    478968.66] [    1.35     0.65    39.82 10029.77]
# of Valid meas: 11 [G07 G08 G09 G27 B03 G11 G23 G16 G18 G30 B04  ]
LSQ PV=[11  -1578915.60,   5312765.01,   3146350.57,   0.16,  -0.56,  -0.29, [ 0.04, -0.66],    -217.61,   -356.28,      0.00,-198.38,5  0.87]
KF  PV=[11  -1578912.63,   5312761.93,   3146349.68,   0.17,  -0.46,  -0.22, [ 0.07, -0.53],    -220.33,   -356.33,      0.97,-198.28,11  0.82]
LSQ LLH=[ 29.748433, 106.551571, 317.59, 458744.600001 458744.600000]
KF  LLH=[ 29.748443, 106.551551, 313.84, 458744.600001 458744.600000]
KF  FixSet 244285c0        c        0        0
LSQ Dop=[ 2.10, 1.82, 0.87, 1.60]
KF Dop=[ 1.47, 1.29, 0.82, 0.99]
KF UTC=[1980/01/11 - 07:25:26.601 ]
Refix G01: 2, 458744.521244, -4549
Refix G07: 2, 458744.529534, -3254
Refix G08: 2, 458744.531985, 104
Refix G09: 2, 458744.526758, 741
Refix G11: 2, 458744.527003, -3908
Refix G16: 2, 458744.521078, 1180
Refix G18: 2, 458744.526067, -3868
Refix G23: 2, 458744.524048, 1910
Refix G27: 2, 458744.526598, 1850
Refix G30: 2, 458744.521572, -4246
$GNGGA,072526.600,2944.9066,N,10633.0930,E,1,11,0.8,313.8,M,,,,0000*1D
$GNRMC,072526.600,A,2944.9066,N,10633.0930,E,0.13,0.00,110180,,*1B
$GPGSA,A,3,07,08,09,11,16,18,23,27,30,,,,1.3,0.8,1.0*36
$BDGSA,A,3,03,04,,,,,,,,,,,1.3,0.8,1.0*2F
$GLGSA,A,3,,,,,,,,,,,,,1.3,0.8,1.0*25
$GPGSV,3,1,10,04,00,000,40,07,00,000,44,08,00,000,45,09,00,000,43*7A
$GPGSV,3,2,10,11,00,000,42,16,00,000,41,18,00,000,41,23,00,000,42*76
$GPGSV,3,3,10,27,00,000,43,30,00,000,40*7D
$BDGSV,3,1,10,02,00,000,40,03,00,000,43,04,00,000,39,07,00,000,42*66
$BDGSV,3,2,10,08,00,000,40,10,00,000,43,11,00,000,44,16,00,000,39*6F
$BDGSV,3,3,10,23,00,000,42,25,00,000,33*69
$B3CN0,0,0,0,0,0,0,0,0,0,0,0,0,0,0*4C
PRange Check: SYS0,    -440.2    -396.5     43.8 
PRange Check: SYS1,    -607.7    -547.7     60.0 
FIXMEAS_G07 44 0f 00 0.0 -3258.22         0.00  21126158.81 [  2081581.70  17338437.27  20126219.03] [-1949.43  1596.54 -1234.76  1729.71]
FIXMEAS_G08 45 0f 00 1.0   100.95         0.00  20348913.46 [ -7738511.09  18396769.18  17462894.33] [ -692.99 -2109.99  1939.75 -41348.94]
FIXMEAS_G09 43 0f 00 1.0   738.24         0.00  22088678.59 [  8212589.32  25107220.30   2663423.80] [ -213.87   407.85 -3134.59 131231.59]
FIXMEAS_G11 42 0f 00 0.0 -3911.75         0.00  21692331.62 [ -8450659.85  25285281.61  -1798660.98] [ -451.67     1.89  3030.11 -190831.79]
FIXMEAS_G16 40 0f 00 0.9  1175.97         0.00  23651771.65 [-21623293.39   2377846.72  15354380.34] [-1774.19  -844.30 -2297.21 -8622.73]
FIXMEAS_G18 42 0f 00 0.0 -3872.62         0.00  22175435.35 [-17028513.57  20182645.92  -2507484.33] [ -407.42   -29.66  3146.49 11755.38]
FIXMEAS_G23 43 0f 00 0.0  1907.28         0.00  22712596.76 [   346546.36  24989730.34  -8033532.87] [ -606.32  -958.01 -2931.33 -57634.07]
FIXMEAS_G27 43 0f 00 0.9  1846.58         0.00  21976774.36 [-13206876.96   7464221.50  21670909.21] [ -690.14 -2686.80   531.61 -28891.16]
FIXMEAS_G30 40 0f 00 1.0 -4252.24         0.00  23488336.69 [ 12691700.82   9563580.73  21312271.56] [-2031.15  1791.70   387.81 -23031.68]
FIXMEAS_B02 41 1f 00 0.8 -1047.24         0.00  37320215.55 [  4318236.77  41919286.81  -1099275.99] [   -1.76     2.90    42.66 -121835.35]
FIXMEAS_B03 43 1f 00 0.1 -1049.37         0.00  36716883.77 [-14698969.00  39476099.95    162880.67] [   -5.28    -1.78    40.36  8441.40]
FIXMEAS_B04 40 1f 00 0.9 -1056.53         0.00  39213894.39 [-39630188.61  14410171.52    479008.47] [    1.35     0.65    39.81 10029.77]
FIXMEAS_B07 42 1f 00 1.0 -1241.88         0.00  36446258.67 [-17318143.18  22532661.41  31148550.78] [-1140.87   295.15  -874.45 21395.57]
FIXMEAS_B08 40 1f 00 1.0 -2692.36         0.00  37658063.24 [-23552299.63  34764928.68  -5094617.56] [ 1024.96  1082.54  2590.21 41123.28]
FIXMEAS_B10 42 1f 00 0.1 -1294.26         0.00  36545742.57 [ -2379291.62  25765116.68  33423278.66] [-1173.93  -121.97    -8.97 -184611.19]
FIXMEAS_B11 43 1f 00 1.0   629.91         0.00  22594019.55 [-14329411.68  13236364.83  20032937.16] [  165.77 -2267.72  1616.73 -22316.27]
# of Valid meas: 16 [G08 G07 G09 G23 G27 B03 B11 G11 G18 B07 B10 B02 G16 G30 B04 B08  ]
LSQ PV=[16  -1578913.54,   5312768.91,   3146351.32,   0.38,  -0.87,  -0.33, [ 0.21, -0.98],    -413.50,   -556.24,      0.00,-199.35,5  0.75]
KF  PV=[16  -1578912.90,   5312764.78,   3146350.81,   0.13,  -0.35,  -0.07, [ 0.13, -0.35],    -416.46,   -557.43,      0.27,-198.90,11  0.71]
LSQ LLH=[ 29.748425, 106.551539, 320.70, 458745.600001 458745.600000]
KF  LLH=[ 29.748439, 106.551545, 316.85, 458745.600001 458745.600000]
KF  FixSet 244285c0      6ce        0        0
LSQ Dop=[ 1.94, 1.67, 0.75, 1.50]
KF Dop=[ 0.98, 0.87, 0.71, 0.49]
KF UTC=[2019/03/29 - 07:25:27.601 ]
Refix G01: 2, 458745.521247, -4552
Refix G07: 2, 458745.529536, -3258
Refix G08: 2, 458745.531985, 100
Refix G09: 2, 458745.526758, 738
Refix G11: 2, 458745.527006, -3912
Refix G16: 2, 458745.521077, 1176
Refix G18: 2, 458745.526070, -3872
Refix G23: 2, 458745.524047, 1906
Refix G27: 2, 458745.526597, 1846
Refix G30: 2, 458745.521574, -4249
$GNGGA,072527.600,2944.9064,N,10633.0927,E,1,16,0.7,316.8,M,,,,0000*15
$GNRMC,072527.600,A,2944.9064,N,10633.0927,E,0.25,0.00,290319,,*12
$GPGSA,A,3,07,08,09,11,16,18,23,27,30,,,,0.9,0.7,0.5*36
$BDGSA,A,3,02,03,04,07,08,10,11,,,,,,0.9,0.7,0.5*23
$GLGSA,A,3,,,,,,,,,,,,,0.9,0.7,0.5*25
$GPGSV,3,1,11,04,00,000,40,07,56,323,44,08,73,022,45,09,38,240,43*73
$GPGSV,3,2,11,11,47,176,42,16,21,065,40,18,37,143,41,23,26,201,43*71
$GPGSV,3,3,11,27,38,038,43,30,22,316,40,01,20,167,00*4B
$BDGSV,3,1,12,02,46,218,39,03,55,172,43,04,23,109,39,07,61,036,42*6C
$BDGSV,3,2,12,08,43,152,40,10,61,342,43,11,53,047,44,16,00,000,39*6B
$BDGSV,3,3,12,23,00,000,45,25,00,000,44,06,13,182,00,09,29,204,00*67
$B3CN0,0,0,0,0,0,0,0,0,0,0,0,0,0,0*4C
PRange Check: SYS0,    -636.1    -592.7     43.4 
PRange Check: SYS1,    -803.7    -743.6     60.2 
FIXMEAS_G07 44 0f 00 1.0 -3258.92         0.00  21125538.41 [  2079632.37  17340033.82  20124984.06] [-1949.23  1596.55 -1235.18  1729.71]
FIXMEAS_G08 45 0f 00 1.0   100.28         0.00  20348932.39 [ -7739204.18  18394659.10  17464833.89] [ -693.18 -2110.18  1939.37 -41348.94]
FIXMEAS_G09 43 0f 00 0.0   738.29         0.00  22088818.33 [  8212375.42  25107627.96   2660289.18] [ -213.94   407.48 -3134.65 131231.59]
FIXMEAS_G11 42 0f 00 0.1 -3913.14         0.00  21691587.21 [ -8451111.46  25285283.33  -1795630.85] [ -451.54     1.56  3030.14 -190831.79]
FIXMEAS_G16 40 0f 00 0.1  1176.06         0.00  23651995.78 [-21625067.46   2377002.54  15352082.97] [-1773.97  -844.08 -2297.53 -8622.74]
FIXMEAS_G18 41 0f 00 0.1 -3872.90         0.00  22174699.45 [-17028920.86  20182616.13  -2504337.81] [ -407.15   -29.92  3146.54 11755.38]
FIXMEAS_G23 43 0f 00 0.0  1906.75         0.00  22712958.96 [   345939.96  24988772.17  -8036464.11] [ -606.47  -958.34 -2931.15 -57634.07]
FIXMEAS_G27 43 0f 00 1.0  1847.10         0.00  21977126.05 [-13207567.18   7461534.69  21671440.59] [ -690.32 -2686.82   531.15 -28891.16]
FIXMEAS_G30 40 0f 00 0.9 -4250.05         0.00  23487529.39 [ 12689669.70   9565372.50  21312659.14] [-2031.09  1791.84   387.36 -23031.68]
FIXMEAS_B02 40 1f 00 0.7 -1045.77         0.00  37320014.79 [  4318235.02  41919289.72  -1099233.33] [   -1.76     2.90    42.66 -121835.36]
FIXMEAS_B03 43 1f 00 0.0 -1048.05         0.00  36716678.66 [-14698974.28  39476098.17    162921.03] [   -5.28    -1.78    40.36  8441.42]
FIXMEAS_B04 39 1f 00 0.0 -1054.36         0.00  39213693.63 [-39630187.26  14410172.17    479048.28] [    1.35     0.65    39.81 10029.78]
FIXMEAS_B07 42 1f 00 1.0 -1241.74         0.00  36446018.46 [-17319284.02  22532956.64  31147676.24] [-1140.82   295.31  -874.62 21395.56]
FIXMEAS_B08 40 1f 00 1.0 -2693.19         0.00  37657546.39 [-23551274.59  34766011.14  -5092027.34] [ 1025.11  1082.39  2590.23 41123.28]
FIXMEAS_B10 43 1f 00 0.0 -1295.07         0.00  36545493.15 [ -2380465.57  25764994.80  33423269.60] [-1173.95  -121.80    -9.14 -184611.20]
FIXMEAS_B11 44 1f 00 1.0   629.89         0.00  22594138.70 [-14329245.98  13234097.01  20034553.70] [  165.62 -2267.92  1616.36 -22316.27]
# of Valid meas: 16 [G08 G07 B11 G09 G23 G27 B03 B10 G11 B07 G18 G16 G30 B02 B08 B04  ]
LSQ PV=[16  -1578914.13,   5312771.88,   3146352.93,   0.03,  -0.12,   0.00, [ 0.06, -0.11],    -609.99,   -753.23,      0.00,-198.87,5  0.75]
KF  PV=[16  -1578912.65,   5312765.56,   3146351.59,   0.12,  -0.21,  -0.00, [ 0.13, -0.21],    -614.34,   -756.28,      0.34,-198.86,11  0.71]
LSQ LLH=[ 29.748424, 106.551536, 324.11, 458746.600002 458746.600000]
KF  LLH=[ 29.748443, 106.551540, 317.82, 458746.600002 458746.600000]
KF  FixSet 244285c0      6ce        0        0
LSQ Dop=[ 1.94, 1.67, 0.75, 1.50]
KF Dop=[ 0.98, 0.87, 0.71, 0.49]
KF UTC=[2019/03/29 - 07:25:28.601 ]
Refix G01: 2, 458746.521250, -4552
Refix G07: 2, 458746.529538, -3258
Refix G08: 2, 458746.531985, 100
Refix G09: 2, 458746.526757, 738
Refix G11: 2, 458746.527008, -3912
Refix G16: 2, 458746.521077, 1176
Refix G18: 2, 458746.526072, -3872
Refix G23: 2, 458746.524045, 1906
Refix G27: 2, 458746.526596, 1847
Refix G30: 2, 458746.521577, -4249
$GNGGA,072528.600,2944.9066,N,10633.0924,E,1,16,0.7,317.8,M,,,,0000*1A
$GNRMC,072528.600,A,2944.9066,N,10633.0924,E,0.25,0.00,290319,,*1C
$GPGSA,A,3,07,08,09,11,16,18,23,27,30,,,,0.9,0.7,0.5*36
$BDGSA,A,3,02,03,04,07,08,10,11,,,,,,0.9,0.7,0.5*23
$GLGSA,A,3,,,,,,,,,,,,,0.9,0.7,0.5*25
$GPGSV,3,1,11,04,00,000,41,07,56,323,44,08,73,022,45,09,38,240,43*72
$GPGSV,3,2,11,11,47,176,42,16,21,065,40,18,37,143,41,23,26,201,43*71
$GPGSV,3,3,11,27,38,038,43,30,22,316,40,01,20,167,00*4B
$BDGSV,3,1,12,02,46,218,41,03,55,172,43,04,23,109,40,07,61,036,42*6D
$BDGSV,3,2,12,08,43,152,40,10,61,342,43,11,53,047,43,16,00,000,38*6D
$BDGSV,3,3,12,23,00,000,45,25,00,000,44,06,13,182,00,09,29,204,00*67
$B3CN0,0,16,0,0,0,0,0,0,0,0,0,0,0,0*7B
PRange Check: SYS0,    -834.5    -789.9     44.6 
PRange Check: SYS1,   -1001.5    -941.8     59.7 
FIXMEAS_G07 45 0f 00 0.0 -3259.69         0.00  21124917.63 [  2077683.24  17341630.38  20123748.67] [-1949.03  1596.56 -1235.60  1729.71]
FIXMEAS_G08 46 0f 00 0.0    98.72         0.00  20348951.22 [ -7739897.44  18392548.82  17466773.08] [ -693.36 -2110.38  1939.00 -41348.94]
FIXMEAS_G09 44 0f 00 1.0   736.25         0.00  22088958.00 [  8212161.44  25108035.25   2657154.51] [ -214.01   407.11 -3134.70 131231.59]
FIXMEAS_G11 43 0f 00 1.0 -3914.45         0.00  21690842.51 [ -8451562.93  25285284.73  -1792600.68] [ -451.41     1.23  3030.18 -190831.78]
FIXMEAS_G16 40 0f 00 0.9  1173.21         0.00  23652218.88 [-21626841.32   2376158.57  15349785.28] [-1773.75  -843.86 -2297.85 -8622.74]
FIXMEAS_G18 42 0f 00 1.0 -3874.01         0.00  22173962.74 [-17029327.88  20182586.07  -2501191.23] [ -406.88   -30.19  3146.59 11755.38]
FIXMEAS_G23 43 0f 00 0.1  1904.72         0.00  22713320.96 [   345333.42  24987813.67  -8039395.17] [ -606.61  -958.67 -2930.98 -57634.07]
FIXMEAS_G27 42 0f 00 0.0  1844.85         0.00  21977477.74 [-13208257.58   7458847.86  21671971.50] [ -690.49 -2686.84   530.68 -28891.17]
FIXMEAS_G30 40 0f 00 1.0 -4252.66         0.00  23486721.52 [ 12687638.63   9567164.42  21313046.28] [-2031.03  1791.99   386.90 -23031.69]
FIXMEAS_B02 39 1f 00 0.1 -1049.17         0.00  37319813.55 [  4318233.26  41919292.62  -1099190.67] [   -1.76     2.90    42.67 -121835.37]
FIXMEAS_B03 43 1f 00 0.8 -1051.88         0.00  36716474.48 [-14698979.56  39476096.39    162961.39] [   -5.28    -1.78    40.36  8441.45]
FIXMEAS_B04 40 1f 00 0.6 -1057.27         0.00  39213492.10 [-39630185.90  14410172.82    479088.09] [    1.35     0.65    39.81 10029.78]
FIXMEAS_B07 42 1f 00 0.1 -1244.12         0.00  36445778.49 [-17320424.82  22533252.04  31146801.54] [-1140.78   295.48  -874.79 21395.55]
FIXMEAS_B08 40 1f 00 1.0 -2694.94         0.00  37657029.43 [-23550249.40  34767093.45  -5089437.09] [ 1025.27  1082.24  2590.26 41123.28]
FIXMEAS_B10 43 1f 00 0.0 -1297.05         0.00  36545243.43 [ -2381639.53  25764873.09  33423260.37] [-1173.97  -121.62    -9.32 -184611.21]
FIXMEAS_B11 44 1f 00 0.0   628.12         0.00  22594258.03 [-14329080.43  13231829.00  20036169.88] [  165.48 -2268.11  1615.99 -22316.28]
# of Valid meas: 16 [G08 G07 G09 B11 G11 G23 B03 B10 G18 G27 B07 G16 G30 B04 B08 B02  ]
LSQ PV=[16  -1578914.54,   5312773.78,   3146354.01,   0.16,  -0.38,  -0.15, [ 0.08, -0.43],    -807.66,   -951.15,      0.00,-199.47,5  0.75]
KF  PV=[16  -1578912.97,   5312767.41,   3146351.97,   0.06,  -0.10,  -0.01, [ 0.06, -0.10],    -812.04,   -954.72,      0.22,-199.17,11  0.71]
LSQ LLH=[ 29.748424, 106.551535, 326.33, 458747.600003 458747.600000]
KF  LLH=[ 29.748437, 106.551538, 319.63, 458747.600003 458747.600000]
KF  FixSet 244285c0      6ce        0        0
LSQ Dop=[ 1.94, 1.67, 0.75, 1.50]
KF Dop=[ 0.98, 0.87, 0.71, 0.49]
KF UTC=[2019/03/29 - 07:25:29.601 ]
Refix G01: 2, 458747.521253, -4554
Refix G07: 2, 458747.529540, -3260
Refix G08: 2, 458747.531985, 99
Refix G09: 2, 458747.526757, 737
Refix G11: 2, 458747.527010, -3914
Refix G16: 2, 458747.521076, 1174
Refix G18: 2, 458747.526075, -3873
Refix G23: 2, 458747.524044, 1904
Refix G27: 2, 458747.526595, 1845
Refix G30: 2, 458747.521580, -4251
$GNGGA,072529.600,2944.9062,N,10633.0923,E,1,16,0.7,319.6,M,,,,0000*18
$GNRMC,072529.600,A,2944.9062,N,10633.0923,E,0.11,0.00,290319,,*19
$GPGSA,A,3,07,08,09,11,16,18,23,27,30,,,,0.9,0.7,0.5*36
$BDGSA,A,3,02,03,04,07,08,10,11,,,,,,0.9,0.7,0.5*23
$GLGSA,A,3,,,,,,,,,,,,,0.9,0.7,0.5*25
$GPGSV,3,1,11,04,00,000,40,07,56,323,45,08,73,022,46,09,38,240,44*76
$GPGSV,3,2,11,11,47,176,43,16,21,065,40,18,37,143,42,23,26,201,43*73
$GPGSV,3,3,11,27,38,038,43,30,22,316,40,01,20,167,00*4B
$BDGSV,3,1,12,02,46,218,39,03,55,172,43,04,23,109,39,07,61,036,42*6C
$BDGSV,3,2,12,08,43,152,40,10,61,342,43,11,53,047,44,16,00,000,38*6A
$BDGSV,3,3,12,23,00,000,45,25,00,000,43,06,13,182,00,09,29,204,00*60
$B3CN0,0,0,0,0,0,0,0,0,0,0,0,0,0,0*4C
PRange Check: SYS0,   -1033.1    -989.9     43.3 
PRange Check: SYS1,   -1199.4   -1139.4     60.0 
FIXMEAS_G07 45 0f 00 0.0 -3258.99         0.00  21124296.85 [  2075734.31  17343226.95  20122512.85] [-1948.82  1596.57 -1236.03  1729.70]
FIXMEAS_G08 46 0f 00 0.0   100.93         0.00  20348969.80 [ -7740590.90  18390438.35  17468711.89] [ -693.54 -2110.57  1938.63 -41348.94]
FIXMEAS_G09 44 0f 00 0.0   737.57         0.00  22089097.89 [  8211947.39  25108442.17   2654019.78] [ -214.09   406.74 -3134.76 131231.59]
FIXMEAS_G11 43 0f 00 1.0 -3912.75         0.00  21690097.45 [ -8452014.28  25285285.80  -1789570.48] [ -451.28     0.90  3030.22 -190831.78]
FIXMEAS_G16 39 0f 00 0.0  1173.86         0.00  23652441.88 [-21628614.96   2375314.82  15347487.27] [-1773.53  -843.64 -2298.18 -8622.74]
FIXMEAS_G18 42 0f 00 1.0 -3873.23         0.00  22173225.89 [-17029734.63  20182555.75  -2498044.60] [ -406.62   -30.45  3146.65 11755.38]
FIXMEAS_G23 43 0f 00 1.0  1905.86         0.00  22713682.81 [   344726.74  24986854.84  -8042326.05] [ -606.76  -959.00 -2930.80 -57634.07]
FIXMEAS_G27 43 0f 00 1.0  1847.33         0.00  21977828.90 [-13208948.17   7456161.02  21672501.95] [ -690.67 -2686.86   530.21 -28891.17]
FIXMEAS_G30 40 0f 00 0.2 -4249.22         0.00  23485911.25 [ 12685607.63   9568956.48  21313432.96] [-2030.97  1792.13   386.45 -23031.69]
FIXMEAS_B02 40 1f 00 0.5 -1049.98         0.00  37319612.01 [  4318231.50  41919295.52  -1099147.99] [   -1.76     2.90    42.68 -121835.37]
FIXMEAS_B03 43 1f 00 0.8 -1050.77         0.00  36716270.53 [-14698984.83  39476094.62    163001.75] [   -5.28    -1.78    40.36  8441.47]
FIXMEAS_B04 40 1f 00 0.8 -1056.51         0.00  39213289.65 [-39630184.55  14410173.47    479127.90] [    1.35     0.65    39.81 10029.79]
FIXMEAS_B07 42 1f 00 0.0 -1243.22         0.00  36445538.42 [-17321565.58  22533547.60  31145926.67] [-1140.74   295.65  -874.95 21395.55]
FIXMEAS_B08 41 1f 00 0.0 -2692.86         0.00  37656512.06 [-23549224.05  34768175.62  -5086846.81] [ 1025.42  1082.09  2590.29 41123.28]
FIXMEAS_B10 42 1f 00 1.0 -1296.14         0.00  36544993.76 [ -2382813.51  25764751.55  33423250.97] [-1173.99  -121.45    -9.49 -184611.22]
FIXMEAS_B11 43 1f 00 0.0   630.06         0.00  22594377.51 [-14328915.03  13229560.79  20037785.69] [  165.33 -2268.30  1615.63 -22316.29]
# of Valid meas: 16 [G08 G07 G09 G11 G23 G27 B03 B11 G18 B07 B10 B08 G30 B02 B04 G16  ]
LSQ PV=[16  -1578914.01,   5312773.84,   3146354.40,   0.09,  -0.20,  -0.19, [ 0.06, -0.28],   -1007.11,  -1150.95,      0.00,-199.12,5  0.75]
KF  PV=[16  -1578913.02,   5312768.02,   3146352.36,   0.10,  -0.12,  -0.12, [ 0.07, -0.19],   -1010.96,  -1153.77,      0.26,-199.05,11  0.71]
LSQ LLH=[ 29.748427, 106.551529, 326.44, 458748.600003 458748.600000]
KF  LLH=[ 29.748438, 106.551537, 320.34, 458748.600003 458748.600000]
KF  FixSet 244285c0      6ce        0        0
LSQ Dop=[ 1.94, 1.67, 0.75, 1.50]
KF Dop=[ 0.98, 0.87, 0.71, 0.49]
KF UTC=[2019/03/29 - 07:25:30.601 ]
Refix G01: 2, 458748.521256, -4554
Refix G07: 2, 458748.529543, -3258
Refix G08: 2, 458748.531985, 100
Refix G09: 2, 458748.526756, 738
Refix G11: 2, 458748.527013, -3913
Refix G16: 2, 458748.521075, 1175
Refix G18: 2, 458748.526077, -3872
Refix G23: 2, 458748.524043, 1905
Refix G27: 2, 458748.526593, 1846
Refix G30: 2, 458748.521582, -4250
$GNGGA,072530.600,2944.9063,N,10633.0922,E,1,16,0.7,320.3,M,,,,0000*1F
$GNRMC,072530.600,A,2944.9063,N,10633.0922,E,0.13,0.00,290319,,*13
$GPGSA,A,3,07,08,09,11,16,18,23,27,30,,,,0.9,0.7,0.5*36
$BDGSA,A,3,02,03,04,07,08,10,11,,,,,,0.9,0.7,0.5*23
$GLGSA,A,3,,,,,,,,,,,,,0.9,0.7,0.5*25
$GPGSV,3,1,11,04,00,000,40,07,56,323,45,08,73,022,46,09,38,240,44*76
$GPGSV,3,2,11,11,47,176,43,16,21,065,39,18,37,143,42,23,26,201,43*7D
$GPGSV,3,3,11,27,38,038,43,30,22,316,40,01,20,167,00*4B
$BDGSV,3,1,12,02,46,218,40,03,55,172,43,04,23,109,41,07,61,036,42*6D
$BDGSV,3,2,12,08,43,152,41,10,61,342,42,11,53,047,43,16,00,000,38*6D
$BDGSV,3,3,12,23,00,000,45,25,00,000,43,06,13,182,00,09,29,204,00*60
$B3CN0,0,0,0,0,0,0,0,0,0,0,0,0,0,0*4C
PRange Check: SYS0,   -1232.0   -1188.4     43.6 
PRange Check: SYS1,   -1397.4   -1337.5     59.9 
FIXMEAS_G07 45 0f 00 1.0 -3253.61         0.00  21123677.07 [  2073785.58  17344823.53  20121276.61] [-1948.62  1596.58 -1236.45  1729.70]
FIXMEAS_G08 46 0f 00 0.0   105.40         0.00  20348988.51 [ -7741284.53  18388327.68  17470650.33] [ -693.73 -2110.76  1938.25 -41348.94]
FIXMEAS_G09 44 0f 00 1.0   743.35         0.00  22089238.57 [  8211733.27  25108848.72   2650885.00] [ -214.16   406.37 -3134.81 131231.59]
FIXMEAS_G11 44 0f 00 1.0 -3907.80         0.00  21689353.64 [ -8452465.49  25285286.54  -1786540.23] [ -451.15     0.57  3030.25 -190831.78]
FIXMEAS_G16 39 0f 00 0.1  1180.02         0.00  23652665.43 [-21630388.38   2374471.30  15345188.93] [-1773.31  -843.42 -2298.50 -8622.74]
FIXMEAS_G18 43 0f 00 0.8 -3869.39         0.00  22172489.58 [-17030141.11  20182525.17  -2494897.92] [ -406.35   -30.72  3146.70 11755.38]
FIXMEAS_G23 43 0f 00 1.0  1911.62         0.00  22714045.80 [   344119.90  24985895.68  -8045256.76] [ -606.91  -959.32 -2930.62 -57634.07]
FIXMEAS_G27 43 0f 00 1.0  1851.21         0.00  21978179.68 [-13209638.92   7453474.15  21673031.92] [ -690.85 -2686.88   529.74 -28891.17]
FIXMEAS_G30 40 0f 00 0.8 -4245.66         0.00  23485102.53 [ 12683576.68   9570748.69  21313819.18] [-2030.91  1792.27   386.00 -23031.69]
FIXMEAS_B02 40 1f 00 1.0 -1044.46         0.00  37319411.05 [  4318229.74  41919298.42  -1099105.31] [   -1.76     2.90    42.68 -121835.38]
FIXMEAS_B03 43 1f 00 0.6 -1047.42         0.00  36716067.67 [-14698990.11  39476092.84    163042.10] [   -5.28    -1.78    40.35  8441.49]
FIXMEAS_B04 40 1f 00 0.2 -1053.12         0.00  39213087.56 [-39630183.20  14410174.12    479167.71] [    1.35     0.65    39.80 10029.79]
FIXMEAS_B07 42 1f 00 1.0 -1238.34         0.00  36445299.52 [-17322706.30  22533843.33  31145051.63] [-1140.69   295.81  -875.12 21395.54]
FIXMEAS_B08 41 1f 00 0.1 -2689.69         0.00  37655995.33 [-23548198.55  34769257.64  -5084256.51] [ 1025.58  1081.94  2590.31 41123.29]
FIXMEAS_B10 42 1f 00 0.0 -1291.77         0.00  36544744.71 [ -2383987.50  25764630.18  33423241.38] [-1174.00  -121.28    -9.67 -184611.23]
FIXMEAS_B11 43 1f 00 0.0   633.92         0.00  22594497.98 [-14328749.77  13227292.39  20039401.14] [  165.18 -2268.50  1615.26 -22316.29]
# of Valid meas: 16 [G08 G07 G09 G11 G18 G23 G27 B03 B11 B07 B10 B08 G30 B02 B04 G16  ]
LSQ PV=[16  -1578914.15,   5312774.23,   3146355.12,  -0.03,  -0.15,  -0.14, [ 0.09, -0.19],   -1205.50,  -1349.43,      0.00,-198.20,5  0.75]
KF  PV=[16  -1578913.29,   5312768.65,   3146352.74,   0.01,  -0.35,  -0.20, [ 0.09, -0.39],   -1209.53,  -1352.43,      0.60,-198.39,11  0.71]
LSQ LLH=[ 29.748431, 106.551530, 327.15, 458749.600004 458749.600000]
KF  LLH=[ 29.748437, 106.551537, 321.11, 458749.600004 458749.600000]
KF  FixSet 244285c0      6ce        0        0
LSQ Dop=[ 1.94, 1.67, 0.75, 1.50]
KF Dop=[ 0.98, 0.87, 0.71, 0.49]
KF UTC=[2019/03/29 - 07:25:31.601 ]
Refix G01: 2, 458749.521259, -4550
Refix G07: 2, 458749.529545, -3253
Refix G08: 2, 458749.531985, 105
Refix G09: 2, 458749.526756, 743
Refix G11: 2, 458749.527015, -3908
Refix G16: 2, 458749.521074, 1178
Refix G18: 2, 458749.526080, -3868
Refix G23: 2, 458749.524042, 1910
Refix G27: 2, 458749.526592, 1850
Refix G30: 2, 458749.521585, -4245
$GNGGA,072531.600,2944.9062,N,10633.0922,E,1,16,0.7,321.1,M,,,,0000*1C
$GNRMC,072531.600,A,2944.9062,N,10633.0922,E,0.17,0.00,290319,,*17
$GPGSA,A,3,07,08,09,11,16,18,23,27,30,,,,0.9,0.7,0.5*36
$BDGSA,A,3,02,03,04,07,08,10,11,,,,,,0.9,0.7,0.5*23
$GLGSA,A,3,,,,,,,,,,,,,0.9,0.7,0.5*25
$GPGSV,3,1,11,04,00,000,40,07,56,323,45,08,73,022,46,09,38,240,44*76
$GPGSV,3,2,11,11,47,176,44,16,21,065,39,18,37,143,43,23,26,201,43*7B
$GPGSV,3,3,11,27,38,038,43,30,22,316,40,01,20,167,00*4B
$BDGSV,3,1,12,02,46,218,40,03,55,172,43,04,23,109,40,07,61,036,42*6C
$BDGSV,3,2,12,08,43,152,41,10,61,342,42,11,53,047,43,16,00,000,38*6D
$BDGSV,3,3,12,23,00,000,45,25,00,000,44,06,13,182,00,09,29,204,00*67
$B3CN0,0,0,0,0,0,0,0,0,0,0,0,0,0,0*4C
PRange Check: SYS0,   -1430.8   -1387.6     43.1 
PRange Check: SYS1,   -1595.2   -1536.0     59.2 
FIXMEAS_G07 45 0f 00 0.0 -3254.39         0.00  21123057.19 [  2071837.05  17346420.12  20120039.94] [-1948.42  1596.59 -1236.87  1729.70]
FIXMEAS_G08 46 0f 00 0.0   104.86         0.00  20349007.65 [ -7741978.35  18386216.83  17472588.39] [ -693.91 -2110.95  1937.88 -41348.94]
FIXMEAS_G09 44 0f 00 0.0   740.96         0.00  22089379.55 [  8211519.07  25109254.90   2647750.16] [ -214.23   406.00 -3134.87 131231.59]
FIXMEAS_G11 43 0f 00 1.0 -3909.68         0.00  21688609.69 [ -8452916.57  25285286.95  -1783509.96] [ -451.02     0.25  3030.29 -190831.77]
FIXMEAS_G16 40 0f 00 0.9  1177.53         0.00  23652888.97 [-21632161.57   2373627.99  15342890.27] [-1773.09  -843.20 -2298.82 -8622.74]
FIXMEAS_G18 43 0f 00 1.0 -3868.89         0.00  22171753.63 [-17030547.33  20182494.31  -2491751.19] [ -406.08   -30.98  3146.75 11755.39]
FIXMEAS_G23 43 0f 00 0.0  1908.56         0.00  22714408.63 [   343512.93  24984936.20  -8048187.28] [ -607.05  -959.65 -2930.44 -57634.07]
FIXMEAS_G27 43 0f 00 1.0  1850.85         0.00  21978530.59 [-13210329.86   7450787.26  21673561.44] [ -691.03 -2686.90   529.28 -28891.17]
FIXMEAS_G30 40 0f 00 0.1 -4247.17         0.00  23484293.28 [ 12681545.80   9572541.04  21314204.96] [-2030.85  1792.42   385.55 -23031.69]
FIXMEAS_B02 40 1f 00 0.6 -1044.10         0.00  37319209.75 [  4318227.98  41919301.33  -1099062.63] [   -1.76     2.90    42.69 -121835.39]
FIXMEAS_B03 43 1f 00 0.6 -1049.70         0.00  36715865.20 [-14698995.38  39476091.06    163082.45] [   -5.28    -1.78    40.35  8441.51]
FIXMEAS_B04 41 1f 00 0.7 -1055.06         0.00  39212885.56 [-39630181.85  14410174.77    479207.51] [    1.35     0.65    39.80 10029.80]
FIXMEAS_B07 42 1f 00 1.0 -1240.95         0.00  36445060.89 [-17323846.97  22534139.23  31144176.43] [-1140.65   295.98  -875.28 21395.53]
FIXMEAS_B08 40 1f 00 0.0 -2690.47         0.00  37655478.49 [-23547172.89  34770339.51  -5081666.18] [ 1025.74  1081.80  2590.34 41123.29]
FIXMEAS_B10 43 1f 00 0.0 -1293.42         0.00  36544495.99 [ -2385161.52  25764508.99  33423231.62] [-1174.02  -121.11    -9.85 -184611.24]
FIXMEAS_B11 44 1f 00 0.0   634.09         0.00  22594618.87 [-14328584.66  13225023.80  20041016.22] [  165.04 -2268.69  1614.90 -22316.30]
# of Valid meas: 16 [G08 G07 G09 B11 G11 G18 G23 G27 B03 B10 B07 B04 G16 G30 B02 B08  ]
LSQ PV=[16  -1578913.78,   5312773.95,   3146355.41,   0.10,  -0.35,  -0.30, [ 0.08, -0.46],   -1404.48,  -1548.50,      0.00,-198.68,5  0.75]
KF  PV=[16  -1578913.55,   5312769.79,   3146353.71,   0.05,  -0.20,  -0.24, [ 0.11, -0.30],   -1407.42,  -1550.50,      0.66,-198.52,11  0.71]
LSQ LLH=[ 29.748435, 106.551527, 326.97, 458750.600004 458750.600000]
KF  LLH=[ 29.748440, 106.551537, 322.61, 458750.600004 458750.600000]
KF  FixSet 244285c0      6ce        0        0
LSQ Dop=[ 1.94, 1.67, 0.75, 1.50]
KF Dop=[ 0.98, 0.87, 0.71, 0.49]
KF UTC=[2019/03/29 - 07:25:32.601 ]
Refix G01: 2, 458750.521262, -4551
Refix G07: 2, 458750.529547, -3254
Refix G08: 2, 458750.531985, 105
Refix G09: 2, 458750.526755, 742
Refix G11: 2, 458750.527018, -3909
Refix G16: 2, 458750.521073, 1178
Refix G18: 2, 458750.526082, -3869
Refix G23: 2, 458750.524040, 1908
Refix G27: 2, 458750.526591, 1850
Refix G30: 2, 458750.521588, -4246
$GNGGA,072532.600,2944.9064,N,10633.0922,E,1,16,0.7,322.6,M,,,,0000*1D
$GNRMC,072532.600,A,2944.9064,N,10633.0922,E,0.21,0.00,290319,,*17
$GPGSA,A,3,07,08,09,11,16,18,23,27,30,,,,0.9,0.7,0.5*36
$BDGSA,A,3,02,03,04,07,08,10,11,,,,,,0.9,0.7,0.5*23
$GLGSA,A,3,,,,,,,,,,,,,0.9,0.7,0.5*25
$GPGSV,3,1,11,04,00,000,40,07,56,323,45,08,73,022,46,09,38,240,44*76
$GPGSV,3,2,11,11,47,176,43,16,21,065,40,18,37,143,42,23,26,201,43*73
$GPGSV,3,3,11,27,38,038,43,30,22,316,40,01,20,167,00*4B
$BDGSV,3,1,12,02,46,218,39,03,55,172,43,04,23,109,40,05,00,000,18*6D
$BDGSV,3,2,12,07,61,036,42,08,43,152,40,10,61,342,43,11,53,047,44*65
$BDGSV,3,3,12,16,00,000,39,23,00,000,44,25,00,000,43,06,13,182,00*68
$B3CN0,0,0,0,0,0,0,0,0,0,0,0,0,0,0*4C
PRange Check: SYS0,   -1628.7   -1585.4     43.4 
PRange Check: SYS1,   -1793.0   -1733.2     59.8 
FIXMEAS_G07 45 0f 00 1.0 -3249.37         0.00  21122437.74 [  2069888.73  17348016.72  20118802.85] [-1948.22  1596.60 -1237.30  1729.70]
FIXMEAS_G08 46 0f 00 0.0   110.23         0.00  20349027.42 [ -7742672.35  18384105.77  17474526.08] [ -694.10 -2111.15  1937.50 -41348.94]
FIXMEAS_G09 43 0f 00 0.0   747.17         0.00  22089520.60 [  8211304.80  25109660.71   2644615.27] [ -214.30   405.63 -3134.92 131231.58]
FIXMEAS_G11 43 0f 00 1.0 -3904.11         0.00  21687865.44 [ -8453367.53  25285287.03  -1780479.64] [ -450.88    -0.08  3030.33 -190831.77]
FIXMEAS_G16 40 0f 00 0.1  1184.02         0.00  23653113.05 [-21633934.55   2372784.91  15340591.29] [-1772.87  -842.97 -2299.15 -8622.74]
FIXMEAS_G18 42 0f 00 1.0 -3864.08         0.00  22171017.79 [-17030953.27  20182463.20  -2488604.40] [ -405.81   -31.25  3146.80 11755.39]
FIXMEAS_G23 44 0f 00 0.9  1915.04         0.00  22714771.92 [   342905.80  24983976.38  -8051117.63] [ -607.20  -959.98 -2930.26 -57634.07]
FIXMEAS_G27 43 0f 00 0.1  1855.68         0.00  21978882.50 [-13211020.97   7448100.36  21674090.48] [ -691.20 -2686.92   528.81 -28891.18]
FIXMEAS_G30 40 0f 00 0.1 -4242.34         0.00  23483484.96 [ 12679514.97   9574333.53  21314590.28] [-2030.79  1792.56   385.09 -23031.69]
FIXMEAS_B02 38 1f 00 0.3 -1039.89         0.00  37319009.31 [  4318226.23  41919304.23  -1099019.94] [   -1.76     2.90    42.69 -121835.39]
FIXMEAS_B03 43 1f 00 0.9 -1041.80         0.00  36715663.29 [-14699000.66  39476089.28    163122.81] [   -5.28    -1.78    40.35  8441.53]
FIXMEAS_B04 40 1f 00 0.4 -1047.42         0.00  39212683.46 [-39630180.50  14410175.42    479247.31] [    1.35     0.65    39.80 10029.80]
FIXMEAS_B07 42 1f 00 1.0 -1234.91         0.00  36444822.23 [-17324987.60  22534435.29  31143301.07] [-1140.61   296.15  -875.45 21395.53]
FIXMEAS_B08 40 1f 00 0.1 -2683.17         0.00  37654962.05 [-23546147.07  34771421.24  -5079075.82] [ 1025.89  1081.65  2590.37 41123.29]
FIXMEAS_B10 43 1f 00 0.1 -1289.81         0.00  36544247.24 [ -2386335.55  25764387.96  33423221.69] [-1174.04  -120.94   -10.02 -184611.25]
FIXMEAS_B11 44 1f 00 1.0   638.51         0.00  22594739.93 [-14328419.70  13222755.01  20042630.93] [  164.89 -2268.89  1614.53 -22316.30]
# of Valid meas: 16 [G08 G07 G23 B11 G09 G11 G27 B03 B10 G18 B07 G16 G30 B04 B08 B02  ]
LSQ PV=[16  -1578913.80,   5312774.21,   3146355.77,   0.15,  -0.06,   0.06, [ 0.16, -0.06],   -1602.71,  -1746.81,      0.00,-197.43,5  0.75]
KF  PV=[16  -1578913.63,   5312770.67,   3146354.18,   0.27,  -0.45,  -0.15, [ 0.18, -0.52],   -1605.08,  -1748.46,      1.13,-197.74,11  0.71]
LSQ LLH=[ 29.748437, 106.551526, 327.38, 458751.600005 458751.600000]
KF  LLH=[ 29.748440, 106.551535, 323.60, 458751.600005 458751.600000]
KF  FixSet 244285c0      6ce        0        0
LSQ Dop=[ 1.94, 1.67, 0.75, 1.50]
KF Dop=[ 0.98, 0.87, 0.71, 0.49]
KF UTC=[2019/03/29 - 07:25:33.601 ]
Refix G01: 2, 458751.521264, -4545
Refix G07: 2, 458751.529549, -3249
Refix G08: 2, 458751.531985, 110
Refix G09: 2, 458751.526755, 747
Refix G11: 2, 458751.527020, -3903
Refix G16: 2, 458751.521073, 1183
Refix G18: 2, 458751.526084, -3863
Refix G23: 2, 458751.524039, 1914
Refix G27: 2, 458751.526590, 1855
Refix G30: 2, 458751.521590, -4243
$GNGGA,072533.600,2944.9064,N,10633.0921,E,1,16,0.7,323.6,M,,,,0000*1E
$GNRMC,072533.600,A,2944.9064,N,10633.0921,E,0.35,0.00,290319,,*10
$GPGSA,A,3,07,08,09,11,16,18,23,27,30,,,,0.9,0.7,0.5*36
$BDGSA,A,3,02,03,04,07,08,10,11,,,,,,0.9,0.7,0.5*23
$GLGSA,A,3,,,,,,,,,,,,,0.9,0.7,0.5*25
$GPGSV,3,1,11,04,00,000,40,07,56,323,45,08,73,022,46,09,38,240,43*71
$GPGSV,3,2,11,11,47,176,43,16,21,065,40,18,37,143,42,23,26,201,44*74
$GPGSV,3,3,11,27,38,038,43,30,22,316,40,01,20,167,00*4B
$BDGSV,3,1,12,02,46,218,38,03,55,172,42,04,23,109,40,05,00,000,21*67
$BDGSV,3,2,12,07,61,036,42,08,43,152,40,09,29,204,40,10,61,342,43*60
$BDGSV,3,3,12,11,53,047,44,13,27,177,32,16,00,000,39,18,00,000,19*65
$B3CN0,0,0,0,0,0,0,0,0,0,0,0,0,0,0*4C
PRange Check: SYS0,   -1826.1   -1781.2     44.9 
PRange Check: SYS1,   -1989.9   -1930.1     59.8 
FIXMEAS_G07 44 0f 00 1.0 -3248.37         0.00  21121818.72 [  2067940.60  17349613.33  20117565.34] [-1948.02  1596.61 -1237.72  1729.70]
FIXMEAS_G08 46 0f 00 1.0   111.50         0.00  20349048.12 [ -7743366.54  18381994.53  17476463.40] [ -694.28 -2111.34  1937.13 -41348.94]
FIXMEAS_G09 44 0f 00 0.9   749.20         0.00  22089662.47 [  8211090.46  25110066.15   2641480.32] [ -214.38   405.26 -3134.98 131231.58]
FIXMEAS_G11 43 0f 00 0.0 -3902.68         0.00  21687122.85 [ -8453818.35  25285286.78  -1777449.29] [ -450.75    -0.41  3030.36 -190831.77]
FIXMEAS_G16 40 0f 00 0.0  1182.95         0.00  23653338.05 [-21635707.31   2371942.04  15338291.98] [-1772.65  -842.75 -2299.47 -8622.74]
FIXMEAS_G18 42 0f 00 0.9 -3864.14         0.00  22170281.92 [-17031358.95  20182431.82  -2485457.57] [ -405.54   -31.51  3146.86 11755.39]
FIXMEAS_G23 43 0f 00 0.0  1915.03         0.00  22715135.90 [   342298.53  24983016.24  -8054047.80] [ -607.34  -960.31 -2930.08 -57634.07]
FIXMEAS_G27 43 0f 00 0.9  1855.14         0.00  21979234.86 [-13211712.26   7445413.44  21674619.06] [ -691.38 -2686.94   528.34 -28891.18]
FIXMEAS_G30 40 0f 00 1.0 -4242.59         0.00  23482678.90 [ 12677484.21   9576126.17  21314975.15] [-2030.73  1792.70   384.64 -23031.70]
FIXMEAS_B02 38 1f 00 0.8 -1038.03         0.00  37318809.25 [  4318224.47  41919307.13  -1098977.24] [   -1.76     2.90    42.70 -121835.40]
FIXMEAS_B03 43 1f 00 0.4 -1042.45         0.00  36715462.25 [-14699005.93  39476087.51    163163.16] [   -5.28    -1.78    40.35  8441.55]
FIXMEAS_B04 40 1f 00 0.9 -1048.03         0.00  39212482.38 [-39630179.15  14410176.07    479287.11] [    1.35     0.65    39.80 10029.81]
FIXMEAS_B07 43 1f 00 0.0 -1234.48         0.00  36444584.64 [-17326128.18  22534731.52  31142425.54] [-1140.56   296.31  -875.61 21395.52]
FIXMEAS_B08 40 1f 00 1.0 -2683.95         0.00  37654446.44 [-23545121.10  34772502.81  -5076485.44] [ 1026.05  1081.50  2590.39 41123.29]
FIXMEAS_B10 43 1f 00 1.0 -1287.76         0.00  36543999.53 [ -2387509.60  25764267.11  33423211.58] [-1174.06  -120.76   -10.20 -184611.26]
FIXMEAS_B11 44 1f 00 0.0   639.20         0.00  22594862.01 [-14328254.88  13220486.03  20044245.28] [  164.74 -2269.08  1614.17 -22316.31]
# of Valid meas: 16 [G08 G07 G09 B11 G11 G23 G27 B03 B07 B10 G18 G16 G30 B04 B08 B02  ]
LSQ PV=[16  -1578914.48,   5312775.40,   3146356.34,   0.04,  -0.48,  -0.16, [ 0.14, -0.48],   -1799.44,  -1943.36,      0.00,-197.67,5  0.75]
KF  PV=[16  -1578913.74,   5312771.16,   3146354.51,   0.12,  -0.58,  -0.20, [ 0.13, -0.61],   -1802.27,  -1945.81,      1.33,-197.69,11  0.71]
LSQ LLH=[ 29.748435, 106.551529, 328.82, 458752.600006 458752.600000]
KF  LLH=[ 29.748440, 106.551535, 324.19, 458752.600006 458752.600000]
KF  FixSet 244285c0      6ce        0        0
LSQ Dop=[ 1.94, 1.67, 0.75, 1.50]
KF Dop=[ 0.98, 0.87, 0.71, 0.49]
KF UTC=[2019/03/29 - 07:25:34.601 ]
Refix G01: 2, 458752.521267, -4545
Refix G07: 2, 458752.529551, -3248
Refix G08: 2, 458752.531985, 111
Refix G09: 2, 458752.526754, 749
Refix G11: 2, 458752.527023, -3902
Refix G16: 2, 458752.521072, 1182
Refix G18: 2, 458752.526087, -3862
Refix G23: 2, 458752.524038, 1915
Refix G27: 2, 458752.526588, 1855
Refix G30: 2, 458752.521593, -4242
$GNGGA,072534.600,2944.9064,N,10633.0921,E,1,16,0.7,324.2,M,,,,0000*1A
$GNRMC,072534.600,A,2944.9064,N,10633.0921,E,0.26,0.00,290319,,*15
$GPGSA,A,3,07,08,09,11,16,18,23,27,30,,,,0.9,0.7,0.5*36
$BDGSA,A,3,02,03,04,07,08,10,11,,,,,,0.9,0.7,0.5*23
$GLGSA,A,3,,,,,,,,,,,,,0.9,0.7,0.5*25
$GPGSV,3,1,11,04,00,000,40,07,56,323,44,08,73,022,45,09,38,240,44*74
$GPGSV,3,2,11,11,47,176,43,16,21,065,40,18,37,143,42,23,26,201,43*73
$GPGSV,3,3,11,27,38,038,43,30,22,316,40,01,20,167,00*4B
$BDGSV,3,1,12,02,46,218,40,03,55,172,43,04,23,109,41,07,61,036,43*6C
$BDGSV,3,2,12,08,43,152,40,09,29,204,40,10,61,342,43,11,53,047,44*66
$BDGSV,3,3,12,13,27,177,40,16,00,000,38,18,00,000,44,23,00,000,45*6C
$B3CN0,0,0,0,0,0,0,0,0,0,0,22,0,0,0*7C
PRange Check: SYS0,   -2024.7   -1978.6     46.1 
PRange Check: SYS1,   -2187.9   -2127.8     60.1 
FIXMEAS_G07 44 0f 00 1.0 -3257.31         0.00  21121199.62 [  2065992.68  17351209.96  20116327.40] [-1947.82  1596.62 -1238.15  1729.69]
FIXMEAS_G08 45 0f 00 0.0   103.58         0.00  20349068.30 [ -7744060.91  18379883.09  17478400.34] [ -694.46 -2111.53  1936.76 -41348.94]
FIXMEAS_G09 43 0f 00 0.0   740.68         0.00  22089803.73 [  8210876.05  25110471.22   2638345.31] [ -214.45   404.89 -3135.03 131231.58]
FIXMEAS_G11 43 0f 00 1.0 -3910.69         0.00  21686379.68 [ -8454269.04  25285286.21  -1774418.90] [ -450.62    -0.74  3030.40 -190831.77]
FIXMEAS_G16 39 0f 00 1.0  1173.93         0.00  23653561.95 [-21637479.85   2371099.40  15335992.35] [-1772.43  -842.53 -2299.79 -8622.74]
FIXMEAS_G18 43 0f 00 0.1 -3871.05         0.00  22169546.62 [-17031764.36  20182400.17  -2482310.68] [ -405.27   -31.78  3146.91 11755.39]
FIXMEAS_G23 43 0f 00 0.0  1906.75         0.00  22715499.58 [   341691.11  24982055.76  -8056977.80] [ -607.49  -960.64 -2929.91 -57634.07]
FIXMEAS_G27 42 0f 00 1.0  1847.42         0.00  21979587.49 [-13212403.73   7442726.49  21675147.17] [ -691.56 -2686.96   527.88 -28891.18]
FIXMEAS_G30 40 0f 00 0.2 -4250.36         0.00  23481871.55 [ 12675453.51   9577918.95  21315359.57] [-2030.67  1792.85   384.19 -23031.70]
FIXMEAS_B02 39 1f 00 0.8 -1050.90         0.00  37318608.92 [  4318222.71  41919310.04  -1098934.54] [   -1.76     2.90    42.71 -121835.41]
FIXMEAS_B03 43 1f 00 0.1 -1050.65         0.00  36715260.96 [-14699011.21  39476085.73    163203.51] [   -5.28    -1.78    40.35  8441.57]
FIXMEAS_B04 39 1f 00 0.8 -1054.93         0.00  39212280.40 [-39630177.80  14410176.72    479326.90] [    1.35     0.65    39.79 10029.81]
FIXMEAS_B07 42 1f 00 1.0 -1244.05         0.00  36444346.56 [-17327268.72  22535027.92  31141549.84] [-1140.52   296.48  -875.78 21395.51]
FIXMEAS_B08 41 1f 00 1.0 -2693.83         0.00  37653930.42 [-23544094.97  34773584.24  -5073895.03] [ 1026.21  1081.35  2590.42 41123.29]
FIXMEAS_B10 43 1f 00 0.0 -1296.23         0.00  36543751.37 [ -2388683.66  25764146.44  33423201.29] [-1174.07  -120.59   -10.38 -184611.27]
FIXMEAS_B11 43 1f 00 1.0   631.40         0.00  22594983.95 [-14328090.21  13218216.85  20045859.26] [  164.60 -2269.27  1613.80 -22316.31]
# of Valid meas: 16 [G08 G07 G09 G11 G18 G23 B03 B10 B11 G27 B07 B08 G30 G16 B02 B04  ]
LSQ PV=[16  -1578914.53,   5312775.42,   3146356.48,   0.21,  -0.28,  -0.13, [ 0.13, -0.35],   -1997.46,  -2141.42,      0.00,-199.19,5  0.75]
KF  PV=[16  -1578913.69,   5312770.93,   3146354.49,  -0.02,   0.11,   0.06, [ 0.01,  0.13],   -2000.21,  -2143.82,      1.00,-198.78,11  0.71]
LSQ LLH=[ 29.748436, 106.551530, 328.91, 458753.600006 458753.600000]
KF  LLH=[ 29.748441, 106.551535, 323.98, 458753.600006 458753.600000]
KF  FixSet 244285c0      6ce        0        0
LSQ Dop=[ 1.94, 1.67, 0.75, 1.50]
KF Dop=[ 0.98, 0.87, 0.71, 0.49]
KF UTC=[2019/03/29 - 07:25:35.601 ]
Refix G01: 2, 458753.521270, -4553
Refix G07: 2, 458753.529553, -3256
Refix G08: 2, 458753.531985, 103
Refix G09: 2, 458753.526754, 741
Refix G11: 2, 458753.527025, -3911
Refix G16: 2, 458753.521071, 1176
Refix G18: 2, 458753.526089, -3870
Refix G23: 2, 458753.524037, 1907
Refix G27: 2, 458753.526587, 1848
Refix G30: 2, 458753.521596, -4249
$GNGGA,072535.600,2944.9065,N,10633.0921,E,1,16,0.7,324.0,M,,,,0000*18
$GNRMC,072535.600,A,2944.9065,N,10633.0921,E,0.02,0.00,290319,,*13
$GPGSA,A,3,07,08,09,11,16,18,23,27,30,,,,0.9,0.7,0.5*36
$BDGSA,A,3,02,03,04,07,08,10,11,,,,,,0.9,0.7,0.5*23
$GLGSA,A,3,,,,,,,,,,,,,0.9,0.7,0.5*25
$GPGSV,3,1,11,04,00,000,39,07,56,323,44,08,73,022,45,09,38,240,43*7D
$GPGSV,3,2,11,11,47,176,43,16,21,065,40,18,37,143,43,23,26,201,43*72
$GPGSV,3,3,11,27,38,038,42,30,22,316,40,01,20,167,00*4A
$BDGSV,3,1,12,02,46,218,39,03,55,172,43,04,23,109,39,07,61,036,43*6D
$BDGSV,3,2,12,08,43,152,41,09,29,204,40,10,61,342,43,11,53,047,44*67
$BDGSV,3,3,12,13,27,177,39,16,00,000,38,18,00,000,43,23,00,000,45*65
$B3CN0,0,0,0,0,0,0,0,0,0,0,28,0,0,0*76
PRange Check: SYS0,   -2226.5   -2177.9     48.6 
PRange Check: SYS1,   -2387.3   -2327.7     59.6 
FIXMEAS_G07 44 0f 00 0.0 -3260.23         0.00  21120578.71 [  2064044.95  17352806.59  20115089.04] [-1947.62  1596.63 -1238.57  1729.69]
FIXMEAS_G08 45 0f 00 1.0    99.87         0.00  20349087.05 [ -7744755.47  18377771.46  17480336.91] [ -694.65 -2111.73  1936.38 -41348.94]
FIXMEAS_G09 43 0f 00 1.0   736.59         0.00  22089943.83 [  8210661.56  25110875.92   2635210.25] [ -214.52   404.52 -3135.09 131231.58]
FIXMEAS_G11 43 0f 00 0.9 -3915.43         0.00  21685634.75 [ -8454719.59  25285285.30  -1771388.48] [ -450.49    -1.07  3030.43 -190831.76]
FIXMEAS_G16 40 0f 00 0.2  1168.64         0.00  23653782.75 [-21639252.18   2370256.98  15333692.40] [-1772.21  -842.31 -2300.12 -8622.74]
FIXMEAS_G18 43 0f 00 0.9 -3874.54         0.00  22168809.47 [-17032169.50  20182368.26  -2479163.73] [ -405.01   -32.04  3146.96 11755.39]
FIXMEAS_G23 43 0f 00 1.0  1902.50         0.00  22715860.75 [   341083.55  24981094.96  -8059907.61] [ -607.64  -960.97 -2929.73 -57634.07]
FIXMEAS_G27 42 0f 00 0.9  1844.74         0.00  21979938.32 [-13213095.38   7440039.53  21675674.81] [ -691.74 -2686.97   527.41 -28891.19]
FIXMEAS_G30 40 0f 00 0.9 -4254.85         0.00  23481062.54 [ 12673422.87   9579711.87  21315743.53] [-2030.61  1792.99   383.74 -23031.70]
FIXMEAS_B02 40 1f 00 0.5 -1052.19         0.00  37318406.86 [  4318220.96  41919312.94  -1098891.83] [   -1.76     2.90    42.71 -121835.42]
FIXMEAS_B03 43 1f 00 0.8 -1054.87         0.00  36715058.04 [-14699016.48  39476083.95    163243.86] [   -5.28    -1.78    40.35  8441.59]
FIXMEAS_B04 40 1f 00 0.2 -1061.20         0.00  39212077.18 [-39630176.45  14410177.38    479366.69] [    1.35     0.65    39.79 10029.82]
FIXMEAS_B07 42 1f 00 0.0 -1247.51         0.00  36444107.03 [-17328409.22  22535324.48  31140673.98] [-1140.47   296.64  -875.94 21395.51]
FIXMEAS_B08 41 1f 00 0.0 -2698.06         0.00  37653412.57 [-23543068.68  34774665.52  -5071304.59] [ 1026.36  1081.20  2590.45 41123.30]
FIXMEAS_B10 43 1f 00 0.0 -1300.76         0.00  36543501.48 [ -2389857.74  25764025.93  33423190.82] [-1174.09  -120.42   -10.55 -184611.28]
FIXMEAS_B11 44 1f 00 0.0   628.71         0.00  22595104.43 [-14327925.68  13215947.48  20047472.88] [  164.45 -2269.47  1613.43 -22316.32]
# of Valid meas: 16 [G08 G07 B11 G09 G11 G18 G23 B03 B10 G27 B07 B08 G16 G30 B02 B04  ]
LSQ PV=[16  -1578914.65,   5312774.85,   3146356.26,   0.19,  -0.64,  -0.37, [ 0.01, -0.76],   -2197.84,  -2341.50,      0.00,-200.25,5  0.75]
KF  PV=[16  -1578913.67,   5312770.89,   3146354.49,  -0.06,   0.11,  -0.02, [ 0.08,  0.09],   -2199.72,  -2343.37,      0.44,-199.59,11  0.71]
LSQ LLH=[ 29.748437, 106.551533, 328.36, 458754.600007 458754.600000]
KF  LLH=[ 29.748441, 106.551535, 323.94, 458754.600007 458754.600000]
KF  FixSet 244285c0      6ce        0        0
LSQ Dop=[ 1.94, 1.67, 0.75, 1.50]
KF Dop=[ 0.98, 0.87, 0.71, 0.49]
KF UTC=[2019/03/29 - 07:25:36.601 ]
Refix G01: 2, 458754.521273, -4557
Refix G07: 2, 458754.529555, -3260
Refix G08: 2, 458754.531984, 99
Refix G09: 2, 458754.526753, 737
Refix G11: 2, 458754.527028, -3915
Refix G16: 2, 458754.521070, 1171
Refix G18: 2, 458754.526092, -3875
Refix G23: 2, 458754.524035, 1903
Refix G27: 2, 458754.526586, 1844
Refix G30: 2, 458754.521598, -4252
$GNGGA,072536.600,2944.9065,N,10633.0921,E,1,16,0.7,323.9,M,,,,0000*15
$GNRMC,072536.600,A,2944.9065,N,10633.0921,E,0.16,0.00,290319,,*15
$GPGSA,A,3,07,08,09,11,16,18,23,27,30,,,,0.9,0.7,0.5*36
$BDGSA,A,3,02,03,04,07,08,10,11,,,,,,0.9,0.7,0.5*23
$GLGSA,A,3,,,,,,,,,,,,,0.9,0.7,0.5*25
$GPGSV,3,1,11,04,00,000,39,07,56,323,44,08,73,022,45,09,38,240,43*7D
$GPGSV,3,2,11,11,47,176,43,16,21,065,40,18,37,143,43,23,26,201,43*72
$GPGSV,3,3,11,27,38,038,42,30,22,316,40,01,20,167,00*4A
$BDGSV,3,1,12,02,46,218,39,03,55,172,43,04,23,109,40,05,00,000,18*6D
$BDGSV,3,2,12,07,61,036,42,08,43,152,41,09,29,204,40,10,61,342,43*61
$BDGSV,3,3,12,11,53,047,44,13,27,177,40,16,00,000,39,18,00,000,43*6F
$B3CN0,0,0,0,0,0,0,0,0,0,0,28,0,0,0*76
PRange Check: SYS0,   -2427.7   -2376.7     51.0 
PRange Check: SYS1,   -2586.6   -2526.4     60.2 
FIXMEAS_G07 45 0f 00 1.0 -3252.22         0.00  21119958.75 [  2062097.43  17354403.23  20113850.26] [-1947.42  1596.64 -1238.99  1729.69]
FIXMEAS_G08 45 0f 00 0.0   108.80         0.00  20349106.89 [ -7745450.21  18375659.64  17482273.11] [ -694.83 -2111.92  1936.01 -41348.94]
FIXMEAS_G09 44 0f 00 1.0   745.81         0.00  22090084.69 [  8210447.00  25111280.26   2632075.13] [ -214.60   404.15 -3135.15 131231.58]
FIXMEAS_G11 43 0f 00 0.1 -3906.94         0.00  21684890.47 [ -8455170.02  25285284.07  -1768358.02] [ -450.36    -1.40  3030.47 -190831.76]
FIXMEAS_G16 41 0f 00 0.9  1176.92         0.00  23654004.19 [-21641024.28   2369414.78  15331392.12] [-1771.99  -842.09 -2300.44 -8622.74]
FIXMEAS_G18 43 0f 00 0.9 -3866.85         0.00  22168072.51 [-17032574.37  20182336.08  -2476016.74] [ -404.74   -32.31  3147.01 11755.39]
FIXMEAS_G23 43 0f 00 1.0  1910.74         0.00  22716222.80 [   340475.84  24980133.83  -8062837.24] [ -607.78  -961.30 -2929.55 -57634.07]
FIXMEAS_G27 43 0f 00 0.0  1851.48         0.00  21980290.74 [-13213787.20   7437352.55  21676201.99] [ -691.91 -2686.99   526.94 -28891.19]
FIXMEAS_G30 40 0f 00 0.0 -4247.80         0.00  23480254.05 [ 12671392.29   9581504.94  21316127.04] [-2030.55  1793.13   383.29 -23031.70]
FIXMEAS_B02 40 1f 00 0.0 -1044.07         0.00  37318205.93 [  4318219.20  41919315.85  -1098849.12] [   -1.76     2.90    42.72 -121835.42]
FIXMEAS_B03 43 1f 00 0.1 -1047.72         0.00  36714855.58 [-14699021.76  39476082.18    163284.21] [   -5.28    -1.78    40.35  8441.61]
FIXMEAS_B04 39 1f 00 0.7 -1053.06         0.00  39211874.08 [-39630175.10  14410178.02    479406.48] [    1.35     0.65    39.79 10029.82]
FIXMEAS_B07 43 1f 00 0.0 -1239.11         0.00  36443868.08 [-17329549.67  22535621.21  31139797.95] [-1140.43   296.81  -876.11 21395.50]
FIXMEAS_B08 40 1f 00 1.0 -2690.39         0.00  37652895.89 [-23542042.24  34775746.65  -5068714.13] [ 1026.52  1081.05  2590.47 41123.30]
FIXMEAS_B10 43 1f 00 0.9 -1293.39         0.00  36543252.38 [ -2391031.85  25763905.60  33423180.18] [-1174.11  -120.25   -10.73 -184611.29]
FIXMEAS_B11 43 1f 00 0.0   636.14         0.00  22595225.58 [-14327761.31  13213677.92  20049086.13] [  164.31 -2269.66  1613.07 -22316.32]
# of Valid meas: 16 [G07 G08 G09 G11 G18 G23 G27 B03 B07 B10 B11 G16 G30 B02 B08 B04  ]
LSQ PV=[16  -1578914.77,   5312773.87,   3146355.67,   0.20,  -0.73,  -0.34, [ 0.08, -0.82],   -2397.79,  -2541.24,      0.00,-198.80,5  0.75]
KF  PV=[16  -1578913.63,   5312770.74,   3146354.44,   0.16,  -0.71,  -0.33, [ 0.09, -0.80],   -2399.58,  -2543.20,      0.45,-198.83,11  0.71]
LSQ LLH=[ 29.748436, 106.551537, 327.29, 458755.600008 458755.600000]
KF  LLH=[ 29.748441, 106.551535, 323.79, 458755.600008 458755.600000]
KF  FixSet 244285c0      6ce        0        0
LSQ Dop=[ 1.94, 1.67, 0.75, 1.50]
KF Dop=[ 0.98, 0.87, 0.71, 0.49]
KF UTC=[2019/03/29 - 07:25:37.601 ]
Refix G01: 2, 458755.521276, -4551
Refix G07: 2, 458755.529557, -3252
Refix G08: 2, 458755.531984, 108
Refix G09: 2, 458755.526753, 745
Refix G11: 2, 458755.527030, -3906
Refix G16: 2, 458755.521070, 1177
Refix G18: 2, 458755.526094, -3867
Refix G23: 2, 458755.524034, 1910
Refix G27: 2, 458755.526585, 1851
Refix G30: 2, 458755.521601, -4247
$GNGGA,072537.600,2944.9065,N,10633.0921,E,1,16,0.7,323.8,M,,,,0000*15
$GNRMC,072537.600,A,2944.9065,N,10633.0921,E,0.17,0.00,290319,,*15
$GPGSA,A,3,07,08,09,11,16,18,23,27,30,,,,0.9,0.7,0.5*36
$BDGSA,A,3,02,03,04,07,08,10,11,,,,,,0.9,0.7,0.5*23
$GLGSA,A,3,,,,,,,,,,,,,0.9,0.7,0.5*25
$GPGSV,3,1,11,04,00,000,39,07,56,323,45,08,73,022,45,09,38,240,44*7B
$GPGSV,3,2,11,11,47,176,43,16,21,065,40,18,37,143,43,23,26,201,43*72
$GPGSV,3,3,11,27,38,038,43,30,22,316,40,01,20,167,00*4B
$BDGSV,3,1,12,02,46,218,39,03,55,172,42,04,23,109,41,07,61,036,43*63
$BDGSV,3,2,12,08,43,152,41,09,29,204,40,10,61,342,43,11,53,047,43*60
$BDGSV,3,3,12,13,27,177,39,16,00,000,39,18,00,000,43,23,00,000,46*67
$B3CN0,0,0,0,0,0,0,0,0,0,0,28,0,0,0*76
PRange Check: SYS0,   -2627.9   -2576.0     52.0 
PRange Check: SYS1,   -2786.2   -2726.1     60.1 
FIXMEAS_G07 44 0f 00 0.0 -3261.78         0.00  21119338.38 [  2060150.10  17355999.88  20112611.05] [-1947.22  1596.65 -1239.42  1729.69]
FIXMEAS_G08 46 0f 00 0.0    98.33         0.00  20349126.34 [ -7746145.13  18373547.62  17484208.93] [ -695.01 -2112.11  1935.63 -41348.94]
FIXMEAS_G09 43 0f 00 0.1   735.41         0.00  22090225.63 [  8210232.37  25111684.22   2628939.96] [ -214.67   403.78 -3135.20 131231.57]
FIXMEAS_G11 43 0f 00 1.0 -3915.78         0.00  21684146.01 [ -8455620.32  25285282.51  -1765327.52] [ -450.23    -1.72  3030.51 -190831.76]
FIXMEAS_G16 40 0f 00 1.0  1167.42         0.00  23654226.61 [-21642796.16   2368572.80  15329091.52] [-1771.77  -841.87 -2300.76 -8622.74]
FIXMEAS_G18 42 0f 00 1.0 -3875.54         0.00  22167335.63 [-17032978.98  20182303.64  -2472869.69] [ -404.47   -32.57  3147.07 11755.39]
FIXMEAS_G23 43 0f 00 0.9  1901.58         0.00  22716585.45 [   339867.99  24979172.37  -8065766.70] [ -607.93  -961.62 -2929.37 -57634.08]
FIXMEAS_G27 43 0f 00 1.0  1843.12         0.00  21980642.05 [-13214479.20   7434665.55  21676728.70] [ -692.09 -2687.01   526.48 -28891.19]
FIXMEAS_G30 40 0f 00 0.1 -4257.31         0.00  23479445.09 [ 12669361.76   9583298.15  21316510.10] [-2030.49  1793.28   382.83 -23031.70]
FIXMEAS_B02 41 1f 00 0.8 -1053.21         0.00  37318004.07 [  4318217.45  41919318.75  -1098806.40] [   -1.75     2.90    42.72 -121835.43]
FIXMEAS_B03 43 1f 00 0.3 -1057.11         0.00  36714653.13 [-14699027.03  39476080.40    163324.56] [   -5.28    -1.78    40.35  8441.63]
FIXMEAS_B04 39 1f 00 0.2 -1063.51         0.00  39211670.62 [-39630173.75  14410178.67    479446.27] [    1.35     0.65    39.79 10029.83]
FIXMEAS_B07 42 1f 00 1.0 -1250.00         0.00  36443629.11 [-17330690.08  22535918.10  31138921.75] [-1140.39   296.98  -876.28 21395.50]
FIXMEAS_B08 40 1f 00 0.9 -2698.57         0.00  37652378.19 [-23541015.64  34776827.63  -5066123.64] [ 1026.67  1080.91  2590.50 41123.30]
FIXMEAS_B10 43 1f 00 1.0 -1303.24         0.00  36543002.85 [ -2392205.96  25763785.44  33423169.36] [-1174.13  -120.07   -10.91 -184611.30]
FIXMEAS_B11 43 1f 00 0.9   626.07         0.00  22595346.25 [-14327597.07  13211408.16  20050699.01] [  164.16 -2269.86  1612.70 -22316.33]
# of Valid meas: 16 [G08 G07 G09 G11 G23 G27 B03 B10 B11 G18 B07 B02 G16 G30 B08 B04  ]
LSQ PV=[16  -1578914.87,   5312773.41,   3146355.57,   0.20,  -0.63,  -0.18, [ 0.17, -0.66],   -2597.46,  -2741.01,      0.00,-200.54,5  0.75]
KF  PV=[16  -1578913.53,   5312770.37,   3146354.37,  -0.02,  -0.08,   0.05, [ 0.09, -0.03],   -2598.87,  -2742.57,      0.09,-200.04,11  0.71]
LSQ LLH=[ 29.748437, 106.551539, 326.88, 458756.600008 458756.600000]
KF  LLH=[ 29.748443, 106.551535, 323.42, 458756.600008 458756.600000]
KF  FixSet 244285c0      6ce        0        0
LSQ Dop=[ 1.94, 1.67, 0.75, 1.50]
KF Dop=[ 0.98, 0.87, 0.71, 0.49]
KF UTC=[2019/03/29 - 07:25:38.601 ]
Refix G01: 2, 458756.521279, -4559
Refix G07: 2, 458756.529559, -3261
Refix G08: 2, 458756.531984, 98
Refix G09: 2, 458756.526752, 736
Refix G11: 2, 458756.527033, -3915
Refix G16: 2, 458756.521069, 1169
Refix G18: 2, 458756.526097, -3875
Refix G23: 2, 458756.524033, 1902
Refix G27: 2, 458756.526584, 1842
Refix G30: 2, 458756.521604, -4255
$GNGGA,072538.600,2944.9066,N,10633.0921,E,1,16,0.7,323.4,M,,,,0000*15
$GNRMC,072538.600,A,2944.9066,N,10633.0921,E,0.18,0.00,290319,,*16
$GPGSA,A,3,07,08,09,11,16,18,23,27,30,,,,0.9,0.7,0.5*36
$BDGSA,A,3,02,03,04,07,08,10,11,,,,,,0.9,0.7,0.5*23
$GLGSA,A,3,,,,,,,,,,,,,0.9,0.7,0.5*25
$GPGSV,3,1,11,04,00,000,40,07,56,323,44,08,73,022,45,09,38,240,43*73
$GPGSV,3,2,11,11,47,176,43,16,21,065,40,18,37,143,42,23,26,201,43*73
$GPGSV,3,3,11,27,38,038,43,30,22,316,40,01,20,167,00*4B
$BDGSV,3,1,12,02,46,218,41,03,55,172,42,04,23,109,40,05,00,000,17*6C
$BDGSV,3,2,12,07,61,036,42,08,43,152,40,09,29,204,40,10,61,342,42*61
$BDGSV,3,3,12,11,53,047,43,13,27,177,39,16,00,000,38,18,00,000,43*67
$B3CN0,0,0,0,0,0,0,0,0,0,0,28,0,0,0*76
PRange Check: SYS0,   -2828.6   -2777.4     51.2 
PRange Check: SYS1,   -2987.2   -2927.5     59.7 
FIXMEAS_G07 44 0f 00 0.0 -3260.59         0.00  21118717.08 [  2058202.98  17357596.55  20111371.42] [-1947.02  1596.66 -1239.84  1729.69]
FIXMEAS_G08 46 0f 00 1.0   100.34         0.00  20349144.42 [ -7746840.23  18371435.41  17486144.37] [ -695.20 -2112.31  1935.26 -41348.94]
FIXMEAS_G09 43 0f 00 1.0   737.96         0.00  22090364.73 [  8210017.66  25112087.81   2625804.73] [ -214.74   403.41 -3135.26 131231.57]
FIXMEAS_G11 43 0f 00 0.9 -3915.10         0.00  21683399.98 [ -8456070.48  25285280.62  -1762296.99] [ -450.10    -2.05  3030.54 -190831.76]
FIXMEAS_G16 39 0f 00 0.3  1170.49         0.00  23654448.65 [-21644567.82   2367731.04  15326790.60] [-1771.55  -841.65 -2301.09 -8622.74]
FIXMEAS_G18 42 0f 00 1.0 -3873.59         0.00  22166597.20 [-17033383.31  20182270.93  -2469722.59] [ -404.20   -32.84  3147.12 11755.39]
FIXMEAS_G23 43 0f 00 0.0  1902.94         0.00  22716945.78 [   339259.98  24978210.58  -8068695.98] [ -608.08  -961.95 -2929.19 -57634.08]
FIXMEAS_G27 42 0f 00 1.0  1844.86         0.00  21980992.11 [-13215171.38   7431978.53  21677254.94] [ -692.27 -2687.03   526.01 -28891.20]
FIXMEAS_G30 41 0f 00 1.0 -4254.07         0.00  23478634.05 [ 12667331.30   9585091.50  21316892.71] [-2030.42  1793.42   382.38 -23031.71]
FIXMEAS_B02 40 1f 00 1.0 -1052.93         0.00  37317800.72 [  4318215.69  41919321.65  -1098763.67] [   -1.75     2.90    42.73 -121835.44]
FIXMEAS_B03 42 1f 00 0.9 -1056.51         0.00  36714449.02 [-14699032.31  39476078.62    163364.91] [   -5.28    -1.78    40.35  8441.66]
FIXMEAS_B04 40 1f 00 0.5 -1060.90         0.00  39211465.97 [-39630172.40  14410179.32    479486.05] [    1.35     0.65    39.78 10029.83]
FIXMEAS_B07 42 1f 00 0.0 -1248.85         0.00  36443388.39 [-17331830.45  22536215.16  31138045.39] [-1140.34   297.14  -876.44 21395.49]
FIXMEAS_B08 40 1f 00 0.1 -2696.31         0.00  37651858.91 [-23539988.89  34777908.46  -5063533.12] [ 1026.83  1080.76  2590.53 41123.30]
FIXMEAS_B09 40 1f 00 0.0   735.15         0.00  38366629.20 [  2877550.06  39585578.38 -13519105.42] [  936.80  -862.58 -2309.19 192813.18]
FIXMEAS_B10 43 1f 00 0.1 -1301.94         0.00  36542751.98 [ -2393380.10  25763665.45  33423158.37] [-1174.14  -119.90   -11.08 -184611.31]
FIXMEAS_B11 43 1f 00 1.0   628.36         0.00  22595465.62 [-14327432.99  13209138.21  20052311.53] [  164.01 -2270.05  1612.34 -22316.34]
FIXMEAS_B13 39 1f 00 0.0 -2721.85         0.00  38958051.70 [-12411867.40  36072710.62 -18171070.16] [  510.57  1285.52  2185.12 -186129.04]
# of Valid meas: 18 [G08 G07 G09 G11 G23 B10 B11 G18 G27 B03 B07 G30 B02 B04 B08 B09 G16 B13  ]
