---00000015--- Acq_st=3 0  2019-4-15 2:31:25 
[00]  02(G03)  f 39  7  0   -172.7  2046000.2  0.0  2 0 1044 1680  621
[01]  13(G14)  f 43  7  0   1052.6  2045998.5 -0.0  2 0 1311 2432 1536
[02]  15(G16)  f 44  7  0  -2335.5  2046003.0 -0.0  2 0 1929 2276  906
[03]  21(G22)  f 41  7  0    650.5  2045999.1 -0.0  2 0 1222 2018 1033
[04]  22(G23)  f 41  7  0  -4295.8  2046005.5 -0.0  2 0  966 2047  931
[05]  25(G26)  f 45  7  0   -169.7  2046000.2 -0.1  2 0 2449 4810 2658
[06]  26(G27)  f 39  7  0  -4700.1  2046006.1 -0.2  2 0  874 1176  556
[08]  30(G31)  f 45  7  0    366.3  2045999.5  0.1  2 0 2692 3590 1604
[09]  31(G32)  f 41  7  0   1964.1  2045997.3 -0.0  2 0 1293 1865 1147
[16]  37(B01) 1f 40 10  0  -1124.8  4092002.8 -0.4  2 0 1834 2101  599
[17]  38(B02)  f 39 22  0  -1073.1  4092002.7  0.8  2 0 1716 1084  275
[18]  39(B03) 1f 43 29  0  -1117.4  4092002.8  0.1  2 0 1465 1830  749
[19]  40(B04) 1f 41 20  0  -1111.4  4092002.8  0.0  2 0 1650 1900 1026
[20]  41(B05) 1f 39 23  0  -1072.9  4092002.5  0.6  2 0  923  960  129
[21]  42(B06) 1f 42  8  0   -553.6  4092001.3 -0.0  2 0 1394 1558  680
[22]  43(B07)  1  7  7  0   -841.3  4092002.0  0.1  1 0 1603 3255 1897
[24]  45(B09)  1  7  7  0  -1116.5  4092002.8  1.0  1 0 1842 2852 1365
[25]  46(B10) 19  7  7  0  -1086.3  4092002.5  0.9  1 0 1060 2387 1002
[26]  52(B16)  1  7 10  0   -596.0  4092001.3  0.9  1 0 2002 2326  858
[27]  54(B18)  1  7  8  0   -954.8  4092002.5  0.4  1 0 2475 3239 1183
[28]  55(B19)  1  7 11  0   1794.5  4091995.0  0.5  1 0 2144 2350  764
[30]  58(B22)  7 44  7  0   -625.1  4092001.5  0.0  2 0 2440 3701 1972
[32]  75(N-6)  f 47  7  0  -1391.0  1022000.9 -0.0  2 0  1568 2764 1269
[33]  76(N-5)  f 29  7  0   2344.2  1021998.5 -0.1  5 0  1183 1968  933
[34]  79(N-2)  f 39  7  0  -4115.0  1022002.6 -0.1  2 0   761 1072  298
[35]  80(N-1)  f 44  7  0  -4374.7  1022002.7  0.1  2 0   844 1405  837
[36]  81(N00)  f 38  7  0  -2789.4  1022001.8 -0.2  2 0   352  525  221
[37]  83(N02)  f 45  7  0   1330.3  1021999.1  0.0  2 0  1358 1989  725
[38]  86(N05)  7 17 18  1  -4145.5  1022002.9 -0.1 10 0   157  401  315
[48]  37(B01)  7 13 10  0  -2131.6 20460036.1  0.1  2 0  418  375  114
[50]  39(B03)  1 14 19  1  -1701.2 20460017.7  0.0  1 0  437  866  424
[53]  42(B06)  1 11  7  0   -409.2 20460006.6 -0.2  1 0  242  499  673
$GNGGA,023126.091,,,,,0,00,,,M,,,,0000*27
$GNRMC,023126.091,A,,,,,,,070180,,*24
$GPGSA,A,1,,,,,,,,,,,,,,,*1E
$BDGSA,A,1,,,,,,,,,,,,,,,*0F
$GLGSA,A,1,,,,,,,,,,,,,,,*02
$GPGSV,3,1,09,03,00,000,39,14,00,000,43,16,00,000,44,22,00,000,41*7B
$GPGSV,3,2,09,23,00,000,41,26,00,000,45,27,00,000,39,31,00,000,45*7C
$GPGSV,3,3,09,32,00,000,41*44
$BDGSV,2,1,07,01,00,000,40,02,00,000,39,03,00,000,43,04,00,000,41*64
$BDGSV,2,2,07,05,00,000,40,06,00,000,42,22,00,000,44*5E
$B3CN0,0,0,0,0,0,0,0,0,0,0,0,0,0,0*4C
---00000016--- Acq_st=2 0  2019-4-15 2:31:26 
[00]  02(G03)  f 40  7  0   -171.0  2046000.2 -0.1  2 0  943 1766  703
[01]  13(G14)  f 43  7  0   1048.1  2045998.6  0.1  2 0 1422 2754 1526
[02]  15(G16)  f 44  7  0  -2343.9  2046003.0  0.0  2 0 2250 3157 1581
[03]  21(G22)  f 41  7  0    650.7  2045999.1  0.0  2 0  399 2034 1665
[04]  22(G23)  f 41  7  0  -4303.6  2046005.5  0.1  2 0 1281 1843  810
[05]  25(G26)  f 46  7  0   -173.5  2046000.2  0.0  2 0 2804 4456 1765
[06]  26(G27)  f 39  7  0  -4703.8  2046006.0  0.1  2 0 1179 1353  678
[08]  30(G31)  f 45  7  0    360.2  2045999.5 -0.0  2 0 2382 3524 1130
[09]  31(G32)  f 42  7  0   1957.7  2045997.4  0.0  2 0 1980 2461  633
[16]  37(B01) 1f 41 19  0  -1129.5  4092002.8 -0.5  2 0 1442 1667  577
[17]  38(B02) 1f 38 28  0  -1078.8  4092002.6 -0.4  2 0 1043 1105  515
[18]  39(B03) 1f 42 31  0  -1123.6  4092002.8  0.2  2 0 1333 1802  779
[19]  40(B04) 1f 41 19  0  -1116.6  4092002.9 -0.5  2 0 1414 1872 1062
[20]  41(B05) 1f 39 28  0  -1079.0  4092002.8 -0.9  2 0  685 1148  629
[21]  42(B06) 1f 42  7  0   -555.0  4092001.3 -0.1  2 0 1611 2267  987
[22]  43(B07)  7 21  7  0   -845.8  4092002.2  0.1 10 0 1838 2939 1520
[24]  45(B09)  1  7  7  0  -1120.6  4092002.6  0.7  1 0 1603 2374 1040
[25]  46(B10) 19  7  8  0  -1094.1  4092002.6  0.6  1 0 1458 3432 2086
[26]  52(B16)  1  7  7  0   -603.1  4092001.2  0.6  1 0 1700 3032 1672
[27]  54(B18)  7 32  7  0   -960.2  4092002.4  0.1  5 0 2352 2976  719
[28]  55(B19)  7 31  7  0   1788.2  4091995.2  0.2  5 0 2236 2788 1313
[29]  65(B29)  1  7  7  0  -3943.1  4092012.3  0.1  1 0  381  763  844
[30]  58(B22)  7 44  7  0   -634.4  4092001.5  0.0  2 0 1782 2940 1219
[32]  75(N-6)  f 47  7  0  -1395.1  1022000.8 -0.2  2 0  1503 2485 1205
[33]  76(N-5)  f 28  7  0   2340.1  1021998.5  0.0 10 0   919 2014 1113
[34]  79(N-2)  f 39  7  0  -4119.9  1022002.6  0.3  2 0   348  937  542
[35]  80(N-1)  f 44  7  0  -4377.9  1022002.7 -0.0  2 0  1267 2054 1194
[36]  81(N00)  f 38  7  0  -2796.7  1022001.7 -0.1  2 0   216  461  716
[37]  83(N02)  f 45  7  0   1324.7  1021999.1  0.0  2 0  1089 2295 1327
[38]  86(N05)  7 16 18  1  -4155.4  1022002.8  0.0 10 0   523  399  436
[48]  37(B01)  7 10 18  1  -2755.7 20460044.6  0.1  2 0  326  251  555
[49]  38(B02)  1 10 10  0   -956.9 20460015.3 -0.0  1 0  147  437  247
[51]  40(B04)  1 20 21  0   -864.5 20460016.4  0.0  1 0  347  716  388
[52]  41(B05)  1 24 25  0   -516.1 20460020.0  0.0  1 0  587  194  132
$GNGGA,023127.091,,,,,0,00,,,M,,,,0000*26
$GNRMC,023127.091,A,,,,,,,150419,,*23
$GPGSA,A,1,,,,,,,,,,,,,,,*1E
$BDGSA,A,1,,,,,,,,,,,,,,,*0F
$GLGSA,A,1,,,,,,,,,,,,,,,*02
$GPGSV,3,1,09,03,00,000,40,14,00,000,43,16,00,000,44,22,00,000,41*75
$GPGSV,3,2,09,23,00,000,41,26,00,000,46,27,00,000,39,31,00,000,45*7F
$GPGSV,3,3,09,32,00,000,42*47
$BDGSV,3,1,10,01,00,000,41,02,00,000,38,03,00,000,42,04,00,000,41*62
$BDGSV,3,2,10,05,00,000,39,06,00,000,42,07,00,000,21,18,00,000,32*6B
$BDGSV,3,3,10,19,00,000,31,22,00,000,44*63
$B3CN0,0,0,0,0,0,0,0,0,0,0,0,0,0,0*4C
---00000017--- Acq_st=7 0  2019-4-15 2:31:27 
[00]  02(G03)  f 40  7  0   -169.2  2046000.1 -0.2  2 0  315  973  378
[01]  13(G14)  f 43  7  0   1050.5  2045998.6 -0.0  2 0 1614 2051 1207
[02]  15(G16)  f 44  7  0  -2341.1  2046003.0  0.0  2 0 2446 3237 1680
[03]  21(G22)  f 41  7  0    650.8  2045999.1 -0.1  2 0  957 1790  920
[04]  22(G23)  f 41  7  0  -4296.1  2046005.5 -0.0  2 0  954 2034 1377
[05]  25(G26)  f 45  7  0   -172.0  2046000.2 -0.1  2 0 2759 4986 2420
[06]  26(G27)  f 39  9  0  -4700.6  2046006.0 -0.1  2 0  666 1116  555
[08]  30(G31)  f 45 10  0    361.7  2045999.5  0.0  2 0 2508 4096 1710
[09]  31(G32)  f 42 13  0   1971.8  2045997.4 -0.1  2 0 1590 2013  843
[16]  37(B01) 1f 41 18  0  -1125.4  4092002.9  0.1  2 0 1219 1401  159
[17]  38(B02) 1f 40 28  0  -1074.6  4092002.7 -0.7  2 0 1118 1282  762
[18]  39(B03) 1f 43 29  0  -1123.0  4092002.7 -0.0  2 0 1276 1755  311
[19]  40(B04) 1f 40 10  0  -1118.3  4092002.7  0.1  2 0 1367 1914 1130
[20]  41(B05) 1f 40 24  0  -1075.8  4092002.6 -0.3  2 0  855 1285  704
[21]  42(B06) 1f 43  8  0   -555.8  4092001.3  0.1  2 0 1718 1710  429
[22]  43(B07)  7 45  7  0   -841.4  4092002.1  0.0  2 0 2197 2935 1291
[24]  45(B09)  7 40  7  0  -1113.7  4092002.9  0.1  2 0 1797 2869 1712
[25]  46(B10) 1f 36  7  0  -1087.7  4092002.8  0.1  2 0 1319 2912 1350
[26]  52(B16)  7 40  7  0   -595.0  4092001.5  0.1  2 0 1625 2968 1328
[27]  54(B18)  7 45  7  0   -954.4  4092002.4  0.1  2 0 2661 3010  804
[28]  55(B19)  7 44  7  0   1793.4  4091995.2  0.1  2 0 1767 2173  887
[29]  65(B29)  7 24  7  0  -3932.5  4092010.1  0.4 10 0  878  995  680
[30]  58(B22) 1f 44  7  0   -624.4  4092001.5 -0.0  2 0 2644 3027 1253
[32]  75(N-6)  f 47  7  0  -1389.2  1022000.8 -0.0  2 0  1426 2826 1288
[33]  76(N-5)  f 32  7  0   2347.0  1021998.5 -0.0  5 0  1295 2211 1108
[34]  79(N-2)  f 39  7  0  -4114.2  1022002.6 -0.1  2 0   371  865  497
[35]  80(N-1)  f 44  7  0  -4374.1  1022002.8 -0.0  2 0  1327 2101 1047
[36]  81(N00)  f 38  7  0  -2790.1  1022001.7 -0.1  2 0   479  639  408
[37]  83(N02)  f 45  7  0   1330.0  1021999.1 -0.1  2 0  1251 2373 1219
[38]  86(N05)  7 17 20  1  -4153.3  1022002.8 -0.0 10 0   276  100  176
[48]  37(B01)  7 17 14  1  -3101.0 20460051.0  0.0  2 0   80  364  407
[49]  38(B02)  1 24 18  1  -1142.9 20460017.7 -0.1  1 0  162  318  316
[50]  39(B03)  1 20 21  1   -641.2 20460014.7  0.0  1 0  189  188  574
[51]  40(B04)  1 22 25  1   -462.4 20460020.4  0.0  1 0  316   88  776
[52]  41(B05)  1 22 24  0   -223.1 20460022.0 -0.0  1 0  712  602  763
[53]  42(B06)  1  7  7  0   -713.7 20460008.4 -0.3  1 0  754 1057  702
$GNGGA,023128.091,,,,,0,00,,,M,,,,0000*29
$GNRMC,023128.091,A,,,,,,,150419,,*2C
$GPGSA,A,1,,,,,,,,,,,,,,,*1E
$BDGSA,A,1,,,,,,,,,,,,,,,*0F
$GLGSA,A,1,,,,,,,,,,,,,,,*02
$GPGSV,3,1,09,03,00,000,40,14,00,000,43,16,00,000,44,22,00,000,41*75
$GPGSV,3,2,09,23,00,000,41,26,00,000,45,27,00,000,39,31,00,000,45*7C
$GPGSV,3,3,09,32,00,000,42*47
$BDGSV,3,1,12,01,00,000,41,02,00,000,40,03,00,000,43,04,00,000,40*6F
$BDGSV,3,2,12,05,00,000,40,06,00,000,43,07,00,000,45,09,00,000,39*6F
$BDGSV,3,3,12,10,00,000,36,16,00,000,40,18,00,000,45,19,00,000,44*6C
$B3CN0,17,0,0,0,0,0,0,0,0,0,0,0,0,0*7A
---00000018--- Acq_st=7 0  2019-4-15 2:31:28 
[00]  02(G03)  f 39  7  0   -171.6  2046000.1  0.1  2 0 1148 1403  707
[01]  13(G14)  f 43  7  0   1050.2  2045998.6 -0.0  2 0 1969 3027 1637
[02]  15(G16)  f 44  8  0  -2336.8  2046003.0  0.0  2 0 1760 3358 1423
[03]  21(G22)  f 41  7  0    646.6  2045999.1  0.0  2 0 1390 2463 1196
[04]  22(G23)  f 41  7  0  -4291.7  2046005.5 -0.0  2 0 1139 1862 1011
[05]  25(G26)  f 45 11  0   -172.5  2046000.2  0.0  2 0 2906 4436 1727
[06]  26(G27)  f 39  7  0  -4704.4  2046006.0 -0.1  2 0  873 1150  923
[08]  30(G31)  f 45 10  0    364.6  2045999.5  0.0  2 0 2460 3534 1491
[09]  31(G32)  f 41  7  0   1962.7  2045997.4  0.0  2 0 1082 1860  730
[16]  37(B01) 1f 40 10  0  -1128.0  4092002.8  0.1  2 0 1009 1549  887
[17]  38(B02) 1f 41 23  0  -1076.5  4092002.7  0.8  2 0 1094 1753  775
[18]  39(B03) 1f 43 29  0  -1120.5  4092002.8  0.5  2 0 1343 1751  549
[19]  40(B04) 1f 40 22  0  -1116.9  4092002.9  0.4  2 0 1014 1503  778
[20]  41(B05) 1f 38 24  0  -1077.2  4092002.7 -0.4  2 0 1127 1148  669
[21]  42(B06) 1f 42  7  0   -551.5  4092001.3  0.0  2 0 1438 1829 1160
[22]  43(B07)  7 44  7  0   -841.3  4092002.1 -0.0  2 0 1904 2719 1054
[24]  45(B09)  7 43  7  0  -1116.0  4092002.9  0.0  2 0 2350 2808 1129
[25]  46(B10) 1f 44  7  0  -1087.9  4092002.8 -0.1  2 0 1917 2889 1488
[26]  52(B16)  7 44 10  0   -600.5  4092001.5 -0.0  2 0 1624 2507  452
[27]  54(B18)  7 44  7  0   -955.8  4092002.4 -0.0  2 0 2145 2968 1570
[28]  55(B19)  7 43  7  0   1796.1  4091995.2 -0.0  2 0 2195 2495  670
[29]  65(B29)  7 37  7  0  -3928.5  4092010.2  0.0  2 0  425  844  451
[30]  58(B22) 1f 44  7  0   -628.9  4092001.5  0.1  2 0 2745 3400 1117
[32]  75(N-6)  f 47  7  0  -1390.0  1022000.8  0.1  2 0  1459 2644 1317
[33]  76(N-5)  f 27  7  0   2344.2  1021998.6  0.2  5 0  1455 2484 1226
[34]  79(N-2)  f 39  7  0  -4116.9  1022002.6 -0.1  2 0   564  613  136
[35]  80(N-1)  f 44  7  0  -4374.5  1022002.7 -0.0  2 0  1013 1791  902
[36]  81(N00)  f 38  7  0  -2791.9  1022001.7 -0.1  2 0   195  719  390
[37]  83(N02)  f 45  7  0   1328.2  1021999.1 -0.1  2 0   915 1920  901
[38]  86(N05)  7 16 17  1  -4143.6  1022002.7  0.1 10 0    54   88  374
[48]  37(B01)  7 10 17  0  -3190.2 20460050.4  0.2  2 0  336   20  274
[49]  38(B02)  1 10 18  0   -981.7 20460024.6 -0.1  1 0   84  124  418
[50]  39(B03)  1 10 14  1   -860.5 20460017.8 -0.0  1 0  211  760  617
[51]  40(B04)  1 23 16  1   -208.8 20460018.8  0.1  1 0  618  483  955
[52]  41(B05)  1 23 24  1    410.5 20460021.2 -0.1  1 0  572  234  188
[53]  42(B06)  1  7  7  0   -682.4 20460006.7  0.0  1 0  532  658  604
[57]  46(B10)  1  7  7  0   -708.6 20460014.6 -0.0  1 0  637  817  343
[62]  58(B22)  1  7 11  0   -774.2 20460010.4 -0.0  1 0  102  287  741
$GNGGA,023129.091,,,,,0,00,,,M,,,,0000*28
$GNRMC,023129.091,A,,,,,,,150419,,*2D
$GPGSA,A,1,,,,,,,,,,,,,,,*1E
$BDGSA,A,1,,,,,,,,,,,,,,,*0F
$GLGSA,A,1,,,,,,,,,,,,,,,*02
$GPGSV,3,1,09,03,00,000,39,14,00,000,43,16,00,000,44,22,00,000,41*7B
$GPGSV,3,2,09,23,00,000,41,26,00,000,45,27,00,000,39,31,00,000,45*7C
$GPGSV,3,3,09,32,00,000,41*44
$BDGSV,3,1,12,01,00,000,40,02,00,000,41,03,00,000,43,04,00,000,40*6F
$BDGSV,3,2,12,05,00,000,38,06,00,000,42,07,00,000,44,09,00,000,43*6D
$BDGSV,3,3,12,10,00,000,44,16,00,000,44,18,00,000,44,19,00,000,43*6B
$B3CN0,0,0,0,0,0,0,0,0,0,0,0,0,0,0*4C
---00000019--- Acq_st=7 0  2019-4-15 2:31:29 
[00]  02(G03)  f 40  7  0   -178.1  2046000.2 -0.1  2 0 1018 1394  810
[01]  13(G14)  f 42  7  0   1044.2  2045998.6 -0.1  2 0 1408 2526 1118
[02]  15(G16)  f 43  7  0  -2345.5  2046003.0  0.0  2 0 1850 3344 1748
[03]  21(G22)  f 41  7  0    644.5  2045999.1  0.2  2 0  291 2220 1076
[04]  22(G23)  f 41  7  0  -4304.8  2046005.5 -0.0  2 0  947 2214  829
[05]  25(G26)  f 46 14  0   -176.7  2046000.2  0.0  2 0 2409 4526 1878
[06]  26(G27)  f 39  7  0  -4717.4  2046006.1  0.0  2 0 1049 1606 1122
[08]  30(G31)  f 45  7  0    360.6  2045999.5 -0.0  2 0 3146 4099 1906
[09]  31(G32)  f 41  7  0   1956.2  2045997.4  0.2  2 0 1341 1142  548
[16]  37(B01) 1f 41 19  0  -1133.4  4092002.7 -0.2  2 0 1038 1497  475
[17]  38(B02) 1f 40 26  0  -1081.6  4092002.7 -0.2  2 0  905 1184  388
[18]  39(B03) 1f 43 27  0  -1128.4  4092002.9 -0.0  2 0 1492 2109  561
[19]  40(B04) 1f 40 36  0  -1124.7  4092002.9  0.1  2 0 1373 1356  706
[20]  41(B05) 1f 40 26  0  -1078.9  4092002.6  0.2  2 0  784  734   96
[21]  42(B06) 1f 42  7  0   -562.0  4092001.4  0.0  2 0 1636 2153  937
[22]  43(B07)  7 43  7  0   -846.5  4092002.1  0.0  2 0 2613 3191  995
[24]  45(B09)  7 43  7  0  -1119.2  4092002.8  0.0  2 0 1794 2949 1622
[25]  46(B10) 1f 43  7  0  -1095.4  4092002.8  0.0  2 0 1211 2618 1317
[26]  52(B16)  7 43  7  0   -602.0  4092001.5 -0.0  2 0 2213 2818 1397
[27]  54(B18)  7 44  7  0   -961.1  4092002.4 -0.0  2 0 2332 2827 1099
[28]  55(B19)  7 43  7  0   1788.1  4091995.2  0.0  2 0 1984 2424  811
[29]  65(B29)  7 37  7  0  -3940.5  4092010.2  0.1  2 0 1374 1173  210
[30]  58(B22) 1f 44  7  0   -631.4  4092001.5 -0.1  2 0 2793 3407 1744
[32]  75(N-6)  f 47  7  0  -1395.0  1022000.9 -0.1  2 0  1870 2842 1414
[33]  76(N-5)  f 32  7  0   2340.5  1021998.5 -0.3  5 0  1135 2199 1250
[34]  79(N-2)  f 39  7  0  -4120.4  1022002.6 -0.4  2 0   588  874  492
[35]  80(N-1)  f 44  7  0  -4379.4  1022002.8 -0.0  2 0  1223 1728  608
[36]  81(N00)  f 38  7  0  -2797.4  1022001.8  0.4  2 0   473  974  481
[37]  83(N02)  f 45  7  0   1322.9  1021999.1 -0.1  2 0  1389 2175  957
[38]  86(N05)  7 17 19  1  -4161.5  1022002.6  0.1 10 0    34  292   97
[49]  38(B02)  1 10 13  1  -1343.5 20460018.2 -0.1  1 0  203  231  354
[50]  39(B03)  1 20 10  1  -1407.5 20460024.9  0.1  1 0  308  174  600
[51]  40(B04)  1 24 22  1    248.3 20460019.2  0.0  1 0  191  102  263
[52]  41(B05)  1 23 23  1    275.4 20460023.4 -0.1  1 0  585  398  282
[53]  42(B06)  1  7  9  0   -694.5 20460004.8  0.1  1 0  700  543  982
[57]  46(B10)  1  7  7  0   -582.1 20460015.8 -0.2  1 0   37  378  586
[62]  58(B22)  1  8  7  0   -385.7 20460010.1  0.0  1 0  324  883  622
$GNGGA,023130.091,,,,,0,00,,,M,,,,0000*20
$GNRMC,023130.091,A,,,,,,,150419,,*25
$GPGSA,A,1,,,,,,,,,,,,,,,*1E
$BDGSA,A,1,,,,,,,,,,,,,,,*0F
$GLGSA,A,1,,,,,,,,,,,,,,,*02
$GPGSV,3,1,09,03,00,000,40,14,00,000,42,16,00,000,43,22,00,000,41*73
$GPGSV,3,2,09,23,00,000,41,26,00,000,46,27,00,000,39,31,00,000,45*7F
$GPGSV,3,3,09,32,00,000,41*44
$BDGSV,3,1,12,01,00,000,41,02,00,000,40,03,00,000,43,04,00,000,40*6F
$BDGSV,3,2,12,05,00,000,40,06,00,000,42,07,00,000,43,09,00,000,43*65
$BDGSV,3,3,12,10,00,000,43,16,00,000,43,18,00,000,44,19,00,000,43*6B
$B3CN0,0,0,0,0,0,0,0,0,0,0,0,0,0,0*4C
---00000020--- Acq_st=3 0  2019-4-15 2:31:30 
[00]  02(G03)  f 40  7  0   -163.3  2046000.1 -0.0  2 0 1032 1710 1140
[01]  13(G14)  f 43  7  0   1061.1  2045998.6 -0.0  2 0 2214 2428  926
[02]  15(G16)  f 43  8  0  -2328.7  2046003.0  0.0  2 0 1602 3092 2067
[03]  21(G22)  f 42  7  0    661.9  2045999.0 -0.1  2 0 1633 2120  591
[04]  22(G23)  f 41  7  0  -4293.1  2046005.5  0.1  2 0 1278 1803  869
[05]  25(G26)  f 46  8  0   -164.4  2046000.1  0.0  2 0 3405 4932 2329
[06]  26(G27)  f 39  7  0  -4697.7  2046006.1 -0.2  2 0 1230 1492  286
[08]  30(G31)  f 45 10  0    371.8  2045999.5 -0.0  2 0 2690 4238 1868
[09]  31(G32)  f 42 11  0   1968.0  2045997.4 -0.0  2 0 1525 1987  904
[16]  37(B01) 1f 41 10  0  -1118.9  4092002.8 -0.2  2 0 1393 1487  684
[17]  38(B02) 1f 40 22  0  -1071.0  4092002.8 -0.2  2 0 1620 1554  530
[18]  39(B03) 1f 43 29  0  -1111.0  4092002.9  0.0  2 0 1618 1935  690
[19]  40(B04) 1f 42 22  0  -1114.4  4092002.8 -0.4  2 0 1307 1776  455
[20]  41(B05) 1f 37 36  0  -1068.6  4092002.7 -0.6  2 0 1209  970  313
[21]  42(B06) 1f 42  7  0   -546.2  4092001.3 -0.1  2 0 1703 2005  606
[22]  43(B07)  7 44  7  0   -836.0  4092002.1 -0.1  2 0 1979 2677 1180
[24]  45(B09)  7 43  7  0  -1110.2  4092002.8 -0.0  2 0 2158 2824  990
[25]  46(B10) 1f 44 12  0  -1080.7  4092002.7 -0.0  2 0 2111 2616 1066
[26]  52(B16)  7 43  8  0   -591.1  4092001.4 -0.0  2 0 1404 2315 1232
[27]  54(B18)  7 44  7  0   -948.5  4092002.4  0.1  2 0 2884 3415 1519
[28]  55(B19)  7 43  7  0   1800.9  4091995.2  0.0  2 0 2064 2318  734
[29]  65(B29)  7 38  7  0  -3925.4  4092010.2 -0.7  2 0  419  749  254
[30]  58(B22) 1f 45  7  0   -619.0  4092001.5 -0.0  2 0 2890 3481 1148
[32]  75(N-6)  f 47  7  0  -1382.2  1022000.8  0.1  2 0  1682 3018 1296
[33]  76(N-5)  f 30  7  0   2352.9  1021998.6 -0.1  5 0  1435 2365 1058
[34]  79(N-2)  f 39  7  0  -4106.6  1022002.6 -0.2  2 0   172  894  639
[35]  80(N-1)  f 45  7  0  -4367.4  1022002.8 -0.0  2 0   888 1532  582
[36]  81(N00)  f 39  7  0  -2786.2  1022001.7 -0.0  2 0   683 1005  421
[37]  83(N02)  f 45  7  0   1335.3  1021999.1  0.0  2 0  1141 2185 1152
[38]  86(N05)  7 18 20  1  -4147.5  1022002.7  0.1 10 0   245  424  460
[48]  37(B01)  1 10 21  0   -642.4 20460020.8 -0.0  1 0   99   93  582
[50]  39(B03)  7 22 22  0  -1997.6 20460032.4  0.0  2 0  520  351  460
[53]  42(B06)  1  7  7  0     35.0 20460005.5 -0.1  1 0  769  970  583
[57]  46(B10)  1  7  7  0   -431.8 20460017.3 -0.0  1 0  489  441  398
[62]  58(B22)  1  7  7  0   -601.3 20460010.0 -0.0  1 0  710  454  642
$GNGGA,023131.091,,,,,0,00,,,M,,,,0000*21
$GNRMC,023131.091,A,,,,,,,150419,,*24
$GPGSA,A,1,,,,,,,,,,,,,,,*1E
$BDGSA,A,1,,,,,,,,,,,,,,,*0F
$GLGSA,A,1,,,,,,,,,,,,,,,*02
$GPGSV,3,1,09,03,00,000,40,14,00,000,43,16,00,000,43,22,00,000,42*71
$GPGSV,3,2,09,23,00,000,41,26,00,000,46,27,00,000,39,31,00,000,45*7F
$GPGSV,3,3,09,32,00,000,42*47
$BDGSV,3,1,12,01,00,000,41,02,00,000,40,03,00,000,43,04,00,000,42*6D
$BDGSV,3,2,12,05,00,000,37,06,00,000,42,07,00,000,44,09,00,000,43*62
$BDGSV,3,3,12,10,00,000,44,16,00,000,43,18,00,000,44,19,00,000,43*6C
$B3CN0,0,0,22,0,0,0,0,0,0,0,0,0,0,0*7C
---00000021--- Acq_st=3 0  2019-4-15 2:31:31 
[00]  02(G03)  f 41  7  0   -173.0  2046000.2 -0.0  2 0 1334 1789  870
[01]  13(G14)  f 42  7  0   1048.5  2045998.6 -0.0  2 0 1641 2996 1134
[02]  15(G16)  f 43  7  0  -2338.0  2046003.0 -0.0  2 0 2044 3322 1369
[03]  21(G22)  f 42 14  0    649.2  2045999.0 -0.0  2 0 1379 1666  905
[04]  22(G23)  f 41  7  0  -4296.9  2046005.6 -0.0  2 0 1317 2410 1685
[05]  25(G26)  f 45 11  0   -173.6  2046000.2  0.0  2 0 3339 4561 2017
[06]  26(G27)  f 39  7  0  -4706.5  2046006.1  0.3  2 0 1100 1762 1281
[08]  30(G31)  f 45  7  0    362.6  2045999.5  0.0  2 0 2362 3705 1915
[09]  31(G32)  f 41  7  0   1962.0  2045997.4 -0.0  2 0 1032 1816  568
[16]  37(B01) 1f 41 19  0  -1131.5  4092003.0 -0.2  2 0 1001 1304  831
[17]  38(B02) 1f 39 18  0  -1080.5  4092002.8  0.1  2 0 1161 1293  669
[18]  39(B03) 1f 42 31  0  -1121.9  4092002.9  0.1  2 0 1516 2419  878
[19]  40(B04) 1f 42 14  0  -1119.1  4092002.9  0.5  2 0 1073 1585  818
[20]  41(B05) 1f 37 30  0  -1075.3  4092002.7 -0.4  2 0  811 1078  882
[21]  42(B06) 1f 41 12  0   -554.8  4092001.3 -0.0  2 0 1611 2270 1320
[22]  43(B07)  7 43 10  0   -842.6  4092002.1  0.0  2 0 2069 1960  884
[24]  45(B09)  7 43  7  0  -1117.0  4092002.8 -0.0  2 0 2009 2653 1609
[25]  46(B10) 1f 43 10  0  -1093.0  4092002.7  0.0  2 0 1635 2368  848
[26]  52(B16)  7 43  8  0   -600.9  4092001.5 -0.0  2 0 2076 2525 1063
[27]  54(B18)  7 44  7  0   -955.2  4092002.4 -0.0  2 0 2205 2659  808
[28]  55(B19)  7 43  7  0   1793.1  4091995.2 -0.0  2 0 2183 2598 1256
[29]  65(B29)  7 38  7  0  -3936.3  4092010.2  0.3  2 0 1216 1463  862
[30]  58(B22) 1f 44  7  0   -626.5  4092001.5  0.0  2 0 1904 2751 1375
[32]  75(N-6)  f 47  7  0  -1389.7  1022000.9  0.0  2 0  1617 2678 1157
[33]  76(N-5)  f 29  7  0   2345.4  1021998.5  0.0  5 0  1082 1899  655
[34]  79(N-2)  f 39  7  0  -4116.2  1022002.6 -0.2  2 0   769  933  503
[35]  80(N-1)  f 44  7  0  -4375.7  1022002.7 -0.0  2 0   753 1533  609
[36]  81(N00)  f 39  7  0  -2794.3  1022001.7  0.2  2 0   382  986  625
[37]  83(N02)  f 45  7  0   1326.0  1021999.1 -0.0  2 0  1273 1795  781
[38]  86(N05)  7 16 20  1  -4158.2  1022003.0 -0.2 10 0   299  126  137
[48]  37(B01)  7 36 10  0   -152.3 20460004.4 -0.0  2 0  491  212  487
[49]  38(B02)  1 10 10  0   -730.9 20460017.2 -0.1  1 0  540  680  636
[50]  39(B03)  7 36 23  0  -1971.9 20460031.8  0.0  2 0  592  487  216
[51]  40(B04)  1 24 23  1  -1089.6 20460021.9  0.1  1 0  391  285  402
[52]  41(B05)  1 26 25  1   -847.5 20460019.7  0.1  1 0  365  319  355
[57]  46(B10)  1  7  7  0     -2.4 20460017.2  0.1  1 0  694  483  467
[62]  58(B22)  1  7  7  0   -892.8 20460010.8 -0.1  1 0  326  175  217
$GNGGA,023132.091,,,,,0,00,,,M,,,,0000*22
$GNRMC,023132.091,A,,,,,,,150419,,*27
$GPGSA,A,1,,,,,,,,,,,,,,,*1E
$BDGSA,A,1,,,,,,,,,,,,,,,*0F
$GLGSA,A,1,,,,,,,,,,,,,,,*02
$GPGSV,3,1,09,03,00,000,41,14,00,000,42,16,00,000,43,22,00,000,42*71
$GPGSV,3,2,09,23,00,000,41,26,00,000,45,27,00,000,39,31,00,000,45*7C
$GPGSV,3,3,09,32,00,000,41*44
$BDGSV,3,1,12,01,00,000,41,02,00,000,40,03,00,000,42,04,00,000,42*6C
$BDGSV,3,2,12,05,00,000,37,06,00,000,41,07,00,000,43,09,00,000,43*66
$BDGSV,3,3,12,10,00,000,43,16,00,000,43,18,00,000,44,19,00,000,43*6B
$B3CN0,0,0,0,0,0,0,0,0,0,0,0,0,0,0*4C
---00000022--- Acq_st=3 0  2019-4-15 2:31:32 
[00]  02(G03)  f 40  7  0   -168.0  2046000.1 -0.2  2 0 1242 1588  665
[01]  13(G14)  f 42  7  0   1057.5  2045998.6 -0.0  2 0 1599 1873  830
[02]  15(G16)  f 44  7  0  -2332.8  2046003.0  0.1  2 0 1911 2827 1301
[03]  21(G22)  f 42  7  0    655.0  2045999.1  0.0  2 0  948 1678  722
[04]  22(G23)  f 41  7  0  -4297.8  2046005.5  0.0  2 0 1073 2377 1744
[05]  25(G26)  f 45  7  0   -166.1  2046000.2 -0.1  2 0 3362 4995 2523
[06]  26(G27)  f 39  8  0  -4700.2  2046006.0 -0.1  2 0  393 1266  527
[08]  30(G31)  f 45  7  0    369.3  2045999.5 -0.0  2 0 2064 3743 2018
[09]  31(G32)  f 42  7  0   1961.8  2045997.4  0.0  2 0 1462 2403 1067
[16]  37(B01) 1f 40 10  0  -1124.3  4092002.9  0.4  2 0 1551 1745  754
[17]  38(B02) 1f 39 28  0  -1071.4  4092002.5 -0.2  2 0 1352 1446  369
[18]  39(B03) 1f 42 30  0  -1117.0  4092002.8  0.1  2 0 1293 2154 1214
[19]  40(B04) 1f 40 26  0  -1113.9  4092002.8  0.8  2 0 1186 1356  654
[20]  41(B05) 1f 39 18  0  -1075.4  4092002.7  0.1  2 0 1052 1273  637
[21]  42(B06) 1f 42  7  0   -552.8  4092001.3  0.1  2 0 1359 2168 1173
[22]  43(B07)  7 43  7  0   -835.2  4092002.1  0.0  2 0 2621 2720  813
[24]  45(B09)  7 43  7  0  -1112.7  4092002.8 -0.1  2 0 2161 2854 1420
[25]  46(B10) 1f 43 12  0  -1086.2  4092002.7  0.0  2 0 1846 2365  546
[26]  52(B16)  7 44  7  0   -593.2  4092001.4  0.0  2 0 1892 2682 1299
[27]  54(B18)  7 44  9  0   -952.7  4092002.4 -0.0  2 0 2091 2786 1106
[28]  55(B19)  7 43  7  0   1797.7  4091995.2 -0.0  2 0 2159 2652 1289
[29]  65(B29)  7 38  7  0  -3930.0  4092010.1  0.1  2 0  924 1311  901
[30]  58(B22) 1f 44  7  0   -621.3  4092001.5 -0.0  2 0 2191 3010 1280
[32]  75(N-6) 8f 47  7  0  -1383.8  1022000.9 -0.1  2 0  1534 2387 1209
[33]  76(N-5)  f 29  7  0   2348.7  1021998.7  0.1  5 0  1338 2052  809
[34]  79(N-2) 8f 39  7  0  -4113.9  1022002.6 -0.1  2 0   519  883  321
[35]  80(N-1) 8f 44  7  0  -4370.7  1022002.8  0.0  2 0  1074 1805  604
[36]  81(N00) 8f 39  7  0  -2789.1  1022001.7 -0.1  2 0   308  557  371
[37]  83(N02) 8f 45  7  0   1330.6  1021999.1  0.0  2 0  1250 1863  899
[38]  86(N05)  7 18 21  1  -4147.7  1022002.8 -0.0 10 0   400  452  308
[48]  37(B01)  7 10 14  0   -835.4 20460012.4  0.1  2 0  691  461  257
[49]  38(B02)  7 10 10  1  -1180.6 20460018.0  0.1  2 0  170   48  493
[50]  39(B03)  7 20 16  1  -2597.5 20460043.0  0.0  2 0  562  634  495
[51]  40(B04)  1 24 22  1   -654.3 20460020.3 -0.1  1 0  775  716  353
[52]  41(B05)  1 22 24  1   -903.9 20460021.8  0.1  1 0  365  582  648
[53]  42(B06)  1  7  7  0   -393.9 20460004.5  0.1  1 0  213  336  534
$GNGGA,023133.091,,,,,0,00,,,M,,,,0000*23
$GNRMC,023133.091,A,,,,,,,150419,,*26
$GPGSA,A,1,,,,,,,,,,,,,,,*1E
$BDGSA,A,1,,,,,,,,,,,,,,,*0F
$GLGSA,A,1,,,,,,,,,,,,,,,*02
$GPGSV,3,1,09,03,00,000,40,14,00,000,42,16,00,000,44,22,00,000,42*77
$GPGSV,3,2,09,23,00,000,41,26,00,000,45,27,00,000,39,31,00,000,45*7C
$GPGSV,3,3,09,32,00,000,42*47
$BDGSV,3,1,12,01,00,000,40,02,00,000,39,03,00,000,42,04,00,000,40*61
$BDGSV,3,2,12,05,00,000,39,06,00,000,42,07,00,000,43,09,00,000,43*6B
$BDGSV,3,3,12,10,00,000,43,16,00,000,44,18,00,000,44,19,00,000,43*6C
$B3CN0,0,0,20,0,0,0,0,0,0,0,0,0,0,0*7E
---00000023--- Acq_st=3 0  2019-4-15 2:31:33 
[00]  02(G03)  f 40  7  0   -171.6  2046000.2 -0.0  2 0  933 1549  677
[01]  13(G14)  f 42  9  0   1055.1  2045998.6 -0.0  2 0 1879 2680 1272
[02]  15(G16)  f 44  7  0  -2334.0  2046003.0 -0.0  2 0 2187 3694 2022
[03]  21(G22)  f 42  7  0    652.1  2045999.1  0.1  2 0 1273 2349 1090
[04]  22(G23)  f 41  9  0  -4296.6  2046005.5  0.1  2 0 1048 2303 1343
[05]  25(G26)  f 45  7  0   -168.6  2046000.2 -0.0  2 0 2797 4541 2100
[06]  26(G27)  f 39 11  0  -4699.3  2046006.0 -0.1  2 0  441 1590 1296
[08]  30(G31)  f 44 11  0    363.3  2045999.5  0.1  2 0 2668 4662 2249
[09]  31(G32)  f 41  7  0   1965.8  2045997.4 -0.1  2 0 1687 2265  878
[16]  37(B01) 1f 41 20  0  -1127.0  4092002.7  0.7  2 0  825 1186  437
[17]  38(B02) 1f 40 22  0  -1077.4  4092002.7  0.1  2 0 1480 1441  880
[18]  39(B03) 1f 41 29  0  -1117.5  4092002.8 -0.0  2 0 1984 2612 1256
[19]  40(B04) 1f 41 23  0  -1118.9  4092002.7 -0.7  2 0  816  941  198
[20]  41(B05) 1f 39 24  0  -1075.5  4092002.7  0.7  2 0 1129 1050  554
[21]  42(B06) 1f 42  7  0   -553.9  4092001.3  0.0  2 0 1504 1642  841
[22]  43(B07) 1f 43  7  0   -839.9  4092002.1  0.0  2 0 1959 2458  952
[24]  45(B09) 1f 43  7  0  -1113.3  4092002.8  0.1  2 0 1894 2710 1315
[25]  46(B10) 1f 43  7  0  -1087.9  4092002.7  0.0  2 0 1853 2737 1441
[26]  52(B16) 1f 43  7  0   -596.5  4092001.4  0.0  2 0 2168 2735 1363
[27]  54(B18) 1f 44 10  0   -955.0  4092002.4  0.0  2 0 2344 2953  951
[28]  55(B19) 1f 43  7  0   1793.7  4091995.2  0.0  2 0 2202 2567  911
[29]  65(B29) 1f 38  7  0  -3933.1  4092010.2 -0.1  2 0 1410 1531  697
[30]  58(B22) 1f 44  7  0   -623.4  4092001.5  0.0  2 0 2269 2827 1007
[32]  75(N-6) 8f 47  7  0  -1385.3  1022000.9  0.0  2 0  1472 2706 1412
[33]  76(N-5)  f 27  7  0   2350.5  1021998.4  0.0 10 0  1167 2083  937
[34]  79(N-2) 8f 39  7  0  -4115.7  1022002.6 -0.0  2 0   924 1211  447
[35]  80(N-1) 8f 44  7  0  -4372.5  1022002.8  0.0  2 0   743 1519 1088
[36]  81(N00) 8f 38  7  0  -2790.9  1022001.7 -0.0  2 0   316  941  390
[37]  83(N02) 8f 46  7  0   1329.0  1021999.1  0.0  2 0  1248 2045  969
[38]  86(N05)  7 15 20  1  -4149.8  1022002.3 -0.0 10 0   199  280  397
[48]  37(B01)  7 10 10  0   -838.8 20460013.6 -0.0  2 0  781  447  445
[49]  38(B02)  7 18 10  1  -1267.9 20460017.9  0.1  2 0  754  645  337
[50]  39(B03)  7 23 23  0  -2948.4 20460048.4 -0.2  2 0  288   58  182
[51]  40(B04)  1 24 24  0  -1142.7 20460020.0  0.0  1 0  547  623  437
[52]  41(B05)  1 24 24  1   -323.0 20460022.4 -0.0  1 0  778  687  526
[53]  42(B06)  1  7  7  0    287.6 20460006.7 -0.2  1 0  443  227  339
[57]  46(B10)  1  7  7  0   -851.8 20460013.9  0.1  1 0  350  581  325
[62]  58(B22)  1  7  9  0   -494.6 20460010.7 -0.0  1 0  631  199   89
$GNGGA,023134.091,,,,,0,00,,,M,,,,0000*24
$GNRMC,023134.091,A,,,,,,,150419,,*21
$GPGSA,A,1,,,,,,,,,,,,,,,*1E
$BDGSA,A,1,,,,,,,,,,,,,,,*0F
$GLGSA,A,1,,,,,,,,,,,,,,,*02
$GPGSV,3,1,09,03,00,000,40,14,00,000,42,16,00,000,44,22,00,000,42*77
$GPGSV,3,2,09,23,00,000,41,26,00,000,45,27,00,000,39,31,00,000,44*7D
$GPGSV,3,3,09,32,00,000,41*44
$BDGSV,3,1,12,01,00,000,41,02,00,000,40,03,00,000,41,04,00,000,41*6C
$BDGSV,3,2,12,05,00,000,39,06,00,000,42,07,00,000,43,09,00,000,43*6B
$BDGSV,3,3,12,10,00,000,43,16,00,000,43,18,00,000,44,19,00,000,43*6B
$B3CN0,0,19,22,0,0,0,0,0,0,0,0,0,0,0*44
---00000024--- Acq_st=3 0  2019-4-15 2:31:34 
[00]  02(G03)  f 40  7  0   -173.2  2046000.2 -0.1  2 0 1275 2089  927
[01]  13(G14)  f 42  7  0   1045.9  2045998.6  0.0  2 0 1881 2807 1214
[02]  15(G16)  f 44  7  0  -2337.4  2046003.0  0.0  2 0 1155 2209 1344
[03]  21(G22)  f 41  7  0    649.8  2045999.1  0.1  2 0 1311 2037  882
[04]  22(G23)  f 40  7  0  -4299.5  2046005.5 -0.1  2 0 1326 2145  921
[05]  25(G26)  f 45  7  0   -172.4  2046000.2  0.0  2 0 2721 4424 2150
[06]  26(G27)  f 39  7  0  -4709.2  2046006.0  0.0  2 0 1550 1651  442
[08]  30(G31)  f 44  7  0    359.9  2045999.5 -0.0  2 0 2606 4044 1807
[09]  31(G32)  f 41  7  0   1958.5  2045997.4 -0.0  2 0 1373 2188 1031
[16]  37(B01) 1f 41 10  0  -1128.1  4092002.8  0.3  2 0  731 1373  524
[17]  38(B02) 1f 40 27  0  -1073.5  4092002.6 -0.1  2 0 1515 1907  778
[18]  39(B03) 1f 43 28  0  -1125.2  4092002.8 -0.1  2 0 1256 1852  371
[19]  40(B04) 1f 41 13  0  -1121.1  4092002.8  0.5  2 0 1318 1657  948
[20]  41(B05) 1f 37 27  0  -1078.3  4092002.6 -0.1  2 0 1324 1249  268
[21]  42(B06) 1f 42  7  0   -557.0  4092001.3 -0.1  2 0 1904 2182  741
[22]  43(B07) 1f 43  7  0   -847.6  4092002.1  0.1  2 0 2209 2832  890
[24]  45(B09) 1f 43  7  0  -1117.6  4092002.8  0.0  2 0 1706 2399 1169
[25]  46(B10) 1f 43  7  0  -1094.8  4092002.7 -0.0  2 0 1817 2766 1331
[26]  52(B16) 1f 43  7  0   -599.2  4092001.5 -0.0  2 0 1672 2019 1261
[27]  54(B18) 1f 44  8  0   -958.6  4092002.4  0.0  2 0 2595 2931 1082
[28]  55(B19) 1f 43  7  0   1792.7  4091995.2 -0.0  2 0 1964 2114  853
[29]  65(B29) 1f 38  7  0  -3938.3  4092010.2  0.1  2 0  500  832  347
[30]  58(B22) 1f 44  7  0   -626.0  4092001.5 -0.0  2 0 2890 3370 1552
[32]  75(N-6) 8f 47  7  0  -1388.2  1022000.8  0.0  2 0  1597 2750 1340
[33]  76(N-5)  f 30  7  0   2345.8  1021998.4  0.1  5 0  1377 2142 1246
[34]  79(N-2) 8f 39  7  0  -4117.4  1022002.6  0.3  2 0   512  845  427
[35]  80(N-1) 8f 44  7  0  -4375.4  1022002.7 -0.0  2 0  1026 1765 1072
[36]  81(N00) 8f 39  7  0  -2793.9  1022001.7  0.1  2 0   391  625  230
[37]  83(N02) 8f 45  7  0   1324.3  1021999.1  0.0  2 0  1610 2441  947
[38]  86(N05)  7 14 21  1  -4158.1  1022002.6 -0.0 10 0   521  329  445
[48]  37(B01)  7 13 10  1   -887.3 20460012.0  0.1  2 0  206  507  659
[49]  38(B02)  7 10 13  0  -1318.3 20460021.8  0.1  2 0  115  252  240
[50]  39(B03)  7 18 20  0  -3135.5 20460051.7  0.1  2 0  618  752  414
[51]  40(B04)  1 24 22  0  -1230.0 20460022.0 -0.1  1 0  247  298  314
[52]  41(B05)  1 20 26  0   -380.2 20460021.6  0.0  1 0  679  271   87
[53]  42(B06)  1  7  7  0    454.0 20460007.6 -0.2  1 0  115  272  560
[54]  43(B07)  1  7  7  0   -682.0 20460012.4  0.0  1 0  750  590  559
[56]  45(B09)  1  7  7  0   -904.0 20460017.4  0.0  1 0  604  416  496
[57]  46(B10)  1  7  7  0   -901.9 20460015.1  0.1  1 0  218  221  418
[58]  52(B16)  1  7  7  0   -483.0 20460008.7  0.1  1 0  397  365  275
[59]  54(B18)  1  7  7  0   -775.0 20460015.1  0.0  1 0  456  418  445
[60]  55(B19)  1  7  7  0   1456.0 20459971.2  0.1  1 0  153  517  234
[61]  65(B29)  1  7  7  0  -3194.0 20460063.1  0.1  1 0  328  324   76
[62]  58(B22)  1  7  7  0   -689.5 20460008.6 -0.1  1 0  126  314  503
$GNGGA,023135.091,,,,,0,00,,,M,,,,0000*25
$GNRMC,023135.091,A,,,,,,,150419,,*20
$GPGSA,A,1,,,,,,,,,,,,,,,*1E
$BDGSA,A,1,,,,,,,,,,,,,,,*0F
$GLGSA,A,1,,,,,,,,,,,,,,,*02
$GPGSV,3,1,09,03,00,000,40,14,00,000,42,16,00,000,44,22,00,000,41*74
$GPGSV,3,2,09,23,00,000,40,26,00,000,45,27,00,000,39,31,00,000,44*7C
$GPGSV,3,3,09,32,00,000,41*44
$BDGSV,3,1,12,01,00,000,41,02,00,000,40,03,00,000,43,04,00,000,41*6E
$BDGSV,3,2,12,05,00,000,37,06,00,000,42,07,00,000,43,09,00,000,43*65
$BDGSV,3,3,12,10,00,000,43,16,00,000,43,18,00,000,44,19,00,000,43*6B
$B3CN0,0,0,18,0,0,0,0,0,0,0,0,0,0,0*75
---00000025--- Acq_st=7 0  2019-4-15 2:31:35 
[00]  02(G03)  f 40  7  0   -166.4  2046000.2  0.1  2 0  667 1029  880
[01]  13(G14)  f 42 10  0   1058.5  2045998.6 -0.1  2 0 1993 3080 1814
[02]  15(G16)  f 43  7  0  -2335.3  2046003.0 -0.0  2 0 1968 2890 1447
[03]  21(G22)  f 41  7  0    655.0  2045999.1  0.1  2 0 1390 2095 1159
[04]  22(G23)  f 41  8  0  -4294.6  2046005.5  0.1  2 0 1096 1467  262
[05]  25(G26)  f 45  7  0   -165.8  2046000.2  0.0  2 0 2467 4543 2467
[06]  26(G27)  f 39  7  0  -4703.0  2046006.0  0.1  2 0 1185 1329  532
[08]  30(G31)  f 45  9  0    365.5  2045999.5  0.0  2 0 2825 3931 1644
[09]  31(G32)  f 41 10  0   1966.4  2045997.4 -0.0  2 0 1064 1680  394
[16]  37(B01) 1f 40 10  0  -1124.1  4092002.8  0.1  2 0 1214 1244  358
[17]  38(B02) 1f 40 25  0  -1074.8  4092002.7  0.5  2 0 1259 1454  693
[18]  39(B03) 1f 43 31  0  -1120.7  4092002.8 -0.1  2 0 1930 2406 1082
[19]  40(B04) 1f 40 23  0  -1118.4  4092002.7 -0.3  2 0 1565 1575  431
[20]  41(B05) 1f 38 18  0  -1074.8  4092002.8 -0.7  2 0 1179 1421  621
[21]  42(B06) 1f 42  7  0   -552.1  4092001.3 -0.0  2 0 1846 2458  993
[22]  43(B07) 1f 44  7  0   -843.7  4092002.1 -0.0  2 0 2614 2918 1124
[24]  45(B09) 1f 43  7  0  -1113.9  4092002.8 -0.1  2 0 1661 2328  953
[25]  46(B10) 1f 44  9  0  -1088.4  4092002.7  0.0  2 0 1937 2353 1052
[26]  52(B16) 1f 44  7  0   -594.3  4092001.4 -0.0  2 0 1900 3062 1523
[27]  54(B18) 1f 44  7  0   -951.9  4092002.4 -0.0  2 0 1925 2681  822
[28]  55(B19) 1f 43  7  0   1797.1  4091995.2  0.0  2 0 2129 2612 1110
[29]  65(B29) 1f 38  7  0  -3931.2  4092010.2 -0.3  2 0  646 1104  759
[30]  58(B22) 1f 44  7  0   -621.8  4092001.5  0.0  2 0 2170 3137 1620
[32]  75(N-6) 8f 47  7  0  -1382.4  1022000.9 -0.0  2 0  1650 2524  855
[33]  76(N-5)  f 29  7  0   2350.1  1021998.5 -0.0  5 0  1078 2212 1347
[34]  79(N-2) 8f 38  7  0  -4111.6  1022002.6  0.1  2 0   614  739  241
[35]  80(N-1) 8f 45  7  0  -4369.9  1022002.8  0.2  2 0  1290 1793  643
[36]  81(N00) 8f 39  7  0  -2788.5  1022001.8  0.0  2 0   421  508  211
[37]  83(N02) 8f 45 13  0   1329.4  1021999.1  0.1  2 0  1490 2036  905
[38]  86(N05)  7 16 20  1  -4150.7  1022002.6  0.0 10 0   375  154  185
[48]  37(B01)  7 10 10  0   -883.0 20460013.4  0.0  2 0  556  597  503
[49]  38(B02)  7 16 20  0  -1412.1 20460023.2  0.0  2 0  363  448  215
[50]  39(B03)  7 22 10  0  -3170.7 20460051.7  0.1  2 0  132  639  412
[51]  40(B04)  1 27 18  0  -1301.8 20460020.3  0.2  1 0  715  351  389
[52]  41(B05)  1 24 24  1   -576.3 20460023.3 -0.1  1 0  256  115   58
[53]  42(B06)  1  7  7  0    744.1 20460006.3 -0.0  1 0  617 1019  514
[54]  43(B07)  1 10  8  0  -1079.6 20460014.4 -0.0  1 0  151  423  283
[56]  45(B09)  1  7  7  0   -774.5 20460017.4  0.1  1 0  302  364  514
[57]  46(B10)  1  7  7  0   -805.2 20460015.3 -0.1  1 0  367  719  535
[58]  52(B16)  1  7  7  0   -657.9 20460009.9  0.1  1 0  133   24  468
[59]  54(B18)  1  7  7  0  -1019.2 20460015.0 -0.0  1 0  187  385  733
[60]  55(B19)  1  7  7  0   1615.5 20459971.9  0.1  1 0  374  553  957
[61]  65(B29)  1  7  7  0  -3202.0 20460062.7 -0.0  1 0  259  188  169
[62]  58(B22)  1  7  7  0   -982.0 20460010.4 -0.0  1 0  463   80  819
$GNGGA,023136.091,,,,,0,00,,,M,,,,0000*26
$GNRMC,023136.091,A,,,,,,,150419,,*23
$GPGSA,A,1,,,,,,,,,,,,,,,*1E
$BDGSA,A,1,,,,,,,,,,,,,,,*0F
$GLGSA,A,1,,,,,,,,,,,,,,,*02
$GPGSV,3,1,09,03,00,000,40,14,00,000,42,16,00,000,43,22,00,000,41*73
$GPGSV,3,2,09,23,00,000,41,26,00,000,45,27,00,000,39,31,00,000,45*7C
$GPGSV,3,3,09,32,00,000,41*44
$BDGSV,3,1,12,01,00,000,40,02,00,000,40,03,00,000,43,04,00,000,40*6E
$BDGSV,3,2,12,05,00,000,38,06,00,000,42,07,00,000,44,09,00,000,43*6D
$BDGSV,3,3,12,10,00,000,44,16,00,000,44,18,00,000,44,19,00,000,43*6B
$B3CN0,0,16,22,0,0,0,0,0,0,0,0,0,0,0*4B
---00000026--- Acq_st=3 0  2019-4-15 2:31:36 
[00]  02(G03)  f 40  7  0   -170.3  2046000.2  0.0  2 0 1921 1950  851
[01]  13(G14)  f 42  7  0   1054.8  2045998.6  0.0  2 0 1713 2603  927
[02]  15(G16)  f 43  7  0  -2335.3  2046003.0  0.0  2 0 2124 3428 2413
[03]  21(G22)  f 41  7  0    650.2  2045999.1  0.0  2 0 1389 2020  822
[04]  22(G23)  f 41  7  0  -4303.4  2046005.5 -0.0  2 0 1363 2172  988
[05]  25(G26)  f 45  7  0   -170.4  2046000.2 -0.0  2 0 2754 4599 2354
[06]  26(G27)  f 39  7  0  -4711.6  2046006.0 -0.2  2 0 1157 1781 1171
[08]  30(G31)  f 44  7  0    361.7  2045999.5  0.0  2 0 1939 3270 1605
[09]  31(G32)  f 41  7  0   1965.2  2045997.4 -0.0  2 0 1462 2076  979
[16]  37(B01) 1f 41 10  0  -1132.9  4092002.8 -0.1  2 0  918 1425  658
[17]  38(B02) 1f 41 23  0  -1078.9  4092002.7 -0.3  2 0 1156 1462  378
[18]  39(B03) 1f 43 27  0  -1120.5  4092002.8  0.2  2 0 2230 2506 1289
[19]  40(B04) 1f 40 18  0  -1122.3  4092002.8  0.1  2 0 1500 1875  775
[20]  41(B05) 1f 37 23  0  -1079.2  4092002.7  0.8  2 0 1125 1163  630
[21]  42(B06) 1f 42  7  0   -552.2  4092001.3 -0.0  2 0 1485 2003 1011
[22]  43(B07) 1f 44  7  0   -844.1  4092002.1  0.0  2 0 2190 2687 1001
[24]  45(B09) 1f 43  7  0  -1118.8  4092002.8  0.0  2 0 2255 2750 1088
[25]  46(B10) 1f 44  7  0  -1087.9  4092002.8 -0.0  2 0 1590 2469 1234
[26]  52(B16) 1f 44  8  0   -596.9  4092001.4  0.0  2 0 2246 2778  911
[27]  54(B18) 1f 44  7  0   -955.2  4092002.4  0.0  2 0 3032 3482 1691
[28]  55(B19) 1f 43  7  0   1792.8  4091995.2 -0.0  2 0 1678 2079  495
[29]  65(B29) 1f 38  7  0  -3933.0  4092010.2  0.3  2 0 1134 1708 1073
[30]  58(B22) 1f 44  7  0   -626.7  4092001.5 -0.0  2 0 3064 3758 1346
[32]  75(N-6) 8f 47  7  0  -1386.2  1022000.9  0.1  2 0  1067 2179 1132
[33]  76(N-5)  f 35  7  0   2347.9  1021998.5  0.0  2 0  1422 2522 1371
[34]  79(N-2) 8f 38  7  0  -4117.2  1022002.6  0.0  2 0   109  661  406
[35]  80(N-1) 8f 44  7  0  -4373.8  1022002.8  0.1  2 0  1101 1603  725
[36]  81(N00) 8f 39  7  0  -2792.3  1022001.8 -0.8  2 0   394 1067  690
[37]  83(N02) 8f 45  7  0   1324.8  1021999.1 -0.1  2 0  1267 2175 1054
[38]  86(N05)  7 18 21  1  -4144.7  1022002.9  0.1 10 0   261  301  136
[49]  38(B02)  7 36 10  0  -1433.1 20460021.1  0.0  2 0  374  734  676
[50]  39(B03)  7 10 19  1  -3358.7 20460053.0  0.1  2 0  466  296  298
[51]  40(B04)  1 20 23  0  -1744.6 20460027.0 -0.0  1 0  224   54  599
[52]  41(B05)  1 23 23  0   -726.2 20460018.7 -0.0  1 0  227   31  219
[53]  42(B06)  1  7  7  0    661.4 20460006.2  0.0  1 0  575  550  657
[54]  43(B07)  1  7  7  0   -587.1 20460015.7  0.0  1 0  922  776  531
[56]  45(B09)  1  7  7  0   -847.1 20460016.4  0.1  1 0  359  325  438
[57]  46(B10)  1  7  7  0   -887.0 20460015.7  0.0  1 0  425  687  805
[58]  52(B16)  1  7  7  0   -404.0 20460007.8  0.1  1 0  593  696  350
[59]  54(B18)  1  7  7  0   -802.8 20460016.0  0.1  1 0  326  257  163
[60]  55(B19)  1  7  7  0   1458.4 20459971.4 -0.0  1 0  563  444  405
[61]  65(B29)  1  7  7  0  -2814.8 20460062.8 -0.1  1 0  626  422  542
[62]  58(B22)  1  7  7  0   -898.5 20460010.8  0.0  1 0  534  530  455
$GNGGA,023137.091,,,,,0,00,,,M,,,,0000*27
$GNRMC,023137.091,A,,,,,,,150419,,*22
$GPGSA,A,1,,,,,,,,,,,,,,,*1E
$BDGSA,A,1,,,,,,,,,,,,,,,*0F
$GLGSA,A,1,,,,,,,,,,,,,,,*02
$GPGSV,3,1,09,03,00,000,40,14,00,000,42,16,00,000,43,22,00,000,41*73
$GPGSV,3,2,09,23,00,000,41,26,00,000,45,27,00,000,39,31,00,000,44*7D
$GPGSV,3,3,09,32,00,000,41*44
$BDGSV,3,1,12,01,00,000,41,02,00,000,41,03,00,000,43,04,00,000,40*6E
$BDGSV,3,2,12,05,00,000,37,06,00,000,42,07,00,000,44,09,00,000,43*62
$BDGSV,3,3,12,10,00,000,44,16,00,000,44,18,00,000,44,19,00,000,43*6B
$B3CN0,0,36,0,0,0,0,0,0,0,0,0,0,0,0*79
---00000027--- Acq_st=3 0  2019-4-15 2:31:37 
[00]  02(G03)  f 40  7  0   -167.4  2046000.2  0.0  2 0 1101 1733  454
[01]  13(G14)  f 42  7  0   1055.2  2045998.6  0.0  2 0 1215 2395 1131
[02]  15(G16)  f 43 11  0  -2333.6  2046003.0 -0.1  2 0 2516 3115 1244
[03]  21(G22)  f 41 11  0    654.6  2045999.1 -0.0  2 0 1242 1969  546
[04]  22(G23)  f 41  9  0  -4299.4  2046005.5 -0.1  2 0 1659 2220 1220
[05]  25(G26)  f 46  7  0   -168.1  2046000.2  0.0  2 0 3026 4514 2169
[06]  26(G27)  f 39 12  0  -4702.9  2046006.1 -0.1  2 0  745 1273  952
[08]  30(G31)  f 44  7  0    364.7  2045999.5 -0.0  2 0 2743 3754 1418
[09]  31(G32)  f 41  7  0   1967.6  2045997.4 -0.0  2 0 1447 1815  754
[10]  28(G29)  1  7  7  0   1000.0  2045999.8 -0.0  1 0  685  483  596
[16]  37(B01) 1f 40 19  0  -1126.4  4092002.8  0.3  2 0 1709 1734  462
[17]  38(B02) 1f 40 27  0  -1074.8  4092002.6  0.1  2 0 1085 1079  367
[18]  39(B03) 1f 41 29  0  -1121.6  4092002.8 -0.1  2 0 1338 1612  582
[19]  40(B04) 1f 40 21  0  -1117.6  4092002.7  0.5  2 0 1297 1185  305
[20]  41(B05) 1f 38 26  0  -1075.8  4092002.7  0.7  2 0 1642 1819  958
[21]  42(B06) 1f 42  7  0   -554.2  4092001.3 -0.0  2 0 1495 1967 1075
[22]  43(B07) 1f 44  7  0   -845.3  4092002.1  0.0  2 0 1823 2328  670
[24]  45(B09) 1f 43  7  0  -1118.5  4092002.8  0.0  2 0 2221 2914  984
[25]  46(B10) 1f 44  7  0  -1091.5  4092002.8  0.0  2 0 1960 2796 1246
[26]  52(B16) 1f 44  7  0   -596.7  4092001.4  0.0  2 0 1906 3180 1218
[27]  54(B18) 1f 44  8  0   -954.0  4092002.4 -0.1  2 0 2840 3345 1553
[28]  55(B19) 1f 43  7  0   1792.9  4091995.2  0.1  2 0 1633 2409 1022
[29]  65(B29) 1f 38  7  0  -3936.1  4092010.2  0.3  2 0  131  930  626
[30]  58(B22) 1f 44  7  0   -624.4  4092001.5 -0.0  2 0 1934 3268 1571
[32]  75(N-6) 8f 47  7  0  -1384.2  1022000.8 -0.1  2 0  1468 2913 1734
[33]  76(N-5)  f 30  7  0   2346.8  1021998.5  0.1  5 0  1444 2074 1107
[34]  79(N-2) 8f 38  7  0  -4117.1  1022002.6 -0.1  2 0   761 1022  219
[35]  80(N-1) 8f 44  7  0  -4371.6  1022002.7  0.0  2 0   969 1627  714
[36]  81(N00) 8f 39  7  0  -2791.1  1022001.7  0.5  2 0   735  784  354
[37]  83(N02) 8f 45  7  0   1326.7  1021999.1 -0.0  2 0  1426 2061  851
[38]  86(N05)  7 18 21  1  -4144.3  1022002.8 -0.0 10 0   180  242  190
[48]  37(B01)  1 10 18  0   -701.0 20460020.4 -0.1  1 0  405  218  708
[49]  38(B02)  7 10 10  1  -1786.8 20460028.7 -0.1  2 0  124  237  373
[50]  39(B03)  7 10 16  0  -3542.4 20460055.1  0.1  2 0  741  314  225
[53]  42(B06)  1  7  8  0    711.7 20460006.2 -0.1  1 0  210  231  409
[54]  43(B07)  1  7  7  0   -660.3 20460013.4 -0.1  1 0  637  518  423
[56]  45(B09)  1  7  7  0  -1223.1 20460018.7  0.1  1 0  154  489  658
[57]  46(B10)  1  7  7  0   -361.3 20460016.5  0.1  1 0  305  215  626
[58]  52(B16)  1  8  7  0   -697.7 20460007.1 -0.0  1 0   74  382  373
[59]  54(B18)  1  7  7  0  -1170.6 20460015.8 -0.1  1 0  649  996  997
[60]  55(B19)  1  7  7  0    950.0 20459971.1 -0.2  1 0  448  481  495
[61]  65(B29)  1 10  7  0  -2399.2 20460063.2  0.0  1 0  709  482  485
[62]  58(B22)  1  7  7  0  -1105.9 20460009.4 -0.0  1 0  453  711  469
$GNGGA,023138.091,,,,,0,00,,,M,,,,0000*28
$GNRMC,023138.091,A,,,,,,,150419,,*2D
$GPGSA,A,1,,,,,,,,,,,,,,,*1E
$BDGSA,A,1,,,,,,,,,,,,,,,*0F
$GLGSA,A,1,,,,,,,,,,,,,,,*02
$GPGSV,3,1,09,03,00,000,40,14,00,000,42,16,00,000,43,22,00,000,41*73
$GPGSV,3,2,09,23,00,000,41,26,00,000,46,27,00,000,39,31,00,000,44*7E
$GPGSV,3,3,09,32,00,000,41*44
$BDGSV,3,1,12,01,00,000,40,02,00,000,40,03,00,000,41,04,00,000,40*6C
$BDGSV,3,2,12,05,00,000,37,06,00,000,42,07,00,000,44,09,00,000,43*62
$BDGSV,3,3,12,10,00,000,44,16,00,000,44,18,00,000,44,19,00,000,43*6B
$B3CN0,0,0,0,0,0,0,0,0,0,0,0,0,0,0*4C
---00000028--- Acq_st=3 0  2019-4-15 2:31:38 
[00]  02(G03)  f 40  7  0   -163.4  2046000.1 -0.1  2 0  826 1339  956
[01]  13(G14)  f 42  7  0   1056.7  2045998.6 -0.0  2 0 2052 2634  913
[02]  15(G16)  f 43  7  0  -2327.6  2046003.0  0.0  2 0 1865 2756  877
[03]  21(G22)  f 41  7  0    656.4  2045999.1 -0.0  2 0  468 1692 1068
[04]  22(G23)  f 41  7  0  -4293.2  2046005.5  0.1  2 0  992 2109 1229
[05]  25(G26)  f 46  7  0   -166.3  2046000.2 -0.0  2 0 3080 4943 2671
[06]  26(G27)  f 39  7  0  -4701.9  2046006.0  0.0  2 0  581 1225  495
[08]  30(G31)  f 45  7  0    364.8  2045999.5  0.0  2 0 2710 3999 1991
[09]  31(G32)  f 41  8  0   1966.2  2045997.4 -0.0  2 0 1530 2102  877
[10]  28(G29)  1 26  9  0   1006.4  2045999.1  0.3  1 0  401  716  362
[16]  37(B01) 1f 40 20  0  -1128.3  4092002.9 -0.1  2 0  856 1501  727
[17]  38(B02) 1f 39 19  0  -1073.9  4092002.7 -0.5  2 0 1214 1304  768
[18]  39(B03) 1f 43 29  0  -1119.1  4092002.7  0.1  2 0 1798 2200 1271
[19]  40(B04) 1f 40 21  0  -1112.0  4092002.7 -0.3  2 0 1310 1429  153
[20]  41(B05) 1f 37 10  0  -1074.2  4092002.7 -0.6  2 0 1136 1000  337
[21]  42(B06) 1f 42  7  0   -549.1  4092001.3  0.0  2 0 1587 2497 1596
[22]  43(B07) 1f 43  7  0   -840.4  4092002.1 -0.0  2 0 2283 2948 1275
[24]  45(B09) 1f 43  7  0  -1113.2  4092002.8  0.1  2 0 1771 2286  913
[25]  46(B10) 1f 43  7  0  -1086.4  4092002.7 -0.0  2 0 1367 2112  440
[26]  52(B16) 1f 44  9  0   -593.3  4092001.4 -0.1  2 0 1765 2312  833
[27]  54(B18) 1f 44  7  0   -951.9  4092002.4  0.0  2 0 2573 3551 1327
[28]  55(B19) 1f 43  7  0   1794.7  4091995.1 -0.0  2 0 1617 2163 1355
[29]  65(B29) 1f 38  7  0  -3927.2  4092010.2 -0.1  2 0 1156 1165  393
[30]  58(B22) 1f 44  8  0   -619.6  4092001.5  0.0  2 0 2185 3005 1045
[32]  75(N-6) 8f 48  7  0  -1379.4  1022000.8  0.1  2 0  1528 2737 1647
[33]  76(N-5)  f 33 10  0   2353.9  1021998.5 -0.2  5 0  1167 2230 1268
[34]  79(N-2) 8f 39  7  0  -4111.7  1022002.6 -0.1  2 0   927 1061  278
[35]  80(N-1) 8f 45  7  0  -4368.6  1022002.8 -0.2  2 0   614 1597  472
[36]  81(N00) 8f 39  7  0  -2786.5  1022001.7  0.6  2 0   411  871  455
[37]  83(N02) 8f 45  7  0   1331.0  1021999.1 -0.0  2 0  1489 2184 1202
[38]  86(N05)  7 15 20  1  -4144.1  1022002.6  0.0 10 0   178  346  261
[48]  37(B01)  1 20 10  1   -306.7 20460025.2 -0.0  1 0  461  466  362
[50]  39(B03)  7 19 22  0  -3835.6 20460062.0 -0.0  2 0  982  527  607
[51]  40(B04)  1 18 23  1   -777.9 20460016.4 -0.0  1 0  583  238   96
[52]  41(B05)  1 22 22  1   -761.1 20460013.7 -0.1  1 0  465  392  763
[54]  43(B07)  1 11  7  0   -304.0 20460013.8 -0.0  1 0  306  313  468
[56]  45(B09)  1  7 10  0  -1249.1 20460018.0 -0.0  1 0  261  501  503
[57]  46(B10)  1  7  7  0   -881.6 20460015.7 -0.0  1 0  931  445  687
[58]  52(B16)  1  7  7  0  -1053.5 20460009.2  0.1  1 0  492  380  469
[59]  54(B18)  1  7  7  0   -720.4 20460015.3 -0.2  1 0  159  486  519
[60]  55(B19)  1  7  7  0   1019.5 20459973.2 -0.1  1 0  526  590  277
[61]  65(B29)  1  8  7  0  -2584.7 20460063.5  0.0  1 0  566  481  826
[62]  58(B22)  1  7  7  0  -1327.3 20460009.8 -0.1  1 0  806  607  278
$GNGGA,023139.091,,,,,0,00,,,M,,,,0000*29
$GNRMC,023139.091,A,,,,,,,150419,,*2C
$GPGSA,A,1,,,,,,,,,,,,,,,*1E
$BDGSA,A,1,,,,,,,,,,,,,,,*0F
$GLGSA,A,1,,,,,,,,,,,,,,,*02
$GPGSV,3,1,09,03,00,000,40,14,00,000,42,16,00,000,43,22,00,000,41*73
$GPGSV,3,2,09,23,00,000,41,26,00,000,46,27,00,000,39,31,00,000,45*7F
$GPGSV,3,3,09,32,00,000,41*44
$BDGSV,3,1,12,01,00,000,40,02,00,000,39,03,00,000,43,04,00,000,40*60
$BDGSV,3,2,12,05,00,000,37,06,00,000,42,07,00,000,43,09,00,000,43*65
$BDGSV,3,3,12,10,00,000,43,16,00,000,44,18,00,000,44,19,00,000,43*6C
$B3CN0,0,0,19,0,0,0,0,0,0,0,0,0,0,0*74
$GLGSV,2,1,05,08,00,000,48,20,00,000,39,01,00,000,45,11,00,000,39*65
$GLGSV,2,2,05,09,00,000,45*58
---00000029--- Acq_st=3 0  2019-4-15 2:31:39 
[00]  02(G03)  f 40  7  0   -166.8  2046000.2  0.2  2 0 1434 1753  743
[01]  13(G14)  f 43  8  0   1053.5  2045998.6 -0.0  2 0 1664 2541 1216
[02]  15(G16)  f 44  8  0  -2333.5  2046003.0 -0.1  2 0 2229 3209 1029
[03]  21(G22)  f 41  7  0    649.3  2045999.1  0.0  2 0 1219 1990  788
[04]  22(G23)  f 40  7  0  -4297.9  2046005.5  0.0  2 0 1374 2366  965
[05]  25(G26)  f 45 10  0   -166.7  2046000.1  0.0  2 0 2961 4525 2018
[06]  26(G27)  f 39  7  0  -4706.8  2046006.1 -0.1  2 0  654 1942 1476
[08]  30(G31)  f 45  7  0    362.9  2045999.5  0.0  2 0 2340 4015 1986
[09]  31(G32)  f 42  8  0   1959.5  2045997.4 -0.0  2 0 1534 2295 1452
[10]  28(G29)  7 26  7  0    984.9  2045998.7  0.2 10 0  320  785  598
[16]  37(B01) 1f 41 10  0  -1123.9  4092002.8 -0.3  2 0 1019 1109  192
[17]  38(B02) 1f 40 24  0  -1076.6  4092002.7 -0.5  2 0 1455 1666 1059
[18]  39(B03) 1f 43 29  0  -1122.7  4092002.8 -0.0  2 0 2175 2010  712
[19]  40(B04) 1f 41 23  0  -1117.3  4092002.8 -0.2  2 0 1741 2132 1139
[20]  41(B05) 1f 38 27  0  -1073.4  4092002.7 -0.5  2 0 1110 1090  259
[21]  42(B06) 1f 42  7  0   -553.7  4092001.3  0.1  2 0 1798 2009  910
[22]  43(B07) 1f 43  7  0   -842.0  4092002.1 -0.1  2 0 1414 2491  643
[24]  45(B09) 1f 43  7  0  -1114.1  4092002.8 -0.0  2 0 2048 2319  866
[25]  46(B10) 1f 43  7  0  -1088.3  4092002.7 -0.1  2 0 2282 2883 1608
[26]  52(B16) 1f 44 12  0   -598.5  4092001.4  0.0  2 0 1935 2587  914
[27]  54(B18) 1f 44  7  0   -956.1  4092002.4  0.0  2 0 2656 3460 1470
[28]  55(B19) 1f 43  7  0   1792.5  4091995.2  0.0  2 0 1614 2514 1383
[29]  65(B29) 1f 38  7  0  -3936.6  4092010.1 -0.1  2 0 1031  965  548
[30]  58(B22) 1f 43  7  0   -622.6  4092001.5  0.0  2 0 1983 2879 1397
[32]  75(N-6) 8f 48  7  0  -1382.0  1022000.8  0.0  2 0  1685 2781 1468
[33]  76(N-5)  f 32  7  0   2351.4  1021998.5  0.2  5 0  1260 2219  964
[34]  79(N-2) 8f 39  7  0  -4115.5  1022002.6  0.1  2 0   546  937  326
[35]  80(N-1) 8f 44  7  0  -4372.0  1022002.7  0.0  2 0  1052 1755  997
[36]  81(N00) 8f 39  7  0  -2791.5  1022001.7 -0.4  2 0   478  720  114
[37]  83(N02) 8f 45  7  0   1327.1  1021999.1 -0.0  2 0   920 1878  863
[38]  86(N05)  7 17 20  1  -4155.7  1022002.6  0.1 10 0   143  402  143
[48]  37(B01)  1 21 10  1     35.3 20460020.9 -0.2  1 0  577  702   25
[49]  38(B02)  1 36 14  0  -1080.9 20460012.9 -0.1  1 0  272   36  261
[50]  39(B03)  7 13 18  1  -4178.5 20460068.3 -0.0  2 0  225   63  266
[51]  40(B04)  1 27 22  1  -1290.2 20460023.6 -0.1  1 0 1098  739  485
[52]  41(B05)  1 26 18  0   -715.2 20460024.2 -0.1  1 0  103  330  444
[53]  42(B06)  1  7  7  0   -443.3 20460007.3 -0.1  1 0  622 1186  924
[54]  43(B07)  1  7  7  0    561.3 20460013.1  0.0  1 0  287  526  282
[56]  45(B09)  1  7  7  0  -1348.2 20460015.8  0.1  1 0  541  393  488
[58]  52(B16)  1  7  7  0  -1136.2 20460009.7  0.1  1 0  275  313  113
[59]  54(B18)  1  7  7  0   -470.5 20460016.5 -0.1  1 0  218  400  404
[60]  55(B19)  1  7  7  0   1599.0 20459973.1  0.1  1 0  395  676  470
[61]  65(B29)  1  9  9  0  -2445.3 20460063.7  0.1  1 0  426  503  618
$GNGGA,023140.091,,,,,0,00,,,M,,,,0000*27
$GNRMC,023140.091,A,,,,,,,150419,,*22
$GPGSA,A,1,,,,,,,,,,,,,,,*1E
$BDGSA,A,1,,,,,,,,,,,,,,,*0F
$GLGSA,A,1,,,,,,,,,,,,,,,*02
$GPGSV,3,1,10,03,00,000,40,14,00,000,43,16,00,000,44,22,00,000,41*7D
$GPGSV,3,2,10,23,00,000,40,26,00,000,45,27,00,000,39,31,00,000,45*75
$GPGSV,3,3,10,32,00,000,42,29,00,000,26*70
$BDGSV,3,1,12,01,00,000,41,02,00,000,40,03,00,000,43,04,00,000,41*6E
$BDGSV,3,2,12,05,00,000,38,06,00,000,42,07,00,000,43,09,00,000,43*6A
$BDGSV,3,3,12,10,00,000,43,16,00,000,44,18,00,000,44,19,00,000,43*6C
$B3CN0,0,0,0,0,0,0,0,0,0,0,0,0,0,0*4C
$GLGSV,2,1,05,08,00,000,48,20,00,000,39,01,00,000,44,11,00,000,39*64
$GLGSV,2,2,05,09,00,000,45*58
---00000030--- Acq_st=3 0  2019-4-15 2:31:40 
[00]  02(G03)  f 40  7  0   -163.0  2046000.1  0.1  2 0 1312 1643  436
[01]  13(G14)  f 42  8  0   1055.8  2045998.6  0.1  2 0 1157 2455 1736
[02]  15(G16)  f 44  7  0  -2328.1  2046003.0  0.0  2 0 2065 3084 1546
[03]  21(G22)  f 41  7  0    657.6  2045999.1 -0.1  2 0  960 1641  310
[04]  22(G23)  f 40  7  0  -4293.1  2046005.5  0.0  2 0 1398 2183  861
[05]  25(G26)  f 46  7  0   -162.6  2046000.2  0.0  2 0 2566 4437 2571
[06]  26(G27)  f 39  7  0  -4700.6  2046006.1 -0.0  2 0  963 1366  253
[08]  30(G31)  f 45 12  0    368.2  2045999.5 -0.0  2 0 2632 3896 1306
[09]  31(G32)  f 41  8  0   1972.4  2045997.4 -0.0  2 0 1579 2412 1495
[10]  28(G29)  7 33  8  0    993.0  2045998.6  0.1  5 0  267  519  482
[16]  37(B01) 1f 42 10  0  -1125.2  4092002.8 -0.3  2 0 1449 1515  304
[17]  38(B02) 1f 41 28  0  -1078.0  4092002.7 -0.2  2 0 1201 1422  468
[18]  39(B03) 1f 43 28  0  -1119.6  4092002.9 -0.3  2 0 1279 2424 1120
[19]  40(B04) 1f 40 10  0  -1112.4  4092002.8 -0.0  2 0  871 1388  459
[20]  41(B05) 1f 38 21  0  -1072.4  4092002.7 -0.2  2 0  943 1519  644
[21]  42(B06) 1f 42  7  0   -544.8  4092001.3 -0.1  2 0 1200 1723  854
[22]  43(B07) 1f 43  7  0   -838.6  4092002.1  0.0  2 0 1712 1753  318
[24]  45(B09) 1f 43  7  0  -1113.1  4092002.8  0.0  2 0 1995 2699 1100
[25]  46(B10) 1f 43 10  0  -1087.4  4092002.7  0.0  2 0 1780 2450 1015
[26]  52(B16) 1f 44  7  0   -594.3  4092001.4  0.0  2 0 2141 2719 1096
[27]  54(B18) 1f 44 11  0   -951.8  4092002.4 -0.0  2 0 2587 3012 1132
[28]  55(B19) 1f 43  7  0   1800.2  4091995.1 -0.0  2 0 2391 2619 1252
[29]  65(B29) 1f 38  7  0  -3932.2  4092010.1  0.1  2 0 1069 1052  431
[30]  58(B22) 1f 44  7  0   -617.2  4092001.5  0.0  2 0 2325 3433 1758
[32]  75(N-6) 8f 47  7  0  -1376.8  1022000.8  0.2  2 0  1551 2760 1189
[33]  76(N-5)  f 29  7  0   2354.0  1021998.5  0.2  5 0  1326 2459 1031
[34]  79(N-2) 8f 39  7  0  -4110.6  1022002.6 -0.6  2 0   467  914  715
[35]  80(N-1) 8f 44  7  0  -4365.8  1022002.8 -0.1  2 0  1560 2082  721
[36]  81(N00) 8f 39  7  0  -2786.5  1022001.8 -0.0  2 0   657  860  638
[37]  83(N02) 8f 45  7  0   1330.9  1021999.1 -0.1  2 0  1136 2198 1188
[38]  86(N05)  7 17 20  1  -4145.4  1022002.5 -0.2 10 0   217  274  296
[48]  37(B01)  1 16 10  0      5.1 20460026.8 -0.0  1 0  611  504  363
[49]  38(B02)  1 13 14  1   -555.9 20460021.6  0.2  1 0  413  103  482
[50]  39(B03)  7 36 10  0  -4192.2 20460068.3 -0.1  2 0  401   51  185
[51]  40(B04)  1 21 23  0   -835.3 20460021.3  0.1  1 0  359  262  356
[52]  41(B05)  1 23 24  1   -254.0 20460026.7  0.1  1 0   44  337  765
[53]  42(B06)  1  8  8  0   -436.1 20460007.6 -0.1  1 0  627  566  720
[57]  46(B10)  1  7  7  0   -843.0 20460018.2 -0.1  1 0  655  762  955
[62]  58(B22)  1  7  7  0   -423.3 20460009.5 -0.1  1 0  529  235  341
$GNGGA,023140.958,2944.9104,N,10633.0969,E,1,05,1.3,324.5,M,,,,0000*10
$GNRMC,023140.958,A,2944.9104,N,10633.0969,E,0.92,0.00,150419,,*18
$GPGSA,A,3,,,,,,,,,,,,,2.7,1.3,2.4*33
$BDGSA,A,3,,,,,,,,,,,,,2.7,1.3,2.4*22
$GLGSA,A,3,02,09,10,12,21,,,,,,,,2.7,1.3,2.4*25
$GPGSV,3,1,10,03,00,000,40,14,00,000,42,16,00,000,44,22,00,000,41*7C
$GPGSV,3,2,10,23,00,000,40,26,00,000,46,27,00,000,39,31,00,000,45*76
$GPGSV,3,3,10,32,00,000,41,29,00,000,33*77
$BDGSV,3,1,12,01,00,000,42,02,00,000,41,03,00,000,43,04,00,000,40*6D
$BDGSV,3,2,12,05,00,000,39,06,00,000,42,07,00,000,43,09,00,000,43*6B
$BDGSV,3,3,12,10,00,000,43,16,00,000,44,18,00,000,44,19,00,000,43*6C
$B3CN0,0,0,0,0,0,0,0,0,0,0,0,0,0,0*4C
$GLGSV,2,1,05,08,00,000,47,20,00,000,39,01,00,000,44,11,00,000,39*6B
$GLGSV,2,2,05,09,00,000,45*58
---00000031--- Acq_st=7 0  2019-4-15 2:31:41 
[00]  02(G03)  f 40  7  0   -173.2  2046000.2  0.1  2 0 1182 1606 1030
[01]  13(G14)  f 43  7  0   1054.1  2045998.6  0.0  2 0 1576 2514 1205
[02]  15(G16)  f 44  7  0  -2331.0  2046003.0  0.1  2 0 1607 2920 1627
[03]  21(G22)  f 41  7  0    651.6  2045999.1  0.1  2 0  813 1998 1038
[04]  22(G23)  f 41  7  0  -4294.4  2046005.5 -0.1  2 0 1041 1644  741
[05]  25(G26)  f 46  7  0   -166.3  2046000.2  0.0  2 0 3758 5630 2595
[06]  26(G27)  f 39  7  0  -4704.8  2046006.0  0.0  2 0 1207 1551  671
[08]  30(G31)  f 45  7  0    363.6  2045999.5  0.0  2 0 2139 3393 1525
[09]  31(G32)  f 41  7  0   1965.7  2045997.4  0.0  2 0 1589 2055  967
[10]  28(G29)  7 33  7  0    979.4  2045998.6 -0.1  5 0  235  694  349
[16]  37(B01) 1f 41 10  0  -1128.8  4092002.9  0.2  2 0  891 1491  971
[17]  38(B02) 1f 40 21  0  -1078.6  4092002.7 -0.0  2 0 1337 1431  878
[18]  39(B03) 1f 43 28  0  -1124.3  4092002.8  0.2  2 0 1866 2112  946
[19]  40(B04) 1f 41 18  0  -1122.1  4092002.8 -0.0  2 0 1233 1815  839
[20]  41(B05) 1f 38 27  0  -1070.0  4092002.7 -0.4  2 0  654  888  219
[21]  42(B06) 1f 42  7  0   -548.6  4092001.3  0.0  2 0 1428 1628  357
[22]  43(B07) 1f 43  7  0   -843.9  4092002.1  0.0  2 0 2251 2736 1171
[24]  45(B09) 1f 43  7  0  -1116.1  4092002.8  0.0  2 0 1921 2602 1433
[25]  46(B10) 1f 43 10  0  -1089.6  4092002.7 -0.0  2 0 1861 2657 1055
[26]  52(B16) 1f 43  7  0   -595.3  4092001.4  0.0  2 0 2255 2292  801
[27]  54(B18) 1f 44  7  0   -956.3  4092002.4  0.0  2 0 2108 3034 1448
[28]  55(B19) 1f 43  7  0   1792.9  4091995.1 -0.1  2 0 2148 2704 1249
[29]  65(B29) 1f 38  7  0  -3932.1  4092010.2 -0.2  2 0  342 1137  704
[30]  58(B22) 1f 44  8  0   -623.3  4092001.5  0.0  2 0 1893 2489 1014
[32]  75(N-6) 8f 47  7  0  -1381.8  1022000.9 -0.1  2 0  1398 2791 1533
[33]  76(N-5)  f 30  9  0   2350.8  1021998.5  0.1  5 0  1532 2216  925
[34]  79(N-2) 8f 38  7  0  -4114.7  1022002.6 -0.1  2 0   655  948  375
[35]  80(N-1) 8f 44  7  0  -4370.3  1022002.8 -0.0  2 0   896 1436  541
[36]  81(N00) 8f 39  7  0  -2789.1  1022001.8 -0.3  2 0   343  771  317
[37]  83(N02) 8f 45  7  0   1326.6  1021999.1  0.0  2 0   925 2135 1129
[38]  86(N05)  7 14 21  1  -4167.8  1022002.7  0.2 10 0   217  133   27
[48]  37(B01)  1 10 10  1    449.4 20460018.6 -0.1  1 0  434  495   75
[49]  38(B02)  1 13 10  1   -491.5 20460020.7  0.0  1 0  507  509  604
[51]  40(B04)  1 24 24  0  -1228.0 20460022.4  0.0  1 0  120  705  202
[52]  41(B05)  1 26 18  0     91.1 20460019.2  0.1  1 0   48  645  264
[53]  42(B06)  1  7  7  0   -232.3 20460006.6  0.1  1 0  217  391  367
[54]  43(B07)  1 11  7  0   -226.4 20460013.1  0.0  1 0  137  357  589
[56]  45(B09)  1  7  7  0  -1007.2 20460017.1 -0.1  1 0  547  589  750
[57]  46(B10)  1  7  7  0  -1030.4 20460018.2 -0.0  1 0  554  331  160
[58]  52(B16)  1  7  7  0   -292.8 20460008.9  0.1  1 0  745  317  150
[59]  54(B18)  1  7  7  0   -942.8 20460014.9 -0.0  1 0  657  419  744
[60]  55(B19)  1  7  7  0   1723.3 20459970.2 -0.2  1 0  414  358  276
[61]  65(B29)  1  7  7  0  -3120.7 20460063.4 -0.0  1 0  546  376  292
[62]  58(B22)  1  7  7  0    -87.3 20460010.5 -0.2  1 0  630  270   57
Refix G31: 1,  95519.926513, 361
$GNGGA,023142.000,2944.9102,N,10633.0947,E,1,05,1.3,322.5,M,,,,0000*1A
$GNRMC,023142.000,A,2944.9102,N,10633.0947,E,0.96,0.00,150419,,*10
$GPGSA,A,3,,,,,,,,,,,,,2.7,1.3,2.4*33
$BDGSA,A,3,,,,,,,,,,,,,2.7,1.3,2.4*22
$GLGSA,A,3,01,08,09,11,20,,,,,,,,2.7,1.3,2.4*2D
$GPGSV,3,1,10,03,00,000,40,14,00,000,43,16,00,000,44,22,00,000,41*7D
$GPGSV,3,2,10,23,00,000,41,26,00,000,46,27,00,000,39,31,00,000,45*77
$GPGSV,3,3,10,32,00,000,41,29,00,000,33*77
$BDGSV,3,1,12,01,00,000,41,02,00,000,41,03,00,000,43,04,00,000,41*6F
$BDGSV,3,2,12,05,00,000,38,06,00,000,42,07,00,000,43,09,00,000,43*6A
$BDGSV,3,3,12,10,00,000,43,16,00,000,43,18,00,000,44,19,00,000,43*6B
$B3CN0,0,0,0,0,0,0,0,0,0,0,0,0,0,0*4C
$GLGSV,2,1,05,08,00,000,47,20,00,000,38,01,00,000,44,11,00,000,39*6A
$GLGSV,2,2,05,09,00,000,45*58
---00000032--- Acq_st=3 0  2019-4-15 2:31:42 
[00]  02(G03)  f 40 11  0   -148.4  2046000.1  0.2  2 0  979 1675  935
[01]  13(G14)  f 43  7  0   1070.9  2045998.6 -0.0  2 0 2230 3593 1776
[02]  15(G16)  f 43  7  0  -2317.6  2046003.0  0.0  2 0 1480 2868 1622
[03]  21(G22)  f 42  7  0    667.8  2045999.0 -0.1  2 0 1431 2657 1010
[04]  22(G23)  f 42  7  0  -4286.3  2046005.5 -0.0  2 0 1533 2004 1176
[05]  25(G26)  f 46 10  0   -151.1  2046000.1 -0.0  2 0 2578 4472 1922
[06]  26(G27)  f 39 10  0  -4692.7  2046006.0 -0.0  2 0 1317 1922 1098
[08]  30(G31)  f 45  7  0    378.8  2045999.5 -0.0  2 0 2331 3037 1653
[09]  31(G32)  f 42  9  0   1979.5  2045997.4  0.1  2 0 1661 2364  925
[10]  28(G29)  7 34 11  0    995.3  2045998.6  0.0  5 0  762  726  233
[16]  37(B01) 1f 41 21  0  -1112.9  4092002.7  0.6  2 0 1483 1497  428
[17]  38(B02) 1f 40 26  0  -1067.8  4092002.7  0.1  2 0  927 1306  646
[18]  39(B03) 1f 43 30  0  -1108.2  4092002.8  0.3  2 0 2013 1938  437
[19]  40(B04) 1f 41 16  0  -1104.6  4092002.7  0.1  2 0 1397 1816  603
[20]  41(B05) 1f 38 26  0  -1063.5  4092002.6 -0.3  2 0 1044 1274  906
[21]  42(B06) 1f 42  7  0   -541.0  4092001.3 -0.0  2 0 1993 2006  543
[22]  43(B07) 1f 43  7  0   -828.6  4092002.0  0.0  2 0 2265 2815 1178
[24]  45(B09) 1f 43  7  0  -1100.3  4092002.7  0.0  2 0 2030 2316  872
