i=1
Rf R0 Config = ff777073
Rf R1 Config = 00dffbfe
Rf R52 Config = 00dfef40
i=2
Rf R0 Config = 007772f3
Rf R1 Config = 00df9bf6
Rf R52 Config = 00db0e30
i=3
Rf R0 Config = 007772f3
Rf R1 Config = 00df7bee
Rf R52 Config = 00de2e50
i=4
Rf R0 Config = 00777273
Rf R1 Config = 00dc1bfe
Rf R52 Config = 00de0e00
SD initialized success
Create debug.log Failed! 3
Start Channel by LuYu
$GNGGA,000000.000,,,,,0,00,,,M,,,,0000*2B
$GNRMC,000000.000,A,,,,,,,060180,,*29
$GPGSA,A,1,,,,,,,,,,,,,,,*1E
$BDGSA,A,1,,,,,,,,,,,,,,,*0F
$GLGSA,A,1,,,,,,,,,,,,,,,*02
$B3CN0,0,0,0,0,0,0,0,0,0,0,0,0,0,0*4C
---00000001--- Acq_st=3 0  2019-4-15 2:33:45 
[00]  02(G03)  1 22  7  0    -81.3  2046001.2  0.3  1 0 1425 2442 1412
$GNGGA,000000.000,,,,,0,00,,,M,,,,0000*2B
$GNRMC,000000.000,A,,,,,,,060180,,*29
$GPGSA,A,1,,,,,,,,,,,,,,,*1E
$BDGSA,A,1,,,,,,,,,,,,,,,*0F
$GLGSA,A,1,,,,,,,,,,,,,,,*02
$B3CN0,0,0,0,0,0,0,0,0,0,0,0,0,0,0*4C
---00000002--- Acq_st=3 0  2019-4-15 2:33:46 
[00]  02(G03)  7 20  7  0    -95.8  2046000.0  0.9 10 0 1905 2144 1057
[01]  13(G14)  1 25 12  0   1108.1  2045998.5  0.4  1 0 1395 2056 1096
[02]  15(G16)  1 27  7  0  -2257.4  2046004.4  0.2  1 0 1635 3272 2031
[03]  21(G22)  1  7  7  0    750.0  2046000.6  0.1  1 0 1372 2505 1691
[04]  22(G23)  1  7  7  0  -4250.0  2046007.2 -0.0  1 0  359  430 1447
[05]  25(G26)  1  7  7  0     -0.0  2046002.4 -0.0  1 0  288 2423 4420
[06]  26(G27)  1  7  7  0  -4750.0  2046007.5 -0.0  1 0  400  446 1580
$GNGGA,000000.000,,,,,0,00,,,M,,,,0000*2B
$GNRMC,000000.000,A,,,,,,,060180,,*29
$GPGSA,A,1,,,,,,,,,,,,,,,*1E
$BDGSA,A,1,,,,,,,,,,,,,,,*0F
$GLGSA,A,1,,,,,,,,,,,,,,,*02
$GPGSV,1,1,01,03,00,000,20*49
$B3CN0,0,0,0,0,0,0,0,0,0,0,0,0,0,0*4C
---00000003--- Acq_st=3 0  2019-4-15 2:33:47 
[00]  02(G03)  7 40  7  0   -105.9  2046000.0  0.0  2 0 1410 1816  690
[01]  13(G14)  7 24  7  0   1106.4  2045998.5  0.7 10 0 1579 2465 1153
[02]  15(G16)  7 20  7  0  -2260.1  2046002.8  0.8 10 0 2929 3199 1357
[03]  21(G22)  1 32  7  0    687.2  2045998.8  0.7  1 0 1629 2250  527
[04]  22(G23)  1 31  7  0  -4293.0  2046005.9  0.7  1 0 1459 1979  564
[05]  25(G26)  1 28  7  0   -115.4  2046000.3  0.4  1 0 3131 4566 2313
[06]  26(G27)  1 28  7  0  -4706.4  2046006.4  0.4  1 0 2126 2069  628
[08]  30(G31)  1 23  7  0    368.0  2045999.3  0.1  1 0 2202 3544 1601
[09]  31(G32)  1 29 15  0   1991.6  2045998.7  0.1  1 0 1347 2069  993
[16]  37(B01)  1 14 13  0  -1250.0  4092005.4  0.0  1 0  252  325 1014
[17]  38(B02)  1 20 10  1  -1250.0  4092003.8 -0.2  1 0   41  777 1503
[18]  39(B03)  1 10 35  1  -1000.0  4092002.4  0.1  1 0  277 1592 2201
[19]  40(B04)  1 10 10  0  -1500.0  4092003.6 -0.0  1 0  478 1070  872
$GNGGA,000000.000,,,,,0,00,,,M,,,,0000*2B
$GNRMC,000000.000,A,,,,,,,060180,,*29
$GPGSA,A,1,,,,,,,,,,,,,,,*1E
$BDGSA,A,1,,,,,,,,,,,,,,,*0F
$GLGSA,A,1,,,,,,,,,,,,,,,*02
$GPGSV,1,1,03,03,00,000,40,14,00,000,24,16,00,000,20*4B
$B3CN0,0,0,0,0,0,0,0,0,0,0,0,0,0,0*4C
---00000004--- Acq_st=3 0  2019-4-15 2:33:48 
[00]  02(G03)  7 40  9  0    -92.3  2046000.1  0.1  2 0 1181 2311 1379
[01]  13(G14)  7 43  7  0   1115.3  2045998.5 -0.0  2 0 1453 2646 1429
[02]  15(G16)  7 44  7  0  -2252.8  2046002.8  0.1  2 0 1965 2716  850
[03]  21(G22)  7 33  7  0    700.9  2045999.1  0.3  5 0 1103 1686  695
[04]  22(G23)  7 31  7  0  -4280.4  2046005.4  0.4  5 0  942 1474  489
[05]  25(G26)  7 28  7  0   -105.0  2046000.1  0.6 10 0 2337 4129 2219
[06]  26(G27)  1 33  7  0  -4701.2  2046005.8  1.0  1 0 1133 1901 1057
[08]  30(G31)  7 19  7  0    377.8  2045999.5  0.8 10 0 1489 3545 2300
[09]  31(G32)  7  7  7  0   2005.8  2045997.3  1.0 10 0 1435 1518  495
[16]  37(B01)  1 10 10  1  -1132.0  4092004.5  0.3  1 0  840 1245  510
[17]  38(B02)  1 10 23  1  -1082.6  4092005.5  0.2  1 0 1806 1364  527
[18]  39(B03)  1 10 30  1  -1119.8  4092003.7  0.3  1 0  703 1701 1852
[19]  40(B04)  1 10 10  1  -1616.7  4092003.4 -0.1  1 0 1133  789  322
[20]  41(B05)  1 17 10  0   -648.1  4092001.4  0.1  1 0  175  348  240
[21]  42(B06)  1  7  7  0   -536.0  4092002.1  0.1  1 0 1619 2299 1036
[22]  43(B07)  1  7  8  0   -835.6  4092004.0  0.1  1 0  652 2361 2355
[24]  45(B09)  1  7  7  0  -1031.4  4092005.2  0.1  1 0  528 1172 2265
[25]  46(B10)  1  7  7  0  -1000.0  4092005.1  0.0  1 0  397 1699 2717
$GNGGA,023349.422,,,,,0,00,,,M,,,,0000*20
$GNRMC,023349.422,A,,,,,,,070180,,*23
$GPGSA,A,1,,,,,,,,,,,,,,,*1E
$BDGSA,A,1,,,,,,,,,,,,,,,*0F
$GLGSA,A,1,,,,,,,,,,,,,,,*02
$GPGSV,2,1,07,03,00,000,40,14,00,000,43,16,00,000,44,22,00,000,32*7E
$GPGSV,2,2,07,23,00,000,31,26,00,000,28,31,00,000,19*49
$B3CN0,0,0,0,0,0,0,0,0,0,0,0,0,0,0*4C
---00000005--- Acq_st=3 0  2019-4-15 2:33:49 
[00]  02(G03)  f 40  7  0    -98.7  2046000.1  0.0  2 0  682 1841 1239
[01]  13(G14)  f 43  7  0   1109.7  2045998.5 -0.0  2 0 1064 2346 1079
[02]  15(G16)  f 43  7  0  -2257.8  2046002.9 -0.0  2 0 2328 3099 1439
[03]  21(G22)  f 42  7  0    695.0  2045999.0  0.0  2 0 1441 2270  567
[04]  22(G23)  f 41  7  0  -4284.4  2046005.5 -0.0  2 0 1069 1537  432
[05]  25(G26)  f 46  7  0   -111.6  2046000.1 -0.0  2 0 2463 4060 1627
[06]  26(G27)  7 27  7  0  -4700.8  2046006.1  0.6 10 0 1212 2133 1127
[08]  30(G31)  7 45  7  0    372.5  2045999.5 -0.0  2 0 1751 3386 1942
[09]  31(G32)  7 40 17  0   2001.8  2045997.3  0.0  2 0 1624 1777  349
[16]  37(B01)  7 40 20  0  -1127.6  4092002.7  0.1  2 0 1288 1073  626
[17]  38(B02)  7 32 29  0  -1085.5  4092002.5  0.3  2 0 1329  683  152
[18]  39(B03)  7 10 10  0  -1365.5  4092003.6  0.0  2 0  877 2259 1571
[19]  40(B04)  1 19 24  1  -1898.2  4092004.3 -0.1  1 0  169  260  470
[20]  41(B05)  1 17 10  0   -574.9  4092003.0  0.1  1 0  420  357  248
[21]  42(B06)  7 23  7  0   -537.8  4092001.3  0.4 10 0 1734 2344 1090
[22]  43(B07)  1  7  7  0   -844.3  4092002.0 -0.1  1 0 2352 2847 1066
[24]  45(B09)  1 42  7  0  -1106.3  4092002.9  1.0  1 0 2014 2883 1457
[25]  46(B10)  1  7  7  0  -1086.1  4092002.7  0.1  1 0 2374 2773 1222
[26]  52(B16)  1  7  7  0   -596.5  4092001.5  0.0  1 0 1069 2574 1411
[27]  54(B18)  1  7  7  0  -1000.0  4092004.1  0.0  1 0 1087 3111 2830
[28]  55(B19)  1  7  7  0   1750.0  4091997.1 -0.1  1 0  528 1979 1457
$GNGGA,023350.422,,,,,0,00,,,M,,,,0000*28
$GNRMC,023350.422,A,,,,,,,070180,,*2B
$GPGSA,A,1,,,,,,,,,,,,,,,*1E
$BDGSA,A,1,,,,,,,,,,,,,,,*0F
$GLGSA,A,1,,,,,,,,,,,,,,,*02
$GPGSV,3,1,09,03,00,000,40,14,00,000,43,16,00,000,43,22,00,000,42*71
$GPGSV,3,2,09,23,00,000,40,26,00,000,46,27,00,000,27,31,00,000,45*71
$GPGSV,3,3,09,32,00,000,40*45
$BDGSV,1,1,03,01,00,000,40,02,00,000,32,06,00,000,22*5B
$B3CN0,0,0,0,0,0,0,0,0,0,0,0,0,0,0*4C
---00000006--- Acq_st=3 0  2019-4-15 2:33:50 
[00]  02(G03)  f 40  7  0    -92.7  2046000.0  0.1  2 0 1029 1568  404
[01]  13(G14)  f 43  7  0   1113.0  2045998.5  0.0  2 0 1529 2133  960
[02]  15(G16)  f 43  7  0  -2253.6  2046002.9  0.0  2 0 2134 2522 1193
[03]  21(G22)  f 42  7  0    699.5  2045999.0 -0.0  2 0 1595 2144  647
[04]  22(G23)  f 40  7  0  -4281.7  2046005.5 -0.1  2 0  896 1619 1355
[05]  25(G26)  f 45  7  0   -107.1  2046000.1  0.0  2 0 2857 3843 1741
[06]  26(G27)  7 41  7  0  -4694.1  2046006.1  0.1  2 0  835 1542  553
[08]  30(G31)  7 45  7  0    375.7  2045999.5 -0.0  2 0 2336 3589 1117
[09]  31(G32)  7 41 18  0   2007.5  2045997.3 -0.1  2 0 1813 2748 1536
[16]  37(B01)  f 40 10  0  -1126.4  4092002.8  0.8  2 0 1271 1582  681
[17]  38(B02)  f 34 26  0  -1086.9  4092002.6 -0.5  2 0 1876  782  357
[18]  39(B03)  7 10 10  0  -1368.7  4092003.4 -0.1  2 0 1938 1521  446
[19]  40(B04)  1 22 13  1  -1439.0  4092004.4  0.1  1 0  501  498  602
[20]  41(B05)  1 10 26  1   -837.2  4092003.3 -0.1  1 0  326  305  318
[21]  42(B06)  7 43  7  0   -531.7  4092001.3 -0.1  2 0 1685 2354 1316
[22]  43(B07)  1  7  7  0   -839.7  4092001.9  0.1  1 0 1561 3129 1223
[24]  45(B09)  7 38  7  0  -1097.9  4092002.8  0.1  2 0 2046 2602 1005
[25]  46(B10)  7 35  7  0  -1079.9  4092002.7  0.2  2 0 1997 2569  859
[26]  52(B16)  1  7  7  0   -578.7  4092001.4  0.6  1 0 1292 2965 1713
[27]  54(B18)  1  7  7  0   -958.5  4092002.3  0.4  1 0 2712 3377 1237
[28]  55(B19)  1  7  7  0   1820.9  4091994.9  0.1  1 0 1736 2065  883
[29]  57(B21)  1  7 11  0  -3159.2  4092008.5  0.1  1 0 1469 2286 1198
[30]  58(B22)  1  7  7  0   -557.4  4092004.1  0.2  1 0  686 2428 2156
$GNGGA,023351.422,,,,,0,00,,,M,,,,0000*29
$GNRMC,023351.422,A,,,,,,,070180,,*2A
$GPGSA,A,1,,,,,,,,,,,,,,,*1E
$BDGSA,A,1,,,,,,,,,,,,,,,*0F
$GLGSA,A,1,,,,,,,,,,,,,,,*02
$GPGSV,3,1,09,03,00,000,40,14,00,000,43,16,00,000,43,22,00,000,42*71
$GPGSV,3,2,09,23,00,000,40,26,00,000,45,27,00,000,41,31,00,000,45*72
$GPGSV,3,3,09,32,00,000,41*44
$BDGSV,2,1,05,01,00,000,40,02,00,000,34,06,00,000,43,09,00,000,38*6D
$BDGSV,2,2,05,10,00,000,35*5A
$B3CN0,0,0,0,0,0,0,0,0,0,0,0,0,0,0*4C
---00000007--- Acq_st=3 0  2019-4-15 2:33:51 
[00]  02(G03)  f 41  7  0    -89.9  2046000.1  0.0  2 0  790 2030  930
[01]  13(G14)  f 43  7  0   1114.5  2045998.5 -0.0  2 0 1925 2535 1336
[02]  15(G16)  f 43  7  0  -2249.7  2046002.9  0.1  2 0 1702 3063  994
[03]  21(G22)  f 42  8  0    701.1  2045999.1  0.0  2 0 1405 2411  867
[04]  22(G23)  f 41  7  0  -4277.7  2046005.4  0.0  2 0 1452 2320  909
[05]  25(G26)  f 45  7  0   -103.9  2046000.1  0.0  2 0 2512 4718 2321
[06]  26(G27)  7 40  7  0  -4695.6  2046006.0 -0.0  2 0 1198 2115 1212
[08]  30(G31)  7 45  7  0    377.1  2045999.5 -0.0  2 0 1622 3005  868
[09]  31(G32)  7 40 17  0   2005.1  2045997.3  0.0  2 0 1465 1967  786
[16]  37(B01) 1f 40 26  0  -1126.6  4092002.7  0.3  2 0 1452 1377  495
[17]  38(B02) 1f 38 25  0  -1076.7  4092002.6  0.2  2 0 1453  987  544
[18]  39(B03)  7 10 10  0  -1370.9  4092003.3  0.1  2 0 1948  776  509
[19]  40(B04)  1 14 20  0   -638.7  4092005.0 -0.1  1 0  273  276  168
[20]  41(B05)  7 18 36  1   -786.8  4092002.1 -0.1  2 0  694  151  345
[21]  42(B06)  7 43  7  0   -528.7  4092001.3  0.0  2 0 1970 2152  924
[22]  43(B07)  7 20  7  0   -835.7  4092002.2  0.5 10 0 1911 2963 1207
[24]  45(B09)  7 43  7  0  -1096.4  4092002.8 -0.0  2 0 1991 2725 1037
[25]  46(B10)  7 43  7  0  -1077.8  4092002.7 -0.1  2 0 1786 2662 1108
[26]  52(B16)  7 39  7  0   -574.2  4092001.5 -0.1  2 0 1880 2968 1768
[27]  54(B18)  7 32  7  0   -951.7  4092002.4  0.3  5 0 2293 3357 1973
[28]  55(B19)  7 30  7  0   1824.1  4091995.1  0.2  5 0 1535 2664 1013
[29]  57(B21)  7 26  7  0  -3155.6  4092008.2  0.2 10 0 1684 2613 1133
[30]  58(B22)  7 24  7  0   -551.4  4092001.3  0.3 10 0 2190 2081  777
[32]  75(N-6)  1  7  7  0   4637.5  1022002.1  0.0  1 0   534 1807 2782
[48]  37(B01)  1 10 10  0  -1168.0 20460020.7 -0.0  1 0  482  325  681
$GNGGA,023352.422,,,,,0,00,,,M,,,,0000*2A
$GNRMC,023352.422,A,,,,,,,070180,,*29
$GPGSA,A,1,,,,,,,,,,,,,,,*1E
$BDGSA,A,1,,,,,,,,,,,,,,,*0F
$GLGSA,A,1,,,,,,,,,,,,,,,*02
$GPGSV,3,1,09,03,00,000,41,14,00,000,43,16,00,000,43,22,00,000,42*70
$GPGSV,3,2,09,23,00,000,41,26,00,000,45,27,00,000,40,31,00,000,45*72
$GPGSV,3,3,09,32,00,000,40*45
$BDGSV,3,1,12,01,00,000,40,02,00,000,38,05,00,000,19,06,00,000,43*69
$BDGSV,3,2,12,07,00,000,18,09,00,000,43,10,00,000,43,16,00,000,38*60
$BDGSV,3,3,12,18,00,000,31,19,00,000,30,21,00,000,25,22,00,000,23*6E
$B3CN0,0,0,0,0,0,0,0,0,0,0,0,0,0,0*4C
---00000008--- Acq_st=3 0  2019-4-15 2:33:52 
[00]  02(G03)  f 41  7  0    -99.8  2046000.1 -0.1  2 0  996 1547  508
[01]  13(G14)  f 42  7  0   1111.3  2045998.5  0.0  2 0 1068 2807 1721
[02]  15(G16)  f 43  7  0  -2260.1  2046002.9 -0.1  2 0 1551 2764 1472
[03]  21(G22)  f 41  7  0    696.4  2045999.0 -0.0  2 0 1183 2406  927
[04]  22(G23)  f 40  7  0  -4279.7  2046005.5 -0.0  2 0 1209 1457  121
[05]  25(G26)  f 45  7  0   -110.9  2046000.1 -0.0  2 0 3068 4498 2339
[06]  26(G27)  7 40  9  0  -4699.2  2046006.0 -0.0  2 0 1622 2287 1225
[08]  30(G31)  7 44  7  0    371.5  2045999.5  0.0  2 0 1779 3420 1583
[09]  31(G32)  7 40 16  0   2001.1  2045997.3  0.0  2 0 1928 2593  936
[16]  37(B01) 1f 39 10  0  -1135.6  4092002.8  0.0  2 0 1544 1555  746
[17]  38(B02) 1f 37 28  0  -1084.3  4092002.5  0.8  2 0 1077  671   81
[20]  41(B05)  7 10 28  1  -1011.9  4092002.4  0.1  2 0  459  614  381
[21]  42(B06) 1f 42  7  0   -533.8  4092001.3  0.0  2 0 1460 2111  769
[22]  43(B07)  7 44  8  0   -841.7  4092002.2  0.0  2 0 1388 2619 1270
[24]  45(B09) 1f 43  7  0  -1099.5  4092002.8 -0.1  2 0 1816 1970  723
[25]  46(B10) 1f 43  7  0  -1083.6  4092002.7  0.1  2 0 1503 2332  660
[26]  52(B16)  7 43  7  0   -581.5  4092001.5  0.1  2 0 1390 2448 1478
[27]  54(B18)  7 44  7  0   -957.5  4092002.4 -0.1  2 0 2647 3460 1505
[28]  55(B19)  7 42  7  0   1820.1  4091995.1 -0.1  2 0 1421 2075 1438
[29]  57(B21)  7 44 11  0  -3160.6  4092008.2  0.1  2 0 1766 2369 1009
[30]  58(B22)  7 44  8  0   -554.3  4092001.3  0.0  2 0 2473 2807  938
[32]  75(N-6)  1 27  7  0  -1265.9  1022001.1  1.0  1 0  1807 3022 1265
[33]  76(N-5)  1 27 14  0   2416.5  1021998.7  0.8  1 0  1547 1963  745
[34]  79(N-2)  1 21  7  0  -4079.0  1022004.3  0.1  1 0    32  348  412
[35]  80(N-1)  1 27  9  0  -4302.5  1022004.8  0.3  1 0   415 1336 1380
[36]  81(N00)  1 14 24  0  -3041.3  1022001.7  0.1  1 0   111  484  250
[37]  83(N02)  1 22  7  0   1250.0  1022000.9 -0.0  1 0   742 1799 1072
[38]  86(N05)  1  7  7  0  -3949.4  1022004.1 -0.1  1 0   220  950 1602
[48]  37(B01)  7 18 10  1  -1963.2 20460032.9 -0.0  2 0   63  400  236
[49]  38(B02)  1 19 16  1   -976.3 20460018.2  0.0  1 0  315  309  289
$GNGGA,023353.422,,,,,0,00,,,M,,,,0000*2B
$GNRMC,023353.422,A,,,,,,,070180,,*28
$GPGSA,A,1,,,,,,,,,,,,,,,*1E
$BDGSA,A,1,,,,,,,,,,,,,,,*0F
$GLGSA,A,1,,,,,,,,,,,,,,,*02
$GPGSV,3,1,09,03,00,000,41,14,00,000,42,16,00,000,43,22,00,000,41*72
$GPGSV,3,2,09,23,00,000,40,26,00,000,45,27,00,000,41,31,00,000,44*73
$GPGSV,3,3,09,32,00,000,40*45
$BDGSV,3,1,11,01,00,000,40,02,00,000,38,06,00,000,42,07,00,000,44*61
$BDGSV,3,2,11,09,00,000,43,10,00,000,43,16,00,000,43,18,00,000,44*68
$BDGSV,3,3,11,19,00,000,42,21,00,000,44,22,00,000,44*55
$B3CN0,0,0,0,0,0,0,0,0,0,0,0,0,0,0*4C
---00000009--- Acq_st=7 0  2019-4-15 2:33:53 
[00]  02(G03)  f 41  7  0    -73.3  2046000.0 -0.0  2 0  807 1919  989
[01]  13(G14)  f 43  7  0   1131.4  2045998.5 -0.0  2 0 1061 2117 1144
[02]  15(G16)  f 44  7  0  -2228.7  2046002.9 -0.0  2 0 1976 2791  966
[03]  21(G22)  f 42  7  0    723.2  2045999.0 -0.0  2 0 1687 2284  981
[04]  22(G23)  f 40  7  0  -4262.5  2046005.4 -0.0  2 0 1342 1564  494
[05]  25(G26)  f 45  7  0    -81.1  2046000.0 -0.0  2 0 2717 3845 2121
[06]  26(G27)  7 41  9  0  -4671.1  2046006.0 -0.0  2 0 1211 1696  713
[08]  30(G31)  7 44  7  0    398.3  2045999.4  0.0  2 0 2085 3900 1626
[09]  31(G32)  7 41 15  0   2026.0  2045997.3 -0.0  2 0 1767 1959 1016
[16]  37(B01) 1f 41 10  0  -1106.7  4092002.8  0.2  2 0 1788 2388 1251
[17]  38(B02) 1f 39 28  0  -1057.3  4092002.5  0.4  2 0 1543 1042  235
[20]  41(B05)  7 19 30  1  -1008.0  4092002.5  0.1  2 0  349  257  217
[21]  42(B06) 1f 42  7  0   -513.2  4092001.2 -0.0  2 0 1568 2185 1191
[22]  43(B07)  7 44  7  0   -820.1  4092002.1 -0.0  2 0 2116 3109 1314
[24]  45(B09) 1f 43  7  0  -1075.6  4092002.7  0.0  2 0 1486 2020 1397
[25]  46(B10) 1f 43  7  0  -1058.9  4092002.7  0.0  2 0 1858 2864 1946
[26]  52(B16)  7 44  7  0   -553.9  4092001.4 -0.0  2 0 1830 2672 1147
[27]  54(B18)  7 44  7  0   -933.4  4092002.3  0.0  2 0 2583 3594 1335
[28]  55(B19)  7 42  7  0   1845.1  4091995.1 -0.0  2 0 1586 2235 1092
[29]  57(B21)  7 43  7  0  -3135.8  4092008.1  0.0  2 0 2056 2319  731
[30]  58(B22)  7 44  7  0   -531.2  4092001.2 -0.0  2 0 2119 2163  948
[32]  75(N-6)  7 40  7  0  -1237.6  1022000.7 -0.0  2 0  1317 2761 1352
[33]  76(N-5)  7 35 16  0   2444.4  1021998.3  0.2  2 0  1216 1678  787
[34]  79(N-2)  1 25 18  0  -4055.7  1022002.7  0.7  1 0   498  357  103
[35]  80(N-1)  1 26  7  0  -4276.2  1022002.6  0.9  1 0  1480 1786  478
[36]  81(N00)  1 23 11  0  -2718.5  1022001.8  0.1  1 0   310  328  308
[37]  83(N02)  1 29 22  0   1342.2  1021999.0  1.0  1 0  1377 1663  882
[38]  86(N05)  1 34 23  0  -3778.4  1022002.6  1.0  1 0  1012 1613  725
[48]  37(B01)  7 17 14  0  -2088.4 20460033.1  0.0  2 0   76  250  362
[49]  38(B02)  1 10 10  0   -769.6 20460019.0  0.0  1 0  865  532  224
[53]  42(B06)  1  7  7  0   -329.2 20460005.5 -0.1  1 0  465  491 1119
[56]  45(B09)  1 23  9  0   -886.7 20460013.5  0.0  1 0  792  490  378
[57]  46(B10)  1  7  7  0   -856.4 20460015.9 -0.1  1 0  513   93  263
$GNGGA,023354.422,,,,,0,00,,,M,,,,0000*2C
$GNRMC,023354.422,A,,,,,,,070180,,*2F
$GPGSA,A,1,,,,,,,,,,,,,,,*1E
$BDGSA,A,1,,,,,,,,,,,,,,,*0F
$GLGSA,A,1,,,,,,,,,,,,,,,*02
$GPGSV,3,1,09,03,00,000,41,14,00,000,43,16,00,000,44,22,00,000,42*77
$GPGSV,3,2,09,23,00,000,40,26,00,000,45,27,00,000,41,31,00,000,44*73
$GPGSV,3,3,09,32,00,000,42*47
$BDGSV,3,1,11,01,00,000,41,02,00,000,38,06,00,000,42,07,00,000,44*60
$BDGSV,3,2,11,09,00,000,43,10,00,000,43,16,00,000,44,18,00,000,44*6F
$BDGSV,3,3,11,19,00,000,42,21,00,000,43,22,00,000,44*52
$B3CN0,16,0,0,0,0,0,0,0,0,0,0,0,0,0*7B
---00000010--- Acq_st=7 0  2019-4-15 2:33:54 
[00]  02(G03)  f 40  7  0    -75.4  2046000.1 -0.0  2 0 1202 1885  964
[01]  13(G14)  f 43  7  0   1129.0  2045998.5 -0.0  2 0 1830 2818 1139
[02]  15(G16)  f 43  7  0  -2237.9  2046002.8 -0.0  2 0 1897 3092 1826
[03]  21(G22)  f 42  7  0    713.3  2045999.0  0.0  2 0 1086 1910  985
[04]  22(G23)  f 40  7  0  -4257.4  2046005.5  0.0  2 0 1287 1851  451
[05]  25(G26)  f 45  7  0    -88.2  2046000.1  0.0  2 0 2921 4231 2388
[06]  26(G27)  7 41 14  0  -4681.3  2046006.0 -0.0  2 0  756 1794  530
[08]  30(G31)  7 44  7  0    392.0  2045999.4  0.0  2 0 1798 3340 1734
[09]  31(G32)  7 40 14  0   2024.8  2045997.3 -0.1  2 0 1529 2350 1075
[16]  37(B01) 1f 41 14  0  -1107.0  4092002.7 -0.4  2 0 1485 1390  745
[17]  38(B02) 1f 39 25  0  -1058.4  4092002.5  0.8  2 0 1514 1587  411
[20]  41(B05)  7 10 30  1   -973.9  4092002.5 -0.2  2 0  986  608   62
[21]  42(B06) 1f 42  7  0   -518.1  4092001.2  0.1  2 0 1789 2365 1242
[22]  43(B07)  7 43  7  0   -819.3  4092002.0  0.0  2 0 1733 2667 1330
[24]  45(B09) 1f 43  7  0  -1080.0  4092002.7  0.0  2 0 2012 2319  716
[25]  46(B10) 1f 43  7  0  -1064.3  4092002.6  0.0  2 0 2327 3048 1153
[26]  52(B16)  7 43  7  0   -559.1  4092001.3 -0.0  2 0 2145 3172 1106
[27]  54(B18)  7 44  7  0   -936.5  4092002.4  0.0  2 0 1722 2641  918
[28]  55(B19)  7 42  7  0   1836.8  4091995.1  0.0  2 0 1739 1782  522
[29]  57(B21)  7 43  7  0  -3140.2  4092008.1  0.1  2 0 1797 2245  635
[30]  58(B22)  7 43  8  0   -534.8  4092001.3 -0.0  2 0 2775 2750  603
[32]  75(N-6)  7 48  7  0  -1242.7  1022000.8 -0.2  2 0  1663 2840 1311
[33]  76(N-5)  7 47 17  0   2437.9  1021998.4  0.1  2 0  1006 1931  986
[34]  79(N-2)  7 20  7  0  -4060.8  1022002.6  0.6 10 0   274  688  530
[35]  80(N-1)  7  7  7  0  -4279.4  1022002.7  0.9 10 0   965 1726  950
[36]  81(N00)  7 34 12  0  -2739.3  1022001.9 -0.1  5 0   185  416  423
[37]  83(N02)  1 31 25  0   1337.8  1021999.1  1.0  1 0  1075 1829 1171
[38]  86(N05)  7 44 26  0  -3781.8  1022002.4  0.3  2 0   974 1649  750
[48]  37(B01)  7 13 10  0  -2268.2 20460034.4  0.1  2 0  532  450  308
[49]  38(B02)  f 10 16  0   -533.2 20460008.0  0.1  2 0  423  558  589
[53]  42(B06)  1  7  7  0   -623.6 20460005.6 -0.0  1 0  278  403  631
[56]  45(B09)  1  7  7  0  -1337.8 20460016.0 -0.2  1 0  284  392  354
[57]  46(B10)  1  7  7  0   -389.9 20460018.5 -0.1  1 0  477  510  254
$GNGGA,023355.422,,,,,0,00,,,M,,,,0000*2D
$GNRMC,023355.422,A,,,,,,,070180,,*2E
$GPGSA,A,1,,,,,,,,,,,,,,,*1E
$BDGSA,A,1,,,,,,,,,,,,,,,*0F
$GLGSA,A,1,,,,,,,,,,,,,,,*02
$GPGSV,3,1,09,03,00,000,40,14,00,000,43,16,00,000,43,22,00,000,42*71
$GPGSV,3,2,09,23,00,000,40,26,00,000,45,27,00,000,41,31,00,000,44*73
$GPGSV,3,3,09,32,00,000,40*45
$BDGSV,3,1,11,01,00,000,41,02,00,000,39,06,00,000,42,07,00,000,43*66
$BDGSV,3,2,11,09,00,000,43,10,00,000,43,16,00,000,43,18,00,000,44*68
$BDGSV,3,3,11,19,00,000,42,21,00,000,43,22,00,000,43*55
$B3CN0,17,18,0,0,0,0,0,0,0,0,0,0,0,0*43
---00000011--- Acq_st=3 0  2019-4-15 2:33:55 
[00]  02(G03)  f 40 10  0    -91.7  2046000.0  0.0  2 0 1414 1961  253
[01]  13(G14)  f 42  7  0   1114.8  2045998.5 -0.0  2 0 1170 1835  734
[02]  15(G16)  f 43  7  0  -2247.1  2046002.9  0.0  2 0 2368 3378 1519
[03]  21(G22)  f 42 10  0    702.6  2045999.0  0.0  2 0 2088 2911 1095
[04]  22(G23)  f 40  7  0  -4276.5  2046005.5  0.1  2 0  996 1780  997
[05]  25(G26)  f 45  7  0   -104.2  2046000.1 -0.0  2 0 2554 4435 1859
[06]  26(G27)  f 40  9  0  -4694.8  2046006.0  0.0  2 0  884 2068 1051
[08]  30(G31)  f 44  7  0    378.1  2045999.5  0.0  2 0 1738 2871 1129
[09]  31(G32)  f 41 14  0   2007.5  2045997.3  0.0  2 0 1276 2080 1394
[16]  37(B01) 1f 41 19  0  -1122.1  4092002.8  0.1  2 0 1317 1366  534
[17]  38(B02) 1f 40 28  0  -1081.8  4092002.7 -0.1  2 0 1023 1241  731
[20]  41(B05)  7 10 22  0  -1092.3  4092002.8 -0.1  2 0  321   71  238
[21]  42(B06) 1f 42  7  0   -533.4  4092001.3  0.0  2 0 1540 1963  787
[22]  43(B07)  7 43  7  0   -835.1  4092002.1 -0.0  2 0 2060 2666 1205
[24]  45(B09) 1f 43  7  0  -1094.1  4092002.7 -0.0  2 0 1701 2185  850
[25]  46(B10) 1f 43  7  0  -1074.2  4092002.7 -0.0  2 0 2156 2864 1275
[26]  52(B16)  7 43  8  0   -573.9  4092001.4  0.1  2 0 1933 2490 1225
[27]  54(B18)  7 43  8  0   -952.6  4092002.4 -0.1  2 0 2352 2919 1233
[28]  55(B19)  7 42  7  0   1824.2  4091995.1 -0.0  2 0 1432 1556  710
[29]  57(B21)  7 42  7  0  -3154.2  4092008.2 -0.0  2 0 1777 2473  835
[30]  58(B22)  7 43  7  0   -546.0  4092001.3  0.0  2 0 2111 2675  862
[32]  75(N-6)  7 48 15  0  -1255.6  1022000.8  0.0  2 0  1190 2418 1331
[33]  76(N-5)  7 46 11  0   2422.7  1021998.4 -0.1  2 0  1218 2217  888
[34]  79(N-2)  7 36 16  0  -4077.9  1022002.5 -0.0  2 0   490  656  128
[35]  80(N-1)  7 45  7  0  -4294.6  1022002.7  0.1  2 0  1134 1918  890
[36]  81(N00)  7 34  7  0  -2756.4  1022001.7  0.0  5 0   554  340  207
[37]  83(N02)  7 45 22  0   1324.3  1021999.1  0.1  2 0  1185 1814  944
[38]  86(N05)  7 44 26  0  -3796.9  1022002.3  0.1  2 0  1071 1808  994
[48]  37(B01)  7 14 10  0  -2382.9 20460039.5  0.1  2 0  867  956   77
[49]  38(B02)  f 10 10  1   -562.7 20460007.5  0.1  2 0  327  304  453
[53]  42(B06)  1  7  7  0   -275.2 20460005.8  0.1  1 0  742  929  791
[56]  45(B09)  1 11  8  0  -1249.0 20460015.7  0.1  1 0  416  387  214
[57]  46(B10)  1  7  7  0   -981.4 20460018.2  0.2  1 0  520  529  528
$GNGGA,023356.422,,,,,0,00,,,M,,,,0000*2E
$GNRMC,023356.422,A,,,,,,,070180,,*2D
$GPGSA,A,1,,,,,,,,,,,,,,,*1E
$BDGSA,A,1,,,,,,,,,,,,,,,*0F
$GLGSA,A,1,,,,,,,,,,,,,,,*02
$GPGSV,3,1,09,03,00,000,40,14,00,000,42,16,00,000,43,22,00,000,42*70
$GPGSV,3,2,09,23,00,000,40,26,00,000,45,27,00,000,40,31,00,000,44*72
$GPGSV,3,3,09,32,00,000,41*44
$BDGSV,3,1,11,01,00,000,41,02,00,000,39,06,00,000,42,07,00,000,43*66
$BDGSV,3,2,11,09,00,000,43,10,00,000,43,16,00,000,43,18,00,000,43*6F
$BDGSV,3,3,11,19,00,000,42,21,00,000,42,22,00,000,43*54
$B3CN0,0,0,0,0,0,0,0,0,0,0,0,0,0,0*4C
---00000012--- Acq_st=3 0  2019-4-15 2:33:56 
[00]  02(G03)  f 40  8  0    -85.7  2046000.0 -0.1  2 0 1384 1418  312
[01]  13(G14)  f 42  8  0   1115.5  2045998.5 -0.0  2 0 1448 2583 1109
[02]  15(G16)  f 44  7  0  -2247.4  2046002.9  0.0  2 0 2113 2328  914
[03]  21(G22)  f 42  7  0    705.9  2045999.0  0.0  2 0 1607 2320  832
[04]  22(G23)  f 41  7  0  -4273.6  2046005.5  0.0  2 0 1074 1905  506
[05]  25(G26)  f 45  7  0   -100.0  2046000.1 -0.0  2 0 2253 3712 1664
[06]  26(G27)  f 41  7  0  -4695.7  2046006.0  0.0  2 0 1831 2093  822
[08]  30(G31)  f 44  7  0    377.0  2045999.4 -0.0  2 0 2321 3222 1781
[09]  31(G32)  f 41 14  0   2009.4  2045997.4  0.1  2 0 1652 1987  685
[10]  28(G29)  1  7  7  0   1000.0  2046000.1  0.1  1 0  714  314  766
[16]  37(B01) 1f 40 17  0  -1121.6  4092002.8  0.5  2 0 1639 1534  392
[17]  38(B02) 1f 39 26  0  -1069.0  4092002.7 -0.9  2 0  798 1314  791
[20]  41(B05)  7 10 10  0  -1768.4  4092004.6 -0.1  2 0  622  391  377
[21]  42(B06) 1f 42  7  0   -529.3  4092001.3  0.0  2 0 1470 1992 1181
[22]  43(B07)  7 43  7  0   -832.3  4092002.1 -0.0  2 0 1417 2014 1276
[24]  45(B09) 1f 43  7  0  -1091.2  4092002.8  0.0  2 0 1612 2618 1235
[25]  46(B10) 1f 43  7  0  -1076.6  4092002.7 -0.0  2 0 1739 2612 1067
[26]  52(B16)  7 43  8  0   -570.0  4092001.4 -0.0  2 0 1867 2948 1506
[27]  54(B18)  7 44  7  0   -949.2  4092002.4  0.0  2 0 1871 2563 1245
[28]  55(B19)  7 42  7  0   1829.5  4091995.1  0.0  2 0 1960 2307 1057
[29]  57(B21)  7 43  7  0  -3149.9  4092008.2 -0.0  2 0 1796 2734 1249
[30]  58(B22)  7 43  7  0   -543.9  4092001.3 -0.0  2 0 2263 2608 1082
[32]  75(N-6)  f 31  7  0  -1255.4  1022000.8 -0.2  5 0  1372 2712 1506
[33]  76(N-5)  f 31  7  0   2425.7  1021998.4  0.2  5 0  1298 2101  975
[34]  79(N-2)  7 36 13  0  -4073.8  1022002.6  0.0  2 0   333  387  131
[35]  80(N-1)  7 46 12  0  -4290.1  1022002.7  0.4  2 0   963 1805 1060
[36]  81(N00)  f 28  7  0  -2753.6  1022001.8  0.0  5 0   460  288  120
[37]  83(N02)  7 46 23  0   1326.3  1021999.1 -0.1  2 0  1205 1898  990
[38]  86(N05)  7 44 28  0  -3793.0  1022002.4  0.0  2 0  1127 1859  792
[49]  38(B02)  f 14 10  0   -722.3 20460009.7 -0.0  2 0  196  283  257
[53]  42(B06)  1  7 11  0    391.2 20460007.4 -0.3  1 0  661  184 1149
[56]  45(B09)  1  7  7  0  -1560.2 20460014.4 -0.0  1 0  638  729  347
[57]  46(B10)  1  7  7  0   -723.2 20460018.3  0.0  1 0  466  464  240
$GNGGA,023357.422,,,,,0,00,,,M,,,,0000*2F
$GNRMC,023357.422,A,,,,,,,150419,,*2A
$GPGSA,A,1,,,,,,,,,,,,,,,*1E
$BDGSA,A,1,,,,,,,,,,,,,,,*0F
$GLGSA,A,1,,,,,,,,,,,,,,,*02
$GPGSV,3,1,09,03,00,000,41,14,00,000,43,16,00,000,44,22,00,000,42*77
$GPGSV,3,2,09,23,00,000,40,26,00,000,45,27,00,000,41,31,00,000,44*73
$GPGSV,3,3,09,32,00,000,41*44
$BDGSV,3,1,11,01,00,000,40,02,00,000,40,06,00,000,42,07,00,000,43*69
$BDGSV,3,2,11,09,00,000,43,10,00,000,43,16,00,000,43,18,00,000,43*6F
$BDGSV,3,3,11,19,00,000,42,21,00,000,43,22,00,000,43*55
$B3CN0,0,19,0,0,0,0,0,0,0,0,0,0,0,0*74
---00000013--- Acq_st=3 0  2019-4-15 2:33:57 
[00]  02(G03)  f 40  7  0    -86.5  2046000.0 -0.1  2 0 1174 1821  758
[01]  13(G14)  f 43  7  0   1121.6  2045998.5 -0.1  2 0 1534 2375  941
[02]  15(G16)  f 44  7  0  -2244.0  2046002.9  0.1  2 0 1926 2861  874
[03]  21(G22)  f 41  7  0    707.6  2045999.0  0.0  2 0 1769 2583 1258
[04]  22(G23)  f 40  7  0  -4271.0  2046005.5 -0.0  2 0 1201 1811  817
[05]  25(G26)  f 45  7  0    -98.3  2046000.1  0.0  2 0 2367 4597 2419
[06]  26(G27)  f 41  8  0  -4688.9  2046006.1 -0.0  2 0  922 1402  867
[08]  30(G31)  f 44  7  0    382.8  2045999.4  0.1  2 0 1982 3307 2235
[09]  31(G32)  f 41 16  0   2015.0  2045997.3 -0.1  2 0 1212 2464 1502
[10]  28(G29)  1 25 14  0   1059.3  2045999.3  0.5  1 0  848  857  723
[16]  37(B01) 1f 40 10  0  -1117.8  4092002.7  0.2  2 0 1500 1962  741
[17]  38(B02) 1f 40 23  0  -1075.5  4092002.6 -0.1  2 0 1349 1271  309
[18]  39(B03)  1 45 30  0  -1121.9  4092003.5  0.9  1 0 1703 2765 1357
[19]  40(B04)  1 10 23  0  -1115.7  4092004.7  0.4  1 0  384 1250 1385
[20]  41(B05)  7 10 27  1  -1898.0  4092004.9  0.1  2 0  371  459  225
[21]  42(B06) 1f 42  7  0   -526.4  4092001.2 -0.0  2 0 1580 2313  482
[22]  43(B07)  7 43  7  0   -832.8  4092002.0  0.0  2 0 2017 2518  963
[24]  45(B09) 1f 43  7  0  -1092.3  4092002.7 -0.0  2 0 1639 2188  678
[25]  46(B10) 1f 43  7  0  -1073.0  4092002.7 -0.0  2 0 1402 2622  878
[26]  52(B16)  7 43  7  0   -573.1  4092001.4  0.0  2 0 2271 3022 1601
[27]  54(B18)  7 43  7  0   -945.8  4092002.4 -0.0  2 0 2101 2833 1186
[28]  55(B19) 1f 42  7  0   1826.1  4091995.1 -0.0  2 0 2249 2353  625
[29]  57(B21) 1f 43  7  0  -3146.9  4092008.1  0.0  2 0 1809 2766 1213
[30]  58(B22) 1f 43  9  0   -543.8  4092001.3 -0.0  2 0 2109 2641  974
[32]  75(N-6)  f 48  7  0  -1250.1  1022000.8  0.1  2 0  1398 2599  894
[33]  76(N-5)  f 46  7  0   2430.2  1021998.4 -0.3  2 0  1313 2389 1264
[34]  79(N-2)  7 37 19  0  -4073.1  1022002.5 -0.2  2 0   150  181  388
[35]  80(N-1)  7 45  7  0  -4288.7  1022002.7  0.1  2 0  1011 1819 1059
[36]  81(N00)  f 33  7  0  -2749.3  1022001.7  0.0  5 0   437  328   80
[37]  83(N02)  7 45 25  0   1328.5  1021999.1  0.1  2 0  1110 1946  791
[38]  86(N05)  f 31 20  0  -3790.3  1022002.4 -0.0  5 0  1094 1801  957
[48]  37(B01)  1 19 14  1  -1254.2 20460019.4  0.0  1 0  134   79  178
[49]  38(B02)  f 17 10  1  -1068.6 20460017.6  0.1  2 0  400  566  246
---00000014--- Acq_st=3 0  2019-4-15 2:33:58 
[00]  02(G03)  f 40  7  0    -86.1  2046000.0  0.0  2 0 1599 1523  863
[01]  13(G14)  f 43  7  0   1120.2  2045998.5  0.0  2 0 1750 2634 1428
[02]  15(G16)  f 44  7  0  -2243.9  2046002.9 -0.0  2 0 2194 3113 1441
[03]  21(G22)  f 42  7  0    705.7  2045999.0  0.0  2 0 1286 2164  889
[04]  22(G23)  f 41  7  0  -4275.8  2046005.5  0.1  2 0 1079 1757  778
[05]  25(G26)  f 45  7  0    -96.4  2046000.1 -0.0  2 0 3363 4761 1943
[06]  26(G27)  f 40  7  0  -4694.0  2046006.0  0.1  2 0 1335 1360  815
[08]  30(G31)  f 44  7  0    380.7  2045999.4  0.0  2 0 2448 3328 1434
[09]  31(G32)  f 41 16  0   2011.0  2045997.3  0.0  2 0 1003 2080 1231
[10]  28(G29)  7 27  7  0   1060.0  2045998.5  0.3 10 0  773  668   81
[16]  37(B01) 1f 41 20  0  -1118.2  4092002.9 -0.1  2 0 1240 1753 1244
[17]  38(B02) 1f 39 29  0  -1072.4  4092002.7  0.6  2 0 1385 1288  533
[18]  39(B03)  7 43 30  0  -1113.9  4092002.9 -0.0  2 0 1399 2050  905
[19]  40(B04)  7 41 10  0  -1111.8  4092002.8 -0.2  2 0  777 1088  402
[20]  41(B05)  7 10 30  1  -2003.7  4092005.3 -0.1  2 0  432  474  151
[21]  42(B06) 1f 43  9  0   -528.4  4092001.3  0.0  2 0 1722 1809  660
[22]  43(B07) 1f 43  7  0   -833.3  4092002.1 -0.0  2 0 2088 2660 1135
[24]  45(B09) 1f 44  9  0  -1091.6  4092002.7 -0.0  2 0 2312 2673 1037
[25]  46(B10) 1f 43  7  0  -1074.9  4092002.7 -0.0  2 0 1543 2290 1203
[26]  52(B16) 1f 43  7  0   -571.1  4092001.3  0.0  2 0 2031 2961 1131
[27]  54(B18) 1f 43  7  0   -946.0  4092002.4  0.0  2 0 2447 3308 1614
[28]  55(B19) 1f 42  7  0   1827.6  4091995.1 -0.0  2 0 2061 2143  695
[29]  57(B21) 1f 43  7  0  -3149.9  4092008.1  0.0  2 0 1592 2208 1060
[30]  58(B22) 1f 43  7  0   -542.7  4092001.3 -0.0  2 0 2380 3107 1448
[32]  75(N-6)  f 47  7  0  -1250.0  1022000.8 -0.1  2 0  1692 2675 1241
[33]  76(N-5)  f 46  7  0   2428.9  1021998.4  0.0  2 0  1651 2369  934
[34]  79(N-2)  f 29  7  0  -4070.3  1022002.6  0.3  5 0   358  546    9
[35]  80(N-1)  f 31  7  0  -4288.5  1022002.7 -0.1  5 0  1201 1944  865
[36]  81(N00)  f 34  7  0  -2749.7  1022001.7  0.0  5 0   183  477  354
[37]  83(N02)  f 31 20  0   1327.8  1021999.1  0.1  5 0  1328 2026  805
[38]  86(N05)  f 44 25  0  -3791.5  1022002.4  0.0  2 0   879 1815 1142
[48]  37(B01)  1 14 21  0  -1063.0 20460023.5  0.1  1 0  143  481  570
[53]  42(B06)  1  7  7  0   -360.2 20460007.6  0.1  1 0  889  694  780
[56]  45(B09)  1 20  7  0   -623.2 20460016.4 -0.0  1 0  822  500  333
[57]  46(B10)  1  7  7  0  -1264.0 20460014.5 -0.1  1 0  523  464  229
[60]  55(B19)  1  7  7  0   1329.4 20459972.2 -0.1  1 0  277  483  706
[61]  57(B21)  1  7  7  0  -2608.7 20460050.1  0.0  1 0  104  413  437
[62]  58(B22)  1  7  7  0   -685.2 20460008.8  0.2  1 0  183  185  471
$GNGGA,023358.422,,,,,0,00,,,M,,,,0000*20
$GNRMC,023358.422,A,,,,,,,150419,,*25
$GPGSA,A,1,,,,,,,,,,,,,,,*1E
$BDGSA,A,1,,,,,,,,,,,,,,,*0F
$GLGSA,A,1,,,,,,,,,,,,,,,*02
$GPGSV,3,1,10,03,00,000,40,14,00,000,43,16,00,000,44,22,00,000,42*7E
$GPGSV,3,2,10,23,00,000,41,26,00,000,45,27,00,000,40,31,00,000,44*7B
$GPGSV,3,3,10,32,00,000,41,29,00,000,27*72
$BDGSV,3,1,12,01,00,000,41,02,00,000,39,03,00,000,43,04,00,000,41*60
$BDGSV,3,2,12,06,00,000,43,07,00,000,43,09,00,000,44,10,00,000,43*64
$BDGSV,3,3,12,16,00,000,43,18,00,000,43,19,00,000,42,21,00,000,43*6F
$B3CN0,0,0,0,0,0,0,0,0,0,0,0,0,0,0*4C
---00000015--- Acq_st=3 0  2019-4-15 2:33:59 
[00]  02(G03)  f 40  7  0    -89.6  2046000.1 -0.1  2 0  893 1207  983
[01]  13(G14)  f 43  9  0   1119.0  2045998.5  0.0  2 0 1934 2508  904
[02]  15(G16)  f 43  7  0  -2246.2  2046002.9 -0.0  2 0 1917 2958 1151
[03]  21(G22)  f 42  7  0    702.4  2045999.0  0.0  2 0 1294 2507  894
[04]  22(G23)  f 40  7  0  -4277.8  2046005.5 -0.1  2 0 1077 2434 1702
[05]  25(G26)  f 45  7  0   -100.6  2046000.1 -0.1  2 0 3217 4874 2134
[06]  26(G27)  f 40 13  0  -4693.0  2046006.0 -0.0  2 0  495 1876 1137
[08]  30(G31)  f 44  7  0    379.0  2045999.5  0.0  2 0 2610 3553 1723
[09]  31(G32)  f 42 17  0   2011.3  2045997.3 -0.0  2 0 1284 1826 1002
[10]  28(G29)  7 34  7  0   1059.3  2045998.4  0.0  5 0  901  985  563
[16]  37(B01) 1f 40 20  0  -1123.0  4092002.8 -0.1  2 0 1148 1652  662
[17]  38(B02) 1f 40 26  0  -1076.6  4092002.7  0.3  2 0  799 1210  457
[18]  39(B03)  f 43 30  0  -1117.9  4092002.8 -0.6  2 0 2125 2636 1194
[19]  40(B04)  f 40 22  0  -1116.8  4092002.8 -0.7  2 0 1599 2058  832
[20]  41(B05)  7 10 31  1  -2007.2  4092005.1  0.1  2 0  718  841  509
[21]  42(B06) 1f 42  7  0   -531.9  4092001.3 -0.0  2 0 1467 2334 1247
[22]  43(B07) 1f 43  7  0   -834.0  4092002.1  0.0  2 0 1770 2146  998
[24]  45(B09) 1f 43  9  0  -1092.5  4092002.7  0.0  2 0 2082 2946 1073
[25]  46(B10) 1f 43  7  0  -1076.8  4092002.7 -0.0  2 0 2308 2493  864
[26]  52(B16) 1f 43  7  0   -572.8  4092001.4 -0.0  2 0 2030 2485  651
[27]  54(B18) 1f 44  7  0   -951.7  4092002.4  0.0  2 0 2263 2944  857
[28]  55(B19) 1f 42  7  0   1823.8  4091995.1  0.1  2 0 1763 2468 1093
[29]  57(B21) 1f 43  7  0  -3152.5  4092008.1 -0.0  2 0 1878 2843 1280
[30]  58(B22) 1f 44  7  0   -544.2  4092001.3  0.0  2 0 1805 2626  892
[32]  75(N-6)  f 47  7  0  -1253.1  1022000.8 -0.2  2 0  1772 2716 1051
[33]  76(N-5)  f 46  7  0   2426.2  1021998.4 -0.1  2 0  1037 2074  716
[34]  79(N-2)  f 36  7  0  -4073.0  1022002.4 -0.2  2 0   442  722  355
[35]  80(N-1)  f 45  7  0  -4291.6  1022002.7  0.0  2 0  1172 2095  712
[36]  81(N00)  f 34  7  0  -2756.0  1022001.7 -0.1  5 0   323  492  319
[37]  83(N02)  f 44  7  0   1324.3  1021999.1  0.1  2 0  1091 1969  954
[38]  86(N05)  f 43 25  0  -3794.5  1022002.4  0.0  2 0   841 1805 1115
[48]  37(B01)  1 10 13  1   -808.4 20460022.0 -0.0  1 0  467  326  275
[49]  38(B02)  1 21 14  1   -659.4 20460021.1 -0.1  1 0  457  198  356
[53]  42(B06)  1  7  7  0   -678.9 20460005.9  0.1  1 0  492  605  588
[54]  43(B07)  1  7  7  0   -611.5 20460012.3  0.0  1 0 1043  811  621
[56]  45(B09)  1  7  7  0   -341.5 20460016.3  0.1  1 0  342  459  705
[57]  46(B10)  1  7  7  0  -1643.4 20460015.4  0.0  1 0 1260 1011  213
[58]  52(B16)  1  7  7  0   -481.8 20460008.3  0.0  1 0  688  346  436
[59]  54(B18)  1  7  7  0  -1158.6 20460016.2 -0.2  1 0  810  242  223
[60]  55(B19)  1  8  9  0   1716.5 20459970.6  0.1  1 0  275  198  655
[61]  57(B21)  1  7  7  0  -2492.2 20460050.9 -0.0  1 0  477  297  522
[62]  58(B22)  1  7  7  0   -492.5 20460008.3 -0.1  1 0   35  509  426
$GNGGA,023359.422,,,,,0,00,,,M,,,,0000*21
$GNRMC,023359.422,A,,,,,,,150419,,*24
$GPGSA,A,1,,,,,,,,,,,,,,,*1E
$BDGSA,A,1,,,,,,,,,,,,,,,*0F
$GLGSA,A,1,,,,,,,,,,,,,,,*02
$GPGSV,3,1,10,03,00,000,40,14,00,000,43,16,00,000,43,22,00,000,42*79
$GPGSV,3,2,10,23,00,000,40,26,00,000,45,27,00,000,40,31,00,000,44*7A
$GPGSV,3,3,10,32,00,000,42,29,00,000,34*73
$BDGSV,3,1,12,01,00,000,40,02,00,000,40,03,00,000,43,04,00,000,40*6E
$BDGSV,3,2,12,06,00,000,42,07,00,000,43,09,00,000,43,10,00,000,43*62
$BDGSV,3,3,12,16,00,000,43,18,00,000,44,19,00,000,42,21,00,000,43*68
$B3CN0,0,0,0,0,0,0,0,0,0,0,0,0,0,0*4C
---00000016--- Acq_st=7 0  2019-4-15 2:34:0 
[00]  02(G03)  f 40  7  0    -88.4  2046000.1  0.0  2 0  986 2310 1245
[01]  13(G14)  f 43  8  0   1112.6  2045998.5  0.0  2 0 1776 2575  979
[02]  15(G16)  f 43  7  0  -2251.4  2046002.9  0.0  2 0 1516 3238 1500
[03]  21(G22)  f 42  7  0    699.9  2045999.0  0.1  2 0 1746 2798  807
[04]  22(G23)  f 41  7  0  -4280.8  2046005.5  0.0  2 0 1228 1985  690
[05]  25(G26)  f 45  9  0   -103.0  2046000.1 -0.0  2 0 2197 4139 1975
[06]  26(G27)  f 40  9  0  -4699.3  2046006.1 -0.0  2 0 1322 1434  368
[08]  30(G31)  f 44 10  0    373.2  2045999.5 -0.0  2 0 1724 3159 1670
[09]  31(G32)  f 42 14  0   2005.9  2045997.4 -0.0  2 0 1173 1925 1267
[10]  28(G29)  7 34  7  0   1050.3  2045998.5  0.1  2 0  769  917  387
[16]  37(B01) 1f 41 13  0  -1129.7  4092002.9  0.2  2 0 1521 1331  191
[17]  38(B02) 1f 39 26  0  -1077.8  4092002.8 -0.4  2 0 1434 1770  777
[18]  39(B03) 1f 43 31  0  -1118.9  4092002.8  0.1  2 0 1640 2032 1275
[19]  40(B04) 1f 40 24  0  -1117.7  4092002.9 -0.3  2 0 1091 1196  829
[20]  41(B05)  7 10 30  1  -2001.4  4092005.3 -0.0  2 0  137  621  307
[21]  42(B06) 1f 43  8  0   -533.2  4092001.3  0.0  2 0 1889 2412  982
[22]  43(B07) 1f 43  7  0   -839.3  4092002.1 -0.0  2 0 1463 2092 1124
[24]  45(B09) 1f 43  7  0  -1098.7  4092002.7  0.0  2 0 2197 2750  984
[25]  46(B10) 1f 43  7  0  -1081.3  4092002.7  0.0  2 0 1619 2107  714
[26]  52(B16) 1f 44  7  0   -576.0  4092001.4 -0.0  2 0 2188 2832 1179
[27]  54(B18) 1f 44  7  0   -956.7  4092002.4 -0.0  2 0 2425 3164 1397
[28]  55(B19) 1f 43  7  0   1823.2  4091995.1  0.1  2 0 1679 2095 1148
[29]  57(B21) 1f 43  7  0  -3153.6  4092008.2  0.0  2 0 1756 2432 1080
[30]  58(B22) 1f 44  8  0   -548.2  4092001.3  0.0  2 0 2576 3115 1308
[32]  75(N-6)  f 47  7  0  -1256.4  1022000.8  0.1  2 0  1504 2784 1330
[33]  76(N-5)  f 46  7  0   2423.0  1021998.4  0.1  2 0  1211 2169  906
[34]  79(N-2)  f 36  7  0  -4077.2  1022002.6 -0.1  2 0   675  824   95
[35]  80(N-1)  f 44  7  0  -4295.4  1022002.7 -0.0  2 0   616 1491  793
[36]  81(N00)  f 33  7  0  -2757.5  1022001.7  0.0  5 0   465  634  517
[37]  83(N02)  f 44 13  0   1320.7  1021999.1 -0.0  2 0  1256 1769  980
[38]  86(N05)  f 44 26  0  -3796.6  1022002.4  0.0  2 0   585 1453 1063
[48]  37(B01)  1 20 14  1   -845.8 20460017.0 -0.1  1 0  621  305  312
[49]  38(B02)  1 10 14  0  -1438.9 20460017.8 -0.1  1 0  118  256   58
[50]  39(B03)  1 25 10  1   -731.7 20460019.2 -0.2  1 0  803  552  209
[51]  40(B04)  1 24 23  1  -1063.5 20460019.1 -0.0  1 0  571  358  576
[53]  42(B06)  1  7  7  0    202.9 20460006.1 -0.0  1 0  336  189  250
[54]  43(B07)  1  7 10  0   -413.9 20460011.1 -0.1  1 0  275  411  126
[56]  45(B09)  1 12  7  0   -938.5 20460017.8  0.1  1 0  406  670  995
[57]  46(B10)  1  7  7  0  -2469.3 20460017.3 -0.1  1 0  669  613  138
[58]  52(B16)  1  7  7  0   -717.1 20460008.8  0.1  1 0  314  154  232
[59]  54(B18)  1  7  7  0   -762.9 20460014.9  0.2  1 0  500  491  203
[60]  55(B19)  1  7  7  0   2544.3 20459972.6  0.0  1 0  209  583  479
[61]  57(B21)  1  7  9  0  -1918.9 20460048.0  0.1  1 0   99  126  283
[62]  58(B22)  1  7  7  0   -999.1 20460009.8 -0.1  1 0  161  217  313
$GNGGA,023400.422,,,,,0,00,,,M,,,,0000*2A
$GNRMC,023400.422,A,,,,,,,150419,,*2F
$GPGSA,A,1,,,,,,,,,,,,,,,*1E
$BDGSA,A,1,,,,,,,,,,,,,,,*0F
$GLGSA,A,1,,,,,,,,,,,,,,,*02
$GPGSV,3,1,10,03,00,000,40,14,00,000,43,16,00,000,43,22,00,000,42*79
$GPGSV,3,2,10,23,00,000,41,26,00,000,45,27,00,000,40,31,00,000,44*7B
$GPGSV,3,3,10,32,00,000,42,29,00,000,34*73
$BDGSV,3,1,12,01,00,000,41,02,00,000,39,03,00,000,43,04,00,000,40*61
$BDGSV,3,2,12,06,00,000,43,07,00,000,43,09,00,000,43,10,00,000,43*63
$BDGSV,3,3,12,16,00,000,44,18,00,000,44,19,00,000,43,21,00,000,43*6E
$B3CN0,0,0,0,0,0,0,0,0,0,0,0,0,0,0*4C
---00000017--- Acq_st=3 0  2019-4-15 2:34:1 
[00]  02(G03)  f 41  7  0    -96.2  2046000.1  0.0  2 0  949 1315  412
[01]  13(G14)  f 43  7  0   1113.8  2045998.5  0.0  2 0 1175 2867 1395
[02]  15(G16)  f 43  7  0  -2248.5  2046002.9 -0.0  2 0 1859 3312 1531
[03]  21(G22)  f 43  7  0    699.1  2045999.0 -0.1  2 0 1500 2183  741
[04]  22(G23)  f 41  7  0  -4283.6  2046005.5 -0.0  2 0 1221 1787  960
[05]  25(G26)  f 45  7  0   -106.0  2046000.1 -0.0  2 0 2540 4379 2348
[06]  26(G27)  f 41  8  0  -4697.2  2046006.0  0.1  2 0  668 1474  937
[08]  30(G31)  f 44  7  0    370.4  2045999.4 -0.0  2 0 2519 4046 2000
[09]  31(G32)  f 41 14  0   2007.8  2045997.3  0.1  2 0 1961 2460  754
[10]  28(G29)  7 33  7  0   1045.5  2045998.6  0.2  2 0 1249 1353  551
[16]  37(B01) 1f 41 10  0  -1130.1  4092002.7  0.6  2 0  766  909  238
[17]  38(B02) 1f 40 28  0  -1082.7  4092002.7 -0.3  2 0 1614 1653  718
[18]  39(B03) 1f 43 30  0  -1126.5  4092002.8 -0.2  2 0 1965 2487  741
[19]  40(B04) 1f 40 22  0  -1119.7  4092002.9 -0.3  2 0 1090 1396  646
[20]  41(B05)  7 10 30  1  -1960.1  4092005.4  0.1  2 0  209  254   70
[21]  42(B06) 1f 42  7  0   -535.2  4092001.3  0.0  2 0 1328 1676  955
[22]  43(B07) 1f 43  7  0   -844.8  4092002.1  0.0  2 0 1964 2490 1130
[24]  45(B09) 1f 43  7  0  -1100.4  4092002.7 -0.0  2 0 2181 2870 1340
[25]  46(B10) 1f 43 12  0  -1082.5  4092002.7 -0.1  2 0 2012 2801 1038
[26]  52(B16) 1f 43  7  0   -578.5  4092001.4  0.0  2 0 1878 2567 1011
[27]  54(B18) 1f 44  7  0   -957.3  4092002.4 -0.0  2 0 2374 3051 1094
[28]  55(B19) 1f 42  7  0   1821.5  4091995.1 -0.0  2 0 1618 2242  956
[29]  57(B21) 1f 43  7  0  -3157.3  4092008.1  0.0  2 0 1851 2474  829
[30]  58(B22) 1f 44  7  0   -549.0  4092001.3 -0.0  2 0 2441 2664  874
[32]  75(N-6)  f 48  7  0  -1256.4  1022000.8  0.0  2 0  1894 3056 1157
[33]  76(N-5)  f 46  7  0   2421.7  1021998.4  0.1  2 0  1128 2322  963
[34]  79(N-2)  f 36  7  0  -4080.5  1022002.6  0.1  2 0   340  501  321
[35]  80(N-1)  f 45  7  0  -4297.1  1022002.7  0.1  2 0  1100 2060 1183
[36]  81(N00)  f 33  7  0  -2759.5  1022001.8  0.1  5 0    96  557  171
[37]  83(N02)  f 44  7  0   1319.4  1021999.2  0.1  2 0  1015 1800 1097
[38]  86(N05) 8f 43 26  0  -3797.4  1022002.4 -0.0  2 0   933 1622  905
[49]  38(B02)  1 36 14  0  -1257.1 20460018.4  0.0  1 0  193  260  410
[50]  39(B03)  1 19 22  1  -1637.9 20460024.5 -0.0  1 0  324  247  227
[51]  40(B04)  1 22 13  0  -1316.1 20460022.7  0.0  1 0  609  301  752
[53]  42(B06)  1  7  7  0    395.8 20460005.2  0.2  1 0  531  230  337
[54]  43(B07)  1  7  7  0   -174.6 20460012.4  0.1  1 0  627  904  640
[56]  45(B09)  1  7  7  0   -165.3 20460017.2 -0.1  1 0  192  517  244
[57]  46(B10)  1  7  7  0  -2066.1 20460016.1  0.0  1 0  671  593  722
[58]  52(B16)  1  7  7  0   -917.9 20460009.7  0.0  1 0  560  318  803
[59]  54(B18)  1  7  7  0   -581.1 20460015.8  0.0  1 0  274  154  131
[60]  55(B19)  1  7  7  0   2927.2 20459973.6 -0.1  1 0  887  719  147
[61]  57(B21)  1  7  7  0  -2251.1 20460051.8  0.1  1 0  265  484  253
[62]  58(B22)  1  7 10  0   -849.9 20460009.4 -0.2  1 0  159  851  815
$GNGGA,023401.422,,,,,0,00,,,M,,,,0000*2B
$GNRMC,023401.422,A,,,,,,,150419,,*2E
$GPGSA,A,1,,,,,,,,,,,,,,,*1E
$BDGSA,A,1,,,,,,,,,,,,,,,*0F
$GLGSA,A,1,,,,,,,,,,,,,,,*02
$GPGSV,3,1,10,03,00,000,41,14,00,000,43,16,00,000,43,22,00,000,43*79
$GPGSV,3,2,10,23,00,000,41,26,00,000,45,27,00,000,41,31,00,000,44*7A
$GPGSV,3,3,10,32,00,000,41,29,00,000,33*77
$BDGSV,3,1,12,01,00,000,41,02,00,000,40,03,00,000,43,04,00,000,40*6F
$BDGSV,3,2,12,05,00,000,36,06,00,000,42,07,00,000,43,09,00,000,43*64
$BDGSV,3,3,12,10,00,000,43,16,00,000,43,18,00,000,44,19,00,000,42*6A
$B3CN0,0,0,0,0,0,0,0,0,0,0,0,0,0,0*4C
---00000018--- Acq_st=3 0  2019-4-15 2:34:2 
[00]  02(G03)  f 40  7  0    -80.6  2046000.0 -0.0  2 0 1225 1515  947
[01]  13(G14)  f 43  7  0   1125.3  2045998.5  0.0  2 0 1499 2430 1001
[02]  15(G16)  f 43  7  0  -2239.2  2046002.8 -0.0  2 0 2549 3559 1582
[03]  21(G22)  f 43  7  0    710.3  2045999.0  0.0  2 0 1768 2481  803
[04]  22(G23)  f 42  7  0  -4271.0  2046005.5  0.1  2 0  936 1992 1090
[05]  25(G26)  f 45  7  0    -93.3  2046000.0 -0.0  2 0 2513 4254 2016
[06]  26(G27)  f 41 14  0  -4687.3  2046006.1 -0.1  2 0 1227 2112 1011
[08]  30(G31)  f 44  7  0    385.2  2045999.4 -0.1  2 0 2814 3709 1567
[09]  31(G32)  f 41 17  0   2015.7  2045997.4  0.1  2 0 1291 1981  693
[10]  28(G29)  7 32  7  0   1067.0  2045998.5 -0.1  5 0  560  664  578
[16]  37(B01) 1f 41 19  0  -1119.4  4092002.8  0.3  2 0 1204 1306  970
[17]  38(B02) 1f 39 20  0  -1065.0  4092002.6  0.2  2 0 1272 1819  631
[18]  39(B03) 1f 43 30  0  -1110.7  4092002.9 -0.0  2 0 1852 2381  946
[19]  40(B04) 1f 41 22  0  -1110.5  4092002.8 -0.1  2 0  592 1483  641
[20]  41(B05)  7 16 28  1  -1997.1  4092005.2 -0.0  2 0  470  207  684
[21]  42(B06) 1f 42  7  0   -523.0  4092001.3 -0.0  2 0 1796 2002  849
[22]  43(B07) 1f 43  7  0   -828.5  4092002.1 -0.0  2 0 1517 2357 1252
[24]  45(B09) 1f 43  7  0  -1088.7  4092002.7 -0.0  2 0 1768 2200  851
[25]  46(B10) 1f 43  7  0  -1073.7  4092002.7  0.0  2 0 1786 2035  444
[26]  52(B16) 1f 44  7  0   -568.6  4092001.4  0.1  2 0 2138 2608  896
[27]  54(B18) 1f 44  7  0   -945.8  4092002.4  0.1  2 0 2101 2612  804
[28]  55(B19) 1f 43  7  0   1833.3  4091995.1  0.0  2 0 1691 1700  680
[29]  57(B21) 1f 43  7  0  -3145.4  4092008.1 -0.0  2 0 1874 2162  739
[30]  58(B22) 1f 44  8  0   -536.5  4092001.3  0.0  2 0 2595 3261 1577
[32]  75(N-6) 8f 47  7  0  -1243.8  1022000.7 -0.0  2 0  1509 2642 1410
[33]  76(N-5) 8f 46  7  0   2434.8  1021998.4 -0.2  2 0  1336 2371  932
[34]  79(N-2) 8f 36  7  0  -4069.1  1022002.6  0.1  2 0   274  125  410
[35]  80(N-1) 8f 45  7  0  -4283.0  1022002.7  0.1  2 0  1012 1894 1022
[36]  81(N00) 8f 34  7  0  -2746.6  1022001.7 -0.0  5 0    53  429  471
[37]  83(N02) 8f 45  7  0   1331.6  1021999.1 -0.0  2 0   866 1746  901
[38]  86(N05) 8f 44 24  0  -3786.2  1022002.4  0.0  2 0   967 1684 1029
[48]  37(B01)  1 10 10  0   -578.9 20460018.2  0.2  1 0  275  352  455
[49]  38(B02)  1 10 10  1  -1432.9 20460016.1  0.0  1 0  683  303  632
[50]  39(B03)  1 10 10  0  -1332.8 20460025.2 -0.0  1 0  398  232  457
[51]  40(B04)  1 18 25  1   -774.6 20460020.4  0.2  1 0  950  815  523
[54]  43(B07)  1  7  7  0   -410.2 20460011.9 -0.0  1 0  444   50  561
[58]  52(B16)  1  7  7  0  -1291.4 20460009.4 -0.1  1 0  708 1004  640
[59]  54(B18)  1  7  7  0   -485.2 20460015.3 -0.1  1 0  481  753 1103
$GNGGA,023402.422,,,,,0,00,,,M,,,,0000*28
$GNRMC,023402.422,A,,,,,,,150419,,*2D
$GPGSA,A,1,,,,,,,,,,,,,,,*1E
$BDGSA,A,1,,,,,,,,,,,,,,,*0F
$GLGSA,A,1,,,,,,,,,,,,,,,*02
$GPGSV,3,1,10,03,00,000,40,14,00,000,43,16,00,000,43,22,00,000,43*78
$GPGSV,3,2,10,23,00,000,42,26,00,000,45,27,00,000,41,31,00,000,44*79
$GPGSV,3,3,10,32,00,000,41,29,00,000,32*76
$BDGSV,3,1,12,01,00,000,41,02,00,000,39,03,00,000,43,04,00,000,41*60
$BDGSV,3,2,12,05,00,000,16,06,00,000,42,07,00,000,43,09,00,000,43*66
$BDGSV,3,3,12,10,00,000,43,16,00,000,44,18,00,000,44,19,00,000,43*6C
$B3CN0,0,0,0,0,0,0,0,0,0,0,0,0,0,0*4C
---00000019--- Acq_st=3 0  2019-4-15 2:34:3 
[00]  02(G03)  f 40  8  0    -89.7  2046000.1  0.1  2 0  989 1504  509
[01]  13(G14)  f 43  7  0   1118.9  2045998.5 -0.0  2 0 1515 2141 1370
[02]  15(G16)  f 43  7  0  -2247.0  2046002.9  0.0  2 0 1982 3671 1727
[03]  21(G22)  f 42  7  0    704.1  2045999.0 -0.0  2 0 1507 2285 1025
[04]  22(G23)  f 41  7  0  -4275.6  2046005.5 -0.0  2 0 1097 1692  670
[05]  25(G26)  f 45  7  0    -99.5  2046000.1  0.0  2 0 3087 4804 2158
[06]  26(G27)  f 41  7  0  -4694.1  2046006.1 -0.1  2 0 1655 1993 1044
[08]  30(G31)  f 44  9  0    378.9  2045999.5  0.0  2 0 2225 3345 1503
[09]  31(G32)  f 41 15  0   2012.3  2045997.3  0.0  2 0 1663 2013  703
[10]  28(G29)  7 33  7  0   1056.7  2045998.5 -0.0  5 0  361  818  415
[16]  37(B01) 1f 41 18  0  -1123.9  4092002.7  0.7  2 0 1301 1485  742
[17]  38(B02) 1f 40 27  0  -1076.7  4092002.7 -0.5  2 0  668  700  517
[18]  39(B03) 1f 42 31  0  -1119.3  4092002.8 -0.1  2 0 1766 2055  944
[19]  40(B04) 1f 40 20  0  -1113.3  4092002.8  0.7  2 0  970 1325  534
[20]  41(B05)  7 10 31  1  -2006.6  4092005.3  0.2  2 0  322  239  432
[21]  42(B06) 1f 42  7  0   -530.0  4092001.3 -0.0  2 0 1725 2287 1188
[22]  43(B07) 1f 43  7  0   -836.3  4092002.1 -0.0  2 0 1826 2221  487
[24]  45(B09) 1f 43 10  0  -1094.8  4092002.8 -0.0  2 0 1900 2152 1098
[25]  46(B10) 1f 43  7  0  -1078.4  4092002.7 -0.0  2 0 1759 2799  985
[26]  52(B16) 1f 43  7  0   -577.0  4092001.4 -0.0  2 0 1860 2901 1351
[27]  54(B18) 1f 44  7  0   -950.0  4092002.4 -0.1  2 0 2635 2969 1285
[28]  55(B19) 1f 42  7  0   1823.7  4091995.1  0.0  2 0 1738 2081  743
[29]  57(B21) 1f 43  7  0  -3150.3  4092008.1  0.0  2 0 2286 2667 1375
[30]  58(B22) 1f 44  7  0   -544.3  4092001.3  0.0  2 0 1796 2425  957
[32]  75(N-6) 8f 47  7  0  -1249.7  1022000.8 -0.1  2 0  1693 2724 1322
[33]  76(N-5) 8f 46  7  0   2426.8  1021998.4 -0.0  2 0  1287 2214 1202
[34]  79(N-2) 8f 36  7  0  -4076.0  1022002.6  0.1  2 0   479  596  360
[35]  80(N-1) 8f 45  7  0  -4290.0  1022002.7 -0.1  2 0  1018 1688 1013
[36]  81(N00) 8f 34  7  0  -2753.6  1022001.8 -0.1  5 0   533  517  200
[37]  83(N02) 8f 44  7  0   1323.7  1021999.1  0.1  2 0   746 1491  721
[38]  86(N05) 8f 44 25  0  -3792.2  1022002.4  0.0  2 0  1055 1787  773
[48]  37(B01)  f 17 18  1  -1404.9 20460021.6  0.2  2 0  524  329  157
[50]  39(B03)  1 19 10  1  -1403.7 20460026.0  0.1  1 0  615  990  813
[51]  40(B04)  1 19 24  0   -702.8 20460024.8 -0.1  1 0  204  498  312
[53]  42(B06)  1  7  7  0   -438.8 20460006.7  0.0  1 0  381  102  252
[56]  45(B09)  1  7  7  0   -956.5 20460014.2 -0.1  1 0  166  265  566
[57]  46(B10)  1  7  7  0   -788.4 20460015.0  0.1  1 0  206  184  111
[60]  55(B19)  1  7  7  0    887.5 20459971.0 -0.0  1 0   53  348  211
[61]  57(B21)  1  9  7  0  -2311.0 20460050.1 -0.1  1 0  180  440  159
[62]  58(B22)  1  7  7  0   -713.4 20460009.2  0.0  1 0  603  241  379
$GNGGA,023403.422,,,,,0,00,,,M,,,,0000*29
$GNRMC,023403.422,A,,,,,,,150419,,*2C
$GPGSA,A,1,,,,,,,,,,,,,,,*1E
$BDGSA,A,1,,,,,,,,,,,,,,,*0F
$GLGSA,A,1,,,,,,,,,,,,,,,*02
$GPGSV,3,1,10,03,00,000,40,14,00,000,43,16,00,000,43,22,00,000,42*79
$GPGSV,3,2,10,23,00,000,41,26,00,000,45,27,00,000,41,31,00,000,44*7A
$GPGSV,3,3,10,32,00,000,41,29,00,000,33*77
$BDGSV,3,1,12,01,00,000,41,02,00,000,40,03,00,000,42,04,00,000,40*6E
$BDGSV,3,2,12,06,00,000,42,07,00,000,43,09,00,000,43,10,00,000,43*62
$BDGSV,3,3,12,16,00,000,43,18,00,000,44,19,00,000,42,21,00,000,43*68
$B3CN0,0,0,0,0,0,0,0,0,0,0,0,0,0,0*4C
---00000020--- Acq_st=3 0  2019-4-15 2:34:4 
[00]  02(G03)  f 40  7  0    -76.6  2046000.0  0.1  2 0  624 1706  835
[01]  13(G14)  f 43  7  0   1128.9  2045998.5  0.1  2 0 2059 2902 1499
[02]  15(G16)  f 43  7  0  -2235.1  2046002.8  0.0  2 0 1482 3039 1562
[03]  21(G22)  f 43  7  0    712.2  2045999.0 -0.0  2 0 1257 2402 1020
[04]  22(G23)  f 41  7  0  -4268.7  2046005.5  0.1  2 0  940 1776  952
[05]  25(G26)  f 45  7  0    -91.3  2046000.0  0.0  2 0 2605 4293 2126
[06]  26(G27)  f 40 12  0  -4683.6  2046006.0  0.1  2 0 1447 2401 1273
[08]  30(G31)  f 44  9  0    387.6  2045999.4  0.0  2 0 2041 3342 1712
[09]  31(G32)  f 41 16  0   2022.4  2045997.3  0.1  2 0  820 1456  819
[10]  28(G29)  7 33  7  0   1068.2  2045998.5  0.1  5 0   22  524  350
[16]  37(B01) 1f 41 10  0  -1120.1  4092002.7  0.6  2 0 1056 1428  766
[17]  38(B02) 1f 40 27  0  -1059.7  4092002.7 -0.4  2 0  944 1214  839
[18]  39(B03) 1f 43 29  0  -1109.0  4092002.8  0.0  2 0 1315 1909  859
[19]  40(B04) 1f 40 25  0  -1103.7  4092002.8  0.2  2 0 1474 1470  451
[20]  41(B05)  7 18 29  1  -2098.9  4092005.4 -0.2  2 0  374   45  253
[21]  42(B06) 1f 42  7  0   -519.1  4092001.2  0.0  2 0 1589 2608 1363
[22]  43(B07) 1f 44  7  0   -827.4  4092002.0 -0.0  2 0 1997 2694 1521
[24]  45(B09) 1f 43  9  0  -1086.2  4092002.7 -0.0  2 0 2172 2740 1266
[25]  46(B10) 1f 43  7  0  -1067.7  4092002.7 -0.0  2 0 1903 2278  905
[26]  52(B16) 1f 44  7  0   -566.9  4092001.4  0.0  2 0 2133 3056 1834
[27]  54(B18) 1f 44  7  0   -941.0  4092002.4  0.1  2 0 2085 2723 1281
[28]  55(B19) 1f 43  8  0   1835.4  4091995.1  0.0  2 0 2045 2510 1012
[29]  57(B21) 1f 43  7  0  -3141.2  4092008.1 -0.0  2 0 2494 2807 1030
[30]  58(B22) 1f 44 11  0   -534.2  4092001.3 -0.0  2 0 2137 2763 1176
[32]  75(N-6) 8f 47  7  0  -1240.0  1022000.8  0.1  2 0  1535 2809 1361
[33]  76(N-5) 8f 46 11  0   2438.4  1021998.4 -0.1  2 0  1055 2282 1049
[34]  79(N-2) 8f 36  8  0  -4065.2  1022002.6 -0.0  2 0   468  862  355
[35]  80(N-1) 8f 44  7  0  -4280.3  1022002.7  0.1  2 0   951 1779  435
[36]  81(N00) 8f 34  7  0  -2745.1  1022001.7  0.1  5 0    83  569  438
[37]  83(N02) 8f 44  7  0   1332.5  1021999.1 -0.0  2 0   812 1915  886
[38]  86(N05) 8f 44 24  0  -3784.0  1022002.4 -0.0  2 0   698 2089 1287
[48]  37(B01)  f 10 10  0  -1583.2 20460024.7  0.0  2 0  291  114  523
[49]  38(B02)  1 19 18  0   -831.9 20460014.6 -0.1  1 0  759  705  408
[53]  42(B06)  1  9  7  0   -232.9 20460005.0  0.1  1 0  122  391  351
[54]  43(B07)  1  7  9  0   -802.0 20460010.6  0.0  1 0  986  381  271
[56]  45(B09)  1  8  7  0   -360.4 20460017.3 -0.0  1 0  464  377  363
[57]  46(B10)  1  7  7  0   -674.4 20460016.1  0.1  1 0  242  361  722
[58]  52(B16)  1  8  7  0   -112.3 20460008.9  0.0  1 0  303  237  344
[59]  54(B18)  1  7  7  0   -355.6 20460013.5  0.1  1 0  772  471  842
[60]  55(B19)  1  8  7  0    527.6 20459971.9 -0.0  1 0  543  932  165
[61]  57(B21)  1  7 11  0  -2777.1 20460051.0 -0.1  1 0  613  364   50
[62]  58(B22)  1  7  7  0   -630.7 20460007.9  0.1  1 0  408  347  150
$GNGGA,023404.422,,,,,0,00,,,M,,,,0000*2E
$GNRMC,023404.422,A,,,,,,,150419,,*2B
$GPGSA,A,1,,,,,,,,,,,,,,,*1E
$BDGSA,A,1,,,,,,,,,,,,,,,*0F
$GLGSA,A,1,,,,,,,,,,,,,,,*02
$GPGSV,3,1,10,03,00,000,40,14,00,000,43,16,00,000,43,22,00,000,43*78
$GPGSV,3,2,10,23,00,000,41,26,00,000,45,27,00,000,40,31,00,000,44*7B
$GPGSV,3,3,10,32,00,000,41,29,00,000,33*77
$BDGSV,3,1,12,01,00,000,41,02,00,000,40,03,00,000,43,04,00,000,40*6F
$BDGSV,3,2,12,05,00,000,18,06,00,000,42,07,00,000,44,09,00,000,43*6F
$BDGSV,3,3,12,10,00,000,43,16,00,000,44,18,00,000,44,19,00,000,43*6C
$B3CN0,0,0,0,0,0,0,0,0,0,0,0,0,0,0*4C
---00000021--- Acq_st=3 0  2019-4-15 2:34:5 
[00]  02(G03)  f 40  7  0    -88.0  2046000.1  0.2  2 0 1287 1502  514
[01]  13(G14)  f 43  7  0   1126.3  2045998.5  0.0  2 0 1057 2444  969
[02]  15(G16)  f 43  7  0  -2238.0  2046002.9 -0.0  2 0 1563 2890 1323
[03]  21(G22)  f 42  7  0    708.3  2045999.0  0.1  2 0 1234 1957  449
[04]  22(G23)  f 40  7  0  -4271.8  2046005.5  0.1  2 0 1442 1833  577
[05]  25(G26)  f 45  7  0    -94.8  2046000.1 -0.0  2 0 2805 4577 1903
[06]  26(G27)  f 40 13  0  -4691.5  2046006.1  0.0  2 0  952 1595  624
[08]  30(G31)  f 44  7  0    381.9  2045999.4 -0.0  2 0 2526 3366 1383
[09]  31(G32)  f 41 16  0   2019.9  2045997.3 -0.0  2 0 1679 2427  917
[10]  28(G29)  7 34  7  0   1063.5  2045998.6 -0.0  5 0 1188 1013  457
[16]  37(B01) 1f 41 22  0  -1120.8  4092002.8  0.1  2 0 1018 1344  626
[17]  38(B02) 1f 40 20  0  -1072.7  4092002.7 -0.1  2 0 1062 1568  656
[18]  39(B03) 1f 43 31  0  -1112.5  4092002.8 -0.0  2 0 1596 2140  859
[19]  40(B04) 1f 40 19  0  -1114.6  4092002.8 -0.1  2 0 1191 1161  617
[20]  41(B05)  7 10 10  0  -2426.9  4092006.4 -0.1  2 0  472   96  222
[21]  42(B06) 1f 42  7  0   -526.5  4092001.2 -0.1  2 0 1695 1952  695
[22]  43(B07) 1f 43  7  0   -831.4  4092002.0  0.0  2 0 1691 2828 1261
[24]  45(B09) 1f 43  7  0  -1091.3  4092002.7 -0.0  2 0 1393 2291 1024
[25]  46(B10) 1f 43  7  0  -1073.7  4092002.7 -0.0  2 0 2004 2457  936
[26]  52(B16) 1f 43  7  0   -568.8  4092001.4  0.0  2 0 1647 1899  695
[27]  54(B18) 1f 44  7  0   -946.0  4092002.4  0.0  2 0 2514 2989  924
[28]  55(B19) 1f 42  7  0   1831.4  4091995.1  0.0  2 0 1749 1895  548
[29]  57(B21) 1f 43  7  0  -3143.2  4092008.1  0.0  2 0 2528 2597  646
[30]  58(B22) 1f 44 11  0   -540.7  4092001.3  0.0  2 0 2264 2763  993
[32]  75(N-6) 8f 47  7  0  -1242.6  1022000.8 -0.1  2 0  1746 2489 1075
[33]  76(N-5) 8f 46  7  0   2433.9  1021998.4  0.0  2 0  1301 2093  848
[34]  79(N-2) 8f 35 13  0  -4068.7  1022002.6 -0.1  2 0   106  574  443
[35]  80(N-1) 8f 45  7  0  -4283.8  1022002.7 -0.1  2 0   978 1900  700
[36]  81(N00) 8f 34  7  0  -2746.3  1022001.7 -0.1  5 0   692  809  134
[37]  83(N02) 8f 44  7  0   1330.0  1021999.1 -0.0  2 0  1312 1981 1074
[38]  86(N05) 8f 44 23  0  -3786.8  1022002.4  0.0  2 0   962 1757  872
[48]  37(B01)  f 14 13  1  -1777.5 20460029.8 -0.1  2 0  140  527  757
[49]  38(B02)  1 10 22  1   -935.0 20460024.5  0.0  1 0  534  578  341
[50]  39(B03)  1 10 18  0  -1222.7 20460013.2  0.0  1 0  394  261  232
[51]  40(B04)  1 23 22  1   -613.9 20460021.2  0.1  1 0  245  306  117
[53]  42(B06)  1  7  7  0   -752.1 20460006.2  0.1  1 0  322  748  380
[54]  43(B07)  f  7  7  0   -826.2 20460014.2  0.0 10 0  535  567  398
[56]  45(B09)  1  7  7  0   -448.9 20460016.8 -0.3  1 0  446  457  375
[57]  46(B10)  1  7  9  0   -997.3 20460017.5  0.1  1 0  354  967  980
[58]  52(B16)  1 11  7  0     17.8 20460008.4  0.1  1 0  670  353  156
[59]  54(B18)  1  7  7  0     -7.9 20460014.1  0.1  1 0  757  668  208
[60]  55(B19)  1  7  7  0    881.1 20459970.6  0.2  1 0  354  217  617
[61]  57(B21)  1  7  7  0  -2786.3 20460051.8  0.0  1 0  276  111  596
[62]  58(B22)  1  7  7  0   -393.7 20460009.9 -0.0  1 0  206  343  433
$GNGGA,023405.422,,,,,0,00,,,M,,,,0000*2F
$GNRMC,023405.422,A,,,,,,,150419,,*2A
$GPGSA,A,1,,,,,,,,,,,,,,,*1E
$BDGSA,A,1,,,,,,,,,,,,,,,*0F
$GLGSA,A,1,,,,,,,,,,,,,,,*02
$GPGSV,3,1,10,03,00,000,40,14,00,000,43,16,00,000,43,22,00,000,42*79
$GPGSV,3,2,10,23,00,000,40,26,00,000,45,27,00,000,40,31,00,000,44*7A
$GPGSV,3,3,10,32,00,000,41,29,00,000,34*70
$BDGSV,3,1,12,01,00,000,41,02,00,000,40,03,00,000,43,04,00,000,40*6F
$BDGSV,3,2,12,06,00,000,42,07,00,000,43,09,00,000,43,10,00,000,43*62
$BDGSV,3,3,12,16,00,000,43,18,00,000,44,19,00,000,42,21,00,000,43*68
$B3CN0,16,0,0,0,0,0,0,0,0,0,0,0,0,0*7B
---00000022--- Acq_st=7 0  2019-4-15 2:34:6 
[00]  02(G03)  f 40  7  0   -100.2  2046000.1  0.0  2 0  641 1758 1313
[01]  13(G14)  f 42  7  0   1107.3  2045998.5  0.0  2 0 2379 2963 1499
[02]  15(G16)  f 44  7  0  -2256.8  2046002.9  0.1  2 0 1132 2298  996
[03]  21(G22)  f 43  7  0    693.2  2045999.0 -0.0  2 0 1207 2223  763
[04]  22(G23)  f 41  7  0  -4291.3  2046005.5 -0.0  2 0 1119 1675 1070
[05]  25(G26)  f 45  7  0   -110.9  2046000.1  0.0  2 0 3155 4334 2105
[06]  26(G27)  f 41  7  0  -4707.9  2046006.0 -0.0  2 0 1449 2158  483
[08]  30(G31)  f 44  7  0    364.2  2045999.5 -0.0  2 0 1866 2943 1116
[09]  31(G32)  f 41 17  0   1993.9  2045997.3  0.0  2 0 1517 2464 1077
[10]  28(G29)  7 34  8  0   1044.9  2045998.6 -0.2  5 0  383  694  230
[16]  37(B01) 1f 41 14  0  -1137.8  4092002.9  0.4  2 0 1349 1639 1141
[17]  38(B02) 1f 40 28  0  -1085.3  4092002.8 -0.7  2 0 1101 1059  767
[18]  39(B03) 1f 43 31  0  -1133.1  4092002.9  0.0  2 0 1842 2361  859
[19]  40(B04) 1f 41 22  0  -1128.6  4092002.8  0.1  2 0 1468 1680  962
[20]  41(B05)  7 10 23  1  -2903.0  4092007.7 -0.1  2 0  595  740  485
[21]  42(B06) 1f 42  7  0   -542.5  4092001.3  0.0  2 0 1629 1876  505
[22]  43(B07) 1f 43  9  0   -846.6  4092002.1 -0.1  2 0 2147 2518  829
[24]  45(B09) 1f 43  8  0  -1108.2  4092002.8  0.0  2 0 2173 2404  840
[25]  46(B10) 1f 43  8  0  -1089.6  4092002.7 -0.0  2 0 1798 2061  645
[26]  52(B16) 1f 43 11  0   -585.2  4092001.4  0.0  2 0 2108 2934 1120
[27]  54(B18) 1f 43  7  0   -963.8  4092002.4 -0.0  2 0 2547 3007  997
[28]  55(B19) 1f 43  7  0   1811.1  4091995.1 -0.1  2 0 1837 2687 1204
[29]  57(B21) 1f 43  7  0  -3162.2  4092008.2  0.0  2 0 2073 2304  827
[30]  58(B22) 1f 43  7  0   -556.2  4092001.3 -0.0  2 0 2098 2540  782
[32]  75(N-6) 8f 47  7  0  -1260.1  1022000.8  0.1  2 0  1312 2791 1532
[33]  76(N-5) 8f 46  7  0   2416.4  1021998.4 -0.0  2 0  1601 2425  958
[34]  79(N-2) 8f 36  7  0  -4088.0  1022002.6  0.0  2 0   510  480  551
[35]  80(N-1) 8f 45  7  0  -4300.6  1022002.7 -0.0  2 0  1114 1751  647
[36]  81(N00) 8f 33  7  0  -2763.4  1022001.7 -0.0  5 0   544  400  274
[37]  83(N02) 8f 44 11  0   1311.2  1021999.1 -0.0  2 0  1136 2071  972
[38]  86(N05) 8f 43 25  0  -3804.3  1022002.4  0.1  2 0  1284 2146 1052
[48]  37(B01)  f 16 18  0  -1868.3 20460031.2  0.1  2 0  915  757  578
[49]  38(B02)  1 10 10  1   -769.2 20460024.5 -0.1  1 0   52  359  520
[50]  39(B03)  7 16 16  0  -1239.7 20460019.6  0.1  2 0  268  166  382
[51]  40(B04)  1 21 19  0   -711.8 20460015.8 -0.0  1 0  760  453  174
[53]  42(B06)  1  7  7  0   -759.3 20460007.6  0.1  1 0  378  562  117
[54]  43(B07)  f  7  7  0   -897.9 20460016.9 -0.0 10 0  739  797  321
[56]  45(B09)  1  8  7  0   -197.8 20460015.9 -0.0  1 0  484  153  255
[57]  46(B10)  1  7  7  0  -1035.6 20460015.3  0.0  1 0  962  611  647
[58]  52(B16)  1  7  7  0   -181.1 20460009.5 -0.1  1 0  533  530  367
[59]  54(B18)  1  7  7  0    -16.9 20460016.8  0.1  1 0  581  532   92
[60]  55(B19)  1  7  9  0    821.3 20459971.9 -0.1  1 0  512  156  250
[61]  57(B21)  1  7  7  0  -2685.1 20460049.7  0.1  1 0  104  356  294
[62]  58(B22)  1  7  7  0    188.9 20460007.9  0.1  1 0  129  410  475
$GNGGA,023406.422,,,,,0,00,,,M,,,,0000*2C
