i=1
Rf R0 Config = ff777073
Rf R1 Config = 00dffbfe
Rf R52 Config = 00dfef00
i=2
Rf R0 Config = 007772f3
Rf R1 Config = 00dd1bfe
Rf R52 Config = 00dbae70
i=3
Rf R0 Config = 007772f3
Rf R1 Config = 00dffbfe
Rf R52 Config = 00dfeef0
i=4
Rf R0 Config = 00777273
Rf R1 Config = 00dffbfe
Rf R52 Config = 00dfee40
SD initialized success
Create debug.log Failed! 3
Start Channel by LuYu
$GNGGA,000000.000,,,,,0,00,,,M,,,,0000*2B
$GNRMC,000000.000,A,,,,,,,060180,,*29
$GPGSA,A,1,,,,,,,,,,,,,,,*1E
$BDGSA,A,1,,,,,,,,,,,,,,,*0F
$GLGSA,A,1,,,,,,,,,,,,,,,*02
$B3CN0,0,0,0,0,0,0,0,0,0,0,0,0,0,0*4C
$GNGGA,000000.000,,,,,0,00,,,M,,,,0000*2B
$GNRMC,000000.000,A,,,,,,,060180,,*29
$GPGSA,A,1,,,,,,,,,,,,,,,*1E
$BDGSA,A,1,,,,,,,,,,,,,,,*0F
$GLGSA,A,1,,,,,,,,,,,,,,,*02
$B3CN0,0,0,0,0,0,0,0,0,0,0,0,0,0,0*4C
$GNGGA,000000.000,,,,,0,00,,,M,,,,0000*2B
$GNRMC,000000.000,A,,,,,,,060180,,*29
$GPGSA,A,1,,,,,,,,,,,,,,,*1E
$BDGSA,A,1,,,,,,,,,,,,,,,*0F
$GLGSA,A,1,,,,,,,,,,,,,,,*02
$GPGSV,1,1,01,03,00,000,19*43
$B3CN0,0,0,0,0,0,0,0,0,0,0,0,0,0,0*4C
$GNGGA,000000.000,,,,,0,00,,,M,,,,0000*2B
$GNRMC,000000.000,A,,,,,,,060180,,*29
$GPGSA,A,1,,,,,,,,,,,,,,,*1E
$BDGSA,A,1,,,,,,,,,,,,,,,*0F
$GLGSA,A,1,,,,,,,,,,,,,,,*02
$GPGSV,1,1,02,03,00,000,45,16,00,000,19*76
$B3CN0,0,0,0,0,0,0,0,0,0,0,0,0,0,0*4C
$GNGGA,000000.000,,,,,0,00,,,M,,,,0000*2B
$GNRMC,000000.000,A,,,,,,,060180,,*29
$GPGSA,A,1,,,,,,,,,,,,,,,*1E
$BDGSA,A,1,,,,,,,,,,,,,,,*0F
$GLGSA,A,1,,,,,,,,,,,,,,,*02
$GPGSV,2,1,05,03,00,000,44,16,00,000,39,22,00,000,32,23,00,000,31*73
$GPGSV,2,2,05,26,00,000,25*4F
$B3CN0,0,0,0,0,0,0,0,0,0,0,0,0,0,0*4C
# of Valid meas: 0 [ ]
LSQ PV=[ 0         0.00,         0.00,         0.00,   0.00,   0.00,   0.00, [ 0.00,  0.00],       0.00,      0.00,      0.00,  0.00,0  0.00]
KF  PV=[ 0         0.00,         0.00,         0.00,   0.00,   0.00,   0.00, [ 0.00,  0.00],       0.00,      0.00,      0.00,  0.00,0  0.00]
LSQ LLH=[ 0.000000, 0.000000, 0.00, 0.000000 96769.429964]
KF  LLH=[ 0.000000, 0.000000, 0.00, 96769.429964 96769.429964]
KF  FixSet        0        0        0        0
LSQ Dop=[ 0.00, 0.00, 0.00, 0.00]
KF Dop=[ 0.00, 0.00, 0.00, 0.00]
KF UTC=[1980/01/07 - 02:52:31.430 ]
$GNGGA,025231.430,,,,,0,00,,,M,,,,0000*2B
$GNRMC,025231.430,A,,,,,,,070180,,*28
$GPGSA,A,1,,,,,,,,,,,,,,,*1E
$BDGSA,A,1,,,,,,,,,,,,,,,*0F
$GLGSA,A,1,,,,,,,,,,,,,,,*02
$GPGSV,2,1,05,03,00,000,45,16,00,000,40,22,00,000,43,23,00,000,43*7F
$GPGSV,2,2,05,26,00,000,38*43
$BDGSV,1,1,02,02,00,000,39,05,00,000,37*63
$B3CN0,0,0,0,0,0,0,0,0,0,0,0,0,0,0*4C
# of Valid meas: 0 [ ]
LSQ PV=[ 0         0.00,         0.00,         0.00,   0.00,   0.00,   0.00, [ 0.00,  0.00],       0.00,      0.00,      0.00,  0.00,0  0.00]
KF  PV=[ 0         0.00,         0.00,         0.00,   0.00,   0.00,   0.00, [ 0.00,  0.00],       0.00,      0.00,      0.00,  0.00,0  0.00]
LSQ LLH=[ 0.000000, 0.000000, 0.00, 0.000000 96770.429964]
KF  LLH=[ 0.000000, 0.000000, 0.00, 96770.429964 96770.429964]
KF  FixSet        0        0        0        0
LSQ Dop=[ 0.00, 0.00, 0.00, 0.00]
KF Dop=[ 0.00, 0.00, 0.00, 0.00]
KF UTC=[1980/01/07 - 02:52:32.430 ]
$GNGGA,025232.430,,,,,0,00,,,M,,,,0000*28
$GNRMC,025232.430,A,,,,,,,070180,,*2B
$GPGSA,A,1,,,,,,,,,,,,,,,*1E
$BDGSA,A,1,,,,,,,,,,,,,,,*0F
$GLGSA,A,1,,,,,,,,,,,,,,,*02
$GPGSV,2,1,05,03,00,000,44,16,00,000,40,22,00,000,43,23,00,000,43*7E
$GPGSV,2,2,05,26,00,000,38*43
$BDGSV,1,1,03,02,00,000,40,05,00,000,37,10,00,000,27*58
$B3CN0,0,0,0,0,0,0,0,0,0,0,0,0,0,0*4C
# of Valid meas: 0 [ ]
LSQ PV=[ 0         0.00,         0.00,         0.00,   0.00,   0.00,   0.00, [ 0.00,  0.00],       0.00,      0.00,      0.00,  0.00,0  0.00]
KF  PV=[ 0         0.00,         0.00,         0.00,   0.00,   0.00,   0.00, [ 0.00,  0.00],       0.00,      0.00,      0.00,  0.00,0  0.00]
LSQ LLH=[ 0.000000, 0.000000, 0.00, 0.000000 96771.429964]
KF  LLH=[ 0.000000, 0.000000, 0.00, 96771.429964 96771.429964]
KF  FixSet        0        0        0        0
LSQ Dop=[ 0.00, 0.00, 0.00, 0.00]
KF Dop=[ 0.00, 0.00, 0.00, 0.00]
KF UTC=[1980/01/07 - 02:52:33.430 ]
$GNGGA,025233.430,,,,,0,00,,,M,,,,0000*29
$GNRMC,025233.430,A,,,,,,,070180,,*2A
$GPGSA,A,1,,,,,,,,,,,,,,,*1E
$BDGSA,A,1,,,,,,,,,,,,,,,*0F
$GLGSA,A,1,,,,,,,,,,,,,,,*02
$GPGSV,2,1,05,03,00,000,44,16,00,000,41,22,00,000,43,23,00,000,42*7E
$GPGSV,2,2,05,26,00,000,38*43
$BDGSV,1,1,04,02,00,000,40,05,00,000,37,10,00,000,41,18,00,000,21*65
$B3CN0,0,18,0,0,0,0,0,0,0,0,0,0,0,0*75
# of Valid meas: 0 [ ]
LSQ PV=[ 0         0.00,         0.00,         0.00,   0.00,   0.00,   0.00, [ 0.00,  0.00],       0.00,      0.00,      0.00,  0.00,0  0.00]
KF  PV=[ 0         0.00,         0.00,         0.00,   0.00,   0.00,   0.00, [ 0.00,  0.00],       0.00,      0.00,      0.00,  0.00,0  0.00]
LSQ LLH=[ 0.000000, 0.000000, 0.00, 0.000000 96772.429964]
KF  LLH=[ 0.000000, 0.000000, 0.00, 96772.429964 96772.429964]
KF  FixSet        0        0        0        0
LSQ Dop=[ 0.00, 0.00, 0.00, 0.00]
KF Dop=[ 0.00, 0.00, 0.00, 0.00]
KF UTC=[1980/01/07 - 02:52:34.430 ]
$GNGGA,025234.430,,,,,0,00,,,M,,,,0000*2E
$GNRMC,025234.430,A,,,,,,,070180,,*2D
$GPGSA,A,1,,,,,,,,,,,,,,,*1E
$BDGSA,A,1,,,,,,,,,,,,,,,*0F
$GLGSA,A,1,,,,,,,,,,,,,,,*02
$GPGSV,2,1,05,03,00,000,44,16,00,000,41,22,00,000,43,23,00,000,40*7C
$GPGSV,2,2,05,26,00,000,38*43
$BDGSV,2,1,06,02,00,000,41,05,00,000,37,10,00,000,41,18,00,000,44*66
$BDGSV,2,2,06,19,00,000,45,22,00,000,34*60
$B3CN0,0,0,0,0,0,0,0,0,0,0,0,0,0,0*4C
# of Valid meas: 0 [ ]
LSQ PV=[ 0         0.00,         0.00,         0.00,   0.00,   0.00,   0.00, [ 0.00,  0.00],       0.00,      0.00,      0.00,  0.00,0  0.00]
KF  PV=[ 0         0.00,         0.00,         0.00,   0.00,   0.00,   0.00, [ 0.00,  0.00],       0.00,      0.00,      0.00,  0.00,0  0.00]
LSQ LLH=[ 0.000000, 0.000000, 0.00, 0.000000 96773.429964]
KF  LLH=[ 0.000000, 0.000000, 0.00, 96773.429964 96773.429964]
KF  FixSet        0        0        0        0
LSQ Dop=[ 0.00, 0.00, 0.00, 0.00]
KF Dop=[ 0.00, 0.00, 0.00, 0.00]
KF UTC=[1980/01/07 - 02:52:35.430 ]
$GNGGA,025235.430,,,,,0,00,,,M,,,,0000*2F
$GNRMC,025235.430,A,,,,,,,070180,,*2C
$GPGSA,A,1,,,,,,,,,,,,,,,*1E
$BDGSA,A,1,,,,,,,,,,,,,,,*0F
$GLGSA,A,1,,,,,,,,,,,,,,,*02
$GPGSV,2,1,05,03,00,000,44,16,00,000,42,22,00,000,43,23,00,000,39*71
$GPGSV,2,2,05,26,00,000,39*42
$BDGSV,2,1,06,02,00,000,39,05,00,000,36,10,00,000,40,18,00,000,43*6E
$BDGSV,2,2,06,19,00,000,43,22,00,000,43*66
$B3CN0,0,19,0,0,0,0,0,0,0,0,0,0,0,0*74
# of Valid meas: 0 [ ]
LSQ PV=[ 0         0.00,         0.00,         0.00,   0.00,   0.00,   0.00, [ 0.00,  0.00],       0.00,      0.00,      0.00,  0.00,0  0.00]
KF  PV=[ 0         0.00,         0.00,         0.00,   0.00,   0.00,   0.00, [ 0.00,  0.00],       0.00,      0.00,      0.00,  0.00,0  0.00]
LSQ LLH=[ 0.000000, 0.000000, 0.00, 0.000000 96774.429964]
KF  LLH=[ 0.000000, 0.000000, 0.00, 96774.429964 96774.429964]
KF  FixSet        0        0        0        0
LSQ Dop=[ 0.00, 0.00, 0.00, 0.00]
KF Dop=[ 0.00, 0.00, 0.00, 0.00]
KF UTC=[1980/01/07 - 02:52:36.430 ]
$GNGGA,025236.430,,,,,0,00,,,M,,,,0000*2C
$GNRMC,025236.430,A,,,,,,,070180,,*2F
$GPGSA,A,1,,,,,,,,,,,,,,,*1E
$BDGSA,A,1,,,,,,,,,,,,,,,*0F
$GLGSA,A,1,,,,,,,,,,,,,,,*02
$GPGSV,2,1,05,03,00,000,44,16,00,000,42,22,00,000,43,23,00,000,39*71
$GPGSV,2,2,05,26,00,000,38*43
$BDGSV,2,1,07,02,00,000,39,05,00,000,38,10,00,000,40,18,00,000,43*61
$BDGSV,2,2,07,19,00,000,44,21,00,000,28,22,00,000,42*58
$B3CN0,0,0,0,0,0,0,0,0,0,0,0,0,0,0*4C
# of Valid meas: 0 [ ]
LSQ PV=[ 0         0.00,         0.00,         0.00,   0.00,   0.00,   0.00, [ 0.00,  0.00],       0.00,      0.00,      0.00,  0.00,0  0.00]
KF  PV=[ 0         0.00,         0.00,         0.00,   0.00,   0.00,   0.00, [ 0.00,  0.00],       0.00,      0.00,      0.00,  0.00,0  0.00]
LSQ LLH=[ 0.000000, 0.000000, 0.00, 0.000000 96775.429964]
KF  LLH=[ 0.000000, 0.000000, 0.00, 96775.429964 96775.429964]
KF  FixSet        0        0        0        0
LSQ Dop=[ 0.00, 0.00, 0.00, 0.00]
KF Dop=[ 0.00, 0.00, 0.00, 0.00]
KF UTC=[1980/01/07 - 02:52:37.430 ]
$GNGGA,025237.430,,,,,0,00,,,M,,,,0000*2D
$GNRMC,025237.430,A,,,,,,,070180,,*2E
$GPGSA,A,1,,,,,,,,,,,,,,,*1E
$BDGSA,A,1,,,,,,,,,,,,,,,*0F
$GLGSA,A,1,,,,,,,,,,,,,,,*02
$GPGSV,2,1,05,03,00,000,45,16,00,000,42,22,00,000,43,23,00,000,41*7F
$GPGSV,2,2,05,26,00,000,38*43
$BDGSV,2,1,07,02,00,000,40,05,00,000,36,10,00,000,40,18,00,000,43*61
$BDGSV,2,2,07,19,00,000,44,21,00,000,29,22,00,000,43*58
$B3CN0,0,0,0,0,0,0,0,0,0,0,0,0,0,0*4C
# of Valid meas: 0 [ ]
LSQ PV=[ 0         0.00,         0.00,         0.00,   0.00,   0.00,   0.00, [ 0.00,  0.00],       0.00,      0.00,      0.00,  0.00,0  0.00]
KF  PV=[ 0         0.00,         0.00,         0.00,   0.00,   0.00,   0.00, [ 0.00,  0.00],       0.00,      0.00,      0.00,  0.00,0  0.00]
LSQ LLH=[ 0.000000, 0.000000, 0.00, 0.000000 96776.429964]
KF  LLH=[ 0.000000, 0.000000, 0.00, 96776.429964 96776.429964]
KF  FixSet        0        0        0        0
LSQ Dop=[ 0.00, 0.00, 0.00, 0.00]
KF Dop=[ 0.00, 0.00, 0.00, 0.00]
KF UTC=[1980/01/07 - 02:52:38.430 ]
$GNGGA,025238.430,,,,,0,00,,,M,,,,0000*22
$GNRMC,025238.430,A,,,,,,,070180,,*21
$GPGSA,A,1,,,,,,,,,,,,,,,*1E
$BDGSA,A,1,,,,,,,,,,,,,,,*0F
$GLGSA,A,1,,,,,,,,,,,,,,,*02
$GPGSV,2,1,05,03,00,000,45,16,00,000,42,22,00,000,44,23,00,000,41*78
$GPGSV,2,2,05,26,00,000,38*43
$BDGSV,2,1,07,02,00,000,41,05,00,000,37,10,00,000,40,18,00,000,43*61
$BDGSV,2,2,07,19,00,000,44,21,00,000,22,22,00,000,43*53
$B3CN0,0,0,0,0,0,0,0,0,0,0,0,0,0,0*4C
# of Valid meas: 0 [ ]
LSQ PV=[ 0         0.00,         0.00,         0.00,   0.00,   0.00,   0.00, [ 0.00,  0.00],       0.00,      0.00,      0.00,  0.00,0  0.00]
KF  PV=[ 0         0.00,         0.00,         0.00,   0.00,   0.00,   0.00, [ 0.00,  0.00],       0.00,      0.00,      0.00,  0.00,0  0.00]
LSQ LLH=[ 0.000000, 0.000000, 0.00, 0.000000 96777.429964]
KF  LLH=[ 0.000000, 0.000000, 0.00, 96777.429964 96777.429964]
KF  FixSet        0        0        0        0
LSQ Dop=[ 0.00, 0.00, 0.00, 0.00]
KF Dop=[ 0.00, 0.00, 0.00, 0.00]
KF UTC=[1980/01/07 - 02:52:39.430 ]
$GNGGA,025239.430,,,,,0,00,,,M,,,,0000*23
$GNRMC,025239.430,A,,,,,,,070180,,*20
$GPGSA,A,1,,,,,,,,,,,,,,,*1E
$BDGSA,A,1,,,,,,,,,,,,,,,*0F
$GLGSA,A,1,,,,,,,,,,,,,,,*02
$GPGSV,2,1,05,03,00,000,45,16,00,000,42,22,00,000,44,23,00,000,42*7B
$GPGSV,2,2,05,26,00,000,38*43
$BDGSV,2,1,06,02,00,000,41,05,00,000,37,10,00,000,41,18,00,000,43*61
$BDGSV,2,2,06,19,00,000,44,22,00,000,42*60
$B3CN0,0,0,0,0,0,0,0,0,0,0,0,0,0,0*4C
# of Valid meas: 0 [ ]
LSQ PV=[ 0         0.00,         0.00,         0.00,   0.00,   0.00,   0.00, [ 0.00,  0.00],       0.00,      0.00,      0.00,  0.00,0  0.00]
KF  PV=[ 0         0.00,         0.00,         0.00,   0.00,   0.00,   0.00, [ 0.00,  0.00],       0.00,      0.00,      0.00,  0.00,0  0.00]
LSQ LLH=[ 0.000000, 0.000000, 0.00, 0.000000 96778.429964]
KF  LLH=[ 0.000000, 0.000000, 0.00, 96778.429964 96778.429964]
KF  FixSet        0        0        0        0
LSQ Dop=[ 0.00, 0.00, 0.00, 0.00]
KF Dop=[ 0.00, 0.00, 0.00, 0.00]
KF UTC=[1980/01/07 - 02:52:40.430 ]
$GNGGA,025240.430,,,,,0,00,,,M,,,,0000*2D
$GNRMC,025240.430,A,,,,,,,070180,,*2E
$GPGSA,A,1,,,,,,,,,,,,,,,*1E
$BDGSA,A,1,,,,,,,,,,,,,,,*0F
$GLGSA,A,1,,,,,,,,,,,,,,,*02
$GPGSV,2,1,05,03,00,000,45,16,00,000,43,22,00,000,44,23,00,000,43*7B
$GPGSV,2,2,05,26,00,000,38*43
$BDGSV,2,1,06,02,00,000,40,05,00,000,36,10,00,000,40,18,00,000,43*60
$BDGSV,2,2,06,19,00,000,43,22,00,000,43*66
$B3CN0,0,0,0,0,0,0,0,0,0,0,0,0,0,0*4C
# of Valid meas: 0 [ ]
LSQ PV=[ 0         0.00,         0.00,         0.00,   0.00,   0.00,   0.00, [ 0.00,  0.00],       0.00,      0.00,      0.00,  0.00,0  0.00]
KF  PV=[ 0         0.00,         0.00,         0.00,   0.00,   0.00,   0.00, [ 0.00,  0.00],       0.00,      0.00,      0.00,  0.00,0  0.00]
LSQ LLH=[ 0.000000, 0.000000, 0.00, 0.000000 96779.429964]
KF  LLH=[ 0.000000, 0.000000, 0.00, 96779.429964 96779.429964]
KF  FixSet        0        0        0        0
LSQ Dop=[ 0.00, 0.00, 0.00, 0.00]
KF Dop=[ 0.00, 0.00, 0.00, 0.00]
KF UTC=[1980/01/07 - 02:52:41.430 ]
$GNGGA,025241.430,,,,,0,00,,,M,,,,0000*2C
$GNRMC,025241.430,A,,,,,,,070180,,*2F
$GPGSA,A,1,,,,,,,,,,,,,,,*1E
$BDGSA,A,1,,,,,,,,,,,,,,,*0F
$GLGSA,A,1,,,,,,,,,,,,,,,*02
$GPGSV,2,1,05,03,00,000,46,16,00,000,43,22,00,000,45,23,00,000,43*79
$GPGSV,2,2,05,26,00,000,38*43
$BDGSV,2,1,06,02,00,000,40,05,00,000,38,10,00,000,40,18,00,000,42*6F
$BDGSV,2,2,06,19,00,000,44,22,00,000,43*61
$B3CN0,0,0,0,0,0,0,0,0,0,0,0,0,0,0*4C
# of Valid meas: 0 [ ]
LSQ PV=[ 0         0.00,         0.00,         0.00,   0.00,   0.00,   0.00, [ 0.00,  0.00],       0.00,      0.00,      0.00,  0.00,0  0.00]
KF  PV=[ 0         0.00,         0.00,         0.00,   0.00,   0.00,   0.00, [ 0.00,  0.00],       0.00,      0.00,      0.00,  0.00,0  0.00]
LSQ LLH=[ 0.000000, 0.000000, 0.00, 0.000000 96780.429964]
KF  LLH=[ 0.000000, 0.000000, 0.00, 96780.429964 96780.429964]
KF  FixSet        0        0        0        0
LSQ Dop=[ 0.00, 0.00, 0.00, 0.00]
KF Dop=[ 0.00, 0.00, 0.00, 0.00]
KF UTC=[1980/01/07 - 02:52:42.430 ]
$GNGGA,025242.430,,,,,0,00,,,M,,,,0000*2F
$GNRMC,025242.430,A,,,,,,,070180,,*2C
$GPGSA,A,1,,,,,,,,,,,,,,,*1E
$BDGSA,A,1,,,,,,,,,,,,,,,*0F
$GLGSA,A,1,,,,,,,,,,,,,,,*02
$GPGSV,2,1,05,03,00,000,45,16,00,000,43,22,00,000,44,23,00,000,43*7B
$GPGSV,2,2,05,26,00,000,39*42
$BDGSV,2,1,06,02,00,000,39,05,00,000,37,10,00,000,40,18,00,000,43*6F
$BDGSV,2,2,06,19,00,000,44,22,00,000,43*61
$B3CN0,0,22,0,0,0,0,0,0,0,0,0,0,0,0*7C
# of Valid meas: 0 [ ]
LSQ PV=[ 0         0.00,         0.00,         0.00,   0.00,   0.00,   0.00, [ 0.00,  0.00],       0.00,      0.00,      0.00,  0.00,0  0.00]
KF  PV=[ 0         0.00,         0.00,         0.00,   0.00,   0.00,   0.00, [ 0.00,  0.00],       0.00,      0.00,      0.00,  0.00,0  0.00]
LSQ LLH=[ 0.000000, 0.000000, 0.00, 0.000000 96781.429964]
KF  LLH=[ 0.000000, 0.000000, 0.00, 96781.429964 96781.429964]
KF  FixSet        0        0        0        0
LSQ Dop=[ 0.00, 0.00, 0.00, 0.00]
KF Dop=[ 0.00, 0.00, 0.00, 0.00]
KF UTC=[1980/01/07 - 02:52:43.430 ]
$GNGGA,025243.430,,,,,0,00,,,M,,,,0000*2E
$GNRMC,025243.430,A,,,,,,,070180,,*2D
$GPGSA,A,1,,,,,,,,,,,,,,,*1E
$BDGSA,A,1,,,,,,,,,,,,,,,*0F
$GLGSA,A,1,,,,,,,,,,,,,,,*02
$GPGSV,2,1,05,03,00,000,45,16,00,000,43,22,00,000,44,23,00,000,44*7C
$GPGSV,2,2,05,26,00,000,40*4C
$BDGSV,2,1,06,02,00,000,40,05,00,000,36,10,00,000,40,18,00,000,43*60
$BDGSV,2,2,06,19,00,000,44,22,00,000,43*61
$B3CN0,0,0,0,0,0,0,0,0,0,0,0,0,0,0*4C
# of Valid meas: 0 [ ]
LSQ PV=[ 0         0.00,         0.00,         0.00,   0.00,   0.00,   0.00, [ 0.00,  0.00],       0.00,      0.00,      0.00,  0.00,0  0.00]
KF  PV=[ 0         0.00,         0.00,         0.00,   0.00,   0.00,   0.00, [ 0.00,  0.00],       0.00,      0.00,      0.00,  0.00,0  0.00]
LSQ LLH=[ 0.000000, 0.000000, 0.00, 0.000000 96782.429964]
KF  LLH=[ 0.000000, 0.000000, 0.00, 96782.429964 96782.429964]
KF  FixSet        0        0        0        0
LSQ Dop=[ 0.00, 0.00, 0.00, 0.00]
KF Dop=[ 0.00, 0.00, 0.00, 0.00]
KF UTC=[1980/01/07 - 02:52:44.430 ]
$GNGGA,025244.430,,,,,0,00,,,M,,,,0000*29
$GNRMC,025244.430,A,,,,,,,070180,,*2A
$GPGSA,A,1,,,,,,,,,,,,,,,*1E
$BDGSA,A,1,,,,,,,,,,,,,,,*0F
$GLGSA,A,1,,,,,,,,,,,,,,,*02
$GPGSV,2,1,05,03,00,000,45,16,00,000,43,22,00,000,43,23,00,000,43*7C
$GPGSV,2,2,05,26,00,000,39*42
$BDGSV,2,1,06,02,00,000,40,05,00,000,37,10,00,000,40,18,00,000,43*61
$BDGSV,2,2,06,19,00,000,43,22,00,000,43*66
$B3CN0,0,0,0,0,0,0,0,0,0,0,0,0,0,0*4C
# of Valid meas: 0 [ ]
LSQ PV=[ 0         0.00,         0.00,         0.00,   0.00,   0.00,   0.00, [ 0.00,  0.00],       0.00,      0.00,      0.00,  0.00,0  0.00]
KF  PV=[ 0         0.00,         0.00,         0.00,   0.00,   0.00,   0.00, [ 0.00,  0.00],       0.00,      0.00,      0.00,  0.00,0  0.00]
LSQ LLH=[ 0.000000, 0.000000, 0.00, 0.000000 96783.429964]
KF  LLH=[ 0.000000, 0.000000, 0.00, 96783.429964 96783.429964]
KF  FixSet        0        0        0        0
LSQ Dop=[ 0.00, 0.00, 0.00, 0.00]
KF Dop=[ 0.00, 0.00, 0.00, 0.00]
KF UTC=[1980/01/07 - 02:52:45.430 ]
$GNGGA,025245.430,,,,,0,00,,,M,,,,0000*28
$GNRMC,025245.430,A,,,,,,,070180,,*2B
$GPGSA,A,1,,,,,,,,,,,,,,,*1E
$BDGSA,A,1,,,,,,,,,,,,,,,*0F
$GLGSA,A,1,,,,,,,,,,,,,,,*02
$GPGSV,2,1,05,03,00,000,44,16,00,000,42,22,00,000,43,23,00,000,43*7C
$GPGSV,2,2,05,26,00,000,39*42
$BDGSV,2,1,06,02,00,000,40,05,00,000,39,10,00,000,40,18,00,000,43*6F
$BDGSV,2,2,06,19,00,000,43,22,00,000,43*66
$B3CN0,0,0,0,0,0,0,0,0,0,0,0,0,0,0*4C
# of Valid meas: 0 [ ]
LSQ PV=[ 0         0.00,         0.00,         0.00,   0.00,   0.00,   0.00, [ 0.00,  0.00],       0.00,      0.00,      0.00,  0.00,0  0.00]
KF  PV=[ 0         0.00,         0.00,         0.00,   0.00,   0.00,   0.00, [ 0.00,  0.00],       0.00,      0.00,      0.00,  0.00,0  0.00]
LSQ LLH=[ 0.000000, 0.000000, 0.00, 0.000000 96784.429964]
KF  LLH=[ 0.000000, 0.000000, 0.00, 96784.429964 96784.429964]
KF  FixSet        0        0        0        0
LSQ Dop=[ 0.00, 0.00, 0.00, 0.00]
KF Dop=[ 0.00, 0.00, 0.00, 0.00]
KF UTC=[1980/01/07 - 02:52:46.430 ]
$GNGGA,025246.430,,,,,0,00,,,M,,,,0000*2B
$GNRMC,025246.430,A,,,,,,,070180,,*28
$GPGSA,A,1,,,,,,,,,,,,,,,*1E
$BDGSA,A,1,,,,,,,,,,,,,,,*0F
$GLGSA,A,1,,,,,,,,,,,,,,,*02
$GPGSV,2,1,05,03,00,000,44,16,00,000,41,22,00,000,43,23,00,000,42*7E
$GPGSV,2,2,05,26,00,000,38*43
$BDGSV,2,1,06,02,00,000,40,05,00,000,37,10,00,000,40,18,00,000,43*61
$BDGSV,2,2,06,19,00,000,43,22,00,000,43*66
$B3CN0,0,0,0,0,0,0,0,0,0,0,0,0,0,0*4C
# of Valid meas: 0 [ ]
LSQ PV=[ 0         0.00,         0.00,         0.00,   0.00,   0.00,   0.00, [ 0.00,  0.00],       0.00,      0.00,      0.00,  0.00,0  0.00]
KF  PV=[ 0         0.00,         0.00,         0.00,   0.00,   0.00,   0.00, [ 0.00,  0.00],       0.00,      0.00,      0.00,  0.00,0  0.00]
LSQ LLH=[ 0.000000, 0.000000, 0.00, 0.000000 96785.429964]
KF  LLH=[ 0.000000, 0.000000, 0.00, 96785.429964 96785.429964]
KF  FixSet        0        0        0        0
LSQ Dop=[ 0.00, 0.00, 0.00, 0.00]
KF Dop=[ 0.00, 0.00, 0.00, 0.00]
KF UTC=[1980/01/07 - 02:52:47.430 ]
$GNGGA,025247.430,,,,,0,00,,,M,,,,0000*2A
$GNRMC,025247.430,A,,,,,,,070180,,*29
$GPGSA,A,1,,,,,,,,,,,,,,,*1E
$BDGSA,A,1,,,,,,,,,,,,,,,*0F
$GLGSA,A,1,,,,,,,,,,,,,,,*02
$GPGSV,2,1,05,03,00,000,44,16,00,000,40,22,00,000,42,23,00,000,42*7E
$GPGSV,2,2,05,26,00,000,39*42
$BDGSV,2,1,06,02,00,000,39,05,00,000,37,10,00,000,40,18,00,000,43*6F
$BDGSV,2,2,06,19,00,000,43,22,00,000,43*66
$B3CN0,0,0,0,0,0,0,0,0,0,0,0,0,0,0*4C
# of Valid meas: 0 [ ]
LSQ PV=[ 0         0.00,         0.00,         0.00,   0.00,   0.00,   0.00, [ 0.00,  0.00],       0.00,      0.00,      0.00,  0.00,0  0.00]
KF  PV=[ 0         0.00,         0.00,         0.00,   0.00,   0.00,   0.00, [ 0.00,  0.00],       0.00,      0.00,      0.00,  0.00,0  0.00]
LSQ LLH=[ 0.000000, 0.000000, 0.00, 0.000000 96786.429964]
KF  LLH=[ 0.000000, 0.000000, 0.00, 96786.429964 96786.429964]
KF  FixSet        0        0        0        0
LSQ Dop=[ 0.00, 0.00, 0.00, 0.00]
KF Dop=[ 0.00, 0.00, 0.00, 0.00]
KF UTC=[2019/04/01 - 02:52:48.430 ]
$GNGGA,025248.430,,,,,0,00,,,M,,,,0000*25
$GNRMC,025248.430,A,,,,,,,010419,,*25
$GPGSA,A,1,,,,,,,,,,,,,,,*1E
$BDGSA,A,1,,,,,,,,,,,,,,,*0F
$GLGSA,A,1,,,,,,,,,,,,,,,*02
$GPGSV,2,1,05,03,00,000,44,16,00,000,40,22,00,000,42,23,00,000,42*7E
$GPGSV,2,2,05,26,00,000,38*43
$BDGSV,2,1,06,02,00,000,40,05,00,000,37,10,00,000,40,18,00,000,43*61
$BDGSV,2,2,06,19,00,000,43,22,00,000,43*66
$B3CN0,0,0,0,0,0,0,0,0,0,0,0,0,0,0*4C
# of Valid meas: 0 [ ]
LSQ PV=[ 0         0.00,         0.00,         0.00,   0.00,   0.00,   0.00, [ 0.00,  0.00],       0.00,      0.00,      0.00,  0.00,0  0.00]
KF  PV=[ 0         0.00,         0.00,         0.00,   0.00,   0.00,   0.00, [ 0.00,  0.00],       0.00,      0.00,      0.00,  0.00,0  0.00]
LSQ LLH=[ 0.000000, 0.000000, 0.00, 0.000000 96787.429963]
KF  LLH=[ 0.000000, 0.000000, 0.00, 96787.429963 96787.429963]
KF  FixSet        0        0        0        0
LSQ Dop=[ 0.00, 0.00, 0.00, 0.00]
KF Dop=[ 0.00, 0.00, 0.00, 0.00]
KF UTC=[2019/04/01 - 02:52:49.430 ]
$GNGGA,025249.430,,,,,0,00,,,M,,,,0000*24
$GNRMC,025249.430,A,,,,,,,010419,,*24
$GPGSA,A,1,,,,,,,,,,,,,,,*1E
$BDGSA,A,1,,,,,,,,,,,,,,,*0F
$GLGSA,A,1,,,,,,,,,,,,,,,*02
$GPGSV,2,1,05,03,00,000,44,16,00,000,39,22,00,000,42,23,00,000,41*73
$GPGSV,2,2,05,26,00,000,39*42
$BDGSV,2,1,06,02,00,000,40,05,00,000,37,10,00,000,40,18,00,000,43*61
$BDGSV,2,2,06,19,00,000,43,22,00,000,43*66
$B3CN0,0,0,0,0,0,0,0,0,0,0,0,0,0,0*4C
# of Valid meas: 0 [ ]
LSQ PV=[ 0         0.00,         0.00,         0.00,   0.00,   0.00,   0.00, [ 0.00,  0.00],       0.00,      0.00,      0.00,  0.00,0  0.00]
KF  PV=[ 0         0.00,         0.00,         0.00,   0.00,   0.00,   0.00, [ 0.00,  0.00],       0.00,      0.00,      0.00,  0.00,0  0.00]
LSQ LLH=[ 0.000000, 0.000000, 0.00, 0.000000 96788.429963]
KF  LLH=[ 0.000000, 0.000000, 0.00, 96788.429963 96788.429963]
KF  FixSet        0        0        0        0
LSQ Dop=[ 0.00, 0.00, 0.00, 0.00]
KF Dop=[ 0.00, 0.00, 0.00, 0.00]
KF UTC=[2019/04/01 - 02:52:50.430 ]
$GNGGA,025250.430,,,,,0,00,,,M,,,,0000*2C
$GNRMC,025250.430,A,,,,,,,010419,,*2C
$GPGSA,A,1,,,,,,,,,,,,,,,*1E
$BDGSA,A,1,,,,,,,,,,,,,,,*0F
$GLGSA,A,1,,,,,,,,,,,,,,,*02
$GPGSV,2,1,05,03,00,000,45,16,00,000,40,22,00,000,42,23,00,000,42*7F
$GPGSV,2,2,05,26,00,000,39*42
$BDGSV,2,1,06,02,00,000,39,05,00,000,37,10,00,000,40,18,00,000,43*6F
$BDGSV,2,2,06,19,00,000,43,22,00,000,43*66
$B3CN0,0,0,0,0,0,0,0,0,0,0,0,0,0,0*4C
# of Valid meas: 0 [ ]
LSQ PV=[ 0         0.00,         0.00,         0.00,   0.00,   0.00,   0.00, [ 0.00,  0.00],       0.00,      0.00,      0.00,  0.00,0  0.00]
KF  PV=[ 0         0.00,         0.00,         0.00,   0.00,   0.00,   0.00, [ 0.00,  0.00],       0.00,      0.00,      0.00,  0.00,0  0.00]
LSQ LLH=[ 0.000000, 0.000000, 0.00, 0.000000 96789.429963]
KF  LLH=[ 0.000000, 0.000000, 0.00, 96789.429963 96789.429963]
KF  FixSet        0        0        0        0
LSQ Dop=[ 0.00, 0.00, 0.00, 0.00]
KF Dop=[ 0.00, 0.00, 0.00, 0.00]
KF UTC=[2019/04/01 - 02:52:51.430 ]
$GNGGA,025251.430,,,,,0,00,,,M,,,,0000*2D
$GNRMC,025251.430,A,,,,,,,010419,,*2D
$GPGSA,A,1,,,,,,,,,,,,,,,*1E
$BDGSA,A,1,,,,,,,,,,,,,,,*0F
$GLGSA,A,1,,,,,,,,,,,,,,,*02
$GPGSV,2,1,05,03,00,000,45,16,00,000,41,22,00,000,42,23,00,000,42*7E
$GPGSV,2,2,05,26,00,000,39*42
$BDGSV,2,1,06,02,00,000,40,05,00,000,37,10,00,000,40,18,00,000,43*61
$BDGSV,2,2,06,19,00,000,43,22,00,000,43*66
$B3CN0,0,18,0,0,0,0,0,0,0,0,0,0,0,0*75
# of Valid meas: 0 [ ]
LSQ PV=[ 0         0.00,         0.00,         0.00,   0.00,   0.00,   0.00, [ 0.00,  0.00],       0.00,      0.00,      0.00,  0.00,0  0.00]
KF  PV=[ 0         0.00,         0.00,         0.00,   0.00,   0.00,   0.00, [ 0.00,  0.00],       0.00,      0.00,      0.00,  0.00,0  0.00]
LSQ LLH=[ 0.000000, 0.000000, 0.00, 0.000000 96790.429963]
KF  LLH=[ 0.000000, 0.000000, 0.00, 96790.429963 96790.429963]
KF  FixSet        0        0        0        0
LSQ Dop=[ 0.00, 0.00, 0.00, 0.00]
KF Dop=[ 0.00, 0.00, 0.00, 0.00]
KF UTC=[2019/04/01 - 02:52:52.430 ]
$GNGGA,025252.430,,,,,0,00,,,M,,,,0000*2E
$GNRMC,025252.430,A,,,,,,,010419,,*2E
$GPGSA,A,1,,,,,,,,,,,,,,,*1E
$BDGSA,A,1,,,,,,,,,,,,,,,*0F
$GLGSA,A,1,,,,,,,,,,,,,,,*02
$GPGSV,2,1,05,03,00,000,45,16,00,000,42,22,00,000,42,23,00,000,42*7D
$GPGSV,2,2,05,26,00,000,39*42
$BDGSV,2,1,06,02,00,000,40,05,00,000,36,10,00,000,40,18,00,000,43*60
$BDGSV,2,2,06,19,00,000,43,22,00,000,43*66
$B3CN0,0,0,0,0,0,0,0,0,0,0,0,0,0,0*4C
# of Valid meas: 0 [ ]
LSQ PV=[ 0         0.00,         0.00,         0.00,   0.00,   0.00,   0.00, [ 0.00,  0.00],       0.00,      0.00,      0.00,  0.00,0  0.00]
KF  PV=[ 0         0.00,         0.00,         0.00,   0.00,   0.00,   0.00, [ 0.00,  0.00],       0.00,      0.00,      0.00,  0.00,0  0.00]
LSQ LLH=[ 0.000000, 0.000000, 0.00, 0.000000 96791.429963]
KF  LLH=[ 0.000000, 0.000000, 0.00, 96791.429963 96791.429963]
KF  FixSet        0        0        0        0
LSQ Dop=[ 0.00, 0.00, 0.00, 0.00]
KF Dop=[ 0.00, 0.00, 0.00, 0.00]
KF UTC=[2019/04/01 - 02:52:53.430 ]
$GNGGA,025253.430,,,,,0,00,,,M,,,,0000*2F
$GNRMC,025253.430,A,,,,,,,010419,,*2F
$GPGSA,A,1,,,,,,,,,,,,,,,*1E
$BDGSA,A,1,,,,,,,,,,,,,,,*0F
$GLGSA,A,1,,,,,,,,,,,,,,,*02
$GPGSV,2,1,05,03,00,000,45,16,00,000,43,22,00,000,42,23,00,000,43*7D
$GPGSV,2,2,05,26,00,000,39*42
$BDGSV,2,1,06,02,00,000,40,05,00,000,37,10,00,000,40,18,00,000,43*61
$BDGSV,2,2,06,19,00,000,43,22,00,000,43*66
$B3CN0,0,0,0,0,0,0,0,0,0,0,0,0,0,0*4C
# of Valid meas: 0 [ ]
LSQ PV=[ 0         0.00,         0.00,         0.00,   0.00,   0.00,   0.00, [ 0.00,  0.00],       0.00,      0.00,      0.00,  0.00,0  0.00]
KF  PV=[ 0         0.00,         0.00,         0.00,   0.00,   0.00,   0.00, [ 0.00,  0.00],       0.00,      0.00,      0.00,  0.00,0  0.00]
LSQ LLH=[ 0.000000, 0.000000, 0.00, 0.000000 96792.429963]
KF  LLH=[ 0.000000, 0.000000, 0.00, 96792.429963 96792.429963]
KF  FixSet        0        0        0        0
LSQ Dop=[ 0.00, 0.00, 0.00, 0.00]
KF Dop=[ 0.00, 0.00, 0.00, 0.00]
KF UTC=[2019/04/01 - 02:52:54.430 ]
$GNGGA,025254.430,,,,,0,00,,,M,,,,0000*28
$GNRMC,025254.430,A,,,,,,,010419,,*28
$GPGSA,A,1,,,,,,,,,,,,,,,*1E
$BDGSA,A,1,,,,,,,,,,,,,,,*0F
$GLGSA,A,1,,,,,,,,,,,,,,,*02
$GPGSV,2,1,05,03,00,000,45,16,00,000,43,22,00,000,42,23,00,000,42*7C
$GPGSV,2,2,05,26,00,000,39*42
$BDGSV,2,1,06,02,00,000,40,05,00,000,37,10,00,000,40,18,00,000,42*60
$BDGSV,2,2,06,19,00,000,43,22,00,000,43*66
$B3CN0,0,0,0,0,0,0,0,0,0,0,0,0,0,0*4C
# of Valid meas: 0 [ ]
LSQ PV=[ 0         0.00,         0.00,         0.00,   0.00,   0.00,   0.00, [ 0.00,  0.00],       0.00,      0.00,      0.00,  0.00,0  0.00]
KF  PV=[ 0         0.00,         0.00,         0.00,   0.00,   0.00,   0.00, [ 0.00,  0.00],       0.00,      0.00,      0.00,  0.00,0  0.00]
LSQ LLH=[ 0.000000, 0.000000, 0.00, 0.000000 96793.429963]
KF  LLH=[ 0.000000, 0.000000, 0.00, 96793.429963 96793.429963]
KF  FixSet        0        0        0        0
LSQ Dop=[ 0.00, 0.00, 0.00, 0.00]
KF Dop=[ 0.00, 0.00, 0.00, 0.00]
KF UTC=[2019/04/01 - 02:52:55.430 ]
$GNGGA,025255.430,,,,,0,00,,,M,,,,0000*29
$GNRMC,025255.430,A,,,,,,,010419,,*29
$GPGSA,A,1,,,,,,,,,,,,,,,*1E
$BDGSA,A,1,,,,,,,,,,,,,,,*0F
$GLGSA,A,1,,,,,,,,,,,,,,,*02
$GPGSV,2,1,05,03,00,000,45,16,00,000,43,22,00,000,42,23,00,000,42*7C
$GPGSV,2,2,05,26,00,000,40*4C
$BDGSV,2,1,06,02,00,000,40,05,00,000,38,10,00,000,40,18,00,000,42*6F
$BDGSV,2,2,06,19,00,000,44,22,00,000,43*61
$B3CN0,0,19,0,0,0,0,0,0,0,0,0,0,0,0*74
# of Valid meas: 0 [ ]
LSQ PV=[ 0         0.00,         0.00,         0.00,   0.00,   0.00,   0.00, [ 0.00,  0.00],       0.00,      0.00,      0.00,  0.00,0  0.00]
KF  PV=[ 0         0.00,         0.00,         0.00,   0.00,   0.00,   0.00, [ 0.00,  0.00],       0.00,      0.00,      0.00,  0.00,0  0.00]
LSQ LLH=[ 0.000000, 0.000000, 0.00, 0.000000 96794.429963]
KF  LLH=[ 0.000000, 0.000000, 0.00, 96794.429963 96794.429963]
KF  FixSet        0        0        0        0
LSQ Dop=[ 0.00, 0.00, 0.00, 0.00]
KF Dop=[ 0.00, 0.00, 0.00, 0.00]
KF UTC=[2019/04/01 - 02:52:56.430 ]
$GNGGA,025256.430,,,,,0,00,,,M,,,,0000*2A
$GNRMC,025256.430,A,,,,,,,010419,,*2A
$GPGSA,A,1,,,,,,,,,,,,,,,*1E
$BDGSA,A,1,,,,,,,,,,,,,,,*0F
$GLGSA,A,1,,,,,,,,,,,,,,,*02
$GPGSV,2,1,05,03,00,000,44,16,00,000,43,22,00,000,43,23,00,000,42*7C
$GPGSV,2,2,05,26,00,000,40*4C
$BDGSV,2,1,06,02,00,000,39,05,00,000,37,10,00,000,40,18,00,000,42*6E
$BDGSV,2,2,06,19,00,000,44,22,00,000,43*61
$B3CN0,0,0,0,0,0,0,0,0,0,0,0,0,0,0*4C
# of Valid meas: 0 [ ]
LSQ PV=[ 0         0.00,         0.00,         0.00,   0.00,   0.00,   0.00, [ 0.00,  0.00],       0.00,      0.00,      0.00,  0.00,0  0.00]
KF  PV=[ 0         0.00,         0.00,         0.00,   0.00,   0.00,   0.00, [ 0.00,  0.00],       0.00,      0.00,      0.00,  0.00,0  0.00]
LSQ LLH=[ 0.000000, 0.000000, 0.00, 0.000000 96795.429963]
KF  LLH=[ 0.000000, 0.000000, 0.00, 96795.429963 96795.429963]
KF  FixSet        0        0        0        0
LSQ Dop=[ 0.00, 0.00, 0.00, 0.00]
KF Dop=[ 0.00, 0.00, 0.00, 0.00]
KF UTC=[2019/04/01 - 02:52:57.430 ]
$GNGGA,025257.430,,,,,0,00,,,M,,,,0000*2B
$GNRMC,025257.430,A,,,,,,,010419,,*2B
$GPGSA,A,1,,,,,,,,,,,,,,,*1E
$BDGSA,A,1,,,,,,,,,,,,,,,*0F
$GLGSA,A,1,,,,,,,,,,,,,,,*02
$GPGSV,2,1,05,03,00,000,45,16,00,000,44,22,00,000,43,23,00,000,42*7A
$GPGSV,2,2,05,26,00,000,40*4C
$BDGSV,2,1,06,02,00,000,40,05,00,000,37,10,00,000,41,18,00,000,43*60
$BDGSV,2,2,06,19,00,000,44,22,00,000,43*61
$B3CN0,0,0,0,0,0,0,0,0,0,0,0,0,0,0*4C
# of Valid meas: 0 [ ]
LSQ PV=[ 0         0.00,         0.00,         0.00,   0.00,   0.00,   0.00, [ 0.00,  0.00],       0.00,      0.00,      0.00,  0.00,0  0.00]
KF  PV=[ 0         0.00,         0.00,         0.00,   0.00,   0.00,   0.00, [ 0.00,  0.00],       0.00,      0.00,      0.00,  0.00,0  0.00]
LSQ LLH=[ 0.000000, 0.000000, 0.00, 0.000000 96796.429963]
KF  LLH=[ 0.000000, 0.000000, 0.00, 96796.429963 96796.429963]
KF  FixSet        0        0        0        0
LSQ Dop=[ 0.00, 0.00, 0.00, 0.00]
KF Dop=[ 0.00, 0.00, 0.00, 0.00]
KF UTC=[2019/04/01 - 02:52:58.430 ]
$GNGGA,025258.430,,,,,0,00,,,M,,,,0000*24
$GNRMC,025258.430,A,,,,,,,010419,,*24
$GPGSA,A,1,,,,,,,,,,,,,,,*1E
$BDGSA,A,1,,,,,,,,,,,,,,,*0F
$GLGSA,A,1,,,,,,,,,,,,,,,*02
$GPGSV,2,1,05,03,00,000,45,16,00,000,43,22,00,000,43,23,00,000,42*7D
$GPGSV,2,2,05,26,00,000,40*4C
$BDGSV,2,1,06,02,00,000,40,05,00,000,36,10,00,000,40,18,00,000,43*60
$BDGSV,2,2,06,19,00,000,44,22,00,000,43*61
$B3CN0,0,0,0,0,0,0,0,0,0,0,0,0,0,0*4C
# of Valid meas: 0 [ ]
LSQ PV=[ 0         0.00,         0.00,         0.00,   0.00,   0.00,   0.00, [ 0.00,  0.00],       0.00,      0.00,      0.00,  0.00,0  0.00]
KF  PV=[ 0         0.00,         0.00,         0.00,   0.00,   0.00,   0.00, [ 0.00,  0.00],       0.00,      0.00,      0.00,  0.00,0  0.00]
LSQ LLH=[ 0.000000, 0.000000, 0.00, 0.000000 96797.429963]
KF  LLH=[ 0.000000, 0.000000, 0.00, 96797.429963 96797.429963]
KF  FixSet        0        0        0        0
LSQ Dop=[ 0.00, 0.00, 0.00, 0.00]
KF Dop=[ 0.00, 0.00, 0.00, 0.00]
KF UTC=[2019/04/01 - 02:52:59.430 ]
$GNGGA,025259.430,,,,,0,00,,,M,,,,0000*25
$GNRMC,025259.430,A,,,,,,,010419,,*25
$GPGSA,A,1,,,,,,,,,,,,,,,*1E
$BDGSA,A,1,,,,,,,,,,,,,,,*0F
$GLGSA,A,1,,,,,,,,,,,,,,,*02
$GPGSV,2,1,05,03,00,000,45,16,00,000,43,22,00,000,43,23,00,000,41*7E
$GPGSV,2,2,05,26,00,000,40*4C
$BDGSV,2,1,06,02,00,000,40,05,00,000,36,10,00,000,40,18,00,000,43*60
$BDGSV,2,2,06,19,00,000,43,22,00,000,43*66
$B3CN0,0,0,0,0,0,0,0,0,0,0,0,0,0,0*4C
PRange Check: SYS0, 38711198.0 42093132.8 3381934.8 
FIXMEAS_G03 45 0f 00 0.0 -1481.10         0.00  62200134.48 [ 12489070.67  18779061.57  14055171.34] [   40.74  1798.79 -2425.83 56256.01]
FIXMEAS_G16 42 0f 00 0.0 -3591.26         0.00  60972645.52 [   360069.29  26256661.95   1548720.01] [ -258.22  -207.70  3247.30 -8810.66]
FIXMEAS_G22 43 0f 00 0.0  -310.31         0.00  62013980.97 [ 10467635.67  23443734.72   7161866.19] [ -165.82   936.52 -2914.57 -202429.12]
FIXMEAS_G23 42 0f 00 1.0 -4355.18         0.00  64682619.78 [ 15922429.73   6388951.16  20690206.41] [-1932.87  1667.35   947.37 -57530.97]
FIXMEAS_G26 40 0f 00 0.3 -1344.90         0.00  60000267.07 [ -4988204.52  22980574.56  12152338.16] [ -518.49 -1490.18  2618.72 49225.17]
# of Valid meas: 5 [G03 G16 G22 G23 G26  ]
LSQ PV=[ 5  -1578906.46,   5312719.23,   3146364.80,  -0.52,  -0.69,  -0.56, [ 0.74, -0.72], 39878537.13,      0.00,      0.00,-208.17,5  3.21]
KF  PV=[ 5  -1578906.46,   5312719.23,   3146364.80,  -0.52,  -0.69,  -0.56, [ 0.74, -0.72], 39878537.13,      0.00,      0.00,-208.17,5  3.21]
LSQ LLH=[ 29.748753, 106.551615, 284.29, 96798.296943 96798.429963]
KF  LLH=[ 29.748753, 106.551615, 284.29, 96798.296943 96798.429963]
KF  FixSet  2608004        0        0        0
LSQ Dop=[ 6.24, 5.01, 3.21, 3.85]
KF Dop=[ 6.24, 5.01, 3.21, 3.85]
KF UTC=[2019/04/01 - 02:53:0.297 ]
Form BB MSG80:     0.103 1064925 10333326 
$GNGGA,025300.297,2944.9252,N,10633.0969,E,1,05,3.2,284.3,M,,,,0000*16
$GNRMC,025300.297,A,2944.9252,N,10633.0969,E,1.43,0.00,010419,,*18
$GPGSA,A,3,03,16,22,23,26,,,,,,,,5.0,3.2,3.8*3C
$BDGSA,A,3,,,,,,,,,,,,,5.0,3.2,3.8*2C
$GLGSA,A,3,,,,,,,,,,,,,5.0,3.2,3.8*21
$GPGSV,2,1,05,03,00,000,45,16,00,000,42,22,00,000,43,23,00,000,42*7C
$GPGSV,2,2,05,26,00,000,40*4C
$BDGSV,2,1,06,02,00,000,40,05,00,000,37,10,00,000,40,18,00,000,43*61
$BDGSV,2,2,06,19,00,000,44,22,00,000,43*61
$B3CN0,0,0,0,0,0,0,0,0,0,0,0,0,0,0*4C
PRange Check: SYS0,    -228.6    -198.2     30.3 
FIXMEAS_G03 45 0f 00 1.0 -1481.76         0.00  22321287.92 [ 12489115.64  18781045.55  14052495.33] [   40.81  1798.45 -2426.15 56256.01]
FIXMEAS_G16 42 0f 00 0.0 -3592.44         0.00  21093348.35 [   359784.43  26256432.60   1552301.95] [ -258.26  -208.14  3247.26 -8810.66]
FIXMEAS_G22 43 0f 00 1.0  -312.52         0.00  22135379.57 [ 10467452.74  23444767.54   7158651.17] [ -165.85   936.14 -2914.73 -202429.12]
FIXMEAS_G23 42 0f 00 0.9 -4355.59         0.00  24803171.00 [ 15920297.66   6390790.46  20691251.15] [-1932.87  1667.55   946.90 -57530.96]
FIXMEAS_G26 40 0f 00 0.9 -1348.01         0.00  20121447.06 [ -4988776.53  22978930.62  12155226.60] [ -518.64 -1490.51  2618.43 49225.17]
# of Valid meas: 5 [G03 G22 G16 G23 G26  ]
LSQ PV=[ 5  -1578913.12,   5312711.92,   3146350.92,  -0.63,   0.15,   0.09, [ 0.57,  0.33],    -241.26,      0.00,      0.00,-207.79,5  3.21]
KF  PV=[ 5  -1578910.40,   5312716.45,   3146352.36,  -0.67,   0.04,  -0.06, [ 0.65,  0.17],    -235.74,     -0.46,     -0.46,-208.53,11  3.21]
LSQ LLH=[ 29.748667, 106.551703, 272.97, 96799.400001 96799.400000]
KF  LLH=[ 29.748662, 106.551663, 276.77, 96799.400001 96799.400000]
KF  FixSet  2608004        0        0        0
LSQ Dop=[ 6.24, 5.02, 3.21, 3.85]
KF Dop=[ 6.24, 5.02, 3.21, 3.85]
KF UTC=[2019/04/01 - 02:53:1.401 ]
Refix G03: 2,  96799.325732, -1485
Refix G16: 2,  96799.329611, -3596
Refix G22: 2,  96799.325489, -314
Refix G23: 2,  96799.317073, -4358
Refix G26: 2,  96799.333046, -1350
$GNGGA,025301.400,2944.9197,N,10633.0998,E,1,05,3.2,276.8,M,,,,0000*1D
$GNRMC,025301.400,A,2944.9197,N,10633.0998,E,1.27,0.00,010419,,*17
$GPGSA,A,3,03,16,22,23,26,,,,,,,,5.0,3.2,3.9*3D
$BDGSA,A,3,,,,,,,,,,,,,5.0,3.2,3.9*2D
$GLGSA,A,3,,,,,,,,,,,,,5.0,3.2,3.9*20
$GPGSV,2,1,05,03,00,000,45,16,00,000,42,22,00,000,43,23,00,000,42*7C
$GPGSV,2,2,05,26,00,000,40*4C
$BDGSV,2,1,06,02,00,000,40,05,00,000,37,10,00,000,40,18,00,000,43*61
$BDGSV,2,2,06,19,00,000,43,22,00,000,42*67
$B3CN0,0,0,0,0,0,0,0,0,0,0,0,0,0,0*4C
PRange Check: SYS0,    -443.7    -415.9     27.8 
FIXMEAS_G03 45 0f 00 0.0 -1477.72         0.00  22321005.97 [ 12489156.48  18782843.85  14050069.03] [   40.87  1798.14 -2426.45 56256.01]
FIXMEAS_G16 41 0f 00 0.9 -3589.23         0.00  21092653.47 [   359526.16  26256224.26   1555549.20] [ -258.29  -208.54  3247.22 -8810.67]
FIXMEAS_G22 44 0f 00 0.1  -308.92         0.00  22135315.60 [ 10467286.87  23445703.51   7155736.36] [ -165.88   935.80 -2914.88 -202429.12]
FIXMEAS_G23 43 0f 00 0.0 -4353.05         0.00  24802345.87 [ 15918364.78   6392458.10  20692197.84] [-1932.87  1667.73   946.47 -57530.96]
FIXMEAS_G26 40 0f 00 0.1 -1342.39         0.00  20121190.92 [ -4989295.24  22977439.97  12157844.90] [ -518.78 -1490.80  2618.17 49225.18]
# of Valid meas: 5 [G03 G22 G23 G16 G26  ]
LSQ PV=[ 5  -1578914.66,   5312708.34,   3146328.72,  -0.48,  -0.51,  -0.80, [ 0.79, -0.70],    -462.06,      0.00,      0.00,-207.85,5  3.21]
KF  PV=[ 5  -1578910.72,   5312715.46,   3146342.45,  -0.60,  -0.84,  -1.16, [ 1.07, -1.13],    -449.30,     -1.31,     -1.31,-208.72,11  3.21]
LSQ LLH=[ 29.748506, 106.551729, 259.34, 96800.400001 96800.400000]
KF  LLH=[ 29.748588, 106.551669, 271.11, 96800.400001 96800.400000]
KF  FixSet  2608004        0        0        0
LSQ Dop=[ 6.24, 5.02, 3.21, 3.85]
KF Dop=[ 6.24, 5.02, 3.21, 3.85]
KF UTC=[2019/04/01 - 02:53:2.401 ]
Refix G03: 2,  96800.325733, -1480
Refix G16: 2,  96800.329613, -3592
Refix G22: 2,  96800.325489, -310
Refix G23: 2,  96800.317076, -4355
Refix G26: 2,  96800.333047, -1344
$GNGGA,025302.400,2944.9153,N,10633.1001,E,1,05,3.2,271.1,M,,,,0000*10
$GNRMC,025302.400,A,2944.9153,N,10633.1001,E,2.08,18315.48,,,*15
$GPGSA,A,3,03,16,22,23,26,,,,,,,,5.0,3.2,3.9*3D
$BDGSA,A,3,,,,,,,,,,,,,5.0,3.2,3.9*2D
$GLGSA,A,3,,,,,,,,,,,,,5.0,3.2,3.9*20
$GPGSV,2,1,05,03,36,286,45,16,50,215,41,22,39,258,44,23,12,315,43*72
$GPGSV,2,2,05,26,84,240,40*46
$BDGSV,2,1,06,02,00,000,40,05,00,000,37,10,65,245,40,18,00,000,43*61
$BDGSV,2,2,06,19,00,000,43,22,00,000,43*66
$B3CN0,0,16,0,0,0,0,0,0,0,0,0,0,0,0*7B
PRange Check: SYS0,    -659.7    -628.5     31.2 
FIXMEAS_G03 45 0f 00 0.0 -1482.27         0.00  22320722.54 [ 12489197.39  18784641.84  14047642.43] [   40.93  1797.84 -2426.75 56256.01]
FIXMEAS_G16 41 0f 00 0.9 -3593.84         0.00  21091961.19 [   359267.84  26256015.53   1558796.41] [ -258.33  -208.93  3247.19 -8810.67]
FIXMEAS_G22 43 0f 00 1.0  -312.35         0.00  22135247.99 [ 10467120.98  23446639.14   7152821.40] [ -165.91   935.45 -2915.03 -202429.12]
FIXMEAS_G23 43 0f 00 1.0 -4357.33         0.00  24801522.79 [ 15916431.91   6394125.93  20693144.10] [-1932.86  1667.92   946.05 -57530.96]
FIXMEAS_G26 40 0f 00 1.0 -1348.08         0.00  20120935.70 [ -4989814.08  22975949.02  12160462.94] [ -518.91 -1491.10  2617.90 49225.18]
# of Valid meas: 5 [G03 G22 G23 G16 G26  ]
LSQ PV=[ 5  -1578906.86,   5312718.69,   3146315.46,  -0.82,  -0.25,  -0.35, [ 0.91, -0.19],    -667.05,      0.00,      0.00,-208.59,5  3.22]
KF  PV=[ 5  -1578909.64,   5312716.54,   3146329.70,  -0.75,  -0.49,  -0.70, [ 0.99, -0.57],    -662.28,     -2.81,     -2.81,-209.09,11  3.22]
LSQ LLH=[ 29.748368, 106.551621, 259.45, 96801.400002 96801.400000]
KF  LLH=[ 29.748485, 106.551655, 265.41, 96801.400002 96801.400000]
KF  FixSet  2608004        0        0        0
LSQ Dop=[ 6.24, 5.02, 3.22, 3.85]
KF Dop=[ 6.24, 5.02, 3.22, 3.85]
KF UTC=[2019/04/01 - 02:53:3.401 ]
Refix G03: 2,  96801.325734, -1483
Refix G16: 2,  96801.329615, -3595
Refix G22: 2,  96801.325489, -313
Refix G23: 2,  96801.317079, -4358
Refix G26: 2,  96801.333048, -1348
$GNGGA,025303.400,2944.9091,N,10633.0993,E,1,05,3.2,265.4,M,,,,0000*1D
$GNRMC,025303.400,A,2944.9091,N,10633.0993,E,1.92,18315.48,,,*18
$GPGSA,A,3,03,16,22,23,26,,,,,,,,5.0,3.2,3.9*3D
$BDGSA,A,3,,,,,,,,,,,,,5.0,3.2,3.9*2D
$GLGSA,A,3,,,,,,,,,,,,,5.0,3.2,3.9*20
$GPGSV,2,1,05,03,36,286,45,16,50,215,41,22,39,258,43,23,12,315,43*75
$GPGSV,2,2,05,26,84,240,40*46
$BDGSV,2,1,06,02,00,000,40,05,00,000,36,10,65,245,40,18,00,000,43*60
$BDGSV,2,2,06,19,00,000,43,22,00,000,43*66
$B3CN0,0,0,0,0,0,0,0,0,0,0,0,0,0,0*4C
PRange Check: SYS0,    -872.5    -839.8     32.7 
FIXMEAS_G03 44 0f 00 1.0 -1477.45         0.00  22320435.77 [ 12489238.35  18786439.53  14045215.53] [   41.00  1797.53 -2427.05 56256.01]
FIXMEAS_G16 41 0f 00 0.9 -3587.13         0.00  21091270.73 [   359009.49  26255806.39   1562043.59] [ -258.37  -209.33  3247.15 -8810.67]
FIXMEAS_G22 42 0f 00 0.0  -307.89         0.00  22135176.82 [ 10466955.05  23447574.42   7149906.30] [ -165.94   935.11 -2915.18 -202429.12]
FIXMEAS_G23 44 0f 00 0.0 -4353.37         0.00  24800698.28 [ 15914499.04   6395793.95  20694089.93] [-1932.86  1668.10   945.62 -57530.96]
FIXMEAS_G26 40 0f 00 0.7 -1341.88         0.00  20120681.14 [ -4990333.07  22974457.77  12163080.71] [ -519.05 -1491.39  2617.64 49225.18]
# of Valid meas: 5 [G03 G23 G22 G16 G26  ]
LSQ PV=[ 5  -1578890.31,   5312738.16,   3146309.83,  -0.27,   0.08,   0.08, [ 0.24,  0.17],    -861.38,      0.00,      0.00,-207.11,5  3.22]
KF  PV=[ 5  -1578905.06,   5312723.01,   3146321.35,  -0.80,  -0.97,  -0.96, [ 1.15, -1.08],    -869.60,     -0.84,     -0.84,-208.01,11  3.22]
LSQ LLH=[ 29.748262, 106.551400, 268.77, 96802.400003 96802.400000]
KF  LLH=[ 29.748398, 106.551590, 265.52, 96802.400003 96802.400000]
KF  FixSet  2608004        0        0        0
LSQ Dop=[ 6.25, 5.02, 3.22, 3.86]
KF Dop=[ 6.25, 5.02, 3.22, 3.86]
KF UTC=[2019/04/01 - 02:53:4.401 ]
Refix G03: 2,  96802.325734, -1474
Refix G16: 2,  96802.329617, -3586
Refix G22: 2,  96802.325489, -305
Refix G23: 2,  96802.317082, -4351
Refix G26: 2,  96802.333049, -1339
$GNGGA,025304.400,2944.9039,N,10633.0954,E,1,05,3.2,265.5,M,,,,0000*12
$GNRMC,025304.400,A,2944.9039,N,10633.0954,E,2.24,19200.47,,,*13
$GPGSA,A,3,03,16,22,23,26,,,,,,,,5.0,3.2,3.9*3D
$BDGSA,A,3,,,,,,,,,,,,,5.0,3.2,3.9*2D
$GLGSA,A,3,,,,,,,,,,,,,5.0,3.2,3.9*20
$GPGSV,2,1,05,03,36,286,44,16,50,215,41,22,39,258,42,23,12,315,44*72
$GPGSV,2,2,05,26,84,240,40*46
$BDGSV,2,1,06,02,00,000,40,05,00,000,36,10,65,245,40,18,00,000,43*60
$BDGSV,2,2,06,19,00,000,43,22,00,000,43*66
$B3CN0,0,16,0,0,0,0,0,0,0,0,0,0,0,0*7B
PRange Check: SYS0,   -1084.4   -1045.5     39.0 
FIXMEAS_G03 44 0f 00 1.0 -1483.11         0.00  22320146.19 [ 12489279.38  18788236.91  14042788.33] [   41.06  1797.23 -2427.34 56256.01]
FIXMEAS_G16 41 0f 00 0.9 -3593.19         0.00  21090582.21 [   358751.10  26255596.86   1565290.73] [ -258.41  -209.73  3247.12 -8810.67]
FIXMEAS_G22 41 0f 00 1.0  -313.30         0.00  22135104.34 [ 10466789.10  23448509.35   7146991.04] [ -165.97   934.76 -2915.33 -202429.12]
FIXMEAS_G23 44 0f 00 1.0 -4360.63         0.00  24799873.65 [ 15912566.18   6397462.15  20695035.35] [-1932.86  1668.29   945.20 -57530.96]
FIXMEAS_G26 40 0f 00 0.1 -1348.34         0.00  20120427.45 [ -4990852.19  22972966.23  12165698.22] [ -519.19 -1491.69  2617.38 49225.18]
# of Valid meas: 5 [G03 G23 G16 G22 G26  ]
LSQ PV=[ 5  -1578866.94,   5312766.12,   3146311.84,  -0.62,  -0.35,   0.01, [ 0.70, -0.13],   -1045.29,      0.00,      0.00,-208.80,5  3.22]
KF  PV=[ 5  -1578900.06,   5312729.15,   3146316.80,  -0.38,  -0.19,  -0.05, [ 0.42, -0.09],   -1075.51,      0.41,      0.41,-207.78,11  3.22]
LSQ LLH=[ 29.748187, 106.551086, 287.26, 96803.400003 96803.400000]
KF  LLH=[ 29.748342, 106.551523, 267.15, 96803.400003 96803.400000]
KF  FixSet  2608004        0        0        0
LSQ Dop=[ 6.25, 5.02, 3.22, 3.86]
KF Dop=[ 6.25, 5.02, 3.22, 3.86]
KF UTC=[2019/04/01 - 02:53:5.401 ]
Refix G03: 2,  96803.325735, -1479
Refix G16: 2,  96803.329620, -3588
Refix G22: 2,  96803.325490, -308
Refix G23: 2,  96803.317084, -4355
Refix G26: 2,  96803.333049, -1343
$GNGGA,025305.400,2944.9005,N,10633.0914,E,1,05,3.2,267.1,M,,,,0000*1E
$GNRMC,025305.400,A,2944.9005,N,10633.0914,E,0.82,19200.47,,,*17
$GPGSA,A,3,03,16,22,23,26,,,,,,,,5.0,3.2,3.9*3D
$BDGSA,A,3,,,,,,,,,,,,,5.0,3.2,3.9*2D
$GLGSA,A,3,,,,,,,,,,,,,5.0,3.2,3.9*20
$GPGSV,2,1,05,03,36,286,44,16,50,215,41,22,39,258,41,23,12,315,44*71
$GPGSV,2,2,05,26,84,240,40*46
$BDGSV,2,1,06,02,00,000,40,05,00,000,37,10,65,245,40,18,00,000,43*61
$BDGSV,2,2,06,19,00,000,43,22,00,000,43*66
$B3CN0,0,0,0,0,0,0,0,0,0,0,0,0,0,0*4C
PRange Check: SYS0,   -1297.7   -1249.6     48.1 
FIXMEAS_G03 45 0f 00 0.0 -1487.83         0.00  22319856.77 [ 12489320.47  18790033.98  14040360.83] [   41.12  1796.92 -2427.64 56256.01]
FIXMEAS_G16 41 0f 00 1.0 -3598.61         0.00  21089899.34 [   358492.68  26255386.94   1568537.84] [ -258.44  -210.13  3247.08 -8810.67]
FIXMEAS_G22 41 0f 00 0.0  -319.09         0.00  22135032.77 [ 10466623.11  23449443.94   7144075.64] [ -166.00   934.42 -2915.48 -202429.13]
FIXMEAS_G23 43 0f 00 0.0 -4364.65         0.00  24799047.44 [ 15910633.31   6399130.53  20695980.33] [-1932.86  1668.47   944.77 -57530.96]
FIXMEAS_G26 40 0f 00 0.2 -1354.23         0.00  20120174.91 [ -4991371.45  22971474.40  12168315.47] [ -519.33 -1491.98  2617.12 49225.19]
# of Valid meas: 5 [G03 G23 G16 G22 G26  ]
LSQ PV=[ 5  -1578840.43,   5312797.14,   3146323.40,  -0.57,   0.36,   0.29, [ 0.45,  0.59],   -1221.51,      0.00,      0.00,-209.28,5  3.22]
KF  PV=[ 5  -1578897.05,   5312732.41,   3146315.52,  -0.07,   0.98,   0.70, [ 0.25,  1.18],   -1282.39,      0.69,      0.69,-207.97,11  3.22]
LSQ LLH=[ 29.748178, 106.550732, 312.25, 96804.400004 96804.400000]
KF  LLH=[ 29.748322, 106.551483, 268.47, 96804.400004 96804.400000]
KF  FixSet  2608004        0        0        0
LSQ Dop=[ 6.25, 5.02, 3.22, 3.86]
KF Dop=[ 6.25, 5.02, 3.22, 3.86]
KF UTC=[2019/04/01 - 02:53:6.401 ]
Refix G03: 2,  96804.325736, -1486
Refix G16: 2,  96804.329622, -3595
Refix G22: 2,  96804.325490, -315
Refix G23: 2,  96804.317087, -4361
Refix G26: 2,  96804.333050, -1350
$GNGGA,025306.400,2944.8993,N,10633.0890,E,1,05,3.2,268.5,M,,,,0000*1C
$GNRMC,025306.400,A,2944.8993,N,10633.0890,E,0.49,19200.47,,,*19
$GPGSA,A,3,03,16,22,23,26,,,,,,,,5.0,3.2,3.9*3D
$BDGSA,A,3,,,,,,,,,,,,,5.0,3.2,3.9*2D
$GLGSA,A,3,,,,,,,,,,,,,5.0,3.2,3.9*20
$GPGSV,2,1,05,03,36,286,45,16,50,215,41,22,39,258,41,23,12,315,43*77
$GPGSV,2,2,05,26,84,240,40*46
$BDGSV,2,1,06,02,00,000,39,05,00,000,38,10,65,245,40,18,00,000,43*60
$BDGSV,2,2,06,19,00,000,43,22,00,000,43*66
$B3CN0,0,0,0,0,0,0,0,0,0,0,0,0,0,0*4C
PRange Check: SYS0,   -1509.2   -1456.3     52.9 
FIXMEAS_G03 44 0f 00 1.0 -1485.42         0.00  22319571.31 [ 12489361.62  18791830.75  14037933.04] [   41.18  1796.61 -2427.94 56256.01]
FIXMEAS_G16 41 0f 00 1.0 -3595.69         0.00  21089219.19 [   358234.21  26255176.61   1571784.91] [ -258.48  -210.52  3247.05 -8810.68]
FIXMEAS_G22 40 0f 00 0.9  -314.94         0.00  22134965.95 [ 10466457.10  23450378.19   7141160.09] [ -166.03   934.07 -2915.63 -202429.13]
FIXMEAS_G23 43 0f 00 0.0 -4363.48         0.00  24798217.98 [ 15908700.45   6400799.10  20696924.89] [-1932.86  1668.65   944.35 -57530.95]
FIXMEAS_G26 40 0f 00 0.0 -1347.91         0.00  20119921.60 [ -4991890.84  22969982.26  12170932.46] [ -519.46 -1492.28  2616.85 49225.19]
# of Valid meas: 5 [G03 G23 G16 G22 G26  ]
LSQ PV=[ 5  -1578823.98,   5312814.11,   3146332.96,  -0.21,  -0.55,  -0.63, [ 0.47, -0.72],   -1410.03,      0.00,      0.00,-209.52,5  3.22]
KF  PV=[ 5  -1578894.39,   5312734.61,   3146314.62,   0.19,   0.70,   0.52, [ 0.41,  0.79],   -1489.99,      0.87,      0.87,-207.89,11  3.22]
LSQ LLH=[ 29.748201, 106.550519, 327.05, 96805.400004 96805.400000]
KF  LLH=[ 29.748309, 106.551450, 269.20, 96805.400005 96805.400000]
KF  FixSet  2608004        0        0        0
LSQ Dop=[ 6.25, 5.03, 3.22, 3.86]
KF Dop=[ 6.25, 5.03, 3.22, 3.86]
KF UTC=[2019/04/01 - 02:53:7.401 ]
Refix G03: 2,  96805.325737, -1484
Refix G16: 2,  96805.329624, -3593
Refix G22: 2,  96805.325490, -314
Refix G23: 2,  96805.317090, -4361
Refix G26: 2,  96805.333051, -1347
$GNGGA,025307.400,2944.8985,N,10633.0870,E,1,05,3.2,269.2,M,,,,0000*12
$GNRMC,025307.400,A,2944.8985,N,10633.0870,E,0.80,19200.47,,,*14
$GPGSA,A,3,03,16,22,23,26,,,,,,,,5.0,3.2,3.9*3D
$BDGSA,A,3,,,,,,,,,,,,,5.0,3.2,3.9*2D
$GLGSA,A,3,,,,,,,,,,,,,5.0,3.2,3.9*20
$GPGSV,2,1,05,03,36,286,44,16,50,215,41,22,39,258,40,23,12,315,43*77
$GPGSV,2,2,05,26,84,240,41*47
$BDGSV,2,1,06,02,00,000,40,05,00,000,36,10,65,245,40,18,00,000,43*60
$BDGSV,2,2,06,19,00,000,43,22,00,000,43*66
$B3CN0,0,0,0,0,0,0,0,0,0,0,0,0,0,0*4C
PRange Check: SYS0,   -1714.2   -1666.1     48.1 
FIXMEAS_G03 45 0f 00 0.0 -1482.96         0.00  22319289.21 [ 12489402.84  18793627.22  14035504.95] [   41.25  1796.31 -2428.24 56256.01]
FIXMEAS_G16 42 0f 00 0.0 -3592.43         0.00  21088541.67 [   357975.71  26254965.89   1575031.95] [ -258.52  -210.92  3247.01 -8810.68]
FIXMEAS_G22 40 0f 00 0.0  -313.35         0.00  22134906.82 [ 10466291.06  23451312.09   7138244.38] [ -166.06   933.73 -2915.78 -202429.13]
FIXMEAS_G23 43 0f 00 0.0 -4362.32         0.00  24797385.44 [ 15906767.59   6402467.85  20697869.03] [-1932.85  1668.84   943.92 -57530.95]
FIXMEAS_G26 40 0f 00 0.1 -1346.61         0.00  20119666.55 [ -4992410.38  22968489.84  12173549.19] [ -519.60 -1492.57  2616.59 49225.19]
# of Valid meas: 5 [G03 G23 G16 G22 G26  ]
LSQ PV=[ 5  -1578820.74,   5312815.91,   3146342.62,  -0.20,  -0.26,  -0.03, [ 0.27, -0.18],   -1611.70,      0.00,      0.00,-208.82,5  3.22]
KF  PV=[ 5  -1578891.80,   5312736.58,   3146314.46,   0.11,   0.39,   0.49, [ 0.34,  0.54],   -1696.95,      1.56,      1.56,-207.81,11  3.22]
LSQ LLH=[ 29.748273, 106.550481, 332.54, 96806.400005 96806.400000]
KF  LLH=[ 29.748303, 106.551419, 270.11, 96806.400005 96806.400000]
KF  FixSet  2608004        0        0        0
LSQ Dop=[ 6.26, 5.03, 3.22, 3.86]
KF Dop=[ 6.26, 5.03, 3.22, 3.86]
KF UTC=[2019/04/01 - 02:53:8.401 ]
Refix G03: 2,  96806.325738, -1482
Refix G16: 2,  96806.329626, -3590
Refix G22: 2,  96806.325490, -311
Refix G23: 2,  96806.317093, -4360
Refix G26: 2,  96806.333052, -1345
$GNGGA,025308.400,2944.8982,N,10633.0851,E,1,05,3.2,270.1,M,,,,0000*12
$GNRMC,025308.400,A,2944.8982,N,10633.0851,E,0.66,19200.47,,,*17
$GPGSA,A,3,03,16,22,23,26,,,,,,,,5.0,3.2,3.9*3D
$BDGSA,A,3,,,,,,,,,,,,,5.0,3.2,3.9*2D
$GLGSA,A,3,,,,,,,,,,,,,5.0,3.2,3.9*20
$GPGSV,2,1,05,03,36,286,45,16,50,215,42,22,39,258,40,23,12,315,42*74
$GPGSV,2,2,05,26,84,240,40*46
$BDGSV,2,1,06,02,00,000,38,05,00,000,37,10,65,245,41,18,00,000,43*6F
$BDGSV,2,2,06,19,00,000,43,22,00,000,43*66
$B3CN0,0,0,0,0,0,0,0,0,0,0,0,0,0,0*4C
$GLGSV,1,1,03,12,00,000,40,02,00,000,43,13,00,000,40*52
PRange Check: SYS0,   -1915.8   -1879.7     36.1 
FIXMEAS_G03 44 0f 00 0.1 -1484.36         0.00  22319007.93 [ 12489444.12  18795423.37  14033076.56] [   41.31  1796.00 -2428.53 56256.01]
FIXMEAS_G16 42 0f 00 1.0 -3593.03         0.00  21087864.63 [   357717.17  26254754.77   1578278.95] [ -258.56  -211.32  3246.98 -8810.68]
FIXMEAS_G22 41 0f 00 1.0  -315.30         0.00  22134851.17 [ 10466124.99  23452245.64   7135328.53] [ -166.09   933.38 -2915.93 -202429.13]
FIXMEAS_G23 41 0f 00 0.9 -4363.60         0.00  24796548.23 [ 15904834.73   6404136.78  20698812.74] [-1932.85  1669.02   943.50 -57530.95]
FIXMEAS_G26 40 0f 00 0.0 -1347.74         0.00  20119410.69 [ -4992930.05  22966997.12  12176165.65] [ -519.74 -1492.87  2616.33 49225.19]
# of Valid meas: 5 [G03 G16 G22 G23 G26  ]
LSQ PV=[ 5  -1578824.95,   5312804.53,   3146349.21,   0.15,   0.34,   0.41, [ 0.32,  0.45],   -1826.17,      0.00,      0.00,-208.47,5  3.22]
KF  PV=[ 5  -1578888.65,   5312738.78,   3146315.26,   0.31,   0.68,   0.69, [ 0.58,  0.83],   -1903.02,      2.98,      2.98,-207.74,11  3.22]
LSQ LLH=[ 29.748368, 106.550556, 327.38, 96807.400006 96807.400000]
KF  LLH=[ 29.748304, 106.551381, 271.57, 96807.400006 96807.400000]
KF  FixSet  2608004        0        0        0
LSQ Dop=[ 6.26, 5.03, 3.22, 3.86]
KF Dop=[ 6.26, 5.03, 3.22, 3.86]
KF UTC=[2019/04/01 - 02:53:9.401 ]
Refix G03: 2,  96807.325739, -1483
Refix G16: 2,  96807.329629, -3591
Refix G22: 2,  96807.325490, -312
Refix G23: 2,  96807.317095, -4361
Refix G26: 2,  96807.333053, -1345
$GNGGA,025309.400,2944.8982,N,10633.0829,E,1,05,3.2,271.6,M,,,,0000*1A
$GNRMC,025309.400,A,2944.8982,N,10633.0829,E,1.13,19200.47,,,*1A
$GPGSA,A,3,03,16,22,23,26,,,,,,,,5.0,3.2,3.9*3D
$BDGSA,A,3,,,,,,,,,,,,,5.0,3.2,3.9*2D
$GLGSA,A,3,,,,,,,,,,,,,5.0,3.2,3.9*20
$GPGSV,2,1,05,03,36,286,44,16,50,215,42,22,39,258,40,23,12,315,41*76
$GPGSV,2,2,05,26,84,240,40*46
$BDGSV,2,1,07,02,00,000,39,05,00,000,37,10,65,245,40,18,00,000,43*6E
$BDGSV,2,2,07,19,00,000,43,21,00,000,31,22,00,000,43*56
$B3CN0,0,0,0,0,0,0,0,0,0,0,0,0,0,0*4C
$GLGSV,1,1,03,12,54,323,41,02,53,317,44,13,18,255,40*5F
PRange Check: SYS0,   -2115.1   -2080.5     34.6 
PRange Check: SYS2,   -1513.6   -1422.5     91.1 
FIXMEAS_G03 44 0f 00 0.0 -1480.31         0.00  22318727.85 [ 12489485.46  18797219.22  14030647.88] [   41.37  1795.70 -2428.83 56256.01]
FIXMEAS_G16 43 0f 00 1.0 -3590.09         0.00  21087186.48 [   357458.60  26254543.25   1581525.91] [ -258.59  -211.72  3246.94 -8810.68]
FIXMEAS_G22 41 0f 00 1.0  -311.81         0.00  22134797.29 [ 10465958.89  23453178.85   7132412.53] [ -166.11   933.04 -2916.08 -202429.13]
FIXMEAS_G23 39 0f 00 0.0 -4360.49         0.00  24795697.51 [ 15902901.88   6405805.90  20699756.03] [-1932.85  1669.21   943.07 -57530.95]
FIXMEAS_G26 40 0f 00 1.0 -1344.57         0.00  20119154.19 [ -4993449.85  22965504.10  12178781.85] [ -519.88 -1493.16  2616.07 49225.20]
FIXMEAS_N12 41 8f 00 0.9  -522.00         0.00  19997445.20 [  2302254.82  16553942.82  19225193.64] [-1654.57 -2058.06  1976.06 12880.07]
FIXMEAS_N02 43 8f 00 1.0 -3246.13         0.00  20139810.78 [  3462875.62  16770781.55  18924997.56] [ -787.10  2463.08 -2047.71 -108375.33]
FIXMEAS_N13 41 8f 00 0.9 -3396.89         0.00  22806854.37 [ 15992484.67  19790560.84   1783596.66] [  -31.47  -299.99  3564.26  6574.13]
# of Valid meas: 8 [G03 G16 N02 G22 N12 N13 G26 G23  ]
LSQ PV=[ 8  -1578844.24,   5312805.62,   3146414.28,  -0.05,   0.03,  -0.05, [ 0.07,  0.01],   -2019.82,      0.00,  -1390.98,-208.35,5  2.86]
KF  PV=[ 5  -1578887.60,   5312739.27,   3146315.83,   0.11,   0.51,   0.52, [ 0.33,  0.66],   -2110.80,      2.99,  -1390.98,-207.71,11  3.22]
LSQ LLH=[ 29.748849, 106.550744, 365.34, 96808.400006 96808.400000]
KF  LLH=[ 29.748307, 106.551369, 272.00, 96808.400007 96808.400000]
KF  FixSet   208004        0      802        0
LSQ Dop=[ 5.19, 4.07, 2.86, 2.89]
KF Dop=[ 6.26, 5.03, 3.22, 3.87]
KF UTC=[2019/04/01 - 02:53:10.401 ]
Refix G03: 2,  96808.325740, -1480
Refix G16: 2,  96808.329631, -3589
Refix G22: 2,  96808.325491, -310
Refix G23: 2,  96808.317098, -4359
Refix G26: 2,  96808.333054, -1344
$GNGGA,025310.400,2944.8984,N,10633.0822,E,1,05,3.2,272.0,M,,,,0000*1A
$GNRMC,025310.400,A,2944.8984,N,10633.0822,E,0.65,19200.47,,,*1F
$GPGSA,A,3,03,16,22,,,,,,,,,,5.0,3.2,3.9*38
$BDGSA,A,3,,,,,,,,,,,,,5.0,3.2,3.9*2D
$GLGSA,A,3,02,12,,,,,,,,,,,5.0,3.2,3.9*21
$GPGSV,2,1,05,03,36,286,44,16,50,215,43,22,39,258,41,23,12,315,39*79
$GPGSV,2,2,05,26,84,240,40*46
$BDGSV,2,1,07,02,00,000,40,05,00,000,38,10,65,245,40,18,00,000,43*6F
$BDGSV,2,2,07,19,00,000,43,21,00,000,42,22,00,000,43*52
$B3CN0,0,0,0,0,0,0,0,0,0,0,0,0,0,0*4C
$GLGSV,1,1,03,12,54,323,41,02,53,317,43,13,18,255,41*59
PRange Check: SYS0,   -2328.6   -2284.0     44.6 
PRange Check: SYS2,   -1714.5   -1626.1     88.4 
FIXMEAS_G03 45 0f 00 1.0 -1470.41         0.00  22318448.84 [ 12489526.86  18799014.77  14028218.90] [   41.44  1795.39 -2429.13 56256.01]
FIXMEAS_G16 43 0f 00 0.0 -3581.69         0.00  21086507.56 [   357199.99  26254331.33   1584772.84] [ -258.63  -212.11  3246.91 -8810.68]
FIXMEAS_G22 41 0f 00 1.0  -301.48         0.00  22134747.51 [ 10465792.76  23454111.72   7129496.37] [ -166.14   932.69 -2916.23 -202429.14]
FIXMEAS_G23 39 0f 00 0.6 -4353.95         0.00  24794852.62 [ 15900969.02   6407475.21  20700698.89] [-1932.85  1669.39   942.65 -57530.95]
FIXMEAS_G26 40 0f 00 1.0 -1335.51         0.00  20118899.57 [ -4993969.80  22964010.79  12181397.79] [ -520.01 -1493.46  2615.81 49225.20]
FIXMEAS_N12 41 8f 00 1.0  -511.99         0.00  19997355.72 [  2300600.07  16551884.72  19227169.46] [-1654.92 -2058.13  1975.60 12880.07]
FIXMEAS_N02 43 8f 00 0.0 -3237.05         0.00  20139208.93 [  3462088.66  16773244.53  18922949.63] [ -786.81  2462.88 -2048.16 -108375.33]
FIXMEAS_N13 40 8f 00 0.9 -3389.82         0.00  22806222.07 [ 15992453.03  19790260.66   1787160.90] [  -31.81  -300.36  3564.22  6574.13]
# of Valid meas: 8 [G03 G16 N02 G22 N12 G26 N13 G23  ]
LSQ PV=[ 8  -1578860.81,   5312761.31,   3146397.70,  -0.73,  -1.51,  -1.06, [ 1.17, -1.60],   -2269.03,      0.00,  -1634.53,-208.38,5  2.86]
KF  PV=[ 8  -1578887.11,   5312741.78,   3146320.19,  -0.43,  -0.87,  -0.52, [ 0.67, -0.88],   -2315.90,     -1.12,  -1621.48,-207.55,11  1.29]
LSQ LLH=[ 29.748888, 106.551039, 324.34, 96809.400007 96809.400000]
KF  LLH=[ 29.748331, 106.551357, 276.13, 96809.400007 96809.400000]
KF  FixSet  2608004        0     1802        0
LSQ Dop=[ 5.19, 4.07, 2.86, 2.90]
KF Dop=[ 1.69, 1.53, 1.29, 0.83]
KF UTC=[2019/04/01 - 02:53:11.401 ]
Refix G03: 2,  96809.325741, -1470
Refix G16: 2,  96809.329633, -3581
Refix G22: 2,  96809.325491, -301
Refix G23: 2,  96809.317101, -4352
Refix G26: 2,  96809.333054, -1334
$GNGGA,025311.400,2944.8999,N,10633.0814,E,1,08,1.3,276.1,M,,,,0000*19
$GNRMC,025311.400,A,2944.8999,N,10633.0814,E,1.31,19200.47,,,*17
$GPGSA,A,3,03,16,22,23,26,,,,,,,,1.5,1.3,0.8*3D
$BDGSA,A,3,,,,,,,,,,,,,1.5,1.3,0.8*2D
$GLGSA,A,3,02,12,13,,,,,,,,,,1.5,1.3,0.8*23
$GPGSV,2,1,05,03,36,286,45,16,50,215,43,22,39,258,41,23,12,315,39*78
$GPGSV,2,2,05,26,84,240,40*46
$BDGSV,2,1,07,02,00,000,40,05,00,000,35,10,65,245,40,18,00,000,43*62
$BDGSV,2,2,07,19,00,000,43,21,00,000,41,22,00,000,43*51
$B3CN0,0,0,0,0,0,0,0,0,0,0,0,0,0,0*4C
$GLGSV,1,1,03,12,54,323,41,02,53,317,43,13,18,255,40*58
PRange Check: SYS0,   -2532.8   -2484.6     48.2 
PRange Check: SYS2,   -1903.1   -1835.9     67.2 
FIXMEAS_G03 45 0f 00 0.0 -1471.48         0.00  22318169.48 [ 12489568.33  18800810.01  14025789.62] [   41.50  1795.09 -2429.43 56256.01]
FIXMEAS_G16 43 0f 00 0.0 -3582.41         0.00  21085830.01 [   356941.34  26254119.02   1588019.74] [ -258.67  -212.51  3246.87 -8810.68]
FIXMEAS_G22 42 0f 00 0.0  -303.00         0.00  22134699.82 [ 10465626.60  23455044.24   7126580.07] [ -166.17   932.35 -2916.38 -202429.14]
FIXMEAS_G23 39 0f 00 0.9 -4355.09         0.00  24794023.45 [ 15899036.17   6409144.69  20701641.32] [-1932.85  1669.58   942.22 -57530.95]
FIXMEAS_G26 40 0f 00 0.9 -1335.10         0.00  20118646.03 [ -4994489.88  22962517.18  12184013.47] [ -520.15 -1493.75  2615.54 49225.20]
FIXMEAS_N12 42 8f 00 1.0  -513.91         0.00  19997271.24 [  2298944.98  16549826.55  19229144.83] [-1655.26 -2058.20  1975.13 12880.07]
FIXMEAS_N02 43 8f 00 1.0 -3238.47         0.00  20138615.52 [  3461302.00  16775707.32  18920901.24] [ -786.51  2462.68 -2048.61 -108375.33]
FIXMEAS_N13 40 8f 00 0.4 -3390.44         0.00  22805583.02 [ 15992421.05  19789960.12   1790725.11] [  -32.15  -300.72  3564.17  6574.13]
# of Valid meas: 8 [G03 G16 N02 G22 N12 G26 N13 G23  ]
LSQ PV=[ 8  -1578867.90,   5312737.59,   3146377.94,  -0.31,  -0.94,  -0.62, [ 0.58, -1.01],   -2498.30,      0.00,  -1861.59,-207.93,5  2.86]
KF  PV=[ 8  -1578887.00,   5312742.84,   3146323.18,  -0.32,  -0.82,  -0.43, [ 0.54, -0.82],   -2521.34,     -2.88,  -1841.01,-207.71,11  1.29]
LSQ LLH=[ 29.748826, 106.551179, 296.55, 96810.400008 96810.400000]
KF  LLH=[ 29.748350, 106.551353, 278.47, 96810.400008 96810.400000]
KF  FixSet  2608004        0     1802        0
LSQ Dop=[ 5.19, 4.07, 2.86, 2.90]
KF Dop=[ 1.69, 1.53, 1.29, 0.83]
KF UTC=[2019/04/01 - 02:53:12.401 ]
Refix G03: 2,  96810.325742, -1471
Refix G16: 2,  96810.329635, -3581
Refix G22: 2,  96810.325491, -301
Refix G23: 2,  96810.317104, -4354
Refix G26: 2,  96810.333055, -1334
$GNGGA,025312.400,2944.9010,N,10633.0812,E,1,08,1.3,278.5,M,,,,0000*1F
$GNRMC,025312.400,A,2944.9010,N,10633.0812,E,1.06,19200.47,,,*1F
$GPGSA,A,3,03,16,22,23,26,,,,,,,,1.5,1.3,0.8*3D
$BDGSA,A,3,,,,,,,,,,,,,1.5,1.3,0.8*2D
$GLGSA,A,3,02,12,13,,,,,,,,,,1.5,1.3,0.8*23
$GPGSV,2,1,05,03,36,286,45,16,50,215,43,22,39,258,42,23,12,315,39*7B
$GPGSV,2,2,05,26,84,240,40*46
$BDGSV,2,1,07,02,00,000,40,05,00,000,37,10,65,245,40,18,00,000,42*61
$BDGSV,2,2,07,19,00,000,44,21,00,000,41,22,00,000,42*57
$B3CN0,0,18,0,0,0,0,0,0,0,0,0,0,0,0*75
$GLGSV,1,1,03,12,54,323,42,02,53,317,43,13,18,255,40*5B
PRange Check: SYS0,   -2731.3   -2688.4     43.0 
PRange Check: SYS2,   -2098.4   -2047.6     50.8 
FIXMEAS_G03 45 0f 00 1.0 -1475.92         0.00  22317890.21 [ 12489609.86  18802604.94  14023360.04] [   41.56  1794.78 -2429.72 56256.01]
FIXMEAS_G16 42 0f 00 0.0 -3584.65         0.00  21085150.75 [   356682.65  26253906.31   1591266.60] [ -258.71  -212.91  3246.83 -8810.69]
FIXMEAS_G22 42 0f 00 0.0  -306.51         0.00  22134649.14 [ 10465460.41  23455976.42   7123663.62] [ -166.20   932.00 -2916.53 -202429.14]
FIXMEAS_G23 40 0f 00 1.0 -4357.92         0.00  24793201.19 [ 15897103.32   6410814.37  20702583.33] [-1932.84  1669.76   941.80 -57530.94]
FIXMEAS_G26 41 0f 00 0.0 -1339.66         0.00  20118391.84 [ -4995010.10  22961023.28  12186628.88] [ -520.29 -1494.05  2615.28 49225.20]
FIXMEAS_N12 42 8f 00 0.0  -517.44         0.00  19997182.13 [  2297289.55  16547768.32  19231119.73] [-1655.60 -2058.27  1974.67 12880.07]
FIXMEAS_N02 44 8f 00 1.0 -3240.70         0.00  20138024.12 [  3460515.64  16778169.90  18918852.39] [ -786.22  2462.48 -2049.06 -108375.33]
FIXMEAS_N13 39 8f 00 0.9 -3392.85         0.00  22804943.26 [ 15992388.72  19789659.22   1794289.26] [  -32.50  -301.09  3564.13  6574.13]
# of Valid meas: 8 [G03 N02 G16 G22 N12 G26 G23 N13  ]
LSQ PV=[ 8  -1578870.75,   5312729.51,   3146362.59,   0.04,  -0.08,   0.01, [ 0.06, -0.07],   -2713.80,      0.00,  -2076.68,-207.77,5  2.86]
