i=1
Rf R0 Config = ff777073
Rf R1 Config = 00dffbfe
Rf R52 Config = 00dfef40
i=2
Rf R0 Config = 007770f3
Rf R1 Config = 00dffbfe
Rf R52 Config = 00db4ed0
i=3
Rf R0 Config = 007770f3
Rf R1 Config = 00dffbfe
Rf R52 Config = 00dfeed0
i=4
Rf R0 Config = 00777073
Rf R1 Config = 00dffbfe
Rf R52 Config = 00dfee40
SD initialized success
Create debug.log Failed! 3
Start Channel by LuYu
$GNGGA,000000.000,,,,,0,00,,,M,,,,0000*2B
$GNRMC,000000.000,A,,,,,,,060180,,*29
$GPGSA,A,1,,,,,,,,,,,,,,,*1E
$BDGSA,A,1,,,,,,,,,,,,,,,*0F
$GLGSA,A,1,,,,,,,,,,,,,,,*02
$B3CN0,0,0,0,0,0,0,0,0,0,0,0,0,0,0*4C
---00000001--- Acq_st=3 0  2000-1-1 0:1:49 
[00]  00(G01)  1 29  7  0    492.0  2046000.2  0.4  1 0 1238 1669  418
[01]  02(G03)  1 23  7  0  -3751.0  2046007.5 -0.0  1 0  279 1166 1596
$GNGGA,000000.000,,,,,0,00,,,M,,,,0000*2B
$GNRMC,000000.000,A,,,,,,,060180,,*29
$GPGSA,A,1,,,,,,,,,,,,,,,*1E
$BDGSA,A,1,,,,,,,,,,,,,,,*0F
$GLGSA,A,1,,,,,,,,,,,,,,,*02
$B3CN0,0,0,0,0,0,0,0,0,0,0,0,0,0,0*4C
---00000002--- Acq_st=3 0  2000-1-1 0:1:50 
[00]  00(G01)  7 25  7  0    497.4  2045999.2  0.7 10 0  924 1337  651
[01]  02(G03)  7 21  7  0  -3742.8  2046004.7  0.5 10 0 1501 1305  558
[02]  17(G18)  1 21 18  0   1042.9  2045999.1  0.1  1 0  892 1037  218
[03]  21(G22)  1  7  7  0  -2500.0  2046005.5 -0.1  1 0  386  427 1881
[04]  25(G26)  1  7  7  0  -3750.0  2046004.2 -0.0  1 0  263  486   32
$GNGGA,000000.000,,,,,0,00,,,M,,,,0000*2B
$GNRMC,000000.000,A,,,,,,,060180,,*29
$GPGSA,A,1,,,,,,,,,,,,,,,*1E
$BDGSA,A,1,,,,,,,,,,,,,,,*0F
$GLGSA,A,1,,,,,,,,,,,,,,,*02
$GPGSV,1,1,02,01,00,000,25,03,00,000,21*7D
$B3CN0,0,0,0,0,0,0,0,0,0,0,0,0,0,0*4C
---00000003--- Acq_st=3 0  2000-1-1 0:1:51 
[00]  00(G01)  7 41  7  0    496.9  2045999.2  0.0  2 0 1336 1642 1099
[01]  02(G03)  7 42  7  0  -3739.5  2046004.7  0.0  2 0 1455 1914  983
[02]  17(G18)  7  7  7  0   1044.9  2045998.6  1.0  5 0  905 1441  492
[03]  21(G22)  1 29 10  0  -2597.4  2046003.4  0.8  1 0 1231 1722  976
[04]  25(G26)  1 15 10  0  -3687.5  2046006.6 -0.1  1 0  403  603  785
[05]  30(G31)  1 16  7  0   -552.2  2046001.5  0.0  1 0  174  444  384
[16]  38(B02)  1 29 10  0  -1250.0  4092005.1 -0.0  1 0   85  394  482
$GNGGA,000000.000,,,,,0,00,,,M,,,,0000*2B
$GNRMC,000000.000,A,,,,,,,060180,,*29
$GPGSA,A,1,,,,,,,,,,,,,,,*1E
$BDGSA,A,1,,,,,,,,,,,,,,,*0F
$GLGSA,A,1,,,,,,,,,,,,,,,*02
$GPGSV,1,1,02,01,00,000,41,03,00,000,42*7A
$B3CN0,0,0,0,0,0,0,0,0,0,0,0,0,0,0*4C
---00000004--- Acq_st=3 0  2000-1-1 0:1:52 
[00]  00(G01)  7 41  7  0    500.7  2045999.2  0.0  2 0 1137 1532  907
[01]  02(G03)  7 41  7  0  -3741.5  2046004.8  0.0  2 0 1397 1735  616
[02]  17(G18)  7 41  7  0   1042.7  2045998.6 -0.0  2 0 1009 1320  705
[03]  21(G22)  7 33  7  0  -2595.1  2046003.2  0.3  5 0 1383 1791  696
[04]  25(G26)  7 27  7  0  -3648.4  2046004.7  0.1 10 0  938 1585 1395
[05]  30(G31)  7  7  7  0   -511.7  2046000.9  0.3  5 0  723 1028  659
[16]  38(B02)  9 35 27  0  -1100.1  4092002.0  0.7  1 0  878  565  277
[17]  41(B05)  1 10 24  0   -818.5  4092001.0  0.0  1 0  266  112  125
$GNGGA,000000.000,,,,,0,00,,,M,,,,0000*2B
$GNRMC,000000.000,A,,,,,,,060180,,*29
$GPGSA,A,1,,,,,,,,,,,,,,,*1E
$BDGSA,A,1,,,,,,,,,,,,,,,*0F
$GLGSA,A,1,,,,,,,,,,,,,,,*02
$GPGSV,2,1,05,01,00,000,41,03,00,000,41,18,00,000,41,22,00,000,33*71
$GPGSV,2,2,05,26,00,000,27*4D
$B3CN0,0,0,0,0,0,0,0,0,0,0,0,0,0,0*4C
---00000005--- Acq_st=3 0  2000-1-1 0:1:53 
[00]  00(G01)  7 41  7  0    502.2  2045999.3 -0.0  2 0  965 1724  953
[01]  02(G03)  7 41  7  0  -3738.0  2046004.7  0.0  2 0 1000 1745  821
[02]  17(G18)  7 41  7  0   1046.4  2045998.6  0.0  2 0  950 1322  626
[03]  21(G22)  7 43  7  0  -2590.5  2046003.3 -0.0  2 0 1217 1944  602
[04]  25(G26)  7 43  7  0  -3649.7  2046004.7 -0.0  2 0  951 1995 1108
[05]  30(G31)  7 38  7  0   -500.3  2046000.6 -0.0  2 0  306  618  139
[16]  38(B02) 1f 36 24  0  -1107.3  4092002.8  0.7  2 0  770  926  358
[17]  41(B05)  1 10 18  0   -146.3  4092002.6 -0.1  1 0  166  204  467
$GNGGA,000000.000,,,,,0,00,,,M,,,,0000*2B
$GNRMC,000000.000,A,,,,,,,060180,,*29
$GPGSA,A,1,,,,,,,,,,,,,,,*1E
$BDGSA,A,1,,,,,,,,,,,,,,,*0F
$GLGSA,A,1,,,,,,,,,,,,,,,*02
$GPGSV,2,1,06,01,00,000,41,03,00,000,41,18,00,000,41,22,00,000,43*75
$GPGSV,2,2,06,26,00,000,43,31,00,000,38*75
$BDGSV,1,1,01,02,00,000,37*5F
$B3CN0,0,0,0,0,0,0,0,0,0,0,0,0,0,0*4C
---00000006--- Acq_st=3 0  2000-1-1 0:1:54 
[00]  00(G01)  7 41 12  0    501.5  2045999.3 -0.0  2 0 1001 1510  698
[01]  02(G03)  7 41  8  0  -3737.8  2046004.8  0.0  2 0 1312 1517  849
[02]  17(G18)  7 41  8  0   1045.3  2045998.6 -0.0  2 0 1064 1157  349
[03]  21(G22)  7 42  7  0  -2586.8  2046003.3  0.1  2 0 1056 1969  778
[04]  25(G26)  7 42  7  0  -3645.9  2046004.7  0.1  2 0 1312 1974  907
[05]  30(G31)  7 36  7  0   -510.1  2046000.7 -0.4  2 0  420  479  112
[16]  38(B02) 1f 37 28  0  -1101.4  4092002.8 -0.4  2 0  673  671  490
[17]  41(B05)  1 14 31  1     -8.1  4092001.8 -0.1  1 0   66  146   24
[18]  54(B18)  1  7  7  0  -1376.2  4092004.1 -0.0  1 0  270 1426  878
[48]  38(B02)  1 10 17  0   -901.2 20460020.1  0.1  1 0  554   62  466
$GNGGA,000000.000,,,,,0,00,,,M,,,,0000*2B
$GNRMC,000000.000,A,,,,,,,060180,,*29
$GPGSA,A,1,,,,,,,,,,,,,,,*1E
$BDGSA,A,1,,,,,,,,,,,,,,,*0F
$GLGSA,A,1,,,,,,,,,,,,,,,*02
$GPGSV,2,1,06,01,00,000,41,03,00,000,41,18,00,000,41,22,00,000,42*74
$GPGSV,2,2,06,26,00,000,42,31,00,000,36*7A
$BDGSV,1,1,01,02,00,000,36*5E
$B3CN0,0,0,0,0,0,0,0,0,0,0,0,0,0,0*4C
---00000007--- Acq_st=3 0  2000-1-1 0:1:55 
[00]  00(G01)  7 41  7  0    504.6  2045999.3  0.0  2 0  958 1405  868
[01]  02(G03)  7 41  7  0  -3728.5  2046004.8 -0.0  2 0  560 1089 1139
[02]  17(G18)  7 42  7  0   1053.1  2045998.6  0.1  2 0 1301 1879  791
[03]  21(G22)  7 43  7  0  -2585.7  2046003.3  0.0  2 0 1149 1808  861
[04]  25(G26)  7 43  7  0  -3640.9  2046004.7 -0.1  2 0 1963 2330 1198
[05]  30(G31)  7 36  7  0   -506.6  2046000.6  0.0  2 0  819 1159  538
[16]  38(B02) 1f 37 25  0  -1098.8  4092002.6  0.6  2 0  561  617   53
[17]  41(B05)  1 10 10  0    534.0  4092004.2 -0.1  1 0  312  376  265
[18]  54(B18)  7 11  7  0  -1371.6  4092003.6  0.7 10 0  551 1383  868
[19]  59(B23)  1  7  7  0  -2957.0  4092008.3  0.1  1 0  854 1193 1200
[48]  38(B02)  7 10 10  0   -812.1 20460013.9 -0.0  2 0  561  369  586
$GNGGA,000000.000,,,,,0,00,,,M,,,,0000*2B
$GNRMC,000000.000,A,,,,,,,060180,,*29
$GPGSA,A,1,,,,,,,,,,,,,,,*1E
$BDGSA,A,1,,,,,,,,,,,,,,,*0F
$GLGSA,A,1,,,,,,,,,,,,,,,*02
$GPGSV,2,1,06,01,00,000,41,03,00,000,41,18,00,000,42,22,00,000,43*76
$GPGSV,2,2,06,26,00,000,43,31,00,000,36*7B
$BDGSV,1,1,01,02,00,000,37*5F
$B3CN0,0,0,0,0,0,0,0,0,0,0,0,0,0,0*4C
---00000008--- Acq_st=3 0  2000-1-1 0:1:56 
[00]  00(G01)  7 41  7  0    511.6  2045999.2  0.0  2 0  998 1339  645
[01]  02(G03)  7 39  7  0  -3726.6  2046004.8  0.0  2 0  658 1102  682
[02]  17(G18)  7 42  7  0   1055.6  2045998.6  0.0  2 0 1048 1323  675
[03]  21(G22)  7 43  7  0  -2583.5  2046003.3  0.0  2 0 1644 1663  747
[04]  25(G26)  7 44  9  0  -3634.3  2046004.7  0.0  2 0 1823 2465 1338
[05]  30(G31)  7 36  7  0   -498.5  2046000.6  0.2  2 0  489  749  402
[16]  38(B02) 1f 37 26  0  -1095.0  4092002.8 -0.9  2 0  733 1105  542
[18]  54(B18)  7 41  8  0  -1367.7  4092003.5  0.0  2 0 1168 1582  810
[19]  59(B23)  7 23  7  0  -2950.3  4092007.7  0.4 10 0 1068 1449  443
[20]  68(B32)  1  7  7  0  -4250.0  4092011.6 -0.1  1 0  253  779  274
[48]  38(B02)  7 10 10  1  -1471.2 20460023.8 -0.2  2 0  364  409  599
$GNGGA,013407.659,,,,,0,00,,,M,,,,0000*20
$GNRMC,013407.659,A,,,,,,,100180,,*25
$GPGSA,A,1,,,,,,,,,,,,,,,*1E
$BDGSA,A,1,,,,,,,,,,,,,,,*0F
$GLGSA,A,1,,,,,,,,,,,,,,,*02
$GPGSV,2,1,06,01,00,000,41,03,00,000,39,18,00,000,42,22,00,000,43*79
$GPGSV,2,2,06,26,00,000,44,31,00,000,36*7C
$BDGSV,1,1,03,02,00,000,37,18,00,000,41,23,00,000,23*51
$B3CN0,0,0,0,0,0,0,0,0,0,0,0,0,0,0*4C
---00000009--- Acq_st=7 0  2000-1-1 0:1:57 
[00]  00(G01)  f 41  9  0    504.7  2045999.3  0.0  2 0 1376 2013 1027
[01]  02(G03)  f 39  8  0  -3729.9  2046004.7  0.1  2 0  344  931  947
[02]  17(G18)  f 42  7  0   1051.8  2045998.6 -0.0  2 0  707 1272  806
[03]  21(G22)  f 42  7  0  -2579.7  2046003.3 -0.0  2 0  996 1786  805
[04]  25(G26)  f 43  7  0  -3639.7  2046004.6 -0.0  2 0 1192 1842  832
[05]  30(G31)  f 36  7  0   -507.4  2046000.6 -0.1  2 0  954  721  420
[16]  38(B02) 1f 37 26  0  -1098.5  4092002.7 -0.5  2 0 1381 1112  225
[18]  54(B18)  7 41  7  0  -1373.8  4092003.5 -0.0  2 0 1014  965  817
[19]  59(B23)  7 41  7  0  -2952.3  4092007.7 -0.0  2 0  414  973  453
[20]  68(B32)  1  7  7  0  -4134.1  4092010.5  0.3  1 0 1591 1702  605
[32]  80(N-1)  1 19 16  0  -5061.8  1022004.6  0.2  1 0   321  559  446
[33]  81(N00)  1 22 19  0  -2870.5  1022003.9  0.1  1 0   590  828  378
[48]  38(B02)  7 16 10  1  -1763.6 20460027.1 -0.0  2 0  293  328  828
$GNGGA,013408.659,,,,,0,00,,,M,,,,0000*2F
$GNRMC,013408.659,A,,,,,,,100180,,*2A
$GPGSA,A,1,,,,,,,,,,,,,,,*1E
$BDGSA,A,1,,,,,,,,,,,,,,,*0F
$GLGSA,A,1,,,,,,,,,,,,,,,*02
$GPGSV,2,1,06,01,00,000,41,03,00,000,39,18,00,000,42,22,00,000,42*78
$GPGSV,2,2,06,26,00,000,43,31,00,000,36*7B
$BDGSV,1,1,03,02,00,000,37,18,00,000,41,23,00,000,41*55
$B3CN0,0,0,0,0,0,0,0,0,0,0,0,0,0,0*4C
---00000010--- Acq_st=7 0  2000-1-1 0:1:58 
[00]  00(G01)  f 41 10  0    503.8  2045999.3 -0.1  2 0  890 1059  888
[01]  02(G03)  f 40  7  0  -3730.7  2046004.8  0.1  2 0  339  839  895
[02]  17(G18)  f 41  7  0   1047.2  2045998.6 -0.0  2 0  977 2126 1438
[03]  21(G22)  f 43  7  0  -2584.0  2046003.3 -0.0  2 0 1532 1838  589
[04]  25(G26)  f 44  7  0  -3635.5  2046004.7 -0.0  2 0 1219 2404 1241
[05]  30(G31)  f 36  7  0   -501.1  2046000.5  0.1  2 0  452  528  490
[16]  38(B02) 1f 37 24  0  -1092.6  4092002.8  0.7  2 0  858  804  251
[18]  54(B18)  7 41  8  0  -1371.9  4092003.5  0.0  2 0 1054 1050  599
[19]  59(B23)  7 41  7  0  -2956.0  4092007.7 -0.1  2 0 1078 1233  656
[20]  68(B32)  7 34  7  0  -4132.4  4092010.7 -0.0  5 0  620  824  103
[32]  80(N-1)  7 22  7  0  -5063.6  1022003.1  0.4 10 0   733 1105  669
[33]  81(N00)  7 16  7  0  -2869.3  1022001.8  1.0 10 0   794 1165  209
[48]  38(B02)  7 10 16  0  -2207.8 20460034.5  0.2  2 0  607  306  447
$GNGGA,013409.659,,,,,0,00,,,M,,,,0000*2E
$GNRMC,013409.659,A,,,,,,,100180,,*2B
$GPGSA,A,1,,,,,,,,,,,,,,,*1E
$BDGSA,A,1,,,,,,,,,,,,,,,*0F
$GLGSA,A,1,,,,,,,,,,,,,,,*02
$GPGSV,2,1,06,01,00,000,41,03,00,000,40,18,00,000,41,22,00,000,43*74
$GPGSV,2,2,06,26,00,000,44,31,00,000,36*7C
$BDGSV,1,1,04,02,00,000,37,18,00,000,41,23,00,000,41,32,00,000,34*64
$B3CN0,0,0,0,0,0,0,0,0,0,0,0,0,0,0*4C
---00000011--- Acq_st=3 0  2000-1-1 0:1:59 
[00]  00(G01)  f 41  7  0    507.2  2045999.3 -0.1  2 0  549 1268  682
[01]  02(G03)  f 40  7  0  -3732.8  2046004.7  0.1  2 0 1523 1311  580
[02]  17(G18)  f 41  7  0   1051.4  2045998.6 -0.0  2 0 1264 1489  868
[03]  21(G22)  f 42  7  0  -2584.5  2046003.3  0.0  2 0  750 1540  845
[04]  25(G26)  f 43  7  0  -3637.6  2046004.7  0.0  2 0 1430 2048 1075
[05]  30(G31)  f 36  7  0   -507.4  2046000.5  0.1  2 0  547  641  211
[16]  38(B02) 1f 36 28  0  -1098.8  4092002.7  0.3  2 0  773  639   71
[18]  54(B18) 1f 41  7  0  -1370.7  4092003.5 -0.1  2 0 1151 1116  516
[19]  59(B23) 1f 41  7  0  -2952.0  4092007.7  0.1  2 0  914 1407  295
[20]  68(B32) 1f 39  7  0  -4133.0  4092010.7  0.0  2 0  616 1002  299
[32]  80(N-1)  7 39 18  0  -5062.5  1022003.1  0.2  2 0   407  771  446
[33]  81(N00)  7 40 14  0  -2870.9  1022001.8  0.6  2 0   847 1045  556
$GNGGA,013410.659,,,,,0,00,,,M,,,,0000*26
$GNRMC,013410.659,A,,,,,,,100180,,*23
$GPGSA,A,1,,,,,,,,,,,,,,,*1E
$BDGSA,A,1,,,,,,,,,,,,,,,*0F
$GLGSA,A,1,,,,,,,,,,,,,,,*02
$GPGSV,2,1,06,01,00,000,41,03,00,000,40,18,00,000,41,22,00,000,42*75
$GPGSV,2,2,06,26,00,000,43,31,00,000,36*7B
$BDGSV,1,1,04,02,00,000,36,18,00,000,41,23,00,000,41,32,00,000,39*68
$B3CN0,0,0,0,0,0,0,0,0,0,0,0,0,0,0*4C
---00000012--- Acq_st=3 0  2000-1-1 0:2:0 
[00]  00(G01)  f 41  7  0    511.1  2045999.3  0.0  2 0 1073 1691  842
[01]  02(G03)  f 42  7  0  -3728.5  2046004.7  0.0  2 0 1060 1726  933
[02]  17(G18)  f 41  7  0   1052.5  2045998.5  0.0  2 0  943 1549  880
[03]  21(G22)  f 42  8  0  -2584.3  2046003.3  0.0  2 0  801 1943 1117
[04]  25(G26)  f 43  7  0  -3635.9  2046004.7  0.0  2 0 1488 2054 1206
[05]  30(G31)  f 36  7  0   -499.8  2046000.6  0.1  2 0  596  459   53
[06]  15(G16)  1 15  7  0  -5026.8  2046008.2 -0.1  1 0  219  771  919
[16]  38(B02) 1f 37 22  0  -1096.7  4092002.9 -0.7  2 0  593  963  724
[18]  54(B18) 1f 41  7  0  -1368.4  4092003.5 -0.0  2 0 1243 1965 1271
[19]  59(B23) 1f 40  7  0  -2956.1  4092007.7 -0.0  2 0  719 1433  597
[20]  68(B32) 1f 39  7  0  -4130.9  4092010.7 -0.0  2 0 1055  874  267
[32]  80(N-1)  7 40 15  0  -5061.3  1022003.1  0.2  2 0   959 1296  465
[33]  81(N00)  7 40 17  0  -2868.7  1022001.8  0.1  2 0   548 1140  717
[48]  38(B02)  1 13 22  0   -850.4 20460021.8  0.0  1 0  357  533  750
[50]  54(B18)  1  7  7  0   -729.1 20460021.2  0.0  1 0   87  515  322
[51]  59(B23)  1  7  7  0  -2960.0 20460046.8 -0.1  1 0  501  602  214
[52]  68(B32)  1  7  7  0  -3234.0 20460065.8  0.1  1 0  536  853  628
$GNGGA,013411.659,,,,,0,00,,,M,,,,0000*27
$GNRMC,013411.659,A,,,,,,,100180,,*22
$GPGSA,A,1,,,,,,,,,,,,,,,*1E
$BDGSA,A,1,,,,,,,,,,,,,,,*0F
$GLGSA,A,1,,,,,,,,,,,,,,,*02
$GPGSV,2,1,07,01,00,000,41,03,00,000,42,18,00,000,41,22,00,000,42*76
$GPGSV,2,2,07,26,00,000,43,31,00,000,36,16,00,000,20*4F
$BDGSV,1,1,04,02,00,000,36,18,00,000,41,23,00,000,40,32,00,000,39*69
$B3CN0,0,0,0,0,0,0,0,0,0,0,0,0,0,0*4C
---00000013--- Acq_st=3 0  2000-1-1 0:2:1 
[00]  00(G01)  f 41  7  0    508.8  2045999.3 -0.0  2 0 1151 1394  577
[01]  02(G03)  f 42  7  0  -3730.9  2046004.7 -0.0  2 0 1402 2100 1034
[02]  17(G18)  f 41  7  0   1045.8  2045998.6 -0.0  2 0  811 1517  890
[03]  21(G22)  f 42  7  0  -2588.3  2046003.3  0.1  2 0  653 1731  653
[04]  25(G26)  f 43  7  0  -3637.9  2046004.7 -0.0  2 0  741 1624 1129
[05]  30(G31)  f 36  7  0   -503.4  2046000.6  0.2  2 0 1052  805  316
[06]  15(G16)  7 21  7  0  -5038.9  2046006.4  0.4 10 0  574 1115  638
[16]  38(B02) 1f 36 26  0  -1104.4  4092002.7 -0.7  2 0  478  749  197
[17]  41(B05)  1 22 29  1  -1000.0  4092002.0  0.1  1 0  262  227  260
[18]  54(B18) 1f 41  7  0  -1368.5  4092003.5  0.0  2 0 1365 1428  551
[19]  59(B23) 1f 40 10  0  -2954.4  4092007.7  0.0  2 0  741 1258  792
[20]  68(B32) 1f 39  7  0  -4132.1  4092010.7  0.1  2 0  595 1097  604
[32]  80(N-1)  7 41 17  0  -5063.7  1022003.2  0.5  2 0   620 1037  407
[33]  81(N00)  7 40 17  0  -2869.0  1022001.8 -0.5  2 0   571  997  632
[48]  38(B02)  1 19 10  1  -1174.2 20460012.9  0.2  1 0  406  648  478
[50]  54(B18)  1  7  7  0  -1041.0 20460020.9  0.0  1 0  696  918  839
[51]  59(B23)  1  7  7  0  -2986.5 20460048.2  0.2  1 0  266  289  175
[52]  68(B32)  1  7  7  0  -3807.7 20460066.5  0.0  1 0  424  241  157
---00000014--- Acq_st=3 0  2000-1-1 0:2:2 
[00]  00(G01)  f 41  7  0    511.9  2045999.3  0.0  2 0  701 1195 1133
[01]  02(G03)  f 43  9  0  -3726.3  2046004.8  0.1  2 0 1861 2423 1020
[02]  17(G18)  f 41  7  0   1051.3  2045998.6  0.1  2 0  962 1000  355
[03]  21(G22)  f 42  7  0  -2583.9  2046003.3 -0.1  2 0 1188 1671  540
[04]  25(G26)  f 42  8  0  -3630.7  2046004.7 -0.1  2 0  644 1718  816
[05]  30(G31)  f 36  7  0   -500.5  2046000.6 -0.2  2 0  581  437  100
[06]  15(G16)  7 36 10  0  -5042.3  2046006.5 -0.3  2 0  135  621  416
[16]  38(B02) 1f 39 27  0  -1095.9  4092002.8  0.4  2 0  802  892  518
[17]  41(B05)  1 17 10  0  -1322.4  4092003.0 -0.1  1 0  176   22  280
[18]  54(B18) 1f 41  7  0  -1367.2  4092003.4 -0.0  2 0 1139 1694  734
[19]  59(B23) 1f 40  7  0  -2949.6  4092007.6 -0.1  2 0  843 1283  926
[20]  68(B32) 1f 39  7  0  -4126.9  4092010.7 -0.2  2 0 1007  896  762
[32]  80(N-1)  f 32  7  0  -5061.1  1022003.1 -0.0  5 0   684 1126  408
[33]  81(N00)  f 32  7  0  -2867.0  1022001.8 -0.4  5 0   505  555  384
[48]  38(B02)  1 18 10  1  -1084.2 20460021.2 -0.2  1 0  198  154  425
[50]  54(B18)  1  7  7  0   -730.2 20460022.7  0.1  1 0  433  991  559
[51]  59(B23)  1  8  7  0  -3368.3 20460048.6 -0.2  1 0  491  514  703
[52]  68(B32)  1  7  8  0  -3253.7 20460067.1 -0.1  1 0  226  281  455
$GNGGA,013412.659,,,,,0,00,,,M,,,,0000*24
$GNRMC,013412.659,A,,,,,,,100180,,*21
$GPGSA,A,1,,,,,,,,,,,,,,,*1E
$BDGSA,A,1,,,,,,,,,,,,,,,*0F
$GLGSA,A,1,,,,,,,,,,,,,,,*02
$GPGSV,2,1,07,01,00,000,41,03,00,000,43,18,00,000,41,22,00,000,42*77
$GPGSV,2,2,07,26,00,000,42,31,00,000,36,16,00,000,36*49
$BDGSV,1,1,04,02,00,000,39,18,00,000,41,23,00,000,40,32,00,000,39*66
$B3CN0,0,0,0,0,0,0,0,0,0,0,0,0,0,0*4C
---00000015--- Acq_st=3 0  2000-1-1 0:2:3 
[00]  00(G01)  f 40  7  0    503.9  2045999.3  0.0  2 0  613 1137  513
[01]  02(G03)  f 44  7  0  -3727.5  2046004.8 -0.0  2 0 1201 2200 1176
[02]  17(G18)  f 42  7  0   1053.8  2045998.5 -0.1  2 0  791 1135  271
[03]  21(G22)  f 41  7  0  -2587.3  2046003.3  0.1  2 0 1146 1444  672
[04]  25(G26)  f 41  7  0  -3633.0  2046004.8 -0.1  2 0  369 1146  783
[05]  30(G31)  f 36  7  0   -496.9  2046000.5  0.2  2 0  334  567  349
[06]  15(G16)  f 36  7  0  -5040.1  2046006.5 -0.0  2 0  418  938  612
[16]  38(B02) 1f 38 18  0  -1099.0  4092002.8  0.3  2 0  793  915  435
[17]  41(B05)  1 13 10  0  -1142.3  4092002.2 -0.2  1 0  191  418  206
[18]  54(B18) 1f 41  7  0  -1371.4  4092003.5  0.0  2 0  900 1101  407
[19]  59(B23) 1f 39  7  0  -2957.3  4092007.6 -0.1  2 0 1058 1161  574
[20]  68(B32) 1f 40  7  0  -4128.2  4092010.7  0.1  2 0  730 1004  489
[32]  80(N-1)  f 41  8  0  -5064.6  1022003.2 -0.1  2 0   373  861  522
[33]  81(N00)  f 39  7  0  -2870.7  1022001.8  0.3  2 0   704  625  185
[48]  38(B02)  1 10 10  0  -1539.3 20460021.9  0.0  1 0  565 1048  778
[50]  54(B18)  1  7  7  0  -1045.2 20460023.0  0.1  1 0  504  565  642
[51]  59(B23)  1  7  7  0  -3249.0 20460046.0 -0.2  1 0  403  441   77
[52]  68(B32)  1  7  7  0  -3742.8 20460065.8  0.0  1 0  628  621  259
$GNGGA,013413.659,,,,,0,00,,,M,,,,0000*25
$GNRMC,013413.659,A,,,,,,,100180,,*20
$GPGSA,A,1,,,,,,,,,,,,,,,*1E
$BDGSA,A,1,,,,,,,,,,,,,,,*0F
$GLGSA,A,1,,,,,,,,,,,,,,,*02
$GPGSV,2,1,07,01,00,000,40,03,00,000,44,18,00,000,42,22,00,000,41*71
$GPGSV,2,2,07,26,00,000,41,31,00,000,36,16,00,000,36*4A
$BDGSV,1,1,04,02,00,000,38,18,00,000,41,23,00,000,39,32,00,000,40*67
$B3CN0,0,0,0,0,0,0,0,0,0,0,0,0,0,0*4C
---00000016--- Acq_st=3 0  2000-1-1 0:2:4 
[00]  00(G01)  f 41  7  0    506.6  2045999.3 -0.0  2 0 1019 1401  808
[01]  02(G03)  f 44 10  0  -3736.1  2046004.8  0.0  2 0 1142 1878  876
[02]  17(G18)  f 41  7  0   1052.2  2045998.6 -0.0  2 0 1051 1749 1110
[03]  21(G22)  f 42  8  0  -2584.2  2046003.3 -0.1  2 0 1320 1680  579
[04]  25(G26)  f 40  7  0  -3639.0  2046004.8 -0.2  2 0  448 1321  670
[05]  30(G31)  f 37  7  0   -511.6  2046000.6  0.0  2 0  585  529  352
[06]  15(G16)  f 37 10  0  -5045.9  2046006.5 -0.3  2 0  254  730  501
[16]  38(B02) 1f 37 28  0  -1096.1  4092002.6 -0.3  2 0  684  741  295
[17]  41(B05)  1 10 10  0  -1599.5  4092005.0 -0.0  1 0  402   97  773
[18]  54(B18) 1f 41  7  0  -1374.0  4092003.5 -0.1  2 0 1164  962  438
[19]  59(B23) 1f 39 10  0  -2956.9  4092007.7  0.0  2 0  734  955  314
[20]  68(B32) 1f 40  7  0  -4132.6  4092010.7  0.1  2 0 1127  984  385
[32]  80(N-1)  f 40  7  0  -5065.6  1022003.2 -0.2  2 0   615  795  196
[33]  81(N00)  f 38  7  0  -2873.5  1022002.0  0.1  2 0   195  603  671
$GNGGA,013414.659,,,,,0,00,,,M,,,,0000*22
$GNRMC,013414.659,A,,,,,,,100180,,*27
$GPGSA,A,1,,,,,,,,,,,,,,,*1E
$BDGSA,A,1,,,,,,,,,,,,,,,*0F
$GLGSA,A,1,,,,,,,,,,,,,,,*02
$GPGSV,2,1,07,01,00,000,41,03,00,000,44,18,00,000,41,22,00,000,42*70
$GPGSV,2,2,07,26,00,000,40,31,00,000,37,16,00,000,37*4B
$BDGSV,1,1,04,02,00,000,37,18,00,000,41,23,00,000,39,32,00,000,40*68
$B3CN0,0,0,0,0,0,0,0,0,0,0,0,0,0,0*4C
---00000017--- Acq_st=5 0  2000-1-1 0:2:5 
[00]  00(G01)  f 41  7  0    507.9  2045999.3  0.0  2 0  882 1198  342
[01]  02(G03)  f 43  7  0  -3730.7  2046004.8 -0.0  2 0 1604 2122 1265
[02]  17(G18)  f 41  7  0   1048.5  2045998.6  0.1  2 0  857 1514  681
[03]  21(G22)  f 42  7  0  -2584.7  2046003.3  0.1  2 0 1217 1778  650
[04]  25(G26)  f 40  7  0  -3641.3  2046004.7  0.1  2 0  703 1374 1017
[05]  30(G31)  f 37  7  0   -502.8  2046000.6 -0.2  2 0  387  759  937
[06]  15(G16)  f 37 13  0  -5042.0  2046006.5 -0.3  2 0  553 1055 1147
[16]  38(B02) 1f 38 24  0  -1101.0  4092002.8 -0.1  2 0  322  560  352
[17]  41(B05)  1 10 10  0  -1633.0  4092002.8  0.0  1 0  790  414  237
[18]  54(B18) 1f 40  7  0  -1375.1  4092003.4 -0.1  2 0 1458 1545  736
[19]  59(B23) 1f 39 12  0  -2959.5  4092007.6 -0.1  2 0  632  679   88
[20]  68(B32) 1f 41  7  0  -4131.1  4092010.7 -0.1  2 0  947 1448  542
[32]  80(N-1)  f 39  7  0  -5067.6  1022003.2 -0.2  2 0   578  955  609
[33]  81(N00)  f 37  7  0  -2870.5  1022001.8 -0.0  2 0   329  658  542
[48]  38(B02)  1 20 10  1   -964.1 20460018.2  0.0  1 0  498  651  510
[50]  54(B18)  1  7  7  0  -1075.0 20460023.0  0.1  1 0  495  886  761
[51]  59(B23)  1  7  7  0  -1948.4 20460047.7 -0.1  1 0  529  196  559
[52]  68(B32)  1  7  7  0  -3440.8 20460065.3 -0.1  1 0  534  162  112
$GNGGA,013415.659,,,,,0,00,,,M,,,,0000*23
$GNRMC,013415.659,A,,,,,,,100180,,*26
$GPGSA,A,1,,,,,,,,,,,,,,,*1E
$BDGSA,A,1,,,,,,,,,,,,,,,*0F
$GLGSA,A,1,,,,,,,,,,,,,,,*02
$GPGSV,2,1,07,01,00,000,41,03,00,000,43,18,00,000,41,22,00,000,42*77
$GPGSV,2,2,07,26,00,000,40,31,00,000,37,16,00,000,37*4B
$BDGSV,1,1,04,02,00,000,38,18,00,000,40,23,00,000,39,32,00,000,41*67
$B3CN0,0,0,0,0,0,0,0,0,0,0,0,0,0,0*4C
---00000018--- Acq_st=3 0  2000-1-1 0:2:6 
[00]  00(G01)  f 41  7  0    501.7  2045999.2 -0.0  2 0  718 1292  879
[01]  02(G03)  f 43  8  0  -3731.0  2046004.8  0.0  2 0 1197 1370  559
[02]  17(G18)  f 41  7  0   1048.0  2045998.6 -0.1  2 0 1175 1464  969
[03]  21(G22)  f 42  7  0  -2579.3  2046003.3  0.1  2 0 1390 1855  974
[04]  25(G26)  f 40  7  0  -3640.6  2046004.7 -0.2  2 0 1119 1417  758
[05]  30(G31)  f 37  7  0   -496.7  2046000.6  0.1  2 0  943 1022  314
[06]  15(G16)  f 36 10  0  -5039.3  2046006.5  0.1  2 0  350  811  485
[16]  38(B02) 1f 37 29  0  -1098.8  4092002.8  0.2  2 0  444  523  182
[18]  54(B18) 1f 41  8  0  -1371.0  4092003.5  0.0  2 0 1285 1604  411
[19]  59(B23) 1f 39  7  0  -2950.0  4092007.6  0.0  2 0  740 1079  638
[20]  68(B32) 1f 41  7  0  -4133.6  4092010.7 -0.0  2 0 1268 1368  457
[32]  80(N-1)  f 38  7  0  -5064.2  1022003.3  0.2  2 0   240  646  296
[33]  81(N00)  f 37  7  0  -2870.1  1022001.8  0.1  2 0   533  651  121
[48]  38(B02)  1 10 14  1  -1325.0 20460016.9 -0.0  1 0  188  991  954
[50]  54(B18)  1  8 11  0  -1183.5 20460022.1 -0.1  1 0  381  603  283
[51]  59(B23)  1  7 11  0  -2022.0 20460048.6  0.1  1 0  509  460  497
[52]  68(B32)  1  7  7  0  -3273.9 20460066.9 -0.0  1 0  407  669  320
$GNGGA,013416.659,,,,,0,00,,,M,,,,0000*20
$GNRMC,013416.659,A,,,,,,,100180,,*25
$GPGSA,A,1,,,,,,,,,,,,,,,*1E
$BDGSA,A,1,,,,,,,,,,,,,,,*0F
$GLGSA,A,1,,,,,,,,,,,,,,,*02
$GPGSV,2,1,07,01,00,000,41,03,00,000,43,18,00,000,41,22,00,000,42*77
$GPGSV,2,2,07,26,00,000,40,31,00,000,37,16,00,000,36*4A
$BDGSV,1,1,04,02,00,000,37,18,00,000,41,23,00,000,39,32,00,000,41*69
$B3CN0,0,0,0,0,0,0,0,0,0,0,0,0,0,0*4C
---00000019--- Acq_st=7 0  2000-1-1 0:2:7 
[00]  00(G01)  f 41  7  0    516.7  2045999.3 -0.1  2 0  926 1351  414
[01]  02(G03)  f 42  7  0  -3724.8  2046004.8  0.1  2 0 1114 1653 1022
[02]  17(G18)  f 41  7  0   1053.4  2045998.6 -0.1  2 0  984 1719 1106
[03]  21(G22)  f 42  7  0  -2576.6  2046003.3  0.0  2 0 1326 1676  650
[04]  25(G26)  f 41  7  0  -3632.7  2046004.6 -0.1  2 0 1168 1617  502
[05]  30(G31)  f 38  7  0   -495.7  2046000.5 -0.3  2 0  740 1175  520
[06]  15(G16)  f 36  7  0  -5041.1  2046006.5 -0.3  2 0  132  321   55
[16]  38(B02) 1f 38 25  0  -1096.2  4092002.8  0.4  2 0  921  569  286
[18]  54(B18) 1f 41  7  0  -1366.9  4092003.4  0.0  2 0 1446 1252  374
[19]  59(B23) 1f 39  8  0  -2948.5  4092007.6 -0.1  2 0  964 1165  713
[20]  68(B32) 1f 41  7  0  -4127.9  4092010.7  0.1  2 0 1422 1564  748
[32]  80(N-1)  f 36  7  0  -5061.4  1022003.3 -0.1  2 0   336  508  175
[33]  81(N00)  f 38  7  0  -2863.0  1022001.7 -0.1  2 0   620  742  302
[48]  38(B02)  1 10 10  1  -1251.0 20460013.1 -0.0  1 0  313  296  709
[50]  54(B18)  1  7  7  0   -787.0 20460021.9 -0.0  1 0  665  195  331
[51]  59(B23)  1  7  7  0  -2193.0 20460047.3  0.1  1 0  608  259  397
[52]  68(B32)  1  7  7  0  -3386.6 20460068.4  0.2  1 0  377  106  817
$GNGGA,013417.659,,,,,0,00,,,M,,,,0000*21
$GNRMC,013417.659,A,,,,,,,100180,,*24
$GPGSA,A,1,,,,,,,,,,,,,,,*1E
$BDGSA,A,1,,,,,,,,,,,,,,,*0F
$GLGSA,A,1,,,,,,,,,,,,,,,*02
$GPGSV,2,1,07,01,00,000,41,03,00,000,42,18,00,000,41,22,00,000,42*76
$GPGSV,2,2,07,26,00,000,41,31,00,000,38,16,00,000,36*44
$BDGSV,1,1,04,02,00,000,38,18,00,000,41,23,00,000,39,32,00,000,41*66
$B3CN0,0,0,0,0,0,0,0,0,0,0,0,0,0,0*4C
---00000020--- Acq_st=3 0  2000-1-1 0:2:8 
[00]  00(G01)  f 40  7  0    511.0  2045999.3  0.1  2 0  437 1140  520
[01]  02(G03)  f 41  7  0  -3730.9  2046004.8  0.0  2 0 1196 1221  533
[02]  17(G18)  f 41  7  0   1048.9  2045998.6 -0.1  2 0 1010 1834  950
[03]  21(G22)  f 42  7  0  -2581.4  2046003.3 -0.0  2 0 1226 1543  595
[04]  25(G26)  f 41  7  0  -3638.7  2046004.6 -0.1  2 0 1267 1442  436
[05]  30(G31)  f 37  7  0   -499.7  2046000.6 -0.5  2 0  830 1299  709
[06]  15(G16)  f 35 10  0  -5045.6  2046006.5  0.0  2 0  391  847  624
[16]  38(B02) 1f 37 24  0  -1095.2  4092002.8 -0.3  2 0  865  985  493
[18]  54(B18) 1f 41  7  0  -1374.0  4092003.5 -0.1  2 0 1245 1350  319
[19]  59(B23) 1f 39 10  0  -2955.8  4092007.6 -0.1  2 0  610  889  179
[20]  68(B32) 1f 41  7  0  -4131.1  4092010.7  0.0  2 0 1644 2272  896
[32]  80(N-1)  f 36  7  0  -5067.0  1022003.3 -0.0  2 0   244  561  294
[33]  81(N00)  f 40  7  0  -2867.9  1022001.7  0.0  2 0   836 1007  666
[48]  38(B02)  f 10 10  0  -1200.4 20460019.6 -0.0  2 0  631  963  444
[50]  54(B18)  1  7  7  0   -601.9 20460022.6 -0.2  1 0 1283  762  511
[51]  59(B23)  1  7  7  0  -2415.9 20460048.9  0.1  1 0  345  374  490
[52]  68(B32)  1  7  7  0  -2872.0 20460066.4 -0.0  1 0  521  668  402
$GNGGA,013418.659,,,,,0,00,,,M,,,,0000*2E
$GNRMC,013418.659,A,,,,,,,040419,,*2B
$GPGSA,A,1,,,,,,,,,,,,,,,*1E
$BDGSA,A,1,,,,,,,,,,,,,,,*0F
$GLGSA,A,1,,,,,,,,,,,,,,,*02
$GPGSV,2,1,07,01,00,000,40,03,00,000,41,18,00,000,41,22,00,000,42*74
$GPGSV,2,2,07,26,00,000,41,31,00,000,37,16,00,000,35*48
$BDGSV,1,1,04,02,00,000,37,18,00,000,41,23,00,000,39,32,00,000,41*69
$B3CN0,0,0,0,0,0,0,0,0,0,0,0,0,0,0*4C
---00000021--- Acq_st=3 0  2000-1-1 0:2:9 
[00]  00(G01)  f 41  7  0    505.3  2045999.3 -0.0  2 0 1101 1608  598
[01]  02(G03)  f 40  7  0  -3729.9  2046004.8  0.0  2 0 1086 1548 1207
[02]  17(G18)  f 41  7  0   1051.1  2045998.6  0.0  2 0  745 1155  569
[03]  21(G22)  f 42  7  0  -2578.4  2046003.3  0.1  2 0 1256 1776  725
[04]  25(G26)  f 42  7  0  -3632.6  2046004.6 -0.1  2 0  975 1548  867
[05]  30(G31)  f 37  7  0   -501.6  2046000.6 -0.6  2 0  841  949  141
[06]  15(G16)  f 36  7  0  -5036.4  2046006.4 -0.1  2 0  994  902  240
[16]  38(B02) 1f 37 27  0  -1101.7  4092002.7 -0.7  2 0  604 1130  545
[18]  54(B18) 1f 41  7  0  -1374.2  4092003.5  0.1  2 0 1406 1228  188
[19]  59(B23) 1f 39 11  0  -2951.9  4092007.6  0.2  2 0 1080 1331  451
[20]  68(B32) 1f 41  7  0  -4125.7  4092010.7  0.0  2 0 1623 1682  993
[32]  80(N-1)  f 34  7  0  -5068.1  1022003.3 -0.1  2 0   124  497  368
[33]  81(N00)  f 40  7  0  -2865.7  1022001.8 -0.2  2 0   400  946  565
[48]  38(B02)  f 14 36  1  -1664.3 20460026.5 -0.1  2 0  886  494  189
$GNGGA,013419.659,,,,,0,00,,,M,,,,0000*2F
$GNRMC,013419.659,A,,,,,,,040419,,*2A
$GPGSA,A,1,,,,,,,,,,,,,,,*1E
$BDGSA,A,1,,,,,,,,,,,,,,,*0F
$GLGSA,A,1,,,,,,,,,,,,,,,*02
$GPGSV,2,1,07,01,00,000,41,03,00,000,40,18,00,000,41,22,00,000,42*74
$GPGSV,2,2,07,26,00,000,42,31,00,000,37,16,00,000,36*48
$BDGSV,1,1,04,02,00,000,37,18,00,000,41,23,00,000,39,32,00,000,41*69
$B3CN0,0,16,0,0,0,0,0,0,0,0,0,0,0,0*7B
---00000022--- Acq_st=3 0  2000-1-1 0:2:10 
[00]  00(G01)  f 41  7  0    512.8  2045999.3  0.1  2 0  813 1431  428
[01]  02(G03)  f 41  9  0  -3728.4  2046004.8 -0.1  2 0 1158 1658  904
[02]  17(G18)  f 41  7  0   1048.2  2045998.5 -0.1  2 0  765 1254  637
[03]  21(G22)  f 42  7  0  -2577.3  2046003.3 -0.0  2 0 1130 2002  860
[04]  25(G26)  f 43  8  0  -3635.2  2046004.6  0.1  2 0 1842 1975  634
[05]  30(G31)  f 36  7  0   -509.8  2046000.5 -0.1  2 0  470  887  900
[06]  15(G16)  f 36  7  0  -5038.9  2046006.5  0.1  2 0  491  871  477
[08]  31(G32)  1 10  7  0   -561.4  2045999.7  0.1  1 0  738  352  420
[16]  38(B02) 1f 36 21  0  -1099.3  4092002.7 -0.0  2 0  444  553  130
[18]  54(B18) 1f 41 12  0  -1371.2  4092003.5  0.1  2 0  803 1365  990
[19]  59(B23) 1f 40  7  0  -2949.3  4092007.5 -0.1  2 0 1056 1229  825
[20]  68(B32) 1f 41  7  0  -4130.9  4092010.7 -0.0  2 0 1018 1190  737
[32]  80(N-1)  f 35  7  0  -5064.1  1022003.2  0.0  2 0   420  591  191
[33]  81(N00)  f 41  7  0  -2865.1  1022001.8 -0.8  2 0   689 1220  493
[48]  38(B02)  f 10 10  1  -1503.2 20460022.9 -0.1  2 0  252  345  244
[50]  54(B18)  1  7  7  0   -574.4 20460022.4  0.1  1 0  779  675  883
[51]  59(B23)  1  7  7  0  -2440.2 20460046.7  0.2  1 0  130  507  560
[52]  68(B32)  1  7  7  0  -3201.2 20460066.2 -0.2  1 0  169  242  332
$GNGGA,013420.659,,,,,0,00,,,M,,,,0000*25
$GNRMC,013420.659,A,,,,,,,040419,,*20
$GPGSA,A,1,,,,,,,,,,,,,,,*1E
$BDGSA,A,1,,,,,,,,,,,,,,,*0F
$GLGSA,A,1,,,,,,,,,,,,,,,*02
$GPGSV,2,1,07,01,00,000,41,03,00,000,41,18,00,000,41,22,00,000,42*75
$GPGSV,2,2,07,26,00,000,43,31,00,000,36,16,00,000,36*48
$BDGSV,1,1,04,02,00,000,36,18,00,000,41,23,00,000,40,32,00,000,41*66
$B3CN0,0,0,0,0,0,0,0,0,0,0,0,0,0,0*4C
---00000023--- Acq_st=3 0  2000-1-1 0:2:11 
[00]  00(G01)  f 41  7  0    508.3  2045999.3  0.0  2 0  912 1581  901
[01]  02(G03)  f 42  7  0  -3726.6  2046004.7 -0.1  2 0 1912 1628  661
[02]  17(G18)  f 41  7  0   1046.7  2045998.6  0.2  2 0  885 1276  320
[03]  21(G22)  f 42  7  0  -2576.2  2046003.3 -0.0  2 0  744 1519  671
[04]  25(G26)  f 43  7  0  -3634.2  2046004.6 -0.0  2 0 1501 1994  854
[05]  30(G31)  f 37  7  0   -503.6  2046000.6  0.2  2 0  849  952  576
[06]  15(G16)  f 37  7  0  -5042.0  2046006.5 -0.2  2 0  756  834  236
[08]  31(G32)  7 16  7  0   -454.5  2046000.6 -0.0 10 0  266  472  122
[16]  38(B02) 1f 39 28  0  -1098.3  4092002.7 -0.6  2 0  615 1054  555
[18]  54(B18) 1f 40  7  0  -1367.8  4092003.5  0.1  2 0 1088 1423  610
[19]  59(B23) 1f 40  7  0  -2952.2  4092007.6 -0.1  2 0 1113 1299  432
[20]  68(B32) 1f 42  7  0  -4128.6  4092010.7  0.1  2 0 1335 1589  607
[32]  80(N-1)  f 38  7  0  -5062.6  1022003.1  0.0  2 0   299 1004  418
[33]  81(N00)  f 41  7  0  -2864.6  1022001.8  0.1  2 0   286 1006  445
[48]  38(B02)  f 20 18  1  -1867.5 20460030.9  0.1  2 0  638  856  572
[50]  54(B18)  1  7  7  0   -736.0 20460021.8 -0.1  1 0  696  386  505
[51]  59(B23)  1  7  7  0  -2102.7 20460046.6 -0.1  1 0  213  387  912
[52]  68(B32)  1  7  7  0  -3069.0 20460064.1  0.0  1 0  145  412  217
$GNGGA,013421.659,,,,,0,00,,,M,,,,0000*24
$GNRMC,013421.659,A,,,,,,,040419,,*21
$GPGSA,A,1,,,,,,,,,,,,,,,*1E
$BDGSA,A,1,,,,,,,,,,,,,,,*0F
$GLGSA,A,1,,,,,,,,,,,,,,,*02
$GPGSV,2,1,08,01,00,000,41,03,00,000,42,18,00,000,41,22,00,000,42*79
$GPGSV,2,2,08,26,00,000,43,31,00,000,37,16,00,000,37,32,00,000,16*71
$BDGSV,1,1,04,02,00,000,39,18,00,000,40,23,00,000,40,32,00,000,42*6B
$B3CN0,0,20,0,0,0,0,0,0,0,0,0,0,0,0*7E
---00000024--- Acq_st=3 0  2000-1-1 0:2:12 
[00]  00(G01)  f 41  7  0    513.1  2045999.3 -0.1  2 0  804 1262  439
[01]  02(G03)  f 42  7  0  -3723.7  2046004.8  0.0  2 0  978 1524  948
[02]  17(G18)  f 41  7  0   1052.6  2045998.5 -0.1  2 0 1203 1684 1227
[03]  21(G22)  f 42  7  0  -2573.7  2046003.3 -0.1  2 0 1503 1815  506
[04]  25(G26)  f 43  7  0  -3626.1  2046004.6  0.0  2 0 1796 2432  982
[05]  30(G31)  f 37  7  0   -499.6  2046000.6 -0.2  2 0  522  895  634
[06]  15(G16)  f 37  7  0  -5037.6  2046006.5 -0.0  2 0  553  793  299
[08]  31(G32)  7 25  7  0   -452.8  2046000.7 -0.1 10 0  327  447  245
[16]  38(B02) 1f 39 25  0  -1096.2  4092002.7 -0.7  2 0  537  886  196
[18]  54(B18) 1f 41  7  0  -1367.9  4092003.5  0.1  2 0 1253 1256  305
[19]  59(B23) 1f 40  7  0  -2947.1  4092007.5 -0.0  2 0 1358 1491  548
[20]  68(B32) 1f 42  7  0  -4125.3  4092010.7  0.0  2 0 1196 1203  422
[32]  80(N-1)  f 39  7  0  -5057.9  1022003.1  0.1  2 0   413  911  440
[33]  81(N00)  f 41  7  0  -2860.4  1022001.8  0.0  2 0   873 1354  821
[50]  54(B18)  1  7  7  0  -1054.2 20460022.1 -0.1  1 0  464  261  267
[51]  59(B23)  1  7  7  0  -2660.3 20460047.8 -0.1  1 0  425  483  449
[52]  68(B32)  1  7  7  0  -3497.5 20460066.1  0.1  1 0  782  301  482
$GNGGA,013422.659,,,,,0,00,,,M,,,,0000*27
$GNRMC,013422.659,A,,,,,,,040419,,*22
$GPGSA,A,1,,,,,,,,,,,,,,,*1E
$BDGSA,A,1,,,,,,,,,,,,,,,*0F
$GLGSA,A,1,,,,,,,,,,,,,,,*02
$GPGSV,2,1,08,01,00,000,41,03,00,000,42,18,00,000,41,22,00,000,42*79
$GPGSV,2,2,08,26,00,000,43,31,00,000,37,16,00,000,37,32,00,000,25*71
$BDGSV,1,1,04,02,00,000,39,18,00,000,41,23,00,000,40,32,00,000,42*6A
$B3CN0,0,0,0,0,0,0,0,0,0,0,0,0,0,0*4C
---00000025--- Acq_st=3 0  2000-1-1 0:2:13 
[00]  00(G01)  f 41  7  0    511.1  2045999.3  0.0  2 0 1122 1779  796
[01]  02(G03)  f 42  7  0  -3727.1  2046004.8  0.0  2 0  573 1507  937
[02]  17(G18)  f 41  7  0   1046.3  2045998.6 -0.1  2 0  804 1894 1303
[03]  21(G22)  f 42  7  0  -2578.1  2046003.3  0.0  2 0  885 1689  373
[04]  25(G26)  f 43  7  0  -3634.6  2046004.6 -0.0  2 0 1423 2169 1098
[05]  30(G31)  f 38  7  0   -501.5  2046000.6  0.5  2 0  624 1099  624
[06]  15(G16)  f 36 11  0  -5035.8  2046006.5  0.4  2 0  502  513   70
[08]  31(G32)  7 20  9  0   -609.8  2046000.8  0.0 10 0  294  374  190
[16]  38(B02) 1f 38 25  0  -1100.9  4092002.7 -0.9  2 0  990  995  477
[18]  54(B18) 1f 40  7  0  -1372.7  4092003.5  0.0  2 0  786 1302  984
[19]  59(B23) 1f 41  7  0  -2951.1  4092007.6  0.0  2 0 1310 1256  402
[20]  68(B32) 1f 41  7  0  -4133.9  4092010.7  0.1  2 0 1292 1164  805
[32]  80(N-1)  f 40  7  0  -5066.3  1022003.2  0.1  2 0   557  889  566
[33]  81(N00)  f 42  8  0  -2864.5  1022001.8  0.0  2 0   971 1341  405
[48]  38(B02)  1 14 10  0  -1012.6 20460016.8  0.2  1 0  459  475  387
[50]  54(B18)  1  7  7  0   -464.4 20460022.3 -0.0  1 0  219  342  533
[51]  59(B23)  1  7  7  0  -2551.0 20460049.0 -0.1  1 0  235  496  670
[52]  68(B32)  1  7  7  0  -3775.8 20460067.6 -0.0  1 0  160  257  322
$GNGGA,013423.659,,,,,0,00,,,M,,,,0000*26
$GNRMC,013423.659,A,,,,,,,040419,,*23
$GPGSA,A,1,,,,,,,,,,,,,,,*1E
$BDGSA,A,1,,,,,,,,,,,,,,,*0F
$GLGSA,A,1,,,,,,,,,,,,,,,*02
$GPGSV,2,1,08,01,00,000,41,03,00,000,42,18,00,000,41,22,00,000,42*79
$GPGSV,2,2,08,26,00,000,43,31,00,000,38,16,00,000,36,32,00,000,20*7A
$BDGSV,1,1,04,02,00,000,38,18,00,000,40,23,00,000,41,32,00,000,41*68
$B3CN0,0,0,0,0,0,0,0,0,0,0,0,0,0,0*4C
---00000026--- Acq_st=3 0  2000-1-1 0:2:14 
[00]  00(G01)  f 41  7  0    507.6  2045999.3  0.0  2 0 1226 1576  619
[01]  02(G03)  f 42  7  0  -3731.7  2046004.8 -0.1  2 0 1364 1758  740
[02]  17(G18)  f 41  7  0   1046.2  2045998.6 -0.0  2 0  962 1809  843
[03]  21(G22)  f 43  7  0  -2579.7  2046003.3  0.0  2 0 1000 1913  816
[04]  25(G26)  f 43  7  0  -3633.1  2046004.7  0.0  2 0 1425 2270  798
[05]  30(G31)  f 38  7  0   -501.2  2046000.6 -0.0  2 0  648  757  698
[06]  15(G16)  f 37  7  0  -5047.3  2046006.4 -0.6  2 0  533  749  580
[08]  31(G32)  7  9  7  0   -687.2  2046000.8  0.1 10 0  382  134  133
[16]  38(B02) 1f 38 27  0  -1106.9  4092002.8  0.6  2 0  775  694  400
[18]  54(B18) 1f 40  7  0  -1374.6  4092003.5 -0.1  2 0  915 1151  590
[19]  59(B23) 1f 41  7  0  -2953.7  4092007.6 -0.1  2 0 1152 1164  656
[20]  68(B32) 1f 41  7  0  -4133.2  4092010.7 -0.0  2 0  921 1492  401
[32]  80(N-1)  f 41  7  0  -5064.6  1022003.2 -0.1  2 0   601 1179  956
[33]  81(N00)  f 42  7  0  -2866.5  1022001.8 -0.1  2 0   869 1332  810
[48]  38(B02)  1 18 16  1   -727.3 20460025.1 -0.2  1 0  394  483  590
$GNGGA,013424.659,,,,,0,00,,,M,,,,0000*21
$GNRMC,013424.659,A,,,,,,,040419,,*24
$GPGSA,A,1,,,,,,,,,,,,,,,*1E
$BDGSA,A,1,,,,,,,,,,,,,,,*0F
$GLGSA,A,1,,,,,,,,,,,,,,,*02
$GPGSV,2,1,07,01,00,000,41,03,00,000,42,18,00,000,41,22,00,000,43*77
$GPGSV,2,2,07,26,00,000,43,31,00,000,38,16,00,000,37*47
$BDGSV,1,1,04,02,00,000,38,18,00,000,40,23,00,000,41,32,00,000,41*68
$B3CN0,0,0,0,0,0,0,0,0,0,0,0,0,0,0*4C
---00000027--- Acq_st=7 0  2000-1-1 0:2:15 
[00]  00(G01)  f 42  7  0    507.5  2045999.3  0.0  2 0 1249 1791  614
[01]  02(G03)  f 42  7  0  -3727.5  2046004.9  0.1  2 0  766 1414  579
[02]  17(G18)  f 41  7  0   1045.5  2045998.6 -0.1  2 0  815 1318  733
[03]  21(G22)  f 43  7  0  -2580.4  2046003.3 -0.0  2 0 1813 2486 1128
[04]  25(G26)  f 43  7  0  -3632.6  2046004.7  0.1  2 0  995 1492  440
[05]  30(G31)  f 39  7  0   -499.7  2046000.5  0.0  2 0  694 1067  349
[06]  15(G16)  f 38  7  0  -5038.7  2046006.4  0.5  2 0  795 1152 1066
[08]  31(G32)  7  7  7  0   -844.4  2046001.2 -0.0 10 0  208  441  260
[16]  38(B02) 1f 37 21  0  -1103.5  4092002.6  0.3  2 0  676  497  397
[18]  54(B18) 1f 40  7  0  -1372.7  4092003.4 -0.0  2 0 1316 1749  741
[19]  59(B23) 1f 41  9  0  -2954.1  4092007.6  0.0  2 0 1154 1298  368
[20]  68(B32) 1f 41  7  0  -4137.3  4092010.7  0.0  2 0 1089 1304  632
[32]  80(N-1)  f 40 11  0  -5064.2  1022003.2  0.3  2 0   412  879  370
[33]  81(N00)  f 41  7  0  -2864.9  1022001.8 -0.0  2 0   724 1119  812
[48]  38(B02)  7 10 10  0    -71.1 20460002.7 -0.1  2 0  142  291  403
[50]  54(B18)  1  9  7  0  -1031.3 20460021.8 -0.1  1 0  200  310  596
[51]  59(B23)  1  7  7  0  -2765.8 20460045.5  0.1  1 0  618  705  897
[52]  68(B32)  1  7  7  0  -2919.4 20460065.5 -0.1  1 0  333  258  462
$GNGGA,013425.659,,,,,0,00,,,M,,,,0000*20
$GNRMC,013425.659,A,,,,,,,040419,,*25
$GPGSA,A,1,,,,,,,,,,,,,,,*1E
$BDGSA,A,1,,,,,,,,,,,,,,,*0F
$GLGSA,A,1,,,,,,,,,,,,,,,*02
$GPGSV,2,1,07,01,00,000,42,03,00,000,42,18,00,000,41,22,00,000,43*74
$GPGSV,2,2,07,26,00,000,43,31,00,000,39,16,00,000,38*49
$BDGSV,1,1,04,02,00,000,37,18,00,000,40,23,00,000,41,32,00,000,41*67
$B3CN0,0,0,0,0,0,0,0,0,0,0,0,0,0,0*4C
---00000028--- Acq_st=7 0  2000-1-1 0:2:16 
[00]  00(G01)  f 42  8  0    510.1  2045999.3  0.0  2 0 1265 1574  314
[01]  02(G03)  f 41  7  0  -3721.4  2046004.8  0.1  2 0  665 1131  895
[02]  17(G18)  f 41  7  0   1053.2  2045998.6  0.0  2 0  816 1237  478
[03]  21(G22)  f 43  7  0  -2573.3  2046003.3  0.0  2 0 1668 2088  690
[04]  25(G26)  f 43 10  0  -3626.3  2046004.7 -0.0  2 0 1536 2210 1085
[05]  30(G31)  f 39  7  0   -496.8  2046000.5  0.3  2 0  789 1116  653
[06]  15(G16)  f 38  8  0  -5035.5  2046006.5  0.5  2 0  842 1027  754
[08]  31(G32)  7  7  7  0   -961.0  2046001.3 -0.1 10 0  181  168  275
[16]  38(B02) 1f 36 24  0  -1094.6  4092002.8 -0.8  2 0  433  242  284
[18]  54(B18) 1f 40  7  0  -1369.6  4092003.5  0.1  2 0  723 1153  531
[19]  59(B23) 1f 41  9  0  -2950.1  4092007.6  0.1  2 0  725 1396 1000
[20]  68(B32) 1f 40  7  0  -4128.1  4092010.7  0.0  2 0  636 1249  918
[32]  80(N-1)  f 40  7  0  -5060.3  1022003.2  0.1  2 0   692  964  453
[33]  81(N00)  f 41  8  0  -2859.9  1022001.8 -0.1  2 0   880 1196  759
[48]  38(B02)  7 10 10  0   -296.6 20460006.2 -0.1  2 0  340  271  398
[50]  54(B18)  1  7  7  0   -895.5 20460022.4 -0.0  1 0  655  308 1057
[51]  59(B23)  1  7  7  0  -2362.2 20460048.8  0.1  1 0  798  316  194
[52]  68(B32)  1  7  7  0  -3152.0 20460065.9 -0.0  1 0  419  826  601
$GNGGA,013426.659,,,,,0,00,,,M,,,,0000*23
$GNRMC,013426.659,A,,,,,,,040419,,*26
$GPGSA,A,1,,,,,,,,,,,,,,,*1E
$BDGSA,A,1,,,,,,,,,,,,,,,*0F
$GLGSA,A,1,,,,,,,,,,,,,,,*02
$GPGSV,2,1,07,01,00,000,42,03,00,000,41,18,00,000,41,22,00,000,43*77
$GPGSV,2,2,07,26,00,000,43,31,00,000,39,16,00,000,38*49
$BDGSV,1,1,04,02,00,000,37,18,00,000,40,23,00,000,41,32,00,000,40*66
$B3CN0,0,0,0,0,0,0,0,0,0,0,0,0,0,0*4C
---00000029--- Acq_st=3 0  2000-1-1 0:2:17 
[00]  00(G01)  f 42  7  0    510.8  2045999.3  0.1  2 0  712 1622  819
[01]  02(G03)  f 41  7  0  -3728.0  2046004.8 -0.0  2 0  701 1538 1016
[02]  17(G18)  f 41  7  0   1042.6  2045998.6 -0.1  2 0  780 1130  687
[03]  21(G22)  f 43  7  0  -2575.0  2046003.3  0.0  2 0 1633 2535  857
[04]  25(G26)  f 42  7  0  -3629.8  2046004.7  0.0  2 0  983 1585  908
[05]  30(G31)  f 39  7  0   -491.4  2046000.6  0.1  2 0 1138  956  260
[06]  15(G16)  f 36 13  0  -5036.3  2046006.5 -0.1  2 0  511  641  842
[16]  38(B02) 1f 37 24  0  -1106.0  4092002.7 -0.6  2 0  795  739   47
[18]  54(B18) 1f 40  7  0  -1372.5  4092003.5 -0.1  2 0 1175 1171  316
[19]  59(B23) 1f 41  7  0  -2950.7  4092007.6 -0.0  2 0 1168  995  380
[20]  68(B32) 1f 40  7  0  -4131.8  4092010.7  0.2  2 0 1030 1427  824
[32]  80(N-1)  f 39  7  0  -5062.0  1022003.2 -0.2  2 0    57  707  353
[33]  81(N00)  f 41  7  0  -2859.7  1022001.7 -0.0  2 0   705 1315  510
[48]  38(B02)  7 10 10  0   -833.8 20460014.2 -0.0  2 0  275  414  585
[50]  54(B18)  1  7  7  0  -1223.0 20460022.6 -0.1  1 0  162  636  600
[51]  59(B23)  1  7  7  0  -2576.7 20460047.0 -0.1  1 0  461  634  508
[52]  68(B32)  1  7  7  0  -3451.8 20460067.0 -0.0  1 0  453  234  193
$GNGGA,013427.659,,,,,0,00,,,M,,,,0000*22
$GNRMC,013427.659,A,,,,,,,040419,,*27
$GPGSA,A,1,,,,,,,,,,,,,,,*1E
$BDGSA,A,1,,,,,,,,,,,,,,,*0F
$GLGSA,A,1,,,,,,,,,,,,,,,*02
$GPGSV,2,1,07,01,00,000,42,03,00,000,41,18,00,000,41,22,00,000,43*77
$GPGSV,2,2,07,26,00,000,42,31,00,000,39,16,00,000,36*46
$BDGSV,1,1,04,02,00,000,37,18,00,000,40,23,00,000,41,32,00,000,40*66
$B3CN0,0,0,0,0,0,0,0,0,0,0,0,0,0,0*4C
---00000030--- Acq_st=3 0  2000-1-1 0:2:18 
[00]  00(G01)  f 42  7  0    510.7  2045999.3 -0.0  2 0 1489 1526  542
[01]  02(G03)  f 41  7  0  -3724.6  2046004.8 -0.1  2 0  695 1429  984
[02]  17(G18)  f 41  7  0   1049.3  2045998.6  0.0  2 0  661  840  305
[03]  21(G22)  f 43  7  0  -2573.5  2046003.2 -0.0  2 0 1279 2389  705
[04]  25(G26)  f 42  7  0  -3631.6  2046004.7 -0.0  2 0 1243 1602  515
[05]  30(G31)  f 40  7  0   -499.4  2046000.6 -0.0  2 0  980 1020  474
[06]  15(G16)  f 36 12  0  -5036.4  2046006.5  0.0  2 0  464  615  448
[16]  38(B02) 1f 37 27  0  -1095.9  4092002.8  0.9  2 0  701  511  426
[18]  54(B18) 1f 41  7  0  -1372.8  4092003.4 -0.0  2 0 1343 1101  279
[19]  59(B23) 1f 40  7  0  -2947.4  4092007.6 -0.0  2 0 1262 1533  680
[20]  68(B32) 1f 40  7  0  -4136.4  4092010.7 -0.2  2 0  747 1257  569
[32]  80(N-1)  f 38 10  0  -5062.5  1022003.2 -0.1  2 0   683  919  740
[33]  81(N00)  f 41  7  0  -2861.5  1022001.8  0.3  2 0   658 1276  710
[48]  38(B02)  7 10 14  0  -1084.5 20460016.7 -0.1  2 0  455  349  471
[50]  54(B18)  1  7  7  0  -1096.6 20460022.7  0.0  1 0 1037  793  367
[51]  59(B23)  1  7  7  0  -2980.4 20460046.6  0.0  1 0  128  602  929
[52]  68(B32)  1  7  7  0  -3937.5 20460067.7  0.1  1 0  214  245  585
$GNGGA,013428.659,,,,,0,00,,,M,,,,0000*2D
$GNRMC,013428.659,A,,,,,,,040419,,*28
$GPGSA,A,1,,,,,,,,,,,,,,,*1E
$BDGSA,A,1,,,,,,,,,,,,,,,*0F
$GLGSA,A,1,,,,,,,,,,,,,,,*02
$GPGSV,2,1,07,01,00,000,42,03,00,000,41,18,00,000,41,22,00,000,43*77
$GPGSV,2,2,07,26,00,000,42,31,00,000,40,16,00,000,36*48
$BDGSV,1,1,04,02,00,000,37,18,00,000,40,23,00,000,40,32,00,000,40*67
$B3CN0,0,0,0,0,0,0,0,0,0,0,0,0,0,0*4C
---00000031--- Acq_st=3 0  2000-1-1 0:2:19 
[00]  00(G01)  f 41  7  0    514.8  2045999.2  0.0  2 0 1491 2205 1092
[01]  02(G03)  f 40  7  0  -3723.3  2046004.8  0.0  2 0  941 1971  858
[02]  17(G18)  f 41  7  0   1053.7  2045998.5 -0.1  2 0  833 1364  560
[03]  21(G22)  f 44  7  0  -2572.7  2046003.2  0.0  2 0 1534 2218  676
[04]  25(G26)  f 41  7  0  -3625.1  2046004.7  0.1  2 0 1049 1776  730
[05]  30(G31)  f 40  7  0   -490.6  2046000.5 -0.1  2 0 1179 1403  943
[06]  15(G16)  f 35  7  0  -5035.0  2046006.6  0.0  2 0  628  553  439
[16]  38(B02) 1f 36 26  0  -1096.3  4092002.9  0.2  2 0  818  833  421
[17]  41(B05)  1 10 10  1  -1250.0  4092003.4 -0.0  1 0  352  364  916
[18]  54(B18) 1f 40  9  0  -1364.9  4092003.4  0.1  2 0  954 1302  882
[19]  59(B23) 1f 39  7  0  -2950.3  4092007.7  0.1  2 0  928  909  474
[20]  68(B32) 1f 39  7  0  -4132.4  4092010.7  0.2  2 0  883  954  278
[32]  80(N-1)  f 36  9  0  -5062.5  1022003.1  0.0  2 0   721  852  478
[33]  81(N00)  f 39  7  0  -2860.5  1022001.9  0.4  2 0   725 1118  691
$GNGGA,013429.659,,,,,0,00,,,M,,,,0000*2C
$GNRMC,013429.659,A,,,,,,,040419,,*29
$GPGSA,A,1,,,,,,,,,,,,,,,*1E
$BDGSA,A,1,,,,,,,,,,,,,,,*0F
$GLGSA,A,1,,,,,,,,,,,,,,,*02
$GPGSV,2,1,07,01,00,000,41,03,00,000,40,18,00,000,41,22,00,000,44*72
$GPGSV,2,2,07,26,00,000,41,31,00,000,40,16,00,000,35*48
$BDGSV,1,1,04,02,00,000,36,18,00,000,40,23,00,000,39,32,00,000,39*66
$B3CN0,0,0,0,0,0,0,0,0,0,0,0,0,0,0*4C
---00000032--- Acq_st=3 0  2000-1-1 0:2:20 
[00]  00(G01)  f 42  7  0    509.9  2045999.3 -0.0  2 0 1167 1937  770
[01]  02(G03)  f 40  7  0  -3725.5  2046004.8 -0.1  2 0  756 1292  320
[02]  17(G18)  f 41  7  0   1051.4  2045998.5  0.0  2 0 1419 1534  835
[03]  21(G22)  f 44  7  0  -2572.1  2046003.3 -0.0  2 0 1184 2323 1016
[04]  25(G26)  f 41  9  0  -3626.2  2046004.8 -0.1  2 0  656 1036  388
[05]  30(G31)  f 39 10  0   -498.6  2046000.6  0.1  2 0 1013 1563  696
[06]  15(G16)  f 34  8  0  -5030.3  2046006.5  0.0  2 0   43  606  733
[16]  38(B02) 1f 37 24  0  -1096.9  4092002.8 -0.6  2 0  443 1041  515
[17]  41(B05)  1 10 25  1  -1095.4  4092004.3  0.2  1 0  605  765  214
[18]  54(B18) 1f 40  7  0  -1366.0  4092003.4  0.0  2 0  645 1129  373
[19]  59(B23) 1f 39  7  0  -2947.4  4092007.7 -0.1  2 0  486  675  558
[20]  68(B32) 1f 39  7  0  -4135.2  4092010.7 -0.1  2 0  814  914  115
[32]  80(N-1)  f 37  7  0  -5060.4  1022003.2 -0.1  2 0   491  477  165
[33]  81(N00)  f 39  7  0  -2861.4  1022001.8 -0.1  2 0   279  979  233
[48]  38(B02)  1 10 14  0   -742.7 20460017.8  0.1  1 0  334  526  762
[50]  54(B18)  1  7  7  0   -924.4 20460021.9 -0.0  1 0  214  158  130
[51]  59(B23)  1  7  7  0  -2536.0 20460046.1 -0.2  1 0  354  604  838
[52]  68(B32)  1  7  7  0  -3254.0 20460064.9 -0.1  1 0  324  500  309
$GNGGA,013430.528,2944.9323,N,10633.1656,E,1,06,3.8,218.8,M,,,,0000*16
$GNRMC,013430.528,A,2944.9323,N,10633.1656,E,4.33,0.00,040419,,*18
$GPGSA,A,3,01,03,16,18,22,26,,,,,,,5.1,3.8,3.4*32
$BDGSA,A,3,,,,,,,,,,,,,5.1,3.8,3.4*2B
$GLGSA,A,3,,,,,,,,,,,,,5.1,3.8,3.4*26
$GPGSV,2,1,07,01,00,000,42,03,00,000,40,18,00,000,41,22,00,000,44*71
$GPGSV,2,2,07,26,00,000,41,31,00,000,39,16,00,000,34*47
$BDGSV,1,1,04,02,00,000,37,18,00,000,40,23,00,000,39,32,00,000,39*67
$B3CN0,0,0,0,0,0,0,0,0,0,0,0,0,0,0*4C
---00000033--- Acq_st=3 0  2019-4-4 1:34:31 
[00]  00(G01)  f 42 11  0    515.0  2045999.3 -0.0  2 0 1052 1670  781
[01]  02(G03)  f 41  7  0  -3722.9  2046004.8  0.2  2 0 1265 1681  837
[02]  17(G18)  f 41  7  0   1048.0  2045998.6  0.0  2 0 1009 1545  575
[03]  21(G22)  f 44  7  0  -2574.0  2046003.3  0.0  2 0 1515 2346 1493
[04]  25(G26)  f 41  7  0  -3628.2  2046004.7  0.1  2 0  552 1540 1002
[05]  30(G31)  f 40  7  0   -499.1  2046000.6  0.0  2 0 1298  956  412
[06]  15(G16)  f 35  7  0  -5038.8  2046006.5 -0.1  2 0  544  712  295
[16]  38(B02) 1f 36 27  0  -1105.3  4092002.7 -0.9  2 0  764  580  290
[17]  41(B05)  7 35 23  0  -1100.0  4092002.7  0.5  2 0  952  523  123
[18]  54(B18) 1f 41  7  0  -1368.6  4092003.5 -0.1  2 0  846 1147  540
[19]  59(B23) 1f 38  7  0  -2949.2  4092007.7 -0.1  2 0  806 1148  527
[20]  68(B32) 1f 39  7  0  -4128.9  4092010.7 -0.2  2 0  649  771  633
[32]  80(N-1)  f 38  7  0  -5061.8  1022003.1  0.0  2 0   875  804  135
[33]  81(N00)  f 39  7  0  -2860.4  1022001.8  0.2  2 0   792  768  489
[48]  38(B02)  1 10 20  0   -475.7 20460018.9  0.1  1 0  401  361  274
[50]  54(B18)  1  7  8  0   -791.2 20460022.0  0.1  1 0  738  835  969
[51]  59(B23)  1  7  7  0  -2743.3 20460048.4  0.2  1 0  251  372  638
[52]  68(B32)  1  7  7  0  -3541.4 20460064.3 -0.0  1 0  810  468  438
Refix G01: 2, 351289.914951, 509
Refix G03: 2, 351289.921843, -3726
Refix G16: 2, 351289.921286, -5038
Refix G18: 2, 351289.914765, 1046
Refix G22: 2, 351289.924693, -2574
Refix G26: 2, 351289.929518, -3631
$GNGGA,013432.000,2944.9273,N,10633.1685,E,1,06,3.8,222.6,M,,,,0000*16
$GNRMC,013432.000,A,2944.9273,N,10633.1685,E,2.72,491.47,040419,,*13
$GPGSA,A,3,01,03,16,18,22,26,,,,,,,5.1,3.8,3.4*32
$BDGSA,A,3,,,,,,,,,,,,,5.1,3.8,3.4*2B
$GLGSA,A,3,,,,,,,,,,,,,5.1,3.8,3.4*26
$GPGSV,2,1,07,01,00,000,42,03,00,000,41,18,00,000,41,22,00,000,44*70
$GPGSV,2,2,07,26,00,000,41,31,00,000,40,16,00,000,35*48
$BDGSV,2,1,05,02,00,000,36,05,00,000,35,18,00,000,41,23,00,000,38*6C
$BDGSV,2,2,05,32,00,000,39*56
$B3CN0,0,0,0,0,0,0,0,0,0,0,0,0,0,0*4C
---00000034--- Acq_st=3 0  2019-4-4 1:34:32 
[00]  00(G01)  f 42  7  0    511.2  2045999.2  0.1  2 0  645 1674 1162
[01]  02(G03)  f 41  7  0  -3724.7  2046004.7 -0.2  2 0  686 1343  417
[02]  17(G18)  f 41  7  0   1049.7  2045998.6 -0.0  2 0 1203 1921 1065
[03]  21(G22)  f 43  7  0  -2571.8  2046003.3  0.0  2 0 1720 2451 1087
[04]  25(G26)  f 41  7  0  -3631.2  2046004.6  0.1  2 0 1114 1463 1008
[05]  30(G31)  f 40  7  0   -500.8  2046000.6 -0.2  2 0  792 1623 1029
[06]  15(G16)  f 36  7  0  -5039.4  2046006.5  0.0  2 0  671 1111  622
[16]  38(B02) 1f 37 10  0  -1098.6  4092002.8  0.7  2 0  732  763  480
[17]  41(B05)  f 36 26  0  -1102.1  4092002.6  0.7  2 0  747  352  244
[18]  54(B18) 1f 40  7  0  -1365.2  4092003.5  0.0  2 0  888 1229  804
[19]  59(B23) 1f 38  8  0  -2950.4  4092007.6 -0.8  2 0  703  584  214
[20]  68(B32) 1f 40  7  0  -4129.8  4092010.7  0.2  2 0 1068 1216  447
[32]  80(N-1) 8f 40  7  0  -5062.2  1022003.2 -0.1  2 0   249 1011  665
[33]  81(N00) 8f 39  7  0  -2859.3  1022001.8 -0.1  2 0   400  933  591
[48]  38(B02)  1 10 10  1   -599.4 20460022.3  0.0  1 0  498  217  216
[50]  54(B18)  1  7  7  0   -929.9 20460023.1  0.0  1 0  557  580  577
[51]  59(B23)  1  9  8  0  -2549.1 20460046.4  0.1  1 0  591  636  317
[52]  68(B32)  1  7  7  0  -3806.7 20460064.5 -0.2  1 0  403  127  540
Refix G01: 2, 351290.914950, 510
Refix G03: 2, 351290.921846, -3724
Refix G16: 2, 351290.921289, -5037
Refix G18: 2, 351290.914764, 1047
Refix G22: 2, 351290.924694, -2572
Refix G26: 2, 351290.929520, -3630
$GNGGA,013433.000,2944.9276,N,10633.1692,E,1,06,3.8,221.7,M,,,,0000*16
$GNRMC,013433.000,A,2944.9276,N,10633.1692,E,2.98,215.75,040419,,*1E
$GPGSA,A,3,01,03,16,18,22,26,,,,,,,5.1,3.8,3.4*32
$BDGSA,A,3,,,,,,,,,,,,,5.1,3.8,3.4*2B
$GLGSA,A,3,,,,,,,,,,,,,5.1,3.8,3.4*26
$GPGSV,2,1,07,01,04,272,42,03,22,314,41,18,03,246,41,22,37,296,43*78
$GPGSV,2,2,07,26,51,197,41,31,00,000,40,16,19,202,36*48
$BDGSV,2,1,05,02,00,000,37,05,00,000,36,18,00,000,40,23,00,000,38*6F
$BDGSV,2,2,05,32,00,000,40*58
$B3CN0,0,0,0,0,0,0,0,0,0,0,0,0,0,0*4C
---00000035--- Acq_st=3 0  2019-4-4 1:34:33 
[00]  00(G01)  f 42  7  0    509.5  2045999.3 -0.0  2 0 1117 2096 1076
[01]  02(G03)  f 40  7  0  -3724.4  2046004.7 -0.0  2 0  884 1707  760
[02]  17(G18)  f 41  7  0   1044.8  2045998.6  0.1  2 0  865 1333  707
[03]  21(G22)  f 44  7  0  -2572.4  2046003.3  0.0  2 0 1030 1915 1213
[04]  25(G26)  f 41  7  0  -3626.9  2046004.6 -0.1  2 0 1068 1580  683
[05]  30(G31)  f 39  7  0   -501.5  2046000.6  0.0  2 0 1248 1343  453
[06]  15(G16)  f 35  7  0  -5040.0  2046006.4  0.1  2 0  749  748  333
[16]  38(B02) 1f 37 27  0  -1104.8  4092002.8 -0.8  2 0  866 1162  255
[17]  41(B05) 1f 37 22  0  -1097.8  4092002.5  0.2  2 0  745  837   60
[18]  54(B18) 1f 40  7  0  -1372.4  4092003.5 -0.2  2 0  929  992  463
[19]  59(B23) 1f 38  7  0  -2952.1  4092007.7 -0.1  2 0  491  773  389
[20]  68(B32) 1f 40  7  0  -4131.7  4092010.7  0.0  2 0 1139  891  459
[32]  80(N-1) 8f 42  7  0  -5062.7  1022003.1 -0.2  2 0   871 1237  657
[33]  81(N00) 8f 39  7  0  -2861.7  1022001.8  0.5  2 0   437  857  521
[34]  75(N-6)  1  7  7  0  -2500.0  1022000.8 -0.2  1 0   368  195  344
[48]  38(B02)  1 10 10  0   -581.4 20460020.4  0.0  1 0  520  282  368
[49]  41(B05)  1 25 21  0   -493.5 20460020.9  0.2  1 0  363  512  364
[50]  54(B18)  1  7 11  0   -920.4 20460022.4  0.1  1 0  983  707  683
[51]  59(B23)  1  9  7  0  -2152.7 20460049.6 -0.0  1 0  286  372  369
[52]  68(B32)  1  7  7  0  -4283.0 20460064.5 -0.1  1 0  463  463  117
Refix G01: 2, 351291.914950, 510
Refix G03: 2, 351291.921848, -3724
Refix G16: 2, 351291.921293, -5036
Refix G18: 2, 351291.914764, 1047
Refix G22: 2, 351291.924696, -2572
Refix G26: 2, 351291.929523, -3629
$GNGGA,013434.000,2944.9282,N,10633.1695,E,1,06,3.8,220.3,M,,,,0000*18
$GNRMC,013434.000,A,2944.9282,N,10633.1695,E,2.37,629.24,040419,,*1F
$GPGSA,A,3,01,03,16,18,22,26,,,,,,,5.1,3.8,3.4*32
$BDGSA,A,3,,,,,,,,,,,,,5.1,3.8,3.4*2B
$GLGSA,A,3,,,,,,,,,,,,,5.1,3.8,3.4*26
$GPGSV,2,1,07,01,04,272,42,03,22,314,40,18,03,246,41,22,37,296,44*7E
$GPGSV,2,2,07,26,51,197,41,31,00,000,39,16,19,202,35*45
$BDGSV,2,1,05,02,00,000,37,05,00,000,37,18,00,000,40,23,00,000,38*6E
$BDGSV,2,2,05,32,00,000,40*58
$B3CN0,0,0,0,0,0,0,0,0,0,0,0,0,0,0*4C
---00000036--- Acq_st=7 0  2019-4-4 1:34:34 
[00]  00(G01)  f 42  7  0    512.9  2045999.3  0.0  2 0 1394 1482  676
[01]  02(G03)  f 40  7  0  -3723.9  2046004.8 -0.1  2 0  986 1153  412
[02]  17(G18)  f 42  7  0   1048.2  2045998.6 -0.0  2 0 1132 1842 1027
[03]  21(G22)  f 43  7  0  -2570.1  2046003.3  0.0  2 0 1527 2302  750
[04]  25(G26)  f 42  7  0  -3626.6  2046004.6  0.0  2 0 1032 1454  594
[05]  30(G31)  f 39  7  0   -501.2  2046000.6 -0.3  2 0 1126 1064  561
[06]  15(G16)  f 36 12  0  -5041.3  2046006.5 -0.1  2 0  432  387  478
[16]  38(B02) 1f 36 27  0  -1104.2  4092002.9 -0.2  2 0  505 1048  729
[17]  41(B05) 1f 36 26  0  -1100.8  4092002.6  0.6  2 0  872  611  631
[18]  54(B18) 1f 40  7  0  -1364.3  4092003.5  0.1  2 0  859 1001  398
[19]  59(B23) 1f 38 11  0  -2947.5  4092007.6  0.7  2 0  817  574  530
[20]  68(B32) 1f 40  7  0  -4134.6  4092010.7  0.0  2 0  773  917  378
[32]  80(N-1) 8f 43  7  0  -5059.4  1022003.2 -0.1  2 0   475 1125  658
[33]  81(N00) 8f 39  7  0  -2858.1  1022001.7  0.4  2 0   775 1059  632
[34]  75(N-6)  1 17 18  0  -2466.0  1022001.8  0.1  1 0   189  245  111
[49]  41(B05)  1 21 21  1   -680.2 20460024.7  0.1  1 0  915  469  960
Refix G01: 2, 351292.914950, 512
Refix G03: 2, 351292.921850, -3722
Refix G16: 2, 351292.921296, -5035
Refix G18: 2, 351292.914763, 1048
Refix G22: 2, 351292.924697, -2569
Refix G26: 2, 351292.929525, -3626
$GNGGA,013435.000,2944.9290,N,10633.1703,E,1,06,3.8,217.3,M,,,,0000*10
$GNRMC,013435.000,A,2944.9290,N,10633.1703,E,3.28,479.96,040419,,*12
$GPGSA,A,3,01,03,16,18,22,26,,,,,,,5.1,3.8,3.4*32
$BDGSA,A,3,,,,,,,,,,,,,5.1,3.8,3.4*2B
$GLGSA,A,3,,,,,,,,,,,,,5.1,3.8,3.4*26
$GPGSV,2,1,07,01,04,272,42,03,22,314,40,18,03,246,42,22,37,296,43*7A
$GPGSV,2,2,07,26,51,197,42,31,00,000,39,16,19,202,36*45
$BDGSV,2,1,05,02,00,000,36,05,00,000,36,18,00,000,40,23,00,000,38*6E
$BDGSV,2,2,05,32,00,000,40*58
$B3CN0,0,0,0,0,0,0,0,0,0,0,0,0,0,0*4C
---00000037--- Acq_st=7 0  2019-4-4 1:34:35 
[00]  00(G01)  f 42  7  0    514.3  2045999.3  0.0  2 0  979 1780 1104
[01]  02(G03)  f 39  7  0  -3722.5  2046004.8 -0.2  2 0  831 1451  689
[02]  17(G18)  f 42  7  0   1048.7  2045998.6  0.1  2 0 1002 1577  986
[03]  21(G22)  f 43  7  0  -2565.8  2046003.3 -0.0  2 0 1314 2716 1685
[04]  25(G26)  f 42  7  0  -3625.1  2046004.6  0.0  2 0 1295 2063 1027
[05]  30(G31)  f 39  7  0   -490.1  2046000.6  0.2  2 0  867 1225  885
[06]  15(G16)  f 36  8  0  -5039.1  2046006.4  0.1  2 0  370 1049  624
[16]  38(B02) 1f 36 23  0  -1093.3  4092002.8 -0.7  2 0  539  957  723
[17]  41(B05) 1f 36 24  0  -1096.8  4092002.6 -0.0  2 0  826  874  182
[18]  54(B18) 1f 40  7  0  -1367.0  4092003.5  0.0  2 0  700 1153  500
[19]  59(B23) 1f 38  7  0  -2947.8  4092007.6  0.1  2 0  945 1276  357
[20]  68(B32) 1f 41  7  0  -4128.5  4092010.7  0.1  2 0  730 1244  719
[32]  80(N-1) 8f 43  7  0  -5054.5  1022003.2  0.2  2 0   794 1038  639
[33]  81(N00) 8f 40  7  0  -2853.4  1022001.8 -0.7  2 0  1064 1460  606
[34]  75(N-6)  1 14 15  0  -1680.5  1022002.0 -0.0  1 0   176  221  366
[48]  38(B02)  1 14 22  1   -554.3 20460017.4 -0.1  1 0  458  762  256
[49]  41(B05)  1 23 25  0   -922.8 20460019.9 -0.0  1 0  356  220  435
[50]  54(B18)  1  7  7  0   -925.8 20460022.5  0.1  1 0  482  645  165
[51]  59(B23)  1  7  7  0  -2366.0 20460047.1 -0.0  1 0  405   16  409
[52]  68(B32)  1  9  7  0  -3706.4 20460066.8  0.3  1 0  650   60  334
Refix G01: 2, 351293.914949, 514
Refix G03: 2, 351293.921853, -3720
Refix G16: 2, 351293.921299, -5033
Refix G18: 2, 351293.914762, 1050
Refix G22: 2, 351293.924699, -2566
Refix G26: 2, 351293.929527, -3623
$GNGGA,013436.000,2944.9302,N,10633.1708,E,1,06,3.8,214.1,M,,,,0000*13
$GNRMC,013436.000,A,2944.9302,N,10633.1708,E,3.96,646.07,040419,,*13
$GPGSA,A,3,01,03,16,18,22,26,,,,,,,5.1,3.8,3.4*32
$BDGSA,A,3,,,,,,,,,,,,,5.1,3.8,3.4*2B
$GLGSA,A,3,,,,,,,,,,,,,5.1,3.8,3.4*26
$GPGSV,2,1,07,01,04,272,42,03,22,314,39,18,03,246,42,22,37,296,43*74
$GPGSV,2,2,07,26,51,197,42,31,00,000,39,16,19,202,36*45
$BDGSV,2,1,05,02,00,000,36,05,00,000,36,18,00,000,40,23,00,000,38*6E
$BDGSV,2,2,05,32,00,000,41*59
$B3CN0,0,0,0,0,0,0,0,0,0,0,0,0,0,0*4C
---00000038--- Acq_st=3 0  2019-4-4 1:34:36 
[00]  00(G01)  f 43  7  0    516.7  2045999.3  0.0  2 0 1150 1593  514
[01]  02(G03)  f 39  7  0  -3718.4  2046004.8 -0.0  2 0  863 1264 1351
[02]  17(G18)  f 42  7  0   1055.0  2045998.6  0.1  2 0 1166 1431  799
[03]  21(G22)  f 43  7  0  -2568.6  2046003.3 -0.0  2 0  902 2065  892
[04]  25(G26)  f 43  7  0  -3624.6  2046004.6  0.0  2 0 1891 1916  796
[05]  30(G31)  f 39  7  0   -497.3  2046000.6 -0.2  2 0  508  844  395
[06]  15(G16)  f 36  7  0  -5029.1  2046006.5 -0.4  2 0  125  540  551
[16]  38(B02) 1f 36 26  0  -1102.1  4092002.8 -0.1  2 0  423  587  163
[17]  41(B05) 1f 36 10  0  -1095.7  4092002.6 -0.8  2 0  590  505  318
[18]  54(B18) 1f 40  7  0  -1372.3  4092003.5  0.0  2 0 1081 1149  476
[19]  59(B23) 1f 38  7  0  -2947.7  4092007.5  0.2  2 0  735  702  333
[20]  68(B32) 1f 40  7  0  -4127.6  4092010.7 -0.0  2 0  973 1065  315
[32]  80(N-1) 8f 43 10  0  -5057.2  1022003.2 -0.0  2 0   663 1201  737
[33]  81(N00) 8f 40  7  0  -2853.4  1022001.8  0.1  2 0   736 1099  505
[34]  75(N-6)  1 23 18  0  -2538.1  1022001.7  0.1  1 0   185  345  414
[48]  38(B02)  1 10 10  1   -605.7 20460016.4 -0.0  1 0  347  372  474
[49]  41(B05)  1 23 23  0   -481.5 20460019.3  0.1  1 0  558  487  455
[50]  54(B18)  1  7  7  0  -1148.9 20460022.3  0.0  1 0  193  174  421
[51]  59(B23)  1  7 10  0  -2790.1 20460048.5 -0.3  1 0  405  457  652
[52]  68(B32)  1  7  7  0  -3215.9 20460064.3  0.1  1 0  284   99  633
Refix G01: 2, 351294.914949, 512
Refix G03: 2, 351294.921855, -3721
Refix G16: 2, 351294.921302, -5034
Refix G18: 2, 351294.914762, 1049
Refix G22: 2, 351294.924701, -2568
Refix G26: 2, 351294.929530, -3624
Refix G32: 1, 351294.930454, -447
$GNGGA,013437.000,2944.9322,N,10633.1699,E,1,06,3.8,211.2,M,,,,0000*1F
$GNRMC,013437.000,A,2944.9322,N,10633.1699,E,3.04,790.65,040419,,*1C
$GPGSA,A,3,01,03,16,18,22,26,,,,,,,5.1,3.8,3.4*32
$BDGSA,A,3,,,,,,,,,,,,,5.1,3.8,3.4*2B
$GLGSA,A,3,,,,,,,,,,,,,5.1,3.8,3.4*26
$GPGSV,2,1,07,01,04,272,43,03,22,314,39,18,03,246,42,22,37,296,43*75
$GPGSV,2,2,07,26,51,197,43,31,00,000,39,16,19,202,36*44
$BDGSV,2,1,05,02,00,000,36,05,00,000,36,18,00,000,40,23,00,000,38*6E
$BDGSV,2,2,05,32,00,000,40*58
$B3CN0,0,0,0,0,0,0,0,0,0,0,0,0,0,0*4C
---00000039--- Acq_st=3 0  2019-4-4 1:34:37 
[00]  00(G01)  f 42  7  0    512.6  2045999.2 -0.0  2 0  819 1483  709
[01]  02(G03)  f 39  9  0  -3717.5  2046004.8 -0.1  2 0 1035 1336  527
[02]  17(G18)  f 42  7  0   1052.1  2045998.6 -0.1  2 0 1076 1449  276
[03]  21(G22)  f 43  7  0  -2563.7  2046003.3 -0.0  2 0  871 1972  739
[04]  25(G26)  f 43  7  0  -3623.6  2046004.6  0.1  2 0 1404 2207  987
[05]  30(G31)  f 39  7  0   -490.4  2046000.6 -0.0  2 0  716  796  378
[06]  15(G16)  f 34  7  0  -5042.4  2046006.5  0.1  2 0  451  492  454
[16]  38(B02) 1f 39 25  0  -1098.1  4092002.7  0.2  2 0  627  621  214
[17]  41(B05) 1f 36 28  0  -1088.7  4092002.5  0.4  2 0 1112  808  281
[18]  54(B18) 1f 40  7  0  -1367.2  4092003.5 -0.2  2 0 1154 1560  715
[19]  59(B23) 1f 39  7  0  -2950.5  4092007.6  0.1  2 0  508  573  408
[20]  68(B32) 1f 40  7  0  -4127.1  4092010.7  0.0  2 0 1032 1062  206
[32]  80(N-1) 8f 41  7  0  -5059.2  1022003.2 -0.5  2 0   519  845  475
[33]  81(N00) 8f 40  7  0  -2854.0  1022001.8  0.1  2 0   681  976  576
[34]  75(N-6)  7 15 15  0  -2528.5  1022001.6  0.0 10 0   174  227  359
[48]  38(B02)  1 18 13  1   -774.6 20460018.6 -0.0  1 0  419  381   96
