$GNGGA,000000.000,,,,,0,00,,,M,,,,0000*2B
$GNRMC,000000.000,A,,,,,,,060180,,*29
$GPGSA,A,1,,,,,,,,,,,,,,,*1E
$BDGSA,A,1,,,,,,,,,,,,,,,*0F
$GLGSA,A,1,,,,,,,,,,,,,,,*02
$GPGSV,1,1,02,03,00,000,45,16,00,000,18*77
$B3CN0,0,0,0,0,0,0,0,0,0,0,0,0,0,0*4C
---00000004--- Acq_st=3 0  2019-4-4 2:1:46 
[00]  02(G03)  7 44  9  0  -2885.4  2046003.6  0.0  2 0 1949 3066 1147
[01]  15(G16)  7 42  7  0  -4601.0  2046005.9 -0.0  2 0  503 1108  408
[02]  21(G22)  7 32  7  0  -1624.5  2046002.0  0.3  5 0 2003 2333  589
[03]  25(G26)  7 26  7  0  -2725.2  2046003.4  0.6 10 0 1003 1389  891
[16]  38(B02)  1 20 10  1   -445.7  4092001.4 -0.0  1 0  301  254   43
[17]  41(B05)  1 16 10  0   -602.6  4092002.1  0.1  1 0  344  554  420
$GNGGA,000000.000,,,,,0,00,,,M,,,,0000*2B
$GNRMC,000000.000,A,,,,,,,060180,,*29
$GPGSA,A,1,,,,,,,,,,,,,,,*1E
$BDGSA,A,1,,,,,,,,,,,,,,,*0F
$GLGSA,A,1,,,,,,,,,,,,,,,*02
$GPGSV,1,1,04,03,00,000,44,16,00,000,42,22,00,000,32,26,00,000,26*7E
$B3CN0,0,0,0,0,0,0,0,0,0,0,0,0,0,0*4C
---00000005--- Acq_st=3 0  2019-4-4 2:1:47 
[00]  02(G03)  7 45  7  0  -2879.0  2046003.7 -0.0  2 0 2041 3151 1210
[01]  15(G16)  7 42  7  0  -4590.8  2046005.9 -0.0  2 0 1319 1917  608
[02]  21(G22)  7 44  7  0  -1617.1  2046002.0  0.1  2 0 1669 2583 1037
[03]  25(G26)  7 43  7  0  -2719.5  2046003.4 -0.0  2 0 1865 2034 1160
[16]  38(B02)  1 10 10  1   -210.1  4092003.2 -0.1  1 0  407  168  223
[17]  41(B05)  1 10 29  1  -1009.9  4092003.2  0.1  1 0  206  138  671
[18]  46(B10)  1  7  9  0  -1951.3  4092004.7  0.1  1 0  123  332  584
$GNGGA,000000.000,,,,,0,00,,,M,,,,0000*2B
$GNRMC,000000.000,A,,,,,,,060180,,*29
$GPGSA,A,1,,,,,,,,,,,,,,,*1E
$BDGSA,A,1,,,,,,,,,,,,,,,*0F
$GLGSA,A,1,,,,,,,,,,,,,,,*02
$GPGSV,1,1,04,03,00,000,45,16,00,000,42,22,00,000,44,26,00,000,43*7D
$B3CN0,0,0,0,0,0,0,0,0,0,0,0,0,0,0*4C
---00000006--- Acq_st=3 0  2019-4-4 2:1:48 
[00]  02(G03)  7 45  7  0  -2873.0  2046003.7 -0.0  2 0 1377 2811 1293
[01]  15(G16)  7 42  7  0  -4587.8  2046005.9  0.0  2 0 1013 1692  866
[02]  21(G22)  7 43  7  0  -1607.2  2046002.0 -0.0  2 0 1344 2021  702
[03]  25(G26)  7 43  7  0  -2713.6  2046003.4 -0.1  2 0 1760 1886  831
[16]  38(B02)  1 36 10  0   -312.6  4092004.1  0.0  1 0  274  751  715
[17]  41(B05)  1 10 10  0   -514.6  4092005.0  0.3  1 0   46  251  296
[18]  46(B10)  1  7  8  0  -1952.9  4092003.7  0.1  1 0  160  293  297
[19]  54(B18)  1  7  7  0  -1172.7  4092005.2  0.0  1 0  150  912  511
$GNGGA,020150.089,,,,,0,00,,,M,,,,0000*2C
$GNRMC,020150.089,A,,,,,,,100180,,*29
$GPGSA,A,1,,,,,,,,,,,,,,,*1E
$BDGSA,A,1,,,,,,,,,,,,,,,*0F
$GLGSA,A,1,,,,,,,,,,,,,,,*02
$GPGSV,1,1,04,03,00,000,45,16,00,000,42,22,00,000,43,26,00,000,43*7A
$B3CN0,0,0,0,0,0,0,0,0,0,0,0,0,0,0*4C
---00000007--- Acq_st=3 0  2019-4-4 2:1:49 
[00]  02(G03)  f 44  7  0  -2876.3  2046003.7 -0.0  2 0 1513 2985 1527
[01]  15(G16)  f 41  7  0  -4592.0  2046005.9 -0.0  2 0  935 1643  555
[02]  21(G22)  f 43  8  0  -1613.0  2046002.0  0.0  2 0  808 2107 1271
[03]  25(G26)  f 42  7  0  -2718.3  2046003.4  0.0  2 0 1466 2174  690
[16]  38(B02)  1 21 19  1   -361.4  4092004.6  0.1  1 0  460  163  572
[17]  41(B05)  1 10 10  0   -475.5  4092002.3 -0.0  1 0  465  265  319
[18]  46(B10)  1  7  7  0  -1978.5  4092003.4  0.1  1 0  284  330  404
[19]  54(B18)  1 40  7  0  -1175.7  4092003.0  1.0  1 0  829  986  374
[20]  59(B23)  1  7  7  0  -2494.9  4092007.2  0.0  1 0 1266 1675 1306
$GNGGA,020151.089,,,,,0,00,,,M,,,,0000*2D
$GNRMC,020151.089,A,,,,,,,100180,,*28
$GPGSA,A,1,,,,,,,,,,,,,,,*1E
$BDGSA,A,1,,,,,,,,,,,,,,,*0F
$GLGSA,A,1,,,,,,,,,,,,,,,*02
$GPGSV,1,1,04,03,00,000,44,16,00,000,41,22,00,000,43,26,00,000,42*79
$B3CN0,0,0,0,0,0,0,0,0,0,0,0,0,0,0*4C
---00000008--- Acq_st=3 0  2019-4-4 2:1:50 
[00]  02(G03)  f 44  7  0  -2874.9  2046003.7  0.0  2 0 1592 2490 1225
[01]  15(G16)  f 42  7  0  -4588.1  2046005.9  0.0  2 0 1080 1787  893
[02]  21(G22)  f 43  7  0  -1609.8  2046002.0 -0.0  2 0 1361 1985  916
[03]  25(G26)  f 43  7  0  -2710.9  2046003.4  0.0  2 0 2231 2166  625
[16]  38(B02)  7 10 10  0   -516.8  4092001.1 -0.2  2 0  579  231  108
[18]  46(B10)  1  7  7  0  -1995.0  4092003.7  0.3  1 0  360  684  432
[19]  54(B18)  7 38  7  0  -1166.1  4092003.0 -0.1  2 0 1122 1166  677
[20]  59(B23)  7 22  7  0  -2493.5  4092006.4  0.4 10 0  925 1837 1045
[21]  68(B32)  1  7  7  0  -3750.0  4092011.3  0.0  1 0  247  183 1153
[32]  76(N-5)  1  7  7  0   2385.5  1021999.8 -0.0  1 0   227  301  438
$GNGGA,020152.089,,,,,0,00,,,M,,,,0000*2E
$GNRMC,020152.089,A,,,,,,,100180,,*2B
$GPGSA,A,1,,,,,,,,,,,,,,,*1E
$BDGSA,A,1,,,,,,,,,,,,,,,*0F
$GLGSA,A,1,,,,,,,,,,,,,,,*02
$GPGSV,1,1,04,03,00,000,44,16,00,000,42,22,00,000,43,26,00,000,43*7B
$BDGSV,1,1,02,18,00,000,38,23,00,000,22*69
$B3CN0,0,0,0,0,0,0,0,0,0,0,0,0,0,0*4C
---00000009--- Acq_st=7 0  2019-4-4 2:1:51 
[00]  02(G03)  f 44  7  0  -2873.1  2046003.7  0.0  2 0 1458 2518 1393
[01]  15(G16)  f 42  7  0  -4594.1  2046005.9 -0.0  2 0 1163 1786  875
[02]  21(G22)  f 44  7  0  -1609.1  2046002.0  0.0  2 0 1309 2337  899
[03]  25(G26)  f 43  7  0  -2711.8  2046003.5 -0.0  2 0 1087 1690  884
[16]  38(B02)  7 16 31  1  -1000.7  4092002.9  0.1  2 0  226  255  465
[19]  54(B18) 1f 39  7  0  -1166.5  4092002.9 -0.1  2 0 1051  960  425
[20]  59(B23)  7 43  7  0  -2491.6  4092006.4  0.0  2 0 1150 1779  892
[21]  68(B32)  1  7  7  0  -3751.2  4092010.5  0.1  1 0 1674 2067  731
[32]  76(N-5)  1  7 13  0   2049.9  1021998.7  0.2  1 0   189  427  227
[33]  80(N-1)  1 29 26  0  -4522.0  1022003.6  0.3  1 0   394  940  434
[34]  81(N00)  1 26 22  0  -1912.8  1022001.9  0.1  1 0   823 1433  904
[35]  82(N01)  1 18  7  0  -4115.2  1022002.8 -0.1  1 0   146  245  345
$GNGGA,020153.089,,,,,0,00,,,M,,,,0000*2F
$GNRMC,020153.089,A,,,,,,,100180,,*2A
$GPGSA,A,1,,,,,,,,,,,,,,,*1E
$BDGSA,A,1,,,,,,,,,,,,,,,*0F
$GLGSA,A,1,,,,,,,,,,,,,,,*02
$GPGSV,1,1,04,03,00,000,44,16,00,000,42,22,00,000,44,26,00,000,43*7C
$BDGSV,1,1,03,02,00,000,18,18,00,000,39,23,00,000,43*55
$B3CN0,0,0,0,0,0,0,0,0,0,0,0,0,0,0*4C
---00000010--- Acq_st=7 0  2019-4-4 2:1:52 
[00]  02(G03)  f 44  7  0  -2874.1  2046003.7 -0.0  2 0 1033 2549 1397
[01]  15(G16)  f 41  7  0  -4589.9  2046006.0  0.1  2 0  655 1757  741
[02]  21(G22)  f 44  7  0  -1609.0  2046002.0 -0.0  2 0 1320 2119  990
[03]  25(G26)  f 43  7  0  -2710.2  2046003.4 -0.0  2 0 1683 2118  913
[16]  38(B02)  7 18 29  1   -978.4  4092002.6  0.1  2 0  134   52  193
[19]  54(B18) 1f 39  7  0  -1171.5  4092002.9 -0.4  2 0  532  711  701
[20]  59(B23)  7 42  7  0  -2490.7  4092006.4 -0.1  2 0 1263 1761  591
[21]  68(B32)  7 35  7  0  -3751.3  4092009.7  0.1  5 0 1472 1830  468
[32]  76(N-5)  1 13 12  0   1998.7  1021998.9  0.0  1 0   216  183  256
[33]  80(N-1)  1 25 20  0  -4523.0  1022002.7  0.9  1 0   369 1023  518
[34]  81(N00)  7 17  7  0  -1911.1  1022001.2  0.9 10 0   972 1442  581
[35]  82(N01)  1 23 25  0  -4113.6  1022002.9  0.0  1 0   175  541  377
[51]  54(B18)  1  7  7  0   -963.9 20460018.5  0.0  1 0  370  735  792
$GNGGA,020154.089,,,,,0,00,,,M,,,,0000*28
$GNRMC,020154.089,A,,,,,,,100180,,*2D
$GPGSA,A,1,,,,,,,,,,,,,,,*1E
$BDGSA,A,1,,,,,,,,,,,,,,,*0F
$GLGSA,A,1,,,,,,,,,,,,,,,*02
$GPGSV,1,1,04,03,00,000,44,16,00,000,41,22,00,000,44,26,00,000,43*7F
$BDGSV,1,1,04,02,00,000,20,18,00,000,39,23,00,000,42,32,00,000,34*6E
$B3CN0,0,0,0,0,0,0,0,0,0,0,0,0,0,0*4C
---00000011--- Acq_st=3 0  2019-4-4 2:1:53 
[00]  02(G03)  f 44 11  0  -2870.9  2046003.7 -0.0  2 0 1320 2100 1019
[01]  15(G16)  f 42  7  0  -4584.8  2046005.9 -0.0  2 0  918 1905  820
[02]  21(G22)  f 43  7  0  -1603.2  2046002.0 -0.0  2 0 1697 2345  778
[03]  25(G26)  f 43  7  0  -2705.6  2046003.4  0.0  2 0 1601 2094  869
[16]  38(B02)  7 13 18  1  -1251.8  4092003.0  0.0  2 0  233  332  104
[19]  54(B18) 1f 39  7  0  -1170.2  4092002.9  0.1  2 0  509  795  236
[20]  59(B23)  7 42  8  0  -2486.6  4092006.5 -0.0  2 0 1155 1569  668
[21]  68(B32)  7 42 13  0  -3744.2  4092009.7 -0.1  2 0 1673 1953  661
[32]  76(N-5)  1 18 17  0   1432.0  1021998.9  0.0  1 0   264  221  309
[33]  80(N-1)  1 28 20  0  -4516.8  1022002.7  0.9  1 0   576  990  679
[34]  81(N00)  7 43  7  0  -1903.7  1022001.2  0.1  2 0   846 1097  529
[35]  82(N01)  7 35 27  0  -4133.1  1022002.6 -0.0  2 0   535  636  263
[51]  54(B18)  1  7  7  0   -622.2 20460017.4  0.0  1 0 1333  889  796
$GNGGA,020155.089,,,,,0,00,,,M,,,,0000*29
$GNRMC,020155.089,A,,,,,,,100180,,*2C
$GPGSA,A,1,,,,,,,,,,,,,,,*1E
$BDGSA,A,1,,,,,,,,,,,,,,,*0F
$GLGSA,A,1,,,,,,,,,,,,,,,*02
$GPGSV,1,1,04,03,00,000,44,16,00,000,42,22,00,000,43,26,00,000,43*7B
$BDGSV,1,1,03,18,00,000,39,23,00,000,42,32,00,000,42*58
$B3CN0,0,0,0,0,0,0,0,0,0,0,0,0,0,0*4C
---00000012--- Acq_st=3 0  2019-4-4 2:1:54 
[00]  02(G03)  f 44  8  0  -2869.6  2046003.7  0.0  2 0 1357 2263 1172
[01]  15(G16)  f 42  7  0  -4583.1  2046005.9  0.0  2 0  786 1411  899
[02]  21(G22)  f 44  7  0  -1606.3  2046002.0  0.0  2 0 1550 2280  750
[03]  25(G26)  f 43  7  0  -2707.8  2046003.4 -0.0  2 0 1307 2515 1458
[16]  38(B02)  7 19 30  1  -1006.3  4092002.5  0.0  2 0  199   34  317
[19]  54(B18) 1f 39  7  0  -1171.8  4092002.9 -0.1  2 0  546 1008  485
[20]  59(B23)  7 42  7  0  -2488.0  4092006.4  0.1  2 0 1153 1554  646
[21]  68(B32)  7 42  7  0  -3746.4  4092009.7 -0.0  2 0 1223 1677  639
[32]  76(N-5)  1 18 20  0   2009.0  1021999.3 -0.2  1 0   261  172  110
[33]  80(N-1)  f  7  7  0  -4518.9  1022002.9  0.9 10 0   429 1108  566
[34]  81(N00)  7 42 12  0  -1905.6  1022001.2 -0.0  2 0   720 1208  927
[35]  82(N01)  7 34 26  0  -4132.8  1022002.4  0.2  2 0   466  499  314
[51]  54(B18)  1  7  9  0   -257.8 20460019.4  0.0  1 0 1175  805  447
---00000013--- Acq_st=3 0  2019-4-4 2:1:55 
[00]  02(G03)  f 44  7  0  -2870.5  2046003.7  0.0  2 0 1068 1441 1084
[01]  15(G16)  f 42  7  0  -4585.4  2046005.9  0.1  2 0  482 1184  732
[02]  21(G22)  f 44  7  0  -1606.6  2046002.0 -0.0  2 0 1189 1995  899
[03]  25(G26)  f 43  7  0  -2711.1  2046003.4 -0.0  2 0 1610 2190  789
[16]  38(B02)  7 10 18  0  -1152.6  4092002.9  0.2  2 0  435   28  352
[19]  54(B18) 1f 39  7  0  -1163.5  4092002.9  0.1  2 0  810 1235  526
[20]  59(B23)  7 42  7  0  -2492.9  4092006.5 -0.1  2 0 1170 1626  718
[21]  68(B32)  7 42  7  0  -3749.0  4092009.7 -0.1  2 0 1738 1930  438
[33]  80(N-1)  f 29 11  0  -4521.4  1022002.8 -0.1 10 0   332  716  306
[34]  81(N00)  7 42  7  0  -1908.2  1022001.1 -0.2  2 0   642 1159  504
[35]  82(N01)  7 35 27  0  -4132.5  1022002.7 -0.1  2 0   547  619  151
[51]  54(B18)  1  7  7  0    344.0 20460019.6 -0.0  1 0  409  156  487
$GNGGA,020156.089,,,,,0,00,,,M,,,,0000*2A
$GNRMC,020156.089,A,,,,,,,100180,,*2F
$GPGSA,A,1,,,,,,,,,,,,,,,*1E
$BDGSA,A,1,,,,,,,,,,,,,,,*0F
$GLGSA,A,1,,,,,,,,,,,,,,,*02
$GPGSV,1,1,04,03,00,000,44,16,00,000,42,22,00,000,44,26,00,000,43*7C
$BDGSV,1,1,03,18,00,000,39,23,00,000,42,32,00,000,42*58
$B3CN0,0,0,0,0,0,0,0,0,0,0,0,0,0,0*4C
---00000014--- Acq_st=3 0  2019-4-4 2:1:56 
[00]  02(G03)  f 43  9  0  -2877.8  2046003.7 -0.1  2 0 1279 1894  729
[01]  15(G16)  f 41  7  0  -4592.2  2046005.9  0.0  2 0  741 1364  952
[02]  21(G22)  f 43  7  0  -1614.3  2046002.0 -0.1  2 0 1219 2220 1014
[03]  25(G26)  f 43  7  0  -2717.3  2046003.5 -0.1  2 0 1569 1921  666
[16]  38(B02)  7 10 20  1  -1365.2  4092003.7  0.1  2 0  152  153  892
[17]  41(B05)  1 39 24  0  -1065.6  4092003.7  0.9  1 0  900  874  286
[18]  46(B10)  1  7  7  0  -2000.0  4092004.8  0.0  1 0  502  583  189
[19]  54(B18) 1f 39  7  0  -1173.0  4092003.0  0.1  2 0  856 1245  326
[20]  59(B23)  7 42  7  0  -2492.0  4092006.4 -0.0  2 0 1195 1752  373
[21]  68(B32)  7 43 12  0  -3756.2  4092009.7  0.1  2 0 1614 1903  606
[33]  80(N-1)  f 29 13  0  -4526.5  1022002.8  0.2  5 0   763 1006  278
[34]  81(N00)  f 38  7  0  -1912.9  1022001.2  0.2  2 0   649  854  580
[35]  82(N01)  7 35 27  0  -4138.4  1022002.7  0.0  2 0   213  204   86
$GNGGA,020157.089,,,,,0,00,,,M,,,,0000*2B
$GNRMC,020157.089,A,,,,,,,100180,,*2E
$GPGSA,A,1,,,,,,,,,,,,,,,*1E
$BDGSA,A,1,,,,,,,,,,,,,,,*0F
$GLGSA,A,1,,,,,,,,,,,,,,,*02
$GPGSV,1,1,04,03,00,000,43,16,00,000,41,22,00,000,43,26,00,000,43*7F
$BDGSV,1,1,03,18,00,000,39,23,00,000,42,32,00,000,43*59
$B3CN0,0,0,0,0,0,0,0,0,0,0,0,0,0,0*4C
---00000015--- Acq_st=3 0  2019-4-4 2:1:57 
[00]  02(G03)  f 43  7  0  -2865.3  2046003.7 -0.0  2 0 1299 2011 1136
[01]  15(G16)  f 41  7  0  -4584.3  2046005.9  0.0  2 0  819 1392  250
[02]  21(G22)  f 43  7  0  -1602.8  2046002.0  0.0  2 0 1038 2089 1097
[03]  25(G26)  f 44  7  0  -2703.7  2046003.4 -0.0  2 0 1623 2233 1158
[16]  38(B02)  7 10 10  1  -1620.7  4092004.2  0.1  2 0  203  534  214
[17]  41(B05)  f 37 27  0  -1053.7  4092002.7 -0.5  2 0 1120 1051  249
[18]  46(B10)  1  7  7  0  -1999.2  4092003.7 -0.1  1 0  527  577  302
[19]  54(B18) 1f 39  7  0  -1165.7  4092002.9  0.0  2 0  721  913  233
[20]  59(B23) 1f 42  7  0  -2487.2  4092006.4 -0.0  2 0 1055 1713  837
[21]  68(B32) 1f 43  9  0  -3743.0  4092009.7 -0.0  2 0 1437 2132 1285
[33]  80(N-1)  f 30  7  0  -4516.6  1022002.9 -0.5  5 0   565  976  436
[34]  81(N00)  f 41  7  0  -1902.9  1022001.2 -0.2  2 0   894 1428  465
[35]  82(N01)  7 35 27  0  -4128.8  1022002.5  0.1  2 0   329  525  147
[51]  54(B18)  1  7  7  0  -1513.2 20460018.3  0.1  1 0  539  183  455
$GNGGA,020158.089,,,,,0,00,,,M,,,,0000*24
$GNRMC,020158.089,A,,,,,,,100180,,*21
$GPGSA,A,1,,,,,,,,,,,,,,,*1E
$BDGSA,A,1,,,,,,,,,,,,,,,*0F
$GLGSA,A,1,,,,,,,,,,,,,,,*02
$GPGSV,1,1,04,03,00,000,43,16,00,000,41,22,00,000,43,26,00,000,44*78
$BDGSV,1,1,04,05,00,000,37,18,00,000,39,23,00,000,42,32,00,000,43*6F
$B3CN0,0,0,0,0,0,0,0,0,0,0,0,0,0,0*4C
---00000016--- Acq_st=3 0  2019-4-4 2:1:58 
[00]  02(G03)  f 43  7  0  -2866.0  2046003.7  0.0  2 0 1240 2031  762
[01]  15(G16)  f 41  7  0  -4580.0  2046005.9  0.1  2 0  646  993  440
[02]  21(G22)  f 44 11  0  -1602.1  2046002.0  0.1  2 0 1408 2023 1110
[03]  25(G26)  f 44  7  0  -2705.3  2046003.5  0.0  2 0 1221 2072 1111
[16]  38(B02)  7 10 19  1  -1744.5  4092004.6  0.3  2 0  585  469  146
[17]  41(B05)  f 37 30  0  -1047.7  4092002.7 -0.6  2 0  908  996  457
[18]  46(B10)  1  7  7  0  -1974.6  4092003.1  0.1  1 0  490  647  626
[19]  54(B18) 1f 39  7  0  -1165.2  4092002.9 -0.1  2 0  737 1255  774
[20]  59(B23) 1f 42  8  0  -2484.4  4092006.4 -0.0  2 0 1480 1687  488
[21]  68(B32) 1f 42 11  0  -3741.8  4092009.7 -0.0  2 0 1381 1558  461
[33]  80(N-1)  f 28  7  0  -4514.1  1022002.8  0.2  5 0   589  702  110
[34]  81(N00)  f 40  7  0  -1901.6  1022001.2  0.1  2 0   937 1159  486
[35]  82(N01)  f 33 24  0  -4126.0  1022002.5 -0.0  5 0   434  801  375
[49]  41(B05)  1 25 19  1  -1139.5 20460016.4 -0.2  1 0  263  152  396
[51]  54(B18)  1  7  7  0  -2034.8 20460018.0 -0.1  1 0  409  743  850
[52]  59(B23)  1  7  7  0  -2074.0 20460039.7  0.1  1 0  185  380  484
[53]  68(B32)  1  7  7  0  -2905.0 20460061.8 -0.0  1 0  245  499  149
$GNGGA,020159.089,,,,,0,00,,,M,,,,0000*25
$GNRMC,020159.089,A,,,,,,,100180,,*20
$GPGSA,A,1,,,,,,,,,,,,,,,*1E
$BDGSA,A,1,,,,,,,,,,,,,,,*0F
$GLGSA,A,1,,,,,,,,,,,,,,,*02
$GPGSV,1,1,04,03,00,000,43,16,00,000,41,22,00,000,44,26,00,000,44*7F
$BDGSV,1,1,04,05,00,000,37,18,00,000,39,23,00,000,42,32,00,000,42*6E
$B3CN0,0,0,0,0,0,0,0,0,0,0,0,0,0,0*4C
---00000017--- Acq_st=3 0  2019-4-4 2:1:59 
[00]  02(G03)  f 43  7  0  -2871.2  2046003.7 -0.0  2 0 1490 2332 1117
[01]  15(G16)  f 41  7  0  -4594.2  2046005.9  0.1  2 0  982 1350  570
[02]  21(G22)  f 44  7  0  -1609.0  2046002.0 -0.0  2 0 1425 2349 1135
[03]  25(G26)  f 43  7  0  -2712.3  2046003.4  0.1  2 0 1722 2416 1410
[16]  38(B02)  7 10 25  0  -1991.9  4092005.1  0.2  2 0  366  228  171
[17]  41(B05) 1f 37 25  0  -1054.5  4092002.6 -0.4  2 0  901 1077  553
[18]  46(B10)  1  7  7  0  -2003.0  4092003.5  0.1  1 0  570  228  388
[19]  54(B18) 1f 38  7  0  -1169.9  4092003.0 -0.0  2 0  797  971   64
[20]  59(B23) 1f 42  7  0  -2493.9  4092006.4 -0.0  2 0 1315 1445  286
[21]  68(B32) 1f 42  7  0  -3749.4  4092009.7  0.1  2 0 1591 1813 1156
[33]  80(N-1)  f 29 13  0  -4522.4  1022002.9  0.3  5 0  1024 1166  529
[34]  81(N00)  f 40  7  0  -1909.8  1022001.2  0.0  2 0   959 1239  492
[35]  82(N01)  f 34 24  0  -4136.9  1022002.7 -0.0  2 0   508  339  150
[49]  41(B05)  1 20 24  0   -775.4 20460018.1  0.0  1 0 1066  816  487
[51]  54(B18)  1  7  7  0  -1521.3 20460018.0 -0.1  1 0  635  562  394
[52]  59(B23)  1  7  9  0  -1554.6 20460038.5  0.1  1 0  186  649  266
[53]  68(B32)  1  7  7  0  -3452.9 20460059.9  0.0  1 0  465  917  591
$GNGGA,020200.089,,,,,0,00,,,M,,,,0000*2A
$GNRMC,020200.089,A,,,,,,,100180,,*2F
$GPGSA,A,1,,,,,,,,,,,,,,,*1E
$BDGSA,A,1,,,,,,,,,,,,,,,*0F
$GLGSA,A,1,,,,,,,,,,,,,,,*02
$GPGSV,1,1,04,03,00,000,43,16,00,000,41,22,00,000,44,26,00,000,43*78
$BDGSV,1,1,04,05,00,000,37,18,00,000,38,23,00,000,42,32,00,000,42*6F
$B3CN0,0,0,0,0,0,0,0,0,0,0,0,0,0,0*4C
---00000018--- Acq_st=7 0  2019-4-4 2:2:0 
[00]  02(G03)  f 43  7  0  -2864.3  2046003.7 -0.0  2 0 1504 1957  817
[01]  15(G16)  f 41  7  0  -4583.6  2046005.9 -0.0  2 0 1084 1934  870
[02]  21(G22)  f 44 10  0  -1602.0  2046002.0  0.0  2 0 1544 2400  687
[03]  25(G26)  f 44  7  0  -2704.4  2046003.5  0.0  2 0 1164 2327 1068
[17]  41(B05) 1f 38 26  0  -1048.7  4092002.7 -0.8  2 0  918 1121  563
[18]  46(B10)  1  7  7  0  -1987.3  4092003.9  0.1  1 0  464  359  263
[19]  54(B18) 1f 39  7  0  -1165.9  4092002.9  0.1  2 0  624 1150  533
[20]  59(B23) 1f 42  7  0  -2485.3  4092006.4  0.0  2 0 1368 1817  787
[21]  68(B32) 1f 43  7  0  -3742.5  4092009.7  0.0  2 0 1148 1645  976
[33]  80(N-1)  f 31  9  0  -4516.0  1022002.9  0.3  5 0   672  728  312
[34]  81(N00)  f 40  7  0  -1902.4  1022001.1  0.2  2 0   554 1170  705
[35]  82(N01)  f 33 24  0  -4130.2  1022002.5  0.0  2 0   431  450  284
[49]  41(B05)  1 18 25  0   -581.3 20460016.7 -0.1  1 0  678  239  388
[51]  54(B18)  1  7  7  0   -980.7 20460017.4 -0.1  1 0  288   23  573
[52]  59(B23)  1  7  7  0  -1633.1 20460041.1 -0.0  1 0  258  505  286
[53]  68(B32)  1  7  7  0  -3234.4 20460060.8  0.1  1 0  727  726  640
$GNGGA,020201.089,,,,,0,00,,,M,,,,0000*2B
$GNRMC,020201.089,A,,,,,,,100180,,*2E
$GPGSA,A,1,,,,,,,,,,,,,,,*1E
$BDGSA,A,1,,,,,,,,,,,,,,,*0F
$GLGSA,A,1,,,,,,,,,,,,,,,*02
$GPGSV,1,1,04,03,00,000,43,16,00,000,41,22,00,000,44,26,00,000,44*7F
$BDGSV,1,1,04,05,00,000,38,18,00,000,39,23,00,000,42,32,00,000,43*60
$B3CN0,0,0,0,0,0,0,0,0,0,0,0,0,0,0*4C
---00000019--- Acq_st=7 0  2019-4-4 2:2:1 
[00]  02(G03)  f 43  7  0  -2866.4  2046003.7 -0.0  2 0 1147 1712  971
[01]  15(G16)  f 41  7  0  -4582.4  2046005.9  0.0  2 0  813 1692  798
[02]  21(G22)  f 44  7  0  -1603.8  2046002.0  0.0  2 0 1785 2237  957
[03]  25(G26)  f 43  7  0  -2710.5  2046003.5 -0.0  2 0 1467 2287 1472
[17]  41(B05) 1f 40 30  0  -1053.0  4092002.5  0.7  2 0  731 1088  634
[19]  54(B18) 1f 39  8  0  -1172.1  4092003.0  0.3  2 0  526 1041  488
[20]  59(B23) 1f 42  7  0  -2489.2  4092006.4  0.0  2 0  907 1375  655
[21]  68(B32) 1f 43  7  0  -3745.3  4092009.7 -0.0  2 0 1451 1510  497
[33]  80(N-1)  f 29  7  0  -4519.0  1022002.9  0.3  5 0   748  639  646
[34]  81(N00)  f 40  7  0  -1904.5  1022001.2  0.1  2 0   216  657  302
[35]  82(N01)  f 34 25  0  -4131.2  1022002.7  0.0  2 0   559  935  448
[49]  41(B05)  1 22 27  1   -932.8 20460020.5 -0.1  1 0  438  167  199
[52]  59(B23)  1  7  7  0  -1852.5 20460038.5  0.0  1 0  201  200  456
[53]  68(B32)  1  7  9  0  -3069.6 20460059.5 -0.2  1 0  153  339  502
$GNGGA,020202.089,,,,,0,00,,,M,,,,0000*28
$GNRMC,020202.089,A,,,,,,,100180,,*2D
$GPGSA,A,1,,,,,,,,,,,,,,,*1E
$BDGSA,A,1,,,,,,,,,,,,,,,*0F
$GLGSA,A,1,,,,,,,,,,,,,,,*02
$GPGSV,1,1,04,03,00,000,43,16,00,000,41,22,00,000,44,26,00,000,43*78
$BDGSV,1,1,04,05,00,000,40,18,00,000,39,23,00,000,42,32,00,000,43*6F
$B3CN0,0,0,0,0,0,0,0,0,0,0,0,0,0,0*4C
---00000020--- Acq_st=3 0  2019-4-4 2:2:2 
[00]  02(G03)  f 43  7  0  -2873.3  2046003.7 -0.0  2 0 1502 2282 1131
[01]  15(G16)  f 41  7  0  -4595.0  2046005.9 -0.1  2 0  978 1437  700
[02]  21(G22)  f 43  7  0  -1611.8  2046002.0 -0.0  2 0 1428 2648 1267
[03]  25(G26)  f 43  7  0  -2713.5  2046003.5  0.0  2 0 1848 2518 1033
[17]  41(B05) 1f 38 25  0  -1058.6  4092002.7 -0.9  2 0  829  899  608
[19]  54(B18) 1f 39  7  0  -1179.8  4092003.0 -0.0  2 0  633  686  127
[20]  59(B23) 1f 42  7  0  -2496.0  4092006.4  0.1  2 0 1080 1895  899
[21]  68(B32) 1f 41 11  0  -3757.2  4092009.8 -0.1  2 0 1167 1637  737
[33]  80(N-1)  f 30 12  0  -4525.9  1022002.9  0.2  5 0   352  443  221
[34]  81(N00) 8f 40  7  0  -1911.0  1022001.2 -0.2  2 0   654 1119  606
[35]  82(N01)  f 33 24  0  -4132.4  1022002.5 -0.0  2 0   374  361  234
[51]  54(B18)  1  7  7  0  -1293.3 20460018.0  0.2  1 0  699  653  261
$GNGGA,020203.089,,,,,0,00,,,M,,,,0000*29
$GNRMC,020203.089,A,,,,,,,040419,,*2C
$GPGSA,A,1,,,,,,,,,,,,,,,*1E
$BDGSA,A,1,,,,,,,,,,,,,,,*0F
$GLGSA,A,1,,,,,,,,,,,,,,,*02
$GPGSV,1,1,04,03,00,000,43,16,00,000,41,22,00,000,43,26,00,000,43*7F
$BDGSV,1,1,04,05,00,000,38,18,00,000,39,23,00,000,42,32,00,000,41*62
$B3CN0,0,0,0,0,0,0,0,0,0,0,0,0,0,0*4C
---00000021--- Acq_st=3 0  2019-4-4 2:2:3 
[00]  02(G03)  f 43  7  0  -2872.1  2046003.6  0.0  2 0 1384 1992  613
[01]  15(G16)  f 41  7  0  -4590.8  2046005.9 -0.0  2 0  842 1665  802
[02]  21(G22)  f 44  7  0  -1608.5  2046002.0 -0.0  2 0 1526 2477  908
[03]  25(G26)  f 43  7  0  -2711.5  2046003.5 -0.0  2 0 1018 2098 1176
[17]  41(B05) 1f 39 27  0  -1058.6  4092002.5  0.1  2 0  781  652  396
[19]  54(B18) 1f 39  7  0  -1174.2  4092002.9  0.2  2 0  811 1167  754
[20]  59(B23) 1f 42  7  0  -2490.3  4092006.4  0.0  2 0 1170 1862 1063
[21]  68(B32) 1f 41 10  0  -3752.2  4092009.8 -0.0  2 0  547 1050  482
[33]  80(N-1)  f 28 15  0  -4522.7  1022002.8 -0.1  5 0    68  234  269
[34]  81(N00) 8f 40  7  0  -1908.6  1022001.2  0.1  2 0   425  629  357
[35]  82(N01)  f 32 24  0  -4135.2  1022002.5 -0.0  5 0   210  251  293
[49]  41(B05)  1 23 26  1  -1206.6 20460023.2 -0.1  1 0  845  406  633
[51]  54(B18)  1  7  7  0   -780.8 20460018.6 -0.1  1 0 1038  715  572
[52]  59(B23)  1  7  7  0  -2141.4 20460041.6  0.3  1 0  672  150  227
[53]  68(B32)  1  7  7  0  -3068.7 20460059.8  0.0  1 0  609  623  517
$GNGGA,020204.089,,,,,0,00,,,M,,,,0000*2E
$GNRMC,020204.089,A,,,,,,,040419,,*2B
$GPGSA,A,1,,,,,,,,,,,,,,,*1E
$BDGSA,A,1,,,,,,,,,,,,,,,*0F
$GLGSA,A,1,,,,,,,,,,,,,,,*02
$GPGSV,1,1,04,03,00,000,43,16,00,000,41,22,00,000,44,26,00,000,43*78
$BDGSV,1,1,04,05,00,000,39,18,00,000,39,23,00,000,42,32,00,000,41*63
$B3CN0,0,0,0,0,0,0,0,0,0,0,0,0,0,0*4C
---00000022--- Acq_st=3 0  2019-4-4 2:2:4 
[00]  02(G03)  f 43  7  0  -2869.6  2046003.6 -0.0  2 0 1622 2126 1109
[01]  15(G16)  f 41  9  0  -4588.1  2046005.9 -0.0  2 0  658 1327  626
[02]  21(G22)  f 43  7  0  -1604.1  2046002.0 -0.0  2 0 1245 2619 1410
[03]  25(G26)  f 43  7  0  -2707.5  2046003.5 -0.0  2 0 1277 2825 1416
[16]  38(B02)  1 10 30  1  -1000.0  4092002.7  0.0  1 0  658  254  512
[17]  41(B05) 1f 39 28  0  -1056.1  4092002.7 -0.8  2 0  484  888  361
[19]  54(B18) 1f 39  7  0  -1171.5  4092002.9 -0.0  2 0  433  570   62
[20]  59(B23) 1f 42  7  0  -2490.7  4092006.4 -0.1  2 0 1347 1753  734
[21]  68(B32) 1f 41  7  0  -3749.5  4092009.8  0.0  2 0 1076 1288  404
[33]  80(N-1)  f 30 11  0  -4519.9  1022002.8 -0.2  5 0   328  612  298
[34]  81(N00) 8f 38  7  0  -1906.7  1022001.2 -0.2  2 0   568  414  413
[35]  82(N01)  f 33 24  0  -4132.1  1022002.6  0.1  5 0   439  383  174
[49]  41(B05)  1 23 24  1   -960.2 20460016.5  0.0  1 0  415  505  588
[51]  54(B18)  1  7  7  0   -579.4 20460018.4 -0.2  1 0  254  317  172
[52]  59(B23)  1  7  7  0  -1953.8 20460041.2 -0.1  1 0  922  587  379
[53]  68(B32)  1 10  7  0  -3359.8 20460060.5  0.0  1 0  691   69  238
$GNGGA,020205.089,,,,,0,00,,,M,,,,0000*2F
$GNRMC,020205.089,A,,,,,,,040419,,*2A
$GPGSA,A,1,,,,,,,,,,,,,,,*1E
$BDGSA,A,1,,,,,,,,,,,,,,,*0F
$GLGSA,A,1,,,,,,,,,,,,,,,*02
$GPGSV,1,1,04,03,00,000,43,16,00,000,41,22,00,000,43,26,00,000,43*7F
$BDGSV,1,1,04,05,00,000,39,18,00,000,39,23,00,000,42,32,00,000,41*63
$B3CN0,0,0,0,0,0,0,0,0,0,0,0,0,0,0*4C
---00000023--- Acq_st=3 0  2019-4-4 2:2:5 
[00]  02(G03)  f 44  7  0  -2873.3  2046003.6 -0.0  2 0 1779 2760 1081
[01]  15(G16)  f 41  7  0  -4589.4  2046005.9  0.1  2 0  558 1051  554
[02]  21(G22)  f 43  7  0  -1609.3  2046002.0  0.0  2 0 1298 2513 1120
[03]  25(G26)  f 43  7  0  -2711.7  2046003.5  0.0  2 0 1060 1745  747
[16]  38(B02)  1 20 23  0  -1085.3  4092003.7  0.2  1 0  321  247  768
[17]  41(B05) 1f 37 21  0  -1067.2  4092002.5 -0.1  2 0  939 1000  292
[18]  46(B10)  1  7  7  0  -1500.0  4092003.7 -0.0  1 0  308  278  430
[19]  54(B18) 1f 39  7  0  -1176.0  4092002.9 -0.0  2 0 1111 1329  529
[20]  59(B23) 1f 42  7  0  -2494.1  4092006.4  0.0  2 0 1312 1655  514
[21]  68(B32) 1f 40  7  0  -3757.4  4092009.7  0.0  2 0  523  858  688
[33]  80(N-1)  f 29  7  0  -4523.8  1022002.7 -0.1  5 0   529  873  514
[34]  81(N00) 8f 37  7  0  -1912.9  1022001.3  0.5  2 0   618  843  428
[35]  82(N01)  f 33 25  0  -4136.9  1022002.7 -0.0  5 0   345  481  403
[49]  41(B05)  1 24 23  1   -247.2 20460017.3 -0.0  1 0  755  598  260
[51]  54(B18)  1  7  7  0   -767.6 20460017.9 -0.1  1 0  182  359  301
[52]  59(B23)  1  7  7  0  -1820.1 20460041.0 -0.0  1 0  288  410  504
[53]  68(B32)  1  7  7  0  -3405.1 20460061.7 -0.0  1 0  295   95  325
$GNGGA,020206.089,,,,,0,00,,,M,,,,0000*2C
$GNRMC,020206.089,A,,,,,,,040419,,*29
$GPGSA,A,1,,,,,,,,,,,,,,,*1E
$BDGSA,A,1,,,,,,,,,,,,,,,*0F
$GLGSA,A,1,,,,,,,,,,,,,,,*02
$GPGSV,1,1,04,03,00,000,44,16,00,000,41,22,00,000,43,26,00,000,43*78
$BDGSV,1,1,04,05,00,000,37,18,00,000,39,23,00,000,42,32,00,000,40*6C
$B3CN0,0,0,0,0,0,0,0,0,0,0,0,0,0,0*4C
---00000024--- Acq_st=3 0  2019-4-4 2:2:6 
[00]  02(G03)  f 44  7  0  -2875.5  2046003.7  0.0  2 0 1432 2614  984
[01]  15(G16)  f 41  7  0  -4593.0  2046005.9 -0.1  2 0  815 1171  448
[02]  21(G22)  f 44  7  0  -1610.8  2046002.0 -0.0  2 0 1127 1902  990
[03]  25(G26)  f 43  7  0  -2714.7  2046003.4  0.0  2 0 1424 2207 1213
[16]  38(B02)  7 10 10  1  -1607.7  4092004.3  0.0  2 0  418  524  541
[17]  41(B05) 1f 39 28  0  -1065.3  4092002.8 -0.6  2 0  759  538  478
[18]  46(B10)  1  7  7  0  -1484.4  4092004.3  0.1  1 0   88  101   77
[19]  54(B18) 1f 39  7  0  -1178.9  4092002.9 -0.1  2 0  555  682  484
[20]  59(B23) 1f 42  7  0  -2494.4  4092006.4  0.0  2 0 1180 1769  893
[21]  68(B32) 1f 41  7  0  -3752.8  4092009.7  0.2  2 0 1293 1434  544
[33]  80(N-1)  f 29 16  0  -4524.2  1022002.8 -0.4  5 0   674  797  121
[34]  81(N00) 8f 36  7  0  -1914.7  1022001.3 -0.1  2 0   170  397  443
[35]  82(N01)  f 35 24  0  -4139.3  1022002.7  0.1  2 0   724 1234  806
[49]  41(B05)  1 24 23  1    256.0 20460020.6 -0.0  1 0  122  491  639
[52]  59(B23)  1  7  7  0  -2151.8 20460039.9  0.0  1 0  485  465  383
[53]  68(B32)  1  7  7  0  -3472.1 20460061.0 -0.0  1 0  190  249  204
$GNGGA,020207.089,,,,,0,00,,,M,,,,0000*2D
$GNRMC,020207.089,A,,,,,,,040419,,*28
$GPGSA,A,1,,,,,,,,,,,,,,,*1E
$BDGSA,A,1,,,,,,,,,,,,,,,*0F
$GLGSA,A,1,,,,,,,,,,,,,,,*02
$GPGSV,1,1,04,03,00,000,44,16,00,000,41,22,00,000,44,26,00,000,43*7F
$BDGSV,1,1,04,05,00,000,39,18,00,000,39,23,00,000,42,32,00,000,41*63
$B3CN0,0,0,0,0,0,0,0,0,0,0,0,0,0,0*4C
---00000025--- Acq_st=3 0  2019-4-4 2:2:7 
[00]  02(G03)  f 44  7  0  -2864.7  2046003.6 -0.0  2 0 1784 2926 1405
[01]  15(G16)  f 40  7  0  -4590.0  2046005.9  0.1  2 0 1018 1785 1173
[02]  21(G22)  f 44  7  0  -1604.2  2046002.0 -0.0  2 0 1437 2477 1014
[03]  25(G26)  f 43  7  0  -2705.1  2046003.4 -0.0  2 0 1367 1967 1013
[16]  38(B02)  7 10 19  0  -1868.9  4092004.8 -0.1  2 0   52  591  384
[17]  41(B05) 1f 38 28  0  -1055.0  4092002.6  0.9  2 0  769  932  493
[18]  46(B10)  1  7  7  0  -1482.2  4092005.9 -0.2  1 0  412 1102 1117
[19]  54(B18) 1f 39  7  0  -1177.1  4092002.9 -0.3  2 0  482  992  725
[20]  59(B23) 1f 42  7  0  -2490.0  4092006.3  0.1  2 0 1273 1574  506
[21]  68(B32) 1f 41  7  0  -3742.8  4092009.7 -0.0  2 0 1326 1594  674
[33]  80(N-1)  f 30  7  0  -4516.9  1022002.8  0.1  5 0  1017 1093  443
[34]  81(N00) 8f 35  7  0  -1905.6  1022001.2 -0.1  2 0   534  828  378
[35]  82(N01)  f 35 24  0  -4131.0  1022002.7 -0.1  2 0   523  700  169
[51]  54(B18)  1  7  7  0   -970.2 20460018.1 -0.1  1 0  173  495  881
$GNGGA,020208.089,,,,,0,00,,,M,,,,0000*22
$GNRMC,020208.089,A,,,,,,,040419,,*27
$GPGSA,A,1,,,,,,,,,,,,,,,*1E
$BDGSA,A,1,,,,,,,,,,,,,,,*0F
$GLGSA,A,1,,,,,,,,,,,,,,,*02
$GPGSV,1,1,04,03,00,000,44,16,00,000,40,22,00,000,44,26,00,000,43*7E
$BDGSV,1,1,04,05,00,000,38,18,00,000,39,23,00,000,42,32,00,000,41*62
$B3CN0,0,0,0,0,0,0,0,0,0,0,0,0,0,0*4C
---00000026--- Acq_st=3 0  2019-4-4 2:2:8 
[00]  02(G03)  f 45  7  0  -2863.7  2046003.7 -0.0  2 0 2021 3008 1006
[01]  15(G16)  f 41  7  0  -4586.5  2046005.9 -0.0  2 0  833 1002  596
[02]  21(G22)  f 43  7  0  -1598.4  2046002.0  0.0  2 0 1198 2396 1093
[03]  25(G26)  f 43  7  0  -2700.0  2046003.4  0.0  2 0 1279 2002  767
[16]  38(B02)  7 13 10  0  -2441.7  4092006.4  0.0  2 0  490  698  351
[17]  41(B05) 1f 37 14  0  -1050.8  4092002.6  0.8  2 0  525  817  156
[18]  46(B10)  7 29  7  0  -1485.5  4092003.9 -0.2 10 0  280  972  397
[19]  54(B18) 1f 39  7  0  -1163.4  4092002.9 -0.1  2 0  796 1303  549
[20]  59(B23) 1f 42  7  0  -2486.6  4092006.4 -0.1  2 0 1185 1489  976
[21]  68(B32) 1f 41  7  0  -3743.9  4092009.7 -0.0  2 0  971 1265  469
[33]  80(N-1)  f 30 10  0  -4514.4  1022002.8 -0.3  5 0   682  742  448
[34]  81(N00) 8f 36  7  0  -1904.5  1022001.2  0.1  2 0   631  864  441
[35]  82(N01)  f 36 24  0  -4125.3  1022002.7 -0.0  2 0   610  882  474
[49]  41(B05)  1 23 24  0   -703.0 20460019.4  0.1  1 0  193  683  474
[51]  54(B18)  1  8  7  0   -937.6 20460020.1  0.1  1 0  137  552  615
[52]  59(B23)  1  7  7  0  -2370.1 20460041.2  0.1  1 0  219  323  721
[53]  68(B32)  1  7  7  0  -3213.6 20460059.4 -0.1  1 0  538  208  456
$GNGGA,020209.089,,,,,0,00,,,M,,,,0000*23
$GNRMC,020209.089,A,,,,,,,040419,,*26
$GPGSA,A,1,,,,,,,,,,,,,,,*1E
$BDGSA,A,1,,,,,,,,,,,,,,,*0F
$GLGSA,A,1,,,,,,,,,,,,,,,*02
$GPGSV,1,1,04,03,00,000,45,16,00,000,41,22,00,000,43,26,00,000,43*79
$BDGSV,2,1,05,05,00,000,37,10,00,000,29,18,00,000,39,23,00,000,42*61
$BDGSV,2,2,05,32,00,000,41*59
$B3CN0,0,0,0,0,0,0,0,0,0,0,0,0,0,0*4C
$GLGSV,1,1,01,15,00,000,36*55
---00000027--- Acq_st=2 0  2019-4-4 2:2:9 
[00]  02(G03)  f 45  7  0  -2869.2  2046003.7  0.0  2 0 1587 2683 1412
[01]  15(G16)  f 42  7  0  -4590.7  2046005.9 -0.1  2 0 1271 1478  706
[02]  21(G22)  f 44  7  0  -1608.2  2046002.0 -0.1  2 0 1628 3198 1749
[03]  25(G26)  f 43  7  0  -2709.2  2046003.5  0.0  2 0 1428 1819  782
[16]  38(B02)  7 10 25  0  -2821.4  4092007.4  0.1  2 0  287   41  584
[17]  41(B05) 1f 39 30  0  -1061.7  4092002.6  0.5  2 0  742  666  464
[18]  46(B10)  7 38  7  0  -1492.4  4092003.9  0.7  2 0  539  680  411
[19]  54(B18) 1f 39  7  0  -1174.8  4092002.9 -0.1  2 0 1198  985  248
[20]  59(B23) 1f 42  7  0  -2495.8  4092006.4  0.0  2 0 1572 1496  651
[21]  68(B32) 1f 41  7  0  -3750.4  4092009.7  0.0  2 0 1817 1678  500
[33]  80(N-1)  f 31  7  0  -4521.9  1022002.8  0.4  5 0   673 1078  310
[34]  81(N00) 8f 37  7  0  -1909.0  1022001.1 -0.2  2 0   741  918  549
[35]  82(N01)  f 36 25  0  -4136.9  1022002.6 -0.1  2 0   486  943  463
[49]  41(B05)  1 25 18  0   -191.8 20460017.9  0.1  1 0  554  487  361
[51]  54(B18)  1  7  7  0  -1172.9 20460018.9 -0.1  1 0  395  598  475
[52]  59(B23)  1  7  7  0  -2473.1 20460041.3 -0.0  1 0  484   89  539
[53]  68(B32)  1  7  7  0  -3367.3 20460059.4  0.0  1 0  173  453  694
$GNGGA,020210.089,,,,,0,00,,,M,,,,0000*2B
$GNRMC,020210.089,A,,,,,,,040419,,*2E
$GPGSA,A,1,,,,,,,,,,,,,,,*1E
$BDGSA,A,1,,,,,,,,,,,,,,,*0F
$GLGSA,A,1,,,,,,,,,,,,,,,*02
$GPGSV,1,1,04,03,00,000,45,16,00,000,42,22,00,000,44,26,00,000,43*7D
$BDGSV,2,1,05,05,00,000,39,10,00,000,38,18,00,000,39,23,00,000,42*6F
$BDGSV,2,2,05,32,00,000,41*59
$B3CN0,0,0,0,0,0,0,0,0,0,0,0,0,0,0*4C
$GLGSV,1,1,01,15,00,000,37*54
---00000028--- Acq_st=7 0  2019-4-4 2:2:10 
[00]  02(G03)  f 45  7  0  -2870.7  2046003.6 -0.0  2 0 2150 2893 1173
[01]  15(G16)  f 42  7  0  -4590.8  2046005.8  0.1  2 0 1060 1577  708
[02]  21(G22)  f 44  7  0  -1602.0  2046002.0 -0.0  2 0 1407 2138 1215
[03]  25(G26)  f 43  7  0  -2702.9  2046003.5 -0.1  2 0 1568 2067  730
[17]  41(B05) 1f 38 19  0  -1061.4  4092002.7 -0.8  2 0  756  886  245
[18]  46(B10)  7 37  7  0  -1493.7  4092003.8  0.2  2 0  667 1211  486
[19]  54(B18) 1f 39  7  0  -1171.2  4092002.9  0.1  2 0  615  899  698
[20]  59(B23) 1f 42  7  0  -2491.9  4092006.4  0.0  2 0 1332 1542  926
[21]  68(B32) 1f 42  7  0  -3748.5  4092009.7 -0.1  2 0 1275 1516  714
[33]  80(N-1)  f 27 15  0  -4519.3  1022002.8 -0.1  5 0   540  721  210
[34]  81(N00) 8f 38  7  0  -1906.5  1022001.2 -0.6  2 0   967 1089  338
[35]  82(N01)  f 36 24  0  -4131.3  1022002.5 -0.1  2 0   556  568  555
[49]  41(B05)  1 25 25  0    248.0 20460021.7 -0.1  1 0  542  899  621
[51]  54(B18)  1  7  7  0   -667.7 20460018.8  0.2  1 0   88  298  628
[52]  59(B23)  1  7  7  0  -1875.9 20460041.1 -0.0  1 0   82  340  569
[53]  68(B32)  1  9  7  0  -3476.8 20460059.1  0.0  1 0  246  124  570
$GNGGA,020211.089,,,,,0,00,,,M,,,,0000*2A
$GNRMC,020211.089,A,,,,,,,040419,,*2F
$GPGSA,A,1,,,,,,,,,,,,,,,*1E
$BDGSA,A,1,,,,,,,,,,,,,,,*0F
$GLGSA,A,1,,,,,,,,,,,,,,,*02
$GPGSV,1,1,04,03,00,000,45,16,00,000,42,22,00,000,44,26,00,000,43*7D
$BDGSV,2,1,05,05,00,000,38,10,00,000,37,18,00,000,39,23,00,000,42*61
$BDGSV,2,2,05,32,00,000,42*5A
$B3CN0,0,0,0,0,0,0,0,0,0,0,0,0,0,0*4C
$GLGSV,1,1,01,15,00,000,38*5B
---00000029--- Acq_st=3 0  2019-4-4 2:2:11 
[00]  02(G03)  f 45  7  0  -2865.2  2046003.6 -0.0  2 0 2213 3326 1951
[01]  15(G16)  f 42  7  0  -4582.3  2046005.9 -0.0  2 0 1106 2055 1285
[02]  21(G22)  f 44  7  0  -1600.3  2046002.0 -0.0  2 0 1830 2766  991
[03]  25(G26)  f 42  7  0  -2705.2  2046003.5 -0.0  2 0 1256 2086 1027
[17]  41(B05) 1f 39 19  0  -1053.9  4092002.6  0.8  2 0  297  567  357
[18]  46(B10)  7 37  7  0  -1489.8  4092003.8 -0.1  2 0  641  794  270
[19]  54(B18) 1f 39  7  0  -1167.4  4092002.9 -0.1  2 0  529  767  415
[20]  59(B23) 1f 42  7  0  -2484.8  4092006.4 -0.0  2 0 1140 1740  973
[21]  68(B32) 1f 42  7  0  -3746.7  4092009.7 -0.0  2 0  939 1330  775
[33]  80(N-1)  f 28  7  0  -4518.6  1022002.9  0.1  5 0   371  703  551
[34]  81(N00) 8f 39  7  0  -1903.7  1022001.2 -0.2  2 0   714  846  426
[35]  82(N01)  f 34 24  0  -4138.8  1022002.7 -0.1  2 0   261  790  514
[49]  41(B05)  1 25 20  0    165.1 20460022.0  0.2  1 0  289  229  200
[52]  59(B23)  1  7  7  0  -1992.0 20460040.0  0.1  1 0  437  536   65
[53]  68(B32)  1  7  7  0  -3798.4 20460062.5  0.1  1 0  310  144  239
$GNGGA,020212.089,,,,,0,00,,,M,,,,0000*29
$GNRMC,020212.089,A,,,,,,,040419,,*2C
$GPGSA,A,1,,,,,,,,,,,,,,,*1E
$BDGSA,A,1,,,,,,,,,,,,,,,*0F
$GLGSA,A,1,,,,,,,,,,,,,,,*02
$GPGSV,1,1,04,03,00,000,45,16,00,000,42,22,00,000,44,26,00,000,42*7C
$BDGSV,2,1,05,05,00,000,39,10,00,000,37,18,00,000,39,23,00,000,42*60
$BDGSV,2,2,05,32,00,000,42*5A
$B3CN0,0,0,0,0,0,0,0,0,0,0,0,0,0,0*4C
$GLGSV,1,1,01,15,00,000,39*5A
---00000030--- Acq_st=3 0  2019-4-4 2:2:12 
[00]  02(G03)  f 44  7  0  -2854.9  2046003.6  0.0  2 0 2019 2991 1434
[01]  15(G16)  f 42  9  0  -4577.3  2046005.9  0.0  2 0 1256 1865  613
[02]  21(G22)  f 44  7  0  -1594.2  2046002.0  0.0  2 0 1302 2604 1598
[03]  25(G26)  f 43  7  0  -2695.5  2046003.4  0.0  2 0 1027 1783 1017
[17]  41(B05) 1f 39 28  0  -1049.6  4092002.4 -0.5  2 0  632  690  210
[18]  46(B10)  7 36  9  0  -1482.3  4092003.7 -0.1  2 0  706  846  684
[19]  54(B18) 1f 39 11  0  -1161.8  4092002.9 -0.0  2 0  653  757  610
[20]  59(B23) 1f 42  7  0  -2479.6  4092006.4 -0.1  2 0 1592 1941  862
[21]  68(B32) 1f 41  7  0  -3741.7  4092009.7  0.0  2 0 1174 1387  957
[33]  80(N-1)  f 28 12  0  -4509.2  1022003.0 -0.1  5 0   419  752  504
[34]  81(N00) 8f 38  7  0  -1894.3  1022001.2 -0.0  2 0   706  654  309
[35]  82(N01)  f 33 24  0  -4118.5  1022002.7 -0.1  2 0   372  565  458
[51]  54(B18)  1  7  7  0  -1062.4 20460016.8 -0.1  1 0  635  734 1101
$GNGGA,020213.089,,,,,0,00,,,M,,,,0000*28
$GNRMC,020213.089,A,,,,,,,040419,,*2D
$GPGSA,A,1,,,,,,,,,,,,,,,*1E
$BDGSA,A,1,,,,,,,,,,,,,,,*0F
$GLGSA,A,1,,,,,,,,,,,,,,,*02
$GPGSV,1,1,04,03,00,000,44,16,00,000,42,22,00,000,44,26,00,000,43*7C
$BDGSV,2,1,05,05,00,000,39,10,00,000,36,18,00,000,39,23,00,000,42*61
$BDGSV,2,2,05,32,00,000,41*59
$B3CN0,0,0,0,0,0,0,0,0,0,0,0,0,0,0*4C
$GLGSV,1,1,01,15,00,000,38*5B
---00000031--- Acq_st=3 0  2019-4-4 2:2:13 
[00]  02(G03)  f 45  7  0  -2852.1  2046003.6  0.0  2 0 1674 2597  888
[01]  15(G16)  f 42  7  0  -4571.0  2046005.9 -0.1  2 0 1197 1610  628
[02]  21(G22)  f 44  7  0  -1588.9  2046002.0 -0.0  2 0 1671 2729 1029
[03]  25(G26)  f 42 10  0  -2693.2  2046003.4  0.0  2 0 1001 1731  729
[16]  38(B02)  1 20 29  1  -1000.0  4092002.7  0.1  1 0  197  312  692
[17]  41(B05) 1f 39 24  0  -1050.5  4092002.7  0.7  2 0  441  763  534
[18]  46(B10)  7 37  7  0  -1476.9  4092003.8 -0.3  2 0  522  786  335
[19]  54(B18) 1f 39  7  0  -1158.3  4092003.0  0.4  2 0  790 1029  499
[20]  59(B23) 1f 42  7  0  -2475.7  4092006.4  0.0  2 0 1334 1706  878
[21]  68(B32) 1f 42  7  0  -3736.3  4092009.7  0.1  2 0 1320 1693 1034
[33]  80(N-1)  f 28  7  0  -4505.6  1022002.8  0.2  5 0   573  759  478
[34]  81(N00) 8f 39  7  0  -1888.6  1022001.1 -0.2  2 0   779  482  199
[35]  82(N01)  f 33 23  0  -4120.2  1022002.7 -0.0  2 0   426  291  213
[49]  41(B05)  1 25 27  1   -776.2 20460014.2 -0.1  1 0  619  801  491
[51]  54(B18)  1  7  7  0   -643.1 20460018.1  0.0  1 0  697  411  507
[52]  59(B23)  1  7  7  0  -2072.4 20460037.4 -0.1  1 0  277  779  228
[53]  68(B32)  1  7  7  0  -3794.0 20460060.8 -0.1  1 0  247  327  850
$GNGGA,020214.089,,,,,0,00,,,M,,,,0000*2F
$GNRMC,020214.089,A,,,,,,,040419,,*2A
$GPGSA,A,1,,,,,,,,,,,,,,,*1E
$BDGSA,A,1,,,,,,,,,,,,,,,*0F
$GLGSA,A,1,,,,,,,,,,,,,,,*02
$GPGSV,1,1,04,03,00,000,45,16,00,000,42,22,00,000,44,26,00,000,42*7C
$BDGSV,2,1,05,05,00,000,39,10,00,000,37,18,00,000,39,23,00,000,42*60
$BDGSV,2,2,05,32,00,000,42*5A
$B3CN0,0,0,0,0,0,0,0,0,0,0,0,0,0,0*4C
$GLGSV,1,1,01,15,00,000,39*5A
---00000032--- Acq_st=3 0  2019-4-4 2:2:14 
[00]  02(G03)  f 44  7  0  -2856.5  2046003.7 -0.0  2 0 2005 3047 1135
[01]  15(G16)  f 42  8  0  -4579.5  2046005.9  0.1  2 0 1113 1569  613
[02]  21(G22)  f 43  7  0  -1594.5  2046002.1  0.0  2 0 1157 2046  801
[03]  25(G26)  f 42  7  0  -2696.5  2046003.4 -0.0  2 0 1102 2040  865
[16]  38(B02)  1 10 30  1   -994.1  4092001.7 -0.1  1 0  609  882  389
[17]  41(B05) 1f 37 23  0  -1054.9  4092002.7 -0.7  2 0  851  915  596
[18]  46(B10)  7 36  7  0  -1483.7  4092003.7 -0.4  2 0  586  808  291
[19]  54(B18) 1f 39  7  0  -1164.2  4092002.9 -0.1  2 0  813  826  560
[20]  59(B23) 1f 42  9  0  -2481.9  4092006.4 -0.0  2 0 1420 1899  617
[21]  68(B32) 1f 42  8  0  -3739.0  4092009.7 -0.0  2 0 1021 1429  388
[33]  80(N-1)  f 29  7  0  -4509.6  1022002.7 -0.3  5 0   452  728  457
[34]  81(N00) 8f 39  7  0  -1896.4  1022001.2  0.2  2 0   751  970  583
[35]  82(N01)  f 32 23  0  -4122.6  1022002.5 -0.0  5 0   346  564  260
[49]  41(B05)  1 18 25  1   -955.4 20460016.5  0.2  1 0  291  921  856
[51]  54(B18)  1  7  7  0   -540.1 20460016.9  0.1  1 0  444  632  610
[52]  59(B23)  1  7  7  0  -2258.0 20460040.2  0.0  1 0  437  611  314
[53]  68(B32)  1  7  7  0  -4209.4 20460059.9 -0.1  1 0  655  430  285
valid:iono 1---fix 0
valid:iono 1---fix 0
$GNGGA,020215.089,,,,,0,00,,,M,,,,0000*2E
$GNRMC,020215.089,A,,,,,,,040419,,*2B
$GPGSA,A,1,,,,,,,,,,,,,,,*1E
$BDGSA,A,1,,,,,,,,,,,,,,,*0F
$GLGSA,A,1,,,,,,,,,,,,,,,*02
$GPGSV,1,1,04,03,00,000,44,16,00,000,42,22,00,000,43,26,00,000,42*7A
$BDGSV,2,1,05,05,00,000,37,10,00,000,36,18,00,000,39,23,00,000,42*6F
$BDGSV,2,2,05,32,00,000,42*5A
$B3CN0,0,0,0,0,0,0,0,0,0,0,0,0,0,0*4C
$GLGSV,1,1,01,15,00,000,39*5A
---00000033--- Acq_st=3 0  2019-4-4 2:2:15 
[00]  02(G03)  f 44  7  0  -2863.0  2046003.7  0.0  2 0 1307 2556 1560
[01]  15(G16)  f 42  7  0  -4584.2  2046005.9 -0.0  2 0 1012 1306  349
[02]  21(G22)  f 43  7  0  -1601.4  2046002.0 -0.1  2 0 1121 2248  721
[03]  25(G26)  f 42  7  0  -2706.5  2046003.5 -0.0  2 0  987 1580  947
[16]  38(B02)  7 10 23  1  -1014.8  4092002.6 -0.0  2 0  300  101  178
[17]  41(B05) 1f 37 29  0  -1058.2  4092002.7 -0.1  2 0  631  776  529
[18]  46(B10) 1f 36  7  0  -1493.9  4092003.8  0.1  2 0  865  567  178
[19]  54(B18) 1f 39  7  0  -1173.6  4092003.0  0.1  2 0  940  854  451
[20]  59(B23) 1f 42  7  0  -2487.4  4092006.4  0.0  2 0 1709 1701  712
[21]  68(B32) 1f 42  7  0  -3746.1  4092009.7  0.1  2 0 1384 1617  602
[33]  80(N-1)  f 29  7  0  -4515.5  1022002.7 -0.4  5 0   991 1351  539
[34]  81(N00) 8f 38  7  0  -1904.3  1022001.2 -0.5  2 0   663  584  165
[35]  82(N01)  f 34 24  0  -4129.0  1022002.8  0.2  5 0   535  686  297
[49]  41(B05)  1 23 21  0  -1432.8 20460018.5 -0.1  1 0  219  127  598
[51]  54(B18)  1  7 12  0   -291.2 20460018.0 -0.2  1 0  998  888  439
[52]  59(B23)  1  7  7  0  -2172.1 20460038.5 -0.0  1 0  599  450  293
[53]  68(B32)  1  7  7  0  -4477.3 20460060.0  0.0  1 0  293  196  114
valid:iono 1---fix 0
valid:iono 1---fix 0
$GNGGA,020216.089,,,,,0,00,,,M,,,,0000*2D
$GNRMC,020216.089,A,,,,,,,040419,,*28
$GPGSA,A,1,,,,,,,,,,,,,,,*1E
$BDGSA,A,1,,,,,,,,,,,,,,,*0F
$GLGSA,A,1,,,,,,,,,,,,,,,*02
$GPGSV,1,1,04,03,00,000,44,16,00,000,42,22,00,000,43,26,00,000,42*7A
$BDGSV,2,1,05,05,00,000,37,10,00,000,36,18,00,000,39,23,00,000,42*6F
$BDGSV,2,2,05,32,00,000,42*5A
$B3CN0,0,0,0,0,0,0,0,0,0,0,0,0,0,0*4C
$GLGSV,1,1,01,15,00,000,38*5B
---00000034--- Acq_st=3 0  2019-4-4 2:2:16 
[00]  02(G03)  f 43  7  0  -2866.9  2046003.7 -0.0  2 0 1390 2187 1176
[01]  15(G16)  f 41  7  0  -4589.4  2046006.0  0.0  2 0  623 1239  449
[02]  21(G22)  f 43  7  0  -1602.8  2046002.0  0.0  2 0 1388 2327 1076
[03]  25(G26)  f 42  7  0  -2706.0  2046003.4  0.1  2 0  747 1492  856
[16]  38(B02)  7 10 10  1  -1875.0  4092004.9  0.0  2 0   61  277  256
[17]  41(B05) 1f 39 13  0  -1060.9  4092002.6 -0.8  2 0 1207 1167  266
[18]  46(B10) 1f 36  7  0  -1495.8  4092003.8 -0.1  2 0  623  973  604
[19]  54(B18) 1f 39  9  0  -1177.8  4092002.9  0.4  2 0  570 1066  453
[20]  59(B23) 1f 42  7  0  -2494.0  4092006.4  0.0  2 0 1479 1248  210
[21]  68(B32) 1f 42  7  0  -3748.5  4092009.7 -0.0  2 0 1767 1702  668
[33]  80(N-1)  f 29  9  0  -4519.8  1022002.7 -0.2  5 0  1134  973  583
[34]  81(N00) 8f 39  7  0  -1905.7  1022001.1  0.1  2 0   596 1026  661
[35]  82(N01)  f 34 25  0  -4133.9  1022002.5 -0.1  5 0   413  581  411
[49]  41(B05)  1 25 21  0  -1121.5 20460019.3  0.1  1 0  411  544  443
[50]  46(B10)  1  7  7  0  -1411.8 20460023.7  0.1  1 0  384  710   94
[52]  59(B23)  1 10  7  0  -1404.9 20460038.5  0.0  1 0  702  441  458
[53]  68(B32)  1  9  8  0  -4310.1 20460061.1  0.0  1 0  481  353  471
valid:iono 1---fix 0
valid:iono 1---fix 0
$GNGGA,020217.089,,,,,0,00,,,M,,,,0000*2C
$GNRMC,020217.089,A,,,,,,,040419,,*29
$GPGSA,A,1,,,,,,,,,,,,,,,*1E
$BDGSA,A,1,,,,,,,,,,,,,,,*0F
$GLGSA,A,1,,,,,,,,,,,,,,,*02
$GPGSV,1,1,04,03,00,000,43,16,00,000,41,22,00,000,43,26,00,000,42*7E
$BDGSV,2,1,05,05,00,000,39,10,00,000,36,18,00,000,39,23,00,000,42*61
$BDGSV,2,2,05,32,00,000,42*5A
$B3CN0,0,0,0,0,0,0,0,0,0,0,0,0,0,0*4C
$GLGSV,1,1,01,15,00,000,39*5A
---00000035--- Acq_st=2 0  2019-4-4 2:2:17 
[00]  02(G03)  f 43  7  0  -2864.4  2046003.7 -0.0  2 0  873 2270 1027
[01]  15(G16)  f 40  7  0  -4591.6  2046005.9 -0.1  2 0  725 1360  631
[02]  21(G22)  f 43  7  0  -1602.9  2046002.0  0.1  2 0 1265 2421  886
[03]  25(G26)  f 43  7  0  -2703.2  2046003.4  0.0  2 0 1485 2686 1334
[16]  38(B02)  7 22 25  0  -1974.0  4092005.5 -0.1  2 0  245   36  301
[17]  41(B05) 1f 38 26  0  -1063.3  4092002.6  0.2  2 0 1539 1066   52
[18]  46(B10) 1f 37  7  0  -1496.0  4092003.8  0.0  2 0  877  913  679
[19]  54(B18) 1f 39  7  0  -1172.8  4092003.0  0.2  2 0  271  837  235
[20]  59(B23) 1f 42  7  0  -2486.8  4092006.4  0.0  2 0 1281 1643  796
[21]  68(B32) 1f 42  7  0  -3745.3  4092009.7  0.0  2 0 1365 1630  914
[33]  80(N-1)  f 26  7  0  -4517.7  1022002.8 -0.3 10 0   547  676  492
[34]  81(N00) 8f 40  7  0  -1901.9  1022001.2  0.1  2 0   443  840  462
[35]  82(N01)  f 34 24  0  -4130.2  1022002.5 -0.1  5 0   359  581  198
[50]  46(B10)  1  7  7  0  -1158.9 20460025.1  0.1  1 0  224  400  278
[51]  54(B18)  1  7 10  0   -542.9 20460018.7 -0.1  1 0  579  561  645
valid:iono 1---fix 0
valid:iono 1---fix 0
$GNGGA,020218.089,,,,,0,00,,,M,,,,0000*23
$GNRMC,020218.089,A,,,,,,,040419,,*26
$GPGSA,A,1,,,,,,,,,,,,,,,*1E
$BDGSA,A,1,,,,,,,,,,,,,,,*0F
$GLGSA,A,1,,,,,,,,,,,,,,,*02
$GPGSV,1,1,04,03,00,000,43,16,00,000,40,22,00,000,43,26,00,000,43*7E
$BDGSV,2,1,06,02,00,000,22,05,00,000,38,10,00,000,37,18,00,000,39*67
$BDGSV,2,2,06,23,00,000,42,32,00,000,42*6E
$B3CN0,0,0,0,0,0,0,0,0,0,0,0,0,0,0*4C
$GLGSV,1,1,01,15,00,000,40*54
---00000036--- Acq_st=7 0  2019-4-4 2:2:18 
[00]  02(G03)  f 43  7  0  -2861.3  2046003.7  0.1  2 0  606 1618  936
[01]  15(G16)  f 41  7  0  -4583.1  2046005.9  0.2  2 0  507 1073  348
[02]  21(G22)  f 43  8  0  -1598.5  2046002.0 -0.0  2 0 1315 2499  958
[03]  25(G26)  f 43  7  0  -2699.0  2046003.4  0.0  2 0 1551 2357  743
[16]  38(B02)  7 16 10  0  -2257.1  4092005.7 -0.0  2 0  704  493  151
[17]  41(B05) 1f 38 27  0  -1063.6  4092002.8 -0.5  2 0  596  688  210
[18]  46(B10) 1f 36  7  0  -1488.7  4092003.8  0.3  2 0  649  799  255
[19]  54(B18) 1f 39  7  0  -1171.9  4092002.9 -0.2  2 0  506  853  318
[20]  59(B23) 1f 42  8  0  -2490.0  4092006.4  0.1  2 0 1202 1532  397
[21]  68(B32) 1f 42  7  0  -3737.8  4092009.7  0.0  2 0 1116 1698 1091
[33]  80(N-1)  f 26 12  0  -4518.9  1022003.0 -0.0 10 0   180  407  160
[34]  81(N00) 8f 40  7  0  -1897.3  1022001.1  0.0  2 0   756 1392  528
[35]  82(N01)  f 34 24  0  -4129.9  1022002.5 -0.1  2 0   587  773  499
[49]  41(B05)  1 25 22  1   -930.7 20460017.3  0.0  1 0  559  968  984
[50]  46(B10)  1  7  7  0   -746.9 20460023.7 -0.1  1 0  851  432  479
[51]  54(B18)  1  7  7  0      9.6 20460019.6 -0.0  1 0  809  654  438
[52]  59(B23)  1  7  7  0  -2042.8 20460039.7  0.1  1 0  850  410   63
[53]  68(B32)  1  7  7  0  -2793.3 20460061.1 -0.0  1 0  209  515  395
valid:iono 1---fix 0
valid:iono 1---fix 0
$GNGGA,020218.958,2944.9112,N,10633.0835,E,1,07,2.8,290.4,M,,,,0000*17
$GNRMC,020218.958,A,2944.9112,N,10633.0835,E,0.88,0.00,040419,,*11
$GPGSA,A,3,03,16,22,26,,,,,,,,,4.2,2.8,3.0*3D
$BDGSA,A,3,23,32,,,,,,,,,,,4.2,2.8,3.0*2C
$GLGSA,A,3,16,,,,,,,,,,,,4.2,2.8,3.0*26
$GPGSV,1,1,04,03,00,000,43,16,00,000,41,22,00,000,43,26,00,000,43*7F
$BDGSV,2,1,06,02,00,000,18,05,00,000,38,10,00,000,36,18,00,000,39*6F
$BDGSV,2,2,06,23,00,000,42,32,00,000,42*6E
$B3CN0,0,0,0,0,0,0,0,0,0,0,0,0,0,0*4C
$GLGSV,1,1,01,15,00,000,40*54
---00000037--- Acq_st=7 0  2019-4-4 2:2:19 
[00]  02(G03)  f 43  7  0  -2862.9  2046003.7 -0.0  2 0  920 1516  486
[01]  15(G16)  f 40  7  0  -4581.9  2046005.9 -0.0  2 0 1245 1310  298
[02]  21(G22)  f 44  7  0  -1599.7  2046002.0 -0.0  2 0 1724 2841 1470
[03]  25(G26)  f 43  7  0  -2700.1  2046003.4 -0.0  2 0 1132 1969  661
[16]  38(B02)  7 20 26  1  -2884.2  4092007.3 -0.0  2 0  187  425  300
[17]  41(B05) 1f 38 18  0  -1062.8  4092002.7 -0.2  2 0  792 1269  570
[18]  46(B10) 1f 36  7  0  -1495.3  4092003.9 -0.3  2 0  438  907  455
[19]  54(B18) 1f 39  7  0  -1172.3  4092003.0 -0.2  2 0  859  616   15
[20]  59(B23) 1f 42  7  0  -2489.7  4092006.4  0.0  2 0 1203 1542  853
[21]  68(B32) 1f 42  9  0  -3748.5  4092009.7 -0.1  2 0 1473 1643  638
[33]  80(N-1)  f 27  7  0  -4516.5  1022002.8  0.1 10 0   362  918  487
[34]  81(N00) 8f 41  7  0  -1899.0  1022001.2  0.0  2 0   629 1070  777
[35]  82(N01)  f 33 24  0  -4169.3  1022002.8  0.0  2 0   473  638  222
[49]  41(B05)  1 25 23  1   -999.5 20460018.3 -0.1  1 0  439  363  336
[50]  46(B10)  1  7  7  0   -884.2 20460024.1  0.0  1 0   87  498  227
[51]  54(B18)  1  7  7  0    504.0 20460020.4  0.0  1 0  266  663 1425
[52]  59(B23)  1  7  7  0  -2947.3 20460041.5  0.0  1 0  433  433  911
[53]  68(B32)  1  7  7  0  -2685.6 20460061.0  0.1  1 0  222  288  484
$#bdsionmodel sec:352957.921520,a1:0.721169,psi:0.063337,phi:0.513580,lam:1.787194,A2:158.588638,A4:172800.000000,f:1.443503,dt:18467.000000,ioncorr:55.893903
BDS IONO corr PRN[23] 40.22 265.21 55.89 352957.92
usrllh latitude:0.519210 longitude:1.859673
 source:0 ion_pt_an*1000 a0:0.000009 a1:0.000201 a2:-0.001907 a3:0.004053 b0:151552.000000 b1:-589824.000000 b2:1114112.000000 b3:1114112.000000 
$#bdsionmodel sec:352957.916002,a1:0.881146,psi:0.124252,phi:0.594803,lam:1.758818,A2:307.086493,A4:172800.000000,f:2.114860,dt:18857.000000,ioncorr:153.867122
BDS IONO corr PRN[32] 21.10 317.71 153.87 352957.92
usrllh latitude:0.519210 longitude:1.859673
 source:0 ion_pt_an*1000 a0:0.000009 a1:0.000201 a2:-0.001907 a3:0.004053 b0:151552.000000 b1:-589824.000000 b2:1114112.000000 b3:1114112.000000 
Refix G03: 2, 352957.924165, -2870
Refix G16: 2, 352957.925219, -4593
Refix G22: 2, 352957.925724, -1606
Refix G26: 2, 352957.931699, -2709
$GNGGA,020220.000,2944.9439,N,10633.0873,E,1,07,2.1,318.0,M,,,,0000*1A
$GNRMC,020220.000,A,2944.9439,N,10633.0873,E,0.56,0.00,040419,,*13
$GPGSA,A,3,03,16,22,26,,,,,,,,,2.6,2.1,1.6*32
$BDGSA,A,3,23,32,,,,,,,,,,,2.6,2.1,1.6*23
$GLGSA,A,3,15,,,,,,,,,,,,2.6,2.1,1.6*2A
$GPGSV,1,1,04,03,00,000,43,16,00,000,40,22,00,000,44,26,00,000,43*79
$BDGSV,2,1,06,02,00,000,20,05,00,000,38,10,00,000,36,18,00,000,39*64
$BDGSV,2,2,06,23,00,000,42,32,00,000,42*6E
$B3CN0,0,0,0,0,0,0,0,0,0,0,0,0,0,0*4C
$GLGSV,1,1,01,15,00,000,41*55
---00000038--- Acq_st=3 0  2019-4-4 2:2:20 
[00]  02(G03)  f 43  7  0  -2850.9  2046003.7  0.0  2 0 1095 2018  907
[01]  15(G16)  f 40  7  0  -4574.7  2046005.9 -0.0  2 0  860 1145  383
[02]  21(G22)  f 44  7  0  -1590.4  2046002.0  0.0  2 0 1988 2809 1047
[03]  25(G26)  f 43  7  0  -2693.4  2046003.4  0.0  2 0 1454 1811  666
[16]  38(B02)  7 19 10  0  -3409.6  4092008.9  0.1  2 0  477   82   80
[17]  41(B05) 1f 40 29  0  -1052.6  4092002.7 -0.4  2 0  500 1136  861
[18]  46(B10) 1f 36  7  0  -1485.4  4092003.7  0.1  2 0  971  962  485
[19]  54(B18) 1f 39  7  0  -1161.0  4092002.9  0.2  2 0 1017 1372  447
[20]  59(B23) 1f 42  7  0  -2482.8  4092006.4  0.0  2 0  835 1079  219
[21]  68(B32) 1f 43 10  0  -3740.7  4092009.7  0.0  2 0 1418 1709  504
[33]  80(N-1)  f 28 11  0  -4507.8  1022002.7 -0.1  5 0   666  571  275
[34]  81(N00) 8f 41  7  0  -1891.1  1022001.2 -0.0  2 0   787 1371  587
[35]  82(N01)  f 32 24  0  -4120.8  1022002.6  0.1  5 0   388  516  192
[49]  41(B05)  1 22 23  1  -1350.1 20460022.1  0.0  1 0  390  341  494
[51]  54(B18)  1  7  7  0   1479.8 20460018.8 -0.1  1 0  486  230  270
[52]  59(B23)  1  7  7  0  -3125.0 20460041.4  0.1  1 0  454  392  374
[53]  68(B32)  1  9  7  0  -2697.8 20460060.3  0.1  1 0  372  352  174
$#bdsionmodel sec:352958.921521,a1:0.721169,psi:0.063337,phi:0.513589,lam:1.787194,A2:158.602469,A4:172800.000000,f:1.443503,dt:18466.000000,ioncorr:55.900142
BDS IONO corr PRN[23] 40.22 265.21 55.90 352958.92
usrllh latitude:0.519219 longitude:1.859674
 source:0 ion_pt_an*1000 a0:0.000009 a1:0.000201 a2:-0.001907 a3:0.004053 b0:151552.000000 b1:-589824.000000 b2:1114112.000000 b3:1114112.000000 
$#bdsionmodel sec:352958.916004,a1:0.881146,psi:0.124252,phi:0.594812,lam:1.758819,A2:307.106668,A4:172800.000000,f:2.114860,dt:18856.000000,ioncorr:153.881505
BDS IONO corr PRN[32] 21.10 317.71 153.88 352958.92
usrllh latitude:0.519219 longitude:1.859674
 source:0 ion_pt_an*1000 a0:0.000009 a1:0.000201 a2:-0.001907 a3:0.004053 b0:151552.000000 b1:-589824.000000 b2:1114112.000000 b3:1114112.000000 
Refix G03: 2, 352958.924167, -2853
Refix G16: 2, 352958.925222, -4577
Refix G22: 2, 352958.925725, -1588
Refix G26: 2, 352958.931701, -2691
$GNGGA,020221.000,2944.9434,N,10633.0863,E,1,07,2.1,318.4,M,,,,0000*13
$GNRMC,020221.000,A,2944.9434,N,10633.0863,E,1.48,0.00,040419,,*10
$GPGSA,A,3,03,16,22,26,,,,,,,,,2.6,2.1,1.6*32
$BDGSA,A,3,23,32,,,,,,,,,,,2.6,2.1,1.6*23
$GLGSA,A,3,15,,,,,,,,,,,,2.6,2.1,1.6*2A
$GPGSV,1,1,04,03,30,305,43,16,32,205,40,22,41,281,44,26,65,203,43*76
$BDGSV,3,1,10,02,00,000,19,05,27,244,40,10,62,224,36,18,00,000,39*60
$BDGSV,3,2,10,23,40,265,42,32,21,317,43,06,65,108,00,07,87,212,00*6F
$BDGSV,3,3,10,09,77,013,00,11,07,134,00*63
$B3CN0,0,0,0,0,0,0,0,0,0,0,0,0,0,0*4C
$GLGSV,1,1,01,15,52,273,41*54
---00000039--- Acq_st=3 0  2019-4-4 2:2:21 
[00]  02(G03)  f 42  7  0  -2853.8  2046003.7 -0.0  2 0 1031 1341  476
[01]  15(G16)  f 40  7  0  -4574.6  2046005.8 -0.1  2 0  824 1114  632
[02]  21(G22)  f 44  7  0  -1590.0  2046002.0  0.0  2 0  676 1799  869
[03]  25(G26)  f 43  7  0  -2693.7  2046003.4 -0.0  2 0 1459 1705  845
[16]  38(B02)  7 10 20  0  -3848.5  4092010.2  0.0  2 0  143  353  389
[17]  41(B05) 1f 38 27  0  -1052.4  4092002.6  0.1  2 0  661  679  467
[18]  46(B10) 1f 37 11  0  -1472.4  4092003.8 -0.1  2 0  347  649  877
[19]  54(B18) 1f 39  7  0  -1164.2  4092002.9 -0.1  2 0 1074 1243  655
[20]  59(B23) 1f 42  7  0  -2479.7  4092006.4  0.0  2 0  957 1185  279
[21]  68(B32) 1f 43  7  0  -3738.2  4092009.6 -0.0  2 0 1548 1597  720
[33]  80(N-1)  f 28  7  0  -4504.8  1022002.7  0.2  5 0   766  867  418
[34]  81(N00) 8f 41  7  0  -1890.2  1022001.1 -0.0  2 0  1046 1485  908
[35]  82(N01)  f 31 23  0  -4122.4  1022002.5  0.1  5 0   257  311  182
[49]  41(B05)  1 23 18  0   -777.4 20460017.3 -0.1  1 0  651  347  212
[50]  46(B10)  1  7  7  0  -1105.2 20460021.5  0.0  1 0  538  343  257
[52]  59(B23)  1  7 11  0  -3370.4 20460038.8  0.1  1 0  432  948  954
[53]  68(B32)  1  7  7  0  -2537.4 20460060.3 -0.1  1 0  473  280  604
$#bdsionmodel sec:352959.921523,a1:0.721169,psi:0.063337,phi:0.513589,lam:1.787194,A2:158.602246,A4:172800.000000,f:1.443503,dt:18465.000000,ioncorr:55.901619
BDS IONO corr PRN[23] 40.22 265.21 55.90 352959.92
usrllh latitude:0.519219 longitude:1.859673
 source:0 ion_pt_an*1000 a0:0.000009 a1:0.000201 a2:-0.001907 a3:0.004053 b0:151552.000000 b1:-589824.000000 b2:1114112.000000 b3:1114112.000000 
$#bdsionmodel sec:352959.916006,a1:0.881146,psi:0.124252,phi:0.594812,lam:1.758818,A2:307.106341,A4:172800.000000,f:2.114860,dt:18855.000000,ioncorr:153.885827
BDS IONO corr PRN[32] 21.10 317.71 153.89 352959.92
usrllh latitude:0.519219 longitude:1.859673
 source:0 ion_pt_an*1000 a0:0.000009 a1:0.000201 a2:-0.001907 a3:0.004053 b0:151552.000000 b1:-589824.000000 b2:1114112.000000 b3:1114112.000000 
Refix G03: 2, 352959.924168, -2853
Refix G16: 2, 352959.925225, -4577
Refix G22: 2, 352959.925726, -1588
Refix G26: 2, 352959.931702, -2691
$GNGGA,020222.000,2944.9428,N,10633.0862,E,1,07,2.1,316.8,M,,,,0000*1E
$GNRMC,020222.000,A,2944.9428,N,10633.0862,E,1.15,0.00,040419,,*17
$GPGSA,A,3,03,16,22,26,,,,,,,,,2.6,2.1,1.6*32
$BDGSA,A,3,23,32,,,,,,,,,,,2.6,2.1,1.6*23
$GLGSA,A,3,15,,,,,,,,,,,,2.6,2.1,1.6*2A
$GPGSV,1,1,04,03,30,305,42,16,32,205,40,22,41,281,44,26,65,203,43*77
$BDGSV,3,1,10,05,27,244,38,10,62,224,37,18,00,000,39,23,40,265,42*66
$BDGSV,3,2,10,32,21,317,43,06,65,108,00,07,87,212,00,09,77,013,00*66
$BDGSV,3,3,10,11,07,134,00,12,04,062,00*6B
$B3CN0,0,0,0,0,0,0,0,0,0,0,0,0,0,0*4C
$GLGSV,1,1,01,15,52,273,41*54
---00000040--- Acq_st=3 0  2019-4-4 2:2:23 
[00]  02(G03)  f 43 10  0  -2865.3  2046003.7 -0.0  2 0  894 1841  897
[01]  15(G16)  f 41  7  0  -4588.1  2046005.9  0.1  2 0  856 1303  545
[02]  21(G22)  f 44  7  0  -1598.0  2046002.0  0.0  2 0 1474 2414 1103
[03]  25(G26)  f 43  7  0  -2704.3  2046003.5 -0.1  2 0 1062 1755  844
[16]  38(B02)  7 20 26  1  -4010.5  4092010.5 -0.0  2 0  302  469  234
[17]  41(B05) 1f 40 14  0  -1067.7  4092002.8 -0.1  2 0  619  758  543
[18]  46(B10) 1f 37  7  0  -1495.1  4092003.8 -0.1  2 0  494  238  184
[19]  54(B18) 1f 39  7  0  -1178.6  4092003.0  0.2  2 0  843 1153  518
[20]  59(B23) 1f 42  7  0  -2491.4  4092006.5  0.0  2 0 1328 1621  429
[21]  68(B32) 1f 43 10  0  -3751.5  4092009.7  0.1  2 0 1850 1961  912
[33]  80(N-1)  f 28  7  0  -4517.3  1022003.0 -0.4  5 0   821 1063  257
[34]  81(N00) 8f 41  7  0  -1901.1  1022001.2 -0.0  2 0  1082 1238  352
[35]  82(N01)  f 31 24  0  -4132.6  1022002.7  0.1  5 0   191  400  137
[50]  46(B10)  1  7  7  0  -1256.7 20460023.9 -0.0  1 0  458  283  403
[51]  54(B18)  1  7  7  0   -912.4 20460018.0  0.0  1 0  283  293  794
$#bdsionmodel sec:352960.921524,a1:0.721169,psi:0.063337,phi:0.513589,lam:1.787194,A2:158.601990,A4:172800.000000,f:1.443503,dt:18464.000000,ioncorr:55.903085
BDS IONO corr PRN[23] 40.22 265.21 55.90 352960.92
usrllh latitude:0.519219 longitude:1.859673
 source:0 ion_pt_an*1000 a0:0.000009 a1:0.000201 a2:-0.001907 a3:0.004053 b0:151552.000000 b1:-589824.000000 b2:1114112.000000 b3:1114112.000000 
$#bdsionmodel sec:352960.916009,a1:0.881146,psi:0.124252,phi:0.594812,lam:1.758818,A2:307.105969,A4:172800.000000,f:2.114860,dt:18854.000000,ioncorr:153.890127
BDS IONO corr PRN[32] 21.10 317.71 153.89 352960.92
usrllh latitude:0.519219 longitude:1.859673
 source:0 ion_pt_an*1000 a0:0.000009 a1:0.000201 a2:-0.001907 a3:0.004053 b0:151552.000000 b1:-589824.000000 b2:1114112.000000 b3:1114112.000000 
Refix G03: 2, 352960.924170, -2864
Refix G16: 2, 352960.925228, -4586
Refix G22: 2, 352960.925727, -1600
Refix G26: 2, 352960.931704, -2702
$GNGGA,020223.000,2944.9416,N,10633.0866,E,1,07,2.1,313.1,M,,,,0000*1A
$GNRMC,020223.000,A,2944.9416,N,10633.0866,E,0.67,0.00,040419,,*1B
$GPGSA,A,3,03,16,22,26,,,,,,,,,2.6,2.1,1.6*32
$BDGSA,A,3,23,32,,,,,,,,,,,2.6,2.1,1.6*23
$GLGSA,A,3,15,,,,,,,,,,,,2.6,2.1,1.6*2A
$GPGSV,1,1,04,03,30,305,43,16,32,205,41,22,41,281,44,26,65,203,43*77
$BDGSV,3,1,11,02,00,000,19,05,27,244,40,10,62,224,37,18,00,000,39*60
$BDGSV,3,2,11,23,40,265,42,32,21,317,43,06,65,108,00,07,87,212,00*6E
$BDGSV,3,3,11,09,77,013,00,11,07,134,00,12,04,062,00*51
$B3CN0,0,0,0,0,0,0,0,0,0,0,0,0,0,0*4C
$GLGSV,1,1,01,15,52,273,41*54
---00000041--- Acq_st=3 0  2019-4-4 2:2:23 
[00]  02(G03)  f 43  7  0  -2855.3  2046003.7 -0.0  2 0 1124 1931 1067
[01]  15(G16)  f 42  7  0  -4576.0  2046005.9 -0.1  2 0 1475 1580  583
[02]  21(G22)  f 43  7  0  -1588.4  2046002.0  0.0  2 0 1427 2738 1248
[03]  25(G26)  f 43  9  0  -2692.1  2046003.4  0.0  2 0  954 1920  920
[16]  38(B02)  7 10 36  1  -4405.1  4092011.5  0.2  2 0  579  807  383
[17]  41(B05) 1f 39 31  0  -1054.4  4092002.7 -0.1  2 0  853  958  595
[18]  46(B10) 1f 36  7  0  -1480.3  4092003.8  0.0  2 0  358 1086  799
[19]  54(B18) 1f 39  7  0  -1166.2  4092002.9  0.1  2 0 1173 1663  467
[20]  59(B23) 1f 42  7  0  -2479.8  4092006.4 -0.1  2 0 1214 1188  414
[21]  68(B32) 1f 43  7  0  -3740.0  4092009.6 -0.1  2 0 1480 2056  855
[33]  80(N-1)  f 30  7  0  -4507.7  1022002.8 -0.1  5 0   737 1184  519
[34]  81(N00) 8f 41  7  0  -1891.1  1022001.2 -0.1  2 0   687  899  508
[35]  82(N01)  f 33 24  0  -4123.3  1022002.5 -0.1  5 0   505  501   85
[49]  41(B05)  1 24 21  0   -961.3 20460017.1  0.2  1 0  590  281  640
[50]  46(B10)  1  7  7  0   -955.6 20460024.4 -0.0  1 0  616  179  321
[51]  54(B18)  1  7  7  0  -1056.8 20460018.7  0.1  1 0  306  648  677
[52]  59(B23)  1  7  7  0  -2174.7 20460039.3  0.1  1 0  326  220  335
[53]  68(B32)  1  7  7  0  -2988.4 20460058.2 -0.1  1 0  212  620  364
$#bdsionmodel sec:352961.921526,a1:0.721169,psi:0.063337,phi:0.513589,lam:1.787194,A2:158.601496,A4:172800.000000,f:1.443503,dt:18463.000000,ioncorr:55.904470
BDS IONO corr PRN[23] 40.22 265.21 55.90 352961.92
usrllh latitude:0.519218 longitude:1.859674
 source:0 ion_pt_an*1000 a0:0.000009 a1:0.000201 a2:-0.001907 a3:0.004053 b0:151552.000000 b1:-589824.000000 b2:1114112.000000 b3:1114112.000000 
$#bdsionmodel sec:352961.916011,a1:0.881146,psi:0.124252,phi:0.594812,lam:1.758818,A2:307.105248,A4:172800.000000,f:2.114860,dt:18853.000000,ioncorr:153.894255
BDS IONO corr PRN[32] 21.10 317.71 153.89 352961.92
usrllh latitude:0.519218 longitude:1.859674
 source:0 ion_pt_an*1000 a0:0.000009 a1:0.000201 a2:-0.001907 a3:0.004053 b0:151552.000000 b1:-589824.000000 b2:1114112.000000 b3:1114112.000000 
Refix G03: 2, 352961.924172, -2855
Refix G16: 2, 352961.925230, -4579
Refix G22: 2, 352961.925728, -1590
Refix G26: 2, 352961.931706, -2693
$GNGGA,020224.000,2944.9402,N,10633.0881,E,1,07,2.1,309.8,M,,,,0000*13
$GNRMC,020224.000,A,2944.9402,N,10633.0881,E,0.74,0.00,040419,,*12
$GPGSA,A,3,03,16,22,26,,,,,,,,,2.6,2.1,1.6*32
$BDGSA,A,3,23,32,,,,,,,,,,,2.6,2.1,1.6*23
$GLGSA,A,3,15,,,,,,,,,,,,2.6,2.1,1.6*2A
$GPGSV,1,1,04,03,30,305,43,16,32,205,42,22,41,281,43,26,65,203,43*73
$BDGSV,3,1,10,05,27,244,39,10,62,224,36,18,00,000,39,23,40,265,42*66
