$GNGGA,000000.000,,,,,0,00,,,M,,,,0000*2B
$GNRMC,000000.000,A,,,,,,,060180,,*29
$GPGSA,A,1,,,,,,,,,,,,,,,*1E
$BDGSA,A,1,,,,,,,,,,,,,,,*0F
$GLGSA,A,1,,,,,,,,,,,,,,,*02
$GPGSV,1,1,01,03,00,000,19*43
$B3CN0,0,0,0,0,0,0,0,0,0,0,0,0,0,0*4C
---00000003--- Acq_st=3 0  2019-4-4 2:24:41 
[00]  02(G03)  7 45  7  0  -2058.7  2046002.6 -0.0  2 0 2125 2837 1574
[01]  15(G16)  7 20  7  0  -4044.4  2046005.1  0.9 10 0 1452 1388  780
[02]  21(G22)  1  7  7  0   -562.3  2046000.3  0.0  1 0  381  501  386
[03]  22(G23)  1 30  7  0  -4282.2  2046005.7  0.7  1 0  601 1390  462
[04]  25(G26)  1 25  7  0  -1899.2  2046003.1  0.6  1 0 1595 2309  886
$GNGGA,000000.000,,,,,0,00,,,M,,,,0000*2B
$GNRMC,000000.000,A,,,,,,,060180,,*29
$GPGSA,A,1,,,,,,,,,,,,,,,*1E
$BDGSA,A,1,,,,,,,,,,,,,,,*0F
$GLGSA,A,1,,,,,,,,,,,,,,,*02
$GPGSV,1,1,02,03,00,000,45,16,00,000,19*76
$B3CN0,0,0,0,0,0,0,0,0,0,0,0,0,0,0*4C
---00000004--- Acq_st=3 0  2019-4-4 2:24:42 
[00]  02(G03)  7 45  7  0  -2060.8  2046002.6  0.0  2 0 2157 3226 1834
[01]  15(G16)  7 42 11  0  -4043.0  2046005.1 -0.1  2 0 1945 1591  834
[02]  21(G22)  1  7  7  0   -607.9  2046001.1 -0.1  1 0  352  731  667
[03]  22(G23)  7 30  7  0  -4279.6  2046005.4  0.4  5 0 1210 1943 1393
[04]  25(G26)  7 27  7  0  -1893.1  2046002.4  0.6 10 0 1471 1802  883
[16]  41(B05)  1 38 28  0  -1048.7  4092004.0  0.9  1 0  275  808  603
$GNGGA,022443.790,,,,,0,00,,,M,,,,0000*26
$GNRMC,022443.790,A,,,,,,,100180,,*23
$GPGSA,A,1,,,,,,,,,,,,,,,*1E
$BDGSA,A,1,,,,,,,,,,,,,,,*0F
$GLGSA,A,1,,,,,,,,,,,,,,,*02
$GPGSV,1,1,04,03,00,000,45,16,00,000,42,23,00,000,30,26,00,000,27*7D
$B3CN0,0,0,0,0,0,0,0,0,0,0,0,0,0,0*4C
---00000005--- Acq_st=3 0  2019-4-4 2:24:43 
[00]  02(G03)  f 44  7  0  -2062.4  2046002.6  0.0  2 0 1818 2869  848
[01]  15(G16)  f 41  7  0  -4042.3  2046005.1  0.1  2 0 1082 1617 1065
[02]  21(G22)  1  7  7  0   -375.9  2046001.0 -0.0  1 0  297  164  354
[03]  22(G23)  f 41  7  0  -4285.6  2046005.5  0.0  2 0  912 1047  341
[04]  25(G26)  7 43  7  0  -1898.8  2046002.4 -0.0  2 0 1208 1740  912
[16]  41(B05)  f 37 19  0  -1050.7  4092002.6 -0.5  2 0  600  743  320
[17]  46(B10)  1  7  7  0   -836.7  4092002.0 -0.0  1 0  472  382  460
$GNGGA,022444.790,,,,,0,00,,,M,,,,0000*21
$GNRMC,022444.790,A,,,,,,,100180,,*24
$GPGSA,A,1,,,,,,,,,,,,,,,*1E
$BDGSA,A,1,,,,,,,,,,,,,,,*0F
$GLGSA,A,1,,,,,,,,,,,,,,,*02
$GPGSV,1,1,04,03,00,000,44,16,00,000,41,23,00,000,41,26,00,000,43*7B
$BDGSV,1,1,01,05,00,000,37*58
$B3CN0,0,0,0,0,0,0,0,0,0,0,0,0,0,0*4C
---00000006--- Acq_st=3 0  2019-4-4 2:24:44 
[00]  02(G03)  f 45  7  0  -2062.6  2046002.6 -0.0  2 0 1630 2852 1260
[01]  15(G16)  f 41  7  0  -4041.9  2046005.2  0.1  2 0  509  965  534
[02]  21(G22)  1  7 11  0   -554.5  2046000.8  0.1  1 0  181  371  311
[03]  22(G23)  f 41  7  0  -4279.8  2046005.5 -0.0  2 0  809 1160  281
[04]  25(G26)  7 42  7  0  -1898.0  2046002.4  0.0  2 0 1071 2030 1038
[16]  41(B05)  f 37 24  0  -1042.2  4092002.6 -0.2  2 0  909  939  219
[17]  46(B10)  1  7  7  0   -763.8  4092001.9  0.1  1 0  110  304  156
[18]  54(B18)  1  7  7  0  -1115.6  4092002.4  0.1  1 0  411  219  559
[48]  41(B05)  1 23 25  1  -1168.2 20460018.7 -0.0  1 0  909 1033  721
$GNGGA,022445.790,,,,,0,00,,,M,,,,0000*20
$GNRMC,022445.790,A,,,,,,,100180,,*25
$GPGSA,A,1,,,,,,,,,,,,,,,*1E
$BDGSA,A,1,,,,,,,,,,,,,,,*0F
$GLGSA,A,1,,,,,,,,,,,,,,,*02
$GPGSV,1,1,04,03,00,000,45,16,00,000,41,23,00,000,41,26,00,000,42*7B
$BDGSV,1,1,01,05,00,000,37*58
$B3CN0,0,0,0,0,0,0,0,0,0,0,0,0,0,0*4C
---00000007--- Acq_st=3 0  2019-4-4 2:24:45 
[00]  02(G03)  f 45  7  0  -2054.7  2046002.6 -0.0  2 0 1829 2948 1501
[01]  15(G16)  f 40 10  0  -4042.4  2046005.2  0.0  2 0  688 1068  719
[03]  22(G23)  f 41  7  0  -4280.0  2046005.5 -0.1  2 0 1073 1413  890
[04]  25(G26)  7 43  7  0  -1890.4  2046002.4 -0.0  2 0 1085 1791  355
[16]  41(B05) 1f 36 30  0  -1052.3  4092002.5  0.3  2 0  915 1124  387
[17]  46(B10)  1  7  7  0   -593.6  4092002.2  0.1  1 0  416  378  253
[18]  54(B18)  1  7  7  0  -1493.2  4092002.5  0.0  1 0  465  419  483
[19]  59(B23)  1 10  7  0  -2166.6  4092006.3 -0.0  1 0 1741 2828 1663
[48]  41(B05)  1 25 24  0   -938.3 20460019.9  0.1  1 0  868  253   15
$GNGGA,022446.790,,,,,0,00,,,M,,,,0000*23
$GNRMC,022446.790,A,,,,,,,100180,,*26
$GPGSA,A,1,,,,,,,,,,,,,,,*1E
$BDGSA,A,1,,,,,,,,,,,,,,,*0F
$GLGSA,A,1,,,,,,,,,,,,,,,*02
$GPGSV,1,1,04,03,00,000,45,16,00,000,39,23,00,000,41,26,00,000,43*75
$BDGSV,1,1,01,05,00,000,36*59
$B3CN0,0,0,0,0,0,0,0,0,0,0,0,0,0,0*4C
---00000008--- Acq_st=3 0  2019-4-4 2:24:46 
[00]  02(G03)  f 45  7  0  -2050.6  2046002.6  0.0  2 0 1923 2890 1330
[01]  15(G16)  f 40  7  0  -4032.9  2046005.2 -0.1  2 0  346  728  182
[03]  22(G23)  f 42 11  0  -4272.6  2046005.5  0.0  2 0  858 1691 1352
[04]  25(G26)  7 43  7  0  -1886.1  2046002.4 -0.1  2 0 1315 2010  668
[16]  41(B05) 1f 39 14  0  -1041.8  4092002.8 -0.6  2 0  312  989  816
[17]  46(B10)  1  7  7  0   -892.0  4092002.1  0.1  1 0  356  318  400
[18]  54(B18)  1  7  7  0  -1682.5  4092002.8 -0.1  1 0  113  450  414
[19]  59(B23)  7 23  7  0  -2158.2  4092005.6 -0.1 10 0 1568 2547 1473
[48]  41(B05)  1 25 21  0  -1126.0 20460015.9 -0.2  1 0  605  187   66
$GNGGA,022447.790,,,,,0,00,,,M,,,,0000*22
$GNRMC,022447.790,A,,,,,,,100180,,*27
$GPGSA,A,1,,,,,,,,,,,,,,,*1E
$BDGSA,A,1,,,,,,,,,,,,,,,*0F
$GLGSA,A,1,,,,,,,,,,,,,,,*02
$GPGSV,1,1,04,03,00,000,45,16,00,000,40,23,00,000,42,26,00,000,43*78
$BDGSV,1,1,02,05,00,000,40,23,00,000,23*6B
$B3CN0,0,0,0,0,0,0,0,0,0,0,0,0,0,0*4C
---00000009--- Acq_st=3 0  2019-4-4 2:24:47 
[00]  02(G03)  f 44  7  0  -2063.8  2046002.6 -0.0  2 0 1750 3218 1426
[01]  15(G16)  f 40  7  0  -4046.4  2046005.2 -0.0  2 0 1086 1075  518
[03]  22(G23)  f 41  7  0  -4284.9  2046005.5 -0.1  2 0 1269 1808 1022
[04]  25(G26)  7 43  7  0  -1898.6  2046002.4  0.0  2 0  799 1950 1320
[16]  41(B05) 1f 38 26  0  -1045.9  4092002.6 -0.8  2 0  861  863  123
[18]  54(B18)  1  7  7  0  -1787.1  4092002.9  0.0  1 0  371   93  445
[19]  59(B23)  7 45  7  0  -2172.0  4092005.6 -0.1  2 0 2137 2902 1237
[32]  80(N-1)  1 26 17  0  -3790.5  1022003.1  0.1  1 0   512  802  835
[33]  81(N00)  1 32  7  0  -1234.9  1022001.5 -0.0  1 0    96  312  539
[34]  82(N01)  1 25  7  0  -3750.0  1022003.3  0.1  1 0   367  678  366
[48]  41(B05)  1 23 22  1  -1478.7 20460019.4 -0.0  1 0  372  911  646
$GNGGA,022448.790,,,,,0,00,,,M,,,,0000*2D
$GNRMC,022448.790,A,,,,,,,040419,,*28
$GPGSA,A,1,,,,,,,,,,,,,,,*1E
$BDGSA,A,1,,,,,,,,,,,,,,,*0F
$GLGSA,A,1,,,,,,,,,,,,,,,*02
$GPGSV,1,1,04,03,00,000,44,16,00,000,40,23,00,000,41,26,00,000,43*7A
$BDGSV,1,1,02,05,00,000,38,23,00,000,45*64
$B3CN0,0,0,0,0,0,0,0,0,0,0,0,0,0,0*4C
---00000010--- Acq_st=7 0  2019-4-4 2:24:48 
[00]  02(G03)  f 45  7  0  -2056.1  2046002.6  0.0  2 0 1934 2972 1254
[01]  15(G16)  f 40  7  0  -4034.4  2046005.2 -0.0  2 0  790 1223  269
[03]  22(G23)  f 41  7  0  -4277.1  2046005.5 -0.1  2 0 1040 1466  797
[04]  25(G26)  7 43  7  0  -1891.0  2046002.4 -0.0  2 0  942 2137 1578
[16]  41(B05) 1f 38 28  0  -1048.9  4092002.7 -0.8  2 0  776 1251  559
[18]  54(B18)  1  8  7  0  -1963.8  4092003.0 -0.1  1 0  476  229  161
[19]  59(B23)  7 44  7  0  -2162.6  4092005.6  0.0  2 0 1849 2244  605
[32]  80(N-1)  7 21  7  0  -3781.2  1022002.3  0.8 10 0   241  902  414
[33]  81(N00)  1 35  7  0  -1231.5  1022000.9  0.9  1 0   459  556   70
[34]  82(N01)  1 26  7  0  -3681.3  1022002.1  0.9  1 0   532  734   24
$GNGGA,022449.790,,,,,0,00,,,M,,,,0000*2C
$GNRMC,022449.790,A,,,,,,,040419,,*29
$GPGSA,A,1,,,,,,,,,,,,,,,*1E
$BDGSA,A,1,,,,,,,,,,,,,,,*0F
$GLGSA,A,1,,,,,,,,,,,,,,,*02
$GPGSV,1,1,04,03,00,000,45,16,00,000,40,23,00,000,41,26,00,000,43*7B
$BDGSV,1,1,02,05,00,000,37,23,00,000,44*6A
$B3CN0,0,0,0,0,0,0,0,0,0,0,0,0,0,0*4C
---00000011--- Acq_st=3 0  2019-4-4 2:24:49 
[00]  02(G03)  f 45  7  0  -2067.4  2046002.6  0.0  2 0 1948 3525 1829
[01]  15(G16)  f 40  7  0  -4056.9  2046005.1  0.0  2 0  688 1135  849
[03]  22(G23)  f 41  7  0  -4292.2  2046005.5  0.1  2 0 1010 1334  131
[04]  25(G26)  f 42  7  0  -1904.9  2046002.4  0.0  2 0 1181 1758  842
[16]  41(B05) 1f 39 21  0  -1058.7  4092002.4  0.8  2 0 1083  687  382
[19]  59(B23)  7 43  7  0  -2178.6  4092005.6  0.0  2 0 1547 2132  607
[32]  80(N-1)  7 42 23  0  -3794.5  1022002.4  0.2  2 0   793 1155  758
[33]  81(N00)  7 36  7  0  -1248.1  1022000.7 -0.1  2 0   198  529  450
[34]  82(N01)  7 38 11  0  -3697.3  1022002.3  0.6  2 0   604  879  487
[48]  41(B05)  1 23 23  0  -1317.2 20460019.9  0.1  1 0  166  770 1026
$GNGGA,022450.790,,,,,0,00,,,M,,,,0000*24
$GNRMC,022450.790,A,,,,,,,040419,,*21
$GPGSA,A,1,,,,,,,,,,,,,,,*1E
$BDGSA,A,1,,,,,,,,,,,,,,,*0F
$GLGSA,A,1,,,,,,,,,,,,,,,*02
$GPGSV,1,1,04,03,00,000,45,16,00,000,40,23,00,000,41,26,00,000,42*7A
$BDGSV,1,1,02,05,00,000,39,23,00,000,43*63
$B3CN0,0,0,0,0,0,0,0,0,0,0,0,0,0,0*4C
---00000012--- Acq_st=3 0  2019-4-4 2:24:50 
[00]  02(G03)  f 45  7  0  -2060.3  2046002.6  0.0  2 0 1707 3271 1734
[01]  15(G16)  f 41  8  0  -4042.4  2046005.2 -0.0  2 0  612 1211  761
[02]  21(G22)  1  7  7  0   -750.0  2046001.7 -0.1  1 0   91  174  710
[03]  22(G23)  f 41  9  0  -4289.2  2046005.5  0.1  2 0 1419 1502  693
[04]  25(G26)  f 43  7  0  -1896.1  2046002.4  0.1  2 0  999 1726  656
[16]  41(B05) 1f 38 25  0  -1050.1  4092002.6 -0.9  2 0  796  786  337
[19]  59(B23)  7 44  7  0  -2165.8  4092005.6 -0.0  2 0 1996 2627 1375
[32]  80(N-1)  7 42 23  0  -3784.5  1022002.4  0.1  2 0   842 1134  608
[33]  81(N00)  7 37  7  0  -1237.8  1022000.8  0.2  2 0   794 1165  494
[34]  82(N01)  7 36  7  0  -3687.9  1022002.3  0.1  2 0   226  729  220
[48]  41(B05)  1 24 22  1  -1405.4 20460018.8 -0.1  1 0  694  670  455
---00000013--- Acq_st=3 0  2019-4-4 2:24:51 
[00]  02(G03)  f 45  7  0  -2059.2  2046002.6 -0.0  2 0 2121 3405 1573
[01]  15(G16)  f 41  7  0  -4046.6  2046005.1 -0.1  2 0  977 1007  443
[02]  21(G22)  1 25  7  0   -814.5  2046003.6  0.2  1 0  841 1917 1058
[03]  22(G23)  f 41  7  0  -4285.0  2046005.5  0.0  2 0  562  967  493
[04]  25(G26)  f 43  7  0  -1893.1  2046002.4 -0.0  2 0 1981 2457 1005
[16]  41(B05) 1f 37 27  0  -1049.0  4092002.6  0.8  2 0  641  570  244
[17]  38(B02)  1 14 10  1   -750.0  4092001.1 -0.0  1 0  132  131   42
[19]  59(B23) 1f 43  7  0  -2168.6  4092005.6  0.0  2 0 1896 3033 1257
[32]  80(N-1)  7 42 22  0  -3784.8  1022002.3 -0.1  2 0   583  916  539
[33]  81(N00)  7 37  7  0  -1236.9  1022000.8  0.0  2 0    22  560  115
[34]  82(N01)  7 36 14  0  -3691.0  1022002.4 -0.2  2 0   117  532  344
[48]  41(B05)  1 26 25  1  -1685.1 20460020.1  0.0  1 0  830  367  140
$GNGGA,022451.790,,,,,0,00,,,M,,,,0000*25
$GNRMC,022451.790,A,,,,,,,040419,,*20
$GPGSA,A,1,,,,,,,,,,,,,,,*1E
$BDGSA,A,1,,,,,,,,,,,,,,,*0F
$GLGSA,A,1,,,,,,,,,,,,,,,*02
$GPGSV,1,1,04,03,00,000,45,16,00,000,41,23,00,000,41,26,00,000,43*7A
$BDGSV,1,1,02,05,00,000,37,23,00,000,43*6D
$B3CN0,0,0,0,0,0,0,0,0,0,0,0,0,0,0*4C
---00000014--- Acq_st=3 0  2019-4-4 2:24:52 
[00]  02(G03)  f 45  7  0  -2043.2  2046002.6  0.1  2 0 2058 3249 1300
[01]  15(G16)  f 42 11  0  -4033.9  2046005.2  0.0  2 0 1195 1476  607
[02]  21(G22)  7 33  7  0   -800.4  2046000.9  0.2  5 0 1351 1941  629
[03]  22(G23)  f 41  7  0  -4276.1  2046005.5 -0.1  2 0  967 1782  839
[04]  25(G26)  f 43  7  0  -1882.7  2046002.4  0.1  2 0 1039 2201 1137
[16]  41(B05) 1f 37 25  0  -1037.2  4092002.5 -0.6  2 0  771 1087  372
[17]  38(B02)  1 10 10  0   -543.8  4092001.4 -0.1  1 0  243  466  209
[18]  46(B10)  1  7  7  0  -1000.0  4092001.9 -0.0  1 0  138  232  222
[19]  59(B23) 1f 44 11  0  -2156.7  4092005.5  0.0  2 0 1817 2484 1163
[32]  80(N-1)  f 34  7  0  -3770.7  1022002.4  0.1  5 0  1010 1415  735
[33]  81(N00)  f 33  7  0  -1223.3  1022000.7  0.2  5 0   303  671  356
[34]  82(N01)  f 32  7  0  -3675.5  1022002.3  0.0  5 0   513  541  459
[48]  41(B05)  1 21 23  0  -1959.9 20460021.6 -0.0  1 0  206  127  707
[51]  59(B23)  1  8  7  0  -1318.4 20460033.0 -0.1  1 0  190  568  672
$GNGGA,022452.790,,,,,0,00,,,M,,,,0000*26
$GNRMC,022452.790,A,,,,,,,040419,,*23
$GPGSA,A,1,,,,,,,,,,,,,,,*1E
$BDGSA,A,1,,,,,,,,,,,,,,,*0F
$GLGSA,A,1,,,,,,,,,,,,,,,*02
$GPGSV,2,1,05,03,00,000,45,16,00,000,42,22,00,000,33,23,00,000,41*78
$GPGSV,2,2,05,26,00,000,43*4F
$BDGSV,1,1,02,05,00,000,37,23,00,000,44*6A
$B3CN0,0,0,0,0,0,0,0,0,0,0,0,0,0,0*4C
---00000015--- Acq_st=3 0  2019-4-4 2:24:53 
[00]  02(G03)  f 44  7  0  -2051.7  2046002.6  0.0  2 0 1985 3314 2027
[01]  15(G16)  f 41  7  0  -4034.5  2046005.2 -0.0  2 0 1386 1894 1050
[02]  21(G22)  7 42  7  0   -804.5  2046000.9 -0.0  2 0 1418 1940 1046
[03]  22(G23)  f 41  7  0  -4282.7  2046005.5  0.1  2 0 1297 1730  888
[04]  25(G26)  f 43  7  0  -1891.9  2046002.4 -0.1  2 0 1072 2138 1189
[16]  41(B05) 1f 38 29  0  -1047.5  4092002.6 -0.5  2 0  672  667  266
[17]  38(B02)  1 10 10  0   -178.4  4092003.0  0.0  1 0  311  169  178
[18]  46(B10)  1  7  7  0  -1645.7  4092001.7  0.1  1 0  277  184  248
[19]  59(B23) 1f 43  7  0  -2164.6  4092005.5 -0.0  2 0 1639 2227  601
[32]  80(N-1)  f 42 15  0  -3777.1  1022002.4 -0.1  2 0   756 1285  826
[33]  81(N00)  f 38  7  0  -1230.7  1022000.7  0.4  2 0   765 1057  188
[34]  82(N01)  f 36  7  0  -3682.6  1022002.3 -0.2  2 0   356  535  241
[51]  59(B23)  1  7  7  0  -1783.0 20460035.0  0.1  1 0  329  328  465
$GNGGA,022453.790,,,,,0,00,,,M,,,,0000*27
$GNRMC,022453.790,A,,,,,,,040419,,*22
$GPGSA,A,1,,,,,,,,,,,,,,,*1E
$BDGSA,A,1,,,,,,,,,,,,,,,*0F
$GLGSA,A,1,,,,,,,,,,,,,,,*02
$GPGSV,2,1,05,03,00,000,44,16,00,000,41,22,00,000,42,23,00,000,41*7C
$GPGSV,2,2,05,26,00,000,43*4F
$BDGSV,1,1,02,05,00,000,38,23,00,000,43*62
$B3CN0,0,0,0,0,0,0,0,0,0,0,0,0,0,0*4C
---00000016--- Acq_st=3 0  2019-4-4 2:24:54 
[00]  02(G03)  f 45  7  0  -2069.2  2046002.6 -0.0  2 0 1921 3479 1913
[01]  15(G16)  f 41  7  0  -4052.7  2046005.2 -0.0  2 0  791 1805  776
[02]  21(G22)  7 42  7  0   -820.8  2046001.0  0.0  2 0 1392 1987  992
[03]  22(G23)  f 42  7  0  -4300.1  2046005.5 -0.0  2 0 1018 1986 1367
[04]  25(G26)  f 42  7  0  -1900.4  2046002.5  0.0  2 0 1004 1923 1102
[16]  41(B05) 1f 38 27  0  -1060.9  4092002.7  0.5  2 0  432  412  282
[17]  38(B02)  1 20 10  1   -396.4  4092002.5  0.0  1 0  380  435  503
[18]  46(B10)  1  7  7  0  -2104.0  4092002.3  0.2  1 0  277  261  206
[19]  59(B23) 1f 44  7  0  -2177.8  4092005.6 -0.0  2 0 1789 2052  916
[32]  80(N-1)  f 42 14  0  -3792.3  1022002.3 -0.0  2 0   616 1386  771
[33]  81(N00)  f 39  7  0  -1243.6  1022000.7  0.3  2 0   622  820  260
[34]  82(N01)  f 36  7  0  -3699.0  1022002.3  0.0  2 0   553  669  136
[48]  41(B05)  1 23 23  0   -971.3 20460014.8  0.0  1 0  166  174  113
[51]  59(B23)  1  8  7  0  -1539.7 20460033.4  0.1  1 0  570  436  472
$GNGGA,022454.790,,,,,0,00,,,M,,,,0000*20
$GNRMC,022454.790,A,,,,,,,040419,,*25
$GPGSA,A,1,,,,,,,,,,,,,,,*1E
$BDGSA,A,1,,,,,,,,,,,,,,,*0F
$GLGSA,A,1,,,,,,,,,,,,,,,*02
$GPGSV,2,1,05,03,00,000,45,16,00,000,41,22,00,000,42,23,00,000,42*7E
$GPGSV,2,2,05,26,00,000,42*4E
$BDGSV,1,1,02,05,00,000,38,23,00,000,44*65
$B3CN0,0,0,0,0,0,0,0,0,0,0,0,0,0,0*4C
---00000017--- Acq_st=2 0  2019-4-4 2:24:55 
[00]  02(G03)  f 45  7  0  -2048.7  2046002.6 -0.0  2 0 2171 2951 1079
[01]  15(G16)  f 42  7  0  -4036.9  2046005.2  0.0  2 0  899 1522  389
[02]  21(G22)  f 43  7  0   -800.4  2046000.9 -0.0  2 0 1020 1758  877
[03]  22(G23)  f 41  7  0  -4280.3  2046005.5  0.0  2 0 1085 1526  672
[04]  25(G26)  f 42  7  0  -1884.3  2046002.4 -0.0  2 0 1342 2162 1031
[16]  41(B05) 1f 38 20  0  -1043.7  4092002.6 -0.9  2 0  604  952  294
[17]  38(B02)  1 18 10  0   -525.1  4092003.4 -0.1  1 0  327  453  349
[18]  46(B10)  1  8  7  0  -1836.1  4092002.0  0.1  1 0  436   76  263
[19]  59(B23) 1f 44  7  0  -2160.4  4092005.5  0.0  2 0 2042 2474  690
[20]  68(B32)  1  7  7  0  -3250.0  4092008.5  0.0  1 0  314  518  322
[32]  80(N-1)  f 43 20  0  -3772.2  1022002.4  0.0  2 0  1043 1335  660
[33]  81(N00)  f 39  7  0  -1225.2  1022000.7  0.5  2 0   539  983  451
[34]  82(N01)  f 35  7  0  -3681.8  1022002.4 -0.1  2 0   241  498  341
[48]  41(B05)  1 26 14  0   -875.1 20460019.6 -0.0  1 0  476  505  333
[51]  59(B23)  1  7  7  0  -1033.3 20460033.9  0.0  1 0  461  454  178
$GNGGA,022455.790,,,,,0,00,,,M,,,,0000*21
$GNRMC,022455.790,A,,,,,,,040419,,*24
$GPGSA,A,1,,,,,,,,,,,,,,,*1E
$BDGSA,A,1,,,,,,,,,,,,,,,*0F
$GLGSA,A,1,,,,,,,,,,,,,,,*02
$GPGSV,2,1,05,03,00,000,45,16,00,000,42,22,00,000,43,23,00,000,41*7F
$GPGSV,2,2,05,26,00,000,42*4E
$BDGSV,1,1,02,05,00,000,38,23,00,000,44*65
$B3CN0,0,0,0,0,0,0,0,0,0,0,0,0,0,0*4C
---00000018--- Acq_st=3 0  2019-4-4 2:24:56 
[00]  02(G03)  f 44  7  0  -2054.1  2046002.6  0.0  2 0 2025 3778 1631
[01]  15(G16)  f 41  8  0  -4039.3  2046005.2 -0.1  2 0 1084 1966  780
[02]  21(G22)  f 43  8  0   -803.5  2046001.0 -0.0  2 0 1653 2257  888
[03]  22(G23)  f 41  7  0  -4286.9  2046005.5  0.0  2 0 1058 1480  738
[04]  25(G26)  f 42  7  0  -1886.2  2046002.4 -0.1  2 0 1305 2465 1563
[16]  41(B05) 1f 38 29  0  -1049.2  4092002.5  0.3  2 0 1038  963  174
[18]  46(B10)  1  7  7  0  -1998.7  4092002.5  0.2  1 0  318  342  164
[19]  59(B23) 1f 44  7  0  -2162.3  4092005.5  0.0  2 0 1807 2207  761
[20]  68(B32)  1  7 12  0  -3498.0  4092008.2 -0.0  1 0  255  229  645
[32]  80(N-1)  f 42  7  0  -3776.0  1022002.4  0.1  2 0   724 1045  364
[33]  81(N00)  f 39  7  0  -1227.3  1022000.7  0.1  2 0   606 1082  706
[34]  82(N01)  f 35  7  0  -3681.8  1022002.3 -0.0  2 0   114  333  276
[48]  41(B05)  1 27 25  1  -1080.7 20460020.1 -0.1  1 0  676  413  590
$GNGGA,022456.790,,,,,0,00,,,M,,,,0000*22
$GNRMC,022456.790,A,,,,,,,040419,,*27
$GPGSA,A,1,,,,,,,,,,,,,,,*1E
$BDGSA,A,1,,,,,,,,,,,,,,,*0F
$GLGSA,A,1,,,,,,,,,,,,,,,*02
$GPGSV,2,1,05,03,00,000,44,16,00,000,41,22,00,000,43,23,00,000,41*7D
$GPGSV,2,2,05,26,00,000,42*4E
$BDGSV,1,1,02,05,00,000,38,23,00,000,44*65
$B3CN0,0,0,0,0,0,0,0,0,0,0,0,0,0,0*4C
---00000019--- Acq_st=7 0  2019-4-4 2:24:57 
[00]  02(G03)  f 45  8  0  -2049.3  2046002.6  0.0  2 0 2369 3505 1383
[01]  15(G16)  f 41  7  0  -4032.2  2046005.2 -0.1  2 0  974 1247  599
[02]  21(G22)  f 43  7  0   -803.5  2046001.0 -0.0  2 0 1144 2081  825
[03]  22(G23)  f 40  7  0  -4278.8  2046005.5  0.0  2 0  806 1613  692
[04]  25(G26)  f 43  7  0  -1883.5  2046002.4  0.0  2 0 1246 2094  994
[16]  41(B05) 1f 38 28  0  -1047.6  4092002.5  0.1  2 0  729  880  225
[19]  59(B23) 1f 44  7  0  -2163.6  4092005.6  0.1  2 0 1645 2116  505
[20]  68(B32)  1  7  7  0  -3165.1  4092008.7  0.2  1 0  647  407  375
[32]  80(N-1)  f 41 16  0  -3773.7  1022002.4 -0.1  2 0   512 1076  735
[33]  81(N00)  f 39  7  0  -1227.6  1022000.7 -0.7  2 0   724 1248  483
[34]  82(N01)  f 35  7  0  -3683.0  1022002.3 -0.1  2 0   214  602  225
[48]  41(B05)  1 24 25  0  -1874.2 20460024.2 -0.0  1 0  334  635  998
[51]  59(B23)  1  7  7  0  -1768.2 20460036.6 -0.0  1 0  492  633  225
$GNGGA,022457.790,,,,,0,00,,,M,,,,0000*23
$GNRMC,022457.790,A,,,,,,,040419,,*26
$GPGSA,A,1,,,,,,,,,,,,,,,*1E
$BDGSA,A,1,,,,,,,,,,,,,,,*0F
$GLGSA,A,1,,,,,,,,,,,,,,,*02
$GPGSV,2,1,05,03,00,000,45,16,00,000,41,22,00,000,43,23,00,000,40*7D
$GPGSV,2,2,05,26,00,000,43*4F
$BDGSV,1,1,02,05,00,000,38,23,00,000,44*65
$B3CN0,0,0,0,0,0,0,0,0,0,0,0,0,0,0*4C
---00000020--- Acq_st=3 0  2019-4-4 2:24:58 
[00]  02(G03)  f 44  7  0  -2066.9  2046002.6  0.0  2 0 1645 3141 1629
[01]  15(G16)  f 41  7  0  -4048.3  2046005.2 -0.0  2 0  771 1448  974
[02]  21(G22)  f 42  9  0   -819.3  2046001.0  0.1  2 0 1271 1598  785
[03]  22(G23)  f 40  7  0  -4300.2  2046005.5 -0.2  2 0  787 1406  684
[04]  25(G26)  f 42  7  0  -1906.3  2046002.4  0.0  2 0 1302 1655  645
[16]  41(B05) 1f 38 21  0  -1065.8  4092002.7 -0.2  2 0  712 1112  742
[19]  59(B23) 1f 43  7  0  -2180.8  4092005.6 -0.1  2 0 1438 2267 1142
[20]  68(B32)  1  7  7  0  -3742.4  4092008.7  0.1  1 0  723  514  142
[32]  80(N-1)  f 40 13  0  -3791.1  1022002.4  0.2  2 0   176 1077  636
[33]  81(N00)  f 40  7  0  -1244.7  1022000.7 -0.1  2 0   398  717  400
[34]  82(N01)  f 34  7  0  -3702.1  1022002.3 -0.1  2 0   319  874  695
[51]  59(B23)  1  7  7  0  -1778.1 20460035.3 -0.0  1 0  449  423  596
$GNGGA,022458.790,,,,,0,00,,,M,,,,0000*2C
$GNRMC,022458.790,A,,,,,,,040419,,*29
$GPGSA,A,1,,,,,,,,,,,,,,,*1E
$BDGSA,A,1,,,,,,,,,,,,,,,*0F
$GLGSA,A,1,,,,,,,,,,,,,,,*02
$GPGSV,2,1,05,03,00,000,44,16,00,000,41,22,00,000,42,23,00,000,40*7D
$GPGSV,2,2,05,26,00,000,42*4E
$BDGSV,1,1,02,05,00,000,38,23,00,000,43*62
$B3CN0,0,0,0,0,0,0,0,0,0,0,0,0,0,0*4C
---00000021--- Acq_st=3 0  2019-4-4 2:24:59 
[00]  02(G03)  f 44  7  0  -2066.3  2046002.6 -0.0  2 0 2040 3170 1034
[01]  15(G16)  f 41  7  0  -4054.7  2046005.2 -0.0  2 0  956 1258  534
[02]  21(G22)  f 42  7  0   -820.6  2046001.0 -0.0  2 0 1228 2140  796
[03]  22(G23)  f 41  8  0  -4296.2  2046005.5  0.1  2 0 1332 1893  951
[04]  25(G26)  f 43  7  0  -1901.4  2046002.4 -0.1  2 0 1170 1841  827
[16]  41(B05) 1f 37 27  0  -1061.3  4092002.7 -0.4  2 0  961 1113  286
[19]  59(B23) 1f 44  7  0  -2180.1  4092005.6  0.0  2 0 1353 2205  933
[20]  68(B32)  1  7  7  0  -3933.2  4092008.6  0.1  1 0  433  123  378
[32]  80(N-1)  f 38 21  0  -3792.7  1022002.5 -0.5  2 0   442  946  480
[33]  81(N00)  f 40  7  0  -1243.5  1022000.7  0.2  2 0   834  942  476
[34]  82(N01)  f 34  7  0  -3699.3  1022002.3  0.0  2 0   252  415  451
[48]  41(B05)  1 26 24  0  -1264.4 20460017.9 -0.0  1 0  310  495  219
[51]  59(B23)  1  7  7  0  -2078.5 20460035.2 -0.1  1 0  584 1042  224
$GNGGA,022459.790,,,,,0,00,,,M,,,,0000*2D
$GNRMC,022459.790,A,,,,,,,040419,,*28
$GPGSA,A,1,,,,,,,,,,,,,,,*1E
$BDGSA,A,1,,,,,,,,,,,,,,,*0F
$GLGSA,A,1,,,,,,,,,,,,,,,*02
$GPGSV,2,1,05,03,00,000,44,16,00,000,41,22,00,000,42,23,00,000,41*7C
$GPGSV,2,2,05,26,00,000,43*4F
$BDGSV,1,1,02,05,00,000,37,23,00,000,44*6A
$B3CN0,0,0,0,0,0,0,0,0,0,0,0,0,0,0*4C
---00000022--- Acq_st=3 0  2019-4-4 2:25:0 
[00]  02(G03)  f 45  7  0  -2055.3  2046002.6 -0.0  2 0 1772 3113 1309
[01]  15(G16)  f 41  7  0  -4042.8  2046005.2  0.0  2 0  713 1384  903
[02]  21(G22)  f 42  7  0   -809.1  2046001.0  0.0  2 0  204 1254  835
[03]  22(G23)  f 41  7  0  -4287.5  2046005.5  0.1  2 0  614 1196  778
[04]  25(G26)  f 43  7  0  -1891.0  2046002.4  0.0  2 0 1261 2006  705
[16]  41(B05) 1f 37 26  0  -1052.6  4092002.5  0.6  2 0  839  984  249
[17]  38(B02)  1 10 24  1  -1000.0  4092002.2  0.0  1 0  367  321  578
[19]  59(B23) 1f 44  7  0  -2169.2  4092005.6 -0.0  2 0 1557 2238  996
[32]  80(N-1)  f 35 16  0  -3785.8  1022002.6 -0.0  2 0   165  983  453
[33]  81(N00)  f 40  7  0  -1232.9  1022000.8  0.2  2 0   374  909  638
[34]  82(N01)  f 35  7  0  -3686.8  1022002.3 -0.0  2 0   502  602  266
[48]  41(B05)  1 20 21  1  -1606.1 20460016.1  0.2  1 0  352  134  482
[51]  59(B23)  1  7  7  0  -1610.5 20460035.5 -0.1  1 0  629  403  334
$GNGGA,022500.790,,,,,0,00,,,M,,,,0000*20
$GNRMC,022500.790,A,,,,,,,040419,,*25
$GPGSA,A,1,,,,,,,,,,,,,,,*1E
$BDGSA,A,1,,,,,,,,,,,,,,,*0F
$GLGSA,A,1,,,,,,,,,,,,,,,*02
$GPGSV,2,1,05,03,00,000,45,16,00,000,41,22,00,000,42,23,00,000,41*7D
$GPGSV,2,2,05,26,00,000,43*4F
$BDGSV,1,1,02,05,00,000,37,23,00,000,44*6A
$B3CN0,0,0,0,0,0,0,0,0,0,0,0,0,0,0*4C
---00000023--- Acq_st=3 0  2019-4-4 2:25:1 
[00]  02(G03)  f 44  7  0  -2050.9  2046002.6  0.1  2 0 2251 3453 2023
[01]  15(G16)  f 41  7  0  -4035.8  2046005.2  0.0  2 0  674 1498  765
[02]  21(G22)  f 43  7  0   -804.4  2046001.0 -0.0  2 0  944 1708  810
[03]  22(G23)  f 41  7  0  -4286.0  2046005.5 -0.0  2 0  832 1592  710
[04]  25(G26)  f 43  7  0  -1887.8  2046002.4 -0.0  2 0 1480 2129  744
[16]  41(B05) 1f 38 24  0  -1050.3  4092002.4 -0.1  2 0  876 1276  544
[17]  38(B02)  1 20 10  1   -696.5  4092002.2  0.1  1 0  304  137  300
[18]  46(B10)  1  7  7  0  -1250.0  4092004.0  0.0  1 0  254   76  520
[19]  59(B23) 1f 43  7  0  -2164.8  4092005.6  0.0  2 0 2040 2026  943
[32]  80(N-1)  f 37 20  0  -3780.4  1022002.3 -0.0  2 0   594  789  430
[33]  81(N00)  f 39  7  0  -1230.9  1022000.8 -0.2  2 0    70  560  413
[34]  82(N01)  f 35  7  0  -3688.1  1022002.3 -0.1  2 0   676  854  418
[48]  41(B05)  1 23 24  0  -1498.8 20460023.5 -0.1  1 0  224  580  722
$GNGGA,022501.790,,,,,0,00,,,M,,,,0000*21
$GNRMC,022501.790,A,,,,,,,040419,,*24
$GPGSA,A,1,,,,,,,,,,,,,,,*1E
$BDGSA,A,1,,,,,,,,,,,,,,,*0F
$GLGSA,A,1,,,,,,,,,,,,,,,*02
$GPGSV,2,1,05,03,00,000,44,16,00,000,41,22,00,000,43,23,00,000,41*7D
$GPGSV,2,2,05,26,00,000,43*4F
$BDGSV,1,1,02,05,00,000,38,23,00,000,43*62
$B3CN0,0,0,0,0,0,0,0,0,0,0,0,0,0,0*4C
---00000024--- Acq_st=3 0  2019-4-4 2:25:2 
[00]  02(G03)  f 44  7  0  -2062.8  2046002.6 -0.0  2 0 1951 3410 1678
[01]  15(G16)  f 41  7  0  -4047.5  2046005.2 -0.1  2 0  817 1261  573
[02]  21(G22)  f 42  7  0   -816.6  2046001.0  0.0  2 0  965 1359  293
[03]  22(G23)  f 41  7  0  -4299.5  2046005.5  0.1  2 0 1087 1199  296
[04]  25(G26)  f 42  7  0  -1899.7  2046002.4 -0.0  2 0 1253 1797  778
[16]  41(B05) 1f 37 28  0  -1058.8  4092002.6  0.5  2 0  553  970  687
[17]  38(B02)  1 22 27  1   -977.5  4092004.5  0.0  1 0  210   69  315
[18]  46(B10)  1  7  7  0   -336.9  4092003.8 -0.1  1 0  232  375  353
[19]  59(B23) 1f 43  7  0  -2173.8  4092005.6 -0.0  2 0 1130 2038 1111
[32]  80(N-1) 8f 40 12  0  -3785.4  1022002.3  0.0  2 0   718  731  425
[33]  81(N00) 8f 39  7  0  -1239.6  1022000.7  0.1  2 0   760  970  491
[34]  82(N01) 8f 35  7  0  -3696.7  1022002.3  0.0  2 0   291  488  395
[48]  41(B05)  1 25 25  0  -1625.3 20460023.6 -0.1  1 0  732  982 1044
[51]  59(B23)  1  7  7  0  -1622.2 20460034.5  0.0  1 0  715  809   75
$GNGGA,022502.790,,,,,0,00,,,M,,,,0000*22
$GNRMC,022502.790,A,,,,,,,040419,,*27
$GPGSA,A,1,,,,,,,,,,,,,,,*1E
$BDGSA,A,1,,,,,,,,,,,,,,,*0F
$GLGSA,A,1,,,,,,,,,,,,,,,*02
$GPGSV,2,1,05,03,00,000,44,16,00,000,41,22,00,000,42,23,00,000,41*7C
$GPGSV,2,2,05,26,00,000,42*4E
$BDGSV,1,1,02,05,00,000,37,23,00,000,43*6D
$B3CN0,0,0,0,0,0,0,0,0,0,0,0,0,0,0*4C
---00000025--- Acq_st=3 0  2019-4-4 2:25:3 
[00]  02(G03)  f 45  7  0  -2057.8  2046002.6 -0.0  2 0 1661 2690 1413
[01]  15(G16)  f 41  7  0  -4047.4  2046005.2  0.1  2 0  927 1157  738
[02]  21(G22)  f 42  7  0   -817.4  2046001.0  0.0  2 0  616 1511  882
[03]  22(G23)  f 41  7  0  -4293.1  2046005.5 -0.1  2 0 1070 1432  786
[04]  25(G26)  f 43  7  0  -1893.5  2046002.4  0.1  2 0 1180 1618  498
[16]  41(B05) 1f 38 23  0  -1059.0  4092002.6 -0.8  2 0  882  927  580
[17]  38(B02)  7 26 28  1  -1007.8  4092002.5 -0.0  2 0  414  435  914
[18]  46(B10)  1  7  7  0    272.3  4092004.3 -0.2  1 0   73  181  123
[19]  59(B23) 1f 43  7  0  -2171.1  4092005.6  0.0  2 0 1402 2055  895
[20]  54(B18)  1  7  7  0   -857.3  4092002.7  0.0  1 0  213  342  587
[32]  80(N-1) 8f 41 18  0  -3782.8  1022002.3  0.0  2 0   744 1155  629
[33]  81(N00) 8f 39  7  0  -1236.1  1022000.8 -0.6  2 0   331  679  287
[34]  82(N01) 8f 35  7  0  -3691.1  1022002.3 -0.1  2 0   236  647  342
[51]  59(B23)  1  7  7  0  -1372.1 20460033.5 -0.0  1 0  387  383  449
$GNGGA,022503.790,,,,,0,00,,,M,,,,0000*23
$GNRMC,022503.790,A,,,,,,,040419,,*26
$GPGSA,A,1,,,,,,,,,,,,,,,*1E
$BDGSA,A,1,,,,,,,,,,,,,,,*0F
$GLGSA,A,1,,,,,,,,,,,,,,,*02
$GPGSV,2,1,05,03,00,000,45,16,00,000,41,22,00,000,42,23,00,000,41*7D
$GPGSV,2,2,05,26,00,000,43*4F
$BDGSV,1,1,03,05,00,000,38,02,00,000,26,23,00,000,43*55
$B3CN0,0,0,0,0,0,0,0,0,0,0,0,0,0,0*4C
---00000026--- Acq_st=3 0  2019-4-4 2:25:4 
[00]  02(G03)  f 45  7  0  -2055.2  2046002.6 -0.0  2 0 1707 2925 1435
[01]  15(G16)  f 41 10  0  -4043.0  2046005.2 -0.1  2 0 1309 1888  810
[02]  21(G22)  f 42  7  0   -805.7  2046001.0  0.0  2 0  946 1686  577
[03]  22(G23)  f 41  7  0  -4291.3  2046005.5  0.1  2 0  706 1122  477
[04]  25(G26)  f 42  7  0  -1893.2  2046002.4 -0.0  2 0  768 1535 1074
[16]  41(B05) 1f 36 24  0  -1056.1  4092002.6 -0.1  2 0  923 1075  478
[17]  38(B02)  7 24 27  1  -1019.9  4092002.7 -0.0  2 0  266  532  934
[18]  46(B10)  1  7  7  0    586.4  4092004.7 -0.1  1 0  224  753  494
[19]  59(B23) 1f 43  7  0  -2170.9  4092005.6  0.0  2 0 1748 2376  844
[20]  54(B18)  1  7  7  0  -1052.0  4092003.1 -0.0  1 0  163   90  293
[32]  80(N-1) 8f 43 16  0  -3779.1  1022002.3 -0.1  2 0   982 1354  746
[33]  81(N00) 8f 39  7  0  -1233.7  1022000.7  0.4  2 0   748  976  194
[34]  82(N01) 8f 36  7  0  -3688.5  1022002.3 -0.1  2 0   282  544  648
[48]  41(B05)  1 23 24  0   -522.4 20460016.4  0.1  1 0  336  358  342
[51]  59(B23)  1  7  7  0  -2210.2 20460033.6  0.1  1 0  445  232  994
$GNGGA,022504.790,,,,,0,00,,,M,,,,0000*24
$GNRMC,022504.790,A,,,,,,,040419,,*21
$GPGSA,A,1,,,,,,,,,,,,,,,*1E
$BDGSA,A,1,,,,,,,,,,,,,,,*0F
$GLGSA,A,1,,,,,,,,,,,,,,,*02
$GPGSV,2,1,05,03,00,000,45,16,00,000,41,22,00,000,42,23,00,000,41*7D
$GPGSV,2,2,05,26,00,000,42*4E
$BDGSV,1,1,03,05,00,000,36,02,00,000,24,23,00,000,43*59
$B3CN0,0,0,0,0,0,0,0,0,0,0,0,0,0,0*4C
---00000027--- Acq_st=3 0  2019-4-4 2:25:5 
[00]  02(G03)  f 45  7  0  -2041.8  2046002.6 -0.0  2 0 1489 2488 1095
[01]  15(G16)  f 41 12  0  -4028.5  2046005.2 -0.1  2 0 1044 1377  947
[02]  21(G22)  f 42  7  0   -798.5  2046001.0 -0.0  2 0 1325 1906  921
[03]  22(G23)  f 41  7  0  -4284.2  2046005.5  0.1  2 0  549 1252  445
[04]  25(G26)  f 42  7  0  -1879.4  2046002.4  0.1  2 0  624 1922 1168
[16]  41(B05) 1f 39 31  0  -1047.8  4092002.6  0.2  2 0  734 1023  689
[17]  38(B02)  7 23 28  1  -1001.4  4092002.6  0.1  2 0  294  293  755
[18]  46(B10)  1  7  7  0   1094.9  4092004.3  0.0  1 0  125   76  238
[19]  59(B23) 1f 44  7  0  -2156.6  4092005.6 -0.1  2 0 1786 2417 1134
[20]  54(B18)  1  8  7  0  -1372.3  4092003.1  0.1  1 0  497  397   44
[32]  80(N-1) 8f 43  7  0  -3765.1  1022002.3  0.0  2 0  1169 1730  597
[33]  81(N00) 8f 39  7  0  -1221.3  1022000.7  0.1  2 0   603  822  552
[34]  82(N01) 8f 37  7  0  -3673.8  1022002.3  0.0  2 0   626  646  253
[48]  41(B05)  1 20 23  1   -980.4 20460019.4 -0.2  1 0  491  484  348
[51]  59(B23)  1  7  7  0  -1912.3 20460034.0  0.1  1 0  357  316   92
$GNGGA,022505.790,,,,,0,00,,,M,,,,0000*25
$GNRMC,022505.790,A,,,,,,,040419,,*20
$GPGSA,A,1,,,,,,,,,,,,,,,*1E
$BDGSA,A,1,,,,,,,,,,,,,,,*0F
$GLGSA,A,1,,,,,,,,,,,,,,,*02
$GPGSV,2,1,05,03,00,000,45,16,00,000,41,22,00,000,42,23,00,000,41*7D
$GPGSV,2,2,05,26,00,000,42*4E
$BDGSV,1,1,03,05,00,000,40,02,00,000,23,23,00,000,44*58
$B3CN0,0,0,0,0,0,0,0,0,0,0,0,0,0,0*4C
---00000028--- Acq_st=7 0  2019-4-4 2:25:6 
[00]  02(G03)  f 45  7  0  -2042.7  2046002.6  0.0  2 0 1958 2921 1280
[01]  15(G16)  f 41  7  0  -4029.6  2046005.2 -0.0  2 0  859 1208  483
[02]  21(G22)  f 42  7  0   -798.1  2046000.9  0.0  2 0 1636 1636  379
[03]  22(G23)  f 41  7  0  -4280.5  2046005.5 -0.1  2 0  772 1656 1424
[04]  25(G26)  f 42  7  0  -1879.0  2046002.4  0.0  2 0  999 1801  848
[16]  41(B05) 1f 38 27  0  -1044.3  4092002.6  0.8  2 0 1017  989  208
[17]  38(B02)  7 24 25  1  -1008.8  4092002.5 -0.1  2 0   82  425  814
[19]  59(B23) 1f 43  7  0  -2158.1  4092005.5  0.0  2 0 1721 2586 1143
[20]  54(B18)  1  7  7  0  -1259.3  4092003.5 -0.1  1 0  121  419  395
[32]  80(N-1) 8f 43  7  0  -3766.2  1022002.3 -0.0  2 0   764 1194  735
[33]  81(N00) 8f 39  7  0  -1221.5  1022000.7  0.1  2 0   382  789  377
[34]  82(N01) 8f 37  7  0  -3675.5  1022002.4  0.7  2 0   720 1093  572
[48]  41(B05)  1 21 23  0  -1142.6 20460020.1  0.1  1 0  439  434  258
$GNGGA,022506.790,,,,,0,00,,,M,,,,0000*26
$GNRMC,022506.790,A,,,,,,,040419,,*23
$GPGSA,A,1,,,,,,,,,,,,,,,*1E
$BDGSA,A,1,,,,,,,,,,,,,,,*0F
$GLGSA,A,1,,,,,,,,,,,,,,,*02
$GPGSV,2,1,05,03,00,000,45,16,00,000,41,22,00,000,42,23,00,000,41*7D
$GPGSV,2,2,05,26,00,000,42*4E
$BDGSV,1,1,03,05,00,000,38,02,00,000,24,23,00,000,43*57
$B3CN0,0,0,0,0,0,0,0,0,0,0,0,0,0,0*4C
---00000029--- Acq_st=3 0  2019-4-4 2:25:7 
[00]  02(G03)  f 44  7  0  -2046.6  2046002.6  0.0  2 0 1698 2957 1546
[01]  15(G16)  f 41 13  0  -4039.1  2046005.2 -0.0  2 0  928 1257  569
[02]  21(G22)  f 42  7  0   -804.2  2046000.9 -0.1  2 0  758 1977 1091
[03]  22(G23)  f 41  7  0  -4284.4  2046005.5 -0.0  2 0 1177 1638  630
[04]  25(G26)  f 42  7  0  -1887.1  2046002.4 -0.0  2 0  927 2036 1000
[16]  41(B05) 1f 37 28  0  -1055.6  4092002.5 -0.1  2 0  865  693  192
[17]  38(B02)  7 26 24  0  -1057.6  4092003.0 -0.0  2 0  522  433  758
[19]  59(B23) 1f 43  7  0  -2165.9  4092005.6 -0.1  2 0 1848 1885  683
[32]  80(N-1) 8f 43  7  0  -3772.5  1022002.4  0.0  2 0   682  966  677
[33]  81(N00) 8f 39  7  0  -1227.3  1022000.8 -0.0  2 0   485  786  456
[34]  82(N01) 8f 38  7  0  -3683.2  1022002.3 -0.3  2 0   606 1135  484
[48]  41(B05)  1 23 21  1  -1282.2 20460024.3  0.1  1 0  315  439  481
[51]  59(B23)  1  7  7  0  -2070.8 20460033.2 -0.1  1 0  436  619  641
$GNGGA,022507.790,,,,,0,00,,,M,,,,0000*27
$GNRMC,022507.790,A,,,,,,,040419,,*22
$GPGSA,A,1,,,,,,,,,,,,,,,*1E
$BDGSA,A,1,,,,,,,,,,,,,,,*0F
$GLGSA,A,1,,,,,,,,,,,,,,,*02
$GPGSV,2,1,05,03,00,000,44,16,00,000,41,22,00,000,42,23,00,000,41*7C
$GPGSV,2,2,05,26,00,000,42*4E
$BDGSV,1,1,03,05,00,000,37,02,00,000,26,23,00,000,43*5A
$B3CN0,0,0,0,0,0,0,0,0,0,0,0,0,0,0*4C
---00000030--- Acq_st=3 0  2019-4-4 2:25:8 
[00]  02(G03)  f 44  7  0  -2048.7  2046002.6 -0.0  2 0 1408 2962 1566
[01]  15(G16)  f 40  7  0  -4039.9  2046005.2 -0.0  2 0 1054  907  304
[02]  21(G22)  f 43  7  0   -800.2  2046001.0  0.0  2 0 1403 1918  754
[03]  22(G23)  f 42  7  0  -4288.5  2046005.5 -0.0  2 0 1250 1702  377
[04]  25(G26)  f 42  7  0  -1887.4  2046002.4 -0.0  2 0 1526 2431 1284
[16]  41(B05) 1f 39 29  0  -1047.9  4092002.6 -0.6  2 0  578  827  601
[17]  38(B02)  7 30 25  0  -1062.1  4092003.0 -0.4  2 0  340  802 1152
[19]  59(B23) 1f 43  7  0  -2166.7  4092005.5  0.0  2 0 1588 2544 1105
[32]  80(N-1) 8f 42 13  0  -3773.1  1022002.4 -0.1  2 0   428  876  628
[33]  81(N00) 8f 39  7  0  -1230.0  1022000.8  0.6  2 0   554  550  370
[34]  82(N01) 8f 37  7  0  -3684.1  1022002.3 -0.4  2 0   222  547  362
[51]  59(B23)  1  7 12  0  -1414.2 20460034.7 -0.1  1 0  481  328  516
$GNGGA,022508.790,,,,,0,00,,,M,,,,0000*28
$GNRMC,022508.790,A,,,,,,,040419,,*2D
$GPGSA,A,1,,,,,,,,,,,,,,,*1E
$BDGSA,A,1,,,,,,,,,,,,,,,*0F
$GLGSA,A,1,,,,,,,,,,,,,,,*02
$GPGSV,2,1,05,03,00,000,44,16,00,000,40,22,00,000,43,23,00,000,42*7F
$GPGSV,2,2,05,26,00,000,42*4E
$BDGSV,1,1,03,05,00,000,39,02,00,000,30,23,00,000,43*53
$B3CN0,0,0,0,0,0,0,0,0,0,0,0,0,0,0*4C
$GLGSV,1,1,03,05,00,000,42,15,00,000,39,16,00,000,37*58
---00000031--- Acq_st=3 0  2019-4-4 2:25:9 
[00]  02(G03)  f 44  7  0  -2051.4  2046002.6  0.0  2 0 1727 2774 1301
[01]  15(G16)  f 40  9  0  -4043.3  2046005.2 -0.0  2 0 1034 1564  735
[02]  21(G22)  f 43 11  0   -807.5  2046001.0 -0.0  2 0 1167 2370  975
[03]  22(G23)  f 42  7  0  -4288.4  2046005.5 -0.1  2 0 1008 1637  815
[04]  25(G26)  f 42  7  0  -1886.7  2046002.4  0.0  2 0 1097 1781  828
[16]  41(B05) 1f 39 18  0  -1053.8  4092002.6 -0.8  2 0 1126 1018  444
[17]  38(B02)  f 35 27  0  -1053.6  4092003.1 -0.0  2 0  500  470  939
[19]  59(B23) 1f 43  7  0  -2169.6  4092005.6 -0.0  2 0 1727 1995  723
[32]  80(N-1) 8f 42  9  0  -3776.3  1022002.4  0.1  2 0   688  919  507
[33]  81(N00) 8f 38  7  0  -1232.6  1022000.8  0.8  2 0   676  842  528
[34]  82(N01) 8f 37  7  0  -3686.3  1022002.3  0.5  2 0  1021 1000  308
[48]  41(B05)  1 22 25  1  -1474.1 20460019.6  0.0  1 0  632  333  176
[51]  59(B23)  1  7  7  0  -1071.7 20460032.5  0.0  1 0  511  504  572
$GNGGA,022509.790,,,,,0,00,,,M,,,,0000*29
$GNRMC,022509.790,A,,,,,,,040419,,*2C
$GPGSA,A,1,,,,,,,,,,,,,,,*1E
$BDGSA,A,1,,,,,,,,,,,,,,,*0F
$GLGSA,A,1,,,,,,,,,,,,,,,*02
$GPGSV,2,1,05,03,00,000,44,16,00,000,40,22,00,000,43,23,00,000,42*7F
$GPGSV,2,2,05,26,00,000,42*4E
$BDGSV,1,1,03,05,00,000,39,02,00,000,35,23,00,000,43*56
$B3CN0,0,0,0,0,0,0,0,0,0,0,0,0,0,0*4C
$GLGSV,1,1,03,05,00,000,42,15,00,000,38,16,00,000,37*59
---00000032--- Acq_st=3 0  2019-4-4 2:25:10 
[00]  02(G03)  f 44  7  0  -2050.4  2046002.6 -0.0  2 0 1486 2625 1241
[01]  15(G16)  f 41  8  0  -4037.8  2046005.1  0.0  2 0 1368 1163  299
[02]  21(G22)  f 43  7  0   -803.7  2046001.0 -0.0  2 0 1791 2352  704
[03]  22(G23)  f 43  7  0  -4292.8  2046005.5  0.0  2 0 1323 2080 1231
[04]  25(G26)  f 42  7  0  -1889.3  2046002.4 -0.0  2 0 1064 1764  714
[16]  41(B05) 1f 37 28  0  -1055.8  4092002.6 -0.8  2 0  389  620  170
[17]  38(B02)  f 37 25  0  -1057.1  4092002.8 -0.0  2 0  693  997  585
[18]  46(B10)  1  7  7  0  -1500.0  4092004.6 -0.0  1 0  653 1058  825
[19]  59(B23) 1f 44  7  0  -2169.5  4092005.6 -0.1  2 0 1509 2203  785
[32]  80(N-1) 8f 40 15  0  -3775.4  1022002.4  0.0  2 0   661 1010  615
[33]  81(N00) 8f 38  7  0  -1231.5  1022000.8  0.5  2 0   640  982  698
[34]  82(N01) 8f 37  7  0  -3684.9  1022002.3 -0.1  2 0   240  414   65
[48]  41(B05)  1 22 24  1  -1396.0 20460020.5 -0.1  1 0  260   20   61
[51]  59(B23)  1  7  7  0  -1432.7 20460034.6  0.1  1 0  559  447  617
$GNGGA,022510.663,2944.9065,N,10633.0650,E,1,06,3.5,325.3,M,,,,0000*14
$GNRMC,022510.663,A,2944.9065,N,10633.0650,E,0.18,0.00,040419,,*1E
$GPGSA,A,3,03,16,23,,,,,,,,,,4.4,3.5,2.7*34
$BDGSA,A,3,,,,,,,,,,,,,4.4,3.5,2.7*20
$GLGSA,A,3,06,16,17,,,,,,,,,,4.4,3.5,2.7*2A
$GPGSV,2,1,05,03,00,000,44,16,00,000,41,22,00,000,43,23,00,000,43*7F
$GPGSV,2,2,05,26,00,000,42*4E
$BDGSV,1,1,03,05,00,000,37,02,00,000,37,23,00,000,44*5D
$B3CN0,0,0,0,0,0,0,0,0,0,0,0,0,0,0*4C
$GLGSV,1,1,03,05,00,000,40,15,00,000,38,16,00,000,37*5B
---00000033--- Acq_st=3 0  2019-4-4 2:25:11 
[00]  02(G03)  f 44  7  0  -2041.5  2046002.6  0.0  2 0 1645 2561 1097
[01]  15(G16)  f 42  9  0  -4030.6  2046005.1  0.2  2 0 1010 1350  553
[02]  21(G22)  f 43  7  0   -796.0  2046001.0 -0.0  2 0 1140 2019  734
[03]  22(G23)  f 42  7  0  -4283.9  2046005.5  0.0  2 0  676 1423  960
[04]  25(G26)  f 42  7  0  -1880.0  2046002.4 -0.1  2 0 1307 2095  828
[16]  41(B05) 1f 38 29  0  -1047.2  4092002.7  0.1  2 0 1148 1358  874
[17]  38(B02)  f 39 27  0  -1047.4  4092002.8 -0.0  2 0  519  889  579
[18]  46(B10)  1  7  7  0  -1323.1  4092003.3  0.4  1 0  942 1032  230
[19]  59(B23) 1f 44  9  0  -2161.9  4092005.5  0.0  2 0 1814 2109  960
[32]  80(N-1) 8f 40  7  0  -3767.9  1022002.4  0.1  2 0   522  951  240
[33]  81(N00) 8f 38  7  0  -1223.4  1022000.7  0.5  2 0   378 1095  665
[34]  82(N01) 8f 36  7  0  -3680.3  1022002.3  0.2  2 0   349  616   13
[48]  41(B05)  1 22 23  1  -1376.9 20460022.0  0.0  1 0  476 1142  937
[49]  38(B02)  1 10 36  1  -1098.4 20460016.2  0.0  1 0  247  657  841
Refix G03: 2, 354329.925357, -2043
Refix G16: 2, 354329.928033, -4030
Refix G23: 2, 354329.915182, -4282
$GNGGA,022512.000,2944.9126,N,10633.0690,E,1,06,1.4,333.9,M,,,,0000*11
$GNRMC,022512.000,A,2944.9126,N,10633.0690,E,0.77,0.00,040419,,*1C
$GPGSA,A,3,03,16,23,,,,,,,,,,1.8,1.4,1.1*3B
$BDGSA,A,3,,,,,,,,,,,,,1.8,1.4,1.1*2F
$GLGSA,A,3,05,15,16,,,,,,,,,,1.8,1.4,1.1*24
$GPGSV,2,1,05,03,00,000,44,16,00,000,42,22,00,000,43,23,00,000,42*7D
$GPGSV,2,2,05,26,00,000,42*4E
$BDGSV,1,1,03,05,00,000,38,02,00,000,38,23,00,000,44*5D
$B3CN0,0,0,0,0,0,0,0,0,0,0,0,0,0,0*4C
$GLGSV,1,1,03,05,00,000,40,15,00,000,38,16,00,000,36*5A
---00000034--- Acq_st=3 0  2019-4-4 2:25:12 
[00]  02(G03)  f 44  7  0  -2054.1  2046002.6 -0.0  2 0 1880 2740 1464
[01]  15(G16)  f 41  7  0  -4043.0  2046005.2  0.0  2 0 1229 1759 1149
[02]  21(G22)  f 43  7  0   -808.7  2046001.0  0.0  2 0 1095 1920  681
[03]  22(G23)  f 42  7  0  -4298.7  2046005.5 -0.0  2 0 1110 1714  736
[04]  25(G26)  f 42  7  0  -1890.7  2046002.4  0.1  2 0 1564 2075  750
[16]  41(B05) 1f 38 22  0  -1061.7  4092002.7 -0.8  2 0  955 1184  687
[17]  38(B02) 1f 40 26  0  -1061.4  4092002.8 -0.5  2 0  927 1228  580
[18]  46(B10)  7 33  7  0  -1335.7  4092003.4 -0.1  5 0  467  719  461
[19]  59(B23) 1f 44  7  0  -2174.3  4092005.6 -0.1  2 0 1416 1557  777
[32]  80(N-1) 8f 40 13  0  -3781.7  1022002.4 -0.1  2 0   842 1129  670
[33]  81(N00) 8f 39  7  0  -1235.8  1022000.7 -0.4  2 0   640 1247  490
[34]  82(N01) 8f 35  7  0  -3694.8  1022002.3 -0.1  2 0     4  310  213
[48]  41(B05)  1 19 22  0  -1271.5 20460023.3  0.0  1 0  411  165  523
[49]  38(B02)  1 14 20  0  -1173.9 20460025.1  0.1  1 0  409  144  349
[51]  59(B23)  1  7  7  0  -1647.2 20460034.2 -0.0  1 0  391   49  370
Refix G03: 2, 354330.925359, -2055
Refix G16: 2, 354330.928035, -4040
Refix G23: 2, 354330.915185, -4293
$GNGGA,022513.000,2944.9130,N,10633.0686,E,1,06,1.4,330.7,M,,,,0000*1D
$GNRMC,022513.000,A,2944.9130,N,10633.0686,E,2.56,10390.44,,,*1F
$GPGSA,A,3,03,16,23,,,,,,,,,,1.8,1.4,1.1*3B
$BDGSA,A,3,,,,,,,,,,,,,1.8,1.4,1.1*2F
$GLGSA,A,3,05,15,16,,,,,,,,,,1.8,1.4,1.1*24
$GPGSV,2,1,05,03,34,294,44,16,42,210,41,22,00,000,43,23,07,313,42*75
$GPGSV,2,2,05,26,00,000,42*4E
$BDGSV,1,1,04,05,00,000,38,02,00,000,40,10,00,000,33,23,00,000,44*64
$B3CN0,0,0,0,0,0,0,0,0,0,0,0,0,0,0*4C
$GLGSV,1,1,03,05,47,324,40,15,54,296,39,16,15,249,35*59
---00000035--- Acq_st=2 0  2019-4-4 2:25:13 
[00]  02(G03)  f 44  7  0  -2056.7  2046002.6  0.0  2 0 1635 2631 1269
[01]  15(G16)  f 42  7  0  -4046.2  2046005.2 -0.0  2 0 1091 1518 1065
[02]  21(G22)  f 43  7  0   -810.7  2046001.0  0.0  2 0 1042 1715  825
[03]  22(G23)  f 42  7  0  -4297.9  2046005.5  0.0  2 0 1250 1959  924
[04]  25(G26)  f 43  7  0  -1892.9  2046002.4  0.0  2 0 1018 1777  628
[16]  41(B05) 1f 37 27  0  -1065.5  4092002.6 -0.4  2 0 1008 1155  492
[17]  38(B02) 1f 39 22  0  -1063.0  4092002.7  0.2  2 0  447  623  584
[18]  46(B10)  7 38 10  0  -1338.3  4092003.4  0.2  2 0  775  738  523
[19]  59(B23) 1f 44  7  0  -2176.1  4092005.6  0.1  2 0 1207 2143 1000
[20]  68(B32)  1  7  7  0  -3500.0  4092006.9  0.0  1 0 1017  567  323
[32]  80(N-1) 8f 41 16  0  -3781.9  1022002.3  0.2  2 0   686  875  552
[33]  81(N00) 8f 38  7  0  -1239.1  1022000.8  0.4  2 0   569  738  551
[34]  82(N01) 8f 34  7  0  -3695.0  1022002.4 -0.1  2 0   309  428  284
[49]  38(B02)  1 10 36  1  -1585.7 20460025.2  0.2  1 0  550  398  469
[51]  59(B23)  1  7  7  0  -2050.7 20460032.7 -0.1  1 0  638  356  376
Refix G03: 2, 354331.925360, -2052
Refix G16: 2, 354331.928038, -4038
Refix G23: 2, 354331.915187, -4292
$GNGGA,022514.000,2944.9128,N,10633.0670,E,1,06,1.4,328.8,M,,,,0000*1C
$GNRMC,022514.000,A,2944.9128,N,10633.0670,E,1.60,10390.44,,,*1E
$GPGSA,A,3,03,16,23,,,,,,,,,,1.8,1.4,1.1*3B
$BDGSA,A,3,,,,,,,,,,,,,1.8,1.4,1.1*2F
$GLGSA,A,3,05,15,16,,,,,,,,,,1.8,1.4,1.1*24
$GPGSV,2,1,05,03,34,294,44,16,42,210,42,22,00,000,43,23,07,313,42*76
$GPGSV,2,2,05,26,00,000,43*4F
$BDGSV,1,1,04,05,00,000,38,02,00,000,39,10,00,000,38,23,00,000,44*61
$B3CN0,0,0,0,0,0,0,0,0,0,0,0,0,0,0*4C
$GLGSV,1,1,03,05,47,324,41,15,54,296,38,16,15,249,34*58
---00000036--- Acq_st=7 0  2019-4-4 2:25:14 
[00]  02(G03)  f 44  7  0  -2050.2  2046002.6  0.0  2 0 1448 2735 1400
[01]  15(G16)  f 41 13  0  -4034.7  2046005.2 -0.0  2 0  888 1989 1100
[02]  21(G22)  f 43  7  0   -802.7  2046001.0  0.0  2 0 1399 1881  720
[03]  22(G23)  f 42  7  0  -4292.5  2046005.5  0.1  2 0 1110 1347  242
[04]  25(G26)  f 43  7  0  -1886.2  2046002.4  0.0  2 0 1621 2143 1077
[16]  41(B05) 1f 38 28  0  -1053.0  4092002.6 -0.6  2 0  751  953  175
[17]  38(B02) 1f 39 30  0  -1056.5  4092002.8 -0.7  2 0  883  950  518
[18]  46(B10)  7 38  7  0  -1331.7  4092003.4  0.2  2 0 1072 1050  664
[19]  59(B23) 1f 44  7  0  -2166.6  4092005.6 -0.1  2 0 1471 2036  769
[20]  68(B32)  1  7  7  0  -3291.6  4092008.3  0.3  1 0  634 1671 1574
[32]  80(N-1) 8f 41 15  0  -3774.4  1022002.4 -0.2  2 0   979 1384  505
[33]  81(N00) 8f 39  7  0  -1229.9  1022000.8  0.8  2 0   653  938  718
[34]  82(N01) 8f 33  7  0  -3689.3  1022002.3 -0.1  2 0   555  608  383
[48]  41(B05)  1 24 26  1   -916.6 20460022.6  0.0  1 0  697  632  424
[49]  38(B02)  1 10 10  1  -1471.6 20460017.2  0.1  1 0  759  165  360
[51]  59(B23)  1  7  7  0  -1621.9 20460035.7 -0.1  1 0  348  217  172
Refix G03: 2, 354332.925361, -2049
Refix G16: 2, 354332.928040, -4036
Refix G23: 2, 354332.915190, -4289
$GNGGA,022515.000,2944.9112,N,10633.0626,E,1,06,1.4,325.3,M,,,,0000*11
$GNRMC,022515.000,A,2944.9112,N,10633.0626,E,1.40,10390.44,,,*17
$GPGSA,A,3,03,16,23,,,,,,,,,,1.8,1.4,1.1*3B
$BDGSA,A,3,23,,,,,,,,,,,,1.8,1.4,1.1*2E
$GLGSA,A,3,05,15,,,,,,,,,,,1.8,1.4,1.1*23
$GPGSV,2,1,05,03,34,294,44,16,42,210,41,22,00,000,43,23,07,313,42*75
$GPGSV,2,2,05,26,00,000,43*4F
$BDGSV,1,1,04,05,00,000,38,02,00,000,39,10,00,000,38,23,00,000,44*61
$B3CN0,0,0,0,0,0,0,0,0,0,0,0,0,0,0*4C
$GLGSV,1,1,03,05,47,324,41,15,54,296,39,16,15,249,33*5E
---00000037--- Acq_st=7 0  2019-4-4 2:25:15 
[00]  02(G03)  f 44  7  0  -2049.8  2046002.6 -0.1  2 0 1900 2942 1395
[01]  15(G16)  f 41  7  0  -4037.4  2046005.2 -0.0  2 0 1371 1601  710
[02]  21(G22)  f 42  7  0   -803.9  2046001.0  0.0  2 0  622 1637  746
[03]  22(G23)  f 42  7  0  -4293.8  2046005.5 -0.1  2 0  918 1690 1007
[04]  25(G26)  f 43  7  0  -1887.8  2046002.4 -0.0  2 0 1426 2113 1158
[16]  41(B05) 1f 37 10  0  -1057.1  4092002.7 -0.8  2 0  616  819  575
[17]  38(B02) 1f 39 23  0  -1063.8  4092002.6  0.9  2 0  988  770   67
[18]  46(B10) 1f 38  8  0  -1332.7  4092003.4  0.1  2 0  975 1335  241
[19]  59(B23) 1f 44  8  0  -2168.7  4092005.6  0.0  2 0 2066 2259  905
[20]  68(B32)  7 31  7  0  -3295.6  4092008.7  0.2  5 0 1026 1583 1316
[32]  80(N-1) 8f 42  7  0  -3776.2  1022002.4  0.1  2 0   452  910  627
[33]  81(N00) 8f 38  7  0  -1228.8  1022000.8 -0.2  2 0   294  867  486
[34]  82(N01) 8f 33  7  0  -3686.4  1022002.4  0.0  2 0   196  238  455
[48]  41(B05)  1 24 23  0  -1066.4 20460017.1 -0.0  1 0  419  676  558
[51]  59(B23)  1  7  7  0  -1141.4 20460033.6 -0.0  1 0  265  765  319
Refix G03: 2, 354333.925362, -2051
Refix G16: 2, 354333.928043, -4039
Refix G23: 2, 354333.915193, -4292
$GNGGA,022516.000,2944.9111,N,10633.0617,E,1,07,1.4,325.5,M,,,,0000*14
$GNRMC,022516.000,A,2944.9111,N,10633.0617,E,0.56,10390.44,,,*13
$GPGSA,A,3,03,16,23,,,,,,,,,,1.7,1.4,1.0*35
$BDGSA,A,3,23,,,,,,,,,,,,1.7,1.4,1.0*20
$GLGSA,A,3,05,15,16,,,,,,,,,,1.7,1.4,1.0*2A
$GPGSV,2,1,05,03,34,294,44,16,42,210,41,22,00,000,42,23,07,313,42*74
$GPGSV,2,2,05,26,00,000,43*4F
$BDGSV,2,1,05,05,00,000,37,02,00,000,39,10,00,000,38,23,44,277,44*6E
$BDGSV,2,2,05,32,00,000,31*5E
$B3CN0,0,0,0,0,0,0,0,0,0,0,0,0,0,0*4C
$GLGSV,1,1,03,05,47,324,42,15,54,296,38,16,15,249,33*5C
---00000038--- Acq_st=3 0  2019-4-4 2:25:16 
[00]  02(G03)  f 44  7  0  -2049.8  2046002.6  0.0  2 0 1534 3026 1447
[01]  15(G16)  f 41 10  0  -4041.2  2046005.2  0.1  2 0  606 1437  828
[02]  21(G22)  f 42  7  0   -804.0  2046001.0 -0.0  2 0 1087 1588  648
[03]  22(G23)  f 42  7  0  -4296.7  2046005.5 -0.0  2 0  692 1824  924
[04]  25(G26)  f 43  7  0  -1886.0  2046002.4 -0.0  2 0  710 1640 1012
[16]  41(B05) 1f 38 27  0  -1057.1  4092002.6 -0.1  2 0 1223  813  374
[17]  38(B02) 1f 40 23  0  -1055.4  4092002.8  0.8  2 0  439 1264  860
[18]  46(B10) 1f 39  7  0  -1331.1  4092003.3  0.5  2 0  908  919  462
[19]  59(B23) 1f 44  7  0  -2169.5  4092005.5  0.0  2 0 2153 2857 1257
[20]  68(B32)  7 39  7  0  -3294.7  4092008.6  0.0  2 0  665  976  631
[32]  80(N-1) 8f 41 14  0  -3774.5  1022002.4  0.3  2 0   344  929  614
[33]  81(N00) 8f 39  7  0  -1229.5  1022000.8  0.6  2 0   623  942  377
[34]  82(N01) 8f 33  7  0  -3687.2  1022002.3 -0.1  5 0   647  908  321
[48]  41(B05)  1 22 20  1  -1335.1 20460023.7 -0.0  1 0  734  281  305
[49]  38(B02)  1 10 10  1  -1620.3 20460021.6  0.1  1 0  135  210  500
[50]  46(B10)  1  7  7  0   -875.6 20460021.1  0.1  1 0  468  514  403
Refix G03: 2, 354334.925364, -2045
Refix G16: 2, 354334.928045, -4034
Refix G23: 2, 354334.915196, -4289
$GNGGA,022517.000,2944.9113,N,10633.0613,E,1,07,1.4,326.0,M,,,,0000*15
$GNRMC,022517.000,A,2944.9113,N,10633.0613,E,0.78,10390.44,,,*18
$GPGSA,A,3,03,16,23,,,,,,,,,,1.7,1.4,1.0*35
$BDGSA,A,3,23,,,,,,,,,,,,1.7,1.4,1.0*20
$GLGSA,A,3,05,15,16,,,,,,,,,,1.7,1.4,1.0*2A
$GPGSV,2,1,05,03,34,294,44,16,42,210,41,22,00,000,42,23,07,313,42*74
$GPGSV,2,2,05,26,00,000,43*4F
$BDGSV,2,1,05,05,00,000,38,02,00,000,40,10,00,000,39,23,44,277,44*6E
$BDGSV,2,2,05,32,00,000,39*56
$B3CN0,0,0,0,0,0,0,0,0,0,0,0,0,0,0*4C
$GLGSV,1,1,03,05,47,324,41,15,54,296,39,16,15,249,33*5E
---00000039--- Acq_st=3 0  2019-4-4 2:25:17 
[00]  02(G03)  f 44  7  0  -2038.2  2046002.6  0.0  2 0 1083 2555 1508
[01]  15(G16)  f 41  7  0  -4029.6  2046005.2 -0.0  2 0  850 1486  984
[02]  21(G22)  f 43  7  0   -795.5  2046001.0  0.0  2 0 1108 1371  347
[03]  22(G23)  f 42  7  0  -4283.3  2046005.5 -0.1  2 0 1022 1362  740
[04]  25(G26)  f 43  7  0  -1877.2  2046002.3  0.0  2 0 1291 2086 1452
[16]  41(B05) 1f 38 26  0  -1046.7  4092002.7 -0.5  2 0  866 1643 1059
[17]  38(B02) 1f 39 30  0  -1045.9  4092002.7  0.7  2 0 1010 1169  341
[18]  46(B10) 1f 38  8  0  -1316.0  4092003.3  0.3  2 0  222 1021  714
[19]  59(B23) 1f 44  7  0  -2158.7  4092005.5 -0.0  2 0 2121 2537  736
[20]  68(B32)  7 38  7  0  -3283.8  4092008.6 -0.3  2 0  606  932  781
[32]  80(N-1) 8f 40  7  0  -3764.0  1022002.4 -0.1  2 0   593  917  325
[33]  81(N00) 8f 39  7  0  -1220.1  1022000.7 -0.1  2 0   942 1464  618
[34]  82(N01) 8f 33  7  0  -3676.8  1022002.4 -0.0  5 0   216  635  422
[48]  41(B05)  1 24 25  1  -1069.3 20460020.5  0.2  1 0  323  233  293
[49]  38(B02)  1 10 18  0  -2342.9 20460013.1  0.0  1 0  285  374  171
[50]  46(B10)  1  7  7  0   -942.3 20460018.3  0.0  1 0  376  486  482
[51]  59(B23)  1  7  7  0  -2017.4 20460032.8 -0.2  1 0  204   82  215
Refix G03: 2, 354335.925365, -2043
Refix G16: 2, 354335.928048, -4032
Refix G23: 2, 354335.915198, -4288
$GNGGA,022518.000,2944.9115,N,10633.0614,E,1,07,1.4,325.4,M,,,,0000*1C
$GNRMC,022518.000,A,2944.9115,N,10633.0614,E,1.60,10390.44,,,*1E
$GPGSA,A,3,03,16,23,,,,,,,,,,1.7,1.4,1.0*35
$BDGSA,A,3,23,,,,,,,,,,,,1.7,1.4,1.0*20
$GLGSA,A,3,05,15,16,,,,,,,,,,1.7,1.4,1.0*2A
$GPGSV,2,1,05,03,34,294,44,16,42,210,40,22,00,000,43,23,07,313,42*74
$GPGSV,2,2,05,26,00,000,43*4F
$BDGSV,2,1,05,05,00,000,38,02,00,000,39,10,00,000,38,23,44,277,44*61
$BDGSV,2,2,05,32,00,000,38*57
$B3CN0,0,0,0,0,0,0,0,0,0,0,0,0,0,0*4C
$GLGSV,1,1,03,05,47,324,40,15,54,296,39,16,15,249,33*5F
---00000040--- Acq_st=3 0  2019-4-4 2:25:18 
[00]  02(G03)  f 45  7  0  -2041.4  2046002.6  0.0  2 0 1547 2561 1284
[01]  15(G16)  f 41 12  0  -4033.3  2046005.1  0.0  2 0  879 1592  924
[02]  21(G22)  f 43  7  0   -796.7  2046001.0 -0.0  2 0 1030 1701  890
[03]  22(G23)  f 41  7  0  -4289.7  2046005.5  0.0  2 0  944 1579  751
[04]  25(G26)  f 44  7  0  -1878.6  2046002.4 -0.0  2 0 1606 2171  695
[16]  41(B05) 1f 39 17  0  -1052.9  4092002.7  0.7  2 0 1153 1450  462
[17]  38(B02) 1f 39 22  0  -1050.6  4092002.7 -0.5  2 0  626  835  109
[18]  46(B10) 1f 38  7  0  -1325.7  4092003.4  0.0  2 0  676  914  348
[19]  59(B23) 1f 44  7  0  -2162.7  4092005.5 -0.0  2 0 2179 2501 1215
[20]  68(B32)  7 37  7  0  -3294.2  4092008.8  0.7  2 0  418  996  667
[32]  80(N-1) 8f 40  7  0  -3767.0  1022002.4  0.0  2 0   330  995  533
[33]  81(N00) 8f 39  7  0  -1224.8  1022000.8 -0.0  2 0   385  532  485
[34]  82(N01) 8f 34  7  0  -3680.5  1022002.3 -0.1  5 0   209  362  349
[49]  38(B02)  1 19 36  1  -2099.5 20460017.1 -0.2  1 0  376  196  318
[50]  46(B10)  1  7  7  0  -1077.9 20460020.8  0.1  1 0  187  581  582
[51]  59(B23)  1  7 11  0  -1789.2 20460034.6 -0.1  1 0   77  122  100
Refix G03: 2, 354336.925366, -2041
Refix G16: 2, 354336.928050, -4029
Refix G23: 2, 354336.915201, -4288
Refix G26: 2, 354336.932754, -1879
$GNGGA,022519.000,2944.9121,N,10633.0611,E,1,08,1.2,325.1,M,,,,0000*13
$GNRMC,022519.000,A,2944.9121,N,10633.0611,E,1.66,10390.44,,,*1B
$GPGSA,A,3,03,16,23,26,,,,,,,,,1.5,1.2,0.8*3C
$BDGSA,A,3,23,,,,,,,,,,,,1.5,1.2,0.8*2D
$GLGSA,A,3,05,15,16,,,,,,,,,,1.5,1.2,0.8*27
$GPGSV,2,1,05,03,34,294,45,16,42,210,41,22,00,000,43,23,07,313,41*77
$GPGSV,2,2,05,26,00,000,44*48
$BDGSV,2,1,05,05,00,000,39,02,00,000,39,10,00,000,38,23,44,277,44*60
$BDGSV,2,2,05,32,00,000,37*58
$B3CN0,0,0,0,0,0,0,0,0,0,0,0,0,0,0*4C
$GLGSV,1,1,03,05,47,324,40,15,54,296,39,16,15,249,34*58
---00000041--- Acq_st=3 0  2019-4-4 2:25:19 
[00]  02(G03)  f 45  7  0  -2041.2  2046002.6 -0.1  2 0 1375 2525 1296
[01]  15(G16)  f 42 10  0  -4027.9  2046005.2 -0.1  2 0  856 1596  995
[02]  21(G22)  f 43  7  0   -792.6  2046001.0 -0.1  2 0  979 1519  643
[03]  22(G23)  f 42  8  0  -4286.0  2046005.5 -0.0  2 0 1188 2120  715
[04]  25(G26)  f 43  7  0  -1877.1  2046002.3  0.0  2 0 1364 1900  967
[16]  41(B05) 1f 38 28  0  -1041.5  4092002.7 -0.8  2 0  761 1170   15
[17]  38(B02) 1f 38 28  0  -1047.1  4092002.6 -0.7  2 0  877  761  264
[18]  46(B10) 1f 38 10  0  -1327.0  4092003.3  0.1  2 0  837 1121  426
[19]  59(B23) 1f 43  7  0  -2159.4  4092005.5 -0.0  2 0 1788 2501 1267
[20]  68(B32)  7 37  7  0  -3292.9  4092008.7  0.2  2 0  516  884  624
[32]  80(N-1) 8f 40  7  0  -3767.0  1022002.4  0.7  2 0   505 1102  494
[33]  81(N00) 8f 39  7  0  -1222.4  1022000.7  0.5  2 0   253  792  437
[34]  82(N01) 8f 35  7  0  -3678.4  1022002.2  0.0  5 0   294  587  324
[48]  41(B05)  1 24 22  0   -828.7 20460017.6  0.1  1 0  716  270  371
[49]  38(B02)  1 36 19  0  -1918.4 20460022.1  0.0  1 0  471  244 1059
[50]  46(B10)  1  7  7  0   -741.1 20460020.6 -0.1  1 0  492  639  392
[51]  59(B23)  1  7  7  0  -1798.0 20460036.6 -0.1  1 0  232  326  344
Refix G03: 2, 354337.925367, -2038
Refix G16: 2, 354337.928053, -4027
Refix G23: 2, 354337.915204, -4285
Refix G26: 2, 354337.932755, -1875
$GNGGA,022520.000,2944.9133,N,10633.0611,E,1,08,1.2,325.0,M,,,,0000*1B
$GNRMC,022520.000,A,2944.9133,N,10633.0611,E,1.50,10390.44,,,*17
$GPGSA,A,3,03,16,23,26,,,,,,,,,1.5,1.2,0.8*3C
$BDGSA,A,3,23,,,,,,,,,,,,1.5,1.2,0.8*2D
$GLGSA,A,3,05,15,16,,,,,,,,,,1.5,1.2,0.8*27
$GPGSV,2,1,05,03,34,294,45,16,42,210,42,22,00,000,43,23,07,313,42*77
$GPGSV,2,2,05,26,77,213,43*4F
$BDGSV,2,1,05,05,00,000,38,02,00,000,38,10,00,000,38,23,44,277,43*67
$BDGSV,2,2,05,32,00,000,37*58
$B3CN0,0,0,0,0,0,0,0,0,0,0,0,0,0,0*4C
$GLGSV,1,1,03,05,47,324,40,15,54,296,39,16,15,249,35*59
---00000042--- Acq_st=3 0  2019-4-4 2:25:20 
[00]  02(G03)  f 45  9  0  -2034.3  2046002.6 -0.0  2 0 1694 2735 1513
[01]  15(G16)  f 42 13  0  -4020.0  2046005.2  0.0  2 0 1129 2028 1031
[02]  21(G22)  f 43  7  0   -785.9  2046000.9  0.0  2 0  951 2030 1199
[03]  22(G23)  f 41  9  0  -4279.8  2046005.5 -0.0  2 0 1181 1887  691
[04]  25(G26)  f 43  7  0  -1864.0  2046002.4 -0.1  2 0 1465 2271 1373
[16]  41(B05) 1f 37 28  0  -1041.3  4092002.8  0.5  2 0  659  800  255
[17]  38(B02) 1f 39 28  0  -1047.2  4092002.6  0.8  2 0  933 1052  443
[18]  46(B10) 1f 38  7  0  -1312.6  4092003.3 -0.1  2 0  613  662  434
[19]  59(B23) 1f 43  7  0  -2150.8  4092005.5  0.0  2 0 1351 2152  902
[20]  68(B32)  7 37  7  0  -3279.8  4092008.5 -0.1  2 0  578  680  378
[21]  54(B18)  1  7  7  0  -1250.0  4092003.7 -0.1  1 0  695 1124  591
[32]  80(N-1) 8f 39  7  0  -3758.4  1022002.4 -0.3  2 0   386 1041  391
[33]  81(N00) 8f 39  7  0  -1214.0  1022000.7  0.2  2 0   754  774  233
[34]  82(N01) 8f 35  7  0  -3670.5  1022002.3  0.0  2 0   114  647  601
[48]  41(B05)  1 24 14  0   -452.1 20460023.8 -0.0  1 0  321  171  201
[51]  59(B23)  1  7  7  0  -1268.3 20460035.1  0.0  1 0  818  337   65
Refix G03: 2, 354338.925369, -2040
Refix G16: 2, 354338.928055, -4029
Refix G23: 2, 354338.915206, -4288
Refix G26: 2, 354338.932757, -1876
$GNGGA,022521.000,2944.9154,N,10633.0618,E,1,08,1.2,324.5,M,,,,0000*16
$GNRMC,022521.000,A,2944.9154,N,10633.0618,E,0.90,10390.44,,,*13
$GPGSA,A,3,03,16,23,26,,,,,,,,,1.5,1.2,0.8*3C
$BDGSA,A,3,23,,,,,,,,,,,,1.5,1.2,0.8*2D
$GLGSA,A,3,05,15,16,,,,,,,,,,1.5,1.2,0.8*27
$GPGSV,2,1,05,03,34,294,45,16,42,210,42,22,00,000,43,23,07,313,41*74
$GPGSV,2,2,05,26,77,213,43*4F
$BDGSV,2,1,05,05,00,000,37,02,00,000,39,10,00,000,38,23,44,277,43*69
$BDGSV,2,2,05,32,00,000,37*58
$B3CN0,0,0,0,0,0,0,0,0,0,0,0,0,0,0*4C
$GLGSV,1,1,03,05,47,324,39,15,54,296,39,16,15,249,35*57
---00000043--- Acq_st=3 0  2019-4-4 2:25:21 
[00]  02(G03)  f 44  7  0  -2044.0  2046002.6  0.1  2 0 1568 2672 1111
[01]  15(G16)  f 42  7  0  -4033.8  2046005.2 -0.0  2 0 1285 1528 1009
[02]  21(G22)  f 43  7  0   -796.7  2046001.0  0.0  2 0  974 2098 1125
[03]  22(G23)  f 41  7  0  -4289.7  2046005.5  0.0  2 0 1006 1502 1057
[04]  25(G26)  f 43  7  0  -1880.0  2046002.4 -0.0  2 0 1359 1983  934
[16]  41(B05) 1f 37 16  0  -1056.5  4092002.5 -0.6  2 0 1077  806  311
[17]  38(B02) 1f 38 23  0  -1058.4  4092002.6  0.6  2 0  696  972  505
[18]  46(B10) 1f 38  7  0  -1324.7  4092003.4  0.2  2 0  647  815  529
[19]  59(B23) 1f 43  8  0  -2162.5  4092005.5  0.0  2 0 1613 2489 1315
[20]  68(B32) 1f 37  7  0  -3288.8  4092008.4  0.3  2 0  972 1008  188
[21]  54(B18)  1  7  7  0  -1060.9  4092002.4  0.4  1 0  986 1251  739
[32]  80(N-1) 8f 40  7  0  -3769.3  1022002.3 -0.0  2 0   645 1117  774
[33]  81(N00) 8f 38  7  0  -1223.4  1022000.8  0.0  2 0    22  463  486
[34]  82(N01) 8f 36  7  0  -3683.3  1022002.2  0.0  2 0   176  476  468
[48]  41(B05)  1 24 22  0    -90.3 20460020.7  0.0  1 0  471  535  734
[49]  38(B02)  1 18 19  0  -1343.1 20460016.7  0.2  1 0  683  783  583
[50]  46(B10)  1  7  7  0  -1280.5 20460019.9 -0.1  1 0  524  540  363
Refix G03: 2, 354339.925370, -2044
Refix G16: 2, 354339.928058, -4033
Refix G23: 2, 354339.915209, -4291
Refix G26: 2, 354339.932758, -1880
$GNGGA,022522.000,2944.9173,N,10633.0614,E,1,08,1.2,325.3,M,,,,0000*1B
$GNRMC,022522.000,A,2944.9173,N,10633.0614,E,0.38,10390.44,,,*1B
$GPGSA,A,3,03,16,23,26,,,,,,,,,1.5,1.2,0.8*3C
$BDGSA,A,3,23,,,,,,,,,,,,1.5,1.2,0.8*2D
$GLGSA,A,3,05,15,16,,,,,,,,,,1.5,1.2,0.8*27
$GPGSV,2,1,05,03,34,294,44,16,43,210,42,22,00,000,43,23,07,313,41*74
$GPGSV,2,2,05,26,77,213,43*4F
$BDGSV,2,1,07,05,00,000,37,02,00,000,38,10,00,000,38,23,44,277,43*6A
$BDGSV,2,2,07,32,00,000,37,03,54,172,00,19,08,164,00*5F
$B3CN0,0,0,0,0,0,0,0,0,0,0,0,0,0,0*4C
$GLGSV,1,1,03,05,47,324,40,15,54,296,38,16,15,249,36*5B
---00000044--- Acq_st=3 0  2019-4-4 2:25:23 
[00]  02(G03)  f 45  8  0  -2032.8  2046002.6 -0.0  2 0 1797 2647 1275
[01]  15(G16)  f 42  7  0  -4020.0  2046005.1  0.1  2 0  762 1817  795
[02]  21(G22)  f 42  7  0   -787.1  2046001.0 -0.0  2 0 1459 2552 1407
[03]  22(G23)  f 42  7  0  -4282.2  2046005.5 -0.1  2 0 1238 1820  680
[04]  25(G26)  f 42  7  0  -1869.3  2046002.4  0.0  2 0 1870 2530 1212
[16]  41(B05) 1f 38 27  0  -1047.1  4092002.6  0.6  2 0  737  687  295
[17]  38(B02) 1f 38 27  0  -1055.0  4092002.6 -0.8  2 0  976 1132  376
[18]  46(B10) 1f 38  7  0  -1315.7  4092003.3  0.1  2 0  688 1064  592
[19]  59(B23) 1f 43  7  0  -2157.4  4092005.5 -0.0  2 0 1840 2239  815
[20]  68(B32) 1f 38  7  0  -3286.1  4092008.4 -0.2  2 0 1071  860  503
[21]  54(B18)  7 31  7  0  -1054.2  4092002.6  0.0  5 0  756  998  569
[32]  80(N-1) 8f 40  7  0  -3759.5  1022002.3  0.1  2 0   940 1177  368
[33]  81(N00) 8f 38  7  0  -1216.9  1022000.7  0.2  2 0   680 1015  756
[34]  82(N01) 8f 37  7  0  -3671.8  1022002.3  0.2  2 0   710  726  403
[35]  75(N-6)  1  7  7  0    431.9  1022000.6  0.0  1 0    67  234  345
[48]  41(B05)  1 22 21  1    164.1 20460023.8 -0.1  1 0  616  799  958
[49]  38(B02)  1 19 10  1  -2246.1 20460017.7  0.1  1 0  812  531  261
[50]  46(B10)  1  7  7  0  -1362.3 20460021.5 -0.1  1 0 1058  781  346
[51]  59(B23)  1  7  7  0  -1992.8 20460034.1  0.1  1 0  436  492  265
[52]  68(B32)  1  7  7  0  -2892.8 20460052.6 -0.0  1 0  223  503  572
Refix G03: 2, 354340.925371, -2033
Refix G16: 2, 354340.928060, -4024
Refix G23: 2, 354340.915212, -4282
Refix G26: 2, 354340.932759, -1871
$GNGGA,022523.000,2944.9191,N,10633.0626,E,1,08,1.2,328.0,M,,,,0000*19
$GNRMC,022523.000,A,2944.9191,N,10633.0626,E,1.81,10390.44,,,*14
$GPGSA,A,3,03,16,23,26,,,,,,,,,1.5,1.2,0.8*3C
$BDGSA,A,3,23,,,,,,,,,,,,1.5,1.2,0.8*2D
$GLGSA,A,3,05,15,16,,,,,,,,,,1.5,1.2,0.8*27
$GPGSV,2,1,05,03,34,294,45,16,43,210,42,22,00,000,42,23,07,313,42*77
$GPGSV,2,2,05,26,77,213,42*4E
$BDGSV,2,1,08,05,00,000,38,02,00,000,38,10,00,000,38,23,44,277,43*6A
$BDGSV,2,2,08,32,00,000,38,18,00,000,31,03,54,172,00,19,08,164,00*64
$B3CN0,0,0,0,0,0,0,0,0,0,0,0,0,0,0*4C
$GLGSV,1,1,03,05,47,324,40,15,54,296,38,16,15,249,37*5A
---00000045--- Acq_st=7 0  2019-4-4 2:25:23 
[00]  02(G03)  f 45  7  0  -2030.7  2046002.6  0.0  2 0 1705 2817  995
[01]  15(G16)  f 42 15  0  -4022.8  2046005.2 -0.0  2 0  643 1795  935
[02]  21(G22)  f 42  7  0   -787.0  2046001.0 -0.0  2 0 1091 1839  800
[03]  22(G23)  f 42  7  0  -4279.6  2046005.5  0.0  2 0 1239 1839  925
[04]  25(G26)  f 43  7  0  -1870.1  2046002.4  0.0  2 0 1219 2105 1116
[16]  41(B05) 1f 37 26  0  -1040.3  4092002.6 -0.5  2 0  890  860  261
[17]  38(B02) 1f 37 26  0  -1045.2  4092002.5 -0.8  2 0  874 1069  303
[18]  46(B10) 1f 38  7  0  -1322.0  4092003.4 -0.4  2 0  924 1290  841
[19]  59(B23) 1f 44  7  0  -2153.2  4092005.5  0.0  2 0 1895 2466 1168
[20]  68(B32) 1f 39  7  0  -3281.1  4092008.4 -0.3  2 0 1280 1511  500
