i=1
Rf R0 Config = ff777073
Rf R1 Config = 00dffbfe
Rf R52 Config = 00dfeec0
i=2
Rf R0 Config = 007772f3
Rf R1 Config = 00dffbfe
Rf R52 Config = 00da1070
i=3
Rf R0 Config = 007770f3
Rf R1 Config = 00dffbee
Rf R52 Config = 00de4ef0
i=4
Rf R0 Config = 00777273
Rf R1 Config = 00dffbfe
Rf R52 Config = 00de4e00
SD initialized success
Create debug.log Failed! 3
Start Channel by LuYu
$GNGGA,000000.000,,,,,0,00,,,M,,,,0000*2B
$GNRMC,000000.000,A,,,,,,,060180,,*29
$GPGSA,A,1,,,,,,,,,,,,,,,*1E
$BDGSA,A,1,,,,,,,,,,,,,,,*0F
$GLGSA,A,1,,,,,,,,,,,,,,,*02
$B3CN0,0,0,0,0,0,0,0,0,0,0,0,0,0,0*4C
---00000001--- Acq_st=3 0  2019-4-4 2:16:43 
[00]  02(G03)  1 24  7  0  -2362.1  2046005.4  0.2  1 0  875 2451 2812
$GNGGA,000000.000,,,,,0,00,,,M,,,,0000*2B
$GNRMC,000000.000,A,,,,,,,060180,,*29
$GPGSA,A,1,,,,,,,,,,,,,,,*1E
$BDGSA,A,1,,,,,,,,,,,,,,,*0F
$GLGSA,A,1,,,,,,,,,,,,,,,*02
$B3CN0,0,0,0,0,0,0,0,0,0,0,0,0,0,0*4C
---00000002--- Acq_st=3 0  2019-4-4 2:16:44 
[00]  02(G03)  7 21  7  0  -2360.8  2046002.9  0.8 10 0 1767 2680 1412
[01]  15(G16)  1 13  7  0  -4082.4  2046005.7  0.1  1 0  185   31  358
[02]  21(G22)  1  7  7  0  -1000.0  2046002.8  0.1  1 0  311  306  958
[03]  22(G23)  1 17  7  0  -4250.0  2046007.4  0.0  1 0  322  341 1417
[04]  25(G26)  1  7  7  0  -2250.0  2046003.7 -0.0  1 0  233  315 1728
$GNGGA,000000.000,,,,,0,00,,,M,,,,0000*2B
$GNRMC,000000.000,A,,,,,,,060180,,*29
$GPGSA,A,1,,,,,,,,,,,,,,,*1E
$BDGSA,A,1,,,,,,,,,,,,,,,*0F
$GLGSA,A,1,,,,,,,,,,,,,,,*02
$GPGSV,1,1,01,03,00,000,21*48
$B3CN0,0,0,0,0,0,0,0,0,0,0,0,0,0,0*4C
---00000003--- Acq_st=3 0  2019-4-4 2:16:45 
[00]  02(G03)  7 46  7  0  -2340.4  2046002.9 -0.0  2 0 2115 3157 1680
[01]  15(G16)  1  7  9  0  -3766.2  2046005.8 -0.2  1 0  324  379  521
[02]  21(G22)  1 27  7  0  -1080.2  2046002.4  0.6  1 0 1528 1825 1123
[03]  22(G23)  1 31 11  0  -4225.1  2046005.8  0.7  1 0 1462 1621 1060
[04]  25(G26)  1 28  7  0  -2176.0  2046003.5  0.4  1 0 1378 2296 1208
[16]  38(B02)  1 10 10  0  -1250.0  4092005.4  0.0  1 0  344  745 1357
$GNGGA,000000.000,,,,,0,00,,,M,,,,0000*2B
$GNRMC,000000.000,A,,,,,,,060180,,*29
$GPGSA,A,1,,,,,,,,,,,,,,,*1E
$BDGSA,A,1,,,,,,,,,,,,,,,*0F
$GLGSA,A,1,,,,,,,,,,,,,,,*02
$GPGSV,1,1,01,03,00,000,46*49
$B3CN0,0,0,0,0,0,0,0,0,0,0,0,0,0,0*4C
---00000004--- Acq_st=3 0  2019-4-4 2:16:46 
[00]  02(G03)  7 45  7  0  -2352.2  2046003.0  0.1  2 0 1658 3044 1461
[01]  15(G16)  1 22  7  0  -4258.0  2046007.5  0.3  1 0  986 1443 1208
[02]  21(G22)  7 31  7  0  -1087.3  2046001.3  0.3  5 0 1482 1723  617
[03]  22(G23)  7 31  7  0  -4233.5  2046005.4  0.3  5 0  823 1306  565
[04]  25(G26)  7 27  7  0  -2184.1  2046002.7  0.6 10 0 1626 2639 1458
[16]  38(B02)  1 22 29  1  -1046.0  4092004.0  0.6  1 0 1575 1169  549
[17]  41(B05)  1 10 25  0   -896.0  4092002.0 -0.0  1 0  333  252  338
$GNGGA,000000.000,,,,,0,00,,,M,,,,0000*2B
$GNRMC,000000.000,A,,,,,,,060180,,*29
$GPGSA,A,1,,,,,,,,,,,,,,,*1E
$BDGSA,A,1,,,,,,,,,,,,,,,*0F
$GLGSA,A,1,,,,,,,,,,,,,,,*02
$GPGSV,1,1,04,03,00,000,45,22,00,000,31,23,00,000,31,26,00,000,27*7F
$B3CN0,0,0,0,0,0,0,0,0,0,0,0,0,0,0*4C
---00000005--- Acq_st=3 0  2019-4-4 2:16:47 
[00]  02(G03)  7 44  7  0  -2346.2  2046003.0  0.0  2 0 1263 2863 1398
[01]  15(G16)  7 17  7  0  -4249.8  2046005.3  0.9 10 0 1062 1104  588
[02]  21(G22)  7 43  7  0  -1082.5  2046001.3  0.1  2 0 1611 2110  967
[03]  22(G23)  7 42  7  0  -4229.1  2046005.5  0.0  2 0  705 1402  843
[04]  25(G26)  7 44  7  0  -2175.4  2046002.7 -0.0  2 0 1576 2358 1461
[16]  38(B02)  7 34 23  0  -1052.4  4092002.5  0.4  2 0 1231  663  226
[17]  41(B05)  1 16 10  1   -785.1  4092002.8  0.1  1 0  405  154  182
[18]  46(B10)  1  7  7  0  -1381.1  4092004.2  0.1  1 0 1185 1201  590
$GNGGA,000000.000,,,,,0,00,,,M,,,,0000*2B
$GNRMC,000000.000,A,,,,,,,060180,,*29
$GPGSA,A,1,,,,,,,,,,,,,,,*1E
$BDGSA,A,1,,,,,,,,,,,,,,,*0F
$GLGSA,A,1,,,,,,,,,,,,,,,*02
$GPGSV,2,1,05,03,00,000,44,16,00,000,17,22,00,000,43,23,00,000,42*7D
$GPGSV,2,2,05,26,00,000,44*48
$BDGSV,1,1,01,02,00,000,34*5C
$B3CN0,0,0,0,0,0,0,0,0,0,0,0,0,0,0*4C
---00000006--- Acq_st=3 0  2019-4-4 2:16:48 
[00]  02(G03)  7 44  7  0  -2351.7  2046003.0 -0.0  2 0 1538 2523 1260
[01]  15(G16)  7 39  7  0  -4255.3  2046005.4 -0.0  2 0  794 1428 1000
[02]  21(G22)  7 43 10  0  -1085.6  2046001.3  0.0  2 0 1496 2070  565
[03]  22(G23)  7 42  7  0  -4234.3  2046005.5 -0.1  2 0 1271 1810 1093
[04]  25(G26)  7 44  7  0  -2182.5  2046002.7  0.1  2 0 1695 2354 1035
[16]  38(B02)  f 35 27  0  -1056.9  4092002.5 -0.3  2 0 1167  763  398
[17]  41(B05)  1 10 10  0   -494.0  4092003.0 -0.0  1 0  406  369  192
[18]  46(B10)  7 24  7  0  -1379.0  4092003.5  0.4 10 0  749 1215  364
[19]  54(B18)  1  7  7  0  -1095.4  4092003.6  0.1  1 0  658 1129  484
$GNGGA,021649.949,,,,,0,00,,,M,,,,0000*27
$GNRMC,021649.949,A,,,,,,,100180,,*22
$GPGSA,A,1,,,,,,,,,,,,,,,*1E
$BDGSA,A,1,,,,,,,,,,,,,,,*0F
$GLGSA,A,1,,,,,,,,,,,,,,,*02
$GPGSV,2,1,05,03,00,000,44,16,00,000,39,22,00,000,43,23,00,000,42*71
$GPGSV,2,2,05,26,00,000,43*4F
$BDGSV,1,1,02,02,00,000,34,10,00,000,23*6F
$B3CN0,0,0,0,0,0,0,0,0,0,0,0,0,0,0*4C
---00000007--- Acq_st=3 0  2019-4-4 2:16:49 
[00]  02(G03)  f 43  7  0  -2349.8  2046003.0  0.0  2 0 1358 2589 1359
[01]  15(G16)  f 40  7  0  -4250.9  2046005.4 -0.1  2 0 1190 1325  534
[02]  21(G22)  f 43  7  0  -1085.9  2046001.3  0.0  2 0 1614 2097  846
[03]  22(G23)  f 42  7  0  -4232.5  2046005.5  0.1  2 0 1139 1963 1247
[04]  25(G26)  f 43  7  0  -2182.0  2046002.8  0.0  2 0 1978 2670 1391
[16]  38(B02)  f 36 28  0  -1057.5  4092002.5  0.1  2 0  799  414  303
[17]  41(B05)  1 10 10  0   -787.5  4092002.1 -0.1  1 0  210  304  690
[18]  46(B10)  7 39 11  0  -1382.7  4092003.6 -0.3  2 0 1176 1434  313
[19]  54(B18)  1  7  7  0  -1095.5  4092002.8  0.0  1 0 1011 1126  420
[20]  59(B23)  1  7  7  0  -2278.9  4092008.0 -0.0  1 0 1067 2003 1210
$GNGGA,021650.949,,,,,0,00,,,M,,,,0000*2F
$GNRMC,021650.949,A,,,,,,,100180,,*2A
$GPGSA,A,1,,,,,,,,,,,,,,,*1E
$BDGSA,A,1,,,,,,,,,,,,,,,*0F
$GLGSA,A,1,,,,,,,,,,,,,,,*02
$GPGSV,2,1,05,03,00,000,43,16,00,000,40,22,00,000,43,23,00,000,42*78
$GPGSV,2,2,05,26,00,000,43*4F
$BDGSV,1,1,02,02,00,000,36,10,00,000,39*66
$B3CN0,0,0,0,0,0,0,0,0,0,0,0,0,0,0*4C
---00000008--- Acq_st=3 0  2019-4-4 2:16:50 
[00]  02(G03)  f 44  7  0  -2354.8  2046003.0 -0.0  2 0 1727 2963 1634
[01]  15(G16)  f 41  7  0  -4256.5  2046005.4 -0.0  2 0 1294 1604  893
[02]  21(G22)  f 43  7  0  -1087.7  2046001.3 -0.0  2 0 1137 2002 1117
[03]  22(G23)  f 42  7  0  -4238.4  2046005.4 -0.0  2 0  992 1727  751
[04]  25(G26)  f 44  7  0  -2184.0  2046002.8 -0.0  2 0 1637 2523 1137
[16]  38(B02) 1f 36 23  0  -1059.1  4092002.5 -0.7  2 0 1229  747  323
[18]  46(B10)  7 38  8  0  -1384.8  4092003.5 -0.2  2 0  606 1159  735
[19]  54(B18)  7 40  7  0  -1093.9  4092002.8  0.1  2 0  944 1366  694
[20]  59(B23)  7 23  7  0  -2278.2  4092005.8  0.3 10 0 1144 2199 1087
[21]  68(B32)  1  7  7  0  -3500.0  4092011.2 -0.0  1 0  650  943 1571
[48]  38(B02)  1 21 36  1   -778.6 20460021.9  0.1  1 0   27  350  293
$GNGGA,021651.949,,,,,0,00,,,M,,,,0000*2E
$GNRMC,021651.949,A,,,,,,,100180,,*2B
$GPGSA,A,1,,,,,,,,,,,,,,,*1E
$BDGSA,A,1,,,,,,,,,,,,,,,*0F
$GLGSA,A,1,,,,,,,,,,,,,,,*02
$GPGSV,2,1,05,03,00,000,44,16,00,000,41,22,00,000,43,23,00,000,42*7E
$GPGSV,2,2,05,26,00,000,44*48
$BDGSV,1,1,04,02,00,000,36,10,00,000,38,18,00,000,39,23,00,000,23*62
$B3CN0,0,0,0,0,0,0,0,0,0,0,0,0,0,0*4C
---00000009--- Acq_st=7 0  2019-4-4 2:16:51 
[00]  02(G03)  f 44  7  0  -2347.1  2046003.0 -0.0  2 0 1566 2316 1223
[01]  15(G16)  f 42  7  0  -4247.1  2046005.4  0.1  2 0 1809 1781  784
[02]  21(G22)  f 43  7  0  -1083.9  2046001.3 -0.0  2 0 1253 2084  692
[03]  22(G23)  f 42  7  0  -4231.7  2046005.4  0.1  2 0 1186 2174 1044
[04]  25(G26)  f 44  7  0  -2178.9  2046002.8  0.0  2 0 1120 2059 1459
[16]  38(B02) 1f 36 28  0  -1053.1  4092002.6 -0.5  2 0  658 1075  396
[18]  46(B10) 1f 38 10  0  -1375.6  4092003.5  0.2  2 0  690  519  157
[19]  54(B18) 1f 40  7  0  -1087.2  4092002.8  0.1  2 0  907  983  829
[20]  59(B23)  7 44  7  0  -2275.1  4092005.8 -0.0  2 0 1620 2024  908
[21]  68(B32)  1  7  7  0  -3470.8  4092008.8  0.2  1 0  939  831  492
[32]  80(N-1)  1 28 13  0  -4071.2  1022003.0  0.5  1 0   327 1150  995
[33]  81(N00)  1 28  7  0  -1455.1  1022001.8  0.3  1 0   134  547  506
[34]  82(N01)  1 20  7  0  -3737.2  1022003.2 -0.0  1 0   545  147   19
[48]  38(B02)  7 10 19  1   -578.3 20460008.3 -0.0  2 0  465  440  180
$GNGGA,021652.949,,,,,0,00,,,M,,,,0000*2D
$GNRMC,021652.949,A,,,,,,,100180,,*28
$GPGSA,A,1,,,,,,,,,,,,,,,*1E
$BDGSA,A,1,,,,,,,,,,,,,,,*0F
$GLGSA,A,1,,,,,,,,,,,,,,,*02
$GPGSV,2,1,05,03,00,000,44,16,00,000,42,22,00,000,43,23,00,000,42*7D
$GPGSV,2,2,05,26,00,000,44*48
$BDGSV,1,1,04,02,00,000,36,10,00,000,38,18,00,000,40,23,00,000,44*6D
$B3CN0,0,0,0,0,0,0,0,0,0,0,0,0,0,0*4C
---00000010--- Acq_st=7 0  2019-4-4 2:16:52 
[00]  02(G03)  f 44  7  0  -2345.9  2046003.0 -0.0  2 0 1711 2740 1046
[01]  15(G16)  f 42  7  0  -4241.9  2046005.4  0.0  2 0 1271 1833  830
[02]  21(G22)  f 43  7  0  -1079.8  2046001.3  0.0  2 0 1546 2114  875
[03]  22(G23)  f 42  7  0  -4227.5  2046005.4 -0.0  2 0  769 1631  689
[04]  25(G26)  f 43  7  0  -2175.6  2046002.8  0.0  2 0 1162 2154  952
[16]  38(B02) 1f 39 30  0  -1046.0  4092002.6 -0.8  2 0  770  728  485
[18]  46(B10) 1f 38  7  0  -1382.1  4092003.5 -0.0  2 0  827 1080  702
[19]  54(B18) 1f 40  7  0  -1089.9  4092002.8  0.1  2 0  984 1538  798
[20]  59(B23)  7 43  7  0  -2270.5  4092005.8  0.1  2 0 1713 2024  858
[21]  68(B32)  7 35  7  0  -3465.5  4092008.9  0.1  5 0  784 1035  508
[32]  80(N-1)  7 25  7  0  -4067.6  1022002.5  0.9 10 0  1188 1418  342
[33]  81(N00)  7 22  7  0  -1450.9  1022000.8  0.7 10 0   814  660  287
[34]  82(N01)  1 17 18  0  -4766.2  1022002.9 -0.1  1 0     8  123  217
[48]  38(B02)  7 21 13  1   -945.8 20460015.6  0.0  2 0  285  301  103
[50]  46(B10)  1  7  7  0   -749.0 20460023.1 -0.2  1 0  458  402  803
[51]  54(B18)  1  7  7  0   -960.8 20460017.7  0.1  1 0  411  475  848
$GNGGA,021653.949,,,,,0,00,,,M,,,,0000*2C
$GNRMC,021653.949,A,,,,,,,100180,,*29
$GPGSA,A,1,,,,,,,,,,,,,,,*1E
$BDGSA,A,1,,,,,,,,,,,,,,,*0F
$GLGSA,A,1,,,,,,,,,,,,,,,*02
$GPGSV,2,1,05,03,00,000,44,16,00,000,42,22,00,000,43,23,00,000,42*7D
$GPGSV,2,2,05,26,00,000,43*4F
$BDGSV,2,1,05,02,00,000,39,10,00,000,38,18,00,000,40,23,00,000,43*67
$BDGSV,2,2,05,32,00,000,34*5B
$B3CN0,0,18,0,0,0,0,0,0,0,0,0,0,0,0*75
---00000011--- Acq_st=3 0  2019-4-4 2:16:53 
[00]  02(G03)  f 45  7  0  -2354.3  2046003.0  0.0  2 0 1800 3002 1405
[01]  15(G16)  f 42  7  0  -4254.7  2046005.5 -0.0  2 0 1395 1963  627
[02]  21(G22)  f 42  7  0  -1087.8  2046001.3 -0.0  2 0 1156 2346 1247
[03]  22(G23)  f 42  7  0  -4241.5  2046005.4  0.0  2 0 1058 1973  971
[04]  25(G26)  f 43  7  0  -2186.0  2046002.8  0.0  2 0  975 2016  907
[16]  38(B02) 1f 37 25  0  -1055.7  4092002.7  0.6  2 0  782  790  373
[18]  46(B10) 1f 38  7  0  -1386.8  4092003.6  0.1  2 0  193  641  585
[19]  54(B18) 1f 40  7  0  -1099.3  4092002.8  0.1  2 0 1081 1061  665
[20]  59(B23)  7 43  7  0  -2279.8  4092005.8 -0.0  2 0 2075 2053  912
[21]  68(B32)  7 39 11  0  -3474.9  4092008.9 -0.0  2 0 1129 1178  274
[32]  80(N-1)  7 43 13  0  -4075.4  1022002.5  0.0  2 0  1108 1683  711
[33]  81(N00)  7 38  7  0  -1461.7  1022000.9 -0.3  2 0   513  729  265
[34]  82(N01)  1 17 19  0  -5221.5  1022003.0 -0.1  1 0   361  164  274
[48]  38(B02)  7 10 20  0  -1702.7 20460027.4  0.1  2 0  673  601  420
[50]  46(B10)  1  7  7  0  -1234.2 20460021.0 -0.1  1 0  829  661  215
[51]  54(B18)  1  7  7  0  -1171.3 20460017.6  0.1  1 0  120  485  823
$GNGGA,021654.949,,,,,0,00,,,M,,,,0000*2B
$GNRMC,021654.949,A,,,,,,,100180,,*2E
$GPGSA,A,1,,,,,,,,,,,,,,,*1E
$BDGSA,A,1,,,,,,,,,,,,,,,*0F
$GLGSA,A,1,,,,,,,,,,,,,,,*02
$GPGSV,2,1,05,03,00,000,45,16,00,000,42,22,00,000,43,23,00,000,42*7C
$GPGSV,2,2,05,26,00,000,43*4F
$BDGSV,2,1,05,02,00,000,37,10,00,000,38,18,00,000,40,23,00,000,43*69
$BDGSV,2,2,05,32,00,000,39*56
$B3CN0,0,0,0,0,0,0,0,0,0,0,0,0,0,0*4C
---00000012--- Acq_st=4 0  2019-4-4 2:16:54 
[00]  02(G03)  f 45  7  0  -2351.6  2046003.0  0.0  2 0 2190 3532 1657
[01]  15(G16)  f 42  7  0  -4250.9  2046005.5 -0.0  2 0  994 1547  683
[02]  21(G22)  f 43  7  0  -1086.6  2046001.3  0.0  2 0 1308 2166  815
[03]  22(G23)  f 43  7  0  -4239.7  2046005.5  0.0  2 0  818 1791  752
[04]  25(G26)  f 43  7  0  -2181.8  2046002.8  0.0  2 0 1103 1953  756
[16]  38(B02) 1f 38 26  0  -1052.2  4092002.6 -0.1  2 0  884  922  510
[18]  46(B10) 1f 38  7  0  -1379.0  4092003.6  0.3  2 0  978 1144  326
[19]  54(B18) 1f 40 12  0  -1097.7  4092002.8 -0.0  2 0  721 1333  753
[20]  59(B23)  7 43  7  0  -2276.6  4092005.8 -0.0  2 0 1550 2055  782
[21]  68(B32)  7 39  7  0  -3473.1  4092008.9  0.2  2 0  870  798  106
[32]  80(N-1)  7 41  8  0  -4071.6  1022002.5  0.1  2 0   307 1167  498
[33]  81(N00)  7 39  7  0  -1457.8  1022000.9 -0.2  2 0   617  770  603
[34]  82(N01)  1 21 23  0  -5002.4  1022003.0 -0.1  1 0   450  154  279
[48]  38(B02)  7 10 10  1  -2301.4 20460037.4 -0.1  2 0  212  174  455
[50]  46(B10)  1  7  7  0  -1280.1 20460022.1  0.1  1 0  208  800  395
[51]  54(B18)  1  7 10  0   -819.1 20460016.6 -0.2  1 0  331  619  917
---00000013--- Acq_st=3 0  2019-4-4 2:16:55 
[00]  02(G03)  f 45  7  0  -2356.6  2046003.0  0.0  2 0 2171 2943 1150
[01]  15(G16)  f 41  9  0  -4254.3  2046005.5  0.0  2 0  649 1431  578
[02]  21(G22)  f 44  7  0  -1094.2  2046001.3 -0.0  2 0 1537 2340 1134
[03]  22(G23)  f 42  7  0  -4241.0  2046005.5 -0.0  2 0  917 1713  686
[04]  25(G26)  f 43  7  0  -2191.1  2046002.8  0.0  2 0 1881 2167  445
[16]  38(B02) 1f 38 28  0  -1059.9  4092002.5  0.5  2 0 1208  891  172
[17]  41(B05)  1 10 10  0  -1000.0  4092002.1 -0.2  1 0  470  410  820
[18]  46(B10) 1f 38  7  0  -1383.7  4092003.5 -0.5  2 0  733  902  124
[19]  54(B18) 1f 40 13  0  -1098.0  4092002.8  0.1  2 0 1046 1507  554
[20]  59(B23)  7 43  7  0  -2278.9  4092005.9 -0.0  2 0 1770 2197  652
[21]  68(B32)  7 40  7  0  -3476.1  4092008.9 -0.1  2 0 1117 1121  362
[32]  80(N-1)  7 42 13  0  -4076.5  1022002.6  0.3  2 0   539  921  426
[33]  81(N00)  7 38  7  0  -1462.0  1022000.9 -0.2  2 0   366  748  475
[34]  82(N01)  1 17  7  0  -4943.4  1022003.5 -0.0  1 0   196  272  268
[50]  46(B10)  1  7  7  0  -1894.4 20460023.1  0.1  1 0  445  117  392
[51]  54(B18)  1  7  7  0   -150.9 20460017.8 -0.0  1 0  634  436  601
$GNGGA,021655.949,,,,,0,00,,,M,,,,0000*2A
$GNRMC,021655.949,A,,,,,,,100180,,*2F
$GPGSA,A,1,,,,,,,,,,,,,,,*1E
$BDGSA,A,1,,,,,,,,,,,,,,,*0F
$GLGSA,A,1,,,,,,,,,,,,,,,*02
$GPGSV,2,1,05,03,00,000,45,16,00,000,41,22,00,000,44,23,00,000,42*78
$GPGSV,2,2,05,26,00,000,43*4F
$BDGSV,2,1,05,02,00,000,39,10,00,000,38,18,00,000,40,23,00,000,43*67
$BDGSV,2,2,05,32,00,000,40*58
$B3CN0,0,0,0,0,0,0,0,0,0,0,0,0,0,0*4C
---00000014--- Acq_st=3 0  2019-4-4 2:16:56 
[00]  02(G03)  f 45  7  0  -2347.6  2046002.9 -0.1  2 0 2109 3258 1252
[01]  15(G16)  f 41  7  0  -4251.7  2046005.5  0.0  2 0  687 1760  975
[02]  21(G22)  f 44  7  0  -1083.8  2046001.3  0.0  2 0 1417 2045  939
[03]  22(G23)  f 43  7  0  -4240.6  2046005.4  0.1  2 0 1404 1966  792
[04]  25(G26)  f 43  7  0  -2181.4  2046002.8 -0.0  2 0 1316 1837 1070
[16]  38(B02) 1f 38 27  0  -1059.4  4092002.6  0.1  2 0  861  907  547
[17]  41(B05)  1 25 27  1  -1151.1  4092003.4  0.1  1 0  105  156  280
[18]  46(B10) 1f 38  8  0  -1379.7  4092003.5  0.2  2 0  484  763  115
[19]  54(B18) 1f 40  7  0  -1097.9  4092002.8  0.1  2 0 1059 1017  322
[20]  59(B23)  7 43  7  0  -2270.9  4092005.8 -0.0  2 0 1502 1767  881
[21]  68(B32)  7 40  7  0  -3471.9  4092008.9 -0.1  2 0 1208 1678  831
[32]  80(N-1)  f 36  7  0  -4069.6  1022002.6  0.1  2 0   817 1148  367
[33]  81(N00)  f 35  7  0  -1456.1  1022000.9  0.4  5 0   485  973  668
[48]  38(B02)  1 10 10  0   -829.9 20460018.1  0.1  1 0  190  105  538
$GNGGA,021656.949,,,,,0,00,,,M,,,,0000*29
$GNRMC,021656.949,A,,,,,,,040419,,*2C
$GPGSA,A,1,,,,,,,,,,,,,,,*1E
$BDGSA,A,1,,,,,,,,,,,,,,,*0F
$GLGSA,A,1,,,,,,,,,,,,,,,*02
$GPGSV,2,1,05,03,00,000,45,16,00,000,41,22,00,000,44,23,00,000,43*79
$GPGSV,2,2,05,26,00,000,43*4F
$BDGSV,2,1,05,02,00,000,38,10,00,000,38,18,00,000,40,23,00,000,43*66
$BDGSV,2,2,05,32,00,000,40*58
$B3CN0,0,0,0,0,0,0,0,0,0,0,0,0,0,0*4C
---00000015--- Acq_st=3 0  2019-4-4 2:16:57 
[00]  02(G03)  f 45  7  0  -2346.6  2046003.0  0.0  2 0 2102 3309 1654
[01]  15(G16)  f 41  7  0  -4251.6  2046005.5 -0.0  2 0 1168 1883  942
[02]  21(G22)  f 44  7  0  -1083.8  2046001.3 -0.1  2 0 1539 2253  986
[03]  22(G23)  f 43  7  0  -4238.2  2046005.4 -0.1  2 0 1098 1730  461
[04]  25(G26)  f 44  7  0  -2179.6  2046002.8  0.0  2 0 1352 2250 1313
[16]  38(B02) 1f 39 27  0  -1053.7  4092002.7 -0.6  2 0 1079 1408  442
[17]  41(B05)  1 10 10  1  -1544.9  4092005.6  0.1  1 0  644  802  318
[18]  46(B10) 1f 37  7  0  -1382.6  4092003.5  0.4  2 0  784 1169  439
[19]  54(B18) 1f 40  7  0  -1095.8  4092002.8 -0.0  2 0 1160 1115  717
[20]  59(B23) 1f 43  7  0  -2272.8  4092005.9 -0.0  2 0 1746 1939  624
[21]  68(B32) 1f 41  7  0  -3466.1  4092008.9  0.0  2 0 1343 1545  595
[32]  80(N-1)  f 42  7  0  -4071.1  1022002.5 -0.0  2 0  1046 1427  781
[33]  81(N00)  f 38  7  0  -1456.0  1022000.9 -0.1  2 0   484 1126  642
[48]  38(B02)  1 24 10  0   -209.8 20460022.1 -0.2  1 0  163  362  353
[50]  46(B10)  1  7  7  0  -1168.6 20460021.7 -0.1  1 0  377  743  586
[51]  54(B18)  1  7  7  0   -771.6 20460016.3  0.1  1 0  817  965  541
$GNGGA,021657.949,,,,,0,00,,,M,,,,0000*28
$GNRMC,021657.949,A,,,,,,,040419,,*2D
$GPGSA,A,1,,,,,,,,,,,,,,,*1E
$BDGSA,A,1,,,,,,,,,,,,,,,*0F
$GLGSA,A,1,,,,,,,,,,,,,,,*02
$GPGSV,2,1,05,03,00,000,45,16,00,000,41,22,00,000,44,23,00,000,43*79
$GPGSV,2,2,05,26,00,000,44*48
$BDGSV,2,1,05,02,00,000,39,10,00,000,37,18,00,000,40,23,00,000,43*68
$BDGSV,2,2,05,32,00,000,41*59
$B3CN0,0,0,0,0,0,0,0,0,0,0,0,0,0,0*4C
---00000016--- Acq_st=3 0  2019-4-4 2:16:58 
[00]  02(G03)  f 45  7  0  -2344.0  2046003.0  0.0  2 0 2519 3563 1920
[01]  15(G16)  f 40  7  0  -4245.4  2046005.5 -0.0  2 0  599 1118  552
[02]  21(G22)  f 44  7  0  -1078.3  2046001.4 -0.0  2 0 1083 2108 1186
[03]  22(G23)  f 43  7  0  -4233.4  2046005.4  0.0  2 0  753 1788  744
[04]  25(G26)  f 44  7  0  -2174.9  2046002.8  0.0  2 0 1038 1659  932
[16]  38(B02) 1f 39 30  0  -1053.8  4092002.6  0.6  2 0  703  911  174
[17]  41(B05)  1 10 10  0  -1473.1  4092004.8 -0.2  1 0  436  416  271
[18]  46(B10) 1f 37  8  0  -1380.9  4092003.5  0.3  2 0  739 1088  602
[19]  54(B18) 1f 40 10  0  -1090.4  4092002.8  0.1  2 0  947  977  618
[20]  59(B23) 1f 43  7  0  -2269.6  4092005.8  0.1  2 0 1162 2050 1029
[21]  68(B32) 1f 41  7  0  -3468.6  4092008.9  0.1  2 0 1431 1642  631
[32]  80(N-1)  f 42  7  0  -4064.2  1022002.5  0.0  2 0   678 1115  489
[33]  81(N00)  f 38  7  0  -1451.7  1022000.9  0.4  2 0   309  772  300
[48]  38(B02)  1 10 10  1   -568.2 20460017.8 -0.2  1 0  417  426  141
[50]  46(B10)  1  7  7  0  -1133.1 20460022.2  0.1  1 0  556  101  702
[51]  54(B18)  1  7  7  0  -1037.3 20460017.6 -0.1  1 0  370  374  420
[52]  59(B23)  1  7  7  0  -2661.0 20460034.8 -0.0  1 0  725  760  174
[53]  68(B32)  1  7  7  0  -3135.1 20460055.3 -0.0  1 0   52  386  455
$GNGGA,021658.949,,,,,0,00,,,M,,,,0000*27
$GNRMC,021658.949,A,,,,,,,040419,,*22
$GPGSA,A,1,,,,,,,,,,,,,,,*1E
$BDGSA,A,1,,,,,,,,,,,,,,,*0F
$GLGSA,A,1,,,,,,,,,,,,,,,*02
$GPGSV,2,1,05,03,00,000,45,16,00,000,40,22,00,000,44,23,00,000,43*78
$GPGSV,2,2,05,26,00,000,44*48
$BDGSV,2,1,05,02,00,000,39,10,00,000,37,18,00,000,40,23,00,000,43*68
$BDGSV,2,2,05,32,00,000,41*59
$B3CN0,0,0,0,0,0,0,0,0,0,0,0,0,0,0*4C
---00000017--- Acq_st=3 0  2019-4-4 2:16:59 
[00]  02(G03)  f 45  7  0  -2346.8  2046003.0  0.0  2 0 2105 3672 1886
[01]  15(G16)  f 39  7  0  -4254.8  2046005.6  0.0  2 0  330  930  515
[02]  21(G22)  f 44  7  0  -1085.2  2046001.3  0.1  2 0 1588 2400 1185
[03]  22(G23)  f 42  7  0  -4236.6  2046005.5  0.0  2 0 1082 2103 1172
[04]  25(G26)  f 43  7  0  -2180.1  2046002.8 -0.0  2 0 1374 1981  784
[16]  38(B02) 1f 39 27  0  -1058.2  4092002.6  0.8  2 0  969 1327  744
[17]  41(B05)  1 10 20  0  -1789.3  4092005.4  0.0  1 0  317  201  269
[18]  46(B10) 1f 38  7  0  -1378.6  4092003.5 -0.3  2 0  184 1011  909
[19]  54(B18) 1f 40  7  0  -1095.3  4092002.7 -0.0  2 0  511  907  715
[20]  59(B23) 1f 43  8  0  -2276.7  4092005.9 -0.1  2 0 1365 1808  593
[21]  68(B32) 1f 42  7  0  -3471.1  4092009.0  0.0  2 0 1330 1614  908
[32]  80(N-1)  f 42  7  0  -4071.0  1022002.5 -0.0  2 0   816 1232  321
[33]  81(N00)  f 39  7  0  -1455.4  1022000.9  0.2  2 0   637 1034  454
[34]  75(N-6)  1  7  7  0    609.2  1022000.8  0.0  1 0   116  142  235
[48]  38(B02)  f 10 10  1   -986.4 20460017.2  0.1  2 0   92  480  284
[50]  46(B10)  1  7  7  0   -687.6 20460022.7  0.1  1 0  251  230  568
[51]  54(B18)  1  7  7  0  -1115.2 20460017.3 -0.0  1 0  522  227  532
[52]  59(B23)  1  7  7  0  -2708.9 20460036.7  0.0  1 0  512  220  412
[53]  68(B32)  1  7  7  0  -3957.4 20460055.0  0.1  1 0  296  725  394
$GNGGA,021659.949,,,,,0,00,,,M,,,,0000*26
$GNRMC,021659.949,A,,,,,,,040419,,*23
$GPGSA,A,1,,,,,,,,,,,,,,,*1E
$BDGSA,A,1,,,,,,,,,,,,,,,*0F
$GLGSA,A,1,,,,,,,,,,,,,,,*02
$GPGSV,2,1,05,03,00,000,45,16,00,000,39,22,00,000,44,23,00,000,42*77
$GPGSV,2,2,05,26,00,000,43*4F
$BDGSV,2,1,05,02,00,000,40,10,00,000,38,18,00,000,40,23,00,000,43*69
$BDGSV,2,2,05,32,00,000,42*5A
$B3CN0,0,0,0,0,0,0,0,0,0,0,0,0,0,0*4C
---00000018--- Acq_st=7 0  2019-4-4 2:17:0 
[00]  02(G03)  f 45 11  0  -2333.2  2046003.0 -0.0  2 0 2356 3291 1388
[01]  15(G16)  f 40  7  0  -4243.8  2046005.5  0.5  2 0  671 1438  770
[02]  21(G22)  f 44  7  0  -1066.7  2046001.3 -0.1  2 0 1322 2782 1483
[03]  22(G23)  f 43  7  0  -4225.6  2046005.4  0.0  2 0 1419 1977  680
[04]  25(G26)  f 43  7  0  -2163.5  2046002.7 -0.0  2 0 1496 1793  545
[16]  38(B02) 1f 38 27  0  -1043.6  4092002.6  0.8  2 0  832 1162  449
[18]  46(B10) 1f 37 10  0  -1363.2  4092003.4 -0.7  2 0  217  344  133
[19]  54(B18) 1f 40  7  0  -1087.0  4092002.7 -0.2  2 0 1223 1272  552
[20]  59(B23) 1f 43  8  0  -2257.9  4092005.8  0.1  2 0 1182 1725  552
[21]  68(B32) 1f 42  7  0  -3456.2  4092008.9 -0.0  2 0 1001 1310  796
[32]  80(N-1)  f 42  7  0  -4055.1  1022002.6  0.2  2 0   390 1297  945
[33]  81(N00)  f 39  7  0  -1440.8  1022000.9  0.1  2 0   508 1034  562
[34]  75(N-6)  1 22  7  0   -239.2  1022001.4 -0.0  1 0   359  533  305
[48]  38(B02)  f 16 10  1  -1567.0 20460024.2 -0.1  2 0  260  521  203
[50]  46(B10)  1 10  7  0   -659.6 20460022.9  0.0  1 0  576  293  417
[51]  54(B18)  1  7  7  0  -1194.6 20460016.3 -0.2  1 0  468  681  880
[52]  59(B23)  1  8  7  0  -2242.8 20460034.9 -0.1  1 0  386  664  211
[53]  68(B32)  1  7  7  0  -4236.1 20460053.5 -0.1  1 0  732  403  260
$GNGGA,021700.949,,,,,0,00,,,M,,,,0000*2B
$GNRMC,021700.949,A,,,,,,,040419,,*2E
$GPGSA,A,1,,,,,,,,,,,,,,,*1E
$BDGSA,A,1,,,,,,,,,,,,,,,*0F
$GLGSA,A,1,,,,,,,,,,,,,,,*02
$GPGSV,2,1,05,03,00,000,45,16,00,000,40,22,00,000,44,23,00,000,43*78
$GPGSV,2,2,05,26,00,000,43*4F
$BDGSV,2,1,05,02,00,000,38,10,00,000,37,18,00,000,40,23,00,000,43*69
$BDGSV,2,2,05,32,00,000,42*5A
$B3CN0,0,16,0,0,0,0,0,0,0,0,0,0,0,0*7B
---00000019--- Acq_st=7 0  2019-4-4 2:17:1 
[00]  02(G03)  f 44  7  0  -2339.3  2046003.0  0.1  2 0 2028 3217 1860
[01]  15(G16)  f 40  7  0  -4242.7  2046005.4 -0.2  2 0 1021 1466  799
[02]  21(G22)  f 43  7  0  -1074.0  2046001.3  0.0  2 0 1768 2514 1074
[03]  22(G23)  f 43  8  0  -4231.4  2046005.4 -0.0  2 0 1269 1900  903
[04]  25(G26)  f 43  7  0  -2172.3  2046002.8 -0.0  2 0 1144 1948  874
[16]  38(B02) 1f 39 30  0  -1052.5  4092002.6 -0.2  2 0 1055 1372  837
[18]  46(B10) 1f 38  7  0  -1380.9  4092003.5 -0.1  2 0  673  451  434
[19]  54(B18) 1f 40 11  0  -1087.5  4092002.7  0.1  2 0 1013  896  563
[20]  59(B23) 1f 43  7  0  -2269.8  4092005.8  0.0  2 0 2127 2606 1098
[21]  68(B32) 1f 42 12  0  -3459.2  4092009.0  0.1  2 0 1343 1517  566
[32]  80(N-1)  f 41  7  0  -4061.3  1022002.6  0.1  2 0   415  997  711
[33]  81(N00)  f 39  7  0  -1447.1  1022000.8 -0.1  2 0   899  939  391
[34]  75(N-6)  7 32  7  0   -228.3  1022000.1  0.0  5 0   200  273  320
[48]  38(B02)  f 10 10  0  -1873.7 20460030.5 -0.0  2 0  631  261  473
[52]  59(B23)  1  7  7  0  -2102.9 20460037.2  0.0  1 0  961  984  653
[53]  68(B32)  1  7  7  0  -4577.4 20460056.1  0.1  1 0  530  701  135
$GNGGA,021701.949,,,,,0,00,,,M,,,,0000*2A
$GNRMC,021701.949,A,,,,,,,040419,,*2F
$GPGSA,A,1,,,,,,,,,,,,,,,*1E
$BDGSA,A,1,,,,,,,,,,,,,,,*0F
$GLGSA,A,1,,,,,,,,,,,,,,,*02
$GPGSV,2,1,05,03,00,000,44,16,00,000,40,22,00,000,43,23,00,000,43*7E
$GPGSV,2,2,05,26,00,000,43*4F
$BDGSV,2,1,05,02,00,000,39,10,00,000,38,18,00,000,40,23,00,000,43*67
$BDGSV,2,2,05,32,00,000,42*5A
$B3CN0,0,0,0,0,0,0,0,0,0,0,0,0,0,0*4C
---00000020--- Acq_st=3 0  2019-4-4 2:17:2 
[00]  02(G03)  f 44  7  0  -2350.3  2046003.0 -0.0  2 0 2230 3414 1744
[01]  15(G16)  f 41  7  0  -4250.9  2046005.4 -0.1  2 0  973 1119  645
[02]  21(G22)  f 43  7  0  -1085.0  2046001.3 -0.1  2 0 1013 2178 1098
[03]  22(G23)  f 43  7  0  -4238.8  2046005.4  0.1  2 0 1307 1992 1483
[04]  25(G26)  f 43  7  0  -2180.3  2046002.8 -0.0  2 0 1651 2121  967
[16]  38(B02) 1f 39 24  0  -1058.1  4092002.6  0.3  2 0 1132 1203  428
[18]  46(B10) 1f 37  8  0  -1383.9  4092003.6  0.3  2 0  299  945  529
[19]  54(B18) 1f 39  7  0  -1099.4  4092002.7 -0.0  2 0 1027 1315  701
[20]  59(B23) 1f 43  7  0  -2278.2  4092005.8 -0.0  2 0 1852 2454  905
[21]  68(B32) 1f 41  7  0  -3470.5  4092009.0 -0.0  2 0 1400 1717  950
[32]  80(N-1) 8f 41  7  0  -4070.1  1022002.6 -0.1  2 0   506  934  617
[33]  81(N00) 8f 39  7  0  -1455.4  1022001.0  0.0  2 0   219  688  273
[34]  75(N-6)  7 31  7  0   -236.2  1022000.3 -0.1  5 0    83  237   95
[48]  38(B02)  f 10 10  0  -1975.7 20460033.9  0.2  2 0  588  714  592
[50]  46(B10)  1  8  7  0   -961.3 20460023.6 -0.0  1 0  135   66  203
[51]  54(B18)  1  7  7  0   -528.7 20460017.5  0.0  1 0  477  639  935
$GNGGA,021702.949,,,,,0,00,,,M,,,,0000*29
$GNRMC,021702.949,A,,,,,,,040419,,*2C
$GPGSA,A,1,,,,,,,,,,,,,,,*1E
$BDGSA,A,1,,,,,,,,,,,,,,,*0F
$GLGSA,A,1,,,,,,,,,,,,,,,*02
$GPGSV,2,1,05,03,00,000,44,16,00,000,41,22,00,000,43,23,00,000,43*7F
$GPGSV,2,2,05,26,00,000,43*4F
$BDGSV,2,1,05,02,00,000,39,10,00,000,37,18,00,000,39,23,00,000,43*66
$BDGSV,2,2,05,32,00,000,41*59
$B3CN0,0,0,0,0,0,0,0,0,0,0,0,0,0,0*4C
---00000021--- Acq_st=3 0  2019-4-4 2:17:3 
[00]  02(G03)  f 44  7  0  -2347.1  2046003.0 -0.0  2 0 2179 3381 1650
[01]  15(G16)  f 41  7  0  -4247.8  2046005.4  0.0  2 0 1342 1523  622
[02]  21(G22)  f 43  7  0  -1084.5  2046001.3  0.0  2 0 1617 2375 1102
[03]  22(G23)  f 43  7  0  -4245.2  2046005.5 -0.0  2 0 1197 2135  906
[04]  25(G26)  f 43  7  0  -2180.4  2046002.8 -0.1  2 0 1672 2112  845
[16]  38(B02) 1f 39 23  0  -1054.4  4092002.7  0.7  2 0  875 1492  650
[18]  46(B10) 1f 38  7  0  -1386.8  4092003.5  0.5  2 0  780 1007  728
[19]  54(B18) 1f 40 10  0  -1097.9  4092002.8 -0.0  2 0  899  976  226
[20]  59(B23) 1f 43  8  0  -2277.5  4092005.8 -0.1  2 0 1559 2036 1098
[21]  68(B32) 1f 41  7  0  -3470.0  4092009.0  0.0  2 0 1359 1205  597
[32]  80(N-1) 8f 42  7  0  -4069.6  1022002.6 -0.1  2 0   800 1349  697
[33]  81(N00) 8f 37  7  0  -1457.4  1022000.9 -0.2  2 0   600  961  242
[34]  75(N-6)  7 32  7  0   -234.6  1022000.1  0.0  5 0   220  259  239
[50]  46(B10)  1  7  9  0  -1041.9 20460022.7 -0.0  1 0  624  480  475
[51]  54(B18)  1  7  7  0   -954.5 20460016.9  0.0  1 0  193  418  628
[52]  59(B23)  1  7  7  0  -2134.6 20460035.2 -0.0  1 0  848  896  679
[53]  68(B32)  1  7  7  0  -3242.7 20460055.5 -0.0  1 0  343  602  224
$GNGGA,021703.949,,,,,0,00,,,M,,,,0000*28
$GNRMC,021703.949,A,,,,,,,040419,,*2D
$GPGSA,A,1,,,,,,,,,,,,,,,*1E
$BDGSA,A,1,,,,,,,,,,,,,,,*0F
$GLGSA,A,1,,,,,,,,,,,,,,,*02
$GPGSV,2,1,05,03,00,000,44,16,00,000,41,22,00,000,43,23,00,000,43*7F
$GPGSV,2,2,05,26,00,000,43*4F
$BDGSV,2,1,05,02,00,000,39,10,00,000,38,18,00,000,40,23,00,000,43*67
$BDGSV,2,2,05,32,00,000,41*59
$B3CN0,0,0,0,0,0,0,0,0,0,0,0,0,0,0*4C
---00000022--- Acq_st=3 0  2019-4-4 2:17:4 
[00]  02(G03)  f 45  7  0  -2346.1  2046003.0 -0.0  2 0 2360 3178 1568
[01]  15(G16)  f 42  7  0  -4253.2  2046005.4 -0.0  2 0 1247 1392 1043
[02]  21(G22)  f 43  8  0  -1081.4  2046001.3 -0.1  2 0 1504 2410 1177
[03]  22(G23)  f 43  7  0  -4244.7  2046005.4 -0.0  2 0  898 1881  780
[04]  25(G26)  f 43  7  0  -2179.3  2046002.8  0.0  2 0 1755 2145  685
[16]  38(B02) 1f 39 28  0  -1062.2  4092002.7 -0.3  2 0  485  444  325
[17]  41(B05)  1 10 10  0  -1000.0  4092003.1  0.0  1 0  146  210  211
[18]  46(B10) 1f 38  7  0  -1385.4  4092003.5  0.3  2 0  538  884  466
[19]  54(B18) 1f 40  7  0  -1100.4  4092002.8 -0.1  2 0  566  992  633
[20]  59(B23) 1f 44  7  0  -2275.1  4092005.9  0.0  2 0 2155 1933  340
[21]  68(B32) 1f 41  7  0  -3467.5  4092009.0  0.1  2 0  400  765  379
[32]  80(N-1) 8f 43  7  0  -4068.7  1022002.5 -0.0  2 0  1035 1717  866
[33]  81(N00) 8f 36  7  0  -1456.6  1022000.9 -0.3  2 0   153  488  617
[34]  75(N-6)  f 29  7  0   -232.7  1022000.1  0.0  5 0   539  449   56
[48]  38(B02)  1 36 10  0   -996.4 20460014.5 -0.0  1 0  444  262  208
[50]  46(B10)  1  7  7  0  -1057.8 20460022.5 -0.1  1 0  517  328  290
[51]  54(B18)  1  9  7  0  -1369.2 20460018.2  0.1  1 0  179  153  324
[52]  59(B23)  1  7  7  0  -2628.0 20460034.2 -0.1  1 0  295  337  451
[53]  68(B32)  1  7  7  0  -3284.8 20460054.6 -0.0  1 0  443   43  279
$GNGGA,021704.949,,,,,0,00,,,M,,,,0000*2F
$GNRMC,021704.949,A,,,,,,,040419,,*2A
$GPGSA,A,1,,,,,,,,,,,,,,,*1E
$BDGSA,A,1,,,,,,,,,,,,,,,*0F
$GLGSA,A,1,,,,,,,,,,,,,,,*02
$GPGSV,2,1,05,03,00,000,45,16,00,000,42,22,00,000,43,23,00,000,43*7D
$GPGSV,2,2,05,26,00,000,43*4F
$BDGSV,2,1,05,02,00,000,39,10,00,000,38,18,00,000,40,23,00,000,44*60
$BDGSV,2,2,05,32,00,000,41*59
$B3CN0,0,0,0,0,0,0,0,0,0,0,0,0,0,0*4C
---00000023--- Acq_st=3 0  2019-4-4 2:17:5 
[00]  02(G03)  f 44  7  0  -2346.8  2046003.0 -0.0  2 0 2127 3279 1804
[01]  15(G16)  f 42  7  0  -4250.1  2046005.4  0.0  2 0 1425 1824  728
[02]  21(G22)  f 43  7  0  -1079.6  2046001.3 -0.0  2 0 1074 2087  782
[03]  22(G23)  f 42  7  0  -4238.6  2046005.4  0.0  2 0 1487 2004  560
[04]  25(G26)  f 43  7  0  -2177.2  2046002.8  0.0  2 0 1094 1605  893
[16]  38(B02) 1f 40 23  0  -1057.6  4092002.6  0.4  2 0  766  876  370
[17]  41(B05)  1 21 10  0   -563.8  4092004.0 -0.1  1 0  276  254  261
[18]  46(B10) 1f 38  8  0  -1385.0  4092003.5  0.3  2 0 1043 1193  321
[19]  54(B18) 1f 40 11  0  -1097.6  4092002.8 -0.2  2 0  543 1200  757
[20]  59(B23) 1f 44  7  0  -2274.8  4092005.8 -0.0  2 0 1537 2278  883
[21]  68(B32) 1f 41  7  0  -3468.8  4092009.0 -0.0  2 0 1317 1512  493
[32]  80(N-1) 8f 43  7  0  -4067.8  1022002.6  0.1  2 0   725 1374  839
[33]  81(N00) 8f 37  7  0  -1454.3  1022000.9  0.0  2 0   565  338   80
[34]  75(N-6)  f 30  7  0   -231.3  1022000.1  0.1  5 0   253  315  210
[48]  38(B02)  1 10 17  0  -1061.4 20460021.6  0.1  1 0  407  557  830
[50]  46(B10)  1  7  7  0  -1152.8 20460022.1  0.1  1 0  336  440  575
[51]  54(B18)  1  7  7  0  -1075.5 20460017.7 -0.2  1 0  502  990 1272
[52]  59(B23)  1 10  7  0  -2319.8 20460036.7  0.1  1 0  746  574  211
[53]  68(B32)  1  7  7  0  -2761.6 20460055.5  0.2  1 0  916  498  357
$GNGGA,021705.949,,,,,0,00,,,M,,,,0000*2E
$GNRMC,021705.949,A,,,,,,,040419,,*2B
$GPGSA,A,1,,,,,,,,,,,,,,,*1E
$BDGSA,A,1,,,,,,,,,,,,,,,*0F
$GLGSA,A,1,,,,,,,,,,,,,,,*02
$GPGSV,2,1,05,03,00,000,44,16,00,000,42,22,00,000,43,23,00,000,42*7D
$GPGSV,2,2,05,26,00,000,43*4F
$BDGSV,2,1,05,02,00,000,40,10,00,000,38,18,00,000,40,23,00,000,44*6E
$BDGSV,2,2,05,32,00,000,41*59
$B3CN0,0,0,0,0,0,0,0,0,0,0,0,0,0,0*4C
---00000024--- Acq_st=3 0  2019-4-4 2:17:6 
[00]  02(G03)  f 44  7  0  -2352.1  2046003.0  0.0  2 0 1935 3598 1573
[01]  15(G16)  f 43  7  0  -4257.1  2046005.4 -0.0  2 0 1351 2145  677
[02]  21(G22)  f 43  8  0  -1091.8  2046001.4  0.0  2 0 1152 2001 1038
[03]  22(G23)  f 42  7  0  -4246.2  2046005.5 -0.0  2 0  944 1779  817
[04]  25(G26)  f 42  7  0  -2186.0  2046002.8 -0.0  2 0 1217 2025 1034
[16]  38(B02) 1f 39 27  0  -1061.2  4092002.7 -0.5  2 0  796 1070  517
[17]  41(B05)  1 18 28  1    -19.3  4092003.7 -0.1  1 0  202  290  356
[18]  46(B10) 1f 38  7  0  -1385.0  4092003.5 -0.0  2 0  528  713  300
[19]  54(B18) 1f 40 11  0  -1109.3  4092002.7  0.0  2 0  949 1383  615
[20]  59(B23) 1f 43  7  0  -2281.8  4092005.9  0.0  2 0 2102 2430  971
[21]  68(B32) 1f 40  7  0  -3482.9  4092009.1 -0.1  2 0  682  940  238
[32]  80(N-1) 8f 43  7  0  -4073.4  1022002.6  0.1  2 0   586 1188  596
[33]  81(N00) 8f 37  7  0  -1462.4  1022000.9  0.0  2 0   480  800  294
[34]  75(N-6)  f 29  7  0   -239.2  1022000.1 -0.1  5 0   299  473  601
[48]  38(B02)  1 10 13  0   -879.1 20460021.9 -0.0  1 0  504  431  519
[52]  59(B23)  1  7  7  0  -2293.6 20460036.2  0.0  1 0  508  544  277
[53]  68(B32)  1  7  7  0  -2859.9 20460055.6 -0.0  1 0  254  676  231
$GNGGA,021706.949,,,,,0,00,,,M,,,,0000*2D
$GNRMC,021706.949,A,,,,,,,040419,,*28
$GPGSA,A,1,,,,,,,,,,,,,,,*1E
$BDGSA,A,1,,,,,,,,,,,,,,,*0F
$GLGSA,A,1,,,,,,,,,,,,,,,*02
$GPGSV,2,1,05,03,00,000,44,16,00,000,43,22,00,000,43,23,00,000,42*7C
$GPGSV,2,2,05,26,00,000,42*4E
$BDGSV,2,1,05,02,00,000,39,10,00,000,38,18,00,000,40,23,00,000,43*67
$BDGSV,2,2,05,32,00,000,40*58
$B3CN0,0,0,0,0,0,0,0,0,0,0,0,0,0,0*4C
---00000025--- Acq_st=3 0  2019-4-4 2:17:7 
[00]  02(G03)  f 45  7  0  -2347.9  2046003.0 -0.0  2 0 1785 3056 1392
[01]  15(G16)  f 43  7  0  -4250.8  2046005.4 -0.0  2 0 1537 1907  254
[02]  21(G22)  f 43  7  0  -1084.1  2046001.4  0.0  2 0 1684 2608  737
[03]  22(G23)  f 42  7  0  -4245.9  2046005.5 -0.0  2 0 1363 1730  598
[04]  25(G26)  f 43  7  0  -2179.7  2046002.8 -0.1  2 0 1023 2164 1064
[16]  38(B02) 1f 39 28  0  -1067.8  4092002.7  0.4  2 0  456  863  210
[17]  41(B05)  7 19 32  1     -3.8  4092000.1 -0.1  2 0  253  308  140
[18]  46(B10) 1f 38  7  0  -1392.1  4092003.5  0.1  2 0  777 1240  265
[19]  54(B18) 1f 40  7  0  -1095.8  4092002.8 -0.0  2 0  958 1207  314
[20]  59(B23) 1f 44  7  0  -2280.6  4092005.9  0.0  2 0 1566 2336  761
[21]  68(B32) 1f 40  7  0  -3473.8  4092009.0  0.1  2 0 1139 1546  537
[32]  80(N-1) 8f 42  7  0  -4070.6  1022002.6 -0.1  2 0   617 1316  752
[33]  81(N00) 8f 37  7  0  -1459.4  1022000.9  0.1  2 0   280  602  148
[34]  75(N-6)  f 29  7  0   -234.3  1022000.3  0.0  5 0   253  108  459
[48]  38(B02)  f 10 19  0   -981.9 20460015.3 -0.1  2 0  518  587  452
[50]  46(B10)  1  7  7  0  -1080.7 20460021.8 -0.2  1 0  295  251   83
[51]  54(B18)  1  7  7  0   -575.7 20460018.1  0.1  1 0  457  432  326
$GNGGA,021707.949,,,,,0,00,,,M,,,,0000*2C
$GNRMC,021707.949,A,,,,,,,040419,,*29
$GPGSA,A,1,,,,,,,,,,,,,,,*1E
$BDGSA,A,1,,,,,,,,,,,,,,,*0F
$GLGSA,A,1,,,,,,,,,,,,,,,*02
$GPGSV,2,1,05,03,00,000,45,16,00,000,43,22,00,000,43,23,00,000,42*7D
$GPGSV,2,2,05,26,00,000,43*4F
$BDGSV,2,1,06,02,00,000,39,05,00,000,20,10,00,000,38,18,00,000,40*65
$BDGSV,2,2,06,23,00,000,44,32,00,000,40*6A
$B3CN0,0,0,0,0,0,0,0,0,0,0,0,0,0,0*4C
---00000026--- Acq_st=3 0  2019-4-4 2:17:8 
[00]  02(G03)  f 45  7  0  -2347.6  2046003.0 -0.0  2 0 1756 3367 1495
[01]  15(G16)  f 42  7  0  -4246.5  2046005.4  0.0  2 0 1275 1919  729
[02]  21(G22)  f 43  7  0  -1081.6  2046001.4  0.0  2 0 1180 2444 1342
[03]  22(G23)  f 42  7  0  -4241.4  2046005.4  0.1  2 0 1396 1965  899
[04]  25(G26)  f 42 10  0  -2178.3  2046002.8  0.1  2 0 1246 2116  954
[16]  38(B02) 1f 40 25  0  -1063.8  4092002.6 -0.7  2 0  748 1212 1053
[17]  41(B05)  7 10 33  1     -5.0  4092000.0 -0.1  2 0   72  496  520
[18]  46(B10) 1f 38  7  0  -1382.5  4092003.5 -0.5  2 0  685  969  660
[19]  54(B18) 1f 40 11  0  -1100.5  4092002.8 -0.1  2 0  617 1067  482
[20]  59(B23) 1f 43  7  0  -2277.8  4092005.9 -0.0  2 0 1435 1907  325
[21]  68(B32) 1f 40  7  0  -3469.5  4092009.0  0.2  2 0  692 1123  628
[32]  80(N-1) 8f 42  7  0  -4068.0  1022002.6  0.0  2 0   900 1316  664
[33]  81(N00) 8f 37  7  0  -1455.5  1022000.9  0.3  2 0   883 1003  655
[34]  75(N-6)  f 28  7  0   -230.2  1022000.0  0.1  5 0   153  204  351
[48]  38(B02)  f 10 20  0  -1252.2 20460021.5  0.1  2 0  395  149  614
[50]  46(B10)  1  7  7  0  -1175.6 20460021.6  0.0  1 0  386  438  589
[51]  54(B18)  1  7  7  0   -317.7 20460017.3  0.0  1 0  229  129  193
[52]  59(B23)  1  7  7  0  -1584.6 20460035.5 -0.1  1 0  454  134  315
[53]  68(B32)  1  7  7  0  -2396.0 20460056.0  0.0  1 0  301  362   50
$GNGGA,021708.949,,,,,0,00,,,M,,,,0000*23
$GNRMC,021708.949,A,,,,,,,040419,,*26
$GPGSA,A,1,,,,,,,,,,,,,,,*1E
$BDGSA,A,1,,,,,,,,,,,,,,,*0F
$GLGSA,A,1,,,,,,,,,,,,,,,*02
$GPGSV,2,1,05,03,00,000,45,16,00,000,42,22,00,000,43,23,00,000,42*7C
$GPGSV,2,2,05,26,00,000,42*4E
$BDGSV,2,1,05,02,00,000,40,10,00,000,38,18,00,000,40,23,00,000,43*69
$BDGSV,2,2,05,32,00,000,40*58
$B3CN0,0,0,0,0,0,0,0,0,0,0,0,0,0,0*4C
$GLGSV,1,1,02,05,00,000,42,15,00,000,37*64
---00000027--- Acq_st=7 0  2019-4-4 2:17:9 
[00]  02(G03)  f 45  8  0  -2350.5  2046003.0 -0.0  2 0 1453 2966 1388
[01]  15(G16)  f 42  7  0  -4252.9  2046005.5 -0.0  2 0 1192 2105  871
[02]  21(G22)  f 43  7  0  -1085.2  2046001.4  0.0  2 0 1081 2314  879
[03]  22(G23)  f 42  7  0  -4251.1  2046005.4  0.1  2 0  956 1446  954
[04]  25(G26)  f 42  7  0  -2187.3  2046002.7 -0.0  2 0  863 1786  920
[16]  38(B02) 1f 39 28  0  -1061.4  4092002.8  0.5  2 0 1248 1198  486
[17]  41(B05)  7 10 32  1     -1.3  4091999.9 -0.0  2 0  350  404  350
[18]  46(B10) 1f 38  7  0  -1389.5  4092003.5 -0.4  2 0  729  462  324
[19]  54(B18) 1f 40  7  0  -1106.3  4092002.8  0.1  2 0  737 1042  519
[20]  59(B23) 1f 43  7  0  -2283.1  4092005.9  0.0  2 0 1681 2238  833
[21]  68(B32) 1f 40 11  0  -3475.7  4092009.0  0.1  2 0  666  965  215
[32]  80(N-1) 8f 41  7  0  -4074.1  1022002.6  0.0  2 0   430 1162  715
[33]  81(N00) 8f 37  7  0  -1458.0  1022000.9  0.1  2 0   794 1097  602
[34]  75(N-6)  f 29  7  0   -233.4  1022000.2 -0.0  5 0   287  137  235
[35]  82(N01)  1 15  7  0  -3911.8  1022003.6 -0.1  1 0   268  388  529
[48]  38(B02)  f 10 10  1  -1741.0 20460025.9  0.0  2 0  701  128  352
[50]  46(B10)  1  7  7  0  -1919.6 20460021.7 -0.0  1 0  389  550  703
[51]  54(B18)  1  7  7  0    -58.8 20460017.5  0.1  1 0 1084 1085  793
[52]  59(B23)  1  7  7  0  -1111.4 20460035.2  0.1  1 0  187  219  134
[53]  68(B32)  1  7  8  0  -2454.5 20460055.8  0.0  1 0  335  325  177
$GNGGA,021709.949,,,,,0,00,,,M,,,,0000*22
$GNRMC,021709.949,A,,,,,,,040419,,*27
$GPGSA,A,1,,,,,,,,,,,,,,,*1E
$BDGSA,A,1,,,,,,,,,,,,,,,*0F
$GLGSA,A,1,,,,,,,,,,,,,,,*02
$GPGSV,2,1,05,03,00,000,45,16,00,000,42,22,00,000,43,23,00,000,42*7C
$GPGSV,2,2,05,26,00,000,42*4E
$BDGSV,2,1,05,02,00,000,39,10,00,000,38,18,00,000,40,23,00,000,43*67
$BDGSV,2,2,05,32,00,000,40*58
$B3CN0,0,0,0,0,0,0,0,0,0,0,0,0,0,0*4C
$GLGSV,1,1,02,05,00,000,41,15,00,000,37*67
---00000028--- Acq_st=7 0  2019-4-4 2:17:10 
[00]  02(G03)  f 45  7  0  -2350.4  2046003.0  0.0  2 0 1729 2859 1590
[01]  15(G16)  f 41  7  0  -4254.4  2046005.5  0.1  2 0  820 1394  417
[02]  21(G22)  f 43  7  0  -1082.3  2046001.3 -0.0  2 0 1105 2153  880
[03]  22(G23)  f 41  7  0  -4247.0  2046005.5 -0.0  2 0 1369 2013  880
[04]  25(G26)  f 42  8  0  -2181.2  2046002.7 -0.0  2 0 1053 1899  986
[16]  38(B02) 1f 39 27  0  -1061.4  4092002.7  0.7  2 0  801  990  758
[17]  41(B05)  7 36 32  1     -3.1  4092000.0 -0.0  2 0  285  171  347
[18]  46(B10) 1f 38  9  0  -1385.9  4092003.5  0.1  2 0  713  918  595
[19]  54(B18) 1f 40  7  0  -1104.5  4092002.8 -0.1  2 0  672 1243  844
[20]  59(B23) 1f 43  7  0  -2282.4  4092005.9  0.0  2 0 1872 2121  772
[21]  68(B32) 1f 40  7  0  -3475.5  4092009.0 -0.0  2 0 1100 1083  626
[32]  80(N-1) 8f 40  7  0  -4071.5  1022002.6  0.0  2 0   406  713  307
[33]  81(N00) 8f 38  7  0  -1457.2  1022000.9  0.3  2 0   656  745  118
[34]  75(N-6)  f 29  7  0   -233.6  1022000.1 -0.0  5 0   187  324  295
[35]  82(N01)  7 16  7  0  -3837.6  1022002.7  0.1 10 0   109  349  156
[48]  38(B02)  f 10 18  0  -2262.6 20460038.2 -0.2  2 0  628  611  292
[50]  46(B10)  1  7  7  0  -1417.1 20460021.0 -0.1  1 0  385  167  301
[51]  54(B18)  1  7  7  0     30.3 20460016.0 -0.1  1 0  446  600  426
[52]  59(B23)  1  7  7  0   -942.7 20460034.8 -0.0  1 0  353  213  877
[53]  68(B32)  1  7  7  0  -2223.7 20460054.1 -0.1  1 0  395  219  100
$GNGGA,021710.949,,,,,0,00,,,M,,,,0000*2A
$GNRMC,021710.949,A,,,,,,,040419,,*2F
$GPGSA,A,1,,,,,,,,,,,,,,,*1E
$BDGSA,A,1,,,,,,,,,,,,,,,*0F
$GLGSA,A,1,,,,,,,,,,,,,,,*02
$GPGSV,2,1,05,03,00,000,45,16,00,000,41,22,00,000,43,23,00,000,41*7C
$GPGSV,2,2,05,26,00,000,42*4E
$BDGSV,2,1,06,02,00,000,39,05,00,000,36,10,00,000,38,18,00,000,40*62
$BDGSV,2,2,06,23,00,000,43,32,00,000,40*6D
$B3CN0,0,0,0,0,0,0,0,0,0,0,0,0,0,0*4C
$GLGSV,1,1,02,05,00,000,40,15,00,000,38*69
---00000029--- Acq_st=3 0  2019-4-4 2:17:11 
[00]  02(G03)  f 45  7  0  -2335.0  2046003.0 -0.0  2 0 2224 3151 1205
[01]  15(G16)  f 40  7  0  -4242.0  2046005.5  0.1  2 0  523  773  557
[02]  21(G22)  f 44  7  0  -1069.9  2046001.3 -0.0  2 0 1439 2160  589
[03]  22(G23)  f 42  7  0  -4234.9  2046005.4  0.0  2 0  853 1488  743
[04]  25(G26)  f 43  7  0  -2168.7  2046002.7 -0.0  2 0 1213 1518  620
[16]  38(B02) 1f 39 23  0  -1045.6  4092002.7 -0.0  2 0  954 1381  960
[17]  41(B05)  7 10 33  1     -1.4  4092000.0  0.0  2 0  260  411  382
[18]  46(B10) 1f 38  7  0  -1375.7  4092003.5 -0.9  2 0  721 1286  154
[19]  54(B18) 1f 40  7  0  -1097.1  4092002.8 -0.1  2 0  880  958  580
[20]  59(B23) 1f 43  9  0  -2269.6  4092005.8  0.1  2 0 1595 1949  708
[21]  68(B32) 1f 40  7  0  -3465.7  4092008.9 -0.2  2 0 1041 1047  398
[32]  80(N-1) 8f 39  7  0  -4057.9  1022002.6 -0.4  2 0   324  970  517
[33]  81(N00) 8f 38  7  0  -1445.0  1022000.9  0.4  2 0   472  581  311
[34]  75(N-6)  f 30  7  0   -216.6  1022000.2 -0.0  5 0   143  411  336
[35]  82(N01)  7 31 15  0  -3839.2  1022002.3 -0.2  5 0   400  748  366
[52]  59(B23)  1  8  7  0   -944.4 20460038.3  0.1  1 0  909  877  396
[53]  68(B32)  1 12  7  0  -2569.0 20460055.8 -0.0  1 0  513  707  520
$GNGGA,021711.949,,,,,0,00,,,M,,,,0000*2B
$GNRMC,021711.949,A,,,,,,,040419,,*2E
$GPGSA,A,1,,,,,,,,,,,,,,,*1E
$BDGSA,A,1,,,,,,,,,,,,,,,*0F
$GLGSA,A,1,,,,,,,,,,,,,,,*02
$GPGSV,2,1,05,03,00,000,45,16,00,000,40,22,00,000,44,23,00,000,42*79
$GPGSV,2,2,05,26,00,000,43*4F
$BDGSV,2,1,05,02,00,000,39,10,00,000,38,18,00,000,40,23,00,000,43*67
$BDGSV,2,2,05,32,00,000,40*58
$B3CN0,0,0,0,0,0,0,0,0,0,0,0,0,0,0*4C
$GLGSV,1,1,02,05,00,000,39,15,00,000,38*67
---00000030--- Acq_st=3 0  2019-4-4 2:17:12 
[00]  02(G03)  f 45  7  0  -2342.5  2046003.0 -0.0  2 0 2228 3047 1034
[01]  15(G16)  f 40  7  0  -4252.8  2046005.6 -0.2  2 0  419 1143  574
[02]  21(G22)  f 44  8  0  -1082.7  2046001.3  0.0  2 0 1517 2235  829
[03]  22(G23)  f 42  7  0  -4244.1  2046005.4  0.0  2 0 1311 1722  536
[04]  25(G26)  f 43  7  0  -2177.7  2046002.7 -0.0  2 0  850 1781 1203
[16]  38(B02) 1f 39 30  0  -1057.8  4092002.6  0.2  2 0  997  671  318
[17]  41(B05)  7 21 30  1     -3.3  4092000.2 -0.0  2 0  292  616  363
[18]  46(B10) 1f 38  7  0  -1382.7  4092003.5  0.3  2 0  534  817  286
[19]  54(B18) 1f 39  7  0  -1103.8  4092002.8 -0.1  2 0  430  820  172
[20]  59(B23) 1f 43  7  0  -2276.9  4092005.8  0.0  2 0 1352 2254 1024
[21]  68(B32) 1f 40  7  0  -3472.9  4092009.0 -0.1  2 0  650 1132  457
[32]  80(N-1) 8f 40  7  0  -4065.0  1022002.5  0.2  2 0  1015 1264  504
[33]  81(N00) 8f 37  7  0  -1455.0  1022000.9 -0.0  2 0   489  734  467
[34]  75(N-6)  f 28  7  0   -225.1  1022000.0  0.1  5 0   250  313  225
[35]  82(N01)  7 33 15  0  -3849.9  1022002.2  0.1  5 0   537  414  498
[48]  38(B02)  1 19 16  0  -1035.2 20460018.6 -0.0  1 0  353   76  137
[50]  46(B10)  1  7  7  0  -1006.0 20460022.3  0.0  1 0  255  604  540
[51]  54(B18)  1  7  7  0  -1016.8 20460016.4  0.1  1 0  401  170  149
$GNGGA,021712.949,,,,,0,00,,,M,,,,0000*28
$GNRMC,021712.949,A,,,,,,,040419,,*2D
$GPGSA,A,1,,,,,,,,,,,,,,,*1E
$BDGSA,A,1,,,,,,,,,,,,,,,*0F
$GLGSA,A,1,,,,,,,,,,,,,,,*02
$GPGSV,2,1,05,03,00,000,45,16,00,000,40,22,00,000,44,23,00,000,42*79
$GPGSV,2,2,05,26,00,000,43*4F
$BDGSV,2,1,06,02,00,000,39,05,00,000,22,10,00,000,38,18,00,000,39*69
$BDGSV,2,2,06,23,00,000,43,32,00,000,40*6D
$B3CN0,0,0,0,0,0,0,0,0,0,0,0,0,0,0*4C
$GLGSV,1,1,02,05,00,000,40,15,00,000,37*66
---00000031--- Acq_st=3 0  2019-4-4 2:17:13 
[00]  02(G03)  f 44  7  0  -2351.5  2046003.0  0.0  2 0 2100 2914 1303
[01]  15(G16)  f 39  7  0  -4257.5  2046005.5  0.1  2 0  861 1389 1004
[02]  21(G22)  f 44  9  0  -1087.0  2046001.3  0.0  2 0 1175 2186 1016
[03]  22(G23)  f 42  7  0  -4253.4  2046005.5 -0.0  2 0 1062 2035 1231
[04]  25(G26)  f 43  7  0  -2183.7  2046002.8  0.1  2 0 1325 2032 1062
[16]  38(B02) 1f 38 25  0  -1067.8  4092002.6  0.6  2 0  904  903  233
[17]  41(B05)  7 13 30  1     -5.0  4092000.0  0.0  2 0  343  333  384
[18]  46(B10) 1f 38  7  0  -1387.7  4092003.6 -0.2  2 0 1056 1081  534
[19]  54(B18) 1f 39  7  0  -1099.3  4092002.8  0.0  2 0  893 1262  615
[20]  59(B23) 1f 43  7  0  -2280.7  4092005.9 -0.0  2 0 1343 1850  731
[21]  68(B32) 1f 40 10  0  -3474.0  4092009.0  0.1  2 0 1377 1280  361
[32]  80(N-1) 8f 41  7  0  -4071.9  1022002.5 -0.1  2 0   835 1496  818
[33]  81(N00) 8f 37  7  0  -1459.5  1022000.9  0.4  2 0   674  646  267
[34]  75(N-6)  f 28  7  0   -234.1  1022000.1  0.0  5 0   272  506  514
[35]  82(N01)  7 33 13  0  -3854.4  1022002.5  0.1  5 0    76  229  145
[48]  38(B02)  1 10 13  1   -879.1 20460021.5  0.1  1 0  112  415  518
[50]  46(B10)  1  7  7  0  -1012.4 20460022.7 -0.1  1 0  432  407  530
[51]  54(B18)  1  7  7  0  -1411.0 20460017.2  0.0  1 0  599  762  662
[52]  59(B23)  1  8  7  0  -2047.4 20460036.7 -0.0  1 0  330  226  437
[53]  68(B32)  1  7  7  0  -2433.4 20460056.2 -0.1  1 0  254  559  638
$GNGGA,021713.949,,,,,0,00,,,M,,,,0000*29
$GNRMC,021713.949,A,,,,,,,040419,,*2C
$GPGSA,A,1,,,,,,,,,,,,,,,*1E
$BDGSA,A,1,,,,,,,,,,,,,,,*0F
$GLGSA,A,1,,,,,,,,,,,,,,,*02
$GPGSV,2,1,05,03,00,000,44,16,00,000,39,22,00,000,44,23,00,000,42*76
$GPGSV,2,2,05,26,00,000,43*4F
$BDGSV,2,1,05,02,00,000,38,10,00,000,38,18,00,000,39,23,00,000,43*68
$BDGSV,2,2,05,32,00,000,40*58
$B3CN0,0,0,0,0,0,0,0,0,0,0,0,0,0,0*4C
$GLGSV,1,1,02,05,00,000,41,15,00,000,37*67
OK to Set New BD Eph: Prn23 07,a*1000 a0:0.000009 a1:0.000201 a2:-0.001907 a3:0.004053 b0:151552.000000 b1:151552.000000 b2:151552.000000 b3:151552.000000 
OK to Set New BD Eph: Prn32 07,a*1000 a0:0.000009 a1:0.000201 a2:-0.001907 a3:0.004053 b0:151552.000000 b1:151552.000000 b2:151552.000000 b3:151552.000000 
OK to Set New BD Eph: Prn18 07,a*1000 a0:0.000007 a1:0.000246 a2:-0.002384 a3:0.005424 b0:151552.000000 b1:151552.000000 b2:151552.000000 b3:151552.000000 
OK to Set New BD Eph: Prn10 07,a*1000 a0:0.000007 a1:0.000246 a2:-0.002384 a3:0.005424 b0:151552.000000 b1:151552.000000 b2:151552.000000 b3:151552.000000 
---00000032--- Acq_st=3 0  2019-4-4 2:17:14 
[00]  02(G03)  f 44  7  0  -2341.0  2046003.0  0.0  2 0 1814 3204 1896
[01]  15(G16)  f 40  7  0  -4247.4  2046005.4 -0.1  2 0  928 1714  956
[02]  21(G22)  f 44  7  0  -1080.0  2046001.3 -0.0  2 0 1337 1974 1082
[03]  22(G23)  f 42  7  0  -4244.7  2046005.4  0.0  2 0  951 1114  433
[04]  25(G26)  f 42  7  0  -2175.4  2046002.8  0.0  2 0 1325 2226  975
[16]  38(B02) 1f 39 22  0  -1057.0  4092002.7 -0.4  2 0  889 1168  548
[17]  41(B05)  7 18 31  1    -33.7  4092000.1 -0.2  2 0  302  271  284
[18]  46(B10) 1f 37  7  0  -1384.2  4092003.5 -0.5  2 0  283  792  423
[19]  54(B18) 1f 40 11  0  -1097.1  4092002.8 -0.0  2 0 1163 1632  488
[20]  59(B23) 1f 43  7  0  -2277.5  4092005.8 -0.0  2 0 2123 2095  727
[21]  68(B32) 1f 40  9  0  -3467.8  4092008.9  0.0  2 0  716  709   97
[32]  80(N-1) 8f 43  7  0  -4063.8  1022002.5  0.1  2 0   772 1371  512
[33]  81(N00) 8f 38  7  0  -1451.3  1022000.9 -0.1  2 0   456  575  453
[34]  75(N-6)  f 27  7  0   -221.8  1022000.2 -0.1  5 0   230  216  294
[35]  82(N01)  f 31  7  0  -3843.7  1022002.3 -0.0  5 0   671  485   71
[48]  38(B02)  7 10 22  1  -1206.7 20460018.9 -0.1  2 0  620  305  308
[50]  46(B10)  1  7  7  0     56.2 20460022.7 -0.0  1 0  548  107  630
[51]  54(B18)  1  7  7  0   -916.1 20460017.3 -0.1  1 0  593  690  388
[52]  59(B23)  1  8  7  0  -1377.0 20460036.9 -0.1  1 0  199   99  122
[53]  68(B32)  1  7  7  0  -2810.9 20460056.5 -0.1  1 0  795  344  312
valid:iono 1---fix 0
valid:iono 1---fix 0
valid:iono 1---fix 0
$GNGGA,021714.817,2944.7574,N,10633.1628,E,1,05,27.0,-364.8,M,,,,0000*0A
$GNRMC,021714.817,A,2944.7574,N,10633.1628,E,21.71,0.00,040419,,*2F
$GPGSA,A,3,,,,,,,,,,,,,60.2,27.0,53.8*0D
$BDGSA,A,3,10,23,32,,,,,,,,,,60.2,27.0,53.8*1D
$GLGSA,A,3,06,16,,,,,,,,,,,60.2,27.0,53.8*10
$GPGSV,2,1,05,03,00,000,44,16,00,000,40,22,00,000,44,23,00,000,42*78
$GPGSV,2,2,05,26,00,000,42*4E
$BDGSV,2,1,06,02,00,000,39,05,00,000,18,10,00,000,37,18,00,000,40*61
$BDGSV,2,2,06,23,00,000,43,32,00,000,40*6D
$B3CN0,0,0,0,0,0,0,0,0,0,0,0,0,0,0*4C
$GLGSV,1,1,02,05,00,000,43,15,00,000,38*6A
---00000033--- Acq_st=3 0  2019-4-4 2:17:15 
[00]  02(G03)  f 45 11  0  -2332.0  2046003.0  0.0  2 0 2109 3318 1815
[01]  15(G16)  f 40  7  0  -4239.3  2046005.4  0.1  2 0 1171 1611 1048
[02]  21(G22)  f 43  7  0  -1069.2  2046001.3  0.0  2 0 1349 2568 1029
[03]  22(G23)  f 42  7  0  -4231.9  2046005.5  0.0  2 0  645 1308  911
[04]  25(G26)  f 43  7  0  -2162.3  2046002.7  0.0  2 0  826 1865  854
[16]  38(B02) 1f 40 29  0  -1053.0  4092002.6 -0.2  2 0  832  965  297
[17]  41(B05)  7 36 30  1      3.5  4092000.0 -0.0  2 0  155  132   94
[18]  46(B10) 1f 38  7  0  -1368.8  4092003.4  0.0  2 0  510  689  579
[19]  54(B18) 1f 39  7  0  -1087.6  4092002.7 -0.2  2 0  647 1120  571
[20]  59(B23) 1f 43  7  0  -2265.7  4092005.8 -0.0  2 0 1585 2396 1159
[21]  68(B32) 1f 40  9  0  -3454.7  4092008.9  0.0  2 0 1141 1555  737
[32]  80(N-1) 8f 43  7  0  -4053.6  1022002.6  0.1  2 0  1087 1449  532
[33]  81(N00) 8f 38  7  0  -1439.9  1022000.8 -0.2  2 0   731 1024  405
[34]  75(N-6)  f 27  7  0   -217.8  1022000.2 -0.0 10 0   337  549  393
[35]  82(N01)  f 34  7  0  -3835.5  1022002.4 -0.1  5 0   283  613  469
[48]  38(B02)  7 10 18  0  -1715.4 20460025.2  0.1  2 0  451  168   84
[50]  46(B10)  1  7  7  0    343.3 20460024.2  0.1  1 0  275   81  464
[51]  54(B18)  1  7  7  0  -1132.2 20460018.1  0.1  1 0 1087  699  938
[52]  59(B23)  1  7  7  0  -1415.7 20460035.6  0.1  1 0  317  498  755
[53]  68(B32)  1  7  9  0  -2618.2 20460056.6 -0.1  1 0  499  185   42
BDS IONO corr PRN[10] 64.30 232.30 40.92 353853.88
usrllh latitude:0.519165 longitude:1.859696
 source:0 ion_pt_an*1000 a0:0.000009 a1:0.000201 a2:-0.001907 a3:0.004053 b0:151552.000000 b1:-589824.000000 b2:1114112.000000 b3:1114112.000000 
BDS IONO corr PRN[23] 43.42 272.99 58.25 353853.92
usrllh latitude:0.519165 longitude:1.859696
 source:0 ion_pt_an*1000 a0:0.000009 a1:0.000201 a2:-0.001907 a3:0.004053 b0:151552.000000 b1:-589824.000000 b2:1114112.000000 b3:1114112.000000 
BDS IONO corr PRN[32] 25.79 314.83 127.86 353853.92
usrllh latitude:0.519165 longitude:1.859696
 source:0 ion_pt_an*1000 a0:0.000009 a1:0.000201 a2:-0.001907 a3:0.004053 b0:151552.000000 b1:-589824.000000 b2:1114112.000000 b3:1114112.000000 
$GNGGA,021716.000,2944.7907,N,10633.1362,E,1,05,99.0,-406.7,M,,,,0000*0C
$GNRMC,021716.000,A,2944.7907,N,10633.1362,E,12.90,19087.75,,,*22
$GPGSA,A,3,,,,,,,,,,,,,99.0,99.0,99.0*02
$BDGSA,A,3,10,23,32,,,,,,,,,,99.0,99.0,99.0*12
$GLGSA,A,3,05,15,,,,,,,,,,,99.0,99.0,99.0*1F
$GPGSV,2,1,05,03,00,000,45,16,00,000,40,22,00,000,43,23,00,000,42*7E
$GPGSV,2,2,05,26,00,000,43*4F
$BDGSV,2,1,06,02,00,000,40,05,00,000,36,10,00,000,38,18,00,000,39*62
$BDGSV,2,2,06,23,00,000,43,32,00,000,40*6D
$B3CN0,0,0,0,0,0,0,0,0,0,0,0,0,0,0*4C
$GLGSV,1,1,02,05,00,000,43,15,00,000,38*6A
---00000034--- Acq_st=3 0  2019-4-4 2:17:16 
[00]  02(G03)  f 44  7  0  -2338.1  2046003.0 -0.0  2 0 1637 2918 1474
[01]  15(G16)  f 41  7  0  -4243.3  2046005.4  0.0  2 0 1595 2058  952
[02]  21(G22)  f 43  7  0  -1071.2  2046001.3 -0.0  2 0 1174 2088 1004
[03]  22(G23)  f 42  7  0  -4240.9  2046005.5  0.1  2 0 1151 1467  426
[04]  25(G26)  f 43  7  0  -2169.4  2046002.8  0.0  2 0 1136 1580 1027
[16]  38(B02) 1f 39 25  0  -1055.0  4092002.6  0.7  2 0  704  725  384
[17]  41(B05)  7 10 30  1    -11.6  4092000.0 -0.1  2 0  417  243  382
[18]  46(B10) 1f 38  7  0  -1382.8  4092003.5  0.1  2 0  589  681  494
[19]  54(B18) 1f 39  8  0  -1094.9  4092002.7 -0.2  2 0 1117 1315  799
[20]  59(B23) 1f 44  7  0  -2269.8  4092005.8  0.1  2 0 1601 2379  939
[21]  68(B32) 1f 40  7  0  -3463.0  4092009.0  0.2  2 0 1194 1436  502
[32]  80(N-1) 8f 43  7  0  -4058.6  1022002.5 -0.0  2 0  1181 1712  836
[33]  81(N00) 8f 39  7  0  -1446.2  1022000.8 -0.1  2 0   488  926  463
[34]  75(N-6)  f 26  7  0   -221.4  1022000.1  0.0 10 0   311  269  282
[35]  82(N01)  f 34  7  0  -3841.1  1022002.4  0.0  5 0   384  433  157
[48]  38(B02)  7 10 14  0  -2016.3 20460033.8 -0.1  2 0  398  368   19
[52]  59(B23)  1  7  7  0  -1613.5 20460036.2  0.0  1 0  465  619  399
[53]  68(B32)  1  8  7  0  -3135.1 20460057.3 -0.2  1 0  642  422  110
BDS IONO corr PRN[10] 64.30 232.29 40.93 353854.88
usrllh latitude:0.519175 longitude:1.859688
 source:0 ion_pt_an*1000 a0:0.000009 a1:0.000201 a2:-0.001907 a3:0.004053 b0:151552.000000 b1:-589824.000000 b2:1114112.000000 b3:1114112.000000 
BDS IONO corr PRN[23] 43.42 272.99 58.25 353854.92
usrllh latitude:0.519175 longitude:1.859688
 source:0 ion_pt_an*1000 a0:0.000009 a1:0.000201 a2:-0.001907 a3:0.004053 b0:151552.000000 b1:-589824.000000 b2:1114112.000000 b3:1114112.000000 
BDS IONO corr PRN[32] 25.79 314.83 127.87 353854.92
usrllh latitude:0.519175 longitude:1.859688
 source:0 ion_pt_an*1000 a0:0.000009 a1:0.000201 a2:-0.001907 a3:0.004053 b0:151552.000000 b1:-589824.000000 b2:1114112.000000 b3:1114112.000000 
$GNGGA,021717.000,2944.7910,N,10633.1409,E,1,05,99.0,-406.2,M,,,,0000*04
$GNRMC,021717.000,A,2944.7910,N,10633.1409,E,11.72,19235.45,,,*28
$GPGSA,A,3,,,,,,,,,,,,,99.0,99.0,99.0*02
$BDGSA,A,3,10,23,32,,,,,,,,,,99.0,99.0,99.0*12
$GLGSA,A,3,05,15,,,,,,,,,,,99.0,99.0,99.0*1F
$GPGSV,2,1,05,03,00,000,44,16,00,000,41,22,00,000,43,23,00,000,42*7E
$GPGSV,2,2,05,26,00,000,43*4F
$BDGSV,2,1,06,02,00,000,39,05,00,000,16,10,64,232,38,18,00,000,39*6F
$BDGSV,2,2,06,23,43,272,44,32,25,314,40*6B
$B3CN0,0,0,0,0,0,0,0,0,0,0,0,0,0,0*4C
$GLGSV,1,1,02,05,43,326,43,15,54,288,39*68
---00000035--- Acq_st=3 0  2019-4-4 2:17:17 
[00]  02(G03)  f 44  7  0  -2336.6  2046003.0 -0.0  2 0 1234 2637 1763
[01]  15(G16)  f 42  7  0  -4242.4  2046005.4 -0.0  2 0 1060 1715  912
[02]  21(G22)  f 43  7  0  -1073.8  2046001.4 -0.0  2 0 1444 1843  572
[03]  22(G23)  f 42  7  0  -4241.1  2046005.4 -0.0  2 0 1017 1582  718
[04]  25(G26)  f 43  7  0  -2170.1  2046002.7 -0.0  2 0 1403 2060  900
[16]  38(B02) 1f 39 30  0  -1058.7  4092002.7 -0.4  2 0  367 1001  435
[17]  41(B05)  7 10 32  1     -6.6  4092000.0  0.1  2 0  259  171  123
[18]  46(B10) 1f 38  7  0  -1379.9  4092003.4 -0.4  2 0  641  804  421
[19]  54(B18) 1f 40  7  0  -1097.1  4092002.7 -0.0  2 0 1119 1167  583
[20]  59(B23) 1f 43  7  0  -2269.3  4092005.8 -0.0  2 0 1288 2058  946
[21]  68(B32) 1f 40  7  0  -3465.3  4092008.9 -0.1  2 0 1080 1114  606
[32]  80(N-1) 8f 43  7  0  -4060.7  1022002.6  0.1  2 0  1014 1339  369
[33]  81(N00) 8f 39  7  0  -1446.5  1022000.8 -0.0  2 0   444  681  627
[34]  75(N-6)  f 27  7  0   -222.8  1022000.2  0.0 10 0   240  385  301
[35]  82(N01)  f 34  7  0  -3841.4  1022002.3 -0.1  5 0   796  988  297
[48]  38(B02)  7 22 17  0  -2526.9 20460041.1 -0.1  2 0  420   54  158
[50]  46(B10)  1  7  7  0  -1036.3 20460022.7 -0.0  1 0  460  720  487
[51]  54(B18)  1  7  7  0   -885.4 20460016.5 -0.1  1 0  257  180  438
BDS IONO corr PRN[10] 64.30 232.29 40.93 353855.88
usrllh latitude:0.519175 longitude:1.859689
 source:0 ion_pt_an*1000 a0:0.000009 a1:0.000201 a2:-0.001907 a3:0.004053 b0:151552.000000 b1:-589824.000000 b2:1114112.000000 b3:1114112.000000 
BDS IONO corr PRN[23] 43.42 272.99 58.25 353855.92
usrllh latitude:0.519175 longitude:1.859689
 source:0 ion_pt_an*1000 a0:0.000009 a1:0.000201 a2:-0.001907 a3:0.004053 b0:151552.000000 b1:-589824.000000 b2:1114112.000000 b3:1114112.000000 
BDS IONO corr PRN[32] 25.79 314.83 127.87 353855.92
usrllh latitude:0.519175 longitude:1.859689
 source:0 ion_pt_an*1000 a0:0.000009 a1:0.000201 a2:-0.001907 a3:0.004053 b0:151552.000000 b1:-589824.000000 b2:1114112.000000 b3:1114112.000000 
$GNGGA,021718.000,2944.7916,N,10633.1451,E,1,05,99.0,-404.8,M,,,,0000*08
$GNRMC,021718.000,A,2944.7916,N,10633.1451,E,8.26,19131.48,,,*1F
$GPGSA,A,3,,,,,,,,,,,,,99.0,99.0,99.0*02
$BDGSA,A,3,10,23,32,,,,,,,,,,99.0,99.0,99.0*12
$GLGSA,A,3,05,15,,,,,,,,,,,99.0,99.0,99.0*1F
$GPGSV,2,1,05,03,00,000,44,16,00,000,42,22,00,000,43,23,00,000,42*7D
$GPGSV,2,2,05,26,00,000,43*4F
$BDGSV,2,1,05,02,00,000,39,10,64,232,38,18,00,000,40,23,43,272,43*66
$BDGSV,2,2,05,32,25,314,40*59
$B3CN0,0,22,0,0,0,0,0,0,0,0,0,0,0,0*7C
$GLGSV,1,1,02,05,43,326,43,15,54,288,39*68
---00000036--- Acq_st=7 0  2019-4-4 2:17:18 
[00]  02(G03)  f 44  7  0  -2336.0  2046003.0 -0.0  2 0 1523 2627 1539
[01]  15(G16)  f 43  7  0  -4245.0  2046005.4  0.0  2 0 1726 2562 1191
[02]  21(G22)  f 43  8  0  -1073.7  2046001.3  0.0  2 0 1006 2184  913
[03]  22(G23)  f 42  7  0  -4245.8  2046005.5  0.1  2 0 1156 1940 1090
[04]  25(G26)  f 43  7  0  -2168.3  2046002.7  0.0  2 0 1318 1960  796
[16]  38(B02) 1f 39 29  0  -1055.4  4092002.7 -0.3  2 0  714  912  360
[17]  41(B05)  7 14 32  1     -2.9  4092000.2  0.0  2 0   63  349  213
[18]  46(B10) 1f 38  8  0  -1378.7  4092003.5 -0.4  2 0  663  722  220
[19]  54(B18) 1f 40  7  0  -1098.7  4092002.7  0.1  2 0  711  933  808
[20]  59(B23) 1f 43  7  0  -2269.7  4092005.9 -0.0  2 0 1619 2332 1127
[21]  68(B32) 1f 41  9  0  -3464.1  4092008.9  0.1  2 0  968 1173  400
[32]  80(N-1) 8f 42  7  0  -4060.4  1022002.6 -0.1  2 0   588  890  408
[33]  81(N00) 8f 38  7  0  -1449.8  1022000.9 -0.5  2 0   293  971  458
[34]  75(N-6)  f 26  7  0   -222.1  1022000.1 -0.1 10 0   142  272  106
[35]  82(N01)  f 33  7  0  -3843.3  1022002.4 -0.1  5 0   558  451  210
[50]  46(B10)  1  7  7  0   -964.3 20460021.8 -0.0  1 0  347  493  659
[51]  54(B18)  1  7  7  0  -1125.7 20460015.7  0.1  1 0  701  629  876
[52]  59(B23)  1  7  8  0  -1548.0 20460035.2 -0.0  1 0  428  512  832
[53]  68(B32)  1  7  7  0  -2770.7 20460054.3  0.0  1 0  600  305  392
BDS IONO corr PRN[10] 64.30 232.30 40.93 353856.88
usrllh latitude:0.519175 longitude:1.859691
 source:0 ion_pt_an*1000 a0:0.000009 a1:0.000201 a2:-0.001907 a3:0.004053 b0:151552.000000 b1:-589824.000000 b2:1114112.000000 b3:1114112.000000 
BDS IONO corr PRN[23] 43.42 272.99 58.25 353856.92
usrllh latitude:0.519175 longitude:1.859691
 source:0 ion_pt_an*1000 a0:0.000009 a1:0.000201 a2:-0.001907 a3:0.004053 b0:151552.000000 b1:-589824.000000 b2:1114112.000000 b3:1114112.000000 
BDS IONO corr PRN[32] 25.79 314.83 127.88 353856.92
usrllh latitude:0.519175 longitude:1.859691
 source:0 ion_pt_an*1000 a0:0.000009 a1:0.000201 a2:-0.001907 a3:0.004053 b0:151552.000000 b1:-589824.000000 b2:1114112.000000 b3:1114112.000000 
Refix G03: 2, 353856.925026, -2351
Refix G16: 2, 353856.927118, -4264
Refix G22: 2, 353856.925862, -1087
Refix G23: 2, 353856.914230, -4261
Refix G26: 2, 353856.932465, -2186
$GNGGA,021719.000,2944.7938,N,10633.1585,E,1,05,99.0,-398.7,M,,,,0000*00
$GNRMC,021719.000,A,2944.7938,N,10633.1585,E,5.01,19363.75,,,*19
$GPGSA,A,3,03,16,22,26,,,,,,,,,99.0,99.0,99.0*02
$BDGSA,A,3,23,,,,,,,,,,,,99.0,99.0,99.0*12
$GLGSA,A,3,,,,,,,,,,,,,99.0,99.0,99.0*1E
$GPGSV,2,1,05,03,00,000,44,16,00,000,43,22,00,000,43,23,00,000,42*7C
$GPGSV,2,2,05,26,00,000,43*4F
$BDGSV,2,1,05,02,00,000,39,10,64,232,38,18,00,000,40,23,43,272,43*66
$BDGSV,2,2,05,32,25,314,41*58
$B3CN0,0,0,0,0,0,0,0,0,0,0,0,0,0,0*4C
$GLGSV,1,1,02,05,43,326,42,15,54,288,38*68
---00000037--- Acq_st=7 0  2019-4-4 2:17:19 
[00]  02(G03)  f 44  7  0  -2329.6  2046003.0 -0.0  2 0 1604 2748 1529
[01]  15(G16)  f 43  7  0  -4226.5  2046005.4  0.0  2 0 1295 2140 1028
[02]  21(G22)  f 43  7  0  -1061.6  2046001.3 -0.0  2 0  930 1844 1157
[03]  22(G23)  f 42  7  0  -4232.4  2046005.4  0.0  2 0  937 1619  967
[04]  25(G26)  f 43  7  0  -2159.9  2046002.7 -0.0  2 0 1747 2450 1136
[16]  38(B02) 1f 39 26  0  -1041.9  4092002.6  0.3  2 0  763  628  552
[17]  41(B05)  7 24 34  1     -7.0  4092000.1  0.1  2 0  445   30  107
[18]  46(B10) 1f 38  7  0  -1370.7  4092003.5  0.1  2 0  703  644  269
