$GNGGA,000000.000,,,,,0,00,,,M,,,,0000*2B
$GNRMC,000000.000,A,,,,,,,060180,,*29
$GPGSA,A,1,,,,,,,,,,,,,,,*1E
$BDGSA,A,1,,,,,,,,,,,,,,,*0F
$GLGSA,A,1,,,,,,,,,,,,,,,*02
$B3CN0,0,0,0,0,0,0,0,0,0,0,0,0,0,0*4C
---00000002--- Acq_st=3 0  2019-4-4 2:19:6 
[00]  02(G03)  1 34  7  0  -2284.7  2046002.8  1.0  1 0 2404 3319 1551
[01]  15(G16)  1 22  7  0  -4207.5  2046008.4  0.2  1 0  106  852 1869
[02]  21(G22)  1 17  7  0  -1000.0  2046003.4 -0.0  1 0  428 1236 2172
[03]  22(G23)  1 16  7  0  -4250.0  2046007.2  0.0  1 0   58  748 1539
[04]  25(G26)  1  7  7  0  -2250.0  2046003.9 -0.0  1 0  520  419 1591
$GNGGA,000000.000,,,,,0,00,,,M,,,,0000*2B
$GNRMC,000000.000,A,,,,,,,060180,,*29
$GPGSA,A,1,,,,,,,,,,,,,,,*1E
$BDGSA,A,1,,,,,,,,,,,,,,,*0F
$GLGSA,A,1,,,,,,,,,,,,,,,*02
$B3CN0,0,0,0,0,0,0,0,0,0,0,0,0,0,0*4C
---00000003--- Acq_st=3 0  2019-4-4 2:19:7 
[00]  02(G03)  7 21  7  0  -2278.8  2046002.9  0.8 10 0 1697 3646 1750
[01]  15(G16)  7 18  7  0  -4205.8  2046005.3  0.9 10 0 1348 1325  383
[02]  21(G22)  1 31  8  0  -1021.8  2046001.4  0.8  1 0 1743 2128  671
[03]  22(G23)  1 31  7  0  -4261.5  2046005.8  0.7  1 0 1380 1676  510
[04]  25(G26)  1 28  7  0  -2112.3  2046003.2  0.5  1 0 1460 2144  684
[16]  38(B02)  1 10 10  0  -1250.0  4092003.9  0.1  1 0  441  808  772
$GNGGA,000000.000,,,,,0,00,,,M,,,,0000*2B
$GNRMC,000000.000,A,,,,,,,060180,,*29
$GPGSA,A,1,,,,,,,,,,,,,,,*1E
$BDGSA,A,1,,,,,,,,,,,,,,,*0F
$GLGSA,A,1,,,,,,,,,,,,,,,*02
$GPGSV,1,1,02,03,00,000,21,16,00,000,18*75
$B3CN0,0,0,0,0,0,0,0,0,0,0,0,0,0,0*4C
---00000004--- Acq_st=3 0  2019-4-4 2:19:8 
[00]  02(G03)  7 46  7  0  -2271.6  2046002.9  0.0  2 0 2238 3511 1804
[01]  15(G16)  7 42  7  0  -4197.7  2046005.3 -0.0  2 0  928 1504  838
[02]  21(G22)  7 32  7  0  -1012.3  2046001.2  0.3  5 0 1281 2234  847
[03]  22(G23)  7 31  7  0  -4255.8  2046005.4  0.3  5 0 1187 1839  680
[04]  25(G26)  7 27  7  0  -2103.7  2046002.6  0.5 10 0 1594 2457 1267
[16]  38(B02)  1 16 27  1  -1053.4  4092004.7  0.2  1 0 1247  826  257
[17]  41(B05)  1 21 24  0  -1050.1  4092003.6  0.5  1 0  498 1135  980
$GNGGA,000000.000,,,,,0,00,,,M,,,,0000*2B
$GNRMC,000000.000,A,,,,,,,060180,,*29
$GPGSA,A,1,,,,,,,,,,,,,,,*1E
$BDGSA,A,1,,,,,,,,,,,,,,,*0F
$GLGSA,A,1,,,,,,,,,,,,,,,*02
$GPGSV,2,1,05,03,00,000,46,16,00,000,42,22,00,000,32,23,00,000,31*7D
$GPGSV,2,2,05,26,00,000,27*4D
$B3CN0,0,0,0,0,0,0,0,0,0,0,0,0,0,0*4C
---00000005--- Acq_st=3 0  2019-4-4 2:19:9 
[00]  02(G03)  7 45  7  0  -2264.4  2046002.9 -0.0  2 0 2004 3446 1586
[01]  15(G16)  7 41  7  0  -4188.6  2046005.4  0.0  2 0 1342 1800  796
[02]  21(G22)  7 43 13  0  -1003.6  2046001.2  0.0  2 0 1017 1565  925
[03]  22(G23)  7 42  7  0  -4247.9  2046005.4  0.1  2 0 1628 1723  332
[04]  25(G26)  7 42  7  0  -2097.8  2046002.6 -0.0  2 0 1697 2399  946
[16]  38(B02)  7 23 23  1  -1024.6  4092002.7 -0.1  2 0  747  218  434
[17]  41(B05)  7 38 27  0  -1049.6  4092002.5 -0.2  2 0 1332 1060  138
[18]  46(B10)  1  7  7  0  -1366.0  4092004.0  0.0  1 0  428  552  166
$GNGGA,000000.000,,,,,0,00,,,M,,,,0000*2B
$GNRMC,000000.000,A,,,,,,,060180,,*29
$GPGSA,A,1,,,,,,,,,,,,,,,*1E
$BDGSA,A,1,,,,,,,,,,,,,,,*0F
$GLGSA,A,1,,,,,,,,,,,,,,,*02
$GPGSV,2,1,05,03,00,000,45,16,00,000,41,22,00,000,43,23,00,000,42*7F
$GPGSV,2,2,05,26,00,000,43*4F
$BDGSV,1,1,02,02,00,000,23,05,00,000,37*68
$B3CN0,0,0,0,0,0,0,0,0,0,0,0,0,0,0*4C
---00000006--- Acq_st=3 0  2019-4-4 2:19:10 
[00]  02(G03)  7 45  7  0  -2264.9  2046002.9 -0.0  2 0 2268 3593 1853
[01]  15(G16)  7 42  7  0  -4193.8  2046005.3  0.1  2 0 1150 1782  551
[02]  21(G22)  7 43 11  0  -1003.4  2046001.3  0.0  2 0 1626 2359 1120
[03]  22(G23)  7 42  7  0  -4247.6  2046005.4  0.1  2 0 1116 1731  764
[04]  25(G26)  7 42  7  0  -2100.3  2046002.6  0.0  2 0 1669 2141 1007
[16]  38(B02)  7 20 29  1  -1004.6  4092002.7  0.0  2 0  784  230  394
[17]  41(B05)  f 39 18  0  -1052.0  4092002.6 -0.5  2 0 1121 1067  337
[18]  46(B10)  7 24  7  0  -1365.3  4092003.5  0.3 10 0  498  758  418
[19]  54(B18)  1  7  7  0  -1089.6  4092002.4 -0.0  1 0  614 1108  740
$GNGGA,000000.000,,,,,0,00,,,M,,,,0000*2B
$GNRMC,000000.000,A,,,,,,,060180,,*29
$GPGSA,A,1,,,,,,,,,,,,,,,*1E
$BDGSA,A,1,,,,,,,,,,,,,,,*0F
$GLGSA,A,1,,,,,,,,,,,,,,,*02
$GPGSV,2,1,05,03,00,000,45,16,00,000,42,22,00,000,43,23,00,000,42*7C
$GPGSV,2,2,05,26,00,000,42*4E
$BDGSV,1,1,03,02,00,000,22,05,00,000,39,10,00,000,23*56
$B3CN0,0,0,0,0,0,0,0,0,0,0,0,0,0,0*4C
---00000007--- Acq_st=3 0  2019-4-4 2:19:11 
[00]  02(G03)  7 44  7  0  -2274.1  2046002.9  0.0  2 0 2344 3590 1819
[01]  15(G16)  7 41  7  0  -4204.1  2046005.4 -0.1  2 0 1278 1972  985
[02]  21(G22)  7 42  7  0  -1015.0  2046001.3  0.0  2 0  770 1675  559
[03]  22(G23)  7 42  7  0  -4257.5  2046005.5 -0.0  2 0 1370 2022 1046
[04]  25(G26)  7 43  7  0  -2108.0  2046002.7  0.1  2 0 1512 2560 1424
[16]  38(B02)  7 10 10  1  -1363.3  4092003.6  0.0  2 0  549  111  279
[17]  41(B05)  f 38 30  0  -1058.8  4092002.6  0.6  2 0  736 1116  314
[18]  46(B10)  7 38  7  0  -1373.1  4092003.5  0.4  2 0  562  735  205
[19]  54(B18)  1  7  8  0  -1098.0  4092002.6  0.5  1 0  840 1187  750
[20]  59(B23)  1  7 10  0  -2254.0  4092006.7  0.2  1 0 1046 2257 1398
[49]  41(B05)  1 22 25  0  -1010.7 20460021.5 -0.1  1 0   60  419  733
$GNGGA,000000.000,,,,,0,00,,,M,,,,0000*2B
$GNRMC,000000.000,A,,,,,,,060180,,*29
$GPGSA,A,1,,,,,,,,,,,,,,,*1E
$BDGSA,A,1,,,,,,,,,,,,,,,*0F
$GLGSA,A,1,,,,,,,,,,,,,,,*02
$GPGSV,2,1,05,03,00,000,44,16,00,000,41,22,00,000,42,23,00,000,42*7F
$GPGSV,2,2,05,26,00,000,43*4F
$BDGSV,1,1,02,05,00,000,38,10,00,000,38*6E
$B3CN0,0,0,0,0,0,0,0,0,0,0,0,0,0,0*4C
---00000008--- Acq_st=3 0  2019-4-4 2:19:12 
[00]  02(G03)  7 45  7  0  -2274.2  2046002.9 -0.0  2 0 1917 3294 1325
[01]  15(G16)  7 41  7  0  -4199.1  2046005.4  0.0  2 0  883 1437  504
[02]  21(G22)  7 42  7  0  -1016.4  2046001.3 -0.0  2 0 1213 1964  869
[03]  22(G23)  7 42  7  0  -4259.7  2046005.5 -0.0  2 0 1262 1633  808
[04]  25(G26)  7 43  7  0  -2106.3  2046002.7 -0.1  2 0 1390 2061  835
[16]  38(B02)  7 20 20  1  -1864.3  4092005.2  0.0  2 0   40  437  753
[17]  41(B05) 1f 38 28  0  -1057.2  4092002.7 -0.9  2 0  710  735  547
[18]  46(B10)  7 38  7  0  -1375.8  4092003.5 -0.1  2 0  420  817  509
[19]  54(B18)  7 39  7  0  -1093.1  4092002.8  0.1  2 0  439 1015  711
[20]  59(B23)  7 23  7  0  -2252.7  4092005.8  0.4 10 0 1448 2212 1093
[21]  68(B32)  1  7  7  0  -3500.0  4092008.9  0.0  1 0  839 1408  713
[49]  41(B05)  1 27 23  0   -904.4 20460020.8 -0.0  1 0  427  526 1015
$GNGGA,021913.467,,,,,0,00,,,M,,,,0000*26
$GNRMC,021913.467,A,,,,,,,100180,,*23
$GPGSA,A,1,,,,,,,,,,,,,,,*1E
$BDGSA,A,1,,,,,,,,,,,,,,,*0F
$GLGSA,A,1,,,,,,,,,,,,,,,*02
$GPGSV,2,1,05,03,00,000,45,16,00,000,41,22,00,000,42,23,00,000,42*7E
$GPGSV,2,2,05,26,00,000,43*4F
$BDGSV,2,1,05,02,00,000,22,05,00,000,38,10,00,000,38,18,00,000,38*6A
$BDGSV,2,2,05,23,00,000,23*5D
$B3CN0,0,0,0,0,0,0,0,0,0,0,0,0,0,0*4C
---00000009--- Acq_st=7 0  2019-4-4 2:19:13 
[00]  02(G03)  f 45  7  0  -2271.5  2046002.9 -0.0  2 0 2105 3165 1357
[01]  15(G16)  f 42  7  0  -4199.7  2046005.4  0.0  2 0 1557 2002 1342
[02]  21(G22)  f 43 12  0  -1013.4  2046001.3  0.1  2 0  934 1826 1056
[03]  22(G23)  f 42  8  0  -4258.2  2046005.5  0.1  2 0  870 1764  941
[04]  25(G26)  f 43  7  0  -2104.6  2046002.7  0.0  2 0 1432 2414 1205
[16]  38(B02)  7 10 13  1  -1970.5  4092005.1 -0.0  2 0  332  355  477
[17]  41(B05) 1f 37 21  0  -1058.4  4092002.7  0.3  2 0 1401 1184  446
[18]  46(B10)  7 38  7  0  -1371.3  4092003.5 -0.4  2 0  821  796  168
[19]  54(B18)  7 40  7  0  -1096.4  4092002.8 -0.0  2 0  557 1101  490
[20]  59(B23)  7 44 13  0  -2249.9  4092005.8 -0.0  2 0 1378 2203 1053
[21]  68(B32)  1  7  7  0  -3430.3  4092008.7  0.2  1 0  808 1496  760
[32]  80(N-1)  1 25  7  0  -3998.9  1022004.5  0.4  1 0   749 1524 1002
[33]  81(N00)  1 26  7  0  -1396.3  1022001.8  0.2  1 0   549 1066  765
[34]  82(N01)  1 18 11  0  -3724.7  1022003.4  0.0  1 0   127  357  196
[49]  41(B05)  1 23 23  1   -917.0 20460024.0 -0.0  1 0  537  121  767
$GNGGA,021914.467,,,,,0,00,,,M,,,,0000*21
$GNRMC,021914.467,A,,,,,,,100180,,*24
$GPGSA,A,1,,,,,,,,,,,,,,,*1E
$BDGSA,A,1,,,,,,,,,,,,,,,*0F
$GLGSA,A,1,,,,,,,,,,,,,,,*02
$GPGSV,2,1,05,03,00,000,45,16,00,000,42,22,00,000,43,23,00,000,42*7C
$GPGSV,2,2,05,26,00,000,43*4F
$BDGSV,1,1,04,05,00,000,37,10,00,000,38,18,00,000,40,23,00,000,44*6B
$B3CN0,0,0,0,0,0,0,0,0,0,0,0,0,0,0*4C
---00000010--- Acq_st=7 0  2019-4-4 2:19:14 
[00]  02(G03)  f 44  7  0  -2273.6  2046002.9  0.0  2 0 2414 3643 1309
[01]  15(G16)  f 41 11  0  -4198.6  2046005.4  0.1  2 0 1372 1699  660
[02]  21(G22)  f 42  7  0  -1008.0  2046001.2 -0.0  2 0  908 1634  971
[03]  22(G23)  f 42  7  0  -4260.4  2046005.5  0.0  2 0 1255 1884  930
[04]  25(G26)  f 43  7  0  -2104.1  2046002.7 -0.0  2 0 1550 1955 1407
[16]  38(B02)  7 10 25  1  -2017.4  4092005.3 -0.1  2 0   32  357  113
[17]  41(B05) 1f 38 28  0  -1063.2  4092002.7 -0.4  2 0  401 1166  711
[18]  46(B10)  7 38  7  0  -1369.4  4092003.5 -0.3  2 0 1164 1147  386
[19]  54(B18)  7 40  9  0  -1087.9  4092002.8  0.1  2 0  992 1111  559
[20]  59(B23)  7 43 13  0  -2247.5  4092005.8 -0.0  2 0 1558 2389 1225
[21]  68(B32)  7 36  7  0  -3427.8  4092009.0 -0.0  2 0  983 1319  613
[32]  80(N-1)  7 25  7  0  -3996.9  1022002.4  0.7 10 0  1173 1387  504
[33]  81(N00)  7 22  7  0  -1395.4  1022000.8  0.9 10 0   983  897  442
[34]  82(N01)  7 26 12  0  -3788.9  1022003.7  0.5  2 0   392  408  276
[49]  41(B05)  1 27 20  0   -646.0 20460020.7 -0.0  1 0  290  149  394
$GNGGA,021915.467,,,,,0,00,,,M,,,,0000*20
$GNRMC,021915.467,A,,,,,,,100180,,*25
$GPGSA,A,1,,,,,,,,,,,,,,,*1E
$BDGSA,A,1,,,,,,,,,,,,,,,*0F
$GLGSA,A,1,,,,,,,,,,,,,,,*02
$GPGSV,2,1,05,03,00,000,44,16,00,000,41,22,00,000,42,23,00,000,42*7F
$GPGSV,2,2,05,26,00,000,43*4F
$BDGSV,2,1,05,05,00,000,38,10,00,000,38,18,00,000,40,23,00,000,43*61
$BDGSV,2,2,05,32,00,000,35*5A
$B3CN0,0,0,0,0,0,0,0,0,0,0,0,0,0,0*4C
---00000011--- Acq_st=3 0  2019-4-4 2:19:15 
[00]  02(G03)  f 45  7  0  -2272.8  2046002.9  0.0  2 0 2261 3617 2042
[01]  15(G16)  f 42  7  0  -4200.8  2046005.4 -0.0  2 0 1383 1851  959
[02]  21(G22)  f 42 12  0  -1014.6  2046001.2  0.0  2 0 1213 1927  719
[03]  22(G23)  f 42  7  0  -4263.3  2046005.5  0.0  2 0 1457 1630  674
[04]  25(G26)  f 43  7  0  -2107.8  2046002.6  0.0  2 0 1468 2268  865
[16]  38(B02)  7 36 10  0  -2664.0  4092007.1 -0.3  2 0  179   39  220
[17]  41(B05) 1f 40 25  0  -1056.5  4092002.5  0.4  2 0  943 1094  518
[18]  46(B10) 1f 38  7  0  -1373.8  4092003.5  0.1  2 0  850 1003  495
[19]  54(B18) 1f 40  7  0  -1096.3  4092002.8  0.0  2 0 1010 1417  721
[20]  59(B23) 1f 44 14  0  -2253.5  4092005.8  0.0  2 0 1645 2420 1207
[21]  68(B32) 1f 41  7  0  -3430.6  4092008.9  0.1  2 0  752 1168  423
[32]  80(N-1)  7 44 15  0  -3998.9  1022002.5  0.1  2 0  1076 1370  632
[33]  81(N00)  7 41 13  0  -1397.6  1022000.9 -0.3  2 0   603  982  595
[34]  82(N01)  7 35 18  0  -3812.0  1022002.3  0.2  2 0   302  557   84
$GNGGA,021916.467,,,,,0,00,,,M,,,,0000*23
$GNRMC,021916.467,A,,,,,,,100180,,*26
$GPGSA,A,1,,,,,,,,,,,,,,,*1E
$BDGSA,A,1,,,,,,,,,,,,,,,*0F
$GLGSA,A,1,,,,,,,,,,,,,,,*02
$GPGSV,2,1,05,03,00,000,45,16,00,000,42,22,00,000,42,23,00,000,42*7D
$GPGSV,2,2,05,26,00,000,43*4F
$BDGSV,2,1,05,05,00,000,40,10,00,000,38,18,00,000,40,23,00,000,44*69
$BDGSV,2,2,05,32,00,000,41*59
$B3CN0,0,0,0,0,0,0,0,0,0,0,0,0,0,0*4C
---00000012--- Acq_st=4 0  2019-4-4 2:19:16 
[00]  02(G03)  f 45  7  0  -2267.4  2046002.9 -0.1  2 0 1941 3316 1402
[01]  15(G16)  f 42  7  0  -4194.2  2046005.4  0.0  2 0 1300 1853  731
[02]  21(G22)  f 42  8  0  -1006.8  2046001.2 -0.0  2 0 1338 1483  637
[03]  22(G23)  f 41  7  0  -4254.1  2046005.5  0.1  2 0 1160 1866  737
[04]  25(G26)  f 44  7  0  -2101.5  2046002.7 -0.1  2 0 1459 2186 1046
[16]  38(B02)  7 14 10  0  -3258.6  4092008.8  0.0  2 0   89  269  401
[17]  41(B05) 1f 40 20  0  -1060.9  4092002.6  0.3  2 0  617  986  741
[18]  46(B10) 1f 38  7  0  -1372.2  4092003.5 -0.1  2 0  717  928  717
[19]  54(B18) 1f 40 11  0  -1093.5  4092002.7 -0.1  2 0 1258 1319  849
[20]  59(B23) 1f 43 10  0  -2248.8  4092005.8  0.0  2 0 1387 2286 1265
[21]  68(B32) 1f 41  7  0  -3422.7  4092008.9 -0.1  2 0  795 1349  365
[32]  80(N-1)  7 44 11  0  -3992.7  1022002.4  0.1  2 0  1382 1617  890
[33]  81(N00)  7 41 16  0  -1391.7  1022000.9  0.4  2 0   415  934  722
[34]  82(N01)  7 35 13  0  -3804.5  1022002.5  0.1  2 0   257  440  304
[49]  41(B05)  1 25 20  1   -778.6 20460019.6  0.2  1 0  836  383  414
[50]  46(B10)  1  7  7  0  -1005.4 20460021.7  0.2  1 0  526   72  471
[51]  54(B18)  1  7  7  0   -612.7 20460015.8  0.0  1 0  334  182  369
[52]  59(B23)  1  7  7  0  -1450.7 20460034.8 -0.1  1 0  381   84   80
[53]  68(B32)  1  7  7  0  -2378.1 20460055.1  0.1  1 0  335  412   35
---00000013--- Acq_st=3 0  2019-4-4 2:19:17 
[00]  02(G03)  f 45  7  0  -2264.9  2046002.9  0.0  2 0 1314 2684 1791
[01]  15(G16)  f 43  7  0  -4193.2  2046005.4 -0.0  2 0 1458 1932  414
[02]  21(G22)  f 42 10  0  -1008.9  2046001.2  0.1  2 0  849 1596 1091
[03]  22(G23)  f 42  7  0  -4252.2  2046005.5 -0.1  2 0 1369 1956  795
[04]  25(G26)  f 44  7  0  -2095.9  2046002.6  0.0  2 0 1467 2300  829
[16]  38(B02)  7 10 10  0  -3452.7  4092009.0 -0.3  2 0  164   74  360
[17]  41(B05) 1f 39 29  0  -1051.3  4092002.7 -0.1  2 0  924 1238  162
[18]  46(B10) 1f 38  7  0  -1363.9  4092003.4  0.3  2 0  989 1585  562
[19]  54(B18) 1f 40  8  0  -1087.0  4092002.7 -0.1  2 0  768 1132  716
[20]  59(B23) 1f 43 15  0  -2243.1  4092005.8 -0.0  2 0 1845 2525 1059
[21]  68(B32) 1f 42 10  0  -3420.3  4092008.9 -0.0  2 0  826 1230  683
[32]  80(N-1)  7 44 14  0  -3989.6  1022002.5 -0.2  2 0  1095 1685  935
[33]  81(N00)  7 41 15  0  -1389.5  1022000.9 -0.1  2 0   763  900  471
[34]  82(N01)  7 36 14  0  -3800.8  1022002.4  0.2  2 0   379  656  557
[49]  41(B05)  1 23 25  1   -454.8 20460016.8  0.0  1 0  538  509  223
[50]  46(B10)  1  7  7  0  -1298.3 20460023.8 -0.1  1 0  318  612  359
[51]  54(B18)  1  7  7  0   -202.1 20460016.5  0.0  1 0  627  612  566
[52]  59(B23)  1  7  7  0  -1380.4 20460036.0 -0.2  1 0 1008  802  126
[53]  68(B32)  1  7  7  0  -1740.1 20460054.0 -0.0  1 0  415  362  244
$GNGGA,021917.467,,,,,0,00,,,M,,,,0000*22
$GNRMC,021917.467,A,,,,,,,100180,,*27
$GPGSA,A,1,,,,,,,,,,,,,,,*1E
$BDGSA,A,1,,,,,,,,,,,,,,,*0F
$GLGSA,A,1,,,,,,,,,,,,,,,*02
$GPGSV,2,1,05,03,00,000,45,16,00,000,43,22,00,000,42,23,00,000,42*7C
$GPGSV,2,2,05,26,00,000,44*48
$BDGSV,2,1,05,05,00,000,39,10,00,000,38,18,00,000,40,23,00,000,43*60
$BDGSV,2,2,05,32,00,000,42*5A
$B3CN0,0,0,0,0,0,0,0,0,0,0,0,0,0,0*4C
---00000014--- Acq_st=3 0  2019-4-4 2:19:18 
[00]  02(G03)  f 45  7  0  -2267.7  2046002.9 -0.1  2 0 1611 3013 1716
[01]  15(G16)  f 43  7  0  -4193.0  2046005.4 -0.1  2 0 1397 2127 1178
[02]  21(G22)  f 42 11  0  -1005.9  2046001.2 -0.0  2 0 1044 2091 1424
[03]  22(G23)  f 42  7  0  -4254.4  2046005.4  0.1  2 0 1446 2265 1121
[04]  25(G26)  f 44  7  0  -2094.9  2046002.7 -0.0  2 0 1159 2370 1403
[17]  41(B05) 1f 39 26  0  -1051.4  4092002.6  0.1  2 0  974 1152  479
[18]  46(B10) 1f 38  7  0  -1370.2  4092003.5  0.1  2 0  953  846  229
[19]  54(B18) 1f 40  7  0  -1088.2  4092002.8 -0.0  2 0  593 1141  556
[20]  59(B23) 1f 43 12  0  -2242.6  4092005.8  0.0  2 0 1857 2538 1386
[21]  68(B32) 1f 42  7  0  -3420.6  4092008.8 -0.0  2 0  937 1030  511
[32]  80(N-1)  f 31  7  0  -3990.7  1022002.5  0.0  5 0   542 1089  741
[33]  81(N00)  f 30  9  0  -1390.8  1022000.9 -0.2  5 0   281  580  556
[34]  82(N01)  f 29  7  0  -3801.4  1022002.4  0.1  5 0   100  678  495
[49]  41(B05)  1 25 26  1   -134.7 20460024.2  0.2  1 0  197  354  769
[50]  46(B10)  1  7  7  0  -1441.2 20460023.2 -0.1  1 0  666  717  363
[51]  54(B18)  1  7  7  0    285.5 20460019.1 -0.1  1 0  471  951  591
[52]  59(B23)  1  7  7  0  -1247.8 20460035.3  0.1  1 0  371  568  599
[53]  68(B32)  1  7  7  0  -1992.9 20460055.9  0.0  1 0  791  311  369
$GNGGA,021918.467,,,,,0,00,,,M,,,,0000*2D
$GNRMC,021918.467,A,,,,,,,040419,,*28
$GPGSA,A,1,,,,,,,,,,,,,,,*1E
$BDGSA,A,1,,,,,,,,,,,,,,,*0F
$GLGSA,A,1,,,,,,,,,,,,,,,*02
$GPGSV,2,1,05,03,00,000,45,16,00,000,43,22,00,000,42,23,00,000,42*7C
$GPGSV,2,2,05,26,00,000,44*48
$BDGSV,2,1,05,05,00,000,39,10,00,000,38,18,00,000,40,23,00,000,43*60
$BDGSV,2,2,05,32,00,000,42*5A
$B3CN0,0,0,0,0,0,0,0,0,0,0,0,0,0,0*4C
---00000015--- Acq_st=3 0  2019-4-4 2:19:19 
[00]  02(G03)  f 45  7  0  -2261.5  2046002.9 -0.0  2 0 2063 3212 1644
[01]  15(G16)  f 43  7  0  -4192.6  2046005.4  0.0  2 0 1432 2212  716
[02]  21(G22)  f 43 10  0  -1002.2  2046001.2 -0.0  2 0 1044 1959 1208
[03]  22(G23)  f 42  7  0  -4258.5  2046005.5 -0.0  2 0 1332 1946  900
[04]  25(G26)  f 44  9  0  -2096.7  2046002.7 -0.0  2 0 1711 2237 1227
[17]  41(B05) 1f 41 22  0  -1052.1  4092002.6 -0.7  2 0  859  975  573
[18]  46(B10) 1f 38  7  0  -1368.1  4092003.4  0.4  2 0  606 1042  414
[19]  54(B18) 1f 40  7  0  -1087.0  4092002.7  0.0  2 0 1051 1594  772
[20]  59(B23) 1f 43 14  0  -2244.9  4092005.8  0.0  2 0 1336 1943  694
[21]  68(B32) 1f 41  7  0  -3419.6  4092008.8  0.0  2 0 1404 1741  586
[32]  80(N-1)  f 42  7  0  -3987.3  1022002.5  0.1  2 0   821 1205  775
[33]  81(N00)  f 39 14  0  -1388.9  1022000.9 -0.2  2 0   142  670  480
[34]  82(N01)  f 35  7  0  -3800.4  1022002.4 -0.0  5 0   286  555  314
[49]  41(B05)  1 27 13  0    136.2 20460018.1  0.0  1 0  702  940  464
[50]  46(B10)  1  7  7  0   -457.1 20460022.1  0.1  1 0  362  475  194
[51]  54(B18)  1  7  7  0    218.6 20460017.8 -0.0  1 0  405  583  571
[52]  59(B23)  1  7  7  0   -970.6 20460036.3 -0.0  1 0  577  359  587
[53]  68(B32)  1  7  8  0  -1651.6 20460056.5 -0.0  1 0  159  271  445
$GNGGA,021919.467,,,,,0,00,,,M,,,,0000*2C
$GNRMC,021919.467,A,,,,,,,040419,,*29
$GPGSA,A,1,,,,,,,,,,,,,,,*1E
$BDGSA,A,1,,,,,,,,,,,,,,,*0F
$GLGSA,A,1,,,,,,,,,,,,,,,*02
$GPGSV,2,1,05,03,00,000,45,16,00,000,43,22,00,000,43,23,00,000,42*7D
$GPGSV,2,2,05,26,00,000,44*48
$BDGSV,2,1,05,05,00,000,41,10,00,000,38,18,00,000,40,23,00,000,43*6F
$BDGSV,2,2,05,32,00,000,41*59
$B3CN0,0,0,0,0,0,0,0,0,0,0,0,0,0,0*4C
---00000016--- Acq_st=3 0  2019-4-4 2:19:20 
[00]  02(G03)  f 45  7  0  -2253.9  2046002.9 -0.0  2 0 1682 3231 1406
[01]  15(G16)  f 43  7  0  -4186.0  2046005.4  0.1  2 0 1030 2060  634
[02]  21(G22)  f 43  8  0   -993.6  2046001.2  0.1  2 0 1228 1846  883
[03]  22(G23)  f 42  7  0  -4246.8  2046005.4 -0.0  2 0  857 1467  841
[04]  25(G26)  f 44  7  0  -2087.0  2046002.6 -0.0  2 0 1570 2801 1184
[17]  41(B05) 1f 40 27  0  -1041.7  4092002.5 -0.4  2 0  891  789  285
[18]  46(B10) 1f 38  7  0  -1362.9  4092003.5  0.1  2 0 1047 1531  958
[19]  54(B18) 1f 40  8  0  -1079.7  4092002.7  0.3  2 0 1182 1246  685
[20]  59(B23) 1f 43 10  0  -2235.4  4092005.7 -0.0  2 0 1764 2482 1002
[21]  68(B32) 1f 42  7  0  -3415.2  4092008.8  0.0  2 0 1401 1765  617
[32]  80(N-1)  f 41  7  0  -3979.6  1022002.5 -0.0  2 0   182  861  471
[33]  81(N00)  f 38 15  0  -1380.4  1022000.9  0.4  2 0   362  742  158
[34]  82(N01)  f 34  7  0  -3794.4  1022002.4  0.1  2 0   567  808  400
$GNGGA,021920.467,,,,,0,00,,,M,,,,0000*26
$GNRMC,021920.467,A,,,,,,,040419,,*23
$GPGSA,A,1,,,,,,,,,,,,,,,*1E
$BDGSA,A,1,,,,,,,,,,,,,,,*0F
$GLGSA,A,1,,,,,,,,,,,,,,,*02
$GPGSV,2,1,05,03,00,000,45,16,00,000,43,22,00,000,43,23,00,000,42*7D
$GPGSV,2,2,05,26,00,000,44*48
$BDGSV,2,1,05,05,00,000,40,10,00,000,38,18,00,000,40,23,00,000,43*6E
$BDGSV,2,2,05,32,00,000,42*5A
$B3CN0,0,0,0,0,0,0,0,0,0,0,0,0,0,0*4C
---00000017--- Acq_st=3 0  2019-4-4 2:19:21 
[00]  02(G03)  f 45  7  0  -2260.3  2046002.9  0.0  2 0 1653 3107 1435
[01]  15(G16)  f 43  7  0  -4189.0  2046005.4 -0.1  2 0 1273 1989  878
[02]  21(G22)  f 42 13  0  -1000.7  2046001.2  0.0  2 0 1250 1776  906
[03]  22(G23)  f 42  7  0  -4253.6  2046005.4  0.0  2 0 1099 1560  524
[04]  25(G26)  f 43 10  0  -2094.0  2046002.7 -0.0  2 0 1840 2643 1331
[17]  41(B05) 1f 39 24  0  -1049.0  4092002.5  0.0  2 0 1084 1149  161
[18]  46(B10) 1f 38  7  0  -1363.1  4092003.4 -0.3  2 0  607  554  385
[19]  54(B18) 1f 40  7  0  -1080.8  4092002.7  0.2  2 0  416  762  321
[20]  59(B23) 1f 44  8  0  -2239.1  4092005.7 -0.1  2 0 1329 2237  839
[21]  68(B32) 1f 42  7  0  -3419.7  4092008.8 -0.0  2 0 1554 1921  768
[32]  80(N-1)  f 41  7  0  -3986.6  1022002.5 -0.1  2 0   598  778  250
[33]  81(N00)  f 38 17  0  -1385.8  1022000.8  0.4  2 0   744  976  461
[34]  82(N01)  f 33  7  0  -3801.9  1022002.3  0.0  2 0   428  401  314
[49]  41(B05)  1 24 25  0   -846.1 20460020.8 -0.0  1 0  451  964  846
[50]  46(B10)  1  7  7  0  -1165.1 20460021.2 -0.0  1 0  216  116  598
[51]  54(B18)  1  7  7  0   -958.2 20460017.1 -0.1  1 0   71  448  609
[52]  59(B23)  1  7  7  0  -2381.1 20460035.8 -0.0  1 0  229  619  462
[53]  68(B32)  1  7  7  0  -2883.3 20460056.0 -0.2  1 0  334  303  302
$GNGGA,021921.467,,,,,0,00,,,M,,,,0000*27
$GNRMC,021921.467,A,,,,,,,040419,,*22
$GPGSA,A,1,,,,,,,,,,,,,,,*1E
$BDGSA,A,1,,,,,,,,,,,,,,,*0F
$GLGSA,A,1,,,,,,,,,,,,,,,*02
$GPGSV,2,1,05,03,00,000,45,16,00,000,43,22,00,000,42,23,00,000,42*7C
$GPGSV,2,2,05,26,00,000,43*4F
$BDGSV,2,1,05,05,00,000,39,10,00,000,38,18,00,000,40,23,00,000,44*67
$BDGSV,2,2,05,32,00,000,42*5A
$B3CN0,0,0,0,0,0,0,0,0,0,0,0,0,0,0*4C
---00000018--- Acq_st=7 0  2019-4-4 2:19:22 
[00]  02(G03)  f 45  7  0  -2249.4  2046002.8 -0.0  2 0 2616 3296 1103
[01]  15(G16)  f 43  7  0  -4183.1  2046005.4  0.0  2 0  854 1506 1108
[02]  21(G22)  f 43  9  0   -993.3  2046001.2 -0.0  2 0 1017 2020  610
[03]  22(G23)  f 42  7  0  -4242.8  2046005.4  0.0  2 0  963 1524  788
[04]  25(G26)  f 43  7  0  -2085.1  2046002.6 -0.0  2 0 1603 2393 1173
[17]  41(B05) 1f 39 26  0  -1045.3  4092002.4 -0.8  2 0  726  900  187
[18]  46(B10) 1f 38  7  0  -1355.5  4092003.4 -0.1  2 0  625  796  734
[19]  54(B18) 1f 40  7  0  -1070.0  4092002.7  0.1  2 0  802 1082  581
[20]  59(B23) 1f 44 14  0  -2232.1  4092005.7  0.0  2 0 1812 2217  976
[21]  68(B32) 1f 42  7  0  -3404.7  4092008.8 -0.0  2 0 1544 2262  981
[32]  80(N-1)  f 42  7  0  -3976.2  1022002.5  0.0  2 0   567 1354  536
[33]  81(N00)  f 39 19  0  -1375.8  1022000.9  0.2  2 0   678  962  738
[34]  82(N01)  f 34  7  0  -3792.0  1022002.3  0.0  2 0   216  491  115
[49]  41(B05)  1 26 23  1  -1119.5 20460013.9 -0.1  1 0  318  293  546
[50]  46(B10)  1  7  7  0   -783.0 20460021.3  0.1  1 0  179  132  427
[51]  54(B18)  1  7  7  0  -1014.0 20460017.6 -0.1  1 0  679  368  220
[52]  59(B23)  1  7  7  0  -1776.2 20460035.8  0.2  1 0  235  386  400
[53]  68(B32)  1  8  7  0  -3058.7 20460055.6  0.2  1 0  413  611  536
$GNGGA,021922.467,,,,,0,00,,,M,,,,0000*24
$GNRMC,021922.467,A,,,,,,,040419,,*21
$GPGSA,A,1,,,,,,,,,,,,,,,*1E
$BDGSA,A,1,,,,,,,,,,,,,,,*0F
$GLGSA,A,1,,,,,,,,,,,,,,,*02
$GPGSV,2,1,05,03,00,000,45,16,00,000,43,22,00,000,43,23,00,000,42*7D
$GPGSV,2,2,05,26,00,000,43*4F
$BDGSV,2,1,05,05,00,000,39,10,00,000,38,18,00,000,40,23,00,000,44*67
$BDGSV,2,2,05,32,00,000,42*5A
$B3CN0,0,0,0,0,0,0,0,0,0,0,0,0,0,0*4C
---00000019--- Acq_st=7 0  2019-4-4 2:19:23 
[00]  02(G03)  f 44  7  0  -2262.3  2046002.9 -0.0  2 0 1867 2817 1522
[01]  15(G16)  f 42  7  0  -4192.0  2046005.4 -0.1  2 0  769 1634 1067
[02]  21(G22)  f 42 14  0  -1005.2  2046001.3 -0.0  2 0 1059 1801  949
[03]  22(G23)  f 42  7  0  -4256.9  2046005.4 -0.0  2 0 1284 1390  725
[04]  25(G26)  f 43  7  0  -2094.6  2046002.6  0.1  2 0 2225 2969 1229
[17]  41(B05) 1f 39 31  0  -1058.1  4092002.7 -0.2  2 0  671 1061  796
[18]  46(B10) 1f 38  7  0  -1372.5  4092003.4  0.2  2 0  783 1185  482
[19]  54(B18) 1f 40 11  0  -1085.4  4092002.7 -0.2  2 0 1020 1301  726
[20]  59(B23) 1f 44 11  0  -2243.5  4092005.8  0.1  2 0 1391 2021 1006
[21]  68(B32) 1f 42  7  0  -3420.4  4092008.9  0.0  2 0 1330 1328  495
[32]  80(N-1)  f 42  7  0  -3986.8  1022002.5 -0.0  2 0   639 1277  908
[33]  81(N00)  f 38 20  0  -1389.0  1022000.9  0.3  2 0   339  860  636
[34]  82(N01)  f 34  7  0  -3803.1  1022002.4 -0.0  2 0   497  604  253
[49]  41(B05)  1 25 22  0   -633.7 20460019.2 -0.0  1 0  718  476  708
[50]  46(B10)  1  7  7  0   -720.3 20460020.6  0.1  1 0  492  288  575
[51]  54(B18)  1  7  7  0   -676.9 20460017.3  0.1  1 0  965  658  285
[52]  59(B23)  1  7  7  0  -2034.4 20460036.3 -0.1  1 0  170   56  205
[53]  68(B32)  1  9  7  0  -3624.5 20460053.5 -0.1  1 0  246  147  548
$GNGGA,021923.467,,,,,0,00,,,M,,,,0000*25
$GNRMC,021923.467,A,,,,,,,040419,,*20
$GPGSA,A,1,,,,,,,,,,,,,,,*1E
$BDGSA,A,1,,,,,,,,,,,,,,,*0F
$GLGSA,A,1,,,,,,,,,,,,,,,*02
$GPGSV,2,1,05,03,00,000,44,16,00,000,42,22,00,000,42,23,00,000,42*7C
$GPGSV,2,2,05,26,00,000,43*4F
$BDGSV,2,1,05,05,00,000,39,10,00,000,38,18,00,000,40,23,00,000,44*67
$BDGSV,2,2,05,32,00,000,42*5A
$B3CN0,0,0,0,0,0,0,0,0,0,0,0,0,0,0*4C
---00000020--- Acq_st=3 0  2019-4-4 2:19:24 
[00]  02(G03)  f 44  7  0  -2260.7  2046002.9  0.0  2 0 2157 3345 1501
[01]  15(G16)  f 42  7  0  -4191.1  2046005.4 -0.0  2 0 1256 2403 1056
[02]  21(G22)  f 42 12  0   -999.9  2046001.3 -0.0  2 0 1138 1815 1076
[03]  22(G23)  f 42  7  0  -4254.8  2046005.4  0.0  2 0 1253 1712  598
[04]  25(G26)  f 43  7  0  -2093.4  2046002.7  0.0  2 0 1323 2333 1447
[17]  41(B05) 1f 38 20  0  -1053.8  4092002.7 -0.5  2 0  655  885  546
[18]  46(B10) 1f 38  7  0  -1366.0  4092003.4 -0.2  2 0  388  594  242
[19]  54(B18) 1f 39  7  0  -1083.4  4092002.7  0.2  2 0  749  832  543
[20]  59(B23) 1f 44 14  0  -2240.4  4092005.7 -0.0  2 0 2099 2213  878
[21]  68(B32) 1f 42  7  0  -3420.2  4092008.8 -0.1  2 0 1414 1718  442
[32]  80(N-1)  f 43  7  0  -3985.7  1022002.5  0.1  2 0   567 1446  768
[33]  81(N00)  f 38 16  0  -1387.8  1022000.9  0.0  2 0   672  956  517
[34]  82(N01)  f 34  7  0  -3799.7  1022002.4  0.0  2 0   796  971  282
[49]  41(B05)  1 23 22  0    149.7 20460016.4  0.0  1 0  629  220  468
[50]  46(B10)  1  7  7  0   -793.4 20460021.7  0.0  1 0  426  411  179
[51]  54(B18)  1  7  7  0   -958.1 20460017.1 -0.0  1 0  383  581  851
[52]  59(B23)  1  7  7  0  -2388.7 20460034.8  0.2  1 0  580  368  322
[53]  68(B32)  1  7  7  0  -3725.4 20460054.2  0.1  1 0  276  455  400
$GNGGA,021924.467,,,,,0,00,,,M,,,,0000*22
$GNRMC,021924.467,A,,,,,,,040419,,*27
$GPGSA,A,1,,,,,,,,,,,,,,,*1E
$BDGSA,A,1,,,,,,,,,,,,,,,*0F
$GLGSA,A,1,,,,,,,,,,,,,,,*02
$GPGSV,2,1,05,03,00,000,44,16,00,000,42,22,00,000,42,23,00,000,42*7C
$GPGSV,2,2,05,26,00,000,43*4F
$BDGSV,2,1,05,05,00,000,38,10,00,000,38,18,00,000,39,23,00,000,44*68
$BDGSV,2,2,05,32,00,000,42*5A
$B3CN0,0,0,0,0,0,0,0,0,0,0,0,0,0,0*4C
---00000021--- Acq_st=3 0  2019-4-4 2:19:25 
[00]  02(G03)  f 44  7  0  -2264.3  2046002.9  0.0  2 0 1828 3487 1731
[01]  15(G16)  f 42  7  0  -4191.0  2046005.4  0.0  2 0 1488 1840  996
[02]  21(G22)  f 43 12  0  -1003.5  2046001.2  0.0  2 0  838 1643  638
[03]  22(G23)  f 43  7  0  -4259.3  2046005.5 -0.0  2 0 1269 2048  929
[04]  25(G26)  f 43  7  0  -2094.2  2046002.7 -0.0  2 0 1592 2673 1279
[17]  41(B05) 1f 40 27  0  -1055.0  4092002.7 -0.4  2 0  672 1018  797
[18]  46(B10) 1f 38  7  0  -1374.9  4092003.4  0.0  2 0  924 1080  205
[19]  54(B18) 1f 40  7  0  -1092.1  4092002.7 -0.0  2 0 1200 1114  598
[20]  59(B23) 1f 44 12  0  -2247.7  4092005.8 -0.0  2 0 2177 2058  543
[21]  68(B32) 1f 42  7  0  -3419.8  4092008.9 -0.0  2 0  872 1279  807
[32]  80(N-1)  f 43  7  0  -3987.9  1022002.5 -0.0  2 0   859 1281  882
[33]  81(N00)  f 37 19  0  -1390.4  1022000.9  0.2  2 0   832 1112  211
[34]  82(N01)  f 35  7  0  -3803.1  1022002.3 -0.0  2 0   360  645  589
$GNGGA,021925.467,,,,,0,00,,,M,,,,0000*23
$GNRMC,021925.467,A,,,,,,,040419,,*26
$GPGSA,A,1,,,,,,,,,,,,,,,*1E
$BDGSA,A,1,,,,,,,,,,,,,,,*0F
$GLGSA,A,1,,,,,,,,,,,,,,,*02
$GPGSV,2,1,05,03,00,000,44,16,00,000,42,22,00,000,43,23,00,000,43*7C
$GPGSV,2,2,05,26,00,000,43*4F
$BDGSV,2,1,05,05,00,000,40,10,00,000,38,18,00,000,40,23,00,000,44*69
$BDGSV,2,2,05,32,00,000,42*5A
$B3CN0,0,0,0,0,0,0,0,0,0,0,0,0,0,0*4C
---00000022--- Acq_st=3 0  2019-4-4 2:19:26 
[00]  02(G03)  f 44  7  0  -2265.3  2046002.9 -0.0  2 0 1762 2857 1533
[01]  15(G16)  f 42  7  0  -4193.9  2046005.4  0.1  2 0 1303 1942  806
[02]  21(G22)  f 42  9  0  -1004.6  2046001.2 -0.0  2 0  677 1544  793
[03]  22(G23)  f 43  7  0  -4260.5  2046005.5  0.0  2 0 1003 1827 1278
[04]  25(G26)  f 43  7  0  -2095.1  2046002.6 -0.0  2 0 2402 2646 1045
[05]  30(G31)  1 17  7  0   -178.9  2046001.2  0.1  1 0   96  283  648
[16]  38(B02)  1 10 36  1  -1250.0  4092003.1  0.1  1 0  820 1421  805
[17]  41(B05) 1f 40 28  0  -1049.1  4092002.7 -0.2  2 0 1254 1099  397
[18]  46(B10) 1f 38  9  0  -1367.1  4092003.5 -0.1  2 0  667 1307  492
[19]  54(B18) 1f 40  7  0  -1084.8  4092002.7  0.1  2 0 1027 1294  452
[20]  59(B23) 1f 44 12  0  -2246.1  4092005.8  0.0  2 0 2090 2208  817
[21]  68(B32) 1f 42 12  0  -3424.3  4092008.9 -0.0  2 0 1105 1569  784
[32]  80(N-1)  f 42  7  0  -3987.8  1022002.5 -0.0  2 0   942 1472  775
[33]  81(N00)  f 37 12  0  -1391.3  1022000.9 -0.0  2 0   974  925  420
[34]  82(N01)  f 34  7  0  -3805.8  1022002.3  0.0  2 0   263  546  587
[49]  41(B05)  1 20 22  0   -711.7 20460017.3 -0.1  1 0  587  127  323
[50]  46(B10)  1  7  7  0  -1214.8 20460022.6  0.0  1 0  871  925  125
[51]  54(B18)  1  7  7  0   -924.5 20460015.9 -0.2  1 0 1002 1113  888
[52]  59(B23)  1  7  7  0  -2430.2 20460033.7 -0.1  1 0  240  552  865
[53]  68(B32)  1  7  9  0  -2910.3 20460053.4  0.0  1 0  889  451  426
$GNGGA,021926.467,,,,,0,00,,,M,,,,0000*20
$GNRMC,021926.467,A,,,,,,,040419,,*25
$GPGSA,A,1,,,,,,,,,,,,,,,*1E
$BDGSA,A,1,,,,,,,,,,,,,,,*0F
$GLGSA,A,1,,,,,,,,,,,,,,,*02
$GPGSV,2,1,05,03,00,000,44,16,00,000,42,22,00,000,42,23,00,000,43*7D
$GPGSV,2,2,05,26,00,000,43*4F
$BDGSV,2,1,05,05,00,000,40,10,00,000,38,18,00,000,40,23,00,000,44*69
$BDGSV,2,2,05,32,00,000,42*5A
$B3CN0,0,0,0,0,0,0,0,0,0,0,0,0,0,0*4C
---00000023--- Acq_st=3 0  2019-4-4 2:19:27 
[00]  02(G03)  f 44  7  0  -2255.2  2046002.9  0.0  2 0 1336 2899 1677
[01]  15(G16)  f 43  7  0  -4186.4  2046005.4 -0.0  2 0 1110 1443  625
[02]  21(G22)  f 43  9  0   -994.6  2046001.2  0.0  2 0 1153 1979 1130
[03]  22(G23)  f 42  7  0  -4252.5  2046005.5  0.0  2 0  848 1423  606
[04]  25(G26)  f 43  7  0  -2091.4  2046002.6  0.0  2 0 1701 2008 1094
[05]  30(G31)  7 18  7  0     27.8  2045999.9 -0.2 10 0  515  560  600
[16]  38(B02)  1 14 10  1  -1054.2  4092005.3  0.5  1 0 1537  823  339
[17]  41(B05) 1f 39 23  0  -1052.5  4092002.7  0.8  2 0  989 1164  531
[18]  46(B10) 1f 38  7  0  -1363.0  4092003.5  0.1  2 0  833 1296  588
[19]  54(B18) 1f 40  7  0  -1084.4  4092002.7 -0.0  2 0 1172 1616  674
[20]  59(B23) 1f 44  9  0  -2240.8  4092005.7 -0.0  2 0 2054 2715 1179
[21]  68(B32) 1f 42 11  0  -3411.7  4092008.8  0.1  2 0  872 1809  890
[32]  80(N-1)  f 42  7  0  -3981.7  1022002.5  0.1  2 0   780 1503  915
[33]  81(N00)  f 38 18  0  -1381.4  1022000.9  0.1  2 0   622  814  334
[34]  82(N01)  f 35  7  0  -3796.5  1022002.4 -0.1  2 0   459  384  202
[49]  41(B05)  1 18 21  0   -482.6 20460018.8  0.1  1 0  590  381  240
[50]  46(B10)  1  7  7  0  -1764.2 20460020.8 -0.1  1 0  699  738  140
[51]  54(B18)  1  9  7  0  -1057.3 20460017.9  0.0  1 0  804  906  659
[52]  59(B23)  1  7  7  0  -2763.3 20460035.9  0.0  1 0 1311  631  330
[53]  68(B32)  1  7  7  0  -3132.7 20460055.2 -0.0  1 0  365  414  499
$GNGGA,021927.467,,,,,0,00,,,M,,,,0000*21
$GNRMC,021927.467,A,,,,,,,040419,,*24
$GPGSA,A,1,,,,,,,,,,,,,,,*1E
$BDGSA,A,1,,,,,,,,,,,,,,,*0F
$GLGSA,A,1,,,,,,,,,,,,,,,*02
$GPGSV,2,1,06,03,00,000,44,16,00,000,43,22,00,000,43,23,00,000,42*7F
$GPGSV,2,2,06,26,00,000,43,31,00,000,18*77
$BDGSV,2,1,05,05,00,000,39,10,00,000,38,18,00,000,40,23,00,000,44*67
$BDGSV,2,2,05,32,00,000,42*5A
$B3CN0,0,0,0,0,0,0,0,0,0,0,0,0,0,0*4C
---00000024--- Acq_st=3 0  2019-4-4 2:19:28 
[00]  02(G03)  f 44  7  0  -2265.7  2046002.9 -0.0  2 0 1706 2679 1311
[01]  15(G16)  f 43  7  0  -4195.1  2046005.3  0.0  2 0 1568 2104  823
[02]  21(G22)  f 43  8  0  -1004.4  2046001.2  0.0  2 0 1634 1961  962
[03]  22(G23)  f 42  7  0  -4262.6  2046005.4  0.0  2 0 1339 1835  882
[04]  25(G26)  f 43  7  0  -2097.7  2046002.7  0.0  2 0 1560 2466 1250
[05]  30(G31)  7 28  7  0     18.2  2046000.0  0.1 10 0  373  200  381
[16]  38(B02)  7 30 30  0  -1072.9  4092002.5  0.3  2 0 1018  987  301
[17]  41(B05) 1f 40 27  0  -1065.5  4092002.6 -0.2  2 0 1209 1180  393
[18]  46(B10) 1f 39  9  0  -1372.1  4092003.5 -0.0  2 0  829 1193  437
[19]  54(B18) 1f 39  7  0  -1093.2  4092002.7  0.0  2 0 1199 1219  393
[20]  59(B23) 1f 43 11  0  -2248.8  4092005.8  0.0  2 0 2042 2604  996
[21]  68(B32) 1f 41  7  0  -3422.6  4092008.9  0.0  2 0  940 1222  413
[32]  80(N-1)  f 42  7  0  -3991.3  1022002.6 -0.0  2 0   600 1049  689
[33]  81(N00)  f 38 15  0  -1392.3  1022000.9 -0.2  2 0   618  799  327
[34]  82(N01)  f 35  7  0  -3803.5  1022002.5 -0.1  2 0   462  758  633
[49]  41(B05)  1 23 24  0   -175.6 20460020.7 -0.1  1 0  415  412  288
[50]  46(B10)  1  7  7  0  -1898.6 20460022.7 -0.1  1 0  120  252  494
[51]  54(B18)  1  7  7  0  -1552.2 20460016.4  0.2  1 0   88  507  394
[52]  59(B23)  1  7  7  0  -2685.4 20460037.2  0.1  1 0  379  272  134
[53]  68(B32)  1  7  7  0  -3567.8 20460055.2  0.1  1 0  425  229  245
$GNGGA,021928.467,,,,,0,00,,,M,,,,0000*2E
$GNRMC,021928.467,A,,,,,,,040419,,*2B
$GPGSA,A,1,,,,,,,,,,,,,,,*1E
$BDGSA,A,1,,,,,,,,,,,,,,,*0F
$GLGSA,A,1,,,,,,,,,,,,,,,*02
$GPGSV,2,1,06,03,00,000,44,16,00,000,43,22,00,000,43,23,00,000,42*7F
$GPGSV,2,2,06,26,00,000,43,31,00,000,28*74
$BDGSV,2,1,06,02,00,000,30,05,00,000,39,10,00,000,39,18,00,000,39*6B
$BDGSV,2,2,06,23,00,000,43,32,00,000,41*6C
$B3CN0,0,0,0,0,0,0,0,0,0,0,0,0,0,0*4C
---00000025--- Acq_st=3 0  2019-4-4 2:19:29 
[00]  02(G03)  f 45  7  0  -2262.5  2046002.8 -0.0  2 0 2420 3191 1395
[01]  15(G16)  f 43  7  0  -4190.8  2046005.3  0.1  2 0 1756 2373 1181
[02]  21(G22)  f 43 13  0  -1000.2  2046001.2  0.1  2 0 1061 2276  885
[03]  22(G23)  f 42  7  0  -4257.4  2046005.5  0.0  2 0 1141 1927  779
[04]  25(G26)  f 43  7  0  -2089.9  2046002.6 -0.0  2 0 1748 2421 1173
[05]  30(G31)  7 26  7  0     13.6  2045999.9 -0.0 10 0  397  692  172
[16]  38(B02)  f 35 25  0  -1065.9  4092002.5  0.3  2 0 1600  816  422
[17]  41(B05) 1f 40 28  0  -1059.6  4092002.6  0.7  2 0  669 1026  309
[18]  46(B10) 1f 38  7  0  -1365.7  4092003.5 -0.0  2 0  442  740  135
[19]  54(B18) 1f 39  7  0  -1086.6  4092002.8 -0.0  2 0 1284 1423  493
[20]  59(B23) 1f 43  8  0  -2244.8  4092005.7  0.0  2 0 2027 2685 1456
[21]  68(B32) 1f 42  7  0  -3419.0  4092008.9  0.0  2 0 1529 1638  679
[32]  80(N-1)  f 42  7  0  -3986.4  1022002.5  0.2  2 0   674  970  575
[33]  81(N00)  f 37 17  0  -1389.6  1022001.0 -0.4  2 0   530  809  538
[34]  82(N01)  f 35  7  0  -3800.0  1022002.3  0.1  2 0   342  618  313
[49]  41(B05)  1 24 24  1   -564.5 20460029.5  0.1  1 0  687  851  214
[50]  46(B10)  1  7  7  0  -1920.3 20460022.4  0.2  1 0  818  658  801
[51]  54(B18)  1  7  7  0  -1066.3 20460017.2  0.1  1 0  851  610  244
[52]  59(B23)  1  7  7  0  -3145.9 20460037.0 -0.1  1 0  934  707  281
[53]  68(B32)  1  7  8  0  -3338.3 20460055.9  0.1  1 0  717  589  471
$GNGGA,021929.467,,,,,0,00,,,M,,,,0000*2F
$GNRMC,021929.467,A,,,,,,,040419,,*2A
$GPGSA,A,1,,,,,,,,,,,,,,,*1E
$BDGSA,A,1,,,,,,,,,,,,,,,*0F
$GLGSA,A,1,,,,,,,,,,,,,,,*02
$GPGSV,2,1,06,03,00,000,45,16,00,000,43,22,00,000,43,23,00,000,42*7E
$GPGSV,2,2,06,26,00,000,43,31,00,000,26*7A
$BDGSV,2,1,06,02,00,000,35,05,00,000,40,10,00,000,38,18,00,000,39*61
$BDGSV,2,2,06,23,00,000,43,32,00,000,42*6F
$B3CN0,0,0,0,0,0,0,0,0,0,0,0,0,0,0*4C
---00000026--- Acq_st=3 0  2019-4-4 2:19:30 
[00]  02(G03)  f 45  7  0  -2253.0  2046002.8  0.1  2 0 2032 2987 1557
[01]  15(G16)  f 43  7  0  -4182.9  2046005.3  0.0  2 0 1430 2260 1483
[02]  21(G22)  f 43  7  0   -992.2  2046001.2  0.0  2 0 1481 2308 1347
[03]  22(G23)  f 42  7  0  -4255.7  2046005.5  0.1  2 0  973 1668  692
[04]  25(G26)  f 43  7  0  -2086.8  2046002.6 -0.0  2 0 1218 2126 1240
[05]  30(G31)  7 21  7  0    -95.3  2046000.0 -0.2 10 0  590  606  529
[16]  38(B02)  f 34 25  0  -1053.2  4092002.5 -0.4  2 0 1194  754  105
[17]  41(B05) 1f 40 18  0  -1048.3  4092002.6  0.1  2 0  619 1226  449
[18]  46(B10) 1f 38  7  0  -1357.6  4092003.4 -0.2  2 0  973 1308  635
[19]  54(B18) 1f 40  7  0  -1077.3  4092002.7  0.0  2 0 1103 1303  579
[20]  59(B23) 1f 44 11  0  -2239.8  4092005.7 -0.0  2 0 2147 2471  892
[21]  68(B32) 1f 42 12  0  -3419.5  4092008.8 -0.0  2 0  839 1094  544
[32]  80(N-1)  f 42  7  0  -3979.6  1022002.5  0.0  2 0   562 1007  551
[33]  81(N00)  f 37 14  0  -1380.6  1022000.9 -0.4  2 0   840  984  440
[34]  82(N01)  f 36  7  0  -3794.7  1022002.4 -0.3  2 0   301  399  419
$GNGGA,021930.335,2944.9108,N,10633.0550,E,1,05,3.2,332.9,M,,,,0000*1E
$GNRMC,021930.335,A,2944.9108,N,10633.0550,E,1.22,0.00,040419,,*14
$GPGSA,A,3,03,16,22,23,26,,,,,,,,4.0,3.2,2.5*31
$BDGSA,A,3,,,,,,,,,,,,,4.0,3.2,2.5*21
$GLGSA,A,3,,,,,,,,,,,,,4.0,3.2,2.5*2C
$GPGSV,2,1,06,03,00,000,45,16,00,000,43,22,00,000,43,23,00,000,42*7E
$GPGSV,2,2,06,26,00,000,43,31,00,000,21*7D
$BDGSV,2,1,06,02,00,000,34,05,00,000,40,10,00,000,38,18,00,000,40*6E
$BDGSV,2,2,06,23,00,000,44,32,00,000,42*68
$B3CN0,0,0,0,0,0,0,0,0,0,0,0,0,0,0*4C
---00000027--- Acq_st=7 0  2019-4-4 2:19:30 
[00]  02(G03)  f 45  7  0  -2253.6  2046002.9  0.1  2 0 2646 3438 1327
[01]  15(G16)  f 43  7  0  -4181.4  2046005.4 -0.0  2 0 1070 1809  938
[02]  21(G22)  f 43 10  0   -992.6  2046001.2 -0.0  2 0  862 1987 1252
[03]  22(G23)  f 42  7  0  -4249.2  2046005.5 -0.0  2 0  770 1779 1066
[04]  25(G26)  f 43  7  0  -2085.1  2046002.7 -0.0  2 0 1642 2455 1372
[05]  30(G31)  7 16  7  0   -223.8  2046000.3 -0.0 10 0  189  401  408
[16]  38(B02)  f 36 26  0  -1044.8  4092002.4 -0.8  2 0  807  221  408
[17]  41(B05) 1f 39 28  0  -1047.8  4092002.6 -0.8  2 0  971 1094  450
[18]  46(B10) 1f 38  7  0  -1366.8  4092003.4 -0.1  2 0  948 1121  604
[19]  54(B18) 1f 40  7  0  -1078.2  4092002.7  0.1  2 0 1313 1166  516
[20]  59(B23) 1f 43 12  0  -2236.9  4092005.8  0.0  2 0 1814 2238 1130
[21]  68(B32) 1f 41  9  0  -3414.2  4092008.8  0.1  2 0 1370 1944  583
[32]  80(N-1)  f 42  7  0  -3979.1  1022002.5  0.1  2 0   499 1095  837
[33]  81(N00)  f 37 18  0  -1379.2  1022000.8 -0.1  2 0   600 1011  227
[34]  82(N01)  f 36  7  0  -3792.9  1022002.4  0.2  2 0   292  670  287
[49]  41(B05)  1 23 23  1   -909.5 20460020.7  0.2  1 0 1062 1062  768
[50]  46(B10)  1  7  7  0  -1034.6 20460020.6  0.1  1 0  912  619  237
[51]  54(B18)  1  7  7  0  -1062.4 20460018.2 -0.1  1 0   44  392  562
[52]  59(B23)  1  7  7  0  -1779.1 20460035.3 -0.1  1 0  621  449  192
[53]  68(B32)  1 10  7  0  -2447.1 20460055.1  0.1  1 0  138  462  472
Refix G03: 2, 353989.925128, -2257
Refix G16: 2, 353989.927381, -4187
Refix G22: 2, 353989.925857, -997
Refix G23: 2, 353989.914495, -4256
Refix G26: 2, 353989.932553, -2090
$GNGGA,021932.000,2944.9140,N,10633.0597,E,1,05,3.2,337.0,M,,,,0000*12
$GNRMC,021932.000,A,2944.9140,N,10633.0597,E,0.48,0.00,040419,,*19
$GPGSA,A,3,03,16,22,23,26,,,,,,,,4.0,3.2,2.5*31
$BDGSA,A,3,,,,,,,,,,,,,4.0,3.2,2.5*21
$GLGSA,A,3,,,,,,,,,,,,,4.0,3.2,2.5*2C
$GPGSV,2,1,06,03,00,000,45,16,00,000,43,22,00,000,43,23,00,000,42*7E
$GPGSV,2,2,06,26,00,000,43,31,00,000,16*79
$BDGSV,2,1,06,02,00,000,36,05,00,000,39,10,00,000,38,18,00,000,40*62
$BDGSV,2,2,06,23,00,000,43,32,00,000,41*6C
$B3CN0,0,0,0,0,0,0,0,0,0,0,0,0,0,0*4C
---00000028--- Acq_st=7 0  2019-4-4 2:19:32 
[00]  02(G03)  f 45  7  0  -2255.6  2046002.9 -0.0  2 0 2254 3636 1944
[01]  15(G16)  f 42  7  0  -4186.3  2046005.4 -0.0  2 0 1317 1626  713
[02]  21(G22)  f 43 11  0   -994.6  2046001.2  0.0  2 0 1068 1921  322
[03]  22(G23)  f 42  7  0  -4256.4  2046005.5  0.1  2 0 1240 1941  754
[04]  25(G26)  f 43  7  0  -2090.7  2046002.7 -0.0  2 0 1421 2476 1367
[05]  30(G31)  7 11  7  0   -365.9  2046000.1  0.1 10 0  583   87  430
[16]  38(B02)  f 37 26  0  -1054.8  4092002.5 -0.1  2 0 1194 1036  137
[17]  41(B05) 1f 39 28  0  -1049.0  4092002.7 -0.2  2 0  507  826  455
[18]  46(B10) 1f 38  7  0  -1368.3  4092003.5  0.2  2 0  800 1306  314
[19]  54(B18) 1f 40 10  0  -1084.4  4092002.7 -0.2  2 0  604 1050  154
[20]  59(B23) 1f 43 12  0  -2243.4  4092005.7 -0.0  2 0 1428 2179 1208
[21]  68(B32) 1f 41  7  0  -3416.9  4092008.8  0.1  2 0 1212 1570  407
[32]  80(N-1) 8f 42  7  0  -3982.2  1022002.5  0.0  2 0   812 1609  938
[33]  81(N00) 8f 39 17  0  -1384.0  1022000.8 -0.3  2 0   956 1278  851
[34]  82(N01) 8f 35  7  0  -3800.4  1022002.4  0.0  2 0    45  598  535
[48]  38(B02)  1 17 21  0   -961.7 20460019.8  0.0  1 0  618  584  639
[49]  41(B05)  1 23 23  0   -682.4 20460023.0 -0.1  1 0   92  308  213
[50]  46(B10)  1  7  7  0  -1358.0 20460021.3 -0.1  1 0  677  546  304
[51]  54(B18)  1  7  7  0   -611.1 20460016.7  0.0  1 0  749  361  786
[52]  59(B23)  1  7  7  0  -1088.8 20460035.7 -0.0  1 0  131  249  133
[53]  68(B32)  1  7  8  0  -2380.6 20460055.2  0.1  1 0   34  241  455
Refix G03: 2, 353990.925129, -2255
Refix G16: 2, 353990.927383, -4184
Refix G22: 2, 353990.925858, -994
Refix G23: 2, 353990.914498, -4255
Refix G26: 2, 353990.932554, -2089
$GNGGA,021933.000,2944.9139,N,10633.0613,E,1,05,3.2,337.3,M,,,,0000*11
$GNRMC,021933.000,A,2944.9139,N,10633.0613,E,2.12,1031.88,040419,,*27
$GPGSA,A,3,03,16,22,23,26,,,,,,,,4.0,3.2,2.5*31
$BDGSA,A,3,,,,,,,,,,,,,4.0,3.2,2.5*21
$GLGSA,A,3,,,,,,,,,,,,,4.0,3.2,2.5*2C
$GPGSV,2,1,05,03,33,297,45,16,40,209,42,22,41,270,43,23,05,312,42*7A
$GPGSV,2,2,05,26,74,209,43*47
$BDGSV,2,1,07,02,00,000,37,05,00,000,40,10,00,000,38,18,00,000,40*6C
$BDGSV,2,2,07,23,00,000,43,32,00,000,41,15,26,220,00*5D
$B3CN0,0,0,0,0,0,0,0,0,0,0,0,0,0,0*4C
---00000029--- Acq_st=3 0  2019-4-4 2:19:33 
[00]  02(G03)  f 45  7  0  -2257.5  2046002.9  0.0  2 0 1521 3076 1888
[01]  15(G16)  f 42  7  0  -4186.7  2046005.4 -0.0  2 0 1035 1528  576
[02]  21(G22)  f 44  7  0   -994.6  2046001.2 -0.1  2 0 1222 2208  875
[03]  22(G23)  f 42  7  0  -4255.3  2046005.4  0.1  2 0  824 1568  755
[04]  25(G26)  f 44  7  0  -2089.3  2046002.7  0.0  2 0 1408 1908  371
[05]  30(G31)  7  7  7  0   -480.8  2046000.4  0.1 10 0  254  359  306
[16]  38(B02) 1f 37 22  0  -1057.3  4092002.5 -0.4  2 0  866  942  532
[17]  41(B05) 1f 39 10  0  -1050.2  4092002.6  0.6  2 0 1185 1045  656
[18]  46(B10) 1f 38  7  0  -1357.5  4092003.5  0.0  2 0  774  911  294
[19]  54(B18) 1f 40  7  0  -1084.9  4092002.7  0.2  2 0  322  580  398
[20]  59(B23) 1f 44 10  0  -2240.0  4092005.8 -0.0  2 0 1999 2259  816
[21]  68(B32) 1f 41  7  0  -3418.3  4092008.8 -0.0  2 0  915 1366  762
[32]  80(N-1) 8f 42  7  0  -3979.8  1022002.5 -0.2  2 0   751 1107  750
[33]  81(N00) 8f 39 15  0  -1384.0  1022000.8 -0.1  2 0   334  981  626
[34]  82(N01) 8f 34  7  0  -3796.4  1022002.4 -0.2  2 0   543  592  344
[48]  38(B02)  7 10 10  0   -953.4 20460015.4 -0.0  2 0  121  409  410
[49]  41(B05)  1 22 25  0   -370.0 20460021.4 -0.1  1 0  369  587  362
[50]  46(B10)  1  7  7  0  -1424.1 20460023.5 -0.1  1 0  913  662  278
[51]  54(B18)  1  7  7  0    -28.4 20460015.9  0.1  1 0  584  907  488
[52]  59(B23)  1  7  7  0   -559.3 20460037.1  0.0  1 0  261  260  313
[53]  68(B32)  1  7  7  0  -2127.2 20460055.0 -0.0  1 0  368  655  794
Refix G03: 2, 353991.925131, -2255
Refix G16: 2, 353991.927386, -4186
Refix G22: 2, 353991.925858, -995
Refix G23: 2, 353991.914501, -4255
Refix G26: 2, 353991.932555, -2087
$GNGGA,021934.000,2944.9142,N,10633.0623,E,1,05,3.2,337.7,M,,,,0000*1D
$GNRMC,021934.000,A,2944.9142,N,10633.0623,E,0.57,1031.88,040419,,*2C
$GPGSA,A,3,03,16,22,23,26,,,,,,,,4.0,3.2,2.5*31
$BDGSA,A,3,,,,,,,,,,,,,4.0,3.2,2.5*21
$GLGSA,A,3,,,,,,,,,,,,,4.0,3.2,2.5*2C
$GPGSV,2,1,05,03,33,297,45,16,40,209,42,22,41,270,44,23,05,312,42*7D
$GPGSV,2,2,05,26,74,209,44*40
$BDGSV,2,1,07,02,00,000,37,05,00,000,39,10,00,000,38,18,00,000,40*62
$BDGSV,2,2,07,23,00,000,44,32,00,000,41,15,26,220,00*5A
$B3CN0,0,0,0,0,0,0,0,0,0,0,0,0,0,0*4C
---00000030--- Acq_st=3 0  2019-4-4 2:19:34 
[00]  02(G03)  f 45  7  0  -2255.1  2046002.9 -0.0  2 0 1672 3295 1366
[01]  15(G16)  f 42  7  0  -4188.6  2046005.4  0.0  2 0 1099 1895 1126
[02]  21(G22)  f 43  7  0   -997.7  2046001.2  0.0  2 0 1246 2150 1306
[03]  22(G23)  f 42  7  0  -4259.6  2046005.5 -0.0  2 0 1272 1883  537
[04]  25(G26)  f 44  7  0  -2089.0  2046002.7 -0.0  2 0  901 2264 1181
[16]  38(B02) 1f 37 30  0  -1054.8  4092002.4  0.8  2 0 1258 1084  330
[17]  41(B05) 1f 41 30  0  -1056.6  4092002.6  0.6  2 0  776 1082  601
[18]  46(B10) 1f 38  7  0  -1367.5  4092003.5  0.0  2 0 1008 1045  591
[19]  54(B18) 1f 40  8  0  -1084.8  4092002.7 -0.1  2 0  939 1442  713
[20]  59(B23) 1f 43  7  0  -2242.1  4092005.8 -0.0  2 0 1919 2445  896
[21]  68(B32) 1f 42  7  0  -3417.1  4092008.8  0.0  2 0 1366 1500  668
[32]  80(N-1) 8f 42  7  0  -3981.3  1022002.5 -0.1  2 0   693 1246  452
[33]  81(N00) 8f 40 16  0  -1384.3  1022000.8 -0.3  2 0   887 1014  704
[34]  82(N01) 8f 33  7  0  -3797.6  1022002.4  0.2  2 0   144  373  120
[48]  38(B02)  7 10 10  0  -1275.6 20460022.0  0.1  2 0  788  198  724
[49]  41(B05)  1 23 26  1   -138.9 20460023.1 -0.1  1 0  122  220  343
[50]  46(B10)  1  7  7  0  -1397.0 20460021.8  0.0  1 0  619  439  756
[51]  54(B18)  1  7  7  0    -87.5 20460015.8  0.3  1 0  673  362  654
[52]  59(B23)  1  7  8  0  -1253.8 20460036.2 -0.1  1 0  141  223  212
[53]  68(B32)  1  7  7  0  -2108.6 20460054.3 -0.0  1 0  629  611  191
Refix G03: 2, 353992.925132, -2258
Refix G16: 2, 353992.927389, -4190
Refix G22: 2, 353992.925859, -998
Refix G23: 2, 353992.914503, -4258
Refix G26: 2, 353992.932557, -2089
$GNGGA,021935.000,2944.9138,N,10633.0634,E,1,05,3.2,336.1,M,,,,0000*10
$GNRMC,021935.000,A,2944.9138,N,10633.0634,E,1.30,1031.88,040419,,*26
$GPGSA,A,3,03,16,22,23,26,,,,,,,,4.0,3.2,2.5*31
$BDGSA,A,3,,,,,,,,,,,,,4.0,3.2,2.5*21
$GLGSA,A,3,,,,,,,,,,,,,4.0,3.2,2.5*2C
$GPGSV,2,1,05,03,33,297,45,16,40,209,42,22,41,270,43,23,05,312,42*7A
$GPGSV,2,2,05,26,74,209,44*40
$BDGSV,2,1,07,02,00,000,37,05,00,000,41,10,00,000,38,18,00,000,40*6D
$BDGSV,2,2,07,23,00,000,43,32,00,000,42,15,26,220,00*5E
$B3CN0,0,0,0,0,0,0,0,0,0,0,0,0,0,0*4C
---00000031--- Acq_st=3 0  2019-4-4 2:19:35 
[00]  02(G03)  f 45  7  0  -2263.6  2046002.9  0.0  2 0 2580 3360 1609
[01]  15(G16)  f 42  7  0  -4191.8  2046005.4  0.1  2 0  820 1586  591
[02]  21(G22)  f 43 13  0  -1004.8  2046001.2  0.1  2 0 1373 2106  541
[03]  22(G23)  f 43  7  0  -4263.6  2046005.5  0.0  2 0  618 1627 1051
[04]  25(G26)  f 44  7  0  -2093.4  2046002.7 -0.0  2 0 1413 2479  897
[16]  38(B02) 1f 38 28  0  -1068.5  4092002.6 -0.9  2 0 1058 1144  334
[17]  41(B05) 1f 38 23  0  -1060.3  4092002.7 -0.4  2 0 1089  736  413
[18]  46(B10) 1f 39  7  0  -1367.0  4092003.4 -0.2  2 0  396  715  257
[19]  54(B18) 1f 40  8  0  -1093.5  4092002.7 -0.0  2 0 1071 1270  700
[20]  59(B23) 1f 43 11  0  -2242.7  4092005.8 -0.0  2 0 2083 2609 1215
[21]  68(B32) 1f 41  7  0  -3424.4  4092008.8  0.0  2 0 1413 1596  448
[32]  80(N-1) 8f 42  7  0  -3986.2  1022002.5 -0.1  2 0   835 1346  731
[33]  81(N00) 8f 39 16  0  -1389.2  1022001.0  0.5  2 0   222  513  219
[34]  82(N01) 8f 33  7  0  -3803.7  1022002.4 -0.2  2 0   440  355  190
[48]  38(B02)  7 10 10  1  -1345.6 20460021.5  0.1  2 0  738  152  132
Refix G03: 2, 353993.925134, -2256
Refix G16: 2, 353993.927391, -4188
Refix G22: 2, 353993.925860, -996
Refix G23: 2, 353993.914506, -4257
Refix G26: 2, 353993.932558, -2088
$GNGGA,021936.000,2944.9141,N,10633.0646,E,1,05,3.2,335.7,M,,,,0000*1D
$GNRMC,021936.000,A,2944.9141,N,10633.0646,E,0.89,1031.88,040419,,*2D
$GPGSA,A,3,03,16,22,23,26,,,,,,,,4.0,3.2,2.5*31
$BDGSA,A,3,,,,,,,,,,,,,4.0,3.2,2.5*21
$GLGSA,A,3,,,,,,,,,,,,,4.0,3.2,2.5*2C
$GPGSV,2,1,05,03,33,297,45,16,40,209,42,22,41,270,43,23,05,312,43*7B
$GPGSV,2,2,05,26,74,209,44*40
$BDGSV,2,1,07,02,00,000,38,05,00,000,38,10,00,000,39,18,00,000,40*6D
$BDGSV,2,2,07,23,00,000,43,32,00,000,41,15,26,220,00*5D
$B3CN0,0,0,0,0,0,0,0,0,0,0,0,0,0,0*4C
---00000032--- Acq_st=3 0  2019-4-4 2:19:36 
[00]  02(G03)  f 45  7  0  -2253.1  2046002.8  0.0  2 0 1654 2890 1184
[01]  15(G16)  f 43  7  0  -4187.7  2046005.4 -0.0  2 0  931 2048 1153
[02]  21(G22)  f 44  9  0   -992.5  2046001.2  0.0  2 0 1244 2283 1508
[03]  22(G23)  f 43  7  0  -4255.7  2046005.4 -0.0  2 0 1198 1954  986
[04]  25(G26)  f 44  7  0  -2086.1  2046002.6  0.0  2 0 1297 2210  754
[16]  38(B02) 1f 38 24  0  -1055.0  4092002.5 -0.8  2 0  945 1254  781
[17]  41(B05) 1f 39 23  0  -1053.9  4092002.5  0.9  2 0  914  707  393
[18]  46(B10) 1f 38  7  0  -1364.0  4092003.5  0.3  2 0  754  868  211
[19]  54(B18) 1f 40  7  0  -1081.5  4092002.7 -0.1  2 0 1029 1139  680
[20]  59(B23) 1f 44 13  0  -2240.1  4092005.7 -0.0  2 0 2053 2592 1279
[21]  68(B32) 1f 42  7  0  -3411.6  4092008.8  0.0  2 0 1168 1338  616
[32]  80(N-1) 8f 42  7  0  -3978.1  1022002.5  0.0  2 0   708 1253  513
[33]  81(N00) 8f 37  7  0  -1383.2  1022000.9  0.3  2 0   385  595  223
[34]  82(N01) 8f 33  7  0  -3795.6  1022002.4 -0.0  5 0   439  336  362
[48]  38(B02)  7 13 10  0  -1705.9 20460027.7  0.0  2 0  156  448  596
[49]  41(B05)  1 25 26  1  -1027.0 20460018.0  0.0  1 0  666  367  246
[50]  46(B10)  1  7  7  0  -1082.5 20460021.3 -0.0  1 0  255  178  245
[51]  54(B18)  1  7  7  0   -897.1 20460017.8 -0.0  1 0  811  463  579
[52]  59(B23)  1  7  7  0  -1878.9 20460035.9  0.1  1 0  616  324  509
[53]  68(B32)  1  7  7  0  -2861.2 20460056.5  0.0  1 0  314  336  259
Refix G03: 2, 353994.925135, -2248
Refix G16: 2, 353994.927394, -4181
Refix G22: 2, 353994.925860, -988
Refix G23: 2, 353994.914509, -4252
Refix G26: 2, 353994.932559, -2080
$GNGGA,021937.000,2944.9142,N,10633.0661,E,1,05,3.2,334.8,M,,,,0000*14
$GNRMC,021937.000,A,2944.9142,N,10633.0661,E,1.08,1031.88,040419,,*22
$GPGSA,A,3,03,16,22,23,26,,,,,,,,4.0,3.2,2.5*31
$BDGSA,A,3,,,,,,,,,,,,,4.0,3.2,2.5*21
$GLGSA,A,3,,,,,,,,,,,,,4.0,3.2,2.5*2C
$GPGSV,2,1,05,03,33,297,45,16,40,209,43,22,41,270,44,23,05,312,43*7D
$GPGSV,2,2,05,26,74,209,44*40
$BDGSV,2,1,07,02,00,000,38,05,00,000,39,10,00,000,38,18,00,000,40*6D
$BDGSV,2,2,07,23,00,000,44,32,00,000,42,15,26,220,00*59
$B3CN0,0,0,0,0,0,0,0,0,0,0,0,0,0,0*4C
---00000033--- Acq_st=3 0  2019-4-4 2:19:37 
[00]  02(G03)  f 45  7  0  -2246.1  2046002.8 -0.0  2 0 2782 3999 1722
[01]  15(G16)  f 42  8  0  -4176.3  2046005.4  0.1  2 0 1070 1672  806
[02]  21(G22)  f 44 11  0   -986.0  2046001.2  0.1  2 0 1545 2215  741
[03]  22(G23)  f 43  7  0  -4249.3  2046005.5 -0.1  2 0  918 1799  859
[04]  25(G26)  f 44  7  0  -2080.3  2046002.7 -0.0  2 0 1293 1903  571
[16]  38(B02) 1f 39 28  0  -1050.9  4092002.5 -0.4  2 0 1003  902  322
[17]  41(B05) 1f 38 31  0  -1046.7  4092002.6  0.2  2 0 1156 1555  574
[18]  46(B10) 1f 38  7  0  -1357.7  4092003.4  0.3  2 0  504  838  355
[19]  54(B18) 1f 40  7  0  -1075.7  4092002.7  0.1  2 0  685 1166  549
[20]  59(B23) 1f 44 11  0  -2231.4  4092005.7  0.1  2 0 1605 2481  877
[21]  68(B32) 1f 41  7  0  -3407.2  4092008.8  0.1  2 0  696 1148  870
[32]  80(N-1) 8f 42  7  0  -3971.5  1022002.5 -0.0  2 0   574  851  283
[33]  81(N00) 8f 37 19  0  -1376.3  1022000.8 -0.1  2 0   351  585  508
[34]  82(N01) 8f 34  7  0  -3788.3  1022002.4  0.1  5 0   397  586  262
[49]  41(B05)  1 27 26  0  -1361.0 20460011.5  0.1  1 0  508  477  328
[50]  46(B10)  1  7  7  0   -844.2 20460022.9  0.1  1 0  834  770  588
[51]  54(B18)  1  7  7  0  -1338.6 20460016.2  0.2  1 0  548  756  389
[52]  59(B23)  1  7  7  0  -1653.5 20460037.2  0.0  1 0  369  214  124
[53]  68(B32)  1  8  7  0  -2717.2 20460056.0 -0.0  1 0  195  233  145
Refix G03: 2, 353995.925136, -2257
Refix G16: 2, 353995.927397, -4187
Refix G22: 2, 353995.925861, -997
Refix G23: 2, 353995.914512, -4259
Refix G26: 2, 353995.932561, -2088
$GNGGA,021938.000,2944.9138,N,10633.0676,E,1,05,3.2,332.7,M,,,,0000*19
$GNRMC,021938.000,A,2944.9138,N,10633.0676,E,0.37,1031.88,040419,,*2B
$GPGSA,A,3,03,16,22,23,26,,,,,,,,4.0,3.2,2.5*31
$BDGSA,A,3,,,,,,,,,,,,,4.0,3.2,2.5*21
$GLGSA,A,3,,,,,,,,,,,,,4.0,3.2,2.5*2C
$GPGSV,2,1,05,03,33,297,45,16,40,209,42,22,41,270,44,23,05,312,43*7C
$GPGSV,2,2,05,26,74,209,44*40
$BDGSV,2,1,07,02,00,000,39,05,00,000,38,10,00,000,38,18,00,000,40*6D
$BDGSV,2,2,07,23,00,000,44,32,00,000,41,15,26,220,00*5A
$B3CN0,0,0,0,0,0,0,0,0,0,0,0,0,0,0*4C
---00000034--- Acq_st=3 0  2019-4-4 2:19:38 
[00]  02(G03)  f 45  7  0  -2262.3  2046002.8  0.0  2 0 2748 3995 1796
[01]  15(G16)  f 42  9  0  -4195.8  2046005.4 -0.0  2 0  795 1306  662
[02]  21(G22)  f 44 10  0  -1003.9  2046001.2 -0.0  2 0 1444 2561  968
[03]  22(G23)  f 43  7  0  -4266.8  2046005.5 -0.0  2 0 1277 1505  761
[04]  25(G26)  f 43  7  0  -2095.4  2046002.7 -0.0  2 0 1275 2252 1225
[16]  38(B02) 1f 39 28  0  -1067.9  4092002.6  0.2  2 0  935 1137  539
[17]  41(B05) 1f 41 26  0  -1065.8  4092002.7 -0.6  2 0 1013 1096  402
[18]  46(B10) 1f 38  7  0  -1377.4  4092003.5  0.0  2 0  717  914  305
[19]  54(B18) 1f 40 11  0  -1099.8  4092002.8 -0.0  2 0  900 1201  993
[20]  59(B23) 1f 44 12  0  -2251.1  4092005.8 -0.0  2 0 2147 2473 1033
[21]  68(B32) 1f 41  9  0  -3426.5  4092008.9 -0.0  2 0 1069 1604  544
[32]  80(N-1) 8f 42  7  0  -3988.2  1022002.5 -0.1  2 0   860 1270  564
[33]  81(N00) 8f 38 17  0  -1391.6  1022000.8 -0.7  2 0   729  982  214
[34]  82(N01) 8f 35  7  0  -3805.1  1022002.4 -0.2  2 0   150  801  557
[48]  38(B02)  1 22 10  0  -1020.6 20460021.3  0.0  1 0  676  301  382
[49]  41(B05)  1 24 22  1  -1379.3 20460020.3 -0.1  1 0  875  653  603
[50]  46(B10)  1  7  7  0   -310.8 20460022.3  0.1  1 0  647  553  341
[51]  54(B18)  1  7  7  0  -1188.2 20460018.0 -0.1  1 0  243  303  356
[52]  59(B23)  1  7  7  0  -1679.2 20460035.7 -0.1  1 0  162  498  168
[53]  68(B32)  1  7  7  0  -2361.7 20460057.2 -0.0  1 0  319   77  197
Refix G03: 2, 353996.925138, -2260
Refix G16: 2, 353996.927399, -4191
Refix G22: 2, 353996.925861, -1001
Refix G23: 2, 353996.914514, -4264
Refix G26: 2, 353996.932562, -2091
$GNGGA,021939.000,2944.9134,N,10633.0695,E,1,05,3.2,329.9,M,,,,0000*1D
$GNRMC,021939.000,A,2944.9134,N,10633.0695,E,1.24,1031.88,040419,,*28
$GPGSA,A,3,03,16,22,23,26,,,,,,,,4.0,3.2,2.5*31
$BDGSA,A,3,,,,,,,,,,,,,4.0,3.2,2.5*21
$GLGSA,A,3,,,,,,,,,,,,,4.0,3.2,2.5*2C
$GPGSV,2,1,05,03,33,297,45,16,40,209,42,22,41,270,44,23,05,312,43*7C
$GPGSV,2,2,05,26,74,209,43*47
$BDGSV,2,1,07,02,00,000,39,05,00,000,41,10,00,000,38,18,00,000,40*63
$BDGSV,2,2,07,23,00,000,44,32,00,000,41,15,26,220,00*5A
$B3CN0,0,0,0,0,0,0,0,0,0,0,0,0,0,0*4C
$GLGSV,1,1,03,05,00,000,42,15,00,000,38,16,00,000,35*5B
---00000035--- Acq_st=3 0  2019-4-4 2:19:39 
[00]  02(G03)  f 45  7  0  -2253.6  2046002.8  0.1  2 0 2412 3742 1686
[01]  15(G16)  f 42  7  0  -4183.3  2046005.4  0.1  2 0  953 1919 1014
[02]  21(G22)  f 44 12  0   -994.2  2046001.2  0.0  2 0 1545 2343  920
[03]  22(G23)  f 42  7  0  -4256.7  2046005.4  0.0  2 0 1596 2155 1255
[04]  25(G26)  f 44  7  0  -2087.6  2046002.6  0.0  2 0 1610 2190  901
[16]  38(B02) 1f 39 21  0  -1057.7  4092002.7 -0.4  2 0 1359 1396  505
[17]  41(B05) 1f 40 25  0  -1057.6  4092002.6 -0.2  2 0 1062 1114  635
[18]  46(B10) 1f 39  7  0  -1368.1  4092003.5  0.1  2 0  782 1062  634
[19]  54(B18) 1f 40  7  0  -1090.6  4092002.7 -0.1  2 0  993 1075  376
[20]  59(B23) 1f 44 12  0  -2242.4  4092005.8  0.1  2 0 1898 2754 1600
[21]  68(B32) 1f 41  7  0  -3419.0  4092008.9 -0.1  2 0  924 1561 1027
[32]  80(N-1) 8f 43  7  0  -3982.0  1022002.5  0.2  2 0   865 1502  694
[33]  81(N00) 8f 38 14  0  -1384.6  1022000.8 -0.7  2 0   439  593  713
[34]  82(N01) 8f 36  7  0  -3797.1  1022002.3  0.0  2 0   647  562   94
[35]  76(N-5)  1 19  7  0   3000.0  1021999.9 -0.0  1 0   150  381  390
[48]  38(B02)  7 20 10  0  -1554.2 20460024.1 -0.1  2 0  712  399  137
[49]  41(B05)  1 28 22  0  -1404.7 20460018.6  0.0  1 0  398  400  236
[50]  46(B10)  1  7 10  0    -71.9 20460022.3  0.0  1 0  110  688  488
[51]  54(B18)  1  7  7  0  -1029.9 20460017.7  0.1  1 0  376  890  456
[52]  59(B23)  1  7  7  0  -1551.9 20460036.9  0.3  1 0  385  509  498
[53]  68(B32)  1 10  7  0  -2712.2 20460054.4 -0.0  1 0  256  120  401
Refix G03: 2, 353997.925139, -2253
Refix G16: 2, 353997.927402, -4185
Refix G22: 2, 353997.925862, -993
Refix G23: 2, 353997.914517, -4258
Refix G26: 2, 353997.932563, -2085
$GNGGA,021940.000,2944.9124,N,10633.0710,E,1,05,3.2,326.2,M,,,,0000*1A
$GNRMC,021940.000,A,2944.9124,N,10633.0710,E,0.48,1031.88,040419,,*20
$GPGSA,A,3,03,16,22,23,26,,,,,,,,4.0,3.2,2.5*31
$BDGSA,A,3,,,,,,,,,,,,,4.0,3.2,2.5*21
$GLGSA,A,3,,,,,,,,,,,,,4.0,3.2,2.5*2C
$GPGSV,2,1,05,03,33,297,45,16,40,209,42,22,41,270,44,23,05,312,42*7D
$GPGSV,2,2,05,26,74,209,44*40
$BDGSV,2,1,07,02,00,000,39,05,00,000,40,10,00,000,39,18,00,000,40*63
$BDGSV,2,2,07,23,00,000,44,32,00,000,41,15,26,220,00*5A
$B3CN0,0,20,0,0,0,0,0,0,0,0,0,0,0,0*7E
$GLGSV,1,1,03,05,44,326,43,15,54,290,38,16,13,246,36*56
---00000036--- Acq_st=7 0  2019-4-4 2:19:40 
[00]  02(G03)  f 45  7  0  -2250.4  2046002.9 -0.1  2 0 2410 3846 1970
[01]  15(G16)  f 43  7  0  -4183.8  2046005.3 -0.0  2 0 1140 1897  905
[02]  21(G22)  f 44 10  0   -988.6  2046001.2  0.0  2 0 1658 2526  549
[03]  22(G23)  f 42  7  0  -4256.8  2046005.4 -0.0  2 0 1174 1814  614
[04]  25(G26)  f 44  7  0  -2080.0  2046002.6  0.0  2 0 1917 2126  567
[16]  38(B02) 1f 39 27  0  -1051.6  4092002.7 -0.1  2 0  626 1011  536
[17]  41(B05) 1f 39 28  0  -1050.5  4092002.7  0.5  2 0  884 1199  593
[18]  46(B10) 1f 39  7  0  -1367.2  4092003.5  0.3  2 0  985  889  268
[19]  54(B18) 1f 40  7  0  -1085.8  4092002.7 -0.1  2 0 1406 1544  504
[20]  59(B23) 1f 44 13  0  -2236.6  4092005.7 -0.0  2 0 1360 2158 1180
[21]  68(B32) 1f 40  7  0  -3408.2  4092008.8 -0.0  2 0  832 1253  471
[32]  80(N-1) 8f 43  7  0  -3972.4  1022002.5  0.0  2 0  1011 1671  693
[33]  81(N00) 8f 38 16  0  -1375.2  1022000.8  0.6  2 0   679  841  338
[34]  82(N01) 8f 35  7  0  -3790.8  1022002.4  0.0  2 0   633  802  259
[35]  76(N-5)  1 24 14  0   3035.7  1021999.1  0.2  1 0   514  357  178
[48]  38(B02)  7 21 18  0  -2040.3 20460033.6 -0.0  2 0  147  196   90
Refix G03: 2, 353998.925141, -2250
Refix G16: 2, 353998.927404, -4183
Refix G22: 2, 353998.925863, -990
Refix G23: 2, 353998.914520, -4256
Refix G26: 2, 353998.932564, -2083
$GNGGA,021941.000,2944.9114,N,10633.0717,E,1,05,3.2,323.0,M,,,,0000*18
$GNRMC,021941.000,A,2944.9114,N,10633.0717,E,0.96,1031.88,040419,,*26
$GPGSA,A,3,03,16,22,23,26,,,,,,,,4.0,3.2,2.5*31
$BDGSA,A,3,,,,,,,,,,,,,4.0,3.2,2.5*21
$GLGSA,A,3,,,,,,,,,,,,,4.0,3.2,2.5*2C
$GPGSV,2,1,05,03,33,297,45,16,40,209,43,22,41,270,44,23,05,312,42*7C
$GPGSV,2,2,05,26,74,209,44*40
$BDGSV,2,1,07,02,00,000,39,05,00,000,39,10,00,000,39,18,00,000,40*6D
$BDGSV,2,2,07,23,00,000,44,32,00,000,40,15,26,220,00*5B
$B3CN0,0,21,0,0,0,0,0,0,0,0,0,0,0,0*7F
$GLGSV,1,1,03,05,44,326,43,15,54,290,38,16,13,246,35*55
---00000037--- Acq_st=7 0  2019-4-4 2:19:41 
[00]  02(G03)  f 45  7  0  -2251.9  2046002.8  0.0  2 0 1946 3328 1879
[01]  15(G16)  f 42  7  0  -4185.5  2046005.3 -0.0  2 0 1129 1962 1168
[02]  21(G22)  f 43 12  0   -994.1  2046001.2 -0.0  2 0 1337 1946  654
[03]  22(G23)  f 43  7  0  -4256.5  2046005.5 -0.0  2 0 1471 1813  868
[04]  25(G26)  f 43  7  0  -2081.9  2046002.6  0.0  2 0 1792 2602 1383
[16]  38(B02) 1f 39 28  0  -1056.0  4092002.5  0.1  2 0  950  949  247
[17]  41(B05) 1f 40 21  0  -1054.2  4092002.8  0.0  2 0  751  987  307
[18]  46(B10) 1f 38  7  0  -1370.4  4092003.5 -0.1  2 0  600  842  637
[19]  54(B18) 1f 40  7  0  -1086.2  4092002.7 -0.1  2 0  745  882  420
[20]  59(B23) 1f 44 12  0  -2238.5  4092005.8 -0.0  2 0 1497 2473 1206
[21]  68(B32) 1f 40  7  0  -3412.0  4092008.8  0.0  2 0  824  997  505
[32]  80(N-1) 8f 42  7  0  -3975.1  1022002.5  0.1  2 0   825 1581  743
[33]  81(N00) 8f 39 20  0  -1382.6  1022000.8 -0.1  2 0   673  973  222
[34]  82(N01) 8f 36  7  0  -3793.0  1022002.4  0.3  2 0   265  494  452
[35]  76(N-5)  7 26 14  0   2971.1  1021998.1  0.2 10 0   453  414  325
[48]  38(B02)  7 21 10  1  -2343.0 20460037.9 -0.0  2 0  249  669  768
[49]  41(B05)  1 23 22  1  -1099.0 20460014.0  0.2  1 0  340  243  444
[50]  46(B10)  1  7  7  0   -789.0 20460022.4  0.1  1 0  482  283  327
[51]  54(B18)  1  7  7  0   -859.5 20460017.2  0.1  1 0  302  578  430
[52]  59(B23)  1  7  7  0  -1183.3 20460034.4 -0.2  1 0  470  279 1037
[53]  68(B32)  1  7  7  0  -2781.2 20460054.0  0.0  1 0  260   55   69
Refix G03: 2, 353999.925142, -2254
Refix G16: 2, 353999.927407, -4186
Refix G22: 2, 353999.925863, -994
Refix G23: 2, 353999.914522, -4261
Refix G26: 2, 353999.932566, -2086
$GNGGA,021942.000,2944.9106,N,10633.0731,E,1,08,1.2,318.7,M,,,,0000*1C
