i=1
Rf R0 Config = ff777073
Rf R1 Config = 00dffbfe
Rf R52 Config = 00dfeec0
i=2
Rf R0 Config = 007772f3
Rf R1 Config = 00dffbfe
Rf R52 Config = 00d8ced0
i=3
Rf R0 Config = 007772f3
Rf R1 Config = 00dfdbfe
Rf R52 Config = 00deaeb0
i=4
Rf R0 Config = 00777273
Rf R1 Config = 00df1bfe
Rf R52 Config = 00de2e40
SD initialized success
Create debug.log Failed! 3
Start Channel by LuYu
$GNGGA,000000.000,,,,,0,00,,,M,,,,0000*2B
$GNRMC,000000.000,A,,,,,,,060180,,*29
$GPGSA,A,1,,,,,,,,,,,,,,,*1E
$BDGSA,A,1,,,,,,,,,,,,,,,*0F
$GLGSA,A,1,,,,,,,,,,,,,,,*02
$B3CN0,0,0,0,0,0,0,0,0,0,0,0,0,0,0*4C
---00000001--- Acq_st=3 0  2019-4-4 1:45:49 
[00]  00(G01)  1 26  7  0    691.3  2045999.7  0.3  1 0  838 1032  167
[01]  02(G03)  1 19  7  0  -3378.0  2046005.0  0.2  1 0 1438 1728 1044
$GNGGA,000000.000,,,,,0,00,,,M,,,,0000*2B
$GNRMC,000000.000,A,,,,,,,060180,,*29
$GPGSA,A,1,,,,,,,,,,,,,,,*1E
$BDGSA,A,1,,,,,,,,,,,,,,,*0F
$GLGSA,A,1,,,,,,,,,,,,,,,*02
$B3CN0,0,0,0,0,0,0,0,0,0,0,0,0,0,0*4C
---00000002--- Acq_st=3 0  2019-4-4 1:45:50 
[00]  00(G01)  7 24  7  0    688.0  2045998.9  1.0 10 0  698 1031   52
[01]  02(G03)  7 20  7  0  -3378.4  2046004.3  0.8 10 0 1212 2119 1278
[02]  15(G16)  1 19  7  0  -4862.7  2046006.9  0.1  1 0  400  925  645
[03]  17(G18)  1 14 16  0   1050.9  2045999.9  0.0  1 0  500 1424  963
[04]  21(G22)  1  7  7  0  -2000.0  2046004.7 -0.0  1 0  374  866 1621
[05]  25(G26)  1  7  7  0  -3250.0  2046005.9  0.0  1 0  185  529 1302
$GNGGA,000000.000,,,,,0,00,,,M,,,,0000*2B
$GNRMC,000000.000,A,,,,,,,060180,,*29
$GPGSA,A,1,,,,,,,,,,,,,,,*1E
$BDGSA,A,1,,,,,,,,,,,,,,,*0F
$GLGSA,A,1,,,,,,,,,,,,,,,*02
$GPGSV,1,1,02,01,00,000,24,03,00,000,20*7D
$B3CN0,0,0,0,0,0,0,0,0,0,0,0,0,0,0*4C
---00000003--- Acq_st=3 0  2019-4-4 1:45:51 
[00]  00(G01)  7 38  7  0    692.3  2045999.0  0.3  2 0  918  617  331
[01]  02(G03)  7 43  9  0  -3375.5  2046004.3  0.0  2 0 1123 1581  567
[02]  15(G16)  7 17  7  0  -4865.3  2046006.3  0.9 10 0  712  883  531
[03]  17(G18)  7  7  7  0   1052.9  2045998.5  1.0  2 0 1036 1508  744
[04]  21(G22)  1 35 10  0  -2165.4  2046002.6  0.7  1 0 1191 2173  719
[05]  25(G26)  1 31  7  0  -3253.1  2046004.6  0.5  1 0  995 1108  497
$GNGGA,000000.000,,,,,0,00,,,M,,,,0000*2B
$GNRMC,000000.000,A,,,,,,,060180,,*29
$GPGSA,A,1,,,,,,,,,,,,,,,*1E
$BDGSA,A,1,,,,,,,,,,,,,,,*0F
$GLGSA,A,1,,,,,,,,,,,,,,,*02
$GPGSV,1,1,03,01,00,000,38,03,00,000,43,16,00,000,17*45
$B3CN0,0,0,0,0,0,0,0,0,0,0,0,0,0,0*4C
---00000004--- Acq_st=3 0  2019-4-4 1:45:52 
[00]  00(G01)  7 38  7  0    695.5  2045999.0  0.3  2 0 1134 1237  555
[01]  02(G03)  7 42  7  0  -3374.0  2046004.3  0.0  2 0 1242 1720  980
[02]  15(G16)  7 38  7  0  -4862.5  2046006.2  0.2  2 0  654  874  127
[03]  17(G18)  7 41  7  0   1055.7  2045998.5  0.1  2 0  917  964  183
[04]  21(G22)  7 33  7  0  -2163.1  2046002.7  0.3  5 0 1725 2177  937
[05]  25(G26)  7 27  7  0  -3245.7  2046004.2  0.5 10 0 1256 1421  703
[16]  41(B05)  1 13 10  0   -529.0  4092000.9 -0.2  1 0  139  126   61
$GNGGA,000000.000,,,,,0,00,,,M,,,,0000*2B
$GNRMC,000000.000,A,,,,,,,060180,,*29
$GPGSA,A,1,,,,,,,,,,,,,,,*1E
$BDGSA,A,1,,,,,,,,,,,,,,,*0F
$GLGSA,A,1,,,,,,,,,,,,,,,*02
$GPGSV,2,1,06,01,00,000,38,03,00,000,42,16,00,000,38,18,00,000,41*73
$GPGSV,2,2,06,22,00,000,33,26,00,000,27*7E
$B3CN0,0,0,0,0,0,0,0,0,0,0,0,0,0,0*4C
---00000005--- Acq_st=3 0  2019-4-4 1:45:53 
[00]  00(G01)  7 38  7  0    686.8  2045999.0 -0.1  2 0  673 1190  695
[01]  02(G03)  7 43  7  0  -3377.5  2046004.3  0.1  2 0 1592 2280  937
[02]  15(G16)  7 39  8  0  -4862.9  2046006.2  0.1  2 0  747 1252  755
[03]  17(G18)  7 40  7  0   1055.6  2045998.5 -0.1  2 0 1224 1625  755
[04]  21(G22)  7 43  7  0  -2164.3  2046002.7 -0.0  2 0 1365 2131 1141
[05]  25(G26)  7 40  7  0  -3251.4  2046004.2  0.1  2 0  815 1268  426
[16]  41(B05)  1 17 10  0    340.3  4092001.3  0.1  1 0  414  324   92
$GNGGA,000000.000,,,,,0,00,,,M,,,,0000*2B
$GNRMC,000000.000,A,,,,,,,060180,,*29
$GPGSA,A,1,,,,,,,,,,,,,,,*1E
$BDGSA,A,1,,,,,,,,,,,,,,,*0F
$GLGSA,A,1,,,,,,,,,,,,,,,*02
$GPGSV,2,1,06,01,00,000,38,03,00,000,43,16,00,000,39,18,00,000,40*72
$GPGSV,2,2,06,22,00,000,43,26,00,000,40*78
$B3CN0,0,0,0,0,0,0,0,0,0,0,0,0,0,0*4C
---00000006--- Acq_st=3 0  2019-4-4 1:45:54 
[00]  00(G01)  7 38  9  0    692.7  2045999.0 -0.0  2 0   71  597  302
[01]  02(G03)  7 43  7  0  -3372.5  2046004.3 -0.0  2 0 1447 1919  597
[02]  15(G16)  7 39  7  0  -4862.9  2046006.3  0.4  2 0  724 1020  290
[03]  17(G18)  7 40  7  0   1064.5  2045998.5 -0.0  2 0  538  793  653
[04]  21(G22)  7 43  7  0  -2156.8  2046002.7 -0.0  2 0 1321 2275  854
[05]  25(G26)  7 39  7  0  -3243.9  2046004.2  0.1  2 0  542  970  581
[16]  41(B05)  7 18 24  0    168.0  4091999.8  0.0  2 0  298  202  267
[17]  54(B18)  1  7  7  0  -1262.3  4092002.9  0.2  1 0  853 1341  764
$GNGGA,014555.562,,,,,0,00,,,M,,,,0000*2A
$GNRMC,014555.562,A,,,,,,,100180,,*2F
$GPGSA,A,1,,,,,,,,,,,,,,,*1E
$BDGSA,A,1,,,,,,,,,,,,,,,*0F
$GLGSA,A,1,,,,,,,,,,,,,,,*02
$GPGSV,2,1,06,01,00,000,38,03,00,000,43,16,00,000,39,18,00,000,40*72
$GPGSV,2,2,06,22,00,000,43,26,00,000,39*76
$BDGSV,1,1,01,05,00,000,16*5B
$B3CN0,0,0,0,0,0,0,0,0,0,0,0,0,0,0*4C
---00000007--- Acq_st=3 0  2019-4-4 1:45:55 
[00]  00(G01)  f 39  9  0    688.7  2045999.1 -0.0  2 0  457  864  397
[01]  02(G03)  f 42  7  0  -3372.0  2046004.3  0.1  2 0  969 1842  820
[02]  15(G16)  f 40  7  0  -4858.8  2046006.2 -0.1  2 0  867 1302  619
[03]  17(G18)  f 40  7  0   1052.7  2045998.5  0.0  2 0  732 1170  516
[04]  21(G22)  f 44  7  0  -2159.5  2046002.7  0.0  2 0 1378 2064  867
[05]  25(G26)  f 39  7  0  -3246.6  2046004.2  0.1  2 0  487 1411  780
[16]  41(B05)  7 18 32  1     -8.9  4091999.9  0.0  2 0  288  323  174
[17]  54(B18)  1  7  7  0  -1263.8  4092003.2  0.4  1 0  641  999  512
[18]  59(B23)  1  7 11  0  -2733.2  4092009.7  0.1  1 0  443  873 1018
$GNGGA,014556.562,,,,,0,00,,,M,,,,0000*29
$GNRMC,014556.562,A,,,,,,,100180,,*2C
$GPGSA,A,1,,,,,,,,,,,,,,,*1E
$BDGSA,A,1,,,,,,,,,,,,,,,*0F
$GLGSA,A,1,,,,,,,,,,,,,,,*02
$GPGSV,2,1,06,01,00,000,39,03,00,000,42,16,00,000,40,18,00,000,40*7C
$GPGSV,2,2,06,22,00,000,44,26,00,000,39*71
$B3CN0,0,0,0,0,0,0,0,0,0,0,0,0,0,0*4C
---00000008--- Acq_st=3 0  2019-4-4 1:45:56 
[00]  00(G01)  f 39  7  0    683.2  2045999.1  0.1  2 0  693 1043  416
[01]  02(G03)  f 42  7  0  -3371.1  2046004.4 -0.0  2 0  422 1543  794
[02]  15(G16)  f 40  7  0  -4862.5  2046006.2 -0.0  2 0  888 1383  519
[03]  17(G18)  f 39  7  0   1052.1  2045998.6 -0.0  2 0  956  850  263
[04]  21(G22)  f 42  7  0  -2162.2  2046002.8 -0.0  2 0 1067 2023  621
[05]  25(G26)  f 39  7  0  -3247.9  2046004.1 -0.0  2 0  674 1360  647
[16]  41(B05)  7 10 31  1     -9.9  4092000.1  0.1  2 0  263  372  179
[17]  54(B18)  7 39  7  0  -1264.3  4092003.3 -0.0  2 0  825  699  202
[18]  59(B23)  7 23  7  0  -2736.5  4092007.0  0.0 10 0  806  876  173
[19]  68(B32)  1  7  7  0  -4000.0  4092012.2 -0.0  1 0  760 1253  940
$GNGGA,014557.562,,,,,0,00,,,M,,,,0000*28
$GNRMC,014557.562,A,,,,,,,100180,,*2D
$GPGSA,A,1,,,,,,,,,,,,,,,*1E
$BDGSA,A,1,,,,,,,,,,,,,,,*0F
$GLGSA,A,1,,,,,,,,,,,,,,,*02
$GPGSV,2,1,06,01,00,000,39,03,00,000,42,16,00,000,40,18,00,000,39*72
$GPGSV,2,2,06,22,00,000,42,26,00,000,39*77
$BDGSV,1,1,03,05,00,000,36,18,00,000,38,23,00,000,23*59
$B3CN0,0,0,0,0,0,0,0,0,0,0,0,0,0,0*4C
---00000009--- Acq_st=7 0  2019-4-4 1:45:57 
[00]  00(G01)  f 39  7  0    694.7  2045999.0  0.1  2 0 1238  988  276
[01]  02(G03)  f 41  7  0  -3374.1  2046004.4 -0.0  2 0  434 1174  933
[02]  15(G16)  f 40  7  0  -4857.8  2046006.2  0.1  2 0  727 1510  656
[03]  17(G18)  f 39  7  0   1057.0  2045998.6 -0.1  2 0  957 1139  373
[04]  21(G22)  f 43  7  0  -2156.6  2046002.7  0.1  2 0 1287 2446 1384
[05]  25(G26)  f 38  7  0  -3246.4  2046004.1 -0.1  2 0 1326 1641  465
[16]  41(B05)  7 10 34  1     -4.6  4092000.0 -0.0  2 0   80  286  257
[17]  54(B18) 1f 39  8  0  -1265.1  4092003.2 -0.2  2 0  852  849  405
[18]  59(B23)  7 40 13  0  -2728.8  4092007.0 -0.1  2 0  873 1476  915
[19]  68(B32)  1  7  7  0  -3975.9  4092010.3  0.3  1 0 1065 1312  618
[32]  80(N-1)  1 25 21  0  -4861.9  1022004.7  0.3  1 0   587 1252  645
[33]  81(N00)  1 26  7  0  -2432.5  1022002.7  0.0  1 0   569 1161  879
$GNGGA,014558.562,,,,,0,00,,,M,,,,0000*27
$GNRMC,014558.562,A,,,,,,,100180,,*22
$GPGSA,A,1,,,,,,,,,,,,,,,*1E
$BDGSA,A,1,,,,,,,,,,,,,,,*0F
$GLGSA,A,1,,,,,,,,,,,,,,,*02
$GPGSV,2,1,06,01,00,000,39,03,00,000,41,16,00,000,40,18,00,000,39*71
$GPGSV,2,2,06,22,00,000,43,26,00,000,38*77
$BDGSV,1,1,02,18,00,000,39,23,00,000,40*6C
$B3CN0,0,0,0,0,0,0,0,0,0,0,0,0,0,0*4C
---00000010--- Acq_st=7 0  2019-4-4 1:45:58 
[00]  00(G01)  f 40  7  0    696.5  2045999.0  0.1  2 0  981 1019  405
[01]  02(G03)  f 40  7  0  -3370.0  2046004.3  0.1  2 0  989 1349  401
[02]  15(G16)  f 40  7  0  -4854.9  2046006.2  0.0  2 0  919  943  163
[03]  17(G18)  f 39  7  0   1055.7  2045998.6  0.0  2 0  814 1180  668
[04]  21(G22)  f 43  7  0  -2158.2  2046002.8 -0.0  2 0 1169 1753  638
[05]  25(G26)  f 39  7  0  -3240.3  2046004.1 -0.1  2 0  908 1282  624
[16]  41(B05)  7 21 34  1     -0.1  4092000.1 -0.2  2 0  497  429   27
[17]  54(B18) 1f 39  7  0  -1257.7  4092003.3 -0.2  2 0  464  968  582
[18]  59(B23)  7 40 12  0  -2732.4  4092007.0  0.0  2 0  958 1077  180
[19]  68(B32)  7 36  7  0  -3974.8  4092010.3  0.1  2 0  971 1197  542
[32]  80(N-1)  7 25 16  0  -4860.8  1022003.0  1.0 10 0   791 1038  355
[33]  81(N00)  7 21  7  0  -2430.6  1022001.4  0.8 10 0   980 1044  413
[49]  54(B18)  1  7  7  0   -872.1 20460019.9 -0.0  1 0   93  292   83
$GNGGA,014559.562,,,,,0,00,,,M,,,,0000*26
$GNRMC,014559.562,A,,,,,,,100180,,*23
$GPGSA,A,1,,,,,,,,,,,,,,,*1E
$BDGSA,A,1,,,,,,,,,,,,,,,*0F
$GLGSA,A,1,,,,,,,,,,,,,,,*02
$GPGSV,2,1,06,01,00,000,40,03,00,000,40,16,00,000,40,18,00,000,39*7E
$GPGSV,2,2,06,22,00,000,43,26,00,000,39*76
$BDGSV,1,1,04,05,00,000,19,18,00,000,39,23,00,000,40,32,00,000,35*60
$B3CN0,0,0,0,0,0,0,0,0,0,0,0,0,0,0*4C
---00000011--- Acq_st=3 0  2019-4-4 1:45:59 
[00]  00(G01)  f 39  8  0    687.8  2045999.0 -0.1  2 0  746 1569  579
[01]  02(G03)  f 40  7  0  -3378.2  2046004.4 -0.1  2 0  572 1070  492
[02]  15(G16)  f 40  7  0  -4870.3  2046006.2  0.0  2 0  611 1127  802
[03]  17(G18)  f 39  7  0   1047.0  2045998.6 -0.0  2 0 1002 1739  790
[04]  21(G22)  f 42  7  0  -2163.5  2046002.8  0.0  2 0 1067 2050  710
[05]  25(G26)  f 40  7  0  -3247.1  2046004.1  0.1  2 0 1422 1465  639
[16]  41(B05)  7 10 33  1     -4.4  4092000.0 -0.0  2 0  382  367  439
[17]  54(B18) 1f 39  8  0  -1268.9  4092003.2  0.1  2 0  586  962  446
[18]  59(B23)  7 40 12  0  -2740.0  4092007.0  0.0  2 0  922  995  326
[19]  68(B32)  7 40  8  0  -3978.9  4092010.4 -0.1  2 0 1214 1328  592
[32]  80(N-1)  7 42 22  0  -4864.1  1022003.0 -0.2  2 0   789 1117  420
[33]  81(N00)  7 41  7  0  -2434.8  1022001.5 -0.1  2 0   537 1206  473
[49]  54(B18)  1  7  7  0   -521.6 20460020.4  0.1  1 0  645  420  527
$GNGGA,014600.562,,,,,0,00,,,M,,,,0000*29
$GNRMC,014600.562,A,,,,,,,100180,,*2C
$GPGSA,A,1,,,,,,,,,,,,,,,*1E
$BDGSA,A,1,,,,,,,,,,,,,,,*0F
$GLGSA,A,1,,,,,,,,,,,,,,,*02
$GPGSV,2,1,06,01,00,000,39,03,00,000,40,16,00,000,40,18,00,000,39*70
$GPGSV,2,2,06,22,00,000,42,26,00,000,40*79
$BDGSV,1,1,03,18,00,000,39,23,00,000,40,32,00,000,40*58
$B3CN0,0,0,0,0,0,0,0,0,0,0,0,0,0,0*4C
---00000012--- Acq_st=3 0  2019-4-4 1:46:0 
[00]  00(G01)  f 39  7  0    681.6  2045999.0 -0.0  2 0  850  904  481
[01]  02(G03)  f 40  7  0  -3374.5  2046004.4  0.0  2 0 1031 1774  489
[02]  15(G16)  f 40  7  0  -4862.4  2046006.2  0.1  2 0  875 1021  269
[03]  17(G18)  f 39  7  0   1052.4  2045998.5  0.0  2 0  689  783  247
[04]  21(G22)  f 43  7  0  -2156.7  2046002.8 -0.1  2 0 1338 2252 1171
[05]  25(G26)  f 41  9  0  -3244.1  2046004.1 -0.0  2 0 1414 1590  671
[16]  41(B05)  7 14 32  1     -2.4  4091999.9 -0.1  2 0  435  538  351
[17]  54(B18) 1f 39  7  0  -1263.8  4092003.2  0.2  2 0  747 1339  347
[18]  59(B23)  7 40 11  0  -2736.0  4092007.1  0.1  2 0 1048 1334  601
[19]  68(B32)  7 39 12  0  -3982.2  4092010.3  0.1  2 0 1079  677  536
[32]  80(N-1)  7 42 22  0  -4865.6  1022003.0  0.3  2 0   539 1018  695
[33]  81(N00)  7 41 10  0  -2434.3  1022001.5 -0.6  2 0   450 1119  660
[49]  54(B18)  1  7  7  0   -430.1 20460020.3  0.0  1 0  724  741  624
$GNGGA,014601.562,,,,,0,00,,,M,,,,0000*28
$GNRMC,014601.562,A,,,,,,,100180,,*2D
$GPGSA,A,1,,,,,,,,,,,,,,,*1E
$BDGSA,A,1,,,,,,,,,,,,,,,*0F
$GLGSA,A,1,,,,,,,,,,,,,,,*02
$GPGSV,2,1,06,01,00,000,39,03,00,000,40,16,00,000,40,18,00,000,39*70
$GPGSV,2,2,06,22,00,000,43,26,00,000,41*79
$BDGSV,1,1,04,05,00,000,36,18,00,000,39,23,00,000,40,32,00,000,39*61
$B3CN0,0,0,0,0,0,0,0,0,0,0,0,0,0,0*4C
---00000013--- Acq_st=3 0  2019-4-4 1:46:1 
[00]  00(G01)  f 38  7  0    692.3  2045999.1 -0.0  2 0  566  964  572
[01]  02(G03)  f 41  7  0  -3371.1  2046004.3 -0.0  2 0  956  888  591
[02]  15(G16)  f 40  7  0  -4860.5  2046006.2  0.0  2 0 1110 1643  728
[03]  17(G18)  f 39  7  0   1053.6  2045998.5 -0.1  2 0  347  885  944
[04]  21(G22)  f 43  7  0  -2158.3  2046002.8  0.0  2 0 1064 2241  954
[05]  25(G26)  f 40  7  0  -3244.2  2046004.1  0.0  2 0  961 1663  887
[16]  41(B05)  7 19 33  1     -2.6  4092000.1 -0.0  2 0  313  354  251
[17]  54(B18) 1f 39  7  0  -1262.3  4092003.2  0.1  2 0  955  982  208
[18]  59(B23)  7 40 11  0  -2734.1  4092007.0  0.1  2 0 1220 1458  807
[19]  68(B32)  7 38  7  0  -3981.9  4092010.4 -0.3  2 0  666 1125  791
[20]  38(B02)  1 10 28  1  -1000.0  4092002.3  0.0  1 0   34   92  230
[32]  80(N-1)  7 42 22  0  -4861.6  1022003.1  0.5  2 0   693 1368  855
[33]  81(N00)  7 42  7  0  -2430.7  1022001.5 -0.2  2 0  1068 1075  245
[49]  54(B18)  1  7  7  0     21.3 20460021.3  0.0  1 0  296  846  924
---00000014--- Acq_st=3 0  2019-4-4 1:46:2 
[00]  00(G01)  f 38  7  0    689.4  2045999.1 -0.2  2 0  601 1317  812
[01]  02(G03)  f 40  9  0  -3366.4  2046004.3 -0.1  2 0  417 1236  928
[02]  15(G16)  f 40  7  0  -4860.2  2046006.3 -0.1  2 0 1300 1299  658
[03]  17(G18)  f 39  7  0   1058.0  2045998.5  0.1  2 0  584 1190  487
[04]  21(G22)  f 43  7  0  -2153.0  2046002.8  0.0  2 0 1368 1912  294
[05]  25(G26)  f 41  7  0  -3234.2  2046004.1 -0.1  2 0 1147 1344  617
[16]  41(B05)  7 10 32  1      3.5  4092000.1 -0.0  2 0  326   69  300
[17]  54(B18) 1f 39 13  0  -1256.3  4092003.2 -0.0  2 0  800  934  277
[18]  59(B23)  7 40 11  0  -2729.6  4092007.0  0.0  2 0  898 1141  462
[19]  68(B32)  7 37  7  0  -3981.2  4092010.3  0.5  2 0  382  684  569
[20]  38(B02)  1 20 19  1   -725.2  4092003.6 -0.2  1 0  247  385  453
[32]  80(N-1)  f 32 17  0  -4858.8  1022003.0  0.2  5 0   679 1531  676
[33]  81(N00)  f 32  7  0  -2428.5  1022001.5  0.4  5 0   667  972  639
$GNGGA,014602.562,,,,,0,00,,,M,,,,0000*2B
$GNRMC,014602.562,A,,,,,,,040419,,*2E
$GPGSA,A,1,,,,,,,,,,,,,,,*1E
$BDGSA,A,1,,,,,,,,,,,,,,,*0F
$GLGSA,A,1,,,,,,,,,,,,,,,*02
$GPGSV,2,1,06,01,00,000,38,03,00,000,40,16,00,000,40,18,00,000,39*71
$GPGSV,2,2,06,22,00,000,43,26,00,000,41*79
$BDGSV,1,1,03,18,00,000,39,23,00,000,40,32,00,000,37*58
$B3CN0,0,0,0,0,0,0,0,0,0,0,0,0,0,0*4C
---00000015--- Acq_st=3 0  2019-4-4 1:46:3 
[00]  00(G01)  f 39 12  0    696.8  2045999.0  0.3  2 0  286  707  299
[01]  02(G03)  f 40  7  0  -3366.6  2046004.3 -0.0  2 0  739 1677  882
[02]  15(G16)  f 40  7  0  -4854.9  2046006.2  0.0  2 0  473 1000  242
[03]  17(G18)  f 39  7  0   1059.3  2045998.6 -0.0  2 0  329  829  516
[04]  21(G22)  f 43  7  0  -2152.0  2046002.7 -0.1  2 0 1146 2226 1335
[05]  25(G26)  f 41  7  0  -3239.0  2046004.1  0.0  2 0 1089 1740  251
[16]  41(B05)  7 23 29  1     -6.7  4092000.0  0.0  2 0  288  426   69
[17]  54(B18) 1f 38  7  0  -1260.0  4092003.2  0.2  2 0  644 1110  374
[18]  59(B23) 1f 40 13  0  -2729.3  4092007.0  0.1  2 0  923  914  275
[19]  68(B32) 1f 36  7  0  -3978.0  4092010.3 -0.3  2 0  699  627  290
[20]  38(B02)  1 10 10  0   -568.9  4092004.3 -0.1  1 0  496   83  612
[32]  80(N-1)  f 42 13  0  -4859.1  1022003.1  0.1  2 0   688 1357  947
[33]  81(N00)  f 41  7  0  -2426.6  1022001.5 -0.3  2 0   399 1075  559
[49]  54(B18)  1  7  7  0   -768.6 20460021.6  0.0  1 0  254  498 1011
$GNGGA,014603.562,,,,,0,00,,,M,,,,0000*2A
$GNRMC,014603.562,A,,,,,,,040419,,*2F
$GPGSA,A,1,,,,,,,,,,,,,,,*1E
$BDGSA,A,1,,,,,,,,,,,,,,,*0F
$GLGSA,A,1,,,,,,,,,,,,,,,*02
$GPGSV,2,1,06,01,00,000,39,03,00,000,40,16,00,000,40,18,00,000,39*70
$GPGSV,2,2,06,22,00,000,43,26,00,000,41*79
$BDGSV,1,1,04,05,00,000,23,18,00,000,38,23,00,000,40,32,00,000,36*6B
$B3CN0,0,0,0,0,0,0,0,0,0,0,0,0,0,0*4C
---00000016--- Acq_st=3 0  2019-4-4 1:46:4 
[00]  00(G01)  f 39  7  0    691.8  2045999.0 -0.1  2 0  280  885  633
[01]  02(G03)  f 40  9  0  -3375.3  2046004.3 -0.1  2 0  649  679  639
[02]  15(G16)  f 40  7  0  -4855.7  2046006.3  0.0  2 0  444  930  382
[03]  17(G18)  f 39  7  0   1057.6  2045998.6 -0.0  2 0  815 1450  666
[04]  21(G22)  f 43  7  0  -2153.0  2046002.7  0.0  2 0 1224 2059 1188
[05]  25(G26)  f 42 12  0  -3238.0  2046004.1 -0.0  2 0  731 1250  418
[16]  41(B05)  7 18 30  1     -0.4  4092000.0 -0.0  2 0  248   30  285
[17]  54(B18) 1f 38 11  0  -1260.2  4092003.2 -0.1  2 0  667  666  192
[18]  59(B23) 1f 40 10  0  -2732.3  4092007.0  0.0  2 0 1226 1370  567
[19]  68(B32) 1f 36  7  0  -3974.7  4092010.3 -0.1  2 0  227  574  364
[20]  38(B02)  1 20 10  0   -562.4  4092004.6  0.2  1 0  521  594  199
[32]  80(N-1)  f 42 16  0  -4860.5  1022003.1  0.3  2 0   785 1124  408
[33]  81(N00)  f 41  7  0  -2430.5  1022001.6 -0.1  2 0   465  981  495
[49]  54(B18)  1  7 10  0   -670.9 20460021.4  0.1  1 0  760 1067  658
[50]  59(B23)  1  7  7  0  -2395.5 20460044.4 -0.1  1 0  173  302  444
[51]  68(B32)  1  7  7  0  -3338.0 20460064.3 -0.2  1 0  410  213  591
$GNGGA,014604.562,,,,,0,00,,,M,,,,0000*2D
$GNRMC,014604.562,A,,,,,,,040419,,*28
$GPGSA,A,1,,,,,,,,,,,,,,,*1E
$BDGSA,A,1,,,,,,,,,,,,,,,*0F
$GLGSA,A,1,,,,,,,,,,,,,,,*02
$GPGSV,2,1,06,01,00,000,39,03,00,000,40,16,00,000,40,18,00,000,39*70
$GPGSV,2,2,06,22,00,000,43,26,00,000,42*7A
$BDGSV,1,1,04,05,00,000,18,18,00,000,38,23,00,000,40,32,00,000,36*63
$B3CN0,0,0,0,0,0,0,0,0,0,0,0,0,0,0*4C
---00000017--- Acq_st=2 0  2019-4-4 1:46:5 
[00]  00(G01)  f 40  7  0    689.9  2045999.1  0.0  2 0  835  937  501
[01]  02(G03)  f 40  7  0  -3368.5  2046004.3  0.1  2 0  681  936  426
[02]  15(G16)  f 39  7  0  -4862.3  2046006.2 -0.0  2 0  738 1117  482
[03]  17(G18)  f 39  7  0   1049.9  2045998.6  0.0  2 0  616 1223  246
[04]  21(G22)  f 43  7  0  -2155.7  2046002.8 -0.0  2 0 1650 2205  969
[05]  25(G26)  f 42  8  0  -3244.8  2046004.1 -0.1  2 0 1085 1568  699
[16]  41(B05)  7 10 28  1    -53.0  4092000.2 -0.0  2 0   55  231  371
[17]  54(B18) 1f 38  8  0  -1255.4  4092003.2 -0.2  2 0  462  752  520
[18]  59(B23) 1f 41  7  0  -2728.6  4092007.0  0.1  2 0 1248 1550  551
[19]  68(B32) 1f 37  7  0  -3979.1  4092010.3  0.5  2 0 1188  935  339
[20]  38(B02)  1 10 10  0   -461.8  4092004.5  0.0  1 0  292  259  375
[32]  80(N-1)  f 41 17  0  -4859.5  1022003.0 -0.0  2 0   688 1516  791
[33]  81(N00)  f 40  7  0  -2428.4  1022001.5 -0.4  2 0   623  902  435
[49]  54(B18)  1  7  7  0   -560.6 20460020.1 -0.2  1 0  505  264  469
[50]  59(B23)  1  7  7  0  -2602.8 20460044.1  0.1  1 0  662  817  942
[51]  68(B32)  1  7  7  0  -3443.3 20460066.1  0.2  1 0  276  148  317
$GNGGA,014605.562,,,,,0,00,,,M,,,,0000*2C
$GNRMC,014605.562,A,,,,,,,040419,,*29
$GPGSA,A,1,,,,,,,,,,,,,,,*1E
$BDGSA,A,1,,,,,,,,,,,,,,,*0F
$GLGSA,A,1,,,,,,,,,,,,,,,*02
$GPGSV,2,1,06,01,00,000,40,03,00,000,40,16,00,000,39,18,00,000,39*70
$GPGSV,2,2,06,22,00,000,43,26,00,000,42*7A
$BDGSV,1,1,03,18,00,000,38,23,00,000,41,32,00,000,37*58
$B3CN0,0,0,0,0,0,0,0,0,0,0,0,0,0,0*4C
---00000018--- Acq_st=3 0  2019-4-4 1:46:6 
[00]  00(G01)  f 40  7  0    693.9  2045999.1 -0.0  2 0  689  894  533
[01]  02(G03)  f 40  7  0  -3368.0  2046004.3  0.2  2 0 1196 1449  772
[02]  15(G16)  f 39  7  0  -4861.5  2046006.3 -0.2  2 0 1043  962  453
[03]  17(G18)  f 39  7  0   1052.0  2045998.6 -0.1  2 0  636 1084  441
[04]  21(G22)  f 43  7  0  -2154.3  2046002.8 -0.0  2 0 1189 1913  814
[05]  25(G26)  f 42  7  0  -3239.5  2046004.1 -0.0  2 0 1060 1586  640
[16]  41(B05)  7 19 32  1     -2.4  4092000.1 -0.1  2 0  488  487  424
[17]  54(B18) 1f 38  7  0  -1268.0  4092003.1 -0.1  2 0  697  672  343
[18]  59(B23) 1f 41 13  0  -2736.9  4092007.0  0.0  2 0 1291 1018  599
[19]  68(B32) 1f 38  7  0  -3978.2  4092010.3 -0.1  2 0  843  595  247
[32]  80(N-1)  f 42 16  0  -4859.6  1022003.1  0.1  2 0   357  721  166
[33]  81(N00)  f 40  7  0  -2429.3  1022001.5  0.3  2 0   573 1274  836
[49]  54(B18)  1  8  7  0  -1127.9 20460021.2  0.1  1 0  144  368  235
[50]  59(B23)  1  7  7  0  -2707.1 20460043.7 -0.0  1 0   62  465  658
[51]  68(B32)  1  7  7  0  -3725.3 20460066.0  0.1  1 0  643  201  556
$GNGGA,014606.562,,,,,0,00,,,M,,,,0000*2F
$GNRMC,014606.562,A,,,,,,,040419,,*2A
$GPGSA,A,1,,,,,,,,,,,,,,,*1E
$BDGSA,A,1,,,,,,,,,,,,,,,*0F
$GLGSA,A,1,,,,,,,,,,,,,,,*02
$GPGSV,2,1,06,01,00,000,40,03,00,000,40,16,00,000,39,18,00,000,39*70
$GPGSV,2,2,06,22,00,000,43,26,00,000,42*7A
$BDGSV,1,1,04,05,00,000,19,18,00,000,38,23,00,000,41,32,00,000,38*6D
$B3CN0,0,0,0,0,0,0,0,0,0,0,0,0,0,0*4C
---00000019--- Acq_st=7 0  2019-4-4 1:46:7 
[00]  00(G01)  f 39  7  0    691.4  2045999.1  0.0  2 0  799 1144  712
[01]  02(G03)  f 41  7  0  -3369.1  2046004.2 -0.1  2 0 1188 1538  737
[02]  15(G16)  f 38  7  0  -4862.9  2046006.3 -0.1  2 0  694 1070  640
[03]  17(G18)  f 40  7  0   1050.3  2045998.6 -0.1  2 0  625 1323  895
[04]  21(G22)  f 43  7  0  -2158.4  2046002.7 -0.0  2 0 1149 2188 1165
[05]  25(G26)  f 42  7  0  -3241.3  2046004.2  0.1  2 0  841 1461  470
[16]  41(B05)  7 24 30  1     -7.8  4092000.1  0.0  2 0  337  126  385
[17]  54(B18) 1f 38  7  0  -1262.9  4092003.2  0.2  2 0  847  997  738
[18]  59(B23) 1f 41 12  0  -2733.6  4092007.0 -0.0  2 0 1608 1560  959
[19]  68(B32) 1f 39  8  0  -3977.6  4092010.3  0.0  2 0 1197 1163  198
[32]  80(N-1)  f 41 17  0  -4862.4  1022003.1  0.1  2 0   747 1102  746
[33]  81(N00)  f 41  7  0  -2431.3  1022001.5 -0.1  2 0  1077 1082  441
[50]  59(B23)  1  7 12  0  -2623.6 20460044.2  0.0  1 0  130  630  391
[51]  68(B32)  1  7  7  0  -4802.2 20460066.1 -0.1  1 0  279  192  328
$GNGGA,014607.562,,,,,0,00,,,M,,,,0000*2E
$GNRMC,014607.562,A,,,,,,,040419,,*2B
$GPGSA,A,1,,,,,,,,,,,,,,,*1E
$BDGSA,A,1,,,,,,,,,,,,,,,*0F
$GLGSA,A,1,,,,,,,,,,,,,,,*02
$GPGSV,2,1,06,01,00,000,39,03,00,000,41,16,00,000,38,18,00,000,40*70
$GPGSV,2,2,06,22,00,000,43,26,00,000,42*7A
$BDGSV,1,1,04,05,00,000,23,18,00,000,38,23,00,000,41,32,00,000,39*65
$B3CN0,0,0,0,0,0,0,0,0,0,0,0,0,0,0*4C
---00000020--- Acq_st=3 0  2019-4-4 1:46:8 
[00]  00(G01)  f 39  7  0    689.5  2045999.0  0.1  2 0  323  896  453
[01]  02(G03)  f 42  7  0  -3371.8  2046004.3  0.1  2 0  827 1316  523
[02]  15(G16)  f 39  7  0  -4866.9  2046006.3  0.2  2 0  670 1140  745
[03]  17(G18)  f 39  7  0   1049.3  2045998.6  0.0  2 0  895 1439  647
[04]  21(G22)  f 43  7  0  -2158.9  2046002.7  0.0  2 0 1334 1855  932
[05]  25(G26)  f 41  7  0  -3246.1  2046004.2  0.1  2 0  942 1294  571
[16]  41(B05)  7 10 31  1     -7.9  4092000.0 -0.1  2 0  352  315  177
[17]  54(B18) 1f 38 10  0  -1264.3  4092003.2  0.2  2 0 1087 1283  534
[18]  59(B23) 1f 41 11  0  -2741.8  4092007.0 -0.1  2 0 1241 1296  625
[19]  68(B32) 1f 40  8  0  -3976.3  4092010.2  0.1  2 0  827  925  538
[32]  80(N-1)  f 42 17  0  -4864.3  1022003.1  0.1  2 0   757 1124  419
[33]  81(N00)  f 41  7  0  -2433.0  1022001.5  0.3  2 0   366  852  751
[49]  54(B18)  1  7 12  0   -927.1 20460020.8 -0.1  1 0  837  672  300
$GNGGA,014608.562,,,,,0,00,,,M,,,,0000*21
$GNRMC,014608.562,A,,,,,,,040419,,*24
$GPGSA,A,1,,,,,,,,,,,,,,,*1E
$BDGSA,A,1,,,,,,,,,,,,,,,*0F
$GLGSA,A,1,,,,,,,,,,,,,,,*02
$GPGSV,2,1,06,01,00,000,39,03,00,000,42,16,00,000,39,18,00,000,39*7C
$GPGSV,2,2,06,22,00,000,43,26,00,000,41*79
$BDGSV,1,1,03,18,00,000,38,23,00,000,41,32,00,000,40*58
$B3CN0,0,0,0,0,0,0,0,0,0,0,0,0,0,0*4C
---00000021--- Acq_st=3 0  2019-4-4 1:46:9 
[00]  00(G01)  f 39  7  0    689.6  2045999.0  0.2  2 0  621  729  405
[01]  02(G03)  f 41  8  0  -3373.8  2046004.3  0.0  2 0  850 1218  829
[02]  15(G16)  f 38  7  0  -4860.7  2046006.3  0.4  2 0  506  813  261
[03]  17(G18)  f 40  7  0   1050.0  2045998.6 -0.2  2 0  714 1244  714
[04]  21(G22)  f 43  7  0  -2154.3  2046002.7 -0.0  2 0  665 1653  907
[05]  25(G26)  f 41  7  0  -3244.6  2046004.2 -0.0  2 0  708 1400  668
[16]  41(B05)  7 17 32  1    -12.2  4092000.0  0.1  2 0  527  401  413
[17]  54(B18) 1f 38  7  0  -1263.4  4092003.1  0.2  2 0  904 1001  572
[18]  59(B23) 1f 41 11  0  -2736.3  4092007.0 -0.0  2 0  873 1222  594
[19]  68(B32) 1f 41  7  0  -3977.8  4092010.2  0.0  2 0 1525 1618  387
[32]  80(N-1)  f 41 17  0  -4863.6  1022003.2  0.4  2 0   517 1025  691
[33]  81(N00)  f 41  7  0  -2429.3  1022001.5  0.3  2 0   461  750  291
[49]  54(B18)  1  7  7  0   -504.5 20460021.4 -0.2  1 0  307  203  305
[50]  59(B23)  1  7  7  0  -2112.1 20460043.1  0.2  1 0  315  707  436
[51]  68(B32)  1  7  7  0  -2625.0 20460062.1  0.1  1 0  101  450  341
$GNGGA,014609.562,,,,,0,00,,,M,,,,0000*20
$GNRMC,014609.562,A,,,,,,,040419,,*25
$GPGSA,A,1,,,,,,,,,,,,,,,*1E
$BDGSA,A,1,,,,,,,,,,,,,,,*0F
$GLGSA,A,1,,,,,,,,,,,,,,,*02
$GPGSV,2,1,06,01,00,000,39,03,00,000,41,16,00,000,38,18,00,000,40*70
$GPGSV,2,2,06,22,00,000,43,26,00,000,41*79
$BDGSV,1,1,04,05,00,000,17,18,00,000,38,23,00,000,41,32,00,000,41*6D
$B3CN0,0,0,0,0,0,0,0,0,0,0,0,0,0,0*4C
---00000022--- Acq_st=3 0  2019-4-4 1:46:10 
[00]  00(G01)  f 39 12  0    692.0  2045999.0  0.1  2 0  668 1149  553
[01]  02(G03)  f 41  7  0  -3369.7  2046004.3 -0.1  2 0  823 1439  254
[02]  15(G16)  f 39  7  0  -4859.3  2046006.3 -0.1  2 0  407 1038  525
[03]  17(G18)  f 40  7  0   1052.6  2045998.6  0.2  2 0  842 1714 1025
[04]  21(G22)  f 43  7  0  -2153.9  2046002.7 -0.1  2 0 1100 1496  698
[05]  25(G26)  f 40  7  0  -3239.7  2046004.2 -0.1  2 0  695 1071  293
[06]  30(G31)  1  7  7  0    -86.1  2046000.6  0.1  1 0  177  614  615
[16]  41(B05)  7 10 32  1     -1.7  4092000.0  0.0  2 0  513  537  434
[17]  54(B18) 1f 39 12  0  -1264.9  4092003.2 -0.3  2 0  719  912  377
[18]  59(B23) 1f 42 10  0  -2734.0  4092007.0 -0.0  2 0 1100 1621 1006
[19]  68(B32) 1f 41  7  0  -3976.4  4092010.3  0.1  2 0 1492 1582  466
[20]  38(B02)  1 10 27  1  -1000.0  4092002.5  0.0  1 0  134  214  336
[32]  80(N-1)  f 41 17  0  -4859.9  1022003.1 -0.1  2 0   526 1117  710
[33]  81(N00)  f 41  7  0  -2427.7  1022001.5 -0.2  2 0   616 1097  541
[49]  54(B18)  1  7  7  0   -169.2 20460019.6 -0.0  1 0  540  236  403
[50]  59(B23)  1  7  7  0  -2120.6 20460044.6  0.1  1 0  300  341  595
[51]  68(B32)  1  7  7  0  -2553.4 20460065.1 -0.2  1 0  250  276  243
$GNGGA,014610.562,,,,,0,00,,,M,,,,0000*28
$GNRMC,014610.562,A,,,,,,,040419,,*2D
$GPGSA,A,1,,,,,,,,,,,,,,,*1E
$BDGSA,A,1,,,,,,,,,,,,,,,*0F
$GLGSA,A,1,,,,,,,,,,,,,,,*02
$GPGSV,2,1,06,01,00,000,39,03,00,000,41,16,00,000,39,18,00,000,40*71
$GPGSV,2,2,06,22,00,000,43,26,00,000,40*78
$BDGSV,1,1,03,18,00,000,39,23,00,000,42,32,00,000,41*5B
$B3CN0,0,0,0,0,0,0,0,0,0,0,0,0,0,0*4C
---00000023--- Acq_st=3 0  2019-4-4 1:46:11 
[00]  00(G01)  f 39  7  0    695.5  2045999.1 -0.2  2 0  612  821  730
[01]  02(G03)  f 41  7  0  -3366.1  2046004.3 -0.1  2 0  651 1394  229
[02]  15(G16)  f 39  7  0  -4857.7  2046006.2  0.2  2 0  932  931   94
[03]  17(G18)  f 40  7  0   1055.6  2045998.5 -0.3  2 0  667 1376  862
[04]  21(G22)  f 43  7  0  -2148.1  2046002.7  0.0  2 0 1151 1666  449
[05]  25(G26)  f 40  7  0  -3233.8  2046004.2  0.0  2 0  381 1281  976
[06]  30(G31)  1 10  8  0   -181.1  2046002.2 -0.1  1 0   86  278  619
[16]  41(B05)  7 10 32  1     -3.8  4092000.0  0.0  2 0  355  376  244
[17]  54(B18) 1f 38  7  0  -1258.9  4092003.2  0.1  2 0  702  874  512
[18]  59(B23) 1f 41  8  0  -2726.4  4092007.0 -0.0  2 0 1357 1688  680
[19]  68(B32) 1f 41  7  0  -3963.0  4092010.3  0.0  2 0 1005 1226  487
[20]  38(B02)  1 20 10  0  -1330.4  4092004.8 -0.0  1 0  169  144  787
[32]  80(N-1)  f 40 15  0  -4857.0  1022003.1 -0.1  2 0   538  968  860
[33]  81(N00)  f 41  7  0  -2423.7  1022001.5 -0.1  2 0   564 1125  435
[49]  54(B18)  1  7  7  0   -217.5 20460020.6 -0.2  1 0  253  232  592
[50]  59(B23)  1  7  7  0  -2481.3 20460044.1 -0.2  1 0  262  182  195
[51]  68(B32)  1  7  7  0  -2493.1 20460064.2  0.0  1 0  329  378  305
$GNGGA,014611.562,,,,,0,00,,,M,,,,0000*29
$GNRMC,014611.562,A,,,,,,,040419,,*2C
$GPGSA,A,1,,,,,,,,,,,,,,,*1E
$BDGSA,A,1,,,,,,,,,,,,,,,*0F
$GLGSA,A,1,,,,,,,,,,,,,,,*02
$GPGSV,2,1,06,01,00,000,39,03,00,000,41,16,00,000,39,18,00,000,40*71
$GPGSV,2,2,06,22,00,000,43,26,00,000,40*78
$BDGSV,1,1,03,18,00,000,38,23,00,000,41,32,00,000,41*59
$B3CN0,0,0,0,0,0,0,0,0,0,0,0,0,0,0*4C
---00000024--- Acq_st=3 0  2019-4-4 1:46:12 
[00]  00(G01)  f 39  7  0    688.2  2045999.0 -0.0  2 0  764 1348  745
[01]  02(G03)  f 41  7  0  -3371.9  2046004.3  0.1  2 0 1043 1254  912
[02]  15(G16)  f 40 13  0  -4860.1  2046006.3 -0.0  2 0  453 1138  804
[03]  17(G18)  f 39  8  0   1047.1  2045998.6 -0.0  2 0  593 1494  766
[04]  21(G22)  f 43  7  0  -2159.5  2046002.7  0.1  2 0  967 1526  629
[05]  25(G26)  f 40  7  0  -3246.3  2046004.2 -0.1  2 0  731 1245  797
[06]  30(G31)  7 23  7  0   -311.5  2046000.4  0.4 10 0  468 1064  693
[16]  41(B05)  7 17 32  1      0.5  4092000.1 -0.1  2 0  149  135  105
[17]  54(B18) 1f 38  7  0  -1263.5  4092003.2 -0.1  2 0  731  868  132
[18]  59(B23) 1f 41 10  0  -2737.7  4092007.0 -0.0  2 0  739 1773  556
[19]  68(B32) 1f 40 11  0  -3978.8  4092010.3 -0.0  2 0  743 1417  787
[20]  38(B02)  1 10 26  1  -1069.9  4092005.0  0.4  1 0 1181 1054  519
[32]  80(N-1)  f 40 13  0  -4865.8  1022003.1  0.5  2 0   429 1085  601
[33]  81(N00)  f 41  7  0  -2429.9  1022001.5 -0.1  2 0   524 1346 1062
[50]  59(B23)  1  7  7  0  -2832.6 20460044.0 -0.1  1 0  634  630  407
[51]  68(B32)  1  7  7  0  -2454.9 20460067.4 -0.1  1 0  434  391  275
$GNGGA,014612.562,,,,,0,00,,,M,,,,0000*2A
$GNRMC,014612.562,A,,,,,,,040419,,*2F
$GPGSA,A,1,,,,,,,,,,,,,,,*1E
$BDGSA,A,1,,,,,,,,,,,,,,,*0F
$GLGSA,A,1,,,,,,,,,,,,,,,*02
$GPGSV,2,1,07,01,00,000,39,03,00,000,41,16,00,000,40,18,00,000,39*70
$GPGSV,2,2,07,22,00,000,43,26,00,000,40,31,00,000,23*4A
$BDGSV,1,1,04,05,00,000,17,18,00,000,38,23,00,000,41,32,00,000,40*6C
$B3CN0,0,0,0,0,0,0,0,0,0,0,0,0,0,0*4C
---00000025--- Acq_st=3 0  2019-4-4 1:46:13 
[00]  00(G01)  f 40  7  0    689.2  2045999.1 -0.2  2 0  491  985  707
[01]  02(G03)  f 41  7  0  -3369.3  2046004.3 -0.0  2 0  860 1420  736
[02]  15(G16)  f 40  7  0  -4862.9  2046006.2 -0.0  2 0 1168 1471  762
[03]  17(G18)  f 40  7  0   1047.7  2045998.6  0.1  2 0  826 1629  857
[04]  21(G22)  f 43  7  0  -2155.8  2046002.7 -0.0  2 0 1153 2238  971
[05]  25(G26)  f 40  7  0  -3244.6  2046004.1  0.1  2 0 1060 1208  396
[06]  30(G31)  7 35  8  0   -315.9  2046000.3  0.1  2 0 1055  787  414
[16]  41(B05)  7 18 32  1     -7.6  4091999.9  0.2  2 0  184  118  202
[17]  54(B18) 1f 38  7  0  -1265.3  4092003.2  0.2  2 0 1012 1021  595
[18]  59(B23) 1f 41 12  0  -2736.2  4092007.0  0.0  2 0  966 1221  343
[19]  68(B32) 1f 40  9  0  -3983.3  4092010.4  0.1  2 0  534 1132  800
[20]  38(B02)  7 37 26  0  -1071.8  4092002.6  0.5  2 0  618  502  512
[32]  80(N-1)  f 40 19  0  -4865.2  1022003.0  0.4  2 0   643  763  506
[33]  81(N00)  f 41  7  0  -2428.8  1022001.5  0.3  2 0   950 1211  720
[49]  54(B18)  1  7  7  0  -1270.0 20460020.4  0.0  1 0  299  532  268
$GNGGA,014613.562,,,,,0,00,,,M,,,,0000*2B
$GNRMC,014613.562,A,,,,,,,040419,,*2E
$GPGSA,A,1,,,,,,,,,,,,,,,*1E
$BDGSA,A,1,,,,,,,,,,,,,,,*0F
$GLGSA,A,1,,,,,,,,,,,,,,,*02
$GPGSV,2,1,07,01,00,000,40,03,00,000,41,16,00,000,40,18,00,000,40*70
$GPGSV,2,2,07,22,00,000,43,26,00,000,40,31,00,000,35*4D
$BDGSV,2,1,05,05,00,000,18,18,00,000,38,23,00,000,41,32,00,000,40*61
$BDGSV,2,2,05,02,00,000,37*5B
$B3CN0,0,0,0,0,0,0,0,0,0,0,0,0,0,0*4C
---00000026--- Acq_st=2 0  2019-4-4 1:46:14 
[00]  00(G01)  f 40  7  0    699.7  2045999.0 -0.1  2 0  734 1192  754
[01]  02(G03)  f 41  7  0  -3361.6  2046004.3  0.1  2 0 1037 1291  459
[02]  15(G16)  f 41  7  0  -4855.8  2046006.2  0.1  2 0 1084 1429  897
[03]  17(G18)  f 40  7  0   1055.2  2045998.6  0.0  2 0 1272 1504  582
[04]  21(G22)  f 42  7  0  -2149.7  2046002.8 -0.0  2 0 1058 1973  871
[05]  25(G26)  f 40  7  0  -3234.7  2046004.1  0.2  2 0  979 1487  465
[06]  30(G31)  7 33  7  0   -302.3  2046000.4 -0.0  2 0  550  956  639
[16]  41(B05)  7 10 31  1     -2.0  4092000.1  0.0  2 0  308  355  217
[17]  54(B18) 1f 38  9  0  -1255.6  4092003.2 -0.3  2 0  635  981  622
[18]  59(B23) 1f 41 11  0  -2728.9  4092007.0 -0.0  2 0 1216 1736  568
[19]  68(B32) 1f 39  7  0  -3972.6  4092010.3  0.0  2 0  302  889  782
[20]  38(B02)  f 36 29  0  -1063.3  4092002.7 -0.6  2 0  727  806  156
[32]  80(N-1)  f 41 15  0  -4856.0  1022003.1  0.3  2 0   742 1110  293
[33]  81(N00)  f 41  7  0  -2420.8  1022001.5 -0.1  2 0   691 1463  676
[49]  54(B18)  1  7  7  0  -1270.3 20460020.1 -0.1  1 0  485  435  258
[50]  59(B23)  1  7  7  0  -2362.9 20460044.9 -0.0  1 0  357  594  209
[51]  68(B32)  1  7  7  0  -3283.9 20460065.1 -0.0  1 0  255  508  481
$GNGGA,014614.562,,,,,0,00,,,M,,,,0000*2C
$GNRMC,014614.562,A,,,,,,,040419,,*29
$GPGSA,A,1,,,,,,,,,,,,,,,*1E
$BDGSA,A,1,,,,,,,,,,,,,,,*0F
$GLGSA,A,1,,,,,,,,,,,,,,,*02
$GPGSV,2,1,07,01,00,000,40,03,00,000,41,16,00,000,41,18,00,000,40*71
$GPGSV,2,2,07,22,00,000,42,26,00,000,40,31,00,000,33*4A
$BDGSV,1,1,04,18,00,000,38,23,00,000,41,32,00,000,39,02,00,000,36*66
$B3CN0,0,0,0,0,0,0,0,0,0,0,0,0,0,0*4C
---00000027--- Acq_st=3 0  2019-4-4 1:46:15 
[00]  00(G01)  f 40  7  0    692.8  2045999.0  0.1  2 0  565 1326  545
[01]  02(G03)  f 41  7  0  -3362.9  2046004.3 -0.0  2 0  934 1273  276
[02]  15(G16)  f 40  7  0  -4852.9  2046006.3  0.0  2 0  846 1260  838
[03]  17(G18)  f 40  7  0   1056.2  2045998.6  0.2  2 0  800 1267  532
[04]  21(G22)  f 42  7  0  -2150.6  2046002.8 -0.0  2 0  711 1876  739
[05]  25(G26)  f 40  7  0  -3237.5  2046004.2 -0.0  2 0 1003 1518  330
[06]  30(G31)  7 34  7  0   -300.5  2046000.3  0.1  2 0  667  508  129
[16]  41(B05)  7 21 32  1     -1.1  4092000.0 -0.1  2 0   90  216  144
[17]  54(B18) 1f 38  7  0  -1257.7  4092003.2 -0.1  2 0  517 1116  510
[18]  59(B23) 1f 41  7  0  -2728.2  4092007.0  0.0  2 0 1255 1752  930
[19]  68(B32) 1f 38  7  0  -3976.1  4092010.3 -0.2  2 0  526  611  266
[20]  38(B02) 1f 37 23  0  -1064.7  4092002.6  0.4  2 0  967  881  279
[32]  80(N-1)  f 40 12  0  -4861.2  1022003.1  0.5  2 0   631  884  495
[33]  81(N00)  f 42  7  0  -2422.3  1022001.4 -0.1  2 0   542 1143  591
[49]  54(B18)  1  7  7  0   -993.1 20460022.0  0.1  1 0  491  278  460
[50]  59(B23)  1  7  7  0  -1847.4 20460044.3  0.1  1 0  130  570  618
[51]  68(B32)  1  7  9  0  -3297.5 20460063.7  0.2  1 0  523  146  397
[52]  38(B02)  1 10 18  0   -723.4 20460012.4  0.1  1 0  710  454  346
$GNGGA,014615.562,,,,,0,00,,,M,,,,0000*2D
$GNRMC,014615.562,A,,,,,,,040419,,*28
$GPGSA,A,1,,,,,,,,,,,,,,,*1E
$BDGSA,A,1,,,,,,,,,,,,,,,*0F
$GLGSA,A,1,,,,,,,,,,,,,,,*02
$GPGSV,2,1,07,01,00,000,40,03,00,000,41,16,00,000,40,18,00,000,40*70
$GPGSV,2,2,07,22,00,000,42,26,00,000,40,31,00,000,34*4D
$BDGSV,2,1,05,05,00,000,20,18,00,000,38,23,00,000,41,32,00,000,38*65
$BDGSV,2,2,05,02,00,000,37*5B
$B3CN0,0,0,0,0,0,0,0,0,0,0,0,0,0,0*4C
---00000028--- Acq_st=7 0  2019-4-4 1:46:16 
[00]  00(G01)  f 40  7  0    687.6  2045999.0 -0.1  2 0  938 1268  614
[01]  02(G03)  f 41  7  0  -3368.7  2046004.3 -0.1  2 0  795 1519  756
[02]  15(G16)  f 40  7  0  -4865.8  2046006.3  0.0  2 0  658 1072  552
[03]  17(G18)  f 40  7  0   1047.8  2045998.6 -0.1  2 0  882 1480  900
[04]  21(G22)  f 42  7  0  -2156.1  2046002.8 -0.0  2 0  801 1375  443
[05]  25(G26)  f 39  7  0  -3245.0  2046004.2  0.0  2 0  750 1313  694
[06]  30(G31)  7 33  7  0   -308.3  2046000.3 -0.1  2 0  507  535  533
[16]  41(B05)  7 18 33  1     -5.4  4092000.0 -0.0  2 0  321  229  251
[17]  54(B18) 1f 38  7  0  -1265.2  4092003.2  0.1  2 0  519  705  408
[18]  59(B23) 1f 41  8  0  -2733.6  4092007.0 -0.0  2 0 1109 1819  967
[19]  68(B32) 1f 37  7  0  -3985.7  4092010.3 -0.0  2 0  279  630  331
[20]  38(B02) 1f 37 26  0  -1067.4  4092002.8  0.8  2 0  717  660  539
[32]  80(N-1)  f 39 18  0  -4866.3  1022003.1 -0.2  2 0   163  813  429
[33]  81(N00)  f 42  7  0  -2425.9  1022001.5  0.0  2 0  1168 1651  802
[49]  54(B18)  1  7  7  0  -1135.6 20460021.6 -0.1  1 0  856  852  583
[50]  59(B23)  1  7  7  0  -1728.1 20460044.2 -0.0  1 0  106  199  243
[51]  68(B32)  1  7  7  0  -3675.9 20460063.7 -0.0  1 0  121  444  355
[52]  38(B02)  1 10 10  1   -807.1 20460019.8 -0.2  1 0   76  353  132
$GNGGA,014616.562,,,,,0,00,,,M,,,,0000*2E
$GNRMC,014616.562,A,,,,,,,040419,,*2B
$GPGSA,A,1,,,,,,,,,,,,,,,*1E
$BDGSA,A,1,,,,,,,,,,,,,,,*0F
$GLGSA,A,1,,,,,,,,,,,,,,,*02
$GPGSV,2,1,07,01,00,000,40,03,00,000,41,16,00,000,40,18,00,000,40*70
$GPGSV,2,2,07,22,00,000,42,26,00,000,39,31,00,000,33*44
$BDGSV,2,1,05,05,00,000,17,18,00,000,38,23,00,000,41,32,00,000,37*6E
$BDGSV,2,2,05,02,00,000,37*5B
$B3CN0,0,0,0,0,0,0,0,0,0,0,0,0,0,0*4C
---00000029--- Acq_st=3 0  2019-4-4 1:46:17 
[00]  00(G01)  f 40  7  0    697.3  2045999.0  0.1  2 0  942 1336  928
[01]  02(G03)  f 41  7  0  -3363.0  2046004.3  0.0  2 0 1063 1185  753
[02]  15(G16)  f 39  7  0  -4861.7  2046006.2 -0.2  2 0  799 1393 1012
[03]  17(G18)  f 40  7  0   1050.5  2045998.6  0.1  2 0  990 1151  744
[04]  21(G22)  f 42  7  0  -2153.2  2046002.8 -0.1  2 0 1215 1582  725
[05]  25(G26)  f 40  7  0  -3235.9  2046004.2  0.3  2 0  816 1157  573
[06]  30(G31)  7 32  7  0   -309.0  2046000.4  0.0  5 0  463  400  480
[16]  41(B05)  7 25 31  1     -1.1  4092000.0 -0.0  2 0  173  446  248
[17]  54(B18) 1f 38  7  0  -1268.4  4092003.2 -0.3  2 0  987  912  311
[18]  59(B23) 1f 41 12  0  -2732.3  4092007.0  0.0  2 0 1180 1103  506
[19]  68(B32) 1f 37  7  0  -3974.4  4092010.3  0.1  2 0  104  778  340
[20]  38(B02) 1f 37 24  0  -1069.2  4092002.7 -0.4  2 0  895  790  352
[32]  80(N-1)  f 39 17  0  -4860.5  1022003.0 -0.1  2 0   510 1091  470
[33]  81(N00)  f 43  7  0  -2423.4  1022001.5 -0.0  2 0   961 1415  552
[50]  59(B23)  1  8  7  0  -1772.6 20460045.4  0.1  1 0   44  394  178
[51]  68(B32)  1  7  7  0  -3821.7 20460064.2  0.1  1 0  404  391  284
[52]  38(B02)  1 10 19  0   -567.3 20460020.7  0.1  1 0  168  216  205
$GNGGA,014617.562,,,,,0,00,,,M,,,,0000*2F
$GNRMC,014617.562,A,,,,,,,040419,,*2A
$GPGSA,A,1,,,,,,,,,,,,,,,*1E
$BDGSA,A,1,,,,,,,,,,,,,,,*0F
$GLGSA,A,1,,,,,,,,,,,,,,,*02
$GPGSV,2,1,07,01,00,000,40,03,00,000,41,16,00,000,39,18,00,000,40*7E
$GPGSV,2,2,07,22,00,000,42,26,00,000,40,31,00,000,32*4B
$BDGSV,2,1,05,05,00,000,25,18,00,000,38,23,00,000,41,32,00,000,37*6F
$BDGSV,2,2,05,02,00,000,37*5B
$B3CN0,0,0,0,0,0,0,0,0,0,0,0,0,0,0*4C
---00000030--- Acq_st=3 0  2019-4-4 1:46:18 
[00]  00(G01)  f 40  7  0    692.2  2045999.1  0.1  2 0  866 1214  651
[01]  02(G03)  f 41  7  0  -3363.0  2046004.3  0.0  2 0  673 1256  484
[02]  15(G16)  f 39  7  0  -4850.6  2046006.2  0.1  2 0 1051 1230  708
[03]  17(G18)  f 40  7  0   1062.1  2045998.5 -0.1  2 0  556  971  540
[04]  21(G22)  f 42  7  0  -2146.2  2046002.7 -0.1  2 0  941 1767  668
[05]  25(G26)  f 40  7  0  -3231.0  2046004.1  0.1  2 0  970 1308  452
[06]  30(G31)  7 32  7  0   -297.6  2046000.4 -0.0  5 0  469  925  472
[16]  41(B05)  7 10 31  1     -4.9  4092000.1  0.0  2 0  416  330  179
[17]  54(B18) 1f 38  7  0  -1255.4  4092003.2 -0.2  2 0  776  834  360
[18]  59(B23) 1f 41  7  0  -2727.0  4092007.0 -0.0  2 0 1434 1477  850
[19]  68(B32) 1f 37 12  0  -3973.3  4092010.3 -0.3  2 0  388  917  389
[20]  38(B02) 1f 37 22  0  -1058.3  4092002.7  0.8  2 0  580  421  125
[32]  80(N-1)  f 38 16  0  -4854.9  1022003.0 -0.1  2 0   802  981  387
[33]  81(N00)  f 42  7  0  -2418.6  1022001.5 -0.0  2 0   259  840  750
[49]  54(B18)  1  7  7  0  -1116.3 20460019.7 -0.2  1 0  602  559  329
[52]  38(B02)  1 10 18  0   -673.7 20460019.9  0.0  1 0  102  252  348
$GNGGA,014618.562,,,,,0,00,,,M,,,,0000*20
$GNRMC,014618.562,A,,,,,,,040419,,*25
$GPGSA,A,1,,,,,,,,,,,,,,,*1E
$BDGSA,A,1,,,,,,,,,,,,,,,*0F
$GLGSA,A,1,,,,,,,,,,,,,,,*02
$GPGSV,2,1,07,01,00,000,40,03,00,000,41,16,00,000,39,18,00,000,40*7E
$GPGSV,2,2,07,22,00,000,42,26,00,000,40,31,00,000,32*4B
$BDGSV,1,1,04,18,00,000,38,23,00,000,41,32,00,000,37,02,00,000,37*69
$B3CN0,0,0,0,0,0,0,0,0,0,0,0,0,0,0*4C
---00000031--- Acq_st=3 0  2019-4-4 1:46:19 
[00]  00(G01)  f 40  7  0    693.5  2045999.0 -0.0  2 0  919 1422  531
[01]  02(G03)  f 40  7  0  -3367.4  2046004.3  0.0  2 0  903 1254  633
[02]  15(G16)  f 39  7  0  -4864.8  2046006.3 -0.1  2 0  639 1215  641
[03]  17(G18)  f 40  7  0   1044.2  2045998.6  0.0  2 0  734 1008  791
[04]  21(G22)  f 42  7  0  -2150.0  2046002.7  0.0  2 0 1092 1449  651
[05]  25(G26)  f 40  7  0  -3234.4  2046004.1 -0.1  2 0  976 1287  354
[06]  30(G31)  f 32  7  0   -305.7  2046000.3 -0.1  5 0  316  137  444
[16]  41(B05)  7 10 31  1    -11.4  4092000.1  0.1  2 0  393  194  378
[17]  54(B18) 1f 38  7  0  -1265.4  4092003.2  0.1  2 0 1153 1132  828
[18]  59(B23) 1f 41  7  0  -2735.3  4092007.0 -0.1  2 0 1137 1355   77
[19]  68(B32) 1f 37  7  0  -3982.3  4092010.3 -0.1  2 0  459 1047  272
[20]  38(B02) 1f 37 25  0  -1067.6  4092002.6 -0.5  2 0  918 1028  298
[32]  80(N-1)  f 41 14  0  -4862.1  1022003.1 -0.3  2 0   742 1134  611
[33]  81(N00)  f 42  7  0  -2425.8  1022001.5  0.3  2 0   723 1231  568
[49]  54(B18)  1  7  7  0  -1025.5 20460019.8 -0.0  1 0  385  357  427
[50]  59(B23)  1  7  7  0  -2012.3 20460044.0  0.0  1 0  194  246  360
[51]  68(B32)  1  7  7  0  -3121.2 20460062.9 -0.2  1 0  168  499  956
$GNGGA,014619.562,,,,,0,00,,,M,,,,0000*21
$GNRMC,014619.562,A,,,,,,,040419,,*24
$GPGSA,A,1,,,,,,,,,,,,,,,*1E
$BDGSA,A,1,,,,,,,,,,,,,,,*0F
$GLGSA,A,1,,,,,,,,,,,,,,,*02
$GPGSV,2,1,07,01,00,000,40,03,00,000,40,16,00,000,39,18,00,000,40*7F
$GPGSV,2,2,07,22,00,000,42,26,00,000,40,31,00,000,32*4B
$BDGSV,1,1,04,18,00,000,38,23,00,000,41,32,00,000,37,02,00,000,37*69
$B3CN0,0,0,0,0,0,0,0,0,0,0,0,0,0,0*4C
---00000032--- Acq_st=3 0  2019-4-4 1:46:20 
[00]  00(G01)  f 40  7  0    693.0  2045999.1 -0.0  2 0  895 1176  399
[01]  02(G03)  f 40  7  0  -3369.8  2046004.3  0.0  2 0  539 1004  609
[02]  15(G16)  f 39  9  0  -4862.0  2046006.2  0.1  2 0  597  893  225
[03]  17(G18)  f 39  7  0   1051.0  2045998.6 -0.0  2 0  754 1071  145
[04]  21(G22)  f 42  7  0  -2145.9  2046002.7  0.1  2 0 1368 2080  876
[05]  25(G26)  f 40  7  0  -3233.6  2046004.1  0.1  2 0  841 1420  653
[06]  30(G31)  f 32  7  0   -310.2  2046000.5  0.1  5 0   64  376  300
[16]  41(B05)  7 36 31  1     -1.8  4092000.0 -0.0  2 0  242  235  319
[17]  54(B18) 1f 38 11  0  -1260.3  4092003.2  0.2  2 0  642  838  357
[18]  59(B23) 1f 41 10  0  -2729.4  4092007.0  0.0  2 0 1207 1352  361
[19]  68(B32) 1f 37 12  0  -3978.1  4092010.2 -0.0  2 0 1011  832  178
[20]  38(B02) 1f 37 25  0  -1063.1  4092002.7 -0.3  2 0  323  568  334
[32]  80(N-1)  f 42 15  0  -4857.5  1022003.0 -0.2  2 0  1446 1734  544
[33]  81(N00)  f 41  7  0  -2422.9  1022001.6  0.2  2 0   489 1185  568
[49]  54(B18)  1  7  7  0  -1288.0 20460020.0 -0.0  1 0  343  321  382
[50]  59(B23)  1  7  7  0  -2132.5 20460044.2  0.3  1 0  125  231  114
[51]  68(B32)  1  7  7  0  -2544.1 20460064.2  0.2  1 0  550  181   20
[52]  38(B02)  1 10 10  0  -1042.3 20460017.1 -0.2  1 0  260  818  487
$GNGGA,014620.562,,,,,0,00,,,M,,,,0000*2B
$GNRMC,014620.562,A,,,,,,,040419,,*2E
$GPGSA,A,1,,,,,,,,,,,,,,,*1E
$BDGSA,A,1,,,,,,,,,,,,,,,*0F
$GLGSA,A,1,,,,,,,,,,,,,,,*02
$GPGSV,2,1,07,01,00,000,40,03,00,000,40,16,00,000,39,18,00,000,39*71
$GPGSV,2,2,07,22,00,000,42,26,00,000,40,31,00,000,32*4B
$BDGSV,1,1,04,18,00,000,38,23,00,000,41,32,00,000,37,02,00,000,37*69
$B3CN0,0,0,0,0,0,0,0,0,0,0,0,0,0,0*4C
---00000033--- Acq_st=3 0  2019-4-4 1:46:21 
[00]  00(G01)  f 40  8  0    693.9  2045999.1 -0.1  2 0  654 1151  454
[01]  02(G03)  f 40  7  0  -3363.4  2046004.3  0.1  2 0 1188 1550  429
[02]  15(G16)  f 39  7  0  -4858.2  2046006.2  0.1  2 0  802  922  626
[03]  17(G18)  f 39  7  0   1044.3  2045998.6 -0.0  2 0  972 1068  459
[04]  21(G22)  f 43  7  0  -2146.8  2046002.7 -0.1  2 0  805 1819  819
[05]  25(G26)  f 40  7  0  -3238.6  2046004.1  0.0  2 0 1010 1146  597
[06]  30(G31)  f 31  7  0   -309.3  2046000.4 -0.0  5 0  515  443  217
[16]  41(B05)  7 17 29  1     -3.5  4091999.9  0.1  2 0  426  313  297
[17]  54(B18) 1f 38  7  0  -1264.7  4092003.2 -0.1  2 0  767 1041  560
[18]  59(B23) 1f 41 11  0  -2732.8  4092007.0  0.1  2 0 1028 1220  483
[19]  68(B32) 1f 38  7  0  -3983.1  4092010.3  0.1  2 0 1040  869  291
[20]  38(B02) 1f 38 20  0  -1066.7  4092002.6 -0.4  2 0 1122 1006  481
[32]  80(N-1)  f 43 14  0  -4857.1  1022003.0 -0.0  2 0   811 1405  644
[33]  81(N00)  f 40  7  0  -2423.8  1022001.5 -0.4  2 0   795 1363  581
[49]  54(B18)  1  7  7  0  -1131.5 20460020.1  0.1  1 0  631  569  811
[50]  59(B23)  1  7  7  0  -1992.1 20460046.4 -0.2  1 0  112  261  515
[51]  68(B32)  1  7  7  0  -2204.7 20460064.4 -0.2  1 0  305  260   68
[52]  38(B02)  1 19 13  0   -562.9 20460022.5 -0.1  1 0  288  116  704
$GNGGA,014621.562,,,,,0,00,,,M,,,,0000*2A
$GNRMC,014621.562,A,,,,,,,040419,,*2F
$GPGSA,A,1,,,,,,,,,,,,,,,*1E
$BDGSA,A,1,,,,,,,,,,,,,,,*0F
$GLGSA,A,1,,,,,,,,,,,,,,,*02
$GPGSV,2,1,07,01,00,000,40,03,00,000,40,16,00,000,39,18,00,000,39*71
$GPGSV,2,2,07,22,00,000,43,26,00,000,40,31,00,000,31*49
$BDGSV,2,1,05,05,00,000,17,18,00,000,38,23,00,000,41,32,00,000,38*61
$BDGSV,2,2,05,02,00,000,38*54
$B3CN0,0,0,0,0,0,0,0,0,0,0,0,0,0,0*4C
---00000034--- Acq_st=3 0  2019-4-4 1:46:22 
[00]  00(G01)  f 39  7  0    694.7  2045999.0  0.3  2 0  607 1048  641
[01]  02(G03)  f 41  7  0  -3363.9  2046004.3  0.0  2 0  745 1086  202
[02]  15(G16)  f 39  7  0  -4870.9  2046006.2 -0.0  2 0  651  789  570
[03]  17(G18)  f 39  7  0   1048.8  2045998.6 -0.1  2 0  410  477  565
[04]  21(G22)  f 43  7  0  -2146.9  2046002.7 -0.0  2 0 1137 2095  891
[05]  25(G26)  f 41 12  0  -3233.9  2046004.1  0.0  2 0  992 1700  892
[06]  30(G31)  f 31  7  0   -305.9  2046000.3 -0.0  5 0  172  149  314
[16]  41(B05)  7 10 31  1     -2.4  4092000.1 -0.1  2 0  382  200  260
[17]  54(B18) 1f 38  7  0  -1269.6  4092003.2 -0.2  2 0  819 1069  187
[18]  59(B23) 1f 41 11  0  -2730.9  4092007.1  0.1  2 0  962 1261  537
[19]  68(B32) 1f 39  7  0  -3972.9  4092010.3  0.3  2 0 1631 1318  424
[20]  38(B02) 1f 37 27  0  -1066.4  4092002.6 -0.3  2 0  750 1067  361
[32]  80(N-1)  f 43 18  0  -4858.2  1022003.1 -0.2  2 0   972 1423  349
[33]  81(N00)  f 40  7  0  -2422.1  1022001.5  0.2  2 0   846 1169  784
[50]  59(B23)  1  7  7  0  -2060.7 20460044.4 -0.1  1 0  508  722  562
[51]  68(B32)  1  7  7  0  -2300.1 20460065.6  0.1  1 0  502  291  308
[52]  38(B02)  1 14 36  1   -488.8 20460020.9 -0.0  1 0  259  589  395
$GNGGA,014622.562,,,,,0,00,,,M,,,,0000*29
$GNRMC,014622.562,A,,,,,,,040419,,*2C
$GPGSA,A,1,,,,,,,,,,,,,,,*1E
$BDGSA,A,1,,,,,,,,,,,,,,,*0F
$GLGSA,A,1,,,,,,,,,,,,,,,*02
$GPGSV,2,1,07,01,00,000,39,03,00,000,41,16,00,000,39,18,00,000,39*7E
$GPGSV,2,2,07,22,00,000,43,26,00,000,41,31,00,000,31*48
$BDGSV,1,1,04,18,00,000,38,23,00,000,41,32,00,000,39,02,00,000,37*67
$B3CN0,0,0,0,0,0,0,0,0,0,0,0,0,0,0*4C
---00000035--- Acq_st=3 0  2019-4-4 1:46:23 
[00]  00(G01)  f 39  7  0    691.6  2045999.0  0.1  2 0  986 1046  691
[01]  02(G03)  f 42 11  0  -3365.7  2046004.2 -0.0  2 0 1070 1315  537
[02]  15(G16)  f 39  7  0  -4861.4  2046006.3 -0.1  2 0  394 1128  707
[03]  17(G18)  f 39  7  0   1045.9  2045998.6 -0.0  2 0  712  786  347
[04]  21(G22)  f 43  7  0  -2152.6  2046002.7  0.0  2 0 1538 2094  714
[05]  25(G26)  f 41  7  0  -3229.5  2046004.0 -0.0  2 0  728 1418  396
[06]  30(G31)  f 31  7  0   -314.3  2046000.4  0.0  5 0  276  621  456
[16]  41(B05)  7 10 31  1    -12.1  4092000.1  0.0  2 0  534  552  190
[17]  54(B18) 1f 38  7  0  -1262.4  4092003.2  0.0  2 0  714 1182  424
[18]  59(B23) 1f 41 11  0  -2731.9  4092007.0 -0.0  2 0  994 1178  328
[19]  68(B32) 1f 39  7  0  -3977.6  4092010.2  0.2  2 0 1081 1313  652
[20]  38(B02) 1f 37 25  0  -1064.5  4092002.7 -0.6  2 0  720 1244  797
[21]  64(B28)  1  7  7  0  10259.5  4091973.4  0.2  1 0  472  159  105
[32]  80(N-1)  f 42 11  0  -4859.7  1022003.0 -0.1  2 0   640 1007  564
[33]  81(N00)  f 40  7  0  -2423.7  1022001.6  0.1  2 0   495  711  172
[49]  54(B18)  1  7  7  0  -1056.1 20460020.4  0.1  1 0  282  438  793
[52]  38(B02)  1 10 10  1    458.2 20460015.8  0.1  1 0  261  468  868
$GNGGA,014623.562,,,,,0,00,,,M,,,,0000*28
$GNRMC,014623.562,A,,,,,,,040419,,*2D
$GPGSA,A,1,,,,,,,,,,,,,,,*1E
$BDGSA,A,1,,,,,,,,,,,,,,,*0F
$GLGSA,A,1,,,,,,,,,,,,,,,*02
$GPGSV,2,1,07,01,00,000,39,03,00,000,42,16,00,000,39,18,00,000,39*7D
$GPGSV,2,2,07,22,00,000,43,26,00,000,41,31,00,000,31*48
$BDGSV,1,1,04,18,00,000,38,23,00,000,41,32,00,000,39,02,00,000,37*67
$B3CN0,0,0,0,0,0,0,0,0,0,0,0,0,0,0*4C
---00000036--- Acq_st=7 0  2019-4-4 1:46:24 
[00]  00(G01)  f 39  7  0    691.7  2045999.0 -0.0  2 0 1019 1490  652
[01]  02(G03)  f 42  7  0  -3363.0  2046004.3  0.0  2 0 1501 1813  757
[02]  15(G16)  f 39  7  0  -4853.4  2046006.3 -0.3  2 0  803 1084  695
[03]  17(G18)  f 39  7  0   1053.5  2045998.6  0.1  2 0  497  810  592
[04]  21(G22)  f 43  7  0  -2151.0  2046002.7  0.0  2 0 1572 2510 1233
[05]  25(G26)  f 41  7  0  -3230.4  2046004.1  0.0  2 0 1085 1149  582
[06]  30(G31)  f 31  7  0   -304.0  2046000.3 -0.1  5 0  340  385  243
[16]  41(B05)  7 18 32  1     -3.2  4092000.1 -0.2  2 0   45  286  319
[17]  54(B18) 1f 38  7  0  -1255.1  4092003.1  0.1  2 0  960 1313  428
[18]  59(B23) 1f 41 11  0  -2731.8  4092007.0 -0.1  2 0  739  929   68
[19]  68(B32) 1f 40  7  0  -3976.0  4092010.3  0.1  2 0  509  601  460
[20]  38(B02) 1f 36 23  0  -1071.4  4092002.8 -0.7  2 0  406  451   99
[21]  64(B28)  1  7  7  0  10204.4  4091974.0 -0.2  1 0  320  353  351
[32]  80(N-1)  f 42 18  0  -4858.4  1022003.1  0.0  2 0   757 1326  503
[33]  81(N00)  f 40  7  0  -2423.1  1022001.5  0.2  2 0   683 1074  511
[49]  54(B18)  1  7  7  0  -1551.4 20460019.7  0.1  1 0   94   65  151
[50]  59(B23)  1  7  7  0  -2290.5 20460044.1 -0.1  1 0  106  202  400
[51]  68(B32)  1  7  7  0  -3178.2 20460064.8 -0.1  1 0  682  529  357
[52]  38(B02)  7 10 19  1   -152.2 20460002.0 -0.0  2 0  381  192  139
$GNGGA,014624.431,2944.9289,N,10633.1425,E,1,06,4.7,270.7,M,,,,0000*11
$GNRMC,014624.431,A,2944.9289,N,10633.1425,E,1.86,0.00,040419,,*1D
$GPGSA,A,3,01,03,16,18,22,26,,,,,,,6.0,4.7,3.8*34
$BDGSA,A,3,,,,,,,,,,,,,6.0,4.7,3.8*2D
$GLGSA,A,3,,,,,,,,,,,,,6.0,4.7,3.8*20
$GPGSV,2,1,07,01,00,000,39,03,00,000,42,16,00,000,39,18,00,000,39*7D
$GPGSV,2,2,07,22,00,000,43,26,00,000,41,31,00,000,31*48
$BDGSV,2,1,05,05,00,000,16,18,00,000,38,23,00,000,41,32,00,000,40*6F
$BDGSV,2,2,05,02,00,000,36*5A
$B3CN0,0,0,0,0,0,0,0,0,0,0,0,0,0,0*4C
---00000037--- Acq_st=7 0  2019-4-4 1:46:24 
[00]  00(G01)  f 39  7  0    693.1  2045999.0 -0.0  2 0  493  625  479
[01]  02(G03)  f 43  7  0  -3361.3  2046004.3 -0.0  2 0 1800 2434 1238
[02]  15(G16)  f 38  7  0  -4860.7  2046006.2 -0.1  2 0 1026 1164  507
[03]  17(G18)  f 39  7  0   1042.7  2045998.6 -0.1  2 0 1146 1371  502
[04]  21(G22)  f 43  7  0  -2149.1  2046002.7  0.0  2 0 1402 2115  814
[05]  25(G26)  f 42  7  0  -3231.3  2046004.1 -0.0  2 0 1056 1577  935
[06]  30(G31)  f 31  7  0   -310.0  2046000.3 -0.1  5 0  370  350  455
[16]  41(B05)  7 22 34  1     -9.8  4092000.1  0.1  2 0  422  380  607
[17]  54(B18) 1f 38  7  0  -1262.2  4092003.2  0.2  2 0  950  821  188
[18]  59(B23) 1f 40 12  0  -2731.2  4092007.1 -0.0  2 0 1055 1110  123
[19]  68(B32) 1f 41  8  0  -3974.7  4092010.3  0.0  2 0 1329 1280  258
[20]  38(B02) 1f 36 31  0  -1063.8  4092002.7 -0.6  2 0  365  680  387
[21]  64(B28)  1 13  7  0  10534.6  4091973.9  0.0  1 0  626  397  369
[32]  80(N-1)  f 43 15  0  -4858.2  1022003.1  0.0  2 0   886 1354  602
[33]  81(N00)  f 41  7  0  -2421.6  1022001.5  0.2  2 0   601  943  604
[49]  54(B18)  1  7  7  0  -1673.0 20460019.3 -0.1  1 0  640  710  717
[50]  59(B23)  1  7  7  0  -2284.6 20460043.5 -0.0  1 0  519  466  593
[51]  68(B32)  1  7  7  0  -2657.6 20460063.5 -0.2  1 0  588  335  129
[52]  38(B02)  7 19 36  1   -185.0 20460002.9 -0.0  2 0  689  685  711
Refix G01: 2, 352003.914168, 694
Refix G03: 2, 352003.922943, -3360
Refix G16: 2, 352003.923022, -4856
Refix G18: 2, 352003.913780, 1049
Refix G22: 2, 352003.925256, -2144
Refix G26: 2, 352003.930567, -3229
$GNGGA,014626.000,2944.9277,N,10633.1421,E,1,06,4.7,263.9,M,,,,0000*1C
$GNRMC,014626.000,A,2944.9277,N,10633.1421,E,0.08,0.00,040419,,*1B
$GPGSA,A,3,01,03,16,18,22,26,,,,,,,6.0,4.7,3.8*34
$BDGSA,A,3,,,,,,,,,,,,,6.0,4.7,3.8*2D
$GLGSA,A,3,,,,,,,,,,,,,6.0,4.7,3.8*20
$GPGSV,2,1,07,01,00,000,39,03,00,000,43,16,00,000,38,18,00,000,39*7D
$GPGSV,2,2,07,22,00,000,43,26,00,000,42,31,00,000,31*4B
$BDGSV,2,1,05,05,00,000,22,18,00,000,38,23,00,000,40,32,00,000,41*68
$BDGSV,2,2,05,02,00,000,36*5A
$B3CN0,0,19,0,0,0,0,0,0,0,0,0,0,0,0*74
---00000038--- Acq_st=3 0  2019-4-4 1:46:26 
[00]  00(G01)  f 39  9  0    696.4  2045999.0  0.1  2 0  510 1156   97
[01]  02(G03)  f 43  7  0  -3358.2  2046004.3 -0.0  2 0 1386 1819 1284
[02]  15(G16)  f 39  7  0  -4863.4  2046006.2  0.0  2 0  332  970  535
[03]  17(G18)  f 39  7  0   1053.5  2045998.6  0.1  2 0  287  737  672
[04]  21(G22)  f 43  7  0  -2144.1  2046002.7 -0.0  2 0 1415 2266  775
[05]  25(G26)  f 41  7  0  -3228.9  2046004.2  0.0  2 0 1280 1090  295
[06]  30(G31)  f 31  7  0   -309.6  2046000.3  0.0  5 0  445  561  427
[16]  41(B05)  7 10 33  1    -11.4  4092000.0  0.0  2 0  168   74  162
[17]  54(B18) 1f 38  7  0  -1267.8  4092003.2 -0.2  2 0  961  961  122
[18]  59(B23) 1f 40  7  0  -2724.5  4092007.1  0.0  2 0  952 1474  838
[19]  68(B32) 1f 41  8  0  -3972.7  4092010.2 -0.0  2 0 1676 1613  715
[20]  38(B02) 1f 36 24  0  -1061.3  4092002.8 -0.5  2 0  957 1112  678
[21]  64(B28)  1  7  7  0  10697.6  4091974.5  0.1  1 0   45   52  377
[32]  80(N-1)  f 43 11  0  -4856.8  1022003.0 -0.0  2 0   517 1253  693
[33]  81(N00)  f 41  7  0  -2417.1  1022001.5  0.0  2 0   817  975  347
[49]  54(B18)  1  7  7  0  -1679.3 20460021.0  0.0  1 0  640  544  762
[50]  59(B23)  1  9  7  0  -1627.7 20460044.3 -0.1  1 0  146  422  689
[51]  68(B32)  1  7  7  0  -3105.1 20460062.1  0.1  1 0  662  486  411
[52]  38(B02)  7 13 10  1   -344.8 20460003.6 -0.0  2 0  160  728  443
Refix G01: 2, 352004.914167, 696
Refix G03: 2, 352004.922945, -3357
Refix G16: 2, 352004.923025, -4854
Refix G18: 2, 352004.913779, 1051
Refix G22: 2, 352004.925257, -2142
Refix G26: 2, 352004.930569, -3227
$GNGGA,014627.000,2944.9269,N,10633.1414,E,1,06,4.7,265.8,M,,,,0000*13
$GNRMC,014627.000,A,2944.9269,N,10633.1414,E,0.45,0.00,040419,,*1A
$GPGSA,A,3,01,03,16,18,22,26,,,,,,,6.0,4.7,3.8*34
$BDGSA,A,3,,,,,,,,,,,,,6.0,4.7,3.8*2D
$GLGSA,A,3,,,,,,,,,,,,,6.0,4.7,3.8*20
$GPGSV,2,1,07,01,02,267,39,03,25,311,43,16,24,203,39,18,00,242,39*7A
$GPGSV,2,2,07,22,39,290,43,26,57,199,41,31,00,000,31*4A
$BDGSV,1,1,04,18,00,000,38,23,00,000,40,32,00,000,41,02,00,000,36*68
$B3CN0,0,0,0,0,0,0,0,0,0,0,0,0,0,0*4C
---00000039--- Acq_st=3 0  2019-4-4 1:46:27 
[00]  00(G01)  f 40  7  0    697.8  2045999.1  0.0  2 0  789 1065  491
[01]  02(G03)  f 43  7  0  -3357.8  2046004.3  0.1  2 0 1358 1862  987
[02]  15(G16)  f 39  7  0  -4852.5  2046006.3 -0.3  2 0  692 1091  957
[03]  17(G18)  f 39  7  0   1054.1  2045998.6  0.2  2 0  889 1322  950
[04]  21(G22)  f 43  7  0  -2141.1  2046002.7 -0.0  2 0 1440 2402  978
[05]  25(G26)  f 41  7  0  -3223.9  2046004.1 -0.1  2 0 1340 2009  807
[06]  30(G31)  f 31  7  0   -307.5  2046000.3 -0.0  5 0   32  581  675
[16]  41(B05)  7 10 31  1      0.9  4092000.0 -0.0  2 0  207  417  194
[17]  54(B18) 1f 39  8  0  -1251.8  4092003.1 -0.1  2 0  995 1080  539
[18]  59(B23) 1f 40  8  0  -2726.3  4092007.0 -0.1  2 0  880 1154  756
[19]  68(B32) 1f 41  7  0  -3968.7  4092010.3  0.0  2 0  819 1232  717
[20]  38(B02) 1f 37 25  0  -1060.9  4092002.5 -0.1  2 0  829 1138  798
[32]  80(N-1)  f 43 11  0  -4853.0  1022003.0  0.2  2 0   588 1397  490
[33]  81(N00)  f 41  7  0  -2418.3  1022001.5 -0.1  2 0   896  957  291
[50]  59(B23)  1  8  7  0  -1125.7 20460044.2 -0.0  1 0  506  565  599
[51]  68(B32)  1  7  7  0  -3708.9 20460063.6 -0.1  1 0  208  616  923
[52]  38(B02)  7 14 14  1   -514.0 20460010.0  0.1  2 0  336  328  429
Refix G01: 2, 352005.914167, 695
Refix G03: 2, 352005.922947, -3358
Refix G16: 2, 352005.923028, -4855
Refix G18: 2, 352005.913779, 1050
Refix G22: 2, 352005.925258, -2143
Refix G26: 2, 352005.930571, -3229
$GNGGA,014628.000,2944.9260,N,10633.1409,E,1,06,4.7,267.5,M,,,,0000*16
$GNRMC,014628.000,A,2944.9260,N,10633.1409,E,0.84,0.00,040419,,*1D
$GPGSA,A,3,01,03,16,18,22,26,,,,,,,6.0,4.7,3.8*34
$BDGSA,A,3,,,,,,,,,,,,,6.0,4.7,3.8*2D
$GLGSA,A,3,,,,,,,,,,,,,6.0,4.7,3.8*20
$GPGSV,2,1,07,01,02,267,40,03,25,311,43,16,24,203,39,18,00,242,39*74
$GPGSV,2,2,07,22,39,290,43,26,57,199,41,31,00,000,31*4A
$BDGSV,1,1,04,18,00,000,38,23,00,000,40,32,00,000,41,02,00,000,37*69
$B3CN0,0,17,0,0,0,0,0,0,0,0,0,0,0,0*7A
---00000040--- Acq_st=3 0  2019-4-4 1:46:28 
[00]  00(G01)  f 39  7  0    690.2  2045999.0  0.0  2 0  750  882  361
[01]  02(G03)  f 43  7  0  -3359.7  2046004.3 -0.1  2 0 1178 1553  497
[02]  15(G16)  f 39  7  0  -4859.8  2046006.2 -0.1  2 0  472 1028  742
[03]  17(G18)  f 39  7  0   1047.6  2045998.6 -0.2  2 0  861 1221  518
[04]  21(G22)  f 43  7  0  -2149.0  2046002.7  0.0  2 0  898 2045  779
[05]  25(G26)  f 41  7  0  -3232.5  2046004.2  0.0  2 0  572 1212  572
[06]  30(G31)  f 31  8  0   -308.4  2046000.3 -0.1  5 0  329  489  631
[16]  41(B05)  7 10 31  1     -2.1  4092000.1  0.1  2 0  342  378  161
[17]  54(B18) 1f 38  7  0  -1265.7  4092003.1  0.2  2 0  791  901  330
[18]  59(B23) 1f 40  7  0  -2732.3  4092007.1 -0.1  2 0  861  975  538
[19]  68(B32) 1f 40  7  0  -3975.2  4092010.3 -0.0  2 0  763 1035  209
[20]  38(B02) 1f 37 27  0  -1068.5  4092002.7  0.7  2 0  578 1026  562
[32]  80(N-1)  f 43 18  0  -4856.4  1022003.0  0.0  2 0   949 1588  993
[33]  81(N00)  f 41  7  0  -2420.7  1022001.5  0.1  2 0   762 1010  401
[49]  54(B18)  1  7  7  0   -963.3 20460020.7 -0.0  1 0  348  776  475
Refix G01: 2, 352006.914166, 693
Refix G03: 2, 352006.922949, -3360
Refix G16: 2, 352006.923031, -4858
Refix G18: 2, 352006.913778, 1048
Refix G22: 2, 352006.925260, -2145
Refix G26: 2, 352006.930573, -3232
$GNGGA,014629.000,2944.9253,N,10633.1409,E,1,06,4.7,269.6,M,,,,0000*1A
$GNRMC,014629.000,A,2944.9253,N,10633.1409,E,0.98,0.00,040419,,*11
$GPGSA,A,3,01,03,16,18,22,26,,,,,,,6.0,4.7,3.8*34
$BDGSA,A,3,,,,,,,,,,,,,6.0,4.7,3.8*2D
$GLGSA,A,3,,,,,,,,,,,,,6.0,4.7,3.8*20
$GPGSV,2,1,07,01,02,267,39,03,25,311,43,16,24,203,39,18,00,242,39*7A
$GPGSV,2,2,07,22,39,290,43,26,57,199,41,31,00,000,31*4A
$BDGSV,1,1,04,18,00,000,38,23,00,000,40,32,00,000,40,02,00,000,37*68
$B3CN0,0,0,0,0,0,0,0,0,0,0,0,0,0,0*4C
---00000041--- Acq_st=3 0  2019-4-4 1:46:29 
[00]  00(G01)  f 39  7  0    695.1  2045999.0  0.0  2 0  787 1134  555
[01]  02(G03)  f 42  7  0  -3355.8  2046004.3  0.0  2 0 1238 1940 1188
[02]  15(G16)  f 39 10  0  -4854.5  2046006.2 -0.1  2 0  846 1065  358
[03]  17(G18)  f 39  7  0   1049.3  2045998.6 -0.0  2 0  481 1077  775
[04]  21(G22)  f 43 10  0  -2143.1  2046002.7  0.0  2 0 1192 2145  887
[05]  25(G26)  f 41  7  0  -3236.5  2046004.2  0.1  2 0  832 1315  707
[06]  30(G31)  f 31  7  0   -309.6  2046000.4  0.0  5 0  325  326  256
[16]  41(B05)  7 21 31  1    -12.0  4092000.0  0.0  2 0   95   71  163
[17]  54(B18) 1f 39  8  0  -1265.1  4092003.2 -0.2  2 0  868  902  165
[18]  59(B23) 1f 41  9  0  -2733.0  4092007.1 -0.1  2 0  713  977  577
[19]  68(B32) 1f 40 11  0  -3976.5  4092010.3  0.2  2 0  971 1608  836
[20]  38(B02) 1f 37 21  0  -1071.6  4092002.6  0.7  2 0  665  648  400
[32]  80(N-1)  f 43 14  0  -4857.8  1022003.0 -0.3  2 0   706 1263  731
[33]  81(N00)  f 40  7  0  -2417.3  1022001.5  0.0  2 0   706  946  562
[49]  54(B18)  1  7  7  0   -311.3 20460021.4  0.2  1 0  480 1125  963
[50]  59(B23)  1  7  7  0  -2141.8 20460044.4 -0.1  1 0  292  569  635
[51]  68(B32)  1  7  7  0  -3027.0 20460064.3 -0.1  1 0  165  127  172
[52]  38(B02)  1 17 10  0   -874.8 20460017.6 -0.0  1 0  375  202  744
Refix G01: 2, 352007.914166, 697
Refix G03: 2, 352007.922952, -3356
Refix G16: 2, 352007.923034, -4855
Refix G18: 2, 352007.913777, 1051
Refix G22: 2, 352007.925261, -2141
Refix G26: 2, 352007.930575, -3227
