i=1
Rf R0 Config = ff777073
Rf R1 Config = 00dffbfe
Rf R52 Config = 00dfee80
i=2
Rf R0 Config = 007770f3
Rf R1 Config = 00dffbfe
Rf R52 Config = 00da1070
i=3
Rf R0 Config = 007770f3
Rf R1 Config = 00dffbfe
Rf R52 Config = 00de4ef0
i=4
Rf R0 Config = 00777073
Rf R1 Config = 00dffbfe
Rf R52 Config = 00de4e00
SD initialized success
Create debug.log Failed! 3
Start Channel by LuYu
$GNGGA,000000.000,,,,,0,00,,,M,,,,0000*2B
$GNRMC,000000.000,A,,,,,,,060180,,*29
$GPGSA,A,1,,,,,,,,,,,,,,,*1E
$BDGSA,A,1,,,,,,,,,,,,,,,*0F
$GLGSA,A,1,,,,,,,,,,,,,,,*02
$B3CN0,0,0,0,0,0,0,0,0,0,0,0,0,0,0*4C
---00000001--- Acq_st=3 0  2019-4-4 1:56:40 
[00]  02(G03)  1 20 17  0  -3079.5  2046006.9  0.1  1 0  326 1652 3384
$GNGGA,000000.000,,,,,0,00,,,M,,,,0000*2B
$GNRMC,000000.000,A,,,,,,,060180,,*29
$GPGSA,A,1,,,,,,,,,,,,,,,*1E
$BDGSA,A,1,,,,,,,,,,,,,,,*0F
$GLGSA,A,1,,,,,,,,,,,,,,,*02
$B3CN0,0,0,0,0,0,0,0,0,0,0,0,0,0,0*4C
---00000002--- Acq_st=3 0  2019-4-4 1:56:41 
[00]  02(G03)  1 29  7  0  -3078.3  2046004.0  1.0  1 0 1999 2219 1001
[01]  15(G16)  1 21  7  0  -4723.1  2046007.8 -0.2  1 0  754 1512  764
[02]  21(G22)  1  7  7  0  -1750.0  2046004.1 -0.1  1 0  312  314  860
$GNGGA,000000.000,,,,,0,00,,,M,,,,0000*2B
$GNRMC,000000.000,A,,,,,,,060180,,*29
$GPGSA,A,1,,,,,,,,,,,,,,,*1E
$BDGSA,A,1,,,,,,,,,,,,,,,*0F
$GLGSA,A,1,,,,,,,,,,,,,,,*02
$B3CN0,0,0,0,0,0,0,0,0,0,0,0,0,0,0*4C
---00000003--- Acq_st=3 0  2019-4-4 1:56:42 
[00]  02(G03)  1 31  9  0  -3081.3  2046003.7  1.0  1 0 1608 2452 1133
[01]  15(G16)  1 24  7  0  -4725.8  2046005.6  0.1  1 0 1459 1700  633
[02]  21(G22)  1 26  7  0  -1825.7  2046003.4  0.8  1 0 1711 2573  967
[03]  25(G26)  1 28 15  0  -2926.4  2046004.7  0.5  1 0 1190 2668 1502
[16]  38(B02)  1 20 30  1  -1000.0  4092001.8 -0.0  1 0  202  298  685
$GNGGA,000000.000,,,,,0,00,,,M,,,,0000*2B
$GNRMC,000000.000,A,,,,,,,060180,,*29
$GPGSA,A,1,,,,,,,,,,,,,,,*1E
$BDGSA,A,1,,,,,,,,,,,,,,,*0F
$GLGSA,A,1,,,,,,,,,,,,,,,*02
$B3CN0,0,0,0,0,0,0,0,0,0,0,0,0,0,0*4C
---00000004--- Acq_st=3 0  2019-4-4 1:56:43 
[00]  02(G03)  7 20  7  0  -3075.3  2046004.0  0.8 10 0 1129 2189 1117
[01]  15(G16)  7 18  7  0  -4721.1  2046006.1  0.5 10 0 1096 1891 1307
[02]  21(G22)  7 32  7  0  -1825.1  2046002.2  0.4  5 0 1622 2151  920
[03]  25(G26)  7 27  7  0  -2922.9  2046003.7  0.6 10 0 1903 2223 1051
[16]  38(B02)  1 24 19  1  -1162.8  4092003.5 -0.1  1 0  149  376 1239
[17]  41(B05)  1 10 23  0   -905.0  4092002.4 -0.1  1 0  386  230  374
$GNGGA,000000.000,,,,,0,00,,,M,,,,0000*2B
$GNRMC,000000.000,A,,,,,,,060180,,*29
$GPGSA,A,1,,,,,,,,,,,,,,,*1E
$BDGSA,A,1,,,,,,,,,,,,,,,*0F
$GLGSA,A,1,,,,,,,,,,,,,,,*02
$GPGSV,1,1,04,03,00,000,20,16,00,000,18,22,00,000,32,26,00,000,27*72
$B3CN0,0,0,0,0,0,0,0,0,0,0,0,0,0,0*4C
---00000005--- Acq_st=3 0  2019-4-4 1:56:44 
[00]  02(G03)  7 45  7  0  -3076.4  2046004.0  0.0  2 0 1565 2448  763
[01]  15(G16)  7 44  7  0  -4719.8  2046006.1  0.1  2 0 1547 2312 1017
[02]  21(G22)  7 44  7  0  -1823.1  2046002.2 -0.1  2 0 1718 2253  501
[03]  25(G26)  7 44  7  0  -2923.0  2046003.7 -0.1  2 0 1638 2202  899
[16]  38(B02)  7 28 25  0  -1113.4  4092003.2 -0.2  2 0   79  463 1376
[17]  41(B05)  7 10 18  1  -1011.0  4092002.6 -0.0  2 0  253   65  257
[18]  46(B10)  1  7  7  0  -1562.4  4092005.5  0.1  1 0  425  777  367
$GNGGA,000000.000,,,,,0,00,,,M,,,,0000*2B
$GNRMC,000000.000,A,,,,,,,060180,,*29
$GPGSA,A,1,,,,,,,,,,,,,,,*1E
$BDGSA,A,1,,,,,,,,,,,,,,,*0F
$GLGSA,A,1,,,,,,,,,,,,,,,*02
$GPGSV,1,1,04,03,00,000,45,16,00,000,44,22,00,000,44,26,00,000,44*7C
$BDGSV,1,1,01,02,00,000,28*51
$B3CN0,0,0,0,0,0,0,0,0,0,0,0,0,0,0*4C
---00000006--- Acq_st=3 0  2019-4-4 1:56:45 
[00]  02(G03)  7 43  7  0  -3070.5  2046004.0  0.0  2 0 1134 2230 1222
[01]  15(G16)  7 43  7  0  -4715.0  2046006.1 -0.1  2 0 1370 1790  798
[02]  21(G22)  7 44  7  0  -1818.4  2046002.2 -0.0  2 0 1365 1884  975
[03]  25(G26)  7 43  7  0  -2916.0  2046003.8  0.0  2 0 1305 2204  928
[16]  38(B02)  7 35 27  0  -1093.7  4092003.2  0.0  2 0  435  919 1248
[17]  41(B05)  7 10 18  1  -1213.6  4092003.0 -0.0  2 0  138  198  427
[18]  46(B10)  7 22  7  0  -1555.0  4092004.0  0.3 10 0  329  589  360
[19]  54(B18)  1  7  7  0  -1287.1  4092003.5 -0.0  1 0  394  228  653
$GNGGA,000000.000,,,,,0,00,,,M,,,,0000*2B
$GNRMC,000000.000,A,,,,,,,060180,,*29
$GPGSA,A,1,,,,,,,,,,,,,,,*1E
$BDGSA,A,1,,,,,,,,,,,,,,,*0F
$GLGSA,A,1,,,,,,,,,,,,,,,*02
$GPGSV,1,1,04,03,00,000,43,16,00,000,43,22,00,000,44,26,00,000,43*7A
$BDGSV,1,1,02,02,00,000,35,10,00,000,22*6F
$B3CN0,0,0,0,0,0,0,0,0,0,0,0,0,0,0*4C
---00000007--- Acq_st=3 0  2019-4-4 1:56:46 
[00]  02(G03)  7 43  7  0  -3071.5  2046004.0 -0.0  2 0  872 2387 1282
[01]  15(G16)  7 43  9  0  -4715.9  2046006.1  0.0  2 0 1432 2339 1259
[02]  21(G22)  7 43  7  0  -1817.1  2046002.3 -0.0  2 0 1362 2260  903
[03]  25(G26)  7 43  7  0  -2918.8  2046003.8  0.0  2 0 1287 2329 1107
[16]  38(B02)  f 37 26  0  -1091.3  4092002.9 -0.1  2 0  853 1193  508
[17]  41(B05)  7 23 10  0  -1300.3  4092003.4  0.1  2 0  309  350  544
[18]  46(B10)  7 37  7  0  -1561.6  4092004.0  0.2  2 0  910  713  324
[19]  54(B18)  1  8  7  0  -1720.7  4092005.7 -0.1  1 0   26  356  592
[20]  59(B23)  1  7  7  0  -2607.0  4092008.1 -0.0  1 0  597  285 1318
[21]  61(B25)  1  7  7  0   -750.0  4092000.6  0.0  1 0  426  305  441
$GNGGA,000000.000,,,,,0,00,,,M,,,,0000*2B
$GNRMC,000000.000,A,,,,,,,060180,,*29
$GPGSA,A,1,,,,,,,,,,,,,,,*1E
$BDGSA,A,1,,,,,,,,,,,,,,,*0F
$GLGSA,A,1,,,,,,,,,,,,,,,*02
$GPGSV,1,1,04,03,00,000,43,16,00,000,43,22,00,000,43,26,00,000,43*7D
$BDGSV,1,1,03,02,00,000,38,05,00,000,22,10,00,000,37*52
$B3CN0,0,0,0,0,0,0,0,0,0,0,0,0,0,0*4C
---00000008--- Acq_st=3 0  2019-4-4 1:56:47 
[00]  02(G03)  7 43 10  0  -3069.5  2046003.9  0.0  2 0 1418 2014  911
[01]  15(G16)  7 43  7  0  -4718.3  2046006.1 -0.0  2 0 1714 2578 1171
[02]  21(G22)  7 43  7  0  -1816.2  2046002.3  0.1  2 0 1253 2278  870
[03]  25(G26)  7 43  7  0  -2916.4  2046003.7 -0.1  2 0 1146 1967  968
[16]  38(B02)  f 39 26  0  -1091.8  4092003.0 -0.5  2 0  202  685  527
[17]  41(B05)  7 10 10  0  -1378.9  4092003.9  0.1  2 0  296  693 1128
[18]  46(B10)  7 36  7  0  -1550.9  4092003.9  0.1  2 0  746  812  407
[19]  54(B18)  1 15  7  0  -1727.6  4092003.2  0.7  1 0  886  595  491
[20]  59(B23)  7 22  7  0  -2596.6  4092006.8  0.1 10 0  495 1508  725
[21]  61(B25)  1  7  7  0   -396.6  4092000.6 -0.1  1 0  400  486  215
[22]  68(B32)  1  7  7  0  -3750.0  4092009.1 -0.1  1 0  365  464  294
[32]  75(N-6)  1 14  7  0  -1250.0  1022000.6  0.1  1 0   116  425  273
[48]  38(B02)  1 20 10  0   -793.4 20460016.9  0.2  1 0  180  196  194
$GNGGA,000000.000,,,,,0,00,,,M,,,,0000*2B
$GNRMC,000000.000,A,,,,,,,060180,,*29
$GPGSA,A,1,,,,,,,,,,,,,,,*1E
$BDGSA,A,1,,,,,,,,,,,,,,,*0F
$GLGSA,A,1,,,,,,,,,,,,,,,*02
$GPGSV,1,1,04,03,00,000,43,16,00,000,43,22,00,000,43,26,00,000,43*7D
$BDGSV,1,1,04,02,00,000,39,05,00,000,16,10,00,000,36,23,00,000,22*63
$B3CN0,0,0,0,0,0,0,0,0,0,0,0,0,0,0*4C
---00000009--- Acq_st=7 0  2019-4-4 1:56:48 
[00]  02(G03)  7 43  7  0  -3070.0  2046003.9 -0.0  2 0 1153 1541  749
[01]  15(G16)  7 43  7  0  -4716.5  2046006.1  0.0  2 0  995 2128 1218
[02]  21(G22)  7 43  7  0  -1817.9  2046002.3 -0.0  2 0 1277 2410  986
[03]  25(G26)  7 43  7  0  -2917.6  2046003.7  0.0  2 0 1741 2279  882
[16]  38(B02) 1f 40 26  0  -1090.5  4092002.9  0.4  2 0  242  958  807
[17]  41(B05)  7 10 20  0  -1157.2  4092003.3 -0.1  2 0  711 1070  544
[18]  46(B10)  7 36  7  0  -1559.7  4092003.9  0.1  2 0  656  650  366
[19]  54(B18)  1 15 13  0  -1728.9  4092002.7  0.8  1 0  761  697   99
[20]  59(B23)  7 42  8  0  -2599.2  4092006.8  0.0  2 0 1076 1815 1435
[21]  61(B25)  1  7  9  0   -524.9  4092000.5 -0.0  1 0  527  659  549
[22]  68(B32)  1  7 11  0  -3768.8  4092009.0  0.2  1 0  274  494  219
[32]  75(N-6)  1 13  7  0  -1546.1  1022001.0 -0.0  1 0   265  354  242
[33]  80(N-1)  1 22 11  0  -4678.1  1022006.4  0.2  1 0   314  628 1183
[34]  81(N00)  1 23 22  0  -2106.0  1022002.8  0.3  1 0   583  976  878
[35]  82(N01)  1 22  7  0  -4290.9  1022003.4 -0.1  1 0   238  159  156
[48]  38(B02)  1 10 10  0   -380.3 20460017.5  0.1  1 0  207  256  280
$GNGGA,015649.426,,,,,0,00,,,M,,,,0000*24
$GNRMC,015649.426,A,,,,,,,100180,,*21
$GPGSA,A,1,,,,,,,,,,,,,,,*1E
$BDGSA,A,1,,,,,,,,,,,,,,,*0F
$GLGSA,A,1,,,,,,,,,,,,,,,*02
$GPGSV,1,1,04,03,00,000,43,16,00,000,43,22,00,000,43,26,00,000,43*7D
$BDGSV,1,1,03,02,00,000,40,10,00,000,36,23,00,000,42*5E
$B3CN0,0,0,0,0,0,0,0,0,0,0,0,0,0,0*4C
---00000010--- Acq_st=7 0  2019-4-4 1:56:49 
[00]  02(G03)  f 42  7  0  -3065.5  2046004.0  0.0  2 0  851 1645  830
[01]  15(G16)  f 43  7  0  -4712.4  2046006.1 -0.0  2 0 1640 2610 1597
[02]  21(G22)  f 43  7  0  -1814.5  2046002.3 -0.0  2 0 1382 2206 1007
[03]  25(G26)  f 43  7  0  -2911.7  2046003.7 -0.0  2 0 1203 2384 1493
[16]  38(B02) 1f 39 26  0  -1086.2  4092002.9 -0.4  2 0 1029 1508  771
[17]  41(B05)  7 10 10  0  -1217.1  4092003.2 -0.0  2 0  824 1048  528
[18]  46(B10)  7 37  7  0  -1560.0  4092003.9 -0.2  2 0  601 1101  476
[19]  54(B18)  1 18  7  0  -1724.2  4092002.9  0.9  1 0  438  917  538
[20]  59(B23)  7 42 11  0  -2594.5  4092006.7 -0.0  2 0 1507 2188  835
[21]  61(B25)  7  7  7  0   -354.8  4092000.7 -0.1 10 0  457  411  152
[22]  68(B32)  1  7  7  0  -3912.3  4092009.1  0.1  1 0  413  630  219
[32]  75(N-6)  1 18 21  0  -1741.8  1022001.8 -0.1  1 0   101  265  114
[33]  80(N-1)  1 24  7  0  -4674.3  1022002.8  0.9  1 0  1135 1214  649
[34]  81(N00)  1 32  7  0  -2102.5  1022001.0  1.0  1 0   899  875  201
[35]  82(N01)  1 27 10  0  -4249.9  1022003.5  0.8  1 0   555  989  453
[48]  38(B02)  1 20 16  0    -58.7 20460023.7  0.1  1 0  236  607  389
$GNGGA,015650.426,,,,,0,00,,,M,,,,0000*2C
$GNRMC,015650.426,A,,,,,,,100180,,*29
$GPGSA,A,1,,,,,,,,,,,,,,,*1E
$BDGSA,A,1,,,,,,,,,,,,,,,*0F
$GLGSA,A,1,,,,,,,,,,,,,,,*02
$GPGSV,1,1,04,03,00,000,42,16,00,000,43,22,00,000,43,26,00,000,43*7C
$BDGSV,1,1,03,02,00,000,39,10,00,000,37,23,00,000,42*51
$B3CN0,0,0,0,0,0,0,0,0,0,0,0,0,0,0*4C
---00000011--- Acq_st=3 0  2019-4-4 1:56:50 
[00]  02(G03)  f 41  7  0  -3066.2  2046004.1 -0.0  2 0  518 1790 1339
[01]  15(G16)  f 43  7  0  -4713.5  2046006.1 -0.0  2 0 1422 1976 1027
[02]  21(G22)  f 43  7  0  -1815.6  2046002.3  0.0  2 0 1585 2142 1077
[03]  25(G26)  f 43  7  0  -2915.1  2046003.7  0.0  2 0 1683 2826 1232
[16]  38(B02) 1f 40 26  0  -1089.6  4092002.8 -0.3  2 0  534 1317  823
[17]  41(B05)  7 19 24  0  -1266.2  4092003.0 -0.0  2 0 1215  363  153
[18]  46(B10)  7 37  7  0  -1554.1  4092003.9  0.1  2 0  535  864  354
[20]  59(B23)  7 42  7  0  -2595.1  4092006.7 -0.1  2 0 1176 1587  624
[21]  61(B25)  7  7  7  0   -380.3  4092001.0 -0.0 10 0  278  179  514
[22]  68(B32)  1  7  7  0  -4267.5  4092009.2 -0.1  1 0  367  505  486
[32]  75(N-6)  1 14 25  0  -2035.9  1022002.5  0.0  1 0    60   59  434
[33]  80(N-1)  7 23  7  0  -4673.2  1022002.9  0.8 10 0  1057 1239  473
[34]  81(N00)  7 16  7  0  -2101.4  1022001.3  1.0 10 0   709  949  404
[35]  82(N01)  1 29 12  0  -4251.9  1022002.4  0.7  1 0   783  953  122
[48]  38(B02)  1 10 10  0    398.0 20460023.7 -0.1  1 0  259  118   70
$GNGGA,015651.426,,,,,0,00,,,M,,,,0000*2D
$GNRMC,015651.426,A,,,,,,,100180,,*28
$GPGSA,A,1,,,,,,,,,,,,,,,*1E
$BDGSA,A,1,,,,,,,,,,,,,,,*0F
$GLGSA,A,1,,,,,,,,,,,,,,,*02
$GPGSV,1,1,04,03,00,000,41,16,00,000,43,22,00,000,43,26,00,000,43*7F
$BDGSV,1,1,04,02,00,000,40,05,00,000,19,10,00,000,37,23,00,000,42*65
$B3CN0,0,0,0,0,0,0,0,0,0,0,0,0,0,0*4C
---00000012--- Acq_st=3 0  2019-4-4 1:56:51 
[00]  02(G03)  f 40  7  0  -3063.7  2046004.0  0.1  2 0  842 1463  890
[01]  15(G16)  f 42  7  0  -4718.2  2046006.1 -0.0  2 0 1120 2006  928
[02]  21(G22)  f 44  7  0  -1814.3  2046002.3  0.0  2 0 1670 2635  762
[03]  25(G26)  f 43 10  0  -2915.0  2046003.7  0.0  2 0 1512 2305 1178
[16]  38(B02) 1f 40 26  0  -1084.2  4092002.8  0.6  2 0  975  999  335
[17]  41(B05)  7 10 27  1   -906.6  4092002.2  0.1  2 0  987  242  266
[18]  46(B10)  7 36  7  0  -1547.5  4092003.9  0.5  2 0  315  481  121
[20]  59(B23) 1f 42  8  0  -2589.0  4092006.7  0.0  2 0 1548 1735  776
[21]  61(B25)  7 27  7  0   -405.1  4092001.1 -0.1 10 0  369  115  649
[22]  68(B32)  1  9  7  0  -5088.1  4092009.3  0.0  1 0  376   70  171
[32]  75(N-6)  1 17  7  0  -2394.0  1022001.5  0.1  1 0   158  185  323
[33]  80(N-1)  7 43  7  0  -4669.8  1022002.9  0.1  2 0   926 1446  619
[34]  81(N00)  7 42  7  0  -2099.1  1022001.3  0.2  2 0   505 1210  642
[35]  82(N01)  7 36  7  0  -4250.4  1022002.7 -0.2  2 0   175  231  236
$GNGGA,015652.426,,,,,0,00,,,M,,,,0000*2E
$GNRMC,015652.426,A,,,,,,,100180,,*2B
$GPGSA,A,1,,,,,,,,,,,,,,,*1E
$BDGSA,A,1,,,,,,,,,,,,,,,*0F
$GLGSA,A,1,,,,,,,,,,,,,,,*02
$GPGSV,1,1,04,03,00,000,40,16,00,000,42,22,00,000,44,26,00,000,43*78
$BDGSV,1,1,04,02,00,000,39,10,00,000,36,23,00,000,42,25,00,000,27*65
$B3CN0,0,0,0,0,0,0,0,0,0,0,0,0,0,0*4C
---00000013--- Acq_st=3 0  2019-4-4 1:56:52 
[00]  02(G03)  f 40  7  0  -3068.0  2046003.9  0.1  2 0 1213 1724  461
[01]  15(G16)  f 42  7  0  -4714.7  2046006.1 -0.0  2 0 1073 1812  936
[02]  21(G22)  f 44  7  0  -1815.2  2046002.3  0.0  2 0 1491 1755  517
[03]  25(G26)  f 44  7  0  -2910.6  2046003.7 -0.0  2 0 1644 2572 1091
[16]  38(B02) 1f 39 28  0  -1085.8  4092002.7 -0.7  2 0  620  938  623
[17]  41(B05)  7 27 24  0  -1087.9  4092003.0 -0.4  2 0 1079  617  181
[18]  46(B10) 1f 36  7  0  -1553.3  4092004.0  0.3  2 0  802  969  663
[20]  59(B23) 1f 42  7  0  -2595.6  4092006.7  0.0  2 0 1400 1853  978
[21]  61(B25)  7 28  7  0   -404.2  4092001.0  0.0 10 0  790  662  769
[33]  80(N-1)  7 41  8  0  -4670.7  1022003.0  0.2  2 0   567 1355  727
[34]  81(N00)  7 41 11  0  -2099.7  1022001.4 -0.1  2 0  1015 1225  860
[35]  82(N01)  7 35  7  0  -4253.5  1022002.7  0.1  2 0    32  613  482
[48]  38(B02)  1 14 17  1   -566.1 20460015.9  0.1  1 0  178  748  757
[52]  59(B23)  1 11  7  0  -1833.9 20460041.2  0.1  1 0  572  267  156
$GNGGA,015653.426,,,,,0,00,,,M,,,,0000*2F
$GNRMC,015653.426,A,,,,,,,100180,,*2A
$GPGSA,A,1,,,,,,,,,,,,,,,*1E
$BDGSA,A,1,,,,,,,,,,,,,,,*0F
$GLGSA,A,1,,,,,,,,,,,,,,,*02
$GPGSV,1,1,04,03,00,000,40,16,00,000,42,22,00,000,44,26,00,000,44*7F
$BDGSV,1,1,04,02,00,000,39,10,00,000,37,23,00,000,42,25,00,000,24*67
$B3CN0,0,0,0,0,0,0,0,0,0,0,0,0,0,0*4C
---00000014--- Acq_st=3 0  2019-4-4 1:56:53 
[00]  02(G03)  f 40  7  0  -3068.7  2046003.9  0.0  2 0  778 1358  809
[01]  15(G16)  f 42  7  0  -4711.0  2046006.1 -0.1  2 0  742 1707  776
[02]  21(G22)  f 44  7  0  -1810.0  2046002.3 -0.0  2 0 1545 2234 1240
[03]  25(G26)  f 44  7  0  -2909.4  2046003.7 -0.1  2 0 1357 2472 1138
[16]  38(B02) 1f 39 25  0  -1083.8  4092002.8  0.4  2 0 1061 1014  233
[17]  41(B05)  7 10 10  0  -1409.5  4092003.6 -0.1  2 0  291   85  398
[18]  46(B10) 1f 37  7  0  -1554.1  4092003.9  0.3  2 0  822  832  452
[20]  59(B23) 1f 42  9  0  -2592.3  4092006.7  0.0  2 0  889 1300  404
[21]  61(B25)  7 24  7  0   -539.6  4092001.4 -0.1 10 0  625  959  351
[33]  80(N-1)  7 41  7  0  -4669.9  1022003.0 -0.1  2 0   419 1108  467
[34]  81(N00)  7 39  7  0  -2096.1  1022001.4 -0.7  2 0   268  767  182
[35]  82(N01)  7 35  7  0  -4251.2  1022002.6 -0.2  2 0   473  702  581
[48]  38(B02)  1 10 10  1   -416.8 20460021.0 -0.0  1 0  698  379  211
[50]  46(B10)  1  7  7  0   -966.0 20460025.8  0.0  1 0   52  700  878
[52]  59(B23)  1  9  7  0  -2073.6 20460042.0 -0.1  1 0  149  154  712
---00000015--- Acq_st=3 0  2019-4-4 1:56:54 
[00]  02(G03)  f 41  7  0  -3066.9  2046003.9 -0.1  2 0 1400 1589  866
[01]  15(G16)  f 42 13  0  -4714.6  2046006.1  0.1  2 0 1191 1976  619
[02]  21(G22)  f 44  8  0  -1807.9  2046002.3 -0.0  2 0 1388 2338 1018
[03]  25(G26)  f 44  7  0  -2910.6  2046003.7 -0.0  2 0 1331 2224 1343
[16]  38(B02) 1f 40 26  0  -1089.7  4092002.6 -0.7  2 0  917 1174  483
[18]  46(B10) 1f 37  7  0  -1552.1  4092004.0 -0.2  2 0  588  875  688
[20]  59(B23) 1f 42  7  0  -2592.9  4092006.7  0.0  2 0 1192 1565  886
[21]  61(B25)  7  7  7  0   -715.0  4092001.9  0.1 10 0  284  587  150
[33]  80(N-1)  f 30  7  0  -4672.2  1022002.9  0.0  5 0   858 1233  526
[34]  81(N00)  f 30  7  0  -2100.7  1022001.5  0.6  5 0   524 1190  808
[35]  82(N01)  f 28  7  0  -4250.7  1022002.7  0.0  5 0   397  770  448
[48]  38(B02)  1 18 14  0  -1041.2 20460020.5  0.1  1 0  113  111  347
[50]  46(B10)  1  7  7  0   -570.1 20460025.8 -0.1  1 0  185  301  310
[52]  59(B23)  1  7  7  0  -2633.7 20460040.5 -0.2  1 0  743  678  518
$GNGGA,015654.426,,,,,0,00,,,M,,,,0000*28
$GNRMC,015654.426,A,,,,,,,100180,,*2D
$GPGSA,A,1,,,,,,,,,,,,,,,*1E
$BDGSA,A,1,,,,,,,,,,,,,,,*0F
$GLGSA,A,1,,,,,,,,,,,,,,,*02
$GPGSV,1,1,04,03,00,000,41,16,00,000,42,22,00,000,44,26,00,000,44*7E
$BDGSV,1,1,03,02,00,000,40,10,00,000,37,23,00,000,42*5F
$B3CN0,0,0,0,0,0,0,0,0,0,0,0,0,0,0*4C
---00000016--- Acq_st=3 0  2019-4-4 1:56:55 
[00]  02(G03)  f 42  7  0  -3061.9  2046003.9 -0.1  2 0 1056 1520  941
[01]  15(G16)  f 42  7  0  -4710.9  2046006.1  0.1  2 0 1382 2097 1146
[02]  21(G22)  f 44  7  0  -1808.6  2046002.3  0.0  2 0 1465 2483 1028
[03]  25(G26)  f 43  7  0  -2909.8  2046003.7  0.0  2 0 1363 2592  857
[16]  38(B02) 1f 39 26  0  -1080.9  4092002.7  0.7  2 0  631  627  535
[18]  46(B10) 1f 37  7  0  -1546.3  4092004.0  0.1  2 0  220  505  223
[20]  59(B23) 1f 41  8  0  -2591.3  4092006.7 -0.1  2 0 1239 1471  428
[21]  61(B25)  7  7  8  0   -811.8  4092002.1  0.0 10 0   16  177  305
[33]  80(N-1)  f 42  7  0  -4667.2  1022002.9 -0.0  2 0   413 1242  566
[34]  81(N00)  f 38  7  0  -2095.7  1022001.3  0.2  2 0   645  866  334
[35]  82(N01)  f 35  7  0  -4247.3  1022002.6 -0.1  2 0   430  408  347
[48]  38(B02)  1 10 21  0  -1117.7 20460022.4  0.0  1 0  328  330  352
[50]  46(B10)  1  7  7  0   -432.8 20460025.1 -0.0  1 0  888 1152  617
[52]  59(B23)  1  7  7  0  -2676.7 20460041.5 -0.1  1 0  719  420  488
$GNGGA,015655.426,,,,,0,00,,,M,,,,0000*29
$GNRMC,015655.426,A,,,,,,,100180,,*2C
$GPGSA,A,1,,,,,,,,,,,,,,,*1E
$BDGSA,A,1,,,,,,,,,,,,,,,*0F
$GLGSA,A,1,,,,,,,,,,,,,,,*02
$GPGSV,1,1,04,03,00,000,42,16,00,000,42,22,00,000,44,26,00,000,43*7A
$BDGSV,1,1,03,02,00,000,39,10,00,000,37,23,00,000,41*52
$B3CN0,0,0,0,0,0,0,0,0,0,0,0,0,0,0*4C
---00000017--- Acq_st=2 0  2019-4-4 1:56:56 
[00]  02(G03)  f 43  7  0  -3061.6  2046003.9  0.1  2 0 1378 2126 1017
[01]  15(G16)  f 42  7  0  -4710.8  2046006.0  0.0  2 0 1519 1904  671
[02]  21(G22)  f 44  7  0  -1808.9  2046002.3  0.0  2 0 1426 2605 1046
[03]  25(G26)  f 44  9  0  -2907.2  2046003.7 -0.0  2 0 1522 2503 1183
[16]  38(B02) 1f 39 25  0  -1082.8  4092002.8  0.7  2 0  645  836  470
[18]  46(B10) 1f 37  7  0  -1552.8  4092004.0 -0.2  2 0  829 1085  559
[20]  59(B23) 1f 42  7  0  -2588.2  4092006.7 -0.0  2 0 1637 1925  872
[21]  61(B25)  7  7  7  0   -871.6  4092002.1  0.1 10 0  277  232  336
[33]  80(N-1)  f 42  7  0  -4667.4  1022003.0  0.1  2 0   762 1175  283
[34]  81(N00)  f 39  7  0  -2094.9  1022001.3 -0.5  2 0   335  918  603
[35]  82(N01)  f 35  7  0  -4249.2  1022002.7 -0.1  2 0   688  659  109
[48]  38(B02)  f 10 10  1  -1082.3 20460016.6 -0.2  2 0  301  518  716
[50]  46(B10)  1  7  7  0   -324.4 20460025.6  0.0  1 0  307   93  188
$GNGGA,015656.426,,,,,0,00,,,M,,,,0000*2A
$GNRMC,015656.426,A,,,,,,,100180,,*2F
$GPGSA,A,1,,,,,,,,,,,,,,,*1E
$BDGSA,A,1,,,,,,,,,,,,,,,*0F
$GLGSA,A,1,,,,,,,,,,,,,,,*02
$GPGSV,1,1,04,03,00,000,43,16,00,000,42,22,00,000,44,26,00,000,44*7C
$BDGSV,1,1,03,02,00,000,39,10,00,000,37,23,00,000,42*51
$B3CN0,0,0,0,0,0,0,0,0,0,0,0,0,0,0*4C
---00000018--- Acq_st=7 0  2019-4-4 1:56:57 
[00]  02(G03)  f 43  7  0  -3061.0  2046003.9 -0.0  2 0 1687 2156 1327
[01]  15(G16)  f 43  7  0  -4710.0  2046006.1  0.0  2 0 1067 1819  798
[02]  21(G22)  f 44  7  0  -1807.0  2046002.3 -0.0  2 0 1322 2534  812
[03]  25(G26)  f 44  7  0  -2906.3  2046003.7  0.0  2 0 1622 2368 1012
[16]  38(B02) 1f 39 29  0  -1080.8  4092002.7  0.8  2 0  796 1217  582
[18]  46(B10) 1f 37  7  0  -1547.6  4092003.9 -0.4  2 0  552  638  640
[20]  59(B23) 1f 42  7  0  -2591.3  4092006.7 -0.0  2 0 1115 1359  445
[33]  80(N-1)  f 43  7  0  -4666.8  1022002.9 -0.2  2 0  1163 1477  627
[34]  81(N00)  f 39  7  0  -2094.6  1022001.3  0.1  2 0   585 1118  631
[35]  82(N01)  f 34  7  0  -4248.6  1022002.7 -0.0  2 0   594  412  188
[48]  38(B02)  f 10 10  1  -1413.8 20460023.6  0.0  2 0  810  276  693
[52]  59(B23)  1  7  7  0  -1749.5 20460043.0  0.2  1 0   63   39   99
$GNGGA,015657.426,,,,,0,00,,,M,,,,0000*2B
$GNRMC,015657.426,A,,,,,,,040419,,*2E
$GPGSA,A,1,,,,,,,,,,,,,,,*1E
$BDGSA,A,1,,,,,,,,,,,,,,,*0F
$GLGSA,A,1,,,,,,,,,,,,,,,*02
$GPGSV,1,1,04,03,00,000,43,16,00,000,43,22,00,000,44,26,00,000,44*7D
$BDGSV,1,1,03,02,00,000,39,10,00,000,37,23,00,000,42*51
$B3CN0,0,0,0,0,0,0,0,0,0,0,0,0,0,0*4C
---00000019--- Acq_st=7 0  2019-4-4 1:56:58 
[00]  02(G03)  f 44  7  0  -3061.0  2046003.9 -0.0  2 0 1912 2561 1016
[01]  15(G16)  f 42  7  0  -4712.3  2046006.0  0.1  2 0 1446 2250 1214
[02]  21(G22)  f 43  7  0  -1807.6  2046002.3  0.1  2 0 1136 2387 1282
[03]  25(G26)  f 43  7  0  -2906.5  2046003.7  0.0  2 0 1815 2541 1058
[16]  38(B02) 1f 40 27  0  -1092.4  4092002.8 -0.6  2 0  835  904  543
[18]  46(B10) 1f 37  7  0  -1553.4  4092003.9 -0.0  2 0  373  531  415
[20]  59(B23) 1f 42  7  0  -2593.8  4092006.7  0.1  2 0 1297 1598  703
[33]  80(N-1)  f 42  7  0  -4667.4  1022002.9 -0.1  2 0   792 1173  464
[34]  81(N00)  f 40  7  0  -2095.6  1022001.3  0.1  2 0   695 1451  576
[35]  82(N01)  f 34  7  0  -4247.4  1022002.7  0.1  2 0   511  891  622
[48]  38(B02)  f 20 10  0  -1745.9 20460025.5  0.2  2 0  707  465  187
[50]  46(B10)  1  7  7  0  -1299.9 20460023.3  0.0  1 0  399  345  510
[52]  59(B23)  1  7  7  0  -2252.1 20460040.8 -0.0  1 0  463  292  374
$GNGGA,015658.426,,,,,0,00,,,M,,,,0000*24
$GNRMC,015658.426,A,,,,,,,040419,,*21
$GPGSA,A,1,,,,,,,,,,,,,,,*1E
$BDGSA,A,1,,,,,,,,,,,,,,,*0F
$GLGSA,A,1,,,,,,,,,,,,,,,*02
$GPGSV,1,1,04,03,00,000,44,16,00,000,42,22,00,000,43,26,00,000,43*7B
$BDGSV,1,1,03,02,00,000,40,10,00,000,37,23,00,000,42*5F
$B3CN0,0,19,0,0,0,0,0,0,0,0,0,0,0,0*74
---00000020--- Acq_st=3 0  2019-4-4 1:56:59 
[00]  02(G03)  f 45  7  0  -3061.1  2046003.9  0.0  2 0 2395 2950 1263
[01]  15(G16)  f 43  7  0  -4710.1  2046006.1 -0.1  2 0 1202 1406  469
[02]  21(G22)  f 43  7  0  -1805.9  2046002.3 -0.0  2 0 1456 2073  864
[03]  25(G26)  f 44  7  0  -2908.4  2046003.7 -0.0  2 0 1570 2286 1096
[16]  38(B02) 1f 39 26  0  -1084.2  4092002.6  0.4  2 0  961  973  142
[18]  46(B10) 1f 37  7  0  -1549.4  4092004.0  0.4  2 0  525  800  464
[20]  59(B23) 1f 42  7  0  -2590.4  4092006.7  0.1  2 0  970 1335  535
[33]  80(N-1)  f 41  7  0  -4668.5  1022003.0 -0.1  2 0   499  921  408
[34]  81(N00)  f 41  7  0  -2097.0  1022001.3  0.1  2 0   555 1018  392
[35]  82(N01)  f 35  7  0  -4248.2  1022002.7  0.1  2 0   172  408  359
[48]  38(B02)  f 22 36  1  -2124.5 20460034.5 -0.0  2 0  339  411  283
[50]  46(B10)  1  7  7  0  -1438.4 20460024.4  0.2  1 0  458  877  983
[52]  59(B23)  1  7  7  0  -2851.8 20460041.5  0.1  1 0  295  570  593
$GNGGA,015659.426,,,,,0,00,,,M,,,,0000*25
$GNRMC,015659.426,A,,,,,,,040419,,*20
$GPGSA,A,1,,,,,,,,,,,,,,,*1E
$BDGSA,A,1,,,,,,,,,,,,,,,*0F
$GLGSA,A,1,,,,,,,,,,,,,,,*02
$GPGSV,1,1,04,03,00,000,45,16,00,000,43,22,00,000,43,26,00,000,44*7C
$BDGSV,1,1,03,02,00,000,39,10,00,000,37,23,00,000,42*51
$B3CN0,0,22,0,0,0,0,0,0,0,0,0,0,0,0*7C
---00000021--- Acq_st=3 0  2019-4-4 1:57:0 
[00]  02(G03)  f 45  7  0  -3059.9  2046003.9 -0.0  2 0 2050 2842 1574
[01]  15(G16)  f 43  7  0  -4710.5  2046006.0 -0.0  2 0 1655 2205  781
[02]  21(G22)  f 43  7  0  -1808.2  2046002.3  0.0  2 0 1098 2177 1319
[03]  25(G26)  f 44  7  0  -2908.1  2046003.7 -0.0  2 0 1810 2703 1121
[16]  38(B02) 1f 39 26  0  -1082.3  4092002.7  0.3  2 0  614  953  403
[18]  46(B10) 1f 37  7  0  -1557.9  4092003.9 -0.1  2 0  338  826  224
[20]  59(B23) 1f 42 12  0  -2591.0  4092006.7  0.1  2 0 1005 1421  553
[33]  80(N-1)  f 40  7  0  -4667.9  1022002.9 -0.1  2 0   487  881  524
[34]  81(N00)  f 40  7  0  -2097.3  1022001.3  0.1  2 0   664 1147  722
[35]  82(N01)  f 34  7  0  -4251.2  1022002.8 -0.0  2 0   737  620  337
[50]  46(B10)  1  7  7  0  -1297.2 20460025.7  0.1  1 0  875  900  651
[52]  59(B23)  1  7  7  0  -3119.2 20460041.7 -0.1  1 0  400  326  759
$GNGGA,015700.426,,,,,0,00,,,M,,,,0000*28
$GNRMC,015700.426,A,,,,,,,040419,,*2D
$GPGSA,A,1,,,,,,,,,,,,,,,*1E
$BDGSA,A,1,,,,,,,,,,,,,,,*0F
$GLGSA,A,1,,,,,,,,,,,,,,,*02
$GPGSV,1,1,04,03,00,000,45,16,00,000,43,22,00,000,43,26,00,000,44*7C
$BDGSV,1,1,03,02,00,000,39,10,00,000,37,23,00,000,42*51
$B3CN0,0,0,0,0,0,0,0,0,0,0,0,0,0,0*4C
---00000022--- Acq_st=3 0  2019-4-4 1:57:1 
[00]  02(G03)  f 45  7  0  -3060.4  2046003.9  0.0  2 0 1567 2833 1243
[01]  15(G16)  f 43  7  0  -4711.7  2046006.1  0.0  2 0 1045 2143 1038
[02]  21(G22)  f 43  7  0  -1809.5  2046002.2  0.0  2 0 1393 2668 1561
[03]  25(G26)  f 44  7  0  -2907.0  2046003.7  0.0  2 0 1718 2100  950
[16]  38(B02) 1f 40 20  0  -1090.1  4092002.8 -0.2  2 0  635  824  601
[18]  46(B10) 1f 36  7  0  -1555.8  4092004.0  0.0  2 0  234  746  930
[20]  59(B23) 1f 42  8  0  -2591.7  4092006.7  0.0  2 0 1360 1677  704
[33]  80(N-1)  f 40  7  0  -4668.9  1022002.9 -0.0  2 0   867 1287  686
[34]  81(N00)  f 40  7  0  -2097.3  1022001.3 -0.1  2 0   495  828  600
[35]  82(N01)  f 34  7  0  -4250.3  1022002.7  0.0  2 0   312  271  322
[48]  38(B02)  1 10 19  1   -690.6 20460016.5  0.0  1 0  459  143  551
[50]  46(B10)  1  7  7  0  -1117.6 20460025.0 -0.2  1 0  214  290  248
$GNGGA,015701.426,,,,,0,00,,,M,,,,0000*29
$GNRMC,015701.426,A,,,,,,,040419,,*2C
$GPGSA,A,1,,,,,,,,,,,,,,,*1E
$BDGSA,A,1,,,,,,,,,,,,,,,*0F
$GLGSA,A,1,,,,,,,,,,,,,,,*02
$GPGSV,1,1,04,03,00,000,45,16,00,000,43,22,00,000,43,26,00,000,44*7C
$BDGSV,1,1,03,02,00,000,40,10,00,000,36,23,00,000,42*5E
$B3CN0,0,0,0,0,0,0,0,0,0,0,0,0,0,0*4C
---00000023--- Acq_st=3 0  2019-4-4 1:57:2 
[00]  02(G03)  f 45  7  0  -3053.9  2046003.9  0.0  2 0 2069 3417 1802
[01]  15(G16)  f 43  7  0  -4704.2  2046006.0 -0.0  2 0 1395 2194  978
[02]  21(G22)  f 44  7  0  -1797.4  2046002.3 -0.0  2 0 1746 2406  994
[03]  25(G26)  f 44  7  0  -2898.7  2046003.7  0.0  2 0 1065 2133 1089
[16]  38(B02) 1f 39 29  0  -1079.9  4092002.8 -0.4  2 0 1128 1173  730
[17]  41(B05)  1 19 19  1  -1192.5  4092002.9  0.2  1 0  435  251  105
[18]  46(B10) 1f 36  7  0  -1547.0  4092003.9  0.1  2 0  763  513   81
[20]  59(B23) 1f 42  8  0  -2584.3  4092006.7 -0.0  2 0  877 1302  617
[33]  80(N-1) 8f 40  7  0  -4661.4  1022002.9 -0.2  2 0   743 1129  561
[34]  81(N00) 8f 40  7  0  -2087.9  1022001.3  0.0  2 0   579  910  349
[35]  82(N01) 8f 34  7  0  -4245.5  1022002.7 -0.0  2 0   211  601  256
[48]  38(B02)  1 10 10  1   -472.9 20460017.5 -0.1  1 0  356  260  445
[52]  59(B23)  1  7  7  0  -2040.2 20460040.4  0.2  1 0  644  294  121
$GNGGA,015702.426,,,,,0,00,,,M,,,,0000*2A
$GNRMC,015702.426,A,,,,,,,040419,,*2F
$GPGSA,A,1,,,,,,,,,,,,,,,*1E
$BDGSA,A,1,,,,,,,,,,,,,,,*0F
$GLGSA,A,1,,,,,,,,,,,,,,,*02
$GPGSV,1,1,04,03,00,000,45,16,00,000,43,22,00,000,44,26,00,000,44*7B
$BDGSV,1,1,03,02,00,000,39,10,00,000,36,23,00,000,42*50
$B3CN0,0,0,0,0,0,0,0,0,0,0,0,0,0,0*4C
---00000024--- Acq_st=3 0  2019-4-4 1:57:3 
[00]  02(G03)  f 45  7  0  -3058.6  2046003.9  0.0  2 0 2312 3612 1753
[01]  15(G16)  f 43  7  0  -4707.7  2046006.1 -0.0  2 0 1425 2329 1216
[02]  21(G22)  f 43  7  0  -1805.0  2046002.3  0.0  2 0 1562 2089  809
[03]  25(G26)  f 44  7  0  -2906.7  2046003.7  0.0  2 0 1805 2933 1602
[16]  38(B02) 1f 39 23  0  -1082.9  4092002.7  0.5  2 0  774  968  442
[17]  41(B05)  1 23 18  1  -1212.3  4092003.3  0.1  1 0  187  277  347
[18]  46(B10) 1f 36  7  0  -1548.8  4092003.9 -0.0  2 0  454  860  567
[19]  54(B18)  1  7  7  0  -1500.0  4092001.5 -0.0  1 0 1133  576  206
[20]  59(B23) 1f 41  7  0  -2588.9  4092006.7  0.0  2 0 1186 1496  412
[33]  80(N-1) 8f 40  7  0  -4666.4  1022002.9 -0.0  2 0   147  688  362
[34]  81(N00) 8f 40  7  0  -2093.7  1022001.3 -0.1  2 0   505 1127  456
[35]  82(N01) 8f 35  7  0  -4249.0  1022002.7 -0.0  2 0   140  526  617
[48]  38(B02)  1 10 10  0   -552.0 20460024.6  0.2  1 0  488  277  297
[50]  46(B10)  1  7  7  0  -1465.0 20460025.6  0.1  1 0  173  561   22
[52]  59(B23)  1  7  7  0  -1265.7 20460041.6 -0.1  1 0  511  323  154
$GNGGA,015703.426,,,,,0,00,,,M,,,,0000*2B
$GNRMC,015703.426,A,,,,,,,040419,,*2E
$GPGSA,A,1,,,,,,,,,,,,,,,*1E
$BDGSA,A,1,,,,,,,,,,,,,,,*0F
$GLGSA,A,1,,,,,,,,,,,,,,,*02
$GPGSV,1,1,04,03,00,000,45,16,00,000,43,22,00,000,43,26,00,000,44*7C
$BDGSV,1,1,03,02,00,000,39,10,00,000,36,23,00,000,41*53
$B3CN0,0,0,0,0,0,0,0,0,0,0,0,0,0,0*4C
---00000025--- Acq_st=3 0  2019-4-4 1:57:4 
[00]  02(G03)  f 44  7  0  -3057.2  2046003.9 -0.0  2 0 2602 3168 1401
[01]  15(G16)  f 43  7  0  -4708.9  2046006.0  0.0  2 0 1623 2265  828
[02]  21(G22)  f 44  7  0  -1804.4  2046002.3 -0.0  2 0 1586 2904 1278
[03]  25(G26)  f 44  7  0  -2905.2  2046003.7 -0.1  2 0 1398 2660 1469
[16]  38(B02) 1f 39 27  0  -1086.2  4092002.8  0.8  2 0 1036 1295  533
[17]  41(B05)  1 22 29  1   -922.0  4092003.9  0.0  1 0  567  456 1082
[18]  46(B10) 1f 36  7  0  -1558.6  4092003.9  0.2  2 0  809  804  366
[19]  54(B18)  1  7  7  0  -1721.4  4092002.3  0.2  1 0  583  831  584
[20]  59(B23) 1f 41 11  0  -2591.6  4092006.7 -0.1  2 0 1126 1378  900
[33]  80(N-1) 8f 40  7  0  -4665.8  1022003.0  0.0  2 0   590  880  324
[34]  81(N00) 8f 41  7  0  -2090.5  1022001.3  0.1  2 0  1086 1380  423
[35]  82(N01) 8f 35  7  0  -4247.9  1022002.7 -0.0  2 0   423  749  192
[48]  38(B02)  1 18 16  0   -494.8 20460023.9  0.1  1 0  809  336  432
[50]  46(B10)  1  7  7  0  -1287.1 20460023.5  0.2  1 0  243  497  627
[52]  59(B23)  1  7  7  0  -1920.7 20460041.6  0.0  1 0  462   94  234
$GNGGA,015704.426,,,,,0,00,,,M,,,,0000*2C
$GNRMC,015704.426,A,,,,,,,040419,,*29
$GPGSA,A,1,,,,,,,,,,,,,,,*1E
$BDGSA,A,1,,,,,,,,,,,,,,,*0F
$GLGSA,A,1,,,,,,,,,,,,,,,*02
$GPGSV,1,1,04,03,00,000,44,16,00,000,43,22,00,000,44,26,00,000,44*7A
$BDGSV,1,1,03,02,00,000,39,10,00,000,36,23,00,000,41*53
$B3CN0,0,0,0,0,0,0,0,0,0,0,0,0,0,0*4C
---00000026--- Acq_st=3 0  2019-4-4 1:57:5 
[00]  02(G03)  f 44  7  0  -3053.9  2046003.9 -0.0  2 0 1591 2901 1595
[01]  15(G16)  f 43  7  0  -4705.2  2046006.0 -0.0  2 0 1796 2239 1103
[02]  21(G22)  f 44  7  0  -1801.3  2046002.3 -0.0  2 0 1790 2449  934
[03]  25(G26)  f 43  7  0  -2898.0  2046003.7  0.0  2 0  916 2133 1421
[16]  38(B02) 1f 38 24  0  -1086.0  4092002.7 -0.7  2 0 1105 1124  776
[17]  41(B05)  1 10 10  1   -593.0  4092003.7  0.1  1 0  153  802  694
[18]  46(B10) 1f 37 10  0  -1554.2  4092003.9  0.1  2 0  648 1189  697
[19]  54(B18)  1  7  7  0  -1724.7  4092003.3  0.5  1 0  608 1474  832
[20]  59(B23) 1f 41 11  0  -2587.0  4092006.7  0.0  2 0  769 1288  454
[33]  80(N-1) 8f 40  7  0  -4663.8  1022002.9 -0.3  2 0   683  984  470
[34]  81(N00) 8f 41  7  0  -2090.0  1022001.3  0.1  2 0   804 1269  568
[35]  82(N01) 8f 35  7  0  -4244.2  1022002.7 -0.1  2 0   515  762  358
[48]  38(B02)  f 10 16  0   -435.6 20460005.8 -0.1  2 0  225  206  192
[50]  46(B10)  1  7  7  0   -611.2 20460024.0  0.1  1 0  626  821  402
[52]  59(B23)  1  7  7  0  -1443.9 20460040.3 -0.1  1 0  478  379  328
$GNGGA,015705.426,,,,,0,00,,,M,,,,0000*2D
$GNRMC,015705.426,A,,,,,,,040419,,*28
$GPGSA,A,1,,,,,,,,,,,,,,,*1E
$BDGSA,A,1,,,,,,,,,,,,,,,*0F
$GLGSA,A,1,,,,,,,,,,,,,,,*02
$GPGSV,1,1,04,03,00,000,44,16,00,000,43,22,00,000,44,26,00,000,43*7D
$BDGSV,1,1,03,02,00,000,38,10,00,000,37,23,00,000,41*53
$B3CN0,0,0,0,0,0,0,0,0,0,0,0,0,0,0*4C
---00000027--- Acq_st=3 0  2019-4-4 1:57:6 
[00]  02(G03)  f 44  7  0  -3057.9  2046003.9  0.0  2 0 1439 2474 1304
[01]  15(G16)  f 43  7  0  -4706.6  2046006.1  0.0  2 0 1072 1969  989
[02]  21(G22)  f 44  7  0  -1801.4  2046002.3  0.1  2 0 1242 2764 1612
[03]  25(G26)  f 43  7  0  -2904.0  2046003.7  0.0  2 0 1306 2263 1114
[16]  38(B02) 1f 39 23  0  -1086.0  4092002.7  0.4  2 0  909 1518  600
[18]  46(B10) 1f 37  7  0  -1548.0  4092004.0 -0.2  2 0  852  708  661
[19]  54(B18)  1  7  9  0  -1726.4  4092002.9  0.5  1 0  644 1116  575
[20]  59(B23) 1f 41  7  0  -2585.1  4092006.7 -0.0  2 0 1296 1331  387
[21]  68(B32)  1  7  7  0  -3854.9  4092009.7  0.2  1 0  986 1821 1309
[33]  80(N-1) 8f 41  7  0  -4664.1  1022002.9  0.2  2 0   784 1422  700
[34]  81(N00) 8f 41  7  0  -2089.8  1022001.3 -0.0  2 0   911 1491  734
[35]  82(N01) 8f 35  7  0  -4245.3  1022002.7  0.1  2 0   140  161  170
[48]  38(B02)  f 13 16  1   -438.7 20460006.9 -0.0  2 0  372  193  348
[50]  46(B10)  1  7  7  0   -507.2 20460022.7 -0.1  1 0  376  504  140
$GNGGA,015706.426,,,,,0,00,,,M,,,,0000*2E
$GNRMC,015706.426,A,,,,,,,040419,,*2B
$GPGSA,A,1,,,,,,,,,,,,,,,*1E
$BDGSA,A,1,,,,,,,,,,,,,,,*0F
$GLGSA,A,1,,,,,,,,,,,,,,,*02
$GPGSV,1,1,04,03,00,000,44,16,00,000,43,22,00,000,44,26,00,000,43*7D
$BDGSV,1,1,03,02,00,000,39,10,00,000,37,23,00,000,41*52
$B3CN0,0,0,0,0,0,0,0,0,0,0,0,0,0,0*4C
---00000028--- Acq_st=7 0  2019-4-4 1:57:7 
[00]  02(G03)  f 44  7  0  -3057.9  2046003.9 -0.1  2 0 2211 2716 1295
[01]  15(G16)  f 42  7  0  -4708.9  2046006.1  0.0  2 0 1005 1853  867
[02]  21(G22)  f 44  7  0  -1801.8  2046002.3 -0.0  2 0 1372 2505  919
[03]  25(G26)  f 43  7  0  -2903.9  2046003.7 -0.0  2 0 1591 2406  879
[16]  38(B02) 1f 40 29  0  -1088.5  4092002.8  0.8  2 0  768 1011  436
[18]  46(B10) 1f 37  7  0  -1551.6  4092004.0  0.5  2 0  490  767  361
[19]  54(B18)  1  7  7  0  -1726.8  4092002.6  0.6  1 0  731  943  599
[20]  59(B23) 1f 41  7  0  -2593.4  4092006.7  0.1  2 0 1077 1236  554
[21]  68(B32)  7 25  7  0  -3853.0  4092010.1  0.2 10 0 1435 1849 1056
[33]  80(N-1) 8f 42  7  0  -4666.0  1022002.9 -0.0  2 0  1181 1555  455
[34]  81(N00) 8f 42  7  0  -2090.3  1022001.3 -0.1  2 0   749 1052  265
[35]  82(N01) 8f 34  7  0  -4248.3  1022002.7 -0.2  2 0    62  334   58
[48]  38(B02)  f 10 10  0   -636.3 20460010.4  0.0  2 0  906  474  400
[52]  59(B23)  1  7  7  0  -2196.3 20460042.8 -0.0  1 0  209  137  177
$GNGGA,015707.426,,,,,0,00,,,M,,,,0000*2F
$GNRMC,015707.426,A,,,,,,,040419,,*2A
$GPGSA,A,1,,,,,,,,,,,,,,,*1E
$BDGSA,A,1,,,,,,,,,,,,,,,*0F
$GLGSA,A,1,,,,,,,,,,,,,,,*02
$GPGSV,1,1,04,03,00,000,44,16,00,000,42,22,00,000,44,26,00,000,43*7C
$BDGSV,1,1,04,02,00,000,40,10,00,000,37,23,00,000,41,32,00,000,25*6D
$B3CN0,0,0,0,0,0,0,0,0,0,0,0,0,0,0*4C
---00000029--- Acq_st=3 0  2019-4-4 1:57:8 
[00]  02(G03)  f 44  7  0  -3061.7  2046003.9  0.1  2 0 1349 2154  966
[01]  15(G16)  f 42  7  0  -4708.8  2046006.1 -0.0  2 0 1038 1946 1147
[02]  21(G22)  f 45  7  0  -1805.4  2046002.3  0.1  2 0 1753 2837 1002
[03]  25(G26)  f 43  8  0  -2907.7  2046003.7  0.1  2 0 1384 2022 1020
[16]  38(B02) 1f 40 23  0  -1086.2  4092002.7  0.1  2 0  651  934  491
[18]  46(B10) 1f 37  7  0  -1548.8  4092004.0 -0.0  2 0  184  506  552
[20]  59(B23) 1f 41 12  0  -2589.9  4092006.7  0.0  2 0 1474 1357  398
[21]  68(B32)  7 43  7  0  -3854.9  4092010.1 -0.0  2 0 1350 2219 1317
[33]  80(N-1) 8f 43  7  0  -4666.2  1022002.9  0.1  2 0   819 1310  561
[34]  81(N00) 8f 42  7  0  -2093.0  1022001.3 -0.1  2 0   595 1000  213
[35]  82(N01) 8f 33  7  0  -4250.3  1022002.7 -0.1  2 0   298  255  145
[48]  38(B02)  f 10 13  1   -691.3 20460010.8  0.0  2 0  243  364  256
[50]  46(B10)  1 10  7  0   -986.7 20460026.6 -0.0  1 0  547  794  979
[52]  59(B23)  1  7  7  0  -1996.2 20460041.0 -0.1  1 0  284  323  148
$GNGGA,015708.426,,,,,0,00,,,M,,,,0000*20
$GNRMC,015708.426,A,,,,,,,040419,,*25
$GPGSA,A,1,,,,,,,,,,,,,,,*1E
$BDGSA,A,1,,,,,,,,,,,,,,,*0F
$GLGSA,A,1,,,,,,,,,,,,,,,*02
$GPGSV,1,1,04,03,00,000,44,16,00,000,42,22,00,000,45,26,00,000,43*7D
$BDGSV,1,1,04,02,00,000,40,10,00,000,37,23,00,000,41,32,00,000,43*6D
$B3CN0,0,0,0,0,0,0,0,0,0,0,0,0,0,0*4C
$GLGSV,1,1,02,05,00,000,43,15,00,000,42*67
---00000030--- Acq_st=3 0  2019-4-4 1:57:9 
[00]  02(G03)  f 45 10  0  -3056.7  2046003.9 -0.1  2 0 1480 2871 1338
[01]  15(G16)  f 42  7  0  -4706.4  2046006.0 -0.1  2 0  750 1190  694
[02]  21(G22)  f 44  7  0  -1801.8  2046002.3 -0.0  2 0 1109 2435 1474
[03]  25(G26)  f 43  7  0  -2903.3  2046003.7  0.0  2 0 1658 2297 1103
[16]  38(B02) 1f 39 27  0  -1085.5  4092002.7 -0.6  2 0  754  481  123
[18]  46(B10) 1f 37  7  0  -1552.3  4092004.0 -0.3  2 0  880 1045  675
[20]  59(B23) 1f 41  7  0  -2583.8  4092006.6 -0.0  2 0 1299 1252  551
[21]  68(B32) 1f 43  7  0  -3852.1  4092010.0  0.0  2 0 1413 1847 1172
[33]  80(N-1) 8f 43  7  0  -4663.0  1022002.9  0.0  2 0   785 1438  970
[34]  81(N00) 8f 42  7  0  -2087.7  1022001.4  0.1  2 0   809 1305  473
[35]  82(N01) 8f 32  7  0  -4245.4  1022002.7  0.2  5 0   368  865  626
[50]  46(B10)  1  7  7  0   -761.1 20460025.5  0.2  1 0  396  482  572
[52]  59(B23)  1  7  7  0  -1220.8 20460042.1  0.1  1 0  392  125  281
$GNGGA,015709.426,,,,,0,00,,,M,,,,0000*21
$GNRMC,015709.426,A,,,,,,,040419,,*24
$GPGSA,A,1,,,,,,,,,,,,,,,*1E
$BDGSA,A,1,,,,,,,,,,,,,,,*0F
$GLGSA,A,1,,,,,,,,,,,,,,,*02
$GPGSV,1,1,04,03,00,000,45,16,00,000,42,22,00,000,44,26,00,000,43*7D
$BDGSV,1,1,04,02,00,000,39,10,00,000,37,23,00,000,41,32,00,000,43*63
$B3CN0,0,0,0,0,0,0,0,0,0,0,0,0,0,0*4C
$GLGSV,1,1,02,05,00,000,43,15,00,000,42*67
---00000031--- Acq_st=3 0  2019-4-4 1:57:10 
[00]  02(G03)  f 45  7  0  -3056.3  2046003.9 -0.0  2 0 1855 2456 1117
[01]  15(G16)  f 42  7  0  -4705.7  2046006.1 -0.0  2 0  935 1780  807
[02]  21(G22)  f 44  7  0  -1801.3  2046002.3  0.0  2 0 1570 2613 1366
[03]  25(G26)  f 43  7  0  -2903.7  2046003.7  0.0  2 0 1456 2473 1124
[16]  38(B02) 1f 39 27  0  -1090.6  4092002.7 -0.8  2 0  726 1262  501
[18]  46(B10) 1f 37  7  0  -1545.8  4092004.0  0.4  2 0  479  551  416
[20]  59(B23) 1f 41 11  0  -2589.7  4092006.6  0.0  2 0 1302 1367  829
[21]  68(B32) 1f 42  8  0  -3851.5  4092010.0  0.0  2 0 1215 1503  465
[33]  80(N-1) 8f 43  7  0  -4663.7  1022002.9 -0.0  2 0  1003 1520  807
[34]  81(N00) 8f 41  7  0  -2090.6  1022001.3 -0.0  2 0   886 1171  325
[35]  82(N01) 8f 32  7  0  -4246.3  1022002.8  0.1  5 0   452  710  537
[48]  38(B02)  1 16 10  1   -810.6 20460018.2 -0.1  1 0  592  167  143
[50]  46(B10)  1  7  7  0   -310.3 20460024.8  0.0  1 0  109  275  304
[52]  59(B23)  1 10  7  0  -1226.8 20460041.3  0.0  1 0  605  712  384
[53]  68(B32)  1  7  7  0  -3110.4 20460062.7  0.1  1 0  525  179  155
$GNGGA,015710.426,,,,,0,00,,,M,,,,0000*29
$GNRMC,015710.426,A,,,,,,,040419,,*2C
$GPGSA,A,1,,,,,,,,,,,,,,,*1E
$BDGSA,A,1,,,,,,,,,,,,,,,*0F
$GLGSA,A,1,,,,,,,,,,,,,,,*02
$GPGSV,1,1,04,03,00,000,45,16,00,000,42,22,00,000,44,26,00,000,43*7D
$BDGSV,1,1,04,02,00,000,40,10,00,000,37,23,00,000,41,32,00,000,42*6C
$B3CN0,0,0,0,0,0,0,0,0,0,0,0,0,0,0*4C
$GLGSV,1,1,02,05,00,000,43,15,00,000,41*64
---00000032--- Acq_st=3 0  2019-4-4 1:57:11 
[00]  02(G03)  f 44  7  0  -3056.2  2046003.9  0.0  2 0 1534 2308 1124
[01]  15(G16)  f 43  7  0  -4708.2  2046006.0 -0.1  2 0 1110 1606  888
[02]  21(G22)  f 44  7  0  -1798.0  2046002.3 -0.0  2 0 1310 2518 1331
[03]  25(G26)  f 43  7  0  -2900.1  2046003.7  0.0  2 0 1610 2334  955
[16]  38(B02) 1f 40 24  0  -1083.1  4092002.7 -0.4  2 0  699 1004  626
[17]  41(B05)  1 36 28  0  -1017.3  4092001.2  0.0  1 0  327  140   32
[18]  46(B10) 1f 37  7  0  -1551.3  4092003.9  0.1  2 0  505  670  592
[20]  59(B23) 1f 41  7  0  -2588.0  4092006.6  0.0  2 0 1333 1565  589
[21]  68(B32) 1f 41  7  0  -3851.5  4092010.0 -0.1  2 0  850 1160  546
[33]  80(N-1) 8f 43  7  0  -4661.9  1022002.9  0.0  2 0   846 1400  988
[34]  81(N00) 8f 42  7  0  -2086.8  1022001.3 -0.1  2 0   882 1577  965
[35]  82(N01) 8f 31  7  0  -4245.9  1022002.7 -0.0  5 0   105  363  407
[48]  38(B02)  1 24 20  0   -948.9 20460021.4 -0.2  1 0  554  633  477
[50]  46(B10)  1  7  7  0   -165.4 20460025.5 -0.2  1 0  214  218  234
[53]  68(B32)  1  7  7  0  -3212.6 20460063.0 -0.0  1 0  723  163  408
$GNGGA,015711.426,,,,,0,00,,,M,,,,0000*28
$GNRMC,015711.426,A,,,,,,,040419,,*2D
$GPGSA,A,1,,,,,,,,,,,,,,,*1E
$BDGSA,A,1,,,,,,,,,,,,,,,*0F
$GLGSA,A,1,,,,,,,,,,,,,,,*02
$GPGSV,1,1,04,03,00,000,44,16,00,000,43,22,00,000,44,26,00,000,43*7D
$BDGSV,1,1,04,02,00,000,40,10,00,000,37,23,00,000,41,32,00,000,41*6F
$B3CN0,0,0,0,0,0,0,0,0,0,0,0,0,0,0*4C
$GLGSV,1,1,02,05,00,000,43,15,00,000,42*67
---00000033--- Acq_st=3 0  2019-4-4 1:57:12 
[00]  02(G03)  f 44  7  0  -3051.8  2046003.9  0.0  2 0 1378 2336 1577
[01]  15(G16)  f 42  7  0  -4704.5  2046006.1 -0.0  2 0  918 1617  715
[02]  21(G22)  f 44  7  0  -1797.5  2046002.3 -0.0  2 0 1707 2450  772
[03]  25(G26)  f 43  7  0  -2896.8  2046003.7 -0.1  2 0 1161 2194  847
[16]  38(B02) 1f 39 29  0  -1086.8  4092002.7  0.0  2 0  579 1326  566
[17]  41(B05)  7 10 10  0   -528.2  4092001.4  0.1  2 0  348  187  352
[18]  46(B10) 1f 37 12  0  -1552.7  4092003.9 -0.2  2 0  951 1017  359
[20]  59(B23) 1f 42 12  0  -2589.1  4092006.6  0.0  2 0 1541 1558  751
[21]  68(B32) 1f 41  7  0  -3847.2  4092010.0 -0.0  2 0  923 1589  589
[33]  80(N-1) 8f 42  7  0  -4660.0  1022002.9  0.0  2 0   564  995  617
[34]  81(N00) 8f 43  7  0  -2084.8  1022001.3 -0.0  2 0   478 1452  662
[35]  82(N01) 8f 30  7  0  -4241.7  1022002.7  0.0  5 0   355  388  230
[48]  38(B02)  1 19 10  1  -1460.0 20460023.7  0.1  1 0  275  246  376
[52]  59(B23)  1  7  7  0  -2427.6 20460041.7 -0.0  1 0  355  358  147
[53]  68(B32)  1  8  7  0  -3472.2 20460061.7 -0.1  1 0  651  862  840
$GNGGA,015712.426,,,,,0,00,,,M,,,,0000*2B
$GNRMC,015712.426,A,,,,,,,040419,,*2E
$GPGSA,A,1,,,,,,,,,,,,,,,*1E
$BDGSA,A,1,,,,,,,,,,,,,,,*0F
$GLGSA,A,1,,,,,,,,,,,,,,,*02
$GPGSV,1,1,04,03,00,000,44,16,00,000,42,22,00,000,44,26,00,000,43*7C
$BDGSV,1,1,04,02,00,000,39,10,00,000,37,23,00,000,42,32,00,000,41*62
$B3CN0,0,0,0,0,0,0,0,0,0,0,0,0,0,0*4C
$GLGSV,1,1,02,05,00,000,42,15,00,000,43*67
---00000034--- Acq_st=3 0  2019-4-4 1:57:13 
[00]  02(G03)  f 43  7  0  -3047.4  2046003.9 -0.0  2 0  965 2285 1019
[01]  15(G16)  f 42  7  0  -4700.2  2046006.0  0.0  2 0 1271 1613  633
[02]  21(G22)  f 44  7  0  -1797.2  2046002.3  0.0  2 0 1440 2663 1070
[03]  25(G26)  f 44  7  0  -2895.9  2046003.7  0.1  2 0 1607 2264  979
[16]  38(B02) 1f 39 27  0  -1085.4  4092002.7  0.2  2 0 1276 1244  462
[17]  41(B05)  7 10 10  1   -752.4  4092002.1  0.0  2 0  198   97  221
[18]  46(B10) 1f 37  7  0  -1545.4  4092004.0  0.4  2 0   78  552  578
[20]  59(B23) 1f 42 10  0  -2586.9  4092006.6 -0.0  2 0 1426 1318  336
[21]  68(B32) 1f 40  7  0  -3850.0  4092010.0 -0.1  2 0  856 1826  924
[33]  80(N-1) 8f 42  7  0  -4658.7  1022003.0  0.0  2 0   711 1300  718
[34]  81(N00) 8f 42  7  0  -2083.2  1022001.3  0.1  2 0   587 1086  224
[35]  82(N01) 8f 30  7  0  -4243.1  1022002.4 -0.0  5 0   251  222  164
[48]  38(B02)  1 10 13  1   -628.6 20460023.8  0.0  1 0  502  575  584
[50]  46(B10)  1  7  7  0  -1308.7 20460025.5 -0.1  1 0  665  511  340
[52]  59(B23)  1  7  7  0  -2619.3 20460042.2  0.0  1 0  243  486  265
[53]  68(B32)  1  7  7  0  -3570.7 20460061.6  0.1  1 0  446  205  265
$GNGGA,015713.426,,,,,0,00,,,M,,,,0000*2A
$GNRMC,015713.426,A,,,,,,,040419,,*2F
$GPGSA,A,1,,,,,,,,,,,,,,,*1E
$BDGSA,A,1,,,,,,,,,,,,,,,*0F
$GLGSA,A,1,,,,,,,,,,,,,,,*02
$GPGSV,1,1,04,03,00,000,43,16,00,000,42,22,00,000,44,26,00,000,44*7C
$BDGSV,1,1,04,02,00,000,39,10,00,000,37,23,00,000,42,32,00,000,40*63
$B3CN0,0,0,0,0,0,0,0,0,0,0,0,0,0,0*4C
$GLGSV,1,1,02,05,00,000,42,15,00,000,42*66
---00000035--- Acq_st=2 0  2019-4-4 1:57:14 
[00]  02(G03)  f 43  7  0  -3052.6  2046004.0  0.0  2 0 1527 2059  741
[01]  15(G16)  f 42  7  0  -4704.9  2046006.0 -0.0  2 0 1006 2078 1247
[02]  21(G22)  f 44  7  0  -1798.3  2046002.3  0.1  2 0 1712 2752 1459
[03]  25(G26)  f 43  8  0  -2898.3  2046003.7 -0.0  2 0 1493 1924 1142
[16]  38(B02) 1f 39 26  0  -1084.6  4092002.6  0.3  2 0 1288 1007   77
[17]  41(B05)  7 18 10  0  -1305.7  4092003.3  0.0  2 0  106  265  341
[18]  46(B10) 1f 37  7  0  -1558.1  4092004.0  0.0  2 0  933 1225  550
[20]  59(B23) 1f 42 12  0  -2586.0  4092006.6  0.0  2 0 1222 1387  414
[21]  68(B32) 1f 40  7  0  -3854.4  4092010.1 -0.1  2 0  649  770  228
[33]  80(N-1) 8f 42  7  0  -4661.3  1022002.9 -0.1  2 0   695 1382  964
[34]  81(N00) 8f 42  7  0  -2085.7  1022001.3 -0.1  2 0   578 1165  698
[35]  82(N01) 8f 31  7  0  -4243.3  1022002.6 -0.1  5 0    36  312  169
[50]  46(B10)  1  7  7  0   -878.4 20460024.2 -0.0  1 0  179   67   74
[52]  59(B23)  1  7  7  0  -2125.2 20460041.5 -0.2  1 0  500  160  159
valid:iono 1---fix 0
valid:iono 1---fix 0
$GNGGA,015714.426,,,,,0,00,,,M,,,,0000*2D
$GNRMC,015714.426,A,,,,,,,040419,,*28
$GPGSA,A,1,,,,,,,,,,,,,,,*1E
$BDGSA,A,1,,,,,,,,,,,,,,,*0F
$GLGSA,A,1,,,,,,,,,,,,,,,*02
$GPGSV,1,1,04,03,00,000,43,16,00,000,42,22,00,000,44,26,00,000,43*7B
$BDGSV,2,1,05,02,00,000,39,05,00,000,18,10,00,000,37,23,00,000,42*68
$BDGSV,2,2,05,32,00,000,40*58
$B3CN0,0,0,0,0,0,0,0,0,0,0,0,0,0,0*4C
$GLGSV,1,1,02,05,00,000,42,15,00,000,42*66
---00000036--- Acq_st=7 0  2019-4-4 1:57:15 
[00]  02(G03)  f 43  7  0  -3048.9  2046003.9 -0.0  2 0  881 1676  701
[01]  15(G16)  f 42  7  0  -4700.9  2046006.0  0.0  2 0 1799 2421 1298
[02]  21(G22)  f 44  7  0  -1797.9  2046002.3 -0.0  2 0 1610 2573 1258
[03]  25(G26)  f 44  7  0  -2896.3  2046003.7  0.0  2 0 1430 2152  721
[16]  38(B02) 1f 39 24  0  -1082.2  4092002.6  0.5  2 0 1010  950  302
[17]  41(B05)  7 18 10  0  -1584.3  4092004.1  0.0  2 0  147  180  278
[18]  46(B10) 1f 37  7  0  -1541.8  4092003.9 -0.2  2 0  862  629  320
[20]  59(B23) 1f 42  9  0  -2583.8  4092006.6 -0.0  2 0 1141 1523  779
[21]  68(B32) 1f 39  7  0  -3845.0  4092010.0  0.1  2 0  708 1299  729
[32]  76(N-5)  1 27  7  0   2410.8  1021999.1  0.4  1 0    46   69  260
[33]  80(N-1) 8f 42  7  0  -4658.2  1022002.9 -0.1  2 0   565 1017  789
[34]  81(N00) 8f 42  7  0  -2081.8  1022001.3 -0.1  2 0   889 1424  619
[35]  82(N01) 8f 31  7  0  -4240.5  1022002.6 -0.0  5 0   494  814  200
[48]  38(B02)  1 36 10  0   -602.5 20460015.8  0.0  1 0  498  119  494
[50]  46(B10)  1  7  7  0   -686.9 20460025.0 -0.1  1 0  386  503  513
[52]  59(B23)  1  7  7  0  -2532.7 20460041.4 -0.1  1 0  521  610  621
[53]  68(B32)  1  7  7  0  -2855.8 20460062.3 -0.0  1 0  325  284  229
valid:iono 1---fix 0
valid:iono 1---fix 0
$GNGGA,015715.426,,,,,0,00,,,M,,,,0000*2C
$GNRMC,015715.426,A,,,,,,,040419,,*29
$GPGSA,A,1,,,,,,,,,,,,,,,*1E
$BDGSA,A,1,,,,,,,,,,,,,,,*0F
$GLGSA,A,1,,,,,,,,,,,,,,,*02
$GPGSV,1,1,04,03,00,000,43,16,00,000,42,22,00,000,44,26,00,000,44*7C
$BDGSV,2,1,05,02,00,000,39,05,00,000,18,10,00,000,37,23,00,000,42*68
$BDGSV,2,2,05,32,00,000,39*56
$B3CN0,0,0,0,0,0,0,0,0,0,0,0,0,0,0*4C
$GLGSV,1,1,02,05,00,000,42,15,00,000,42*66
---00000037--- Acq_st=7 0  2019-4-4 1:57:16 
[00]  02(G03)  f 43  7  0  -3047.5  2046003.9  0.0  2 0 1329 1870  485
[01]  15(G16)  f 42 10  0  -4699.8  2046006.0  0.0  2 0 1318 2050  765
[02]  21(G22)  f 44  7  0  -1796.7  2046002.2  0.0  2 0 1876 2572 1030
[03]  25(G26)  f 44  7  0  -2892.3  2046003.7  0.0  2 0 1450 2276 1280
[16]  38(B02) 1f 39 25  0  -1085.2  4092002.6 -0.7  2 0  680 1010  543
[18]  46(B10) 1f 37  7  0  -1548.2  4092003.9 -0.2  2 0  856 1065  468
[20]  59(B23) 1f 42  7  0  -2585.0  4092006.7  0.1  2 0 1549 1564  464
[21]  68(B32) 1f 40  7  0  -3846.4  4092010.0  0.0  2 0 1154 1576  593
[32]  76(N-5)  7 28  7  0   2402.6  1021998.3 -0.0 10 0   542  248  283
[33]  80(N-1) 8f 41  7  0  -4658.2  1022003.0  0.1  2 0   366  999  333
[34]  81(N00) 8f 42  7  0  -2080.2  1022001.3  0.1  2 0   619 1054  532
[35]  82(N01) 8f 31  7  0  -4264.4  1022002.9 -0.1  5 0   753  876  267
[48]  38(B02)  1 22 21  0    242.9 20460022.1 -0.1  1 0  254  117  120
[50]  46(B10)  1  7  7  0   -105.0 20460025.7 -0.1  1 0  377  731  590
[53]  68(B32)  1  7  7  0  -2497.8 20460062.5  0.0  1 0  264  245  281
valid:iono 1---fix 0
valid:iono 1---fix 0
$GNGGA,015716.426,,,,,0,00,,,M,,,,0000*2F
$GNRMC,015716.426,A,,,,,,,040419,,*2A
$GPGSA,A,1,,,,,,,,,,,,,,,*1E
$BDGSA,A,1,,,,,,,,,,,,,,,*0F
$GLGSA,A,1,,,,,,,,,,,,,,,*02
$GPGSV,1,1,04,03,00,000,43,16,00,000,42,22,00,000,44,26,00,000,44*7C
$BDGSV,1,1,04,02,00,000,39,10,00,000,37,23,00,000,42,32,00,000,40*63
$B3CN0,0,0,0,0,0,0,0,0,0,0,0,0,0,0*4C
$GLGSV,1,1,02,05,00,000,41,15,00,000,42*65
---00000038--- Acq_st=3 0  2019-4-4 1:57:17 
[00]  02(G03)  f 44  7  0  -3047.2  2046003.9  0.0  2 0 1397 1817  835
[01]  15(G16)  f 43  7  0  -4706.8  2046006.1 -0.1  2 0 1014 1988 1257
[02]  21(G22)  f 44  7  0  -1799.5  2046002.2  0.0  2 0 2087 3011 1194
[03]  25(G26)  f 43  7  0  -2896.4  2046003.7 -0.0  2 0 1538 2362 1127
[16]  38(B02) 1f 40 25  0  -1088.4  4092002.5 -0.4  2 0 1239 1171  165
[18]  46(B10) 1f 37  7  0  -1548.9  4092003.9  0.4  2 0  282  826  767
[20]  59(B23) 1f 42  9  0  -2586.8  4092006.6 -0.0  2 0 1415 1688  606
[21]  68(B32) 1f 40  7  0  -3850.6  4092009.9 -0.1  2 0 1430 1716  566
[32]  76(N-5)  7 32  8  0   2397.3  1021998.3  0.1  5 0   396  499  300
[33]  80(N-1) 8f 39  7  0  -4663.2  1022002.9  0.4  2 0   340  727  680
[34]  81(N00) 8f 42  7  0  -2084.6  1022001.3  0.2  2 0   879 1119  649
[35]  82(N01) 8f  7  7  0  -4428.8  1022002.7  0.0 10 0   216   93  132
[48]  38(B02)  1 10 10  0    262.2 20460025.1 -0.1  1 0  237  252  458
[52]  59(B23)  1  7  7  0  -2430.2 20460040.7  0.3  1 0  368  227  484
[53]  68(B32)  1  7  7  0  -2469.7 20460062.0  0.1  1 0  373  275  536
valid:iono 1---fix 0
valid:iono 1---fix 0
$GNGGA,015717.426,,,,,0,00,,,M,,,,0000*2E
$GNRMC,015717.426,A,,,,,,,040419,,*2B
$GPGSA,A,1,,,,,,,,,,,,,,,*1E
$BDGSA,A,1,,,,,,,,,,,,,,,*0F
$GLGSA,A,1,,,,,,,,,,,,,,,*02
$GPGSV,1,1,04,03,00,000,44,16,00,000,43,22,00,000,44,26,00,000,43*7D
$BDGSV,1,1,04,02,00,000,40,10,00,000,37,23,00,000,42,32,00,000,40*6D
$B3CN0,0,0,0,0,0,0,0,0,0,0,0,0,0,0*4C
$GLGSV,1,1,02,05,00,000,39,15,00,000,42*6A
---00000039--- Acq_st=3 0  2019-4-4 1:57:18 
[00]  02(G03)  f 43  7  0  -3043.5  2046003.9 -0.0  2 0 1395 2113 1030
[01]  15(G16)  f 43  7  0  -4698.9  2046006.0  0.0  2 0  975 1615  735
[02]  21(G22)  f 44  7  0  -1793.1  2046002.2  0.1  2 0 1416 2368 1175
[03]  25(G26)  f 44  7  0  -2893.4  2046003.7  0.0  2 0 1831 2347  911
[16]  38(B02) 1f 39 24  0  -1082.4  4092002.8  0.2  2 0  465  703  301
[18]  46(B10) 1f 37  7  0  -1542.1  4092003.9 -0.1  2 0  533  828  360
[20]  59(B23) 1f 42  7  0  -2585.3  4092006.6  0.1  2 0 1421 1702  686
[21]  68(B32) 1f 41  7  0  -3848.8  4092009.9  0.0  2 0 1315 1695  564
[32]  76(N-5)  7 31  7  0   2402.6  1021998.5 -0.1  5 0   366  615  386
[33]  80(N-1) 8f 39  7  0  -4657.2  1022002.9  0.4  2 0   594  923  515
[34]  81(N00) 8f 42  7  0  -2079.8  1022001.3 -0.0  2 0   570 1031  782
[35]  82(N01) 8f  7  7  0  -4579.1  1022002.8  0.0 10 0   477  502  268
[48]  38(B02)  f 36 10  0    376.9 20459993.4  0.1  2 0  292  146  117
[50]  46(B10)  1  7  7  0  -1705.5 20460024.8  0.1  1 0  304  377  541
[52]  59(B23)  1  7  7  0  -3066.2 20460040.4  0.0  1 0  439  251  252
[53]  68(B32)  1  7  7  0  -2308.1 20460063.3 -0.1  1 0  561  163  173
valid:iono 1---fix 0
valid:iono 1---fix 0
$GNGGA,015718.295,2944.9236,N,10633.1156,E,1,08,2.4,255.0,M,,,,0000*18
$GNRMC,015718.295,A,2944.9236,N,10633.1156,E,1.86,0.00,040419,,*1F
$GPGSA,A,3,03,16,22,26,,,,,,,,,3.8,2.4,2.9*34
$BDGSA,A,3,10,23,,,,,,,,,,,3.8,2.4,2.9*25
$GLGSA,A,3,06,16,,,,,,,,,,,3.8,2.4,2.9*29
$GPGSV,1,1,04,03,00,000,43,16,00,000,43,22,00,000,44,26,00,000,44*7D
$BDGSV,1,1,04,02,00,000,39,10,00,000,37,23,00,000,42,32,00,000,41*62
$B3CN0,0,36,0,0,0,0,0,0,0,0,0,0,0,0*79
$GLGSV,1,1,02,05,00,000,39,15,00,000,42*6A
---00000040--- Acq_st=3 0  2019-4-4 1:57:18 
[00]  02(G03)  f 43  9  0  -3049.0  2046003.9  0.0  2 0 1238 2325 1203
[01]  15(G16)  f 42  7  0  -4703.5  2046006.0 -0.0  2 0 1111 1669  824
[02]  21(G22)  f 45  7  0  -1794.5  2046002.3 -0.0  2 0 1255 2614 1033
[03]  25(G26)  f 44  7  0  -2894.9  2046003.7  0.0  2 0 1772 2529  959
[16]  38(B02) 1f 39 26  0  -1085.5  4092002.6  0.7  2 0  387  679  228
[18]  46(B10) 1f 37  7  0  -1554.0  4092004.0  0.0  2 0  987  962  393
[20]  59(B23) 1f 42  7  0  -2587.7  4092006.7 -0.1  2 0 1557 1786 1085
[21]  68(B32) 1f 42  9  0  -3850.4  4092009.9 -0.0  2 0 1059 1410  737
[32]  76(N-5)  7 33  7  0   2399.5  1021998.5  0.1  5 0   607  456  152
[33]  80(N-1) 8f 40  7  0  -4659.3  1022003.0 -0.2  2 0   323 1186  585
[34]  81(N00) 8f 42  7  0  -2083.3  1022001.3  0.1  2 0   628 1098  781
[35]  82(N01) 8f  7  7  0  -4754.5  1022003.0  0.1 10 0   284  442  245
[48]  38(B02)  f 14 19  0    268.5 20459994.1 -0.2  2 0  990  629  297
[50]  46(B10)  1  9  7  0  -1719.7 20460023.7  0.0  1 0  678  580  578
[52]  59(B23)  1  7  7  0  -2982.7 20460041.2  0.1  1 0  280  295  521
$#bdsionmodel sec:352657.877131,a1:0.439613,psi:0.028987,phi:0.500395,lam:1.837431,A2:132.746316,A4:172800.000000,f:1.113353,dt:18076.000000,ioncorr:36.745621
BDS IONO corr PRN[10] 62.26 222.34 36.75 352657.88
usrllh latitude:0.519213 longitude:1.859682
 source:0 ion_pt_an*1000 a0:0.000009 a1:0.000171 a2:-0.001729 a3:0.003755 b0:149504.000000 b1:-425984.000000 b2:-589824.000000 b3:3997696.000000 
$#bdsionmodel sec:352657.921244,a1:0.733160,psi:0.065765,phi:0.510880,lam:1.784879,A2:146.414941,A4:172800.000000,f:1.470466,dt:18799.000000,ioncorr:52.248003
BDS IONO corr PRN[23] 39.08 262.74 52.25 352657.92
usrllh latitude:0.519213 longitude:1.859682
 source:0 ion_pt_an*1000 a0:0.000009 a1:0.000171 a2:-0.001729 a3:0.003755 b0:149504.000000 b1:-425984.000000 b2:-589824.000000 b3:3997696.000000 
Refix G03: 2, 352657.923813, -3046
Refix G16: 2, 352657.924546, -4700
Refix G22: 2, 352657.925613, -1792
Refix G26: 2, 352657.931378, -2894
$GNGGA,015720.000,2944.9188,N,10633.1038,E,1,08,1.8,256.1,M,,,,0000*1F
$GNRMC,015720.000,A,2944.9188,N,10633.1038,E,1.03,0.00,040419,,*18
$GPGSA,A,3,03,16,22,26,,,,,,,,,2.1,1.8,1.2*3B
$BDGSA,A,3,10,23,,,,,,,,,,,2.1,1.8,1.2*2A
$GLGSA,A,3,05,15,,,,,,,,,,,2.1,1.8,1.2*26
$GPGSV,1,1,04,03,00,000,43,16,00,000,42,22,00,000,45,26,00,000,44*7D
$BDGSV,1,1,04,02,00,000,39,10,00,000,37,23,00,000,42,32,00,000,42*61
$B3CN0,0,16,0,0,0,0,0,0,0,0,0,0,0,0*7B
$GLGSV,1,1,02,05,00,000,40,15,00,000,42*64
---00000041--- Acq_st=3 0  2019-4-4 1:57:20 
[00]  02(G03)  f 43  7  0  -3044.8  2046003.9 -0.0  2 0  864 1955 1168
[01]  15(G16)  f 42  7  0  -4700.5  2046006.0 -0.0  2 0 1042 1614  742
[02]  21(G22)  f 44  7  0  -1791.8  2046002.3  0.1  2 0 1521 2685 1499
[03]  25(G26)  f 43  7  0  -2893.7  2046003.7 -0.0  2 0 1858 2628 1113
[16]  38(B02) 1f 39 28  0  -1082.1  4092002.6 -0.8  2 0  973 1040  314
[17]  41(B05)  9 39 25  0  -1083.7  4092002.8  0.9  1 0  865 1328  500
[18]  46(B10) 1f 37  9  0  -1555.9  4092003.8  0.3  2 0  345  825  465
[20]  59(B23) 1f 42  8  0  -2583.3  4092006.6  0.1  2 0 1239 1451  559
[21]  68(B32) 1f 42  7  0  -3846.5  4092009.9  0.1  2 0  865 1053  478
[32]  76(N-5)  f 27  7  0   2399.3  1021998.3 -0.0 10 0    42  320  322
[33]  80(N-1) 8f 42  7  0  -4658.4  1022002.9  0.2  2 0   984 1426  846
[34]  81(N00) 8f 42  7  0  -2082.0  1022001.3 -0.0  2 0   813 1355  542
[48]  38(B02)  f 14 23  0    -83.6 20460001.9  0.2  2 0  923  866  464
[50]  46(B10)  1  7  7  0  -2024.0 20460026.2 -0.1  1 0  527  924  676
[52]  59(B23)  1  7  7  0  -2793.1 20460042.5  0.0  1 0  667  555  786
[53]  68(B32)  1  7  7  0  -3160.6 20460062.5 -0.0  1 0  746  651  112
$#bdsionmodel sec:352658.877132,a1:0.439613,psi:0.028987,phi:0.500394,lam:1.837428,A2:132.744545,A4:172800.000000,f:1.113353,dt:18075.000000,ioncorr:36.746137
BDS IONO corr PRN[10] 62.26 222.34 36.75 352658.88
usrllh latitude:0.519212 longitude:1.859679
 source:0 ion_pt_an*1000 a0:0.000009 a1:0.000171 a2:-0.001729 a3:0.003755 b0:149504.000000 b1:-425984.000000 b2:-589824.000000 b3:3997696.000000 
$#bdsionmodel sec:352658.921246,a1:0.733160,psi:0.065765,phi:0.510879,lam:1.784876,A2:146.413068,A4:172800.000000,f:1.470466,dt:18798.000000,ioncorr:52.248845
BDS IONO corr PRN[23] 39.08 262.74 52.25 352658.92
usrllh latitude:0.519212 longitude:1.859679
 source:0 ion_pt_an*1000 a0:0.000009 a1:0.000171 a2:-0.001729 a3:0.003755 b0:149504.000000 b1:-425984.000000 b2:-589824.000000 b3:3997696.000000 
Refix G03: 2, 352658.923815, -3047
Refix G16: 2, 352658.924549, -4699
Refix G22: 2, 352658.925614, -1793
Refix G26: 2, 352658.931379, -2894
$GNGGA,015721.000,2944.9187,N,10633.0991,E,1,08,1.8,251.4,M,,,,0000*18
$GNRMC,015721.000,A,2944.9187,N,10633.0991,E,1.08,0.00,040419,,*16
$GPGSA,A,3,03,16,22,26,,,,,,,,,2.1,1.8,1.2*3B
$BDGSA,A,3,10,23,,,,,,,,,,,2.1,1.8,1.2*2A
$GLGSA,A,3,05,15,,,,,,,,,,,2.1,1.8,1.2*26
$GPGSV,1,1,04,03,28,307,43,16,29,204,42,22,40,284,44,26,63,201,43*74
$BDGSV,2,1,06,02,00,000,39,10,62,222,37,23,39,262,42,32,00,000,42*6A
$BDGSV,2,2,06,21,06,120,00,24,80,113,00*65
$B3CN0,0,0,0,0,0,0,0,0,0,0,0,0,0,0*4C
$GLGSV,1,1,02,05,33,330,42,15,51,269,42*6F
---00000042--- Acq_st=3 0  2019-4-4 1:57:21 
[00]  02(G03)  f 43  7  0  -3042.6  2046003.9  0.0  2 0 1277 2427 1018
[01]  15(G16)  f 43  9  0  -4697.8  2046006.0  0.0  2 0 1914 2507  783
[02]  21(G22)  f 44  7  0  -1791.8  2046002.3 -0.1  2 0 1270 2834 1454
[03]  25(G26)  f 44  7  0  -2891.6  2046003.7 -0.0  2 0 1828 3066 1590
[16]  38(B02) 1f 38 24  0  -1084.0  4092002.6  0.3  2 0  917  820   80
[17]  41(B05) 1f 40 23  0  -1077.0  4092002.7  0.8  2 0  736 1160  537
[18]  46(B10) 1f 37  7  0  -1542.2  4092003.9 -0.0  2 0  603  594  557
[19]  54(B18)  1  7  7  0  -1250.0  4092004.5 -0.0  1 0  542  347  832
[20]  59(B23) 1f 42 11  0  -2580.9  4092006.6  0.0  2 0 1239 1504  590
[21]  68(B32) 1f 42  7  0  -3843.0  4092010.0 -0.1  2 0 1031 1338  445
[32]  76(N-5)  f 32  7  0   2407.4  1021998.4  0.0  5 0    86  525  536
[33]  80(N-1) 8f 43  7  0  -4655.1  1022002.9 -0.0  2 0   713 1119  645
[34]  81(N00) 8f 41  7  0  -2077.8  1022001.3  0.2  2 0   466  900  615
[48]  38(B02)  f 19 10  1   -246.1 20460003.1 -0.0  2 0  554  319  282
[50]  46(B10)  1  7  7  0  -2531.2 20460025.6 -0.1  1 0  512  452  350
[53]  68(B32)  1  7  7  0  -2949.1 20460061.4  0.1  1 0  321  390  196
$#bdsionmodel sec:352659.877133,a1:0.439613,psi:0.028987,phi:0.500394,lam:1.837427,A2:132.744501,A4:172800.000000,f:1.113353,dt:18074.000000,ioncorr:36.747109
BDS IONO corr PRN[10] 62.26 222.34 36.75 352659.88
usrllh latitude:0.519212 longitude:1.859677
 source:0 ion_pt_an*1000 a0:0.000009 a1:0.000171 a2:-0.001729 a3:0.003755 b0:149504.000000 b1:-425984.000000 b2:-589824.000000 b3:3997696.000000 
$#bdsionmodel sec:352659.921247,a1:0.733160,psi:0.065765,phi:0.510879,lam:1.784874,A2:146.413022,A4:172800.000000,f:1.470466,dt:18797.000000,ioncorr:52.250311
BDS IONO corr PRN[23] 39.08 262.74 52.25 352659.92
usrllh latitude:0.519212 longitude:1.859677
 source:0 ion_pt_an*1000 a0:0.000009 a1:0.000171 a2:-0.001729 a3:0.003755 b0:149504.000000 b1:-425984.000000 b2:-589824.000000 b3:3997696.000000 
Refix G03: 2, 352659.923817, -3041
Refix G16: 2, 352659.924552, -4694
Refix G22: 2, 352659.925615, -1786
Refix G26: 2, 352659.931381, -2887
$GNGGA,015722.000,2944.9193,N,10633.0966,E,1,08,1.8,253.4,M,,,,0000*14
$GNRMC,015722.000,A,2944.9193,N,10633.0966,E,1.08,0.00,040419,,*18
$GPGSA,A,3,03,16,22,26,,,,,,,,,2.1,1.8,1.2*3B
$BDGSA,A,3,10,23,,,,,,,,,,,2.1,1.8,1.2*2A
$GLGSA,A,3,05,15,,,,,,,,,,,2.1,1.8,1.2*26
$GPGSV,1,1,04,03,28,307,43,16,29,204,43,22,40,284,44,26,63,201,44*72
$BDGSV,2,1,07,02,00,000,38,05,00,000,40,10,62,222,37,23,39,262,42*6C
$BDGSV,2,2,07,32,00,000,42,21,06,120,00,24,80,113,00*53
$B3CN0,0,19,0,0,0,0,0,0,0,0,0,0,0,0*74
$GLGSV,1,1,02,05,33,330,43,15,51,269,41*6D
---00000043--- Acq_st=3 0  2019-4-4 1:57:22 
[00]  02(G03)  f 43  7  0  -3038.5  2046003.9 -0.0  2 0 1837 2636 1446
[01]  15(G16)  f 43  7  0  -4696.7  2046006.0  0.0  2 0 1079 2067 1131
[02]  21(G22)  f 44  7  0  -1785.8  2046002.3  0.0  2 0 1135 2409  979
[03]  25(G26)  f 44  7  0  -2887.5  2046003.7 -0.0  2 0 1577 2805 1188
[16]  38(B02) 1f 40 27  0  -1078.0  4092002.7 -0.7  2 0  873 1139  560
[17]  41(B05) 1f 38 28  0  -1077.9  4092002.6  0.8  2 0 1004 1033  263
[18]  46(B10) 1f 37 10  0  -1539.2  4092003.9  0.1  2 0  735  976  506
[19]  54(B18)  1  7  7  0  -1215.2  4092003.5  0.2  1 0  692 1339  633
[20]  59(B23) 1f 42  7  0  -2576.3  4092006.6 -0.0  2 0 1569 1494  198
[21]  68(B32) 1f 42  7  0  -3842.1  4092009.9  0.1  2 0 1187 1633  583
[32]  76(N-5)  f 32  7  0   2410.1  1021998.3 -0.0  5 0   369  591  251
[33]  80(N-1) 8f 42  7  0  -4650.4  1022002.9  0.1  2 0   678 1189  833
[34]  81(N00) 8f 41  7  0  -2075.2  1022001.3  0.0  2 0   595 1040  677
[49]  41(B05)  1 20 22  0   -806.7 20460019.5 -0.1  1 0  467  436  544
[52]  59(B23)  1  7  7  0  -2289.1 20460040.2 -0.1  1 0   91  353  738
[53]  68(B32)  1  7  7  0  -2528.5 20460061.1 -0.0  1 0   96  277  275
