i=1
Rf R0 Config = ff777073
Rf R1 Config = 00dffbfe
Rf R52 Config = 00dfef40
i=2
Rf R0 Config = 007770f3
Rf R1 Config = 00dd1bfe
Rf R52 Config = 00db4ef0
i=3
Rf R0 Config = 007770f3
Rf R1 Config = 00dffbfe
Rf R52 Config = 00dfae70
i=4
Rf R0 Config = 00777273
Rf R1 Config = 00dffbfe
Rf R52 Config = 00dfee40
SD initialized success
Create debug.log Failed! 3
Start Channel by LuYu
$GNGGA,000000.000,,,,,0,00,,,M,,,,0000*2B
$GNRMC,000000.000,A,,,,,,,060180,,*29
$GPGSA,A,1,,,,,,,,,,,,,,,*1E
$BDGSA,A,1,,,,,,,,,,,,,,,*0F
$GLGSA,A,1,,,,,,,,,,,,,,,*02
$B3CN0,0,0,0,0,0,0,0,0,0,0,0,0,0,0*4C
---00000001--- Acq_st=3 0  2000-1-1 0:1:54 
[00]  02(G03)  1 19  7  0   -400.6  2046001.1  0.2  1 0 2035 4397 2729
$GNGGA,000000.000,,,,,0,00,,,M,,,,0000*2B
$GNRMC,000000.000,A,,,,,,,060180,,*29
$GPGSA,A,1,,,,,,,,,,,,,,,*1E
$BDGSA,A,1,,,,,,,,,,,,,,,*0F
$GLGSA,A,1,,,,,,,,,,,,,,,*02
$B3CN0,0,0,0,0,0,0,0,0,0,0,0,0,0,0*4C
---00000002--- Acq_st=3 0  2000-1-1 0:1:55 
[00]  02(G03)  7 20  7  0   -399.4  2046000.5  0.8 10 0 2030 3976 2133
[01]  15(G16)  1 12  7  0  -2576.8  2046005.1  0.2  1 0  694 1484 1239
[02]  21(G22)  1 15  7  0    500.0  2046001.9 -0.0  1 0  546 1486 1178
[03]  22(G23)  1  7  7  0  -4500.0  2046007.0 -0.1  1 0  839 1753 1927
$GNGGA,000000.000,,,,,0,00,,,M,,,,0000*2B
$GNRMC,000000.000,A,,,,,,,060180,,*29
$GPGSA,A,1,,,,,,,,,,,,,,,*1E
$BDGSA,A,1,,,,,,,,,,,,,,,*0F
$GLGSA,A,1,,,,,,,,,,,,,,,*02
$GPGSV,1,1,01,03,00,000,20*49
$B3CN0,0,0,0,0,0,0,0,0,0,0,0,0,0,0*4C
---00000003--- Acq_st=3 0  2000-1-1 0:1:56 
[00]  02(G03)  7 47  7  0   -397.7  2046000.5  0.0  2 0 2913 4578 1898
[01]  15(G16)  7 18  7  0  -2578.6  2046003.2  1.0 10 0 1125 1307  703
[02]  21(G22)  1 30  7  0    490.4  2045999.0  0.7  1 0 1220 1508  486
[03]  22(G23)  1 26  7  0  -4373.5  2046005.9  0.4  1 0 1339 1950 1164
[16]  38(B02)  1 10 31  1  -1000.0  4092002.4  0.1  1 0  703  202  420
$GNGGA,000000.000,,,,,0,00,,,M,,,,0000*2B
$GNRMC,000000.000,A,,,,,,,060180,,*29
$GPGSA,A,1,,,,,,,,,,,,,,,*1E
$BDGSA,A,1,,,,,,,,,,,,,,,*0F
$GLGSA,A,1,,,,,,,,,,,,,,,*02
$GPGSV,1,1,02,03,00,000,47,16,00,000,18*75
$B3CN0,0,0,0,0,0,0,0,0,0,0,0,0,0,0*4C
---00000004--- Acq_st=3 0  2000-1-1 0:1:57 
[00]  02(G03)  7 45  7  0   -397.6  2046000.5  0.0  2 0 2607 4211 1769
[01]  15(G16)  7 40  7  0  -2578.3  2046003.2  0.0  2 0  793 1428  930
[02]  21(G22)  7 32  7  0    491.7  2045999.3  0.3  5 0  998 1513  515
[03]  22(G23)  7 31  7  0  -4374.3  2046005.6  0.3  5 0 1213 1545  720
[16]  38(B02)  1 20 10  0   -541.4  4092002.5 -0.1  1 0  146  295  485
[17]  41(B05)  1 10 20  0  -1116.6  4092004.6  0.4  1 0 1206 1733 1210
$GNGGA,000000.000,,,,,0,00,,,M,,,,0000*2B
$GNRMC,000000.000,A,,,,,,,060180,,*29
$GPGSA,A,1,,,,,,,,,,,,,,,*1E
$BDGSA,A,1,,,,,,,,,,,,,,,*0F
$GLGSA,A,1,,,,,,,,,,,,,,,*02
$GPGSV,1,1,04,03,00,000,45,16,00,000,40,22,00,000,32,23,00,000,31*7E
$B3CN0,0,0,0,0,0,0,0,0,0,0,0,0,0,0*4C
---00000005--- Acq_st=3 0  2000-1-1 0:1:58 
[00]  02(G03)  7 45  7  0   -397.1  2046000.5 -0.0  2 0 2190 4035 1853
[01]  15(G16)  7 40  7  0  -2578.6  2046003.3 -0.0  2 0  296 1032  532
[02]  21(G22)  7 43  7  0    491.7  2045999.3 -0.0  2 0 1475 1992  991
[03]  22(G23)  7 42  7  0  -4371.2  2046005.7 -0.0  2 0 1170 1514  359
[16]  38(B02)  1 10 19  0    -27.9  4092002.3 -0.0  1 0  224   43  166
[17]  41(B05)  7 25 10  1  -1043.9  4092002.8  0.2  2 0 1808 1219  675
[18]  46(B10)  1 27  7  0  -1141.7  4092003.6  0.4  1 0  821 1488  849
$GNGGA,031613.836,,,,,0,00,,,M,,,,0000*20
$GNRMC,031613.836,A,,,,,,,090180,,*2D
$GPGSA,A,1,,,,,,,,,,,,,,,*1E
$BDGSA,A,1,,,,,,,,,,,,,,,*0F
$GLGSA,A,1,,,,,,,,,,,,,,,*02
$GPGSV,1,1,04,03,00,000,45,16,00,000,40,22,00,000,43,23,00,000,42*7C
$BDGSV,1,1,01,05,00,000,20*5E
$B3CN0,0,0,0,0,0,0,0,0,0,0,0,0,0,0*4C
---00000006--- Acq_st=3 0  2000-1-1 0:1:59 
[00]  02(G03)  f 45  7  0   -394.0  2046000.5 -0.0  2 0 2750 4126 2160
[01]  15(G16)  f 39  7  0  -2575.3  2046003.3 -0.1  2 0 1132 1498  812
[02]  21(G22)  f 44  7  0    495.0  2045999.3  0.1  2 0 1582 2369  877
[03]  22(G23)  f 41  7  0  -4369.0  2046005.6  0.0  2 0 1329 1445  224
[16]  38(B02)  1 22 10  1     29.5  4092003.9 -0.1  1 0  448  124  243
[17]  41(B05)  f 39 26  0  -1111.2  4092002.6  0.2  2 0 1175  959  225
[18]  46(B10)  7 25  7  0  -1135.2  4092002.8  0.7 10 0  825 1241  559
[19]  54(B18)  1  7  7  0   -997.2  4092003.3  0.2  1 0  602 1296  723
[20]  55(B19)  1  7  7  0  -3757.9  4092011.8  0.2  1 0  494  505 1409
$GNGGA,031614.836,,,,,0,00,,,M,,,,0000*27
$GNRMC,031614.836,A,,,,,,,090180,,*2A
$GPGSA,A,1,,,,,,,,,,,,,,,*1E
$BDGSA,A,1,,,,,,,,,,,,,,,*0F
$GLGSA,A,1,,,,,,,,,,,,,,,*02
$GPGSV,1,1,04,03,00,000,45,16,00,000,39,22,00,000,44,23,00,000,41*76
$BDGSV,1,1,02,05,00,000,38,10,00,000,25*62
$B3CN0,0,0,0,0,0,0,0,0,0,0,0,0,0,0*4C
---00000007--- Acq_st=3 0  2000-1-1 0:2:0 
[00]  02(G03)  f 45  7  0   -394.1  2046000.5 -0.0  2 0 2551 3874 1570
[01]  15(G16)  f 40  7  0  -2577.6  2046003.3  0.1  2 0  720 1272  902
[02]  21(G22)  f 43  7  0    494.3  2045999.3 -0.1  2 0 1694 2947 1375
[03]  22(G23)  f 42  7  0  -4371.7  2046005.6 -0.0  2 0 1156 1591 1146
[16]  38(B02)  1 10 20  0    112.2  4092005.1  0.1  1 0  104  272  344
[17]  41(B05)  f 40 22  0  -1111.9  4092002.7  0.5  2 0 1416 1044  389
[18]  46(B10)  7 40  7  0  -1136.1  4092002.8 -0.1  2 0  939 1366  833
[19]  54(B18)  7 14  7  0   -998.7  4092002.6  0.4 10 0 1194 1733  982
[20]  55(B19)  7  7  7  0  -3753.8  4092009.7  0.4 10 0  630  893  329
[49]  41(B05)  1 23 23  1   -891.8 20460016.6  0.1  1 0  771  570  719
$GNGGA,031615.836,,,,,0,00,,,M,,,,0000*26
$GNRMC,031615.836,A,,,,,,,090180,,*2B
$GPGSA,A,1,,,,,,,,,,,,,,,*1E
$BDGSA,A,1,,,,,,,,,,,,,,,*0F
$GLGSA,A,1,,,,,,,,,,,,,,,*02
$GPGSV,1,1,04,03,00,000,45,16,00,000,40,22,00,000,43,23,00,000,42*7C
$BDGSV,1,1,02,05,00,000,40,10,00,000,40*6E
$B3CN0,0,0,0,0,0,0,0,0,0,0,0,0,0,0*4C
---00000008--- Acq_st=3 0  2000-1-1 0:2:1 
[00]  02(G03)  f 45  7  0   -391.8  2046000.4 -0.0  2 0 2259 3721 1880
[01]  15(G16)  f 40  7  0  -2572.1  2046003.3 -0.0  2 0  811 1232  585
[02]  21(G22)  f 43  7  0    497.7  2045999.3  0.0  2 0  996 2035 1080
[03]  22(G23)  f 43  7  0  -4367.8  2046005.6  0.0  2 0 1432 2357 1014
[17]  41(B05) 1f 39 18  0  -1108.2  4092002.7 -0.1  2 0 1268 1066  197
[18]  46(B10) 1f 40  7  0  -1128.6  4092002.9  0.0  2 0  705  956  283
[19]  54(B18)  7 43  9  0   -996.6  4092002.5 -0.2  2 0 1369 2002  526
[20]  55(B19)  7 41 15  0  -3752.3  4092009.7  0.0  2 0 1838 1974  828
[21]  68(B32)  1  7  7  0   1172.5  4091999.0  0.1  1 0  576  617  851
[32]  75(N-6)  1 15 11  0  -1750.0  1022002.6 -0.1  1 0   140  391  271
[33]  76(N-5)  1 27  7  0   2250.0  1022000.0 -0.3  1 0   124  442  935
[49]  41(B05)  1 19 26  1  -1211.8 20460018.9 -0.1  1 0  381  549  656
$GNGGA,031616.836,,,,,0,00,,,M,,,,0000*25
$GNRMC,031616.836,A,,,,,,,090180,,*28
$GPGSA,A,1,,,,,,,,,,,,,,,*1E
$BDGSA,A,1,,,,,,,,,,,,,,,*0F
$GLGSA,A,1,,,,,,,,,,,,,,,*02
$GPGSV,1,1,04,03,00,000,45,16,00,000,40,22,00,000,43,23,00,000,43*7D
$BDGSV,1,1,04,05,00,000,39,10,00,000,40,18,00,000,43,19,00,000,41*65
$B3CN0,0,0,0,0,0,0,0,0,0,0,0,0,0,0*4C
---00000009--- Acq_st=7 0  2000-1-1 0:2:2 
[00]  02(G03)  f 45 10  0   -391.6  2046000.4  0.0  2 0 1968 3446 1712
[01]  15(G16)  f 40  7  0  -2573.1  2046003.3 -0.1  2 0 1236 1629  726
[02]  21(G22)  f 43  7  0    498.3  2045999.3 -0.0  2 0 1350 1944 1194
[03]  22(G23)  f 43  7  0  -4367.6  2046005.6 -0.0  2 0 1428 2223 1052
[17]  41(B05) 1f 41 21  0  -1108.8  4092002.6  0.7  2 0  691  777  509
[18]  46(B10) 1f 40  7  0  -1135.9  4092002.9  0.0  2 0  537 1128  643
[19]  54(B18)  7 42  7  0   -994.6  4092002.5  0.1  2 0 1373 1584  372
[20]  55(B19)  7 41 16  0  -3747.5  4092009.7  0.0  2 0  999 1729 1252
[21]  68(B32)  1  7  7  0   1172.8  4091996.7  0.4  1 0 1388 1768  788
[32]  75(N-6)  1 32 15  0  -1796.5  1022002.4  0.5  1 0   330  510  189
[33]  76(N-5)  1 37 16  0   2252.5  1021998.3  1.0  1 0   543  728  412
[34]  80(N-1)  1 23 17  0  -4860.9  1022004.2  0.5  1 0   351  294  339
[35]  81(N00)  1 27 17  0  -2772.5  1022002.5  0.4  1 0  1144 1864  745
[49]  41(B05)  1 23 25  0  -1421.0 20460016.6  0.0  1 0  413  451  187
[50]  46(B10)  1  7  7  0   -698.9 20460018.9  0.1  1 0  570  517  168
$GNGGA,031617.836,,,,,0,00,,,M,,,,0000*24
$GNRMC,031617.836,A,,,,,,,090180,,*29
$GPGSA,A,1,,,,,,,,,,,,,,,*1E
$BDGSA,A,1,,,,,,,,,,,,,,,*0F
$GLGSA,A,1,,,,,,,,,,,,,,,*02
$GPGSV,1,1,04,03,00,000,45,16,00,000,40,22,00,000,43,23,00,000,43*7D
$BDGSV,1,1,04,05,00,000,41,10,00,000,40,18,00,000,42,19,00,000,41*6B
$B3CN0,0,0,0,0,0,0,0,0,0,0,0,0,0,0*4C
---00000010--- Acq_st=7 0  2000-1-1 0:2:3 
[00]  02(G03)  f 46  7  0   -388.9  2046000.4  0.0  2 0 2335 3559 1410
[01]  15(G16)  f 40  7  0  -2572.6  2046003.3  0.2  2 0 1400 1253  579
[02]  21(G22)  f 43  7  0    499.2  2045999.3 -0.0  2 0  949 2233  882
[03]  22(G23)  f 43  7  0  -4368.4  2046005.6  0.0  2 0 1166 1839  996
[17]  41(B05) 1f 40 14  0  -1112.9  4092002.8 -0.7  2 0 1230 1179  202
[18]  46(B10) 1f 40  7  0  -1130.6  4092002.8 -0.1  2 0  997 1332  808
[19]  54(B18)  7 42  7  0   -995.0  4092002.5 -0.0  2 0 1194 1557  351
[20]  55(B19)  7 41 15  0  -3747.5  4092009.7  0.0  2 0 1715 1575  498
[21]  68(B32)  7 40  7  0   1173.2  4091996.8  0.1  2 0 1016 1164  161
[32]  75(N-6)  7 32 19  0  -1799.7  1022001.1 -0.0  5 0   420  445  182
[33]  76(N-5)  7 38 16  0   2251.9  1021998.4  0.2  2 0   361  653  473
[34]  80(N-1)  1 24 18  0  -4888.5  1022003.2  0.1  1 0   305  316  199
[35]  81(N00)  1 27 14  0  -2770.3  1022001.5  1.0  1 0  1286 2083 1034
[49]  41(B05)  1 26 24  0  -1357.7 20460023.0 -0.0  1 0  687  276  270
[50]  46(B10)  1  7  7  0   -943.8 20460018.1  0.1  1 0  239  515  410
$GNGGA,031618.836,,,,,0,00,,,M,,,,0000*2B
$GNRMC,031618.836,A,,,,,,,030419,,*29
$GPGSA,A,1,,,,,,,,,,,,,,,*1E
$BDGSA,A,1,,,,,,,,,,,,,,,*0F
$GLGSA,A,1,,,,,,,,,,,,,,,*02
$GPGSV,1,1,04,03,00,000,46,16,00,000,40,22,00,000,43,23,00,000,43*7E
$BDGSV,2,1,05,05,00,000,40,10,00,000,40,18,00,000,42,19,00,000,41*68
$BDGSV,2,2,05,32,00,000,39*56
$B3CN0,0,0,0,0,0,0,0,0,0,0,0,0,0,0*4C
---00000011--- Acq_st=3 0  2000-1-1 0:2:4 
[00]  02(G03)  f 46  7  0   -387.7  2046000.4 -0.0  2 0 2539 3719 1703
[01]  15(G16)  f 40  7  0  -2566.9  2046003.3 -0.0  2 0  841 1417  446
[02]  21(G22)  f 43  7  0    500.8  2045999.3  0.0  2 0 1154 1657  755
[03]  22(G23)  f 43  7  0  -4369.0  2046005.6  0.0  2 0 1770 2566  807
[17]  41(B05) 1f 40 27  0  -1107.7  4092002.8 -0.5  2 0  959 1085  484
[18]  46(B10) 1f 40  7  0  -1131.1  4092002.9 -0.0  2 0 1028  796  649
[19]  54(B18)  7 42  7  0   -992.3  4092002.5 -0.0  2 0  834 1594  704
[20]  55(B19)  7 42 14  0  -3748.5  4092009.7 -0.0  2 0 1284 1314  468
[21]  68(B32)  7 41  7  0   1176.8  4091996.7  0.1  2 0  957 1216  724
[32]  75(N-6)  7 32 18  0  -1799.4  1022001.1  0.0  5 0   547  594   21
[33]  76(N-5)  7 36 17  0   2251.7  1021998.6 -0.1  2 0   722  694  186
[34]  80(N-1)  7 25  7  0  -4868.0  1022002.8  0.1 10 0   212   65  144
[35]  81(N00)  7 26  7  0  -2767.5  1022001.8  0.6 10 0  1372 2269 1268
[50]  46(B10)  1  7  7  0   -572.3 20460017.5  0.0  1 0  266  279  304
$GNGGA,031619.836,,,,,0,00,,,M,,,,0000*2A
$GNRMC,031619.836,A,,,,,,,030419,,*28
$GPGSA,A,1,,,,,,,,,,,,,,,*1E
$BDGSA,A,1,,,,,,,,,,,,,,,*0F
$GLGSA,A,1,,,,,,,,,,,,,,,*02
$GPGSV,1,1,04,03,00,000,46,16,00,000,40,22,00,000,43,23,00,000,43*7E
$BDGSV,2,1,05,05,00,000,40,10,00,000,40,18,00,000,42,19,00,000,42*6B
$BDGSV,2,2,05,32,00,000,41*59
$B3CN0,0,0,0,0,0,0,0,0,0,0,0,0,0,0*4C
---00000012--- Acq_st=4 0  2000-1-1 0:2:5 
[00]  02(G03)  f 46  7  0   -387.3  2046000.5 -0.0  2 0 2081 4062 2409
[01]  15(G16)  f 41  7  0  -2573.6  2046003.2  0.0  2 0  712 1284  666
[02]  21(G22)  f 43  7  0    500.3  2045999.3 -0.0  2 0 1461 2102 1013
[03]  22(G23)  f 43  7  0  -4364.4  2046005.6 -0.0  2 0 1440 1915  783
[17]  41(B05) 1f 41 23  0  -1108.5  4092002.8  0.5  2 0 1348 1440  333
[18]  46(B10) 1f 40  7  0  -1130.3  4092002.8 -0.1  2 0  895 1395  467
[19]  54(B18)  7 42  7  0   -993.6  4092002.5 -0.0  2 0  891 1339  831
[20]  55(B19)  7 41 13  0  -3743.0  4092009.7  0.1  2 0 1045 1641  806
[21]  68(B32)  7 41  7  0   1178.0  4091996.7  0.1  2 0 1372 1505  512
[32]  75(N-6)  7 33 17  0  -1797.5  1022001.2  0.1  5 0   174  221  239
[33]  76(N-5)  7 36 16  0   2253.7  1021998.6  0.2  2 0   192  310  341
[34]  80(N-1)  7 28 18  0  -4851.2  1022003.1  0.1  5 0   354  209  111
[35]  81(N00)  7 47 16  0  -2765.9  1022001.7  0.0  2 0  1203 2400 1147
[49]  41(B05)  1 26 24  0   -814.3 20460019.5 -0.0  1 0  559  657  545
[50]  46(B10)  1  7  7  0   -643.5 20460019.2 -0.0  1 0  428  456  510
---00000013--- Acq_st=3 0  2000-1-1 0:2:6 
[00]  02(G03)  f 46  7  0   -388.5  2046000.4  0.0  2 0 2231 3781 1629
[01]  15(G16)  f 41 11  0  -2565.6  2046003.2 -0.0  2 0 1365 1582  539
[02]  21(G22)  f 43  7  0    502.6  2045999.3  0.1  2 0 1312 2035 1096
[03]  22(G23)  f 43  7  0  -4364.8  2046005.6 -0.0  2 0 1263 2097  969
[16]  38(B02)  1 13 27  1  -1000.0  4092001.9  0.3  1 0  471  613  128
[17]  41(B05) 1f 40 24  0  -1112.6  4092002.8 -0.1  2 0 1132 1115  561
[18]  46(B10) 1f 40  7  0  -1128.0  4092002.8  0.1  2 0 1101 1426  586
[19]  54(B18)  7 41  7  0   -996.5  4092002.4  0.0  2 0  923 1276  542
[20]  55(B19)  7 41 14  0  -3742.1  4092009.7 -0.1  2 0 1036 1322  573
[21]  68(B32)  7 41  7  0   1178.0  4091996.8 -0.0  2 0 1382 1726  703
[32]  75(N-6)  f 29  8  0  -1796.5  1022001.1 -0.0  5 0   148  306  346
[33]  76(N-5)  f 33  7  0   2255.9  1021998.5 -0.1  5 0   886  811  120
[34]  80(N-1)  7 19 14  0  -4909.6  1022003.2 -0.0 10 0   385  200  278
[35]  81(N00)  7 47 16  0  -2764.5  1022001.7 -0.1  2 0  1411 2492 1254
[49]  41(B05)  1 22 20  1   -621.8 20460020.4  0.1  1 0  579  285  166
$GNGGA,031620.836,,,,,0,00,,,M,,,,0000*20
$GNRMC,031620.836,A,,,,,,,030419,,*22
$GPGSA,A,1,,,,,,,,,,,,,,,*1E
$BDGSA,A,1,,,,,,,,,,,,,,,*0F
$GLGSA,A,1,,,,,,,,,,,,,,,*02
$GPGSV,1,1,04,03,00,000,46,16,00,000,41,22,00,000,43,23,00,000,43*7F
$BDGSV,2,1,05,05,00,000,40,10,00,000,40,18,00,000,41,19,00,000,41*6B
$BDGSV,2,2,05,32,00,000,41*59
$B3CN0,0,0,0,0,0,0,0,0,0,0,0,0,0,0*4C
---00000014--- Acq_st=3 0  2000-1-1 0:2:7 
[00]  02(G03)  f 46  7  0   -387.3  2046000.4  0.0  2 0 2193 3225 1447
[01]  15(G16)  f 41  7  0  -2565.3  2046003.3  0.1  2 0 1241 1583  742
[02]  21(G22)  f 43  7  0    505.0  2045999.3 -0.1  2 0 1161 1985 1200
[03]  22(G23)  f 43  7  0  -4369.1  2046005.6  0.1  2 0 1175 1856 1212
[16]  38(B02)  1 10 10  0   -600.7  4092001.1  0.1  1 0  478  130   97
[17]  41(B05) 1f 41 18  0  -1105.0  4092002.8  0.0  2 0 1333 1591  310
[18]  46(B10) 1f 40  7  0  -1133.1  4092002.8 -0.0  2 0  657 1004  627
[19]  54(B18) 1f 42  7  0   -992.6  4092002.5  0.1  2 0 1255 1947  926
[20]  55(B19) 1f 42 15  0  -3745.3  4092009.6  0.0  2 0 1130 1514  509
[21]  68(B32) 1f 41  7  0   1176.8  4091996.8  0.0  2 0 1426 1989  979
[32]  75(N-6)  f 31  7  0  -1792.3  1022001.2 -0.1  5 0   412  502  101
[33]  76(N-5)  f 39  7  0   2256.9  1021998.5  0.3  2 0   612 1015  360
[34]  80(N-1)  7 15 18  0  -5046.0  1022003.2 -0.1 10 0   241  529  417
[35]  81(N00)  7 47 17  0  -2764.5  1022001.8 -0.1  2 0  1254 2180 1082
[49]  41(B05)  1 23 24  1    172.3 20460024.8 -0.1  1 0  876  586  786
[50]  46(B10)  1  7  7  0   -845.4 20460017.1 -0.1  1 0  909  675  377
$GNGGA,031621.836,,,,,0,00,,,M,,,,0000*21
$GNRMC,031621.836,A,,,,,,,030419,,*23
$GPGSA,A,1,,,,,,,,,,,,,,,*1E
$BDGSA,A,1,,,,,,,,,,,,,,,*0F
$GLGSA,A,1,,,,,,,,,,,,,,,*02
$GPGSV,1,1,04,03,00,000,46,16,00,000,41,22,00,000,43,23,00,000,43*7F
$BDGSV,2,1,05,05,00,000,41,10,00,000,40,18,00,000,42,19,00,000,42*6A
$BDGSV,2,2,05,32,00,000,41*59
$B3CN0,0,0,0,0,0,0,0,0,0,0,0,0,0,0*4C
---00000015--- Acq_st=3 0  2000-1-1 0:2:8 
[00]  02(G03)  f 45  7  0   -384.8  2046000.4 -0.0  2 0 1931 3061 1421
[01]  15(G16)  f 40  7  0  -2570.4  2046003.3  0.0  2 0 1104 1602 1049
[02]  21(G22)  f 43  7  0    503.7  2045999.3 -0.0  2 0 1043 1971  962
[03]  22(G23)  f 42  7  0  -4362.1  2046005.6 -0.1  2 0 1003 1947 1254
[16]  38(B02)  7 10 13  0   -787.2  4092002.0 -0.1  2 0   99  208  176
[17]  41(B05) 1f 40 21  0  -1106.3  4092002.8  0.2  2 0 1032 1109  656
[18]  46(B10) 1f 40  7  0  -1129.7  4092002.8 -0.0  2 0  650 1080  744
[19]  54(B18) 1f 42  7  0   -992.2  4092002.5 -0.0  2 0 1128 1517  613
[20]  55(B19) 1f 42 14  0  -3742.2  4092009.6 -0.1  2 0 1130 1127  423
[21]  68(B32) 1f 41  7  0   1183.2  4091996.8  0.1  2 0 1300 1583  836
[32]  75(N-6)  f 32  9  0  -1791.3  1022001.0 -0.0  5 0   633  659  316
[33]  76(N-5)  f 39 12  0   2256.7  1021998.6 -0.1  2 0   546  581  219
[34]  80(N-1)  7  9 16  0  -5136.1  1022003.1  0.2 10 0   282  386  398
[35]  81(N00)  f 35  7  0  -2765.2  1022001.7 -0.1  2 0  1191 2181 1237
[49]  41(B05)  1 19 23  1    903.7 20460020.5  0.0  1 0  816  422  224
[50]  46(B10)  1  7  8  0  -1090.1 20460017.7 -0.0  1 0 1146  560   94
[51]  54(B18)  1  7  7  0   -780.6 20460016.5 -0.1  1 0  763  285  192
[52]  55(B19)  1 11  7  0  -2734.3 20460061.2  0.0  1 0  450  344  349
[53]  68(B32)  1  7 10  0    853.3 20459982.5 -0.0  1 0  336  136  450
$GNGGA,031622.836,,,,,0,00,,,M,,,,0000*22
$GNRMC,031622.836,A,,,,,,,030419,,*20
$GPGSA,A,1,,,,,,,,,,,,,,,*1E
$BDGSA,A,1,,,,,,,,,,,,,,,*0F
$GLGSA,A,1,,,,,,,,,,,,,,,*02
$GPGSV,1,1,04,03,00,000,45,16,00,000,40,22,00,000,43,23,00,000,42*7C
$BDGSV,2,1,05,05,00,000,40,10,00,000,40,18,00,000,42,19,00,000,42*6B
$BDGSV,2,2,05,32,00,000,41*59
$B3CN0,0,0,0,0,0,0,0,0,0,0,0,0,0,0*4C
---00000016--- Acq_st=3 0  2000-1-1 0:2:9 
[00]  02(G03)  f 45  7  0   -384.8  2046000.4 -0.0  2 0 2144 3235 1343
[01]  15(G16)  f 41  7  0  -2561.4  2046003.2  0.1  2 0 1312 1941  938
[02]  21(G22)  f 43  7  0    504.6  2045999.3  0.0  2 0 1397 2158  813
[03]  22(G23)  f 42  7  0  -4369.9  2046005.7  0.1  2 0  948 1540  588
[16]  38(B02)  7 10 26  1  -1099.7  4092002.9 -0.1  2 0  477  283   49
[17]  41(B05) 1f 41 25  0  -1105.7  4092002.8  0.4  2 0 1076 1172  637
[18]  46(B10) 1f 40  7  0  -1129.9  4092002.9  0.0  2 0  944 1154  652
[19]  54(B18) 1f 41  8  0   -989.8  4092002.5  0.0  2 0 1382 1861  617
[20]  55(B19) 1f 42 14  0  -3747.0  4092009.7  0.0  2 0 1479 2020  557
[21]  68(B32) 1f 41  7  0   1181.6  4091996.8 -0.0  2 0  948 1510 1143
[32]  75(N-6)  f 34  7  0  -1790.0  1022001.1  0.1  5 0   487  570  139
[33]  76(N-5)  f 37  7  0   2257.2  1021998.5 -0.2  2 0   159  505  116
[34]  80(N-1)  7  7 16  0  -5247.8  1022003.4  0.1 10 0   532  897  566
[35]  81(N00)  f 44  7  0  -2764.1  1022001.7  0.0  2 0  1553 2372  955
[50]  46(B10)  1  7  7  0  -1066.7 20460018.4  0.0  1 0   76  255  501
[51]  54(B18)  1  7  7  0   -559.0 20460016.3  0.1  1 0  590  655  455
[52]  55(B19)  1  8  7  0  -3447.5 20460059.5 -0.1  1 0  834  618  579
[53]  68(B32)  1  7  7  0    637.8 20459982.7 -0.0  1 0  262  328  240
$GNGGA,031623.836,,,,,0,00,,,M,,,,0000*23
$GNRMC,031623.836,A,,,,,,,030419,,*21
$GPGSA,A,1,,,,,,,,,,,,,,,*1E
$BDGSA,A,1,,,,,,,,,,,,,,,*0F
$GLGSA,A,1,,,,,,,,,,,,,,,*02
$GPGSV,1,1,04,03,00,000,45,16,00,000,41,22,00,000,43,23,00,000,42*7D
$BDGSV,2,1,05,05,00,000,41,10,00,000,40,18,00,000,41,19,00,000,42*69
$BDGSV,2,2,05,32,00,000,41*59
$B3CN0,0,0,0,0,0,0,0,0,0,0,0,0,0,0*4C
---00000017--- Acq_st=3 0  2000-1-1 0:2:10 
[00]  02(G03)  f 45  7  0   -387.2  2046000.4  0.0  2 0 2348 3735 1790
[01]  15(G16)  f 41  7  0  -2562.5  2046003.3 -0.2  2 0 1115 1548  433
[02]  21(G22)  f 43  7  0    503.3  2045999.3  0.0  2 0  583 1685  344
[03]  22(G23)  f 41  7  0  -4368.9  2046005.7 -0.2  2 0  419 1430 1059
[16]  38(B02)  7 10 10  1  -1522.4  4092003.9  0.1  2 0  150  254  244
[17]  41(B05) 1f 40 19  0  -1111.2  4092002.7 -0.7  2 0 1041  981  166
[18]  46(B10) 1f 40  7  0  -1131.6  4092002.8  0.1  2 0  818 1189  749
[19]  54(B18) 1f 42  7  0   -995.3  4092002.5  0.0  2 0 1087 1591  729
[20]  55(B19) 1f 42 13  0  -3748.1  4092009.7 -0.1  2 0 1172 1613  635
[21]  68(B32) 1f 41  7  0   1176.1  4091996.8 -0.0  2 0 1019 1411  716
[32]  75(N-6)  f 35  7  0  -1791.6  1022000.9 -0.1  2 0   748  965  414
[33]  76(N-5)  f 37  7  0   2253.8  1021998.5 -0.1  2 0   420  875  452
[35]  81(N00)  f 44  7  0  -2767.0  1022001.8  0.1  2 0  1243 2168  906
[49]  41(B05)  1 24 22  1  -1109.0 20460020.9  0.0  1 0  506  916  717
[50]  46(B10)  1  7  7  0   -822.0 20460018.6 -0.0  1 0  409  768  582
[51]  54(B18)  1  7  7  0   -405.5 20460016.1 -0.2  1 0  424  315  334
[52]  55(B19)  1  7  7  0  -3558.3 20460059.0 -0.0  1 0  631  524  250
[53]  68(B32)  1  7  7  0   1122.0 20459982.0 -0.2  1 0  274  107  472
$GNGGA,031624.836,,,,,0,00,,,M,,,,0000*24
$GNRMC,031624.836,A,,,,,,,030419,,*26
$GPGSA,A,1,,,,,,,,,,,,,,,*1E
$BDGSA,A,1,,,,,,,,,,,,,,,*0F
$GLGSA,A,1,,,,,,,,,,,,,,,*02
$GPGSV,1,1,04,03,00,000,45,16,00,000,41,22,00,000,43,23,00,000,41*7E
$BDGSV,2,1,05,05,00,000,40,10,00,000,40,18,00,000,42,19,00,000,42*6B
$BDGSV,2,2,05,32,00,000,41*59
$B3CN0,0,0,0,0,0,0,0,0,0,0,0,0,0,0*4C
---00000018--- Acq_st=7 0  2000-1-1 0:2:11 
[00]  02(G03)  f 45  7  0   -380.9  2046000.5 -0.0  2 0 2562 4004 1805
[01]  15(G16)  f 40  8  0  -2561.6  2046003.3  0.1  2 0  374 1388 1068
[02]  21(G22)  f 42  7  0    504.8  2045999.3 -0.0  2 0 1878 2409  537
[03]  22(G23)  f 40  7  0  -4360.8  2046005.6  0.2  2 0  574  892  322
[16]  38(B02)  7 10 24  1  -2068.5  4092005.7 -0.0  2 0  278  238   85
[17]  41(B05) 1f 39 23  0  -1103.6  4092002.8  0.0  2 0 1341 1193  592
[18]  46(B10) 1f 41  7  0  -1124.7  4092002.8  0.0  2 0 1112 1297  436
[19]  54(B18) 1f 42 11  0   -989.4  4092002.5 -0.0  2 0 1271 2042 1105
[20]  55(B19) 1f 42 12  0  -3740.9  4092009.7  0.0  2 0 1702 1832  817
[21]  68(B32) 1f 41  7  0   1182.1  4091996.8 -0.0  2 0 1133 1212  405
[32]  75(N-6)  f 36  7  0  -1784.3  1022001.0  0.0  2 0   720  899  240
[33]  76(N-5)  f 36  7  0   2259.3  1021998.5  0.1  2 0   250  592  475
[35]  81(N00)  f 44  7  0  -2760.2  1022001.7 -0.0  2 0  1242 2407 1170
[49]  41(B05)  1 23 20  0  -1583.4 20460018.8 -0.2  1 0  686  704  511
[51]  54(B18)  1  7  7  0     62.3 20460016.7 -0.2  1 0  621  166  516
[52]  55(B19)  1  8  7  0  -3732.8 20460059.5 -0.0  1 0  683  620  352
[53]  68(B32)  1  7  7  0   1006.2 20459983.3 -0.0  1 0  292  231  123
$GNGGA,031625.836,,,,,0,00,,,M,,,,0000*25
$GNRMC,031625.836,A,,,,,,,030419,,*27
$GPGSA,A,1,,,,,,,,,,,,,,,*1E
$BDGSA,A,1,,,,,,,,,,,,,,,*0F
$GLGSA,A,1,,,,,,,,,,,,,,,*02
$GPGSV,1,1,04,03,00,000,45,16,00,000,40,22,00,000,42,23,00,000,40*7F
$BDGSV,2,1,05,05,00,000,39,10,00,000,41,18,00,000,42,19,00,000,42*64
$BDGSV,2,2,05,32,00,000,41*59
$B3CN0,0,0,0,0,0,0,0,0,0,0,0,0,0,0*4C
---00000019--- Acq_st=7 0  2000-1-1 0:2:12 
[00]  02(G03)  f 45  7  0   -380.3  2046000.4  0.0  2 0 1557 3009 1564
[01]  15(G16)  f 41  7  0  -2562.5  2046003.3 -0.0  2 0  550 1552  714
[02]  21(G22)  f 42  7  0    508.2  2045999.3  0.0  2 0 1185 1868  944
[03]  22(G23)  f 40  7  0  -4361.3  2046005.7 -0.3  2 0  426  945  770
[16]  38(B02)  7 18 10  0  -2702.3  4092007.0  0.1  2 0  217  208  134
[17]  41(B05) 1f 41 27  0  -1104.9  4092002.7  0.5  2 0 1182 1404  618
[18]  46(B10) 1f 40  7  0  -1130.3  4092002.8 -0.1  2 0  842 1510  755
[19]  54(B18) 1f 42  7  0   -985.9  4092002.5 -0.0  2 0 1461 1746  603
[20]  55(B19) 1f 42 15  0  -3740.1  4092009.7 -0.0  2 0 1607 1931  763
[21]  68(B32) 1f 41  7  0   1184.9  4091996.8  0.0  2 0  982 1418  166
[32]  75(N-6)  f 36  7  0  -1786.2  1022001.1  0.2  2 0   250  617  377
[33]  76(N-5)  f 33  7  0   2259.0  1021998.7  0.0  2 0   138  214   62
[35]  81(N00)  f 44  7  0  -2759.6  1022001.7  0.1  2 0   918 2151  959
[49]  41(B05)  1 18 26  1  -1829.3 20460020.1 -0.0  1 0 1060  767  322
[50]  46(B10)  1  7  7  0   -546.7 20460018.6  0.1  1 0  705  466  428
$GNGGA,031626.836,,,,,0,00,,,M,,,,0000*26
$GNRMC,031626.836,A,,,,,,,030419,,*24
$GPGSA,A,1,,,,,,,,,,,,,,,*1E
$BDGSA,A,1,,,,,,,,,,,,,,,*0F
$GLGSA,A,1,,,,,,,,,,,,,,,*02
$GPGSV,1,1,04,03,00,000,45,16,00,000,41,22,00,000,42,23,00,000,40*7E
$BDGSV,2,1,06,02,00,000,18,05,00,000,41,10,00,000,40,18,00,000,42*6C
$BDGSV,2,2,06,19,00,000,42,32,00,000,41*64
$B3CN0,0,0,0,0,0,0,0,0,0,0,0,0,0,0*4C
---00000020--- Acq_st=3 0  2000-1-1 0:2:13 
[00]  02(G03)  f 45  8  0   -382.3  2046000.5  0.0  2 0 2347 3363 1272
[01]  15(G16)  f 41  7  0  -2561.2  2046003.3 -0.1  2 0  689 1515  967
[02]  21(G22)  f 42  7  0    504.7  2045999.3  0.0  2 0 1301 2213 1000
[03]  22(G23)  f 40  7  0  -4370.9  2046005.6 -0.0  2 0 1011 1388  598
[16]  38(B02)  7 17 20  0  -3219.2  4092008.4 -0.1  2 0  104  428  594
[17]  41(B05) 1f 41 22  0  -1104.5  4092002.8  0.4  2 0  940 1271  770
[18]  46(B10) 1f 40  7  0  -1124.9  4092002.8 -0.2  2 0 1141 1593  989
[19]  54(B18) 1f 42  7  0   -994.3  4092002.5  0.1  2 0 1153 1685  777
[20]  55(B19) 1f 42 15  0  -3743.9  4092009.7  0.0  2 0 1690 1780  887
[21]  68(B32) 1f 40  7  0   1178.2  4091996.8  0.0  2 0  899 1267  339
[32]  75(N-6)  f 35  7  0  -1785.1  1022001.2  0.0  2 0   323  511  258
[33]  76(N-5)  f 34  7  0   2258.9  1021998.5 -0.0  5 0   524  651   53
[35]  81(N00)  f 45  7  0  -2764.4  1022001.8  0.0  2 0  1356 2463 1333
[49]  41(B05)  1 26 19  0  -1577.0 20460018.5  0.1  1 0  715  325  266
[50]  46(B10)  1  7  7  0   -318.5 20460018.0 -0.1  1 0  474  595  484
[51]  54(B18)  1  7  7  0   -891.4 20460014.4 -0.2  1 0  745  751  488
[52]  55(B19)  1  8  7  0  -2938.2 20460060.7 -0.0  1 0  422  333  604
[53]  68(B32)  1  7  7  0   1439.4 20459980.9 -0.1  1 0  149  423  341
$GNGGA,031627.836,,,,,0,00,,,M,,,,0000*27
$GNRMC,031627.836,A,,,,,,,030419,,*25
$GPGSA,A,1,,,,,,,,,,,,,,,*1E
$BDGSA,A,1,,,,,,,,,,,,,,,*0F
$GLGSA,A,1,,,,,,,,,,,,,,,*02
$GPGSV,1,1,04,03,00,000,45,16,00,000,41,22,00,000,42,23,00,000,40*7E
$BDGSV,2,1,06,02,00,000,17,05,00,000,41,10,00,000,40,18,00,000,42*63
$BDGSV,2,2,06,19,00,000,42,32,00,000,40*65
$B3CN0,0,0,0,0,0,0,0,0,0,0,0,0,0,0*4C
---00000021--- Acq_st=3 0  2000-1-1 0:2:14 
[00]  02(G03)  f 45  7  0   -381.5  2046000.4 -0.0  2 0 2140 3066 1299
[01]  15(G16)  f 41 11  0  -2564.1  2046003.2  0.2  2 0 1355 1912 1205
[02]  21(G22)  f 42  7  0    502.7  2045999.3 -0.1  2 0  873 1834 1028
[03]  22(G23)  f 40  7  0  -4361.7  2046005.6 -0.2  2 0  822 1333  815
[04]  25(G26)  1  7  7  0   -500.0  2046000.9  0.1  1 0  222  439  720
[17]  41(B05) 1f 40 25  0  -1113.2  4092002.8  0.6  2 0 1208  890  588
[18]  46(B10) 1f 40  7  0  -1131.4  4092002.8 -0.0  2 0 1253 1415  488
[19]  54(B18) 1f 42  7  0   -991.7  4092002.5 -0.0  2 0  624 1409  564
[20]  55(B19) 1f 42 15  0  -3748.3  4092009.7  0.0  2 0 1194 1860  920
[21]  68(B32) 1f 40  7  0   1183.9  4091996.8 -0.0  2 0  808 1142  431
[32]  75(N-6)  f 34  7  0  -1785.7  1022001.2  0.0  2 0   425 1002  768
[33]  76(N-5)  f 36  7  0   2259.1  1021998.5  0.0  2 0   435  970  433
[35]  81(N00)  f 45  7  0  -2764.0  1022001.7  0.0  2 0  1485 2660 1213
[50]  46(B10)  1  8  7  0    150.9 20460018.1  0.0  1 0  372  431  492
[51]  54(B18)  1  7  7  0   -925.0 20460016.3 -0.0  1 0  428  379  587
[52]  55(B19)  1  7  7  0  -2923.8 20460060.7 -0.0  1 0  368  241  300
[53]  68(B32)  1  7  7  0   1732.9 20459981.8 -0.1  1 0  650  927  232
$GNGGA,031628.836,,,,,0,00,,,M,,,,0000*28
$GNRMC,031628.836,A,,,,,,,030419,,*2A
$GPGSA,A,1,,,,,,,,,,,,,,,*1E
$BDGSA,A,1,,,,,,,,,,,,,,,*0F
$GLGSA,A,1,,,,,,,,,,,,,,,*02
$GPGSV,1,1,04,03,00,000,45,16,00,000,41,22,00,000,42,23,00,000,40*7E
$BDGSV,2,1,05,05,00,000,40,10,00,000,40,18,00,000,42,19,00,000,42*6B
$BDGSV,2,2,05,32,00,000,40*58
$B3CN0,0,0,0,0,0,0,0,0,0,0,0,0,0,0*4C
---00000022--- Acq_st=3 0  2000-1-1 0:2:15 
[00]  02(G03)  f 44  7  0   -384.2  2046000.4 -0.0  2 0 2219 3853 1891
[01]  15(G16)  f 41  7  0  -2565.6  2046003.3 -0.1  2 0  926 1799 1387
[02]  21(G22)  f 42  7  0    500.6  2045999.3 -0.1  2 0 1060 2004 1139
[03]  22(G23)  f 41  7  0  -4367.0  2046005.6 -0.0  2 0 1091 1390  452
[04]  25(G26)  1 23  7  0   -354.6  2046000.9  0.3  1 0  713  566  572
[17]  41(B05) 1f 40 23  0  -1108.0  4092002.8  0.7  2 0 1077 1398  384
[18]  46(B10) 1f 40  7  0  -1126.5  4092002.8  0.0  2 0  956 1260  317
[19]  54(B18) 1f 41  7  0   -992.5  4092002.5  0.1  2 0  714 1160  587
[20]  55(B19) 1f 42 13  0  -3748.7  4092009.7 -0.0  2 0 1590 1741  158
[21]  68(B32) 1f 40  7  0   1183.2  4091996.8  0.1  2 0 1259 1601  378
[32]  75(N-6)  f 32  7  0  -1786.4  1022001.1 -0.1  5 0    91   54  271
[33]  76(N-5)  f 36  7  0   2256.2  1021998.6 -0.1  2 0   277  897  806
[35]  81(N00)  f 45  7  0  -2764.2  1022001.7  0.0  2 0  1483 2397 1255
[49]  41(B05)  1 23 17  0   -705.4 20460020.2 -0.0  1 0  436  783  502
[50]  46(B10)  1  7  8  0    855.5 20460017.0 -0.1  1 0   22  286  335
[51]  54(B18)  1  7  7  0   -367.9 20460015.0 -0.1  1 0  819  715  388
[52]  55(B19)  1  7  7  0  -2736.0 20460062.2  0.0  1 0  929  484  260
[53]  68(B32)  1  7  7  0   1500.8 20459980.7 -0.1  1 0  479  474  220
$GNGGA,031629.836,,,,,0,00,,,M,,,,0000*29
$GNRMC,031629.836,A,,,,,,,030419,,*2B
$GPGSA,A,1,,,,,,,,,,,,,,,*1E
$BDGSA,A,1,,,,,,,,,,,,,,,*0F
$GLGSA,A,1,,,,,,,,,,,,,,,*02
$GPGSV,1,1,04,03,00,000,44,16,00,000,41,22,00,000,42,23,00,000,41*7E
$BDGSV,2,1,05,05,00,000,40,10,00,000,40,18,00,000,41,19,00,000,42*68
$BDGSV,2,2,05,32,00,000,40*58
$B3CN0,0,0,0,0,0,0,0,0,0,0,0,0,0,0*4C
---00000023--- Acq_st=3 0  2000-1-1 0:2:16 
[00]  02(G03)  f 44  7  0   -379.2  2046000.4 -0.0  2 0 2510 3683 1602
[01]  15(G16)  f 40  7  0  -2563.6  2046003.3  0.0  2 0 1001 1285  572
[02]  21(G22)  f 42  7  0    507.4  2045999.2  0.1  2 0 1011 2120 1410
[03]  22(G23)  f 41  7  0  -4367.8  2046005.5 -0.0  2 0 1335 1611  628
[04]  25(G26)  7 24  7  0   -361.4  2046000.4  0.3 10 0  111  118  369
[17]  41(B05) 1f 41 23  0  -1106.9  4092002.9  0.3  2 0 1183  984  316
[18]  46(B10) 1f 40  7  0  -1131.3  4092002.8 -0.1  2 0 1029 1561  695
[19]  54(B18) 1f 42  7  0   -989.4  4092002.5 -0.0  2 0 1517 1959  523
[20]  55(B19) 1f 42 15  0  -3742.2  4092009.7 -0.1  2 0 1239 1394  862
[21]  68(B32) 1f 41  7  0   1180.3  4091996.8 -0.1  2 0  956 1194  558
[32]  75(N-6)  f 32  7  0  -1783.4  1022001.3 -0.1  5 0   313  431  129
[33]  76(N-5)  f 33  7  0   2259.1  1021998.5  0.0  2 0   339  762  301
[35]  81(N00)  f 44  7  0  -2762.5  1022001.7 -0.0  2 0  1013 1636  621
[49]  41(B05)  1 26 23  0  -1067.9 20460023.1 -0.1  1 0  397  377  318
[51]  54(B18)  1  7  7  0   -485.2 20460017.0 -0.0  1 0  728  185  441
[52]  55(B19)  1  7  7  0  -3226.0 20460061.6  0.0  1 0  292  212  133
[53]  68(B32)  1  7  8  0   1731.3 20459982.3  0.0  1 0  234  217  249
$GNGGA,031630.836,,,,,0,00,,,M,,,,0000*21
$GNRMC,031630.836,A,,,,,,,030419,,*23
$GPGSA,A,1,,,,,,,,,,,,,,,*1E
$BDGSA,A,1,,,,,,,,,,,,,,,*0F
$GLGSA,A,1,,,,,,,,,,,,,,,*02
$GPGSV,2,1,05,03,00,000,44,16,00,000,40,22,00,000,42,23,00,000,41*7D
$GPGSV,2,2,05,26,00,000,24*4E
$BDGSV,2,1,05,05,00,000,41,10,00,000,40,18,00,000,42,19,00,000,42*6A
$BDGSV,2,2,05,32,00,000,41*59
$B3CN0,0,0,0,0,0,0,0,0,0,0,0,0,0,0*4C
---00000024--- Acq_st=3 0  2000-1-1 0:2:17 
[00]  02(G03)  f 44  7  0   -377.2  2046000.4  0.1  2 0 1852 2670 1211
[01]  15(G16)  f 40  7  0  -2561.7  2046003.3  0.3  2 0  944 1265  621
[02]  21(G22)  f 42  7  0    505.7  2045999.3 -0.0  2 0 1214 1737  696
[03]  22(G23)  f 42  7  0  -4364.9  2046005.5 -0.0  2 0 1513 1643  969
[04]  25(G26)  7 22  7  0   -461.3  2046000.7  0.2 10 0  104  203  250
[17]  41(B05) 1f 41 21  0  -1107.2  4092002.8  0.2  2 0  993 1178  749
[18]  46(B10) 1f 40  7  0  -1125.0  4092002.8  0.1  2 0  796 1434  482
[19]  54(B18) 1f 42  7  0   -992.1  4092002.5 -0.1  2 0 1522 2039 1061
[20]  55(B19) 1f 42 15  0  -3741.4  4092009.7 -0.0  2 0 1343 1410  515
[21]  68(B32) 1f 41  7  0   1182.9  4091996.8 -0.0  2 0 1482 1457  341
[32]  75(N-6)  f 31  7  0  -1782.4  1022001.3  0.0  5 0   757  614  187
[33]  76(N-5)  f 34  7  0   2262.8  1021998.5  0.1  2 0   668  530  323
[35]  81(N00)  f 44  7  0  -2760.6  1022001.7 -0.0  2 0   966 1807  828
[49]  41(B05)  1 23 24  0  -1638.3 20460021.0 -0.2  1 0  411  477  706
[50]  46(B10)  1  7  7  0   -771.8 20460019.3  0.1  1 0  775  267  446
$GNGGA,031631.836,,,,,0,00,,,M,,,,0000*20
$GNRMC,031631.836,A,,,,,,,030419,,*22
$GPGSA,A,1,,,,,,,,,,,,,,,*1E
$BDGSA,A,1,,,,,,,,,,,,,,,*0F
$GLGSA,A,1,,,,,,,,,,,,,,,*02
$GPGSV,2,1,05,03,00,000,44,16,00,000,40,22,00,000,42,23,00,000,42*7E
$GPGSV,2,2,05,26,00,000,22*48
$BDGSV,2,1,05,05,00,000,41,10,00,000,40,18,00,000,42,19,00,000,42*6A
$BDGSV,2,2,05,32,00,000,41*59
$B3CN0,0,0,0,0,0,0,0,0,0,0,0,0,0,0*4C
---00000025--- Acq_st=3 0  2000-1-1 0:2:18 
[00]  02(G03)  f 45  7  0   -380.7  2046000.5 -0.0  2 0 1288 2314 1369
[01]  15(G16)  f 40  7  0  -2561.5  2046003.3  0.0  2 0  369 1004 1126
[02]  21(G22)  f 42  7  0    506.0  2045999.3  0.0  2 0 1520 1896  674
[03]  22(G23)  f 43  7  0  -4361.1  2046005.6 -0.0  2 0 1880 2473 1033
[04]  25(G26)  7  7  7  0   -592.7  2046000.7 -0.0 10 0  395  381  335
[17]  41(B05) 1f 41 18  0  -1102.5  4092002.7  0.1  2 0 1237  978  522
[18]  46(B10) 1f 41  7  0  -1126.1  4092002.8 -0.1  2 0 1508 1846  854
[19]  54(B18) 1f 42  7  0   -991.2  4092002.5  0.0  2 0 1702 1874  841
[20]  55(B19) 1f 42 14  0  -3740.6  4092009.7  0.1  2 0  968 1331  640
[21]  68(B32) 1f 41  7  0   1185.2  4091996.7 -0.0  2 0 1483 1516  656
[32]  75(N-6) 8f 32  8  0  -1779.9  1022001.1  0.0  5 0   266  492  211
[33]  76(N-5)  f 37  7  0   2261.3  1021998.5 -0.2  2 0   323  705  479
[35]  81(N00) 8f 43  7  0  -2760.2  1022001.7  0.0  2 0   608 1342  450
[49]  41(B05)  1 24 26  1  -2252.7 20460022.4  0.1  1 0  564  926  684
[50]  46(B10)  1  7  7  0   -715.4 20460017.9 -0.1  1 0  454  789  909
[51]  54(B18)  1  7  7  0  -1062.8 20460016.5 -0.0  1 0  291  347  851
[52]  55(B19)  1  7  7  0  -3074.3 20460060.9 -0.2  1 0  767  590  707
[53]  68(B32)  1  7  7  0   1041.6 20459980.8  0.1  1 0  210  347  391
$GNGGA,031632.836,,,,,0,00,,,M,,,,0000*23
$GNRMC,031632.836,A,,,,,,,030419,,*21
$GPGSA,A,1,,,,,,,,,,,,,,,*1E
$BDGSA,A,1,,,,,,,,,,,,,,,*0F
$GLGSA,A,1,,,,,,,,,,,,,,,*02
$GPGSV,1,1,04,03,00,000,45,16,00,000,40,22,00,000,42,23,00,000,43*7C
$BDGSV,2,1,05,05,00,000,41,10,00,000,41,18,00,000,42,19,00,000,42*6B
$BDGSV,2,2,05,32,00,000,41*59
$B3CN0,0,0,0,0,0,0,0,0,0,0,0,0,0,0*4C
---00000026--- Acq_st=3 0  2000-1-1 0:2:19 
[00]  02(G03)  f 44  7  0   -378.7  2046000.4  0.1  2 0 1522 2382  868
[01]  15(G16)  f 39  7  0  -2560.2  2046003.3  0.0  2 0  686  963  647
[02]  21(G22)  f 42  7  0    506.3  2045999.2  0.1  2 0 1766 2634  816
[03]  22(G23)  f 43  7  0  -4360.9  2046005.6  0.1  2 0 1480 1924  975
[04]  25(G26)  7  7  8  0   -711.1  2046001.1 -0.1 10 0  349  182  698
[17]  41(B05) 1f 40 23  0  -1105.6  4092002.9 -0.5  2 0 1014 1368  474
[18]  46(B10) 1f 40  7  0  -1128.3  4092002.8  0.1  2 0  929 1303  690
[19]  54(B18) 1f 42  7  0   -991.8  4092002.5 -0.1  2 0 1490 2100  905
[20]  55(B19) 1f 42 13  0  -3742.6  4092009.7  0.0  2 0 1004 1261  663
[21]  68(B32) 1f 41  7  0   1190.6  4091996.7  0.1  2 0  902 1756  607
[32]  75(N-6) 8f 34  7  0  -1780.5  1022001.0 -0.1  5 0   633  747  374
[33]  76(N-5)  f 37  7  0   2265.1  1021998.5  0.1  2 0   325  814  766
[35]  81(N00) 8f 41  7  0  -2763.0  1022001.8 -0.2  2 0   512 1060  714
[50]  46(B10)  1  9  7  0   -269.0 20460017.7  0.0  1 0  519  618  413
[51]  54(B18)  1  7  7  0   -934.8 20460015.9 -0.1  1 0  219  321  294
[52]  55(B19)  1  7  7  0  -3090.1 20460061.6  0.1  1 0  338  475  386
[53]  68(B32)  1 10  9  0   1671.1 20459980.2 -0.0  1 0  452  481  167
$GNGGA,031633.836,,,,,0,00,,,M,,,,0000*22
$GNRMC,031633.836,A,,,,,,,030419,,*20
$GPGSA,A,1,,,,,,,,,,,,,,,*1E
$BDGSA,A,1,,,,,,,,,,,,,,,*0F
$GLGSA,A,1,,,,,,,,,,,,,,,*02
$GPGSV,1,1,04,03,00,000,44,16,00,000,39,22,00,000,42,23,00,000,43*73
$BDGSV,2,1,05,05,00,000,40,10,00,000,40,18,00,000,42,19,00,000,42*6B
$BDGSV,2,2,05,32,00,000,41*59
$B3CN0,0,0,0,0,0,0,0,0,0,0,0,0,0,0*4C
---00000027--- Acq_st=7 0  2000-1-1 0:2:20 
[00]  02(G03)  f 44  7  0   -377.9  2046000.5 -0.0  2 0 1533 2722 1405
[01]  15(G16)  f 40  7  0  -2557.4  2046003.2 -0.1  2 0  407 1194  788
[02]  21(G22)  f 43  7  0    507.9  2045999.2  0.0  2 0 1693 2330  950
[03]  22(G23)  f 43  7  0  -4360.8  2046005.6 -0.0  2 0 1703 2012  732
[04]  25(G26)  7  7  7  0   -846.2  2046001.2 -0.1 10 0  251  119  333
[17]  41(B05) 1f 40 23  0  -1105.4  4092002.7 -0.5  2 0  833 1500 1003
[18]  46(B10) 1f 40  7  0  -1128.2  4092002.8  0.1  2 0  782  970  354
[19]  54(B18) 1f 42  7  0   -994.2  4092002.5  0.0  2 0 1406 1877  997
[20]  55(B19) 1f 41 15  0  -3741.6  4092009.6 -0.0  2 0 1423 1535  707
[21]  68(B32) 1f 41  7  0   1183.7  4091996.8 -0.1  2 0 1296 1747  653
[32]  75(N-6) 8f 35  7  0  -1777.6  1022001.0  0.0  2 0   280  699  455
[33]  76(N-5)  f 38  7  0   2268.9  1021998.6 -0.2  2 0   405  860  435
[34]  80(N-1)  1 28 17  0  -4850.0  1022005.3  0.3  1 0   118  628  565
[35]  81(N00) 8f 39  7  0  -2764.0  1022001.9  0.1  2 0    85  546  421
[49]  41(B05)  1 20 26  0   -854.4 20460020.6 -0.1  1 0  181  538 1090
[50]  46(B10)  1  7  7  0    325.3 20460018.6  0.0  1 0  451  355  276
[51]  54(B18)  1  7  7  0  -1124.6 20460016.5 -0.1  1 0  370  335  289
[52]  55(B19)  1  7  7  0  -2669.9 20460060.0 -0.1  1 0  755  565  224
[53]  68(B32)  1  7  7  0   2109.3 20459981.0 -0.2  1 0  142  728  496
$GNGGA,031634.836,,,,,0,00,,,M,,,,0000*25
$GNRMC,031634.836,A,,,,,,,030419,,*27
$GPGSA,A,1,,,,,,,,,,,,,,,*1E
$BDGSA,A,1,,,,,,,,,,,,,,,*0F
$GLGSA,A,1,,,,,,,,,,,,,,,*02
$GPGSV,1,1,04,03,00,000,44,16,00,000,40,22,00,000,43,23,00,000,43*7C
$BDGSV,2,1,05,05,00,000,40,10,00,000,40,18,00,000,42,19,00,000,41*68
$BDGSV,2,2,05,32,00,000,41*59
$B3CN0,0,0,0,0,0,0,0,0,0,0,0,0,0,0*4C
---00000028--- Acq_st=7 0  2000-1-1 0:2:21 
[00]  02(G03)  f 45  7  0   -376.3  2046000.4 -0.0  2 0 1920 2882  952
[01]  15(G16)  f 39  7  0  -2556.8  2046003.3 -0.2  2 0  658  854  578
[02]  21(G22)  f 43  7  0    513.5  2045999.2 -0.1  2 0 1555 2236  419
[03]  22(G23)  f 43  7  0  -4361.1  2046005.5  0.0  2 0 1485 2236 1014
[17]  41(B05) 1f 42 24  0  -1103.3  4092002.9  0.4  2 0  780 1493  722
[18]  46(B10) 1f 40  7  0  -1128.0  4092002.8 -0.1  2 0  699 1314  713
[19]  54(B18) 1f 42  7  0   -989.0  4092002.5 -0.0  2 0 1232 1347  301
[20]  55(B19) 1f 41 14  0  -3740.1  4092009.7 -0.0  2 0  723 1244  645
[21]  68(B32) 1f 42  7  0   1186.6  4091996.7  0.0  2 0 1213 1431  271
[32]  75(N-6) 8f 36  7  0  -1776.9  1022001.0 -0.0  2 0   568  697  160
[33]  76(N-5)  f 38  7  0   2267.7  1021998.5  0.2  2 0    38  822  784
[34]  80(N-1)  7 28  7  0  -4848.5  1022002.9  0.6 10 0   360  877  502
[35]  81(N00) 8f 36  7  0  -2759.8  1022001.9  0.4  2 0   488  904  723
[49]  41(B05)  1 25 24  1   -273.2 20460017.8 -0.1  1 0  695  182  291
[51]  54(B18)  1  7  7  0  -1256.3 20460017.5  0.0  1 0  868  305  236
[52]  55(B19)  1  7  7  0  -2909.7 20460062.4  0.1  1 0  660  604  146
[53]  68(B32)  1  7  7  0   2363.0 20459978.4 -0.0  1 0  942 1056  254
$GNGGA,031635.836,,,,,0,00,,,M,,,,0000*24
$GNRMC,031635.836,A,,,,,,,030419,,*26
$GPGSA,A,1,,,,,,,,,,,,,,,*1E
$BDGSA,A,1,,,,,,,,,,,,,,,*0F
$GLGSA,A,1,,,,,,,,,,,,,,,*02
$GPGSV,1,1,04,03,00,000,45,16,00,000,39,22,00,000,43,23,00,000,43*73
$BDGSV,2,1,05,05,00,000,42,10,00,000,40,18,00,000,42,19,00,000,41*6A
$BDGSV,2,2,05,32,00,000,42*5A
$B3CN0,0,0,0,0,0,0,0,0,0,0,0,0,0,0*4C
---00000029--- Acq_st=3 0  2000-1-1 0:2:22 
[00]  02(G03)  f 45  7  0   -376.0  2046000.4 -0.0  2 0 1759 3033 1644
[01]  15(G16)  f 39  7  0  -2553.8  2046003.3  0.1  2 0  645 1012  856
[02]  21(G22)  f 44  7  0    510.7  2045999.3  0.0  2 0 1597 2420  951
[03]  22(G23)  f 43  7  0  -4361.8  2046005.6  0.0  2 0 1138 1869  786
[17]  41(B05) 1f 41 23  0  -1105.7  4092002.7 -0.5  2 0 1416 1296  369
[18]  46(B10) 1f 40  7  0  -1124.9  4092002.8  0.1  2 0  889  868  102
[19]  54(B18) 1f 42  7  0   -991.1  4092002.5  0.1  2 0  976 1379  573
[20]  55(B19) 1f 41 15  0  -3739.1  4092009.7  0.0  2 0 1248 1528  454
[21]  68(B32) 1f 41  7  0   1184.3  4091996.8 -0.0  2 0 1531 1731  735
[32]  75(N-6) 8f 36  7  0  -1776.2  1022001.1 -0.2  2 0   594  697  489
[33]  76(N-5)  f 37  7  0   2266.8  1021998.6 -0.2  2 0   309  561  353
[34]  80(N-1)  7 39 19  0  -4847.6  1022003.0  0.4  2 0   483  795  391
[35]  81(N00) 8f 32  7  0  -2826.9  1022002.0 -0.1  5 0   296  757  522
[49]  41(B05)  1 28 22  0      5.1 20460020.8 -0.1  1 0  360  432  391
[50]  46(B10)  1  7  7  0  -1194.8 20460018.1  0.0  1 0  495  701 1179
$GNGGA,031636.836,,,,,0,00,,,M,,,,0000*27
$GNRMC,031636.836,A,,,,,,,030419,,*25
$GPGSA,A,1,,,,,,,,,,,,,,,*1E
$BDGSA,A,1,,,,,,,,,,,,,,,*0F
$GLGSA,A,1,,,,,,,,,,,,,,,*02
$GPGSV,1,1,04,03,00,000,45,16,00,000,39,22,00,000,44,23,00,000,43*74
$BDGSV,2,1,05,05,00,000,41,10,00,000,40,18,00,000,42,19,00,000,41*69
$BDGSV,2,2,05,32,00,000,41*59
$B3CN0,0,0,0,0,0,0,0,0,0,0,0,0,0,0*4C
---00000030--- Acq_st=3 0  2000-1-1 0:2:23 
[00]  02(G03)  f 44  7  0   -374.7  2046000.4  0.0  2 0 1607 2822 1033
[01]  15(G16)  f 39  7  0  -2558.5  2046003.2  0.0  2 0 1189 1287  181
[02]  21(G22)  f 44  7  0    511.6  2045999.3  0.0  2 0  993 2218 1377
[03]  22(G23)  f 42  7  0  -4357.6  2046005.7 -0.1  2 0 1096 2146 1243
[04]  25(G26)  1  7  7  0   -250.0  2046000.4  0.0  1 0  658  256  221
[17]  41(B05) 1f 40 22  0  -1107.7  4092002.8  0.2  2 0  874 1166  616
[18]  46(B10) 1f 40  7  0  -1127.7  4092002.8  0.0  2 0 1024  928  283
[19]  54(B18) 1f 42  7  0   -988.4  4092002.5 -0.0  2 0 1930 1539  494
[20]  55(B19) 1f 41 13  0  -3738.2  4092009.7 -0.1  2 0  965 1593  711
[21]  68(B32) 1f 41  7  0   1189.1  4091996.7  0.0  2 0  934 1199  583
[32]  75(N-6) 8f 36  7  0  -1775.2  1022001.2 -0.1  2 0   261  456   39
[33]  76(N-5)  f 36  7  0   2266.3  1021998.6  0.1  2 0   386  852  402
[34]  80(N-1)  7 39 17  0  -4847.7  1022003.0 -0.7  2 0   645  911  446
[35]  81(N00) 8f  7  7  0  -2942.1  1022001.8 -0.0 10 0   468  361  201
[49]  41(B05)  1 23 19  0     81.6 20460020.6 -0.1  1 0  506  141  235
[50]  46(B10)  1  7  7  0   -366.1 20460018.8 -0.1  1 0  446  289  315
[51]  54(B18)  1  7  7  0   -831.0 20460015.4  0.1  1 0  877  904  609
[52]  55(B19)  1 12  7  0  -2766.3 20460060.3  0.2  1 0  178  179  399
[53]  68(B32)  1  7  7  0   1516.2 20459980.7 -0.0  1 0  724  497  561
$GNGGA,031637.836,,,,,0,00,,,M,,,,0000*26
$GNRMC,031637.836,A,,,,,,,030419,,*24
$GPGSA,A,1,,,,,,,,,,,,,,,*1E
$BDGSA,A,1,,,,,,,,,,,,,,,*0F
$GLGSA,A,1,,,,,,,,,,,,,,,*02
$GPGSV,1,1,04,03,00,000,44,16,00,000,39,22,00,000,44,23,00,000,42*74
$BDGSV,2,1,05,05,00,000,40,10,00,000,40,18,00,000,42,19,00,000,41*68
$BDGSV,2,2,05,32,00,000,41*59
$B3CN0,0,0,0,0,0,0,0,0,0,0,0,0,0,0*4C
---00000031--- Acq_st=3 0  2000-1-1 0:2:24 
[00]  02(G03)  f 44  7  0   -370.1  2046000.4  0.0  2 0 1870 2756 1257
[01]  15(G16)  f 39  7  0  -2555.4  2046003.2  0.1  2 0  923 1607  750
[02]  21(G22)  f 43  8  0    513.5  2045999.3  0.0  2 0 1850 2664 1213
[03]  22(G23)  f 42  7  0  -4357.1  2046005.6  0.1  2 0 1515 1768  616
[04]  25(G26)  1  7  7  0   -747.6  2045999.8 -0.1  1 0  316  388  497
[16]  38(B02)  1 18 27  1  -1000.0  4092001.9 -0.1  1 0  399  458  755
[17]  41(B05) 1f 41 22  0  -1102.8  4092002.8  0.3  2 0  647 1437  904
[18]  46(B10) 1f 40  7  0  -1122.6  4092002.8 -0.0  2 0  986 1328  464
[19]  54(B18) 1f 41  7  0   -984.4  4092002.5 -0.0  2 0 1460 1568  647
[20]  55(B19) 1f 41 16  0  -3737.6  4092009.7  0.1  2 0  696  988  520
[21]  68(B32) 1f 41  7  0   1189.3  4091996.8 -0.0  2 0 1437 1845 1308
[32]  75(N-6) 8f 35  7  0  -1771.6  1022001.1  0.1  2 0   455  701  568
[33]  76(N-5)  f 35  7  0   2270.2  1021998.6  0.1  2 0   215  325  182
[34]  80(N-1)  f 34  8  0  -4845.9  1022003.0  0.8  5 0   509  772  255
[35]  81(N00) 8f  7  7  0  -3047.6  1022001.9 -0.0 10 0   296  202  170
[50]  46(B10)  1  7  7  0   -268.9 20460017.7  0.1  1 0  511  175  373
[51]  54(B18)  1  7  7  0     42.3 20460016.5 -0.0  1 0  901  709  860
[52]  55(B19)  1  7  7  0  -2896.5 20460060.9  0.1  1 0  790  523  624
[53]  68(B32)  1  8  7  0   1246.4 20459981.4 -0.1  1 0  227   95  419
$GNGGA,031638.836,,,,,0,00,,,M,,,,0000*29
$GNRMC,031638.836,A,,,,,,,030419,,*2B
$GPGSA,A,1,,,,,,,,,,,,,,,*1E
$BDGSA,A,1,,,,,,,,,,,,,,,*0F
$GLGSA,A,1,,,,,,,,,,,,,,,*02
$GPGSV,1,1,04,03,00,000,44,16,00,000,39,22,00,000,43,23,00,000,42*73
$BDGSV,2,1,05,05,00,000,41,10,00,000,40,18,00,000,41,19,00,000,41*6A
$BDGSV,2,2,05,32,00,000,41*59
$B3CN0,0,0,0,0,0,0,0,0,0,0,0,0,0,0*4C
$GLGSV,1,1,01,04,00,000,35*56
---00000032--- Acq_st=3 0  2000-1-1 0:2:25 
[00]  02(G03)  f 44  7  0   -374.5  2046000.4  0.0  2 0 1512 2542 1518
[01]  15(G16)  f 40  7  0  -2552.4  2046003.2 -0.1  2 0 1050 1641  994
[02]  21(G22)  f 44  7  0    512.6  2045999.3 -0.1  2 0 1408 2322  962
[03]  22(G23)  f 41  7  0  -4368.4  2046005.6  0.0  2 0 1192 1852  681
[04]  25(G26)  1  7  7  0  -1091.4  2045999.8 -0.1  1 0  455  287  289
[16]  38(B02)  1 16 18  0  -1215.9  4092002.3  0.1  1 0  290  193  502
[17]  41(B05) 1f 41 22  0  -1108.7  4092002.7  0.2  2 0  807  964  233
[18]  46(B10) 1f 40  7  0  -1129.2  4092002.8 -0.2  2 0 1094 1464  854
[19]  54(B18) 1f 42  7  0   -986.9  4092002.5 -0.0  2 0 1006 1297  630
[20]  55(B19) 1f 40 14  0  -3739.6  4092009.7  0.1  2 0  707 1466  667
[21]  68(B32) 1f 41  7  0   1185.2  4091996.8 -0.0  2 0 1264 1469  702
[32]  75(N-6) 8f 36  7  0  -1772.1  1022001.0  0.0  2 0   791  512  143
[33]  76(N-5)  f 35  7  0   2265.6  1021998.5  0.0  2 0   656  653  208
[34]  80(N-1)  f 38  7  0  -4847.2  1022003.0  0.7  2 0   518  803  390
[35]  81(N00) 8f  7  7  0  -3115.9  1022002.0 -0.1 10 0   418  565  297
[49]  41(B05)  1 25 16  1   -857.8 20460018.3  0.0  1 0  932  741  461
[50]  46(B10)  1  7  7  0   -317.1 20460019.4 -0.0  1 0  173  451  247
[51]  54(B18)  1  7  7  0    120.6 20460014.6  0.1  1 0  311  863  905
[52]  55(B19)  1  7  7  0  -3173.3 20460059.8 -0.1  1 0  533  267  224
[53]  68(B32)  1  7  7  0    927.5 20459982.8 -0.1  1 0  270  334  412
$GNGGA,031639.836,,,,,0,00,,,M,,,,0000*28
$GNRMC,031639.836,A,,,,,,,030419,,*2A
$GPGSA,A,1,,,,,,,,,,,,,,,*1E
$BDGSA,A,1,,,,,,,,,,,,,,,*0F
$GLGSA,A,1,,,,,,,,,,,,,,,*02
$GPGSV,1,1,04,03,00,000,44,16,00,000,40,22,00,000,44,23,00,000,41*79
$BDGSV,2,1,05,05,00,000,41,10,00,000,40,18,00,000,42,19,00,000,40*68
$BDGSV,2,2,05,32,00,000,41*59
$B3CN0,0,0,0,0,0,0,0,0,0,0,0,0,0,0*4C
$GLGSV,1,1,01,04,00,000,36*55
---00000033--- Acq_st=3 0  2000-1-1 0:2:26 
[00]  02(G03)  f 43  7  0   -375.0  2046000.4  0.0  2 0 2028 2494 1410
[01]  15(G16)  f 40  7  0  -2555.7  2046003.2  0.1  2 0 1222 1553  965
[02]  21(G22)  f 43  7  0    510.9  2045999.3  0.0  2 0 1734 2558  519
[03]  22(G23)  f 41  7  0  -4361.8  2046005.6  0.1  2 0  911 1754 1348
[04]  25(G26)  1  7  7  0  -1973.8  2046000.0 -0.1  1 0  155  352  204
[16]  38(B02)  1 28 16  0  -1150.9  4092005.8 -0.0  1 0  200  326  589
[17]  41(B05) 1f 40 23  0  -1105.2  4092002.7  0.3  2 0 1423 1756  619
[18]  46(B10) 1f 40  7  0  -1127.2  4092002.8 -0.0  2 0  981 1438  292
[19]  54(B18) 1f 41  9  0   -989.8  4092002.5 -0.0  2 0 1421 2018 1025
[20]  55(B19) 1f 40 14  0  -3738.0  4092009.7 -0.0  2 0 1116 1380  789
[21]  68(B32) 1f 41  7  0   1189.1  4091996.8 -0.0  2 0  914  972  392
[32]  75(N-6) 8f 37  7  0  -1772.3  1022001.1 -0.1  2 0   731  870  292
[33]  76(N-5)  f 37  7  0   2266.5  1021998.5 -0.0  2 0   744  786  222
[34]  80(N-1)  f 37  7  0  -4848.9  1022003.1  0.1  2 0   201  150  373
[49]  41(B05)  1 23 24  1   -899.7 20460016.1  0.0  1 0  849 1121 1313
[51]  54(B18)  1  7  7  0    289.0 20460016.1  0.1  1 0  675  891  793
[52]  55(B19)  1  7  7  0  -3039.1 20460061.0 -0.1  1 0  739  491  384
[53]  68(B32)  1  7  7  0    960.9 20459981.3  0.1  1 0  511  351  154
$GNGGA,031640.704,2944.9386,N,10632.9910,E,1,05,6.2,474.6,M,,,,0000*1A
$GNRMC,031640.704,A,2944.9386,N,10632.9910,E,0.50,0.00,030419,,*1C
$GPGSA,A,3,03,16,22,23,,,,,,,,,9.6,6.2,7.3*38
$BDGSA,A,3,,,,,,,,,,,,,9.6,6.2,7.3*2C
$GLGSA,A,3,05,,,,,,,,,,,,9.6,6.2,7.3*24
$GPGSV,1,1,04,03,00,000,43,16,00,000,40,22,00,000,43,23,00,000,41*79
$BDGSV,2,1,05,05,00,000,41,10,00,000,40,18,00,000,41,19,00,000,40*6B
$BDGSV,2,2,05,32,00,000,41*59
$B3CN0,0,0,0,0,0,0,0,0,0,0,0,0,0,0*4C
$GLGSV,1,1,01,04,00,000,37*54
---00000034--- Acq_st=3 0  2019-4-3 3:16:41 
[00]  02(G03)  f 44  7  0   -376.2  2046000.4  0.1  2 0 1623 2598 1175
[01]  15(G16)  f 41  7  0  -2553.0  2046003.2 -0.0  2 0 1547 1834  498
[02]  21(G22)  f 43  7  0    514.8  2045999.3 -0.1  2 0  799 1887  721
[03]  22(G23)  f 42  7  0  -4360.9  2046005.6 -0.0  2 0  998 2149 1185
[04]  25(G26)  1  7  7  0  -2084.4  2046000.4  0.0  1 0   45  516  230
[16]  38(B02)  f 40 22  0  -1111.4  4092003.1  0.6  2 0  411 1096  955
[17]  41(B05) 1f 41 24  0  -1107.6  4092002.8  0.7  2 0 1155 1197  500
[18]  46(B10) 1f 40  7  0  -1125.5  4092002.9  0.0  2 0  996 1484  463
[19]  54(B18) 1f 42  7  0   -989.0  4092002.5 -0.0  2 0 1061 1502  657
[20]  55(B19) 1f 41 14  0  -3741.0  4092009.7  0.1  2 0  670 1080  374
[21]  68(B32) 1f 41  7  0   1187.9  4091996.8  0.0  2 0 1080 1073  339
[32]  75(N-6) 8f 38  7  0  -1769.1  1022001.1 -0.1  2 0   330 1034  482
[33]  76(N-5)  f 38  7  0   2269.4  1021998.4  0.0  2 0   397  578  507
[34]  80(N-1)  f 34  7  0  -4862.3  1022003.1  0.1  2 0   522  632  425
[49]  41(B05)  1 23 23  1   -933.0 20460017.7  0.1  1 0  197  393  591
[50]  46(B10)  1  7  7  0  -1138.1 20460017.3 -0.0  1 0  305  423  857
Refix G03: 2, 271019.925506, -372
Refix G16: 2, 271019.932021, -2553
Refix G22: 2, 271019.923988, 513
Refix G23: 2, 271019.921054, -4361
Refix G31: 1, 271019.926826, 293
$GNGGA,031642.000,2944.9365,N,10632.9856,E,1,05,2.5,456.9,M,,,,0000*19
$GNRMC,031642.000,A,2944.9365,N,10632.9856,E,1.01,0.00,030419,,*16
$GPGSA,A,3,03,16,22,23,,,,,,,,,2.8,2.5,1.3*38
$BDGSA,A,3,,,,,,,,,,,,,2.8,2.5,1.3*2C
$GLGSA,A,3,04,,,,,,,,,,,,2.8,2.5,1.3*25
$GPGSV,1,1,04,03,00,000,44,16,00,000,41,22,00,000,43,23,00,000,42*7C
$BDGSV,2,1,06,02,00,000,40,05,00,000,41,10,00,000,40,18,00,000,42*61
$BDGSV,2,2,06,19,00,000,41,32,00,000,41*67
$B3CN0,0,0,0,0,0,0,0,0,0,0,0,0,0,0*4C
$GLGSV,1,1,01,04,00,000,38*5B
---00000035--- Acq_st=2 0  2019-4-3 3:16:42 
[00]  02(G03)  f 44  7  0   -373.9  2046000.4  0.0  2 0 1379 2246 1300
[01]  15(G16)  f 41 11  0  -2549.7  2046003.2 -0.0  2 0 1428 2049  728
[02]  21(G22)  f 43  7  0    513.1  2045999.3  0.0  2 0 1387 2531 1229
[03]  22(G23)  f 42  7  0  -4360.8  2046005.6  0.0  2 0 1634 2110 1042
[16]  38(B02) 1f 40 22  0  -1102.2  4092002.9  0.6  2 0 1009 1519  882
[17]  41(B05) 1f 41 26  0  -1106.4  4092002.8 -0.6  2 0  912 1287  419
[18]  46(B10) 1f 40  7  0  -1126.8  4092002.8  0.0  2 0  415 1228  881
[19]  54(B18) 1f 42  7  0   -986.9  4092002.5  0.0  2 0 1113 1594  584
[20]  55(B19) 1f 41 15  0  -3739.3  4092009.7  0.1  2 0 1300 1598  863
[21]  68(B32) 1f 41  7  0   1193.0  4091996.7  0.0  2 0  733 1079  632
[32]  75(N-6) 8f 38  7  0  -1768.7  1022001.1  0.1  2 0   755  676  268
[33]  76(N-5)  f 37  7  0   2270.0  1021998.6  0.0  2 0   452  889  607
[34]  80(N-1)  f 30  7  0  -4846.7  1022003.0  0.1  5 0   599  407  216
[48]  38(B02)  1 10 10  1   -735.6 20460020.9  0.0  1 0  237  228  119
[49]  41(B05)  1 25 20  0   -869.5 20460018.6  0.0  1 0  539  285  604
[50]  46(B10)  1  7  7  0   -895.7 20460018.8 -0.0  1 0  535  477   47
[51]  54(B18)  1  7  7  0   -766.9 20460016.0  0.1  1 0  716  811  810
[52]  55(B19)  1  7  7  0  -2845.7 20460060.0 -0.1  1 0   51  415  335
[53]  68(B32)  1  9  8  0    738.6 20459979.8 -0.0  1 0  897  368  479
Refix G03: 2, 271020.925506, -369
Refix G16: 2, 271020.932023, -2549
Refix G22: 2, 271020.923988, 515
Refix G23: 2, 271020.921057, -4360
Refix G31: 1, 271020.926826, 296
$GNGGA,031643.000,2944.9367,N,10632.9848,E,1,05,2.5,452.5,M,,,,0000*1D
$GNRMC,031643.000,A,2944.9367,N,10632.9848,E,0.99,0.00,030419,,*1A
$GPGSA,A,3,03,16,22,23,,,,,,,,,2.8,2.5,1.3*38
$BDGSA,A,3,,,,,,,,,,,,,2.8,2.5,1.3*2C
$GLGSA,A,3,04,,,,,,,,,,,,2.8,2.5,1.3*25
$GPGSV,2,1,05,03,35,267,44,16,64,232,41,22,32,241,43,23,24,317,42*7F
$GPGSV,2,2,05,31,42,052,00*4F
$BDGSV,2,1,08,02,00,000,41,05,00,000,41,10,00,000,40,18,00,000,42*6E
$BDGSV,2,2,08,19,00,000,41,32,00,000,41,13,87,163,00,25,50,036,00*67
$B3CN0,0,0,0,0,0,0,0,0,0,0,0,0,0,0*4C
$GLGSV,1,1,01,04,62,289,38*5C
---00000036--- Acq_st=7 0  2019-4-3 3:16:43 
[00]  02(G03)  f 44  7  0   -368.5  2046000.4 -0.1  2 0 1794 2876 1259
[01]  15(G16)  f 41  7  0  -2549.0  2046003.2  0.0  2 0 1279 1648  704
[02]  21(G22)  f 44  7  0    515.7  2045999.2  0.0  2 0 1096 2216 1148
[03]  22(G23)  f 43  7  0  -4359.9  2046005.6 -0.1  2 0 1430 2105  827
[16]  38(B02) 1f 41 21  0  -1103.7  4092002.9  0.9  2 0 1002 1680 1157
[17]  41(B05) 1f 40 26  0  -1103.8  4092002.9 -0.3  2 0 1302 1234  514
[18]  46(B10) 1f 40  7  0  -1124.2  4092002.8  0.0  2 0  592  846   79
[19]  54(B18) 1f 42  7  0   -988.7  4092002.4  0.1  2 0 1516 1852 1037
[20]  55(B19) 1f 41 13  0  -3738.6  4092009.7 -0.0  2 0  890  918  370
[21]  68(B32) 1f 41  7  0   1193.3  4091996.8 -0.0  2 0  790 1236  676
[32]  75(N-6) 8f 37  7  0  -1766.3  1022001.1  0.2  2 0   123  595  518
[33]  76(N-5)  f 36  8  0   2272.7  1021998.6  0.0  2 0   234  568  413
[34]  80(N-1)  f 21  7  0  -4764.6  1022002.9 -0.1 10 0   385  577  136
[48]  38(B02)  1 10 14  1   -236.5 20460018.4 -0.1  1 0  684  576  533
[50]  46(B10)  1  7  7  0   -844.3 20460019.0  0.1  1 0  606  577  865
[51]  54(B18)  1  7  7  0    533.2 20460015.4  0.0  1 0 1081 1087  708
[52]  55(B19)  1  9  7  0  -3055.7 20460060.9 -0.1  1 0  596  159  717
[53]  68(B32)  1 10  7  0   1037.1 20459980.6  0.1  1 0  286  522  328
Refix G03: 2, 271021.925506, -367
Refix G16: 2, 271021.932025, -2548
Refix G22: 2, 271021.923988, 518
Refix G23: 2, 271021.921060, -4357
Refix G31: 1, 271021.926826, 297
$GNGGA,031644.000,2944.9367,N,10632.9832,E,1,05,2.5,453.9,M,,,,0000*1A
$GNRMC,031644.000,A,2944.9367,N,10632.9832,E,1.21,0.00,030419,,*12
$GPGSA,A,3,03,16,22,23,,,,,,,,,2.8,2.5,1.3*38
$BDGSA,A,3,,,,,,,,,,,,,2.8,2.5,1.3*2C
$GLGSA,A,3,04,,,,,,,,,,,,2.8,2.5,1.3*25
$GPGSV,2,1,05,03,35,267,44,16,64,232,41,22,32,241,44,23,24,317,43*79
$GPGSV,2,2,05,31,42,052,00*4F
$BDGSV,2,1,08,02,00,000,41,05,00,000,40,10,00,000,40,18,00,000,42*6F
$BDGSV,2,2,08,19,00,000,41,32,00,000,41,13,87,163,00,25,50,036,00*67
$B3CN0,0,0,0,0,0,0,0,0,0,0,0,0,0,0*4C
$GLGSV,1,1,01,04,62,289,37*53
---00000037--- Acq_st=7 0  2019-4-3 3:16:44 
[00]  02(G03)  f 44  7  0   -368.0  2046000.4  0.0  2 0 1550 2468 1229
[01]  15(G16)  f 41  7  0  -2548.1  2046003.3  0.1  2 0  611 1359  575
[02]  21(G22)  f 43  7  0    518.3  2045999.2 -0.0  2 0 1463 2143 1045
[03]  22(G23)  f 43  7  0  -4355.9  2046005.6  0.1  2 0  920 1942  788
[16]  38(B02) 1f 41 26  0  -1101.2  4092002.8 -0.5  2 0  742 1634  825
[17]  41(B05) 1f 41 23  0  -1099.5  4092002.8 -0.1  2 0 1197 1525  820
[18]  46(B10) 1f 40  7  0  -1123.7  4092002.8 -0.1  2 0  700 1235  713
[19]  54(B18) 1f 42  7  0   -986.7  4092002.4  0.0  2 0 1257 1661  465
[20]  55(B19) 1f 41 11  0  -3732.5  4092009.6 -0.1  2 0 1339 1309  636
[21]  68(B32) 1f 40  7  0   1191.9  4091996.8 -0.1  2 0 1330 1186  144
[32]  75(N-6) 8f 37  8  0  -1765.2  1022001.2  0.3  2 0   522  656  802
[33]  76(N-5)  f 36  7  0   2275.7  1021998.5 -0.0  2 0   233  565  478
[34]  80(N-1)  f  7  7  0  -4796.3  1022002.8 -0.1 10 0   408  294   99
[48]  38(B02)  1 10 10  1    198.5 20460017.0  0.2  1 0  238  522  374
[49]  41(B05)  1 25 23  1  -1277.5 20460014.3 -0.1  1 0  333 1076  478
[50]  46(B10)  1  7  7  0   -671.0 20460019.5  0.1  1 0  360  238  680
[51]  54(B18)  1  7  7  0    335.1 20460013.7  0.1  1 0  289  149  295
[52]  55(B19)  1  7  7  0  -3344.8 20460060.1 -0.1  1 0   86  294  262
[53]  68(B32)  1 13  7  0   1032.8 20459980.0  0.0  1 0  219  111  383
BDS IONO corr PRN[10] 66.56 263.33 1.62
usrllh latitude:0.519217 longitude:1.859643
ion_pt: a0:0.000000 a1:0.000000 a2:-0.000002 a3:0.000004 b0:157696.000000 b1:-901120.000000 b2:4587520.000000 b3:-2424832.000000 
BDS IONO corr PRN[19] 5.44 323.42 4.40
usrllh latitude:0.519217 longitude:1.859643
ion_pt: a0:0.000000 a1:0.000000 a2:-0.000002 a3:0.000004 b0:157696.000000 b1:-901120.000000 b2:4587520.000000 b3:-2424832.000000 
BDS IONO corr PRN[32] 45.66 205.47 2.00
usrllh latitude:0.519217 longitude:1.859643
ion_pt: a0:0.000000 a1:0.000000 a2:-0.000002 a3:0.000004 b0:157696.000000 b1:-901120.000000 b2:4587520.000000 b3:-2424832.000000 
Refix G03: 2, 271022.925507, -364
Refix G16: 2, 271022.932026, -2546
Refix G22: 2, 271022.923987, 520
Refix G23: 2, 271022.921062, -4354
Refix G31: 1, 271022.926826, 299
$GNGGA,031645.000,2944.9371,N,10632.9825,E,1,05,2.5,457.3,M,,,,0000*14
$GNRMC,031645.000,A,2944.9371,N,10632.9825,E,1.13,0.00,030419,,*13
$GPGSA,A,3,03,16,22,23,,,,,,,,,2.8,2.5,1.3*38
$BDGSA,A,3,19,,,,,,,,,,,,2.8,2.5,1.3*24
$GLGSA,A,3,,,,,,,,,,,,,2.8,2.5,1.3*21
$GPGSV,2,1,05,03,35,267,44,16,64,232,41,22,32,241,43,23,24,317,43*7E
$GPGSV,2,2,05,31,42,052,00*4F
$BDGSV,2,1,08,02,00,000,41,05,00,000,41,10,00,000,40,18,00,000,42*6E
$BDGSV,2,2,08,19,00,000,41,32,00,000,40,13,87,163,00,25,50,036,00*66
$B3CN0,0,0,0,0,0,0,0,0,0,0,0,0,0,0*4C
$GLGSV,1,1,01,04,62,289,37*53
---00000038--- Acq_st=3 0  2019-4-3 3:16:45 
[00]  02(G03)  f 44  7  0   -364.6  2046000.4 -0.0  2 0 2426 3186 1732
[01]  15(G16)  f 41  7  0  -2545.7  2046003.3  0.0  2 0 1095 1842 1085
[02]  21(G22)  f 43  7  0    520.7  2045999.3 -0.0  2 0 1560 2430  790
[03]  22(G23)  f 44  7  0  -4357.2  2046005.6 -0.0  2 0 1672 2526 1472
[16]  38(B02) 1f 40 26  0  -1100.1  4092002.9 -0.0  2 0  568 1020  361
[17]  41(B05) 1f 41 22  0  -1102.6  4092002.7  0.1  2 0 1057 1453  518
[18]  46(B10) 1f 40  7  0  -1123.1  4092002.8  0.1  2 0  753 1334  352
[19]  54(B18) 1f 42  7  0   -986.1  4092002.5 -0.1  2 0 1234 1290  378
[20]  55(B19) 1f 41 11  0  -3733.7  4092009.6 -0.0  2 0 1516 1602  685
[21]  68(B32) 1f 41  7  0   1193.6  4091996.7  0.1  2 0  983 1331  644
[32]  75(N-6) 8f 36  7  0  -1762.3  1022001.0  0.0  2 0   381  443  266
[33]  76(N-5)  f 37  7  0   2278.4  1021998.5 -0.0  2 0   639 1152  599
[34]  80(N-1)  f  7  7  0  -4795.7  1022002.8  0.1 10 0   216  327  173
[48]  38(B02)  f 20 10  0    855.6 20459987.8 -0.0  2 0  548  385  799
[49]  41(B05)  1 23 23  1  -1074.2 20460018.2  0.1  1 0  740  552  507
[51]  54(B18)  1  7  7  0    293.0 20460014.6 -0.0  1 0  369  250  192
[52]  55(B19)  1  7  7  0  -4052.0 20460063.9  0.2  1 0  155  277  309
[53]  68(B32)  1  7  7  0    612.0 20459982.3  0.0  1 0  351  447  493
BDS IONO corr PRN[10] 66.56 263.33 1.62
usrllh latitude:0.519217 longitude:1.859643
ion_pt: a0:0.000000 a1:0.000000 a2:-0.000002 a3:0.000004 b0:157696.000000 b1:-901120.000000 b2:4587520.000000 b3:-2424832.000000 
BDS IONO corr PRN[19] 5.44 323.42 4.40
usrllh latitude:0.519217 longitude:1.859643
ion_pt: a0:0.000000 a1:0.000000 a2:-0.000002 a3:0.000004 b0:157696.000000 b1:-901120.000000 b2:4587520.000000 b3:-2424832.000000 
BDS IONO corr PRN[32] 45.66 205.47 2.00
usrllh latitude:0.519217 longitude:1.859643
ion_pt: a0:0.000000 a1:0.000000 a2:-0.000002 a3:0.000004 b0:157696.000000 b1:-901120.000000 b2:4587520.000000 b3:-2424832.000000 
Refix G03: 2, 271023.925507, -361
Refix G16: 2, 271023.932028, -2542
Refix G22: 2, 271023.923987, 522
Refix G23: 2, 271023.921065, -4351
Refix G31: 1, 271023.926825, 305
$GNGGA,031646.000,2944.9347,N,10632.9878,E,1,08,1.9,443.0,M,,,,0000*1E
$GNRMC,031646.000,A,2944.9347,N,10632.9878,E,0.21,0.00,030419,,*1D
$GPGSA,A,3,03,16,22,23,,,,,,,,,2.2,1.9,1.0*3E
$BDGSA,A,3,10,19,32,,,,,,,,,,2.2,1.9,1.0*22
$GLGSA,A,3,04,,,,,,,,,,,,2.2,1.9,1.0*23
$GPGSV,2,1,05,03,35,267,44,16,64,232,41,22,32,241,43,23,24,317,44*79
$GPGSV,2,2,05,31,42,052,00*4F
$BDGSV,2,1,08,02,00,000,40,05,00,000,40,10,66,263,40,18,00,000,42*69
$BDGSV,2,2,08,19,05,323,41,32,45,205,41,13,87,163,00,25,50,036,00*66
$B3CN0,0,20,0,0,0,0,0,0,0,0,0,0,0,0*7E
$GLGSV,1,1,01,04,62,289,36*52
---00000039--- Acq_st=3 0  2019-4-3 3:16:46 
[00]  02(G03)  f 44  7  0   -367.9  2046000.4  0.0  2 0 1983 2720 1380
[01]  15(G16)  f 41 11  0  -2549.8  2046003.3  0.1  2 0 1016 1505 1119
[02]  21(G22)  f 44  7  0    516.3  2045999.3 -0.1  2 0 1139 2669 1279
[03]  22(G23)  f 44  7  0  -4356.4  2046005.6 -0.0  2 0 1320 1840  742
[16]  38(B02) 1f 40 25  0  -1108.0  4092002.8 -0.7  2 0  937 1109  745
[17]  41(B05) 1f 40 24  0  -1106.1  4092002.8 -0.0  2 0 1289 1587  645
[18]  46(B10) 1f 40  7  0  -1124.1  4092002.8 -0.1  2 0  727 1064  243
[19]  54(B18) 1f 42  7  0   -987.4  4092002.5  0.0  2 0  959 1423  695
[20]  55(B19) 1f 41 14  0  -3733.3  4092009.7  0.1  2 0 1458 1414  289
[21]  68(B32) 1f 40  7  0   1195.7  4091996.7  0.0  2 0  784 1360  750
[32]  75(N-6) 8f 36  7  0  -1766.9  1022001.1 -0.0  2 0   209  677  447
[33]  76(N-5)  f 38  7  0   2273.5  1021998.6  0.1  2 0   346  559  302
