i=1
Rf R0 Config = ff777073
Rf R1 Config = 00dffbfe
Rf R52 Config = 00dfef40
i=2
Rf R0 Config = 807772f3
Rf R1 Config = 00d9fbf6
Rf R52 Config = 00dbce50
i=3
Rf R0 Config = 807772f3
Rf R1 Config = 00df1bea
Rf R52 Config = 00deceb0
i=4
Rf R0 Config = c8777273
Rf R1 Config = 00df5bfe
Rf R52 Config = 00de4e60
SD initialized success
Create debug.log Failed! 3
Start Channel by LuYu
$GNGGA,000000.000,,,,,0,00,,,M,,,,0000*2B
$GNRMC,000000.000,A,,,,,,,060180,,*29
$GPGSA,A,1,,,,,,,,,,,,,,,*1E
$BDGSA,A,1,,,,,,,,,,,,,,,*0F
$GLGSA,A,1,,,,,,,,,,,,,,,*02
$B3CN0,0,0,0,0,0,0,0,0,0,0,0,0,0,0*4C
---00000001--- Acq_st=3 0  2019-4-3 9:4:17 
[00]  03(G04)  1 18  7  0   1404.7  2045998.4  0.1  1 0 1186 1155  385
[01]  06(G07)  1 20  7  0    750.0  2046000.5 -0.1  1 0 1610 2755 1200
[02]  12(G13)  1  7  7  0  -1250.0  2046002.2  0.0  1 0  197  367  920
$GNGGA,000000.000,,,,,0,00,,,M,,,,0000*2B
$GNRMC,000000.000,A,,,,,,,060180,,*29
$GPGSA,A,1,,,,,,,,,,,,,,,*1E
$BDGSA,A,1,,,,,,,,,,,,,,,*0F
$GLGSA,A,1,,,,,,,,,,,,,,,*02
$B3CN0,0,0,0,0,0,0,0,0,0,0,0,0,0,0*4C
---00000002--- Acq_st=3 0  2019-4-3 9:4:18 
[00]  03(G04)  7 14  7  0   1407.9  2045998.1  1.0 10 0 1064 1333  452
[01]  06(G07)  1 32  7  0    779.1  2045998.6  1.0  1 0 1920 2216 1221
[02]  12(G13)  1 26  8  0  -1328.9  2046003.3  0.4  1 0  557 1351 1316
[03]  16(G17)  1 20  7  0  -2825.0  2046004.9  0.1  1 0  998 2302 1950
[04]  18(G19)  1 12  7  0  -3922.9  2046006.4  0.1  1 0 1514 2979 1449
$GNGGA,000000.000,,,,,0,00,,,M,,,,0000*2B
$GNRMC,000000.000,A,,,,,,,060180,,*29
$GPGSA,A,1,,,,,,,,,,,,,,,*1E
$BDGSA,A,1,,,,,,,,,,,,,,,*0F
$GLGSA,A,1,,,,,,,,,,,,,,,*02
$B3CN0,0,0,0,0,0,0,0,0,0,0,0,0,0,0*4C
---00000003--- Acq_st=3 0  2019-4-3 9:4:19 
[00]  03(G04)  7 40  7  0   1400.6  2045998.1 -0.0  2 0  818  959  650
[01]  06(G07)  7 36  7  0    778.8  2045998.9  0.1  2 0 1668 2254 1232
[02]  12(G13)  7 27  7  0  -1333.3  2046001.5  0.6 10 0 1170 1189  676
[03]  16(G17)  7 18  7  0  -2826.9  2046003.6  0.6 10 0 1650 2204  950
[04]  18(G19)  7  7  7  0  -3925.5  2046005.1  1.0  5 0 1066 1905 1131
[05]  27(G28)  1 25  7  0  -2901.4  2046004.0  0.2  1 0  880 1679  874
[06]  29(G30)  1 23  7  0  -1469.1  2046003.3  0.1  1 0 1051 1183 1167
[16]  38(B02)  1 28 10  0  -1250.0  4092003.9 -0.1  1 0  595  921  810
$GNGGA,000000.000,,,,,0,00,,,M,,,,0000*2B
$GNRMC,000000.000,A,,,,,,,060180,,*29
$GPGSA,A,1,,,,,,,,,,,,,,,*1E
$BDGSA,A,1,,,,,,,,,,,,,,,*0F
$GLGSA,A,1,,,,,,,,,,,,,,,*02
$GPGSV,2,1,05,04,00,000,40,07,00,000,36,13,00,000,27,17,00,000,18*75
$GPGSV,2,2,05,19,00,000,32*45
$B3CN0,0,0,0,0,0,0,0,0,0,0,0,0,0,0*4C
---00000004--- Acq_st=3 0  2019-4-3 9:4:20 
[00]  03(G04)  7 39  7  0   1408.4  2045998.2 -0.1  2 0  639 1009  350
[01]  06(G07)  7 43  7  0    790.1  2045998.9 -0.0  2 0 1696 2396 1198
[02]  12(G13)  7 39 13  0  -1320.2  2046001.6  0.2  2 0 1127 1430  870
[03]  16(G17)  7 46  7  0  -2814.9  2046003.6  0.0  2 0 2598 3273 1581
[04]  18(G19)  7 44  9  0  -3918.3  2046005.0  0.1  2 0 1130 1984  691
[05]  27(G28)  7 25  7  0  -2891.0  2046003.7  0.7 10 0 1463 2251  682
[06]  29(G30)  7 21  7  0  -1451.8  2046001.8  0.9 10 0 1365 1758  807
[16]  38(B02) 19 35 26  0  -1093.4  4092003.2  0.9  1 0  411  878 1018
[17]  41(B05)  1 10 10  1  -1243.0  4092001.5 -0.0  1 0  221  275  774
$GNGGA,000000.000,,,,,0,00,,,M,,,,0000*2B
$GNRMC,000000.000,A,,,,,,,060180,,*29
$GPGSA,A,1,,,,,,,,,,,,,,,*1E
$BDGSA,A,1,,,,,,,,,,,,,,,*0F
$GLGSA,A,1,,,,,,,,,,,,,,,*02
$GPGSV,2,1,07,04,00,000,39,07,00,000,43,13,00,000,39,17,00,000,46*7F
$GPGSV,2,2,07,19,00,000,42,28,00,000,25,30,00,000,20*4C
$B3CN0,0,0,0,0,0,0,0,0,0,0,0,0,0,0*4C
---00000005--- Acq_st=3 0  2019-4-3 9:4:21 
[00]  03(G04)  7 40  7  0   1402.1  2045998.0 -0.1  2 0 1159 1120  353
[01]  06(G07)  7 43  7  0    786.4  2045998.9  0.0  2 0 1498 2214 1260
[02]  12(G13)  7 39  7  0  -1325.0  2046001.6 -0.0  2 0  937  952  515
[03]  16(G17)  7 45  7  0  -2816.8  2046003.6  0.0  2 0 2796 3357 2136
[04]  18(G19)  7 43  7  0  -3921.3  2046005.0 -0.0  2 0 1554 2309 1235
[05]  27(G28)  7 42  7  0  -2895.1  2046003.7  0.1  2 0 1003 1694  768
[06]  29(G30)  7 41  7  0  -1451.4  2046001.8  0.0  2 0 1121 1721  789
[16]  38(B02) 1f 36 25  0  -1098.5  4092002.6 -0.0  2 0  348  252  300
[17]  41(B05)  1 13 10  0  -1555.4  4092004.5  0.1  1 0  183  262  731
[18]  49(B13)  1  7  7  0  -2046.1  4092006.4 -0.0  1 0 1336 1921  927
$GNGGA,000000.000,,,,,0,00,,,M,,,,0000*2B
$GNRMC,000000.000,A,,,,,,,060180,,*29
$GPGSA,A,1,,,,,,,,,,,,,,,*1E
$BDGSA,A,1,,,,,,,,,,,,,,,*0F
$GLGSA,A,1,,,,,,,,,,,,,,,*02
$GPGSV,2,1,07,04,00,000,40,07,00,000,43,13,00,000,39,17,00,000,45*72
$GPGSV,2,2,07,19,00,000,43,28,00,000,42,30,00,000,41*4B
$BDGSV,1,1,01,02,00,000,36*5E
$B3CN0,0,0,0,0,0,0,0,0,0,0,0,0,0,0*4C
---00000006--- Acq_st=3 0  2019-4-3 9:4:22 
[00]  03(G04)  7 40  7  0   1414.9  2045998.1 -0.1  2 0  747 1112  987
[01]  06(G07)  7 43 12  0    797.1  2045998.9  0.0  2 0 1280 2321  878
[02]  12(G13)  7 38  7  0  -1315.5  2046001.6 -0.0  2 0  472  647  580
[03]  16(G17)  7 45  7  0  -2811.9  2046003.6  0.0  2 0 3183 4045 1915
[04]  18(G19)  7 43  7  0  -3908.2  2046005.0  0.0  2 0 1201 2191 1290
[05]  27(G28)  7 41  8  0  -2891.4  2046003.7 -0.0  2 0  733 2275 1450
[06]  29(G30)  7 41  7  0  -1450.4  2046001.8 -0.0  2 0  800 1383  618
[16]  38(B02) 1f 36 25  0  -1093.5  4092002.6 -0.4  2 0  636  556  436
[17]  41(B05)  1 10 10  0  -1599.3  4092004.7  0.6  1 0  615  614  297
[18]  49(B13)  1  7  7  0  -2041.2  4092005.1 -0.1  1 0 1459 2120  844
[48]  38(B02)  1 10 10  0   -369.7 20460020.3  0.2  1 0  169  193  103
$GNGGA,000000.000,,,,,0,00,,,M,,,,0000*2B
$GNRMC,000000.000,A,,,,,,,060180,,*29
$GPGSA,A,1,,,,,,,,,,,,,,,*1E
$BDGSA,A,1,,,,,,,,,,,,,,,*0F
$GLGSA,A,1,,,,,,,,,,,,,,,*02
$GPGSV,2,1,07,04,00,000,40,07,00,000,43,13,00,000,38,17,00,000,45*73
$GPGSV,2,2,07,19,00,000,43,28,00,000,41,30,00,000,41*48
$BDGSV,1,1,01,02,00,000,37*5F
$B3CN0,0,0,0,0,0,0,0,0,0,0,0,0,0,0*4C
---00000007--- Acq_st=3 0  2019-4-3 9:4:23 
[00]  03(G04)  7 40  7  0   1419.3  2045998.0  0.1  2 0  393 1059  861
[01]  06(G07)  7 43  7  0    796.6  2045998.9 -0.0  2 0 1571 2313 1117
[02]  12(G13)  7 38  7  0  -1310.9  2046001.7  0.2  2 0  616  790   75
[03]  16(G17)  7 45  7  0  -2808.4  2046003.6  0.0  2 0 3175 4695 2458
[04]  18(G19)  7 42 11  0  -3911.6  2046005.0 -0.0  2 0 1442 1787  472
[05]  27(G28)  7 40  7  0  -2886.2  2046003.7  0.0  2 0 1187 1804  919
[06]  29(G30)  7 41  7  0  -1446.0  2046001.8 -0.1  2 0  662 1164  641
[16]  38(B02) 1f 36 27  0  -1088.1  4092002.7 -0.8  2 0  692 1060  855
[17]  41(B05)  1 19 10  0  -1595.5  4092002.7  0.5  1 0 1010  464  110
[18]  49(B13)  1  7  7  0  -2035.7  4092005.1  0.1  1 0 1329 1974  797
[19]  65(B29)  1  7  7  0  -2750.0  4092009.2  0.1  1 0  150 1184 2446
[48]  38(B02)  1 10 10  1  -1311.5 20460019.7  0.0  1 0  554  422  475
$GNGGA,000000.000,,,,,0,00,,,M,,,,0000*2B
$GNRMC,000000.000,A,,,,,,,060180,,*29
$GPGSA,A,1,,,,,,,,,,,,,,,*1E
$BDGSA,A,1,,,,,,,,,,,,,,,*0F
$GLGSA,A,1,,,,,,,,,,,,,,,*02
$GPGSV,2,1,07,04,00,000,40,07,00,000,43,13,00,000,38,17,00,000,45*73
$GPGSV,2,2,07,19,00,000,42,28,00,000,40,30,00,000,41*48
$BDGSV,1,1,01,02,00,000,36*5E
$B3CN0,0,0,0,0,0,0,0,0,0,0,0,0,0,0*4C
---00000008--- Acq_st=3 0  2019-4-3 9:4:24 
[00]  03(G04)  7 40  7  0   1413.4  2045998.1 -0.1  2 0 1236 1539  457
[01]  06(G07)  7 43  7  0    791.9  2045998.9 -0.0  2 0 1632 2609 1244
[02]  12(G13)  7 37  7  0  -1321.6  2046001.7 -0.5  2 0  577  452  214
[03]  16(G17)  7 45  7  0  -2810.9  2046003.6  0.0  2 0 3406 4455 2319
[04]  18(G19)  7 42  9  0  -3914.4  2046005.0 -0.0  2 0 1662 2455 1076
[05]  27(G28)  7 40  7  0  -2892.1  2046003.7  0.0  2 0  885 2000  934
[06]  29(G30)  7 41  7  0  -1450.4  2046001.8  0.0  2 0  861 1089  479
[16]  38(B02) 1f 37 13  0  -1095.2  4092002.6 -0.8  2 0  867  907  492
[18]  49(B13)  1  7  7  0  -2042.9  4092005.2  0.3  1 0 1075 1589  797
[19]  65(B29)  1  7 10  0  -2678.8  4092006.9  0.7  1 0 2026 2673 1066
[48]  38(B02)  1 10 10  0  -1018.8 20460018.7 -0.1  1 0  694  382  202
$GNGGA,090425.927,,,,,0,00,,,M,,,,0000*2D
$GNRMC,090425.927,A,,,,,,,090180,,*20
$GPGSA,A,1,,,,,,,,,,,,,,,*1E
$BDGSA,A,1,,,,,,,,,,,,,,,*0F
$GLGSA,A,1,,,,,,,,,,,,,,,*02
$GPGSV,2,1,07,04,00,000,40,07,00,000,43,13,00,000,37,17,00,000,45*7C
$GPGSV,2,2,07,19,00,000,42,28,00,000,40,30,00,000,41*48
$BDGSV,1,1,01,02,00,000,37*5F
$B3CN0,0,0,0,0,0,0,0,0,0,0,0,0,0,0*4C
---00000009--- Acq_st=7 0  2019-4-3 9:4:25 
[00]  03(G04)  f 40  7  0   1399.9  2045998.1  0.0  2 0 1169 1607  807
[01]  06(G07)  f 43  7  0    778.8  2045998.9  0.1  2 0 1419 2025  488
[02]  12(G13)  f 36  7  0  -1332.4  2046001.7  0.3  2 0  708 1166  557
[03]  16(G17)  f 45  7  0  -2825.0  2046003.6 -0.0  2 0 3684 5162 2574
[04]  18(G19)  f 42  7  0  -3928.6  2046005.0  0.1  2 0 1223 2101 1216
[05]  27(G28)  f 41  7  0  -2908.4  2046003.7  0.0  2 0 1468 2397 1360
[06]  29(G30)  f 41  8  0  -1462.5  2046001.8  0.0  2 0 1258 1808  794
[16]  38(B02) 1f 36 27  0  -1103.8  4092002.8  0.4  2 0  924 1071  200
[18]  49(B13)  7  7  7  0  -2054.5  4092005.4  0.7 10 0 1428 1866  730
[19]  65(B29)  1  7 11  0  -2690.2  4092006.7  1.0  1 0 1623 2646 1524
[32]  79(N-2)  1 37  7  0  -3783.7  1022002.9  0.9  1 0   376  700  487
[33]  83(N02)  1  7 15  0  -3290.2  1022004.1  0.1  1 0   331  756  580
[34]  86(N05)  1  7  7  0  -3500.0  1022003.6  0.0  1 0   114  451  834
[48]  38(B02)  1 10 16  1   -343.6 20460022.1  0.2  1 0  462  547  148
$GNGGA,090426.927,,,,,0,00,,,M,,,,0000*2E
$GNRMC,090426.927,A,,,,,,,030419,,*2C
$GPGSA,A,1,,,,,,,,,,,,,,,*1E
$BDGSA,A,1,,,,,,,,,,,,,,,*0F
$GLGSA,A,1,,,,,,,,,,,,,,,*02
$GPGSV,2,1,07,04,00,000,40,07,00,000,43,13,00,000,36,17,00,000,45*7D
$GPGSV,2,2,07,19,00,000,42,28,00,000,41,30,00,000,41*49
$BDGSV,1,1,01,02,00,000,36*5E
$B3CN0,0,0,0,0,0,0,0,0,0,0,0,0,0,0*4C
---00000010--- Acq_st=7 0  2019-4-3 9:4:26 
[00]  03(G04)  f 40  7  0   1405.0  2045998.1 -0.0  2 0  794 1227  577
[01]  06(G07)  f 42  7  0    786.2  2045998.9 -0.0  2 0 1681 2675 1362
[02]  12(G13)  f 37  7  0  -1328.8  2046001.7  0.3  2 0  633 1258  597
[03]  16(G17)  f 45  7  0  -2820.1  2046003.6  0.0  2 0 3917 4967 2693
[04]  18(G19)  f 42  8  0  -3917.1  2046005.0 -0.0  2 0 1383 2409 1456
[05]  27(G28)  f 41  7  0  -2896.4  2046003.7  0.1  2 0 1699 2005  860
[06]  29(G30)  f 41  7  0  -1457.5  2046001.8  0.0  2 0  563 1644 1204
[16]  38(B02) 1f 37 24  0  -1099.3  4092002.6 -0.5  2 0 1006  817  464
[18]  49(B13)  7 44  7  0  -2049.8  4092005.3 -0.0  2 0 1601 2613 1371
[19]  65(B29)  1  7  7  0  -2687.0  4092006.9  0.7  1 0 1562 2704 1495
[32]  79(N-2)  7 32  7  0  -3780.5  1022002.4  0.3  5 0   367  481   69
[33]  83(N02)  1 12 23  0  -3275.6  1022002.8  0.1  1 0   359  366  175
[34]  86(N05)  1 21  7  0  -3369.9  1022001.7  0.2  1 0  1110 1275  640
$GNGGA,090427.927,,,,,0,00,,,M,,,,0000*2F
$GNRMC,090427.927,A,,,,,,,030419,,*2D
$GPGSA,A,1,,,,,,,,,,,,,,,*1E
$BDGSA,A,1,,,,,,,,,,,,,,,*0F
$GLGSA,A,1,,,,,,,,,,,,,,,*02
$GPGSV,2,1,07,04,00,000,40,07,00,000,42,13,00,000,37,17,00,000,45*7D
$GPGSV,2,2,07,19,00,000,42,28,00,000,41,30,00,000,41*49
$BDGSV,1,1,02,02,00,000,37,13,00,000,44*6E
$B3CN0,0,0,0,0,0,0,0,0,0,0,0,0,0,0*4C
---00000011--- Acq_st=3 0  2019-4-3 9:4:27 
[00]  03(G04)  f 40  7  0   1420.0  2045998.1  0.0  2 0 1022 1525  555
[01]  06(G07)  f 43  7  0    798.0  2045998.9  0.0  2 0 1405 2347  980
[02]  12(G13)  f 37  7  0  -1309.1  2046001.6  0.0  2 0  648 1180  392
[03]  16(G17)  f 46  7  0  -2808.9  2046003.6 -0.0  2 0 2935 4588 2359
[04]  18(G19)  f 42  7  0  -3907.7  2046005.0 -0.1  2 0  964 2010  940
[05]  27(G28)  f 41  7  0  -2887.9  2046003.7 -0.0  2 0 1623 2279  700
[06]  29(G30)  f 41  7  0  -1441.0  2046001.8  0.1  2 0 1180 1899  890
[16]  38(B02) 1f 36 23  0  -1095.3  4092002.6 -0.4  2 0  992  953  373
[18]  49(B13) 1f 43 12  0  -2036.2  4092005.3 -0.0  2 0 1329 1841  515
[19]  65(B29)  7 29  7  0  -2672.2  4092007.0  0.1 10 0 1549 2422 1279
[32]  79(N-2)  7 37  7  0  -3765.9  1022002.2 -0.0  2 0   367  486   13
[33]  83(N02)  1  7 21  0  -3258.8  1022002.0 -0.1  1 0   520  181  106
[34]  86(N05)  1 23  7  0  -3358.4  1022002.1  0.2  1 0   513  788  600
[48]  38(B02)  1 17 13  1  -1011.1 20460018.6  0.1  1 0  187  188  205
$GNGGA,090428.927,,,,,0,00,,,M,,,,0000*20
$GNRMC,090428.927,A,,,,,,,030419,,*22
$GPGSA,A,1,,,,,,,,,,,,,,,*1E
$BDGSA,A,1,,,,,,,,,,,,,,,*0F
$GLGSA,A,1,,,,,,,,,,,,,,,*02
$GPGSV,2,1,07,04,00,000,40,07,00,000,43,13,00,000,37,17,00,000,46*7F
$GPGSV,2,2,07,19,00,000,42,28,00,000,41,30,00,000,41*49
$BDGSV,1,1,03,02,00,000,36,13,00,000,43,29,00,000,29*59
$B3CN0,0,0,0,0,0,0,0,0,0,0,0,0,0,0*4C
---00000012--- Acq_st=4 0  2019-4-3 9:4:28 
[00]  03(G04)  f 40  7  0   1421.8  2045998.1 -0.0  2 0 1275 2098  628
[01]  06(G07)  f 42  7  0    806.2  2045998.9  0.0  2 0 1384 2540 1472
[02]  12(G13)  f 37  7  0  -1306.6  2046001.7 -0.3  2 0  136  878  976
[03]  16(G17)  f 45  7  0  -2805.2  2046003.6  0.0  2 0 2458 3846 2014
[04]  18(G19)  f 43  7  0  -3906.2  2046005.0  0.0  2 0 1131 1835  716
[05]  27(G28)  f 42  7  0  -2885.0  2046003.7  0.0  2 0 1584 2057  886
[06]  29(G30)  f 42  7  0  -1439.2  2046001.7 -0.1  2 0 1542 2375 1254
[16]  38(B02) 1f 36 29  0  -1083.7  4092002.9 -0.3  2 0  596 1077  612
[18]  49(B13) 1f 43  7  0  -2029.3  4092005.3  0.0  2 0  927 1605  587
[19]  65(B29)  7 45  9  0  -2666.5  4092007.0  0.1  2 0 1479 2618 1015
[32]  79(N-2)  7 39  9  0  -3760.3  1022002.4  0.3  2 0   523  588  553
[33]  83(N02)  1  7 21  0  -3274.3  1022001.9 -0.1  1 0   301  419  255
[34]  86(N05)  7 42  7  0  -3349.8  1022002.0 -0.1  2 0   913 1321  401
[48]  38(B02)  1 14 19  0  -1076.5 20460020.4  0.1  1 0   37  696  695
[50]  49(B13)  1  7  7  0  -1780.6 20460033.0 -0.1  1 0  343  157  368
$GNGGA,090429.927,,,,,0,00,,,M,,,,0000*21
$GNRMC,090429.927,A,,,,,,,030419,,*23
$GPGSA,A,1,,,,,,,,,,,,,,,*1E
$BDGSA,A,1,,,,,,,,,,,,,,,*0F
$GLGSA,A,1,,,,,,,,,,,,,,,*02
$GPGSV,2,1,07,04,00,000,40,07,00,000,42,13,00,000,38,17,00,000,45*72
$GPGSV,2,2,07,19,00,000,42,28,00,000,42,30,00,000,42*49
$BDGSV,1,1,03,02,00,000,36,13,00,000,42,29,00,000,44*53
$B3CN0,0,0,0,0,0,0,0,0,0,0,0,0,0,0*4C
---00000013--- Acq_st=3 0  2019-4-3 9:4:29 
[00]  03(G04)  f 40  7  0   1410.7  2045998.1 -0.1  2 0 1224 1377  756
[01]  06(G07)  f 42  7  0    794.7  2045998.9  0.0  2 0 1167 1416  746
[02]  12(G13)  f 38  7  0  -1315.4  2046001.6 -0.1  2 0  810 1259  977
[03]  16(G17)  f 45  7  0  -2811.1  2046003.6 -0.1  2 0 2796 3838 1663
[04]  18(G19)  f 42  7  0  -3912.0  2046005.0  0.1  2 0 1365 2367 1114
[05]  27(G28)  f 42  7  0  -2888.1  2046003.7  0.0  2 0  986 2168 1237
[06]  29(G30)  f 42  7  0  -1443.3  2046001.8  0.1  2 0 1574 2223  918
[16]  38(B02) 1f 36 21  0  -1093.9  4092002.8  0.8  2 0  972  953  715
[17]  41(B05)  1 33 30  0  -1000.0  4092004.0 -0.0  1 0  306  981 1437
[18]  49(B13) 1f 42  7  0  -2040.8  4092005.2 -0.0  2 0 1698 2150  855
[19]  65(B29)  7 44  7  0  -2674.7  4092006.9 -0.0  2 0 1882 2599 1215
[32]  79(N-2)  7 39  7  0  -3765.8  1022002.4  0.2  2 0   597  919  393
[33]  83(N02)  1  7 21  0  -3266.8  1022002.5  0.1  1 0   411  496  163
[34]  86(N05)  7 43  7  0  -3356.2  1022002.1 -0.0  2 0   496 1139  854
[48]  38(B02)  1 10 10  0  -1059.0 20460022.3 -0.0  1 0  538  504  337
[50]  49(B13)  1  7  7  0  -1461.5 20460032.7 -0.1  1 0  148  640  655
---00000014--- Acq_st=3 0  2019-4-3 9:4:30 
[00]  03(G04)  f 39  7  0   1409.6  2045998.1  0.1  2 0  654 1185  183
[01]  06(G07)  f 43  7  0    790.3  2045998.9 -0.0  2 0 1244 2278 1198
[02]  12(G13)  f 38  7  0  -1326.0  2046001.7 -0.3  2 0  922 1371  472
[03]  16(G17)  f 45  7  0  -2816.4  2046003.6  0.1  2 0 2600 4192 2181
[04]  18(G19)  f 42  7  0  -3916.3  2046005.0 -0.0  2 0 1488 2156 1045
[05]  27(G28)  f 42  7  0  -2899.7  2046003.7 -0.1  2 0 1786 2534 1184
[06]  29(G30)  f 41  7  0  -1450.8  2046001.8  0.0  2 0 1540 2175 1481
[16]  38(B02) 1f 36 26  0  -1097.7  4092002.8  0.7  2 0  432  600  173
[17]  41(B05)  1 41 25  0  -1110.2  4092003.6  1.0  1 0  721 1086  477
[18]  49(B13) 1f 42  7  0  -2045.1  4092005.3 -0.0  2 0 1344 1987  741
[19]  65(B29)  7 44  7  0  -2677.2  4092006.9 -0.0  2 0 1719 2421 1041
[32]  79(N-2)  f 34  7  0  -3769.6  1022002.3  0.6  5 0   243  501  294
[34]  86(N05)  7 44  7  0  -3361.8  1022002.1 -0.1  2 0   929 1763  840
[48]  38(B02)  1 10 10  0  -1227.8 20460018.7 -0.0  1 0  364  265   89
[50]  49(B13)  1  7  7  0  -1899.3 20460032.2 -0.0  1 0   69  259  280
$GNGGA,090430.927,,,,,0,00,,,M,,,,0000*29
$GNRMC,090430.927,A,,,,,,,030419,,*2B
$GPGSA,A,1,,,,,,,,,,,,,,,*1E
$BDGSA,A,1,,,,,,,,,,,,,,,*0F
$GLGSA,A,1,,,,,,,,,,,,,,,*02
$GPGSV,2,1,07,04,00,000,39,07,00,000,43,13,00,000,38,17,00,000,45*7D
$GPGSV,2,2,07,19,00,000,42,28,00,000,42,30,00,000,41*4A
$BDGSV,1,1,03,02,00,000,36,13,00,000,42,29,00,000,44*53
$B3CN0,0,0,0,0,0,0,0,0,0,0,0,0,0,0*4C
---00000015--- Acq_st=3 0  2019-4-3 9:4:31 
[00]  03(G04)  f 40  7  0   1403.0  2045998.1  0.0  2 0  690  910  690
[01]  06(G07)  f 43  7  0    789.2  2045998.9  0.0  2 0 1039 2241 1097
[02]  12(G13)  f 39  9  0  -1320.4  2046001.6  0.0  2 0  443 1053  626
[03]  16(G17)  f 45  7  0  -2818.6  2046003.6 -0.1  2 0 1819 3029 1725
[04]  18(G19)  f 43 10  0  -3920.4  2046005.0  0.1  2 0 1043 1707  774
[05]  27(G28)  f 42  7  0  -2902.6  2046003.7  0.1  2 0 1006 1540  798
[06]  29(G30)  f 43  7  0  -1453.1  2046001.8 -0.1  2 0 1002 2050 1025
[16]  38(B02) 1f 36 25  0  -1102.0  4092002.8  0.1  2 0  660  835  706
[17]  41(B05)  f 41 25  0  -1111.5  4092002.8  0.2  2 0 1248 1257  652
[18]  49(B13) 1f 42  7  0  -2047.3  4092005.2  0.0  2 0 1144 2021 1197
[19]  65(B29)  7 44  7  0  -2678.7  4092006.9  0.0  2 0 2037 2632  891
[32]  79(N-2)  f 39  7  0  -3775.0  1022002.3  0.5  2 0   350  813  456
[34]  86(N05)  7 44  7  0  -3366.5  1022002.2  0.0  2 0   728 1190  222
[50]  49(B13)  1  7  7  0  -1583.4 20460031.1  0.1  1 0  345  141  332
$GNGGA,090431.927,,,,,0,00,,,M,,,,0000*28
$GNRMC,090431.927,A,,,,,,,030419,,*2A
$GPGSA,A,1,,,,,,,,,,,,,,,*1E
$BDGSA,A,1,,,,,,,,,,,,,,,*0F
$GLGSA,A,1,,,,,,,,,,,,,,,*02
$GPGSV,2,1,07,04,00,000,40,07,00,000,43,13,00,000,39,17,00,000,45*72
$GPGSV,2,2,07,19,00,000,43,28,00,000,42,30,00,000,43*49
$BDGSV,1,1,04,02,00,000,36,05,00,000,41,13,00,000,42,29,00,000,44*64
$B3CN0,0,0,0,0,0,0,0,0,0,0,0,0,0,0*4C
---00000016--- Acq_st=3 0  2019-4-3 9:4:32 
[00]  03(G04)  f 40  7  0   1404.0  2045998.1  0.0  2 0  751 1488  883
[01]  06(G07)  f 43  9  0    789.2  2045998.9  0.0  2 0 1870 2205 1051
[02]  12(G13)  f 40  9  0  -1320.2  2046001.7  0.1  2 0  850 1614 1111
[03]  16(G17)  f 45  7  0  -2817.7  2046003.6  0.0  2 0 2403 3311 1764
[04]  18(G19)  f 43  7  0  -3918.9  2046005.1  0.1  2 0 1330 2634 1163
[05]  27(G28)  f 42  7  0  -2902.0  2046003.7  0.0  2 0 1435 2219 1094
[06]  29(G30)  f 43  7  0  -1449.2  2046001.9  0.0  2 0 1477 2309 1024
[16]  38(B02) 1f 38 25  0  -1097.4  4092002.9 -0.8  2 0  799 1123  405
[17]  41(B05) 1f 41 27  0  -1102.4  4092002.7  0.5  2 0 1532 1361  786
[18]  49(B13) 1f 42  7  0  -2045.1  4092005.3 -0.0  2 0 1167 1854  668
[19]  65(B29)  7 44 10  0  -2679.6  4092006.9  0.0  2 0 2007 2236  707
[32]  79(N-2) 8f 39  7  0  -3773.4  1022002.4  0.5  2 0   342  667  710
[34]  86(N05)  f 36  7  0  -3364.9  1022002.1 -0.0  2 0   732 1309  952
[48]  38(B02)  1 16 10  0   -903.0 20460019.3  0.0  1 0  152  218  333
[49]  41(B05)  1 23 23  1   -371.7 20460017.1 -0.1  1 0  150  492  542
$GNGGA,090432.927,,,,,0,00,,,M,,,,0000*2B
$GNRMC,090432.927,A,,,,,,,030419,,*29
$GPGSA,A,1,,,,,,,,,,,,,,,*1E
$BDGSA,A,1,,,,,,,,,,,,,,,*0F
$GLGSA,A,1,,,,,,,,,,,,,,,*02
$GPGSV,2,1,07,04,00,000,40,07,00,000,43,13,00,000,40,17,00,000,45*7C
$GPGSV,2,2,07,19,00,000,43,28,00,000,42,30,00,000,43*49
$BDGSV,1,1,04,02,00,000,38,05,00,000,41,13,00,000,42,29,00,000,44*6A
$B3CN0,0,0,0,0,0,0,0,0,0,0,0,0,0,0*4C
---00000017--- Acq_st=3 0  2019-4-3 9:4:33 
[00]  03(G04)  f 40  7  0   1419.3  2045998.1  0.1  2 0 1522 1941  630
[01]  06(G07)  f 43  7  0    801.2  2045998.9  0.0  2 0 1411 1909  920
[02]  12(G13)  f 40  7  0  -1310.4  2046001.7  0.1  2 0  651 1342  793
[03]  16(G17)  f 45  7  0  -2808.3  2046003.6 -0.1  2 0 2404 3468 2116
[04]  18(G19)  f 43  7  0  -3910.6  2046005.0  0.0  2 0 1184 2268  705
[05]  27(G28)  f 42  7  0  -2888.0  2046003.7 -0.1  2 0  603 1719  889
[06]  29(G30)  f 42  7  0  -1438.0  2046001.8  0.0  2 0 1054 1460  787
[16]  38(B02) 1f 36 25  0  -1088.2  4092002.7  0.8  2 0  697  686  430
[17]  41(B05) 1f 41 13  0  -1094.7  4092002.7 -0.2  2 0  993 1285 1052
[18]  49(B13) 1f 42  7  0  -2034.6  4092005.3 -0.0  2 0 1104 1522  705
[19]  65(B29) 1f 44  7  0  -2672.1  4092006.9 -0.0  2 0 2097 2476  941
[32]  79(N-2) 8f 38  7  0  -3762.4  1022002.3 -0.1  2 0   410  823  558
[34]  86(N05)  f 42  7  0  -3355.5  1022002.1 -0.0  2 0   810 1380  659
[48]  38(B02)  1 19 18  0  -1206.3 20460022.0  0.1  1 0  755  724  450
[49]  41(B05)  1 22 23  1   -144.2 20460018.9 -0.1  1 0  412  731  586
[50]  49(B13)  1  7  8  0  -1436.2 20460033.5  0.0  1 0  269  378  118
$GNGGA,090433.927,,,,,0,00,,,M,,,,0000*2A
$GNRMC,090433.927,A,,,,,,,030419,,*28
$GPGSA,A,1,,,,,,,,,,,,,,,*1E
$BDGSA,A,1,,,,,,,,,,,,,,,*0F
$GLGSA,A,1,,,,,,,,,,,,,,,*02
$GPGSV,2,1,07,04,00,000,40,07,00,000,43,13,00,000,40,17,00,000,45*7C
$GPGSV,2,2,07,19,00,000,43,28,00,000,42,30,00,000,42*48
$BDGSV,1,1,04,02,00,000,36,05,00,000,41,13,00,000,42,29,00,000,44*64
$B3CN0,0,0,0,0,0,0,0,0,0,0,0,0,0,0*4C
---00000018--- Acq_st=3 0  2019-4-3 9:4:34 
[00]  03(G04)  f 40  7  0   1424.1  2045998.1  0.1  2 0 1023 1232  472
[01]  06(G07)  f 43 10  0    807.7  2045998.9 -0.1  2 0 2071 2069  864
[02]  12(G13)  f 40  7  0  -1300.5  2046001.6 -0.2  2 0  877 1339  546
[03]  16(G17)  f 44  7  0  -2802.2  2046003.6  0.1  2 0 1948 3125 1772
[04]  18(G19)  f 43  7  0  -3900.1  2046005.0  0.0  2 0 1128 1789  752
[05]  27(G28)  f 43  7  0  -2879.1  2046003.6 -0.0  2 0 1890 2186 1000
[06]  29(G30)  f 41  7  0  -1431.7  2046001.8 -0.0  2 0 1487 2025  903
[16]  38(B02) 1f 38 24  0  -1087.0  4092002.8  0.8  2 0  635  290  149
[17]  41(B05) 1f 41 25  0  -1088.4  4092002.7  0.2  2 0 1358 1725  889
[18]  49(B13) 1f 42  8  0  -2027.0  4092005.2  0.0  2 0 1534 1896  764
[19]  65(B29) 1f 44  7  0  -2660.5  4092006.8  0.0  2 0 2344 2750 1337
[32]  79(N-2) 8f 38  7  0  -3756.6  1022002.4  0.2  2 0   595  942  284
[34]  86(N05)  f 41  7  0  -3347.2  1022002.1 -0.1  2 0   860 1001  542
[48]  38(B02)  1 10 18  1   -913.5 20460018.7  0.0  1 0  772  164  408
[49]  41(B05)  1 24 23  0   -358.6 20460027.2 -0.2  1 0  187  556  348
[50]  49(B13)  1  8  7  0  -1721.2 20460033.4 -0.2  1 0   96  712  190
[51]  65(B29)  1  7  7  0  -2510.3 20460042.9  0.1  1 0  155  274  249
$GNGGA,090434.927,,,,,0,00,,,M,,,,0000*2D
$GNRMC,090434.927,A,,,,,,,030419,,*2F
$GPGSA,A,1,,,,,,,,,,,,,,,*1E
$BDGSA,A,1,,,,,,,,,,,,,,,*0F
$GLGSA,A,1,,,,,,,,,,,,,,,*02
$GPGSV,2,1,07,04,00,000,40,07,00,000,43,13,00,000,40,17,00,000,44*7D
$GPGSV,2,2,07,19,00,000,43,28,00,000,43,30,00,000,41*4A
$BDGSV,1,1,04,02,00,000,38,05,00,000,41,13,00,000,42,29,00,000,44*6A
$B3CN0,0,0,0,0,0,0,0,0,0,0,0,0,0,0*4C
---00000019--- Acq_st=7 0  2019-4-3 9:4:35 
[00]  03(G04)  f 40  7  0   1421.6  2045998.1  0.1  2 0 1119 1289  220
[01]  06(G07)  f 43  9  0    804.1  2045998.9  0.0  2 0  969 2439 1574
[02]  12(G13)  f 40  7  0  -1303.8  2046001.7 -0.1  2 0  563 1288  522
[03]  16(G17)  f 44  7  0  -2803.0  2046003.6 -0.0  2 0 1480 2276 1030
[04]  18(G19)  f 42  7  0  -3905.6  2046005.0  0.0  2 0 1586 2138 1089
[05]  27(G28)  f 43  7  0  -2884.1  2046003.7 -0.0  2 0 1188 2375 1099
[06]  29(G30)  f 40  7  0  -1435.8  2046001.8  0.1  2 0 1219 1920  744
[16]  38(B02) 1f 37 26  0  -1089.9  4092002.8 -0.7  2 0  401 1014  572
[17]  41(B05) 1f 41 21  0  -1090.8  4092002.6  0.0  2 0 1405 1459  493
[18]  49(B13) 1f 42 11  0  -2029.5  4092005.2 -0.0  2 0 1377 1960 1022
[19]  65(B29) 1f 44  7  0  -2665.8  4092006.8  0.0  2 0 1784 2398 1053
[32]  79(N-2) 8f 37  7  0  -3760.0  1022002.4  0.1  2 0   608  583  207
[34]  86(N05)  f 39  7  0  -3353.6  1022002.2 -0.2  2 0   591  976  528
[48]  38(B02)  1 10 18  1  -1738.7 20460020.2 -0.1  1 0  452  262  319
[49]  41(B05)  1 24 24  0   -299.0 20460016.6  0.0  1 0  353  216   78
[50]  49(B13)  1  7  7  0  -1828.2 20460031.0  0.2  1 0  471  400  325
[51]  65(B29)  1  8  7  0  -2619.5 20460042.4  0.1  1 0  525  536  172
$GNGGA,090435.927,,,,,0,00,,,M,,,,0000*2C
$GNRMC,090435.927,A,,,,,,,030419,,*2E
$GPGSA,A,1,,,,,,,,,,,,,,,*1E
$BDGSA,A,1,,,,,,,,,,,,,,,*0F
$GLGSA,A,1,,,,,,,,,,,,,,,*02
$GPGSV,2,1,07,04,00,000,40,07,00,000,43,13,00,000,40,17,00,000,44*7D
$GPGSV,2,2,07,19,00,000,42,28,00,000,43,30,00,000,40*4A
$BDGSV,1,1,04,02,00,000,37,05,00,000,41,13,00,000,42,29,00,000,44*65
$B3CN0,0,0,0,0,0,0,0,0,0,0,0,0,0,0*4C
---00000020--- Acq_st=3 0  2019-4-3 9:4:36 
[00]  03(G04)  f 40  7  0   1418.3  2045998.1  0.0  2 0 1149 1947 1268
[01]  06(G07)  f 43  7  0    806.4  2045998.9 -0.0  2 0 2077 2735 1277
[02]  12(G13)  f 39  7  0  -1311.8  2046001.6  0.1  2 0  700  993  365
[03]  16(G17)  f 43  7  0  -2801.8  2046003.6 -0.0  2 0 1366 1985 1135
[04]  18(G19)  f 43  7  0  -3906.1  2046005.0  0.0  2 0 1022 1944  793
[05]  27(G28)  f 43  7  0  -2884.9  2046003.7  0.0  2 0 1320 1807  682
[06]  29(G30)  f 41  7  0  -1435.3  2046001.8 -0.1  2 0 1168 1823 1137
[16]  38(B02) 1f 38 24  0  -1085.8  4092002.8  0.1  2 0  909 1225  764
[17]  41(B05) 1f 41 21  0  -1094.8  4092002.8  0.3  2 0 1231 1360  722
[18]  49(B13) 1f 43  9  0  -2031.0  4092005.2 -0.0  2 0 1162 1832 1050
[19]  65(B29) 1f 44  8  0  -2663.3  4092006.9 -0.0  2 0 1918 2114  934
[32]  79(N-2) 8f 36  7  0  -3756.9  1022002.4  0.1  2 0    82  440  211
[34]  86(N05)  f 38  7  0  -3348.9  1022002.1 -0.6  2 0   612 1003  622
[50]  49(B13)  1  8  7  0  -1981.3 20460030.9  0.0  1 0  146  621  604
[51]  65(B29)  1  7  7  0  -2668.0 20460042.5  0.3  1 0  900  453  203
$GNGGA,090436.927,,,,,0,00,,,M,,,,0000*2F
$GNRMC,090436.927,A,,,,,,,030419,,*2D
$GPGSA,A,1,,,,,,,,,,,,,,,*1E
$BDGSA,A,1,,,,,,,,,,,,,,,*0F
$GLGSA,A,1,,,,,,,,,,,,,,,*02
$GPGSV,2,1,07,04,00,000,40,07,00,000,43,13,00,000,39,17,00,000,43*74
$GPGSV,2,2,07,19,00,000,43,28,00,000,43,30,00,000,41*4A
$BDGSV,1,1,04,02,00,000,37,05,00,000,41,13,00,000,43,29,00,000,44*64
$B3CN0,0,0,0,0,0,0,0,0,0,0,0,0,0,0*4C
---00000021--- Acq_st=3 0  2019-4-3 9:4:37 
[00]  03(G04)  f 41  7  0   1418.7  2045998.1 -0.1  2 0  610 1065  784
[01]  06(G07)  f 43  7  0    809.3  2045998.9  0.0  2 0 1523 2100  930
[02]  12(G13)  f 40  7  0  -1306.6  2046001.6  0.1  2 0 1414 1287  243
[03]  16(G17)  f 43 10  0  -2800.8  2046003.6  0.0  2 0 1645 2365 1212
[04]  18(G19)  f 42  7  0  -3907.0  2046005.0 -0.0  2 0 1483 2246  532
[05]  27(G28)  f 43  7  0  -2885.4  2046003.6 -0.0  2 0 1625 2252 1093
[06]  29(G30)  f 41  7  0  -1431.9  2046001.8 -0.1  2 0 1197 1405  843
[16]  38(B02) 1f 37 24  0  -1089.5  4092002.8 -0.2  2 0  560  460  232
[17]  41(B05) 1f 41 26  0  -1094.2  4092002.7  0.1  2 0  544 1196  772
[18]  49(B13) 1f 42  7  0  -2032.0  4092005.2  0.0  2 0 1206 1808  846
[19]  65(B29) 1f 44  7  0  -2663.3  4092006.9  0.0  2 0 1866 2399 1171
[32]  79(N-2) 8f 37  7  0  -3755.3  1022002.3  0.2  2 0   470  771  287
[34]  86(N05)  f 36  7  0  -3352.6  1022002.3  0.0  2 0    81  570  608
[48]  38(B02)  1 13 36  1   -719.2 20460015.4  0.0  1 0  602  205  336
[49]  41(B05)  1 25 24  0   -727.5 20460020.4  0.2  1 0  558  725  629
[51]  65(B29)  1  7  7  0  -2643.2 20460041.5 -0.0  1 0  324  167  211
$GNGGA,090437.927,,,,,0,00,,,M,,,,0000*2E
$GNRMC,090437.927,A,,,,,,,030419,,*2C
$GPGSA,A,1,,,,,,,,,,,,,,,*1E
$BDGSA,A,1,,,,,,,,,,,,,,,*0F
$GLGSA,A,1,,,,,,,,,,,,,,,*02
$GPGSV,2,1,07,04,00,000,41,07,00,000,43,13,00,000,40,17,00,000,43*7B
$GPGSV,2,2,07,19,00,000,42,28,00,000,43,30,00,000,41*4B
$BDGSV,1,1,04,02,00,000,37,05,00,000,41,13,00,000,42,29,00,000,44*65
$B3CN0,0,0,0,0,0,0,0,0,0,0,0,0,0,0*4C
---00000022--- Acq_st=3 0  2019-4-3 9:4:38 
[00]  03(G04)  f 41  7  0   1418.3  2045998.1  0.0  2 0  678 1062  594
[01]  06(G07)  f 43  7  0    806.4  2045998.9 -0.0  2 0 1949 2674 1004
[02]  12(G13)  f 41  7  0  -1301.6  2046001.6  0.1  2 0 1231 1547  708
[03]  16(G17)  f 43  7  0  -2804.0  2046003.6 -0.1  2 0 1707 2150 1194
[04]  18(G19)  f 43  7  0  -3904.9  2046005.0  0.1  2 0 1503 1731  866
[05]  27(G28)  f 43  7  0  -2884.1  2046003.7 -0.0  2 0 1476 2058 1255
[06]  29(G30)  f 42  7  0  -1432.3  2046001.7 -0.0  2 0 1436 1984 1094
[16]  38(B02) 1f 36 24  0  -1089.2  4092002.9 -0.6  2 0  614 1008  414
[17]  41(B05) 1f 40 18  0  -1091.5  4092002.7 -0.3  2 0  593  889  441
[18]  49(B13) 1f 42  7  0  -2033.2  4092005.2 -0.0  2 0 1445 1723  771
[19]  65(B29) 1f 44  7  0  -2665.7  4092006.8  0.1  2 0 2134 2618 1258
[32]  79(N-2) 8f 38  7  0  -3757.3  1022002.3 -0.1  2 0   294  583  238
[34]  86(N05)  f 32  7  0  -3352.4  1022002.1  0.0  5 0    98  296  312
[48]  38(B02)  1 36 19  0   -289.7 20460020.7  0.1  1 0  715  499  363
[49]  41(B05)  1 23 23  1   -474.4 20460020.0  0.2  1 0  832  402  115
[50]  49(B13)  1  7 10  0  -1946.7 20460031.7 -0.1  1 0  364  443  337
$GNGGA,090438.927,,,,,0,00,,,M,,,,0000*21
$GNRMC,090438.927,A,,,,,,,030419,,*23
$GPGSA,A,1,,,,,,,,,,,,,,,*1E
$BDGSA,A,1,,,,,,,,,,,,,,,*0F
$GLGSA,A,1,,,,,,,,,,,,,,,*02
$GPGSV,2,1,07,04,00,000,41,07,00,000,43,13,00,000,41,17,00,000,43*7A
$GPGSV,2,2,07,19,00,000,43,28,00,000,43,30,00,000,42*49
$BDGSV,1,1,04,02,00,000,36,05,00,000,40,13,00,000,42,29,00,000,44*65
$B3CN0,0,0,0,0,0,0,0,0,0,0,0,0,0,0*4C
$GLGSV,1,1,01,20,00,000,38*5D
---00000023--- Acq_st=3 0  2019-4-3 9:4:39 
[00]  03(G04)  f 41  7  0   1422.5  2045998.1  0.0  2 0  817 1081  424
[01]  06(G07)  f 43  7  0    812.1  2045998.9 -0.0  2 0 1410 2508 1072
[02]  12(G13)  f 41  7  0  -1302.7  2046001.6 -0.0  2 0  850 1611  892
[03]  16(G17)  f 43  7  0  -2799.6  2046003.6  0.0  2 0 1958 2631 1542
[04]  18(G19)  f 43  7  0  -3897.5  2046005.0 -0.0  2 0 1175 2450 1200
[05]  27(G28)  f 43  7  0  -2881.2  2046003.7  0.0  2 0 1729 2550  795
[06]  29(G30)  f 42  7  0  -1426.0  2046001.8  0.0  2 0  990 1817  747
[16]  38(B02) 1f 36 10  0  -1085.5  4092002.7 -0.3  2 0 1135  863  585
[17]  41(B05) 1f 40 24  0  -1088.7  4092002.7 -0.3  2 0 1180 1061  323
[18]  49(B13) 1f 42  7  0  -2029.2  4092005.2  0.1  2 0 1396 1778  892
[19]  65(B29) 1f 44  7  0  -2661.8  4092006.8 -0.0  2 0 2269 2885 1263
[32]  79(N-2) 8f 38  7  0  -3753.1  1022002.3 -0.1  2 0   561  933  410
[34]  86(N05)  f 25  7  0  -3470.0  1022002.3  0.0 10 0   214  360  145
[48]  38(B02)  7 10 20  1   -375.6 20460006.8  0.1  2 0  222  248  509
[49]  41(B05)  1 24 25  0   -521.4 20460020.8  0.0  1 0  113  231  307
[50]  49(B13)  1  7  7  0  -1804.5 20460031.9 -0.0  1 0  237  122  342
[51]  65(B29)  1  7  7  0  -1624.4 20460042.8  0.1  1 0  647  163  568
$GNGGA,090439.927,,,,,0,00,,,M,,,,0000*20
$GNRMC,090439.927,A,,,,,,,030419,,*22
$GPGSA,A,1,,,,,,,,,,,,,,,*1E
$BDGSA,A,1,,,,,,,,,,,,,,,*0F
$GLGSA,A,1,,,,,,,,,,,,,,,*02
$GPGSV,2,1,07,04,00,000,41,07,00,000,43,13,00,000,41,17,00,000,43*7A
$GPGSV,2,2,07,19,00,000,43,28,00,000,43,30,00,000,42*49
$BDGSV,1,1,04,02,00,000,36,05,00,000,40,13,00,000,42,29,00,000,44*65
$B3CN0,0,0,0,0,0,0,0,0,0,0,0,0,0,0*4C
$GLGSV,1,1,01,20,00,000,38*5D
---00000024--- Acq_st=3 0  2019-4-3 9:4:40 
[00]  03(G04)  f 40  7  0   1414.3  2045998.0 -0.1  2 0  908 1847  883
[01]  06(G07)  f 43  7  0    806.5  2045998.9  0.1  2 0 1310 1924 1037
[02]  12(G13)  f 41  7  0  -1307.2  2046001.6  0.1  2 0  814 1946 1017
[03]  16(G17)  f 42  7  0  -2805.2  2046003.7  0.0  2 0 1113 2157 1088
[04]  18(G19)  f 43  7  0  -3909.3  2046005.0 -0.0  2 0 1296 2504 1193
[05]  27(G28)  f 43  7  0  -2886.4  2046003.7  0.0  2 0 1172 2031  622
[06]  29(G30)  f 42  7  0  -1432.9  2046001.8 -0.1  2 0 1008 1719 1262
[16]  38(B02) 1f 37 28  0  -1096.2  4092002.9  0.5  2 0  395  859  689
[17]  41(B05) 1f 40 18  0  -1096.7  4092002.6  0.1  2 0 1145 1613  849
[18]  49(B13) 1f 42  7  0  -2031.4  4092005.2  0.0  2 0 1435 1692  645
[19]  65(B29) 1f 44  7  0  -2665.8  4092006.9  0.0  2 0 2466 2783 1096
[32]  79(N-2) 8f 38  7  0  -3756.5  1022002.3 -0.1  2 0   546  687  229
[34]  86(N05)  f  7  7  0  -3585.1  1022002.2 -0.1 10 0   536  287  501
[48]  38(B02)  7 10 10  0   -531.2 20460008.2  0.1  2 0  548  370   77
[49]  41(B05)  1 19 24  0   -592.0 20460023.8  0.1  1 0  833  544  178
[50]  49(B13)  1  7  7  0  -1416.2 20460031.5  0.0  1 0  241  587  387
[51]  65(B29)  1  7  7  0  -1670.3 20460039.7 -0.0  1 0  585  500  283
$GNGGA,090440.927,,,,,0,00,,,M,,,,0000*2E
$GNRMC,090440.927,A,,,,,,,030419,,*2C
$GPGSA,A,1,,,,,,,,,,,,,,,*1E
$BDGSA,A,1,,,,,,,,,,,,,,,*0F
$GLGSA,A,1,,,,,,,,,,,,,,,*02
$GPGSV,2,1,07,04,00,000,40,07,00,000,43,13,00,000,41,17,00,000,42*7A
$GPGSV,2,2,07,19,00,000,43,28,00,000,43,30,00,000,42*49
$BDGSV,1,1,04,02,00,000,37,05,00,000,40,13,00,000,42,29,00,000,44*64
$B3CN0,0,0,0,0,0,0,0,0,0,0,0,0,0,0*4C
$GLGSV,1,1,01,20,00,000,38*5D
---00000025--- Acq_st=3 0  2019-4-3 9:4:41 
[00]  03(G04)  f 41  7  0   1418.2  2045998.1 -0.1  2 0  564 1346 1065
[01]  06(G07)  f 43  7  0    812.2  2045998.9 -0.0  2 0 1929 2662 1312
[02]  12(G13)  f 42  7  0  -1304.9  2046001.6  0.1  2 0 1052 1759 1135
[03]  16(G17)  f 43  7  0  -2798.0  2046003.7 -0.0  2 0 1299 2327 1556
[04]  18(G19)  f 43  7  0  -3902.8  2046005.0 -0.0  2 0 1614 2316  903
[05]  27(G28)  f 42  7  0  -2885.3  2046003.7 -0.0  2 0 1358 1790 1096
[06]  29(G30)  f 42  7  0  -1430.4  2046001.8  0.1  2 0 1243 1804  996
[16]  38(B02) 1f 36 24  0  -1087.4  4092002.5 -0.8  2 0  775  632  350
[17]  41(B05) 1f 41 18  0  -1089.7  4092002.8  0.3  2 0  779 1323  997
[18]  49(B13) 1f 42  7  0  -2031.1  4092005.2 -0.0  2 0 1142 1479  600
[19]  65(B29) 1f 44  7  0  -2664.5  4092006.9  0.0  2 0 2422 2385  961
[32]  79(N-2) 8f 36  7  0  -3753.5  1022002.4 -0.1  2 0   581  883  155
[34]  86(N05)  f  7  7  0  -3707.8  1022002.4 -0.0 10 0   591  475  365
[48]  38(B02)  7 19 10  0   -929.1 20460017.7 -0.0  2 0  319  501  428
[50]  49(B13)  1  7  7  0  -2327.8 20460031.8  0.1  1 0  360  195  144
[51]  65(B29)  1  7  7  0  -1419.0 20460041.5  0.1  1 0  729  561  238
$GNGGA,090441.927,,,,,0,00,,,M,,,,0000*2F
$GNRMC,090441.927,A,,,,,,,030419,,*2D
$GPGSA,A,1,,,,,,,,,,,,,,,*1E
$BDGSA,A,1,,,,,,,,,,,,,,,*0F
$GLGSA,A,1,,,,,,,,,,,,,,,*02
$GPGSV,2,1,07,04,00,000,41,07,00,000,43,13,00,000,42,17,00,000,43*79
$GPGSV,2,2,07,19,00,000,43,28,00,000,42,30,00,000,42*48
$BDGSV,1,1,04,02,00,000,36,05,00,000,41,13,00,000,42,29,00,000,44*64
$B3CN0,0,19,0,0,0,0,0,0,0,0,0,0,0,0*74
$GLGSV,1,1,01,20,00,000,36*53
---00000026--- Acq_st=3 0  2019-4-3 9:4:42 
[00]  03(G04)  f 41  7  0   1405.6  2045998.1  0.0  2 0 1111 1785  748
[01]  06(G07)  f 43  7  0    797.7  2045998.9 -0.0  2 0 1616 2381  907
[02]  12(G13)  f 42  7  0  -1317.1  2046001.7 -0.0  2 0  991 1791  897
[03]  16(G17)  f 42  7  0  -2814.2  2046003.6  0.0  2 0 1511 2486 1254
[04]  18(G19)  f 43  7  0  -3915.2  2046005.0  0.0  2 0 1409 1974  713
[05]  27(G28)  f 42  7  0  -2898.1  2046003.7 -0.0  2 0 1037 1848 1134
[06]  29(G30)  f 42  7  0  -1442.6  2046001.8 -0.0  2 0 1151 1734  455
[16]  38(B02) 1f 35 26  0  -1103.2  4092002.7  0.7  2 0  935 1081  592
[17]  41(B05) 1f 41 26  0  -1106.6  4092002.9 -0.3  2 0  992 1349  541
[18]  49(B13) 1f 42  7  0  -2045.6  4092005.2  0.1  2 0  787 1488  844
[19]  65(B29) 1f 44  7  0  -2676.9  4092006.9  0.0  2 0 2571 2865 1160
[32]  79(N-2) 8f 37  7  0  -3769.3  1022002.4  0.1  2 0   173  533  306
[34]  86(N05)  f  7  7  0  -3753.3  1022002.5  0.1 10 0   476  254  156
[48]  38(B02)  7 10 10  0  -1207.2 20460019.3  0.1  2 0  326  716  330
[49]  41(B05)  1 24 25  0   -940.3 20460022.2  0.1  1 0  218  636  903
[51]  65(B29)  1  7  7  0   -802.5 20460042.0  0.0  1 0  332  118  141
$GNGGA,090442.927,,,,,0,00,,,M,,,,0000*2C
$GNRMC,090442.927,A,,,,,,,030419,,*2E
$GPGSA,A,1,,,,,,,,,,,,,,,*1E
$BDGSA,A,1,,,,,,,,,,,,,,,*0F
$GLGSA,A,1,,,,,,,,,,,,,,,*02
$GPGSV,2,1,07,04,00,000,41,07,00,000,43,13,00,000,42,17,00,000,42*78
$GPGSV,2,2,07,19,00,000,43,28,00,000,42,30,00,000,42*48
$BDGSV,1,1,04,02,00,000,35,05,00,000,41,13,00,000,42,29,00,000,44*67
$B3CN0,0,0,0,0,0,0,0,0,0,0,0,0,0,0*4C
$GLGSV,1,1,01,20,00,000,37*52
---00000027--- Acq_st=7 0  2019-4-3 9:4:43 
[00]  03(G04)  f 41  7  0   1407.1  2045998.1  0.1  2 0  803 1673 1038
[01]  06(G07)  f 43  7  0    798.1  2045998.9  0.0  2 0 1491 2420  741
[02]  12(G13)  f 42  7  0  -1314.7  2046001.7 -0.1  2 0  405 1561  938
[03]  16(G17)  f 43  7  0  -2814.8  2046003.6  0.1  2 0 1679 2146  742
[04]  18(G19)  f 43  7  0  -3915.0  2046005.1 -0.0  2 0 1250 1930  785
[05]  27(G28)  f 42  7  0  -2893.7  2046003.7 -0.0  2 0 1454 2180 1184
[06]  29(G30)  f 42  7  0  -1438.7  2046001.8  0.0  2 0  869 1511  692
[16]  38(B02) 1f 38 26  0  -1097.1  4092002.7  0.0  2 0  673  750  202
[17]  41(B05) 1f 41 18  0  -1107.1  4092002.7 -0.4  2 0  941 1152  534
[18]  49(B13) 1f 42  7  0  -2043.5  4092005.2  0.0  2 0  750 1709  601
[19]  65(B29) 1f 44  7  0  -2674.7  4092006.9 -0.0  2 0 2617 2844 1205
[32]  79(N-2) 8f 37  7  0  -3767.3  1022002.4  0.0  2 0   400  621  275
[33]  83(N02)  1 20  7  0  -3750.0  1022003.8  0.1  1 0   402  633  846
[49]  41(B05)  1 19 22  0  -1372.8 20460020.9 -0.1  1 0 1082  504  383
[50]  49(B13)  1  7  7  0  -1174.5 20460031.3  0.0  1 0  427  314  482
$GNGGA,090443.927,,,,,0,00,,,M,,,,0000*2D
$GNRMC,090443.927,A,,,,,,,030419,,*2F
$GPGSA,A,1,,,,,,,,,,,,,,,*1E
$BDGSA,A,1,,,,,,,,,,,,,,,*0F
$GLGSA,A,1,,,,,,,,,,,,,,,*02
$GPGSV,2,1,07,04,00,000,41,07,00,000,43,13,00,000,42,17,00,000,43*79
$GPGSV,2,2,07,19,00,000,43,28,00,000,42,30,00,000,42*48
$BDGSV,1,1,04,02,00,000,38,05,00,000,41,13,00,000,42,29,00,000,44*6A
$B3CN0,0,0,0,0,0,0,0,0,0,0,0,0,0,0*4C
$GLGSV,1,1,01,20,00,000,37*52
---00000028--- Acq_st=7 0  2019-4-3 9:4:44 
[00]  03(G04)  f 41  7  0   1406.7  2045998.1  0.0  2 0  964 1361  834
[01]  06(G07)  f 43 10  0    797.3  2045998.9  0.0  2 0 1040 2135 1425
[02]  12(G13)  f 40  7  0  -1310.9  2046001.6  0.0  2 0  859 1566 1350
[03]  16(G17)  f 44  7  0  -2816.6  2046003.6 -0.0  2 0 1941 2549 1083
[04]  18(G19)  f 42  7  0  -3916.0  2046005.0  0.0  2 0 1749 2304 1031
[05]  27(G28)  f 42  7  0  -2896.8  2046003.8  0.0  2 0 1383 1690  919
[06]  29(G30)  f 42  7  0  -1445.9  2046001.8 -0.1  2 0 1485 1461  769
[16]  38(B02) 1f 37 20  0  -1097.9  4092002.9  0.1  2 0  204  509  688
[17]  41(B05) 1f 41 26  0  -1103.7  4092002.8  0.1  2 0 1105 1405  829
[18]  49(B13) 1f 42  7  0  -2043.1  4092005.2  0.0  2 0 1255 1777 1033
[19]  65(B29) 1f 44  7  0  -2674.0  4092006.9 -0.0  2 0 1808 2675 1151
[32]  79(N-2) 8f 37  7  0  -3765.5  1022002.3  0.1  2 0   508  631  278
[33]  83(N02)  1 22 11  0  -3774.9  1022003.2  0.5  1 0   462  604  137
[48]  38(B02)  1 10 10  0  -1024.8 20460017.4  0.0  1 0  647  484  432
[49]  41(B05)  1 26 27  0  -1128.4 20460021.2 -0.0  1 0  532  490  548
[50]  49(B13)  1  7  7  0   -906.1 20460031.8  0.0  1 0  560  523  213
[51]  65(B29)  1  7  7  0  -2272.2 20460043.5  0.2  1 0  582  492  396
$GNGGA,090444.927,,,,,0,00,,,M,,,,0000*2A
$GNRMC,090444.927,A,,,,,,,030419,,*28
$GPGSA,A,1,,,,,,,,,,,,,,,*1E
$BDGSA,A,1,,,,,,,,,,,,,,,*0F
$GLGSA,A,1,,,,,,,,,,,,,,,*02
$GPGSV,2,1,07,04,00,000,41,07,00,000,43,13,00,000,40,17,00,000,44*7C
$GPGSV,2,2,07,19,00,000,42,28,00,000,42,30,00,000,42*49
$BDGSV,1,1,04,02,00,000,37,05,00,000,41,13,00,000,42,29,00,000,44*65
$B3CN0,0,0,0,0,0,0,0,0,0,0,0,0,0,0*4C
$GLGSV,1,1,01,20,00,000,37*52
---00000029--- Acq_st=3 0  2019-4-3 9:4:45 
[00]  03(G04)  f 42  7  0   1419.1  2045998.1  0.0  2 0  824 1438  834
[01]  06(G07)  f 43  7  0    813.1  2045998.9 -0.1  2 0 1480 2064 1101
[02]  12(G13)  f 40  8  0  -1302.5  2046001.6 -0.1  2 0  797 1458  634
[03]  16(G17)  f 44  7  0  -2803.6  2046003.5  0.1  2 0 1923 2474  885
[04]  18(G19)  f 43  9  0  -3903.7  2046005.0  0.0  2 0 1321 2344 1259
[05]  27(G28)  f 42  7  0  -2887.3  2046003.7  0.1  2 0 1116 1657 1085
[06]  29(G30)  f 41  8  0  -1429.5  2046001.8  0.1  2 0 1225 1437  724
[16]  38(B02) 1f 36 25  0  -1091.6  4092002.8 -0.8  2 0 1280 1379  760
[17]  41(B05) 1f 41 23  0  -1096.1  4092002.8 -0.7  2 0 1149 1416  607
[18]  49(B13) 1f 42  8  0  -2032.6  4092005.2 -0.1  2 0 1008 1578  770
[19]  65(B29) 1f 44  7  0  -2665.2  4092006.9  0.0  2 0 1817 3111 1576
[32]  79(N-2) 8f 37  7  0  -3754.4  1022002.4  0.0  2 0   467  470  156
[33]  83(N02)  1 25 14  0  -3767.4  1022002.4  0.4  1 0   662  644  397
[48]  38(B02)  f 20 10  1   -708.3 20460012.2  0.0  2 0  641  173  296
[49]  41(B05)  1 23 22  0   -566.8 20460024.2 -0.0  1 0  584  580  604
[50]  49(B13)  1  7  7  0   -886.2 20460030.8  0.1  1 0   94  227  216
[51]  65(B29)  1  7  7  0  -2406.4 20460043.6 -0.0  1 0  123  359  468
$GNGGA,090445.927,,,,,0,00,,,M,,,,0000*2B
$GNRMC,090445.927,A,,,,,,,030419,,*29
$GPGSA,A,1,,,,,,,,,,,,,,,*1E
$BDGSA,A,1,,,,,,,,,,,,,,,*0F
$GLGSA,A,1,,,,,,,,,,,,,,,*02
$GPGSV,2,1,07,04,00,000,42,07,00,000,43,13,00,000,40,17,00,000,44*7F
$GPGSV,2,2,07,19,00,000,43,28,00,000,42,30,00,000,41*4B
$BDGSV,1,1,04,02,00,000,36,05,00,000,41,13,00,000,42,29,00,000,44*64
$B3CN0,0,20,0,0,0,0,0,0,0,0,0,0,0,0*7E
$GLGSV,1,1,01,20,00,000,38*5D
---00000030--- Acq_st=3 0  2019-4-3 9:4:46 
[00]  03(G04)  f 42  7  0   1425.9  2045998.1  0.1  2 0 1472 2005 1030
[01]  06(G07)  f 43  7  0    814.6  2045998.9  0.0  2 0 1713 2503 1114
[02]  12(G13)  f 41  7  0  -1298.9  2046001.6 -0.1  2 0 1255 1908  986
[03]  16(G17)  f 45  7  0  -2800.4  2046003.5  0.0  2 0 2724 3142 1484
[04]  18(G19)  f 42  7  0  -3902.6  2046005.0 -0.1  2 0 1223 1926  783
[05]  27(G28)  f 42  7  0  -2878.0  2046003.7 -0.0  2 0 1372 2131 1284
[06]  29(G30)  f 41  8  0  -1421.2  2046001.8 -0.0  2 0 1418 1452  500
[16]  38(B02) 1f 36 20  0  -1089.7  4092002.7 -0.3  2 0 1167 1216  348
[17]  41(B05) 1f 41 24  0  -1087.3  4092002.7  0.1  2 0 1565 1410  775
[18]  49(B13) 1f 42  7  0  -2030.1  4092005.2  0.1  2 0 1548 1710  493
[19]  65(B29) 1f 44  7  0  -2658.6  4092006.8  0.0  2 0 1926 2347 1059
[32]  79(N-2) 8f 38  7  0  -3746.8  1022002.4  0.3  2 0   466  568  273
[33]  83(N02)  7 34 10  0  -3762.9  1022002.4 -0.1  5 0   719  292  187
[48]  38(B02)  f 19 10  0   -791.3 20460013.6 -0.2  2 0  462  452  525
[50]  49(B13)  1  7  7  0  -1120.3 20460030.6  0.1  1 0  247  268  334
[51]  65(B29)  1  9  7  0  -2686.1 20460042.4  0.0  1 0   87  296  223
$GNGGA,090446.927,,,,,0,00,,,M,,,,0000*28
$GNRMC,090446.927,A,,,,,,,030419,,*2A
$GPGSA,A,1,,,,,,,,,,,,,,,*1E
$BDGSA,A,1,,,,,,,,,,,,,,,*0F
$GLGSA,A,1,,,,,,,,,,,,,,,*02
$GPGSV,2,1,07,04,00,000,42,07,00,000,43,13,00,000,41,17,00,000,45*7F
$GPGSV,2,2,07,19,00,000,42,28,00,000,42,30,00,000,41*4A
$BDGSV,1,1,04,02,00,000,36,05,00,000,41,13,00,000,42,29,00,000,44*64
$B3CN0,0,18,0,0,0,0,0,0,0,0,0,0,0,0*75
$GLGSV,1,1,01,20,00,000,38*5D
---00000031--- Acq_st=3 0  2019-4-3 9:4:47 
[00]  03(G04)  f 41  7  0   1416.7  2045998.1  0.0  2 0  952 1374  860
[01]  06(G07)  f 43  7  0    812.3  2045998.9  0.0  2 0 1696 2124 1036
[02]  12(G13)  f 41  7  0  -1301.3  2046001.6 -0.1  2 0  735 1416  954
[03]  16(G17)  f 45  7  0  -2804.0  2046003.5 -0.0  2 0 2341 3247 1765
[04]  18(G19)  f 43  7  0  -3906.8  2046005.0  0.0  2 0 1305 2384 1164
[05]  27(G28)  f 42  7  0  -2888.4  2046003.7  0.0  2 0 1241 1748  837
[06]  29(G30)  f 41  7  0  -1430.6  2046001.8  0.0  2 0  968 1653  833
[16]  38(B02) 1f 37 23  0  -1087.3  4092002.7  0.5  2 0  955 1254  526
[17]  41(B05) 1f 41 26  0  -1093.0  4092002.7  0.0  2 0  662 1471  513
[18]  49(B13) 1f 42  7  0  -2034.0  4092005.2 -0.0  2 0 1243 2128 1068
[19]  65(B29) 1f 44  7  0  -2666.7  4092006.9 -0.0  2 0 1861 2612 1145
[32]  79(N-2) 8f 39  7  0  -3752.3  1022002.3  0.1  2 0   772  837  199
[33]  83(N02)  7 33 10  0  -3770.3  1022002.3 -0.0  5 0   386  470  116
[48]  38(B02)  f 10 10  1   -929.5 20460014.6  0.0  2 0  160  170  515
[49]  41(B05)  1 22 24  0   -863.7 20460018.0  0.1  1 0  551  255  388
[51]  65(B29)  1  7  8  0  -2394.0 20460044.9  0.0  1 0  384  632   76
$GNGGA,090447.927,,,,,0,00,,,M,,,,0000*29
$GNRMC,090447.927,A,,,,,,,030419,,*2B
$GPGSA,A,1,,,,,,,,,,,,,,,*1E
$BDGSA,A,1,,,,,,,,,,,,,,,*0F
$GLGSA,A,1,,,,,,,,,,,,,,,*02
$GPGSV,2,1,07,04,00,000,41,07,00,000,43,13,00,000,41,17,00,000,45*7C
$GPGSV,2,2,07,19,00,000,43,28,00,000,42,30,00,000,41*4B
$BDGSV,1,1,04,02,00,000,37,05,00,000,41,13,00,000,42,29,00,000,44*65
$B3CN0,0,0,0,0,0,0,0,0,0,0,0,0,0,0*4C
$GLGSV,1,1,01,20,00,000,39*5C
---00000032--- Acq_st=3 0  2019-4-3 9:4:48 
[00]  03(G04)  f 41  7  0   1409.9  2045998.1 -0.0  2 0  495 1150  285
[01]  06(G07)  f 43  7  0    805.8  2045998.9 -0.0  2 0 1251 2035 1235
[02]  12(G13)  f 40  7  0  -1309.4  2046001.6  0.2  2 0  922 1312  583
[03]  16(G17)  f 45  7  0  -2808.8  2046003.6  0.0  2 0 2139 3210 1406
[04]  18(G19)  f 43  7  0  -3914.1  2046005.0 -0.1  2 0 1417 1976  826
[05]  27(G28)  f 42  7  0  -2893.2  2046003.7 -0.0  2 0 1346 1999  764
[06]  29(G30)  f 41  7  0  -1434.1  2046001.8 -0.0  2 0  618 1578  875
[16]  38(B02) 1f 37 26  0  -1102.6  4092002.9  0.0  2 0  287  532  389
[17]  41(B05) 1f 41 10  0  -1102.3  4092002.7  0.0  2 0 1078 1212  487
[18]  49(B13) 1f 42  7  0  -2035.9  4092005.2 -0.0  2 0 1267 1675  688
[19]  65(B29) 1f 44  7  0  -2670.6  4092006.9  0.0  2 0 1801 2716 1011
[32]  79(N-2) 8f 39  7  0  -3755.8  1022002.3 -0.3  2 0   286  952  424
[33]  83(N02)  7 34  9  0  -3769.7  1022002.3 -0.0  2 0   170  490  230
[48]  38(B02)  f 10 10  1   -885.8 20460014.4  0.2  2 0  558  510  819
[49]  41(B05)  1 25 24  0   -886.6 20460019.3  0.0  1 0  471  406  435
[50]  49(B13)  1  7  7  0  -1831.5 20460032.1  0.2  1 0  644   85  143
$GNGGA,090448.927,,,,,0,00,,,M,,,,0000*26
$GNRMC,090448.927,A,,,,,,,030419,,*24
$GPGSA,A,1,,,,,,,,,,,,,,,*1E
$BDGSA,A,1,,,,,,,,,,,,,,,*0F
$GLGSA,A,1,,,,,,,,,,,,,,,*02
$GPGSV,2,1,07,04,00,000,41,07,00,000,43,13,00,000,40,17,00,000,45*7D
$GPGSV,2,2,07,19,00,000,43,28,00,000,42,30,00,000,41*4B
$BDGSV,1,1,04,02,00,000,37,05,00,000,41,13,00,000,42,29,00,000,44*65
$B3CN0,0,0,0,0,0,0,0,0,0,0,0,0,0,0*4C
$GLGSV,1,1,01,20,00,000,39*5C
---00000033--- Acq_st=3 0  2019-4-3 9:4:49 
[00]  03(G04)  f 41  7  0   1418.7  2045998.1  0.1  2 0  616 1076  504
[01]  06(G07)  f 43  7  0    813.4  2045998.9  0.0  2 0 1164 2051 1229
[02]  12(G13)  f 41  7  0  -1302.5  2046001.6  0.0  2 0 1011  942  207
[03]  16(G17)  f 45  7  0  -2801.2  2046003.6  0.0  2 0 2083 3224 1832
[04]  18(G19)  f 43  7  0  -3905.7  2046005.0  0.1  2 0 1343 2362 1251
[05]  27(G28)  f 43  7  0  -2885.9  2046003.7 -0.0  2 0  578 1390 1015
[06]  29(G30)  f 41  9  0  -1428.8  2046001.8 -0.0  2 0  414 1338  868
[16]  38(B02) 1f 37 19  0  -1087.5  4092002.6  0.6  2 0  603  387  161
[17]  41(B05) 1f 41 24  0  -1088.5  4092002.7  0.4  2 0  919 1082  240
[18]  49(B13) 1f 42  7  0  -2031.4  4092005.2 -0.0  2 0 1293 1445  619
[19]  65(B29) 1f 44  7  0  -2662.5  4092006.9 -0.0  2 0 1809 2392  828
[32]  79(N-2) 8f 40  7  0  -3752.0  1022002.4 -0.0  2 0   651  800  236
[33]  83(N02)  7 36 16  0  -3762.3  1022002.3 -0.0  2 0   551  428  157
[49]  41(B05)  1 25 26  0   -545.5 20460017.2 -0.1  1 0  459  559  356
[50]  49(B13)  1  7  7  0  -2044.4 20460031.4  0.0  1 0  427  316  755
[51]  65(B29)  1  7  7  0  -2857.4 20460043.3  0.0  1 0  554  277  506
$GNGGA,090449.927,,,,,0,00,,,M,,,,0000*27
$GNRMC,090449.927,A,,,,,,,030419,,*25
$GPGSA,A,1,,,,,,,,,,,,,,,*1E
$BDGSA,A,1,,,,,,,,,,,,,,,*0F
$GLGSA,A,1,,,,,,,,,,,,,,,*02
$GPGSV,2,1,07,04,00,000,41,07,00,000,43,13,00,000,41,17,00,000,45*7C
$GPGSV,2,2,07,19,00,000,43,28,00,000,43,30,00,000,41*4A
$BDGSV,1,1,04,02,00,000,37,05,00,000,41,13,00,000,42,29,00,000,44*65
$B3CN0,0,0,0,0,0,0,0,0,0,0,0,0,0,0*4C
$GLGSV,1,1,01,20,00,000,40*52
---00000034--- Acq_st=3 0  2019-4-3 9:4:50 
[00]  03(G04)  f 41  7  0   1414.6  2045998.1 -0.1  2 0  945 1115  406
[01]  06(G07)  f 42  8  0    814.1  2045998.9 -0.0  2 0 1333 1871 1007
[02]  12(G13)  f 39  7  0  -1301.3  2046001.7 -0.2  2 0  520 1314  590
[03]  16(G17)  f 45  7  0  -2802.2  2046003.6 -0.1  2 0 2663 3677 1994
[04]  18(G19)  f 43  7  0  -3906.7  2046005.0 -0.0  2 0 1277 2123 1393
[05]  27(G28)  f 43  7  0  -2885.8  2046003.7  0.0  2 0 1432 2228  892
[06]  29(G30)  f 41  7  0  -1425.0  2046001.8 -0.0  2 0 1142 1975  906
[16]  38(B02) 1f 37 26  0  -1087.9  4092002.8 -0.8  2 0  758  881  640
[17]  41(B05) 1f 41 25  0  -1095.4  4092002.8 -0.4  2 0 1470 2039  707
[18]  49(B13) 1f 42  8  0  -2032.4  4092005.2  0.0  2 0 1285 1836  677
[19]  65(B29) 1f 44  7  0  -2660.4  4092006.9  0.0  2 0 1953 2273  854
[32]  79(N-2) 8f 39  7  0  -3749.8  1022002.3  0.4  2 0   380  569  329
[33]  83(N02)  f 33  7  0  -3760.9  1022002.3 -0.2  5 0  1044  670  230
[48]  38(B02)  1 19 10  1  -1093.6 20460020.4  0.1  1 0  198  374  469
[49]  41(B05)  1 23 22  0   -299.4 20460019.3  0.0  1 0  529  392  580
[50]  49(B13)  1  7  7  0  -2344.4 20460033.6 -0.1  1 0  316  396  142
[51]  65(B29)  1  7  7  0  -3048.4 20460044.8  0.1  1 0  431  414  427
$GNGGA,090450.927,,,,,0,00,,,M,,,,0000*2F
$GNRMC,090450.927,A,,,,,,,030419,,*2D
$GPGSA,A,1,,,,,,,,,,,,,,,*1E
$BDGSA,A,1,,,,,,,,,,,,,,,*0F
$GLGSA,A,1,,,,,,,,,,,,,,,*02
$GPGSV,2,1,07,04,00,000,41,07,00,000,42,13,00,000,39,17,00,000,45*72
$GPGSV,2,2,07,19,00,000,43,28,00,000,43,30,00,000,41*4A
$BDGSV,1,1,04,02,00,000,37,05,00,000,41,13,00,000,42,29,00,000,44*65
$B3CN0,0,0,0,0,0,0,0,0,0,0,0,0,0,0*4C
$GLGSV,1,1,01,20,00,000,39*5C
---00000035--- Acq_st=3 0  2019-4-3 9:4:51 
[00]  03(G04)  f 40  7  0   1410.3  2045998.1  0.0  2 0 1150 1525  887
[01]  06(G07)  f 43  7  0    813.2  2045998.9  0.0  2 0 1187 2019  922
[02]  12(G13)  f 40  7  0  -1305.2  2046001.6 -0.0  2 0 1133 1584  950
[03]  16(G17)  f 45  7  0  -2801.1  2046003.6  0.0  2 0 2856 3848 1563
[04]  18(G19)  f 43  7  0  -3906.5  2046005.0  0.0  2 0 1734 2436  927
[05]  27(G28)  f 43  7  0  -2886.9  2046003.7 -0.0  2 0 1164 1930  913
[06]  29(G30)  f 41  7  0  -1423.1  2046001.8 -0.0  2 0 1264 1756  887
[16]  38(B02) 1f 37 22  0  -1090.3  4092002.8 -0.7  2 0  864  501  353
[17]  41(B05) 1f 41 27  0  -1097.4  4092002.6  0.6  2 0 1371 1622  403
[18]  49(B13) 1f 42  7  0  -2029.5  4092005.2  0.0  2 0 1545 1705  989
[19]  65(B29) 1f 44  9  0  -2665.6  4092006.9 -0.0  2 0 1734 2444  939
[32]  79(N-2) 8f 39  7  0  -3752.4  1022002.4  0.4  2 0   267  384  127
[33]  83(N02)  f 38  7  0  -3761.8  1022002.3  0.1  2 0   758 1070  537
[48]  38(B02)  1 10 18  0  -1478.7 20460020.8 -0.1  1 0  185  278  581
[50]  49(B13)  1 11  7  0  -2051.0 20460032.2 -0.1  1 0  360  289  548
[51]  65(B29)  1  9  7  0  -3300.4 20460043.9  0.0  1 0  487  466  605
$GNGGA,090451.927,,,,,0,00,,,M,,,,0000*2E
$GNRMC,090451.927,A,,,,,,,030419,,*2C
$GPGSA,A,1,,,,,,,,,,,,,,,*1E
$BDGSA,A,1,,,,,,,,,,,,,,,*0F
$GLGSA,A,1,,,,,,,,,,,,,,,*02
$GPGSV,2,1,07,04,00,000,40,07,00,000,43,13,00,000,40,17,00,000,45*7C
$GPGSV,2,2,07,19,00,000,43,28,00,000,43,30,00,000,41*4A
$BDGSV,1,1,04,02,00,000,37,05,00,000,41,13,00,000,42,29,00,000,44*65
$B3CN0,0,0,0,0,0,0,0,0,0,0,0,0,0,0*4C
$GLGSV,1,1,01,20,00,000,39*5C
---00000036--- Acq_st=7 0  2019-4-3 9:4:52 
[00]  03(G04)  f 40  7  0   1406.3  2045998.1  0.1  2 0 1275 1784  680
[01]  06(G07)  f 43  7  0    807.6  2045998.9  0.0  2 0 1348 2075 1262
[02]  12(G13)  f 40  7  0  -1304.5  2046001.6 -0.0  2 0 1136 1489  814
[03]  16(G17)  f 44  7  0  -2807.9  2046003.6 -0.0  2 0 1627 2638 1573
[04]  18(G19)  f 43  7  0  -3908.8  2046005.0  0.0  2 0 1151 1857  952
[05]  27(G28)  f 43  7  0  -2890.5  2046003.7 -0.0  2 0 1569 2190  942
[06]  29(G30)  f 41  7  0  -1431.3  2046001.8  0.1  2 0  841 1736  651
[16]  38(B02) 1f 37 26  0  -1094.5  4092002.7  0.2  2 0  531  648  417
[17]  41(B05) 1f 42 23  0  -1101.5  4092002.8 -0.5  2 0 1548 1612  531
[18]  49(B13) 1f 42  8  0  -2035.9  4092005.2 -0.0  2 0 1153 1572  760
[19]  65(B29) 1f 44  7  0  -2669.4  4092006.8  0.0  2 0 2040 2546 1664
[32]  79(N-2) 8f 37  7  0  -3757.5  1022002.4  0.1  2 0   408  550  326
[33]  83(N02)  f 39  7  0  -3764.2  1022002.3  0.7  2 0   534  786  426
[34]  86(N05)  1  7  7  0  -3500.0  1022003.8 -0.0  1 0   252  422  714
[48]  38(B02)  1 21 10  1  -1071.7 20460019.8 -0.1  1 0  396  202  757
[49]  41(B05)  1 25 23  0   -940.7 20460020.8 -0.2  1 0  412  500  929
[51]  65(B29)  1  7  7  0  -3408.2 20460045.2  0.1  1 0  379  109  412
$GNGGA,090452.927,,,,,0,00,,,M,,,,0000*2D
$GNRMC,090452.927,A,,,,,,,030419,,*2F
$GPGSA,A,1,,,,,,,,,,,,,,,*1E
$BDGSA,A,1,,,,,,,,,,,,,,,*0F
$GLGSA,A,1,,,,,,,,,,,,,,,*02
$GPGSV,2,1,07,04,00,000,40,07,00,000,43,13,00,000,40,17,00,000,44*7D
$GPGSV,2,2,07,19,00,000,43,28,00,000,43,30,00,000,41*4A
$BDGSV,1,1,04,02,00,000,37,05,00,000,42,13,00,000,42,29,00,000,44*66
$B3CN0,0,0,0,0,0,0,0,0,0,0,0,0,0,0*4C
$GLGSV,1,1,01,20,00,000,37*52
---00000037--- Acq_st=7 0  2019-4-3 9:4:53 
[00]  03(G04)  f 40  7  0   1403.6  2045998.1 -0.1  2 0  895 1466  282
[01]  06(G07)  f 43  7  0    804.6  2045998.9  0.0  2 0 1391 1946  889
[02]  12(G13)  f 40  7  0  -1311.1  2046001.7 -0.0  2 0 1322 1589  586
[03]  16(G17)  f 44  7  0  -2813.0  2046003.6  0.1  2 0 1467 2131 1223
[04]  18(G19)  f 43  9  0  -3917.8  2046005.0  0.0  2 0 1574 2138  840
[05]  27(G28)  f 43  7  0  -2900.2  2046003.7  0.0  2 0 1506 2805 1735
[06]  29(G30)  f 42  7  0  -1436.2  2046001.8 -0.0  2 0 1034 1825  947
[16]  38(B02) 1f 37 28  0  -1111.8  4092002.9  0.4  2 0  557  723  392
[17]  41(B05) 1f 41 19  0  -1107.2  4092002.8  0.7  2 0 1325 1360   91
[18]  49(B13) 1f 42  7  0  -2047.4  4092005.3 -0.0  2 0 1418 2022 1202
[19]  65(B29) 1f 44 10  0  -2675.5  4092006.9  0.0  2 0 2346 2790 1070
[32]  79(N-2) 8f 37  7  0  -3763.7  1022002.4 -0.1  2 0    84  350  626
[33]  83(N02)  f 39  7  0  -3772.1  1022002.3 -0.5  2 0   513  887  435
[34]  86(N05)  1 24  7  0  -3354.1  1022002.5  0.7  1 0   107  332  461
[48]  38(B02)  1 10 10  0   -225.2 20460023.8  0.1  1 0  277  158   41
[49]  41(B05)  1 24 23  0  -1257.1 20460017.7  0.1  1 0  467  401  312
[50]  49(B13)  1  9  7  0  -1397.0 20460033.6 -0.0  1 0  503  501  272
$GNGGA,090453.927,,,,,0,00,,,M,,,,0000*2C
$GNRMC,090453.927,A,,,,,,,030419,,*2E
$GPGSA,A,1,,,,,,,,,,,,,,,*1E
$BDGSA,A,1,,,,,,,,,,,,,,,*0F
$GLGSA,A,1,,,,,,,,,,,,,,,*02
$GPGSV,2,1,07,04,00,000,40,07,00,000,43,13,00,000,40,17,00,000,44*7D
$GPGSV,2,2,07,19,00,000,43,28,00,000,43,30,00,000,42*49
$BDGSV,1,1,04,02,00,000,37,05,00,000,41,13,00,000,42,29,00,000,44*65
$B3CN0,0,0,0,0,0,0,0,0,0,0,0,0,0,0*4C
$GLGSV,1,1,01,20,00,000,37*52
---00000038--- Acq_st=3 0  2019-4-3 9:4:54 
[00]  03(G04)  f 39  7  0   1416.2  2045998.1  0.1  2 0  630 1209  670
[01]  06(G07)  f 43  7  0    814.9  2045998.9  0.0  2 0 1540 1945  979
[02]  12(G13)  f 40  7  0  -1300.7  2046001.6  0.2  2 0 1192 1313  520
[03]  16(G17)  f 44  7  0  -2800.4  2046003.6 -0.0  2 0 1057 2316 1459
[04]  18(G19)  f 43  8  0  -3900.1  2046005.0  0.0  2 0 1386 2053 1007
[05]  27(G28)  f 43  7  0  -2888.2  2046003.7  0.1  2 0 1285 1967  570
[06]  29(G30)  f 42  7  0  -1423.4  2046001.8  0.1  2 0 1277 1786 1116
[16]  38(B02) 1f 36 20  0  -1085.2  4092002.7 -0.5  2 0  997  853  219
[17]  41(B05) 1f 40 24  0  -1098.2  4092002.7  0.3  2 0 1073 1395  357
[18]  49(B13) 1f 42  7  0  -2029.7  4092005.2 -0.1  2 0 1036 1706  756
[19]  65(B29) 1f 44  7  0  -2661.8  4092006.8 -0.0  2 0 1905 2551 1150
[32]  79(N-2) 8f 37  7  0  -3747.9  1022002.4  0.1  2 0   731  782  200
[33]  83(N02)  f 38  7  0  -3755.6  1022002.4 -0.4  2 0   460  778  454
[34]  86(N05)  1 23  7  0  -3339.8  1022001.7  0.5  1 0   468  423  116
[49]  41(B05)  1 25 25  1  -1231.2 20460021.5  0.1  1 0  463  526  667
[50]  49(B13)  1  7  7  0  -1259.3 20460032.4  0.1  1 0  282  304  376
[51]  65(B29)  1  7  7  0  -2667.3 20460043.1 -0.2  1 0  246   82  185
$GNGGA,090454.796,2944.9167,N,10633.0864,E,1,09,2.6,304.2,M,,,,0000*12
$GNRMC,090454.796,A,2944.9167,N,10633.0864,E,1.02,0.00,030419,,*1A
$GPGSA,A,3,07,13,17,19,28,30,,,,,,,3.6,2.6,2.4*37
$BDGSA,A,3,02,13,,,,,,,,,,,3.6,2.6,2.4*24
$GLGSA,A,3,21,,,,,,,,,,,,3.6,2.6,2.4*2A
$GPGSV,2,1,07,04,00,000,39,07,00,000,43,13,00,000,40,17,00,000,44*73
$GPGSV,2,2,07,19,00,000,43,28,00,000,43,30,00,000,42*49
$BDGSV,1,1,04,02,00,000,36,05,00,000,40,13,00,000,42,29,00,000,44*65
$B3CN0,0,0,0,0,0,0,0,0,0,0,0,0,0,0*4C
$GLGSV,1,1,01,20,00,000,37*52
---00000039--- Acq_st=3 0  2019-4-3 9:4:55 
[00]  03(G04)  f 39  7  0   1417.4  2045998.1  0.1  2 0  500 1366  499
[01]  06(G07)  f 43  7  0    821.5  2045998.9 -0.0  2 0 1390 2208 1077
[02]  12(G13)  f 40  8  0  -1297.2  2046001.6  0.0  2 0 1145 1702  777
[03]  16(G17)  f 43  7  0  -2797.1  2046003.6 -0.0  2 0 1348 2146  857
[04]  18(G19)  f 43 13  0  -3899.6  2046005.0 -0.0  2 0 1304 1998  694
[05]  27(G28)  f 43  7  0  -2881.6  2046003.7  0.0  2 0  969 2251 1245
[06]  29(G30)  f 42  7  0  -1421.0  2046001.8 -0.0  2 0 1128 2206 1327
[16]  38(B02) 1f 37 30  0  -1086.2  4092002.7  0.5  2 0  996  769  153
[17]  41(B05) 1f 42 16  0  -1087.6  4092002.7  0.2  2 0 1319 1533  517
[18]  49(B13) 1f 42  7  0  -2027.6  4092005.2  0.0  2 0 1580 1968  792
[19]  65(B29) 1f 44  7  0  -2658.3  4092006.8  0.0  2 0 1692 2653 1464
[32]  79(N-2) 8f 37  7  0  -3745.3  1022002.3 -0.2  2 0   477  759  137
[33]  83(N02)  f 38  7  0  -3753.6  1022002.3  0.2  2 0   872 1087  473
[34]  86(N05)  7 36  7  0  -3343.7  1022002.0  0.0  2 0   965 1057  344
[48]  38(B02)  1 10 10  1   -647.6 20460013.2 -0.0  1 0  668  375  438
[49]  41(B05)  1 26 26  0  -1172.7 20460024.6 -0.0  1 0  541  571  926
[50]  49(B13)  1  7  7  0  -1040.8 20460033.0  0.0  1 0  444  423  167
[51]  65(B29)  1  7  7  0  -2769.9 20460042.7  0.1  1 0  872  522  211
BDS IONO corr PRN[02] 46.69 218.93 66.25 291913.88
usrllh latitude:0.519211 longitude:1.859673
ion_pt: a0:0.000000 a1:0.000000 a2:-0.000002 a3:0.000005 b0:135168.000000 b1:-540672.000000 b2:3538944.000000 b3:-3801088.000000 
BDS IONO corr PRN[13] 52.33 198.64 61.64 291913.88
usrllh latitude:0.519211 longitude:1.859673
ion_pt: a0:0.000000 a1:0.000000 a2:-0.000002 a3:0.000005 b0:135168.000000 b1:-540672.000000 b2:3538944.000000 b3:-3801088.000000 
Refix G07: 2, 291913.931051, 818
Refix G13: 2, 291913.916596, -1293
Refix G17: 2, 291913.923354, -2799
Refix G19: 2, 291913.916189, -3902
Refix G28: 2, 291913.925382, -2883
Refix G30: 2, 291913.931407, -1420
$GNGGA,090456.000,2944.9161,N,10633.0760,E,1,09,1.4,327.3,M,,,,0000*14
$GNRMC,090456.000,A,2944.9161,N,10633.0760,E,0.86,0.00,030419,,*10
$GPGSA,A,3,07,13,17,19,28,30,,,,,,,1.6,1.4,0.9*3B
$BDGSA,A,3,02,13,,,,,,,,,,,1.6,1.4,0.9*28
$GLGSA,A,3,20,,,,,,,,,,,,1.6,1.4,0.9*27
$GPGSV,2,1,07,04,00,000,39,07,00,000,43,13,00,000,40,17,00,000,43*74
$GPGSV,2,2,07,19,00,000,43,28,00,000,43,30,00,000,42*49
$BDGSV,1,1,04,02,00,000,37,05,00,000,42,13,00,000,42,29,00,000,44*66
$B3CN0,0,0,0,0,0,0,0,0,0,0,0,0,0,0*4C
$GLGSV,1,1,01,20,00,000,37*52
---00000040--- Acq_st=3 0  2019-4-3 9:4:56 
[00]  03(G04)  f 39  7  0   1398.2  2045998.1  0.0  2 0  724 1594  270
[01]  06(G07)  f 43  7  0    800.8  2045998.9 -0.0  2 0 1760 2010  802
[02]  12(G13)  f 41  7  0  -1313.7  2046001.6  0.0  2 0 1121 1116  432
[03]  16(G17)  f 42  7  0  -2818.1  2046003.7 -0.0  2 0  430 1659 1044
[04]  18(G19)  f 43  7  0  -3922.4  2046005.0  0.0  2 0 1341 2276 1141
[05]  27(G28)  f 42  7  0  -2898.1  2046003.7  0.1  2 0  989 1893  833
[06]  29(G30)  f 42  7  0  -1439.1  2046001.8  0.0  2 0 1348 1878 1228
[16]  38(B02) 1f 38 23  0  -1108.3  4092002.9 -0.4  2 0 1144 1178  736
[17]  41(B05) 1f 41 27  0  -1114.0  4092002.8  0.3  2 0  886 1143  257
[18]  49(B13) 1f 43  7  0  -2044.4  4092005.2 -0.0  2 0 1530 2162 1232
[19]  65(B29) 1f 44  7  0  -2677.7  4092006.9  0.0  2 0 2315 2350  689
[32]  79(N-2) 8f 37  7  0  -3765.3  1022002.4  0.2  2 0   497 1053  650
[33]  83(N02)  f 39  7  0  -3775.7  1022002.5 -0.8  2 0   399  392  273
[34]  86(N05)  7 36  7  0  -3358.9  1022002.1  0.3  2 0   562  462   69
[48]  38(B02)  f 10 10  0   -629.4 20460009.4  0.2  2 0  687  723  602
[50]  49(B13)  1  7  7  0  -1446.7 20460032.3  0.0  1 0   32  306  511
[51]  65(B29)  1  7  7  0  -3334.4 20460041.1 -0.0  1 0  166  215  501
BDS IONO corr PRN[02] 46.69 218.93 66.24 291914.88
usrllh latitude:0.519211 longitude:1.859670
ion_pt: a0:0.000000 a1:0.000000 a2:-0.000002 a3:0.000005 b0:135168.000000 b1:-540672.000000 b2:3538944.000000 b3:-3801088.000000 
BDS IONO corr PRN[13] 52.33 198.64 61.64 291914.88
usrllh latitude:0.519211 longitude:1.859670
ion_pt: a0:0.000000 a1:0.000000 a2:-0.000002 a3:0.000005 b0:135168.000000 b1:-540672.000000 b2:3538944.000000 b3:-3801088.000000 
Refix G07: 2, 291914.931051, 798
Refix G13: 2, 291914.916597, -1312
Refix G17: 2, 291914.923355, -2822
Refix G19: 2, 291914.916191, -3922
Refix G28: 2, 291914.925384, -2904
