i=1
Rf R0 Config = ff777073
Rf R1 Config = 00dffbfe
Rf R52 Config = 00dfeec0
i=2
Rf R0 Config = 007770f3
Rf R1 Config = 00dcfbfe
Rf R52 Config = 00db4e70
i=3
Rf R0 Config = 007770f3
Rf R1 Config = 00dffbf2
Rf R52 Config = 00dfee50
i=4
Rf R0 Config = 00777073
Rf R1 Config = 00dffbfe
Rf R52 Config = 00dfce40
SD initialized success
Create debug.log Failed! 3
Start Channel by LuYu
$GNGGA,000000.000,,,,,0,00,,,M,,,,0000*2B
$GNRMC,000000.000,A,,,,,,,060180,,*29
$GPGSA,A,1,,,,,,,,,,,,,,,*1E
$BDGSA,A,1,,,,,,,,,,,,,,,*0F
$GLGSA,A,1,,,,,,,,,,,,,,,*02
$B3CN0,0,0,0,0,0,0,0,0,0,0,0,0,0,0*4C
---00000001--- Acq_st=3 0  2019-4-3 3:34:49 
[00]  02(G03)  1 28  7  0    231.8  2046000.8  0.2  1 0 1862 3540 1442
[01]  07(G08)  1  7  7  0  -4750.0  2046008.1 -0.0  1 0  416  712 1284
$GNGGA,000000.000,,,,,0,00,,,M,,,,0000*2B
$GNRMC,000000.000,A,,,,,,,060180,,*29
$GPGSA,A,1,,,,,,,,,,,,,,,*1E
$BDGSA,A,1,,,,,,,,,,,,,,,*0F
$GLGSA,A,1,,,,,,,,,,,,,,,*02
$B3CN0,0,0,0,0,0,0,0,0,0,0,0,0,0,0*4C
---00000002--- Acq_st=3 0  2019-4-3 3:34:50 
[00]  02(G03)  7 19  7  0    235.3  2045999.6  0.8 10 0 1862 2670 1272
[01]  07(G08)  1 29  7  0  -4811.6  2046006.5  0.8  1 0  793 1265  831
[02]  15(G16)  1 13  7  0  -1836.1  2046004.7 -0.2  1 0  151  539 1344
[03]  21(G22)  1  7  7  0   1000.0  2046001.4 -0.1  1 0  452 1079 1852
[04]  22(G23)  1  7  7  0  -4250.0  2046006.9 -0.0  1 0   28  721 1869
$GNGGA,000000.000,,,,,0,00,,,M,,,,0000*2B
$GNRMC,000000.000,A,,,,,,,060180,,*29
$GPGSA,A,1,,,,,,,,,,,,,,,*1E
$BDGSA,A,1,,,,,,,,,,,,,,,*0F
$GLGSA,A,1,,,,,,,,,,,,,,,*02
$GPGSV,1,1,01,03,00,000,19*43
$B3CN0,0,0,0,0,0,0,0,0,0,0,0,0,0,0*4C
---00000003--- Acq_st=3 0  2019-4-3 3:34:51 
[00]  02(G03)  7 46  7  0    235.1  2045999.6  0.0  2 0 1902 3219 1613
[01]  07(G08)  7 32  7  0  -4803.6  2046006.1  0.2  5 0  696  989  251
[02]  15(G16)  7 18  7  0  -1849.2  2046002.2  0.7 10 0  900 1270  565
[03]  21(G22)  1 29  7  0    869.7  2045999.0  0.7  1 0 1120 1213  586
[04]  22(G23)  1 30  7  0  -4202.0  2046005.4  0.5  1 0 1099 1148  310
[16]  38(B02)  1 10 10  0  -1250.0  4092005.2 -0.0  1 0   50 1087 1223
$GNGGA,033655.745,,,,,0,00,,,M,,,,0000*2B
$GNRMC,033655.745,A,,,,,,,090180,,*26
$GPGSA,A,1,,,,,,,,,,,,,,,*1E
$BDGSA,A,1,,,,,,,,,,,,,,,*0F
$GLGSA,A,1,,,,,,,,,,,,,,,*02
$GPGSV,1,1,03,03,00,000,46,08,00,000,32,16,00,000,16*42
$B3CN0,0,0,0,0,0,0,0,0,0,0,0,0,0,0*4C
---00000004--- Acq_st=3 0  2019-4-3 3:34:52 
[00]  02(G03)  f 44  7  0    241.0  2045999.6 -0.0  2 0 1634 2784 1536
[01]  07(G08)  f 39  7  0  -4804.4  2046006.1 -0.1  2 0  864 1314  480
[02]  15(G16)  7 42  7  0  -1846.6  2046002.3  0.1  2 0 1578 1963  390
[03]  21(G22)  7 31  7  0    876.3  2045998.8  0.4  5 0 1243 1011  293
[04]  22(G23)  7 31  7  0  -4202.7  2046005.4  0.4  5 0  694 1414  625
[16]  38(B02)  1 10 13  1  -1137.8  4092004.6  0.4  1 0  511  642  132
[17]  41(B05)  1 10 24  1  -1129.8  4092004.0  0.3  1 0  352  576 1071
$GNGGA,033656.745,,,,,0,00,,,M,,,,0000*28
$GNRMC,033656.745,A,,,,,,,090180,,*25
$GPGSA,A,1,,,,,,,,,,,,,,,*1E
$BDGSA,A,1,,,,,,,,,,,,,,,*0F
$GLGSA,A,1,,,,,,,,,,,,,,,*02
$GPGSV,2,1,05,03,00,000,44,08,00,000,39,16,00,000,42,22,00,000,31*7D
$GPGSV,2,2,05,23,00,000,31*4F
$B3CN0,0,0,0,0,0,0,0,0,0,0,0,0,0,0*4C
---00000005--- Acq_st=3 0  2019-4-3 3:34:53 
[00]  02(G03)  f 44  7  0    238.6  2045999.6 -0.0  2 0 1261 2577 1414
[01]  07(G08)  f 40  7  0  -4800.9  2046006.1 -0.1  2 0  757 1178  438
[02]  15(G16)  7 42  7  0  -1845.6  2046002.3 -0.0  2 0 1318 1914  961
[03]  21(G22)  7 41  7  0    879.3  2045998.8 -0.0  2 0  856 1139  652
[04]  22(G23)  7 41  7  0  -4200.3  2046005.4 -0.0  2 0 1135 1590  721
[16]  38(B02)  f 37 26  0  -1126.9  4092002.8  0.2  2 0 1239 1076  309
[17]  41(B05)  1 10 26  1  -1127.8  4092005.6  0.4  1 0  942 1009  300
[18]  46(B10)  1  7  9  0  -1074.1  4092003.1  0.2  1 0  479  986  505
$GNGGA,033657.745,,,,,0,00,,,M,,,,0000*29
$GNRMC,033657.745,A,,,,,,,030419,,*2B
$GPGSA,A,1,,,,,,,,,,,,,,,*1E
$BDGSA,A,1,,,,,,,,,,,,,,,*0F
$GLGSA,A,1,,,,,,,,,,,,,,,*02
$GPGSV,2,1,05,03,00,000,44,08,00,000,40,16,00,000,42,22,00,000,41*74
$GPGSV,2,2,05,23,00,000,41*48
$BDGSV,1,1,01,02,00,000,36*5E
$B3CN0,0,0,0,0,0,0,0,0,0,0,0,0,0,0*4C
---00000006--- Acq_st=3 0  2019-4-3 3:34:54 
[00]  02(G03)  f 44  7  0    240.3  2045999.7  0.0  2 0 1822 2686 1005
[01]  07(G08)  f 40  7  0  -4805.0  2046006.1 -0.1  2 0  830 1298  826
[02]  15(G16)  7 42  7  0  -1843.3  2046002.3 -0.0  2 0 1835 1778  601
[03]  21(G22)  7 41  7  0    880.7  2045998.8 -0.0  2 0 1285 1358  299
[04]  22(G23)  7 40  7  0  -4201.6  2046005.4  0.1  2 0  437 1356  668
[16]  38(B02) 1f 36 25  0  -1130.6  4092002.8 -0.8  2 0  836  635  291
[17]  41(B05)  7 26 10  0  -1165.6  4092002.9  0.3  2 0 1295  777  169
[18]  46(B10)  7 23  7  0  -1072.8  4092002.7  0.1 10 0 1076 1692  991
[19]  54(B18)  1  7  7  0   -999.9  4092004.7  0.0  1 0  328 1258 1869
[20]  55(B19)  1  7  7  0  -3364.0  4092009.1 -0.0  1 0 1115 1708  781
[48]  38(B02)  1 10 10  1  -1031.0 20460020.7  0.1  1 0  345  360  330
$GNGGA,033658.745,,,,,0,00,,,M,,,,0000*26
$GNRMC,033658.745,A,,,,,,,030419,,*24
$GPGSA,A,1,,,,,,,,,,,,,,,*1E
$BDGSA,A,1,,,,,,,,,,,,,,,*0F
$GLGSA,A,1,,,,,,,,,,,,,,,*02
$GPGSV,2,1,05,03,00,000,44,08,00,000,40,16,00,000,42,22,00,000,41*74
$GPGSV,2,2,05,23,00,000,40*49
$BDGSV,1,1,03,02,00,000,36,05,00,000,20,10,00,000,23*5B
$B3CN0,0,0,0,0,0,0,0,0,0,0,0,0,0,0*4C
---00000007--- Acq_st=3 0  2019-4-3 3:34:55 
[00]  02(G03)  f 44  7  0    241.8  2045999.6  0.0  2 0 1927 2818 1515
[01]  07(G08)  f 40  7  0  -4804.8  2046006.2  0.1  2 0  942 1217  673
[02]  15(G16)  7 42  7  0  -1841.8  2046002.3  0.0  2 0 1403 1593  762
[03]  21(G22)  7 41  7  0    878.4  2045998.8  0.0  2 0  648 1009  785
[04]  22(G23)  7 40  8  0  -4202.2  2046005.4 -0.0  2 0 1112 1514  690
[16]  38(B02) 1f 40 25  0  -1130.2  4092002.8  0.7  2 0 1162  958  168
[17]  41(B05)  7 37 24  0  -1127.9  4092002.6  0.7  2 0 1440  993   48
[18]  46(B10)  7 40  7  0  -1072.9  4092002.7  0.1  2 0  841 1543  275
[19]  54(B18)  7  7  7  0   -996.4  4092002.6  0.4  5 0 1139 1803  700
[20]  55(B19)  1  7  7  0  -3362.7  4092008.6 -0.1  1 0 1020 1970 1286
[48]  38(B02)  7 10 10  1  -1603.4 20460024.5 -0.0  2 0  222  437  284
$GNGGA,033659.745,,,,,0,00,,,M,,,,0000*27
$GNRMC,033659.745,A,,,,,,,030419,,*25
$GPGSA,A,1,,,,,,,,,,,,,,,*1E
$BDGSA,A,1,,,,,,,,,,,,,,,*0F
$GLGSA,A,1,,,,,,,,,,,,,,,*02
$GPGSV,2,1,05,03,00,000,44,08,00,000,40,16,00,000,42,22,00,000,41*74
$GPGSV,2,2,05,23,00,000,40*49
$BDGSV,1,1,03,02,00,000,40,05,00,000,37,10,00,000,40*59
$B3CN0,0,0,0,0,0,0,0,0,0,0,0,0,0,0*4C
---00000008--- Acq_st=3 0  2019-4-3 3:34:56 
[00]  02(G03)  f 43  7  0    243.2  2045999.6  0.0  2 0 1920 3047 1370
[01]  07(G08)  f 40  7  0  -4805.2  2046006.1 -0.0  2 0  601 1349  482
[02]  15(G16)  7 42  7  0  -1846.5  2046002.3  0.0  2 0 1073 1978 1173
[03]  21(G22)  7 41  7  0    877.6  2045998.8  0.0  2 0  964 1540  356
[04]  22(G23)  7 40  7  0  -4203.2  2046005.4  0.2  2 0  719 1591  863
[16]  38(B02) 1f 38 26  0  -1125.4  4092002.9 -0.8  2 0 1059 1074  685
[17]  41(B05)  f 38 19  0  -1130.1  4092002.7  0.4  2 0  824  807  421
[18]  46(B10)  7 39  7  0  -1070.8  4092002.6  0.2  2 0  451 1378  380
[19]  54(B18)  7 43  7  0   -999.1  4092002.5  0.0  2 0 1628 1810  454
[20]  55(B19)  7 39  7  0  -3366.2  4092008.8  0.0  2 0 1320 1837 1072
[21]  68(B32)  1  7  7  0   1500.0  4091997.0 -0.1  1 0 1336 1767  682
[32]  75(N-6)  1  9  7  0   -750.0  1022001.9 -0.0  1 0   259  760  663
[33]  76(N-5)  1 16  7  0   2751.2  1022000.1  0.1  1 0   212  533  709
[48]  38(B02)  7 20 18  1  -1792.6 20460031.3  0.2  2 0  735  212  185
$GNGGA,033700.745,,,,,0,00,,,M,,,,0000*2A
$GNRMC,033700.745,A,,,,,,,030419,,*28
$GPGSA,A,1,,,,,,,,,,,,,,,*1E
$BDGSA,A,1,,,,,,,,,,,,,,,*0F
$GLGSA,A,1,,,,,,,,,,,,,,,*02
$GPGSV,2,1,05,03,00,000,43,08,00,000,40,16,00,000,42,22,00,000,41*73
$GPGSV,2,2,05,23,00,000,40*49
$BDGSV,2,1,05,02,00,000,38,05,00,000,38,10,00,000,39,18,00,000,43*6C
$BDGSV,2,2,05,19,00,000,38*5E
$B3CN0,0,19,0,0,0,0,0,0,0,0,0,0,0,0*74
---00000009--- Acq_st=7 0  2019-4-3 3:34:57 
[00]  02(G03)  f 43  7  0    243.0  2045999.6 -0.0  2 0 1665 2572 1332
[01]  07(G08)  f 40  7  0  -4804.0  2046006.2 -0.1  2 0  964 1366  971
[02]  15(G16)  7 42  7  0  -1842.9  2046002.3 -0.1  2 0 1302 1870 1019
[03]  21(G22)  7 42  7  0    879.8  2045998.8  0.1  2 0  970 1425  401
[04]  22(G23)  7 40  7  0  -4198.3  2046005.4  0.0  2 0  752 1110  778
[16]  38(B02) 1f 39 23  0  -1125.9  4092002.9  0.6  2 0  891 1014  418
[17]  41(B05) 1f 39 24  0  -1127.3  4092002.7 -0.8  2 0  937  844  423
[18]  46(B10)  7 40  7  0  -1070.2  4092002.7 -0.0  2 0  934 1331  691
[19]  54(B18)  7 42  7  0   -992.5  4092002.5  0.1  2 0 1140 1839  937
[20]  55(B19)  7 42  8  0  -3364.4  4092008.8  0.0  2 0  850 1338  929
[21]  68(B32)  1  7  7  0   1531.1  4091995.4  0.4  1 0 1035 1084  508
[32]  75(N-6)  1 27 16  0   -675.2  1022001.4  1.0  1 0   862  597  391
[33]  76(N-5)  1 20 16  0   2813.5  1021998.5  0.1  1 0   790  848  249
[34]  78(N-3)  1 17 19  0  -1435.4  1021999.9  0.0  1 0   328  285   98
[35]  80(N-1)  1 21 15  0  -4247.5  1022005.1  0.3  1 0   441 1178 1060
[36]  81(N00)  1 30 18  0  -2451.7  1022003.6  0.3  1 0   279 1165 1318
[48]  38(B02)  7 18 10  0  -2062.2 20460033.9 -0.1  2 0  243  551  504
[49]  41(B05)  1 24 25  1   -629.2 20460021.2  0.0  1 0   60  189  240
$GNGGA,033701.745,,,,,0,00,,,M,,,,0000*2B
$GNRMC,033701.745,A,,,,,,,030419,,*29
$GPGSA,A,1,,,,,,,,,,,,,,,*1E
$BDGSA,A,1,,,,,,,,,,,,,,,*0F
$GLGSA,A,1,,,,,,,,,,,,,,,*02
$GPGSV,2,1,05,03,00,000,43,08,00,000,40,16,00,000,42,22,00,000,42*70
$GPGSV,2,2,05,23,00,000,40*49
$BDGSV,2,1,05,02,00,000,38,05,00,000,38,10,00,000,40,18,00,000,42*63
$BDGSV,2,2,05,19,00,000,42*53
$B3CN0,0,19,0,0,0,0,0,0,0,0,0,0,0,0*74
---00000010--- Acq_st=7 0  2019-4-3 3:34:58 
[00]  02(G03)  f 44  7  0    243.5  2045999.6  0.1  2 0 2046 2599  928
[01]  07(G08)  f 40 10  0  -4808.4  2046006.2  0.0  2 0  854 1171  559
[02]  15(G16)  f 42  7  0  -1842.6  2046002.3  0.1  2 0 1098 1838  625
[03]  21(G22)  f 42 10  0    881.2  2045998.8 -0.0  2 0 1257 1708  589
[04]  22(G23)  f 41  7  0  -4200.1  2046005.4 -0.0  2 0  605 1539  881
[16]  38(B02) 1f 39 26  0  -1126.1  4092002.8 -0.5  2 0  674 1119  584
[17]  41(B05) 1f 39 24  0  -1129.4  4092002.8 -0.6  2 0 1384 1045  408
[18]  46(B10)  7 39  7  0  -1071.7  4092002.7 -0.1  2 0 1053 1256  579
[19]  54(B18)  7 42  7  0   -992.9  4092002.5 -0.0  2 0 1026 1638  378
[20]  55(B19)  7 42  7  0  -3359.6  4092008.7  0.1  2 0  910 1390 1003
[21]  68(B32)  7 34  7  0   1538.9  4091995.9 -0.1  5 0  887 1250  761
[32]  75(N-6)  1 27 17  0   -675.4  1022000.4  0.8  1 0   458  361  293
[33]  76(N-5)  1 24 17  0   2811.9  1021997.4  0.3  1 0   160  416  272
[34]  78(N-3)  1 19 18  0  -1493.2  1022000.3  0.1  1 0   244  337  586
[35]  80(N-1)  1 25 17  0  -4246.9  1022002.5  0.9  1 0   731 1026  522
[36]  81(N00)  1 42 17  0  -2451.0  1022001.1  1.0  1 0  1001 1492  619
[48]  38(B02)  7 10 13  0  -3055.4 20460050.2 -0.0  2 0  192  106  156
[49]  41(B05)  1 24 23  0   -121.2 20460017.6  0.0  1 0  279  581 1060
$GNGGA,033702.745,,,,,0,00,,,M,,,,0000*28
$GNRMC,033702.745,A,,,,,,,030419,,*2A
$GPGSA,A,1,,,,,,,,,,,,,,,*1E
$BDGSA,A,1,,,,,,,,,,,,,,,*0F
$GLGSA,A,1,,,,,,,,,,,,,,,*02
$GPGSV,2,1,05,03,00,000,44,08,00,000,40,16,00,000,42,22,00,000,42*77
$GPGSV,2,2,05,23,00,000,41*48
$BDGSV,2,1,06,02,00,000,39,05,00,000,40,10,00,000,39,18,00,000,42*60
$BDGSV,2,2,06,19,00,000,41,32,00,000,34*65
$B3CN0,0,36,0,0,0,0,0,0,0,0,0,0,0,0*79
---00000011--- Acq_st=3 0  2019-4-3 3:34:59 
[00]  02(G03)  f 44  7  0    243.7  2045999.6 -0.0  2 0 1682 2855 1666
[01]  07(G08)  f 40  7  0  -4804.9  2046006.2  0.0  2 0  811 1305  721
[02]  15(G16)  f 42  7  0  -1842.4  2046002.4  0.0  2 0 1048 1839  855
[03]  21(G22)  f 42  7  0    882.4  2045998.8  0.0  2 0 1561 2366  836
[04]  22(G23)  f 41 10  0  -4201.0  2046005.4  0.1  2 0  907 1526  538
[16]  38(B02) 1f 41 21  0  -1120.5  4092002.9  0.6  2 0  427  809  539
[17]  41(B05) 1f 39 10  0  -1123.0  4092002.7  0.1  2 0 1368 1128  540
[18]  46(B10)  7 40  7  0  -1072.9  4092002.7  0.2  2 0  997 1110  562
[19]  54(B18)  7 42  8  0   -994.2  4092002.5 -0.0  2 0 1651 1840  740
[20]  55(B19)  7 41  7  0  -3363.5  4092008.7 -0.1  2 0 1152 1564  578
[21]  68(B32)  7 41  7  0   1539.3  4091995.9  0.0  2 0 1300 1520  393
[32]  75(N-6)  7 36 14  0   -676.5  1022000.3  0.2  2 0   283  644  462
[33]  76(N-5)  7 39 19  0   2813.4  1021998.1  0.5  2 0   273 1121  713
[34]  78(N-3)  1 16 15  0  -1247.0  1022000.3 -0.1  1 0   110  112   19
[35]  80(N-1)  7 25  7  0  -4246.2  1022002.7  0.8 10 0   830 1150  554
[36]  81(N00)  7 23  7  0  -2450.3  1022001.5  0.8 10 0   675 1055  617
[49]  41(B05)  1 22 26  1   -366.4 20460022.1 -0.1  1 0  382  487  359
$GNGGA,033703.745,,,,,0,00,,,M,,,,0000*29
$GNRMC,033703.745,A,,,,,,,030419,,*2B
$GPGSA,A,1,,,,,,,,,,,,,,,*1E
$BDGSA,A,1,,,,,,,,,,,,,,,*0F
$GLGSA,A,1,,,,,,,,,,,,,,,*02
$GPGSV,2,1,05,03,00,000,44,08,00,000,40,16,00,000,42,22,00,000,42*77
$GPGSV,2,2,05,23,00,000,41*48
$BDGSV,2,1,06,02,00,000,40,05,00,000,39,10,00,000,40,18,00,000,42*6E
$BDGSV,2,2,06,19,00,000,41,32,00,000,41*67
$B3CN0,0,0,0,0,0,0,0,0,0,0,0,0,0,0*4C
---00000012--- Acq_st=3 0  2019-4-3 3:35:0 
[00]  02(G03)  f 45  7  0    245.2  2045999.6  0.1  2 0 1765 2577 1336
[01]  07(G08)  f 40  7  0  -4806.1  2046006.1 -0.0  2 0  882 1646 1095
[02]  15(G16)  f 42  7  0  -1839.0  2046002.3 -0.1  2 0  749 1360  605
[03]  21(G22)  f 42  7  0    883.2  2045998.8 -0.1  2 0 1355 1961  735
[04]  22(G23)  f 41  7  0  -4200.6  2046005.4 -0.2  2 0  798 1348  535
[16]  38(B02) 1f 38 24  0  -1125.7  4092002.7  0.6  2 0  583  705   82
[17]  41(B05) 1f 40 24  0  -1124.9  4092002.9 -0.9  2 0 1200 1131  486
[18]  46(B10) 1f 40  7  0  -1072.4  4092002.7 -0.1  2 0  795  926  453
[19]  54(B18) 1f 42  7  0   -996.0  4092002.5 -0.0  2 0 1885 1767  741
[20]  55(B19) 1f 41  7  0  -3361.9  4092008.7  0.0  2 0  973 1370  588
[21]  68(B32) 1f 41  7  0   1542.3  4091995.9  0.1  2 0  860 1357  707
[32]  75(N-6)  7 36 17  0   -674.3  1022000.4  0.0  2 0   435  462  252
[33]  76(N-5)  7 40 15  0   2814.8  1021998.2 -0.2  2 0   457 1034  417
[34]  78(N-3)  1 17 15  0  -1995.7  1022000.6 -0.1  1 0   115  190  553
[35]  80(N-1)  7 39 17  0  -4246.4  1022002.6 -0.8  2 0   739  819  199
[36]  81(N00)  7 42 15  0  -2448.7  1022001.5  0.1  2 0   659 1174  842
[48]  38(B02)  1 13 10  1  -1153.8 20460016.7  0.1  1 0  536  418  668
[49]  41(B05)  1 25 26  0   -367.8 20460026.4  0.1  1 0  439  576  746
---00000013--- Acq_st=3 0  2019-4-3 3:35:1 
[00]  02(G03)  f 44  7  0    245.8  2045999.6  0.0  2 0 1487 2481  979
[01]  07(G08)  f 40  7  0  -4805.3  2046006.1 -0.1  2 0  814  903  182
[02]  15(G16)  f 41  7  0  -1838.2  2046002.3  0.0  2 0  686 1342  439
[03]  21(G22)  f 42  7  0    883.9  2045998.8  0.0  2 0 1128 1980  611
[04]  22(G23)  f 41  7  0  -4196.4  2046005.5 -0.1  2 0  925 1294  364
[16]  38(B02) 1f 39 22  0  -1129.1  4092002.7  0.4  2 0  337  823  346
[17]  41(B05) 1f 40 23  0  -1123.2  4092002.9  0.5  2 0  855  826  133
[18]  46(B10) 1f 40  7  0  -1074.0  4092002.7  0.0  2 0  814 1006  406
[19]  54(B18) 1f 42  7  0   -992.5  4092002.5  0.0  2 0 1188 1818 1025
[20]  55(B19) 1f 41  8  0  -3363.1  4092008.7  0.0  2 0  997 1652  849
[21]  68(B32) 1f 41  7  0   1538.2  4091995.8  0.0  2 0  910 1123  582
[32]  75(N-6)  7 36 18  0   -676.3  1022000.4  0.2  2 0   825  574  732
[33]  76(N-5)  7 39 18  0   2813.7  1021998.1  0.6  2 0   423  654  663
[35]  80(N-1)  7 37 18  0  -4247.3  1022002.7  0.1  2 0   376  573  243
[36]  81(N00)  7 44 17  0  -2447.0  1022001.5 -0.1  2 0  1083 1602  688
[48]  38(B02)  1 10 18  1  -1366.5 20460018.2 -0.1  1 0  427  100  201
[50]  46(B10)  1  7  7  0   -738.6 20460016.2 -0.0  1 0  507  616  797
[51]  54(B18)  1  7  7  0   -985.8 20460015.3  0.0  1 0  962  864  312
[52]  55(B19)  1  7  7  0  -3004.5 20460052.7 -0.1  1 0  533  623  657
[53]  68(B32)  1  8  7  0   1344.6 20459974.9  0.0  1 0  100  495  754
$GNGGA,033704.745,,,,,0,00,,,M,,,,0000*2E
$GNRMC,033704.745,A,,,,,,,030419,,*2C
$GPGSA,A,1,,,,,,,,,,,,,,,*1E
$BDGSA,A,1,,,,,,,,,,,,,,,*0F
$GLGSA,A,1,,,,,,,,,,,,,,,*02
$GPGSV,2,1,05,03,00,000,44,08,00,000,40,16,00,000,41,22,00,000,42*74
$GPGSV,2,2,05,23,00,000,41*48
$BDGSV,2,1,06,02,00,000,39,05,00,000,40,10,00,000,40,18,00,000,42*6E
$BDGSV,2,2,06,19,00,000,41,32,00,000,41*67
$B3CN0,0,0,0,0,0,0,0,0,0,0,0,0,0,0*4C
---00000014--- Acq_st=3 0  2019-4-3 3:35:2 
[00]  02(G03)  f 44  7  0    245.6  2045999.6 -0.0  2 0 1736 2546 1121
[01]  07(G08)  f 40  7  0  -4800.5  2046006.2 -0.1  2 0 1418 1630  792
[02]  15(G16)  f 42  7  0  -1839.7  2046002.3 -0.1  2 0 1341 2387  924
[03]  21(G22)  f 42  7  0    885.5  2045998.7 -0.0  2 0 1202 1433  352
[04]  22(G23)  f 40  7  0  -4206.2  2046005.4 -0.0  2 0  331 1270  717
[16]  38(B02) 1f 38 25  0  -1127.9  4092002.7 -0.8  2 0  594 1026  695
[17]  41(B05) 1f 41 28  0  -1125.5  4092002.8 -0.0  2 0 1334 1025  100
[18]  46(B10) 1f 40  7  0  -1072.8  4092002.7  0.0  2 0  331  940  766
[19]  54(B18) 1f 42  9  0   -994.6  4092002.5 -0.0  2 0 1476 1899  837
[20]  55(B19) 1f 41  7  0  -3361.0  4092008.7 -0.1  2 0 1392 1450  374
[21]  68(B32) 1f 41  7  0   1539.4  4091995.8 -0.0  2 0 1397 1506  647
[32]  75(N-6)  7 37 17  0   -672.4  1022000.4  0.0  2 0   291  640  301
[33]  76(N-5)  7 36 16  0   2814.9  1021998.1 -0.1  2 0   482  780  389
[35]  80(N-1)  7 33 17  0  -4249.7  1022002.7 -0.1  2 0   291  286   68
[36]  81(N00)  7 44 15  0  -2446.6  1022001.5 -0.0  2 0  1325 1871  847
[48]  38(B02)  1 10 10  1  -1393.0 20460023.4  0.2  1 0  144  141  407
[49]  41(B05)  1 19 25  0   -688.0 20460026.6  0.1  1 0  240  921  979
[50]  46(B10)  1  7  7  0   -337.6 20460016.9  0.2  1 0  340  648  561
[51]  54(B18)  1  7  7  0   -957.2 20460015.5  0.2  1 0  521   95  299
[52]  55(B19)  1  7  7  0  -3342.1 20460052.6  0.0  1 0  100  261  661
[53]  68(B32)  1  7  7  0   1329.0 20459975.0 -0.1  1 0 1078  419  163
$GNGGA,033705.745,,,,,0,00,,,M,,,,0000*2F
$GNRMC,033705.745,A,,,,,,,030419,,*2D
$GPGSA,A,1,,,,,,,,,,,,,,,*1E
$BDGSA,A,1,,,,,,,,,,,,,,,*0F
$GLGSA,A,1,,,,,,,,,,,,,,,*02
$GPGSV,2,1,05,03,00,000,44,08,00,000,40,16,00,000,42,22,00,000,42*77
$GPGSV,2,2,05,23,00,000,40*49
$BDGSV,2,1,06,02,00,000,38,05,00,000,41,10,00,000,40,18,00,000,42*6E
$BDGSV,2,2,06,19,00,000,41,32,00,000,41*67
$B3CN0,0,0,0,0,0,0,0,0,0,0,0,0,0,0*4C
---00000015--- Acq_st=3 0  2019-4-3 3:35:3 
[00]  02(G03)  f 44  7  0    248.2  2045999.6 -0.0  2 0 1940 2555 1514
[01]  07(G08)  f 40  7  0  -4802.5  2046006.2  0.1  2 0  776 1494  574
[02]  15(G16)  f 42  7  0  -1838.7  2046002.3  0.0  2 0  975 1773 1512
[03]  21(G22)  f 43  7  0    884.0  2045998.8 -0.0  2 0 1428 2272  944
[04]  22(G23)  f 40  7  0  -4196.4  2046005.5 -0.0  2 0  708 1754  823
[16]  38(B02) 1f 39 18  0  -1132.7  4092002.9  0.8  2 0 1199 1196  538
[17]  41(B05) 1f 39 36  0  -1124.5  4092002.8 -0.7  2 0 1256 1512  793
[18]  46(B10) 1f 40  7  0  -1070.2  4092002.7 -0.1  2 0  858 1135  408
[19]  54(B18) 1f 42  7  0   -992.1  4092002.5  0.0  2 0 1228 1455  398
[20]  55(B19) 1f 41  7  0  -3358.0  4092008.7  0.0  2 0  870  724  583
[21]  68(B32) 1f 41  7  0   1543.1  4091995.8 -0.1  2 0  892 1567  696
[32]  75(N-6)  f 32  7  0   -671.2  1022000.4 -0.1  5 0  1026  959  375
[33]  76(N-5)  f 31  7  0   2815.8  1021998.2 -0.0  5 0    88  784  472
[35]  80(N-1)  f 28  7  0  -4249.3  1022002.6 -0.0 10 0   576  450  219
[36]  81(N00)  f 34  7  0  -2447.3  1022001.5 -0.0  5 0  1109 1725  848
[48]  38(B02)  1 36 10  0  -1566.4 20460025.1 -0.2  1 0  216  414  361
[49]  41(B05)  1 22 26  0   -798.0 20460021.6  0.0  1 0  567  611  286
[50]  46(B10)  1  7  7  0    -47.2 20460017.0  0.1  1 0  728  752  778
[51]  54(B18)  1  7  7  0   -743.1 20460017.8  0.0  1 0  452  389  684
[52]  55(B19)  1  7  8  0  -3083.1 20460055.1  0.1  1 0   54  114  447
[53]  68(B32)  1  7  7  0   1466.3 20459976.0 -0.1  1 0 1201  839  551
$GNGGA,033706.745,,,,,0,00,,,M,,,,0000*2C
$GNRMC,033706.745,A,,,,,,,030419,,*2E
$GPGSA,A,1,,,,,,,,,,,,,,,*1E
$BDGSA,A,1,,,,,,,,,,,,,,,*0F
$GLGSA,A,1,,,,,,,,,,,,,,,*02
$GPGSV,2,1,05,03,00,000,44,08,00,000,40,16,00,000,42,22,00,000,43*76
$GPGSV,2,2,05,23,00,000,40*49
$BDGSV,2,1,06,02,00,000,39,05,00,000,39,10,00,000,40,18,00,000,42*60
$BDGSV,2,2,06,19,00,000,41,32,00,000,41*67
$B3CN0,0,0,0,0,0,0,0,0,0,0,0,0,0,0*4C
---00000016--- Acq_st=3 0  2019-4-3 3:35:4 
[00]  02(G03)  f 45  7  0    246.5  2045999.6  0.1  2 0 2103 3474 1503
[01]  07(G08)  f 40  7  0  -4799.9  2046006.2 -0.1  2 0  930 1655  845
[02]  15(G16)  f 42  7  0  -1837.6  2046002.3 -0.0  2 0 1232 1599  485
[03]  21(G22)  f 43  7  0    885.3  2045998.8  0.0  2 0 1140 1601  925
[04]  22(G23)  f 39  7  0  -4197.9  2046005.3 -0.2  2 0  261 1047  563
[16]  38(B02) 1f 39 25  0  -1122.1  4092002.9  0.8  2 0  768 1171  770
[17]  41(B05) 1f 40 23  0  -1124.1  4092002.8 -0.8  2 0  698  778  309
[18]  46(B10) 1f 39  7  0  -1064.6  4092002.7 -0.0  2 0  858 1298  480
[19]  54(B18) 1f 42  7  0   -991.6  4092002.5  0.0  2 0 1438 1429  493
[20]  55(B19) 1f 41  8  0  -3363.8  4092008.7 -0.1  2 0  839  882  223
[21]  68(B32) 1f 41  8  0   1540.7  4091995.8  0.0  2 0  808 1163  611
[32]  75(N-6)  f 36  7  0   -668.8  1022000.4  0.3  2 0   469  786  503
[33]  76(N-5)  f 35  7  0   2815.3  1021998.2 -0.1  2 0   580  537  490
[35]  80(N-1)  f 31 12  0  -4244.9  1022002.7 -0.0  5 0   138  197  343
[36]  81(N00)  f 44  7  0  -2445.5  1022001.5 -0.0  2 0  1375 1889 1119
[49]  41(B05)  1 24 22  0   -906.2 20460024.5 -0.1  1 0  375  429  349
[50]  46(B10)  1  7  7  0    229.3 20460016.8 -0.0  1 0  217   50  395
[51]  54(B18)  1  7  7  0   -559.6 20460018.1 -0.2  1 0  430  433  558
[52]  55(B19)  1  7  7  0  -3067.4 20460054.0 -0.0  1 0  524  153  335
[53]  68(B32)  1  7  7  0   1190.7 20459976.6 -0.0  1 0  454  574  733
$GNGGA,033707.745,,,,,0,00,,,M,,,,0000*2D
$GNRMC,033707.745,A,,,,,,,030419,,*2F
$GPGSA,A,1,,,,,,,,,,,,,,,*1E
$BDGSA,A,1,,,,,,,,,,,,,,,*0F
$GLGSA,A,1,,,,,,,,,,,,,,,*02
$GPGSV,2,1,05,03,00,000,45,08,00,000,40,16,00,000,42,22,00,000,43*77
$GPGSV,2,2,05,23,00,000,39*47
$BDGSV,2,1,06,02,00,000,39,05,00,000,40,10,00,000,39,18,00,000,42*60
$BDGSV,2,2,06,19,00,000,41,32,00,000,41*67
$B3CN0,0,0,0,0,0,0,0,0,0,0,0,0,0,0*4C
---00000017--- Acq_st=3 0  2019-4-3 3:35:5 
[00]  02(G03)  f 45  7  0    251.5  2045999.6 -0.0  2 0 1423 2225  849
[01]  07(G08)  f 40  7  0  -4801.2  2046006.2  0.0  2 0 1178 1316  589
[02]  15(G16)  f 42  7  0  -1835.2  2046002.3 -0.0  2 0 1444 1731 1009
[03]  21(G22)  f 43  7  0    887.6  2045998.7 -0.0  2 0 1493 2034  908
[04]  22(G23)  f 40  7  0  -4198.1  2046005.4  0.1  2 0 1002 1343  627
[16]  38(B02) 1f 40 25  0  -1125.3  4092002.8 -0.8  2 0  897  605  392
[17]  41(B05) 1f 39 24  0  -1121.9  4092002.8  0.7  2 0 1000 1176  457
[18]  46(B10) 1f 39  7  0  -1069.6  4092002.6 -0.1  2 0  748 1159  392
[19]  54(B18) 1f 43  7  0   -992.9  4092002.4  0.0  2 0 1417 1853  948
[20]  55(B19) 1f 41  7  0  -3358.7  4092008.7 -0.0  2 0 1540 1579  978
[21]  68(B32) 1f 42  7  0   1543.9  4091995.8  0.1  2 0 1310 1352  139
[32]  75(N-6)  f 36  7  0   -668.9  1022000.4 -0.1  2 0   716  590   73
[33]  76(N-5)  f 35  7  0   2814.7  1021998.2  0.0  2 0   542  703  469
[35]  80(N-1)  f 34  7  0  -4241.4  1022002.6 -0.1  5 0   711  724  681
[36]  81(N00)  f 44  7  0  -2443.7  1022001.5  0.0  2 0  1075 1770  625
[48]  38(B02)  1 19 10  1  -1394.5 20460021.1 -0.3  1 0  333  296  340
[49]  41(B05)  1 22 24  1  -1231.2 20460022.0  0.1  1 0  273  111  290
$GNGGA,033708.745,,,,,0,00,,,M,,,,0000*22
$GNRMC,033708.745,A,,,,,,,030419,,*20
$GPGSA,A,1,,,,,,,,,,,,,,,*1E
$BDGSA,A,1,,,,,,,,,,,,,,,*0F
$GLGSA,A,1,,,,,,,,,,,,,,,*02
$GPGSV,2,1,05,03,00,000,45,08,00,000,40,16,00,000,42,22,00,000,43*77
$GPGSV,2,2,05,23,00,000,40*49
$BDGSV,2,1,06,02,00,000,40,05,00,000,39,10,00,000,39,18,00,000,43*61
$BDGSV,2,2,06,19,00,000,41,32,00,000,42*64
$B3CN0,0,0,0,0,0,0,0,0,0,0,0,0,0,0*4C
---00000018--- Acq_st=7 0  2019-4-3 3:35:6 
[00]  02(G03)  f 44  7  0    250.5  2045999.6 -0.0  2 0 1618 2821 1401
[01]  07(G08)  f 40  7  0  -4805.7  2046006.2 -0.0  2 0  808 1473  793
[02]  15(G16)  f 42  7  0  -1833.9  2046002.3 -0.0  2 0 1222 1735  836
[03]  21(G22)  f 43  7  0    886.4  2045998.8  0.1  2 0 1228 2367 1536
[04]  22(G23)  f 40  7  0  -4196.3  2046005.3  0.0  2 0  867 1344  910
[16]  38(B02) 1f 40 24  0  -1121.7  4092002.9  0.5  2 0  776  691  365
[17]  41(B05) 1f 41 21  0  -1122.7  4092002.8  0.2  2 0 1076 1076  376
[18]  46(B10) 1f 40  7  0  -1070.1  4092002.7 -0.1  2 0 1144 1372  514
[19]  54(B18) 1f 42  8  0   -990.9  4092002.5 -0.0  2 0 1401 1930 1077
[20]  55(B19) 1f 41  7  0  -3357.0  4092008.7  0.1  2 0 1226 1441  682
[21]  68(B32) 1f 42  7  0   1543.8  4091995.8  0.0  2 0 1261 1560  780
[32]  75(N-6)  f 36 13  0   -666.9  1022000.4  0.1  2 0   341  467   72
[33]  76(N-5)  f 34  7  0   2816.5  1021998.1  0.1  2 0   483  784  545
[35]  80(N-1)  f 37  7  0  -4240.0  1022002.6 -0.2  2 0   372  659   99
[36]  81(N00)  f 43  7  0  -2442.2  1022001.5  0.0  2 0  1342 1992  797
[48]  38(B02)  1 21 36  1  -1753.1 20460024.4  0.0  1 0  379  631  852
[50]  46(B10)  1  7  7  0   -588.1 20460016.6  0.1  1 0  211  400  735
[51]  54(B18)  1  7  7  0  -1009.9 20460016.9 -0.0  1 0  538  131  155
[52]  55(B19)  1 11  7  0  -2392.0 20460054.4  0.1  1 0  498  458  430
[53]  68(B32)  1  7  7  0   1403.0 20459976.6 -0.0  1 0  671  257  464
$GNGGA,033709.745,,,,,0,00,,,M,,,,0000*23
$GNRMC,033709.745,A,,,,,,,030419,,*21
$GPGSA,A,1,,,,,,,,,,,,,,,*1E
$BDGSA,A,1,,,,,,,,,,,,,,,*0F
$GLGSA,A,1,,,,,,,,,,,,,,,*02
$GPGSV,2,1,05,03,00,000,44,08,00,000,40,16,00,000,42,22,00,000,43*76
$GPGSV,2,2,05,23,00,000,40*49
$BDGSV,2,1,06,02,00,000,40,05,00,000,41,10,00,000,40,18,00,000,42*61
$BDGSV,2,2,06,19,00,000,41,32,00,000,42*64
$B3CN0,0,0,0,0,0,0,0,0,0,0,0,0,0,0*4C
---00000019--- Acq_st=7 0  2019-4-3 3:35:7 
[00]  02(G03)  f 44  7  0    249.8  2045999.6  0.1  2 0 1903 2621 1143
[01]  07(G08)  f 40  7  0  -4802.1  2046006.2  0.0  2 0  878 1780  840
[02]  15(G16)  f 41  7  0  -1831.8  2046002.3 -0.0  2 0 1033 1592  989
[03]  21(G22)  f 43  7  0    883.1  2045998.8  0.0  2 0 1547 2286 1229
[04]  22(G23)  f 40  7  0  -4197.9  2046005.4  0.0  2 0 1118 1489  896
[16]  38(B02) 1f 40 26  0  -1126.8  4092002.9  0.6  2 0 1157 1174  363
[17]  41(B05) 1f 39 23  0  -1125.3  4092002.9  0.5  2 0  955 1248  886
[18]  46(B10) 1f 40  7  0  -1067.0  4092002.7  0.1  2 0  964 1098  168
[19]  54(B18) 1f 43 10  0   -992.4  4092002.5  0.0  2 0 1412 1681  755
[20]  55(B19) 1f 41  7  0  -3361.0  4092008.7  0.0  2 0 1509 1615  851
[21]  68(B32) 1f 42  7  0   1544.1  4091995.8 -0.0  2 0 1422 1924  834
[32]  75(N-6)  f 36  7  0   -665.6  1022000.4  0.0  2 0   477 1114  613
[33]  76(N-5)  f 34  7  0   2815.7  1021998.1  0.1  2 0   204  737  496
[35]  80(N-1)  f 37  7  0  -4242.6  1022002.7  0.1  2 0   271  452  407
[36]  81(N00)  f 42  7  0  -2443.6  1022001.6  0.0  2 0   878 1914 1126
[48]  38(B02)  1 21 17  1  -1858.3 20460019.5 -0.1  1 0  427  522  409
[49]  41(B05)  1 17 22  1  -1041.4 20460022.6 -0.0  1 0  874  665  261
[50]  46(B10)  1  7  7  0   -145.6 20460018.1 -0.0  1 0  441  650  795
[51]  54(B18)  1  7 10  0  -1013.2 20460016.0  0.0  1 0  620  894  989
[52]  55(B19)  1  7  7  0  -2859.4 20460054.3 -0.2  1 0  510  591  339
[53]  68(B32)  1  9  7  0    916.1 20459975.6  0.2  1 0  293  423  427
$GNGGA,033710.745,,,,,0,00,,,M,,,,0000*2B
$GNRMC,033710.745,A,,,,,,,030419,,*29
$GPGSA,A,1,,,,,,,,,,,,,,,*1E
$BDGSA,A,1,,,,,,,,,,,,,,,*0F
$GLGSA,A,1,,,,,,,,,,,,,,,*02
$GPGSV,2,1,05,03,00,000,44,08,00,000,40,16,00,000,41,22,00,000,43*75
$GPGSV,2,2,05,23,00,000,40*49
$BDGSV,2,1,06,02,00,000,40,05,00,000,40,10,00,000,40,18,00,000,43*61
$BDGSV,2,2,06,19,00,000,41,32,00,000,42*64
$B3CN0,0,0,0,0,0,0,0,0,0,0,0,0,0,0*4C
---00000020--- Acq_st=3 0  2019-4-3 3:35:8 
[00]  02(G03)  f 44  7  0    251.7  2045999.6  0.0  2 0 1949 2987 1337
[01]  07(G08)  f 40  7  0  -4802.8  2046006.2 -0.0  2 0  906  920  453
[02]  15(G16)  f 42  7  0  -1833.1  2046002.3  0.0  2 0  934 1504  807
[03]  21(G22)  f 43  8  0    884.8  2045998.8 -0.0  2 0 1404 2550 1048
[04]  22(G23)  f 41  7  0  -4199.6  2046005.3 -0.2  2 0  981 1798  709
[16]  38(B02) 1f 38 22  0  -1127.6  4092003.0  0.5  2 0  379 1003 1058
[17]  41(B05) 1f 40 10  0  -1124.3  4092002.8 -0.4  2 0 1249 1612  721
[18]  46(B10) 1f 39  7  0  -1074.8  4092002.7 -0.1  2 0  434  743  329
[19]  54(B18) 1f 42  7  0   -991.2  4092002.5 -0.0  2 0  948 1350  980
[20]  55(B19) 1f 42  8  0  -3357.7  4092008.7  0.0  2 0 1436 1414  339
[21]  68(B32) 1f 42  8  0   1540.9  4091995.8  0.1  2 0 1250 1904  939
[32]  75(N-6)  f 36  7  0   -667.4  1022000.4 -0.1  2 0   751  678  236
[33]  76(N-5)  f 36  7  0   2815.8  1021998.2 -0.1  2 0   467  692  637
[35]  80(N-1)  f 36  7  0  -4241.6  1022002.8  0.1  2 0   323  656  305
[36]  81(N00)  f 43  9  0  -2444.6  1022001.5 -0.0  2 0   810 1889 1046
[48]  38(B02)  1 22 10  1  -1752.5 20460023.3  0.2  1 0  222  354  572
[49]  41(B05)  1 25 23  1   -942.4 20460020.1  0.1  1 0  383  471  413
[50]  46(B10)  1 10  7  0   -173.1 20460018.2  0.0  1 0  311  282  394
[51]  54(B18)  1  7  7  0  -1207.9 20460016.5  0.1  1 0  913  909  935
[52]  55(B19)  1  7  7  0  -2441.8 20460053.4 -0.1  1 0  214  524  450
[53]  68(B32)  1  7  7  0   1224.8 20459975.6 -0.1  1 0  458  276  203
$GNGGA,033711.745,,,,,0,00,,,M,,,,0000*2A
$GNRMC,033711.745,A,,,,,,,030419,,*28
$GPGSA,A,1,,,,,,,,,,,,,,,*1E
$BDGSA,A,1,,,,,,,,,,,,,,,*0F
$GLGSA,A,1,,,,,,,,,,,,,,,*02
$GPGSV,2,1,05,03,00,000,44,08,00,000,40,16,00,000,42,22,00,000,43*76
$GPGSV,2,2,05,23,00,000,41*48
$BDGSV,2,1,06,02,00,000,38,05,00,000,40,10,00,000,39,18,00,000,42*61
$BDGSV,2,2,06,19,00,000,42,32,00,000,42*67
$B3CN0,0,0,0,0,0,0,0,0,0,0,0,0,0,0*4C
---00000021--- Acq_st=3 0  2019-4-3 3:35:9 
[00]  02(G03)  f 44  7  0    252.4  2045999.6 -0.0  2 0 1885 2948 1360
[01]  07(G08)  f 40  9  0  -4797.6  2046006.2 -0.1  2 0  727 1373  346
[02]  15(G16)  f 41  7  0  -1831.5  2046002.3 -0.1  2 0  727 1118  881
[03]  21(G22)  f 43  7  0    886.0  2045998.8 -0.0  2 0 1309 2012  665
[04]  22(G23)  f 40  8  0  -4198.3  2046005.4 -0.2  2 0  588 1324  853
[16]  38(B02) 1f 38 30  0  -1121.7  4092002.8 -0.5  2 0  778 1082  238
[17]  41(B05) 1f 39 26  0  -1121.9  4092002.9  0.1  2 0  855 1307  588
[18]  46(B10) 1f 39  7  0  -1063.2  4092002.7 -0.1  2 0  633 1071  775
[19]  54(B18) 1f 42  7  0   -991.0  4092002.5 -0.0  2 0 1439 1689  657
[20]  55(B19) 1f 42  9  0  -3357.6  4092008.6 -0.0  2 0 1490 2065 1273
[21]  68(B32) 1f 42  7  0   1542.6  4091995.8 -0.0  2 0 1697 1609  522
[32]  75(N-6)  f 36  7  0   -666.1  1022000.4  0.1  2 0   342 1025  612
[33]  76(N-5)  f 38  7  0   2819.8  1021998.1 -0.1  2 0   602  817  366
[35]  80(N-1)  f 36  7  0  -4238.8  1022002.7  0.1  2 0   432 1048  718
[36]  81(N00)  f 44  7  0  -2442.7  1022001.5 -0.0  2 0   895 1855  945
[49]  41(B05)  1 19 18  0   -703.6 20460022.5 -0.1  1 0  468  408  500
[50]  46(B10)  1  7  7  0    255.7 20460019.2  0.1  1 0  742  957  482
[51]  54(B18)  1  7  7  0  -1310.8 20460016.9  0.1  1 0 1345  928  352
[52]  55(B19)  1  7 11  0  -2360.7 20460054.9  0.2  1 0  344  358  320
[53]  68(B32)  1  7  7  0   1263.6 20459977.4 -0.0  1 0  330  367   30
$GNGGA,033712.745,,,,,0,00,,,M,,,,0000*29
$GNRMC,033712.745,A,,,,,,,030419,,*2B
$GPGSA,A,1,,,,,,,,,,,,,,,*1E
$BDGSA,A,1,,,,,,,,,,,,,,,*0F
$GLGSA,A,1,,,,,,,,,,,,,,,*02
$GPGSV,2,1,05,03,00,000,44,08,00,000,40,16,00,000,41,22,00,000,43*75
$GPGSV,2,2,05,23,00,000,40*49
$BDGSV,2,1,06,02,00,000,38,05,00,000,39,10,00,000,39,18,00,000,42*6F
$BDGSV,2,2,06,19,00,000,42,32,00,000,42*67
$B3CN0,0,0,0,0,0,0,0,0,0,0,0,0,0,0*4C
---00000022--- Acq_st=3 0  2019-4-3 3:35:10 
[00]  02(G03)  f 44  7  0    253.8  2045999.6 -0.0  2 0 2338 2994 1362
[01]  07(G08)  f 41  7  0  -4797.3  2046006.2 -0.2  2 0  897 1777  902
[02]  15(G16)  f 41  7  0  -1834.4  2046002.4 -0.0  2 0 1343 2193 1097
[03]  21(G22)  f 43  7  0    887.1  2045998.8 -0.0  2 0 1341 2072  750
[04]  22(G23)  f 40  7  0  -4196.2  2046005.4  0.2  2 0  709 1164  705
[16]  38(B02) 1f 40 18  0  -1118.5  4092002.9  0.0  2 0  838 1196  383
[17]  41(B05) 1f 41 20  0  -1125.5  4092002.9 -0.7  2 0  764 1159  724
[18]  46(B10) 1f 40  7  0  -1062.0  4092002.7 -0.0  2 0  775  870   53
[19]  54(B18) 1f 43  7  0   -991.8  4092002.5  0.0  2 0 1550 1749 1279
[20]  55(B19) 1f 43  7  0  -3355.2  4092008.7  0.0  2 0 1318 1398  324
[21]  68(B32) 1f 42  7  0   1542.8  4091995.9 -0.0  2 0 1131 1686  549
[32]  75(N-6)  f 35  7  0   -664.6  1022000.4 -0.1  2 0   508  775  574
[33]  76(N-5)  f 39  7  0   2821.9  1021998.2  0.1  2 0   543  924  206
[35]  80(N-1)  f 39  7  0  -4235.4  1022002.6  0.4  2 0   682 1015  442
[36]  81(N00)  f 44  7  0  -2443.2  1022001.5 -0.0  2 0  1257 1793  754
[48]  38(B02)  1 23 10  0   -939.1 20460022.7  0.1  1 0  528  192  521
[49]  41(B05)  1 21 23  1   -283.4 20460021.3  0.0  1 0  380  383  329
$GNGGA,033713.745,,,,,0,00,,,M,,,,0000*28
$GNRMC,033713.745,A,,,,,,,030419,,*2A
$GPGSA,A,1,,,,,,,,,,,,,,,*1E
$BDGSA,A,1,,,,,,,,,,,,,,,*0F
$GLGSA,A,1,,,,,,,,,,,,,,,*02
$GPGSV,2,1,05,03,00,000,44,08,00,000,41,16,00,000,41,22,00,000,43*74
$GPGSV,2,2,05,23,00,000,40*49
$BDGSV,2,1,06,02,00,000,40,05,00,000,41,10,00,000,40,18,00,000,43*60
$BDGSV,2,2,06,19,00,000,43,32,00,000,42*66
$B3CN0,0,0,0,0,0,0,0,0,0,0,0,0,0,0*4C
---00000023--- Acq_st=3 0  2019-4-3 3:35:11 
[00]  02(G03)  f 44 11  0    252.6  2045999.6 -0.0  2 0 2215 3232 1581
[01]  07(G08)  f 41  9  0  -4807.2  2046006.2  0.0  2 0  794 1591  599
[02]  15(G16)  f 41  7  0  -1830.8  2046002.3  0.1  2 0 1407 1817  732
[03]  21(G22)  f 43 10  0    888.7  2045998.8 -0.0  2 0 1568 2230  791
[04]  22(G23)  f 41  7  0  -4190.2  2046005.3  0.0  2 0 1243 1611  405
[16]  38(B02) 1f 39 24  0  -1119.6  4092002.9  0.9  2 0  697 1065  767
[17]  41(B05) 1f 39 25  0  -1122.9  4092002.8  0.3  2 0  946 1104  170
[18]  46(B10) 1f 39  7  0  -1071.4  4092002.6 -0.2  2 0  724 1108  586
[19]  54(B18) 1f 42  7  0   -988.0  4092002.4 -0.0  2 0 1643 1782  674
[20]  55(B19) 1f 42  7  0  -3355.3  4092008.6  0.0  2 0 1260 1642  725
[21]  68(B32) 1f 41  7  0   1542.1  4091995.8  0.0  2 0  898 1468  589
[32]  75(N-6)  f 35  7  0   -665.7  1022000.3  0.0  2 0   231  754  443
[33]  76(N-5)  f 39  7  0   2820.5  1021998.1 -0.3  2 0   776 1017  463
[35]  80(N-1)  f 41  7  0  -4232.3  1022002.6 -0.3  2 0  1240 1468  723
[36]  81(N00)  f 45  7  0  -2441.8  1022001.5  0.0  2 0  1464 2053  831
[48]  38(B02)  1 10 19  0  -1506.9 20460021.1  0.1  1 0  850  420  482
[50]  46(B10)  1  7  8  0  -1162.0 20460016.7 -0.2  1 0  433  345  498
[51]  54(B18)  1  7  7  0   -890.3 20460014.2  0.1  1 0  535  415  171
[52]  55(B19)  1  7  7  0  -2497.3 20460053.0  0.2  1 0  178  467  581
[53]  68(B32)  1  7  7  0    813.9 20459975.5  0.0  1 0  671  679   53
$GNGGA,033714.745,,,,,0,00,,,M,,,,0000*2F
$GNRMC,033714.745,A,,,,,,,030419,,*2D
$GPGSA,A,1,,,,,,,,,,,,,,,*1E
$BDGSA,A,1,,,,,,,,,,,,,,,*0F
$GLGSA,A,1,,,,,,,,,,,,,,,*02
$GPGSV,2,1,05,03,00,000,44,08,00,000,41,16,00,000,41,22,00,000,43*74
$GPGSV,2,2,05,23,00,000,41*48
$BDGSV,2,1,06,02,00,000,39,05,00,000,39,10,00,000,39,18,00,000,42*6E
$BDGSV,2,2,06,19,00,000,42,32,00,000,41*64
$B3CN0,0,0,0,0,0,0,0,0,0,0,0,0,0,0*4C
---00000024--- Acq_st=3 0  2019-4-3 3:35:12 
[00]  02(G03)  f 44  7  0    253.7  2045999.6  0.0  2 0 2560 3815 2202
[01]  07(G08)  f 41  7  0  -4802.7  2046006.2 -0.0  2 0 1371 2092  955
[02]  15(G16)  f 41  7  0  -1830.2  2046002.4  0.0  2 0 1419 1939 1267
[03]  21(G22)  f 43  7  0    888.6  2045998.8 -0.0  2 0  944 1775  933
[04]  22(G23)  f 41  7  0  -4193.1  2046005.4 -0.1  2 0 1218 1632  342
[16]  38(B02) 1f 39 25  0  -1118.0  4092002.8  0.0  2 0  870 1148  723
[17]  41(B05) 1f 40 23  0  -1121.1  4092002.8  0.1  2 0  961 1031   91
[18]  46(B10) 1f 40  7  0  -1065.1  4092002.7  0.2  2 0  883 1044  229
[19]  54(B18) 1f 43  7  0   -990.5  4092002.5  0.1  2 0 1430 1773  715
[20]  55(B19) 1f 42 10  0  -3352.1  4092008.7 -0.0  2 0 1608 2212 1192
[21]  68(B32) 1f 41  7  0   1545.8  4091995.9  0.1  2 0 1299 1314  447
[32]  75(N-6)  f 36  7  0   -659.1  1022000.3 -0.0  2 0   429  960  391
[33]  76(N-5)  f 39  7  0   2822.4  1021998.2 -0.6  2 0   682  715  265
[35]  80(N-1)  f 42  7  0  -4231.7  1022002.6  0.1  2 0   922  844  154
[36]  81(N00)  f 45  7  0  -2441.7  1022001.6 -0.0  2 0   816 1688  867
[48]  38(B02)  1 10 19  0  -1571.4 20460028.3 -0.1  1 0   74  528  810
[49]  41(B05)  1 29 22  0   -932.3 20460018.4  0.1  1 0  430  345  117
[50]  46(B10)  1  7  7  0   -879.8 20460017.7  0.2  1 0  508  315  611
[51]  54(B18)  1  7  7  0   -919.3 20460016.7  0.1  1 0  432  211  502
[52]  55(B19)  1  7  7  0  -2342.2 20460052.9 -0.2  1 0  573  675  220
[53]  68(B32)  1  7  7  0    343.4 20459977.9 -0.1  1 0  399  220  124
$GNGGA,033715.745,,,,,0,00,,,M,,,,0000*2E
$GNRMC,033715.745,A,,,,,,,030419,,*2C
$GPGSA,A,1,,,,,,,,,,,,,,,*1E
$BDGSA,A,1,,,,,,,,,,,,,,,*0F
$GLGSA,A,1,,,,,,,,,,,,,,,*02
$GPGSV,2,1,05,03,00,000,44,08,00,000,41,16,00,000,41,22,00,000,43*74
$GPGSV,2,2,05,23,00,000,41*48
$BDGSV,2,1,06,02,00,000,39,05,00,000,40,10,00,000,40,18,00,000,43*6F
$BDGSV,2,2,06,19,00,000,42,32,00,000,41*64
$B3CN0,0,0,0,0,0,0,0,0,0,0,0,0,0,0*4C
---00000025--- Acq_st=3 0  2019-4-3 3:35:13 
[00]  02(G03)  f 45  7  0    253.4  2045999.6 -0.0  2 0 2328 3642 1649
[01]  07(G08)  f 41  7  0  -4805.9  2046006.2 -0.1  2 0 1135 1751  839
[02]  15(G16)  f 40  7  0  -1828.4  2046002.4  0.1  2 0  783 1554  430
[03]  21(G22)  f 43  7  0    888.6  2045998.8  0.0  2 0 1358 1766  705
[04]  22(G23)  f 41  9  0  -4194.1  2046005.4 -0.0  2 0 1021 1765 1238
[16]  38(B02) 1f 39 23  0  -1122.7  4092002.9  0.5  2 0  719  744  356
[17]  41(B05) 1f 40 23  0  -1123.8  4092002.9 -0.7  2 0 1054 1080  359
[18]  46(B10) 1f 40  7  0  -1066.0  4092002.7  0.1  2 0 1337 1249  191
[19]  54(B18) 1f 42  7  0   -988.7  4092002.5  0.1  2 0 1455 1798 1181
[20]  55(B19) 1f 42  7  0  -3355.1  4092008.6 -0.0  2 0 1777 2100 1012
[21]  68(B32) 1f 41  7  0   1549.1  4091995.8 -0.0  2 0  927 1289  517
[32]  75(N-6)  f 37  7  0   -661.6  1022000.3  0.1  2 0   754  974  276
[33]  76(N-5)  f 37  7  0   2817.1  1021998.2 -0.1  2 0   252  552  222
[35]  80(N-1)  f 42  7  0  -4234.0  1022002.6  0.1  2 0   798 1239  513
[36]  81(N00)  f 44  7  0  -2443.6  1022001.5  0.1  2 0   877 1695 1015
[48]  38(B02)  1 10 10  0  -1390.8 20460024.2  0.1  1 0  477  294  342
[49]  41(B05)  1 22 24  0  -1138.2 20460026.7  0.0  1 0  826  726  554
[50]  46(B10)  1  7  7  0  -1426.7 20460017.5  0.1  1 0  218  647  474
[51]  54(B18)  1  7  7  0   -393.8 20460015.8 -0.0  1 0  954 1452 1181
[52]  55(B19)  1  7  7  0  -2445.3 20460055.1 -0.1  1 0  786  836  366
[53]  68(B32)  1  7  7  0   -170.9 20459975.8 -0.2  1 0  272  359  373
$GNGGA,033716.745,,,,,0,00,,,M,,,,0000*2D
$GNRMC,033716.745,A,,,,,,,030419,,*2F
$GPGSA,A,1,,,,,,,,,,,,,,,*1E
$BDGSA,A,1,,,,,,,,,,,,,,,*0F
$GLGSA,A,1,,,,,,,,,,,,,,,*02
$GPGSV,2,1,05,03,00,000,45,08,00,000,41,16,00,000,40,22,00,000,43*74
$GPGSV,2,2,05,23,00,000,41*48
$BDGSV,2,1,06,02,00,000,39,05,00,000,40,10,00,000,40,18,00,000,42*6E
$BDGSV,2,2,06,19,00,000,42,32,00,000,41*64
$B3CN0,0,0,0,0,0,0,0,0,0,0,0,0,0,0*4C
---00000026--- Acq_st=3 0  2019-4-3 3:35:14 
[00]  02(G03)  f 46 12  0    257.2  2045999.6 -0.0  2 0 2952 4610 2308
[01]  07(G08)  f 41  7  0  -4804.9  2046006.2  0.0  2 0 1099 1685  681
[02]  15(G16)  f 40  7  0  -1830.7  2046002.3 -0.0  2 0  648 1485  773
[03]  21(G22)  f 42  7  0    892.2  2045998.8 -0.0  2 0 1031 1720 1060
[04]  22(G23)  f 41  7  0  -4193.8  2046005.4  0.0  2 0  897 1427  587
[16]  38(B02) 1f 37 27  0  -1125.1  4092002.9 -0.0  2 0  846  757  393
[17]  41(B05) 1f 40 18  0  -1119.3  4092002.8  0.6  2 0 1015 1389  793
[18]  46(B10) 1f 39  7  0  -1066.1  4092002.7 -0.2  2 0  687 1160  442
[19]  54(B18) 1f 43  7  0   -987.0  4092002.5 -0.0  2 0 2132 2016  705
[20]  55(B19) 1f 42  7  0  -3351.5  4092008.7  0.0  2 0 1287 1697  446
[21]  68(B32) 1f 41  7  0   1550.2  4091995.9  0.0  2 0  941 1482  385
[32]  75(N-6)  f 36  7  0   -658.9  1022000.4 -0.0  2 0   253  931  739
[33]  76(N-5)  f 35  7  0   2818.9  1021998.2 -0.2  2 0   138  361  301
[35]  80(N-1)  f 42  7  0  -4231.5  1022002.7 -0.1  2 0   622 1156  792
[36]  81(N00)  f 43  7  0  -2440.3  1022001.6  0.0  2 0   964 1391  627
[49]  41(B05)  1 24 23  1  -1054.3 20460020.4 -0.2  1 0  776  320  327
[50]  46(B10)  1  7 10  0  -1279.5 20460018.5  0.0  1 0  550  675  569
[51]  54(B18)  1  7  8  0   -425.2 20460015.9  0.0  1 0  241  535  744
[52]  55(B19)  1  7  7  0  -2357.9 20460054.8  0.0  1 0  722  845  274
[53]  68(B32)  1 10  7  0    221.9 20459976.0  0.0  1 0  589  770  254
$GNGGA,033717.745,,,,,0,00,,,M,,,,0000*2C
$GNRMC,033717.745,A,,,,,,,030419,,*2E
$GPGSA,A,1,,,,,,,,,,,,,,,*1E
$BDGSA,A,1,,,,,,,,,,,,,,,*0F
$GLGSA,A,1,,,,,,,,,,,,,,,*02
$GPGSV,2,1,05,03,00,000,46,08,00,000,41,16,00,000,40,22,00,000,42*76
$GPGSV,2,2,05,23,00,000,41*48
$BDGSV,2,1,06,02,00,000,37,05,00,000,40,10,00,000,39,18,00,000,43*6F
$BDGSV,2,2,06,19,00,000,42,32,00,000,41*64
$B3CN0,0,0,0,0,0,0,0,0,0,0,0,0,0,0*4C
---00000027--- Acq_st=7 0  2019-4-3 3:35:15 
[00]  02(G03)  f 45  7  0    256.9  2045999.6 -0.0  2 0 2481 3894 2013
[01]  07(G08)  f 41  7  0  -4799.6  2046006.2  0.0  2 0  953 1686  920
[02]  15(G16)  f 40  7  0  -1828.2  2046002.3  0.1  2 0 1361 1606  490
[03]  21(G22)  f 42  8  0    892.0  2045998.8 -0.1  2 0  417 1944 1219
[04]  22(G23)  f 41  7  0  -4192.1  2046005.4  0.0  2 0  648 1236  654
[16]  38(B02) 1f 39 10  0  -1121.5  4092002.8  0.9  2 0  508  779  589
[17]  41(B05) 1f 41 24  0  -1123.9  4092002.7  0.0  2 0  730 1222  442
[18]  46(B10) 1f 39  7  0  -1063.0  4092002.7 -0.1  2 0 1128 1493  730
[19]  54(B18) 1f 43  7  0   -987.7  4092002.5  0.0  2 0 1776 1927  434
[20]  55(B19) 1f 43  7  0  -3353.0  4092008.6 -0.0  2 0 2044 2077 1017
[21]  68(B32) 1f 40  7  0   1548.2  4091995.8  0.1  2 0  844 1531  857
[32]  75(N-6)  f 35 12  0   -660.4  1022000.4 -0.2  2 0   428  678  304
[33]  76(N-5)  f 32  7  0   2821.3  1021998.1 -0.1  5 0  1042  799  193
[35]  80(N-1)  f 41  7  0  -4230.6  1022002.6  0.2  2 0   597  973  354
[36]  81(N00)  f 43  7  0  -2441.3  1022001.5  0.0  2 0   938 1535  800
[48]  38(B02)  1 18 22  0  -1342.1 20460018.8  0.1  1 0  244  516  330
[49]  41(B05)  1 24 26  1   -874.8 20460028.1 -0.1  1 0  836  913  795
$GNGGA,033718.745,,,,,0,00,,,M,,,,0000*23
$GNRMC,033718.745,A,,,,,,,030419,,*21
$GPGSA,A,1,,,,,,,,,,,,,,,*1E
$BDGSA,A,1,,,,,,,,,,,,,,,*0F
$GLGSA,A,1,,,,,,,,,,,,,,,*02
$GPGSV,2,1,05,03,00,000,45,08,00,000,41,16,00,000,40,22,00,000,42*75
$GPGSV,2,2,05,23,00,000,41*48
$BDGSV,2,1,06,02,00,000,39,05,00,000,41,10,00,000,39,18,00,000,43*60
$BDGSV,2,2,06,19,00,000,43,32,00,000,40*64
$B3CN0,0,0,0,0,0,0,0,0,0,0,0,0,0,0*4C
---00000028--- Acq_st=7 0  2019-4-3 3:35:16 
[00]  02(G03)  f 46  7  0    258.2  2045999.6  0.0  2 0 2625 3889 2100
[01]  07(G08)  f 41 13  0  -4801.5  2046006.1 -0.0  2 0  822 1473  781
[02]  15(G16)  f 41  7  0  -1826.1  2046002.3  0.0  2 0 1173 1555  662
[03]  21(G22)  f 42  7  0    893.6  2045998.8 -0.1  2 0  658 1712 1227
[04]  22(G23)  f 41  7  0  -4187.2  2046005.4  0.1  2 0 1088 1548  789
[16]  38(B02) 1f 40 26  0  -1119.6  4092002.8 -0.0  2 0 1067 1194  495
[17]  41(B05) 1f 40 26  0  -1116.2  4092002.8 -0.3  2 0  557 1099  608
[18]  46(B10) 1f 39  7  0  -1069.1  4092002.7 -0.0  2 0  775 1148  535
[19]  54(B18) 1f 42  7  0   -984.8  4092002.5  0.0  2 0 1228 2012  917
[20]  55(B19) 1f 43  7  0  -3350.7  4092008.7  0.0  2 0 1385 1656  596
[21]  68(B32) 1f 40  7  0   1547.9  4091995.8 -0.0  2 0  912 1255  536
[32]  75(N-6)  f 34  7  0   -657.1  1022000.4  0.0  2 0   372  281  346
[33]  76(N-5)  f 35  7  0   2824.6  1021998.1  0.1  2 0   369  622  508
[35]  80(N-1)  f 41  7  0  -4229.4  1022002.6  0.0  2 0   685 1020  352
[36]  81(N00)  f 44  7  0  -2438.6  1022001.5  0.1  2 0   895 1846 1011
[48]  38(B02)  1 10 10  1  -1223.7 20460020.6  0.0  1 0  616  402  491
[50]  46(B10)  1  7  7  0   -548.7 20460016.2 -0.2  1 0  391  629  401
[51]  54(B18)  1  7  7  0   -673.5 20460015.5 -0.2  1 0  560 1165 1268
[52]  55(B19)  1  7  7  0  -2398.7 20460053.6  0.2  1 0  682  572  484
[53]  68(B32)  1  7  7  0   1154.0 20459976.6  0.1  1 0  658  245  417
$GNGGA,033719.745,,,,,0,00,,,M,,,,0000*22
$GNRMC,033719.745,A,,,,,,,030419,,*20
$GPGSA,A,1,,,,,,,,,,,,,,,*1E
$BDGSA,A,1,,,,,,,,,,,,,,,*0F
$GLGSA,A,1,,,,,,,,,,,,,,,*02
$GPGSV,2,1,05,03,00,000,46,08,00,000,41,16,00,000,41,22,00,000,42*77
$GPGSV,2,2,05,23,00,000,41*48
$BDGSV,2,1,06,02,00,000,40,05,00,000,40,10,00,000,39,18,00,000,42*6E
$BDGSV,2,2,06,19,00,000,43,32,00,000,40*64
$B3CN0,0,0,0,0,0,0,0,0,0,0,0,0,0,0*4C
---00000029--- Acq_st=3 0  2019-4-3 3:35:17 
[00]  02(G03)  f 46  7  0    260.4  2045999.6 -0.0  2 0 2035 3675 1808
[01]  07(G08)  f 40  7  0  -4801.9  2046006.2  0.0  2 0  935 1396  732
[02]  15(G16)  f 41  7  0  -1832.7  2046002.3  0.0  2 0  986 1565  788
[03]  21(G22)  f 42  8  0    888.3  2045998.8  0.0  2 0 1065 1857 1050
[04]  22(G23)  f 40  7  0  -4187.0  2046005.4 -0.1  2 0  906 1311  459
[16]  38(B02) 1f 39 20  0  -1117.8  4092002.8  0.0  2 0  967 1286  500
[17]  41(B05) 1f 40 18  0  -1117.7  4092002.8  0.4  2 0  733 1402  605
[18]  46(B10) 1f 39  7  0  -1066.8  4092002.6  0.0  2 0 1056 1012  312
[19]  54(B18) 1f 42  7  0   -989.3  4092002.5  0.0  2 0 1404 1581  775
[20]  55(B19) 1f 43  7  0  -3348.3  4092008.7 -0.0  2 0 1050 1899  937
[21]  68(B32) 1f 41 13  0   1546.7  4091995.8  0.1  2 0 1379 1162  564
[32]  75(N-6)  f 33  7  0   -654.7  1022000.5  0.1  2 0   235  696  799
[33]  76(N-5)  f 38  7  0   2826.6  1021998.2  0.4  2 0   285  562  203
[35]  80(N-1)  f 40 10  0  -4227.7  1022002.7 -0.0  2 0   349 1151  698
[36]  81(N00)  f 44  7  0  -2437.2  1022001.5 -0.0  2 0  1222 1736  686
[48]  38(B02)  1 19 16  1  -1134.4 20460017.5 -0.0  1 0  368  318  477
[49]  41(B05)  1 25 23  0  -1362.8 20460019.2  0.0  1 0  464   58  481
[50]  46(B10)  1  7  7  0   -692.9 20460015.5 -0.0  1 0  285  745  894
[51]  54(B18)  1  7  7  0   -815.4 20460016.1 -0.1  1 0  609  598  661
[52]  55(B19)  1  7  7  0  -1718.1 20460053.7 -0.1  1 0  530  556  357
[53]  68(B32)  1  7  7  0   1109.9 20459974.5  0.1  1 0  113  462  722
$GNGGA,033720.745,,,,,0,00,,,M,,,,0000*28
$GNRMC,033720.745,A,,,,,,,030419,,*2A
$GPGSA,A,1,,,,,,,,,,,,,,,*1E
$BDGSA,A,1,,,,,,,,,,,,,,,*0F
$GLGSA,A,1,,,,,,,,,,,,,,,*02
$GPGSV,2,1,05,03,00,000,46,08,00,000,40,16,00,000,41,22,00,000,42*76
$GPGSV,2,2,05,23,00,000,40*49
$BDGSV,2,1,06,02,00,000,39,05,00,000,40,10,00,000,39,18,00,000,42*60
$BDGSV,2,2,06,19,00,000,43,32,00,000,41*65
$B3CN0,0,0,0,0,0,0,0,0,0,0,0,0,0,0*4C
---00000030--- Acq_st=3 0  2019-4-3 3:35:18 
[00]  02(G03)  f 46  7  0    259.3  2045999.6 -0.1  2 0 2143 3363 1746
[01]  07(G08)  f 40  7  0  -4802.3  2046006.1  0.1  2 0  826 1422  702
[02]  15(G16)  f 40  7  0  -1824.6  2046002.4 -0.2  2 0  892 1288  525
[03]  21(G22)  f 42  7  0    894.6  2045998.8 -0.1  2 0 1628 2499 1072
[04]  22(G23)  f 40  8  0  -4192.0  2046005.4 -0.0  2 0  920 1469  618
[16]  38(B02) 1f 39 28  0  -1123.2  4092002.6  0.9  2 0 1092 1249  668
[17]  41(B05) 1f 39 23  0  -1122.9  4092002.8 -0.3  2 0 1089 1170  697
[18]  46(B10) 1f 39  7  0  -1064.7  4092002.6  0.0  2 0  939 1384  441
[19]  54(B18) 1f 42  7  0   -989.8  4092002.5 -0.0  2 0 1835 2290 1414
[20]  55(B19) 1f 43  7  0  -3351.6  4092008.7  0.1  2 0  935 1417  940
[21]  68(B32) 1f 41  7  0   1549.2  4091995.8  0.0  2 0 1682 1690  839
[32]  75(N-6)  f 34 12  0   -654.6  1022000.3 -0.1  2 0   244  281  219
[33]  76(N-5)  f 39  7  0   2824.4  1021998.1 -0.1  2 0   398  912  640
[35]  80(N-1)  f 40  7  0  -4230.0  1022002.6 -0.3  2 0   558 1015  605
[36]  81(N00)  f 44  7  0  -2439.0  1022001.5  0.0  2 0  1205 1802  925
[48]  38(B02)  1 10 10  1   -842.6 20460027.6  0.1  1 0  435  861  663
[49]  41(B05)  1 25 23  0  -1782.8 20460019.8 -0.1  1 0  110  149  281
[50]  46(B10)  1  7  7  0   -993.0 20460016.9 -0.0  1 0  995  971  692
[51]  54(B18)  1 10  7  0   -595.6 20460014.9  0.1  1 0  515  394  492
[52]  55(B19)  1  7  7  0  -1666.0 20460056.5 -0.1  1 0  602  394  338
[53]  68(B32)  1  7  7  0    926.6 20459975.2  0.0  1 0  539  343    9
$GNGGA,033721.745,,,,,0,00,,,M,,,,0000*29
$GNRMC,033721.745,A,,,,,,,030419,,*2B
$GPGSA,A,1,,,,,,,,,,,,,,,*1E
$BDGSA,A,1,,,,,,,,,,,,,,,*0F
$GLGSA,A,1,,,,,,,,,,,,,,,*02
$GPGSV,2,1,05,03,00,000,46,08,00,000,40,16,00,000,40,22,00,000,42*77
$GPGSV,2,2,05,23,00,000,40*49
$BDGSV,2,1,06,02,00,000,39,05,00,000,39,10,00,000,39,18,00,000,42*6E
$BDGSV,2,2,06,19,00,000,43,32,00,000,41*65
$B3CN0,0,0,0,0,0,0,0,0,0,0,0,0,0,0*4C
---00000031--- Acq_st=3 0  2019-4-3 3:35:19 
[00]  02(G03)  f 45  7  0    261.3  2045999.6  0.0  2 0 2202 3913 2176
[01]  07(G08)  f 41  7  0  -4799.3  2046006.2  0.0  2 0 1854 2184  903
[02]  15(G16)  f 40  7  0  -1820.2  2046002.3  0.0  2 0  958 1186  265
[03]  21(G22)  f 42  7  0    896.4  2045998.7 -0.0  2 0  937 1610  829
[04]  22(G23)  f 40  7  0  -4187.1  2046005.4  0.1  2 0  511 1076 1246
[16]  38(B02) 1f 38 29  0  -1118.3  4092002.8 -0.5  2 0  859 1098  536
[17]  41(B05) 1f 40 23  0  -1117.7  4092002.8 -0.0  2 0 1290 1520  496
[18]  46(B10) 1f 39  7  0  -1062.9  4092002.7 -0.1  2 0 1217 1275  987
[19]  54(B18) 1f 42  7  0   -988.9  4092002.5 -0.0  2 0 1548 1902  549
[20]  55(B19) 1f 42  8  0  -3348.4  4092008.7 -0.0  2 0 1506 1725  302
[21]  68(B32) 1f 41  7  0   1548.2  4091995.8 -0.0  2 0 1472 1272  290
[32]  75(N-6)  f 34  7  0   -655.7  1022000.3  0.0  2 0   688  885  507
[33]  76(N-5)  f 39 11  0   2829.8  1021998.2  0.3  2 0   764 1431  603
[35]  80(N-1)  f 40  7  0  -4227.5  1022002.7 -0.1  2 0   586  779  350
[36]  81(N00)  f 44  7  0  -2437.4  1022001.5 -0.0  2 0   879 1758  684
[48]  38(B02)  f 10 13  1   -535.4 20460009.2  0.1  2 0  540  355  352
[49]  41(B05)  1 24 24  0  -1534.4 20460020.9  0.2  1 0  458  159  430
[50]  46(B10)  1  7  7  0   -557.8 20460017.9 -0.1  1 0  649  180  190
[51]  54(B18)  1  7  7  0   -309.9 20460016.0  0.1  1 0  434  591  924
[52]  55(B19)  1  7  7  0   -964.9 20460055.2 -0.0  1 0  350  243  136
[53]  68(B32)  1  7  7  0   1237.9 20459975.2 -0.0  1 0  385  408   27
$GNGGA,033722.745,,,,,0,00,,,M,,,,0000*2A
$GNRMC,033722.745,A,,,,,,,030419,,*28
$GPGSA,A,1,,,,,,,,,,,,,,,*1E
$BDGSA,A,1,,,,,,,,,,,,,,,*0F
$GLGSA,A,1,,,,,,,,,,,,,,,*02
$GPGSV,2,1,05,03,00,000,45,08,00,000,41,16,00,000,40,22,00,000,42*75
$GPGSV,2,2,05,23,00,000,40*49
$BDGSV,2,1,06,02,00,000,38,05,00,000,40,10,00,000,39,18,00,000,42*61
$BDGSV,2,2,06,19,00,000,42,32,00,000,41*64
$B3CN0,0,0,0,0,0,0,0,0,0,0,0,0,0,0*4C
---00000032--- Acq_st=3 0  2019-4-3 3:35:20 
[00]  02(G03)  f 45  7  0    259.6  2045999.6 -0.0  2 0 2318 3492 1299
[01]  07(G08)  f 41  7  0  -4803.4  2046006.2 -0.0  2 0 1132 1602  528
[02]  15(G16)  f 40  7  0  -1822.5  2046002.4  0.1  2 0 1059 1029  797
[03]  21(G22)  f 43  7  0    891.3  2045998.7  0.0  2 0 1152 1758 1112
[04]  22(G23)  f 40  7  0  -4188.9  2046005.4  0.0  2 0  818 1678  800
[16]  38(B02) 1f 40 25  0  -1119.2  4092002.8 -0.5  2 0  762 1153  298
[17]  41(B05) 1f 39 27  0  -1120.4  4092002.8  0.7  2 0 1229 1495  454
[18]  46(B10) 1f 39  7  0  -1065.3  4092002.7  0.1  2 0 1335 1248  378
[19]  54(B18) 1f 42  7  0   -987.4  4092002.4  0.0  2 0 1489 1804 1148
[20]  55(B19) 1f 43  7  0  -3347.1  4092008.6  0.0  2 0 1633 1985  653
[21]  68(B32) 1f 41  7  0   1546.0  4091995.8 -0.1  2 0 1303 1411  476
[32]  75(N-6)  f 36  7  0   -652.8  1022000.4  0.0  2 0   518  792   90
[33]  76(N-5)  f 40  7  0   2826.4  1021998.1 -0.3  2 0   497 1040  790
[35]  80(N-1)  f 39  7  0  -4229.3  1022002.6 -0.1  2 0   631  941  811
[36]  81(N00)  f 43  7  0  -2437.9  1022001.6  0.0  2 0   927 1631  882
[48]  38(B02)  f 10 13  1  -1065.0 20460016.1  0.0  2 0  413  339  204
[49]  41(B05)  1 24 22  0  -1835.4 20460019.8 -0.1  1 0  408  178  483
$GNGGA,033723.745,,,,,0,00,,,M,,,,0000*2B
$GNRMC,033723.745,A,,,,,,,030419,,*29
$GPGSA,A,1,,,,,,,,,,,,,,,*1E
$BDGSA,A,1,,,,,,,,,,,,,,,*0F
$GLGSA,A,1,,,,,,,,,,,,,,,*02
$GPGSV,2,1,05,03,00,000,45,08,00,000,41,16,00,000,40,22,00,000,43*74
$GPGSV,2,2,05,23,00,000,40*49
$BDGSV,2,1,06,02,00,000,39,05,00,000,39,10,00,000,39,18,00,000,42*6E
$BDGSV,2,2,06,19,00,000,43,32,00,000,41*65
$B3CN0,0,0,0,0,0,0,0,0,0,0,0,0,0,0*4C
---00000033--- Acq_st=3 0  2019-4-3 3:35:21 
[00]  02(G03)  f 45  9  0    262.2  2045999.6 -0.0  2 0 2026 2816 1390
[01]  07(G08)  f 41  7  0  -4797.0  2046006.2 -0.1  2 0  880 1623  770
[02]  15(G16)  f 40  7  0  -1822.2  2046002.3 -0.1  2 0 1028 1551 1055
[03]  21(G22)  f 43  7  0    896.3  2045998.7 -0.1  2 0 1420 2099  526
[04]  22(G23)  f 40  7  0  -4189.2  2046005.5  0.0  2 0  435  833  271
[16]  38(B02) 1f 38 22  0  -1119.4  4092002.7  0.2  2 0 1067 1059  299
[17]  41(B05) 1f 39 36  0  -1120.3  4092002.8  0.4  2 0 1011 1340  431
[18]  46(B10) 1f 40  7  0  -1061.0  4092002.7 -0.2  2 0 1144 1305  512
[19]  54(B18) 1f 42  7  0   -986.8  4092002.5  0.0  2 0 1738 1551  296
[20]  55(B19) 1f 42  7  0  -3350.8  4092008.6 -0.0  2 0 1840 1986  903
[21]  68(B32) 1f 41  7  0   1550.4  4091995.8  0.0  2 0 1298 1441  319
[32]  75(N-6)  f 37 10  0   -650.1  1022000.3  0.1  2 0   834  938  438
[33]  76(N-5)  f 39  7  0   2829.0  1021998.2 -0.2  2 0   648 1043  380
[35]  80(N-1)  f 38  7  0  -4226.4  1022002.7 -0.8  2 0   398  601  389
[36]  81(N00)  f 43  7  0  -2435.7  1022001.6  0.1  2 0  1007 1773  775
[48]  38(B02)  f 10 18  1  -1181.2 20460018.4 -0.2  2 0  309  300  503
[50]  46(B10)  1  7  7  0   -986.5 20460016.6 -0.1  1 0  360  156  420
[51]  54(B18)  1  7  7  0   -437.4 20460015.6  0.2  1 0  341  526  497
[52]  55(B19)  1  7  7  0  -2608.8 20460051.0  0.0  1 0  420  379  232
[53]  68(B32)  1  7  7  0   1125.2 20459974.9  0.0  1 0   83  412  468
$GNGGA,033724.745,,,,,0,00,,,M,,,,0000*2C
$GNRMC,033724.745,A,,,,,,,030419,,*2E
$GPGSA,A,1,,,,,,,,,,,,,,,*1E
$BDGSA,A,1,,,,,,,,,,,,,,,*0F
$GLGSA,A,1,,,,,,,,,,,,,,,*02
$GPGSV,2,1,05,03,00,000,45,08,00,000,41,16,00,000,40,22,00,000,43*74
$GPGSV,2,2,05,23,00,000,40*49
$BDGSV,2,1,06,02,00,000,38,05,00,000,39,10,00,000,40,18,00,000,42*61
$BDGSV,2,2,06,19,00,000,42,32,00,000,41*64
$B3CN0,0,0,0,0,0,0,0,0,0,0,0,0,0,0*4C
---00000034--- Acq_st=3 0  2019-4-3 3:35:22 
[00]  02(G03)  f 45  7  0    262.7  2045999.6 -0.0  2 0 1500 2593 1708
[01]  07(G08)  f 41  7  0  -4800.3  2046006.1 -0.0  2 0 1038 1378  366
[02]  15(G16)  f 39  7  0  -1817.0  2046002.3  0.0  2 0  556 1180  880
[03]  21(G22)  f 44  7  0    896.1  2045998.8  0.0  2 0 1651 2354 1052
[04]  22(G23)  f 39  7  0  -4183.7  2046005.4  0.2  2 0  654 1366  705
[16]  38(B02) 1f 39 10  0  -1116.4  4092002.7 -0.4  2 0  686  577  348
[17]  41(B05) 1f 41 21  0  -1118.7  4092002.8  0.6  2 0  769 1238  544
[18]  46(B10) 1f 40  7  0  -1061.1  4092002.6 -0.0  2 0 1324 1501  559
[19]  54(B18) 1f 43  7  0   -988.1  4092002.5 -0.1  2 0 1458 1828 1062
[20]  55(B19) 1f 43  7  0  -3345.9  4092008.6 -0.1  2 0 1434 1784  946
[21]  68(B32) 1f 42  7  0   1550.9  4091995.8 -0.0  2 0 1479 1678 1054
[32]  75(N-6)  f 37  7  0   -647.3  1022000.4 -0.4  2 0   486  874  328
[33]  76(N-5)  f 38  7  0   2827.7  1021998.2  0.4  2 0   454  577  326
[35]  80(N-1)  f 38  7  0  -4226.9  1022002.7 -0.1  2 0   711  786  583
[36]  81(N00)  f 43  7  0  -2436.2  1022001.6 -0.0  2 0   772 1672  498
[48]  38(B02)  f 36 21  0  -1547.0 20460024.7  0.1  2 0   92  302  399
[49]  41(B05)  1 25 22  1  -1057.5 20460018.7  0.1  1 0  872  795 1202
[50]  46(B10)  1  7  7  0   -963.0 20460017.0 -0.1  1 0  605  271  269
[51]  54(B18)  1  7  7  0   -251.7 20460014.5 -0.2  1 0  525  467  414
[52]  55(B19)  1  7 12  0  -2354.5 20460053.0  0.0  1 0  274  602  733
[53]  68(B32)  1  7  7  0   1323.0 20459975.7  0.2  1 0  171  392  787
$GNGGA,033725.745,,,,,0,00,,,M,,,,0000*2D
$GNRMC,033725.745,A,,,,,,,030419,,*2F
$GPGSA,A,1,,,,,,,,,,,,,,,*1E
$BDGSA,A,1,,,,,,,,,,,,,,,*0F
$GLGSA,A,1,,,,,,,,,,,,,,,*02
$GPGSV,2,1,05,03,00,000,45,08,00,000,41,16,00,000,39,22,00,000,44*7D
$GPGSV,2,2,05,23,00,000,39*47
$BDGSV,2,1,06,02,00,000,39,05,00,000,41,10,00,000,40,18,00,000,43*6E
$BDGSV,2,2,06,19,00,000,43,32,00,000,42*66
$B3CN0,0,16,0,0,0,0,0,0,0,0,0,0,0,0*7B
---00000035--- Acq_st=3 0  2019-4-3 3:35:23 
[00]  02(G03)  f 44  7  0    264.5  2045999.6  0.0  2 0 1094 2508 1403
[01]  07(G08)  f 41  7  0  -4794.0  2046006.2 -0.0  2 0  798 1672  648
[02]  15(G16)  f 40  7  0  -1818.9  2046002.2  0.0  2 0  953 1479  886
[03]  21(G22)  f 43  7  0    896.0  2045998.8 -0.0  2 0  860 1602  589
[04]  22(G23)  f 40  7  0  -4188.6  2046005.3 -0.1  2 0  692 1031  506
[16]  38(B02) 1f 40 26  0  -1122.3  4092002.8  0.5  2 0  424  760  306
[17]  41(B05) 1f 40 25  0  -1116.9  4092002.8 -0.9  2 0  994 1500  684
[18]  46(B10) 1f 40  7  0  -1063.1  4092002.7 -0.0  2 0 1152 1088  537
[19]  54(B18) 1f 43  7  0   -985.2  4092002.5  0.0  2 0 1245 1981 1509
[20]  55(B19) 1f 43  7  0  -3345.5  4092008.6 -0.0  2 0 1637 2162 1124
[21]  68(B32) 1f 41  9  0   1556.4  4091995.8 -0.0  2 0  838 1471  587
[32]  75(N-6)  f 37  7  0   -645.1  1022000.4  0.2  2 0   341  870  332
[33]  76(N-5)  f 36  7  0   2828.0  1021998.2  0.1  2 0   186  478  347
[35]  80(N-1)  f 39  7  0  -4220.7  1022002.7  0.2  2 0   773  962  461
[36]  81(N00)  f 43  7  0  -2434.6  1022001.5 -0.2  2 0   617 1416  668
[49]  41(B05)  1 26 26  1  -1155.6 20460020.6 -0.2  1 0  234  198  397
[50]  46(B10)  1  7  7  0  -1101.3 20460016.4  0.0  1 0  386  553   86
[51]  54(B18)  1  7  7  0    212.3 20460014.9  0.1  1 0  917  901 1071
[52]  55(B19)  1  7  7  0  -2046.3 20460053.7  0.2  1 0  502  480  143
[53]  68(B32)  1  7  7  0   1305.7 20459977.4 -0.1  1 0  603  795  697
$GNGGA,033726.745,,,,,0,00,,,M,,,,0000*2E
$GNRMC,033726.745,A,,,,,,,030419,,*2C
$GPGSA,A,1,,,,,,,,,,,,,,,*1E
$BDGSA,A,1,,,,,,,,,,,,,,,*0F
$GLGSA,A,1,,,,,,,,,,,,,,,*02
$GPGSV,2,1,05,03,00,000,44,08,00,000,41,16,00,000,40,22,00,000,43*75
$GPGSV,2,2,05,23,00,000,40*49
$BDGSV,2,1,06,02,00,000,40,05,00,000,40,10,00,000,40,18,00,000,43*61
$BDGSV,2,2,06,19,00,000,43,32,00,000,41*65
$B3CN0,0,0,0,0,0,0,0,0,0,0,0,0,0,0*4C
---00000036--- Acq_st=7 0  2019-4-3 3:35:24 
[00]  02(G03)  f 43  7  0    259.9  2045999.7 -0.0  2 0 1018 2049 1362
[01]  07(G08)  f 42  7  0  -4799.4  2046006.1 -0.0  2 0 1125 2201  904
[02]  15(G16)  f 40  7  0  -1820.7  2046002.3 -0.0  2 0 1276 1657  369
[03]  21(G22)  f 43  7  0    895.7  2045998.8  0.0  2 0 1002 2039  972
[04]  22(G23)  f 40  7  0  -4186.6  2046005.3  0.1  2 0  784 1578  599
[16]  38(B02) 1f 39 23  0  -1112.5  4092002.8 -0.4  2 0  650  575  281
[17]  41(B05) 1f 39 23  0  -1122.0  4092002.8 -0.2  2 0  637 1322  860
[18]  46(B10) 1f 40  7  0  -1063.6  4092002.6  0.0  2 0  913 1120  562
[19]  54(B18) 1f 43  7  0   -986.9  4092002.5 -0.0  2 0 1515 1878 1160
[20]  55(B19) 1f 42  7  0  -3345.4  4092008.6 -0.0  2 0 1038 2032 1042
[21]  68(B32) 1f 41  7  0   1548.5  4091995.8  0.1  2 0 1295 1418  730
[32]  75(N-6)  f 36  7  0   -647.9  1022000.4 -0.3  2 0   316  243  641
[33]  76(N-5)  f 36  7  0   2829.6  1021998.1  0.1  2 0   383  687  341
[35]  80(N-1)  f 39  7  0  -4222.8  1022002.7  0.0  2 0   646  785  602
[36]  81(N00)  f 43  7  0  -2434.9  1022001.5 -0.0  2 0  1211 1735  588
[48]  38(B02)  1 21 21  1  -1001.0 20460019.8  0.1  1 0  526    9  250
[49]  41(B05)  1 26 26  0  -1162.9 20460021.6 -0.1  1 0  562  843  552
[50]  46(B10)  1  7  7  0  -1307.2 20460017.7 -0.0  1 0  226  151  253
[51]  54(B18)  1  7  7  0    179.4 20460015.7  0.0  1 0  216  301  623
[52]  55(B19)  1  7  7  0  -2308.6 20460053.6  0.0  1 0  309  590  416
[53]  68(B32)  1  8  7  0   1360.7 20459976.0 -0.2  1 0  433  370  164
$GNGGA,033727.745,,,,,0,00,,,M,,,,0000*2F
$GNRMC,033727.745,A,,,,,,,030419,,*2D
$GPGSA,A,1,,,,,,,,,,,,,,,*1E
$BDGSA,A,1,,,,,,,,,,,,,,,*0F
$GLGSA,A,1,,,,,,,,,,,,,,,*02
$GPGSV,2,1,05,03,00,000,43,08,00,000,42,16,00,000,40,22,00,000,43*71
$GPGSV,2,2,05,23,00,000,40*49
$BDGSV,2,1,06,02,00,000,39,05,00,000,39,10,00,000,40,18,00,000,43*61
$BDGSV,2,2,06,19,00,000,42,32,00,000,41*64
$B3CN0,0,0,0,0,0,0,0,0,0,0,0,0,0,0*4C
---00000037--- Acq_st=7 0  2019-4-3 3:35:25 
[00]  02(G03)  f 43  7  0    267.9  2045999.7  0.0  2 0  639 2176 1249
[01]  07(G08)  f 42  7  0  -4792.8  2046006.1  0.0  2 0 1159 1677  395
[02]  15(G16)  f 41  7  0  -1815.7  2046002.3  0.0  2 0 1127 1619  617
[03]  21(G22)  f 43 11  0    899.5  2045998.7  0.1  2 0 1426 2270 1047
[04]  22(G23)  f 41  7  0  -4182.5  2046005.3  0.0  2 0 1066 1610  954
