i=1
Rf R0 Config = ff777073
Rf R1 Config = 00dffbfe
Rf R52 Config = 00dfef40
i=2
Rf R0 Config = 007772f3
Rf R1 Config = 00d9fbf6
Rf R52 Config = 00dbce50
i=3
Rf R0 Config = 007772f3
Rf R1 Config = 00df1bea
Rf R52 Config = 00deceb0
i=4
Rf R0 Config = 00777273
Rf R1 Config = 00df5bfe
Rf R52 Config = 00de4e60
SD initialized success
Create debug.log Failed! 3
Start Channel by LuYu
$GNGGA,000000.000,,,,,0,00,,,M,,,,0000*2B
$GNRMC,000000.000,A,,,,,,,060180,,*29
$GPGSA,A,1,,,,,,,,,,,,,,,*1E
$BDGSA,A,1,,,,,,,,,,,,,,,*0F
$GLGSA,A,1,,,,,,,,,,,,,,,*02
$B3CN0,0,0,0,0,0,0,0,0,0,0,0,0,0,0*4C
---00000001--- Acq_st=3 0  2019-4-3 8:52:49 
[00]  03(G04)  1 24  7  0   1475.1  2045998.8  0.1  1 0 1237 1277  504
[01]  06(G07)  1  7  7  0    250.0  2046001.3  0.1  1 0  931 1788 1296
[02]  08(G09)  1  7  7  0   1500.0  2046000.6 -0.1  1 0  766  733 1084
[03]  12(G13)  1  7  7  0  -1750.0  2046003.7  0.0  1 0  508  910 1936
$GNGGA,000000.000,,,,,0,00,,,M,,,,0000*2B
$GNRMC,000000.000,A,,,,,,,060180,,*29
$GPGSA,A,1,,,,,,,,,,,,,,,*1E
$BDGSA,A,1,,,,,,,,,,,,,,,*0F
$GLGSA,A,1,,,,,,,,,,,,,,,*02
$B3CN0,0,0,0,0,0,0,0,0,0,0,0,0,0,0*4C
---00000002--- Acq_st=3 0  2019-4-3 8:52:50 
[00]  03(G04)  7  9  7  0   1468.2  2045998.0  0.8 10 0 1127 1307  732
[01]  06(G07)  1 28 13  0    352.5  2045999.2  0.8  1 0 1878 1727  582
[02]  08(G09)  1 30  7  0   1379.0  2045997.8  0.7  1 0  775  940  397
[03]  12(G13)  1 26  7  0  -1710.2  2046002.5  0.3  1 0 1514 1848 1017
[04]  16(G17)  1 28 12  0  -3017.8  2046005.7  0.2  1 0 2051 4660 3490
[05]  18(G19)  1 18  7  0  -4044.6  2046007.0  0.1  1 0 1431 2236 1667
$GNGGA,000000.000,,,,,0,00,,,M,,,,0000*2B
$GNRMC,000000.000,A,,,,,,,060180,,*29
$GPGSA,A,1,,,,,,,,,,,,,,,*1E
$BDGSA,A,1,,,,,,,,,,,,,,,*0F
$GLGSA,A,1,,,,,,,,,,,,,,,*02
$B3CN0,0,0,0,0,0,0,0,0,0,0,0,0,0,0*4C
---00000003--- Acq_st=3 0  2019-4-3 8:52:51 
[00]  03(G04)  7 41  9  0   1478.7  2045998.0 -0.1  2 0  781 1259  724
[01]  06(G07)  7 36 11  0    363.9  2045999.4  0.2  2 0 1214 1351  599
[02]  08(G09)  7 31  7  0   1395.3  2045998.0  0.4  5 0  860 1163  368
[03]  12(G13)  7 27  7  0  -1700.2  2046002.1  0.4 10 0 1183 1699  933
[04]  16(G17)  7 18  7  0  -3006.2  2046003.8  0.8 10 0 3054 3776 1859
[05]  18(G19)  7  7  7  0  -4032.6  2046005.1  1.0  2 0 2002 2749 1137
[06]  27(G28)  1 20  7  0  -2889.4  2046005.0  0.1  1 0 1241 1868  964
[08]  29(G30)  1 23  7  0  -1897.7  2046004.7  0.2  1 0  305 1884 1865
[16]  38(B02)  1 26 10  0  -1250.0  4092003.2 -0.1  1 0  427  615  746
$GNGGA,000000.000,,,,,0,00,,,M,,,,0000*2B
$GNRMC,000000.000,A,,,,,,,060180,,*29
$GPGSA,A,1,,,,,,,,,,,,,,,*1E
$BDGSA,A,1,,,,,,,,,,,,,,,*0F
$GLGSA,A,1,,,,,,,,,,,,,,,*02
$GPGSV,2,1,05,04,00,000,41,07,00,000,36,09,00,000,31,13,00,000,27*70
$GPGSV,2,2,05,17,00,000,17*4C
$B3CN0,0,0,0,0,0,0,0,0,0,0,0,0,0,0*4C
---00000004--- Acq_st=3 0  2019-4-3 8:52:52 
[00]  03(G04)  7 40  7  0   1480.8  2045998.0 -0.0  2 0 1110 1380  642
[01]  06(G07)  7 41 11  0    368.3  2045999.4 -0.1  2 0 1603 1750 1101
[02]  08(G09)  7 38  7  0   1394.8  2045998.1 -0.2  2 0 1490 1405  796
[03]  12(G13)  7 42 10  0  -1695.5  2046002.1 -0.0  2 0  966 1617  569
[04]  16(G17)  7 47 15  0  -3002.0  2046003.8  0.1  2 0 3529 4575 2283
[05]  18(G19)  7 44 11  0  -4029.9  2046005.1  0.0  2 0 1907 2094  820
[06]  27(G28)  7 25  7  0  -2884.1  2046003.7  0.3 10 0 1420 2236 1232
[08]  29(G30)  7 20  7  0  -1891.1  2046002.3  0.8 10 0 1425 1807  459
[16]  38(B02)  1 39 22  0  -1095.8  4092003.7  0.9  1 0  511  967  514
[17]  41(B05)  1 10 25  1  -1105.2  4092004.2  0.6  1 0 1016 1404  747
$GNGGA,000000.000,,,,,0,00,,,M,,,,0000*2B
$GNRMC,000000.000,A,,,,,,,060180,,*29
$GPGSA,A,1,,,,,,,,,,,,,,,*1E
$BDGSA,A,1,,,,,,,,,,,,,,,*0F
$GLGSA,A,1,,,,,,,,,,,,,,,*02
$GPGSV,2,1,08,04,00,000,40,07,00,000,41,09,00,000,38,13,00,000,42*76
$GPGSV,2,2,08,17,00,000,47,19,00,000,44,28,00,000,25,30,00,000,20*70
$B3CN0,0,0,0,0,0,0,0,0,0,0,0,0,0,0*4C
---00000005--- Acq_st=3 0  2019-4-3 8:52:53 
[00]  03(G04)  7 40  7  0   1475.8  2045998.0  0.0  2 0  990 1246  533
[01]  06(G07)  7 41  7  0    364.6  2045999.4  0.1  2 0 1117 1501  924
[02]  08(G09)  7 38  7  0   1396.8  2045998.1 -0.0  2 0  580 1437  791
[03]  12(G13)  7 42  7  0  -1699.6  2046002.2  0.0  2 0 1713 2211  741
[04]  16(G17)  7 46 13  0  -3006.9  2046003.8 -0.0  2 0 2415 4066 2242
[05]  18(G19)  7 43  8  0  -4030.7  2046005.2  0.1  2 0 1398 2063 1308
[06]  27(G28)  7 42  7  0  -2889.9  2046003.7 -0.1  2 0 1652 1833  634
[08]  29(G30)  7 43  7  0  -1894.6  2046002.3 -0.0  2 0 1517 1786 1117
[16]  38(B02)  f 39 27  0  -1095.8  4092002.6  0.2  2 0 1197  852  122
[17]  41(B05)  7 38 24  0  -1110.1  4092002.6 -0.8  2 0 1652  638  117
[18]  49(B13)  1  7  7  0  -2146.4  4092007.5  0.1  1 0  683 1201  996
$GNGGA,000000.000,,,,,0,00,,,M,,,,0000*2B
$GNRMC,000000.000,A,,,,,,,060180,,*29
$GPGSA,A,1,,,,,,,,,,,,,,,*1E
$BDGSA,A,1,,,,,,,,,,,,,,,*0F
$GLGSA,A,1,,,,,,,,,,,,,,,*02
$GPGSV,2,1,08,04,00,000,40,07,00,000,41,09,00,000,38,13,00,000,42*76
$GPGSV,2,2,08,17,00,000,46,19,00,000,43,28,00,000,42,30,00,000,43*72
$BDGSV,1,1,02,02,00,000,39,05,00,000,38*6C
$B3CN0,0,0,0,0,0,0,0,0,0,0,0,0,0,0*4C
---00000006--- Acq_st=3 0  2019-4-3 8:52:54 
[00]  03(G04)  7 40  7  0   1475.8  2045998.0 -0.1  2 0  969 1289  681
[01]  06(G07)  7 41  7  0    370.4  2045999.4 -0.0  2 0 1114 1660  943
[02]  08(G09)  7 40  7  0   1400.4  2045998.1  0.1  2 0  753 1433  635
[03]  12(G13)  7 42  7  0  -1694.2  2046002.1 -0.1  2 0 1404 2263 1421
[04]  16(G17)  7 45 15  0  -3002.3  2046003.8  0.0  2 0 2941 4159 2076
[05]  18(G19)  7 43  7  0  -4024.8  2046005.2 -0.0  2 0 1094 2004 1120
[06]  27(G28)  7 42  7  0  -2884.3  2046003.7 -0.1  2 0 1099 1431  403
[08]  29(G30)  7 43  7  0  -1891.0  2046002.3 -0.0  2 0 1465 2413  814
[16]  38(B02)  f 37 20  0  -1100.0  4092002.6  0.5  2 0 1061  747  148
[17]  41(B05)  f 38 10  0  -1101.3  4092002.5  0.5  2 0 1552  766  321
[18]  49(B13)  7  7  7  0  -2140.4  4092005.5  0.5 10 0  645 1336  976
[19]  54(B18)  1  7  7  0  -1907.2  4092003.3  0.1  1 0  453  318  227
[48]  38(B02)  1 10 16  1  -1170.1 20460016.1 -0.2  1 0  268  567  210
$GNGGA,085256.082,,,,,0,00,,,M,,,,0000*2D
$GNRMC,085256.082,A,,,,,,,090180,,*20
$GPGSA,A,1,,,,,,,,,,,,,,,*1E
$BDGSA,A,1,,,,,,,,,,,,,,,*0F
$GLGSA,A,1,,,,,,,,,,,,,,,*02
$GPGSV,2,1,08,04,00,000,40,07,00,000,41,09,00,000,40,13,00,000,42*79
$GPGSV,2,2,08,17,00,000,45,19,00,000,43,28,00,000,42,30,00,000,43*71
$BDGSV,1,1,02,02,00,000,37,05,00,000,38*62
$B3CN0,0,0,0,0,0,0,0,0,0,0,0,0,0,0*4C
---00000007--- Acq_st=3 0  2019-4-3 8:52:55 
[00]  03(G04)  f 40  7  0   1478.0  2045998.0  0.0  2 0  949 1682 1058
[01]  06(G07)  f 41  7  0    366.3  2045999.4  0.0  2 0 1026 1572  861
[02]  08(G09)  f 40  7  0   1393.3  2045998.2 -0.1  2 0  805  841  117
[03]  12(G13)  f 42  8  0  -1698.5  2046002.1  0.0  2 0 1081 2172 1321
[04]  16(G17)  f 45 14  0  -3003.8  2046003.9  0.0  2 0 2494 3732 1700
[05]  18(G19)  f 43  8  0  -4032.1  2046005.2 -0.0  2 0 1519 2551 1335
[06]  27(G28)  f 41  7  0  -2887.4  2046003.7 -0.0  2 0  510 1113  812
[08]  29(G30)  f 43  7  0  -1890.0  2046002.3 -0.0  2 0 1932 2615 1094
[16]  38(B02)  f 37 22  0  -1101.2  4092002.8 -0.7  2 0  976  881  271
[17]  41(B05)  f 39 26  0  -1103.9  4092002.6  0.7  2 0 1737 1300  443
[18]  49(B13)  7 43  7  0  -2138.8  4092005.5 -0.0  2 0  584 1466  663
[19]  54(B18)  1 16  7  0  -2003.0  4092003.0 -0.1  1 0  252  322  140
[20]  65(B29)  1  7  7  0  -3000.0  4092008.3  0.0  1 0 1141 1884 2356
[48]  38(B02)  1 10 10  1  -1160.0 20460020.0  0.2  1 0  732  601  504
[49]  41(B05)  1 23 10  1  -1144.8 20460019.6  0.1  1 0  961  516  134
$GNGGA,085257.082,,,,,0,00,,,M,,,,0000*2C
$GNRMC,085257.082,A,,,,,,,030419,,*2E
$GPGSA,A,1,,,,,,,,,,,,,,,*1E
$BDGSA,A,1,,,,,,,,,,,,,,,*0F
$GLGSA,A,1,,,,,,,,,,,,,,,*02
$GPGSV,2,1,08,04,00,000,40,07,00,000,41,09,00,000,40,13,00,000,42*79
$GPGSV,2,2,08,17,00,000,45,19,00,000,43,28,00,000,41,30,00,000,43*72
$BDGSV,1,1,03,02,00,000,36,05,00,000,40,13,00,000,43*58
$B3CN0,0,0,0,0,0,0,0,0,0,0,0,0,0,0*4C
---00000008--- Acq_st=3 0  2019-4-3 8:52:56 
[00]  03(G04)  f 41  8  0   1470.9  2045998.0 -0.1  2 0 1341 1908 1193
[01]  06(G07)  f 41  7  0    365.9  2045999.5  0.0  2 0  731 1295  457
[02]  08(G09)  f 40  7  0   1394.5  2045998.1 -0.1  2 0 1326 1589  300
[03]  12(G13)  f 42  9  0  -1699.0  2046002.1 -0.0  2 0 1220 2032 1184
[04]  16(G17)  f 45 15  0  -3007.4  2046003.9 -0.0  2 0 2242 3382 1449
[05]  18(G19)  f 43  7  0  -4029.1  2046005.2 -0.0  2 0 2124 3039 1591
[06]  27(G28)  f 42  7  0  -2889.3  2046003.7  0.1  2 0 1265 1879  757
[08]  29(G30)  f 43  7  0  -1896.1  2046002.4 -0.0  2 0 1576 1938  854
[16]  38(B02) 1f 39 28  0  -1103.0  4092002.7 -0.7  2 0  985  867  398
[17]  41(B05) 1f 40 22  0  -1103.3  4092002.6  0.3  2 0 1808 1310  312
[18]  49(B13)  7 42  7  0  -2139.9  4092005.5  0.0  2 0 1482 1923 1146
[19]  54(B18)  1  7  7  0  -1875.4  4092003.2 -0.0  1 0  361  839  643
[20]  65(B29)  1  7  7  0  -2907.6  4092008.0  0.2  1 0 1991 3130 1615
[32]  79(N-2)  1  7  7  0  24376.4  1022003.9  0.1  1 0   161  585  926
[48]  38(B02)  1 10 13  1  -1241.7 20460025.2  0.1  1 0  309  489  327
[49]  41(B05)  1 23 22  0   -791.6 20460024.3  0.0  1 0  363  320  118
$GNGGA,085258.082,,,,,0,00,,,M,,,,0000*23
$GNRMC,085258.082,A,,,,,,,030419,,*21
$GPGSA,A,1,,,,,,,,,,,,,,,*1E
$BDGSA,A,1,,,,,,,,,,,,,,,*0F
$GLGSA,A,1,,,,,,,,,,,,,,,*02
$GPGSV,2,1,08,04,00,000,41,07,00,000,41,09,00,000,40,13,00,000,42*78
$GPGSV,2,2,08,17,00,000,45,19,00,000,43,28,00,000,42,30,00,000,43*71
$BDGSV,1,1,03,02,00,000,38,05,00,000,40,13,00,000,42*57
$B3CN0,0,0,0,0,0,0,0,0,0,0,0,0,0,0*4C
---00000009--- Acq_st=7 0  2019-4-3 8:52:57 
[00]  03(G04)  f 41  7  0   1482.6  2045998.0  0.0  2 0 1494 1968 1256
[01]  06(G07)  f 41  7  0    374.0  2045999.5 -0.0  2 0  603  887  248
[02]  08(G09)  f 40  7  0   1397.4  2045998.1 -0.1  2 0  995 1069  425
[03]  12(G13)  f 43  8  0  -1689.8  2046002.1  0.0  2 0 1678 2298 1348
[04]  16(G17)  f 45 15  0  -3000.5  2046003.9 -0.0  2 0 2355 3619 2059
[05]  18(G19)  f 44 12  0  -4027.0  2046005.2  0.0  2 0 1496 2753 1120
[06]  27(G28)  f 42  7  0  -2885.7  2046003.6 -0.0  2 0 1077 1396  733
[08]  29(G30)  f 43  7  0  -1887.7  2046002.4 -0.0  2 0 1592 2414 1740
[16]  38(B02) 1f 37 17  0  -1098.0  4092002.7 -0.2  2 0  880  960  384
[17]  41(B05) 1f 41 23  0  -1100.3  4092002.7  0.5  2 0 1393 1386  476
[18]  49(B13) 1f 42  7  0  -2139.3  4092005.5 -0.1  2 0 1453 1908 1022
[19]  54(B18)  1  7  7  0  -2300.2  4092003.1  0.1  1 0  310  211  279
[20]  65(B29)  7 29  7  0  -2897.5  4092007.5  0.2 10 0 1122 2681 1809
[32]  79(N-2)  1 30  7  0  -4148.1  1022003.4  0.8  1 0   415  603  475
[33]  86(N05)  1 24  7  0  -3750.0  1022003.6  0.0  1 0   493 1288 1022
[48]  38(B02)  1 10 10  1  -1206.0 20460021.5  0.1  1 0  763  647  587
[49]  41(B05)  1 25 18  1   -704.4 20460024.8 -0.1  1 0  653  653  337
$GNGGA,085259.082,,,,,0,00,,,M,,,,0000*22
$GNRMC,085259.082,A,,,,,,,030419,,*20
$GPGSA,A,1,,,,,,,,,,,,,,,*1E
$BDGSA,A,1,,,,,,,,,,,,,,,*0F
$GLGSA,A,1,,,,,,,,,,,,,,,*02
$GPGSV,2,1,08,04,00,000,41,07,00,000,41,09,00,000,40,13,00,000,43*79
$GPGSV,2,2,08,17,00,000,45,19,00,000,44,28,00,000,42,30,00,000,43*76
$BDGSV,1,1,04,02,00,000,37,05,00,000,41,13,00,000,42,29,00,000,29*6E
$B3CN0,0,0,0,0,0,0,0,0,0,0,0,0,0,0*4C
---00000010--- Acq_st=7 0  2019-4-3 8:52:58 
[00]  03(G04)  f 41  7  0   1466.7  2045998.0 -0.0  2 0 1106 1824  657
[01]  06(G07)  f 41 13  0    354.6  2045999.5 -0.0  2 0 1030 2106 1178
[02]  08(G09)  f 40  7  0   1382.0  2045998.1  0.1  2 0 1039 1347  668
[03]  12(G13)  f 42  7  0  -1710.1  2046002.2 -0.0  2 0 1040 2277  786
[04]  16(G17)  f 44 12  0  -3016.5  2046003.9  0.0  2 0 2243 3557 2041
[05]  18(G19)  f 44 10  0  -4041.6  2046005.2 -0.0  2 0 2261 3006 1735
[06]  27(G28)  f 41  7  0  -2901.1  2046003.7  0.0  2 0 1507 1926 1030
[08]  29(G30)  f 43  7  0  -1903.9  2046002.4  0.0  2 0 1751 2612 1480
[16]  38(B02) 1f 37 26  0  -1118.4  4092002.9  0.0  2 0  417  479  411
[17]  41(B05) 1f 41 26  0  -1112.2  4092002.8  0.4  2 0  960 1436  580
[18]  49(B13) 1f 42  7  0  -2152.9  4092005.5 -0.1  2 0 1023 1769 1010
[20]  65(B29)  7 44  7  0  -2910.3  4092007.6 -0.0  2 0 1490 1847  921
[32]  79(N-2)  7 34  7  0  -4163.8  1022002.7 -0.2  5 0   369  829  376
[33]  86(N05)  1 24 21  0  -3783.0  1022002.4  0.9  1 0  1158 1726  855
[48]  38(B02)  f 18 10  1  -1473.2 20460024.0  0.2  2 0  282  234  458
[49]  41(B05)  1 25 14  1  -1079.9 20460021.2 -0.0  1 0  592  522  168
[50]  49(B13)  1  7  7  0  -1865.4 20460033.9  0.1  1 0  366  209  400
$GNGGA,085300.082,,,,,0,00,,,M,,,,0000*2F
$GNRMC,085300.082,A,,,,,,,030419,,*2D
$GPGSA,A,1,,,,,,,,,,,,,,,*1E
$BDGSA,A,1,,,,,,,,,,,,,,,*0F
$GLGSA,A,1,,,,,,,,,,,,,,,*02
$GPGSV,2,1,08,04,00,000,41,07,00,000,41,09,00,000,40,13,00,000,42*78
$GPGSV,2,2,08,17,00,000,44,19,00,000,44,28,00,000,41,30,00,000,43*74
$BDGSV,1,1,04,02,00,000,38,05,00,000,42,13,00,000,42,29,00,000,44*69
$B3CN0,0,18,0,0,0,0,0,0,0,0,0,0,0,0*75
---00000011--- Acq_st=3 0  2019-4-3 8:52:59 
[00]  03(G04)  f 41  7  0   1467.1  2045998.0  0.0  2 0 1338 1752  849
[01]  06(G07)  f 41 11  0    358.3  2045999.4 -0.0  2 0 1178 1748 1293
[02]  08(G09)  f 39  7  0   1382.8  2045998.1 -0.1  2 0  966 1082  273
[03]  12(G13)  f 42  7  0  -1706.1  2046002.2 -0.0  2 0 1102 2343 1108
[04]  16(G17)  f 45 12  0  -3015.1  2046003.9 -0.0  2 0 2769 3844 1929
[05]  18(G19)  f 44  7  0  -4044.1  2046005.2 -0.0  2 0 1679 2624 1330
[06]  27(G28)  f 42  7  0  -2898.2  2046003.7 -0.1  2 0 1566 1919 1274
[08]  29(G30)  f 43  7  0  -1902.9  2046002.4 -0.0  2 0 1877 2510 1061
[16]  38(B02) 1f 37 18  0  -1115.2  4092002.7  0.3  2 0 1138 1047  462
[17]  41(B05) 1f 42 21  0  -1114.1  4092002.8  0.2  2 0 1365 1267  363
[18]  49(B13) 1f 42  7  0  -2159.1  4092005.5 -0.1  2 0 1060 1626  524
[20]  65(B29)  7 44  7  0  -2911.7  4092007.5  0.0  2 0 2198 2496  858
[32]  79(N-2)  7 36  7  0  -4165.0  1022002.6  0.0  2 0   525  661  569
[33]  86(N05)  1 27 24  0  -3782.3  1022002.0  0.9  1 0   777 1205  639
[48]  38(B02)  f 10 10  1  -1573.6 20460025.0  0.0  2 0  547  880  221
[50]  49(B13)  1  7  7  0  -1207.5 20460033.0  0.0  1 0  155  460  234
$GNGGA,085301.082,,,,,0,00,,,M,,,,0000*2E
$GNRMC,085301.082,A,,,,,,,030419,,*2C
$GPGSA,A,1,,,,,,,,,,,,,,,*1E
$BDGSA,A,1,,,,,,,,,,,,,,,*0F
$GLGSA,A,1,,,,,,,,,,,,,,,*02
$GPGSV,2,1,08,04,00,000,41,07,00,000,41,09,00,000,39,13,00,000,42*76
$GPGSV,2,2,08,17,00,000,45,19,00,000,44,28,00,000,42,30,00,000,43*76
$BDGSV,1,1,04,02,00,000,36,05,00,000,42,13,00,000,42,29,00,000,44*67
$B3CN0,0,0,0,0,0,0,0,0,0,0,0,0,0,0*4C
---00000012--- Acq_st=3 0  2019-4-3 8:53:0 
[00]  03(G04)  f 40  7  0   1471.9  2045998.0 -0.0  2 0 1105 1427  334
[01]  06(G07)  f 41 13  0    366.2  2045999.5  0.0  2 0 1318 1876  737
[02]  08(G09)  f 40  7  0   1390.9  2045998.1 -0.1  2 0  747  948  205
[03]  12(G13)  f 43  7  0  -1697.9  2046002.1  0.0  2 0 1627 2138 1165
[04]  16(G17)  f 46 10  0  -3008.3  2046003.8  0.0  2 0 2713 3993 1993
[05]  18(G19)  f 45  7  0  -4034.6  2046005.2  0.0  2 0 1576 2598  922
[06]  27(G28)  f 42  7  0  -2894.9  2046003.6 -0.0  2 0 1791 2290  934
[08]  29(G30)  f 43  7  0  -1895.8  2046002.4  0.1  2 0 1517 2572 1063
[16]  38(B02) 1f 36 24  0  -1104.6  4092002.7  0.4  2 0  466  467  562
[17]  41(B05) 1f 41 27  0  -1106.2  4092002.7 -0.4  2 0 1281 1481  308
[18]  49(B13) 1f 42  7  0  -2143.0  4092005.5  0.0  2 0  943 1514  540
[20]  65(B29)  7 43  7  0  -2904.1  4092007.5 -0.0  2 0 2137 2620 1229
[32]  79(N-2)  7 35  7  0  -4158.2  1022002.6 -0.0  2 0   416  355   58
[33]  86(N05)  7 44 20  0  -3771.0  1022002.4 -0.1  2 0   831 1474  823
[48]  38(B02)  f 10 20  1  -1784.8 20460029.5  0.2  2 0  269   68  807
[49]  41(B05)  1 21 21  1   -935.2 20460018.0 -0.0  1 0  540  966  861
[50]  49(B13)  1  7  7  0   -718.0 20460033.5 -0.1  1 0  664  367  540
$GNGGA,085302.082,,,,,0,00,,,M,,,,0000*2D
$GNRMC,085302.082,A,,,,,,,030419,,*2F
$GPGSA,A,1,,,,,,,,,,,,,,,*1E
$BDGSA,A,1,,,,,,,,,,,,,,,*0F
$GLGSA,A,1,,,,,,,,,,,,,,,*02
$GPGSV,2,1,08,04,00,000,40,07,00,000,41,09,00,000,40,13,00,000,43*78
$GPGSV,2,2,08,17,00,000,46,19,00,000,44,28,00,000,43,30,00,000,43*74
$BDGSV,1,1,04,02,00,000,37,05,00,000,41,13,00,000,42,29,00,000,44*65
$B3CN0,0,0,0,0,0,0,0,0,0,0,0,0,0,0*4C
---00000013--- Acq_st=3 0  2019-4-3 8:53:1 
[00]  03(G04)  f 40  7  0   1475.6  2045998.1 -0.0  2 0  595 1413  823
[01]  06(G07)  f 41 12  0    376.0  2045999.4 -0.0  2 0 1172 1961 1195
[02]  08(G09)  f 40  7  0   1397.0  2045998.1  0.0  2 0  733 1744  901
[03]  12(G13)  f 43 14  0  -1691.9  2046002.1  0.0  2 0 1544 2467 1360
[04]  16(G17)  f 46 17  0  -3002.2  2046003.8 -0.0  2 0 2164 3504 1433
[05]  18(G19)  f 44 12  0  -4030.3  2046005.2  0.0  2 0 1551 2701 1206
[06]  27(G28)  f 43  7  0  -2886.0  2046003.6  0.0  2 0 1202 2154 1088
[08]  29(G30)  f 43  7  0  -1889.3  2046002.4  0.0  2 0 1610 2422 1007
[16]  38(B02) 1f 37 24  0  -1097.2  4092002.6 -0.4  2 0 1146  977  528
[17]  41(B05) 1f 41 22  0  -1104.3  4092002.7  0.4  2 0 1416 1378  582
[18]  49(B13) 1f 42  7  0  -2138.8  4092005.5 -0.1  2 0 1343 1992  640
[20]  65(B29)  7 44  8  0  -2898.0  4092007.5  0.0  2 0 2215 2440  942
[32]  79(N-2)  7 34  7  0  -4150.7  1022002.7  0.1  2 0   357  470  228
[33]  86(N05)  7 44 16  0  -3763.0  1022002.4  0.0  2 0   905 1527  843
[48]  38(B02)  f 10 10  0  -2005.4 20460032.2  0.0  2 0  147  402   71
[49]  41(B05)  1 23 23  1   -182.2 20460018.3 -0.0  1 0  398  347  749
[50]  49(B13)  1  7  7  0  -1131.5 20460034.3  0.1  1 0  641  269  609
---00000014--- Acq_st=3 0  2019-4-3 8:53:2 
[00]  03(G04)  f 39  7  0   1471.0  2045998.1  0.0  2 0  609 1644 1125
[01]  06(G07)  f 41  7  0    370.9  2045999.5 -0.0  2 0 1304 1513  247
[02]  08(G09)  f 41  7  0   1393.8  2045998.1  0.1  2 0 1395 1698  590
[03]  12(G13)  f 43 11  0  -1696.5  2046002.1 -0.1  2 0 1478 2554 1181
[04]  16(G17)  f 46 15  0  -3008.4  2046003.8  0.0  2 0 2898 4151 2067
[05]  18(G19)  f 44  7  0  -4032.9  2046005.2  0.0  2 0 2217 3313  970
[06]  27(G28)  f 44  7  0  -2891.0  2046003.7 -0.1  2 0 1875 2778 1561
[08]  29(G30)  f 44  7  0  -1891.7  2046002.4  0.0  2 0 1653 2532  950
[16]  38(B02) 1f 39 23  0  -1101.5  4092002.7 -0.4  2 0  827  720  250
[17]  41(B05) 1f 42 23  0  -1104.3  4092002.8  0.6  2 0 1654 2155 1081
[18]  49(B13) 1f 42  7  0  -2143.9  4092005.5  0.1  2 0 1259 1273  440
[20]  65(B29)  7 43  7  0  -2903.0  4092007.5 -0.0  2 0 2417 2544  763
[32]  79(N-2)  f 33  7  0  -4152.4  1022002.7 -0.2  5 0   440  749  218
[33]  86(N05)  7 43 17  0  -3765.6  1022002.4  0.0  2 0   599 1419  965
[49]  41(B05)  1 24 22  1   -186.3 20460020.6 -0.0  1 0  484  906  188
$GNGGA,085303.082,,,,,0,00,,,M,,,,0000*2C
$GNRMC,085303.082,A,,,,,,,030419,,*2E
$GPGSA,A,1,,,,,,,,,,,,,,,*1E
$BDGSA,A,1,,,,,,,,,,,,,,,*0F
$GLGSA,A,1,,,,,,,,,,,,,,,*02
$GPGSV,2,1,08,04,00,000,39,07,00,000,41,09,00,000,41,13,00,000,43*77
$GPGSV,2,2,08,17,00,000,46,19,00,000,44,28,00,000,44,30,00,000,44*74
$BDGSV,1,1,04,02,00,000,39,05,00,000,42,13,00,000,42,29,00,000,43*6F
$B3CN0,0,0,0,0,0,0,0,0,0,0,0,0,0,0*4C
---00000015--- Acq_st=3 0  2019-4-3 8:53:3 
[00]  03(G04)  f 39  7  0   1476.2  2045998.0 -0.2  2 0  980 1364  601
[01]  06(G07)  f 42 12  0    373.2  2045999.5 -0.0  2 0 1378 1627  761
[02]  08(G09)  f 41  7  0   1397.1  2045998.1  0.1  2 0  830 1388  733
[03]  12(G13)  f 43 10  0  -1694.8  2046002.1 -0.0  2 0 1511 2435  893
[04]  16(G17)  f 46 13  0  -3002.2  2046003.8  0.0  2 0 3490 4277 1695
[05]  18(G19)  f 44  7  0  -4029.5  2046005.2 -0.0  2 0 1675 2492  896
[06]  27(G28)  f 44  7  0  -2887.5  2046003.6  0.0  2 0 2122 3165 1339
[08]  29(G30)  f 43 13  0  -1884.6  2046002.4  0.0  2 0 1083 2325 1269
[16]  38(B02) 1f 39 26  0  -1096.1  4092002.7 -0.1  2 0  935  652  153
[17]  41(B05) 1f 41 26  0  -1104.6  4092002.8  0.4  2 0 1528 1876  751
[18]  49(B13) 1f 42  7  0  -2143.9  4092005.5  0.0  2 0 1538 1771  688
[20]  65(B29) 1f 44  7  0  -2896.3  4092007.5  0.0  2 0 2366 2619 1239
[32]  79(N-2)  f 35  7  0  -4149.8  1022002.6  0.1  5 0   314  601  239
[33]  86(N05)  7 43 16  0  -3764.7  1022002.4  0.1  2 0   590 1199  693
[48]  38(B02)  1 10 10  1   -469.0 20460017.9 -0.0  1 0  503  454  410
[49]  41(B05)  1 28 21  0   -289.9 20460020.6 -0.2  1 0  389  493  454
[50]  49(B13)  1  7  7  0  -1679.9 20460034.9 -0.1  1 0  591  768  466
$GNGGA,085304.082,,,,,0,00,,,M,,,,0000*2B
$GNRMC,085304.082,A,,,,,,,030419,,*29
$GPGSA,A,1,,,,,,,,,,,,,,,*1E
$BDGSA,A,1,,,,,,,,,,,,,,,*0F
$GLGSA,A,1,,,,,,,,,,,,,,,*02
$GPGSV,2,1,08,04,00,000,39,07,00,000,42,09,00,000,41,13,00,000,43*74
$GPGSV,2,2,08,17,00,000,46,19,00,000,44,28,00,000,44,30,00,000,43*73
$BDGSV,1,1,04,02,00,000,39,05,00,000,41,13,00,000,42,29,00,000,44*6B
$B3CN0,0,0,0,0,0,0,0,0,0,0,0,0,0,0*4C
---00000016--- Acq_st=3 0  2019-4-3 8:53:4 
[00]  03(G04)  f 40  7  0   1474.6  2045998.0 -0.0  2 0  593  955  407
[01]  06(G07)  f 41  7  0    370.6  2045999.5 -0.1  2 0  767 1815 1309
[02]  08(G09)  f 41  7  0   1388.2  2045998.2  0.0  2 0  812 1648 1016
[03]  12(G13)  f 44 14  0  -1693.7  2046002.1  0.0  2 0 2118 2697 1149
[04]  16(G17)  f 46 12  0  -3007.2  2046003.8  0.0  2 0 3352 4843 2498
[05]  18(G19)  f 44  9  0  -4030.4  2046005.2  0.0  2 0 1857 2467 1016
[06]  27(G28)  f 44  7  0  -2889.1  2046003.7 -0.0  2 0 1906 2520 1123
[08]  29(G30)  f 43  7  0  -1887.8  2046002.4 -0.0  2 0 1063 2317 1245
[16]  38(B02) 1f 38 23  0  -1092.6  4092002.6 -0.7  2 0 1097  875  370
[17]  41(B05) 1f 42 22  0  -1105.9  4092002.7  0.0  2 0 1146 1331  433
[18]  49(B13) 1f 42  7  0  -2143.1  4092005.5  0.0  2 0  859 1263  562
[20]  65(B29) 1f 44  7  0  -2902.8  4092007.5  0.0  2 0 2332 2664 1117
[32]  79(N-2)  f 36  7  0  -4153.3  1022002.6  0.2  2 0   514  506  237
[33]  86(N05)  f 39  7  0  -3767.1  1022002.4 -0.1  2 0   794 1404  715
[48]  38(B02)  1 10 10  1   -669.3 20460023.9  0.0  1 0  350  179  264
[50]  49(B13)  1  7  7  0  -1945.2 20460035.0  0.0  1 0  141  404  294
[52]  65(B29)  1  7  7  0  -2790.6 20460046.5  0.0  1 0  288  584  323
$GNGGA,085305.082,,,,,0,00,,,M,,,,0000*2A
$GNRMC,085305.082,A,,,,,,,030419,,*28
$GPGSA,A,1,,,,,,,,,,,,,,,*1E
$BDGSA,A,1,,,,,,,,,,,,,,,*0F
$GLGSA,A,1,,,,,,,,,,,,,,,*02
$GPGSV,2,1,08,04,00,000,40,07,00,000,41,09,00,000,41,13,00,000,44*7E
$GPGSV,2,2,08,17,00,000,46,19,00,000,44,28,00,000,44,30,00,000,43*73
$BDGSV,1,1,04,02,00,000,38,05,00,000,42,13,00,000,42,29,00,000,44*69
$B3CN0,0,0,0,0,0,0,0,0,0,0,0,0,0,0*4C
---00000017--- Acq_st=3 0  2019-4-3 8:53:5 
[00]  03(G04)  f 40  7  0   1475.1  2045998.0 -0.1  2 0  808 1398  558
[01]  06(G07)  f 41  7  0    370.7  2045999.4 -0.2  2 0 1068 1617 1360
[02]  08(G09)  f 40  7  0   1391.8  2045998.1  0.0  2 0  997 1434  339
[03]  12(G13)  f 44  7  0  -1691.8  2046002.1 -0.0  2 0 1527 2794 1363
[04]  16(G17)  f 46 15  0  -3003.1  2046003.8  0.0  2 0 3547 4642 2220
[05]  18(G19)  f 43  7  0  -4033.8  2046005.2  0.0  2 0 1253 2896 1447
[06]  27(G28)  f 44  7  0  -2888.0  2046003.7 -0.0  2 0 1793 2865 1269
[08]  29(G30)  f 43  7  0  -1890.3  2046002.4 -0.0  2 0 1520 1785  954
[16]  38(B02) 1f 38 27  0  -1098.4  4092002.7  0.6  2 0  830  625  280
[17]  41(B05) 1f 42 24  0  -1102.3  4092002.7  0.3  2 0 1241 1349  577
[18]  49(B13) 1f 42  7  0  -2140.8  4092005.5  0.1  2 0 1037 1753  755
[20]  65(B29) 1f 44  8  0  -2899.9  4092007.5 -0.0  2 0 2268 2487 1198
[32]  79(N-2)  f 38  7  0  -4150.1  1022002.6 -0.4  2 0   773  834  635
[33]  86(N05)  f 42 15  0  -3764.4  1022002.5 -0.0  2 0   607 1294  856
[48]  38(B02)  1 13 10  0  -1611.0 20460024.5  0.0  1 0  131  404  621
[49]  41(B05)  1 25 23  0   -822.1 20460018.3 -0.1  1 0  567  363  584
[50]  49(B13)  1  9  7  0  -1974.2 20460033.8  0.1  1 0  240  360   95
[52]  65(B29)  1  9  7  0  -3479.1 20460047.8 -0.0  1 0  446  111  311
$GNGGA,085306.082,,,,,0,00,,,M,,,,0000*29
$GNRMC,085306.082,A,,,,,,,030419,,*2B
$GPGSA,A,1,,,,,,,,,,,,,,,*1E
$BDGSA,A,1,,,,,,,,,,,,,,,*0F
$GLGSA,A,1,,,,,,,,,,,,,,,*02
$GPGSV,2,1,08,04,00,000,40,07,00,000,41,09,00,000,40,13,00,000,44*7F
$GPGSV,2,2,08,17,00,000,46,19,00,000,43,28,00,000,44,30,00,000,43*74
$BDGSV,1,1,04,02,00,000,38,05,00,000,41,13,00,000,42,29,00,000,44*6A
$B3CN0,0,0,0,0,0,0,0,0,0,0,0,0,0,0*4C
---00000018--- Acq_st=7 0  2019-4-3 8:53:6 
[00]  03(G04)  f 41  7  0   1475.4  2045998.0  0.1  2 0 1067 1622  744
[01]  06(G07)  f 41  7  0    373.2  2045999.4  0.1  2 0 1076 1550  559
[02]  08(G09)  f 41  7  0   1393.9  2045998.1  0.1  2 0  557 1481  972
[03]  12(G13)  f 43  8  0  -1694.1  2046002.1 -0.0  2 0 1353 2134 1047
[04]  16(G17)  f 46 14  0  -3003.8  2046003.8 -0.0  2 0 3081 4824 2645
[05]  18(G19)  f 43  7  0  -4030.9  2046005.2  0.0  2 0 1220 2307 1064
[06]  27(G28)  f 44  7  0  -2888.6  2046003.7  0.0  2 0 1336 2329 1477
[08]  29(G30)  f 43  7  0  -1884.0  2046002.4 -0.0  2 0 1753 2505  976
[16]  38(B02) 1f 38 27  0  -1102.2  4092002.7  0.8  2 0  786  689  234
[17]  41(B05) 1f 42 23  0  -1106.3  4092002.7  0.5  2 0 1258 1618  694
[18]  49(B13) 1f 42 10  0  -2141.0  4092005.5 -0.1  2 0 1196 1584  808
[20]  65(B29) 1f 45  7  0  -2897.1  4092007.5 -0.0  2 0 2201 2516  937
[32]  79(N-2)  f 39  7  0  -4147.1  1022002.6  0.0  2 0   630  847  425
[33]  86(N05)  f 41  7  0  -3762.9  1022002.4 -0.0  2 0   518 1449  580
[48]  38(B02)  1 10 10  1  -1942.7 20460019.9 -0.1  1 0  576  241   71
[49]  41(B05)  1 25 23  0   -684.7 20460014.6 -0.1  1 0  402  577  569
[50]  49(B13)  1  7  7  0  -1616.4 20460036.2  0.0  1 0  365   46  143
[52]  65(B29)  1  7  7  0  -3038.1 20460047.0 -0.1  1 0  669  599  631
$GNGGA,085307.082,,,,,0,00,,,M,,,,0000*28
$GNRMC,085307.082,A,,,,,,,030419,,*2A
$GPGSA,A,1,,,,,,,,,,,,,,,*1E
$BDGSA,A,1,,,,,,,,,,,,,,,*0F
$GLGSA,A,1,,,,,,,,,,,,,,,*02
$GPGSV,2,1,08,04,00,000,41,07,00,000,41,09,00,000,41,13,00,000,43*78
$GPGSV,2,2,08,17,00,000,46,19,00,000,43,28,00,000,44,30,00,000,43*74
$BDGSV,1,1,04,02,00,000,38,05,00,000,41,13,00,000,42,29,00,000,45*6B
$B3CN0,0,0,0,0,0,0,0,0,0,0,0,0,0,0*4C
---00000019--- Acq_st=7 0  2019-4-3 8:53:7 
[00]  03(G04)  f 41  7  0   1482.3  2045998.0 -0.1  2 0 1101 1765  914
[01]  06(G07)  f 42  7  0    374.2  2045999.5  0.0  2 0 1250 1670  971
[02]  08(G09)  f 40  7  0   1393.6  2045998.1 -0.0  2 0  211  846  820
[03]  12(G13)  f 43  7  0  -1685.7  2046002.1  0.0  2 0 1640 2286  712
[04]  16(G17)  f 46 12  0  -3000.0  2046003.8 -0.0  2 0 3807 4917 2416
[05]  18(G19)  f 44  7  0  -4030.3  2046005.2  0.0  2 0 1694 2373 1157
[06]  27(G28)  f 43  7  0  -2886.4  2046003.7  0.1  2 0  911 1965 1455
[08]  29(G30)  f 42 10  0  -1883.0  2046002.4  0.0  2 0 1522 2341 1128
[16]  38(B02) 1f 39 22  0  -1100.8  4092002.8 -0.1  2 0  788 1325  748
[17]  41(B05) 1f 42 16  0  -1100.9  4092002.7 -0.2  2 0 1041 1706  305
[18]  49(B13) 1f 42  7  0  -2140.9  4092005.5 -0.0  2 0 1313 1444  882
[20]  65(B29) 1f 44  7  0  -2896.2  4092007.5  0.0  2 0 1875 2597 1588
[32]  79(N-2)  f 39  7  0  -4141.8  1022002.6 -0.1  2 0   516  752  285
[33]  86(N05)  f 41  7  0  -3760.4  1022002.3 -0.0  2 0   755 1263  342
[49]  41(B05)  1 13 24  0   -294.0 20460019.7  0.1  1 0  609  362  273
[52]  65(B29)  1  7  7  0  -2821.3 20460045.3 -0.0  1 0  351  710   42
$GNGGA,085308.082,,,,,0,00,,,M,,,,0000*27
$GNRMC,085308.082,A,,,,,,,030419,,*25
$GPGSA,A,1,,,,,,,,,,,,,,,*1E
$BDGSA,A,1,,,,,,,,,,,,,,,*0F
$GLGSA,A,1,,,,,,,,,,,,,,,*02
$GPGSV,2,1,08,04,00,000,41,07,00,000,42,09,00,000,40,13,00,000,43*7A
$GPGSV,2,2,08,17,00,000,46,19,00,000,44,28,00,000,43,30,00,000,43*74
$BDGSV,1,1,04,02,00,000,39,05,00,000,42,13,00,000,42,29,00,000,44*68
$B3CN0,0,0,0,0,0,0,0,0,0,0,0,0,0,0*4C
---00000020--- Acq_st=3 0  2019-4-3 8:53:8 
[00]  03(G04)  f 41  7  0   1472.4  2045998.0 -0.0  2 0 1190 1693  578
[01]  06(G07)  f 41  7  0    372.8  2045999.4 -0.0  2 0 1364 1771 1037
[02]  08(G09)  f 41  7  0   1385.6  2045998.1  0.0  2 0 1270 1705  614
[03]  12(G13)  f 43  8  0  -1694.2  2046002.2 -0.0  2 0 1495 2509 1236
[04]  16(G17)  f 45 13  0  -3007.6  2046003.8  0.0  2 0 3374 5186 2838
[05]  18(G19)  f 44  8  0  -4033.5  2046005.2 -0.0  2 0 1356 2067  555
[06]  27(G28)  f 43  7  0  -2895.0  2046003.8  0.0  2 0  909 1788 1044
[08]  29(G30)  f 43  7  0  -1890.0  2046002.4  0.0  2 0 1548 2512 1511
[16]  38(B02) 1f 38 24  0  -1101.1  4092002.8  0.4  2 0  627  783  436
[17]  41(B05) 1f 41 26  0  -1108.1  4092002.8 -0.3  2 0 1335 1358  472
[18]  49(B13) 1f 42  7  0  -2148.1  4092005.5  0.0  2 0 1392 1901  733
[20]  65(B29) 1f 44 13  0  -2901.1  4092007.5  0.0  2 0 1381 2258 1066
[32]  79(N-2)  f 39  7  0  -4150.2  1022002.6 -0.3  2 0   601  649  167
[33]  86(N05)  f 41 10  0  -3768.1  1022002.4 -0.0  2 0  1340 1487  819
[48]  38(B02)  1 10 10  1   -803.5 20460018.1  0.0  1 0  334  432  427
[49]  41(B05)  1 23 19  0   -383.6 20460022.4  0.1  1 0  393  559  595
[50]  49(B13)  1  7  7  0  -2422.3 20460034.4 -0.2  1 0  554  375  244
$GNGGA,085309.082,,,,,0,00,,,M,,,,0000*26
$GNRMC,085309.082,A,,,,,,,030419,,*24
$GPGSA,A,1,,,,,,,,,,,,,,,*1E
$BDGSA,A,1,,,,,,,,,,,,,,,*0F
$GLGSA,A,1,,,,,,,,,,,,,,,*02
$GPGSV,2,1,08,04,00,000,41,07,00,000,41,09,00,000,41,13,00,000,43*78
$GPGSV,2,2,08,17,00,000,45,19,00,000,44,28,00,000,43,30,00,000,42*76
$BDGSV,1,1,04,02,00,000,38,05,00,000,41,13,00,000,42,29,00,000,44*6A
$B3CN0,0,0,0,0,0,0,0,0,0,0,0,0,0,0*4C
---00000021--- Acq_st=3 0  2019-4-3 8:53:9 
[00]  03(G04)  f 40  7  0   1473.5  2045998.0  0.1  2 0  816 1240  686
[01]  06(G07)  f 42  7  0    375.4  2045999.4 -0.0  2 0  888 1606 1134
[02]  08(G09)  f 41  7  0   1388.4  2045998.2 -0.0  2 0  792 2004 1455
[03]  12(G13)  f 43 11  0  -1693.6  2046002.2 -0.0  2 0 1327 1991  934
[04]  16(G17)  f 46 13  0  -3004.7  2046003.8 -0.0  2 0 3303 5070 2550
[05]  18(G19)  f 44  7  0  -4030.3  2046005.2 -0.0  2 0 1686 2690 1158
[06]  27(G28)  f 43  7  0  -2891.3  2046003.8  0.0  2 0  980 1868  824
[08]  29(G30)  f 43  7  0  -1887.0  2046002.4 -0.0  2 0 1340 2030  821
[16]  38(B02) 1f 38 21  0  -1109.4  4092002.8  0.2  2 0  405 1127  466
[17]  41(B05) 1f 41 10  0  -1109.2  4092002.8  0.1  2 0 1305 1346  420
[18]  49(B13) 1f 42  8  0  -2142.9  4092005.5  0.1  2 0 1094 1108  477
[20]  65(B29) 1f 44  7  0  -2900.5  4092007.5  0.0  2 0 1387 2147  408
[32]  79(N-2)  f 39  7  0  -4148.0  1022002.6 -0.4  2 0   586  844  149
[33]  86(N05)  f 41  9  0  -3764.9  1022002.4 -0.0  2 0  1088 1222  396
[48]  38(B02)  1 10 21  1  -1637.5 20460022.3  0.0  1 0  532  171  539
[50]  49(B13)  1  7  7  0  -2401.3 20460033.8 -0.1  1 0 1025  653  580
[52]  65(B29)  1  9  8  0  -2441.3 20460046.8  0.1  1 0  186  649  996
$GNGGA,085310.082,,,,,0,00,,,M,,,,0000*2E
$GNRMC,085310.082,A,,,,,,,030419,,*2C
$GPGSA,A,1,,,,,,,,,,,,,,,*1E
$BDGSA,A,1,,,,,,,,,,,,,,,*0F
$GLGSA,A,1,,,,,,,,,,,,,,,*02
$GPGSV,2,1,08,04,00,000,40,07,00,000,42,09,00,000,41,13,00,000,43*7A
$GPGSV,2,2,08,17,00,000,46,19,00,000,44,28,00,000,43,30,00,000,43*74
$BDGSV,1,1,04,02,00,000,38,05,00,000,41,13,00,000,42,29,00,000,44*6A
$B3CN0,0,0,0,0,0,0,0,0,0,0,0,0,0,0*4C
---00000022--- Acq_st=3 0  2019-4-3 8:53:10 
[00]  03(G04)  f 38  7  0   1479.7  2045998.0 -0.0  2 0 1334 1243  594
[01]  06(G07)  f 41  7  0    375.9  2045999.4 -0.1  2 0 1331 1814  853
[02]  08(G09)  f 41  7  0   1394.3  2045998.1 -0.2  2 0  878 1066  255
[03]  12(G13)  f 43 10  0  -1688.1  2046002.1 -0.1  2 0 1259 2351 1098
[04]  16(G17)  f 45 12  0  -2998.1  2046003.9 -0.0  2 0 2935 4716 2509
[05]  18(G19)  f 43  7  0  -4025.9  2046005.2  0.0  2 0 1763 2655 1187
[06]  27(G28)  f 42  7  0  -2885.4  2046003.8 -0.1  2 0  619 1616  857
[08]  29(G30)  f 43  7  0  -1879.8  2046002.4 -0.0  2 0 1387 2553 1555
[16]  38(B02) 1f 37 25  0  -1096.1  4092002.8 -0.4  2 0  773  943  582
[17]  41(B05) 1f 41 25  0  -1101.5  4092002.8  0.7  2 0 1158 1637  964
[18]  49(B13) 1f 42  7  0  -2139.3  4092005.5  0.0  2 0  914 1664  786
[20]  65(B29) 1f 44  7  0  -2894.8  4092007.5 -0.0  2 0 1656 2334  768
[32]  79(N-2)  f 39  7  0  -4143.1  1022002.6 -0.2  2 0   519  636  569
[33]  86(N05)  f 42  7  0  -3759.5  1022002.4  0.0  2 0   683 1226  472
[48]  38(B02)  1 14 10  1  -1589.5 20460018.8 -0.1  1 0  441  615  371
[49]  41(B05)  1 24 23  0   -959.7 20460019.8  0.1  1 0  361  368  306
[50]  49(B13)  1  7  7  0  -2802.4 20460032.5 -0.1  1 0  710  287  567
[52]  65(B29)  1  7  7  0  -2814.7 20460046.7 -0.0  1 0  243  585  886
$GNGGA,085311.082,,,,,0,00,,,M,,,,0000*2F
$GNRMC,085311.082,A,,,,,,,030419,,*2D
$GPGSA,A,1,,,,,,,,,,,,,,,*1E
$BDGSA,A,1,,,,,,,,,,,,,,,*0F
$GLGSA,A,1,,,,,,,,,,,,,,,*02
$GPGSV,2,1,08,04,00,000,38,07,00,000,41,09,00,000,41,13,00,000,43*76
$GPGSV,2,2,08,17,00,000,45,19,00,000,43,28,00,000,42,30,00,000,43*71
$BDGSV,1,1,04,02,00,000,37,05,00,000,41,13,00,000,42,29,00,000,44*65
$B3CN0,0,0,0,0,0,0,0,0,0,0,0,0,0,0*4C
---00000023--- Acq_st=3 0  2019-4-3 8:53:11 
[00]  03(G04)  f 38  7  0   1473.9  2045998.1 -0.1  2 0  657  841  282
[01]  06(G07)  f 42  7  0    376.7  2045999.4  0.0  2 0 1347 1911  620
[02]  08(G09)  f 40  7  0   1388.7  2045998.2  0.1  2 0  845 1119  673
[03]  12(G13)  f 43  8  0  -1688.5  2046002.1 -0.0  2 0 1508 2196 1143
[04]  16(G17)  f 45 12  0  -3001.9  2046003.9 -0.0  2 0 2347 3884 1850
[05]  18(G19)  f 44  7  0  -4030.3  2046005.2 -0.0  2 0 2039 2681 1098
[06]  27(G28)  f 41  7  0  -2884.8  2046003.7  0.1  2 0  879 1421  823
[08]  29(G30)  f 43  8  0  -1885.1  2046002.4  0.0  2 0  599 2020 1459
[16]  38(B02) 1f 39 26  0  -1098.9  4092003.0  0.9  2 0  812  764  389
[17]  41(B05) 1f 42 20  0  -1099.4  4092002.7 -0.2  2 0  870  790  358
[18]  49(B13) 1f 42  7  0  -2135.7  4092005.5 -0.1  2 0 1241 1495  403
[20]  65(B29) 1f 43  9  0  -2896.3  4092007.5 -0.0  2 0 1633 1945  735
[32]  79(N-2)  f 36  7  0  -4146.2  1022002.6  0.1  2 0   535  404  141
[33]  86(N05)  f 42  7  0  -3761.2  1022002.3 -0.0  2 0  1026 1525  669
[48]  38(B02)  7 10 10  0  -1903.3 20460032.5  0.1  2 0  579  542  460
[49]  41(B05)  1 22 23  1   -314.7 20460015.8  0.0  1 0  547  626  757
[50]  49(B13)  1  7  7  0  -2930.3 20460033.8  0.0  1 0  551  153  204
[52]  65(B29)  1  7  7  0  -2022.6 20460046.6  0.0  1 0  554  556  271
$GNGGA,085312.082,,,,,0,00,,,M,,,,0000*2C
$GNRMC,085312.082,A,,,,,,,030419,,*2E
$GPGSA,A,1,,,,,,,,,,,,,,,*1E
$BDGSA,A,1,,,,,,,,,,,,,,,*0F
$GLGSA,A,1,,,,,,,,,,,,,,,*02
$GPGSV,2,1,08,04,00,000,38,07,00,000,42,09,00,000,40,13,00,000,43*74
$GPGSV,2,2,08,17,00,000,45,19,00,000,44,28,00,000,41,30,00,000,43*75
$BDGSV,1,1,04,02,00,000,39,05,00,000,42,13,00,000,42,29,00,000,43*6F
$B3CN0,0,0,0,0,0,0,0,0,0,0,0,0,0,0*4C
---00000024--- Acq_st=3 0  2019-4-3 8:53:12 
[00]  03(G04)  f 38  7  0   1490.4  2045998.0  0.1  2 0  816 1172  750
[01]  06(G07)  f 42  7  0    398.0  2045999.4 -0.0  2 0 2084 2257 1245
[02]  08(G09)  f 40  9  0   1406.4  2045998.1 -0.2  2 0 1051 1401  680
[03]  12(G13)  f 43 15  0  -1671.8  2046002.1 -0.0  2 0 1344 1952  991
[04]  16(G17)  f 45 14  0  -2984.3  2046003.8  0.0  2 0 2424 3843 1779
[05]  18(G19)  f 44  8  0  -4010.7  2046005.1  0.0  2 0 1189 2482 1534
[06]  27(G28)  f 41  7  0  -2873.0  2046003.8  0.1  2 0  653 1383  934
[08]  29(G30)  f 42  7  0  -1866.6  2046002.5  0.0  2 0  797 1527  933
[16]  38(B02) 1f 39 19  0  -1083.2  4092002.7 -0.0  2 0 1011 1034  498
[17]  41(B05) 1f 42 25  0  -1086.6  4092002.7 -0.4  2 0 1468 1690  799
[18]  49(B13) 1f 42  7  0  -2122.8  4092005.4 -0.1  2 0  927 1712  929
[20]  65(B29) 1f 44  7  0  -2878.1  4092007.5 -0.0  2 0 1493 1810  922
[32]  79(N-2)  f 34  7  0  -4131.7  1022002.7  0.0  2 0   465  691  319
[33]  86(N05)  f 42  7  0  -3742.9  1022002.3  0.0  2 0   545 1358  832
[48]  38(B02)  7 17 10  1  -2094.7 20460034.5  0.2  2 0  423  423  276
[49]  41(B05)  1 25 21  1   -631.8 20460022.8 -0.0  1 0  618  867  561
[52]  65(B29)  1 10  7  0  -2209.3 20460046.7  0.0  1 0  136   40  277
$GNGGA,085313.082,,,,,0,00,,,M,,,,0000*2D
$GNRMC,085313.082,A,,,,,,,030419,,*2F
$GPGSA,A,1,,,,,,,,,,,,,,,*1E
$BDGSA,A,1,,,,,,,,,,,,,,,*0F
$GLGSA,A,1,,,,,,,,,,,,,,,*02
$GPGSV,2,1,08,04,00,000,38,07,00,000,42,09,00,000,40,13,00,000,43*74
$GPGSV,2,2,08,17,00,000,45,19,00,000,44,28,00,000,41,30,00,000,42*74
$BDGSV,1,1,04,02,00,000,38,05,00,000,42,13,00,000,42,29,00,000,44*69
$B3CN0,0,17,0,0,0,0,0,0,0,0,0,0,0,0*7A
---00000025--- Acq_st=3 0  2019-4-3 8:53:13 
[00]  03(G04)  f 39  7  0   1472.2  2045998.0 -0.1  2 0 1011 1535 1064
[01]  06(G07)  f 42  7  0    377.3  2045999.4  0.0  2 0 1068 1847  709
[02]  08(G09)  f 38  7  0   1389.7  2045998.1  0.3  2 0  584 1212  809
[03]  12(G13)  f 42 11  0  -1683.9  2046002.1  0.0  2 0 1367 1999 1107
[04]  16(G17)  f 45 14  0  -3000.8  2046003.9  0.0  2 0 2446 3934 2011
[05]  18(G19)  f 43  8  0  -4029.5  2046005.2  0.0  2 0 1476 2157 1084
[06]  27(G28)  f 41  7  0  -2892.7  2046003.7  0.0  2 0  857 1540  857
[08]  29(G30)  f 41  8  0  -1886.5  2046002.4 -0.0  2 0  352 1753  764
[16]  38(B02) 1f 39 29  0  -1100.6  4092002.8 -0.7  2 0  717 1209  434
[17]  41(B05) 1f 42 25  0  -1104.4  4092002.7 -0.4  2 0 1091 1359  386
[18]  49(B13) 1f 42  7  0  -2139.8  4092005.5  0.1  2 0 1387 1887  236
[20]  65(B29) 1f 43  7  0  -2895.1  4092007.5  0.0  2 0 1623 2154  839
[32]  79(N-2)  f 33  7  0  -4146.1  1022002.7  0.0  2 0   331  636  283
[33]  86(N05)  f 41  7  0  -3758.9  1022002.4  0.0  2 0   634 1148  702
[48]  38(B02)  7 10 17  0  -2195.3 20460036.4 -0.2  2 0   35  112   98
[49]  41(B05)  1 22 19  1   -555.8 20460016.5  0.0  1 0  789  248  154
[50]  49(B13)  1  7  7  0  -1378.1 20460033.4 -0.0  1 0  602  732  600
$GNGGA,085314.082,,,,,0,00,,,M,,,,0000*2A
$GNRMC,085314.082,A,,,,,,,030419,,*28
$GPGSA,A,1,,,,,,,,,,,,,,,*1E
$BDGSA,A,1,,,,,,,,,,,,,,,*0F
$GLGSA,A,1,,,,,,,,,,,,,,,*02
$GPGSV,2,1,08,04,00,000,39,07,00,000,42,09,00,000,38,13,00,000,42*7B
$GPGSV,2,2,08,17,00,000,45,19,00,000,43,28,00,000,41,30,00,000,41*70
$BDGSV,1,1,04,02,00,000,39,05,00,000,42,13,00,000,42,29,00,000,43*6F
$B3CN0,0,0,0,0,0,0,0,0,0,0,0,0,0,0*4C
---00000026--- Acq_st=3 0  2019-4-3 8:53:14 
[00]  03(G04)  f 39  7  0   1490.9  2045998.0 -0.2  2 0  947 1227  395
[01]  06(G07)  f 43  7  0    390.7  2045999.4 -0.0  2 0 1372 1961 1305
[02]  08(G09)  f 38  7  0   1398.1  2045998.1 -0.3  2 0  775 1054  359
[03]  12(G13)  f 42 13  0  -1677.6  2046002.1 -0.0  2 0  394 1647  839
[04]  16(G17)  f 46 14  0  -2988.8  2046003.8  0.0  2 0 2125 3604 1883
[05]  18(G19)  f 43 10  0  -4018.5  2046005.1  0.0  2 0 2019 2748 1397
[06]  27(G28)  f 41  7  0  -2878.5  2046003.7  0.0  2 0  894 1715  860
[08]  29(G30)  f 42  7  0  -1869.0  2046002.5  0.0  2 0 1099 2000 1460
[16]  38(B02) 1f 38 20  0  -1083.9  4092002.7 -0.8  2 0  911  874  194
[17]  41(B05) 1f 41 19  0  -1091.3  4092002.7 -0.4  2 0 1214 1099  262
[18]  49(B13) 1f 42  7  0  -2127.0  4092005.4  0.1  2 0 1104 1579  587
[20]  65(B29) 1f 43  7  0  -2884.2  4092007.5  0.0  2 0 1437 2101 1145
[32]  79(N-2)  f 34  7  0  -4134.5  1022002.6  0.1  2 0   388  704  176
[33]  86(N05)  f 41  7  0  -3747.4  1022002.3 -0.0  2 0   876 1424  712
[48]  38(B02)  7 16 10  1  -2353.7 20460035.9 -0.1  2 0 1000  366  457
[50]  49(B13)  1  7  7  0  -1364.4 20460033.2  0.1  1 0  285  201  390
[52]  65(B29)  1  7  7  0  -2121.8 20460046.6 -0.0  1 0  854  705  308
$GNGGA,085315.082,,,,,0,00,,,M,,,,0000*2B
$GNRMC,085315.082,A,,,,,,,030419,,*29
$GPGSA,A,1,,,,,,,,,,,,,,,*1E
$BDGSA,A,1,,,,,,,,,,,,,,,*0F
$GLGSA,A,1,,,,,,,,,,,,,,,*02
$GPGSV,2,1,08,04,00,000,39,07,00,000,43,09,00,000,38,13,00,000,42*7A
$GPGSV,2,2,08,17,00,000,46,19,00,000,43,28,00,000,41,30,00,000,42*70
$BDGSV,1,1,04,02,00,000,38,05,00,000,41,13,00,000,42,29,00,000,43*6D
$B3CN0,0,17,0,0,0,0,0,0,0,0,0,0,0,0*7A
---00000027--- Acq_st=7 0  2019-4-3 8:53:15 
[00]  03(G04)  f 40  7  0   1479.6  2045998.0 -0.0  2 0  814 1513  465
[01]  06(G07)  f 42  7  0    383.4  2045999.5 -0.0  2 0 1926 2050  654
[02]  08(G09)  f 40  7  0   1390.5  2045998.1 -0.0  2 0  842 1266  856
[03]  12(G13)  f 42 14  0  -1682.8  2046002.1  0.0  2 0  849 1457  624
[04]  16(G17)  f 45 10  0  -2998.0  2046003.9 -0.0  2 0 2441 3631 1811
[05]  18(G19)  f 43  9  0  -4025.8  2046005.2  0.0  2 0 1825 2565 1467
[06]  27(G28)  f 41  7  0  -2888.4  2046003.6  0.0  2 0  902 1442  959
[08]  29(G30)  f 42  7  0  -1878.4  2046002.4  0.0  2 0  508 1717  417
[16]  38(B02) 1f 37 26  0  -1096.4  4092002.7  0.6  2 0  876  869  464
[17]  41(B05) 1f 43 27  0  -1099.4  4092002.8 -0.1  2 0  922 1792  772
[18]  49(B13) 1f 42  7  0  -2139.4  4092005.5  0.0  2 0 1396 1860  602
[20]  65(B29) 1f 43  7  0  -2893.5  4092007.5 -0.0  2 0 1636 2240 1230
[32]  79(N-2)  f 35  7  0  -4141.4  1022002.6 -0.1  2 0   452  505  261
[33]  86(N05)  f 42  7  0  -3755.5  1022002.4 -0.0  2 0  1009 1676 1105
[49]  41(B05)  1 23 26  1   -556.4 20460015.3 -0.0  1 0  363  133  474
[50]  49(B13)  1  7  7  0  -1365.1 20460034.6  0.1  1 0  221   53  284
[52]  65(B29)  1  7  8  0  -1810.9 20460047.6 -0.1  1 0  326  140  136
$GNGGA,085316.082,,,,,0,00,,,M,,,,0000*28
$GNRMC,085316.082,A,,,,,,,030419,,*2A
$GPGSA,A,1,,,,,,,,,,,,,,,*1E
$BDGSA,A,1,,,,,,,,,,,,,,,*0F
$GLGSA,A,1,,,,,,,,,,,,,,,*02
$GPGSV,2,1,08,04,00,000,40,07,00,000,42,09,00,000,40,13,00,000,42*7A
$GPGSV,2,2,08,17,00,000,45,19,00,000,43,28,00,000,41,30,00,000,42*73
$BDGSV,1,1,04,02,00,000,37,05,00,000,42,13,00,000,42,29,00,000,43*61
$B3CN0,0,0,0,0,0,0,0,0,0,0,0,0,0,0*4C
---00000028--- Acq_st=7 0  2019-4-3 8:53:16 
[00]  03(G04)  f 40  8  0   1474.1  2045998.0  0.2  2 0 1346 2040  710
[01]  06(G07)  f 42 11  0    378.6  2045999.5 -0.0  2 0 1064 2319 1864
[02]  08(G09)  f 40  7  0   1391.2  2045998.2 -0.1  2 0 1207 1828 1016
[03]  12(G13)  f 42 11  0  -1685.2  2046002.1 -0.0  2 0  932 2092 1623
[04]  16(G17)  f 45 15  0  -2999.7  2046003.9  0.0  2 0 2496 3509 1493
[05]  18(G19)  f 44  7  0  -4030.1  2046005.2 -0.0  2 0 1475 2239  987
[06]  27(G28)  f 41  7  0  -2888.1  2046003.6 -0.0  2 0 1946 2214  999
[08]  29(G30)  f 42  7  0  -1877.7  2046002.4  0.0  2 0 1056 1638  979
[16]  38(B02) 1f 37 26  0  -1102.1  4092002.8  0.0  2 0 1033 1183  581
[17]  41(B05) 1f 42 21  0  -1106.1  4092002.8  0.0  2 0 1492 1621  698
[18]  49(B13) 1f 42  7  0  -2143.5  4092005.5 -0.1  2 0  841 1416  561
[20]  65(B29) 1f 43  7  0  -2896.6  4092007.5  0.0  2 0 1749 2030  660
[32]  79(N-2)  f 37  7  0  -4142.0  1022002.6 -0.3  2 0   632  617  324
[33]  86(N05)  f 42  7  0  -3757.4  1022002.4 -0.1  2 0  1006 1818  929
[48]  38(B02)  1 13 10  0   -785.8 20460014.1  0.1  1 0  532  655  778
[49]  41(B05)  1 25 21  0   -529.7 20460018.8 -0.1  1 0  589  247  233
[50]  49(B13)  1  9  7  0  -1329.4 20460034.7  0.1  1 0  349  180  304
[52]  65(B29)  1  7  7  0  -2058.6 20460047.3 -0.1  1 0  287  143  374
$GNGGA,085317.082,,,,,0,00,,,M,,,,0000*29
$GNRMC,085317.082,A,,,,,,,030419,,*2B
$GPGSA,A,1,,,,,,,,,,,,,,,*1E
$BDGSA,A,1,,,,,,,,,,,,,,,*0F
$GLGSA,A,1,,,,,,,,,,,,,,,*02
$GPGSV,2,1,08,04,00,000,40,07,00,000,42,09,00,000,40,13,00,000,42*7A
$GPGSV,2,2,08,17,00,000,45,19,00,000,44,28,00,000,41,30,00,000,42*74
$BDGSV,1,1,04,02,00,000,37,05,00,000,42,13,00,000,42,29,00,000,43*61
$B3CN0,0,0,0,0,0,0,0,0,0,0,0,0,0,0*4C
---00000029--- Acq_st=3 0  2019-4-3 8:53:17 
[00]  03(G04)  f 41  7  0   1488.1  2045998.0 -0.0  2 0 1122 1452  403
[01]  06(G07)  f 42 11  0    391.6  2045999.4  0.0  2 0 1056 1908 1067
[02]  08(G09)  f 39  7  0   1400.6  2045998.1 -0.2  2 0  304  986  617
[03]  12(G13)  f 42  7  0  -1673.3  2046002.2 -0.2  2 0  530 1208  830
[04]  16(G17)  f 45 13  0  -2988.7  2046003.8  0.0  2 0 2007 3337 1613
[05]  18(G19)  f 44 10  0  -4019.0  2046005.2  0.0  2 0 1815 3127 1305
[06]  27(G28)  f 42  7  0  -2873.3  2046003.6 -0.0  2 0 1661 1954 1064
[08]  29(G30)  f 42  7  0  -1872.2  2046002.4 -0.1  2 0 1219 1710  796
[16]  38(B02) 1f 38 19  0  -1088.5  4092002.8 -0.7  2 0  602  764  670
[17]  41(B05) 1f 41 24  0  -1088.0  4092002.8  0.0  2 0 1103  990  169
[18]  49(B13) 1f 42  9  0  -2130.1  4092005.4  0.0  2 0 1305 1453  650
[20]  65(B29) 1f 43  8  0  -2883.0  4092007.4 -0.0  2 0 1233 1997  875
[32]  79(N-2)  f 38  7  0  -4129.5  1022002.6  0.3  2 0   411  568  205
[33]  86(N05)  f 42  7  0  -3743.5  1022002.4 -0.0  2 0  1091 1460  776
[48]  38(B02)  7 19 10  0   -584.0 20460012.2  0.1  2 0  164  573  678
[49]  41(B05)  1 22 21  0   -408.5 20460022.3 -0.1  1 0  282  628  434
[52]  65(B29)  1  7  7  0  -1835.2 20460047.1 -0.0  1 0   33  478  542
$GNGGA,085318.082,,,,,0,00,,,M,,,,0000*26
$GNRMC,085318.082,A,,,,,,,030419,,*24
$GPGSA,A,1,,,,,,,,,,,,,,,*1E
$BDGSA,A,1,,,,,,,,,,,,,,,*0F
$GLGSA,A,1,,,,,,,,,,,,,,,*02
$GPGSV,2,1,08,04,00,000,41,07,00,000,42,09,00,000,39,13,00,000,42*75
$GPGSV,2,2,08,17,00,000,45,19,00,000,44,28,00,000,42,30,00,000,42*77
$BDGSV,1,1,04,02,00,000,38,05,00,000,41,13,00,000,42,29,00,000,43*6D
$B3CN0,0,19,0,0,0,0,0,0,0,0,0,0,0,0*74
---00000030--- Acq_st=3 0  2019-4-3 8:53:18 
[00]  03(G04)  f 41  7  0   1479.9  2045998.0  0.0  2 0  794 1560  765
[01]  06(G07)  f 41  7  0    385.2  2045999.5  0.0  2 0 1179 1962 1255
[02]  08(G09)  f 39  7  0   1394.6  2045998.1 -0.0  2 0  822 1357  783
[03]  12(G13)  f 42  7  0  -1681.3  2046002.2  0.1  2 0 1007 1562  685
[04]  16(G17)  f 45 11  0  -2993.2  2046003.8 -0.0  2 0 2246 3811 2182
[05]  18(G19)  f 44  7  0  -4020.2  2046005.2  0.0  2 0 1569 2588 1176
[06]  27(G28)  f 42  7  0  -2884.9  2046003.6  0.1  2 0 1550 2223 1100
[08]  29(G30)  f 41  7  0  -1872.4  2046002.4 -0.0  2 0 1264 1362  570
[16]  38(B02) 1f 38 25  0  -1094.0  4092002.8  0.8  2 0  828  983  523
[17]  41(B05) 1f 42 25  0  -1098.6  4092002.8 -0.0  2 0 1080 1387  689
[18]  49(B13) 1f 42  7  0  -2132.6  4092005.5  0.1  2 0 1290 1962  578
[20]  65(B29) 1f 43  7  0  -2886.3  4092007.4  0.0  2 0 2010 2146  722
[32]  79(N-2)  f 37  7  0  -4134.0  1022002.6 -0.2  2 0   612  810  310
[33]  86(N05)  f 42  7  0  -3749.4  1022002.3 -0.0  2 0   727 1587  740
[48]  38(B02)  7 20 13  1   -629.6 20460010.7  0.0  2 0  254  184  572
[49]  41(B05)  1 26 24  1    393.9 20460018.8  0.1  1 0  308  108  470
[50]  49(B13)  1  7  7  0  -1826.7 20460034.0  0.2  1 0  728  656  538
$GNGGA,085319.082,,,,,0,00,,,M,,,,0000*27
$GNRMC,085319.082,A,,,,,,,030419,,*25
$GPGSA,A,1,,,,,,,,,,,,,,,*1E
$BDGSA,A,1,,,,,,,,,,,,,,,*0F
$GLGSA,A,1,,,,,,,,,,,,,,,*02
$GPGSV,2,1,08,04,00,000,41,07,00,000,41,09,00,000,39,13,00,000,42*76
$GPGSV,2,2,08,17,00,000,45,19,00,000,44,28,00,000,42,30,00,000,41*74
$BDGSV,1,1,04,02,00,000,38,05,00,000,42,13,00,000,42,29,00,000,43*6E
$B3CN0,0,20,0,0,0,0,0,0,0,0,0,0,0,0*7E
---00000031--- Acq_st=3 0  2019-4-3 8:53:19 
[00]  03(G04)  f 41  7  0   1484.5  2045998.0 -0.1  2 0  789 1675  908
[01]  06(G07)  f 41  7  0    389.9  2045999.4 -0.1  2 0  983 1404  399
[02]  08(G09)  f 39  9  0   1395.2  2045998.2 -0.2  2 0  639  940  628
[03]  12(G13)  f 41 12  0  -1677.8  2046002.1 -0.0  2 0  997 1518  402
[04]  16(G17)  f 45 16  0  -2989.8  2046003.8 -0.0  2 0 2589 4059 2701
[05]  18(G19)  f 44  7  0  -4020.0  2046005.2 -0.0  2 0 1724 2780 1702
[06]  27(G28)  f 43  7  0  -2879.9  2046003.7 -0.0  2 0 1308 2042 1203
[08]  29(G30)  f 41  7  0  -1872.6  2046002.4 -0.0  2 0 1034 1493 1062
[16]  38(B02) 1f 38 23  0  -1086.8  4092002.7  0.1  2 0 1048  918  708
[17]  41(B05) 1f 43 21  0  -1095.9  4092002.7 -0.6  2 0 1142 1349  353
[18]  49(B13) 1f 42  7  0  -2131.7  4092005.5 -0.0  2 0 1068 1620  621
[19]  43(B07)  1  7  7  0  -1500.0  4092004.2  0.0  1 0  297  466  276
[20]  65(B29) 1f 43  7  0  -2884.6  4092007.4 -0.0  2 0 2178 2455  981
[32]  79(N-2)  f 39  7  0  -4129.9  1022002.6 -0.6  2 0   468  830  467
[33]  86(N05)  f 42  7  0  -3747.0  1022002.4  0.1  2 0  1170 1757  915
[48]  38(B02)  7 10 36  1   -754.2 20460011.8  0.0  2 0  517  352   97
[50]  49(B13)  1  7  7  0  -2349.9 20460033.0  0.1  1 0  618  103  244
[52]  65(B29)  1  7 11  0  -2479.3 20460044.9 -0.0  1 0  426  228  117
$GNGGA,085320.082,,,,,0,00,,,M,,,,0000*2D
$GNRMC,085320.082,A,,,,,,,030419,,*2F
$GPGSA,A,1,,,,,,,,,,,,,,,*1E
$BDGSA,A,1,,,,,,,,,,,,,,,*0F
$GLGSA,A,1,,,,,,,,,,,,,,,*02
$GPGSV,2,1,08,04,00,000,41,07,00,000,41,09,00,000,39,13,00,000,41*75
$GPGSV,2,2,08,17,00,000,45,19,00,000,44,28,00,000,43,30,00,000,41*75
$BDGSV,1,1,04,02,00,000,38,05,00,000,43,13,00,000,42,29,00,000,43*6F
$B3CN0,0,0,0,0,0,0,0,0,0,0,0,0,0,0*4C
---00000032--- Acq_st=3 0  2019-4-3 8:53:20 
[00]  03(G04)  f 40  7  0   1472.3  2045998.1  0.0  2 0  793 1315  667
[01]  06(G07)  f 41  7  0    385.4  2045999.5  0.0  2 0 1338 1922  878
[02]  08(G09)  f 39  7  0   1387.7  2045998.1  0.2  2 0 1428 1291  215
[03]  12(G13)  f 41 13  0  -1685.0  2046002.1  0.1  2 0 1040 1567  981
[04]  16(G17)  f 45 14  0  -2997.7  2046003.8  0.0  2 0 2769 4037 1860
[05]  18(G19)  f 44  8  0  -4028.7  2046005.2  0.0  2 0 1777 2605 1293
[06]  27(G28)  f 44  8  0  -2888.3  2046003.7  0.0  2 0 1992 2457  713
[08]  29(G30)  f 41  7  0  -1874.5  2046002.4  0.0  2 0  794 1469  732
[16]  38(B02) 1f 36 25  0  -1102.3  4092002.8 -0.7  2 0  977 1124  536
[17]  41(B05) 1f 41 26  0  -1101.1  4092002.8 -0.3  2 0 1344 1729  767
[18]  49(B13) 1f 42  7  0  -2139.8  4092005.5  0.0  2 0 1391 1850  493
[19]  43(B07)  1  7  7  0  -1304.9  4092004.8 -0.1  1 0  542  998  529
[20]  65(B29) 1f 43  9  0  -2896.0  4092007.4  0.0  2 0 2297 2347  834
[32]  79(N-2)  f 39  7  0  -4139.2  1022002.6  0.2  2 0   472  768  501
[33]  86(N05)  f 42  7  0  -3753.5  1022002.4  0.0  2 0  1239 1918  951
[48]  38(B02)  7 14 10  1   -851.0 20460014.3 -0.0  2 0  463  468  235
[49]  41(B05)  1 16 24  1   -678.3 20460016.3  0.0  1 0   89   94   98
[50]  49(B13)  1  7  7  0  -2407.7 20460033.1  0.1  1 0  477  643  233
[52]  65(B29)  1  7  7  0  -2176.0 20460046.2  0.2  1 0  206  554  435
$GNGGA,085321.082,,,,,0,00,,,M,,,,0000*2C
$GNRMC,085321.082,A,,,,,,,030419,,*2E
$GPGSA,A,1,,,,,,,,,,,,,,,*1E
$BDGSA,A,1,,,,,,,,,,,,,,,*0F
$GLGSA,A,1,,,,,,,,,,,,,,,*02
$GPGSV,2,1,08,04,00,000,40,07,00,000,41,09,00,000,39,13,00,000,41*74
$GPGSV,2,2,08,17,00,000,45,19,00,000,44,28,00,000,44,30,00,000,41*72
$BDGSV,1,1,04,02,00,000,36,05,00,000,41,13,00,000,42,29,00,000,43*63
$B3CN0,0,0,0,0,0,0,0,0,0,0,0,0,0,0*4C
---00000033--- Acq_st=3 0  2019-4-3 8:53:21 
[00]  03(G04)  f 40  7  0   1467.1  2045998.1  0.1  2 0  638 1556 1204
[01]  06(G07)  f 41  7  0    375.0  2045999.5 -0.1  2 0  974 1580  691
[02]  08(G09)  f 40  7  0   1380.9  2045998.2 -0.1  2 0  708 1183  553
[03]  12(G13)  f 41  7  0  -1695.7  2046002.1 -0.0  2 0  919 1753  825
[04]  16(G17)  f 45 15  0  -3008.2  2046003.8 -0.0  2 0 3202 4246 2007
[05]  18(G19)  f 44  7  0  -4037.6  2046005.2 -0.1  2 0 1135 2435 1258
[06]  27(G28)  f 43  7  0  -2898.1  2046003.7  0.0  2 0 1724 3086 1458
[08]  29(G30)  f 41  7  0  -1885.3  2046002.4  0.0  2 0 1014 1736  904
[16]  38(B02) 1f 38 25  0  -1104.6  4092002.6 -0.7  2 0  780  814  308
[17]  41(B05) 1f 43 22  0  -1113.9  4092002.8  0.2  2 0 1056 1462  694
[18]  49(B13) 1f 42  7  0  -2151.3  4092005.5  0.1  2 0 1364 1721  557
[19]  43(B07)  7 28  7  0  -1300.6  4092003.3 -0.1 10 0  694  900  820
[20]  65(B29) 1f 44  7  0  -2902.9  4092007.5  0.1  2 0 1726 2163  755
[32]  79(N-2)  f 39  7  0  -4147.3  1022002.6 -0.1  2 0   520 1015  492
[33]  86(N05)  f 42  7  0  -3763.9  1022002.4 -0.0  2 0   619 1616  837
[49]  41(B05)  1 22 24  0    132.4 20460018.9 -0.0  1 0  518  354  310
[50]  49(B13)  1  7  7  0  -2379.6 20460034.1  0.0  1 0  141  129  194
[52]  65(B29)  1  7  7  0  -2299.9 20460046.6 -0.0  1 0  474  458  445
$GNGGA,085322.082,,,,,0,00,,,M,,,,0000*2F
$GNRMC,085322.082,A,,,,,,,030419,,*2D
$GPGSA,A,1,,,,,,,,,,,,,,,*1E
$BDGSA,A,1,,,,,,,,,,,,,,,*0F
$GLGSA,A,1,,,,,,,,,,,,,,,*02
$GPGSV,2,1,08,04,00,000,40,07,00,000,41,09,00,000,40,13,00,000,41*7A
$GPGSV,2,2,08,17,00,000,45,19,00,000,44,28,00,000,43,30,00,000,41*75
$BDGSV,2,1,05,02,00,000,38,05,00,000,43,13,00,000,42,07,00,000,28*6C
$BDGSV,2,2,05,29,00,000,44*56
$B3CN0,0,0,0,0,0,0,0,0,0,0,0,0,0,0*4C
---00000034--- Acq_st=3 0  2019-4-3 8:53:22 
[00]  03(G04)  f 40  7  0   1474.3  2045998.0 -0.0  2 0  866 1174  920
[01]  06(G07)  f 41  8  0    377.7  2045999.4 -0.0  2 0  800 1478  610
[02]  08(G09)  f 40  7  0   1382.6  2045998.1 -0.0  2 0  752 1307  691
[03]  12(G13)  f 41  7  0  -1686.0  2046002.1  0.1  2 0  936 1827  777
[04]  16(G17)  f 45 17  0  -2998.7  2046003.8 -0.0  2 0 3006 4209 2118
[05]  18(G19)  f 45 10  0  -4031.6  2046005.2  0.0  2 0 1601 1963 1051
[06]  27(G28)  f 44  7  0  -2891.3  2046003.7  0.0  2 0 1292 2623 1402
[08]  29(G30)  f 41  7  0  -1874.1  2046002.4 -0.1  2 0  761 1879 1061
[16]  38(B02) 1f 37 23  0  -1099.3  4092002.8 -0.6  2 0  398  825  509
[17]  41(B05) 1f 41 25  0  -1103.0  4092002.8  0.1  2 0 1301 1482  791
[18]  49(B13) 1f 43  8  0  -2144.6  4092005.5 -0.0  2 0 1403 1339  485
[19]  43(B07)  7 34  7  0  -1295.7  4092003.3  0.0  2 0  512  623  430
[20]  65(B29) 1f 44  7  0  -2895.5  4092007.4  0.0  2 0 2203 2529 1079
[32]  79(N-2)  f 38  7  0  -4138.9  1022002.6  0.5  2 0   578  967  569
[33]  86(N05)  f 42  7  0  -3755.1  1022002.4 -0.0  2 0   975 1559  495
[48]  38(B02)  1 10 22  1  -1482.0 20460022.1  0.1  1 0  444  619  257
[49]  41(B05)  1 22 23  1   -522.7 20460025.2  0.1  1 0   52  285  279
[52]  65(B29)  1  7 11  0  -2278.9 20460045.0 -0.1  1 0  283  197  182
$GNGGA,085323.082,,,,,0,00,,,M,,,,0000*2E
$GNRMC,085323.082,A,,,,,,,030419,,*2C
$GPGSA,A,1,,,,,,,,,,,,,,,*1E
$BDGSA,A,1,,,,,,,,,,,,,,,*0F
$GLGSA,A,1,,,,,,,,,,,,,,,*02
$GPGSV,2,1,08,04,00,000,40,07,00,000,41,09,00,000,40,13,00,000,41*7A
$GPGSV,2,2,08,17,00,000,45,19,00,000,45,28,00,000,44,30,00,000,41*73
$BDGSV,2,1,05,02,00,000,37,05,00,000,41,13,00,000,43,07,00,000,34*6D
$BDGSV,2,2,05,29,00,000,44*56
$B3CN0,0,0,0,0,0,0,0,0,0,0,0,0,0,0*4C
---00000035--- Acq_st=3 0  2019-4-3 8:53:23 
[00]  03(G04)  f 40  7  0   1479.0  2045998.0  0.1  2 0  856 1372  872
[01]  06(G07)  f 41  7  0    386.6  2045999.5 -0.1  2 0 1015 1251  686
[02]  08(G09)  f 40  7  0   1390.3  2045998.1 -0.0  2 0 1596 1737  632
[03]  12(G13)  f 40  8  0  -1687.9  2046002.1 -0.1  2 0  813 1416  717
[04]  16(G17)  f 45 11  0  -2997.2  2046003.8 -0.0  2 0 3335 4806 2334
[05]  18(G19)  f 44  7  0  -4026.7  2046005.1  0.0  2 0 1337 2937 1596
[06]  27(G28)  f 43  7  0  -2886.4  2046003.7 -0.0  2 0 1876 2945 1119
[08]  29(G30)  f 41  7  0  -1876.2  2046002.4 -0.1  2 0 1223 1639  274
[16]  38(B02) 1f 38 27  0  -1101.3  4092002.8  0.9  2 0 1051 1307  652
[17]  41(B05) 1f 42 19  0  -1101.3  4092002.7  0.4  2 0  917 1566  411
[18]  49(B13) 1f 43  7  0  -2138.5  4092005.5 -0.0  2 0 1167 1949  946
[19]  43(B07)  7 33  7  0  -1296.8  4092003.2  0.0  2 0  364  669  621
[20]  65(B29) 1f 44  7  0  -2892.5  4092007.4 -0.0  2 0 2151 2459  839
[32]  79(N-2)  f 37  7  0  -4137.0  1022002.7 -0.1  2 0   231  297  367
[33]  86(N05)  f 41  7  0  -3753.3  1022002.4  0.1  2 0   775 1434  949
[48]  38(B02)  1 10 13  1  -1044.4 20460020.4 -0.1  1 0  335  193  562
[49]  41(B05)  1 23 25  0   -374.3 20460028.4  0.1  1 0  330  455  805
[50]  49(B13)  1  7  7  0  -1630.5 20460033.4 -0.2  1 0  155  360  355
$GNGGA,085324.082,,,,,0,00,,,M,,,,0000*29
$GNRMC,085324.082,A,,,,,,,030419,,*2B
$GPGSA,A,1,,,,,,,,,,,,,,,*1E
$BDGSA,A,1,,,,,,,,,,,,,,,*0F
$GLGSA,A,1,,,,,,,,,,,,,,,*02
$GPGSV,2,1,08,04,00,000,40,07,00,000,41,09,00,000,40,13,00,000,40*7B
$GPGSV,2,2,08,17,00,000,45,19,00,000,44,28,00,000,43,30,00,000,41*75
$BDGSV,2,1,05,02,00,000,38,05,00,000,42,13,00,000,43,07,00,000,33*66
$BDGSV,2,2,05,29,00,000,44*56
$B3CN0,0,0,0,0,0,0,0,0,0,0,0,0,0,0*4C
---00000036--- Acq_st=7 0  2019-4-3 8:53:24 
[00]  03(G04)  f 40  7  0   1465.0  2045998.0 -0.1  2 0  850 1622  601
[01]  06(G07)  f 41  7  0    378.0  2045999.4  0.0  2 0  705 1245  635
[02]  08(G09)  f 41  7  0   1380.6  2045998.1  0.0  2 0  866 1483  624
[03]  12(G13)  f 41 12  0  -1691.7  2046002.2  0.1  2 0  696 1589  839
[04]  16(G17)  f 45 16  0  -3004.3  2046003.8  0.0  2 0 3089 4131 1889
[05]  18(G19)  f 43  7  0  -4036.5  2046005.2 -0.0  2 0 2036 2727  971
[06]  27(G28)  f 43  7  0  -2897.0  2046003.7  0.0  2 0 2233 2907 1285
[08]  29(G30)  f 42  7  0  -1884.6  2046002.3  0.0  2 0  843 1239  760
[16]  38(B02) 1f 37 22  0  -1108.1  4092002.6 -0.6  2 0  754  623  236
[17]  41(B05) 1f 42 26  0  -1108.9  4092002.8  0.4  2 0 1052 1351  431
[18]  49(B13) 1f 42  7  0  -2148.6  4092005.5  0.0  2 0 1248 1822  921
[19]  43(B07)  7 34  7  0  -1298.7  4092003.3 -0.1  2 0  676  953  251
[20]  65(B29) 1f 44  8  0  -2900.0  4092007.5 -0.0  2 0 2446 2763 1338
[32]  79(N-2)  f 36  7  0  -4145.0  1022002.6  0.0  2 0   412  571   69
[33]  86(N05)  f 41  7  0  -3762.5  1022002.4 -0.0  2 0   825 1471  820
[48]  38(B02)  1 18 10  1   -795.5 20460022.2 -0.1  1 0  193  188  455
[50]  49(B13)  1  7  7  0  -1842.9 20460033.6 -0.2  1 0  545  330  524
[52]  65(B29)  1  7  7  0  -2422.0 20460046.4 -0.0  1 0  983  561  711
$GNGGA,085324.950,2944.9152,N,10633.0710,E,1,10,2.0,353.5,M,,,,0000*13
$GNRMC,085324.950,A,2944.9152,N,10633.0710,E,0.93,0.00,030419,,*19
$GPGSA,A,3,07,09,13,17,19,28,30,,,,,,2.5,2.0,1.6*3B
$BDGSA,A,3,02,05,13,,,,,,,,,,2.5,2.0,1.6*24
$GLGSA,A,3,,,,,,,,,,,,,2.5,2.0,1.6*2C
$GPGSV,2,1,08,04,00,000,40,07,00,000,41,09,00,000,41,13,00,000,41*7B
$GPGSV,2,2,08,17,00,000,45,19,00,000,43,28,00,000,43,30,00,000,42*71
$BDGSV,2,1,05,02,00,000,37,05,00,000,42,13,00,000,42,07,00,000,34*6F
$BDGSV,2,2,05,29,00,000,44*56
$B3CN0,0,0,0,0,0,0,0,0,0,0,0,0,0,0*4C
---00000037--- Acq_st=7 0  2019-4-3 8:53:25 
[00]  03(G04)  f 41  7  0   1462.9  2045998.0 -0.1  2 0 1383 1513  634
[01]  06(G07)  f 41  7  0    379.8  2045999.5  0.0  2 0  975 1775 1098
[02]  08(G09)  f 40  7  0   1381.9  2045998.1  0.0  2 0 1044 1496  868
[03]  12(G13)  f 40  7  0  -1691.4  2046002.2  0.0  2 0 1031 1937 1268
[04]  16(G17)  f 45 13  0  -3006.1  2046003.8  0.0  2 0 2921 4530 2106
[05]  18(G19)  f 43  9  0  -4035.0  2046005.2  0.1  2 0 1769 3013 1195
[06]  27(G28)  f 43  7  0  -2896.7  2046003.7  0.0  2 0 1722 2246  978
[08]  29(G30)  f 41  7  0  -1875.4  2046002.4  0.0  2 0 1734 2006  947
[16]  38(B02) 1f 37 22  0  -1108.0  4092002.9  0.3  2 0  983 1100  767
[17]  41(B05) 1f 42 26  0  -1108.5  4092002.7  0.3  2 0  687 1252  881
[18]  49(B13) 1f 42  7  0  -2145.2  4092005.5  0.1  2 0 1293 1736  797
[19]  43(B07)  7 32  7  0  -1297.7  4092003.2 -0.0  5 0  494  607  268
[20]  65(B29) 1f 44  7  0  -2898.4  4092007.5  0.0  2 0 2568 2827 1213
[32]  79(N-2)  f 35  7  0  -4145.0  1022002.6 -0.1  2 0   440  579  312
[33]  86(N05)  f 41  7  0  -3762.8  1022002.5  0.1  2 0   864 1603  749
[48]  38(B02)  7 16 21  0  -1089.6 20460017.7  0.1  2 0  279  471  326
[49]  41(B05)  1 23 26  1  -1207.8 20460017.4  0.1  1 0   80   86  472
[50]  49(B13)  1  7  7  0  -1568.5 20460034.2 -0.0  1 0  280  201  437
[52]  65(B29)  1  7  7  0  -1797.2 20460048.7 -0.1  1 0  996  613  282
BDS IONO corr PRN[02] 46.62 218.86 66.66 291223.88
usrllh latitude:0.519211 longitude:1.859669
ion_pt: a0:0.000000 a1:0.000000 a2:-0.000002 a3:0.000005 b0:135168.000000 b1:-540672.000000 b2:3538944.000000 b3:-3801088.000000 
BDS IONO corr PRN[05] 27.04 244.46 90.63 291223.87
usrllh latitude:0.519211 longitude:1.859669
ion_pt: a0:0.000000 a1:0.000000 a2:-0.000002 a3:0.000005 b0:135168.000000 b1:-540672.000000 b2:3538944.000000 b3:-3801088.000000 
BDS IONO corr PRN[13] 50.09 195.27 61.55 291223.88
usrllh latitude:0.519211 longitude:1.859669
ion_pt: a0:0.000000 a1:0.000000 a2:-0.000002 a3:0.000005 b0:135168.000000 b1:-540672.000000 b2:3538944.000000 b3:-3801088.000000 
Refix G07: 2, 291223.931787, 379
Refix G09: 2, 291223.916412, 1381
Refix G13: 2, 291223.916416, -1688
Refix G17: 2, 291223.922556, -3004
Refix G19: 2, 291223.914923, -4034
Refix G28: 2, 291223.924589, -2896
Refix G30: 2, 291223.931157, -1881
$GNGGA,085326.000,2944.9032,N,10633.0626,E,1,10,1.1,374.4,M,,,,0000*18
$GNRMC,085326.000,A,2944.9032,N,10633.0626,E,0.42,0.00,030419,,*18
$GPGSA,A,3,07,09,13,17,19,28,30,,,,,,1.3,1.1,0.7*3C
$BDGSA,A,3,02,05,13,,,,,,,,,,1.3,1.1,0.7*23
$GLGSA,A,3,,,,,,,,,,,,,1.3,1.1,0.7*2B
$GPGSV,2,1,08,04,00,000,41,07,00,000,41,09,00,000,40,13,00,000,40*7A
$GPGSV,2,2,08,17,00,000,45,19,00,000,43,28,00,000,43,30,00,000,41*72
$BDGSV,2,1,05,02,00,000,37,05,00,000,42,13,00,000,42,07,00,000,32*69
$BDGSV,2,2,05,29,00,000,44*56
$B3CN0,0,16,0,0,0,0,0,0,0,0,0,0,0,0*7B
---00000038--- Acq_st=3 0  2019-4-3 8:53:26 
[00]  03(G04)  f 41  7  0   1483.7  2045998.0  0.1  2 0  827 1684 1027
[01]  06(G07)  f 40  7  0    401.2  2045999.4 -0.1  2 0  960 1407  775
[02]  08(G09)  f 40  7  0   1399.6  2045998.1  0.0  2 0 1389 1751  608
[03]  12(G13)  f 40 10  0  -1675.4  2046002.1  0.0  2 0 1317 1597  604
[04]  16(G17)  f 45 13  0  -2985.9  2046003.8  0.0  2 0 2909 4781 2655
[05]  18(G19)  f 44  7  0  -4017.8  2046005.2 -0.0  2 0 2115 3078 1815
[06]  27(G28)  f 43  7  0  -2883.9  2046003.7 -0.0  2 0 1068 2122  982
