i=1
Rf R0 Config = ff777073
Rf R1 Config = 00dffbfe
Rf R52 Config = 00dfef00
i=2
Rf R0 Config = 807772f3
Rf R1 Config = 00df5bf6
Rf R52 Config = 00db0e50
i=3
Rf R0 Config = 807772f3
Rf R1 Config = 00df5bea
Rf R52 Config = 00de4e50
i=4
Rf R0 Config = 80777273
Rf R1 Config = 00debbfe
Rf R52 Config = 00deae60
SD initialized success
Create debug.log Failed! 3
Start Channel by LuYu
$GNGGA,000000.000,,,,,0,00,,,M,,,,0000*2B
$GNRMC,000000.000,A,,,,,,,060180,,*29
$GPGSA,A,1,,,,,,,,,,,,,,,*1E
$BDGSA,A,1,,,,,,,,,,,,,,,*0F
$GLGSA,A,1,,,,,,,,,,,,,,,*02
$B3CN0,0,0,0,0,0,0,0,0,0,0,0,0,0,0*4C
---00000001--- Acq_st=3 0  2019-4-9 6:35:43 
[00]  03(G04)  1 23  7  0   -530.8  2046001.6  0.2  1 0 1606 3083 1915
[01]  06(G07)  1  7  7  0  -3000.0  2046003.7 -0.0  1 0  479  387  842
[02]  08(G09)  1  7  7  0    500.0  2046001.6 -0.0  1 0 1455 3132 2457
$GNGGA,000000.000,,,,,0,00,,,M,,,,0000*2B
$GNRMC,000000.000,A,,,,,,,060180,,*29
$GPGSA,A,1,,,,,,,,,,,,,,,*1E
$BDGSA,A,1,,,,,,,,,,,,,,,*0F
$GLGSA,A,1,,,,,,,,,,,,,,,*02
$B3CN0,0,0,0,0,0,0,0,0,0,0,0,0,0,0*4C
---00000002--- Acq_st=3 0  2019-4-9 6:35:44 
[00]  03(G04)  7 14  7  0   -522.1  2046000.6  0.9 10 0 1741 2772 1065
[01]  06(G07)  1  7  8  0  -2937.7  2046003.7 -0.1  1 0  177  143   97
[02]  08(G09)  1 31  7  0    571.9  2045998.9  0.8  1 0 2248 2585 1041
[03]  22(G23)  1  7  7  0   1750.0  2046000.3 -0.0  1 0  431  984 1884
$GNGGA,000000.000,,,,,0,00,,,M,,,,0000*2B
$GNRMC,000000.000,A,,,,,,,060180,,*29
$GPGSA,A,1,,,,,,,,,,,,,,,*1E
$BDGSA,A,1,,,,,,,,,,,,,,,*0F
$GLGSA,A,1,,,,,,,,,,,,,,,*02
$B3CN0,0,0,0,0,0,0,0,0,0,0,0,0,0,0*4C
---00000003--- Acq_st=3 0  2019-4-9 6:35:45 
[00]  03(G04)  7 45  7  0   -535.3  2046000.6 -0.1  2 0 1327 2718 1233
[01]  06(G07)  1  7  7  0  -3262.5  2046004.0  0.2  1 0  147  120  300
[02]  08(G09)  7 32  7  0    559.3  2045999.2  0.4  5 0 1811 3129 1526
[03]  22(G23)  1 30  7  0   1820.0  2045997.5  0.6  1 0 1266 1719  974
[04]  27(G28)  1  7  7  0  -2504.9  2046002.6  0.1  1 0  309  295  308
[05]  29(G30)  1 21  7  0  -4302.1  2046007.5  0.1  1 0  578 2611 2131
[16]  38(B02)  1 17 31  1  -1000.0  4092001.8  0.1  1 0  299  294  523
$GNGGA,000000.000,,,,,0,00,,,M,,,,0000*2B
$GNRMC,000000.000,A,,,,,,,060180,,*29
$GPGSA,A,1,,,,,,,,,,,,,,,*1E
$BDGSA,A,1,,,,,,,,,,,,,,,*0F
$GLGSA,A,1,,,,,,,,,,,,,,,*02
$GPGSV,1,1,02,04,00,000,45,09,00,000,32*76
$B3CN0,0,0,0,0,0,0,0,0,0,0,0,0,0,0*4C
---00000004--- Acq_st=3 0  2019-4-9 6:35:46 
[00]  03(G04)  7 44  7  0   -540.7  2046000.6 -0.0  2 0 2053 3297 1617
[01]  06(G07)  1  7  7  0  -3832.6  2046003.6 -0.0  1 0  679  305  146
[02]  08(G09)  7 44  7  0    559.6  2045999.2 -0.1  2 0 2508 3106 1227
[03]  22(G23)  7 30  7  0   1818.6  2045997.5  0.2  5 0 1458 1639  694
[04]  27(G28)  1  7  7  0  -2461.7  2046003.5  0.0  1 0  240  253  328
[05]  29(G30)  7 14  7  0  -4299.8  2046005.5  0.5 10 0 2127 2437 1044
[16]  38(B02)  1 17 10  0   -334.0  4092003.2 -0.1  1 0  409  272  183
[17]  41(B05)  1 20 29  1   -888.9  4092002.0 -0.1  1 0   71   88  149
[18]  45(B09)  1  7  7  0   1000.0  4091999.3  0.0  1 0  509  211  721
[19]  46(B10)  1  7  7  0  -1500.0  4092003.7 -0.0  1 0  382  836  935
$GNGGA,000000.000,,,,,0,00,,,M,,,,0000*2B
$GNRMC,000000.000,A,,,,,,,060180,,*29
$GPGSA,A,1,,,,,,,,,,,,,,,*1E
$BDGSA,A,1,,,,,,,,,,,,,,,*0F
$GLGSA,A,1,,,,,,,,,,,,,,,*02
$GPGSV,1,1,03,04,00,000,44,09,00,000,44,23,00,000,30*45
$B3CN0,0,0,0,0,0,0,0,0,0,0,0,0,0,0*4C
---00000005--- Acq_st=3 0  2019-4-9 6:35:47 
[00]  03(G04)  7 44  9  0   -537.2  2046000.6 -0.0  2 0 2373 3182 1215
[01]  06(G07)  1  7 10  0  -3863.5  2046004.0  0.0  1 0  220  236  411
[02]  08(G09)  7 44  7  0    558.3  2045999.2 -0.0  2 0 2146 3217 1204
[03]  22(G23)  7 42 12  0   1816.6  2045997.5  0.0  2 0 1587 2124  763
[04]  27(G28)  1  7  7  0  -2661.4  2046003.0 -0.1  1 0  243  117  141
[05]  29(G30)  7 43  7  0  -4300.8  2046005.5  0.0  2 0 1059 1692  751
[16]  38(B02)  1 14 10  1   -101.7  4092003.4 -0.1  1 0  159   93  348
[17]  41(B05)  1 18 29  1  -1052.1  4092002.6 -0.1  1 0  101  208   19
[18]  45(B09)  1  7  7  0   1181.9  4091999.7  0.1  1 0  414  927  686
[19]  46(B10)  1  7  7  0  -1312.0  4092004.0 -0.1  1 0  550  594  199
[20]  52(B16)  1  7  7  0    500.0  4091998.5  0.0  1 0  700  917  285
$GNGGA,000000.000,,,,,0,00,,,M,,,,0000*2B
$GNRMC,000000.000,A,,,,,,,060180,,*29
$GPGSA,A,1,,,,,,,,,,,,,,,*1E
$BDGSA,A,1,,,,,,,,,,,,,,,*0F
$GLGSA,A,1,,,,,,,,,,,,,,,*02
$GPGSV,1,1,04,04,00,000,44,09,00,000,44,23,00,000,42,30,00,000,43*73
$B3CN0,0,0,0,0,0,0,0,0,0,0,0,0,0,0*4C
---00000006--- Acq_st=3 0  2019-4-9 6:35:48 
[00]  03(G04)  7 44  8  0   -535.7  2046000.6 -0.1  2 0 1777 2744 1407
[02]  08(G09)  7 44  7  0    561.4  2045999.2  0.0  2 0 2248 3579 1640
[03]  22(G23)  7 42  7  0   1825.6  2045997.6 -0.0  2 0 1183 1829 1176
[04]  27(G28)  1  7  7  0  -2764.8  2046003.2 -0.1  1 0  417  378  306
[05]  29(G30)  7 42  7  0  -4295.0  2046005.5 -0.0  2 0 1364 2147  858
[16]  38(B02)  1 10 10  0   -378.2  4092004.6  0.0  1 0  393  197  479
[17]  41(B05)  1 10 10  1   -785.5  4092003.9 -0.1  1 0  379  401 1314
[18]  45(B09)  1  7  7  0   1190.0  4091997.4  0.5  1 0  889 1165  426
[19]  46(B10)  7 26  7  0  -1313.0  4092003.4  0.3 10 0  391  781  682
[20]  52(B16)  1  7  7  0    681.7  4091997.8  0.0  1 0  469  644   74
[21]  58(B22)  1  7  7  0    750.0  4091997.7  0.0  1 0 1392 1277  194
$GNGGA,000000.000,,,,,0,00,,,M,,,,0000*2B
$GNRMC,000000.000,A,,,,,,,060180,,*29
$GPGSA,A,1,,,,,,,,,,,,,,,*1E
$BDGSA,A,1,,,,,,,,,,,,,,,*0F
$GLGSA,A,1,,,,,,,,,,,,,,,*02
$GPGSV,1,1,04,04,00,000,44,09,00,000,44,23,00,000,42,30,00,000,42*72
$BDGSV,1,1,01,10,00,000,26*5C
$B3CN0,0,0,0,0,0,0,0,0,0,0,0,0,0,0*4C
---00000007--- Acq_st=3 0  2019-4-9 6:35:49 
[00]  03(G04)  7 44  7  0   -527.2  2046000.6  0.0  2 0 1965 3187 1591
[02]  08(G09)  7 45  7  0    569.2  2045999.2 -0.0  2 0 1913 2596 1004
[03]  22(G23)  7 42  8  0   1829.5  2045997.6 -0.0  2 0 1236 2060 1205
[05]  29(G30)  7 43  7  0  -4294.2  2046005.5 -0.0  2 0 1901 2528 1056
[16]  38(B02)  1 10 10  0   -586.0  4092004.6 -0.1  1 0  715  848  744
[17]  41(B05)  1 10 10  1   -590.1  4092005.4  0.0  1 0  461  518  445
[18]  45(B09)  1  7  7  0   1203.5  4091997.8  0.6  1 0  665  838  297
[19]  46(B10)  7 37  7  0  -1312.3  4092003.4  0.2  2 0  833  836  593
[20]  52(B16)  7 27  7  0    690.9  4091998.1  0.5 10 0  697  602  660
[21]  58(B22)  1  7  7  0    886.6  4091997.2  0.3  1 0 1113 1678  742
[22]  65(B29)  1  7  7  0  -3000.0  4092006.4 -0.0  1 0  833 1710  994
$GNGGA,063550.255,,,,,0,00,,,M,,,,0000*2C
$GNRMC,063550.255,A,,,,,,,080180,,*20
$GPGSA,A,1,,,,,,,,,,,,,,,*1E
$BDGSA,A,1,,,,,,,,,,,,,,,*0F
$GLGSA,A,1,,,,,,,,,,,,,,,*02
$GPGSV,1,1,04,04,00,000,44,09,00,000,45,23,00,000,42,30,00,000,43*72
$BDGSV,1,1,02,10,00,000,37,16,00,000,27*6D
$B3CN0,0,0,0,0,0,0,0,0,0,0,0,0,0,0*4C
---00000008--- Acq_st=3 0  2019-4-9 6:35:50 
[00]  03(G04)  f 44  7  0   -520.0  2046000.6  0.0  2 0 2369 3322 1277
[02]  08(G09)  f 44  7  0    575.1  2045999.2  0.0  2 0 2529 3596 2144
[03]  22(G23)  f 42  7  0   1840.0  2045997.5 -0.0  2 0 1316 1897  722
[05]  29(G30)  f 43  7  0  -4284.8  2046005.5  0.1  2 0 2012 2697  874
[18]  45(B09)  1  7  7  0   1197.7  4091997.9  0.5  1 0 1036 1272  562
[19]  46(B10)  7 37  7  0  -1303.7  4092003.3 -0.4  2 0  566  559  578
[20]  52(B16)  7 37  7  0    697.5  4091998.1  0.2  2 0  940 1237  382
[21]  58(B22)  7 30  7  0    892.8  4091997.6  0.2  5 0 1313 1765  716
[22]  65(B29)  1  7  7  0  -2858.2  4092007.3  0.2  1 0 1079 2343 1640
[32]  75(N-6)  1 18  7  0   1250.0  1022001.8  0.0  1 0   534  361  828
[33]  76(N-5)  1  7  7  0   2250.0  1022000.3  0.0  1 0   215  540  500
[34]  77(N-4)  1  7  7  0  -5250.0  1022003.6  0.1  1 0   311  350  450
$GNGGA,063551.255,,,,,0,00,,,M,,,,0000*2D
$GNRMC,063551.255,A,,,,,,,080180,,*21
$GPGSA,A,1,,,,,,,,,,,,,,,*1E
$BDGSA,A,1,,,,,,,,,,,,,,,*0F
$GLGSA,A,1,,,,,,,,,,,,,,,*02
$GPGSV,1,1,04,04,00,000,44,09,00,000,44,23,00,000,42,30,00,000,43*73
$BDGSV,1,1,03,10,00,000,37,16,00,000,38,22,00,000,30*51
$B3CN0,0,0,0,0,0,0,0,0,0,0,0,0,0,0*4C
---00000009--- Acq_st=7 0  2019-4-9 6:35:51 
[00]  03(G04)  f 44  7  0   -522.2  2046000.6 -0.0  2 0 1452 2815 1316
[02]  08(G09)  f 44  7  0    572.4  2045999.2 -0.0  2 0 2215 3272 1198
[03]  22(G23)  f 42  7  0   1835.7  2045997.6 -0.0  2 0 1150 1616  938
[05]  29(G30)  f 44  7  0  -4287.0  2046005.5  0.0  2 0 2150 3212 1811
[19]  46(B10)  7 36  7  0  -1300.8  4092003.3  0.0  2 0  651  625  401
[20]  52(B16)  7 37  7  0    694.8  4091998.1  0.3  2 0  262  741  412
[21]  58(B22)  7 42  7  0    893.7  4091997.6  0.0  2 0  688 1625  666
[22]  65(B29)  7 29  7  0  -2855.5  4092007.5  0.1 10 0 1189 2223  983
[32]  75(N-6)  1 30 18  0   1236.9  1021999.5  0.7  1 0   587  745  199
[33]  76(N-5)  1 33  7  0   2113.2  1021999.1  0.7  1 0   219  580  383
[34]  77(N-4)  1 22  7  0  -5234.8  1022005.5  0.0  1 0   383  470  602
[35]  80(N-1)  1 22  7  0   -972.8  1022001.0  0.2  1 0   592  879  884
[36]  81(N00)  1 25 20  0  -4051.1  1022005.0  0.1  1 0   355  924  704
$GNGGA,063552.255,,,,,0,00,,,M,,,,0000*2E
$GNRMC,063552.255,A,,,,,,,080180,,*22
$GPGSA,A,1,,,,,,,,,,,,,,,*1E
$BDGSA,A,1,,,,,,,,,,,,,,,*0F
$GLGSA,A,1,,,,,,,,,,,,,,,*02
$GPGSV,1,1,04,04,00,000,44,09,00,000,44,23,00,000,42,30,00,000,44*74
$BDGSV,1,1,04,10,00,000,36,16,00,000,37,22,00,000,42,29,00,000,28*6C
$B3CN0,0,0,0,0,0,0,0,0,0,0,0,0,0,0*4C
---00000010--- Acq_st=7 0  2019-4-9 6:35:52 
[00]  03(G04)  f 44  7  0   -525.1  2046000.6  0.0  2 0 1670 2538  742
[02]  08(G09)  f 44  7  0    569.6  2045999.2  0.1  2 0 1659 2913 1323
[03]  22(G23)  f 42  7  0   1829.1  2045997.6 -0.1  2 0 1264 1742  945
[05]  29(G30)  f 44  7  0  -4290.2  2046005.5  0.0  2 0 2169 3125 1628
[19]  46(B10) 1f 36  7  0  -1310.3  4092003.3  0.1  2 0  492  971  795
[20]  52(B16) 1f 36  7  0    696.1  4091998.0 -0.4  2 0  417  503  532
[21]  58(B22) 1f 42  7  0    888.2  4091997.6  0.1  2 0  947 1201  529
[22]  65(B29)  7 43  7  0  -2858.7  4092007.5  0.0  2 0 1144 1994  884
[32]  75(N-6)  1 32 14  0   1257.6  1021998.6  0.8  1 0   604  819  545
[33]  76(N-5)  1 32 14  0   2102.3  1021997.9  0.3  1 0   305  516  263
[34]  77(N-4)  1 27  7  0  -5238.6  1022003.5  0.3  1 0   746  728  292
[35]  80(N-1)  1 27 14  0   -975.8  1022000.5  0.4  1 0   676 1033  692
[36]  81(N00)  1 28 18  0  -4056.5  1022002.5  0.9  1 0   482  693  476
$GNGGA,063553.255,,,,,0,00,,,M,,,,0000*2F
$GNRMC,063553.255,A,,,,,,,080180,,*23
$GPGSA,A,1,,,,,,,,,,,,,,,*1E
$BDGSA,A,1,,,,,,,,,,,,,,,*0F
$GLGSA,A,1,,,,,,,,,,,,,,,*02
$GPGSV,1,1,04,04,00,000,44,09,00,000,44,23,00,000,42,30,00,000,44*74
$BDGSV,1,1,04,10,00,000,36,16,00,000,37,22,00,000,42,29,00,000,44*66
$B3CN0,0,0,0,0,0,0,0,0,0,0,0,0,0,0*4C
---00000011--- Acq_st=3 0  2019-4-9 6:35:53 
[00]  03(G04)  f 44  7  0   -530.5  2046000.6  0.1  2 0 1432 2595 1275
[01]  06(G07)  1  7  7  0  -3250.0  2046006.0 -0.1  1 0  224  723 1107
[02]  08(G09)  f 45  7  0    565.5  2045999.2 -0.0  2 0 1678 2985 1158
[03]  22(G23)  f 41  7  0   1827.0  2045997.6 -0.0  2 0 1045 1800 1025
[05]  29(G30)  f 44  7  0  -4296.3  2046005.5  0.0  2 0 2338 3232 1321
[19]  46(B10) 1f 36  7  0  -1313.2  4092003.3  0.1  2 0  565  764  269
[20]  52(B16) 1f 37  7  0    687.8  4091998.1  0.1  2 0  708  348  103
[21]  58(B22) 1f 41  7  0    882.1  4091997.6  0.0  2 0  731 1349  839
[22]  65(B29)  7 43  7  0  -2867.7  4092007.4 -0.0  2 0 1145 1815  880
[32]  75(N-6)  7 38 10  0   1248.4  1021999.1  0.0  2 0   237  918  355
[33]  76(N-5)  7 36  7  0   2089.5  1021998.5  0.0  2 0   302  550  519
[34]  77(N-4)  7 31  7  0  -5192.2  1022003.1  0.0  5 0   454  680  427
[35]  80(N-1)  1 21 14  0   -980.8  1022000.7  0.1  1 0   732  937  302
[36]  81(N00)  7 29  8  0  -4061.2  1022002.5  0.9 10 0   633  951  496
[51]  46(B10)  1  7  7  0  -1244.5 20460019.0 -0.1  1 0  356  653  278
[52]  52(B16)  1  7  7  0   1081.0 20459990.4  0.1  1 0  275  441  565
[53]  58(B22)  1  8  7  0    993.1 20459986.0  0.0  1 0  224  638  328
$GNGGA,063554.255,,,,,0,00,,,M,,,,0000*28
$GNRMC,063554.255,A,,,,,,,080180,,*24
$GPGSA,A,1,,,,,,,,,,,,,,,*1E
$BDGSA,A,1,,,,,,,,,,,,,,,*0F
$GLGSA,A,1,,,,,,,,,,,,,,,*02
$GPGSV,1,1,04,04,00,000,44,09,00,000,45,23,00,000,41,30,00,000,44*76
$BDGSV,1,1,04,10,00,000,36,16,00,000,37,22,00,000,41,29,00,000,43*62
$B3CN0,0,0,0,0,0,0,0,0,0,0,0,0,0,0*4C
---00000012--- Acq_st=3 0  2019-4-9 6:35:54 
[00]  03(G04)  f 45  7  0   -529.8  2046000.6 -0.0  2 0 1590 2710 1129
[01]  06(G07)  1 28  7  0  -3364.2  2046004.8  0.4  1 0  772  746  502
[02]  08(G09)  f 44  7  0    567.1  2045999.2  0.0  2 0 1215 2355 1396
[03]  22(G23)  f 42 12  0   1827.6  2045997.6  0.0  2 0 1513 2251  850
[05]  29(G30)  f 45  7  0  -4293.2  2046005.5  0.0  2 0 1957 2974 1346
[19]  46(B10) 1f 36  7  0  -1306.0  4092003.4 -0.0  2 0  683  489  439
[20]  52(B16) 1f 37  7  0    685.4  4091998.0 -0.2  2 0  734 1138  410
[21]  58(B22) 1f 42  7  0    882.5  4091997.6 -0.1  2 0 1257 1699  837
[22]  65(B29)  7 43  7  0  -2860.8  4092007.4 -0.0  2 0 1324 2297 1085
[32]  75(N-6)  7 37  7  0   1252.7  1021999.2  0.0  2 0   143  383  117
[33]  76(N-5)  7 37  7  0   2095.3  1021998.7  0.1  2 0   650  670  142
[34]  77(N-4)  7 30  7  0  -5188.6  1022003.3 -0.1  5 0   386  796  531
[35]  80(N-1)  1 28 15  0   -978.2  1022000.7  0.5  1 0   470 1007  204
[36]  81(N00)  7 38 16  0  -4058.0  1022002.6 -0.4  2 0   465  864  428
[51]  46(B10)  1  7  7  0  -1441.6 20460022.2 -0.1  1 0  126  379  760
[52]  52(B16)  1  7  7  0    764.1 20459988.4 -0.1  1 0 1307  737  325
[53]  58(B22)  1  7  7  0    258.1 20459984.4  0.1  1 0  267  197  538
---00000013--- Acq_st=3 0  2019-4-9 6:35:55 
[00]  03(G04)  f 44  7  0   -532.4  2046000.6  0.0  2 0 1936 2541 1113
[01]  06(G07)  7 32  7  0  -3362.3  2046004.2  0.1  5 0  926 1141  338
[02]  08(G09)  f 44  7  0    561.6  2045999.2 -0.0  2 0 1441 2471 1128
[03]  22(G23)  f 42  7  0   1821.2  2045997.5  0.0  2 0 1318 1717  486
[04]  27(G28)  1 21 13  0  -2844.2  2046005.2  0.1  1 0  565  886  655
[05]  29(G30)  f 45  7  0  -4302.7  2046005.5 -0.0  2 0 2214 3147 1522
[16]  38(B02)  1 10 10  1  -1500.0  4092002.6 -0.1  1 0  370 1099  777
[19]  46(B10) 1f 36  7  0  -1313.6  4092003.3 -0.1  2 0  736  750  392
[20]  52(B16) 1f 37  7  0    679.6  4091998.2  0.1  2 0  965 1125  386
[21]  58(B22) 1f 42  7  0    879.7  4091997.6 -0.0  2 0 1380 2050  828
[22]  65(B29)  7 42  7  0  -2867.1  4092007.4  0.0  2 0 1615 2215 1051
[32]  75(N-6)  7 38  7  0   1247.4  1021999.2  0.5  2 0   489  880  570
[33]  76(N-5)  7 38  7  0   2085.6  1021998.6  0.0  2 0   652  803  294
[34]  77(N-4)  7 29  7  0  -5198.1  1022003.1 -0.1  5 0   407  407  122
[35]  80(N-1)  7 31 11  0   -985.2  1022000.7  0.6  5 0   240 1060  819
[36]  81(N00)  7 39 18  0  -4069.2  1022002.5 -0.2  2 0   372  622  539
[51]  46(B10)  1  7  7  0  -1647.4 20460020.7 -0.1  1 0  137  349  692
[52]  52(B16)  1  8  7  0   1366.2 20459986.7 -0.1  1 0   64  328  146
[53]  58(B22)  1  7  7  0     59.3 20459987.7  0.1  1 0  405  631  733
$GNGGA,063555.255,,,,,0,00,,,M,,,,0000*29
$GNRMC,063555.255,A,,,,,,,080180,,*25
$GPGSA,A,1,,,,,,,,,,,,,,,*1E
$BDGSA,A,1,,,,,,,,,,,,,,,*0F
$GLGSA,A,1,,,,,,,,,,,,,,,*02
$GPGSV,2,1,05,04,00,000,44,07,00,000,32,09,00,000,44,23,00,000,42*73
$GPGSV,2,2,05,30,00,000,45*4E
$BDGSV,1,1,04,10,00,000,36,16,00,000,37,22,00,000,42,29,00,000,42*60
$B3CN0,0,0,0,0,0,0,0,0,0,0,0,0,0,0*4C
---00000014--- Acq_st=3 0  2019-4-9 6:35:56 
[00]  03(G04)  f 44 11  0   -525.2  2046000.6 -0.1  2 0 2120 2858 1229
[01]  06(G07)  7 35  7  0  -3359.2  2046004.2  0.4  2 0 1340 1235  265
[02]  08(G09)  f 44  7  0    571.9  2045999.2  0.0  2 0 1480 2155  752
[03]  22(G23)  f 43  7  0   1832.1  2045997.5  0.1  2 0 1335 2060 1543
[04]  27(G28)  7 23  7  0  -2835.9  2046003.6  0.8 10 0  609 1518  626
[05]  29(G30)  f 44  7  0  -4293.2  2046005.5 -0.0  2 0 1854 3031 1581
[16]  38(B02)  1 10 21  1  -1678.6  4092003.5  0.1  1 0  497  448  284
[17]  41(B05)  1 10 22  0   -768.2  4092001.7 -0.0  1 0  205  437  429
[18]  45(B09)  1  7  7  0    750.0  4091999.0 -0.0  1 0  330 1090  459
[19]  46(B10) 1f 36  7  0  -1309.8  4092003.2 -0.1  2 0  672 1086  318
[20]  52(B16) 1f 37  9  0    689.6  4091998.0 -0.0  2 0  916 1010  384
[21]  58(B22) 1f 42  7  0    892.0  4091997.5  0.1  2 0 1337 1769  928
[22]  65(B29)  7 43  7  0  -2858.2  4092007.4 -0.0  2 0 1207 1786  712
[32]  75(N-6)  f 28  7  0   1255.5  1021999.2  0.2  5 0   335  724  363
[33]  76(N-5)  f 28  7  0   2097.4  1021998.6 -0.0  5 0   284  665  218
[34]  77(N-4)  f 26  7  0  -5186.0  1022003.2  0.1 10 0   523  535  223
[35]  80(N-1)  7 40  8  0   -974.9  1022000.7 -0.2  2 0   712 1115  501
[36]  81(N00)  f 28 14  0  -4057.1  1022002.5  0.6  5 0   593  990  209
[51]  46(B10)  1  7  7  0  -1107.8 20460021.0  0.1  1 0  379  482  226
[52]  52(B16)  1  7  7  0   1380.8 20459988.1 -0.2  1 0  433  290  483
[53]  58(B22)  1  7 13  0    719.8 20459985.5  0.0  1 0  383  357    8
$GNGGA,063556.255,,,,,0,00,,,M,,,,0000*2A
$GNRMC,063556.255,A,,,,,,,080180,,*26
$GPGSA,A,1,,,,,,,,,,,,,,,*1E
$BDGSA,A,1,,,,,,,,,,,,,,,*0F
$GLGSA,A,1,,,,,,,,,,,,,,,*02
$GPGSV,2,1,06,04,00,000,44,07,00,000,35,09,00,000,44,23,00,000,43*76
$GPGSV,2,2,06,28,00,000,23,30,00,000,44*77
$BDGSV,1,1,04,10,00,000,36,16,00,000,37,22,00,000,42,29,00,000,43*61
$B3CN0,0,0,0,0,0,0,0,0,0,0,0,0,0,0*4C
---00000015--- Acq_st=3 0  2019-4-9 6:35:57 
[00]  03(G04)  f 44  7  0   -526.3  2046000.6 -0.1  2 0 2288 3027 1748
[01]  06(G07)  7 37  7  0  -3358.0  2046004.2  0.2  2 0 1014 1292  935
[02]  08(G09)  f 44  7  0    570.9  2045999.2 -0.1  2 0 1880 3017 1496
[03]  22(G23)  f 43  7  0   1831.5  2045997.6  0.0  2 0 1896 2702 1493
[04]  27(G28)  7 38  8  0  -2835.7  2046003.6 -0.2  2 0  663 1164  737
[05]  29(G30)  f 44  7  0  -4293.0  2046005.5  0.1  2 0 1508 2324  974
[16]  38(B02)  1 14 19  0  -1742.3  4092004.4  0.1  1 0  398  348  425
[17]  41(B05)  7 10 19  1   -984.9  4092002.7 -0.0  2 0  291  650  486
[18]  45(B09)  1  7  7  0    689.7  4091997.9  0.1  1 0 1017 1485  824
[19]  46(B10) 1f 36  7  0  -1305.4  4092003.3 -0.0  2 0 1032  744  664
[20]  52(B16) 1f 37  7  0    689.4  4091998.0 -0.1  2 0 1094 1091  443
[21]  58(B22) 1f 42  7  0    886.5  4091997.5  0.0  2 0 1283 1343  701
[22]  65(B29)  7 43  7  0  -2861.3  4092007.4  0.0  2 0 1658 1993  757
[32]  75(N-6)  f 38  7  0   1254.6  1021999.2 -0.0  2 0   499 1153  551
[33]  76(N-5)  f 38  7  0   2096.3  1021998.6  0.0  2 0   128  514  264
[34]  77(N-4)  f 32  7  0  -5184.3  1022003.2 -0.0  5 0   218  453  330
[35]  80(N-1)  7 41 13  0   -974.2  1022000.6 -0.3  2 0   725 1426  753
[36]  81(N00)  f 39 18  0  -4058.7  1022002.6  0.7  2 0   419  957  416
$GNGGA,063557.255,,,,,0,00,,,M,,,,0000*2B
$GNRMC,063557.255,A,,,,,,,080180,,*27
$GPGSA,A,1,,,,,,,,,,,,,,,*1E
$BDGSA,A,1,,,,,,,,,,,,,,,*0F
$GLGSA,A,1,,,,,,,,,,,,,,,*02
$GPGSV,2,1,06,04,00,000,44,07,00,000,37,09,00,000,44,23,00,000,43*74
$GPGSV,2,2,06,28,00,000,38,30,00,000,44*7D
$BDGSV,1,1,04,10,00,000,36,16,00,000,37,22,00,000,42,29,00,000,43*61
$B3CN0,0,0,0,0,0,0,0,0,0,0,0,0,0,0*4C
---00000016--- Acq_st=3 0  2019-4-9 6:35:58 
[00]  03(G04)  f 44  7  0   -522.1  2046000.6 -0.0  2 0 1452 2456 1066
[01]  06(G07)  7 38  7  0  -3356.3  2046004.2 -0.5  2 0 1004 1031  304
[02]  08(G09)  f 45  7  0    573.2  2045999.2  0.0  2 0 2043 3199 1466
[03]  22(G23)  f 44  7  0   1833.1  2045997.6 -0.0  2 0 1488 2450 1260
[04]  27(G28)  7 38  9  0  -2830.0  2046003.6 -0.2  2 0  962  928  622
[05]  29(G30)  f 43  7  0  -4296.0  2046005.6  0.0  2 0 1043 1926  964
[16]  38(B02)  1 10 10  0  -1581.0  4092005.9  0.0  1 0  145  289  489
[17]  41(B05)  7 10 29  1  -1029.9  4092002.6 -0.0  2 0   46  123  535
[18]  45(B09)  7 31  7  0    696.6  4091998.1  0.2  5 0  744  944  554
[19]  46(B10) 1f 36  7  0  -1305.4  4092003.2 -0.0  2 0  756 1063  661
[20]  52(B16) 1f 36  7  0    690.2  4091998.1  0.1  2 0 1004 1439  775
[21]  58(B22) 1f 42  7  0    890.2  4091997.5  0.0  2 0 1504 1858  601
[22]  65(B29) 1f 43  7  0  -2857.4  4092007.4  0.0  2 0 1401 2166  988
[32]  75(N-6)  f 38  7  0   1257.2  1021999.1  0.1  2 0   183  620  519
[33]  76(N-5)  f 37  7  0   2097.2  1021998.6 -0.0  2 0   756 1069  348
[34]  77(N-4)  f 33  7  0  -5183.5  1022003.3  0.1  5 0   345  387  306
[35]  80(N-1)  f 29  7  0   -972.4  1022000.6 -0.7  5 0   493 1166  780
[36]  81(N00)  f 39 13  0  -4058.0  1022002.6 -0.0  2 0   822 1075  509
[51]  46(B10)  1  7  7  0  -1116.9 20460021.7  0.2  1 0  334  333  333
[52]  52(B16)  1  7  7  0     74.9 20459990.3 -0.1  1 0  179   95  165
[53]  58(B22)  1  7  7  0    782.2 20459985.4  0.1  1 0  260  417  604
$GNGGA,063558.255,,,,,0,00,,,M,,,,0000*24
$GNRMC,063558.255,A,,,,,,,080180,,*28
$GPGSA,A,1,,,,,,,,,,,,,,,*1E
$BDGSA,A,1,,,,,,,,,,,,,,,*0F
$GLGSA,A,1,,,,,,,,,,,,,,,*02
$GPGSV,2,1,06,04,00,000,44,07,00,000,38,09,00,000,45,23,00,000,44*7D
$GPGSV,2,2,06,28,00,000,38,30,00,000,43*7A
$BDGSV,2,1,05,09,00,000,31,10,00,000,36,16,00,000,36,22,00,000,42*65
$BDGSV,2,2,05,29,00,000,43*51
$B3CN0,0,0,0,0,0,0,0,0,0,0,0,0,0,0*4C
---00000017--- Acq_st=2 0  2019-4-9 6:35:59 
[00]  03(G04)  f 44  9  0   -527.1  2046000.6  0.1  2 0 1504 2578 1427
[01]  06(G07)  7 39  7  0  -3367.8  2046004.3  0.0  2 0  947 1423  971
[02]  08(G09)  f 45  7  0    566.8  2045999.2  0.0  2 0 2245 3190 1538
[03]  22(G23)  f 44  8  0   1824.9  2045997.6  0.0  2 0 1392 2062  626
[04]  27(G28)  7 38  7  0  -2840.6  2046003.6  0.1  2 0  942 1415  928
[05]  29(G30)  f 42 10  0  -4297.8  2046005.6 -0.0  2 0 1388 1823  616
[16]  38(B02)  1 22 17  0  -1766.2  4092005.9  0.2  1 0  330  300  215
[17]  41(B05)  7 14 18  0  -1233.9  4092003.6  0.0  2 0  276   74  460
[18]  45(B09)  7 40  7  0    690.6  4091998.1  0.0  2 0  558  987  443
[19]  46(B10) 1f 36  7  0  -1309.9  4092003.4 -0.0  2 0  313  688  333
[20]  52(B16) 1f 36  7  0    681.9  4091998.1 -0.1  2 0  783  865  486
[21]  58(B22) 1f 42  7  0    881.3  4091997.5  0.0  2 0 1611 2271 1634
[22]  65(B29) 1f 42  7  0  -2862.8  4092007.4 -0.1  2 0 1354 2072  885
[32]  75(N-6)  f 37  7  0   1247.0  1021999.2  0.1  2 0   324  902  432
[33]  76(N-5)  f 38  7  0   2088.1  1021998.7  0.1  2 0   417  668  213
[34]  77(N-4)  f 34  7  0  -5191.6  1022003.2  0.1  5 0   404  841  555
[35]  80(N-1)  f 41  7  0   -979.8  1022000.6  0.3  2 0   345 1058  382
[36]  81(N00)  f 39 12  0  -4064.9  1022002.5 -0.8  2 0   604  999  549
[51]  46(B10)  1  7  7  0  -1501.8 20460022.6 -0.1  1 0  828  769  397
[52]  52(B16)  1  7  7  0   -343.7 20459989.4  0.0  1 0  570  355  223
[53]  58(B22)  1  7  7  0    929.1 20459986.8  0.1  1 0   71  186  492
[54]  65(B29)  1  7  7  0  -2041.6 20460045.3  0.2  1 0   78  485  310
$GNGGA,063559.255,,,,,0,00,,,M,,,,0000*25
$GNRMC,063559.255,A,,,,,,,080180,,*29
$GPGSA,A,1,,,,,,,,,,,,,,,*1E
$BDGSA,A,1,,,,,,,,,,,,,,,*0F
$GLGSA,A,1,,,,,,,,,,,,,,,*02
$GPGSV,2,1,06,04,00,000,44,07,00,000,39,09,00,000,45,23,00,000,44*7C
$GPGSV,2,2,06,28,00,000,38,30,00,000,42*7B
$BDGSV,2,1,05,09,00,000,40,10,00,000,36,16,00,000,36,22,00,000,42*63
$BDGSV,2,2,05,29,00,000,42*50
$B3CN0,0,0,0,0,0,0,0,0,0,0,0,0,0,0*4C
---00000018--- Acq_st=7 0  2019-4-9 6:36:0 
[00]  03(G04)  f 44  7  0   -531.8  2046000.6 -0.0  2 0  960 2632 1725
[01]  06(G07)  7 39  7  0  -3365.7  2046004.3  0.2  2 0  644 1120  721
[02]  08(G09)  f 45  7  0    564.4  2045999.2 -0.0  2 0 2156 3443 1543
[03]  22(G23)  f 43  7  0   1822.5  2045997.5  0.0  2 0 1751 2180  863
[04]  27(G28)  7 39 12  0  -2842.8  2046003.6  0.1  2 0  620 1266  871
[05]  29(G30)  f 41  7  0  -4304.0  2046005.6 -0.0  2 0  993 1830  970
[17]  41(B05)  7 23 13  1  -1767.4  4092004.5  0.1  2 0  339  399  193
[18]  45(B09)  7 39  7  0    683.2  4091998.1  0.0  2 0 1118 1445  723
[19]  46(B10) 1f 36  7  0  -1313.4  4092003.3  0.0  2 0  429  728  399
[20]  52(B16) 1f 36  7  0    679.9  4091998.0 -0.2  2 0  393 1083  565
[21]  58(B22) 1f 42  7  0    880.1  4091997.6  0.0  2 0 1241 1549  570
[22]  65(B29) 1f 43  7  0  -2867.3  4092007.4  0.0  2 0 1465 2052  816
[32]  75(N-6)  f 36  7  0   1247.2  1021999.1  0.2  2 0   339  563  216
[33]  76(N-5)  f 38  7  0   2085.9  1021998.7 -0.0  2 0   178  556  258
[34]  77(N-4)  f 34  7  0  -5190.3  1022003.2 -0.1  5 0   243  473  389
[35]  80(N-1)  f 41  7  0   -979.7  1022000.6  0.1  2 0   675 1101  842
[36]  81(N00)  f 39 12  0  -4069.4  1022002.6 -0.7  2 0   449  854  545
[51]  46(B10)  1  7  7  0  -1301.9 20460021.3  0.1  1 0  147  549  773
[52]  52(B16)  1  7  7  0   -595.3 20459990.1 -0.0  1 0  424  139 1025
[53]  58(B22)  1 11  7  0   1190.3 20459987.3  0.0  1 0  327  325   18
[54]  65(B29)  1  7  7  0  -1907.2 20460046.3  0.1  1 0  513  429  229
$GNGGA,063600.255,,,,,0,00,,,M,,,,0000*2A
$GNRMC,063600.255,A,,,,,,,080180,,*26
$GPGSA,A,1,,,,,,,,,,,,,,,*1E
$BDGSA,A,1,,,,,,,,,,,,,,,*0F
$GLGSA,A,1,,,,,,,,,,,,,,,*02
$GPGSV,2,1,06,04,00,000,44,07,00,000,39,09,00,000,45,23,00,000,43*7B
$GPGSV,2,2,06,28,00,000,39,30,00,000,41*79
$BDGSV,2,1,06,05,00,000,23,09,00,000,39,10,00,000,36,16,00,000,36*6C
$BDGSV,2,2,06,22,00,000,42,29,00,000,43*64
$B3CN0,0,0,0,0,0,0,0,0,0,0,0,0,0,0*4C
---00000019--- Acq_st=7 0  2019-4-9 6:36:1 
[00]  03(G04)  f 44  7  0   -520.0  2046000.6 -0.1  2 0 2049 2604  644
[01]  06(G07)  7 39  7  0  -3355.0  2046004.3 -0.1  2 0  707  899  400
[02]  08(G09)  f 45  7  0    573.6  2045999.2  0.0  2 0 2044 2839  803
[03]  22(G23)  f 44  8  0   1831.1  2045997.6 -0.0  2 0 1805 2595  956
[04]  27(G28)  7 39  7  0  -2833.2  2046003.6 -0.3  2 0  818 1266  555
[05]  29(G30)  f 41  7  0  -4291.8  2046005.5 -0.1  2 0 1199 1683  964
[17]  41(B05)  7 21 32  1  -1998.3  4092005.4 -0.1  2 0  187  312  718
[18]  45(B09)  7 39  7  0    696.5  4091998.1 -0.1  2 0  974 1237  851
[19]  46(B10) 1f 36  7  0  -1313.1  4092003.4  0.4  2 0  619 1130  751
[20]  52(B16) 1f 36  7  0    694.2  4091998.0  0.5  2 0  407  609  291
[21]  58(B22) 1f 42  7  0    887.0  4091997.5  0.0  2 0  978 1880 1264
[22]  65(B29) 1f 43  7  0  -2856.0  4092007.4  0.0  2 0 1436 1699  795
[32]  75(N-6)  f 36  7  0   1254.0  1021999.2 -0.0  2 0   122  313  213
[33]  76(N-5)  f 37  7  0   2097.7  1021998.6 -0.0  2 0   579  473  303
[34]  77(N-4)  f 35  7  0  -5182.6  1022003.2  0.0  2 0   662  846  427
[35]  80(N-1)  f 41  7  0   -970.8  1022000.6 -0.1  2 0   404  974  682
[36]  81(N00)  f 38 15  0  -4058.6  1022002.5 -0.4  2 0   413  901  461
[51]  46(B10)  1  7  7  0  -1585.2 20460021.6  0.2  1 0  475  529  303
[52]  52(B16)  1  7  7  0  -1022.1 20459989.5  0.0  1 0  416  263  155
[53]  58(B22)  1  8  7  0   1236.4 20459987.7  0.0  1 0  464  336  188
[54]  65(B29)  1  7  7  0  -2429.9 20460046.2 -0.2  1 0  294  378  239
$GNGGA,063601.255,,,,,0,00,,,M,,,,0000*2B
$GNRMC,063601.255,A,,,,,,,080180,,*27
$GPGSA,A,1,,,,,,,,,,,,,,,*1E
$BDGSA,A,1,,,,,,,,,,,,,,,*0F
$GLGSA,A,1,,,,,,,,,,,,,,,*02
$GPGSV,2,1,06,04,00,000,44,07,00,000,39,09,00,000,45,23,00,000,44*7C
$GPGSV,2,2,06,28,00,000,39,30,00,000,41*79
$BDGSV,2,1,06,05,00,000,21,09,00,000,39,10,00,000,36,16,00,000,36*6E
$BDGSV,2,2,06,22,00,000,42,29,00,000,43*64
$B3CN0,0,0,0,0,0,0,0,0,0,0,0,0,0,0*4C
---00000020--- Acq_st=3 0  2019-4-9 6:36:2 
[00]  03(G04)  f 44 10  0   -519.5  2046000.6  0.1  2 0 1703 2934 1327
[01]  06(G07)  f 39  7  0  -3358.1  2046004.3  0.1  2 0 1018 1056  125
[02]  08(G09)  f 45  7  0    572.6  2045999.2 -0.0  2 0 1774 3315 1823
[03]  22(G23)  f 44  7  0   1835.0  2045997.6  0.0  2 0 1050 2267  883
[04]  27(G28)  f 39  7  0  -2834.1  2046003.6 -0.2  2 0  903 1387  830
[05]  29(G30)  f 42  7  0  -4290.8  2046005.4  0.0  2 0 1553 2076 1327
[17]  41(B05)  7 36 30  1  -2036.6  4092005.5 -0.0  2 0   25  139   54
[18]  45(B09)  7 39  7  0    698.3  4091998.1  0.1  2 0 1110 1058  505
[19]  46(B10) 1f 36  7  0  -1306.2  4092003.3  0.1  2 0  727 1131  607
[20]  52(B16) 1f 36  7  0    690.4  4091998.0 -0.3  2 0  881  965  683
[21]  58(B22) 1f 42  7  0    885.4  4091997.5 -0.1  2 0 1300 1420  572
[22]  65(B29) 1f 43  7  0  -2854.6  4092007.3 -0.0  2 0 1440 1907  654
[32]  75(N-6) 8f 35  7  0   1252.7  1021999.2 -0.2  2 0   522  614  167
[33]  76(N-5) 8f 38  7  0   2095.2  1021998.6 -0.0  2 0   128  853  457
[34]  77(N-4)  f 34  7  0  -5183.3  1022003.3 -0.0  2 0   219  623  242
[35]  80(N-1) 8f 40  7  0   -970.2  1022000.6 -0.1  2 0   380  851  589
[36]  81(N00) 8f 39 15  0  -4057.9  1022002.6 -0.3  2 0   740  844  255
[54]  65(B29)  1  7  7  0  -2567.7 20460046.2 -0.0  1 0  632  342  239
$GNGGA,063602.255,,,,,0,00,,,M,,,,0000*28
$GNRMC,063602.255,A,,,,,,,090419,,*20
$GPGSA,A,1,,,,,,,,,,,,,,,*1E
$BDGSA,A,1,,,,,,,,,,,,,,,*0F
$GLGSA,A,1,,,,,,,,,,,,,,,*02
$GPGSV,2,1,06,04,00,000,44,07,00,000,39,09,00,000,45,23,00,000,44*7C
$GPGSV,2,2,06,28,00,000,39,30,00,000,42*7A
$BDGSV,2,1,06,05,00,000,36,09,00,000,39,10,00,000,36,16,00,000,36*68
$BDGSV,2,2,06,22,00,000,42,29,00,000,43*64
$B3CN0,0,0,0,0,0,0,0,0,0,0,0,0,0,0*4C
---00000021--- Acq_st=3 0  2019-4-9 6:36:3 
[00]  03(G04)  f 44  7  0   -523.1  2046000.6 -0.0  2 0 1891 2936 1447
[01]  06(G07)  f 39  7  0  -3366.1  2046004.3 -0.3  2 0  866 1113  555
[02]  08(G09)  f 44  7  0    571.4  2045999.2 -0.0  2 0 2465 3093 1216
[03]  22(G23)  f 42  7  0   1829.6  2045997.6  0.0  2 0  867 1991 1104
[04]  27(G28)  f 39  7  0  -2841.9  2046003.6 -0.1  2 0  927 1326  596
[05]  29(G30)  f 43  7  0  -4294.6  2046005.5 -0.1  2 0 1554 2234  944
[17]  41(B05)  7 19 28  1  -2001.3  4092005.2  0.2  2 0  518  614  250
[18]  45(B09)  7 40  7  0    691.8  4091998.1  0.1  2 0 1121 1185  664
[19]  46(B10) 1f 36  7  0  -1308.3  4092003.3 -0.2  2 0  770  743  289
[20]  52(B16) 1f 37  7  0    687.1  4091998.0  0.3  2 0  596  795  257
[21]  58(B22) 1f 42  7  0    881.0  4091997.6 -0.0  2 0 1723 1857  697
[22]  65(B29) 1f 43  7  0  -2859.0  4092007.4 -0.0  2 0 1707 1900 1011
[32]  75(N-6) 8f 35  7  0   1253.4  1021999.1 -0.2  2 0   363   19  397
[33]  76(N-5) 8f 38  7  0   2090.9  1021998.6  0.0  2 0   505  945  397
[34]  77(N-4)  f 33  7  0  -5176.3  1022003.2  0.0  2 0   294  603  360
[35]  80(N-1) 8f 40  7  0   -974.7  1022000.6  0.4  2 0   266 1021  672
[36]  81(N00) 8f 39 14  0  -4062.4  1022002.5  0.1  2 0   356  708  377
[51]  46(B10)  1  7  7  0   -726.0 20460021.6 -0.2  1 0  681  745  742
[52]  52(B16)  1  8  7  0    584.7 20459990.3 -0.1  1 0  303  263  391
[53]  58(B22)  1  7  7  0    696.9 20459987.4  0.0  1 0  344  546  259
$GNGGA,063603.255,,,,,0,00,,,M,,,,0000*29
$GNRMC,063603.255,A,,,,,,,090419,,*21
$GPGSA,A,1,,,,,,,,,,,,,,,*1E
$BDGSA,A,1,,,,,,,,,,,,,,,*0F
$GLGSA,A,1,,,,,,,,,,,,,,,*02
$GPGSV,2,1,06,04,00,000,44,07,00,000,39,09,00,000,44,23,00,000,42*7B
$GPGSV,2,2,06,28,00,000,39,30,00,000,43*7B
$BDGSV,2,1,06,05,00,000,19,09,00,000,40,10,00,000,36,16,00,000,37*6A
$BDGSV,2,2,06,22,00,000,42,29,00,000,43*64
$B3CN0,0,0,0,0,0,0,0,0,0,0,0,0,0,0*4C
---00000022--- Acq_st=3 0  2019-4-9 6:36:4 
[00]  03(G04)  f 44  7  0   -518.7  2046000.6  0.1  2 0 2346 3382 1471
[01]  06(G07)  f 38  7  0  -3349.2  2046004.3  0.2  2 0  694 1217  545
[02]  08(G09)  f 44  7  0    578.1  2045999.2 -0.1  2 0 2136 2999 1422
[03]  22(G23)  f 43  7  0   1835.8  2045997.6 -0.1  2 0 1361 1985 1190
[04]  27(G28)  f 39  7  0  -2833.6  2046003.6 -0.0  2 0 1050 1199  691
[05]  29(G30)  f 43  7  0  -4286.5  2046005.5  0.1  2 0 1430 2572 1490
[16]  38(B02)  1 20 22  0  -1250.0  4092003.9  0.0  1 0  319  735  676
[17]  41(B05)  7 10 30  1  -2018.5  4092005.2  0.1  2 0  166   95  320
[18]  45(B09) 1f 39  7  0    699.9  4091998.1  0.2  2 0 1054 1023  543
[19]  46(B10) 1f 36  7  0  -1300.3  4092003.3 -0.1  2 0  981 1002  594
[20]  52(B16) 1f 37  7  0    694.0  4091998.0  0.3  2 0  833  892   41
[21]  58(B22) 1f 42  7  0    892.1  4091997.6  0.1  2 0 1118 1687  752
[22]  65(B29) 1f 43  7  0  -2853.8  4092007.4 -0.0  2 0 1729 1919  793
[32]  75(N-6) 8f 34  7  0   1259.1  1021999.2 -0.0  2 0   671  497  215
[33]  76(N-5) 8f 38  7  0   2100.9  1021998.7  0.0  2 0   400  766  531
[34]  77(N-4)  f 31  7  0  -5178.6  1022003.3 -0.0  5 0   346  452  316
[35]  80(N-1) 8f 40  7  0   -967.2  1022000.6  0.4  2 0   783 1039  392
[36]  81(N00) 8f 40 17  0  -4055.3  1022002.5 -0.1  2 0   596 1008  745
[51]  46(B10)  1  7  7  0   -162.7 20460019.8  0.0  1 0  266  210  514
[52]  52(B16)  1  7  7  0    983.9 20459989.0 -0.1  1 0  815  521  258
[53]  58(B22)  1  7  7  0    510.5 20459984.9 -0.2  1 0  545  486  464
[54]  65(B29)  1  7  7  0  -2329.0 20460046.0  0.0  1 0  182  169  201
$GNGGA,063604.255,,,,,0,00,,,M,,,,0000*2E
$GNRMC,063604.255,A,,,,,,,090419,,*26
$GPGSA,A,1,,,,,,,,,,,,,,,*1E
$BDGSA,A,1,,,,,,,,,,,,,,,*0F
$GLGSA,A,1,,,,,,,,,,,,,,,*02
$GPGSV,2,1,06,04,00,000,44,07,00,000,38,09,00,000,44,23,00,000,43*7B
$GPGSV,2,2,06,28,00,000,39,30,00,000,43*7B
$BDGSV,2,1,05,09,00,000,39,10,00,000,36,16,00,000,37,22,00,000,42*6C
$BDGSV,2,2,05,29,00,000,43*51
$B3CN0,0,0,0,0,0,0,0,0,0,0,0,0,0,0*4C
---00000023--- Acq_st=3 0  2019-4-9 6:36:5 
[00]  03(G04)  f 44  8  0   -527.5  2046000.6 -0.0  2 0 1526 2441 1058
[01]  06(G07)  f 37  7  0  -3359.9  2046004.3 -0.4  2 0 1197 1230  792
[02]  08(G09)  f 44  7  0    568.1  2045999.2  0.0  2 0 2542 3519 1383
[03]  22(G23)  f 42  8  0   1825.7  2045997.6 -0.1  2 0  865 1603 1001
[04]  27(G28)  f 39  7  0  -2843.1  2046003.6  0.0  2 0  507  885  276
[05]  29(G30)  f 43  7  0  -4301.2  2046005.5  0.0  2 0 1981 2674 1177
[16]  38(B02)  1 10 24  0  -1089.6  4092002.1  0.2  1 0 1258 1202  291
[17]  41(B05)  7 20 27  1  -2010.3  4092005.4 -0.1  2 0  177  391  207
[18]  45(B09) 1f 39  7  0    683.6  4091998.1 -0.1  2 0  633  719  232
[19]  46(B10) 1f 36  7  0  -1321.8  4092003.3 -0.2  2 0  544  382  369
[20]  52(B16) 1f 37  7  0    682.3  4091998.0  0.0  2 0  767 1000  463
[21]  58(B22) 1f 42  7  0    878.1  4091997.6 -0.1  2 0 1110 1396  322
[22]  65(B29) 1f 43  7  0  -2862.5  4092007.4  0.0  2 0 1595 2343  855
[32]  75(N-6) 8f 34  7  0   1246.3  1021999.2  0.1  2 0   462  446  239
[33]  76(N-5) 8f 38  7  0   2085.0  1021998.6  0.0  2 0   472 1059  737
[34]  77(N-4)  f 30  7  0  -5191.7  1022003.3  0.1  5 0   342  170   62
[35]  80(N-1) 8f 40  7  0   -977.2  1022000.6 -0.0  2 0   372  683  466
[36]  81(N00) 8f 40 13  0  -4068.7  1022002.5  0.1  2 0   731 1158  671
[50]  45(B09)  1  7  7  0    628.3 20459991.0 -0.1  1 0  265  177  286
[51]  46(B10)  1  9  7  0    516.3 20460020.3 -0.1  1 0  811  789  599
[52]  52(B16)  1  7  7  0    706.8 20459988.6 -0.1  1 0  269  997  568
[53]  58(B22)  1  7  7  0    511.5 20459986.6  0.0  1 0  564  392  306
[54]  65(B29)  1  8  8  0  -2450.7 20460047.5 -0.1  1 0  354  509   28
$GNGGA,063605.255,,,,,0,00,,,M,,,,0000*2F
$GNRMC,063605.255,A,,,,,,,090419,,*27
$GPGSA,A,1,,,,,,,,,,,,,,,*1E
$BDGSA,A,1,,,,,,,,,,,,,,,*0F
$GLGSA,A,1,,,,,,,,,,,,,,,*02
$GPGSV,2,1,06,04,00,000,44,07,00,000,37,09,00,000,44,23,00,000,42*75
$GPGSV,2,2,06,28,00,000,39,30,00,000,43*7B
$BDGSV,2,1,06,05,00,000,20,09,00,000,39,10,00,000,36,16,00,000,37*6E
$BDGSV,2,2,06,22,00,000,42,29,00,000,43*64
$B3CN0,0,0,0,0,0,0,0,0,0,0,0,0,0,0*4C
---00000024--- Acq_st=3 0  2019-4-9 6:36:6 
[00]  03(G04)  f 44  9  0   -517.2  2046000.6 -0.0  2 0 2017 2700 1333
[01]  06(G07)  f 35  7  0  -3352.5  2046004.3  0.4  2 0  517  939 1000
[02]  08(G09)  f 44  7  0    573.3  2045999.2  0.0  2 0 2107 2972 1468
[03]  22(G23)  f 41  7  0   1833.8  2045997.6  0.0  2 0 1344 1565  595
[04]  27(G28)  f 40  7  0  -2836.0  2046003.6 -0.1  2 0  775 1375  725
[05]  29(G30)  f 44  7  0  -4289.7  2046005.5  0.0  2 0 1750 2840 1553
[16]  38(B02)  7 34 28  0  -1079.3  4092002.6  0.4  2 0 1072  947  416
[17]  41(B05)  7 10 30  1  -2008.1  4092005.2  0.1  2 0  358  366  155
[18]  45(B09) 1f 40  7  0    691.5  4091998.0  0.1  2 0  766  758  205
[19]  46(B10) 1f 36  7  0  -1304.4  4092003.3  0.1  2 0  510  628  425
[20]  52(B16) 1f 37  7  0    691.0  4091998.1  0.4  2 0  988  986  139
[21]  58(B22) 1f 42  7  0    889.0  4091997.6  0.1  2 0  850 1282  705
[22]  65(B29) 1f 43  7  0  -2854.7  4092007.4 -0.0  2 0 1410 1671  443
[32]  75(N-6) 8f 35  7  0   1260.2  1021999.1 -0.1  2 0   565  991  591
[33]  76(N-5) 8f 38  7  0   2095.2  1021998.7 -0.0  2 0   575  826  356
[34]  77(N-4)  f 27  7  0  -5179.1  1022003.2 -0.0  5 0   664  451  423
[35]  80(N-1) 8f 41  7  0   -965.8  1022000.6 -0.2  2 0   513 1166  840
[36]  81(N00) 8f 40 16  0  -4059.3  1022002.5 -0.0  2 0   240  406  293
[50]  45(B09)  1  8  7  0    456.0 20459989.2 -0.0  1 0  422  186  309
[51]  46(B10)  1  7  7  0    264.3 20460020.3 -0.0  1 0  385  267  200
[52]  52(B16)  1  7  7  0    716.8 20459990.0  0.0  1 0  294  331  333
[53]  58(B22)  1  7  7  0    443.1 20459987.4 -0.0  1 0  708  797  370
[54]  65(B29)  1  8  7  0  -2297.9 20460045.5  0.0  1 0  138  287  347
$GNGGA,063606.255,,,,,0,00,,,M,,,,0000*2C
$GNRMC,063606.255,A,,,,,,,090419,,*24
$GPGSA,A,1,,,,,,,,,,,,,,,*1E
$BDGSA,A,1,,,,,,,,,,,,,,,*0F
$GLGSA,A,1,,,,,,,,,,,,,,,*02
$GPGSV,2,1,06,04,00,000,44,07,00,000,35,09,00,000,44,23,00,000,41*74
$GPGSV,2,2,06,28,00,000,40,30,00,000,44*72
$BDGSV,2,1,06,02,00,000,34,09,00,000,40,10,00,000,36,16,00,000,37*62
$BDGSV,2,2,06,22,00,000,42,29,00,000,43*64
$B3CN0,0,0,0,0,0,0,0,0,0,0,0,0,0,0*4C
---00000025--- Acq_st=3 0  2019-4-9 6:36:7 
[00]  03(G04)  f 44  7  0   -521.0  2046000.6 -0.0  2 0 2452 3317 1203
[01]  06(G07)  f 33  7  0  -3369.1  2046004.5 -0.1  2 0  136  546  360
[02]  08(G09)  f 44  7  0    576.1  2045999.2 -0.0  2 0 2410 3641 1879
[03]  22(G23)  f 40  7  0   1831.0  2045997.6  0.1  2 0 1104 2098 1407
[04]  27(G28)  f 40  7  0  -2835.3  2046003.6  0.1  2 0  735 1398  838
[05]  29(G30)  f 44  7  0  -4292.3  2046005.5  0.0  2 0 2023 3249  779
[16]  38(B02)  f 35 19  0  -1083.7  4092002.7  0.1  2 0  846  209  392
[17]  41(B05)  7 10 31  1  -2028.7  4092005.4 -0.2  2 0  482  263   76
[18]  45(B09) 1f 40  7  0    695.5  4091998.0 -0.0  2 0  987 1027  166
[19]  46(B10) 1f 36  7  0  -1308.5  4092003.3  0.1  2 0  783 1089  692
[20]  52(B16) 1f 37  7  0    692.1  4091998.1  0.6  2 0  484  865  606
[21]  58(B22) 1f 42  7  0    882.7  4091997.6  0.0  2 0 1351 1790  733
[22]  65(B29) 1f 43  7  0  -2857.5  4092007.4  0.1  2 0 1976 2176 1212
[32]  75(N-6) 8f 36  7  0   1254.3  1021999.2  0.0  2 0   539 1093  646
[33]  76(N-5) 8f 38  7  0   2091.2  1021998.6  0.1  2 0   365  819  212
[34]  77(N-4)  f 28  7  0  -5183.7  1022003.2  0.0  5 0   302  600  367
[35]  80(N-1) 8f 41  7  0   -969.8  1022000.6  0.0  2 0   784 1126  430
[36]  81(N00) 8f 39 13  0  -4063.6  1022002.5 -0.1  2 0   222  580  404
[50]  45(B09)  1  7  7  0    -40.8 20459989.6 -0.1  1 0  378  462  230
[54]  65(B29)  1  7  7  0  -2125.8 20460046.3 -0.0  1 0  578  175   58
$GNGGA,063607.255,,,,,0,00,,,M,,,,0000*2D
$GNRMC,063607.255,A,,,,,,,090419,,*25
$GPGSA,A,1,,,,,,,,,,,,,,,*1E
$BDGSA,A,1,,,,,,,,,,,,,,,*0F
$GLGSA,A,1,,,,,,,,,,,,,,,*02
$GPGSV,2,1,06,04,00,000,44,07,00,000,33,09,00,000,44,23,00,000,40*73
$GPGSV,2,2,06,28,00,000,40,30,00,000,44*72
$BDGSV,2,1,07,02,00,000,35,05,00,000,36,09,00,000,40,10,00,000,36*61
$BDGSV,2,2,07,16,00,000,37,22,00,000,42,29,00,000,43*56
$B3CN0,0,0,0,0,0,0,0,0,0,0,0,0,0,0*4C
---00000026--- Acq_st=3 0  2019-4-9 6:36:8 
[00]  03(G04)  f 45  7  0   -522.0  2046000.6  0.0  2 0 2525 2962 1418
[01]  06(G07)  f 32  7  0  -3361.2  2046004.5  0.1  5 0  524  841  329
[02]  08(G09)  f 45  7  0    572.4  2045999.2  0.0  2 0 2631 4167 2085
[03]  22(G23)  f 41  8  0   1825.9  2045997.6 -0.0  2 0 1258 1554  646
[04]  27(G28)  f 40  9  0  -2838.1  2046003.6  0.1  2 0 1002 1533  839
[05]  29(G30)  f 44  7  0  -4295.9  2046005.5 -0.1  2 0 2256 3748 1882
[16]  38(B02)  f 36 24  0  -1085.1  4092002.6  0.2  2 0  706  667   99
[17]  41(B05)  7 13 28  1  -2004.7  4092005.3 -0.1  2 0  450  632  395
[18]  45(B09) 1f 40  7  0    689.7  4091998.1 -0.0  2 0 1016 1080 1083
[19]  46(B10) 1f 36 11  0  -1312.1  4092003.3  0.3  2 0  995 1190  408
[20]  52(B16) 1f 38  7  0    683.4  4091998.1  0.1  2 0  640  586  612
[21]  58(B22) 1f 42  7  0    878.7  4091997.6  0.0  2 0 1083 1671  783
[22]  65(B29) 1f 43  7  0  -2858.2  4092007.4  0.0  2 0 1285 1615  693
[32]  75(N-6) 8f 36  7  0   1252.7  1021999.2 -0.0  2 0   459  521  242
[33]  76(N-5) 8f 38  7  0   2085.2  1021998.7 -0.0  2 0   638  823  414
[34]  77(N-4)  f 31  7  0  -5184.5  1022003.3  0.0  5 0   250  744  392
[35]  80(N-1) 8f 41  7  0   -972.0  1022000.6 -0.1  2 0   849 1232  312
[36]  81(N00) 8f 38 10  0  -4067.4  1022002.5 -0.4  2 0   725 1084  596
[50]  45(B09)  1  7  7  0    -18.1 20459987.7 -0.0  1 0   19   67  345
[51]  46(B10)  1  7  7  0  -1225.9 20460021.1 -0.2  1 0   85  461  893
[52]  52(B16)  1  7  7  0    493.2 20459988.5  0.0  1 0  544  494  534
[53]  58(B22)  1  7  7  0    382.7 20459987.4 -0.1  1 0  599  872 1137
$GNGGA,063608.255,,,,,0,00,,,M,,,,0000*22
$GNRMC,063608.255,A,,,,,,,090419,,*2A
$GPGSA,A,1,,,,,,,,,,,,,,,*1E
$BDGSA,A,1,,,,,,,,,,,,,,,*0F
$GLGSA,A,1,,,,,,,,,,,,,,,*02
$GPGSV,2,1,06,04,00,000,45,07,00,000,32,09,00,000,45,23,00,000,41*73
$GPGSV,2,2,06,28,00,000,40,30,00,000,44*72
$BDGSV,2,1,06,02,00,000,36,09,00,000,40,10,00,000,36,16,00,000,38*6F
$BDGSV,2,2,06,22,00,000,42,29,00,000,43*64
$B3CN0,0,0,0,0,0,0,0,0,0,0,0,0,0,0*4C
$GLGSV,1,1,04,04,00,000,36,03,00,000,38,05,00,000,41,15,00,000,38*67
---00000027--- Acq_st=7 0  2019-4-9 6:36:9 
[00]  03(G04)  f 45  7  0   -514.2  2046000.6 -0.0  2 0 1917 3325 1663
[01]  06(G07)  f 33  8  0  -3351.5  2046004.3  0.0  5 0  646  612  528
[02]  08(G09)  f 45  7  0    578.9  2045999.2 -0.0  2 0 2619 3668 1241
[03]  22(G23)  f 42  7  0   1839.4  2045997.6 -0.1  2 0 1418 2360 1065
[04]  27(G28)  f 40  7  0  -2832.4  2046003.6  0.1  2 0  976 1397  681
[05]  29(G30)  f 44  7  0  -4287.6  2046005.5 -0.0  2 0 1755 3190 1415
[16]  38(B02) 1f 36 26  0  -1073.9  4092002.7  0.8  2 0  784  856  484
[17]  41(B05)  7 10 29  1  -1991.1  4092005.4  0.0  2 0   43  208  228
[18]  45(B09) 1f 40  7  0    700.1  4091998.0  0.0  2 0  770 1252  608
[19]  46(B10) 1f 36  7  0  -1309.7  4092003.3 -0.1  2 0  508  862  641
[20]  52(B16) 1f 38  7  0    698.3  4091998.1 -0.3  2 0  855 1303  751
[21]  58(B22) 1f 42  7  0    888.5  4091997.6  0.0  2 0 1411 1643  679
[22]  65(B29) 1f 43  7  0  -2851.2  4092007.4  0.0  2 0 1207 2083  850
[32]  75(N-6) 8f 36  7  0   1261.7  1021999.2  0.1  2 0   686  503  242
[33]  76(N-5) 8f 39  7  0   2096.0  1021998.7  0.0  2 0   397  685  294
[34]  77(N-4)  f 33  7  0  -5177.6  1022003.3  0.1  5 0   326  634  471
[35]  80(N-1) 8f 41  7  0   -963.0  1022000.6 -0.2  2 0   548 1027  466
[36]  81(N00) 8f 38 15  0  -4059.1  1022002.6  0.1  2 0   343  998  559
[48]  38(B02)  1 10 13  1  -1044.1 20460018.3 -0.0  1 0  427  347  492
[51]  46(B10)  1  7  7  0  -1753.6 20460020.6  0.1  1 0  335  439  444
[52]  52(B16)  1  7  7  0    972.7 20459991.3  0.1  1 0  738  923  112
[53]  58(B22)  1  7  7  0    250.0 20459985.9 -0.1  1 0  794  196  376
[54]  65(B29)  1  7  7  0  -1963.8 20460045.4 -0.2  1 0  459   86  398
$GNGGA,063609.255,,,,,0,00,,,M,,,,0000*23
$GNRMC,063609.255,A,,,,,,,090419,,*2B
$GPGSA,A,1,,,,,,,,,,,,,,,*1E
$BDGSA,A,1,,,,,,,,,,,,,,,*0F
$GLGSA,A,1,,,,,,,,,,,,,,,*02
$GPGSV,2,1,06,04,00,000,45,07,00,000,33,09,00,000,45,23,00,000,42*71
$GPGSV,2,2,06,28,00,000,40,30,00,000,44*72
$BDGSV,2,1,06,02,00,000,36,09,00,000,40,10,00,000,36,16,00,000,38*6F
$BDGSV,2,2,06,22,00,000,42,29,00,000,43*64
$B3CN0,0,0,0,0,0,0,0,0,0,0,0,0,0,0*4C
$GLGSV,1,1,04,04,00,000,36,03,00,000,39,05,00,000,41,15,00,000,38*66
---00000028--- Acq_st=7 0  2019-4-9 6:36:10 
[00]  03(G04)  f 45  7  0   -517.8  2046000.6  0.0  2 0 1773 3063 1760
[01]  06(G07)  f 34  7  0  -3357.0  2046004.3 -0.1  5 0  823  587  439
[02]  08(G09)  f 45  7  0    579.0  2045999.2  0.1  2 0 2014 2841 1005
[03]  22(G23)  f 42  7  0   1833.4  2045997.5  0.1  2 0 1658 2002  682
[04]  27(G28)  f 39  8  0  -2831.2  2046003.6  0.0  2 0  659 1052  648
[05]  29(G30)  f 44  7  0  -4292.1  2046005.5 -0.0  2 0 2173 3164 1051
[16]  38(B02) 1f 36 22  0  -1071.4  4092002.6 -0.6  2 0  534  805   64
[17]  41(B05)  7 17 10  0  -2350.4  4092006.1 -0.1  2 0  379  425  434
[18]  45(B09) 1f 40  7  0    702.9  4091998.0 -0.1  2 0 1318 1647  627
[19]  46(B10) 1f 36  7  0  -1310.3  4092003.4  0.2  2 0  574  588  232
[20]  52(B16) 1f 38  7  0    694.0  4091998.0  0.4  2 0  831  808  476
[21]  58(B22) 1f 42  7  0    887.5  4091997.6  0.1  2 0 1286 1693  729
[22]  65(B29) 1f 42 10  0  -2852.5  4092007.4 -0.0  2 0 1157 1969 1208
[32]  75(N-6) 8f 36 17  0   1260.6  1021999.2  0.1  2 0   353  330  160
[33]  76(N-5) 8f 38  7  0   2092.2  1021998.6  0.0  2 0   361  888  670
[34]  77(N-4)  f 34  7  0  -5178.7  1022003.3  0.1  5 0   323  627  352
[35]  80(N-1) 8f 41  7  0   -963.8  1022000.6  0.1  2 0   678  678  427
[36]  81(N00) 8f 39 19  0  -4059.9  1022002.6  0.0  2 0   663  871  577
[48]  38(B02)  1 18 10  0   -532.7 20460017.9 -0.0  1 0  668  222  286
[50]  45(B09)  1  7  7  0    503.6 20459987.0  0.2  1 0  179  441  502
[51]  46(B10)  1  7  7  0  -1916.6 20460021.9  0.1  1 0  675  327  457
[52]  52(B16)  1  7  7  0    815.4 20459990.2 -0.1  1 0  212  431  223
[53]  58(B22)  1  7  7  0    634.3 20459985.4 -0.0  1 0  651  380  283
[54]  65(B29)  1  7  7  0  -2004.0 20460046.3 -0.1  1 0  376   46  190
$GNGGA,063610.255,,,,,0,00,,,M,,,,0000*2B
$GNRMC,063610.255,A,,,,,,,090419,,*23
$GPGSA,A,1,,,,,,,,,,,,,,,*1E
$BDGSA,A,1,,,,,,,,,,,,,,,*0F
$GLGSA,A,1,,,,,,,,,,,,,,,*02
$GPGSV,2,1,06,04,00,000,45,07,00,000,34,09,00,000,45,23,00,000,42*76
$GPGSV,2,2,06,28,00,000,39,30,00,000,44*7C
$BDGSV,2,1,07,02,00,000,36,05,00,000,17,09,00,000,40,10,00,000,36*61
$BDGSV,2,2,07,16,00,000,38,22,00,000,42,29,00,000,42*58
$B3CN0,0,0,0,0,0,0,0,0,0,0,0,0,0,0*4C
$GLGSV,1,1,04,04,00,000,36,03,00,000,38,05,00,000,41,15,00,000,39*66
---00000029--- Acq_st=3 0  2019-4-9 6:36:11 
[00]  03(G04)  f 45  7  0   -513.3  2046000.6 -0.0  2 0 1435 3046 1632
[01]  06(G07)  f 35  7  0  -3351.9  2046004.2 -0.1  2 0  529  807  530
[02]  08(G09)  f 45  7  0    583.2  2045999.2 -0.1  2 0 2227 3212 1207
[03]  22(G23)  f 43  7  0   1838.6  2045997.5  0.0  2 0 1612 2439 1236
[04]  27(G28)  f 39  7  0  -2832.6  2046003.6 -0.1  2 0 1116 1103  622
[05]  29(G30)  f 44  7  0  -4285.4  2046005.5 -0.0  2 0 1651 2502 1143
[16]  38(B02) 1f 39 26  0  -1076.9  4092002.7 -0.7  2 0 1099  967   56
[17]  41(B05)  7 20 10  1  -2263.9  4092006.2  0.2  2 0  178  335  198
[18]  45(B09) 1f 40  7  0    698.3  4091998.1 -0.1  2 0 1320 1154  179
[19]  46(B10) 1f 36  7  0  -1303.3  4092003.3  0.1  2 0  768  696  155
[20]  52(B16) 1f 38  7  0    704.8  4091998.1 -0.2  2 0  483 1027  459
[21]  58(B22) 1f 42  7  0    891.9  4091997.5  0.0  2 0 1266 1737  468
[22]  65(B29) 1f 42  7  0  -2845.8  4092007.3  0.0  2 0 1858 2014  552
[32]  75(N-6) 8f 35  8  0   1265.0  1021999.1 -0.2  2 0   434  665  382
[33]  76(N-5) 8f 38  7  0   2096.5  1021998.6  0.1  2 0   122  717  502
[34]  77(N-4)  f 33  7  0  -5175.7  1022003.3 -0.1  5 0   513  470  307
[35]  80(N-1) 8f 40  7  0   -959.1  1022000.6  0.2  2 0   557 1135  561
[36]  81(N00) 8f 40 15  0  -4056.9  1022002.6  0.1  2 0   847 1414  346
[48]  38(B02)  1 10 10  0   -583.5 20460021.1  0.0  1 0  303  186  338
[50]  45(B09)  1  7  7  0    232.2 20459988.9  0.0  1 0  130  155  526
[51]  46(B10)  1  7  7  0  -1976.6 20460021.6 -0.1  1 0  245  745  564
[52]  52(B16)  1  7  7  0    996.7 20459989.9 -0.1  1 0 1102  442  476
[53]  58(B22)  1  7  7  0    271.9 20459986.8 -0.2  1 0  194   81  642
[54]  65(B29)  1  7  7  0  -2650.2 20460046.4  0.1  1 0  831  236  372
$GNGGA,063611.255,,,,,0,00,,,M,,,,0000*2A
$GNRMC,063611.255,A,,,,,,,090419,,*22
$GPGSA,A,1,,,,,,,,,,,,,,,*1E
$BDGSA,A,1,,,,,,,,,,,,,,,*0F
$GLGSA,A,1,,,,,,,,,,,,,,,*02
$GPGSV,2,1,06,04,00,000,45,07,00,000,35,09,00,000,45,23,00,000,43*76
$GPGSV,2,2,06,28,00,000,39,30,00,000,44*7C
$BDGSV,2,1,07,02,00,000,39,05,00,000,20,09,00,000,40,10,00,000,36*6A
$BDGSV,2,2,07,16,00,000,38,22,00,000,42,29,00,000,42*58
$B3CN0,0,0,0,0,0,0,0,0,0,0,0,0,0,0*4C
$GLGSV,1,1,04,04,00,000,35,03,00,000,38,05,00,000,40,15,00,000,40*6A
---00000030--- Acq_st=3 0  2019-4-9 6:36:12 
[00]  03(G04)  f 44  7  0   -514.9  2046000.6  0.0  2 0 1839 2897 1346
[01]  06(G07)  f 36  7  0  -3352.0  2046004.2  0.2  2 0  280  242  416
[02]  08(G09)  f 44  7  0    581.9  2045999.2  0.0  2 0 1913 3150 1729
[03]  22(G23)  f 43  7  0   1837.6  2045997.5  0.0  2 0 1651 2292  569
[04]  27(G28)  f 40  7  0  -2830.4  2046003.6  0.0  2 0 1207 1807  954
[05]  29(G30)  f 43  7  0  -4290.0  2046005.5 -0.0  2 0  725 1399  748
[16]  38(B02) 1f 37 27  0  -1076.0  4092002.8 -0.6  2 0  279  387  385
[17]  41(B05)  7 13 10  0  -2312.0  4092005.8 -0.1  2 0  205  175   32
[18]  45(B09) 1f 40  7  0    700.0  4091998.1  0.1  2 0  730 1013  573
[19]  46(B10) 1f 36  7  0  -1309.9  4092003.3  0.0  2 0  652  250  290
[20]  52(B16) 1f 38  7  0    693.7  4091998.1 -0.2  2 0  729  819  538
[21]  58(B22) 1f 41  9  0    888.7  4091997.6 -0.0  2 0 1098  946  208
[22]  65(B29) 1f 43  7  0  -2851.5  4092007.3 -0.0  2 0 1828 2027  787
[32]  75(N-6) 8f 36 12  0   1261.3  1021999.1  0.1  2 0   476  798  449
[33]  76(N-5) 8f 38  7  0   2095.0  1021998.6 -0.1  2 0   258  618   82
[34]  77(N-4)  f 34  7  0  -5174.2  1022003.2  0.0  5 0   312  343  291
[35]  80(N-1) 8f 41  7  0   -959.0  1022000.6 -0.1  2 0   559 1081  838
[36]  81(N00) 8f 40 18  0  -4056.4  1022002.5 -0.3  2 0   501  729  231
[48]  38(B02)  7 13 10  0  -1036.9 20460019.1 -0.1  2 0  183  412  283
[50]  45(B09)  1  7  7  0     35.7 20459989.6  0.1  1 0  507  252  351
[54]  65(B29)  1  7  7  0  -2580.4 20460045.9  0.2  1 0  401  542  778
$GNGGA,063612.255,,,,,0,00,,,M,,,,0000*29
$GNRMC,063612.255,A,,,,,,,090419,,*21
$GPGSA,A,1,,,,,,,,,,,,,,,*1E
$BDGSA,A,1,,,,,,,,,,,,,,,*0F
$GLGSA,A,1,,,,,,,,,,,,,,,*02
$GPGSV,2,1,06,04,00,000,44,07,00,000,36,09,00,000,44,23,00,000,43*75
$GPGSV,2,2,06,28,00,000,40,30,00,000,43*75
$BDGSV,2,1,06,02,00,000,37,09,00,000,40,10,00,000,36,16,00,000,38*6E
$BDGSV,2,2,06,22,00,000,41,29,00,000,43*67
$B3CN0,0,0,0,0,0,0,0,0,0,0,0,0,0,0*4C
$GLGSV,1,1,04,04,00,000,36,03,00,000,38,05,00,000,41,15,00,000,40*68
---00000031--- Acq_st=3 0  2019-4-9 6:36:13 
[00]  03(G04)  f 44  7  0   -516.4  2046000.6 -0.0  2 0 1773 2606  876
[01]  06(G07)  f 36  9  0  -3360.2  2046004.2  0.2  2 0  691 1073  381
[02]  08(G09)  f 44  7  0    581.2  2045999.2 -0.0  2 0 1858 3232 1453
[03]  22(G23)  f 43  9  0   1832.3  2045997.6  0.0  2 0 1571 2520 1182
[04]  27(G28)  f 40  7  0  -2836.2  2046003.6 -0.1  2 0 1236 1253  694
[05]  29(G30)  f 42  8  0  -4293.1  2046005.5  0.0  2 0 1337 2100 1003
[16]  38(B02) 1f 38 25  0  -1074.2  4092002.5 -0.6  2 0  764  706   74
[18]  45(B09) 1f 41  7  0    696.5  4091998.0 -0.0  2 0  759 1282  315
[19]  46(B10) 1f 36  7  0  -1310.4  4092003.3 -0.2  2 0  224  780  205
[20]  52(B16) 1f 37  7  0    691.4  4091998.1 -0.0  2 0  533  858  492
[21]  58(B22) 1f 41  7  0    882.7  4091997.5  0.1  2 0 1298 1463  313
[22]  65(B29) 1f 43  7  0  -2853.7  4092007.3  0.1  2 0 1762 2062 1113
[32]  75(N-6) 8f 36  7  0   1262.8  1021999.2 -0.1  2 0   502  745  441
[33]  76(N-5) 8f 38  7  0   2093.9  1021998.6 -0.0  2 0   301  524  493
[34]  77(N-4)  f 34  7  0  -5179.3  1022003.3  0.1  5 0   354  893  417
[35]  80(N-1) 8f 41  7  0   -964.8  1022000.6 -0.1  2 0   892 1129  196
[36]  81(N00) 8f 39 15  0  -4061.7  1022002.6 -0.0  2 0   786 1022  449
[48]  38(B02)  7 18 19  0  -1119.5 20460017.1  0.0  2 0  472  711  856
[50]  45(B09)  1  7  7  0   -327.5 20459990.5 -0.1  1 0  609  681  487
[51]  46(B10)  1  7  7  0  -1143.3 20460021.1  0.1  1 0  890  997  530
[52]  52(B16)  1  7  7  0    668.0 20459989.4  0.1  1 0  611  593  664
[53]  58(B22)  1  7  7  0    417.6 20459985.1  0.1  1 0  514  648  413
$GNGGA,063613.255,,,,,0,00,,,M,,,,0000*28
$GNRMC,063613.255,A,,,,,,,090419,,*20
$GPGSA,A,1,,,,,,,,,,,,,,,*1E
$BDGSA,A,1,,,,,,,,,,,,,,,*0F
$GLGSA,A,1,,,,,,,,,,,,,,,*02
$GPGSV,2,1,06,04,00,000,44,07,00,000,36,09,00,000,44,23,00,000,43*75
$GPGSV,2,2,06,28,00,000,40,30,00,000,42*74
$BDGSV,2,1,06,02,00,000,38,09,00,000,41,10,00,000,36,16,00,000,37*6F
$BDGSV,2,2,06,22,00,000,41,29,00,000,43*67
$B3CN0,0,18,0,0,0,0,0,0,0,0,0,0,0,0*75
$GLGSV,1,1,04,04,00,000,36,03,00,000,38,05,00,000,41,15,00,000,39*66
---00000032--- Acq_st=3 0  2019-4-9 6:36:14 
[00]  03(G04)  f 44  7  0   -504.2  2046000.6 -0.0  2 0 1862 2713 1110
[01]  06(G07)  f 36  7  0  -3345.6  2046004.3 -0.1  2 0  666 1175  858
[02]  08(G09)  f 45  7  0    588.7  2045999.2  0.0  2 0 1793 3071 1654
[03]  22(G23)  f 43  7  0   1843.1  2045997.6 -0.0  2 0 1288 2369 1053
[04]  27(G28)  f 39  7  0  -2827.4  2046003.6  0.0  2 0  642 1798  894
[05]  29(G30)  f 41  7  0  -4280.9  2046005.6  0.2  2 0  916 1767  677
[16]  38(B02) 1f 36 28  0  -1065.3  4092002.7 -0.8  2 0 1138 1177  822
[18]  45(B09) 1f 41  7  0    701.4  4091998.1 -0.0  2 0 1363  919  442
[19]  46(B10) 1f 36  7  0  -1305.0  4092003.3 -0.1  2 0  807  812  171
[20]  52(B16) 1f 37  7  0    694.3  4091998.0 -0.4  2 0  983  827  237
[21]  58(B22) 1f 41  7  0    897.0  4091997.5  0.0  2 0  933 1287  591
[22]  65(B29) 1f 43  7  0  -2841.1  4092007.3  0.0  2 0 1505 1442  680
[32]  75(N-6) 8f 37  7  0   1272.6  1021999.2 -0.3  2 0   574 1000  284
[33]  76(N-5) 8f 37  7  0   2099.4  1021998.7  0.0  2 0   384  789  455
[34]  77(N-4)  f 33  7  0  -5169.7  1022003.2  0.0  5 0   432  626  452
[35]  80(N-1) 8f 41  7  0   -954.8  1022000.6  0.2  2 0   496  942  432
[36]  81(N00) 8f 39 15  0  -4053.5  1022002.6 -0.1  2 0   214  677  507
[48]  38(B02)  7 19 10  0  -1214.3 20460020.8  0.0  2 0   16  754  503
[51]  46(B10)  1  7  7  0   -407.3 20460020.0 -0.1  1 0  392  323   41
[52]  52(B16)  1  7  7  0    -26.8 20459989.0 -0.0  1 0  663  303  326
[53]  58(B22)  1  7  7  0    -71.3 20459985.9  0.0  1 0  533  179  427
[54]  65(B29)  1  7  7  0  -2679.2 20460046.4 -0.0  1 0  460  252   41
$GNGGA,063614.255,,,,,0,00,,,M,,,,0000*2F
$GNRMC,063614.255,A,,,,,,,090419,,*27
$GPGSA,A,1,,,,,,,,,,,,,,,*1E
$BDGSA,A,1,,,,,,,,,,,,,,,*0F
$GLGSA,A,1,,,,,,,,,,,,,,,*02
$GPGSV,2,1,06,04,00,000,44,07,00,000,36,09,00,000,45,23,00,000,43*74
$GPGSV,2,2,06,28,00,000,39,30,00,000,41*79
$BDGSV,2,1,06,02,00,000,36,09,00,000,41,10,00,000,36,16,00,000,37*61
$BDGSV,2,2,06,22,00,000,41,29,00,000,43*67
$B3CN0,0,19,0,0,0,0,0,0,0,0,0,0,0,0*74
$GLGSV,1,1,04,04,00,000,37,03,00,000,37,05,00,000,41,15,00,000,39*68
---00000033--- Acq_st=3 0  2019-4-9 6:36:15 
[00]  03(G04)  f 44  7  0   -510.9  2046000.6  0.0  2 0 1273 2128 1125
[01]  06(G07)  f 36  7  0  -3349.9  2046004.4 -0.0  2 0  919 1004   49
[02]  08(G09)  f 44  7  0    584.3  2045999.2 -0.0  2 0 2553 3594 1814
[03]  22(G23)  f 43  7  0   1837.2  2045997.6  0.1  2 0 1163 1918 1048
[04]  27(G28)  f 39  7  0  -2825.3  2046003.6  0.2  2 0 1100 1111  484
[05]  29(G30)  f 40  8  0  -4283.2  2046005.5  0.0  2 0 1309 1742 1050
[16]  38(B02) 1f 37 24  0  -1068.4  4092002.7  0.9  2 0  653  897  611
[18]  45(B09) 1f 41  7  0    706.4  4091998.1  0.2  2 0  839  836  178
[19]  46(B10) 1f 36  7  0  -1307.1  4092003.3  0.1  2 0  881  596  373
[20]  52(B16) 1f 37  7  0    695.7  4091998.0 -0.0  2 0  989 1257  425
[21]  58(B22) 1f 41  7  0    893.3  4091997.6 -0.0  2 0 1472 1933  823
[22]  65(B29) 1f 43  7  0  -2847.8  4092007.3  0.0  2 0 1272 2084 1105
[32]  75(N-6) 8f 35 16  0   1262.8  1021999.3  0.0  2 0   580  895  435
[33]  76(N-5) 8f 37  7  0   2097.8  1021998.7  0.0  2 0   482 1018  488
[34]  77(N-4)  f 34  7  0  -5173.0  1022003.3 -0.0  5 0   166  483  231
[35]  80(N-1) 8f 41  7  0   -957.0  1022000.6  0.3  2 0   486  939  310
[36]  81(N00) 8f 39 19  0  -4054.8  1022002.6  0.4  2 0   371  911  425
[48]  38(B02)  7 10 21  1  -1176.7 20460017.5 -0.1  2 0  237  100  426
[50]  45(B09)  1  7  7  0     73.6 20459988.1  0.2  1 0  580  638  158
[51]  46(B10)  1  7  7  0   -609.9 20460022.0  0.1  1 0  524  561 1069
[52]  52(B16)  1  7  7  0    660.4 20459990.3  0.2  1 0  718  530  426
[53]  58(B22)  1  7  7  0   -339.0 20459986.5 -0.2  1 0  230  460  731
[54]  65(B29)  1  7  7  0  -3222.3 20460047.3  0.0  1 0  442  245  569
$GNGGA,063615.255,,,,,0,00,,,M,,,,0000*2E
$GNRMC,063615.255,A,,,,,,,090419,,*26
$GPGSA,A,1,,,,,,,,,,,,,,,*1E
$BDGSA,A,1,,,,,,,,,,,,,,,*0F
$GLGSA,A,1,,,,,,,,,,,,,,,*02
$GPGSV,2,1,06,04,00,000,44,07,00,000,36,09,00,000,44,23,00,000,43*75
$GPGSV,2,2,06,28,00,000,39,30,00,000,40*78
$BDGSV,2,1,06,02,00,000,37,09,00,000,41,10,00,000,36,16,00,000,37*60
$BDGSV,2,2,06,22,00,000,41,29,00,000,43*67
$B3CN0,0,0,0,0,0,0,0,0,0,0,0,0,0,0*4C
$GLGSV,1,1,04,04,00,000,35,03,00,000,37,05,00,000,41,15,00,000,39*6A
---00000034--- Acq_st=3 0  2019-4-9 6:36:16 
[00]  03(G04)  f 44 10  0   -515.5  2046000.6 -0.0  2 0  979 1907  916
[01]  06(G07)  f 36  7  0  -3357.4  2046004.3  0.2  2 0 1072 1022  722
[02]  08(G09)  f 45  7  0    577.8  2045999.2 -0.0  2 0 2038 3405 1640
[03]  22(G23)  f 43  9  0   1832.3  2045997.6  0.0  2 0 1388 2015 1040
[04]  27(G28)  f 40  7  0  -2834.8  2046003.6 -0.0  2 0 1384 1887 1116
[05]  29(G30)  f 41  7  0  -4290.9  2046005.5 -0.0  2 0 1457 2034  716
[16]  38(B02) 1f 37 27  0  -1079.0  4092002.7  0.4  2 0  741  635  486
[18]  45(B09) 1f 40  7  0    693.8  4091998.1 -0.0  2 0 1146 1466  465
[19]  46(B10) 1f 36  7  0  -1315.6  4092003.3 -0.3  2 0  387  671  339
[20]  52(B16) 1f 37  7  0    689.5  4091998.1 -0.7  2 0 1006  831  243
[21]  58(B22) 1f 41  7  0    885.3  4091997.6  0.0  2 0 1264 1969  992
[22]  65(B29) 1f 43  7  0  -2852.3  4092007.4  0.0  2 0 1661 1975  624
[32]  75(N-6) 8f 36 14  0   1260.6  1021999.2 -0.1  2 0   383  639  496
[33]  76(N-5) 8f 37  7  0   2091.1  1021998.6  0.0  2 0   453  664  308
[34]  77(N-4)  f 34  7  0  -5179.3  1022003.2  0.1  5 0   380  484  226
[35]  80(N-1) 8f 41  7  0   -960.9  1022000.5  0.1  2 0   580 1086  589
[36]  81(N00) 8f 39 17  0  -4063.0  1022002.6 -0.1  2 0   664  979  428
[50]  45(B09)  1  7  7  0   -406.5 20459989.6  0.0  1 0  207  360  337
[51]  46(B10)  1  7  7  0  -1105.3 20460022.2  0.1  1 0  240  316   22
[52]  52(B16)  1  9  7  0     -3.5 20459989.3  0.2  1 0  649  678  406
[53]  58(B22)  1  7  7  0    405.7 20459985.8 -0.1  1 0  653   25  225
[54]  65(B29)  1  7  7  0  -3296.7 20460045.3  0.1  1 0  649  254  512
$GNGGA,063616.255,,,,,0,00,,,M,,,,0000*2D
$GNRMC,063616.255,A,,,,,,,090419,,*25
$GPGSA,A,1,,,,,,,,,,,,,,,*1E
$BDGSA,A,1,,,,,,,,,,,,,,,*0F
$GLGSA,A,1,,,,,,,,,,,,,,,*02
$GPGSV,2,1,06,04,00,000,44,07,00,000,36,09,00,000,45,23,00,000,43*74
$GPGSV,2,2,06,28,00,000,40,30,00,000,41*77
$BDGSV,2,1,06,02,00,000,37,09,00,000,40,10,00,000,36,16,00,000,37*61
$BDGSV,2,2,06,22,00,000,41,29,00,000,43*67
$B3CN0,0,0,0,0,0,0,0,0,0,0,0,0,0,0*4C
$GLGSV,1,1,04,04,00,000,36,03,00,000,37,05,00,000,41,15,00,000,39*69
---00000035--- Acq_st=3 0  2019-4-9 6:36:17 
[00]  03(G04)  f 43  7  0   -508.1  2046000.6 -0.0  2 0 1489 2955 1623
[01]  06(G07)  f 37  7  0  -3349.8  2046004.3 -0.1  2 0  868  915  226
[02]  08(G09)  f 45 12  0    585.2  2045999.2  0.0  2 0 1638 3213 1398
[03]  22(G23)  f 43  7  0   1838.7  2045997.6 -0.0  2 0 1031 1884  867
[04]  27(G28)  f 40  7  0  -2830.1  2046003.7  0.2  2 0  508 1175  465
[05]  29(G30)  f 42  7  0  -4289.2  2046005.4  0.0  2 0 1773 2407 1243
[16]  38(B02) 1f 36 28  0  -1075.4  4092002.7  0.7  2 0 1070  825   81
[18]  45(B09) 1f 40  7  0    700.1  4091998.0 -0.1  2 0  893 1254  856
[19]  46(B10) 1f 36  7  0  -1307.4  4092003.3  0.0  2 0  237  435  352
[20]  52(B16) 1f 37  7  0    685.6  4091998.1 -0.2  2 0  456  834  409
[21]  58(B22) 1f 41  7  0    887.3  4091997.5  0.0  2 0 1382 1975  865
[22]  65(B29) 1f 43  7  0  -2848.2  4092007.3 -0.1  2 0 1706 1456  858
[32]  75(N-6) 8f 37 14  0   1264.7  1021999.1  0.0  2 0   657  766  131
[33]  76(N-5) 8f 37  7  0   2096.6  1021998.6 -0.0  2 0   379  865  456
[34]  77(N-4)  f 31  7  0  -5172.6  1022003.3  0.0  5 0   539  534  243
[35]  80(N-1) 8f 40  7  0   -956.1  1022000.6  0.3  2 0   612 1036  419
[36]  81(N00) 8f 40 14  0  -4056.1  1022002.5  0.0  2 0   544 1093  557
[48]  38(B02)  1 10 19  1   -701.6 20460016.7 -0.0  1 0  777  458  904
[50]  45(B09)  1  7  7  0   -940.8 20459989.4 -0.0  1 0   48  192  689
[54]  65(B29)  1  8  7  0  -2703.6 20460046.6  0.1  1 0  322  388  124
$GNGGA,063617.255,,,,,0,00,,,M,,,,0000*2C
$GNRMC,063617.255,A,,,,,,,090419,,*24
$GPGSA,A,1,,,,,,,,,,,,,,,*1E
$BDGSA,A,1,,,,,,,,,,,,,,,*0F
$GLGSA,A,1,,,,,,,,,,,,,,,*02
$GPGSV,2,1,06,04,00,000,43,07,00,000,37,09,00,000,45,23,00,000,43*72
$GPGSV,2,2,06,28,00,000,40,30,00,000,42*74
$BDGSV,2,1,06,02,00,000,36,09,00,000,40,10,00,000,36,16,00,000,37*60
$BDGSV,2,2,06,22,00,000,41,29,00,000,43*67
$B3CN0,0,0,0,0,0,0,0,0,0,0,0,0,0,0*4C
$GLGSV,1,1,04,04,00,000,37,03,00,000,37,05,00,000,40,15,00,000,40*67
