i=1
Rf R0 Config = ff777073
Rf R1 Config = 00dffbfe
Rf R52 Config = 00dfef00
i=2
Rf R0 Config = 007770f3
Rf R1 Config = 00dfdbfe
Rf R52 Config = 00db4e70
i=3
Rf R0 Config = 007772f3
Rf R1 Config = 00df5bfe
Rf R52 Config = 00de4eb0
i=4
Rf R0 Config = 00777273
Rf R1 Config = 00dffbfe
Rf R52 Config = 00de8e20
SD initialized success
Create debug.log Failed! 3
Start Channel by LuYu
$GNGGA,000000.000,,,,,0,00,,,M,,,,0000*2B
$GNRMC,000000.000,A,,,,,,,060180,,*29
$GPGSA,A,1,,,,,,,,,,,,,,,*1E
$BDGSA,A,1,,,,,,,,,,,,,,,*0F
$GLGSA,A,1,,,,,,,,,,,,,,,*02
$B3CN0,0,0,0,0,0,0,0,0,0,0,0,0,0,0*4C
---00000001--- Acq_st=3 0  2019-4-9 7:37:45 
[00]  03(G04)  1 18 10  0   1152.1  2045998.9  0.2  1 0 1499 2069 1117
[01]  06(G07)  1  7  7  0  -1750.0  2046003.6  0.1  1 0  580 1241 1038
[02]  08(G09)  1  7  7  0   1750.0  2045999.1  0.2  1 0 2052 3284 1720
$GNGGA,000000.000,,,,,0,00,,,M,,,,0000*2B
$GNRMC,000000.000,A,,,,,,,060180,,*29
$GPGSA,A,1,,,,,,,,,,,,,,,*1E
$BDGSA,A,1,,,,,,,,,,,,,,,*0F
$GLGSA,A,1,,,,,,,,,,,,,,,*02
$B3CN0,0,0,0,0,0,0,0,0,0,0,0,0,0,0*4C
---00000002--- Acq_st=3 0  2019-4-9 7:37:46 
[00]  03(G04)  7  8  7  0   1152.5  2045998.5  0.9 10 0 1582 2117 1223
[01]  06(G07)  1 34  7  0  -1592.5  2046001.9  0.9  1 0 1154 1347  747
[02]  08(G09)  1 27  7  0   1623.6  2045997.7  0.6  1 0 1929 2445  814
[03]  16(G17)  1 19  7  0  -3820.3  2046006.6 -0.3  1 0  710 2277 1634
[04]  22(G23)  1  7  7  0   2000.0  2045999.1 -0.1  1 0  247  572 1047
$GNGGA,000000.000,,,,,0,00,,,M,,,,0000*2B
$GNRMC,000000.000,A,,,,,,,060180,,*29
$GPGSA,A,1,,,,,,,,,,,,,,,*1E
$BDGSA,A,1,,,,,,,,,,,,,,,*0F
$GLGSA,A,1,,,,,,,,,,,,,,,*02
$B3CN0,0,0,0,0,0,0,0,0,0,0,0,0,0,0*4C
---00000003--- Acq_st=3 0  2019-4-9 7:37:47 
[00]  03(G04)  7 43  8  0   1153.0  2045998.4  0.0  2 0 1415 1822  586
[01]  06(G07)  7 34  7  0  -1586.8  2046002.0 -0.0  5 0  680  895  740
[02]  08(G09)  7 33  7  0   1623.2  2045997.8  0.3  5 0 1866 2749 1110
[03]  16(G17)  7 14  7  0  -3823.0  2046004.9  1.0 10 0 1459 2195 1275
[04]  22(G23)  1 30  7  0   1860.2  2045997.5  0.7  1 0  464  673  429
[05]  27(G28)  1  7  7  0  -3202.5  2046003.2 -0.0  1 0  332  192  268
[06]  29(G30)  1 27  7  0  -3477.9  2046005.1  0.1  1 0 1331 2764 1311
[16]  38(B02)  1 10 10  1  -1250.0  4092004.5  0.0  1 0  461  458 1082
$GNGGA,000000.000,,,,,0,00,,,M,,,,0000*2B
$GNRMC,000000.000,A,,,,,,,060180,,*29
$GPGSA,A,1,,,,,,,,,,,,,,,*1E
$BDGSA,A,1,,,,,,,,,,,,,,,*0F
$GLGSA,A,1,,,,,,,,,,,,,,,*02
$GPGSV,1,1,03,04,00,000,43,07,00,000,34,09,00,000,33*40
$B3CN0,0,0,0,0,0,0,0,0,0,0,0,0,0,0*4C
---00000004--- Acq_st=3 0  2019-4-9 7:37:48 
[00]  03(G04)  7 43  7  0   1150.7  2045998.4 -0.0  2 0 1880 2510  959
[01]  06(G07)  7 39  7  0  -1583.4  2046001.9 -0.0  2 0 1029  816  471
[02]  08(G09)  7 44  7  0   1626.7  2045997.8  0.1  2 0 1871 3174 1520
[03]  16(G17)  7 43  7  0  -3819.0  2046004.9 -0.0  2 0 1373 2145  795
[04]  22(G23)  7 29  7  0   1859.0  2045997.5  0.2  5 0  822 1060  494
[05]  27(G28)  1  7  7  0  -3637.5  2046003.8 -0.1  1 0  148  303  276
[06]  29(G30)  7 14  7  0  -3477.9  2046004.4  0.9 10 0 1754 2760 1034
[16]  38(B02)  1 26 20  0  -1100.4  4092004.3  0.6  1 0  552  867  750
[17]  41(B05)  1 23 23  0   -963.6  4092003.5  0.1  1 0  339  164  628
[18]  45(B09)  1  7  7  0   1000.0  4091999.6  0.0  1 0  520  541  768
$GNGGA,000000.000,,,,,0,00,,,M,,,,0000*2B
$GNRMC,000000.000,A,,,,,,,060180,,*29
$GPGSA,A,1,,,,,,,,,,,,,,,*1E
$BDGSA,A,1,,,,,,,,,,,,,,,*0F
$GLGSA,A,1,,,,,,,,,,,,,,,*02
$GPGSV,2,1,05,04,00,000,43,07,00,000,39,09,00,000,44,17,00,000,43*79
$GPGSV,2,2,05,23,00,000,29*46
$B3CN0,0,0,0,0,0,0,0,0,0,0,0,0,0,0*4C
---00000005--- Acq_st=3 0  2019-4-9 7:37:49 
[00]  03(G04)  7 42  7  0   1154.6  2045998.4  0.0  2 0 1544 2086 1016
[01]  06(G07)  7 39  7  0  -1581.1  2046002.0 -0.1  2 0 1281 1617  991
[02]  08(G09)  7 44  7  0   1627.0  2045997.8 -0.0  2 0 1485 2366  769
[03]  16(G17)  7 42  7  0  -3820.8  2046004.9 -0.0  2 0 1531 2264 1017
[04]  22(G23)  7 37  7  0   1861.2  2045997.5  0.7  2 0  904  797  225
[05]  27(G28)  1  7  7  0  -3724.6  2046003.7 -0.1  1 0  228   73  597
[06]  29(G30)  7 45  7  0  -3475.5  2046004.4 -0.0  2 0 2046 2920 1032
[16]  38(B02)  7 36 27  0  -1101.3  4092002.6  0.3  2 0  704  116   97
[17]  41(B05)  1 36 10  0   -634.8  4092005.0  0.5  1 0  671  978  567
[18]  45(B09)  1 12  7  0   1178.4  4091998.8  0.2  1 0  976 1131  700
$GNGGA,073750.291,,,,,0,00,,,M,,,,0000*27
$GNRMC,073750.291,A,,,,,,,080180,,*2B
$GPGSA,A,1,,,,,,,,,,,,,,,*1E
$BDGSA,A,1,,,,,,,,,,,,,,,*0F
$GLGSA,A,1,,,,,,,,,,,,,,,*02
$GPGSV,2,1,06,04,00,000,42,07,00,000,39,09,00,000,44,17,00,000,42*7A
$GPGSV,2,2,06,23,00,000,37,30,00,000,45*78
$BDGSV,1,1,01,02,00,000,36*5E
$B3CN0,0,0,0,0,0,0,0,0,0,0,0,0,0,0*4C
---00000006--- Acq_st=3 0  2019-4-9 7:37:50 
[00]  03(G04)  f 43  7  0   1155.3  2045998.4  0.0  2 0 1267 2494  991
[01]  06(G07)  f 40  7  0  -1586.8  2046001.9 -0.0  2 0 1276 1472  340
[02]  08(G09)  f 44  7  0   1627.3  2045997.8  0.1  2 0 1815 2756 1325
[03]  16(G17)  f 42  7  0  -3818.7  2046004.9  0.0  2 0 1450 2163 1023
[04]  22(G23)  f 37  7  0   1853.2  2045997.5  0.1  2 0 1197 1091  321
[05]  27(G28)  1  7 10  0  -4225.7  2046003.7 -0.1  1 0  432  639  221
[06]  29(G30)  7 44  7  0  -3473.4  2046004.5 -0.0  2 0 2391 3446 1657
[16]  38(B02)  f 36 18  0  -1100.5  4092002.7  0.5  2 0  798  713  238
[17]  41(B05)  1 10 10  0   -640.4  4092002.8  0.2  1 0  503  559   98
[18]  45(B09)  1 13  7  0   1198.2  4091997.9  0.3  1 0  319  618  229
[19]  52(B16)  1  7  7  0    416.8  4091999.9  0.1  1 0  522 1207  687
$GNGGA,073751.291,,,,,0,00,,,M,,,,0000*26
$GNRMC,073751.291,A,,,,,,,080180,,*2A
$GPGSA,A,1,,,,,,,,,,,,,,,*1E
$BDGSA,A,1,,,,,,,,,,,,,,,*0F
$GLGSA,A,1,,,,,,,,,,,,,,,*02
$GPGSV,2,1,06,04,00,000,43,07,00,000,40,09,00,000,44,17,00,000,42*75
$GPGSV,2,2,06,23,00,000,37,30,00,000,44*79
$BDGSV,1,1,01,02,00,000,36*5E
$B3CN0,0,0,0,0,0,0,0,0,0,0,0,0,0,0*4C
---00000007--- Acq_st=3 0  2019-4-9 7:37:51 
[00]  03(G04)  f 43  7  0   1156.5  2045998.4 -0.1  2 0 1457 2079 1231
[01]  06(G07)  f 40  7  0  -1581.1  2046002.0  0.0  2 0 1605 1929 1035
[02]  08(G09)  f 44  7  0   1627.3  2045997.8 -0.0  2 0 1886 2499 1191
[03]  16(G17)  f 43  7  0  -3823.4  2046004.9  0.0  2 0 1354 1813  747
[04]  22(G23)  f 36  7  0   1861.3  2045997.5 -0.3  2 0  398 1095  813
[06]  29(G30)  7 44  9  0  -3474.0  2046004.4  0.0  2 0 1403 2317  803
[16]  38(B02) 1f 37 27  0  -1097.8  4092002.8 -0.7  2 0  726  570  259
[17]  41(B05)  1 10 10  0   -612.3  4092003.1  0.0  1 0  321  497  119
[18]  45(B09)  1 16  7  0   1184.4  4091998.1  0.7  1 0  702 1071  782
[19]  52(B16)  7 26  7  0    417.3  4091998.7  0.1 10 0  841  462  197
[20]  62(B26)  1  7  7  0  -4000.0  4092012.4  0.0  1 0  606  638 1119
[48]  38(B02)  1 21 17  1  -1053.7 20460019.5 -0.0  1 0  377  371  428
$GNGGA,073752.291,,,,,0,00,,,M,,,,0000*25
$GNRMC,073752.291,A,,,,,,,080180,,*29
$GPGSA,A,1,,,,,,,,,,,,,,,*1E
$BDGSA,A,1,,,,,,,,,,,,,,,*0F
$GLGSA,A,1,,,,,,,,,,,,,,,*02
$GPGSV,2,1,06,04,00,000,43,07,00,000,40,09,00,000,44,17,00,000,43*74
$GPGSV,2,2,06,23,00,000,36,30,00,000,44*78
$BDGSV,1,1,02,02,00,000,37,16,00,000,26*6F
$B3CN0,0,0,0,0,0,0,0,0,0,0,0,0,0,0*4C
---00000008--- Acq_st=3 0  2019-4-9 7:37:52 
[00]  03(G04)  f 43 10  0   1156.0  2045998.4  0.0  2 0 1451 2324 1022
[01]  06(G07)  f 40  7  0  -1585.6  2046002.0 -0.0  2 0 1294 1412  430
[02]  08(G09)  f 44  7  0   1626.4  2045997.8 -0.0  2 0 1842 3027 1657
[03]  16(G17)  f 43  9  0  -3821.9  2046004.9 -0.0  2 0 1387 2003 1224
[04]  22(G23)  f 35  7  0   1862.3  2045997.5  0.2  2 0  542  627  167
[06]  29(G30)  7 44  7  0  -3475.6  2046004.4 -0.0  2 0 1700 3033 1522
[16]  38(B02) 1f 36 26  0  -1107.2  4092002.8  0.9  2 0  977  957   67
[18]  45(B09)  1 15  7  0   1187.2  4091998.4  0.8  1 0  917  689  197
[19]  52(B16)  7 39  7  0    415.4  4091998.8 -0.3  2 0  614 1089  326
[20]  62(B26)  1  7  7  0  -4070.7  4092010.9  0.2  1 0 1370 1412  636
[21]  65(B29)  1 15  7  0  -1126.0  4092002.6  0.0  1 0  281  752  630
[32]  77(N-4)  1  7  7  0  50892.9  1022002.5 -0.0  1 0    74  320  376
[48]  38(B02)  1 10 10  1  -1347.5 20460019.0 -0.1  1 0  318  251  544
$GNGGA,073753.291,,,,,0,00,,,M,,,,0000*24
$GNRMC,073753.291,A,,,,,,,080180,,*28
$GPGSA,A,1,,,,,,,,,,,,,,,*1E
$BDGSA,A,1,,,,,,,,,,,,,,,*0F
$GLGSA,A,1,,,,,,,,,,,,,,,*02
$GPGSV,2,1,06,04,00,000,43,07,00,000,40,09,00,000,44,17,00,000,43*74
$GPGSV,2,2,06,23,00,000,35,30,00,000,44*7B
$BDGSV,1,1,02,02,00,000,36,16,00,000,39*60
$B3CN0,0,0,0,0,0,0,0,0,0,0,0,0,0,0*4C
---00000009--- Acq_st=7 0  2019-4-9 7:37:53 
[00]  03(G04)  f 43  7  0   1155.7  2045998.4  0.0  2 0 1208 2158 1255
[01]  06(G07)  f 40  7  0  -1584.3  2046002.0 -0.0  2 0 1644 1854  603
[02]  08(G09)  f 44  7  0   1627.3  2045997.8 -0.0  2 0 1658 2599 1389
[03]  16(G17)  f 42  7  0  -3820.4  2046004.9 -0.0  2 0 1463 1515 1206
[04]  22(G23)  f 35  7  0   1857.3  2045997.5 -0.0  2 0  461  368  521
[06]  29(G30)  7 44  7  0  -3474.8  2046004.5  0.0  2 0 1287 2540 1167
[16]  38(B02) 1f 38 23  0  -1099.2  4092002.7 -0.8  2 0 1544 1385  390
[19]  52(B16)  7 38  7  0    418.9  4091998.8  0.1  2 0  863  753  100
[20]  62(B26)  7 35  7  0  -4065.9  4092010.5 -0.0  5 0 1217 1227  333
[21]  65(B29)  1 27  7  0  -1124.3  4092003.5  0.2  1 0  476  366  581
[32]  77(N-4)  1 19 16  0  -2930.8  1022002.9  0.1  1 0   406  272  338
[33]  81(N00)  1 22  7  0  -4387.4  1022003.8  0.2  1 0   625  987  653
[34]  84(N03)  1 23  7  0  -5250.0  1022004.5  0.1  1 0   254  973  684
[48]  38(B02)  f 10 16  0   -775.2 20460013.4  0.0  2 0  313   81  342
$GNGGA,073754.291,,,,,0,00,,,M,,,,0000*23
$GNRMC,073754.291,A,,,,,,,080180,,*2F
$GPGSA,A,1,,,,,,,,,,,,,,,*1E
$BDGSA,A,1,,,,,,,,,,,,,,,*0F
$GLGSA,A,1,,,,,,,,,,,,,,,*02
$GPGSV,2,1,06,04,00,000,43,07,00,000,40,09,00,000,44,17,00,000,42*75
$GPGSV,2,2,06,23,00,000,35,30,00,000,44*7B
$BDGSV,1,1,03,02,00,000,37,16,00,000,38,26,00,000,34*52
$B3CN0,0,0,0,0,0,0,0,0,0,0,0,0,0,0*4C
---00000010--- Acq_st=7 0  2019-4-9 7:37:54 
[00]  03(G04)  f 43  7  0   1157.7  2045998.4  0.0  2 0  750 1790  786
[01]  06(G07)  f 40 12  0  -1581.1  2046002.0  0.0  2 0  854 1292  635
[02]  08(G09)  f 44  7  0   1625.6  2045997.8  0.0  2 0 1681 2969 1339
[03]  16(G17)  f 42  7  0  -3821.5  2046004.9  0.0  2 0 1405 1877 1086
[04]  22(G23)  f 35  7  0   1857.4  2045997.5 -0.1  2 0  460  587  570
[06]  29(G30)  7 43  7  0  -3474.8  2046004.5 -0.0  2 0 1944 2960 1609
[16]  38(B02) 1f 37 28  0  -1098.4  4092002.8 -0.5  2 0  864 1002  737
[19]  52(B16)  7 39  7  0    412.1  4091998.8  0.0  2 0 1211 1295  638
[20]  62(B26)  7 41  7  0  -4061.9  4092010.5  0.1  2 0 1352 1674  661
[21]  65(B29)  7 24  7  0  -1130.9  4092002.9  0.3 10 0  303  166  266
[32]  77(N-4)  1 26  7  0  -3012.7  1022002.9  0.3  1 0   310  502  364
[33]  81(N00)  7 19  7  0  -4385.4  1022002.7  0.9 10 0    75  838  471
[34]  84(N03)  1 29  7  0  -5254.6  1022003.5  0.9  1 0   792 1050  435
[48]  38(B02)  f 10 23  0  -1172.3 20460016.7  0.2  2 0  237  350  115
$GNGGA,073755.291,,,,,0,00,,,M,,,,0000*22
$GNRMC,073755.291,A,,,,,,,080180,,*2E
$GPGSA,A,1,,,,,,,,,,,,,,,*1E
$BDGSA,A,1,,,,,,,,,,,,,,,*0F
$GLGSA,A,1,,,,,,,,,,,,,,,*02
$GPGSV,2,1,06,04,00,000,43,07,00,000,40,09,00,000,44,17,00,000,42*75
$GPGSV,2,2,06,23,00,000,35,30,00,000,43*7C
$BDGSV,1,1,04,02,00,000,36,16,00,000,39,26,00,000,41,29,00,000,24*6A
$B3CN0,0,0,0,0,0,0,0,0,0,0,0,0,0,0*4C
---00000011--- Acq_st=3 0  2019-4-9 7:37:55 
[00]  03(G04)  f 43  7  0   1156.6  2045998.4 -0.1  2 0 1263 2206 1057
[01]  06(G07)  f 39  7  0  -1576.1  2046002.0  0.0  2 0  426 1082  554
[02]  08(G09)  f 45  8  0   1626.9  2045997.8  0.0  2 0 1622 2595  887
[03]  16(G17)  f 42  7  0  -3816.9  2046004.9  0.0  2 0 1137 2035 1173
[04]  22(G23)  f 36  7  0   1853.0  2045997.5 -0.3  2 0  393  749  409
[06]  29(G30)  7 44  7  0  -3469.6  2046004.5  0.0  2 0 1509 2566 1414
[16]  38(B02) 1f 37 23  0  -1100.2  4092002.8  0.8  2 0  485 1090  860
[19]  52(B16)  7 39  7  0    418.0  4091998.7  0.0  2 0  779  588  204
[20]  62(B26)  7 41  7  0  -4062.8  4092010.5  0.0  2 0 1067 1125  372
[21]  65(B29)  7 33  7  0  -1125.9  4092002.9  0.1  5 0  385 1123  651
[32]  77(N-4)  7 30  7  0  -3034.0  1022001.8 -0.0  5 0   305  465  261
[33]  81(N00)  7 41 21  0  -4383.9  1022002.7  0.1  2 0   771 1137  582
[34]  84(N03)  7 37 12  0  -5254.0  1022003.3 -0.0  2 0   215  594  579
[48]  38(B02)  f 22 10  1  -1443.2 20460023.5 -0.0  2 0  534  303  159
$GNGGA,073756.291,,,,,0,00,,,M,,,,0000*21
$GNRMC,073756.291,A,,,,,,,080180,,*2D
$GPGSA,A,1,,,,,,,,,,,,,,,*1E
$BDGSA,A,1,,,,,,,,,,,,,,,*0F
$GLGSA,A,1,,,,,,,,,,,,,,,*02
$GPGSV,2,1,06,04,00,000,43,07,00,000,39,09,00,000,45,17,00,000,42*7A
$GPGSV,2,2,06,23,00,000,36,30,00,000,44*78
$BDGSV,1,1,04,02,00,000,37,16,00,000,39,26,00,000,41,29,00,000,33*6D
$B3CN0,0,23,0,0,0,0,0,0,0,0,0,0,0,0*7D
---00000012--- Acq_st=3 0  2019-4-9 7:37:56 
[00]  03(G04)  f 44  7  0   1156.9  2045998.4  0.0  2 0 1425 2024 1095
[01]  06(G07)  f 39  7  0  -1578.6  2046002.0 -0.2  2 0 1106 1680  392
[02]  08(G09)  f 45  7  0   1627.2  2045997.8 -0.0  2 0 1868 3214 1667
[03]  16(G17)  f 42 10  0  -3820.5  2046004.9  0.1  2 0 1429 2007  899
[04]  22(G23)  f 36  7  0   1855.3  2045997.5 -0.4  2 0  544  684  195
[05]  27(G28)  1  7  7  0  -2750.0  2046004.3  0.0  1 0  409  417 1040
[06]  29(G30)  f 44  7  0  -3470.7  2046004.5  0.0  2 0 1586 2498 1281
[16]  38(B02) 1f 38 26  0  -1101.7  4092002.9 -0.8  2 0 1072 1023  603
[19]  52(B16)  7 39  7  0    418.2  4091998.8 -0.2  2 0  441 1005  778
[20]  62(B26)  7 42  7  0  -4066.2  4092010.5 -0.2  2 0 1349 1725  565
[21]  65(B29)  7 32  7  0  -1122.8  4092003.0  0.0  5 0  618  762  427
[32]  77(N-4)  7 32  7  0  -3033.9  1022001.9 -0.0  5 0   234  244  337
[33]  81(N00)  7 41 14  0  -4383.6  1022002.8 -0.1  2 0   616 1362  650
[34]  84(N03)  7 38  7  0  -5255.2  1022003.3 -0.4  2 0   539 1048  337
[48]  38(B02)  f 10 10  1  -1757.6 20460026.7  0.0  2 0  330  359  705
$GNGGA,073757.291,,,,,0,00,,,M,,,,0000*20
$GNRMC,073757.291,A,,,,,,,090419,,*28
$GPGSA,A,1,,,,,,,,,,,,,,,*1E
$BDGSA,A,1,,,,,,,,,,,,,,,*0F
$GLGSA,A,1,,,,,,,,,,,,,,,*02
$GPGSV,2,1,06,04,00,000,44,07,00,000,39,09,00,000,45,17,00,000,42*7D
$GPGSV,2,2,06,23,00,000,36,30,00,000,44*78
$BDGSV,1,1,04,02,00,000,38,16,00,000,39,26,00,000,42,29,00,000,32*60
$B3CN0,0,16,0,0,0,0,0,0,0,0,0,0,0,0*7B
---00000013--- Acq_st=3 0  2019-4-9 7:37:57 
[00]  03(G04)  f 43  7  0   1159.4  2045998.4 -0.0  2 0  953 2085  682
[01]  06(G07)  f 39  8  0  -1579.0  2046002.0  0.0  2 0  280 1040  651
[02]  08(G09)  f 45  7  0   1626.3  2045997.8  0.0  2 0 1426 2435  953
[03]  16(G17)  f 42  7  0  -3817.4  2046004.9  0.0  2 0 1549 2056  772
[04]  22(G23)  f 37  7  0   1855.2  2045997.5  0.2  2 0  826  576  657
[05]  27(G28)  1 26  7  0  -2806.2  2046005.8  0.5  1 0  870 2173 1567
[06]  29(G30)  f 44  7  0  -3471.5  2046004.5 -0.0  2 0 1086 1922  900
[16]  38(B02) 1f 38 23  0  -1100.4  4092002.7 -0.2  2 0  646  881  339
[17]  41(B05)  1 17 31  1  -1000.0  4092002.4  0.1  1 0  513  118  672
[19]  52(B16)  7 38  7  0    417.9  4091998.8 -0.4  2 0  887 1111  614
[20]  62(B26)  7 42  7  0  -4065.6  4092010.5  0.0  2 0 1233 1829  791
[21]  65(B29)  7 30  7  0  -1136.7  4092003.1 -0.0  5 0   98  506  482
[32]  77(N-4)  7 32  7  0  -3034.5  1022001.9 -0.1  5 0   362  591  455
[33]  81(N00)  7 42 16  0  -4383.1  1022002.8  0.0  2 0  1135 1109  231
[34]  84(N03)  7 37  7  0  -5255.5  1022003.4  0.5  2 0    52  495  307
---00000014--- Acq_st=3 0  2019-4-9 7:37:58 
[00]  03(G04)  f 43  7  0   1155.0  2045998.5  0.0  2 0  798 1722  704
[01]  06(G07)  f 39  7  0  -1582.3  2046002.0  0.1  2 0  790 1187 1037
[02]  08(G09)  f 45  9  0   1626.8  2045997.8  0.0  2 0 1802 3240 1739
[03]  16(G17)  f 42  7  0  -3820.7  2046004.9 -0.1  2 0 1224 1728  694
[04]  22(G23)  f 37  7  0   1865.1  2045997.5 -0.1  2 0  575  914  552
[05]  27(G28)  7 29  7  0  -2804.0  2046003.5  0.4 10 0 1828 1999  507
[06]  29(G30)  f 43  7  0  -3473.2  2046004.5  0.0  2 0 1587 2169  743
[16]  38(B02) 1f 37 25  0  -1100.9  4092002.9 -0.1  2 0  380  808  430
[17]  41(B05)  1 17 16  1  -1301.4  4092002.5 -0.0  1 0  288  505  217
[18]  45(B09)  1  7  7  0    682.0  4091998.4 -0.1  1 0  535  933  273
[19]  52(B16) 1f 38  7  0    415.4  4091998.7  0.2  2 0 1513  966  472
[20]  62(B26) 1f 42  7  0  -4065.9  4092010.5  0.0  2 0 1308 1676  296
[21]  65(B29) 1f 29  7  0  -1128.7  4092003.2  0.1  5 0  766  690  664
[32]  77(N-4)  f 27  7  0  -3032.8  1022001.7 -0.1 10 0   780  682  375
[33]  81(N00)  f 29  7  0  -4384.8  1022002.7  0.0  5 0  1039 1193  557
[34]  84(N03)  f 29  7  0  -5252.7  1022003.3  0.7  5 0   419  396  214
[48]  38(B02)  1 18 10  0  -1177.2 20460020.2 -0.0  1 0   86  287  330
$GNGGA,073758.291,,,,,0,00,,,M,,,,0000*2F
$GNRMC,073758.291,A,,,,,,,090419,,*27
$GPGSA,A,1,,,,,,,,,,,,,,,*1E
$BDGSA,A,1,,,,,,,,,,,,,,,*0F
$GLGSA,A,1,,,,,,,,,,,,,,,*02
$GPGSV,2,1,07,04,00,000,43,07,00,000,39,09,00,000,45,17,00,000,42*7B
$GPGSV,2,2,07,23,00,000,37,28,00,000,29,30,00,000,43*4E
$BDGSV,1,1,04,02,00,000,37,16,00,000,38,26,00,000,42,29,00,000,29*64
$B3CN0,0,0,0,0,0,0,0,0,0,0,0,0,0,0*4C
---00000015--- Acq_st=3 0  2019-4-9 7:37:59 
[00]  03(G04)  f 43  7  0   1155.0  2045998.5 -0.1  2 0 1563 1960  772
[01]  06(G07)  f 40  7  0  -1583.1  2046002.0 -0.1  2 0  738 1157  834
[02]  08(G09)  f 44  7  0   1625.8  2045997.9 -0.1  2 0 1465 2378 1485
[03]  16(G17)  f 42  7  0  -3822.3  2046004.9  0.0  2 0 1274 1720  503
[04]  22(G23)  f 37  7  0   1859.8  2045997.6 -0.5  2 0  831 1077  387
[05]  27(G28)  7 43  7  0  -2807.6  2046003.5 -0.0  2 0 1358 2485 1469
[06]  29(G30)  f 43  7  0  -3472.4  2046004.5 -0.0  2 0 1333 2566 1075
[16]  38(B02) 1f 37 27  0  -1098.2  4092002.7  0.7  2 0  525  904  382
[17]  41(B05)  1 10 10  1  -1678.3  4092004.2 -0.1  1 0  631  474  956
[18]  45(B09)  1  7  7  0    680.9  4091997.7  0.2  1 0  807 1275  795
[19]  52(B16) 1f 38  8  0    413.9  4091998.8  0.1  2 0  640  939  110
[20]  62(B26) 1f 42  7  0  -4063.8  4092010.5  0.0  2 0 1327 1498  352
[21]  65(B29) 1f 28  7  0  -1131.5  4092003.1 -0.0  5 0  201  345  950
[22]  49(B13)  1  7  7  0  -2582.4  4092008.3 -0.1  1 0  218  338  522
[32]  77(N-4)  f 33  7  0  -3030.9  1022001.8 -0.0  5 0   778  708  417
[33]  81(N00)  f 43 17  0  -4383.8  1022002.8  0.0  2 0   955 1471  661
[34]  84(N03)  f 39  7  0  -5252.1  1022003.3 -0.1  2 0   444 1253  751
[48]  38(B02)  1 10 10  0  -1831.4 20460021.8  0.2  1 0  139  634  295
[51]  52(B16)  1  7  9  0   -107.5 20459995.2 -0.2  1 0  270  194  217
[52]  62(B26)  1  8  7  0  -3703.1 20460066.4 -0.1  1 0  267  473  245
$GNGGA,073759.291,,,,,0,00,,,M,,,,0000*2E
$GNRMC,073759.291,A,,,,,,,090419,,*26
$GPGSA,A,1,,,,,,,,,,,,,,,*1E
$BDGSA,A,1,,,,,,,,,,,,,,,*0F
$GLGSA,A,1,,,,,,,,,,,,,,,*02
$GPGSV,2,1,07,04,00,000,43,07,00,000,40,09,00,000,44,17,00,000,42*74
$GPGSV,2,2,07,23,00,000,37,28,00,000,43,30,00,000,43*42
$BDGSV,1,1,04,02,00,000,37,16,00,000,38,26,00,000,42,29,00,000,28*65
$B3CN0,0,0,0,0,0,0,0,0,0,0,0,0,0,0*4C
---00000016--- Acq_st=3 0  2019-4-9 7:38:0 
[00]  03(G04)  f 43  7  0   1158.3  2045998.4  0.1  2 0 1328 1936  561
[01]  06(G07)  f 39  7  0  -1578.4  2046002.0  0.0  2 0  682 1234  723
[02]  08(G09)  f 45  7  0   1626.2  2045997.8 -0.0  2 0 1638 2472  882
[03]  16(G17)  f 42  7  0  -3824.0  2046004.9 -0.0  2 0  942 1226  846
[04]  22(G23)  f 37  7  0   1856.5  2045997.5  0.3  2 0  657 1032  574
[05]  27(G28)  7 43  7  0  -2802.8  2046003.5 -0.0  2 0 1984 2198  817
[06]  29(G30)  f 43  7  0  -3473.8  2046004.4  0.0  2 0  923 1397  502
[16]  38(B02) 1f 37 23  0  -1099.3  4092002.7  0.9  2 0  718  405  285
[17]  41(B05)  1 10 10  1  -1615.5  4092004.8 -0.0  1 0  689  289  671
[18]  45(B09)  7 37  7  0    680.4  4091998.1  0.4  2 0  894 1198  648
[19]  52(B16) 1f 38 11  0    409.4  4091998.8 -0.3  2 0  860  853  484
[20]  62(B26) 1f 42  7  0  -4061.9  4092010.5 -0.0  2 0 1358 2046 1067
[21]  65(B29) 1f 27  7  0  -1126.2  4092003.1  0.1  5 0  633  334  412
[22]  49(B13)  7 24  7  0  -2530.0  4092006.7  0.2 10 0  629 1089 1001
[32]  77(N-4)  f 33  7  0  -3030.1  1022001.8  0.1  5 0   541  387  291
[33]  81(N00)  f 43 10  0  -4385.2  1022002.8  0.0  2 0   947 1560  669
[34]  84(N03)  f 40  7  0  -5253.1  1022003.3  0.5  2 0   760 1183  705
[48]  38(B02)  1 19 10  1  -1519.7 20460019.7 -0.1  1 0  853  381  259
[51]  52(B16)  1  7  7  0   -375.2 20459994.3 -0.0  1 0  278  409  364
[52]  62(B26)  1  7  7  0  -3526.0 20460063.2 -0.0  1 0  479  927  678
$GNGGA,073800.291,,,,,0,00,,,M,,,,0000*2D
$GNRMC,073800.291,A,,,,,,,090419,,*25
$GPGSA,A,1,,,,,,,,,,,,,,,*1E
$BDGSA,A,1,,,,,,,,,,,,,,,*0F
$GLGSA,A,1,,,,,,,,,,,,,,,*02
$GPGSV,2,1,07,04,00,000,43,07,00,000,39,09,00,000,45,17,00,000,42*7B
$GPGSV,2,2,07,23,00,000,37,28,00,000,43,30,00,000,43*42
$BDGSV,2,1,06,02,00,000,37,09,00,000,37,16,00,000,38,26,00,000,42*68
$BDGSV,2,2,06,29,00,000,27,13,00,000,24*64
$B3CN0,0,0,0,0,0,0,0,0,0,0,0,0,0,0*4C
---00000017--- Acq_st=3 0  2019-4-9 7:38:1 
[00]  03(G04)  f 43  7  0   1158.6  2045998.4  0.0  2 0 1230 1934  503
[01]  06(G07)  f 39 10  0  -1582.6  2046002.0  0.0  2 0  675  990  854
[02]  08(G09)  f 44  7  0   1628.3  2045997.9  0.0  2 0 2020 2965 1249
[03]  16(G17)  f 42  7  0  -3817.8  2046004.9 -0.0  2 0 1227 1430  912
[04]  22(G23)  f 37  7  0   1858.7  2045997.6  0.4  2 0  311  731  868
[05]  27(G28)  7 43  7  0  -2804.0  2046003.5 -0.0  2 0 1556 2677 1187
[06]  29(G30)  f 43  7  0  -3474.8  2046004.4 -0.0  2 0 1620 2744  798
[16]  38(B02) 1f 37 28  0  -1104.4  4092002.8 -0.9  2 0  841 1199  602
[17]  41(B05)  1 10 10  1  -1690.2  4092005.6  0.0  1 0  561  473  219
[18]  45(B09)  7 39  7  0    681.0  4091998.1 -0.2  2 0  670 1390 1158
[19]  52(B16) 1f 38  7  0    424.2  4091998.7  0.5  2 0  619 1051  704
[20]  62(B26) 1f 41  7  0  -4066.3  4092010.5 -0.1  2 0 1616 1685  703
[21]  65(B29) 1f 27  7  0  -1127.4  4092003.1 -0.0  5 0  516  269  266
[22]  49(B13)  7 40  7  0  -2535.4  4092006.6  0.1  2 0  496 1008  358
[32]  77(N-4)  f 35  7  0  -3031.3  1022001.9 -0.1  2 0   674  624  535
[33]  81(N00)  f 43 17  0  -4383.4  1022002.8 -0.1  2 0  1173 1656  579
[34]  84(N03)  f 40  7  0  -5252.2  1022003.3 -0.1  2 0   567  644  530
[48]  38(B02)  1 10 10  1  -1445.5 20460021.0 -0.1  1 0  305  776  914
[51]  52(B16)  1  7  7  0   -760.2 20459993.6  0.1  1 0  340  627  689
[52]  62(B26)  1  7  7  0  -3037.2 20460065.6 -0.0  1 0  271  595  477
$GNGGA,073801.291,,,,,0,00,,,M,,,,0000*2C
$GNRMC,073801.291,A,,,,,,,090419,,*24
$GPGSA,A,1,,,,,,,,,,,,,,,*1E
$BDGSA,A,1,,,,,,,,,,,,,,,*0F
$GLGSA,A,1,,,,,,,,,,,,,,,*02
$GPGSV,2,1,07,04,00,000,43,07,00,000,39,09,00,000,44,17,00,000,42*7A
$GPGSV,2,2,07,23,00,000,37,28,00,000,43,30,00,000,43*42
$BDGSV,2,1,06,02,00,000,37,09,00,000,39,16,00,000,38,26,00,000,41*65
$BDGSV,2,2,06,29,00,000,27,13,00,000,40*66
$B3CN0,0,0,0,0,0,0,0,0,0,0,0,0,0,0*4C
---00000018--- Acq_st=7 0  2019-4-9 7:38:2 
[00]  03(G04)  f 43  8  0   1158.7  2045998.4 -0.1  2 0 1463 2317 1303
[01]  06(G07)  f 39  7  0  -1576.6  2046002.0  0.0  2 0  854 1171  708
[02]  08(G09)  f 44  7  0   1625.4  2045997.8 -0.0  2 0 1227 2560 1429
[03]  16(G17)  f 42  7  0  -3815.5  2046004.9 -0.0  2 0 1249 1830  805
[04]  22(G23)  f 37  7  0   1854.2  2045997.5 -0.3  2 0  659  795  372
[05]  27(G28)  f 43  7  0  -2803.9  2046003.5  0.0  2 0 1833 2073  518
[06]  29(G30)  f 44 10  0  -3468.3  2046004.4 -0.1  2 0 1806 2192  866
[16]  38(B02) 1f 38 27  0  -1104.4  4092002.8  0.5  2 0  723 1036  405
[18]  45(B09)  7 39 10  0    678.9  4091998.1  0.1  2 0 1001 1583  641
[19]  52(B16) 1f 37  9  0    419.5  4091998.8 -0.2  2 0  713  864  441
[20]  62(B26) 1f 41  7  0  -4058.7  4092010.5 -0.0  2 0 1359 2121 1330
[21]  65(B29) 1f 29  7  0  -1117.8  4092003.1 -0.0  5 0  429   88  812
[22]  49(B13)  7 40 10  0  -2531.2  4092006.6  0.1  2 0 1318 1814  992
[32]  77(N-4) 8f 36  7  0  -3025.6  1022001.8 -0.0  2 0   443  211  377
[33]  81(N00) 8f 42  7  0  -4383.5  1022002.8 -0.0  2 0    87  980  557
[34]  84(N03) 8f 40  7  0  -5250.7  1022003.3 -0.1  2 0   437  875  167
[51]  52(B16)  1  7  7  0   -489.1 20459995.1  0.1  1 0  210  174  131
[52]  62(B26)  1  8  7  0  -3183.0 20460064.3  0.1  1 0  223   69  576
$GNGGA,073802.291,,,,,0,00,,,M,,,,0000*2F
$GNRMC,073802.291,A,,,,,,,090419,,*27
$GPGSA,A,1,,,,,,,,,,,,,,,*1E
$BDGSA,A,1,,,,,,,,,,,,,,,*0F
$GLGSA,A,1,,,,,,,,,,,,,,,*02
$GPGSV,2,1,07,04,00,000,43,07,00,000,39,09,00,000,44,17,00,000,42*7A
$GPGSV,2,2,07,23,00,000,37,28,00,000,43,30,00,000,44*45
$BDGSV,2,1,06,02,00,000,38,09,00,000,39,16,00,000,37,26,00,000,41*65
$BDGSV,2,2,06,29,00,000,29,13,00,000,40*68
$B3CN0,0,0,0,0,0,0,0,0,0,0,0,0,0,0*4C
---00000019--- Acq_st=7 0  2019-4-9 7:38:3 
[00]  03(G04)  f 43  8  0   1157.5  2045998.4  0.0  2 0 1277 2127 1137
[01]  06(G07)  f 38  7  0  -1578.0  2046002.1  0.0  2 0  245 1093  543
[02]  08(G09)  f 44  7  0   1622.4  2045997.9  0.1  2 0 1604 2384  891
[03]  16(G17)  f 42  7  0  -3824.2  2046004.8 -0.1  2 0 1136 1751  877
[04]  22(G23)  f 37  7  0   1857.7  2045997.5 -0.2  2 0  639 1120  529
[05]  27(G28)  f 43  7  0  -2803.8  2046003.5  0.0  2 0 1701 2196  943
[06]  29(G30)  f 44  7  0  -3472.0  2046004.4  0.0  2 0 2046 2422  830
[16]  38(B02) 1f 37 24  0  -1109.9  4092002.8  0.9  2 0  352  529  348
[18]  45(B09)  7 39  7  0    677.2  4091998.1  0.1  2 0  954 1124  802
[19]  52(B16) 1f 38  7  0    413.6  4091998.8 -0.0  2 0  769  936  442
[20]  62(B26) 1f 42  7  0  -4066.7  4092010.5 -0.0  2 0 1220 1789  923
[21]  65(B29) 1f 32  7  0  -1122.1  4092003.2 -0.1  5 0   53  729 1175
[22]  49(B13)  7 40 11  0  -2535.5  4092006.5  0.1  2 0  864 1328  797
[32]  77(N-4) 8f 36  7  0  -3027.8  1022001.9 -0.1  2 0   426  689  418
[33]  81(N00) 8f 40 17  0  -4386.7  1022002.9  0.3  2 0   212  406  577
[34]  84(N03) 8f 40  7  0  -5253.4  1022003.3 -0.1  2 0   583  975  564
[48]  38(B02)  1 22 18  0   -861.3 20460015.1  0.1  1 0  522  249  120
$GNGGA,073803.291,,,,,0,00,,,M,,,,0000*2E
$GNRMC,073803.291,A,,,,,,,090419,,*26
$GPGSA,A,1,,,,,,,,,,,,,,,*1E
$BDGSA,A,1,,,,,,,,,,,,,,,*0F
$GLGSA,A,1,,,,,,,,,,,,,,,*02
$GPGSV,2,1,07,04,00,000,43,07,00,000,38,09,00,000,44,17,00,000,42*7B
$GPGSV,2,2,07,23,00,000,37,28,00,000,43,30,00,000,44*45
$BDGSV,2,1,06,02,00,000,37,09,00,000,39,16,00,000,38,26,00,000,42*66
$BDGSV,2,2,06,29,00,000,32,13,00,000,40*62
$B3CN0,0,0,0,0,0,0,0,0,0,0,0,0,0,0*4C
---00000020--- Acq_st=3 0  2019-4-9 7:38:4 
[00]  03(G04)  f 43  7  0   1154.9  2045998.4  0.0  2 0 1615 2398 1505
[01]  06(G07)  f 37  7  0  -1582.2  2046002.1  0.2  2 0  295 1340  901
[02]  08(G09)  f 43  7  0   1624.7  2045997.8 -0.0  2 0 1909 2831 1310
[03]  16(G17)  f 42  7  0  -3822.2  2046004.9  0.0  2 0 1246 2257 1143
[04]  22(G23)  f 38  7  0   1849.3  2045997.5 -0.3  2 0   69  597  436
[05]  27(G28)  f 43  7  0  -2806.1  2046003.6  0.0  2 0 1702 2150  851
[06]  29(G30)  f 44  7  0  -3470.5  2046004.4  0.0  2 0 1404 2391  610
[16]  38(B02) 1f 37 25  0  -1099.7  4092002.6 -0.3  2 0  644 1196  581
[18]  45(B09) 1f 39  8  0    681.2  4091998.1 -0.2  2 0  692 1195  765
[19]  52(B16) 1f 38  9  0    408.8  4091998.8  0.1  2 0   94  568  576
[20]  62(B26) 1f 42  7  0  -4068.7  4092010.5  0.1  2 0  940 1862 1174
[21]  65(B29) 1f 35  7  0  -1115.7  4092003.1  0.1  2 0  272  614  509
[22]  49(B13) 1f 40  7  0  -2533.4  4092006.5  0.0  2 0  746 1283  556
[32]  77(N-4) 8f 37  7  0  -3023.7  1022001.9 -0.2  2 0   421  955  433
[33]  81(N00) 8f 38  7  0  -4390.7  1022002.9 -0.4  2 0   644 1043  399
[34]  84(N03) 8f 41  7  0  -5253.8  1022003.3  0.1  2 0   859 1243  588
[48]  38(B02)  f 10 10  0   -849.5 20460013.6  0.1  2 0  273  361  515
[51]  52(B16)  1  8  7  0    543.0 20459993.4 -0.1  1 0  585  638  222
[52]  62(B26)  1  7  7  0  -2749.8 20460065.1  0.1  1 0  258  222  168
$GNGGA,073804.291,,,,,0,00,,,M,,,,0000*29
$GNRMC,073804.291,A,,,,,,,090419,,*21
$GPGSA,A,1,,,,,,,,,,,,,,,*1E
$BDGSA,A,1,,,,,,,,,,,,,,,*0F
$GLGSA,A,1,,,,,,,,,,,,,,,*02
$GPGSV,2,1,07,04,00,000,43,07,00,000,37,09,00,000,43,17,00,000,42*73
$GPGSV,2,2,07,23,00,000,38,28,00,000,43,30,00,000,44*4A
$BDGSV,2,1,06,02,00,000,37,09,00,000,39,16,00,000,38,26,00,000,42*66
$BDGSV,2,2,06,29,00,000,35,13,00,000,40*65
$B3CN0,0,0,0,0,0,0,0,0,0,0,0,0,0,0*4C
---00000021--- Acq_st=3 0  2019-4-9 7:38:5 
[00]  03(G04)  f 43  9  0   1156.7  2045998.4 -0.1  2 0 1291 2277  783
[01]  06(G07)  f 37  7  0  -1583.5  2046002.0 -0.1  2 0  892 1059  165
[02]  08(G09)  f 43  7  0   1623.5  2045997.8 -0.0  2 0 1478 2615 1225
[03]  16(G17)  f 42  7  0  -3822.4  2046004.9  0.1  2 0 1563 2026  854
[04]  22(G23)  f 37  7  0   1854.7  2045997.5 -0.1  2 0  675  394  384
[05]  27(G28)  f 43  7  0  -2805.3  2046003.6 -0.0  2 0 1092 2222 1245
[06]  29(G30)  f 44  7  0  -3472.9  2046004.4 -0.0  2 0 2415 3533 1654
[16]  38(B02) 1f 39 16  0  -1101.5  4092002.8 -0.7  2 0  600  691  193
[18]  45(B09) 1f 39  7  0    681.3  4091998.1 -0.0  2 0  896 1402 1103
[19]  52(B16) 1f 38  8  0    407.1  4091998.8 -0.0  2 0 1116  756  174
[20]  62(B26) 1f 42  7  0  -4069.0  4092010.5 -0.1  2 0  739 1261  449
[21]  65(B29) 1f 37  7  0  -1124.2  4092003.0 -0.2  2 0  591  617  177
[22]  49(B13) 1f 40  7  0  -2535.8  4092006.6  0.0  2 0  766 1161  361
[32]  77(N-4) 8f 37  7  0  -3027.3  1022001.9  0.1  2 0   178  590  481
[33]  81(N00) 8f 39 16  0  -4389.0  1022002.8  0.5  2 0   565  821  543
[34]  84(N03) 8f 41  7  0  -5251.1  1022003.3 -0.1  2 0   919 1499  832
[48]  38(B02)  f 10 10  1  -1505.2 20460023.6  0.1  2 0   82  369  664
[50]  45(B09)  1  7  7  0    628.1 20459990.0 -0.1  1 0  388  420  334
[51]  52(B16)  1  7  7  0    549.4 20459994.5 -0.1  1 0  109  309  445
[52]  62(B26)  1  7  7  0  -3013.8 20460065.5  0.1  1 0   28  574  636
[54]  49(B13)  1  7  7  0  -2181.8 20460039.5  0.0  1 0  521  566  325
$GNGGA,073805.291,,,,,0,00,,,M,,,,0000*28
$GNRMC,073805.291,A,,,,,,,090419,,*20
$GPGSA,A,1,,,,,,,,,,,,,,,*1E
$BDGSA,A,1,,,,,,,,,,,,,,,*0F
$GLGSA,A,1,,,,,,,,,,,,,,,*02
$GPGSV,2,1,07,04,00,000,43,07,00,000,37,09,00,000,43,17,00,000,42*73
$GPGSV,2,2,07,23,00,000,37,28,00,000,43,30,00,000,44*45
$BDGSV,2,1,06,02,00,000,39,09,00,000,39,16,00,000,38,26,00,000,42*68
$BDGSV,2,2,06,29,00,000,37,13,00,000,40*67
$B3CN0,0,0,0,0,0,0,0,0,0,0,0,0,0,0*4C
---00000022--- Acq_st=3 0  2019-4-9 7:38:6 
[00]  03(G04)  f 43  7  0   1154.2  2045998.4 -0.1  2 0 1735 2202  610
[01]  06(G07)  f 37  7  0  -1578.0  2046002.1 -0.4  2 0  861  788  352
[02]  08(G09)  f 43  7  0   1623.5  2045997.8 -0.0  2 0 1653 2409 1127
[03]  16(G17)  f 43  7  0  -3820.0  2046004.9  0.0  2 0 1856 2377 1032
[04]  22(G23)  f 37  7  0   1857.6  2045997.5  0.5  2 0  430  961  940
[05]  27(G28)  f 42  7  0  -2805.0  2046003.6 -0.1  2 0 1608 2664  989
[06]  29(G30)  f 44  7  0  -3472.1  2046004.4  0.0  2 0 1602 2791 1513
[16]  38(B02) 1f 37 24  0  -1107.9  4092002.6 -0.8  2 0  606  806   55
[17]  41(B05)  1 30 17  0  -1250.0  4092005.4  0.1  1 0  198  716 1367
[18]  45(B09) 1f 39  8  0    679.6  4091998.1  0.1  2 0  803 1013  509
[19]  52(B16) 1f 38  8  0    412.3  4091998.8  0.3  2 0  901 1144  649
[20]  62(B26) 1f 41  7  0  -4067.8  4092010.6  0.0  2 0 1203 1605  765
[21]  65(B29) 1f 38  7  0  -1119.8  4092002.9  0.0  2 0  251  766  477
[22]  49(B13) 1f 40  7  0  -2530.3  4092006.5  0.2  2 0  548 1299  934
[32]  77(N-4) 8f 37  7  0  -3027.5  1022001.8 -0.0  2 0   505  559  190
[33]  81(N00) 8f 39  7  0  -4387.7  1022002.7  0.3  2 0   888 1002  244
[34]  84(N03) 8f 41  7  0  -5254.4  1022003.3 -0.1  2 0   600 1187  536
[48]  38(B02)  f 14 10  1  -1748.1 20460027.5  0.1  2 0  514  670  653
[50]  45(B09)  1  7  7  0    678.4 20459990.9  0.1  1 0   95  611  172
[51]  52(B16)  1  7  7  0     61.5 20459992.7  0.2  1 0  359  136  237
[52]  62(B26)  1  7  7  0  -2637.7 20460068.0 -0.1  1 0  652  370  211
[53]  65(B29)  1  7  7  0   -919.9 20460019.2  0.1  1 0  528  435  183
[54]  49(B13)  1  7  7  0  -1795.4 20460040.5  0.2  1 0  247  597  491
$GNGGA,073806.291,,,,,0,00,,,M,,,,0000*2B
$GNRMC,073806.291,A,,,,,,,090419,,*23
$GPGSA,A,1,,,,,,,,,,,,,,,*1E
$BDGSA,A,1,,,,,,,,,,,,,,,*0F
$GLGSA,A,1,,,,,,,,,,,,,,,*02
$GPGSV,2,1,07,04,00,000,43,07,00,000,37,09,00,000,43,17,00,000,43*72
$GPGSV,2,2,07,23,00,000,37,28,00,000,42,30,00,000,44*44
$BDGSV,2,1,06,02,00,000,37,09,00,000,39,16,00,000,38,26,00,000,41*65
$BDGSV,2,2,06,29,00,000,38,13,00,000,40*68
$B3CN0,0,16,0,0,0,0,0,0,0,0,0,0,0,0*7B
---00000023--- Acq_st=3 0  2019-4-9 7:38:7 
[00]  03(G04)  f 43  7  0   1154.2  2045998.4  0.0  2 0 1408 1975  705
[01]  06(G07)  f 37  7  0  -1578.8  2046001.9 -0.4  2 0  993 1679 1035
[02]  08(G09)  f 43  7  0   1624.8  2045997.8  0.0  2 0 1725 2722 1378
[03]  16(G17)  f 43  7  0  -3821.0  2046004.9 -0.0  2 0 1416 2123 1145
[04]  22(G23)  f 37  9  0   1856.4  2045997.5  0.2  2 0  563 1241  493
[05]  27(G28)  f 43  7  0  -2810.4  2046003.6  0.0  2 0 1376 2265  986
[06]  29(G30)  f 44  7  0  -3474.8  2046004.5  0.0  2 0 1155 2140  585
[16]  38(B02) 1f 37 26  0  -1104.4  4092002.8  0.2  2 0  816  692  521
[17]  41(B05)  1 39 22  0  -1113.8  4092003.4  1.0  1 0 1052 1544  759
[18]  45(B09) 1f 39 10  0    669.1  4091998.1 -0.1  2 0  919  940  498
[19]  52(B16) 1f 38  8  0    414.8  4091998.8  0.2  2 0  885 1227  501
[20]  62(B26) 1f 41  7  0  -4070.7  4092010.6 -0.0  2 0  752 1140  320
[21]  65(B29) 1f 38  7  0  -1119.4  4092002.9 -0.4  2 0  653 1410  909
[22]  49(B13) 1f 39  7  0  -2530.9  4092006.5 -0.0  2 0 1097 1313  397
[32]  77(N-4) 8f 36  7  0  -3026.7  1022001.9  0.0  2 0   375  719  108
[33]  81(N00) 8f 41 17  0  -4389.1  1022002.7 -0.1  2 0   798 1329  744
[34]  84(N03) 8f 41  7  0  -5253.8  1022003.3 -0.1  2 0   555  743  486
[48]  38(B02)  f 10 10  1  -1772.9 20460028.2 -0.1  2 0  626  725  634
[50]  45(B09)  1  7  7  0    765.1 20459988.8 -0.1  1 0  377  151  243
[51]  52(B16)  1  9  7  0    498.4 20459994.1 -0.1  1 0  683  372  188
[52]  62(B26)  1  7  8  0  -2539.7 20460066.8  0.0  1 0  329  401  244
[53]  65(B29)  1  7  7  0   -782.8 20460018.0 -0.2  1 0  362  843  659
[54]  49(B13)  1  7  7  0  -1506.2 20460039.9  0.1  1 0  489  647  420
$GNGGA,073807.291,,,,,0,00,,,M,,,,0000*2A
$GNRMC,073807.291,A,,,,,,,090419,,*22
$GPGSA,A,1,,,,,,,,,,,,,,,*1E
$BDGSA,A,1,,,,,,,,,,,,,,,*0F
$GLGSA,A,1,,,,,,,,,,,,,,,*02
$GPGSV,2,1,07,04,00,000,43,07,00,000,37,09,00,000,43,17,00,000,43*72
$GPGSV,2,2,07,23,00,000,37,28,00,000,43,30,00,000,44*45
$BDGSV,2,1,06,02,00,000,37,09,00,000,39,16,00,000,38,26,00,000,41*65
$BDGSV,2,2,06,29,00,000,38,13,00,000,39*66
$B3CN0,0,0,0,0,0,0,0,0,0,0,0,0,0,0*4C
---00000024--- Acq_st=3 0  2019-4-9 7:38:8 
[00]  03(G04)  f 43  7  0   1155.7  2045998.4  0.1  2 0 1350 2251  794
[01]  06(G07)  f 38  9  0  -1577.7  2046002.0 -0.5  2 0  603 1212  690
[02]  08(G09)  f 43  7  0   1623.1  2045997.8 -0.0  2 0 1759 3044 1433
[03]  16(G17)  f 43  7  0  -3821.4  2046004.9 -0.0  2 0 1370 2023 1370
[04]  22(G23)  f 36  7  0   1851.7  2045997.5 -0.1  2 0 1551 1678 1003
[05]  27(G28)  f 43  7  0  -2807.0  2046003.6  0.0  2 0 1463 2338 1366
[06]  29(G30)  f 44  7  0  -3470.6  2046004.5  0.0  2 0  872 2121 1164
[16]  38(B02) 1f 38 24  0  -1102.8  4092002.7 -0.7  2 0  949 1033  621
[17]  41(B05)  f 40 24  0  -1111.7  4092002.8 -0.8  2 0  818  640  368
[18]  45(B09) 1f 39  8  0    672.3  4091998.1 -0.0  2 0  653  919  644
[19]  52(B16) 1f 38 13  0    415.0  4091998.7  0.6  2 0  486  459  187
[20]  62(B26) 1f 41  7  0  -4069.6  4092010.5 -0.0  2 0 1345 1150  462
[21]  65(B29) 1f 38  7  0  -1122.7  4092002.9  0.0  2 0  832 1533  841
[22]  49(B13) 1f 40 11  0  -2530.0  4092006.5 -0.1  2 0 1152 1313  735
[32]  77(N-4) 8f 35  7  0  -3029.5  1022002.0 -0.0  2 0   170  624  514
[33]  81(N00) 8f 41  7  0  -4389.6  1022002.7 -0.0  2 0   702 1362  691
[34]  84(N03) 8f 41  7  0  -5252.2  1022003.4 -0.1  2 0   483 1062  617
[50]  45(B09)  1  7  7  0    850.1 20459990.7 -0.2  1 0  336  543  233
[53]  65(B29)  1  7  7  0   -760.3 20460017.2  0.2  1 0  594  143  458
[54]  49(B13)  1  7  7  0   -917.5 20460039.9 -0.1  1 0  408  500  164
$GNGGA,073808.291,,,,,0,00,,,M,,,,0000*25
$GNRMC,073808.291,A,,,,,,,090419,,*2D
$GPGSA,A,1,,,,,,,,,,,,,,,*1E
$BDGSA,A,1,,,,,,,,,,,,,,,*0F
$GLGSA,A,1,,,,,,,,,,,,,,,*02
$GPGSV,2,1,07,04,00,000,43,07,00,000,38,09,00,000,43,17,00,000,43*7D
$GPGSV,2,2,07,23,00,000,36,28,00,000,43,30,00,000,44*44
$BDGSV,2,1,07,02,00,000,38,05,00,000,40,09,00,000,39,16,00,000,38*6B
$BDGSV,2,2,07,26,00,000,41,29,00,000,38,13,00,000,40*58
$B3CN0,0,0,0,0,0,0,0,0,0,0,0,0,0,0*4C
$GLGSV,1,1,03,17,00,000,35,15,00,000,41,18,00,000,41*5B
---00000025--- Acq_st=3 0  2019-4-9 7:38:9 
[00]  03(G04)  f 43  7  0   1156.6  2045998.4 -0.0  2 0 1637 2535 1344
[01]  06(G07)  f 38  7  0  -1575.0  2046002.0 -0.3  2 0  485  914  495
[02]  08(G09)  f 44  7  0   1625.7  2045997.8 -0.0  2 0 1506 2155  968
[03]  16(G17)  f 43  7  0  -3817.5  2046004.9 -0.0  2 0 1566 2183 1048
[04]  22(G23)  f 37  7  0   1848.1  2045997.6  0.4  2 0  504  820  525
[05]  27(G28)  f 42  7  0  -2808.5  2046003.6 -0.1  2 0  726 1699  544
[06]  29(G30)  f 43  7  0  -3470.9  2046004.5 -0.0  2 0 1091 1986 1162
[16]  38(B02) 1f 37 25  0  -1106.9  4092002.9 -0.9  2 0  185  492  462
[17]  41(B05) 1f 40 22  0  -1105.0  4092002.7  0.4  2 0  996 1091  599
[18]  45(B09) 1f 39 11  0    673.9  4091998.1  0.1  2 0 1055  669   44
[19]  52(B16) 1f 38  7  0    411.3  4091998.8  0.3  2 0  536  783  331
[20]  62(B26) 1f 41  7  0  -4069.7  4092010.6  0.0  2 0 1197 1585  536
[21]  65(B29) 1f 38  7  0  -1119.2  4092002.8  0.6  2 0  947  729  275
[22]  49(B13) 1f 39  7  0  -2534.6  4092006.5  0.2  2 0  561  504  243
[32]  77(N-4) 8f 35  7  0  -3026.0  1022001.9 -0.1  2 0   377  451  307
[33]  81(N00) 8f 41 16  0  -4386.6  1022002.7  0.1  2 0   461  983  528
[34]  84(N03) 8f 41  7  0  -5251.0  1022003.3  0.2  2 0   289  970  674
[48]  38(B02)  1 10 16  1   -711.3 20460016.0 -0.0  1 0  575  405  555
[49]  41(B05)  1 24 25  1   -730.7 20460012.4 -0.0  1 0  246  101  268
[51]  52(B16)  1  7  7  0    680.4 20459992.7  0.0  1 0  335  274  169
[52]  62(B26)  1  7  7  0  -3459.9 20460065.4  0.0  1 0  282  573  532
[53]  65(B29)  1  7  7  0   -719.5 20460018.4  0.0  1 0  413  446  420
$GNGGA,073809.291,,,,,0,00,,,M,,,,0000*24
$GNRMC,073809.291,A,,,,,,,090419,,*2C
$GPGSA,A,1,,,,,,,,,,,,,,,*1E
$BDGSA,A,1,,,,,,,,,,,,,,,*0F
$GLGSA,A,1,,,,,,,,,,,,,,,*02
$GPGSV,2,1,07,04,00,000,43,07,00,000,38,09,00,000,44,17,00,000,43*7A
$GPGSV,2,2,07,23,00,000,37,28,00,000,42,30,00,000,43*43
$BDGSV,2,1,07,02,00,000,37,05,00,000,40,09,00,000,39,16,00,000,38*64
$BDGSV,2,2,07,26,00,000,41,29,00,000,38,13,00,000,39*56
$B3CN0,0,0,0,0,0,0,0,0,0,0,0,0,0,0*4C
$GLGSV,1,1,03,17,00,000,35,15,00,000,41,18,00,000,41*5B
---00000026--- Acq_st=2 0  2019-4-9 7:38:10 
[00]  03(G04)  f 43  7  0   1158.3  2045998.4 -0.0  2 0 1535 2106 1054
[01]  06(G07)  f 38  7  0  -1573.3  2046002.0  0.1  2 0  590  930  465
[02]  08(G09)  f 44  7  0   1625.1  2045997.8 -0.0  2 0 1805 2805 1237
[03]  16(G17)  f 42  7  0  -3815.7  2046004.9 -0.0  2 0 1169 2027  881
[04]  22(G23)  f 37  7  0   1863.3  2045997.5  0.5  2 0  476  607  243
[05]  27(G28)  f 43  7  0  -2805.0  2046003.6  0.1  2 0 1771 2544 1409
[06]  29(G30)  f 43  7  0  -3470.3  2046004.5  0.0  2 0 1402 2227 1038
[16]  38(B02) 1f 37 26  0  -1098.6  4092002.7 -0.9  2 0  500  543  506
[17]  41(B05) 1f 40 19  0  -1108.3  4092002.8 -0.4  2 0 1186 1194  470
[18]  45(B09) 1f 38  7  0    679.4  4091998.1 -0.1  2 0 1347 1507  714
[19]  52(B16) 1f 38  7  0    409.7  4091998.8  0.1  2 0  594  724  450
[20]  62(B26) 1f 42  7  0  -4069.9  4092010.5 -0.0  2 0 1089 1438  668
[21]  65(B29) 1f 37  7  0  -1121.1  4092002.8  0.4  2 0  784  840  124
[22]  49(B13) 1f 39  7  0  -2530.7  4092006.5  0.1  2 0  449  966  541
[32]  77(N-4) 8f 35  7  0  -3023.6  1022001.9 -0.0  2 0   826 1010  207
[33]  81(N00) 8f 41 10  0  -4385.5  1022002.7  0.2  2 0   715  971  346
[34]  84(N03) 8f 41  7  0  -5249.3  1022003.3  0.1  2 0   511 1045  407
[48]  38(B02)  f 13 10  1   -613.0 20460009.1  0.1  2 0  168  512  219
[49]  41(B05)  1 25 21  0   -247.3 20460018.6  0.1  1 0  352  513  465
[50]  45(B09)  1  7  7  0    457.1 20459989.9 -0.0  1 0  330  207  602
[51]  52(B16)  1  7  7  0   -249.3 20459994.5  0.0  1 0  179  384  543
[52]  62(B26)  1  7  7  0  -3810.5 20460065.3 -0.2  1 0  437  321  185
[54]  49(B13)  1 10  7  0  -1770.7 20460040.9 -0.1  1 0  415  273  128
$GNGGA,073810.291,,,,,0,00,,,M,,,,0000*2C
$GNRMC,073810.291,A,,,,,,,090419,,*24
$GPGSA,A,1,,,,,,,,,,,,,,,*1E
$BDGSA,A,1,,,,,,,,,,,,,,,*0F
$GLGSA,A,1,,,,,,,,,,,,,,,*02
$GPGSV,2,1,07,04,00,000,43,07,00,000,38,09,00,000,44,17,00,000,42*7B
$GPGSV,2,2,07,23,00,000,37,28,00,000,43,30,00,000,43*42
$BDGSV,2,1,07,02,00,000,37,05,00,000,40,09,00,000,38,16,00,000,38*65
$BDGSV,2,2,07,26,00,000,42,29,00,000,37,13,00,000,39*5A
$B3CN0,0,0,0,0,0,0,0,0,0,0,0,0,0,0*4C
$GLGSV,1,1,03,17,00,000,35,15,00,000,41,18,00,000,41*5B
---00000027--- Acq_st=7 0  2019-4-9 7:38:11 
[00]  03(G04)  f 43  7  0   1158.8  2045998.5  0.0  2 0 1803 2190  827
[01]  06(G07)  f 38  9  0  -1582.6  2046002.0 -0.1  2 0  606  651  856
[02]  08(G09)  f 44  7  0   1626.6  2045997.8  0.0  2 0 1802 2473 1080
[03]  16(G17)  f 42  7  0  -3817.9  2046004.9 -0.1  2 0 1307 1963 1008
[04]  22(G23)  f 37  7  0   1849.3  2045997.6  0.4  2 0  684  861  265
[05]  27(G28)  f 43  7  0  -2805.6  2046003.6 -0.0  2 0 1227 1982  937
[06]  29(G30)  f 43  7  0  -3474.1  2046004.5  0.0  2 0 1136 2202 1278
[16]  38(B02) 1f 38 25  0  -1103.4  4092002.8  0.6  2 0  500  945  735
[17]  41(B05) 1f 40 25  0  -1107.3  4092002.8  0.1  2 0 1173 1524  587
[18]  45(B09) 1f 38  7  0    676.7  4091998.1  0.0  2 0  254 1027  392
[19]  52(B16) 1f 38  7  0    406.3  4091998.8 -0.5  2 0  978  843  325
[20]  62(B26) 1f 42  7  0  -4067.5  4092010.5  0.0  2 0 1439 2118  923
[21]  65(B29) 1f 38  7  0  -1123.0  4092002.8  0.4  2 0  549  948  406
[22]  49(B13) 1f 39  7  0  -2533.1  4092006.5 -0.0  2 0  586  914  583
[32]  77(N-4) 8f 35  7  0  -3023.2  1022001.8 -0.1  2 0   468  495  319
[33]  81(N00) 8f 41 17  0  -4386.5  1022002.7 -0.1  2 0   906 1413  495
[34]  84(N03) 8f 40  7  0  -5253.4  1022003.4 -0.1  2 0   303  633  307
[48]  38(B02)  f 10 10  1   -783.5 20460011.7 -0.2  2 0  476  370  358
[49]  41(B05)  1 17 23  1    -31.8 20460022.4  0.0  1 0  200  505  648
[50]  45(B09)  1 11  7  0    977.4 20459989.9 -0.0  1 0  336  683  379
[51]  52(B16)  1  7  7  0    402.6 20459992.4 -0.0  1 0  555  173  438
[52]  62(B26)  1  7  7  0  -3856.2 20460066.7 -0.0  1 0  714  601  198
[53]  65(B29)  1  7  7  0  -1415.3 20460019.6  0.0  1 0  618  592  450
[54]  49(B13)  1  7  7  0  -1895.5 20460041.3 -0.1  1 0  505  263  406
$GNGGA,073811.291,,,,,0,00,,,M,,,,0000*2D
$GNRMC,073811.291,A,,,,,,,090419,,*25
$GPGSA,A,1,,,,,,,,,,,,,,,*1E
$BDGSA,A,1,,,,,,,,,,,,,,,*0F
$GLGSA,A,1,,,,,,,,,,,,,,,*02
$GPGSV,2,1,07,04,00,000,43,07,00,000,38,09,00,000,44,17,00,000,42*7B
$GPGSV,2,2,07,23,00,000,37,28,00,000,43,30,00,000,43*42
$BDGSV,2,1,07,02,00,000,38,05,00,000,40,09,00,000,38,16,00,000,38*6A
$BDGSV,2,2,07,26,00,000,42,29,00,000,38,13,00,000,39*55
$B3CN0,0,0,0,0,0,0,0,0,0,0,0,0,0,0*4C
$GLGSV,1,1,03,17,00,000,35,15,00,000,41,18,00,000,40*5A
---00000028--- Acq_st=7 0  2019-4-9 7:38:12 
[00]  03(G04)  f 43  7  0   1154.9  2045998.4  0.0  2 0 1420 1923  846
[01]  06(G07)  f 39  7  0  -1578.0  2046001.9 -0.1  2 0 1043 1195  393
[02]  08(G09)  f 44  7  0   1624.8  2045997.8  0.0  2 0 1392 2543 1571
[03]  16(G17)  f 43  7  0  -3819.9  2046004.9  0.0  2 0 1366 2066 1407
[04]  22(G23)  f 37  7  0   1858.1  2045997.5  0.5  2 0 1166  847  445
[05]  27(G28)  f 43  7  0  -2804.9  2046003.6  0.0  2 0 1696 2278 1386
[06]  29(G30)  f 43 11  0  -3467.9  2046004.5 -0.0  2 0  934 2295 1336
[16]  38(B02) 1f 36 24  0  -1103.4  4092002.7 -0.9  2 0  526  532  110
[17]  41(B05) 1f 40 23  0  -1111.3  4092002.8  0.4  2 0  873 1036  802
[18]  45(B09) 1f 38  8  0    673.6  4091998.1  0.1  2 0  962 1074  620
[19]  52(B16) 1f 38  9  0    407.7  4091998.8  0.0  2 0  925 1113  519
[20]  62(B26) 1f 42  7  0  -4067.9  4092010.5 -0.0  2 0  962 1118  711
[21]  65(B29) 1f 37  7  0  -1117.4  4092002.8  0.4  2 0  792  929  759
[22]  49(B13) 1f 39  7  0  -2534.3  4092006.5  0.1  2 0 1082 1301  281
[32]  77(N-4) 8f 35  7  0  -3022.2  1022001.8 -0.2  2 0   769  833  375
[33]  81(N00) 8f 43  7  0  -4387.0  1022002.7 -0.0  2 0   897 1544  907
[34]  84(N03) 8f 40  7  0  -5249.6  1022003.3  0.1  2 0   813 1013  582
[48]  38(B02)  f 10 10  1  -1173.4 20460018.2 -0.0  2 0  896  372  608
[49]  41(B05)  1 25 21  0   -214.1 20460021.8 -0.0  1 0  216  530  646
[50]  45(B09)  1  7  7  0   1618.1 20459990.5 -0.2  1 0  298  282  751
[51]  52(B16)  1  7  7  0    278.4 20459994.5  0.1  1 0   71  552  549
[52]  62(B26)  1  7  7  0  -3547.7 20460067.5  0.1  1 0  462   97  476
[53]  65(B29)  1  8  7  0  -1204.2 20460019.1 -0.1  1 0  163  276  366
[54]  49(B13)  1  9  7  0  -2171.5 20460041.0 -0.1  1 0  247   96  692
$GNGGA,073812.291,,,,,0,00,,,M,,,,0000*2E
$GNRMC,073812.291,A,,,,,,,090419,,*26
$GPGSA,A,1,,,,,,,,,,,,,,,*1E
$BDGSA,A,1,,,,,,,,,,,,,,,*0F
$GLGSA,A,1,,,,,,,,,,,,,,,*02
$GPGSV,2,1,07,04,00,000,43,07,00,000,39,09,00,000,44,17,00,000,43*7B
$GPGSV,2,2,07,23,00,000,37,28,00,000,43,30,00,000,43*42
$BDGSV,2,1,07,02,00,000,36,05,00,000,40,09,00,000,38,16,00,000,38*64
$BDGSV,2,2,07,26,00,000,42,29,00,000,37,13,00,000,39*5A
$B3CN0,0,0,0,0,0,0,0,0,0,0,0,0,0,0*4C
$GLGSV,1,1,03,17,00,000,35,15,00,000,43,18,00,000,40*58
---00000029--- Acq_st=3 0  2019-4-9 7:38:13 
[00]  03(G04)  f 43 12  0   1156.2  2045998.4 -0.1  2 0 1131 2379 1331
[01]  06(G07)  f 39  7  0  -1575.1  2046001.9  0.1  2 0  807  688  183
[02]  08(G09)  f 44  7  0   1624.0  2045997.8 -0.1  2 0 1810 2938 1463
[03]  16(G17)  f 42  7  0  -3819.4  2046004.9  0.0  2 0 1896 2404  899
[04]  22(G23)  f 37  7  0   1847.3  2045997.5  0.2  2 0  457  861  592
[05]  27(G28)  f 42  7  0  -2811.7  2046003.6  0.0  2 0 1443 1901 1056
[06]  29(G30)  f 43  7  0  -3472.1  2046004.5 -0.0  2 0  943 1513  655
[16]  38(B02) 1f 36 28  0  -1106.3  4092002.8  0.6  2 0 1281  951  479
[17]  41(B05) 1f 40 21  0  -1110.5  4092002.9 -0.6  2 0  756  912  330
[18]  45(B09) 1f 38  7  0    672.4  4091998.1 -0.0  2 0  446  641  245
[19]  52(B16) 1f 38  7  0    410.4  4091998.7 -0.7  2 0 1055 1432  503
[20]  62(B26) 1f 42  7  0  -4070.3  4092010.5  0.0  2 0 1100 1435  197
[21]  65(B29) 1f 37  7  0  -1120.8  4092002.9  0.2  2 0  507  575  526
[22]  49(B13) 1f 39 11  0  -2529.3  4092006.5 -0.0  2 0  774  874  615
[32]  77(N-4) 8f 35  7  0  -3021.2  1022001.9  0.0  2 0   340  777  501
[33]  81(N00) 8f 43 15  0  -4388.7  1022002.7 -0.1  2 0  1083 1667 1014
[34]  84(N03) 8f 39  7  0  -5253.5  1022003.3  0.0  2 0   619  958  315
[48]  38(B02)  f 19 16  0  -1018.2 20460014.5  0.0  2 0  331  209  328
[50]  45(B09)  1  7  7  0   1350.5 20459990.5 -0.1  1 0  376   94  256
[53]  65(B29)  1  7  7  0   -266.2 20460018.6 -0.0  1 0  138  226  232
[54]  49(B13)  1  7  7  0  -1669.4 20460041.9  0.0  1 0  389  201  336
$GNGGA,073813.291,,,,,0,00,,,M,,,,0000*2F
$GNRMC,073813.291,A,,,,,,,090419,,*27
$GPGSA,A,1,,,,,,,,,,,,,,,*1E
$BDGSA,A,1,,,,,,,,,,,,,,,*0F
$GLGSA,A,1,,,,,,,,,,,,,,,*02
$GPGSV,2,1,07,04,00,000,43,07,00,000,39,09,00,000,44,17,00,000,42*7A
$GPGSV,2,2,07,23,00,000,37,28,00,000,42,30,00,000,43*43
$BDGSV,2,1,07,02,00,000,36,05,00,000,40,09,00,000,38,16,00,000,38*64
$BDGSV,2,2,07,26,00,000,42,29,00,000,37,13,00,000,39*5A
$B3CN0,0,19,0,0,0,0,0,0,0,0,0,0,0,0*74
$GLGSV,1,1,03,17,00,000,35,15,00,000,43,18,00,000,39*56
---00000030--- Acq_st=3 0  2019-4-9 7:38:14 
[00]  03(G04)  f 43  7  0   1155.6  2045998.5  0.1  2 0 1209 2065 1008
[01]  06(G07)  f 39  7  0  -1571.4  2046001.9  0.1  2 0 1034 1197  376
[02]  08(G09)  f 44  7  0   1624.6  2045997.8 -0.0  2 0 1803 2701 1182
[03]  16(G17)  f 43  7  0  -3819.1  2046004.9 -0.0  2 0 1385 2309 1188
[04]  22(G23)  f 37  7  0   1845.1  2045997.6  0.0  2 0  792 1311  238
[05]  27(G28)  f 43  7  0  -2809.3  2046003.6 -0.0  2 0 1717 2269  939
[06]  29(G30)  f 42  7  0  -3471.8  2046004.5  0.0  2 0 1352 2023  569
[16]  38(B02) 1f 36 26  0  -1106.7  4092002.8 -0.7  2 0  887  978  507
[17]  41(B05) 1f 39 20  0  -1110.7  4092002.7 -0.5  2 0 1238 1133  468
[18]  45(B09) 1f 37 11  0    671.1  4091998.1  0.2  2 0 1102 1251  462
[19]  52(B16) 1f 37  8  0    403.0  4091998.8 -0.2  2 0  791 1570  820
[20]  62(B26) 1f 41  7  0  -4067.6  4092010.6  0.0  2 0 1332 1594  518
[21]  65(B29) 1f 37  7  0  -1112.6  4092002.8 -0.1  2 0  619  918  424
[22]  49(B13) 1f 39  9  0  -2529.3  4092006.5  0.1  2 0  879 1276  785
[32]  77(N-4) 8f 34  7  0  -3024.3  1022001.9  0.0  2 0   508  687  479
[33]  81(N00) 8f 44 10  0  -4388.4  1022002.7 -0.0  2 0  1124 1615  510
[34]  84(N03) 8f 40  7  0  -5252.9  1022003.3  0.1  2 0   606  853  115
[49]  41(B05)  1 25 22  1   -896.7 20460012.5 -0.1  1 0  694  713  436
[51]  52(B16)  1  8  7  0    235.9 20459993.4 -0.0  1 0  210  307  241
[52]  62(B26)  1  7  7  0  -3262.2 20460064.9 -0.1  1 0  438  133  177
[53]  65(B29)  1  7  8  0     12.9 20460017.9 -0.0  1 0  368  313  336
$GNGGA,073814.291,,,,,0,00,,,M,,,,0000*28
$GNRMC,073814.291,A,,,,,,,090419,,*20
$GPGSA,A,1,,,,,,,,,,,,,,,*1E
$BDGSA,A,1,,,,,,,,,,,,,,,*0F
$GLGSA,A,1,,,,,,,,,,,,,,,*02
$GPGSV,2,1,07,04,00,000,43,07,00,000,39,09,00,000,44,17,00,000,43*7B
$GPGSV,2,2,07,23,00,000,37,28,00,000,43,30,00,000,42*43
$BDGSV,2,1,07,02,00,000,36,05,00,000,40,09,00,000,37,16,00,000,37*64
$BDGSV,2,2,07,26,00,000,41,29,00,000,37,13,00,000,39*59
$B3CN0,0,0,0,0,0,0,0,0,0,0,0,0,0,0*4C
$GLGSV,1,1,03,17,00,000,34,15,00,000,44,18,00,000,40*5E
---00000031--- Acq_st=3 0  2019-4-9 7:38:15 
[00]  03(G04)  f 43  7  0   1160.3  2045998.4 -0.0  2 0 1419 1935  763
[01]  06(G07)  f 39  7  0  -1570.1  2046001.9 -0.1  2 0  751  990 1016
[02]  08(G09)  f 44  7  0   1624.6  2045997.8 -0.0  2 0 1655 2555 1630
[03]  16(G17)  f 44  7  0  -3820.6  2046004.9 -0.0  2 0 1886 3131 1909
[04]  22(G23)  f 37  7  0   1842.2  2045997.5 -0.3  2 0  635 1296  967
[05]  27(G28)  f 43  7  0  -2806.8  2046003.6  0.0  2 0 1581 2382 1167
[06]  29(G30)  f 42  7  0  -3469.7  2046004.4 -0.0  2 0 1086 1711  884
[16]  38(B02) 1f 38 23  0  -1105.0  4092002.7  0.3  2 0  825  894  353
[17]  41(B05) 1f 40 26  0  -1112.2  4092002.7 -0.3  2 0 1085 1145  197
[18]  45(B09) 1f 37 11  0    668.6  4091998.2  0.3  2 0  893  942  439
[19]  52(B16) 1f 37  7  0    408.9  4091998.8  0.5  2 0  867 1281  238
[20]  62(B26) 1f 41  7  0  -4074.0  4092010.6  0.1  2 0 1195 1840  854
[21]  65(B29) 1f 37  7  0  -1117.8  4092002.8  0.2  2 0  737 1279  315
[22]  49(B13) 1f 39 12  0  -2531.6  4092006.5 -0.1  2 0 1022 1216  394
[32]  77(N-4) 8f 33  7  0  -3023.7  1022001.8 -0.1  2 0   541  766  619
[33]  81(N00) 8f 44 16  0  -4388.3  1022002.7 -0.0  2 0   822 1556  756
[34]  84(N03) 8f 40  7  0  -5252.8  1022003.3  0.1  2 0   626 1057  612
[48]  38(B02)  1 10 10  0  -1143.9 20460022.7  0.1  1 0  195  124  324
[49]  41(B05)  1 18 21  1   -536.2 20460015.3 -0.1  1 0   95  303  299
[50]  45(B09)  1  7  7  0    569.2 20459991.1 -0.2  1 0  313  248  441
[51]  52(B16)  1  7  7  0    856.5 20459993.9 -0.0  1 0  591  546  152
[52]  62(B26)  1  7  7  0  -3274.6 20460065.0 -0.1  1 0  354  523  701
[54]  49(B13)  1  7  7  0  -2004.0 20460039.2 -0.0  1 0  507  616  404
$GNGGA,073815.291,,,,,0,00,,,M,,,,0000*29
$GNRMC,073815.291,A,,,,,,,090419,,*21
$GPGSA,A,1,,,,,,,,,,,,,,,*1E
$BDGSA,A,1,,,,,,,,,,,,,,,*0F
$GLGSA,A,1,,,,,,,,,,,,,,,*02
$GPGSV,2,1,07,04,00,000,43,07,00,000,39,09,00,000,44,17,00,000,44*7C
$GPGSV,2,2,07,23,00,000,37,28,00,000,43,30,00,000,42*43
$BDGSV,2,1,07,02,00,000,38,05,00,000,40,09,00,000,37,16,00,000,37*6A
$BDGSV,2,2,07,26,00,000,41,29,00,000,37,13,00,000,39*59
$B3CN0,0,0,0,0,0,0,0,0,0,0,0,0,0,0*4C
$GLGSV,1,1,03,17,00,000,33,15,00,000,44,18,00,000,40*59
---00000032--- Acq_st=3 0  2019-4-9 7:38:16 
[00]  03(G04)  f 43  7  0   1156.0  2045998.4  0.0  2 0 1308 1895  896
[01]  06(G07)  f 40  7  0  -1572.6  2046002.0  0.1  2 0  903  978  248
[02]  08(G09)  f 44  7  0   1621.3  2045997.8  0.0  2 0 1565 2830 1412
[03]  16(G17)  f 44  7  0  -3820.9  2046004.9  0.0  2 0 1461 2675 1332
[04]  22(G23)  f 37  7  0   1849.9  2045997.5  0.2  2 0  670  896  446
[05]  27(G28)  f 43  7  0  -2810.0  2046003.6  0.1  2 0 2040 2387  602
[06]  29(G30)  f 42  7  0  -3471.2  2046004.5 -0.0  2 0 1091 1549  515
[16]  38(B02) 1f 37 24  0  -1096.0  4092002.7  0.8  2 0  868  799  525
[17]  41(B05) 1f 40 21  0  -1113.9  4092002.7 -0.1  2 0  813  950  235
[18]  45(B09) 1f 37  9  0    669.0  4091998.1  0.3  2 0  534  866  109
[19]  52(B16) 1f 37  7  0    410.1  4091998.8 -0.4  2 0 1099 1398  473
[20]  62(B26) 1f 42  7  0  -4068.5  4092010.5  0.1  2 0 1095 1430  540
[21]  65(B29) 1f 38  7  0  -1121.2  4092002.8  0.0  2 0  435  289  297
[22]  49(B13) 1f 39  8  0  -2530.6  4092006.5 -0.1  2 0  666 1243  699
[32]  77(N-4) 8f 33  7  0  -3021.9  1022001.8  0.1  2 0   300  540  650
[33]  81(N00) 8f 43 12  0  -4387.4  1022002.8  0.1  2 0   734 1279  868
[34]  84(N03) 8f 40  7  0  -5251.6  1022003.4  0.2  2 0   663 1165  669
[48]  38(B02)  1 23 10  1  -1192.5 20460016.0 -0.1  1 0  156  428  503
[49]  41(B05)  1 22 24  1   -516.4 20460016.3 -0.1  1 0  560  455  429
[50]  45(B09)  1  9  7  0    694.7 20459990.2  0.1  1 0  574  467  444
[51]  52(B16)  1  7  7  0     39.0 20459993.8 -0.1  1 0   48  451  241
[52]  62(B26)  1  7  7  0  -3301.1 20460065.2  0.0  1 0  226  204   98
[53]  65(B29)  1  7  7  0  -1479.3 20460017.0  0.1  1 0  438  641  543
[54]  49(B13)  1  7  7  0  -2515.1 20460041.5  0.0  1 0  317   76  237
$GNGGA,073816.291,,,,,0,00,,,M,,,,0000*2A
$GNRMC,073816.291,A,,,,,,,090419,,*22
$GPGSA,A,1,,,,,,,,,,,,,,,*1E
$BDGSA,A,1,,,,,,,,,,,,,,,*0F
$GLGSA,A,1,,,,,,,,,,,,,,,*02
$GPGSV,2,1,07,04,00,000,43,07,00,000,40,09,00,000,44,17,00,000,44*72
$GPGSV,2,2,07,23,00,000,37,28,00,000,43,30,00,000,42*43
$BDGSV,2,1,07,02,00,000,37,05,00,000,40,09,00,000,37,16,00,000,37*65
$BDGSV,2,2,07,26,00,000,42,29,00,000,38,13,00,000,39*55
$B3CN0,0,0,0,0,0,0,0,0,0,0,0,0,0,0*4C
$GLGSV,1,1,03,17,00,000,33,15,00,000,43,18,00,000,40*5E
---00000033--- Acq_st=3 0  2019-4-9 7:38:17 
[00]  03(G04)  f 43  7  0   1161.3  2045998.4 -0.1  2 0 1278 2478 1233
[01]  06(G07)  f 40  9  0  -1565.3  2046002.0 -0.0  2 0  724 1219  760
[02]  08(G09)  f 44  7  0   1626.6  2045997.8 -0.0  2 0 1556 2595 1176
[03]  16(G17)  f 44  7  0  -3818.1  2046004.9  0.0  2 0 2062 3182 1234
[04]  22(G23)  f 37  7  0   1854.2  2045997.5  0.7  2 0  521 1009  536
[05]  27(G28)  f 44  7  0  -2805.6  2046003.6 -0.1  2 0 1985 2848 1683
[06]  29(G30)  f 42  7  0  -3467.2  2046004.4  0.1  2 0 1573 1951  800
[16]  38(B02) 1f 37 24  0  -1102.1  4092002.8  0.2  2 0  952 1167  745
[17]  41(B05) 1f 40 25  0  -1109.4  4092002.9 -0.2  2 0  801 1330  665
[18]  45(B09) 1f 37 11  0    675.3  4091997.9  0.1  2 0  908  790  383
[19]  52(B16) 1f 38  9  0    410.6  4091998.8 -0.3  2 0  825 1172  459
[20]  62(B26) 1f 41  7  0  -4069.1  4092010.6 -0.1  2 0 1246 1905 1081
[21]  65(B29) 1f 37  7  0  -1108.7  4092002.8 -0.3  2 0  853  750  528
[22]  49(B13) 1f 39  7  0  -2522.9  4092006.5 -0.2  2 0 1180  990  322
[32]  77(N-4) 8f 34  7  0  -3017.8  1022002.0 -0.1  2 0   251  480  495
[33]  81(N00) 8f 42 16  0  -4385.7  1022002.7 -0.0  2 0   775 1235  434
[34]  84(N03) 8f 39  7  0  -5248.7  1022003.3  0.2  2 0   374  608  666
[48]  38(B02)  7 13 18  0  -1028.9 20460017.1  0.0  2 0  309   36  167
[49]  41(B05)  1 26 27  1  -1010.5 20460013.1 -0.1  1 0  250  616  375
[50]  45(B09)  1  7  7  0    521.9 20459990.2 -0.3  1 0  405  443 1024
[51]  52(B16)  1  7  7  0    -28.7 20459994.3 -0.1  1 0  339  432  340
[52]  62(B26)  1  7  7  0  -3375.3 20460066.9  0.1  1 0  100  459  297
[53]  65(B29)  1  7  7  0  -1662.1 20460017.3 -0.0  1 0  399  293  664
[54]  49(B13)  1  7  7  0  -2846.1 20460040.8  0.0  1 0  401  475  608
$GNGGA,073817.291,,,,,0,00,,,M,,,,0000*2B
$GNRMC,073817.291,A,,,,,,,090419,,*23
$GPGSA,A,1,,,,,,,,,,,,,,,*1E
$BDGSA,A,1,,,,,,,,,,,,,,,*0F
$GLGSA,A,1,,,,,,,,,,,,,,,*02
$GPGSV,2,1,07,04,00,000,43,07,00,000,40,09,00,000,44,17,00,000,44*72
$GPGSV,2,2,07,23,00,000,37,28,00,000,44,30,00,000,42*44
$BDGSV,2,1,07,02,00,000,37,05,00,000,40,09,00,000,37,16,00,000,38*6A
$BDGSV,2,2,07,26,00,000,41,29,00,000,37,13,00,000,39*59
$B3CN0,0,36,0,0,0,0,0,0,0,0,0,0,0,0*79
$GLGSV,1,1,03,17,00,000,34,15,00,000,42,18,00,000,39*56
---00000034--- Acq_st=3 0  2019-4-9 7:38:18 
[00]  03(G04)  f 43  7  0   1161.7  2045998.4 -0.0  2 0  847 1966 1019
[01]  06(G07)  f 40 11  0  -1564.2  2046002.0  0.2  2 0  543 1140  816
[02]  08(G09)  f 44  7  0   1624.9  2045997.9 -0.0  2 0 1852 2700  983
[03]  16(G17)  f 44  7  0  -3817.7  2046004.9  0.0  2 0 1152 2562 1502
[04]  22(G23)  f 37  7  0   1854.9  2045997.6 -0.2  2 0  577 1292  891
[05]  27(G28)  f 44  7  0  -2806.4  2046003.6  0.0  2 0 1493 2519 1274
[06]  29(G30)  f 42  8  0  -3467.0  2046004.4 -0.0  2 0 1050 1583  580
[16]  38(B02) 1f 37 25  0  -1107.4  4092002.6  0.7  2 0  896  972   97
[17]  41(B05) 1f 40 25  0  -1104.0  4092002.9 -0.7  2 0  460 1044  295
[18]  45(B09) 1f 37  7  0    676.0  4091998.1 -0.2  2 0  424  911  691
[19]  52(B16) 1f 38 11  0    415.4  4091998.8 -0.4  2 0 1211 1322  520
[20]  62(B26) 1f 42  7  0  -4067.3  4092010.5  0.0  2 0 1432 1693  560
[21]  65(B29) 1f 37  7  0  -1119.1  4092002.8  0.3  2 0  531  688  462
[22]  49(B13) 1f 39  9  0  -2531.2  4092006.5 -0.2  2 0 1040 1014  359
[32]  77(N-4) 8f 33  7  0  -3018.4  1022002.0 -0.1  2 0   366  378  238
[33]  81(N00) 8f 42  7  0  -4386.1  1022002.8 -0.0  2 0   826 1381  723
[34]  84(N03) 8f 39  7  0  -5249.4  1022003.3 -0.2  2 0   354  622  278
[48]  38(B02)  7 10 21  0  -1144.7 20460018.8  0.1  2 0  407  687  618
[50]  45(B09)  1  7  7  0    737.4 20459990.3  0.0  1 0  508  265  292
[53]  65(B29)  1  8  7  0  -1445.6 20460017.9 -0.2  1 0  655  473  422
[54]  49(B13)  1  7  7  0  -2424.2 20460040.2 -0.1  1 0  601  268  158
$GNGGA,073818.291,,,,,0,00,,,M,,,,0000*24
$GNRMC,073818.291,A,,,,,,,090419,,*2C
$GPGSA,A,1,,,,,,,,,,,,,,,*1E
$BDGSA,A,1,,,,,,,,,,,,,,,*0F
$GLGSA,A,1,,,,,,,,,,,,,,,*02
$GPGSV,2,1,07,04,00,000,43,07,00,000,40,09,00,000,44,17,00,000,44*72
$GPGSV,2,2,07,23,00,000,37,28,00,000,44,30,00,000,42*44
$BDGSV,2,1,07,02,00,000,37,05,00,000,40,09,00,000,37,16,00,000,38*6A
$BDGSV,2,2,07,26,00,000,42,29,00,000,37,13,00,000,39*5A
$B3CN0,0,0,0,0,0,0,0,0,0,0,0,0,0,0*4C
$GLGSV,1,1,03,17,00,000,33,15,00,000,42,18,00,000,39*51
---00000035--- Acq_st=3 0  2019-4-9 7:38:19 
[00]  03(G04)  f 42  7  0   1157.9  2045998.4 -0.0  2 0 1062 1859  989
[01]  06(G07)  f 40  7  0  -1573.5  2046001.9 -0.1  2 0 1188 1137  568
[02]  08(G09)  f 44  7  0   1624.0  2045997.8 -0.0  2 0 1490 2758 1424
[03]  16(G17)  f 44  7  0  -3817.4  2046004.9 -0.0  2 0 1642 2460 1235
[04]  22(G23)  f 37  7  0   1854.6  2045997.5 -0.1  2 0  939 1473  665
[05]  27(G28)  f 44  7  0  -2807.2  2046003.6 -0.0  2 0 2337 2807  710
[06]  29(G30)  f 43  9  0  -3469.5  2046004.4 -0.1  2 0 1776 2361 1021
[16]  38(B02) 1f 37 24  0  -1107.1  4092002.6  0.3  2 0 1035 1177  718
[17]  41(B05) 1f 39 16  0  -1110.4  4092002.6  0.1  2 0  764  893  143
[18]  45(B09) 1f 37  7  0    673.8  4091998.1  0.5  2 0  679  686  445
[19]  52(B16) 1f 38  7  0    409.1  4091998.7  0.2  2 0  577  855  845
[20]  62(B26) 1f 42  7  0  -4069.6  4092010.5  0.1  2 0 1291 1897  992
[21]  65(B29) 1f 37  7  0  -1118.7  4092002.8  0.0  2 0  726  521  185
[22]  49(B13) 1f 39  7  0  -2532.7  4092006.5 -0.2  2 0  890  922  713
[32]  77(N-4) 8f 33  7  0  -3017.0  1022001.8  0.2  5 0   318  549  362
[33]  81(N00) 8f 41 15  0  -4389.3  1022002.8 -0.0  2 0   501 1011  565
[34]  84(N03) 8f 39  7  0  -5251.5  1022003.3 -0.2  2 0   633 1127  189
[48]  38(B02)  7 10 17  1  -1630.2 20460026.4  0.0  2 0  478  463  329
[49]  41(B05)  1 21 21  0   -867.2 20460022.5  0.0  1 0  370  571  420
[51]  52(B16)  1  7  7  0     73.3 20459993.4 -0.1  1 0  164  513  572
[52]  62(B26)  1  7  7  0  -3203.0 20460065.0  0.1  1 0  528  481  364
[53]  65(B29)  1  7  7  0  -1815.2 20460018.9 -0.1  1 0  277  505  554
$GNGGA,073819.291,,,,,0,00,,,M,,,,0000*25
$GNRMC,073819.291,A,,,,,,,090419,,*2D
$GPGSA,A,1,,,,,,,,,,,,,,,*1E
$BDGSA,A,1,,,,,,,,,,,,,,,*0F
$GLGSA,A,1,,,,,,,,,,,,,,,*02
$GPGSV,2,1,07,04,00,000,42,07,00,000,40,09,00,000,44,17,00,000,44*73
$GPGSV,2,2,07,23,00,000,37,28,00,000,44,30,00,000,43*45
$BDGSV,2,1,07,02,00,000,37,05,00,000,39,09,00,000,37,16,00,000,38*64
$BDGSV,2,2,07,26,00,000,42,29,00,000,37,13,00,000,39*5A
$B3CN0,0,0,0,0,0,0,0,0,0,0,0,0,0,0*4C
