i=1
Rf R0 Config = ff777073
Rf R1 Config = 00dffbfe
Rf R52 Config = 00dfef40
i=2
Rf R0 Config = 007772f3
Rf R1 Config = 00df9bfe
Rf R52 Config = 00db0e30
i=3
Rf R0 Config = 007772f3
Rf R1 Config = 00df7bfe
Rf R52 Config = 00de2e50
i=4
Rf R0 Config = 00777273
Rf R1 Config = 00dc1bfe
Rf R52 Config = 00de0e00
SD initialized success
Create debug.log Failed! 3
Start Channel by LuYu
$GNGGA,000000.000,,,,,0,00,,,M,,,,0000*2B
$GNRMC,000000.000,A,,,,,,,060180,,*29
$GPGSA,A,1,,,,,,,,,,,,,,,*1E
$BDGSA,A,1,,,,,,,,,,,,,,,*0F
$GLGSA,A,1,,,,,,,,,,,,,,,*02
$B3CN0,0,0,0,0,0,0,0,0,0,0,0,0,0,0*4C
---00000001--- Acq_st=3 0  2019-4-15 2:27:33 
[00]  02(G03)  1 22  7  0   -298.9  2046002.0  0.1  1 0 1105 2104 1279
[01]  04(G05)  1  7  7  0   9547.4  2045988.2  0.1  1 0  203  325  660
$GNGGA,000000.000,,,,,0,00,,,M,,,,0000*2B
$GNRMC,000000.000,A,,,,,,,060180,,*29
$GPGSA,A,1,,,,,,,,,,,,,,,*1E
$BDGSA,A,1,,,,,,,,,,,,,,,*0F
$GLGSA,A,1,,,,,,,,,,,,,,,*02
$B3CN0,0,0,0,0,0,0,0,0,0,0,0,0,0,0*4C
---00000002--- Acq_st=3 0  2019-4-15 2:27:34 
[00]  02(G03)  7 17  7  0   -293.3  2046000.3  0.9 10 0 1139 1750  818
[01]  04(G05)  1  7  7  0   9882.6  2045988.2  0.1  1 0  407  159   72
[02]  13(G14)  1 25  7  0    953.5  2045999.2  0.3  1 0 2215 2820 1246
[03]  15(G16)  1 26  7  0  -2476.1  2046003.9  0.3  1 0 1779 3364 1273
[04]  21(G22)  1  7  7  0    500.0  2046001.7  0.0  1 0 1177 2180 1862
[05]  22(G23)  1  7  7  0  -4250.0  2046006.4  0.0  1 0  350  287  666
$GNGGA,000000.000,,,,,0,00,,,M,,,,0000*2B
$GNRMC,000000.000,A,,,,,,,060180,,*29
$GPGSA,A,1,,,,,,,,,,,,,,,*1E
$BDGSA,A,1,,,,,,,,,,,,,,,*0F
$GLGSA,A,1,,,,,,,,,,,,,,,*02
$GPGSV,1,1,01,03,00,000,17*4D
$B3CN0,0,0,0,0,0,0,0,0,0,0,0,0,0,0*4C
---00000003--- Acq_st=3 0  2019-4-15 2:27:35 
[00]  02(G03)  7 39  7  0   -292.3  2046000.3  0.1  2 0 1505 1859  920
[01]  04(G05)  1 11  7  0   9103.7  2045988.1  0.1  1 0  545  496  449
[02]  13(G14)  7 23  7  0    957.7  2045998.6  0.8 10 0 1339 2497 1267
[03]  15(G16)  7 18  7  0  -2470.3  2046003.1  0.6 10 0 2192 3035 2339
[04]  21(G22)  1 29  7  0    573.1  2045999.0  0.7  1 0 2034 2459  812
[05]  22(G23)  1 27  7  0  -4310.5  2046007.0  0.4  1 0  591 1556 1139
[06]  25(G26)  1 27  7  0   -279.4  2046001.2  0.4  1 0 3590 4667 1890
[08]  26(G27)  1 24  7  0  -4699.9  2046007.9  0.4  1 0  446  748  492
[09]  30(G31)  1 17  7  0    351.2  2045999.1 -0.1  1 0 2168 3907 2205
[10]  31(G32)  1  7  7  0   1902.4  2045998.4  0.0  1 0 1588 2739 1384
[16]  37(B01)  1 29 36  1  -1250.0  4092005.7  0.0  1 0  553  972 1969
[17]  38(B02)  1 30 32  0  -1000.0  4092003.6  0.0  1 0  613  594 1186
[18]  39(B03)  1 32 10  0  -1250.0  4092005.2 -0.0  1 0  396 1368 2577
$GNGGA,000000.000,,,,,0,00,,,M,,,,0000*2B
$GNRMC,000000.000,A,,,,,,,060180,,*29
$GPGSA,A,1,,,,,,,,,,,,,,,*1E
$BDGSA,A,1,,,,,,,,,,,,,,,*0F
$GLGSA,A,1,,,,,,,,,,,,,,,*02
$GPGSV,1,1,03,03,00,000,39,14,00,000,23,16,00,000,18*49
$B3CN0,0,0,0,0,0,0,0,0,0,0,0,0,0,0*4C
---00000004--- Acq_st=3 0  2019-4-15 2:27:36 
[00]  02(G03)  7 40  7  0   -294.2  2046000.3  0.0  2 0  716 1731  991
[01]  04(G05)  1  7  7  0   8303.5  2045987.9 -0.1  1 0  352  459  419
[02]  13(G14)  7 43  7  0    953.8  2045998.7 -0.0  2 0 1775 2980 1628
[03]  15(G16)  7 43  7  0  -2473.6  2046003.1 -0.0  2 0 1603 2859  975
[04]  21(G22)  7 32  7  0    570.8  2045999.2  0.4  5 0 1601 2614 1056
[05]  22(G23)  7 30  7  0  -4323.0  2046005.5  0.2  5 0 1416 1543  422
[06]  25(G26)  7 27  7  0   -279.2  2046000.2  0.6 10 0 3107 4224 1375
[08]  26(G27)  7 24  7  0  -4707.6  2046006.0  0.6 10 0  802 1250  836
[09]  30(G31)  7  7  7  0    350.6  2045999.5  1.0  5 0 2296 3520 1465
[10]  31(G32)  1 36  7  0   1894.1  2045997.3  1.0  1 0 1968 2506  845
[16]  37(B01)  1 40 14  0  -1122.7  4092002.8  0.9  1 0 1980  975  617
[17]  38(B02)  1 40 29  0  -1072.5  4092003.4  1.0  1 0  672  904  483
[18]  39(B03)  1 41 32  0  -1116.0  4092003.1  1.0  1 0 1543 1420  631
[19]  40(B04)  1 41 24  0  -1114.2  4092003.9  1.0  1 0  986 1490  756
[20]  42(B06)  1  7  7  0   -584.9  4092002.2  0.1  1 0 1577 2271  783
[21]  43(B07)  1  7  7  0   -846.5  4092003.8  0.0  1 0 1062 2434 1376
[22]  45(B09)  1  7  7  0  -1000.0  4092004.7  0.1  1 0  177  701 1894
[24]  46(B10)  1  7  7  0  -1250.0  4092005.6 -0.0  1 0  601 2021 2632
$GNGGA,022737.880,,,,,0,00,,,M,,,,0000*28
$GNRMC,022737.880,A,,,,,,,070180,,*2B
$GPGSA,A,1,,,,,,,,,,,,,,,*1E
$BDGSA,A,1,,,,,,,,,,,,,,,*0F
$GLGSA,A,1,,,,,,,,,,,,,,,*02
$GPGSV,2,1,07,03,00,000,40,14,00,000,43,16,00,000,43,22,00,000,31*7A
$GPGSV,2,2,07,23,00,000,29,26,00,000,27,27,00,000,24*46
$B3CN0,0,0,0,0,0,0,0,0,0,0,0,0,0,0*4C
---00000005--- Acq_st=3 0  2019-4-15 2:27:37 
[00]  02(G03)  f 40  7  0   -291.8  2046000.3 -0.3  2 0  994 1479  545
[01]  04(G05)  1  7  7  0   8157.6  2045988.1 -0.0  1 0  693  659  352
[02]  13(G14)  f 43  7  0    962.4  2045998.7  0.1  2 0 1976 2759 1276
[03]  15(G16)  f 43  7  0  -2464.5  2046003.1 -0.0  2 0 2050 2986 1572
[04]  21(G22)  f 42  7  0    577.6  2045999.2  0.0  2 0 1558 2922 1123
[05]  22(G23)  7 39  7  0  -4313.1  2046005.5  0.1  2 0 1015 1144  229
[06]  25(G26)  7 46  8  0   -269.7  2046000.2  0.0  2 0 3410 4322 1642
[08]  26(G27)  7 39  8  0  -4701.3  2046006.0  0.0  2 0 1437 1579  274
[09]  30(G31)  7 45 10  0    356.3  2045999.5  0.0  2 0 2658 3858 1625
[10]  31(G32)  7 41  7  0   1905.2  2045997.4  0.1  2 0 1074 2255 1468
[16]  37(B01)  7 40 10  0  -1116.6  4092002.7 -0.1  2 0 1552 1399  798
[17]  38(B02)  f 41 22  0  -1065.1  4092002.7 -0.4  2 0 1349 1387  653
[18]  39(B03)  f 43 31  0  -1108.2  4092002.8 -0.1  2 0 2401 2588 1074
[19]  40(B04)  f 41 20  0  -1109.1  4092002.7 -0.6  2 0 1064 1250  672
[20]  42(B06)  7 11  7  0   -578.2  4092001.4  0.7 10 0 1337 1939 1138
[21]  43(B07)  1  7  7  0   -846.7  4092001.9  0.5  1 0 1913 2871 1443
[22]  45(B09)  1  7  7  0  -1139.6  4092003.4  0.2  1 0 1583 2508 1024
[24]  46(B10)  1 33  7  0  -1097.7  4092002.7  0.8  1 0 1367 2021 1114
[25]  52(B16)  1  7  7  0   -500.0  4092000.9  0.1  1 0  295   86  141
[26]  54(B18)  1  7  7  0  -1000.0  4092004.1 -0.0  1 0  343  540 1925
[27]  55(B19)  1  7  7  0   1750.0  4091995.2 -0.0  1 0 2230 2754  976
$GNGGA,022738.880,,,,,0,00,,,M,,,,0000*27
$GNRMC,022738.880,A,,,,,,,070180,,*24
$GPGSA,A,1,,,,,,,,,,,,,,,*1E
$BDGSA,A,1,,,,,,,,,,,,,,,*0F
$GLGSA,A,1,,,,,,,,,,,,,,,*02
$GPGSV,3,1,09,03,00,000,40,14,00,000,43,16,00,000,43,22,00,000,42*71
$GPGSV,3,2,09,23,00,000,39,26,00,000,46,27,00,000,39,31,00,000,45*70
$GPGSV,3,3,09,32,00,000,40*45
$BDGSV,1,1,04,01,00,000,40,02,00,000,40,03,00,000,43,04,00,000,41*6A
$B3CN0,0,0,0,0,0,0,0,0,0,0,0,0,0,0*4C
---00000006--- Acq_st=3 0  2019-4-15 2:27:38 
[00]  02(G03)  f 40  7  0   -290.0  2046000.3  0.1  2 0 1271 1216  438
[02]  13(G14)  f 43  7  0    961.7  2045998.7 -0.0  2 0 2196 2813  785
[03]  15(G16)  f 43  7  0  -2466.8  2046003.1 -0.0  2 0 1924 3488 1890
[04]  21(G22)  f 42  7  0    576.2  2045999.2 -0.1  2 0 1506 2479  750
[05]  22(G23)  7 39  7  0  -4307.1  2046005.5 -0.1  2 0 1250 1603  948
[06]  25(G26)  7 45 11  0   -271.3  2046000.3 -0.0  2 0 3200 4915 2267
[08]  26(G27)  7 40  7  0  -4701.8  2046006.0 -0.1  2 0 1287 1744  784
[09]  30(G31)  7 45  7  0    355.2  2045999.5  0.0  2 0 1950 3144 1712
[10]  31(G32)  7 41  7  0   1904.0  2045997.5 -0.1  2 0 1715 2398  790
[16]  37(B01) 1f 40 10  0  -1113.2  4092002.8 -0.1  2 0 1381 1622  483
[17]  38(B02) 1f 40 30  0  -1067.4  4092002.6 -0.6  2 0  940 1190  501
[18]  39(B03) 1f 43 31  0  -1110.2  4092002.8  0.2  2 0 1197 2378 1408
[19]  40(B04) 1f 40 23  0  -1105.1  4092002.7  0.6  2 0 1269 1506  178
[20]  42(B06)  7 42 12  0   -575.6  4092001.5 -0.1  2 0 1114 2088 1025
[21]  43(B07)  7 42  7  0   -838.0  4092002.1  0.1  2 0 2085 3037 1494
[22]  45(B09)  7 33  7  0  -1137.3  4092002.9  0.0  5 0 1962 2662 1417
[24]  46(B10)  7 32  7  0  -1097.2  4092002.8  0.4  5 0 1975 2561 1070
[25]  52(B16)  1  7  7  0  -1168.4  4092001.4  0.1  1 0  511  546  324
[26]  54(B18)  1  7  7  0   -951.5  4092003.3  0.2  1 0 2091 2884 1287
[27]  55(B19)  1  7 13  0   1745.7  4091995.1  0.4  1 0 2043 3261 1523
[28]  57(B21)  1  7  7  0  -3292.1  4092008.6  0.0  1 0  946 1630  630
[29]  58(B22)  1  7 10  0   -744.4  4092004.9 -0.0  1 0  322 1935 3148
[49]  38(B02)  1 18 19  0   -759.0 20460013.4 -0.1  1 0  378  471  281
[50]  39(B03)  1 22 18  0   -638.6 20460017.7 -0.0  1 0  481  509  474
[51]  40(B04)  1 19 13  0   -608.7 20460024.8 -0.0  1 0  932  356  636
$GNGGA,022739.880,,,,,0,00,,,M,,,,0000*26
$GNRMC,022739.880,A,,,,,,,070180,,*25
$GPGSA,A,1,,,,,,,,,,,,,,,*1E
$BDGSA,A,1,,,,,,,,,,,,,,,*0F
$GLGSA,A,1,,,,,,,,,,,,,,,*02
$GPGSV,3,1,09,03,00,000,40,14,00,000,43,16,00,000,43,22,00,000,42*71
$GPGSV,3,2,09,23,00,000,39,26,00,000,45,27,00,000,40,31,00,000,45*7D
$GPGSV,3,3,09,32,00,000,41*44
$BDGSV,2,1,08,01,00,000,40,02,00,000,39,03,00,000,43,04,00,000,41*6B
$BDGSV,2,2,08,06,00,000,42,07,00,000,41,09,00,000,33,10,00,000,32*6B
$B3CN0,0,0,0,0,0,0,0,0,0,0,0,0,0,0*4C
---00000007--- Acq_st=3 0  2019-4-15 2:27:39 
[00]  02(G03)  f 39  7  0   -290.7  2046000.3 -0.2  2 0  596 1482  765
[02]  13(G14)  f 43  7  0    960.2  2045998.7 -0.0  2 0 1359 2518 1151
[03]  15(G16)  f 43  7  0  -2467.8  2046003.1  0.0  2 0 1861 3546 1375
[04]  21(G22)  f 42  7  0    578.0  2045999.2  0.1  2 0 1988 1853  661
[05]  22(G23)  7 39  7  0  -4317.5  2046005.6 -0.1  2 0 1073 1623  736
[06]  25(G26)  7 45  7  0   -274.5  2046000.3  0.0  2 0 2901 4708 2357
[08]  26(G27)  7 40  9  0  -4701.4  2046006.0 -0.1  2 0 1171 2194 1081
[09]  30(G31)  7 45  7  0    355.6  2045999.5  0.0  2 0 2093 3339 1235
[10]  31(G32)  7 41  7  0   1904.6  2045997.5 -0.0  2 0 2095 2591 1039
[16]  37(B01) 1f 40 21  0  -1119.8  4092002.7 -0.0  2 0  918 1128  598
[17]  38(B02) 1f 41 27  0  -1070.8  4092002.6  0.1  2 0 1588 1482  214
[18]  39(B03) 1f 42 30  0  -1111.9  4092002.8 -0.2  2 0  961 1691  726
[19]  40(B04) 1f 40 18  0  -1109.3  4092002.9 -0.5  2 0  975 1281  585
[20]  42(B06) 1f 42  7  0   -582.0  4092001.4  0.0  2 0 1394 1888  954
[21]  43(B07) 1f 44  7  0   -840.3  4092002.1 -0.0  2 0 2425 2952 1125
[22]  45(B09) 1f 43  7  0  -1139.4  4092002.8 -0.1  2 0 1988 2792 1021
[24]  46(B10) 1f 43  8  0  -1094.8  4092002.8 -0.1  2 0 1966 2923 1529
[25]  52(B16)  1  8  7  0   -859.3  4092001.0  0.0  1 0   22  125  760
[26]  54(B18)  7 29  7  0   -951.6  4092002.3  0.2 10 0 2285 2793  992
[27]  55(B19)  7 27  7  0   1750.6  4091995.4  0.4 10 0 1804 2914 1674
[28]  57(B21)  7 21  7  0  -3292.2  4092008.6  0.4 10 0 1079 2365 1030
[29]  58(B22)  7 17  7  0   -744.2  4092001.8  0.2 10 0 2243 2773 1075
[30]  65(B29)  1  7  7  0  -3582.5  4092009.1 -0.0  1 0  617  397  495
[48]  37(B01)  1 10 10  1  -1859.8 20460018.2 -0.1  1 0   77  591  703
[49]  38(B02)  1 20 36  1  -1257.8 20460019.1 -0.2  1 0  391  544  457
[50]  39(B03)  1 19 21  0   -455.3 20460021.1 -0.1  1 0  452  649  619
[51]  40(B04)  1 22 23  1  -1352.8 20460020.2 -0.1  1 0  476  245  510
$GNGGA,022740.880,,,,,0,00,,,M,,,,0000*28
$GNRMC,022740.880,A,,,,,,,070180,,*2B
$GPGSA,A,1,,,,,,,,,,,,,,,*1E
$BDGSA,A,1,,,,,,,,,,,,,,,*0F
$GLGSA,A,1,,,,,,,,,,,,,,,*02
$GPGSV,3,1,09,03,00,000,39,14,00,000,43,16,00,000,43,22,00,000,42*7F
$GPGSV,3,2,09,23,00,000,38,26,00,000,45,27,00,000,40,31,00,000,45*7C
$GPGSV,3,3,09,32,00,000,41*44
$BDGSV,3,1,11,01,00,000,40,02,00,000,40,03,00,000,42,04,00,000,41*6D
$BDGSV,3,2,11,06,00,000,42,07,00,000,44,09,00,000,43,10,00,000,43*66
$BDGSV,3,3,11,18,00,000,29,19,00,000,27,21,00,000,21*57
$B3CN0,0,0,0,0,0,0,0,0,0,0,0,0,0,0*4C
---00000008--- Acq_st=3 0  2019-4-15 2:27:40 
[00]  02(G03)  f 39  7  0   -295.5  2046000.3  0.0  2 0 1228 1618  561
[02]  13(G14)  f 43  7  0    953.9  2045998.7  0.0  2 0 1236 2725 1797
[03]  15(G16)  f 43  7  0  -2471.4  2046003.2 -0.0  2 0 1849 2663 1256
[04]  21(G22)  f 42  7  0    571.5  2045999.2 -0.0  2 0 1438 1855  819
[05]  22(G23)  7 39  8  0  -4318.4  2046005.5 -0.2  2 0  680 1591 1040
[06]  25(G26)  7 45  7  0   -278.4  2046000.3 -0.0  2 0 3427 4754 2261
[08]  26(G27)  7 40  7  0  -4707.4  2046006.0  0.0  2 0  921 1569  992
[09]  30(G31)  7 44 12  0    347.4  2045999.5 -0.1  2 0 2082 3333 1462
[10]  31(G32)  7 41  7  0   1898.7  2045997.4 -0.1  2 0 1243 2333  893
[16]  37(B01) 1f 41 10  0  -1124.8  4092002.8  0.3  2 0  921 1362  505
[17]  38(B02) 1f 40 25  0  -1074.2  4092002.8  0.3  2 0 1307 1713  572
[18]  39(B03) 1f 43 30  0  -1117.0  4092002.8  0.1  2 0 1331 2163  766
[19]  40(B04) 1f 40 25  0  -1113.7  4092002.8  0.0  2 0 1396 1875  785
[20]  42(B06) 1f 42  7  0   -583.2  4092001.4 -0.0  2 0 1485 1765  688
[21]  43(B07) 1f 43  8  0   -846.6  4092002.1  0.0  2 0 1951 2968 1528
[22]  45(B09) 1f 43  7  0  -1143.8  4092002.9 -0.0  2 0 2449 2732 1218
[24]  46(B10) 1f 43  9  0  -1101.3  4092002.8 -0.1  2 0 2385 3054 1255
[25]  52(B16)  1  7  7  0  -1073.0  4092001.5  0.1  1 0  474  328  308
[26]  54(B18)  7 44  7  0   -957.6  4092002.4 -0.0  2 0 2572 2914 1362
[27]  55(B19)  7 44 11  0   1746.2  4091995.4  0.0  2 0 1832 3067 1590
[28]  57(B21)  7 43  7  0  -3297.7  4092008.6 -0.2  2 0 1830 2422 1046
[29]  58(B22)  7 45 11  0   -749.0  4092001.8  0.0  2 0 2073 2663 1102
[30]  65(B29)  1  7  7  0  -3240.5  4092009.4  0.1  1 0  342  191   41
[32]  75(N-6)  1 26  7  0  -1594.3  1022001.3  0.6  1 0  1335 2775 1379
[33]  76(N-5)  1 24 18  0   2221.0  1021998.8  0.5  1 0  1545 2565 1023
[34]  78(N-3)  1 18 25  0  -1500.5  1022001.1 -0.2  1 0   180   96  335
[35]  79(N-2)  1 15 24  0  -4047.6  1022004.0 -0.1  1 0   254  298  951
[36]  80(N-1)  1 23 21  0  -4500.0  1022005.2  0.2  1 0   427  906 1145
[37]  83(N02)  1 19  7  0   1250.0  1022002.2 -0.1  1 0   367 1208 1751
[48]  37(B01)  1 17 10  0  -1715.4 20460018.0 -0.1  1 0  407  108  176
[49]  38(B02)  7 10 36  1  -1108.4 20460019.0  0.1  2 0  731  623  441
[50]  39(B03)  7 22 20  1  -1121.0 20460019.3 -0.0  2 0  370  415  178
[51]  40(B04)  1 19 24  0  -1705.1 20460021.3  0.0  1 0  413  481  614
[52]  42(B06)  1  7  7  0   -225.7 20460009.1 -0.0  1 0  621  693  718
[53]  43(B07)  1  7  7  0   -730.5 20460011.1 -0.1  1 0  711  345   85
[54]  45(B09)  1  7  9  0   -986.7 20460017.0  0.1  1 0  462  563  728
[56]  46(B10)  1  7  7  0   -911.8 20460014.7 -0.0  1 0  181  315  262
$GNGGA,022741.880,,,,,0,00,,,M,,,,0000*29
$GNRMC,022741.880,A,,,,,,,070180,,*2A
$GPGSA,A,1,,,,,,,,,,,,,,,*1E
$BDGSA,A,1,,,,,,,,,,,,,,,*0F
$GLGSA,A,1,,,,,,,,,,,,,,,*02
$GPGSV,3,1,09,03,00,000,40,14,00,000,43,16,00,000,43,22,00,000,42*71
$GPGSV,3,2,09,23,00,000,39,26,00,000,45,27,00,000,40,31,00,000,44*7C
$GPGSV,3,3,09,32,00,000,41*44
$BDGSV,3,1,12,01,00,000,41,02,00,000,39,03,00,000,43,04,00,000,41*60
$BDGSV,3,2,12,06,00,000,42,07,00,000,43,09,00,000,43,10,00,000,43*62
$BDGSV,3,3,12,18,00,000,44,19,00,000,45,21,00,000,43,22,00,000,45*6E
$B3CN0,0,0,22,0,0,0,0,0,0,0,0,0,0,0*7C
---00000009--- Acq_st=7 0  2019-4-15 2:27:41 
[00]  02(G03)  f 39  7  0   -302.4  2046000.3 -0.1  2 0 1074 1323  904
[02]  13(G14)  f 43  9  0    949.6  2045998.7  0.0  2 0 1776 3194 1666
[03]  15(G16)  f 43  7  0  -2476.0  2046003.2 -0.0  2 0 1655 2934 1655
[04]  21(G22)  f 41  7  0    570.5  2045999.2 -0.0  2 0 1657 2448  524
[05]  22(G23)  7 39  7  0  -4318.0  2046005.5 -0.0  2 0  843 1555  420
[06]  25(G26)  7 45  9  0   -281.9  2046000.3 -0.0  2 0 3005 4552 2015
[08]  26(G27)  7 41  7  0  -4710.4  2046006.0 -0.0  2 0 1391 1902  919
[09]  30(G31)  7 44 11  0    344.4  2045999.5  0.0  2 0 1952 2580  862
[10]  31(G32)  7 41  7  0   1892.3  2045997.5 -0.0  2 0 1521 2675 1111
[16]  37(B01) 1f 40 10  0  -1125.5  4092002.8  0.3  2 0 1402 1379  104
[17]  38(B02) 1f 40 29  0  -1072.4  4092002.6  0.3  2 0 1104 1424  224
[18]  39(B03) 1f 43 31  0  -1118.8  4092002.9  0.1  2 0 1981 2315  628
[19]  40(B04) 1f 41 10  0  -1119.4  4092002.8 -0.1  2 0 1474 2057  998
[20]  42(B06) 1f 42  7  0   -586.8  4092001.5  0.0  2 0 1709 2218  857
[21]  43(B07) 1f 43  7  0   -850.4  4092002.1  0.0  2 0 1858 2246  632
[22]  45(B09) 1f 43  7  0  -1148.5  4092002.9  0.0  2 0 1946 2412 1169
[24]  46(B10) 1f 43  7  0  -1106.1  4092002.8  0.0  2 0 1908 2483  691
[25]  52(B16)  1 11  7  0   -509.2  4092001.1 -0.1  1 0  314  443  335
[26]  54(B18)  7 44  7  0   -958.9  4092002.4 -0.0  2 0 2477 2544  626
[27]  55(B19)  7 44  7  0   1744.8  4091995.4 -0.0  2 0 1802 2732 1031
[28]  57(B21)  7 42  7  0  -3296.0  4092008.6  0.0  2 0 1094 2202 1224
[29]  58(B22)  7 44 11  0   -748.0  4092001.8 -0.1  2 0 2233 2754 1279
[30]  65(B29)  1 10  7  0  -2373.5  4092009.2 -0.0  1 0  346  408  151
[32]  75(N-6)  7 31  7  0  -1596.0  1022001.0  0.3  5 0  1752 2893 1096
[33]  76(N-5)  1 26 19  0   2217.6  1021998.5  1.0  1 0  1577 2562 1381
[34]  78(N-3)  1 21  7  0  -1974.1  1022001.9  0.1  1 0   178  169  149
[35]  79(N-2)  1 28  8  0  -4180.1  1022003.2  0.8  1 0   311  564  674
[36]  80(N-1)  1 25 19  0  -4495.1  1022002.8  0.9  1 0  1431 1765  788
[37]  83(N02)  1 25 24  0   1331.1  1021999.0  0.9  1 0  1118 1287  428
[38]  86(N05)  1 36  7  0  -3931.9  1022003.3  0.7  1 0   878 1686  831
[48]  37(B01)  1 10 10  0  -1663.0 20460016.8  0.2  1 0  422  577  396
[49]  38(B02)  7 21 10  1  -1156.8 20460019.9 -0.0  2 0  441  115  347
[50]  39(B03)  7 23 21  1  -1045.1 20460015.6  0.1  2 0  336  456  605
[51]  40(B04)  1 22 14  0  -1570.4 20460025.0  0.0  1 0  283  319  354
[52]  42(B06)  1  7  7  0   -197.5 20460009.2 -0.0  1 0  939  525  486
[53]  43(B07)  7  7  7  0  -1021.6 20460015.5  0.0 10 0  327  658 1351
[54]  45(B09)  1  7  7  0  -1279.3 20460018.3 -0.0  1 0   78  459  623
[56]  46(B10)  1  7  7  0  -1235.6 20460014.4 -0.1  1 0  355   90  210
$GNGGA,022742.880,,,,,0,00,,,M,,,,0000*2A
$GNRMC,022742.880,A,,,,,,,070180,,*29
$GPGSA,A,1,,,,,,,,,,,,,,,*1E
$BDGSA,A,1,,,,,,,,,,,,,,,*0F
$GLGSA,A,1,,,,,,,,,,,,,,,*02
$GPGSV,3,1,09,03,00,000,39,14,00,000,43,16,00,000,43,22,00,000,41*7C
$GPGSV,3,2,09,23,00,000,39,26,00,000,45,27,00,000,41,31,00,000,44*7D
$GPGSV,3,3,09,32,00,000,41*44
$BDGSV,3,1,12,01,00,000,41,02,00,000,40,03,00,000,43,04,00,000,41*6E
$BDGSV,3,2,12,06,00,000,42,07,00,000,43,09,00,000,43,10,00,000,43*62
$BDGSV,3,3,12,18,00,000,44,19,00,000,44,21,00,000,42,22,00,000,44*6F
$B3CN0,0,18,22,0,0,0,0,0,0,0,0,0,0,0*45
---00000010--- Acq_st=7 0  2019-4-15 2:27:42 
[00]  02(G03)  f 39  7  0   -287.7  2046000.3  0.1  2 0 1154 1424 1321
[02]  13(G14)  f 43  7  0    965.7  2045998.7  0.0  2 0 2175 3066 1822
[03]  15(G16)  f 43  7  0  -2457.7  2046003.1  0.0  2 0 2527 3539 1332
[04]  21(G22)  f 42  7  0    586.2  2045999.2 -0.0  2 0 1454 2333 1341
[05]  22(G23)  7 38  7  0  -4307.4  2046005.6 -0.1  2 0  695  819  229
[06]  25(G26)  7 45 11  0   -266.0  2046000.3  0.0  2 0 2798 4805 2065
[08]  26(G27)  7 40  7  0  -4694.6  2046006.0  0.0  2 0 1298 1903  654
[09]  30(G31)  7 44  7  0    360.6  2045999.5 -0.0  2 0 2229 3431 1676
[10]  31(G32)  7 42  7  0   1910.0  2045997.5 -0.0  2 0 1765 2203  593
[16]  37(B01) 1f 40 18  0  -1111.9  4092002.8 -0.6  2 0  877 1173  425
[17]  38(B02) 1f 40 26  0  -1062.3  4092002.7  0.5  2 0  976 1250  420
[18]  39(B03) 1f 42 30  0  -1106.2  4092002.7  0.0  2 0 1659 2251  550
[19]  40(B04) 1f 41 21  0  -1102.9  4092002.9 -0.5  2 0 1342 1742  759
[20]  42(B06) 1f 41  7  0   -575.4  4092001.4  0.0  2 0 1220 1392  475
[21]  43(B07) 1f 43  7  0   -835.0  4092002.1  0.0  2 0 2184 2858 1264
[22]  45(B09) 1f 43  7  0  -1129.8  4092002.8  0.0  2 0 2175 2548 1265
[24]  46(B10) 1f 43  8  0  -1087.7  4092002.7 -0.0  2 0 1811 2239 1247
[26]  54(B18)  7 43  7  0   -943.8  4092002.3 -0.0  2 0 2131 2622 1182
[27]  55(B19)  7 44 12  0   1759.0  4091995.3 -0.0  2 0 2347 2650  974
[28]  57(B21)  7 43  7  0  -3284.4  4092008.5 -0.0  2 0 1509 1840 1007
[29]  58(B22)  7 44  7  0   -735.6  4092001.8  0.0  2 0 2673 2957 1122
[30]  65(B29)  1  7  7  0  -1983.7  4092009.2 -0.0  1 0  221  450  168
[32]  75(N-6)  7 49  7  0  -1579.0  1022001.0 -0.0  2 0  1460 2853 1110
[33]  76(N-5)  7 28 16  0   2234.0  1021998.6  0.5 10 0  1426 2839 1341
[34]  78(N-3)  1 17 22  0  -2320.3  1022002.3  0.0  1 0   336  502  161
[35]  79(N-2)  7 35  7  0  -4157.4  1022002.5 -0.1  2 0   368  930  560
[36]  80(N-1)  7 43 22  0  -4478.2  1022002.7  0.1  2 0   936 1294  418
[37]  83(N02)  7 44 22  0   1346.1  1021999.0  0.1  2 0  1291 1930 1012
[38]  86(N05)  7 31  7  0  -3914.6  1022002.4  0.3  5 0   607 1440  744
[48]  37(B01)  1 10 10  1  -1880.8 20460019.3  0.2  1 0  243  284  297
[49]  38(B02)  7 16 10  1  -1665.1 20460028.1  0.0  2 0  339  109  124
[50]  39(B03)  7 23 18  1  -1547.1 20460023.7 -0.1  2 0  573  495  562
[52]  42(B06)  1  7  7  0    -44.8 20460008.9  0.0  1 0  254  123  745
[53]  43(B07)  7  7  7  0  -1120.9 20460016.7 -0.0 10 0  318  482  284
[54]  45(B09)  1  7  7  0  -1086.3 20460017.9  0.0  1 0  218  510 1063
[56]  46(B10)  1  7  7  0  -1228.6 20460014.7  0.1  1 0  437  504  524
$GNGGA,022743.880,,,,,0,00,,,M,,,,0000*2B
$GNRMC,022743.880,A,,,,,,,070180,,*28
$GPGSA,A,1,,,,,,,,,,,,,,,*1E
$BDGSA,A,1,,,,,,,,,,,,,,,*0F
$GLGSA,A,1,,,,,,,,,,,,,,,*02
$GPGSV,3,1,09,03,00,000,39,14,00,000,43,16,00,000,43,22,00,000,42*7F
$GPGSV,3,2,09,23,00,000,38,26,00,000,45,27,00,000,40,31,00,000,44*7D
$GPGSV,3,3,09,32,00,000,42*47
$BDGSV,3,1,12,01,00,000,41,02,00,000,40,03,00,000,41,04,00,000,41*6C
$BDGSV,3,2,12,06,00,000,41,07,00,000,43,09,00,000,43,10,00,000,43*61
$BDGSV,3,3,12,18,00,000,43,19,00,000,44,21,00,000,43,22,00,000,44*69
$B3CN0,0,20,23,0,0,0,0,0,0,0,0,0,0,0*4F
---00000011--- Acq_st=3 0  2019-4-15 2:27:43 
[00]  02(G03)  f 40  7  0   -292.8  2046000.3  0.1  2 0 1198 1576  499
[02]  13(G14)  f 42  7  0    956.8  2045998.7  0.0  2 0 1835 2710 1217
[03]  15(G16)  f 43  7  0  -2473.6  2046003.1 -0.0  2 0 2219 3081 1166
[04]  21(G22)  f 41  7  0    575.3  2045999.2 -0.0  2 0 1261 2359 1443
[05]  22(G23)  f 39  7  0  -4321.2  2046005.6  0.1  2 0 1308 1243  435
[06]  25(G26)  f 45  8  0   -279.5  2046000.3 -0.0  2 0 2205 4389 2518
[08]  26(G27)  f 40  9  0  -4713.7  2046006.1  0.1  2 0  667 1410  718
[09]  30(G31)  f 43  7  0    344.9  2045999.5 -0.0  2 0 1742 2841 1401
[10]  31(G32)  f 41  7  0   1895.8  2045997.5 -0.0  2 0  713 1893 1481
[16]  37(B01) 1f 41 20  0  -1123.5  4092002.9  0.1  2 0 1325 1567  568
[17]  38(B02) 1f 40 25  0  -1074.1  4092002.6  0.4  2 0 1200 1243  370
[18]  39(B03) 1f 43 30  0  -1119.9  4092002.9 -0.1  2 0 1437 2274 1069
[19]  40(B04) 1f 42 26  0  -1118.7  4092002.9  0.2  2 0 1373 1722 1020
[20]  42(B06) 1f 41  7  0   -589.1  4092001.4 -0.0  2 0 1516 1910  474
[21]  43(B07) 1f 43  7  0   -850.8  4092002.1 -0.0  2 0 2351 2934  727
[22]  45(B09) 1f 42  7  0  -1145.5  4092002.9 -0.0  2 0 2238 2664  974
[24]  46(B10) 1f 43  7  0  -1105.0  4092002.8  0.0  2 0 1833 2562 1217
[26]  54(B18)  7 43  7  0   -957.2  4092002.4  0.0  2 0 2447 2792  893
[27]  55(B19)  7 43 12  0   1747.8  4091995.3 -0.1  2 0 2497 3180 1390
[28]  57(B21)  7 42  7  0  -3298.6  4092008.5  0.0  2 0 1786 2322 1295
[29]  58(B22)  7 44 13  0   -748.2  4092001.8 -0.0  2 0 1962 2787 1100
[30]  65(B29)  1  7  7  0  -1826.9  4092009.0 -0.1  1 0  505  307  513
[32]  75(N-6)  7 49  7  0  -1593.0  1022001.0 -0.0  2 0  2215 2996 1171
[33]  76(N-5)  7 48 19  0   2221.7  1021998.6  0.1  2 0  1926 3037 1439
[34]  78(N-3)  1 19 20  0  -2527.8  1022001.7  0.0  1 0   520  285  230
[35]  79(N-2)  7 36  7  0  -4173.8  1022002.6 -0.1  2 0   466  570  238
[36]  80(N-1)  7 43 21  0  -4491.0  1022002.8 -0.2  2 0  1028 1379  590
[37]  83(N02)  7 44 23  0   1334.8  1021999.1 -0.1  2 0  1085 1786  901
[38]  86(N05)  7 43  9  0  -3926.8  1022002.4 -0.1  2 0  1083 1261  198
[48]  37(B01)  7 13 18  0  -2247.9 20460036.1  0.1  2 0  536  151  465
[49]  38(B02)  7 22 10  1  -2093.4 20460034.7  0.2  2 0   87  169  453
[50]  39(B03)  7 24 17  1  -1934.5 20460028.6 -0.0  2 0  538  395  815
[51]  40(B04)  1 23 21  0   -720.3 20460011.7  0.1  1 0  782  474  139
[52]  42(B06)  1  7  9  0    345.5 20460008.0  0.3  1 0  609  704  244
[53]  43(B07)  7  7  7  0  -1114.3 20460017.8  0.1 10 0  610  716  784
[54]  45(B09)  1  7  7  0  -1171.1 20460016.4  0.2  1 0  470  617  460
[56]  46(B10)  1  7  7  0  -1527.6 20460016.3  0.2  1 0  434  694  190
$GNGGA,022744.880,,,,,0,00,,,M,,,,0000*2C
$GNRMC,022744.880,A,,,,,,,070180,,*2F
$GPGSA,A,1,,,,,,,,,,,,,,,*1E
$BDGSA,A,1,,,,,,,,,,,,,,,*0F
$GLGSA,A,1,,,,,,,,,,,,,,,*02
$GPGSV,3,1,09,03,00,000,40,14,00,000,42,16,00,000,43,22,00,000,41*73
$GPGSV,3,2,09,23,00,000,39,26,00,000,45,27,00,000,40,31,00,000,43*7B
$GPGSV,3,3,09,32,00,000,41*44
$BDGSV,3,1,12,01,00,000,41,02,00,000,40,03,00,000,42,04,00,000,41*6F
$BDGSV,3,2,12,06,00,000,41,07,00,000,43,09,00,000,42,10,00,000,43*60
$BDGSV,3,3,12,18,00,000,43,19,00,000,43,21,00,000,42,22,00,000,44*6F
$B3CN0,19,18,23,0,0,0,0,0,0,0,0,0,0,0*7C
---00000012--- Acq_st=3 0  2019-4-15 2:27:44 
[00]  02(G03)  f 39  7  0   -294.8  2046000.3 -0.1  2 0 1280 1562  691
[02]  13(G14)  f 43  7  0    957.4  2045998.7 -0.1  2 0 1792 2660  857
[03]  15(G16)  f 44  7  0  -2474.0  2046003.2 -0.1  2 0 1975 3544 2087
[04]  21(G22)  f 41  9  0    570.7  2045999.2  0.0  2 0 1026 2223 1014
[05]  22(G23)  f 39  7  0  -4319.2  2046005.5  0.1  2 0  551 1349  956
[06]  25(G26)  f 46  7  0   -278.6  2046000.3  0.0  2 0 3011 4795 1931
[08]  26(G27)  f 40  7  0  -4710.2  2046006.1 -0.1  2 0 1136 1931  816
[09]  30(G31)  f 44  8  0    346.1  2045999.5 -0.0  2 0 1873 2893 1259
[10]  31(G32)  f 41  7  0   1897.1  2045997.5 -0.1  2 0  607 1737 1048
[16]  37(B01) 1f 40 10  0  -1123.6  4092002.7 -0.0  2 0 1704 1756  395
[17]  38(B02) 1f 40 28  0  -1071.8  4092002.8 -0.0  2 0 1048 1318  551
[18]  39(B03) 1f 45 30  0  -1119.0  4092002.9 -0.0  2 0 1516 2264 1175
[19]  40(B04) 1f 40 18  0  -1115.9  4092002.7 -0.0  2 0 1091 1454  682
[20]  42(B06) 1f 41 11  0   -584.6  4092001.4 -0.0  2 0 1768 1978  569
[21]  43(B07) 1f 43  9  0   -849.0  4092002.1 -0.0  2 0 2702 3253 1524
[22]  45(B09) 1f 43  7  0  -1145.9  4092002.9  0.1  2 0 1569 2172 1025
[24]  46(B10) 1f 43  7  0  -1105.3  4092002.8 -0.0  2 0 1968 2198 1110
[26]  54(B18)  7 44  7  0   -956.6  4092002.4 -0.0  2 0 2291 2804 1022
[27]  55(B19)  7 44 14  0   1745.3  4091995.3 -0.0  2 0 2423 3139 1437
[28]  57(B21)  7 42  7  0  -3298.0  4092008.6 -0.0  2 0 1543 2495 1182
[29]  58(B22)  7 44 13  0   -745.9  4092001.8 -0.0  2 0 2835 3240 1300
[32]  75(N-6)  f 36  7  0  -1590.0  1022001.0 -0.1  2 0  1452 2674 1209
[33]  76(N-5)  7 48 20  0   2223.5  1021998.5 -0.2  2 0  1253 2222 1151
[35]  79(N-2)  7 35  7  0  -4172.4  1022002.5 -0.0  2 0   490  705  311
[36]  80(N-1)  7 44 21  0  -4489.4  1022002.8  0.1  2 0   531 1669 1164
[37]  83(N02)  7 44 21  0   1335.5  1021999.1 -0.1  2 0  1381 1773  492
[38]  86(N05)  7 42  7  0  -3926.9  1022002.5  0.1  2 0   888 1375  536
[48]  37(B01)  7 10 18  0  -2448.9 20460039.2 -0.1  2 0  579  480  317
[50]  39(B03)  7 22 23  1  -2012.5 20460031.9  0.0  2 0  535   41  382
[51]  40(B04)  1 21 22  0  -1099.1 20460018.0  0.0  1 0  389  660  396
$GNGGA,022745.880,,,,,0,00,,,M,,,,0000*2D
$GNRMC,022745.880,A,,,,,,,070180,,*2E
$GPGSA,A,1,,,,,,,,,,,,,,,*1E
$BDGSA,A,1,,,,,,,,,,,,,,,*0F
$GLGSA,A,1,,,,,,,,,,,,,,,*02
$GPGSV,3,1,09,03,00,000,39,14,00,000,43,16,00,000,44,22,00,000,41*7B
$GPGSV,3,2,09,23,00,000,39,26,00,000,46,27,00,000,40,31,00,000,44*7F
$GPGSV,3,3,09,32,00,000,41*44
$BDGSV,3,1,12,01,00,000,40,02,00,000,39,03,00,000,43,04,00,000,40*60
$BDGSV,3,2,12,06,00,000,41,07,00,000,43,09,00,000,43,10,00,000,43*61
$BDGSV,3,3,12,18,00,000,44,19,00,000,43,21,00,000,42,22,00,000,44*68
$B3CN0,0,0,22,0,0,0,0,0,0,0,0,0,0,0*7C
---00000013--- Acq_st=3 0  2019-4-15 2:27:45 
[00]  02(G03)  f 40  7  0   -281.9  2046000.3  0.0  2 0 1008 1286  824
[02]  13(G14)  f 43  7  0    965.0  2045998.7 -0.0  2 0 1734 2845 1827
[03]  15(G16)  f 44  7  0  -2459.8  2046003.1  0.0  2 0 1582 2196 1202
[04]  21(G22)  f 42  7  0    581.5  2045999.2  0.1  2 0 1875 2794 1215
[05]  22(G23)  f 38  7  0  -4311.9  2046005.5  0.2  2 0  829 1858  914
[06]  25(G26)  f 46  7  0   -265.6  2046000.3 -0.0  2 0 3084 5141 2434
[08]  26(G27)  f 40 10  0  -4698.2  2046006.0  0.1  2 0 1302 2210 1193
[09]  30(G31)  f 45  7  0    358.5  2045999.5  0.0  2 0 2454 3290 1279
[10]  31(G32)  f 42 10  0   1908.5  2045997.5  0.1  2 0 1809 2332  958
[16]  37(B01) 1f 41 13  0  -1117.6  4092002.9  0.6  2 0 1060 1320  288
[17]  38(B02) 1f 40 18  0  -1067.1  4092002.6 -0.4  2 0 1423 1513  774
[18]  39(B03) 1f 43 30  0  -1109.3  4092002.8 -0.2  2 0 1208 1438  401
[19]  40(B04) 1f 41 24  0  -1105.4  4092002.8  0.1  2 0 1078 1555  991
[20]  42(B06) 1f 42  7  0   -573.6  4092001.4  0.0  2 0 1478 2545 1277
[21]  43(B07) 1f 43  7  0   -837.0  4092002.1  0.1  2 0 2379 2676  775
[22]  45(B09) 1f 43  7  0  -1131.3  4092002.9 -0.1  2 0 1804 2654 1440
[24]  46(B10) 1f 43 10  0  -1090.3  4092002.7 -0.0  2 0 1460 2024  834
[25]  41(B05)  1 13 27  1  -1064.9  4092003.2  0.5  1 0  164 1111 1560
[26]  54(B18) 1f 44  9  0   -944.3  4092002.4 -0.0  2 0 1924 2815 1292
[27]  55(B19) 1f 43 14  0   1758.0  4091995.3  0.0  2 0 1884 2651 1392
[28]  57(B21) 1f 42  7  0  -3281.6  4092008.5 -0.0  2 0 1341 1805  911
[29]  58(B22) 1f 44 13  0   -735.3  4092001.8 -0.0  2 0 2286 3205 1309
[32]  75(N-6)  f 48  7  0  -1578.2  1022001.0 -0.1  2 0  1686 3112 1711
[33]  76(N-5)  7 48 22  0   2236.1  1021998.5  0.1  2 0  1585 2641  994
[35]  79(N-2)  7 35  7  0  -4159.9  1022002.6  0.1  2 0   283  413  243
[36]  80(N-1)  7 44 23  0  -4478.0  1022002.8 -0.1  2 0   982 1608  655
[37]  83(N02)  7 45 26  0   1346.5  1021999.0  0.0  2 0  1242 1616  782
[38]  86(N05)  f 35  7  0  -3913.2  1022002.5  0.1  2 0   936 1473  858
[48]  37(B01)  7 10 23  0  -3012.4 20460049.6  0.0  2 0  327   27  262
[49]  38(B02)  1 21 10  1   -936.4 20460010.9 -0.1  1 0  234  429  325
[50]  39(B03)  7 10 19  0  -2553.0 20460043.3 -0.0  2 0  346   93  385
[51]  40(B04)  1 23 24  0  -1249.2 20460021.8  0.0  1 0  363  388  234
[52]  42(B06)  1  7  8  0   -673.3 20460006.7 -0.0  1 0  168  217  154
[53]  43(B07)  1  7  7  0  -1182.9 20460010.1  0.0  1 0  549  212  442
[54]  45(B09)  1  7  7  0   -935.9 20460016.5 -0.1  1 0  608  529  523
[56]  46(B10)  1  7  7  0   -820.4 20460014.7  0.2  1 0  947  456  498
$GNGGA,022746.880,,,,,0,00,,,M,,,,0000*2E
$GNRMC,022746.880,A,,,,,,,070180,,*2D
$GPGSA,A,1,,,,,,,,,,,,,,,*1E
$BDGSA,A,1,,,,,,,,,,,,,,,*0F
$GLGSA,A,1,,,,,,,,,,,,,,,*02
$GPGSV,3,1,09,03,00,000,40,14,00,000,44,16,00,000,44,22,00,000,42*71
$GPGSV,3,2,09,23,00,000,39,26,00,000,46,27,00,000,40,31,00,000,45*7E
$GPGSV,3,3,09,32,00,000,42*47
$BDGSV,3,1,12,01,00,000,41,02,00,000,40,03,00,000,43,04,00,000,41*6E
$BDGSV,3,2,12,06,00,000,41,07,00,000,44,09,00,000,43,10,00,000,44*61
$BDGSV,3,3,12,05,00,000,39,18,00,000,44,19,00,000,43,21,00,000,42*67
$B3CN0,0,0,0,0,0,0,0,0,0,0,0,0,0,0*4C
---00000014--- Acq_st=3 0  2019-4-15 2:27:46 
[00]  02(G03)  f 40  7  0   -278.2  2046000.3  0.1  2 0 1379 1670  431
[02]  13(G14)  f 44  7  0    966.7  2045998.6  0.0  2 0 1436 2828 1560
[03]  15(G16)  f 44  7  0  -2456.0  2046003.1  0.0  2 0 2529 3246 1476
[04]  21(G22)  f 42  8  0    584.0  2045999.2 -0.0  2 0 1400 2156 1041
[05]  22(G23)  f 39  7  0  -4309.5  2046005.5 -0.1  2 0  907 1211  369
[06]  25(G26)  f 46  7  0   -264.2  2046000.3  0.0  2 0 3322 4615 1901
[08]  26(G27)  f 40  7  0  -4695.6  2046006.0 -0.2  2 0  364 1486  773
[09]  30(G31)  f 45  7  0    359.9  2045999.5 -0.0  2 0 1966 3371 1789
[10]  31(G32)  f 42  7  0   1908.3  2045997.5  0.0  2 0 1840 2498  911
[16]  37(B01) 1f 41 22  0  -1112.4  4092002.8  0.1  2 0 1306 1547  599
[17]  38(B02) 1f 40 25  0  -1061.3  4092002.5  0.5  2 0  759  732  138
[18]  39(B03) 1f 43 31  0  -1108.1  4092002.8  0.2  2 0 2102 2078  460
[19]  40(B04) 1f 41 10  0  -1099.7  4092002.7 -0.1  2 0 1554 1744  731
[20]  42(B06) 1f 41  7  0   -573.5  4092001.4 -0.0  2 0 1281 1694  912
[21]  43(B07) 1f 44  8  0   -838.0  4092002.1 -0.0  2 0 2253 2592 1068
[22]  45(B09) 1f 43  7  0  -1131.1  4092002.8 -0.0  2 0 1598 2351 1190
[24]  46(B10) 1f 44  7  0  -1090.6  4092002.7  0.0  2 0 1931 2831 1300
[25]  41(B05)  7 39 26  0  -1059.0  4092002.8  0.5  2 0  696 1604  921
[26]  54(B18) 1f 44  7  0   -944.8  4092002.3 -0.0  2 0 2317 2661 1321
[27]  55(B19) 1f 43 12  0   1759.4  4091995.3  0.0  2 0 1958 1999  616
[28]  57(B21) 1f 42  7  0  -3282.3  4092008.5 -0.0  2 0 1539 2079 1001
[29]  58(B22) 1f 43 10  0   -731.5  4092001.8  0.0  2 0 2036 2388  745
[30]  52(B16)  1 25  8  0   -619.6  4092002.7  0.2  1 0 1309 2619 1352
[32]  75(N-6)  f 48  7  0  -1575.6  1022001.0 -0.0  2 0  1807 3076 1822
[33]  76(N-5)  f 36  9  0   2238.0  1021998.6  0.1  2 0  1199 2617 1316
[35]  79(N-2)  f 32  7  0  -4158.4  1022002.6 -0.2  5 0   315  696  293
[36]  80(N-1)  f 36  7  0  -4476.1  1022002.8 -0.2  2 0   732 1573  982
[37]  83(N02)  f 36 14  0   1349.0  1021999.1  0.1  2 0   865 1513  513
[38]  86(N05)  f 42  7  0  -3912.7  1022002.5  0.1  2 0   755 1252  462
[48]  37(B01)  7 10 10  1  -3502.2 20460053.9  0.0  2 0  302  351  571
[49]  38(B02)  1 10 10  1   -995.1 20460018.0  0.0  1 0  244  734  869
[50]  39(B03)  7 10 25  0  -2801.8 20460045.4 -0.0  2 0  457  234  439
[51]  40(B04)  1 20 18  0   -559.6 20460025.1  0.1  1 0  255  426  661
[52]  42(B06)  1  7  7  0  -1018.9 20460006.9 -0.1  1 0  561  442  672
[53]  43(B07)  1  7  7  0   -606.5 20460009.7 -0.1  1 0  757  530  505
[54]  45(B09)  1  7  7  0   -737.8 20460017.6 -0.1  1 0  814  717  767
[56]  46(B10)  1  7  7  0   -559.7 20460015.7 -0.1  1 0  375  152  288
[58]  54(B18)  1  7  7  0   -926.7 20460015.7  0.0  1 0  574  464  694
[59]  55(B19)  1  7 10  0   1214.7 20459972.3  0.1  1 0  520  582  425
[60]  57(B21)  1  7  7  0  -2867.8 20460052.0 -0.1  1 0  537  718  159
[61]  58(B22)  1  7  7  0   -580.8 20460011.3 -0.0  1 0  306  893  292
---00000015--- Acq_st=2 0  2019-4-15 2:27:47 
[00]  02(G03)  f 40  7  0   -304.3  2046000.4 -0.0  2 0  992 1329  531
[02]  13(G14)  f 42  7  0    941.1  2045998.7  0.0  2 0 1578 2502 1217
[03]  15(G16)  f 44  7  0  -2480.7  2046003.2  0.0  2 0 1559 2880 1333
[04]  21(G22)  f 42  7  0    561.8  2045999.2  0.0  2 0 2005 2348  543
[05]  22(G23)  f 38  7  0  -4327.0  2046005.6  0.0  2 0 1011 1585  832
[06]  25(G26)  f 45 12  0   -287.5  2046000.3 -0.0  2 0 2988 4533 2109
[08]  26(G27)  f 41  7  0  -4717.5  2046006.1 -0.0  2 0 1040 1767  863
[09]  30(G31)  f 43  7  0    333.9  2045999.5 -0.1  2 0 2242 3762 1491
[10]  31(G32)  f 42  7  0   1886.4  2045997.5 -0.0  2 0 1333 1819  683
[16]  37(B01) 1f 42 10  0  -1137.2  4092002.9 -0.1  2 0 1517 1543  387
[17]  38(B02) 1f 40 28  0  -1089.2  4092002.7  0.3  2 0 1064  927  451
[18]  39(B03) 1f 43 29  0  -1131.4  4092002.9 -0.2  2 0 1747 2544 1028
[19]  40(B04) 1f 41 24  0  -1126.1  4092002.7 -0.4  2 0 1362 1677  660
[20]  42(B06) 1f 42  8  0   -600.3  4092001.4 -0.0  2 0 1392 2268 1153
[21]  43(B07) 1f 44  7  0   -857.9  4092002.1  0.0  2 0 2541 2918 1116
[22]  45(B09) 1f 43  7  0  -1153.2  4092002.9  0.1  2 0 2178 2576 1069
[24]  46(B10) 1f 43  7  0  -1113.0  4092002.8  0.0  2 0 1792 2540 1218
[25]  41(B05) 1f 40 21  0  -1081.1  4092002.7  0.0  2 0 1104 1262  418
[26]  54(B18) 1f 44  7  0   -968.0  4092002.4  0.0  2 0 2589 3464 1392
[27]  55(B19) 1f 44  9  0   1735.2  4091995.3  0.0  2 0 1418 2394  892
[28]  57(B21) 1f 42  7  0  -3307.9  4092008.6  0.0  2 0 2142 2952 1407
[29]  58(B22) 1f 43  9  0   -756.7  4092001.9  0.0  2 0 2360 3524 1556
[30]  52(B16)  7 23  7  0   -641.3  4092001.6  0.8 10 0 1986 2844  976
[32]  75(N-6)  f 47  7  0  -1599.9  1022001.0 -0.1  2 0  1620 2857 1339
[33]  76(N-5)  f 47 14  0   2213.1  1021998.6  0.1  2 0  1426 2935 1412
[35]  79(N-2)  f 34  7  0  -4184.7  1022002.6  0.0  2 0   399  862  462
[36]  80(N-1)  f 43  7  0  -4501.4  1022002.8 -0.1  2 0   931 1590 1021
[37]  83(N02)  f 43  7  0   1322.9  1021999.1 -0.0  2 0  1055 1888 1014
[38]  86(N05)  f 42  7  0  -3937.3  1022002.5 -0.0  2 0   950 1726  657
[49]  38(B02)  1 13 19  0  -1104.0 20460022.9 -0.1  1 0  494  596  282
[50]  39(B03)  7 25 10  1  -3488.6 20460057.0  0.0  2 0  315  325  486
[52]  42(B06)  1  7  7  0   -715.7 20460007.0 -0.1  1 0  845  645   12
[53]  43(B07)  1  7  7  0  -1339.3 20460009.1 -0.1  1 0  354  323  544
[54]  45(B09)  1  7  7  0   -747.8 20460016.0 -0.1  1 0  372  717  996
[56]  46(B10)  1  7  7  0   -408.5 20460015.5 -0.0  1 0  583  467  187
[58]  54(B18)  1  7  7  0   -468.0 20460015.4  0.1  1 0  604  612  551
[59]  55(B19)  1  7  7  0   1686.4 20459972.0  0.1  1 0  315  198  683
[60]  57(B21)  1  7  7  0  -3365.7 20460053.6 -0.1  1 0  197  234  509
[61]  58(B22)  1 11  7  0   -223.4 20460011.3 -0.1  1 0  438  107  127
$GNGGA,022747.880,,,,,0,00,,,M,,,,0000*2F
$GNRMC,022747.880,A,,,,,,,070180,,*2C
$GPGSA,A,1,,,,,,,,,,,,,,,*1E
$BDGSA,A,1,,,,,,,,,,,,,,,*0F
$GLGSA,A,1,,,,,,,,,,,,,,,*02
$GPGSV,3,1,09,03,00,000,40,14,00,000,42,16,00,000,44,22,00,000,42*77
$GPGSV,3,2,09,23,00,000,38,26,00,000,45,27,00,000,41,31,00,000,43*7B
$GPGSV,3,3,09,32,00,000,42*47
$BDGSV,3,1,12,01,00,000,42,02,00,000,40,03,00,000,43,04,00,000,41*6D
$BDGSV,3,2,12,06,00,000,42,07,00,000,44,09,00,000,43,10,00,000,43*65
$BDGSV,3,3,12,05,00,000,40,18,00,000,44,19,00,000,44,21,00,000,42*6E
$B3CN0,0,0,25,0,0,0,0,0,0,0,0,0,0,0*7B
---00000016--- Acq_st=7 0  2019-4-15 2:27:48 
[00]  02(G03)  f 40  7  0   -304.9  2046000.3  0.0  2 0  412  988  274
[02]  13(G14)  f 43  7  0    944.0  2045998.7 -0.1  2 0 1430 2629 1021
[03]  15(G16)  f 44  7  0  -2481.4  2046003.2  0.0  2 0 2045 2750 1250
[04]  21(G22)  f 43  7  0    563.4  2045999.2 -0.0  2 0 1230 2107  890
[05]  22(G23)  f 39  7  0  -4326.1  2046005.6 -0.1  2 0 1201  975  384
[06]  25(G26)  f 46 12  0   -288.3  2046000.3  0.0  2 0 2997 4571 2045
[08]  26(G27)  f 40  7  0  -4721.9  2046006.0 -0.1  2 0  994 2104 1379
[09]  30(G31)  f 43  8  0    338.5  2045999.5 -0.0  2 0 2039 3603 2227
[10]  31(G32)  f 42  7  0   1887.7  2045997.5  0.1  2 0 1387 2217  966
[16]  37(B01) 1f 41 18  0  -1132.2  4092002.9  0.0  2 0 1518 1805 1193
[17]  38(B02) 1f 40 23  0  -1081.4  4092002.8  0.6  2 0  948 1370  801
[18]  39(B03) 1f 45 31  0  -1129.5  4092002.9  0.0  2 0 1516 2190 1050
[19]  40(B04) 1f 41 10  0  -1128.7  4092002.7 -0.5  2 0 1213 1491  434
[20]  42(B06) 1f 42 10  0   -596.6  4092001.4  0.1  2 0 1383 1829  439
[21]  43(B07) 1f 44  7  0   -858.0  4092002.1 -0.0  2 0 1993 2153  791
[22]  45(B09) 1f 43  7  0  -1155.5  4092002.9 -0.0  2 0 1981 2686 1198
[24]  46(B10) 1f 44  7  0  -1111.9  4092002.8 -0.1  2 0 1863 2879 1050
[25]  41(B05) 1f 40 26  0  -1083.0  4092002.8  0.6  2 0 1341 1599  760
[26]  54(B18) 1f 44 12  0   -966.8  4092002.4 -0.0  2 0 2253 2758 1081
[27]  55(B19) 1f 44 12  0   1735.5  4091995.3  0.1  2 0 2262 2698 1073
[28]  57(B21) 1f 42  7  0  -3305.2  4092008.5  0.0  2 0 2025 2520 1039
[29]  58(B22) 1f 44 15  0   -752.9  4092001.8  0.0  2 0 2604 3373 1355
[30]  52(B16)  7 43  7  0   -637.3  4092001.5 -0.0  2 0 1959 2744 1492
[32]  75(N-6)  f 48  8  0  -1596.9  1022001.0 -0.0  2 0  1133 2800 1833
[33]  76(N-5)  f 47 12  0   2215.9  1021998.5 -0.1  2 0  1230 2413 1190
[34]  81(N00)  1 18 25  1  -2955.9  1022002.0 -0.1  1 0   119  440  481
[35]  79(N-2)  f 34  7  0  -4182.9  1022002.6  0.0  2 0   195  777  267
[36]  80(N-1)  f 43  7  0  -4497.9  1022002.8 -0.2  2 0  1147 1755  983
[37]  83(N02)  f 44  7  0   1324.6  1021999.1 -0.0  2 0   990 1354  804
[38]  86(N05)  f 42  7  0  -3935.3  1022002.5  0.0  2 0   833 1219  454
[48]  37(B01)  1 18 10  1   -961.0 20460018.0 -0.0  1 0   64  287  362
[49]  38(B02)  1 10 13  1  -1212.4 20460023.6 -0.1  1 0  114  342  531
[50]  39(B03)  7 19 22  0  -3752.8 20460060.0  0.0  2 0  391  566  316
[51]  40(B04)  1 24 24  1  -1251.9 20460016.3  0.1  1 0  195  125  426
[52]  42(B06)  1 12  7  0   -473.3 20460007.5  0.1  1 0  342  261  114
[53]  43(B07)  1  7  8  0  -1444.6 20460010.7  0.1  1 0  527  354  326
[54]  45(B09)  1  7  7  0  -1411.2 20460016.4 -0.0  1 0  147  343  458
[56]  46(B10)  1  7  7  0    -92.0 20460014.4  0.1  1 0  510  451  599
[57]  41(B05)  1 20 36  1   -328.4 20460015.8 -0.0  1 0  283  107  247
[58]  54(B18)  1  7  7  0    153.5 20460015.2 -0.1  1 0  545  424   85
[59]  55(B19)  1  7  7  0   1875.1 20459973.6  0.2  1 0  336  163  168
[60]  57(B21)  1  7  7  0  -3473.6 20460051.9  0.1  1 0  448  167  523
[61]  58(B22)  1 10  7  0    185.2 20460012.5 -0.0  1 0  124  376  682
$GNGGA,022748.880,,,,,0,00,,,M,,,,0000*20
$GNRMC,022748.880,A,,,,,,,150419,,*25
$GPGSA,A,1,,,,,,,,,,,,,,,*1E
$BDGSA,A,1,,,,,,,,,,,,,,,*0F
$GLGSA,A,1,,,,,,,,,,,,,,,*02
$GPGSV,3,1,09,03,00,000,40,14,00,000,43,16,00,000,44,22,00,000,43*77
$GPGSV,3,2,09,23,00,000,39,26,00,000,46,27,00,000,40,31,00,000,43*78
$GPGSV,3,3,09,32,00,000,42*47
$BDGSV,3,1,12,01,00,000,41,02,00,000,40,03,00,000,45,04,00,000,41*68
$BDGSV,3,2,12,06,00,000,42,07,00,000,44,09,00,000,43,10,00,000,44*62
$BDGSV,3,3,12,05,00,000,40,18,00,000,44,19,00,000,44,21,00,000,42*6E
$B3CN0,0,0,18,0,0,0,0,0,0,0,0,0,0,0*75
---00000017--- Acq_st=3 0  2019-4-15 2:27:49 
[00]  02(G03)  f 40  8  0   -281.6  2046000.3 -0.0  2 0  687 1272  317
[02]  13(G14)  f 43  7  0    963.9  2045998.7 -0.1  2 0 2031 3178 1452
[03]  15(G16)  f 44  7  0  -2463.0  2046003.1 -0.1  2 0 2288 3208 1241
[04]  21(G22)  f 43  7  0    578.9  2045999.2  0.1  2 0 1266 2149  894
[05]  22(G23)  f 39  7  0  -4313.7  2046005.5 -0.0  2 0  715 1079  372
[06]  25(G26)  f 46 10  0   -267.9  2046000.3  0.0  2 0 2718 4658 2097
[08]  26(G27)  f 40  7  0  -4706.2  2046006.1  0.1  2 0 1490 1626  518
[09]  30(G31)  f 44  7  0    353.9  2045999.5  0.0  2 0 2349 3358 1082
[10]  31(G32)  f 43  7  0   1904.8  2045997.4 -0.0  2 0 2072 2485  984
[16]  37(B01) 1f 40 10  0  -1122.6  4092002.9 -0.1  2 0 1220 1224  694
[17]  38(B02) 1f 41 27  0  -1065.2  4092002.6 -0.9  2 0 1079  851  395
[18]  39(B03) 1f 43 30  0  -1113.6  4092002.8 -0.2  2 0 1688 2428  786
[19]  40(B04) 1f 41 16  0  -1110.8  4092002.9 -0.3  2 0  923 1425  552
[20]  42(B06) 1f 42  7  0   -574.0  4092001.4 -0.0  2 0 1477 1657  633
[21]  43(B07) 1f 44  7  0   -840.8  4092002.1 -0.0  2 0 2197 2850 1261
[22]  45(B09) 1f 43  7  0  -1137.5  4092002.9 -0.0  2 0 2294 2276  330
[24]  46(B10) 1f 44  9  0  -1094.3  4092002.7 -0.1  2 0 2087 2094  809
[25]  41(B05) 1f 40 29  0  -1065.8  4092002.8  0.8  2 0  811 1363  596
[26]  54(B18) 1f 44 13  0   -949.9  4092002.4 -0.0  2 0 2755 3662 1338
[27]  55(B19) 1f 44 12  0   1753.5  4091995.3  0.1  2 0 1973 2739  929
[28]  57(B21) 1f 42  7  0  -3286.9  4092008.5 -0.0  2 0 1597 1614  453
[29]  58(B22) 1f 45 11  0   -735.8  4092001.8  0.0  2 0 2244 2941 1181
[30]  52(B16)  7 43  7  0   -622.9  4092001.5  0.0  2 0 1380 2652 1439
[32]  75(N-6)  f 48  7  0  -1578.6  1022001.0  0.2  2 0  1701 2682 1416
[33]  76(N-5)  f 47 12  0   2233.1  1021998.5  0.0  2 0  1575 2517 1528
[34]  81(N00)  7 14  7  1  -2847.9  1022001.8  0.1 10 0   160  236  576
[35]  79(N-2)  f 34  7  0  -4163.5  1022002.7 -0.1  2 0   533  469  327
[36]  80(N-1)  f 43  7  0  -4479.3  1022002.8 -0.0  2 0   823 1319  810
[37]  83(N02)  f 44  7  0   1342.0  1021999.1 -0.0  2 0  1146 1596  585
[38]  86(N05)  f 42  7  0  -3920.1  1022002.4  0.1  2 0   557 1213  782
[48]  37(B01)  1 10 10  0   -212.7 20460021.8  0.1  1 0  596  984  647
[49]  38(B02)  f 10 10  0   -895.3 20460013.7 -0.0  2 0  545  839  521
[50]  39(B03)  7 18 22  0  -4313.2 20460071.3  0.1  2 0  238  279  474
[51]  40(B04)  1 22 21  1  -1160.0 20460024.8 -0.0  1 0  212   54  150
[57]  41(B05)  1 22 26  0   -441.7 20460019.5  0.0  1 0  212  246  416
[58]  54(B18)  1  7  7  0     11.1 20460016.1 -0.0  1 0  527  503  735
[59]  55(B19)  1  7  7  0   1599.6 20459970.5  0.0  1 0  321  388  272
[60]  57(B21)  1  7  7  0  -4199.7 20460054.0  0.1  1 0   87  379  152
[61]  58(B22)  1  7  7  0    335.7 20460010.7 -0.0  1 0  199  461  560
$GNGGA,022749.880,,,,,0,00,,,M,,,,0000*21
$GNRMC,022749.880,A,,,,,,,150419,,*24
$GPGSA,A,1,,,,,,,,,,,,,,,*1E
$BDGSA,A,1,,,,,,,,,,,,,,,*0F
$GLGSA,A,1,,,,,,,,,,,,,,,*02
$GPGSV,3,1,09,03,00,000,40,14,00,000,43,16,00,000,44,22,00,000,43*77
$GPGSV,3,2,09,23,00,000,39,26,00,000,46,27,00,000,40,31,00,000,44*7F
$GPGSV,3,3,09,32,00,000,43*46
$BDGSV,3,1,12,01,00,000,40,02,00,000,41,03,00,000,43,04,00,000,41*6E
$BDGSV,3,2,12,06,00,000,42,07,00,000,44,09,00,000,43,10,00,000,44*62
$BDGSV,3,3,12,05,00,000,40,18,00,000,44,19,00,000,44,21,00,000,42*6E
$B3CN0,0,0,19,0,0,0,0,0,0,0,0,0,0,0*74
---00000018--- Acq_st=3 0  2019-4-15 2:27:50 
[00]  02(G03)  f 39  7  0   -285.1  2046000.3  0.1  2 0 1243 1816  919
[02]  13(G14)  f 43  7  0    962.3  2045998.7  0.1  2 0 2272 3064 1031
[03]  15(G16)  f 44  7  0  -2461.7  2046003.1 -0.0  2 0 1803 3052 1116
[04]  21(G22)  f 42  7  0    583.2  2045999.2  0.0  2 0 1210 1936  855
[05]  22(G23)  f 39  7  0  -4311.6  2046005.5 -0.1  2 0  858 1461  675
[06]  25(G26)  f 46  7  0   -268.4  2046000.3 -0.0  2 0 2841 4727 2211
[08]  26(G27)  f 40  7  0  -4705.1  2046006.1  0.1  2 0 1544 1963 1608
[09]  30(G31)  f 44  7  0    354.0  2045999.5  0.0  2 0 2311 3869 2110
[10]  31(G32)  f 42  7  0   1904.4  2045997.5 -0.1  2 0 1252 2194  889
[16]  37(B01) 1f 41 22  0  -1119.6  4092002.8 -0.2  2 0  907 1498  925
[17]  38(B02) 1f 39 23  0  -1070.4  4092002.7 -0.6  2 0 1333 1856  970
[18]  39(B03) 1f 43 30  0  -1112.0  4092002.7 -0.2  2 0 1528 1995  649
[19]  40(B04) 1f 42 20  0  -1107.5  4092002.8 -0.7  2 0 1391 1426  882
[20]  42(B06) 1f 42  7  0   -580.3  4092001.4 -0.0  2 0 1371 1735  774
[21]  43(B07) 1f 44  7  0   -843.3  4092002.1  0.0  2 0 2809 3113 1250
[22]  45(B09) 1f 43  7  0  -1135.5  4092002.9  0.0  2 0 1781 2446 1263
[24]  46(B10) 1f 43 11  0  -1096.3  4092002.7  0.0  2 0 1784 2839 1297
[25]  41(B05) 1f 40 23  0  -1070.5  4092002.6  0.7  2 0  708 1359  743
[26]  54(B18) 1f 44 10  0   -951.4  4092002.4  0.0  2 0 2116 2887 1550
[27]  55(B19) 1f 44  9  0   1753.0  4091995.3 -0.1  2 0 1967 2696 1246
[28]  57(B21) 1f 42  7  0  -3291.5  4092008.5 -0.0  2 0 1808 2223 1180
[29]  58(B22) 1f 44 13  0   -737.3  4092001.8 -0.0  2 0 2803 3722 1724
[30]  52(B16)  7 43  7  0   -622.3  4092001.5  0.0  2 0 2037 2438 1099
[32]  75(N-6)  f 48  7  0  -1579.1  1022001.0 -0.0  2 0  1418 2543 1167
[33]  76(N-5)  f 47 15  0   2232.4  1021998.6  0.0  2 0  1395 2419 1049
[34]  81(N00)  7 29  7  0  -2849.3  1022002.2  0.0  5 0    43   59  541
[35]  79(N-2)  f 34  7  0  -4165.0  1022002.6 -0.1  2 0   338  494  140
[36]  80(N-1)  f 43 13  0  -4481.0  1022002.8 -0.2  2 0   805 1738  894
[37]  83(N02)  f 44 12  0   1341.5  1021999.1  0.0  2 0   969 1577  746
[38]  86(N05)  f 43  7  0  -3919.0  1022002.5 -0.1  2 0   886 1731  956
[48]  37(B01)  1 10 10  1   -120.3 20460020.0  0.0  1 0  805  426  271
[49]  38(B02)  f 10 21  0  -1122.1 20460017.1  0.1  2 0  508    3  570
[51]  40(B04)  1 23 23  1   -548.4 20460021.4 -0.1  1 0  656  512  462
[52]  42(B06)  1  7  7  0   -389.0 20460007.1  0.0  1 0  799  184  199
[53]  43(B07)  1  7  7  0   -837.5 20460009.7 -0.2  1 0  556  232  372
[54]  45(B09)  1  7  7  0   -418.5 20460016.4 -0.1  1 0  240  258  181
[56]  46(B10)  1  7  7  0   -840.1 20460016.1  0.1  1 0  523  492  253
[57]  41(B05)  1 22 23  0   -661.1 20460025.7  0.1  1 0  637  553  227
$GNGGA,022750.880,,,,,0,00,,,M,,,,0000*29
$GNRMC,022750.880,A,,,,,,,150419,,*2C
$GPGSA,A,1,,,,,,,,,,,,,,,*1E
$BDGSA,A,1,,,,,,,,,,,,,,,*0F
$GLGSA,A,1,,,,,,,,,,,,,,,*02
$GPGSV,3,1,09,03,00,000,39,14,00,000,43,16,00,000,44,22,00,000,42*78
$GPGSV,3,2,09,23,00,000,39,26,00,000,46,27,00,000,40,31,00,000,44*7F
$GPGSV,3,3,09,32,00,000,42*47
$BDGSV,3,1,12,01,00,000,41,02,00,000,39,03,00,000,43,04,00,000,42*63
$BDGSV,3,2,12,06,00,000,42,07,00,000,44,09,00,000,43,10,00,000,43*65
$BDGSV,3,3,12,05,00,000,40,18,00,000,44,19,00,000,44,21,00,000,42*6E
$B3CN0,0,0,0,0,0,0,0,0,0,0,0,0,0,0*4C
---00000019--- Acq_st=3 0  2019-4-15 2:27:51 
[00]  02(G03)  f 40  7  0   -291.9  2046000.3  0.0  2 0  701 1518  696
[02]  13(G14)  f 43  7  0    960.0  2045998.6 -0.0  2 0 1196 2576 1094
[03]  15(G16)  f 44  7  0  -2466.7  2046003.1 -0.0  2 0 2385 3143 1256
[04]  21(G22)  f 42  7  0    576.8  2045999.2 -0.1  2 0 1371 2032  905
[05]  22(G23)  f 39  7  0  -4314.5  2046005.5 -0.1  2 0 1207 1478  599
[06]  25(G26)  f 45  7  0   -271.5  2046000.3  0.1  2 0 2760 4939 2120
[08]  26(G27)  f 41  7  0  -4708.5  2046006.1 -0.1  2 0 1107 1599  733
[09]  30(G31)  f 44 13  0    348.7  2045999.5 -0.0  2 0 2213 3391 1462
[10]  31(G32)  f 43  7  0   1901.9  2045997.5  0.0  2 0 1032 2642 1992
[16]  37(B01) 1f 41 13  0  -1124.6  4092002.8 -0.5  2 0 1333 1499  804
[17]  38(B02) 1f 40 27  0  -1070.1  4092002.7  0.4  2 0 1446 1566  668
[18]  39(B03) 1f 43 31  0  -1117.4  4092002.9  0.3  2 0 2129 2663 1117
[19]  40(B04) 1f 41 20  0  -1117.4  4092002.8 -0.6  2 0  890 1385  412
[20]  42(B06) 1f 41  7  0   -586.0  4092001.4  0.0  2 0 1267 1934  861
[21]  43(B07) 1f 44  7  0   -848.6  4092002.1  0.0  2 0 2050 3063 1517
[22]  45(B09) 1f 43  7  0  -1138.7  4092002.9  0.0  2 0 1437 1993  978
[24]  46(B10) 1f 43  7  0  -1100.4  4092002.8  0.0  2 0 1822 2468 1102
[25]  41(B05) 1f 39 28  0  -1073.3  4092002.8  0.7  2 0  605  938  538
[26]  54(B18) 1f 44  7  0   -953.0  4092002.4 -0.0  2 0 2833 3093 1202
[27]  55(B19) 1f 44 16  0   1751.0  4091995.3  0.0  2 0 2048 2881 1230
[28]  57(B21) 1f 42  7  0  -3292.9  4092008.5  0.0  2 0 1442 2324 1503
[29]  58(B22) 1f 44 11  0   -742.1  4092001.8  0.0  2 0 2393 3104 1107
[30]  52(B16) 1f 43  7  0   -620.3  4092001.5 -0.1  2 0 1957 2688 1448
[32]  75(N-6)  f 48  7  0  -1581.5  1022001.0 -0.1  2 0  1618 2794 1362
[33]  76(N-5)  f 47 12  0   2230.6  1021998.5 -0.0  2 0  1824 2535  930
[34]  81(N00)  7 29 12  0  -2851.7  1022002.1 -0.0  5 0    96  539  575
[35]  79(N-2)  f 35  7  0  -4167.7  1022002.6 -0.1  2 0   113  586  435
[36]  80(N-1)  f 43  9  0  -4482.9  1022002.8  0.2  2 0   463 1352  656
[37]  83(N02)  f 44  7  0   1338.4  1021999.1  0.1  2 0   970 1726 1123
[38]  86(N05)  f 42  7  0  -3921.5  1022002.5 -0.1  2 0   539 1589  800
[48]  37(B01)  1 19 17  1    445.9 20460020.7  0.1  1 0  258  607  568
[49]  38(B02)  f 10 18  0  -1092.2 20460016.4  0.1  2 0  349  185  274
[50]  39(B03)  1 17 10  1   -875.9 20460012.5  0.0  1 0  237  372  499
[51]  40(B04)  1 19 23  0   -348.6 20460024.2 -0.1  1 0  576  866  598
[52]  42(B06)  1  7  7  0   -686.1 20460005.4  0.2  1 0  513  653  538
[53]  43(B07)  1  7  7  0   -796.8 20460010.6  0.1  1 0  806  824  519
[54]  45(B09)  1  7  7  0   -498.2 20460016.9  0.2  1 0  708  580  270
[56]  46(B10)  1  7  7  0   -570.2 20460016.0 -0.0  1 0  130  134  378
[57]  41(B05)  1 25 23  1   -797.6 20460021.6  0.1  1 0  175   65   56
[58]  54(B18)  1  7  7  0   -945.8 20460013.5 -0.1  1 0  429  836  663
[59]  55(B19)  1  7  7  0   1752.5 20459972.1 -0.0  1 0   86  290  601
[60]  57(B21)  1  7  7  0  -2695.9 20460053.8 -0.0  1 0  182  501  655
[61]  58(B22)  1  7  7  0   -633.7 20460012.4 -0.2  1 0   87  140  121
$GNGGA,022751.880,,,,,0,00,,,M,,,,0000*28
$GNRMC,022751.880,A,,,,,,,150419,,*2D
$GPGSA,A,1,,,,,,,,,,,,,,,*1E
$BDGSA,A,1,,,,,,,,,,,,,,,*0F
$GLGSA,A,1,,,,,,,,,,,,,,,*02
$GPGSV,3,1,09,03,00,000,40,14,00,000,43,16,00,000,44,22,00,000,42*76
$GPGSV,3,2,09,23,00,000,39,26,00,000,45,27,00,000,41,31,00,000,44*7D
$GPGSV,3,3,09,32,00,000,43*46
$BDGSV,3,1,12,01,00,000,41,02,00,000,40,03,00,000,43,04,00,000,41*6E
$BDGSV,3,2,12,06,00,000,41,07,00,000,44,09,00,000,43,10,00,000,43*66
$BDGSV,3,3,12,05,00,000,39,18,00,000,44,19,00,000,44,21,00,000,42*60
$B3CN0,0,0,0,0,0,0,0,0,0,0,0,0,0,0*4C
---00000020--- Acq_st=3 0  2019-4-15 2:27:52 
[00]  02(G03)  f 40  7  0   -296.7  2046000.3 -0.0  2 0 1224 1385  756
[02]  13(G14)  f 43  7  0    950.7  2045998.7 -0.0  2 0 1977 3038 1142
[03]  15(G16)  f 43  7  0  -2475.5  2046003.2  0.0  2 0 2646 3512 1261
[04]  21(G22)  f 42  7  0    568.1  2045999.2 -0.0  2 0 1899 3028 1473
[05]  22(G23)  f 38  7  0  -4321.7  2046005.6  0.0  2 0  677 1337  582
[06]  25(G26)  f 45  7  0   -282.4  2046000.3 -0.0  2 0 2881 4461 2265
[08]  26(G27)  f 40  7  0  -4716.7  2046006.0 -0.1  2 0 1351 1770  885
[09]  30(G31)  f 45 14  0    340.3  2045999.5 -0.0  2 0 2177 3904 2177
[10]  31(G32)  f 43  7  0   1888.8  2045997.5  0.0  2 0 1795 2673 1284
[16]  37(B01) 1f 41 10  0  -1131.6  4092002.8  0.3  2 0 1232 1560  417
[17]  38(B02) 1f 39 30  0  -1087.1  4092002.8 -0.8  2 0 1148 1137  817
[18]  39(B03) 1f 43 29  0  -1126.5  4092002.9  0.0  2 0 1232 1539  580
[19]  40(B04) 1f 41 24  0  -1122.8  4092002.8 -0.7  2 0 1566 2047  734
[20]  42(B06) 1f 42  7  0   -586.9  4092001.4  0.1  2 0 1421 1780  921
[21]  43(B07) 1f 44  7  0   -855.9  4092002.1 -0.1  2 0 2311 2355  648
[22]  45(B09) 1f 43  7  0  -1150.8  4092002.9  0.0  2 0 1918 2489  798
[24]  46(B10) 1f 43 11  0  -1110.4  4092002.8 -0.1  2 0 1609 2965 1474
[25]  41(B05) 1f 37 24  0  -1082.7  4092002.8 -0.8  2 0  896 1443 1035
[26]  54(B18) 1f 44  7  0   -963.1  4092002.4 -0.0  2 0 2376 3140 1005
[27]  55(B19) 1f 44 12  0   1741.4  4091995.3 -0.1  2 0 2103 2926 1402
[28]  57(B21) 1f 42  7  0  -3299.4  4092008.6  0.1  2 0 2095 2638 1205
[29]  58(B22) 1f 44 12  0   -749.2  4092001.9  0.1  2 0 2740 3575 1323
[30]  52(B16) 1f 43  9  0   -635.4  4092001.5  0.0  2 0 2040 2399  945
[32]  75(N-6)  f 47  7  0  -1589.7  1022001.0 -0.1  2 0  1715 2947 1563
[33]  76(N-5)  f 47  7  0   2220.6  1021998.6 -0.0  2 0  1635 2674 1016
[34]  81(N00)  f 29  7  0  -2860.2  1022002.0  0.0  5 0    77   19  150
[35]  79(N-2)  f 35  7  0  -4177.3  1022002.6  0.0  2 0   519  437  123
[36]  80(N-1)  f 43  7  0  -4494.5  1022002.8 -0.1  2 0   815 1634  756
[37]  83(N02)  f 44  7  0   1328.8  1021999.1 -0.0  2 0   953 1986 1150
[38]  86(N05)  f 43  7  0  -3930.7  1022002.5  0.1  2 0  1003 1849  818
[48]  37(B01)  1 36 23  0    364.2 20460027.8 -0.0  1 0  631   71  373
[49]  38(B02)  f 18 14  1  -1631.3 20460025.8  0.1  2 0  235  412  567
[50]  39(B03)  1 20 18  0   -756.8 20460015.9 -0.0  1 0  218  813  499
[51]  40(B04)  1 20 24  0   -215.5 20460022.1 -0.1  1 0  245  106  370
[52]  42(B06)  1  7  7  0   -845.0 20460007.9  0.1  1 0  161  391  450
[53]  43(B07)  1  7  7  0   -679.6 20460011.2 -0.0  1 0  157  512  503
[54]  45(B09)  1  8 11  0   -877.2 20460017.2  0.1  1 0  592  275  511
[56]  46(B10)  1  7  7  0   -919.0 20460017.7 -0.3  1 0  369  298  156
[57]  41(B05)  1 24 24  1   -785.1 20460023.2 -0.0  1 0  345  404   95
[58]  54(B18)  1  8  7  0   -832.1 20460015.0  0.0  1 0  633  943  818
[59]  55(B19)  1  7  8  0   1922.0 20459972.1 -0.0  1 0   59  246  447
[60]  57(B21)  1  7  7  0  -3122.4 20460053.6 -0.1  1 0  406   50  478
[61]  58(B22)  1  7  7  0   -749.4 20460011.4 -0.2  1 0  400  149  529
[62]  52(B16)  1  7  7  0   -503.0 20460010.5 -0.0  1 0  499  241  287
$GNGGA,022752.880,,,,,0,00,,,M,,,,0000*2B
$GNRMC,022752.880,A,,,,,,,150419,,*2E
$GPGSA,A,1,,,,,,,,,,,,,,,*1E
$BDGSA,A,1,,,,,,,,,,,,,,,*0F
$GLGSA,A,1,,,,,,,,,,,,,,,*02
$GPGSV,3,1,09,03,00,000,40,14,00,000,43,16,00,000,43,22,00,000,42*71
$GPGSV,3,2,09,23,00,000,38,26,00,000,45,27,00,000,40,31,00,000,45*7C
$GPGSV,3,3,09,32,00,000,43*46
$BDGSV,3,1,12,01,00,000,41,02,00,000,39,03,00,000,43,04,00,000,41*60
$BDGSV,3,2,12,06,00,000,42,07,00,000,44,09,00,000,43,10,00,000,43*65
$BDGSV,3,3,12,05,00,000,38,18,00,000,44,19,00,000,44,21,00,000,42*61
$B3CN0,0,18,0,0,0,0,0,0,0,0,0,0,0,0*75
---00000021--- Acq_st=3 0  2019-4-15 2:27:53 
[00]  02(G03)  f 41  7  0   -282.4  2046000.3  0.1  2 0 1518 1927 1188
[02]  13(G14)  f 43  8  0    967.2  2045998.7  0.1  2 0 1596 2251  966
[03]  15(G16)  f 44  7  0  -2456.4  2046003.1  0.0  2 0 2322 3899 1866
[04]  21(G22)  f 43  7  0    582.6  2045999.2  0.1  2 0 1514 1992  956
[05]  22(G23)  f 39  7  0  -4315.4  2046005.6  0.0  2 0 1334 1961  978
[06]  25(G26)  f 46  8  0   -264.5  2046000.3  0.1  2 0 2995 4560 1746
[08]  26(G27)  f 40  7  0  -4703.2  2046006.0  0.1  2 0 1420 1891  808
[09]  30(G31)  f 44  7  0    355.0  2045999.5  0.0  2 0 2119 3032 1358
[10]  31(G32)  f 42  8  0   1909.5  2045997.5 -0.0  2 0  926 1756  749
[16]  37(B01) 1f 41 19  0  -1117.1  4092002.7 -0.5  2 0 1391 1799  602
[17]  38(B02) 1f 41 26  0  -1065.9  4092002.7  0.8  2 0 1385 1556  480
[18]  39(B03) 1f 42 32  0  -1108.2  4092002.8  0.2  2 0 1431 1949  900
[19]  40(B04) 1f 41 16  0  -1106.4  4092002.7 -0.7  2 0  994 1578  611
[20]  42(B06) 1f 41  7  0   -575.0  4092001.4 -0.0  2 0 1507 1841  866
[21]  43(B07) 1f 44  7  0   -841.0  4092002.1 -0.0  2 0 2659 3299 1265
[22]  45(B09) 1f 43  7  0  -1134.8  4092002.8  0.0  2 0 1747 2264  846
[24]  46(B10) 1f 43  9  0  -1091.4  4092002.7  0.0  2 0 1835 2208  510
[25]  41(B05) 1f 38 27  0  -1063.5  4092002.8  0.5  2 0  948 1021  347
[26]  54(B18) 1f 44  7  0   -947.6  4092002.4  0.0  2 0 2350 2972 1260
[27]  55(B19) 1f 44 13  0   1756.0  4091995.3  0.0  2 0 2159 2656  871
[28]  57(B21) 1f 42  7  0  -3286.6  4092008.5  0.0  2 0 1886 2229 1097
[29]  58(B22) 1f 44 15  0   -735.0  4092001.8  0.0  2 0 2656 3373 1939
[30]  52(B16) 1f 43  7  0   -619.5  4092001.5  0.0  2 0 1849 2641  974
[32]  75(N-6)  f 48  7  0  -1572.5  1022001.0  0.0  2 0  1588 3001 1790
[33]  76(N-5)  f 47 11  0   2237.1  1021998.5  0.0  2 0  1457 2610 1143
[34]  81(N00)  f 33  7  0  -2841.9  1022001.8 -0.1  5 0    55  357  346
[35]  79(N-2)  f 35  7  0  -4159.2  1022002.6 -0.1  2 0   350  569  485
[36]  80(N-1)  f 43  7  0  -4475.4  1022002.8  0.0  2 0   745  948  243
[37]  83(N02)  f 44  7  0   1345.4  1021999.1  0.1  2 0   971 1640  967
[38]  86(N05)  f 42  7  0  -3913.5  1022002.5 -0.0  2 0  1029 1431  592
[48]  37(B01)  7 10 10  0   -264.9 20460004.1  0.0  2 0  540  709  653
[49]  38(B02)  f 13 14  0  -2426.2 20460037.6  0.0  2 0  322  514  573
[50]  39(B03)  1 24 17  0    -70.2 20460017.2 -0.1  1 0  310  193  246
[52]  42(B06)  1 10  7  0   -812.9 20460007.3  0.1  1 0 1027  664  428
[53]  43(B07)  1  7  7  0   -406.5 20460010.5  0.0  1 0  407  317  384
[54]  45(B09)  1  7  7  0   -694.2 20460017.3 -0.1  1 0  729  240  303
[56]  46(B10)  1  7  7  0   -811.2 20460017.4 -0.1  1 0  555  458  184
[58]  54(B18)  1  7  7  0   -591.2 20460015.7  0.3  1 0  536  654  923
[59]  55(B19)  1  7  7  0   1650.5 20459972.6  0.0  1 0  368  288  181
[60]  57(B21)  1  7  7  0  -3394.5 20460053.2 -0.2  1 0  540  606  341
[61]  58(B22)  1  7  7  0   -895.9 20460009.5  0.2  1 0  303  184  206
[62]  52(B16)  1  7  7  0  -1175.9 20460009.3 -0.0  1 0  906  652  552
$GNGGA,022753.880,,,,,0,00,,,M,,,,0000*2A
$GNRMC,022753.880,A,,,,,,,150419,,*2F
$GPGSA,A,1,,,,,,,,,,,,,,,*1E
$BDGSA,A,1,,,,,,,,,,,,,,,*0F
$GLGSA,A,1,,,,,,,,,,,,,,,*02
$GPGSV,3,1,09,03,00,000,41,14,00,000,43,16,00,000,44,22,00,000,43*76
$GPGSV,3,2,09,23,00,000,39,26,00,000,46,27,00,000,40,31,00,000,44*7F
$GPGSV,3,3,09,32,00,000,42*47
$BDGSV,3,1,12,01,00,000,41,02,00,000,41,03,00,000,42,04,00,000,41*6E
$BDGSV,3,2,12,06,00,000,41,07,00,000,44,09,00,000,43,10,00,000,43*66
$BDGSV,3,3,12,05,00,000,38,18,00,000,44,19,00,000,44,21,00,000,42*61
$B3CN0,0,0,0,0,0,0,0,0,0,0,0,0,0,0*4C
---00000022--- Acq_st=7 0  2019-4-15 2:27:54 
[00]  02(G03)  f 40  7  0   -276.1  2046000.3 -0.0  2 0 1305 1438  611
[02]  13(G14)  f 43  7  0    963.3  2045998.7 -0.0  2 0 2012 2567 1434
[03]  15(G16)  f 44  7  0  -2461.3  2046003.1  0.1  2 0 2265 3486 1386
[04]  21(G22)  f 42  7  0    580.1  2045999.2 -0.0  2 0 1566 2226  741
[05]  22(G23)  f 39  7  0  -4317.3  2046005.5  0.0  2 0 1058 1709  802
[06]  25(G26)  f 45  7  0   -268.8  2046000.3 -0.0  2 0 3188 5023 2387
[08]  26(G27)  f 40  9  0  -4708.0  2046006.0 -0.1  2 0  587 1501  960
[09]  30(G31)  f 44  7  0    352.4  2045999.5 -0.0  2 0 2405 3439 1509
[10]  31(G32)  f 42  7  0   1904.2  2045997.5  0.1  2 0 1247 2147 1164
[16]  37(B01) 1f 41 23  0  -1123.1  4092002.9 -0.6  2 0 1096 1472  800
[17]  38(B02) 1f 40 27  0  -1068.7  4092002.7  0.3  2 0  947 1492  843
[18]  39(B03) 1f 43 30  0  -1117.0  4092002.8 -0.0  2 0 1457 2122  932
[19]  40(B04) 1f 41 24  0  -1116.0  4092002.7  0.9  2 0 1177 1135   53
[20]  42(B06) 1f 41  8  0   -583.9  4092001.4  0.1  2 0 1382 1761 1134
[21]  43(B07) 1f 44  7  0   -843.7  4092002.1  0.1  2 0 2214 3025 1114
[22]  45(B09) 1f 43  7  0  -1138.8  4092002.9 -0.0  2 0 2023 2620 1217
[24]  46(B10) 1f 43  7  0  -1098.8  4092002.7 -0.0  2 0 1693 2539 1231
[25]  41(B05) 1f 38 24  0  -1071.3  4092002.6  0.5  2 0 1118  905  508
[26]  54(B18) 1f 44  7  0   -951.8  4092002.4 -0.0  2 0 2374 3015 1129
[27]  55(B19) 1f 44 12  0   1753.9  4091995.3  0.0  2 0 2192 3067 1557
[28]  57(B21) 1f 42  7  0  -3289.7  4092008.5 -0.1  2 0 1737 2053  948
[29]  58(B22) 1f 44 12  0   -734.8  4092001.8 -0.0  2 0 2804 2810 1065
[30]  52(B16) 1f 43  7  0   -623.4  4092001.5  0.0  2 0 1563 2471 1185
