i=1
Rf R0 Config = ff777073
Rf R1 Config = 00dffbfe
Rf R52 Config = 00dfef00
i=2
Rf R0 Config = 007772f3
Rf R1 Config = 00df5bfe
Rf R52 Config = 00db0e50
i=3
Rf R0 Config = 007772f3
Rf R1 Config = 00df5bfe
Rf R52 Config = 00de4e50
i=4
Rf R0 Config = 00777273
Rf R1 Config = 00debbfe
Rf R52 Config = 00deae60
SD initialized success
Create debug.log Failed! 3
Start Channel by LuYu
$GNGGA,000000.000,,,,,0,00,,,M,,,,0000*2B
$GNRMC,000000.000,A,,,,,,,060180,,*29
$GPGSA,A,1,,,,,,,,,,,,,,,*1E
$BDGSA,A,1,,,,,,,,,,,,,,,*0F
$GLGSA,A,1,,,,,,,,,,,,,,,*02
$B3CN0,0,0,0,0,0,0,0,0,0,0,0,0,0,0*4C
---00000001--- Acq_st=3 0  2019-4-9 6:31:37 
[00]  03(G04)  1 22  7  0   -707.5  2046002.1  0.2  1 0 1220 2978 2440
[01]  08(G09)  1  7  7  0    500.0  2046001.2 -0.1  1 0  664  798 1336
$GNGGA,000000.000,,,,,0,00,,,M,,,,0000*2B
$GNRMC,000000.000,A,,,,,,,060180,,*29
$GPGSA,A,1,,,,,,,,,,,,,,,*1E
$BDGSA,A,1,,,,,,,,,,,,,,,*0F
$GLGSA,A,1,,,,,,,,,,,,,,,*02
$B3CN0,0,0,0,0,0,0,0,0,0,0,0,0,0,0*4C
---00000002--- Acq_st=3 0  2019-4-9 6:31:38 
[00]  03(G04)  7 14  7  0   -698.8  2046000.8  1.0 10 0 1732 2473 1151
[01]  08(G09)  1 27  7  0    425.2  2045999.2  0.7  1 0 1602 1708  634
[02]  22(G23)  1 21  7  0   1750.0  2046000.2 -0.0  1 0  670 1867 2114
$GNGGA,000000.000,,,,,0,00,,,M,,,,0000*2B
$GNRMC,000000.000,A,,,,,,,060180,,*29
$GPGSA,A,1,,,,,,,,,,,,,,,*1E
$BDGSA,A,1,,,,,,,,,,,,,,,*0F
$GLGSA,A,1,,,,,,,,,,,,,,,*02
$B3CN0,0,0,0,0,0,0,0,0,0,0,0,0,0,0*4C
---00000003--- Acq_st=3 0  2019-4-9 6:31:39 
[00]  03(G04)  7 45  7  0   -702.8  2046000.8 -0.0  2 0 1795 2858 1504
[01]  08(G09)  7 32  7  0    419.9  2045999.3  0.3  5 0 1402 1979  747
[02]  22(G23)  1 44  7  0   1744.6  2045997.6  0.7  1 0 1876 2142  905
[03]  27(G28)  1 21  9  0  -2874.6  2046004.2  0.0  1 0  419 1836  794
[04]  29(G30)  1  7  7  0  -4322.6  2046005.0 -0.1  1 0  326  242  355
[16]  38(B02)  1 10 10  1   -750.0  4092000.6  0.0  1 0  293  481  483
$GNGGA,000000.000,,,,,0,00,,,M,,,,0000*2B
$GNRMC,000000.000,A,,,,,,,060180,,*29
$GPGSA,A,1,,,,,,,,,,,,,,,*1E
$BDGSA,A,1,,,,,,,,,,,,,,,*0F
$GLGSA,A,1,,,,,,,,,,,,,,,*02
$GPGSV,1,1,02,04,00,000,45,09,00,000,32*76
$B3CN0,0,0,0,0,0,0,0,0,0,0,0,0,0,0*4C
---00000004--- Acq_st=3 0  2019-4-9 6:31:40 
[00]  03(G04)  7 44  7  0   -697.1  2046000.8 -0.0  2 0 1773 2950 1351
[01]  08(G09)  7 43  7  0    424.3  2045999.3  0.2  2 0 1973 2263 1069
[02]  22(G23)  7 31  7  0   1749.5  2045997.6  0.4  5 0 1899 2168  705
[03]  27(G28)  7 20  7  0  -2871.0  2046003.7  0.8 10 0  988 1490  659
[04]  29(G30)  1  7  7  0  -3854.6  2046005.6 -0.0  1 0  312  520  159
[16]  38(B02)  1 10 26  1   -840.9  4092003.0 -0.2  1 0  176  100  204
[17]  41(B05)  1 39 22  0  -1104.9  4092003.8  0.9  1 0  171 1083  893
[18]  45(B09)  1  0  0  0    750.0  4091999.0  0.0  1 0   95  640  875
$GNGGA,000000.000,,,,,0,00,,,M,,,,0000*2B
$GNRMC,000000.000,A,,,,,,,060180,,*29
$GPGSA,A,1,,,,,,,,,,,,,,,*1E
$BDGSA,A,1,,,,,,,,,,,,,,,*0F
$GLGSA,A,1,,,,,,,,,,,,,,,*02
$GPGSV,1,1,04,04,00,000,44,09,00,000,43,23,00,000,31,28,00,000,20*7C
$B3CN0,0,0,0,0,0,0,0,0,0,0,0,0,0,0*4C
---00000005--- Acq_st=3 0  2019-4-9 6:31:41 
[00]  03(G04)  7 44  7  0   -699.6  2046000.8 -0.0  2 0 1710 2586 1121
[01]  08(G09)  7 44  7  0    422.1  2045999.3 -0.0  2 0 2134 2833 1474
[02]  22(G23)  7 43  7  0   1748.3  2045997.6  0.0  2 0 1011 1846  867
[03]  27(G28)  7 40  7  0  -2873.3  2046003.7 -0.1  2 0  842 1380  701
[04]  29(G30)  1  7  8  0  -4166.3  2046005.0  0.1  1 0   76  108  353
[16]  38(B02)  1 20 20  0  -1070.3  4092002.0 -0.1  1 0  638  421  351
[17]  41(B05)  f 26 10  0  -1097.9  4092002.9  0.3  2 0  501  832  387
[18]  45(B09)  1  7 13  0    660.9  4091998.4  0.2  1 0  925  875  406
[19]  46(B10)  1 13  7  0  -1314.3  4092004.3  0.2  1 0  604  785  801
$GNGGA,000000.000,,,,,0,00,,,M,,,,0000*2B
$GNRMC,000000.000,A,,,,,,,060180,,*29
$GPGSA,A,1,,,,,,,,,,,,,,,*1E
$BDGSA,A,1,,,,,,,,,,,,,,,*0F
$GLGSA,A,1,,,,,,,,,,,,,,,*02
$GPGSV,1,1,04,04,00,000,44,09,00,000,44,23,00,000,43,28,00,000,40*78
$BDGSV,1,1,01,05,00,000,23*5D
$B3CN0,0,0,0,0,0,0,0,0,0,0,0,0,0,0*4C
---00000006--- Acq_st=3 0  2019-4-9 6:31:42 
[00]  03(G04)  7 44  7  0   -699.7  2046000.9 -0.0  2 0 1611 2560 1364
[01]  08(G09)  7 44  7  0    421.0  2045999.3 -0.0  2 0 2353 3025 1257
[02]  22(G23)  7 43  7  0   1749.7  2045997.7 -0.0  2 0  954 1544  896
[03]  27(G28)  7 40  7  0  -2871.2  2046003.7 -0.0  2 0  888 1210  622
[04]  29(G30)  1  9  7  0  -4262.0  2046005.5 -0.2  1 0  343  359  108
[16]  38(B02)  7 13 10  0   -644.2  4092001.7  0.0  2 0  354  371  271
[17]  41(B05)  f 38 16  0  -1102.3  4092002.9 -0.5  2 0 1090 1491 1008
[18]  45(B09)  7 26  7  0    660.9  4091998.2  0.2 10 0  573 1121  811
[19]  46(B10)  7 22  7  0  -1314.3  4092003.3  0.3 10 0 1142 1283  210
$GNGGA,063143.796,,,,,0,00,,,M,,,,0000*20
$GNRMC,063143.796,A,,,,,,,080180,,*2C
$GPGSA,A,1,,,,,,,,,,,,,,,*1E
$BDGSA,A,1,,,,,,,,,,,,,,,*0F
$GLGSA,A,1,,,,,,,,,,,,,,,*02
$GPGSV,1,1,04,04,00,000,44,09,00,000,44,23,00,000,43,28,00,000,40*78
$BDGSV,1,1,03,05,00,000,38,09,00,000,26,10,00,000,22*59
$B3CN0,0,0,0,0,0,0,0,0,0,0,0,0,0,0*4C
---00000007--- Acq_st=3 0  2019-4-9 6:31:43 
[00]  03(G04)  f 44  7  0   -699.7  2046000.8  0.0  2 0 2403 3483 1288
[01]  08(G09)  f 44  7  0    425.4  2045999.3  0.1  2 0 3085 3893 1561
[02]  22(G23)  f 42  7  0   1751.2  2045997.7 -0.1  2 0  926 1874  884
[03]  27(G28)  f 40  7  0  -2872.0  2046003.7 -0.1  2 0  972 1743 1043
[16]  38(B02)  7 10 10  1   -652.1  4092001.6 -0.0  2 0  512  372  358
[17]  41(B05)  f 39 26  0  -1104.9  4092002.7 -0.1  2 0  509  713  469
[18]  45(B09)  7 39  7  0    661.7  4091998.2  0.0  2 0 1106 1671 1049
[19]  46(B10)  7 37  7  0  -1311.1  4092003.3  0.1  2 0  100  559  720
[20]  58(B22)  1  7 11  0    885.8  4091997.0  0.3  1 0 1199 1868  913
[49]  41(B05)  1 24 22  0   -626.8 20460019.7 -0.0  1 0  494  472  525
$GNGGA,063144.796,,,,,0,00,,,M,,,,0000*27
$GNRMC,063144.796,A,,,,,,,080180,,*2B
$GPGSA,A,1,,,,,,,,,,,,,,,*1E
$BDGSA,A,1,,,,,,,,,,,,,,,*0F
$GLGSA,A,1,,,,,,,,,,,,,,,*02
$GPGSV,1,1,04,04,00,000,44,09,00,000,44,23,00,000,42,28,00,000,40*79
$BDGSV,1,1,03,05,00,000,39,09,00,000,39,10,00,000,37*52
$B3CN0,0,0,0,0,0,0,0,0,0,0,0,0,0,0*4C
---00000008--- Acq_st=3 0  2019-4-9 6:31:44 
[00]  03(G04)  f 44  7  0   -695.1  2046000.8  0.0  2 0 2569 2909 1173
[01]  08(G09)  f 45  7  0    427.5  2045999.3  0.0  2 0 2690 3686 1276
[02]  22(G23)  f 42  7  0   1752.4  2045997.7  0.1  2 0  781 1753  876
[03]  27(G28)  f 40  7  0  -2869.1  2046003.6 -0.0  2 0 1228 1349  239
[16]  38(B02)  7 20 24  1  -1134.0  4092003.0 -0.1  2 0  680   88  186
[17]  41(B05)  f 39 18  0  -1105.7  4092002.7 -0.2  2 0  816 1016  180
[18]  45(B09)  7 39  9  0    664.5  4091998.2 -0.1  2 0  855  735  414
[19]  46(B10)  7 36  7  0  -1313.3  4092003.3  0.0  2 0  525 1196  549
[20]  58(B22)  7 26  7  0    889.3  4091997.7  0.5 10 0 1268 2396 1248
[21]  65(B29)  1  7  7  0  -2994.0  4092008.2  0.2  1 0 1151 2199 1416
[32]  75(N-6)  1 15  7  0   1250.0  1022001.5  0.0  1 0   308  167  835
[33]  76(N-5)  1  7  7  0   2250.0  1021999.8 -0.0  1 0   241  592  680
[34]  77(N-4)  1  7  7  0  -4452.6  1022003.6  0.0  1 0   127   65  388
[49]  41(B05)  1 22 27  1   -191.2 20460022.1  0.0  1 0  309  469  428
$GNGGA,063145.796,,,,,0,00,,,M,,,,0000*26
$GNRMC,063145.796,A,,,,,,,080180,,*2A
$GPGSA,A,1,,,,,,,,,,,,,,,*1E
$BDGSA,A,1,,,,,,,,,,,,,,,*0F
$GLGSA,A,1,,,,,,,,,,,,,,,*02
$GPGSV,1,1,04,04,00,000,44,09,00,000,45,23,00,000,42,28,00,000,40*78
$BDGSV,2,1,05,02,00,000,17,05,00,000,38,09,00,000,39,10,00,000,36*63
$BDGSV,2,2,05,22,00,000,26*59
$B3CN0,0,0,0,0,0,0,0,0,0,0,0,0,0,0*4C
---00000009--- Acq_st=7 0  2019-4-9 6:31:45 
[00]  03(G04)  f 44  7  0   -696.5  2046000.8 -0.0  2 0 1634 2650  954
[01]  08(G09)  f 44  7  0    428.2  2045999.3 -0.0  2 0 3141 3833 1675
[02]  22(G23)  f 41  7  0   1754.8  2045997.7 -0.0  2 0  728 1933 1015
[03]  27(G28)  f 39 11  0  -2871.5  2046003.7  0.0  2 0 1048 1505  560
[16]  38(B02)  7 16 22  1  -2038.4  4092005.4 -0.1  2 0  470  165  326
[17]  41(B05) 1f 40 26  0  -1100.9  4092002.8  0.5  2 0  386  796  400
[18]  45(B09) 1f 39 12  0    661.3  4091998.1  0.0  2 0  545  953  499
[19]  46(B10) 1f 36  7  0  -1316.0  4092003.4 -0.2  2 0  745  835  184
[20]  58(B22)  7 43  7  0    890.7  4091997.6 -0.0  2 0 1347 1973  904
[21]  65(B29)  7 25  7  0  -2989.6  4092007.8  0.5 10 0 1318 2374 1341
[32]  75(N-6)  1 25  7  0   1139.2  1021999.9  0.6  1 0   759  527  197
[33]  76(N-5)  1 27 22  0   2131.9  1021999.0  1.0  1 0   818  733  289
[34]  77(N-4)  1 25 21  0  -5284.8  1022004.5  0.2  1 0   460  684  628
[35]  80(N-1)  1 26 22  0  -1174.2  1022001.8  0.1  1 0   189  815  977
[36]  81(N00)  1 27 23  0  -4035.6  1022004.8  0.1  1 0   247  884  988
[49]  41(B05)  1 25 18  0   -441.8 20460016.0  0.1  1 0  370  250  379
$GNGGA,063146.796,,,,,0,00,,,M,,,,0000*25
$GNRMC,063146.796,A,,,,,,,080180,,*29
$GPGSA,A,1,,,,,,,,,,,,,,,*1E
$BDGSA,A,1,,,,,,,,,,,,,,,*0F
$GLGSA,A,1,,,,,,,,,,,,,,,*02
$GPGSV,1,1,04,04,00,000,44,09,00,000,44,23,00,000,41,28,00,000,39*74
$BDGSV,2,1,05,05,00,000,40,09,00,000,39,10,00,000,36,22,00,000,43*6F
$BDGSV,2,2,05,29,00,000,24*50
$B3CN0,0,0,0,0,0,0,0,0,0,0,0,0,0,0*4C
---00000010--- Acq_st=7 0  2019-4-9 6:31:46 
[00]  03(G04)  f 44  7  0   -696.8  2046000.8  0.0  2 0 1930 2639 1378
[01]  08(G09)  f 45  7  0    426.5  2045999.4  0.0  2 0 2808 3908 1703
[02]  22(G23)  f 42  7  0   1754.5  2045997.7 -0.0  2 0 1504 1905  802
[03]  27(G28)  f 40  7  0  -2869.1  2046003.7  0.1  2 0  904 1476  414
[16]  38(B02)  7 17 10  0  -2390.3  4092006.1 -0.0  2 0  478  219  207
[17]  41(B05) 1f 40 24  0  -1100.7  4092002.8 -0.4  2 0  776  481   38
[18]  45(B09) 1f 38 11  0    671.1  4091998.1  0.0  2 0 1018 1352  936
[19]  46(B10) 1f 36  7  0  -1316.9  4092003.4 -0.2  2 0  829 1060  636
[20]  58(B22)  7 43  7  0    888.0  4091997.6 -0.0  2 0 1538 2121  935
[21]  65(B29)  7 44  7  0  -2987.2  4092007.8 -0.0  2 0 1713 2571 1661
[32]  75(N-6)  7 37  7  0   1133.4  1021999.1 -0.0  2 0   884  572  246
[33]  76(N-5)  7 38 20  0   2127.2  1021998.6 -0.0  2 0   611  665  675
[34]  77(N-4)  7 33 25  0  -5290.5  1022003.3 -0.0  5 0   544  578  269
[35]  80(N-1)  7 27 23  0  -1174.1  1022000.7  0.5 10 0   928 1147  597
[36]  81(N00)  7 24 16  0  -4036.2  1022002.5  1.0 10 0   811  556  398
[49]  41(B05)  1 23 21  1   -793.6 20460023.3  0.1  1 0  268  458  574
[50]  45(B09)  1  7  7  0    918.5 20459990.5 -0.1  1 0  702  644  280
[51]  46(B10)  1  7  7  0  -1531.3 20460021.5  0.1  1 0 1048  202  421
$GNGGA,063147.796,,,,,0,00,,,M,,,,0000*24
$GNRMC,063147.796,A,,,,,,,080180,,*28
$GPGSA,A,1,,,,,,,,,,,,,,,*1E
$BDGSA,A,1,,,,,,,,,,,,,,,*0F
$GLGSA,A,1,,,,,,,,,,,,,,,*02
$GPGSV,1,1,04,04,00,000,44,09,00,000,45,23,00,000,42,28,00,000,40*78
$BDGSV,2,1,05,05,00,000,39,09,00,000,38,10,00,000,36,22,00,000,43*60
$BDGSV,2,2,05,29,00,000,44*56
$B3CN0,0,0,0,0,0,0,0,0,0,0,0,0,0,0*4C
---00000011--- Acq_st=3 0  2019-4-9 6:31:47 
[00]  03(G04)  f 44  7  0   -696.2  2046000.8  0.0  2 0 2395 2844  924
[01]  08(G09)  f 45  8  0    426.2  2045999.4 -0.0  2 0 2778 3597 1863
[02]  22(G23)  f 42  7  0   1745.2  2045997.7  0.0  2 0 1547 1472  406
[03]  27(G28)  f 40  7  0  -2872.5  2046003.7 -0.0  2 0  683 1003  641
[17]  41(B05) 1f 38 10  0  -1105.9  4092002.7  0.8  2 0  694  723  669
[18]  45(B09) 1f 39  7  0    660.0  4091998.1  0.2  2 0  977 1229  716
[19]  46(B10) 1f 36  7  0  -1311.9  4092003.3  0.1  2 0  556  831  336
[20]  58(B22)  7 43  7  0    888.7  4091997.6 -0.0  2 0 1290 1724  964
[21]  65(B29)  7 43  7  0  -2991.4  4092007.7 -0.0  2 0 1776 2183  736
[32]  75(N-6)  7 37  7  0   1133.5  1021999.1 -0.1  2 0   509  674  332
[33]  76(N-5)  7 38 17  0   2124.6  1021998.6  0.1  2 0   580  840  564
[34]  77(N-4)  7 34 25  0  -5288.6  1022003.2  0.1  2 0   509  530  238
[35]  80(N-1)  7 42 27  0  -1174.3  1022000.8 -0.6  2 0   939 1270  690
[36]  81(N00)  7 39 22  0  -4035.1  1022002.6  0.2  2 0   377  761  486
[50]  45(B09)  1  7  9  0   1492.1 20459989.8  0.1  1 0  220  415  455
[51]  46(B10)  1  7  7  0  -1087.6 20460022.5  0.2  1 0  516  603  429
$GNGGA,063148.796,,,,,0,00,,,M,,,,0000*2B
$GNRMC,063148.796,A,,,,,,,090419,,*23
$GPGSA,A,1,,,,,,,,,,,,,,,*1E
$BDGSA,A,1,,,,,,,,,,,,,,,*0F
$GLGSA,A,1,,,,,,,,,,,,,,,*02
$GPGSV,1,1,04,04,00,000,44,09,00,000,45,23,00,000,42,28,00,000,40*78
$BDGSV,2,1,05,05,00,000,39,09,00,000,39,10,00,000,36,22,00,000,43*61
$BDGSV,2,2,05,29,00,000,43*51
$B3CN0,0,0,0,0,0,0,0,0,0,0,0,0,0,0*4C
---00000012--- Acq_st=3 0  2019-4-9 6:31:48 
[00]  03(G04)  f 45  7  0   -697.6  2046000.8 -0.0  2 0 2831 3581  936
[01]  08(G09)  f 45  7  0    425.2  2045999.4  0.0  2 0 1935 3038 1452
[02]  22(G23)  f 42  7  0   1749.8  2045997.7 -0.0  2 0  783 1583  600
[03]  27(G28)  f 40  7  0  -2873.0  2046003.7  0.0  2 0 1568 1848  923
[17]  41(B05) 1f 39 27  0  -1101.7  4092002.6  0.8  2 0  787 1174  733
[18]  45(B09) 1f 39 11  0    659.1  4091998.2  0.1  2 0 1061 1105  387
[19]  46(B10) 1f 36  7  0  -1322.9  4092003.3  0.3  2 0 1010 1246  365
[20]  58(B22)  7 43  7  0    885.2  4091997.6 -0.0  2 0 1551 1836  646
[21]  65(B29)  7 43  7  0  -2990.4  4092007.8 -0.0  2 0 1419 2132  977
[32]  75(N-6)  7 37  7  0   1133.1  1021999.1  0.1  2 0   579  795  258
[33]  76(N-5)  7 38 19  0   2122.0  1021998.6  0.1  2 0   527  723  495
[34]  77(N-4)  7 35 25  0  -5294.2  1022003.4 -0.0  2 0   236  509  217
[35]  80(N-1)  7 42 27  0  -1174.8  1022000.6 -0.2  2 0   564  944  526
[36]  81(N00)  7 39 22  0  -4041.9  1022002.5  0.2  2 0   452  862  487
[49]  41(B05)  1 25 10  1   -819.2 20460019.7 -0.1  1 0  607 1053  670
[50]  45(B09)  1  7  7  0   1318.5 20459990.5 -0.0  1 0  356  447  715
[51]  46(B10)  1  7  7  0   -550.1 20460022.4 -0.1  1 0  326  679  508
$GNGGA,063149.796,,,,,0,00,,,M,,,,0000*2A
$GNRMC,063149.796,A,,,,,,,090419,,*22
$GPGSA,A,1,,,,,,,,,,,,,,,*1E
$BDGSA,A,1,,,,,,,,,,,,,,,*0F
$GLGSA,A,1,,,,,,,,,,,,,,,*02
$GPGSV,1,1,04,04,00,000,45,09,00,000,45,23,00,000,42,28,00,000,40*79
$BDGSV,2,1,05,05,00,000,39,09,00,000,39,10,00,000,36,22,00,000,43*61
$BDGSV,2,2,05,29,00,000,43*51
$B3CN0,0,0,0,0,0,0,0,0,0,0,0,0,0,0*4C
---00000013--- Acq_st=3 0  2019-4-9 6:31:49 
[00]  03(G04)  f 45  7  0   -695.9  2046000.8  0.0  2 0 1374 2703 1185
[01]  08(G09)  f 44  7  0    425.1  2045999.4 -0.0  2 0 1938 2959 1350
[02]  22(G23)  f 41  7  0   1749.2  2045997.7  0.0  2 0  806 1843 1139
[03]  27(G28)  f 41 10  0  -2874.6  2046003.7 -0.1  2 0  807 1551  699
[04]  26(G27)  1 24  7  0   1630.8  2045998.0  0.3  1 0  442  611  338
[05]  29(G30)  1 15  7  0  -4329.5  2046008.5  0.0  1 0  472 1096 2487
[17]  41(B05) 1f 39 16  0  -1102.7  4092002.9  0.3  2 0  776  775   98
[18]  45(B09) 1f 39 10  0    660.6  4091998.1 -0.0  2 0  907 1389  955
[19]  46(B10) 1f 36  7  0  -1308.9  4092003.3 -0.0  2 0  652  631  131
[20]  58(B22)  7 43  7  0    885.1  4091997.6 -0.0  2 0 1568 1941  671
[21]  65(B29)  7 43  7  0  -2990.1  4092007.8  0.0  2 0 1351 1864  612
[32]  75(N-6)  7 37  7  0   1134.4  1021999.2 -0.1  2 0   452  636  404
[33]  76(N-5)  7 38 20  0   2123.6  1021998.6  0.0  2 0   441  909  707
[34]  77(N-4)  7 33 27  0  -5287.8  1022003.3  0.1  2 0   457  573  260
[35]  80(N-1)  7 42 27  0  -1171.4  1022000.8 -0.3  2 0   541  883  526
[36]  81(N00)  7 39 23  0  -4035.3  1022002.5  0.2  2 0   239  490  257
[49]  41(B05)  1 22 24  0   -696.9 20460018.9 -0.0  1 0  479  771  676
[50]  45(B09)  1 10 10  0   1079.6 20459992.6 -0.1  1 0  426  433  111
[51]  46(B10)  1  7  7  0   -751.1 20460020.7 -0.1  1 0  362  128  517
---00000014--- Acq_st=3 0  2019-4-9 6:31:50 
[00]  03(G04)  f 45  7  0   -698.1  2046000.8  0.1  2 0 2382 3554 1441
[01]  08(G09)  f 44  7  0    422.0  2045999.5  0.1  2 0 1092 2234 1575
[02]  22(G23)  f 41  7  0   1743.2  2045997.7 -0.0  2 0 1207 1525  609
[03]  27(G28)  f 41  7  0  -2874.8  2046003.6 -0.1  2 0 1199 1808  514
[04]  26(G27)  7 25  7  0   1651.1  2045997.8  0.4 10 0 1228 1165  479
[05]  29(G30)  7 23  7  0  -4332.4  2046005.5  0.6 10 0 2529 2959 1315
[17]  41(B05) 1f 39 24  0  -1109.0  4092002.8 -0.5  2 0 1110  975  419
[18]  45(B09) 1f 39  9  0    658.0  4091998.1  0.1  2 0  765 1025  571
[19]  46(B10) 1f 36  7  0  -1320.1  4092003.3 -0.2  2 0  735  638   93
[20]  58(B22)  7 42  7  0    885.1  4091997.6 -0.0  2 0 1698 1606  551
[21]  65(B29)  7 43  7  0  -2991.7  4092007.7 -0.0  2 0 1684 2442 1435
[32]  75(N-6)  f 32  7  0   1131.1  1021999.2 -0.1  5 0   249  769  347
[33]  76(N-5)  f 33  7  0   2121.1  1021998.6 -0.0  5 0   637  884  385
[34]  77(N-4)  f 29 20  0  -5293.9  1022003.3 -0.0  5 0   173  492  420
[35]  80(N-1)  f 34 18  0  -1177.3  1022000.7 -0.2  5 0   619 1051  741
[36]  81(N00)  f 33 20  0  -4042.2  1022002.5  0.3  5 0   388  457  344
[49]  41(B05)  1 24 22  0   -404.1 20460022.3  0.2  1 0  449  597  569
$GNGGA,063150.796,,,,,0,00,,,M,,,,0000*22
$GNRMC,063150.796,A,,,,,,,090419,,*2A
$GPGSA,A,1,,,,,,,,,,,,,,,*1E
$BDGSA,A,1,,,,,,,,,,,,,,,*0F
$GLGSA,A,1,,,,,,,,,,,,,,,*02
$GPGSV,2,1,06,04,00,000,45,09,00,000,44,23,00,000,41,28,00,000,41*7B
$GPGSV,2,2,06,27,00,000,25,30,00,000,23*7F
$BDGSV,2,1,05,05,00,000,39,09,00,000,39,10,00,000,36,22,00,000,42*60
$BDGSV,2,2,05,29,00,000,43*51
$B3CN0,0,0,0,0,0,0,0,0,0,0,0,0,0,0*4C
---00000015--- Acq_st=3 0  2019-4-9 6:31:51 
[00]  03(G04)  f 45  7  0   -696.4  2046000.8 -0.0  2 0 1924 3509 2024
[01]  08(G09)  f 43  7  0    422.1  2045999.5  0.0  2 0  334 1611  862
[02]  22(G23)  f 41  7  0   1751.5  2045997.7  0.0  2 0 1162 1705  627
[03]  27(G28)  f 41  7  0  -2874.3  2046003.7  0.0  2 0 1348 1970 1040
[04]  26(G27)  7 34  8  0   1661.4  2045997.9 -0.1  5 0  218  509  139
[05]  29(G30)  7 44  7  0  -4330.7  2046005.5 -0.0  2 0 2306 2705 1111
[17]  41(B05) 1f 37 25  0  -1106.2  4092002.6  0.1  2 0 1154  930   74
[18]  45(B09) 1f 39  8  0    661.4  4091998.1 -0.0  2 0  890 1051  606
[19]  46(B10) 1f 36  8  0  -1311.0  4092003.4 -0.2  2 0  816  615  175
[20]  58(B22) 1f 42  7  0    885.6  4091997.6  0.0  2 0 1446 1761  557
[21]  65(B29) 1f 43  7  0  -2992.6  4092007.7 -0.0  2 0 1474 2090 1223
[32]  75(N-6)  f 37  7  0   1133.9  1021999.2 -0.1  2 0   323  594  269
[33]  76(N-5)  f 37 13  0   2121.8  1021998.6  0.0  2 0   302  780  392
[34]  77(N-4)  f 31 21  0  -5290.0  1022003.4 -0.0  5 0   180  441  199
[35]  80(N-1)  f 41  7  0  -1173.1  1022000.7  0.0  2 0   765 1376  877
[36]  81(N00)  f 40 22  0  -4040.0  1022002.5  0.3  2 0   450  832  399
[49]  41(B05)  1 22 24  0    162.3 20460020.1  0.0  1 0  292  136   62
[50]  45(B09)  1  7  7  0    726.7 20459989.5 -0.1  1 0  457  421  425
[51]  46(B10)  1  7  7  0  -1239.2 20460021.2 -0.1  1 0  363  136  644
$GNGGA,063151.796,,,,,0,00,,,M,,,,0000*23
$GNRMC,063151.796,A,,,,,,,090419,,*2B
$GPGSA,A,1,,,,,,,,,,,,,,,*1E
$BDGSA,A,1,,,,,,,,,,,,,,,*0F
$GLGSA,A,1,,,,,,,,,,,,,,,*02
$GPGSV,2,1,06,04,00,000,45,09,00,000,43,23,00,000,41,28,00,000,41*7C
$GPGSV,2,2,06,27,00,000,34,30,00,000,44*7E
$BDGSV,2,1,05,05,00,000,37,09,00,000,39,10,00,000,36,22,00,000,42*6E
$BDGSV,2,2,05,29,00,000,43*51
$B3CN0,0,0,0,0,0,0,0,0,0,0,0,0,0,0*4C
---00000016--- Acq_st=3 0  2019-4-9 6:31:52 
[00]  03(G04)  f 45  7  0   -695.4  2046000.8  0.1  2 0 2015 3157 1048
[01]  08(G09)  f 43  7  0    427.6  2045999.5 -0.0  2 0  450 1658 1311
[02]  22(G23)  f 41  7  0   1752.7  2045997.6 -0.0  2 0 1245 1829 1285
[03]  27(G28)  f 42  7  0  -2868.8  2046003.7  0.0  2 0  855 1567  618
[04]  26(G27)  7 33  7  0   1654.0  2045997.8 -0.2  5 0  256  478  408
[05]  29(G30)  7 44  7  0  -4326.2  2046005.5  0.0  2 0 2196 2964 1035
[17]  41(B05) 1f 39 21  0  -1104.2  4092002.8 -0.7  2 0  909  382   52
[18]  45(B09) 1f 39  7  0    658.3  4091998.2  0.2  2 0  866  942  311
[19]  46(B10) 1f 36  7  0  -1316.6  4092003.3  0.1  2 0  897  409  145
[20]  58(B22) 1f 43  7  0    888.6  4091997.6 -0.0  2 0 1725 1951 1075
[21]  65(B29) 1f 43  7  0  -2988.7  4092007.8 -0.0  2 0 1323 1827  970
[32]  75(N-6)  f 36  7  0   1138.2  1021999.2  0.0  2 0   273  646  654
[33]  76(N-5)  f 37 14  0   2122.0  1021998.6 -0.0  2 0   338  790  421
[34]  77(N-4)  f 32 20  0  -5287.5  1022003.3  0.2  5 0   372  530  236
[35]  80(N-1)  f 41  7  0  -1172.4  1022000.7  0.1  2 0   840  972  519
[36]  81(N00)  f 40 21  0  -4037.9  1022002.5 -0.2  2 0   820  884  506
[50]  45(B09)  1  7  7  0    813.9 20459992.0  0.0  1 0  462  261  655
[51]  46(B10)  1  7  7  0   -818.3 20460019.9 -0.1  1 0  311  141  457
[52]  58(B22)  1  7  7  0    737.7 20459986.6  0.0  1 0  348  519  380
[53]  65(B29)  1  7  8  0  -2300.7 20460047.3 -0.1  1 0  780  390  440
$GNGGA,063152.796,,,,,0,00,,,M,,,,0000*20
$GNRMC,063152.796,A,,,,,,,090419,,*28
$GPGSA,A,1,,,,,,,,,,,,,,,*1E
$BDGSA,A,1,,,,,,,,,,,,,,,*0F
$GLGSA,A,1,,,,,,,,,,,,,,,*02
$GPGSV,2,1,06,04,00,000,45,09,00,000,43,23,00,000,41,28,00,000,42*7F
$GPGSV,2,2,06,27,00,000,33,30,00,000,44*79
$BDGSV,2,1,05,05,00,000,40,09,00,000,39,10,00,000,36,22,00,000,43*6F
$BDGSV,2,2,05,29,00,000,43*51
$B3CN0,0,0,0,0,0,0,0,0,0,0,0,0,0,0*4C
---00000017--- Acq_st=3 0  2019-4-9 6:31:53 
[00]  03(G04)  f 45 12  0   -692.2  2046000.8 -0.0  2 0 2130 3147 1374
[01]  08(G09)  f 42  7  0    426.0  2045999.4 -0.0  2 0 1638 2395  899
[02]  22(G23)  f 42  7  0   1753.2  2045997.6  0.1  2 0 1807 1862  707
[03]  27(G28)  f 42  7  0  -2869.1  2046003.6  0.1  2 0 1326 2110 1382
[04]  26(G27)  7 32  7  0   1661.3  2045997.6 -0.0  5 0  205  377  546
[05]  29(G30)  7 44  7  0  -4324.6  2046005.5 -0.0  2 0 1814 2951 1712
[17]  41(B05) 1f 40 27  0  -1098.5  4092002.7  0.1  2 0  837 1080  356
[18]  45(B09) 1f 39 10  0    663.1  4091998.1 -0.3  2 0  995 1493  464
[19]  46(B10) 1f 35  7  0  -1313.9  4092003.3 -0.2  2 0  697  786  428
[20]  58(B22) 1f 43  7  0    889.6  4091997.5 -0.0  2 0 1250 1924  762
[21]  65(B29) 1f 43  7  0  -2989.4  4092007.7  0.1  2 0 1221 1906  703
[32]  75(N-6)  f 36  7  0   1136.6  1021999.3 -0.0  2 0   329  741  925
[33]  76(N-5)  f 37 16  0   2126.0  1021998.6  0.0  2 0   686  473  122
[34]  77(N-4)  f 34 19  0  -5285.4  1022003.3  0.1  5 0   663  772  478
[35]  80(N-1)  f 42  7  0  -1167.0  1022000.7  0.2  2 0   914 1568  659
[36]  81(N00)  f 40 21  0  -4037.5  1022002.5  0.3  2 0   597  811  195
[49]  41(B05)  1 10 23  0   -985.2 20460017.5 -0.1  1 0  972  793  796
[50]  45(B09)  1  7  7  0   1120.2 20459990.2 -0.2  1 0   93  174  231
[51]  46(B10)  1  7  7  0   -855.8 20460020.8  0.0  1 0  121  205  379
[52]  58(B22)  1  7  7  0   1041.1 20459986.7  0.0  1 0  717  409  536
[53]  65(B29)  1  7  7  0  -1559.6 20460048.9 -0.0  1 0  758   76  138
$GNGGA,063153.796,,,,,0,00,,,M,,,,0000*21
$GNRMC,063153.796,A,,,,,,,090419,,*29
$GPGSA,A,1,,,,,,,,,,,,,,,*1E
$BDGSA,A,1,,,,,,,,,,,,,,,*0F
$GLGSA,A,1,,,,,,,,,,,,,,,*02
$GPGSV,2,1,06,04,00,000,45,09,00,000,42,23,00,000,42,28,00,000,42*7D
$GPGSV,2,2,06,27,00,000,32,30,00,000,44*78
$BDGSV,2,1,05,05,00,000,40,09,00,000,39,10,00,000,35,22,00,000,43*6C
$BDGSV,2,2,05,29,00,000,43*51
$B3CN0,0,0,0,0,0,0,0,0,0,0,0,0,0,0*4C
---00000018--- Acq_st=7 0  2019-4-9 6:31:54 
[00]  03(G04)  f 44 11  0   -690.1  2046000.9 -0.0  2 0 1929 3035 1408
[01]  08(G09)  f 43  7  0    430.7  2045999.3 -0.0  2 0 1609 2103  541
[02]  22(G23)  f 43  7  0   1750.9  2045997.6 -0.0  2 0 1529 1728  627
[03]  27(G28)  f 42  7  0  -2870.1  2046003.7  0.0  2 0 1461 1824  596
[04]  26(G27)  7 32  7  0   1661.9  2045997.6  0.1  5 0  597  900  389
[05]  29(G30)  7 44  7  0  -4323.8  2046005.6 -0.0  2 0 1588 2133  651
[17]  41(B05) 1f 40 10  0  -1100.3  4092002.9 -0.4  2 0  698 1133  439
[18]  45(B09) 1f 39  9  0    658.7  4091998.1  0.2  2 0 1117  755  155
[19]  46(B10) 1f 36 11  0  -1318.8  4092003.3 -0.1  2 0  784  816  296
[20]  58(B22) 1f 42  7  0    888.6  4091997.5 -0.0  2 0 1521 1886  869
[21]  65(B29) 1f 43  7  0  -2986.9  4092007.7  0.0  2 0 1320 2084  793
[32]  75(N-6)  f 36  7  0   1137.8  1021999.2 -0.0  2 0   496  991  566
[33]  76(N-5)  f 37 15  0   2124.4  1021998.6  0.0  2 0   247  333   61
[34]  77(N-4)  f 35 21  0  -5283.2  1022003.3 -0.0  2 0   560  595  636
[35]  80(N-1)  f 42  7  0  -1167.6  1022000.7 -0.0  2 0   725 1237  647
[36]  81(N00)  f 40 21  0  -4034.7  1022002.6 -0.0  2 0   303  958  787
[49]  41(B05)  1 25 25  0  -1333.9 20460014.3 -0.1  1 0  455  165  308
[50]  45(B09)  1  7  7  0   1237.9 20459991.7 -0.1  1 0  260  668  533
[51]  46(B10)  1  7  7  0  -1095.3 20460020.7  0.1  1 0  376  213  410
[52]  58(B22)  1  7  7  0    547.0 20459985.1 -0.1  1 0  410  298  650
[53]  65(B29)  1  7  7  0  -1080.2 20460048.8  0.0  1 0  261  309  288
$GNGGA,063154.796,,,,,0,00,,,M,,,,0000*26
$GNRMC,063154.796,A,,,,,,,090419,,*2E
$GPGSA,A,1,,,,,,,,,,,,,,,*1E
$BDGSA,A,1,,,,,,,,,,,,,,,*0F
$GLGSA,A,1,,,,,,,,,,,,,,,*02
$GPGSV,2,1,06,04,00,000,44,09,00,000,43,23,00,000,43,28,00,000,42*7C
$GPGSV,2,2,06,27,00,000,32,30,00,000,44*78
$BDGSV,2,1,05,05,00,000,40,09,00,000,39,10,00,000,36,22,00,000,42*6E
$BDGSV,2,2,05,29,00,000,43*51
$B3CN0,0,0,0,0,0,0,0,0,0,0,0,0,0,0*4C
---00000019--- Acq_st=7 0  2019-4-9 6:31:55 
[00]  03(G04)  f 45  7  0   -692.8  2046000.9  0.0  2 0 1873 3368 1698
[01]  08(G09)  f 43  7  0    430.5  2045999.3 -0.1  2 0 2115 2695 1166
[02]  22(G23)  f 43  7  0   1751.9  2045997.7  0.1  2 0  988 2096 1295
[03]  27(G28)  f 41  7  0  -2871.9  2046003.7  0.0  2 0  834 1359  684
[04]  26(G27)  f 32  7  0   1654.1  2045997.7 -0.0  5 0  493  679  757
[05]  29(G30)  f 43  7  0  -4324.3  2046005.6  0.0  2 0 1294 2131 1102
[17]  41(B05) 1f 37 26  0  -1106.2  4092003.0 -0.9  2 0  570 1104  493
[18]  45(B09) 1f 39  8  0    655.3  4091998.1 -0.1  2 0 1454 1514  999
[19]  46(B10) 1f 36  7  0  -1315.6  4092003.4 -0.2  2 0  601  684  279
[20]  58(B22) 1f 43  7  0    887.1  4091997.6 -0.0  2 0 1806 2557  933
[21]  65(B29) 1f 43  7  0  -2987.8  4092007.7 -0.0  2 0 1295 1535  792
[32]  75(N-6)  f 35  7  0   1137.7  1021999.2  0.1  2 0   636  791  325
[33]  76(N-5)  f 36 16  0   2124.5  1021998.6 -0.0  2 0   760  704  119
[34]  77(N-4)  f 34 19  0  -5286.4  1022003.4 -0.0  2 0   278  459  398
[35]  80(N-1)  f 42  7  0  -1168.7  1022000.7 -0.0  2 0   651 1387  713
[36]  81(N00)  f 41 21  0  -4038.5  1022002.6 -0.3  2 0   822 1000  205
[49]  41(B05)  1 14 22  0   -877.3 20460023.0 -0.1  1 0  864  853 1074
[52]  58(B22)  1  7  7  0    448.1 20459987.1  0.0  1 0  133  483  725
[53]  65(B29)  1 12  7  0   -467.2 20460046.1 -0.1  1 0  219  269  576
$GNGGA,063155.796,,,,,0,00,,,M,,,,0000*27
$GNRMC,063155.796,A,,,,,,,090419,,*2F
$GPGSA,A,1,,,,,,,,,,,,,,,*1E
$BDGSA,A,1,,,,,,,,,,,,,,,*0F
$GLGSA,A,1,,,,,,,,,,,,,,,*02
$GPGSV,2,1,06,04,00,000,45,09,00,000,43,23,00,000,43,28,00,000,41*7E
$GPGSV,2,2,06,27,00,000,32,30,00,000,43*7F
$BDGSV,2,1,05,05,00,000,37,09,00,000,39,10,00,000,36,22,00,000,43*6F
$BDGSV,2,2,05,29,00,000,43*51
$B3CN0,0,0,0,0,0,0,0,0,0,0,0,0,0,0*4C
---00000020--- Acq_st=3 0  2019-4-9 6:31:56 
[00]  03(G04)  f 44  7  0   -696.4  2046000.9 -0.0  2 0 1928 3208 1530
[01]  08(G09)  f 44  7  0    429.4  2045999.3  0.0  2 0 2284 2750 1068
[02]  22(G23)  f 43  7  0   1750.9  2045997.7 -0.0  2 0 1540 2157  584
[03]  27(G28)  f 42  7  0  -2873.2  2046003.7  0.0  2 0  575 1603  973
[04]  26(G27)  f 30  7  0   1654.5  2045997.8 -0.0  5 0  700 1070  408
[05]  29(G30)  f 42  7  0  -4331.7  2046005.6  0.0  2 0 1218 2119 1161
[17]  41(B05) 1f 40 22  0  -1109.7  4092002.8 -0.1  2 0  828 1148  743
[18]  45(B09) 1f 39  7  0    654.6  4091998.2  0.1  2 0 1001 1166  530
[19]  46(B10) 1f 36  9  0  -1322.4  4092003.3  0.2  2 0  369  576   95
[20]  58(B22) 1f 43  7  0    881.7  4091997.6  0.0  2 0 1167 1313  159
[21]  65(B29) 1f 43  7  0  -2989.8  4092007.7 -0.0  2 0 1557 1953  979
[32]  75(N-6)  f 35  7  0   1133.3  1021999.3 -0.0  2 0   198  661  446
[33]  76(N-5)  f 36 14  0   2117.4  1021998.6 -0.1  2 0   560  606  360
[34]  77(N-4)  f 35 20  0  -5290.0  1022003.3 -0.0  2 0   649  578  175
[35]  80(N-1)  f 42 15  0  -1170.8  1022000.7  0.0  2 0   602 1139  636
[36]  81(N00)  f 41 21  0  -4041.9  1022002.5  0.1  2 0  1095 1459  606
[49]  41(B05)  1 24 25  0  -1305.5 20460020.6 -0.0  1 0  677  784  472
[50]  45(B09)  1  7  7  0    330.8 20459990.6  0.0  1 0  272   43  588
[51]  46(B10)  1  7  7  0   -957.4 20460019.9  0.0  1 0 1246  836  619
$GNGGA,063156.796,,,,,0,00,,,M,,,,0000*24
$GNRMC,063156.796,A,,,,,,,090419,,*2C
$GPGSA,A,1,,,,,,,,,,,,,,,*1E
$BDGSA,A,1,,,,,,,,,,,,,,,*0F
$GLGSA,A,1,,,,,,,,,,,,,,,*02
$GPGSV,2,1,06,04,00,000,44,09,00,000,44,23,00,000,43,28,00,000,42*7B
$GPGSV,2,2,06,27,00,000,30,30,00,000,42*7C
$BDGSV,2,1,05,05,00,000,39,09,00,000,39,10,00,000,36,22,00,000,43*61
$BDGSV,2,2,05,29,00,000,43*51
$B3CN0,0,0,0,0,0,0,0,0,0,0,0,0,0,0*4C
---00000021--- Acq_st=3 0  2019-4-9 6:31:57 
[00]  03(G04)  f 44  7  0   -692.8  2046000.9 -0.0  2 0 1481 2507  996
[01]  08(G09)  f 44  7  0    429.9  2045999.3 -0.0  2 0 2785 3218 1568
[02]  22(G23)  f 43  7  0   1751.7  2045997.6  0.0  2 0 1625 2328 1567
[03]  27(G28)  f 42  7  0  -2875.4  2046003.7  0.0  2 0  999 1728  559
[04]  26(G27)  f 30  9  0   1655.8  2045997.8  0.0  5 0  504  189  238
[05]  29(G30)  f 42  8  0  -4326.8  2046005.6  0.0  2 0  821 1571  968
[17]  41(B05) 1f 39 23  0  -1106.5  4092002.8 -0.3  2 0  474  768  662
[18]  45(B09) 1f 39  7  0    658.7  4091998.2  0.0  2 0 1134  764  272
[19]  46(B10) 1f 36  7  0  -1319.1  4092003.3  0.2  2 0 1065 1246  602
[20]  58(B22) 1f 42  7  0    886.1  4091997.6  0.0  2 0 1223 1671  846
[21]  65(B29) 1f 43  7  0  -2987.8  4092007.7 -0.0  2 0 1946 2278  978
[32]  75(N-6)  f 34  7  0   1136.7  1021999.3 -0.1  2 0   320  417  203
[33]  76(N-5)  f 36 12  0   2121.4  1021998.6  0.1  2 0   366  401  236
[34]  77(N-4)  f 36 20  0  -5289.0  1022003.3  0.0  2 0   246  359  364
[35]  80(N-1)  f 42  7  0  -1167.1  1022000.7  0.1  2 0   766 1152  671
[36]  81(N00)  f 41 21  0  -4037.7  1022002.5 -0.1  2 0   643 1133  356
[50]  45(B09)  1  7  8  0   -220.6 20459989.4 -0.0  1 0  328   82  241
[51]  46(B10)  1  7  7  0   -701.2 20460021.9 -0.0  1 0  487  311  296
[52]  58(B22)  1  7  9  0    387.5 20459988.3 -0.0  1 0  326  535  426
[53]  65(B29)  1  7  9  0  -2473.4 20460048.0 -0.1  1 0  958  543  391
$GNGGA,063157.796,,,,,0,00,,,M,,,,0000*25
$GNRMC,063157.796,A,,,,,,,090419,,*2D
$GPGSA,A,1,,,,,,,,,,,,,,,*1E
$BDGSA,A,1,,,,,,,,,,,,,,,*0F
$GLGSA,A,1,,,,,,,,,,,,,,,*02
$GPGSV,2,1,06,04,00,000,44,09,00,000,44,23,00,000,43,28,00,000,42*7B
$GPGSV,2,2,06,27,00,000,30,30,00,000,42*7C
$BDGSV,2,1,05,05,00,000,39,09,00,000,39,10,00,000,36,22,00,000,42*60
$BDGSV,2,2,05,29,00,000,43*51
$B3CN0,0,0,0,0,0,0,0,0,0,0,0,0,0,0*4C
---00000022--- Acq_st=3 0  2019-4-9 6:31:58 
[00]  03(G04)  f 44  7  0   -695.5  2046000.9 -0.0  2 0 1257 2601 1648
[01]  08(G09)  f 44  7  0    427.6  2045999.3 -0.0  2 0 3108 3786 1275
[02]  22(G23)  f 42  7  0   1750.7  2045997.7  0.0  2 0  591 1669  681
[03]  27(G28)  f 41 11  0  -2876.5  2046003.7  0.1  2 0  643 1270  538
[04]  26(G27)  f 29 11  0   1650.3  2045997.9  0.0  5 0  250  162  271
[05]  29(G30)  f 42  7  0  -4332.1  2046005.6  0.0  2 0 1561 2450 1279
[16]  38(B02)  1 29 22  0  -1250.0  4092004.3  0.0  1 0  532 1261  688
[17]  41(B05) 1f 39 25  0  -1108.0  4092002.7 -0.2  2 0 1061 1047  239
[18]  45(B09) 1f 39  7  0    657.1  4091998.2 -0.1  2 0  739  991  508
[19]  46(B10) 1f 36 11  0  -1323.8  4092003.4 -0.2  2 0  881 1131  679
[20]  58(B22) 1f 43  7  0    878.2  4091997.6 -0.0  2 0  745 1150  694
[21]  65(B29) 1f 43  7  0  -2991.0  4092007.7 -0.0  2 0 1972 2570 1312
[32]  75(N-6)  f 34  7  0   1131.8  1021999.2 -0.0  2 0   425  638   78
[33]  76(N-5)  f 36  7  0   2117.1  1021998.7 -0.1  2 0   535  882  379
[34]  77(N-4)  f 35 21  0  -5292.4  1022003.3  0.0  2 0   359  477  162
[35]  80(N-1)  f 42  7  0  -1169.4  1022000.7  0.0  2 0   738 1108  459
[36]  81(N00)  f 41 20  0  -4043.4  1022002.5  0.1  2 0   637 1035  434
[49]  41(B05)  1 22 25  1  -1463.9 20460022.3 -0.2  1 0  287  610  607
[50]  45(B09)  1  7  7  0    422.1 20459990.2  0.1  1 0  348  518  352
[51]  46(B10)  1  7  7  0   -273.3 20460023.6 -0.1  1 0  128  423  133
[52]  58(B22)  1  7  7  0    540.9 20459986.3 -0.0  1 0  489  402  221
[53]  65(B29)  1  7 11  0  -1921.0 20460047.2  0.1  1 0  470  739  942
$GNGGA,063158.796,,,,,0,00,,,M,,,,0000*2A
$GNRMC,063158.796,A,,,,,,,090419,,*22
$GPGSA,A,1,,,,,,,,,,,,,,,*1E
$BDGSA,A,1,,,,,,,,,,,,,,,*0F
$GLGSA,A,1,,,,,,,,,,,,,,,*02
$GPGSV,2,1,06,04,00,000,44,09,00,000,44,23,00,000,42,28,00,000,41*79
$GPGSV,2,2,06,27,00,000,29,30,00,000,42*74
$BDGSV,2,1,05,05,00,000,39,09,00,000,39,10,00,000,36,22,00,000,43*61
$BDGSV,2,2,05,29,00,000,43*51
$B3CN0,0,0,0,0,0,0,0,0,0,0,0,0,0,0*4C
---00000023--- Acq_st=3 0  2019-4-9 6:31:59 
[00]  03(G04)  f 43  7  0   -696.5  2046000.9  0.0  2 0 1322 2522  676
[01]  08(G09)  f 45  7  0    428.2  2045999.4  0.0  2 0 2868 4187 1984
[02]  22(G23)  f 42  7  0   1749.5  2045997.7  0.0  2 0 1109 2072 1173
[03]  27(G28)  f 42  7  0  -2875.5  2046003.7 -0.0  2 0  994 1869  491
[04]  26(G27)  f 28  7  0   1645.8  2045997.6  0.0  5 0  267  575  116
[05]  29(G30)  f 43  7  0  -4333.2  2046005.5 -0.0  2 0 1614 2350  599
[16]  38(B02)  9 38 27  0  -1111.2  4092003.3  0.9  1 0  964  869  624
[17]  41(B05) 1f 40 21  0  -1107.9  4092002.8 -0.9  2 0  853 1150  524
[18]  45(B09) 1f 39 11  0    656.0  4091998.2 -0.2  2 0 1141 1193  520
[19]  46(B10) 1f 36  7  0  -1319.1  4092003.3  0.1  2 0  450  609  563
[20]  58(B22) 1f 42  7  0    879.8  4091997.6  0.0  2 0 1627 1727  433
[21]  65(B29) 1f 43  7  0  -2990.9  4092007.7 -0.0  2 0 1397 2230  872
[32]  75(N-6)  f 35  7  0   1134.3  1021999.3 -0.1  2 0   506  918  214
[33]  76(N-5)  f 36 13  0   2119.4  1021998.6 -0.0  2 0   404  471   88
[34]  77(N-4)  f 34 20  0  -5290.2  1022003.3  0.1  2 0   520  491  280
[35]  80(N-1)  f 43  7  0  -1171.7  1022000.7  0.0  2 0   274 1016  502
[36]  81(N00)  f 42 20  0  -4044.9  1022002.5 -0.1  2 0   804 1551  902
[49]  41(B05)  1 23 24  0  -1477.8 20460025.2 -0.0  1 0  131  212  240
[50]  45(B09)  1  7  7  0    843.6 20459990.5  0.2  1 0  445  271  178
[51]  46(B10)  1  7  7  0   -108.4 20460021.6  0.1  1 0  236  314  518
[52]  58(B22)  1  7  7  0    546.7 20459985.9  0.0  1 0  265  263  545
[53]  65(B29)  1  7  7  0  -1156.1 20460049.1 -0.2  1 0  248  432  115
$GNGGA,063159.796,,,,,0,00,,,M,,,,0000*2B
$GNRMC,063159.796,A,,,,,,,090419,,*23
$GPGSA,A,1,,,,,,,,,,,,,,,*1E
$BDGSA,A,1,,,,,,,,,,,,,,,*0F
$GLGSA,A,1,,,,,,,,,,,,,,,*02
$GPGSV,2,1,06,04,00,000,43,09,00,000,45,23,00,000,42,28,00,000,42*7C
$GPGSV,2,2,06,27,00,000,28,30,00,000,43*74
$BDGSV,2,1,05,05,00,000,40,09,00,000,39,10,00,000,36,22,00,000,42*6E
$BDGSV,2,2,05,29,00,000,43*51
$B3CN0,0,0,0,0,0,0,0,0,0,0,0,0,0,0*4C
---00000024--- Acq_st=3 0  2019-4-9 6:32:0 
[00]  03(G04)  f 43  7  0   -696.3  2046000.8  0.0  2 0 2078 3019 1661
[01]  08(G09)  f 44  9  0    428.3  2045999.4 -0.0  2 0 2444 3510 1214
[02]  22(G23)  f 42  9  0   1751.4  2045997.7  0.0  2 0 1282 1854 1130
[03]  27(G28)  f 42  7  0  -2874.4  2046003.7  0.0  2 0 1069 1758  895
[04]  26(G27)  f 29  7  0   1655.9  2045997.7 -0.0  5 0  848  770  776
[05]  29(G30)  f 43  7  0  -4334.2  2046005.6 -0.0  2 0 1475 2639 1681
[16]  38(B02) 1f 38 21  0  -1106.8  4092002.8 -0.3  2 0  659  820  403
[17]  41(B05) 1f 40 28  0  -1106.3  4092002.7 -0.4  2 0  902 1125  479
[18]  45(B09) 1f 39 11  0    658.3  4091998.2  0.1  2 0  642 1014  660
[19]  46(B10) 1f 36 11  0  -1323.2  4092003.3  0.1  2 0  439  588  344
[20]  58(B22) 1f 42  7  0    880.8  4091997.6  0.0  2 0 1143 1945  981
[21]  65(B29) 1f 43 10  0  -2988.9  4092007.7 -0.0  2 0 1785 2421 1357
[32]  75(N-6)  f 35  7  0   1133.7  1021999.2  0.1  2 0   605  616  115
[33]  76(N-5)  f 36  8  0   2116.4  1021998.6 -0.0  2 0   723  847  262
[34]  77(N-4)  f 34 22  0  -5291.8  1022003.3  0.0  2 0   307  610  336
[35]  80(N-1)  f 43  7  0  -1169.8  1022000.7 -0.0  2 0   921 1481  672
[36]  81(N00)  f 42 21  0  -4042.4  1022002.5  0.0  2 0   723  826  209
[49]  41(B05)  1 24 23  0  -2003.6 20460017.5 -0.0  1 0  743  621  428
[52]  58(B22)  1  7  7  0    534.9 20459986.0 -0.1  1 0  352  316   45
[53]  65(B29)  1  7  7  0  -1212.3 20460045.8 -0.1  1 0  261  251  424
$GNGGA,063200.796,,,,,0,00,,,M,,,,0000*24
$GNRMC,063200.796,A,,,,,,,090419,,*2C
$GPGSA,A,1,,,,,,,,,,,,,,,*1E
$BDGSA,A,1,,,,,,,,,,,,,,,*0F
$GLGSA,A,1,,,,,,,,,,,,,,,*02
$GPGSV,2,1,06,04,00,000,43,09,00,000,44,23,00,000,42,28,00,000,42*7D
$GPGSV,2,2,06,27,00,000,29,30,00,000,43*75
$BDGSV,2,1,06,02,00,000,38,05,00,000,40,09,00,000,39,10,00,000,36*62
$BDGSV,2,2,06,22,00,000,42,29,00,000,43*64
$B3CN0,0,0,0,0,0,0,0,0,0,0,0,0,0,0*4C
---00000025--- Acq_st=3 0  2019-4-9 6:32:1 
[00]  03(G04)  f 43  7  0   -692.8  2046000.8  0.0  2 0 1958 2837 1259
[01]  08(G09)  f 45  7  0    430.5  2045999.4 -0.0  2 0 2984 4231 2443
[02]  22(G23)  f 42  7  0   1752.5  2045997.7 -0.0  2 0 1030 1817 1040
[03]  27(G28)  f 41  7  0  -2873.4  2046003.7 -0.1  2 0  773 1529  905
[04]  26(G27)  f 31  8  0   1656.6  2045997.9 -0.0  5 0  111  461  474
[05]  29(G30)  f 43  7  0  -4331.0  2046005.6 -0.0  2 0 1166 2379 1466
[16]  38(B02) 1f 37 28  0  -1097.7  4092002.7 -0.6  2 0  718  990  478
[17]  41(B05) 1f 38 17  0  -1107.6  4092002.7  0.7  2 0  814 1024  319
[18]  45(B09) 1f 39  7  0    660.0  4091998.1  0.1  2 0  962  985  353
[19]  46(B10) 1f 36  7  0  -1319.7  4092003.4 -0.0  2 0  795 1096  269
[20]  58(B22) 1f 42  7  0    879.9  4091997.6  0.0  2 0 1807 2095  956
[21]  65(B29) 1f 43  7  0  -2987.2  4092007.7 -0.0  2 0 1505 1890 1216
[32]  75(N-6)  f 36  7  0   1137.2  1021999.3  0.1  2 0   448  769  502
[33]  76(N-5)  f 37 15  0   2117.2  1021998.6 -0.1  2 0    71  768  455
[34]  77(N-4)  f 33 20  0  -5288.2  1022003.3  0.1  2 0   142  516  573
[35]  80(N-1)  f 43  7  0  -1166.5  1022000.7 -0.1  2 0   861 1609  806
[36]  81(N00)  f 41 21  0  -4043.2  1022002.5 -0.2  2 0   810 1454  676
[48]  38(B02)  1 10 16  1   -891.8 20460018.5  0.1  1 0  599  410  424
[49]  41(B05)  1 25 26  1  -2284.1 20460023.2  0.1  1 0  468  298  491
[50]  45(B09)  1  7  7  0   1301.2 20459990.6 -0.1  1 0  291  332  219
[51]  46(B10)  1  7  7  0  -1507.8 20460021.7 -0.1  1 0  512  683  294
$GNGGA,063201.796,,,,,0,00,,,M,,,,0000*25
$GNRMC,063201.796,A,,,,,,,090419,,*2D
$GPGSA,A,1,,,,,,,,,,,,,,,*1E
$BDGSA,A,1,,,,,,,,,,,,,,,*0F
$GLGSA,A,1,,,,,,,,,,,,,,,*02
$GPGSV,2,1,06,04,00,000,43,09,00,000,45,23,00,000,42,28,00,000,41*7F
$GPGSV,2,2,06,27,00,000,31,30,00,000,43*7C
$BDGSV,2,1,06,02,00,000,37,05,00,000,38,09,00,000,39,10,00,000,36*62
$BDGSV,2,2,06,22,00,000,42,29,00,000,43*64
$B3CN0,0,0,0,0,0,0,0,0,0,0,0,0,0,0*4C
---00000026--- Acq_st=3 0  2019-4-9 6:32:2 
[00]  03(G04)  f 44  7  0   -690.2  2046000.8 -0.0  2 0 1596 2710 1136
[01]  08(G09)  f 45  7  0    431.4  2045999.4 -0.0  2 0 2822 4319 1782
[02]  22(G23)  f 42  7  0   1751.6  2045997.6 -0.0  2 0 1302 1990  873
[03]  27(G28)  f 42  7  0  -2871.3  2046003.6  0.0  2 0  962 1573  916
[04]  26(G27)  f 30  8  0   1660.0  2045997.7 -0.0  5 0  615  683  211
[05]  29(G30)  f 43  7  0  -4327.4  2046005.5  0.0  2 0 1919 2616 1076
[16]  38(B02) 1f 38 19  0  -1099.6  4092002.6 -0.2  2 0  462  713  468
[17]  41(B05) 1f 37 23  0  -1101.3  4092002.7  0.3  2 0  647  741  491
[18]  45(B09) 1f 39  7  0    655.9  4091998.1 -0.0  2 0  740 1004  204
[19]  46(B10) 1f 36  7  0  -1314.8  4092003.3  0.1  2 0  717  649  349
[20]  58(B22) 1f 42  7  0    881.8  4091997.6 -0.0  2 0 1450 2028  569
[21]  65(B29) 1f 43  7  0  -2985.9  4092007.7  0.0  2 0 1586 1909  727
[32]  75(N-6) 8f 37  7  0   1138.8  1021999.2  0.2  2 0   456  397  259
[33]  76(N-5) 8f 37 15  0   2117.1  1021998.6 -0.0  2 0   810  839  244
[34]  77(N-4) 8f 32 21  0  -5286.3  1022003.2 -0.0  5 0   331  613  225
[35]  80(N-1) 8f 43 11  0  -1166.7  1022000.7  0.0  2 0   745 1328  603
[36]  81(N00) 8f 40 19  0  -4041.5  1022002.6  0.0  2 0   746  893  558
[48]  38(B02)  1 10 22  0  -1097.5 20460017.1 -0.1  1 0  630  387  267
[50]  45(B09)  1  7  7  0   1797.7 20459990.3  0.0  1 0  509  297  331
[51]  46(B10)  1 10  7  0  -1249.8 20460021.8  0.1  1 0  195  200   55
[52]  58(B22)  1  7  7  0    773.8 20459985.2 -0.0  1 0  704 1038  399
[53]  65(B29)  1  7  7  0  -2118.7 20460049.9 -0.0  1 0  385  100  122
$GNGGA,063202.796,,,,,0,00,,,M,,,,0000*26
$GNRMC,063202.796,A,,,,,,,090419,,*2E
$GPGSA,A,1,,,,,,,,,,,,,,,*1E
$BDGSA,A,1,,,,,,,,,,,,,,,*0F
$GLGSA,A,1,,,,,,,,,,,,,,,*02
$GPGSV,2,1,06,04,00,000,44,09,00,000,45,23,00,000,42,28,00,000,42*7B
$GPGSV,2,2,06,27,00,000,30,30,00,000,43*7D
$BDGSV,2,1,06,02,00,000,39,05,00,000,37,09,00,000,39,10,00,000,36*63
$BDGSV,2,2,06,22,00,000,42,29,00,000,43*64
$B3CN0,0,0,0,0,0,0,0,0,0,0,0,0,0,0*4C
---00000027--- Acq_st=7 0  2019-4-9 6:32:3 
[00]  03(G04)  f 45  7  0   -690.7  2046000.8  0.0  2 0 1924 2980 1632
[01]  08(G09)  f 45  7  0    430.8  2045999.4 -0.0  2 0 2661 3531 1527
[02]  22(G23)  f 42  7  0   1749.8  2045997.7 -0.0  2 0 1187 1787  866
[03]  27(G28)  f 41  7  0  -2872.3  2046003.7  0.0  2 0  375 1110  418
[04]  26(G27)  f 31  7  0   1647.5  2045997.7  0.1  5 0  655  632  464
[05]  29(G30)  f 44  7  0  -4329.3  2046005.5  0.0  2 0 2086 2882 1440
[16]  38(B02) 1f 38 27  0  -1105.7  4092002.7  0.2  2 0  801 1054  677
[17]  41(B05) 1f 39 25  0  -1105.0  4092002.7 -0.1  2 0  843  999  247
[18]  45(B09) 1f 39 10  0    659.1  4091998.2  0.1  2 0 1227 1205  647
[19]  46(B10) 1f 36  7  0  -1322.7  4092003.3 -0.0  2 0  846  861  294
[20]  58(B22) 1f 42  7  0    881.7  4091997.6  0.0  2 0 1428 1523  664
[21]  65(B29) 1f 43  7  0  -2985.9  4092007.7  0.0  2 0 1314 1865  582
[32]  75(N-6) 8f 37  7  0   1138.2  1021999.2  0.0  2 0   797  875  424
[33]  76(N-5) 8f 37 14  0   2115.4  1021998.6  0.1  2 0   287  712   32
[34]  77(N-4) 8f 35 14  0  -5286.7  1022003.3  0.1  5 0   454  515  115
[35]  80(N-1) 8f 44  7  0  -1165.8  1022000.7  0.0  2 0   992 1693  951
[36]  81(N00) 8f 40 22  0  -4041.8  1022002.6  0.1  2 0   576  893  326
[48]  38(B02)  1 10 17  1  -1564.0 20460019.9 -0.1  1 0  367  552  557
[49]  41(B05)  1 25 23  0   -890.2 20460022.6 -0.1  1 0  530  319  830
[50]  45(B09)  1  7  7  0   2459.0 20459990.9  0.2  1 0  496  186  646
[51]  46(B10)  1  7  7  0  -1426.8 20460020.8  0.2  1 0  589   18  499
[52]  58(B22)  1  7  7  0   1004.7 20459984.2 -0.1  1 0  130  177  135
[53]  65(B29)  1  8  7  0  -1518.1 20460048.0  0.0  1 0  272  420  589
$GNGGA,063203.796,,,,,0,00,,,M,,,,0000*27
$GNRMC,063203.796,A,,,,,,,090419,,*2F
$GPGSA,A,1,,,,,,,,,,,,,,,*1E
$BDGSA,A,1,,,,,,,,,,,,,,,*0F
$GLGSA,A,1,,,,,,,,,,,,,,,*02
$GPGSV,2,1,06,04,00,000,45,09,00,000,45,23,00,000,42,28,00,000,41*79
$GPGSV,2,2,06,27,00,000,31,30,00,000,44*7B
$BDGSV,2,1,06,02,00,000,37,05,00,000,39,09,00,000,39,10,00,000,36*63
$BDGSV,2,2,06,22,00,000,42,29,00,000,43*64
$B3CN0,0,0,0,0,0,0,0,0,0,0,0,0,0,0*4C
---00000028--- Acq_st=7 0  2019-4-9 6:32:4 
[00]  03(G04)  f 45  9  0   -691.9  2046000.8 -0.0  2 0 1817 2643 1628
[01]  08(G09)  f 45  7  0    430.7  2045999.4  0.0  2 0 2174 3472 1972
[02]  22(G23)  f 42  7  0   1752.2  2045997.7 -0.0  2 0 1175 1783 1054
[03]  27(G28)  f 42  7  0  -2872.0  2046003.6  0.0  2 0 1229 1481  647
[04]  26(G27)  f 31  8  0   1656.3  2045997.7 -0.0  5 0  337  294  231
[05]  29(G30)  f 44  7  0  -4330.1  2046005.5 -0.1  2 0 1613 2606 1165
[16]  38(B02) 1f 37 26  0  -1099.5  4092002.8  0.1  2 0 1233 1043  776
[17]  41(B05) 1f 40 10  0  -1108.0  4092002.8 -0.2  2 0  662 1211  489
[18]  45(B09) 1f 39  7  0    657.7  4091998.2 -0.2  2 0  669  865   95
[19]  46(B10) 1f 36  7  0  -1317.5  4092003.3 -0.0  2 0  890 1157  684
[20]  58(B22) 1f 42  7  0    882.0  4091997.6  0.1  2 0 1434 1499  483
[21]  65(B29) 1f 43  7  0  -2988.6  4092007.7  0.1  2 0 2118 2130  693
[32]  75(N-6) 8f 37  7  0   1135.1  1021999.3  0.1  2 0   593  721  275
[33]  76(N-5) 8f 37 14  0   2117.3  1021998.6 -0.0  2 0   466  723  436
[34]  77(N-4) 8f 36 21  0  -5287.9  1022003.3 -0.0  2 0   557  791  309
[35]  80(N-1) 8f 43  7  0  -1167.1  1022000.7  0.0  2 0   895 1361  500
[36]  81(N00) 8f 40 20  0  -4043.5  1022002.5  0.2  2 0    99  443  317
[48]  38(B02)  1 10 10  0  -1692.8 20460019.8  0.1  1 0  321  456  375
[49]  41(B05)  1 24 18  1   -637.6 20460022.1 -0.0  1 0  601  596  496
[50]  45(B09)  1  8  7  0   2335.1 20459991.7 -0.0  1 0  373  745 1133
[51]  46(B10)  1  7  7  0  -1120.5 20460022.8 -0.0  1 0  674  634 1204
[52]  58(B22)  1  7  7  0   1108.1 20459986.1 -0.2  1 0  397  717  723
[53]  65(B29)  1  7  7  0  -2293.9 20460048.2  0.1  1 0  395  395  526
$GNGGA,063204.796,,,,,0,00,,,M,,,,0000*20
$GNRMC,063204.796,A,,,,,,,090419,,*28
$GPGSA,A,1,,,,,,,,,,,,,,,*1E
$BDGSA,A,1,,,,,,,,,,,,,,,*0F
$GLGSA,A,1,,,,,,,,,,,,,,,*02
$GPGSV,2,1,06,04,00,000,45,09,00,000,45,23,00,000,42,28,00,000,42*7A
$GPGSV,2,2,06,27,00,000,31,30,00,000,44*7B
$BDGSV,2,1,06,02,00,000,37,05,00,000,40,09,00,000,39,10,00,000,36*6D
$BDGSV,2,2,06,22,00,000,42,29,00,000,43*64
$B3CN0,0,0,0,0,0,0,0,0,0,0,0,0,0,0*4C
---00000029--- Acq_st=3 0  2019-4-9 6:32:5 
[00]  03(G04)  f 45  7  0   -689.7  2046000.8  0.0  2 0 1918 3389 1779
[01]  08(G09)  f 45  7  0    429.6  2045999.4 -0.0  2 0 1755 2796 1392
[02]  22(G23)  f 42  7  0   1753.1  2045997.7 -0.0  2 0 1372 2508 1190
[03]  27(G28)  f 42  7  0  -2874.0  2046003.7 -0.1  2 0 1128 1474  801
[04]  26(G27)  f 32  7  0   1649.1  2045997.7  0.0  5 0  945  696   69
[05]  29(G30)  f 44  7  0  -4330.9  2046005.6 -0.1  2 0 2020 2847 1165
[06]  07(G08)  1 11  7  0   -250.0  2046001.2 -0.0  1 0  982  568  642
[16]  38(B02) 1f 39 21  0  -1101.1  4092002.8 -0.8  2 0  599  880  764
[17]  41(B05) 1f 39 28  0  -1105.8  4092002.8 -0.2  2 0  920  968  384
[18]  45(B09) 1f 39  7  0    659.4  4091998.1  0.0  2 0  657  902  346
[19]  46(B10) 1f 36  7  0  -1324.6  4092003.4 -0.1  2 0  806  988  709
[20]  58(B22) 1f 42  7  0    882.4  4091997.5 -0.0  2 0 1316 1463  616
[21]  65(B29) 1f 43  7  0  -2984.9  4092007.7  0.0  2 0 2026 2108  853
[32]  75(N-6) 8f 36  7  0   1137.6  1021999.2 -0.0  2 0   613  915  404
[33]  76(N-5) 8f 37 12  0   2118.3  1021998.7  0.0  2 0   348  611  295
[34]  77(N-4) 8f 36 20  0  -5285.3  1022003.3  0.0  2 0   527  868  274
[35]  80(N-1) 8f 43  7  0  -1164.2  1022000.7 -0.0  2 0   927 1366  648
[36]  81(N00) 8f 39 21  0  -4042.6  1022002.6  0.4  2 0   538  816  414
[49]  41(B05)  1 18 26  1   -964.2 20460015.8  0.2  1 0  785  533  230
[52]  58(B22)  1  7  7  0   1417.8 20459987.0 -0.1  1 0  759  332  447
[53]  65(B29)  1  7  7  0  -2698.4 20460050.4  0.1  1 0  431  156   73
$GNGGA,063205.796,,,,,0,00,,,M,,,,0000*21
$GNRMC,063205.796,A,,,,,,,090419,,*29
$GPGSA,A,1,,,,,,,,,,,,,,,*1E
$BDGSA,A,1,,,,,,,,,,,,,,,*0F
$GLGSA,A,1,,,,,,,,,,,,,,,*02
$GPGSV,2,1,06,04,00,000,45,09,00,000,45,23,00,000,42,28,00,000,42*7A
$GPGSV,2,2,06,27,00,000,32,30,00,000,44*78
$BDGSV,2,1,06,02,00,000,39,05,00,000,39,09,00,000,39,10,00,000,36*6D
$BDGSV,2,2,06,22,00,000,42,29,00,000,43*64
$B3CN0,0,0,0,0,0,0,0,0,0,0,0,0,0,0*4C
---00000030--- Acq_st=3 0  2019-4-9 6:32:6 
[00]  03(G04)  f 45  7  0   -690.9  2046000.8 -0.0  2 0 2408 3301 1552
[01]  08(G09)  f 44  7  0    433.1  2045999.4  0.1  2 0 1049 2431  828
[02]  22(G23)  f 42 11  0   1751.8  2045997.6 -0.0  2 0 1789 2300 1265
[03]  27(G28)  f 42  7  0  -2874.3  2046003.7  0.1  2 0  916 1992 1148
[04]  26(G27)  f 29  7  0   1634.2  2045997.7 -0.1  5 0  157  120  130
[05]  29(G30)  f 44  7  0  -4331.4  2046005.6  0.0  2 0 1847 2521  779
[06]  07(G08)  1 22  8  0   -295.5  2046001.5  0.1  1 0  528  624  529
[16]  38(B02) 1f 38 28  0  -1099.8  4092002.7  0.3  2 0  657  720  381
[17]  41(B05) 1f 39 10  0  -1108.8  4092002.9 -0.6  2 0  513  946  442
[18]  45(B09) 1f 39  8  0    660.1  4091998.1 -0.1  2 0 1224 1396  412
[19]  46(B10) 1f 36  7  0  -1320.8  4092003.4  0.1  2 0  228  334   81
[20]  58(B22) 1f 42  7  0    878.9  4091997.6  0.0  2 0 1383 1517  408
[21]  65(B29) 1f 43  7  0  -2986.5  4092007.7  0.1  2 0 1885 2135 1197
[32]  75(N-6) 8f 37  7  0   1136.8  1021999.3  0.1  2 0   459  759  534
[33]  76(N-5) 8f 36 12  0   2116.3  1021998.6  0.1  2 0   372  779  376
[34]  77(N-4) 8f 36 21  0  -5288.8  1022003.4 -0.0  2 0   536  671  415
[35]  80(N-1) 8f 43 15  0  -1164.8  1022000.7  0.0  2 0   690 1317  478
[36]  81(N00) 8f 39 20  0  -4047.1  1022002.6 -0.3  2 0   471  860  391
[48]  38(B02)  1 22 22  0   -685.7 20460018.9 -0.0  1 0  300  343  581
[49]  41(B05)  1 23 24  1  -1348.6 20460019.5 -0.2  1 0  626  396  448
[50]  45(B09)  1  7  7  0   1025.9 20459990.1  0.1  1 0   88  257  302
[51]  46(B10)  1  7  7  0   -766.0 20460021.1  0.0  1 0  679  103  420
$GNGGA,063206.796,,,,,0,00,,,M,,,,0000*22
$GNRMC,063206.796,A,,,,,,,090419,,*2A
$GPGSA,A,1,,,,,,,,,,,,,,,*1E
$BDGSA,A,1,,,,,,,,,,,,,,,*0F
$GLGSA,A,1,,,,,,,,,,,,,,,*02
$GPGSV,2,1,06,04,00,000,45,09,00,000,44,23,00,000,42,28,00,000,42*7B
$GPGSV,2,2,06,27,00,000,29,30,00,000,44*72
$BDGSV,2,1,06,02,00,000,38,05,00,000,39,09,00,000,39,10,00,000,36*6C
$BDGSV,2,2,06,22,00,000,42,29,00,000,43*64
$B3CN0,0,0,0,0,0,0,0,0,0,0,0,0,0,0*4C
---00000031--- Acq_st=3 0  2019-4-9 6:32:7 
[00]  03(G04)  f 45  7  0   -688.9  2046000.8  0.0  2 0 2218 3202 1489
[01]  08(G09)  f 44  7  0    431.0  2045999.5 -0.0  2 0 1522 2052  587
[02]  22(G23)  f 43  7  0   1749.6  2045997.6  0.0  2 0 1404 2069  954
[03]  27(G28)  f 42  7  0  -2874.3  2046003.7  0.0  2 0  948 1921 1185
[04]  26(G27)  f 25  9  0   1590.5  2045998.1  0.0 10 0   65  397  261
[05]  29(G30)  f 44  7  0  -4330.5  2046005.6 -0.0  2 0 2306 3210 1076
[06]  07(G08)  7 27  7  0   -249.8  2046000.3 -0.0 10 0  164  154  197
[16]  38(B02) 1f 38 10  0  -1102.2  4092002.8  0.9  2 0  850 1148  399
[17]  41(B05) 1f 38 27  0  -1109.2  4092002.7 -0.7  2 0 1051  540  251
[18]  45(B09) 1f 39 12  0    657.8  4091998.1 -0.0  2 0 1162 1174  597
[19]  46(B10) 1f 36 11  0  -1320.9  4092003.3  0.0  2 0  103  491  176
[20]  58(B22) 1f 41  7  0    885.4  4091997.5 -0.0  2 0 1221 1682  755
[21]  65(B29) 1f 43  7  0  -2984.1  4092007.7 -0.0  2 0 1697 2518 1373
[32]  75(N-6) 8f 36  7  0   1137.9  1021999.3 -0.0  2 0   397  729  523
[33]  76(N-5) 8f 36  9  0   2115.6  1021998.5 -0.0  2 0   475  992  153
[34]  77(N-4) 8f 36 16  0  -5286.5  1022003.3  0.0  2 0   757  811  530
[35]  80(N-1) 8f 43  7  0  -1165.3  1022000.7 -0.1  2 0   966 1425  657
[36]  81(N00) 8f 39 21  0  -4044.3  1022002.5  0.3  2 0   277  647  507
[48]  38(B02)  1 10 10  0   -934.5 20460021.9  0.0  1 0  715  218  525
[50]  45(B09)  1  7  7  0    796.0 20459989.0 -0.2  1 0  509  278  405
[51]  46(B10)  1  7  7  0  -1069.5 20460022.9  0.1  1 0  200  297  209
[52]  58(B22)  1  7  7  0    250.2 20459985.1  0.1  1 0  132  262  527
[53]  65(B29)  1  7  9  0  -2671.6 20460048.7 -0.1  1 0  273  325  511
$GNGGA,063207.796,,,,,0,00,,,M,,,,0000*23
$GNRMC,063207.796,A,,,,,,,090419,,*2B
$GPGSA,A,1,,,,,,,,,,,,,,,*1E
$BDGSA,A,1,,,,,,,,,,,,,,,*0F
$GLGSA,A,1,,,,,,,,,,,,,,,*02
$GPGSV,2,1,07,04,00,000,45,09,00,000,44,23,00,000,43,28,00,000,42*7B
$GPGSV,2,2,07,27,00,000,25,30,00,000,44,08,00,000,27*42
$BDGSV,2,1,06,02,00,000,37,05,00,000,39,09,00,000,39,10,00,000,36*63
$BDGSV,2,2,06,22,00,000,41,29,00,000,43*67
$B3CN0,0,0,0,0,0,0,0,0,0,0,0,0,0,0*4C
---00000032--- Acq_st=3 0  2019-4-9 6:32:8 
[00]  03(G04)  f 45  9  0   -689.2  2046000.8 -0.0  2 0 1874 2984 1205
[01]  08(G09)  f 43  7  0    434.3  2045999.5 -0.0  2 0  515 2018 1410
[02]  22(G23)  f 43  7  0   1750.9  2045997.7 -0.1  2 0 1313 1894  827
[03]  27(G28)  f 42  7  0  -2876.6  2046003.6  0.0  2 0 1438 2394 1217
[04]  26(G27)  f  7  7  0   1389.5  2045998.1 -0.1 10 0  216   54  433
[05]  29(G30)  f 44  7  0  -4333.1  2046005.6 -0.1  2 0 1549 2773 1328
[06]  07(G08)  7  7  7  0   -417.4  2046000.4  0.1 10 0  266  111  279
[16]  38(B02) 1f 37 22  0  -1099.9  4092002.9 -0.1  2 0  741  736  446
[17]  41(B05) 1f 39 18  0  -1107.0  4092002.8  0.4  2 0  675 1095  323
[18]  45(B09) 1f 40  8  0    657.3  4091998.1  0.0  2 0 1314 1079  209
[19]  46(B10) 1f 36  7  0  -1320.4  4092003.3  0.2  2 0  540  650  262
[20]  58(B22) 1f 42  7  0    885.2  4091997.6  0.1  2 0  850 1484  271
[21]  65(B29) 1f 43  7  0  -2984.6  4092007.7  0.0  2 0 1399 1992  856
[32]  75(N-6) 8f 35  7  0   1138.0  1021999.2 -0.1  2 0   191 1005  770
[33]  76(N-5) 8f 36 15  0   2120.1  1021998.6  0.1  2 0   181  508  613
[34]  77(N-4) 8f 35 21  0  -5289.4  1022003.3  0.0  2 0   236  665  387
[35]  80(N-1) 8f 43  7  0  -1161.9  1022000.7 -0.0  2 0   844 1486  746
[36]  81(N00) 8f 40 21  0  -4044.5  1022002.6  0.1  2 0   578  945  440
[48]  38(B02)  1 10 36  1  -1402.1 20460017.3  0.1  1 0  360  268  316
[49]  41(B05)  1 27 24  1  -1158.1 20460020.5 -0.1  1 0  482  114  364
[50]  45(B09)  1  7  7  0   1206.8 20459989.1 -0.2  1 0  608  565  524
[51]  46(B10)  1  7  7  0   -720.8 20460019.4 -0.1  1 0  253  186  574
[52]  58(B22)  1  7  7  0    270.5 20459986.9 -0.0  1 0  540  571  660
[53]  65(B29)  1  7  7  0  -2098.5 20460047.8  0.3  1 0  175  267  223
$GNGGA,063208.796,,,,,0,00,,,M,,,,0000*2C
$GNRMC,063208.796,A,,,,,,,090419,,*24
$GPGSA,A,1,,,,,,,,,,,,,,,*1E
$BDGSA,A,1,,,,,,,,,,,,,,,*0F
$GLGSA,A,1,,,,,,,,,,,,,,,*02
$GPGSV,2,1,05,04,00,000,45,09,00,000,43,23,00,000,43,28,00,000,42*7E
$GPGSV,2,2,05,30,00,000,44*4F
$BDGSV,2,1,06,02,00,000,37,05,00,000,39,09,00,000,40,10,00,000,36*6D
$BDGSV,2,2,06,22,00,000,42,29,00,000,43*64
$B3CN0,0,0,0,0,0,0,0,0,0,0,0,0,0,0*4C
$GLGSV,2,1,05,04,00,000,35,03,00,000,36,17,00,000,35,05,00,000,43*65
$GLGSV,2,2,05,15,00,000,40*50
---00000033--- Acq_st=3 0  2019-4-9 6:32:9 
[00]  03(G04)  f 45  7  0   -692.3  2046000.8 -0.0  2 0 2265 2920 1522
[01]  08(G09)  f 42  7  0    427.5  2045999.5  0.0  2 0  846 2012 1358
[02]  22(G23)  f 43  7  0   1747.6  2045997.6  0.0  2 0 1496 2428  863
[03]  27(G28)  f 42  7  0  -2877.2  2046003.7 -0.0  2 0 1376 2340 1090
[04]  26(G27)  f  7  7  0   1234.6  2045998.4  0.1 10 0  187   53  373
[05]  29(G30)  f 44  7  0  -4334.5  2046005.6  0.0  2 0 1410 2587 1271
[06]  07(G08)  7  7  7  0   -550.9  2046000.9  0.1 10 0  221  544  297
[16]  38(B02) 1f 37 22  0  -1111.7  4092002.9  0.8  2 0  748  592   75
[17]  41(B05) 1f 39 23  0  -1108.8  4092002.7  0.6  2 0  752  889  417
[18]  45(B09) 1f 40  7  0    654.9  4091998.1 -0.1  2 0 1159 1172  424
[19]  46(B10) 1f 36  7  0  -1327.9  4092003.4 -0.5  2 0  716  471  655
[20]  58(B22) 1f 42  7  0    876.4  4091997.6  0.0  2 0 1355 1599  338
[21]  65(B29) 1f 43  7  0  -2988.0  4092007.7  0.0  2 0 1468 2010  614
[32]  75(N-6) 8f 36  7  0   1133.0  1021999.3  0.1  2 0   718  560  195
[33]  76(N-5) 8f 36 10  0   2113.1  1021998.6 -0.0  2 0   449  578   93
[34]  77(N-4) 8f 36 21  0  -5288.3  1022003.4 -0.1  2 0   337  385   73
[35]  80(N-1) 8f 43  7  0  -1165.5  1022000.7 -0.1  2 0   671 1371  953
[36]  81(N00) 8f 40 21  0  -4047.6  1022002.5  0.1  2 0   444  845  476
[48]  38(B02)  1 21 13  1  -1362.6 20460023.1  0.1  1 0  587  417 1031
[49]  41(B05)  1 23 19  0   -881.4 20460016.4 -0.1  1 0  663  270  189
[50]  45(B09)  1  7  8  0   1606.6 20459990.6 -0.1  1 0  407  561  678
[51]  46(B10)  1  7  7  0  -1318.3 20460022.4 -0.1  1 0  105  189   68
[52]  58(B22)  1  8  7  0    639.7 20459987.4 -0.0  1 0  547  567  748
[53]  65(B29)  1  7  7  0  -1934.3 20460048.4  0.1  1 0  415   89  203
$GNGGA,063209.796,,,,,0,00,,,M,,,,0000*2D
$GNRMC,063209.796,A,,,,,,,090419,,*25
$GPGSA,A,1,,,,,,,,,,,,,,,*1E
$BDGSA,A,1,,,,,,,,,,,,,,,*0F
$GLGSA,A,1,,,,,,,,,,,,,,,*02
$GPGSV,2,1,05,04,00,000,45,09,00,000,42,23,00,000,43,28,00,000,42*7F
$GPGSV,2,2,05,30,00,000,44*4F
$BDGSV,2,1,06,02,00,000,37,05,00,000,39,09,00,000,40,10,00,000,36*6D
$BDGSV,2,2,06,22,00,000,42,29,00,000,43*64
$B3CN0,0,0,0,0,0,0,0,0,0,0,0,0,0,0*4C
$GLGSV,2,1,05,04,00,000,36,03,00,000,36,17,00,000,36,05,00,000,43*65
$GLGSV,2,2,05,15,00,000,40*50
---00000034--- Acq_st=3 0  2019-4-9 6:32:10 
[00]  03(G04)  f 45  9  0   -693.9  2046000.9  0.0  2 0 2542 3732 2370
[01]  08(G09)  f 43  7  0    430.3  2045999.4  0.0  2 0 1964 2297  958
[02]  22(G23)  f 43  7  0   1746.5  2045997.7 -0.0  2 0 1326 2078 1238
[03]  27(G28)  f 42  7  0  -2877.8  2046003.7 -0.0  2 0 1035 1914 1203
[04]  26(G27)  f  7 11  0   1094.3  2045998.6  0.0 10 0  281  116  358
[05]  29(G30)  f 43  7  0  -4337.5  2046005.6  0.0  2 0 1612 2397  865
[06]  07(G08)  7  7  7  0   -711.1  2046001.0 -0.1 10 0  474  158  308
[16]  38(B02) 1f 37 22  0  -1108.7  4092002.8  0.1  2 0  443  539  324
[17]  41(B05) 1f 38 23  0  -1113.9  4092002.8 -0.8  2 0  977 1122  502
[18]  45(B09) 1f 40  7  0    652.5  4091998.1  0.1  2 0 1267 1523  535
[19]  46(B10) 1f 36  7  0  -1327.9  4092003.4 -0.0  2 0  468  850  564
[20]  58(B22) 1f 42  7  0    875.1  4091997.6 -0.0  2 0 1306 1942 1008
[21]  65(B29) 1f 43  7  0  -2991.7  4092007.7  0.0  2 0 1435 1672  587
[32]  75(N-6) 8f 35  7  0   1131.2  1021999.2  0.1  2 0    33  489  676
[33]  76(N-5) 8f 36  7  0   2112.2  1021998.6 -0.0  2 0   680  611  248
[34]  77(N-4) 8f 35 21  0  -5291.7  1022003.3  0.0  2 0   273  542  392
[35]  80(N-1) 8f 43  7  0  -1166.6  1022000.7 -0.0  2 0   765 1428  645
[36]  81(N00) 8f 40 20  0  -4050.5  1022002.6  0.1  2 0   962 1106  733
[49]  41(B05)  1 25 24  0   -653.3 20460018.4  0.0  1 0  608  534  351
[52]  58(B22)  1  7  7  0    542.6 20459988.0 -0.1  1 0  706  189  243
[53]  65(B29)  1  7  7  0  -1831.3 20460048.5  0.0  1 0  348  701  633
$GNGGA,063210.796,,,,,0,00,,,M,,,,0000*25
$GNRMC,063210.796,A,,,,,,,090419,,*2D
$GPGSA,A,1,,,,,,,,,,,,,,,*1E
$BDGSA,A,1,,,,,,,,,,,,,,,*0F
$GLGSA,A,1,,,,,,,,,,,,,,,*02
$GPGSV,2,1,05,04,00,000,45,09,00,000,43,23,00,000,43,28,00,000,42*7E
$GPGSV,2,2,05,30,00,000,43*48
$BDGSV,2,1,06,02,00,000,37,05,00,000,38,09,00,000,40,10,00,000,36*6C
$BDGSV,2,2,06,22,00,000,42,29,00,000,43*64
$B3CN0,0,0,0,0,0,0,0,0,0,0,0,0,0,0*4C
$GLGSV,2,1,05,04,00,000,35,03,00,000,36,17,00,000,35,05,00,000,43*65
$GLGSV,2,2,05,15,00,000,40*50
---00000035--- Acq_st=3 0  2019-4-9 6:32:11 
[00]  03(G04)  f 45  7  0   -688.4  2046000.9 -0.0  2 0 1902 3161 1617
[01]  08(G09)  f 43  7  0    431.9  2045999.3 -0.1  2 0 1977 2489 1228
[02]  22(G23)  f 43  7  0   1747.1  2045997.7 -0.1  2 0 1240 2301 1112
[03]  27(G28)  f 42  7  0  -2877.7  2046003.7  0.0  2 0 1320 2318 1251
[05]  29(G30)  f 43  7  0  -4332.2  2046005.6 -0.0  2 0 1820 2765 1464
[16]  38(B02) 1f 37 27  0  -1104.8  4092002.7 -0.2  2 0  441  761  568
[17]  41(B05) 1f 40 10  0  -1109.1  4092002.6  0.7  2 0 1040 1023  263
[18]  45(B09) 1f 40  8  0    654.9  4091998.2 -0.2  2 0 1062 1410  869
[19]  46(B10) 1f 35 13  0  -1327.6  4092003.4 -0.1  2 0  983  704  219
[20]  58(B22) 1f 42  7  0    876.2  4091997.6  0.0  2 0 1461 1547  457
[21]  65(B29) 1f 43  7  0  -2986.7  4092007.7 -0.1  2 0 1405 1846  577
[32]  75(N-6) 8f 34  7  0   1134.1  1021999.1  0.0  2 0   215  564  539
[33]  76(N-5) 8f 37 10  0   2114.8  1021998.6 -0.2  2 0   149  585  438
[34]  77(N-4) 8f 34 20  0  -5290.2  1022003.3 -0.1  2 0   401  557  293
[35]  80(N-1) 8f 43  7  0  -1162.8  1022000.7  0.0  2 0   951 1560  696
[36]  81(N00) 8f 41 20  0  -4047.6  1022002.6 -0.2  2 0   440  890  307
[48]  38(B02)  1 10 10  0   -829.1 20460018.3 -0.1  1 0  565  220  182
[49]  41(B05)  1 18 27  1   -565.6 20460023.3 -0.0  1 0  454  251  463
[50]  45(B09)  1  7  7  0    955.7 20459990.0 -0.1  1 0  515  358  230
[51]  46(B10)  1  7  7  0  -1377.3 20460021.3  0.1  1 0  230  355  196
$GNGGA,063211.796,,,,,0,00,,,M,,,,0000*24
$GNRMC,063211.796,A,,,,,,,090419,,*2C
$GPGSA,A,1,,,,,,,,,,,,,,,*1E
$BDGSA,A,1,,,,,,,,,,,,,,,*0F
$GLGSA,A,1,,,,,,,,,,,,,,,*02
$GPGSV,2,1,05,04,00,000,45,09,00,000,43,23,00,000,43,28,00,000,42*7E
$GPGSV,2,2,05,30,00,000,43*48
$BDGSV,2,1,06,02,00,000,37,05,00,000,40,09,00,000,40,10,00,000,35*60
$BDGSV,2,2,06,22,00,000,42,29,00,000,43*64
$B3CN0,0,0,0,0,0,0,0,0,0,0,0,0,0,0*4C
$GLGSV,2,1,05,04,00,000,34,03,00,000,37,17,00,000,34,05,00,000,43*64
$GLGSV,2,2,05,15,00,000,41*51
---00000036--- Acq_st=7 0  2019-4-9 6:32:12 
[00]  03(G04)  f 44  7  0   -687.4  2046000.8  0.0  2 0 2380 3243 1576
[01]  08(G09)  f 44  7  0    431.7  2045999.3  0.0  2 0 2548 2813 1272
[02]  22(G23)  f 42  8  0   1750.6  2045997.7  0.0  2 0  818 1792 1234
[03]  27(G28)  f 43  7  0  -2874.9  2046003.7 -0.1  2 0 1063 1509  367
[05]  29(G30)  f 43  7  0  -4332.9  2046005.6  0.1  2 0 1473 2218 1017
[16]  38(B02) 1f 39 22  0  -1103.2  4092002.9  0.2  2 0  665  837  261
[17]  41(B05) 1f 40 27  0  -1113.1  4092002.9 -0.4  2 0  451 1108  713
[18]  45(B09) 1f 40  7  0    654.0  4091998.2  0.1  2 0  765 1096  842
[19]  46(B10) 1f 36  8  0  -1327.2  4092003.3 -0.1  2 0  843 1150  624
[20]  58(B22) 1f 42  7  0    876.4  4091997.6  0.0  2 0 1474 1983  777
[21]  65(B29) 1f 43  7  0  -2987.0  4092007.7 -0.0  2 0 1462 1952  812
[32]  75(N-6) 8f 34  7  0   1139.8  1021999.2 -0.1  2 0   211  410  253
