i=1
Rf R0 Config = ff777073
Rf R1 Config = 00dffbfe
Rf R52 Config = 00dfeec0
i=2
Rf R0 Config = 007772f3
Rf R1 Config = 00dffbfe
Rf R52 Config = 00d8ce30
i=3
Rf R0 Config = 007772f3
Rf R1 Config = 00dffbfe
Rf R52 Config = 00de6e30
i=4
Rf R0 Config = 00777273
Rf R1 Config = 00df9bfe
Rf R52 Config = 00deee60
SD initialized success
Create debug.log Failed! 3
Start Channel by LuYu
$GNGGA,000000.000,,,,,0,00,,,M,,,,0000*2B
$GNRMC,000000.000,A,,,,,,,060180,,*29
$GPGSA,A,1,,,,,,,,,,,,,,,*1E
$BDGSA,A,1,,,,,,,,,,,,,,,*0F
$GLGSA,A,1,,,,,,,,,,,,,,,*02
$B3CN0,0,0,0,0,0,0,0,0,0,0,0,0,0,0*4C
---00000001--- Acq_st=3 0  2000-1-1 0:2:6 
[00]  03(G04)  1 19  7  0   -942.0  2046003.9 -0.1  1 0  246 1063 1502
[01]  06(G07)  1  7  7  0  -3500.0  2046007.1 -0.0  1 0  111  918 1684
[02]  08(G09)  1 17  7  0    250.0  2046002.5 -0.0  1 0  871 1947 1623
$GNGGA,000000.000,,,,,0,00,,,M,,,,0000*2B
$GNRMC,000000.000,A,,,,,,,060180,,*29
$GPGSA,A,1,,,,,,,,,,,,,,,*1E
$BDGSA,A,1,,,,,,,,,,,,,,,*0F
$GLGSA,A,1,,,,,,,,,,,,,,,*02
$B3CN0,0,0,0,0,0,0,0,0,0,0,0,0,0,0*4C
---00000002--- Acq_st=3 0  2000-1-1 0:2:7 
[00]  03(G04)  7  7  7  0   -938.7  2046001.0  0.9 10 0  978 1292  596
[01]  06(G07)  1 25  7  0  -3567.5  2046004.6  0.2  1 0 1514 1627  638
[02]  08(G09)  1 26  7  0    218.1  2045999.4  0.7  1 0 1574 2134  681
[03]  22(G23)  1  7  7  0   1750.0  2045999.6  0.0  1 0  141 1225 1224
$GNGGA,000000.000,,,,,0,00,,,M,,,,0000*2B
$GNRMC,000000.000,A,,,,,,,060180,,*29
$GPGSA,A,1,,,,,,,,,,,,,,,*1E
$BDGSA,A,1,,,,,,,,,,,,,,,*0F
$GLGSA,A,1,,,,,,,,,,,,,,,*02
$B3CN0,0,0,0,0,0,0,0,0,0,0,0,0,0,0*4C
---00000003--- Acq_st=3 0  2000-1-1 0:2:8 
[00]  03(G04)  7 39  7  0   -938.9  2046001.1  0.1  2 0  619 1285  701
[01]  06(G07)  7 36  7  0  -3567.2  2046004.5  0.0  2 0 1754 1946  688
[02]  08(G09)  7 33  7  0    220.0  2045999.6  0.2  5 0 1718 2321  840
[03]  22(G23)  1 27  7  0   1642.8  2045997.6  0.8  1 0  975  924  588
[04]  27(G28)  1  7  7  0  -3033.0  2046004.3 -0.1  1 0  465  433  503
[05]  29(G30)  1 20  7  0  -4341.6  2046007.6  0.0  1 0  379  875 1234
[16]  38(B02)  1 25 10  0  -1250.0  4092004.9 -0.1  1 0  265  554  520
$GNGGA,000000.000,,,,,0,00,,,M,,,,0000*2B
$GNRMC,000000.000,A,,,,,,,060180,,*29
$GPGSA,A,1,,,,,,,,,,,,,,,*1E
$BDGSA,A,1,,,,,,,,,,,,,,,*0F
$GLGSA,A,1,,,,,,,,,,,,,,,*02
$GPGSV,1,1,03,04,00,000,39,07,00,000,36,09,00,000,33*4F
$B3CN0,0,0,0,0,0,0,0,0,0,0,0,0,0,0*4C
---00000004--- Acq_st=3 0  2000-1-1 0:2:9 
[00]  03(G04)  7 39  7  0   -935.8  2046001.1 -0.1  2 0 1055 1244  724
[01]  06(G07)  7 42  7  0  -3561.3  2046004.5 -0.0  2 0 2012 2234  852
[02]  08(G09)  7 43  7  0    221.2  2045999.6  0.0  2 0 1746 2363 1232
[03]  22(G23)  7 30  7  0   1642.3  2045997.8  0.6  5 0  446  863  396
[04]  27(G28)  1  7  7  0  -3419.2  2046006.3 -0.1  1 0  399  647  484
[05]  29(G30)  7 16  7  0  -4340.6  2046005.6  0.9 10 0 1200 1390  801
[16]  38(B02)  1 10 26  1  -1103.1  4092004.1  0.5  1 0  534  761  202
[17]  41(B05)  1 16 23  1   -960.1  4092001.3 -0.2  1 0  238  256  727
$GNGGA,000000.000,,,,,0,00,,,M,,,,0000*2B
$GNRMC,000000.000,A,,,,,,,060180,,*29
$GPGSA,A,1,,,,,,,,,,,,,,,*1E
$BDGSA,A,1,,,,,,,,,,,,,,,*0F
$GLGSA,A,1,,,,,,,,,,,,,,,*02
$GPGSV,2,1,05,04,00,000,39,07,00,000,42,09,00,000,43,23,00,000,30*7C
$GPGSV,2,2,05,30,00,000,16*48
$B3CN0,0,0,0,0,0,0,0,0,0,0,0,0,0,0*4C
---00000005--- Acq_st=3 0  2000-1-1 0:2:10 
[00]  03(G04)  7 39  8  0   -942.9  2046001.1 -0.0  2 0   70  707  426
[01]  06(G07)  7 43  7  0  -3561.0  2046004.5  0.0  2 0 1221 1496  769
[02]  08(G09)  7 44  7  0    222.6  2045999.6 -0.0  2 0 1931 2652 1206
[03]  22(G23)  7 39  7  0   1649.2  2045997.8  0.1  2 0  900 1108  534
[04]  27(G28)  1  7  7  0  -3420.6  2046003.9  0.2  1 0 1003  798  171
[05]  29(G30)  7 41  7  0  -4336.8  2046005.6 -0.0  2 0  843 1704  742
[16]  38(B02)  7 33 26  0  -1094.0  4092002.8  0.5  2 0  828  996  553
[17]  41(B05)  7 16 19  0   -743.7  4092002.0  0.0  2 0  121  302  810
$GNGGA,000000.000,,,,,0,00,,,M,,,,0000*2B
$GNRMC,000000.000,A,,,,,,,060180,,*29
$GPGSA,A,1,,,,,,,,,,,,,,,*1E
$BDGSA,A,1,,,,,,,,,,,,,,,*0F
$GLGSA,A,1,,,,,,,,,,,,,,,*02
$GPGSV,2,1,05,04,00,000,39,07,00,000,43,09,00,000,44,23,00,000,39*73
$GPGSV,2,2,05,30,00,000,41*4A
$BDGSV,1,1,01,02,00,000,33*5B
$B3CN0,0,0,0,0,0,0,0,0,0,0,0,0,0,0*4C
---00000006--- Acq_st=3 0  2000-1-1 0:2:11 
[00]  03(G04)  7 40  7  0   -930.3  2046001.1  0.2  2 0  645 1057  363
[01]  06(G07)  7 42  7  0  -3559.6  2046004.5 -0.0  2 0 1168 1886 1366
[02]  08(G09)  7 44  7  0    225.0  2045999.6 -0.0  2 0 2071 2955 1544
[03]  22(G23)  7 39  7  0   1653.6  2045997.8 -0.1  2 0 1040 1248  427
[04]  27(G28)  1  7 11  0  -3390.3  2046003.3  0.2  1 0  395  752  791
[05]  29(G30)  7 41  7  0  -4336.1  2046005.6 -0.0  2 0  985 1492  553
[16]  38(B02)  f 34 27  0  -1104.2  4092002.8 -0.2  2 0  828  436  137
[17]  41(B05)  7 10 19  1   -789.0  4092002.2 -0.0  2 0   87  168  206
[18]  57(B21)  1  7  7  0   1000.0  4091998.4 -0.1  1 0  187  438  450
$GNGGA,062920.383,,,,,0,00,,,M,,,,0000*2C
$GNRMC,062920.383,A,,,,,,,070180,,*2F
$GPGSA,A,1,,,,,,,,,,,,,,,*1E
$BDGSA,A,1,,,,,,,,,,,,,,,*0F
$GLGSA,A,1,,,,,,,,,,,,,,,*02
$GPGSV,2,1,05,04,00,000,40,07,00,000,42,09,00,000,44,23,00,000,39*7C
$GPGSV,2,2,05,30,00,000,41*4A
$BDGSV,1,1,01,02,00,000,34*5C
$B3CN0,0,0,0,0,0,0,0,0,0,0,0,0,0,0*4C
---00000007--- Acq_st=3 0  2000-1-1 0:2:12 
[00]  03(G04)  f 40  7  0   -935.9  2046001.1 -0.3  2 0  790  884  374
[01]  06(G07)  f 42  7  0  -3559.0  2046004.6  0.0  2 0 1413 1981  974
[02]  08(G09)  f 44  7  0    227.5  2045999.6  0.0  2 0 2042 2402  701
[03]  22(G23)  f 39  7  0   1639.4  2045997.8  0.0  2 0  405 1024  456
[05]  29(G30)  f 41  7  0  -4333.3  2046005.6 -0.1  2 0 1133 1803  763
[16]  38(B02)  f 35 26  0  -1097.2  4092002.8  0.2  2 0  962  313  363
[17]  41(B05)  7 10 17  1   -755.9  4092002.1 -0.1  2 0  188  351  431
[18]  57(B21)  1  7  7  0    930.9  4092000.1 -0.0  1 0  639 1107  676
[19]  62(B26)  1  7  7  0  -3250.0  4092008.1 -0.0  1 0  209  136  415
$GNGGA,062921.383,,,,,0,00,,,M,,,,0000*2D
$GNRMC,062921.383,A,,,,,,,070180,,*2E
$GPGSA,A,1,,,,,,,,,,,,,,,*1E
$BDGSA,A,1,,,,,,,,,,,,,,,*0F
$GLGSA,A,1,,,,,,,,,,,,,,,*02
$GPGSV,2,1,05,04,00,000,40,07,00,000,42,09,00,000,44,23,00,000,39*7C
$GPGSV,2,2,05,30,00,000,41*4A
$BDGSV,1,1,01,02,00,000,35*5D
$B3CN0,0,0,0,0,0,0,0,0,0,0,0,0,0,0*4C
---00000008--- Acq_st=3 0  2000-1-1 0:2:13 
[00]  03(G04)  f 40  7  0   -930.2  2046001.1  0.1  2 0  892 1394  640
[01]  06(G07)  f 43  7  0  -3559.3  2046004.5 -0.0  2 0 1846 1943  715
[02]  08(G09)  f 44  7  0    227.1  2045999.6 -0.0  2 0 1990 3236 1894
[03]  22(G23)  f 39  8  0   1645.3  2045997.7  0.0  2 0 1091 1307  490
[05]  29(G30)  f 42  7  0  -4335.4  2046005.6  0.0  2 0 1535 2129 1191
[16]  38(B02) 1f 36 27  0  -1095.8  4092002.7  0.2  2 0  725  643  226
[17]  41(B05)  7 17 10  1   -756.1  4092002.1 -0.0  2 0  225  110  254
[18]  57(B21)  7 28  7  0    936.1  4091997.4  0.5 10 0  616  921  604
[19]  62(B26)  1  7  7  0  -3691.4  4092008.8 -0.0  1 0  300   16  190
[32]  75(N-6)  1  7  7  0  -1490.5  1022000.9  0.0  1 0   647  625  450
[33]  76(N-5)  1  7  7  0   7015.6  1022000.6 -0.0  1 0   261  959  783
$GNGGA,062922.383,,,,,0,00,,,M,,,,0000*2E
$GNRMC,062922.383,A,,,,,,,070180,,*2D
$GPGSA,A,1,,,,,,,,,,,,,,,*1E
$BDGSA,A,1,,,,,,,,,,,,,,,*0F
$GLGSA,A,1,,,,,,,,,,,,,,,*02
$GPGSV,2,1,05,04,00,000,40,07,00,000,43,09,00,000,44,23,00,000,39*7D
$GPGSV,2,2,05,30,00,000,42*49
$BDGSV,1,1,02,02,00,000,36,21,00,000,27*6B
$B3CN0,0,0,0,0,0,0,0,0,0,0,0,0,0,0*4C
---00000009--- Acq_st=3 0  2000-1-1 0:2:14 
[00]  03(G04)  f 40  8  0   -931.2  2046001.1  0.2  2 0  547 1206  612
[01]  06(G07)  f 43  7  0  -3560.4  2046004.5 -0.0  2 0 1577 2132  993
[02]  08(G09)  f 44  7  0    227.3  2045999.6  0.0  2 0 1837 2923 1632
[03]  22(G23)  f 40  7  0   1650.1  2045997.8 -0.1  2 0 1254 1582  745
[05]  29(G30)  f 42  7  0  -4341.3  2046005.6  0.0  2 0 1269 1771  566
[16]  38(B02) 1f 35 24  0  -1095.7  4092002.5  0.7  2 0  747  512  330
[17]  41(B05)  7 14 10  1   -744.4  4092002.0  0.0  2 0  219   52  174
[18]  57(B21)  7 37  7  0    933.0  4091997.3 -0.1  2 0  761  931  592
[19]  62(B26)  1  7  7  0  -3435.6  4092010.3  0.1  1 0  117  431  942
[32]  75(N-6)  1 30 15  0  -1592.2  1022001.9  0.9  1 0   532 1047  769
[33]  76(N-5)  1 27 21  0    995.7  1021999.9  0.7  1 0   664  488  111
[34]  79(N-2)  1 21 14  0  -5600.0  1022004.4  0.1  1 0   496  544  563
[35]  83(N02)  1 18  7  0  -3250.0  1022003.6 -0.0  1 0   278  104  217
[36]  85(N04)  1 20  7  0   2249.9  1022000.0 -0.0  1 0   256  660  537
[48]  38(B02)  1 13 10  0  -1244.1 20460015.9  0.0  1 0  339  273  188
$GNGGA,062923.383,,,,,0,00,,,M,,,,0000*2F
$GNRMC,062923.383,A,,,,,,,070180,,*2C
$GPGSA,A,1,,,,,,,,,,,,,,,*1E
$BDGSA,A,1,,,,,,,,,,,,,,,*0F
$GLGSA,A,1,,,,,,,,,,,,,,,*02
$GPGSV,2,1,05,04,00,000,40,07,00,000,43,09,00,000,44,23,00,000,40*73
$GPGSV,2,2,05,30,00,000,42*49
$BDGSV,1,1,03,02,00,000,35,05,00,000,17,21,00,000,37*5B
$B3CN0,0,0,0,0,0,0,0,0,0,0,0,0,0,0*4C
---00000010--- Acq_st=7 0  2000-1-1 0:2:15 
[00]  03(G04)  f 40  7  0   -930.6  2046001.1 -0.0  2 0  615 1051  744
[01]  06(G07)  f 43  7  0  -3559.0  2046004.5  0.0  2 0 1907 2670 1288
[02]  08(G09)  f 44  7  0    227.1  2045999.6  0.0  2 0 2331 2917 1092
[03]  22(G23)  f 40  7  0   1648.0  2045997.7  0.0  2 0  794 1317  746
[05]  29(G30)  f 42  7  0  -4336.3  2046005.6  0.0  2 0  550 1573  870
[16]  38(B02) 1f 34 22  0  -1094.0  4092002.6 -0.8  2 0  700  829  283
[18]  57(B21)  7 38  7  0    939.9  4091997.4 -0.1  2 0  401  606  186
[19]  62(B26)  7 31  7  0  -3314.3  4092008.9 -0.4  5 0  332 1025 1202
[32]  75(N-6)  7 38 18  0  -1593.8  1022001.0  0.3  2 0   249  754  565
[33]  76(N-5)  7 34 12  0    989.5  1021999.3  0.1  5 0   738  832  620
[34]  79(N-2)  1 17 20  0  -6250.8  1022004.4 -0.0  1 0    58  296   23
[35]  83(N02)  1 20 16  0  -3264.1  1022002.8  0.1  1 0   784  567  417
[36]  85(N04)  1 31 10  0   2207.9  1021998.2  0.9  1 0    99  424  440
[48]  38(B02)  1 18 10  1  -1025.0 20460026.4  0.0  1 0  445  785  668
$GNGGA,062924.383,,,,,0,00,,,M,,,,0000*28
$GNRMC,062924.383,A,,,,,,,070180,,*2B
$GPGSA,A,1,,,,,,,,,,,,,,,*1E
$BDGSA,A,1,,,,,,,,,,,,,,,*0F
$GLGSA,A,1,,,,,,,,,,,,,,,*02
$GPGSV,2,1,05,04,00,000,40,07,00,000,43,09,00,000,44,23,00,000,40*73
$GPGSV,2,2,05,30,00,000,42*49
$BDGSV,1,1,03,02,00,000,34,21,00,000,38,26,00,000,30*51
$B3CN0,0,0,0,0,0,0,0,0,0,0,0,0,0,0*4C
---00000011--- Acq_st=3 0  2000-1-1 0:2:16 
[00]  03(G04)  f 40  8  0   -928.0  2046001.1  0.1  2 0 1141 1418  770
[01]  06(G07)  f 43  7  0  -3563.4  2046004.5 -0.0  2 0 1659 2547 1318
[02]  08(G09)  f 45  7  0    226.7  2045999.6  0.0  2 0 1490 2434 1517
[03]  22(G23)  f 41  7  0   1645.0  2045997.8  0.0  2 0 1124 1608  984
[05]  29(G30)  f 42  7  0  -4337.8  2046005.5 -0.1  2 0  952 1778  630
[16]  38(B02) 1f 36 27  0  -1093.1  4092002.7 -0.6  2 0  845  767  312
[18]  57(B21)  7 38  7  0    930.5  4091997.4 -0.3  2 0  459  687  177
[19]  62(B26)  7 40  7  0  -3311.5  4092008.8 -0.2  2 0  528 1383 1165
[32]  75(N-6)  7 38 12  0  -1595.9  1022001.1  0.3  2 0   410  490  312
[33]  76(N-5)  7 34 15  0    987.8  1021999.2 -0.0  2 0   534  907  527
[34]  79(N-2)  1 17 15  0  -6367.0  1022003.9 -0.0  1 0   148  291  338
[35]  83(N02)  1 26 19  0  -3253.0  1022001.3  0.3  1 0   263  473  508
[36]  85(N04)  1 33  7  0   2207.3  1021998.3  1.0  1 0   467  628  398
[48]  38(B02)  1 10 10  0  -1508.5 20460020.2 -0.1  1 0  182  282  318
$GNGGA,062925.383,,,,,0,00,,,M,,,,0000*29
$GNRMC,062925.383,A,,,,,,,070180,,*2A
$GPGSA,A,1,,,,,,,,,,,,,,,*1E
$BDGSA,A,1,,,,,,,,,,,,,,,*0F
$GLGSA,A,1,,,,,,,,,,,,,,,*02
$GPGSV,2,1,05,04,00,000,40,07,00,000,43,09,00,000,45,23,00,000,41*73
$GPGSV,2,2,05,30,00,000,42*49
$BDGSV,1,1,03,02,00,000,36,21,00,000,38,26,00,000,40*54
$B3CN0,0,0,0,0,0,0,0,0,0,0,0,0,0,0*4C
---00000012--- Acq_st=3 0  2000-1-1 0:2:17 
[00]  03(G04)  f 40  7  0   -930.3  2046001.1  0.0  2 0  839 1128  503
[01]  06(G07)  f 44  8  0  -3561.5  2046004.6  0.1  2 0 1445 2354 1359
[02]  08(G09)  f 44  8  0    228.8  2045999.6 -0.1  2 0 1520 2531 1166
[03]  22(G23)  f 40  7  0   1650.6  2045997.8 -0.0  2 0  859 1378  760
[05]  29(G30)  f 42  7  0  -4339.1  2046005.6 -0.0  2 0 1414 1806  890
[16]  38(B02) 1f 36 24  0  -1091.2  4092002.8 -0.5  2 0  970  759  341
[18]  57(B21)  7 38  7  0    930.9  4091997.5 -0.0  2 0 1067 1623  663
[19]  62(B26)  7 40  7  0  -3307.9  4092008.7  0.0  2 0  647 1505 1377
[32]  75(N-6)  7 38 17  0  -1591.7  1022001.0  0.1  2 0   478  935  479
[33]  76(N-5)  7 35 13  0    992.1  1021999.3  0.1  2 0   220  646  561
[34]  79(N-2)  1 13 18  0  -6003.7  1022003.4 -0.1  1 0   120  198  151
[35]  83(N02)  7 36 18  0  -3267.9  1022001.9  0.1  2 0   213  527  366
[36]  85(N04)  7 37  7  0   2201.7  1021998.4 -0.1  2 0   402  880  454
[48]  38(B02)  1 10 18  1  -1502.0 20460023.9  0.0  1 0  104  415  311
---00000013--- Acq_st=3 0  2000-1-1 0:2:18 
[00]  03(G04)  f 40  7  0   -924.1  2046001.1 -0.1  2 0 1021 1460  612
[01]  06(G07)  f 43  7  0  -3560.7  2046004.6  0.0  2 0 1368 2172 1328
[02]  08(G09)  f 44  7  0    232.0  2045999.7 -0.0  2 0 1115 2202 1014
[03]  22(G23)  f 41  7  0   1652.5  2045997.8  0.1  2 0  981 1490  961
[04]  27(G28)  1 19  7  0  -2893.3  2046005.8  0.0  1 0  310  858 1062
[05]  29(G30)  f 41  7  0  -4334.2  2046005.6  0.1  2 0  982 1820  830
[16]  38(B02) 1f 35 22  0  -1094.9  4092002.7 -0.0  2 0  865  568  229
[17]  41(B05)  1 10 10  0  -1000.0  4092001.2  0.1  1 0  214  406  510
[18]  57(B21)  7 38  7  0    938.3  4091997.4  0.3  2 0  851  819   65
[19]  62(B26)  7 41  7  0  -3306.0  4092008.6  0.0  2 0  689 1614 1173
[32]  75(N-6)  f 29  7  0  -1590.1  1022001.0  0.1  5 0   470  460   23
[33]  76(N-5)  f 29  7  0    998.3  1021999.3 -0.1  5 0   597  823  264
[35]  83(N02)  7 35 17  0  -3265.9  1022001.9 -0.2  2 0   236  304  244
[36]  85(N04)  7 37 12  0   2207.9  1021998.5 -0.2  2 0   497  455  219
$GNGGA,062926.383,,,,,0,00,,,M,,,,0000*2A
$GNRMC,062926.383,A,,,,,,,070180,,*29
$GPGSA,A,1,,,,,,,,,,,,,,,*1E
$BDGSA,A,1,,,,,,,,,,,,,,,*0F
$GLGSA,A,1,,,,,,,,,,,,,,,*02
$GPGSV,2,1,05,04,00,000,40,07,00,000,43,09,00,000,44,23,00,000,41*72
$GPGSV,2,2,05,30,00,000,41*4A
$BDGSV,1,1,03,02,00,000,35,21,00,000,38,26,00,000,41*56
$B3CN0,0,0,0,0,0,0,0,0,0,0,0,0,0,0*4C
---00000014--- Acq_st=3 0  2000-1-1 0:2:19 
[00]  03(G04)  f 40  7  0   -933.6  2046001.1 -0.0  2 0  896 1385  752
[01]  06(G07)  f 44  7  0  -3557.4  2046004.6 -0.0  2 0 1043 1676  625
[02]  08(G09)  f 44  7  0    228.7  2045999.7  0.0  2 0 1422 2286 1221
[03]  22(G23)  f 41  7  0   1655.6  2045997.8  0.0  2 0 1435 1712  470
[04]  27(G28)  7 25  7  0  -2896.7  2046003.7  0.1 10 0  509  784  339
[05]  29(G30)  f 41  7  0  -4332.2  2046005.6  0.0  2 0  932 1280  629
[16]  38(B02) 1f 35 27  0  -1096.2  4092002.8 -0.7  2 0  744  888  698
[17]  41(B05)  1 18 24  0   -799.7  4092001.5 -0.1  1 0  406  216  143
[18]  57(B21)  7 38  7  0    940.0  4091997.4  0.1  2 0  716  872  301
[19]  62(B26)  7 41  7  0  -3312.4  4092008.6 -0.1  2 0  685 1530  609
[32]  75(N-6)  f 37  7  0  -1592.8  1022001.0 -0.0  2 0   300  840  356
[33]  76(N-5)  f 36  7  0    992.9  1021999.3  0.1  2 0   189  459  527
[35]  83(N02)  7 34 18  0  -3269.1  1022002.1  0.1  2 0   265  578  304
[36]  85(N04)  7 36 12  0   2204.1  1021998.4  0.0  2 0   316  757  484
$GNGGA,062927.383,,,,,0,00,,,M,,,,0000*2B
$GNRMC,062927.383,A,,,,,,,080419,,*22
$GPGSA,A,1,,,,,,,,,,,,,,,*1E
$BDGSA,A,1,,,,,,,,,,,,,,,*0F
$GLGSA,A,1,,,,,,,,,,,,,,,*02
$GPGSV,2,1,06,04,00,000,40,07,00,000,44,09,00,000,44,23,00,000,41*76
$GPGSV,2,2,06,28,00,000,25,30,00,000,41*74
$BDGSV,1,1,03,02,00,000,36,21,00,000,38,26,00,000,41*55
$B3CN0,0,0,0,0,0,0,0,0,0,0,0,0,0,0*4C
---00000015--- Acq_st=3 0  2000-1-1 0:2:20 
[00]  03(G04)  f 39  7  0   -929.5  2046001.2  0.1  2 0  964 1414  906
[01]  06(G07)  f 43  7  0  -3559.1  2046004.6 -0.0  2 0 1013 1720  849
[02]  08(G09)  f 43  7  0    227.5  2045999.7 -0.0  2 0 1068 2010  976
[03]  22(G23)  f 41  7  0   1652.0  2045997.7 -0.0  2 0  749 1555  960
[04]  27(G28)  7 38 12  0  -2893.0  2046003.6  0.2  2 0  410  888  702
[05]  29(G30)  f 40  7  0  -4339.9  2046005.6 -0.0  2 0 1201 1556  263
[16]  38(B02) 1f 36 16  0  -1099.8  4092002.6 -0.6  2 0  625  882  293
[17]  41(B05)  1 10 10  0   -614.4  4092002.2  0.0  1 0  104  197   27
[18]  57(B21) 1f 38  7  0    928.2  4091997.4 -0.4  2 0  785  805  602
[19]  62(B26) 1f 41  7  0  -3308.3  4092008.6  0.1  2 0  758 1326  349
[32]  75(N-6)  f 37  7  0  -1593.1  1022001.0  0.0  2 0   413  918  573
[33]  76(N-5)  f 37  7  0    997.0  1021999.3 -0.1  2 0   470  768  525
[35]  83(N02)  f 28 10  0  -3266.3  1022002.0  0.0  5 0    85  324  290
[36]  85(N04)  f 29  7  0   2204.1  1021998.6 -0.1  5 0   528  734  388
$GNGGA,062928.383,,,,,0,00,,,M,,,,0000*24
$GNRMC,062928.383,A,,,,,,,080419,,*2D
$GPGSA,A,1,,,,,,,,,,,,,,,*1E
$BDGSA,A,1,,,,,,,,,,,,,,,*0F
$GLGSA,A,1,,,,,,,,,,,,,,,*02
$GPGSV,2,1,06,04,00,000,39,07,00,000,43,09,00,000,43,23,00,000,41*78
$GPGSV,2,2,06,28,00,000,38,30,00,000,40*79
$BDGSV,1,1,03,02,00,000,36,21,00,000,38,26,00,000,41*55
$B3CN0,0,0,0,0,0,0,0,0,0,0,0,0,0,0*4C
---00000016--- Acq_st=3 0  2000-1-1 0:2:21 
[00]  03(G04)  f 40  7  0   -932.6  2046001.2 -0.1  2 0  429 1287  607
[01]  06(G07)  f 43  7  0  -3557.9  2046004.6 -0.0  2 0  979 1934 1390
[02]  08(G09)  f 43  7  0    229.4  2045999.7 -0.0  2 0 1257 2178  972
[03]  22(G23)  f 41  7  0   1644.9  2045997.8 -0.0  2 0 1081 1833  884
[04]  27(G28)  7 39  7  0  -2898.7  2046003.7 -0.2  2 0  613  716   72
[05]  29(G30)  f 40  7  0  -4340.3  2046005.6 -0.0  2 0  860 1368  334
[16]  38(B02) 1f 34 26  0  -1101.5  4092002.8  0.2  2 0  514  568  549
[17]  41(B05)  1 10 23  0  -1247.7  4092006.1  0.0  1 0  103  298  923
[18]  57(B21) 1f 38  7  0    930.7  4091997.4  0.0  2 0  709  943  455
[19]  62(B26) 1f 41  7  0  -3312.5  4092008.7 -0.1  2 0  968 1588  820
[32]  75(N-6)  f 38  7  0  -1591.8  1022000.9  0.0  2 0   666 1035  562
[33]  76(N-5)  f 37  7  0    994.8  1021999.3 -0.1  2 0   844  896  517
[35]  83(N02)  f 34 10  0  -3266.6  1022002.1 -0.1  5 0   560  674  330
[36]  85(N04)  f 37  7  0   2204.4  1021998.6  0.0  2 0   205  553  414
[48]  38(B02)  1 10 21  0   -835.4 20460019.3  0.0  1 0   48  799  501
[50]  57(B21)  1  7  7  0   1094.9 20459985.8  0.0  1 0  393  357  474
[51]  62(B26)  1  7  7  0  -2412.0 20460052.4  0.1  1 0  897  735  524
$GNGGA,062929.383,,,,,0,00,,,M,,,,0000*25
$GNRMC,062929.383,A,,,,,,,080419,,*2C
$GPGSA,A,1,,,,,,,,,,,,,,,*1E
$BDGSA,A,1,,,,,,,,,,,,,,,*0F
$GLGSA,A,1,,,,,,,,,,,,,,,*02
$GPGSV,2,1,06,04,00,000,40,07,00,000,43,09,00,000,43,23,00,000,41*76
$GPGSV,2,2,06,28,00,000,39,30,00,000,40*78
$BDGSV,1,1,03,02,00,000,34,21,00,000,38,26,00,000,41*57
$B3CN0,0,0,0,0,0,0,0,0,0,0,0,0,0,0*4C
---00000017--- Acq_st=3 0  2000-1-1 0:2:22 
[00]  03(G04)  f 40  7  0   -929.3  2046001.2  0.0  2 0  862 1459  715
[01]  06(G07)  f 43  7  0  -3561.1  2046004.6  0.0  2 0 1262 1745  894
[02]  08(G09)  f 43  7  0    229.2  2045999.7  0.0  2 0 1002 1834  765
[03]  22(G23)  f 42  7  0   1646.9  2045997.8  0.0  2 0 1332 1885  705
[04]  27(G28)  7 39  7  0  -2904.7  2046003.7 -0.2  2 0  575 1165  622
[05]  29(G30)  f 40  7  0  -4342.7  2046005.6 -0.1  2 0 1115 1124  404
[16]  38(B02) 1f 36 13  0  -1104.4  4092002.8  0.6  2 0  352  681  288
[17]  41(B05)  1 10 10  1  -1601.4  4092004.4 -0.0  1 0  623  809  407
[18]  57(B21) 1f 39  7  0    927.1  4091997.4  0.2  2 0  759  606  213
[19]  62(B26) 1f 40  7  0  -3312.1  4092008.6  0.1  2 0  799 1425 1010
[32]  75(N-6)  f 38  7  0  -1594.4  1022000.9 -0.2  2 0   642  665  305
[33]  76(N-5)  f 38  7  0    993.2  1021999.3 -0.1  2 0   471 1172  861
[35]  83(N02)  f 33  7  0  -3267.9  1022002.1  0.0  5 0   369  739  594
[36]  85(N04)  f 37  7  0   2202.7  1021998.6  0.0  2 0    42  492  504
[48]  38(B02)  1 16 14  1   -797.5 20460021.1 -0.2  1 0  302  522  703
[50]  57(B21)  1  7  7  0    588.0 20459986.7  0.1  1 0  529  323  381
[51]  62(B26)  1  7  8  0  -2882.6 20460054.3  0.1  1 0  565  464  178
$GNGGA,062930.383,,,,,0,00,,,M,,,,0000*2D
$GNRMC,062930.383,A,,,,,,,080419,,*24
$GPGSA,A,1,,,,,,,,,,,,,,,*1E
$BDGSA,A,1,,,,,,,,,,,,,,,*0F
$GLGSA,A,1,,,,,,,,,,,,,,,*02
$GPGSV,2,1,06,04,00,000,40,07,00,000,43,09,00,000,43,23,00,000,42*75
$GPGSV,2,2,06,28,00,000,39,30,00,000,40*78
$BDGSV,1,1,03,02,00,000,36,21,00,000,39,26,00,000,40*55
$B3CN0,0,0,0,0,0,0,0,0,0,0,0,0,0,0*4C
---00000018--- Acq_st=7 0  2000-1-1 0:2:23 
[00]  03(G04)  f 40  7  0   -933.2  2046001.1 -0.0  2 0  995 1216  399
[01]  06(G07)  f 42  7  0  -3564.5  2046004.6  0.0  2 0 1257 2459 1074
[02]  08(G09)  f 43  7  0    228.9  2045999.6  0.0  2 0 1306 2192 1215
[03]  22(G23)  f 42  7  0   1648.4  2045997.8 -0.0  2 0  810 1320  924
[04]  27(G28)  7 39  7  0  -2898.6  2046003.6  0.2  2 0  707 1046  527
[05]  29(G30)  f 41  7  0  -4337.5  2046005.6 -0.1  2 0 1092 1823  740
[16]  38(B02) 1f 36 27  0  -1098.6  4092002.6 -0.2  2 0  838  685  188
[18]  57(B21) 1f 39  7  0    927.9  4091997.4  0.1  2 0 1295 1081  272
[19]  62(B26) 1f 40  7  0  -3312.4  4092008.6  0.0  2 0  882 1154  765
[32]  75(N-6)  f 38  7  0  -1594.1  1022000.9 -0.1  2 0   554 1047  405
[33]  76(N-5)  f 39  7  0    994.3  1021999.3  0.1  2 0   716 1233  618
[35]  83(N02)  f 33 14  0  -3268.1  1022002.0 -0.1  5 0   235  622  653
[36]  85(N04)  f 37  7  0   2199.5  1021998.6 -0.0  2 0   551  891  415
[48]  38(B02)  1 10 10  1   -855.1 20460017.3 -0.2  1 0  313   78  280
[50]  57(B21)  1  7  7  0    293.0 20459984.2 -0.1  1 0  432  216  504
[51]  62(B26)  1  7  7  0  -2753.3 20460053.2 -0.1  1 0  520  155  405
$GNGGA,062931.383,,,,,0,00,,,M,,,,0000*2C
$GNRMC,062931.383,A,,,,,,,080419,,*25
$GPGSA,A,1,,,,,,,,,,,,,,,*1E
$BDGSA,A,1,,,,,,,,,,,,,,,*0F
$GLGSA,A,1,,,,,,,,,,,,,,,*02
$GPGSV,2,1,06,04,00,000,40,07,00,000,42,09,00,000,43,23,00,000,42*74
$GPGSV,2,2,06,28,00,000,39,30,00,000,41*79
$BDGSV,1,1,03,02,00,000,36,21,00,000,39,26,00,000,40*55
$B3CN0,0,0,0,0,0,0,0,0,0,0,0,0,0,0*4C
---00000019--- Acq_st=7 0  2000-1-1 0:2:24 
[00]  03(G04)  f 41  7  0   -925.3  2046001.2 -0.0  2 0  532 1471  915
[01]  06(G07)  f 42  7  0  -3562.9  2046004.5 -0.0  2 0 1325 1510  759
[02]  08(G09)  f 43  7  0    229.4  2045999.6  0.0  2 0 1462 2112  952
[03]  22(G23)  f 41  7  0   1648.9  2045997.8  0.1  2 0  939 1627  833
[04]  27(G28)  f 39  7  0  -2895.0  2046003.6 -0.2  2 0  663  957  180
[05]  29(G30)  f 41  7  0  -4343.3  2046005.5 -0.0  2 0 1340 1844  831
[16]  38(B02) 1f 36 25  0  -1099.1  4092002.9  0.1  2 0  359  797  464
[18]  57(B21) 1f 39  7  0    932.2  4091997.4 -0.1  2 0 1040 1231  725
[19]  62(B26) 1f 40 10  0  -3312.4  4092008.6 -0.1  2 0  702 1140  493
[32]  75(N-6) 8f 38  7  0  -1591.2  1022001.0  0.2  2 0   852  901  273
[33]  76(N-5) 8f 41  7  0    998.6  1021999.3  0.1  2 0   761 1201  668
[35]  83(N02) 8f 31  7  0  -3267.5  1022002.2  0.0  5 0   554  509  313
[36]  85(N04) 8f 37  7  0   2200.7  1021998.6  0.1  2 0   568 1033  613
[48]  38(B02)  1 10 13  0   -942.8 20460023.8 -0.0  1 0  327  608  671
[50]  57(B21)  1  7  7  0    273.7 20459987.2  0.0  1 0  447  582  410
[51]  62(B26)  1  7  7  0  -3466.8 20460053.0  0.0  1 0  680  552  989
$GNGGA,062932.383,,,,,0,00,,,M,,,,0000*2F
$GNRMC,062932.383,A,,,,,,,080419,,*26
$GPGSA,A,1,,,,,,,,,,,,,,,*1E
$BDGSA,A,1,,,,,,,,,,,,,,,*0F
$GLGSA,A,1,,,,,,,,,,,,,,,*02
$GPGSV,2,1,06,04,00,000,41,07,00,000,42,09,00,000,43,23,00,000,41*76
$GPGSV,2,2,06,28,00,000,39,30,00,000,41*79
$BDGSV,1,1,03,02,00,000,36,21,00,000,39,26,00,000,40*55
$B3CN0,0,0,0,0,0,0,0,0,0,0,0,0,0,0*4C
---00000020--- Acq_st=3 0  2000-1-1 0:2:25 
[00]  03(G04)  f 40  7  0   -927.5  2046001.1  0.1  2 0 1082 1671  876
[01]  06(G07)  f 42  7  0  -3563.2  2046004.5 -0.0  2 0 1366 1982  851
[02]  08(G09)  f 44  7  0    231.5  2045999.6 -0.0  2 0 1409 2781 1492
[03]  22(G23)  f 41  7  0   1643.1  2045997.8  0.0  2 0  761 1080  265
[04]  27(G28)  f 38  7  0  -2900.4  2046003.7 -0.1  2 0  646 1181  633
[05]  29(G30)  f 42  7  0  -4336.2  2046005.6 -0.0  2 0 1540 2078 1053
[16]  38(B02) 1f 36 22  0  -1097.6  4092002.6  0.1  2 0  708  631  365
[18]  57(B21) 1f 39  7  0    924.2  4091997.5  0.1  2 0  802  736  162
[19]  62(B26) 1f 40  7  0  -3312.7  4092008.6 -0.0  2 0  938 1235  402
[32]  75(N-6) 8f 37  7  0  -1591.6  1022000.9  0.1  2 0   449 1066  523
[33]  76(N-5) 8f 42  7  0    995.6  1021999.3  0.5  2 0   822 1384  625
[35]  83(N02) 8f 30  9  0  -3268.7  1022002.2 -0.1  5 0   165  658  480
[36]  85(N04) 8f 37  7  0   2201.2  1021998.6  0.0  2 0   460  596  512
$GNGGA,062933.383,,,,,0,00,,,M,,,,0000*2E
$GNRMC,062933.383,A,,,,,,,080419,,*27
$GPGSA,A,1,,,,,,,,,,,,,,,*1E
$BDGSA,A,1,,,,,,,,,,,,,,,*0F
$GLGSA,A,1,,,,,,,,,,,,,,,*02
$GPGSV,2,1,06,04,00,000,40,07,00,000,42,09,00,000,44,23,00,000,41*70
$GPGSV,2,2,06,28,00,000,38,30,00,000,42*7B
$BDGSV,1,1,03,02,00,000,36,21,00,000,39,26,00,000,40*55
$B3CN0,0,0,0,0,0,0,0,0,0,0,0,0,0,0*4C
---00000021--- Acq_st=3 0  2000-1-1 0:2:26 
[00]  03(G04)  f 41  7  0   -923.3  2046001.1  0.1  2 0 1087 1385  436
[01]  06(G07)  f 42  7  0  -3559.0  2046004.5  0.0  2 0 1746 2301  926
[02]  08(G09)  f 43  7  0    230.9  2045999.6  0.0  2 0 1590 2682 1382
[03]  22(G23)  f 41  7  0   1646.4  2045997.8  0.0  2 0 1137 1334  568
[04]  27(G28)  f 37  7  0  -2897.8  2046003.6 -0.1  2 0  857  837  174
[05]  29(G30)  f 42  7  0  -4338.5  2046005.6 -0.0  2 0  909 1907 1155
[16]  38(B02) 1f 38 25  0  -1099.9  4092002.9  0.3  2 0  206  734  738
[18]  57(B21) 1f 39  7  0    927.0  4091997.4 -0.2  2 0  537  660  260
[19]  62(B26) 1f 40  7  0  -3321.3  4092008.5  0.0  2 0  897 1004  508
[32]  75(N-6) 8f 37  7  0  -1593.2  1022001.0 -0.1  2 0   157  681  294
[33]  76(N-5) 8f 42  7  0    997.5  1021999.3 -0.0  2 0   507 1031  411
[35]  83(N02) 8f 30 12  0  -3269.4  1022001.9  0.0  5 0   299  468  225
[36]  85(N04) 8f 37  7  0   2202.2  1021998.6 -0.1  2 0   643  647  361
[48]  38(B02)  1 22 22  1  -1231.6 20460015.9 -0.0  1 0  236  679  662
[50]  57(B21)  1  9  7  0    697.4 20459986.6 -0.1  1 0  294  112   53
[51]  62(B26)  1  7  7  0  -2693.3 20460053.9  0.1  1 0  481  499  297
$GNGGA,062934.383,,,,,0,00,,,M,,,,0000*29
$GNRMC,062934.383,A,,,,,,,080419,,*20
$GPGSA,A,1,,,,,,,,,,,,,,,*1E
$BDGSA,A,1,,,,,,,,,,,,,,,*0F
$GLGSA,A,1,,,,,,,,,,,,,,,*02
$GPGSV,2,1,06,04,00,000,41,07,00,000,42,09,00,000,43,23,00,000,41*76
$GPGSV,2,2,06,28,00,000,37,30,00,000,42*74
$BDGSV,1,1,03,02,00,000,38,21,00,000,39,26,00,000,40*5B
$B3CN0,0,0,0,0,0,0,0,0,0,0,0,0,0,0*4C
---00000022--- Acq_st=3 0  2000-1-1 0:2:27 
[00]  03(G04)  f 41  7  0   -921.2  2046001.2 -0.1  2 0 1036 1348  775
[01]  06(G07)  f 43  7  0  -3561.4  2046004.5  0.0  2 0 1921 2302 1090
[02]  08(G09)  f 44  7  0    232.8  2045999.6  0.0  2 0 1235 1896  575
[03]  22(G23)  f 40 10  0   1647.8  2045997.8 -0.0  2 0  976 1449  688
[04]  27(G28)  f 37  7  0  -2905.0  2046003.7 -0.3  2 0  757  644  407
[05]  29(G30)  f 42  7  0  -4339.4  2046005.6  0.1  2 0 1238 1113  130
[16]  38(B02) 1f 36 18  0  -1088.1  4092002.8 -0.7  2 0  483  336  415
[17]  41(B05)  1 10 26  1  -1000.0  4092001.8  0.1  1 0  254  434  390
[18]  57(B21) 1f 39  7  0    930.0  4091997.4 -0.0  2 0  776 1335  864
[19]  62(B26) 1f 39  7  0  -3312.4  4092008.5  0.1  2 0  664 1209  486
[32]  75(N-6) 8f 37  7  0  -1589.8  1022001.0 -0.1  2 0   566  884  424
[33]  76(N-5) 8f 43  7  0    998.7  1021999.3  0.1  2 0   731 1214  657
[35]  83(N02) 8f 31  8  0  -3268.5  1022002.0  0.0  5 0   703  551   82
[36]  85(N04) 8f 37  7  0   2201.5  1021998.6 -0.1  2 0   414  406  445
[48]  38(B02)  1 10 14  1  -1640.0 20460016.3 -0.1  1 0  648  374  137
[50]  57(B21)  1  7  7  0    348.3 20459985.2 -0.1  1 0  573  900  520
[51]  62(B26)  1  7  7  0  -3044.2 20460052.5  0.1  1 0  654  449  322
$GNGGA,062935.383,,,,,0,00,,,M,,,,0000*28
$GNRMC,062935.383,A,,,,,,,080419,,*21
$GPGSA,A,1,,,,,,,,,,,,,,,*1E
$BDGSA,A,1,,,,,,,,,,,,,,,*0F
$GLGSA,A,1,,,,,,,,,,,,,,,*02
$GPGSV,2,1,06,04,00,000,41,07,00,000,43,09,00,000,44,23,00,000,40*71
$GPGSV,2,2,06,28,00,000,37,30,00,000,42*74
$BDGSV,1,1,03,02,00,000,36,21,00,000,39,26,00,000,39*5B
$B3CN0,0,0,0,0,0,0,0,0,0,0,0,0,0,0*4C
---00000023--- Acq_st=3 0  2000-1-1 0:2:28 
[00]  03(G04)  f 41  7  0   -923.5  2046001.2  0.1  2 0  878  988  547
[01]  06(G07)  f 43  7  0  -3561.2  2046004.5 -0.0  2 0 1670 2207 1248
[02]  08(G09)  f 44  7  0    231.6  2045999.6  0.0  2 0 1718 2541  899
[03]  22(G23)  f 40  7  0   1646.5  2045997.8 -0.1  2 0  222  850  733
[04]  27(G28)  f 37  7  0  -2899.7  2046003.7  0.5  2 0  521  742  197
[05]  29(G30)  f 42  7  0  -4339.3  2046005.6 -0.0  2 0 1222 1323  646
[16]  38(B02) 1f 35 26  0  -1096.1  4092002.7  0.6  2 0  909 1009  485
[17]  41(B05)  1 10 10  1   -450.4  4092002.8 -0.0  1 0  429  186  283
[18]  57(B21) 1f 39  7  0    931.9  4091997.4 -0.1  2 0  688 1120  770
[19]  62(B26) 1f 39  7  0  -3317.1  4092008.6 -0.0  2 0  743 1267  722
[32]  75(N-6) 8f 37  7  0  -1588.0  1022000.9  0.2  2 0   330  768  579
[33]  76(N-5) 8f 42  7  0    996.6  1021999.3  0.2  2 0  1199 1092  279
[35]  83(N02) 8f 32  9  0  -3266.8  1022001.9  0.0  5 0   357  653  212
[36]  85(N04) 8f 36  7  0   2202.1  1021998.5  0.1  2 0   627  753  583
[48]  38(B02)  1 14 10  0  -1782.3 20460019.8  0.1  1 0  194  461  404
[50]  57(B21)  1  7  7  0    346.2 20459987.8 -0.2  1 0  258  249  117
[51]  62(B26)  1  7  7  0  -2794.1 20460053.9 -0.2  1 0  254  668  890
$GNGGA,062936.383,,,,,0,00,,,M,,,,0000*2B
$GNRMC,062936.383,A,,,,,,,080419,,*22
$GPGSA,A,1,,,,,,,,,,,,,,,*1E
$BDGSA,A,1,,,,,,,,,,,,,,,*0F
$GLGSA,A,1,,,,,,,,,,,,,,,*02
$GPGSV,2,1,06,04,00,000,41,07,00,000,43,09,00,000,44,23,00,000,40*71
$GPGSV,2,2,06,28,00,000,37,30,00,000,42*74
$BDGSV,1,1,03,02,00,000,35,21,00,000,39,26,00,000,39*58
$B3CN0,0,0,0,0,0,0,0,0,0,0,0,0,0,0*4C
---00000024--- Acq_st=3 0  2000-1-1 0:2:29 
[00]  03(G04)  f 40  7  0   -927.4  2046001.2  0.1  2 0  978 1500  536
[01]  06(G07)  f 43  7  0  -3560.8  2046004.5 -0.1  2 0 1363 2247 1318
[02]  08(G09)  f 43  7  0    230.7  2045999.6 -0.0  2 0 1636 2344  995
[03]  22(G23)  f 39  7  0   1646.2  2045997.8  0.1  2 0  277 1121 1000
[04]  27(G28)  f 38  7  0  -2903.5  2046003.6 -0.0  2 0  951  833  511
[05]  29(G30)  f 41  7  0  -4343.7  2046005.6  0.0  2 0 1229 1633  820
[16]  38(B02) 1f 35 25  0  -1104.5  4092002.8 -0.8  2 0  694 1071  680
[17]  41(B05)  1 10 10  0    445.6  4092003.4  0.2  1 0  128   81  454
[18]  57(B21) 1f 39  7  0    927.5  4091997.5  0.0  2 0  698 1313  651
[19]  62(B26) 1f 40  7  0  -3320.1  4092008.5 -0.1  2 0 1316 1088  198
[32]  75(N-6) 8f 36  7  0  -1592.2  1022001.1 -0.2  2 0   296  262  300
[33]  76(N-5) 8f 43  7  0    994.5  1021999.3 -0.4  2 0  1068 1611  453
[35]  83(N02) 8f 32 14  0  -3270.8  1022002.0 -0.1  5 0   566  819  430
[36]  85(N04) 8f 36  7  0   2196.1  1021998.6 -0.0  2 0   222  660  508
[48]  38(B02)  1 10 20  0  -2125.5 20460016.1  0.2  1 0  532  377  243
[50]  57(B21)  1  7  7  0    519.0 20459985.5  0.2  1 0  180  200  188
[51]  62(B26)  1  7  7  0  -2039.7 20460053.0  0.1  1 0  119  298  495
$GNGGA,062937.383,,,,,0,00,,,M,,,,0000*2A
$GNRMC,062937.383,A,,,,,,,080419,,*23
$GPGSA,A,1,,,,,,,,,,,,,,,*1E
$BDGSA,A,1,,,,,,,,,,,,,,,*0F
$GLGSA,A,1,,,,,,,,,,,,,,,*02
$GPGSV,2,1,06,04,00,000,40,07,00,000,43,09,00,000,43,23,00,000,39*79
$GPGSV,2,2,06,28,00,000,38,30,00,000,41*78
$BDGSV,1,1,03,02,00,000,35,21,00,000,39,26,00,000,40*56
$B3CN0,0,0,0,0,0,0,0,0,0,0,0,0,0,0*4C
---00000025--- Acq_st=3 0  2000-1-1 0:2:30 
[00]  03(G04)  f 41 11  0   -919.9  2046001.1 -0.0  2 0  870 1619 1000
[01]  06(G07)  f 43  7  0  -3559.9  2046004.5  0.0  2 0 1927 2621 1000
[02]  08(G09)  f 44  7  0    233.0  2045999.6  0.0  2 0 1521 2445  992
[03]  22(G23)  f 40  7  0   1655.6  2045997.8 -0.0  2 0  435 1145  745
[04]  27(G28)  f 38  8  0  -2894.1  2046003.8 -0.0  2 0  346  795  525
[05]  29(G30)  f 41  7  0  -4342.0  2046005.6 -0.0  2 0  973  955  338
[16]  38(B02) 1f 35 18  0  -1096.7  4092002.7 -0.6  2 0  300  420  266
[17]  41(B05)  1 17 20  1    701.3  4092002.8 -0.1  1 0  374  358  431
[18]  57(B21) 1f 39  7  0    929.3  4091997.5  0.0  2 0  424 1165  816
[19]  62(B26) 1f 40  7  0  -3311.6  4092008.5  0.0  2 0  864 1469  922
[32]  75(N-6) 8f 37  7  0  -1587.8  1022001.0 -0.0  2 0   521  636   57
[33]  76(N-5) 8f 41  7  0   1001.0  1021999.3 -0.3  2 0   693 1102  471
[35]  83(N02) 8f 34  7  0  -3264.0  1022002.0 -0.1  5 0   646  571  246
[36]  85(N04) 8f 36  7  0   2204.4  1021998.6  0.0  2 0   212  549  286
$GNGGA,062938.383,,,,,0,00,,,M,,,,0000*25
$GNRMC,062938.383,A,,,,,,,080419,,*2C
$GPGSA,A,1,,,,,,,,,,,,,,,*1E
$BDGSA,A,1,,,,,,,,,,,,,,,*0F
$GLGSA,A,1,,,,,,,,,,,,,,,*02
$GPGSV,2,1,06,04,00,000,41,07,00,000,43,09,00,000,44,23,00,000,40*71
$GPGSV,2,2,06,28,00,000,38,30,00,000,41*78
$BDGSV,1,1,03,02,00,000,35,21,00,000,39,26,00,000,40*56
$B3CN0,0,0,0,0,0,0,0,0,0,0,0,0,0,0*4C
$GLGSV,1,1,03,04,00,000,37,03,00,000,41,02,00,000,36*57
---00000026--- Acq_st=3 0  2000-1-1 0:2:31 
[00]  03(G04)  f 41  7  0   -920.5  2046001.2  0.1  2 0  799 1451  414
[01]  06(G07)  f 43  7  0  -3561.5  2046004.6 -0.0  2 0 1497 2035  752
[02]  08(G09)  f 44  7  0    230.6  2045999.7  0.0  2 0 1460 2285 1405
[03]  22(G23)  f 40  7  0   1642.6  2045997.8  0.0  2 0 1083 1414  642
[04]  27(G28)  f 38  7  0  -2907.0  2046003.7  0.2  2 0  383  865  493
[05]  29(G30)  f 40  7  0  -4340.0  2046005.6  0.1  2 0 1069 1392  291
[16]  38(B02) 1f 36 26  0  -1105.1  4092002.7  0.3  2 0  742  597  380
[17]  41(B05)  1 10 10  0   1531.3  4092006.1 -0.0  1 0   11  174  506
[18]  57(B21) 1f 39  7  0    930.0  4091997.4 -0.0  2 0  654 1083  556
[19]  62(B26) 1f 40  7  0  -3314.5  4092008.5  0.1  2 0 1569 1413  582
[32]  75(N-6) 8f 37  7  0  -1587.0  1022001.0 -0.1  2 0   414  717  347
[33]  76(N-5) 8f 40  7  0    997.6  1021999.3  0.0  2 0   539  903  329
[35]  83(N02) 8f 36  7  0  -3267.3  1022002.0  0.0  2 0   476  464  359
[36]  85(N04) 8f 37  7  0   2198.5  1021998.5  0.0  2 0   398  810  362
[50]  57(B21)  1  7  7  0   1041.8 20459986.1 -0.1  1 0  315  427 1211
[51]  62(B26)  1  7  7  0  -2504.4 20460053.6  0.0  1 0  686  452  520
$GNGGA,062939.383,,,,,0,00,,,M,,,,0000*24
$GNRMC,062939.383,A,,,,,,,080419,,*2D
$GPGSA,A,1,,,,,,,,,,,,,,,*1E
$BDGSA,A,1,,,,,,,,,,,,,,,*0F
$GLGSA,A,1,,,,,,,,,,,,,,,*02
$GPGSV,2,1,06,04,00,000,41,07,00,000,43,09,00,000,44,23,00,000,40*71
$GPGSV,2,2,06,28,00,000,38,30,00,000,40*79
$BDGSV,1,1,03,02,00,000,36,21,00,000,39,26,00,000,40*55
$B3CN0,0,0,0,0,0,0,0,0,0,0,0,0,0,0*4C
$GLGSV,1,1,03,04,00,000,37,03,00,000,40,02,00,000,37*57
---00000027--- Acq_st=7 0  2000-1-1 0:2:32 
[00]  03(G04)  f 40  7  0   -924.3  2046001.1  0.0  2 0  395 1284  757
[01]  06(G07)  f 44  7  0  -3561.9  2046004.6  0.0  2 0 1169 2206  849
[02]  08(G09)  f 44  9  0    231.9  2045999.7 -0.0  2 0 1369 2358 1006
[03]  22(G23)  f 40  7  0   1647.1  2045997.8  0.0  2 0 1187 1349  364
[04]  27(G28)  f 38  7  0  -2900.8  2046003.7  0.6  2 0  429 1127  913
[05]  29(G30)  f 41  7  0  -4339.7  2046005.6 -0.1  2 0  691 1178  697
[16]  38(B02) 1f 35 24  0  -1097.5  4092002.7  0.1  2 0  813 1037  460
[18]  57(B21) 1f 38  7  0    935.6  4091997.4  0.2  2 0  964 1236  419
[19]  62(B26) 1f 40  7  0  -3312.7  4092008.5 -0.2  2 0  708  927  291
[32]  75(N-6) 8f 37  7  0  -1587.0  1022001.0 -0.1  2 0   721  857  334
[33]  76(N-5) 8f 40  7  0    997.7  1021999.3 -0.0  2 0   476 1042  407
[34]  79(N-2)  1 25 14  0  -5622.2  1022004.5  0.1  1 0   339  459  535
[35]  83(N02) 8f 37 10  0  -3264.7  1022002.0 -0.0  2 0   691  807  329
[36]  85(N04) 8f 36  7  0   2198.7  1021998.6  0.0  2 0   336  511  118
[48]  38(B02)  1 10 20  0   -802.9 20460019.9 -0.0  1 0  681  559  475
[50]  57(B21)  1  7  7  0    585.2 20459986.4  0.2  1 0  554  362  307
[51]  62(B26)  1  7  7  0  -2037.7 20460051.5  0.0  1 0  266  279  107
$GNGGA,062940.383,,,,,0,00,,,M,,,,0000*2A
$GNRMC,062940.383,A,,,,,,,080419,,*23
$GPGSA,A,1,,,,,,,,,,,,,,,*1E
$BDGSA,A,1,,,,,,,,,,,,,,,*0F
$GLGSA,A,1,,,,,,,,,,,,,,,*02
$GPGSV,2,1,06,04,00,000,40,07,00,000,44,09,00,000,44,23,00,000,40*77
$GPGSV,2,2,06,28,00,000,38,30,00,000,41*78
$BDGSV,1,1,03,02,00,000,35,21,00,000,38,26,00,000,40*57
$B3CN0,0,0,0,0,0,0,0,0,0,0,0,0,0,0*4C
$GLGSV,1,1,03,04,00,000,37,03,00,000,40,02,00,000,36*56
---00000028--- Acq_st=7 0  2000-1-1 0:2:33 
[00]  03(G04)  f 40  7  0   -924.2  2046001.2 -0.0  2 0  745 1392  647
[01]  06(G07)  f 43  9  0  -3555.8  2046004.6 -0.0  2 0 1056 2042 1160
[02]  08(G09)  f 43  7  0    236.3  2045999.7  0.1  2 0  742 1916 1187
[03]  22(G23)  f 40  8  0   1647.6  2045997.8 -0.2  2 0  689 1310  968
[04]  27(G28)  f 38  7  0  -2896.0  2046003.7 -0.1  2 0  240  804  661
[05]  29(G30)  f 40  7  0  -4338.7  2046005.6  0.2  2 0 1212 1162  504
[16]  38(B02) 1f 36 29  0  -1097.3  4092002.7 -0.3  2 0  685  623  104
[18]  57(B21) 1f 38  7  0    927.0  4091997.5  0.1  2 0  699  671  328
[19]  62(B26) 1f 40  7  0  -3311.6  4092008.5  0.1  2 0 1050 1151  713
[32]  75(N-6) 8f 37  7  0  -1583.7  1022001.0 -0.1  2 0   642  662   92
[33]  76(N-5) 8f 38  7  0    997.3  1021999.4 -0.0  2 0   362  550  200
[34]  79(N-2)  1 27 13  0  -5533.3  1022003.8  0.7  1 0   352  491  293
[35]  83(N02) 8f 37  7  0  -3265.7  1022002.0  0.1  2 0   228  386  214
[36]  85(N04) 8f 36  7  0   2201.9  1021998.6 -0.1  2 0   113  301  193
[48]  38(B02)  1 10 19  0   -693.2 20460018.5 -0.0  1 0  265  200  112
[50]  57(B21)  1  7  7  0    560.1 20459987.0 -0.0  1 0  471  215  166
[51]  62(B26)  1  7  7  0  -1460.8 20460053.9 -0.1  1 0  586  309  227
$GNGGA,062941.383,,,,,0,00,,,M,,,,0000*2B
$GNRMC,062941.383,A,,,,,,,080419,,*22
$GPGSA,A,1,,,,,,,,,,,,,,,*1E
$BDGSA,A,1,,,,,,,,,,,,,,,*0F
$GLGSA,A,1,,,,,,,,,,,,,,,*02
$GPGSV,2,1,06,04,00,000,40,07,00,000,43,09,00,000,43,23,00,000,40*77
$GPGSV,2,2,06,28,00,000,38,30,00,000,40*79
$BDGSV,1,1,03,02,00,000,36,21,00,000,38,26,00,000,40*54
$B3CN0,0,0,0,0,0,0,0,0,0,0,0,0,0,0*4C
$GLGSV,1,1,03,04,00,000,37,03,00,000,38,02,00,000,36*59
---00000029--- Acq_st=3 0  2000-1-1 0:2:34 
[00]  03(G04)  f 41  8  0   -916.7  2046001.1  0.0  2 0 1011 1212  832
[01]  06(G07)  f 43  7  0  -3558.6  2046004.6 -0.1  2 0  962 1772 1068
[02]  08(G09)  f 43  7  0    233.8  2045999.7  0.0  2 0 1122 2055 1181
[03]  22(G23)  f 40  7  0   1649.1  2045997.8  0.1  2 0  714 1150  425
[04]  27(G28)  f 38  8  0  -2900.2  2046003.7 -0.2  2 0  820 1530  741
[05]  29(G30)  f 40  7  0  -4335.6  2046005.5  0.1  2 0 1113 1278  742
[16]  38(B02) 1f 36 23  0  -1095.3  4092002.8 -0.4  2 0  490  574  318
[18]  57(B21) 1f 38  7  0    927.2  4091997.4 -0.2  2 0  970 1340  739
[19]  62(B26) 1f 41  7  0  -3312.4  4092008.5 -0.1  2 0 1365 1082  419
[32]  75(N-6) 8f 37  7  0  -1582.5  1022001.0 -0.2  2 0   383  719  344
[33]  76(N-5) 8f 37  7  0    999.4  1021999.2 -0.1  2 0   460  560  384
[34]  79(N-2)  7  7  7  0  -5524.2  1022003.4  0.5 10 0   486  187  238
[35]  83(N02) 8f 37  7  0  -3267.0  1022002.0 -0.0  2 0   571  251   47
[36]  85(N04) 8f 36  7  0   2202.7  1021998.5 -0.0  2 0    94  556  348
[48]  38(B02)  1 10 10  0   -212.7 20460025.5 -0.0  1 0  160  647 1026
[50]  57(B21)  1  7  7  0    259.5 20459986.5 -0.0  1 0  641  563  160
[51]  62(B26)  1  7  7  0  -1864.2 20460053.6  0.0  1 0  723  475  268
$GNGGA,062942.383,,,,,0,00,,,M,,,,0000*28
$GNRMC,062942.383,A,,,,,,,080419,,*21
$GPGSA,A,1,,,,,,,,,,,,,,,*1E
$BDGSA,A,1,,,,,,,,,,,,,,,*0F
$GLGSA,A,1,,,,,,,,,,,,,,,*02
$GPGSV,2,1,06,04,00,000,41,07,00,000,43,09,00,000,43,23,00,000,40*76
$GPGSV,2,2,06,28,00,000,38,30,00,000,40*79
$BDGSV,1,1,03,02,00,000,36,21,00,000,38,26,00,000,41*55
$B3CN0,0,0,0,0,0,0,0,0,0,0,0,0,0,0*4C
$GLGSV,1,1,03,04,00,000,37,03,00,000,37,02,00,000,36*56
---00000030--- Acq_st=3 0  2000-1-1 0:2:35 
[00]  03(G04)  f 40  7  0   -923.9  2046001.1  0.0  2 0 1218 1218  731
[01]  06(G07)  f 42  7  0  -3559.3  2046004.6 -0.0  2 0 1154 2054 1095
[02]  08(G09)  f 43  7  0    233.4  2045999.6 -0.0  2 0  806 1859 1024
[03]  22(G23)  f 40  7  0   1646.2  2045997.8 -0.0  2 0  958 1390  464
[04]  27(G28)  f 39  7  0  -2900.7  2046003.7 -0.0  2 0  534 1191  395
[05]  29(G30)  f 41  7  0  -4343.9  2046005.5 -0.1  2 0 1181 1461  449
[16]  38(B02) 1f 35 24  0  -1093.0  4092002.6 -0.3  2 0  873  984   38
[18]  57(B21) 1f 38  7  0    927.8  4091997.4  0.2  2 0  957 1261  638
[19]  62(B26) 1f 40  7  0  -3316.6  4092008.5 -0.1  2 0 1040 1481  943
[32]  75(N-6) 8f 38  7  0  -1585.1  1022001.0  0.0  2 0   542  990  293
[33]  76(N-5) 8f 37  7  0    998.4  1021999.4  0.0  2 0   148  658  483
[34]  79(N-2)  7 33 12  0  -5545.5  1022003.4  0.2  5 0   186  597  645
[35]  83(N02) 8f 37  7  0  -3267.2  1022002.0  0.1  2 0   383  873  746
[36]  85(N04) 8f 38  7  0   2198.0  1021998.5 -0.1  2 0   947 1031  412
[48]  38(B02)  1 22 10  1   -224.1 20460018.4  0.0  1 0 1062  920  257
$GNGGA,062943.383,,,,,0,00,,,M,,,,0000*29
$GNRMC,062943.383,A,,,,,,,080419,,*20
$GPGSA,A,1,,,,,,,,,,,,,,,*1E
$BDGSA,A,1,,,,,,,,,,,,,,,*0F
$GLGSA,A,1,,,,,,,,,,,,,,,*02
$GPGSV,2,1,06,04,00,000,40,07,00,000,42,09,00,000,43,23,00,000,40*76
$GPGSV,2,2,06,28,00,000,39,30,00,000,41*79
$BDGSV,1,1,03,02,00,000,35,21,00,000,38,26,00,000,40*57
$B3CN0,0,0,0,0,0,0,0,0,0,0,0,0,0,0*4C
$GLGSV,1,1,03,04,00,000,38,03,00,000,37,02,00,000,38*57
---00000031--- Acq_st=3 0  2000-1-1 0:2:36 
[00]  03(G04)  f 40  7  0   -924.8  2046001.1 -0.1  2 0  779  826  629
[01]  06(G07)  f 43  7  0  -3558.9  2046004.6 -0.0  2 0 1390 2284 1328
[02]  08(G09)  f 43  7  0    232.9  2045999.6 -0.0  2 0 1419 2320 1295
[03]  22(G23)  f 41  7  0   1649.3  2045997.8 -0.0  2 0  925 1159  532
[04]  27(G28)  f 39  7  0  -2897.8  2046003.6 -0.0  2 0  884 1118  408
[05]  29(G30)  f 41  7  0  -4338.3  2046005.6 -0.1  2 0  830 1436  801
[16]  38(B02) 1f 36 28  0  -1097.8  4092002.9  0.4  2 0  626  610   88
[17]  41(B05)  1 10 28  1  -1000.0  4092002.2  0.0  1 0  233  564  838
[18]  57(B21) 1f 38  7  0    931.0  4091997.4  0.0  2 0  473  793  675
[19]  62(B26) 1f 40  7  0  -3307.5  4092008.6 -0.1  2 0  885 1194  868
[32]  75(N-6) 8f 37  7  0  -1583.1  1022001.0 -0.1  2 0   485  840  588
[33]  76(N-5) 8f 36  7  0    997.7  1021999.4 -0.1  2 0   448  688  333
[34]  79(N-2)  7 34 12  0  -5542.0  1022003.4 -0.1  5 0   363  470  256
[35]  83(N02) 8f 36  7  0  -3267.6  1022002.0  0.1  2 0   620  898  550
[36]  85(N04) 8f 38  7  0   2199.7  1021998.5  0.0  2 0   644  657  398
[50]  57(B21)  1  7  8  0    633.7 20459986.8  0.0  1 0  242  520  188
[51]  62(B26)  1  9  7  0  -2469.1 20460052.9 -0.0  1 0  303  213  469
$GNGGA,062944.383,,,,,0,00,,,M,,,,0000*2E
$GNRMC,062944.383,A,,,,,,,080419,,*27
$GPGSA,A,1,,,,,,,,,,,,,,,*1E
$BDGSA,A,1,,,,,,,,,,,,,,,*0F
$GLGSA,A,1,,,,,,,,,,,,,,,*02
$GPGSV,2,1,06,04,00,000,40,07,00,000,43,09,00,000,43,23,00,000,41*76
$GPGSV,2,2,06,28,00,000,39,30,00,000,41*79
$BDGSV,1,1,03,02,00,000,36,21,00,000,38,26,00,000,40*54
$B3CN0,0,0,0,0,0,0,0,0,0,0,0,0,0,0*4C
$GLGSV,1,1,03,04,00,000,37,03,00,000,36,02,00,000,38*59
---00000032--- Acq_st=3 0  2000-1-1 0:2:37 
[00]  03(G04)  f 40  7  0   -918.7  2046001.1 -0.1  2 0  990 1274  395
[01]  06(G07)  f 43  7  0  -3559.1  2046004.6  0.0  2 0 1010 1771  930
[02]  08(G09)  f 43  7  0    237.2  2045999.6 -0.0  2 0 1375 1921  776
[03]  22(G23)  f 41  7  0   1651.0  2045997.8  0.0  2 0  802  993  534
[04]  27(G28)  f 39  7  0  -2896.8  2046003.7 -0.2  2 0  628 1423  548
[05]  29(G30)  f 40 12  0  -4339.2  2046005.6  0.1  2 0  810 1445  661
[16]  38(B02) 1f 35 10  0  -1099.7  4092002.6 -0.2  2 0  678  768  417
[17]  41(B05)  1 14 23  0   -880.3  4092004.2  0.0  1 0  267  237  465
[18]  57(B21) 1f 38  7  0    931.2  4091997.4  0.1  2 0  981 1027  369
[19]  62(B26) 1f 40  7  0  -3311.8  4092008.6  0.1  2 0  865 1146  554
[32]  75(N-6) 8f 37  7  0  -1582.8  1022001.0  0.1  2 0   760  862  161
[33]  76(N-5) 8f 35  7  0    999.4  1021999.4 -0.0  2 0   695  559  138
[34]  79(N-2)  7 34 14  0  -5540.7  1022003.4  0.0  5 0   684  528  130
[35]  83(N02) 8f 37  9  0  -3266.3  1022002.0  0.1  2 0   604 1114  516
[36]  85(N04) 8f 37  7  0   2202.5  1021998.5 -0.0  2 0   398  261  555
[48]  38(B02)  1 23 10  1  -1131.6 20460015.5  0.1  1 0  380   89  612
[50]  57(B21)  1  7  7  0   1315.2 20459986.3  0.1  1 0  143  277  426
[51]  62(B26)  1  7  7  0  -1692.6 20460052.1  0.1  1 0  162  384  278
$GNGGA,062945.383,,,,,0,00,,,M,,,,0000*2F
$GNRMC,062945.383,A,,,,,,,080419,,*26
$GPGSA,A,1,,,,,,,,,,,,,,,*1E
$BDGSA,A,1,,,,,,,,,,,,,,,*0F
$GLGSA,A,1,,,,,,,,,,,,,,,*02
$GPGSV,2,1,06,04,00,000,40,07,00,000,43,09,00,000,43,23,00,000,41*76
$GPGSV,2,2,06,28,00,000,39,30,00,000,40*78
$BDGSV,1,1,03,02,00,000,35,21,00,000,38,26,00,000,40*57
$B3CN0,0,0,0,0,0,0,0,0,0,0,0,0,0,0*4C
$GLGSV,1,1,03,04,00,000,37,03,00,000,35,02,00,000,37*55
---00000033--- Acq_st=3 0  2000-1-1 0:2:38 
[00]  03(G04)  f 40  7  0   -916.6  2046001.1  0.1  2 0 1287 1947 1014
[01]  06(G07)  f 42  7  0  -3556.4  2046004.5  0.0  2 0 1325 2000  890
[02]  08(G09)  f 43  7  0    239.7  2045999.6 -0.0  2 0 1656 2112  842
[03]  22(G23)  f 41  7  0   1655.3  2045997.8  0.1  2 0 1340 1711  852
[04]  27(G28)  f 39  7  0  -2894.5  2046003.7  0.0  2 0  505 1003  547
[05]  29(G30)  f 40  7  0  -4337.1  2046005.6  0.0  2 0  883 1436  699
[16]  38(B02) 1f 36 29  0  -1095.3  4092002.7  0.3  2 0  817  746  511
[17]  41(B05)  1 10 10  1   -595.1  4092003.5 -0.0  1 0   75  410  439
[18]  57(B21) 1f 38  7  0    934.1  4091997.4  0.2  2 0  993 1049  421
[19]  62(B26) 1f 40  7  0  -3316.4  4092008.6  0.0  2 0  641 1334  706
[32]  75(N-6) 8f 36  7  0  -1576.9  1022001.0  0.0  2 0    13  750  129
[33]  76(N-5) 8f 34  7  0   1000.4  1021999.3  0.0  2 0   308  443  295
[34]  79(N-2)  f 28  7  0  -5537.8  1022003.5  0.1  5 0   407  307   89
[35]  83(N02) 8f 36  7  0  -3263.7  1022002.0  0.0  2 0   306  796  312
[36]  85(N04) 8f 38  7  0   2203.8  1021998.6 -0.1  2 0   486  744  336
[48]  38(B02)  1 10 10  1   -420.5 20460024.3  0.1  1 0  482  630  626
[50]  57(B21)  1  7  7  0    466.4 20459986.9 -0.1  1 0  274  146   99
[51]  62(B26)  1  7  7  0  -1423.0 20460052.9  0.0  1 0  617  136  245
$GNGGA,062946.383,,,,,0,00,,,M,,,,0000*2C
$GNRMC,062946.383,A,,,,,,,080419,,*25
$GPGSA,A,1,,,,,,,,,,,,,,,*1E
$BDGSA,A,1,,,,,,,,,,,,,,,*0F
$GLGSA,A,1,,,,,,,,,,,,,,,*02
$GPGSV,2,1,06,04,00,000,40,07,00,000,42,09,00,000,43,23,00,000,41*77
$GPGSV,2,2,06,28,00,000,39,30,00,000,40*78
$BDGSV,1,1,03,02,00,000,36,21,00,000,38,26,00,000,40*54
$B3CN0,0,0,0,0,0,0,0,0,0,0,0,0,0,0*4C
$GLGSV,1,1,03,04,00,000,36,03,00,000,34,02,00,000,38*5A
---00000034--- Acq_st=3 0  2000-1-1 0:2:39 
[00]  03(G04)  f 40 12  0   -917.5  2046001.1  0.1  2 0  586 1032  746
[01]  06(G07)  f 43  7  0  -3557.2  2046004.5  0.0  2 0 1837 1904 1001
[02]  08(G09)  f 43  7  0    238.3  2045999.6  0.1  2 0 1239 2282 1134
[03]  22(G23)  f 41  7  0   1652.5  2045997.8  0.1  2 0  415  983  567
[04]  27(G28)  f 39  7  0  -2895.2  2046003.8 -0.3  2 0  822 1099  727
[05]  29(G30)  f 41  7  0  -4344.7  2046005.6 -0.0  2 0 1152 1052  251
[16]  38(B02) 1f 35 23  0  -1092.4  4092002.8  0.0  2 0  775  692  429
[17]  41(B05)  1 10 10  1   -567.3  4092003.7 -0.0  1 0  313  298  324
[18]  57(B21) 1f 38  7  0    926.4  4091997.4  0.0  2 0  382  370  628
[19]  62(B26) 1f 40  7  0  -3314.1  4092008.6 -0.1  2 0 1015  970  415
[32]  75(N-6) 8f 36  7  0  -1581.6  1022001.0  0.0  2 0   574  820  505
[33]  76(N-5) 8f 34  7  0    999.6  1021999.3 -0.0  2 0   222  587  534
[34]  79(N-2)  f 34  7  0  -5540.1  1022003.4 -0.0  5 0   249  409  233
[35]  83(N02) 8f 35  7  0  -3267.6  1022002.1  0.1  2 0   591  513  327
[36]  85(N04) 8f 38  7  0   2199.8  1021998.6 -0.1  2 0   736 1076  662
[48]  38(B02)  1 10 20  1    497.3 20460021.3 -0.1  1 0  185  367  460
[50]  57(B21)  1  7  7  0    245.8 20459987.9  0.0  1 0  461  211  135
[51]  62(B26)  1  7  7  0  -2321.6 20460052.5 -0.1  1 0  286  277  588
$GNGGA,062947.383,,,,,0,00,,,M,,,,0000*2D
$GNRMC,062947.383,A,,,,,,,080419,,*24
$GPGSA,A,1,,,,,,,,,,,,,,,*1E
$BDGSA,A,1,,,,,,,,,,,,,,,*0F
$GLGSA,A,1,,,,,,,,,,,,,,,*02
$GPGSV,2,1,06,04,00,000,40,07,00,000,43,09,00,000,43,23,00,000,41*76
$GPGSV,2,2,06,28,00,000,39,30,00,000,41*79
$BDGSV,1,1,03,02,00,000,35,21,00,000,38,26,00,000,40*57
$B3CN0,0,0,0,0,0,0,0,0,0,0,0,0,0,0*4C
$GLGSV,1,1,03,04,00,000,36,03,00,000,34,02,00,000,38*5A
---00000035--- Acq_st=3 0  2000-1-1 0:2:40 
[00]  03(G04)  f 40  7  0   -918.0  2046001.2 -0.0  2 0  824 1414  719
[01]  06(G07)  f 43  7  0  -3559.0  2046004.5  0.0  2 0  975 1632  725
[02]  08(G09)  f 43  7  0    239.7  2045999.6  0.0  2 0 1408 2136 1276
[03]  22(G23)  f 41  7  0   1653.1  2045997.8  0.1  2 0 1010 1660  529
[04]  27(G28)  f 38  7  0  -2903.3  2046003.8  0.1  2 0  726  933  448
[05]  29(G30)  f 41  7  0  -4336.7  2046005.6  0.0  2 0 1076 1550  585
[16]  38(B02) 1f 35 23  0  -1100.6  4092002.9  0.4  2 0  904 1091  619
[17]  41(B05)  1 20 26  1   -933.5  4092004.9  0.0  1 0  200  284  180
[18]  57(B21) 1f 38  7  0    928.6  4091997.4 -0.2  2 0  603  985  193
[19]  62(B26) 1f 39  9  0  -3312.1  4092008.6 -0.0  2 0  461 1227  651
[32]  75(N-6) 8f 36  7  0  -1582.6  1022000.9  0.1  2 0   740 1001  376
[33]  76(N-5) 8f 35  7  0   1001.5  1021999.3  0.1  2 0   465  621  435
[34]  79(N-2)  f 33  7  0  -5538.4  1022003.5  0.0  5 0   326  347  502
[35]  83(N02) 8f 35  7  0  -3265.5  1022002.0  0.0  2 0   477  937  479
[36]  85(N04) 8f 37  7  0   2201.2  1021998.5  0.1  2 0   507  564  209
[48]  38(B02)  f 16 36  1    232.0 20459997.6 -0.0  2 0  162  389  469
$GNGGA,062948.254,2944.9223,N,10633.0834,E,1,04,3.8,348.8,M,,,,0000*12
$GNRMC,062948.254,A,2944.9223,N,10633.0834,E,0.56,0.00,080419,,*11
$GPGSA,A,3,07,09,23,30,,,,,,,,,4.9,3.8,3.2*39
$BDGSA,A,3,,,,,,,,,,,,,4.9,3.8,3.2*24
$GLGSA,A,3,,,,,,,,,,,,,4.9,3.8,3.2*29
$GPGSV,2,1,06,04,00,000,40,07,00,000,43,09,00,000,43,23,00,000,41*76
$GPGSV,2,2,06,28,00,000,38,30,00,000,41*78
$BDGSV,1,1,03,02,00,000,35,21,00,000,38,26,00,000,39*59
$B3CN0,0,0,0,0,0,0,0,0,0,0,0,0,0,0*4C
$GLGSV,1,1,03,04,00,000,36,03,00,000,35,02,00,000,37*54
---00000036--- Acq_st=7 0  2000-1-1 0:2:41 
[00]  03(G04)  f 40  7  0   -920.8  2046001.1 -0.1  2 0  384 1033  403
[01]  06(G07)  f 43  7  0  -3558.9  2046004.5 -0.1  2 0 1866 2402  747
[02]  08(G09)  f 43  7  0    236.5  2045999.6 -0.0  2 0 1063 2341 1186
[03]  22(G23)  f 41  7  0   1649.6  2045997.8  0.0  2 0 1000 1101  257
[04]  27(G28)  f 39  7  0  -2895.9  2046003.7 -0.2  2 0  959 1064  258
[05]  29(G30)  f 41  7  0  -4336.8  2046005.5 -0.0  2 0 1154 1820  782
[16]  38(B02) 1f 36 27  0  -1099.2  4092002.5  0.7  2 0  770 1049  689
[17]  41(B05)  7 10 31  1   -999.2  4092002.5 -0.1  2 0  296  411  600
[18]  57(B21) 1f 39  7  0    922.5  4091997.4 -0.2  2 0 1058 1052  616
[19]  62(B26) 1f 39  8  0  -3313.4  4092008.6  0.0  2 0  520  884  171
[32]  75(N-6) 8f 37  7  0  -1583.4  1022001.0 -0.0  2 0   429  676  166
[33]  76(N-5) 8f 37  7  0   1000.1  1021999.3 -0.1  2 0   706  713  212
[34]  79(N-2)  f 33  7  0  -5541.9  1022003.5  0.0  5 0   420  498  344
[35]  83(N02) 8f 33 11  0  -3286.1  1022002.1 -0.1  2 0   177  350  193
[36]  85(N04) 8f 37  7  0   2195.5  1021998.6 -0.0  2 0   404 1046  750
[48]  38(B02)  f 21 18  1   -401.7 20460007.3 -0.1  2 0  338  416  507
[50]  57(B21)  1  7  7  0    692.8 20459986.6  0.1  1 0  356  486  300
[51]  62(B26)  1  7  7  0  -2225.9 20460051.6 -0.0  1 0   31  312   73
Refix G07: 2, 109807.928292, -3559
Refix G09: 2, 109807.927632, 237
Refix G23: 2, 109807.925611, 1650
Refix G30: 2, 109807.919862, -4341
$GNGGA,062950.000,2944.9208,N,10633.0874,E,1,04,3.8,345.7,M,,,,0000*17
$GNRMC,062950.000,A,2944.9208,N,10633.0874,E,1.90,0.00,080419,,*1D
$GPGSA,A,3,07,09,23,30,,,,,,,,,4.9,3.8,3.2*39
$BDGSA,A,3,,,,,,,,,,,,,4.9,3.8,3.2*24
$GLGSA,A,3,,,,,,,,,,,,,4.9,3.8,3.2*29
$GPGSV,2,1,06,04,00,000,40,07,00,000,43,09,00,000,43,23,00,000,41*76
$GPGSV,2,2,06,28,00,000,39,30,00,000,41*79
$BDGSV,1,1,03,02,00,000,36,21,00,000,39,26,00,000,39*5B
$B3CN0,0,21,0,0,0,0,0,0,0,0,0,0,0,0*7F
$GLGSV,1,1,03,04,00,000,37,03,00,000,37,02,00,000,37*57
---00000037--- Acq_st=7 0  2000-1-1 0:2:42 
[00]  03(G04)  f 40  7  0   -920.0  2046001.2 -0.1  2 0  923  884  331
[01]  06(G07)  f 43  7  0  -3558.9  2046004.5  0.0  2 0 1686 2009 1187
[02]  08(G09)  f 44  7  0    237.4  2045999.6 -0.0  2 0 1530 2422 1039
[03]  22(G23)  f 41  7  0   1648.5  2045997.9 -0.0  2 0  683 1260  199
[04]  27(G28)  f 39  7  0  -2897.7  2046003.7  0.0  2 0  482  891  419
[05]  29(G30)  f 42  7  0  -4346.8  2046005.5 -0.1  2 0 1323 1870  561
[16]  38(B02) 1f 36 22  0  -1102.6  4092002.8  0.4  2 0 1024 1035  599
[17]  41(B05)  7 36 36  0  -1115.1  4092002.7 -0.0  2 0  218   95  261
[18]  57(B21) 1f 39  7  0    926.9  4091997.4  0.3  2 0  753 1082  333
[19]  62(B26) 1f 39  7  0  -3314.4  4092008.6 -0.1  2 0 1186 1406 1084
[32]  75(N-6) 8f 37  7  0  -1579.9  1022000.9  0.0  2 0   704 1218  569
[33]  76(N-5) 8f 38  7  0   1000.7  1021999.4  0.1  2 0   514  657  361
[34]  79(N-2)  f 33  7  0  -5542.9  1022003.5 -0.0  5 0   415  675  231
[35]  83(N02) 8f 31 12  0  -3271.1  1022002.2  0.0  5 0   310  363  213
[36]  85(N04) 8f 37  7  0   2195.7  1021998.6  0.0  2 0   541  835  417
[48]  38(B02)  f 13 36  1   -643.1 20460010.2 -0.1  2 0  221  514  740
[50]  57(B21)  1  7  7  0    256.1 20459986.8 -0.1  1 0  427  539  314
[51]  62(B26)  1  7  7  0  -2589.3 20460052.7  0.1  1 0  344  378  623
Refix G07: 2, 109808.928295, -3559
Refix G09: 2, 109808.927631, 235
Refix G23: 2, 109808.925610, 1649
Refix G30: 2, 109808.919865, -4343
$GNGGA,062951.000,2944.9203,N,10633.0896,E,1,04,3.8,344.9,M,,,,0000*1E
$GNRMC,062951.000,A,2944.9203,N,10633.0896,E,0.17,0.00,080419,,*15
$GPGSA,A,3,07,09,23,30,,,,,,,,,4.9,3.8,3.2*39
$BDGSA,A,3,,,,,,,,,,,,,4.9,3.8,3.2*24
$GLGSA,A,3,,,,,,,,,,,,,4.9,3.8,3.2*29
$GPGSV,2,1,06,04,00,000,40,07,50,323,43,09,42,248,44,23,32,205,41*78
$GPGSV,2,2,06,28,00,000,39,30,17,315,42*7B
$BDGSV,1,1,03,02,00,000,36,21,04,232,39,26,36,319,39*52
$B3CN0,0,0,0,0,0,0,0,0,0,0,0,0,0,0*4C
$GLGSV,1,1,04,04,05,318,37,03,14,269,38,02,04,220,37,22,44,040,00*68
---00000038--- Acq_st=3 0  2000-1-1 0:2:43 
[00]  03(G04)  f 39  7  0   -917.1  2046001.1  0.1  2 0  411  800  235
[01]  06(G07)  f 43  7  0  -3560.5  2046004.5  0.0  2 0 1796 2344 1090
[02]  08(G09)  f 44  7  0    237.8  2045999.6  0.1  2 0 2323 2672 1174
[03]  22(G23)  f 40  7  0   1649.8  2045997.8 -0.0  2 0  964 1014  307
[04]  27(G28)  f 39  7  0  -2903.0  2046003.7  0.1  2 0 1168 1156  646
[05]  29(G30)  f 42  7  0  -4338.7  2046005.6 -0.0  2 0  912 1501  780
[16]  38(B02) 1f 37 26  0  -1097.1  4092002.7  0.5  2 0  614  927  676
[17]  41(B05)  7 13 10  0  -1611.1  4092004.4  0.2  2 0  207  165  312
[18]  57(B21) 1f 39  7  0    930.4  4091997.4  0.2  2 0  710  657  116
[19]  62(B26) 1f 39  7  0  -3316.1  4092008.5  0.2  2 0  885 1112  580
[32]  75(N-6) 8f 37  7  0  -1581.5  1022001.0  0.1  2 0   289  567  654
[33]  76(N-5) 8f 39  7  0   1000.3  1021999.3 -0.2  2 0   566  876  586
[34]  79(N-2)  f 34  7  0  -5541.0  1022003.6  0.1  5 0   157  553  389
[35]  83(N02) 8f 30  7  0  -3270.3  1022002.3 -0.1  5 0   184  325  359
[36]  85(N04) 8f 37  7  0   2196.7  1021998.5 -0.0  2 0   539  993  403
[48]  38(B02)  f 14 18  1   -684.9 20460011.4  0.0  2 0  288  619  620
[50]  57(B21)  1  7  7  0    -47.1 20459988.0 -0.1  1 0  418  701  901
[51]  62(B26)  1  7  7  0  -2628.3 20460054.5 -0.0  1 0  312   74  350
Refix G07: 2, 109809.928297, -3561
Refix G09: 2, 109809.927631, 234
Refix G23: 2, 109809.925609, 1647
Refix G30: 2, 109809.919867, -4345
$GNGGA,062952.000,2944.9198,N,10633.0918,E,1,04,3.8,341.8,M,,,,0000*1F
$GNRMC,062952.000,A,2944.9198,N,10633.0918,E,0.30,0.00,080419,,*15
$GPGSA,A,3,07,09,23,30,,,,,,,,,4.9,3.8,3.2*39
$BDGSA,A,3,,,,,,,,,,,,,4.9,3.8,3.2*24
$GLGSA,A,3,,,,,,,,,,,,,4.9,3.8,3.2*29
$GPGSV,2,1,06,04,00,000,39,07,50,323,43,09,42,248,44,23,32,205,40*77
$GPGSV,2,2,06,28,00,000,39,30,17,315,42*7B
$BDGSV,2,1,05,02,00,000,37,05,00,000,16,21,04,232,39,26,36,319,39*64
$BDGSV,2,2,05,12,02,206,00*58
$B3CN0,0,0,0,0,0,0,0,0,0,0,0,0,0,0*4C
$GLGSV,1,1,04,04,05,318,37,03,14,269,39,02,04,220,37,22,44,040,00*69
---00000039--- Acq_st=3 0  2000-1-1 0:2:44 
[00]  03(G04)  f 40  7  0   -917.4  2046001.1 -0.1  2 0  716 1261  613
[01]  06(G07)  f 43  7  0  -3562.9  2046004.6 -0.0  2 0 1285 1942 1012
[02]  08(G09)  f 43  7  0    233.5  2045999.6 -0.0  2 0 1931 2850 1014
[03]  22(G23)  f 40  7  0   1646.1  2045997.8 -0.0  2 0 1220 1567  669
[04]  27(G28)  f 39  7  0  -2907.6  2046003.7  0.1  2 0  628  901  223
[05]  29(G30)  f 42  7  0  -4348.5  2046005.6  0.1  2 0  889 1486  928
[16]  38(B02) 1f 36 26  0  -1106.3  4092002.7  0.0  2 0  684  813  205
[17]  41(B05)  7 13 30  1  -2006.9  4092005.3  0.0  2 0  368  208  442
[18]  57(B21) 1f 39  7  0    922.1  4091997.5  0.1  2 0  816 1091  430
[19]  62(B26) 1f 39  7  0  -3322.5  4092008.6  0.0  2 0  656  625  170
[32]  75(N-6) 8f 37  7  0  -1583.7  1022001.0 -0.1  2 0   550  928  450
[33]  76(N-5) 8f 40  7  0    997.3  1021999.3  0.0  2 0   653  878  453
[34]  79(N-2)  f 34  7  0  -5545.1  1022003.5 -0.0  5 0   272  486   56
[35]  83(N02) 8f 21  7  0  -3226.9  1022002.3  0.3 10 0   429  300  177
[36]  85(N04) 8f 37  7  0   2193.2  1021998.5  0.0  2 0   629  837  313
[50]  57(B21)  1  7  7  0   -408.6 20459986.3 -0.2  1 0  231  206   71
[51]  62(B26)  1  7  8  0  -1634.9 20460054.1  0.3  1 0  647  644  140
Refix G07: 2, 109810.928299, -3562
Refix G09: 2, 109810.927631, 233
Refix G23: 2, 109810.925608, 1645
Refix G30: 2, 109810.919870, -4346
$GNGGA,062953.000,2944.9196,N,10633.0944,E,1,04,3.8,339.5,M,,,,0000*1B
$GNRMC,062953.000,A,2944.9196,N,10633.0944,E,0.52,0.00,080419,,*17
$GPGSA,A,3,07,09,23,30,,,,,,,,,4.9,3.8,3.2*39
$BDGSA,A,3,,,,,,,,,,,,,4.9,3.8,3.2*24
$GLGSA,A,3,,,,,,,,,,,,,4.9,3.8,3.2*29
$GPGSV,2,1,06,04,00,000,40,07,50,323,43,09,42,248,43,23,32,205,40*7E
$GPGSV,2,2,06,28,00,000,39,30,17,315,42*7B
$BDGSV,1,1,04,02,00,000,36,21,04,232,39,26,36,319,39,12,02,206,00*60
$B3CN0,0,0,0,0,0,0,0,0,0,0,0,0,0,0*4C
$GLGSV,1,1,04,04,05,318,37,03,14,269,40,02,04,220,37,22,44,040,00*67
---00000040--- Acq_st=3 0  2000-1-1 0:2:45 
[00]  03(G04)  f 39  7  0   -923.0  2046001.1  0.2  2 0  707 1054  660
[01]  06(G07)  f 43  7  0  -3563.1  2046004.5  0.0  2 0 1433 2143 1096
[02]  08(G09)  f 45 13  0    235.2  2045999.6  0.0  2 0 1521 2577 1074
[03]  22(G23)  f 41  7  0   1646.8  2045997.8  0.0  2 0  908 1159  395
[04]  27(G28)  f 39  7  0  -2902.1  2046003.7  0.0  2 0  618  755  557
[05]  29(G30)  f 42  7  0  -4343.7  2046005.6 -0.0  2 0 1678 2117  670
[16]  38(B02) 1f 36 25  0  -1110.6  4092002.7  0.3  2 0  547 1041  526
[17]  41(B05)  7 10 31  1  -2004.3  4092005.3 -0.3  2 0  280  334  209
[18]  57(B21) 1f 39  7  0    925.2  4091997.4 -0.1  2 0  878 1147  448
[19]  62(B26) 1f 40  7  0  -3318.5  4092008.6 -0.1  2 0  869 1290  582
[32]  75(N-6) 8f 37  7  0  -1582.1  1022001.0  0.0  2 0   328  916  554
[33]  76(N-5) 8f 40  7  0   1001.3  1021999.3  0.2  2 0   654 1031  395
[34]  79(N-2)  f 34  7  0  -5543.4  1022003.4 -0.0  5 0   386  721  378
[35]  83(N02) 8f  7  7  0  -3226.7  1022002.1  0.0 10 0   449  342  347
[36]  85(N04) 8f 36  7  0   2192.6  1021998.5  0.0  2 0   546  718  404
[48]  38(B02)  1 10 10  0   -816.5 20460015.8  0.0  1 0  251  482  316
Refix G07: 2, 109811.928301, -3559
Refix G09: 2, 109811.927631, 237
Refix G23: 2, 109811.925607, 1649
Refix G30: 2, 109811.919873, -4344
$GNGGA,062954.000,2944.9190,N,10633.0959,E,1,04,3.8,338.5,M,,,,0000*17
$GNRMC,062954.000,A,2944.9190,N,10633.0959,E,0.77,0.00,080419,,*1D
$GPGSA,A,3,07,09,23,30,,,,,,,,,4.9,3.8,3.2*39
$BDGSA,A,3,,,,,,,,,,,,,4.9,3.8,3.2*24
$GLGSA,A,3,,,,,,,,,,,,,4.9,3.8,3.2*29
$GPGSV,2,1,06,04,00,000,39,07,50,323,43,09,42,248,45,23,32,205,41*77
$GPGSV,2,2,06,28,00,000,39,30,17,315,42*7B
$BDGSV,1,1,04,02,00,000,36,21,04,232,39,26,36,319,40,12,02,206,00*6E
$B3CN0,0,0,0,0,0,0,0,0,0,0,0,0,0,0*4C
$GLGSV,2,1,05,04,05,318,37,03,14,269,40,02,04,220,36,22,44,040,00*64
$GLGSV,2,2,05,23,61,162,00*53
---00000041--- Acq_st=3 0  2000-1-1 0:2:46 
[00]  03(G04)  f 39  7  0   -909.2  2046001.1 -0.2  2 0  970 1210  432
[01]  06(G07)  f 43  7  0  -3552.9  2046004.5 -0.0  2 0 1181 1990  816
[02]  08(G09)  f 44  7  0    239.7  2045999.7 -0.0  2 0 1634 2750 1663
[03]  22(G23)  f 41  7  0   1653.2  2045997.8 -0.0  2 0  781 1404  687
[04]  27(G28)  f 39  7  0  -2891.1  2046003.7  0.1  2 0 1263 1333  585
[05]  29(G30)  f 43  7  0  -4339.6  2046005.6 -0.0  2 0 1144 1729  683
[16]  38(B02) 1f 36 28  0  -1097.2  4092002.8  0.2  2 0  216  860  256
[17]  41(B05)  7 18 26  1  -1997.6  4092005.3 -0.0  2 0  341  238  109
