$GNGGA,022220.048,,,,,0,00,,,M,,,,0000*27
$GNRMC,022220.048,A,,,,,,,070180,,*24
$GPGSA,A,1,,,,,,,,,,,,,,,*1E
$BDGSA,A,1,,,,,,,,,,,,,,,*0F
$GLGSA,A,1,,,,,,,,,,,,,,,*02
$GPGSV,1,1,03,03,00,000,42,14,00,000,24,16,00,000,20*49
$B3CN0,0,0,0,0,0,0,0,0,0,0,0,0,0,0*4C
---00000004--- Acq_st=3 0  2019-4-15 2:22:19 
[00]  02(G03)  f 42  7  0   -473.0  2046000.5 -0.1  2 0 1612 2462  875
[01]  13(G14)  7 42  7  0    815.6  2045998.8  0.0  2 0 1665 2411 1272
[02]  15(G16)  7 43  7  0  -2661.5  2046003.3  0.0  2 0 1607 2775 1614
[03]  21(G22)  7 32  7  0    449.0  2045999.3  0.2  5 0  954 2233  883
[04]  22(G23)  1  7  7  0  -4647.8  2046007.3  0.1  1 0  591  570  545
[05]  25(G26)  7 27  7  0   -437.9  2046000.5  0.5 10 0 3243 4777 1963
[06]  28(G29)  7 20  7  0    706.6  2045998.8  0.5 10 0  714  320  551
[08]  30(G31)  7  8  7  0    321.7  2045999.5  0.9 10 0 2778 3895 1427
[09]  31(G32)  7  7  7  0   1794.5  2045997.6  0.8  5 0 1095 2342 1395
[16]  37(B01)  1 10 16  0  -1123.5  4092003.5  0.2  1 0  596 1638 1036
[17]  38(B02)  1 10 23  1  -1073.7  4092003.9  0.3  1 0 1559  692  389
[18]  39(B03)  1 10 29  1  -1119.8  4092005.1  0.2  1 0 1202 2297 1021
[19]  40(B04)  1 10 10  0  -1079.4  4092005.5 -0.1  1 0  139 1046 2301
[20]  41(B05)  1 10 21  1   -989.0  4092002.3  0.0  1 0  445  696  198
[21]  42(B06)  1  7  7  0   -630.0  4092003.6  0.2  1 0 1036 2062 1315
[22]  43(B07)  1  7  7  0   -861.8  4092003.3  0.2  1 0 1728 3449 1855
[24]  45(B09)  1  7  7  0  -1000.0  4092005.1  0.0  1 0  657 1283 2391
[25]  46(B10)  1  7  7  0  -1250.0  4092005.1  0.0  1 0  686 1914 1684
$GNGGA,022221.048,,,,,0,00,,,M,,,,0000*26
$GNRMC,022221.048,A,,,,,,,070180,,*25
$GPGSA,A,1,,,,,,,,,,,,,,,*1E
$BDGSA,A,1,,,,,,,,,,,,,,,*0F
$GLGSA,A,1,,,,,,,,,,,,,,,*02
$GPGSV,2,1,06,03,00,000,42,14,00,000,42,16,00,000,43,22,00,000,32*7B
$GPGSV,2,2,06,26,00,000,27,29,00,000,20*77
$B3CN0,0,0,0,0,0,0,0,0,0,0,0,0,0,0*4C
---00000005--- Acq_st=3 0  2019-4-15 2:22:20 
[00]  02(G03)  f 42  7  0   -474.0  2046000.5  0.0  2 0 1289 2291  872
[01]  13(G14)  7 42  7  0    812.0  2045998.9 -0.1  2 0 1291 2122 1086
[02]  15(G16)  7 44  7  0  -2660.9  2046003.4  0.1  2 0 2251 2935 1489
[03]  21(G22)  7 43  7  0    455.0  2045999.3 -0.0  2 0 1807 1992  848
[04]  22(G23)  1 26  7  0  -4349.8  2046006.7  0.6  1 0  398  680  465
[05]  25(G26)  7 46  7  0   -437.3  2046000.5  0.1  2 0 3095 4976 2155
[06]  28(G29)  7 33  9  0    707.9  2045999.0 -0.0  5 0  488  406  251
[08]  30(G31)  7 45  7  0    323.0  2045999.5 -0.1  2 0 2721 3922 1919
[09]  31(G32)  7 43  7  0   1797.4  2045997.6 -0.1  2 0 1533 2338 1236
[16]  37(B01) 1f 40 10  0  -1120.1  4092002.9 -0.0  2 0 1228  970  547
[17]  38(B02)  7 10 10  0  -1475.0  4092003.7  0.0  2 0  300  391  490
[18]  39(B03)  7 42 31  0  -1117.5  4092002.7  0.1  2 0 2240 1559  340
[19]  40(B04)  7 41 20  0  -1111.1  4092002.9 -0.1  2 0 1288 1932  952
[20]  41(B05)  1 10 28  1   -908.0  4092004.1 -0.0  1 0  465  636  941
[21]  42(B06)  7 21  7  0   -630.2  4092001.5  0.4 10 0 1563 1813  388
[22]  43(B07)  7 15  7  0   -860.0  4092002.2  0.6 10 0 2848 3627 2027
[24]  45(B09)  1  7  7  0  -1182.5  4092003.2  0.4  1 0 2124 2855 1230
[25]  46(B10)  1  7  7  0  -1122.6  4092002.5  0.2  1 0 1695 2503 1267
[26]  52(B16)  1  7  7  0   -750.0  4092003.1  0.0  1 0  469 2253 1970
[27]  54(B18)  1  7  7  0  -1000.0  4092004.8  0.0  1 0  164 1691 3336
[28]  55(B19)  1  7  7  0   1750.0  4091998.4  0.1  1 0  280  991 2148
$GNGGA,022222.048,,,,,0,00,,,M,,,,0000*25
$GNRMC,022222.048,A,,,,,,,070180,,*26
$GPGSA,A,1,,,,,,,,,,,,,,,*1E
$BDGSA,A,1,,,,,,,,,,,,,,,*0F
$GLGSA,A,1,,,,,,,,,,,,,,,*02
$GPGSV,2,1,08,03,00,000,42,14,00,000,42,16,00,000,44,22,00,000,43*74
$GPGSV,2,2,08,26,00,000,46,29,00,000,33,31,00,000,45,32,00,000,43*79
$BDGSV,1,1,04,01,00,000,40,03,00,000,42,04,00,000,41,06,00,000,21*68
$B3CN0,0,0,0,0,0,0,0,0,0,0,0,0,0,0*4C
---00000006--- Acq_st=3 0  2019-4-15 2:22:21 
[00]  02(G03)  f 43  7  0   -470.5  2046000.5  0.0  2 0 1627 2518  797
[01]  13(G14)  7 42  9  0    814.9  2045998.8  0.0  2 0 1833 2527  898
[02]  15(G16)  7 43  7  0  -2660.1  2046003.4 -0.0  2 0 1814 2669  964
[03]  21(G22)  7 42  7  0    451.2  2045999.3  0.0  2 0 1678 2389 1356
[04]  22(G23)  7 29  7  0  -4346.8  2046005.5  0.2  5 0  534 1330  759
[05]  25(G26)  7 45  7  0   -435.9  2046000.5 -0.0  2 0 3295 4883 2262
[06]  28(G29)  7 33  9  0    712.9  2045998.9 -0.1  5 0  437  837  313
[08]  30(G31)  7 44  7  0    324.2  2045999.5  0.0  2 0 2584 3517 1593
[09]  31(G32)  7 42  7  0   1796.2  2045997.6 -0.0  2 0 1751 2718 1293
[16]  37(B01) 1f 40 19  0  -1123.2  4092002.9  0.1  2 0 1432 1029  124
[17]  38(B02)  7 10 10  0  -1617.8  4092004.1 -0.1  2 0  242  538  246
[18]  39(B03)  f 42 32  0  -1115.3  4092002.7 -0.1  2 0 1805 1448  472
[19]  40(B04)  f 43 24  0  -1108.9  4092002.9  0.3  2 0 1150 1601  923
[20]  41(B05)  1 10 10  0   -565.4  4092004.8  0.3  1 0  300  942  718
[21]  42(B06)  7 42  7  0   -630.1  4092001.5 -0.2  2 0 1585 1713  871
[22]  43(B07)  7 44  7  0   -860.0  4092002.1 -0.0  2 0 1393 2353 1621
[24]  45(B09)  7 36  7  0  -1179.6  4092003.0  0.0  2 0 2023 2709 1185
[25]  46(B10)  7 34  7  0  -1123.6  4092002.8  0.1  5 0 2004 2443  942
[26]  52(B16)  1  7 10  0   -675.7  4092001.7  0.8  1 0 1917 3262 1547
[27]  54(B18)  1  7  7  0   -966.8  4092002.5  0.3  1 0 2232 3030 1146
[28]  55(B19)  1 32  7  0   1663.5  4091995.6  0.5  1 0 1970 1929  802
[29]  57(B21)  1  7  7  0  -3415.3  4092010.6 -0.0  1 0  858 1662  683
[30]  58(B22)  1  7  7  0   -922.6  4092002.9  0.2  1 0 2097 3055 1328
[48]  37(B01)  1 19 20  0  -1162.2 20460022.3  0.2  1 0  174  257  680
$GNGGA,022223.048,,,,,0,00,,,M,,,,0000*24
$GNRMC,022223.048,A,,,,,,,070180,,*27
$GPGSA,A,1,,,,,,,,,,,,,,,*1E
$BDGSA,A,1,,,,,,,,,,,,,,,*0F
$GLGSA,A,1,,,,,,,,,,,,,,,*02
$GPGSV,3,1,09,03,00,000,43,14,00,000,42,16,00,000,43,22,00,000,42*73
$GPGSV,3,2,09,23,00,000,29,26,00,000,45,29,00,000,33,31,00,000,44*77
$GPGSV,3,3,09,32,00,000,42*47
$BDGSV,2,1,07,01,00,000,40,03,00,000,43,04,00,000,43,06,00,000,42*6E
$BDGSV,2,2,07,07,00,000,44,09,00,000,36,10,00,000,34*52
$B3CN0,0,0,0,0,0,0,0,0,0,0,0,0,0,0*4C
---00000007--- Acq_st=3 0  2019-4-15 2:22:22 
[00]  02(G03)  f 43  7  0   -470.3  2046000.6  0.0  2 0 1157 2122 1143
[01]  13(G14)  7 42  7  0    815.8  2045998.9  0.0  2 0 2521 3069 1475
[02]  15(G16)  7 43  7  0  -2657.2  2046003.4  0.0  2 0 2599 3063  853
[03]  21(G22)  7 42  7  0    450.4  2045999.3 -0.1  2 0 1595 2920 1251
[04]  22(G23)  7 37  7  0  -4342.4  2046005.5  0.1  2 0 1002  995  955
[05]  25(G26)  7 45  7  0   -432.7  2046000.5 -0.0  2 0 3087 4988 2146
[06]  28(G29)  7 33  7  0    713.1  2045999.0 -0.0  5 0  725  425  387
[08]  30(G31)  7 44  7  0    327.8  2045999.5  0.0  2 0 1425 2872 1495
[09]  31(G32)  7 42  7  0   1797.2  2045997.6 -0.0  2 0 1524 2393  940
[16]  37(B01) 1f 41 14  0  -1122.2  4092002.8  0.0  2 0  936 1581  765
[17]  38(B02)  7 10 10  1  -1689.6  4092004.5 -0.1  2 0  519  315  301
[18]  39(B03)  f 41 29  0  -1113.3  4092002.7  0.4  2 0 1806 1775  649
[19]  40(B04)  f 41 13  0  -1107.8  4092002.9 -0.3  2 0 1305 1891 1101
[20]  41(B05)  1 10 10  0   -595.7  4092003.6  0.1  1 0  819  634  291
[21]  42(B06)  7 42 11  0   -626.8  4092001.5 -0.0  2 0 1670 1860  320
[22]  43(B07)  7 43  7  0   -859.5  4092002.1  0.0  2 0 1927 2845 1438
[24]  45(B09)  7 43  7  0  -1180.4  4092002.9  0.0  2 0 2215 2618  906
[25]  46(B10)  7 43  7  0  -1119.8  4092002.8 -0.0  2 0 1644 2031  769
[26]  52(B16)  1  7  7  0   -674.8  4092001.6  1.0  1 0 1816 3099 1461
[27]  54(B18)  7 31  7  0   -960.8  4092002.4  0.3  5 0 2255 3186 1617
[28]  55(B19)  1 45  7  0   1667.3  4091995.2  1.0  1 0 1732 2948 2006
[29]  57(B21)  1  7  7  0  -3409.3  4092008.4 -0.1  1 0 1268 1401  717
[30]  58(B22)  1  7  7  0   -921.4  4092002.1  1.0  1 0 2785 3972 1867
[32]  75(N-6)  1  7  7  0 396626.3  1022003.1 -0.0  1 0   801 2481 3231
[48]  37(B01)  1 16 10  0  -1415.9 20460019.4 -0.1  1 0  769  909  428
[50]  39(B03)  1 10 18  0  -1221.9 20460020.6  0.1  1 0  421 1006  889
[51]  40(B04)  1 22 26  1   -564.8 20460021.5 -0.2  1 0  661  621  591
$GNGGA,022224.048,,,,,0,00,,,M,,,,0000*23
$GNRMC,022224.048,A,,,,,,,070180,,*20
$GPGSA,A,1,,,,,,,,,,,,,,,*1E
$BDGSA,A,1,,,,,,,,,,,,,,,*0F
$GLGSA,A,1,,,,,,,,,,,,,,,*02
$GPGSV,3,1,09,03,00,000,43,14,00,000,42,16,00,000,43,22,00,000,42*73
$GPGSV,3,2,09,23,00,000,37,26,00,000,45,29,00,000,33,31,00,000,44*78
$GPGSV,3,3,09,32,00,000,42*47
$BDGSV,2,1,08,01,00,000,40,03,00,000,42,04,00,000,42,06,00,000,42*61
$BDGSV,2,2,08,07,00,000,43,09,00,000,43,10,00,000,43,18,00,000,31*63
$B3CN0,0,0,0,0,0,0,0,0,0,0,0,0,0,0*4C
---00000008--- Acq_st=3 0  2019-4-15 2:22:23 
[00]  02(G03)  f 42  7  0   -483.6  2046000.6 -0.1  2 0 1503 2174  804
[01]  13(G14)  7 42  8  0    803.4  2045998.9 -0.0  2 0 1845 2240 1041
[02]  15(G16)  7 43  7  0  -2673.4  2046003.4 -0.0  2 0 1582 2881 1027
[03]  21(G22)  7 42  7  0    437.8  2045999.4  0.0  2 0 1007 1785  763
[04]  22(G23)  7 37  7  0  -4359.6  2046005.6 -0.1  2 0 1110  945  305
[05]  25(G26)  7 45  7  0   -446.5  2046000.5  0.0  2 0 3273 4523 1783
[06]  28(G29)  7 34  7  0    697.6  2045999.0  0.1  5 0  516  691  708
[08]  30(G31)  7 44  7  0    309.2  2045999.5 -0.0  2 0 2093 2996 1393
[09]  31(G32)  7 42 10  0   1784.0  2045997.6  0.1  2 0 1605 2612 1143
[16]  37(B01) 1f 40 23  0  -1135.5  4092002.9  0.1  2 0  909 1069  213
[18]  39(B03) 1f 43 30  0  -1129.9  4092002.8  0.1  2 0 1781 2174 1024
[19]  40(B04) 1f 41 22  0  -1127.7  4092002.9 -0.5  2 0 1245 1586 1267
[21]  42(B06)  7 41  8  0   -641.2  4092001.5 -0.0  2 0 1320 2092 1196
[22]  43(B07)  7 43  7  0   -873.2  4092002.2 -0.0  2 0 2387 2763 1001
[24]  45(B09)  7 43  7  0  -1191.5  4092003.0 -0.0  2 0 1654 2407 1075
[25]  46(B10)  7 43  7  0  -1134.3  4092002.9  0.0  2 0 1543 2249  940
[26]  52(B16)  1  7  7  0   -691.1  4092001.7  1.0  1 0 1495 3168 1861
[27]  54(B18)  7 44  7  0   -974.8  4092002.4 -0.1  2 0 2517 3145 1175
[28]  55(B19)  1 46  7  0   1653.7  4091995.5  1.0  1 0 1907 2977 1579
[29]  57(B21)  1  7  8  0  -3423.0  4092008.8 -0.1  1 0 1107 1608  762
[30]  58(B22)  1  7  7  0   -937.3  4092002.2  1.0  1 0 2591 3767 1916
[32]  75(N-6)  1 34 15  0  -1888.0  1022001.3  0.9  1 0  2353 3301 1398
[33]  76(N-5)  1 30 15  0   2020.7  1021999.1  0.8  1 0  2051 2843 1363
[34]  79(N-2)  1 20 18  0  -4066.2  1022004.1 -0.1  1 0   145  593  678
[35]  80(N-1)  1 15 16  0  -4654.0  1022005.2 -0.1  1 0   141  833 1083
[36]  83(N02)  1 22 12  0   1250.0  1022001.6 -0.1  1 0   730 1917 1443
[37]  85(N04)  1  7  7  0   3478.2  1021999.7  0.0  1 0    66  672  912
[38]  86(N05)  1  7  7  0 -24562.1  1022003.6 -0.0  1 0   187  542 1407
[48]  37(B01)  1 10 17  0  -1603.5 20460022.9  0.1  1 0  465  200  169
[50]  39(B03)  1 16 20  0   -912.0 20460018.8  0.0  1 0  214  252  439
[51]  40(B04)  1 21 21  0   -328.0 20460017.9  0.0  1 0  521  492  381
$GNGGA,022225.048,,,,,0,00,,,M,,,,0000*22
$GNRMC,022225.048,A,,,,,,,070180,,*21
$GPGSA,A,1,,,,,,,,,,,,,,,*1E
$BDGSA,A,1,,,,,,,,,,,,,,,*0F
$GLGSA,A,1,,,,,,,,,,,,,,,*02
$GPGSV,3,1,09,03,00,000,42,14,00,000,42,16,00,000,43,22,00,000,42*72
$GPGSV,3,2,09,23,00,000,37,26,00,000,45,29,00,000,34,31,00,000,44*7F
$GPGSV,3,3,09,32,00,000,42*47
$BDGSV,2,1,08,01,00,000,41,03,00,000,43,04,00,000,41,06,00,000,41*61
$BDGSV,2,2,08,07,00,000,43,09,00,000,43,10,00,000,43,18,00,000,44*61
$B3CN0,0,0,0,0,0,0,0,0,0,0,0,0,0,0*4C
---00000009--- Acq_st=7 0  2019-4-15 2:22:24 
[00]  02(G03)  f 42  7  0   -470.8  2046000.5  0.1  2 0 1912 2692 1583
[01]  13(G14)  7 42  7  0    811.2  2045998.9 -0.0  2 0 1688 2228 1083
[02]  15(G16)  7 43  7  0  -2660.3  2046003.4  0.1  2 0 2147 3443 1452
[03]  21(G22)  7 42  7  0    453.4  2045999.3 -0.1  2 0 1604 2423 1135
[04]  22(G23)  7 37  7  0  -4353.5  2046005.6 -0.1  2 0  720  875  569
[05]  25(G26)  7 46  8  0   -436.0  2046000.5  0.0  2 0 2997 4646 2156
[06]  28(G29)  7 35  7  0    717.0  2045999.0 -0.3  2 0  720 1236   44
[08]  30(G31)  7 44  7  0    320.1  2045999.5 -0.0  2 0 2045 3507 1709
[09]  31(G32)  7 41  7  0   1794.6  2045997.6 -0.0  2 0 1413 2314 1374
[16]  37(B01) 1f 40 10  0  -1128.7  4092002.8  0.6  2 0 1344 1673  293
[18]  39(B03) 1f 42 31  0  -1118.2  4092002.8  0.4  2 0 1993 2208  755
[19]  40(B04) 1f 40 18  0  -1115.9  4092002.8  0.3  2 0 1288 1353  206
[21]  42(B06)  7 41  7  0   -631.5  4092001.5  0.1  2 0 1396 1650  646
[22]  43(B07)  7 44  7  0   -860.7  4092002.1  0.1  2 0 1862 2437  927
[24]  45(B09)  7 43  7  0  -1182.0  4092003.0  0.0  2 0 1702 2291  694
[25]  46(B10)  7 43  7  0  -1127.4  4092002.8  0.0  2 0 1769 2699 1168
[26]  52(B16)  1  7  7  0   -676.1  4092001.7  1.0  1 0 1394 2557 1426
[27]  54(B18)  7 44 12  0   -960.9  4092002.4  0.1  2 0 2831 3548 1439
[28]  55(B19)  1 46  7  0   1665.8  4091995.5  1.0  1 0 1803 2756 1261
[29]  57(B21)  1  7  7  0  -3414.6  4092008.7  0.1  1 0 1468 1975  627
[30]  58(B22)  1  7  7  0   -923.6  4092002.3  1.0  1 0 2133 4055 2231
[32]  75(N-6)  7 37 15  0  -1873.4  1022001.1  0.5  2 0  2281 3601 1574
[33]  76(N-5)  7 33 13  0   2033.6  1021998.6  0.0  5 0  2677 3072  872
[34]  79(N-2)  1 28 19  0  -4225.7  1022003.3  0.8  1 0   601  843  599
[35]  80(N-1)  1 25 18  0  -4643.7  1022002.9  0.9  1 0  1025 1668  704
[36]  83(N02)  1 25 18  0   1338.9  1021998.9  0.9  1 0  1871 2404 1159
[37]  85(N04)  1 24 14  0   3339.6  1021997.9  0.6  1 0   856  809  254
[38]  86(N05)  1 33 16  0  -4021.4  1022003.1  0.9  1 0  1111 1168  168
[48]  37(B01)  1 10 10  0  -1578.8 20460027.5  0.1  1 0  468  320   59
[50]  39(B03)  1 10 10  1  -1884.9 20460014.4  0.1  1 0  425  501  696
[51]  40(B04)  1 19 22  0  -1234.6 20460018.5 -0.2  1 0  694  630  645
$GNGGA,022226.048,,,,,0,00,,,M,,,,0000*21
$GNRMC,022226.048,A,,,,,,,070180,,*22
$GPGSA,A,1,,,,,,,,,,,,,,,*1E
$BDGSA,A,1,,,,,,,,,,,,,,,*0F
$GLGSA,A,1,,,,,,,,,,,,,,,*02
$GPGSV,3,1,09,03,00,000,42,14,00,000,42,16,00,000,43,22,00,000,42*72
$GPGSV,3,2,09,23,00,000,37,26,00,000,46,29,00,000,35,31,00,000,44*7D
$GPGSV,3,3,09,32,00,000,41*44
$BDGSV,2,1,08,01,00,000,41,03,00,000,43,04,00,000,40,06,00,000,41*60
$BDGSV,2,2,08,07,00,000,44,09,00,000,43,10,00,000,43,18,00,000,44*66
$B3CN0,0,0,0,0,0,0,0,0,0,0,0,0,0,0*4C
---00000010--- Acq_st=7 0  2019-4-15 2:22:25 
[00]  02(G03)  f 43  7  0   -467.4  2046000.5  0.0  2 0 1494 1595  621
[01]  13(G14)  f 42  7  0    817.1  2045998.9 -0.0  2 0 1878 2890 1906
[02]  15(G16)  f 43  9  0  -2656.1  2046003.4  0.0  2 0 2160 3264 1622
[03]  21(G22)  f 41  7  0    452.8  2045999.3  0.1  2 0 1636 2246 1188
[04]  22(G23)  f 37  7  0  -4342.5  2046005.6 -0.4  2 0  783 1110  593
[05]  25(G26)  f 45  7  0   -433.2  2046000.5 -0.0  2 0 3314 5082 2382
[06]  28(G29)  f 35  7  0    712.9  2045999.0  0.2  2 0  617  999   49
[08]  30(G31)  f 44  7  0    324.1  2045999.5  0.0  2 0 2231 3689 1596
[09]  31(G32)  f 42  7  0   1798.4  2045997.6  0.1  2 0 1626 2530 1077
[16]  37(B01) 1f 41 10  0  -1120.6  4092002.9 -0.4  2 0 1060 1702  996
[18]  39(B03) 1f 45 29  0  -1113.3  4092002.8 -0.2  2 0 1646 1819  355
[19]  40(B04) 1f 40 23  0  -1112.1  4092002.9  0.3  2 0 1187 1555  738
[21]  42(B06)  7 42  8  0   -627.1  4092001.5 -0.1  2 0 1458 1598  728
[22]  43(B07)  7 43  7  0   -858.1  4092002.1 -0.0  2 0 2421 3361 1651
[24]  45(B09)  7 43  7  0  -1181.4  4092003.0 -0.0  2 0 2188 2287  772
[25]  46(B10)  7 43  7  0  -1121.2  4092002.8 -0.0  2 0 1814 1895  680
[27]  54(B18)  7 44  9  0   -959.8  4092002.4  0.0  2 0 2037 2573  991
[32]  75(N-6)  7 48 17  0  -1869.4  1022001.1  0.1  2 0  2285 3414 1316
[33]  76(N-5)  7 48 17  0   2038.4  1021998.6 -0.1  2 0  2093 3169 1318
[34]  79(N-2)  7 12  7  0  -4231.2  1022002.6  0.6 10 0   586  569  227
[35]  80(N-1)  7 43 17  0  -4640.5  1022002.9  0.1  2 0  1014 1359  596
[36]  83(N02)  7 46 19  0   1343.1  1021999.0  0.0  2 0  1914 1949  674
[37]  85(N04)  7 37  9  0   3336.1  1021997.7 -0.1  2 0   507  954  151
[38]  86(N05)  7 37 17  0  -4019.4  1022002.5  0.2  2 0   890 1495  642
[50]  39(B03)  1 22 24  0  -2336.6 20460019.3  0.2  1 0  499  269  311
[51]  40(B04)  1 27 21  0   -822.8 20460025.8 -0.1  1 0  652  245  285
$GNGGA,022227.048,,,,,0,00,,,M,,,,0000*20
$GNRMC,022227.048,A,,,,,,,150419,,*25
$GPGSA,A,1,,,,,,,,,,,,,,,*1E
$BDGSA,A,1,,,,,,,,,,,,,,,*0F
$GLGSA,A,1,,,,,,,,,,,,,,,*02
$GPGSV,3,1,09,03,00,000,43,14,00,000,42,16,00,000,43,22,00,000,41*70
$GPGSV,3,2,09,23,00,000,37,26,00,000,45,29,00,000,35,31,00,000,44*7E
$GPGSV,3,3,09,32,00,000,42*47
$BDGSV,2,1,08,01,00,000,40,03,00,000,45,04,00,000,40,06,00,000,42*64
$BDGSV,2,2,08,07,00,000,43,09,00,000,43,10,00,000,43,18,00,000,44*61
$B3CN0,0,0,0,0,0,0,0,0,0,0,0,0,0,0*4C
---00000011--- Acq_st=3 0  2019-4-15 2:22:26 
[00]  02(G03)  f 43  7  0   -453.3  2046000.5  0.0  2 0 1823 2732 1486
[01]  13(G14)  f 42  7  0    834.0  2045998.9  0.0  2 0 2076 3053 1114
[02]  15(G16)  f 44  7  0  -2640.0  2046003.4  0.0  2 0 1839 2985 1361
[03]  21(G22)  f 42  7  0    471.0  2045999.3  0.0  2 0 1683 2756  952
[04]  22(G23)  f 37  7  0  -4326.5  2046005.5 -0.4  2 0 1008 1489 1064
[05]  25(G26)  f 45  7  0   -417.0  2046000.5  0.0  2 0 3081 4716 2185
[06]  28(G29)  f 34  7  0    730.9  2045999.0 -0.1  2 0  607  795  513
[08]  30(G31)  f 44  7  0    339.5  2045999.5 -0.0  2 0 1861 3032  995
[09]  31(G32)  f 42  7  0   1816.1  2045997.6  0.0  2 0 1251 2473 1615
[16]  37(B01) 1f 41 18  0  -1105.5  4092002.9 -0.6  2 0 1169 1580  756
[18]  39(B03) 1f 42 30  0  -1096.9  4092002.7 -0.3  2 0 1236 2093  969
[19]  40(B04) 1f 41 21  0  -1096.4  4092002.7 -0.3  2 0 1261 1536  282
[21]  42(B06)  7 42  7  0   -609.5  4092001.5  0.0  2 0 1820 2187  815
[22]  43(B07)  7 44  7  0   -841.9  4092002.1 -0.1  2 0 1672 2808 1587
[24]  45(B09)  7 43  7  0  -1163.0  4092002.9  0.1  2 0 1962 2596  944
[25]  46(B10)  7 43  7  0  -1106.5  4092002.8  0.0  2 0 1868 2550 1021
[27]  54(B18)  7 44  7  0   -944.4  4092002.3 -0.0  2 0 2610 3248 1558
[32]  75(N-6)  7 48 15  0  -1850.4  1022001.1  0.0  2 0  2244 3874 1602
[33]  76(N-5)  7 48 17  0   2057.8  1021998.6 -0.1  2 0  2010 3282 1580
[34]  79(N-2)  7 36 15  0  -4215.1  1022002.5 -0.1  2 0   684  733  312
[35]  80(N-1)  7 43 17  0  -4620.1  1022002.9  0.0  2 0   765 1158  270
[36]  83(N02)  7 46 17  0   1362.2  1021999.1  0.0  2 0  1394 1837  883
[37]  85(N04)  7 38 16  0   3357.1  1021997.7 -0.3  2 0   847  935  533
[38]  86(N05)  7 43 16  0  -3999.3  1022002.5 -0.1  2 0   722 1193  390
[48]  37(B01)  1 22 10  0   -481.3 20460017.5  0.1  1 0  307  624  800
$GNGGA,022228.048,,,,,0,00,,,M,,,,0000*2F
$GNRMC,022228.048,A,,,,,,,150419,,*2A
$GPGSA,A,1,,,,,,,,,,,,,,,*1E
$BDGSA,A,1,,,,,,,,,,,,,,,*0F
$GLGSA,A,1,,,,,,,,,,,,,,,*02
$GPGSV,3,1,09,03,00,000,43,14,00,000,42,16,00,000,44,22,00,000,42*74
$GPGSV,3,2,09,23,00,000,37,26,00,000,45,29,00,000,34,31,00,000,44*7F
$GPGSV,3,3,09,32,00,000,42*47
$BDGSV,2,1,08,01,00,000,40,03,00,000,43,04,00,000,40,06,00,000,42*62
$BDGSV,2,2,08,07,00,000,44,09,00,000,43,10,00,000,43,18,00,000,44*66
$B3CN0,0,0,0,0,0,0,0,0,0,0,0,0,0,0*4C
---00000012--- Acq_st=3 0  2019-4-15 2:22:27 
[00]  02(G03)  f 43 10  0   -464.4  2046000.5  0.0  2 0 1491 2461 1296
[01]  13(G14)  f 43  7  0    822.4  2045998.8 -0.0  2 0 1599 1869  787
[02]  15(G16)  f 44 10  0  -2655.5  2046003.4 -0.0  2 0 1976 3654 1835
[03]  21(G22)  f 42  7  0    459.1  2045999.3 -0.0  2 0 1348 2842 1453
[04]  22(G23)  f 38  7  0  -4340.1  2046005.5  0.2  2 0 1469 1353  793
[05]  25(G26)  f 46  9  0   -426.8  2046000.5 -0.0  2 0 2908 4691 2001
[06]  28(G29)  f 35  7  0    720.1  2045999.0 -0.1  2 0  174  370  602
[08]  30(G31)  f 44  7  0    326.4  2045999.5 -0.0  2 0 2425 3442 1600
[09]  31(G32)  f 41  7  0   1802.4  2045997.6 -0.1  2 0 1345 2183 1040
[10]  26(G27)  1  7  7  0  -4750.0  2046007.8 -0.0  1 0   95  518  614
[16]  37(B01) 1f 41 10  0  -1115.3  4092002.7 -0.3  2 0  801  991  429
[18]  39(B03) 1f 43 30  0  -1110.2  4092002.8 -0.0  2 0 1570 2153  574
[19]  40(B04) 1f 41 19  0  -1106.2  4092002.8 -0.1  2 0 1270 1709  690
[21]  42(B06) 1f 41  7  0   -623.7  4092001.5 -0.0  2 0 1285 1623  638
[22]  43(B07) 1f 43  7  0   -854.4  4092002.1  0.1  2 0 1719 2429  931
[24]  45(B09) 1f 43  7  0  -1174.5  4092003.0 -0.0  2 0 1864 2833 1191
[25]  46(B10) 1f 43  7  0  -1115.4  4092002.8  0.0  2 0 1793 2349  641
[27]  54(B18) 1f 44  7  0   -955.9  4092002.4  0.0  2 0 2357 2857 1010
[32]  75(N-6)  7 48 18  0  -1864.0  1022001.2  0.0  2 0  2076 3657 1717
[33]  76(N-5)  7 48 17  0   2043.8  1021998.6 -0.0  2 0  1947 3075 1599
[34]  79(N-2)  7 36 15  0  -4227.5  1022002.7  0.1  2 0   424  527  150
[35]  80(N-1)  7 43 18  0  -4634.2  1022002.9 -0.1  2 0   931 1435  632
[36]  83(N02)  7 46 15  0   1347.2  1021999.1 -0.1  2 0  1342 2355 1067
[37]  85(N04)  7 38 12  0   3340.8  1021997.7  0.5  2 0   482 1012  429
[38]  86(N05)  7 43 17  0  -4013.0  1022002.5 -0.1  2 0   863 1169  888
[48]  37(B01)  1 16 16  1    179.3 20460018.0 -0.0  1 0  395  146  357
[50]  39(B03)  1 17 13  0   -710.6 20460009.3 -0.0  1 0  662  260  104
[51]  40(B04)  1 23 24  0   -883.7 20460016.2 -0.0  1 0  358  196  240
$GNGGA,022229.048,,,,,0,00,,,M,,,,0000*2E
$GNRMC,022229.048,A,,,,,,,150419,,*2B
$GPGSA,A,1,,,,,,,,,,,,,,,*1E
$BDGSA,A,1,,,,,,,,,,,,,,,*0F
$GLGSA,A,1,,,,,,,,,,,,,,,*02
$GPGSV,3,1,09,03,00,000,43,14,00,000,42,16,00,000,45,22,00,000,43*74
$GPGSV,3,2,09,23,00,000,38,26,00,000,46,29,00,000,35,31,00,000,45*73
$GPGSV,3,3,09,32,00,000,41*44
$BDGSV,2,1,08,01,00,000,40,03,00,000,43,04,00,000,40,06,00,000,41*61
$BDGSV,2,2,08,07,00,000,44,09,00,000,43,10,00,000,43,18,00,000,44*66
$B3CN0,0,0,0,0,0,0,0,0,0,0,0,0,0,0*4C
---00000013--- Acq_st=3 0  2019-4-15 2:22:28 
[00]  02(G03)  f 43 11  0   -459.5  2046000.5 -0.1  2 0 1029 2263 1404
[01]  13(G14)  f 42  7  0    829.7  2045998.9  0.0  2 0 2031 3540 1761
[02]  15(G16)  f 45  7  0  -2643.8  2046003.4  0.0  2 0 2470 3501 1848
[03]  21(G22)  f 43  7  0    464.3  2045999.3  0.0  2 0  988 2538 1187
[04]  22(G23)  f 38  7  0  -4332.7  2046005.5  0.4  2 0 1647 1585  634
[05]  25(G26)  f 46 10  0   -421.0  2046000.5  0.0  2 0 3523 5119 2409
[06]  28(G29)  f 35  7  0    720.2  2045998.9 -0.2  2 0  670 1026 1024
[08]  30(G31)  f 45  7  0    334.5  2045999.5  0.0  2 0 2928 3847 1413
[09]  31(G32)  f 41  7  0   1810.1  2045997.6  0.1  2 0 1582 2203 1087
[10]  26(G27)  1 29  7  0  -4676.0  2046006.3  0.6  1 0  533 1010  628
[16]  37(B01) 1f 40 22  0  -1110.6  4092002.8 -0.1  2 0  939 1637  785
[17]  38(B02)  1 40 23  0  -1064.1  4092004.0  0.9  1 0 1022 1479  773
[18]  39(B03) 1f 43 31  0  -1103.9  4092002.8  0.1  2 0 1373 1879  904
[19]  40(B04) 1f 40 27  0  -1098.1  4092002.9  0.1  2 0 1103 1869  937
[20]  41(B05)  1 10 10  0   -681.4  4092001.7 -0.2  1 0  395  758  530
[21]  42(B06) 1f 41  9  0   -617.2  4092001.5  0.0  2 0 1437 2087  757
[22]  43(B07) 1f 44  7  0   -845.4  4092002.1 -0.1  2 0 1538 2539 1031
[24]  45(B09) 1f 43  7  0  -1167.6  4092002.9 -0.0  2 0 1967 2334  652
[25]  46(B10) 1f 43  7  0  -1110.4  4092002.8  0.0  2 0 1816 2622 1158
[27]  54(B18) 1f 44  7  0   -948.1  4092002.4 -0.1  2 0 2568 2772 1029
[32]  75(N-6)  f 40  7  0  -1854.3  1022001.1  0.0  2 0  2035 3385 1545
[33]  76(N-5)  f 40  7  0   2053.5  1021998.6  0.1  2 0  1590 3329 1689
[34]  79(N-2)  7 36 15  0  -4218.2  1022002.7  0.4  2 0   412  404  399
[35]  80(N-1)  f 38  7  0  -4625.5  1022002.9  0.0  2 0  1017 1821  832
[36]  83(N02)  f 39  9  0   1356.9  1021999.1  0.0  2 0  1711 2484 1298
[37]  85(N04)  f 35  7  0   3351.2  1021997.8  0.0  2 0   860 1301  651
[38]  86(N05)  7 42 17  0  -4004.6  1022002.4 -0.3  2 0  1154 1438  850
[48]  37(B01)  1 10 10  1    128.4 20460019.6 -0.0  1 0  545  557  316
[50]  39(B03)  1 22 17  1    -54.0 20460022.6  0.0  1 0  402  315  261
[51]  40(B04)  1 10 26  1   -998.9 20460017.8  0.1  1 0  937  950  922
[53]  42(B06)  1  7  7  0   -493.4 20460007.7  0.0  1 0  579  225  252
[54]  43(B07)  1  7  7  0   -668.3 20460010.7 -0.1  1 0  671  208  160
[56]  45(B09)  1  7  7  0  -1050.7 20460016.7  0.2  1 0  482  145  711
[57]  46(B10)  1  7  7  0  -1225.7 20460015.9 -0.1  1 0  769  682  200
[59]  54(B18)  1  7  7  0   -737.0 20460015.3  0.1  1 0  153  539  497
---00000014--- Acq_st=3 0  2019-4-15 2:22:29 
[00]  02(G03)  f 43  7  0   -452.4  2046000.5  0.1  2 0 1531 2325  928
[01]  13(G14)  f 42  7  0    832.3  2045998.9  0.0  2 0 1792 2179  663
[02]  15(G16)  f 44  7  0  -2640.9  2046003.4 -0.0  2 0 2220 3074 1663
[03]  21(G22)  f 42  7  0    466.5  2045999.4 -0.0  2 0 1505 2478 1398
[04]  22(G23)  f 38  7  0  -4327.9  2046005.6  0.0  2 0 1220 1958 1226
[05]  25(G26)  f 46  7  0   -417.5  2046000.5  0.0  2 0 2496 4814 2189
[06]  28(G29)  f 35  7  0    731.0  2045999.0 -0.1  2 0 1135 1781  785
[08]  30(G31)  f 45  7  0    338.8  2045999.5 -0.0  2 0 2344 3519 1748
[09]  31(G32)  f 41  7  0   1814.3  2045997.6 -0.1  2 0 1097 2284 1415
[10]  26(G27)  7 28  7  0  -4696.9  2046006.0  0.6 10 0  771 1562  960
[16]  37(B01) 1f 41 17  0  -1106.7  4092002.8  0.0  2 0 1546 1936  917
[17]  38(B02)  f 39 28  0  -1058.8  4092002.5 -0.2  2 0 1469  936  160
[18]  39(B03) 1f 42 31  0  -1102.4  4092002.8  0.7  2 0 1507 1923  639
[19]  40(B04) 1f 41 36  0  -1090.9  4092002.7 -0.4  2 0  984  952  534
[20]  41(B05)  1 20 10  0   -605.8  4092001.9 -0.2  1 0  405  485  244
[21]  42(B06) 1f 42  7  0   -613.4  4092001.5  0.0  2 0 1211 1551  902
[22]  43(B07) 1f 44  7  0   -843.9  4092002.1  0.0  2 0 2619 3204 1463
[24]  45(B09) 1f 44  7  0  -1167.2  4092002.9 -0.0  2 0 2152 2777 1155
[25]  46(B10) 1f 43  7  0  -1109.6  4092002.8  0.0  2 0 1724 2420 1372
[26]  52(B16)  1  7  7  0   -656.3  4092004.2 -0.2  1 0  248 1086 2618
[27]  54(B18) 1f 44  7  0   -948.1  4092002.3 -0.0  2 0 1856 2605 1210
[28]  55(B19)  1  7  7  0   1750.0  4091997.0  0.1  1 0  835 2947 1981
[29]  57(B21)  1  7  7  0  -3500.0  4092011.0 -0.0  1 0  623  119 1256
[30]  58(B22)  1  7  7  0  -1000.0  4092003.6  0.0  1 0  837 2523 2498
[32]  75(N-6)  f 46  8  0  -1851.0  1022001.2 -0.0  2 0  2440 3621 1694
[33]  76(N-5)  f 46  7  0   2055.4  1021998.6  0.0  2 0  2167 3295 1754
[34]  79(N-2)  7 37 17  0  -4217.9  1022002.6  0.4  2 0   491 1129  544
[35]  80(N-1)  f 42  7  0  -4623.4  1022002.9 -0.1  2 0   971 1762  711
[36]  83(N02)  f 45 11  0   1358.5  1021999.1  0.0  2 0  1431 2402 1035
[37]  85(N04)  f 37  7  0   3353.8  1021997.8  0.2  2 0   564  794  372
[38]  86(N05)  f 38  7  0  -4001.5  1022002.5  0.1  2 0  1184 1809  890
[48]  37(B01)  1 13 14  1    297.1 20460022.9  0.2  1 0  422  461  450
[50]  39(B03)  1 10 22  0   -493.1 20460025.4 -0.1  1 0  363   54  367
[51]  40(B04)  1 23 23  0  -1142.1 20460018.8 -0.0  1 0  234  460  340
[53]  42(B06)  1  7  7  0   -244.8 20460008.6 -0.1  1 0  378   95  655
[54]  43(B07)  7 19  7  0   -698.0 20460010.5  0.1 10 0  337  213   98
[56]  45(B09)  1  7  7  0  -1552.1 20460017.6 -0.1  1 0  459  402  493
[57]  46(B10)  1  7  7  0   -532.3 20460015.4 -0.1  1 0  567  632  119
[59]  54(B18)  1  7  7  0   -570.0 20460015.8 -0.0  1 0  361  360  384
$GNGGA,022230.048,,,,,0,00,,,M,,,,0000*26
$GNRMC,022230.048,A,,,,,,,150419,,*23
$GPGSA,A,1,,,,,,,,,,,,,,,*1E
$BDGSA,A,1,,,,,,,,,,,,,,,*0F
$GLGSA,A,1,,,,,,,,,,,,,,,*02
$GPGSV,3,1,10,03,00,000,43,14,00,000,42,16,00,000,44,22,00,000,42*7C
$GPGSV,3,2,10,23,00,000,38,26,00,000,46,29,00,000,35,31,00,000,45*7B
$GPGSV,3,3,10,32,00,000,41,27,00,000,28*73
$BDGSV,3,1,09,01,00,000,41,02,00,000,39,03,00,000,42,04,00,000,41*6B
$BDGSV,3,2,09,06,00,000,42,07,00,000,44,09,00,000,44,10,00,000,43*68
$BDGSV,3,3,09,18,00,000,44*58
$B3CN0,0,0,0,0,0,0,19,0,0,0,0,0,0,0*74
---00000015--- Acq_st=3 0  2019-4-15 2:22:30 
[00]  02(G03)  f 42  7  0   -458.2  2046000.5 -0.1  2 0 1677 2412  856
[01]  13(G14)  f 43  7  0    828.0  2045998.8  0.0  2 0 1751 3145 1711
[02]  15(G16)  f 44  7  0  -2644.6  2046003.4 -0.0  2 0 1878 3548 1739
[03]  21(G22)  f 43  7  0    464.8  2045999.4  0.0  2 0 1477 2170  481
[04]  22(G23)  f 38  7  0  -4340.4  2046005.5 -0.2  2 0 1102 1035  474
[05]  25(G26)  f 45  7  0   -421.0  2046000.5 -0.0  2 0 3173 5173 2742
[06]  28(G29)  f 35  7  0    730.3  2045999.0 -0.1  2 0  559  550  301
[08]  30(G31)  f 45  7  0    332.4  2045999.5 -0.0  2 0 2550 4065 1933
[09]  31(G32)  f 41  7  0   1808.8  2045997.6 -0.0  2 0 1753 2141  709
[10]  26(G27)  7 35  7  0  -4705.0  2046006.0  0.1  2 0  449  465  507
[16]  37(B01) 1f 41 20  0  -1110.5  4092002.8 -0.1  2 0 1619 1986  938
[17]  38(B02)  f 40 22  0  -1059.8  4092002.6 -0.5  2 0 1213  851  246
[18]  39(B03) 1f 42 30  0  -1106.8  4092002.8  0.3  2 0 1508 2372 1004
[19]  40(B04) 1f 41 23  0  -1101.4  4092002.7 -0.1  2 0 1276 1995  972
[20]  41(B05)  1 10 10  0   -665.9  4092002.8  0.0  1 0  412  464  327
[21]  42(B06) 1f 42  7  0   -617.8  4092001.5 -0.0  2 0 1253 2056 1203
[22]  43(B07) 1f 44  7  0   -851.6  4092002.1  0.0  2 0 2091 3193 1391
[24]  45(B09) 1f 43  7  0  -1171.7  4092002.9 -0.0  2 0 1885 2300  824
[25]  46(B10) 1f 43  7  0  -1114.8  4092002.8  0.0  2 0 1898 2179  856
[26]  52(B16)  7  7  7  0   -666.6  4092001.6  0.3 10 0 1510 1954  556
[27]  54(B18) 1f 44  7  0   -951.5  4092002.4 -0.0  2 0 2547 3192 1330
[28]  55(B19)  1  7  7  0   1677.4  4091995.3  0.1  1 0 1743 2673 1036
[29]  57(B21)  1 31  7  0  -3396.8  4092009.2  0.5  1 0 1301 1749  624
[30]  58(B22)  1  7  7  0   -909.2  4092002.4  0.1  1 0 2037 4031 1911
[32]  75(N-6)  f 46  7  0  -1855.5  1022001.1  0.0  2 0  2126 3427 1533
[33]  76(N-5)  f 45  7  0   2051.9  1021998.7  0.0  2 0  1894 3675 1695
[34]  79(N-2)  f 35  7  0  -4221.1  1022002.6 -0.1  2 0   509 1029  618
[35]  80(N-1)  f 43  7  0  -4626.5  1022002.9 -0.0  2 0  1115 1673  642
[36]  83(N02)  f 45  7  0   1353.5  1021999.1  0.1  2 0  1138 2024 1194
[37]  85(N04)  f 36  7  0   3349.8  1021997.8 -0.1  2 0   331  447  623
[38]  86(N05)  f 42  7  0  -4005.4  1022002.5 -0.0  2 0   897 1761  964
[49]  38(B02)  1 10 16  1   -750.8 20460017.6 -0.0  1 0  378  555  560
[50]  39(B03)  1 18 20  0   -978.7 20460024.7 -0.1  1 0  204  384  233
[51]  40(B04)  1 25 25  1   -826.6 20460026.6 -0.1  1 0  163  333  225
[53]  42(B06)  1  7  9  0   -425.1 20460008.4 -0.1  1 0  271  546  612
[54]  43(B07)  7 27 12  0   -702.3 20460010.2 -0.1 10 0  485  141  212
[56]  45(B09)  1  7  7  0   -862.3 20460017.5 -0.2  1 0  679   46  540
[57]  46(B10)  1  7  7  0   -481.2 20460014.9 -0.0  1 0  524  334  357
[59]  54(B18)  1  7  7  0  -1561.5 20460015.4 -0.1  1 0 1297  647  450
$GNGGA,022231.048,,,,,0,00,,,M,,,,0000*27
$GNRMC,022231.048,A,,,,,,,150419,,*22
$GPGSA,A,1,,,,,,,,,,,,,,,*1E
$BDGSA,A,1,,,,,,,,,,,,,,,*0F
$GLGSA,A,1,,,,,,,,,,,,,,,*02
$GPGSV,3,1,10,03,00,000,42,14,00,000,43,16,00,000,44,22,00,000,43*7D
$GPGSV,3,2,10,23,00,000,38,26,00,000,45,29,00,000,35,31,00,000,45*78
$GPGSV,3,3,10,32,00,000,41,27,00,000,35*7F
$BDGSV,3,1,09,01,00,000,41,02,00,000,40,03,00,000,42,04,00,000,41*65
$BDGSV,3,2,09,06,00,000,42,07,00,000,44,09,00,000,43,10,00,000,43*6F
$BDGSV,3,3,09,18,00,000,44*58
$B3CN0,0,0,0,0,0,0,27,0,0,0,0,0,0,0*79
---00000016--- Acq_st=2 0  2019-4-15 2:22:31 
[00]  02(G03)  f 42  7  0   -464.6  2046000.6 -0.0  2 0 1570 2256  621
[01]  13(G14)  f 42  7  0    823.0  2045998.9  0.0  2 0 1442 2523 1389
[02]  15(G16)  f 44  7  0  -2650.1  2046003.4  0.0  2 0 2424 3352 1497
[03]  21(G22)  f 43  7  0    454.7  2045999.4 -0.1  2 0 1315 2496 1513
[04]  22(G23)  f 38  7  0  -4342.5  2046005.6  0.3  2 0  764 1330 1101
[05]  25(G26)  f 45  7  0   -428.6  2046000.5  0.0  2 0 2740 4678 2066
[06]  28(G29)  f 35  7  0    724.2  2045999.0 -0.1  2 0  641 1003  397
[08]  30(G31)  f 45  7  0    326.8  2045999.5  0.0  2 0 2359 3498 1276
[09]  31(G32)  f 42  7  0   1798.4  2045997.6  0.1  2 0 1881 2227  634
[10]  26(G27)  f 34  8  0  -4710.3  2046006.0 -0.3  2 0  906 1080  690
[16]  37(B01) 1f 41 10  0  -1118.9  4092002.8  0.2  2 0 1590 1797  556
[17]  38(B02)  f 39 27  0  -1068.6  4092002.6  0.3  2 0 1250 1258  463
[18]  39(B03) 1f 43 30  0  -1113.6  4092002.8 -0.6  2 0 1854 2581  929
[19]  40(B04) 1f 40 16  0  -1112.2  4092002.8  0.5  2 0 1232 1625  703
[20]  41(B05)  1 36 33  1    -62.9  4092002.5  0.1  1 0  161   50  319
[21]  42(B06) 1f 41 10  0   -624.0  4092001.5 -0.0  2 0 1429 1515  612
[22]  43(B07) 1f 44  7  0   -854.0  4092002.1  0.0  2 0 2258 3078 1661
[24]  45(B09) 1f 43  7  0  -1179.0  4092003.0 -0.1  2 0 2112 2915 1490
[25]  46(B10) 1f 44  7  0  -1120.4  4092002.8 -0.1  2 0 2095 2819 1213
[26]  52(B16)  7 43  7  0   -670.4  4092001.6  0.1  2 0 2138 2447  977
[27]  54(B18) 1f 44  7  0   -958.3  4092002.4  0.0  2 0 2493 3183 1456
[28]  55(B19)  7 34  7  0   1673.3  4091995.5  0.1  5 0 1387 2196  829
[29]  57(B21)  7 29  7  0  -3407.2  4092008.8  0.4  5 0 1114 1632  673
[30]  58(B22)  7 28  7  0   -914.2  4092002.4  0.2 10 0 1944 3649 2097
[32]  75(N-6)  f 46  7  0  -1862.5  1022001.2  0.0  2 0  2090 3789 1908
[33]  76(N-5)  f 46  7  0   2044.1  1021998.6 -0.0  2 0  2084 3595 1938
[34]  79(N-2)  f 36  7  0  -4230.0  1022002.7 -0.1  2 0   433  547  486
[35]  80(N-1)  f 43  7  0  -4634.6  1022002.9  0.1  2 0   976 1351  534
[36]  83(N02)  f 45 11  0   1345.3  1021999.1 -0.0  2 0  1688 2708 1395
[37]  85(N04)  f 35  7  0   3337.6  1021997.8  0.1  2 0   473 1118  613
[38]  86(N05) 8f 42  7  0  -4013.5  1022002.5  0.1  2 0  1056 1442  721
[48]  37(B01)  1 18 17  1   -859.6 20460020.0  0.1  1 0   61  301  831
[49]  38(B02)  7 20 10  0   -500.8 20460008.3  0.0  2 0  967  349  449
[53]  42(B06)  1  7  7  0   -499.8 20460008.1  0.2  1 0  405  543  365
[54]  43(B07)  7 27  8  0   -708.7 20460010.4 -0.1 10 0  266  559  280
[56]  45(B09)  1  7  7  0   -456.7 20460018.0  0.1  1 0  649  475  315
[57]  46(B10)  1  7  7  0   -810.6 20460014.7  0.1  1 0  306  488  664
[59]  54(B18)  1  7  7  0  -1923.6 20460017.2 -0.1  1 0  634  448  229
$GNGGA,022232.048,,,,,0,00,,,M,,,,0000*24
$GNRMC,022232.048,A,,,,,,,150419,,*21
$GPGSA,A,1,,,,,,,,,,,,,,,*1E
$BDGSA,A,1,,,,,,,,,,,,,,,*0F
$GLGSA,A,1,,,,,,,,,,,,,,,*02
$GPGSV,3,1,10,03,00,000,42,14,00,000,42,16,00,000,44,22,00,000,43*7C
$GPGSV,3,2,10,23,00,000,38,26,00,000,45,29,00,000,35,31,00,000,45*78
$GPGSV,3,3,10,32,00,000,42,27,00,000,34*7D
$BDGSV,3,1,12,01,00,000,42,02,00,000,39,03,00,000,43,04,00,000,40*62
$BDGSV,3,2,12,06,00,000,41,07,00,000,44,09,00,000,43,10,00,000,44*61
$BDGSV,3,3,12,16,00,000,43,18,00,000,44,19,00,000,34,21,00,000,29*65
$B3CN0,0,18,0,0,0,0,27,0,0,0,0,0,0,0*40
---00000017--- Acq_st=7 0  2019-4-15 2:22:32 
[00]  02(G03)  f 43  7  0   -461.6  2046000.5  0.1  2 0 1041 2607 1048
[01]  13(G14)  f 43  7  0    824.5  2045998.9 -0.0  2 0 1737 2565 1482
[02]  15(G16)  f 45  7  0  -2647.4  2046003.4  0.0  2 0 2251 3191 1320
[03]  21(G22)  f 43  7  0    456.7  2045999.4  0.1  2 0 1458 2554  906
[04]  22(G23)  f 38  7  0  -4342.1  2046005.6 -0.2  2 0 1303 1812  654
[05]  25(G26)  f 45  8  0   -426.3  2046000.5  0.0  2 0 3229 5017 2261
[06]  28(G29)  f 35  7  0    719.2  2045999.0  0.1  2 0  521 1118 1115
[08]  30(G31)  f 45  7  0    326.5  2045999.5 -0.0  2 0 2827 4140 1869
[09]  31(G32)  f 42  7  0   1801.5  2045997.6  0.0  2 0 1018 2054 1069
[10]  26(G27)  f 35  7  0  -4703.6  2046006.0 -0.1  2 0  404  988  342
[16]  37(B01) 1f 41 18  0  -1121.1  4092002.9  0.1  2 0 1233 1806  503
[17]  38(B02) 1f 38 29  0  -1065.5  4092002.5 -0.2  2 0 1127 1318  622
[18]  39(B03) 1f 43 29  0  -1111.8  4092002.9  0.4  2 0 1700 2635 1306
[19]  40(B04) 1f 41 19  0  -1113.4  4092002.8  0.7  2 0 1294 1468  937
[21]  42(B06) 1f 42  8  0   -626.4  4092001.5  0.0  2 0 1499 1864  634
[22]  43(B07) 1f 44  7  0   -854.9  4092002.1  0.1  2 0 1871 2513 1202
[24]  45(B09) 1f 43  7  0  -1176.8  4092003.0  0.0  2 0 2150 2747 1358
[25]  46(B10) 1f 43  7  0  -1118.6  4092002.8 -0.0  2 0 2222 2738  918
[26]  52(B16)  7 43  7  0   -666.9  4092001.6  0.0  2 0 2517 2792 1118
[27]  54(B18) 1f 44  7  0   -958.2  4092002.4 -0.0  2 0 2530 3272 1166
[28]  55(B19)  7 43  7  0   1678.1  4091995.5  0.1  2 0 1764 2581 1177
[29]  57(B21)  7 41  9  0  -3404.3  4092008.8 -0.1  2 0 1119 1442  671
[30]  58(B22)  7 46 11  0   -909.9  4092002.3  0.1  2 0 2154 3636 1672
[32]  75(N-6) 8f 46  7  0  -1858.3  1022001.2  0.0  2 0  1856 3327 1332
[33]  76(N-5) 8f 46  7  0   2047.3  1021998.6  0.0  2 0  1808 3788 2043
[34]  79(N-2)  f 36  7  0  -4227.1  1022002.7  0.0  2 0   247  553  365
[35]  80(N-1) 8f 43  7  0  -4631.7  1022002.9 -0.0  2 0   757 1268  682
[36]  83(N02) 8f 44  7  0   1348.4  1021999.1  0.0  2 0  1639 2662 1268
[37]  85(N04) 8f 34  7  0   3345.4  1021997.8 -0.1  2 0   397  795  316
[38]  86(N05) 8f 41  7  0  -4009.9  1022002.6  0.0  2 0   817 1411  141
[48]  37(B01)  1 14 14  1   -630.9 20460020.6 -0.2  1 0  962  253  267
[49]  38(B02)  7 17 10  0   -680.4 20460012.4  0.1  2 0  472  344  672
[50]  39(B03)  1 17 36  1   -961.6 20460019.5 -0.1  1 0  648  568  149
[51]  40(B04)  1 19 18  0  -1069.2 20460021.8 -0.1  1 0  594  600   88
[54]  43(B07)  7 27  8  0   -698.8 20460010.3  0.1 10 0  727  678  550
$GNGGA,022233.048,,,,,0,00,,,M,,,,0000*25
$GNRMC,022233.048,A,,,,,,,150419,,*20
$GPGSA,A,1,,,,,,,,,,,,,,,*1E
$BDGSA,A,1,,,,,,,,,,,,,,,*0F
$GLGSA,A,1,,,,,,,,,,,,,,,*02
$GPGSV,3,1,10,03,00,000,43,14,00,000,43,16,00,000,45,22,00,000,43*7D
$GPGSV,3,2,10,23,00,000,38,26,00,000,45,29,00,000,35,31,00,000,45*78
$GPGSV,3,3,10,32,00,000,42,27,00,000,35*7C
$BDGSV,3,1,12,01,00,000,41,02,00,000,38,03,00,000,43,04,00,000,41*61
$BDGSV,3,2,12,06,00,000,42,07,00,000,44,09,00,000,43,10,00,000,43*65
$BDGSV,3,3,12,16,00,000,43,18,00,000,44,19,00,000,43,21,00,000,41*6B
$B3CN0,0,18,0,0,0,0,27,0,0,0,0,0,0,0*40
---00000018--- Acq_st=7 0  2019-4-15 2:22:33 
[00]  02(G03)  f 42  7  0   -475.0  2046000.5 -0.1  2 0 1424 2319 1327
[01]  13(G14)  f 43  7  0    810.9  2045998.9 -0.0  2 0 1905 2684  662
[02]  15(G16)  f 44  7  0  -2664.4  2046003.4 -0.0  2 0 2455 3540 1671
[03]  21(G22)  f 42  7  0    442.0  2045999.4  0.0  2 0 1765 2818 1069
[04]  22(G23)  f 38  7  0  -4355.1  2046005.6 -0.1  2 0  476 1123  496
[05]  25(G26)  f 45  7  0   -439.9  2046000.5 -0.0  2 0 2756 4674 2106
[06]  28(G29)  f 35  9  0    708.4  2045999.1 -0.0  2 0  420  526  265
[08]  30(G31)  f 44  7  0    313.3  2045999.5 -0.0  2 0 2695 4164 2381
[09]  31(G32)  f 42  7  0   1791.1  2045997.6 -0.0  2 0 1526 2436 1090
[10]  26(G27)  f 35  7  0  -4720.6  2046006.0 -0.2  2 0  698 1117  656
[16]  37(B01) 1f 41 20  0  -1132.9  4092002.9 -0.2  2 0 1418 1586  858
[17]  38(B02) 1f 39 21  0  -1084.2  4092002.7  0.2  2 0 1065 1121  386
[18]  39(B03) 1f 43 31  0  -1126.1  4092002.9 -0.3  2 0 1640 2115  777
[19]  40(B04) 1f 40 20  0  -1123.6  4092002.8 -0.2  2 0 1777 1904  795
[21]  42(B06) 1f 41  7  0   -636.9  4092001.6 -0.0  2 0 1742 2203 1185
[22]  43(B07) 1f 44  7  0   -869.5  4092002.1 -0.0  2 0 1716 2246  840
[24]  45(B09) 1f 43  7  0  -1189.4  4092003.0 -0.0  2 0 1883 2811 1477
[25]  46(B10) 1f 43  7  0  -1130.6  4092002.8 -0.0  2 0 1551 1767  735
[26]  52(B16) 1f 43  7  0   -683.5  4092001.7 -0.1  2 0 2054 2649 1440
[27]  54(B18) 1f 44  7  0   -970.8  4092002.4  0.0  2 0 2519 2794  943
[28]  55(B19) 1f 43  7  0   1661.8  4091995.5 -0.0  2 0 1889 2578 1118
[29]  57(B21) 1f 41  8  0  -3417.7  4092008.9 -0.0  2 0  832 1247  628
[30]  58(B22) 1f 44  7  0   -923.8  4092002.3  0.0  2 0 3255 4621 1946
[32]  75(N-6) 8f 46  7  0  -1872.3  1022001.2  0.0  2 0  2057 3386 1166
[33]  76(N-5) 8f 46  7  0   2034.2  1021998.7 -0.0  2 0  1734 3131 1463
[34]  79(N-2)  f 36  7  0  -4241.6  1022002.7  0.1  2 0   500  429  186
[35]  80(N-1) 8f 43  7  0  -4644.5  1022002.9  0.1  2 0   652 1368  555
[36]  83(N02) 8f 45  7  0   1333.2  1021999.1 -0.0  2 0  1546 2307 1227
[37]  85(N04) 8f 34  7  0   3329.0  1021997.8 -0.1  2 0   627  439  282
[38]  86(N05) 8f 42  7  0  -4025.0  1022002.5  0.0  2 0   929 1717 1196
[48]  37(B01)  1 10 10  1    -31.1 20460019.3  0.1  1 0  762  380  217
[49]  38(B02)  7 23 10  1   -922.1 20460014.9  0.1  2 0  622  520  572
[50]  39(B03)  1 18 19  1   -995.6 20460020.8 -0.0  1 0  612  231  655
[51]  40(B04)  1 22 10  1   -893.6 20460019.9 -0.0  1 0  368  250  250
[53]  42(B06)  1  7  7  0   -467.8 20460009.1 -0.2  1 0  788  701  841
[54]  43(B07)  7 27  7  0   -714.2 20460010.7  0.0 10 0  530  636  249
[56]  45(B09)  1  7  7  0   -966.7 20460015.4  0.0  1 0  813  739  381
[57]  46(B10)  1  7  7  0   -777.1 20460018.2  0.0  1 0  417  874  780
[59]  54(B18)  1  7  7  0   -587.4 20460015.0 -0.0  1 0  268  183  590
$GNGGA,022234.048,,,,,0,00,,,M,,,,0000*22
$GNRMC,022234.048,A,,,,,,,150419,,*27
$GPGSA,A,1,,,,,,,,,,,,,,,*1E
$BDGSA,A,1,,,,,,,,,,,,,,,*0F
$GLGSA,A,1,,,,,,,,,,,,,,,*02
$GPGSV,3,1,10,03,00,000,42,14,00,000,43,16,00,000,44,22,00,000,42*7C
$GPGSV,3,2,10,23,00,000,38,26,00,000,45,29,00,000,35,31,00,000,44*79
$GPGSV,3,3,10,32,00,000,42,27,00,000,35*7C
$BDGSV,3,1,12,01,00,000,41,02,00,000,40,03,00,000,43,04,00,000,40*6F
$BDGSV,3,2,12,06,00,000,41,07,00,000,44,09,00,000,43,10,00,000,43*66
$BDGSV,3,3,12,16,00,000,43,18,00,000,44,19,00,000,43,21,00,000,41*6B
$B3CN0,0,22,0,0,0,0,27,0,0,0,0,0,0,0*49
---00000019--- Acq_st=7 0  2019-4-15 2:22:34 
[00]  02(G03)  f 43  7  0   -473.3  2046000.6  0.0  2 0 1669 2052 1049
[01]  13(G14)  f 43  8  0    810.8  2045998.9 -0.0  2 0 2110 2714 1480
[02]  15(G16)  f 44  7  0  -2663.0  2046003.4  0.0  2 0 1527 2868 1167
[03]  21(G22)  f 42  7  0    448.4  2045999.4 -0.0  2 0 1166 2554 1146
[04]  22(G23)  f 38  7  0  -4354.9  2046005.6  0.3  2 0 1314 1573  567
[05]  25(G26)  f 45  8  0   -439.4  2046000.5 -0.0  2 0 2790 4451 2020
[06]  28(G29)  f 36  7  0    709.6  2045999.0 -0.1  2 0  636  972  641
[08]  30(G31)  f 44  7  0    314.1  2045999.5  0.0  2 0 2742 3837 1887
[09]  31(G32)  f 42  7  0   1792.3  2045997.6  0.1  2 0  982 1905  880
[10]  26(G27)  f 35  7  0  -4712.8  2046006.0  0.0  2 0  460  924  962
[16]  37(B01) 1f 40 18  0  -1136.2  4092002.9  0.9  2 0 1233 1729  868
[17]  38(B02) 1f 40 24  0  -1080.9  4092002.7  0.6  2 0 1214 1566  605
[18]  39(B03) 1f 43 30  0  -1125.8  4092002.8  0.1  2 0 1441 1956  875
[19]  40(B04) 1f 41 10  0  -1123.1  4092002.9 -0.1  2 0 1046 1134  650
[21]  42(B06) 1f 42  7  0   -636.8  4092001.5  0.1  2 0 1548 2009  779
[22]  43(B07) 1f 44  7  0   -869.0  4092002.2 -0.0  2 0 2624 3174 1603
[24]  45(B09) 1f 43  7  0  -1195.5  4092003.0  0.1  2 0 1575 2084  786
[25]  46(B10) 1f 43  7  0  -1131.5  4092002.8 -0.0  2 0 2174 2426  866
[26]  52(B16) 1f 43  7  0   -681.8  4092001.7  0.0  2 0 2121 2409  593
[27]  54(B18) 1f 44  7  0   -971.7  4092002.4  0.0  2 0 2664 3145  975
[28]  55(B19) 1f 43  7  0   1664.0  4091995.5  0.0  2 0 1049 2283 1476
[29]  57(B21) 1f 41  7  0  -3420.0  4092008.8  0.1  2 0 1101 1324  591
[30]  58(B22) 1f 44  7  0   -922.8  4092002.3 -0.0  2 0 2285 3378 1316
[32]  75(N-6) 8f 47  7  0  -1872.3  1022001.2 -0.1  2 0  2345 3729 2148
[33]  76(N-5) 8f 46  7  0   2034.5  1021998.7 -0.0  2 0  1883 3711 1660
[34]  79(N-2)  f 36  7  0  -4241.7  1022002.7 -0.2  2 0   379  630  447
[35]  80(N-1) 8f 43  7  0  -4645.0  1022002.9  0.0  2 0   777 1550  660
[36]  83(N02) 8f 45  7  0   1333.5  1021999.1 -0.0  2 0  1262 2276  992
[37]  85(N04) 8f 34  7  0   3324.3  1021997.9 -0.1  2 0   622  467  216
[38]  86(N05) 8f 43  7  0  -4024.4  1022002.6 -0.1  2 0  1063 1296  735
[48]  37(B01)  1 10 10  1    111.5 20460021.1 -0.1  1 0  257  303  225
[49]  38(B02)  7 10 10  0   -898.8 20460015.7 -0.1  2 0  384  229  311
[50]  39(B03)  1 10 16  0   -863.1 20460022.0  0.2  1 0  262   79  565
[51]  40(B04)  1 21 22  0   -729.2 20460025.0  0.1  1 0  107  194  252
[53]  42(B06)  1  7  8  0   -247.7 20460007.9 -0.0  1 0  671  351  513
[54]  43(B07)  7 27  7  0   -713.3 20460010.7  0.0 10 0  419  330  982
[56]  45(B09)  1  8  7  0  -1336.6 20460017.6  0.1  1 0  568  142  341
[57]  46(B10)  1 11  7  0   -392.8 20460017.0  0.0  1 0  588  680  609
[58]  52(B16)  1  7  7  0   -600.6 20460009.9 -0.0  1 0  412  732  748
[59]  54(B18)  1  7  7  0   -175.1 20460016.9  0.2  1 0  276  302  335
[60]  55(B19)  1  7  7  0   1203.0 20459974.4 -0.0  1 0  121  625  495
[61]  57(B21)  1  7  7  0  -2730.9 20460055.3 -0.0  1 0  695  633  606
[62]  58(B22)  1 10  7  0   -941.5 20460015.2  0.1  1 0  515  178  336
$GNGGA,022235.048,,,,,0,00,,,M,,,,0000*23
$GNRMC,022235.048,A,,,,,,,150419,,*26
$GPGSA,A,1,,,,,,,,,,,,,,,*1E
$BDGSA,A,1,,,,,,,,,,,,,,,*0F
$GLGSA,A,1,,,,,,,,,,,,,,,*02
$GPGSV,3,1,10,03,00,000,43,14,00,000,43,16,00,000,44,22,00,000,42*7D
$GPGSV,3,2,10,23,00,000,38,26,00,000,45,29,00,000,36,31,00,000,44*7A
$GPGSV,3,3,10,32,00,000,42,27,00,000,35*7C
$BDGSV,3,1,12,01,00,000,41,02,00,000,40,03,00,000,43,04,00,000,41*6E
$BDGSV,3,2,12,06,00,000,42,07,00,000,44,09,00,000,43,10,00,000,43*65
$BDGSV,3,3,12,16,00,000,43,18,00,000,44,19,00,000,43,21,00,000,41*6B
$B3CN0,0,0,0,0,0,0,27,0,0,0,0,0,0,0*79
---00000020--- Acq_st=3 0  2019-4-15 2:22:35 
[00]  02(G03)  f 42  7  0   -470.4  2046000.5  0.0  2 0 1479 2657 1000
[01]  13(G14)  f 43  7  0    813.4  2045998.9 -0.0  2 0 1644 2906 1434
[02]  15(G16)  f 44  7  0  -2655.3  2046003.4 -0.0  2 0 1585 3491 1883
[03]  21(G22)  f 43  7  0    449.0  2045999.3 -0.0  2 0 1347 2896 1234
[04]  22(G23)  f 38  7  0  -4350.6  2046005.6 -0.1  2 0  907 1643  845
[05]  25(G26)  f 45  7  0   -435.7  2046000.5  0.0  2 0 3208 4641 2308
[06]  28(G29)  f 36  7  0    713.7  2045999.0 -0.5  2 0 1205 1291  530
[08]  30(G31)  f 44  7  0    315.1  2045999.5  0.0  2 0 1951 3101 1184
[09]  31(G32)  f 41  9  0   1793.3  2045997.6  0.0  2 0 1459 2614 1704
[10]  26(G27)  f 35  7  0  -4712.1  2046006.1 -0.1  2 0 1631 1508  684
[16]  37(B01) 1f 41 22  0  -1132.1  4092002.8 -0.7  2 0 1024  698  181
[17]  38(B02) 1f 39 28  0  -1074.6  4092002.6  0.2  2 0 1492 1375  614
[18]  39(B03) 1f 41 30  0  -1122.9  4092002.9  0.4  2 0 1958 2331  829
[19]  40(B04) 1f 41 23  0  -1120.7  4092002.8  0.3  2 0 1326 1308  208
[21]  42(B06) 1f 42  7  0   -633.9  4092001.5 -0.0  2 0  885 1546  687
[22]  43(B07) 1f 44  7  0   -865.7  4092002.2  0.1  2 0 2421 3131 1377
[24]  45(B09) 1f 43  7  0  -1187.2  4092003.0 -0.0  2 0 1791 2489 1433
[25]  46(B10) 1f 43  7  0  -1129.2  4092002.8  0.0  2 0 1952 2799 1508
[26]  52(B16) 1f 43  7  0   -678.8  4092001.7 -0.1  2 0 1725 2605 1316
[27]  54(B18) 1f 44  7  0   -967.8  4092002.4 -0.1  2 0 2626 3431 1793
[28]  55(B19) 1f 43  7  0   1664.8  4091995.5 -0.0  2 0 1854 2273  922
[29]  57(B21) 1f 41  7  0  -3411.2  4092008.8 -0.1  2 0 1492 1442  408
[30]  58(B22) 1f 44  7  0   -918.9  4092002.3 -0.0  2 0 2764 3596 1458
[32]  75(N-6) 8f 46  7  0  -1867.8  1022001.2  0.0  2 0  2438 3665 1840
[33]  76(N-5) 8f 47  7  0   2037.8  1021998.7  0.0  2 0  1968 3482 1640
[34]  79(N-2)  f 35 11  0  -4236.3  1022002.7  0.0  2 0   150  634  331
[35]  80(N-1) 8f 43  7  0  -4641.3  1022002.9  0.0  2 0   809 1681  852
[36]  83(N02) 8f 45 11  0   1337.1  1021999.1  0.0  2 0  1718 2374  828
[37]  85(N04) 8f 35  7  0   3331.5  1021997.8 -0.1  2 0   397  554  526
[38]  86(N05) 8f 42  8  0  -4021.6  1022002.6 -0.0  2 0   688 1517  849
[50]  39(B03)  1 10 18  0  -1533.3 20460025.6 -0.1  1 0  323 1042  767
[51]  40(B04)  1 23 13  1   -273.5 20460017.3  0.1  1 0  406  461  454
[53]  42(B06)  1  7  7  0     62.2 20460008.2  0.2  1 0  497  376  311
[54]  43(B07)  7 28  8  0   -714.0 20460009.9  0.0 10 0  375  562  311
[56]  45(B09)  1  7  7  0  -2065.9 20460014.2 -0.0  1 0  387  328  585
[57]  46(B10)  1  7  7  0   -224.2 20460017.4 -0.1  1 0  120  114  548
[58]  52(B16)  1  7  7  0   -346.5 20460009.1  0.1  1 0  594  544  409
[59]  54(B18)  1  7  7  0     46.8 20460015.5 -0.1  1 0  684  568  783
[60]  55(B19)  1  8  7  0    793.4 20459972.9 -0.0  1 0  151  169  135
[61]  57(B21)  1  7  7  0  -2827.2 20460054.8  0.1  1 0  517   85  203
[62]  58(B22)  1  7  7  0  -1285.9 20460015.1 -0.1  1 0  388  488  674
$GNGGA,022236.048,,,,,0,00,,,M,,,,0000*20
$GNRMC,022236.048,A,,,,,,,150419,,*25
$GPGSA,A,1,,,,,,,,,,,,,,,*1E
$BDGSA,A,1,,,,,,,,,,,,,,,*0F
$GLGSA,A,1,,,,,,,,,,,,,,,*02
$GPGSV,3,1,10,03,00,000,42,14,00,000,43,16,00,000,44,22,00,000,43*7D
$GPGSV,3,2,10,23,00,000,38,26,00,000,45,29,00,000,36,31,00,000,44*7A
$GPGSV,3,3,10,32,00,000,41,27,00,000,35*7F
$BDGSV,3,1,12,01,00,000,41,02,00,000,39,03,00,000,41,04,00,000,41*62
$BDGSV,3,2,12,06,00,000,42,07,00,000,44,09,00,000,43,10,00,000,43*65
$BDGSV,3,3,12,16,00,000,43,18,00,000,44,19,00,000,43,21,00,000,41*6B
$B3CN0,0,0,0,0,0,0,28,0,0,0,0,0,0,0*76
---00000021--- Acq_st=3 0  2019-4-15 2:22:36 
[00]  02(G03)  f 42  7  0   -471.5  2046000.5  0.0  2 0 1487 2305  905
[01]  13(G14)  f 43  7  0    811.8  2045998.9 -0.0  2 0 1677 2842 1418
[02]  15(G16)  f 44 10  0  -2658.0  2046003.4 -0.0  2 0 1641 3044 1571
[03]  21(G22)  f 43  7  0    449.5  2045999.4  0.0  2 0 1344 2628 1299
[04]  22(G23)  f 37  7  0  -4347.5  2046005.5 -0.1  2 0 1635 1538 1013
[05]  25(G26)  f 45  7  0   -434.3  2046000.5 -0.0  2 0 2624 4777 2365
[06]  28(G29)  f 36  7  0    709.4  2045999.0  0.1  2 0  974 1110  799
[08]  30(G31)  f 45  7  0    317.8  2045999.5 -0.0  2 0 2518 3974 1895
[09]  31(G32)  f 42  7  0   1798.2  2045997.6 -0.0  2 0 1663 2300  922
[10]  26(G27)  f 36  7  0  -4723.4  2046006.1 -0.0  2 0  825 1142  309
[16]  37(B01) 1f 41 18  0  -1130.0  4092002.8 -0.3  2 0 1821 1871  698
[17]  38(B02) 1f 40 26  0  -1079.5  4092002.7 -0.4  2 0 1302 1498  273
[18]  39(B03) 1f 42 30  0  -1124.0  4092002.8 -0.2  2 0 2118 2182  917
[19]  40(B04) 1f 41 10  0  -1120.0  4092002.8 -0.1  2 0 1236 1746  829
[21]  42(B06) 1f 42  7  0   -635.8  4092001.5 -0.1  2 0 1637 2195  845
[22]  43(B07) 1f 44  7  0   -866.7  4092002.2  0.0  2 0 2294 2989 1269
[24]  45(B09) 1f 43  7  0  -1187.2  4092003.0  0.0  2 0 2194 2608  615
[25]  46(B10) 1f 43  7  0  -1133.2  4092002.8 -0.0  2 0 2463 2569 1067
[26]  52(B16) 1f 43  7  0   -681.3  4092001.7  0.1  2 0 1214 2187 1342
[27]  54(B18) 1f 44  7  0   -966.4  4092002.4  0.0  2 0 2567 3340 1664
[28]  55(B19) 1f 43  7  0   1664.7  4091995.5  0.0  2 0 1804 2338 1192
[29]  57(B21) 1f 41 10  0  -3412.8  4092008.8 -0.0  2 0 2127 2195  786
[30]  58(B22) 1f 44  7  0   -917.8  4092002.3  0.0  2 0 2846 3351 1496
[32]  75(N-6) 8f 46  7  0  -1867.5  1022001.2  0.0  2 0  2128 3373 1482
[33]  76(N-5) 8f 46  7  0   2038.0  1021998.7 -0.0  2 0  1793 3117 1422
[34]  79(N-2)  f 36  7  0  -4239.9  1022002.7  0.1  2 0   670  765  552
[35]  80(N-1) 8f 43  9  0  -4641.1  1022003.0 -0.1  2 0   861 1332  806
[36]  83(N02) 8f 45  7  0   1335.9  1021999.1 -0.0  2 0  1499 2487 1169
[37]  85(N04) 8f 36  7  0   3329.2  1021997.8 -0.0  2 0   750  773  342
[38]  86(N05) 8f 42  8  0  -4022.1  1022002.5  0.1  2 0   740 1485  830
[48]  37(B01)  1 10 22  0   -802.6 20460026.7 -0.1  1 0  275  227  421
[49]  38(B02)  1 22 17  1   -368.8 20460023.7  0.2  1 0  315  431  269
[53]  42(B06)  1  7  7  0    -16.5 20460007.7 -0.0  1 0  499  524 1076
[54]  43(B07)  7 27 11  0   -711.9 20460010.6  0.0 10 0  739  609  818
[56]  45(B09)  1  7  7  0  -1561.2 20460014.9  0.2  1 0  183  524  584
[57]  46(B10)  1  7  7  0    -94.5 20460017.9  0.1  1 0  638  590  574
[58]  52(B16)  1  7 11  0   -574.9 20460011.7 -0.1  1 0  191  346  102
[59]  54(B18)  1  7  9  0     23.4 20460016.5 -0.0  1 0  935  816  304
[60]  55(B19)  1  7  7  0    995.0 20459975.6  0.2  1 0  525  422  172
[61]  57(B21)  1  7  7  0  -2639.5 20460055.6  0.0  1 0  104  306  419
[62]  58(B22)  1  7  7  0  -1523.2 20460014.0  0.0  1 0  102  272  371
$GNGGA,022237.048,,,,,0,00,,,M,,,,0000*21
$GNRMC,022237.048,A,,,,,,,150419,,*24
$GPGSA,A,1,,,,,,,,,,,,,,,*1E
$BDGSA,A,1,,,,,,,,,,,,,,,*0F
$GLGSA,A,1,,,,,,,,,,,,,,,*02
$GPGSV,3,1,10,03,00,000,42,14,00,000,43,16,00,000,44,22,00,000,43*7D
$GPGSV,3,2,10,23,00,000,37,26,00,000,45,29,00,000,36,31,00,000,45*74
$GPGSV,3,3,10,32,00,000,42,27,00,000,36*7F
$BDGSV,3,1,12,01,00,000,41,02,00,000,40,03,00,000,42,04,00,000,41*6F
$BDGSV,3,2,12,06,00,000,42,07,00,000,44,09,00,000,43,10,00,000,43*65
$BDGSV,3,3,12,16,00,000,43,18,00,000,44,19,00,000,43,21,00,000,41*6B
$B3CN0,0,0,0,0,0,0,27,0,0,0,0,0,0,0*79
---00000022--- Acq_st=3 0  2019-4-15 2:22:37 
[00]  02(G03)  f 42  7  0   -462.8  2046000.5  0.1  2 0 1082 1991 1413
[01]  13(G14)  f 44  8  0    819.5  2045998.9  0.0  2 0 1726 2771 1917
[02]  15(G16)  f 43 10  0  -2652.2  2046003.4  0.0  2 0 2180 3083 1090
[03]  21(G22)  f 44  7  0    456.3  2045999.3 -0.0  2 0 2017 2950 1073
[04]  22(G23)  f 38  7  0  -4348.2  2046005.6  0.1  2 0 1475 1491  635
[05]  25(G26)  f 45  7  0   -428.9  2046000.5 -0.0  2 0 2896 4682 2243
[06]  28(G29)  f 34  7  0    713.0  2045999.0 -0.0  2 0  842 1232  765
[08]  30(G31)  f 45  7  0    323.8  2045999.5  0.1  2 0 2271 3635 1799
[09]  31(G32)  f 42  7  0   1797.7  2045997.6 -0.0  2 0 1329 2295 1129
[10]  26(G27)  f 35  7  0  -4707.1  2046006.0 -0.0  2 0  635 1019  596
[16]  37(B01) 1f 41 18  0  -1123.7  4092002.9 -0.2  2 0  874 2041 1459
[17]  38(B02) 1f 40 26  0  -1072.9  4092002.7  0.7  2 0 1013 1223  506
[18]  39(B03) 1f 41 30  0  -1118.8  4092002.8 -0.0  2 0 1492 2148 1256
[19]  40(B04) 1f 40 17  0  -1111.3  4092002.8  0.3  2 0 1155 1492  256
[20]  41(B05)  1 40 18  0  -1073.5  4092003.7  1.0  1 0  739  704  373
[21]  42(B06) 1f 41  7  0   -629.7  4092001.5  0.1  2 0 2258 2380  679
[22]  43(B07) 1f 44  7  0   -863.0  4092002.1  0.0  2 0 2170 2571  879
[24]  45(B09) 1f 44  7  0  -1182.1  4092003.0 -0.0  2 0 1827 2420  690
[25]  46(B10) 1f 43  7  0  -1120.9  4092002.8  0.0  2 0 1993 2793 1241
[26]  52(B16) 1f 43  7  0   -672.6  4092001.6  0.0  2 0 1608 2314  684
[27]  54(B18) 1f 44  7  0   -962.5  4092002.4  0.0  2 0 2360 2834 1413
[28]  55(B19) 1f 43  7  0   1675.7  4091995.5 -0.0  2 0 1872 2512 1187
[29]  57(B21) 1f 41 11  0  -3411.5  4092008.8 -0.0  2 0 1201 1592  837
[30]  58(B22) 1f 44  7  0   -912.1  4092002.3 -0.0  2 0 2444 3521 1454
[32]  75(N-6) 8f 46  7  0  -1860.1  1022001.2  0.0  2 0  2214 3791 1859
[33]  76(N-5) 8f 46  7  0   2044.9  1021998.7  0.0  2 0  1747 3198 1557
[34]  79(N-2)  f 36  8  0  -4230.8  1022002.6 -0.1  2 0   611  683  375
[35]  80(N-1) 8f 43  7  0  -4635.3  1022003.0 -0.0  2 0  1182 1735  752
[36]  83(N02) 8f 45  7  0   1341.5  1021999.1  0.1  2 0  1357 2534 1398
[37]  85(N04) 8f 35  7  0   3335.5  1021997.9 -0.0  2 0   308  444  254
[38]  86(N05) 8f 43  7  0  -4015.4  1022002.5 -0.1  2 0  1190 1850  895
[48]  37(B01)  1 10 16  1  -1153.9 20460023.3  0.0  1 0  269  219  556
[49]  38(B02)  1 19 10  1   -157.8 20460014.8  0.1  1 0  392  280  308
[50]  39(B03)  1 19 20  0   -589.0 20460016.3  0.1  1 0  239  836  319
[51]  40(B04)  1 22 14  1   -803.9 20460018.6 -0.1  1 0  743  731  214
[54]  43(B07)  7 28  7  0   -708.5 20460010.0  0.0 10 0  378  403  481
[58]  52(B16)  1  7  7  0   -179.0 20460010.7 -0.2  1 0  216  177  239
[60]  55(B19)  1  7  7  0    730.3 20459974.5 -0.1  1 0  184  629  386
[61]  57(B21)  1  7  7  0  -3278.2 20460055.2  0.1  1 0  574  895  416
[62]  58(B22)  1  7  7  0  -1349.5 20460014.9  0.2  1 0  245  533  318
$GNGGA,022238.048,,,,,0,00,,,M,,,,0000*2E
$GNRMC,022238.048,A,,,,,,,150419,,*2B
$GPGSA,A,1,,,,,,,,,,,,,,,*1E
$BDGSA,A,1,,,,,,,,,,,,,,,*0F
$GLGSA,A,1,,,,,,,,,,,,,,,*02
$GPGSV,3,1,10,03,00,000,42,14,00,000,44,16,00,000,43,22,00,000,44*7A
$GPGSV,3,2,10,23,00,000,38,26,00,000,45,29,00,000,34,31,00,000,45*79
$GPGSV,3,3,10,32,00,000,42,27,00,000,35*7C
$BDGSV,3,1,12,01,00,000,41,02,00,000,40,03,00,000,41,04,00,000,40*6D
$BDGSV,3,2,12,06,00,000,41,07,00,000,44,09,00,000,44,10,00,000,43*61
$BDGSV,3,3,12,16,00,000,43,18,00,000,44,19,00,000,43,21,00,000,41*6B
$B3CN0,0,0,0,0,0,0,28,0,0,0,0,0,0,0*76
$GLGSV,1,1,01,26,00,000,43*57
---00000023--- Acq_st=3 0  2019-4-15 2:22:38 
[00]  02(G03)  f 42  7  0   -474.3  2046000.6 -0.0  2 0 1865 2667 1230
[01]  13(G14)  f 43  7  0    810.1  2045998.9  0.0  2 0 2316 3238 1422
[02]  15(G16)  f 44  7  0  -2658.8  2046003.4 -0.0  2 0 1775 2969 1062
[03]  21(G22)  f 43  7  0    450.1  2045999.4  0.0  2 0 1401 2625 1348
[04]  22(G23)  f 37  7  0  -4359.7  2046005.6  0.0  2 0 1153 1197  403
[05]  25(G26)  f 45  7  0   -437.7  2046000.5  0.0  2 0 2907 4965 2562
[06]  28(G29)  f 35  8  0    717.0  2045999.0 -0.1  2 0  964 1264  342
[08]  30(G31)  f 45  7  0    313.2  2045999.5 -0.0  2 0 2320 3991 2206
[09]  31(G32)  f 41  7  0   1789.9  2045997.6  0.0  2 0 1154 2044  924
[10]  26(G27)  f 36  7  0  -4724.5  2046006.0 -0.1  2 0  631  723  321
[16]  37(B01) 1f 41 10  0  -1133.6  4092002.8 -0.2  2 0 1690 1851  454
[17]  38(B02) 1f 40 22  0  -1083.0  4092002.7  0.1  2 0 1062 1452 1163
[18]  39(B03) 1f 43 29  0  -1125.9  4092002.8  0.3  2 0 1818 2197 1037
[19]  40(B04) 1f 41 24  0  -1119.5  4092002.9 -0.1  2 0 1305 1815  459
[20]  41(B05) 19 39 25  0  -1084.6  4092003.6  0.9  1 0  530 1483 1146
[21]  42(B06) 1f 42  7  0   -633.3  4092001.5 -0.0  2 0 1207 1638 1094
[22]  43(B07) 1f 44  7  0   -869.3  4092002.2  0.0  2 0 2625 3048 1365
[24]  45(B09) 1f 43  7  0  -1189.1  4092003.0  0.0  2 0 2123 2572 1502
[25]  46(B10) 1f 43  7  0  -1133.7  4092002.9 -0.0  2 0 1790 2081  714
[26]  52(B16) 1f 43  7  0   -678.1  4092001.7 -0.0  2 0 1736 2355  673
[27]  54(B18) 1f 44 11  0   -971.7  4092002.4 -0.0  2 0 2631 3508 2062
[28]  55(B19) 1f 42  7  0   1668.9  4091995.5 -0.0  2 0 1667 2261 1033
[29]  57(B21) 1f 40 11  0  -3414.2  4092008.8  0.0  2 0  671 1565  713
[30]  58(B22) 1f 44  7  0   -921.1  4092002.3 -0.0  2 0 3212 4182 2051
[32]  75(N-6) 8f 46  9  0  -1868.6  1022001.2  0.0  2 0  2367 3617 1470
[33]  76(N-5) 8f 47  7  0   2037.1  1021998.7 -0.0  2 0  1889 3328 1825
[34]  79(N-2)  f 36  7  0  -4238.6  1022002.7 -0.1  2 0   525  614  234
[35]  80(N-1) 8f 43  7  0  -4643.2  1022002.9  0.1  2 0   845 1802  942
[36]  83(N02) 8f 45  7  0   1333.3  1021999.1 -0.1  2 0  1076 2208  910
[37]  85(N04) 8f 36  7  0   3328.1  1021997.9  0.2  2 0    98  470  299
[38]  86(N05) 8f 42  7  0  -4023.6  1022002.6  0.1  2 0   889 1345  438
[48]  37(B01)  7 13 14  0  -1167.7 20460018.7  0.0  2 0   74  201  349
[49]  38(B02)  7 23 10  0   -316.3 20460003.7  0.2  2 0  681  258  296
[50]  39(B03)  1 21 19  0   -623.2 20460024.5  0.0  1 0  115  452  415
[51]  40(B04)  1 24 24  0   -671.0 20460025.6  0.1  1 0  601  579  437
[53]  42(B06)  1  7  7  0   -432.9 20460008.7  0.0  1 0  815  492   91
[54]  43(B07)  7 27  7  0   -713.7 20460010.8  0.1 10 0   82  178  564
[56]  45(B09)  1  8  7  0   -878.9 20460018.8  0.0  1 0  197  641  691
[57]  46(B10)  1  7  7  0   -592.6 20460018.7 -0.0  1 0  470  425  360
[59]  54(B18)  1  7  7  0   -780.6 20460015.1 -0.1  1 0  515  636  590
$GNGGA,022239.048,,,,,0,00,,,M,,,,0000*2F
$GNRMC,022239.048,A,,,,,,,150419,,*2A
$GPGSA,A,1,,,,,,,,,,,,,,,*1E
$BDGSA,A,1,,,,,,,,,,,,,,,*0F
$GLGSA,A,1,,,,,,,,,,,,,,,*02
$GPGSV,3,1,10,03,00,000,42,14,00,000,43,16,00,000,44,22,00,000,43*7D
$GPGSV,3,2,10,23,00,000,37,26,00,000,45,29,00,000,35,31,00,000,45*77
$GPGSV,3,3,10,32,00,000,41,27,00,000,36*7C
$BDGSV,3,1,12,01,00,000,41,02,00,000,40,03,00,000,43,04,00,000,41*6E
$BDGSV,3,2,12,06,00,000,42,07,00,000,44,09,00,000,43,10,00,000,43*65
$BDGSV,3,3,12,16,00,000,43,18,00,000,44,19,00,000,42,21,00,000,40*6B
$B3CN0,0,23,0,0,0,0,27,0,0,0,0,0,0,0*48
$GLGSV,2,1,06,08,00,000,46,07,00,000,47,01,00,000,43,09,00,000,45*60
$GLGSV,2,2,06,06,00,000,36,26,00,000,42*62
---00000024--- Acq_st=2 0  2019-4-15 2:22:39 
[00]  02(G03)  f 42  7  0   -477.1  2046000.6 -0.0  2 0 1013 2140 1046
[01]  13(G14)  f 43  7  0    806.2  2045998.9  0.0  2 0 2031 3587 1746
[02]  15(G16)  f 44  7  0  -2666.1  2046003.4 -0.0  2 0 2339 3291 1246
[03]  21(G22)  f 43  7  0    442.9  2045999.4 -0.0  2 0 1739 2432 1792
[04]  22(G23)  f 38  8  0  -4360.6  2046005.6 -0.5  2 0  474 1144  880
[05]  25(G26)  f 45  8  0   -442.6  2046000.5  0.0  2 0 3154 4914 1822
[06]  28(G29)  f 33  7  0    699.2  2045999.1  0.1  2 0  434 1103  782
[08]  30(G31)  f 44  7  0    308.2  2045999.5  0.0  2 0 2482 4178 1989
[09]  31(G32)  f 42  7  0   1786.4  2045997.6  0.0  2 0 1457 2511 1393
[10]  26(G27)  f 35  7  0  -4718.7  2046006.0  0.4  2 0  257  629  824
[16]  37(B01) 1f 41 21  0  -1141.2  4092002.8  0.1  2 0 1310 1779  901
[17]  38(B02) 1f 41 27  0  -1085.8  4092002.7 -0.7  2 0 1082 1793  840
[18]  39(B03) 1f 45 29  0  -1132.2  4092002.8  0.3  2 0 1665 2324  821
[19]  40(B04) 1f 41 18  0  -1131.5  4092002.9  0.7  2 0  737 1304  482
[20]  41(B05) 1f 38 24  0  -1089.1  4092002.6  0.6  2 0 1377 1755  861
[21]  42(B06) 1f 41 11  0   -642.8  4092001.5 -0.0  2 0 1549 2168 1103
[22]  43(B07) 1f 43  7  0   -872.3  4092002.2 -0.0  2 0 2177 2701  997
[24]  45(B09) 1f 43  7  0  -1194.8  4092003.0  0.0  2 0 2046 2496 1240
[25]  46(B10) 1f 43  7  0  -1135.6  4092002.9  0.0  2 0 1894 2401 1188
[26]  52(B16) 1f 43  7  0   -687.1  4092001.7  0.0  2 0 1651 2399  962
