i=1
Rf R0 Config = ff777073
Rf R1 Config = 00dffbfe
Rf R52 Config = 00dfee80
i=2
Rf R0 Config = 007772f3
Rf R1 Config = 00defbfe
Rf R52 Config = 00daaeb0
i=3
Rf R0 Config = 007772f3
Rf R1 Config = 00df7bfe
Rf R52 Config = 00de6f70
i=4
Rf R0 Config = 00777273
Rf R1 Config = 00debbfe
Rf R52 Config = 00de8e60
SD initialized success
Create debug.log Failed! 3
Start Channel by LuYu
$GNGGA,000000.000,,,,,0,00,,,M,,,,0000*2B
$GNRMC,000000.000,A,,,,,,,060180,,*29
$GPGSA,A,1,,,,,,,,,,,,,,,*1E
$BDGSA,A,1,,,,,,,,,,,,,,,*0F
$GLGSA,A,1,,,,,,,,,,,,,,,*02
$B3CN0,0,0,0,0,0,0,0,0,0,0,0,0,0,0*4C
---00000001--- Acq_st=3 0  2019-4-8 9:56:10 
[00]  05(G06)  1 15  7  0  -4527.8  2046007.9 -0.1  1 0  828  362 1315
$GNGGA,000000.000,,,,,0,00,,,M,,,,0000*2B
$GNRMC,000000.000,A,,,,,,,060180,,*29
$GPGSA,A,1,,,,,,,,,,,,,,,*1E
$BDGSA,A,1,,,,,,,,,,,,,,,*0F
$GLGSA,A,1,,,,,,,,,,,,,,,*02
$B3CN0,0,0,0,0,0,0,0,0,0,0,0,0,0,0*4C
---00000002--- Acq_st=3 0  2019-4-8 9:56:11 
[00]  05(G06)  1 29  7  0  -4538.8  2046006.1  0.8  1 0 1519 1422  595
[01]  12(G13)  1 34  7  0    510.6  2045999.3  0.4  1 0 1266 1642  915
[02]  16(G17)  1 19  7  0  -1885.4  2046003.3  0.1  1 0 1654 3226 1894
[03]  18(G19)  1  7  7  0  -3074.0  2046006.2 -0.1  1 0  469  592 1718
$GNGGA,000000.000,,,,,0,00,,,M,,,,0000*2B
$GNRMC,000000.000,A,,,,,,,060180,,*29
$GPGSA,A,1,,,,,,,,,,,,,,,*1E
$BDGSA,A,1,,,,,,,,,,,,,,,*0F
$GLGSA,A,1,,,,,,,,,,,,,,,*02
$B3CN0,0,0,0,0,0,0,0,0,0,0,0,0,0,0*4C
---00000003--- Acq_st=3 0  2019-4-8 9:56:12 
[00]  05(G06)  7 37  7  0  -4529.4  2046005.8 -0.1  2 0 1306 1685  984
[01]  12(G13)  7 27  7  0    518.2  2045999.2  0.7 10 0  614 1114  561
[02]  16(G17)  7  8  7  0  -1881.3  2046002.4  0.9 10 0 2676 3430 1720
[03]  18(G19)  1 35  7  0  -3076.9  2046004.2  1.0  1 0 1449 2221 1032
[04]  29(G30)  1 21  7  0   1208.8  2045998.8  0.2  1 0 1960 2675 1204
[16]  38(B02)  1 24 29  1  -1000.0  4092002.1 -0.0  1 0  242  462  740
$GNGGA,000000.000,,,,,0,00,,,M,,,,0000*2B
$GNRMC,000000.000,A,,,,,,,060180,,*29
$GPGSA,A,1,,,,,,,,,,,,,,,*1E
$BDGSA,A,1,,,,,,,,,,,,,,,*0F
$GLGSA,A,1,,,,,,,,,,,,,,,*02
$GPGSV,1,1,02,06,00,000,37,13,00,000,27*7E
$B3CN0,0,0,0,0,0,0,0,0,0,0,0,0,0,0*4C
---00000004--- Acq_st=3 0  2019-4-8 9:56:13 
[00]  05(G06)  7 41  7  0  -4534.7  2046005.8  0.2  2 0 1308 1415  540
[01]  12(G13)  7 41  7  0    511.3  2045999.2 -0.0  2 0 1136 1447  978
[02]  16(G17)  7 46  7  0  -1885.0  2046002.4 -0.0  2 0 2536 2851 1135
[03]  18(G19)  7 39  7  0  -3078.3  2046003.9  0.0  2 0 1182 1463  620
[04]  29(G30)  7 17  7  0   1208.4  2045998.4  0.9 10 0 1936 3075 1293
[16]  38(B02)  1 10 10  0  -1610.7  4092003.6  0.0  1 0  521  303  407
[17]  41(B05)  1 41 28  0  -1081.8  4092003.0  1.0  1 0  864 1356  682
$GNGGA,095614.383,,,,,0,00,,,M,,,,0000*2C
$GNRMC,095614.383,A,,,,,,,070180,,*2F
$GPGSA,A,1,,,,,,,,,,,,,,,*1E
$BDGSA,A,1,,,,,,,,,,,,,,,*0F
$GLGSA,A,1,,,,,,,,,,,,,,,*02
$GPGSV,1,1,04,06,00,000,41,13,00,000,41,17,00,000,46,19,00,000,39*7F
$B3CN0,0,0,0,0,0,0,0,0,0,0,0,0,0,0*4C
---00000005--- Acq_st=3 0  2019-4-8 9:56:14 
[00]  05(G06)  f 41  7  0  -4534.7  2046005.8 -0.0  2 0  768 1344  684
[01]  12(G13)  f 41  7  0    517.5  2045999.3  0.0  2 0 1090 1767  956
[02]  16(G17)  7 45  7  0  -1885.6  2046002.4  0.0  2 0 2623 3427 1909
[03]  18(G19)  7 42  7  0  -3079.9  2046003.9 -0.0  2 0 1120 1770  966
[04]  29(G30)  7 46  7  0   1209.2  2045998.4  0.0  2 0 1702 3063 1479
[16]  38(B02)  1 10 10  1  -1565.3  4092005.1 -0.0  1 0  188  601  657
[17]  41(B05)  f 40 10  0  -1077.3  4092002.8  0.3  2 0  555 1011  108
[18]  47(B11)  1  7  7  0  -3141.6  4092009.1 -0.0  1 0  606 1244  611
[19]  49(B13)  1  7  7  0  -1500.0  4092003.8 -0.0  1 0  405 1184 1094
$GNGGA,095615.383,,,,,0,00,,,M,,,,0000*2D
$GNRMC,095615.383,A,,,,,,,070180,,*2E
$GPGSA,A,1,,,,,,,,,,,,,,,*1E
$BDGSA,A,1,,,,,,,,,,,,,,,*0F
$GLGSA,A,1,,,,,,,,,,,,,,,*02
$GPGSV,2,1,05,06,00,000,41,13,00,000,41,17,00,000,45,19,00,000,42*72
$GPGSV,2,2,05,30,00,000,46*4D
$BDGSV,1,1,01,05,00,000,40*58
$B3CN0,0,0,0,0,0,0,0,0,0,0,0,0,0,0*4C
---00000006--- Acq_st=3 0  2019-4-8 9:56:15 
[00]  05(G06)  f 40  7  0  -4532.9  2046005.8 -0.0  2 0  620 1353  733
[01]  12(G13)  f 41  7  0    517.8  2045999.2 -0.1  2 0 1234 1659  591
[02]  16(G17)  7 44  7  0  -1879.0  2046002.4  0.0  2 0 2017 3091 1730
[03]  18(G19)  7 42  7  0  -3076.4  2046003.9 -0.0  2 0 1438 1837  726
[04]  29(G30)  7 44  7  0   1214.4  2045998.3 -0.0  2 0 2075 3041 1354
[16]  38(B02)  1 10 21  1  -1796.7  4092004.4  0.1  1 0  606  240  142
[17]  41(B05)  f 41 28  0  -1078.3  4092002.7  0.6  2 0  920 1185  591
[18]  47(B11)  7 22  7  0  -3137.8  4092008.1  0.3 10 0 1200 1676  970
[19]  49(B13)  1  7 11  0  -1393.5  4092003.6  0.5  1 0 1254 1660  836
[49]  41(B05)  1 24 26  1   -719.1 20460022.2 -0.1  1 0  394  635   79
$GNGGA,095616.383,,,,,0,00,,,M,,,,0000*2E
$GNRMC,095616.383,A,,,,,,,070180,,*2D
$GPGSA,A,1,,,,,,,,,,,,,,,*1E
$BDGSA,A,1,,,,,,,,,,,,,,,*0F
$GLGSA,A,1,,,,,,,,,,,,,,,*02
$GPGSV,2,1,05,06,00,000,40,13,00,000,41,17,00,000,45,19,00,000,42*73
$GPGSV,2,2,05,30,00,000,45*4E
$BDGSV,1,1,02,05,00,000,41,11,00,000,22*6A
$B3CN0,0,0,0,0,0,0,0,0,0,0,0,0,0,0*4C
---00000007--- Acq_st=3 0  2019-4-8 9:56:16 
[00]  05(G06)  f 41  7  0  -4533.9  2046005.8 -0.0  2 0 1250 1844  998
[01]  12(G13)  f 41  7  0    517.4  2045999.2  0.1  2 0 1021 1450  665
[02]  16(G17)  7 44  7  0  -1882.6  2046002.4 -0.0  2 0 1570 3058 1869
[03]  18(G19)  7 43  7  0  -3074.4  2046003.9 -0.0  2 0 1985 2267 1149
[04]  29(G30)  7 44  7  0   1211.2  2045998.3 -0.0  2 0 1861 3233 1299
[16]  38(B02)  1 10 10  0  -2348.3  4092005.0  0.1  1 0  416  412  180
[17]  41(B05)  f 40 20  0  -1072.0  4092002.7  0.0  2 0  836 1208  757
[18]  47(B11)  7 41  7  0  -3136.8  4092008.1  0.0  2 0 1122 1262  557
[19]  49(B13)  7 36  7  0  -1393.3  4092003.6 -0.1  2 0  905 1433  805
[20]  60(B24)  1  7  7  0  -1599.2  4092003.9  0.1  1 0  347  219  141
[21]  61(B25)  1  7  7  0  -3615.5  4092010.5 -0.0  1 0  194  322  408
[22]  62(B26)  1  7  7  0   1000.0  4091998.2 -0.0  1 0  255  279  288
[49]  41(B05)  1 24 19  0   -644.7 20460019.6 -0.1  1 0  915 1308 1183
$GNGGA,095617.383,,,,,0,00,,,M,,,,0000*2F
$GNRMC,095617.383,A,,,,,,,070180,,*2C
$GPGSA,A,1,,,,,,,,,,,,,,,*1E
$BDGSA,A,1,,,,,,,,,,,,,,,*0F
$GLGSA,A,1,,,,,,,,,,,,,,,*02
$GPGSV,2,1,05,06,00,000,41,13,00,000,41,17,00,000,44,19,00,000,43*72
$GPGSV,2,2,05,30,00,000,44*4F
$BDGSV,1,1,03,05,00,000,40,11,00,000,41,13,00,000,36*58
$B3CN0,0,0,0,0,0,0,0,0,0,0,0,0,0,0*4C
---00000008--- Acq_st=3 0  2019-4-8 9:56:17 
[00]  05(G06)  f 42  7  0  -4538.5  2046005.8  0.0  2 0  920 1815 1093
[01]  12(G13)  f 40  7  0    511.0  2045999.2  0.0  2 0  938 1352  356
[02]  16(G17)  7 43  7  0  -1885.1  2046002.4  0.0  2 0 1039 2347 1718
[03]  18(G19)  7 43 11  0  -3082.0  2046003.9  0.0  2 0 1669 2253  898
[04]  29(G30)  7 45  7  0   1207.7  2045998.4  0.0  2 0 1830 3053 1569
[16]  38(B02)  7 14 10  0  -2410.8  4092006.3 -0.1  2 0  302  402  748
[17]  41(B05)  f 40 25  0  -1078.4  4092002.6  0.3  2 0  638  772  635
[18]  47(B11)  7 41  7  0  -3143.8  4092008.1 -0.0  2 0 1160 1391  483
[19]  49(B13)  7 41  7  0  -1397.2  4092003.6  0.1  2 0  779 1426  936
[20]  60(B24)  1  7  7  0  -1936.9  4092003.4 -0.1  1 0  602  695  387
[21]  61(B25)  1  7  7  0  -3894.1  4092012.7  0.0  1 0  237 1279 1217
[22]  62(B26)  1  7  7  0   1066.7  4091997.7 -0.0  1 0  369  296  402
[32]  77(N-4)  1  7  7  0   -533.6  1022001.9 -0.0  1 0   363  495  966
[49]  41(B05)  1 26 17  0  -1324.2 20460022.1  0.0  1 0  272  238  497
$GNGGA,095618.383,,,,,0,00,,,M,,,,0000*20
$GNRMC,095618.383,A,,,,,,,080419,,*29
$GPGSA,A,1,,,,,,,,,,,,,,,*1E
$BDGSA,A,1,,,,,,,,,,,,,,,*0F
$GLGSA,A,1,,,,,,,,,,,,,,,*02
$GPGSV,2,1,05,06,00,000,42,13,00,000,40,17,00,000,43,19,00,000,43*77
$GPGSV,2,2,05,30,00,000,45*4E
$BDGSV,1,1,04,02,00,000,17,05,00,000,39,11,00,000,41,13,00,000,41*65
$B3CN0,0,0,0,0,0,0,0,0,0,0,0,0,0,0*4C
---00000009--- Acq_st=7 0  2019-4-8 9:56:18 
[00]  05(G06)  f 41  7  0  -4531.9  2046005.8 -0.0  2 0 1010 1645  899
[01]  12(G13)  f 41  7  0    516.4  2045999.2 -0.0  2 0  856 1759  999
[02]  16(G17)  7 44  7  0  -1879.8  2046002.4 -0.0  2 0 1313 2014  902
[03]  18(G19)  7 43  7  0  -3077.0  2046003.9 -0.1  2 0 1444 2235 1022
[04]  29(G30)  7 44  7  0   1214.0  2045998.3 -0.0  2 0 2166 3115 1350
[16]  38(B02)  7 18 10  0  -2702.1  4092007.2 -0.1  2 0  140   94  372
[17]  41(B05) 1f 40 30  0  -1075.7  4092002.6  0.2  2 0  654  845  285
[18]  47(B11)  7 41  7  0  -3133.8  4092008.1 -0.1  2 0 1349 1638  557
[19]  49(B13)  7 41 10  0  -1394.0  4092003.6  0.0  2 0  767 1112  786
[20]  60(B24)  1  7  7  0  -2170.5  4092003.7  0.0  1 0  201  277  564
[21]  61(B25)  1  7  7  0  -3896.1  4092009.8 -0.0  1 0 1429 1214  558
[22]  62(B26)  1  7  7  0    608.2  4091998.0 -0.1  1 0  285   22   36
[32]  77(N-4)  1 27 17  0  -1323.6  1022001.3  0.8  1 0   535  779  344
[33]  81(N00)  1 22  7  0  -4117.1  1022003.6  0.3  1 0   262  654  542
[34]  84(N03)  1 15  7  0  -3750.0  1022003.0  0.0  1 0   252 1162  907
[49]  41(B05)  1 20 23  1  -1748.3 20460026.7 -0.1  1 0  328  338  505
$GNGGA,095619.383,,,,,0,00,,,M,,,,0000*21
$GNRMC,095619.383,A,,,,,,,080419,,*28
$GPGSA,A,1,,,,,,,,,,,,,,,*1E
$BDGSA,A,1,,,,,,,,,,,,,,,*0F
$GLGSA,A,1,,,,,,,,,,,,,,,*02
$GPGSV,2,1,05,06,00,000,41,13,00,000,41,17,00,000,44,19,00,000,43*72
$GPGSV,2,2,05,30,00,000,44*4F
$BDGSV,1,1,03,05,00,000,40,11,00,000,41,13,00,000,41*58
$B3CN0,0,0,0,0,0,0,0,0,0,0,0,0,0,0*4C
---00000010--- Acq_st=7 0  2019-4-8 9:56:19 
[00]  05(G06)  f 41  7  0  -4537.1  2046005.9  0.0  2 0  883 1569  879
[01]  12(G13)  f 41  7  0    514.4  2045999.3 -0.0  2 0  567 1752 1084
[02]  16(G17)  f 43  8  0  -1885.3  2046002.4  0.0  2 0 1857 3050 1428
[03]  18(G19)  f 43  7  0  -3080.4  2046003.9  0.0  2 0 1936 2243 1095
[04]  29(G30)  f 44  7  0   1210.8  2045998.3  0.0  2 0 2342 3290 1297
[16]  38(B02)  7 10 24  1  -3072.5  4092008.0 -0.0  2 0  444  730  199
[17]  41(B05) 1f 40 23  0  -1076.8  4092002.7  0.4  2 0  474 1210  924
[18]  47(B11)  7 41  7  0  -3141.5  4092008.1 -0.0  2 0 1043 1691  893
[19]  49(B13)  7 41  8  0  -1400.6  4092003.6 -0.1  2 0 1306 1688  901
[20]  60(B24)  1  7  7  0  -2332.8  4092003.8  0.1  1 0  461  131  296
[21]  61(B25)  1  7  7  0  -3895.9  4092009.7 -0.0  1 0  402 1411  893
[22]  62(B26)  1  7  7  0    848.9  4091997.9 -0.1  1 0  307  216  578
[32]  77(N-4)  1 23 18  0  -1328.1  1022000.4  0.8  1 0   621 1238  624
[33]  81(N00)  1 23  7  0  -4121.7  1022003.0  0.7  1 0   386  774  503
[34]  84(N03)  1 32  7  0  -3670.1  1022002.5  1.0  1 0   454  945  530
$GNGGA,095620.383,,,,,0,00,,,M,,,,0000*2B
$GNRMC,095620.383,A,,,,,,,080419,,*22
$GPGSA,A,1,,,,,,,,,,,,,,,*1E
$BDGSA,A,1,,,,,,,,,,,,,,,*0F
$GLGSA,A,1,,,,,,,,,,,,,,,*02
$GPGSV,2,1,05,06,00,000,41,13,00,000,41,17,00,000,43,19,00,000,43*75
$GPGSV,2,2,05,30,00,000,44*4F
$BDGSV,1,1,03,05,00,000,40,11,00,000,41,13,00,000,41*58
$B3CN0,0,0,0,0,0,0,0,0,0,0,0,0,0,0*4C
---00000011--- Acq_st=3 0  2019-4-8 9:56:20 
[00]  05(G06)  f 41  8  0  -4529.5  2046005.8 -0.1  2 0 1324 2021  985
[01]  12(G13)  f 41  7  0    522.0  2045999.2 -0.0  2 0 1431 2155 1030
[02]  16(G17)  f 44  7  0  -1878.8  2046002.4 -0.0  2 0 2136 2805 1282
[03]  18(G19)  f 43  7  0  -3073.9  2046003.9 -0.0  2 0 1435 2165 1234
[04]  29(G30)  f 44  7  0   1217.2  2045998.3 -0.0  2 0 2041 2998 1741
[16]  38(B02)  7 10 10  0  -3619.7  4092009.3 -0.1  2 0  474  457  303
[17]  41(B05) 1f 40 29  0  -1068.1  4092002.7  0.8  2 0  639  680  429
[18]  47(B11)  7 42  7  0  -3136.4  4092008.1  0.0  2 0 1315 1740  599
[19]  49(B13)  7 41  7  0  -1392.7  4092003.5 -0.0  2 0 1178 1219  482
[22]  62(B26)  1  7  7  0   1073.6  4091998.4  0.1  1 0  495  102  232
[32]  77(N-4)  7 38 13  0  -1321.8  1022000.9 -0.1  2 0   450 1035  529
[33]  81(N00)  7 20  7  0  -4127.3  1022002.6  0.5 10 0   500  250  214
[34]  84(N03)  1 34  7  0  -3664.0  1022002.4  1.0  1 0   542  940  620
[49]  41(B05)  1 23 23  0   -921.8 20460017.5 -0.1  1 0  184   60  202
$GNGGA,095621.383,,,,,0,00,,,M,,,,0000*2A
$GNRMC,095621.383,A,,,,,,,080419,,*23
$GPGSA,A,1,,,,,,,,,,,,,,,*1E
$BDGSA,A,1,,,,,,,,,,,,,,,*0F
$GLGSA,A,1,,,,,,,,,,,,,,,*02
$GPGSV,2,1,05,06,00,000,41,13,00,000,41,17,00,000,44,19,00,000,43*72
$GPGSV,2,2,05,30,00,000,44*4F
$BDGSV,1,1,03,05,00,000,39,11,00,000,42,13,00,000,41*55
$B3CN0,0,0,0,0,0,0,0,0,0,0,0,0,0,0*4C
---00000012--- Acq_st=3 0  2019-4-8 9:56:21 
[00]  05(G06)  f 42  7  0  -4529.6  2046005.8  0.1  2 0  950 1547 1072
[01]  12(G13)  f 41  7  0    520.7  2045999.2 -0.1  2 0 1006 1439  705
[02]  16(G17)  f 44  7  0  -1877.7  2046002.3  0.0  2 0 2320 2939 1476
[03]  18(G19)  f 43  7  0  -3072.4  2046004.0 -0.1  2 0 1410 2189 1324
[04]  29(G30)  f 44  7  0   1218.7  2045998.4  0.0  2 0 2105 3064 1606
[16]  38(B02)  7 36 32  1  -4012.7  4092010.6 -0.0  2 0  341  313  244
[17]  41(B05) 1f 40 24  0  -1074.1  4092002.7 -0.0  2 0  985 1184  740
[18]  47(B11)  7 42  7  0  -3129.0  4092008.1 -0.1  2 0 1224 1247  519
[19]  49(B13)  7 40 11  0  -1387.4  4092003.5 -0.1  2 0 1220 1331  746
[32]  77(N-4)  7 40 19  0  -1317.7  1022000.8 -0.5  2 0   476  822  713
[33]  81(N00)  7 34  7  0  -4115.6  1022002.6 -0.1  5 0   407  470  613
[34]  84(N03)  7 41  7  0  -3659.3  1022002.3 -0.0  2 0   687 1200  565
[49]  41(B05)  1 23 24  0    229.3 20460016.7  0.1  1 0  269  346  571
$GNGGA,095622.383,,,,,0,00,,,M,,,,0000*29
$GNRMC,095622.383,A,,,,,,,080419,,*20
$GPGSA,A,1,,,,,,,,,,,,,,,*1E
$BDGSA,A,1,,,,,,,,,,,,,,,*0F
$GLGSA,A,1,,,,,,,,,,,,,,,*02
$GPGSV,2,1,05,06,00,000,42,13,00,000,41,17,00,000,44,19,00,000,43*71
$GPGSV,2,2,05,30,00,000,44*4F
$BDGSV,1,1,03,05,00,000,41,11,00,000,42,13,00,000,40*5B
$B3CN0,0,0,0,0,0,0,0,0,0,0,0,0,0,0*4C
---00000013--- Acq_st=3 0  2019-4-8 9:56:22 
[00]  05(G06)  f 42  7  0  -4522.1  2046005.8  0.1  2 0  776 1506  356
[01]  12(G13)  f 41  7  0    524.1  2045999.2  0.0  2 0 1047 1616  709
[02]  16(G17)  f 45  7  0  -1874.6  2046002.4  0.0  2 0 1915 2562 1328
[03]  18(G19)  f 42  7  0  -3067.8  2046003.9  0.0  2 0 1249 2083  947
[04]  29(G30)  f 45  9  0   1222.9  2045998.4  0.0  2 0 1835 3199 1391
[16]  38(B02)  7 10 10  0  -4698.8  4092012.3 -0.0  2 0  187  330  303
[17]  41(B05) 1f 41 22  0  -1067.9  4092002.7  0.2  2 0 1085 1273  552
[18]  47(B11) 1f 42  7  0  -3130.0  4092008.1  0.0  2 0 1482 1733  933
[19]  49(B13) 1f 41  7  0  -1382.6  4092003.5 -0.0  2 0 1139 1393  462
[32]  77(N-4)  7 40 17  0  -1314.6  1022000.7  0.5  2 0   909  967  510
[33]  81(N00)  7 34  7  0  -4114.3  1022002.6  0.0  5 0   183  464  460
[34]  84(N03)  7 41  8  0  -3654.7  1022002.3  0.2  2 0   566 1036   82
[49]  41(B05)  1 23 24  0   -180.0 20460020.7 -0.0  1 0  201  144  253
---00000014--- Acq_st=3 0  2019-4-8 9:56:23 
[00]  05(G06)  f 41  7  0  -4530.3  2046005.8 -0.1  2 0 1307 1835  992
[01]  12(G13)  f 41  7  0    519.7  2045999.3  0.0  2 0  834 1559  826
[02]  16(G17)  f 44  7  0  -1880.4  2046002.4  0.1  2 0 2184 3430 2142
[03]  18(G19)  f 43  7  0  -3075.9  2046004.0  0.0  2 0 1305 1914 1001
[04]  29(G30)  f 45  7  0   1217.2  2045998.4  0.0  2 0 2231 3144 1684
[16]  38(B02)  7 22 32  1  -5003.7  4092013.2  0.0  2 0  502  593  673
[17]  41(B05) 1f 39 28  0  -1073.8  4092002.8  0.1  2 0 1079 1298  917
[18]  47(B11) 1f 42  7  0  -3138.5  4092008.1 -0.0  2 0  670 1140  750
[19]  49(B13) 1f 41  9  0  -1394.6  4092003.5 -0.1  2 0  805 1619  443
[32]  77(N-4)  7 40 16  0  -1321.0  1022000.8  0.9  2 0   773  667  471
[33]  81(N00)  7 31  7  0  -4119.7  1022002.7  0.2  5 0   149  225  327
[34]  84(N03)  7 41  7  0  -3663.2  1022002.3  0.1  2 0   771  996  468
[49]  41(B05)  1 27 20  0   -593.4 20460028.0 -0.1  1 0  180  338  802
[50]  47(B11)  1  8  7  0  -2398.9 20460051.8 -0.0  1 0  205  359  387
[51]  49(B13)  1  7  7  0  -1219.5 20460022.9 -0.1  1 0  311  135  479
$GNGGA,095623.383,,,,,0,00,,,M,,,,0000*28
$GNRMC,095623.383,A,,,,,,,080419,,*21
$GPGSA,A,1,,,,,,,,,,,,,,,*1E
$BDGSA,A,1,,,,,,,,,,,,,,,*0F
$GLGSA,A,1,,,,,,,,,,,,,,,*02
$GPGSV,2,1,05,06,00,000,41,13,00,000,41,17,00,000,44,19,00,000,43*72
$GPGSV,2,2,05,30,00,000,45*4E
$BDGSV,1,1,04,02,00,000,22,05,00,000,39,11,00,000,42,13,00,000,41*60
$B3CN0,0,0,0,0,0,0,0,0,0,0,0,0,0,0*4C
---00000015--- Acq_st=3 0  2019-4-8 9:56:24 
[00]  05(G06)  f 42  7  0  -4530.3  2046005.8 -0.0  2 0 1023 1987 1130
[01]  12(G13)  f 41  7  0    519.4  2045999.2  0.0  2 0 1110 1260  481
[02]  16(G17)  f 44  7  0  -1882.2  2046002.4 -0.0  2 0 1601 3014 1889
[03]  18(G19)  f 43  9  0  -3074.6  2046003.9  0.0  2 0 1349 1541  916
[04]  29(G30)  f 44  7  0   1218.1  2045998.4  0.0  2 0 1575 2651 1457
[16]  38(B02)  7 19 33  1  -4996.4  4092012.9 -0.2  2 0  131   36  328
[17]  41(B05) 1f 40 25  0  -1070.7  4092002.7  0.4  2 0 1037  690  233
[18]  47(B11) 1f 42  7  0  -3135.0  4092008.1 -0.1  2 0 1382 1523  756
[19]  49(B13) 1f 41  7  0  -1395.2  4092003.6 -0.0  2 0 1240 1687  978
[32]  77(N-4)  f 30  7  0  -1320.1  1022000.8 -0.8  5 0   344  887  666
[33]  81(N00)  f 26  7  0  -4119.8  1022002.5 -0.0 10 0   503  456  135
[34]  84(N03)  f 30  7  0  -3662.5  1022002.3 -0.1  5 0   492 1080  739
[50]  47(B11)  1  7  7  0  -2483.4 20460049.8 -0.1  1 0  301  217  386
[51]  49(B13)  1  7  7  0  -1401.7 20460022.3  0.0  1 0  255  103  225
$GNGGA,095624.383,,,,,0,00,,,M,,,,0000*2F
$GNRMC,095624.383,A,,,,,,,080419,,*26
$GPGSA,A,1,,,,,,,,,,,,,,,*1E
$BDGSA,A,1,,,,,,,,,,,,,,,*0F
$GLGSA,A,1,,,,,,,,,,,,,,,*02
$GPGSV,2,1,05,06,00,000,42,13,00,000,41,17,00,000,44,19,00,000,43*71
$GPGSV,2,2,05,30,00,000,44*4F
$BDGSV,1,1,04,02,00,000,19,05,00,000,40,11,00,000,42,13,00,000,41*66
$B3CN0,0,0,0,0,0,0,0,0,0,0,0,0,0,0*4C
---00000016--- Acq_st=3 0  2019-4-8 9:56:25 
[00]  05(G06)  f 42  7  0  -4533.2  2046005.8 -0.0  2 0 1094 1833 1163
[01]  12(G13)  f 40  7  0    520.5  2045999.3 -0.1  2 0  959 1295  362
[02]  16(G17)  f 44  7  0  -1882.0  2046002.4 -0.0  2 0 2263 3101 1432
[03]  18(G19)  f 43  7  0  -3079.2  2046003.9  0.0  2 0 1852 2700 1211
[04]  29(G30)  f 45  7  0   1216.1  2045998.4  0.0  2 0 1858 3090 1730
[16]  38(B02)  7 10 33  1  -4993.0  4092013.2 -0.0  2 0  205  504  310
[17]  41(B05) 1f 41 25  0  -1078.3  4092002.6 -0.5  2 0  936  905  306
[18]  47(B11) 1f 42  7  0  -3138.2  4092008.1  0.1  2 0 1093 1446  719
[19]  49(B13) 1f 41  7  0  -1392.6  4092003.5  0.1  2 0  627  808  533
[32]  77(N-4)  f 39  7  0  -1323.9  1022000.8 -0.9  2 0   340  664  455
[33]  81(N00)  f 31  7  0  -4118.5  1022002.5  0.0  5 0   501  504  395
[34]  84(N03)  f 42  7  0  -3662.5  1022002.3  0.0  2 0   675  978  414
[49]  41(B05)  1 10 21  0   -338.1 20460018.3 -0.1  1 0  103  457  172
[50]  47(B11)  1  7  7  0  -2451.7 20460050.4  0.1  1 0  458  133  341
[51]  49(B13)  1  7  7  0  -1468.0 20460020.9  0.2  1 0  352  406  480
$GNGGA,095625.383,,,,,0,00,,,M,,,,0000*2E
$GNRMC,095625.383,A,,,,,,,080419,,*27
$GPGSA,A,1,,,,,,,,,,,,,,,*1E
$BDGSA,A,1,,,,,,,,,,,,,,,*0F
$GLGSA,A,1,,,,,,,,,,,,,,,*02
$GPGSV,2,1,05,06,00,000,42,13,00,000,40,17,00,000,44,19,00,000,43*70
$GPGSV,2,2,05,30,00,000,45*4E
$BDGSV,1,1,03,05,00,000,41,11,00,000,42,13,00,000,41*5A
$B3CN0,0,0,0,0,0,0,0,0,0,0,0,0,0,0*4C
---00000017--- Acq_st=3 0  2019-4-8 9:56:26 
[00]  05(G06)  f 42  7  0  -4532.5  2046005.8  0.1  2 0 1030 2041 1137
[01]  12(G13)  f 39  7  0    520.2  2045999.3 -0.1  2 0 1226 1692 1088
[02]  16(G17)  f 44  7  0  -1882.2  2046002.4  0.0  2 0 2309 3235 1084
[03]  18(G19)  f 43  7  0  -3074.0  2046003.9  0.0  2 0 1158 1856  951
[04]  29(G30)  f 45  7  0   1218.8  2045998.4 -0.0  2 0 1929 3074 1743
[16]  38(B02)  7 10 32  1  -4998.6  4092013.1  0.1  2 0  500  310  255
[17]  41(B05) 1f 40 30  0  -1076.9  4092002.7 -0.6  2 0  961 1076  347
[18]  47(B11) 1f 42  7  0  -3136.4  4092008.1 -0.0  2 0 1406 1642  680
[19]  49(B13) 1f 41  7  0  -1391.9  4092003.5 -0.0  2 0  974 1277  899
[32]  77(N-4)  f 39  7  0  -1320.0  1022000.8 -0.0  2 0   352  398  149
[33]  81(N00)  f 32  7  0  -4119.3  1022002.6  0.0  5 0   227  269  189
[34]  84(N03)  f 41  7  0  -3663.2  1022002.3  0.1  2 0   765 1171  291
[49]  41(B05)  1 25 17  0   -489.0 20460016.6 -0.2  1 0  201  258  175
[50]  47(B11)  1  7  7  0  -2268.2 20460050.4 -0.1  1 0  694   74  544
[51]  49(B13)  1  7  7  0  -1756.6 20460022.9 -0.1  1 0  553  253  365
$GNGGA,095626.383,,,,,0,00,,,M,,,,0000*2D
$GNRMC,095626.383,A,,,,,,,080419,,*24
$GPGSA,A,1,,,,,,,,,,,,,,,*1E
$BDGSA,A,1,,,,,,,,,,,,,,,*0F
$GLGSA,A,1,,,,,,,,,,,,,,,*02
$GPGSV,2,1,05,06,00,000,42,13,00,000,39,17,00,000,44,19,00,000,43*7E
$GPGSV,2,2,05,30,00,000,45*4E
$BDGSV,1,1,03,05,00,000,40,11,00,000,42,13,00,000,41*5B
$B3CN0,0,0,0,0,0,0,0,0,0,0,0,0,0,0*4C
---00000018--- Acq_st=7 0  2019-4-8 9:56:27 
[00]  05(G06)  f 42  7  0  -4534.0  2046005.9 -0.0  2 0 1067 1845  650
[01]  12(G13)  f 40  8  0    517.2  2045999.3 -0.0  2 0 1424 1590  887
[02]  16(G17)  f 44  7  0  -1885.7  2046002.4 -0.0  2 0 2434 3278 1347
[03]  18(G19)  f 42  7  0  -3079.8  2046003.9  0.0  2 0 1234 2176 1168
[04]  29(G30)  f 44  7  0   1213.7  2045998.4 -0.0  2 0 1696 2854 1294
[16]  38(B02)  7 13 32  1  -5004.7  4092013.2  0.1  2 0  528  309  455
[17]  41(B05) 1f 40 16  0  -1078.1  4092002.6  0.0  2 0 1185 1284  516
[18]  47(B11) 1f 42  7  0  -3144.8  4092008.1  0.0  2 0 1066 1184  691
[19]  49(B13) 1f 41  7  0  -1398.8  4092003.5  0.1  2 0 1302 1765  965
[32]  77(N-4)  f 38  7  0  -1325.7  1022000.8 -0.1  2 0   546  520  245
[33]  81(N00)  f 31  7  0  -4120.2  1022002.6  0.1  5 0   131  370  354
[34]  84(N03)  f 41  7  0  -3666.1  1022002.3 -0.0  2 0   592 1031  428
[49]  41(B05)  1 23 24  1   -784.2 20460019.5 -0.1  1 0  657  305  417
$GNGGA,095627.383,,,,,0,00,,,M,,,,0000*2C
$GNRMC,095627.383,A,,,,,,,080419,,*25
$GPGSA,A,1,,,,,,,,,,,,,,,*1E
$BDGSA,A,1,,,,,,,,,,,,,,,*0F
$GLGSA,A,1,,,,,,,,,,,,,,,*02
$GPGSV,2,1,05,06,00,000,42,13,00,000,40,17,00,000,44,19,00,000,42*71
$GPGSV,2,2,05,30,00,000,44*4F
$BDGSV,1,1,03,05,00,000,40,11,00,000,42,13,00,000,41*5B
$B3CN0,0,0,0,0,0,0,0,0,0,0,0,0,0,0*4C
---00000019--- Acq_st=7 0  2019-4-8 9:56:28 
[00]  05(G06)  f 41  7  0  -4542.0  2046005.9  0.0  2 0  852 1951  837
[01]  12(G13)  f 40  7  0    504.0  2045999.3  0.0  2 0 1079 1821  931
[02]  16(G17)  f 45 10  0  -1893.0  2046002.4 -0.0  2 0 2397 3212 1237
[03]  18(G19)  f 43  7  0  -3088.2  2046003.9 -0.0  2 0 1758 2352  737
[04]  29(G30)  f 44  7  0   1207.4  2045998.4  0.0  2 0 2028 3138 1430
[16]  38(B02)  7 10 33  1  -4999.2  4092013.1 -0.1  2 0  140   85  156
[17]  41(B05) 1f 40 25  0  -1091.3  4092002.6  0.3  2 0  698  857  268
[18]  47(B11) 1f 42  7  0  -3147.7  4092008.1 -0.1  2 0 1412 1998  754
[19]  49(B13) 1f 41  7  0  -1407.0  4092003.6  0.1  2 0 1221 1277  246
[32]  77(N-4)  f 38  7  0  -1335.2  1022000.8  0.0  2 0   371  549  160
[33]  81(N00)  f 33  7  0  -4126.4  1022002.6  0.1  5 0   558  561  464
[34]  84(N03)  f 40  7  0  -3673.7  1022002.3  0.1  2 0   506  894  597
[49]  41(B05)  1 21 23  1  -1263.2 20460022.7  0.1  1 0  392   84   82
[50]  47(B11)  1  7  7  0  -2986.3 20460048.8 -0.1  1 0  534  412  427
[51]  49(B13)  1  7  7  0   -922.4 20460023.2 -0.2  1 0  386  277  508
$GNGGA,095628.383,,,,,0,00,,,M,,,,0000*23
$GNRMC,095628.383,A,,,,,,,080419,,*2A
$GPGSA,A,1,,,,,,,,,,,,,,,*1E
$BDGSA,A,1,,,,,,,,,,,,,,,*0F
$GLGSA,A,1,,,,,,,,,,,,,,,*02
$GPGSV,2,1,05,06,00,000,41,13,00,000,40,17,00,000,45,19,00,000,43*72
$GPGSV,2,2,05,30,00,000,44*4F
$BDGSV,1,1,03,05,00,000,40,11,00,000,42,13,00,000,41*5B
$B3CN0,0,0,0,0,0,0,0,0,0,0,0,0,0,0*4C
---00000020--- Acq_st=3 0  2019-4-8 9:56:29 
[00]  05(G06)  f 42  7  0  -4539.4  2046005.8 -0.1  2 0 1047 1890  724
[01]  12(G13)  f 40  7  0    506.4  2045999.3 -0.1  2 0 1025 1761  943
[02]  16(G17)  f 45  7  0  -1890.5  2046002.4 -0.0  2 0 2339 3020 1318
[03]  18(G19)  f 43  7  0  -3085.4  2046003.9  0.0  2 0 1363 2278 1784
[04]  29(G30)  f 44  7  0   1209.8  2045998.3  0.0  2 0 1999 3114 1480
[05]  06(G07)  1 22  7  0   2500.0  2045997.6  0.0  1 0  690  660  641
[16]  38(B02)  7 10 32  1  -5005.0  4092013.1 -0.0  2 0  237  356  608
[17]  41(B05) 1f 40 24  0  -1082.6  4092002.9 -0.8  2 0  883  976  741
[18]  47(B11) 1f 42  7  0  -3146.6  4092008.1 -0.0  2 0  538  657  388
[19]  49(B13) 1f 41 12  0  -1407.2  4092003.6  0.0  2 0 1021 1254  171
[32]  77(N-4)  f 38  7  0  -1333.4  1022000.8  0.0  2 0   499  839  299
[33]  81(N00)  f 33  7  0  -4126.2  1022002.7  0.0  5 0   144  616  627
[34]  84(N03)  f 40  7  0  -3671.9  1022002.3 -0.1  2 0   521  829  336
[50]  47(B11)  1  7  8  0  -3048.0 20460050.8  0.1  1 0   92  514  438
[51]  49(B13)  1  7  7  0   -796.5 20460022.9 -0.2  1 0  385  397  148
$GNGGA,095629.383,,,,,0,00,,,M,,,,0000*22
$GNRMC,095629.383,A,,,,,,,080419,,*2B
$GPGSA,A,1,,,,,,,,,,,,,,,*1E
$BDGSA,A,1,,,,,,,,,,,,,,,*0F
$GLGSA,A,1,,,,,,,,,,,,,,,*02
$GPGSV,2,1,05,06,00,000,42,13,00,000,40,17,00,000,45,19,00,000,43*71
$GPGSV,2,2,05,30,00,000,44*4F
$BDGSV,1,1,03,05,00,000,40,11,00,000,42,13,00,000,41*5B
$B3CN0,0,0,0,0,0,0,0,0,0,0,0,0,0,0*4C
---00000021--- Acq_st=3 0  2019-4-8 9:56:30 
[00]  05(G06)  f 43  7  0  -4540.8  2046005.8  0.0  2 0 1067 2103 1181
[01]  12(G13)  f 40  7  0    513.2  2045999.3  0.1  2 0 1118 1078  495
[02]  16(G17)  f 45 10  0  -1887.5  2046002.4 -0.0  2 0 2171 3113 1307
[03]  18(G19)  f 43 10  0  -3084.0  2046003.9 -0.0  2 0 1834 2776 1073
[04]  29(G30)  f 44  7  0   1207.7  2045998.4  0.0  2 0 2219 3595 1790
[05]  06(G07)  1 26  7  0   2456.8  2045997.3  0.2  1 0  406  603   76
[16]  38(B02)  7 20 30  1  -4994.6  4092013.0  0.1  2 0  508  442  336
[17]  41(B05) 1f 40 16  0  -1086.4  4092002.7 -0.6  2 0 1182  960  447
[18]  47(B11) 1f 41  7  0  -3150.4  4092008.1 -0.1  2 0 1261 1516  814
[19]  49(B13) 1f 41  9  0  -1403.3  4092003.6  0.0  2 0  929 1418  892
[32]  77(N-4)  f 38  7  0  -1331.8  1022000.8 -0.1  2 0   298  686  442
[33]  81(N00)  f 34  7  0  -4123.4  1022002.7  0.0  5 0   231  339  262
[34]  84(N03)  f 41  7  0  -3668.1  1022002.3 -0.0  2 0   664 1227  616
[49]  41(B05)  1 25 25  0   -889.0 20460016.7 -0.1  1 0  581  316  581
[50]  47(B11)  1  9  7  0  -3066.5 20460050.8  0.1  1 0  342  450  376
[51]  49(B13)  1  9  7  0  -1109.4 20460023.3 -0.0  1 0  305  445  150
$GNGGA,095630.383,,,,,0,00,,,M,,,,0000*2A
$GNRMC,095630.383,A,,,,,,,080419,,*23
$GPGSA,A,1,,,,,,,,,,,,,,,*1E
$BDGSA,A,1,,,,,,,,,,,,,,,*0F
$GLGSA,A,1,,,,,,,,,,,,,,,*02
$GPGSV,2,1,05,06,00,000,43,13,00,000,40,17,00,000,45,19,00,000,43*70
$GPGSV,2,2,05,30,00,000,44*4F
$BDGSV,1,1,04,02,00,000,20,05,00,000,40,11,00,000,41,13,00,000,41*6F
$B3CN0,0,0,0,0,0,0,0,0,0,0,0,0,0,0*4C
---00000022--- Acq_st=3 0  2019-4-8 9:56:31 
[00]  05(G06)  f 42  7  0  -4534.4  2046005.8  0.1  2 0 1381 1804  752
[01]  12(G13)  f 41  7  0    519.6  2045999.3 -0.1  2 0 1197 1673 1183
[02]  16(G17)  f 45  7  0  -1883.0  2046002.4  0.0  2 0 2090 3072 1427
[03]  18(G19)  f 44  7  0  -3076.3  2046003.9  0.0  2 0 1699 2512 1116
[04]  29(G30)  f 44  7  0   1217.1  2045998.4  0.0  2 0 2138 3094 1318
[05]  06(G07)  7 30  7  0   2500.4  2045996.7  0.0  5 0  874  938  694
[16]  38(B02)  7 10 32  1  -5008.2  4092012.9 -0.1  2 0   70  260  516
[17]  41(B05) 1f 41 28  0  -1079.0  4092002.8  0.0  2 0  779 1203  805
[18]  47(B11) 1f 41  7  0  -3145.7  4092008.1  0.1  2 0  913 1273  700
[19]  49(B13) 1f 41  7  0  -1394.4  4092003.5 -0.1  2 0  865 1659  840
[32]  77(N-4)  f 38  7  0  -1321.2  1022000.8  0.1  2 0   647  692  366
[33]  81(N00)  f 34  7  0  -4116.7  1022002.6 -0.0  5 0   239  508  135
[34]  84(N03)  f 40  7  0  -3664.6  1022002.3  0.2  2 0   882 1088  199
[49]  41(B05)  1 26 25  0   -515.5 20460016.6 -0.2  1 0  135  359  175
[50]  47(B11)  1  7  7  0  -2514.4 20460050.0 -0.0  1 0  293  135  237
[51]  49(B13)  1  7  7  0   -991.6 20460021.9  0.2  1 0  139  494  579
$GNGGA,095631.383,,,,,0,00,,,M,,,,0000*2B
$GNRMC,095631.383,A,,,,,,,080419,,*22
$GPGSA,A,1,,,,,,,,,,,,,,,*1E
$BDGSA,A,1,,,,,,,,,,,,,,,*0F
$GLGSA,A,1,,,,,,,,,,,,,,,*02
$GPGSV,2,1,06,06,00,000,42,13,00,000,41,17,00,000,45,19,00,000,44*74
$GPGSV,2,2,06,30,00,000,44,07,00,000,30*78
$BDGSV,1,1,03,05,00,000,41,11,00,000,41,13,00,000,41*59
$B3CN0,0,0,0,0,0,0,0,0,0,0,0,0,0,0*4C
---00000023--- Acq_st=3 0  2019-4-8 9:56:32 
[00]  05(G06)  f 42  8  0  -4533.1  2046005.8 -0.0  2 0 1189 1501  651
[01]  12(G13)  f 41  7  0    513.0  2045999.3 -0.1  2 0  748 1492  740
[02]  16(G17)  f 44  7  0  -1884.5  2046002.4  0.0  2 0 2164 3093 1336
[03]  18(G19)  f 44  7  0  -3077.0  2046003.9  0.0  2 0 1961 2761 1188
[04]  29(G30)  f 44  7  0   1215.1  2045998.4  0.0  2 0 1461 2628 1082
[05]  06(G07)  7 32  7  0   2491.5  2045996.7  0.0  5 0  396  476  294
[16]  38(B02)  7 36 32  1  -4999.0  4092013.0 -0.0  2 0  264   45  332
[17]  41(B05) 1f 41 19  0  -1081.0  4092002.8 -0.3  2 0 1049 1379  767
[18]  47(B11) 1f 41  7  0  -3137.9  4092008.1 -0.1  2 0 1206 1298  497
[19]  49(B13) 1f 41  7  0  -1395.5  4092003.5  0.0  2 0  801 1043  358
[32]  77(N-4) 8f 39  7  0  -1320.5  1022000.7 -0.3  2 0   458  799  436
[33]  81(N00) 8f 33  7  0  -4117.4  1022002.5 -0.0  5 0    90  542  353
[34]  84(N03) 8f 41  7  0  -3664.4  1022002.3  0.1  2 0   794 1258  665
[49]  41(B05)  1 22 25  1   -933.9 20460022.1 -0.0  1 0  308  429  318
$GNGGA,095632.383,,,,,0,00,,,M,,,,0000*28
$GNRMC,095632.383,A,,,,,,,080419,,*21
$GPGSA,A,1,,,,,,,,,,,,,,,*1E
$BDGSA,A,1,,,,,,,,,,,,,,,*0F
$GLGSA,A,1,,,,,,,,,,,,,,,*02
$GPGSV,2,1,06,06,00,000,42,13,00,000,41,17,00,000,44,19,00,000,44*75
$GPGSV,2,2,06,30,00,000,44,07,00,000,32*7A
$BDGSV,1,1,04,02,00,000,36,05,00,000,41,11,00,000,41,13,00,000,41*69
$B3CN0,0,0,0,0,0,0,0,0,0,0,0,0,0,0*4C
---00000024--- Acq_st=3 0  2019-4-8 9:56:33 
[00]  05(G06)  f 42  7  0  -4534.1  2046005.8  0.0  2 0 1167 1731  918
[01]  12(G13)  f 40  7  0    518.6  2045999.3 -0.1  2 0  980 1614  692
[02]  16(G17)  f 44  8  0  -1881.8  2046002.4 -0.0  2 0 1865 3276 1442
[03]  18(G19)  f 44  7  0  -3075.8  2046003.9 -0.0  2 0 1818 3115 1382
[04]  29(G30)  f 45  7  0   1218.8  2045998.4  0.0  2 0 1914 3366 1471
[05]  06(G07)  7 32  7  0   2497.0  2045996.6 -0.0  5 0  318  756  617
[16]  38(B02)  7 21 31  1  -5002.0  4092013.3 -0.1  2 0  127  546  133
[17]  41(B05) 1f 40 24  0  -1076.3  4092002.7  0.2  2 0  976 1466  655
[18]  47(B11) 1f 41  7  0  -3137.4  4092008.1 -0.1  2 0 1265 1566  648
[19]  49(B13) 1f 41  7  0  -1397.4  4092003.5  0.1  2 0  796 1173  495
[32]  77(N-4) 8f 39  7  0  -1321.6  1022000.8  0.5  2 0   712 1122  473
[33]  81(N00) 8f 32  7  0  -4116.3  1022002.5  0.0  5 0   519  590  142
[34]  84(N03) 8f 41  7  0  -3661.2  1022002.3  0.0  2 0   351  936  634
[49]  41(B05)  1 24 22  1   -955.7 20460023.4 -0.0  1 0  260  481  853
[50]  47(B11)  1 11  7  0  -2384.7 20460050.3  0.1  1 0  287  265  442
[51]  49(B13)  1  7  7  0  -1017.9 20460023.1 -0.1  1 0   31  272  128
$GNGGA,095633.383,,,,,0,00,,,M,,,,0000*29
$GNRMC,095633.383,A,,,,,,,080419,,*20
$GPGSA,A,1,,,,,,,,,,,,,,,*1E
$BDGSA,A,1,,,,,,,,,,,,,,,*0F
$GLGSA,A,1,,,,,,,,,,,,,,,*02
$GPGSV,2,1,06,06,00,000,42,13,00,000,40,17,00,000,44,19,00,000,44*74
$GPGSV,2,2,06,30,00,000,45,07,00,000,32*7B
$BDGSV,1,1,04,02,00,000,21,05,00,000,40,11,00,000,41,13,00,000,41*6E
$B3CN0,0,0,0,0,0,0,0,0,0,0,0,0,0,0*4C
---00000025--- Acq_st=3 0  2019-4-8 9:56:34 
[00]  05(G06)  f 42  7  0  -4538.3  2046005.8  0.1  2 0 1353 1902  648
[01]  12(G13)  f 40  7  0    514.1  2045999.3  0.0  2 0  587 1305  675
[02]  16(G17)  f 44  7  0  -1888.5  2046002.4  0.0  2 0 2223 3145 1503
[03]  18(G19)  f 44 11  0  -3080.0  2046003.9 -0.0  2 0 1406 2770 1306
[04]  29(G30)  f 44  7  0   1213.6  2045998.3 -0.0  2 0 2569 3530 1679
[05]  06(G07)  7 32  7  0   2490.4  2045996.7  0.1  5 0  767  634  261
[16]  38(B02)  7 36 33  1  -5001.5  4092013.1  0.1  2 0  435  363  205
[17]  41(B05) 1f 40 26  0  -1078.7  4092002.6 -0.5  2 0  800 1169  696
[18]  47(B11) 1f 41  7  0  -3144.2  4092008.1 -0.1  2 0 1039 1026  257
[19]  49(B13) 1f 41 11  0  -1397.6  4092003.6 -0.1  2 0 1043 1139  575
[20]  60(B24)  1  7  7  0  -1663.1  4092006.0  0.0  1 0  476 1286 1043
[21]  61(B25)  1  7  7  0  -4000.0  4092010.9  0.1  1 0 1116 2003 1123
[22]  62(B26)  1  7  7  0   1250.0  4091999.1 -0.0  1 0  684 1051 1174
[32]  77(N-4) 8f 41  7  0  -1324.7  1022000.7  0.3  2 0   908 1195  671
[33]  81(N00) 8f 27  7  0  -4158.4  1022002.8 -0.0  5 0   356  175  414
[34]  84(N03) 8f 41  7  0  -3666.6  1022002.3 -0.0  2 0  1160 1425  699
[50]  47(B11)  1 11  7  0  -2652.4 20460049.1  0.1  1 0  221  494  474
[51]  49(B13)  1  7  7  0   -451.8 20460022.7  0.1  1 0  524  719  707
$GNGGA,095634.383,,,,,0,00,,,M,,,,0000*2E
$GNRMC,095634.383,A,,,,,,,080419,,*27
$GPGSA,A,1,,,,,,,,,,,,,,,*1E
$BDGSA,A,1,,,,,,,,,,,,,,,*0F
$GLGSA,A,1,,,,,,,,,,,,,,,*02
$GPGSV,2,1,06,06,00,000,42,13,00,000,40,17,00,000,44,19,00,000,44*74
$GPGSV,2,2,06,30,00,000,44,07,00,000,32*7A
$BDGSV,1,1,03,05,00,000,40,11,00,000,41,13,00,000,41*58
$B3CN0,0,0,0,0,0,0,0,0,0,0,0,0,0,0*4C
---00000026--- Acq_st=3 0  2019-4-8 9:56:35 
[00]  05(G06)  f 42  7  0  -4534.3  2046005.8  0.1  2 0 1427 1773  620
[01]  12(G13)  f 41  7  0    516.7  2045999.3  0.1  2 0 1330 1428  783
[02]  16(G17)  f 45  7  0  -1884.6  2046002.4 -0.0  2 0 2154 2958 1459
[03]  18(G19)  f 44  7  0  -3081.2  2046003.9  0.0  2 0 1815 2696 1387
[04]  29(G30)  f 45  7  0   1211.8  2045998.3 -0.0  2 0 2422 3361 1369
[05]  06(G07)  7 29  7  0   2494.9  2045996.7 -0.0  5 0  464  316  289
[16]  38(B02)  7 36 31  1  -5004.1  4092013.2 -0.0  2 0  251  154  158
[17]  41(B05) 1f 40 21  0  -1082.0  4092002.7 -0.3  2 0  799 1182  394
[18]  47(B11) 1f 41 11  0  -3143.3  4092008.1  0.0  2 0 1053 1194  391
[19]  49(B13) 1f 41 10  0  -1395.8  4092003.6 -0.1  2 0  900 1393  693
[20]  60(B24)  1 43  7  0  -1661.1  4092004.0  1.0  1 0 1555 1624  599
[21]  61(B25)  1  7  7  0  -3892.9  4092010.0  0.4  1 0 1128 1980 1074
[22]  62(B26)  1  7 13  0   1233.1  4091996.9  0.3  1 0 1071 1048  394
[32]  77(N-4) 8f 41  7  0  -1321.0  1022000.8 -0.7  2 0   667 1003  761
[33]  81(N00) 8f  7  7  0  -4344.0  1022002.6  0.1 10 0   205  452  576
[34]  84(N03) 8f 40  7  0  -3664.0  1022002.3 -0.0  2 0   740 1250  409
[49]  41(B05)  1 23 24  0  -1055.5 20460021.3  0.0  1 0  135  310  122
[50]  47(B11)  1  7  7  0  -1989.5 20460050.0 -0.0  1 0  554   85  148
[51]  49(B13)  1 13  7  0   -425.6 20460022.7 -0.2  1 0  487  253  387
$GNGGA,095635.383,,,,,0,00,,,M,,,,0000*2F
$GNRMC,095635.383,A,,,,,,,080419,,*26
$GPGSA,A,1,,,,,,,,,,,,,,,*1E
$BDGSA,A,1,,,,,,,,,,,,,,,*0F
$GLGSA,A,1,,,,,,,,,,,,,,,*02
$GPGSV,2,1,06,06,00,000,42,13,00,000,41,17,00,000,45,19,00,000,44*74
$GPGSV,2,2,06,30,00,000,45,07,00,000,29*71
$BDGSV,1,1,04,02,00,000,36,05,00,000,40,11,00,000,41,13,00,000,41*68
$B3CN0,0,0,0,0,0,0,0,0,0,0,0,0,0,0*4C
---00000027--- Acq_st=7 0  2019-4-8 9:56:36 
[00]  05(G06)  f 42  7  0  -4541.2  2046005.8 -0.0  2 0  841 1376  303
[01]  12(G13)  f 41  7  0    511.0  2045999.3  0.0  2 0 1167 2050  821
[02]  16(G17)  f 45  9  0  -1891.2  2046002.4 -0.0  2 0 1834 2463 1130
[03]  18(G19)  f 44  9  0  -3084.7  2046003.9  0.0  2 0 2008 2804 1239
[04]  29(G30)  f 45  7  0   1210.5  2045998.4  0.0  2 0 1911 3546 1735
[05]  06(G07)  7 26  7  0   2488.4  2045996.6  0.1 10 0  488  251  285
[16]  38(B02)  7 14 27  1  -5160.2  4092013.6  0.1  2 0  417  251  320
[17]  41(B05) 1f 39 29  0  -1091.1  4092002.8 -0.2  2 0  887 1294  779
[18]  47(B11) 1f 40  7  0  -3147.1  4092008.2 -0.0  2 0  816  864  287
[19]  49(B13) 1f 41 11  0  -1404.7  4092003.6  0.2  2 0 1077 1519  279
[20]  60(B24)  7 40  7  0  -1663.7  4092004.3  0.2  2 0 1031 1765  863
[21]  61(B25)  7 35  7  0  -3894.2  4092010.1  0.1  2 0 1196 1507 1001
[22]  62(B26)  7 31  7  0   1233.5  4091996.6 -0.0  5 0 1124 1047  274
[32]  77(N-4) 8f 41  7  0  -1327.9  1022000.8 -0.2  2 0   263  580  400
[33]  81(N00) 8f  7  7  0  -4485.4  1022002.8 -0.1 10 0   302  273  452
[34]  84(N03) 8f 40  7  0  -3672.4  1022002.3 -0.1  2 0   410  530   44
[49]  41(B05)  1 23 22  1  -1521.8 20460016.8  0.0  1 0  312  205  270
[50]  47(B11)  1  7  7  0  -2207.9 20460051.6  0.0  1 0  507  483  859
[51]  49(B13)  1  7  9  0    384.6 20460024.0  0.1  1 0  330  486  433
$GNGGA,095636.383,,,,,0,00,,,M,,,,0000*2C
$GNRMC,095636.383,A,,,,,,,080419,,*25
$GPGSA,A,1,,,,,,,,,,,,,,,*1E
$BDGSA,A,1,,,,,,,,,,,,,,,*0F
$GLGSA,A,1,,,,,,,,,,,,,,,*02
$GPGSV,2,1,06,06,00,000,42,13,00,000,41,17,00,000,45,19,00,000,44*74
$GPGSV,2,2,06,30,00,000,45,07,00,000,26*7E
$BDGSV,2,1,06,05,00,000,39,11,00,000,40,13,00,000,41,24,00,000,40*63
$BDGSV,2,2,06,25,00,000,35,26,00,000,31*69
$B3CN0,0,0,0,0,0,0,0,0,0,0,0,0,0,0*4C
---00000028--- Acq_st=7 0  2019-4-8 9:56:37 
[00]  05(G06)  f 41  7  0  -4532.1  2046005.9  0.0  2 0 1513 1562  953
[01]  12(G13)  f 41  7  0    518.3  2045999.3  0.1  2 0  753 1605  504
[02]  16(G17)  f 45  7  0  -1886.8  2046002.4 -0.0  2 0 2125 3013 1129
[03]  18(G19)  f 45  7  0  -3079.8  2046003.9 -0.0  2 0 1747 2445 1187
[04]  29(G30)  f 45  7  0   1214.5  2045998.4  0.0  2 0 2193 3288 1630
[05]  06(G07)  7 27  7  0   2489.4  2045996.8 -0.0 10 0  372  429  568
[16]  38(B02)  7 10 10  0  -5438.9  4092014.1 -0.0  2 0  217  297  199
[17]  41(B05) 1f 40 22  0  -1084.9  4092002.8  0.9  2 0  945  907  710
[18]  47(B11) 1f 41  7  0  -3146.4  4092008.1  0.0  2 0  983 1101  545
[19]  49(B13) 1f 41  8  0  -1398.8  4092003.5  0.0  2 0  956 1342  484
[20]  60(B24)  7 42  8  0  -1664.5  4092004.2  0.0  2 0 1219 1938 1198
[21]  61(B25)  7 43  7  0  -3888.1  4092010.1 -0.1  2 0 1388 1889 1015
[22]  62(B26)  7 39 14  0   1234.1  4091996.6 -0.0  2 0 1079  976  315
[32]  77(N-4) 8f 40  7  0  -1322.9  1022000.8 -0.3  2 0   464  823  596
[33]  81(N00) 8f  7  7  0  -4621.6  1022002.8 -0.1 10 0   438  192   63
[34]  84(N03) 8f 40  7  0  -3667.2  1022002.3 -0.1  2 0   481 1024  654
[49]  41(B05)  1 26 23  0  -1531.0 20460021.3  0.0  1 0  418  302  829
$GNGGA,095637.383,,,,,0,00,,,M,,,,0000*2D
$GNRMC,095637.383,A,,,,,,,080419,,*24
$GPGSA,A,1,,,,,,,,,,,,,,,*1E
$BDGSA,A,1,,,,,,,,,,,,,,,*0F
$GLGSA,A,1,,,,,,,,,,,,,,,*02
$GPGSV,2,1,06,06,00,000,41,13,00,000,41,17,00,000,45,19,00,000,45*76
$GPGSV,2,2,06,30,00,000,45,07,00,000,27*7F
$BDGSV,2,1,06,05,00,000,40,11,00,000,41,13,00,000,41,24,00,000,42*6E
$BDGSV,2,2,06,25,00,000,43,26,00,000,39*60
$B3CN0,0,0,0,0,0,0,0,0,0,0,0,0,0,0*4C
---00000029--- Acq_st=3 0  2019-4-8 9:56:38 
[00]  05(G06)  f 41  7  0  -4536.7  2046005.8  0.0  2 0 1693 1810  845
[01]  12(G13)  f 40  7  0    510.6  2045999.3  0.0  2 0  771 1594  723
[02]  16(G17)  f 45  7  0  -1888.6  2046002.4  0.0  2 0 1914 3182 1854
[03]  18(G19)  f 45  7  0  -3082.5  2046003.9  0.0  2 0 1827 2736 1158
[04]  29(G30)  f 45  7  0   1214.2  2045998.4 -0.0  2 0 2229 3304 1300
[05]  06(G07)  7 29  8  0   2484.7  2045996.7 -0.0  5 0  389  673  258
[16]  38(B02)  7 23 26  1  -5997.8  4092015.8  0.2  2 0  401  394  286
[17]  41(B05) 1f 41 24  0  -1085.6  4092002.7 -0.8  2 0 1375 1270  438
[18]  47(B11) 1f 41  7  0  -3148.0  4092008.1 -0.1  2 0 1435 1608  865
[19]  49(B13) 1f 41  7  0  -1400.8  4092003.6  0.0  2 0 1111 1448  881
[20]  60(B24)  7 41  7  0  -1663.8  4092004.2 -0.0  2 0 1150 1460  527
[21]  61(B25)  7 43  7  0  -3893.4  4092010.1 -0.0  2 0 1660 2094  907
[22]  62(B26)  7 39 12  0   1231.0  4091996.6  0.1  2 0  725  835   74
[32]  77(N-4) 8f 39  7  0  -1324.7  1022000.8 -0.1  2 0   435  810  226
[34]  84(N03) 8f 41  7  0  -3666.5  1022002.3 -0.1  2 0   707  877  390
[49]  41(B05)  1 22 26  0  -1720.5 20460018.4 -0.0  1 0  410   58  391
[50]  47(B11)  1 11  7  0  -3101.1 20460049.8 -0.0  1 0   20  326  121
[51]  49(B13)  1  7 11  0  -1035.6 20460022.6 -0.0  1 0  524  346  476
$GNGGA,095638.383,,,,,0,00,,,M,,,,0000*22
$GNRMC,095638.383,A,,,,,,,080419,,*2B
$GPGSA,A,1,,,,,,,,,,,,,,,*1E
$BDGSA,A,1,,,,,,,,,,,,,,,*0F
$GLGSA,A,1,,,,,,,,,,,,,,,*02
$GPGSV,2,1,06,06,00,000,41,13,00,000,40,17,00,000,45,19,00,000,45*77
$GPGSV,2,2,06,30,00,000,45,07,00,000,29*71
$BDGSV,2,1,07,02,00,000,22,05,00,000,41,11,00,000,41,13,00,000,41*6C
$BDGSV,2,2,07,24,00,000,41,25,00,000,43,26,00,000,39*52
$B3CN0,0,0,0,0,0,0,0,0,0,0,0,0,0,0*4C
$GLGSV,1,1,02,17,00,000,39,18,00,000,41*67
---00000030--- Acq_st=3 0  2019-4-8 9:56:39 
[00]  05(G06)  f 41  7  0  -4545.3  2046005.8  0.0  2 0  933 1878  907
[01]  12(G13)  f 40  7  0    507.9  2045999.3  0.0  2 0  825 1453  576
[02]  16(G17)  f 44  7  0  -1894.8  2046002.4  0.0  2 0 1701 3110 1639
[03]  18(G19)  f 44  7  0  -3089.8  2046004.0 -0.0  2 0 1826 3107 2001
[04]  29(G30)  f 44  7  0   1205.7  2045998.4  0.0  2 0 1765 2815 1222
[05]  06(G07)  7 30  7  0   2486.8  2045996.8 -0.0  5 0  408  477  938
[06]  27(G28)  1  7  7  0  -2500.0  2046003.8 -0.0  1 0  560  394  669
[16]  38(B02)  7 10 29  1  -5986.4  4092015.7 -0.1  2 0  356  329  151
[17]  41(B05) 1f 40 26  0  -1093.3  4092002.8  0.1  2 0  817 1257  721
[18]  47(B11) 1f 41  7  0  -3156.3  4092008.1  0.1  2 0  981 1325  796
[19]  49(B13) 1f 41  7  0  -1408.8  4092003.6  0.0  2 0  947 1121  665
[20]  60(B24)  7 42  7  0  -1672.8  4092004.3 -0.0  2 0  991 1674  585
[21]  61(B25)  7 42  7  0  -3901.0  4092010.1 -0.0  2 0 1231 1784 1048
[22]  62(B26)  7 39  8  0   1228.9  4091996.7 -0.1  2 0  735  720  287
[32]  77(N-4) 8f 39  7  0  -1332.1  1022000.8 -0.1  2 0   270  904  133
[34]  84(N03) 8f 41  7  0  -3674.3  1022002.3 -0.0  2 0   649 1346  972
[50]  47(B11)  1  7  7  0  -2671.4 20460048.4 -0.1  1 0  527  673   99
[51]  49(B13)  1  7  7  0  -1193.0 20460021.4 -0.1  1 0  555  152  175
$GNGGA,095639.383,,,,,0,00,,,M,,,,0000*23
$GNRMC,095639.383,A,,,,,,,080419,,*2A
$GPGSA,A,1,,,,,,,,,,,,,,,*1E
$BDGSA,A,1,,,,,,,,,,,,,,,*0F
$GLGSA,A,1,,,,,,,,,,,,,,,*02
$GPGSV,2,1,06,06,00,000,41,13,00,000,40,17,00,000,44,19,00,000,44*77
$GPGSV,2,2,06,30,00,000,44,07,00,000,30*78
$BDGSV,2,1,06,05,00,000,40,11,00,000,41,13,00,000,41,24,00,000,42*6E
$BDGSV,2,2,06,25,00,000,42,26,00,000,39*61
$B3CN0,0,0,0,0,0,0,0,0,0,0,0,0,0,0*4C
$GLGSV,1,1,02,17,00,000,39,18,00,000,41*67
---00000031--- Acq_st=3 0  2019-4-8 9:56:40 
[00]  05(G06)  f 41  7  0  -4537.1  2046005.8 -0.0  2 0 1179 1729  481
[01]  12(G13)  f 41  7  0    506.9  2045999.3 -0.1  2 0  864 1654  729
[02]  16(G17)  f 44  7  0  -1890.7  2046002.4 -0.0  2 0 2322 3267 1513
[03]  18(G19)  f 44  7  0  -3087.5  2046003.9  0.0  2 0 1388 2825 1576
[04]  29(G30)  f 45  7  0   1210.8  2045998.4 -0.0  2 0 1720 2885 1564
[05]  06(G07)  7 31 12  0   2486.9  2045996.7  0.1  5 0  461 1056 1031
[06]  27(G28)  1 24  7  0  -2500.4  2046004.0  0.2  1 0   95   47   97
[16]  38(B02)  7 10 26  1  -6219.5  4092016.5 -0.2  2 0  342  384  182
[17]  41(B05) 1f 40 10  0  -1087.4  4092002.7  0.6  2 0  740 1185  602
[18]  47(B11) 1f 41  7  0  -3147.5  4092008.1 -0.1  2 0 1109 1804  727
[19]  49(B13) 1f 41 10  0  -1402.9  4092003.6 -0.0  2 0  809 1411  819
[20]  60(B24) 1f 41  8  0  -1667.2  4092004.2 -0.1  2 0 1139 1496  804
[21]  61(B25) 1f 43  7  0  -3894.1  4092010.1  0.1  2 0 1581 2144  886
[22]  62(B26) 1f 39  7  0   1235.8  4091996.6  0.1  2 0  966  749  170
[32]  77(N-4) 8f 39 10  0  -1325.9  1022000.8  0.3  2 0   600 1127  438
[34]  84(N03) 8f 41  7  0  -3669.2  1022002.3  0.1  2 0   594  976  529
[49]  41(B05)  1 23 21  0  -1191.9 20460017.1  0.1  1 0  915  927  801
[50]  47(B11)  1  7  7  0  -3200.5 20460049.7  0.2  1 0  150   47  108
[51]  49(B13)  1  7  7  0  -1025.2 20460022.0 -0.0  1 0  302  281  311
$GNGGA,095640.383,,,,,0,00,,,M,,,,0000*2D
$GNRMC,095640.383,A,,,,,,,080419,,*24
$GPGSA,A,1,,,,,,,,,,,,,,,*1E
$BDGSA,A,1,,,,,,,,,,,,,,,*0F
$GLGSA,A,1,,,,,,,,,,,,,,,*02
$GPGSV,2,1,06,06,00,000,41,13,00,000,41,17,00,000,44,19,00,000,44*76
$GPGSV,2,2,06,30,00,000,45,07,00,000,31*78
$BDGSV,2,1,06,05,00,000,40,11,00,000,41,13,00,000,41,24,00,000,41*6D
$BDGSV,2,2,06,25,00,000,43,26,00,000,39*60
$B3CN0,0,0,0,0,0,0,0,0,0,0,0,0,0,0*4C
$GLGSV,1,1,02,17,00,000,39,18,00,000,41*67
---00000032--- Acq_st=3 0  2019-4-8 9:56:41 
[00]  05(G06)  f 41  7  0  -4535.1  2046005.8  0.2  2 0 1025 1303  496
[01]  12(G13)  f 41  7  0    518.2  2045999.3  0.0  2 0 1191 1846 1243
[02]  16(G17)  f 44  7  0  -1885.8  2046002.4  0.0  2 0 1622 2653 1664
[03]  18(G19)  f 44  7  0  -3076.5  2046004.0  0.1  2 0 2165 3215 1323
[04]  29(G30)  f 44  7  0   1221.7  2045998.4  0.0  2 0 1709 3058 1463
[05]  06(G07)  7 30  7  0   2493.8  2045996.8 -0.0  5 0  255  140  336
[06]  27(G28)  7 24  7  0  -2477.1  2046003.2  0.1 10 0   62  787  402
[16]  38(B02)  7 19 13  1  -6561.8  4092017.1  0.1  2 0  104   91  313
[17]  41(B05) 1f 39 28  0  -1079.9  4092002.7  0.3  2 0  843 1195  773
[18]  47(B11) 1f 41  7  0  -3144.4  4092008.1 -0.0  2 0 1017 1465  666
[19]  49(B13) 1f 41  7  0  -1400.6  4092003.5 -0.1  2 0  852 1307  667
[20]  60(B24) 1f 42  7  0  -1658.4  4092004.2  0.0  2 0 1275 1514  323
[21]  61(B25) 1f 42  7  0  -3887.1  4092010.1  0.0  2 0 1359 1994  778
[22]  62(B26) 1f 39  8  0   1236.2  4091996.6  0.1  2 0  288  415  237
[32]  77(N-4) 8f 40  7  0  -1317.7  1022000.8 -0.7  2 0   990 1199  462
[34]  84(N03) 8f 41  7  0  -3663.9  1022002.3  0.0  2 0   465  982  745
[49]  41(B05)  1 26 23  0  -1235.8 20460021.6  0.0  1 0  368  124  278
[50]  47(B11)  1  7  7  0  -2612.0 20460051.4 -0.0  1 0 1122 1262  805
[51]  49(B13)  1  7  7  0  -1377.5 20460021.4  0.1  1 0  295  160  408
[52]  60(B24)  1  7  7  0  -1139.6 20460028.6  0.1  1 0  423  577   77
[53]  61(B25)  1  7  7  0  -2855.9 20460060.9  0.0  1 0  872  452  456
[54]  62(B26)  1  7  7  0   1000.3 20459982.3  0.1  1 0   92  107  319
$GNGGA,095641.383,,,,,0,00,,,M,,,,0000*2C
$GNRMC,095641.383,A,,,,,,,080419,,*25
$GPGSA,A,1,,,,,,,,,,,,,,,*1E
$BDGSA,A,1,,,,,,,,,,,,,,,*0F
$GLGSA,A,1,,,,,,,,,,,,,,,*02
$GPGSV,2,1,07,06,00,000,41,13,00,000,41,17,00,000,44,19,00,000,44*77
$GPGSV,2,2,07,30,00,000,44,07,00,000,30,28,00,000,24*45
$BDGSV,2,1,07,02,00,000,19,05,00,000,39,11,00,000,41,13,00,000,41*6B
$BDGSV,2,2,07,24,00,000,42,25,00,000,42,26,00,000,39*50
$B3CN0,0,0,0,0,0,0,0,0,0,0,0,0,0,0*4C
$GLGSV,1,1,02,17,00,000,40,18,00,000,41*69
---00000033--- Acq_st=3 0  2019-4-8 9:56:42 
[00]  05(G06)  f 41  7  0  -4532.1  2046005.8  0.0  2 0  834 1363  571
[01]  12(G13)  f 41  7  0    517.7  2045999.3  0.0  2 0  812 1535 1101
[02]  16(G17)  f 44  7  0  -1883.5  2046002.4 -0.0  2 0 1367 2793 1232
[03]  18(G19)  f 44  8  0  -3078.9  2046004.0 -0.1  2 0 1249 2671 1159
[04]  29(G30)  f 44  7  0   1218.8  2045998.4 -0.0  2 0 1463 2682 1017
[05]  06(G07)  7 27 10  0   2492.4  2045996.7 -0.1  5 0  263  304  445
[06]  27(G28)  7 30  7  0  -2477.2  2046003.3  0.0  5 0  163  210  227
[16]  38(B02)  7 20 33  1  -6992.6  4092018.5 -0.0  2 0  465  398  151
[17]  41(B05) 1f 40 23  0  -1080.8  4092002.7  0.5  2 0  528 1051  323
[18]  47(B11) 1f 41  7  0  -3142.1  4092008.1  0.0  2 0 1159 1498  280
[19]  49(B13) 1f 41  7  0  -1401.6  4092003.5 -0.0  2 0  933  969  451
[20]  60(B24) 1f 42  7  0  -1658.7  4092004.2 -0.1  2 0 1240 1614  553
[21]  61(B25) 1f 42 11  0  -3889.4  4092010.1 -0.0  2 0 1661 1956  641
[22]  62(B26) 1f 38  9  0   1238.3  4091996.7 -0.3  2 0  860  975  669
[32]  77(N-4) 8f 40  7  0  -1320.7  1022000.8 -0.2  2 0   526  914  278
[34]  84(N03) 8f 41  7  0  -3663.7  1022002.3  0.1  2 0   829  876  615
[49]  41(B05)  1 23 22  1  -1184.4 20460020.8 -0.2  1 0  444  387  325
[52]  60(B24)  1  7  7  0  -1209.6 20460026.5 -0.1  1 0  244  111  474
[53]  61(B25)  1 10  7  0  -3421.7 20460062.9 -0.0  1 0  531  728 1033
[54]  62(B26)  1  7  7  0    778.4 20459980.0  0.1  1 0  114  368  155
$GNGGA,095642.383,,,,,0,00,,,M,,,,0000*2F
$GNRMC,095642.383,A,,,,,,,080419,,*26
$GPGSA,A,1,,,,,,,,,,,,,,,*1E
$BDGSA,A,1,,,,,,,,,,,,,,,*0F
$GLGSA,A,1,,,,,,,,,,,,,,,*02
$GPGSV,2,1,07,06,00,000,41,13,00,000,41,17,00,000,44,19,00,000,44*77
$GPGSV,2,2,07,30,00,000,44,07,00,000,27,28,00,000,30*46
$BDGSV,2,1,07,02,00,000,20,05,00,000,40,11,00,000,41,13,00,000,41*6F
$BDGSV,2,2,07,24,00,000,42,25,00,000,42,26,00,000,38*51
$B3CN0,0,0,0,0,0,0,0,0,0,0,0,0,0,0*4C
$GLGSV,1,1,02,17,00,000,40,18,00,000,41*69
---00000034--- Acq_st=3 0  2019-4-8 9:56:43 
[00]  05(G06)  f 42  7  0  -4538.7  2046005.8 -0.1  2 0  967 1604  587
[01]  12(G13)  f 42  7  0    519.7  2045999.3  0.0  2 0  996 1533  809
[02]  16(G17)  f 44  7  0  -1888.1  2046002.4  0.0  2 0 1381 2337 1144
[03]  18(G19)  f 44  7  0  -3079.2  2046003.9  0.1  2 0 1701 2280  897
[04]  29(G30)  f 44  7  0   1215.4  2045998.4 -0.0  2 0 1814 3164 1489
[05]  06(G07)  7 25  7  0   2462.6  2045997.1  0.1 10 0  996  400   99
[06]  27(G28)  7 31  7  0  -2479.3  2046003.1  0.0  5 0  649  915  701
[16]  38(B02)  7 36 33  1  -6999.3  4092018.4 -0.2  2 0  154  379  258
[17]  41(B05) 1f 39 24  0  -1080.4  4092002.7  0.2  2 0  530  901  641
[18]  47(B11) 1f 41  7  0  -3143.5  4092008.1  0.1  2 0 1444 1413  387
[19]  49(B13) 1f 41  7  0  -1397.8  4092003.6 -0.0  2 0  682 1481  458
[20]  60(B24) 1f 42  7  0  -1654.5  4092004.2 -0.0  2 0 1008 1512  746
[21]  61(B25) 1f 42 11  0  -3889.2  4092010.1  0.0  2 0 1134 1701  570
[22]  62(B26) 1f 39  7  0   1236.9  4091996.7  0.3  2 0 1022 1202  322
[32]  77(N-4) 8f 39  7  0  -1322.7  1022000.8 -0.2  2 0   449  772  365
[34]  84(N03) 8f 41  7  0  -3663.4  1022002.3 -0.1  2 0   813 1131  330
[49]  41(B05)  1 24 22  0  -1703.9 20460017.0 -0.0  1 0  540  596  697
[50]  47(B11)  1  7  7  0  -2812.6 20460047.5 -0.1  1 0  274  218   52
[51]  49(B13)  1  7  7  0   -983.9 20460021.6  0.1  1 0  179  283  351
[52]  60(B24)  1  7  7  0  -1832.1 20460026.6 -0.2  1 0  556  226  401
[53]  61(B25)  1  7 11  0  -2954.6 20460063.0  0.0  1 0  782  417  178
[54]  62(B26)  1  7  7  0    752.9 20459980.9 -0.2  1 0  284  198  383
$GNGGA,095643.383,,,,,0,00,,,M,,,,0000*2E
$GNRMC,095643.383,A,,,,,,,080419,,*27
$GPGSA,A,1,,,,,,,,,,,,,,,*1E
$BDGSA,A,1,,,,,,,,,,,,,,,*0F
$GLGSA,A,1,,,,,,,,,,,,,,,*02
$GPGSV,2,1,07,06,00,000,42,13,00,000,42,17,00,000,44,19,00,000,44*77
$GPGSV,2,2,07,30,00,000,44,07,00,000,25,28,00,000,31*45
$BDGSV,2,1,06,05,00,000,39,11,00,000,41,13,00,000,41,24,00,000,42*60
$BDGSV,2,2,06,25,00,000,42,26,00,000,39*61
$B3CN0,0,0,0,0,0,0,0,0,0,0,0,0,0,0*4C
$GLGSV,1,1,02,17,00,000,39,18,00,000,41*67
---00000035--- Acq_st=3 0  2019-4-8 9:56:44 
[00]  05(G06)  f 41  9  0  -4530.1  2046005.8 -0.0  2 0  982 1731  918
[01]  12(G13)  f 40  7  0    524.4  2045999.3 -0.1  2 0  706 1406  662
[02]  16(G17)  f 44  7  0  -1881.4  2046002.4 -0.0  2 0 2001 2679 1432
[03]  18(G19)  f 44  7  0  -3078.4  2046004.0 -0.1  2 0 1018 2194  876
[04]  29(G30)  f 44 10  0   1223.7  2045998.4  0.0  2 0 1885 3059 1419
[05]  06(G07)  7  7  7  0   2301.9  2045996.9  0.0 10 0  308  224  482
[06]  27(G28)  f 31  7  0  -2471.5  2046003.1 -0.1  5 0  333  693  591
[16]  38(B02)  7 36 32  1  -7004.4  4092018.5  0.1  2 0  497  478  529
[17]  41(B05) 1f 40 26  0  -1075.9  4092002.7  0.6  2 0 1275 1777 1029
[18]  47(B11) 1f 41  7  0  -3140.1  4092008.1 -0.0  2 0 1232 1697  772
[19]  49(B13) 1f 41  7  0  -1394.0  4092003.5 -0.0  2 0 1117 1425  695
[20]  60(B24) 1f 41  9  0  -1658.9  4092004.2 -0.0  2 0 1613 1850  863
[21]  61(B25) 1f 43  9  0  -3885.3  4092010.1  0.1  2 0 1208 1822  682
[22]  62(B26) 1f 39 13  0   1241.3  4091996.6  0.0  2 0 1168 1047  179
[32]  77(N-4) 8f 38  7  0  -1316.6  1022000.8  0.0  2 0   500  492  335
[34]  84(N03) 8f 41  7  0  -3658.3  1022002.3  0.1  2 0   835 1412  706
[50]  47(B11)  1  8  7  0  -2260.7 20460050.4 -0.0  1 0  463  538  512
[51]  49(B13)  1  7  9  0  -1142.2 20460020.4  0.2  1 0  522  189  363
[52]  60(B24)  1  7  7  0  -1873.6 20460027.5  0.1  1 0  414  112  926
[53]  61(B25)  1  7  9  0  -3313.0 20460062.5  0.1  1 0  613  310  303
[54]  62(B26)  1  7 11  0    821.5 20459981.5 -0.0  1 0  633  616  136
$GNGGA,095644.383,,,,,0,00,,,M,,,,0000*29
$GNRMC,095644.383,A,,,,,,,080419,,*20
$GPGSA,A,1,,,,,,,,,,,,,,,*1E
$BDGSA,A,1,,,,,,,,,,,,,,,*0F
$GLGSA,A,1,,,,,,,,,,,,,,,*02
$GPGSV,2,1,06,06,00,000,41,13,00,000,40,17,00,000,44,19,00,000,44*77
$GPGSV,2,2,06,30,00,000,44,28,00,000,31*74
$BDGSV,2,1,06,05,00,000,40,11,00,000,41,13,00,000,41,24,00,000,41*6D
$BDGSV,2,2,06,25,00,000,43,26,00,000,39*60
$B3CN0,0,0,0,0,0,0,0,0,0,0,0,0,0,0*4C
$GLGSV,1,1,02,17,00,000,38,18,00,000,41*66
---00000036--- Acq_st=7 0  2019-4-8 9:56:45 
[00]  05(G06)  f 42  8  0  -4541.1  2046005.9  0.0  2 0 1254 1504  617
[01]  12(G13)  f 41  8  0    505.2  2045999.3 -0.0  2 0 1139 1762  750
[02]  16(G17)  f 44  7  0  -1893.2  2046002.4 -0.0  2 0 2251 3105 1497
[03]  18(G19)  f 43  7  0  -3087.4  2046004.0  0.0  2 0 1752 2302 1075
[04]  29(G30)  f 44  7  0   1209.0  2045998.4 -0.0  2 0 2008 2953 1189
[05]  06(G07)  7  7  7  0   2153.8  2045997.0 -0.0 10 0  155  252   30
[06]  27(G28)  f 26  7  0  -2629.3  2046003.4  0.1 10 0  207  183  326
[16]  38(B02)  7 13 31  1  -7006.2  4092018.3  0.0  2 0  200  358  151
[17]  41(B05) 1f 39 10  0  -1088.4  4092002.7 -0.3  2 0 1114  945  354
[18]  47(B11) 1f 41  7  0  -3150.8  4092008.1 -0.1  2 0 1075 1239  292
[19]  49(B13) 1f 41  7  0  -1410.5  4092003.6  0.0  2 0  970 1195  455
[20]  60(B24) 1f 42  7  0  -1668.3  4092004.2  0.0  2 0 1773 1673  632
[21]  61(B25) 1f 43 10  0  -3899.9  4092010.1 -0.0  2 0 1176 1790  696
[22]  62(B26) 1f 38  8  0   1230.6  4091996.6 -0.1  2 0  670 1392  764
[32]  77(N-4) 8f 38  7  0  -1329.8  1022000.8  0.0  2 0   489  563   85
[34]  84(N03) 8f 41  7  0  -3672.2  1022002.3  0.0  2 0   590  755  154
[49]  41(B05)  1 24 26  1  -1260.7 20460017.5 -0.2  1 0  858  497  546
[50]  47(B11)  1  9  7  0  -1653.2 20460050.2  0.1  1 0  421  362  565
[51]  49(B13)  1  7  7  0  -1547.5 20460022.8  0.1  1 0  328  104  276
$GNGGA,095645.383,,,,,0,00,,,M,,,,0000*28
$GNRMC,095645.383,A,,,,,,,080419,,*21
$GPGSA,A,1,,,,,,,,,,,,,,,*1E
$BDGSA,A,1,,,,,,,,,,,,,,,*0F
$GLGSA,A,1,,,,,,,,,,,,,,,*02
$GPGSV,2,1,06,06,00,000,42,13,00,000,41,17,00,000,44,19,00,000,43*72
$GPGSV,2,2,06,30,00,000,44,28,00,000,26*72
$BDGSV,2,1,06,05,00,000,39,11,00,000,41,13,00,000,41,24,00,000,42*60
$BDGSV,2,2,06,25,00,000,43,26,00,000,38*61
$B3CN0,0,0,0,0,0,0,0,0,0,0,0,0,0,0*4C
$GLGSV,1,1,02,17,00,000,38,18,00,000,41*66
---00000037--- Acq_st=7 0  2019-4-8 9:56:46 
[00]  05(G06)  f 42 10  0  -4545.8  2046005.8 -0.0  2 0 1044 1813  935
[01]  12(G13)  f 41  7  0    506.0  2045999.3  0.0  2 0  613 1748  702
[02]  16(G17)  f 44 12  0  -1896.8  2046002.4 -0.0  2 0 2169 2612 1386
[03]  18(G19)  f 42  7  0  -3086.7  2046004.0  0.0  2 0  835 1804 1216
[04]  29(G30)  f 44  7  0   1212.6  2045998.4  0.0  2 0 1489 2197  928
[05]  06(G07)  7 15  7  0   2075.8  2045997.4  0.2 10 0  369  272  251
[06]  27(G28)  f  7 13  0  -2858.5  2046003.7  0.1 10 0  480  357  264
[16]  38(B02)  7 10 32  1  -7006.2  4092018.2  0.1  2 0  408  198  105
[17]  41(B05) 1f 41 27  0  -1089.1  4092002.8 -0.8  2 0 1094 1113  619
[18]  47(B11) 1f 41  7  0  -3154.7  4092008.2  0.1  2 0 1356 1399  666
[19]  49(B13) 1f 41 12  0  -1408.2  4092003.5  0.1  2 0 1328 1624  690
[20]  60(B24) 1f 42  7  0  -1662.9  4092004.2  0.0  2 0 1432 1884  642
[21]  61(B25) 1f 42  7  0  -3895.3  4092010.1  0.0  2 0 1251 1887 1081
[22]  62(B26) 1f 39 11  0   1232.8  4091996.6  0.1  2 0  931 1343  887
[32]  77(N-4) 8f 38  7  0  -1328.4  1022000.9 -0.1  2 0   400  488  290
[34]  84(N03) 8f 41  7  0  -3669.5  1022002.3  0.0  2 0   625 1187  428
[49]  41(B05)  1 24 22  0   -813.7 20460018.3  0.1  1 0  423  251  350
[50]  47(B11)  1  7  7  0  -1363.1 20460051.1 -0.1  1 0  502   97  491
[51]  49(B13)  1  7  7  0   -932.5 20460022.4 -0.2  1 0  325  244  200
[52]  60(B24)  1  7  7  0  -1333.5 20460026.6  0.1  1 0  324  316  580
[53]  61(B25)  1  7  7  0  -2717.6 20460061.5 -0.1  1 0  378  373  578
[54]  62(B26)  1 11 12  0    961.1 20459981.5  0.0  1 0   67  163   46
$GNGGA,095646.383,,,,,0,00,,,M,,,,0000*2B
$GNRMC,095646.383,A,,,,,,,080419,,*22
$GPGSA,A,1,,,,,,,,,,,,,,,*1E
$BDGSA,A,1,,,,,,,,,,,,,,,*0F
$GLGSA,A,1,,,,,,,,,,,,,,,*02
$GPGSV,2,1,05,06,00,000,42,13,00,000,41,17,00,000,44,19,00,000,42*70
$GPGSV,2,2,05,30,00,000,44*4F
$BDGSV,2,1,06,05,00,000,41,11,00,000,41,13,00,000,41,24,00,000,42*6F
$BDGSV,2,2,06,25,00,000,42,26,00,000,39*61
$B3CN0,0,0,0,0,0,0,0,0,0,0,0,0,0,0*4C
$GLGSV,1,1,02,17,00,000,38,18,00,000,41*66
---00000038--- Acq_st=3 0  2019-4-8 9:56:47 
[00]  05(G06)  f 42  7  0  -4536.0  2046005.8  0.1  2 0 1189 2353  997
[01]  12(G13)  f 41  7  0    515.1  2045999.3 -0.1  2 0  917 1439  382
[02]  16(G17)  f 44  7  0  -1883.2  2046002.4  0.1  2 0 2168 2849 1253
[03]  18(G19)  f 42  7  0  -3076.7  2046004.0  0.0  2 0  968 2035  821
[04]  29(G30)  f 44  7  0   1221.0  2045998.4  0.0  2 0 1781 2999 1739
[06]  27(G28)  f  7 10  0  -3011.3  2046004.0 -0.3 10 0  675  715  289
[16]  38(B02)  7 10 31  1  -7006.2  4092018.2  0.2  2 0  175  303  116
[17]  41(B05) 1f 41 26  0  -1084.3  4092002.7 -0.2  2 0  987 1164   85
[18]  47(B11) 1f 42  7  0  -3138.2  4092008.1 -0.0  2 0 1463 1514  557
[19]  49(B13) 1f 41  7  0  -1395.3  4092003.5 -0.1  2 0  900 1273  572
[20]  60(B24) 1f 42  7  0  -1652.1  4092004.2  0.1  2 0 1378 1755  756
[21]  61(B25) 1f 42  7  0  -3886.6  4092010.1 -0.0  2 0 1195 1439  621
[22]  62(B26) 1f 39 11  0   1245.0  4091996.6 -0.2  2 0  826  693  433
[32]  77(N-4) 8f 38  7  0  -1317.6  1022000.9  0.0  2 0   451  835  426
[34]  84(N03) 8f 41  7  0  -3659.4  1022002.3  0.1  2 0   721 1162  527
[49]  41(B05)  1 28 22  0   -697.2 20460017.7 -0.2  1 0  472  785  138
[52]  60(B24)  1  7  7  0  -1370.8 20460025.7 -0.1  1 0  653  618  520
[53]  61(B25)  1  7  7  0  -2363.8 20460062.3 -0.1  1 0  629  530  305
[54]  62(B26)  1  7  7  0   1278.9 20459981.2 -0.2  1 0  292  241  231
$GNGGA,095647.383,,,,,0,00,,,M,,,,0000*2A
$GNRMC,095647.383,A,,,,,,,080419,,*23
$GPGSA,A,1,,,,,,,,,,,,,,,*1E
$BDGSA,A,1,,,,,,,,,,,,,,,*0F
$GLGSA,A,1,,,,,,,,,,,,,,,*02
$GPGSV,2,1,05,06,00,000,42,13,00,000,41,17,00,000,44,19,00,000,42*70
$GPGSV,2,2,05,30,00,000,44*4F
$BDGSV,2,1,06,05,00,000,41,11,00,000,42,13,00,000,41,24,00,000,42*6C
$BDGSV,2,2,06,25,00,000,42,26,00,000,39*61
$B3CN0,0,0,0,0,0,0,0,0,0,0,0,0,0,0*4C
$GLGSV,1,1,02,17,00,000,38,18,00,000,41*66
---00000039--- Acq_st=3 0  2019-4-8 9:56:48 
[00]  05(G06)  f 42  7  0  -4534.2  2046005.8 -0.0  2 0 1361 1631  724
[01]  12(G13)  f 42  7  0    517.5  2045999.3 -0.0  2 0 1234 1920  728
[02]  16(G17)  f 44  7  0  -1884.8  2046002.4 -0.0  2 0 2158 3101 1467
[03]  18(G19)  f 42  7  0  -3081.6  2046004.0 -0.0  2 0  801 1308  780
[04]  29(G30)  f 44  7  0   1220.0  2045998.4  0.0  2 0 1682 2764 1308
[06]  27(G28)  f  7  7  0  -3154.4  2046004.3 -0.1 10 0  458  579  479
[16]  38(B02)  7 22 32  1  -7005.1  4092018.3 -0.0  2 0   53  104  139
[17]  41(B05) 1f 40 18  0  -1085.9  4092002.8 -0.1  2 0  721 1030  758
[18]  47(B11) 1f 41  7  0  -3142.5  4092008.1 -0.1  2 0 1762 1938  655
[19]  49(B13) 1f 41  7  0  -1399.1  4092003.5  0.0  2 0 1186 1462  490
[20]  60(B24) 1f 42  7  0  -1654.5  4092004.2  0.0  2 0 1638 1928  600
[21]  61(B25) 1f 42  7  0  -3887.2  4092010.1  0.0  2 0 1083 1409  447
[22]  62(B26) 1f 39 10  0   1242.4  4091996.6  0.1  2 0 1220 1107  384
[32]  77(N-4) 8f 38  7  0  -1319.8  1022000.9  0.0  2 0   487  711  590
[34]  84(N03) 8f 41  7  0  -3661.4  1022002.3 -0.1  2 0   839 1060  539
[49]  41(B05)  1 26 24  0   -496.6 20460019.8 -0.1  1 0  481  113  313
[50]  47(B11)  1  7  7  0  -2439.4 20460050.3  0.0  1 0  813  165  370
[51]  49(B13)  1  7  7  0  -1172.6 20460021.3 -0.0  1 0  103  587  427
[52]  60(B24)  1  7  7  0  -1027.5 20460025.8  0.1  1 0  629  692  604
[53]  61(B25)  1  9  8  0  -2028.4 20460061.6  0.2  1 0  144  430  294
[54]  62(B26)  1  7  7  0   1294.0 20459983.1 -0.1  1 0  541  287  249
$GNGGA,095648.263,2944.8872,N,10632.9924,E,1,05,7.5,469.9,M,,,,0000*1B
$GNRMC,095648.263,A,2944.8872,N,10632.9924,E,0.30,0.00,080419,,*15
$GPGSA,A,3,06,13,17,19,30,,,,,,,,9.0,7.5,4.8*3C
$BDGSA,A,3,,,,,,,,,,,,,9.0,7.5,4.8*24
$GLGSA,A,3,,,,,,,,,,,,,9.0,7.5,4.8*29
$GPGSV,2,1,05,06,00,000,42,13,00,000,42,17,00,000,44,19,00,000,42*73
$GPGSV,2,2,05,30,00,000,44*4F
$BDGSV,2,1,07,02,00,000,22,05,00,000,40,11,00,000,41,13,00,000,41*6D
$BDGSV,2,2,07,24,00,000,42,25,00,000,42,26,00,000,39*50
$B3CN0,0,0,0,0,0,0,0,0,0,0,0,0,0,0*4C
$GLGSV,1,1,02,17,00,000,38,18,00,000,41*66
---00000040--- Acq_st=3 0  2019-4-8 9:56:48 
[00]  05(G06)  f 42  7  0  -4532.2  2046005.8  0.0  2 0 1338 1693  850
[01]  12(G13)  f 41  7  0    514.1  2045999.3 -0.1  2 0  924 1778  286
[02]  16(G17)  f 44  8  0  -1884.2  2046002.4 -0.0  2 0 2291 3314 1937
[03]  18(G19)  f 41  7  0  -3079.5  2046004.0  0.0  2 0  863 1293  543
[04]  29(G30)  f 44  7  0   1222.6  2045998.3 -0.0  2 0 1484 2401  956
[16]  38(B02)  7 10 33  1  -7008.6  4092018.3  0.1  2 0  221   73  498
[17]  41(B05) 1f 40 28  0  -1078.4  4092002.8 -0.5  2 0  688 1382  473
[18]  47(B11) 1f 41  7  0  -3144.1  4092008.1 -0.0  2 0 1456 1287  721
