i=1
Rf R0 Config = ff777073
Rf R1 Config = 00dffbfe
Rf R52 Config = 00dfef00
i=2
Rf R0 Config = 007772f3
Rf R1 Config = 00dfbbfe
Rf R52 Config = 00da6e30
i=3
Rf R0 Config = 007772f3
Rf R1 Config = 00dfdbfe
Rf R52 Config = 00de4e10
i=4
Rf R0 Config = 00777273
Rf R1 Config = 00df5bfe
Rf R52 Config = 00de2e60
SD initialized success
Create debug.log Failed! 3
Start Channel by LuYu
$GNGGA,000000.000,,,,,0,00,,,M,,,,0000*2B
$GNRMC,000000.000,A,,,,,,,060180,,*29
$GPGSA,A,1,,,,,,,,,,,,,,,*1E
$BDGSA,A,1,,,,,,,,,,,,,,,*0F
$GLGSA,A,1,,,,,,,,,,,,,,,*02
$B3CN0,0,0,0,0,0,0,0,0,0,0,0,0,0,0*4C
---00000001--- Acq_st=3 0  2000-1-1 0:1:23 
[00]  05(G06)  1  7  7  0  -4693.7  2046008.3  0.0  1 0  512  741 1571
$GNGGA,000000.000,,,,,0,00,,,M,,,,0000*2B
$GNRMC,000000.000,A,,,,,,,060180,,*29
$GPGSA,A,1,,,,,,,,,,,,,,,*1E
$BDGSA,A,1,,,,,,,,,,,,,,,*0F
$GLGSA,A,1,,,,,,,,,,,,,,,*02
$B3CN0,0,0,0,0,0,0,0,0,0,0,0,0,0,0*4C
---00000002--- Acq_st=3 0  2000-1-1 0:1:24 
[00]  05(G06)  1 28  7  0  -4630.8  2046006.1  0.7  1 0 1315 1695  800
[01]  12(G13)  1 27  7  0    393.1  2045999.2  0.5  1 0  792 1109  296
[02]  16(G17)  1 24  7  0  -1975.5  2046005.5  0.2  1 0 1093 2328 2844
[03]  18(G19)  1  8  7  0  -3180.3  2046006.0 -0.0  1 0 1204 2819 2007
$GNGGA,000000.000,,,,,0,00,,,M,,,,0000*2B
$GNRMC,000000.000,A,,,,,,,060180,,*29
$GPGSA,A,1,,,,,,,,,,,,,,,*1E
$BDGSA,A,1,,,,,,,,,,,,,,,*0F
$GLGSA,A,1,,,,,,,,,,,,,,,*02
$B3CN0,0,0,0,0,0,0,0,0,0,0,0,0,0,0*4C
---00000003--- Acq_st=3 0  2000-1-1 0:1:25 
[00]  05(G06)  7 36  7  0  -4628.9  2046005.8  0.2  2 0 1192 1372  618
[01]  12(G13)  7 26  7  0    395.7  2045999.4  0.6 10 0  729  811  238
[02]  16(G17)  7  8  7  0  -1969.4  2046002.4  0.9 10 0 3406 3319 1002
[03]  18(G19)  1 39  7  0  -3177.4  2046003.7  1.0  1 0 2209 2347  763
[04]  29(G30)  1 28  7  0   1013.6  2045998.9  0.1  1 0 2183 3453 1528
[16]  38(B02)  1 23 25  1  -1000.0  4092002.6 -0.0  1 0  154  202  375
$GNGGA,095055.663,,,,,0,00,,,M,,,,0000*24
$GNRMC,095055.663,A,,,,,,,070180,,*27
$GPGSA,A,1,,,,,,,,,,,,,,,*1E
$BDGSA,A,1,,,,,,,,,,,,,,,*0F
$GLGSA,A,1,,,,,,,,,,,,,,,*02
$GPGSV,1,1,02,06,00,000,36,13,00,000,26*7E
$B3CN0,0,0,0,0,0,0,0,0,0,0,0,0,0,0*4C
---00000004--- Acq_st=3 0  2000-1-1 0:1:26 
[00]  05(G06)  f 40  8  0  -4631.4  2046005.9 -0.1  2 0  986  840  206
[01]  12(G13)  7 39  7  0    391.1  2045999.4 -0.2  2 0 1371 1511  910
[02]  16(G17)  7 45  8  0  -1973.2  2046002.4  0.1  2 0 2837 3613 1715
[03]  18(G19)  7 39  7  0  -3179.9  2046004.1 -0.0  2 0 1875 2369  728
[04]  29(G30)  7 17  7  0   1015.0  2045998.6  0.9 10 0 2239 3056 1124
[16]  38(B02)  1 10 10  1   -322.3  4092004.5  0.1  1 0  134  109  321
[17]  41(B05)  1 41 16  0  -1114.5  4092003.8  1.0  1 0  841 1170  241
$GNGGA,095056.663,,,,,0,00,,,M,,,,0000*27
$GNRMC,095056.663,A,,,,,,,070180,,*24
$GPGSA,A,1,,,,,,,,,,,,,,,*1E
$BDGSA,A,1,,,,,,,,,,,,,,,*0F
$GLGSA,A,1,,,,,,,,,,,,,,,*02
$GPGSV,1,1,04,06,00,000,40,13,00,000,39,17,00,000,45,19,00,000,39*72
$B3CN0,0,0,0,0,0,0,0,0,0,0,0,0,0,0*4C
---00000005--- Acq_st=3 0  2000-1-1 0:1:27 
[00]  05(G06)  f 40  7  0  -4633.1  2046005.9  0.0  2 0 1504 2336 1242
[01]  12(G13)  7 39  7  0    398.5  2045999.4  0.1  2 0  700 1449  858
[02]  16(G17)  7 45  7  0  -1969.2  2046002.4  0.0  2 0 2339 3232 1565
[03]  18(G19)  7 43 10  0  -3176.8  2046004.0  0.0  2 0  711 1157  233
[04]  29(G30)  7 46 12  0   1017.5  2045998.7 -0.0  2 0 2063 3304 1681
[16]  38(B02)  1 36 10  0     75.8  4092003.4 -0.1  1 0  398  352  255
[17]  41(B05)  f 39 28  0  -1116.0  4092002.7  0.1  2 0 1735 1402  757
[18]  47(B11)  1  7  7  0  -3229.6  4092009.0  0.0  1 0  886 1266  380
[19]  48(B12)  1  7  7  0   -885.4  4092001.6 -0.0  1 0  524  659  448
[20]  49(B13)  1  7  7  0  -1500.0  4092005.4 -0.0  1 0  181  368  896
$GNGGA,095057.663,,,,,0,00,,,M,,,,0000*26
$GNRMC,095057.663,A,,,,,,,070180,,*25
$GPGSA,A,1,,,,,,,,,,,,,,,*1E
$BDGSA,A,1,,,,,,,,,,,,,,,*0F
$GLGSA,A,1,,,,,,,,,,,,,,,*02
$GPGSV,2,1,05,06,00,000,40,13,00,000,39,17,00,000,45,19,00,000,43*7D
$GPGSV,2,2,05,30,00,000,46*4D
$BDGSV,1,1,01,05,00,000,39*56
$B3CN0,0,0,0,0,0,0,0,0,0,0,0,0,0,0*4C
---00000006--- Acq_st=3 0  2000-1-1 0:1:28 
[00]  05(G06)  f 40  7  0  -4628.6  2046005.9  0.1  2 0 1204 1392  563
[01]  12(G13)  7 38  7  0    395.1  2045999.4  0.1  2 0  957 1561  894
[02]  16(G17)  7 45  7  0  -1971.5  2046002.4  0.0  2 0 2724 3740 1684
[03]  18(G19)  7 42  7  0  -3177.8  2046004.1  0.1  2 0 1340 1521  717
[04]  29(G30)  7 45 14  0   1016.8  2045998.6 -0.0  2 0 1908 3020 1291
[16]  38(B02)  1 10 10  0    533.0  4092004.1 -0.1  1 0  278  156  402
[17]  41(B05)  f 41 21  0  -1114.4  4092002.9 -0.4  2 0  830 1188  470
[18]  47(B11)  7 18  7  0  -3229.2  4092008.4  0.4 10 0 1210 1199  429
[19]  48(B12)  1  7  8  0  -1476.2  4092001.3 -0.0  1 0  284  182  147
[20]  49(B13)  1  7  7  0  -1476.8  4092004.1  0.0  1 0  774 1144  476
[49]  41(B05)  1 22 26  0   -826.1 20460020.3  0.2  1 0  152  494  205
$GNGGA,095058.663,,,,,0,00,,,M,,,,0000*29
$GNRMC,095058.663,A,,,,,,,070180,,*2A
$GPGSA,A,1,,,,,,,,,,,,,,,*1E
$BDGSA,A,1,,,,,,,,,,,,,,,*0F
$GLGSA,A,1,,,,,,,,,,,,,,,*02
$GPGSV,2,1,05,06,00,000,40,13,00,000,38,17,00,000,45,19,00,000,42*7D
$GPGSV,2,2,05,30,00,000,45*4E
$BDGSV,1,1,02,05,00,000,40,11,00,000,18*62
$B3CN0,0,0,0,0,0,0,0,0,0,0,0,0,0,0*4C
---00000007--- Acq_st=3 0  2000-1-1 0:1:29 
[00]  05(G06)  f 41  7  0  -4633.0  2046005.9 -0.0  2 0  869 1041  322
[01]  12(G13)  7 38  7  0    390.2  2045999.5 -0.1  2 0  849  726  497
[02]  16(G17)  7 44  7  0  -1969.7  2046002.5 -0.1  2 0 2381 3186 1478
[03]  18(G19)  7 41  7  0  -3176.0  2046004.2 -0.0  2 0  544 1649  993
[04]  29(G30)  7 45 11  0   1017.8  2045998.6 -0.0  2 0 2292 3333 1646
[16]  38(B02)  1 19 36  1    624.9  4092003.0 -0.0  1 0  420  364  339
[17]  41(B05)  f 40 26  0  -1111.2  4092002.8 -0.6  2 0 1188 1157  312
[18]  47(B11)  7 41  7  0  -3229.6  4092008.4  0.0  2 0  899 1350  795
[19]  48(B12)  1  7  7  0  -1290.5  4092001.7 -0.0  1 0  496  371  434
[20]  49(B13)  7 34  7  0  -1481.1  4092003.8  0.1  5 0  796  905  479
[21]  60(B24)  1  7  7  0  -1877.3  4092005.1  0.0  1 0  902 1102  688
[22]  61(B25)  1  7  7  0  -3591.8  4092008.6 -0.0  1 0  481  630  238
[24]  62(B26)  1  7  7  0   1000.0  4091997.0  0.0  1 0  881 1008  203
[49]  41(B05)  1 22 22  1  -1089.2 20460016.7 -0.0  1 0  244  700  708
$GNGGA,095059.663,,,,,0,00,,,M,,,,0000*28
$GNRMC,095059.663,A,,,,,,,070180,,*2B
$GPGSA,A,1,,,,,,,,,,,,,,,*1E
$BDGSA,A,1,,,,,,,,,,,,,,,*0F
$GLGSA,A,1,,,,,,,,,,,,,,,*02
$GPGSV,2,1,05,06,00,000,41,13,00,000,38,17,00,000,45,19,00,000,41*7F
$GPGSV,2,2,05,30,00,000,45*4E
$BDGSV,1,1,03,05,00,000,40,11,00,000,41,13,00,000,34*5A
$B3CN0,0,0,0,0,0,0,0,0,0,0,0,0,0,0*4C
---00000008--- Acq_st=3 0  2000-1-1 0:1:30 
[00]  05(G06)  f 40  7  0  -4632.5  2046005.9 -0.1  2 0 1015 1064  453
[01]  12(G13)  7 38  7  0    395.7  2045999.4  0.1  2 0 1341 1646  813
[02]  16(G17)  7 45  7  0  -1971.0  2046002.5  0.0  2 0 2438 3625 1720
[03]  18(G19)  7 38  7  0  -3170.2  2046004.2 -0.3  2 0  312 1328 1074
[04]  29(G30)  7 45 15  0   1017.6  2045998.6  0.0  2 0 1759 3311 1799
[17]  41(B05)  f 40 22  0  -1113.0  4092002.8  0.4  2 0 1363 1464  718
[18]  47(B11)  7 40  7  0  -3228.1  4092008.4 -0.0  2 0  653 1341  829
[19]  48(B12)  1  7  7  0   -857.7  4092002.1 -0.0  1 0  181  297  453
[20]  49(B13)  7 40  7  0  -1478.1  4092003.7  0.0  2 0  885 1531  769
[21]  60(B24)  7 14  7  0  -1874.5  4092004.9  0.4 10 0 1304 1535  670
[22]  61(B25)  1  7  7  0  -3940.7  4092009.3 -0.2  1 0  290  160  161
[24]  62(B26)  1  7  7  0   1065.5  4091996.8  0.1  1 0  727 1102  439
[32]  77(N-4)  1  7  7  0   -855.2  1022002.0  0.1  1 0   244  448 1057
[49]  41(B05)  1 23 19  1   -965.0 20460020.1  0.0  1 0  558  654  352
$GNGGA,095100.663,,,,,0,00,,,M,,,,0000*25
$GNRMC,095100.663,A,,,,,,,070180,,*26
$GPGSA,A,1,,,,,,,,,,,,,,,*1E
$BDGSA,A,1,,,,,,,,,,,,,,,*0F
$GLGSA,A,1,,,,,,,,,,,,,,,*02
$GPGSV,2,1,05,06,00,000,40,13,00,000,38,17,00,000,45,19,00,000,38*70
$GPGSV,2,2,05,30,00,000,45*4E
$BDGSV,1,1,03,05,00,000,40,11,00,000,40,13,00,000,40*58
$B3CN0,0,0,0,0,0,0,0,0,0,0,0,0,0,0*4C
---00000009--- Acq_st=7 0  2000-1-1 0:1:31 
[00]  05(G06)  f 40  7  0  -4629.1  2046005.9  0.1  2 0 1142 1790  872
[01]  12(G13)  7 39  7  0    393.9  2045999.4  0.1  2 0  709 1302  544
[02]  16(G17)  7 45  7  0  -1970.9  2046002.5  0.0  2 0 2586 3816 2142
[03]  18(G19)  7 38  7  0  -3180.7  2046004.1 -0.2  2 0  924  816  186
[04]  29(G30)  7 44 15  0   1018.9  2045998.6 -0.0  2 0 1575 3293 1619
[17]  41(B05) 1f 40 24  0  -1116.1  4092002.8  0.7  2 0 1129  966  507
[18]  47(B11)  7 41  7  0  -3230.3  4092008.3 -0.1  2 0 1187 1478  385
[19]  48(B12)  1  7  7  0   -583.3  4092002.3  0.1  1 0  365  165  308
[20]  49(B13)  7 40  7  0  -1476.3  4092003.7 -0.0  2 0 1091 1284  698
[21]  60(B24)  7 42  7  0  -1870.8  4092004.9 -0.0  2 0  819 1872 1283
[22]  61(B25)  1  7  7  0  -3729.3  4092009.1  0.1  1 0   43   87  467
[24]  62(B26)  7 35  7  0   1072.4  4091997.1  0.1  5 0  926 1351  561
[32]  77(N-4)  1 22  7  0  -1521.9  1022001.7  0.7  1 0   799 1029  261
[33]  81(N00)  1 23 14  0  -4361.6  1022004.1 -0.1  1 0   336  355  721
[34]  84(N03)  1 17  7  0  -3750.0  1022004.3 -0.1  1 0   106  488  809
[49]  41(B05)  1 24 22  1   -640.6 20460021.9  0.1  1 0  247  307  727
$GNGGA,095101.663,,,,,0,00,,,M,,,,0000*24
$GNRMC,095101.663,A,,,,,,,070180,,*27
$GPGSA,A,1,,,,,,,,,,,,,,,*1E
$BDGSA,A,1,,,,,,,,,,,,,,,*0F
$GLGSA,A,1,,,,,,,,,,,,,,,*02
$GPGSV,2,1,05,06,00,000,40,13,00,000,39,17,00,000,45,19,00,000,38*71
$GPGSV,2,2,05,30,00,000,44*4F
$BDGSV,2,1,05,05,00,000,40,11,00,000,41,13,00,000,40,24,00,000,42*6C
$BDGSV,2,2,05,26,00,000,34*5E
$B3CN0,0,0,0,0,0,0,0,0,0,0,0,0,0,0*4C
---00000010--- Acq_st=7 0  2000-1-1 0:1:32 
[00]  05(G06)  f 40  7  0  -4627.0  2046006.0 -0.0  2 0 1178 1988  950
[01]  12(G13)  f 39  7  0    394.7  2045999.5  0.1  2 0  546 1161  720
[02]  16(G17)  f 45  7  0  -1970.6  2046002.5 -0.0  2 0 2557 3542 1651
[03]  18(G19)  f 38  7  0  -3181.3  2046004.1  0.2  2 0  652 1005  564
[04]  29(G30)  f 44 11  0   1017.6  2045998.7  0.0  2 0 1773 2974 1376
[17]  41(B05) 1f 39 27  0  -1115.3  4092002.7  0.0  2 0 1013 1100  126
[18]  47(B11)  7 41 13  0  -3229.3  4092008.4  0.1  2 0 1194 1593  966
[20]  49(B13)  7 40  8  0  -1482.7  4092003.8  0.1  2 0  892  834  362
[21]  60(B24)  7 41  7  0  -1875.0  4092004.8  0.0  2 0 1010 1345  771
[22]  61(B25)  1  7  7  0  -3755.8  4092009.7 -0.1  1 0  304  488  157
[24]  62(B26)  7 40  7  0   1065.1  4091997.1 -0.1  2 0  600 1298  820
[32]  77(N-4)  1 24  8  0  -1524.9  1022001.3  0.8  1 0   498 1005  476
[33]  81(N00)  1 24 25  0  -4323.9  1022002.8  0.9  1 0   354  450  313
[34]  84(N03)  1 32 26  0  -3825.3  1022002.7  1.0  1 0   729  960  446
$GNGGA,095102.663,,,,,0,00,,,M,,,,0000*27
$GNRMC,095102.663,A,,,,,,,070180,,*24
$GPGSA,A,1,,,,,,,,,,,,,,,*1E
$BDGSA,A,1,,,,,,,,,,,,,,,*0F
$GLGSA,A,1,,,,,,,,,,,,,,,*02
$GPGSV,2,1,05,06,00,000,40,13,00,000,39,17,00,000,45,19,00,000,38*71
$GPGSV,2,2,05,30,00,000,44*4F
$BDGSV,2,1,05,05,00,000,40,11,00,000,41,13,00,000,40,24,00,000,41*6F
$BDGSV,2,2,05,26,00,000,40*5D
$B3CN0,0,0,0,0,0,0,0,0,0,0,0,0,0,0*4C
---00000011--- Acq_st=3 0  2000-1-1 0:1:33 
[00]  05(G06)  f 41  7  0  -4634.7  2046005.9  0.1  2 0 1302 2007 1147
[01]  12(G13)  f 39  7  0    394.1  2045999.4 -0.1  2 0 1206 1114  409
[02]  16(G17)  f 45 11  0  -1971.5  2046002.5  0.1  2 0 2840 4237 1881
[03]  18(G19)  f 40  7  0  -3181.9  2046004.0  0.1  2 0 1504 1607  817
[04]  29(G30)  f 44 15  0   1018.9  2045998.6  0.0  2 0 1940 2850 1387
[05]  06(G07)  1  7  7  0   2250.0  2045997.2  0.1  1 0  252  692  256
[17]  41(B05) 1f 39 22  0  -1114.8  4092002.8 -0.0  2 0  876 1109  604
[18]  47(B11)  7 40 11  0  -3232.0  4092008.3  0.0  2 0 1369 1371  357
[20]  49(B13)  7 41  7  0  -1480.4  4092003.8 -0.1  2 0 1235 1369  559
[21]  60(B24)  7 41  7  0  -1874.4  4092004.8  0.0  2 0  874 1410  718
[24]  62(B26)  7 40  7  0   1073.5  4091997.1  0.1  2 0 1213 1435  563
[32]  77(N-4)  7 38  7  0  -1524.1  1022001.0  0.7  2 0   349  977  594
[33]  81(N00)  7 17  7  0  -4320.8  1022002.7  0.7 10 0   735  817  525
[34]  84(N03)  1 32 28  0  -3825.9  1022002.1  1.0  1 0   866  816  318
[49]  41(B05)  1 26 27  0  -1123.1 20460013.4  0.1  1 0  274  199  249
$GNGGA,095103.663,,,,,0,00,,,M,,,,0000*26
$GNRMC,095103.663,A,,,,,,,070180,,*25
$GPGSA,A,1,,,,,,,,,,,,,,,*1E
$BDGSA,A,1,,,,,,,,,,,,,,,*0F
$GLGSA,A,1,,,,,,,,,,,,,,,*02
$GPGSV,2,1,05,06,00,000,41,13,00,000,39,17,00,000,45,19,00,000,39*71
$GPGSV,2,2,05,30,00,000,44*4F
$BDGSV,2,1,05,05,00,000,39,11,00,000,40,13,00,000,41,24,00,000,41*61
$BDGSV,2,2,05,26,00,000,40*5D
$B3CN0,0,0,0,0,0,0,0,0,0,0,0,0,0,0*4C
---00000012--- Acq_st=3 0  2000-1-1 0:1:34 
[00]  05(G06)  f 41  7  0  -4632.9  2046005.9 -0.0  2 0 1233 2158  714
[01]  12(G13)  f 39  7  0    397.4  2045999.5  0.1  2 0  633 1083  483
[02]  16(G17)  f 46 12  0  -1968.8  2046002.5 -0.0  2 0 2380 3513 1773
[03]  18(G19)  f 40  7  0  -3175.5  2046004.0 -0.1  2 0 1157 1734  612
[04]  29(G30)  f 45 17  0   1021.4  2045998.6 -0.0  2 0 1266 2543 1303
[05]  06(G07)  1 28  7  0   2394.0  2045997.1  0.5  1 0  487  775  463
[06]  15(G16)  1  7  7  0   -437.1  2045999.6  0.0  1 0   40   70  260
[17]  41(B05) 1f 40 26  0  -1120.3  4092002.8  0.4  2 0  916 1138  547
[18]  47(B11) 1f 41  7  0  -3230.3  4092008.3  0.0  2 0  991 1346  899
[20]  49(B13) 1f 40  7  0  -1478.0  4092003.8  0.2  2 0  700  776  651
[21]  60(B24) 1f 41  7  0  -1867.1  4092004.8 -0.0  2 0 1050 1457  631
[24]  62(B26) 1f 40  7  0   1073.3  4091997.1  0.0  2 0 1113 1274  386
[32]  77(N-4)  7 40  7  0  -1522.2  1022000.9  0.7  2 0   413  886  446
[33]  81(N00)  7 37 21  0  -4323.0  1022002.6  0.1  2 0   242  880  729
[34]  84(N03)  1 32 27  0  -3823.5  1022002.7  1.0  1 0   711 1333  495
[49]  41(B05)  1 27 24  0  -1298.7 20460016.3 -0.1  1 0  821 1064  522
---00000013--- Acq_st=3 0  2000-1-1 0:1:35 
[00]  05(G06)  f 42  7  0  -4630.8  2046006.0  0.0  2 0 1145 1755 1123
[01]  12(G13)  f 39  7  0    393.5  2045999.4 -0.1  2 0  549 1096  499
[02]  16(G17)  f 45 11  0  -1968.7  2046002.5  0.0  2 0 2928 4202 2260
[03]  18(G19)  f 41  7  0  -3176.5  2046004.0  0.0  2 0 1696 1967  901
[04]  29(G30)  f 45 13  0   1021.4  2045998.6 -0.0  2 0 1596 3063 1961
[05]  06(G07)  7 28  7  0   2395.9  2045996.8  0.2 10 0  512  352  462
[06]  15(G16)  1  7  7  0   -591.8  2045999.9  0.0  1 0  418  269  448
[08]  27(G28)  1  7  9  0  -2752.0  2046001.8  0.1  1 0  117  103  155
[16]  38(B02)  1 16 17  0   -750.0  4092002.3  0.1  1 0  392  195  784
[17]  41(B05) 1f 41 22  0  -1116.5  4092002.7 -0.0  2 0 1109 1497  482
[18]  47(B11) 1f 41  7  0  -3232.2  4092008.3  0.0  2 0 1015 1340  755
[20]  49(B13) 1f 41  7  0  -1476.1  4092003.8  0.0  2 0 1443 1529  566
[21]  60(B24) 1f 41  7  0  -1871.9  4092004.8 -0.0  2 0 1434 1454  788
[24]  62(B26) 1f 40  7  0   1071.5  4091997.1 -0.0  2 0 1070 1659  987
[32]  77(N-4)  7 40  7  0  -1520.9  1022000.9  0.1  2 0   793 1112  494
[33]  81(N00)  7 37 23  0  -4324.5  1022002.6 -0.0  2 0   479  499  170
[34]  84(N03)  7 43 26  0  -3820.9  1022002.4  0.1  2 0   871 1511  890
[49]  41(B05)  1 24 24  0   -686.1 20460020.6  0.1  1 0  211  247  209
[50]  47(B11)  1  7  7  0  -2616.2 20460052.4 -0.3  1 0  719  220  110
[52]  49(B13)  1  7  7  0  -1293.3 20460022.8 -0.1  1 0  285  531  372
[53]  60(B24)  1  7  7  0  -1187.7 20460030.8  0.1  1 0  699  317  201
[56]  62(B26)  1  7  7  0   1299.6 20459983.0 -0.1  1 0  445  462  456
$GNGGA,095104.663,,,,,0,00,,,M,,,,0000*21
$GNRMC,095104.663,A,,,,,,,070180,,*22
$GPGSA,A,1,,,,,,,,,,,,,,,*1E
$BDGSA,A,1,,,,,,,,,,,,,,,*0F
$GLGSA,A,1,,,,,,,,,,,,,,,*02
$GPGSV,2,1,06,06,00,000,42,13,00,000,39,17,00,000,45,19,00,000,41*7E
$GPGSV,2,2,06,30,00,000,45,07,00,000,28*70
$BDGSV,2,1,05,05,00,000,41,11,00,000,41,13,00,000,41,24,00,000,41*6F
$BDGSV,2,2,05,26,00,000,40*5D
$B3CN0,0,0,0,0,0,0,0,0,0,0,0,0,0,0*4C
---00000014--- Acq_st=3 0  2000-1-1 0:1:36 
[00]  05(G06)  f 42  7  0  -4630.4  2046005.9 -0.0  2 0  648 1372 1004
[01]  12(G13)  f 39  7  0    401.4  2045999.5 -0.0  2 0  904 1078  444
[02]  16(G17)  f 46  7  0  -1970.1  2046002.5 -0.0  2 0 2751 4279 2372
[03]  18(G19)  f 42  7  0  -3177.2  2046004.0  0.0  2 0 1350 2181 1109
[04]  29(G30)  f 45 14  0   1021.6  2045998.6 -0.0  2 0 1674 2514 1078
[05]  06(G07)  7 29  7  0   2401.9  2045996.8  0.1  5 0  510  284  197
[06]  15(G16)  1  7  7  0   -419.8  2046000.5  0.0  1 0  291  206  190
[08]  27(G28)  1 13  7  0  -2889.0  2046002.1  0.1  1 0  296  564  382
[16]  38(B02)  1 36 10  0   -124.1  4092002.6 -0.1  1 0  178  287  276
[17]  41(B05) 1f 40 26  0  -1117.3  4092002.7  0.4  2 0  961  945  252
[18]  47(B11) 1f 41  7  0  -3231.2  4092008.4 -0.1  2 0 1252 1647  903
[20]  49(B13) 1f 41  9  0  -1478.2  4092003.8 -0.1  2 0 1172 1314  319
[21]  60(B24) 1f 41  7  0  -1869.6  4092004.8 -0.1  2 0  793 1130  383
[24]  62(B26) 1f 40  7  0   1072.7  4091997.1  0.0  2 0  913 1262  554
[32]  77(N-4)  7 41 10  0  -1520.9  1022001.0  0.0  2 0   676  869  579
[33]  81(N00)  7 34 21  0  -4325.4  1022002.6  0.0  2 0   457  611  545
[34]  84(N03)  7 44 28  0  -3820.8  1022002.4  0.0  2 0  1290 1862  821
[49]  41(B05)  1 23 27  0   -745.3 20460023.9  0.1  1 0  114  494  502
[50]  47(B11)  1  7  7  0  -2762.3 20460052.5 -0.1  1 0  500  283  353
[52]  49(B13)  1  7  7  0  -1766.0 20460023.9 -0.1  1 0  167  753  520
[53]  60(B24)  1  7  7  0  -1383.8 20460029.4 -0.1  1 0  226  527  671
[56]  62(B26)  1  7  8  0   1012.5 20459983.3  0.1  1 0  416  368  352
$GNGGA,095105.663,,,,,0,00,,,M,,,,0000*20
$GNRMC,095105.663,A,,,,,,,070180,,*23
$GPGSA,A,1,,,,,,,,,,,,,,,*1E
$BDGSA,A,1,,,,,,,,,,,,,,,*0F
$GLGSA,A,1,,,,,,,,,,,,,,,*02
$GPGSV,2,1,06,06,00,000,42,13,00,000,39,17,00,000,46,19,00,000,42*7E
$GPGSV,2,2,06,30,00,000,45,07,00,000,29*71
$BDGSV,2,1,05,05,00,000,40,11,00,000,41,13,00,000,41,24,00,000,41*6E
$BDGSV,2,2,05,26,00,000,40*5D
$B3CN0,0,0,0,0,0,0,0,0,0,0,0,0,0,0*4C
---00000015--- Acq_st=3 0  2000-1-1 0:1:37 
[00]  05(G06)  f 42  7  0  -4630.6  2046005.9 -0.0  2 0 1223 1861 1003
[01]  12(G13)  f 38  7  0    399.1  2045999.4  0.0  2 0 1456 1368  333
[02]  16(G17)  f 46  7  0  -1969.9  2046002.5 -0.0  2 0 3045 4527 1926
[03]  18(G19)  f 43  7  0  -3176.9  2046004.0 -0.0  2 0 1849 2407 1139
[04]  29(G30)  f 45 11  0   1019.0  2045998.6  0.0  2 0 2177 3229 1247
[05]  06(G07)  7 29  7  0   2403.5  2045996.8 -0.1  5 0  419  447  312
[06]  15(G16)  1 14 11  0    141.4  2046000.4  0.0  1 0  467  420  280
[08]  27(G28)  7 10  7  0  -2987.3  2046004.0 -0.1 10 0  741  139  495
[16]  38(B02)  1 10 10  1   -221.8  4092003.1  0.0  1 0  190  350  463
[17]  41(B05) 1f 40 27  0  -1110.9  4092002.7 -0.3  2 0 1287 1372  393
[18]  47(B11) 1f 41  8  0  -3228.5  4092008.4  0.0  2 0 1018 1275  666
[20]  49(B13) 1f 40  8  0  -1479.2  4092003.7 -0.1  2 0 1189 1235  583
[21]  60(B24) 1f 41  7  0  -1874.7  4092004.8 -0.0  2 0 1103 1213  817
[24]  62(B26) 1f 40  7  0   1078.1  4091997.1  0.1  2 0  826 1062  361
[32]  77(N-4)  f 32  7  0  -1520.7  1022000.9  0.4  5 0   707 1018  453
[33]  81(N00)  f 28 12  0  -4325.1  1022002.8 -0.1 10 0   421  601  588
[34]  84(N03)  f 33 18  0  -3822.4  1022002.4 -0.1  5 0   364 1286  613
[50]  47(B11)  1  7  7  0  -3117.3 20460051.1  0.0  1 0  397  720  735
[52]  49(B13)  1  8  7  0  -1974.3 20460023.8  0.0  1 0  647  507   95
[53]  60(B24)  1  7  7  0  -1502.6 20460028.9  0.1  1 0  158  365  265
[56]  62(B26)  1 10  7  0    549.7 20459982.9 -0.0  1 0  236  102  401
$GNGGA,095106.663,,,,,0,00,,,M,,,,0000*23
$GNRMC,095106.663,A,,,,,,,070180,,*20
$GPGSA,A,1,,,,,,,,,,,,,,,*1E
$BDGSA,A,1,,,,,,,,,,,,,,,*0F
$GLGSA,A,1,,,,,,,,,,,,,,,*02
$GPGSV,2,1,06,06,00,000,42,13,00,000,38,17,00,000,46,19,00,000,43*7E
$GPGSV,2,2,06,30,00,000,45,07,00,000,29*71
$BDGSV,2,1,05,05,00,000,40,11,00,000,41,13,00,000,40,24,00,000,41*6F
$BDGSV,2,2,05,26,00,000,40*5D
$B3CN0,0,0,0,0,0,0,0,0,0,0,0,0,0,0*4C
---00000016--- Acq_st=3 0  2000-1-1 0:1:38 
[00]  05(G06)  f 42  7  0  -4631.8  2046005.9 -0.0  2 0 1306 1777 1019
[01]  12(G13)  f 38  7  0    401.4  2045999.4 -0.1  2 0 1289 1822  920
[02]  16(G17)  f 45  7  0  -1971.3  2046002.5 -0.0  2 0 3333 4636 2230
[03]  18(G19)  f 43  9  0  -3178.1  2046004.0  0.1  2 0 1847 2594 1238
[04]  29(G30)  f 45 17  0   1018.8  2045998.6 -0.1  2 0 2133 3443 1662
[05]  06(G07)  f 32  7  0   2399.8  2045996.7 -0.1  5 0  975  651  376
[08]  27(G28)  7 14  7  0  -3114.9  2046004.1 -0.1 10 0  544  544  545
[16]  38(B02)  1 10 16  0    -81.5  4092003.9 -0.1  1 0   40  251  322
[17]  41(B05) 1f 41 21  0  -1115.4  4092002.9  0.4  2 0  978 1355  866
[18]  47(B11) 1f 41 12  0  -3228.2  4092008.3 -0.0  2 0 1757 1686  501
[20]  49(B13) 1f 41  8  0  -1478.6  4092003.8 -0.1  2 0 1197  915  519
[21]  60(B24) 1f 41  7  0  -1868.0  4092004.8  0.1  2 0  892 1085  422
[24]  62(B26) 1f 40  7  0   1071.9  4091997.1 -0.0  2 0 1183 1460  437
[32]  77(N-4)  f 40  7  0  -1521.9  1022000.9  0.1  2 0   618 1175  982
[33]  81(N00)  f 30  7  0  -4322.9  1022002.7 -0.0  5 0   491  683   12
[34]  84(N03)  f 43 12  0  -3820.7  1022002.4 -0.0  2 0   429 1332  658
[49]  41(B05)  1 22 22  1  -1129.6 20460015.5 -0.0  1 0  358  462  181
[50]  47(B11)  1  7  7  0  -3604.9 20460051.1  0.0  1 0  255  217  441
[52]  49(B13)  1  7  7  0  -2446.0 20460022.0  0.0  1 0  319  187  491
[53]  60(B24)  1  9  7  0  -1729.8 20460029.5  0.2  1 0  788  758  204
[56]  62(B26)  1  7  7  0    788.3 20459985.2  0.1  1 0  424  352  554
$GNGGA,095107.663,,,,,0,00,,,M,,,,0000*22
$GNRMC,095107.663,A,,,,,,,070180,,*21
$GPGSA,A,1,,,,,,,,,,,,,,,*1E
$BDGSA,A,1,,,,,,,,,,,,,,,*0F
$GLGSA,A,1,,,,,,,,,,,,,,,*02
$GPGSV,2,1,06,06,00,000,42,13,00,000,38,17,00,000,45,19,00,000,43*7D
$GPGSV,2,2,06,30,00,000,45,07,00,000,32*7B
$BDGSV,2,1,05,05,00,000,41,11,00,000,41,13,00,000,41,24,00,000,41*6F
$BDGSV,2,2,05,26,00,000,40*5D
$B3CN0,0,0,0,0,0,0,0,0,0,0,0,0,0,0*4C
---00000017--- Acq_st=3 0  2000-1-1 0:1:39 
[00]  05(G06)  f 42  7  0  -4631.7  2046005.9 -0.0  2 0 1088 1765  925
[01]  12(G13)  f 38  7  0    395.3  2045999.4  0.2  2 0 1042 1108   82
[02]  16(G17)  f 45  8  0  -1971.7  2046002.5  0.0  2 0 3013 4385 2256
[03]  18(G19)  f 44  7  0  -3175.3  2046004.0  0.0  2 0 1978 2714 1092
[04]  29(G30)  f 45  7  0   1020.1  2045998.6  0.0  2 0 2225 3421 1527
[05]  06(G07)  f 34  7  0   2403.8  2045996.7 -0.0  5 0  588  499  886
[08]  27(G28)  7  7  7  0  -3207.6  2046004.3  0.0 10 0  139  494  328
[16]  38(B02)  1 14 10  0    445.3  4092005.5 -0.1  1 0  109  144  343
[17]  41(B05) 1f 39 25  0  -1115.5  4092002.8 -0.3  2 0  780  881  553
[18]  47(B11) 1f 42 12  0  -3230.9  4092008.3  0.1  2 0 1422 1930  590
[20]  49(B13) 1f 41  7  0  -1481.3  4092003.7  0.0  2 0 1482 1254  614
[21]  60(B24) 1f 41  7  0  -1873.2  4092004.8 -0.0  2 0  769 1395  568
[24]  62(B26) 1f 39  7  0   1073.4  4091997.1 -0.0  2 0  735 1046  357
[32]  77(N-4)  f 39  7  0  -1521.8  1022001.0  0.6  2 0   396 1021  675
[33]  81(N00)  f 33  9  0  -4321.9  1022002.7 -0.1  5 0   442  437  319
[34]  84(N03)  f 42 13  0  -3821.8  1022002.4 -0.0  2 0   369 1249  612
[49]  41(B05)  1 21 23  0  -1012.6 20460021.0 -0.1  1 0  443  157  423
$GNGGA,095108.663,,,,,0,00,,,M,,,,0000*2D
$GNRMC,095108.663,A,,,,,,,070180,,*2E
$GPGSA,A,1,,,,,,,,,,,,,,,*1E
$BDGSA,A,1,,,,,,,,,,,,,,,*0F
$GLGSA,A,1,,,,,,,,,,,,,,,*02
$GPGSV,2,1,06,06,00,000,42,13,00,000,38,17,00,000,45,19,00,000,44*7A
$GPGSV,2,2,06,30,00,000,45,07,00,000,34*7D
$BDGSV,2,1,05,05,00,000,39,11,00,000,42,13,00,000,41,24,00,000,41*63
$BDGSV,2,2,05,26,00,000,39*53
$B3CN0,0,0,0,0,0,0,0,0,0,0,0,0,0,0*4C
---00000018--- Acq_st=7 0  2000-1-1 0:1:40 
[00]  05(G06)  f 42  7  0  -4636.4  2046006.0 -0.1  2 0  606  950  841
[01]  12(G13)  f 38  7  0    394.6  2045999.4 -0.2  2 0  744 1124  554
[02]  16(G17)  f 45  8  0  -1970.2  2046002.5  0.0  2 0 2202 3753 1599
[03]  18(G19)  f 44  7  0  -3173.6  2046004.0 -0.0  2 0 1659 2906 1587
[04]  29(G30)  f 45  8  0   1022.1  2045998.6 -0.0  2 0 2036 3754 1577
[05]  06(G07)  f 36  7  0   2400.4  2045996.8  0.0  2 0  502  783  651
[17]  41(B05) 1f 39 10  0  -1115.0  4092002.6  0.1  2 0 1259 1526  697
[18]  47(B11) 1f 42 11  0  -3227.7  4092008.4 -0.0  2 0 1385 1709  848
[20]  49(B13) 1f 41  7  0  -1480.6  4092003.8 -0.0  2 0 1005 1181  740
[21]  60(B24) 1f 41  7  0  -1873.1  4092004.8 -0.0  2 0 1014 1053  377
[24]  62(B26) 1f 39  7  0   1071.6  4091997.1  0.0  2 0 1265 1604  813
[32]  77(N-4)  f 39  7  0  -1519.5  1022001.0  0.2  2 0   214  700  475
[33]  81(N00)  f 34  7  0  -4320.3  1022002.7  0.1  5 0   451  950  610
[34]  84(N03)  f 41 13  0  -3820.3  1022002.4  0.1  2 0   704 1180  471
[49]  41(B05)  1 26 23  1   -957.8 20460022.4  0.0  1 0  391  402  105
[50]  47(B11)  1  7  7  0  -2922.7 20460050.5  0.0  1 0  760  372  246
[52]  49(B13)  1  7  7  0  -1375.6 20460025.7  0.0  1 0  681  397  908
[53]  60(B24)  1  7  7  0  -1579.0 20460030.8 -0.0  1 0  367  230  385
[56]  62(B26)  1  7  7  0    897.7 20459983.2  0.0  1 0  696  296  175
$GNGGA,095109.663,,,,,0,00,,,M,,,,0000*2C
$GNRMC,095109.663,A,,,,,,,070180,,*2F
$GPGSA,A,1,,,,,,,,,,,,,,,*1E
$BDGSA,A,1,,,,,,,,,,,,,,,*0F
$GLGSA,A,1,,,,,,,,,,,,,,,*02
$GPGSV,2,1,06,06,00,000,42,13,00,000,38,17,00,000,45,19,00,000,44*7A
$GPGSV,2,2,06,30,00,000,45,07,00,000,36*7F
$BDGSV,2,1,05,05,00,000,39,11,00,000,42,13,00,000,41,24,00,000,41*63
$BDGSV,2,2,05,26,00,000,39*53
$B3CN0,0,0,0,0,0,0,0,0,0,0,0,0,0,0*4C
---00000019--- Acq_st=7 0  2000-1-1 0:1:41 
[00]  05(G06)  f 41  7  0  -4628.5  2046005.9 -0.0  2 0  827 1668  779
[01]  12(G13)  f 39  7  0    396.3  2045999.4  0.2  2 0  662 1007  557
[02]  16(G17)  f 45  7  0  -1970.2  2046002.5  0.0  2 0 2464 3732 1552
[03]  18(G19)  f 44  9  0  -3173.2  2046004.0  0.0  2 0 2166 3021 1268
[04]  29(G30)  f 45 13  0   1023.4  2045998.6 -0.0  2 0 2244 3077 1405
[05]  06(G07)  f 36  7  0   2407.3  2045996.8 -0.4  2 0  304  265  193
[17]  41(B05) 1f 41 24  0  -1113.9  4092002.7  0.4  2 0 1212 1880  925
[18]  47(B11) 1f 42 10  0  -3231.3  4092008.3  0.0  2 0 1456 1402  803
[20]  49(B13) 1f 41  7  0  -1476.9  4092003.7  0.1  2 0  942  978  552
[21]  60(B24) 1f 41  7  0  -1871.7  4092004.8 -0.1  2 0 1136 1627  509
[24]  62(B26) 1f 39  7  0   1076.4  4091997.1  0.0  2 0 1053 1145  539
[32]  77(N-4)  f 38  7  0  -1519.7  1022000.9 -0.1  2 0   424  604   59
[33]  81(N00)  f 35 12  0  -4318.1  1022002.7 -0.1  2 0   337  358  101
[34]  84(N03)  f 41 14  0  -3819.9  1022002.4 -0.1  2 0   667 1194  587
[49]  41(B05)  1 23 26  0   -957.7 20460025.2 -0.2  1 0  601  313  696
[50]  47(B11)  1  7  7  0  -3451.3 20460053.1  0.1  1 0  421  640   83
[52]  49(B13)  1  7  8  0  -1211.9 20460022.2 -0.0  1 0  751  640  597
[53]  60(B24)  1  7 10  0  -1300.5 20460030.5  0.0  1 0  789  330  448
[56]  62(B26)  1  7  7  0    800.5 20459981.9  0.1  1 0  370  226  189
$GNGGA,095110.663,,,,,0,00,,,M,,,,0000*24
$GNRMC,095110.663,A,,,,,,,070180,,*27
$GPGSA,A,1,,,,,,,,,,,,,,,*1E
$BDGSA,A,1,,,,,,,,,,,,,,,*0F
$GLGSA,A,1,,,,,,,,,,,,,,,*02
$GPGSV,2,1,06,06,00,000,41,13,00,000,39,17,00,000,45,19,00,000,44*78
$GPGSV,2,2,06,30,00,000,45,07,00,000,36*7F
$BDGSV,2,1,05,05,00,000,41,11,00,000,42,13,00,000,41,24,00,000,41*6C
$BDGSV,2,2,05,26,00,000,39*53
$B3CN0,0,0,0,0,0,0,0,0,0,0,0,0,0,0*4C
---00000020--- Acq_st=3 0  2000-1-1 0:1:42 
[00]  05(G06)  f 40  7  0  -4630.4  2046005.9 -0.0  2 0 1061 1474  502
[01]  12(G13)  f 39  7  0    402.5  2045999.4 -0.1  2 0  325  839  735
[02]  16(G17)  f 45  7  0  -1969.8  2046002.5 -0.0  2 0 2474 3711 1902
[03]  18(G19)  f 45  7  0  -3172.5  2046004.0 -0.0  2 0 2135 3096  975
[04]  29(G30)  f 44 12  0   1024.0  2045998.6  0.0  2 0 2149 2870 1144
[05]  06(G07)  f 36  7  0   2405.4  2045996.7  0.1  2 0  901  574  419
[17]  41(B05) 1f 40 18  0  -1117.2  4092002.8  0.1  2 0  729 1114  297
[18]  47(B11) 1f 42  9  0  -3226.7  4092008.4 -0.1  2 0 1371 1873  729
[20]  49(B13) 1f 41  7  0  -1478.3  4092003.8 -0.2  2 0  937 1262  721
[21]  60(B24) 1f 41  7  0  -1865.5  4092004.8 -0.0  2 0  922 1170  752
[24]  62(B26) 1f 39  7  0   1077.0  4091997.0 -0.1  2 0 1153 1399  646
[32]  77(N-4)  f 38  7  0  -1516.7  1022000.9 -0.1  2 0   493  524  256
[33]  81(N00)  f 35  7  0  -4316.4  1022002.8  0.1  2 0   505  467  134
[34]  84(N03)  f 41 15  0  -3819.4  1022002.4  0.1  2 0   877 1087  311
[50]  47(B11)  1  9  7  0  -3393.3 20460052.5  0.2  1 0  470  812  464
[52]  49(B13)  1  7  7  0  -1224.7 20460022.4 -0.1  1 0 1008  645  324
[53]  60(B24)  1  7  7  0  -1368.8 20460030.0 -0.0  1 0  622  773  690
[56]  62(B26)  1  7  7  0   1107.4 20459985.1  0.1  1 0  642  314  318
$GNGGA,095111.663,,,,,0,00,,,M,,,,0000*25
$GNRMC,095111.663,A,,,,,,,070180,,*26
$GPGSA,A,1,,,,,,,,,,,,,,,*1E
$BDGSA,A,1,,,,,,,,,,,,,,,*0F
$GLGSA,A,1,,,,,,,,,,,,,,,*02
$GPGSV,2,1,06,06,00,000,40,13,00,000,39,17,00,000,45,19,00,000,45*78
$GPGSV,2,2,06,30,00,000,44,07,00,000,36*7E
$BDGSV,2,1,05,05,00,000,40,11,00,000,42,13,00,000,41,24,00,000,41*6D
$BDGSV,2,2,05,26,00,000,39*53
$B3CN0,0,0,0,0,0,0,0,0,0,0,0,0,0,0*4C
---00000021--- Acq_st=3 0  2000-1-1 0:1:43 
[00]  05(G06)  f 40  7  0  -4635.0  2046005.9 -0.0  2 0  773 1381  735
[01]  12(G13)  f 38  7  0    394.9  2045999.4  0.0  2 0  869 1240  482
[02]  16(G17)  f 45  7  0  -1970.9  2046002.5 -0.0  2 0 1991 3510 1884
[03]  18(G19)  f 44  7  0  -3174.5  2046004.0  0.0  2 0 1840 2570 1289
[04]  29(G30)  f 45 11  0   1022.5  2045998.6 -0.0  2 0 1694 2690 1221
[05]  06(G07)  f 36  8  0   2398.8  2045996.8  0.0  2 0  679  419  297
[17]  41(B05) 1f 41 22  0  -1121.3  4092002.8  0.9  2 0  744 1114  435
[18]  47(B11) 1f 42 10  0  -3228.6  4092008.3  0.1  2 0  897 1352  601
[20]  49(B13) 1f 41 10  0  -1480.6  4092003.8  0.2  2 0  930 1022  143
[21]  60(B24) 1f 40  7  0  -1870.0  4092004.8 -0.1  2 0  673 1367  720
[24]  62(B26) 1f 39  7  0   1074.5  4091997.1 -0.1  2 0  753  859  289
[32]  77(N-4)  f 39  7  0  -1519.9  1022001.0 -0.1  2 0   397  849  532
[33]  81(N00)  f 34 11  0  -4321.3  1022002.8  0.1  2 0   210  407  283
[34]  84(N03)  f 41 14  0  -3821.4  1022002.4 -0.1  2 0   778 1224  621
[49]  41(B05)  1 24 24  0   -433.7 20460017.3 -0.0  1 0  255  269  309
[50]  47(B11)  1  7  7  0  -3642.4 20460051.9  0.1  1 0   56  289   59
[52]  49(B13)  1  7  7  0  -1144.4 20460024.2 -0.1  1 0  404  810  531
[53]  60(B24)  1  7  7  0  -1294.9 20460029.0 -0.1  1 0  433  298  182
[56]  62(B26)  1  7  7  0    802.0 20459984.2 -0.2  1 0  354  282  470
$GNGGA,095112.663,,,,,0,00,,,M,,,,0000*26
$GNRMC,095112.663,A,,,,,,,070180,,*25
$GPGSA,A,1,,,,,,,,,,,,,,,*1E
$BDGSA,A,1,,,,,,,,,,,,,,,*0F
$GLGSA,A,1,,,,,,,,,,,,,,,*02
$GPGSV,2,1,06,06,00,000,40,13,00,000,38,17,00,000,45,19,00,000,44*78
$GPGSV,2,2,06,30,00,000,45,07,00,000,36*7F
$BDGSV,2,1,05,05,00,000,41,11,00,000,42,13,00,000,41,24,00,000,40*6D
$BDGSV,2,2,05,26,00,000,39*53
$B3CN0,0,0,0,0,0,0,0,0,0,0,0,0,0,0*4C
---00000022--- Acq_st=3 0  2000-1-1 0:1:44 
[00]  05(G06)  f 41  7  0  -4627.8  2046005.9  0.0  2 0 1241 1867  915
[01]  12(G13)  f 39  7  0    401.2  2045999.4  0.2  2 0 1018 1094  426
[02]  16(G17)  f 45  7  0  -1969.6  2046002.5  0.0  2 0 2837 4096 1981
[03]  18(G19)  f 44  7  0  -3176.0  2046004.0 -0.0  2 0 2763 4038 1701
[04]  29(G30)  f 44 12  0   1023.8  2045998.6 -0.0  2 0 1816 3280 1352
[05]  06(G07)  f 35  7  0   2403.0  2045996.8  0.1  2 0  493 1055  577
[16]  38(B02)  1 31 19  0  -1250.0  4092004.0  0.0  1 0  478 1401  953
[17]  41(B05) 1f 40 27  0  -1116.1  4092002.9 -0.6  2 0 1205 1849 1282
[18]  47(B11) 1f 42 10  0  -3232.2  4092008.3  0.0  2 0 1762 1774  741
[20]  49(B13) 1f 41 12  0  -1477.0  4092003.7  0.0  2 0 1050 1364  775
[21]  60(B24) 1f 41  7  0  -1868.7  4092004.8  0.0  2 0 1018 1578  571
[24]  62(B26) 1f 39  7  0   1067.8  4091997.0 -0.1  2 0  987 1424  534
[32]  77(N-4)  f 39  7  0  -1519.5  1022000.9 -0.3  2 0   295  967  529
[33]  81(N00)  f 34  7  0  -4320.7  1022002.7  0.1  2 0   674  903  459
[34]  84(N03)  f 40 16  0  -3818.6  1022002.4  0.0  2 0   571 1095  500
[49]  41(B05)  1 20 19  1  -1084.3 20460016.8 -0.1  1 0  358  798  449
$GNGGA,095113.663,,,,,0,00,,,M,,,,0000*27
$GNRMC,095113.663,A,,,,,,,070180,,*24
$GPGSA,A,1,,,,,,,,,,,,,,,*1E
$BDGSA,A,1,,,,,,,,,,,,,,,*0F
$GLGSA,A,1,,,,,,,,,,,,,,,*02
$GPGSV,2,1,06,06,00,000,41,13,00,000,39,17,00,000,45,19,00,000,44*78
$GPGSV,2,2,06,30,00,000,44,07,00,000,35*7D
$BDGSV,2,1,05,05,00,000,40,11,00,000,42,13,00,000,41,24,00,000,41*6D
$BDGSV,2,2,05,26,00,000,39*53
$B3CN0,0,0,0,0,0,0,0,0,0,0,0,0,0,0*4C
---00000023--- Acq_st=3 0  2000-1-1 0:1:45 
[00]  05(G06)  f 42  9  0  -4629.3  2046006.0 -0.0  2 0  926 1765  944
[01]  12(G13)  f 39  7  0    396.7  2045999.4  0.2  2 0  695 1196  208
[02]  16(G17)  f 45  8  0  -1968.9  2046002.5  0.1  2 0 2411 3366 1692
[03]  18(G19)  f 44  7  0  -3172.0  2046004.1  0.0  2 0 1979 3130 1252
[04]  29(G30)  f 44 15  0   1026.9  2045998.6 -0.0  2 0 1372 2806 1114
[05]  06(G07)  f 34  7  0   2410.0  2045996.8 -0.1  2 0  636  812  136
[16]  38(B02)  9 38 23  0  -1110.9  4092002.3  0.9  1 0 1048 1086  335
[17]  41(B05) 1f 40 19  0  -1114.2  4092002.8 -0.5  2 0 1260 1369  442
[18]  47(B11) 1f 42 14  0  -3220.5  4092008.3 -0.0  2 0 1383 1496  452
[20]  49(B13) 1f 41  7  0  -1479.7  4092003.8  0.0  2 0  752 1117  697
[21]  60(B24) 1f 41  7  0  -1862.9  4092004.8 -0.1  2 0 1181 1488  594
[24]  62(B26) 1f 39  7  0   1067.6  4091997.1 -0.0  2 0  389 1150  632
[32]  77(N-4)  f 39  7  0  -1515.4  1022000.9  0.1  2 0   335  604  189
[33]  81(N00)  f 34 13  0  -4315.5  1022002.8 -0.0  2 0   194  637  415
[34]  84(N03)  f 40 17  0  -3818.7  1022002.4 -0.1  2 0   510  936  823
[49]  41(B05)  1 25 21  0  -1326.9 20460016.6  0.1  1 0  740  541  347
[50]  47(B11)  1  7  7  0  -2818.9 20460051.5 -0.0  1 0  350  851  903
[52]  49(B13)  1  7  7  0  -1105.0 20460022.8 -0.1  1 0  459  664  395
[53]  60(B24)  1  7  7  0  -1497.3 20460029.0  0.1  1 0  426  310  502
[56]  62(B26)  1  7  9  0    941.0 20459983.1 -0.1  1 0  312  239  534
$GNGGA,095114.663,,,,,0,00,,,M,,,,0000*20
$GNRMC,095114.663,A,,,,,,,070180,,*23
$GPGSA,A,1,,,,,,,,,,,,,,,*1E
$BDGSA,A,1,,,,,,,,,,,,,,,*0F
$GLGSA,A,1,,,,,,,,,,,,,,,*02
$GPGSV,2,1,06,06,00,000,42,13,00,000,39,17,00,000,45,19,00,000,44*7B
$GPGSV,2,2,06,30,00,000,44,07,00,000,34*7C
$BDGSV,2,1,05,05,00,000,40,11,00,000,42,13,00,000,41,24,00,000,41*6D
$BDGSV,2,2,05,26,00,000,39*53
$B3CN0,0,0,0,0,0,0,0,0,0,0,0,0,0,0*4C
---00000024--- Acq_st=3 0  2000-1-1 0:1:46 
[00]  05(G06)  f 42  7  0  -4633.9  2046006.0 -0.1  2 0 1109 1759  802
[01]  12(G13)  f 39  7  0    392.3  2045999.4  0.0  2 0  675 1265  673
[02]  16(G17)  f 45  7  0  -1971.3  2046002.5 -0.0  2 0 3119 3923 1421
[03]  18(G19)  f 44  7  0  -3175.3  2046004.1  0.0  2 0 1764 2758 1438
[04]  29(G30)  f 44 13  0   1021.8  2045998.6  0.0  2 0 1416 2852 1357
[05]  06(G07)  f 32  7  0   2393.6  2045996.9 -0.0  5 0  615  724  563
[16]  38(B02)  f 39 25  0  -1112.9  4092002.9 -0.5  2 0  988  974  660
[17]  41(B05) 1f 41 25  0  -1122.7  4092002.8 -0.6  2 0  988 1237  403
[18]  47(B11) 1f 41  8  0  -3235.7  4092008.4 -0.1  2 0 1293 1413  336
[20]  49(B13) 1f 41  7  0  -1480.8  4092003.7 -0.1  2 0  771 1160  837
[21]  60(B24) 1f 41  7  0  -1871.8  4092004.7  0.1  2 0 1335 1589  794
[24]  62(B26) 1f 39  7  0   1065.6  4091997.1  0.2  2 0  919 1205  738
[32]  77(N-4)  f 40  7  0  -1518.7  1022000.9 -0.7  2 0   517  667  186
[33]  81(N00)  f 34  7  0  -4320.2  1022002.7  0.0  2 0   277  537  167
[34]  84(N03)  f 40 14  0  -3822.7  1022002.4  0.1  2 0   520 1345  405
[49]  41(B05)  1 23 21  1  -1448.7 20460024.0  0.1  1 0  388  446  398
[50]  47(B11)  1  7  7  0  -3224.5 20460052.2  0.1  1 0  418  365  301
[52]  49(B13)  1  7  7  0  -1192.6 20460023.4  0.1  1 0  732  524  317
[53]  60(B24)  1  7  7  0  -1565.7 20460028.7 -0.1  1 0  160  675  590
[56]  62(B26)  1  7  7  0    549.3 20459982.6 -0.1  1 0  542  529  269
$GNGGA,095115.663,,,,,0,00,,,M,,,,0000*21
$GNRMC,095115.663,A,,,,,,,070180,,*22
$GPGSA,A,1,,,,,,,,,,,,,,,*1E
$BDGSA,A,1,,,,,,,,,,,,,,,*0F
$GLGSA,A,1,,,,,,,,,,,,,,,*02
$GPGSV,2,1,06,06,00,000,42,13,00,000,39,17,00,000,45,19,00,000,44*7B
$GPGSV,2,2,06,30,00,000,44,07,00,000,32*7A
$BDGSV,2,1,06,02,00,000,39,05,00,000,41,11,00,000,41,13,00,000,41*67
$BDGSV,2,2,06,24,00,000,41,26,00,000,39*63
$B3CN0,0,0,0,0,0,0,0,0,0,0,0,0,0,0*4C
---00000025--- Acq_st=3 0  2000-1-1 0:1:47 
[00]  05(G06)  f 42  7  0  -4632.7  2046006.0  0.1  2 0  905 1934 1303
[01]  12(G13)  f 39  7  0    392.1  2045999.4 -0.1  2 0  670 1392  613
[02]  16(G17)  f 45  7  0  -1972.5  2046002.5  0.0  2 0 2047 3661 2069
[03]  18(G19)  f 44  7  0  -3177.2  2046004.1  0.0  2 0 1288 2010 1057
[04]  29(G30)  f 44 15  0   1020.6  2045998.6  0.0  2 0 1582 2835 1556
[05]  06(G07)  f 24  7  0   2249.6  2045997.2  0.1 10 0  710  661  427
[16]  38(B02)  f 39 26  0  -1114.1  4092002.8 -0.3  2 0  858  836  567
[17]  41(B05) 1f 41 10  0  -1121.4  4092002.8  0.1  2 0 1095 1022   36
[18]  47(B11) 1f 41 11  0  -3233.0  4092008.4 -0.0  2 0  999 1263  640
[19]  61(B25)  1  7  7  0  -4000.0  4092011.6  0.1  1 0  954 1609 1295
[20]  49(B13) 1f 41  7  0  -1483.9  4092003.7  0.0  2 0  876 1190  400
[21]  60(B24) 1f 41 10  0  -1869.4  4092004.8  0.0  2 0 1069 1412  530
[24]  62(B26) 1f 39  7  0   1072.3  4091997.0 -0.1  2 0  679  694  428
[32]  77(N-4)  f 40  7  0  -1519.7  1022000.9  0.3  2 0   707 1039  627
[33]  81(N00)  f 34 12  0  -4320.3  1022002.8  0.0  2 0   804  745  520
[34]  84(N03)  f 40 15  0  -3823.4  1022002.4  0.2  2 0   657 1118  635
[48]  38(B02)  1 23 10  1   -520.8 20460016.7 -0.1  1 0  275  524  565
[50]  47(B11)  1  7  7  0  -3453.1 20460050.8  0.1  1 0  616   88  469
[52]  49(B13)  1  7  7  0  -1122.0 20460023.4 -0.0  1 0   84  278  341
[53]  60(B24)  1  7  7  0  -1769.1 20460032.1  0.2  1 0  731  381  506
[56]  62(B26)  1  7  7  0    981.7 20459983.3  0.1  1 0  297  390  493
$GNGGA,095116.663,,,,,0,00,,,M,,,,0000*22
$GNRMC,095116.663,A,,,,,,,070180,,*21
$GPGSA,A,1,,,,,,,,,,,,,,,*1E
$BDGSA,A,1,,,,,,,,,,,,,,,*0F
$GLGSA,A,1,,,,,,,,,,,,,,,*02
$GPGSV,2,1,06,06,00,000,42,13,00,000,39,17,00,000,45,19,00,000,44*7B
$GPGSV,2,2,06,30,00,000,44,07,00,000,24*7D
$BDGSV,2,1,06,02,00,000,39,05,00,000,41,11,00,000,41,13,00,000,41*67
$BDGSV,2,2,06,24,00,000,41,26,00,000,39*63
$B3CN0,0,0,0,0,0,0,0,0,0,0,0,0,0,0*4C
---00000026--- Acq_st=3 0  2000-1-1 0:1:48 
[00]  05(G06)  f 41  7  0  -4627.3  2046006.0 -0.0  2 0 1100 1983  700
[01]  12(G13)  f 39  7  0    394.3  2045999.4  0.0  2 0 1148 1473  684
[02]  16(G17)  f 45  7  0  -1970.0  2046002.5  0.0  2 0 2129 3314 1654
[03]  18(G19)  f 44 10  0  -3177.9  2046004.1 -0.0  2 0 1603 2548 1047
[04]  29(G30)  f 44 12  0   1024.3  2045998.6 -0.0  2 0 2214 3277 1358
[05]  06(G07)  f  7  7  0   2116.7  2045997.3  0.2 10 0  237  265  288
[16]  38(B02)  f 39 26  0  -1112.0  4092002.8 -0.4  2 0  721 1323  657
[17]  41(B05) 1f 41 27  0  -1120.6  4092002.8  0.2  2 0  750  992  507
[18]  47(B11) 1f 41 14  0  -3230.3  4092008.4  0.0  2 0 1012 1686 1007
[19]  61(B25)  1  7  7  0  -3996.8  4092010.3  0.3  1 0 1620 1745  786
[20]  49(B13) 1f 41  7  0  -1478.7  4092003.7  0.1  2 0 1236 1587  346
[21]  60(B24) 1f 41  7  0  -1862.5  4092004.7 -0.0  2 0 1124  921  466
[24]  62(B26) 1f 39  7  0   1073.7  4091997.1 -0.2  2 0  740  886  151
[32]  77(N-4)  f 40  7  0  -1516.9  1022001.0  0.0  2 0   860  862  296
[33]  81(N00)  f 34  7  0  -4318.0  1022002.7  0.0  2 0    70  508  373
[34]  84(N03)  f 41 13  0  -3820.1  1022002.4 -0.1  2 0   477 1071  519
[48]  38(B02)  1 10 10  0   -797.1 20460019.7 -0.0  1 0  332  645  464
[49]  41(B05)  1 21 24  0   -298.4 20460019.1  0.2  1 0  837  742  657
[50]  47(B11)  1  7  7  0  -3179.6 20460052.1 -0.1  1 0  439  518  448
[52]  49(B13)  1  8  7  0  -1280.2 20460023.7 -0.1  1 0  410  680  570
[53]  60(B24)  1  9  7  0  -2135.2 20460030.3  0.1  1 0  124  225  413
[56]  62(B26)  1  7  7  0   1040.3 20459983.1 -0.1  1 0  695  607  373
$GNGGA,095117.663,,,,,0,00,,,M,,,,0000*23
$GNRMC,095117.663,A,,,,,,,070180,,*20
$GPGSA,A,1,,,,,,,,,,,,,,,*1E
$BDGSA,A,1,,,,,,,,,,,,,,,*0F
$GLGSA,A,1,,,,,,,,,,,,,,,*02
$GPGSV,2,1,05,06,00,000,41,13,00,000,39,17,00,000,45,19,00,000,44*7B
$GPGSV,2,2,05,30,00,000,44*4F
$BDGSV,2,1,06,02,00,000,39,05,00,000,41,11,00,000,41,13,00,000,41*67
$BDGSV,2,2,06,24,00,000,41,26,00,000,39*63
$B3CN0,0,0,0,0,0,0,0,0,0,0,0,0,0,0*4C
---00000027--- Acq_st=7 0  2000-1-1 0:1:49 
[00]  05(G06)  f 42  7  0  -4632.4  2046006.0  0.0  2 0 1082 1731  798
[01]  12(G13)  f 40  9  0    395.2  2045999.5 -0.1  2 0 1254 1351  472
[02]  16(G17)  f 46 11  0  -1975.0  2046002.5 -0.0  2 0 2121 3187 1354
[03]  18(G19)  f 44  9  0  -3177.9  2046004.1 -0.0  2 0 1960 2934 1543
[04]  29(G30)  f 45 14  0   1020.6  2045998.6 -0.0  2 0 2358 2965  869
[05]  06(G07)  f  7  9  0   2069.7  2045997.4  0.0 10 0  370  205  369
[16]  38(B02) 1f 39 27  0  -1115.8  4092002.8 -0.3  2 0 1040 1006  328
[17]  41(B05) 1f 40 18  0  -1122.5  4092002.7  0.3  2 0 1087 1292  128
[18]  47(B11) 1f 41 14  0  -3232.0  4092008.3 -0.0  2 0 1652 1755  658
[19]  61(B25)  7 34  7  0  -3998.2  4092010.4  0.0  5 0  989 1901 1130
[20]  49(B13) 1f 40  8  0  -1483.2  4092003.8 -0.0  2 0 1092 1293  446
[21]  60(B24) 1f 41  7  0  -1873.9  4092004.8 -0.0  2 0 1380 1273  475
[24]  62(B26) 1f 39  7  0   1070.2  4091997.1  0.2  2 0  848 1257  564
[32]  77(N-4)  f 40  7  0  -1518.9  1022000.9 -0.4  2 0   565  996  429
[33]  81(N00)  f 33  7  0  -4323.5  1022002.7 -0.1  2 0   282  512  354
[34]  84(N03)  f 40 16  0  -3822.1  1022002.4 -0.1  2 0   428  988  665
[48]  38(B02)  1 13 10  1  -1320.8 20460018.6  0.1  1 0  459  299  209
[49]  41(B05)  1 25 22  1   -526.5 20460022.2  0.1  1 0  130  163  422
$GNGGA,095118.663,,,,,0,00,,,M,,,,0000*2C
$GNRMC,095118.663,A,,,,,,,080419,,*25
$GPGSA,A,1,,,,,,,,,,,,,,,*1E
$BDGSA,A,1,,,,,,,,,,,,,,,*0F
$GLGSA,A,1,,,,,,,,,,,,,,,*02
$GPGSV,2,1,05,06,00,000,42,13,00,000,40,17,00,000,46,19,00,000,44*75
$GPGSV,2,2,05,30,00,000,45*4E
$BDGSV,2,1,07,02,00,000,39,05,00,000,40,11,00,000,41,25,00,000,34*60
$BDGSV,2,2,07,13,00,000,40,24,00,000,41,26,00,000,39*54
$B3CN0,0,0,0,0,0,0,0,0,0,0,0,0,0,0*4C
---00000028--- Acq_st=7 0  2000-1-1 0:1:50 
[00]  05(G06)  f 41  7  0  -4636.4  2046006.0 -0.0  2 0 1219 1208  171
[01]  12(G13)  f 41  7  0    391.1  2045999.4 -0.1  2 0  345  830  444
[02]  16(G17)  f 45  8  0  -1974.9  2046002.5  0.0  2 0 2358 3768 1667
[03]  18(G19)  f 43  7  0  -3176.9  2046004.1  0.0  2 0 1502 2448  991
[04]  29(G30)  f 45 15  0   1021.8  2045998.6  0.0  2 0 1817 3088 1702
[05]  06(G07)  f  9  7  0   1945.2  2045997.6  0.1 10 0  839  298  326
[16]  38(B02) 1f 40 20  0  -1116.7  4092002.8  0.5  2 0  912  865  450
[17]  41(B05) 1f 40 23  0  -1123.2  4092002.8 -0.4  2 0 1241 1277  448
[18]  47(B11) 1f 41 12  0  -3231.9  4092008.3  0.1  2 0 1233 1331  557
[19]  61(B25)  7 43  7  0  -3996.8  4092010.4  0.0  2 0 1085 1851  831
[20]  49(B13) 1f 41  7  0  -1481.8  4092003.8  0.0  2 0 1018  702  533
[21]  60(B24) 1f 41  7  0  -1867.2  4092004.7  0.1  2 0 1038 1753  991
[24]  62(B26) 1f 39  7  0   1066.0  4091997.1 -0.2  2 0  715 1073  523
[32]  77(N-4)  f 40  7  0  -1518.0  1022000.9 -0.0  2 0   953 1039  466
[33]  81(N00)  f 33  7  0  -4323.7  1022002.7  0.1  2 0   255  385  290
[34]  84(N03)  f 41  9  0  -3823.5  1022002.4  0.1  2 0   987 1368  521
[48]  38(B02)  1 14 22  0   -904.9 20460023.7  0.0  1 0  667  905  878
[49]  41(B05)  1 23 26  1    -26.6 20460015.3 -0.0  1 0   89  439  667
[50]  47(B11)  1  7  7  0  -2498.0 20460053.0 -0.0  1 0  677  328  535
[52]  49(B13)  1  7  7  0  -1374.5 20460023.2  0.0  1 0  303  297  680
[53]  60(B24)  1  7  7  0  -1726.6 20460028.3 -0.1  1 0  192  363  718
[56]  62(B26)  1  7  7  0    298.1 20459983.1 -0.1  1 0  753  676  235
$GNGGA,095119.663,,,,,0,00,,,M,,,,0000*2D
$GNRMC,095119.663,A,,,,,,,080419,,*24
$GPGSA,A,1,,,,,,,,,,,,,,,*1E
$BDGSA,A,1,,,,,,,,,,,,,,,*0F
$GLGSA,A,1,,,,,,,,,,,,,,,*02
$GPGSV,2,1,05,06,00,000,41,13,00,000,41,17,00,000,45,19,00,000,43*73
$GPGSV,2,2,05,30,00,000,45*4E
$BDGSV,2,1,07,02,00,000,40,05,00,000,40,11,00,000,41,25,00,000,43*6E
$BDGSV,2,2,07,13,00,000,41,24,00,000,41,26,00,000,39*55
$B3CN0,0,0,0,0,0,0,0,0,0,0,0,0,0,0*4C
---00000029--- Acq_st=3 0  2000-1-1 0:1:51 
[00]  05(G06)  f 41  7  0  -4635.0  2046006.0  0.1  2 0  780 1584  952
[01]  12(G13)  f 40  7  0    394.0  2045999.4  0.3  2 0  778 1448  938
[02]  16(G17)  f 46  7  0  -1973.2  2046002.5  0.0  2 0 2587 3671 1565
[03]  18(G19)  f 43  7  0  -3178.6  2046004.1 -0.1  2 0 1506 1737  929
[04]  29(G30)  f 45 11  0   1024.7  2045998.6  0.0  2 0 2036 3370 1744
[16]  38(B02) 1f 40 27  0  -1118.5  4092002.6 -0.2  2 0 1172  913  208
[17]  41(B05) 1f 40 26  0  -1120.9  4092002.9 -0.3  2 0  864 1191  246
[18]  47(B11) 1f 40 12  0  -3229.9  4092008.4 -0.1  2 0 1273 1525  647
[19]  61(B25)  7 43  7  0  -3994.6  4092010.4 -0.0  2 0 1649 1872  308
[20]  49(B13) 1f 41  7  0  -1481.0  4092003.8 -0.0  2 0 1237 1355  743
[21]  60(B24) 1f 41  7  0  -1869.6  4092004.8  0.0  2 0 1209 1417  508
[24]  62(B26) 1f 40  7  0   1076.6  4091997.1 -0.0  2 0  990 1241  387
[32]  77(N-4)  f 41  7  0  -1520.3  1022000.9  0.6  2 0   722 1093  376
[33]  81(N00)  f 34 12  0  -4318.3  1022002.7 -0.1  2 0    97   11  164
[34]  84(N03)  f 41 17  0  -3819.4  1022002.4 -0.1  2 0   746 1257  255
[49]  41(B05)  1 25 22  1    -53.5 20460023.5  0.0  1 0  120  135  489
[50]  47(B11)  1  7  7  0  -2595.2 20460052.6  0.1  1 0 1040  861  610
[52]  49(B13)  1  8  9  0  -2123.2 20460023.2  0.0  1 0  745  261  356
[53]  60(B24)  1  7  7  0  -1397.2 20460029.4  0.0  1 0  926  367  282
[56]  62(B26)  1  7  7  0    660.3 20459984.1  0.1  1 0  657  619  584
$GNGGA,095120.663,,,,,0,00,,,M,,,,0000*27
$GNRMC,095120.663,A,,,,,,,080419,,*2E
$GPGSA,A,1,,,,,,,,,,,,,,,*1E
$BDGSA,A,1,,,,,,,,,,,,,,,*0F
$GLGSA,A,1,,,,,,,,,,,,,,,*02
$GPGSV,2,1,05,06,00,000,41,13,00,000,40,17,00,000,46,19,00,000,43*71
$GPGSV,2,2,05,30,00,000,45*4E
$BDGSV,2,1,07,02,00,000,40,05,00,000,40,11,00,000,40,25,00,000,43*6F
$BDGSV,2,2,07,13,00,000,41,24,00,000,41,26,00,000,40*5B
$B3CN0,0,0,0,0,0,0,0,0,0,0,0,0,0,0*4C
---00000030--- Acq_st=3 0  2000-1-1 0:1:52 
[00]  05(G06)  f 39  7  0  -4633.2  2046006.0  0.1  2 0  655  725  388
[01]  12(G13)  f 40  7  0    396.7  2045999.4  0.0  2 0 1004 1525  609
[02]  16(G17)  f 46 11  0  -1972.1  2046002.5  0.0  2 0 2986 3802 1831
[03]  18(G19)  f 41  7  0  -3182.5  2046004.1  0.1  2 0 1158 1536  610
[04]  29(G30)  f 45  9  0   1024.4  2045998.6 -0.1  2 0 2714 3270 1061
[16]  38(B02) 1f 38 24  0  -1111.3  4092002.8  0.6  2 0  870 1383  812
[17]  41(B05) 1f 40 23  0  -1118.6  4092002.8 -0.1  2 0 1073 1115  616
[18]  47(B11) 1f 41 12  0  -3229.6  4092008.3  0.0  2 0 1280 1514  599
[19]  61(B25) 1f 43  7  0  -3994.4  4092010.3 -0.0  2 0 1718 2104 1127
[20]  49(B13) 1f 41  7  0  -1474.3  4092003.7  0.0  2 0 1262 1265  280
[21]  60(B24) 1f 41  7  0  -1866.5  4092004.8  0.0  2 0 1039 1361  872
[24]  62(B26) 1f 39  7  0   1075.6  4091997.0  0.1  2 0  898 1373  542
[32]  77(N-4)  f 41  7  0  -1514.3  1022000.9 -0.2  2 0   649 1066  370
[33]  81(N00)  f 33  7  0  -4314.9  1022002.7 -0.0  2 0   333  571  258
[34]  84(N03)  f 42 13  0  -3819.1  1022002.4 -0.0  2 0   325  983  445
[48]  38(B02)  1 17 14  1   -941.1 20460021.5 -0.0  1 0  551  187  226
[50]  47(B11)  1  7  7  0  -2695.8 20460051.2  0.1  1 0  415  459  208
[52]  49(B13)  1  7 12  0  -2312.5 20460021.7 -0.0  1 0 1086  359  660
[53]  60(B24)  1  7  7  0  -1407.3 20460031.1  0.0  1 0  182  279  447
[56]  62(B26)  1 11  7  0   1066.8 20459985.1  0.1  1 0  389  146  233
$GNGGA,095121.663,,,,,0,00,,,M,,,,0000*26
$GNRMC,095121.663,A,,,,,,,080419,,*2F
$GPGSA,A,1,,,,,,,,,,,,,,,*1E
$BDGSA,A,1,,,,,,,,,,,,,,,*0F
$GLGSA,A,1,,,,,,,,,,,,,,,*02
$GPGSV,2,1,05,06,00,000,39,13,00,000,40,17,00,000,46,19,00,000,41*7C
$GPGSV,2,2,05,30,00,000,45*4E
$BDGSV,2,1,07,02,00,000,38,05,00,000,41,11,00,000,41,25,00,000,43*60
$BDGSV,2,2,07,13,00,000,41,24,00,000,41,26,00,000,39*55
$B3CN0,0,0,0,0,0,0,0,0,0,0,0,0,0,0*4C
---00000031--- Acq_st=3 0  2000-1-1 0:1:53 
[00]  05(G06)  f 39  7  0  -4632.2  2046005.9  0.0  2 0 1017 1165  652
[01]  12(G13)  f 40  7  0    396.0  2045999.4 -0.2  2 0  530 1244  800
[02]  16(G17)  f 45  7  0  -1972.8  2046002.5 -0.0  2 0 2752 4245 1746
[03]  18(G19)  f 40  7  0  -3182.9  2046004.1  0.0  2 0 1345 1610  860
[04]  29(G30)  f 45  9  0   1024.7  2045998.6  0.0  2 0 2310 3622 1809
[16]  38(B02) 1f 40 26  0  -1115.2  4092002.7  0.7  2 0 1117 1066  326
[17]  41(B05) 1f 40 28  0  -1120.8  4092002.8  0.2  2 0  916 1027  279
[18]  47(B11) 1f 41 11  0  -3231.4  4092008.3 -0.0  2 0 1478 1312  596
[19]  61(B25) 1f 43  7  0  -3994.3  4092010.3  0.0  2 0 1314 1924  935
[20]  49(B13) 1f 41  7  0  -1482.5  4092003.7  0.0  2 0 1455 1306  444
[21]  60(B24) 1f 41  7  0  -1863.6  4092004.8  0.1  2 0  700 1154  798
[24]  62(B26) 1f 40  7  0   1071.3  4091997.0  0.0  2 0  971 1308  875
[32]  77(N-4)  f 41  7  0  -1517.1  1022000.9 -0.4  2 0   387 1274  840
[33]  81(N00)  f 34 15  0  -4318.6  1022002.6 -0.0  2 0   285  453  433
[34]  84(N03)  f 42 19  0  -3820.9  1022002.4 -0.0  2 0   735 1141  611
[48]  38(B02)  1 10 22  0  -1106.1 20460020.3 -0.1  1 0  266  214  198
[49]  41(B05)  1 23 23  0   -563.1 20460021.9  0.2  1 0  420  171  311
[50]  47(B11)  1  7  9  0  -3104.8 20460052.1  0.0  1 0  494  595   55
[51]  61(B25)  1  7  7  0  -3191.2 20460064.4  0.1  1 0  439  283  648
[52]  49(B13)  1  7 10  0  -2278.5 20460022.5  0.1  1 0  790  456  539
[53]  60(B24)  1  7  8  0   -828.4 20460030.6  0.1  1 0  206  625  498
[56]  62(B26)  1  7  7  0   1092.5 20459984.3  0.1  1 0  465  165   79
$GNGGA,095122.663,,,,,0,00,,,M,,,,0000*25
$GNRMC,095122.663,A,,,,,,,080419,,*2C
$GPGSA,A,1,,,,,,,,,,,,,,,*1E
$BDGSA,A,1,,,,,,,,,,,,,,,*0F
$GLGSA,A,1,,,,,,,,,,,,,,,*02
$GPGSV,2,1,05,06,00,000,39,13,00,000,40,17,00,000,45,19,00,000,40*7E
$GPGSV,2,2,05,30,00,000,45*4E
$BDGSV,2,1,07,02,00,000,40,05,00,000,40,11,00,000,41,25,00,000,43*6E
$BDGSV,2,2,07,13,00,000,41,24,00,000,41,26,00,000,40*5B
$B3CN0,0,0,0,0,0,0,0,0,0,0,0,0,0,0*4C
---00000032--- Acq_st=3 0  2000-1-1 0:1:54 
[00]  05(G06)  f 39  7  0  -4624.0  2046006.0 -0.1  2 0 1117 1454  555
[01]  12(G13)  f 40  7  0    400.9  2045999.4  0.2  2 0  947 1402  961
[02]  16(G17)  f 45  7  0  -1968.7  2046002.5 -0.0  2 0 3102 4267 1783
[03]  18(G19)  f 39  7  0  -3176.9  2046004.2 -0.2  2 0  504  951  591
[04]  29(G30)  f 45 15  0   1027.0  2045998.6 -0.0  2 0 2536 3724 1658
[16]  38(B02) 1f 39 24  0  -1114.2  4092002.8 -0.2  2 0  592  874  403
[17]  41(B05) 1f 40 10  0  -1118.9  4092002.8  0.6  2 0  956 1007  464
[18]  47(B11) 1f 41  8  0  -3227.1  4092008.3 -0.1  2 0 1001 1842  808
[19]  61(B25) 1f 42  7  0  -3992.1  4092010.4  0.0  2 0 1611 1861  881
[20]  49(B13) 1f 41  7  0  -1481.8  4092003.7  0.0  2 0  941 1676 1170
[21]  60(B24) 1f 41  7  0  -1863.0  4092004.8 -0.0  2 0 1449 1889  655
[22]  48(B12)  1  7  7  0  -1000.0  4092003.8  0.0  1 0  340  430  341
[24]  62(B26) 1f 40  9  0   1076.0  4091997.0  0.1  2 0  643  619  139
[32]  77(N-4)  f 41  7  0  -1512.9  1022000.9  0.0  2 0   425  887  371
[33]  81(N00)  f 33  7  0  -4319.4  1022002.7  0.1  2 0   650  540  100
[34]  84(N03)  f 42 14  0  -3818.3  1022002.4 -0.2  2 0   688 1140  613
[48]  38(B02)  1 16 18  0  -1089.9 20460020.3  0.0  1 0  465  904  549
[49]  41(B05)  1 20 14  1  -1370.0 20460019.7 -0.0  1 0  439  528 1004
[51]  61(B25)  1  7  7  0  -2651.0 20460063.2  0.1  1 0  734  812  250
$GNGGA,095123.663,,,,,0,00,,,M,,,,0000*24
$GNRMC,095123.663,A,,,,,,,080419,,*2D
$GPGSA,A,1,,,,,,,,,,,,,,,*1E
$BDGSA,A,1,,,,,,,,,,,,,,,*0F
$GLGSA,A,1,,,,,,,,,,,,,,,*02
$GPGSV,2,1,05,06,00,000,39,13,00,000,40,17,00,000,45,19,00,000,39*70
$GPGSV,2,2,05,30,00,000,45*4E
$BDGSV,2,1,07,02,00,000,39,05,00,000,40,11,00,000,41,25,00,000,42*61
$BDGSV,2,2,07,13,00,000,41,24,00,000,41,26,00,000,40*5B
$B3CN0,0,0,0,0,0,0,0,0,0,0,0,0,0,0*4C
---00000033--- Acq_st=3 0  2000-1-1 0:1:55 
[00]  05(G06)  f 40  7  0  -4634.8  2046006.0 -0.1  2 0  741 1226  755
[01]  12(G13)  f 38  7  0    391.9  2045999.4 -0.1  2 0  613  928  733
[02]  16(G17)  f 45  8  0  -1972.6  2046002.5  0.0  2 0 2559 3907 2008
[03]  18(G19)  f 37  7  0  -3183.1  2046004.3  0.3  2 0   62  907  442
[04]  29(G30)  f 45 13  0   1022.7  2045998.6 -0.0  2 0 2115 3030 1682
[16]  38(B02) 1f 39 26  0  -1110.1  4092002.7  0.2  2 0  843  787  162
[17]  41(B05) 1f 40 26  0  -1129.4  4092002.8 -0.8  2 0 1257  899  420
[18]  47(B11) 1f 41  7  0  -3228.1  4092008.3  0.1  2 0 1439 1282  789
[19]  61(B25) 1f 43  7  0  -3993.9  4092010.3 -0.1  2 0 1752 2251  633
[20]  49(B13) 1f 41  7  0  -1478.7  4092003.8 -0.0  2 0 1368 1747  619
[21]  60(B24) 1f 41  7  0  -1867.6  4092004.8  0.0  2 0 1556 1448   96
[22]  48(B12)  1  7  7  0  -1302.3  4092002.8  0.1  1 0   90  261  325
[24]  62(B26) 1f 39  7  0   1074.0  4091997.1  0.0  2 0 1011  868  233
[32]  77(N-4)  f 40  7  0  -1519.3  1022000.9  0.1  2 0   372  935  483
[33]  81(N00)  f 32 13  0  -4319.3  1022002.8  0.0  5 0   225  468  227
[34]  84(N03)  f 42 19  0  -3820.6  1022002.4  0.1  2 0   916 1619  772
[48]  38(B02)  f 18 36  1  -1338.6 20460021.3 -0.1  2 0  136  395   71
[49]  41(B05)  1 24 23  1  -1531.4 20460015.3 -0.2  1 0  456  614  574
[50]  47(B11)  1  7  7  0  -2915.0 20460053.0 -0.0  1 0  452  166  353
[51]  61(B25)  1  7  7  0  -2802.8 20460064.9  0.1  1 0  630  587   60
[52]  49(B13)  1  7  7  0  -1316.1 20460021.7  0.1  1 0  224  368  125
[53]  60(B24)  1  7  9  0  -1584.9 20460030.9  0.0  1 0  511  378  320
[56]  62(B26)  1  7  7  0    663.4 20459984.0 -0.1  1 0  280  466  552
$GNGGA,095124.663,,,,,0,00,,,M,,,,0000*23
$GNRMC,095124.663,A,,,,,,,080419,,*2A
$GPGSA,A,1,,,,,,,,,,,,,,,*1E
$BDGSA,A,1,,,,,,,,,,,,,,,*0F
$GLGSA,A,1,,,,,,,,,,,,,,,*02
$GPGSV,2,1,05,06,00,000,40,13,00,000,38,17,00,000,45,19,00,000,37*7F
$GPGSV,2,2,05,30,00,000,45*4E
$BDGSV,2,1,07,02,00,000,39,05,00,000,40,11,00,000,41,25,00,000,43*60
$BDGSV,2,2,07,13,00,000,41,24,00,000,41,26,00,000,39*55
$B3CN0,0,18,0,0,0,0,0,0,0,0,0,0,0,0*75
---00000034--- Acq_st=3 0  2000-1-1 0:1:56 
[00]  05(G06)  f 41  7  0  -4630.8  2046005.9 -0.0  2 0  823 1241  718
[01]  12(G13)  f 39  7  0    395.8  2045999.4  0.2  2 0  876 1645  900
[02]  16(G17)  f 45  7  0  -1970.7  2046002.5 -0.0  2 0 2662 3911 2339
[03]  18(G19)  f 36  7  0  -3184.9  2046004.4  0.0  2 0  223  830  590
[04]  29(G30)  f 45 13  0   1026.0  2045998.6 -0.0  2 0 1821 3302 1378
[16]  38(B02) 1f 39 24  0  -1110.3  4092002.8 -0.8  2 0 1083 1067  435
[17]  41(B05) 1f 40 18  0  -1122.9  4092002.8  0.2  2 0  954 1327  481
[18]  47(B11) 1f 41 13  0  -3230.7  4092008.4 -0.0  2 0 1390 1346  450
[19]  61(B25) 1f 43  7  0  -3995.4  4092010.4 -0.0  2 0 1966 2336 1129
[20]  49(B13) 1f 40  7  0  -1479.6  4092003.7 -0.1  2 0  902 1633  942
[21]  60(B24) 1f 41  7  0  -1865.0  4092004.8  0.1  2 0 1416 1892  897
[22]  48(B12)  1  7  7  0  -1289.3  4092001.6  0.1  1 0  535  491  539
[24]  62(B26) 1f 39  7  0   1074.6  4091997.1 -0.1  2 0  839  864  154
[32]  77(N-4)  f 40  7  0  -1512.7  1022000.9  0.4  2 0   528  874  540
[33]  81(N00)  f 34  8  0  -4316.1  1022002.7 -0.0  5 0   449  716  428
[34]  84(N03)  f 42 13  0  -3820.2  1022002.4 -0.2  2 0   852 1406  717
[48]  38(B02)  f 10 13  1  -1835.9 20460029.4  0.1  2 0  620  159  778
[49]  41(B05)  1 22 20  1  -1811.2 20460020.0  0.2  1 0  128  135  281
[50]  47(B11)  1  9  7  0  -2945.4 20460053.7 -0.1  1 0  525  581  477
[51]  61(B25)  1  7  7  0  -2929.1 20460064.0  0.1  1 0  615  516  226
[52]  49(B13)  1  7  8  0  -1992.3 20460023.1 -0.1  1 0  535  124  238
[53]  60(B24)  1  7  7  0  -2044.7 20460030.3 -0.1  1 0  169  178   39
[56]  62(B26)  1  7  9  0    696.8 20459982.9  0.0  1 0  593  477  168
$GNGGA,095125.663,,,,,0,00,,,M,,,,0000*22
$GNRMC,095125.663,A,,,,,,,080419,,*2B
$GPGSA,A,1,,,,,,,,,,,,,,,*1E
$BDGSA,A,1,,,,,,,,,,,,,,,*0F
$GLGSA,A,1,,,,,,,,,,,,,,,*02
$GPGSV,2,1,05,06,00,000,41,13,00,000,39,17,00,000,45,19,00,000,36*7E
$GPGSV,2,2,05,30,00,000,45*4E
$BDGSV,2,1,07,02,00,000,39,05,00,000,40,11,00,000,41,25,00,000,43*60
$BDGSV,2,2,07,13,00,000,40,24,00,000,41,26,00,000,39*54
$B3CN0,0,0,0,0,0,0,0,0,0,0,0,0,0,0*4C
---00000035--- Acq_st=3 0  2000-1-1 0:1:57 
[00]  05(G06)  f 41  7  0  -4632.4  2046005.9 -0.0  2 0  914 1461  741
[01]  12(G13)  f 39  7  0    393.3  2045999.4 -0.3  2 0  761 1312  795
[02]  16(G17)  f 45 11  0  -1971.1  2046002.6  0.0  2 0 1520 3023 1195
[03]  18(G19)  f 36  7  0  -3179.2  2046004.1 -0.3  2 0  806  509  191
[04]  29(G30)  f 45  8  0   1028.4  2045998.6 -0.0  2 0 1816 3346 1550
[16]  38(B02) 1f 41 26  0  -1117.1  4092002.9  0.3  2 0 1294 1064  546
[17]  41(B05) 1f 41 25  0  -1119.5  4092003.0  0.1  2 0  985 1538  904
[18]  47(B11) 1f 41  9  0  -3230.7  4092008.3  0.1  2 0 1098 1099  601
[19]  61(B25) 1f 43  7  0  -3992.1  4092010.3  0.0  2 0 1144 1824 1043
[20]  49(B13) 1f 41  7  0  -1481.2  4092003.8 -0.1  2 0  943 1285  384
[21]  60(B24) 1f 41  7  0  -1865.8  4092004.8 -0.1  2 0 1473 1509  563
[22]  48(B12)  1  7  7  0  -1318.0  4092001.5  0.0  1 0  346  320  322
[24]  62(B26) 1f 39 11  0   1077.7  4091997.0  0.1  2 0  960  888  368
[32]  77(N-4)  f 40  7  0  -1513.9  1022001.0 -0.3  2 0   782 1093  373
[33]  81(N00)  f 36 16  0  -4316.2  1022002.6 -0.1  2 0   576  850  289
[34]  84(N03)  f 42 19  0  -3818.2  1022002.4  0.0  2 0   563 1413  605
[48]  38(B02)  f 19 10  1  -2027.7 20460034.5 -0.0  2 0  566  231  649
[50]  47(B11)  1  7  7  0  -2795.7 20460054.0  0.1  1 0  695  548  263
[52]  49(B13)  1  7  7  0  -2342.3 20460022.6  0.1  1 0  424  221  664
[53]  60(B24)  1  7  7  0  -2136.0 20460032.6  0.1  1 0  165  631  863
[56]  62(B26)  1  7  7  0    936.5 20459982.3  0.1  1 0  248  606  438
$GNGGA,095126.663,,,,,0,00,,,M,,,,0000*21
$GNRMC,095126.663,A,,,,,,,080419,,*28
$GPGSA,A,1,,,,,,,,,,,,,,,*1E
$BDGSA,A,1,,,,,,,,,,,,,,,*0F
$GLGSA,A,1,,,,,,,,,,,,,,,*02
$GPGSV,2,1,05,06,00,000,41,13,00,000,39,17,00,000,45,19,00,000,36*7E
$GPGSV,2,2,05,30,00,000,45*4E
$BDGSV,2,1,07,02,00,000,41,05,00,000,41,11,00,000,41,25,00,000,43*6E
$BDGSV,2,2,07,13,00,000,41,24,00,000,41,26,00,000,39*55
$B3CN0,0,19,0,0,0,0,0,0,0,0,0,0,0,0*74
---00000036--- Acq_st=7 0  2000-1-1 0:1:58 
[00]  05(G06)  f 41  7  0  -4628.3  2046005.9 -0.1  2 0 1103 1655  908
[01]  12(G13)  f 40  7  0    393.8  2045999.5 -0.2  2 0  981 1475  610
[02]  16(G17)  f 44  7  0  -1972.4  2046002.5 -0.0  2 0 1739 3334 1848
[03]  18(G19)  f 36  7  0  -3179.8  2046004.0  0.4  2 0  563  586  347
[04]  29(G30)  f 45  7  0   1025.2  2045998.6  0.0  2 0 1806 2933 1130
[16]  38(B02) 1f 40 27  0  -1116.8  4092002.9 -0.3  2 0  735 1452  867
[17]  41(B05) 1f 40 22  0  -1118.1  4092002.9  0.1  2 0 1390 1279  511
[18]  47(B11) 1f 41  7  0  -3231.6  4092008.4 -0.0  2 0  998 1655  843
[19]  61(B25) 1f 43  7  0  -3993.9  4092010.4  0.1  2 0 1337 1560  671
[20]  49(B13) 1f 41 10  0  -1480.8  4092003.7 -0.1  2 0 1239 1304  839
[21]  60(B24) 1f 41  7  0  -1862.9  4092004.8  0.0  2 0 1144 1413  647
[22]  48(B12)  1  7  7  0  -1286.6  4092001.8  0.1  1 0  622  775  525
[24]  62(B26) 1f 39  7  0   1077.8  4091997.1  0.0  2 0  928  833  225
[32]  77(N-4)  f 41  7  0  -1512.6  1022000.9 -0.4  2 0   162  668  129
[33]  81(N00)  f 39 13  0  -4314.0  1022002.6 -0.5  2 0   655  856  492
[34]  84(N03)  f 42 13  0  -3818.5  1022002.4  0.0  2 0   942 1424  657
[48]  38(B02)  f 22 18  1  -2437.1 20460041.5  0.0  2 0  216  343  106
[49]  41(B05)  1 27 19  0  -1016.3 20460020.5 -0.1  1 0  187  378  665
[50]  47(B11)  1  7  7  0  -2819.7 20460053.3  0.0  1 0  129  389  550
[51]  61(B25)  1  7  7  0  -2859.9 20460065.2  0.1  1 0  493  321  193
[52]  49(B13)  1  7  7  0  -1541.9 20460022.2 -0.1  1 0  150  448  229
[53]  60(B24)  1  7  7  0  -2461.0 20460030.7  0.1  1 0  212  257  179
[56]  62(B26)  1  7  7  0    667.2 20459983.2  0.1  1 0  256  753  573
$GNGGA,095127.663,,,,,0,00,,,M,,,,0000*20
$GNRMC,095127.663,A,,,,,,,080419,,*29
$GPGSA,A,1,,,,,,,,,,,,,,,*1E
$BDGSA,A,1,,,,,,,,,,,,,,,*0F
$GLGSA,A,1,,,,,,,,,,,,,,,*02
$GPGSV,2,1,05,06,00,000,41,13,00,000,40,17,00,000,44,19,00,000,36*71
$GPGSV,2,2,05,30,00,000,45*4E
$BDGSV,2,1,07,02,00,000,40,05,00,000,40,11,00,000,41,25,00,000,43*6E
$BDGSV,2,2,07,13,00,000,41,24,00,000,41,26,00,000,39*55
$B3CN0,0,22,0,0,0,0,0,0,0,0,0,0,0,0*7C
---00000037--- Acq_st=7 0  2000-1-1 0:1:59 
[00]  05(G06)  f 42  7  0  -4630.4  2046005.9 -0.0  2 0 1069 1843  837
[01]  12(G13)  f 39  7  0    402.1  2045999.4  0.1  2 0 1739 1717  569
[02]  16(G17)  f 45 11  0  -1970.3  2046002.5  0.0  2 0 2764 3826 1889
