i=1
Rf R0 Config = ff777073
Rf R1 Config = 00dffbfe
Rf R52 Config = 00dfeec0
i=2
Rf R0 Config = 007772f3
Rf R1 Config = 00dffbfe
Rf R52 Config = 00daee70
i=3
Rf R0 Config = 007772f3
Rf R1 Config = 00dfbbfe
Rf R52 Config = 00de2e70
i=4
Rf R0 Config = 00777273
Rf R1 Config = 00df3bfe
Rf R52 Config = 00deee60
SD initialized success
Create debug.log Failed! 3
Start Channel by LuYu
$GNGGA,000000.000,,,,,0,00,,,M,,,,0000*2B
$GNRMC,000000.000,A,,,,,,,060180,,*29
$GPGSA,A,1,,,,,,,,,,,,,,,*1E
$BDGSA,A,1,,,,,,,,,,,,,,,*0F
$GLGSA,A,1,,,,,,,,,,,,,,,*02
$B3CN0,0,0,0,0,0,0,0,0,0,0,0,0,0,0*4C
---00000001--- Acq_st=3 0  2000-1-1 0:1:21 
[00]  03(G04)  1 16  7  0    932.0  2045999.1  0.0  1 0 1246 1270  171
[01]  05(G06)  1  7  7  0  -4833.3  2046006.7  0.0  1 0  191  309  677
$GNGGA,000000.000,,,,,0,00,,,M,,,,0000*2B
$GNRMC,000000.000,A,,,,,,,060180,,*29
$GPGSA,A,1,,,,,,,,,,,,,,,*1E
$BDGSA,A,1,,,,,,,,,,,,,,,*0F
$GLGSA,A,1,,,,,,,,,,,,,,,*02
$B3CN0,0,0,0,0,0,0,0,0,0,0,0,0,0,0*4C
---00000002--- Acq_st=3 0  2000-1-1 0:1:22 
[00]  03(G04)  7  7  7  0    936.3  2045998.7  1.0 10 0  895 1638  862
[01]  05(G06)  1 12 11  0  -4836.8  2046008.9 -0.2  1 0  264  967 1498
[02]  12(G13)  1 26  7  0   -289.7  2046000.8  0.4  1 0 1946 2834 1221
[03]  16(G17)  1 19  7  0  -2323.0  2046005.7 -0.1  1 0  557 1956 2557
[04]  18(G19)  1  7  7  0  -3539.2  2046007.6 -0.0  1 0  203 1729 3680
$GNGGA,000000.000,,,,,0,00,,,M,,,,0000*2B
$GNRMC,000000.000,A,,,,,,,060180,,*29
$GPGSA,A,1,,,,,,,,,,,,,,,*1E
$BDGSA,A,1,,,,,,,,,,,,,,,*0F
$GLGSA,A,1,,,,,,,,,,,,,,,*02
$B3CN0,0,0,0,0,0,0,0,0,0,0,0,0,0,0*4C
---00000003--- Acq_st=3 0  2000-1-1 0:1:23 
[00]  03(G04)  7 40  8  0    938.7  2045998.7 -0.0  2 0  604 1360  475
[01]  05(G06)  7 34  7  0  -4801.6  2046006.4 -0.2  5 0  187  722  969
[02]  12(G13)  7 26  7  0   -284.9  2046000.3  0.6 10 0 2343 3393 1335
[03]  16(G17)  7 14  7  0  -2321.4  2046002.9  0.9 10 0 1836 2051 1366
[04]  18(G19)  1 34  7  0  -3539.4  2046004.5  1.0  1 0 2798 3196 1298
[05]  27(G28)  1 20  7  0  -2840.2  2046006.5  0.2  1 0  610 1594 2008
[06]  29(G30)  1 23  7  0    -68.8  2046002.9  0.2  1 0  178 1403 1538
$GNGGA,000000.000,,,,,0,00,,,M,,,,0000*2B
$GNRMC,000000.000,A,,,,,,,060180,,*29
$GPGSA,A,1,,,,,,,,,,,,,,,*1E
$BDGSA,A,1,,,,,,,,,,,,,,,*0F
$GLGSA,A,1,,,,,,,,,,,,,,,*02
$GPGSV,1,1,03,04,00,000,40,06,00,000,34,13,00,000,26*4D
$B3CN0,0,0,0,0,0,0,0,0,0,0,0,0,0,0*4C
---00000004--- Acq_st=3 0  2000-1-1 0:1:24 
[00]  03(G04)  7 40  7  0    936.4  2045998.7  0.1  2 0  473 1341  727
[01]  05(G06)  7 37  7  0  -4806.5  2046006.4 -0.1  2 0  387 1195 1086
[02]  12(G13)  7 45  7  0   -287.1  2046000.3  0.0  2 0 2589 3127 1159
[03]  16(G17)  7 44  7  0  -2321.4  2046002.9 -0.0  2 0 2036 2186 1025
[04]  18(G19)  7 40  7  0  -3537.9  2046004.5 -0.0  2 0 2798 2954 1230
[05]  27(G28)  7 24  7  0  -2837.3  2046003.6  0.6 10 0 1664 2137 1071
[06]  29(G30)  7 20  7  0    -72.3  2045999.9  0.8 10 0 2136 2290  779
[16]  41(B05)  1 14 14  0  -1350.4  4092003.1  0.0  1 0  163  146  507
$GNGGA,000000.000,,,,,0,00,,,M,,,,0000*2B
$GNRMC,000000.000,A,,,,,,,060180,,*29
$GPGSA,A,1,,,,,,,,,,,,,,,*1E
$BDGSA,A,1,,,,,,,,,,,,,,,*0F
$GLGSA,A,1,,,,,,,,,,,,,,,*02
$GPGSV,2,1,07,04,00,000,40,06,00,000,37,13,00,000,45,17,00,000,44*7A
$GPGSV,2,2,07,19,00,000,40,28,00,000,24,30,00,000,20*4F
$B3CN0,0,0,0,0,0,0,0,0,0,0,0,0,0,0*4C
---00000005--- Acq_st=3 0  2000-1-1 0:1:25 
[00]  03(G04)  7 41  7  0    935.7  2045998.7  0.1  2 0 1043 1569 1131
[01]  05(G06)  7 37  7  0  -4813.7  2046006.3  0.1  2 0  563  549  334
[02]  12(G13)  7 44 11  0   -281.2  2046000.3  0.0  2 0 1527 2517 1673
[03]  16(G17)  7 43  7  0  -2321.1  2046002.9  0.0  2 0 2096 2561 1197
[04]  18(G19)  7 45 11  0  -3535.5  2046004.5  0.0  2 0 2575 3587 1663
[05]  27(G28)  7 41  9  0  -2836.0  2046003.6 -0.1  2 0 1216 1223  634
[06]  29(G30)  7 42  7  0    -69.9  2045999.9 -0.1  2 0 1241 1608  646
[16]  41(B05)  7 41 24  0  -1113.4  4092003.0 -0.1  2 0  312 1309 1317
[17]  48(B12)  1  7  7  0  -3287.8  4092010.1  0.1  1 0  628 1315  901
[18]  49(B13)  1  7  7  0  -1795.8  4092006.5  0.1  1 0  686  337 1192
$GNGGA,000000.000,,,,,0,00,,,M,,,,0000*2B
$GNRMC,000000.000,A,,,,,,,060180,,*29
$GPGSA,A,1,,,,,,,,,,,,,,,*1E
$BDGSA,A,1,,,,,,,,,,,,,,,*0F
$GLGSA,A,1,,,,,,,,,,,,,,,*02
$GPGSV,2,1,07,04,00,000,41,06,00,000,37,13,00,000,44,17,00,000,43*7D
$GPGSV,2,2,07,19,00,000,45,28,00,000,41,30,00,000,42*4D
$BDGSV,1,1,01,05,00,000,41*59
$B3CN0,0,0,0,0,0,0,0,0,0,0,0,0,0,0*4C
---00000006--- Acq_st=3 0  2000-1-1 0:1:26 
[00]  03(G04)  7 42  7  0    934.9  2045998.7 -0.0  2 0  904 1626  917
[01]  05(G06)  7 35  7  0  -4801.4  2046006.2 -0.0  2 0  225  478  482
[02]  12(G13)  7 43  7  0   -283.1  2046000.3  0.0  2 0 1525 2640 1255
[03]  16(G17)  7 43  7  0  -2318.5  2046002.9  0.0  2 0 1748 2634 1250
[04]  18(G19)  7 45  7  0  -3537.0  2046004.5  0.0  2 0 2451 3773 1817
[05]  27(G28)  7 41  7  0  -2837.1  2046003.6  0.1  2 0 1062 1438  664
[06]  29(G30)  7 43  7  0    -69.8  2046000.0  0.0  2 0 2289 2355  471
[16]  41(B05)  f 42 27  0  -1113.7  4092003.0  0.0  2 0  812 1612 1313
[17]  48(B12)  7 19  7  0  -3292.3  4092008.5  0.1 10 0  660 1422  727
[18]  49(B13)  7 14  7  0  -1755.9  4092004.5  0.4 10 0  758  837  161
$GNGGA,000000.000,,,,,0,00,,,M,,,,0000*2B
$GNRMC,000000.000,A,,,,,,,060180,,*29
$GPGSA,A,1,,,,,,,,,,,,,,,*1E
$BDGSA,A,1,,,,,,,,,,,,,,,*0F
$GLGSA,A,1,,,,,,,,,,,,,,,*02
$GPGSV,2,1,07,04,00,000,42,06,00,000,35,13,00,000,43,17,00,000,43*7B
$GPGSV,2,2,07,19,00,000,45,28,00,000,41,30,00,000,43*4C
$BDGSV,1,1,02,05,00,000,42,12,00,000,19*62
$B3CN0,0,0,0,0,0,0,0,0,0,0,0,0,0,0*4C
---00000007--- Acq_st=3 0  2000-1-1 0:1:27 
[00]  03(G04)  7 41  7  0    939.3  2045998.7 -0.1  2 0 1190 1834 1065
[01]  05(G06)  7 31  7  0  -4804.3  2046006.2  0.0  5 0  265  569  544
[02]  12(G13)  7 44  7  0   -280.8  2046000.3  0.0  2 0 1741 2509  818
[03]  16(G17)  7 44  7  0  -2319.4  2046002.9 -0.1  2 0 1851 2672 1342
[04]  18(G19)  7 45  7  0  -3533.9  2046004.5  0.0  2 0 2683 3517 1451
[05]  27(G28)  7 41  7  0  -2838.0  2046003.6 -0.0  2 0  950 1019  462
[06]  29(G30)  7 43  7  0    -66.4  2046000.0 -0.0  2 0 1181 2033  891
[16]  41(B05) 1f 42 21  0  -1116.0  4092003.0  0.1  2 0  948 1966 1080
[17]  48(B12)  7 41  7  0  -3288.9  4092008.5 -0.0  2 0 1254 1584  707
[18]  49(B13)  7 40  7  0  -1754.7  4092004.5 -0.0  2 0 1101 1462  733
[19]  62(B26)  1  7  7  0  -3210.0  4092007.2 -0.0  1 0  319  418  671
[48]  41(B05)  1 25 25  0   -948.4 20460019.5 -0.2  1 0  322  336  408
$GNGGA,000000.000,,,,,0,00,,,M,,,,0000*2B
$GNRMC,000000.000,A,,,,,,,060180,,*29
$GPGSA,A,1,,,,,,,,,,,,,,,*1E
$BDGSA,A,1,,,,,,,,,,,,,,,*0F
$GLGSA,A,1,,,,,,,,,,,,,,,*02
$GPGSV,2,1,07,04,00,000,41,06,00,000,31,13,00,000,44,17,00,000,44*7C
$GPGSV,2,2,07,19,00,000,45,28,00,000,41,30,00,000,43*4C
$BDGSV,1,1,03,05,00,000,42,12,00,000,41,13,00,000,40*58
$B3CN0,0,0,0,0,0,0,0,0,0,0,0,0,0,0*4C
---00000008--- Acq_st=3 0  2000-1-1 0:1:28 
[00]  03(G04)  7 40  7  0    934.7  2045998.7 -0.0  2 0 1135 1751  702
[01]  05(G06)  7 30  7  0  -4805.7  2046006.3 -0.1  5 0   85  124  572
[02]  12(G13)  7 44  7  0   -280.3  2046000.3 -0.0  2 0 1799 2417  763
[03]  16(G17)  7 43  7  0  -2318.8  2046002.9 -0.1  2 0 1807 2338 1104
[04]  18(G19)  7 45  7  0  -3536.0  2046004.5  0.0  2 0 2089 3447 1410
[05]  27(G28)  7 42  7  0  -2834.6  2046003.6  0.0  2 0  855 1470  803
[06]  29(G30)  7 43  7  0    -66.4  2046000.0  0.0  2 0 1519 2018  852
[16]  41(B05) 1f 43 25  0  -1115.3  4092002.9  0.1  2 0 1063 1780  955
[17]  48(B12)  7 40  7  0  -3286.2  4092008.5 -0.1  2 0 1079 1427  670
[18]  49(B13)  7 40  9  0  -1753.4  4092004.5  0.1  2 0  776 1003  553
[19]  62(B26)  1  7  7  0  -3136.1  4092007.4 -0.0  1 0  304  466  250
[48]  41(B05)  1 25 26  1  -1181.1 20460018.5 -0.2  1 0  517  638  647
$GNGGA,091508.379,,,,,0,00,,,M,,,,0000*23
$GNRMC,091508.379,A,,,,,,,080180,,*2F
$GPGSA,A,1,,,,,,,,,,,,,,,*1E
$BDGSA,A,1,,,,,,,,,,,,,,,*0F
$GLGSA,A,1,,,,,,,,,,,,,,,*02
$GPGSV,2,1,07,04,00,000,40,06,00,000,30,13,00,000,44,17,00,000,43*7B
$GPGSV,2,2,07,19,00,000,45,28,00,000,42,30,00,000,43*4F
$BDGSV,1,1,03,05,00,000,43,12,00,000,40,13,00,000,40*58
$B3CN0,0,0,0,0,0,0,0,0,0,0,0,0,0,0*4C
---00000009--- Acq_st=7 0  2000-1-1 0:1:29 
[00]  03(G04)  f 40  7  0    929.9  2045998.7 -0.1  2 0 1014 1608  491
[01]  05(G06)  f 30  7  0  -4807.4  2046006.1  0.1  5 0  377  588  326
[02]  12(G13)  f 43  7  0   -283.6  2046000.3  0.1  2 0 1892 2449 1086
[03]  16(G17)  f 44  7  0  -2322.3  2046002.9  0.0  2 0 2235 3198 1418
[04]  18(G19)  f 44  7  0  -3538.3  2046004.5  0.0  2 0 2342 3226 1618
[05]  27(G28)  f 41  7  0  -2838.0  2046003.6  0.0  2 0 1423 2229 1179
[06]  29(G30)  f 43  7  0    -70.5  2046000.0  0.0  2 0  936 1967 1144
[16]  41(B05) 1f 43 26  0  -1117.9  4092002.9 -0.0  2 0 1160 1752  638
[17]  48(B12)  7 40  7  0  -3297.3  4092008.5  0.0  2 0 1132 1494  457
[18]  49(B13)  7 41  7  0  -1755.5  4092004.5 -0.0  2 0 1377 1664  965
[19]  62(B26)  1  7  7  0  -2916.9  4092007.6 -0.0  1 0  209  380  165
[32]  82(N01)  1 16  7  0  -4069.1  1022003.4  0.0  1 0   185  485  403
[33]  84(N03)  1  7  7  0  -2287.6  1022003.1  0.1  1 0   200  197   29
[48]  41(B05)  1 25 24  1  -1400.2 20460024.3  0.1  1 0  255  218  296
$GNGGA,091509.379,,,,,0,00,,,M,,,,0000*22
$GNRMC,091509.379,A,,,,,,,080180,,*2E
$GPGSA,A,1,,,,,,,,,,,,,,,*1E
$BDGSA,A,1,,,,,,,,,,,,,,,*0F
$GLGSA,A,1,,,,,,,,,,,,,,,*02
$GPGSV,2,1,07,04,00,000,40,06,00,000,30,13,00,000,43,17,00,000,44*7B
$GPGSV,2,2,07,19,00,000,44,28,00,000,41,30,00,000,43*4D
$BDGSV,1,1,03,05,00,000,45,12,00,000,40,13,00,000,41*5F
$B3CN0,0,0,0,0,0,0,0,0,0,0,0,0,0,0*4C
---00000010--- Acq_st=7 0  2000-1-1 0:1:30 
[00]  03(G04)  f 41  7  0    933.6  2045998.7  0.0  2 0  837 2015  649
[01]  05(G06)  f 31  7  0  -4805.3  2046006.3 -0.1  5 0  314  356  393
[02]  12(G13)  f 44  7  0   -283.5  2046000.3 -0.0  2 0 1913 3050 1502
[03]  16(G17)  f 44  7  0  -2322.2  2046002.9 -0.0  2 0 2515 2982 1258
[04]  18(G19)  f 44  7  0  -3536.4  2046004.6 -0.0  2 0 1963 2905 1321
[05]  27(G28)  f 42  7  0  -2836.4  2046003.6  0.1  2 0 1685 2405  906
[06]  29(G30)  f 43  7  0    -65.6  2046000.0 -0.0  2 0 1297 2708 1226
[16]  41(B05) 1f 41 13  0  -1114.9  4092002.8  0.0  2 0 1318 1699  737
[17]  48(B12)  7 40  7  0  -3288.9  4092008.5  0.1  2 0 1081 1766  984
[18]  49(B13)  7 41  7  0  -1753.8  4092004.5  0.0  2 0 1071 1230  270
[19]  62(B26)  1  7  7  0  -3486.7  4092007.3 -0.1  1 0  480  547  375
[32]  82(N01)  1 15 16  0  -4258.5  1022004.3  0.0  1 0   366   73   73
[33]  84(N03)  1 26  7  0  -2381.1  1022002.0  0.7  1 0   508  728  293
[48]  41(B05)  1 23 26  1  -1480.8 20460023.3 -0.2  1 0  657  463  651
$GNGGA,091510.379,,,,,0,00,,,M,,,,0000*2A
$GNRMC,091510.379,A,,,,,,,080180,,*26
$GPGSA,A,1,,,,,,,,,,,,,,,*1E
$BDGSA,A,1,,,,,,,,,,,,,,,*0F
$GLGSA,A,1,,,,,,,,,,,,,,,*02
$GPGSV,2,1,07,04,00,000,41,06,00,000,31,13,00,000,44,17,00,000,44*7C
$GPGSV,2,2,07,19,00,000,44,28,00,000,42,30,00,000,43*4E
$BDGSV,1,1,03,05,00,000,42,12,00,000,40,13,00,000,41*58
$B3CN0,0,0,0,0,0,0,0,0,0,0,0,0,0,0*4C
---00000011--- Acq_st=3 0  2000-1-1 0:1:31 
[00]  03(G04)  f 42  7  0    935.3  2045998.7 -0.0  2 0 1154 2094 1176
[01]  05(G06)  f 31 12  0  -4806.5  2046006.2 -0.1  5 0  239  443  247
[02]  12(G13)  f 44  7  0   -280.3  2046000.3  0.0  2 0 2153 2964  984
[03]  16(G17)  f 44  7  0  -2319.8  2046002.9  0.0  2 0 2566 3287 1693
[04]  18(G19)  f 44  7  0  -3535.3  2046004.5  0.0  2 0 1758 2530 1507
[05]  27(G28)  f 42  7  0  -2834.6  2046003.6  0.0  2 0 1099 1671  923
[06]  29(G30)  f 42  7  0    -65.5  2046000.1 -0.0  2 0 1207 2432 1375
[16]  41(B05) 1f 41 19  0  -1109.2  4092002.7 -0.2  2 0 1806 1838  397
[17]  48(B12) 1f 40  7  0  -3288.9  4092008.5 -0.2  2 0  734 1353  430
[18]  49(B13) 1f 40  7  0  -1752.7  4092004.5 -0.1  2 0  943 1267  812
[32]  82(N01)  1 14 17  0  -4462.3  1022003.7  0.0  1 0   136  273  452
[33]  84(N03)  1 29  7  0  -2396.5  1022001.4  0.7  1 0   419  744  495
$GNGGA,091511.379,,,,,0,00,,,M,,,,0000*2B
$GNRMC,091511.379,A,,,,,,,080180,,*27
$GPGSA,A,1,,,,,,,,,,,,,,,*1E
$BDGSA,A,1,,,,,,,,,,,,,,,*0F
$GLGSA,A,1,,,,,,,,,,,,,,,*02
$GPGSV,2,1,07,04,00,000,42,06,00,000,31,13,00,000,44,17,00,000,44*7F
$GPGSV,2,2,07,19,00,000,44,28,00,000,42,30,00,000,42*4F
$BDGSV,1,1,03,05,00,000,41,12,00,000,40,13,00,000,40*5A
$B3CN0,0,0,0,0,0,0,0,0,0,0,0,0,0,0*4C
---00000012--- Acq_st=3 0  2000-1-1 0:1:32 
[00]  03(G04)  f 42  7  0    932.4  2045998.7  0.1  2 0 1362 1555  515
[01]  05(G06)  f 32  7  0  -4806.5  2046006.1 -0.1  5 0  658  605  601
[02]  12(G13)  f 44  7  0   -280.1  2046000.3  0.0  2 0 1698 2785 1102
[03]  16(G17)  f 45  7  0  -2319.4  2046002.9  0.1  2 0 3139 3447 1539
[04]  18(G19)  f 44  7  0  -3534.9  2046004.5  0.0  2 0 1554 2168  859
[05]  27(G28)  f 42  8  0  -2837.5  2046003.6  0.1  2 0 1114 1775  578
[06]  29(G30)  f 43  7  0    -67.0  2046000.0 -0.1  2 0 1177 1986  843
[16]  41(B05) 1f 42 23  0  -1112.8  4092002.9  0.1  2 0  539 1520  504
[17]  48(B12) 1f 40  7  0  -3289.7  4092008.5  0.1  2 0  892  882  437
[18]  49(B13) 1f 40  9  0  -1753.7  4092004.4 -0.0  2 0  660  999  616
[32]  82(N01)  1 18 17  0  -4503.2  1022002.9 -0.0  1 0   739  228  454
[33]  84(N03)  7 35  7  0  -2400.6  1022001.5 -0.1  2 0   565  525  158
[48]  41(B05)  1 25 24  0  -1038.3 20460019.1  0.0  1 0  370  446  623
[49]  48(B12)  1  7  7  0  -2697.8 20460053.8  0.0  1 0  361  193  265
[50]  49(B13)  1  7  7  0  -1602.4 20460028.3 -0.1  1 0  445  749  467
$GNGGA,091512.379,,,,,0,00,,,M,,,,0000*28
$GNRMC,091512.379,A,,,,,,,080180,,*24
$GPGSA,A,1,,,,,,,,,,,,,,,*1E
$BDGSA,A,1,,,,,,,,,,,,,,,*0F
$GLGSA,A,1,,,,,,,,,,,,,,,*02
$GPGSV,2,1,07,04,00,000,42,06,00,000,32,13,00,000,44,17,00,000,45*7D
$GPGSV,2,2,07,19,00,000,44,28,00,000,42,30,00,000,43*4E
$BDGSV,1,1,03,05,00,000,42,12,00,000,40,13,00,000,40*59
$B3CN0,0,0,0,0,0,0,0,0,0,0,0,0,0,0*4C
---00000013--- Acq_st=3 0  2000-1-1 0:1:33 
[00]  03(G04)  f 41  9  0    931.2  2045998.8 -0.0  2 0  999 1479  682
[01]  05(G06)  f 32  7  0  -4804.4  2046006.2  0.1  5 0  231  375  214
[02]  12(G13)  f 44  7  0   -281.5  2046000.3  0.0  2 0 1193 3107 1718
[03]  16(G17)  f 46  7  0  -2322.4  2046002.9 -0.0  2 0 3140 4135 2022
[04]  18(G19)  f 43  7  0  -3535.8  2046004.6  0.1  2 0 1545 2448 1116
[05]  27(G28)  f 41 11  0  -2837.4  2046003.6  0.0  2 0 1347 1906  804
[06]  29(G30)  f 42  7  0    -70.6  2046000.1  0.1  2 0 1698 2584 1377
[16]  41(B05) 1f 42 25  0  -1116.1  4092002.9 -0.0  2 0 1224 1832  882
[17]  48(B12) 1f 40  7  0  -3287.7  4092008.5  0.0  2 0 1064  862  454
[18]  49(B13) 1f 40 10  0  -1753.6  4092004.5 -0.0  2 0 1038 1903  917
[33]  84(N03)  7 36  7  0  -2400.3  1022001.4  0.0  2 0   534  617  233
[48]  41(B05)  1 25 25  0   -593.6 20460017.6  0.1  1 0  570  531  491
[49]  48(B12)  1  7  7  0  -2669.3 20460053.2  0.1  1 0  815  673  410
[50]  49(B13)  1  7 11  0  -1454.8 20460028.0 -0.1  1 0  193  247  481
$GNGGA,091513.379,,,,,0,00,,,M,,,,0000*29
$GNRMC,091513.379,A,,,,,,,080180,,*25
$GPGSA,A,1,,,,,,,,,,,,,,,*1E
$BDGSA,A,1,,,,,,,,,,,,,,,*0F
$GLGSA,A,1,,,,,,,,,,,,,,,*02
$GPGSV,2,1,07,04,00,000,42,06,00,000,33,13,00,000,44,17,00,000,45*7C
$GPGSV,2,2,07,19,00,000,43,28,00,000,41,30,00,000,42*4B
$BDGSV,1,1,03,05,00,000,42,12,00,000,39,13,00,000,40*57
$B3CN0,0,0,0,0,0,0,0,0,0,0,0,0,0,0*4C
---00000014--- Acq_st=3 0  2000-1-1 0:1:34 
[00]  03(G04)  f 42  7  0    930.8  2045998.7 -0.2  2 0  590 1147  309
[01]  05(G06)  f 33  7  0  -4799.0  2046006.2 -0.1  5 0  961 1066  762
[02]  12(G13)  f 44  7  0   -282.0  2046000.3 -0.1  2 0 1144 2763 1375
[03]  16(G17)  f 45  7  0  -2319.3  2046002.9  0.0  2 0 3035 4319 1887
[04]  18(G19)  f 43  7  0  -3538.2  2046004.6 -0.1  2 0 1386 2033  910
[05]  27(G28)  f 41  7  0  -2834.8  2046003.6 -0.1  2 0 1238 1913  912
[06]  29(G30)  f 42  7  0    -68.2  2046000.1 -0.1  2 0 1218 2048  900
[16]  41(B05) 1f 42 20  0  -1114.8  4092002.9 -0.3  2 0 1006 1567  712
[17]  48(B12) 1f 39  7  0  -3299.0  4092008.5 -0.1  2 0 1015 1268  115
[18]  49(B13) 1f 40  7  0  -1755.0  4092004.5  0.0  2 0  894 1156  485
[33]  84(N03)  7 37  7  0  -2398.4  1022001.5 -0.4  2 0   304  662  558
[48]  41(B05)  1 27 23  0   -807.8 20460022.6 -0.2  1 0  193  586  653
[49]  48(B12)  1  7  7  0  -2840.5 20460053.3 -0.1  1 0  397  256  370
[50]  49(B13)  1  7  7  0  -1042.1 20460027.6 -0.0  1 0  631  365  309
---00000015--- Acq_st=3 0  2000-1-1 0:1:35 
[00]  03(G04)  f 41  7  0    929.4  2045998.7 -0.0  2 0 1331 1722  508
[01]  05(G06)  f 33  7  0  -4806.7  2046006.2  0.2  5 0  598  477  582
[02]  12(G13)  f 45  7  0   -279.1  2046000.3  0.0  2 0 1653 2378 1149
[03]  16(G17)  f 45  9  0  -2317.2  2046003.0  0.0  2 0 2129 3547 1836
[04]  18(G19)  f 43  9  0  -3533.8  2046004.6  0.0  2 0 1210 1953  633
[05]  27(G28)  f 41  7  0  -2830.4  2046003.6 -0.0  2 0  867 1531  653
[06]  29(G30)  f 43  7  0    -65.5  2046000.0 -0.0  2 0 1165 1858  763
[16]  41(B05) 1f 41 23  0  -1114.6  4092002.8  0.3  2 0 1289 1751  770
[17]  48(B12) 1f 39  7  0  -3285.5  4092008.5 -0.2  2 0  754 1025  177
[18]  49(B13) 1f 40 10  0  -1748.6  4092004.5 -0.0  2 0 1306 1451  554
[33]  84(N03)  f 29  7  0  -2396.6  1022001.5 -0.0  5 0    89  476  323
[48]  41(B05)  1 27 24  0   -506.9 20460016.5  0.2  1 0  688  920  453
[49]  48(B12)  1  9  7  0  -2331.2 20460052.6 -0.0  1 0  429  615  424
[50]  49(B13)  1  7  7  0   -615.1 20460027.0  0.0  1 0  191  107  369
$GNGGA,091514.379,,,,,0,00,,,M,,,,0000*2E
$GNRMC,091514.379,A,,,,,,,080180,,*22
$GPGSA,A,1,,,,,,,,,,,,,,,*1E
$BDGSA,A,1,,,,,,,,,,,,,,,*0F
$GLGSA,A,1,,,,,,,,,,,,,,,*02
$GPGSV,2,1,07,04,00,000,41,06,00,000,33,13,00,000,45,17,00,000,45*7E
$GPGSV,2,2,07,19,00,000,43,28,00,000,41,30,00,000,43*4A
$BDGSV,1,1,03,05,00,000,41,12,00,000,39,13,00,000,40*54
$B3CN0,0,0,0,0,0,0,0,0,0,0,0,0,0,0*4C
---00000016--- Acq_st=3 0  2000-1-1 0:1:36 
[00]  03(G04)  f 41  9  0    923.5  2045998.7  0.1  2 0  503 1353  638
[01]  05(G06)  f 35  7  0  -4803.6  2046006.1 -0.2  2 0  689  973  412
[02]  12(G13)  f 44  8  0   -281.9  2046000.3 -0.0  2 0 1783 2690 1350
[03]  16(G17)  f 45  7  0  -2321.4  2046003.0 -0.1  2 0 2259 3787 1949
[04]  18(G19)  f 43  7  0  -3541.2  2046004.5  0.0  2 0 1526 2481 1014
[05]  27(G28)  f 42  7  0  -2838.1  2046003.6  0.1  2 0 1411 1821 1087
[06]  29(G30)  f 43  7  0    -68.1  2046000.0 -0.0  2 0 1846 2045  926
[16]  41(B05) 1f 42 24  0  -1114.1  4092002.8 -0.4  2 0 1003 1331  558
[17]  48(B12) 1f 39  7  0  -3296.5  4092008.6 -0.0  2 0  570  574  105
[18]  49(B13) 1f 40  7  0  -1755.0  4092004.5 -0.0  2 0 1127 1608  915
[33]  84(N03)  f 36  7  0  -2398.1  1022001.4  0.0  2 0   726  395  114
$GNGGA,091515.379,,,,,0,00,,,M,,,,0000*2F
$GNRMC,091515.379,A,,,,,,,080180,,*23
$GPGSA,A,1,,,,,,,,,,,,,,,*1E
$BDGSA,A,1,,,,,,,,,,,,,,,*0F
$GLGSA,A,1,,,,,,,,,,,,,,,*02
$GPGSV,2,1,07,04,00,000,41,06,00,000,35,13,00,000,44,17,00,000,45*79
$GPGSV,2,2,07,19,00,000,43,28,00,000,42,30,00,000,43*49
$BDGSV,1,1,03,05,00,000,42,12,00,000,39,13,00,000,40*57
$B3CN0,0,0,0,0,0,0,0,0,0,0,0,0,0,0*4C
---00000017--- Acq_st=3 0  2000-1-1 0:1:37 
[00]  03(G04)  f 40  7  0    930.2  2045998.7 -0.1  2 0  892 1562  940
[01]  05(G06)  f 37 11  0  -4802.6  2046006.2 -0.2  2 0  530 1266  780
[02]  12(G13)  f 44  7  0   -279.4  2046000.3  0.0  2 0 1909 2631 1220
[03]  16(G17)  f 45  7  0  -2321.2  2046002.9  0.0  2 0 2258 3344 1761
[04]  18(G19)  f 43  7  0  -3536.3  2046004.5 -0.0  2 0 1822 2776 1322
[05]  27(G28)  f 42  7  0  -2837.9  2046003.6 -0.0  2 0 1253 1862 1069
[06]  29(G30)  f 44  7  0    -65.0  2046000.0 -0.0  2 0 1385 1967  840
[16]  41(B05) 1f 42 22  0  -1118.5  4092002.8  0.2  2 0 1219 1768  732
[17]  48(B12) 1f 39  7  0  -3286.9  4092008.5  0.0  2 0 1113 1150  301
[18]  49(B13) 1f 40  7  0  -1755.8  4092004.5 -0.1  2 0  910 1267  451
[33]  84(N03)  f 35  7  0  -2398.0  1022001.5 -0.0  2 0   159  250  103
[48]  41(B05)  1 24 24  0   -773.8 20460015.0 -0.0  1 0  750  463  155
[49]  48(B12)  1 11  7  0  -2497.2 20460052.4 -0.0  1 0  460  332  339
[50]  49(B13)  1  7  7  0  -1824.3 20460028.8 -0.0  1 0  120  346  110
$GNGGA,091516.379,,,,,0,00,,,M,,,,0000*2C
$GNRMC,091516.379,A,,,,,,,080180,,*20
$GPGSA,A,1,,,,,,,,,,,,,,,*1E
$BDGSA,A,1,,,,,,,,,,,,,,,*0F
$GLGSA,A,1,,,,,,,,,,,,,,,*02
$GPGSV,2,1,07,04,00,000,40,06,00,000,37,13,00,000,44,17,00,000,45*7A
$GPGSV,2,2,07,19,00,000,43,28,00,000,42,30,00,000,44*4E
$BDGSV,1,1,03,05,00,000,42,12,00,000,39,13,00,000,40*57
$B3CN0,0,0,0,0,0,0,0,0,0,0,0,0,0,0*4C
---00000018--- Acq_st=7 0  2000-1-1 0:1:38 
[00]  03(G04)  f 40  7  0    936.7  2045998.7  0.2  2 0  788 1332  638
[01]  05(G06)  f 38  7  0  -4796.2  2046006.1  0.2  2 0 1115 1450  445
[02]  12(G13)  f 44  7  0   -276.8  2046000.3  0.0  2 0 1507 2699 1526
[03]  16(G17)  f 45  7  0  -2314.8  2046002.9 -0.0  2 0 2443 3699 2001
[04]  18(G19)  f 44  7  0  -3532.4  2046004.5 -0.0  2 0 2300 3151 1588
[05]  27(G28)  f 42  9  0  -2833.8  2046003.6  0.0  2 0 1598 2065 1126
[06]  29(G30)  f 43  7  0    -61.7  2046000.0  0.0  2 0 2077 2600 1269
[16]  41(B05) 1f 42 24  0  -1116.6  4092002.8 -0.2  2 0 1279 1826  872
[17]  48(B12) 1f 39  7  0  -3287.1  4092008.5  0.1  2 0  901  988  654
[18]  49(B13) 1f 40  7  0  -1750.1  4092004.5 -0.0  2 0 1458 1334  218
[33]  84(N03)  f 35  7  0  -2395.2  1022001.5  0.0  2 0   131  723  381
[48]  41(B05)  1 24 20  0   -620.3 20460026.3 -0.1  1 0  521  435  535
[49]  48(B12)  1  7  7  0  -2140.8 20460051.9  0.0  1 0  675  378  545
[50]  49(B13)  1  7  7  0  -2363.7 20460028.8 -0.1  1 0  536  343  336
$GNGGA,091517.379,,,,,0,00,,,M,,,,0000*2D
$GNRMC,091517.379,A,,,,,,,080180,,*21
$GPGSA,A,1,,,,,,,,,,,,,,,*1E
$BDGSA,A,1,,,,,,,,,,,,,,,*0F
$GLGSA,A,1,,,,,,,,,,,,,,,*02
$GPGSV,2,1,07,04,00,000,40,06,00,000,38,13,00,000,44,17,00,000,45*75
$GPGSV,2,2,07,19,00,000,44,28,00,000,42,30,00,000,43*4E
$BDGSV,1,1,03,05,00,000,42,12,00,000,39,13,00,000,40*57
$B3CN0,0,0,0,0,0,0,0,0,0,0,0,0,0,0*4C
---00000019--- Acq_st=7 0  2000-1-1 0:1:39 
[00]  03(G04)  f 38  7  0    927.7  2045998.7 -0.2  2 0  747  950  225
[01]  05(G06)  f 39  7  0  -4801.9  2046006.1 -0.0  2 0 1075 1634  901
[02]  12(G13)  f 44  7  0   -276.7  2046000.3 -0.0  2 0 1884 2366  987
[03]  16(G17)  f 45  7  0  -2318.5  2046003.0  0.0  2 0 2461 3614 1927
[04]  18(G19)  f 44  9  0  -3535.3  2046004.5  0.0  2 0 1769 2718 1301
[05]  27(G28)  f 42  7  0  -2835.6  2046003.6 -0.1  2 0 1736 2159  895
[06]  29(G30)  f 43  7  0    -60.4  2046000.0  0.1  2 0 1375 2159  958
[16]  41(B05) 1f 42 10  0  -1113.5  4092002.8  0.6  2 0 1548 1903  866
[17]  48(B12) 1f 40  7  0  -3296.4  4092008.5 -0.0  2 0 1199 1373  624
[18]  49(B13) 1f 41 10  0  -1753.0  4092004.4 -0.1  2 0  799 1639 1013
[33]  84(N03)  f 35  7  0  -2395.7  1022001.5  0.0  2 0   205  270  201
[48]  41(B05)  1 17 25  1   -332.9 20460017.4  0.0  1 0  268  900  259
[49]  48(B12)  1  7  8  0  -2512.7 20460053.5  0.0  1 0  240  508   74
[50]  49(B13)  1  7  7  0  -1761.9 20460027.2  0.2  1 0  338  865  826
$GNGGA,091518.379,,,,,0,00,,,M,,,,0000*22
$GNRMC,091518.379,A,,,,,,,090419,,*2A
$GPGSA,A,1,,,,,,,,,,,,,,,*1E
$BDGSA,A,1,,,,,,,,,,,,,,,*0F
$GLGSA,A,1,,,,,,,,,,,,,,,*02
$GPGSV,2,1,07,04,00,000,38,06,00,000,39,13,00,000,44,17,00,000,45*7B
$GPGSV,2,2,07,19,00,000,44,28,00,000,42,30,00,000,43*4E
$BDGSV,1,1,03,05,00,000,42,12,00,000,40,13,00,000,41*58
$B3CN0,0,0,0,0,0,0,0,0,0,0,0,0,0,0*4C
---00000020--- Acq_st=3 0  2000-1-1 0:1:40 
[00]  03(G04)  f 38  7  0    932.9  2045998.7  0.7  2 0  847 1451  987
[01]  05(G06)  f 39  7  0  -4799.2  2046006.1 -0.0  2 0 1266 1504  662
[02]  12(G13)  f 43  7  0   -277.4  2046000.3 -0.0  2 0 1880 2751  955
[03]  16(G17)  f 45  7  0  -2315.6  2046003.0 -0.0  2 0 2541 3964 2311
[04]  18(G19)  f 44  7  0  -3534.1  2046004.5  0.0  2 0 2490 3331 1306
[05]  27(G28)  f 41  7  0  -2834.2  2046003.6  0.1  2 0 1030 2085 1092
[06]  29(G30)  f 43  7  0    -60.3  2046000.0 -0.0  2 0 1320 2263 1030
[08]  06(G07)  1  7  7  0   1860.3  2045998.4 -0.1  1 0  848 1280  831
[16]  41(B05) 1f 41 25  0  -1116.4  4092002.9 -0.0  2 0 1072 1360  646
[17]  48(B12) 1f 39  7  0  -3291.0  4092008.5 -0.1  2 0  978 1203  508
[18]  49(B13) 1f 41  7  0  -1753.0  4092004.5  0.1  2 0  905 1144  569
[33]  84(N03)  f 36  7  0  -2396.3  1022001.4  0.1  2 0   508  657  418
[48]  41(B05)  1 22 23  1     40.6 20460020.8  0.1  1 0   69  347  372
[49]  48(B12)  1  7  7  0  -2363.8 20460053.9 -0.2  1 0  257  768  269
[50]  49(B13)  1  7  7  0  -2196.1 20460028.2 -0.1  1 0  661  887  381
$GNGGA,091519.379,,,,,0,00,,,M,,,,0000*23
$GNRMC,091519.379,A,,,,,,,090419,,*2B
$GPGSA,A,1,,,,,,,,,,,,,,,*1E
$BDGSA,A,1,,,,,,,,,,,,,,,*0F
$GLGSA,A,1,,,,,,,,,,,,,,,*02
$GPGSV,2,1,07,04,00,000,38,06,00,000,39,13,00,000,43,17,00,000,45*7C
$GPGSV,2,2,07,19,00,000,44,28,00,000,41,30,00,000,43*4D
$BDGSV,1,1,03,05,00,000,42,12,00,000,39,13,00,000,41*56
$B3CN0,0,0,0,0,0,0,0,0,0,0,0,0,0,0*4C
---00000021--- Acq_st=3 0  2000-1-1 0:1:41 
[00]  03(G04)  f 37  7  0    926.5  2045998.8  0.4  2 0  514  843  653
[01]  05(G06)  f 39  7  0  -4799.5  2046006.2 -0.1  2 0  850 1533  932
[02]  12(G13)  f 43  7  0   -281.2  2046000.3 -0.0  2 0 1804 2246  974
[03]  16(G17)  f 45  7  0  -2319.8  2046002.9 -0.0  2 0 1908 3344 1389
[04]  18(G19)  f 45  7  0  -3536.0  2046004.5  0.0  2 0 2467 3237 1699
[05]  27(G28)  f 41  7  0  -2837.6  2046003.7  0.1  2 0  987 1414  914
[06]  29(G30)  f 43  7  0    -66.5  2046000.0  0.0  2 0 1509 2245 1209
[08]  06(G07)  1 30  7  0   1852.5  2045997.5  0.9  1 0 1186 1438 1079
[16]  41(B05) 1f 42 16  0  -1118.5  4092002.8  0.0  2 0 1262 1458  466
[17]  48(B12) 1f 40  7  0  -3289.1  4092008.5  0.1  2 0  699 1033  484
[18]  49(B13) 1f 41 10  0  -1757.9  4092004.4 -0.1  2 0 1468 1929  948
[33]  84(N03)  f 37  7  0  -2394.3  1022001.5 -0.0  2 0   616 1029  598
$GNGGA,091520.379,,,,,0,00,,,M,,,,0000*29
$GNRMC,091520.379,A,,,,,,,090419,,*21
$GPGSA,A,1,,,,,,,,,,,,,,,*1E
$BDGSA,A,1,,,,,,,,,,,,,,,*0F
$GLGSA,A,1,,,,,,,,,,,,,,,*02
$GPGSV,2,1,07,04,00,000,37,06,00,000,39,13,00,000,43,17,00,000,45*73
$GPGSV,2,2,07,19,00,000,45,28,00,000,41,30,00,000,43*4C
$BDGSV,1,1,03,05,00,000,42,12,00,000,40,13,00,000,41*58
$B3CN0,0,0,0,0,0,0,0,0,0,0,0,0,0,0*4C
---00000022--- Acq_st=3 0  2000-1-1 0:1:42 
[00]  03(G04)  f 38  7  0    916.9  2045998.7  0.7  2 0  324  387  346
[01]  05(G06)  f 39  7  0  -4805.8  2046006.2  0.1  2 0  705 1251 1103
[02]  12(G13)  f 43 11  0   -281.8  2046000.3  0.0  2 0 1751 2620  979
[03]  16(G17)  f 45  7  0  -2322.1  2046003.0  0.0  2 0 2392 3558 2053
[04]  18(G19)  f 45  7  0  -3539.1  2046004.5 -0.0  2 0 2714 3849 1661
[05]  27(G28)  f 42  7  0  -2838.1  2046003.6 -0.0  2 0 1223 1916  666
[06]  29(G30)  f 43  9  0    -65.5  2046000.0  0.0  2 0 1815 2246 1012
[08]  06(G07)  7 35  7  0   1858.2  2045997.6 -0.3  2 0  336  785  269
[16]  41(B05) 1f 41 26  0  -1119.1  4092002.8 -0.2  2 0 1568 1924  511
[17]  48(B12) 1f 40  7  0  -3297.0  4092008.5  0.1  2 0 1256 1362  386
[18]  49(B13) 1f 41  7  0  -1758.5  4092004.5 -0.0  2 0 1197 1511  624
[33]  84(N03)  f 37  7  0  -2397.8  1022001.5 -0.0  2 0   744  829  281
[48]  41(B05)  1 22 23  0   -759.9 20460013.9 -0.0  1 0  944  475  390
[49]  48(B12)  1  8  9  0  -2914.4 20460052.9 -0.1  1 0  394  525  233
[50]  49(B13)  1  7  7  0  -1426.0 20460027.4  0.0  1 0  288  627  529
$GNGGA,091521.379,,,,,0,00,,,M,,,,0000*28
$GNRMC,091521.379,A,,,,,,,090419,,*20
$GPGSA,A,1,,,,,,,,,,,,,,,*1E
$BDGSA,A,1,,,,,,,,,,,,,,,*0F
$GLGSA,A,1,,,,,,,,,,,,,,,*02
$GPGSV,2,1,08,04,00,000,38,06,00,000,39,13,00,000,43,17,00,000,45*73
$GPGSV,2,2,08,19,00,000,45,28,00,000,42,30,00,000,43,07,00,000,35*71
$BDGSV,1,1,03,05,00,000,41,12,00,000,40,13,00,000,41*5B
$B3CN0,0,0,0,0,0,0,0,0,0,0,0,0,0,0*4C
---00000023--- Acq_st=3 0  2000-1-1 0:1:43 
[00]  03(G04)  f 37  7  0    929.0  2045998.7 -0.1  2 0  955 1275  218
[01]  05(G06)  f 39  7  0  -4796.6  2046006.2  0.2  2 0  182  600  683
[02]  12(G13)  f 44  7  0   -276.7  2046000.3 -0.0  2 0 1307 2780 1586
[03]  16(G17)  f 44  7  0  -2316.0  2046002.9 -0.0  2 0 2608 3933 2033
[04]  18(G19)  f 45  7  0  -3532.6  2046004.5  0.0  2 0 2794 4106 1805
[05]  27(G28)  f 42  7  0  -2830.4  2046003.6  0.0  2 0 1076 1228  395
[06]  29(G30)  f 42  7  0    -60.6  2046000.0  0.0  2 0 2126 2853 1507
[08]  06(G07)  7 35  7  0   1861.8  2045997.6  0.1  2 0  768  901  340
[16]  41(B05) 1f 41 25  0  -1113.9  4092002.9  0.1  2 0  618 1272  468
[17]  48(B12) 1f 40  7  0  -3285.8  4092008.5 -0.2  2 0 1061 1259  629
[18]  49(B13) 1f 41  7  0  -1748.1  4092004.4  0.0  2 0 1062 1332  240
[33]  84(N03)  f 38  7  0  -2389.9  1022001.5  0.1  2 0   718  859  398
[48]  41(B05)  1 23 22  0  -1188.4 20460025.6 -0.2  1 0  706  595  801
[49]  48(B12)  1  7  7  0  -2862.5 20460053.3  0.1  1 0  330  135  689
[50]  49(B13)  1  7  7  0  -1291.6 20460027.4  0.1  1 0  320  702  727
$GNGGA,091522.379,,,,,0,00,,,M,,,,0000*2B
$GNRMC,091522.379,A,,,,,,,090419,,*23
$GPGSA,A,1,,,,,,,,,,,,,,,*1E
$BDGSA,A,1,,,,,,,,,,,,,,,*0F
$GLGSA,A,1,,,,,,,,,,,,,,,*02
$GPGSV,2,1,08,04,00,000,37,06,00,000,39,13,00,000,44,17,00,000,44*7A
$GPGSV,2,2,08,19,00,000,45,28,00,000,42,30,00,000,42,07,00,000,35*70
$BDGSV,1,1,03,05,00,000,41,12,00,000,40,13,00,000,41*5B
$B3CN0,0,0,0,0,0,0,0,0,0,0,0,0,0,0*4C
---00000024--- Acq_st=3 0  2000-1-1 0:1:44 
[00]  03(G04)  f 38  7  0    928.7  2045998.7 -0.4  2 0 1077 1443  831
[01]  05(G06)  f 38 10  0  -4806.4  2046006.2 -0.2  2 0  969 1026  461
[02]  12(G13)  f 43  7  0   -273.2  2046000.3  0.0  2 0 1309 2557 1168
[03]  16(G17)  f 45  7  0  -2315.2  2046002.9  0.0  2 0 1887 2947 1544
[04]  18(G19)  f 45  7  0  -3529.9  2046004.5 -0.0  2 0 3095 4467 2067
[05]  27(G28)  f 42  7  0  -2835.5  2046003.6 -0.0  2 0  708 1426  611
[06]  29(G30)  f 43  7  0    -57.4  2046000.0  0.0  2 0 1682 2245 1071
[08]  06(G07)  7 36  7  0   1856.0  2045997.5 -0.1  2 0  794  935  944
[16]  41(B05) 1f 41 23  0  -1112.4  4092002.9 -0.2  2 0 1184 1860 1048
[17]  48(B12) 1f 40  7  0  -3286.1  4092008.5 -0.0  2 0 1254 1471  480
[18]  49(B13) 1f 41  7  0  -1752.5  4092004.5  0.1  2 0 1230 1593  744
[33]  84(N03)  f 38  7  0  -2390.7  1022001.5 -0.0  2 0   672  908  313
[48]  41(B05)  1 25 10  0  -1318.6 20460017.8 -0.0  1 0  537  734  464
[49]  48(B12)  1  7  7  0  -3264.0 20460054.3 -0.0  1 0  349  259  170
[50]  49(B13)  1  7  7  0   -968.5 20460027.8  0.2  1 0  395   77  212
$GNGGA,091523.379,,,,,0,00,,,M,,,,0000*2A
$GNRMC,091523.379,A,,,,,,,090419,,*22
$GPGSA,A,1,,,,,,,,,,,,,,,*1E
$BDGSA,A,1,,,,,,,,,,,,,,,*0F
$GLGSA,A,1,,,,,,,,,,,,,,,*02
$GPGSV,2,1,08,04,00,000,38,06,00,000,38,13,00,000,43,17,00,000,45*72
$GPGSV,2,2,08,19,00,000,45,28,00,000,42,30,00,000,43,07,00,000,36*72
$BDGSV,1,1,03,05,00,000,41,12,00,000,40,13,00,000,41*5B
$B3CN0,0,0,0,0,0,0,0,0,0,0,0,0,0,0*4C
---00000025--- Acq_st=3 0  2000-1-1 0:1:45 
[00]  03(G04)  f 38  7  0    921.1  2045998.7 -0.2  2 0  682 1066  755
[01]  05(G06)  f 38  7  0  -4804.6  2046006.2  0.1  2 0  758 1229  658
[02]  12(G13)  f 43 13  0   -281.6  2046000.3 -0.0  2 0 1175 2360 1017
[03]  16(G17)  f 44  7  0  -2321.4  2046003.0  0.0  2 0 1394 2861 1812
[04]  18(G19)  f 45 11  0  -3536.1  2046004.5  0.0  2 0 2736 4090 1861
[05]  27(G28)  f 42  7  0  -2837.0  2046003.7 -0.1  2 0 1218 1783  940
[06]  29(G30)  f 43  7  0    -62.1  2046000.0 -0.0  2 0 1779 2739 1382
[08]  06(G07)  7 37  7  0   1848.9  2045997.5 -0.6  2 0  697  902  853
[16]  41(B05) 1f 42 25  0  -1120.7  4092002.8  0.2  2 0 1294 1988 1111
[17]  48(B12) 1f 40  7  0  -3289.4  4092008.5 -0.0  2 0  929 1250  381
[18]  49(B13) 1f 41  7  0  -1756.5  4092004.5 -0.1  2 0  974 1287  639
[19]  62(B26)  1  7  7  0  -3250.0  4092010.4 -0.1  1 0  394 2140 3316
[33]  84(N03)  f 39  7  0  -2394.1  1022001.5 -0.2  2 0   645  970  656
[48]  41(B05)  1 26 24  1   -949.3 20460028.1 -0.1  1 0  680 1060  861
[49]  48(B12)  1  7  7  0  -3254.6 20460053.7  0.1  1 0  494  185  228
[50]  49(B13)  1  7  7  0  -1387.5 20460031.2 -0.0  1 0  402  174  342
$GNGGA,091524.379,,,,,0,00,,,M,,,,0000*2D
$GNRMC,091524.379,A,,,,,,,090419,,*25
$GPGSA,A,1,,,,,,,,,,,,,,,*1E
$BDGSA,A,1,,,,,,,,,,,,,,,*0F
$GLGSA,A,1,,,,,,,,,,,,,,,*02
$GPGSV,2,1,08,04,00,000,38,06,00,000,38,13,00,000,43,17,00,000,44*73
$GPGSV,2,2,08,19,00,000,45,28,00,000,42,30,00,000,43,07,00,000,37*73
$BDGSV,1,1,03,05,00,000,42,12,00,000,40,13,00,000,41*58
$B3CN0,0,0,0,0,0,0,0,0,0,0,0,0,0,0*4C
---00000026--- Acq_st=2 0  2000-1-1 0:1:46 
[00]  03(G04)  f 37  7  0    921.5  2045998.8  0.5  2 0  824  780  360
[01]  05(G06)  f 39  7  0  -4799.4  2046006.2 -0.0  2 0  290  844  567
[02]  12(G13)  f 44  7  0   -276.0  2046000.3  0.0  2 0 1452 2143 1017
[03]  16(G17)  f 44  7  0  -2317.8  2046003.0 -0.0  2 0 1716 3091 1821
[04]  18(G19)  f 45  7  0  -3534.6  2046004.5 -0.0  2 0 2839 4097 1418
[05]  27(G28)  f 42  7  0  -2833.4  2046003.6 -0.1  2 0  605 1022  331
[06]  29(G30)  f 43  7  0    -57.9  2046000.0  0.0  2 0 1298 1924  861
[08]  06(G07)  7 36  7  0   1856.5  2045997.6 -0.1  2 0  560  989  611
[16]  41(B05) 1f 43 20  0  -1116.9  4092002.8 -0.2  2 0 1576 1925 1019
[17]  48(B12) 1f 40  7  0  -3286.4  4092008.4 -0.0  2 0 1074 1246  504
[18]  49(B13) 1f 41  7  0  -1752.2  4092004.5  0.0  2 0 1505 1781  749
[19]  62(B26)  1  7  7  0  -3194.7  4092008.4  0.3  1 0 2228 2988 1225
[33]  84(N03)  f 37  7  0  -2390.5  1022001.5  0.3  2 0   257  710  640
$GNGGA,091525.379,,,,,0,00,,,M,,,,0000*2C
$GNRMC,091525.379,A,,,,,,,090419,,*24
$GPGSA,A,1,,,,,,,,,,,,,,,*1E
$BDGSA,A,1,,,,,,,,,,,,,,,*0F
$GLGSA,A,1,,,,,,,,,,,,,,,*02
$GPGSV,2,1,08,04,00,000,37,06,00,000,39,13,00,000,44,17,00,000,44*7A
$GPGSV,2,2,08,19,00,000,45,28,00,000,42,30,00,000,43,07,00,000,36*72
$BDGSV,1,1,03,05,00,000,43,12,00,000,40,13,00,000,41*59
$B3CN0,0,0,0,0,0,0,0,0,0,0,0,0,0,0*4C
---00000027--- Acq_st=3 0  2000-1-1 0:1:47 
[00]  03(G04)  f 36  7  0    928.0  2045998.8  0.3  2 0  710 1107  669
[01]  05(G06)  f 38  8  0  -4799.7  2046006.2 -0.0  2 0  877 1158  374
[02]  12(G13)  f 44  7  0   -274.6  2046000.3  0.0  2 0 1052 2465 1382
[03]  16(G17)  f 45  7  0  -2315.2  2046003.0 -0.0  2 0 1373 2715 1488
[04]  18(G19)  f 46  7  0  -3531.0  2046004.5 -0.0  2 0 2149 3885 1699
[05]  27(G28)  f 41  7  0  -2836.3  2046003.6  0.0  2 0  964 1813  941
[06]  29(G30)  f 43  7  0    -57.7  2046000.0  0.0  2 0 1439 2470 1195
[08]  06(G07)  f 36  7  0   1855.3  2045997.6  0.7  2 0  508  914  337
[16]  41(B05) 1f 42 22  0  -1116.2  4092002.8  0.4  2 0 1078 1411  914
[17]  48(B12) 1f 40  7  0  -3286.0  4092008.5  0.1  2 0 1166 1710  873
[18]  49(B13) 1f 41  8  0  -1754.0  4092004.4  0.0  2 0 1186 1227  180
[19]  62(B26)  7 31  7  0  -3194.0  4092008.3  0.3  5 0 2130 2878 1237
[32]  82(N01)  1 13  7  0  -5000.0  1022004.1 -0.0  1 0   195  261  430
[33]  84(N03)  f 37  7  0  -2390.6  1022001.5  0.1  2 0   458  787  324
[48]  41(B05)  1 20 20  0   -379.4 20460020.6 -0.1  1 0  256  489  254
[49]  48(B12)  1  7  7  0  -2836.8 20460053.7  0.1  1 0  554  735  889
[50]  49(B13)  1  7  7  0  -1340.3 20460027.6  0.1  1 0  484  280  610
$GNGGA,091526.379,,,,,0,00,,,M,,,,0000*2F
$GNRMC,091526.379,A,,,,,,,090419,,*27
$GPGSA,A,1,,,,,,,,,,,,,,,*1E
$BDGSA,A,1,,,,,,,,,,,,,,,*0F
$GLGSA,A,1,,,,,,,,,,,,,,,*02
$GPGSV,2,1,08,04,00,000,36,06,00,000,38,13,00,000,44,17,00,000,45*7B
$GPGSV,2,2,08,19,00,000,46,28,00,000,41,30,00,000,43,07,00,000,36*72
$BDGSV,1,1,04,05,00,000,42,12,00,000,40,13,00,000,41,26,00,000,31*69
$B3CN0,0,0,0,0,0,0,0,0,0,0,0,0,0,0*4C
---00000028--- Acq_st=7 0  2000-1-1 0:1:48 
[00]  03(G04)  f 36  7  0    926.2  2045998.7 -0.5  2 0  509 1040  908
[01]  05(G06)  f 39  7  0  -4805.4  2046006.2  0.3  2 0  924 1177  425
[02]  12(G13)  f 44  7  0   -277.2  2046000.3 -0.0  2 0 1611 2824 1508
[03]  16(G17)  f 44  7  0  -2321.0  2046003.0  0.0  2 0 1572 2764  997
[04]  18(G19)  f 45  7  0  -3535.6  2046004.5  0.1  2 0 2212 3736 2058
[05]  27(G28)  f 41  7  0  -2837.2  2046003.7 -0.1  2 0  823 1528  669
[06]  29(G30)  f 43  9  0    -59.6  2046000.0  0.0  2 0 1423 2353  965
[08]  06(G07)  f 38  7  0   1851.8  2045997.5  0.3  2 0  774  870   44
[16]  41(B05) 1f 42 10  0  -1119.1  4092002.8  0.0  2 0 1114 1814  568
[17]  48(B12) 1f 40  7  0  -3290.6  4092008.5  0.1  2 0 1035 1372  579
[18]  49(B13) 1f 41  7  0  -1760.1  4092004.5  0.1  2 0  811 1626  813
[19]  62(B26)  7 45  7  0  -3193.5  4092008.3 -0.0  2 0 1976 3015 1433
[32]  82(N01)  1 26  7  0  -4954.1  1022003.6  0.4  1 0   472  260  134
[33]  84(N03)  f 37  7  0  -2392.4  1022001.4 -0.2  2 0   631  754  120
[48]  41(B05)  1 26 24  0   -360.0 20460019.5  0.1  1 0  331  475  499
[49]  48(B12)  1  7  7  0  -2073.7 20460052.7 -0.1  1 0  345  169  336
[50]  49(B13)  1  7  7  0  -1214.4 20460027.1  0.1  1 0  534  251  238
$GNGGA,091527.379,,,,,0,00,,,M,,,,0000*2E
$GNRMC,091527.379,A,,,,,,,090419,,*26
$GPGSA,A,1,,,,,,,,,,,,,,,*1E
$BDGSA,A,1,,,,,,,,,,,,,,,*0F
$GLGSA,A,1,,,,,,,,,,,,,,,*02
$GPGSV,2,1,08,04,00,000,36,06,00,000,39,13,00,000,44,17,00,000,44*7B
$GPGSV,2,2,08,19,00,000,45,28,00,000,41,30,00,000,43,07,00,000,38*7F
$BDGSV,1,1,04,05,00,000,43,12,00,000,40,13,00,000,41,26,00,000,45*6B
$B3CN0,0,0,0,0,0,0,0,0,0,0,0,0,0,0*4C
---00000029--- Acq_st=3 0  2000-1-1 0:1:49 
[00]  03(G04)  f 37  7  0    920.9  2045998.7  0.1  2 0 1050 1403  765
[01]  05(G06)  f 38  7  0  -4801.8  2046006.2  0.1  2 0  848 1405 1088
[02]  12(G13)  f 44  7  0   -275.8  2046000.3  0.0  2 0 1626 2727 1361
[03]  16(G17)  f 44  8  0  -2318.6  2046003.0  0.0  2 0 1542 1955  930
[04]  18(G19)  f 46  7  0  -3534.5  2046004.5 -0.1  2 0 2219 3697 1715
[05]  27(G28)  f 40  7  0  -2834.8  2046003.6 -0.1  2 0  968 1475  942
[06]  29(G30)  f 44  7  0    -56.1  2046000.0 -0.0  2 0 1420 2448 1362
[08]  06(G07)  f 39  7  0   1855.2  2045997.5 -0.0  2 0 1325 1545  557
[16]  41(B05) 1f 41 24  0  -1114.1  4092002.8  0.1  2 0 1297 1947 1440
[17]  48(B12) 1f 40  7  0  -3288.2  4092008.5  0.1  2 0  917 1080  343
[18]  49(B13) 1f 41  7  0  -1755.7  4092004.5  0.0  2 0 1043 1401  295
[19]  62(B26) 1f 45  7  0  -3193.6  4092008.3 -0.0  2 0 1941 3266 1597
[32]  82(N01)  1 28  7  0  -4953.5  1022003.0  0.4  1 0   163  263  204
[33]  84(N03)  f 36  7  0  -2393.1  1022001.5 -0.0  2 0   187  631  272
[48]  41(B05)  1 23 23  0   -747.4 20460023.2  0.0  1 0  150  233  273
[49]  48(B12)  1  7  8  0  -1732.6 20460051.7 -0.2  1 0  696  639  425
[50]  49(B13)  1  7  7  0  -1335.0 20460029.9  0.1  1 0  278  184  682
$GNGGA,091528.379,,,,,0,00,,,M,,,,0000*21
$GNRMC,091528.379,A,,,,,,,090419,,*29
$GPGSA,A,1,,,,,,,,,,,,,,,*1E
$BDGSA,A,1,,,,,,,,,,,,,,,*0F
$GLGSA,A,1,,,,,,,,,,,,,,,*02
$GPGSV,2,1,08,04,00,000,37,06,00,000,38,13,00,000,44,17,00,000,44*7B
$GPGSV,2,2,08,19,00,000,46,28,00,000,40,30,00,000,44,07,00,000,39*7B
$BDGSV,1,1,04,05,00,000,41,12,00,000,40,13,00,000,41,26,00,000,45*69
$B3CN0,0,0,0,0,0,0,0,0,0,0,0,0,0,0*4C
---00000030--- Acq_st=3 0  2000-1-1 0:1:50 
[00]  03(G04)  f 37  7  0    914.1  2045998.7 -0.2  2 0  166  591  548
[01]  05(G06)  f 39  7  0  -4800.1  2046006.1  0.0  2 0  739 1428  689
[02]  12(G13)  f 44  9  0   -278.8  2046000.3  0.0  2 0 1516 2649 1216
[03]  16(G17)  f 44  7  0  -2319.6  2046002.9 -0.0  2 0 2133 3357 1483
[04]  18(G19)  f 45  7  0  -3535.5  2046004.5  0.0  2 0 2411 3148 1472
[05]  27(G28)  f 40 13  0  -2842.3  2046003.6  0.0  2 0  868 1718 1266
[06]  29(G30)  f 44  7  0    -57.5  2046000.0  0.1  2 0 1498 2022  565
[08]  06(G07)  f 38  7  0   1850.0  2045997.5 -0.2  2 0  816  783  362
[16]  41(B05) 1f 42 25  0  -1120.0  4092002.8  0.5  2 0 1744 2112  951
[17]  48(B12) 1f 40  7  0  -3290.5  4092008.5  0.0  2 0 1105 1528  606
[18]  49(B13) 1f 41  7  0  -1761.1  4092004.5 -0.0  2 0 1279 1670  546
[19]  62(B26) 1f 44  7  0  -3193.6  4092008.3  0.0  2 0 2092 3200 1151
[32]  82(N01)  7 31  7  0  -4924.8  1022002.8  0.0  5 0   372  450  221
[33]  84(N03)  f 35  7  0  -2393.8  1022001.5  0.2  2 0   414  458  440
[48]  41(B05)  1 22 23  0   -974.3 20460024.4 -0.0  1 0  571  512  414
[49]  48(B12)  1  7  7  0  -1811.5 20460054.5  0.1  1 0  613  634  457
[50]  49(B13)  1  7  9  0   -578.5 20460027.7 -0.1  1 0  133  508  770
[51]  62(B26)  1  7  7  0  -2798.9 20460051.2  0.0  1 0  112  143  393
$GNGGA,091529.379,,,,,0,00,,,M,,,,0000*20
$GNRMC,091529.379,A,,,,,,,090419,,*28
$GPGSA,A,1,,,,,,,,,,,,,,,*1E
$BDGSA,A,1,,,,,,,,,,,,,,,*0F
$GLGSA,A,1,,,,,,,,,,,,,,,*02
$GPGSV,2,1,08,04,00,000,37,06,00,000,39,13,00,000,44,17,00,000,44*7A
$GPGSV,2,2,08,19,00,000,45,28,00,000,40,30,00,000,44,07,00,000,38*79
$BDGSV,1,1,04,05,00,000,42,12,00,000,40,13,00,000,41,26,00,000,44*6B
$B3CN0,0,0,0,0,0,0,0,0,0,0,0,0,0,0*4C
---00000031--- Acq_st=3 0  2000-1-1 0:1:51 
[00]  03(G04)  f 36  8  0    920.2  2045998.8  0.2  2 0  657  695  563
[01]  05(G06)  f 40  7  0  -4803.9  2046006.2  0.0  2 0  994 1431  826
[02]  12(G13)  f 44  7  0   -278.0  2046000.3 -0.1  2 0 1920 2606 1129
[03]  16(G17)  f 44  7  0  -2321.4  2046002.9 -0.1  2 0 1711 2209 1230
[04]  18(G19)  f 44  7  0  -3535.5  2046004.6 -0.1  2 0 1246 2605 1158
[05]  27(G28)  f 41  7  0  -2839.0  2046003.6  0.1  2 0 1432 1179  552
[06]  29(G30)  f 44  7  0    -58.6  2046000.0 -0.0  2 0 1257 2687 1343
[08]  06(G07)  f 38  7  0   1852.8  2045997.5 -0.3  2 0  728  941  536
[16]  41(B05) 1f 41 23  0  -1121.4  4092003.0  0.2  2 0  844 1714 1006
[17]  48(B12) 1f 39  7  0  -3290.1  4092008.5  0.0  2 0  866 1213  870
[18]  49(B13) 1f 41  7  0  -1756.7  4092004.5  0.0  2 0 1395 1403  543
[19]  62(B26) 1f 44  7  0  -3193.2  4092008.3  0.0  2 0 2174 2603 1064
[32]  82(N01)  7 31  7  0  -4925.1  1022003.1 -0.0  5 0   469  853  249
[33]  84(N03)  f 35  7  0  -2391.9  1022001.5 -0.0  2 0   163  475   88
[51]  62(B26)  1  7  7  0  -2097.8 20460050.4  0.1  1 0  200  254  420
$GNGGA,091530.248,2944.9323,N,10633.0566,E,1,06,2.3,368.9,M,,,,0000*10
$GNRMC,091530.248,A,2944.9323,N,10633.0566,E,0.72,0.00,090419,,*1F
$GPGSA,A,3,06,13,17,19,28,30,,,,,,,2.9,2.3,1.8*32
$BDGSA,A,3,,,,,,,,,,,,,2.9,2.3,1.8*20
$GLGSA,A,3,,,,,,,,,,,,,2.9,2.3,1.8*2D
$GPGSV,2,1,08,04,00,000,36,06,00,000,40,13,00,000,44,17,00,000,44*75
$GPGSV,2,2,08,19,00,000,44,28,00,000,41,30,00,000,44,07,00,000,38*79
$BDGSV,1,1,04,05,00,000,41,12,00,000,39,13,00,000,41,26,00,000,44*66
$B3CN0,0,0,0,0,0,0,0,0,0,0,0,0,0,0*4C
---00000032--- Acq_st=3 0  2019-4-9 9:15:30 
[00]  03(G04)  f 36  7  0    912.8  2045998.8 -0.4  2 0  257 1137  823
[01]  05(G06)  f 40  7  0  -4804.4  2046006.2 -0.0  2 0  927 1624 1075
[02]  12(G13)  f 45  7  0   -276.1  2046000.3  0.0  2 0 1783 3007 1819
[03]  16(G17)  f 44  7  0  -2320.3  2046002.9  0.0  2 0 1702 2573 1293
[04]  18(G19)  f 44  7  0  -3533.9  2046004.6  0.0  2 0 1246 2489 1598
[05]  27(G28)  f 41  7  0  -2836.9  2046003.6  0.0  2 0  890 1395  689
[06]  29(G30)  f 43  7  0    -58.7  2046000.0 -0.0  2 0 1006 2264 1206
[08]  06(G07)  f 37  7  0   1852.3  2045997.6  0.3  2 0  706  963  967
[16]  41(B05) 1f 43 23  0  -1118.8  4092002.8  0.1  2 0 1384 1705  540
[17]  48(B12) 1f 38  7  0  -3289.0  4092008.5 -0.0  2 0  864 1014  322
[18]  49(B13) 1f 41  8  0  -1753.1  4092004.5 -0.0  2 0  969 1611  911
[19]  62(B26) 1f 44  7  0  -3194.0  4092008.3  0.0  2 0 2087 2606 1138
[32]  82(N01)  7 32  7  0  -4924.4  1022002.9 -0.2  5 0   628  705  418
[33]  84(N03)  f 35  7  0  -2389.1  1022001.4 -0.0  2 0   221  232  156
[48]  41(B05)  1 25 24  1   -989.3 20460016.1  0.1  1 0  628  681  739
[49]  48(B12)  1  8  7  0  -3249.7 20460053.9 -0.1  1 0  208  186  465
[50]  49(B13)  1  7  7  0  -1495.2 20460027.2  0.0  1 0  399   76  602
[51]  62(B26)  1  7  7  0  -2118.6 20460052.0  0.0  1 0  305  508  350
set_rangeHR meas:6
set_rangeHR pvmdl_kf.k_dim:6
There are 6 meas!
There are 6 numSvUsed
Refix G06: 2, 206149.914682, -4801
Refix G13: 2, 206149.916177, -273
Refix G17: 2, 206149.925288, -2316
Refix G19: 2, 206149.919754, -3533
Refix G28: 2, 206149.927773, -2836
Refix G30: 2, 206149.930948, -56
$GNGGA,091532.000,2944.9287,N,10633.0555,E,1,06,2.3,372.8,M,,,,0000*19
$GNRMC,091532.000,A,2944.9287,N,10633.0555,E,0.93,0.00,090419,,*13
$GPGSA,A,3,06,13,17,19,28,30,,,,,,,2.9,2.3,1.8*32
$BDGSA,A,3,,,,,,,,,,,,,2.9,2.3,1.8*20
$GLGSA,A,3,,,,,,,,,,,,,2.9,2.3,1.8*2D
$GPGSV,2,1,08,04,00,000,36,06,00,000,40,13,00,000,45,17,00,000,44*74
$GPGSV,2,2,08,19,00,000,44,28,00,000,41,30,00,000,43,07,00,000,37*71
$BDGSV,1,1,04,05,00,000,43,12,00,000,38,13,00,000,41,26,00,000,44*65
$B3CN0,0,0,0,0,0,0,0,0,0,0,0,0,0,0*4C
---00000033--- Acq_st=3 0  2019-4-9 9:15:32 
[00]  03(G04)  f 36  7  0    917.3  2045998.8  0.0  2 0  313  927  334
[01]  05(G06)  f 39  7  0  -4805.3  2046006.2  0.0  2 0 1070 1789  789
[02]  12(G13)  f 44  7  0   -273.8  2046000.3 -0.0  2 0 1961 2753  975
[03]  16(G17)  f 44  7  0  -2319.1  2046003.0 -0.0  2 0 1358 2498 1276
[04]  18(G19)  f 44  7  0  -3534.6  2046004.6 -0.0  2 0  914 1997  947
[05]  27(G28)  f 41  7  0  -2836.4  2046003.6  0.0  2 0  809 1164  436
[06]  29(G30)  f 43  7  0    -55.9  2046000.0 -0.0  2 0 1356 1872  938
[08]  06(G07)  f 36 11  0   1858.4  2045997.6 -0.1  2 0  502  704  614
[16]  41(B05) 1f 41 22  0  -1117.6  4092002.8  0.6  2 0 1705 1844  554
[17]  48(B12) 1f 38  7  0  -3291.0  4092008.5 -0.1  2 0 1229 1240  655
[18]  49(B13) 1f 41  7  0  -1755.1  4092004.5 -0.0  2 0 1470 1560  738
[19]  62(B26) 1f 44  7  0  -3188.7  4092008.3 -0.0  2 0 1816 2910 1308
[32]  82(N01)  f 27  7  0  -4921.8  1022003.0  0.0 10 0   295  710  381
[33]  84(N03) 8f 36  7  0  -2386.3  1022001.5 -0.2  2 0   454  560  346
[48]  41(B05)  1 23 25  0   -598.4 20460023.5 -0.0  1 0  473  711  574
[49]  48(B12)  1  7  9  0  -3174.8 20460052.7 -0.1  1 0  322  620  403
[50]  49(B13)  1  7 10  0  -1247.2 20460029.0  0.2  1 0  118  387  514
[51]  62(B26)  1 10  8  0  -1972.1 20460050.5 -0.1  1 0  422  421  445
set_rangeHR meas:6
set_rangeHR pvmdl_kf.k_dim:6
There are 6 meas!
There are 6 numSvUsed
Refix G06: 2, 206150.914685, -4804
Refix G13: 2, 206150.916177, -276
Refix G17: 2, 206150.925289, -2319
Refix G19: 2, 206150.919756, -3537
Refix G28: 2, 206150.927775, -2837
Refix G30: 2, 206150.930948, -58
$GNGGA,091533.000,2944.9273,N,10633.0544,E,1,06,2.3,373.9,M,,,,0000*13
$GNRMC,091533.000,A,2944.9273,N,10633.0544,E,0.50,0.00,090419,,*16
$GPGSA,A,3,06,13,17,19,28,30,,,,,,,2.9,2.3,1.8*32
$BDGSA,A,3,,,,,,,,,,,,,2.9,2.3,1.8*20
$GLGSA,A,3,,,,,,,,,,,,,2.9,2.3,1.8*2D
$GPGSV,2,1,08,04,00,000,36,06,00,211,39,13,05,289,44,17,37,276,44*78
$GPGSV,2,2,08,19,16,259,44,28,50,333,41,30,61,231,43,07,00,000,36*78
$BDGSV,2,1,05,05,00,000,41,12,00,000,38,13,00,000,41,26,00,000,44*65
$BDGSV,2,2,05,07,66,087,00*55
$B3CN0,0,0,0,0,0,0,0,0,0,0,0,0,0,0*4C
---00000034--- Acq_st=3 0  2019-4-9 9:15:33 
[00]  03(G04)  f 36  9  0    926.1  2045998.8 -0.2  2 0  487  804  371
[01]  05(G06)  f 39  7  0  -4810.2  2046006.1 -0.1  2 0  904 1246  335
[02]  12(G13)  f 44 10  0   -276.7  2046000.3 -0.0  2 0 1728 2873 1339
[03]  16(G17)  f 44  7  0  -2320.3  2046003.0  0.0  2 0 1686 2683 1378
[04]  18(G19)  f 43  7  0  -3538.4  2046004.6 -0.1  2 0 1117 2016  808
[05]  27(G28)  f 41  7  0  -2837.7  2046003.6  0.1  2 0  845 1641  803
[06]  29(G30)  f 43  7  0    -59.4  2046000.0  0.0  2 0 1524 2409 1170
[08]  06(G07)  f 36  7  0   1847.2  2045997.5  0.2  2 0  418  627  152
[16]  41(B05) 1f 42 25  0  -1123.7  4092002.9 -0.3  2 0 1404 1628  556
[17]  48(B12) 1f 39  7  0  -3298.3  4092008.5 -0.1  2 0  671 1270  537
[18]  49(B13) 1f 41  8  0  -1757.1  4092004.5  0.0  2 0 1076 1277  491
[19]  62(B26) 1f 44  7  0  -3197.1  4092008.3 -0.0  2 0 2169 2837 1363
[32]  82(N01)  f 33  7  0  -4921.9  1022003.1  0.1  5 0   546  614  511
[33]  84(N03) 8f 36  7  0  -2389.2  1022001.5  0.1  2 0   251  567  163
[48]  41(B05)  1 24 23  0  -1149.2 20460027.2 -0.1  1 0  158  468  983
[49]  48(B12)  1  7  7  0  -3344.1 20460052.4 -0.2  1 0  419  636   65
[50]  49(B13)  1  8  7  0  -1446.8 20460026.9  0.0  1 0  763  793  647
set_rangeHR meas:6
set_rangeHR pvmdl_kf.k_dim:6
There are 6 meas!
There are 6 numSvUsed
Refix G06: 2, 206151.914688, -4803
Refix G13: 2, 206151.916177, -273
Refix G17: 2, 206151.925291, -2316
Refix G19: 2, 206151.919758, -3533
Refix G28: 2, 206151.927776, -2834
Refix G30: 2, 206151.930948, -54
$GNGGA,091534.000,2944.9261,N,10633.0528,E,1,06,2.3,374.8,M,,,,0000*1B
$GNRMC,091534.000,A,2944.9261,N,10633.0528,E,1.26,0.00,090419,,*18
$GPGSA,A,3,06,13,17,19,28,30,,,,,,,2.9,2.3,1.8*32
$BDGSA,A,3,,,,,,,,,,,,,2.9,2.3,1.8*20
$GLGSA,A,3,,,,,,,,,,,,,2.9,2.3,1.8*2D
$GPGSV,2,1,08,04,00,000,36,06,00,211,39,13,05,289,44,17,37,276,44*78
$GPGSV,2,2,08,19,16,259,43,28,50,333,41,30,61,231,43,07,00,000,36*7F
$BDGSV,2,1,05,05,00,000,42,12,00,000,39,13,00,000,41,26,00,000,44*67
$BDGSV,2,2,05,07,66,087,00*55
$B3CN0,0,0,0,0,0,0,0,0,0,0,0,0,0,0*4C
---00000035--- Acq_st=3 0  2019-4-9 9:15:34 
[00]  03(G04)  f 35  7  0    916.2  2045998.8  0.3  2 0  822  855  749
[01]  05(G06)  f 38  7  0  -4802.0  2046006.2  0.5  2 0  745 1558  754
[02]  12(G13)  f 44  7  0   -271.8  2046000.3 -0.0  2 0 1758 2582 1534
[03]  16(G17)  f 44  7  0  -2314.5  2046002.9  0.1  2 0 1864 2860 1574
[04]  18(G19)  f 42  7  0  -3533.3  2046004.6  0.1  2 0  743 1661 1008
[05]  27(G28)  f 41 11  0  -2835.5  2046003.6 -0.2  2 0  561 1256  380
[06]  29(G30)  f 43 10  0    -54.5  2046000.0 -0.0  2 0 1277 2073  912
[08]  06(G07)  f 36  7  0   1849.9  2045997.5 -0.0  2 0  483  823  559
[16]  41(B05) 1f 43 19  0  -1115.9  4092002.8 -0.4  2 0 1451 1847  624
[17]  48(B12) 1f 39  7  0  -3286.9  4092008.5 -0.2  2 0 1053  919  377
[18]  49(B13) 1f 41  7  0  -1751.7  4092004.5  0.0  2 0  735 1296  658
[19]  62(B26) 1f 45  7  0  -3189.6  4092008.2 -0.0  2 0 2083 2584 1137
[32]  82(N01)  f 34  7  0  -4918.8  1022003.1 -0.0  5 0   417  273  382
[33]  84(N03) 8f 37  7  0  -2386.9  1022001.4 -0.1  2 0   466  535  504
[48]  41(B05)  1 23 22  1  -1308.6 20460023.0 -0.1  1 0  496   53  534
[49]  48(B12)  1  7  7  0  -3542.9 20460051.6  0.0  1 0  342  237  153
[50]  49(B13)  1  7  7  0  -1590.2 20460027.6 -0.0  1 0  108  280  389
[51]  62(B26)  1  7  7  0  -2562.1 20460052.5 -0.1  1 0  407  536  339
set_rangeHR meas:6
set_rangeHR pvmdl_kf.k_dim:6
There are 6 meas!
There are 6 numSvUsed
Refix G06: 2, 206152.914691, -4804
Refix G13: 2, 206152.916177, -273
Refix G17: 2, 206152.925292, -2316
Refix G19: 2, 206152.919761, -3534
Refix G28: 2, 206152.927778, -2835
Refix G30: 2, 206152.930948, -55
$GNGGA,091535.000,2944.9243,N,10633.0511,E,1,06,2.3,374.9,M,,,,0000*11
$GNRMC,091535.000,A,2944.9243,N,10633.0511,E,1.10,0.00,090419,,*16
$GPGSA,A,3,06,13,17,19,28,30,,,,,,,2.9,2.3,1.8*32
$BDGSA,A,3,,,,,,,,,,,,,2.9,2.3,1.8*20
$GLGSA,A,3,,,,,,,,,,,,,2.9,2.3,1.8*2D
$GPGSV,2,1,08,04,00,000,35,06,00,211,38,13,05,289,44,17,37,276,44*7A
$GPGSV,2,2,08,19,16,259,42,28,50,333,41,30,61,231,43,07,00,000,36*7E
$BDGSV,2,1,05,05,00,000,43,12,00,000,39,13,00,000,41,26,00,000,45*67
$BDGSV,2,2,05,07,66,087,00*55
$B3CN0,0,0,0,0,0,0,0,0,0,0,0,0,0,0*4C
---00000036--- Acq_st=7 0  2019-4-9 9:15:35 
[00]  03(G04)  f 34  7  0    907.6  2045998.8  0.0  2 0  412  901  485
[01]  05(G06)  f 37  7  0  -4803.5  2046006.2  0.5  2 0  930 1458  976
[02]  12(G13)  f 44  7  0   -269.9  2046000.3 -0.0  2 0 2100 3146 1056
[03]  16(G17)  f 44 11  0  -2314.7  2046002.9  0.0  2 0 2170 2776 1344
[04]  18(G19)  f 42  7  0  -3531.1  2046004.6 -0.0  2 0  855 1573  813
[05]  27(G28)  f 41  7  0  -2832.2  2046003.6  0.1  2 0 1651 1676  444
[06]  29(G30)  f 43  8  0    -53.7  2046000.0 -0.0  2 0 1375 2131  980
[08]  06(G07)  f 35  7  0   1856.7  2045997.5  0.5  2 0  768 1143  973
[16]  41(B05) 1f 41 26  0  -1118.3  4092002.8 -0.2  2 0 1230 1369  411
[17]  48(B12) 1f 39  7  0  -3287.8  4092008.5 -0.1  2 0  914  922  238
[18]  49(B13) 1f 41  9  0  -1754.3  4092004.5  0.0  2 0 1172  964  399
[19]  62(B26) 1f 44  7  0  -3188.0  4092008.2  0.1  2 0 2341 2727 1067
[32]  82(N01)  f 34  7  0  -4916.8  1022003.1  0.0  5 0   276  626  531
[33]  84(N03) 8f 37  7  0  -2383.7  1022001.5 -0.1  2 0   496  918  466
[51]  62(B26)  1  7  8  0  -3065.3 20460049.0 -0.0  1 0  213  517  166
set_rangeHR meas:6
set_rangeHR pvmdl_kf.k_dim:6
There are 6 meas!
There are 6 numSvUsed
dt = 0.000004 pvt.b = -1191.268039
Refix G06: 2, 206153.914694, -4800
Refix G13: 2, 206153.916177, -270
Refix G17: 2, 206153.925294, -2313
Refix G19: 2, 206153.919763, -3530
Refix G28: 2, 206153.927780, -2833
Refix G30: 2, 206153.930948, -50
$GNGGA,091536.000,2944.9227,N,10633.0496,E,1,06,2.3,375.1,M,,,,0000*17
$GNRMC,091536.000,A,2944.9227,N,10633.0496,E,1.59,0.00,090419,,*14
$GPGSA,A,3,06,13,17,19,28,30,,,,,,,2.9,2.3,1.8*32
$BDGSA,A,3,,,,,,,,,,,,,2.9,2.3,1.8*20
$GLGSA,A,3,,,,,,,,,,,,,2.9,2.3,1.8*2D
$GPGSV,2,1,08,04,00,000,34,06,00,211,37,13,05,289,44,17,37,276,44*74
$GPGSV,2,2,08,19,16,259,42,28,50,333,41,30,61,231,43,07,00,000,35*7D
$BDGSV,2,1,05,05,00,000,41,12,00,000,39,13,00,000,41,26,00,000,44*64
$BDGSV,2,2,05,07,66,087,00*55
$B3CN0,0,0,0,0,0,0,0,0,0,0,0,0,0,0*4C
---00000037--- Acq_st=7 0  2019-4-9 9:15:36 
[00]  03(G04)  f 35  7  0    914.2  2045998.8 -0.1  2 0  958 1171  288
[01]  05(G06)  f 39  7  0  -4795.7  2046006.2 -0.1  2 0 1195 1745 1143
[02]  12(G13)  f 44  7  0   -272.9  2046000.3 -0.0  2 0 1443 2518 1169
[03]  16(G17)  f 45  8  0  -2315.5  2046002.9  0.0  2 0 2345 3385 1629
[04]  18(G19)  f 42  7  0  -3532.0  2046004.5  0.1  2 0 1103 2194  962
[05]  27(G28)  f 42  7  0  -2836.3  2046003.6 -0.1  2 0 1103 1575  125
[06]  29(G30)  f 43  7  0    -50.6  2046000.0  0.0  2 0 1367 2083  929
[08]  06(G07)  f 37  7  0   1857.9  2045997.5 -0.1  2 0  651 1222  680
[16]  41(B05) 1f 42 20  0  -1115.8  4092002.8 -0.3  2 0  722 1134  683
[17]  48(B12) 1f 39  7  0  -3292.8  4092008.4  0.1  2 0  874 1323  576
[18]  49(B13) 1f 41  9  0  -1751.4  4092004.5 -0.0  2 0 1056 1385  708
[19]  62(B26) 1f 45  7  0  -3187.4  4092008.2 -0.0  2 0 2316 2874 1156
[32]  82(N01)  f 34  7  0  -4915.4  1022003.2 -0.1  5 0   512  490  249
[33]  84(N03) 8f 37  7  0  -2385.2  1022001.5  0.0  2 0   450  572   82
[48]  41(B05)  1 24 25  1   -528.5 20460021.9 -0.1  1 0  522  199  422
[49]  48(B12)  1  8  7  0  -2797.1 20460053.2 -0.0  1 0  432  429  701
[50]  49(B13)  1  7  7  0  -1421.0 20460028.4 -0.0  1 0  461  292  197
[51]  62(B26)  1  7  7  0  -3066.5 20460051.8  0.1  1 0  332  473  341
set_rangeHR meas:6
set_rangeHR pvmdl_kf.k_dim:6
There are 6 meas!
There are 6 numSvUsed
dt = 0.000004 pvt.b = -1397.742286
Refix G06: 2, 206154.914697, -4800
Refix G13: 2, 206154.916177, -270
Refix G17: 2, 206154.925295, -2313
Refix G19: 2, 206154.919765, -3530
Refix G28: 2, 206154.927782, -2834
Refix G30: 2, 206154.930948, -50
$GNGGA,091537.000,2944.9217,N,10633.0484,E,1,06,2.3,375.4,M,,,,0000*13
$GNRMC,091537.000,A,2944.9217,N,10633.0484,E,1.65,0.00,090419,,*1A
$GPGSA,A,3,06,13,17,19,28,30,,,,,,,2.9,2.3,1.8*32
$BDGSA,A,3,,,,,,,,,,,,,2.9,2.3,1.8*20
$GLGSA,A,3,,,,,,,,,,,,,2.9,2.3,1.8*2D
$GPGSV,2,1,08,04,00,000,35,06,00,211,39,13,05,289,44,17,37,276,45*7A
$GPGSV,2,2,08,19,16,259,42,28,50,333,42,30,61,231,43,07,00,000,37*7C
$BDGSV,2,1,05,05,00,000,42,12,00,000,39,13,00,000,41,26,00,000,45*66
$BDGSV,2,2,05,07,66,087,00*55
$B3CN0,0,0,0,0,0,0,0,0,0,0,0,0,0,0*4C
---00000038--- Acq_st=3 0  2019-4-9 9:15:37 
[00]  03(G04)  f 35  7  0    922.0  2045998.7  0.1  2 0  516  600  463
[01]  05(G06)  f 40  8  0  -4801.9  2046006.1 -0.0  2 0 1039 1516  651
[02]  12(G13)  f 44  7  0   -270.2  2046000.3  0.0  2 0 1563 2791 1313
[03]  16(G17)  f 44  7  0  -2313.3  2046002.9 -0.1  2 0 2411 2882 1213
[04]  18(G19)  f 43  7  0  -3534.5  2046004.5  0.0  2 0 1633 2670 1294
[05]  27(G28)  f 42  7  0  -2835.9  2046003.6  0.1  2 0 1071 1417  318
[06]  29(G30)  f 43  9  0    -48.0  2046000.0  0.0  2 0 1291 1993  662
[08]  06(G07)  f 38  7  0   1859.9  2045997.5  0.3  2 0  860 1254  769
[16]  41(B05) 1f 42 24  0  -1116.7  4092002.9 -0.0  2 0 1198 1504  370
[17]  48(B12) 1f 39  7  0  -3288.0  4092008.5  0.0  2 0 1148 1100  502
[18]  49(B13) 1f 41  8  0  -1753.8  4092004.5  0.1  2 0 1218 1433  518
[19]  62(B26) 1f 45  7  0  -3189.6  4092008.3  0.0  2 0 2359 3260 1292
[32]  82(N01)  f 34  7  0  -4916.1  1022003.1 -0.1  5 0   477  601  455
[33]  84(N03) 8f 37  7  0  -2383.0  1022001.5 -0.3  2 0   451  756  339
[48]  41(B05)  1 21 18  1   -569.8 20460018.6  0.0  1 0  369  456  677
[49]  48(B12)  1  7  7  0  -2867.3 20460052.6  0.0  1 0  409  280   84
[50]  49(B13)  1  7  7  0  -1358.4 20460026.9  0.0  1 0  313  517  195
[51]  62(B26)  1  7  7  0  -3297.3 20460049.9 -0.1  1 0  358  232  225
set_rangeHR meas:6
set_rangeHR pvmdl_kf.k_dim:6
There are 6 meas!
There are 6 numSvUsed
dt = 0.000005 pvt.b = -1604.276617
Refix G06: 2, 206155.914700, -4800
Refix G13: 2, 206155.916177, -270
Refix G17: 2, 206155.925297, -2314
Refix G19: 2, 206155.919767, -3531
Refix G28: 2, 206155.927783, -2835
Refix G30: 2, 206155.930948, -51
$GNGGA,091538.000,2944.9212,N,10633.0474,E,1,06,2.3,376.2,M,,,,0000*13
$GNRMC,091538.000,A,2944.9212,N,10633.0474,E,1.31,0.00,090419,,*1E
$GPGSA,A,3,06,13,17,19,28,30,,,,,,,2.9,2.3,1.8*32
$BDGSA,A,3,,,,,,,,,,,,,2.9,2.3,1.8*20
$GLGSA,A,3,,,,,,,,,,,,,2.9,2.3,1.8*2D
$GPGSV,2,1,08,04,00,000,35,06,00,211,40,13,05,289,44,17,37,276,44*75
$GPGSV,2,2,08,19,16,259,43,28,50,333,42,30,61,231,43,07,00,000,38*72
$BDGSV,2,1,05,05,00,000,42,12,00,000,39,13,00,000,41,26,00,000,45*66
$BDGSV,2,2,05,07,66,087,00*55
$B3CN0,0,0,0,0,0,0,0,0,0,0,0,0,0,0*4C
---00000039--- Acq_st=3 0  2019-4-9 9:15:38 
[00]  03(G04)  f 33  7  0    909.1  2045998.8  0.1  2 0  485  732  530
[01]  05(G06)  f 41  7  0  -4803.7  2046006.2 -0.1  2 0 1255 1497  807
[02]  12(G13)  f 44  7  0   -273.1  2046000.3  0.0  2 0 1822 2741 1063
[03]  16(G17)  f 44  7  0  -2313.0  2046002.9  0.0  2 0 1433 2654 1327
[04]  18(G19)  f 44  7  0  -3533.7  2046004.5  0.0  2 0 2261 2988 1184
[05]  27(G28)  f 42 11  0  -2836.1  2046003.6 -0.0  2 0 1138 1671  737
[06]  29(G30)  f 42  7  0    -51.2  2046000.0 -0.0  2 0 1272 1936  566
[08]  06(G07)  f 38  7  0   1859.0  2045997.5  0.1  2 0 1506 1600  558
[16]  41(B05) 1f 42 22  0  -1119.8  4092002.8 -0.3  2 0 1123 1520  846
[17]  48(B12) 1f 39  7  0  -3289.0  4092008.5  0.1  2 0  636  876  364
[18]  49(B13) 1f 41  7  0  -1755.0  4092004.5 -0.1  2 0 1371 1398  380
[19]  62(B26) 1f 44  7  0  -3188.0  4092008.2  0.0  2 0 1971 2958 1725
[32]  82(N01)  f 35  7  0  -4918.7  1022003.0 -0.0  2 0   522  707  426
[33]  84(N03) 8f 37  7  0  -2384.6  1022001.4 -0.2  2 0   325  648  237
[48]  41(B05)  1 23 20  0   -764.4 20460019.1  0.0  1 0  513   55  219
[49]  48(B12)  1  7  7  0  -3006.6 20460054.4 -0.0  1 0  459  638  210
[50]  49(B13)  1  7  7  0  -1033.1 20460028.0 -0.1  1 0  655  780  438
set_rangeHR meas:6
set_rangeHR pvmdl_kf.k_dim:6
There are 6 meas!
There are 6 numSvUsed
dt = 0.000006 pvt.b = -1811.352413
Refix G06: 2, 206156.914703, -4800
Refix G13: 2, 206156.916178, -270
Refix G17: 2, 206156.925298, -2314
Refix G19: 2, 206156.919770, -3531
Refix G28: 2, 206156.927785, -2835
Refix G30: 2, 206156.930948, -51
$GNGGA,091539.000,2944.9208,N,10633.0471,E,1,06,2.3,377.3,M,,,,0000*1C
$GNRMC,091539.000,A,2944.9208,N,10633.0471,E,1.11,0.00,090419,,*13
$GPGSA,A,3,06,13,17,19,28,30,,,,,,,2.9,2.3,1.8*32
$BDGSA,A,3,,,,,,,,,,,,,2.9,2.3,1.8*20
$GLGSA,A,3,,,,,,,,,,,,,2.9,2.3,1.8*2D
$GPGSV,2,1,08,04,00,000,33,06,00,211,41,13,05,289,44,17,37,276,44*72
$GPGSV,2,2,08,19,16,259,44,28,50,333,42,30,61,231,42,07,00,000,38*74
$BDGSV,2,1,05,05,00,000,41,12,00,000,39,13,00,000,41,26,00,000,44*64
$BDGSV,2,2,05,07,66,087,00*55
$B3CN0,0,0,0,0,0,0,0,0,0,0,0,0,0,0*4C
$GLGSV,1,1,01,18,00,000,37*59
---00000040--- Acq_st=3 0  2019-4-9 9:15:39 
[00]  03(G04)  f 32  9  0    918.1  2045998.7 -0.2  5 0  399  885  321
[01]  05(G06)  f 40  7  0  -4802.9  2046006.2  0.0  2 0  640 1554 1133
[02]  12(G13)  f 44  7  0   -271.6  2046000.3 -0.0  2 0 2050 3485 1425
[03]  16(G17)  f 44  7  0  -2315.5  2046002.9  0.0  2 0 2087 3133 1441
[04]  18(G19)  f 44  8  0  -3532.4  2046004.5 -0.0  2 0 2534 3528 1836
[05]  27(G28)  f 42  8  0  -2834.5  2046003.6 -0.1  2 0 1035 2093  718
[06]  29(G30)  f 41  7  0    -55.2  2046000.1  0.0  2 0 1261 2030  690
[08]  06(G07)  f 38  7  0   1853.8  2045997.5  0.1  2 0  740 1220 1192
[16]  41(B05) 1f 43 27  0  -1116.2  4092002.9  0.1  2 0 1203 1694  765
[17]  48(B12) 1f 39  7  0  -3292.4  4092008.4 -0.2  2 0 1278 1198  556
[18]  49(B13) 1f 41  7  0  -1751.1  4092004.5 -0.1  2 0 1137 1324  416
[19]  62(B26) 1f 44  7  0  -3189.5  4092008.2  0.0  2 0 2126 2632  877
[32]  82(N01)  f 34  7  0  -4916.5  1022003.1 -0.0  2 0   477  763  500
[33]  84(N03) 8f 37  7  0  -2383.3  1022001.5 -0.0  2 0   407  504  295
[48]  41(B05)  1 26 24  0   -741.4 20460022.7 -0.1  1 0  525  409  629
[49]  48(B12)  1  7  9  0  -2568.7 20460053.7  0.1  1 0  502  458  316
