i=1
Rf R0 Config = ff777073
Rf R1 Config = 00dffbfe
Rf R52 Config = 00dfeec0
i=2
Rf R0 Config = 007770f3
Rf R1 Config = 00dffbfe
Rf R52 Config = 00d9ce70
i=3
Rf R0 Config = 007772f3
Rf R1 Config = 00dffbfe
Rf R52 Config = 00de6e50
i=4
Rf R0 Config = 00777273
Rf R1 Config = 00df3bfe
Rf R52 Config = 00de4e60
SD initialized success
Create debug.log Failed! 3
Start Channel by LuYu
$GNGGA,000000.000,,,,,0,00,,,M,,,,0000*2B
$GNRMC,000000.000,A,,,,,,,060180,,*29
$GPGSA,A,1,,,,,,,,,,,,,,,*1E
$BDGSA,A,1,,,,,,,,,,,,,,,*0F
$GLGSA,A,1,,,,,,,,,,,,,,,*02
$B3CN0,0,0,0,0,0,0,0,0,0,0,0,0,0,0*4C
---00000001--- Acq_st=3 0  2000-1-1 0:1:11 
[00]  01(G02)  1  7  7  0   8390.7  2045988.5 -0.1  1 0  416  170  341
[01]  03(G04)  1 19  7  0  -2119.2  2046004.8 -0.1  1 0  344 1934 2163
[02]  06(G07)  1  7  7  0  -4000.0  2046008.0  0.0  1 0 1141 3284 4402
[03]  08(G09)  1  7  7  0  -1000.0  2046003.8  0.0  1 0  577 2627 3495
$GNGGA,000000.000,,,,,0,00,,,M,,,,0000*2B
$GNRMC,000000.000,A,,,,,,,060180,,*29
$GPGSA,A,1,,,,,,,,,,,,,,,*1E
$BDGSA,A,1,,,,,,,,,,,,,,,*0F
$GLGSA,A,1,,,,,,,,,,,,,,,*02
$B3CN0,0,0,0,0,0,0,0,0,0,0,0,0,0,0*4C
---00000002--- Acq_st=3 0  2000-1-1 0:1:12 
[00]  01(G02)  1  7  7  0   7876.4  2045988.7 -0.2  1 0  639  476  185
[01]  03(G04)  7 14  7  0  -2119.2  2046002.6  1.0 10 0 1081 1465  611
[02]  06(G07)  1 35  7  0  -3895.5  2046005.0  1.0  1 0 3454 3962 1686
[03]  08(G09)  1 29  7  0   -900.2  2046001.0  0.8  1 0 2684 2999 1358
[04]  17(G18)  1  7  7  0  -2272.1  2046002.9  0.0  1 0  106  110  362
[05]  22(G23)  1  7  7  0   1000.0  2046000.3  0.0  1 0 1007 2126 1521
$GNGGA,000000.000,,,,,0,00,,,M,,,,0000*2B
$GNRMC,000000.000,A,,,,,,,060180,,*29
$GPGSA,A,1,,,,,,,,,,,,,,,*1E
$BDGSA,A,1,,,,,,,,,,,,,,,*0F
$GLGSA,A,1,,,,,,,,,,,,,,,*02
$B3CN0,0,0,0,0,0,0,0,0,0,0,0,0,0,0*4C
---00000003--- Acq_st=3 0  2000-1-1 0:1:13 
[00]  01(G02)  1  7  7  0   7570.5  2045989.1  0.1  1 0  471  450  519
[01]  03(G04)  7 43  7  0  -2116.1  2046002.7 -0.0  2 0 1343 1814  820
[02]  06(G07)  7 36  7  0  -3894.9  2046004.9  0.1  2 0 2782 3040 1502
[03]  08(G09)  7 33  7  0   -900.1  2046001.1  0.3  5 0 2414 3740 1856
[04]  17(G18)  1 10  7  0  -2993.8  2046003.1 -0.2  1 0  461  370  249
[05]  22(G23)  1 31 12  0    895.4  2045998.7  0.7  1 0 1574 2430 1231
[06]  29(G30)  1  7  7  0  -4799.4  2046006.9  0.0  1 0  104  281  298
[16]  38(B02)  1 28 10  0  -1250.0  4092004.7 -0.0  1 0  400  917  779
$GNGGA,055401.658,,,,,0,00,,,M,,,,0000*25
$GNRMC,055401.658,A,,,,,,,080180,,*29
$GPGSA,A,1,,,,,,,,,,,,,,,*1E
$BDGSA,A,1,,,,,,,,,,,,,,,*0F
$GLGSA,A,1,,,,,,,,,,,,,,,*02
$GPGSV,1,1,03,04,00,000,43,07,00,000,36,09,00,000,33*42
$B3CN0,0,0,0,0,0,0,0,0,0,0,0,0,0,0*4C
---00000004--- Acq_st=3 0  2000-1-1 0:1:14 
[00]  01(G02)  1 11  7  0   7985.2  2045989.1 -0.0  1 0  361   88  166
[01]  03(G04)  f 42  7  0  -2115.4  2046002.7 -0.0  2 0 1231 2282 1330
[02]  06(G07)  f 45  7  0  -3893.1  2046005.0 -0.0  2 0 2213 2802 1435
[03]  08(G09)  f 45  7  0   -894.8  2046001.1 -0.0  2 0 2086 2701  962
[04]  17(G18)  1  7  7  0  -2390.5  2046003.4 -0.1  1 0  474  367  183
[05]  22(G23)  7 31  7  0    898.0  2045998.8  0.3  5 0  582 1841  782
[06]  29(G30)  1  7  7  0  -4771.8  2046006.4 -0.0  1 0  673  831  297
[16]  38(B02)  1 37 26  0  -1097.7  4092002.8  0.9  1 0  738  815  200
[17]  42(B06)  1  7  7  0    574.4  4092000.0 -0.1  1 0  478  503  539
$GNGGA,055402.658,,,,,0,00,,,M,,,,0000*26
$GNRMC,055402.658,A,,,,,,,080180,,*2A
$GPGSA,A,1,,,,,,,,,,,,,,,*1E
$BDGSA,A,1,,,,,,,,,,,,,,,*0F
$GLGSA,A,1,,,,,,,,,,,,,,,*02
$GPGSV,1,1,04,04,00,000,42,07,00,000,45,09,00,000,45,23,00,000,31*72
$B3CN0,0,0,0,0,0,0,0,0,0,0,0,0,0,0*4C
---00000005--- Acq_st=3 0  2000-1-1 0:1:15 
[01]  03(G04)  f 42  7  0  -2118.6  2046002.6 -0.0  2 0 1078 1553  741
[02]  06(G07)  f 44  7  0  -3890.3  2046005.0  0.0  2 0 2214 2922 1522
[03]  08(G09)  f 44  7  0   -893.5  2046001.1  0.0  2 0 2009 3249 1324
[04]  17(G18)  1  7  7  0  -2417.9  2046003.3  0.0  1 0  201  237  294
[05]  22(G23)  7 43  7  0    904.0  2045998.8  0.1  2 0  892 1770  647
[06]  29(G30)  1  7  7  0  -4763.5  2046005.3  0.1  1 0  485  337  141
[16]  38(B02)  f 37 24  0  -1099.2  4092002.8 -0.0  2 0  562  935  687
[17]  42(B06)  1  7  7  0    562.7  4091998.3 -0.0  1 0  537  806  223
$GNGGA,055403.658,,,,,0,00,,,M,,,,0000*27
$GNRMC,055403.658,A,,,,,,,080180,,*2B
$GPGSA,A,1,,,,,,,,,,,,,,,*1E
$BDGSA,A,1,,,,,,,,,,,,,,,*0F
$GLGSA,A,1,,,,,,,,,,,,,,,*02
$GPGSV,1,1,04,04,00,000,42,07,00,000,44,09,00,000,44,23,00,000,43*77
$BDGSV,1,1,01,02,00,000,37*5F
$B3CN0,0,0,0,0,0,0,0,0,0,0,0,0,0,0*4C
---00000006--- Acq_st=3 0  2000-1-1 0:1:16 
[01]  03(G04)  f 42 11  0  -2111.5  2046002.7  0.1  2 0 1447 1544  793
[02]  06(G07)  f 44  7  0  -3891.9  2046005.0  0.0  2 0 1531 2693 1431
[03]  08(G09)  f 44  7  0   -893.5  2046001.1  0.0  2 0 2363 3074 1375
[05]  22(G23)  7 43  7  0    903.9  2045998.8 -0.0  2 0 1176 1684  542
[06]  29(G30)  1  7  7  0  -4775.3  2046005.3 -0.0  1 0  347  709  163
[16]  38(B02)  f 37 27  0  -1098.4  4092002.6 -0.7  2 0  890  951  416
[17]  42(B06)  7 33  7  0    562.2  4091998.4  0.1  5 0  450  187  314
[18]  52(B16)  1  7  8  0    660.4  4091998.5  0.1  1 0  769  431  256
[19]  55(B19)  1  7  7  0   1000.0  4091998.5 -0.1  1 0  625 1090  461
[20]  57(B21)  1  7  7  0   -750.0  4092001.8  0.0  1 0  609 1477 1465
[21]  58(B22)  1  7  7  0    750.0  4091997.3 -0.0  1 0 1818 1657  588
[48]  38(B02)  1 10 10  0   -846.8 20460018.6 -0.1  1 0  570 1121  931
$GNGGA,055404.658,,,,,0,00,,,M,,,,0000*20
$GNRMC,055404.658,A,,,,,,,080180,,*2C
$GPGSA,A,1,,,,,,,,,,,,,,,*1E
$BDGSA,A,1,,,,,,,,,,,,,,,*0F
$GLGSA,A,1,,,,,,,,,,,,,,,*02
$GPGSV,1,1,04,04,00,000,42,07,00,000,44,09,00,000,44,23,00,000,43*77
$BDGSV,1,1,02,02,00,000,37,06,00,000,33*6A
$B3CN0,0,0,0,0,0,0,0,0,0,0,0,0,0,0*4C
---00000007--- Acq_st=3 0  2000-1-1 0:1:17 
[01]  03(G04)  f 42  7  0  -2109.2  2046002.7  0.0  2 0  962 2073 1327
[02]  06(G07)  f 44  7  0  -3886.8  2046005.0 -0.0  2 0 1505 2218 1447
[03]  08(G09)  f 44  7  0   -889.7  2046001.1  0.0  2 0 2383 3599 2051
[05]  22(G23)  7 42  7  0    908.6  2045998.8 -0.0  2 0  841 1575  829
[16]  38(B02)  f 38 27  0  -1092.9  4092002.7 -0.5  2 0  931  797  495
[17]  42(B06)  7 34  7  0    557.8  4091998.4 -0.0  5 0  715  610  168
[18]  52(B16)  7 24  7  0    667.8  4091998.0  0.1 10 0  723  625  364
[19]  55(B19)  1  7  8  0   1084.0  4091996.7  0.3  1 0 1028 1691 1163
[20]  57(B21)  1  7  8  0   -631.3  4092001.9  0.2  1 0 1071 1693  677
[21]  58(B22)  1  7 13  0    833.3  4091997.2  0.2  1 0 1692 2330 1071
[48]  38(B02)  1 10 10  1  -1249.7 20460022.6 -0.1  1 0  242  381  398
$GNGGA,055405.658,,,,,0,00,,,M,,,,0000*21
$GNRMC,055405.658,A,,,,,,,080180,,*2D
$GPGSA,A,1,,,,,,,,,,,,,,,*1E
$BDGSA,A,1,,,,,,,,,,,,,,,*0F
$GLGSA,A,1,,,,,,,,,,,,,,,*02
$GPGSV,1,1,04,04,00,000,42,07,00,000,44,09,00,000,44,23,00,000,42*76
$BDGSV,1,1,03,02,00,000,38,06,00,000,34,16,00,000,24*52
$B3CN0,0,0,0,0,0,0,0,0,0,0,0,0,0,0*4C
---00000008--- Acq_st=3 0  2000-1-1 0:1:18 
[01]  03(G04)  f 42  7  0  -2110.1  2046002.7 -0.0  2 0 1607 2135  617
[02]  06(G07)  f 43  7  0  -3891.9  2046005.0 -0.0  2 0 2003 2816 1390
[03]  08(G09)  f 44  7  0   -891.2  2046001.1 -0.0  2 0 2365 3565 1484
[05]  22(G23)  7 43  7  0    905.5  2045998.8  0.0  2 0 1485 2137 1188
[16]  38(B02)  f 37 24  0  -1092.0  4092002.7 -0.3  2 0  933  831  319
[17]  42(B06)  7 34  7  0    563.5  4091998.4  0.0  5 0  527  561  400
[18]  52(B16)  7 36 13  0    659.5  4091998.0 -0.2  2 0  619  602  318
[19]  55(B19)  7 34  7  0   1087.3  4091997.0  0.1  5 0  743 1496  693
[20]  57(B21)  7 30  7  0   -631.1  4092001.6  0.2  5 0  758 1394  875
[21]  58(B22)  7 28  7  0    833.7  4091997.8  0.1 10 0 1335 2077 1370
[22]  65(B29)  1 10  7  0  -3843.7  4092009.6  0.2  1 0  848 1416 1084
[32]  75(N-6)  1  7 22  0      0.0  1022000.7 -0.1  1 0   130  674  393
[33]  76(N-5)  1  7  7  0   2000.0  1022001.2 -0.1  1 0   229  520 1120
[34]  77(N-4)  1  7  7  0  -5499.8  1022004.8 -0.1  1 0   350   61  814
[48]  38(B02)  1 10 18  1  -1169.4 20460023.6 -0.1  1 0  235   88  533
$GNGGA,055406.658,,,,,0,00,,,M,,,,0000*22
$GNRMC,055406.658,A,,,,,,,080180,,*2E
$GPGSA,A,1,,,,,,,,,,,,,,,*1E
$BDGSA,A,1,,,,,,,,,,,,,,,*0F
$GLGSA,A,1,,,,,,,,,,,,,,,*02
$GPGSV,1,1,04,04,00,000,42,07,00,000,43,09,00,000,44,23,00,000,43*70
$BDGSV,2,1,06,02,00,000,37,06,00,000,34,16,00,000,36,19,00,000,34*67
$BDGSV,2,2,06,21,00,000,30,22,00,000,28*64
$B3CN0,0,0,0,0,0,0,0,0,0,0,0,0,0,0*4C
---00000009--- Acq_st=7 0  2000-1-1 0:1:19 
[01]  03(G04)  f 42  7  0  -2110.5  2046002.7 -0.0  2 0 1202 1761 1022
[02]  06(G07)  f 44  7  0  -3891.8  2046005.0  0.0  2 0 1757 2977 1423
[03]  08(G09)  f 44  7  0   -889.1  2046001.1  0.0  2 0 2097 3367 1480
[05]  22(G23)  7 43  7  0    907.4  2045998.7  0.0  2 0 1355 1807  375
[16]  38(B02) 1f 38 25  0  -1090.4  4092002.9  0.3  2 0  598  902  472
[17]  42(B06)  7 34  7  0    559.4  4091998.3 -0.1  5 0  669  745  325
[18]  52(B16)  7 36  8  0    670.5  4091998.1  0.2  2 0  688  350  137
[19]  55(B19)  7 41 12  0   1087.8  4091997.0  0.0  2 0  959 1281  260
[20]  57(B21)  7 42  7  0   -626.8  4092001.5 -0.0  2 0 1057 1878  867
[21]  58(B22)  7 44  7  0    835.6  4091997.8  0.0  2 0 1365 2176 1085
[22]  65(B29)  7 26  7  0  -3838.5  4092010.1  0.4 10 0 1053 1588  867
[32]  75(N-6)  1 24  8  0   -147.6  1022000.1  0.9  1 0   816 1181  532
[33]  76(N-5)  1 26 21  0   2174.8  1021998.9  0.9  1 0   675  760  567
[34]  77(N-4)  1 26 24  0  -5624.8  1022003.8  0.9  1 0   801 1194  843
[35]  80(N-1)  1 23 25  0  -2800.6  1022002.3  0.1  1 0   229  912  574
[48]  38(B02)  1 17 13  1  -1270.4 20460017.8 -0.1  1 0  297  998  875
$GNGGA,055407.658,,,,,0,00,,,M,,,,0000*23
$GNRMC,055407.658,A,,,,,,,080180,,*2F
$GPGSA,A,1,,,,,,,,,,,,,,,*1E
$BDGSA,A,1,,,,,,,,,,,,,,,*0F
$GLGSA,A,1,,,,,,,,,,,,,,,*02
$GPGSV,1,1,04,04,00,000,42,07,00,000,44,09,00,000,44,23,00,000,43*77
$BDGSV,2,1,07,02,00,000,38,06,00,000,34,16,00,000,36,19,00,000,41*6B
$BDGSV,2,2,07,21,00,000,42,22,00,000,44,29,00,000,25*56
$B3CN0,0,0,0,0,0,0,0,0,0,0,0,0,0,0*4C
---00000010--- Acq_st=7 0  2000-1-1 0:1:20 
[01]  03(G04)  f 41 10  0  -2107.4  2046002.6 -0.0  2 0  940 1880 1009
[02]  06(G07)  f 44  7  0  -3888.6  2046005.0  0.0  2 0 1909 2767 1458
[03]  08(G09)  f 45  7  0   -890.7  2046001.1 -0.0  2 0 1941 3561 1709
[05]  22(G23)  f 43  7  0    909.8  2045998.8 -0.0  2 0 1304 2136  874
[16]  38(B02) 1f 38 27  0  -1088.2  4092002.7 -0.8  2 0  951  790  429
[17]  42(B06)  7 33  7  0    566.0  4091998.4 -0.0  5 0  409  434  438
[18]  52(B16)  7 36 12  0    658.5  4091998.1  0.2  2 0  458  381  176
[19]  55(B19)  7 41  7  0   1085.4  4091997.1  0.1  2 0 1042 1445  379
[20]  57(B21)  7 41  7  0   -629.9  4092001.5 -0.0  2 0  749 1361  625
[21]  58(B22)  7 44  7  0    834.4  4091997.8 -0.0  2 0 1616 2645 1322
[22]  65(B29)  7 42  7  0  -3839.3  4092010.0 -0.1  2 0 1243 1575 1442
[32]  75(N-6)  7 41 10  0   -148.2  1022000.1 -0.4  2 0  1176 1046  560
[33]  76(N-5)  1 24 21  0   2174.0  1021998.0  0.9  1 0   703  695  138
[34]  77(N-4)  1 25 25  0  -5626.8  1022003.9  0.9  1 0   833  911  296
[35]  80(N-1)  1 21 23  0  -2801.4  1022002.1  0.1  1 0   483  941  441
[48]  38(B02)  7 10 10  0  -1540.6 20460023.5 -0.1  2 0  299  425  298
$GNGGA,055408.658,,,,,0,00,,,M,,,,0000*2C
$GNRMC,055408.658,A,,,,,,,080180,,*20
$GPGSA,A,1,,,,,,,,,,,,,,,*1E
$BDGSA,A,1,,,,,,,,,,,,,,,*0F
$GLGSA,A,1,,,,,,,,,,,,,,,*02
$GPGSV,1,1,04,04,00,000,42,07,00,000,44,09,00,000,45,23,00,000,43*76
$BDGSV,2,1,07,02,00,000,38,06,00,000,33,16,00,000,36,19,00,000,41*6C
$BDGSV,2,2,07,21,00,000,41,22,00,000,44,29,00,000,42*54
$B3CN0,0,0,0,0,0,0,0,0,0,0,0,0,0,0*4C
---00000011--- Acq_st=3 0  2000-1-1 0:1:21 
[00]  10(G11)  1  7  7  0  -4500.0  2046005.2 -0.1  1 0  297  479  688
[01]  03(G04)  f 42  7  0  -2107.2  2046002.6  0.0  2 0 1154 1550  398
[02]  06(G07)  f 45  7  0  -3890.9  2046005.0  0.0  2 0 2198 2939 1361
[03]  08(G09)  f 45  7  0   -889.7  2046001.1  0.0  2 0 2136 3274 1276
[05]  22(G23)  f 43  7  0    910.4  2045998.7 -0.0  2 0 1210 2343 1182
[16]  38(B02) 1f 37 23  0  -1091.3  4092002.6 -0.4  2 0  554  731  152
[17]  42(B06)  7 33  7  0    566.4  4091998.4  0.0  5 0  301  794  588
[18]  52(B16)  7 36  7  0    673.5  4091998.1 -0.4  2 0  585  915  587
[19]  55(B19)  7 41  7  0   1086.6  4091997.0  0.0  2 0 1396 1618  802
[20]  57(B21)  7 41  7  0   -627.2  4092001.5 -0.0  2 0 1201 1464  553
[21]  58(B22)  7 44  7  0    836.9  4091997.7  0.0  2 0 1580 2082  921
[22]  65(B29)  7 42  7  0  -3838.1  4092010.0  0.0  2 0 1243 1568  706
[32]  75(N-6)  7 41  7  0   -148.4  1022000.1 -0.0  2 0   583 1422  630
[33]  76(N-5)  1 25 22  0   2175.0  1021998.5  1.0  1 0   715 1186  435
[34]  77(N-4)  1 25 24  0  -5625.3  1022003.3  0.9  1 0   431  910  399
[35]  80(N-1)  7 29 17  0  -2799.4  1022001.7  0.6  5 0   533  841  374
[48]  38(B02)  7 19 19  1  -1914.9 20460029.8  0.1  2 0  649  220  155
$GNGGA,055409.658,,,,,0,00,,,M,,,,0000*2D
$GNRMC,055409.658,A,,,,,,,080180,,*21
$GPGSA,A,1,,,,,,,,,,,,,,,*1E
$BDGSA,A,1,,,,,,,,,,,,,,,*0F
$GLGSA,A,1,,,,,,,,,,,,,,,*02
$GPGSV,1,1,04,04,00,000,42,07,00,000,45,09,00,000,45,23,00,000,43*77
$BDGSV,2,1,07,02,00,000,37,06,00,000,33,16,00,000,36,19,00,000,41*63
$BDGSV,2,2,07,21,00,000,41,22,00,000,44,29,00,000,42*54
$B3CN0,0,18,0,0,0,0,0,0,0,0,0,0,0,0*75
---00000012--- Acq_st=3 0  2000-1-1 0:1:22 
[00]  10(G11)  1  7  7  0  -4495.0  2046005.3 -0.0  1 0  139  263  276
[01]  03(G04)  f 43  7  0  -2107.3  2046002.7 -0.1  2 0 1310 1952  910
[02]  06(G07)  f 45  8  0  -3887.1  2046005.0 -0.0  2 0 2303 3215 1229
[03]  08(G09)  f 45  7  0   -887.7  2046001.1 -0.1  2 0 2267 3214 1634
[05]  22(G23)  f 43  7  0    908.6  2045998.7  0.0  2 0 1360 2296 1111
[16]  38(B02) 1f 39 29  0  -1093.5  4092002.7  0.8  2 0  654 1055  195
[17]  42(B06) 1f 33  7  0    561.3  4091998.3 -0.0  5 0  412  419  467
[18]  52(B16) 1f 36 10  0    669.2  4091998.1 -0.6  2 0  220  471  356
[19]  55(B19) 1f 41  7  0   1085.8  4091997.0  0.0  2 0 1141 1510  479
[20]  57(B21) 1f 41  7  0   -627.7  4092001.6 -0.0  2 0 1124 1374  646
[21]  58(B22) 1f 43  7  0    837.1  4091997.7 -0.0  2 0 1327 2011  899
[22]  65(B29) 1f 42  7  0  -3840.0  4092010.0  0.0  2 0 1196 1625 1096
[32]  75(N-6)  7 41 13  0   -146.2  1022000.0 -0.5  2 0   560 1127  646
[33]  76(N-5)  1 23 22  0   2176.1  1021998.2  1.0  1 0   408 1150  773
[34]  77(N-4)  1 22 23  0  -5625.3  1022003.4  0.9  1 0   753  874  391
[35]  80(N-1)  7 40 24  0  -2799.2  1022001.7  0.5  2 0   475 1073  987
[48]  38(B02)  7 19 20  1  -2507.3 20460041.8 -0.1  2 0  612  170  541
---00000013--- Acq_st=3 0  2000-1-1 0:1:23 
[00]  10(G11)  1  7  7  0  -4292.4  2046005.3 -0.1  1 0  928  323  450
[01]  03(G04)  f 42  7  0  -2100.4  2046002.7  0.0  2 0 1419 1959  698
[02]  06(G07)  f 45  7  0  -3885.1  2046004.9 -0.0  2 0 2748 3770 1704
[03]  08(G09)  f 45  7  0   -882.5  2046001.1  0.0  2 0 1820 3390 1850
[04]  29(G30)  1 14  7  0  -4187.7  2046007.4 -0.0  1 0  171  284  911
[05]  22(G23)  f 44  7  0    912.8  2045998.7  0.1  2 0 1545 2328 1289
[16]  38(B02) 1f 39 24  0  -1092.1  4092002.7 -0.4  2 0  714  556  184
[17]  42(B06) 1f 33  7  0    570.4  4091998.4  0.1  5 0  319  731  704
[18]  52(B16) 1f 37  7  0    672.6  4091998.1  0.0  2 0  573  767  282
[19]  55(B19) 1f 41 10  0   1091.5  4091997.0  0.0  2 0 1380 1744  612
[20]  57(B21) 1f 42  7  0   -625.1  4092001.5  0.1  2 0 1388 1560  696
[21]  58(B22) 1f 43  7  0    836.9  4091997.7  0.0  2 0 1444 2389 1169
[22]  65(B29) 1f 42  7  0  -3831.8  4092010.0 -0.0  2 0 1206 1181  766
[32]  75(N-6)  f 32  7  0   -142.5  1022000.1  0.3  5 0   887 1667  733
[35]  80(N-1)  7 40 23  0  -2794.0  1022001.9  0.0  2 0   397  933  545
[48]  38(B02)  7 13 10  1  -2679.2 20460042.6  0.1  2 0  488  141  238
[50]  52(B16)  1  7  7  0    347.4 20459989.8  0.1  1 0  441  281  400
[51]  55(B19)  1  7  7  0   1401.1 20459984.5 -0.0  1 0  110  304  333
[52]  57(B21)  1  7  7  0   -582.4 20460010.2  0.1  1 0  896  409  565
[53]  58(B22)  1  7  7  0    988.6 20459988.2  0.2  1 0  196  291  186
[54]  65(B29)  1  7  7  0  -2975.2 20460061.9 -0.0  1 0  635  608  158
$GNGGA,055410.658,,,,,0,00,,,M,,,,0000*25
$GNRMC,055410.658,A,,,,,,,080180,,*29
$GPGSA,A,1,,,,,,,,,,,,,,,*1E
$BDGSA,A,1,,,,,,,,,,,,,,,*0F
$GLGSA,A,1,,,,,,,,,,,,,,,*02
$GPGSV,1,1,04,04,00,000,42,07,00,000,45,09,00,000,45,23,00,000,44*70
$BDGSV,2,1,07,02,00,000,40,06,00,000,33,16,00,000,37,19,00,000,41*62
$BDGSV,2,2,07,21,00,000,42,22,00,000,43,29,00,000,42*50
$B3CN0,0,0,0,0,0,0,0,0,0,0,0,0,0,0*4C
---00000014--- Acq_st=3 0  2000-1-1 0:1:24 
[00]  10(G11)  1  7  7  0  -4455.6  2046005.0  0.1  1 0  364  288   61
[01]  03(G04)  f 42  8  0  -2108.5  2046002.7  0.0  2 0  689 1520  545
[02]  06(G07)  f 45  7  0  -3889.7  2046004.9 -0.0  2 0 2710 3655 1610
[03]  08(G09)  f 45  7  0   -886.5  2046001.1 -0.1  2 0 1753 3124 1764
[04]  29(G30)  7 23  7  0  -4271.0  2046005.4  0.2 10 0  434 1215  942
[05]  22(G23)  f 44  7  0    910.1  2045998.8 -0.0  2 0 2066 2698 1141
[16]  38(B02) 1f 39 27  0  -1095.5  4092002.8 -0.2  2 0  690  854  511
[17]  42(B06) 1f 33  7  0    570.2  4091998.4 -0.0  5 0  620  987  769
[18]  52(B16) 1f 37  7  0    666.4  4091998.1 -0.4  2 0  908 1176  681
[19]  55(B19) 1f 41 13  0   1092.3  4091997.0 -0.1  2 0 1276 1634  828
[20]  57(B21) 1f 42  7  0   -623.0  4092001.5 -0.1  2 0 1477 1778  408
[21]  58(B22) 1f 43  7  0    835.7  4091997.7 -0.0  2 0 1376 2130 1078
[22]  65(B29) 1f 41 10  0  -3838.2  4092010.0 -0.1  2 0 1015 1819  985
[24]  45(B09)  1  7  7  0    492.4  4091999.8  0.1  1 0  456  859  571
[32]  75(N-6)  f 42  7  0   -144.2  1022000.0 -0.3  2 0   867 1390  902
[35]  80(N-1)  7 40 26  0  -2797.2  1022001.8  0.0  2 0   393  939  754
[50]  52(B16)  1  7  7  0     69.0 20459990.2  0.0  1 0  871  591  523
[51]  55(B19)  1  7  7  0   1187.6 20459984.2  0.2  1 0  682  256  503
[52]  57(B21)  1  7  7  0   -413.0 20460011.2 -0.1  1 0  394  647  566
[53]  58(B22)  1  7  7  0    505.2 20459987.1 -0.1  1 0  256  181  106
[54]  65(B29)  1  7  7  0  -2675.8 20460062.9  0.0  1 0  284  185  492
$GNGGA,055411.658,,,,,0,00,,,M,,,,0000*24
$GNRMC,055411.658,A,,,,,,,080180,,*28
$GPGSA,A,1,,,,,,,,,,,,,,,*1E
$BDGSA,A,1,,,,,,,,,,,,,,,*0F
$GLGSA,A,1,,,,,,,,,,,,,,,*02
$GPGSV,2,1,05,04,00,000,42,07,00,000,45,09,00,000,45,30,00,000,23*71
$GPGSV,2,2,05,23,00,000,44*4D
$BDGSV,2,1,07,02,00,000,39,06,00,000,33,16,00,000,37,19,00,000,41*6C
$BDGSV,2,2,07,21,00,000,42,22,00,000,43,29,00,000,41*53
$B3CN0,0,0,0,0,0,0,0,0,0,0,0,0,0,0*4C
---00000015--- Acq_st=3 0  2000-1-1 0:1:25 
[00]  10(G11)  1  7  7  0  -4075.4  2046004.8 -0.2  1 0  212  265  192
[01]  03(G04)  f 42 10  0  -2107.1  2046002.8  0.0  2 0  599 1198 1061
[02]  06(G07)  f 45  7  0  -3888.3  2046005.0  0.0  2 0 2471 3447 1632
[03]  08(G09)  f 45  7  0   -886.4  2046001.1 -0.0  2 0 2225 3306 1701
[04]  29(G30)  7 39  7  0  -4264.6  2046005.4  0.1  2 0  565 1038  384
[05]  22(G23)  f 43  9  0    911.1  2045998.7  0.0  2 0 1183 1698  853
[16]  38(B02) 1f 37 27  0  -1091.7  4092002.8 -0.3  2 0  604 1026  384
[17]  42(B06) 1f 33  7  0    568.8  4091998.4 -0.0  5 0  577  854  388
[18]  52(B16) 1f 37  7  0    666.2  4091998.1 -0.2  2 0 1125 1244  812
[19]  55(B19) 1f 41  7  0   1085.1  4091997.0  0.0  2 0 1004 1608  849
[20]  57(B21) 1f 42  7  0   -624.1  4092001.5 -0.0  2 0 1066 1604  611
[21]  58(B22) 1f 43  7  0    837.7  4091997.7 -0.0  2 0 1773 2106  878
[22]  65(B29) 1f 42  7  0  -3837.4  4092010.0 -0.1  2 0  912 1712  927
[24]  45(B09)  1  7  7  0    488.9  4091999.0 -0.1  1 0  633  791  331
[32]  75(N-6)  f 42  7  0   -143.4  1022000.1  0.1  2 0  1083 1484  532
[35]  80(N-1)  f 32 17  0  -2796.6  1022001.7  0.3  5 0   671 1066  504
[48]  38(B02)  1 36 10  0  -1184.0 20460015.6  0.2  1 0  690  479  249
[50]  52(B16)  1  7  7  0     39.0 20459990.3  0.1  1 0  353  514  609
[51]  55(B19)  1  7  7  0   1519.0 20459983.8  0.1  1 0  157  336  601
[52]  57(B21)  1  7  7  0   -846.9 20460010.4  0.1  1 0  393  416  712
[53]  58(B22)  1  7  7  0   -121.0 20459987.8 -0.0  1 0  283   29  615
[54]  65(B29)  1  7  7  0  -2315.5 20460061.3  0.1  1 0  625  450  597
$GNGGA,055412.658,,,,,0,00,,,M,,,,0000*27
$GNRMC,055412.658,A,,,,,,,080180,,*2B
$GPGSA,A,1,,,,,,,,,,,,,,,*1E
$BDGSA,A,1,,,,,,,,,,,,,,,*0F
$GLGSA,A,1,,,,,,,,,,,,,,,*02
$GPGSV,2,1,05,04,00,000,42,07,00,000,45,09,00,000,45,30,00,000,39*7A
$GPGSV,2,2,05,23,00,000,43*4A
$BDGSV,2,1,07,02,00,000,37,06,00,000,33,16,00,000,37,19,00,000,41*62
$BDGSV,2,2,07,21,00,000,42,22,00,000,43,29,00,000,42*50
$B3CN0,0,0,0,0,0,0,0,0,0,0,0,0,0,0*4C
---00000016--- Acq_st=3 0  2000-1-1 0:1:26 
[01]  03(G04)  f 41  7  0  -2105.2  2046002.7  0.0  2 0 1027 1636  898
[02]  06(G07)  f 45  7  0  -3887.4  2046005.0 -0.0  2 0 2983 3453 1399
[03]  08(G09)  f 45  7  0   -883.6  2046001.1 -0.0  2 0 2151 3352 1920
[04]  29(G30)  f 40  7  0  -4270.2  2046005.5 -0.0  2 0 1072 1534  600
[05]  22(G23)  f 44  7  0    911.0  2045998.7 -0.0  2 0 1546 2131  847
[16]  38(B02) 1f 38 25  0  -1090.4  4092002.6 -0.6  2 0  807  631  155
[17]  42(B06) 1f 33  7  0    564.2  4091998.4  0.0  5 0  275  532  368
[18]  52(B16) 1f 37 11  0    670.7  4091998.1  0.1  2 0  575  652  144
[19]  55(B19) 1f 40  7  0   1091.3  4091997.0 -0.0  2 0 1712 1461  531
[20]  57(B21) 1f 42  7  0   -622.7  4092001.5  0.0  2 0 1158 1650  727
[21]  58(B22) 1f 43  7  0    840.9  4091997.7 -0.0  2 0 1787 2169  917
[22]  65(B29) 1f 41  7  0  -3831.7  4092009.9  0.1  2 0 1048 1398  436
[24]  45(B09)  7  7  7  0    316.7  4091999.1  0.1 10 0  532  209   82
[32]  75(N-6)  f 43  7  0   -141.1  1022000.0 -0.1  2 0  1130 1536  724
[35]  80(N-1)  f 41 23  0  -2794.0  1022001.8 -0.1  2 0   346  957  619
[48]  38(B02)  1 21 10  1  -1121.3 20460023.4 -0.1  1 0  528  269  474
[50]  52(B16)  1  7  7  0    125.9 20459990.5  0.1  1 0   74  314  111
[51]  55(B19)  1  7  7  0   1708.2 20459983.6 -0.1  1 0  667  381  538
[52]  57(B21)  1 10  8  0   -674.6 20460011.5  0.1  1 0  652  187  402
[53]  58(B22)  1  7  7  0    285.8 20459987.9  0.1  1 0  378  142  377
[54]  65(B29)  1  7  7  0  -1820.1 20460059.9 -0.0  1 0  494  568  199
$GNGGA,055413.658,,,,,0,00,,,M,,,,0000*26
$GNRMC,055413.658,A,,,,,,,080180,,*2A
$GPGSA,A,1,,,,,,,,,,,,,,,*1E
$BDGSA,A,1,,,,,,,,,,,,,,,*0F
$GLGSA,A,1,,,,,,,,,,,,,,,*02
$GPGSV,2,1,05,04,00,000,41,07,00,000,45,09,00,000,45,30,00,000,40*77
$GPGSV,2,2,05,23,00,000,44*4D
$BDGSV,2,1,07,02,00,000,38,06,00,000,33,16,00,000,37,19,00,000,40*6C
$BDGSV,2,2,07,21,00,000,42,22,00,000,43,29,00,000,41*53
$B3CN0,0,0,0,0,0,0,0,0,0,0,0,0,0,0*4C
---00000017--- Acq_st=3 0  2000-1-1 0:1:27 
[01]  03(G04)  f 41  7  0  -2106.6  2046002.7  0.0  2 0 1257 1599  602
[02]  06(G07)  f 45  7  0  -3887.1  2046005.0 -0.0  2 0 2078 3740 2069
[03]  08(G09)  f 45  7  0   -884.4  2046001.1  0.0  2 0 2575 3537 1509
[04]  29(G30)  f 40  7  0  -4272.0  2046005.5 -0.0  2 0  846 1441  746
[05]  22(G23)  f 44  7  0    911.7  2045998.7 -0.0  2 0 1566 2462 1205
[16]  38(B02) 1f 37 26  0  -1089.6  4092002.7 -0.8  2 0  740  825  435
[17]  42(B06) 1f 33  7  0    563.8  4091998.4  0.1  5 0  484  815  350
[18]  52(B16) 1f 37  9  0    672.4  4091998.1  0.1  2 0  776  739  283
[19]  55(B19) 1f 40  7  0   1088.3  4091997.0  0.1  2 0 1167 1480  554
[20]  57(B21) 1f 42  7  0   -621.7  4092001.5  0.0  2 0 1541 1678  716
[21]  58(B22) 1f 44  7  0    836.0  4091997.7  0.1  2 0 2070 2193  961
[22]  65(B29) 1f 41  8  0  -3839.3  4092010.0  0.1  2 0 1227 1521  755
[24]  45(B09)  7  7  7  0    218.9  4091999.3  0.1 10 0  798  305  122
[32]  75(N-6)  f 43  7  0   -140.3  1022000.1  0.2  2 0   901 1142  620
[35]  80(N-1)  f 41 20  0  -2794.3  1022001.8  0.2  2 0   617 1163  699
[48]  38(B02)  7 19 10  0  -1569.4 20460025.2  0.1  2 0   89  480   99
$GNGGA,055414.658,,,,,0,00,,,M,,,,0000*21
$GNRMC,055414.658,A,,,,,,,080180,,*2D
$GPGSA,A,1,,,,,,,,,,,,,,,*1E
$BDGSA,A,1,,,,,,,,,,,,,,,*0F
$GLGSA,A,1,,,,,,,,,,,,,,,*02
$GPGSV,2,1,05,04,00,000,41,07,00,000,45,09,00,000,45,30,00,000,40*77
$GPGSV,2,2,05,23,00,000,44*4D
$BDGSV,2,1,07,02,00,000,37,06,00,000,33,16,00,000,37,19,00,000,40*63
$BDGSV,2,2,07,21,00,000,42,22,00,000,44,29,00,000,41*54
$B3CN0,0,19,0,0,0,0,0,0,0,0,0,0,0,0*74
---00000018--- Acq_st=7 0  2000-1-1 0:1:28 
[01]  03(G04)  f 41  8  0  -2101.0  2046002.6 -0.0  2 0 1164 1815  746
[02]  06(G07)  f 45  7  0  -3883.4  2046005.0  0.0  2 0 2856 3955 1767
[03]  08(G09)  f 45  7  0   -879.3  2046001.1 -0.0  2 0 2041 3228 1648
[04]  29(G30)  f 40  7  0  -4266.2  2046005.5 -0.1  2 0  770 1155  620
[05]  22(G23)  f 43 12  0    916.9  2045998.7  0.0  2 0 1767 2332  878
[16]  38(B02) 1f 37 25  0  -1087.8  4092002.5 -0.5  2 0  779 1178  581
[17]  42(B06) 1f 34  7  0    565.8  4091998.4  0.0  5 0  367  364  403
[18]  52(B16) 1f 37  7  0    666.8  4091998.2  0.5  2 0  860  839  476
[19]  55(B19) 1f 40  7  0   1086.4  4091997.0 -0.1  2 0 1356 1199   88
[20]  57(B21) 1f 42  7  0   -615.8  4092001.5  0.0  2 0 1584 1718  746
[21]  58(B22) 1f 43  7  0    842.1  4091997.7 -0.0  2 0 1644 2158 1052
[22]  65(B29) 1f 40  7  0  -3830.7  4092010.0 -0.1  2 0  982 1560  562
[24]  45(B09)  7  7  7  0    110.7  4091999.9 -0.1 10 0  379  215   94
[32]  75(N-6)  f 43  7  0   -136.1  1022000.1 -0.0  2 0   861 1536  866
[35]  80(N-1)  f 40 21  0  -2790.6  1022001.8 -0.2  2 0   506 1164  471
[48]  38(B02)  7 10 13  1  -1702.7 20460027.0 -0.1  2 0  363  802  592
[50]  52(B16)  1  7  7  0    298.5 20459991.6 -0.1  1 0  451  414  196
[51]  55(B19)  1  7  7  0    769.9 20459983.5 -0.1  1 0  604  171  546
[52]  57(B21)  1  7  7  0    -41.4 20460010.5 -0.0  1 0  580   71   74
[53]  58(B22)  1  7  7  0    -35.9 20459986.1 -0.1  1 0  414  320  271
[54]  65(B29)  1  7  7  0  -3118.6 20460059.8 -0.1  1 0  290  344  115
$GNGGA,055415.658,,,,,0,00,,,M,,,,0000*20
$GNRMC,055415.658,A,,,,,,,080180,,*2C
$GPGSA,A,1,,,,,,,,,,,,,,,*1E
$BDGSA,A,1,,,,,,,,,,,,,,,*0F
$GLGSA,A,1,,,,,,,,,,,,,,,*02
$GPGSV,2,1,05,04,00,000,41,07,00,000,45,09,00,000,45,30,00,000,40*77
$GPGSV,2,2,05,23,00,000,43*4A
$BDGSV,2,1,07,02,00,000,37,06,00,000,34,16,00,000,37,19,00,000,40*64
$BDGSV,2,2,07,21,00,000,42,22,00,000,43,29,00,000,40*52
$B3CN0,0,0,0,0,0,0,0,0,0,0,0,0,0,0*4C
---00000019--- Acq_st=7 0  2000-1-1 0:1:29 
[01]  03(G04)  f 42 13  0  -2099.1  2046002.6  0.0  2 0 1226 2056 1030
[02]  06(G07)  f 45  7  0  -3882.7  2046005.0  0.0  2 0 2239 3744 1880
[03]  08(G09)  f 45  7  0   -880.5  2046001.1  0.0  2 0 1713 3032 1475
[04]  29(G30)  f 40  7  0  -4264.5  2046005.4  0.1  2 0  795 1557  828
[05]  22(G23)  f 44  7  0    916.8  2045998.8  0.0  2 0 1668 2271  884
[16]  38(B02) 1f 37 25  0  -1084.2  4092002.7  0.3  2 0  397  659  290
[17]  42(B06) 1f 34  9  0    566.0  4091998.4  0.1  5 0  384  512  381
[18]  52(B16) 1f 37  7  0    673.4  4091998.1  0.3  2 0  777  525  181
[19]  55(B19) 1f 41  7  0   1088.6  4091997.0  0.2  2 0 1079 1160  527
[20]  57(B21) 1f 42  7  0   -620.3  4092001.5 -0.0  2 0 1533 1605  557
[21]  58(B22) 1f 43  7  0    839.4  4091997.7  0.0  2 0 1347 2074 1304
[22]  65(B29) 1f 40  7  0  -3833.9  4092009.9 -0.0  2 0  495 1317  667
[32]  75(N-6)  f 43  7  0   -136.4  1022000.1  0.2  2 0   636 1793  994
[35]  80(N-1)  f 40 20  0  -2790.3  1022001.7  0.1  2 0   514  919  371
[48]  38(B02)  7 10 10  0  -1659.5 20460028.1 -0.1  2 0  170  211  623
[50]  52(B16)  1  7  7  0    469.2 20459989.8 -0.1  1 0  197  212  143
[51]  55(B19)  1  7  7  0    754.8 20459984.1  0.1  1 0  727  512  247
[52]  57(B21)  1  7  7  0   -245.5 20460008.5 -0.1  1 0  206  476  189
[53]  58(B22)  1  7 12  0   -600.0 20459987.8  0.0  1 0  162  703  538
[54]  65(B29)  1  7  7  0  -4113.1 20460062.3 -0.2  1 0  515  455  438
$GNGGA,055416.658,,,,,0,00,,,M,,,,0000*23
$GNRMC,055416.658,A,,,,,,,080180,,*2F
$GPGSA,A,1,,,,,,,,,,,,,,,*1E
$BDGSA,A,1,,,,,,,,,,,,,,,*0F
$GLGSA,A,1,,,,,,,,,,,,,,,*02
$GPGSV,2,1,05,04,00,000,42,07,00,000,45,09,00,000,45,30,00,000,40*74
$GPGSV,2,2,05,23,00,000,44*4D
$BDGSV,2,1,07,02,00,000,37,06,00,000,34,16,00,000,37,19,00,000,41*65
$BDGSV,2,2,07,21,00,000,42,22,00,000,43,29,00,000,40*52
$B3CN0,0,0,0,0,0,0,0,0,0,0,0,0,0,0*4C
---00000020--- Acq_st=3 0  2000-1-1 0:1:30 
[01]  03(G04)  f 42  7  0  -2099.3  2046002.6  0.0  2 0 1010 2036 1208
[02]  06(G07)  f 44  7  0  -3886.0  2046005.0 -0.0  2 0 1681 2931 1470
[03]  08(G09)  f 45  7  0   -881.2  2046001.1 -0.0  2 0 2301 3515 1493
[04]  29(G30)  f 40  7  0  -4268.1  2046005.4 -0.0  2 0  602 1187  513
[05]  22(G23)  f 43  7  0    914.6  2045998.8 -0.0  2 0 1277 1893 1105
[16]  38(B02) 1f 39 27  0  -1089.6  4092002.8  0.2  2 0  716  919  875
[17]  42(B06) 1f 34  7  0    569.3  4091998.4 -0.2  5 0  188  399  382
[18]  52(B16) 1f 36  7  0    661.9  4091998.1 -0.5  2 0  388  697  558
[19]  55(B19) 1f 41  7  0   1085.2  4091997.1 -0.1  2 0 1115 1096  301
[20]  57(B21) 1f 42  7  0   -622.7  4092001.5 -0.1  2 0 1598 1685  729
[21]  58(B22) 1f 43  7  0    840.1  4091997.7  0.0  2 0 2199 2491  749
[22]  65(B29) 1f 40  7  0  -3834.2  4092010.0 -0.0  2 0 1307 1550  725
[32]  75(N-6)  f 42  7  0   -136.8  1022000.1  0.0  2 0   694 1207  412
[35]  80(N-1)  f 40 18  0  -2791.0  1022001.7 -0.2  2 0   786 1013  625
[48]  38(B02)  7 14 10  0  -2130.5 20460034.6 -0.0  2 0  419  450  684
[50]  52(B16)  1  7  7  0    364.7 20459990.4 -0.0  1 0  373   74  131
[51]  55(B19)  1  7  7  0   1119.3 20459984.4 -0.2  1 0  339  355  442
[52]  57(B21)  1  7  7  0   -502.4 20460010.0  0.1  1 0 1100 1227  811
[53]  58(B22)  1  7  7  0   -866.2 20459987.4 -0.0  1 0  368  480  251
[54]  65(B29)  1  7  7  0  -4075.9 20460062.6 -0.1  1 0  513  343  393
$GNGGA,055417.658,,,,,0,00,,,M,,,,0000*22
$GNRMC,055417.658,A,,,,,,,080180,,*2E
$GPGSA,A,1,,,,,,,,,,,,,,,*1E
$BDGSA,A,1,,,,,,,,,,,,,,,*0F
$GLGSA,A,1,,,,,,,,,,,,,,,*02
$GPGSV,2,1,05,04,00,000,42,07,00,000,44,09,00,000,45,30,00,000,40*75
$GPGSV,2,2,05,23,00,000,43*4A
$BDGSV,2,1,07,02,00,000,39,06,00,000,34,16,00,000,36,19,00,000,41*6A
$BDGSV,2,2,07,21,00,000,42,22,00,000,43,29,00,000,40*52
$B3CN0,0,0,0,0,0,0,0,0,0,0,0,0,0,0*4C
---00000021--- Acq_st=3 0  2000-1-1 0:1:31 
[01]  03(G04)  f 43  7  0  -2099.5  2046002.7 -0.0  2 0 1822 2474  954
[02]  06(G07)  f 44 10  0  -3883.8  2046005.0 -0.0  2 0 1377 2821 1434
[03]  08(G09)  f 44  7  0   -879.1  2046001.1  0.0  2 0 2061 3427 1687
[04]  29(G30)  f 40  7  0  -4270.4  2046005.5  0.1  2 0 1372 1958 1213
[05]  22(G23)  f 43  7  0    915.1  2045998.8 -0.1  2 0 1243 2390  875
[16]  38(B02) 1f 39 19  0  -1095.1  4092002.7 -0.6  2 0 1015  876  329
[17]  42(B06) 1f 34  7  0    570.0  4091998.4 -0.1  5 0  585  456  305
[18]  52(B16) 1f 36  9  0    663.2  4091998.2  0.2  2 0  560  896  610
[19]  55(B19) 1f 40  9  0   1084.8  4091997.0  0.1  2 0  946 1143  506
[20]  57(B21) 1f 42  7  0   -622.1  4092001.5  0.1  2 0 1532 1347  395
[21]  58(B22) 1f 43  7  0    836.9  4091997.7 -0.0  2 0 1764 2104  852
[22]  65(B29) 1f 41  7  0  -3835.6  4092009.9 -0.0  2 0  918 1191  753
[32]  75(N-6)  f 42  7  0   -137.7  1022000.1  0.0  2 0   786 1327  729
[35]  80(N-1)  f 40 21  0  -2790.6  1022001.8 -0.3  2 0   329  819  523
[50]  52(B16)  1  7 12  0    228.3 20459990.3  0.0  1 0  341  405  243
[51]  55(B19)  1  7  7  0   1240.9 20459981.9 -0.1  1 0  837  503  173
[52]  57(B21)  1 11  7  0  -1078.4 20460011.2  0.1  1 0  444  241  314
[53]  58(B22)  1  7  7  0   -863.0 20459986.3  0.1  1 0  212   31  121
[54]  65(B29)  1  7  7  0  -4454.2 20460062.3 -0.0  1 0  382  281  328
$GNGGA,055418.658,,,,,0,00,,,M,,,,0000*2D
$GNRMC,055418.658,A,,,,,,,090419,,*25
$GPGSA,A,1,,,,,,,,,,,,,,,*1E
$BDGSA,A,1,,,,,,,,,,,,,,,*0F
$GLGSA,A,1,,,,,,,,,,,,,,,*02
$GPGSV,2,1,05,04,00,000,43,07,00,000,44,09,00,000,44,30,00,000,40*75
$GPGSV,2,2,05,23,00,000,43*4A
$BDGSV,2,1,07,02,00,000,39,06,00,000,34,16,00,000,36,19,00,000,40*6B
$BDGSV,2,2,07,21,00,000,42,22,00,000,43,29,00,000,41*53
$B3CN0,0,0,0,0,0,0,0,0,0,0,0,0,0,0*4C
---00000022--- Acq_st=3 0  2000-1-1 0:1:32 
[01]  03(G04)  f 43  7  0  -2103.4  2046002.6  0.0  2 0 2375 2400  637
[02]  06(G07)  f 44  7  0  -3891.5  2046005.0  0.0  2 0 2060 3078 1429
[03]  08(G09)  f 44  7  0   -883.6  2046001.1 -0.0  2 0 1969 3350 1682
[04]  29(G30)  f 40  7  0  -4274.7  2046005.5 -0.1  2 0 1173 1601  937
[05]  22(G23)  f 42  8  0    910.0  2045998.8  0.0  2 0 1194 2224 1186
[16]  38(B02) 1f 38 28  0  -1090.1  4092002.8  0.5  2 0  689 1083  318
[17]  42(B06) 1f 34  7  0    552.3  4091998.3  0.1  5 0  692  670  659
[18]  52(B16) 1f 36  7  0    661.1  4091998.2  0.1  2 0  552  722  591
[19]  55(B19) 1f 41  7  0   1087.1  4091997.0  0.0  2 0  779 1324  594
[20]  57(B21) 1f 42  7  0   -626.0  4092001.5  0.0  2 0 1223 1484  423
[21]  58(B22) 1f 43  9  0    835.6  4091997.7  0.0  2 0 1616 1716  987
[22]  65(B29) 1f 41  7  0  -3845.7  4092009.9  0.0  2 0 1560 1489  535
[32]  75(N-6)  f 42  7  0   -139.9  1022000.1 -0.1  2 0   780 1066  424
[35]  80(N-1)  f 40 20  0  -2793.7  1022001.8 -0.1  2 0   698 1033  472
[48]  38(B02)  1 10 10  0   -297.4 20460018.8  0.1  1 0  419  883  792
$GNGGA,055419.658,,,,,0,00,,,M,,,,0000*2C
$GNRMC,055419.658,A,,,,,,,090419,,*24
$GPGSA,A,1,,,,,,,,,,,,,,,*1E
$BDGSA,A,1,,,,,,,,,,,,,,,*0F
$GLGSA,A,1,,,,,,,,,,,,,,,*02
$GPGSV,2,1,05,04,00,000,43,07,00,000,44,09,00,000,44,30,00,000,40*75
$GPGSV,2,2,05,23,00,000,42*4B
$BDGSV,2,1,07,02,00,000,38,06,00,000,34,16,00,000,36,19,00,000,41*6B
$BDGSV,2,2,07,21,00,000,42,22,00,000,43,29,00,000,41*53
$B3CN0,0,0,0,0,0,0,0,0,0,0,0,0,0,0*4C
---00000023--- Acq_st=3 0  2000-1-1 0:1:33 
[01]  03(G04)  f 44  7  0  -2101.8  2046002.6 -0.0  2 0 1445 2073  818
[02]  06(G07)  f 44  7  0  -3886.3  2046005.0 -0.0  2 0 1755 2821 1554
[03]  08(G09)  f 44  7  0   -882.0  2046001.1 -0.0  2 0 2296 3392 1581
[04]  29(G30)  f 39  7  0  -4278.4  2046005.5  0.1  2 0  859 1333  848
[05]  22(G23)  f 43  9  0    917.1  2045998.8 -0.0  2 0 1289 2296 1349
[16]  38(B02) 1f 37 22  0  -1088.3  4092002.7  0.1  2 0  719  768  388
[17]  42(B06) 1f 34  7  0    568.8  4091998.4 -0.0  5 0  465  750  189
[18]  52(B16) 1f 35  7  0    664.2  4091998.0  0.0  2 0  486  347  215
[19]  55(B19) 1f 40  7  0   1085.1  4091997.0  0.0  2 0 1024 1561  644
[20]  57(B21) 1f 42  7  0   -618.9  4092001.5 -0.0  2 0 1704 1773  387
[21]  58(B22) 1f 43  7  0    836.5  4091997.7 -0.0  2 0 1675 2183  810
[22]  65(B29) 1f 41  7  0  -3830.6  4092009.9  0.1  2 0  969 1284  631
[32]  75(N-6)  f 42  7  0   -137.1  1022000.1  0.0  2 0   983 1299  262
[35]  80(N-1)  f 40 20  0  -2792.5  1022001.8 -0.1  2 0   550  905  476
[48]  38(B02)  1 19 36  1   -114.9 20460021.0  0.1  1 0  599  252  727
[50]  52(B16)  1  7  7  0    470.3 20459989.6  0.1  1 0  633  164  403
[51]  55(B19)  1  7  7  0    805.3 20459985.0  0.0  1 0  153  523  655
[52]  57(B21)  1  7  7  0   -512.7 20460011.9  0.0  1 0  180  472  129
[53]  58(B22)  1  7  7  0    863.2 20459987.4  0.1  1 0  189  411  102
[54]  65(B29)  1  7 12  0  -3181.9 20460062.0  0.1  1 0  392  148   27
$GNGGA,055420.658,,,,,0,00,,,M,,,,0000*26
$GNRMC,055420.658,A,,,,,,,090419,,*2E
$GPGSA,A,1,,,,,,,,,,,,,,,*1E
$BDGSA,A,1,,,,,,,,,,,,,,,*0F
$GLGSA,A,1,,,,,,,,,,,,,,,*02
$GPGSV,2,1,05,04,00,000,44,07,00,000,44,09,00,000,44,30,00,000,39*7C
$GPGSV,2,2,05,23,00,000,43*4A
$BDGSV,2,1,07,02,00,000,37,06,00,000,34,16,00,000,35,19,00,000,40*66
$BDGSV,2,2,07,21,00,000,42,22,00,000,43,29,00,000,41*53
$B3CN0,0,0,0,0,0,0,0,0,0,0,0,0,0,0*4C
---00000024--- Acq_st=3 0  2000-1-1 0:1:34 
[01]  03(G04)  f 44  7  0  -2099.5  2046002.6 -0.0  2 0 1985 2940 1251
[02]  06(G07)  f 44  8  0  -3889.5  2046005.0 -0.0  2 0 1844 3020 1901
[03]  08(G09)  f 45  7  0   -881.1  2046001.1  0.0  2 0 1928 3662 1712
[04]  29(G30)  f 38  7  0  -4268.1  2046005.5 -0.1  2 0  974  989  372
[05]  22(G23)  f 42  7  0    912.7  2045998.8  0.0  2 0 1470 2135 1076
[16]  38(B02) 1f 39 26  0  -1091.3  4092002.8 -0.5  2 0  895 1338  699
[17]  42(B06) 1f 34  7  0    564.3  4091998.5 -0.0  5 0  303  227  356
[18]  52(B16) 1f 35  8  0    660.9  4091998.2  0.0  2 0  340  650  547
[19]  55(B19) 1f 40 10  0   1080.8  4091997.0 -0.1  2 0  730 1269  445
[20]  57(B21) 1f 42  8  0   -620.5  4092001.5  0.0  2 0  598 1385  538
[21]  58(B22) 1f 43  7  0    835.1  4091997.7  0.0  2 0 1576 2446 1063
[22]  65(B29) 1f 41  7  0  -3835.4  4092009.9  0.1  2 0  860 1118  410
[32]  75(N-6)  f 42  7  0   -137.7  1022000.0  0.1  2 0   475 1519  922
[35]  80(N-1)  f 40 20  0  -2791.0  1022001.7 -0.2  2 0   720 1103  399
[48]  38(B02)  1 13 10  1   -253.2 20460024.6  0.0  1 0  499  433   80
[50]  52(B16)  1  7  7  0    -11.0 20459991.3  0.0  1 0  330  430  168
[51]  55(B19)  1  7  7  0    404.9 20459984.6 -0.2  1 0  767  306  218
[52]  57(B21)  1  7  7  0   -909.7 20460009.1  0.0  1 0  442  509  482
[53]  58(B22)  1  7 10  0   1730.5 20459987.4  0.0  1 0  333  342  353
[54]  65(B29)  1 11  7  0  -2952.4 20460062.0  0.0  1 0  327  456  263
$GNGGA,055421.658,,,,,0,00,,,M,,,,0000*27
$GNRMC,055421.658,A,,,,,,,090419,,*2F
$GPGSA,A,1,,,,,,,,,,,,,,,*1E
$BDGSA,A,1,,,,,,,,,,,,,,,*0F
$GLGSA,A,1,,,,,,,,,,,,,,,*02
$GPGSV,2,1,05,04,00,000,44,07,00,000,44,09,00,000,45,30,00,000,38*7C
$GPGSV,2,2,05,23,00,000,42*4B
$BDGSV,2,1,07,02,00,000,39,06,00,000,34,16,00,000,35,19,00,000,40*68
$BDGSV,2,2,07,21,00,000,42,22,00,000,43,29,00,000,41*53
$B3CN0,0,0,0,0,0,0,0,0,0,0,0,0,0,0*4C
---00000025--- Acq_st=3 0  2000-1-1 0:1:35 
[01]  03(G04)  f 43  7  0  -2100.2  2046002.7 -0.0  2 0 1930 2428  917
[02]  06(G07)  f 45  7  0  -3889.5  2046005.0 -0.0  2 0 1963 2923 1395
[03]  08(G09)  f 45  7  0   -882.2  2046001.1  0.1  2 0 2605 3115 1208
[04]  29(G30)  f 38  7  0  -4271.6  2046005.5 -0.1  2 0  890 1426  453
[05]  22(G23)  f 42  9  0    917.5  2045998.8  0.0  2 0 1237 2198 1341
[16]  38(B02) 1f 38 26  0  -1089.2  4092002.8  0.9  2 0  553 1004  555
[17]  42(B06) 1f 33 10  0    562.9  4091998.4 -0.1  5 0  312  438  276
[18]  52(B16) 1f 34  8  0    669.7  4091998.2  0.0  2 0  522  455  111
[19]  55(B19) 1f 41  7  0   1083.0  4091997.0  0.0  2 0  831 1331  722
[20]  57(B21) 1f 41  7  0   -622.3  4092001.5 -0.0  2 0 1061 1476  863
[21]  58(B22) 1f 43  7  0    834.1  4091997.7 -0.0  2 0 1654 2116  791
[22]  65(B29) 1f 41  7  0  -3836.7  4092009.9 -0.1  2 0 1465 1424  825
[32]  75(N-6)  f 41  7  0   -138.5  1022000.1  0.1  2 0   676 1298  775
[35]  80(N-1)  f 40 19  0  -2789.0  1022001.7 -0.2  2 0   507  871  327
[48]  38(B02)  f 36 22  0   -390.8 20460006.8 -0.1  2 0  253  220   89
[50]  52(B16)  1  7  7  0    636.4 20459991.7 -0.0  1 0  840  545  278
[51]  55(B19)  1  7  7  0    241.6 20459983.6  0.1  1 0  472  570  377
[52]  57(B21)  1  7  7  0   -906.7 20460012.1 -0.1  1 0  512  477  200
[53]  58(B22)  1  7  7  0   2206.6 20459989.8  0.1  1 0  312  415  518
[54]  65(B29)  1  7 11  0  -2870.5 20460061.3  0.1  1 0  592  684 1061
$GNGGA,055422.658,,,,,0,00,,,M,,,,0000*24
$GNRMC,055422.658,A,,,,,,,090419,,*2C
$GPGSA,A,1,,,,,,,,,,,,,,,*1E
$BDGSA,A,1,,,,,,,,,,,,,,,*0F
$GLGSA,A,1,,,,,,,,,,,,,,,*02
$GPGSV,2,1,05,04,00,000,43,07,00,000,45,09,00,000,45,30,00,000,38*7A
$GPGSV,2,2,05,23,00,000,42*4B
$BDGSV,2,1,07,02,00,000,38,06,00,000,33,16,00,000,34,19,00,000,41*6E
$BDGSV,2,2,07,21,00,000,41,22,00,000,43,29,00,000,41*50
$B3CN0,0,0,0,0,0,0,0,0,0,0,0,0,0,0*4C
---00000026--- Acq_st=3 0  2000-1-1 0:1:36 
[01]  03(G04)  f 43  7  0  -2099.9  2046002.6  0.0  2 0 1713 2769 1503
[02]  06(G07)  f 45  7  0  -3887.7  2046005.0  0.0  2 0 2380 3312 1321
[03]  08(G09)  f 45  7  0   -880.0  2046001.1 -0.0  2 0 1958 3205 1637
[04]  29(G30)  f 39  7  0  -4264.6  2046005.5  0.1  2 0 1029 1617 1002
[05]  22(G23)  f 42  7  0    912.6  2045998.7  0.0  2 0 1323 2003 1062
[16]  38(B02) 1f 37 24  0  -1098.8  4092002.9 -0.8  2 0 1265 1460  675
[17]  42(B06) 1f 33  7  0    561.6  4091998.3  0.1  5 0  449  673  490
[18]  52(B16) 1f 35  7  0    668.1  4091998.1  0.2  2 0  663  453  223
[19]  55(B19) 1f 41  7  0   1087.3  4091997.1  0.0  2 0 1317 1725  744
[20]  57(B21) 1f 42 10  0   -618.7  4092001.5 -0.0  2 0 1111 1467  742
[21]  58(B22) 1f 43  7  0    838.1  4091997.7  0.0  2 0 1884 2238  838
[22]  65(B29) 1f 41  7  0  -3838.0  4092009.9 -0.0  2 0 1703 1919 1061
[32]  75(N-6)  f 41  7  0   -134.5  1022000.1  0.4  2 0   607 1189  512
[33]  76(N-5)  1 16  7  0   2250.0  1022001.2 -0.0  1 0   212  452  870
[34]  77(N-4)  1  7  7  0  -5500.0  1022004.5  0.0  1 0   295  558  716
[35]  80(N-1)  f 40 22  0  -2788.3  1022001.7 -0.4  2 0   520 1019  545
[48]  38(B02)  f 10 10  0   -744.8 20460013.5 -0.0  2 0  432  217  700
[50]  52(B16)  1  7  7  0    867.9 20459991.6  0.2  1 0  214  361  163
[51]  55(B19)  1  8  7  0    343.1 20459982.1  0.1  1 0  204  152  391
[52]  57(B21)  1  8  7  0   -792.9 20460011.6  0.0  1 0  694  824  494
[53]  58(B22)  1  7  7  0   2830.7 20459987.0 -0.0  1 0  496  406  349
[54]  65(B29)  1  7  7  0  -2895.8 20460063.3  0.0  1 0  441  815  762
$GNGGA,055423.658,,,,,0,00,,,M,,,,0000*25
$GNRMC,055423.658,A,,,,,,,090419,,*2D
$GPGSA,A,1,,,,,,,,,,,,,,,*1E
$BDGSA,A,1,,,,,,,,,,,,,,,*0F
$GLGSA,A,1,,,,,,,,,,,,,,,*02
$GPGSV,2,1,05,04,00,000,43,07,00,000,45,09,00,000,45,30,00,000,39*7B
$GPGSV,2,2,05,23,00,000,42*4B
$BDGSV,2,1,07,02,00,000,37,06,00,000,33,16,00,000,35,19,00,000,41*60
$BDGSV,2,2,07,21,00,000,42,22,00,000,43,29,00,000,41*53
$B3CN0,0,0,0,0,0,0,0,0,0,0,0,0,0,0*4C
---00000027--- Acq_st=7 0  2000-1-1 0:1:37 
[01]  03(G04)  f 42  7  0  -2102.3  2046002.7  0.1  2 0 1724 2530 1156
[02]  06(G07)  f 44  8  0  -3889.7  2046005.0 -0.0  2 0 2091 2866 1602
[03]  08(G09)  f 45  7  0   -880.5  2046001.1  0.0  2 0 2214 3436 1465
[04]  29(G30)  f 39  7  0  -4270.9  2046005.5  0.1  2 0  629 1312  853
[05]  22(G23)  f 42 12  0    912.0  2045998.7 -0.1  2 0 1859 1989  937
[16]  38(B02) 1f 37 27  0  -1091.9  4092002.8 -0.1  2 0  538  752  552
[17]  42(B06) 1f 33  7  0    553.3  4091998.3 -0.1  5 0  957 1064  362
[18]  52(B16) 1f 34  8  0    666.8  4091998.1 -0.1  2 0  673  725   97
[19]  55(B19) 1f 41  7  0   1080.1  4091997.0 -0.1  2 0 1014 1355  452
[20]  57(B21) 1f 41  7  0   -622.7  4092001.5 -0.0  2 0 1244 1652  530
[21]  58(B22) 1f 43  7  0    834.8  4091997.7 -0.0  2 0 2113 2411 1107
[22]  65(B29) 1f 41  7  0  -3835.3  4092010.0  0.0  2 0 1008 1247  538
[32]  75(N-6)  f 40  7  0   -138.5  1022000.1 -0.3  2 0   544  980  245
[33]  76(N-5)  1 38 22  0   2175.4  1021998.4  1.0  1 0   863 1000  266
[34]  77(N-4)  1 32 24  0  -5627.6  1022003.9  1.0  1 0   632 1069  344
[35]  80(N-1)  f 40 20  0  -2790.5  1022001.8 -0.1  2 0   777  942  222
[48]  38(B02)  f 19 18  0   -957.1 20460015.4  0.1  2 0  395  410  336
$GNGGA,055424.658,,,,,0,00,,,M,,,,0000*22
$GNRMC,055424.658,A,,,,,,,090419,,*2A
$GPGSA,A,1,,,,,,,,,,,,,,,*1E
$BDGSA,A,1,,,,,,,,,,,,,,,*0F
$GLGSA,A,1,,,,,,,,,,,,,,,*02
$GPGSV,2,1,05,04,00,000,42,07,00,000,44,09,00,000,45,30,00,000,39*7B
$GPGSV,2,2,05,23,00,000,42*4B
$BDGSV,2,1,07,02,00,000,37,06,00,000,33,16,00,000,34,19,00,000,41*61
$BDGSV,2,2,07,21,00,000,41,22,00,000,43,29,00,000,41*50
$B3CN0,0,19,0,0,0,0,0,0,0,0,0,0,0,0*74
---00000028--- Acq_st=7 0  2000-1-1 0:1:38 
[01]  03(G04)  f 43  8  0  -2103.9  2046002.7 -0.0  2 0 1267 1877  977
[02]  06(G07)  f 44  7  0  -3891.3  2046005.0  0.0  2 0 2130 2790 1746
[03]  08(G09)  f 44 11  0   -879.9  2046001.1  0.0  2 0 2247 3137 1463
[04]  29(G30)  f 39  7  0  -4279.1  2046005.5 -0.0  2 0  816  863  306
[05]  22(G23)  f 44  7  0    914.0  2045998.7  0.0  2 0 2150 2402  906
[16]  38(B02) 1f 40 24  0  -1096.0  4092002.8 -0.2  2 0  597  730  558
[17]  42(B06) 1f 33  8  0    556.6  4091998.4  0.0  5 0  553  470  392
[18]  52(B16) 1f 35  7  0    661.8  4091998.2  0.0  2 0  277 1166  844
[19]  55(B19) 1f 40  7  0   1076.6  4091997.0  0.1  2 0 1092 1433 1006
[20]  57(B21) 1f 41  7  0   -625.7  4092001.5  0.0  2 0 1414 1889  939
[21]  58(B22) 1f 43  7  0    833.0  4091997.7 -0.0  2 0 1706 2079  937
[22]  65(B29) 1f 41  7  0  -3838.3  4092009.9 -0.0  2 0 1312 1753  985
[32]  75(N-6)  f 39  7  0   -140.2  1022000.1  0.4  2 0   547  885  514
[33]  76(N-5)  7 39 22  0   2172.5  1021998.5  0.0  2 0   853 1011  544
[34]  77(N-4)  7 37 24  0  -5633.2  1022003.5  0.1  2 0    99  463  284
[35]  80(N-1)  f 39 22  0  -2793.6  1022001.7  0.6  2 0   665  869  372
[48]  38(B02)  f 10 10  0  -1143.2 20460020.9 -0.1  2 0  169  142  174
[51]  55(B19)  1  7  9  0   1113.4 20459981.9 -0.0  1 0  451  680  323
[52]  57(B21)  1  7  7  0   -666.3 20460008.9 -0.1  1 0  445  693  210
[53]  58(B22)  1  7  7  0    596.8 20459987.7 -0.2  1 0  561  397   79
[54]  65(B29)  1  7  7  0  -2965.1 20460061.6 -0.1  1 0  931  535  518
$GNGGA,055425.658,,,,,0,00,,,M,,,,0000*23
$GNRMC,055425.658,A,,,,,,,090419,,*2B
$GPGSA,A,1,,,,,,,,,,,,,,,*1E
$BDGSA,A,1,,,,,,,,,,,,,,,*0F
$GLGSA,A,1,,,,,,,,,,,,,,,*02
$GPGSV,2,1,05,04,00,000,43,07,00,000,44,09,00,000,44,30,00,000,39*7B
$GPGSV,2,2,05,23,00,000,44*4D
$BDGSV,2,1,07,02,00,000,40,06,00,000,33,16,00,000,35,19,00,000,40*61
$BDGSV,2,2,07,21,00,000,41,22,00,000,43,29,00,000,41*50
$B3CN0,0,0,0,0,0,0,0,0,0,0,0,0,0,0*4C
---00000029--- Acq_st=3 0  2000-1-1 0:1:39 
[00]  10(G11)  1  7  7  0  -4500.0  2046004.9 -0.0  1 0  232  501  685
[01]  03(G04)  f 43 10  0  -2101.3  2046002.7  0.0  2 0 1175 1765  910
[02]  06(G07)  f 45  7  0  -3889.7  2046005.0 -0.0  2 0 2378 2691 1061
[03]  08(G09)  f 45  7  0   -880.1  2046001.0 -0.0  2 0 2020 3647 1976
[04]  29(G30)  f 39  8  0  -4269.7  2046005.4  0.1  2 0  812 1375  646
[05]  22(G23)  f 45  7  0    913.3  2045998.7  0.0  2 0 2130 2822 1263
[16]  38(B02) 1f 38 23  0  -1089.4  4092002.8  0.5  2 0  641  964  279
[17]  42(B06) 1f 33  7  0    559.6  4091998.3 -0.1  5 0  383  380  375
[18]  52(B16) 1f 35  7  0    661.1  4091998.1 -0.0  2 0  519  647  333
[19]  55(B19) 1f 40  7  0   1080.9  4091997.1 -0.1  2 0  949 1650  626
[20]  57(B21) 1f 41  7  0   -625.0  4092001.5 -0.1  2 0  791 1166  637
[21]  58(B22) 1f 43  7  0    833.2  4091997.7  0.0  2 0 1534 2146  913
[22]  65(B29) 1f 41  9  0  -3834.8  4092010.0  0.1  2 0 1294 1275  371
[32]  75(N-6)  f 38  7  0   -137.2  1022000.0  0.0  2 0   532  731  102
[33]  76(N-5)  7 38 22  0   2170.2  1021998.5 -0.0  2 0   727  912  541
[34]  77(N-4)  7 36 24  0  -5629.6  1022003.6  0.1  2 0    53  320  258
[35]  80(N-1)  f 39 20  0  -2792.7  1022001.7  0.6  2 0   702  733  369
[51]  55(B19)  1  7  7  0   1307.4 20459981.6 -0.1  1 0   81  478  872
[52]  57(B21)  1  7  7  0  -1170.8 20460008.7 -0.1  1 0  507  452  135
[53]  58(B22)  1  7  7  0    -37.6 20459987.8 -0.0  1 0  331  501  557
[54]  65(B29)  1  7  9  0  -3071.2 20460062.2  0.1  1 0  720  502  181
$GNGGA,055426.658,,,,,0,00,,,M,,,,0000*20
$GNRMC,055426.658,A,,,,,,,090419,,*28
$GPGSA,A,1,,,,,,,,,,,,,,,*1E
$BDGSA,A,1,,,,,,,,,,,,,,,*0F
$GLGSA,A,1,,,,,,,,,,,,,,,*02
$GPGSV,2,1,05,04,00,000,43,07,00,000,45,09,00,000,45,30,00,000,39*7B
$GPGSV,2,2,05,23,00,000,45*4C
$BDGSV,2,1,07,02,00,000,38,06,00,000,33,16,00,000,35,19,00,000,40*6E
$BDGSV,2,2,07,21,00,000,41,22,00,000,43,29,00,000,41*50
$B3CN0,0,0,0,0,0,0,0,0,0,0,0,0,0,0*4C
---00000030--- Acq_st=3 0  2000-1-1 0:1:40 
[00]  10(G11)  1  7  7  0  -4964.6  2046005.0 -0.2  1 0  142  322  339
[01]  03(G04)  f 43  7  0  -2097.9  2046002.7 -0.1  2 0  681 1646  482
[02]  06(G07)  f 44  8  0  -3887.1  2046005.0  0.0  2 0 2155 3061 1809
[03]  08(G09)  f 45  7  0   -878.4  2046001.0  0.1  2 0 2592 3827 1833
[04]  29(G30)  f 39  8  0  -4274.2  2046005.5 -0.1  2 0  528  956  120
[05]  22(G23)  f 44 12  0    914.8  2045998.7  0.0  2 0 1834 2765 1189
[16]  38(B02) 1f 37 27  0  -1093.1  4092002.8 -0.8  2 0 1096 1270  653
[17]  42(B06) 1f 33  7  0    559.4  4091998.4  0.1  5 0  251  344  355
[18]  52(B16) 1f 35  9  0    666.2  4091998.1  0.0  2 0  370  843  577
[19]  55(B19) 1f 40  7  0   1082.9  4091997.1  0.0  2 0 1347 1796  774
[20]  57(B21) 1f 41  8  0   -624.3  4092001.5 -0.0  2 0  799 1307  736
[21]  58(B22) 1f 43  7  0    836.1  4091997.7  0.1  2 0 1418 2100  722
[22]  65(B29) 1f 41  9  0  -3834.2  4092009.9 -0.0  2 0 1339 1568  694
[32]  75(N-6)  f 37  7  0   -139.8  1022000.0 -0.3  2 0   623  786  310
[33]  76(N-5)  7 38 22  0   2170.6  1021998.5  0.1  2 0   855 1031  534
[34]  77(N-4)  7 37 24  0  -5628.8  1022003.6 -0.3  2 0   197  448  413
[35]  80(N-1)  f 38 20  0  -2789.9  1022001.8 -0.1  2 0   638 1096  635
[48]  38(B02)  1 13 19  0  -1133.2 20460019.4 -0.0  1 0  349  556   11
[51]  55(B19)  1  7  8  0   1377.4 20459982.2 -0.0  1 0  346  457  389
[52]  57(B21)  1  7  7  0  -1278.6 20460008.9  0.1  1 0  304  286  601
[53]  58(B22)  1  7  7  0    139.2 20459987.1  0.1  1 0  442  355  517
[54]  65(B29)  1  7  7  0  -4036.0 20460061.6  0.1  1 0  185  746  519
$GNGGA,055427.658,,,,,0,00,,,M,,,,0000*21
$GNRMC,055427.658,A,,,,,,,090419,,*29
$GPGSA,A,1,,,,,,,,,,,,,,,*1E
$BDGSA,A,1,,,,,,,,,,,,,,,*0F
$GLGSA,A,1,,,,,,,,,,,,,,,*02
$GPGSV,2,1,05,04,00,000,43,07,00,000,44,09,00,000,45,30,00,000,39*7A
$GPGSV,2,2,05,23,00,000,44*4D
$BDGSV,2,1,07,02,00,000,37,06,00,000,33,16,00,000,35,19,00,000,40*61
$BDGSV,2,2,07,21,00,000,41,22,00,000,43,29,00,000,41*50
$B3CN0,0,0,0,0,0,0,0,0,0,0,0,0,0,0*4C
---00000031--- Acq_st=3 0  2000-1-1 0:1:41 
[00]  10(G11)  1 10  7  0  -5079.0  2046005.4  0.0  1 0  501  352  133
[01]  03(G04)  f 42  7  0  -2093.7  2046002.7 -0.0  2 0 1405 1814  802
[02]  06(G07)  f 45  7  0  -3885.9  2046004.9 -0.0  2 0 2189 2722 1533
[03]  08(G09)  f 45  7  0   -874.2  2046001.0 -0.0  2 0 2318 3587 1520
[04]  29(G30)  f 39  7  0  -4270.7  2046005.5 -0.0  2 0  397  848  448
[05]  22(G23)  f 44  7  0    917.2  2045998.7 -0.0  2 0 1802 3209 1453
[16]  38(B02) 1f 37 20  0  -1093.2  4092002.8  0.2  2 0  583  985  467
[17]  42(B06) 1f 33  7  0    561.6  4091998.3 -0.1  5 0  328  110  131
[18]  52(B16) 1f 36  8  0    668.9  4091998.1  0.1  2 0  497  878  490
[19]  55(B19) 1f 41  7  0   1084.3  4091997.1 -0.1  2 0 1544 1799  872
[20]  57(B21) 1f 41  7  0   -620.2  4092001.5 -0.0  2 0 1255 1433  735
[21]  58(B22) 1f 43  7  0    838.7  4091997.7  0.0  2 0 1676 2211  673
[22]  65(B29) 1f 41  7  0  -3834.0  4092009.9  0.1  2 0  851 1584  783
[24]  39(B03)  1 13 25  1  10000.0  4091975.9  0.1  1 0  490   94  613
[32]  75(N-6)  f 36  7  0   -132.4  1022000.1  0.2  2 0   262  852  416
[33]  76(N-5)  f 31 11  0   2176.5  1021998.6  0.2  5 0   458  609  150
[34]  77(N-4)  f 31 20  0  -5625.9  1022003.5 -0.0  5 0   372  559  431
[35]  80(N-1)  f 38 18  0  -2786.5  1022001.7  0.0  2 0   693  725  251
[48]  38(B02)  1 10 10  1   -453.9 20460024.6  0.1  1 0  257  617   28
[51]  55(B19)  1  7  7  0   1179.7 20459984.1  0.1  1 0  504  383  550
[52]  57(B21)  1  7  7  0  -1433.3 20460011.4  0.0  1 0  426  442  110
[53]  58(B22)  1  8  7  0    234.0 20459988.9 -0.0  1 0   86  335  279
[54]  65(B29)  1  7  7  0  -3817.7 20460061.9  0.1  1 0  772  350  377
$GNGGA,055428.658,,,,,0,00,,,M,,,,0000*2E
$GNRMC,055428.658,A,,,,,,,090419,,*26
$GPGSA,A,1,,,,,,,,,,,,,,,*1E
$BDGSA,A,1,,,,,,,,,,,,,,,*0F
$GLGSA,A,1,,,,,,,,,,,,,,,*02
$GPGSV,2,1,05,04,00,000,42,07,00,000,45,09,00,000,45,30,00,000,39*7A
$GPGSV,2,2,05,23,00,000,44*4D
$BDGSV,2,1,07,02,00,000,37,06,00,000,33,16,00,000,36,19,00,000,41*63
$BDGSV,2,2,07,21,00,000,41,22,00,000,43,29,00,000,41*50
$B3CN0,0,0,0,0,0,0,0,0,0,0,0,0,0,0*4C
---00000032--- Acq_st=3 0  2000-1-1 0:1:42 
[00]  10(G11)  1 12 11  0  -5173.0  2046005.7  0.0  1 0  231  154  346
[01]  03(G04)  f 42  7  0  -2097.7  2046002.7 -0.1  2 0 1554 1826  817
[02]  06(G07)  f 45  8  0  -3887.1  2046004.9 -0.0  2 0 3115 3570 1257
[03]  08(G09)  f 45 11  0   -875.5  2046001.1 -0.0  2 0 2498 3722 1604
[04]  29(G30)  f 39  7  0  -4267.9  2046005.5  0.0  2 0  712  838   50
[05]  22(G23)  f 44  7  0    917.7  2045998.7 -0.0  2 0 2169 3257 1587
[16]  38(B02) 1f 37 27  0  -1089.0  4092002.6  0.5  2 0  959 1161  672
[17]  42(B06) 1f 34  7  0    565.1  4091998.4 -0.1  5 0  441  444  140
[18]  52(B16) 1f 36  7  0    665.7  4091998.1  0.2  2 0  933  454  177
[19]  55(B19) 1f 41  7  0   1082.5  4091997.0  0.1  2 0  986 1381  705
[20]  57(B21) 1f 40  7  0   -619.9  4092001.5 -0.0  2 0 1375 1711  737
[21]  58(B22) 1f 43  7  0    837.9  4091997.7 -0.0  2 0 1570 2125  802
[22]  65(B29) 1f 40  7  0  -3830.8  4092009.9  0.0  2 0 1016  980  117
[24]  39(B03)  1 10 10  1   9589.6  4091974.8  0.1  1 0  368  365  509
[25]  45(B09)  1  7  7  0    481.6  4092000.0 -0.1  1 0  518  427  519
[32]  75(N-6)  f 36  7  0   -136.4  1022000.1  0.0  2 0   604 1016  511
[33]  76(N-5)  f 37  7  0   2171.8  1021998.6  0.0  2 0   797  966  113
[34]  77(N-4)  f 37 22  0  -5627.3  1022003.5 -0.2  2 0   559  857  452
[35]  80(N-1)  f 38 19  0  -2789.5  1022001.7  0.1  2 0   784 1220  930
[48]  38(B02)  1 36 18  0  -1132.0 20460023.4  0.0  1 0  686  431  403
[50]  52(B16)  1  7  7  0    353.8 20459989.2 -0.0  1 0  284   95  209
$GNGGA,055429.658,,,,,0,00,,,M,,,,0000*2F
$GNRMC,055429.658,A,,,,,,,090419,,*27
$GPGSA,A,1,,,,,,,,,,,,,,,*1E
$BDGSA,A,1,,,,,,,,,,,,,,,*0F
$GLGSA,A,1,,,,,,,,,,,,,,,*02
$GPGSV,2,1,05,04,00,000,42,07,00,000,45,09,00,000,45,30,00,000,39*7A
$GPGSV,2,2,05,23,00,000,44*4D
$BDGSV,2,1,07,02,00,000,38,06,00,000,34,16,00,000,36,19,00,000,41*6B
$BDGSV,2,2,07,21,00,000,40,22,00,000,43,29,00,000,40*50
$B3CN0,0,0,0,0,0,0,0,0,0,0,0,0,0,0*4C
---00000033--- Acq_st=3 0  2000-1-1 0:1:43 
[00]  10(G11)  1  7 12  0  -5184.7  2046005.4 -0.0  1 0   71  327  164
[01]  03(G04)  f 42 10  0  -2095.8  2046002.7  0.0  2 0 1099 1368  668
[02]  06(G07)  f 44  7  0  -3888.9  2046005.0 -0.0  2 0 2795 3330 1398
[03]  08(G09)  f 45  7  0   -876.8  2046001.1  0.0  2 0 1897 2914 1160
[04]  29(G30)  f 39  7  0  -4279.0  2046005.5 -0.1  2 0  901 1327  979
[05]  22(G23)  f 44  7  0    917.3  2045998.7  0.0  2 0 1927 2931 1131
[16]  38(B02) 1f 38 25  0  -1096.0  4092002.6 -0.8  2 0  862  798  259
[17]  42(B06) 1f 34  7  0    567.8  4091998.4  0.0  5 0  255  789  523
[18]  52(B16) 1f 36 10  0    666.7  4091998.1 -0.0  2 0 1183 1050  220
[19]  55(B19) 1f 41  9  0   1076.8  4091997.1  0.0  2 0 1317 1583  498
[20]  57(B21) 1f 41  7  0   -620.2  4092001.5 -0.1  2 0 1083 1203  607
[21]  58(B22) 1f 43  7  0    836.1  4091997.7 -0.0  2 0 1795 2135  734
[22]  65(B29) 1f 40  7  0  -3838.0  4092009.9  0.1  2 0  842 1120  482
[24]  39(B03)  1 36 26  0   9955.5  4091975.5  0.0  1 0  149  233  246
[25]  45(B09)  1  7  7  0    490.1  4091998.4  0.3  1 0 1013  791  249
[32]  75(N-6)  f 37  7  0   -135.8  1022000.0  0.0  2 0   595  969  595
[33]  76(N-5)  f 37  7  0   2170.5  1021998.5 -0.1  2 0   507 1030  384
[34]  77(N-4)  f 37 22  0  -5630.5  1022003.5 -0.0  2 0   748  864  302
[35]  80(N-1)  f 38 19  0  -2789.7  1022001.8 -0.2  2 0   635  827  331
[48]  38(B02)  1 17 13  0   -854.6 20460027.9 -0.0  1 0   53  157  301
[50]  52(B16)  1 11  7  0    333.0 20459990.5  0.0  1 0  394  249  548
[51]  55(B19)  1  7  7  0    808.4 20459983.5 -0.2  1 0  269  336  264
[52]  57(B21)  1  7  7  0   -277.0 20460008.1  0.2  1 0  947  594  808
[53]  58(B22)  1  7  7  0     72.7 20459987.0 -0.1  1 0  602  144  233
[54]  65(B29)  1  8  8  0  -2796.1 20460061.1 -0.3  1 0  210  380  318
$GNGGA,055430.529,2944.9273,N,10633.1099,E,1,04,5.2,300.5,M,,,,0000*1F
$GNRMC,055430.529,A,2944.9273,N,10633.1099,E,0.41,0.00,090419,,*16
$GPGSA,A,3,07,09,23,30,,,,,,,,,6.0,5.2,3.0*3C
$BDGSA,A,3,,,,,,,,,,,,,6.0,5.2,3.0*21
$GLGSA,A,3,,,,,,,,,,,,,6.0,5.2,3.0*2C
$GPGSV,2,1,05,04,00,000,42,07,00,000,44,09,00,000,45,30,00,000,39*7B
$GPGSV,2,2,05,23,00,000,44*4D
$BDGSV,2,1,07,02,00,000,38,06,00,000,34,16,00,000,36,19,00,000,41*6B
$BDGSV,2,2,07,21,00,000,41,22,00,000,43,29,00,000,40*51
$B3CN0,0,0,0,0,0,0,0,0,0,0,0,0,0,0*4C
---00000034--- Acq_st=3 0  2000-1-1 0:1:44 
[01]  03(G04)  f 41  7  0  -2100.6  2046002.7  0.0  2 0  895 1564  863
[02]  06(G07)  f 45  7  0  -3887.6  2046005.0  0.0  2 0 2561 3333 1744
[03]  08(G09)  f 45  7  0   -876.1  2046001.1  0.0  2 0 2420 3603 1502
[04]  29(G30)  f 39  7  0  -4274.7  2046005.4  0.0  2 0  654 1041  706
[05]  22(G23)  f 44  8  0    915.8  2045998.7 -0.0  2 0 1696 2597 1164
[16]  38(B02) 1f 37 23  0  -1094.0  4092002.8 -0.7  2 0  468  638  557
[17]  42(B06) 1f 33  8  0    561.6  4091998.5  0.1  5 0  802  924  272
[18]  52(B16) 1f 35  7  0    658.4  4091998.1  0.1  2 0  655  843  154
[19]  55(B19) 1f 41  7  0   1079.6  4091997.0 -0.0  2 0 1083 1224  528
[20]  57(B21) 1f 41  7  0   -620.8  4092001.5  0.0  2 0 1152 1400  556
[21]  58(B22) 1f 43  7  0    833.8  4091997.7 -0.0  2 0 1890 2253 1029
[22]  65(B29) 1f 40  7  0  -3833.2  4092009.9  0.0  2 0 1075 1551  840
[24]  39(B03)  1 19 21  1  10189.0  4091976.2  0.1  1 0  284  251  386
[25]  45(B09)  7 34  7  0    486.8  4091998.5 -0.1  5 0  669  625  344
[32]  75(N-6)  f 37  7  0   -135.9  1022000.0 -0.1  2 0   681  754  412
[33]  76(N-5)  f 38  7  0   2172.6  1021998.6  0.1  2 0   680  955  221
[34]  77(N-4)  f 38 22  0  -5630.4  1022003.6  0.0  2 0   531  875  251
[35]  80(N-1)  f 39 19  0  -2788.8  1022001.8  0.2  2 0   566  797  455
[50]  52(B16)  1  7  7  0     37.5 20459990.1  0.1  1 0  301  185  355
[51]  55(B19)  1  7  7  0    941.0 20459982.6  0.1  1 0  576  156  608
[52]  57(B21)  1  7  7  0     -3.4 20460009.4  0.1  1 0  523  265  285
[53]  58(B22)  1  7  7  0     23.5 20459987.9  0.0  1 0  374  504  716
[54]  65(B29)  1  7  7  0  -2334.8 20460061.4 -0.1  1 0  292  369  584
set_rangeHR meas:4
set_rangeHR pvmdl_kf.k_dim:4
There are 4 meas!
There are 4 numSvUsed
Refix G07: 2, 194089.925146, -3888
Refix G09: 2, 194089.928571, -875
Refix G23: 2, 194089.928473, 917
Refix G30: 2, 194089.916035, -4273
$GNGGA,055432.000,2944.9241,N,10633.1030,E,1,04,5.2,292.6,M,,,,0000*18
$GNRMC,055432.000,A,2944.9241,N,10633.1030,E,0.62,0.00,090419,,*19
$GPGSA,A,3,07,09,23,30,,,,,,,,,6.0,5.2,3.0*3C
$BDGSA,A,3,,,,,,,,,,,,,6.0,5.2,3.0*21
$GLGSA,A,3,,,,,,,,,,,,,6.0,5.2,3.0*2C
$GPGSV,2,1,05,04,00,000,41,07,00,000,45,09,00,000,45,30,00,000,39*79
$GPGSV,2,2,05,23,00,000,44*4D
$BDGSV,2,1,08,02,00,000,37,06,00,000,33,16,00,000,35,19,00,000,41*6F
$BDGSV,2,2,08,21,00,000,41,22,00,000,43,29,00,000,40,09,00,000,34*60
$B3CN0,0,0,0,0,0,0,0,0,0,0,0,0,0,0*4C
---00000035--- Acq_st=2 0  2000-1-1 0:1:45 
[01]  03(G04)  f 41  9  0  -2096.7  2046002.7 -0.1  2 0  877 1339  720
[02]  06(G07)  f 45  7  0  -3888.4  2046005.0 -0.0  2 0 2850 3592 1622
[03]  08(G09)  f 45  7  0   -875.9  2046001.1 -0.0  2 0 2572 3764 1813
[04]  29(G30)  f 38  7  0  -4271.7  2046005.6  0.2  2 0  620  835  859
[05]  22(G23)  f 44  7  0    915.5  2045998.8  0.0  2 0 1896 2390 1049
[16]  38(B02) 1f 39 24  0  -1099.6  4092002.7  0.7  2 0  823  732  289
[17]  42(B06) 1f 33  7  0    565.6  4091998.4  0.0  5 0  299  217   80
[18]  52(B16) 1f 36 13  0    665.8  4091998.2 -0.1  2 0  520  912  261
[19]  55(B19) 1f 41  7  0   1081.4  4091997.0  0.1  2 0 1126  993  158
[20]  57(B21) 1f 41  7  0   -619.3  4092001.5 -0.0  2 0 1102 1155  285
[21]  58(B22) 1f 43  7  0    835.6  4091997.7  0.0  2 0 1298 1954  796
[22]  65(B29) 1f 40  7  0  -3832.8  4092010.0 -0.1  2 0  954  830  289
[24]  39(B03)  1 10 24  1   9933.6  4091976.4  0.3  1 0  493  427  419
[25]  45(B09)  7 34  7  0    488.9  4091998.6 -0.0  2 0  428  486  120
[32]  75(N-6) 8f 37  7  0   -133.1  1022000.1  0.0  2 0   695  686  100
[33]  76(N-5) 8f 38  7  0   2174.7  1021998.5 -0.1  2 0   514  895  335
[34]  77(N-4) 8f 37 21  0  -5631.1  1022003.6 -0.1  2 0   389  463  259
[35]  80(N-1) 8f 39 20  0  -2786.4  1022001.7  0.1  2 0   355  818  616
[48]  38(B02)  1 36 36  0   -666.9 20460011.9  0.0  1 0  498  767  379
[50]  52(B16)  1  7  7  0   -311.3 20459990.0  0.1  1 0  294  121  291
[51]  55(B19)  1  7  7  0   1304.5 20459983.8  0.1  1 0  281   37  777
[52]  57(B21)  1  7  9  0   -589.8 20460008.3 -0.2  1 0  764  369  108
[53]  58(B22)  1  7  7  0     -0.9 20459989.1  0.1  1 0  252  572  584
[54]  65(B29)  1  7  7  0  -2258.2 20460060.7 -0.1  1 0  386   83  172
set_rangeHR meas:4
set_rangeHR pvmdl_kf.k_dim:4
There are 4 meas!
There are 4 numSvUsed
Refix G07: 2, 194090.925148, -3887
Refix G09: 2, 194090.928571, -874
Refix G23: 2, 194090.928472, 917
Refix G30: 2, 194090.916037, -4273
$GNGGA,055433.000,2944.9228,N,10633.1007,E,1,04,5.2,290.4,M,,,,0000*12
$GNRMC,055433.000,A,2944.9228,N,10633.1007,E,0.47,0.00,090419,,*14
$GPGSA,A,3,07,09,23,30,,,,,,,,,6.0,5.2,3.0*3C
$BDGSA,A,3,,,,,,,,,,,,,6.0,5.2,3.0*21
$GLGSA,A,3,,,,,,,,,,,,,6.0,5.2,3.0*2C
$GPGSV,2,1,05,04,00,000,41,07,37,320,45,09,46,269,45,30,06,310,38*76
$GPGSV,2,2,05,23,45,216,44*49
$BDGSV,3,1,09,02,00,000,39,06,00,000,33,16,00,000,36,19,00,000,41*62
$BDGSV,3,2,09,21,00,000,41,22,00,000,43,29,00,000,40,09,00,000,34*60
$BDGSV,3,3,09,13,16,175,00*57
$B3CN0,0,0,0,0,0,0,0,0,0,0,0,0,0,0*4C
---00000036--- Acq_st=7 0  2000-1-1 0:1:46 
