i=1
Rf R0 Config = ff777073
Rf R1 Config = 00dffbfe
Rf R52 Config = 00dfee80
i=2
Rf R0 Config = 007772f3
Rf R1 Config = 00df9bfe
Rf R52 Config = 00da0eb0
i=3
Rf R0 Config = 007772f3
Rf R1 Config = 00dfbbfa
Rf R52 Config = 00decf70
i=4
Rf R0 Config = 00777273
Rf R1 Config = 00df9bfe
Rf R52 Config = 00de4e40
SD initialized success
Create debug.log Failed! 3
Start Channel by LuYu
$GNGGA,000000.000,,,,,0,00,,,M,,,,0000*2B
$GNRMC,000000.000,A,,,,,,,060180,,*29
$GPGSA,A,1,,,,,,,,,,,,,,,*1E
$BDGSA,A,1,,,,,,,,,,,,,,,*0F
$GLGSA,A,1,,,,,,,,,,,,,,,*02
$B3CN0,0,0,0,0,0,0,0,0,0,0,0,0,0,0*4C
---00000001--- Acq_st=3 0  2000-1-1 0:0:53 
[00]  03(G04)  1 19  7  0   1434.0  2045998.4  0.1  1 0  817 1084  389
[01]  06(G07)  1  7  7  0   -500.0  2046002.9 -0.0  1 0  202 1173 2381
[02]  08(G09)  1  7  7  0   1750.0  2045999.0 -0.0  1 0  730 1456  914
[03]  12(G13)  1  7  7  0  -2500.0  2046004.3  0.0  1 0  280  320 1071
$GNGGA,000000.000,,,,,0,00,,,M,,,,0000*2B
$GNRMC,000000.000,A,,,,,,,060180,,*29
$GPGSA,A,1,,,,,,,,,,,,,,,*1E
$BDGSA,A,1,,,,,,,,,,,,,,,*0F
$GLGSA,A,1,,,,,,,,,,,,,,,*02
$B3CN0,0,0,0,0,0,0,0,0,0,0,0,0,0,0*4C
---00000002--- Acq_st=3 0  2000-1-1 0:0:54 
[00]  03(G04)  7  7  7  0   1431.3  2045998.1  1.0  5 0 1012 1010  349
[01]  06(G07)  1 31  7  0   -634.5  2046001.0  0.9  1 0 1589 2149 1099
[02]  08(G09)  1 20  7  0   1622.1  2045997.8  0.7  1 0 1316 1480  990
[03]  12(G13)  1 27  7  0  -2546.4  2046004.2  0.4  1 0  779 1588  670
[04]  16(G17)  1 16  7  0  -3444.6  2046006.8  0.3  1 0  854 2840 2194
$GNGGA,000000.000,,,,,0,00,,,M,,,,0000*2B
$GNRMC,000000.000,A,,,,,,,060180,,*29
$GPGSA,A,1,,,,,,,,,,,,,,,*1E
$BDGSA,A,1,,,,,,,,,,,,,,,*0F
$GLGSA,A,1,,,,,,,,,,,,,,,*02
$B3CN0,0,0,0,0,0,0,0,0,0,0,0,0,0,0*4C
---00000003--- Acq_st=3 0  2000-1-1 0:0:55 
[00]  03(G04)  7 40  7  0   1428.7  2045998.1  0.1  2 0 1288 1316  755
[01]  06(G07)  1 32  7  0   -640.3  2046000.4  1.0  1 0 1511 2140  881
[02]  08(G09)  1 23  7  0   1616.6  2045997.7  1.0  1 0 1191 1610  618
[03]  12(G13)  1 32 10  0  -2545.0  2046002.6  1.0  1 0  790 1210  675
[04]  16(G17)  1 22  7  0  -3448.0  2046004.2  1.0  1 0 2473 2029  673
[05]  27(G28)  1  7  7  0  -2993.3  2046004.3 -0.1  1 0  398  177  867
[06]  29(G30)  1 23  7  0  -2797.6  2046006.0  0.1  1 0  529 1417  957
[16]  38(B02)  1 10 31  1  -1000.0  4092002.4  0.0  1 0  326  237  344
$GNGGA,000000.000,,,,,0,00,,,M,,,,0000*2B
$GNRMC,000000.000,A,,,,,,,060180,,*29
$GPGSA,A,1,,,,,,,,,,,,,,,*1E
$BDGSA,A,1,,,,,,,,,,,,,,,*0F
$GLGSA,A,1,,,,,,,,,,,,,,,*02
$GPGSV,1,1,01,04,00,000,40*48
$B3CN0,0,0,0,0,0,0,0,0,0,0,0,0,0,0*4C
---00000004--- Acq_st=3 0  2000-1-1 0:0:56 
[00]  03(G04)  7 40  7  0   1428.8  2045998.0  0.1  2 0  783 1538 1162
[01]  06(G07)  1 32  8  0   -638.9  2046000.7  1.0  1 0 1671 2694 1305
[02]  08(G09)  1 20  7  0   1615.1  2045997.9  1.0  1 0  791 1811 1117
[03]  12(G13)  1 31 10  0  -2546.8  2046003.2  1.0  1 0  963 1624  812
[04]  16(G17)  1 18  7  0  -3449.5  2046004.2  1.0  1 0 1670 2767 1378
[05]  27(G28)  1  7  7  0  -3335.3  2046005.8 -0.1  1 0  246  286  475
[06]  29(G30)  1 18 11  0  -2795.0  2046003.6  0.9  1 0 1009 1635  771
[16]  38(B02)  1 18 10  0  -1378.1  4092001.4  0.1  1 0  341  367  455
[17]  41(B05)  1 13 26  1   -960.3  4092003.2 -0.0  1 0  160   82  304
[18]  45(B09)  1  7  7  0    750.0  4091999.8 -0.0  1 0  758 1325  574
$GNGGA,000000.000,,,,,0,00,,,M,,,,0000*2B
$GNRMC,000000.000,A,,,,,,,060180,,*29
$GPGSA,A,1,,,,,,,,,,,,,,,*1E
$BDGSA,A,1,,,,,,,,,,,,,,,*0F
$GLGSA,A,1,,,,,,,,,,,,,,,*02
$GPGSV,1,1,01,04,00,000,40*48
$B3CN0,0,0,0,0,0,0,0,0,0,0,0,0,0,0*4C
---00000005--- Acq_st=3 0  2000-1-1 0:0:57 
[00]  03(G04)  7 40  7  0   1431.7  2045998.1 -0.1  2 0  987 1322  386
[01]  06(G07)  1 36  7  0   -633.1  2046000.6  1.0  1 0 1547 2563 1570
[02]  08(G09)  1 31  8  0   1619.4  2045997.7  1.0  1 0  924 1823 1300
[03]  12(G13)  7 27  7  0  -2537.4  2046003.3  0.6 10 0 1003 1294  633
[04]  16(G17)  7 19  7  0  -3441.8  2046004.5  0.9 10 0 1378 3007 1683
[05]  27(G28)  1  7  7  0  -3301.4  2046003.7  0.2  1 0  578 1043  627
[06]  29(G30)  7 20  7  0  -2789.8  2046003.6  0.9 10 0  647 1751 1089
[16]  38(B02)  1 36 10  0  -1518.6  4092002.6  0.1  1 0  307  290  103
[17]  41(B05)  7 24 10  1  -1192.8  4092003.0  0.2  2 0  164  108  575
[18]  45(B09)  1  7 14  0    585.5  4091998.4  0.2  1 0 1067 1252  816
[19]  48(B12)  1  7  8  0  -2838.4  4092009.2  0.0  1 0  235  275  898
[20]  49(B13)  1  7  7  0  -2379.2  4092005.4  0.1  1 0  325  341  471
[21]  52(B16)  1  7  7  0    250.0  4092000.1 -0.0  1 0  653 1077  972
$GNGGA,080644.062,,,,,0,00,,,M,,,,0000*21
$GNRMC,080644.062,A,,,,,,,070180,,*22
$GPGSA,A,1,,,,,,,,,,,,,,,*1E
$BDGSA,A,1,,,,,,,,,,,,,,,*0F
$GLGSA,A,1,,,,,,,,,,,,,,,*02
$GPGSV,1,1,04,04,00,000,40,13,00,000,27,17,00,000,19,30,00,000,18*7E
$BDGSV,1,1,01,05,00,000,24*5A
$B3CN0,0,0,0,0,0,0,0,0,0,0,0,0,0,0*4C
---00000006--- Acq_st=3 0  2000-1-1 0:0:58 
[00]  03(G04)  f 40  7  0   1429.0  2045998.1  0.1  2 0  569 1711  526
[01]  06(G07)  7 35  7  0   -630.0  2046000.8  0.1  2 0 1414 2322 1390
[02]  08(G09)  7 32  7  0   1619.5  2045997.9  0.3  5 0  617 1206  863
[03]  12(G13)  7 42  7  0  -2542.7  2046003.3 -0.0  2 0  505 1514  844
[04]  16(G17)  7 45  7  0  -3444.2  2046004.4  0.1  2 0 1187 2563 1245
[05]  27(G28)  1  7  7  0  -3346.7  2046003.0  0.0  1 0  480  593  135
[06]  29(G30)  7 42  7  0  -2790.5  2046003.6 -0.0  2 0  965 1327  496
[16]  38(B02)  7 10 22  0  -1890.5  4092004.8  0.0  2 0  360  453  441
[17]  41(B05)  7 10 10  1  -1593.8  4092004.0 -0.1  2 0  503 1012  737
[18]  45(B09)  7 28  7  0    586.8  4091998.4  0.3 10 0  856 1865 1154
[19]  48(B12)  7  9  7  0  -2770.5  4092007.2  0.1 10 0  903 1200  375
[20]  49(B13)  1  9  7  0  -1807.1  4092005.6  0.1  1 0  313  138  155
[21]  52(B16)  1  7 12  0    226.2  4091998.8  0.2  1 0  411 1085  882
$GNGGA,080645.062,,,,,0,00,,,M,,,,0000*20
$GNRMC,080645.062,A,,,,,,,070180,,*23
$GPGSA,A,1,,,,,,,,,,,,,,,*1E
$BDGSA,A,1,,,,,,,,,,,,,,,*0F
$GLGSA,A,1,,,,,,,,,,,,,,,*02
$GPGSV,2,1,06,04,00,000,40,07,00,000,35,09,00,000,32,13,00,000,42*71
$GPGSV,2,2,06,17,00,000,45,30,00,000,42*7D
$BDGSV,1,1,01,09,00,000,28*5A
$B3CN0,0,0,0,0,0,0,0,0,0,0,0,0,0,0*4C
---00000007--- Acq_st=3 0  2000-1-1 0:0:59 
[00]  03(G04)  f 40  7  0   1431.5  2045998.1  0.0  2 0  695 1180  805
[01]  06(G07)  7 43  7  0   -631.4  2046000.8  0.1  2 0 1506 2375  975
[02]  08(G09)  7 42  7  0   1622.5  2045997.9 -0.0  2 0  860 1432  679
[03]  12(G13)  7 41  7  0  -2543.1  2046003.2 -0.1  2 0 1092 1471  847
[04]  16(G17)  7 43  7  0  -3441.6  2046004.4 -0.0  2 0 1572 2566 1116
[06]  29(G30)  7 41  9  0  -2786.2  2046003.6  0.1  2 0  979 1883  805
[16]  38(B02)  7 10 27  1  -2034.8  4092005.3  0.0  2 0  178  432   45
[17]  41(B05)  7 10 10  1  -1791.9  4092004.6  0.1  2 0  470  328  181
[18]  45(B09)  7 41 13  0    586.9  4091998.3  0.0  2 0 1017 1721  750
[19]  48(B12)  7 40 15  0  -2771.2  4092007.2 -0.0  2 0  721 1301  640
[20]  49(B13)  1  7  7  0  -2178.4  4092005.4  0.0  1 0  356  249  276
[21]  52(B16)  7 27  7  0    223.8  4091999.3  0.1 10 0  437  357  103
[22]  60(B24)  1  7  7  0  -3914.5  4092010.0  0.2  1 0 1188 1742  856
[24]  62(B26)  1  7  7  0  -2000.0  4092005.5  0.2  1 0  546 1003  646
$GNGGA,080646.062,,,,,0,00,,,M,,,,0000*23
$GNRMC,080646.062,A,,,,,,,070180,,*20
$GPGSA,A,1,,,,,,,,,,,,,,,*1E
$BDGSA,A,1,,,,,,,,,,,,,,,*0F
$GLGSA,A,1,,,,,,,,,,,,,,,*02
$GPGSV,2,1,06,04,00,000,40,07,00,000,43,09,00,000,42,13,00,000,41*74
$GPGSV,2,2,06,17,00,000,43,30,00,000,41*78
$BDGSV,1,1,03,09,00,000,41,12,00,000,40,16,00,000,27*52
$B3CN0,0,0,0,0,0,0,0,0,0,0,0,0,0,0*4C
---00000008--- Acq_st=2 0  2000-1-1 0:1:0 
[00]  03(G04)  f 41  7  0   1435.2  2045998.1  0.0  2 0 1094 1399  950
[01]  06(G07)  7 43  7  0   -627.4  2046000.8 -0.0  2 0 1596 2502 1519
[02]  08(G09)  7 41  7  0   1619.8  2045997.9  0.0  2 0  614 1327  325
[03]  12(G13)  7 41  7  0  -2535.9  2046003.2 -0.1  2 0 1188 1544  397
[04]  16(G17)  7 43  7  0  -3445.0  2046004.4 -0.0  2 0 1371 2555 1130
[06]  29(G30)  7 41  9  0  -2788.3  2046003.6 -0.1  2 0 1012 1344  588
[16]  38(B02)  7 10 10  0  -2593.6  4092006.8  0.0  2 0  327  458  589
[17]  41(B05)  7 22 30  1  -1997.2  4092005.4 -0.1  2 0  462  200  116
[18]  45(B09) 1f 41  7  0    588.0  4091998.3 -0.0  2 0 1147 1197  679
[19]  48(B12) 1f 40 13  0  -2770.8  4092007.2 -0.1  2 0 1211 1799  691
[20]  49(B13)  1 14  8  0  -2239.3  4092005.2 -0.2  1 0  605  459  344
[21]  52(B16)  7 35 13  0    226.0  4091999.3 -0.2  2 0  806  930  382
[22]  60(B24)  7 22  7  0  -3912.5  4092010.3  0.4 10 0 1130 2174 1338
[24]  62(B26)  1  7  7  0  -1923.9  4092005.1  0.3  1 0 1004 1151  557
[32]  77(N-4)  1  7 14  0  -4992.3  1022004.2 -0.0  1 0   103   70  289
$GNGGA,080647.062,,,,,0,00,,,M,,,,0000*22
$GNRMC,080647.062,A,,,,,,,070180,,*21
$GPGSA,A,1,,,,,,,,,,,,,,,*1E
$BDGSA,A,1,,,,,,,,,,,,,,,*0F
$GLGSA,A,1,,,,,,,,,,,,,,,*02
$GPGSV,2,1,06,04,00,000,41,07,00,000,43,09,00,000,41,13,00,000,41*76
$GPGSV,2,2,06,17,00,000,43,30,00,000,41*78
$BDGSV,2,1,05,05,00,000,19,09,00,000,41,12,00,000,40,16,00,000,35*69
$BDGSV,2,2,05,24,00,000,22*5B
$B3CN0,0,0,0,0,0,0,0,0,0,0,0,0,0,0*4C
---00000009--- Acq_st=7 0  2000-1-1 0:1:1 
[00]  03(G04)  f 41  7  0   1435.7  2045998.0  0.0  2 0 1093 1783  514
[01]  06(G07)  7 43  8  0   -627.9  2046000.8  0.1  2 0 1753 2215  889
[02]  08(G09)  7 41  7  0   1621.7  2045997.9  0.1  2 0 1100 1829 1201
[03]  12(G13)  7 41  7  0  -2532.3  2046003.3 -0.0  2 0 1066 1501  292
[04]  16(G17)  7 43  7  0  -3438.0  2046004.4 -0.0  2 0 1356 2175  798
[06]  29(G30)  7 41  7  0  -2790.8  2046003.5 -0.0  2 0  981 1293  332
[16]  38(B02)  7 18 22  1  -3029.9  4092007.9  0.1  2 0   29  181  159
[17]  41(B05)  7 14 31  1  -2003.9  4092005.3 -0.2  2 0  447  398  164
[18]  45(B09) 1f 41 10  0    589.0  4091998.3 -0.0  2 0  861 1275  773
[19]  48(B12) 1f 40 14  0  -2767.5  4092007.1  0.1  2 0  884 1077  322
[21]  52(B16)  7 34  7  0    232.9  4091999.3 -0.1  2 0  494  620  323
[22]  60(B24)  7 43  7  0  -3906.8  4092010.3  0.1  2 0 1166 2144 1517
[24]  62(B26)  7 35  7  0  -1922.1  4092004.9  0.2  5 0 1129 1625  685
[32]  77(N-4)  1 24 11  1  -4810.9  1022003.5  0.4  1 0   124  588  631
[50]  45(B09)  1  7  7  0    442.7 20459989.9 -0.1  1 0  314  279  265
[51]  48(B12)  1  7  7  0  -2029.0 20460045.0 -0.0  1 0  399  345  436
$GNGGA,080648.062,,,,,0,00,,,M,,,,0000*2D
$GNRMC,080648.062,A,,,,,,,070180,,*2E
$GPGSA,A,1,,,,,,,,,,,,,,,*1E
$BDGSA,A,1,,,,,,,,,,,,,,,*0F
$GLGSA,A,1,,,,,,,,,,,,,,,*02
$GPGSV,2,1,06,04,00,000,41,07,00,000,43,09,00,000,41,13,00,000,41*76
$GPGSV,2,2,06,17,00,000,43,30,00,000,41*78
$BDGSV,2,1,06,02,00,000,20,09,00,000,41,12,00,000,40,16,00,000,34*66
$BDGSV,2,2,06,24,00,000,43,26,00,000,35*6D
$B3CN0,0,0,0,0,0,0,0,0,0,0,0,0,0,0*4C
---00000010--- Acq_st=7 0  2000-1-1 0:1:2 
[00]  03(G04)  f 41  7  0   1441.7  2045998.0 -0.1  2 0  835 1304  765
[01]  06(G07)  7 43  7  0   -623.1  2046000.8  0.0  2 0 1291 1919  844
[02]  08(G09)  7 40  7  0   1626.5  2045997.8  0.0  2 0  704 1059  430
[03]  12(G13)  7 41  9  0  -2536.4  2046003.2  0.0  2 0 1126 1554  952
[04]  16(G17)  7 43  7  0  -3436.9  2046004.4  0.0  2 0 1639 2153 1044
[06]  29(G30)  7 41  7  0  -2782.1  2046003.5  0.0  2 0  691 1150  203
[16]  38(B02)  7 10 10  0  -3485.0  4092008.9 -0.1  2 0  107  183  213
[17]  41(B05)  7 19 28  1  -2010.7  4092005.3 -0.3  2 0  207  208  189
[18]  45(B09) 1f 40 12  0    592.0  4091998.3 -0.0  2 0  953 1091  623
[19]  48(B12) 1f 40 14  0  -2758.1  4092007.1 -0.0  2 0  845 1010   99
[21]  52(B16)  7 34 12  0    230.0  4091999.3 -0.1  2 0  508  617  465
[22]  60(B24)  7 43  7  0  -3908.7  4092010.2  0.0  2 0 1237 1743  917
[24]  62(B26)  7 38  7  0  -1913.6  4092005.0  0.1  2 0  999 1129  573
[32]  77(N-4)  7 41 11  0  -4807.5  1022003.1  0.7  2 0   762 1262  643
[50]  45(B09)  1  7  7  0    -69.8 20459993.0 -0.1  1 0  417  405  408
[51]  48(B12)  1  7  7  0  -2677.0 20460044.3 -0.0  1 0  362   65  204
$GNGGA,080649.062,,,,,0,00,,,M,,,,0000*2C
$GNRMC,080649.062,A,,,,,,,080419,,*25
$GPGSA,A,1,,,,,,,,,,,,,,,*1E
$BDGSA,A,1,,,,,,,,,,,,,,,*0F
$GLGSA,A,1,,,,,,,,,,,,,,,*02
$GPGSV,2,1,06,04,00,000,41,07,00,000,43,09,00,000,40,13,00,000,41*77
$GPGSV,2,2,06,17,00,000,43,30,00,000,41*78
$BDGSV,2,1,06,05,00,000,19,09,00,000,41,12,00,000,40,16,00,000,34*6B
$BDGSV,2,2,06,24,00,000,43,26,00,000,38*60
$B3CN0,0,0,0,0,0,0,0,0,0,0,0,0,0,0*4C
---00000011--- Acq_st=3 0  2000-1-1 0:1:3 
[00]  03(G04)  f 40  7  0   1436.3  2045998.1 -0.1  2 0  946 1099  550
[01]  06(G07)  7 43  7  0   -628.1  2046000.8  0.0  2 0 1929 2465 1380
[02]  08(G09)  7 40  7  0   1625.1  2045997.8 -0.1  2 0  868 1237  613
[03]  12(G13)  7 41  7  0  -2534.0  2046003.2 -0.1  2 0 1107 1734  845
[04]  16(G17)  7 43  7  0  -3439.1  2046004.4  0.0  2 0 1368 2342 1309
[06]  29(G30)  7 41  7  0  -2784.4  2046003.5  0.1  2 0 1302 1720 1008
[16]  38(B02)  7 13 30  1  -4005.7  4092010.4  0.1  2 0  108  160  178
[17]  41(B05)  7 10 30  1  -2005.8  4092005.2 -0.0  2 0  299  279  329
[18]  45(B09) 1f 40 11  0    588.2  4091998.4  0.1  2 0 1129 1295  697
[19]  48(B12) 1f 40 15  0  -2769.1  4092007.2  0.1  2 0  665 1123  404
[21]  52(B16)  7 33 12  0    223.4  4091999.4 -0.1  2 0  199  500  184
[22]  60(B24)  7 42  9  0  -3906.3  4092010.2  0.0  2 0 1191 1968  867
[24]  62(B26)  7 38  7  0  -1919.0  4092004.9 -0.2  2 0  451  585  570
[32]  77(N-4)  7 42 14  0  -4809.2  1022003.0 -0.0  2 0   420  879  599
[50]  45(B09)  1  7  7  0     53.7 20459991.5 -0.0  1 0  507  292  628
[51]  48(B12)  1  7  8  0  -2885.0 20460044.7 -0.2  1 0  318  258   85
$GNGGA,080650.062,,,,,0,00,,,M,,,,0000*24
$GNRMC,080650.062,A,,,,,,,080419,,*2D
$GPGSA,A,1,,,,,,,,,,,,,,,*1E
$BDGSA,A,1,,,,,,,,,,,,,,,*0F
$GLGSA,A,1,,,,,,,,,,,,,,,*02
$GPGSV,2,1,06,04,00,000,40,07,00,000,43,09,00,000,40,13,00,000,41*76
$GPGSV,2,2,06,17,00,000,43,30,00,000,41*78
$BDGSV,2,1,06,02,00,000,18,09,00,000,40,12,00,000,40,16,00,000,34*6C
$BDGSV,2,2,06,24,00,000,42,26,00,000,38*61
$B3CN0,0,0,0,0,0,0,0,0,0,0,0,0,0,0*4C
---00000012--- Acq_st=3 0  2000-1-1 0:1:4 
[00]  03(G04)  f 40  7  0   1439.8  2045998.1  0.0  2 0  776 1290  519
[01]  06(G07)  f 43  7  0   -627.2  2046000.8 -0.0  2 0 1086 2294 1363
[02]  08(G09)  f 40  7  0   1619.4  2045997.8  0.1  2 0  668 1171  843
[03]  12(G13)  f 40  7  0  -2537.1  2046003.3 -0.0  2 0  786 1174  154
[04]  16(G17)  f 43  7  0  -3437.6  2046004.4  0.0  2 0 1477 2176 1086
[05]  27(G28)  1  7  7  0  -2750.0  2046003.1 -0.1  1 0  147  145  296
[06]  29(G30)  f 41  7  0  -2784.0  2046003.5 -0.0  2 0 1181 1313  735
[16]  38(B02)  7 10 31  1  -3992.2  4092010.4 -0.0  2 0  252  529  739
[17]  41(B05)  7 10 31  1  -2001.0  4092005.2 -0.0  2 0  200  285  172
[18]  45(B09) 1f 40 11  0    585.2  4091998.3  0.0  2 0  891 1634  690
[19]  48(B12) 1f 40 14  0  -2767.0  4092007.1 -0.0  2 0 1014 1751  826
[21]  52(B16)  7 34  7  0    225.7  4091999.3  0.1  2 0  570  579  307
[22]  60(B24)  7 42  7  0  -3912.4  4092010.2  0.1  2 0 1170 1659  438
[24]  62(B26)  7 38  7  0  -1927.6  4092004.9 -0.3  2 0  615 1228  520
[32]  77(N-4)  7 41  7  0  -4810.1  1022003.0  0.6  2 0   819 1394  720
[50]  45(B09)  1  7  7  0    157.0 20459993.3 -0.2  1 0  688  445  495
[51]  48(B12)  1  7  7  0  -2605.9 20460044.3  0.1  1 0 1279 1024  965
---00000013--- Acq_st=3 0  2000-1-1 0:1:5 
[00]  03(G04)  f 40  7  0   1438.7  2045998.0  0.1  2 0  988 1387  765
[01]  06(G07)  f 43  7  0   -622.7  2046000.8  0.0  2 0 1284 2174  923
[02]  08(G09)  f 39  7  0   1615.8  2045997.9 -0.1  2 0  856 1284  295
[03]  12(G13)  f 40  7  0  -2534.3  2046003.2  0.0  2 0  182  957  507
[04]  16(G17)  f 43  7  0  -3438.6  2046004.4  0.0  2 0 1830 2326  954
[05]  27(G28)  1  7  7  0  -3279.6  2046003.0 -0.0  1 0  274  118  255
[06]  29(G30)  f 41  7  0  -2785.7  2046003.5  0.0  2 0 1182 1632  750
[16]  38(B02)  7 10 31  1  -4043.8  4092010.5  0.1  2 0  100  409  295
[17]  41(B05)  7 10 27  1  -1968.4  4092005.3  0.1  2 0  354  166  289
[18]  45(B09) 1f 40  9  0    584.7  4091998.3 -0.0  2 0  935 1231  631
[19]  48(B12) 1f 40 14  0  -2763.5  4092007.1 -0.0  2 0  943 1385  732
[21]  52(B16)  7 33  9  0    239.3  4091999.3  0.0  2 0  764  638  574
[22]  60(B24)  7 42  7  0  -3908.5  4092010.2 -0.0  2 0 1456 1963  632
[24]  62(B26)  7 37  7  0  -1920.7  4092004.9  0.2  2 0  291  764  646
[32]  77(N-4)  f 38  7  0  -4810.5  1022003.0 -0.2  2 0   382 1191  672
$GNGGA,080651.062,,,,,0,00,,,M,,,,0000*25
$GNRMC,080651.062,A,,,,,,,080419,,*2C
$GPGSA,A,1,,,,,,,,,,,,,,,*1E
$BDGSA,A,1,,,,,,,,,,,,,,,*0F
$GLGSA,A,1,,,,,,,,,,,,,,,*02
$GPGSV,2,1,06,04,00,000,40,07,00,000,43,09,00,000,39,13,00,000,40*79
$GPGSV,2,2,06,17,00,000,43,30,00,000,41*78
$BDGSV,2,1,05,09,00,000,40,12,00,000,40,16,00,000,33,24,00,000,42*63
$BDGSV,2,2,05,26,00,000,37*5D
$B3CN0,0,0,0,0,0,0,0,0,0,0,0,0,0,0*4C
---00000014--- Acq_st=3 0  2000-1-1 0:1:6 
[00]  03(G04)  f 40  7  0   1432.9  2045998.0 -0.1  2 0  810 1222  666
[01]  06(G07)  f 43  7  0   -628.6  2046000.8 -0.1  2 0 1292 2042 1105
[02]  08(G09)  f 38  7  0   1621.2  2045997.8 -0.3  2 0  491  763   62
[03]  12(G13)  f 40  7  0  -2537.4  2046003.2 -0.1  2 0  434 1346  994
[04]  16(G17)  f 44  7  0  -3441.5  2046004.4  0.1  2 0 1988 2564 1362
[05]  27(G28)  1  7 11  0  -3143.0  2046003.4  0.1  1 0  287  362  279
[06]  29(G30)  f 41  7  0  -2784.0  2046003.5 -0.0  2 0 1171 1598  733
[16]  38(B02)  7 18 22  0  -4286.5  4092011.3  0.0  2 0  346  266  490
[17]  41(B05)  7 13 31  1  -2004.5  4092005.3 -0.1  2 0  187  379   21
[18]  45(B09) 1f 40 11  0    591.3  4091998.4  0.0  2 0  636 1119  148
[19]  48(B12) 1f 40 13  0  -2761.3  4092007.2 -0.1  2 0 1161 1369  540
[20]  49(B13)  1  7  7  0  -2500.0  4092007.7 -0.1  1 0  726 1212 1080
[21]  52(B16)  7 33 14  0    218.7  4091999.3 -0.0  2 0  335  882  415
[22]  60(B24) 1f 42  7  0  -3910.1  4092010.1 -0.1  2 0 1454 1674  630
[24]  62(B26) 1f 37  7  0  -1928.0  4092005.0 -0.6  2 0  667 1155  740
[32]  77(N-4)  f 42  7  0  -4811.4  1022003.0  0.0  2 0   759 1325  507
[50]  45(B09)  1  7 13  0    546.4 20459991.2  0.0  1 0  424  395  252
[51]  48(B12)  1  7  7  0  -2454.4 20460044.1 -0.2  1 0  214  364  449
$GNGGA,080652.062,,,,,0,00,,,M,,,,0000*26
$GNRMC,080652.062,A,,,,,,,080419,,*2F
$GPGSA,A,1,,,,,,,,,,,,,,,*1E
$BDGSA,A,1,,,,,,,,,,,,,,,*0F
$GLGSA,A,1,,,,,,,,,,,,,,,*02
$GPGSV,2,1,06,04,00,000,40,07,00,000,43,09,00,000,38,13,00,000,40*78
$GPGSV,2,2,06,17,00,000,44,30,00,000,41*7F
$BDGSV,2,1,06,02,00,000,19,09,00,000,40,12,00,000,40,16,00,000,33*6A
$BDGSV,2,2,06,24,00,000,42,26,00,000,37*6E
$B3CN0,0,0,0,0,0,0,0,0,0,0,0,0,0,0*4C
---00000015--- Acq_st=3 0  2000-1-1 0:1:7 
[00]  03(G04)  f 40  7  0   1433.4  2045998.1 -0.0  2 0  847 1304  634
[01]  06(G07)  f 43  7  0   -625.4  2046000.7  0.0  2 0 1051 1928 1106
[02]  08(G09)  f 37  7  0   1617.7  2045997.8 -0.6  2 0  375 1077  679
[03]  12(G13)  f 40 11  0  -2530.3  2046003.2  0.1  2 0  571 1108  474
[04]  16(G17)  f 44  7  0  -3441.0  2046004.4  0.0  2 0 1922 2488 1541
[05]  27(G28)  1  7  8  0  -3076.0  2046003.2  0.1  1 0  878  576  514
[06]  29(G30)  f 41  7  0  -2785.8  2046003.5 -0.0  2 0  827 1325  739
[16]  38(B02)  7 18 21  1  -4169.7  4092011.0  0.0  2 0  142  244  117
[17]  41(B05)  7 10 27  1  -2010.9  4092005.1  0.1  2 0  409  445  240
[18]  45(B09) 1f 40 11  0    583.9  4091998.4  0.0  2 0  663 1145  398
[19]  48(B12) 1f 40 16  0  -2771.0  4092007.1  0.0  2 0  773  971  603
[20]  49(B13)  1  7  7  0  -2366.1  4092006.0  0.8  1 0  604 1557  627
[21]  52(B16)  7 34 11  0    224.9  4091999.3 -0.2  2 0  274  371  235
[22]  60(B24) 1f 42  7  0  -3909.8  4092010.2  0.0  2 0 1263 1702  673
[24]  62(B26) 1f 37  7  0  -1924.5  4092004.9 -0.5  2 0  498  626  104
[32]  77(N-4)  f 42  7  0  -4809.6  1022003.1  0.2  2 0  1005 1483  900
[50]  45(B09)  1  7  7  0    212.9 20459990.8  0.1  1 0  554   25  136
[51]  48(B12)  1  7  7  0  -2783.8 20460042.8 -0.1  1 0  501  542  656
[54]  60(B24)  1  9  7  0  -3142.8 20460063.5 -0.2  1 0  492  357  773
[56]  62(B26)  1  7  7  0  -1670.9 20460031.2 -0.0  1 0  732  633  595
$GNGGA,080653.062,,,,,0,00,,,M,,,,0000*27
$GNRMC,080653.062,A,,,,,,,080419,,*2E
$GPGSA,A,1,,,,,,,,,,,,,,,*1E
$BDGSA,A,1,,,,,,,,,,,,,,,*0F
$GLGSA,A,1,,,,,,,,,,,,,,,*02
$GPGSV,2,1,06,04,00,000,40,07,00,000,43,09,00,000,37,13,00,000,40*77
$GPGSV,2,2,06,17,00,000,44,30,00,000,41*7F
$BDGSV,2,1,06,02,00,000,17,09,00,000,40,12,00,000,40,16,00,000,34*63
$BDGSV,2,2,06,24,00,000,42,26,00,000,37*6E
$B3CN0,0,0,0,0,0,0,0,0,0,0,0,0,0,0*4C
---00000016--- Acq_st=3 0  2000-1-1 0:1:8 
[00]  03(G04)  f 40  9  0   1433.0  2045998.1  0.1  2 0 1008 1474  605
[01]  06(G07)  f 43  7  0   -620.7  2046000.7 -0.0  2 0  954 2131 1589
[02]  08(G09)  f 36  7  0   1618.1  2045997.9  0.1  2 0  636 1039  359
[03]  12(G13)  f 40  7  0  -2532.0  2046003.2 -0.1  2 0  958 1206  409
[04]  16(G17)  f 44  7  0  -3435.1  2046004.4 -0.0  2 0 1865 2421 1400
[05]  27(G28)  1  7  7  0  -2723.2  2046003.8 -0.0  1 0  142  342  234
[06]  29(G30)  f 42  7  0  -2783.2  2046003.5 -0.0  2 0  811 1079  557
[16]  38(B02)  7 10 10  0  -4521.6  4092011.7  0.1  2 0  811  631  252
[17]  41(B05)  7 10 28  1  -2004.9  4092005.3  0.0  2 0  380  183  157
[18]  45(B09) 1f 40  7  0    586.0  4091998.4  0.1  2 0 1066 1363  464
[19]  48(B12) 1f 40 14  0  -2757.3  4092007.1 -0.2  2 0  869 1112  515
[20]  49(B13)  1  7  7  0  -2361.0  4092006.1  0.9  1 0  588 1553 1113
[21]  52(B16)  7 33  7  0    226.9  4091999.3 -0.2  2 0  417  657  462
[22]  60(B24) 1f 41  7  0  -3906.2  4092010.1  0.1  2 0 1161 1826  932
[24]  62(B26) 1f 37  7  0  -1913.2  4092004.9  0.2  2 0  811 1026  412
[32]  77(N-4)  f 41  7  0  -4805.1  1022003.1  0.4  2 0   605 1031  988
[50]  45(B09)  1 10  7  0   -231.3 20459991.8 -0.0  1 0  286  354  209
[51]  48(B12)  1  7  7  0  -2916.7 20460044.3 -0.1  1 0  800   96  248
[54]  60(B24)  1  7  7  0  -3679.3 20460062.7 -0.0  1 0  650  242  567
[56]  62(B26)  1  7  7  0  -1716.0 20460031.3 -0.2  1 0  115  321  249
$GNGGA,080654.062,,,,,0,00,,,M,,,,0000*20
$GNRMC,080654.062,A,,,,,,,080419,,*29
$GPGSA,A,1,,,,,,,,,,,,,,,*1E
$BDGSA,A,1,,,,,,,,,,,,,,,*0F
$GLGSA,A,1,,,,,,,,,,,,,,,*02
$GPGSV,2,1,06,04,00,000,40,07,00,000,43,09,00,000,36,13,00,000,40*76
$GPGSV,2,2,06,17,00,000,44,30,00,000,42*7C
$BDGSV,2,1,05,09,00,000,40,12,00,000,40,16,00,000,33,24,00,000,41*60
$BDGSV,2,2,05,26,00,000,37*5D
$B3CN0,0,0,0,0,0,0,0,0,0,0,0,0,0,0*4C
---00000017--- Acq_st=3 0  2000-1-1 0:1:9 
[00]  03(G04)  f 39  7  0   1437.7  2045998.1  0.0  2 0  821  781  615
[01]  06(G07)  f 43  7  0   -618.0  2046000.7 -0.0  2 0 1591 2467 1392
[02]  08(G09)  f 35  7  0   1620.8  2045997.8  0.1  2 0  522  662  178
[03]  12(G13)  f 41 12  0  -2530.9  2046003.3 -0.1  2 0  902 1315  971
[04]  16(G17)  f 45  7  0  -3438.6  2046004.4  0.0  2 0 2292 2826 1130
[06]  29(G30)  f 41  7  0  -2778.9  2046003.5  0.0  2 0  891 1229  510
[17]  41(B05)  7 10 33  1  -2004.7  4092005.2 -0.1  2 0  137  206   98
[18]  45(B09) 1f 40  7  0    592.7  4091998.3  0.0  2 0  674 1030  404
[19]  48(B12) 1f 40 14  0  -2760.6  4092007.1 -0.2  2 0 1081 1310  782
[20]  49(B13)  1  7  7  0  -2364.9  4092006.0  0.9  1 0  850 1567 1096
[21]  52(B16)  7 34 13  0    211.6  4091999.2  0.1  2 0  412  248  309
[22]  60(B24) 1f 42  7  0  -3905.7  4092010.2 -0.1  2 0 1155 1518  894
[24]  62(B26) 1f 37  7  0  -1918.9  4092005.0 -0.7  2 0  721  999  529
[32]  77(N-4)  f 40  7  0  -4805.7  1022003.1  0.1  2 0   466  846  426
[50]  45(B09)  1 12  7  0   -794.8 20459991.9  0.0  1 0   92  346  722
[51]  48(B12)  1  7  8  0  -2852.8 20460044.3 -0.1  1 0  407  521   73
[54]  60(B24)  1  7  7  0  -3974.8 20460064.1  0.1  1 0  245  220   86
[56]  62(B26)  1  8  7  0  -1727.4 20460031.8  0.2  1 0  940  752  573
$GNGGA,080655.062,,,,,0,00,,,M,,,,0000*21
$GNRMC,080655.062,A,,,,,,,080419,,*28
$GPGSA,A,1,,,,,,,,,,,,,,,*1E
$BDGSA,A,1,,,,,,,,,,,,,,,*0F
$GLGSA,A,1,,,,,,,,,,,,,,,*02
$GPGSV,2,1,06,04,00,000,39,07,00,000,43,09,00,000,35,13,00,000,41*7A
$GPGSV,2,2,06,17,00,000,45,30,00,000,41*7E
$BDGSV,2,1,05,09,00,000,40,12,00,000,40,16,00,000,34,24,00,000,42*64
$BDGSV,2,2,05,26,00,000,37*5D
$B3CN0,0,0,0,0,0,0,0,0,0,0,0,0,0,0*4C
---00000018--- Acq_st=7 0  2000-1-1 0:1:10 
[00]  03(G04)  f 39  7  0   1439.4  2045998.0 -0.0  2 0  330  664  407
[01]  06(G07)  f 43  7  0   -616.5  2046000.7  0.0  2 0 1563 2172 1099
[02]  08(G09)  f 36  7  0   1626.6  2045997.8 -0.4  2 0  651 1000  580
[03]  12(G13)  f 40  7  0  -2526.3  2046003.3  0.0  2 0  935 1390  612
[04]  16(G17)  f 45  7  0  -3434.0  2046004.4 -0.1  2 0 1700 2929 1476
[06]  29(G30)  f 41  7  0  -2780.1  2046003.6 -0.1  2 0 1050 1059  189
[17]  41(B05)  7 13 27  1  -2014.6  4092005.0 -0.1  2 0  106  201  263
[18]  45(B09) 1f 41 10  0    589.2  4091998.3  0.1  2 0  768 1134  155
[19]  48(B12) 1f 40 15  0  -2760.3  4092007.1 -0.0  2 0 1239 1581  736
[20]  49(B13)  1  7  7  0  -2361.6  4092006.1  0.9  1 0 1277 2304 1199
[21]  52(B16)  7 33 13  0    232.2  4091999.3  0.1  2 0  642  741  392
[22]  60(B24) 1f 41  7  0  -3904.0  4092010.2  0.1  2 0 1298 1675  689
[24]  62(B26) 1f 37  7  0  -1915.6  4092004.9 -0.3  2 0  662  640  421
[32]  77(N-4)  f 40 15  0  -4802.2  1022003.0  0.4  2 0   431  976  782
[54]  60(B24)  1  7  9  0  -3668.9 20460063.6 -0.2  1 0  781 1077  924
[56]  62(B26)  1  7  7  0  -1596.1 20460033.7  0.1  1 0  327  340  414
$GNGGA,080656.062,,,,,0,00,,,M,,,,0000*22
$GNRMC,080656.062,A,,,,,,,080419,,*2B
$GPGSA,A,1,,,,,,,,,,,,,,,*1E
$BDGSA,A,1,,,,,,,,,,,,,,,*0F
$GLGSA,A,1,,,,,,,,,,,,,,,*02
$GPGSV,2,1,06,04,00,000,39,07,00,000,43,09,00,000,36,13,00,000,40*78
$GPGSV,2,2,06,17,00,000,45,30,00,000,41*7E
$BDGSV,2,1,05,09,00,000,41,12,00,000,40,16,00,000,33,24,00,000,41*61
$BDGSV,2,2,05,26,00,000,37*5D
$B3CN0,0,0,0,0,0,0,0,0,0,0,0,0,0,0*4C
---00000019--- Acq_st=7 0  2000-1-1 0:1:11 
[00]  03(G04)  f 40  7  0   1429.3  2045998.1 -0.1  2 0  650 1331  732
[01]  06(G07)  f 43  8  0   -622.4  2046000.7  0.0  2 0 1516 2201 1308
[02]  08(G09)  f 37  7  0   1611.0  2045997.8 -0.5  2 0  625  697  101
[03]  12(G13)  f 40  7  0  -2531.5  2046003.2 -0.0  2 0  459  960  658
[04]  16(G17)  f 44  7  0  -3440.5  2046004.4 -0.0  2 0 2125 3033 1698
[06]  29(G30)  f 41  7  0  -2782.3  2046003.6  0.0  2 0  888 1700  677
[17]  41(B05)  7 18 29  1  -1997.0  4092005.5 -0.1  2 0   84  122  352
[18]  45(B09) 1f 40  7  0    585.1  4091998.3 -0.0  2 0 1297 1286  648
[19]  48(B12) 1f 40 15  0  -2763.6  4092007.1 -0.1  2 0  976  959  376
[21]  52(B16)  7 34 10  0    218.5  4091999.3 -0.1  2 0  538  640  252
[22]  60(B24) 1f 41  7  0  -3912.8  4092010.2 -0.1  2 0  998 1373  681
[24]  62(B26) 1f 37  7  0  -1917.7  4092004.9 -0.2  2 0  936  838  272
[32]  77(N-4)  f 40  7  0  -4809.6  1022003.1  0.5  2 0   259  924  656
[50]  45(B09)  1  7  7  0    831.5 20459990.8  0.2  1 0  513  341  179
[51]  48(B12)  1  7  7  0  -2079.5 20460044.3  0.0  1 0  259  176  119
$GNGGA,080657.062,,,,,0,00,,,M,,,,0000*23
$GNRMC,080657.062,A,,,,,,,080419,,*2A
$GPGSA,A,1,,,,,,,,,,,,,,,*1E
$BDGSA,A,1,,,,,,,,,,,,,,,*0F
$GLGSA,A,1,,,,,,,,,,,,,,,*02
$GPGSV,2,1,06,04,00,000,40,07,00,000,43,09,00,000,37,13,00,000,40*77
$GPGSV,2,2,06,17,00,000,44,30,00,000,41*7F
$BDGSV,2,1,06,05,00,000,18,09,00,000,40,12,00,000,40,16,00,000,34*6B
$BDGSV,2,2,06,24,00,000,41,26,00,000,37*6D
$B3CN0,0,0,0,0,0,0,0,0,0,0,0,0,0,0*4C
---00000020--- Acq_st=3 0  2000-1-1 0:1:12 
[00]  03(G04)  f 40  7  0   1432.6  2045998.1  0.1  2 0  561 1117  641
[01]  06(G07)  f 44  7  0   -626.0  2046000.7  0.0  2 0 2108 2872 1411
[02]  08(G09)  f 38  7  0   1612.7  2045997.8 -0.8  2 0  229  889  457
[03]  12(G13)  f 40  7  0  -2535.4  2046003.2  0.1  2 0 1120 1614  957
[04]  16(G17)  f 44  7  0  -3441.0  2046004.4 -0.0  2 0 1720 3282 1856
[06]  29(G30)  f 41  7  0  -2783.3  2046003.6  0.1  2 0 1016 1598  763
[17]  41(B05)  7 16 30  1  -2008.6  4092005.3  0.1  2 0  349  218  129
[18]  45(B09) 1f 40 11  0    580.7  4091998.3  0.0  2 0 1060 1131  586
[19]  48(B12) 1f 40 13  0  -2764.7  4092007.1  0.0  2 0 1096 1240  680
[21]  52(B16)  7 34  7  0    225.1  4091999.3  0.0  2 0  296  600  554
[22]  60(B24) 1f 41  7  0  -3912.4  4092010.1  0.0  2 0 1399 1403  346
[24]  62(B26) 1f 37  7  0  -1920.6  4092005.0 -0.6  2 0  796  995  265
[32]  77(N-4)  f 40  7  0  -4810.2  1022003.1  0.0  2 0   714 1064  452
[50]  45(B09)  1  7  7  0   1014.7 20459990.5  0.1  1 0  189   54  379
[51]  48(B12)  1  7  7  0  -2294.3 20460042.8  0.1  1 0  106  343  665
[54]  60(B24)  1  7  7  0  -3061.1 20460063.3 -0.0  1 0  272  268  288
[56]  62(B26)  1  7  7  0  -2199.3 20460028.5  0.1  1 0  205  215  434
$GNGGA,080658.062,,,,,0,00,,,M,,,,0000*2C
$GNRMC,080658.062,A,,,,,,,080419,,*25
$GPGSA,A,1,,,,,,,,,,,,,,,*1E
$BDGSA,A,1,,,,,,,,,,,,,,,*0F
$GLGSA,A,1,,,,,,,,,,,,,,,*02
$GPGSV,2,1,06,04,00,000,40,07,00,000,44,09,00,000,38,13,00,000,40*7F
$GPGSV,2,2,06,17,00,000,44,30,00,000,41*7F
$BDGSV,2,1,06,05,00,000,16,09,00,000,40,12,00,000,40,16,00,000,34*65
$BDGSV,2,2,06,24,00,000,41,26,00,000,37*6D
$B3CN0,0,0,0,0,0,0,0,0,0,0,0,0,0,0*4C
---00000021--- Acq_st=3 0  2000-1-1 0:1:13 
[00]  03(G04)  f 40  7  0   1433.0  2045998.1 -0.0  2 0  782 1654  750
[01]  06(G07)  f 43  7  0   -622.8  2046000.7 -0.0  2 0 1525 2542 1489
[02]  08(G09)  f 38  8  0   1614.0  2045997.8 -0.3  2 0 1098 1259  322
[03]  12(G13)  f 41  7  0  -2536.3  2046003.2 -0.2  2 0  943 1491  675
[04]  16(G17)  f 44  7  0  -3439.3  2046004.4 -0.0  2 0 1743 2741 1405
[05]  27(G28)  1  7  7  0  -3000.0  2046005.0 -0.0  1 0  365  757 1772
[06]  29(G30)  f 41  7  0  -2790.1  2046003.6 -0.0  2 0  524 1200  730
[17]  41(B05)  7 10 28  1  -1970.0  4092005.1 -0.0  2 0  141  367  219
[18]  45(B09) 1f 40  8  0    581.4  4091998.3 -0.1  2 0  576  568  307
[19]  48(B12) 1f 40 15  0  -2763.4  4092007.1 -0.1  2 0  848 1418  951
[21]  52(B16)  7 34 12  0    214.2  4091999.3 -0.1  2 0  543  565  452
[22]  60(B24) 1f 41  7  0  -3913.9  4092010.1 -0.1  2 0  775 1333  756
[24]  62(B26) 1f 37  7  0  -1920.0  4092004.9  0.1  2 0 1004  598  179
[32]  77(N-4)  f 40  7  0  -4808.3  1022003.0  0.0  2 0   644 1059  618
[50]  45(B09)  1  7  7  0   1127.1 20459990.4 -0.0  1 0  670  318  305
[51]  48(B12)  1  7  7  0  -1958.0 20460043.9 -0.0  1 0  276  332  316
[54]  60(B24)  1 12  7  0  -3034.0 20460064.4 -0.2  1 0  425  561  312
[56]  62(B26)  1  7  7  0  -2501.1 20460030.1 -0.0  1 0  110  727  300
$GNGGA,080659.062,,,,,0,00,,,M,,,,0000*2D
$GNRMC,080659.062,A,,,,,,,080419,,*24
$GPGSA,A,1,,,,,,,,,,,,,,,*1E
$BDGSA,A,1,,,,,,,,,,,,,,,*0F
$GLGSA,A,1,,,,,,,,,,,,,,,*02
$GPGSV,2,1,06,04,00,000,40,07,00,000,43,09,00,000,38,13,00,000,41*79
$GPGSV,2,2,06,17,00,000,44,30,00,000,41*7F
$BDGSV,2,1,05,09,00,000,40,12,00,000,40,16,00,000,34,24,00,000,41*67
$BDGSV,2,2,05,26,00,000,37*5D
$B3CN0,0,0,0,0,0,0,0,0,0,0,0,0,0,0*4C
---00000022--- Acq_st=3 0  2000-1-1 0:1:14 
[00]  03(G04)  f 40  7  0   1430.2  2045998.1 -0.0  2 0  808 1165  768
[01]  06(G07)  f 44  8  0   -626.8  2046000.8  0.0  2 0 1766 2522  951
[02]  08(G09)  f 38  7  0   1618.5  2045997.8 -0.0  2 0  296  637  453
[03]  12(G13)  f 40  7  0  -2540.6  2046003.2  0.1  2 0  932 1117  520
[04]  16(G17)  f 44  7  0  -3443.1  2046004.4  0.0  2 0 2347 2917 1245
[05]  27(G28)  1 27 13  0  -2865.7  2046004.0  0.6  1 0  975 1918  770
[06]  29(G30)  f 41  7  0  -2786.7  2046003.6  0.0  2 0 1375 1706  714
[16]  38(B02)  1 33 18  0  -1127.2  4092003.8  0.1  1 0  362  950  647
[17]  41(B05)  7 10 30  1  -1992.4  4092005.3  0.1  2 0  159  510  151
[18]  45(B09) 1f 40 10  0    575.7  4091998.4 -0.1  2 0  708 1119  471
[19]  48(B12) 1f 40 14  0  -2767.7  4092007.2 -0.1  2 0  671 1137  349
[21]  52(B16)  7 34  8  0    218.7  4091999.3  0.0  2 0  535  807  446
[22]  60(B24) 1f 41  7  0  -3916.9  4092010.1 -0.1  2 0  657  909  916
[24]  62(B26) 1f 37  7  0  -1921.4  4092004.9 -0.0  2 0  421  623  351
[32]  77(N-4)  f 40  7  0  -4814.3  1022003.1  0.6  2 0   607  892  597
[50]  45(B09)  1  7  7  0    914.2 20459991.2  0.1  1 0  327  272  277
[51]  48(B12)  1  7  8  0  -2090.0 20460044.5  0.2  1 0  126  291  850
[54]  60(B24)  1  7  7  0  -2574.4 20460062.3  0.1  1 0  410  644  514
[56]  62(B26)  1  7  7  0  -2366.1 20460030.4 -0.0  1 0  416  421  669
$GNGGA,080700.062,,,,,0,00,,,M,,,,0000*20
$GNRMC,080700.062,A,,,,,,,080419,,*29
$GPGSA,A,1,,,,,,,,,,,,,,,*1E
$BDGSA,A,1,,,,,,,,,,,,,,,*0F
$GLGSA,A,1,,,,,,,,,,,,,,,*02
$GPGSV,2,1,06,04,00,000,40,07,00,000,44,09,00,000,38,13,00,000,40*7F
$GPGSV,2,2,06,17,00,000,44,30,00,000,41*7F
$BDGSV,2,1,05,09,00,000,40,12,00,000,40,16,00,000,34,24,00,000,41*67
$BDGSV,2,2,05,26,00,000,37*5D
$B3CN0,0,0,0,0,0,0,0,0,0,0,0,0,0,0*4C
---00000023--- Acq_st=3 0  2000-1-1 0:1:15 
[00]  03(G04)  f 41  7  0   1431.8  2045998.1  0.1  2 0  978 1341  563
[01]  06(G07)  f 44  7  0   -622.2  2046000.7 -0.0  2 0 1748 2503 1282
[02]  08(G09)  f 38  7  0   1613.5  2045997.8  0.0  2 0  717 1398  688
[03]  12(G13)  f 40  7  0  -2532.3  2046003.2 -0.0  2 0  907 1478  638
[04]  16(G17)  f 44  7  0  -3438.0  2046004.4  0.0  2 0 1943 2919 1400
[05]  27(G28)  7 29  7  0  -2857.0  2046003.6  0.5 10 0  748 1265  863
[06]  29(G30)  f 41  7  0  -2786.9  2046003.5  0.0  2 0  832  942  202
[16]  38(B02)  1 37 26  0  -1119.0  4092002.6  0.9  1 0  942 1070  661
[17]  41(B05)  7 10 29  1  -2014.2  4092005.3 -0.1  2 0  465  227  170
[18]  45(B09) 1f 40  9  0    581.0  4091998.3 -0.1  2 0  821 1336  541
[19]  48(B12) 1f 40 15  0  -2767.5  4092007.1 -0.0  2 0  578  643  273
[20]  49(B13)  1  7  7  0  -2250.0  4092006.6  0.1  1 0  253  277  373
[21]  52(B16)  7 33  7  0    214.2  4091999.2 -0.1  2 0  400  269  247
[22]  60(B24) 1f 41  7  0  -3910.6  4092010.1  0.1  2 0 1216 1545  643
[24]  62(B26) 1f 37  7  0  -1913.5  4092004.9 -0.5  2 0 1229 1485  676
[32]  77(N-4)  f 40  7  0  -4810.2  1022003.1  0.3  2 0   542 1042  438
[54]  60(B24)  1  7  7  0  -3095.6 20460064.3  0.2  1 0  555  330  197
[56]  62(B26)  1  7  7  0  -2448.2 20460030.1 -0.1  1 0  181   67  163
$GNGGA,080701.062,,,,,0,00,,,M,,,,0000*21
$GNRMC,080701.062,A,,,,,,,080419,,*28
$GPGSA,A,1,,,,,,,,,,,,,,,*1E
$BDGSA,A,1,,,,,,,,,,,,,,,*0F
$GLGSA,A,1,,,,,,,,,,,,,,,*02
$GPGSV,2,1,07,04,00,000,41,07,00,000,44,09,00,000,38,13,00,000,40*7F
$GPGSV,2,2,07,17,00,000,44,28,00,000,29,30,00,000,41*4F
$BDGSV,2,1,05,09,00,000,40,12,00,000,40,16,00,000,33,24,00,000,41*60
$BDGSV,2,2,05,26,00,000,37*5D
$B3CN0,0,0,0,0,0,0,0,0,0,0,0,0,0,0*4C
---00000024--- Acq_st=3 0  2000-1-1 0:1:16 
[00]  03(G04)  f 40  7  0   1429.5  2045998.1  0.0  2 0  859 1081  295
[01]  06(G07)  f 43  7  0   -619.8  2046000.7  0.0  2 0 1720 2238  984
[02]  08(G09)  f 38  7  0   1607.5  2045997.9  0.1  2 0  849 1180  599
[03]  12(G13)  f 40  7  0  -2534.3  2046003.2  0.1  2 0  314  858  628
[04]  16(G17)  f 44  7  0  -3441.2  2046004.4 -0.0  2 0 1710 2819 1282
[05]  27(G28)  7 41  7  0  -2860.8  2046003.7  0.1  2 0 1196  898  358
[06]  29(G30)  f 42  7  0  -2779.3  2046003.5  0.0  2 0  417 1129  665
[16]  38(B02)  7 37 22  0  -1107.6  4092002.7 -0.9  2 0  836 1081  198
[17]  41(B05)  7 13 29  1  -2041.8  4092005.3 -0.0  2 0   24  184  183
[18]  45(B09) 1f 39  8  0    576.2  4091998.4 -0.1  2 0  751 1006  445
[19]  48(B12) 1f 40  9  0  -2765.9  4092007.1 -0.1  2 0  766  882  733
[20]  49(B13)  1  7  8  0  -2368.2  4092008.6  0.1  1 0  438 1394 1429
[21]  52(B16)  7 33  8  0    218.4  4091999.3 -0.1  2 0  780  996  476
[22]  60(B24) 1f 41 10  0  -3915.3  4092010.1 -0.0  2 0 1629 1537  725
[24]  62(B26) 1f 37  7  0  -1914.9  4092005.0 -0.3  2 0  766  875  241
[32]  77(N-4)  f 40  7  0  -4809.1  1022003.1 -0.3  2 0   460 1096  418
[50]  45(B09)  1  7  7  0    502.6 20459991.6 -0.0  1 0  391  258  252
[51]  48(B12)  1  7  7  0  -2302.3 20460043.8  0.1  1 0  537  517  140
$GNGGA,080702.062,,,,,0,00,,,M,,,,0000*22
$GNRMC,080702.062,A,,,,,,,080419,,*2B
$GPGSA,A,1,,,,,,,,,,,,,,,*1E
$BDGSA,A,1,,,,,,,,,,,,,,,*0F
$GLGSA,A,1,,,,,,,,,,,,,,,*02
$GPGSV,2,1,07,04,00,000,40,07,00,000,43,09,00,000,38,13,00,000,40*79
$GPGSV,2,2,07,17,00,000,44,28,00,000,41,30,00,000,42*42
$BDGSV,2,1,06,02,00,000,38,09,00,000,39,12,00,000,40,16,00,000,33*67
$BDGSV,2,2,06,24,00,000,41,26,00,000,37*6D
$B3CN0,0,0,0,0,0,0,0,0,0,0,0,0,0,0*4C
---00000025--- Acq_st=3 0  2000-1-1 0:1:17 
[00]  03(G04)  f 39  7  0   1428.9  2045998.1  0.1  2 0 1254 1199  398
[01]  06(G07)  f 43  7  0   -621.7  2046000.8 -0.0  2 0 1876 2799 1563
[02]  08(G09)  f 38  7  0   1615.3  2045997.9 -0.0  2 0 1051 1189  601
[03]  12(G13)  f 40  7  0  -2533.4  2046003.2 -0.0  2 0  774 1419  541
[04]  16(G17)  f 44  7  0  -3442.2  2046004.4  0.0  2 0 1913 2818 1326
[05]  27(G28)  7 41  7  0  -2859.5  2046003.7  0.1  2 0  872 1281  688
[06]  29(G30)  f 41  7  0  -2785.3  2046003.6 -0.0  2 0  939 1694 1316
[16]  38(B02) 1f 38 25  0  -1111.1  4092002.7 -0.8  2 0  678  761   88
[17]  41(B05)  7 10 31  1  -2004.4  4092005.4  0.0  2 0  237  649  515
[18]  45(B09) 1f 40  7  0    581.5  4091998.3 -0.1  2 0 1138 1396  335
[19]  48(B12) 1f 40 15  0  -2767.3  4092007.2 -0.1  2 0 1179 1474  348
[20]  49(B13)  1  7  8  0  -2367.4  4092005.8  0.6  1 0 1035 1654  913
[21]  52(B16)  7 33 10  0    213.3  4091999.4  0.1  2 0  499  462  156
[22]  60(B24) 1f 42  7  0  -3916.2  4092010.1 -0.1  2 0 1797 1648  846
[24]  62(B26) 1f 36  7  0  -1920.9  4092004.9 -0.0  2 0 1060  946  239
[32]  77(N-4) 8f 39  7  0  -4812.9  1022003.0 -0.3  2 0   686  857  546
[50]  45(B09)  1  7  7  0    650.2 20459990.0  0.0  1 0  184  223  504
[51]  48(B12)  1  7  7  0  -2396.6 20460042.9 -0.2  1 0  380  420  154
[54]  60(B24)  1  7  7  0  -3295.5 20460062.7  0.1  1 0  612  309  450
[56]  62(B26)  1  7  7  0  -1513.0 20460030.1 -0.0  1 0  255  445  245
$GNGGA,080703.062,,,,,0,00,,,M,,,,0000*23
$GNRMC,080703.062,A,,,,,,,080419,,*2A
$GPGSA,A,1,,,,,,,,,,,,,,,*1E
$BDGSA,A,1,,,,,,,,,,,,,,,*0F
$GLGSA,A,1,,,,,,,,,,,,,,,*02
$GPGSV,2,1,07,04,00,000,39,07,00,000,43,09,00,000,38,13,00,000,40*77
$GPGSV,2,2,07,17,00,000,44,28,00,000,41,30,00,000,41*41
$BDGSV,2,1,06,02,00,000,38,09,00,000,40,12,00,000,40,16,00,000,33*69
$BDGSV,2,2,06,24,00,000,42,26,00,000,36*6F
$B3CN0,0,0,0,0,0,0,0,0,0,0,0,0,0,0*4C
---00000026--- Acq_st=3 0  2000-1-1 0:1:18 
[00]  03(G04)  f 40  8  0   1432.8  2045998.0 -0.1  2 0  765  852   66
[01]  06(G07)  f 43  7  0   -620.5  2046000.8  0.0  2 0 1690 2701 1469
[02]  08(G09)  f 38  7  0   1612.5  2045997.8 -0.1  2 0  754  927  216
[03]  12(G13)  f 40  7  0  -2535.2  2046003.2 -0.1  2 0  736 1269  657
[04]  16(G17)  f 44  7  0  -3440.5  2046004.4 -0.0  2 0 2192 3023 1480
[05]  27(G28)  7 40  7  0  -2861.0  2046003.6  0.1  2 0 1378 1866  720
[06]  29(G30)  f 41  7  0  -2780.7  2046003.5  0.0  2 0 1349 1748  659
[16]  38(B02) 1f 39 10  0  -1108.2  4092002.8 -0.4  2 0  807 1261  241
[17]  41(B05)  7 10 28  1  -2001.5  4092005.3 -0.1  2 0  478  201  143
[18]  45(B09) 1f 40  7  0    572.2  4091998.3  0.3  2 0  898  839  768
[19]  48(B12) 1f 40 14  0  -2769.2  4092007.1  0.2  2 0  981 1360  528
[20]  49(B13)  7 32  7  0  -2368.3  4092006.1  0.2  5 0  959 1481  712
[21]  52(B16)  7 32  9  0    217.7  4091999.3 -0.1  5 0  599  465  100
[22]  60(B24) 1f 43  7  0  -3912.4  4092010.1 -0.0  2 0 1584 2082  936
[24]  62(B26) 1f 36  7  0  -1920.0  4092005.0 -0.0  2 0  689  785  181
[32]  77(N-4) 8f 40  7  0  -4811.4  1022003.0  0.5  2 0   788 1131  417
[48]  38(B02)  1 14 36  1   -568.8 20460020.4  0.1  1 0   73  358  357
[50]  45(B09)  1  7  7  0    891.6 20459991.2  0.0  1 0  975  222  110
[51]  48(B12)  1  7  7  0  -2872.9 20460045.0  0.1  1 0  382  587  653
[54]  60(B24)  1  7  7  0  -3395.0 20460063.8  0.3  1 0  333  838  272
[56]  62(B26)  1  7 11  0  -1569.4 20460029.1  0.0  1 0  303  185  290
$GNGGA,080704.062,,,,,0,00,,,M,,,,0000*24
$GNRMC,080704.062,A,,,,,,,080419,,*2D
$GPGSA,A,1,,,,,,,,,,,,,,,*1E
$BDGSA,A,1,,,,,,,,,,,,,,,*0F
$GLGSA,A,1,,,,,,,,,,,,,,,*02
$GPGSV,2,1,07,04,00,000,40,07,00,000,43,09,00,000,38,13,00,000,40*79
$GPGSV,2,2,07,17,00,000,44,28,00,000,40,30,00,000,41*40
$BDGSV,2,1,07,02,00,000,39,09,00,000,40,12,00,000,40,13,00,000,32*6D
$BDGSV,2,2,07,16,00,000,32,24,00,000,43,26,00,000,36*59
$B3CN0,0,0,0,0,0,0,0,0,0,0,0,0,0,0*4C
---00000027--- Acq_st=7 0  2000-1-1 0:1:19 
[00]  03(G04)  f 40  7  0   1432.7  2045998.1 -0.1  2 0 1007 1387  549
[01]  06(G07)  f 43  7  0   -618.3  2046000.8  0.1  2 0 1484 2231 1134
[02]  08(G09)  f 38  7  0   1609.2  2045997.9  0.1  2 0  621 1096  514
[03]  12(G13)  f 40  7  0  -2528.2  2046003.3 -0.1  2 0 1076 1476  646
[04]  16(G17)  f 44 11  0  -3439.6  2046004.4 -0.0  2 0 2024 2754 1408
[05]  27(G28)  7 41  7  0  -2858.2  2046003.7 -0.1  2 0 1157 1490  791
[06]  29(G30)  f 41  7  0  -2778.2  2046003.5 -0.0  2 0 1366 1860  712
[16]  38(B02) 1f 38 25  0  -1108.1  4092002.9  0.5  2 0  748 1475 1118
[17]  41(B05)  7 10 27  1  -2042.8  4092005.3  0.1  2 0  302  344  487
[18]  45(B09) 1f 40  7  0    582.7  4091998.3  0.0  2 0  786 1111  463
[19]  48(B12) 1f 40 13  0  -2767.3  4092007.1  0.1  2 0  866 1235  807
[20]  49(B13)  7 41  7  0  -2368.1  4092006.0  0.0  2 0 1069 1650  870
[21]  52(B16)  7 32  7  0    221.9  4091999.3 -0.0  5 0  183  618  501
[22]  60(B24) 1f 43  7  0  -3909.3  4092010.1  0.0  2 0 1583 1619  639
[24]  62(B26) 1f 37  7  0  -1915.4  4092004.9 -0.4  2 0  627  895  729
[32]  77(N-4) 8f 41  7  0  -4808.2  1022003.0  0.3  2 0   957 1020  489
[48]  38(B02)  f 36 17  0   -153.7 20460004.2 -0.0  2 0  444  648  950
[50]  45(B09)  1  7  7  0    627.5 20459989.9 -0.1  1 0  428  567  457
[51]  48(B12)  1  7  7  0  -3148.8 20460047.3  0.3  1 0  687  330  389
[54]  60(B24)  1  7  7  0  -3396.8 20460064.4  0.1  1 0  767  304  361
[56]  62(B26)  1  7  7  0  -2240.3 20460028.7  0.0  1 0  334  289  199
$GNGGA,080705.062,,,,,0,00,,,M,,,,0000*25
$GNRMC,080705.062,A,,,,,,,080419,,*2C
$GPGSA,A,1,,,,,,,,,,,,,,,*1E
$BDGSA,A,1,,,,,,,,,,,,,,,*0F
$GLGSA,A,1,,,,,,,,,,,,,,,*02
$GPGSV,2,1,07,04,00,000,40,07,00,000,43,09,00,000,38,13,00,000,40*79
$GPGSV,2,2,07,17,00,000,44,28,00,000,41,30,00,000,41*41
$BDGSV,2,1,07,02,00,000,38,09,00,000,40,12,00,000,40,13,00,000,41*68
$BDGSV,2,2,07,16,00,000,32,24,00,000,43,26,00,000,37*58
$B3CN0,0,36,0,0,0,0,0,0,0,0,0,0,0,0*79
---00000028--- Acq_st=7 0  2000-1-1 0:1:20 
[00]  03(G04)  f 40  7  0   1432.4  2045998.1  0.1  2 0  738 1173  744
[01]  06(G07)  f 43  8  0   -617.1  2046000.7 -0.0  2 0  974 2235 1197
[02]  08(G09)  f 38  7  0   1616.3  2045997.9 -0.3  2 0  745  972  512
[03]  12(G13)  f 40  7  0  -2528.8  2046003.2  0.0  2 0 1192 1360  622
[04]  16(G17)  f 45  7  0  -3440.1  2046004.4 -0.1  2 0 2391 2982 1509
[05]  27(G28)  7 41  7  0  -2857.0  2046003.6  0.1  2 0  986 1310  671
[06]  29(G30)  f 42  7  0  -2780.4  2046003.5  0.1  2 0 1313 2064 1022
[16]  38(B02) 1f 37 26  0  -1113.7  4092002.8  0.8  2 0 1061  934   46
[17]  41(B05)  7 20 31  1  -2007.9  4092005.3  0.0  2 0  295  107  102
[18]  45(B09) 1f 39  7  0    581.4  4091998.4  0.0  2 0 1161 1008  323
[19]  48(B12) 1f 41 16  0  -2763.8  4092007.1  0.0  2 0 1070 1333  734
[20]  49(B13)  7 41  7  0  -2360.9  4092006.1 -0.1  2 0 1311 1439  626
[21]  52(B16)  7 31  9  0    217.6  4091999.2 -0.0  5 0  204  311  150
[22]  60(B24) 1f 43  7  0  -3912.9  4092010.1 -0.0  2 0 1771 1816  676
[24]  62(B26) 1f 37  7  0  -1915.0  4092004.9  0.2  2 0  925  565  367
[32]  77(N-4) 8f 41  7  0  -4807.5  1022003.0 -0.0  2 0   464  983  481
[48]  38(B02)  f 10 16  0   -668.0 20460011.4 -0.1  2 0  551  407  316
[54]  60(B24)  1  7  7  0  -2960.3 20460063.4 -0.1  1 0   56  309   63
[56]  62(B26)  1  7 11  0  -2452.3 20460029.9 -0.0  1 0  161  323  169
$GNGGA,080706.062,,,,,0,00,,,M,,,,0000*26
$GNRMC,080706.062,A,,,,,,,080419,,*2F
$GPGSA,A,1,,,,,,,,,,,,,,,*1E
$BDGSA,A,1,,,,,,,,,,,,,,,*0F
$GLGSA,A,1,,,,,,,,,,,,,,,*02
$GPGSV,2,1,07,04,00,000,40,07,00,000,43,09,00,000,38,13,00,000,40*79
$GPGSV,2,2,07,17,00,000,45,28,00,000,41,30,00,000,42*43
$BDGSV,2,1,08,02,00,000,37,05,00,000,20,09,00,000,39,12,00,000,41*67
$BDGSV,2,2,08,13,00,000,41,16,00,000,31,24,00,000,43,26,00,000,37*63
$B3CN0,0,0,0,0,0,0,0,0,0,0,0,0,0,0*4C
---00000029--- Acq_st=3 0  2000-1-1 0:1:21 
[00]  03(G04)  f 40  7  0   1432.6  2045998.1  0.1  2 0  988 1505  640
[01]  06(G07)  f 43  7  0   -620.0  2046000.7 -0.0  2 0 1305 2062 1029
[02]  08(G09)  f 38  7  0   1613.1  2045997.8 -0.4  2 0  686  779  248
[03]  12(G13)  f 40 10  0  -2536.1  2046003.2  0.1  2 0  538 1394 1073
[04]  16(G17)  f 44  7  0  -3442.3  2046004.4  0.1  2 0 2150 3133 1630
[05]  27(G28)  7 41  7  0  -2856.5  2046003.6  0.0  2 0  859 1377  538
[06]  29(G30)  f 42  7  0  -2780.9  2046003.5  0.0  2 0 1285 1523  797
[16]  38(B02) 1f 39 25  0  -1113.1  4092002.8 -0.3  2 0  644 1089  471
[17]  41(B05)  7 14 28  1  -1997.7  4092005.3 -0.0  2 0  125  517  281
[18]  45(B09) 1f 39  8  0    581.4  4091998.3  0.0  2 0  933 1113  409
[19]  48(B12) 1f 41 15  0  -2764.9  4092007.1 -0.0  2 0 1301 1424  463
[20]  49(B13)  7 41  7  0  -2368.8  4092006.1  0.1  2 0 1466 1443  149
[21]  52(B16)  7 30  7  0    212.5  4091999.3  0.0  5 0  605  356  193
[22]  60(B24) 1f 43  7  0  -3913.5  4092010.1 -0.0  2 0 1551 1905  516
[24]  62(B26) 1f 36  7  0  -1917.4  4092004.9  0.1  2 0  511  895  412
[32]  77(N-4) 8f 41  7  0  -4810.0  1022003.0 -0.3  2 0   626  980  384
[48]  38(B02)  f 16 10  0  -1017.9 20460016.5 -0.0  2 0  504  100  537
[50]  45(B09)  1  7  9  0    684.3 20459989.8 -0.0  1 0  260  476  336
[51]  48(B12)  1  7  9  0  -2553.1 20460043.9 -0.0  1 0  673  763  795
$GNGGA,080707.062,,,,,0,00,,,M,,,,0000*27
$GNRMC,080707.062,A,,,,,,,080419,,*2E
$GPGSA,A,1,,,,,,,,,,,,,,,*1E
$BDGSA,A,1,,,,,,,,,,,,,,,*0F
$GLGSA,A,1,,,,,,,,,,,,,,,*02
$GPGSV,2,1,07,04,00,000,40,07,00,000,43,09,00,000,38,13,00,000,40*79
$GPGSV,2,2,07,17,00,000,44,28,00,000,41,30,00,000,42*42
$BDGSV,2,1,07,02,00,000,39,09,00,000,39,12,00,000,41,13,00,000,41*66
$BDGSV,2,2,07,16,00,000,30,24,00,000,43,26,00,000,36*5B
$B3CN0,0,0,0,0,0,0,0,0,0,0,0,0,0,0*4C
---00000030--- Acq_st=3 0  2000-1-1 0:1:22 
[00]  03(G04)  f 40  7  0   1428.6  2045998.1 -0.1  2 0 1093 1249  128
[01]  06(G07)  f 44  8  0   -616.3  2046000.7 -0.0  2 0 1624 2419 1312
[02]  08(G09)  f 38  7  0   1615.5  2045997.8 -0.6  2 0  310 1120 1032
[03]  12(G13)  f 39  7  0  -2526.7  2046003.2 -0.2  2 0  994 1151  373
[04]  16(G17)  f 44  7  0  -3439.0  2046004.4 -0.0  2 0 1966 2955 1417
[05]  27(G28)  f 42  7  0  -2856.6  2046003.6 -0.1  2 0  837 1511  312
[06]  29(G30)  f 42  7  0  -2782.2  2046003.5  0.0  2 0 1036 1676  571
[08]  17(G18)  1 20  7  0  -1131.9  2046002.4  0.1  1 0  539  710  658
[16]  38(B02) 1f 38 28  0  -1109.0  4092002.8 -0.9  2 0  567  907  216
[17]  41(B05)  7 19 30  1  -2053.6  4092005.3 -0.1  2 0  193  141   80
[18]  45(B09) 1f 40  9  0    580.4  4091998.3  0.1  2 0 1078 1037  342
[19]  48(B12) 1f 41 13  0  -2757.9  4092007.1 -0.1  2 0  774 1104  881
[20]  49(B13)  7 41  7  0  -2365.2  4092006.1  0.0  2 0 1356 1560  484
[21]  52(B16)  7 16  7  0    268.2  4091999.4  0.2 10 0  262  543  457
[22]  60(B24) 1f 43  7  0  -3909.8  4092010.1  0.0  2 0 1776 2132 1017
[24]  62(B26) 1f 36  7  0  -1920.9  4092005.0  0.4  2 0 1113 1204  600
[32]  77(N-4) 8f 40  7  0  -4808.0  1022003.0 -0.1  2 0   669  903  494
[48]  38(B02)  f 10 20  0  -1484.3 20460025.2 -0.0  2 0  664  616  541
[50]  45(B09)  1  9  7  0   1567.0 20459992.8  0.1  1 0  641  623  472
[51]  48(B12)  1  7  7  0  -2321.1 20460044.4  0.1  1 0  719  736  174
[54]  60(B24)  1  7  7  0  -3046.8 20460064.4  0.0  1 0  157  614  203
[56]  62(B26)  1  7  7  0  -1400.6 20460031.7  0.3  1 0  410   99  561
$GNGGA,080708.062,,,,,0,00,,,M,,,,0000*28
$GNRMC,080708.062,A,,,,,,,080419,,*21
$GPGSA,A,1,,,,,,,,,,,,,,,*1E
$BDGSA,A,1,,,,,,,,,,,,,,,*0F
$GLGSA,A,1,,,,,,,,,,,,,,,*02
$GPGSV,2,1,07,04,00,000,40,07,00,000,44,09,00,000,38,13,00,000,39*70
$GPGSV,2,2,07,17,00,000,44,28,00,000,42,30,00,000,42*41
$BDGSV,2,1,08,02,00,000,38,05,00,000,19,09,00,000,40,12,00,000,41*6C
$BDGSV,2,2,08,13,00,000,41,16,00,000,16,24,00,000,43,26,00,000,36*67
$B3CN0,0,0,0,0,0,0,0,0,0,0,0,0,0,0*4C
---00000031--- Acq_st=3 0  2000-1-1 0:1:23 
[00]  03(G04)  f 40  7  0   1431.3  2045998.1  0.0  2 0  558 1183  606
[01]  06(G07)  f 44  7  0   -616.2  2046000.7 -0.0  2 0 1373 2056 1248
[02]  08(G09)  f 38  7  0   1617.3  2045997.8 -0.1  2 0  415  912  377
[03]  12(G13)  f 39  7  0  -2530.9  2046003.2  0.1  2 0  440 1103  646
[04]  16(G17)  f 44  7  0  -3439.4  2046004.4  0.0  2 0 1950 3036 1756
[05]  27(G28)  f 42  7  0  -2857.9  2046003.6  0.1  2 0 1508 1860  508
[06]  29(G30)  f 42  7  0  -2777.9  2046003.5  0.0  2 0  814 1619 1068
[08]  17(G18)  7 21  7  0  -1096.5  2046001.4  0.1 10 0  569  777  783
[16]  38(B02) 1f 37 22  0  -1101.9  4092002.7  0.8  2 0  970  747  239
[17]  41(B05)  7 21 28  1  -2014.0  4092005.2 -0.1  2 0   87  111  347
[18]  45(B09) 1f 39  7  0    583.6  4091998.3  0.0  2 0  541  935  572
[19]  48(B12) 1f 41 12  0  -2760.5  4092007.1  0.0  2 0 1114 1383  534
[20]  49(B13)  7 41  7  0  -2366.8  4092006.0  0.0  2 0 1263 1314  440
[21]  52(B16)  7  7  7  0    262.1  4091999.4 -0.0 10 0  111  318  365
[22]  60(B24) 1f 43  7  0  -3909.7  4092010.1 -0.0  2 0 1261 1479  860
[24]  62(B26) 1f 36  7  0  -1924.9  4092004.9 -0.2  2 0  485  701  687
[32]  77(N-4) 8f 39  7  0  -4808.1  1022003.0  0.3  2 0   547  978  736
[50]  45(B09)  1  8  7  0   1827.3 20459991.6  0.1  1 0  439  185  407
[51]  48(B12)  1  7  7  0  -2163.6 20460043.0 -0.1  1 0  415  214  493
[54]  60(B24)  1  7  7  0  -3158.3 20460063.3 -0.0  1 0  658  542  437
[56]  62(B26)  1  7  7  0   -813.1 20460029.9 -0.0  1 0  396  181  538
$GNGGA,080709.062,,,,,0,00,,,M,,,,0000*29
$GNRMC,080709.062,A,,,,,,,080419,,*20
$GPGSA,A,1,,,,,,,,,,,,,,,*1E
$BDGSA,A,1,,,,,,,,,,,,,,,*0F
$GLGSA,A,1,,,,,,,,,,,,,,,*02
$GPGSV,2,1,08,04,00,000,40,07,00,000,44,09,00,000,38,13,00,000,39*7F
$GPGSV,2,2,08,17,00,000,44,28,00,000,42,30,00,000,42,18,00,000,21*74
$BDGSV,2,1,07,02,00,000,37,05,00,000,21,09,00,000,39,12,00,000,41*69
$BDGSV,2,2,07,13,00,000,41,24,00,000,43,26,00,000,36*58
$B3CN0,0,0,0,0,0,0,0,0,0,0,0,0,0,0*4C
$GLGSV,1,1,01,17,00,000,39*58
---00000032--- Acq_st=3 0  2000-1-1 0:1:24 
[00]  03(G04)  f 40  7  0   1428.5  2045998.1  0.0  2 0  644 1267  631
[01]  06(G07)  f 44  7  0   -617.8  2046000.8  0.0  2 0 1086 2067  839
[02]  08(G09)  f 38  7  0   1614.9  2045997.8 -0.2  2 0 1086 1057  285
[03]  12(G13)  f 39  7  0  -2531.6  2046003.2  0.2  2 0  629 1300  830
[04]  16(G17)  f 45  7  0  -3440.3  2046004.4  0.0  2 0 1922 2851 1735
[05]  27(G28)  f 42  7  0  -2857.2  2046003.6 -0.0  2 0 1287 1689 1074
[06]  29(G30)  f 42 10  0  -2779.1  2046003.5 -0.0  2 0 1124 2211  802
[08]  17(G18)  7 29  7  0  -1084.9  2046001.3  0.0  5 0  398  573  215
[16]  38(B02) 1f 38 25  0  -1109.9  4092002.8 -0.8  2 0  910 1085  623
[17]  41(B05)  7 10 27  1  -1959.7  4092005.1  0.1  2 0  384  248  223
[18]  45(B09) 1f 40  8  0    579.5  4091998.4  0.1  2 0  916 1118  555
[19]  48(B12) 1f 41 15  0  -2766.7  4092007.1 -0.0  2 0  764 1142  773
[20]  49(B13) 1f 41  7  0  -2364.0  4092006.1  0.0  2 0 1249 1412  299
[21]  52(B16)  7  7 12  0    261.2  4091999.2 -0.0 10 0  468  415  213
[22]  60(B24) 1f 42  7  0  -3913.7  4092010.2 -0.0  2 0 1114 1372  949
[24]  62(B26) 1f 36  7  0  -1919.6  4092004.9  0.4  2 0  608  622  296
[32]  77(N-4) 8f 40  7  0  -4806.2  1022003.0  0.0  2 0   349  627  757
[48]  38(B02)  1 10 10  1  -1159.4 20460017.7 -0.1  1 0  178  257  558
[50]  45(B09)  1  9  7  0   2366.5 20459991.8 -0.1  1 0  116  522  808
[51]  48(B12)  1  7  7  0  -1738.9 20460044.5  0.0  1 0  169  836  470
[54]  60(B24)  1 11  7  0  -2769.1 20460062.6  0.1  1 0  330  388  569
[56]  62(B26)  1  7  7  0   -339.0 20460031.2  0.1  1 0  167  209  227
$GNGGA,080710.062,,,,,0,00,,,M,,,,0000*21
$GNRMC,080710.062,A,,,,,,,080419,,*28
$GPGSA,A,1,,,,,,,,,,,,,,,*1E
$BDGSA,A,1,,,,,,,,,,,,,,,*0F
$GLGSA,A,1,,,,,,,,,,,,,,,*02
$GPGSV,2,1,08,04,00,000,40,07,00,000,44,09,00,000,38,13,00,000,39*7F
$GPGSV,2,2,08,17,00,000,45,28,00,000,42,30,00,000,42,18,00,000,29*7D
$BDGSV,2,1,06,02,00,000,38,09,00,000,40,12,00,000,41,13,00,000,41*68
$BDGSV,2,2,06,24,00,000,42,26,00,000,36*6F
$B3CN0,0,0,0,0,0,0,0,0,0,0,0,0,0,0*4C
$GLGSV,1,1,01,17,00,000,40*56
---00000033--- Acq_st=3 0  2000-1-1 0:1:25 
[00]  03(G04)  f 40  7  0   1429.5  2045998.1  0.2  2 0  651  917  340
[01]  06(G07)  f 43  7  0   -618.4  2046000.8  0.0  2 0  977 1975  968
[02]  08(G09)  f 38  7  0   1611.2  2045997.9 -0.0  2 0  786 1213  516
[03]  12(G13)  f 40 10  0  -2533.4  2046003.2 -0.1  2 0  345 1023  627
[04]  16(G17)  f 44  7  0  -3441.5  2046004.4 -0.0  2 0 2260 3567 1928
[05]  27(G28)  f 42  7  0  -2861.4  2046003.7  0.0  2 0 1129 1788  736
[06]  29(G30)  f 42  7  0  -2781.8  2046003.5  0.0  2 0 1525 1975 1101
[08]  17(G18)  7 26  7  0  -1224.3  2046001.2 -0.1  5 0  668  301   55
[16]  38(B02) 1f 39 21  0  -1108.4  4092002.8 -0.2  2 0 1216 1356  801
[17]  41(B05)  7 36 31  1  -2005.6  4092005.2  0.0  2 0   59  400  454
[18]  45(B09) 1f 39  7  0    576.3  4091998.3 -0.2  2 0 1085 1430  536
[19]  48(B12) 1f 41 15  0  -2765.6  4092007.1 -0.1  2 0 1178 1261  832
[20]  49(B13) 1f 42  8  0  -2369.1  4092006.1  0.0  2 0 1283 1536  456
[22]  60(B24) 1f 42  7  0  -3916.0  4092010.2 -0.0  2 0 1511 1861  770
[24]  62(B26) 1f 36  7  0  -1923.0  4092004.9 -0.0  2 0  657 1034  993
[32]  77(N-4) 8f 39  7  0  -4810.5  1022003.0  0.2  2 0   289 1021  484
[48]  38(B02)  1 21 10  1  -1283.8 20460018.8 -0.1  1 0  228  621  268
[52]  49(B13)  1  8  7  0  -2385.3 20460040.6  0.2  1 0  379  353  693
[54]  60(B24)  1  7  7  0  -3085.1 20460064.1  0.0  1 0  474  687  327
[56]  62(B26)  1  7  7  0   -204.2 20460030.1  0.0  1 0  415  431  479
$GNGGA,080711.062,,,,,0,00,,,M,,,,0000*20
$GNRMC,080711.062,A,,,,,,,080419,,*29
$GPGSA,A,1,,,,,,,,,,,,,,,*1E
$BDGSA,A,1,,,,,,,,,,,,,,,*0F
$GLGSA,A,1,,,,,,,,,,,,,,,*02
$GPGSV,2,1,08,04,00,000,40,07,00,000,43,09,00,000,38,13,00,000,40*76
$GPGSV,2,2,08,17,00,000,44,28,00,000,42,30,00,000,42,18,00,000,26*73
$BDGSV,2,1,07,02,00,000,39,05,00,000,36,09,00,000,39,12,00,000,41*61
$BDGSV,2,2,07,13,00,000,42,24,00,000,42,26,00,000,36*5A
$B3CN0,0,0,0,0,0,0,0,0,0,0,0,0,0,0*4C
$GLGSV,1,1,01,17,00,000,39*58
---00000034--- Acq_st=3 0  2000-1-1 0:1:26 
[00]  03(G04)  f 40  7  0   1426.9  2045998.1 -0.0  2 0  793 1135  714
[01]  06(G07)  f 43  7  0   -618.0  2046000.8  0.0  2 0 1266 1953  817
[02]  08(G09)  f 39  7  0   1610.6  2045997.9  0.1  2 0 1229 1166  380
[03]  12(G13)  f 40 10  0  -2528.3  2046003.3  0.2  2 0  653 1415  861
[04]  16(G17)  f 45 10  0  -3441.2  2046004.4 -0.0  2 0 1745 2775 1296
[05]  27(G28)  f 42  7  0  -2862.5  2046003.6 -0.0  2 0  558 1631  841
[06]  29(G30)  f 43  7  0  -2779.8  2046003.5  0.0  2 0  825 1634  581
[08]  17(G18)  7  7  9  0  -1371.9  2046001.8 -0.0 10 0  602  692  562
[16]  38(B02) 1f 37 20  0  -1112.8  4092002.9  0.5  2 0  531 1015  638
[17]  41(B05)  7 21 20  0  -1683.3  4092004.4 -0.0  2 0  384  237  337
[18]  45(B09) 1f 40  7  0    576.8  4091998.3  0.0  2 0 1162 1081   19
[19]  48(B12) 1f 41 14  0  -2767.6  4092007.1  0.0  2 0 1122 1704  736
[20]  49(B13) 1f 41  7  0  -2367.8  4092006.1  0.0  2 0 1413 1570  306
[22]  60(B24) 1f 41  7  0  -3913.4  4092010.2  0.0  2 0  884 1554  793
[24]  62(B26) 1f 36  7  0  -1920.8  4092005.0 -0.1  2 0 1037  869  101
[32]  77(N-4) 8f 39  7  0  -4810.3  1022003.0  0.2  2 0   579  941  372
[48]  38(B02)  1 10 19  0  -1596.0 20460024.0 -0.1  1 0  342  412  659
[50]  45(B09)  1  7  7  0    378.5 20459992.4  0.0  1 0  289  126   51
[51]  48(B12)  1 10  7  0  -2294.1 20460043.7  0.0  1 0  554  300  161
[52]  49(B13)  1  7  7  0  -2420.2 20460036.8 -0.0  1 0  369   68  124
$GNGGA,080712.062,,,,,0,00,,,M,,,,0000*23
$GNRMC,080712.062,A,,,,,,,080419,,*2A
$GPGSA,A,1,,,,,,,,,,,,,,,*1E
$BDGSA,A,1,,,,,,,,,,,,,,,*0F
$GLGSA,A,1,,,,,,,,,,,,,,,*02
$GPGSV,2,1,07,04,00,000,40,07,00,000,43,09,00,000,39,13,00,000,40*78
$GPGSV,2,2,07,17,00,000,45,28,00,000,42,30,00,000,43*41
$BDGSV,2,1,07,02,00,000,37,05,00,000,20,09,00,000,40,12,00,000,41*66
$BDGSV,2,2,07,13,00,000,41,24,00,000,41,26,00,000,36*5A
$B3CN0,0,0,0,0,0,0,0,0,0,0,0,0,0,0*4C
$GLGSV,1,1,01,17,00,000,39*58
---00000035--- Acq_st=3 0  2000-1-1 0:1:27 
[00]  03(G04)  f 40  7  0   1427.8  2045998.1  0.2  2 0  440 1204  742
[01]  06(G07)  f 43  7  0   -619.2  2046000.8 -0.0  2 0 1720 2184  770
[02]  08(G09)  f 40  7  0   1612.3  2045997.8  0.2  2 0  795 1479  754
[03]  12(G13)  f 40  7  0  -2526.4  2046003.2 -0.0  2 0   98 1001  791
[04]  16(G17)  f 44  7  0  -3441.1  2046004.4  0.0  2 0 2021 3110 1551
[05]  27(G28)  f 42  9  0  -2860.4  2046003.7 -0.0  2 0 1268 1726 1007
[06]  29(G30)  f 43  7  0  -2784.2  2046003.5 -0.0  2 0 1273 1680  828
[08]  17(G18)  7  7  7  0  -1507.9  2046002.0  0.1 10 0  704  490  771
[16]  38(B02) 1f 39 25  0  -1111.0  4092002.8 -0.4  2 0  742 1047  571
[17]  41(B05)  7 14 10  1  -1815.1  4092004.9 -0.1  2 0  114  110  358
[18]  45(B09) 1f 40  7  0    578.6  4091998.3 -0.0  2 0 1263 1723  526
[19]  48(B12) 1f 41 12  0  -2761.4  4092007.1 -0.0  2 0 1200 1400  569
[20]  49(B13) 1f 41  7  0  -2363.6  4092006.1 -0.1  2 0 1382 1459  286
[22]  60(B24) 1f 41 10  0  -3913.8  4092010.2 -0.1  2 0 1014 1766  812
[24]  62(B26) 1f 37  7  0  -1919.4  4092004.9  0.2  2 0  874  922  689
[32]  77(N-4) 8f 40  7  0  -4809.3  1022003.0 -0.0  2 0   722  972  401
[48]  38(B02)  1 10 10  0  -2128.7 20460020.9 -0.2  1 0  259  146  241
[50]  45(B09)  1  7  7  0   -137.0 20459990.9  0.1  1 0   28  284   41
[51]  48(B12)  1 13  7  0  -1941.1 20460043.6  0.1  1 0  800  568  605
[52]  49(B13)  1  7  7  0  -2269.2 20460039.3  0.1  1 0  389  222  241
[54]  60(B24)  1  7  7  0  -3088.0 20460063.3  0.0  1 0  616  690  666
[56]  62(B26)  1  7  7  0  -1708.3 20460030.5  0.1  1 0  576  524  805
$GNGGA,080713.062,,,,,0,00,,,M,,,,0000*22
$GNRMC,080713.062,A,,,,,,,080419,,*2B
$GPGSA,A,1,,,,,,,,,,,,,,,*1E
$BDGSA,A,1,,,,,,,,,,,,,,,*0F
$GLGSA,A,1,,,,,,,,,,,,,,,*02
$GPGSV,2,1,07,04,00,000,40,07,00,000,43,09,00,000,40,13,00,000,40*76
$GPGSV,2,2,07,17,00,000,44,28,00,000,42,30,00,000,43*40
$BDGSV,2,1,06,02,00,000,39,09,00,000,40,12,00,000,41,13,00,000,41*69
$BDGSV,2,2,06,24,00,000,41,26,00,000,37*6D
$B3CN0,0,0,0,0,0,0,0,0,0,0,0,0,0,0*4C
$GLGSV,1,1,01,17,00,000,40*56
---00000036--- Acq_st=7 0  2000-1-1 0:1:28 
[00]  03(G04)  f 39  7  0   1431.6  2045998.1 -0.0  2 0  793 1324  560
[01]  06(G07)  f 43  7  0   -617.9  2046000.7 -0.0  2 0 1408 2045 1033
[02]  08(G09)  f 40  7  0   1610.9  2045997.9  0.0  2 0  759 1166  457
[03]  12(G13)  f 40  7  0  -2525.5  2046003.3 -0.2  2 0  664 1219  682
[04]  16(G17)  f 44  7  0  -3442.0  2046004.4  0.0  2 0 2361 3468 1662
[05]  27(G28)  f 41  7  0  -2863.1  2046003.7  0.1  2 0  895 1518  482
[06]  29(G30)  f 42  7  0  -2779.2  2046003.6  0.0  2 0 1422 2234 1002
[08]  17(G18)  7  7  7  0  -1626.1  2046002.2  0.2 10 0  870  259  562
[16]  38(B02) 1f 38 23  0  -1115.0  4092002.8 -0.0  2 0  783 1063  575
[17]  41(B05)  7 36 30  1  -1992.8  4092005.3  0.0  2 0  118  106  250
[18]  45(B09) 1f 40  7  0    573.5  4091998.3 -0.0  2 0  994 1100  561
[19]  48(B12) 1f 41 13  0  -2768.4  4092007.2 -0.1  2 0 1025 1121  264
[20]  49(B13) 1f 41  7  0  -2367.2  4092006.1 -0.0  2 0  916 1524  995
[22]  60(B24) 1f 41  8  0  -3915.7  4092010.2  0.0  2 0  944 1122  299
[24]  62(B26) 1f 37  7  0  -1921.4  4092004.9 -0.3  2 0  824  774  265
[32]  77(N-4) 8f 40  7  0  -4809.6  1022003.1 -0.1  2 0   493  969  406
[50]  45(B09)  1 10  7  0    -78.5 20459989.8  0.2  1 0  348  181  315
[51]  48(B12)  1  7  7  0  -2337.6 20460045.3 -0.1  1 0  263  121   44
[52]  49(B13)  1  7  7  0  -2208.1 20460040.0 -0.0  1 0  128  527  423
[54]  60(B24)  1  7  7  0  -2848.8 20460065.3  0.0  1 0  149  463  363
[56]  62(B26)  1  7 11  0  -1868.1 20460032.3  0.0  1 0  415  240  152
$GNGGA,080714.062,,,,,0,00,,,M,,,,0000*25
$GNRMC,080714.062,A,,,,,,,080419,,*2C
$GPGSA,A,1,,,,,,,,,,,,,,,*1E
$BDGSA,A,1,,,,,,,,,,,,,,,*0F
$GLGSA,A,1,,,,,,,,,,,,,,,*02
$GPGSV,2,1,07,04,00,000,39,07,00,000,43,09,00,000,40,13,00,000,40*78
$GPGSV,2,2,07,17,00,000,44,28,00,000,41,30,00,000,42*42
$BDGSV,2,1,07,02,00,000,39,05,00,000,36,09,00,000,40,12,00,000,41*6F
$BDGSV,2,2,07,13,00,000,41,24,00,000,41,26,00,000,37*5B
$B3CN0,0,0,0,0,0,0,0,0,0,0,0,0,0,0*4C
$GLGSV,1,1,01,17,00,000,40*56
---00000037--- Acq_st=7 0  2000-1-1 0:1:29 
[00]  03(G04)  f 39  7  0   1422.1  2045998.1 -0.1  2 0  862 1061  469
[01]  06(G07)  f 43  7  0   -618.9  2046000.7  0.0  2 0 1436 1742  599
[02]  08(G09)  f 40  7  0   1610.4  2045997.8 -0.2  2 0  623 1361  795
[03]  12(G13)  f 40  7  0  -2529.7  2046003.2 -0.1  2 0 1017 1527  988
