i=1
Rf R0 Config = ff777273
Rf R1 Config = 00dffbfe
Rf R52 Config = 00dfef00
i=2
Rf R0 Config = 007772f3
Rf R1 Config = 00dfdbfe
Rf R52 Config = 00db8eb0
i=3
Rf R0 Config = 007772f3
Rf R1 Config = 00df7bfe
Rf R52 Config = 00ddf070
i=4
Rf R0 Config = 00777273
Rf R1 Config = 00df1bfe
Rf R52 Config = 00deee20
SD initialized success
Create debug.log Failed! 3
Start Channel by LuYu
$GNGGA,000000.000,,,,,0,00,,,M,,,,0000*2B
$GNRMC,000000.000,A,,,,,,,060180,,*29
$GPGSA,A,1,,,,,,,,,,,,,,,*1E
$BDGSA,A,1,,,,,,,,,,,,,,,*0F
$GLGSA,A,1,,,,,,,,,,,,,,,*02
$B3CN0,0,0,0,0,0,0,0,0,0,0,0,0,0,0*4C
---00000001--- Acq_st=3 0  2019-4-9 2:55:44 
[00]  02(G03)  1 19  7  0   -154.5  2046001.3  0.0  1 0 1082 2098 1042
$GNGGA,000000.000,,,,,0,00,,,M,,,,0000*2B
$GNRMC,000000.000,A,,,,,,,060180,,*29
$GPGSA,A,1,,,,,,,,,,,,,,,*1E
$BDGSA,A,1,,,,,,,,,,,,,,,*0F
$GLGSA,A,1,,,,,,,,,,,,,,,*02
$B3CN0,0,0,0,0,0,0,0,0,0,0,0,0,0,0*4C
---00000002--- Acq_st=3 0  2019-4-9 2:55:45 
[00]  02(G03)  7 16  7  0   -151.2  2046000.1  0.8 10 0 1512 1713  679
[01]  13(G14)  1 22  7  0   1090.9  2045998.3  0.2  1 0 1333 2704 1221
[02]  15(G16)  1  7  7  0  -2166.1  2046001.9  0.0  1 0  750  228  303
[03]  21(G22)  1  7  7  0    750.0  2046002.5  0.0  1 0  967 1672 2313
[04]  22(G23)  1  7  7  0  -4250.0  2046006.2 -0.1  1 0 1026  469  860
[05]  25(G26)  1  7  7  0     -0.0  2046002.0  0.0  1 0  120 1205 3655
$GNGGA,000000.000,,,,,0,00,,,M,,,,0000*2B
$GNRMC,000000.000,A,,,,,,,060180,,*29
$GPGSA,A,1,,,,,,,,,,,,,,,*1E
$BDGSA,A,1,,,,,,,,,,,,,,,*0F
$GLGSA,A,1,,,,,,,,,,,,,,,*02
$GPGSV,1,1,01,03,00,000,16*4C
$B3CN0,0,0,0,0,0,0,0,0,0,0,0,0,0,0*4C
---00000003--- Acq_st=3 0  2019-4-9 2:55:46 
[00]  02(G03)  7 40  7  0   -154.1  2046000.1 -0.0  2 0 1856 1992  336
[01]  13(G14)  7 24  7  0   1096.8  2045998.6  0.8 10 0 1438 2703 1448
[02]  15(G16)  1  7  7  0  -2753.1  2046002.1 -0.1  1 0  579  301  344
[03]  21(G22)  1 27  7  0    688.5  2045998.7  0.6  1 0 1783 1961  373
[04]  22(G23)  1 21  7  0  -4254.5  2046008.5  0.2  1 0   58 1689 2269
[05]  25(G26)  1 25  7  0   -147.2  2046000.6  0.5  1 0 3717 4318 1888
[06]  26(G27)  1 25 15  0  -4657.4  2046006.3  0.4  1 0  925 1258  470
[08]  30(G31)  1 12  7  0    403.9  2045999.3  0.2  1 0 1866 3625 1739
[09]  31(G32)  1 25  8  0   1995.7  2045998.0 -0.1  1 0 1715 2388 1392
[16]  37(B01)  1 18 17  0  -1098.6  4092005.2  0.1  1 0  634 1245 1065
[17]  38(B02)  1 13 28  1  -1000.0  4092002.6 -0.2  1 0  728  588  399
[18]  39(B03)  1 10 17  0  -1250.0  4092005.0  0.1  1 0  209 1291 1154
[19]  40(B04)  1 14 26  1  -1000.0  4092002.8  0.0  1 0  320  191  577
$GNGGA,000000.000,,,,,0,00,,,M,,,,0000*2B
$GNRMC,000000.000,A,,,,,,,060180,,*29
$GPGSA,A,1,,,,,,,,,,,,,,,*1E
$BDGSA,A,1,,,,,,,,,,,,,,,*0F
$GLGSA,A,1,,,,,,,,,,,,,,,*02
$GPGSV,1,1,02,03,00,000,40,14,00,000,24*7F
$B3CN0,0,0,0,0,0,0,0,0,0,0,0,0,0,0*4C
---00000004--- Acq_st=3 0  2019-4-9 2:55:47 
[00]  02(G03)  7 41  7  0   -151.4  2046000.1 -0.0  2 0 1591 1793  112
[01]  13(G14)  7 44  7  0   1098.5  2045998.6 -0.0  2 0 1324 2784  558
[02]  15(G16)  1  7  7  0  -2728.6  2046002.5  0.1  1 0  507  223  422
[03]  21(G22)  7 31  7  0    692.5  2045998.9  0.5  5 0 1010 1483  533
[04]  22(G23)  7 30  7  0  -4252.6  2046005.5  0.1  5 0 1137 1874  947
[05]  25(G26)  7 27  7  0   -144.1  2046000.1  0.6 10 0 4122 4732 1772
[06]  26(G27)  7 26  7  0  -4653.2  2046005.9  0.6 10 0  574 1360 1114
[08]  30(G31)  7  7  7  0    405.4  2045999.5  1.0 10 0 2220 3926 2118
[09]  31(G32)  7  7  7  0   2004.9  2045997.3  0.7  5 0 1812 2329  978
[16]  37(B01)  1 10 10  1  -1080.3  4092005.3  0.3  1 0 1829  876  295
[17]  38(B02)  1 36 10  0   -573.4  4092002.2  0.1  1 0  227  551  656
[18]  39(B03)  1 10 29  1  -1072.0  4092004.8  0.4  1 0 2165 1550  478
[19]  40(B04)  1 35 23  0  -1068.3  4092005.7  0.6  1 0  598 1333 1816
[20]  41(B05)  1 20 26  0  -1011.5  4092001.0  0.2  1 0  444  194  171
[21]  42(B06)  1  7  7  0   -506.3  4092003.4  0.1  1 0 1146 2206 1478
[22]  43(B07)  1  7  7  0   -795.9  4092004.8  0.1  1 0  889 2128 2300
[24]  45(B09)  1  7  7  0  -1059.5  4092005.3 -0.0  1 0  567 1528 1847
[25]  46(B10)  1  7  7  0  -1000.0  4092004.0  0.0  1 0  846 2429 2357
$GNGGA,000000.000,,,,,0,00,,,M,,,,0000*2B
$GNRMC,000000.000,A,,,,,,,060180,,*29
$GPGSA,A,1,,,,,,,,,,,,,,,*1E
$BDGSA,A,1,,,,,,,,,,,,,,,*0F
$GLGSA,A,1,,,,,,,,,,,,,,,*02
$GPGSV,2,1,06,03,00,000,41,14,00,000,44,22,00,000,31,23,00,000,30*7F
$GPGSV,2,2,06,26,00,000,27,27,00,000,26*7F
$B3CN0,0,0,0,0,0,0,0,0,0,0,0,0,0,0*4C
---00000005--- Acq_st=3 0  2019-4-9 2:55:48 
[00]  02(G03)  7 41  7  0   -156.6  2046000.1  0.0  2 0 1023 2142  957
[01]  13(G14)  7 43  7  0   1094.5  2045998.6 -0.0  2 0 1104 2196  885
[02]  15(G16)  1  7  7  0  -2651.5  2046002.6 -0.0  1 0  350  371  362
[03]  21(G22)  7 41  9  0    685.0  2045999.0 -0.0  2 0 1302 2115 1085
[04]  22(G23)  7 40  7  0  -4252.6  2046005.4 -0.1  2 0  464 1113  162
[05]  25(G26)  7 46  7  0   -150.8  2046000.1 -0.0  2 0 3399 4673 2185
[06]  26(G27)  7 40 17  0  -4660.9  2046006.0 -0.1  2 0  882 1227  603
[08]  30(G31)  7 46  9  0    399.1  2045999.4 -0.0  2 0 1884 3824 1910
[09]  31(G32)  7 41 14  0   1998.0  2045997.3  0.0  2 0 1854 2380  884
[16]  37(B01)  7 36 20  0  -1088.1  4092002.5 -0.8  2 0 1745 1156   43
[17]  38(B02)  1 10 10  0   -538.9  4092003.9  0.3  1 0  782 1046   86
[18]  39(B03)  7 30 32  1  -1006.8  4092002.5  0.0  2 0 1206  420   37
[19]  40(B04)  f 41 25  0  -1071.0  4092002.7 -0.3  2 0  850  865  452
[20]  41(B05)  7 10 26  1  -1007.3  4092002.4  0.1  2 0  571   98  183
[21]  42(B06)  7 23  7  0   -510.4  4092001.2  0.3 10 0 1499 1680  618
[22]  43(B07)  7 21  7  0   -799.9  4092002.0  0.3 10 0 2310 2732 1090
[24]  45(B09)  1  7  7  0  -1065.3  4092002.6  0.5  1 0 1821 2636 1171
[25]  46(B10)  1  7  7  0  -1042.2  4092002.4  0.7  1 0 1598 2597 1080
[26]  52(B16)  1  7  7  0   -562.1  4092001.9  0.1  1 0 1267 2746 1915
[27]  54(B18)  1  7  7  0  -1000.0  4092003.8  0.0  1 0  931 2327 2079
[28]  55(B19)  1  7  7  0  -1000.0  4092004.5 -0.0  1 0  466  816 2031
$GNGGA,025549.794,,,,,0,00,,,M,,,,0000*2E
$GNRMC,025549.794,A,,,,,,,080180,,*22
$GPGSA,A,1,,,,,,,,,,,,,,,*1E
$BDGSA,A,1,,,,,,,,,,,,,,,*0F
$GLGSA,A,1,,,,,,,,,,,,,,,*02
$GPGSV,2,1,08,03,00,000,41,14,00,000,44,22,00,000,41,23,00,000,40*71
$GPGSV,2,2,08,26,00,000,46,27,00,000,40,31,00,000,46,32,00,000,41*72
$BDGSV,2,1,06,01,00,000,36,03,00,000,29,04,00,000,41,05,00,000,36*60
$BDGSV,2,2,06,06,00,000,23,07,00,000,21*6D
$B3CN0,0,0,0,0,0,0,0,0,0,0,0,0,0,0*4C
---00000006--- Acq_st=3 0  2019-4-9 2:55:49 
[00]  02(G03)  f 41  7  0   -134.4  2046000.1  0.1  2 0 1060 2018  948
[01]  13(G14)  f 44  7  0   1115.3  2045998.5  0.0  2 0 1947 3121 1885
[03]  21(G22)  f 41  7  0    704.6  2045999.0  0.0  2 0 1142 1453 1048
[04]  22(G23)  f 40  7  0  -4243.6  2046005.4  0.0  2 0  567 1660  776
[05]  25(G26)  f 45  7  0   -130.6  2046000.1  0.0  2 0 3009 4172 1603
[06]  26(G27)  f 40 18  0  -4645.5  2046005.9  0.1  2 0 1486 1807  417
[08]  30(G31)  f 44  7  0    419.0  2045999.4 -0.0  2 0 1984 3446 1854
[09]  31(G32)  f 41 16  0   2018.7  2045997.3 -0.0  2 0 1061 1583  876
[16]  37(B01)  f 37 13  0  -1064.4  4092002.6  0.5  2 0 1671 1392  624
[17]  38(B02)  1 10 10  1   -474.2  4092004.0 -0.0  1 0  799  600  335
[18]  39(B03)  7 32 32  1  -1008.2  4092002.4 -0.1  2 0 1706  327  537
[19]  40(B04)  f 40 22  0  -1053.3  4092002.6  0.6  2 0  764  940  253
[20]  41(B05)  7 14 25  1   -944.1  4092002.4 -0.0  2 0  509  463  408
[21]  42(B06)  7 42 10  0   -491.1  4092001.1 -0.0  2 0 2033 1985  393
[22]  43(B07)  7 44  7  0   -782.2  4092001.9 -0.0  2 0 2144 2656 1349
[24]  45(B09)  7 39  7  0  -1041.7  4092002.6  0.0  2 0 2062 2674 1426
[25]  46(B10)  7 36  7  0  -1023.1  4092002.6  0.2  2 0 1386 2586 1591
[26]  52(B16)  1  7  7  0   -544.1  4092001.3  0.2  1 0 1455 2777 1677
[27]  54(B18)  1  7  7  0   -894.6  4092002.2  0.4  1 0 2312 3068 1116
[28]  55(B19)  1  7  7  0  -1004.2  4092002.9  0.2  1 0 2406 2602  920
[29]  58(B22)  1 22  7  0  -3390.8  4092010.3  0.1  1 0  771 1427  440
[30]  63(B27)  1  7  7  0  -3250.0  4092009.8  0.0  1 0  831  800 1906
[51]  40(B04)  1 21 22  1  -1109.6 20460019.7  0.1  1 0  253  114  349
$GNGGA,025550.794,,,,,0,00,,,M,,,,0000*26
$GNRMC,025550.794,A,,,,,,,080180,,*2A
$GPGSA,A,1,,,,,,,,,,,,,,,*1E
$BDGSA,A,1,,,,,,,,,,,,,,,*0F
$GLGSA,A,1,,,,,,,,,,,,,,,*02
$GPGSV,2,1,08,03,00,000,41,14,00,000,44,22,00,000,41,23,00,000,40*71
$GPGSV,2,2,08,26,00,000,45,27,00,000,40,31,00,000,44,32,00,000,41*73
$BDGSV,2,1,08,01,00,000,37,03,00,000,32,04,00,000,40,05,00,000,18*68
$BDGSV,2,2,08,06,00,000,42,07,00,000,44,09,00,000,38,10,00,000,36*61
$B3CN0,0,0,0,0,0,0,0,0,0,0,0,0,0,0*4C
---00000007--- Acq_st=3 0  2019-4-9 2:55:50 
[00]  02(G03)  f 41  7  0   -148.4  2046000.1 -0.0  2 0 1100 1901  842
[01]  13(G14)  f 43  7  0   1096.9  2045998.5  0.0  2 0 1960 2317 1370
[03]  21(G22)  f 41  7  0    692.4  2045999.0 -0.0  2 0 1705 2165  749
[04]  22(G23)  f 40  7  0  -4259.4  2046005.4  0.1  2 0 1319 2465 1085
[05]  25(G26)  f 45  7  0   -148.9  2046000.1 -0.0  2 0 3246 4265 2080
[06]  26(G27)  f 40 20  0  -4664.7  2046006.0 -0.1  2 0  853 1171  199
[08]  30(G31)  f 44  7  0    402.9  2045999.4  0.0  2 0 1767 3812 1397
[09]  31(G32)  f 40 13  0   1998.7  2045997.3  0.1  2 0 1182 1251  401
[16]  37(B01)  f 40 14  0  -1077.9  4092002.5 -0.5  2 0 1136 1078  719
[17]  38(B02)  1 13 10  0   -520.2  4092002.7  0.0  1 0 1112  820  588
[18]  39(B03)  7 33 35  1  -1003.7  4092002.7  0.0  2 0 2213  912  130
[19]  40(B04)  f 41 10  0  -1069.5  4092002.7 -0.7  2 0  939 1523  495
[20]  41(B05)  7 36 14  0  -1361.7  4092003.4  0.2  2 0  576  620  513
[21]  42(B06)  7 41  8  0   -507.1  4092001.2 -0.1  2 0 1492 1276  450
[22]  43(B07)  7 43  7  0   -796.1  4092002.0 -0.0  2 0 2406 3022 1479
[24]  45(B09)  7 43  8  0  -1059.8  4092002.7 -0.0  2 0 1149 1886  911
[25]  46(B10)  7 43 12  0  -1040.3  4092002.6 -0.0  2 0 1983 2651  982
[26]  52(B16)  7 41  7  0   -559.6  4092001.4  0.0  2 0 1672 3136 1525
[27]  54(B18)  7 33  7  0   -909.8  4092002.3  0.2  5 0 2595 3331  911
[28]  55(B19)  7 31  7  0  -1019.2  4092002.5  0.2  5 0 2656 2986 1410
[29]  58(B22)  7 19  7  0  -3408.7  4092008.8  0.8 10 0 1292 1392  810
[30]  63(B27)  1 13  7  0  -3165.9  4092008.8  0.1  1 0 1612 1789  582
[48]  37(B01)  1 10 10  0   -890.7 20460021.2  0.0  1 0  317  616   91
[51]  40(B04)  1 21 22  0  -1123.8 20460018.6  0.1  1 0  887 1021  740
$GNGGA,025551.794,,,,,0,00,,,M,,,,0000*27
$GNRMC,025551.794,A,,,,,,,080180,,*2B
$GPGSA,A,1,,,,,,,,,,,,,,,*1E
$BDGSA,A,1,,,,,,,,,,,,,,,*0F
$GLGSA,A,1,,,,,,,,,,,,,,,*02
$GPGSV,2,1,08,03,00,000,41,14,00,000,43,22,00,000,41,23,00,000,41*77
$GPGSV,2,2,08,26,00,000,45,27,00,000,40,31,00,000,44,32,00,000,40*72
$BDGSV,3,1,11,01,00,000,40,03,00,000,32,04,00,000,41,06,00,000,41*6F
$BDGSV,3,2,11,07,00,000,43,09,00,000,43,10,00,000,43,16,00,000,40*62
$BDGSV,3,3,11,18,00,000,32,19,00,000,31,22,00,000,19*52
$B3CN0,0,0,0,0,0,0,0,0,0,0,0,0,0,0*4C
---00000008--- Acq_st=7 0  2019-4-9 2:55:51 
[00]  02(G03)  f 41  7  0   -152.8  2046000.1 -0.0  2 0  901 1765  650
[01]  13(G14)  f 43  7  0   1094.0  2045998.5 -0.0  2 0 1649 2612 1523
[03]  21(G22)  f 41  9  0    690.8  2045999.0 -0.1  2 0 1152 1909  836
[04]  22(G23)  f 41  7  0  -4255.7  2046005.5  0.0  2 0  724 1535  703
[05]  25(G26)  f 46  7  0   -146.8  2046000.1 -0.0  2 0 2859 4259 1759
[06]  26(G27)  f 40 20  0  -4655.8  2046006.0  0.0  2 0 1174 1942 1120
[08]  30(G31)  f 44  8  0    401.4  2045999.4  0.0  2 0 1771 3286 1044
[09]  31(G32)  f 41 16  0   2004.0  2045997.3 -0.1  2 0  832 1457  551
[16]  37(B01) 1f 39 10  0  -1077.5  4092002.6 -0.3  2 0 1443 1047  434
[18]  39(B03)  7 32 32  1  -1001.9  4092002.7 -0.1  2 0 1892 1108  703
[19]  40(B04) 1f 40 24  0  -1073.1  4092002.8 -0.8  2 0  555 1206  829
[20]  41(B05)  7 10 27  1  -1954.8  4092005.2 -0.1  2 0  405  576  105
[21]  42(B06) 1f 42  7  0   -506.6  4092001.2  0.1  2 0 1871 2553 1014
[22]  43(B07) 1f 44  7  0   -799.3  4092002.0 -0.0  2 0 2486 2782 1059
[24]  45(B09) 1f 43  7  0  -1061.3  4092002.6  0.0  2 0 1745 2150  998
[25]  46(B10) 1f 43  9  0  -1041.7  4092002.6 -0.0  2 0 1939 2284  892
[26]  52(B16) 1f 43  7  0   -556.8  4092001.4 -0.1  2 0 1806 2727 1092
[27]  54(B18) 1f 44  7  0   -908.6  4092002.3 -0.0  2 0 2496 3265 1216
[28]  55(B19) 1f 44  7  0  -1020.2  4092002.5  0.1  2 0 2540 2805  996
[29]  58(B22)  7 37  9  0  -3404.9  4092008.8 -0.0  2 0 1428 1440  357
[30]  63(B27)  7 27  7  0  -3166.2  4092008.1  0.1 10 0 1811 2221  815
[32]  76(N-5)  1 30  7  0  -4724.7  1022004.9  0.7  1 0   624 1099  503
[33]  77(N-4)  1 24 23  0  -1719.8  1022001.8  0.2  1 0    99  578  553
[34]  80(N-1)  1 26 18  0   2821.9  1021999.6  0.2  1 0  1210 1491  596
[35]  81(N00)  1 27  8  0   1467.4  1022000.8 -0.0  1 0  1271 2478 1515
[36]  82(N01)  1 27  7  0     -0.0  1022000.9 -0.1  1 0  1301 2206 1029
[37]  84(N03)  1 12  7  0  -4250.0  1022004.1 -0.0  1 0   268  128 1073
[38]  85(N04)  1 22  7  0  -1500.0  1022002.1 -0.0  1 0  1169 3273 3676
[48]  37(B01)  1 10 10  0   -867.3 20460018.6  0.2  1 0  593  827  296
[51]  40(B04)  1 21 23  0  -1624.6 20460022.0 -0.0  1 0  213  199  476
$GNGGA,025552.794,,,,,0,00,,,M,,,,0000*24
$GNRMC,025552.794,A,,,,,,,080180,,*28
$GPGSA,A,1,,,,,,,,,,,,,,,*1E
$BDGSA,A,1,,,,,,,,,,,,,,,*0F
$GLGSA,A,1,,,,,,,,,,,,,,,*02
$GPGSV,2,1,08,03,00,000,41,14,00,000,43,22,00,000,41,23,00,000,41*77
$GPGSV,2,2,08,26,00,000,46,27,00,000,40,31,00,000,44,32,00,000,41*70
$BDGSV,3,1,12,01,00,000,39,03,00,000,32,04,00,000,40,06,00,000,42*60
$BDGSV,3,2,12,07,00,000,44,09,00,000,43,10,00,000,43,16,00,000,43*65
$BDGSV,3,3,12,18,00,000,44,19,00,000,44,22,00,000,37,27,00,000,27*6E
$B3CN0,0,0,0,0,0,0,0,0,0,0,0,0,0,0*4C
---00000009--- Acq_st=7 0  2019-4-9 2:55:52 
[00]  02(G03)  f 41  7  0   -152.6  2046000.1 -0.1  2 0 1362 1737  562
[01]  13(G14)  f 42  7  0   1095.3  2045998.5  0.0  2 0 1357 2201  850
[03]  21(G22)  f 41  7  0    691.1  2045999.0  0.1  2 0 1784 1923 1008
[04]  22(G23)  f 41  7  0  -4256.1  2046005.5  0.0  2 0  740 1687  811
[05]  25(G26)  f 45  7  0   -143.7  2046000.1 -0.0  2 0 3442 4891 2036
[06]  26(G27)  f 39 18  0  -4660.0  2046006.0 -0.1  2 0  625 1578 1377
[08]  30(G31)  f 45  7  0    403.1  2045999.4  0.0  2 0 2600 4072 1785
[09]  31(G32)  f 41 12  0   2004.2  2045997.3  0.1  2 0 1498 2000 1218
[16]  37(B01) 1f 40 36  0  -1080.0  4092002.7  0.0  2 0 1961 2066  932
[18]  39(B03)  7 34 33  1  -1008.6  4092002.6  0.1  2 0 2314 1255  467
[19]  40(B04) 1f 40 36  0  -1069.1  4092002.7 -0.5  2 0 1565 1408  431
[20]  41(B05)  7 10 29  1  -2009.3  4092005.3 -0.1  2 0  403  370  257
[21]  42(B06) 1f 41  7  0   -507.4  4092001.2 -0.1  2 0 1403 1695  888
[22]  43(B07) 1f 44  7  0   -798.8  4092002.0  0.0  2 0 2241 2598 1417
[24]  45(B09) 1f 42  7  0  -1057.7  4092002.7 -0.1  2 0 1792 2338  912
[25]  46(B10) 1f 43  8  0  -1037.1  4092002.6 -0.0  2 0 1552 2319  887
[26]  52(B16) 1f 43  7  0   -555.8  4092001.4  0.0  2 0 1608 2748 1280
[27]  54(B18) 1f 44  7  0   -907.5  4092002.3  0.1  2 0 2862 3349 1299
[28]  55(B19) 1f 44  7  0  -1016.6  4092002.5 -0.0  2 0 2313 2410 1347
[29]  58(B22)  7 37  7  0  -3399.8  4092008.8 -0.0  2 0 1198 1275  592
[30]  63(B27)  7 44  7  0  -3161.3  4092008.2  0.0  2 0 2189 2542 1030
[32]  76(N-5)  7 30  7  0  -4724.3  1022002.8  0.4  5 0  1167 1329  413
[33]  77(N-4)  7 27 22  0  -1720.5  1022000.9  0.4 10 0   650  723  192
[34]  80(N-1)  1 28 28  0   2824.2  1021997.8  1.0  1 0  1226 1728  646
[35]  81(N00)  1 24  7  0   1458.5  1021998.7  1.0  1 0  2094 1860  739
[36]  82(N01)  1 21  7  0     64.4  1021999.6  1.0  1 0  1338 2189  898
[37]  84(N03)  1 24  7  0  -4233.7  1022003.7  1.0  1 0   465  953  475
[38]  85(N04)  1 28  7  0  -1443.6  1022001.0  1.0  1 0  2267 4079 1828
[48]  37(B01)  1 10 10  1  -1320.6 20460022.5  0.1  1 0  445  490  285
[51]  40(B04)  1 25 17  1  -1866.0 20460017.8 -0.0  1 0  518  379  731
[53]  42(B06)  1  7  7  0   -294.0 20460006.8 -0.2  1 0  468  638  206
[54]  43(B07)  1  7  7  0    -48.8 20460009.1  0.0  1 0  266  453   88
[56]  45(B09)  1  7  7  0   -611.7 20460016.8  0.0  1 0  157  732 1035
[57]  46(B10)  1  7  7  0   -986.7 20460014.8 -0.1  1 0   78  382  324
[58]  52(B16)  1  7  7  0   -170.6 20460007.8 -0.0  1 0  434  181  659
[59]  54(B18)  1  7  7  0  -1105.5 20460014.2  0.1  1 0  560  599  598
[60]  55(B19)  1  8  7  0   -662.1 20460015.9 -0.1  1 0  327  189  534
$GNGGA,025553.794,,,,,0,00,,,M,,,,0000*25
$GNRMC,025553.794,A,,,,,,,080180,,*29
$GPGSA,A,1,,,,,,,,,,,,,,,*1E
$BDGSA,A,1,,,,,,,,,,,,,,,*0F
$GLGSA,A,1,,,,,,,,,,,,,,,*02
$GPGSV,2,1,08,03,00,000,41,14,00,000,42,22,00,000,41,23,00,000,41*76
$GPGSV,2,2,08,26,00,000,45,27,00,000,39,31,00,000,45,32,00,000,41*7C
$BDGSV,3,1,12,01,00,000,39,03,00,000,34,04,00,000,40,06,00,000,41*65
$BDGSV,3,2,12,07,00,000,44,09,00,000,43,10,00,000,43,16,00,000,43*65
$BDGSV,3,3,12,18,00,000,44,19,00,000,44,22,00,000,37,27,00,000,44*6B
$B3CN0,0,0,0,0,0,0,0,0,0,0,0,0,0,0*4C
---00000010--- Acq_st=7 0  2019-4-9 2:55:53 
[00]  02(G03)  f 40  7  0   -134.0  2046000.1 -0.0  2 0  784 1857 1018
[01]  13(G14)  f 43  7  0   1111.5  2045998.5  0.0  2 0 1364 2245  693
[03]  21(G22)  f 41  7  0    706.9  2045999.0 -0.0  2 0 1144 1536  198
[04]  22(G23)  f 40  7  0  -4239.7  2046005.4 -0.0  2 0 1117 1719 1401
[05]  25(G26)  f 46  7  0   -131.0  2046000.1  0.0  2 0 2578 4659 2486
[06]  26(G27)  f 40 19  0  -4647.1  2046006.0 -0.1  2 0  989 1048  534
[08]  30(G31)  f 44  7  0    417.4  2045999.4  0.0  2 0 2546 3459  872
[09]  31(G32)  f 41 14  0   2019.2  2045997.3 -0.0  2 0 1023 1560  905
[16]  37(B01) 1f 39 10  0  -1067.3  4092002.7 -0.1  2 0  787 1443  486
[18]  39(B03)  7 35 34  1  -1004.3  4092002.7  0.0  2 0 1767  571  402
[19]  40(B04) 1f 41 17  0  -1051.7  4092002.6 -0.3  2 0  909 1043  468
[20]  41(B05)  7 20 25  1  -2003.4  4092005.4  0.1  2 0  509  288  219
[21]  42(B06) 1f 42  7  0   -491.4  4092001.1  0.1  2 0 1331 1484  766
[22]  43(B07) 1f 44  7  0   -784.7  4092001.9 -0.0  2 0 2395 2630  949
[24]  45(B09) 1f 43  7  0  -1045.6  4092002.6  0.0  2 0 1608 2309  819
[25]  46(B10) 1f 43  8  0  -1024.4  4092002.6 -0.0  2 0 1733 1758  794
[26]  52(B16) 1f 43  7  0   -540.7  4092001.3 -0.0  2 0 2094 2853 1287
[27]  54(B18) 1f 44 11  0   -893.8  4092002.2  0.0  2 0 2065 2834 1234
[28]  55(B19) 1f 44  7  0   -999.4  4092002.5  0.1  2 0 2086 2462 1109
[29]  58(B22)  7 37  7  0  -3388.4  4092008.8  0.1  2 0  822 1112  494
[30]  63(B27)  7 43 10  0  -3147.0  4092008.1 -0.0  2 0 2025 2649 1299
[32]  76(N-5)  7 41  7  0  -4707.5  1022002.9 -0.1  2 0   766 1002  549
[33]  77(N-4)  7 37 27  0  -1705.1  1022001.0  0.1  2 0   685  785  512
[34]  80(N-1)  7 44 28  0   2840.7  1021998.1  0.1  2 0   814 1129  629
[35]  81(N00)  7 46 14  0   1476.1  1021998.9  0.1  2 0  1778 2350  888
[36]  82(N01)  1 22  7  0     79.9  1021999.6  1.0  1 0  1373 2384  961
[37]  84(N03)  1 24  7  0  -4218.3  1022002.4  0.9  1 0   827 1264  463
[38]  85(N04)  1 28  7  0  -1427.4  1022000.7  1.0  1 0  2489 4508 1974
[48]  37(B01)  1 10 18  1   -921.8 20460017.1 -0.0  1 0   48  527  470
[53]  42(B06)  1  8  7  0     94.2 20460006.0  0.1  1 0  379  730  684
[54]  43(B07)  1  7  7  0      5.0 20460009.6 -0.0  1 0  595  462  905
[56]  45(B09)  1  7  7  0    -75.2 20460016.7  0.1  1 0  231  358  162
[57]  46(B10)  1  7  7  0   -284.8 20460015.1  0.0  1 0  466  604  673
[58]  52(B16)  1  7  7  0   -651.5 20460007.7  0.2  1 0  360  782  424
[59]  54(B18)  1  7  7  0  -1114.2 20460015.2 -0.0  1 0  414  459  647
[60]  55(B19)  1  7  7  0   -904.7 20460018.0 -0.0  1 0  517  254  292
$GNGGA,025554.794,,,,,0,00,,,M,,,,0000*22
$GNRMC,025554.794,A,,,,,,,080180,,*2E
$GPGSA,A,1,,,,,,,,,,,,,,,*1E
$BDGSA,A,1,,,,,,,,,,,,,,,*0F
$GLGSA,A,1,,,,,,,,,,,,,,,*02
$GPGSV,2,1,08,03,00,000,40,14,00,000,43,22,00,000,41,23,00,000,40*77
$GPGSV,2,2,08,26,00,000,46,27,00,000,40,31,00,000,44,32,00,000,41*70
$BDGSV,3,1,12,01,00,000,40,03,00,000,34,04,00,000,41,05,00,000,22*6C
$BDGSV,3,2,12,06,00,000,42,07,00,000,44,09,00,000,43,10,00,000,43*65
$BDGSV,3,3,12,16,00,000,43,18,00,000,44,19,00,000,44,22,00,000,37*6E
$B3CN0,0,0,0,0,0,0,0,0,0,0,0,0,0,0*4C
---00000011--- Acq_st=3 0  2019-4-9 2:55:54 
[00]  02(G03)  f 41  7  0   -144.6  2046000.1  0.1  2 0 1117 1870 1197
[01]  13(G14)  f 43  7  0   1098.3  2045998.5 -0.0  2 0 1527 2885 1683
[03]  21(G22)  f 41  7  0    691.4  2045999.1 -0.0  2 0 1039 1820  648
[04]  22(G23)  f 40  7  0  -4254.8  2046005.5  0.1  2 0 1121 1987  979
[05]  25(G26)  f 45  7  0   -140.5  2046000.1  0.0  2 0 3157 5045 2018
[06]  26(G27)  f 39 19  0  -4655.2  2046006.0  0.1  2 0  675 1488  481
[08]  30(G31)  f 44  8  0    406.9  2045999.4  0.0  2 0 2215 3466 1854
[09]  31(G32)  f 40 14  0   2006.2  2045997.4  0.0  2 0 1427 2246 1269
[16]  37(B01) 1f 40 10  0  -1078.1  4092002.6 -0.6  2 0 1006 1442  494
[18]  39(B03)  7 34 31  1  -1009.7  4092002.7 -0.0  2 0 2403  980   97
[19]  40(B04) 1f 41 21  0  -1068.4  4092002.7  0.0  2 0  930 1426  734
[20]  41(B05)  7 20 26  1  -2027.3  4092005.3  0.1  2 0  630  304  410
[21]  42(B06) 1f 41  7  0   -504.7  4092001.2  0.0  2 0 1820 1896  580
[22]  43(B07) 1f 43  7  0   -794.4  4092002.0 -0.0  2 0 2542 2983 1383
[24]  45(B09) 1f 43  7  0  -1058.5  4092002.7 -0.0  2 0 1660 2371  965
[25]  46(B10) 1f 43 10  0  -1031.4  4092002.6 -0.0  2 0 2018 2470  612
[26]  52(B16) 1f 43  7  0   -553.1  4092001.4 -0.0  2 0 1840 2526 1074
[27]  54(B18) 1f 43  7  0   -903.8  4092002.3 -0.0  2 0 2427 3308 1650
[28]  55(B19) 1f 43  7  0  -1011.3  4092002.5 -0.0  2 0 1996 2041  508
[29]  58(B22)  7 37  7  0  -3402.2  4092008.8  0.0  2 0  975 1319  339
[30]  63(B27)  7 43  7  0  -3160.9  4092008.2  0.1  2 0 1603 2073  954
[32]  76(N-5)  7 41  7  0  -4719.7  1022002.9  0.2  2 0   560  985  287
[33]  77(N-4)  7 38 29  0  -1718.0  1022001.1 -0.1  2 0   389  629  391
[34]  80(N-1)  7 44 27  0   2828.2  1021998.1 -0.0  2 0   879 1352  800
[35]  81(N00)  7 46 13  0   1463.2  1021998.9  0.0  2 0  1282 1894  800
[36]  82(N01)  9 17  7  0     67.7  1021999.9  1.0  1 0  1196 2559 1503
[37]  84(N03)  7 42  7  0  -4227.7  1022002.6 -0.2  2 0   670 1020  486
[38]  85(N04)  7 50  7  0  -1435.8  1022000.9  0.1  2 0  2340 4394 2386
[51]  40(B04)  1 21 20  1   -551.4 20460018.2  0.1  1 0  374  367  368
[53]  42(B06)  1  7  7  0   1100.6 20460006.8 -0.0  1 0  459  697  731
[54]  43(B07)  1 11  7  0   -179.7 20460009.3  0.1  1 0  918  651  845
[56]  45(B09)  1  7  7  0    518.5 20460016.7  0.0  1 0  234  486  749
[57]  46(B10)  1  7  7  0   -321.2 20460013.7 -0.1  1 0  657  542  446
[58]  52(B16)  1  7  7  0   -603.6 20460009.7 -0.1  1 0  369  558  614
[59]  54(B18)  1  7  7  0  -1101.1 20460015.0  0.0  1 0  476  151  342
[60]  55(B19)  1  7  7  0   -451.5 20460019.2  0.0  1 0  396  203  198
$GNGGA,025555.794,,,,,0,00,,,M,,,,0000*23
$GNRMC,025555.794,A,,,,,,,080180,,*2F
$GPGSA,A,1,,,,,,,,,,,,,,,*1E
$BDGSA,A,1,,,,,,,,,,,,,,,*0F
$GLGSA,A,1,,,,,,,,,,,,,,,*02
$GPGSV,2,1,08,03,00,000,41,14,00,000,43,22,00,000,41,23,00,000,40*76
$GPGSV,2,2,08,26,00,000,45,27,00,000,39,31,00,000,44,32,00,000,40*7C
$BDGSV,3,1,12,01,00,000,40,03,00,000,35,04,00,000,41,05,00,000,18*64
$BDGSV,3,2,12,06,00,000,41,07,00,000,43,09,00,000,43,10,00,000,43*61
$BDGSV,3,3,12,16,00,000,43,18,00,000,43,19,00,000,43,22,00,000,37*6E
$B3CN0,0,0,0,0,0,0,0,0,0,0,0,0,0,0*4C
---00000012--- Acq_st=3 0  2019-4-9 2:55:55 
[00]  02(G03)  f 41  7  0   -140.4  2046000.1  0.0  2 0 1910 2821 1069
[01]  13(G14)  f 43  7  0   1103.0  2045998.5  0.0  2 0 1420 2762 1241
[02]  15(G16)  1 25  7  0  -2313.0  2046003.5  0.4  1 0 2023 3294 1429
[03]  21(G22)  f 42  7  0    700.8  2045999.0  0.0  2 0 1553 2457  764
[04]  22(G23)  f 41  7  0  -4249.9  2046005.4 -0.0  2 0 1478 1963  999
[05]  25(G26)  f 46  7  0   -138.4  2046000.1  0.0  2 0 2838 4353 2218
[06]  26(G27)  f 40 21  0  -4649.3  2046006.0  0.0  2 0 1250 1173 1025
[08]  30(G31)  f 44  9  0    407.6  2045999.4 -0.0  2 0 2304 3724 2032
[09]  31(G32)  f 41 13  0   2013.2  2045997.4 -0.0  2 0 1448 2005  864
[16]  37(B01) 1f 40 10  0  -1077.6  4092002.8  0.5  2 0  645  906  612
[18]  39(B03)  7 34 32  1  -1000.2  4092002.6  0.0  2 0 1735  813  431
[19]  40(B04) 1f 40 17  0  -1061.8  4092002.6 -0.2  2 0 1334 1620  794
[20]  41(B05)  7 20 27  1  -2024.3  4092005.5  0.1  2 0  471  213  348
[21]  42(B06) 1f 41  7  0   -498.4  4092001.2 -0.1  2 0 1335 1700  828
[22]  43(B07) 1f 43  7  0   -789.5  4092001.9 -0.0  2 0 2685 2739 1102
[24]  45(B09) 1f 43  7  0  -1053.2  4092002.7 -0.1  2 0 2141 2423 1342
[25]  46(B10) 1f 43 12  0  -1034.2  4092002.6  0.0  2 0 2330 2852 1066
[26]  52(B16) 1f 43  7  0   -547.2  4092001.3 -0.0  2 0 1550 2472 1524
[27]  54(B18) 1f 44  7  0   -901.0  4092002.2  0.0  2 0 2397 3480 1318
[28]  55(B19) 1f 44 14  0  -1007.6  4092002.5  0.0  2 0 2906 3034  984
[29]  58(B22)  7 36  7  0  -3393.4  4092008.7  0.1  2 0  547  996  633
[30]  63(B27)  7 43  9  0  -3158.9  4092008.2 -0.0  2 0 2158 2374 1154
[32]  76(N-5)  7 41  7  0  -4716.7  1022002.9 -0.2  2 0   852  849  513
[33]  77(N-4)  7 37 28  0  -1713.4  1022001.1  0.2  2 0   174  327  141
[34]  80(N-1)  7 44 28  0   2833.7  1021998.1 -0.5  2 0  1036 1650  485
[35]  81(N00)  7 46 14  0   1467.8  1021999.0  0.0  2 0  1385 1922  900
[36]  82(N01)  f 27  7  0     74.4  1022000.0  0.4 10 0  1120 2128 1057
[37]  84(N03)  7 43  7  0  -4225.7  1022002.6 -0.0  2 0  1136 1710  633
[38]  85(N04)  7 50  7  0  -1431.9  1022000.9 -0.1  2 0  2656 4488 2080
[48]  37(B01)  1 10 10  1   -911.5 20460021.4 -0.0  1 0 1089  922  656
[51]  40(B04)  1 19 21  0   -910.2 20460019.5 -0.1  1 0  316  507  458
[53]  42(B06)  1  7  7  0   1613.6 20460006.6 -0.1  1 0  154  333  317
[54]  43(B07)  1  7  7  0   -627.7 20460008.0 -0.1  1 0  528  124  200
[56]  45(B09)  1  8  7  0    -74.2 20460017.6  0.0  1 0  744  859  488
[57]  46(B10)  1  7  7  0    -15.4 20460015.7 -0.3  1 0  273  448  502
[58]  52(B16)  1  7  7  0  -1072.2 20460008.1 -0.0  1 0  490  549  344
[59]  54(B18)  1  8  7  0  -1432.9 20460015.5 -0.1  1 0  618  137  221
[60]  55(B19)  1  7  7  0   -128.3 20460015.6 -0.1  1 0  338  388  306
$GNGGA,025556.794,,,,,0,00,,,M,,,,0000*20
$GNRMC,025556.794,A,,,,,,,080180,,*2C
$GPGSA,A,1,,,,,,,,,,,,,,,*1E
$BDGSA,A,1,,,,,,,,,,,,,,,*0F
$GLGSA,A,1,,,,,,,,,,,,,,,*02
$GPGSV,2,1,08,03,00,000,41,14,00,000,43,22,00,000,42,23,00,000,41*74
$GPGSV,2,2,08,26,00,000,46,27,00,000,40,31,00,000,44,32,00,000,41*70
$BDGSV,3,1,12,01,00,000,39,03,00,000,35,04,00,000,40,05,00,000,21*61
$BDGSV,3,2,12,06,00,000,41,07,00,000,43,09,00,000,43,10,00,000,43*61
$BDGSV,3,3,12,16,00,000,43,18,00,000,44,19,00,000,44,22,00,000,37*6E
$B3CN0,0,0,0,0,0,0,0,0,0,0,0,0,0,0*4C
---00000013--- Acq_st=3 0  2019-4-9 2:55:56 
[00]  02(G03)  f 41  7  0   -139.1  2046000.1  0.1  2 0  781 1907 1480
[01]  13(G14)  f 44  7  0   1104.1  2045998.5 -0.0  2 0 2163 2537 1103
[02]  15(G16)  7 24  7  0  -2308.7  2046003.0  0.8 10 0 1776 3463 1537
[03]  21(G22)  f 42  7  0    698.7  2045999.0  0.0  2 0 1065 1989  884
[04]  22(G23)  f 40  7  0  -4248.5  2046005.4 -0.1  2 0 1354 1762 1177
[05]  25(G26)  f 46  7  0   -136.9  2046000.1 -0.0  2 0 2220 4507 1996
[06]  26(G27)  f 39 18  0  -4648.6  2046006.0  0.1  2 0  952 1429  974
[08]  30(G31)  f 45 10  0    409.3  2045999.4  0.0  2 0 2690 3903 1960
[09]  31(G32)  f 41 15  0   2011.9  2045997.3  0.0  2 0 1497 1973  935
[16]  37(B01) 1f 39 20  0  -1075.9  4092002.6  0.6  2 0  742  997  183
[17]  38(B02)  1 40 26  0  -1022.7  4092004.4  0.9  1 0 1114 1763 1016
[18]  39(B03)  7 38 32  0  -1068.3  4092002.5 -0.9  2 0 1754  661  321
[19]  40(B04) 1f 41 22  0  -1060.1  4092002.7 -0.3  2 0 1270 1513  617
[20]  41(B05)  7 10 25  1  -1988.8  4092005.4 -0.1  2 0  203  511  293
[21]  42(B06) 1f 41  7  0   -498.0  4092001.2  0.0  2 0 1953 1969  764
[22]  43(B07) 1f 44  7  0   -792.6  4092002.0  0.0  2 0 2160 2816 1229
[24]  45(B09) 1f 43  7  0  -1052.1  4092002.6  0.0  2 0 2260 2809 1457
[25]  46(B10) 1f 43  7  0  -1031.8  4092002.6  0.0  2 0 2221 2950 1122
[26]  52(B16) 1f 43 11  0   -547.8  4092001.3 -0.0  2 0 1917 3122 1239
[27]  54(B18) 1f 43  7  0   -898.5  4092002.2  0.0  2 0 2403 2914 1138
[28]  55(B19) 1f 43  7  0  -1006.5  4092002.5  0.0  2 0 1897 2473 1298
[29]  58(B22)  7 37 11  0  -3404.3  4092008.8 -0.2  2 0  556  490  146
[30]  63(B27)  7 43  7  0  -3154.3  4092008.2 -0.0  2 0 1655 2522 1011
[32]  76(N-5)  f 34  7  0  -4713.6  1022003.0 -0.1  5 0   428 1027  528
[33]  77(N-4)  f 32 24  0  -1709.0  1022001.1  0.1  5 0   263  698  354
[34]  80(N-1)  f 35 18  0   2833.7  1021998.1 -0.1  5 0   935 1427  623
[35]  81(N00)  f 35  7  0   1468.0  1021999.0 -0.1  2 0  1354 2209  792
[36]  82(N01)  f 29  7  0     73.7  1021999.7 -0.1  5 0  1656 2643 1149
[37]  84(N03)  7 42 11  0  -4222.2  1022002.6  0.1  2 0  1005 1411  871
[38]  85(N04)  7 50  7  0  -1429.5  1022000.9  0.1  2 0  2543 4197 1924
[48]  37(B01)  1 16 19  1   -971.0 20460022.6  0.1  1 0  417   17  307
[51]  40(B04)  1 21 21  1  -1081.8 20460016.8 -0.1  1 0  421  720  135
$GNGGA,025557.794,,,,,0,00,,,M,,,,0000*21
$GNRMC,025557.794,A,,,,,,,090419,,*29
$GPGSA,A,1,,,,,,,,,,,,,,,*1E
$BDGSA,A,1,,,,,,,,,,,,,,,*0F
$GLGSA,A,1,,,,,,,,,,,,,,,*02
$GPGSV,3,1,09,03,00,000,41,14,00,000,44,16,00,000,45,22,00,000,42*71
$GPGSV,3,2,09,23,00,000,40,26,00,000,46,27,00,000,40,31,00,000,44*71
$GPGSV,3,3,09,32,00,000,41*44
$BDGSV,3,1,12,01,00,000,40,02,00,000,38,03,00,000,40,04,00,000,41*63
$BDGSV,3,2,12,05,00,000,16,06,00,000,41,07,00,000,44,09,00,000,43*62
$BDGSV,3,3,12,10,00,000,43,16,00,000,43,18,00,000,44,19,00,000,43*6B
$B3CN0,0,0,0,0,0,0,0,0,0,0,0,0,0,0*4C
---00000014--- Acq_st=3 0  2019-4-9 2:55:57 
[00]  02(G03)  f 41  7  0   -142.1  2046000.1 -0.1  2 0 1409 2463 1344
[01]  13(G14)  f 44  7  0   1099.2  2045998.5  0.0  2 0 2059 2516 1411
[02]  15(G16)  7 45  7  0  -2314.2  2046002.9  0.0  2 0 2771 3907 1379
[03]  21(G22)  f 42  7  0    694.0  2045999.0 -0.1  2 0  737 1802  965
[04]  22(G23)  f 40  7  0  -4251.3  2046005.5  0.1  2 0 1184 1541  670
[05]  25(G26)  f 46  7  0   -140.2  2046000.1  0.0  2 0 3229 5046 2328
[06]  26(G27)  f 40 21  0  -4655.1  2046006.0  0.1  2 0 1320 1646  992
[08]  30(G31)  f 44  7  0    403.7  2045999.4  0.0  2 0 2597 3807 1695
[09]  31(G32)  f 41 13  0   2004.2  2045997.3 -0.1  2 0 1292 1543  247
[16]  37(B01) 1f 41 20  0  -1078.4  4092002.7  0.4  2 0 1207 1701  842
[17]  38(B02)  7 38 28  0  -1026.8  4092002.6  0.0  2 0 1254 1115  119
[18]  39(B03)  f 41 30  0  -1070.2  4092002.5  0.2  2 0 2562 1702  334
[19]  40(B04) 1f 41 14  0  -1063.0  4092002.7  0.4  2 0 1400 1497  973
[20]  41(B05)  7 19 28  1  -2013.0  4092005.3  0.0  2 0  356  468  614
[21]  42(B06) 1f 41  7  0   -501.7  4092001.2 -0.1  2 0 1375 1824 1151
[22]  43(B07) 1f 44  7  0   -795.3  4092002.0 -0.0  2 0 2107 2647  932
[24]  45(B09) 1f 43  7  0  -1055.9  4092002.7  0.0  2 0 2003 2499  823
[25]  46(B10) 1f 43 14  0  -1037.5  4092002.6 -0.0  2 0 1966 2395  845
[26]  52(B16) 1f 43  7  0   -555.3  4092001.3  0.0  2 0 1280 2174  906
[27]  54(B18) 1f 44  7  0   -905.2  4092002.3 -0.0  2 0 2027 3118 1518
[28]  55(B19) 1f 43  7  0  -1014.2  4092002.5 -0.0  2 0 2569 3284 1040
[29]  58(B22) 1f 37  7  0  -3413.7  4092008.8  0.4  2 0  811  578  336
[30]  63(B27) 1f 43  7  0  -3159.4  4092008.2  0.0  2 0 2061 2511 1096
[32]  76(N-5)  f 41  7  0  -4720.5  1022002.9  0.2  2 0   651 1076  724
[33]  77(N-4)  f 36 23  0  -1716.2  1022001.0 -0.0  2 0    64  508  523
[34]  80(N-1)  f 44  7  0   2828.7  1021998.1  0.0  2 0   858 1439  657
[35]  81(N00)  f 45  7  0   1462.6  1021999.0  0.0  2 0  1493 2449 1130
[36]  82(N01)  f 31  7  0     67.9  1021999.9 -0.0  5 0  1745 2358  978
[37]  84(N03)  7 43  7  0  -4230.0  1022002.7  0.3  2 0   860 1441  500
[38]  85(N04)  7 50  7  0  -1434.5  1022000.9  0.0  2 0  2307 4132 1893
[48]  37(B01)  1 10 20  0   -407.6 20460018.9  0.1  1 0  485   49  545
[51]  40(B04)  1 19 23  1  -1290.6 20460017.9 -0.0  1 0  804  685  282
[53]  42(B06)  1  7  7  0   -480.6 20460005.6 -0.1  1 0  379  543  609
[54]  43(B07)  1  7  7  0   -531.7 20460008.8  0.2  1 0  191  267  276
[56]  45(B09)  1  7  7  0   -552.5 20460016.3  0.1  1 0  635   89  163
[57]  46(B10)  1  7  7  0   -949.7 20460013.4 -0.0  1 0  144  386  221
[58]  52(B16)  1  7  7  0   -209.1 20460007.4 -0.0  1 0  243  256  173
[59]  54(B18)  1  7  7  0   -345.7 20460014.3  0.1  1 0  902  454  603
[60]  55(B19)  1  7  7  0   -667.2 20460015.0 -0.1  1 0  159  419  721
---00000015--- Acq_st=3 0  2019-4-9 2:55:58 
[00]  02(G03)  f 41  7  0   -143.7  2046000.1 -0.1  2 0  541 1591  710
[01]  13(G14)  f 43  7  0   1102.2  2045998.5  0.1  2 0 1858 2163  821
[02]  15(G16)  7 44  7  0  -2311.9  2046002.9  0.0  2 0 1753 3416 1868
[03]  21(G22)  f 41  7  0    687.6  2045999.1  0.0  2 0 1123 2332 1394
[04]  22(G23)  f 41  7  0  -4253.1  2046005.4 -0.0  2 0 1144 1978 1557
[05]  25(G26)  f 46  7  0   -139.6  2046000.1  0.0  2 0 3154 4635 2254
[06]  26(G27)  f 39 21  0  -4658.8  2046006.0 -0.2  2 0 1409 1737  695
[08]  30(G31)  f 44  7  0    406.1  2045999.4  0.0  2 0 2670 3794 1331
[09]  31(G32)  f 41 15  0   2006.3  2045997.4  0.1  2 0 1912 2105  449
[16]  37(B01) 1f 40 19  0  -1077.8  4092002.8  0.1  2 0  643 1574  983
[17]  38(B02)  f 39 26  0  -1025.4  4092002.6  0.4  2 0  860 1116  811
[18]  39(B03)  f 41 29  0  -1072.2  4092002.5  0.3  2 0 1743 1570  529
[19]  40(B04) 1f 41 10  0  -1066.2  4092002.7  0.3  2 0 1331 1801 1042
[20]  41(B05)  7 10 30  1  -2013.0  4092005.1 -0.1  2 0   70  420   60
[21]  42(B06) 1f 42  7  0   -506.4  4092001.2 -0.0  2 0 1432 1919 1000
[22]  43(B07) 1f 44  7  0   -795.0  4092002.0 -0.0  2 0 2106 2672 1335
[24]  45(B09) 1f 43  7  0  -1058.5  4092002.7 -0.1  2 0 1531 1920  656
[25]  46(B10) 1f 43  7  0  -1035.0  4092002.6 -0.0  2 0 1441 1921 1120
[26]  52(B16) 1f 44  7  0   -552.9  4092001.3 -0.0  2 0 1376 2239  783
[27]  54(B18) 1f 44  7  0   -905.4  4092002.2  0.0  2 0 2056 2626  979
[28]  55(B19) 1f 44  7  0  -1010.1  4092002.5  0.1  2 0 2264 2775 1144
[29]  58(B22) 1f 37  9  0  -3398.2  4092008.8 -0.5  2 0  828 1359  533
[30]  63(B27) 1f 43  7  0  -3157.7  4092008.2 -0.0  2 0 1761 2062  949
[32]  76(N-5)  f 40  7  0  -4719.9  1022003.0 -0.2  2 0   564 1181  473
[33]  77(N-4)  f 36 23  0  -1713.5  1022001.1 -0.0  2 0   439  717  278
[34]  80(N-1)  f 44 12  0   2830.4  1021998.1  0.1  2 0  1047 1502  588
[35]  81(N00)  f 46  7  0   1462.2  1021999.0 -0.1  2 0  1504 2422 1175
[36]  82(N01)  f 28  7  0     68.2  1022000.0  0.2  5 0  1409 2150 1001
[37]  84(N03)  f 34  7  0  -4229.9  1022002.6  0.1  5 0   755 1279  637
[38]  85(N04)  f 35  7  0  -1435.6  1022000.9 -0.1  5 0  2317 4265 1570
[48]  37(B01)  1 20 10  1   -420.1 20460019.2  0.1  1 0  152  106  170
[50]  39(B03)  1 18 17  1   -905.6 20460020.6  0.0  1 0  663  714  349
[53]  42(B06)  1  7  7  0   -580.5 20460004.8 -0.1  1 0 1033  684  477
[54]  43(B07)  f  7  7  0   -864.9 20460012.8  0.0 10 0  159  254  280
[56]  45(B09)  1 11  7  0   -784.2 20460015.5 -0.0  1 0  753   82  248
[57]  46(B10)  1  7  7  0   -566.9 20460015.7  0.1  1 0  434  172  523
[58]  52(B16)  1  7  7  0   -632.5 20460009.0  0.0  1 0  436  300  115
[59]  54(B18)  1  7  7  0   -675.3 20460013.5  0.1  1 0 1075 1331  803
[60]  55(B19)  1  7  7  0  -1043.5 20460016.7  0.1  1 0  582  671  356
[61]  58(B22)  1  7  7  0  -2784.7 20460054.8 -0.2  1 0  544  369  500
[62]  63(B27)  1  7  7  0  -2479.5 20460051.4 -0.1  1 0  403  338  541
$GNGGA,025558.794,,,,,0,00,,,M,,,,0000*2E
$GNRMC,025558.794,A,,,,,,,090419,,*26
$GPGSA,A,1,,,,,,,,,,,,,,,*1E
$BDGSA,A,1,,,,,,,,,,,,,,,*0F
$GLGSA,A,1,,,,,,,,,,,,,,,*02
$GPGSV,3,1,09,03,00,000,41,14,00,000,43,16,00,000,44,22,00,000,41*74
$GPGSV,3,2,09,23,00,000,41,26,00,000,46,27,00,000,39,31,00,000,44*7E
$GPGSV,3,3,09,32,00,000,41*44
$BDGSV,3,1,12,01,00,000,40,02,00,000,39,03,00,000,41,04,00,000,41*63
$BDGSV,3,2,12,06,00,000,42,07,00,000,44,09,00,000,43,10,00,000,43*65
$BDGSV,3,3,12,16,00,000,44,18,00,000,44,19,00,000,44,22,00,000,37*69
$B3CN0,0,0,0,0,0,0,0,0,0,0,0,0,0,0*4C
---00000016--- Acq_st=7 0  2019-4-9 2:55:59 
[00]  02(G03)  f 42  7  0   -149.4  2046000.1  0.1  2 0 1451 1911 1238
[01]  13(G14)  f 43  7  0   1098.5  2045998.5 -0.1  2 0 1391 2393 1256
[02]  15(G16)  7 44  7  0  -2316.0  2046003.0 -0.0  2 0 1929 3100 1811
[03]  21(G22)  f 42  7  0    690.4  2045999.0 -0.1  2 0 1530 1966  967
[04]  22(G23)  f 40  7  0  -4259.6  2046005.4  0.0  2 0 1431 1799  634
[05]  25(G26)  f 46  7  0   -143.4  2046000.1 -0.1  2 0 3152 4972 2473
[06]  26(G27)  f 39 22  0  -4661.7  2046006.0 -0.0  2 0  613 1226  355
[08]  30(G31)  f 44  7  0    404.2  2045999.4 -0.0  2 0 2141 3433 1769
[09]  31(G32)  f 41 16  0   2002.3  2045997.3  0.0  2 0 1210 1918 1137
[16]  37(B01) 1f 40 10  0  -1082.3  4092002.7  0.4  2 0 1141 1520  594
[17]  38(B02)  f 40 24  0  -1032.7  4092002.5 -0.3  2 0  973 1334  567
[18]  39(B03)  f 41 31  0  -1074.0  4092002.6  0.5  2 0 2126 2153  856
[19]  40(B04) 1f 41 23  0  -1071.5  4092002.7 -0.1  2 0  887 1093  456
[20]  41(B05)  7 10 28  1  -2030.4  4092005.2 -0.1  2 0  737  798  185
[21]  42(B06) 1f 41  9  0   -508.2  4092001.2  0.0  2 0 1517 1749  705
[22]  43(B07) 1f 44  7  0   -798.9  4092002.0 -0.1  2 0 2034 2612  882
[24]  45(B09) 1f 44  7  0  -1061.6  4092002.6 -0.0  2 0 1881 2070  594
[25]  46(B10) 1f 43 10  0  -1038.7  4092002.6  0.0  2 0 1567 2329 1268
[26]  52(B16) 1f 44  7  0   -555.2  4092001.3 -0.1  2 0 1385 2259  957
[27]  54(B18) 1f 44 10  0   -905.6  4092002.3 -0.1  2 0 2425 2770  768
[28]  55(B19) 1f 44  7  0  -1014.1  4092002.5  0.0  2 0 2314 3281 1495
[29]  58(B22) 1f 37  8  0  -3404.7  4092008.8  0.2  2 0  580  540  152
[30]  63(B27) 1f 43  8  0  -3160.2  4092008.1  0.0  2 0 1757 2150  930
[32]  76(N-5)  f 41  7  0  -4722.2  1022003.0 -0.1  2 0   395 1202  658
[33]  77(N-4)  f 36 22  0  -1719.6  1022001.0  0.0  2 0   806  945  531
[34]  80(N-1)  f 44  7  0   2826.9  1021998.1  0.1  2 0   663 1475 1117
[35]  81(N00)  f 45  7  0   1459.7  1021999.0  0.1  2 0  1639 2536 1233
[36]  82(N01)  f 31  7  0     65.3  1021999.9 -0.1  5 0  1028 2344 1193
[37]  84(N03)  f 42  7  0  -4231.8  1022002.7  0.0  2 0   763 1165  264
[38]  85(N04)  f 47  7  0  -1435.7  1022000.9  0.1  2 0  2408 3943 1772
[49]  38(B02)  1 10 10  0   -656.3 20460019.2  0.1  1 0  141  377  571
[50]  39(B03)  1 16 24  0   -907.2 20460019.5 -0.0  1 0 1124  378  341
[51]  40(B04)  1 23 20  0   -113.0 20460017.2  0.1  1 0  130  344  304
[53]  42(B06)  1  7  7  0   -961.1 20460007.5 -0.0  1 0  869  202  273
[54]  43(B07)  f  7  8  0   -930.9 20460015.9 -0.2 10 0  419   70  321
[56]  45(B09)  1 10  7  0   -431.6 20460014.1 -0.2  1 0  440  249   20
[57]  46(B10)  1  7  7  0   -254.1 20460013.9 -0.1  1 0  268  353  645
[58]  52(B16)  1  8  7  0   -190.7 20460007.8  0.1  1 0  111   91  255
[59]  54(B18)  1  7  7  0   -937.7 20460015.7 -0.0  1 0   81  153  676
[60]  55(B19)  1  7  7  0  -1752.0 20460014.8  0.0  1 0  429  499  102
[61]  58(B22)  1  7  9  0  -2123.3 20460054.1 -0.1  1 0  144  204  300
[62]  63(B27)  1  7  7  0  -2107.1 20460052.2 -0.0  1 0  912  656  116
$GNGGA,025559.794,,,,,0,00,,,M,,,,0000*2F
$GNRMC,025559.794,A,,,,,,,090419,,*27
$GPGSA,A,1,,,,,,,,,,,,,,,*1E
$BDGSA,A,1,,,,,,,,,,,,,,,*0F
$GLGSA,A,1,,,,,,,,,,,,,,,*02
$GPGSV,3,1,09,03,00,000,42,14,00,000,43,16,00,000,44,22,00,000,42*74
$GPGSV,3,2,09,23,00,000,40,26,00,000,46,27,00,000,39,31,00,000,44*7F
$GPGSV,3,3,09,32,00,000,41*44
$BDGSV,3,1,12,01,00,000,40,02,00,000,40,03,00,000,41,04,00,000,41*6D
$BDGSV,3,2,12,06,00,000,41,07,00,000,44,09,00,000,44,10,00,000,43*61
$BDGSV,3,3,12,16,00,000,44,18,00,000,44,19,00,000,44,22,00,000,37*69
$B3CN0,0,0,0,0,0,0,0,0,0,0,0,0,0,0*4C
---00000017--- Acq_st=3 0  2019-4-9 2:56:0 
[00]  02(G03)  f 41  7  0   -154.7  2046000.1 -0.1  2 0 1049 2017 1268
[01]  13(G14)  f 43  7  0   1095.2  2045998.5 -0.0  2 0 1431 2429 1378
[02]  15(G16)  7 44  7  0  -2315.3  2046002.9 -0.0  2 0 2101 3417 1822
[03]  21(G22)  f 42  7  0    691.9  2045999.0  0.0  2 0  993 1625  402
[04]  22(G23)  f 41  7  0  -4253.9  2046005.5 -0.1  2 0 1447 2166 1005
[05]  25(G26)  f 45  7  0   -142.8  2046000.1  0.0  2 0 2967 4799 2454
[06]  26(G27)  f 40 23  0  -4661.1  2046006.0 -0.2  2 0 1135 1899  854
[08]  30(G31)  f 45  7  0    397.8  2045999.4  0.0  2 0 2713 3693 1206
[09]  31(G32)  f 41 14  0   2000.8  2045997.3 -0.1  2 0 1411 2375 1037
[16]  37(B01) 1f 41 10  0  -1080.0  4092002.8  0.1  2 0 1378 1798  802
[17]  38(B02) 1f 40 29  0  -1033.3  4092002.6  0.3  2 0 1325 1417  269
[18]  39(B03) 1f 41 30  0  -1074.6  4092002.6 -0.3  2 0 1545 1611  835
[19]  40(B04) 1f 41 18  0  -1072.7  4092002.7  0.4  2 0 1290 1451  819
[20]  41(B05)  7 10 10  1  -2265.6  4092005.7 -0.1  2 0  332  209   86
[21]  42(B06) 1f 41  7  0   -509.9  4092001.2  0.0  2 0 1725 1985  667
[22]  43(B07) 1f 44  7  0   -800.6  4092002.0  0.1  2 0 2297 2884  962
[24]  45(B09) 1f 44  7  0  -1065.1  4092002.7 -0.0  2 0 1932 2245  760
[25]  46(B10) 1f 43 11  0  -1042.8  4092002.6 -0.0  2 0 1876 2521 1008
[26]  52(B16) 1f 44  7  0   -558.5  4092001.4  0.1  2 0 1934 2430 1044
[27]  54(B18) 1f 44  9  0   -913.6  4092002.3 -0.0  2 0 1738 2155  915
[28]  55(B19) 1f 44  7  0  -1012.7  4092002.5  0.0  2 0 2210 3042 1424
[29]  58(B22) 1f 37  7  0  -3414.0  4092008.8  0.1  2 0  585  641  379
[30]  63(B27) 1f 43  8  0  -3164.6  4092008.2 -0.1  2 0 1938 2371  939
[32]  76(N-5)  f 41  7  0  -4726.5  1022003.0  0.1  2 0   559 1192  536
[33]  77(N-4)  f 36 22  0  -1719.8  1022001.0 -0.1  2 0   385  463   57
[34]  80(N-1)  f 44 12  0   2825.5  1021998.2 -0.0  2 0  1159 1969  951
[35]  81(N00)  f 46  7  0   1457.3  1021999.0  0.0  2 0  1240 2348 1288
[36]  82(N01)  f 30  7  0     64.1  1022000.2  0.1  5 0  1073 2054  902
[37]  84(N03)  f 42  7  0  -4234.9  1022002.6 -0.0  2 0   665 1398  493
[38]  85(N04)  f 47  7  0  -1436.7  1022000.9 -0.0  2 0  1857 3935 1864
[48]  37(B01)  1 10 10  1   -934.3 20460018.3 -0.1  1 0  223  323  272
[49]  38(B02)  f 10 19  1  -1091.3 20460017.6  0.0  2 0  673  951  329
[50]  39(B03)  1 19 22  1   -411.3 20460020.4 -0.1  1 0   88  337  107
[51]  40(B04)  1 10 14  0    263.0 20460019.5 -0.1  1 0  349  580  652
[53]  42(B06)  1  7  7  0   -496.4 20460006.8 -0.1  1 0  608  103  461
[54]  43(B07)  f  7 11  0  -1018.8 20460016.8 -0.1 10 0  238  347  223
[56]  45(B09)  1  7  7  0    -10.4 20460014.9  0.1  1 0  954 1103  619
[57]  46(B10)  1  7  7  0     19.5 20460014.2  0.0  1 0  169  393  404
[58]  52(B16)  1  7  7  0    107.6 20460007.2  0.0  1 0  213  147  210
[59]  54(B18)  1  7  7  0   -665.4 20460013.6  0.1  1 0  259  248  629
[60]  55(B19)  1  7  7  0  -2075.0 20460014.4  0.1  1 0  323  385  691
[61]  58(B22)  1  9  8  0  -2501.0 20460055.9  0.0  1 0  399  455  309
[62]  63(B27)  1  7  7  0  -2505.2 20460051.2 -0.0  1 0  344  535  498
$GNGGA,025600.794,,,,,0,00,,,M,,,,0000*20
$GNRMC,025600.794,A,,,,,,,090419,,*28
$GPGSA,A,1,,,,,,,,,,,,,,,*1E
$BDGSA,A,1,,,,,,,,,,,,,,,*0F
$GLGSA,A,1,,,,,,,,,,,,,,,*02
$GPGSV,3,1,09,03,00,000,41,14,00,000,43,16,00,000,44,22,00,000,42*77
$GPGSV,3,2,09,23,00,000,41,26,00,000,45,27,00,000,40,31,00,000,45*72
$GPGSV,3,3,09,32,00,000,41*44
$BDGSV,3,1,12,01,00,000,41,02,00,000,40,03,00,000,41,04,00,000,41*6C
$BDGSV,3,2,12,06,00,000,41,07,00,000,44,09,00,000,44,10,00,000,43*61
$BDGSV,3,3,12,16,00,000,44,18,00,000,44,19,00,000,44,22,00,000,37*69
$B3CN0,0,0,0,0,0,0,0,0,0,0,0,0,0,0*4C
---00000018--- Acq_st=3 0  2019-4-9 2:56:1 
[00]  02(G03)  f 41  7  0   -145.7  2046000.1  0.0  2 0 1043 2213 1468
[01]  13(G14)  f 43  7  0   1105.8  2045998.5 -0.0  2 0 2429 3153 1861
[02]  15(G16)  f 44  7  0  -2308.7  2046003.0  0.0  2 0 1960 3119 1214
[03]  21(G22)  f 41  7  0    700.8  2045999.0 -0.1  2 0  637 1485 1000
[04]  22(G23)  f 40  7  0  -4248.1  2046005.5 -0.1  2 0 1047 1789  828
[05]  25(G26)  f 45  7  0   -136.2  2046000.1  0.0  2 0 2671 4193 2041
[06]  26(G27)  f 39 22  0  -4652.5  2046006.0 -0.1  2 0 1172 1902  819
[08]  30(G31)  f 44  7  0    406.3  2045999.4  0.0  2 0 1892 3386 1852
[09]  31(G32)  f 42 14  0   2010.9  2045997.3 -0.0  2 0 1110 1642  791
[16]  37(B01) 1f 40 10  0  -1072.4  4092002.7  0.6  2 0 1206 1333  533
[17]  38(B02) 1f 40 27  0  -1024.2  4092002.6  0.4  2 0 1394 2051 1079
[18]  39(B03) 1f 42 31  0  -1068.2  4092002.7 -0.2  2 0 1794 1920  389
[19]  40(B04) 1f 40 23  0  -1065.6  4092002.6  0.3  2 0  812 1183  502
[20]  41(B05)  7 17 10  0  -2378.5  4092006.5  0.1  2 0  130  412  284
[21]  42(B06) 1f 42 12  0   -502.3  4092001.2  0.0  2 0 1303 1529  505
[22]  43(B07) 1f 44  7  0   -792.5  4092001.9 -0.0  2 0 2525 3069 1411
[24]  45(B09) 1f 43  7  0  -1054.3  4092002.7  0.0  2 0 2293 2577  953
[25]  46(B10) 1f 43  8  0  -1032.7  4092002.6 -0.0  2 0 2160 2642 1262
[26]  52(B16) 1f 43  7  0   -552.8  4092001.3 -0.1  2 0 1909 2498  792
[27]  54(B18) 1f 44  8  0   -904.4  4092002.3  0.0  2 0 2379 3131 1115
[28]  55(B19) 1f 44  7  0  -1005.8  4092002.5 -0.0  2 0 2201 3024 1722
[29]  58(B22) 1f 37  7  0  -3392.8  4092008.8  0.7  2 0  587  634  684
[30]  63(B27) 1f 43  8  0  -3156.6  4092008.1  0.1  2 0 2102 3029 1645
[32]  76(N-5)  f 41  7  0  -4715.2  1022003.0  0.0  2 0   582  999  391
[33]  77(N-4)  f 36 22  0  -1710.7  1022001.0 -0.1  2 0   532  719  334
[34]  80(N-1)  f 44  7  0   2833.9  1021998.2 -0.0  2 0  1001 1547  819
[35]  81(N00)  f 46  7  0   1465.5  1021999.0  0.0  2 0  1412 2305 1205
[36]  82(N01)  f 29  7  0     71.0  1021999.9 -0.1  5 0   858 2213 1136
[37]  84(N03)  f 42  7  0  -4226.5  1022002.6 -0.1  2 0   677 1143  660
[38]  85(N04)  f 47  7  0  -1428.4  1022000.9 -0.0  2 0  2015 4050 2123
[48]  37(B01)  1 10 10  0   -616.0 20460019.3 -0.0  1 0  216  531  590
[49]  38(B02)  f 10 10  1  -1240.1 20460020.4 -0.0  2 0  382  434  170
[50]  39(B03)  1 21 21  0   -144.6 20460022.9  0.0  1 0  422  741  851
[51]  40(B04)  1 20 18  1   1057.4 20460022.6  0.1  1 0  135  384  487
[61]  58(B22)  1 11 12  0  -2329.2 20460055.4  0.0  1 0  451  344  324
[62]  63(B27)  1  7  7  0  -1979.7 20460052.3  0.0  1 0  416  408  565
$GNGGA,025601.794,,,,,0,00,,,M,,,,0000*21
$GNRMC,025601.794,A,,,,,,,090419,,*29
$GPGSA,A,1,,,,,,,,,,,,,,,*1E
$BDGSA,A,1,,,,,,,,,,,,,,,*0F
$GLGSA,A,1,,,,,,,,,,,,,,,*02
$GPGSV,3,1,09,03,00,000,41,14,00,000,43,16,00,000,44,22,00,000,41*74
$GPGSV,3,2,09,23,00,000,40,26,00,000,45,27,00,000,39,31,00,000,44*7C
$GPGSV,3,3,09,32,00,000,42*47
$BDGSV,3,1,12,01,00,000,40,02,00,000,40,03,00,000,42,04,00,000,40*6F
$BDGSV,3,2,12,05,00,000,16,06,00,000,42,07,00,000,44,09,00,000,43*61
$BDGSV,3,3,12,10,00,000,43,16,00,000,43,18,00,000,44,19,00,000,44*6C
$B3CN0,0,0,0,0,0,0,0,0,0,0,0,0,0,0*4C
---00000019--- Acq_st=3 0  2019-4-9 2:56:2 
[00]  02(G03)  f 41  7  0   -150.5  2046000.1 -0.0  2 0  561 1470 1097
[01]  13(G14)  f 42  7  0   1096.3  2045998.5 -0.0  2 0 1634 2735 1238
[02]  15(G16)  f 44  7  0  -2311.2  2046002.9 -0.0  2 0 2146 3100 1368
[03]  21(G22)  f 41  7  0    694.1  2045999.0  0.1  2 0 1462 2068 1187
[04]  22(G23)  f 40  7  0  -4256.6  2046005.5 -0.1  2 0 1028 1905 1403
[05]  25(G26)  f 45  7  0   -143.2  2046000.1  0.0  2 0 3462 4463 1673
[06]  26(G27)  f 39 21  0  -4658.7  2046006.0  0.1  2 0 1319 2034  931
[08]  30(G31)  f 44 10  0    401.0  2045999.4 -0.0  2 0 2046 3442 1366
[09]  31(G32)  f 41 13  0   2000.9  2045997.4  0.0  2 0 1303 1711  790
[16]  37(B01) 1f 41 36  0  -1082.4  4092002.8 -0.3  2 0  971 1578 1040
[17]  38(B02) 1f 40 22  0  -1036.6  4092002.6 -0.4  2 0 1133 1318  624
[18]  39(B03) 1f 42 32  0  -1078.0  4092002.6 -0.0  2 0 1364 1830 1176
[19]  40(B04) 1f 41 22  0  -1076.4  4092002.8 -0.0  2 0 1162 1317  867
[20]  41(B05)  7 10 10  0  -2658.9  4092007.2  0.0  2 0  170  514  232
[21]  42(B06) 1f 42  7  0   -510.2  4092001.2  0.0  2 0 1193 1486  388
[22]  43(B07) 1f 43  7  0   -799.7  4092002.0  0.1  2 0 2184 2306 1065
[24]  45(B09) 1f 43  7  0  -1063.5  4092002.7  0.0  2 0 1930 2517 1340
[25]  46(B10) 1f 43  7  0  -1040.2  4092002.6  0.0  2 0 2002 2618 1289
[26]  52(B16) 1f 43  7  0   -559.5  4092001.3  0.0  2 0 2364 2430 1050
[27]  54(B18) 1f 44  9  0   -913.7  4092002.3 -0.0  2 0 1957 2616  597
[28]  55(B19) 1f 44  7  0  -1014.1  4092002.5 -0.0  2 0 2107 2863 1177
[29]  58(B22) 1f 37  7  0  -3404.3  4092008.8 -0.5  2 0  920 1062  757
[30]  63(B27) 1f 43  7  0  -3163.2  4092008.2  0.0  2 0 1880 2303  956
[32]  76(N-5) 8f 41  7  0  -4721.7  1022002.9  0.1  2 0   602 1013  495
[33]  77(N-4) 8f 36 23  0  -1715.3  1022001.0 -0.0  2 0   378  774  218
[34]  80(N-1) 8f 44  7  0   2826.4  1021998.2  0.0  2 0   559 1403  594
[35]  81(N00) 8f 46  7  0   1458.8  1021999.0 -0.0  2 0  1268 2214  989
[36]  82(N01)  f 30  7  0     65.8  1022000.0  0.1  5 0  1193 2192 1172
[37]  84(N03) 8f 42  7  0  -4233.5  1022002.7 -0.0  2 0   375 1080  761
[38]  85(N04) 8f 47  7  0  -1434.0  1022000.9  0.0  2 0  2212 4097 2040
[48]  37(B01)  f 18 10  1   -649.1 20460009.6 -0.1  2 0 1015  834  194
[49]  38(B02)  f 18 10  1  -1534.3 20460025.3 -0.1  2 0  117   97  642
[51]  40(B04)  1 24 16  1   1490.2 20460022.7 -0.0  1 0  358  510  622
[53]  42(B06)  1  7  7  0    165.4 20460007.2  0.1  1 0  333  293  160
[54]  43(B07)  1  7  7  0   -701.4 20460011.3  0.2  1 0  166  545  558
[56]  45(B09)  1  7  7  0  -1082.1 20460015.5  0.0  1 0   64  155  445
[57]  46(B10)  1  7  7  0   -764.6 20460014.6 -0.0  1 0  781  637  670
[58]  52(B16)  1  7  7  0   -379.1 20460006.7  0.0  1 0  179  354  195
[59]  54(B18)  1  7  7  0   -303.2 20460014.1 -0.0  1 0  233  300  562
[60]  55(B19)  1  8 11  0   -883.6 20460016.6 -0.0  1 0  360  624  471
$GNGGA,025602.794,,,,,0,00,,,M,,,,0000*22
$GNRMC,025602.794,A,,,,,,,090419,,*2A
$GPGSA,A,1,,,,,,,,,,,,,,,*1E
$BDGSA,A,1,,,,,,,,,,,,,,,*0F
$GLGSA,A,1,,,,,,,,,,,,,,,*02
$GPGSV,3,1,09,03,00,000,41,14,00,000,42,16,00,000,44,22,00,000,41*75
$GPGSV,3,2,09,23,00,000,40,26,00,000,45,27,00,000,39,31,00,000,44*7C
$GPGSV,3,3,09,32,00,000,41*44
$BDGSV,3,1,12,01,00,000,41,02,00,000,40,03,00,000,42,04,00,000,41*6F
$BDGSV,3,2,12,06,00,000,42,07,00,000,43,09,00,000,43,10,00,000,43*62
$BDGSV,3,3,12,16,00,000,43,18,00,000,44,19,00,000,44,22,00,000,37*6E
$B3CN0,18,18,0,0,0,0,0,0,0,0,0,0,0,0*4C
---00000020--- Acq_st=3 0  2019-4-9 2:56:3 
[00]  02(G03)  f 41  7  0   -143.8  2046000.1 -0.1  2 0  945 1958 1126
[01]  13(G14)  f 42  7  0   1102.5  2045998.5  0.0  2 0 2209 3092 1545
[02]  15(G16)  f 44  7  0  -2310.6  2046003.0 -0.0  2 0 2290 3462 1876
[03]  21(G22)  f 42  8  0    694.9  2045999.0  0.0  2 0 1355 2018  608
[04]  22(G23)  f 41  7  0  -4255.9  2046005.5  0.0  2 0 1061 1931  571
[05]  25(G26)  f 45  7  0   -138.9  2046000.1 -0.0  2 0 2410 4389 2180
[06]  26(G27)  f 39 22  0  -4659.2  2046006.0 -0.0  2 0 1349 2187 1475
[08]  30(G31)  f 44  7  0    405.4  2045999.4  0.0  2 0 2093 3552 1714
[09]  31(G32)  f 41 12  0   2001.1  2045997.3  0.0  2 0  683 1770 1042
[16]  37(B01) 1f 40 10  0  -1080.9  4092002.7  0.3  2 0 1386 1336  239
[17]  38(B02) 1f 40 28  0  -1027.2  4092002.5 -0.3  2 0 1110 1390  979
[18]  39(B03) 1f 42 30  0  -1074.3  4092002.6  0.1  2 0 1149 1561  824
[19]  40(B04) 1f 41 10  0  -1074.1  4092002.6  0.5  2 0 1490 1603  832
[20]  41(B05)  7 13 10  0  -2845.9  4092007.7  0.1  2 0  175  276   60
[21]  42(B06) 1f 41  7  0   -506.0  4092001.2  0.1  2 0 1085 1985  705
[22]  43(B07) 1f 44  7  0   -795.9  4092002.0 -0.0  2 0 1574 2325 1072
[24]  45(B09) 1f 43  7  0  -1057.8  4092002.7 -0.0  2 0 2095 2509  789
[25]  46(B10) 1f 43 13  0  -1038.5  4092002.6  0.0  2 0 1416 2584 1479
[26]  52(B16) 1f 43  7  0   -556.3  4092001.3 -0.0  2 0 1658 2436  909
[27]  54(B18) 1f 44  7  0   -906.6  4092002.3  0.0  2 0 2312 3179 1211
[28]  55(B19) 1f 44  7  0  -1009.6  4092002.5 -0.0  2 0 1967 2890 1233
[29]  58(B22) 1f 37  7  0  -3403.5  4092008.8 -0.3  2 0  916 1301  719
[30]  63(B27) 1f 43  7  0  -3162.7  4092008.2 -0.0  2 0 2293 2414  896
[32]  76(N-5) 8f 41  7  0  -4719.6  1022003.0  0.0  2 0   768 1146  684
[33]  77(N-4) 8f 36 23  0  -1711.8  1022001.1  0.1  2 0   430  467  184
[34]  80(N-1) 8f 44  7  0   2831.6  1021998.2  0.0  2 0  1153 1741 1162
[35]  81(N00) 8f 46  7  0   1462.4  1021999.0 -0.0  2 0  1117 2403 1550
[36]  82(N01)  f 30  7  0     67.9  1021999.8 -0.0  5 0  1578 2638  735
[37]  84(N03) 8f 41  7  0  -4230.5  1022002.7 -0.0  2 0   528  932  524
[38]  85(N04) 8f 47  7  0  -1429.8  1022000.9  0.0  2 0  2495 4135 1963
[48]  37(B01)  f 10 10  1   -549.3 20460007.4  0.1  2 0  671  225  309
[49]  38(B02)  f 10 13  0  -1709.1 20460029.1 -0.1  2 0   22  339 1064
[50]  39(B03)  1 19 23  1  -1075.0 20460020.0  0.3  1 0  813  488  364
[53]  42(B06)  1  8  7  0    -48.5 20460007.1 -0.0  1 0  189  110  413
[54]  43(B07)  1  7  7  0  -1082.8 20460009.7 -0.1  1 0  565  873  366
[56]  45(B09)  1  9 12  0  -1480.1 20460016.5 -0.1  1 0  257  147  107
[57]  46(B10)  1  7  7  0  -1038.9 20460012.6  0.2  1 0  389  115   90
[58]  52(B16)  1  7  7  0   -456.6 20460008.3 -0.1  1 0   50  351  312
[59]  54(B18)  1  7  7  0    -60.0 20460015.6 -0.2  1 0  407  371  418
[60]  55(B19)  1  7  7  0   -233.3 20460014.7 -0.1  1 0  565  549  334
[61]  58(B22)  1  7  7  0  -3209.8 20460053.0 -0.0  1 0  111  461  441
[62]  63(B27)  1  7  7  0  -2373.9 20460050.9  0.2  1 0  566  741  574
$GNGGA,025603.794,,,,,0,00,,,M,,,,0000*23
$GNRMC,025603.794,A,,,,,,,090419,,*2B
$GPGSA,A,1,,,,,,,,,,,,,,,*1E
$BDGSA,A,1,,,,,,,,,,,,,,,*0F
$GLGSA,A,1,,,,,,,,,,,,,,,*02
$GPGSV,3,1,09,03,00,000,41,14,00,000,42,16,00,000,44,22,00,000,42*76
$GPGSV,3,2,09,23,00,000,41,26,00,000,45,27,00,000,39,31,00,000,44*7D
$GPGSV,3,3,09,32,00,000,41*44
$BDGSV,3,1,12,01,00,000,40,02,00,000,40,03,00,000,42,04,00,000,41*6E
$BDGSV,3,2,12,06,00,000,41,07,00,000,44,09,00,000,43,10,00,000,43*66
$BDGSV,3,3,12,16,00,000,43,18,00,000,44,19,00,000,44,22,00,000,37*6E
$B3CN0,0,0,0,0,0,0,0,0,0,0,0,0,0,0*4C
---00000021--- Acq_st=3 0  2019-4-9 2:56:4 
[00]  02(G03)  f 41  7  0   -140.1  2046000.1  0.0  2 0  714 1261  583
[01]  13(G14)  f 43  7  0   1103.3  2045998.5 -0.0  2 0 1712 2248  437
[02]  15(G16)  f 43  7  0  -2310.6  2046002.9 -0.0  2 0 2666 4118 1885
[03]  21(G22)  f 41  7  0    695.3  2045999.0  0.0  2 0 1160 2004  842
[04]  22(G23)  f 41  7  0  -4250.2  2046005.5 -0.0  2 0 1629 1552  420
[05]  25(G26)  f 45  7  0   -137.7  2046000.1  0.0  2 0 3272 4378 1721
[06]  26(G27)  f 39 23  0  -4657.4  2046006.0 -0.0  2 0 1088 1584  673
[08]  30(G31)  f 44  7  0    405.5  2045999.4 -0.0  2 0 2493 3579 1570
[09]  31(G32)  f 40 16  0   2005.5  2045997.3 -0.1  2 0  894 1813  945
[16]  37(B01) 1f 40 10  0  -1080.9  4092002.7 -0.3  2 0  893 1203  563
[17]  38(B02) 1f 40 26  0  -1029.6  4092002.6  0.5  2 0 1221 1259  244
[18]  39(B03) 1f 43 31  0  -1072.7  4092002.7 -0.2  2 0 1618 1896  570
[19]  40(B04) 1f 41 19  0  -1068.6  4092002.7 -0.4  2 0 1409 1762  876
[20]  41(B05)  7 36 25  0  -3016.8  4092007.9 -0.1  2 0  138  270  610
[21]  42(B06) 1f 42  7  0   -501.6  4092001.2 -0.0  2 0 1970 2222  987
[22]  43(B07) 1f 44  7  0   -794.9  4092002.0  0.0  2 0 1841 2579  960
[24]  45(B09) 1f 43  7  0  -1056.8  4092002.7 -0.1  2 0 1935 2094  889
[25]  46(B10) 1f 43 10  0  -1034.1  4092002.6 -0.1  2 0 2203 2842 1325
[26]  52(B16) 1f 43  7  0   -551.7  4092001.3 -0.0  2 0 1698 2534 1116
[27]  54(B18) 1f 44  7  0   -906.6  4092002.2  0.0  2 0 2433 3081 1367
[28]  55(B19) 1f 44  7  0  -1007.0  4092002.5  0.0  2 0 2018 3140 1507
[29]  58(B22) 1f 37  7  0  -3408.0  4092008.8  0.5  2 0 1289 1113  471
[30]  63(B27) 1f 43  8  0  -3158.2  4092008.2 -0.0  2 0 2187 2728  815
[32]  76(N-5) 8f 41  7  0  -4718.2  1022003.0  0.2  2 0   986 1099  589
[33]  77(N-4) 8f 34 22  0  -1724.7  1022000.9  0.0  2 0   363  328  310
[34]  80(N-1) 8f 44 12  0   2831.4  1021998.1 -0.0  2 0  1128 1588  910
[35]  81(N00) 8f 46  7  0   1463.1  1021999.0 -0.0  2 0  1329 2524 1156
[36]  82(N01)  f 30  7  0     70.1  1021999.9 -0.1  5 0  1423 2487 1091
[37]  84(N03) 8f 42  7  0  -4226.7  1022002.6 -0.1  2 0   912 1577  847
[38]  85(N04) 8f 48  7  0  -1428.7  1022000.9  0.0  2 0  1890 3778 2091
[48]  37(B01)  f 10 13  0  -1178.2 20460018.1  0.1  2 0  433  115  445
[50]  39(B03)  1 19 14  0  -1450.0 20460016.7 -0.1  1 0  578  515  813
[51]  40(B04)  1 18 24  0   -386.6 20460021.6  0.0  1 0  743  758  630
[53]  42(B06)  1 10  7  0   -369.7 20460006.7  0.2  1 0  707  136  521
[54]  43(B07)  1  7  7  0  -1231.7 20460009.9  0.0  1 0  742  511  496
[56]  45(B09)  1  7  7  0  -1092.3 20460014.5 -0.0  1 0  249  342  510
[57]  46(B10)  1  7  7  0   -447.3 20460014.6 -0.2  1 0  292  301  547
[58]  52(B16)  1  7  7  0    -94.1 20460008.5  0.1  1 0  227   18  127
[59]  54(B18)  1  7  7  0    838.7 20460014.0  0.1  1 0  233  278  387
[60]  55(B19)  1  7  7  0   -298.9 20460015.3  0.1  1 0  784  475  358
[61]  58(B22)  1  7  7  0  -2623.1 20460054.8 -0.2  1 0  401  274  153
[62]  63(B27)  1  7  7  0  -2161.8 20460051.9  0.1  1 0  811  593  267
$GNGGA,025604.794,,,,,0,00,,,M,,,,0000*24
$GNRMC,025604.794,A,,,,,,,090419,,*2C
$GPGSA,A,1,,,,,,,,,,,,,,,*1E
$BDGSA,A,1,,,,,,,,,,,,,,,*0F
$GLGSA,A,1,,,,,,,,,,,,,,,*02
$GPGSV,3,1,09,03,00,000,41,14,00,000,43,16,00,000,43,22,00,000,41*73
$GPGSV,3,2,09,23,00,000,41,26,00,000,45,27,00,000,39,31,00,000,44*7D
$GPGSV,3,3,09,32,00,000,40*45
$BDGSV,3,1,12,01,00,000,40,02,00,000,40,03,00,000,43,04,00,000,41*6F
$BDGSV,3,2,12,05,00,000,36,06,00,000,42,07,00,000,44,09,00,000,43*63
$BDGSV,3,3,12,10,00,000,43,16,00,000,43,18,00,000,44,19,00,000,44*6C
$B3CN0,0,0,0,0,0,0,0,0,0,0,0,0,0,0*4C
---00000022--- Acq_st=7 0  2019-4-9 2:56:5 
[00]  02(G03)  f 41  7  0   -145.5  2046000.1 -0.0  2 0 1245 1912  842
[01]  13(G14)  f 42  7  0   1098.3  2045998.5 -0.0  2 0 1862 2634 1116
[02]  15(G16)  f 44  7  0  -2312.5  2046002.9  0.0  2 0 1965 3349 1615
[03]  21(G22)  f 42  7  0    689.7  2045999.0  0.1  2 0 1419 1489  574
[04]  22(G23)  f 41  7  0  -4258.0  2046005.5 -0.0  2 0 1690 1784  982
[05]  25(G26)  f 45  7  0   -143.9  2046000.1 -0.0  2 0 2876 5153 2760
[06]  26(G27)  f 38 22  0  -4662.1  2046006.0 -0.1  2 0  638 1301  753
[08]  30(G31)  f 44  7  0    399.4  2045999.4  0.0  2 0 2466 3585 1644
[09]  31(G32)  f 41 15  0   1998.6  2045997.4  0.0  2 0 1516 2022  660
[16]  37(B01) 1f 40 20  0  -1085.1  4092002.5  0.1  2 0 1073 1100  571
[17]  38(B02) 1f 40 27  0  -1029.7  4092002.7  0.2  2 0  886 1691  580
[18]  39(B03) 1f 43 31  0  -1076.7  4092002.7 -0.1  2 0 1653 2347 1016
[19]  40(B04) 1f 41 36  0  -1075.8  4092002.7 -0.2  2 0  881 1898  976
[20]  41(B05)  7 10 10  0  -3336.2  4092008.5  0.2  2 0  512  214  325
[21]  42(B06) 1f 41 12  0   -508.2  4092001.2 -0.1  2 0 1133 1924 1147
[22]  43(B07) 1f 43  7  0   -801.8  4092002.0 -0.0  2 0 2160 2970 1284
[24]  45(B09) 1f 43  7  0  -1061.3  4092002.7  0.1  2 0 1790 2446 1127
[25]  46(B10) 1f 43  7  0  -1041.0  4092002.6 -0.0  2 0 1516 1936  626
[26]  52(B16) 1f 43  7  0   -560.2  4092001.4 -0.0  2 0 1844 2703 1191
[27]  54(B18) 1f 44  8  0   -907.6  4092002.3  0.0  2 0 2173 3240 1545
[28]  55(B19) 1f 44  7  0  -1011.3  4092002.5 -0.0  2 0 2010 3268 1300
[29]  58(B22) 1f 37 10  0  -3403.8  4092008.8  0.2  2 0  815  946  453
[30]  63(B27) 1f 43  7  0  -3162.5  4092008.2  0.0  2 0 1624 2168 1172
[32]  76(N-5) 8f 41  7  0  -4721.2  1022003.0  0.4  2 0   650 1139  698
[33]  77(N-4) 8f 34 21  0  -1720.6  1022001.1 -0.1  2 0   200  336  345
[34]  80(N-1) 8f 44  7  0   2828.6  1021998.2 -0.0  2 0   810 1693  844
[35]  81(N00) 8f 46  7  0   1457.5  1021999.0  0.0  2 0  1100 2201 1153
[36]  82(N01)  f 29  7  0     64.9  1022000.1 -0.1  5 0  1649 2381  778
[37]  84(N03) 8f 42  7  0  -4232.3  1022002.7 -0.0  2 0  1093 1503  980
[38]  85(N04) 8f 48  7  0  -1432.9  1022000.9  0.0  2 0  2375 4161 2085
[48]  37(B01)  f 10 10  1  -1394.2 20460022.1  0.1  2 0  229  236  351
[49]  38(B02)  1 10 10  0   -844.1 20460010.4 -0.1  1 0  256  333  120
[50]  39(B03)  1 18 10  1  -1637.0 20460019.7  0.0  1 0  104  301  288
[51]  40(B04)  1 23 22  0    147.7 20460014.4  0.0  1 0 1197  445  156
[53]  42(B06)  1  7  7  0   -561.8 20460006.9  0.0  1 0  335  267  470
[54]  43(B07)  1  7  7  0  -1356.0 20460011.0 -0.0  1 0  656  397  404
[56]  45(B09)  1  7  7  0   -983.8 20460015.4  0.0  1 0 1362  922  554
[57]  46(B10)  1  7  7  0   -660.3 20460014.9 -0.0  1 0  283  683  847
[58]  52(B16)  1  8  7  0     -5.3 20460007.7 -0.2  1 0  139  528  203
[59]  54(B18)  1  7  7  0    661.9 20460014.1 -0.1  1 0  473  561  465
[60]  55(B19)  1  7  7  0   -368.5 20460016.1 -0.1  1 0  311  260  182
[61]  58(B22)  1  7  7  0  -3107.3 20460053.6 -0.0  1 0  198  331  530
