i=1
Rf R0 Config = ff777073
Rf R1 Config = 00dffbfe
Rf R52 Config = 00dfeec0
i=2
Rf R0 Config = 007770f3
Rf R1 Config = 00df5bfe
Rf R52 Config = 00da4ef0
i=3
Rf R0 Config = 007772f3
Rf R1 Config = 00df5bfe
Rf R52 Config = 00de8ef0
i=4
Rf R0 Config = 00777273
Rf R1 Config = 00de7bfe
Rf R52 Config = 00deae00
SD initialized success
Create debug.log Failed! 3
Start Channel by LuYu
$GNGGA,000000.000,,,,,0,00,,,M,,,,0000*2B
$GNRMC,000000.000,A,,,,,,,060180,,*29
$GPGSA,A,1,,,,,,,,,,,,,,,*1E
$BDGSA,A,1,,,,,,,,,,,,,,,*0F
$GLGSA,A,1,,,,,,,,,,,,,,,*02
$B3CN0,0,0,0,0,0,0,0,0,0,0,0,0,0,0*4C
---00000001--- Acq_st=3 0  2000-1-1 0:0:58 
[00]  03(G04)  1 21  7  0  -1181.0  2046002.7  0.1  1 0 1169 2486 1573
[01]  06(G07)  1  7  7  0  -3750.0  2046006.4 -0.2  1 0  153  312 1178
[02]  08(G09)  1 22  7  0     -0.0  2046002.2  0.0  1 0 1036 2663 2121
$GNGGA,000000.000,,,,,0,00,,,M,,,,0000*2B
$GNRMC,000000.000,A,,,,,,,060180,,*29
$GPGSA,A,1,,,,,,,,,,,,,,,*1E
$BDGSA,A,1,,,,,,,,,,,,,,,*0F
$GLGSA,A,1,,,,,,,,,,,,,,,*02
$B3CN0,0,0,0,0,0,0,0,0,0,0,0,0,0,0*4C
---00000002--- Acq_st=3 0  2000-1-1 0:0:59 
[00]  03(G04)  7  8  7  0  -1178.3  2046001.4  0.9 10 0 1919 2669 1448
[01]  06(G07)  1 27  8  0  -3655.8  2046005.4  0.7  1 0 1646 1833  829
[02]  08(G09)  1 30 13  0      4.6  2045999.9  0.9  1 0 2270 2955  872
[03]  22(G23)  1 17  7  0   1500.0  2046000.7  0.0  1 0  702 2043 1709
$GNGGA,000000.000,,,,,0,00,,,M,,,,0000*2B
$GNRMC,000000.000,A,,,,,,,060180,,*29
$GPGSA,A,1,,,,,,,,,,,,,,,*1E
$BDGSA,A,1,,,,,,,,,,,,,,,*0F
$GLGSA,A,1,,,,,,,,,,,,,,,*02
$B3CN0,0,0,0,0,0,0,0,0,0,0,0,0,0,0*4C
---00000003--- Acq_st=3 0  2000-1-1 0:1:0 
[00]  03(G04)  7 45  7  0  -1175.3  2046001.4 -0.1  2 0 1478 2385 1137
[01]  06(G07)  7 35 11  0  -3654.3  2046004.6  0.3  2 0 1059 1388  804
[02]  08(G09)  7 33  8  0      8.4  2045999.9  0.3  5 0 1913 2965 1215
[03]  22(G23)  1 31  7  0   1520.7  2045997.8  0.7  1 0 1629 1868  838
[04]  27(G28)  1 22  7  0  -2933.4  2046004.6  0.3  1 0  740 1613 1096
[05]  29(G30)  1 21  7  0  -4341.7  2046007.9  0.2  1 0  906 2193 2151
[16]  38(B02)  1 10 27  1  -1000.0  4092002.2  0.1  1 0  269  223   26
$GNGGA,000000.000,,,,,0,00,,,M,,,,0000*2B
$GNRMC,000000.000,A,,,,,,,060180,,*29
$GPGSA,A,1,,,,,,,,,,,,,,,*1E
$BDGSA,A,1,,,,,,,,,,,,,,,*0F
$GLGSA,A,1,,,,,,,,,,,,,,,*02
$GPGSV,1,1,03,04,00,000,45,07,00,000,35,09,00,000,33*47
$B3CN0,0,0,0,0,0,0,0,0,0,0,0,0,0,0*4C
---00000004--- Acq_st=3 0  2000-1-1 0:1:1 
[00]  03(G04)  7 44  8  0  -1175.7  2046001.4 -0.0  2 0  953 2209  925
[01]  06(G07)  7 40  9  0  -3655.8  2046004.7  0.1  2 0  900 1582  672
[02]  08(G09)  7 44 15  0      8.9  2045999.9 -0.1  2 0 1921 2742  918
[03]  22(G23)  7 31  7  0   1521.3  2045997.9  0.3  5 0 1571 1981 1014
[04]  27(G28)  7 24  7  0  -2931.0  2046003.7  0.7 10 0  824 1523  661
[05]  29(G30)  7 19  7  0  -4343.0  2046005.5  0.8 10 0 1679 2393 1187
[16]  38(B02)  1 10 10  0  -1509.5  4092002.3  0.0  1 0  485  446  474
[17]  41(B05)  1 41 25  0  -1104.0  4092004.6  0.9  1 0  873 1421  320
[18]  45(B09)  1  7  7  0    750.0  4092000.7 -0.0  1 0  246  623 1594
$GNGGA,000000.000,,,,,0,00,,,M,,,,0000*2B
$GNRMC,000000.000,A,,,,,,,060180,,*29
$GPGSA,A,1,,,,,,,,,,,,,,,*1E
$BDGSA,A,1,,,,,,,,,,,,,,,*0F
$GLGSA,A,1,,,,,,,,,,,,,,,*02
$GPGSV,2,1,06,04,00,000,44,07,00,000,40,09,00,000,44,23,00,000,31*71
$GPGSV,2,2,06,28,00,000,23,30,00,000,18*7E
$B3CN0,0,0,0,0,0,0,0,0,0,0,0,0,0,0*4C
---00000005--- Acq_st=3 0  2000-1-1 0:1:2 
[00]  03(G04)  7 44  7  0  -1175.4  2046001.5  0.1  2 0 1615 2386 1343
[01]  06(G07)  7 40 13  0  -3654.7  2046004.7 -0.0  2 0  630  858  529
[02]  08(G09)  7 44 14  0      8.8  2045999.9  0.0  2 0 1473 2945 1417
[03]  22(G23)  7 42  7  0   1522.2  2045997.9  0.1  2 0 1818 1972  826
[04]  27(G28)  7 40  7  0  -2931.1  2046003.7 -0.1  2 0  345 1405  850
[05]  29(G30)  7 43  7  0  -4337.8  2046005.6  0.1  2 0 1543 2212  826
[16]  38(B02)  7 10 24  0  -1984.5  4092005.3  0.1  2 0  388  463  340
[17]  41(B05)  f 39 18  0  -1102.4  4092002.6  0.5  2 0 1217 1138  454
[18]  45(B09)  1  7 13  0    610.7  4091998.3 -0.0  1 0 1137  998  401
$GNGGA,000000.000,,,,,0,00,,,M,,,,0000*2B
$GNRMC,000000.000,A,,,,,,,060180,,*29
$GPGSA,A,1,,,,,,,,,,,,,,,*1E
$BDGSA,A,1,,,,,,,,,,,,,,,*0F
$GLGSA,A,1,,,,,,,,,,,,,,,*02
$GPGSV,2,1,06,04,00,000,44,07,00,000,40,09,00,000,44,23,00,000,42*75
$GPGSV,2,2,06,28,00,000,40,30,00,000,43*75
$BDGSV,1,1,01,05,00,000,38*57
$B3CN0,0,0,0,0,0,0,0,0,0,0,0,0,0,0*4C
---00000006--- Acq_st=3 0  2000-1-1 0:1:3 
[00]  03(G04)  7 44  7  0  -1172.2  2046001.5 -0.0  2 0 1214 2143  986
[01]  06(G07)  7 40 13  0  -3658.2  2046004.7  0.1  2 0 1315 1782  899
[02]  08(G09)  7 44  8  0     11.5  2046000.0 -0.0  2 0 1117 1930  475
[03]  22(G23)  7 42  7  0   1526.2  2045997.9 -0.0  2 0 1332 1930  846
[04]  27(G28)  7 41  7  0  -2932.7  2046003.7 -0.1  2 0  753 1560  870
[05]  29(G30)  7 42  7  0  -4339.9  2046005.6 -0.0  2 0 1332 1958  918
[16]  38(B02)  7 10 10  1  -2270.2  4092005.7 -0.1  2 0  113  132   89
[17]  41(B05)  f 40 27  0  -1098.5  4092002.7 -0.5  2 0 1355 1120  345
[18]  45(B09)  1  7  7  0    616.3  4091997.9  0.1  1 0  785 1525  791
[19]  57(B21)  1  7  7  0     -0.0  4092001.2  0.0  1 0  320  267  653
[20]  58(B22)  1  7  7  0   1000.0  4091999.6  0.0  1 0  291  499 1100
[49]  41(B05)  1 23 18  0  -1200.3 20460022.2 -0.1  1 0  449  536  334
$GNGGA,061855.981,,,,,0,00,,,M,,,,0000*24
$GNRMC,061855.981,A,,,,,,,080180,,*28
$GPGSA,A,1,,,,,,,,,,,,,,,*1E
$BDGSA,A,1,,,,,,,,,,,,,,,*0F
$GLGSA,A,1,,,,,,,,,,,,,,,*02
$GPGSV,2,1,06,04,00,000,44,07,00,000,40,09,00,000,44,23,00,000,42*75
$GPGSV,2,2,06,28,00,000,41,30,00,000,42*75
$BDGSV,1,1,01,05,00,000,40*58
$B3CN0,0,0,0,0,0,0,0,0,0,0,0,0,0,0*4C
---00000007--- Acq_st=3 0  2000-1-1 0:1:4 
[00]  03(G04)  f 43  8  0  -1171.6  2046001.5  0.0  2 0 1791 2869 1387
[01]  06(G07)  f 40  8  0  -3650.3  2046004.7  0.0  2 0  781 1548  781
[02]  08(G09)  f 44 14  0     14.2  2045999.9  0.0  2 0 1685 2323 1239
[03]  22(G23)  f 42  7  0   1526.1  2045997.9  0.1  2 0 1256 2255 1021
[04]  27(G28)  f 41  7  0  -2924.7  2046003.7  0.0  2 0  647 1414  897
[05]  29(G30)  f 42  7  0  -4338.6  2046005.6 -0.0  2 0 1266 1970 1000
[16]  38(B02)  7 10 10  0  -2610.7  4092006.8 -0.1  2 0  169  156  555
[17]  41(B05)  f 39 18  0  -1096.8  4092002.7  0.2  2 0  743  835  443
[18]  45(B09)  1  7  7  0    616.8  4091998.2 -0.0  1 0  978 1651  785
[19]  57(B21)  1  7  7  0    -80.8  4092002.0  0.1  1 0  796 1670  864
[20]  58(B22)  1  7  7  0    916.8  4091998.0  0.2  1 0 1899 1541  203
[21]  65(B29)  1  0  0  0  -3250.0  4092008.0  0.0  1 0  390   35 1981
[49]  41(B05)  1 20 23  0  -1139.6 20460019.4  0.0  1 0  274  344  241
$GNGGA,061856.981,,,,,0,00,,,M,,,,0000*27
$GNRMC,061856.981,A,,,,,,,090419,,*2F
$GPGSA,A,1,,,,,,,,,,,,,,,*1E
$BDGSA,A,1,,,,,,,,,,,,,,,*0F
$GLGSA,A,1,,,,,,,,,,,,,,,*02
$GPGSV,2,1,06,04,00,000,43,07,00,000,40,09,00,000,44,23,00,000,42*72
$GPGSV,2,2,06,28,00,000,41,30,00,000,42*75
$BDGSV,1,1,01,05,00,000,39*56
$B3CN0,0,0,0,0,0,0,0,0,0,0,0,0,0,0*4C
---00000008--- Acq_st=3 0  2000-1-1 0:1:5 
[00]  03(G04)  f 43  7  0  -1171.1  2046001.5  0.0  2 0 1430 2426 1346
[01]  06(G07)  f 40 12  0  -3656.9  2046004.7 -0.1  2 0 1271 1521  425
[02]  08(G09)  f 43 11  0     12.8  2045999.9 -0.1  2 0 1130 2804 1501
[03]  22(G23)  f 43  7  0   1523.3  2045997.9  0.0  2 0 1648 2402  812
[04]  27(G28)  f 40  7  0  -2926.0  2046003.8  0.0  2 0 1335 1535  590
[05]  29(G30)  f 42  7  0  -4339.9  2046005.6  0.0  2 0 1511 2089  685
[16]  38(B02)  7 13 36  1  -3005.0  4092007.8  0.0  2 0  145   97  337
[17]  41(B05) 1f 39 27  0  -1095.9  4092002.8  0.7  2 0  659 1323  760
[18]  45(B09)  1  7  7  0    616.8  4091998.1  0.3  1 0  395 1206  978
[19]  57(B21)  7 30  7  0    -83.6  4092000.1  0.1  5 0 1419 1644  849
[20]  58(B22)  7 28  7  0    919.0  4091997.5  0.2 10 0 1366 1790  505
[21]  65(B29)  1  7  8  0  -3314.0  4092009.9  0.2  1 0 1524 2477 1201
[32]  75(N-6)  1 23  7  0    750.0  1022002.3 -0.0  1 0   183  480  726
[33]  76(N-5)  1 18  7  0   2250.0  1022000.6 -0.0  1 0   291  293  614
[34]  77(N-4)  1 15  7  0  -5500.0  1022004.5  0.1  1 0   327  641  520
[49]  41(B05)  1 26 22  1   -738.1 20460019.2 -0.1  1 0  605  808  462
$GNGGA,061857.981,,,,,0,00,,,M,,,,0000*26
$GNRMC,061857.981,A,,,,,,,090419,,*2E
$GPGSA,A,1,,,,,,,,,,,,,,,*1E
$BDGSA,A,1,,,,,,,,,,,,,,,*0F
$GLGSA,A,1,,,,,,,,,,,,,,,*02
$GPGSV,2,1,06,04,00,000,43,07,00,000,40,09,00,000,43,23,00,000,43*74
$GPGSV,2,2,06,28,00,000,40,30,00,000,42*74
$BDGSV,1,1,04,02,00,000,36,05,00,000,39,21,00,000,30,22,00,000,27*61
$B3CN0,0,0,0,0,0,0,0,0,0,0,0,0,0,0*4C
---00000009--- Acq_st=7 0  2000-1-1 0:1:6 
[00]  03(G04)  f 43  7  0  -1172.2  2046001.5 -0.0  2 0 1471 2530 1391
[01]  06(G07)  f 40 14  0  -3652.4  2046004.7 -0.0  2 0 1246 1560  935
[02]  08(G09)  f 43 13  0     15.0  2045999.9  0.0  2 0 1574 2403 1162
[03]  22(G23)  f 42  7  0   1528.1  2045997.9  0.0  2 0 1804 2357 1140
[04]  27(G28)  f 41  7  0  -2925.9  2046003.7 -0.1  2 0  929 1749  794
[05]  29(G30)  f 43  7  0  -4339.0  2046005.6 -0.0  2 0 1354 2417 1796
[16]  38(B02)  7 14 17  0  -3868.4  4092009.9 -0.1  2 0  224  318  233
[17]  41(B05) 1f 40 24  0  -1097.5  4092002.8 -0.4  2 0  922 1160  646
[18]  45(B09)  7 28  7  0    618.9  4091998.4  0.1 10 0  633  968  421
[19]  57(B21)  7 41  7  0    -84.7  4092000.1  0.0  2 0 1367 1327  297
[20]  58(B22)  7 42  7  0    922.4  4091997.4 -0.1  2 0 1312 1625  863
[21]  65(B29)  7 27  7  0  -3311.8  4092008.5  0.3 10 0 2337 2686  928
[32]  75(N-6)  1 29  7  0    775.6  1021999.7  1.0  1 0   512  623  323
[33]  76(N-5)  1 26 12  0   2232.9  1021998.6  0.8  1 0   696  591  184
[34]  77(N-4)  1 25  7  0  -5482.8  1022003.5  0.6  1 0   392  506  273
[35]  80(N-1)  1 31 16  0  -1735.0  1022003.3  0.6  1 0   505 1202  861
[49]  41(B05)  1 24 21  1  -1046.6 20460020.3 -0.0  1 0  525  623  606
$GNGGA,061858.981,,,,,0,00,,,M,,,,0000*29
$GNRMC,061858.981,A,,,,,,,090419,,*21
$GPGSA,A,1,,,,,,,,,,,,,,,*1E
$BDGSA,A,1,,,,,,,,,,,,,,,*0F
$GLGSA,A,1,,,,,,,,,,,,,,,*02
$GPGSV,2,1,06,04,00,000,43,07,00,000,40,09,00,000,43,23,00,000,42*75
$GPGSV,2,2,06,28,00,000,41,30,00,000,43*74
$BDGSV,2,1,05,05,00,000,40,09,00,000,28,21,00,000,41,22,00,000,42*6C
$BDGSV,2,2,05,29,00,000,27*53
$B3CN0,0,0,0,0,0,0,0,0,0,0,0,0,0,0*4C
---00000010--- Acq_st=7 0  2000-1-1 0:1:7 
[00]  03(G04)  f 44  7  0  -1167.3  2046001.5  0.1  2 0 1234 2020  921
[01]  06(G07)  f 40 12  0  -3650.2  2046004.7 -0.0  2 0  931 1391  714
[02]  08(G09)  f 44 14  0     18.4  2045999.9  0.0  2 0 1815 2558 1159
[03]  22(G23)  f 43  7  0   1528.5  2045997.9  0.1  2 0 1308 2086 1167
[04]  27(G28)  f 41  7  0  -2921.6  2046003.7 -0.0  2 0 1285 2028  952
[05]  29(G30)  f 42  7  0  -4335.8  2046005.5  0.0  2 0 1343 2158  673
[16]  38(B02)  7 10 30  1  -4009.5  4092010.4  0.0  2 0  283  602  653
[17]  41(B05) 1f 38 20  0  -1097.0  4092002.8 -0.4  2 0 1002 1293  547
[18]  45(B09)  7 40  8  0    623.6  4091998.3 -0.1  2 0  432 1108  651
[19]  57(B21)  7 40  7  0    -77.6  4092000.1  0.0  2 0  725 1513  654
[20]  58(B22)  7 42  7  0    920.2  4091997.5 -0.0  2 0 1744 1517  422
[21]  65(B29)  7 44  7  0  -3306.8  4092008.5  0.1  2 0 2136 2537 1466
[32]  75(N-6)  7 38  7  0    773.8  1021999.4  0.1  2 0   460  419  112
[33]  76(N-5)  7 34 19  0   2230.5  1021998.4  0.0  5 0   175  478  514
[34]  77(N-4)  7 36  7  0  -5484.0  1022003.3  0.0  2 0   769  827  336
[35]  80(N-1)  7 31  7  0  -1732.5  1022000.9  1.0  5 0   951  926  280
$GNGGA,061859.981,,,,,0,00,,,M,,,,0000*28
$GNRMC,061859.981,A,,,,,,,090419,,*20
$GPGSA,A,1,,,,,,,,,,,,,,,*1E
$BDGSA,A,1,,,,,,,,,,,,,,,*0F
$GLGSA,A,1,,,,,,,,,,,,,,,*02
$GPGSV,2,1,06,04,00,000,44,07,00,000,40,09,00,000,44,23,00,000,43*74
$GPGSV,2,2,06,28,00,000,41,30,00,000,42*75
$BDGSV,2,1,05,05,00,000,38,09,00,000,40,21,00,000,40,22,00,000,42*6C
$BDGSV,2,2,05,29,00,000,44*56
$B3CN0,0,0,0,0,0,0,0,0,0,0,0,0,0,0*4C
---00000011--- Acq_st=3 0  2000-1-1 0:1:8 
[00]  03(G04)  f 44  7  0  -1168.3  2046001.4 -0.0  2 0 1940 2647 1298
[01]  06(G07)  f 40  9  0  -3655.8  2046004.7  0.0  2 0  589  924  715
[02]  08(G09)  f 44  7  0     14.7  2045999.9 -0.0  2 0 2146 2967 1465
[03]  22(G23)  f 43  7  0   1527.8  2045997.9 -0.0  2 0 1720 2426  966
[04]  27(G28)  f 41  7  0  -2926.2  2046003.7 -0.0  2 0 1508 1892  767
[05]  29(G30)  f 43  7  0  -4340.3  2046005.6  0.0  2 0 1628 2384 1732
[16]  38(B02)  7 21 16  1  -4277.2  4092011.2 -0.0  2 0  315  224  303
[17]  41(B05) 1f 38 29  0  -1099.4  4092002.7  0.9  2 0  838  971  525
[18]  45(B09)  7 40  7  0    621.0  4091998.3 -0.1  2 0  542  818  456
[19]  57(B21)  7 40  7  0    -82.8  4092000.1 -0.1  2 0  596 1081  477
[20]  58(B22)  7 42  7  0    918.0  4091997.4  0.0  2 0 1526 1886  840
[21]  65(B29)  7 44  7  0  -3308.0  4092008.5 -0.0  2 0 2037 2280  977
[32]  75(N-6)  7 37  7  0    772.9  1021999.4 -0.0  2 0   825  951  347
[33]  76(N-5)  7 34 17  0   2225.7  1021998.3  0.0  2 0   400  591  387
[34]  77(N-4)  7 36  7  0  -5487.5  1022003.4 -0.1  2 0   212  424  317
[35]  80(N-1)  7 40 14  0  -1734.0  1022001.0 -0.3  2 0   541  802  552
[49]  41(B05)  1 19 22  0   -644.7 20460020.7  0.0  1 0  299  551  389
$GNGGA,061900.981,,,,,0,00,,,M,,,,0000*25
$GNRMC,061900.981,A,,,,,,,090419,,*2D
$GPGSA,A,1,,,,,,,,,,,,,,,*1E
$BDGSA,A,1,,,,,,,,,,,,,,,*0F
$GLGSA,A,1,,,,,,,,,,,,,,,*02
$GPGSV,2,1,06,04,00,000,44,07,00,000,40,09,00,000,44,23,00,000,43*74
$GPGSV,2,2,06,28,00,000,41,30,00,000,43*74
$BDGSV,2,1,06,02,00,000,21,05,00,000,39,09,00,000,40,21,00,000,40*69
$BDGSV,2,2,06,22,00,000,42,29,00,000,44*63
$B3CN0,0,0,0,0,0,0,0,0,0,0,0,0,0,0*4C
---00000012--- Acq_st=3 0  2000-1-1 0:1:9 
[00]  03(G04)  f 44  7  0  -1174.0  2046001.4  0.0  2 0 1403 2566  907
[01]  06(G07)  f 41 11  0  -3652.8  2046004.7  0.0  2 0 1177 1693 1092
[02]  08(G09)  f 44 13  0     13.5  2045999.9 -0.1  2 0 2306 2887 1151
[03]  22(G23)  f 43  7  0   1526.0  2045997.9 -0.0  2 0 1795 2516  977
[04]  27(G28)  f 41  7  0  -2929.7  2046003.8 -0.0  2 0 1387 2243 1079
[05]  29(G30)  f 43  7  0  -4342.6  2046005.6  0.0  2 0 1245 2154 1011
[17]  41(B05) 1f 40 22  0  -1100.4  4092002.7  0.1  2 0  987 1353  904
[18]  45(B09)  7 39  9  0    614.0  4091998.3 -0.0  2 0  683 1376  526
[19]  57(B21)  7 40  7  0    -82.2  4092000.1 -0.0  2 0 1488 1571  827
[20]  58(B22)  7 42  7  0    916.4  4091997.5 -0.1  2 0 1192 1653  392
[21]  65(B29)  7 44  7  0  -3313.2  4092008.6  0.0  2 0 2541 2657  967
[32]  75(N-6)  7 37  7  0    772.8  1021999.4 -0.1  2 0    46  346  124
[33]  76(N-5)  7 35 19  0   2223.5  1021998.4 -0.1  2 0   378  581  450
[34]  77(N-4)  7 35  7  0  -5487.6  1022003.4 -0.0  2 0   181  711  469
[35]  80(N-1)  7 41 11  0  -1735.1  1022001.1 -0.1  2 0   728 1038  412
[49]  41(B05)  1 24 23  0   -441.6 20460019.4 -0.0  1 0  300  456  390
---00000013--- Acq_st=3 0  2000-1-1 0:1:10 
[00]  03(G04)  f 44  7  0  -1170.1  2046001.5 -0.0  2 0 1748 3117 1647
[01]  06(G07)  f 41  7  0  -3652.2  2046004.7  0.1  2 0 1648 1868  784
[02]  08(G09)  f 45 17  0     19.4  2045999.9 -0.0  2 0 2084 2952 1087
[03]  22(G23)  f 44  7  0   1530.1  2045997.9 -0.0  2 0 1473 2557 1133
[04]  27(G28)  f 42  7  0  -2924.6  2046003.7  0.1  2 0  929 1539 1258
[05]  29(G30)  f 43  7  0  -4340.3  2046005.6 -0.1  2 0 1038 2136 1352
[17]  41(B05) 1f 39 25  0  -1096.9  4092002.7 -0.4  2 0 1174  899  318
[18]  45(B09)  7 40  7  0    621.3  4091998.3  0.1  2 0  880 1498  616
[19]  57(B21)  7 40  7  0    -80.1  4092000.1 -0.0  2 0  834 1005  570
[20]  58(B22)  7 42  7  0    925.6  4091997.5  0.0  2 0 1559 1868  977
[21]  65(B29)  7 44  7  0  -3304.9  4092008.5 -0.0  2 0 2897 2862 1069
[32]  75(N-6)  7 37  7  0    779.4  1021999.4  0.1  2 0   804  987  197
[33]  76(N-5)  7 36 19  0   2229.7  1021998.5 -0.0  2 0   823  679  293
[34]  77(N-4)  7 34  7  0  -5487.1  1022003.5 -0.1  2 0   330  477  280
[35]  80(N-1)  7 43  7  0  -1728.8  1022001.0 -0.2  2 0   764 1123  350
[49]  41(B05)  1 18 24  0   -725.4 20460019.7  0.0  1 0  567  116  436
$GNGGA,061901.981,,,,,0,00,,,M,,,,0000*24
$GNRMC,061901.981,A,,,,,,,090419,,*2C
$GPGSA,A,1,,,,,,,,,,,,,,,*1E
$BDGSA,A,1,,,,,,,,,,,,,,,*0F
$GLGSA,A,1,,,,,,,,,,,,,,,*02
$GPGSV,2,1,06,04,00,000,44,07,00,000,41,09,00,000,45,23,00,000,44*73
$GPGSV,2,2,06,28,00,000,42,30,00,000,43*77
$BDGSV,2,1,05,05,00,000,39,09,00,000,40,21,00,000,40,22,00,000,42*6D
$BDGSV,2,2,05,29,00,000,44*56
$B3CN0,0,0,0,0,0,0,0,0,0,0,0,0,0,0*4C
---00000014--- Acq_st=3 0  2000-1-1 0:1:11 
[00]  03(G04)  f 44  7  0  -1163.1  2046001.4  0.0  2 0 2714 3101 1475
[01]  06(G07)  f 41  7  0  -3646.2  2046004.6 -0.0  2 0 1391 1720  896
[02]  08(G09)  f 44 17  0     22.1  2045999.9  0.1  2 0 2085 3114 1326
[03]  22(G23)  f 44  7  0   1533.6  2045997.9  0.0  2 0 1266 2857 1533
[04]  27(G28)  f 42  7  0  -2919.8  2046003.7 -0.1  2 0 1352 1844 1151
[05]  29(G30)  f 42  7  0  -4334.7  2046005.6  0.1  2 0 1520 1991  995
[17]  41(B05) 1f 39 25  0  -1094.9  4092002.6  0.7  2 0 1115 1488  421
[18]  45(B09)  7 39  7  0    620.2  4091998.2 -0.2  2 0  876  994  327
[19]  57(B21)  7 40  7  0    -75.1  4092000.1  0.1  2 0 1055 1333  664
[20]  58(B22)  7 42  7  0    929.4  4091997.5  0.0  2 0 1331 1744  780
[21]  65(B29)  7 44  7  0  -3301.2  4092008.5 -0.0  2 0 2083 2887  957
[32]  75(N-6)  f 34  7  0    783.0  1021999.5 -0.0  5 0   398  473  192
[33]  76(N-5)  f 34 11  0   2234.6  1021998.5 -0.0  5 0   573  685  459
[34]  77(N-4)  f 32  7  0  -5478.6  1022003.5  0.0  5 0   313  863  422
[35]  80(N-1)  f 37  7  0  -1724.7  1022001.0  0.0  2 0   816 1233  306
[49]  41(B05)  1 25 22  1   -138.9 20460022.7  0.1  1 0  606  592  144
$GNGGA,061902.981,,,,,0,00,,,M,,,,0000*27
$GNRMC,061902.981,A,,,,,,,090419,,*2F
$GPGSA,A,1,,,,,,,,,,,,,,,*1E
$BDGSA,A,1,,,,,,,,,,,,,,,*0F
$GLGSA,A,1,,,,,,,,,,,,,,,*02
$GPGSV,2,1,06,04,00,000,44,07,00,000,41,09,00,000,44,23,00,000,44*72
$GPGSV,2,2,06,28,00,000,42,30,00,000,42*76
$BDGSV,2,1,05,05,00,000,39,09,00,000,39,21,00,000,40,22,00,000,42*63
$BDGSV,2,2,05,29,00,000,44*56
$B3CN0,0,0,0,0,0,0,0,0,0,0,0,0,0,0*4C
---00000015--- Acq_st=3 0  2000-1-1 0:1:12 
[00]  03(G04)  f 44  7  0  -1171.7  2046001.4 -0.0  2 0 2299 3120 1243
[01]  06(G07)  f 42  8  0  -3653.0  2046004.6  0.1  2 0 1305 2154 1492
[02]  08(G09)  f 44 12  0     16.2  2045999.9 -0.0  2 0 2195 3079 1266
[03]  22(G23)  f 43  7  0   1530.2  2045998.0 -0.0  2 0 1826 2405  939
[04]  27(G28)  f 42  9  0  -2928.2  2046003.8 -0.0  2 0  991 1370  966
[05]  29(G30)  f 42  7  0  -4340.4  2046005.6  0.0  2 0  820 1840 1089
[17]  41(B05) 1f 39 23  0  -1096.4  4092002.8 -0.5  2 0  967  811  193
[18]  45(B09) 1f 39  7  0    618.6  4091998.2 -0.0  2 0  736 1284  775
[19]  57(B21) 1f 40  7  0    -75.2  4092000.1  0.0  2 0  996 1312  637
[20]  58(B22) 1f 42  7  0    922.1  4091997.5  0.0  2 0 1505 1696  463
[21]  65(B29) 1f 44  7  0  -3308.6  4092008.5  0.0  2 0 2558 3054 1400
[32]  75(N-6)  f 36  7  0    775.7  1021999.5 -0.1  2 0    91  774  625
[33]  76(N-5)  f 36  8  0   2226.7  1021998.5  0.0  2 0   300  633  595
[34]  77(N-4)  f 35  7  0  -5484.8  1022003.5 -0.0  2 0   287  292  192
[35]  80(N-1)  f 43  7  0  -1729.0  1022001.0 -0.0  2 0  1213 1621  825
$GNGGA,061903.981,,,,,0,00,,,M,,,,0000*26
$GNRMC,061903.981,A,,,,,,,090419,,*2E
$GPGSA,A,1,,,,,,,,,,,,,,,*1E
$BDGSA,A,1,,,,,,,,,,,,,,,*0F
$GLGSA,A,1,,,,,,,,,,,,,,,*02
$GPGSV,2,1,06,04,00,000,44,07,00,000,42,09,00,000,44,23,00,000,43*76
$GPGSV,2,2,06,28,00,000,42,30,00,000,42*76
$BDGSV,2,1,05,05,00,000,39,09,00,000,39,21,00,000,40,22,00,000,42*63
$BDGSV,2,2,05,29,00,000,43*51
$B3CN0,0,0,0,0,0,0,0,0,0,0,0,0,0,0*4C
---00000016--- Acq_st=3 0  2000-1-1 0:1:13 
[00]  03(G04)  f 44  7  0  -1170.3  2046001.4  0.0  2 0 1984 2824 1077
[01]  06(G07)  f 41  7  0  -3648.7  2046004.7 -0.0  2 0 1330 1276  734
[02]  08(G09)  f 44  9  0     15.8  2045999.9 -0.0  2 0 2030 2868 1528
[03]  22(G23)  f 43  7  0   1526.7  2045998.0 -0.1  2 0 1257 2598 1087
[04]  27(G28)  f 41  7  0  -2931.4  2046003.7  0.1  2 0 1320 2009  936
[05]  29(G30)  f 41  7  0  -4341.2  2046005.6  0.0  2 0 1477 1921  788
[17]  41(B05) 1f 39 26  0  -1104.4  4092002.8 -0.6  2 0  843  968  432
[18]  45(B09) 1f 38  7  0    618.0  4091998.3 -0.1  2 0  947 1043  442
[19]  57(B21) 1f 40  7  0    -81.6  4092000.1 -0.0  2 0 1047 1381  614
[20]  58(B22) 1f 42  7  0    919.0  4091997.5 -0.0  2 0 1588 2207  727
[21]  65(B29) 1f 44  8  0  -3311.1  4092008.6 -0.0  2 0 1825 2548  831
[32]  75(N-6)  f 36  7  0    775.1  1021999.5 -0.0  2 0   332 1062 1140
[33]  76(N-5)  f 37  8  0   2224.7  1021998.6  0.0  2 0   637  885  325
[34]  77(N-4)  f 36  7  0  -5487.7  1022003.4 -0.2  2 0   234  486  208
[35]  80(N-1)  f 43  7  0  -1731.3  1022001.0  0.0  2 0   979 1266  439
[49]  41(B05)  1 24 21  0  -1008.9 20460016.9  0.0  1 0  934  856  482
[50]  45(B09)  1 13  7  0    683.5 20459990.6 -0.1  1 0  530  398  886
[51]  57(B21)  1  7  7  0    -46.4 20460000.5 -0.1  1 0  374  527  496
[52]  58(B22)  1 11  7  0    380.9 20459985.1  0.0  1 0  167  343  193
[53]  65(B29)  1  8  7  0  -2533.2 20460053.8  0.2  1 0  342  442  161
$GNGGA,061904.981,,,,,0,00,,,M,,,,0000*21
$GNRMC,061904.981,A,,,,,,,090419,,*29
$GPGSA,A,1,,,,,,,,,,,,,,,*1E
$BDGSA,A,1,,,,,,,,,,,,,,,*0F
$GLGSA,A,1,,,,,,,,,,,,,,,*02
$GPGSV,2,1,06,04,00,000,44,07,00,000,41,09,00,000,44,23,00,000,43*75
$GPGSV,2,2,06,28,00,000,41,30,00,000,41*76
$BDGSV,2,1,05,05,00,000,39,09,00,000,38,21,00,000,40,22,00,000,42*62
$BDGSV,2,2,05,29,00,000,44*56
$B3CN0,0,0,0,0,0,0,0,0,0,0,0,0,0,0*4C
---00000017--- Acq_st=2 0  2000-1-1 0:1:14 
[00]  03(G04)  f 44  7  0  -1168.8  2046001.5  0.0  2 0 1911 2896 1372
[01]  06(G07)  f 41  7  0  -3650.4  2046004.7  0.1  2 0 1232 1584  665
[02]  08(G09)  f 44 12  0     18.4  2045999.9  0.0  2 0 1794 3245 1733
[03]  22(G23)  f 43  7  0   1525.4  2045998.0  0.1  2 0  850 1922 1279
[04]  27(G28)  f 41  7  0  -2929.1  2046003.7 -0.0  2 0 1146 1391  433
[05]  29(G30)  f 40  7  0  -4337.9  2046005.6  0.0  2 0  874 1479  575
[17]  41(B05) 1f 39 16  0  -1102.9  4092002.7 -0.6  2 0  554  904  289
[18]  45(B09) 1f 39  7  0    619.4  4091998.2 -0.0  2 0  668  992  669
[19]  57(B21) 1f 41  7  0    -83.7  4092000.1 -0.0  2 0  795 1266  896
[20]  58(B22) 1f 43  7  0    919.0  4091997.5  0.1  2 0 1549 2145 1036
[21]  65(B29) 1f 45  7  0  -3310.5  4092008.6  0.0  2 0 2292 2806 1074
[32]  75(N-6)  f 36  7  0    775.6  1021999.5 -0.1  2 0   283  594  804
[33]  76(N-5)  f 38  7  0   2226.7  1021998.5 -0.0  2 0   401  829  262
[34]  77(N-4)  f 38  7  0  -5484.8  1022003.4  0.4  2 0   347  784  425
[35]  80(N-1)  f 43  7  0  -1729.1  1022001.1  0.1  2 0   935 1494  851
[49]  41(B05)  1 26 27  0   -243.7 20460014.0 -0.1  1 0  297  440  530
[50]  45(B09)  1  7 11  0    574.8 20459991.0 -0.1  1 0  493  299  498
[51]  57(B21)  1  7  7  0    574.0 20460000.9 -0.0  1 0  410  602  696
[52]  58(B22)  1  7  7  0    565.4 20459985.8  0.0  1 0  371  395  109
[53]  65(B29)  1  7  7  0  -2033.1 20460053.1 -0.1  1 0  806  223  248
$GNGGA,061905.981,,,,,0,00,,,M,,,,0000*20
$GNRMC,061905.981,A,,,,,,,090419,,*28
$GPGSA,A,1,,,,,,,,,,,,,,,*1E
$BDGSA,A,1,,,,,,,,,,,,,,,*0F
$GLGSA,A,1,,,,,,,,,,,,,,,*02
$GPGSV,2,1,06,04,00,000,44,07,00,000,41,09,00,000,44,23,00,000,43*75
$GPGSV,2,2,06,28,00,000,41,30,00,000,40*77
$BDGSV,2,1,05,05,00,000,39,09,00,000,39,21,00,000,41,22,00,000,43*63
$BDGSV,2,2,05,29,00,000,45*57
$B3CN0,0,0,0,0,0,0,0,0,0,0,0,0,0,0*4C
---00000018--- Acq_st=7 0  2000-1-1 0:1:15 
[00]  03(G04)  f 44  9  0  -1168.4  2046001.5 -0.0  2 0 1710 3232 1554
[01]  06(G07)  f 41  9  0  -3652.8  2046004.8  0.0  2 0 1024 1126  734
[02]  08(G09)  f 44 13  0     18.9  2046000.0  0.0  2 0 1776 2682 1155
[03]  22(G23)  f 43  7  0   1530.0  2045998.0  0.0  2 0 1518 2662 1403
[04]  27(G28)  f 41  7  0  -2929.7  2046003.7  0.1  2 0 1478 2128  790
[05]  29(G30)  f 40  8  0  -4340.4  2046005.6 -0.1  2 0 1265 1824  777
[17]  41(B05) 1f 39 14  0  -1103.3  4092002.8 -0.5  2 0  605  885  572
[18]  45(B09) 1f 39  7  0    613.7  4091998.3 -0.1  2 0  998 1116  477
[19]  57(B21) 1f 41  7  0    -76.2  4092000.1 -0.0  2 0  992 1297  557
[20]  58(B22) 1f 43  7  0    919.8  4091997.5 -0.1  2 0 1154 1595  578
[21]  65(B29) 1f 45  7  0  -3307.7  4092008.6  0.0  2 0 2132 3104 1778
[32]  75(N-6)  f 37  7  0    776.6  1021999.4  0.0  2 0   544  735  315
[33]  76(N-5)  f 39  8  0   2227.2  1021998.5 -0.1  2 0   571  920  430
[34]  77(N-4)  f 39  7  0  -5485.0  1022003.5 -0.3  2 0   609  898  733
[35]  80(N-1)  f 43  7  0  -1729.1  1022001.1  0.1  2 0   754 1215  375
[49]  41(B05)  1 21 23  0    352.9 20460020.0  0.0  1 0  543  350  222
[50]  45(B09)  1  9  7  0   1121.9 20459990.8 -0.0  1 0  673  396  233
[51]  57(B21)  1  7  7  0    971.8 20460002.1  0.1  1 0  273  383  169
[52]  58(B22)  1  7  7  0    521.2 20459984.7  0.1  1 0  363  316  429
[53]  65(B29)  1  7  7  0  -2038.0 20460053.6  0.0  1 0  678  521  353
$GNGGA,061906.981,,,,,0,00,,,M,,,,0000*23
$GNRMC,061906.981,A,,,,,,,090419,,*2B
$GPGSA,A,1,,,,,,,,,,,,,,,*1E
$BDGSA,A,1,,,,,,,,,,,,,,,*0F
$GLGSA,A,1,,,,,,,,,,,,,,,*02
$GPGSV,2,1,06,04,00,000,44,07,00,000,41,09,00,000,44,23,00,000,43*75
$GPGSV,2,2,06,28,00,000,41,30,00,000,40*77
$BDGSV,2,1,05,05,00,000,39,09,00,000,39,21,00,000,41,22,00,000,43*63
$BDGSV,2,2,05,29,00,000,45*57
$B3CN0,0,0,0,0,0,0,0,0,0,0,0,0,0,0*4C
---00000019--- Acq_st=7 0  2000-1-1 0:1:16 
[00]  03(G04)  f 44  7  0  -1165.7  2046001.5  0.0  2 0 1862 2698 1221
[01]  06(G07)  f 40  7  0  -3650.7  2046004.8  0.3  2 0  400 1219  572
[02]  08(G09)  f 43 12  0     19.3  2045999.9 -0.0  2 0 1500 2611 1380
[03]  22(G23)  f 43  8  0   1528.6  2045998.0 -0.0  2 0 1309 2182 1153
[04]  27(G28)  f 42  7  0  -2928.7  2046003.8  0.0  2 0  822 1356  752
[05]  29(G30)  f 41  7  0  -4341.5  2046005.5  0.0  2 0 1512 1569  978
[17]  41(B05) 1f 39 26  0  -1093.6  4092002.9 -0.2  2 0  563 1105  269
[18]  45(B09) 1f 38  8  0    615.8  4091998.3  0.1  2 0 1156 1347  724
[19]  57(B21) 1f 41  8  0    -83.0  4092000.1 -0.1  2 0  672 1418  964
[20]  58(B22) 1f 43  7  0    919.3  4091997.5  0.0  2 0 1679 1967  596
[21]  65(B29) 1f 44  7  0  -3305.6  4092008.6  0.0  2 0 2004 2914 1309
[32]  75(N-6)  f 37  7  0    777.5  1021999.4  0.2  2 0   532  771  450
[33]  76(N-5)  f 39 10  0   2228.3  1021998.6 -0.1  2 0   341  915  525
[34]  77(N-4)  f 40  7  0  -5481.6  1022003.4  0.4  2 0   920 1269  540
[35]  80(N-1)  f 42  7  0  -1726.7  1022001.1  0.1  2 0   568 1114  670
[49]  41(B05)  1 23 26  1   -630.3 20460025.3  0.0  1 0  278  181  351
[50]  45(B09)  1  7  7  0   1500.9 20459991.3  0.1  1 0  931  786  547
[51]  57(B21)  1  7  7  0    837.9 20460001.1  0.1  1 0  364  197  385
[52]  58(B22)  1  7  7  0    427.2 20459988.7 -0.1  1 0  260  546  400
[53]  65(B29)  1  7  7  0  -2068.4 20460052.4  0.1  1 0  383  391  278
$GNGGA,061907.981,,,,,0,00,,,M,,,,0000*22
$GNRMC,061907.981,A,,,,,,,090419,,*2A
$GPGSA,A,1,,,,,,,,,,,,,,,*1E
$BDGSA,A,1,,,,,,,,,,,,,,,*0F
$GLGSA,A,1,,,,,,,,,,,,,,,*02
$GPGSV,2,1,06,04,00,000,44,07,00,000,40,09,00,000,43,23,00,000,43*73
$GPGSV,2,2,06,28,00,000,42,30,00,000,41*75
$BDGSV,2,1,05,05,00,000,39,09,00,000,38,21,00,000,41,22,00,000,43*62
$BDGSV,2,2,05,29,00,000,44*56
$B3CN0,0,0,0,0,0,0,0,0,0,0,0,0,0,0*4C
---00000020--- Acq_st=3 0  2000-1-1 0:1:17 
[00]  03(G04)  f 43  7  0  -1167.4  2046001.5 -0.0  2 0 1696 2388  874
[01]  06(G07)  f 39  7  0  -3656.6  2046004.7 -0.1  2 0  405  507  313
[02]  08(G09)  f 43 13  0     19.1  2045999.9  0.0  2 0 1682 2692 1378
[03]  22(G23)  f 43  7  0   1528.4  2045998.0  0.0  2 0 1135 1773 1080
[04]  27(G28)  f 41  7  0  -2927.9  2046003.7 -0.0  2 0 1207 2241 1257
[05]  29(G30)  f 42  7  0  -4343.2  2046005.5  0.1  2 0 1258 2179 1027
[17]  41(B05) 1f 40 21  0  -1101.1  4092002.8 -0.6  2 0  825  887  472
[18]  45(B09) 1f 38  7  0    622.8  4091998.3  0.0  2 0  890 1207  427
[19]  57(B21) 1f 41  7  0    -77.5  4092000.1  0.0  2 0  670 1579 1101
[20]  58(B22) 1f 43  7  0    918.0  4091997.5  0.0  2 0 1138 1883  625
[21]  65(B29) 1f 44  7  0  -3305.7  4092008.6 -0.0  2 0 2093 2724 1265
[32]  75(N-6)  f 38  7  0    775.6  1021999.4 -0.1  2 0   546  741  193
[33]  76(N-5)  f 38 12  0   2225.9  1021998.6  0.1  2 0   490  845  458
[34]  77(N-4)  f 39  7  0  -5483.4  1022003.5  0.4  2 0   529 1057  695
[35]  80(N-1)  f 41  7  0  -1727.0  1022001.1 -0.1  2 0   406 1078  659
$GNGGA,061908.981,,,,,0,00,,,M,,,,0000*2D
$GNRMC,061908.981,A,,,,,,,090419,,*25
$GPGSA,A,1,,,,,,,,,,,,,,,*1E
$BDGSA,A,1,,,,,,,,,,,,,,,*0F
$GLGSA,A,1,,,,,,,,,,,,,,,*02
$GPGSV,2,1,06,04,00,000,43,07,00,000,39,09,00,000,43,23,00,000,43*7A
$GPGSV,2,2,06,28,00,000,41,30,00,000,42*75
$BDGSV,2,1,05,05,00,000,40,09,00,000,38,21,00,000,41,22,00,000,43*6C
$BDGSV,2,2,05,29,00,000,44*56
$B3CN0,0,0,0,0,0,0,0,0,0,0,0,0,0,0*4C
---00000021--- Acq_st=3 0  2000-1-1 0:1:18 
[00]  03(G04)  f 43  7  0  -1165.8  2046001.5 -0.0  2 0 1105 2402 1575
[01]  06(G07)  f 40  7  0  -3654.9  2046004.7 -0.1  2 0 1336 1835  549
[02]  08(G09)  f 43 15  0     20.4  2045999.9 -0.0  2 0 1303 2208  974
[03]  22(G23)  f 43  7  0   1529.1  2045998.0 -0.0  2 0 1493 2315  982
[04]  27(G28)  f 41  7  0  -2930.2  2046003.8 -0.0  2 0  912 1592  982
[05]  29(G30)  f 43  7  0  -4343.4  2046005.5 -0.0  2 0 1835 2686 1199
[17]  41(B05) 1f 39 27  0  -1106.5  4092002.8 -0.3  2 0  966 1261  612
[18]  45(B09) 1f 38  7  0    619.1  4091998.3 -0.0  2 0  921 1358  628
[19]  57(B21) 1f 41  7  0    -82.8  4092000.1 -0.0  2 0 1073 1264  555
[20]  58(B22) 1f 43  7  0    917.5  4091997.5 -0.0  2 0 1678 2290 1082
[21]  65(B29) 1f 44  7  0  -3310.4  4092008.6  0.1  2 0 2069 2339  763
[32]  75(N-6)  f 37  7  0    775.1  1021999.5 -0.2  2 0   444  803  508
[33]  76(N-5)  f 38  8  0   2226.1  1021998.5  0.0  2 0   525  825  261
[34]  77(N-4)  f 39  7  0  -5487.0  1022003.5 -0.1  2 0   652  644  299
[35]  80(N-1)  f 42  7  0  -1728.6  1022001.1  0.0  2 0  1296 1698  858
[49]  41(B05)  1 23 24  1  -1308.9 20460021.6  0.0  1 0  267  653  894
[50]  45(B09)  1  7  7  0    585.0 20459989.3  0.0  1 0  162  394  411
[51]  57(B21)  1  7  7  0    -50.9 20459999.1 -0.0  1 0  883  605  644
[52]  58(B22)  1  7  7  0    904.1 20459987.5 -0.2  1 0  280  344  330
[53]  65(B29)  1 10  7  0  -3056.5 20460053.0  0.0  1 0  195  108  182
$GNGGA,061909.981,,,,,0,00,,,M,,,,0000*2C
$GNRMC,061909.981,A,,,,,,,090419,,*24
$GPGSA,A,1,,,,,,,,,,,,,,,*1E
$BDGSA,A,1,,,,,,,,,,,,,,,*0F
$GLGSA,A,1,,,,,,,,,,,,,,,*02
$GPGSV,2,1,06,04,00,000,43,07,00,000,40,09,00,000,43,23,00,000,43*74
$GPGSV,2,2,06,28,00,000,41,30,00,000,43*74
$BDGSV,2,1,05,05,00,000,39,09,00,000,38,21,00,000,41,22,00,000,43*62
$BDGSV,2,2,05,29,00,000,44*56
$B3CN0,0,0,0,0,0,0,0,0,0,0,0,0,0,0*4C
---00000022--- Acq_st=3 0  2000-1-1 0:1:19 
[00]  03(G04)  f 43  7  0  -1165.1  2046001.5 -0.0  2 0  805 2103 1349
[01]  06(G07)  f 41  7  0  -3651.2  2046004.6  0.1  2 0 1024 1825  860
[02]  08(G09)  f 44 12  0     22.5  2045999.9  0.1  2 0 1584 2449 1195
[03]  22(G23)  f 43  7  0   1531.2  2045998.0  0.0  2 0 1556 2256  918
[04]  27(G28)  f 42  7  0  -2928.1  2046003.8 -0.1  2 0 1416 1214  232
[05]  29(G30)  f 44  7  0  -4339.4  2046005.5 -0.0  2 0 2046 2791 1346
[16]  38(B02)  1 10 36  1  -1250.0  4092003.8 -0.1  1 0  389  821  747
[17]  41(B05) 1f 39 10  0  -1098.7  4092002.8  0.8  2 0  799  930  440
[18]  45(B09) 1f 38  7  0    618.5  4091998.2 -0.1  2 0  784  810  334
[19]  57(B21) 1f 41  7  0    -79.1  4092000.1  0.1  2 0  782 1188  678
[20]  58(B22) 1f 43  7  0    920.3  4091997.5  0.0  2 0 1575 1671  821
[21]  65(B29) 1f 44  7  0  -3305.4  4092008.5 -0.0  2 0 1871 2421 1218
[32]  75(N-6)  f 36  7  0    779.2  1021999.5  0.0  2 0   367  632  594
[33]  76(N-5)  f 38 13  0   2224.2  1021998.5 -0.0  2 0   423  666  336
[34]  77(N-4)  f 38  7  0  -5481.8  1022003.5  0.1  2 0    92  479  278
[35]  80(N-1)  f 43  7  0  -1723.6  1022001.1 -0.0  2 0   803 1167  391
[49]  41(B05)  1 25 25  1  -1018.8 20460025.5  0.1  1 0  124  421  683
[50]  45(B09)  1  7  8  0    820.9 20459987.9 -0.0  1 0  353  680  339
[51]  57(B21)  1 10  7  0   -341.2 20459999.9 -0.0  1 0  557  804  524
[52]  58(B22)  1  7  7  0    971.6 20459988.0 -0.1  1 0  228  188  471
[53]  65(B29)  1  7  7  0  -3342.1 20460052.8 -0.2  1 0  500  496  450
$GNGGA,061910.981,,,,,0,00,,,M,,,,0000*24
$GNRMC,061910.981,A,,,,,,,090419,,*2C
$GPGSA,A,1,,,,,,,,,,,,,,,*1E
$BDGSA,A,1,,,,,,,,,,,,,,,*0F
$GLGSA,A,1,,,,,,,,,,,,,,,*02
$GPGSV,2,1,06,04,00,000,43,07,00,000,41,09,00,000,44,23,00,000,43*72
$GPGSV,2,2,06,28,00,000,42,30,00,000,44*70
$BDGSV,2,1,05,05,00,000,39,09,00,000,38,21,00,000,41,22,00,000,43*62
$BDGSV,2,2,05,29,00,000,44*56
$B3CN0,0,0,0,0,0,0,0,0,0,0,0,0,0,0*4C
---00000023--- Acq_st=3 0  2000-1-1 0:1:20 
[00]  03(G04)  f 43  7  0  -1166.5  2046001.5  0.0  2 0 1342 2134  922
[01]  06(G07)  f 42 11  0  -3653.4  2046004.6 -0.0  2 0 1570 1825  642
[02]  08(G09)  f 43  9  0     21.7  2045999.9 -0.0  2 0 1902 2645  994
[03]  22(G23)  f 43  7  0   1530.6  2045998.0  0.0  2 0 1622 2350 1171
[04]  27(G28)  f 41  7  0  -2931.1  2046003.8 -0.1  2 0  925 1223  504
[05]  29(G30)  f 44  7  0  -4341.8  2046005.6  0.0  2 0 1656 3159 1689
[16]  38(B02)  1 17 28  1  -1083.5  4092004.9  0.2  1 0  920  190  129
[17]  41(B05) 1f 39 24  0  -1101.3  4092002.8  0.9  2 0 1031 1229  578
[18]  45(B09) 1f 39  7  0    612.4  4091998.2 -0.0  2 0 1090 1207  325
[19]  57(B21) 1f 41  7  0    -77.9  4092000.1 -0.0  2 0  695  941  115
[20]  58(B22) 1f 43  7  0    917.7  4091997.5 -0.0  2 0 1524 2037  995
[21]  65(B29) 1f 44  7  0  -3308.1  4092008.5 -0.0  2 0 2181 2921 1006
[22]  42(B06)  1  7  7  0     69.1  4091998.1  0.1  1 0  481  807  282
[24]  46(B10)  1  7  7  0  -1432.9  4092004.0 -0.0  1 0   68  302  225
[32]  75(N-6)  f 35  7  0    778.6  1021999.5  0.1  2 0   254  550  198
[33]  76(N-5)  f 37  8  0   2225.6  1021998.6 -0.0  2 0   486  859  464
[34]  77(N-4)  f 37  7  0  -5483.7  1022003.5 -0.1  2 0   851 1095  284
[35]  80(N-1)  f 42  7  0  -1725.3  1022001.0 -0.0  2 0   908 1194  592
[49]  41(B05)  1 25 23  0  -1049.9 20460021.7  0.1  1 0  472  355  636
[50]  45(B09)  1  7  7  0    300.1 20459990.7 -0.0  1 0  154  229  118
[51]  57(B21)  1  7  7  0     58.9 20459999.9 -0.0  1 0  729  364  170
[52]  58(B22)  1 12  7  0    602.6 20459988.3 -0.0  1 0  226  465  591
[53]  65(B29)  1  7  7  0  -3759.6 20460052.5 -0.1  1 0  222   61   97
$GNGGA,061911.981,,,,,0,00,,,M,,,,0000*25
$GNRMC,061911.981,A,,,,,,,090419,,*2D
$GPGSA,A,1,,,,,,,,,,,,,,,*1E
$BDGSA,A,1,,,,,,,,,,,,,,,*0F
$GLGSA,A,1,,,,,,,,,,,,,,,*02
$GPGSV,2,1,06,04,00,000,43,07,00,000,42,09,00,000,43,23,00,000,43*76
$GPGSV,2,2,06,28,00,000,41,30,00,000,44*73
$BDGSV,2,1,05,05,00,000,39,09,00,000,39,21,00,000,41,22,00,000,43*63
$BDGSV,2,2,05,29,00,000,44*56
$B3CN0,0,0,0,0,0,0,0,0,0,0,0,0,0,0*4C
---00000024--- Acq_st=3 0  2000-1-1 0:1:21 
[00]  03(G04)  f 42  7  0  -1167.8  2046001.5  0.0  2 0 1406 2120 1344
[01]  06(G07)  f 42  7  0  -3652.5  2046004.6  0.0  2 0 1330 1864  907
[02]  08(G09)  f 43 15  0     20.4  2045999.9  0.0  2 0 2343 2983 1827
[03]  22(G23)  f 43  7  0   1529.0  2045997.9 -0.0  2 0 1903 2423  739
[04]  27(G28)  f 42  7  0  -2928.8  2046003.7  0.1  2 0 1169 1130  331
[05]  29(G30)  f 44  7  0  -4342.2  2046005.6 -0.0  2 0 2064 3373 1373
[16]  38(B02)  7 30 25  0  -1097.6  4092002.6 -0.2  2 0 1057  553  282
[17]  41(B05) 1f 39 24  0  -1098.9  4092002.7 -0.2  2 0  956  983  424
[18]  45(B09) 1f 39  7  0    619.6  4091998.3  0.1  2 0 1036 1003  487
[19]  57(B21) 1f 41  7  0    -80.2  4092000.1 -0.1  2 0  908 1219  523
[20]  58(B22) 1f 43  7  0    917.2  4091997.5  0.0  2 0 1707 2084  804
[21]  65(B29) 1f 44  7  0  -3307.1  4092008.5  0.0  2 0 1615 2517 1186
[22]  42(B06)  1  7  7  0     -3.9  4091998.2  0.1  1 0  380  606  489
[24]  46(B10)  1  7  7  0  -1283.0  4092003.2  0.1  1 0  448  825  295
[32]  75(N-6)  f 34  7  0    778.1  1021999.4 -0.1  2 0   361  641  640
[33]  76(N-5)  f 37 10  0   2224.5  1021998.6 -0.1  2 0   145  623  201
[34]  77(N-4)  f 36  7  0  -5488.3  1022003.5 -0.0  2 0   382  607  207
[35]  80(N-1)  f 43  7  0  -1725.5  1022001.1 -0.0  2 0   709 1404  567
[49]  41(B05)  1 24 26  1   -497.1 20460026.8 -0.2  1 0  839  984  210
[50]  45(B09)  1  7  7  0    303.0 20459990.9 -0.1  1 0  283  633  273
[51]  57(B21)  1  7  7  0    -16.5 20460001.2  0.1  1 0  555  327  718
[52]  58(B22)  1  7  7  0    608.1 20459986.4 -0.1  1 0  172  433  310
[53]  65(B29)  1  7  7  0  -3868.8 20460053.9  0.0  1 0  367  559  533
$GNGGA,061912.981,,,,,0,00,,,M,,,,0000*26
$GNRMC,061912.981,A,,,,,,,090419,,*2E
$GPGSA,A,1,,,,,,,,,,,,,,,*1E
$BDGSA,A,1,,,,,,,,,,,,,,,*0F
$GLGSA,A,1,,,,,,,,,,,,,,,*02
$GPGSV,2,1,06,04,00,000,42,07,00,000,42,09,00,000,43,23,00,000,43*77
$GPGSV,2,2,06,28,00,000,42,30,00,000,44*70
$BDGSV,2,1,06,02,00,000,30,05,00,000,39,09,00,000,39,21,00,000,41*66
$BDGSV,2,2,06,22,00,000,43,29,00,000,44*62
$B3CN0,0,0,0,0,0,0,0,0,0,0,0,0,0,0*4C
---00000025--- Acq_st=3 0  2000-1-1 0:1:22 
[00]  03(G04)  f 43  7  0  -1164.3  2046001.5 -0.0  2 0 1722 2423  670
[01]  06(G07)  f 41  7  0  -3650.4  2046004.6  0.0  2 0 1182 1884  971
[02]  08(G09)  f 44 13  0     21.6  2045999.9 -0.0  2 0 2078 2694 1473
[03]  22(G23)  f 43  7  0   1535.4  2045997.9 -0.0  2 0 1452 1796 1007
[04]  27(G28)  f 41  7  0  -2925.8  2046003.8 -0.1  2 0 1293 1515  721
[05]  29(G30)  f 44  7  0  -4340.6  2046005.6 -0.0  2 0 1920 3028 1474
[16]  38(B02)  7 32 25  0  -1100.7  4092002.8 -0.2  2 0  953  722  293
[17]  41(B05) 1f 41 21  0  -1098.8  4092002.8  0.8  2 0 1012 1111  529
[18]  45(B09) 1f 39  7  0    622.6  4091998.2 -0.1  2 0  983 1362  395
[19]  57(B21) 1f 41  7  0    -79.5  4092000.1  0.1  2 0  622  916  716
[20]  58(B22) 1f 43  7  0    920.4  4091997.5 -0.0  2 0 1678 2422 1371
[21]  65(B29) 1f 44  7  0  -3304.2  4092008.6  0.0  2 0 2083 2885 1263
[22]  42(B06)  1  7  7  0    100.2  4091998.1  0.1  1 0  135  388  436
[24]  46(B10)  7 34  7  0  -1272.3  4092003.2  0.2  5 0  836  911  585
[32]  75(N-6)  f 36  7  0    781.5  1021999.5  0.0  2 0   397  431  309
[33]  76(N-5)  f 37 10  0   2226.1  1021998.6  0.0  2 0   779  792  522
[34]  77(N-4)  f 34  7  0  -5484.4  1022003.5  0.1  2 0   407  742  273
[35]  80(N-1)  f 42  7  0  -1721.4  1022001.1  0.1  2 0   668 1325  710
$GNGGA,061913.981,,,,,0,00,,,M,,,,0000*27
$GNRMC,061913.981,A,,,,,,,090419,,*2F
$GPGSA,A,1,,,,,,,,,,,,,,,*1E
$BDGSA,A,1,,,,,,,,,,,,,,,*0F
$GLGSA,A,1,,,,,,,,,,,,,,,*02
$GPGSV,2,1,06,04,00,000,43,07,00,000,41,09,00,000,44,23,00,000,43*72
$GPGSV,2,2,06,28,00,000,41,30,00,000,44*73
$BDGSV,2,1,07,02,00,000,32,05,00,000,41,09,00,000,39,21,00,000,41*6A
$BDGSV,2,2,07,22,00,000,43,29,00,000,44,10,00,000,34*55
$B3CN0,0,0,0,0,0,0,0,0,0,0,0,0,0,0*4C
---00000026--- Acq_st=3 0  2000-1-1 0:1:23 
[00]  03(G04)  f 44  7  0  -1163.3  2046001.5  0.0  2 0 1433 2242 1138
[01]  06(G07)  f 41  7  0  -3650.3  2046004.7  0.1  2 0  892 1517  609
[02]  08(G09)  f 45 14  0     22.6  2045999.9 -0.0  2 0 2557 3269 1279
[03]  22(G23)  f 43  7  0   1531.8  2045998.0  0.0  2 0 1593 2599 1469
[04]  27(G28)  f 42  7  0  -2926.3  2046003.7 -0.0  2 0 1021 1366  679
[05]  29(G30)  f 44  7  0  -4341.7  2046005.6 -0.0  2 0 2515 3540 1460
[16]  38(B02)  7 32 23  0  -1095.5  4092002.5 -0.3  2 0  742  403  143
[17]  41(B05) 1f 39 25  0  -1100.0  4092002.7  0.5  2 0  776  526  373
[18]  45(B09) 1f 39  7  0    616.5  4091998.2 -0.1  2 0 1003  844  466
[19]  57(B21) 1f 41  7  0    -81.2  4092000.1  0.0  2 0  959 1025  366
[20]  58(B22) 1f 43  7  0    922.5  4091997.5 -0.1  2 0 1476 2261 1358
[21]  65(B29) 1f 44  7  0  -3301.7  4092008.5 -0.0  2 0 2021 2824 1129
[22]  42(B06)  1  7  7  0     64.9  4091998.4 -0.1  1 0  454  685  740
[24]  46(B10)  7 36 12  0  -1265.6  4092003.2 -0.2  2 0  724  586  419
[32]  75(N-6)  f 37  7  0    779.5  1021999.5 -0.0  2 0   505  665  140
[33]  76(N-5)  f 38  7  0   2227.0  1021998.5 -0.0  2 0   600 1189  646
[34]  77(N-4)  f 34  7  0  -5483.9  1022003.5 -0.0  2 0   121  366  395
[35]  80(N-1)  f 43  7  0  -1723.3  1022001.1  0.0  2 0  1051 1619  735
[49]  41(B05)  1 24 23  0   -341.3 20460014.6  0.1  1 0  631  250  512
[50]  45(B09)  1  7  7  0    459.0 20459989.7  0.0  1 0  324  343  526
[51]  57(B21)  1  8 11  0   -175.5 20460000.5 -0.0  1 0  669  832  681
[52]  58(B22)  1  7  7  0   1140.2 20459986.7 -0.0  1 0  226  281  192
[53]  65(B29)  1  7  7  0  -2882.0 20460052.0 -0.2  1 0  277  245  304
$GNGGA,061914.981,,,,,0,00,,,M,,,,0000*20
$GNRMC,061914.981,A,,,,,,,090419,,*28
$GPGSA,A,1,,,,,,,,,,,,,,,*1E
$BDGSA,A,1,,,,,,,,,,,,,,,*0F
$GLGSA,A,1,,,,,,,,,,,,,,,*02
$GPGSV,2,1,06,04,00,000,44,07,00,000,41,09,00,000,45,23,00,000,43*74
$GPGSV,2,2,06,28,00,000,42,30,00,000,44*70
$BDGSV,2,1,07,02,00,000,32,05,00,000,39,09,00,000,39,21,00,000,41*65
$BDGSV,2,2,07,22,00,000,43,29,00,000,44,10,00,000,36*57
$B3CN0,0,0,0,0,0,0,0,0,0,0,0,0,0,0*4C
---00000027--- Acq_st=7 0  2000-1-1 0:1:24 
[00]  03(G04)  f 44  7  0  -1162.6  2046001.4  0.0  2 0 1261 2521 1190
[01]  06(G07)  f 41  7  0  -3648.6  2046004.7 -0.0  2 0 1115 2036  844
[02]  08(G09)  f 45  7  0     25.1  2045999.9  0.1  2 0 2656 3500 1377
[03]  22(G23)  f 43  7  0   1537.7  2045997.9  0.0  2 0 1269 2932 1383
[04]  27(G28)  f 41  7  0  -2921.9  2046003.7  0.0  2 0 1275 1434  924
[05]  29(G30)  f 43  7  0  -4338.2  2046005.6  0.1  2 0 1660 2633 1257
[16]  38(B02)  f 35 21  0  -1091.8  4092002.6  0.3  2 0 1154  921  508
[17]  41(B05) 1f 38 23  0  -1095.8  4092002.8 -0.0  2 0  659 1171  339
[18]  45(B09) 1f 39  7  0    617.9  4091998.2  0.0  2 0  621  975  402
[19]  57(B21) 1f 41  7  0    -71.1  4092000.0  0.0  2 0 1111 1414  654
[20]  58(B22) 1f 43  7  0    921.2  4091997.5  0.0  2 0 1612 1601  661
[21]  65(B29) 1f 44  7  0  -3302.0  4092008.5  0.0  2 0 1699 2229 1043
[24]  46(B10) 1f 36  9  0  -1265.1  4092003.2  0.3  2 0  405  808  282
[32]  75(N-6)  f 37  7  0    784.3  1021999.4  0.0  2 0   381  665  278
[33]  76(N-5)  f 38 12  0   2229.0  1021998.5 -0.0  2 0   584  543  257
[34]  77(N-4)  f 36  7  0  -5478.9  1022003.5 -0.0  2 0   254  600  226
[35]  80(N-1)  f 43  7  0  -1720.2  1022001.1  0.1  2 0   479 1318  620
[49]  41(B05)  1 20 22  0   -150.9 20460017.2  0.0  1 0  599  541  207
[50]  45(B09)  1  8  7  0    687.0 20459991.7 -0.0  1 0  624  136  299
[51]  57(B21)  1  7  7  0   -383.8 20460001.4 -0.0  1 0  109  209  386
[52]  58(B22)  1  9  7  0   1284.3 20459984.9 -0.1  1 0  464  104  280
[53]  65(B29)  1 10  7  0  -3400.5 20460051.8  0.0  1 0  525  168  243
$GNGGA,061915.981,,,,,0,00,,,M,,,,0000*21
$GNRMC,061915.981,A,,,,,,,090419,,*29
$GPGSA,A,1,,,,,,,,,,,,,,,*1E
$BDGSA,A,1,,,,,,,,,,,,,,,*0F
$GLGSA,A,1,,,,,,,,,,,,,,,*02
$GPGSV,2,1,06,04,00,000,44,07,00,000,41,09,00,000,45,23,00,000,43*74
$GPGSV,2,2,06,28,00,000,41,30,00,000,43*74
$BDGSV,2,1,07,02,00,000,35,05,00,000,38,09,00,000,39,21,00,000,41*63
$BDGSV,2,2,07,22,00,000,43,29,00,000,44,10,00,000,36*57
$B3CN0,0,0,0,0,0,0,0,0,0,0,0,0,0,0*4C
---00000028--- Acq_st=7 0  2000-1-1 0:1:25 
[00]  03(G04)  f 43  7  0  -1160.0  2046001.4  0.0  2 0 1742 2280  875
[01]  06(G07)  f 40 11  0  -3652.3  2046004.8  0.0  2 0  659 1144  500
[02]  08(G09)  f 45  8  0     24.6  2045999.9 -0.0  2 0 2832 3619 1546
[03]  22(G23)  f 43  7  0   1531.8  2045997.9 -0.1  2 0 2005 2563  849
[04]  27(G28)  f 41  7  0  -2927.2  2046003.7 -0.1  2 0 1507 1976 1005
[05]  29(G30)  f 43  7  0  -4341.8  2046005.6 -0.0  2 0 1321 1912 1078
[16]  38(B02)  f 35 28  0  -1094.9  4092002.7  0.4  2 0 1046  751  326
[17]  41(B05) 1f 39 30  0  -1100.2  4092002.9  0.3  2 0  883 1066  704
[18]  45(B09) 1f 39  7  0    613.5  4091998.2  0.0  2 0 1002 1398  739
[19]  57(B21) 1f 40  7  0    -71.6  4092000.1  0.0  2 0 1528 1774 1053
[20]  58(B22) 1f 43  7  0    915.6  4091997.5  0.0  2 0 2049 2320 1089
[21]  65(B29) 1f 43  7  0  -3303.5  4092008.5 -0.0  2 0 2302 2897  932
[24]  46(B10) 1f 36  7  0  -1264.7  4092003.2  0.1  2 0  598  842  386
[32]  75(N-6)  f 37  7  0    784.8  1021999.5  0.1  2 0   447  486  390
[33]  76(N-5)  f 38  7  0   2226.3  1021998.5  0.1  2 0   556 1074  533
[34]  77(N-4)  f 35  7  0  -5482.3  1022003.5  0.1  2 0   385  489  179
[35]  80(N-1)  f 43  7  0  -1722.1  1022001.1  0.0  2 0   865 1287  632
[49]  41(B05)  1 26 23  1    -54.3 20460023.5  0.1  1 0  488  589  616
[50]  45(B09)  1  7  7  0    940.6 20459989.9 -0.0  1 0  520  287   12
[51]  57(B21)  1  9  7  0   -267.7 20460001.2 -0.1  1 0  552  279  770
[52]  58(B22)  1  9  7  0    891.1 20459986.4 -0.1  1 0  265  311  268
[53]  65(B29)  1  7  7  0  -3269.4 20460055.2  0.1  1 0  565  753  693
[56]  46(B10)  1  7  7  0  -1145.7 20460020.1 -0.0  1 0  827 1137  564
$GNGGA,061916.981,,,,,0,00,,,M,,,,0000*22
$GNRMC,061916.981,A,,,,,,,090419,,*2A
$GPGSA,A,1,,,,,,,,,,,,,,,*1E
$BDGSA,A,1,,,,,,,,,,,,,,,*0F
$GLGSA,A,1,,,,,,,,,,,,,,,*02
$GPGSV,2,1,06,04,00,000,43,07,00,000,40,09,00,000,45,23,00,000,43*72
$GPGSV,2,2,06,28,00,000,41,30,00,000,43*74
$BDGSV,2,1,07,02,00,000,35,05,00,000,39,09,00,000,39,21,00,000,40*63
$BDGSV,2,2,07,22,00,000,43,29,00,000,43,10,00,000,36*50
$B3CN0,0,0,0,0,0,0,0,0,0,0,0,0,0,0*4C
---00000029--- Acq_st=3 0  2000-1-1 0:1:26 
[00]  03(G04)  f 44  7  0  -1159.2  2046001.4 -0.0  2 0 2055 3042 1548
[01]  06(G07)  f 40  7  0  -3648.0  2046004.7  0.0  2 0  104 1109  756
[02]  08(G09)  f 45  7  0     26.5  2045999.9 -0.1  2 0 2686 3779 1540
[03]  22(G23)  f 44  7  0   1535.5  2045997.9 -0.0  2 0 2442 3108 1419
[04]  27(G28)  f 42  7  0  -2924.6  2046003.7  0.0  2 0  862 1110  734
[05]  29(G30)  f 42  7  0  -4335.7  2046005.6 -0.0  2 0 1091 1703  858
[16]  38(B02) 1f 36 19  0  -1100.2  4092002.7  0.9  2 0  950  646  487
[17]  41(B05) 1f 39 24  0  -1098.3  4092002.7 -0.9  2 0  786  796  176
[18]  45(B09) 1f 39  8  0    622.4  4091998.2 -0.0  2 0  596 1196  437
[19]  57(B21) 1f 41  7  0    -74.0  4092000.1  0.1  2 0 1128 1373  676
[20]  58(B22) 1f 42  7  0    921.2  4091997.5 -0.0  2 0 1615 2143  646
[21]  65(B29) 1f 44  7  0  -3302.1  4092008.5 -0.0  2 0 2138 2946 1073
[24]  46(B10) 1f 35  7  0  -1253.1  4092003.2 -0.2  2 0  413  580   94
[32]  75(N-6)  f 37  7  0    786.2  1021999.5  0.1  2 0   167  379  241
[33]  76(N-5)  f 38 13  0   2227.9  1021998.5 -0.0  2 0   303  953  539
[34]  77(N-4)  f 34  7  0  -5479.9  1022003.4 -0.1  2 0   383  455  425
[35]  80(N-1)  f 42  7  0  -1719.1  1022001.1  0.1  2 0   559 1449  869
[49]  41(B05)  1 26 26  1    -42.9 20460019.8 -0.0  1 0  403  264  343
[50]  45(B09)  1  7  7  0    740.1 20459991.7 -0.0  1 0   43  339  799
[51]  57(B21)  1  7  7  0    299.3 20460001.2  0.0  1 0  505  278  438
[52]  58(B22)  1  7  9  0    921.9 20459986.0 -0.1  1 0  173  181  135
[53]  65(B29)  1  7  7  0  -3886.0 20460055.3  0.1  1 0  598  665  202
[56]  46(B10)  1  7  7  0  -1370.0 20460022.8  0.1  1 0  692  686  356
$GNGGA,061917.981,,,,,0,00,,,M,,,,0000*23
$GNRMC,061917.981,A,,,,,,,090419,,*2B
$GPGSA,A,1,,,,,,,,,,,,,,,*1E
$BDGSA,A,1,,,,,,,,,,,,,,,*0F
$GLGSA,A,1,,,,,,,,,,,,,,,*02
$GPGSV,2,1,06,04,00,000,44,07,00,000,40,09,00,000,45,23,00,000,44*72
$GPGSV,2,2,06,28,00,000,42,30,00,000,42*76
$BDGSV,2,1,07,02,00,000,36,05,00,000,39,09,00,000,39,21,00,000,41*61
$BDGSV,2,2,07,22,00,000,42,29,00,000,44,10,00,000,35*55
$B3CN0,0,0,0,0,0,0,0,0,0,0,0,0,0,0*4C
---00000030--- Acq_st=3 0  2000-1-1 0:1:27 
[00]  03(G04)  f 44  7  0  -1162.2  2046001.4  0.0  2 0 1566 2473 1329
[01]  06(G07)  f 40  7  0  -3652.8  2046004.7 -0.1  2 0 1184 1736  642
[02]  08(G09)  f 45  7  0     23.3  2045999.9 -0.0  2 0 2271 3209 1266
[03]  22(G23)  f 44  7  0   1533.0  2045998.0 -0.0  2 0 1531 2715 1194
[04]  27(G28)  f 42  8  0  -2927.9  2046003.7 -0.0  2 0 1622 2282  996
[05]  29(G30)  f 40  7  0  -4346.8  2046005.7  0.0  2 0  452 1064  811
[16]  38(B02) 1f 36 26  0  -1094.9  4092002.9 -0.3  2 0  360  835  270
[17]  41(B05) 1f 39 25  0  -1105.6  4092002.7 -0.8  2 0  783 1167  468
[18]  45(B09) 1f 39  7  0    613.2  4091998.3 -0.0  2 0 1194 1585  696
[19]  57(B21) 1f 41  7  0    -74.5  4092000.1 -0.1  2 0 1362 1490  531
[20]  58(B22) 1f 42  7  0    921.7  4091997.5 -0.0  2 0 1472 1906  996
[21]  65(B29) 1f 44  7  0  -3304.3  4092008.5 -0.0  2 0 1933 2453 1171
[24]  46(B10) 1f 36 12  0  -1268.6  4092003.2  0.2  2 0  462 1023  264
[32]  75(N-6)  f 38  7  0    784.3  1021999.4 -0.0  2 0   609 1087  441
[33]  76(N-5)  f 38 11  0   2223.9  1021998.6  0.0  2 0   570 1018  866
[34]  77(N-4)  f 34  7  0  -5486.9  1022003.5  0.1  2 0   514  509  367
[35]  80(N-1)  f 42  7  0  -1721.4  1022001.1  0.0  2 0   867 1306  704
[48]  38(B02)  1 10 10  1  -1076.0 20460019.4  0.0  1 0  759  388  512
[56]  46(B10)  1  7  7  0   -953.4 20460020.2  0.2  1 0  643  487  313
$GNGGA,061918.981,,,,,0,00,,,M,,,,0000*2C
$GNRMC,061918.981,A,,,,,,,090419,,*24
$GPGSA,A,1,,,,,,,,,,,,,,,*1E
$BDGSA,A,1,,,,,,,,,,,,,,,*0F
$GLGSA,A,1,,,,,,,,,,,,,,,*02
$GPGSV,2,1,06,04,00,000,44,07,00,000,40,09,00,000,45,23,00,000,44*72
$GPGSV,2,2,06,28,00,000,42,30,00,000,40*74
$BDGSV,2,1,07,02,00,000,36,05,00,000,39,09,00,000,39,21,00,000,41*61
$BDGSV,2,2,07,22,00,000,42,29,00,000,44,10,00,000,36*56
$B3CN0,0,0,0,0,0,0,0,0,0,0,0,0,0,0*4C
---00000031--- Acq_st=3 0  2000-1-1 0:1:28 
[00]  03(G04)  f 44  7  0  -1159.5  2046001.4 -0.1  2 0 1589 2344 1135
[01]  06(G07)  f 40  7  0  -3652.1  2046004.6 -0.0  2 0  382 1333  818
[02]  08(G09)  f 45  9  0     24.7  2045999.9  0.0  2 0 2013 3112  989
[03]  22(G23)  f 44  7  0   1536.0  2045997.9 -0.0  2 0 1204 2518 1393
[04]  27(G28)  f 42  7  0  -2925.4  2046003.7 -0.1  2 0 1204 1557  775
[05]  29(G30)  f 38  7  0  -4342.9  2046005.7 -0.4  2 0  413  932  337
[16]  38(B02) 1f 36 27  0  -1099.7  4092002.7 -0.0  2 0  840  764  613
[17]  41(B05) 1f 39 27  0  -1097.3  4092002.8 -0.3  2 0  741 1016  714
[18]  45(B09) 1f 40  8  0    621.2  4091998.3 -0.1  2 0 1098 1120  734
[19]  57(B21) 1f 41  7  0    -73.4  4092000.1 -0.0  2 0 1152 1409  642
[20]  58(B22) 1f 42  7  0    920.6  4091997.5 -0.0  2 0 1148 1667  634
[21]  65(B29) 1f 44  7  0  -3301.6  4092008.5  0.0  2 0 2101 2622  992
[24]  46(B10) 1f 36  7  0  -1270.2  4092003.2  0.0  2 0  824  882  334
[32]  75(N-6)  f 39  7  0    784.0  1021999.5  0.4  2 0   537  716  609
[33]  76(N-5)  f 38 14  0   2225.4  1021998.6  0.1  2 0   299  639  381
[34]  77(N-4)  f 35  7  0  -5483.5  1022003.6  0.0  2 0   298  373  393
[35]  80(N-1)  f 43  7  0  -1719.3  1022001.1 -0.1  2 0   851 1494  772
[48]  38(B02)  f 13 10  0   -781.2 20460013.9  0.1  2 0  719  378  134
[49]  41(B05)  1 24 22  0   -791.3 20460020.2 -0.1  1 0  523  355  670
[50]  45(B09)  1  7  7  0    453.5 20459990.1 -0.0  1 0  211  326  200
[51]  57(B21)  1  7  7  0     17.7 20460000.6  0.2  1 0  465  400  316
[52]  58(B22)  1  7  7  0   1271.0 20459986.0  0.1  1 0  314  347  287
[53]  65(B29)  1  7  7  0  -2387.1 20460052.0  0.0  1 0  372  215  309
[56]  46(B10)  1  7  7  0   -810.4 20460020.4  0.0  1 0  441  762  507
$GNGGA,061919.981,,,,,0,00,,,M,,,,0000*2D
$GNRMC,061919.981,A,,,,,,,090419,,*25
$GPGSA,A,1,,,,,,,,,,,,,,,*1E
$BDGSA,A,1,,,,,,,,,,,,,,,*0F
$GLGSA,A,1,,,,,,,,,,,,,,,*02
$GPGSV,2,1,06,04,00,000,44,07,00,000,40,09,00,000,45,23,00,000,44*72
$GPGSV,2,2,06,28,00,000,42,30,00,000,38*7B
$BDGSV,2,1,07,02,00,000,36,05,00,000,39,09,00,000,40,21,00,000,41*6F
$BDGSV,2,2,07,22,00,000,42,29,00,000,44,10,00,000,36*56
$B3CN0,0,0,0,0,0,0,0,0,0,0,0,0,0,0*4C
---00000032--- Acq_st=3 0  2000-1-1 0:1:29 
[00]  03(G04)  f 44  7  0  -1156.4  2046001.5  0.0  2 0 1472 2581 1362
[01]  06(G07)  f 40  8  0  -3651.6  2046004.7 -0.0  2 0  627 1290  783
[02]  08(G09)  f 45  8  0     26.0  2045999.9 -0.1  2 0 2263 3917 2034
[03]  22(G23)  f 44  7  0   1533.5  2045998.0  0.0  2 0 1602 2915 1732
[04]  27(G28)  f 42  7  0  -2926.1  2046003.7 -0.1  2 0 1165 1830  483
[05]  29(G30)  f 38  7  0  -4343.2  2046005.6 -0.4  2 0  814 1380 1056
[16]  38(B02) 1f 36 23  0  -1102.2  4092002.9  0.3  2 0  312  517  299
[17]  41(B05) 1f 40 19  0  -1099.4  4092002.7 -0.7  2 0 1026  990  477
[18]  45(B09) 1f 40  8  0    619.0  4091998.3  0.1  2 0 1066 1175  470
[19]  57(B21) 1f 41  7  0    -79.5  4092000.1 -0.1  2 0  658 1027  439
[20]  58(B22) 1f 41  7  0    921.0  4091997.5 -0.0  2 0  667 1063  537
[21]  65(B29) 1f 44  7  0  -3304.2  4092008.5  0.1  2 0 2428 2394  720
[24]  46(B10) 1f 35 10  0  -1276.4  4092003.2 -0.2  2 0  735  575  339
[32]  75(N-6)  f 40  7  0    786.8  1021999.4  0.5  2 0   449 1014  571
[33]  76(N-5)  f 38 12  0   2224.9  1021998.6  0.0  2 0   594  823  269
[34]  77(N-4)  f 35  7  0  -5481.7  1022003.4  0.0  2 0   700  510  169
[35]  80(N-1)  f 43  7  0  -1717.7  1022001.1  0.0  2 0   844 1456  729
[48]  38(B02)  f 10 21  1   -862.8 20460016.3  0.2  2 0  474  193  423
[49]  41(B05)  1 23 23  1   -440.6 20460020.3  0.1  1 0  300  283  237
[50]  45(B09)  1  7  7  0    458.2 20459992.7 -0.1  1 0  269  954  788
[51]  57(B21)  1  7  7  0   -200.3 20460002.0 -0.2  1 0  354  232  115
[52]  58(B22)  1 12  7  0   1559.5 20459986.9  0.1  1 0  254  526   89
[53]  65(B29)  1  7  7  0  -2439.0 20460052.9 -0.1  1 0  722  519  921
$GNGGA,061920.981,,,,,0,00,,,M,,,,0000*27
$GNRMC,061920.981,A,,,,,,,090419,,*2F
$GPGSA,A,1,,,,,,,,,,,,,,,*1E
$BDGSA,A,1,,,,,,,,,,,,,,,*0F
$GLGSA,A,1,,,,,,,,,,,,,,,*02
$GPGSV,2,1,06,04,00,000,44,07,00,000,40,09,00,000,45,23,00,000,44*72
$GPGSV,2,2,06,28,00,000,42,30,00,000,38*7B
$BDGSV,2,1,07,02,00,000,36,05,00,000,40,09,00,000,40,21,00,000,41*61
$BDGSV,2,2,07,22,00,000,41,29,00,000,44,10,00,000,35*56
$B3CN0,0,0,0,0,0,0,0,0,0,0,0,0,0,0*4C
---00000033--- Acq_st=3 0  2000-1-1 0:1:30 
[00]  03(G04)  f 43  7  0  -1164.7  2046001.5 -0.1  2 0  934 2210 1002
[01]  06(G07)  f 40  8  0  -3654.2  2046004.7  0.0  2 0 1358 1598  836
[02]  08(G09)  f 45  8  0     23.1  2045999.9  0.0  2 0 2101 3173 1175
[03]  22(G23)  f 43  7  0   1528.0  2045998.0  0.0  2 0 1306 2345 1390
[04]  27(G28)  f 43  7  0  -2927.3  2046003.7  0.0  2 0 1148 2000  844
[05]  29(G30)  f 40  7  0  -4345.5  2046005.5 -0.2  2 0  844 1029  192
[16]  38(B02) 1f 36 29  0  -1100.6  4092002.8  0.1  2 0  803 1050  699
[17]  41(B05) 1f 38 26  0  -1105.0  4092002.7  0.3  2 0  727  991  334
[18]  45(B09) 1f 39  7  0    614.9  4091998.2 -0.0  2 0  858  741  144
[19]  57(B21) 1f 40  7  0    -79.1  4092000.1 -0.1  2 0  668  950  576
[20]  58(B22) 1f 41  7  0    914.4  4091997.5 -0.0  2 0  875  977  464
[21]  65(B29) 1f 44  7  0  -3307.9  4092008.5  0.0  2 0 2004 2539 1105
[24]  46(B10) 1f 36  7  0  -1275.3  4092003.2 -0.0  2 0  261  716  434
[32]  75(N-6)  f 40  7  0    784.1  1021999.5 -0.0  2 0   108  565  654
[33]  76(N-5)  f 39 11  0   2221.3  1021998.5  0.0  2 0   380  481  478
[34]  77(N-4)  f 35  7  0  -5487.0  1022003.5  0.1  2 0   291  770  731
[35]  80(N-1)  f 43  7  0  -1721.4  1022001.0 -0.0  2 0   748 1391  652
[48]  38(B02)  f 19 19  1  -1286.7 20460020.1 -0.0  2 0  421  186  152
[49]  41(B05)  1 26 24  0   -379.7 20460020.2 -0.0  1 0  528  702  570
[50]  45(B09)  1 10  7  0    957.0 20459992.0 -0.1  1 0  427  468  420
[51]  57(B21)  1  7  7  0    161.4 20460001.4  0.0  1 0  342  153  314
[52]  58(B22)  1  7  7  0   1542.9 20459986.0  0.0  1 0  648  981  580
[53]  65(B29)  1  7  7  0  -2887.9 20460053.2  0.1  1 0  315  829 1069
$GNGGA,061921.981,,,,,0,00,,,M,,,,0000*26
$GNRMC,061921.981,A,,,,,,,090419,,*2E
$GPGSA,A,1,,,,,,,,,,,,,,,*1E
$BDGSA,A,1,,,,,,,,,,,,,,,*0F
$GLGSA,A,1,,,,,,,,,,,,,,,*02
$GPGSV,2,1,06,04,00,000,43,07,00,000,40,09,00,000,45,23,00,000,43*72
$GPGSV,2,2,06,28,00,000,43,30,00,000,40*75
$BDGSV,2,1,07,02,00,000,36,05,00,000,38,09,00,000,39,21,00,000,40*61
$BDGSV,2,2,07,22,00,000,41,29,00,000,44,10,00,000,36*55
$B3CN0,0,19,0,0,0,0,0,0,0,0,0,0,0,0*74
---00000034--- Acq_st=3 0  2000-1-1 0:1:31 
[00]  03(G04)  f 43  8  0  -1161.8  2046001.5  0.1  2 0 1364 1854 1277
[01]  06(G07)  f 40 11  0  -3654.5  2046004.6  0.1  2 0  594 1252  451
[02]  08(G09)  f 44  7  0     21.5  2045999.9 -0.0  2 0 2557 3486 1369
[03]  22(G23)  f 43  7  0   1529.9  2045998.0  0.0  2 0 1308 2252  903
[04]  27(G28)  f 42  9  0  -2931.1  2046003.8 -0.0  2 0 1472 2297 1247
[05]  29(G30)  f 42  7  0  -4348.4  2046005.5 -0.0  2 0 1826 1955 1075
[16]  38(B02) 1f 37 24  0  -1100.2  4092002.8  0.2  2 0  975  915  427
[17]  41(B05) 1f 40 10  0  -1106.7  4092002.6  0.0  2 0  983  755  152
[18]  45(B09) 1f 39  7  0    610.7  4091998.3 -0.1  2 0  688  814  246
[19]  57(B21) 1f 39  7  0    -81.4  4092000.0  0.0  2 0  997 1383  726
[20]  58(B22) 1f 41  7  0    914.6  4091997.5  0.0  2 0 1430 1978  596
[21]  65(B29) 1f 44  7  0  -3310.2  4092008.6 -0.0  2 0 1941 2384  942
[24]  46(B10) 1f 35  7  0  -1268.8  4092003.2 -0.0  2 0  506  455  211
[32]  75(N-6)  f 40  7  0    783.1  1021999.5  0.2  2 0   661 1180  476
[33]  76(N-5)  f 38 11  0   2220.6  1021998.5 -0.0  2 0   346  633  332
[34]  77(N-4)  f 36  7  0  -5486.4  1022003.4  0.1  2 0   302  359   95
[35]  80(N-1)  f 43  7  0  -1723.1  1022001.0 -0.0  2 0   945 1265  348
[48]  38(B02)  f 10 21  1  -1619.7 20460025.9  0.1  2 0  739  470  136
[49]  41(B05)  1 21 25  0   -599.8 20460020.3 -0.1  1 0  172  495  528
[50]  45(B09)  1  7  7  0   1323.2 20459993.2 -0.3  1 0  467  760  308
[51]  57(B21)  1  8  7  0    -17.8 20460000.3  0.1  1 0  116  584  217
[52]  58(B22)  1  7  7  0   1046.1 20459988.0  0.1  1 0  594  587   67
[53]  65(B29)  1  7 10  0  -2836.9 20460055.1 -0.1  1 0  352  349  121
[56]  46(B10)  1 10  8  0  -1316.1 20460021.9  0.0  1 0  532  594  561
$GNGGA,061922.981,,,,,0,00,,,M,,,,0000*25
$GNRMC,061922.981,A,,,,,,,090419,,*2D
$GPGSA,A,1,,,,,,,,,,,,,,,*1E
$BDGSA,A,1,,,,,,,,,,,,,,,*0F
$GLGSA,A,1,,,,,,,,,,,,,,,*02
$GPGSV,2,1,06,04,00,000,43,07,00,000,40,09,00,000,44,23,00,000,43*73
$GPGSV,2,2,06,28,00,000,42,30,00,000,42*76
$BDGSV,2,1,07,02,00,000,37,05,00,000,40,09,00,000,39,21,00,000,39*61
$BDGSV,2,2,07,22,00,000,41,29,00,000,44,10,00,000,35*56
$B3CN0,0,0,0,0,0,0,0,0,0,0,0,0,0,0*4C
---00000035--- Acq_st=3 0  2000-1-1 0:1:32 
[00]  03(G04)  f 43  7  0  -1161.3  2046001.4 -0.1  2 0 1542 2329 1083
[01]  06(G07)  f 40  7  0  -3649.4  2046004.6 -0.1  2 0 1291 1571 1126
[02]  08(G09)  f 45  7  0     27.7  2045999.9  0.0  2 0 2303 3595 1674
[03]  22(G23)  f 43  8  0   1534.2  2045997.9 -0.0  2 0 1566 2481 1195
[04]  27(G28)  f 42  7  0  -2926.9  2046003.8 -0.0  2 0 1102 1706 1073
[05]  29(G30)  f 44  7  0  -4338.2  2046005.5  0.0  2 0 2370 2978  517
[16]  38(B02) 1f 36 25  0  -1098.6  4092002.8 -0.8  2 0  932 1101  626
[17]  41(B05) 1f 40 25  0  -1106.5  4092002.7 -0.1  2 0  477  873  506
[18]  45(B09) 1f 40 10  0    613.3  4091998.3 -0.1  2 0  938  995  578
[19]  57(B21) 1f 40  7  0    -81.1  4092000.1 -0.1  2 0  725 1331  748
[20]  58(B22) 1f 41  7  0    915.3  4091997.5 -0.0  2 0  719  784  662
[21]  65(B29) 1f 45  7  0  -3301.0  4092008.5  0.0  2 0 1994 2581 1121
[24]  46(B10) 1f 36  8  0  -1275.4  4092003.2 -0.0  2 0  876  687  168
[32]  75(N-6)  f 40  7  0    786.6  1021999.5  0.2  2 0   480 1067  418
[33]  76(N-5)  f 38 12  0   2225.3  1021998.5 -0.1  2 0   520 1086  578
[34]  77(N-4)  f 36  7  0  -5479.8  1022003.4  0.0  2 0   195  464  516
[35]  80(N-1)  f 43  7  0  -1716.9  1022001.1  0.0  2 0  1078 1660  733
[56]  46(B10)  1  7  7  0   -951.4 20460020.6  0.0  1 0  182  234  320
$GNGGA,061923.981,,,,,0,00,,,M,,,,0000*24
$GNRMC,061923.981,A,,,,,,,090419,,*2C
$GPGSA,A,1,,,,,,,,,,,,,,,*1E
$BDGSA,A,1,,,,,,,,,,,,,,,*0F
$GLGSA,A,1,,,,,,,,,,,,,,,*02
$GPGSV,2,1,06,04,00,000,43,07,00,000,40,09,00,000,45,23,00,000,43*72
$GPGSV,2,2,06,28,00,000,42,30,00,000,44*70
$BDGSV,2,1,07,02,00,000,36,05,00,000,40,09,00,000,40,21,00,000,40*60
$BDGSV,2,2,07,22,00,000,41,29,00,000,45,10,00,000,36*54
$B3CN0,0,0,0,0,0,0,0,0,0,0,0,0,0,0*4C
---00000036--- Acq_st=7 0  2000-1-1 0:1:33 
[00]  03(G04)  f 43  7  0  -1158.6  2046001.4  0.0  2 0 1415 2182 1011
[01]  06(G07)  f 41  7  0  -3654.5  2046004.7  0.0  2 0  889 1387  796
[02]  08(G09)  f 45  7  0     26.8  2045999.9  0.0  2 0 1837 2884 1234
[03]  22(G23)  f 43  7  0   1535.9  2045997.9  0.0  2 0 1207 1781 1030
[04]  27(G28)  f 43  7  0  -2927.8  2046003.7  0.0  2 0 1216 1845  803
[05]  29(G30)  f 44  7  0  -4344.6  2046005.5 -0.0  2 0 1588 2769 1364
[16]  38(B02) 1f 38 27  0  -1103.9  4092002.8  0.6  2 0  832  955  704
[17]  41(B05) 1f 40 26  0  -1103.4  4092002.8  0.5  2 0  578  993  314
[18]  45(B09) 1f 39  7  0    615.5  4091998.3  0.0  2 0  976 1022  211
[19]  57(B21) 1f 40  7  0    -78.0  4092000.1 -0.1  2 0 1020 1325  651
[20]  58(B22) 1f 41  7  0    917.2  4091997.5 -0.0  2 0 1345 1668  659
[21]  65(B29) 1f 44  7  0  -3301.8  4092008.5  0.0  2 0 1460 2422  922
[24]  46(B10) 1f 35  7  0  -1272.3  4092003.2  0.2  2 0  538 1053  190
[32]  75(N-6)  f 40  7  0    788.4  1021999.4  0.3  2 0   659 1010  269
