i=1
Rf R0 Config = ff777073
Rf R1 Config = 00dffbfe
Rf R52 Config = 00dfef40
i=2
Rf R0 Config = 007772f3
Rf R1 Config = 00df1bf6
Rf R52 Config = 00d9ae30
i=3
Rf R0 Config = 007772f3
Rf R1 Config = 00df3be6
Rf R52 Config = 00deae70
i=4
Rf R0 Config = 00777273
Rf R1 Config = 00debbfe
Rf R52 Config = 00deee60
SD initialized success
Create debug.log Failed! 3
Start Channel by LuYu
sat0 = 2740 1819 832 -4250
sat0 = 4064 2037 948 -2000
sat1 = 2847 1326 835 4500
sat1 = 3570 1504 950 -1750
sat2 = 45836 1533 835 -250
sat3 = 2643 525 832 750
sat3 = 3608 1741 952 2500
sat4 = 2736 1773 831 -7500
sat4 = 3821 1853 951 -6750
sat5 = 2524 1995 831 -7000
sat5 = 4304 1843 949 -6000
sat6 = 2646 1337 832 4750
sat6 = 4155 2036 952 -1250
sat7 = 2854 1751 828 -500
sat7 = 4775 2020 944 -7250
sat8 = 2481 59 830 6250
sat8 = 4191 1856 953 -9250
sat9 = 2637 1393 832 3250
sat9 = 3843 1785 950 3000
sat10 = 2671 1734 835 5750
sat10 = 4120 1497 952 2500
sat11 = 2691 1863 831 1500
sat11 = 4287 1931 949 -8500
$GNGGA,000000.000,,,,,0,00,,,M,,,,0000*2B
$GNRMC,000000.000,A,,,,,,,060180,,*29
$GPGSA,A,1,,,,,,,,,,,,,,,*1E
$BDGSA,A,1,,,,,,,,,,,,,,,*0F
$GLGSA,A,1,,,,,,,,,,,,,,,*02
$B3CN0,0,0,0,0,0,0,0,0,0,0,0,0,0,0*4C
---00000001--- Acq_st=3 0  2019-4-1 3:25:57 
[00]  02(G03)  1 23  7  0   -297.6  2046002.1  0.1  1 0  958 2994 1599
sat12 = 2729 723 831 6000
sat12 = 3753 1828 950 4750
sat13 = 2839 261 834 -750
sat13 = 4406 2003 950 -5000
sat14 = 2531 1619 832 -9000
sat14 = 4532 1993 955 9500
sat15 = 14916 314 833 -2500
sat16 = 2774 1098 836 -8250
sat16 = 3967 1917 955 3750
sat17 = 2569 1641 833 2250
sat17 = 4209 1855 953 9250
sat18 = 2670 1799 829 -3000
sat18 = 4091 1882 947 0
sat19 = 2581 908 826 -250
sat19 = 3493 1847 949 -8750
sat20 = 2487 1537 832 -500
sat20 = 3941 1961 949 -7750
sat21 = 27564 597 831 500
sat22 = 10434 96 834 -4250
sat23 = 2684 2011 838 -1000
sat23 = 3764 1994 954 -1250
sat24 = 2746 1221 835 -1250
sat24 = 4577 1929 949 -6500
sat25 = 2738 1461 830 1500
$GNGGA,000000.000,,,,,0,00,,,M,,,,0000*2B
$GNRMC,000000.000,A,,,,,,,060180,,*29
$GPGSA,A,1,,,,,,,,,,,,,,,*1E
$BDGSA,A,1,,,,,,,,,,,,,,,*0F
$GLGSA,A,1,,,,,,,,,,,,,,,*02
$B3CN0,0,0,0,0,0,0,0,0,0,0,0,0,0,0*4C
---00000002--- Acq_st=3 0  2019-4-1 3:25:58 
[00]  02(G03)  7 21  7  0   -298.5  2046000.3  0.8 10 0 2043 2711 1026
[01]  15(G16)  1 24  7  0  -2477.2  2046004.3  0.1  1 0  793 1641 1036
[02]  21(G22)  1  7  7  0    500.0  2046000.9  0.2  1 0 1408 2473 1354
[03]  22(G23)  1  7  7  0  -4250.0  2046006.7  0.0  1 0  429  640 1011
sat25 = 4159 1996 951 7750
sat26 = 2573 955 831 -3250
sat26 = 3779 1694 955 2250
sat27 = 2653 370 830 3750
sat27 = 4226 1972 951 4500
sat28 = 2807 749 832 1750
sat28 = 4019 1926 952 -8500
sat29 = 2517 1891 831 8500
sat29 = 4236 1851 950 -2000
sat30 = 2497 1255 832 3500
sat30 = 4482 1803 949 -3000
sat31 = 2764 659 831 10000
sat31 = 4026 1869 950 -8500
sat38 = 306164 160 44813 -1000
sat38 = 324561 160 48702 -1000
sat39 = 158078 4067 44573 250
sat39 = 159595 2796 48943 -3500
sat40 = 153053 415 45026 -10000
$GNGGA,000000.000,,,,,0,00,,,M,,,,0000*2B
$GNRMC,000000.000,A,,,,,,,060180,,*29
$GPGSA,A,1,,,,,,,,,,,,,,,*1E
$BDGSA,A,1,,,,,,,,,,,,,,,*0F
$GLGSA,A,1,,,,,,,,,,,,,,,*02
$GPGSV,1,1,01,03,00,000,21*48
$B3CN0,0,0,0,0,0,0,0,0,0,0,0,0,0,0*4C
---00000003--- Acq_st=3 0  2019-4-1 3:25:59 
[00]  02(G03)  7 45  7  0   -302.1  2046000.3  0.1  2 0 2001 2697 1002
[01]  15(G16)  7 18  7  0  -2482.7  2046003.1  0.9 10 0 1464 2027  583
[02]  21(G22)  1 34  7  0    566.3  2045999.0  0.7  1 0 2017 2673  832
[03]  22(G23)  1 30  7  0  -4322.9  2046006.4  0.6  1 0  601  900  604
[16]  38(B02)  1 31 29  0  -1000.0  4092004.7 -0.1  1 0  588  777 1846
sat40 = 155972 2313 48837 2750
sat41 = 251715 253 44754 -1000
sat41 = 298064 253 49030 -1500
sat42 = 150011 3592 44794 -9750
sat42 = 149754 3987 48775 5750
sat43 = 143269 779 44387 -4750
sat43 = 175725 4087 48657 -2500
sat44 = 141735 2643 44738 5250
sat44 = 162205 3327 48589 -1500
sat45 = 144074 2795 44914 -1250
sat45 = 149427 1782 49192 8000
sat46 = 575163 1905 44773 -1000
sat47 = 138691 1433 44679 6250
$GNGGA,000000.000,,,,,0,00,,,M,,,,0000*2B
$GNRMC,000000.000,A,,,,,,,060180,,*29
$GPGSA,A,1,,,,,,,,,,,,,,,*1E
$BDGSA,A,1,,,,,,,,,,,,,,,*0F
$GLGSA,A,1,,,,,,,,,,,,,,,*02
$GPGSV,1,1,02,03,00,000,45,16,00,000,18*77
$B3CN0,0,0,0,0,0,0,0,0,0,0,0,0,0,0*4C
---00000004--- Acq_st=3 0  2019-4-1 3:26:0 
[00]  02(G03)  7 44  7  0   -296.8  2046000.3 -0.0  2 0 2008 2790  974
[01]  15(G16)  7 42  7  0  -2475.6  2046003.1 -0.0  2 0 1110 1569  818
[02]  21(G22)  7 32  7  0    573.9  2045999.2  0.3  5 0 1681 2210 1211
[03]  22(G23)  7 31  7  0  -4312.9  2046005.5  0.4  5 0 1117 1759  825
[16]  38(B02)  1 39 27  0  -1059.0  4092003.4  0.9  1 0  880 1108  615
[17]  41(B05)  1 10 10  0  -1575.0  4092004.2 -0.1  1 0  429  544  356
[18]  46(B10)  1  7  7  0  -1000.0  4092002.3  0.0  1 0  165  630  244
sat47 = 161249 845 48800 750
sat48 = 150101 2097 44606 -4750
sat48 = 151804 904 48740 3000
sat49 = 145129 2782 44671 1500
sat49 = 147702 4019 48400 4250
sat50 = 139749 2213 44777 1000
sat50 = 149763 1947 48534 9500
sat51 = 138705 3548 44461 -5750
sat51 = 157409 2714 48629 0
sat52 = 141189 3547 44990 250
sat52 = 151400 2473 48876 -2250
sat53 = 147624 2721 44830 -3000
$GNGGA,032602.104,,,,,0,00,,,M,,,,0000*2B
$GNRMC,032602.104,A,,,,,,,070180,,*28
$GPGSA,A,1,,,,,,,,,,,,,,,*1E
$BDGSA,A,1,,,,,,,,,,,,,,,*0F
$GLGSA,A,1,,,,,,,,,,,,,,,*02
$GPGSV,1,1,04,03,00,000,44,16,00,000,42,22,00,000,32,23,00,000,31*7D
$B3CN0,0,0,0,0,0,0,0,0,0,0,0,0,0,0*4C
---00000005--- Acq_st=3 0  2019-4-1 3:26:1 
[00]  02(G03)  f 41  7  0   -296.4  2046000.3 -0.2  2 0  589  433  321
[01]  15(G16)  f 38  7  0  -2476.4  2046003.2 -0.1  2 0  225  507  498
[02]  21(G22)  7 41  7  0    579.6  2045999.1  0.2  2 0 1138 1051   59
[03]  22(G23)  7 38  7  0  -4314.8  2046005.5  0.0  2 0  919  364  851
[16]  38(B02)  f 37 25  0  -1067.7  4092002.5  0.2  2 0  414  598  486
[17]  41(B05)  1 10 10  0  -1575.9  4092002.9  0.1  1 0  568  189   14
[18]  46(B10)  1  7  7  0   -943.2  4092002.6  0.1  1 0  331  252  189
sat53 = 164801 2298 48967 5750
sat54 = 648447 3402 44781 -1000
sat55 = 373123 532 44715 1750
sat55 = 434957 532 48749 1750
sat56 = 140558 3173 44528 -9250
sat56 = 144411 2200 48427 1000
sat57 = 934843 1525 44695 -3250
sat58 = 738227 1801 44666 -750
sat59 = 150566 144 44526 -4500
sat59 = 155588 417 48878 0
sat60 = 133664 241 44497 3750
sat60 = 147004 1362 48786 7500
$GNGGA,032603.104,,,,,0,00,,,M,,,,0000*2A
$GNRMC,032603.104,A,,,,,,,070180,,*29
$GPGSA,A,1,,,,,,,,,,,,,,,*1E
$BDGSA,A,1,,,,,,,,,,,,,,,*0F
$GLGSA,A,1,,,,,,,,,,,,,,,*02
$GPGSV,1,1,04,03,00,000,41,16,00,000,38,22,00,000,41,23,00,000,38*78
$BDGSV,1,1,01,02,00,000,38*50
$B3CN0,0,0,0,0,0,0,0,0,0,0,0,0,0,0*4C
---00000006--- Acq_st=3 0  2019-4-1 3:26:2 
[00]  02(G03)  f 38  7  0   -296.0  2046000.3 -0.4  2 0 2136 3263 1565
[01]  15(G16)  f 36  7  0  -2472.1  2046003.2 -0.1  2 0  959 1840  973
[02]  21(G22)  7 38  7  0    576.9  2045999.2 -0.2  2 0 1994 2960 1441
[03]  22(G23)  7 35  7  0  -4309.1  2046005.5 -0.1  2 0 1302 1644  614
[16]  38(B02) 1f 39 25  0  -1061.9  4092002.5 -0.6  2 0 1087  937  318
[17]  41(B05)  1 10 10  1  -1658.1  4092002.2 -0.0  1 0  538  224  447
[18]  46(B10)  7  7  7  0  -1166.4  4092003.2  0.2 10 0  262  372  727
[19]  54(B18)  1  7  7  0   -945.2  4092003.4 -0.0  1 0  722 2156 1160
[20]  55(B19)  1  7  7  0   1778.8  4091995.9  0.0  1 0 1202 1747  632
[21]  57(B21)  1  7  7  0  -3250.0  4092010.4 -0.1  1 0  505  386 1338
[22]  58(B22)  1  7  7  0   -750.0  4092002.6  0.0  1 0  402 1301 1172
[48]  38(B02)  1 10 10  1   -748.3 20460013.3  0.0  1 0  198   51  178
sat61 = 151860 2070 44588 4500
sat61 = 159796 183 48823 4500
sat62 = 142794 2151 44490 -3500
sat62 = 167039 985 49159 8250
sat63 = 159622 2191 44805 10000
sat63 = 154468 3977 48752 -1500
sat64 = 147784 245 44904 6750
sat64 = 148321 3048 48930 6000
sat65 = 143448 2513 44842 -6000
sat65 = 147639 719 48701 5000
sat66 = 149519 368 44636 -250
sat66 = 148282 2097 48800 5500
$GNGGA,032604.104,,,,,0,00,,,M,,,,0000*2D
$GNRMC,032604.104,A,,,,,,,070180,,*2E
$GPGSA,A,1,,,,,,,,,,,,,,,*1E
$BDGSA,A,1,,,,,,,,,,,,,,,*0F
$GLGSA,A,1,,,,,,,,,,,,,,,*02
$GPGSV,1,1,04,03,00,000,38,16,00,000,36,22,00,000,38,23,00,000,35*7B
$BDGSV,1,1,01,02,00,000,39*51
$B3CN0,0,0,0,0,0,0,0,0,0,0,0,0,0,0*4C
sat67 = 146619 2015 44475 4250
---00000007--- Acq_st=3 0  2019-4-1 3:26:3 
[00]  02(G03)  f 45  7  0   -294.4  2046000.3  0.0  2 0 2190 3127 1068
[01]  15(G16)  f 41  7  0  -2472.5  2046003.2  0.1  2 0 1428 2037 1289
[02]  21(G22)  7 44  7  0    580.1  2045999.2 -0.1  2 0 1376 2841 1595
[03]  22(G23)  7 41  7  0  -4313.0  2046005.5  0.1  2 0 1421 1925  925
[16]  38(B02) 1f 39 27  0  -1062.5  4092002.7 -0.4  2 0  671  842  388
[17]  41(B05)  1 36 27  0  -2264.8  4092003.8  0.0  1 0  296  352  237
[18]  46(B10)  7  7 11  0  -1258.5  4092003.5 -0.0 10 0  108  279  804
[19]  54(B18)  7 24  7  0   -944.5  4092002.4  0.2 10 0  732 1225  437
[20]  55(B19)  7 16  7  0   1782.6  4091995.2  0.4 10 0  880 1462  833
[21]  57(B21)  1  7 12  0  -3251.0  4092009.3  0.3  1 0 1899 2654 1191
[22]  58(B22)  1  7 11  0   -679.3  4092001.9  0.4  1 0 1143 1569  943
[48]  38(B02)  1 14 10  0   -319.5 20460018.6  0.1  1 0  566  391  199
sat67 = 151252 2321 48625 5000
sat68 = 136673 1499 44511 -2500
sat68 = 145890 1535 48842 8250
sat74 = 10825 1320 2973 -6250
sat74 = 9322 623 2884 8000
sat75 = 8426 1021 2895 -1250
sat75 = 8842 898 2801 9250
sat76 = 10935 675 2787 -5000
sat76 = 8918 1316 2793 3000
sat77 = 8466 1812 2807 -9250
sat77 = 9115 304 2861 4000
sat78 = 8245 1652 2781 1000
sat78 = 9074 797 2842 -7500
sat79 = 9380 331 2776 1750
sat79 = 8929 1432 2761 7000
sat80 = 12410 219 2803 2750
sat80 = 13604 219 2749 2750
$GNGGA,032605.104,,,,,0,00,,,M,,,,0000*2C
$GNRMC,032605.104,A,,,,,,,070180,,*2F
$GPGSA,A,1,,,,,,,,,,,,,,,*1E
$BDGSA,A,1,,,,,,,,,,,,,,,*0F
$GLGSA,A,1,,,,,,,,,,,,,,,*02
$GPGSV,1,1,04,03,00,000,45,16,00,000,41,22,00,000,44,23,00,000,41*79
$BDGSV,1,1,02,02,00,000,39,18,00,000,23*6A
$B3CN0,0,0,0,0,0,0,0,0,0,0,0,0,0,0*4C
---00000008--- Acq_st=3 0  2019-4-1 3:26:4 
[00]  02(G03)  f 44  7  0   -294.8  2046000.3  0.0  2 0 2427 3286 1241
[01]  15(G16)  f 41  7  0  -2469.7  2046003.1 -0.1  2 0 1370 2047  640
[02]  21(G22)  7 43  7  0    581.7  2045999.2  0.0  2 0 1274 2364  930
[03]  22(G23)  7 42  7  0  -4311.3  2046005.5  0.0  2 0  678 1362  493
[16]  38(B02) 1f 40 26  0  -1066.8  4092002.6  0.6  2 0  878  916  212
[18]  46(B10)  7  7  7  0  -1344.5  4092003.6 -0.1 10 0  272  355 1303
[19]  54(B18)  7 43  7  0   -943.3  4092002.4  0.1  2 0 1244 1570  672
[20]  55(B19)  7 42  7  0   1784.7  4091995.2  0.1  2 0  873 1470  695
[21]  57(B21)  7 36 12  0  -3247.1  4092008.4  0.1  2 0 1933 1883  790
[22]  58(B22)  7 34  7  0   -680.1  4092001.7  0.3  5 0  677 1237  451
[32]  80(N-1)  1  7  7  0  22239.3  1021999.7 -0.0  1 0   245  526  563
[48]  38(B02)  1 10 10  1    196.1 20460017.1 -0.1  1 0  152  384  165
sat81 = 11608 2041 3062 1500
sat81 = 10000 1422 3115 1000
sat82 = 10390 1870 2831 250
sat82 = 8888 1402 2768 -500
sat83 = 27070 511 2863 -2750
sat83 = 20079 511 2820 -2750
sat84 = 8221 699 2809 -6250
sat84 = 9100 1355 2854 -7000
sat85 = 29193 1546 2928 -1500
sat85 = 24559 1546 2859 -1500
sat86 = 10022 1121 2834 7500
sat86 = 8166 393 2852 -5750
sat87 = 8907 775 2902 3500
sat87 = 8447 1737 2859 -7500
$GNGGA,032606.104,,,,,0,00,,,M,,,,0000*2F
$GNRMC,032606.104,A,,,,,,,070180,,*2C
$GPGSA,A,1,,,,,,,,,,,,,,,*1E
$BDGSA,A,1,,,,,,,,,,,,,,,*0F
$GLGSA,A,1,,,,,,,,,,,,,,,*02
$GPGSV,1,1,04,03,00,000,44,16,00,000,41,22,00,000,43,23,00,000,42*7C
$BDGSV,2,1,05,02,00,000,40,18,00,000,43,19,00,000,42,21,00,000,36*6E
$BDGSV,2,2,05,22,00,000,34*5A
$B3CN0,0,0,0,0,0,0,0,0,0,0,0,0,0,0*4C
---00000009--- Acq_st=7 0  2019-4-1 3:26:5 
[00]  02(G03)  f 45  7  0   -294.0  2046000.3 -0.0  2 0 1404 2078  928
[01]  15(G16)  f 41  7  0  -2508.9  2046003.1  0.0  2 0  740 1380  808
[02]  21(G22)  7 43  7  0    575.2  2045999.2  0.0  2 0 1288 2389 1409
[03]  22(G23)  7 42  7  0  -4313.6  2046005.5 -0.0  2 0  772 1270  412
[16]  38(B02) 1f 38 26  0  -1060.1  4092002.7  0.6  2 0  753 1022  722
[19]  54(B18)  7 42  7  0   -941.9  4092002.4 -0.1  2 0 1515 2198  874
[20]  55(B19)  7 42  7  0   1781.4  4091995.2 -0.0  2 0  932 1491  684
[21]  57(B21)  7 43 10  0  -3246.6  4092008.3 -0.0  2 0 1549 2295 1280
[22]  58(B22)  7 43  7  0   -678.3  4092001.7 -0.1  2 0 1324 2037  811
[32]  80(N-1)  1 22 17  0   2775.9  1021998.8 -0.1  1 0   262  441  127
[33]  83(N02)  1 27  7  0  -2805.7  1022002.6  0.2  1 0   472  737  763
[34]  85(N04)  1 17 10  0  -1483.3  1022001.1  0.1  1 0   165  340  460
[48]  38(B02)  1 10 10  0    -35.0 20460019.8  0.0  1 0  409  525  469
$GNGGA,032607.104,,,,,0,00,,,M,,,,0000*2E
$GNRMC,032607.104,A,,,,,,,070180,,*2D
$GPGSA,A,1,,,,,,,,,,,,,,,*1E
$BDGSA,A,1,,,,,,,,,,,,,,,*0F
$GLGSA,A,1,,,,,,,,,,,,,,,*02
$GPGSV,1,1,04,03,00,000,45,16,00,000,42,22,00,000,43,23,00,000,42*7E
$BDGSV,2,1,05,02,00,000,38,18,00,000,42,19,00,000,42,21,00,000,43*62
$BDGSV,2,2,05,22,00,000,43*5A
$B3CN0,0,0,0,0,0,0,0,0,0,0,0,0,0,0*4C
---00000010--- Acq_st=7 0  2019-4-1 3:26:6 
[00]  02(G03)  f 40  7  0   -289.5  2046000.3  0.1  2 0 2378 3600 1663
[01]  15(G16)  f 38  7  0  -2468.1  2046003.1  0.2  2 0 1523 1673  832
[02]  21(G22)  7 39  7  0    582.9  2045999.2 -0.4  2 0 1692 3001 1118
[03]  22(G23)  7 37  7  0  -4309.9  2046005.6  0.1  2 0  897 1827  868
[16]  38(B02) 1f 40 26  0  -1059.7  4092002.6  0.4  2 0 1117 1202  599
[19]  54(B18)  7 41  7  0   -942.1  4092002.3 -0.0  2 0 1385 1463  678
[20]  55(B19)  7 40  7  0   1788.0  4091995.2  0.1  2 0 1658 1876  538
[21]  57(B21)  7 42 15  0  -3244.5  4092008.4 -0.0  2 0 1543 2019 1026
[22]  58(B22)  7 41  9  0   -678.8  4092001.7  0.0  2 0 1349 1825  890
[32]  80(N-1)  7 22 20  0   2784.4  1021998.1 -0.0 10 0   255  224  121
[33]  83(N02)  7 21  7  0  -2803.9  1022001.8  0.6 10 0   437  718  131
[34]  85(N04)  1 13 20  0  -2193.8  1022002.4  0.1  1 0   373  267  320
sat0 = 13153 1116 3136 8000
sat0 = 12057 2025 3177 8000
sat1 = 12126 294 3135 4500
sat1 = 12317 1613 3179 1500
sat3 = 11625 1419 3141 3750
sat3 = 11144 139 3181 6250
sat4 = 12348 1114 3141 -9250
sat4 = 13248 1786 3191 -2250
sat5 = 11034 589 3136 4250
sat5 = 10830 432 3181 -8500
sat6 = 11041 674 3143 10000
sat6 = 15423 74 3206 7750
sat7 = 11067 926 3113 9000
sat7 = 13340 1353 3159 -1250
sat8 = 11234 1335 3139 6500
sat8 = 10410 1850 3176 -9500
sat9 = 11505 1264 3123 500
sat9 = 12220 2040 3170 7750
sat10 = 11155 1525 3129 8250
sat10 = 10434 793 3170 8000
sat11 = 12488 1852 3124 2250
sat11 = 11202 515 3177 -7000
sat12 = 10239 846 3120 8500
$GNGGA,032608.104,,,,,0,00,,,M,,,,0000*21
$GNRMC,032608.104,A,,,,,,,070180,,*22
$GPGSA,A,1,,,,,,,,,,,,,,,*1E
$BDGSA,A,1,,,,,,,,,,,,,,,*0F
$GLGSA,A,1,,,,,,,,,,,,,,,*02
$GPGSV,1,1,04,03,00,000,40,16,00,000,38,22,00,000,39,23,00,000,37*79
$BDGSV,2,1,05,02,00,000,39,18,00,000,41,19,00,000,40,21,00,000,42*63
$BDGSV,2,2,05,22,00,000,41*58
$B3CN0,0,0,0,0,0,0,0,0,0,0,0,0,0,0*4C
---00000011--- Acq_st=3 0  2019-4-1 3:26:7 
[00]  02(G03)  f 44  7  0   -283.4  2046000.3 -0.0  2 0 2354 3633 1856
[01]  15(G16)  f 42  7  0  -2464.3  2046003.1 -0.0  2 0 1567 2194  778
[02]  21(G22)  f 44  7  0    586.4  2045999.2 -0.0  2 0 2195 2955 1280
[03]  22(G23)  7 42  7  0  -4302.8  2046005.5 -0.0  2 0 1221 1952  853
[16]  38(B02) 1f 40 23  0  -1055.5  4092002.6 -0.5  2 0  894 1247  459
[19]  54(B18)  7 42  7  0   -936.6  4092002.3  0.0  2 0 1138 1645  356
[20]  55(B19)  7 41  7  0   1788.4  4091995.2 -0.0  2 0 1047 1519 1013
[21]  57(B21)  7 43 15  0  -3241.9  4092008.4  0.1  2 0 1715 1610  559
[22]  58(B22)  7 42  7  0   -673.5  4092001.6 -0.0  2 0 1288 2040  628
[32]  80(N-1)  7 24 19  0   2768.7  1021998.0 -0.1 10 0   218  439  258
[33]  83(N02)  7 36 12  0  -2799.5  1022001.7 -0.2  2 0   386  657  387
[34]  85(N04)  1  7  7  0  -2081.7  1022001.2  0.2  1 0   298  287  101
[48]  38(B02)  1 36 16  0   -933.6 20460019.9  0.0  1 0  250   88  365
sat12 = 10896 450 3168 -8500
sat13 = 11571 836 3138 5250
sat13 = 10201 1801 3180 3250
sat14 = 10770 1844 3144 8250
sat14 = 10935 1324 3209 10000
sat16 = 10453 1453 3155 -1250
sat16 = 11749 683 3214 -4250
sat17 = 12642 39 3138 500
sat17 = 12034 809 3187 6500
sat18 = 10304 736 3122 5750
sat18 = 10839 857 3173 9000
sat19 = 11018 1451 3117 -9250
sat19 = 12006 1209 3174 -9500
sat20 = 11227 1356 3140 5000
sat20 = 13666 1086 3190 -5250
sat23 = 11610 265 3157 -8250
sat23 = 11925 951 3211 -2500
sat24 = 11277 1231 3138 -3250
sat24 = 9967 368 3180 -7500
sat25 = 10797 521 3132 0
sat25 = 12181 301 3187 -1500
sat26 = 11700 203 3134 -4250
sat26 = 11652 604 3187 -6500
sat27 = 12326 1221 3138 -3750
$GNGGA,032609.104,,,,,0,00,,,M,,,,0000*20
$GNRMC,032609.104,A,,,,,,,070180,,*23
$GPGSA,A,1,,,,,,,,,,,,,,,*1E
$BDGSA,A,1,,,,,,,,,,,,,,,*0F
$GLGSA,A,1,,,,,,,,,,,,,,,*02
$GPGSV,1,1,04,03,00,000,44,16,00,000,42,22,00,000,44,23,00,000,42*78
$BDGSV,2,1,05,02,00,000,40,18,00,000,42,19,00,000,41,21,00,000,43*6E
$BDGSV,2,2,05,22,00,000,42*5B
$B3CN0,0,0,0,0,0,0,0,0,0,0,0,0,0,0*4C
---00000012--- Acq_st=3 0  2019-4-1 3:26:8 
[00]  02(G03)  f 45  7  0   -277.9  2046000.3  0.0  2 0 2047 3569 1587
[01]  15(G16)  f 42  7  0  -2454.0  2046003.1  0.0  2 0 1356 2464 1027
[02]  21(G22)  f 43  7  0    593.1  2045999.2 -0.0  2 0 1424 2513 1573
[03]  22(G23)  7 42  7  0  -4293.6  2046005.5 -0.0  2 0  977 1488  604
[16]  38(B02) 1f 40 26  0  -1047.9  4092002.8  0.1  2 0  846 1075  881
[19]  54(B18)  7 42  7  0   -930.0  4092002.3 -0.0  2 0 1263 1842  719
[20]  55(B19)  7 41  7  0   1796.0  4091995.1 -0.1  2 0 1483 1644  832
[21]  57(B21)  7 42 14  0  -3228.2  4092008.4 -0.0  2 0 1368 2072  981
[22]  58(B22)  7 42 13  0   -662.8  4092001.6 -0.0  2 0 1398 1830  832
[32]  80(N-1)  7 23 15  0   2735.7  1021998.0  0.1 10 0   232  356  499
[33]  83(N02)  7 38  9  0  -2788.7  1022001.7 -0.2  2 0   648  960  501
[34]  85(N04)  1  7  7  0  -2083.2  1022000.6  0.6  1 0   519  839  318
[48]  38(B02)  1 10 10  0   -339.0 20460019.4 -0.0  1 0  644  354  681
sat27 = 13030 334 3171 -2250
sat28 = 11046 374 3132 4750
sat28 = 11831 1672 3175 -250
sat29 = 11359 1656 3133 -3750
sat29 = 10990 1711 3177 -5500
sat30 = 12060 908 3128 1000
sat30 = 11506 1299 3183 0
sat31 = 10407 834 3134 2250
sat31 = 11880 1728 3170 -250
sat39 = 155459 1898 45304 -9000
sat39 = 163807 1453 48391 8000
sat40 = 142500 4036 45267 4000
sat40 = 146511 111 48619 3750
sat41 = 249374 3706 45315 -1000
sat41 = 200911 3705 48715 -1500
sat42 = 145748 3479 45294 -5750
---00000013--- Acq_st=3 0  2019-4-1 3:26:9 
[00]  02(G03)  f 45  7  0   -284.0  2046000.3 -0.0  2 0 2739 3871 1402
[01]  15(G16)  f 42  7  0  -2461.1  2046003.2  0.0  2 0  828 1787 1029
[02]  21(G22)  f 44  7  0    592.1  2045999.2 -0.0  2 0 1183 2633 1363
[03]  22(G23)  7 42  7  0  -4301.7  2046005.5 -0.0  2 0  942 1697 1197
[16]  38(B02) 1f 40 27  0  -1056.4  4092002.6  0.6  2 0 1127  884  290
[17]  41(B05)  1 10 10  0  -1500.0  4092003.9  0.1  1 0  605  863  474
[19]  54(B18) 1f 42  7  0   -936.8  4092002.4 -0.0  2 0 1550 1092  237
[20]  55(B19) 1f 41  7  0   1791.4  4091995.2 -0.1  2 0  557  891  233
[21]  57(B21) 1f 42 13  0  -3240.2  4092008.4  0.1  2 0 1336 1609  578
[22]  58(B22) 1f 42  7  0   -672.3  4092001.6 -0.0  2 0 1042 1721  732
[32]  80(N-1)  7 16 14  0   2684.1  1021998.3 -0.1 10 0   169  367  219
[33]  83(N02)  7 39  7  0  -2794.5  1022001.7 -0.1  2 0   573  731  284
[34]  85(N04)  1  7  7  0  -2088.7  1022000.8  0.4  1 0   466  685   42
[48]  38(B02)  1 10 10  1    717.6 20460018.8 -0.0  1 0  510  478   87
$GNGGA,032610.104,,,,,0,00,,,M,,,,0000*28
$GNRMC,032610.104,A,,,,,,,070180,,*2B
$GPGSA,A,1,,,,,,,,,,,,,,,*1E
$BDGSA,A,1,,,,,,,,,,,,,,,*0F
$GLGSA,A,1,,,,,,,,,,,,,,,*02
$GPGSV,1,1,04,03,00,000,45,16,00,000,42,22,00,000,44,23,00,000,42*79
$BDGSV,2,1,05,02,00,000,40,18,00,000,42,19,00,000,41,21,00,000,42*6F
$BDGSV,2,2,05,22,00,000,42*5B
$B3CN0,0,0,0,0,0,0,0,0,0,0,0,0,0,0*4C
sat42 = 149098 2811 48757 -3000
sat43 = 140927 2116 45103 -500
sat43 = 145461 3568 48364 5250
sat44 = 141475 2722 45342 -8250
sat44 = 162106 186 48555 -3000
sat45 = 142251 2071 45626 9000
sat45 = 150025 443 48879 8750
sat46 = 601406 1266 45375 -1000
sat47 = 169121 1885 45358 4750
sat47 = 146841 1737 48459 -9000
sat48 = 144110 167 45107 4750
sat48 = 151605 4053 48235 5250
sat49 = 160903 858 45246 6500
---00000014--- Acq_st=3 0  2019-4-1 3:26:10 
[00]  02(G03)  f 45  7  0   -281.0  2046000.3 -0.0  2 0 2348 3848 1850
[01]  15(G16)  f 43  7  0  -2460.0  2046003.1  0.0  2 0 1371 1880 1314
[02]  21(G22)  f 44  7  0    591.8  2045999.2  0.0  2 0 1265 1890  807
[03]  22(G23)  7 40  7  0  -4295.3  2046005.6  0.0  2 0 1016 1210  961
[16]  38(B02) 1f 40 23  0  -1050.6  4092002.6  0.8  2 0 1090 1069  251
[17]  41(B05)  1 10 10  0  -1564.1  4092003.7  0.3  1 0  343  429   79
[18]  46(B10)  1  7  7  0  -1000.0  4092003.8  0.0  1 0  209  284  636
[19]  54(B18) 1f 42  7  0   -933.0  4092002.4  0.0  2 0  982 1362  249
[20]  55(B19) 1f 41  7  0   1794.4  4091995.2 -0.0  2 0  843 1436  890
[21]  57(B21) 1f 42 16  0  -3236.3  4092008.4 -0.0  2 0 1175 1681  689
[22]  58(B22) 1f 42 10  0   -664.0  4092001.6 -0.0  2 0 1566 1673  825
[32]  80(N-1)  7 13 13  0   2568.4  1021998.5 -0.1 10 0   154  296  136
[33]  83(N02)  f 37  7  0  -2793.2  1022001.7 -0.8  2 0   398  824  555
[48]  38(B02)  f 13 18  1    553.0 20459992.0 -0.1  2 0  466  696  532
[51]  54(B18)  1  7  7  0  -1158.2 20460014.4 -0.2  1 0  158  955  576
[52]  55(B19)  1  7  7  0   1985.4 20459972.5 -0.0  1 0  377  384   94
[53]  57(B21)  1  8  7  0  -2738.0 20460052.3 -0.1  1 0  246  409  118
[54]  58(B22)  1  9  7  0     -6.0 20460009.4  0.0  1 0  463  343  663
$GNGGA,032611.104,,,,,0,00,,,M,,,,0000*29
$GNRMC,032611.104,A,,,,,,,070180,,*2A
$GPGSA,A,1,,,,,,,,,,,,,,,*1E
$BDGSA,A,1,,,,,,,,,,,,,,,*0F
$GLGSA,A,1,,,,,,,,,,,,,,,*02
$GPGSV,1,1,04,03,00,000,45,16,00,000,43,22,00,000,44,23,00,000,40*7A
$BDGSV,2,1,05,02,00,000,40,18,00,000,42,19,00,000,41,21,00,000,42*6F
$BDGSV,2,2,05,22,00,000,42*5B
$B3CN0,0,0,0,0,0,0,0,0,0,0,0,0,0,0*4C
sat49 = 146932 690 48143 -1000
sat50 = 139006 2348 45158 -3500
sat50 = 135878 1937 48232 -7000
sat51 = 154790 2020 45058 -8500
sat51 = 141542 1527 48129 -8500
sat52 = 149689 3912 45247 10000
sat52 = 154755 589 48851 -7250
sat53 = 150646 1115 45428 -4500
sat53 = 147093 1161 48566 -4750
sat56 = 149486 1875 45212 -5250
sat56 = 139499 3364 48309 5000
sat59 = 138525 3173 45183 5000
---00000015--- Acq_st=3 0  2019-4-1 3:26:11 
[00]  02(G03)  f 46  7  0   -281.0  2046000.3  0.0  2 0 3143 4153 1890
[01]  15(G16)  f 42  7  0  -2462.9  2046003.2  0.0  2 0  850 1732 1023
[02]  21(G22)  f 44  7  0    588.0  2045999.2 -0.0  2 0 1147 2114 1024
[03]  22(G23)  7 39  7  0  -4311.8  2046005.6 -0.1  2 0  760  818  259
[16]  38(B02) 1f 39 30  0  -1055.7  4092002.7 -0.2  2 0  793 1084  733
[17]  41(B05)  1 10 10  0  -1551.0  4092001.0  0.1  1 0  956  900   86
[18]  46(B10)  1  7  7  0  -1072.3  4092004.4  0.0  1 0  809 1614 1147
[19]  54(B18) 1f 42  7  0   -937.3  4092002.3  0.0  2 0 1066 1641  532
[20]  55(B19) 1f 41  7  0   1785.9  4091995.2  0.1  2 0  772 1236  627
[21]  57(B21) 1f 42 13  0  -3234.3  4092008.4  0.1  2 0 1370 1550  484
[22]  58(B22) 1f 42  7  0   -666.4  4092001.6  0.1  2 0 1519 1477  651
[32]  80(N-1)  7 14 19  0   2412.6  1021998.3  0.1 10 0   337  230  352
[33]  83(N02)  f 39  7  0  -2794.6  1022001.8 -0.6  2 0   582  874  578
[48]  38(B02)  f 14 10  1     64.3 20459998.8  0.0  2 0  289  239  363
[51]  54(B18)  1  7  7  0   -743.8 20460014.7 -0.1  1 0  412  395  741
[52]  55(B19)  1  7  7  0   1875.0 20459971.6  0.0  1 0  178  517  641
[53]  57(B21)  1  8  7  0  -2900.3 20460051.0 -0.1  1 0  617  814  411
[54]  58(B22)  1  7  7  0   -269.2 20460010.6  0.0  1 0  285  347  609
$GNGGA,032612.104,,,,,0,00,,,M,,,,0000*2A
$GNRMC,032612.104,A,,,,,,,070180,,*29
$GPGSA,A,1,,,,,,,,,,,,,,,*1E
$BDGSA,A,1,,,,,,,,,,,,,,,*0F
$GLGSA,A,1,,,,,,,,,,,,,,,*02
$GPGSV,1,1,04,03,00,000,46,16,00,000,42,22,00,000,44,23,00,000,39*76
$BDGSV,2,1,05,02,00,000,39,18,00,000,42,19,00,000,41,21,00,000,42*61
$BDGSV,2,2,05,22,00,000,42*5B
$B3CN0,0,0,0,0,0,0,0,0,0,0,0,0,0,0*4C
sat59 = 167090 3522 48277 6500
sat60 = 155563 1352 45073 -1750
sat60 = 156521 2362 48461 7500
sat61 = 136526 1148 45085 7250
sat61 = 149726 3253 48325 4750
sat62 = 160358 3960 45457 7250
sat62 = 165425 3725 48453 5500
sat63 = 152923 3905 45388 -9500
sat63 = 148315 575 48627 -3500
sat64 = 143821 3087 45151 -8250
sat64 = 148330 317 48565 3750
sat65 = 137893 3756 45477 -2250
---00000016--- Acq_st=3 0  2019-4-1 3:26:12 
[00]  02(G03)  f 45  7  0   -285.3  2046000.3 -0.0  2 0 2956 4186 1685
[01]  15(G16)  f 42  7  0  -2463.4  2046003.2 -0.1  2 0 1508 1746  379
[02]  21(G22)  f 43  7  0    586.1  2045999.2  0.1  2 0 1346 2270  856
[03]  22(G23)  7 37  7  0  -4315.9  2046005.6 -0.2  2 0  180  563  382
[16]  38(B02) 1f 39 26  0  -1058.2  4092002.6  0.0  2 0 1008 1110  665
[17]  41(B05)  1 10 10  0  -1584.5  4092003.6 -0.0  1 0  510  725  306
[18]  46(B10)  7 34  7  0  -1071.3  4092002.7 -0.1  5 0 1237 1207  261
[19]  54(B18) 1f 42  7  0   -939.0  4092002.3 -0.0  2 0 1086 1609  822
[20]  55(B19) 1f 40  7  0   1785.5  4091995.2  0.0  2 0 1067 1469  498
[21]  57(B21) 1f 41 13  0  -3242.1  4092008.4  0.0  2 0  827 1454  789
[22]  58(B22) 1f 42  9  0   -671.1  4092001.6 -0.1  2 0 1704 1867  549
[32]  80(N-1)  7 12  9  0   2293.0  1021998.3  0.0 10 0   318  415  148
[33]  83(N02)  f 40  7  0  -2797.7  1022001.7 -0.4  2 0   496  861  200
[48]  38(B02)  f 23 20  0   -324.2 20460005.3 -0.1  2 0  476  372  886
[51]  54(B18)  1  7  7  0   -803.1 20460014.6 -0.1  1 0  396  528  806
[52]  55(B19)  1  7  8  0   1906.3 20459971.3 -0.2  1 0  396  452  615
[53]  57(B21)  1  7  8  0  -2833.4 20460052.6 -0.0  1 0  466  437  392
[54]  58(B22)  1  7  7  0   -474.6 20460008.3 -0.1  1 0  334  466  950
sat65 = 150172 1421 48515 -7500
$GNGGA,032613.104,,,,,0,00,,,M,,,,0000*2B
$GNRMC,032613.104,A,,,,,,,070180,,*28
$GPGSA,A,1,,,,,,,,,,,,,,,*1E
$BDGSA,A,1,,,,,,,,,,,,,,,*0F
$GLGSA,A,1,,,,,,,,,,,,,,,*02
$GPGSV,1,1,04,03,00,000,45,16,00,000,42,22,00,000,43,23,00,000,37*7C
$BDGSV,2,1,06,02,00,000,39,10,00,000,34,18,00,000,42,19,00,000,40*60
$BDGSV,2,2,06,21,00,000,41,22,00,000,42*6E
$B3CN0,0,22,0,0,0,0,0,0,0,0,0,0,0,0*7C
sat66 = 140484 1717 45300 9000
sat66 = 144445 3525 48395 250
sat67 = 150130 3512 45080 -9500
sat67 = 164860 432 48406 -6000
sat68 = 140471 3221 45236 8500
sat68 = 150921 3111 48536 5000
sat74 = 9008 1736 2951 1000
sat74 = 8998 649 2903 -7250
sat75 = 8726 342 2805 -1750
sat75 = 8859 77 2878 -6000
sat76 = 8523 1894 2770 2500
sat76 = 10445 330 2785 -4750
sat77 = 8748 1370 2798 9000
sat77 = 8664 271 2800 -1750
---00000017--- Acq_st=3 0  2019-4-1 3:26:13 
[00]  02(G03)  f 45  7  0   -292.5  2046000.3  0.0  2 0 2526 4330 1985
[01]  15(G16)  f 42  7  0  -2466.1  2046003.2  0.0  2 0 1524 1912 1150
[02]  21(G22)  f 44  7  0    580.0  2045999.2  0.0  2 0 1235 1898  922
[03]  22(G23)  f 36  7  0  -4312.3  2046005.7 -0.6  2 0  418 1105  835
[16]  38(B02) 1f 40 27  0  -1070.5  4092002.6 -0.5  2 0  502  991  560
[17]  41(B05)  1 14 10  0  -1523.0  4092002.5  0.3  1 0  933  918  238
[18]  46(B10)  7 41  7  0  -1075.2  4092002.7  0.1  2 0 1090 1441  510
[19]  54(B18) 1f 42  7  0   -946.3  4092002.4  0.0  2 0  893 1448  336
[20]  55(B19) 1f 41  7  0   1780.3  4091995.2 -0.1  2 0 1066 1235  495
[21]  57(B21) 1f 41 14  0  -3250.8  4092008.4 -0.0  2 0 1411 1663  533
[22]  58(B22) 1f 42  7  0   -679.9  4092001.6  0.0  2 0 1511 1891  657
[33]  83(N02)  f 39  7  0  -2805.1  1022001.8 -0.6  2 0   533  559  210
[48]  38(B02)  f 13 16  0   -231.7 20460003.3 -0.1  2 0  479  434  284
[51]  54(B18)  1  7  7  0   -591.9 20460015.2  0.0  1 0  349  160  613
[52]  55(B19)  1  7  7  0   1607.8 20459974.1  0.1  1 0  355  292  464
[53]  57(B21)  1  7  7  0  -2658.8 20460051.1  0.1  1 0  110  380  521
[54]  58(B22)  1  7  7  0   -776.1 20460012.8  0.1  1 0  397  247  210
sat78 = 9685 1905 2856 7500
sat78 = 8774 497 2784 -8250
$GNGGA,032614.104,,,,,0,00,,,M,,,,0000*2C
$GNRMC,032614.104,A,,,,,,,070180,,*2F
$GPGSA,A,1,,,,,,,,,,,,,,,*1E
$BDGSA,A,1,,,,,,,,,,,,,,,*0F
$GLGSA,A,1,,,,,,,,,,,,,,,*02
$GPGSV,1,1,04,03,00,000,45,16,00,000,42,22,00,000,44,23,00,000,36*7A
$BDGSV,2,1,06,02,00,000,40,10,00,000,41,18,00,000,42,19,00,000,41*6D
$BDGSV,2,2,06,21,00,000,41,22,00,000,42*6E
$B3CN0,0,36,0,0,0,0,0,0,0,0,0,0,0,0*79
sat79 = 8478 1097 2796 2750
sat79 = 8578 1775 2782 5250
sat81 = 9858 1637 3219 -2750
sat81 = 10915 837 3223 -4000
sat82 = 10825 593 2842 0
sat82 = 13260 593 2776 0
sat84 = 9323 1849 2846 -7750
sat84 = 8020 409 2821 -3500
sat86 = 8540 544 2902 -5250
sat86 = 8435 621 2827 3250
sat87 = 8626 1060 2887 -4000
sat87 = 8709 1572 2854 -1500
---00000018--- Acq_st=7 0  2019-4-1 3:26:14 
[00]  02(G03)  f 45  7  0   -282.5  2046000.3  0.0  2 0 3100 4214 1624
[01]  15(G16)  f 42  7  0  -2463.7  2046003.1 -0.1  2 0 1455 2327 1039
[02]  21(G22)  f 43  7  0    584.7  2045999.2 -0.0  2 0  610 1664 1108
[03]  22(G23)  f 37  7  0  -4304.1  2046005.5  0.2  2 0  741 1051  733
[16]  38(B02) 1f 40 31  0  -1058.0  4092002.7 -0.2  2 0  539  903  504
[18]  46(B10)  7 41  7  0  -1069.4  4092002.7 -0.1  2 0 1012 1540  624
[19]  54(B18) 1f 42  8  0   -939.9  4092002.3  0.0  2 0 1417 1933  885
[20]  55(B19) 1f 41  8  0   1786.5  4091995.2  0.1  2 0 1220 1578  822
[21]  57(B21) 1f 41 11  0  -3244.0  4092008.4  0.1  2 0 1326 1401  641
[22]  58(B22) 1f 42 11  0   -669.5  4092001.6 -0.0  2 0 1230 1759  852
[32]  82(N01)  1 23  9  0    -84.4  1022000.8 -0.0  1 0   177  395  566
[33]  83(N02)  f 39  7  0  -2798.4  1022001.7 -0.3  2 0   844  924  192
$GNGGA,032615.104,,,,,0,00,,,M,,,,0000*2D
$GNRMC,032615.104,A,,,,,,,070180,,*2E
$GPGSA,A,1,,,,,,,,,,,,,,,*1E
$BDGSA,A,1,,,,,,,,,,,,,,,*0F
$GLGSA,A,1,,,,,,,,,,,,,,,*02
$GPGSV,1,1,04,03,00,000,45,16,00,000,42,22,00,000,43,23,00,000,37*7C
$BDGSV,2,1,06,02,00,000,40,10,00,000,41,18,00,000,42,19,00,000,41*6D
$BDGSV,2,2,06,21,00,000,41,22,00,000,42*6E
$B3CN0,0,0,0,0,0,0,0,0,0,0,0,0,0,0*4C
---00000019--- Acq_st=7 0  2019-4-1 3:26:15 
[00]  02(G03)  f 45  7  0   -279.4  2046000.3 -0.0  2 0 2780 4359 2128
[01]  15(G16)  f 43  7  0  -2458.3  2046003.1 -0.0  2 0 1071 2092 1395
[02]  21(G22)  f 43  7  0    590.7  2045999.2  0.0  2 0 1411 2184  524
[03]  22(G23)  f 38  9  0  -4304.0  2046005.5 -0.2  2 0  812 1295 1040
[16]  38(B02) 1f 39 23  0  -1051.6  4092002.6 -0.2  2 0 1258  886  437
[18]  46(B10) 1f 41  7  0  -1069.3  4092002.7 -0.1  2 0  782 1215  618
[19]  54(B18) 1f 42  7  0   -936.6  4092002.3 -0.0  2 0 1355 2045  923
[20]  55(B19) 1f 41  7  0   1792.5  4091995.2  0.0  2 0 1041 1626  866
[21]  57(B21) 1f 41 14  0  -3235.4  4092008.3 -0.1  2 0 1163 1502  622
[22]  58(B22) 1f 42  7  0   -669.6  4092001.6  0.0  2 0 1339 2005 1461
[32]  82(N01)  7  7  7  0     13.2  1022000.0 -0.1 10 0    92  145  441
[33]  83(N02)  f 39  7  0  -2795.8  1022001.7  0.2  2 0   793  821  379
[48]  38(B02)  1 20 14  0  -1050.1 20460019.5 -0.0  1 0  253  216  370
[51]  54(B18)  1  7  7  0   -634.7 20460015.1  0.1  1 0 1015  781  441
[52]  55(B19)  1  7  7  0   1446.8 20459972.9 -0.1  1 0  314  859  585
[53]  57(B21)  1  7  7  0  -2504.8 20460052.3 -0.1  1 0  186  365  297
[54]  58(B22)  1  7  7  0   -345.4 20460011.3  0.0  1 0  359  517  830
$GNGGA,032616.104,,,,,0,00,,,M,,,,0000*2E
$GNRMC,032616.104,A,,,,,,,070180,,*2D
$GPGSA,A,1,,,,,,,,,,,,,,,*1E
$BDGSA,A,1,,,,,,,,,,,,,,,*0F
$GLGSA,A,1,,,,,,,,,,,,,,,*02
$GPGSV,1,1,04,03,00,000,45,16,00,000,43,22,00,000,43,23,00,000,38*72
$BDGSV,2,1,06,02,00,000,39,10,00,000,41,18,00,000,42,19,00,000,41*63
$BDGSV,2,2,06,21,00,000,41,22,00,000,42*6E
$B3CN0,0,0,0,0,0,0,0,0,0,0,0,0,0,0*4C
sat0 = 12397 1200 3157 5750
sat0 = 10546 1653 3153 -8500
sat1 = 11046 1615 3158 -4500
sat1 = 12926 149 3150 -3500
sat3 = 10820 1315 3163 6750
sat3 = 12009 515 3151 3750
sat4 = 11665 13 3168 1000
sat4 = 12715 938 3153 -4000
sat5 = 10171 149 3150 8250
sat5 = 10879 66 3140 -4250
sat6 = 11445 711 3182 -1750
sat6 = 10839 1722 3175 9250
sat7 = 11901 771 3122 2500
sat7 = 11065 71 3131 -1000
sat8 = 10401 1853 3156 8000
sat8 = 11691 1432 3147 2000
sat9 = 10636 518 3148 1750
sat9 = 13234 1650 3156 500
sat10 = 12000 955 3156 0
sat10 = 12347 1936 3148 -250
sat11 = 11003 1053 3145 -8000
sat11 = 10575 597 3144 -250
sat12 = 11594 981 3149 -2750
---00000020--- Acq_st=3 0  2019-4-1 3:26:16 
[00]  02(G03)  f 45  7  0   -292.1  2046000.3  0.0  2 0 2648 4081 2035
[01]  15(G16)  f 42  7  0  -2473.1  2046003.1 -0.0  2 0 1630 2452  992
[02]  21(G22)  f 43  7  0    578.8  2045999.2 -0.0  2 0  986 2304 1036
[03]  22(G23)  f 40  7  0  -4316.1  2046005.5  0.0  2 0 1230 1829  900
[16]  38(B02) 1f 40 23  0  -1068.6  4092002.8  0.5  2 0  746 1004  626
[18]  46(B10) 1f 41  7  0  -1079.9  4092002.7  0.0  2 0 1035 1512  504
[19]  54(B18) 1f 43  7  0   -944.0  4092002.3  0.1  2 0 1154 2236 1453
[20]  55(B19) 1f 41  7  0   1775.3  4091995.2 -0.1  2 0 1591 1993  867
[21]  57(B21) 1f 42 11  0  -3251.1  4092008.4  0.0  2 0  982 1660  827
[22]  58(B22) 1f 42 12  0   -678.5  4092001.6  0.0  2 0 1396 1497  621
[32]  82(N01)  7 33  7  0     -2.9  1021999.9 -0.1  5 0   347  467  434
[33]  83(N02)  f 38  7  0  -2805.7  1022001.7  0.3  2 0   822  998  430
[48]  38(B02)  7 10 10  1   -911.3 20460017.0  0.2  2 0  218   97  281
[50]  46(B10)  1  7  7  0   -697.3 20460018.0  0.0  1 0  161  342  660
[51]  54(B18)  1  7  7  0   -286.5 20460015.3  0.1  1 0  844  616  775
[52]  55(B19)  1  7  7  0   1448.3 20459972.4 -0.1  1 0  338  386  155
[53]  57(B21)  1  7  7  0  -2136.3 20460051.9  0.1  1 0  518  428  267
[54]  58(B22)  1  7  7  0   -366.4 20460009.4 -0.1  1 0  580  374  339
sat12 = 11578 629 3139 7750
sat13 = 12094 173 3155 -9750
$GNGGA,032617.104,,,,,0,00,,,M,,,,0000*2F
$GNRMC,032617.104,A,,,,,,,070180,,*2C
$GPGSA,A,1,,,,,,,,,,,,,,,*1E
$BDGSA,A,1,,,,,,,,,,,,,,,*0F
$GLGSA,A,1,,,,,,,,,,,,,,,*02
$GPGSV,1,1,04,03,00,000,45,16,00,000,42,22,00,000,43,23,00,000,40*7C
$BDGSV,2,1,06,02,00,000,40,10,00,000,41,18,00,000,43,19,00,000,41*6C
$BDGSV,2,2,06,21,00,000,42,22,00,000,42*6D
$B3CN0,0,0,0,0,0,0,0,0,0,0,0,0,0,0*4C
sat13 = 11134 1373 3151 -6000
sat14 = 11117 1522 3185 -8000
sat14 = 10675 498 3174 -7000
sat16 = 11861 606 3188 7000
sat16 = 12176 693 3180 -5750
sat17 = 11910 939 3159 2250
sat17 = 13241 1867 3154 1000
sat18 = 10643 849 3148 7250
sat18 = 10615 345 3152 2000
sat19 = 12233 925 3150 -9250
sat19 = 12247 925 3151 8750
sat20 = 10977 1743 3174 -1250
sat20 = 11753 1605 3168 5500
sat23 = 11344 626 3186 -7750
sat23 = 12187 2036 3172 10000
sat24 = 10909 349 3150 -5500
sat24 = 11866 1325 3155 500
sat25 = 10319 632 3161 3750
sat25 = 11482 1206 3156 3750
sat26 = 11466 1241 3163 7750
sat26 = 11320 1862 3146 -4500
sat27 = 11426 1401 3154 -250
---00000021--- Acq_st=3 0  2019-4-1 3:26:17 
[00]  02(G03)  f 45  7  0   -287.8  2046000.3 -0.0  2 0 2992 4515 2086
[01]  15(G16)  f 42  7  0  -2465.5  2046003.1  0.0  2 0 1453 2243 1263
[02]  21(G22)  f 43  7  0    581.0  2045999.2 -0.0  2 0 1227 2182  932
[03]  22(G23)  f 41  7  0  -4315.9  2046005.5  0.0  2 0  415 1168  684
[16]  38(B02) 1f 40 26  0  -1064.5  4092002.7 -0.3  2 0  619 1255  463
[18]  46(B10) 1f 41  7  0  -1075.7  4092002.7  0.1  2 0 1077 1413  610
[19]  54(B18) 1f 42  7  0   -943.9  4092002.4 -0.0  2 0 1564 2126  180
[20]  55(B19) 1f 41  7  0   1781.3  4091995.2  0.0  2 0 1445 1293  488
[21]  57(B21) 1f 42 15  0  -3242.7  4092008.4 -0.0  2 0 1877 1766  385
[22]  58(B22) 1f 42  7  0   -676.7  4092001.7  0.1  2 0  971 1466 1058
[32]  82(N01)  7 34  7  0     -1.5  1021999.9  0.2  5 0   291  447  450
[33]  83(N02)  f 38  7  0  -2803.9  1022001.8 -0.3  2 0   196  449  312
[48]  38(B02)  7 21 18  0  -1066.2 20460015.4 -0.0  2 0  287  468  476
[50]  46(B10)  1  7  7  0  -1192.0 20460017.8 -0.0  1 0   68  515  381
[51]  54(B18)  1  7  7  0    -41.6 20460015.3  0.1  1 0  938  274  251
[52]  55(B19)  1 10  7  0    952.5 20459971.5  0.1  1 0  490  612   50
[53]  57(B21)  1  9  7  0  -2401.3 20460052.9 -0.1  1 0  524  288  563
[54]  58(B22)  1  7  7  0   -108.4 20460009.8 -0.1  1 0  909  527  454
sat27 = 11027 1158 3144 1500
sat28 = 10639 999 3160 -9750
$GNGGA,032618.104,,,,,0,00,,,M,,,,0000*20
$GNRMC,032618.104,A,,,,,,,070180,,*23
$GPGSA,A,1,,,,,,,,,,,,,,,*1E
$BDGSA,A,1,,,,,,,,,,,,,,,*0F
$GLGSA,A,1,,,,,,,,,,,,,,,*02
$GPGSV,1,1,04,03,00,000,45,16,00,000,42,22,00,000,43,23,00,000,41*7D
$BDGSV,2,1,06,02,00,000,40,10,00,000,41,18,00,000,42,19,00,000,41*6D
$BDGSV,2,2,06,21,00,000,42,22,00,000,42*6D
$B3CN0,0,21,0,0,0,0,0,0,0,0,0,0,0,0*7F
sat28 = 10558 284 3145 2250
sat29 = 11256 1167 3150 -6000
sat29 = 11190 935 3144 4500
sat30 = 10961 333 3154 9250
sat30 = 10859 1481 3148 7750
sat31 = 11215 1739 3158 -500
sat31 = 12045 1740 3146 250
sat39 = 138723 1619 43351 -4500
sat39 = 153540 2860 48756 5000
sat40 = 137017 1450 43441 250
sat40 = 160335 2382 49157 6250
sat41 = 272045 3122 43284 -1000
sat41 = 189318 3122 48881 -1250
sat42 = 144406 2732 43437 1500
---00000022--- Acq_st=3 0  2019-4-1 3:26:18 
[00]  02(G03)  f 45  7  0   -284.0  2046000.3 -0.0  2 0 2040 3590 1661
[01]  15(G16)  f 42  7  0  -2461.6  2046003.1  0.0  2 0 1254 1952  946
[02]  21(G22)  f 43  7  0    586.9  2045999.2  0.0  2 0 1318 2329  879
[03]  22(G23)  f 40  7  0  -4313.9  2046005.5  0.2  2 0  557 1362  737
[16]  38(B02) 1f 40 26  0  -1066.4  4092002.7 -0.9  2 0  746 1330  621
[17]  41(B05)  1 22 19  1  -1250.0  4092003.0  0.0  1 0  184  479  632
[18]  46(B10) 1f 41  7  0  -1071.7  4092002.7 -0.1  2 0  995 1552  976
[19]  54(B18) 1f 42  8  0   -942.1  4092002.3  0.0  2 0 1822 1818  744
[20]  55(B19) 1f 42  7  0   1788.0  4091995.1 -0.0  2 0 1593 1810  465
[21]  57(B21) 1f 42 13  0  -3241.6  4092008.3  0.0  2 0 1302 1929  736
[22]  58(B22) 1f 42  7  0   -669.0  4092001.6 -0.0  2 0 1186 1581 1047
[32]  82(N01)  7 34  7  0      3.0  1021999.9 -0.2  5 0   809  768  134
[33]  83(N02)  f 37  7  0  -2800.2  1022001.7  0.1  2 0   215  468  198
[48]  38(B02)  7 10 10  1  -1442.2 20460023.6  0.0  2 0  198  151  602
[50]  46(B10)  1  7  7  0  -1391.5 20460018.1 -0.0  1 0   54  587  946
[51]  54(B18)  1  7  7  0    -41.3 20460015.6 -0.1  1 0  663  413  342
[52]  55(B19)  1  7  7  0   1314.3 20459973.8  0.1  1 0  430  863  384
[53]  57(B21)  1  7  7  0  -2688.9 20460051.9 -0.1  1 0  646 1034  823
[54]  58(B22)  1  7  7  0   -980.2 20460011.0  0.2  1 0  623  247  328
sat42 = 152324 2489 49030 2500
$GNGGA,032619.104,,,,,0,00,,,M,,,,0000*21
$GNRMC,032619.104,A,,,,,,,010419,,*21
$GPGSA,A,1,,,,,,,,,,,,,,,*1E
$BDGSA,A,1,,,,,,,,,,,,,,,*0F
$GLGSA,A,1,,,,,,,,,,,,,,,*02
$GPGSV,1,1,04,03,00,000,45,16,00,000,42,22,00,000,43,23,00,000,40*7C
$BDGSV,2,1,06,02,00,000,40,10,00,000,41,18,00,000,42,19,00,000,42*6E
$BDGSV,2,2,06,21,00,000,42,22,00,000,42*6D
$B3CN0,0,0,0,0,0,0,0,0,0,0,0,0,0,0*4C
sat43 = 150909 2124 43357 3250
sat43 = 163300 3931 48814 -3500
sat44 = 136551 3335 43150 3250
sat44 = 161000 1586 48999 3500
sat45 = 136852 2189 43461 -5500
sat45 = 149836 1282 49058 -1250
sat47 = 149385 1120 43351 750
sat47 = 173064 1342 48879 -6000
sat48 = 155506 260 43184 10000
sat48 = 159067 132 48815 4500
sat49 = 139454 2888 43326 -7000
sat49 = 153550 3580 48835 -9750
---00000023--- Acq_st=3 0  2019-4-1 3:26:19 
[00]  02(G03)  f 45  7  0   -292.6  2046000.3  0.0  2 0 2023 4148 2564
[01]  15(G16)  f 43  7  0  -2469.1  2046003.2 -0.1  2 0 1565 2477 1072
[02]  21(G22)  f 43  7  0    572.6  2045999.2 -0.0  2 0 1286 2213 1175
[03]  22(G23)  f 39  7  0  -4314.3  2046005.6  0.0  2 0  632  973  391
[16]  38(B02) 1f 40 26  0  -1072.6  4092002.6  0.8  2 0  575  943  510
[17]  41(B05)  1 37 25  0  -1080.8  4092004.2  0.9  1 0  531  997  779
[18]  46(B10) 1f 41  7  0  -1077.6  4092002.7 -0.0  2 0 1472 1350  145
[19]  54(B18) 1f 42  7  0   -951.6  4092002.4 -0.0  2 0 1007 1763  810
[20]  55(B19) 1f 42  9  0   1777.6  4091995.2  0.0  2 0 1326 1541  429
[21]  57(B21) 1f 42 14  0  -3250.3  4092008.4  0.0  2 0 1919 2285  963
[22]  58(B22) 1f 42  7  0   -676.8  4092001.7 -0.0  2 0 1483 1578  406
[32]  82(N01)  7 32  7  0     -9.1  1021999.9  0.0  5 0   239  452  166
[33]  83(N02)  f 37  7  0  -2808.5  1022001.7  0.2  2 0   122  622  198
[48]  38(B02)  7 20 10  0  -1394.6 20460023.6  0.1  2 0  241  229  550
[50]  46(B10)  1  7  7  0  -1048.0 20460016.6 -0.2  1 0 1029  477  250
$GNGGA,032620.104,,,,,0,00,,,M,,,,0000*2B
$GNRMC,032620.104,A,,,,,,,010419,,*2B
$GPGSA,A,1,,,,,,,,,,,,,,,*1E
$BDGSA,A,1,,,,,,,,,,,,,,,*0F
$GLGSA,A,1,,,,,,,,,,,,,,,*02
$GPGSV,1,1,04,03,00,000,45,16,00,000,43,22,00,000,43,23,00,000,39*73
$BDGSV,2,1,06,02,00,000,40,10,00,000,41,18,00,000,42,19,00,000,42*6E
$BDGSV,2,2,06,21,00,000,42,22,00,000,42*6D
$B3CN0,0,20,0,0,0,0,0,0,0,0,0,0,0,0*7E
sat50 = 149171 1921 43176 6000
sat50 = 155337 3143 48756 3500
sat51 = 134977 3021 43260 8000
sat51 = 143593 2585 48800 -4500
sat52 = 144198 3960 43383 -5500
sat52 = 151923 750 49228 8750
sat53 = 137764 2155 43311 3000
sat53 = 163372 2257 48978 -5000
sat56 = 137238 3596 43135 3000
sat56 = 147616 867 48642 1000
sat59 = 135539 1539 43436 2500
sat59 = 150170 3165 48861 9750
---00000024--- Acq_st=3 0  2019-4-1 3:26:20 
[00]  02(G03)  f 45  7  0   -280.7  2046000.3  0.0  2 0 2808 4146 1729
[01]  15(G16)  f 43  7  0  -2458.3  2046003.2  0.0  2 0  716 1420 1323
[02]  21(G22)  f 43  7  0    589.1  2045999.2  0.0  2 0 1326 2287  959
[03]  22(G23)  f 40  7  0  -4303.3  2046005.5 -0.1  2 0  966 1581  692
[16]  38(B02) 1f 41 24  0  -1058.4  4092002.6 -0.5  2 0 1016 1146  311
[17]  41(B05)  f 35 26  0  -1065.9  4092002.4 -0.3  2 0  408  595  489
[18]  46(B10) 1f 41  7  0  -1073.0  4092002.7 -0.0  2 0 1167 1234  245
[19]  54(B18) 1f 43  7  0   -939.6  4092002.3 -0.0  2 0 1351 1576  885
[20]  55(B19) 1f 41  7  0   1789.6  4091995.2 -0.0  2 0 1399 1366  565
[21]  57(B21) 1f 42 16  0  -3236.9  4092008.4 -0.0  2 0 1800 2094  921
[22]  58(B22) 1f 42  7  0   -667.0  4092001.7 -0.0  2 0 1240 1703  815
[32]  82(N01)  f 30  7  0      4.9  1022000.1 -0.1  5 0   161  324  263
[33]  83(N02)  f 37  7  0  -2798.4  1022001.8 -0.1  2 0   466  626  199
[51]  54(B18)  1  7  7  0   -893.7 20460015.6 -0.1  1 0  812 1491  826
[52]  55(B19)  1  7  7  0   1647.4 20459972.4 -0.1  1 0  168  245  141
[53]  57(B21)  1  7  7  0  -2338.8 20460051.4  0.0  1 0  273  373  332
[54]  58(B22)  1  7  7  0   -426.8 20460010.0  0.2  1 0  350  507  770
sat60 = 138202 1356 43307 1250
$GNGGA,032621.104,,,,,0,00,,,M,,,,0000*2A
$GNRMC,032621.104,A,,,,,,,010419,,*2A
$GPGSA,A,1,,,,,,,,,,,,,,,*1E
$BDGSA,A,1,,,,,,,,,,,,,,,*0F
$GLGSA,A,1,,,,,,,,,,,,,,,*02
$GPGSV,1,1,04,03,00,000,45,16,00,000,43,22,00,000,43,23,00,000,40*7D
$BDGSV,2,1,07,02,00,000,41,05,00,000,35,10,00,000,41,18,00,000,43*62
$BDGSV,2,2,07,19,00,000,41,21,00,000,42,22,00,000,42*51
$B3CN0,0,0,0,0,0,0,0,0,0,0,0,0,0,0*4C
sat60 = 151481 475 48758 -9750
sat61 = 147619 2072 42992 -250
sat61 = 167266 1246 48649 -4750
sat62 = 146081 2393 43308 1500
sat62 = 148558 3796 48946 4250
sat63 = 143776 1720 43338 -2750
sat63 = 153817 3130 48838 -1500
sat64 = 130364 1346 43540 2000
sat64 = 140603 3780 48898 -9750
sat65 = 134528 2341 43278 -4500
sat65 = 155312 510 48900 -3500
---00000025--- Acq_st=3 0  2019-4-1 3:26:21 
[00]  02(G03)  f 45  7  0   -283.4  2046000.3  0.0  2 0 2759 4288 2084
[01]  15(G16)  f 42  7  0  -2460.2  2046003.2  0.1  2 0 1236 1972 1124
[02]  21(G22)  f 43  7  0    586.9  2045999.2 -0.0  2 0 1898 2580 1035
[03]  22(G23)  f 40  7  0  -4303.2  2046005.5  0.2  2 0  939 1510  654
[16]  38(B02) 1f 40 25  0  -1059.5  4092002.6 -0.2  2 0  875 1232  378
[17]  41(B05)  f 35 24  0  -1066.3  4092002.8  0.5  2 0  826  908  511
[18]  46(B10) 1f 40  7  0  -1066.0  4092002.7 -0.0  2 0 1081 1224  198
[19]  54(B18) 1f 42  7  0   -940.2  4092002.3 -0.1  2 0 1543 1966 1001
[20]  55(B19) 1f 42  7  0   1787.3  4091995.2 -0.0  2 0 1622 1474  424
[21]  57(B21) 1f 42 10  0  -3242.5  4092008.4  0.0  2 0 1750 1912  641
[22]  58(B22) 1f 42  8  0   -665.5  4092001.6 -0.1  2 0  949 1384 1220
[32]  82(N01)  f 30  7  0      3.7  1022000.0 -0.0  5 0   239  533  557
[33]  83(N02)  f 36  7  0  -2802.9  1022001.7  0.3  2 0   762  768  580
[48]  38(B02)  1 19 10  0  -1188.2 20460019.7 -0.0  1 0  481  232  513
[50]  46(B10)  1  7  7  0   -834.1 20460017.0 -0.0  1 0  280  275  343
[51]  54(B18)  1  9  7  0   -580.0 20460015.6 -0.1  1 0  369  322  309
[52]  55(B19)  1  7  7  0   1554.5 20459972.2 -0.1  1 0  778  573  479
[53]  57(B21)  1  7  7  0  -1574.0 20460052.8  0.1  1 0  242  449  265
[54]  58(B22)  1  7  7  0   -486.7 20460011.9  0.1  1 0  485  485  385
sat66 = 146744 1196 43362 -9250
$GNGGA,032622.104,,,,,0,00,,,M,,,,0000*29
$GNRMC,032622.104,A,,,,,,,010419,,*29
$GPGSA,A,1,,,,,,,,,,,,,,,*1E
$BDGSA,A,1,,,,,,,,,,,,,,,*0F
$GLGSA,A,1,,,,,,,,,,,,,,,*02
$GPGSV,1,1,04,03,00,000,45,16,00,000,42,22,00,000,43,23,00,000,40*7C
$BDGSV,2,1,07,02,00,000,40,05,00,000,35,10,00,000,40,18,00,000,42*63
$BDGSV,2,2,07,19,00,000,42,21,00,000,42,22,00,000,42*52
$B3CN0,0,0,0,0,0,0,0,0,0,0,0,0,0,0*4C
sat66 = 151917 3478 49016 -8500
sat67 = 140114 2703 43348 8750
sat67 = 158593 2266 48789 -4000
sat68 = 132497 3545 43266 5000
sat68 = 151276 1268 49022 7500
sat74 = 9041 407 3009 5500
sat74 = 9097 1767 2890 -6500
sat75 = 8531 1274 2846 8000
sat75 = 8489 750 2841 6250
sat76 = 8893 24 2821 8000
sat76 = 8552 730 2796 -3000
sat77 = 8165 41 2768 0
sat77 = 9258 458 2861 -4000
sat78 = 10205 1798 2821 9500
sat78 = 8037 919 2811 -9000
---00000026--- Acq_st=3 0  2019-4-1 3:26:22 
[00]  02(G03)  f 46  7  0   -280.1  2046000.3 -0.0  2 0 2707 4333 1946
[01]  15(G16)  f 42  7  0  -2456.1  2046003.2 -0.0  2 0  977 1791  972
[02]  21(G22)  f 44  7  0    588.4  2045999.1  0.0  2 0 1551 2452  704
[03]  22(G23)  f 40  7  0  -4304.3  2046005.5  0.0  2 0 1341 1485  702
[16]  38(B02) 1f 39 27  0  -1060.2  4092002.7 -0.8  2 0  477 1109  422
[17]  41(B05)  f 35 25  0  -1055.5  4092002.6  0.8  2 0  653  460   29
[18]  46(B10) 1f 41  7  0  -1073.8  4092002.7 -0.0  2 0  892 1072  314
[19]  54(B18) 1f 42  7  0   -937.8  4092002.3 -0.0  2 0 1656 1862  937
[20]  55(B19) 1f 42  8  0   1787.0  4091995.2  0.0  2 0 1354 1402  668
[21]  57(B21) 1f 42 15  0  -3236.1  4092008.4  0.1  2 0 1675 1999  804
[22]  58(B22) 1f 42  7  0   -667.4  4092001.7 -0.1  2 0 1101 1411  800
[32]  82(N01)  f 29  7  0      6.2  1021999.8  0.2  5 0    86  220  233
[33]  83(N02)  f 36  7  0  -2798.1  1022001.7 -0.1  2 0   551  592  550
[48]  38(B02)  7 10 10  0   -326.0 20460003.8  0.3  2 0  795  844  170
[50]  46(B10)  1  7  7  0   -186.7 20460017.8 -0.0  1 0  782  517  575
[51]  54(B18)  1  7  7  0   -617.6 20460014.0 -0.1  1 0  515  372  253
[52]  55(B19)  1  7  7  0   1598.9 20459972.9  0.0  1 0  644  825  679
[53]  57(B21)  1  7  7  0  -1344.6 20460053.3 -0.0  1 0  360  198  129
[54]  58(B22)  1  7  7  0   -294.5 20460010.1 -0.1  1 0  494  834 1130
sat79 = 9358 930 2803 1000
sat79 = 8865 184 2752 -8750
$GNGGA,032623.104,,,,,0,00,,,M,,,,0000*28
$GNRMC,032623.104,A,,,,,,,010419,,*28
$GPGSA,A,1,,,,,,,,,,,,,,,*1E
$BDGSA,A,1,,,,,,,,,,,,,,,*0F
$GLGSA,A,1,,,,,,,,,,,,,,,*02
$GPGSV,1,1,04,03,00,000,46,16,00,000,42,22,00,000,44,23,00,000,40*78
$BDGSV,2,1,07,02,00,000,39,05,00,000,35,10,00,000,41,18,00,000,42*6C
$BDGSV,2,2,07,19,00,000,42,21,00,000,42,22,00,000,42*52
$B3CN0,0,0,0,0,0,0,0,0,0,0,0,0,0,0*4C
sat80 = 9148 1165 2816 -6750
sat80 = 8673 481 2776 500
sat81 = 9210 1523 2951 4250
sat81 = 9865 1419 2985 6250
sat84 = 7950 1187 2810 4750
sat84 = 8189 561 2836 -9250
sat85 = 49537 952 3017 -1500
sat86 = 8933 1216 2827 3500
sat86 = 8106 1383 2831 6000
sat87 = 9359 1449 2830 -5500
sat87 = 9682 1916 2908 -7500
---00000027--- Acq_st=7 0  2019-4-1 3:26:23 
[00]  02(G03)  f 45  7  0   -284.7  2046000.3  0.0  2 0 2330 4076 1527
[01]  15(G16)  f 41  7  0  -2465.0  2046003.1  0.0  2 0  870 1769  727
[02]  21(G22)  f 43  7  0    584.7  2045999.2  0.0  2 0 1470 2607 1168
[03]  22(G23)  f 41  7  0  -4311.7  2046005.5  0.1  2 0 1257 1721  740
[16]  38(B02) 1f 41 25  0  -1062.9  4092002.6 -0.1  2 0  930 1202  454
[17]  41(B05) 1f 35 23  0  -1066.1  4092002.7  0.0  2 0  410  775  406
[18]  46(B10) 1f 41  7  0  -1073.9  4092002.7 -0.1  2 0  723 1103  622
[19]  54(B18) 1f 42  7  0   -946.1  4092002.4 -0.0  2 0 1484 2051  810
[20]  55(B19) 1f 41  7  0   1783.8  4091995.2 -0.0  2 0 1642 1606  356
[21]  57(B21) 1f 42 14  0  -3241.5  4092008.4 -0.0  2 0 1668 2023  849
[22]  58(B22) 1f 41 11  0   -673.0  4092001.6 -0.0  2 0 1215 1886  764
[32]  82(N01)  f 28  7  0     -2.6  1022000.0  0.0  5 0   315  294  263
[33]  83(N02)  f 36  7  0  -2806.2  1022001.8  0.0  2 0   476  839  373
[34]  85(N04)  1 18 12  0  -1548.5  1022001.1  0.1  1 0   260  267   41
[48]  38(B02)  7 10 10  0   -609.5 20460008.8 -0.0  2 0  349  297  393
[50]  46(B10)  1  7  7  0   -192.8 20460019.1  0.1  1 0  401  263  800
[51]  54(B18)  1  7  7  0   -224.6 20460016.3  0.0  1 0  775  658  191
[52]  55(B19)  1  7  7  0   1105.6 20459973.5  0.1  1 0  537  428  569
[53]  57(B21)  1  7  7  0  -1151.9 20460052.8  0.1  1 0  288  182  355
[54]  58(B22)  1  7  7  0    -87.3 20460011.8 -0.0  1 0  675  891  188
$GNGGA,032624.104,,,,,0,00,,,M,,,,0000*2F
$GNRMC,032624.104,A,,,,,,,010419,,*2F
$GPGSA,A,1,,,,,,,,,,,,,,,*1E
$BDGSA,A,1,,,,,,,,,,,,,,,*0F
$GLGSA,A,1,,,,,,,,,,,,,,,*02
$GPGSV,1,1,04,03,00,000,45,16,00,000,41,22,00,000,43,23,00,000,41*7E
$BDGSV,2,1,07,02,00,000,41,05,00,000,35,10,00,000,41,18,00,000,42*63
$BDGSV,2,2,07,19,00,000,41,21,00,000,42,22,00,000,41*52
$B3CN0,0,0,0,0,0,0,0,0,0,0,0,0,0,0*4C
---00000028--- Acq_st=7 0  2019-4-1 3:26:24 
[00]  02(G03)  f 45  7  0   -281.4  2046000.3 -0.0  2 0 2141 3960 1675
[01]  15(G16)  f 42  7  0  -2459.8  2046003.1 -0.0  2 0 1037 1378  687
[02]  21(G22)  f 44  7  0    587.4  2045999.2 -0.0  2 0 2048 2942 1051
[03]  22(G23)  f 42  7  0  -4304.9  2046005.5 -0.1  2 0 1314 1979 1344
[16]  38(B02) 1f 41 25  0  -1057.3  4092002.6  0.2  2 0  894 1149  531
[17]  41(B05) 1f 36 23  0  -1058.5  4092002.5  0.1  2 0 1144 1003  491
[18]  46(B10) 1f 41  7  0  -1070.9  4092002.7  0.1  2 0  701 1286  680
[19]  54(B18) 1f 42  7  0   -945.3  4092002.3  0.0  2 0 1417 1745  610
[20]  55(B19) 1f 41  7  0   1789.7  4091995.2  0.0  2 0 1177 1936  888
[21]  57(B21) 1f 42 12  0  -3238.7  4092008.4  0.0  2 0  925 1560  955
[22]  58(B22) 1f 42 11  0   -665.7  4092001.7  0.0  2 0 1121 1461  603
[32]  82(N01)  f 26  7  0      1.2  1021999.9 -0.1 10 0   268  292   56
[33]  83(N02)  f 36  7  0  -2797.5  1022001.8  0.0  2 0   340  930  609
[34]  85(N04)  1 12 17  0  -1933.0  1022002.5 -0.1  1 0   226  230  431
[48]  38(B02)  7 10 10  1   -702.5 20460010.8  0.1  2 0  106  311  391
[50]  46(B10)  1  7  8  0    -55.5 20460019.2  0.1  1 0  308  609  536
$GNGGA,032625.104,,,,,0,00,,,M,,,,0000*2E
$GNRMC,032625.104,A,,,,,,,010419,,*2E
$GPGSA,A,1,,,,,,,,,,,,,,,*1E
$BDGSA,A,1,,,,,,,,,,,,,,,*0F
$GLGSA,A,1,,,,,,,,,,,,,,,*02
$GPGSV,1,1,04,03,00,000,45,16,00,000,42,22,00,000,44,23,00,000,42*79
$BDGSV,2,1,07,02,00,000,41,05,00,000,36,10,00,000,41,18,00,000,42*60
$BDGSV,2,2,07,19,00,000,41,21,00,000,42,22,00,000,42*51
$B3CN0,0,0,0,0,0,0,0,0,0,0,0,0,0,0*4C
sat0 = 12463 1275 3171 -8500
sat0 = 10549 1239 3142 -8250
sat1 = 12356 1091 3178 4000
sat1 = 11949 1839 3149 -7250
sat3 = 13525 1447 3176 3250
sat3 = 12485 1157 3152 1500
sat4 = 11222 1925 3176 5250
sat4 = 10956 395 3152 5250
sat5 = 11674 529 3169 2000
sat5 = 14596 1661 3141 -4750
sat6 = 11876 855 3189 9250
sat6 = 12440 951 3167 -8750
sat7 = 12052 439 3155 -2000
sat7 = 12364 709 3121 -5250
sat8 = 11601 383 3170 -4000
sat8 = 11378 1459 3146 -9750
sat9 = 10911 1779 3174 -6750
sat9 = 12700 811 3156 9000
sat10 = 11909 1935 3173 -1750
sat10 = 12693 1081 3144 -7250
sat11 = 12918 637 3177 7500
sat11 = 13060 1643 3151 2250
sat12 = 11688 697 3175 -9000
---00000029--- Acq_st=3 0  2019-4-1 3:26:25 
[00]  02(G03)  f 45  7  0   -278.0  2046000.3 -0.0  2 0 2536 4048 1801
[01]  15(G16)  f 42  7  0  -2456.9  2046003.1 -0.0  2 0 1657 2238 1229
[02]  21(G22)  f 44  7  0    590.6  2045999.1  0.0  2 0 1657 2231  868
[03]  22(G23)  f 42  7  0  -4305.7  2046005.6 -0.1  2 0  353 1175  747
[16]  38(B02) 1f 40 26  0  -1064.9  4092002.6  0.4  2 0 1199 1525  632
[17]  41(B05) 1f 36 28  0  -1065.7  4092002.6  0.5  2 0  837 1036  201
[18]  46(B10) 1f 41  7  0  -1069.5  4092002.7 -0.0  2 0  890 1344  548
[19]  54(B18) 1f 42  7  0   -937.3  4092002.3 -0.1  2 0 1393 1828  824
[20]  55(B19) 1f 41  7  0   1785.6  4091995.2  0.1  2 0 1042 1288  372
[21]  57(B21) 1f 43 14  0  -3236.7  4092008.4 -0.0  2 0 1556 2270 1070
[22]  58(B22) 1f 42  8  0   -667.2  4092001.6  0.1  2 0 1277 1390   90
[32]  82(N01)  f 25  7  0     -1.6  1022000.1 -0.0 10 0   154  416  320
[33]  83(N02)  f 35  7  0  -2799.9  1022001.7  0.0  2 0   187  431   96
[34]  85(N04)  1  7  7  0  -2080.8  1022001.8 -0.0  1 0   137  367  431
[49]  41(B05)  1 22 21  0   -374.1 20460021.0  0.0  1 0  983  951  480
[51]  54(B18)  1  7  7  0   -622.7 20460015.1 -0.1  1 0  492  177  578
[52]  55(B19)  1  7  7  0   1160.6 20459972.1  0.0  1 0  508  326  949
[53]  57(B21)  1  7  7  0  -3047.2 20460052.6 -0.0  1 0  358  822  854
[54]  58(B22)  1  7  8  0   -446.2 20460008.7  0.2  1 0  578  627  468
sat12 = 11759 1969 3142 2250
sat13 = 11772 1965 3182 -8000
$GNGGA,032626.104,,,,,0,00,,,M,,,,0000*2D
$GNRMC,032626.104,A,,,,,,,010419,,*2D
$GPGSA,A,1,,,,,,,,,,,,,,,*1E
$BDGSA,A,1,,,,,,,,,,,,,,,*0F
$GLGSA,A,1,,,,,,,,,,,,,,,*02
$GPGSV,1,1,04,03,00,000,45,16,00,000,42,22,00,000,44,23,00,000,42*79
$BDGSV,2,1,07,02,00,000,40,05,00,000,36,10,00,000,41,18,00,000,42*61
$BDGSV,2,2,07,19,00,000,41,21,00,000,43,22,00,000,42*50
$B3CN0,0,0,0,0,0,0,0,0,0,0,0,0,0,0*4C
sat13 = 11242 1879 3158 500
sat14 = 11999 1629 3186 -7250
sat14 = 11817 1037 3167 1500
sat16 = 11761 1555 3190 8750
sat16 = 11710 1377 3159 2250
sat17 = 11744 251 3174 1250
sat17 = 12164 765 3138 -2500
sat18 = 12100 1249 3172 -8000
sat18 = 12898 1523 3146 5500
sat19 = 11840 1497 3160 -1500
sat19 = 14290 193 3132 -2750
sat20 = 11518 889 3188 5500
sat20 = 11747 567 3157 -1000
sat23 = 11289 1783 3196 3000
sat23 = 12151 1491 3175 -3000
sat24 = 10917 1067 3166 -9000
sat24 = 11811 900 3149 3500
sat25 = 11448 285 3171 3500
sat25 = 11471 1851 3141 2000
sat26 = 12514 1739 3173 1500
sat26 = 13659 985 3152 -1500
sat27 = 12093 1097 3171 4500
---00000030--- Acq_st=3 0  2019-4-1 3:26:26 
[00]  02(G03)  f 45  7  0   -272.8  2046000.3  0.0  2 0 2738 4065 2184
[01]  15(G16)  f 42  7  0  -2448.9  2046003.0 -0.0  2 0 1578 2232 1098
[02]  21(G22)  f 44  7  0    594.8  2045999.2  0.0  2 0 1314 2471 1137
[03]  22(G23)  f 41  7  0  -4301.1  2046005.5 -0.1  2 0 1250 1819  755
[16]  38(B02) 1f 40 25  0  -1057.2  4092002.7 -0.1  2 0  841  831  314
[17]  41(B05) 1f 37 25  0  -1054.1  4092002.7  0.8  2 0  586  508  540
[18]  46(B10) 1f 41  7  0  -1061.0  4092002.6 -0.0  2 0  800 1697 1089
[19]  54(B18) 1f 42  7  0   -933.8  4092002.3  0.0  2 0 1170 1384  550
[20]  55(B19) 1f 41  7  0   1795.7  4091995.2 -0.0  2 0 1284 1740  768
[21]  57(B21) 1f 42 12  0  -3231.5  4092008.4 -0.0  2 0 1236 1628  562
[22]  58(B22) 1f 41  7  0   -661.8  4092001.6 -0.1  2 0 1603 1889  879
[32]  82(N01)  f 26  7  0      9.9  1021999.9  0.1 10 0   347  409  198
[33]  83(N02)  f 35  7  0  -2794.1  1022001.7  0.0  2 0   595  510  262
[34]  85(N04)  1  7 13  0  -2072.3  1022000.3 -0.2  1 0   599  932  417
[48]  38(B02)  1 13 23  1   -650.7 20460019.7  0.0  1 0  555  870  298
[49]  41(B05)  1 23 22  0    304.2 20460023.0  0.1  1 0  104  235  378
[50]  46(B10)  1  9  7  0   -564.8 20460016.2  0.2  1 0  632  237  371
[51]  54(B18)  1  7  9  0   -196.0 20460016.4 -0.0  1 0  387  375  416
[52]  55(B19)  1  7  7  0   1328.0 20459973.0 -0.1  1 0  380  493  850
[53]  57(B21)  1  7 12  0  -3642.0 20460052.3 -0.1  1 0  192   57  344
[54]  58(B22)  1  7 12  0   -447.5 20460010.3  0.1  1 0  382  922  520
sat27 = 12778 779 3142 6500
sat28 = 13279 1645 3177 -8500
$GNGGA,032627.104,,,,,0,00,,,M,,,,0000*2C
$GNRMC,032627.104,A,,,,,,,010419,,*2C
$GPGSA,A,1,,,,,,,,,,,,,,,*1E
$BDGSA,A,1,,,,,,,,,,,,,,,*0F
$GLGSA,A,1,,,,,,,,,,,,,,,*02
$GPGSV,1,1,04,03,00,000,45,16,00,000,42,22,00,000,44,23,00,000,41*7A
$BDGSV,2,1,07,02,00,000,40,05,00,000,37,10,00,000,41,18,00,000,42*60
$BDGSV,2,2,07,19,00,000,41,21,00,000,42,22,00,000,41*52
$B3CN0,0,0,0,0,0,0,0,0,0,0,0,0,0,0*4C
sat28 = 11986 863 3145 -250
sat29 = 11342 653 3169 3250
sat29 = 16708 715 3139 4250
sat30 = 11617 1163 3168 -5250
sat30 = 13459 1687 3142 -2750
sat31 = 12084 81 3171 -8250
sat31 = 13845 1383 3141 -1750
sat39 = 161883 2101 43476 3000
sat39 = 150521 1525 49103 4000
sat40 = 151552 2713 43762 -750
sat40 = 148213 2125 49090 -7500
sat42 = 149914 4070 43392 7250
sat42 = 170599 4056 49083 4250
sat43 = 149930 3003 43388 -1000
---00000031--- Acq_st=3 0  2019-4-1 3:26:27 
[00]  02(G03)  f 45  7  0   -275.8  2046000.3  0.0  2 0 2242 3732 1484
[01]  15(G16)  f 43  7  0  -2450.8  2046003.1  0.0  2 0 1529 1768  457
[02]  21(G22)  f 44  7  0    593.8  2045999.2  0.0  2 0 1513 2730 1297
[03]  22(G23)  f 41  7  0  -4302.4  2046005.5  0.0  2 0 1179 1531 1051
[16]  38(B02) 1f 40 28  0  -1059.4  4092002.8 -0.7  2 0  743  949  602
[17]  41(B05) 1f 36 27  0  -1060.5  4092002.6 -0.5  2 0  368  653  457
[18]  46(B10) 1f 41  7  0  -1071.2  4092002.6  0.0  2 0  870 1541  690
[19]  54(B18) 1f 42  7  0   -937.8  4092002.3 -0.0  2 0 1126 1834  589
[20]  55(B19) 1f 40  7  0   1793.6  4091995.2  0.0  2 0  677 1392  383
[21]  57(B21) 1f 42 15  0  -3232.1  4092008.3  0.0  2 0 1235 1689  660
[22]  58(B22) 1f 41  7  0   -659.5  4092001.6  0.0  2 0 1425 1660  585
[32]  82(N01)  f 27  7  0     10.0  1021999.9  0.0 10 0   144  220  483
[33]  83(N02)  f 34  7  0  -2795.7  1022001.8  0.0  2 0    73  572  705
[34]  85(N04)  1  7  7  0  -2074.1  1022000.5 -0.0  1 0   471  967 1156
[48]  38(B02)  f 10 16  1  -1506.4 20460025.2  0.1  2 0  173  297  389
[49]  41(B05)  1 23 20  0    399.1 20460021.2 -0.0  1 0  576  688  511
[50]  46(B10)  1  7  7  0   -489.0 20460017.4 -0.1  1 0  145  268  499
[51]  54(B18)  1  7  7  0    174.1 20460014.5  0.1  1 0  825  544  552
[52]  55(B19)  1  7  7  0    307.3 20459971.7 -0.1  1 0  462  613  349
[53]  57(B21)  1  7  7  0  -3965.6 20460054.2 -0.1  1 0  399  557  565
[54]  58(B22)  1  8  7  0   -711.0 20460010.9 -0.0  1 0  405  242  524
sat43 = 157028 61 49096 -8500
$GNGGA,032628.104,,,,,0,00,,,M,,,,0000*23
$GNRMC,032628.104,A,,,,,,,010419,,*23
$GPGSA,A,1,,,,,,,,,,,,,,,*1E
$BDGSA,A,1,,,,,,,,,,,,,,,*0F
$GLGSA,A,1,,,,,,,,,,,,,,,*02
$GPGSV,1,1,04,03,00,000,45,16,00,000,43,22,00,000,44,23,00,000,41*7B
$BDGSV,2,1,07,02,00,000,40,05,00,000,36,10,00,000,41,18,00,000,42*61
$BDGSV,2,2,07,19,00,000,40,21,00,000,42,22,00,000,41*53
$B3CN0,0,0,0,0,0,0,0,0,0,0,0,0,0,0*4C
sat44 = 140500 2897 43434 -2750
sat44 = 159375 3809 48889 750
sat45 = 127036 1906 43416 -250
sat45 = 164540 2129 49426 -9000
sat47 = 140662 3974 43407 -8500
sat47 = 158984 2159 48939 4500
sat48 = 141687 3174 43169 -4250
sat48 = 163175 1771 49322 7500
sat49 = 143456 2302 43329 -750
sat49 = 153940 171 49086 7500
sat50 = 137299 3579 43188 6750
sat50 = 144330 1787 49127 -750
---00000032--- Acq_st=3 0  2019-4-1 3:26:28 
[00]  02(G03)  f 45 12  0   -272.6  2046000.3 -0.0  2 0 2321 3898 1876
[01]  15(G16)  f 43  7  0  -2449.4  2046003.1  0.1  2 0 1436 2328  905
[02]  21(G22)  f 44  7  0    600.3  2045999.2 -0.0  2 0 1218 2633 1385
[03]  22(G23)  f 39  7  0  -4306.0  2046005.5  0.1  2 0  922 1212  696
[16]  38(B02) 1f 39 28  0  -1052.9  4092002.7  0.8  2 0 1103 1507  683
[17]  41(B05) 1f 36 28  0  -1056.1  4092002.7 -0.6  2 0  604  977  735
[18]  46(B10) 1f 41  7  0  -1066.4  4092002.7  0.0  2 0 1064 1671  831
[19]  54(B18) 1f 43  7  0   -932.1  4092002.3  0.0  2 0 1200 1456  423
[20]  55(B19) 1f 41  7  0   1796.8  4091995.2 -0.0  2 0  970 1578  678
[21]  57(B21) 1f 41 14  0  -3228.3  4092008.4  0.1  2 0 1243 1971 1225
[22]  58(B22) 1f 42  7  0   -652.4  4092001.6 -0.0  2 0 1425 1487  607
[32]  82(N01)  f 28  7  0      9.9  1021999.9  0.0 10 0   412  229   50
[33]  83(N02)  f 32  7  0  -2789.9  1022001.6  0.1  5 0   296  504  461
[48]  38(B02)  f 36 13  0  -1403.0 20460024.1  0.0  2 0  378  221  276
[49]  41(B05)  1 19 22  1    168.3 20460023.0  0.1  1 0  685  732  217
[50]  46(B10)  1  7 12  0   -400.9 20460016.8  0.1  1 0  521  126  755
[51]  54(B18)  1  7  8  0   -124.7 20460017.5 -0.1  1 0  660  886  314
[52]  55(B19)  1  7  7  0    188.2 20459972.1 -0.1  1 0  513   57  240
[53]  57(B21)  1  7  9  0  -4615.9 20460052.0  0.1  1 0  310  246  237
