i=1
Rf R0 Config = ff777073
Rf R1 Config = 00dffbfe
Rf R52 Config = 00dfef00
i=2
Rf R0 Config = 007772f3
Rf R1 Config = 00df1bf6
Rf R52 Config = 00d9ae30
i=3
Rf R0 Config = 007772f3
Rf R1 Config = 00df3be6
Rf R52 Config = 00deae70
i=4
Rf R0 Config = 00777273
Rf R1 Config = 00debbfe
Rf R52 Config = 00deee60
SD initialized success
Create debug.log Failed! 3
Start Channel by LuYu
sat0 = 2876 60 826 7750
sat0 threshold = 3 
sat0 = 4355 1804 942 -5750
sat0 threshold = 4 
sat1 = 2745 1047 823 3500
sat1 threshold = 3 
sat1 = 3856 1676 938 9250
sat1 threshold = 4 
sat2 = 44414 454 827 -250
sat2 threshold = 53 
sat3 = 3004 702 827 -5250
sat3 threshold = 3 
sat3 = 4129 1778 946 -6500
sat3 threshold = 4 
sat4 = 2512 1332 825 500
sat4 threshold = 3 
sat4 = 4503 1969 943 500
sat4 threshold = 4 
sat5 = 2519 1018 823 7750
sat5 threshold = 3 
sat5 = 4551 2043 943 -3500
sat5 threshold = 4 
sat6 = 3001 1684 831 -8250
sat6 threshold = 3 
sat6 = 4139 2030 948 -1000
sat6 threshold = 4 
sat7 = 2593 58 824 9000
sat7 threshold = 3 
sat7 = 3981 1786 932 -5750
sat7 threshold = 4 
sat8 = 3151 1329 824 -4500
sat8 threshold = 3 
sat8 = 4244 1872 939 -3750
sat8 threshold = 4 
sat9 = 2693 1539 824 5000
sat9 threshold = 3 
sat9 = 3725 1963 944 6000
sat9 threshold = 3 
sat10 = 2697 139 825 -9250
sat10 threshold = 3 
sat10 = 3975 1534 942 -9500
sat10 threshold = 4 
sat11 = 2736 675 824 6500
sat11 threshold = 3 
sat11 = 4034 2008 941 3500
sat11 threshold = 4 
$GNGGA,000000.000,,,,,0,00,,,M,,,,0000*2B
$GNRMC,000000.000,A,,,,,,,060180,,*29
$GPGSA,A,1,,,,,,,,,,,,,,,*1E
$BDGSA,A,1,,,,,,,,,,,,,,,*0F
$GLGSA,A,1,,,,,,,,,,,,,,,*02
$B3CN0,0,0,0,0,0,0,0,0,0,0,0,0,0,0*4C
---00000001--- Acq_st=3 0  2019-4-1 3:28:46 
[00]  02(G03)  1 24  7  0   -196.3  2046001.3  0.2  1 0 1863 3299 1429
sat12 = 2593 314 823 6750
sat12 threshold = 3 
sat12 = 4379 2044 942 -6000
sat12 threshold = 4 
sat13 = 2846 1506 826 -2250
sat13 threshold = 3 
sat13 = 3756 1994 941 8750
sat13 threshold = 3 
sat14 = 3007 782 826 -4000
sat14 threshold = 3 
sat14 = 4028 1488 944 0
sat14 threshold = 4 
sat15 = 20093 805 826 -2250
sat15 threshold = 24 
sat16 = 2581 145 825 -2500
sat16 threshold = 3 
sat16 = 3684 1868 943 -1750
sat16 threshold = 3 
sat17 = 2433 1192 826 -4750
sat17 threshold = 2 
sat17 = 3699 1557 939 4500
sat17 threshold = 3 
sat18 = 2793 383 825 -6250
sat18 threshold = 3 
sat18 = 3710 1905 945 -6750
sat18 threshold = 3 
sat19 = 2591 17 825 6250
sat19 threshold = 3 
sat19 = 4644 1900 943 0
sat19 threshold = 4 
sat20 = 2653 1021 828 -6500
sat20 threshold = 3 
sat20 = 4616 1980 946 -500
sat20 threshold = 4 
sat21 = 30095 1752 823 750
sat21 threshold = 36 
sat22 = 11310 176 827 -4250
sat22 threshold = 13 
sat23 = 2645 673 827 -2250
sat23 threshold = 3 
sat23 = 4214 2025 948 7000
sat23 threshold = 4 
sat24 = 2701 1431 826 -8500
sat24 threshold = 3 
sat24 = 3708 1656 945 7500
sat24 threshold = 3 
sat25 = 2445 1293 825 750
sat25 threshold = 2 
$GNGGA,000000.000,,,,,0,00,,,M,,,,0000*2B
$GNRMC,000000.000,A,,,,,,,060180,,*29
$GPGSA,A,1,,,,,,,,,,,,,,,*1E
$BDGSA,A,1,,,,,,,,,,,,,,,*0F
$GLGSA,A,1,,,,,,,,,,,,,,,*02
$B3CN0,0,0,0,0,0,0,0,0,0,0,0,0,0,0*4C
---00000002--- Acq_st=3 0  2019-4-1 3:28:47 
[00]  02(G03)  7 21  7  0   -197.6  2046000.1  0.8 10 0 2135 3215 1102
[01]  15(G16)  1 21  7  0  -2368.9  2046005.6  0.3  1 0  319 1340 2196
[02]  21(G22)  1  7  7  0    750.0  2046002.4 -0.0  1 0  740 1480 1693
[03]  22(G23)  1  7  7  0  -4250.0  2046007.4 -0.0  1 0  579  961 1701
sat25 = 4495 1996 941 -1250
sat25 threshold = 4 
sat26 = 2695 1178 823 -1250
sat26 threshold = 3 
sat26 = 3471 1889 941 250
sat26 threshold = 3 
sat27 = 2611 86 828 -750
sat27 threshold = 3 
sat27 = 3890 1903 942 3250
sat27 threshold = 4 
sat28 = 2848 16 827 9500
sat28 threshold = 3 
sat28 = 3745 1732 942 -6000
sat28 threshold = 3 
sat29 = 2703 1620 826 -7750
sat29 threshold = 3 
sat29 = 3888 1762 939 -6500
sat29 threshold = 4 
sat30 = 2774 103 823 8000
sat30 threshold = 3 
sat30 = 4471 2018 943 -6500
sat30 threshold = 4 
sat31 = 2687 1155 824 7500
sat31 threshold = 3 
sat31 = 4197 1798 942 7750
sat31 threshold = 4 
sat38 = 377772 1733 43711 -750
sat38 threshold = 8 
sat38 = 357520 1733 48469 -1000
sat38 threshold = 7 
sat39 = 146891 1338 43267 -5750
sat39 threshold = 3 
sat39 = 154260 948 47873 9500
sat39 threshold = 3 
sat40 = 136366 3032 43476 -6500
sat40 threshold = 3 
$GNGGA,000000.000,,,,,0,00,,,M,,,,0000*2B
$GNRMC,000000.000,A,,,,,,,060180,,*29
$GPGSA,A,1,,,,,,,,,,,,,,,*1E
$BDGSA,A,1,,,,,,,,,,,,,,,*0F
$GLGSA,A,1,,,,,,,,,,,,,,,*02
$GPGSV,1,1,01,03,00,000,21*48
$B3CN0,0,0,0,0,0,0,0,0,0,0,0,0,0,0*4C
---00000003--- Acq_st=3 0  2019-4-1 3:28:48 
[00]  02(G03)  7 46  7  0   -198.9  2046000.1 -0.0  2 0 2604 3775 1595
[01]  15(G16)  7 18  7  0  -2369.4  2046003.0  0.9 10 0 1810 2078  689
[02]  21(G22)  1 31  7  0    636.8  2045998.8  0.7  1 0 1270 1667  743
[03]  22(G23)  1 30  7  0  -4290.0  2046005.8  0.6  1 0 1468 1663  988
[16]  38(B02)  1 36 20  0  -1000.0  4092002.3  0.1  1 0  312  264  807
sat40 = 150911 3932 47953 -5750
sat40 threshold = 3 
sat41 = 185718 1825 43434 -1000
sat41 threshold = 4 
sat41 = 215815 1825 47947 -1250
sat41 threshold = 4 
sat42 = 171004 3349 43246 -9000
sat42 threshold = 3 
sat42 = 142843 2318 48067 5500
sat42 threshold = 2 
sat43 = 138514 2827 43070 -4250
sat43 threshold = 3 
sat43 = 146754 880 48114 -1000
sat43 threshold = 3 
sat44 = 142751 1585 43445 3250
sat44 threshold = 3 
sat44 = 155365 2525 47932 9250
sat44 threshold = 3 
sat45 = 139156 971 43531 -4500
sat45 threshold = 3 
sat45 = 148606 1064 48360 2250
sat45 threshold = 3 
sat46 = 597783 3474 43449 -1000
sat46 threshold = 13 
sat47 = 144035 3904 43508 3000
sat47 threshold = 3 
$GNGGA,032849.682,,,,,0,00,,,M,,,,0000*23
$GNRMC,032849.682,A,,,,,,,070180,,*20
$GPGSA,A,1,,,,,,,,,,,,,,,*1E
$BDGSA,A,1,,,,,,,,,,,,,,,*0F
$GLGSA,A,1,,,,,,,,,,,,,,,*02
$GPGSV,1,1,02,03,00,000,46,16,00,000,18*74
$B3CN0,0,0,0,0,0,0,0,0,0,0,0,0,0,0*4C
---00000004--- Acq_st=3 0  2019-4-1 3:28:49 
[00]  02(G03)  f 45  7  0   -200.5  2046000.2  0.0  2 0 2801 3701 1819
[01]  15(G16)  7 43  7  0  -2371.7  2046003.0  0.0  2 0 1458 2095  662
[02]  21(G22)  7 32  7  0    639.1  2045999.1  0.4  5 0 1537 1881  831
[03]  22(G23)  7 31  7  0  -4293.0  2046005.5  0.4  5 0 1023 1772  965
[16]  38(B02)  1 10 25  1  -1055.8  4092003.4  0.5  1 0  200 1142 1290
[17]  41(B05)  1 10 25  1  -1067.6  4092003.6  0.5  1 0  423  630   70
[18]  46(B10)  1  7  7  0  -1000.0  4092002.4  0.0  1 0  220  336  168
sat47 = 162948 3751 48145 7500
sat47 threshold = 3 
sat48 = 135914 3756 43340 3500
sat48 threshold = 3 
sat48 = 148816 3100 47969 4500
sat48 threshold = 3 
sat49 = 134844 1005 43169 6250
sat49 threshold = 3 
sat49 = 142804 2228 47894 7000
sat49 threshold = 2 
sat50 = 161183 3704 43344 -7500
sat50 threshold = 3 
sat50 = 147987 1088 48214 10000
sat50 threshold = 3 
sat51 = 141922 3779 43211 -5250
sat51 threshold = 3 
sat51 = 154190 1666 47959 -7000
sat51 threshold = 3 
sat52 = 139444 3803 43431 -9250
sat52 threshold = 3 
sat52 = 162493 2704 47854 7750
sat52 threshold = 3 
sat53 = 149489 3004 43276 -1250
sat53 threshold = 3 
$GNGGA,032850.682,,,,,0,00,,,M,,,,0000*2B
$GNRMC,032850.682,A,,,,,,,070180,,*28
$GPGSA,A,1,,,,,,,,,,,,,,,*1E
$BDGSA,A,1,,,,,,,,,,,,,,,*0F
$GLGSA,A,1,,,,,,,,,,,,,,,*02
$GPGSV,1,1,04,03,00,000,45,16,00,000,43,22,00,000,32,23,00,000,31*7D
$B3CN0,0,0,0,0,0,0,0,0,0,0,0,0,0,0*4C
---00000005--- Acq_st=3 0  2019-4-1 3:28:50 
[00]  02(G03)  f 45  7  0   -192.1  2046000.2 -0.0  2 0 2483 4041 2309
[01]  15(G16)  7 43  7  0  -2362.2  2046003.0 -0.0  2 0 1329 1927  873
[02]  21(G22)  7 43  7  0    646.5  2045999.0 -0.0  2 0 1228 2085 1103
[03]  22(G23)  7 41  7  0  -4284.9  2046005.5 -0.1  2 0  694 1078  641
[16]  38(B02)  f 40 26  0  -1050.0  4092002.8  0.4  2 0  884 1204  763
[17]  41(B05)  7 33 23  0  -1057.9  4092002.6  0.2  2 0  962  650  237
[18]  46(B10)  1  7  7  0  -1209.5  4092002.5  0.0  1 0  460  173   63
sat53 = 165858 3263 48085 -6750
sat53 threshold = 3 
sat54 = 1103849 936 43349 -750
sat54 threshold = 25 
sat55 = 514597 3369 43429 1750
sat55 threshold = 11 
sat56 = 137315 1675 43276 -7250
sat56 threshold = 3 
sat56 = 154595 1834 48052 -3500
sat56 threshold = 3 
sat57 = 982636 2145 43445 -3250
sat57 threshold = 22 
sat58 = 899262 3561 43211 -500
sat58 threshold = 20 
sat59 = 133576 1327 43244 -1750
sat59 threshold = 3 
sat59 = 150622 2647 48093 -2250
sat59 threshold = 3 
sat60 = 161389 3149 43233 8000
sat60 threshold = 3 
sat60 = 141684 3543 48011 5250
sat60 threshold = 2 
sat61 = 147148 3608 43385 -9250
sat61 threshold = 3 
$GNGGA,032851.682,,,,,0,00,,,M,,,,0000*2A
$GNRMC,032851.682,A,,,,,,,070180,,*29
$GPGSA,A,1,,,,,,,,,,,,,,,*1E
$BDGSA,A,1,,,,,,,,,,,,,,,*0F
$GLGSA,A,1,,,,,,,,,,,,,,,*02
$GPGSV,1,1,04,03,00,000,45,16,00,000,43,22,00,000,43,23,00,000,41*7C
$BDGSV,1,1,02,02,00,000,40,05,00,000,33*69
$B3CN0,0,0,0,0,0,0,0,0,0,0,0,0,0,0*4C
---00000006--- Acq_st=3 0  2019-4-1 3:28:51 
[00]  02(G03)  f 45  7  0   -195.4  2046000.2  0.0  2 0 2986 4325 1850
[01]  15(G16)  7 43  7  0  -2367.1  2046003.0  0.1  2 0  919 2213 1067
[02]  21(G22)  7 43  7  0    647.1  2045999.1 -0.0  2 0 1281 2500 1237
[03]  22(G23)  7 40  7  0  -4284.6  2046005.5 -0.1  2 0 1049 1634  648
[16]  38(B02) 1f 40 22  0  -1054.6  4092002.7 -0.2  2 0  897 1180  677
[17]  41(B05)  f 34 25  0  -1062.2  4092002.5 -0.0  2 0  830  385  260
[18]  46(B10)  1  7  7  0  -1327.6  4092002.7 -0.0  1 0  111  114  511
[19]  54(B18)  1  7  7  0   -522.5  4092001.4 -0.1  1 0  109  123  311
[20]  55(B19)  1  7  7  0   1825.2  4091995.2  0.0  1 0 1109 1143  593
[21]  57(B21)  1  7  7  0  -3178.5  4092010.3 -0.0  1 0  520 1738 1746
[22]  58(B22)  1  7  7  0   -500.0  4092001.3  0.1  1 0  124   68  243
[48]  38(B02)  1 10 21  1   -678.9 20460016.3  0.1  1 0  690  689  418
sat61 = 142163 972 47917 3250
sat61 threshold = 2 
sat62 = 128841 1419 43426 -5000
sat62 threshold = 2 
sat62 = 161779 1934 48208 -1250
sat62 threshold = 3 
sat63 = 137123 2161 43385 3000
sat63 threshold = 3 
sat63 = 144205 385 47935 -6500
sat63 threshold = 3 
sat64 = 140728 4009 43546 -6000
sat64 threshold = 3 
sat64 = 152843 5 48205 -2000
sat64 threshold = 3 
sat65 = 148571 1440 43399 5250
sat65 threshold = 3 
sat65 = 147167 661 47883 -8000
sat65 threshold = 3 
sat66 = 138637 3626 43151 6750
sat66 threshold = 3 
sat66 = 156469 3856 48079 6750
sat66 threshold = 3 
sat67 = 138456 2992 43447 -1000
sat67 threshold = 3 
$GNGGA,032852.682,,,,,0,00,,,M,,,,0000*29
$GNRMC,032852.682,A,,,,,,,070180,,*2A
$GPGSA,A,1,,,,,,,,,,,,,,,*1E
$BDGSA,A,1,,,,,,,,,,,,,,,*0F
$GLGSA,A,1,,,,,,,,,,,,,,,*02
$GPGSV,1,1,04,03,00,000,45,16,00,000,43,22,00,000,43,23,00,000,40*7D
$BDGSV,1,1,02,02,00,000,40,05,00,000,33*69
$B3CN0,0,0,0,0,0,0,0,0,0,0,0,0,0,0*4C
sat67 = 166348 3052 48093 -1500
sat67 threshold = 3 
---00000007--- Acq_st=3 0  2019-4-1 3:28:52 
[00]  02(G03)  f 45  7  0   -185.1  2046000.2 -0.0  2 0 2767 3740 1024
[01]  15(G16)  7 43 11  0  -2354.6  2046003.0 -0.0  2 0 1457 2284 1179
[02]  21(G22)  7 43  7  0    656.3  2045999.1  0.0  2 0 1526 2630 1418
[03]  22(G23)  7 40  7  0  -4279.6  2046005.5  0.0  2 0  985 1538  931
[16]  38(B02) 1f 40 28  0  -1045.0  4092002.7  0.1  2 0  923 1297 1128
[17]  41(B05)  f 36 26  0  -1055.7  4092002.6 -0.5  2 0  559  573  225
[18]  46(B10)  1  7  7  0  -1693.2  4092003.5 -0.0  1 0  468  127  162
[19]  54(B18)  1  7  7  0   -582.7  4092001.1 -0.1  1 0  131  411  206
[20]  55(B19)  7 21  7  0   1831.8  4091995.1  0.1 10 0  747 1169  254
[21]  57(B21)  1  7  7  0  -3171.3  4092008.2  0.0  1 0 1105 1525  631
[22]  58(B22)  1  7  7  0   -605.8  4092003.9 -0.2  1 0  418  588 1159
[48]  38(B02)  f 10 13  1   -583.9 20460008.6 -0.0  2 0  220  721  595
sat68 = 147536 3246 43467 6750
sat68 threshold = 3 
sat68 = 151728 3722 47982 -6000
sat68 threshold = 3 
sat74 = 9225 599 2943 3250
sat74 threshold = 3 
sat74 = 8804 789 2920 -3500
sat74 threshold = 3 
sat75 = 8460 1412 2843 7500
sat75 threshold = 2 
sat75 = 9180 326 2818 3000
sat75 threshold = 3 
sat76 = 8118 1053 2767 -750
sat76 threshold = 2 
sat76 = 8587 1750 2800 -750
sat76 threshold = 3 
sat77 = 9505 419 2811 8250
sat77 threshold = 3 
sat77 = 8877 426 2833 5000
sat77 threshold = 3 
sat78 = 8523 1217 2840 7000
sat78 threshold = 3 
sat78 = 8451 1391 2861 -9500
sat78 threshold = 2 
sat79 = 8485 1236 2817 -6500
sat79 threshold = 3 
sat79 = 8867 406 2800 -3750
sat79 threshold = 3 
sat80 = 8551 1611 2782 8500
sat80 threshold = 3 
sat80 = 8207 1197 2770 6500
sat80 threshold = 2 
sat81 = 10265 1694 3071 9500
sat81 threshold = 3 
$GNGGA,032853.682,,,,,0,00,,,M,,,,0000*28
$GNRMC,032853.682,A,,,,,,,070180,,*2B
$GPGSA,A,1,,,,,,,,,,,,,,,*1E
$BDGSA,A,1,,,,,,,,,,,,,,,*0F
$GLGSA,A,1,,,,,,,,,,,,,,,*02
$GPGSV,1,1,04,03,00,000,45,16,00,000,43,22,00,000,43,23,00,000,40*7D
$BDGSV,1,1,03,02,00,000,40,05,00,000,36,19,00,000,21*56
$B3CN0,0,0,0,0,0,0,0,0,0,0,0,0,0,0*4C
sat81 = 9292 1729 2982 -3250
sat81 threshold = 3 
---00000008--- Acq_st=2 0  2019-4-1 3:28:53 
[00]  02(G03)  f 45  9  0   -195.0  2046000.2  0.0  2 0 3058 4437 2225
[01]  15(G16)  7 43  7  0  -2368.2  2046003.0 -0.1  2 0 1217 2138 1094
[02]  21(G22)  7 43  7  0    646.9  2045999.1 -0.0  2 0 1270 2488 1350
[03]  22(G23)  7 40  8  0  -4293.4  2046005.5  0.0  2 0 1326 1511  432
[16]  38(B02) 1f 42 24  0  -1059.7  4092002.8  0.4  2 0  609 1097  442
[17]  41(B05)  f 35 24  0  -1064.1  4092002.6 -0.8  2 0  609  576   94
[18]  46(B10)  1  7  7  0  -1865.3  4092003.1 -0.2  1 0  187  137  167
[19]  54(B18)  1  8  8  0   -234.2  4092001.3  0.1  1 0  175  276  132
[20]  55(B19)  7 41  7  0   1826.5  4091995.1 -0.0  2 0 1283 1610  674
[21]  57(B21)  7 39  7  0  -3176.7  4092008.2  0.0  2 0 1262 1738  682
[22]  58(B22)  7 34  8  0   -582.9  4092001.7  0.4  5 0  349 1056 1682
[48]  38(B02)  f 10 10  0   -768.3 20460013.3  0.0  2 0  332  802  971
[49]  41(B05)  1 20 20  1   -826.9 20460020.6 -0.0  1 0  662 1186  867
sat82 = 8229 73 2744 -8250
sat82 threshold = 2 
sat82 = 9261 877 2732 0
sat82 threshold = 3 
sat83 = 24801 931 2846 -2750
sat83 threshold = 8 
sat83 = 20643 931 2811 -2750
sat83 threshold = 7 
sat84 = 8526 1717 2825 2000
sat84 threshold = 3 
sat84 = 8246 1914 2754 -8750
sat84 threshold = 2 
sat85 = 64270 192 2994 -1500
sat85 threshold = 21 
sat86 = 8979 1401 2897 -6500
sat86 threshold = 3 
sat86 = 8405 1324 2809 -8750
sat86 threshold = 2 
sat87 = 9346 420 2871 8750
sat87 threshold = 3 
sat87 = 9298 1502 2871 -8500
sat87 threshold = 3 
$GNGGA,032854.682,,,,,0,00,,,M,,,,0000*2F
$GNRMC,032854.682,A,,,,,,,070180,,*2C
$GPGSA,A,1,,,,,,,,,,,,,,,*1E
$BDGSA,A,1,,,,,,,,,,,,,,,*0F
$GLGSA,A,1,,,,,,,,,,,,,,,*02
$GPGSV,1,1,04,03,00,000,45,16,00,000,43,22,00,000,43,23,00,000,40*7D
$BDGSV,2,1,05,02,00,000,42,05,00,000,35,19,00,000,41,21,00,000,38*6C
$BDGSV,2,2,05,22,00,000,34*5A
$B3CN0,0,0,0,0,0,0,0,0,0,0,0,0,0,0*4C
---00000009--- Acq_st=7 0  2019-4-1 3:28:54 
[00]  02(G03)  f 45  7  0   -193.6  2046000.2  0.0  2 0 2506 4007 1779
[01]  15(G16)  7 43  7  0  -2364.9  2046003.0  0.0  2 0 1383 1795  557
[02]  21(G22)  7 43  7  0    646.0  2045999.1 -0.0  2 0 1366 2315  999
[03]  22(G23)  7 41  7  0  -4287.4  2046005.5  0.0  2 0 1015 1776  948
[16]  38(B02) 1f 41 27  0  -1061.0  4092002.5 -0.3  2 0 1102 1177  623
[17]  41(B05) 1f 37 24  0  -1062.6  4092002.7 -0.8  2 0 1179 1139  533
[19]  54(B18)  1  7  7  0   -729.1  4092001.2 -0.1  1 0  207  349  192
[20]  55(B19)  7 41  7  0   1827.9  4091995.1 -0.1  2 0 1130 1264  804
[21]  57(B21)  7 43  7  0  -3177.1  4092008.2 -0.0  2 0 1553 2138  771
[22]  58(B22)  7 39  7  0   -583.1  4092001.7 -0.2  2 0  823  971 1429
[32]  83(N02)  1 23 11  0  -2734.9  1022003.4  0.1  1 0   214  516  566
[33]  85(N04)  1 28  7  0  -1441.0  1022001.9  0.1  1 0   452  851  440
[48]  38(B02)  f 10 10  1   -948.1 20460015.7 -0.1  2 0  240  168  266
[49]  41(B05)  1 20 24  1   -290.6 20460023.6  0.1  1 0  445  486   57
$GNGGA,032855.682,,,,,0,00,,,M,,,,0000*2E
$GNRMC,032855.682,A,,,,,,,070180,,*2D
$GPGSA,A,1,,,,,,,,,,,,,,,*1E
$BDGSA,A,1,,,,,,,,,,,,,,,*0F
$GLGSA,A,1,,,,,,,,,,,,,,,*02
$GPGSV,1,1,04,03,00,000,45,16,00,000,43,22,00,000,43,23,00,000,41*7C
$BDGSV,2,1,05,02,00,000,41,05,00,000,37,19,00,000,41,21,00,000,42*60
$BDGSV,2,2,05,22,00,000,39*57
$B3CN0,0,0,0,0,0,0,0,0,0,0,0,0,0,0*4C
---00000010--- Acq_st=7 0  2019-4-1 3:28:55 
[00]  02(G03)  f 46  7  0   -197.0  2046000.2 -0.0  2 0 2401 3895 1618
[01]  15(G16)  f 43  7  0  -2366.0  2046003.0  0.0  2 0 1304 2546  977
[02]  21(G22)  f 43 10  0    645.0  2045999.1  0.0  2 0 1405 2782 1214
[03]  22(G23)  f 41  7  0  -4290.1  2046005.6  0.0  2 0 1204 1963  933
[16]  38(B02) 1f 39 27  0  -1060.6  4092002.8  0.2  2 0  351 1077  821
[17]  41(B05) 1f 37 23  0  -1061.8  4092002.6  0.4  2 0  412  483  368
[20]  55(B19)  7 41  7  0   1823.9  4091995.1  0.0  2 0 1016 1588  815
[21]  57(B21)  7 43  7  0  -3181.8  4092008.2  0.0  2 0 1982 2109  963
[22]  58(B22)  7 40 13  0   -584.9  4092001.7 -0.1  2 0  117  781 1502
[32]  83(N02)  1 24 12  0  -2755.7  1022002.2  0.4  1 0   409  740  416
[33]  85(N04)  1 39  7  0  -1444.5  1022000.7  1.0  1 0   863 1103  510
[48]  38(B02)  f 10 10  0  -1186.9 20460021.4  0.1  2 0  323  211   95
[49]  41(B05)  1 25 21  0     38.0 20460017.2 -0.1  1 0  592   70  247
sat0 = 10857 1890 3241 -9500
sat0 threshold = 3 
sat0 = 11836 16 3158 4500
sat0 threshold = 3 
sat1 = 11851 1571 3235 -8750
sat1 threshold = 3 
sat1 = 11842 31 3168 2500
sat1 threshold = 3 
sat3 = 11739 787 3259 3000
sat3 threshold = 3 
sat3 = 10924 1129 3168 -1250
sat3 threshold = 3 
sat4 = 11598 1950 3242 8750
sat4 threshold = 3 
sat4 = 11914 350 3167 -4750
sat4 threshold = 3 
sat5 = 11393 0 3250 0
sat5 threshold = 3 
sat5 = 10800 1145 3171 3750
sat5 threshold = 3 
sat6 = 12745 1335 3264 3500
sat6 threshold = 3 
sat6 = 11407 1911 3185 4500
sat6 threshold = 3 
sat7 = 12315 1717 3205 -1750
sat7 threshold = 3 
sat7 = 11618 1777 3139 -2750
sat7 threshold = 3 
sat8 = 10916 37 3247 4250
sat8 threshold = 3 
sat8 = 10324 102 3166 6750
sat8 threshold = 3 
sat9 = 11826 1857 3229 -6750
sat9 threshold = 3 
sat9 = 11397 1973 3177 -1500
sat9 threshold = 3 
sat10 = 12142 525 3240 4750
sat10 threshold = 3 
sat10 = 10417 85 3171 -3750
sat10 threshold = 3 
sat11 = 11443 641 3243 0
sat11 threshold = 3 
sat11 = 12562 691 3161 4750
sat11 threshold = 3 
sat12 = 14490 1085 3240 500
sat12 threshold = 4 
$GNGGA,032856.682,,,,,0,00,,,M,,,,0000*2D
$GNRMC,032856.682,A,,,,,,,070180,,*2E
$GPGSA,A,1,,,,,,,,,,,,,,,*1E
$BDGSA,A,1,,,,,,,,,,,,,,,*0F
$GLGSA,A,1,,,,,,,,,,,,,,,*02
$GPGSV,1,1,04,03,00,000,46,16,00,000,43,22,00,000,43,23,00,000,41*7F
$BDGSV,2,1,05,02,00,000,39,05,00,000,36,19,00,000,41,21,00,000,43*6F
$BDGSV,2,2,05,22,00,000,40*59
$B3CN0,0,0,0,0,0,0,0,0,0,0,0,0,0,0*4C
---00000011--- Acq_st=3 0  2019-4-1 3:28:56 
[00]  02(G03)  f 46  9  0   -200.8  2046000.2 -0.0  2 0 2413 3870 1610
[01]  15(G16)  f 43  7  0  -2370.6  2046003.0 -0.0  2 0 1879 2323 1415
[02]  21(G22)  f 43  7  0    642.5  2045999.1 -0.0  2 0 1300 2051  863
[03]  22(G23)  f 41  7  0  -4291.4  2046005.5 -0.0  2 0  950 1740 1094
[16]  38(B02) 1f 40 21  0  -1065.6  4092002.8 -0.3  2 0 1103 1203  949
[17]  41(B05) 1f 36 16  0  -1063.3  4092002.5 -0.8  2 0  498  649  283
[20]  55(B19)  7 41  7  0   1820.3  4091995.1  0.0  2 0 1420 1881  863
[21]  57(B21)  7 43  7  0  -3181.8  4092008.2 -0.0  2 0 1790 2158  626
[22]  58(B22)  7 40  8  0   -585.9  4092001.7 -0.0  2 0  501 1046 1460
[32]  83(N02)  7 25  7  0  -2757.2  1022001.6  0.3 10 0   260  668  420
[33]  85(N04)  7 13  7  0  -1442.1  1022000.9  0.9 10 0   605 1015  513
[49]  41(B05)  1 25 24  1     47.8 20460018.1  0.0  1 0  105  605  535
sat12 = 10756 1289 3168 3750
sat12 threshold = 3 
sat13 = 13160 2041 3240 1750
sat13 threshold = 4 
sat13 = 11312 957 3171 2250
sat13 threshold = 3 
sat14 = 13835 1876 3276 -1000
sat14 threshold = 4 
sat14 = 11238 1927 3200 4250
sat14 threshold = 3 
sat16 = 12093 1939 3282 1750
sat16 threshold = 3 
sat16 = 12339 1895 3198 1750
sat16 threshold = 3 
sat17 = 12421 1307 3236 -8250
sat17 threshold = 3 
sat17 = 11279 2045 3174 -2250
sat17 threshold = 3 
sat18 = 11445 1688 3250 -8000
sat18 threshold = 3 
sat18 = 11067 975 3156 2750
sat18 threshold = 3 
sat19 = 12182 27 3221 1000
sat19 threshold = 3 
sat19 = 12543 384 3165 0
sat19 threshold = 3 
sat20 = 12593 539 3256 4500
sat20 threshold = 3 
sat20 = 11825 538 3194 -5750
sat20 threshold = 3 
sat23 = 10901 1874 3285 1750
sat23 threshold = 3 
sat23 = 10919 1327 3189 -6250
sat23 threshold = 3 
sat24 = 12677 1163 3247 750
sat24 threshold = 3 
sat24 = 11028 249 3171 2000
sat24 threshold = 3 
sat25 = 11688 1670 3245 2750
sat25 threshold = 3 
sat25 = 10223 525 3164 8500
sat25 threshold = 3 
sat26 = 14354 1267 3246 -4250
sat26 threshold = 4 
sat26 = 12812 1737 3177 -8500
sat26 threshold = 4 
sat27 = 11872 558 3251 6500
sat27 threshold = 3 
$GNGGA,032857.682,,,,,0,00,,,M,,,,0000*2C
$GNRMC,032857.682,A,,,,,,,010419,,*2C
$GPGSA,A,1,,,,,,,,,,,,,,,*1E
$BDGSA,A,1,,,,,,,,,,,,,,,*0F
$GLGSA,A,1,,,,,,,,,,,,,,,*02
$GPGSV,1,1,04,03,00,000,46,16,00,000,43,22,00,000,43,23,00,000,41*7F
$BDGSV,2,1,05,02,00,000,40,05,00,000,35,19,00,000,41,21,00,000,43*62
$BDGSV,2,2,05,22,00,000,40*59
$B3CN0,0,0,0,0,0,0,0,0,0,0,0,0,0,0*4C
---00000012--- Acq_st=3 0  2019-4-1 3:28:57 
[00]  02(G03)  f 45  7  0   -200.1  2046000.2  0.0  2 0 2351 3759 1875
[01]  15(G16)  f 44  7  0  -2368.7  2046003.0  0.0  2 0 1272 2012  877
[02]  21(G22)  f 44  7  0    640.8  2045999.1  0.0  2 0 1338 2487 1314
[03]  22(G23)  f 41  7  0  -4293.3  2046005.6 -0.1  2 0 1310 1761  954
[16]  38(B02) 1f 40 28  0  -1069.3  4092002.7  0.5  2 0  752 1145  540
[17]  41(B05) 1f 36 26  0  -1069.5  4092002.6  0.4  2 0  833 1178  277
[20]  55(B19) 1f 42  7  0   1815.5  4091995.1  0.1  2 0 1440 1653  485
[21]  57(B21) 1f 43  7  0  -3184.9  4092008.2  0.1  2 0 1673 2145  716
[22]  58(B22) 1f 41  7  0   -586.1  4092001.6 -0.0  2 0  724 1583 1471
[32]  83(N02)  7 35 15  0  -2763.4  1022001.7 -0.1  2 0   578  635  300
[33]  85(N04)  7 42  7  0  -1445.5  1022000.8  0.4  2 0   803 1196  480
[48]  38(B02)  1 18 10  1   -753.1 20460019.4 -0.1  1 0  893  592  431
sat27 = 10949 1101 3171 7250
sat27 threshold = 3 
sat28 = 11201 1119 3240 2000
sat28 threshold = 3 
sat28 = 11636 1100 3171 4750
sat28 threshold = 3 
sat29 = 11507 1323 3233 9750
sat29 threshold = 3 
sat29 = 10909 161 3171 5250
sat29 threshold = 3 
sat30 = 11665 368 3243 1000
sat30 threshold = 3 
sat30 = 12027 449 3164 -2250
sat30 threshold = 3 
sat31 = 12800 153 3242 8000
sat31 threshold = 3 
sat31 = 12089 1823 3168 -4500
sat31 threshold = 3 
sat39 = 135516 1287 43835 4750
sat39 threshold = 3 
sat39 = 153002 896 48672 -9250
sat39 threshold = 3 
sat40 = 153363 2617 43722 -2000
sat40 threshold = 3 
sat40 = 148576 901 48666 -2500
sat40 threshold = 3 
sat42 = 151644 4032 43906 -6000
sat42 threshold = 3 
sat42 = 143523 660 48355 -4750
sat42 threshold = 2 
sat43 = 152158 3127 43892 -8500
sat43 threshold = 3 
---00000013--- Acq_st=3 0  2019-4-1 3:28:58 
[00]  02(G03)  f 45  7  0   -187.8  2046000.2  0.0  2 0 2351 3871 1927
[01]  15(G16)  f 44  7  0  -2359.6  2046003.0 -0.0  2 0 1543 2455 1014
[02]  21(G22)  f 44  7  0    650.6  2045999.1  0.0  2 0 1296 2088  860
[03]  22(G23)  f 41  7  0  -4286.7  2046005.6 -0.0  2 0 1013 1745 1039
[16]  38(B02) 1f 39 27  0  -1053.4  4092002.5 -0.5  2 0  916  985  271
[17]  41(B05) 1f 37 24  0  -1055.3  4092002.7  0.8  2 0  615  887  503
[20]  55(B19) 1f 42  7  0   1828.1  4091995.1 -0.0  2 0 1177 1655  788
[21]  57(B21) 1f 43  7  0  -3171.5  4092008.2  0.0  2 0 1787 2220  533
[22]  58(B22) 1f 42  7  0   -572.8  4092001.6  0.0  2 0 1015 1686  999
[32]  83(N02)  7 35  7  0  -2750.5  1022001.6  0.0  2 0   294  808  348
[33]  85(N04)  7 42  7  0  -1434.7  1022000.9  0.9  2 0   621 1162  423
[48]  38(B02)  f 10 24  1  -1013.6 20460018.4  0.0  2 0  184  585  614
[49]  41(B05)  1 26 19  0   -647.0 20460022.5 -0.1  1 0  373  552  149
[52]  55(B19)  1  7  7  0    974.1 20459970.9 -0.2  1 0  209  377  599
[53]  57(B21)  1  7  7  0  -2600.5 20460052.6 -0.1  1 0  696  496  524
[54]  58(B22)  1  7 14  0   -657.1 20460009.0  0.0  1 0   71   84  156
$GNGGA,032858.682,,,,,0,00,,,M,,,,0000*23
$GNRMC,032858.682,A,,,,,,,010419,,*23
$GPGSA,A,1,,,,,,,,,,,,,,,*1E
$BDGSA,A,1,,,,,,,,,,,,,,,*0F
$GLGSA,A,1,,,,,,,,,,,,,,,*02
$GPGSV,1,1,04,03,00,000,45,16,00,000,44,22,00,000,44,23,00,000,41*7C
$BDGSV,2,1,05,02,00,000,39,05,00,000,37,19,00,000,42,21,00,000,43*6D
$BDGSV,2,2,05,22,00,000,42*5B
$B3CN0,0,0,0,0,0,0,0,0,0,0,0,0,0,0*4C
sat43 = 148636 1037 48590 -4500
sat43 threshold = 3 
sat44 = 131788 2411 43910 -3750
sat44 threshold = 3 
sat44 = 146045 1969 48600 -4250
sat44 threshold = 3 
sat45 = 134180 2216 43968 6750
sat45 threshold = 3 
sat45 = 156493 199 48725 -2500
sat45 threshold = 3 
sat46 = 527047 2820 43793 -1000
sat46 threshold = 12 
sat47 = 144215 841 43988 -9250
sat47 threshold = 3 
sat47 = 144718 1659 48607 6000
sat47 threshold = 2 
sat48 = 143966 53 43827 -8250
sat48 threshold = 3 
sat48 = 144953 137 48380 -9500
sat48 threshold = 2 
sat49 = 140560 3797 43917 4000
sat49 threshold = 3 
sat49 = 155009 3154 48358 -1750
sat49 threshold = 3 
sat50 = 136355 4025 43811 5000
sat50 threshold = 3 
---00000014--- Acq_st=3 0  2019-4-1 3:28:59 
[00]  02(G03)  f 45  7  0   -180.6  2046000.2 -0.0  2 0 2301 3471 1583
[01]  15(G16)  f 43  7  0  -2351.7  2046003.0  0.0  2 0 1028 1801  891
[02]  21(G22)  f 44  8  0    654.6  2045999.1  0.1  2 0 1386 2323  669
[03]  22(G23)  f 41  7  0  -4277.1  2046005.5  0.0  2 0 1781 2046  509
[16]  38(B02) 1f 41 25  0  -1047.8  4092002.7  0.7  2 0  518 1031  608
[17]  41(B05) 1f 36 25  0  -1050.1  4092002.6  0.7  2 0 1037 1041  518
[18]  46(B10)  1  7  7  0   -940.2  4092002.1 -0.1  1 0  246  333  462
[20]  55(B19) 1f 42  7  0   1838.0  4091995.1 -0.0  2 0 1411 1595  623
[21]  57(B21) 1f 43  7  0  -3162.0  4092008.2  0.0  2 0 1567 2107  961
[22]  58(B22) 1f 42  8  0   -572.3  4092001.5 -0.1  2 0  910 1797  901
[32]  83(N02)  7 35  7  0  -2744.3  1022001.8  0.0  2 0   171  313  271
[33]  85(N04)  7 41  7  0  -1426.4  1022000.9  0.6  2 0   913 1095  243
[48]  38(B02)  f 10 18  1  -1361.6 20460021.4  0.1  2 0  724  437   22
[49]  41(B05)  1 19 23  1   -937.6 20460016.7 -0.1  1 0  589  334  239
[52]  55(B19)  1  7  7  0   1201.6 20459970.8  0.1  1 0  455  241  289
[53]  57(B21)  1  7  7  0  -2218.5 20460051.0 -0.1  1 0  247  252  169
[54]  58(B22)  1 10  7  0   -533.5 20460009.3 -0.1  1 0  525  283  299
$GNGGA,032859.682,,,,,0,00,,,M,,,,0000*22
$GNRMC,032859.682,A,,,,,,,010419,,*22
$GPGSA,A,1,,,,,,,,,,,,,,,*1E
$BDGSA,A,1,,,,,,,,,,,,,,,*0F
$GLGSA,A,1,,,,,,,,,,,,,,,*02
$GPGSV,1,1,04,03,00,000,45,16,00,000,43,22,00,000,44,23,00,000,41*7B
$BDGSV,2,1,05,02,00,000,41,05,00,000,36,19,00,000,42,21,00,000,43*63
$BDGSV,2,2,05,22,00,000,42*5B
$B3CN0,0,0,0,0,0,0,0,0,0,0,0,0,0,0*4C
sat50 = 160633 1405 48493 2250
sat50 threshold = 3 
sat51 = 133773 2758 43808 -5750
sat51 threshold = 3 
sat51 = 141406 981 48262 -6250
sat51 threshold = 2 
sat52 = 138610 2313 44089 -3000
sat52 threshold = 3 
sat52 = 148585 131 48536 -7250
sat52 threshold = 3 
sat53 = 147884 1521 44100 8250
sat53 threshold = 3 
sat53 = 159017 67 48462 -2000
sat53 threshold = 3 
sat54 = 945443 285 44109 -1000
sat54 threshold = 21 
sat56 = 149638 3351 43843 -5000
sat56 threshold = 3 
sat56 = 143885 3785 48329 4500
sat56 threshold = 2 
sat59 = 160525 3760 43873 -6250
sat59 threshold = 3 
sat59 = 157164 346 48430 -7500
sat59 threshold = 3 
---00000015--- Acq_st=3 0  2019-4-1 3:29:0 
[00]  02(G03)  f 45  7  0   -188.0  2046000.2 -0.0  2 0 1803 3268 2123
[01]  15(G16)  f 43  7  0  -2359.0  2046003.0 -0.0  2 0 1112 2136  887
[02]  21(G22)  f 43  7  0    651.2  2045999.1  0.0  2 0 1394 2167  963
[03]  22(G23)  f 42  7  0  -4282.7  2046005.5 -0.1  2 0 1199 1665  795
[16]  38(B02) 1f 39 29  0  -1055.2  4092002.7 -0.4  2 0 1069 1471  665
[17]  41(B05) 1f 36 27  0  -1061.8  4092002.7  0.6  2 0  653  783  565
[18]  46(B10)  1  7  8  0  -1522.6  4092002.5  0.1  1 0  185  417  459
[19]  54(B18)  1  7  7  0  -1000.0  4092003.5  0.0  1 0 1010 1899 1362
[20]  55(B19) 1f 42  7  0   1828.6  4091995.1 -0.0  2 0 1216 1360  595
[21]  57(B21) 1f 43  7  0  -3173.7  4092008.2  0.0  2 0 1664 2180  841
[22]  58(B22) 1f 42  7  0   -576.1  4092001.5  0.1  2 0  974 1906  804
[32]  83(N02)  f 30  7  0  -2750.0  1022001.7  0.0  5 0    87  370  126
[33]  85(N04)  f 32  7  0  -1433.7  1022001.0 -0.4  5 0   411  834  447
[48]  38(B02)  f 10 10  1  -1317.7 20460021.0  0.0  2 0  408  576  732
[49]  41(B05)  1 24 22  1  -1212.7 20460022.8 -0.0  1 0  504  393  275
[52]  55(B19)  1  7  7  0   1265.9 20459970.5 -0.2  1 0  447  437  315
[53]  57(B21)  1  7  7  0  -1997.1 20460050.8  0.1  1 0   89  341  250
[54]  58(B22)  1  7  7  0   -606.1 20460009.8  0.0  1 0  450  627  658
$GNGGA,032900.682,,,,,0,00,,,M,,,,0000*2F
$GNRMC,032900.682,A,,,,,,,010419,,*2F
$GPGSA,A,1,,,,,,,,,,,,,,,*1E
$BDGSA,A,1,,,,,,,,,,,,,,,*0F
$GLGSA,A,1,,,,,,,,,,,,,,,*02
$GPGSV,1,1,04,03,00,000,45,16,00,000,43,22,00,000,43,23,00,000,42*7F
$BDGSV,2,1,05,02,00,000,39,05,00,000,36,19,00,000,42,21,00,000,43*6C
$BDGSV,2,2,05,22,00,000,42*5B
$B3CN0,0,0,0,0,0,0,0,0,0,0,0,0,0,0*4C
sat60 = 139350 408 43796 1500
sat60 threshold = 3 
sat60 = 155613 3120 48591 -8500
sat60 threshold = 3 
sat61 = 145599 1243 43804 6500
sat61 threshold = 3 
sat61 = 145894 1975 48292 7000
sat61 threshold = 3 
sat62 = 145414 359 43965 1000
sat62 threshold = 3 
sat62 = 149561 2079 48456 -4750
sat62 threshold = 3 
sat63 = 133250 2395 44056 6000
sat63 threshold = 3 
sat63 = 142592 3196 48469 -1250
sat63 threshold = 2 
sat64 = 140224 2503 43905 0
sat64 threshold = 3 
sat64 = 176455 3895 48461 3750
sat64 threshold = 3 
sat65 = 151276 1013 43939 -8500
sat65 threshold = 3 
sat65 = 150618 603 48594 -5250
sat65 threshold = 3 
---00000016--- Acq_st=3 0  2019-4-1 3:29:1 
[00]  02(G03)  f 45  7  0   -192.4  2046000.2 -0.0  2 0 2323 4058 2243
[01]  15(G16)  f 43  7  0  -2363.0  2046003.0  0.0  2 0 1561 2394 1312
[02]  21(G22)  f 43  7  0    648.8  2045999.1  0.1  2 0 1098 2231 1149
[03]  22(G23)  f 41  7  0  -4289.0  2046005.5  0.0  2 0 1024 1679 1109
[16]  38(B02) 1f 39 26  0  -1056.2  4092002.6 -0.3  2 0  576  837  351
[17]  41(B05) 1f 37 22  0  -1061.8  4092002.8 -0.4  2 0  872  744  570
[18]  46(B10)  1  7  7  0  -1997.9  4092002.5 -0.0  1 0  308  374  205
[19]  54(B18)  1  7  7  0   -941.7  4092002.4  0.4  1 0 1329 1834 1206
[20]  55(B19) 1f 41  7  0   1828.8  4091995.1  0.1  2 0 1228 1605  753
[21]  57(B21) 1f 44  7  0  -3175.6  4092008.2 -0.0  2 0 1287 2130 1131
[22]  58(B22) 1f 42  7  0   -577.9  4092001.5 -0.0  2 0 1066 2044 1309
[32]  83(N02)  f 33  7  0  -2752.4  1022001.7 -0.0  5 0   383  502  296
[33]  85(N04)  f 38  7  0  -1434.8  1022001.0 -0.0  2 0   521  686  397
[48]  38(B02)  f 16 10  0  -1670.4 20460026.7 -0.1  2 0  406   77   50
[49]  41(B05)  1 24 23  0   -955.5 20460022.1  0.1  1 0  123  386  256
[52]  55(B19)  1  9 11  0   1317.2 20459972.5  0.1  1 0  551  579  352
[53]  57(B21)  1  7  7  0  -1652.8 20460052.4 -0.1  1 0  174   80  248
[54]  58(B22)  1  7  7  0   -647.4 20460008.9 -0.1  1 0  484   89  551
sat66 = 156137 797 43843 8500
sat66 threshold = 3 
$GNGGA,032901.682,,,,,0,00,,,M,,,,0000*2E
$GNRMC,032901.682,A,,,,,,,010419,,*2E
$GPGSA,A,1,,,,,,,,,,,,,,,*1E
$BDGSA,A,1,,,,,,,,,,,,,,,*0F
$GLGSA,A,1,,,,,,,,,,,,,,,*02
$GPGSV,1,1,04,03,00,000,45,16,00,000,43,22,00,000,43,23,00,000,41*7C
$BDGSV,2,1,05,02,00,000,39,05,00,000,37,19,00,000,41,21,00,000,44*69
$BDGSV,2,2,05,22,00,000,42*5B
$B3CN0,0,16,0,0,0,0,0,0,0,0,0,0,0,0*7B
sat66 = 153885 343 48573 1000
sat66 threshold = 3 
sat67 = 135002 3234 43911 6000
sat67 threshold = 3 
sat67 = 144446 645 48361 9250
sat67 threshold = 2 
sat68 = 161327 605 43922 -9000
sat68 threshold = 3 
sat68 = 153221 772 48543 -6500
sat68 threshold = 3 
sat74 = 9177 492 2978 -5250
sat74 threshold = 3 
sat74 = 9057 317 2952 0
sat74 threshold = 3 
sat75 = 9614 147 2815 10000
sat75 threshold = 3 
sat75 = 9180 776 2841 1750
sat75 threshold = 3 
sat76 = 9221 916 2721 3250
sat76 threshold = 3 
sat76 = 9164 562 2770 6000
sat76 threshold = 3 
sat77 = 9014 759 2784 -7500
sat77 threshold = 3 
sat77 = 8959 1447 2781 -5750
sat77 threshold = 3 
sat78 = 7685 170 2781 -1750
sat78 threshold = 2 
sat78 = 9172 1051 2803 1250
sat78 threshold = 3 
---00000017--- Acq_st=3 0  2019-4-1 3:29:2 
[00]  02(G03)  f 45  7  0   -186.6  2046000.2 -0.0  2 0 2025 3715 1889
[01]  15(G16)  f 43  7  0  -2356.1  2046003.0  0.0  2 0 1018 1816 1152
[02]  21(G22)  f 44  7  0    651.6  2045999.1 -0.1  2 0  881 2322 1152
[03]  22(G23)  f 41  7  0  -4281.3  2046005.5 -0.0  2 0 1490 1634  374
[16]  38(B02) 1f 40 26  0  -1052.1  4092002.6  0.7  2 0  941  965  651
[17]  41(B05) 1f 37 26  0  -1056.3  4092002.7  0.6  2 0  632  951  649
[18]  46(B10)  1  7  7  0  -1385.0  4092002.5 -0.0  1 0  239  421  610
[19]  54(B18)  7 33  7  0   -933.0  4092002.4  0.1  5 0 1282 1875  988
[20]  55(B19) 1f 42  7  0   1829.0  4091995.1 -0.1  2 0 1138 2095 1008
[21]  57(B21) 1f 44  7  0  -3169.9  4092008.2 -0.0  2 0 1276 1873  752
[22]  58(B22) 1f 42 12  0   -574.0  4092001.4 -0.0  2 0 1668 2481  872
[32]  83(N02) 8f 33  7  0  -2747.9  1022001.6 -0.0  5 0   525  918  187
[33]  85(N04) 8f 38  7  0  -1432.3  1022000.9 -0.0  2 0   342  760  413
sat79 = 8332 1914 2808 -5000
sat79 threshold = 2 
$GNGGA,032902.682,,,,,0,00,,,M,,,,0000*2D
$GNRMC,032902.682,A,,,,,,,010419,,*2D
$GPGSA,A,1,,,,,,,,,,,,,,,*1E
$BDGSA,A,1,,,,,,,,,,,,,,,*0F
$GLGSA,A,1,,,,,,,,,,,,,,,*02
$GPGSV,1,1,04,03,00,000,45,16,00,000,43,22,00,000,44,23,00,000,41*7B
$BDGSV,2,1,06,02,00,000,40,05,00,000,37,18,00,000,33,19,00,000,42*6D
$BDGSV,2,2,06,21,00,000,44,22,00,000,42*6B
$B3CN0,0,0,0,0,0,0,0,0,0,0,0,0,0,0*4C
sat79 = 8762 1302 2748 -6000
sat79 threshold = 3 
sat80 = 7933 774 2808 -750
sat80 threshold = 2 
sat80 = 8894 1850 2751 2750
sat80 threshold = 3 
sat81 = 11665 1494 3477 -4250
sat81 threshold = 3 
sat81 = 11068 483 3536 -3750
sat81 threshold = 3 
sat82 = 9447 1440 2827 500
sat82 threshold = 3 
sat82 = 8772 943 2755 -4500
sat82 threshold = 3 
sat84 = 8423 1261 2851 -9500
sat84 threshold = 2 
sat84 = 8335 1400 2783 3000
sat84 threshold = 2 
sat86 = 8800 1143 2804 -6250
sat86 threshold = 3 
sat86 = 9044 1593 2848 -2750
sat86 threshold = 3 
sat87 = 9045 44 2871 2500
sat87 threshold = 3 
sat87 = 8557 1863 2901 5000
sat87 threshold = 2 
---00000018--- Acq_st=7 0  2019-4-1 3:29:3 
[00]  02(G03)  f 44  7  0   -201.8  2046000.2  0.0  2 0 2377 3595 1738
[01]  15(G16)  f 43  7  0  -2371.2  2046003.1 -0.0  2 0 1789 2567 1360
[02]  21(G22)  f 43  7  0    636.2  2045999.1  0.0  2 0 1726 2504 1543
[03]  22(G23)  f 41  7  0  -4293.0  2046005.5 -0.0  2 0  716 1409  771
[16]  38(B02) 1f 39 25  0  -1070.6  4092002.8 -0.6  2 0  644  869  150
[17]  41(B05) 1f 37 26  0  -1068.4  4092002.6  0.8  2 0  771  586  260
[18]  46(B10)  1  7  7  0   -994.3  4092002.7 -0.1  1 0  303  313  439
[19]  54(B18) 1f 43  7  0   -947.0  4092002.4  0.0  2 0 1437 1970  968
[20]  55(B19) 1f 42  7  0   1819.1  4091995.1 -0.1  2 0 1167 1570  727
[21]  57(B21) 1f 43  7  0  -3183.6  4092008.2 -0.1  2 0 2066 2287  463
[22]  58(B22) 1f 42  7  0   -592.5  4092001.4 -0.0  2 0 1170 1760  954
[32]  83(N02) 8f 34  7  0  -2763.5  1022001.8 -0.1  5 0   363  674  443
[33]  85(N04) 8f 39  7  0  -1448.8  1022000.8  0.1  2 0   453  813  545
[48]  38(B02)  1 14 10  1  -1217.5 20460014.7 -0.1  1 0  586  537  319
[49]  41(B05)  1 23 25  1   -598.6 20460014.4  0.0  1 0  191  138  665
[52]  55(B19)  1  7  7  0   1605.9 20459971.9 -0.1  1 0  621  414  433
[53]  57(B21)  1  7  7  0  -2640.3 20460051.8 -0.1  1 0  842   83  177
[54]  58(B22)  1  9  9  0   -601.4 20460008.6 -0.0  1 0  306  383  222
$GNGGA,032903.682,,,,,0,00,,,M,,,,0000*2C
$GNRMC,032903.682,A,,,,,,,010419,,*2C
$GPGSA,A,1,,,,,,,,,,,,,,,*1E
$BDGSA,A,1,,,,,,,,,,,,,,,*0F
$GLGSA,A,1,,,,,,,,,,,,,,,*02
$GPGSV,1,1,04,03,00,000,44,16,00,000,43,22,00,000,43,23,00,000,41*7D
$BDGSV,2,1,06,02,00,000,39,05,00,000,37,18,00,000,43,19,00,000,42*64
$BDGSV,2,2,06,21,00,000,43,22,00,000,42*6C
$B3CN0,0,0,0,0,0,0,0,0,0,0,0,0,0,0*4C
---00000019--- Acq_st=7 0  2019-4-1 3:29:4 
[00]  02(G03)  f 44  7  0   -191.9  2046000.2 -0.0  2 0 1987 3233  889
[01]  15(G16)  f 43  7  0  -2359.2  2046003.0  0.0  2 0 1137 2051  852
[02]  21(G22)  f 44  7  0    646.7  2045999.1 -0.0  2 0 1410 2220  965
[03]  22(G23)  f 41  7  0  -4292.1  2046005.5  0.0  2 0 1090 1469  798
[16]  38(B02) 1f 40 27  0  -1057.8  4092002.6 -0.5  2 0  841 1003  511
[17]  41(B05) 1f 36 26  0  -1061.3  4092002.6  0.2  2 0  785  930  457
[19]  54(B18) 1f 42  7  0   -937.6  4092002.4  0.0  2 0 1065 1712  991
[20]  55(B19) 1f 42  7  0   1821.7  4091995.1  0.1  2 0 1324 1162  188
[21]  57(B21) 1f 44  7  0  -3174.7  4092008.2 -0.0  2 0 1596 2156  935
[22]  58(B22) 1f 42  7  0   -582.6  4092001.4  0.0  2 0 1060 1480  415
[32]  83(N02) 8f 34  7  0  -2755.1  1022001.8  0.0  5 0   394  451  131
[33]  85(N04) 8f 40  7  0  -1437.6  1022000.8  0.2  2 0   685  979  609
[48]  38(B02)  1 13 10  1  -1635.9 20460019.6  0.0  1 0  268  166  184
[49]  41(B05)  1 26 26  0   -977.0 20460019.1 -0.0  1 0  132  262  205
[51]  54(B18)  1  7  7  0   -888.6 20460014.2 -0.2  1 0   76  332  814
[52]  55(B19)  1  8  7  0   1037.2 20459972.5  0.1  1 0  502  561  564
[53]  57(B21)  1  7  7  0  -2341.9 20460051.4  0.1  1 0  476  563  342
[54]  58(B22)  1  7  7  0  -1074.6 20460009.4  0.1  1 0   30  374  716
$GNGGA,032904.682,,,,,0,00,,,M,,,,0000*2B
$GNRMC,032904.682,A,,,,,,,010419,,*2B
$GPGSA,A,1,,,,,,,,,,,,,,,*1E
$BDGSA,A,1,,,,,,,,,,,,,,,*0F
$GLGSA,A,1,,,,,,,,,,,,,,,*02
$GPGSV,1,1,04,03,00,000,44,16,00,000,43,22,00,000,44,23,00,000,41*7A
$BDGSV,2,1,06,02,00,000,40,05,00,000,36,18,00,000,42,19,00,000,42*6A
$BDGSV,2,2,06,21,00,000,44,22,00,000,42*6B
$B3CN0,0,0,0,0,0,0,0,0,0,0,0,0,0,0*4C
sat0 = 11936 92 3114 8000
sat0 threshold = 3 
sat0 = 10826 1162 3099 -3500
sat0 threshold = 3 
sat1 = 10498 871 3116 -2250
sat1 threshold = 3 
sat1 = 11676 1514 3117 -5250
sat1 threshold = 3 
sat3 = 10686 77 3113 0
sat3 threshold = 3 
sat3 = 10798 1432 3117 3250
sat3 threshold = 3 
sat4 = 10556 675 3106 -8000
sat4 threshold = 3 
sat4 = 10802 674 3108 8500
sat4 threshold = 3 
sat5 = 11259 1499 3114 -5750
sat5 threshold = 3 
sat5 = 10320 874 3118 -9000
sat5 threshold = 3 
sat6 = 11368 1440 3126 9500
sat6 threshold = 3 
sat6 = 10065 759 3118 9750
sat6 threshold = 3 
sat7 = 11614 486 3083 -6750
sat7 threshold = 3 
sat7 = 10012 887 3086 6250
sat7 threshold = 3 
sat8 = 12410 1045 3108 1250
sat8 threshold = 3 
sat8 = 9694 618 3114 -6250
sat8 threshold = 3 
sat9 = 10966 1900 3123 8500
sat9 threshold = 3 
sat9 = 10148 1807 3102 -2500
sat9 threshold = 3 
sat10 = 13616 187 3112 2000
sat10 threshold = 4 
sat10 = 10088 518 3115 7000
sat10 threshold = 3 
sat11 = 10745 55 3115 -9500
sat11 threshold = 3 
sat11 = 11503 3 3104 -5000
sat11 threshold = 3 
sat12 = 10940 562 3108 4000
sat12 threshold = 3 
---00000020--- Acq_st=3 0  2019-4-1 3:29:5 
[00]  02(G03)  f 44  7  0   -185.0  2046000.2  0.0  2 0 2258 3276 1633
[01]  15(G16)  f 43  7  0  -2351.8  2046003.0 -0.1  2 0 1202 1687  833
[02]  21(G22)  f 44  7  0    656.0  2045999.1  0.0  2 0 1406 2630 1142
[03]  22(G23)  f 40  7  0  -4286.2  2046005.5  0.0  2 0  395 1252  379
[16]  38(B02) 1f 39 26  0  -1051.9  4092002.6  0.7  2 0  790 1080  480
[17]  41(B05) 1f 35 22  0  -1054.9  4092002.7 -0.6  2 0  240  733  554
[19]  54(B18) 1f 42  7  0   -930.3  4092002.3  0.0  2 0 1203 2104  885
[20]  55(B19) 1f 41  7  0   1830.7  4091995.1 -0.0  2 0 1477 2003  742
[21]  57(B21) 1f 43  7  0  -3165.6  4092008.2  0.0  2 0 1799 2431 1483
[22]  58(B22) 1f 42  7  0   -572.3  4092001.4 -0.0  2 0  986 1545  895
[32]  83(N02) 8f 35  7  0  -2746.6  1022001.7 -0.0  2 0   385  655  313
[33]  85(N04) 8f 41  7  0  -1425.7  1022000.8  0.2  2 0   561 1206  451
[48]  38(B02)  1 13 10  0  -1353.6 20460019.5  0.0  1 0  302  375  232
[49]  41(B05)  1 25 18  0  -1525.3 20460021.6  0.1  1 0  185  505  938
[51]  54(B18)  1  7  7  0   -845.5 20460015.1  0.0  1 0  723  381  427
[52]  55(B19)  1  7  7  0    580.9 20459971.9  0.1  1 0  224  215  129
[53]  57(B21)  1  7  7  0  -2725.6 20460050.6 -0.2  1 0  129  216  209
[54]  58(B22)  1  7  7  0  -1546.2 20460011.2 -0.0  1 0  539  524  453
sat12 = 10716 1368 3113 -7000
sat12 threshold = 3 
sat13 = 11909 1685 3111 8750
sat13 threshold = 3 
$GNGGA,032905.682,,,,,0,00,,,M,,,,0000*2A
$GNRMC,032905.682,A,,,,,,,010419,,*2A
$GPGSA,A,1,,,,,,,,,,,,,,,*1E
$BDGSA,A,1,,,,,,,,,,,,,,,*0F
$GLGSA,A,1,,,,,,,,,,,,,,,*02
$GPGSV,1,1,04,03,00,000,44,16,00,000,43,22,00,000,44,23,00,000,40*7B
$BDGSV,2,1,06,02,00,000,39,05,00,000,35,18,00,000,42,19,00,000,41*64
$BDGSV,2,2,06,21,00,000,43,22,00,000,42*6C
$B3CN0,0,0,0,0,0,0,0,0,0,0,0,0,0,0*4C
sat13 = 10782 1448 3104 -1750
sat13 threshold = 3 
sat14 = 10141 503 3127 -8000
sat14 threshold = 3 
sat14 = 11318 324 3126 -250
sat14 threshold = 3 
sat16 = 11250 1327 3120 -250
sat16 threshold = 3 
sat16 = 11135 1386 3137 3250
sat16 threshold = 3 
sat17 = 12574 1009 3119 5000
sat17 threshold = 4 
sat17 = 10664 1450 3117 1250
sat17 threshold = 3 
sat18 = 10430 1172 3098 8500
sat18 threshold = 3 
sat18 = 10956 233 3098 -7000
sat18 threshold = 3 
sat19 = 13998 1766 3098 4250
sat19 threshold = 4 
sat19 = 10542 315 3101 500
sat19 threshold = 3 
sat20 = 12102 26 3123 -3750
sat20 threshold = 3 
sat20 = 9985 1289 3110 3250
sat20 threshold = 3 
sat23 = 10698 377 3134 -750
sat23 threshold = 3 
sat23 = 10872 1145 3127 9500
sat23 threshold = 3 
sat24 = 11654 1200 3118 -1000
sat24 threshold = 3 
sat24 = 9426 91 3113 -3500
sat24 threshold = 3 
sat25 = 13338 1478 3111 0
sat25 threshold = 4 
sat25 = 11850 1477 3105 0
sat25 threshold = 3 
sat26 = 9690 1033 3109 -1750
sat26 threshold = 3 
sat26 = 12017 1450 3125 -8500
sat26 threshold = 3 
sat27 = 11537 1140 3109 7750
sat27 threshold = 3 
---00000021--- Acq_st=3 0  2019-4-1 3:29:6 
[00]  02(G03)  f 44  7  0   -186.1  2046000.2  0.0  2 0 1611 2659 1276
[01]  15(G16)  f 43  7  0  -2355.2  2046003.0  0.0  2 0 1389 2173 1008
[02]  21(G22)  f 43  7  0    651.4  2045999.1 -0.1  2 0 1331 2274  990
[03]  22(G23)  f 39  7  0  -4280.3  2046005.5  0.3  2 0  815 1098  890
[04]  25(G26)  1  7  7  0     -0.0  2046000.6 -0.0  1 0   57  565  994
[16]  38(B02) 1f 39 24  0  -1057.6  4092002.7  0.5  2 0  966 1122  652
[17]  41(B05) 1f 38 26  0  -1064.7  4092002.7 -0.2  2 0  526  847  687
[19]  54(B18) 1f 42  7  0   -932.9  4092002.4 -0.0  2 0  807 1920  908
[20]  55(B19) 1f 42  7  0   1827.3  4091995.1 -0.0  2 0 1381 1458  793
[21]  57(B21) 1f 43  7  0  -3170.0  4092008.2  0.0  2 0 1316 2005 1052
[22]  58(B22) 1f 42  9  0   -576.9  4092001.4 -0.1  2 0 1310 1860  619
[32]  83(N02) 8f 35  7  0  -2751.3  1022001.7 -0.1  2 0   589  821  225
[33]  85(N04) 8f 41  7  0  -1427.9  1022000.8 -0.1  2 0  1015 1045  548
[48]  38(B02)  f 10 20  1  -1032.9 20460014.8  0.1  2 0  459  454  303
[49]  41(B05)  1 24 25  0  -1229.3 20460021.5  0.0  1 0  348  454  546
[51]  54(B18)  1  7  7  0   -849.4 20460014.5  0.1  1 0  167  522  608
[52]  55(B19)  1  7  7  0   1580.2 20459971.1 -0.2  1 0  400  502  396
[53]  57(B21)  1  7  7  0  -3147.2 20460052.6 -0.1  1 0  215  347  410
[54]  58(B22)  1  7  7  0  -1993.1 20460010.9 -0.0  1 0  643  263  413
sat27 = 10194 1466 3111 5000
sat27 threshold = 3 
sat28 = 10996 265 3111 1500
sat28 threshold = 3 
$GNGGA,032906.682,,,,,0,00,,,M,,,,0000*29
$GNRMC,032906.682,A,,,,,,,010419,,*29
$GPGSA,A,1,,,,,,,,,,,,,,,*1E
$BDGSA,A,1,,,,,,,,,,,,,,,*0F
$GLGSA,A,1,,,,,,,,,,,,,,,*02
$GPGSV,1,1,04,03,00,000,44,16,00,000,43,22,00,000,43,23,00,000,39*72
$BDGSV,2,1,06,02,00,000,39,05,00,000,38,18,00,000,42,19,00,000,42*6A
$BDGSV,2,2,06,21,00,000,43,22,00,000,42*6C
$B3CN0,0,0,0,0,0,0,0,0,0,0,0,0,0,0*4C
sat28 = 10415 840 3115 -4500
sat28 threshold = 3 
sat29 = 10203 619 3112 7250
sat29 threshold = 3 
sat29 = 10089 360 3121 8000
sat29 threshold = 3 
sat30 = 9802 35 3103 3000
sat30 threshold = 3 
sat30 = 10092 10 3112 -8500
sat30 threshold = 3 
sat31 = 10709 1912 3105 -8000
sat31 threshold = 3 
sat31 = 10680 793 3106 5250
sat31 threshold = 3 
sat39 = 171669 1354 42710 5500
sat39 threshold = 4 
sat39 = 142503 1757 47471 5750
sat39 threshold = 3 
sat40 = 134507 137 42683 9750
sat40 threshold = 3 
sat40 = 143818 784 47707 1750
sat40 threshold = 3 
sat42 = 135955 986 42689 -3500
sat42 threshold = 3 
sat42 = 143977 473 47684 1000
sat42 threshold = 3 
sat43 = 139873 3944 42701 -9750
sat43 threshold = 3 
---00000022--- Acq_st=3 0  2019-4-1 3:29:7 
[00]  02(G03)  f 44  7  0   -187.7  2046000.2  0.0  2 0 1569 3380 1591
[01]  15(G16)  f 42  7  0  -2355.7  2046003.0 -0.0  2 0 1145 1860  707
[02]  21(G22)  f 43  7  0    648.4  2045999.1  0.0  2 0  997 2408 1342
[03]  22(G23)  f 39  7  0  -4287.2  2046005.5  0.0  2 0  874 1353  196
[04]  25(G26)  1 21  7  0   -153.7  2046001.0  0.1  1 0  295  224  219
[16]  38(B02) 1f 41 26  0  -1056.2  4092002.7  0.0  2 0  619  937  402
[17]  41(B05) 1f 36 26  0  -1058.0  4092002.6 -0.2  2 0  822  667  215
[19]  54(B18) 1f 42  7  0   -935.4  4092002.4 -0.0  2 0 1282 1781  837
[20]  55(B19) 1f 42  7  0   1827.2  4091995.1  0.0  2 0 1538 1789 1045
[21]  57(B21) 1f 43  7  0  -3170.8  4092008.2  0.0  2 0 1498 2396 1063
[22]  58(B22) 1f 42  7  0   -574.8  4092001.4 -0.0  2 0  907 1694  855
[32]  83(N02) 8f 36  7  0  -2752.1  1022001.7  0.1  2 0   325  646   92
[33]  85(N04) 8f 42  7  0  -1427.6  1022000.9 -0.0  2 0   628  863  453
[48]  38(B02)  f 10 10  0  -1130.5 20460016.8 -0.1  2 0  160  292  394
[51]  54(B18)  1  7  7  0  -1131.0 20460016.1  0.0  1 0  482 1078 1312
sat43 = 174739 3909 47634 1250
sat43 threshold = 3 
$GNGGA,032907.682,,,,,0,00,,,M,,,,0000*28
$GNRMC,032907.682,A,,,,,,,010419,,*28
$GPGSA,A,1,,,,,,,,,,,,,,,*1E
$BDGSA,A,1,,,,,,,,,,,,,,,*0F
$GLGSA,A,1,,,,,,,,,,,,,,,*02
$GPGSV,1,1,04,03,00,000,44,16,00,000,42,22,00,000,43,23,00,000,39*73
$BDGSV,2,1,06,02,00,000,41,05,00,000,36,18,00,000,42,19,00,000,42*6B
$BDGSV,2,2,06,21,00,000,43,22,00,000,42*6C
$B3CN0,0,36,0,0,0,0,0,0,0,0,0,0,0,0*79
sat44 = 133477 3771 42757 -3750
sat44 threshold = 3 
sat44 = 134808 984 47472 5000
sat44 threshold = 2 
sat45 = 143103 3774 42733 750
sat45 threshold = 3 
sat45 = 145469 2091 47628 -7750
sat45 threshold = 3 
sat46 = 332976 2223 42762 -1000
sat46 threshold = 7 
sat46 = 400720 2223 47501 -1000
sat46 threshold = 8 
sat47 = 140923 2528 42595 -7750
sat47 threshold = 3 
sat47 = 171241 923 47792 -6250
sat47 threshold = 3 
sat48 = 134974 2293 42592 -2000
sat48 threshold = 3 
sat48 = 141867 3747 47416 -4750
sat48 threshold = 2 
sat49 = 158856 2338 42489 6250
sat49 threshold = 3 
sat49 = 139753 3125 47717 4500
sat49 threshold = 2 
---00000023--- Acq_st=3 0  2019-4-1 3:29:8 
[00]  02(G03)  f 44  7  0   -188.3  2046000.2 -0.0  2 0 1588 2953 1457
[01]  15(G16)  f 42  7  0  -2356.7  2046003.0 -0.0  2 0 1162 1826  681
[02]  21(G22)  f 43  7  0    650.9  2045999.1  0.0  2 0  805 2187 1307
[03]  22(G23)  f 40  7  0  -4282.3  2046005.5  0.0  2 0 1137 1323  523
[04]  25(G26)  7 26  7  0   -189.8  2046000.1  0.1 10 0  448  805  583
[16]  38(B02) 1f 40 26  0  -1057.6  4092002.6  0.3  2 0  716 1155  504
[17]  41(B05) 1f 37 26  0  -1059.5  4092002.7  0.5  2 0  285  494  454
[18]  46(B10)  1  7  7  0  -1013.8  4092003.9 -0.1  1 0  441  957  880
[19]  54(B18) 1f 42  7  0   -931.2  4092002.3 -0.0  2 0 1312 1869  796
[20]  55(B19) 1f 41  7  0   1824.9  4091995.1 -0.0  2 0  776 1201  476
[21]  57(B21) 1f 43  7  0  -3172.0  4092008.2  0.0  2 0 1407 1782  476
[22]  58(B22) 1f 42  7  0   -576.8  4092001.4  0.0  2 0  634 1206  790
[32]  83(N02) 8f 36  7  0  -2752.2  1022001.7  0.0  2 0   696  737  420
[33]  85(N04) 8f 42  7  0  -1428.3  1022000.9  0.1  2 0   546 1126  694
[48]  38(B02)  f 10 10  1  -1742.3 20460026.7 -0.0  2 0  613  174  100
[49]  41(B05)  1 26 23  0   -634.2 20460021.7 -0.0  1 0  248  437  255
[52]  55(B19)  1  7  7  0   1758.5 20459971.1  0.0  1 0  326  317  959
[53]  57(B21)  1  9  7  0  -3140.4 20460050.7 -0.2  1 0  197  283   35
[54]  58(B22)  1  7  7  0   -168.9 20460011.1 -0.1  1 0  307  259  250
sat50 = 141416 1444 42523 -3500
sat50 threshold = 3 
$GNGGA,032908.682,,,,,0,00,,,M,,,,0000*27
$GNRMC,032908.682,A,,,,,,,010419,,*27
$GPGSA,A,1,,,,,,,,,,,,,,,*1E
$BDGSA,A,1,,,,,,,,,,,,,,,*0F
$GLGSA,A,1,,,,,,,,,,,,,,,*02
$GPGSV,2,1,05,03,00,000,44,16,00,000,42,22,00,000,43,23,00,000,40*7F
$GPGSV,2,2,05,26,00,000,26*4C
$BDGSV,2,1,06,02,00,000,40,05,00,000,37,18,00,000,42,19,00,000,41*68
$BDGSV,2,2,06,21,00,000,43,22,00,000,42*6C
$B3CN0,0,0,0,0,0,0,0,0,0,0,0,0,0,0*4C
$GLGSV,1,1,02,13,00,000,36,02,00,000,42*64
sat50 = 154894 1060 47661 4250
sat50 threshold = 3 
sat51 = 133366 1923 42703 5000
sat51 threshold = 3 
sat51 = 145762 244 47418 7500
sat51 threshold = 3 
sat52 = 135844 2127 42646 1000
sat52 threshold = 3 
sat52 = 157555 1042 47610 6000
sat52 threshold = 3 
sat53 = 147929 4007 42975 1750
sat53 threshold = 3 
sat53 = 150620 2957 47757 -6750
sat53 threshold = 3 
sat56 = 134376 3941 42619 6750
sat56 threshold = 3 
sat56 = 153252 2980 47461 -3500
sat56 threshold = 3 
sat59 = 138666 1669 42623 3250
sat59 threshold = 3 
sat59 = 161987 3440 47662 3500
sat59 threshold = 3 
---00000024--- Acq_st=3 0  2019-4-1 3:29:9 
[00]  02(G03)  f 45  7  0   -183.9  2046000.2 -0.0  2 0 2103 3383 1400
[01]  15(G16)  f 42  7  0  -2349.9  2046003.0 -0.0  2 0 1354 1762  494
[02]  21(G22)  f 43  7  0    655.9  2045999.1  0.1  2 0 1809 2699 1094
[03]  22(G23)  f 41  8  0  -4282.4  2046005.4 -0.1  2 0 1296 1948  882
[04]  25(G26)  7 31  7  0   -187.1  2046000.2 -0.0  5 0  644  981  491
[16]  38(B02) 1f 39 27  0  -1054.7  4092002.6 -0.3  2 0  869  929  696
[17]  41(B05) 1f 37 26  0  -1062.2  4092002.7 -0.5  2 0  426  559  250
[18]  46(B10)  1  7  7  0  -1055.8  4092002.7  0.4  1 0  691 1257  236
[19]  54(B18) 1f 42  7  0   -933.6  4092002.3  0.0  2 0 1319 1624  643
[20]  55(B19) 1f 42  7  0   1830.6  4091995.1  0.0  2 0 1205 1526  849
[21]  57(B21) 1f 43  7  0  -3168.2  4092008.2  0.1  2 0 1141 2025 1046
[22]  58(B22) 1f 42  7  0   -571.0  4092001.4  0.0  2 0 1210 1368  615
[32]  83(N02) 8f 36  7  0  -2746.3  1022001.7 -0.0  2 0   391  390  186
[33]  85(N04) 8f 41  7  0  -1422.2  1022000.9 -0.1  2 0   706 1080  541
[49]  41(B05)  1 19 20  0   -191.6 20460016.4  0.0  1 0  685  525  404
[51]  54(B18)  1  7  9  0   -564.0 20460014.6 -0.0  1 0  513  435  306
[52]  55(B19)  1  7  8  0   1774.4 20459970.7  0.0  1 0  383  403  334
[53]  57(B21)  1  7  7  0  -2741.0 20460050.7 -0.1  1 0  775  405  648
[54]  58(B22)  1  7  7  0    -16.3 20460009.4 -0.1  1 0  644  261  241
sat60 = 134098 2768 42722 5250
sat60 threshold = 3 
$GNGGA,032909.682,,,,,0,00,,,M,,,,0000*26
$GNRMC,032909.682,A,,,,,,,010419,,*26
$GPGSA,A,1,,,,,,,,,,,,,,,*1E
$BDGSA,A,1,,,,,,,,,,,,,,,*0F
$GLGSA,A,1,,,,,,,,,,,,,,,*02
$GPGSV,2,1,05,03,00,000,45,16,00,000,42,22,00,000,43,23,00,000,41*7F
$GPGSV,2,2,05,26,00,000,31*4A
$BDGSV,2,1,06,02,00,000,39,05,00,000,37,18,00,000,42,19,00,000,42*65
$BDGSV,2,2,06,21,00,000,43,22,00,000,42*6C
$B3CN0,0,0,0,0,0,0,0,0,0,0,0,0,0,0*4C
$GLGSV,1,1,02,13,00,000,36,02,00,000,41*67
sat60 = 149485 1896 47384 -7500
sat60 threshold = 3 
sat61 = 135960 1560 42606 3750
sat61 threshold = 3 
sat61 = 143287 2077 47531 4250
sat61 threshold = 3 
sat62 = 139663 1902 42735 8500
sat62 threshold = 3 
sat62 = 147615 2854 47813 5750
sat62 threshold = 3 
sat63 = 142984 831 42666 8000
sat63 threshold = 3 
sat63 = 160862 1139 47642 1750
sat63 threshold = 3 
sat64 = 138678 664 42753 -9250
sat64 threshold = 3 
sat64 = 141674 2333 47560 2500
sat64 threshold = 2 
sat65 = 144054 902 42597 -750
sat65 threshold = 3 
sat65 = 148587 373 47677 -3500
sat65 threshold = 3 
---00000025--- Acq_st=3 0  2019-4-1 3:29:10 
[00]  02(G03)  f 44  7  0   -184.7  2046000.2  0.0  2 0 1479 2640 1848
[01]  15(G16)  f 42  7  0  -2353.8  2046003.0 -0.1  2 0 1452 1903  469
[02]  21(G22)  f 42  7  0    654.1  2045999.1 -0.0  2 0 1342 2164  721
[03]  22(G23)  f 41  7  0  -4286.4  2046005.5  0.0  2 0 1014 1440  719
[04]  25(G26)  7 32  7  0   -187.8  2046000.1 -0.1  5 0  501  579  198
[16]  38(B02) 1f 40 25  0  -1056.3  4092002.6  0.5  2 0 1135 1323  581
[17]  41(B05) 1f 36 21  0  -1061.1  4092002.5 -0.7  2 0  587  766  766
[18]  46(B10)  7 36  7  0  -1055.5  4092002.7  0.2  2 0  866 1256  745
[19]  54(B18) 1f 42  7  0   -931.7  4092002.3 -0.0  2 0 1473 1811  751
[20]  55(B19) 1f 42  7  0   1829.3  4091995.1  0.0  2 0 1177 1523  455
[21]  57(B21) 1f 42  7  0  -3172.1  4092008.2 -0.0  2 0 1063 1438  526
[22]  58(B22) 1f 42  8  0   -573.8  4092001.4 -0.1  2 0 1186 1833  631
[32]  83(N02) 8f 36  7  0  -2748.6  1022001.8 -0.1  2 0   371  413  235
[33]  85(N04) 8f 41  7  0  -1426.7  1022000.9 -0.2  2 0   646 1360  823
[48]  38(B02)  1 10 10  1   -977.6 20460019.8  0.0  1 0  454  641  825
[49]  41(B05)  1 24 23  0   -243.4 20460023.0 -0.1  1 0  330  330  613
[51]  54(B18)  1  7  7  0   -898.6 20460015.0 -0.0  1 0  767  666  508
[52]  55(B19)  1  7  7  0   1599.2 20459971.5 -0.2  1 0  231   78  474
[53]  57(B21)  1  7  7  0  -2252.3 20460053.4  0.0  1 0  292  337  477
[54]  58(B22)  1  7  7  0    190.2 20460009.9 -0.1  1 0   68  263  115
sat66 = 149140 1876 42671 750
sat66 threshold = 3 
$GNGGA,032910.682,,,,,0,00,,,M,,,,0000*2E
$GNRMC,032910.682,A,,,,,,,010419,,*2E
$GPGSA,A,1,,,,,,,,,,,,,,,*1E
$BDGSA,A,1,,,,,,,,,,,,,,,*0F
$GLGSA,A,1,,,,,,,,,,,,,,,*02
$GPGSV,2,1,05,03,00,000,44,16,00,000,42,22,00,000,42,23,00,000,41*7F
$GPGSV,2,2,05,26,00,000,32*49
$BDGSV,2,1,07,02,00,000,40,05,00,000,36,10,00,000,36,18,00,000,42*61
$BDGSV,2,2,07,19,00,000,42,21,00,000,42,22,00,000,42*52
$B3CN0,0,0,0,0,0,0,0,0,0,0,0,0,0,0*4C
$GLGSV,1,1,02,13,00,000,36,02,00,000,41*67
sat66 = 152011 1721 47427 -6250
sat66 threshold = 3 
sat67 = 143386 3278 42925 2750
sat67 threshold = 3 
sat67 = 145668 1515 47501 -9750
sat67 threshold = 3 
sat68 = 135079 3778 42634 2500
sat68 threshold = 3 
sat68 = 147050 2486 47625 5000
sat68 threshold = 3 
sat74 = 9546 753 2971 7750
sat74 threshold = 3 
sat74 = 8659 1113 2901 2000
sat74 threshold = 2 
sat75 = 8862 493 2842 -4500
sat75 threshold = 3 
sat75 = 8346 1444 2772 -2250
sat75 threshold = 3 
sat76 = 17129 2023 2818 -4750
sat76 threshold = 6 
sat76 = 14209 2022 2818 -4750
sat76 threshold = 5 
sat77 = 8648 893 2775 -5500
sat77 threshold = 3 
sat77 = 8568 545 2832 -8750
sat77 threshold = 3 
sat78 = 8062 354 2806 1500
sat78 threshold = 2 
sat78 = 8735 1730 2792 -7500
sat78 threshold = 3 
---00000026--- Acq_st=3 0  2019-4-1 3:29:11 
[00]  02(G03)  f 45  7  0   -176.5  2046000.2 -0.0  2 0 2117 3162 1267
[01]  15(G16)  f 43  7  0  -2349.7  2046003.0  0.0  2 0 1216 1795  614
[02]  21(G22)  f 43  7  0    655.6  2045999.1  0.0  2 0 1623 2804 1232
[03]  22(G23)  f 41  7  0  -4284.2  2046005.5 -0.1  2 0  874 1211  514
[04]  25(G26)  7 32  7  0   -182.1  2046000.1  0.0  5 0  253  473  400
[16]  38(B02) 1f 40 27  0  -1049.1  4092002.5  0.0  2 0  839 1362  753
[17]  41(B05) 1f 37 26  0  -1055.6  4092002.6  0.7  2 0  480 1034  719
[18]  46(B10)  7 41  7  0  -1050.9  4092002.7 -0.1  2 0 1257 1681  612
[19]  54(B18) 1f 43  7  0   -928.1  4092002.3 -0.0  2 0 1229 1438  724
[20]  55(B19) 1f 41  7  0   1832.3  4091995.1 -0.1  2 0  987 1563  721
[21]  57(B21) 1f 42  7  0  -3162.6  4092008.2  0.0  2 0 1066 1565  256
[22]  58(B22) 1f 42  7  0   -568.5  4092001.4 -0.0  2 0 1076 1670  800
[32]  83(N02) 8f 37  7  0  -2743.1  1022001.7 -0.2  2 0   377  321  201
[33]  85(N04) 8f 41  7  0  -1419.4  1022000.9 -0.3  2 0   847 1642  499
[34]  76(N-5)  1 18  7  0  -4750.0  1022004.0 -0.1  1 0   411  273  205
[48]  38(B02)  1 36 10  0  -1106.5 20460019.3  0.2  1 0  294   98  213
[49]  41(B05)  1 23 23  1   -187.5 20460019.3  0.1  1 0  480  322  524
[51]  54(B18)  1  7  7  0   -409.8 20460014.3  0.1  1 0  359  105  399
[52]  55(B19)  1  7  7  0   1328.7 20459972.5  0.1  1 0  702  490  148
[53]  57(B21)  1  7  7  0  -1469.1 20460051.1 -0.1  1 0  159  124  277
[54]  58(B22)  1  7  7  0    653.6 20460009.2 -0.1  1 0   31  347   99
sat79 = 8793 106 2769 -1750
sat79 threshold = 3 
sat79 = 8704 1882 2813 -7250
sat79 threshold = 3 
$GNGGA,032911.682,,,,,0,00,,,M,,,,0000*2F
$GNRMC,032911.682,A,,,,,,,010419,,*2F
$GPGSA,A,1,,,,,,,,,,,,,,,*1E
$BDGSA,A,1,,,,,,,,,,,,,,,*0F
$GLGSA,A,1,,,,,,,,,,,,,,,*02
$GPGSV,2,1,05,03,00,000,45,16,00,000,43,22,00,000,43,23,00,000,41*7E
$GPGSV,2,2,05,26,00,000,32*49
$BDGSV,2,1,07,02,00,000,40,05,00,000,37,10,00,000,41,18,00,000,43*61
$BDGSV,2,2,07,19,00,000,41,21,00,000,42,22,00,000,42*51
$B3CN0,0,0,0,0,0,0,0,0,0,0,0,0,0,0*4C
$GLGSV,1,1,02,13,00,000,37,02,00,000,41*66
sat80 = 10517 1728 2792 -250
sat80 threshold = 3 
sat80 = 8636 925 2839 6750
sat80 threshold = 3 
sat81 = 12395 1322 3609 -9500
sat81 threshold = 3 
sat81 = 11672 813 3677 -9250
sat81 threshold = 3 
sat82 = 8601 339 2873 -1750
sat82 threshold = 2 
sat82 = 8210 1703 2765 8250
sat82 threshold = 2 
sat84 = 9366 386 2764 -5000
sat84 threshold = 3 
sat84 = 8266 619 2800 -2000
sat84 threshold = 2 
sat86 = 8763 875 2847 9750
sat86 threshold = 3 
sat86 = 8274 164 2734 -250
sat86 threshold = 3 
sat87 = 8900 1574 2911 2000
sat87 threshold = 3 
sat87 = 9463 970 2877 3000
sat87 threshold = 3 
---00000027--- Acq_st=7 0  2019-4-1 3:29:12 
[00]  02(G03)  f 44 10  0   -193.0  2046000.2  0.0  2 0 1860 2533 1512
[01]  15(G16)  f 43  7  0  -2358.0  2046003.0 -0.0  2 0 1669 2221  857
[02]  21(G22)  f 44  7  0    647.7  2045999.1  0.0  2 0 1650 2458 1132
[03]  22(G23)  f 41  7  0  -4292.5  2046005.5 -0.0  2 0  942 1372  674
[04]  25(G26)  7 34  7  0   -190.9  2046000.1 -0.1  5 0  867  907  615
[16]  38(B02) 1f 39 27  0  -1065.3  4092002.6  0.4  2 0  856  943  371
[17]  41(B05) 1f 37 25  0  -1060.7  4092002.6 -0.8  2 0  472  594  347
[18]  46(B10)  7 41  9  0  -1059.1  4092002.7 -0.0  2 0  766 1597  843
[19]  54(B18) 1f 43  7  0   -940.3  4092002.3 -0.0  2 0 1506 1491  830
[20]  55(B19) 1f 41  7  0   1823.0  4091995.1 -0.0  2 0 1133 1477  732
[21]  57(B21) 1f 41  7  0  -3176.2  4092008.2  0.0  2 0 1005 1642  952
[22]  58(B22) 1f 42  7  0   -578.4  4092001.4  0.1  2 0  779 1405  455
[32]  83(N02) 8f 37  7  0  -2754.9  1022001.7  0.3  2 0    78  675  484
[33]  85(N04) 8f 41  7  0  -1431.2  1022000.9  0.1  2 0   563 1029  762
[34]  76(N-5)  1 27  7  0  -4752.5  1022004.1  0.2  1 0   395  500   97
[48]  38(B02)  f 14 10  1   -881.3 20460016.3 -0.1  2 0  212  127  125
[51]  54(B18)  1  7  7  0   -150.9 20460015.9  0.0  1 0  489  387  362
$GNGGA,032912.682,,,,,0,00,,,M,,,,0000*2C
$GNRMC,032912.682,A,,,,,,,010419,,*2C
$GPGSA,A,1,,,,,,,,,,,,,,,*1E
$BDGSA,A,1,,,,,,,,,,,,,,,*0F
$GLGSA,A,1,,,,,,,,,,,,,,,*02
$GPGSV,2,1,05,03,00,000,44,16,00,000,43,22,00,000,44,23,00,000,41*78
$GPGSV,2,2,05,26,00,000,34*4F
$BDGSV,2,1,07,02,00,000,39,05,00,000,37,10,00,000,41,18,00,000,43*6F
$BDGSV,2,2,07,19,00,000,41,21,00,000,41,22,00,000,42*52
$B3CN0,0,0,0,0,0,0,0,0,0,0,0,0,0,0*4C
$GLGSV,1,1,02,13,00,000,37,02,00,000,41*66
---00000028--- Acq_st=7 0  2019-4-1 3:29:13 
[00]  02(G03)  f 44  7  0   -195.3  2046000.2  0.0  2 0 1731 2688 1675
[01]  15(G16)  f 44  7  0  -2364.7  2046003.0  0.0  2 0 1423 1731  804
[02]  21(G22)  f 44  7  0    641.3  2045999.1 -0.1  2 0 1932 2632 1353
[03]  22(G23)  f 41  7  0  -4300.3  2046005.5  0.0  2 0 1004 1363  379
[04]  25(G26)  f 33  7  0   -195.7  2046000.1 -0.0  5 0  124  172  277
[16]  38(B02) 1f 39 25  0  -1069.6  4092002.6  0.1  2 0 1438 1625  617
[17]  41(B05) 1f 36 22  0  -1069.4  4092002.7  0.0  2 0  728  392  506
[18]  46(B10)  7 40  7  0  -1071.0  4092002.7 -0.0  2 0 1394 1549  717
[19]  54(B18) 1f 43  9  0   -946.9  4092002.4  0.1  2 0 1437 1659  848
[20]  55(B19) 1f 41  7  0   1818.4  4091995.1 -0.1  2 0  825 1556  973
[21]  57(B21) 1f 41  7  0  -3180.5  4092008.2  0.0  2 0 1408 1913  775
[22]  58(B22) 1f 41  9  0   -580.4  4092001.4  0.0  2 0 1076 1629  853
[32]  83(N02) 8f 37  7  0  -2760.4  1022001.8 -0.0  2 0   387  578  420
[33]  85(N04) 8f 40  7  0  -1436.5  1022000.9 -0.6  2 0   706 1196  564
[34]  76(N-5)  7 22 18  0  -4795.4  1022003.0  0.0 10 0   250  204  312
[48]  38(B02)  f 19 13  1  -1212.1 20460019.6 -0.1  2 0  412  101  281
[49]  41(B05)  1 22 17  1   -814.2 20460018.2  0.1  1 0  818  572  192
[52]  55(B19)  1  7  7  0   1628.5 20459970.8  0.0  1 0  347  715  714
[53]  57(B21)  1  9  7  0  -2493.9 20460049.5  0.0  1 0  202  478  720
[54]  58(B22)  1  7  7  0   -404.4 20460008.1  0.0  1 0  299  393  496
$GNGGA,032913.682,,,,,0,00,,,M,,,,0000*2D
$GNRMC,032913.682,A,,,,,,,010419,,*2D
