i=1
Rf R0 Config = ff777073
Rf R1 Config = 00dffbfe
Rf R52 Config = 00dfee80
i=2
Rf R0 Config = 007772f3
Rf R1 Config = 00dcbbfe
Rf R52 Config = 00db4ef0
i=3
Rf R0 Config = 007772f3
Rf R1 Config = 00dffbfe
Rf R52 Config = 00dfef50
i=4
Rf R0 Config = 00777273
Rf R1 Config = 00dffbfe
Rf R52 Config = 00dfef40
SD initialized success
Create debug.log Failed! 3
Start Channel by LuYu
$GNGGA,000000.000,,,,,0,00,,,M,,,,0000*2B
$GNRMC,000000.000,A,,,,,,,060180,,*29
$GPGSA,A,1,,,,,,,,,,,,,,,*1E
$BDGSA,A,1,,,,,,,,,,,,,,,*0F
$GLGSA,A,1,,,,,,,,,,,,,,,*02
$B3CN0,0,0,0,0,0,0,0,0,0,0,0,0,0,0*4C
$GNGGA,000000.000,,,,,0,00,,,M,,,,0000*2B
$GNRMC,000000.000,A,,,,,,,060180,,*29
$GPGSA,A,1,,,,,,,,,,,,,,,*1E
$BDGSA,A,1,,,,,,,,,,,,,,,*0F
$GLGSA,A,1,,,,,,,,,,,,,,,*02
$B3CN0,0,0,0,0,0,0,0,0,0,0,0,0,0,0*4C
$GNGGA,000000.000,,,,,0,00,,,M,,,,0000*2B
$GNRMC,000000.000,A,,,,,,,060180,,*29
$GPGSA,A,1,,,,,,,,,,,,,,,*1E
$BDGSA,A,1,,,,,,,,,,,,,,,*0F
$GLGSA,A,1,,,,,,,,,,,,,,,*02
$GPGSV,1,1,01,03,00,000,18*42
$B3CN0,0,0,0,0,0,0,0,0,0,0,0,0,0,0*4C
$GNGGA,000000.000,,,,,0,00,,,M,,,,0000*2B
$GNRMC,000000.000,A,,,,,,,060180,,*29
$GPGSA,A,1,,,,,,,,,,,,,,,*1E
$BDGSA,A,1,,,,,,,,,,,,,,,*0F
$GLGSA,A,1,,,,,,,,,,,,,,,*02
$GPGSV,1,1,03,03,00,000,37,14,00,000,23,16,00,000,18*47
$B3CN0,0,0,0,0,0,0,0,0,0,0,0,0,0,0*4C
# of Valid meas: 0 [ ]
LSQ PV=[ 0         0.00,         0.00,         0.00,   0.00,   0.00,   0.00, [ 0.00,  0.00],       0.00,      0.00,      0.00,  0.00,0  0.00]
KF  PV=[ 0         0.00,         0.00,         0.00,   0.00,   0.00,   0.00, [ 0.00,  0.00],       0.00,      0.00,      0.00,  0.00,0  0.00]
LSQ LLH=[ 0.000000, 0.000000, 0.00, 0.000000 183860.128064]
KF  LLH=[ 0.000000, 0.000000, 0.00, 183860.128064 183860.128064]
KF  FixSet        0        0        0        0
LSQ Dop=[ 0.00, 0.00, 0.00, 0.00]
KF Dop=[ 0.00, 0.00, 0.00, 0.00]
KF UTC=[1980/01/08 - 03:04:2.129 ]
$GNGGA,030402.128,,,,,0,00,,,M,,,,0000*25
$GNRMC,030402.128,A,,,,,,,080180,,*29
$GPGSA,A,1,,,,,,,,,,,,,,,*1E
$BDGSA,A,1,,,,,,,,,,,,,,,*0F
$GLGSA,A,1,,,,,,,,,,,,,,,*02
$GPGSV,2,1,07,03,00,000,38,14,00,000,43,16,00,000,44,22,00,000,32*71
$GPGSV,2,2,07,23,00,000,29,26,00,000,26,27,00,000,26*45
$B3CN0,0,0,0,0,0,0,0,0,0,0,0,0,0,0*4C
# of Valid meas: 0 [ ]
LSQ PV=[ 0         0.00,         0.00,         0.00,   0.00,   0.00,   0.00, [ 0.00,  0.00],       0.00,      0.00,      0.00,  0.00,0  0.00]
KF  PV=[ 0         0.00,         0.00,         0.00,   0.00,   0.00,   0.00, [ 0.00,  0.00],       0.00,      0.00,      0.00,  0.00,0  0.00]
LSQ LLH=[ 0.000000, 0.000000, 0.00, 0.000000 183861.128064]
KF  LLH=[ 0.000000, 0.000000, 0.00, 183861.128064 183861.128064]
KF  FixSet        0        0        0        0
LSQ Dop=[ 0.00, 0.00, 0.00, 0.00]
KF Dop=[ 0.00, 0.00, 0.00, 0.00]
KF UTC=[1980/01/08 - 03:04:3.129 ]
$GNGGA,030403.128,,,,,0,00,,,M,,,,0000*24
$GNRMC,030403.128,A,,,,,,,080180,,*28
$GPGSA,A,1,,,,,,,,,,,,,,,*1E
$BDGSA,A,1,,,,,,,,,,,,,,,*0F
$GLGSA,A,1,,,,,,,,,,,,,,,*02
$GPGSV,3,1,09,03,00,000,38,14,00,000,42,16,00,000,44,22,00,000,44*7E
$GPGSV,3,2,09,23,00,000,38,26,00,000,46,27,00,000,42,31,00,000,45*7D
$GPGSV,3,3,09,32,00,000,43*46
$BDGSV,1,1,02,06,00,000,26,07,00,000,24*69
$B3CN0,0,0,0,0,0,0,0,0,0,0,0,0,0,0*4C
# of Valid meas: 0 [ ]
LSQ PV=[ 0         0.00,         0.00,         0.00,   0.00,   0.00,   0.00, [ 0.00,  0.00],       0.00,      0.00,      0.00,  0.00,0  0.00]
KF  PV=[ 0         0.00,         0.00,         0.00,   0.00,   0.00,   0.00, [ 0.00,  0.00],       0.00,      0.00,      0.00,  0.00,0  0.00]
LSQ LLH=[ 0.000000, 0.000000, 0.00, 0.000000 183862.128064]
KF  LLH=[ 0.000000, 0.000000, 0.00, 183862.128064 183862.128064]
KF  FixSet        0        0        0        0
LSQ Dop=[ 0.00, 0.00, 0.00, 0.00]
KF Dop=[ 0.00, 0.00, 0.00, 0.00]
KF UTC=[1980/01/08 - 03:04:4.129 ]
$GNGGA,030404.128,,,,,0,00,,,M,,,,0000*23
$GNRMC,030404.128,A,,,,,,,080180,,*2F
$GPGSA,A,1,,,,,,,,,,,,,,,*1E
$BDGSA,A,1,,,,,,,,,,,,,,,*0F
$GLGSA,A,1,,,,,,,,,,,,,,,*02
$GPGSV,3,1,09,03,00,000,38,14,00,000,42,16,00,000,44,22,00,000,43*79
$GPGSV,3,2,09,23,00,000,37,26,00,000,45,27,00,000,41,31,00,000,44*73
$GPGSV,3,3,09,32,00,000,42*47
$BDGSV,2,1,06,02,00,000,20,03,00,000,41,06,00,000,42,07,00,000,43*6B
$BDGSV,2,2,06,09,00,000,44,10,00,000,38*6D
$B3CN0,0,0,0,0,0,0,0,0,0,0,0,0,0,0*4C
# of Valid meas: 0 [ ]
LSQ PV=[ 0         0.00,         0.00,         0.00,   0.00,   0.00,   0.00, [ 0.00,  0.00],       0.00,      0.00,      0.00,  0.00,0  0.00]
KF  PV=[ 0         0.00,         0.00,         0.00,   0.00,   0.00,   0.00, [ 0.00,  0.00],       0.00,      0.00,      0.00,  0.00,0  0.00]
LSQ LLH=[ 0.000000, 0.000000, 0.00, 0.000000 183863.128064]
KF  LLH=[ 0.000000, 0.000000, 0.00, 183863.128064 183863.128064]
KF  FixSet        0        0        0        0
LSQ Dop=[ 0.00, 0.00, 0.00, 0.00]
KF Dop=[ 0.00, 0.00, 0.00, 0.00]
KF UTC=[1980/01/08 - 03:04:5.129 ]
$GNGGA,030405.128,,,,,0,00,,,M,,,,0000*22
$GNRMC,030405.128,A,,,,,,,080180,,*2E
$GPGSA,A,1,,,,,,,,,,,,,,,*1E
$BDGSA,A,1,,,,,,,,,,,,,,,*0F
$GLGSA,A,1,,,,,,,,,,,,,,,*02
$GPGSV,3,1,09,03,00,000,37,14,00,000,42,16,00,000,44,22,00,000,44*71
$GPGSV,3,2,09,23,00,000,38,26,00,000,45,27,00,000,42,31,00,000,44*7F
$GPGSV,3,3,09,32,00,000,42*47
$BDGSV,2,1,07,02,00,000,23,03,00,000,43,04,00,000,18,06,00,000,42*66
$BDGSV,2,2,07,07,00,000,43,09,00,000,43,10,00,000,43*57
$B3CN0,0,0,0,0,0,0,0,0,0,0,0,0,0,0*4C
# of Valid meas: 0 [ ]
LSQ PV=[ 0         0.00,         0.00,         0.00,   0.00,   0.00,   0.00, [ 0.00,  0.00],       0.00,      0.00,      0.00,  0.00,0  0.00]
KF  PV=[ 0         0.00,         0.00,         0.00,   0.00,   0.00,   0.00, [ 0.00,  0.00],       0.00,      0.00,      0.00,  0.00,0  0.00]
LSQ LLH=[ 0.000000, 0.000000, 0.00, 0.000000 183864.128064]
KF  LLH=[ 0.000000, 0.000000, 0.00, 183864.128064 183864.128064]
KF  FixSet        0        0        0        0
LSQ Dop=[ 0.00, 0.00, 0.00, 0.00]
KF Dop=[ 0.00, 0.00, 0.00, 0.00]
KF UTC=[1980/01/08 - 03:04:6.129 ]
$GNGGA,030406.128,,,,,0,00,,,M,,,,0000*21
$GNRMC,030406.128,A,,,,,,,080180,,*2D
$GPGSA,A,1,,,,,,,,,,,,,,,*1E
$BDGSA,A,1,,,,,,,,,,,,,,,*0F
$GLGSA,A,1,,,,,,,,,,,,,,,*02
$GPGSV,3,1,09,03,00,000,38,14,00,000,43,16,00,000,43,22,00,000,43*7F
$GPGSV,3,2,09,23,00,000,37,26,00,000,45,27,00,000,42,31,00,000,44*70
$GPGSV,3,3,09,32,00,000,42*47
$BDGSV,2,1,06,03,00,000,45,04,00,000,20,06,00,000,42,07,00,000,43*69
$BDGSV,2,2,06,09,00,000,43,10,00,000,43*66
$B3CN0,0,0,0,0,0,0,0,0,0,0,0,0,0,0*4C
# of Valid meas: 0 [ ]
LSQ PV=[ 0         0.00,         0.00,         0.00,   0.00,   0.00,   0.00, [ 0.00,  0.00],       0.00,      0.00,      0.00,  0.00,0  0.00]
KF  PV=[ 0         0.00,         0.00,         0.00,   0.00,   0.00,   0.00, [ 0.00,  0.00],       0.00,      0.00,      0.00,  0.00,0  0.00]
LSQ LLH=[ 0.000000, 0.000000, 0.00, 0.000000 183865.128064]
KF  LLH=[ 0.000000, 0.000000, 0.00, 183865.128064 183865.128064]
KF  FixSet        0        0        0        0
LSQ Dop=[ 0.00, 0.00, 0.00, 0.00]
KF Dop=[ 0.00, 0.00, 0.00, 0.00]
KF UTC=[1980/01/08 - 03:04:7.129 ]
$GNGGA,030407.128,,,,,0,00,,,M,,,,0000*20
$GNRMC,030407.128,A,,,,,,,080180,,*2C
$GPGSA,A,1,,,,,,,,,,,,,,,*1E
$BDGSA,A,1,,,,,,,,,,,,,,,*0F
$GLGSA,A,1,,,,,,,,,,,,,,,*02
$GPGSV,3,1,09,03,00,000,38,14,00,000,42,16,00,000,44,22,00,000,43*79
$GPGSV,3,2,09,23,00,000,38,26,00,000,45,27,00,000,42,31,00,000,44*7F
$GPGSV,3,3,09,32,00,000,42*47
$BDGSV,2,1,06,02,00,000,31,03,00,000,45,06,00,000,42,07,00,000,44*68
$BDGSV,2,2,06,09,00,000,43,10,00,000,43*66
$B3CN0,0,0,0,0,0,0,0,0,0,0,0,0,0,0*4C
# of Valid meas: 0 [ ]
LSQ PV=[ 0         0.00,         0.00,         0.00,   0.00,   0.00,   0.00, [ 0.00,  0.00],       0.00,      0.00,      0.00,  0.00,0  0.00]
KF  PV=[ 0         0.00,         0.00,         0.00,   0.00,   0.00,   0.00, [ 0.00,  0.00],       0.00,      0.00,      0.00,  0.00,0  0.00]
LSQ LLH=[ 0.000000, 0.000000, 0.00, 0.000000 183866.128064]
KF  LLH=[ 0.000000, 0.000000, 0.00, 183866.128064 183866.128064]
KF  FixSet        0        0        0        0
LSQ Dop=[ 0.00, 0.00, 0.00, 0.00]
KF Dop=[ 0.00, 0.00, 0.00, 0.00]
KF UTC=[1980/01/08 - 03:04:8.129 ]
$GNGGA,030408.128,,,,,0,00,,,M,,,,0000*2F
$GNRMC,030408.128,A,,,,,,,080180,,*23
$GPGSA,A,1,,,,,,,,,,,,,,,*1E
$BDGSA,A,1,,,,,,,,,,,,,,,*0F
$GLGSA,A,1,,,,,,,,,,,,,,,*02
$GPGSV,3,1,09,03,00,000,38,14,00,000,42,16,00,000,43,22,00,000,43*7E
$GPGSV,3,2,09,23,00,000,37,26,00,000,45,27,00,000,42,31,00,000,44*70
$GPGSV,3,3,09,32,00,000,42*47
$BDGSV,2,1,06,02,00,000,25,03,00,000,45,06,00,000,42,07,00,000,43*6A
$BDGSV,2,2,06,09,00,000,43,10,00,000,43*66
$B3CN0,0,0,17,0,0,0,0,0,0,0,0,0,0,0*7A
# of Valid meas: 0 [ ]
LSQ PV=[ 0         0.00,         0.00,         0.00,   0.00,   0.00,   0.00, [ 0.00,  0.00],       0.00,      0.00,      0.00,  0.00,0  0.00]
KF  PV=[ 0         0.00,         0.00,         0.00,   0.00,   0.00,   0.00, [ 0.00,  0.00],       0.00,      0.00,      0.00,  0.00,0  0.00]
LSQ LLH=[ 0.000000, 0.000000, 0.00, 0.000000 183867.128064]
KF  LLH=[ 0.000000, 0.000000, 0.00, 183867.128064 183867.128064]
KF  FixSet        0        0        0        0
LSQ Dop=[ 0.00, 0.00, 0.00, 0.00]
KF Dop=[ 0.00, 0.00, 0.00, 0.00]
KF UTC=[1980/01/08 - 03:04:9.129 ]
$GNGGA,030409.128,,,,,0,00,,,M,,,,0000*2E
$GNRMC,030409.128,A,,,,,,,080180,,*22
$GPGSA,A,1,,,,,,,,,,,,,,,*1E
$BDGSA,A,1,,,,,,,,,,,,,,,*0F
$GLGSA,A,1,,,,,,,,,,,,,,,*02
$GPGSV,3,1,09,03,00,000,38,14,00,000,42,16,00,000,43,22,00,000,43*7E
$GPGSV,3,2,09,23,00,000,38,26,00,000,45,27,00,000,41,31,00,000,44*7C
$GPGSV,3,3,09,32,00,000,42*47
$BDGSV,2,1,06,02,00,000,22,03,00,000,45,06,00,000,42,07,00,000,43*6D
$BDGSV,2,2,06,09,00,000,43,10,00,000,43*66
$B3CN0,0,0,16,0,0,0,0,0,0,0,0,0,0,0*7B
# of Valid meas: 0 [ ]
LSQ PV=[ 0         0.00,         0.00,         0.00,   0.00,   0.00,   0.00, [ 0.00,  0.00],       0.00,      0.00,      0.00,  0.00,0  0.00]
KF  PV=[ 0         0.00,         0.00,         0.00,   0.00,   0.00,   0.00, [ 0.00,  0.00],       0.00,      0.00,      0.00,  0.00,0  0.00]
LSQ LLH=[ 0.000000, 0.000000, 0.00, 0.000000 183868.128064]
KF  LLH=[ 0.000000, 0.000000, 0.00, 183868.128064 183868.128064]
KF  FixSet        0        0        0        0
LSQ Dop=[ 0.00, 0.00, 0.00, 0.00]
KF Dop=[ 0.00, 0.00, 0.00, 0.00]
KF UTC=[1980/01/08 - 03:04:10.129 ]
$GNGGA,030410.128,,,,,0,00,,,M,,,,0000*26
$GNRMC,030410.128,A,,,,,,,080180,,*2A
$GPGSA,A,1,,,,,,,,,,,,,,,*1E
$BDGSA,A,1,,,,,,,,,,,,,,,*0F
$GLGSA,A,1,,,,,,,,,,,,,,,*02
$GPGSV,3,1,09,03,00,000,39,14,00,000,43,16,00,000,45,22,00,000,43*78
$GPGSV,3,2,09,23,00,000,37,26,00,000,45,27,00,000,41,31,00,000,44*73
$GPGSV,3,3,09,32,00,000,42*47
$BDGSV,2,1,06,02,00,000,32,03,00,000,42,06,00,000,42,07,00,000,43*6B
$BDGSV,2,2,06,09,00,000,43,10,00,000,43*66
$B3CN0,0,0,16,0,0,0,0,0,0,0,0,0,0,0*7B
# of Valid meas: 0 [ ]
LSQ PV=[ 0         0.00,         0.00,         0.00,   0.00,   0.00,   0.00, [ 0.00,  0.00],       0.00,      0.00,      0.00,  0.00,0  0.00]
KF  PV=[ 0         0.00,         0.00,         0.00,   0.00,   0.00,   0.00, [ 0.00,  0.00],       0.00,      0.00,      0.00,  0.00,0  0.00]
LSQ LLH=[ 0.000000, 0.000000, 0.00, 0.000000 183869.128064]
KF  LLH=[ 0.000000, 0.000000, 0.00, 183869.128064 183869.128064]
KF  FixSet        0        0        0        0
LSQ Dop=[ 0.00, 0.00, 0.00, 0.00]
KF Dop=[ 0.00, 0.00, 0.00, 0.00]
KF UTC=[1980/01/08 - 03:04:11.129 ]
$GNGGA,030411.128,,,,,0,00,,,M,,,,0000*27
$GNRMC,030411.128,A,,,,,,,080180,,*2B
$GPGSA,A,1,,,,,,,,,,,,,,,*1E
$BDGSA,A,1,,,,,,,,,,,,,,,*0F
$GLGSA,A,1,,,,,,,,,,,,,,,*02
$GPGSV,3,1,09,03,00,000,38,14,00,000,43,16,00,000,44,22,00,000,44*7F
$GPGSV,3,2,09,23,00,000,38,26,00,000,46,27,00,000,42,31,00,000,44*7C
$GPGSV,3,3,09,32,00,000,42*47
$BDGSV,2,1,06,02,00,000,23,03,00,000,42,06,00,000,41,07,00,000,43*68
$BDGSV,2,2,06,09,00,000,43,10,00,000,43*66
$B3CN0,0,0,17,0,0,0,0,0,0,0,0,0,0,0*7A
# of Valid meas: 0 [ ]
LSQ PV=[ 0         0.00,         0.00,         0.00,   0.00,   0.00,   0.00, [ 0.00,  0.00],       0.00,      0.00,      0.00,  0.00,0  0.00]
KF  PV=[ 0         0.00,         0.00,         0.00,   0.00,   0.00,   0.00, [ 0.00,  0.00],       0.00,      0.00,      0.00,  0.00,0  0.00]
LSQ LLH=[ 0.000000, 0.000000, 0.00, 0.000000 183870.128064]
KF  LLH=[ 0.000000, 0.000000, 0.00, 183870.128064 183870.128064]
KF  FixSet        0        0        0        0
LSQ Dop=[ 0.00, 0.00, 0.00, 0.00]
KF Dop=[ 0.00, 0.00, 0.00, 0.00]
KF UTC=[1980/01/08 - 03:04:12.129 ]
$GNGGA,030412.128,,,,,0,00,,,M,,,,0000*24
$GNRMC,030412.128,A,,,,,,,080180,,*28
$GPGSA,A,1,,,,,,,,,,,,,,,*1E
$BDGSA,A,1,,,,,,,,,,,,,,,*0F
$GLGSA,A,1,,,,,,,,,,,,,,,*02
$GPGSV,3,1,09,03,00,000,38,14,00,000,43,16,00,000,45,22,00,000,44*7E
$GPGSV,3,2,09,23,00,000,37,26,00,000,46,27,00,000,42,31,00,000,45*72
$GPGSV,3,3,09,32,00,000,42*47
$BDGSV,2,1,05,03,00,000,43,06,00,000,42,07,00,000,43,09,00,000,43*64
$BDGSV,2,2,05,10,00,000,44*5C
$B3CN0,0,0,18,0,0,0,18,0,0,0,0,0,0,0*4C
# of Valid meas: 0 [ ]
LSQ PV=[ 0         0.00,         0.00,         0.00,   0.00,   0.00,   0.00, [ 0.00,  0.00],       0.00,      0.00,      0.00,  0.00,0  0.00]
KF  PV=[ 0         0.00,         0.00,         0.00,   0.00,   0.00,   0.00, [ 0.00,  0.00],       0.00,      0.00,      0.00,  0.00,0  0.00]
LSQ LLH=[ 0.000000, 0.000000, 0.00, 0.000000 183871.128064]
KF  LLH=[ 0.000000, 0.000000, 0.00, 183871.128064 183871.128064]
KF  FixSet        0        0        0        0
LSQ Dop=[ 0.00, 0.00, 0.00, 0.00]
KF Dop=[ 0.00, 0.00, 0.00, 0.00]
KF UTC=[1980/01/08 - 03:04:13.129 ]
$GNGGA,030413.128,,,,,0,00,,,M,,,,0000*25
$GNRMC,030413.128,A,,,,,,,080180,,*29
$GPGSA,A,1,,,,,,,,,,,,,,,*1E
$BDGSA,A,1,,,,,,,,,,,,,,,*0F
$GLGSA,A,1,,,,,,,,,,,,,,,*02
$GPGSV,3,1,09,03,00,000,38,14,00,000,42,16,00,000,44,22,00,000,43*79
$GPGSV,3,2,09,23,00,000,37,26,00,000,45,27,00,000,42,31,00,000,44*70
$GPGSV,3,3,09,32,00,000,42*47
$BDGSV,2,1,05,03,00,000,42,06,00,000,42,07,00,000,43,09,00,000,43*65
$BDGSV,2,2,05,10,00,000,43*5B
$B3CN0,0,0,22,0,0,0,27,0,0,0,0,0,0,0*49
# of Valid meas: 0 [ ]
LSQ PV=[ 0         0.00,         0.00,         0.00,   0.00,   0.00,   0.00, [ 0.00,  0.00],       0.00,      0.00,      0.00,  0.00,0  0.00]
KF  PV=[ 0         0.00,         0.00,         0.00,   0.00,   0.00,   0.00, [ 0.00,  0.00],       0.00,      0.00,      0.00,  0.00,0  0.00]
LSQ LLH=[ 0.000000, 0.000000, 0.00, 0.000000 183872.128064]
KF  LLH=[ 0.000000, 0.000000, 0.00, 183872.128064 183872.128064]
KF  FixSet        0        0        0        0
LSQ Dop=[ 0.00, 0.00, 0.00, 0.00]
KF Dop=[ 0.00, 0.00, 0.00, 0.00]
KF UTC=[1980/01/08 - 03:04:14.129 ]
$GNGGA,030414.128,,,,,0,00,,,M,,,,0000*22
$GNRMC,030414.128,A,,,,,,,080180,,*2E
$GPGSA,A,1,,,,,,,,,,,,,,,*1E
$BDGSA,A,1,,,,,,,,,,,,,,,*0F
$GLGSA,A,1,,,,,,,,,,,,,,,*02
$GPGSV,3,1,09,03,00,000,38,14,00,000,42,16,00,000,44,22,00,000,43*79
$GPGSV,3,2,09,23,00,000,38,26,00,000,46,27,00,000,42,31,00,000,45*7D
$GPGSV,3,3,09,32,00,000,42*47
$BDGSV,2,1,06,03,00,000,42,04,00,000,37,06,00,000,42,07,00,000,43*68
$BDGSV,2,2,06,09,00,000,44,10,00,000,44*66
$B3CN0,0,0,16,0,0,0,27,0,0,0,0,0,0,0*4E
# of Valid meas: 0 [ ]
LSQ PV=[ 0         0.00,         0.00,         0.00,   0.00,   0.00,   0.00, [ 0.00,  0.00],       0.00,      0.00,      0.00,  0.00,0  0.00]
KF  PV=[ 0         0.00,         0.00,         0.00,   0.00,   0.00,   0.00, [ 0.00,  0.00],       0.00,      0.00,      0.00,  0.00,0  0.00]
LSQ LLH=[ 0.000000, 0.000000, 0.00, 0.000000 183873.128064]
KF  LLH=[ 0.000000, 0.000000, 0.00, 183873.128064 183873.128064]
KF  FixSet        0        0        0        0
LSQ Dop=[ 0.00, 0.00, 0.00, 0.00]
KF Dop=[ 0.00, 0.00, 0.00, 0.00]
KF UTC=[1980/01/08 - 03:04:15.129 ]
$GNGGA,030415.128,,,,,0,00,,,M,,,,0000*23
$GNRMC,030415.128,A,,,,,,,080180,,*2F
$GPGSA,A,1,,,,,,,,,,,,,,,*1E
$BDGSA,A,1,,,,,,,,,,,,,,,*0F
$GLGSA,A,1,,,,,,,,,,,,,,,*02
$GPGSV,3,1,09,03,00,000,38,14,00,000,43,16,00,000,44,22,00,000,43*78
$GPGSV,3,2,09,23,00,000,38,26,00,000,45,27,00,000,42,31,00,000,44*7F
$GPGSV,3,3,09,32,00,000,43*46
$BDGSV,2,1,06,03,00,000,46,04,00,000,40,06,00,000,42,07,00,000,43*6C
$BDGSV,2,2,06,09,00,000,43,10,00,000,44*61
$B3CN0,0,0,0,0,0,0,27,0,0,0,0,0,0,0*79
# of Valid meas: 0 [ ]
LSQ PV=[ 0         0.00,         0.00,         0.00,   0.00,   0.00,   0.00, [ 0.00,  0.00],       0.00,      0.00,      0.00,  0.00,0  0.00]
KF  PV=[ 0         0.00,         0.00,         0.00,   0.00,   0.00,   0.00, [ 0.00,  0.00],       0.00,      0.00,      0.00,  0.00,0  0.00]
LSQ LLH=[ 0.000000, 0.000000, 0.00, 0.000000 183874.128064]
KF  LLH=[ 0.000000, 0.000000, 0.00, 183874.128064 183874.128064]
KF  FixSet        0        0        0        0
LSQ Dop=[ 0.00, 0.00, 0.00, 0.00]
KF Dop=[ 0.00, 0.00, 0.00, 0.00]
KF UTC=[1980/01/08 - 03:04:16.129 ]
$GNGGA,030416.128,,,,,0,00,,,M,,,,0000*20
$GNRMC,030416.128,A,,,,,,,080180,,*2C
$GPGSA,A,1,,,,,,,,,,,,,,,*1E
$BDGSA,A,1,,,,,,,,,,,,,,,*0F
$GLGSA,A,1,,,,,,,,,,,,,,,*02
$GPGSV,3,1,09,03,00,000,38,14,00,000,43,16,00,000,44,22,00,000,44*7F
$GPGSV,3,2,09,23,00,000,38,26,00,000,45,27,00,000,41,31,00,000,44*7C
$GPGSV,3,3,09,32,00,000,42*47
$BDGSV,2,1,06,03,00,000,43,04,00,000,40,06,00,000,42,07,00,000,43*69
$BDGSV,2,2,06,09,00,000,43,10,00,000,44*61
$B3CN0,0,0,0,0,0,0,26,0,0,0,0,0,0,0*78
# of Valid meas: 0 [ ]
LSQ PV=[ 0         0.00,         0.00,         0.00,   0.00,   0.00,   0.00, [ 0.00,  0.00],       0.00,      0.00,      0.00,  0.00,0  0.00]
KF  PV=[ 0         0.00,         0.00,         0.00,   0.00,   0.00,   0.00, [ 0.00,  0.00],       0.00,      0.00,      0.00,  0.00,0  0.00]
LSQ LLH=[ 0.000000, 0.000000, 0.00, 0.000000 183875.128064]
KF  LLH=[ 0.000000, 0.000000, 0.00, 183875.128064 183875.128064]
KF  FixSet        0        0        0        0
LSQ Dop=[ 0.00, 0.00, 0.00, 0.00]
KF Dop=[ 0.00, 0.00, 0.00, 0.00]
KF UTC=[1980/01/08 - 03:04:17.129 ]
$GNGGA,030417.128,,,,,0,00,,,M,,,,0000*21
$GNRMC,030417.128,A,,,,,,,080180,,*2D
$GPGSA,A,1,,,,,,,,,,,,,,,*1E
$BDGSA,A,1,,,,,,,,,,,,,,,*0F
$GLGSA,A,1,,,,,,,,,,,,,,,*02
$GPGSV,3,1,09,03,00,000,38,14,00,000,42,16,00,000,44,22,00,000,43*79
$GPGSV,3,2,09,23,00,000,38,26,00,000,45,27,00,000,41,31,00,000,43*7B
$GPGSV,3,3,09,32,00,000,42*47
$BDGSV,2,1,06,03,00,000,42,04,00,000,40,06,00,000,42,07,00,000,43*68
$BDGSV,2,2,06,09,00,000,43,10,00,000,43*66
$B3CN0,0,0,0,0,0,0,21,0,0,0,0,0,0,0*7F
# of Valid meas: 0 [ ]
LSQ PV=[ 0         0.00,         0.00,         0.00,   0.00,   0.00,   0.00, [ 0.00,  0.00],       0.00,      0.00,      0.00,  0.00,0  0.00]
KF  PV=[ 0         0.00,         0.00,         0.00,   0.00,   0.00,   0.00, [ 0.00,  0.00],       0.00,      0.00,      0.00,  0.00,0  0.00]
LSQ LLH=[ 0.000000, 0.000000, 0.00, 0.000000 183876.128064]
KF  LLH=[ 0.000000, 0.000000, 0.00, 183876.128064 183876.128064]
KF  FixSet        0        0        0        0
LSQ Dop=[ 0.00, 0.00, 0.00, 0.00]
KF Dop=[ 0.00, 0.00, 0.00, 0.00]
KF UTC=[1980/01/08 - 03:04:18.129 ]
$GNGGA,030418.128,,,,,0,00,,,M,,,,0000*2E
$GNRMC,030418.128,A,,,,,,,080180,,*22
$GPGSA,A,1,,,,,,,,,,,,,,,*1E
$BDGSA,A,1,,,,,,,,,,,,,,,*0F
$GLGSA,A,1,,,,,,,,,,,,,,,*02
$GPGSV,3,1,09,03,00,000,39,14,00,000,43,16,00,000,44,22,00,000,44*7E
$GPGSV,3,2,09,23,00,000,38,26,00,000,46,27,00,000,41,31,00,000,44*7F
$GPGSV,3,3,09,32,00,000,42*47
$BDGSV,2,1,06,03,00,000,43,04,00,000,41,06,00,000,42,07,00,000,43*68
$BDGSV,2,2,06,09,00,000,43,10,00,000,43*66
$B3CN0,0,0,0,0,0,0,0,0,0,0,0,0,0,0*4C
# of Valid meas: 0 [ ]
LSQ PV=[ 0         0.00,         0.00,         0.00,   0.00,   0.00,   0.00, [ 0.00,  0.00],       0.00,      0.00,      0.00,  0.00,0  0.00]
KF  PV=[ 0         0.00,         0.00,         0.00,   0.00,   0.00,   0.00, [ 0.00,  0.00],       0.00,      0.00,      0.00,  0.00,0  0.00]
LSQ LLH=[ 0.000000, 0.000000, 0.00, 0.000000 183877.128064]
KF  LLH=[ 0.000000, 0.000000, 0.00, 183877.128064 183877.128064]
KF  FixSet        0        0        0        0
LSQ Dop=[ 0.00, 0.00, 0.00, 0.00]
KF Dop=[ 0.00, 0.00, 0.00, 0.00]
KF UTC=[1999/08/24 - 03:04:19.129 ]
$GNGGA,030419.128,,,,,0,00,,,M,,,,0000*2F
$GNRMC,030419.128,A,,,,,,,240899,,*2C
$GPGSA,A,1,,,,,,,,,,,,,,,*1E
$BDGSA,A,1,,,,,,,,,,,,,,,*0F
$GLGSA,A,1,,,,,,,,,,,,,,,*02
$GPGSV,3,1,09,03,00,000,38,14,00,000,42,16,00,000,44,22,00,000,44*7E
$GPGSV,3,2,09,23,00,000,37,26,00,000,45,27,00,000,41,31,00,000,44*73
$GPGSV,3,3,09,32,00,000,42*47
$BDGSV,2,1,06,03,00,000,42,04,00,000,41,06,00,000,42,07,00,000,44*6E
$BDGSV,2,2,06,09,00,000,43,10,00,000,43*66
$B3CN0,0,0,0,0,0,0,0,0,0,0,0,0,0,0*4C
# of Valid meas: 0 [ ]
LSQ PV=[ 0         0.00,         0.00,         0.00,   0.00,   0.00,   0.00, [ 0.00,  0.00],       0.00,      0.00,      0.00,  0.00,0  0.00]
KF  PV=[ 0         0.00,         0.00,         0.00,   0.00,   0.00,   0.00, [ 0.00,  0.00],       0.00,      0.00,      0.00,  0.00,0  0.00]
LSQ LLH=[ 0.000000, 0.000000, 0.00, 0.000000 183878.128063]
KF  LLH=[ 0.000000, 0.000000, 0.00, 183878.128063 183878.128063]
KF  FixSet        0        0        0        0
LSQ Dop=[ 0.00, 0.00, 0.00, 0.00]
KF Dop=[ 0.00, 0.00, 0.00, 0.00]
KF UTC=[1999/08/24 - 03:04:20.129 ]
$GNGGA,030420.128,,,,,0,00,,,M,,,,0000*25
$GNRMC,030420.128,A,,,,,,,240899,,*26
$GPGSA,A,1,,,,,,,,,,,,,,,*1E
$BDGSA,A,1,,,,,,,,,,,,,,,*0F
$GLGSA,A,1,,,,,,,,,,,,,,,*02
$GPGSV,3,1,09,03,00,000,37,14,00,000,42,16,00,000,43,22,00,000,43*71
$GPGSV,3,2,09,23,00,000,38,26,00,000,45,27,00,000,41,31,00,000,43*7B
$GPGSV,3,3,09,32,00,000,42*47
$BDGSV,2,1,07,02,00,000,39,03,00,000,42,04,00,000,40,06,00,000,42*61
$BDGSV,2,2,07,07,00,000,43,09,00,000,43,10,00,000,43*57
$B3CN0,0,0,0,0,0,0,0,0,0,0,0,0,0,0*4C
# of Valid meas: 0 [ ]
LSQ PV=[ 0         0.00,         0.00,         0.00,   0.00,   0.00,   0.00, [ 0.00,  0.00],       0.00,      0.00,      0.00,  0.00,0  0.00]
KF  PV=[ 0         0.00,         0.00,         0.00,   0.00,   0.00,   0.00, [ 0.00,  0.00],       0.00,      0.00,      0.00,  0.00,0  0.00]
LSQ LLH=[ 0.000000, 0.000000, 0.00, 0.000000 183879.128063]
KF  LLH=[ 0.000000, 0.000000, 0.00, 183879.128063 183879.128063]
KF  FixSet        0        0        0        0
LSQ Dop=[ 0.00, 0.00, 0.00, 0.00]
KF Dop=[ 0.00, 0.00, 0.00, 0.00]
KF UTC=[1999/08/24 - 03:04:21.129 ]
$GNGGA,030421.128,,,,,0,00,,,M,,,,0000*24
$GNRMC,030421.128,A,,,,,,,240899,,*27
$GPGSA,A,1,,,,,,,,,,,,,,,*1E
$BDGSA,A,1,,,,,,,,,,,,,,,*0F
$GLGSA,A,1,,,,,,,,,,,,,,,*02
$GPGSV,3,1,09,03,00,000,37,14,00,000,42,16,00,000,44,22,00,000,43*76
$GPGSV,3,2,09,23,00,000,38,26,00,000,45,27,00,000,41,31,00,000,44*7C
$GPGSV,3,3,09,32,00,000,41*44
$BDGSV,2,1,07,02,00,000,41,03,00,000,42,04,00,000,40,06,00,000,42*6E
$BDGSV,2,2,07,07,00,000,43,09,00,000,43,10,00,000,43*57
$B3CN0,0,0,0,0,0,0,0,0,0,0,0,0,0,0*4C
# of Valid meas: 0 [ ]
LSQ PV=[ 0         0.00,         0.00,         0.00,   0.00,   0.00,   0.00, [ 0.00,  0.00],       0.00,      0.00,      0.00,  0.00,0  0.00]
KF  PV=[ 0         0.00,         0.00,         0.00,   0.00,   0.00,   0.00, [ 0.00,  0.00],       0.00,      0.00,      0.00,  0.00,0  0.00]
LSQ LLH=[ 0.000000, 0.000000, 0.00, 0.000000 183880.128063]
KF  LLH=[ 0.000000, 0.000000, 0.00, 183880.128063 183880.128063]
KF  FixSet        0        0        0        0
LSQ Dop=[ 0.00, 0.00, 0.00, 0.00]
KF Dop=[ 0.00, 0.00, 0.00, 0.00]
KF UTC=[1999/08/24 - 03:04:22.129 ]
$GNGGA,030422.128,,,,,0,00,,,M,,,,0000*27
$GNRMC,030422.128,A,,,,,,,240899,,*24
$GPGSA,A,1,,,,,,,,,,,,,,,*1E
$BDGSA,A,1,,,,,,,,,,,,,,,*0F
$GLGSA,A,1,,,,,,,,,,,,,,,*02
$GPGSV,3,1,09,03,00,000,38,14,00,000,42,16,00,000,44,22,00,000,43*79
$GPGSV,3,2,09,23,00,000,37,26,00,000,45,27,00,000,41,31,00,000,44*73
$GPGSV,3,3,09,32,00,000,42*47
$BDGSV,2,1,07,02,00,000,39,03,00,000,43,04,00,000,41,06,00,000,42*61
$BDGSV,2,2,07,07,00,000,43,09,00,000,43,10,00,000,43*57
$B3CN0,0,0,0,0,0,0,0,0,0,0,0,0,0,0*4C
# of Valid meas: 0 [ ]
LSQ PV=[ 0         0.00,         0.00,         0.00,   0.00,   0.00,   0.00, [ 0.00,  0.00],       0.00,      0.00,      0.00,  0.00,0  0.00]
KF  PV=[ 0         0.00,         0.00,         0.00,   0.00,   0.00,   0.00, [ 0.00,  0.00],       0.00,      0.00,      0.00,  0.00,0  0.00]
LSQ LLH=[ 0.000000, 0.000000, 0.00, 0.000000 183881.128063]
KF  LLH=[ 0.000000, 0.000000, 0.00, 183881.128063 183881.128063]
KF  FixSet        0        0        0        0
LSQ Dop=[ 0.00, 0.00, 0.00, 0.00]
KF Dop=[ 0.00, 0.00, 0.00, 0.00]
KF UTC=[1999/08/24 - 03:04:23.129 ]
$GNGGA,030423.128,,,,,0,00,,,M,,,,0000*26
$GNRMC,030423.128,A,,,,,,,240899,,*25
$GPGSA,A,1,,,,,,,,,,,,,,,*1E
$BDGSA,A,1,,,,,,,,,,,,,,,*0F
$GLGSA,A,1,,,,,,,,,,,,,,,*02
$GPGSV,3,1,09,03,00,000,38,14,00,000,43,16,00,000,44,22,00,000,43*78
$GPGSV,3,2,09,23,00,000,37,26,00,000,45,27,00,000,41,31,00,000,44*73
$GPGSV,3,3,09,32,00,000,42*47
$BDGSV,2,1,07,02,00,000,40,03,00,000,43,04,00,000,41,06,00,000,42*6F
$BDGSV,2,2,07,07,00,000,43,09,00,000,43,10,00,000,43*57
$B3CN0,0,19,0,0,0,0,0,0,0,0,0,0,0,0*74
# of Valid meas: 0 [ ]
LSQ PV=[ 0         0.00,         0.00,         0.00,   0.00,   0.00,   0.00, [ 0.00,  0.00],       0.00,      0.00,      0.00,  0.00,0  0.00]
KF  PV=[ 0         0.00,         0.00,         0.00,   0.00,   0.00,   0.00, [ 0.00,  0.00],       0.00,      0.00,      0.00,  0.00,0  0.00]
LSQ LLH=[ 0.000000, 0.000000, 0.00, 0.000000 183882.128063]
KF  LLH=[ 0.000000, 0.000000, 0.00, 183882.128063 183882.128063]
KF  FixSet        0        0        0        0
LSQ Dop=[ 0.00, 0.00, 0.00, 0.00]
KF Dop=[ 0.00, 0.00, 0.00, 0.00]
KF UTC=[1999/08/24 - 03:04:24.129 ]
$GNGGA,030424.128,,,,,0,00,,,M,,,,0000*21
$GNRMC,030424.128,A,,,,,,,240899,,*22
$GPGSA,A,1,,,,,,,,,,,,,,,*1E
$BDGSA,A,1,,,,,,,,,,,,,,,*0F
$GLGSA,A,1,,,,,,,,,,,,,,,*02
$GPGSV,3,1,09,03,00,000,38,14,00,000,42,16,00,000,44,22,00,000,43*79
$GPGSV,3,2,09,23,00,000,37,26,00,000,45,27,00,000,41,31,00,000,44*73
$GPGSV,3,3,09,32,00,000,42*47
$BDGSV,2,1,07,02,00,000,40,03,00,000,43,04,00,000,41,06,00,000,41*6C
$BDGSV,2,2,07,07,00,000,43,09,00,000,43,10,00,000,43*57
$B3CN0,0,0,0,0,0,0,0,0,0,0,0,0,0,0*4C
# of Valid meas: 0 [ ]
LSQ PV=[ 0         0.00,         0.00,         0.00,   0.00,   0.00,   0.00, [ 0.00,  0.00],       0.00,      0.00,      0.00,  0.00,0  0.00]
KF  PV=[ 0         0.00,         0.00,         0.00,   0.00,   0.00,   0.00, [ 0.00,  0.00],       0.00,      0.00,      0.00,  0.00,0  0.00]
LSQ LLH=[ 0.000000, 0.000000, 0.00, 0.000000 183883.128063]
KF  LLH=[ 0.000000, 0.000000, 0.00, 183883.128063 183883.128063]
KF  FixSet        0        0        0        0
LSQ Dop=[ 0.00, 0.00, 0.00, 0.00]
KF Dop=[ 0.00, 0.00, 0.00, 0.00]
KF UTC=[1999/08/24 - 03:04:25.129 ]
$GNGGA,030425.128,,,,,0,00,,,M,,,,0000*20
$GNRMC,030425.128,A,,,,,,,240899,,*23
$GPGSA,A,1,,,,,,,,,,,,,,,*1E
$BDGSA,A,1,,,,,,,,,,,,,,,*0F
$GLGSA,A,1,,,,,,,,,,,,,,,*02
$GPGSV,3,1,09,03,00,000,39,14,00,000,42,16,00,000,43,22,00,000,43*7F
$GPGSV,3,2,09,23,00,000,36,26,00,000,46,27,00,000,41,31,00,000,44*71
$GPGSV,3,3,09,32,00,000,42*47
$BDGSV,2,1,07,02,00,000,41,03,00,000,43,04,00,000,40,06,00,000,42*6F
$BDGSV,2,2,07,07,00,000,43,09,00,000,43,10,00,000,43*57
$B3CN0,0,0,0,0,0,0,0,0,0,0,0,0,0,0*4C
# of Valid meas: 0 [ ]
LSQ PV=[ 0         0.00,         0.00,         0.00,   0.00,   0.00,   0.00, [ 0.00,  0.00],       0.00,      0.00,      0.00,  0.00,0  0.00]
KF  PV=[ 0         0.00,         0.00,         0.00,   0.00,   0.00,   0.00, [ 0.00,  0.00],       0.00,      0.00,      0.00,  0.00,0  0.00]
LSQ LLH=[ 0.000000, 0.000000, 0.00, 0.000000 183884.128063]
KF  LLH=[ 0.000000, 0.000000, 0.00, 183884.128063 183884.128063]
KF  FixSet        0        0        0        0
LSQ Dop=[ 0.00, 0.00, 0.00, 0.00]
KF Dop=[ 0.00, 0.00, 0.00, 0.00]
KF UTC=[1999/08/24 - 03:04:26.129 ]
$GNGGA,030426.128,,,,,0,00,,,M,,,,0000*23
$GNRMC,030426.128,A,,,,,,,240899,,*20
$GPGSA,A,1,,,,,,,,,,,,,,,*1E
$BDGSA,A,1,,,,,,,,,,,,,,,*0F
$GLGSA,A,1,,,,,,,,,,,,,,,*02
$GPGSV,3,1,09,03,00,000,38,14,00,000,43,16,00,000,44,22,00,000,43*78
$GPGSV,3,2,09,23,00,000,37,26,00,000,45,27,00,000,42,31,00,000,45*71
$GPGSV,3,3,09,32,00,000,42*47
$BDGSV,2,1,07,02,00,000,41,03,00,000,43,04,00,000,40,06,00,000,42*6F
$BDGSV,2,2,07,07,00,000,43,09,00,000,42,10,00,000,43*56
$B3CN0,0,0,0,0,0,0,0,0,0,0,0,0,0,0*4C
# of Valid meas: 0 [ ]
LSQ PV=[ 0         0.00,         0.00,         0.00,   0.00,   0.00,   0.00, [ 0.00,  0.00],       0.00,      0.00,      0.00,  0.00,0  0.00]
KF  PV=[ 0         0.00,         0.00,         0.00,   0.00,   0.00,   0.00, [ 0.00,  0.00],       0.00,      0.00,      0.00,  0.00,0  0.00]
LSQ LLH=[ 0.000000, 0.000000, 0.00, 0.000000 183885.128063]
KF  LLH=[ 0.000000, 0.000000, 0.00, 183885.128063 183885.128063]
KF  FixSet        0        0        0        0
LSQ Dop=[ 0.00, 0.00, 0.00, 0.00]
KF Dop=[ 0.00, 0.00, 0.00, 0.00]
KF UTC=[1999/08/24 - 03:04:27.129 ]
$GNGGA,030427.128,,,,,0,00,,,M,,,,0000*22
$GNRMC,030427.128,A,,,,,,,240899,,*21
$GPGSA,A,1,,,,,,,,,,,,,,,*1E
$BDGSA,A,1,,,,,,,,,,,,,,,*0F
$GLGSA,A,1,,,,,,,,,,,,,,,*02
$GPGSV,3,1,09,03,00,000,38,14,00,000,43,16,00,000,45,22,00,000,43*79
$GPGSV,3,2,09,23,00,000,37,26,00,000,45,27,00,000,41,31,00,000,44*73
$GPGSV,3,3,09,32,00,000,42*47
$BDGSV,2,1,07,02,00,000,39,03,00,000,43,04,00,000,41,06,00,000,42*61
$BDGSV,2,2,07,07,00,000,43,09,00,000,43,10,00,000,44*50
$B3CN0,0,0,0,0,0,0,0,0,0,0,0,0,0,0*4C
# of Valid meas: 0 [ ]
LSQ PV=[ 0         0.00,         0.00,         0.00,   0.00,   0.00,   0.00, [ 0.00,  0.00],       0.00,      0.00,      0.00,  0.00,0  0.00]
KF  PV=[ 0         0.00,         0.00,         0.00,   0.00,   0.00,   0.00, [ 0.00,  0.00],       0.00,      0.00,      0.00,  0.00,0  0.00]
LSQ LLH=[ 0.000000, 0.000000, 0.00, 0.000000 183886.128063]
KF  LLH=[ 0.000000, 0.000000, 0.00, 183886.128063 183886.128063]
KF  FixSet        0        0        0        0
LSQ Dop=[ 0.00, 0.00, 0.00, 0.00]
KF Dop=[ 0.00, 0.00, 0.00, 0.00]
KF UTC=[1999/08/24 - 03:04:28.129 ]
$GNGGA,030428.128,,,,,0,00,,,M,,,,0000*2D
$GNRMC,030428.128,A,,,,,,,240899,,*2E
$GPGSA,A,1,,,,,,,,,,,,,,,*1E
$BDGSA,A,1,,,,,,,,,,,,,,,*0F
$GLGSA,A,1,,,,,,,,,,,,,,,*02
$GPGSV,3,1,09,03,00,000,38,14,00,000,43,16,00,000,44,22,00,000,44*7F
$GPGSV,3,2,09,23,00,000,37,26,00,000,45,27,00,000,40,31,00,000,44*72
$GPGSV,3,3,09,32,00,000,41*44
$BDGSV,2,1,07,02,00,000,41,03,00,000,43,04,00,000,40,06,00,000,42*6F
$BDGSV,2,2,07,07,00,000,43,09,00,000,43,10,00,000,43*57
$B3CN0,0,0,0,0,0,0,0,0,0,0,0,0,0,0*4C
# of Valid meas: 0 [ ]
LSQ PV=[ 0         0.00,         0.00,         0.00,   0.00,   0.00,   0.00, [ 0.00,  0.00],       0.00,      0.00,      0.00,  0.00,0  0.00]
KF  PV=[ 0         0.00,         0.00,         0.00,   0.00,   0.00,   0.00, [ 0.00,  0.00],       0.00,      0.00,      0.00,  0.00,0  0.00]
LSQ LLH=[ 0.000000, 0.000000, 0.00, 0.000000 183887.128063]
KF  LLH=[ 0.000000, 0.000000, 0.00, 183887.128063 183887.128063]
KF  FixSet        0        0        0        0
LSQ Dop=[ 0.00, 0.00, 0.00, 0.00]
KF Dop=[ 0.00, 0.00, 0.00, 0.00]
KF UTC=[1999/08/24 - 03:04:29.129 ]
$GNGGA,030429.128,,,,,0,00,,,M,,,,0000*2C
$GNRMC,030429.128,A,,,,,,,240899,,*2F
$GPGSA,A,1,,,,,,,,,,,,,,,*1E
$BDGSA,A,1,,,,,,,,,,,,,,,*0F
$GLGSA,A,1,,,,,,,,,,,,,,,*02
$GPGSV,3,1,09,03,00,000,38,14,00,000,41,16,00,000,44,22,00,000,44*7D
$GPGSV,3,2,09,23,00,000,37,26,00,000,45,27,00,000,41,31,00,000,44*73
$GPGSV,3,3,09,32,00,000,42*47
$BDGSV,2,1,07,02,00,000,40,03,00,000,43,04,00,000,40,06,00,000,42*6E
$BDGSV,2,2,07,07,00,000,43,09,00,000,43,10,00,000,44*50
$B3CN0,0,0,0,0,0,0,0,0,0,0,0,0,0,0*4C
# of Valid meas: 0 [ ]
LSQ PV=[ 0         0.00,         0.00,         0.00,   0.00,   0.00,   0.00, [ 0.00,  0.00],       0.00,      0.00,      0.00,  0.00,0  0.00]
KF  PV=[ 0         0.00,         0.00,         0.00,   0.00,   0.00,   0.00, [ 0.00,  0.00],       0.00,      0.00,      0.00,  0.00,0  0.00]
LSQ LLH=[ 0.000000, 0.000000, 0.00, 0.000000 183888.128063]
KF  LLH=[ 0.000000, 0.000000, 0.00, 183888.128063 183888.128063]
KF  FixSet        0        0        0        0
LSQ Dop=[ 0.00, 0.00, 0.00, 0.00]
KF Dop=[ 0.00, 0.00, 0.00, 0.00]
KF UTC=[1999/08/24 - 03:04:30.129 ]
$GNGGA,030430.128,,,,,0,00,,,M,,,,0000*24
$GNRMC,030430.128,A,,,,,,,240899,,*27
$GPGSA,A,1,,,,,,,,,,,,,,,*1E
$BDGSA,A,1,,,,,,,,,,,,,,,*0F
$GLGSA,A,1,,,,,,,,,,,,,,,*02
$GPGSV,3,1,09,03,00,000,38,14,00,000,42,16,00,000,43,22,00,000,44*79
$GPGSV,3,2,09,23,00,000,38,26,00,000,45,27,00,000,42,31,00,000,44*7F
$GPGSV,3,3,09,32,00,000,42*47
$BDGSV,2,1,07,02,00,000,40,03,00,000,42,04,00,000,41,06,00,000,42*6E
$BDGSV,2,2,07,07,00,000,43,09,00,000,43,10,00,000,44*50
$B3CN0,0,0,0,0,0,0,0,0,0,0,0,0,0,0*4C
# of Valid meas: 9 [G03 G14 G16 G22 G23 G26 G27 G31 G32  ]
LSQ PV=[ 9  -1578910.44,   5312767.62,   3146357.98,   0.47,  -0.65,  -0.19, [ 0.34, -0.76], 39746095.35,      0.00,      0.00,-203.26,5  0.97]
KF  PV=[ 9  -1578910.44,   5312767.62,   3146357.98,   0.47,  -0.65,  -0.19, [ 0.34, -0.76], 39746095.35,      0.00,      0.00,-203.26,5  0.97]
LSQ LLH=[ 29.748487, 106.551512, 322.16, 183888.995484 183889.128063]
KF  LLH=[ 29.748487, 106.551512, 322.16, 183888.995484 183889.128063]
KF  FixSet c660a004        0        0        0
LSQ Dop=[ 2.45, 2.11, 0.97, 1.87]
KF Dop=[ 2.45, 2.11, 0.97, 1.87]
KF UTC=[1999/08/24 - 03:04:30.996 ]
Form BB MSG80:     0.005 46660 10333326 
$GNGGA,030430.995,2944.9092,N,10633.0907,E,1,09,1.0,322.2,M,,,,0000*19
$GNRMC,030430.995,A,2944.9092,N,10633.0907,E,0.66,0.00,240899,,*12
$GPGSA,A,3,03,14,16,22,23,26,27,31,32,,,,2.1,1.0,1.9*3A
$BDGSA,A,3,,,,,,,,,,,,,2.1,1.0,1.9*29
$GLGSA,A,3,,,,,,,,,,,,,2.1,1.0,1.9*24
$GPGSV,3,1,09,03,00,000,39,14,00,000,43,16,00,000,44,22,00,000,43*79
$GPGSV,3,2,09,23,00,000,37,26,00,000,45,27,00,000,42,31,00,000,44*70
$GPGSV,3,3,09,32,00,000,42*47
$BDGSV,2,1,07,02,00,000,41,03,00,000,42,04,00,000,41,06,00,000,42*6F
$BDGSV,2,2,07,07,00,000,44,09,00,000,43,10,00,000,43*50
$B3CN0,0,18,0,0,0,0,0,0,0,0,0,0,0,0*75
# of Valid meas: 9 [G26 G16 G31 G14 G22 G32 G27 G03 G23  ]
LSQ PV=[ 9  -1578910.22,   5312767.31,   3146358.41,   0.44,  -0.59,  -0.04, [ 0.40, -0.62],    -205.26,      0.00,      0.00,-204.63,5  0.97]
KF  PV=[ 9  -1578912.44,   5312767.73,   3146357.45,   0.29,  -0.38,   0.00, [ 0.28, -0.39],    -204.13,     -1.12,     -1.12,-204.40,11  0.97]
LSQ LLH=[ 29.748492, 106.551511, 322.06, 183890.000001 183890.000000]
KF  LLH=[ 29.748479, 106.551532, 322.48, 183890.000001 183890.000000]
KF  FixSet c660a004        0        0        0
LSQ Dop=[ 2.45, 2.11, 0.97, 1.87]
KF Dop=[ 2.45, 2.11, 0.97, 1.87]
KF UTC=[1999/08/24 - 03:04:32.001 ]
Refix G03: 2, 183889.925060, 108
Refix G14: 2, 183889.926642, 1304
Refix G16: 2, 183889.932617, -2021
Refix G22: 2, 183889.923125, 844
Refix G23: 2, 183889.922600, -4200
Refix G26: 2, 183889.932233, 77
Refix G27: 2, 183889.922409, -4633
Refix G31: 2, 183889.926133, 432
Refix G32: 2, 183889.921898, 2137
$GNGGA,030432.000,2944.9088,N,10633.0919,E,1,09,1.0,322.5,M,,,,0000*1D
$GNRMC,030432.000,A,2944.9088,N,10633.0919,E,0.55,0.00,240899,,*11
$GPGSA,A,3,03,14,16,22,23,26,27,31,32,,,,2.1,1.0,1.9*3A
$BDGSA,A,3,,,,,,,,,,,,,2.1,1.0,1.9*29
$GLGSA,A,3,,,,,,,,,,,,,2.1,1.0,1.9*24
$GPGSV,3,1,10,03,00,000,38,14,00,000,43,16,00,000,44,22,00,000,43*70
$GPGSV,3,2,10,23,00,000,37,26,00,000,45,27,00,000,41,31,00,000,44*7B
$GPGSV,3,3,10,32,00,000,42,29,00,000,27*71
$BDGSV,2,1,07,02,00,000,41,03,00,000,43,04,00,000,40,06,00,000,42*6F
$BDGSV,2,2,07,07,00,000,43,09,00,000,43,10,00,000,43*57
$B3CN0,0,23,0,0,0,0,0,0,0,0,0,0,0,0*7D
# of Valid meas: 9 [G26 G16 G22 G31 G14 G27 G32 G03 G23  ]
LSQ PV=[ 9  -1578910.22,   5312766.30,   3146358.32,   0.36,  -0.65,  -0.11, [ 0.30, -0.68],    -410.27,      0.00,      0.00,-204.46,5  0.97]
KF  PV=[ 9  -1578912.24,   5312767.55,   3146357.87,   0.26,  -0.46,  -0.09, [ 0.21, -0.50],    -408.28,     -0.99,     -0.99,-204.29,11  0.97]
LSQ LLH=[ 29.748495, 106.551514, 321.17, 183891.000001 183891.000000]
KF  LLH=[ 29.748484, 106.551530, 322.49, 183891.000001 183891.000000]
KF  FixSet c660a004        0        0        0
LSQ Dop=[ 2.45, 2.11, 0.97, 1.87]
KF Dop=[ 2.45, 2.11, 0.97, 1.87]
KF UTC=[1999/08/24 - 03:04:33.001 ]
Refix G03: 2, 183890.925060, 110
Refix G14: 2, 183890.926641, 1305
Refix G16: 2, 183890.932619, -2019
Refix G22: 2, 183890.923124, 845
Refix G23: 2, 183890.922603, -4199
Refix G26: 2, 183890.932233, 78
Refix G27: 2, 183890.922412, -4632
Refix G31: 2, 183890.926133, 433
Refix G32: 2, 183890.921897, 2137
$GNGGA,030433.000,2944.9090,N,10633.0918,E,1,09,1.0,322.5,M,,,,0000*14
$GNRMC,030433.000,A,2944.9090,N,10633.0918,E,0.41,0.00,240899,,*1D
$GPGSA,A,3,03,14,16,22,23,26,27,31,32,,,,2.1,1.0,1.9*3A
$BDGSA,A,3,,,,,,,,,,,,,2.1,1.0,1.9*29
$GLGSA,A,3,,,,,,,,,,,,,2.1,1.0,1.9*24
$GPGSV,3,1,10,03,33,260,39,14,38,131,42,16,70,244,44,22,29,235,44*71
$GPGSV,3,2,10,23,29,317,37,26,71,014,45,27,23,171,42,31,39,058,44*74
$GPGSV,3,3,10,32,22,138,42,29,00,000,34*79
$BDGSV,2,1,07,02,00,000,40,03,00,000,43,04,00,000,41,06,00,000,42*6F
$BDGSV,2,2,07,07,00,000,43,09,85,183,43,10,00,000,43*50
$B3CN0,0,0,0,0,0,0,0,0,0,0,0,0,0,0*4C
# of Valid meas: 9 [G26 G16 G22 G31 G14 G27 G32 G03 G23  ]
LSQ PV=[ 9  -1578910.68,   5312767.45,   3146358.67,   0.30,  -0.74,  -0.18, [ 0.24, -0.78],    -613.72,      0.00,      0.00,-204.42,5  0.97]
KF  PV=[ 9  -1578912.20,   5312767.49,   3146357.90,   0.19,  -0.61,  -0.17, [ 0.17, -0.64],    -612.48,     -0.98,     -0.98,-204.27,11  0.97]
LSQ LLH=[ 29.748492, 106.551515, 322.42, 183892.000002 183892.000000]
KF  LLH=[ 29.748484, 106.551530, 322.44, 183892.000002 183892.000000]
KF  FixSet c660a004        0        0        0
LSQ Dop=[ 2.45, 2.11, 0.97, 1.87]
KF Dop=[ 2.45, 2.11, 0.97, 1.87]
KF UTC=[1999/08/24 - 03:04:34.001 ]
Refix G03: 2, 183891.925060, 111
Refix G14: 2, 183891.926641, 1306
Refix G16: 2, 183891.932620, -2017
Refix G22: 2, 183891.923124, 846
Refix G23: 2, 183891.922605, -4198
Refix G26: 2, 183891.932233, 79
Refix G27: 2, 183891.922415, -4632
Refix G31: 2, 183891.926132, 433
Refix G32: 2, 183891.921895, 2138
$GNGGA,030434.000,2944.9091,N,10633.0918,E,1,09,1.0,322.4,M,,,,0000*13
$GNRMC,030434.000,A,2944.9091,N,10633.0918,E,0.33,0.00,240899,,*1E
$GPGSA,A,3,03,14,16,22,23,26,27,31,32,,,,2.1,1.0,1.9*3A
$BDGSA,A,3,,,,,,,,,,,,,2.1,1.0,1.9*29
$GLGSA,A,3,,,,,,,,,,,,,2.1,1.0,1.9*24
$GPGSV,3,1,10,03,33,260,38,14,38,131,42,16,70,244,44,22,29,235,43*77
$GPGSV,3,2,10,23,29,317,37,26,71,014,45,27,23,171,42,31,39,058,43*73
$GPGSV,3,3,10,32,22,138,41,29,00,000,35*7B
$BDGSV,2,1,08,02,00,000,40,03,00,000,42,04,00,000,41,06,00,000,42*61
$BDGSV,2,2,08,07,00,000,43,09,85,183,43,10,00,000,43,05,00,000,25*6D
$B3CN0,0,0,0,0,0,0,0,0,0,0,0,0,0,0*4C
# of Valid meas: 9 [G26 G31 G14 G16 G22 G27 G32 G03 G23  ]
LSQ PV=[ 9  -1578911.37,   5312768.67,   3146358.64,   0.37,  -0.45,  -0.25, [ 0.23, -0.59],    -816.56,      0.00,      0.00,-202.97,5  0.97]
KF  PV=[ 9  -1578912.29,   5312767.53,   3146357.84,   0.48,  -1.11,  -0.38, [ 0.30, -1.23],    -816.24,     -0.30,     -0.30,-203.46,11  0.97]
LSQ LLH=[ 29.748486, 106.551518, 323.59, 183893.000003 183893.000000]
KF  LLH=[ 29.748483, 106.551531, 322.47, 183893.000003 183893.000000]
KF  FixSet c660a004        0        0        0
LSQ Dop=[ 2.45, 2.11, 0.97, 1.87]
KF Dop=[ 2.45, 2.11, 0.97, 1.87]
KF UTC=[1999/08/24 - 03:04:35.001 ]
Refix G03: 2, 183892.925059, 117
Refix G14: 2, 183892.926640, 1313
Refix G16: 2, 183892.932621, -2010
Refix G22: 2, 183892.923123, 852
Refix G23: 2, 183892.922608, -4193
Refix G26: 2, 183892.932233, 87
Refix G27: 2, 183892.922418, -4626
Refix G31: 2, 183892.926132, 440
Refix G32: 2, 183892.921894, 2144
$GNGGA,030435.000,2944.9090,N,10633.0919,E,1,09,1.0,322.5,M,,,,0000*13
$GNRMC,030435.000,A,2944.9090,N,10633.0919,E,0.58,0.00,240899,,*12
$GPGSA,A,3,03,14,16,22,23,26,27,31,32,,,,2.1,1.0,1.9*3A
$BDGSA,A,3,,,,,,,,,,,,,2.1,1.0,1.9*29
$GLGSA,A,3,,,,,,,,,,,,,2.1,1.0,1.9*24
$GPGSV,3,1,10,03,33,260,39,14,38,131,43,16,70,244,43,22,29,235,43*70
$GPGSV,3,2,10,23,29,317,37,26,71,014,45,27,23,171,42,31,39,058,44*74
$GPGSV,3,3,10,32,22,138,41,29,00,000,34*7A
$BDGSV,2,1,07,02,00,000,40,03,00,000,42,04,00,000,40,06,00,000,42*6F
$BDGSV,2,2,07,07,00,000,43,09,85,183,43,10,00,000,43*50
$B3CN0,0,0,0,0,0,0,0,0,0,0,0,0,0,0*4C
# of Valid meas: 9 [G26 G31 G16 G22 G14 G27 G32 G03 G23  ]
LSQ PV=[ 9  -1578911.98,   5312769.34,   3146358.50,   0.19,  -0.08,  -0.21, [ 0.20, -0.21],   -1020.22,      0.00,      0.00,-204.13,5  0.97]
KF  PV=[ 9  -1578912.30,   5312767.59,   3146357.61,   0.16,  -0.02,  -0.23, [ 0.23, -0.18],   -1019.78,     -0.45,     -0.45,-203.96,11  0.97]
LSQ LLH=[ 29.748481, 106.551522, 324.22, 183894.000003 183894.000000]
KF  LLH=[ 29.748481, 106.551531, 322.40, 183894.000003 183894.000000]
KF  FixSet c660a004        0        0        0
LSQ Dop=[ 2.45, 2.11, 0.97, 1.87]
KF Dop=[ 2.45, 2.11, 0.97, 1.87]
KF UTC=[1999/08/24 - 03:04:36.001 ]
Refix G03: 2, 183893.925059, 112
Refix G14: 2, 183893.926639, 1306
Refix G16: 2, 183893.932622, -2017
Refix G22: 2, 183893.923123, 846
Refix G23: 2, 183893.922610, -4196
Refix G26: 2, 183893.932233, 80
Refix G27: 2, 183893.922421, -4633
Refix G31: 2, 183893.926132, 435
Refix G32: 2, 183893.921893, 2138
$GNGGA,030436.000,2944.9089,N,10633.0918,E,1,09,1.0,322.4,M,,,,0000*18
$GNRMC,030436.000,A,2944.9089,N,10633.0918,E,0.44,0.00,240899,,*15
$GPGSA,A,3,03,14,16,22,23,26,27,31,32,,,,2.1,1.0,1.9*3A
$BDGSA,A,3,,,,,,,,,,,,,2.1,1.0,1.9*29
$GLGSA,A,3,,,,,,,,,,,,,2.1,1.0,1.9*24
$GPGSV,3,1,10,03,33,260,38,14,38,131,42,16,70,244,43,22,29,235,43*70
$GPGSV,3,2,10,23,29,317,37,26,71,014,45,27,23,171,41,31,39,058,44*77
$GPGSV,3,3,10,32,22,138,41,29,00,000,35*7B
$BDGSV,2,1,07,02,00,000,39,03,00,000,42,04,00,000,41,06,00,000,42*60
$BDGSV,2,2,07,07,00,000,43,09,85,183,42,10,00,000,43*51
$B3CN0,0,0,0,0,0,0,0,0,0,0,0,0,0,0*4C
# of Valid meas: 9 [G26 G31 G16 G22 G14 G27 G32 G03 G23  ]
LSQ PV=[ 9  -1578912.47,   5312769.39,   3146358.46,   0.35,  -0.73,  -0.10, [ 0.33, -0.74],   -1224.27,      0.00,      0.00,-204.61,5  0.97]
KF  PV=[ 9  -1578912.30,   5312767.47,   3146357.55,   0.16,  -0.18,  -0.06, [ 0.11, -0.22],   -1224.22,     -0.76,     -0.76,-204.16,11  0.97]
LSQ LLH=[ 29.748480, 106.551527, 324.37, 183895.000004 183895.000000]
KF  LLH=[ 29.748481, 106.551531, 322.28, 183895.000004 183895.000000]
KF  FixSet c660a004        0        0        0
LSQ Dop=[ 2.45, 2.11, 0.97, 1.87]
KF Dop=[ 2.45, 2.11, 0.97, 1.87]
KF UTC=[1999/08/24 - 03:04:37.001 ]
Refix G03: 2, 183894.925059, 112
Refix G14: 2, 183894.926638, 1306
Refix G16: 2, 183894.932624, -2017
Refix G22: 2, 183894.923122, 846
Refix G23: 2, 183894.922613, -4198
Refix G26: 2, 183894.932233, 79
Refix G27: 2, 183894.922424, -4632
Refix G31: 2, 183894.926131, 433
Refix G32: 2, 183894.921891, 2138
$GNGGA,030437.000,2944.9089,N,10633.0919,E,1,09,1.0,322.3,M,,,,0000*1F
$GNRMC,030437.000,A,2944.9089,N,10633.0919,E,0.22,0.00,240899,,*15
$GPGSA,A,3,03,14,16,22,23,26,27,31,32,,,,2.1,1.0,1.9*3A
$BDGSA,A,3,,,,,,,,,,,,,2.1,1.0,1.9*29
$GLGSA,A,3,,,,,,,,,,,,,2.1,1.0,1.9*24
$GPGSV,3,1,10,03,33,260,39,14,38,131,42,16,70,244,43,22,29,235,43*71
$GPGSV,3,2,10,23,29,317,37,26,71,014,45,27,23,171,42,31,39,058,44*74
$GPGSV,3,3,10,32,22,138,41,29,00,000,34*7A
$BDGSV,2,1,07,02,00,000,40,03,00,000,43,04,00,000,40,06,00,000,41*6D
$BDGSV,2,2,07,07,00,000,43,09,85,183,43,10,00,000,43*50
$B3CN0,0,0,0,0,0,0,0,0,0,0,0,0,0,0*4C
# of Valid meas: 9 [G26 G16 G31 G22 G14 G32 G27 G03 G23  ]
LSQ PV=[ 9  -1578913.00,   5312769.52,   3146358.28,   0.07,   0.03,  -0.06, [ 0.10, -0.03],   -1428.67,      0.00,      0.00,-204.20,5  0.97]
KF  PV=[ 9  -1578912.61,   5312767.94,   3146357.49,   0.02,   0.03,  -0.02, [ 0.05,  0.01],   -1428.51,     -0.75,     -0.75,-204.12,11  0.97]
LSQ LLH=[ 29.748477, 106.551532, 324.52, 183896.000004 183896.000000]
KF  LLH=[ 29.748479, 106.551533, 322.71, 183896.000004 183896.000000]
KF  FixSet c660a004        0        0        0
LSQ Dop=[ 2.45, 2.11, 0.97, 1.87]
KF Dop=[ 2.45, 2.11, 0.97, 1.87]
KF UTC=[1999/08/24 - 03:04:38.001 ]
Refix G03: 2, 183895.925059, 112
Refix G14: 2, 183895.926637, 1306
Refix G16: 2, 183895.932625, -2018
Refix G22: 2, 183895.923122, 846
Refix G23: 2, 183895.922616, -4197
Refix G26: 2, 183895.932233, 79
Refix G27: 2, 183895.922427, -4633
Refix G31: 2, 183895.926131, 433
Refix G32: 2, 183895.921890, 2138
$GNGGA,030438.000,2944.9087,N,10633.0920,E,1,09,1.0,322.7,M,,,,0000*10
$GNRMC,030438.000,A,2944.9087,N,10633.0920,E,0.09,0.00,240899,,*17
$GPGSA,A,3,03,14,16,22,23,26,27,31,32,,,,2.1,1.0,1.9*3A
$BDGSA,A,3,,,,,,,,,,,,,2.1,1.0,1.9*29
$GLGSA,A,3,,,,,,,,,,,,,2.1,1.0,1.9*24
$GPGSV,3,1,10,03,33,260,39,14,38,131,42,16,70,244,44,22,29,235,43*76
$GPGSV,3,2,10,23,29,317,38,26,71,014,45,27,23,171,41,31,39,058,44*78
$GPGSV,3,3,10,32,22,138,42,29,00,000,35*78
$BDGSV,2,1,07,02,00,000,40,03,00,000,43,04,00,000,41,06,00,000,42*6F
$BDGSV,2,2,07,07,00,000,43,09,85,183,43,10,00,000,43*50
$B3CN0,0,23,0,0,0,0,0,0,0,0,0,0,0,0*7D
# of Valid meas: 9 [G26 G16 G31 G14 G22 G27 G32 G03 G23  ]
LSQ PV=[ 9  -1578912.27,   5312766.30,   3146357.54,   0.23,  -0.45,  -0.09, [ 0.20, -0.48],   -1634.87,      0.00,      0.00,-202.36,5  0.97]
KF  PV=[ 9  -1578912.74,   5312768.06,   3146357.44,   0.40,  -0.97,  -0.22, [ 0.34, -1.02],   -1632.38,     -0.16,     -0.16,-202.84,11  0.97]
LSQ LLH=[ 29.748486, 106.551534, 321.30, 183897.000005 183897.000000]
KF  LLH=[ 29.748478, 106.551534, 322.83, 183897.000005 183897.000000]
KF  FixSet c660a004        0        0        0
LSQ Dop=[ 2.45, 2.11, 0.97, 1.87]
KF Dop=[ 2.45, 2.11, 0.97, 1.87]
KF UTC=[1999/08/24 - 03:04:39.001 ]
Refix G03: 2, 183896.925059, 122
Refix G14: 2, 183896.926636, 1317
Refix G16: 2, 183896.932626, -2005
Refix G22: 2, 183896.923121, 856
Refix G23: 2, 183896.922618, -4189
Refix G26: 2, 183896.932233, 91
Refix G27: 2, 183896.922429, -4622
Refix G31: 2, 183896.926131, 442
Refix G32: 2, 183896.921888, 2148
$GNGGA,030439.000,2944.9087,N,10633.0920,E,1,09,1.0,322.8,M,,,,0000*1E
$GNRMC,030439.000,A,2944.9087,N,10633.0920,E,0.66,0.00,240899,,*1F
$GPGSA,A,3,03,14,16,22,23,26,27,31,32,,,,2.1,1.0,1.9*3A
$BDGSA,A,3,,,,,,,,,,,,,2.1,1.0,1.9*29
$GLGSA,A,3,,,,,,,,,,,,,2.1,1.0,1.9*24
$GPGSV,3,1,10,03,33,260,39,14,38,131,43,16,70,244,44,22,29,235,42*76
$GPGSV,3,2,10,23,29,317,37,26,71,014,45,27,23,171,42,31,39,058,44*74
$GPGSV,3,3,10,32,22,138,41,29,00,000,35*7B
$BDGSV,2,1,08,02,00,000,40,03,00,000,42,04,00,000,40,06,00,000,42*60
$BDGSV,2,2,08,07,00,000,44,09,85,183,43,10,00,000,43,05,00,000,16*6A
$B3CN0,0,0,0,0,0,0,0,0,0,0,0,0,0,0*4C
$GLGSV,2,1,08,03,00,000,45,21,00,000,40,01,00,000,44,11,00,000,43*6D
$GLGSV,2,2,08,12,00,000,46,22,00,000,44,02,00,000,47,13,00,000,36*6A
# of Valid meas: 9 [G26 G31 G16 G22 G14 G27 G32 G03 G23  ]
LSQ PV=[ 9  -1578912.48,   5312768.29,   3146357.54,   0.32,  -0.16,  -0.08, [ 0.26, -0.25],   -1836.74,      0.00,      0.00,-203.33,5  0.97]
KF  PV=[ 9  -1578912.77,   5312768.12,   3146357.28,   0.29,  -0.19,  -0.06, [ 0.24, -0.26],   -1835.22,     -0.11,     -0.11,-203.24,11  0.97]
LSQ LLH=[ 29.748478, 106.551531, 323.00, 183898.000006 183898.000000]
KF  LLH=[ 29.748476, 106.551534, 322.80, 183898.000006 183898.000000]
KF  FixSet c660a004        0        0        0
LSQ Dop=[ 2.45, 2.11, 0.97, 1.87]
KF Dop=[ 2.45, 2.11, 0.97, 1.87]
KF UTC=[1999/08/24 - 03:04:40.001 ]
Refix G03: 2, 183897.925059, 118
Refix G14: 2, 183897.926635, 1313
Refix G16: 2, 183897.932627, -2011
Refix G22: 2, 183897.923120, 851
Refix G23: 2, 183897.922621, -4193
Refix G26: 2, 183897.932233, 86
Refix G27: 2, 183897.922432, -4627
Refix G31: 2, 183897.926131, 439
Refix G32: 2, 183897.921887, 2144
$GNGGA,030440.000,2944.9086,N,10633.0920,E,1,09,1.0,322.8,M,,,,0000*11
$GNRMC,030440.000,A,2944.9086,N,10633.0920,E,0.47,0.00,240899,,*13
$GPGSA,A,3,03,14,16,22,23,26,27,31,32,,,,2.1,1.0,1.9*3A
$BDGSA,A,3,,,,,,,,,,,,,2.1,1.0,1.9*29
$GLGSA,A,3,,,,,,,,,,,,,2.1,1.0,1.9*24
$GPGSV,3,1,10,03,33,260,38,14,38,131,42,16,70,244,43,22,29,235,43*70
$GPGSV,3,2,10,23,29,317,37,26,71,014,46,27,23,171,41,31,39,058,44*74
$GPGSV,3,3,10,32,22,138,41,29,00,000,35*7B
$BDGSV,2,1,07,02,00,000,39,03,00,000,42,04,00,000,41,06,00,000,41*63
$BDGSV,2,2,07,07,00,000,43,09,85,183,42,10,00,000,43*51
$B3CN0,0,0,0,0,0,0,0,0,0,0,0,0,0,0*4C
$GLGSV,2,1,08,03,22,326,45,21,15,057,40,01,28,179,44,11,20,043,42*6D
$GLGSV,2,2,08,12,46,359,45,22,17,113,43,02,63,271,47,13,28,278,36*60
# of Valid meas: 17 [N02 G26 N12 N03 G16 G31 N01 N22 G22 G14 N11 G27 G32 N21 G03 G23 N13  ]
LSQ PV=[17  -1578915.16,   5312764.39,   3146357.37,   0.31,  -0.48,  -0.23, [ 0.18, -0.60],   -2042.61,      0.00,  -1433.70,-203.25,5  0.64]
KF  PV=[ 9  -1578912.18,   5312767.53,   3146357.22,   0.24,  -0.44,  -0.01, [ 0.25, -0.43],   -2039.74,     -0.44,  -1433.70,-203.16,11  0.97]
LSQ LLH=[ 29.748490, 106.551569, 320.34, 183899.000006 183899.000000]
KF  LLH=[ 29.748479, 106.551530, 322.13, 183899.000006 183899.000000]
KF  FixSet 42208000        0   200807        0
LSQ Dop=[ 1.65, 1.42, 0.64, 1.27]
KF Dop=[ 2.45, 2.11, 0.97, 1.87]
KF UTC=[1999/08/24 - 03:04:41.001 ]
Refix G03: 2, 183898.925059, 120
Refix G14: 2, 183898.926634, 1314
Refix G16: 2, 183898.932629, -2009
Refix G22: 2, 183898.923120, 853
Refix G23: 2, 183898.922624, -4192
Refix G26: 2, 183898.932233, 87
Refix G27: 2, 183898.922435, -4626
Refix G31: 2, 183898.926130, 439
Refix G32: 2, 183898.921886, 2146
$GNGGA,030441.000,2944.9087,N,10633.0918,E,1,09,1.0,322.1,M,,,,0000*13
$GNRMC,030441.000,A,2944.9087,N,10633.0918,E,0.49,0.00,240899,,*16
$GPGSA,A,3,16,22,26,31,,,,,,,,,2.1,1.0,1.9*39
$BDGSA,A,3,,,,,,,,,,,,,2.1,1.0,1.9*29
$GLGSA,A,3,01,02,03,12,22,,,,,,,,2.1,1.0,1.9*27
$GPGSV,3,1,10,03,33,260,38,14,38,131,42,16,70,244,44,22,29,235,43*77
$GPGSV,3,2,10,23,29,317,37,26,71,014,46,27,23,171,41,31,39,058,44*74
$GPGSV,3,3,10,32,22,138,41,29,00,000,35*7B
$BDGSV,2,1,08,02,00,000,40,03,00,000,42,04,00,000,41,06,00,000,42*61
$BDGSV,2,2,08,07,00,000,43,09,85,183,42,10,00,000,43,05,00,000,16*6C
$B3CN0,0,0,0,0,0,0,0,0,0,0,0,0,0,0*4C
$GLGSV,2,1,08,03,22,326,45,21,15,057,40,01,28,179,44,11,20,043,42*6D
$GLGSV,2,2,08,12,46,359,46,22,17,113,44,02,63,271,47,13,28,278,35*67
# of Valid meas: 17 [N02 G26 N03 N12 G16 G31 N01 G14 G22 N22 N11 G27 G32 N21 G03 G23 N13  ]
LSQ PV=[17  -1578914.20,   5312763.66,   3146356.57,   0.26,  -0.41,  -0.15, [ 0.17, -0.47],   -2245.99,      0.00,  -1638.41,-202.25,5  0.64]
KF  PV=[17  -1578913.47,   5312767.80,   3146357.10,   0.18,  -0.35,  -0.17, [ 0.08, -0.42],   -2242.40,      0.15,  -1636.16,-202.19,11  0.63]
LSQ LLH=[ 29.748488, 106.551561, 319.09, 183900.000007 183900.000000]
KF  LLH=[ 29.748475, 106.551542, 322.62, 183900.000007 183900.000000]
KF  FixSet c660a004        0   301c07        0
LSQ Dop=[ 1.65, 1.42, 0.64, 1.27]
KF Dop=[ 1.06, 0.91, 0.63, 0.65]
KF UTC=[1999/08/24 - 03:04:42.001 ]
Refix G03: 2, 183899.925059, 125
Refix G14: 2, 183899.926634, 1319
Refix G16: 2, 183899.932630, -2003
Refix G22: 2, 183899.923119, 858
Refix G23: 2, 183899.922626, -4186
Refix G26: 2, 183899.932233, 93
Refix G27: 2, 183899.922438, -4621
Refix G31: 2, 183899.926130, 444
Refix G32: 2, 183899.921884, 2150
$GNGGA,030442.000,2944.9085,N,10633.0925,E,1,17,0.6,322.6,M,,,,0000*13
$GNRMC,030442.000,A,2944.9085,N,10633.0925,E,0.16,0.00,240899,,*13
$GPGSA,A,3,03,14,16,22,23,26,27,31,32,,,,0.9,0.6,0.7*38
$BDGSA,A,3,,,,,,,,,,,,,0.9,0.6,0.7*2B
$GLGSA,A,3,01,02,03,11,12,13,21,22,,,,,0.9,0.6,0.7*24
$GPGSV,3,1,10,03,33,260,38,14,38,131,43,16,70,244,44,22,29,235,43*76
$GPGSV,3,2,10,23,29,317,37,26,71,014,46,27,23,171,41,31,39,058,44*74
$GPGSV,3,3,10,32,22,138,41,29,00,000,35*7B
$BDGSV,2,1,07,02,00,000,40,03,00,000,42,04,00,000,40,06,00,000,42*6F
$BDGSV,2,2,07,07,00,000,44,09,85,183,43,10,00,000,43*57
$B3CN0,0,0,0,0,0,0,0,0,0,0,0,0,0,0*4C
$GLGSV,2,1,08,03,22,326,45,21,15,057,40,01,28,179,44,11,20,043,42*6D
$GLGSV,2,2,08,12,46,359,45,22,17,113,43,02,63,271,47,13,28,278,35*63
# of Valid meas: 17 [N02 G26 N03 N12 G16 G22 G31 N01 N22 G14 N11 G27 G32 N21 G03 G23 N13  ]
LSQ PV=[17  -1578914.08,   5312764.68,   3146356.57,   0.30,  -0.45,  -0.20, [ 0.18, -0.55],   -2448.45,      0.00,  -1841.24,-203.16,5  0.64]
KF  PV=[17  -1578914.35,   5312767.79,   3146357.07,   0.03,  -0.11,  -0.08, [ 0.01, -0.14],   -2444.78,     -0.03,  -1838.74,-202.79,11  0.63]
LSQ LLH=[ 29.748483, 106.551557, 319.91, 183901.000008 183901.000000]
KF  LLH=[ 29.748474, 106.551551, 322.81, 183901.000008 183901.000000]
KF  FixSet c660a004        0   301c07        0
LSQ Dop=[ 1.65, 1.42, 0.64, 1.27]
KF Dop=[ 1.06, 0.91, 0.63, 0.65]
KF UTC=[1999/08/24 - 03:04:43.001 ]
Refix G03: 2, 183900.925059, 122
Refix G14: 2, 183900.926633, 1315
Refix G16: 2, 183900.932631, -2007
Refix G22: 2, 183900.923119, 855
Refix G23: 2, 183900.922629, -4189
Refix G26: 2, 183900.932232, 89
Refix G27: 2, 183900.922441, -4625
Refix G31: 2, 183900.926130, 440
Refix G32: 2, 183900.921883, 2146
$GNGGA,030443.000,2944.9084,N,10633.0930,E,1,17,0.6,322.8,M,,,,0000*19
$GNRMC,030443.000,A,2944.9084,N,10633.0930,E,0.03,0.00,240899,,*13
$GPGSA,A,3,03,14,16,22,23,26,27,31,32,,,,0.9,0.6,0.7*38
$BDGSA,A,3,,,,,,,,,,,,,0.9,0.6,0.7*2B
$GLGSA,A,3,01,02,03,11,12,13,21,22,,,,,0.9,0.6,0.7*24
$GPGSV,3,1,10,03,33,260,38,14,38,131,42,16,70,244,44,22,29,235,44*70
$GPGSV,3,2,10,23,29,317,37,26,71,014,45,27,23,171,41,31,39,058,44*77
$GPGSV,3,3,10,32,22,138,41,29,00,000,36*78
$BDGSV,2,1,07,02,00,000,41,03,00,000,42,04,00,000,40,06,00,000,42*6E
$BDGSV,2,2,07,07,00,000,44,09,85,184,43,10,00,000,44*57
$B3CN0,0,0,0,0,0,0,0,0,0,0,0,0,0,0*4C
$GLGSV,2,1,08,03,22,326,45,21,15,057,41,01,28,179,44,11,20,043,42*6C
$GLGSV,2,2,08,12,46,359,45,22,17,113,43,02,63,271,46,13,28,278,36*61
# of Valid meas: 17 [G26 N12 N02 G16 N03 G22 G31 N01 N22 G14 G32 N11 G27 N21 G03 G23 N13  ]
LSQ PV=[17  -1578914.18,   5312765.67,   3146357.45,   0.38,  -0.55,  -0.24, [ 0.23, -0.67],   -2651.55,      0.00,  -2044.24,-204.10,5  0.64]
KF  PV=[17  -1578914.80,   5312767.74,   3146357.16,   0.02,  -0.07,  -0.03, [ 0.01, -0.07],   -2648.24,     -0.34,  -2042.07,-203.60,11  0.63]
LSQ LLH=[ 29.748486, 106.551555, 321.20, 183902.000008 183902.000000]
KF  LLH=[ 29.748474, 106.551555, 322.92, 183902.000008 183902.000000]
KF  FixSet c660a004        0   301c07        0
LSQ Dop=[ 1.65, 1.42, 0.64, 1.27]
KF Dop=[ 1.06, 0.91, 0.63, 0.65]
KF UTC=[1999/08/24 - 03:04:44.001 ]
Refix G03: 2, 183901.925058, 118
Refix G14: 2, 183901.926632, 1311
Refix G16: 2, 183901.932632, -2011
Refix G22: 2, 183901.923118, 851
Refix G23: 2, 183901.922631, -4194
Refix G26: 2, 183901.932232, 85
Refix G27: 2, 183901.922444, -4629
Refix G31: 2, 183901.926129, 436
Refix G32: 2, 183901.921882, 2142
$GNGGA,030444.000,2944.9084,N,10633.0933,E,1,17,0.6,322.9,M,,,,0000*1C
$GNRMC,030444.000,A,2944.9084,N,10633.0933,E,0.01,0.00,240899,,*15
$GPGSA,A,3,03,14,16,22,23,26,27,31,32,,,,0.9,0.6,0.7*38
$BDGSA,A,3,,,,,,,,,,,,,0.9,0.6,0.7*2B
$GLGSA,A,3,01,02,03,11,12,13,21,22,,,,,0.9,0.6,0.7*24
$GPGSV,3,1,10,03,33,260,38,14,38,131,42,16,70,244,45,22,29,235,44*71
$GPGSV,3,2,10,23,29,317,37,26,71,014,46,27,23,171,41,31,39,058,44*74
$GPGSV,3,3,10,32,22,138,42,29,00,000,35*78
$BDGSV,2,1,07,02,00,000,40,03,00,000,43,04,00,000,40,06,00,000,41*6D
$BDGSV,2,2,07,07,00,000,43,09,85,184,43,10,00,000,44*50
$B3CN0,0,0,0,0,0,0,0,0,0,0,0,0,0,0*4C
$GLGSV,2,1,08,03,22,326,45,21,15,057,41,01,28,179,44,11,20,043,42*6C
$GLGSV,2,2,08,12,46,359,46,22,17,113,43,02,63,271,46,13,28,278,36*62
# of Valid meas: 21 [N02 G26 G31 N03 N12 G16 B07 B10 N01 G14 G22 B09 N22 G27 G32 N21 B06 N11 G03 G23 N13  ]
LSQ PV=[21  -1578914.76,   5312766.72,   3146357.02,   0.24,  -0.47,  -0.19, [ 0.13, -0.54],   -2854.93,  -3000.84,  -2248.55,-204.39,5  0.63]
KF  PV=[17  -1578914.95,   5312767.71,   3146357.32,   0.09,  -0.18,  -0.03, [ 0.08, -0.19],   -2852.72,  -3000.84,  -2246.56,-204.15,11  0.63]
LSQ LLH=[ 29.748477, 106.551558, 322.00, 183903.000009 183902.999999]
KF  LLH=[ 29.748475, 106.551557, 323.02, 183903.000009 183902.999999]
KF  FixSet c620a000      360   300807        0
LSQ Dop=[ 1.64, 1.40, 0.63, 1.26]
KF Dop=[ 1.06, 0.91, 0.63, 0.65]
KF UTC=[1999/08/24 - 03:04:45.001 ]
Refix G03: 2, 183902.925058, 116
Refix G14: 2, 183902.926631, 1309
Refix G16: 2, 183902.932634, -2013
Refix G22: 2, 183902.923118, 848
Refix G23: 2, 183902.922634, -4196
Refix G26: 2, 183902.932232, 83
Refix G27: 2, 183902.922447, -4632
Refix G31: 2, 183902.926129, 434
Refix G32: 2, 183902.921880, 2140
$GNGGA,030445.000,2944.9085,N,10633.0934,E,1,17,0.6,323.0,M,,,,0000*13
$GNRMC,030445.000,A,2944.9085,N,10633.0934,E,0.16,0.00,240899,,*14
$GPGSA,A,3,14,16,22,26,27,31,32,,,,,,0.9,0.6,0.7*3A
$BDGSA,A,3,06,07,09,10,,,,,,,,,0.9,0.6,0.7*22
$GLGSA,A,3,01,02,03,12,21,22,,,,,,,0.9,0.6,0.7*26
$GPGSV,3,1,10,03,33,260,39,14,38,131,43,16,70,244,44,22,29,235,43*77
$GPGSV,3,2,10,23,29,317,38,26,71,014,45,27,23,171,42,31,39,058,45*7A
$GPGSV,3,3,10,32,22,138,42,29,00,000,34*79
$BDGSV,2,1,07,02,00,000,41,03,00,000,42,04,00,000,40,06,00,000,41*6D
$BDGSV,2,2,07,07,00,000,44,09,85,184,43,10,00,000,44*57
$B3CN0,0,0,0,0,0,0,0,0,0,0,0,0,0,0*4C
$GLGSV,2,1,08,03,22,326,45,21,15,057,42,01,28,179,44,11,20,043,41*6C
$GLGSV,2,2,08,12,46,359,45,22,17,113,43,02,63,271,47,13,28,278,36*60
# of Valid meas: 21 [N12 N02 G26 G31 N03 G16 G22 N01 G14 B07 B09 B10 N22 N21 G27 G32 B06 N11 G03 G23 N13  ]
LSQ PV=[21  -1578914.90,   5312768.43,   3146356.89,   0.26,  -0.30,  -0.18, [ 0.17, -0.40],   -3057.08,  -3202.89,  -2451.16,-203.65,5  0.63]
KF  PV=[21  -1578915.12,   5312767.72,   3146357.18,   0.20,  -0.30,  -0.16, [ 0.11, -0.38],   -3056.85,  -3203.23,  -2450.60,-203.61,11  0.60]
LSQ LLH=[ 29.748469, 106.551554, 323.39, 183904.000010 183903.999999]
KF  LLH=[ 29.748474, 106.551558, 323.00, 183904.000010 183903.999999]
KF  FixSet c660a004      360   301c07        0
LSQ Dop=[ 1.64, 1.40, 0.63, 1.26]
KF Dop=[ 0.85, 0.73, 0.60, 0.41]
KF UTC=[1999/08/24 - 03:04:46.001 ]
Refix G03: 2, 183903.925058, 120
Refix G14: 2, 183903.926630, 1313
Refix G16: 2, 183903.932635, -2008
Refix G22: 2, 183903.923117, 852
Refix G23: 2, 183903.922637, -4193
Refix G26: 2, 183903.932232, 87
Refix G27: 2, 183903.922450, -4628
Refix G31: 2, 183903.926129, 437
Refix G32: 2, 183903.921879, 2144
$GNGGA,030446.000,2944.9084,N,10633.0935,E,1,21,0.6,323.0,M,,,,0000*15
$GNRMC,030446.000,A,2944.9084,N,10633.0935,E,0.22,0.00,240899,,*10
$GPGSA,A,3,03,14,16,22,23,26,27,31,32,,,,0.7,0.6,0.4*35
$BDGSA,A,3,06,07,09,10,,,,,,,,,0.7,0.6,0.4*2F
$GLGSA,A,3,01,02,03,11,12,13,21,22,,,,,0.7,0.6,0.4*29
$GPGSV,3,1,10,03,33,260,38,14,38,131,43,16,70,244,44,22,29,235,44*71
$GPGSV,3,2,10,23,29,317,38,26,71,014,45,27,23,171,41,31,39,058,45*79
$GPGSV,3,3,10,32,22,138,41,29,00,000,33*7D
$BDGSV,2,1,07,02,00,000,40,03,00,000,43,04,00,000,39,06,56,149,41*6C
$BDGSV,2,2,07,07,75,351,43,09,85,184,43,10,66,269,43*5F
$B3CN0,0,0,0,0,0,0,0,0,0,0,0,0,0,0*4C
$GLGSV,2,1,08,03,22,326,45,21,15,057,42,01,28,179,44,11,20,043,41*6C
$GLGSV,2,2,08,12,46,359,47,22,17,113,43,02,63,271,47,13,28,278,36*62
# of Valid meas: 21 [N02 N03 N12 G26 G31 G16 G22 G14 B07 B09 B10 N01 N22 G27 G32 B06 N21 N11 G03 G23 N13  ]
LSQ PV=[21  -1578916.07,   5312768.68,   3146356.71,   0.36,  -0.57,  -0.21, [ 0.23, -0.66],   -3261.25,  -3406.98,  -2654.89,-204.51,5  0.63]
KF  PV=[21  -1578915.46,   5312767.83,   3146356.99,   0.14,  -0.26,  -0.11, [ 0.07, -0.31],   -3260.69,  -3407.00,  -2654.39,-204.18,11  0.60]
LSQ LLH=[ 29.748465, 106.551565, 323.80, 183905.000010 183904.999999]
KF  LLH=[ 29.748472, 106.551561, 323.08, 183905.000010 183904.999999]
KF  FixSet c660a004      360   301c07        0
LSQ Dop=[ 1.64, 1.40, 0.63, 1.26]
KF Dop=[ 0.85, 0.73, 0.60, 0.41]
KF UTC=[1999/08/24 - 03:04:47.001 ]
Refix G03: 2, 183904.925058, 117
Refix G14: 2, 183904.926629, 1311
Refix G16: 2, 183904.932636, -2011
Refix G22: 2, 183904.923116, 849
Refix G23: 2, 183904.922639, -4196
Refix G26: 2, 183904.932232, 84
Refix G27: 2, 183904.922453, -4631
Refix G31: 2, 183904.926128, 434
Refix G32: 2, 183904.921877, 2141
$GNGGA,030447.000,2944.9083,N,10633.0937,E,1,21,0.6,323.1,M,,,,0000*10
$GNRMC,030447.000,A,2944.9083,N,10633.0937,E,0.14,0.00,240899,,*11
$GPGSA,A,3,03,14,16,22,23,26,27,31,32,,,,0.7,0.6,0.4*35
$BDGSA,A,3,06,07,09,10,,,,,,,,,0.7,0.6,0.4*2F
$GLGSA,A,3,01,02,03,11,12,13,21,22,,,,,0.7,0.6,0.4*29
$GPGSV,3,1,10,03,33,260,38,14,38,131,43,16,70,244,44,22,29,235,44*71
$GPGSV,3,2,10,23,29,317,38,26,71,014,45,27,23,171,41,31,39,058,45*79
$GPGSV,3,3,10,32,22,138,41,29,00,000,33*7D
$BDGSV,2,1,07,02,00,000,39,03,00,000,43,04,00,000,41,06,56,149,42*6E
$BDGSV,2,2,07,07,75,351,43,09,85,184,43,10,66,269,43*5F
$B3CN0,0,0,0,0,0,0,0,0,0,0,0,0,0,0*4C
$GLGSV,2,1,08,03,22,326,46,21,15,057,41,01,28,179,43,11,20,043,41*6B
$GLGSV,2,2,08,12,46,359,46,22,17,113,43,02,63,271,47,13,28,278,36*63
