i=1
Rf R0 Config = ff777073
Rf R1 Config = 00dffbfe
Rf R52 Config = 00dfee80
i=2
Rf R0 Config = 007772f3
Rf R1 Config = 00dfbbfe
Rf R52 Config = 00db0e30
i=3
Rf R0 Config = 007770f3
Rf R1 Config = 00dfbbfe
Rf R52 Config = 00de4eb0
i=4
Rf R0 Config = 00777273
Rf R1 Config = 00dfdbfe
Rf R52 Config = 00de0e20
SD initialized success
Create debug.log Failed! 3
Start Channel by LuYu
$GNGGA,000000.000,,,,,0,00,,,M,,,,0000*2B
$GNRMC,000000.000,A,,,,,,,060180,,*29
$GPGSA,A,1,,,,,,,,,,,,,,,*1E
$BDGSA,A,1,,,,,,,,,,,,,,,*0F
$GLGSA,A,1,,,,,,,,,,,,,,,*02
$B3CN0,0,0,0,0,0,0,0,0,0,0,0,0,0,0*4C
$GNGGA,000000.000,,,,,0,00,,,M,,,,0000*2B
$GNRMC,000000.000,A,,,,,,,060180,,*29
$GPGSA,A,1,,,,,,,,,,,,,,,*1E
$BDGSA,A,1,,,,,,,,,,,,,,,*0F
$GLGSA,A,1,,,,,,,,,,,,,,,*02
$B3CN0,0,0,0,0,0,0,0,0,0,0,0,0,0,0*4C
$GNGGA,000000.000,,,,,0,00,,,M,,,,0000*2B
$GNRMC,000000.000,A,,,,,,,060180,,*29
$GPGSA,A,1,,,,,,,,,,,,,,,*1E
$BDGSA,A,1,,,,,,,,,,,,,,,*0F
$GLGSA,A,1,,,,,,,,,,,,,,,*02
$GPGSV,1,1,01,01,00,000,23*48
$B3CN0,0,0,0,0,0,0,0,0,0,0,0,0,0,0*4C
$GNGGA,000000.000,,,,,0,00,,,M,,,,0000*2B
$GNRMC,000000.000,A,,,,,,,060180,,*29
$GPGSA,A,1,,,,,,,,,,,,,,,*1E
$BDGSA,A,1,,,,,,,,,,,,,,,*0F
$GLGSA,A,1,,,,,,,,,,,,,,,*02
$GPGSV,2,1,08,01,00,000,35,04,00,000,43,07,00,000,36,08,00,000,35*7A
$GPGSV,2,2,08,09,00,000,34,11,00,000,31,16,00,000,23,18,00,000,16*75
$B3CN0,0,0,0,0,0,0,0,0,0,0,0,0,0,0*4C
$GNGGA,000000.000,,,,,0,00,,,M,,,,0000*2B
$GNRMC,000000.000,A,,,,,,,060180,,*29
$GPGSA,A,1,,,,,,,,,,,,,,,*1E
$BDGSA,A,1,,,,,,,,,,,,,,,*0F
$GLGSA,A,1,,,,,,,,,,,,,,,*02
$GPGSV,3,1,10,01,00,000,36,04,00,000,42,07,00,000,44,08,00,000,46*71
$GPGSV,3,2,10,09,00,000,44,11,00,000,43,16,00,000,39,18,00,000,41*76
$GPGSV,3,3,10,23,00,000,32,27,00,000,27*78
$B3CN0,0,0,0,0,0,0,0,0,0,0,0,0,0,0*4C
# of Valid meas: 0 [ ]
LSQ PV=[ 0         0.00,         0.00,         0.00,   0.00,   0.00,   0.00, [ 0.00,  0.00],       0.00,      0.00,      0.00,  0.00,0  0.00]
KF  PV=[ 0         0.00,         0.00,         0.00,   0.00,   0.00,   0.00, [ 0.00,  0.00],       0.00,      0.00,      0.00,  0.00,0  0.00]
LSQ LLH=[ 0.000000, 0.000000, 0.00, 0.000000 457333.432819]
KF  LLH=[ 0.000000, 0.000000, 0.00, 457333.432819 457333.432819]
KF  FixSet        0        0        0        0
LSQ Dop=[ 0.00, 0.00, 0.00, 0.00]
KF Dop=[ 0.00, 0.00, 0.00, 0.00]
KF UTC=[1980/01/11 - 07:01:55.433 ]
$GNGGA,070155.433,,,,,0,00,,,M,,,,0000*29
$GNRMC,070155.433,A,,,,,,,110180,,*2D
$GPGSA,A,1,,,,,,,,,,,,,,,*1E
$BDGSA,A,1,,,,,,,,,,,,,,,*0F
$GLGSA,A,1,,,,,,,,,,,,,,,*02
$GPGSV,3,1,10,01,00,000,37,04,00,000,42,07,00,000,44,08,00,000,45*73
$GPGSV,3,2,10,09,00,000,44,11,00,000,43,16,00,000,39,18,00,000,40*77
$GPGSV,3,3,10,23,00,000,44,27,00,000,44*7C
$BDGSV,2,1,05,02,00,000,37,03,00,000,41,04,00,000,38,06,00,000,22*67
$BDGSV,2,2,05,07,00,000,21*59
$B3CN0,0,0,0,0,0,0,0,0,0,0,0,0,0,0*4C
# of Valid meas: 0 [ ]
LSQ PV=[ 0         0.00,         0.00,         0.00,   0.00,   0.00,   0.00, [ 0.00,  0.00],       0.00,      0.00,      0.00,  0.00,0  0.00]
KF  PV=[ 0         0.00,         0.00,         0.00,   0.00,   0.00,   0.00, [ 0.00,  0.00],       0.00,      0.00,      0.00,  0.00,0  0.00]
LSQ LLH=[ 0.000000, 0.000000, 0.00, 0.000000 457334.432818]
KF  LLH=[ 0.000000, 0.000000, 0.00, 457334.432818 457334.432818]
KF  FixSet        0        0        0        0
LSQ Dop=[ 0.00, 0.00, 0.00, 0.00]
KF Dop=[ 0.00, 0.00, 0.00, 0.00]
KF UTC=[1980/01/11 - 07:01:56.433 ]
$GNGGA,070156.433,,,,,0,00,,,M,,,,0000*2A
$GNRMC,070156.433,A,,,,,,,110180,,*2E
$GPGSA,A,1,,,,,,,,,,,,,,,*1E
$BDGSA,A,1,,,,,,,,,,,,,,,*0F
$GLGSA,A,1,,,,,,,,,,,,,,,*02
$GPGSV,3,1,10,01,00,000,37,04,00,000,43,07,00,000,44,08,00,000,45*72
$GPGSV,3,2,10,09,00,000,44,11,00,000,43,16,00,000,39,18,00,000,41*76
$GPGSV,3,3,10,23,00,000,43,27,00,000,43*7C
$BDGSV,3,1,09,02,00,000,40,03,00,000,41,04,00,000,39,06,00,000,36*6E
$BDGSV,3,2,09,07,00,000,43,08,00,000,40,09,00,000,35,10,00,000,34*65
$BDGSV,3,3,09,11,00,000,32*50
$B3CN0,0,0,0,0,0,0,0,0,0,0,0,0,0,0*4C
# of Valid meas: 0 [ ]
LSQ PV=[ 0         0.00,         0.00,         0.00,   0.00,   0.00,   0.00, [ 0.00,  0.00],       0.00,      0.00,      0.00,  0.00,0  0.00]
KF  PV=[ 0         0.00,         0.00,         0.00,   0.00,   0.00,   0.00, [ 0.00,  0.00],       0.00,      0.00,      0.00,  0.00,0  0.00]
LSQ LLH=[ 0.000000, 0.000000, 0.00, 0.000000 457335.432818]
KF  LLH=[ 0.000000, 0.000000, 0.00, 457335.432818 457335.432818]
KF  FixSet        0        0        0        0
LSQ Dop=[ 0.00, 0.00, 0.00, 0.00]
KF Dop=[ 0.00, 0.00, 0.00, 0.00]
KF UTC=[2019/03/29 - 07:01:57.433 ]
$GNGGA,070157.433,,,,,0,00,,,M,,,,0000*2B
$GNRMC,070157.433,A,,,,,,,290319,,*26
$GPGSA,A,1,,,,,,,,,,,,,,,*1E
$BDGSA,A,1,,,,,,,,,,,,,,,*0F
$GLGSA,A,1,,,,,,,,,,,,,,,*02
$GPGSV,3,1,10,01,00,000,37,04,00,000,42,07,00,000,43,08,00,000,45*74
$GPGSV,3,2,10,09,00,000,44,11,00,000,42,16,00,000,39,18,00,000,40*76
$GPGSV,3,3,10,23,00,000,44,27,00,000,43*7B
$BDGSV,3,1,09,02,00,000,38,03,00,000,42,04,00,000,38,06,00,000,37*62
$BDGSV,3,2,09,07,00,000,43,08,00,000,40,09,00,000,41,10,00,000,43*66
$BDGSV,3,3,09,11,00,000,43*56
$B3CN0,0,0,0,0,0,0,0,0,0,0,0,0,0,0*4C
# of Valid meas: 0 [ ]
LSQ PV=[ 0         0.00,         0.00,         0.00,   0.00,   0.00,   0.00, [ 0.00,  0.00],       0.00,      0.00,      0.00,  0.00,0  0.00]
KF  PV=[ 0         0.00,         0.00,         0.00,   0.00,   0.00,   0.00, [ 0.00,  0.00],       0.00,      0.00,      0.00,  0.00,0  0.00]
LSQ LLH=[ 0.000000, 0.000000, 0.00, 0.000000 457336.432818]
KF  LLH=[ 0.000000, 0.000000, 0.00, 457336.432818 457336.432818]
KF  FixSet        0        0        0        0
LSQ Dop=[ 0.00, 0.00, 0.00, 0.00]
KF Dop=[ 0.00, 0.00, 0.00, 0.00]
KF UTC=[2019/03/29 - 07:01:58.433 ]
$GNGGA,070158.433,,,,,0,00,,,M,,,,0000*24
$GNRMC,070158.433,A,,,,,,,290319,,*29
$GPGSA,A,1,,,,,,,,,,,,,,,*1E
$BDGSA,A,1,,,,,,,,,,,,,,,*0F
$GLGSA,A,1,,,,,,,,,,,,,,,*02
$GPGSV,3,1,10,01,00,000,36,04,00,000,42,07,00,000,44,08,00,000,45*72
$GPGSV,3,2,10,09,00,000,45,11,00,000,42,16,00,000,40,18,00,000,41*78
$GPGSV,3,3,10,23,00,000,43,27,00,000,44*7B
$BDGSV,3,1,09,02,00,000,38,03,00,000,42,04,00,000,40,06,00,000,37*6D
$BDGSV,3,2,09,07,00,000,42,08,00,000,40,09,00,000,41,10,00,000,42*66
$BDGSV,3,3,09,11,00,000,43*56
$B3CN0,0,0,0,0,0,0,0,0,0,0,0,0,0,0*4C
# of Valid meas: 0 [ ]
LSQ PV=[ 0         0.00,         0.00,         0.00,   0.00,   0.00,   0.00, [ 0.00,  0.00],       0.00,      0.00,      0.00,  0.00,0  0.00]
KF  PV=[ 0         0.00,         0.00,         0.00,   0.00,   0.00,   0.00, [ 0.00,  0.00],       0.00,      0.00,      0.00,  0.00,0  0.00]
LSQ LLH=[ 0.000000, 0.000000, 0.00, 0.000000 457337.432818]
KF  LLH=[ 0.000000, 0.000000, 0.00, 457337.432818 457337.432818]
KF  FixSet        0        0        0        0
LSQ Dop=[ 0.00, 0.00, 0.00, 0.00]
KF Dop=[ 0.00, 0.00, 0.00, 0.00]
KF UTC=[2019/03/29 - 07:01:59.433 ]
$GNGGA,070159.433,,,,,0,00,,,M,,,,0000*25
$GNRMC,070159.433,A,,,,,,,290319,,*28
$GPGSA,A,1,,,,,,,,,,,,,,,*1E
$BDGSA,A,1,,,,,,,,,,,,,,,*0F
$GLGSA,A,1,,,,,,,,,,,,,,,*02
$GPGSV,3,1,10,01,00,000,37,04,00,000,42,07,00,000,43,08,00,000,45*74
$GPGSV,3,2,10,09,00,000,44,11,00,000,43,16,00,000,39,18,00,000,41*76
$GPGSV,3,3,10,23,00,000,43,27,00,000,43*7C
$BDGSV,3,1,09,02,00,000,38,03,00,000,43,04,00,000,39,06,00,000,37*62
$BDGSV,3,2,09,07,00,000,43,08,00,000,40,09,00,000,41,10,00,000,43*66
$BDGSV,3,3,09,11,00,000,44*51
$B3CN0,0,16,0,0,0,0,0,0,0,0,0,0,0,0*7B
# of Valid meas: 0 [ ]
LSQ PV=[ 0         0.00,         0.00,         0.00,   0.00,   0.00,   0.00, [ 0.00,  0.00],       0.00,      0.00,      0.00,  0.00,0  0.00]
KF  PV=[ 0         0.00,         0.00,         0.00,   0.00,   0.00,   0.00, [ 0.00,  0.00],       0.00,      0.00,      0.00,  0.00,0  0.00]
LSQ LLH=[ 0.000000, 0.000000, 0.00, 0.000000 457338.432818]
KF  LLH=[ 0.000000, 0.000000, 0.00, 457338.432818 457338.432818]
KF  FixSet        0        0        0        0
LSQ Dop=[ 0.00, 0.00, 0.00, 0.00]
KF Dop=[ 0.00, 0.00, 0.00, 0.00]
KF UTC=[2019/03/29 - 07:02:0.433 ]
$GNGGA,070200.433,,,,,0,00,,,M,,,,0000*2A
$GNRMC,070200.433,A,,,,,,,290319,,*27
$GPGSA,A,1,,,,,,,,,,,,,,,*1E
$BDGSA,A,1,,,,,,,,,,,,,,,*0F
$GLGSA,A,1,,,,,,,,,,,,,,,*02
$GPGSV,3,1,10,01,00,000,37,04,00,000,42,07,00,000,44,08,00,000,46*70
$GPGSV,3,2,10,09,00,000,44,11,00,000,42,16,00,000,40,18,00,000,41*79
$GPGSV,3,3,10,23,00,000,44,27,00,000,44*7C
$BDGSV,3,1,09,02,00,000,40,03,00,000,42,04,00,000,41,06,00,000,37*63
$BDGSV,3,2,09,07,00,000,42,08,00,000,40,09,00,000,41,10,00,000,42*66
$BDGSV,3,3,09,11,00,000,43*56
$B3CN0,0,0,0,0,0,0,0,0,0,0,19,0,0,0*74
# of Valid meas: 0 [ ]
LSQ PV=[ 0         0.00,         0.00,         0.00,   0.00,   0.00,   0.00, [ 0.00,  0.00],       0.00,      0.00,      0.00,  0.00,0  0.00]
KF  PV=[ 0         0.00,         0.00,         0.00,   0.00,   0.00,   0.00, [ 0.00,  0.00],       0.00,      0.00,      0.00,  0.00,0  0.00]
LSQ LLH=[ 0.000000, 0.000000, 0.00, 0.000000 457339.432818]
KF  LLH=[ 0.000000, 0.000000, 0.00, 457339.432818 457339.432818]
KF  FixSet        0        0        0        0
LSQ Dop=[ 0.00, 0.00, 0.00, 0.00]
KF Dop=[ 0.00, 0.00, 0.00, 0.00]
KF UTC=[2019/03/29 - 07:02:1.433 ]
$GNGGA,070201.433,,,,,0,00,,,M,,,,0000*2B
$GNRMC,070201.433,A,,,,,,,290319,,*26
$GPGSA,A,1,,,,,,,,,,,,,,,*1E
$BDGSA,A,1,,,,,,,,,,,,,,,*0F
$GLGSA,A,1,,,,,,,,,,,,,,,*02
$GPGSV,3,1,11,01,00,000,37,04,00,000,41,07,00,000,44,08,00,000,46*72
$GPGSV,3,2,11,09,00,000,45,11,00,000,43,16,00,000,40,18,00,000,41*78
$GPGSV,3,3,11,23,00,000,44,27,00,000,43,30,00,000,29*42
$BDGSV,3,1,09,02,00,000,38,03,00,000,41,04,00,000,40,06,00,000,37*6E
$BDGSV,3,2,09,07,00,000,42,08,00,000,40,09,00,000,41,10,00,000,42*66
$BDGSV,3,3,09,11,00,000,43*56
$B3CN0,0,21,0,0,0,0,0,0,0,0,29,0,0,0*44
# of Valid meas: 0 [ ]
LSQ PV=[ 0         0.00,         0.00,         0.00,   0.00,   0.00,   0.00, [ 0.00,  0.00],       0.00,      0.00,      0.00,  0.00,0  0.00]
KF  PV=[ 0         0.00,         0.00,         0.00,   0.00,   0.00,   0.00, [ 0.00,  0.00],       0.00,      0.00,      0.00,  0.00,0  0.00]
LSQ LLH=[ 0.000000, 0.000000, 0.00, 0.000000 457340.432818]
KF  LLH=[ 0.000000, 0.000000, 0.00, 457340.432818 457340.432818]
KF  FixSet        0        0        0        0
LSQ Dop=[ 0.00, 0.00, 0.00, 0.00]
KF Dop=[ 0.00, 0.00, 0.00, 0.00]
KF UTC=[2019/03/29 - 07:02:2.433 ]
$GNGGA,070202.433,,,,,0,00,,,M,,,,0000*28
$GNRMC,070202.433,A,,,,,,,290319,,*25
$GPGSA,A,1,,,,,,,,,,,,,,,*1E
$BDGSA,A,1,,,,,,,,,,,,,,,*0F
$GLGSA,A,1,,,,,,,,,,,,,,,*02
$GPGSV,3,1,11,01,00,000,37,04,00,000,42,07,00,000,44,08,00,000,46*71
$GPGSV,3,2,11,09,00,000,45,11,00,000,42,16,00,000,39,18,00,000,42*74
$GPGSV,3,3,11,23,00,000,43,27,00,000,44,30,00,000,36*4C
$BDGSV,3,1,09,02,00,000,40,03,00,000,45,04,00,000,39,06,00,000,37*6B
$BDGSV,3,2,09,07,00,000,43,08,00,000,40,09,00,000,41,10,00,000,42*67
$BDGSV,3,3,09,11,00,000,43*56
$B3CN0,0,0,0,0,0,0,0,0,0,0,29,0,0,0*77
# of Valid meas: 0 [ ]
LSQ PV=[ 0         0.00,         0.00,         0.00,   0.00,   0.00,   0.00, [ 0.00,  0.00],       0.00,      0.00,      0.00,  0.00,0  0.00]
KF  PV=[ 0         0.00,         0.00,         0.00,   0.00,   0.00,   0.00, [ 0.00,  0.00],       0.00,      0.00,      0.00,  0.00,0  0.00]
LSQ LLH=[ 0.000000, 0.000000, 0.00, 0.000000 457341.432818]
KF  LLH=[ 0.000000, 0.000000, 0.00, 457341.432818 457341.432818]
KF  FixSet        0        0        0        0
LSQ Dop=[ 0.00, 0.00, 0.00, 0.00]
KF Dop=[ 0.00, 0.00, 0.00, 0.00]
KF UTC=[2019/03/29 - 07:02:3.433 ]
$GNGGA,070203.433,,,,,0,00,,,M,,,,0000*29
$GNRMC,070203.433,A,,,,,,,290319,,*24
$GPGSA,A,1,,,,,,,,,,,,,,,*1E
$BDGSA,A,1,,,,,,,,,,,,,,,*0F
$GLGSA,A,1,,,,,,,,,,,,,,,*02
$GPGSV,3,1,11,01,00,000,38,04,00,000,42,07,00,000,44,08,00,000,46*7E
$GPGSV,3,2,11,09,00,000,45,11,00,000,43,16,00,000,38,18,00,000,41*77
$GPGSV,3,3,11,23,00,000,44,27,00,000,45,30,00,000,36*4A
$BDGSV,3,1,09,02,00,000,40,03,00,000,42,04,00,000,40,06,00,000,37*62
$BDGSV,3,2,09,07,00,000,42,08,00,000,40,09,00,000,41,10,00,000,43*67
$BDGSV,3,3,09,11,00,000,43*56
$B3CN0,0,0,0,0,0,0,0,0,0,0,29,0,0,0*77
# of Valid meas: 0 [ ]
LSQ PV=[ 0         0.00,         0.00,         0.00,   0.00,   0.00,   0.00, [ 0.00,  0.00],       0.00,      0.00,      0.00,  0.00,0  0.00]
KF  PV=[ 0         0.00,         0.00,         0.00,   0.00,   0.00,   0.00, [ 0.00,  0.00],       0.00,      0.00,      0.00,  0.00,0  0.00]
LSQ LLH=[ 0.000000, 0.000000, 0.00, 0.000000 457342.432818]
KF  LLH=[ 0.000000, 0.000000, 0.00, 457342.432818 457342.432818]
KF  FixSet        0        0        0        0
LSQ Dop=[ 0.00, 0.00, 0.00, 0.00]
KF Dop=[ 0.00, 0.00, 0.00, 0.00]
KF UTC=[2019/03/29 - 07:02:4.433 ]
$GNGGA,070204.433,,,,,0,00,,,M,,,,0000*2E
$GNRMC,070204.433,A,,,,,,,290319,,*23
$GPGSA,A,1,,,,,,,,,,,,,,,*1E
$BDGSA,A,1,,,,,,,,,,,,,,,*0F
$GLGSA,A,1,,,,,,,,,,,,,,,*02
$GPGSV,3,1,11,01,00,000,37,04,00,000,42,07,00,000,44,08,00,000,46*71
$GPGSV,3,2,11,09,00,000,44,11,00,000,43,16,00,000,39,18,00,000,42*74
$GPGSV,3,3,11,23,00,000,45,27,00,000,44,30,00,000,37*4B
$BDGSV,3,1,10,02,00,000,38,03,00,000,43,04,00,000,40,06,00,000,37*64
$BDGSV,3,2,10,07,00,000,42,08,00,000,40,09,00,000,41,10,00,000,43*6F
$BDGSV,3,3,10,11,00,000,44,13,00,000,23*6A
$B3CN0,0,0,0,0,0,0,0,0,0,0,28,0,0,0*76
# of Valid meas: 0 [ ]
LSQ PV=[ 0         0.00,         0.00,         0.00,   0.00,   0.00,   0.00, [ 0.00,  0.00],       0.00,      0.00,      0.00,  0.00,0  0.00]
KF  PV=[ 0         0.00,         0.00,         0.00,   0.00,   0.00,   0.00, [ 0.00,  0.00],       0.00,      0.00,      0.00,  0.00,0  0.00]
LSQ LLH=[ 0.000000, 0.000000, 0.00, 0.000000 457343.432818]
KF  LLH=[ 0.000000, 0.000000, 0.00, 457343.432818 457343.432818]
KF  FixSet        0        0        0        0
LSQ Dop=[ 0.00, 0.00, 0.00, 0.00]
KF Dop=[ 0.00, 0.00, 0.00, 0.00]
KF UTC=[2019/03/29 - 07:02:5.433 ]
$GNGGA,070205.433,,,,,0,00,,,M,,,,0000*2F
$GNRMC,070205.433,A,,,,,,,290319,,*22
$GPGSA,A,1,,,,,,,,,,,,,,,*1E
$BDGSA,A,1,,,,,,,,,,,,,,,*0F
$GLGSA,A,1,,,,,,,,,,,,,,,*02
$GPGSV,3,1,11,01,00,000,37,04,00,000,43,07,00,000,44,08,00,000,46*70
$GPGSV,3,2,11,09,00,000,45,11,00,000,43,16,00,000,39,18,00,000,42*75
$GPGSV,3,3,11,23,00,000,44,27,00,000,44,30,00,000,37*4A
$BDGSV,3,1,10,02,00,000,40,03,00,000,42,04,00,000,39,06,00,000,36*65
$BDGSV,3,2,10,07,00,000,42,08,00,000,39,09,00,000,41,10,00,000,43*61
$BDGSV,3,3,10,11,00,000,44,13,00,000,38*60
$B3CN0,0,0,0,0,0,0,0,0,0,0,28,0,0,0*76
# of Valid meas: 0 [ ]
LSQ PV=[ 0         0.00,         0.00,         0.00,   0.00,   0.00,   0.00, [ 0.00,  0.00],       0.00,      0.00,      0.00,  0.00,0  0.00]
KF  PV=[ 0         0.00,         0.00,         0.00,   0.00,   0.00,   0.00, [ 0.00,  0.00],       0.00,      0.00,      0.00,  0.00,0  0.00]
LSQ LLH=[ 0.000000, 0.000000, 0.00, 0.000000 457344.432818]
KF  LLH=[ 0.000000, 0.000000, 0.00, 457344.432818 457344.432818]
KF  FixSet        0        0        0        0
LSQ Dop=[ 0.00, 0.00, 0.00, 0.00]
KF Dop=[ 0.00, 0.00, 0.00, 0.00]
KF UTC=[2019/03/29 - 07:02:6.433 ]
$GNGGA,070206.433,,,,,0,00,,,M,,,,0000*2C
$GNRMC,070206.433,A,,,,,,,290319,,*21
$GPGSA,A,1,,,,,,,,,,,,,,,*1E
$BDGSA,A,1,,,,,,,,,,,,,,,*0F
$GLGSA,A,1,,,,,,,,,,,,,,,*02
$GPGSV,3,1,11,01,00,000,37,04,00,000,42,07,00,000,44,08,00,000,46*71
$GPGSV,3,2,11,09,00,000,45,11,00,000,43,16,00,000,39,18,00,000,41*76
$GPGSV,3,3,11,23,00,000,43,27,00,000,45,30,00,000,36*4D
$BDGSV,3,1,10,02,00,000,40,03,00,000,42,04,00,000,39,06,00,000,37*64
$BDGSV,3,2,10,07,00,000,42,08,00,000,40,09,00,000,41,10,00,000,43*6F
$BDGSV,3,3,10,11,00,000,43,13,00,000,39*66
$B3CN0,0,0,0,0,0,0,0,0,0,0,29,0,0,0*77
# of Valid meas: 0 [ ]
LSQ PV=[ 0         0.00,         0.00,         0.00,   0.00,   0.00,   0.00, [ 0.00,  0.00],       0.00,      0.00,      0.00,  0.00,0  0.00]
KF  PV=[ 0         0.00,         0.00,         0.00,   0.00,   0.00,   0.00, [ 0.00,  0.00],       0.00,      0.00,      0.00,  0.00,0  0.00]
LSQ LLH=[ 0.000000, 0.000000, 0.00, 0.000000 457345.432818]
KF  LLH=[ 0.000000, 0.000000, 0.00, 457345.432818 457345.432818]
KF  FixSet        0        0        0        0
LSQ Dop=[ 0.00, 0.00, 0.00, 0.00]
KF Dop=[ 0.00, 0.00, 0.00, 0.00]
KF UTC=[2019/03/29 - 07:02:7.433 ]
$GNGGA,070207.433,,,,,0,00,,,M,,,,0000*2D
$GNRMC,070207.433,A,,,,,,,290319,,*20
$GPGSA,A,1,,,,,,,,,,,,,,,*1E
$BDGSA,A,1,,,,,,,,,,,,,,,*0F
$GLGSA,A,1,,,,,,,,,,,,,,,*02
$GPGSV,3,1,11,01,00,000,37,04,00,000,43,07,00,000,44,08,00,000,46*70
$GPGSV,3,2,11,09,00,000,45,11,00,000,43,16,00,000,39,18,00,000,42*75
$GPGSV,3,3,11,23,00,000,44,27,00,000,44,30,00,000,37*4A
$BDGSV,3,1,10,02,00,000,37,03,00,000,42,04,00,000,40,06,00,000,37*6A
$BDGSV,3,2,10,07,00,000,43,08,00,000,40,09,00,000,42,10,00,000,43*6D
$BDGSV,3,3,10,11,00,000,43,13,00,000,39*66
$B3CN0,0,0,0,0,0,0,0,0,0,0,29,0,0,0*77
# of Valid meas: 0 [ ]
LSQ PV=[ 0         0.00,         0.00,         0.00,   0.00,   0.00,   0.00, [ 0.00,  0.00],       0.00,      0.00,      0.00,  0.00,0  0.00]
KF  PV=[ 0         0.00,         0.00,         0.00,   0.00,   0.00,   0.00, [ 0.00,  0.00],       0.00,      0.00,      0.00,  0.00,0  0.00]
LSQ LLH=[ 0.000000, 0.000000, 0.00, 0.000000 457346.432818]
KF  LLH=[ 0.000000, 0.000000, 0.00, 457346.432818 457346.432818]
KF  FixSet        0        0        0        0
LSQ Dop=[ 0.00, 0.00, 0.00, 0.00]
KF Dop=[ 0.00, 0.00, 0.00, 0.00]
KF UTC=[2019/03/29 - 07:02:8.433 ]
$GNGGA,070208.433,,,,,0,00,,,M,,,,0000*22
$GNRMC,070208.433,A,,,,,,,290319,,*2F
$GPGSA,A,1,,,,,,,,,,,,,,,*1E
$BDGSA,A,1,,,,,,,,,,,,,,,*0F
$GLGSA,A,1,,,,,,,,,,,,,,,*02
$GPGSV,3,1,11,01,00,000,37,04,00,000,42,07,00,000,44,08,00,000,46*71
$GPGSV,3,2,11,09,00,000,44,11,00,000,43,16,00,000,39,18,00,000,42*74
$GPGSV,3,3,11,23,00,000,43,27,00,000,43,30,00,000,36*4B
$BDGSV,3,1,10,02,00,000,40,03,00,000,43,04,00,000,40,06,00,000,37*6B
$BDGSV,3,2,10,07,00,000,42,08,00,000,40,09,00,000,41,10,00,000,43*6F
$BDGSV,3,3,10,11,00,000,43,13,00,000,39*66
$B3CN0,0,0,0,0,0,0,0,0,0,0,29,0,0,0*77
$GLGSV,2,1,07,08,00,000,29,21,00,000,46,20,00,000,42,11,00,000,44*67
$GLGSV,2,2,07,09,00,000,41,22,00,000,42,26,00,000,45*5D
# of Valid meas: 0 [ ]
LSQ PV=[ 0         0.00,         0.00,         0.00,   0.00,   0.00,   0.00, [ 0.00,  0.00],       0.00,      0.00,      0.00,  0.00,0  0.00]
KF  PV=[ 0         0.00,         0.00,         0.00,   0.00,   0.00,   0.00, [ 0.00,  0.00],       0.00,      0.00,      0.00,  0.00,0  0.00]
LSQ LLH=[ 0.000000, 0.000000, 0.00, 0.000000 457347.432818]
KF  LLH=[ 0.000000, 0.000000, 0.00, 457347.432818 457347.432818]
KF  FixSet        0        0        0        0
LSQ Dop=[ 0.00, 0.00, 0.00, 0.00]
KF Dop=[ 0.00, 0.00, 0.00, 0.00]
KF UTC=[2019/03/29 - 07:02:9.433 ]
$GNGGA,070209.433,,,,,0,00,,,M,,,,0000*23
$GNRMC,070209.433,A,,,,,,,290319,,*2E
$GPGSA,A,1,,,,,,,,,,,,,,,*1E
$BDGSA,A,1,,,,,,,,,,,,,,,*0F
$GLGSA,A,1,,,,,,,,,,,,,,,*02
$GPGSV,3,1,11,01,00,000,37,04,00,000,43,07,00,000,44,08,00,000,45*73
$GPGSV,3,2,11,09,00,000,44,11,00,000,43,16,00,000,39,18,00,000,42*74
$GPGSV,3,3,11,23,00,000,43,27,00,000,44,30,00,000,36*4C
$BDGSV,3,1,10,02,00,000,40,03,00,000,43,04,00,000,38,06,00,000,37*64
$BDGSV,3,2,10,07,00,000,42,08,00,000,40,09,00,000,41,10,00,000,43*6F
$BDGSV,3,3,10,11,00,000,43,13,00,000,39*66
$B3CN0,0,0,0,0,0,0,0,0,0,0,28,0,0,0*76
$GLGSV,2,1,07,08,00,000,29,21,00,000,47,20,00,000,42,11,00,000,43*61
$GLGSV,2,2,07,09,00,000,41,22,00,000,43,26,00,000,46*5F
# of Valid meas: 6 [N08 N21 N20 N11 N09 N22  ]
LSQ PV=[ 6  -1578939.45,   5312793.77,   3146369.49,   0.46,  -0.60,  -0.30, [ 0.28, -0.76],       0.00,      0.00,39773870.24,-205.96,5  1.12]
KF  PV=[ 6  -1578939.45,   5312793.77,   3146369.49,   0.46,  -0.60,  -0.30, [ 0.28, -0.76],       0.00,      0.00,39773870.24,-205.96,5  1.12]
LSQ LLH=[ 29.748428, 106.551723, 356.81, 457348.300147 457348.432818]
KF  LLH=[ 29.748428, 106.551723, 356.81, 457348.300147 457348.432818]
KF  FixSet        0        0   700b00        0
LSQ Dop=[ 2.30, 2.09, 1.12, 1.76]
KF Dop=[ 2.30, 2.09, 1.12, 1.76]
KF UTC=[2019/03/29 - 07:02:10.301 ]
Form BB MSG80:     0.100 1031817 10333326 
$GNGGA,070210.300,2944.9057,N,10633.1034,E,1,06,1.1,356.8,M,,,,0000*19
$GNRMC,070210.300,A,2944.9057,N,10633.1034,E,0.55,0.00,290319,,*1B
$GPGSA,A,3,,,,,,,,,,,,,2.1,1.1,1.8*38
$BDGSA,A,3,,,,,,,,,,,,,2.1,1.1,1.8*29
$GLGSA,A,3,09,10,12,21,22,23,,,,,,,2.1,1.1,1.8*2D
$GPGSV,3,1,11,01,00,000,38,04,00,000,42,07,00,000,44,08,00,000,45*7D
$GPGSV,3,2,11,09,00,000,45,11,00,000,43,16,00,000,39,18,00,000,41*76
$GPGSV,3,3,11,23,00,000,43,27,00,000,44,30,00,000,37*4D
$BDGSV,3,1,10,02,00,000,38,03,00,000,43,04,00,000,40,06,00,000,37*64
$BDGSV,3,2,10,07,00,000,42,08,00,000,40,09,00,000,41,10,00,000,43*6F
$BDGSV,3,3,10,11,00,000,43,13,00,000,39*66
$B3CN0,0,0,0,0,0,0,0,0,0,0,29,0,0,0*77
$GLGSV,2,1,07,08,00,000,29,21,00,000,46,20,00,000,42,11,00,000,44*67
$GLGSV,2,2,07,09,00,000,40,22,00,000,42,26,00,000,45*5C
# of Valid meas: 6 [N21 N11 N20 N22 N09 N08  ]
LSQ PV=[ 6  -1578938.35,   5312792.34,   3146368.15,   0.38,   0.07,  -0.13, [ 0.40, -0.10],       0.00,      0.00,   -228.16,-206.41,5  1.12]
KF  PV=[ 6  -1578926.96,   5312801.09,   3146365.42,   0.19,   0.27,   0.01, [ 0.27,  0.18],      -0.32,     -0.32,   -229.52,-206.22,11 99.00]
LSQ LLH=[ 29.748425, 106.551716, 354.68, 457349.400001 457349.400000]
KF  LLH=[ 29.748380, 106.551577, 357.79, 457349.400001 457349.400000]
KF  FixSet        0        0   380580        0
LSQ Dop=[ 2.30, 2.09, 1.12, 1.76]
KF Dop=[ 99.00, 99.00, 99.00, 99.00]
KF UTC=[2019/03/29 - 07:02:11.401 ]
$GNGGA,070211.400,2944.9028,N,10633.0946,E,1,06,99.0,357.8,M,,,,0000*2B
$GNRMC,070211.400,A,2944.9028,N,10633.0946,E,0.53,0.00,290319,,*1E
$GPGSA,A,3,,,,,,,,,,,,,99.0,99.0,99.0*02
$BDGSA,A,3,,,,,,,,,,,,,99.0,99.0,99.0*13
$GLGSA,A,3,08,09,11,20,21,22,,,,,,,99.0,99.0,99.0*1E
$GPGSV,3,1,11,01,00,000,37,04,00,000,42,07,00,000,44,08,00,000,45*72
$GPGSV,3,2,11,09,00,000,45,11,00,000,43,16,00,000,40,18,00,000,41*78
$GPGSV,3,3,11,23,00,000,44,27,00,000,44,30,00,000,37*4A
$BDGSV,3,1,10,02,00,000,39,03,00,000,42,04,00,000,39,06,00,000,37*6A
$BDGSV,3,2,10,07,00,000,42,08,00,000,40,09,00,000,41,10,00,000,43*6F
$BDGSV,3,3,10,11,00,000,43,13,00,000,39*66
$B3CN0,0,0,0,0,0,0,0,0,0,0,28,0,0,0*76
$GLGSV,2,1,07,08,00,000,28,21,00,000,46,20,00,000,42,11,00,000,44*66
$GLGSV,2,2,07,09,00,000,40,22,00,000,42,26,00,000,45*5C
# of Valid meas: 5 [N21 N11 N20 N22 N09  ]
LSQ PV=[ 5  -1578920.01,   5312775.61,   3146352.68,   0.07,  -0.37,  -0.37, [ 0.14, -0.51],       0.00,      0.00,   -455.88,-206.66,5  1.26]
KF  PV=[ 5  -1578926.16,   5312797.97,   3146363.03,   0.05,  -0.07,  -0.23, [ 0.16, -0.18],      -0.69,     -0.69,   -438.83,-206.48,11 99.00]
LSQ LLH=[ 29.748399, 106.551584, 328.54, 457350.400001 457350.400000]
KF  LLH=[ 29.748376, 106.551579, 353.81, 457350.400001 457350.400000]
KF  FixSet        0        0   380500        0
LSQ Dop=[ 2.62, 2.32, 1.26, 1.96]
KF Dop=[ 99.00, 99.00, 99.00, 99.00]
KF UTC=[2019/03/29 - 07:02:12.401 ]
$GNGGA,070212.400,2944.9026,N,10633.0947,E,1,05,99.0,353.8,M,,,,0000*20
$GNRMC,070212.400,A,2944.9026,N,10633.0947,E,0.31,0.00,290319,,*16
$GPGSA,A,3,,,,,,,,,,,,,99.0,99.0,99.0*02
$BDGSA,A,3,,,,,,,,,,,,,99.0,99.0,99.0*13
$GLGSA,A,3,09,11,20,21,22,,,,,,,,99.0,99.0,99.0*16
$GPGSV,3,1,11,01,00,000,38,04,00,000,41,07,00,000,44,08,00,000,46*7D
$GPGSV,3,2,11,09,00,000,44,11,00,000,43,16,00,000,39,18,00,000,40*76
$GPGSV,3,3,11,23,00,000,43,27,00,000,44,30,00,000,37*4D
$BDGSV,3,1,11,02,00,000,40,03,00,000,43,04,23,109,40,06,18,182,36*60
$BDGSV,3,2,11,07,61,029,42,08,37,151,40,09,35,204,41,10,00,000,43*63
$BDGSV,3,3,11,11,00,000,43,13,00,000,39,05,26,243,00*53
$B3CN0,0,0,23,0,0,0,0,0,0,0,29,0,0,0*46
$GLGSV,2,1,07,08,07,222,21,21,63,151,47,20,42,041,42,11,37,336,44*6A
$GLGSV,2,2,07,09,15,098,39,22,13,191,42,26,00,000,45*5C
# of Valid meas: 5 [N21 N11 N20 N22 N09  ]
LSQ PV=[ 5  -1578919.02,   5312776.37,   3146351.52,  -0.19,  -0.11,  -0.06, [ 0.21, -0.07],       0.00,      0.00,   -662.58,-205.93,5  1.26]
KF  PV=[ 5  -1578925.14,   5312794.61,   3146360.72,  -0.11,  -0.30,  -0.19, [ 0.19, -0.32],      -0.55,     -0.55,   -648.10,-206.15,11 99.00]
LSQ LLH=[ 29.748388, 106.551572, 328.36, 457351.400002 457351.400000]
KF  LLH=[ 29.748373, 106.551578, 349.61, 457351.400002 457351.400000]
KF  FixSet        0        0   380500        0
LSQ Dop=[ 2.62, 2.32, 1.26, 1.96]
KF Dop=[ 99.00, 99.00, 99.00, 99.00]
KF UTC=[2019/03/29 - 07:02:13.401 ]
$GNGGA,070213.400,2944.9024,N,10633.0947,E,1,05,99.0,349.6,M,,,,0000*26
$GNRMC,070213.400,A,2944.9024,N,10633.0947,E,0.37,0.00,290319,,*13
$GPGSA,A,3,,,,,,,,,,,,,99.0,99.0,99.0*02
$BDGSA,A,3,,,,,,,,,,,,,99.0,99.0,99.0*13
$GLGSA,A,3,09,11,20,21,22,,,,,,,,99.0,99.0,99.0*16
$GPGSV,3,1,11,01,00,000,37,04,00,000,41,07,00,000,44,08,00,000,45*71
$GPGSV,3,2,11,09,00,000,44,11,00,000,43,16,00,000,40,18,00,000,41*79
$GPGSV,3,3,11,23,00,000,43,27,00,000,44,30,00,000,35*4F
$BDGSV,3,1,11,02,00,000,40,03,00,000,43,04,23,109,39,06,18,182,37*6F
$BDGSV,3,2,11,07,61,029,43,08,37,151,40,09,35,204,41,10,00,000,42*63
$BDGSV,3,3,11,11,00,000,43,13,00,000,39,05,26,243,00*53
$B3CN0,0,0,18,0,0,0,0,0,0,0,29,0,0,0*4E
$GLGSV,2,1,07,21,63,151,46,20,42,041,42,11,37,336,44,09,15,098,40*6D
$GLGSV,2,2,07,22,13,191,42,26,00,000,45,08,07,222,00*57
# of Valid meas: 11 [N21 N11 B07 B10 B11 N20 N22 B09 B08 N09 B06  ]
LSQ PV=[11  -1578918.47,   5312776.06,   3146354.08,   0.09,   0.07,  -0.22, [ 0.24, -0.07],       0.00,  -1617.92,   -869.32,-205.64,5  1.05]
KF  PV=[ 5  -1578924.84,   5312791.00,   3146358.72,   0.11,  -0.02,  -0.12, [ 0.13, -0.10],      -0.57,  -1617.92,   -857.23,-205.91,11 99.00]
LSQ LLH=[ 29.748410, 106.551567, 329.23, 457352.400005 457352.400000]
KF  LLH=[ 29.748374, 106.551586, 345.54, 457352.400003 457352.400000]
KF  FixSet        0      640   100400        0
LSQ Dop=[ 2.46, 2.04, 1.05, 1.75]
KF Dop=[ 99.00, 99.00, 99.00, 99.00]
KF UTC=[2019/03/29 - 07:02:14.401 ]
$GNGGA,070214.400,2944.9024,N,10633.0952,E,1,05,99.0,345.5,M,,,,0000*2A
$GNRMC,070214.400,A,2944.9024,N,10633.0952,E,0.25,0.00,290319,,*13
$GPGSA,A,3,,,,,,,,,,,,,99.0,99.0,99.0*02
$BDGSA,A,3,07,10,11,,,,,,,,,,99.0,99.0,99.0*15
$GLGSA,A,3,11,21,,,,,,,,,,,99.0,99.0,99.0*1D
$GPGSV,3,1,11,01,00,000,38,04,00,000,42,07,00,000,44,08,00,000,45*7D
$GPGSV,3,2,11,09,00,000,44,11,00,000,43,16,00,000,40,18,00,000,41*79
$GPGSV,3,3,11,23,00,000,43,27,00,000,44,30,00,000,36*4C
$BDGSV,3,1,11,02,00,000,39,03,00,000,43,04,23,109,39,06,18,182,37*61
$BDGSV,3,2,11,07,61,029,43,08,37,151,40,09,35,204,41,10,00,000,42*63
$BDGSV,3,3,11,11,00,000,43,13,00,000,39,05,26,243,00*53
$B3CN0,0,0,23,0,0,0,0,0,0,0,29,0,0,0*46
$GLGSV,2,1,07,21,63,151,47,20,42,041,42,11,37,336,44,09,15,098,39*62
$GLGSV,2,2,07,22,13,191,42,26,00,000,45,08,07,222,00*57
# of Valid meas: 11 [N21 N11 B10 B11 B07 N20 N22 B09 B08 N09 B06  ]
LSQ PV=[11  -1578918.07,   5312777.50,   3146354.25,  -0.20,  -0.48,  -0.26, [ 0.33, -0.48],       0.00,  -1822.99,  -1075.10,-205.78,5  1.05]
KF  PV=[11  -1578922.29,   5312785.24,   3146356.27,  -0.18,  -0.38,  -0.23, [ 0.28, -0.39],      -0.60,  -1819.18,  -1067.20,-205.94,11 99.00]
LSQ LLH=[ 29.748405, 106.551559, 330.42, 457353.400006 457353.400000]
KF  LLH=[ 29.748382, 106.551578, 338.90, 457353.400003 457353.400000]
KF  FixSet        0      7e0   380500        0
LSQ Dop=[ 2.46, 2.04, 1.05, 1.75]
KF Dop=[ 99.00, 99.00, 99.00, 99.00]
KF UTC=[2019/03/29 - 07:02:15.401 ]
$GNGGA,070215.400,2944.9029,N,10633.0947,E,1,11,99.0,338.9,M,,,,0000*21
$GNRMC,070215.400,A,2944.9029,N,10633.0947,E,0.55,0.00,290319,,*1C
$GPGSA,A,3,,,,,,,,,,,,,99.0,99.0,99.0*02
$BDGSA,A,3,06,07,08,09,10,11,,,,,,,99.0,99.0,99.0*12
$GLGSA,A,3,09,11,20,21,22,,,,,,,,99.0,99.0,99.0*16
$GPGSV,3,1,11,01,00,000,38,04,00,000,42,07,00,000,44,08,00,000,46*7E
$GPGSV,3,2,11,09,00,000,44,11,00,000,43,16,00,000,39,18,00,000,42*74
$GPGSV,3,3,11,23,00,000,43,27,00,000,43,30,00,000,37*4A
$BDGSV,3,1,11,02,00,000,39,03,00,000,43,04,23,109,40,06,18,182,37*6F
$BDGSV,3,2,11,07,61,029,42,08,37,151,40,09,35,204,41,10,61,337,43*63
$BDGSV,3,3,11,11,60,060,43,13,00,000,39,05,26,243,00*53
$B3CN0,0,0,21,0,0,0,0,0,0,0,29,0,0,0*44
$GLGSV,2,1,07,21,63,151,47,20,42,041,41,11,37,336,44,09,15,098,40*6F
$GLGSV,2,2,07,22,13,191,42,26,00,000,45,08,07,222,00*57
# of Valid meas: 11 [N21 N11 B11 N22 B07 B10 B09 N20 B08 N09 B06  ]
LSQ PV=[11  -1578918.18,   5312775.94,   3146354.21,   0.14,  -0.24,  -0.10, [ 0.08, -0.29],       0.00,  -2029.90,  -1281.85,-205.89,5  1.05]
KF  PV=[11  -1578920.63,   5312783.49,   3146355.76,  -0.01,  -0.38,  -0.13, [ 0.13, -0.37],      -0.88,  -2025.45,  -1275.26,-206.13,11 99.00]
LSQ LLH=[ 29.748411, 106.551564, 329.12, 457354.400007 457354.400000]
KF  LLH=[ 29.748388, 106.551566, 336.78, 457354.400004 457354.400000]
KF  FixSet        0      7e0   380500        0
LSQ Dop=[ 2.46, 2.04, 1.05, 1.75]
KF Dop=[ 99.00, 99.00, 99.00, 99.00]
KF UTC=[2019/03/29 - 07:02:16.401 ]
$GNGGA,070216.400,2944.9033,N,10633.0940,E,1,11,99.0,336.8,M,,,,0000*21
$GNRMC,070216.400,A,2944.9033,N,10633.0940,E,0.26,0.00,290319,,*17
$GPGSA,A,3,,,,,,,,,,,,,99.0,99.0,99.0*02
$BDGSA,A,3,06,07,08,09,10,11,,,,,,,99.0,99.0,99.0*12
$GLGSA,A,3,09,11,20,21,22,,,,,,,,99.0,99.0,99.0*16
$GPGSV,3,1,11,01,00,000,38,04,00,000,42,07,00,000,44,08,00,000,46*7E
$GPGSV,3,2,11,09,00,000,45,11,00,000,43,16,00,000,40,18,00,000,42*7B
$GPGSV,3,3,11,23,00,000,42,27,00,000,43,30,00,000,37*4B
$BDGSV,3,1,11,02,00,000,39,03,00,000,43,04,23,109,40,06,18,182,37*6F
$BDGSV,3,2,11,07,61,029,42,08,37,151,40,09,35,204,41,10,61,337,42*62
$BDGSV,3,3,11,11,60,060,43,13,00,000,39,05,26,243,00*53
$B3CN0,0,0,21,0,0,0,0,0,0,0,21,0,0,0*4C
$GLGSV,2,1,07,21,63,151,47,20,42,041,42,11,37,336,44,09,15,098,39*62
$GLGSV,2,2,07,22,13,191,43,26,00,000,45,08,07,222,00*56
# of Valid meas: 11 [N21 N11 B11 B07 B10 N22 B09 N20 B08 N09 B06  ]
LSQ PV=[11  -1578916.70,   5312776.66,   3146354.29,  -0.34,  -0.08,  -0.12, [ 0.36, -0.04],       0.00,  -2236.01,  -1488.18,-205.81,5  1.05]
KF  PV=[11  -1578919.82,   5312782.34,   3146355.55,  -0.30,  -0.17,  -0.13, [ 0.34, -0.13],      -0.97,  -2232.18,  -1482.64,-206.02,11 99.00]
LSQ LLH=[ 29.748411, 106.551548, 329.40, 457355.400007 457355.400000]
KF  LLH=[ 29.748392, 106.551562, 335.52, 457355.400005 457355.400000]
KF  FixSet        0      7e0   380500        0
LSQ Dop=[ 2.46, 2.04, 1.05, 1.75]
KF Dop=[ 99.00, 99.00, 99.00, 99.00]
KF UTC=[2019/03/29 - 07:02:17.401 ]
$GNGGA,070217.400,2944.9035,N,10633.0937,E,1,11,99.0,335.5,M,,,,0000*28
$GNRMC,070217.400,A,2944.9035,N,10633.0937,E,0.67,0.00,290319,,*15
$GPGSA,A,3,,,,,,,,,,,,,99.0,99.0,99.0*02
$BDGSA,A,3,06,07,08,09,10,11,,,,,,,99.0,99.0,99.0*12
$GLGSA,A,3,09,11,20,21,22,,,,,,,,99.0,99.0,99.0*16
$GPGSV,3,1,11,01,00,000,37,04,00,000,42,07,00,000,45,08,00,000,46*70
$GPGSV,3,2,11,09,00,000,45,11,00,000,43,16,00,000,40,18,00,000,40*79
$GPGSV,3,3,11,23,00,000,43,27,00,000,44,30,00,000,37*4D
$BDGSV,3,1,11,02,00,000,40,03,00,000,45,04,23,109,39,06,18,182,37*69
$BDGSV,3,2,11,07,61,029,42,08,37,151,40,09,35,204,41,10,61,337,42*62
$BDGSV,3,3,11,11,60,060,43,13,00,000,39,05,26,243,00*53
$B3CN0,0,0,23,0,0,0,0,0,0,0,0,0,0,0*7D
$GLGSV,2,1,07,21,63,151,47,20,42,041,41,11,37,336,44,09,15,098,39*61
$GLGSV,2,2,07,22,13,191,42,26,00,000,45,08,07,222,00*57
# of Valid meas: 11 [N21 N11 B11 N22 B07 B10 B09 N20 B08 N09 B06  ]
LSQ PV=[11  -1578915.59,   5312778.04,   3146354.24,   0.05,  -0.05,  -0.07, [ 0.05, -0.09],       0.00,  -2441.82,  -1693.84,-206.01,5  1.05]
KF  PV=[11  -1578918.89,   5312781.71,   3146355.16,  -0.10,  -0.03,  -0.05, [ 0.12, -0.02],      -1.24,  -2439.06,  -1689.86,-206.18,11 99.00]
LSQ LLH=[ 29.748406, 106.551533, 330.25, 457356.400008 457356.400000]
KF  LLH=[ 29.748393, 106.551555, 334.57, 457356.400005 457356.400000]
KF  FixSet        0      7e0   380500        0
LSQ Dop=[ 2.46, 2.04, 1.05, 1.75]
KF Dop=[ 99.00, 99.00, 99.00, 99.00]
KF UTC=[2019/03/29 - 07:02:18.401 ]
$GNGGA,070218.400,2944.9036,N,10633.0933,E,1,11,99.0,334.6,M,,,,0000*22
$GNRMC,070218.400,A,2944.9036,N,10633.0933,E,0.23,0.00,290319,,*1D
$GPGSA,A,3,,,,,,,,,,,,,99.0,99.0,99.0*02
$BDGSA,A,3,06,07,08,09,10,11,,,,,,,99.0,99.0,99.0*12
$GLGSA,A,3,09,11,20,21,22,,,,,,,,99.0,99.0,99.0*16
$GPGSV,3,1,11,01,00,000,38,04,00,000,42,07,00,000,45,08,00,000,46*7F
$GPGSV,3,2,11,09,00,000,45,11,00,000,43,16,00,000,40,18,00,000,41*78
$GPGSV,3,3,11,23,00,000,44,27,00,000,44,30,00,000,37*4A
$BDGSV,3,1,11,02,00,000,40,03,00,000,42,04,23,109,40,06,18,182,37*60
$BDGSV,3,2,11,07,61,029,42,08,37,151,40,09,35,204,41,10,61,337,42*62
$BDGSV,3,3,11,11,60,060,43,05,26,243,40,13,00,000,39*57
$B3CN0,0,36,18,0,0,0,0,0,0,0,0,0,0,0*40
$GLGSV,2,1,07,21,63,151,47,20,42,041,41,11,37,336,44,09,15,098,40*6F
$GLGSV,2,2,07,22,13,191,43,26,00,000,46,08,07,222,00*55
# of Valid meas: 11 [N21 N11 B07 B10 B11 N22 N20 B09 B08 N09 B06  ]
LSQ PV=[11  -1578917.39,   5312778.58,   3146354.14,   0.06,  -0.47,  -0.18, [ 0.11, -0.50],       0.00,  -2647.33,  -1899.70,-206.56,5  1.05]
KF  PV=[11  -1578918.44,   5312781.18,   3146354.77,  -0.01,  -0.30,  -0.12, [ 0.10, -0.31],      -1.61,  -2645.91,  -1896.87,-206.54,11 99.00]
LSQ LLH=[ 29.748401, 106.551549, 331.09, 457357.400008 457357.400000]
KF  LLH=[ 29.748393, 106.551552, 333.83, 457357.400006 457357.400000]
KF  FixSet        0      7e0   380500        0
LSQ Dop=[ 2.46, 2.04, 1.05, 1.75]
KF Dop=[ 99.00, 99.00, 99.00, 99.00]
KF UTC=[2019/03/29 - 07:02:19.401 ]
$GNGGA,070219.400,2944.9036,N,10633.0931,E,1,11,99.0,333.8,M,,,,0000*28
$GNRMC,070219.400,A,2944.9036,N,10633.0931,E,0.20,0.00,290319,,*1D
$GPGSA,A,3,,,,,,,,,,,,,99.0,99.0,99.0*02
$BDGSA,A,3,06,07,08,09,10,11,,,,,,,99.0,99.0,99.0*12
$GLGSA,A,3,09,11,20,21,22,,,,,,,,99.0,99.0,99.0*16
$GPGSV,3,1,11,01,00,000,38,04,00,000,41,07,00,000,44,08,00,000,46*7D
$GPGSV,3,2,11,09,00,000,45,11,00,000,43,16,00,000,40,18,00,000,42*7B
$GPGSV,3,3,11,23,00,000,43,27,00,000,44,30,00,000,37*4D
$BDGSV,3,1,11,02,00,000,40,03,00,000,42,04,23,109,39,06,18,182,37*6E
$BDGSV,3,2,11,07,61,029,43,08,37,151,40,09,35,204,41,10,61,337,43*62
$BDGSV,3,3,11,11,60,060,43,05,26,243,38,13,00,000,40*56
$B3CN0,0,0,18,0,0,0,0,0,0,0,0,0,0,0*75
$GLGSV,2,1,07,21,63,151,47,20,42,041,42,11,37,336,44,09,15,098,39*62
$GLGSV,2,2,07,22,13,191,43,26,00,000,45,08,07,222,00*56
# of Valid meas: 11 [N21 B11 N11 B07 B10 N22 B09 N20 B08 N09 B06  ]
LSQ PV=[11  -1578917.83,   5312782.38,   3146355.31,   0.09,  -0.47,  -0.25, [ 0.05, -0.54],       0.00,  -2851.08,  -2104.62,-206.37,5  1.05]
KF  PV=[11  -1578918.38,   5312781.12,   3146354.62,   0.03,  -0.43,  -0.20, [ 0.10, -0.47],      -1.64,  -2852.56,  -2103.78,-206.40,11 99.00]
LSQ LLH=[ 29.748393, 106.551542, 334.95, 457358.400009 457358.400000]
KF  LLH=[ 29.748392, 106.551551, 333.69, 457358.400007 457358.400000]
KF  FixSet        0      7e0   380500        0
LSQ Dop=[ 2.46, 2.04, 1.05, 1.75]
KF Dop=[ 99.00, 99.00, 99.00, 99.00]
KF UTC=[2019/03/29 - 07:02:20.401 ]
$GNGGA,070220.400,2944.9035,N,10633.0931,E,1,11,99.0,333.7,M,,,,0000*2E
$GNRMC,070220.400,A,2944.9035,N,10633.0931,E,0.19,0.00,290319,,*1E
$GPGSA,A,3,,,,,,,,,,,,,99.0,99.0,99.0*02
$BDGSA,A,3,06,07,08,09,10,11,,,,,,,99.0,99.0,99.0*12
$GLGSA,A,3,09,11,20,21,22,,,,,,,,99.0,99.0,99.0*16
$GPGSV,3,1,11,01,00,000,38,04,00,000,42,07,00,000,44,08,00,000,46*7E
$GPGSV,3,2,11,09,00,000,45,11,00,000,43,16,00,000,40,18,00,000,42*7B
$GPGSV,3,3,11,23,00,000,43,27,00,000,44,30,00,000,37*4D
$BDGSV,3,1,11,02,00,000,40,03,00,000,43,04,23,109,41,06,18,182,37*60
$BDGSV,3,2,11,07,61,029,43,08,37,151,40,09,35,204,41,10,61,337,43*62
$BDGSV,3,3,11,11,60,060,44,05,26,243,40,13,00,000,39*50
$B3CN0,0,0,23,0,0,0,0,0,0,0,0,0,0,0*7D
$GLGSV,2,1,07,21,63,151,47,20,42,041,41,11,37,336,44,09,15,098,39*61
$GLGSV,2,2,07,22,13,191,43,26,00,000,45,08,07,222,00*56
# of Valid meas: 11 [N21 N11 B10 B11 N22 B07 B09 N20 B08 N09 B06  ]
LSQ PV=[11  -1578918.96,   5312782.88,   3146355.44,  -0.03,   0.15,  -0.19, [ 0.24,  0.04],       0.00,  -3056.89,  -2309.74,-204.81,5  1.05]
KF  PV=[11  -1578918.51,   5312781.39,   3146354.51,   0.10,  -0.44,  -0.37, [ 0.10, -0.58],      -1.21,  -3058.59,  -2309.94,-205.43,11 99.00]
LSQ LLH=[ 29.748390, 106.551552, 335.71, 457359.400010 457359.400000]
KF  LLH=[ 29.748390, 106.551552, 333.89, 457359.400007 457359.400000]
KF  FixSet        0      7e0   380500        0
LSQ Dop=[ 2.46, 2.04, 1.05, 1.75]
KF Dop=[ 99.00, 99.00, 99.00, 99.00]
KF UTC=[2019/03/29 - 07:02:21.401 ]
$GNGGA,070221.400,2944.9034,N,10633.0931,E,1,11,99.0,333.9,M,,,,0000*20
$GNRMC,070221.400,A,2944.9034,N,10633.0931,E,0.20,0.00,290319,,*14
$GPGSA,A,3,,,,,,,,,,,,,99.0,99.0,99.0*02
$BDGSA,A,3,06,07,08,09,10,11,,,,,,,99.0,99.0,99.0*12
$GLGSA,A,3,09,11,20,21,22,,,,,,,,99.0,99.0,99.0*16
$GPGSV,3,1,11,01,00,000,38,04,00,000,42,07,00,000,45,08,00,000,46*7F
$GPGSV,3,2,11,09,00,000,45,11,00,000,43,16,00,000,40,18,00,000,42*7B
$GPGSV,3,3,11,23,00,000,43,27,00,000,44,30,00,000,37*4D
$BDGSV,3,1,11,02,00,000,38,03,00,000,42,04,23,109,40,06,18,182,37*6F
$BDGSV,3,2,11,07,61,029,42,08,37,151,40,09,35,204,41,10,61,337,43*63
$BDGSV,3,3,11,11,60,060,43,05,26,243,37,13,00,000,40*59
$B3CN0,0,18,0,0,0,0,0,0,0,0,0,0,0,0*75
$GLGSV,2,1,07,21,63,151,47,20,42,041,41,11,37,336,44,09,15,098,39*61
$GLGSV,2,2,07,22,13,191,43,26,00,000,45,08,07,222,00*56
# of Valid meas: 11 [N21 N11 B07 B10 B11 N22 N20 B08 B09 N09 B06  ]
LSQ PV=[11  -1578920.50,   5312779.70,   3146354.35,   0.04,  -0.41,  -0.24, [ 0.07, -0.47],       0.00,  -3264.72,  -2516.77,-206.40,5  1.05]
KF  PV=[11  -1578918.79,   5312780.91,   3146354.18,  -0.06,  -0.11,  -0.15, [ 0.12, -0.15],      -1.49,  -3264.50,  -2515.73,-206.20,11 99.00]
LSQ LLH=[ 29.748393, 106.551576, 332.90, 457360.400010 457360.400000]
KF  LLH=[ 29.748389, 106.551556, 333.39, 457360.400008 457360.400000]
KF  FixSet        0      7e0   380500        0
LSQ Dop=[ 2.46, 2.04, 1.05, 1.75]
KF Dop=[ 99.00, 99.00, 99.00, 99.00]
KF UTC=[2019/03/29 - 07:02:22.401 ]
$GNGGA,070222.400,2944.9033,N,10633.0934,E,1,11,99.0,333.4,M,,,,0000*2C
$GNRMC,070222.400,A,2944.9033,N,10633.0934,E,0.24,0.00,290319,,*11
$GPGSA,A,3,,,,,,,,,,,,,99.0,99.0,99.0*02
$BDGSA,A,3,06,07,08,09,10,11,,,,,,,99.0,99.0,99.0*12
$GLGSA,A,3,09,11,20,21,22,,,,,,,,99.0,99.0,99.0*16
$GPGSV,3,1,11,01,00,000,37,04,00,000,42,07,00,000,44,08,00,000,45*72
$GPGSV,3,2,11,09,00,000,45,11,00,000,43,16,00,000,40,18,00,000,42*7B
$GPGSV,3,3,11,23,00,000,43,27,00,000,44,30,00,000,37*4D
$BDGSV,3,1,11,02,00,000,39,03,00,000,42,04,23,109,39,06,18,182,36*61
$BDGSV,3,2,11,07,61,029,43,08,37,151,40,09,35,204,40,10,61,337,43*63
$BDGSV,3,3,11,11,60,060,43,05,26,243,40,13,00,000,40*59
$B3CN0,0,0,0,0,0,0,0,0,0,0,22,0,0,0*7C
$GLGSV,2,1,07,21,63,151,47,20,42,041,41,11,37,336,44,09,15,098,40*6F
$GLGSV,2,2,07,22,13,191,42,26,00,000,45,08,07,222,00*57
# of Valid meas: 11 [N21 N11 B11 B10 B07 N22 B09 N20 B08 N09 B06  ]
LSQ PV=[11  -1578919.12,   5312779.43,   3146354.28,   0.03,  -0.42,  -0.24, [ 0.09, -0.47],       0.00,  -3471.63,  -2722.62,-206.21,5  1.05]
KF  PV=[11  -1578918.93,   5312780.55,   3146353.96,   0.02,  -0.28,  -0.17, [ 0.06, -0.33],      -1.62,  -3471.16,  -2722.03,-206.24,11 99.00]
LSQ LLH=[ 29.748396, 106.551563, 332.29, 457361.400011 457361.400000]
KF  LLH=[ 29.748389, 106.551558, 333.03, 457361.400009 457361.400000]
KF  FixSet        0      7e0   380500        0
LSQ Dop=[ 2.46, 2.04, 1.05, 1.75]
KF Dop=[ 99.00, 99.00, 99.00, 99.00]
KF UTC=[2019/03/29 - 07:02:23.401 ]
$GNGGA,070223.400,2944.9033,N,10633.0935,E,1,11,99.0,333.0,M,,,,0000*28
$GNRMC,070223.400,A,2944.9033,N,10633.0935,E,0.11,0.00,290319,,*17
$GPGSA,A,3,,,,,,,,,,,,,99.0,99.0,99.0*02
$BDGSA,A,3,06,07,08,09,10,11,,,,,,,99.0,99.0,99.0*12
$GLGSA,A,3,09,11,20,21,22,,,,,,,,99.0,99.0,99.0*16
$GPGSV,3,1,11,01,00,000,36,04,00,000,42,07,00,000,44,08,00,000,46*70
$GPGSV,3,2,11,09,00,000,45,11,00,000,42,16,00,000,40,18,00,000,41*79
$GPGSV,3,3,11,23,00,000,43,27,00,000,44,30,00,000,37*4D
$BDGSV,3,1,11,02,00,000,39,03,00,000,42,04,23,109,40,06,18,182,37*6E
$BDGSV,3,2,11,07,61,029,42,08,37,151,40,09,35,204,41,10,61,337,43*63
$BDGSV,3,3,11,11,60,060,44,05,26,243,39,13,00,000,39*5E
$B3CN0,0,0,0,0,0,0,0,0,0,0,29,0,0,0*77
$GLGSV,2,1,07,21,63,151,47,20,42,041,41,11,37,336,45,09,15,098,39*60
$GLGSV,2,2,07,22,13,191,42,26,00,000,45,08,07,222,00*57
# of Valid meas: 23 [N21 G08 G09 N11 G07 G27 G11 G23 B03 B07 B10 B11 G18 N22 B09 N20 G16 B08 B02 B04 N09 G01 B06  ]
LSQ PV=[23  -1578916.71,   5312776.28,   3146355.25,  -0.03,  -0.19,  -0.19, [ 0.11, -0.25],   -3535.35,  -3681.10,  -2931.07,-205.54,5  0.71]
KF  PV=[14  -1578918.87,   5312780.12,   3146353.79,   0.09,  -0.28,  -0.21, [ 0.03, -0.36],   -3535.35,  -3677.72,  -2928.38,-205.69,11 99.00]
LSQ LLH=[ 29.748420, 106.551549, 329.56, 457362.400011 457362.399999]
KF  LLH=[ 29.748389, 106.551559, 332.57, 457362.400009 457362.399999]
KF  FixSet  44205c0      644   300400        0
LSQ Dop=[ 1.68, 1.42, 0.71, 1.24]
KF Dop=[ 99.00, 99.00, 99.00, 99.00]
KF UTC=[2019/03/29 - 07:02:24.401 ]
Refix G01: 2, 457362.318183, -4535
Refix G07: 2, 457362.327421, -3673
Refix G08: 2, 457362.332682, -676
Refix G09: 2, 457362.328028, -12
Refix G11: 2, 457362.324310, -4337
Refix G16: 2, 457362.323039, 1147
Refix G18: 2, 457362.323429, -4246
Refix G23: 2, 457362.326497, 1496
Refix G27: 2, 457362.328962, 1365
$GNGGA,070224.400,2944.9034,N,10633.0935,E,1,14,99.0,332.6,M,,,,0000*2A
$GNRMC,070224.400,A,2944.9034,N,10633.0935,E,0.06,0.00,290319,,*11
$GPGSA,A,3,07,08,09,11,18,23,27,,,,,,99.0,99.0,99.0*09
$BDGSA,A,3,03,07,10,11,,,,,,,,,99.0,99.0,99.0*16
$GLGSA,A,3,11,21,22,,,,,,,,,,99.0,99.0,99.0*1D
$GPGSV,3,1,11,01,00,000,38,04,00,000,41,07,00,000,44,08,00,000,45*7E
$GPGSV,3,2,11,09,00,000,45,11,00,000,43,16,00,000,40,18,00,000,42*7B
$GPGSV,3,3,11,23,00,000,43,27,00,000,44,30,00,000,36*4C
$BDGSV,3,1,11,02,00,000,40,03,00,000,43,04,23,109,40,06,18,182,37*61
$BDGSV,3,2,11,07,61,029,43,08,37,151,40,09,35,204,41,10,61,337,43*62
$BDGSV,3,3,11,11,60,060,43,05,26,243,38,13,22,175,40*55
$B3CN0,0,19,0,0,0,0,0,0,0,0,29,0,0,0*4F
$GLGSV,2,1,07,21,63,151,47,20,42,041,41,11,37,336,45,09,15,098,39*60
$GLGSV,2,2,07,22,13,191,42,26,00,000,45,08,07,222,00*57
# of Valid meas: 23 [N21 G08 G07 G09 G27 N11 G23 B03 B07 B10 B11 G11 G18 N22 B09 N20 G16 B04 B08 B02 N09 G01 B06  ]
LSQ PV=[23  -1578916.94,   5312774.91,   3146354.82,   0.11,  -0.60,  -0.29, [ 0.08, -0.68],   -3741.48,  -3887.18,  -3138.01,-204.96,5  0.71]
KF  PV=[23  -1578918.44,   5312778.65,   3146353.66,   0.06,  -0.61,  -0.29, [ 0.13, -0.67],   -3740.41,  -3884.19,  -3134.60,-205.13,11  0.59]
LSQ LLH=[ 29.748422, 106.551555, 328.26, 457363.400012 457363.399999]
KF  LLH=[ 29.748395, 106.551559, 331.17, 457363.400010 457363.399999]
KF  FixSet  44285c1      7ee   380500        0
LSQ Dop=[ 1.68, 1.42, 0.71, 1.24]
KF Dop=[ 0.82, 0.71, 0.59, 0.39]
KF UTC=[2019/03/29 - 07:02:25.401 ]
Refix G01: 2, 457363.318186, -4531
Refix G07: 2, 457363.327423, -3669
Refix G08: 2, 457363.332682, -671
Refix G09: 2, 457363.328028, -7
Refix G11: 2, 457363.324313, -4333
Refix G16: 2, 457363.323038, 1150
Refix G18: 2, 457363.323432, -4242
Refix G23: 2, 457363.326496, 1501
Refix G27: 2, 457363.328961, 1369
$GNGGA,070225.400,2944.9037,N,10633.0935,E,1,23,0.6,331.2,M,,,,0000*1D
$GNRMC,070225.400,A,2944.9037,N,10633.0935,E,0.25,0.00,290319,,*12
$GPGSA,A,3,01,07,08,09,11,16,18,23,27,,,,0.7,0.6,0.4*3A
$BDGSA,A,3,02,03,04,06,07,08,09,10,11,,,,0.7,0.6,0.4*22
$GLGSA,A,3,09,11,20,21,22,,,,,,,,0.7,0.6,0.4*23
$GPGSV,3,1,11,01,11,172,38,04,00,000,41,07,46,323,44,08,85,022,46*74
$GPGSV,3,2,11,09,43,253,45,11,36,179,42,16,26,056,40,18,28,150,42*7A
$GPGSV,3,3,11,23,36,208,43,27,49,039,44,30,00,000,37*45
$BDGSV,3,1,11,02,46,218,39,03,55,172,42,04,23,109,39,06,18,182,36*6C
$BDGSV,3,2,11,07,61,029,43,08,37,151,40,09,35,204,41,10,61,337,43*62
$BDGSV,3,3,11,11,60,060,44,05,26,243,38,13,22,175,40*52
$B3CN0,0,0,0,0,0,0,0,0,0,0,29,0,0,0*77
$GLGSV,2,1,07,21,63,151,47,20,42,041,41,11,37,336,44,09,15,098,38*60
$GLGSV,2,2,07,22,13,191,42,26,00,000,45,08,07,222,00*57
# of Valid meas: 23 [N21 G08 G07 G09 G27 N11 G23 B03 B10 B11 G11 G18 B07 N22 B09 N20 B02 B04 B08 G16 N09 G01 B06  ]
LSQ PV=[23  -1578917.27,   5312775.99,   3146354.91,   0.09,  -0.49,  -0.30, [ 0.06, -0.58],   -3947.50,  -4093.20,  -3342.94,-207.26,5  0.71]
KF  PV=[23  -1578917.95,   5312777.34,   3146353.29,  -0.19,   0.00,  -0.08, [ 0.20,  0.01],   -3947.02,  -4090.80,  -3340.72,-206.89,11  0.59]
LSQ LLH=[ 29.748418, 106.551555, 329.29, 457364.400013 457364.399999]
KF  LLH=[ 29.748399, 106.551558, 329.78, 457364.400011 457364.399999]
KF  FixSet  44285c1      7ee   380500        0
LSQ Dop=[ 1.68, 1.42, 0.71, 1.24]
KF Dop=[ 0.82, 0.71, 0.59, 0.39]
KF UTC=[2019/03/29 - 07:02:26.401 ]
Refix G01: 2, 457364.318189, -4542
Refix G07: 2, 457364.327425, -3680
Refix G08: 2, 457364.332682, -683
Refix G09: 2, 457364.328028, -18
Refix G11: 2, 457364.324315, -4345
Refix G16: 2, 457364.323037, 1139
Refix G18: 2, 457364.323434, -4253
Refix G23: 2, 457364.326495, 1490
Refix G27: 2, 457364.328960, 1358
$GNGGA,070226.400,2944.9039,N,10633.0935,E,1,23,0.6,329.8,M,,,,0000*13
$GNRMC,070226.400,A,2944.9039,N,10633.0935,E,0.39,0.00,290319,,*12
$GPGSA,A,3,01,07,08,09,11,16,18,23,27,,,,0.7,0.6,0.4*3A
$BDGSA,A,3,02,03,04,06,07,08,09,10,11,,,,0.7,0.6,0.4*22
$GLGSA,A,3,09,11,20,21,22,,,,,,,,0.7,0.6,0.4*23
$GPGSV,3,1,11,01,11,172,37,04,00,000,42,07,46,323,44,08,85,022,45*7B
$GPGSV,3,2,11,09,43,253,44,11,36,179,42,16,26,056,39,18,28,150,42*75
$GPGSV,3,3,11,23,36,208,43,27,49,039,44,30,00,000,37*45
$BDGSV,3,1,11,02,46,218,40,03,55,172,42,04,23,109,40,06,18,182,37*6D
$BDGSV,3,2,11,07,61,029,42,08,37,151,40,09,35,204,41,10,61,337,43*63
$BDGSV,3,3,11,11,60,060,43,05,26,243,38,13,22,175,39*5B
$B3CN0,0,0,0,0,0,0,0,0,0,0,29,0,0,0*77
$GLGSV,2,1,07,21,63,151,47,20,42,041,41,11,37,336,44,09,15,098,38*60
$GLGSV,2,2,07,22,13,191,42,26,00,000,45,08,07,222,00*57
# of Valid meas: 23 [N21 G08 B03 N11 G07 G09 G27 B11 G23 B10 G11 G18 B07 N22 B09 N20 B04 B08 G16 B02 G01 N09 B06  ]
LSQ PV=[23  -1578917.54,   5312775.57,   3146354.20,   0.08,  -0.64,  -0.28, [ 0.12, -0.69],   -4154.55,  -4300.15,  -3550.80,-206.66,5  0.71]
KF  PV=[23  -1578917.86,   5312776.63,   3146353.00,  -0.03,  -0.47,  -0.20, [ 0.17, -0.48],   -4154.54,  -4298.54,  -3548.07,-206.66,11  0.59]
LSQ LLH=[ 29.748414, 106.551559, 328.65, 457365.400013 457365.399999]
KF  LLH=[ 29.748399, 106.551559, 329.02, 457365.400011 457365.399999]
KF  FixSet  44285c1      7ee   380500        0
LSQ Dop=[ 1.68, 1.42, 0.71, 1.24]
KF Dop=[ 0.82, 0.71, 0.59, 0.39]
KF UTC=[2019/03/29 - 07:02:27.401 ]
Refix G01: 2, 457365.318192, -4540
Refix G07: 2, 457365.327427, -3677
Refix G08: 2, 457365.332683, -679
Refix G09: 2, 457365.328028, -15
Refix G11: 2, 457365.324318, -4341
Refix G16: 2, 457365.323036, 1141
Refix G18: 2, 457365.323437, -4250
Refix G23: 2, 457365.326494, 1493
Refix G27: 2, 457365.328959, 1361
$GNGGA,070227.400,2944.9040,N,10633.0936,E,1,23,0.6,329.0,M,,,,0000*17
$GNRMC,070227.400,A,2944.9040,N,10633.0936,E,0.34,0.00,290319,,*13
$GPGSA,A,3,01,07,08,09,11,16,18,23,27,,,,0.7,0.6,0.4*3A
$BDGSA,A,3,02,03,04,06,07,08,09,10,11,,,,0.7,0.6,0.4*22
$GLGSA,A,3,09,11,20,21,22,,,,,,,,0.7,0.6,0.4*23
$GPGSV,3,1,11,01,11,172,38,04,00,000,42,07,46,323,44,08,85,022,45*74
$GPGSV,3,2,11,09,43,253,44,11,36,179,42,16,26,056,39,18,28,150,42*75
$GPGSV,3,3,11,23,36,208,43,27,49,039,44,30,00,000,37*45
$BDGSV,3,1,11,02,46,218,39,03,55,172,43,04,23,109,40,06,18,182,37*62
$BDGSV,3,2,11,07,61,029,42,08,37,151,40,09,35,204,41,10,61,337,43*63
$BDGSV,3,3,11,11,60,060,43,05,26,243,38,13,22,175,39*5B
$B3CN0,0,0,0,0,0,0,0,0,0,0,29,0,0,0*77
$GLGSV,2,1,07,21,63,151,47,20,42,041,41,11,37,336,45,09,15,098,38*61
$GLGSV,2,2,07,22,13,191,42,26,00,000,45,08,07,222,00*57
# of Valid meas: 23 [N21 G08 G07 G09 G27 N11 G23 B03 B10 B11 G11 G18 B07 N22 B09 N20 B08 G16 B02 B04 G01 N09 B06  ]
LSQ PV=[23  -1578917.48,   5312775.26,   3146353.61,   0.08,  -0.39,  -0.23, [ 0.03, -0.46],   -4361.25,  -4506.94,  -3759.32,-206.19,5  0.71]
KF  PV=[23  -1578917.69,   5312776.02,   3146352.66,  -0.00,  -0.44,  -0.23, [ 0.13, -0.48],   -4361.49,  -4505.75,  -3755.24,-206.36,11  0.59]
LSQ LLH=[ 29.748411, 106.551559, 328.09, 457366.400014 457366.399999]
KF  LLH=[ 29.748400, 106.551559, 328.30, 457366.400012 457366.399999]
KF  FixSet  44285c1      7ee   380500        0
LSQ Dop=[ 1.68, 1.42, 0.71, 1.24]
KF Dop=[ 0.82, 0.71, 0.59, 0.39]
KF UTC=[2019/03/29 - 07:02:28.401 ]
Refix G01: 2, 457366.318194, -4539
Refix G07: 2, 457366.327430, -3675
Refix G08: 2, 457366.332683, -677
Refix G09: 2, 457366.328028, -13
Refix G11: 2, 457366.324321, -4339
Refix G16: 2, 457366.323036, 1143
Refix G18: 2, 457366.323440, -4248
Refix G23: 2, 457366.326493, 1495
Refix G27: 2, 457366.328958, 1363
$GNGGA,070228.400,2944.9040,N,10633.0936,E,1,23,0.6,328.3,M,,,,0000*1A
$GNRMC,070228.400,A,2944.9040,N,10633.0936,E,0.24,0.00,290319,,*1D
$GPGSA,A,3,01,07,08,09,11,16,18,23,27,,,,0.7,0.6,0.4*3A
$BDGSA,A,3,02,03,04,06,07,08,09,10,11,,,,0.7,0.6,0.4*22
$GLGSA,A,3,09,11,20,21,22,,,,,,,,0.7,0.6,0.4*23
$GPGSV,3,1,11,01,11,172,38,04,00,000,41,07,46,323,44,08,85,022,45*77
$GPGSV,3,2,11,09,43,253,44,11,36,179,42,16,26,056,39,18,28,150,42*75
$GPGSV,3,3,11,23,36,208,43,27,49,039,44,30,00,000,37*45
$BDGSV,3,1,11,02,46,218,39,03,55,172,43,04,23,109,39,06,18,182,37*6C
$BDGSV,3,2,11,07,61,029,42,08,37,151,40,09,35,204,41,10,61,337,43*63
$BDGSV,3,3,11,11,60,060,44,05,26,243,40,13,22,175,39*53
$B3CN0,0,0,0,0,0,0,0,0,0,0,29,0,0,0*77
$GLGSV,2,1,07,21,63,151,47,20,42,041,41,11,37,336,44,09,15,098,38*60
$GLGSV,2,2,07,22,13,191,42,26,00,000,45,08,07,222,00*57
# of Valid meas: 23 [N21 G08 N11 G07 G09 G27 G11 G23 B03 B10 B11 G18 B07 N20 N22 B02 B09 G16 B08 B04 G01 N09 B06  ]
LSQ PV=[23  -1578915.82,   5312774.72,   3146353.61,   0.01,  -0.69,  -0.24, [ 0.22, -0.69],   -4568.95,  -4715.14,  -3967.65,-207.35,5  0.71]
KF  PV=[23  -1578917.35,   5312775.47,   3146352.39,  -0.21,  -0.27,  -0.08, [ 0.27, -0.21],   -4568.57,  -4713.13,  -3962.60,-207.10,11  0.59]
LSQ LLH=[ 29.748415, 106.551545, 327.23, 457367.400015 457367.399999]
KF  LLH=[ 29.748400, 106.551558, 327.63, 457367.400013 457367.399999]
KF  FixSet  44285c1      7ee   380500        0
LSQ Dop=[ 1.68, 1.42, 0.71, 1.24]
KF Dop=[ 0.82, 0.71, 0.59, 0.39]
KF UTC=[2019/03/29 - 07:02:29.401 ]
Refix G01: 2, 457367.318197, -4543
Refix G07: 2, 457367.327432, -3679
Refix G08: 2, 457367.332684, -681
Refix G09: 2, 457367.328028, -16
Refix G11: 2, 457367.324324, -4344
Refix G16: 2, 457367.323035, 1138
Refix G18: 2, 457367.323442, -4253
Refix G23: 2, 457367.326492, 1491
Refix G27: 2, 457367.328957, 1358
$GNGGA,070229.400,2944.9040,N,10633.0935,E,1,23,0.6,327.6,M,,,,0000*12
$GNRMC,070229.400,A,2944.9040,N,10633.0935,E,0.53,0.00,290319,,*1F
$GPGSA,A,3,01,07,08,09,11,16,18,23,27,,,,0.7,0.6,0.4*3A
$BDGSA,A,3,02,03,04,06,07,08,09,10,11,,,,0.7,0.6,0.4*22
$GLGSA,A,3,09,11,20,21,22,,,,,,,,0.7,0.6,0.4*23
$GPGSV,3,1,11,01,11,172,38,04,00,000,42,07,46,323,44,08,85,022,45*74
$GPGSV,3,2,11,09,43,253,44,11,36,179,42,16,26,056,40,18,28,150,42*7B
$GPGSV,3,3,11,23,36,208,43,27,49,039,44,30,00,000,37*45
$BDGSV,3,1,11,02,46,218,40,03,55,172,43,04,23,109,39,06,18,182,37*62
$BDGSV,3,2,11,07,61,029,42,08,37,151,40,09,35,204,41,10,61,337,43*63
$BDGSV,3,3,11,11,60,060,43,05,26,243,38,13,22,175,40*55
$B3CN0,0,0,0,0,0,0,0,0,0,0,29,0,0,0*77
$GLGSV,2,1,07,21,63,151,47,20,42,041,42,11,37,336,45,09,15,098,38*62
$GLGSV,2,2,07,22,13,191,42,26,00,000,45,08,07,222,00*57
# of Valid meas: 24 [N21 G08 N11 G07 G09 G27 G23 B10 B11 G11 B03 B07 N22 G18 B09 N20 G16 B02 B08 N09 G30 B04 B06 G01  ]
LSQ PV=[24  -1578914.55,   5312772.33,   3146353.12,   0.15,  -0.59,  -0.28, [ 0.07, -0.67],   -4778.10,  -4924.37,  -4175.12,-207.10,5  0.61]
KF  PV=[24  -1578917.27,   5312774.97,   3146352.18,   0.00,  -0.41,  -0.23, [ 0.11, -0.45],   -4776.11,  -4920.71,  -4170.12,-207.01,11  0.57]
LSQ LLH=[ 29.748423, 106.551539, 324.68, 457368.400015 457368.399999]
KF  LLH=[ 29.748401, 106.551558, 327.08, 457368.400013 457368.399999]
KF  FixSet 244285c1      7ee   380500        0
LSQ Dop=[ 1.35, 1.18, 0.61, 1.01]
KF Dop=[ 0.79, 0.69, 0.57, 0.39]
KF UTC=[2019/03/29 - 07:02:30.401 ]
Refix G01: 2, 457368.318200, -4542
Refix G07: 2, 457368.327434, -3678
Refix G08: 2, 457368.332684, -679
Refix G09: 2, 457368.328028, -15
Refix G11: 2, 457368.324326, -4342
Refix G16: 2, 457368.323034, 1140
Refix G18: 2, 457368.323445, -4251
Refix G23: 2, 457368.326491, 1492
Refix G27: 2, 457368.328957, 1361
Refix G30: 2, 457368.318756, -4335
$GNGGA,070230.400,2944.9041,N,10633.0935,E,1,24,0.6,327.1,M,,,,0000*1B
$GNRMC,070230.400,A,2944.9041,N,10633.0935,E,0.22,0.00,290319,,*10
$GPGSA,A,3,01,07,08,09,11,16,18,23,27,30,,,0.7,0.6,0.4*39
$BDGSA,A,3,02,03,04,06,07,08,09,10,11,,,,0.7,0.6,0.4*22
$GLGSA,A,3,09,11,20,21,22,,,,,,,,0.7,0.6,0.4*23
$GPGSV,3,1,11,01,11,172,37,04,00,000,41,07,46,323,44,08,85,022,46*7B
$GPGSV,3,2,11,09,43,253,44,11,36,179,42,16,26,056,40,18,28,150,41*78
$GPGSV,3,3,11,23,36,208,43,27,49,039,44,30,00,000,37*45
$BDGSV,3,1,11,02,46,218,40,03,55,172,43,04,23,109,39,06,18,182,37*62
$BDGSV,3,2,11,07,61,029,42,08,37,151,40,09,35,204,41,10,61,337,43*63
$BDGSV,3,3,11,11,60,060,44,05,26,243,38,13,22,175,40*52
$B3CN0,0,18,0,0,0,0,0,0,0,0,29,0,0,0*4E
$GLGSV,2,1,07,21,64,151,47,20,42,041,41,11,37,336,45,09,15,098,39*67
$GLGSV,2,2,07,22,13,191,42,26,00,000,46,08,06,222,00*55
# of Valid meas: 24 [N21 G08 G07 G09 G27 N11 G23 B11 N22 G11 G18 B03 B07 B10 N20 B08 B09 G16 B04 B02 N09 G30 G01 B06  ]
LSQ PV=[24  -1578914.12,   5312773.02,   3146353.98,   0.14,  -0.59,  -0.27, [ 0.07, -0.66],   -4985.07,  -5131.02,  -4380.75,-207.20,5  0.61]
KF  PV=[24  -1578916.69,   5312774.42,   3146352.13,   0.02,  -0.39,  -0.21, [ 0.09, -0.43],   -4984.07,  -5128.52,  -4377.86,-207.16,11  0.57]
LSQ LLH=[ 29.748427, 106.551533, 325.57, 457369.400016 457369.399999]
KF  LLH=[ 29.748404, 106.551554, 326.46, 457369.400014 457369.399999]
KF  FixSet 244285c1      7ee   380500        0
LSQ Dop=[ 1.35, 1.18, 0.61, 1.01]
KF Dop=[ 0.79, 0.69, 0.57, 0.39]
KF UTC=[2019/03/29 - 07:02:31.401 ]
Refix G01: 2, 457369.318203, -4543
Refix G07: 2, 457369.327437, -3679
Refix G08: 2, 457369.332684, -679
Refix G09: 2, 457369.328028, -16
Refix G11: 2, 457369.324329, -4343
Refix G16: 2, 457369.323033, 1139
Refix G18: 2, 457369.323448, -4252
Refix G23: 2, 457369.326490, 1491
Refix G27: 2, 457369.328956, 1360
Refix G30: 2, 457369.318759, -4336
$GNGGA,070231.400,2944.9042,N,10633.0933,E,1,24,0.6,326.5,M,,,,0000*1A
$GNRMC,070231.400,A,2944.9042,N,10633.0933,E,0.18,0.00,290319,,*1D
$GPGSA,A,3,01,07,08,09,11,16,18,23,27,30,,,0.7,0.6,0.4*39
$BDGSA,A,3,02,03,04,06,07,08,09,10,11,,,,0.7,0.6,0.4*22
$GLGSA,A,3,09,11,20,21,22,,,,,,,,0.7,0.6,0.4*23
$GPGSV,3,1,11,01,11,172,37,04,00,000,42,07,46,323,45,08,85,022,46*79
$GPGSV,3,2,11,09,43,253,44,11,36,179,42,16,26,056,40,18,28,150,42*7B
$GPGSV,3,3,11,23,36,208,43,27,49,039,43,30,14,314,38*4E
$BDGSV,3,1,11,02,46,218,40,03,55,172,43,04,23,109,40,06,18,182,37*6C
$BDGSV,3,2,11,07,61,029,42,08,37,151,41,09,35,204,41,10,61,337,42*63
$BDGSV,3,3,11,11,60,060,43,05,26,243,38,13,22,175,40*55
$B3CN0,0,16,0,0,0,0,0,0,0,0,29,0,0,0*40
$GLGSV,2,1,07,21,64,151,47,20,42,041,42,11,37,336,44,09,15,098,39*65
$GLGSV,2,2,07,22,13,191,43,26,00,000,45,08,06,222,00*57
# of Valid meas: 24 [N21 G08 G07 G09 G27 N11 G23 B10 B11 N22 B03 B07 G11 G18 B09 N20 B02 B08 G16 B04 G30 N09 G01 B06  ]
LSQ PV=[24  -1578914.95,   5312772.63,   3146354.14,   0.05,  -0.55,  -0.26, [ 0.12, -0.60],   -5191.74,  -5337.61,  -4587.12,-206.19,5  0.61]
KF  PV=[24  -1578916.41,   5312773.97,   3146352.09,  -0.03,  -0.65,  -0.30, [ 0.22, -0.69],   -5191.57,  -5336.03,  -4585.16,-206.40,11  0.57]
LSQ LLH=[ 29.748429, 106.551542, 325.54, 457370.400017 457370.399999]
KF  LLH=[ 29.748406, 106.551553, 325.99, 457370.400015 457370.399999]
KF  FixSet 244285c1      7ee   380500        0
LSQ Dop=[ 1.36, 1.18, 0.61, 1.01]
KF Dop=[ 0.79, 0.69, 0.57, 0.39]
KF UTC=[2019/03/29 - 07:02:32.401 ]
Refix G01: 2, 457370.318206, -4539
Refix G07: 2, 457370.327439, -3673
Refix G08: 2, 457370.332685, -673
Refix G09: 2, 457370.328028, -10
Refix G11: 2, 457370.324332, -4338
Refix G16: 2, 457370.323033, 1143
Refix G18: 2, 457370.323450, -4247
Refix G23: 2, 457370.326489, 1497
Refix G27: 2, 457370.328955, 1365
Refix G30: 2, 457370.318761, -4331
$GNGGA,070232.400,2944.9043,N,10633.0932,E,1,24,0.6,326.0,M,,,,0000*1C
$GNRMC,070232.400,A,2944.9043,N,10633.0932,E,0.43,0.00,290319,,*10
$GPGSA,A,3,01,07,08,09,11,16,18,23,27,30,,,0.7,0.6,0.4*39
$BDGSA,A,3,02,03,04,06,07,08,09,10,11,,,,0.7,0.6,0.4*22
$GLGSA,A,3,09,11,20,21,22,,,,,,,,0.7,0.6,0.4*23
$GPGSV,3,1,11,01,11,172,37,04,00,000,42,07,46,323,45,08,85,022,46*79
$GPGSV,3,2,11,09,43,253,45,11,36,179,42,16,26,056,39,18,28,150,41*77
$GPGSV,3,3,11,23,36,208,43,27,49,039,44,30,14,314,38*49
$BDGSV,3,1,11,02,46,218,40,03,55,172,43,04,23,109,40,06,18,182,36*6D
$BDGSV,3,2,11,07,61,029,42,08,37,151,40,09,35,204,41,10,61,337,42*62
$BDGSV,3,3,11,11,60,060,43,05,26,243,38,13,22,175,39*5B
$B3CN0,0,0,0,0,0,0,0,0,0,0,29,0,0,0*77
$GLGSV,2,1,07,21,64,151,47,20,42,041,41,11,37,336,44,09,15,098,38*67
$GLGSV,2,2,07,22,13,191,43,26,00,000,46,08,06,222,00*54
# of Valid meas: 24 [N21 G08 G09 N11 G07 G27 G23 B11 G11 B03 B07 B10 N22 G18 B09 N20 B08 G16 B02 B04 G30 N09 G01 B06  ]
LSQ PV=[24  -1578914.75,   5312772.95,   3146354.06,   0.32,  -0.52,  -0.30, [ 0.17, -0.66],   -5397.87,  -5543.76,  -4793.92,-206.34,5  0.61]
KF  PV=[24  -1578916.15,   5312773.53,   3146352.02,   0.17,  -0.49,  -0.24, [ 0.05, -0.57],   -5398.11,  -5542.66,  -4791.70,-206.35,11  0.57]
LSQ LLH=[ 29.748428, 106.551539, 325.71, 457371.400017 457371.399999]
KF  LLH=[ 29.748407, 106.551551, 325.53, 457371.400015 457371.399999]
KF  FixSet 244285c1      7ee   380500        0
LSQ Dop=[ 1.36, 1.18, 0.61, 1.01]
KF Dop=[ 0.79, 0.69, 0.57, 0.39]
KF UTC=[2019/03/29 - 07:02:33.401 ]
Refix G01: 2, 457371.318209, -4539
Refix G07: 2, 457371.327441, -3674
Refix G08: 2, 457371.332685, -673
Refix G09: 2, 457371.328028, -10
Refix G11: 2, 457371.324334, -4338
Refix G16: 2, 457371.323032, 1144
Refix G18: 2, 457371.323453, -4247
Refix G23: 2, 457371.326488, 1497
Refix G27: 2, 457371.328954, 1366
Refix G30: 2, 457371.318764, -4332
$GNGGA,070233.400,2944.9044,N,10633.0931,E,1,24,0.6,325.5,M,,,,0000*1F
$GNRMC,070233.400,A,2944.9044,N,10633.0931,E,0.10,0.00,290319,,*13
$GPGSA,A,3,01,07,08,09,11,16,18,23,27,30,,,0.7,0.6,0.4*39
$BDGSA,A,3,02,03,04,06,07,08,09,10,11,,,,0.7,0.6,0.4*22
$GLGSA,A,3,09,11,20,21,22,,,,,,,,0.7,0.6,0.4*23
$GPGSV,3,1,11,01,11,172,37,04,00,000,42,07,46,323,44,08,85,022,46*78
$GPGSV,3,2,11,09,43,253,45,11,36,179,42,16,26,056,39,18,28,150,41*77
$GPGSV,3,3,11,23,36,208,43,27,49,039,44,30,14,314,37*46
$BDGSV,3,1,12,02,46,218,39,03,55,172,43,04,23,109,40,06,18,182,37*61
$BDGSV,3,2,12,07,61,029,42,08,37,151,40,09,35,204,41,10,61,337,42*61
$BDGSV,3,3,12,11,60,060,43,05,26,243,36,13,22,175,40,16,22,189,00*6F
$B3CN0,0,0,0,0,0,0,0,0,0,0,29,0,0,0*77
$GLGSV,2,1,07,21,64,151,47,20,42,041,41,11,37,336,45,09,15,098,38*66
$GLGSV,2,2,07,22,13,191,42,26,00,000,46,08,06,222,00*55
# of Valid meas: 24 [N21 G08 G09 G07 G23 G27 B11 N11 G11 B03 B10 B07 N20 N22 G18 B09 B08 G16 B02 B04 N09 G01 G30 B06  ]
LSQ PV=[24  -1578914.56,   5312772.85,   3146353.75,   0.25,  -0.69,  -0.28, [ 0.13, -0.77],   -5604.43,  -5750.50,  -5001.46,-207.24,5  0.61]
KF  PV=[24  -1578915.81,   5312773.15,   3146351.98,   0.10,  -0.35,  -0.12, [ 0.07, -0.38],   -5604.81,  -5749.53,  -4998.51,-206.93,11  0.57]
LSQ LLH=[ 29.748426, 106.551538, 325.44, 457372.400018 457372.399999]
KF  LLH=[ 29.748409, 106.551549, 325.11, 457372.400016 457372.399999]
KF  FixSet 244285c1      7ee   380500        0
LSQ Dop=[ 1.36, 1.18, 0.61, 1.01]
KF Dop=[ 0.79, 0.69, 0.57, 0.39]
KF UTC=[2019/03/29 - 07:02:34.401 ]
Refix G01: 2, 457372.318212, -4542
Refix G07: 2, 457372.327444, -3678
Refix G08: 2, 457372.332686, -677
Refix G09: 2, 457372.328028, -13
Refix G11: 2, 457372.324337, -4341
Refix G16: 2, 457372.323031, 1140
Refix G18: 2, 457372.323456, -4250
Refix G23: 2, 457372.326487, 1494
Refix G27: 2, 457372.328953, 1362
Refix G30: 2, 457372.318767, -4335
$GNGGA,070234.400,2944.9045,N,10633.0929,E,1,24,0.6,325.1,M,,,,0000*14
$GNRMC,070234.400,A,2944.9045,N,10633.0929,E,0.14,0.00,290319,,*18
$GPGSA,A,3,01,07,08,09,11,16,18,23,27,30,,,0.7,0.6,0.4*39
$BDGSA,A,3,02,03,04,06,07,08,09,10,11,,,,0.7,0.6,0.4*22
$GLGSA,A,3,09,11,20,21,22,,,,,,,,0.7,0.6,0.4*23
$GPGSV,3,1,11,01,11,172,37,04,00,000,41,07,46,323,44,08,85,022,46*7B
$GPGSV,3,2,11,09,43,253,45,11,36,179,43,16,26,056,39,18,28,150,41*76
