i=1
Rf R0 Config = ff777073
Rf R1 Config = 00dffbfe
Rf R52 Config = 00dfee40
i=2
Rf R0 Config = 007772f3
Rf R1 Config = 00dfdbf2
Rf R52 Config = 00db2f50
i=3
Rf R0 Config = 007772f3
Rf R1 Config = 00df3bea
Rf R52 Config = 00de6ef0
i=4
Rf R0 Config = 00777273
Rf R1 Config = 00dffbfe
Rf R52 Config = 00de2e00
SD initialized success
Create debug.log Failed! 3
Start Channel by LuYu
$GNGGA,000000.000,,,,,0,00,,,M,,,,0000*2B
$GNRMC,000000.000,A,,,,,,,060180,,*29
$GPGSA,A,1,,,,,,,,,,,,,,,*1E
$BDGSA,A,1,,,,,,,,,,,,,,,*0F
$GLGSA,A,1,,,,,,,,,,,,,,,*02
$B3CN0,0,0,0,0,0,0,0,0,0,0,0,0,0,0*4C
---00000001--- Acq_st=3 0  2019-4-3 9:37:51 
[00]  03(G04)  1 25  7  0    965.3  2045999.6  0.2  1 0  852 1658 1255
[01]  06(G07)  1  7  7  0   1750.0  2045999.0 -0.0  1 0 1003 1493 1276
$GNGGA,000000.000,,,,,0,00,,,M,,,,0000*2B
$GNRMC,000000.000,A,,,,,,,060180,,*29
$GPGSA,A,1,,,,,,,,,,,,,,,*1E
$BDGSA,A,1,,,,,,,,,,,,,,,*0F
$GLGSA,A,1,,,,,,,,,,,,,,,*02
$B3CN0,0,0,0,0,0,0,0,0,0,0,0,0,0,0*4C
---00000002--- Acq_st=3 0  2019-4-3 9:37:52 
[00]  03(G04)  7  7  7  0    966.7  2045998.7  0.9 10 0  894 1493 1060
[01]  06(G07)  1 32  7  0   1795.7  2045997.5  0.9  1 0 1078 1504  735
[02]  12(G13)  1 25  7  0   -327.7  2046001.6  0.5  1 0 1386 2416 1156
[03]  16(G17)  1 20  7  0  -2336.1  2046004.9  0.2  1 0 2001 4247 4062
[04]  18(G19)  1  7  7  0  -3577.5  2046004.6 -0.0  1 0  196  263  160
$GNGGA,000000.000,,,,,0,00,,,M,,,,0000*2B
$GNRMC,000000.000,A,,,,,,,060180,,*29
$GPGSA,A,1,,,,,,,,,,,,,,,*1E
$BDGSA,A,1,,,,,,,,,,,,,,,*0F
$GLGSA,A,1,,,,,,,,,,,,,,,*02
$B3CN0,0,0,0,0,0,0,0,0,0,0,0,0,0,0*4C
---00000003--- Acq_st=3 0  2019-4-3 9:37:53 
[00]  03(G04)  7 39 11  0    976.0  2045998.7 -0.2  2 0 1114 1295  619
[01]  06(G07)  7 35  7  0   1805.3  2045997.6  0.3  5 0 1410 1636  626
[02]  12(G13)  7 26  7  0   -318.9  2046000.2  0.6 10 0 2027 2562 1084
[03]  16(G17)  7 14  7  0  -2327.0  2046002.9  0.9 10 0 3589 4107 1532
[04]  18(G19)  1  7  7  0  -4055.8  2046003.9  0.1  1 0   82  361  133
[05]  27(G28)  1 21  7  0  -2831.2  2046005.4  0.2  1 0 1064 1189 1130
[06]  29(G30)  1 22  7  0   -142.1  2046001.5  0.0  1 0 1952 3605 2173
[16]  38(B02)  1 25 10  0  -1250.0  4092004.5 -0.2  1 0  341  867 1092
$GNGGA,000000.000,,,,,0,00,,,M,,,,0000*2B
$GNRMC,000000.000,A,,,,,,,060180,,*29
$GPGSA,A,1,,,,,,,,,,,,,,,*1E
$BDGSA,A,1,,,,,,,,,,,,,,,*0F
$GLGSA,A,1,,,,,,,,,,,,,,,*02
$GPGSV,1,1,03,04,00,000,39,07,00,000,35,13,00,000,26*43
$B3CN0,0,0,0,0,0,0,0,0,0,0,0,0,0,0*4C
---00000004--- Acq_st=3 0  2019-4-3 9:37:54 
[00]  03(G04)  7 38 11  0    971.7  2045998.7 -0.0  2 0  319  624   66
[01]  06(G07)  7 41  7  0   1805.3  2045997.6 -0.1  2 0 1313 2079 1298
[02]  12(G13)  7 44  9  0   -319.5  2046000.3  0.0  2 0 1532 2075  836
[03]  16(G17)  7 46  7  0  -2330.4  2046002.9 -0.0  2 0 3094 4180 2026
[04]  18(G19)  1  7  7  0  -4187.8  2046004.1  0.0  1 0  498  217  466
[05]  27(G28)  7 23  7  0  -2836.3  2046003.6  0.5 10 0  866 1247  690
[06]  29(G30)  7 19  7  0   -142.6  2046000.0  0.8 10 0 2648 3238 1335
[16]  38(B02)  1 37 25  0  -1099.7  4092003.0  0.9  1 0  847  928  197
[17]  41(B05)  1 19 10  1  -1291.7  4092003.0  0.0  1 0  331  321  140
$GNGGA,000000.000,,,,,0,00,,,M,,,,0000*2B
$GNRMC,000000.000,A,,,,,,,060180,,*29
$GPGSA,A,1,,,,,,,,,,,,,,,*1E
$BDGSA,A,1,,,,,,,,,,,,,,,*0F
$GLGSA,A,1,,,,,,,,,,,,,,,*02
$GPGSV,2,1,06,04,00,000,38,07,00,000,41,13,00,000,44,17,00,000,46*77
$GPGSV,2,2,06,28,00,000,23,30,00,000,19*7F
$B3CN0,0,0,0,0,0,0,0,0,0,0,0,0,0,0*4C
---00000005--- Acq_st=3 0  2019-4-3 9:37:55 
[00]  03(G04)  7 38  7  0    977.3  2045998.7 -0.0  2 0  934  880  693
[01]  06(G07)  7 42  7  0   1804.3  2045997.6 -0.0  2 0 1402 1575  689
[02]  12(G13)  7 43  7  0   -316.0  2046000.3 -0.0  2 0 1718 2342 1209
[03]  16(G17)  7 46  7  0  -2324.6  2046002.9  0.0  2 0 3392 4115 1967
[04]  18(G19)  1 15  7  0  -4239.5  2046004.0  0.0  1 0  386  411  353
[05]  27(G28)  7 38  7  0  -2836.5  2046003.7 -0.2  2 0  255  835  531
[06]  29(G30)  7 46 10  0   -134.9  2046000.1  0.0  2 0 2069 2984 1886
[16]  38(B02)  f 34 23  0  -1098.3  4092002.7  0.6  2 0 1057  740   69
[17]  41(B05)  1 17 24  1  -1100.7  4092002.9 -0.0  1 0  295  272  233
[18]  49(B13)  1  7  7  0  -2248.2  4092004.8 -0.1  1 0  576  893  322
$GNGGA,093756.335,,,,,0,00,,,M,,,,0000*20
$GNRMC,093756.335,A,,,,,,,090180,,*2D
$GPGSA,A,1,,,,,,,,,,,,,,,*1E
$BDGSA,A,1,,,,,,,,,,,,,,,*0F
$GLGSA,A,1,,,,,,,,,,,,,,,*02
$GPGSV,2,1,06,04,00,000,38,07,00,000,42,13,00,000,43,17,00,000,46*73
$GPGSV,2,2,06,28,00,000,38,30,00,000,46*7F
$BDGSV,1,1,01,02,00,000,34*5C
$B3CN0,0,0,0,0,0,0,0,0,0,0,0,0,0,0*4C
---00000006--- Acq_st=3 0  2019-4-3 9:37:56 
[00]  03(G04)  f 38  9  0    972.8  2045998.7  0.3  2 0 1040 1323  678
[01]  06(G07)  f 41  7  0   1807.1  2045997.6  0.0  2 0 1763 2222 1137
[02]  12(G13)  f 43 11  0   -316.5  2046000.3 -0.0  2 0 1716 2910 1788
[03]  16(G17)  f 45  7  0  -2326.6  2046002.9 -0.0  2 0 3493 5005 2277
[04]  18(G19)  1  8  7  0  -3847.9  2046004.7 -0.0  1 0   94  387  537
[05]  27(G28)  f 38  7  0  -2830.1  2046003.6 -0.1  2 0  615 1179  387
[06]  29(G30)  7 44  7  0   -139.2  2046000.1 -0.0  2 0 1682 2752 1246
[16]  38(B02)  f 35 27  0  -1102.9  4092002.9  0.0  2 0  852 1186  810
[17]  41(B05)  1 10 10  0  -1265.5  4092003.4  0.1  1 0  677  528  522
[18]  49(B13)  1  7  7  0  -2254.9  4092004.4  0.3  1 0  860 1243  737
$GNGGA,093757.335,,,,,0,00,,,M,,,,0000*21
$GNRMC,093757.335,A,,,,,,,030419,,*23
$GPGSA,A,1,,,,,,,,,,,,,,,*1E
$BDGSA,A,1,,,,,,,,,,,,,,,*0F
$GLGSA,A,1,,,,,,,,,,,,,,,*02
$GPGSV,2,1,06,04,00,000,38,07,00,000,41,13,00,000,43,17,00,000,46*70
$GPGSV,2,2,06,28,00,000,38,30,00,000,44*7D
$BDGSV,1,1,01,02,00,000,35*5D
$B3CN0,0,0,0,0,0,0,0,0,0,0,0,0,0,0*4C
---00000007--- Acq_st=3 0  2019-4-3 9:37:57 
[00]  03(G04)  f 38  7  0    965.9  2045998.6 -0.2  2 0  714 1543 1014
[01]  06(G07)  f 42  7  0   1807.7  2045997.6  0.0  2 0 1626 2181 1051
[02]  12(G13)  f 43  8  0   -320.2  2046000.3  0.0  2 0 2055 2666 1285
[03]  16(G17)  f 45  7  0  -2328.6  2046002.9 -0.0  2 0 3379 4834 1825
[05]  27(G28)  f 36  7  0  -2841.9  2046003.6  0.1  2 0  919 1193  768
[06]  29(G30)  7 44  7  0   -141.0  2046000.2  0.0  2 0 1139 2356 1115
[16]  38(B02) 1f 35 22  0  -1102.1  4092002.5 -0.4  2 0  604  779  263
[17]  41(B05)  7 40 27  0  -1111.9  4092003.3 -0.9  2 0  110 1100 1768
[18]  49(B13)  1  7 15  0  -2253.8  4092004.4  0.4  1 0  347 1324  744
[19]  65(B29)  1  7  7  0  -2000.0  4092005.7  0.0  1 0  518  472  589
$GNGGA,093758.335,,,,,0,00,,,M,,,,0000*2E
$GNRMC,093758.335,A,,,,,,,030419,,*2C
$GPGSA,A,1,,,,,,,,,,,,,,,*1E
$BDGSA,A,1,,,,,,,,,,,,,,,*0F
$GLGSA,A,1,,,,,,,,,,,,,,,*02
$GPGSV,2,1,06,04,00,000,38,07,00,000,42,13,00,000,43,17,00,000,45*70
$GPGSV,2,2,06,28,00,000,36,30,00,000,44*73
$BDGSV,1,1,02,02,00,000,35,05,00,000,39*61
$B3CN0,0,0,0,0,0,0,0,0,0,0,0,0,0,0*4C
---00000008--- Acq_st=3 0  2019-4-3 9:37:58 
[00]  03(G04)  f 37  7  0    976.6  2045998.7  0.5  2 0 1112 1021  378
[01]  06(G07)  f 41  9  0   1810.7  2045997.6 -0.1  2 0  754 1409 1015
[02]  12(G13)  f 43  7  0   -313.5  2046000.3  0.0  2 0 1719 2225  737
[03]  16(G17)  f 45  7  0  -2321.4  2046002.9 -0.0  2 0 3351 5095 2440
[05]  27(G28)  f 36  7  0  -2828.9  2046003.6 -0.5  2 0  579  881  683
[06]  29(G30)  7 43  9  0   -128.2  2046000.2  0.0  2 0 1080 2510 1435
[16]  38(B02) 1f 36 26  0  -1100.4  4092002.8 -0.6  2 0  584  813  745
[17]  41(B05)  f 41 19  0  -1100.4  4092003.2  0.5  2 0  603  894 1362
[18]  49(B13)  1  7 10  0  -2251.5  4092004.3  0.5  1 0  576  842  819
[19]  65(B29)  1  7  7  0  -2055.1  4092008.6  0.0  1 0  425 1539 2381
$GNGGA,093759.335,,,,,0,00,,,M,,,,0000*2F
$GNRMC,093759.335,A,,,,,,,030419,,*2D
$GPGSA,A,1,,,,,,,,,,,,,,,*1E
$BDGSA,A,1,,,,,,,,,,,,,,,*0F
$GLGSA,A,1,,,,,,,,,,,,,,,*02
$GPGSV,2,1,06,04,00,000,37,07,00,000,41,13,00,000,43,17,00,000,45*7C
$GPGSV,2,2,06,28,00,000,36,30,00,000,43*74
$BDGSV,1,1,02,02,00,000,35,05,00,000,41*6E
$B3CN0,0,0,0,0,0,0,0,0,0,0,0,0,0,0*4C
---00000009--- Acq_st=7 0  2019-4-3 9:37:59 
[00]  03(G04)  f 36  7  0    954.3  2045998.7  0.7  2 0  361  743  663
[01]  06(G07)  f 39 11  0   1799.7  2045997.7  0.0  2 0  693 1220  627
[02]  12(G13)  f 43  7  0   -323.4  2046000.3  0.0  2 0 2179 2895 1396
[03]  16(G17)  f 45  7  0  -2334.9  2046003.0  0.0  2 0 3093 4979 2827
[05]  27(G28)  f 37  7  0  -2843.6  2046003.6 -0.3  2 0  869 1430  838
[06]  29(G30)  7 43  7  0   -145.0  2046000.2 -0.1  2 0 1054 2205  967
[16]  38(B02) 1f 36 23  0  -1110.1  4092002.8  0.6  2 0  609  747  456
[17]  41(B05)  f 42 23  0  -1112.3  4092002.9 -0.3  2 0  506 1298 1067
[19]  65(B29)  7 28  7  0  -2065.0  4092005.3  0.1 10 0 2070 2319  895
[32]  83(N02)  1 16  7  0  -2677.9  1022002.0  0.0  1 0   367  213  325
[33]  86(N05)  1  7  7  0  -2250.0  1022002.8  0.1  1 0   256  435  972
[48]  38(B02)  1 22 25  0  -1075.2 20460021.2 -0.0  1 0  145  540  234
[49]  41(B05)  1 23 23  1   -719.0 20460015.4 -0.2  1 0  171  442  533
$GNGGA,093800.335,,,,,0,00,,,M,,,,0000*2C
$GNRMC,093800.335,A,,,,,,,030419,,*2E
$GPGSA,A,1,,,,,,,,,,,,,,,*1E
$BDGSA,A,1,,,,,,,,,,,,,,,*0F
$GLGSA,A,1,,,,,,,,,,,,,,,*02
$GPGSV,2,1,06,04,00,000,36,07,00,000,39,13,00,000,43,17,00,000,45*72
$GPGSV,2,2,06,28,00,000,37,30,00,000,43*75
$BDGSV,1,1,03,02,00,000,36,05,00,000,42,29,00,000,28*5E
$B3CN0,0,0,0,0,0,0,0,0,0,0,0,0,0,0*4C
---00000010--- Acq_st=7 0  2019-4-3 9:38:0 
[00]  03(G04)  f 36 11  0    971.1  2045998.7  0.2  2 0  729  893  292
[01]  06(G07)  f 38  7  0   1808.5  2045997.7 -0.0  2 0  653 1503 1219
[02]  12(G13)  f 44 11  0   -317.0  2046000.3  0.0  2 0 1610 2621  957
[03]  16(G17)  f 45  7  0  -2327.4  2046002.9 -0.0  2 0 3512 5238 2636
[05]  27(G28)  f 38  7  0  -2836.6  2046003.5  0.2  2 0  956 1453  769
[06]  29(G30)  7 43  9  0   -135.9  2046000.1  0.0  2 0 1583 2374 1005
[16]  38(B02) 1f 36 24  0  -1100.1  4092002.8 -0.2  2 0  663  528  464
[17]  41(B05) 1f 42 24  0  -1104.3  4092002.9  0.3  2 0  542 1551  838
[19]  65(B29)  7 44  7  0  -2055.6  4092005.3 -0.0  2 0 1489 1848  933
[32]  83(N02)  1 17 16  0  -2124.9  1022002.3 -0.0  1 0   125  291   82
[33]  86(N05)  1 30 19  0  -2136.6  1022001.9  1.0  1 0   894  986  552
[48]  38(B02)  1 21 22  0   -424.5 20460020.6  0.0  1 0  388  551  480
[49]  41(B05)  1 23 26  1   -712.3 20460019.1 -0.3  1 0  635  611  104
$GNGGA,093801.335,,,,,0,00,,,M,,,,0000*2D
$GNRMC,093801.335,A,,,,,,,030419,,*2F
$GPGSA,A,1,,,,,,,,,,,,,,,*1E
$BDGSA,A,1,,,,,,,,,,,,,,,*0F
$GLGSA,A,1,,,,,,,,,,,,,,,*02
$GPGSV,2,1,06,04,00,000,36,07,00,000,38,13,00,000,44,17,00,000,45*74
$GPGSV,2,2,06,28,00,000,38,30,00,000,43*7A
$BDGSV,1,1,03,02,00,000,36,05,00,000,42,29,00,000,44*54
$B3CN0,0,0,0,0,0,0,0,0,0,0,0,0,0,0*4C
---00000011--- Acq_st=3 0  2019-4-3 9:38:1 
[00]  03(G04)  f 37 12  0    962.0  2045998.7 -0.3  2 0  548  640  518
[01]  06(G07)  f 36  7  0   1800.1  2045997.7 -0.3  2 0  399  744  871
[02]  12(G13)  f 43  7  0   -319.9  2046000.4 -0.0  2 0 1449 2710 1823
[03]  16(G17)  f 46  7  0  -2330.0  2046003.0  0.0  2 0 3802 5169 2804
[05]  27(G28)  f 39  7  0  -2831.9  2046003.5 -0.1  2 0 1050 1280  712
[06]  29(G30)  7 43  7  0   -138.3  2046000.1  0.0  2 0 2231 2735 1252
[16]  38(B02) 1f 36 23  0  -1101.5  4092002.8  0.4  2 0  728 1023  651
[17]  41(B05) 1f 43 22  0  -1108.1  4092002.9  0.2  2 0 1064 2008 1274
[19]  65(B29)  7 44  7  0  -2058.5  4092005.3 -0.0  2 0 2178 2447 1158
[32]  83(N02)  1 17 18  0  -1827.7  1022002.7  0.3  1 0   456  263  115
[33]  86(N05)  7 38 19  0  -2142.7  1022001.3 -0.4  2 0   656  897  296
[48]  38(B02)  1 10 10  0   -847.1 20460016.3  0.0  1 0  341  515  114
[49]  41(B05)  1 21 25  1   -280.9 20460023.1  0.0  1 0  920  410  185
$GNGGA,093802.335,,,,,0,00,,,M,,,,0000*2E
$GNRMC,093802.335,A,,,,,,,030419,,*2C
$GPGSA,A,1,,,,,,,,,,,,,,,*1E
$BDGSA,A,1,,,,,,,,,,,,,,,*0F
$GLGSA,A,1,,,,,,,,,,,,,,,*02
$GPGSV,2,1,06,04,00,000,37,07,00,000,36,13,00,000,43,17,00,000,46*7F
$GPGSV,2,2,06,28,00,000,39,30,00,000,43*7B
$BDGSV,1,1,03,02,00,000,36,05,00,000,43,29,00,000,44*55
$B3CN0,0,0,0,0,0,0,0,0,0,0,0,0,0,0*4C
---00000012--- Acq_st=3 0  2019-4-3 9:38:2 
[00]  03(G04)  f 37  7  0    962.6  2045998.6 -0.3  2 0  834 1072  354
[01]  06(G07)  f 34  7  0   1798.3  2045997.7 -0.3  2 0  513  894  258
[02]  12(G13)  f 44  7  0   -320.0  2046000.4  0.1  2 0 1227 2451 1076
[03]  16(G17)  f 46  7  0  -2328.1  2046003.0  0.0  2 0 3910 4792 2323
[04]  18(G19)  1 23  7  0  -3554.5  2046005.7  0.1  1 0 1401 2875 1541
[05]  27(G28)  f 40  7  0  -2832.3  2046003.6 -0.0  2 0  849 1049  709
[06]  29(G30)  f 44  7  0   -137.6  2046000.1  0.0  2 0 2522 3031 1017
[16]  38(B02) 1f 36 26  0  -1101.9  4092002.8  0.5  2 0  585  652  220
[17]  41(B05) 1f 43 17  0  -1106.5  4092002.8  0.1  2 0 1340 1638  794
[19]  65(B29)  7 43  7  0  -2055.6  4092005.3 -0.1  2 0 2171 2468 1171
[32]  83(N02)  1 13 15  0  -2187.7  1022002.2 -0.0  1 0   467  570  288
[33]  86(N05)  7 38 19  0  -2140.5  1022001.4  0.2  2 0   514 1013  366
[48]  38(B02)  1 10 10  0  -1283.6 20460022.3  0.1  1 0  256  697  531
[49]  41(B05)  1 24 23  0   -459.4 20460022.5 -0.2  1 0  654  420  395
$GNGGA,093803.335,,,,,0,00,,,M,,,,0000*2F
$GNRMC,093803.335,A,,,,,,,030419,,*2D
$GPGSA,A,1,,,,,,,,,,,,,,,*1E
$BDGSA,A,1,,,,,,,,,,,,,,,*0F
$GLGSA,A,1,,,,,,,,,,,,,,,*02
$GPGSV,2,1,07,04,00,000,36,07,00,000,33,13,00,000,44,17,00,000,46*7D
$GPGSV,2,2,07,19,00,000,19,28,00,000,40,30,00,000,45*42
$BDGSV,1,1,03,02,00,000,36,05,00,000,42,29,00,000,43*53
$B3CN0,0,0,0,0,0,0,0,0,0,0,0,0,0,0*4C
---00000013--- Acq_st=3 0  2019-4-3 9:38:3 
[00]  03(G04)  f 36  7  0    972.0  2045998.7  0.0  2 0  378  680  487
[01]  06(G07)  f 33  7  0   1803.6  2045997.6  0.1  5 0 1198  800  386
[02]  12(G13)  f 44  7  0   -311.1  2046000.3  0.1  2 0 2038 2847 1124
[03]  16(G17)  f 46  7  0  -2324.5  2046002.9  0.0  2 0 3342 5532 2901
[04]  18(G19)  7 20  7  0  -3546.1  2046004.5  0.8 10 0 2482 2749  976
[05]  27(G28)  f 40  7  0  -2829.5  2046003.6  0.2  2 0  650 1584 1054
[06]  29(G30)  f 45  7  0   -130.9  2046000.1  0.0  2 0 2221 3319 1356
[16]  38(B02) 1f 36 27  0  -1095.7  4092002.6 -0.2  2 0  817  941  447
[17]  41(B05) 1f 42 26  0  -1102.3  4092002.7  0.0  2 0 1417 1791  610
[19]  65(B29)  7 43  7  0  -2052.1  4092005.3  0.0  2 0 1829 2257 1144
[32]  83(N02)  1  9 14  0  -2188.1  1022001.4 -0.1  1 0   331  358  196
[33]  86(N05)  7 38 16  0  -2134.6  1022001.3  0.1  2 0   300  417  601
---00000014--- Acq_st=3 0  2019-4-3 9:38:4 
[00]  03(G04)  f 37 10  0    967.1  2045998.7  0.2  2 0 1229 1002  204
[01]  06(G07)  f 35  7  0   1814.4  2045997.5 -0.3  2 0 1048 1185  486
[02]  12(G13)  f 44  7  0   -312.6  2046000.3 -0.1  2 0 1818 2505 1038
[03]  16(G17)  f 46  7  0  -2323.3  2046002.9 -0.0  2 0 3385 4678 2032
[04]  18(G19)  7 44  7  0  -3545.1  2046004.5  0.1  2 0 2249 2674  571
[05]  27(G28)  f 39  7  0  -2828.7  2046003.7  0.0  2 0  375 1155  326
[06]  29(G30)  f 45  7  0   -130.9  2046000.1 -0.0  2 0 2286 3281 1559
[16]  38(B02) 1f 36 22  0  -1092.2  4092002.7  0.5  2 0  797  843  304
[17]  41(B05) 1f 43 16  0  -1096.8  4092002.8 -0.1  2 0 1341 1773 1023
[18]  49(B13)  1  7  7  0  -1750.0  4092005.1 -0.1  1 0  263  568  504
[19]  65(B29) 1f 43  7  0  -2049.8  4092005.3 -0.0  2 0 2265 2493 1177
[33]  86(N05)  f 29 11  0  -2130.2  1022001.2 -0.4  5 0   600  938  539
[48]  38(B02)  1 20 21  1  -1065.8 20460018.6 -0.0  1 0  185  254  240
[49]  41(B05)  1 23 25  0   -795.3 20460019.0 -0.0  1 0  560  191  147
$GNGGA,093804.335,,,,,0,00,,,M,,,,0000*28
$GNRMC,093804.335,A,,,,,,,030419,,*2A
$GPGSA,A,1,,,,,,,,,,,,,,,*1E
$BDGSA,A,1,,,,,,,,,,,,,,,*0F
$GLGSA,A,1,,,,,,,,,,,,,,,*02
$GPGSV,2,1,07,04,00,000,37,07,00,000,35,13,00,000,44,17,00,000,46*7A
$GPGSV,2,2,07,19,00,000,44,28,00,000,39,30,00,000,45*44
$BDGSV,1,1,03,02,00,000,36,05,00,000,43,29,00,000,43*52
$B3CN0,0,0,0,0,0,0,0,0,0,0,0,0,0,0*4C
---00000015--- Acq_st=3 0  2019-4-3 9:38:5 
[00]  03(G04)  f 38  7  0    964.5  2045998.7 -0.1  2 0  945 1339  503
[01]  06(G07)  f 39  7  0   1807.0  2045997.5  0.0  2 0 1928 2036 1214
[02]  12(G13)  f 44  7  0   -315.9  2046000.4  0.0  2 0 1591 2475  963
[03]  16(G17)  f 46  8  0  -2330.5  2046003.0  0.0  2 0 3541 5184 2609
[04]  18(G19)  7 43  7  0  -3552.6  2046004.5  0.1  2 0 1020 2126 1552
[05]  27(G28)  f 39  7  0  -2835.6  2046003.7  0.0  2 0 1059 1654  590
[06]  29(G30)  f 45  7  0   -139.4  2046000.1 -0.0  2 0 2675 3573 1597
[16]  38(B02) 1f 36 23  0  -1107.4  4092002.9 -0.2  2 0  739 1349  684
[17]  41(B05) 1f 42 25  0  -1107.3  4092002.8 -0.0  2 0 1658 1646  600
[18]  49(B13)  1  7  8  0  -1760.0  4092007.1  0.0  1 0  738 1783 1272
[19]  65(B29) 1f 43  9  0  -2057.6  4092005.3  0.0  2 0 2047 2361  990
[33]  86(N05)  f 40 13  0  -2137.8  1022001.3 -0.3  2 0   488 1217  496
[48]  38(B02)  1 36 18  0  -1136.8 20460023.6 -0.1  1 0  444  336  364
[49]  41(B05)  1 24 19  0   -284.7 20460018.4  0.1  1 0  518  267  643
[51]  65(B29)  1  7  7  0  -1548.0 20460033.7 -0.0  1 0  313  504  692
$GNGGA,093805.335,,,,,0,00,,,M,,,,0000*29
$GNRMC,093805.335,A,,,,,,,030419,,*2B
$GPGSA,A,1,,,,,,,,,,,,,,,*1E
$BDGSA,A,1,,,,,,,,,,,,,,,*0F
$GLGSA,A,1,,,,,,,,,,,,,,,*02
$GPGSV,2,1,07,04,00,000,38,07,00,000,39,13,00,000,44,17,00,000,46*79
$GPGSV,2,2,07,19,00,000,43,28,00,000,39,30,00,000,45*43
$BDGSV,1,1,03,02,00,000,36,05,00,000,42,29,00,000,43*53
$B3CN0,0,0,0,0,0,0,0,0,0,0,0,0,0,0*4C
---00000016--- Acq_st=3 0  2019-4-3 9:38:6 
[00]  03(G04)  f 37  7  0    967.8  2045998.7  0.1  2 0 1128 1451  779
[01]  06(G07)  f 41  7  0   1807.7  2045997.5  0.0  2 0 1903 1860  945
[02]  12(G13)  f 44  7  0   -316.0  2046000.3  0.0  2 0 2086 3203 1515
[03]  16(G17)  f 46  7  0  -2326.1  2046003.0 -0.0  2 0 3623 5144 2498
[04]  18(G19)  7 42  7  0  -3549.3  2046004.5 -0.0  2 0 1259 1851  443
[05]  27(G28)  f 40  7  0  -2831.1  2046003.6 -0.0  2 0 1180 1226  410
[06]  29(G30)  f 44  7  0   -135.1  2046000.1  0.0  2 0 1998 3489 2236
[16]  38(B02) 1f 37 28  0  -1109.0  4092002.7  0.4  2 0  848  616   38
[17]  41(B05) 1f 42 23  0  -1104.6  4092002.8 -0.3  2 0 1210 1411  581
[18]  49(B13)  7 29  7  0  -1750.1  4092004.4  0.1 10 0 1252 1284  449
[19]  65(B29) 1f 43  7  0  -2054.8  4092005.3 -0.0  2 0 1468 2161  813
[33]  86(N05)  f 40  7  0  -2135.2  1022001.3  0.2  2 0   549 1102  395
[48]  38(B02)  1 10 18  1  -1371.8 20460019.6  0.1  1 0  668  912  410
[49]  41(B05)  1 20 21  0   -598.9 20460019.4  0.2  1 0  618  855  805
[51]  65(B29)  1 10  7  0  -1079.6 20460033.6  0.3  1 0  406  464  124
$GNGGA,093806.335,,,,,0,00,,,M,,,,0000*2A
$GNRMC,093806.335,A,,,,,,,030419,,*28
$GPGSA,A,1,,,,,,,,,,,,,,,*1E
$BDGSA,A,1,,,,,,,,,,,,,,,*0F
$GLGSA,A,1,,,,,,,,,,,,,,,*02
$GPGSV,2,1,07,04,00,000,37,07,00,000,41,13,00,000,44,17,00,000,46*79
$GPGSV,2,2,07,19,00,000,42,28,00,000,40,30,00,000,44*4D
$BDGSV,1,1,04,02,00,000,37,05,00,000,42,13,00,000,29,29,00,000,43*6C
$B3CN0,0,0,0,0,0,0,0,0,0,0,0,0,0,0*4C
---00000017--- Acq_st=3 0  2019-4-3 9:38:7 
[00]  03(G04)  f 37  7  0    964.4  2045998.7  0.2  2 0  473  420  223
[01]  06(G07)  f 42  7  0   1812.1  2045997.5  0.0  2 0 1439 1893 1072
[02]  12(G13)  f 44  7  0   -314.7  2046000.4  0.0  2 0 1731 2688 1154
[03]  16(G17)  f 46  7  0  -2325.4  2046003.0  0.0  2 0 3638 5380 2421
[04]  18(G19)  7 42  7  0  -3549.5  2046004.6 -0.1  2 0 1034 1393  493
[05]  27(G28)  f 39  7  0  -2832.1  2046003.6 -0.1  2 0  978 1656  883
[06]  29(G30)  f 45  7  0   -131.5  2046000.1 -0.0  2 0 1843 3218 1506
[16]  38(B02) 1f 36 25  0  -1100.2  4092002.8 -0.3  2 0  775 1091  618
[17]  41(B05) 1f 43 25  0  -1105.6  4092002.8  0.1  2 0 1396 1611  786
[18]  49(B13)  7 42 10  0  -1746.8  4092004.4 -0.0  2 0 1152 1340  598
[19]  65(B29) 1f 44  7  0  -2056.7  4092005.2  0.0  2 0 1831 2212  863
[33]  86(N05)  f 40 12  0  -2133.5  1022001.2 -0.1  2 0   662 1038  697
[48]  38(B02)  1 10 16  1  -2215.4 20460022.8 -0.1  1 0  453  524  534
[49]  41(B05)  1 25 22  0  -1086.2 20460022.7 -0.0  1 0  528  434  816
[51]  65(B29)  1  7  9  0  -1071.5 20460033.7 -0.0  1 0  308  461  350
$GNGGA,093807.335,,,,,0,00,,,M,,,,0000*2B
$GNRMC,093807.335,A,,,,,,,030419,,*29
$GPGSA,A,1,,,,,,,,,,,,,,,*1E
$BDGSA,A,1,,,,,,,,,,,,,,,*0F
$GLGSA,A,1,,,,,,,,,,,,,,,*02
$GPGSV,2,1,07,04,00,000,37,07,00,000,42,13,00,000,44,17,00,000,46*7A
$GPGSV,2,2,07,19,00,000,42,28,00,000,39,30,00,000,45*42
$BDGSV,1,1,04,02,00,000,36,05,00,000,43,13,00,000,42,29,00,000,44*66
$B3CN0,0,0,0,0,0,0,0,0,0,0,0,0,0,0*4C
---00000018--- Acq_st=3 0  2019-4-3 9:38:8 
[00]  03(G04)  f 36  9  0    961.4  2045998.7 -0.1  2 0  856 1062  473
[01]  06(G07)  f 42  7  0   1807.0  2045997.6 -0.0  2 0 1553 2159 1212
[02]  12(G13)  f 44  7  0   -316.6  2046000.3 -0.0  2 0 1885 3163 1260
[03]  16(G17)  f 46 12  0  -2328.6  2046003.0  0.0  2 0 3334 5214 2592
[04]  18(G19)  f 41  7  0  -3551.0  2046004.6 -0.0  2 0 1083 1180  622
[05]  27(G28)  f 40 10  0  -2831.4  2046003.6 -0.0  2 0  901 1211  224
[06]  29(G30)  f 45  7  0   -136.1  2046000.1  0.0  2 0 1643 2810 1484
[16]  38(B02) 1f 36 24  0  -1108.0  4092002.7 -0.4  2 0 1146 1003  273
[17]  41(B05) 1f 43 25  0  -1108.3  4092002.8  0.3  2 0 1652 2195  574
[18]  49(B13)  7 42  7  0  -1750.1  4092004.5 -0.0  2 0 1324 1593  651
[19]  65(B29) 1f 43  7  0  -2059.5  4092005.3  0.0  2 0 1721 2061  758
[32]  79(N-2)  1 17 29  1  -2949.3  1022001.6  0.1  1 0   397  298  304
[33]  86(N05)  f 39  7  0  -2137.9  1022001.3 -0.0  2 0   569  629  119
[48]  38(B02)  7 20 10  1  -2459.5 20460037.1 -0.2  2 0  613  558  119
[51]  65(B29)  1  7  7  0  -1047.4 20460032.9 -0.1  1 0  292  397  315
$GNGGA,093808.335,,,,,0,00,,,M,,,,0000*24
$GNRMC,093808.335,A,,,,,,,030419,,*26
$GPGSA,A,1,,,,,,,,,,,,,,,*1E
$BDGSA,A,1,,,,,,,,,,,,,,,*0F
$GLGSA,A,1,,,,,,,,,,,,,,,*02
$GPGSV,2,1,07,04,00,000,36,07,00,000,42,13,00,000,44,17,00,000,46*7B
$GPGSV,2,2,07,19,00,000,41,28,00,000,40,30,00,000,45*4F
$BDGSV,1,1,04,02,00,000,36,05,00,000,43,13,00,000,42,29,00,000,43*61
$B3CN0,0,20,0,0,0,0,0,0,0,0,0,0,0,0*7E
---00000019--- Acq_st=7 0  2019-4-3 9:38:9 
[00]  03(G04)  f 34  7  0    975.2  2045998.6  0.2  2 0 1132 1235  814
[01]  06(G07)  f 42  7  0   1824.7  2045997.6 -0.0  2 0 1136 1799 1233
[02]  12(G13)  f 45  7  0   -303.6  2046000.3 -0.0  2 0 1565 2656 1187
[03]  16(G17)  f 46  7  0  -2314.0  2046002.9  0.0  2 0 3370 5296 3002
[04]  18(G19)  f 41  7  0  -3539.2  2046004.6  0.0  2 0  906 1807  972
[05]  27(G28)  f 40  9  0  -2821.3  2046003.6 -0.0  2 0 1240 1525  846
[06]  29(G30)  f 44 13  0   -120.4  2046000.1 -0.0  2 0 1225 2777 1297
[16]  38(B02) 1f 36 23  0  -1086.5  4092002.6  0.7  2 0 1021  973  587
[17]  41(B05) 1f 43 22  0  -1094.9  4092002.7  0.1  2 0 1445 1701  689
[18]  49(B13)  7 42  7  0  -1733.8  4092004.4 -0.0  2 0 1213 1596  949
[19]  65(B29) 1f 44  7  0  -2041.0  4092005.2 -0.0  2 0 1453 2263 1488
[32]  79(N-2)  1 17 19  1  -3056.8  1022001.1  0.0  1 0   150  344  287
[33]  86(N05)  f 38  7  0  -2121.9  1022001.3  0.5  2 0   451  906  377
[48]  38(B02)  7 10 16  0  -2810.0 20460043.8 -0.0  2 0  463  591  193
[49]  41(B05)  1 22 25  1   -642.0 20460017.3  0.2  1 0 1074  409  615
$GNGGA,093809.335,,,,,0,00,,,M,,,,0000*25
$GNRMC,093809.335,A,,,,,,,030419,,*27
$GPGSA,A,1,,,,,,,,,,,,,,,*1E
$BDGSA,A,1,,,,,,,,,,,,,,,*0F
$GLGSA,A,1,,,,,,,,,,,,,,,*02
$GPGSV,2,1,07,04,00,000,34,07,00,000,42,13,00,000,45,17,00,000,46*78
$GPGSV,2,2,07,19,00,000,41,28,00,000,40,30,00,000,44*4E
$BDGSV,1,1,04,02,00,000,36,05,00,000,43,13,00,000,42,29,00,000,44*66
$B3CN0,0,0,0,0,0,0,0,0,0,0,0,0,0,0*4C
---00000020--- Acq_st=3 0  2019-4-3 9:38:10 
[00]  03(G04)  f 34 15  0    967.7  2045998.7  0.1  2 0  551  526  676
[01]  06(G07)  f 42 11  0   1813.0  2045997.6  0.0  2 0 1370 2187 1321
[02]  12(G13)  f 44  9  0   -310.7  2046000.3  0.0  2 0 1774 2995 1416
[03]  16(G17)  f 45  7  0  -2323.1  2046003.0 -0.0  2 0 3459 4777 2360
[04]  18(G19)  f 41  7  0  -3545.8  2046004.5 -0.0  2 0 1721 2408 1024
[05]  27(G28)  f 39  7  0  -2830.4  2046003.6 -0.1  2 0  872 1641 1223
[06]  29(G30)  f 44  7  0   -129.9  2046000.1 -0.0  2 0 1837 3339 1523
[16]  38(B02) 1f 38 27  0  -1098.0  4092002.8  0.8  2 0  957 1242  625
[17]  41(B05) 1f 42 27  0  -1104.2  4092002.7  0.4  2 0 1441 1716  639
[18]  49(B13) 1f 42  7  0  -1745.5  4092004.4  0.0  2 0  700 1009  210
[19]  65(B29) 1f 44  7  0  -2051.7  4092005.3  0.0  2 0 1055 1784 1181
[32]  79(N-2)  1 16 16  1  -3065.1  1022001.2 -0.1  1 0   164  272  321
[33]  86(N05)  f 37  7  0  -2131.0  1022001.5 -0.2  2 0   515  774  387
[48]  38(B02)  7 17 10  0  -2842.2 20460045.1 -0.0  2 0  204  120  562
[49]  41(B05)  1 22 24  1   -474.0 20460025.5  0.0  1 0  711  191  742
[51]  65(B29)  1  8  9  0  -1560.9 20460032.6 -0.1  1 0  205  273  548
$GNGGA,093810.335,,,,,0,00,,,M,,,,0000*2D
$GNRMC,093810.335,A,,,,,,,030419,,*2F
$GPGSA,A,1,,,,,,,,,,,,,,,*1E
$BDGSA,A,1,,,,,,,,,,,,,,,*0F
$GLGSA,A,1,,,,,,,,,,,,,,,*02
$GPGSV,2,1,07,04,00,000,34,07,00,000,42,13,00,000,44,17,00,000,45*7A
$GPGSV,2,2,07,19,00,000,41,28,00,000,39,30,00,000,44*40
$BDGSV,1,1,04,02,00,000,38,05,00,000,42,13,00,000,42,29,00,000,44*69
$B3CN0,0,16,0,0,0,0,0,0,0,0,0,0,0,0*7B
---00000021--- Acq_st=3 0  2019-4-3 9:38:11 
[00]  03(G04)  f 35  7  0    964.6  2045998.7  0.4  2 0  844 1288  946
[01]  06(G07)  f 42  7  0   1812.7  2045997.6  0.0  2 0  707 1222  757
[02]  12(G13)  f 44  7  0   -312.3  2046000.3 -0.0  2 0 1722 2695  813
[03]  16(G17)  f 45  8  0  -2324.4  2046003.0  0.0  2 0 2542 4591 2159
[04]  18(G19)  f 43  7  0  -3544.4  2046004.5  0.0  2 0 2026 2407  864
[05]  27(G28)  f 39  7  0  -2830.8  2046003.6  0.0  2 0  818 1630  534
[06]  29(G30)  f 44  7  0   -127.5  2046000.1  0.0  2 0 2179 3146 1555
[16]  38(B02) 1f 36 22  0  -1101.7  4092002.8 -0.5  2 0  582  873  449
[17]  41(B05) 1f 42 21  0  -1103.7  4092002.8  0.0  2 0 1234 1865  824
[18]  49(B13) 1f 41 11  0  -1745.2  4092004.5 -0.0  2 0  759 1612  878
[19]  65(B29) 1f 43 10  0  -2050.1  4092005.2  0.1  2 0 1761 1838  887
[32]  79(N-2)  1 17 20  1  -4056.2  1022001.6  0.0  1 0   220  121  272
[33]  86(N05)  f 36  8  0  -2132.3  1022001.4  0.1  2 0   703  636  458
[48]  38(B02)  7 22 10  1  -3114.9 20460051.3 -0.1  2 0  874  511  848
[49]  41(B05)  1 22 19  1   -130.6 20460026.6  0.1  1 0  293  296  382
[50]  49(B13)  1  7  7  0  -1221.2 20460027.7 -0.0  1 0  662  388  415
[51]  65(B29)  1  7  7  0  -1485.2 20460031.7  0.2  1 0  484  108  197
$GNGGA,093811.335,,,,,0,00,,,M,,,,0000*2C
$GNRMC,093811.335,A,,,,,,,030419,,*2E
$GPGSA,A,1,,,,,,,,,,,,,,,*1E
$BDGSA,A,1,,,,,,,,,,,,,,,*0F
$GLGSA,A,1,,,,,,,,,,,,,,,*02
$GPGSV,2,1,07,04,00,000,35,07,00,000,42,13,00,000,44,17,00,000,45*7B
$GPGSV,2,2,07,19,00,000,43,28,00,000,39,30,00,000,44*42
$BDGSV,1,1,04,02,00,000,36,05,00,000,42,13,00,000,41,29,00,000,43*63
$B3CN0,0,22,0,0,0,0,0,0,0,0,0,0,0,0*7C
---00000022--- Acq_st=3 0  2019-4-3 9:38:12 
[00]  03(G04)  f 34  7  0    956.9  2045998.7  0.2  2 0  376  499  416
[01]  06(G07)  f 40  7  0   1805.3  2045997.6 -0.1  2 0  887 1369  830
[02]  12(G13)  f 43 10  0   -316.4  2046000.3  0.0  2 0 1532 2882 1465
[03]  16(G17)  f 45  7  0  -2329.9  2046003.0 -0.0  2 0 2402 4117 2361
[04]  18(G19)  f 43  7  0  -3551.2  2046004.5 -0.0  2 0 1220 1946 1312
[05]  27(G28)  f 40  7  0  -2833.8  2046003.6  0.0  2 0  993 1941 1226
[06]  29(G30)  f 44  7  0   -133.7  2046000.1  0.0  2 0 1935 2686 1242
[16]  38(B02) 1f 37 27  0  -1102.6  4092002.7  0.7  2 0 1109 1286  469
[17]  41(B05) 1f 42 18  0  -1112.3  4092002.8  0.4  2 0 1316 1093  109
[18]  49(B13) 1f 42  7  0  -1753.0  4092004.5 -0.1  2 0 1334 2022  466
[19]  65(B29) 1f 44  7  0  -2059.2  4092005.3 -0.0  2 0 1808 2423 1104
[32]  79(N-2)  1 16 17  1  -4634.5  1022002.2  0.1  1 0   399  454  102
[33]  86(N05)  f 36 10  0  -2137.5  1022001.3 -0.0  2 0   276  520  113
[49]  41(B05)  1 21 24  0   -172.6 20460019.6 -0.0  1 0  711  518  594
[50]  49(B13)  1  7  7  0  -1330.3 20460026.7  0.1  1 0  337  113   91
[51]  65(B29)  1  7  7  0  -1636.0 20460033.5  0.0  1 0  318   98  314
$GNGGA,093812.335,,,,,0,00,,,M,,,,0000*2F
$GNRMC,093812.335,A,,,,,,,030419,,*2D
$GPGSA,A,1,,,,,,,,,,,,,,,*1E
$BDGSA,A,1,,,,,,,,,,,,,,,*0F
$GLGSA,A,1,,,,,,,,,,,,,,,*02
$GPGSV,2,1,07,04,00,000,34,07,00,000,40,13,00,000,43,17,00,000,45*7F
$GPGSV,2,2,07,19,00,000,43,28,00,000,40,30,00,000,44*4C
$BDGSV,1,1,04,02,00,000,37,05,00,000,42,13,00,000,42,29,00,000,44*66
$B3CN0,0,0,0,0,0,0,0,0,0,0,0,0,0,0*4C
---00000023--- Acq_st=3 0  2019-4-3 9:38:13 
[00]  03(G04)  f 31  7  0    954.3  2045998.6  0.1  5 0  299  188  456
[01]  06(G07)  f 37  7  0   1813.5  2045997.8  0.3  2 0  503 1043  874
[02]  12(G13)  f 44  7  0   -314.2  2046000.4 -0.0  2 0 2025 2781 1227
[03]  16(G17)  f 45  7  0  -2325.0  2046003.0  0.0  2 0 2437 3857 2294
[04]  18(G19)  f 43  7  0  -3546.8  2046004.5  0.0  2 0 1300 2669 1399
[05]  27(G28)  f 40  7  0  -2831.1  2046003.6 -0.1  2 0  895 1096  414
[06]  29(G30)  f 45  7  0   -129.6  2046000.1 -0.0  2 0 1535 3190 1525
[16]  38(B02) 1f 38 26  0  -1105.7  4092002.7  0.7  2 0  726  691  262
[17]  41(B05) 1f 42 23  0  -1106.5  4092002.9 -0.7  2 0 1106 1625  416
[18]  49(B13) 1f 41  7  0  -1746.7  4092004.4  0.0  2 0 1254 1695  566
[19]  65(B29) 1f 43  9  0  -2052.5  4092005.3  0.0  2 0 1648 1652  602
[33]  86(N05)  f 37  7  0  -2130.2  1022001.3 -0.1  2 0   316  802  542
[48]  38(B02)  1 10 22  0  -1183.9 20460017.5  0.0  1 0  308  333  309
[50]  49(B13)  1  7  9  0   -811.6 20460027.9  0.1  1 0   63   38  434
[51]  65(B29)  1  7  9  0  -1465.5 20460031.6 -0.0  1 0  536  298  186
$GNGGA,093813.335,,,,,0,00,,,M,,,,0000*2E
$GNRMC,093813.335,A,,,,,,,030419,,*2C
$GPGSA,A,1,,,,,,,,,,,,,,,*1E
$BDGSA,A,1,,,,,,,,,,,,,,,*0F
$GLGSA,A,1,,,,,,,,,,,,,,,*02
$GPGSV,2,1,07,04,00,000,31,07,00,000,37,13,00,000,44,17,00,000,45*7D
$GPGSV,2,2,07,19,00,000,43,28,00,000,40,30,00,000,45*4D
$BDGSV,1,1,04,02,00,000,38,05,00,000,42,13,00,000,41,29,00,000,43*6D
$B3CN0,0,0,0,0,0,0,0,0,0,0,0,0,0,0*4C
---00000024--- Acq_st=3 0  2019-4-3 9:38:14 
[00]  03(G04)  f 29  7  0    963.9  2045998.7  0.0  5 0  260  607  262
[01]  06(G07)  f 35  7  0   1810.9  2045997.7  0.0  2 0  546  465  245
[02]  12(G13)  f 44  7  0   -304.6  2046000.3  0.0  2 0 1878 3127 1604
[03]  16(G17)  f 45  7  0  -2318.6  2046003.0 -0.0  2 0 2559 4061 2279
[04]  18(G19)  f 44  7  0  -3540.9  2046004.5  0.0  2 0 1850 2547  804
[05]  27(G28)  f 39 12  0  -2827.5  2046003.6  0.0  2 0 1317 2049 1073
[06]  29(G30)  f 44  7  0   -120.5  2046000.1 -0.0  2 0 2284 3581 1725
[16]  38(B02) 1f 37 20  0  -1094.4  4092002.6  0.8  2 0  767 1245  306
[17]  41(B05) 1f 43 27  0  -1099.4  4092002.8  0.3  2 0 1471 1827  591
[18]  49(B13) 1f 41  7  0  -1744.1  4092004.5  0.0  2 0 1244 1695  947
[19]  65(B29) 1f 43  7  0  -2049.5  4092005.2  0.0  2 0 1683 2202  805
[33]  86(N05)  f 37  8  0  -2125.1  1022001.3  0.0  2 0   538  621  440
[48]  38(B02)  7 18 16  1  -1047.0 20460016.1  0.1  2 0  648  156  294
[49]  41(B05)  1 25 16  0   -864.4 20460016.4  0.0  1 0  556  291  499
[50]  49(B13)  1  7  7  0   -723.3 20460030.3  0.0  1 0  343  518  223
$GNGGA,093814.335,,,,,0,00,,,M,,,,0000*29
$GNRMC,093814.335,A,,,,,,,030419,,*2B
$GPGSA,A,1,,,,,,,,,,,,,,,*1E
$BDGSA,A,1,,,,,,,,,,,,,,,*0F
$GLGSA,A,1,,,,,,,,,,,,,,,*02
$GPGSV,2,1,07,04,00,000,29,07,00,000,35,13,00,000,44,17,00,000,45*76
$GPGSV,2,2,07,19,00,000,44,28,00,000,39,30,00,000,44*45
$BDGSV,1,1,04,02,00,000,37,05,00,000,43,13,00,000,41,29,00,000,43*63
$B3CN0,0,18,0,0,0,0,0,0,0,0,0,0,0,0*75
---00000025--- Acq_st=3 0  2019-4-3 9:38:15 
[00]  03(G04)  f 22  9  0    830.6  2045998.7  0.1 10 0  593  553  319
[01]  06(G07)  f 34  7  0   1810.6  2045997.5  0.1  2 0 1295 1334 1050
[02]  12(G13)  f 44  7  0   -305.3  2046000.3 -0.0  2 0 1887 3067 1515
[03]  16(G17)  f 45  8  0  -2318.3  2046003.0  0.0  2 0 2868 3925 1783
[04]  18(G19)  f 43  7  0  -3544.8  2046004.5  0.0  2 0 1135 2136 1245
[05]  27(G28)  f 40  7  0  -2826.0  2046003.6  0.1  2 0 1041 1813 1041
[06]  29(G30)  f 44  7  0   -123.0  2046000.1  0.0  2 0 2037 3092 1641
[16]  38(B02) 1f 37 29  0  -1098.1  4092002.7 -0.8  2 0  790  872  417
[17]  41(B05) 1f 42 26  0  -1099.1  4092002.7  0.2  2 0 1524 1613  583
[18]  49(B13) 1f 42 11  0  -1741.7  4092004.5  0.0  2 0  788 1265  533
[19]  65(B29) 1f 43  7  0  -2046.7  4092005.3 -0.0  2 0 1504 1940  687
[33]  86(N05)  f 36 12  0  -2126.7  1022001.3  0.0  2 0   509  693  135
[48]  38(B02)  7 10 10  0  -1168.7 20460020.9  0.1  2 0  218  316  421
[49]  41(B05)  1 23 25  1   -271.7 20460022.4  0.0  1 0  889  906  392
[51]  65(B29)  1  9  7  0  -1812.9 20460033.3  0.2  1 0  318  247  256
$GNGGA,093815.335,,,,,0,00,,,M,,,,0000*28
$GNRMC,093815.335,A,,,,,,,030419,,*2A
$GPGSA,A,1,,,,,,,,,,,,,,,*1E
$BDGSA,A,1,,,,,,,,,,,,,,,*0F
$GLGSA,A,1,,,,,,,,,,,,,,,*02
$GPGSV,2,1,07,04,00,000,22,07,00,000,34,13,00,000,44,17,00,000,45*7C
$GPGSV,2,2,07,19,00,000,43,28,00,000,40,30,00,000,44*4C
$BDGSV,1,1,04,02,00,000,37,05,00,000,42,13,00,000,42,29,00,000,43*61
$B3CN0,0,0,0,0,0,0,0,0,0,0,0,0,0,0*4C
---00000026--- Acq_st=3 0  2019-4-3 9:38:16 
[00]  03(G04)  f  7  7  0    675.5  2045999.0  0.0 10 0  497  553  450
[01]  06(G07)  f 36  7  0   1808.3  2045997.5  0.1  2 0  758 1131  767
[02]  12(G13)  f 44  7  0   -308.0  2046000.3 -0.0  2 0 1859 2694 1153
[03]  16(G17)  f 46  7  0  -2320.3  2046002.9 -0.0  2 0 2967 4374 2043
[04]  18(G19)  f 43  7  0  -3536.5  2046004.6 -0.0  2 0 1419 1998  788
[05]  27(G28)  f 41  7  0  -2830.5  2046003.6 -0.2  2 0 1330 1535  823
[06]  29(G30)  f 44 11  0   -120.7  2046000.1  0.0  2 0 1731 2988 1128
[16]  38(B02) 1f 37 22  0  -1094.3  4092002.7 -0.6  2 0  884  832  574
[17]  41(B05) 1f 41 20  0  -1100.6  4092002.6  0.1  2 0 1093 1296  332
[18]  49(B13) 1f 42  8  0  -1745.3  4092004.5 -0.1  2 0 1119 1165  298
[19]  65(B29) 1f 43  8  0  -2045.6  4092005.3 -0.0  2 0 1215 2222  962
[33]  86(N05)  f 35 11  0  -2125.9  1022001.5  0.1  2 0   435  622  117
[48]  38(B02)  7 20 10  1  -1633.8 20460025.4  0.1  2 0  346  298  570
[49]  41(B05)  1 20 22  1   -407.8 20460020.2 -0.1  1 0  544  381  199
[50]  49(B13)  1  7  7  0  -1515.5 20460029.0  0.0  1 0  228  414  847
[51]  65(B29)  1  7  7  0  -1700.3 20460032.8 -0.1  1 0  653  647  505
$GNGGA,093816.335,,,,,0,00,,,M,,,,0000*2B
$GNRMC,093816.335,A,,,,,,,030419,,*29
$GPGSA,A,1,,,,,,,,,,,,,,,*1E
$BDGSA,A,1,,,,,,,,,,,,,,,*0F
$GLGSA,A,1,,,,,,,,,,,,,,,*02
$GPGSV,2,1,06,07,00,000,36,13,00,000,44,17,00,000,46,19,00,000,43*77
$GPGSV,2,2,06,28,00,000,41,30,00,000,44*73
$BDGSV,1,1,04,02,00,000,37,05,00,000,41,13,00,000,42,29,00,000,43*62
$B3CN0,0,20,0,0,0,0,0,0,0,0,0,0,0,0*7E
---00000027--- Acq_st=7 0  2019-4-3 9:38:17 
[00]  03(G04)  f  7  7  0    510.5  2045999.6 -0.0 10 0  484  658  364
[01]  06(G07)  f 39  7  0   1823.2  2045997.5 -0.1  2 0 1639 1112  682
[02]  12(G13)  f 44  7  0   -304.3  2046000.4  0.0  2 0 1077 1977 1204
[03]  16(G17)  f 46  7  0  -2320.7  2046002.9  0.0  2 0 3063 4142 2136
[04]  18(G19)  f 42  7  0  -3542.3  2046004.6  0.0  2 0  894 1745  988
[05]  27(G28)  f 41 10  0  -2827.4  2046003.6 -0.0  2 0  586 1205  507
[06]  29(G30)  f 45 10  0   -123.9  2046000.1 -0.0  2 0 1326 2789 1363
[16]  38(B02) 1f 38 26  0  -1098.7  4092002.6 -0.1  2 0 1055  907  174
[17]  41(B05) 1f 42 25  0  -1097.7  4092002.8  0.1  2 0 1205 1796  617
[18]  49(B13) 1f 42  7  0  -1744.9  4092004.4  0.0  2 0  750 1276  722
[19]  65(B29) 1f 43  7  0  -2049.3  4092005.3 -0.0  2 0 1400 1967  545
[32]  83(N02)  1 13  7  0  -2750.0  1022002.4  0.0  1 0   322  173  600
[33]  86(N05)  f 35  9  0  -2126.5  1022001.3 -0.0  2 0   219  202  465
[48]  38(B02)  7 10 23  0  -2130.4 20460033.8  0.3  2 0  630  474  695
[49]  41(B05)  1 20 25  0   -144.4 20460018.1  0.1  1 0  660  313  282
[50]  49(B13)  1  7  7  0  -1571.1 20460028.5 -0.0  1 0  740  475  851
[51]  65(B29)  1  7  9  0  -2078.0 20460034.4  0.1  1 0  437  628  299
$GNGGA,093817.335,,,,,0,00,,,M,,,,0000*2A
$GNRMC,093817.335,A,,,,,,,030419,,*28
$GPGSA,A,1,,,,,,,,,,,,,,,*1E
$BDGSA,A,1,,,,,,,,,,,,,,,*0F
$GLGSA,A,1,,,,,,,,,,,,,,,*02
$GPGSV,2,1,06,07,00,000,39,13,00,000,44,17,00,000,46,19,00,000,42*79
$GPGSV,2,2,06,28,00,000,41,30,00,000,45*72
$BDGSV,1,1,04,02,00,000,38,05,00,000,42,13,00,000,42,29,00,000,43*6E
$B3CN0,0,0,0,0,0,0,0,0,0,0,0,0,0,0*4C
---00000028--- Acq_st=7 0  2019-4-3 9:38:18 
[00]  03(G04)  f  7 11  0    332.5  2045999.7 -0.1 10 0  593  315  457
[01]  06(G07)  f 40  7  0   1814.0  2045997.5  0.0  2 0 1996 2139  943
[02]  12(G13)  f 45  9  0   -310.6  2046000.3 -0.0  2 0 1915 3265 1564
[03]  16(G17)  f 46  7  0  -2324.4  2046003.0 -0.1  2 0 3223 4500 2112
[04]  18(G19)  f 42  8  0  -3546.7  2046004.5 -0.1  2 0 1453 1769  654
[05]  27(G28)  f 40  7  0  -2833.1  2046003.6 -0.0  2 0  923 1621 1074
[06]  29(G30)  f 45  7  0   -125.8  2046000.1 -0.0  2 0 1793 2707  932
[16]  38(B02) 1f 36 24  0  -1107.9  4092002.7  0.5  2 0  806 1030  462
[17]  41(B05) 1f 43 24  0  -1106.7  4092002.8  0.2  2 0  848 1377  643
[18]  49(B13) 1f 42  7  0  -1749.1  4092004.4 -0.0  2 0 1092 1440  677
[19]  65(B29) 1f 43  7  0  -2051.9  4092005.3 -0.0  2 0 1310 1909 1343
[32]  83(N02)  1 28 18  0  -2582.3  1022002.8  0.4  1 0   210  284  131
[33]  86(N05)  f 37 13  0  -2127.5  1022001.3  0.0  2 0   677 1017  596
[50]  49(B13)  1  7  7  0  -1100.2 20460027.4 -0.2  1 0  625  805  368
[51]  65(B29)  1 12  7  0  -2265.8 20460034.6  0.1  1 0  653  832  550
$GNGGA,093818.335,,,,,0,00,,,M,,,,0000*25
$GNRMC,093818.335,A,,,,,,,030419,,*27
$GPGSA,A,1,,,,,,,,,,,,,,,*1E
$BDGSA,A,1,,,,,,,,,,,,,,,*0F
$GLGSA,A,1,,,,,,,,,,,,,,,*02
$GPGSV,2,1,06,07,00,000,40,13,00,000,45,17,00,000,46,19,00,000,42*76
$GPGSV,2,2,06,28,00,000,40,30,00,000,45*73
$BDGSV,1,1,04,02,00,000,36,05,00,000,43,13,00,000,42,29,00,000,43*61
$B3CN0,0,0,0,0,0,0,0,0,0,0,0,0,0,0*4C
---00000029--- Acq_st=3 0  2019-4-3 9:38:19 
[01]  06(G07)  f 41  7  0   1816.2  2045997.5 -0.0  2 0 1848 2116 1003
[02]  12(G13)  f 44  7  0   -306.9  2046000.4 -0.0  2 0 1796 2844 1212
[03]  16(G17)  f 46  7  0  -2320.2  2046002.9  0.1  2 0 2262 4034 2059
[04]  18(G19)  f 42  7  0  -3543.7  2046004.6 -0.0  2 0 1199 1794 1075
[05]  27(G28)  f 39  7  0  -2832.4  2046003.6 -0.0  2 0  678 1404  736
[06]  29(G30)  f 44  7  0   -121.7  2046000.1  0.0  2 0 1551 2887 1509
[16]  38(B02) 1f 37 28  0  -1097.9  4092002.9 -0.0  2 0  735 1616 1020
[17]  41(B05) 1f 43 22  0  -1102.0  4092002.7  0.0  2 0  873 1670  633
[18]  49(B13) 1f 42  9  0  -1739.7  4092004.4 -0.0  2 0  818 1469  749
[19]  65(B29) 1f 43  9  0  -2047.0  4092005.2  0.0  2 0 1187 2136  808
[32]  83(N02)  7 34 16  0  -2602.0  1022001.7  0.1  5 0   252  716  462
[33]  86(N05)  f 38 11  0  -2126.6  1022001.2 -0.1  2 0   574  384  265
[48]  38(B02)  1 10 36  1  -1436.7 20460015.5  0.0  1 0  362  573  302
[49]  41(B05)  1 28 18  0   -902.1 20460020.6  0.0  1 0  662  476  599
[50]  49(B13)  1 10  7  0  -1417.3 20460029.1  0.0  1 0  183  125  357
$GNGGA,093819.335,,,,,0,00,,,M,,,,0000*24
$GNRMC,093819.335,A,,,,,,,030419,,*26
$GPGSA,A,1,,,,,,,,,,,,,,,*1E
$BDGSA,A,1,,,,,,,,,,,,,,,*0F
$GLGSA,A,1,,,,,,,,,,,,,,,*02
$GPGSV,2,1,06,07,00,000,41,13,00,000,44,17,00,000,46,19,00,000,42*76
$GPGSV,2,2,06,28,00,000,39,30,00,000,44*7C
$BDGSV,1,1,04,02,00,000,37,05,00,000,43,13,00,000,42,29,00,000,43*60
$B3CN0,0,0,0,0,0,0,0,0,0,0,0,0,0,0*4C
---00000030--- Acq_st=3 0  2019-4-3 9:38:20 
[01]  06(G07)  f 42  8  0   1818.5  2045997.5 -0.0  2 0 2117 2254  974
[02]  12(G13)  f 44  7  0   -309.4  2046000.4  0.0  2 0 1245 2749 1320
[03]  16(G17)  f 46  7  0  -2325.6  2046003.0 -0.0  2 0 2296 3355 1507
[04]  18(G19)  f 42  7  0  -3551.7  2046004.5 -0.0  2 0 1339 1782  950
[05]  27(G28)  f 39  7  0  -2836.7  2046003.7 -0.1  2 0  613 1245  816
[06]  29(G30)  f 43  8  0   -126.4  2046000.1  0.0  2 0 1431 2088 1277
[16]  38(B02) 1f 37 27  0  -1106.3  4092002.8 -0.8  2 0  452  921  422
[17]  41(B05) 1f 42 23  0  -1107.9  4092002.8  0.0  2 0 1539 2033 1159
[18]  49(B13) 1f 42  7  0  -1749.5  4092004.4 -0.0  2 0 1196 1611  401
[19]  65(B29) 1f 42  7  0  -2053.2  4092005.3 -0.0  2 0 1393 1848  803
[32]  83(N02)  7 34 17  0  -2609.2  1022001.6 -0.0  5 0    35  377  115
[33]  86(N05)  f 38 10  0  -2130.4  1022001.2 -0.0  2 0   137  246  150
[48]  38(B02)  1 10 10  1  -1503.3 20460022.4  0.1  1 0  200  263  622
[49]  41(B05)  1 17 22  0   -641.2 20460018.5  0.1  1 0  715  668  234
[51]  65(B29)  1  7 13  0  -2059.1 20460034.3 -0.1  1 0  950  654  528
$GNGGA,093820.335,,,,,0,00,,,M,,,,0000*2E
$GNRMC,093820.335,A,,,,,,,030419,,*2C
$GPGSA,A,1,,,,,,,,,,,,,,,*1E
$BDGSA,A,1,,,,,,,,,,,,,,,*0F
$GLGSA,A,1,,,,,,,,,,,,,,,*02
$GPGSV,2,1,06,07,00,000,42,13,00,000,44,17,00,000,46,19,00,000,42*75
$GPGSV,2,2,06,28,00,000,39,30,00,000,43*7B
$BDGSV,1,1,04,02,00,000,37,05,00,000,42,13,00,000,42,29,00,000,42*60
$B3CN0,0,0,0,0,0,0,0,0,0,0,0,0,0,0*4C
---00000031--- Acq_st=3 0  2019-4-3 9:38:21 
[01]  06(G07)  f 43  7  0   1822.9  2045997.6 -0.0  2 0 1694 1889 1385
[02]  12(G13)  f 44  7  0   -300.9  2046000.3  0.0  2 0 1376 2350 1161
[03]  16(G17)  f 46 12  0  -2315.4  2046002.9 -0.0  2 0 2628 3978 1896
[04]  18(G19)  f 43  9  0  -3537.8  2046004.5  0.0  2 0 1756 2785 1527
[05]  27(G28)  f 40  7  0  -2823.7  2046003.6 -0.2  2 0 1042 1354  734
[06]  29(G30)  f 44  7  0   -116.9  2046000.1  0.0  2 0 1754 3003 1732
[16]  38(B02) 1f 36 23  0  -1097.2  4092002.7  0.7  2 0  467  795  415
[17]  41(B05) 1f 42 21  0  -1096.1  4092002.7 -0.3  2 0 1530 1767  582
[18]  49(B13) 1f 42  7  0  -1740.8  4092004.4 -0.1  2 0  880 1514  592
[19]  65(B29) 1f 42 10  0  -2042.1  4092005.3  0.1  2 0 1688 1990  712
[32]  83(N02)  7 32 18  0  -2598.4  1022001.6  0.0  5 0   481  388  166
[33]  86(N05)  f 35  8  0  -2123.5  1022001.6 -0.0  2 0   309  517  437
[48]  38(B02)  1 19 10  0  -2069.3 20460021.6 -0.0  1 0  369  632  919
[49]  41(B05)  1 24 23  1  -1200.1 20460025.9  0.1  1 0  491  378  236
[50]  49(B13)  1  7  7  0  -1238.6 20460028.3 -0.1  1 0  469  308  364
[51]  65(B29)  1  7  7  0  -2153.7 20460032.6  0.1  1 0  508  234  190
$GNGGA,093821.335,,,,,0,00,,,M,,,,0000*2F
$GNRMC,093821.335,A,,,,,,,030419,,*2D
$GPGSA,A,1,,,,,,,,,,,,,,,*1E
$BDGSA,A,1,,,,,,,,,,,,,,,*0F
$GLGSA,A,1,,,,,,,,,,,,,,,*02
$GPGSV,2,1,06,07,00,000,43,13,00,000,44,17,00,000,46,19,00,000,43*75
$GPGSV,2,2,06,28,00,000,40,30,00,000,44*72
$BDGSV,1,1,04,02,00,000,36,05,00,000,42,13,00,000,42,29,00,000,42*61
$B3CN0,0,0,0,0,0,0,0,0,0,0,0,0,0,0*4C
---00000032--- Acq_st=3 0  2019-4-3 9:38:22 
[01]  06(G07)  f 42  7  0   1814.9  2045997.6  0.0  2 0 1843 2150 1008
[02]  12(G13)  f 44  7  0   -309.0  2046000.4  0.0  2 0 1257 2724 1517
[03]  16(G17)  f 45 13  0  -2323.6  2046003.0  0.0  2 0 2658 3877 1740
[04]  18(G19)  f 44  7  0  -3546.7  2046004.5 -0.0  2 0 1977 3069 1672
[05]  27(G28)  f 40 11  0  -2836.5  2046003.6  0.1  2 0  944 1636  703
[06]  29(G30)  f 44  7  0   -127.0  2046000.1 -0.1  2 0 1674 2509 1388
[16]  38(B02) 1f 37 28  0  -1109.2  4092002.8 -0.6  2 0  563 1113  364
[17]  41(B05) 1f 43 27  0  -1105.7  4092002.7  0.0  2 0 1507 1770  380
[18]  49(B13) 1f 42  7  0  -1747.0  4092004.5  0.0  2 0  837 1582  788
[19]  65(B29) 1f 42  7  0  -2054.7  4092005.3 -0.0  2 0 1421 1978  734
[32]  83(N02)  f 27  7  0  -2608.1  1022001.6  0.1 10 0   437  623  247
[33]  86(N05)  f 33  8  0  -2129.3  1022001.4 -0.1  2 0   307  436  363
[48]  38(B02)  1 20 17  1  -1918.9 20460024.5  0.2  1 0  334  317  221
[49]  41(B05)  1 26 26  0  -1075.7 20460021.6 -0.1  1 0  621  726  493
[50]  49(B13)  1  8  7  0  -1590.7 20460028.3  0.0  1 0  168  175  487
[51]  65(B29)  1  7 10  0  -1557.0 20460033.5 -0.0  1 0  484  639  453
$GNGGA,093822.335,,,,,0,00,,,M,,,,0000*2C
$GNRMC,093822.335,A,,,,,,,030419,,*2E
$GPGSA,A,1,,,,,,,,,,,,,,,*1E
$BDGSA,A,1,,,,,,,,,,,,,,,*0F
$GLGSA,A,1,,,,,,,,,,,,,,,*02
$GPGSV,2,1,06,07,00,000,42,13,00,000,44,17,00,000,45,19,00,000,44*70
$GPGSV,2,2,06,28,00,000,40,30,00,000,44*72
$BDGSV,1,1,04,02,00,000,37,05,00,000,42,13,00,000,42,29,00,000,42*60
$B3CN0,0,0,0,0,0,0,0,0,0,0,0,0,0,0*4C
---00000033--- Acq_st=3 0  2019-4-3 9:38:23 
[01]  06(G07)  f 41  7  0   1820.0  2045997.6  0.0  2 0 1438 1753  691
[02]  12(G13)  f 43  7  0   -312.7  2046000.3 -0.0  2 0 1437 2554 1202
[03]  16(G17)  f 45  7  0  -2322.5  2046002.9 -0.0  2 0 3068 4420 2323
[04]  18(G19)  f 44  7  0  -3545.8  2046004.5  0.0  2 0 2685 3321 1358
[05]  27(G28)  f 41  7  0  -2834.1  2046003.6 -0.1  2 0  644 1343  519
[06]  29(G30)  f 43  7  0   -124.7  2046000.1  0.0  2 0 1945 2507 1540
[16]  38(B02) 1f 36 21  0  -1108.8  4092002.7  0.6  2 0  999  871  425
[17]  41(B05) 1f 42 21  0  -1107.3  4092002.8  0.0  2 0 1064 1757  945
[18]  49(B13) 1f 42  7  0  -1745.6  4092004.5 -0.0  2 0 1301 1610  688
[19]  65(B29) 1f 43  7  0  -2051.5  4092005.3 -0.1  2 0 1607 1988  838
[32]  83(N02)  f 29 15  0  -2603.1  1022001.7 -0.0  5 0   447  518   24
[33]  86(N05)  f 36  8  0  -2125.5  1022001.3  0.0  2 0   599  773  744
[50]  49(B13)  1  7  7  0  -1754.8 20460027.6  0.1  1 0  179  396  392
[51]  65(B29)  1  7  7  0  -1519.4 20460033.7  0.0  1 0  702  283  183
$GNGGA,093823.335,,,,,0,00,,,M,,,,0000*2D
$GNRMC,093823.335,A,,,,,,,030419,,*2F
$GPGSA,A,1,,,,,,,,,,,,,,,*1E
$BDGSA,A,1,,,,,,,,,,,,,,,*0F
$GLGSA,A,1,,,,,,,,,,,,,,,*02
$GPGSV,2,1,06,07,00,000,41,13,00,000,43,17,00,000,45,19,00,000,44*74
$GPGSV,2,2,06,28,00,000,41,30,00,000,43*74
$BDGSV,1,1,04,02,00,000,36,05,00,000,42,13,00,000,42,29,00,000,43*60
$B3CN0,0,0,0,0,0,0,0,0,0,0,0,0,0,0*4C
---00000034--- Acq_st=3 0  2019-4-3 9:38:24 
[01]  06(G07)  f 41  7  0   1812.0  2045997.6 -0.1  2 0 1342 1643  910
[02]  12(G13)  f 44 10  0   -312.7  2046000.4  0.0  2 0 1474 2612 1639
[03]  16(G17)  f 46  7  0  -2326.1  2046002.9 -0.0  2 0 3114 4409 2056
[04]  18(G19)  f 44  7  0  -3549.2  2046004.5  0.0  2 0 1457 2372 1416
[05]  27(G28)  f 41  7  0  -2836.7  2046003.6 -0.0  2 0 1422 1485  740
[06]  29(G30)  f 44  7  0   -126.4  2046000.1  0.0  2 0 1573 2816 1058
[16]  38(B02) 1f 37 25  0  -1106.4  4092002.7 -0.6  2 0  641  602  400
[17]  41(B05) 1f 41 27  0  -1106.6  4092002.9 -0.0  2 0 1464 1838  729
[18]  49(B13) 1f 42  7  0  -1751.6  4092004.5  0.1  2 0 1268 1495  554
[19]  65(B29) 1f 43  8  0  -2052.6  4092005.2  0.1  2 0 1393 1621  497
[32]  83(N02)  f 28  7  0  -2599.9  1022001.8  0.1  5 0    65  116  179
[33]  86(N05)  f 38 15  0  -2128.1  1022001.2  0.1  2 0   745 1046  493
[48]  38(B02)  1 10 10  1   -674.9 20460017.3  0.0  1 0  276  327  986
[49]  41(B05)  1 19 24  1   -918.7 20460019.2 -0.1  1 0  571  204  192
[50]  49(B13)  1  7  7  0  -1610.9 20460028.5 -0.0  1 0  473  536  174
$GNGGA,093824.335,,,,,0,00,,,M,,,,0000*2A
$GNRMC,093824.335,A,,,,,,,030419,,*28
$GPGSA,A,1,,,,,,,,,,,,,,,*1E
$BDGSA,A,1,,,,,,,,,,,,,,,*0F
$GLGSA,A,1,,,,,,,,,,,,,,,*02
$GPGSV,2,1,06,07,00,000,41,13,00,000,44,17,00,000,46,19,00,000,44*70
$GPGSV,2,2,06,28,00,000,41,30,00,000,44*73
$BDGSV,1,1,04,02,00,000,37,05,00,000,41,13,00,000,42,29,00,000,43*62
$B3CN0,0,0,0,0,0,0,0,0,0,0,0,0,0,0*4C
---00000035--- Acq_st=3 0  2019-4-3 9:38:25 
[01]  06(G07)  f 41  7  0   1826.8  2045997.6  0.1  2 0 1817 2036  734
[02]  12(G13)  f 44  7  0   -297.6  2046000.3  0.0  2 0 1661 2991 1460
[03]  16(G17)  f 45  7  0  -2313.9  2046002.9  0.0  2 0 3592 4695 2544
[04]  18(G19)  f 44  7  0  -3534.8  2046004.5  0.0  2 0 2475 3491 1707
[05]  27(G28)  f 41  7  0  -2824.2  2046003.5  0.0  2 0 1373 1994 1117
[06]  29(G30)  f 44  7  0   -112.1  2046000.1  0.0  2 0 1700 2791 1343
[16]  38(B02) 1f 36 26  0  -1098.3  4092002.6 -0.6  2 0  364  454  237
[17]  41(B05) 1f 43 23  0  -1097.2  4092002.8 -0.1  2 0 1228 2059  859
[18]  49(B13) 1f 42  7  0  -1737.6  4092004.4 -0.0  2 0 1564 2259  903
[19]  65(B29) 1f 43  7  0  -2039.8  4092005.2  0.0  2 0 1475 2261  646
[32]  83(N02)  f 14  7  0  -2897.0  1022002.0  0.0 10 0   437  374  285
[33]  86(N05)  f 40  7  0  -2112.8  1022001.3  0.5  2 0   642  935  269
[48]  38(B02)  1 10 36  1   -482.8 20460026.0  0.0  1 0  369  148  281
[49]  41(B05)  1 25 25  1   -552.4 20460025.8  0.1  1 0  269  153  328
[51]  65(B29)  1  7  7  0  -1275.1 20460034.7  0.2  1 0   97  592  345
$GNGGA,093825.335,,,,,0,00,,,M,,,,0000*2B
$GNRMC,093825.335,A,,,,,,,030419,,*29
$GPGSA,A,1,,,,,,,,,,,,,,,*1E
$BDGSA,A,1,,,,,,,,,,,,,,,*0F
$GLGSA,A,1,,,,,,,,,,,,,,,*02
$GPGSV,2,1,06,07,00,000,41,13,00,000,44,17,00,000,45,19,00,000,44*73
$GPGSV,2,2,06,28,00,000,41,30,00,000,44*73
$BDGSV,1,1,04,02,00,000,36,05,00,000,43,13,00,000,42,29,00,000,43*61
$B3CN0,0,0,0,0,0,0,0,0,0,0,0,0,0,0*4C
---00000036--- Acq_st=7 0  2019-4-3 9:38:26 
[01]  06(G07)  f 38  7  0   1808.6  2045997.6 -0.3  2 0  493 1012  570
[02]  12(G13)  f 44 10  0   -310.8  2046000.4 -0.0  2 0 1524 2574 1384
[03]  16(G17)  f 45  7  0  -2328.5  2046003.0  0.0  2 0 3449 4558 1835
[04]  18(G19)  f 44  7  0  -3546.6  2046004.6 -0.0  2 0 1606 2929 1107
[05]  27(G28)  f 41  7  0  -2835.2  2046003.6  0.0  2 0  973 1600  980
[06]  29(G30)  f 44  7  0   -125.5  2046000.1 -0.0  2 0 1781 2862 1228
[16]  38(B02) 1f 36 24  0  -1107.6  4092002.8  0.6  2 0  426  649  474
[17]  41(B05) 1f 43 25  0  -1111.5  4092002.9  0.1  2 0 1430 1777 1310
[18]  49(B13) 1f 42  7  0  -1750.5  4092004.4 -0.0  2 0  594 1325  707
[19]  65(B29) 1f 43  7  0  -2054.8  4092005.2 -0.0  2 0 1458 1953  736
[32]  83(N02)  f  7  7  0  -3072.8  1022001.9  0.0 10 0   547  233  357
[33]  86(N05)  f 40  7  0  -2124.9  1022001.3 -0.2  2 0   905 1272  573
[48]  38(B02)  1 10 17  0   -457.2 20460024.2 -0.2  1 0  270  439  633
[49]  41(B05)  1 21 24  1   -525.3 20460020.9 -0.1  1 0  627  610  255
[50]  49(B13)  1  7  7  0  -1274.1 20460029.3 -0.1  1 0  414  740  640
[51]  65(B29)  1  8  7  0  -1058.8 20460034.1 -0.1  1 0  665  638  831
$GNGGA,093826.335,,,,,0,00,,,M,,,,0000*28
$GNRMC,093826.335,A,,,,,,,030419,,*2A
$GPGSA,A,1,,,,,,,,,,,,,,,*1E
$BDGSA,A,1,,,,,,,,,,,,,,,*0F
$GLGSA,A,1,,,,,,,,,,,,,,,*02
$GPGSV,2,1,06,07,00,000,38,13,00,000,44,17,00,000,45,19,00,000,44*7D
$GPGSV,2,2,06,28,00,000,41,30,00,000,44*73
$BDGSV,1,1,04,02,00,000,36,05,00,000,43,13,00,000,42,29,00,000,43*61
$B3CN0,0,0,0,0,0,0,0,0,0,0,0,0,0,0*4C
---00000037--- Acq_st=7 0  2019-4-3 9:38:27 
[01]  06(G07)  f 35  7  0   1812.1  2045997.8  0.1  2 0  307  687  155
[02]  12(G13)  f 44  7  0   -313.4  2046000.3  0.0  2 0 1511 2873 1248
[03]  16(G17)  f 45  7  0  -2329.7  2046003.0 -0.0  2 0 3133 4649 2243
[04]  18(G19)  f 43  7  0  -3550.2  2046004.5  0.0  2 0 1653 2464  960
[05]  27(G28)  f 40  8  0  -2838.6  2046003.6 -0.1  2 0 1439 1793  951
[06]  29(G30)  f 44 10  0   -128.1  2046000.1 -0.0  2 0 2162 2826 1353
[16]  38(B02) 1f 36 27  0  -1115.7  4092002.8 -0.6  2 0  881 1190  459
[17]  41(B05) 1f 42 23  0  -1114.5  4092002.9  0.4  2 0 1395 1903 1022
[18]  49(B13) 1f 42  7  0  -1752.4  4092004.5 -0.0  2 0  641 1455  739
[19]  65(B29) 1f 43  9  0  -2055.0  4092005.3  0.1  2 0 1764 1849  807
[32]  83(N02)  f  7  7  0  -3097.2  1022001.9 -0.0 10 0   591  428  230
[33]  86(N05)  f 41 13  0  -2128.4  1022001.3 -0.0  2 0  1003 1209  748
[48]  38(B02)  1 10 13  1   -373.7 20460024.4 -0.2  1 0  478  659  305
[49]  41(B05)  1 24 27  0   -236.2 20460020.6 -0.0  1 0  401  138  143
[50]  49(B13)  1  7  7  0   -788.8 20460028.6  0.1  1 0  141  189   82
[51]  65(B29)  1  7  7  0   -938.9 20460034.0  0.1  1 0  382  510  575
$GNGGA,093827.335,,,,,0,00,,,M,,,,0000*29
$GNRMC,093827.335,A,,,,,,,030419,,*2B
$GPGSA,A,1,,,,,,,,,,,,,,,*1E
$BDGSA,A,1,,,,,,,,,,,,,,,*0F
$GLGSA,A,1,,,,,,,,,,,,,,,*02
$GPGSV,2,1,06,07,00,000,35,13,00,000,44,17,00,000,45,19,00,000,43*77
$GPGSV,2,2,06,28,00,000,40,30,00,000,44*72
$BDGSV,1,1,04,02,00,000,36,05,00,000,42,13,00,000,42,29,00,000,43*60
$B3CN0,0,0,0,0,0,0,0,0,0,0,0,0,0,0*4C
---00000038--- Acq_st=3 0  2019-4-3 9:38:28 
[00]  00(G01)  1 24 10  0      4.0  2046001.4  0.3  1 0  449  824  454
[01]  06(G07)  f 32  7  0   1814.7  2045997.8 -0.0  5 0  327  608  646
[02]  12(G13)  f 44  7  0   -293.1  2046000.3 -0.0  2 0 1708 2680 1133
[03]  16(G17)  f 46  7  0  -2312.1  2046002.9  0.0  2 0 3164 4491 2041
[04]  18(G19)  f 44  7  0  -3533.0  2046004.6 -0.0  2 0 1141 2353 1170
[05]  27(G28)  f 40  7  0  -2821.8  2046003.6  0.1  2 0 1060 1447  436
[06]  29(G30)  f 44  7  0   -109.1  2046000.1  0.0  2 0 1823 2875 1318
[16]  38(B02) 1f 37 20  0  -1096.2  4092002.6  0.0  2 0  722  887  492
[17]  41(B05) 1f 42 23  0  -1099.1  4092002.8  0.0  2 0 1001 1621  510
[18]  49(B13) 1f 42  7  0  -1734.9  4092004.4 -0.1  2 0 1363 1857  785
[19]  65(B29) 1f 43  8  0  -2036.1  4092005.2  0.0  2 0 1479 1915  425
[33]  86(N05)  f 41  7  0  -2111.3  1022001.3 -0.2  2 0  1013 1129  284
[50]  49(B13)  1  8 10  0   -857.9 20460029.0  0.1  1 0  342  709  900
[51]  65(B29)  1  7  7  0    -59.4 20460034.6 -0.0  1 0  191  103  397
$GNGGA,093828.335,,,,,0,00,,,M,,,,0000*26
$GNRMC,093828.335,A,,,,,,,030419,,*24
$GPGSA,A,1,,,,,,,,,,,,,,,*1E
$BDGSA,A,1,,,,,,,,,,,,,,,*0F
$GLGSA,A,1,,,,,,,,,,,,,,,*02
$GPGSV,2,1,06,07,00,000,32,13,00,000,44,17,00,000,46,19,00,000,44*74
$GPGSV,2,2,06,28,00,000,40,30,00,000,44*72
$BDGSV,1,1,04,02,00,000,37,05,00,000,42,13,00,000,42,29,00,000,43*61
$B3CN0,0,0,0,0,0,0,0,0,0,0,0,0,0,0*4C
---00000039--- Acq_st=3 0  2019-4-3 9:38:29 
[00]  00(G01)  7 24  7  0     -6.1  2045999.9  0.7 10 0  779  733  278
[01]  06(G07)  f 31  7  0   1809.6  2045997.6  0.0  5 0  388  696  902
[02]  12(G13)  f 44 10  0   -305.5  2046000.3 -0.0  2 0 1625 2463 1081
[03]  16(G17)  f 45  7  0  -2321.5  2046003.0 -0.0  2 0 2943 4695 2297
[04]  18(G19)  f 44  7  0  -3543.2  2046004.5 -0.0  2 0 1785 2845 1325
[05]  27(G28)  f 40  7  0  -2832.4  2046003.6  0.0  2 0 1112 1293  909
[06]  29(G30)  f 44  7  0   -119.6  2046000.1  0.0  2 0 2961 3390 1036
[08]  13(G14)  1  7  7  0  -8574.3  2046010.5 -0.1  1 0  579  275  497
[16]  38(B02) 1f 37 23  0  -1109.4  4092002.6  0.3  2 0  478  713   94
[17]  41(B05) 1f 43 25  0  -1107.8  4092002.8 -0.1  2 0 1200 1814 1243
[18]  49(B13) 1f 42  7  0  -1744.4  4092004.5 -0.0  2 0 1071 1369  683
[19]  65(B29) 1f 43  7  0  -2048.9  4092005.2  0.0  2 0 1430 1968 1131
[33]  86(N05)  f 41  7  0  -2120.7  1022001.3  0.1  2 0   343 1115  482
[48]  38(B02)  1 22 13  1  -1116.2 20460014.6  0.2  1 0  470  467  698
[49]  41(B05)  1 19 25  0   -537.6 20460016.2  0.0  1 0  559  496  412
[50]  49(B13)  1  7  7  0   -755.0 20460030.0  0.0  1 0  224  182  368
$GNGGA,093829.335,,,,,0,00,,,M,,,,0000*27
$GNRMC,093829.335,A,,,,,,,030419,,*25
$GPGSA,A,1,,,,,,,,,,,,,,,*1E
$BDGSA,A,1,,,,,,,,,,,,,,,*0F
$GLGSA,A,1,,,,,,,,,,,,,,,*02
$GPGSV,2,1,07,01,00,000,24,07,00,000,31,13,00,000,44,17,00,000,45*7A
$GPGSV,2,2,07,19,00,000,44,28,00,000,40,30,00,000,44*4B
$BDGSV,1,1,04,02,00,000,37,05,00,000,43,13,00,000,42,29,00,000,43*60
$B3CN0,0,0,0,0,0,0,0,0,0,0,0,0,0,0*4C
---00000040--- Acq_st=3 0  2019-4-3 9:38:30 
[00]  00(G01)  7 35  8  0     -1.2  2045999.9  0.1  2 0 1014 1173  513
[01]  06(G07)  f 33  7  0   1813.6  2045997.5 -0.0  5 0  998  757  710
[02]  12(G13)  f 43  7  0   -305.3  2046000.3  0.0  2 0 1994 2855 1446
[03]  16(G17)  f 46  7  0  -2322.0  2046003.0  0.0  2 0 3332 4750 2525
[04]  18(G19)  f 44  7  0  -3545.9  2046004.5 -0.0  2 0 1897 2659 1299
[05]  27(G28)  f 41  7  0  -2834.6  2046003.6 -0.1  2 0  865 1517  716
[06]  29(G30)  f 44  7  0   -120.6  2046000.1 -0.0  2 0 1412 3067 1231
[08]  13(G14)  1  7  7  0  -8701.1  2046010.5 -0.1  1 0  311  125  417
[16]  38(B02) 1f 36 27  0  -1105.8  4092002.8  0.8  2 0  557  670  375
[17]  41(B05) 1f 42 23  0  -1106.2  4092002.8  0.2  2 0 1595 2021  948
[18]  49(B13) 1f 42  7  0  -1744.8  4092004.5  0.1  2 0 1061 1752  623
[19]  65(B29) 1f 43  7  0  -2047.7  4092005.2 -0.0  2 0 2260 2205  965
[33]  86(N05)  f 41  7  0  -2121.9  1022001.3  0.1  2 0  1117 1246  465
[48]  38(B02)  1 14 10  1   -715.0 20460016.4  0.1  1 0  274  657  644
[49]  41(B05)  1 22 22  0  -1220.2 20460014.6 -0.0  1 0  538  205  350
[51]  65(B29)  1  7  7  0  -1883.7 20460032.6 -0.1  1 0  230  179  166
$GNGGA,093830.207,2944.9149,N,10633.0417,E,1,06,5.1,373.7,M,,,,0000*1C
$GNRMC,093830.207,A,2944.9149,N,10633.0417,E,1.32,0.00,030419,,*1D
$GPGSA,A,3,13,17,19,28,30,,,,,,,,6.7,5.1,4.4*32
$BDGSA,A,3,02,,,,,,,,,,,,6.7,5.1,4.4*24
$GLGSA,A,3,,,,,,,,,,,,,6.7,5.1,4.4*2B
$GPGSV,2,1,07,01,00,000,35,07,00,000,33,13,00,000,43,17,00,000,46*7C
$GPGSV,2,2,07,19,00,000,44,28,00,000,41,30,00,000,44*4A
$BDGSV,1,1,04,02,00,000,36,05,00,000,43,13,00,000,42,29,00,000,43*61
$B3CN0,0,0,0,0,0,0,0,0,0,0,0,0,0,0*4C
---00000041--- Acq_st=3 0  2019-4-3 9:38:30 
[00]  00(G01)  7 34 13  0    -12.0  2046000.1  0.1  2 0  245  354  514
[01]  06(G07)  f 35  7  0   1808.3  2045997.5  0.1  5 0 1254 1005  610
[02]  12(G13)  f 44  8  0   -310.6  2046000.4 -0.0  2 0 2175 2755 1299
[03]  16(G17)  f 46  8  0  -2327.0  2046002.9 -0.0  2 0 2771 4493 2400
[04]  18(G19)  f 44  7  0  -3552.9  2046004.5  0.1  2 0 1612 3055 1857
[05]  27(G28)  f 41  7  0  -2837.2  2046003.6  0.1  2 0 1624 2108 1077
[06]  29(G30)  f 44  7  0   -126.4  2046000.1  0.0  2 0 2150 2501  698
[08]  13(G14)  1  7  7  0  -8362.0  2046010.0  0.0  1 0  317   29  177
[16]  38(B02) 1f 36 22  0  -1108.3  4092002.8 -0.2  2 0 1016  620  359
[17]  41(B05) 1f 42 26  0  -1108.5  4092002.8  0.0  2 0 1269 1626  795
[18]  49(B13) 1f 42  7  0  -1750.7  4092004.4 -0.0  2 0 1426 1791  829
[19]  65(B29) 1f 43  7  0  -2053.2  4092005.2  0.0  2 0 1810 2336  582
[33]  86(N05)  f 41  7  0  -2126.7  1022001.4 -0.1  2 0   659 1008  617
[48]  38(B02)  1 10 10  0   -456.8 20460021.2 -0.0  1 0  300  187  189
[49]  41(B05)  1 24 21  0  -1183.7 20460021.8  0.0  1 0  343  806  430
[50]  49(B13)  1  7  7  0  -1445.1 20460029.7  0.1  1 0  542  376  496
[51]  65(B29)  1  7  7  0  -2003.3 20460033.6  0.2  1 0  123  212  438
BDS IONO corr PRN[02] 46.89 219.13 64.81 293929.88
usrllh latitude:0.519211 longitude:1.859660
 source:1 ion_pt: a0:0.000000 a1:0.000000 a2:-0.000002 a3:0.000005 b0:135168.000000 b1:-540672.000000 b2:3538944.000000 b3:-3801088.000000 
Refix G13: 2, 293929.916222, -303
Refix G17: 2, 293929.925243, -2319
Refix G19: 2, 293929.919581, -3542
Refix G22: 1, 293929.921770, -2372
Refix G28: 2, 293929.927680, -2830
Refix G30: 2, 293929.931012, -118
$GNGGA,093832.000,2944.9007,N,10633.0407,E,1,06,2.3,383.6,M,,,,0000*1A
$GNRMC,093832.000,A,2944.9007,N,10633.0407,E,2.19,20032.29,,,*1D
$GPGSA,A,3,13,17,19,28,30,,,,,,,,2.6,2.3,1.3*30
$BDGSA,A,3,02,,,,,,,,,,,,2.6,2.3,1.3*26
$GLGSA,A,3,,,,,,,,,,,,,2.6,2.3,1.3*29
$GPGSV,2,1,07,01,00,000,34,07,00,000,35,13,00,000,44,17,00,000,46*7C
$GPGSV,2,2,07,19,00,000,44,28,00,000,41,30,00,000,44*4A
$BDGSV,1,1,04,02,00,000,36,05,00,000,42,13,00,000,42,29,00,000,43*60
$B3CN0,0,0,0,0,0,0,0,0,0,0,0,0,0,0*4C
---00000042--- Acq_st=3 0  2019-4-3 9:38:32 
[00]  00(G01)  f 32 11  0      1.7  2046000.0 -0.2  5 0  502  800  348
[01]  06(G07)  f 37 12  0   1820.0  2045997.5  0.3  2 0 1511 1010  251
[02]  12(G13)  f 44  7  0   -305.3  2046000.4 -0.1  2 0 2241 2667 1074
[03]  16(G17)  f 46  8  0  -2321.9  2046002.9  0.0  2 0 3660 4861 2644
[04]  18(G19)  f 44  7  0  -3540.8  2046004.5  0.0  2 0 1902 2195  195
[05]  27(G28)  f 41  7  0  -2831.5  2046003.6  0.0  2 0 1480 1977  914
[06]  29(G30)  f 44  7  0   -120.3  2046000.1 -0.0  2 0 1976 3318 1684
[08]  13(G14)  1 11  7  0  -8246.8  2046010.6 -0.2  1 0  344  415  265
[16]  38(B02) 1f 36 28  0  -1102.1  4092002.6 -0.7  2 0 1129  828   89
[17]  41(B05) 1f 43 26  0  -1109.1  4092002.7 -0.1  2 0  941 1395  413
[18]  49(B13) 1f 41  7  0  -1745.1  4092004.5 -0.0  2 0 1486 1958  977
[19]  65(B29) 1f 43  7  0  -2048.8  4092005.2 -0.0  2 0 1881 2471 1005
[33]  86(N05) 8f 40  7  0  -2121.3  1022001.3  0.4  2 0   632 1204  670
[48]  38(B02)  1 18 10  0  -1049.3 20460021.8 -0.1  1 0  383  385  158
[49]  41(B05)  1 26 23  0   -789.4 20460023.0  0.1  1 0  191  513  599
[50]  49(B13)  1  7  7  0   -990.0 20460027.6 -0.1  1 0  332  404   76
[51]  65(B29)  1  7  7  0  -2002.1 20460032.2  0.1  1 0  389  171  216
BDS IONO corr PRN[02] 46.89 219.13 64.81 293930.88
usrllh latitude:0.519207 longitude:1.859660
 source:1 ion_pt: a0:0.000000 a1:0.000000 a2:-0.000002 a3:0.000005 b0:135168.000000 b1:-540672.000000 b2:3538944.000000 b3:-3801088.000000 
Refix G13: 2, 293930.916222, -307
Refix G17: 2, 293930.925245, -2323
Refix G19: 2, 293930.919583, -3546
Refix G22: 1, 293930.921772, -2370
Refix G28: 2, 293930.927682, -2833
Refix G30: 2, 293930.931012, -120
$GNGGA,093833.000,2944.8962,N,10633.0409,E,1,06,2.3,382.5,M,,,,0000*1C
$GNRMC,093833.000,A,2944.8962,N,10633.0409,E,0.96,20032.29,,,*1C
$GPGSA,A,3,13,17,19,28,30,,,,,,,,2.6,2.3,1.3*30
$BDGSA,A,3,02,,,,,,,,,,,,2.6,2.3,1.3*26
$GLGSA,A,3,,,,,,,,,,,,,2.6,2.3,1.3*29
$GPGSV,2,1,08,01,00,000,32,07,00,000,37,13,06,289,44,17,37,275,46*76
$GPGSV,2,2,08,19,16,258,44,28,49,333,41,30,62,233,44,22,22,102,00*76
$BDGSV,3,1,09,02,46,219,36,05,27,244,43,13,58,210,41,29,52,269,43*66
