$GNGGA,000000.000,,,,,0,00,,,M,,,,0000*2B
$GNRMC,000000.000,A,,,,,,,060180,,*29
$GPGSA,A,1,,,,,,,,,,,,,,,*1E
$BDGSA,A,1,,,,,,,,,,,,,,,*0F
$GLGSA,A,1,,,,,,,,,,,,,,,*02
$B3CN0,0,0,0,0,0,0,0,0,0,0,0,0,0,0*4C
---00000001--- Acq_st=3 0  2019-4-3 9:48:7 
[00]  06(G07)  1  7  7  0   2000.0  2045998.8  0.0  1 0  573 1459 1120
$GNGGA,000000.000,,,,,0,00,,,M,,,,0000*2B
$GNRMC,000000.000,A,,,,,,,060180,,*29
$GPGSA,A,1,,,,,,,,,,,,,,,*1E
$BDGSA,A,1,,,,,,,,,,,,,,,*0F
$GLGSA,A,1,,,,,,,,,,,,,,,*02
$B3CN0,0,0,0,0,0,0,0,0,0,0,0,0,0,0*4C
---00000002--- Acq_st=3 0  2019-4-3 9:48:8 
[00]  06(G07)  1 31  7  0   2045.4  2045997.1  0.8  1 0  820  837  288
[01]  12(G13)  1 25  7  0    -54.8  2046000.9  0.4  1 0 1316 1389  732
[02]  16(G17)  1 18  7  0  -2193.2  2046005.8  0.1  1 0  352 1900 4035
[03]  18(G19)  1  7  7  0  -3433.1  2046007.7  0.1  1 0   85 2467 4602
$GNGGA,000000.000,,,,,0,00,,,M,,,,0000*2B
$GNRMC,000000.000,A,,,,,,,060180,,*29
$GPGSA,A,1,,,,,,,,,,,,,,,*1E
$BDGSA,A,1,,,,,,,,,,,,,,,*0F
$GLGSA,A,1,,,,,,,,,,,,,,,*02
$B3CN0,0,0,0,0,0,0,0,0,0,0,0,0,0,0*4C
---00000003--- Acq_st=3 0  2019-4-3 9:48:9 
[00]  06(G07)  7 32  7  0   2039.7  2045997.3 -0.1  5 0  761  976  163
[01]  12(G13)  7 25  7  0    -56.0  2046000.0  0.7 10 0 1216 1322  606
[02]  16(G17)  7  7  7  0  -2196.1  2046002.7  1.0 10 0 2916 3353 1473
[03]  18(G19)  1 34  7  0  -3428.0  2046004.3  1.0  1 0 3935 4381 1812
[04]  27(G28)  1 16  7  0  -2762.6  2046005.2  0.0  1 0  487  620 1087
[05]  29(G30)  1 30  7  0    242.8  2046000.1  0.2  1 0 1467 2563 1192
[16]  38(B02)  1 30 10  0  -1250.0  4092004.1  0.0  1 0  557 1575 1099
$GNGGA,000000.000,,,,,0,00,,,M,,,,0000*2B
$GNRMC,000000.000,A,,,,,,,060180,,*29
$GPGSA,A,1,,,,,,,,,,,,,,,*1E
$BDGSA,A,1,,,,,,,,,,,,,,,*0F
$GLGSA,A,1,,,,,,,,,,,,,,,*02
$GPGSV,1,1,02,07,00,000,32,13,00,000,25*78
$B3CN0,0,0,0,0,0,0,0,0,0,0,0,0,0,0*4C
---00000004--- Acq_st=3 0  2019-4-3 9:48:10 
[00]  06(G07)  7 37  7  0   2027.8  2045997.3 -0.0  2 0  272  876  730
[01]  12(G13)  7 40  7  0    -64.7  2046000.0  0.1  2 0 1027 1108  456
[02]  16(G17)  7 46  7  0  -2202.3  2046002.8 -0.1  2 0 2798 3252 1297
[03]  18(G19)  7 38  7  0  -3431.3  2046004.3  0.1  2 0 3521 4262 1490
[04]  27(G28)  7 23  7  0  -2778.3  2046003.7  0.3 10 0  576 1656 1625
[05]  29(G30)  7 18  7  0    238.3  2045999.6  0.9 10 0 2222 3099 1233
[16]  38(B02)  1 38 24  0  -1098.1  4092002.9  0.9  1 0  889  802  706
[17]  41(B05)  1 22 23  0  -1118.8  4092003.2  0.5  1 0  980 1341  601
$GNGGA,000000.000,,,,,0,00,,,M,,,,0000*2B
$GNRMC,000000.000,A,,,,,,,060180,,*29
$GPGSA,A,1,,,,,,,,,,,,,,,*1E
$BDGSA,A,1,,,,,,,,,,,,,,,*0F
$GLGSA,A,1,,,,,,,,,,,,,,,*02
$GPGSV,2,1,06,07,00,000,37,13,00,000,40,17,00,000,46,19,00,000,38*7E
$GPGSV,2,2,06,28,00,000,23,30,00,000,18*7E
$B3CN0,0,0,0,0,0,0,0,0,0,0,0,0,0,0*4C
---00000005--- Acq_st=3 0  2019-4-3 9:48:11 
[00]  06(G07)  7 37  7  0   2038.9  2045997.3  0.1  2 0  640  479  158
[01]  12(G13)  7 40  7  0    -63.5  2046000.0 -0.0  2 0 1098 1816 1206
[02]  16(G17)  7 44  7  0  -2200.1  2046002.8  0.0  2 0 2316 3335 1483
[03]  18(G19)  7 45  7  0  -3429.9  2046004.4 -0.0  2 0 2925 4172 1574
[04]  27(G28)  7 43  7  0  -2775.6  2046003.7 -0.0  2 0  480 2411 1747
[05]  29(G30)  7 45  7  0    242.5  2045999.6 -0.1  2 0 2269 3386 1255
[16]  38(B02)  f 37 25  0  -1103.6  4092002.8  0.5  2 0  688  853  258
[17]  41(B05)  7 36 21  0  -1102.0  4092002.6  0.5  2 0 1767  743  308
[18]  49(B13)  1  7  7  0  -1658.9  4092005.3  0.0  1 0  653 1686 1150
$GNGGA,000000.000,,,,,0,00,,,M,,,,0000*2B
$GNRMC,000000.000,A,,,,,,,060180,,*29
$GPGSA,A,1,,,,,,,,,,,,,,,*1E
$BDGSA,A,1,,,,,,,,,,,,,,,*0F
$GLGSA,A,1,,,,,,,,,,,,,,,*02
$GPGSV,2,1,06,07,00,000,37,13,00,000,40,17,00,000,44,19,00,000,45*76
$GPGSV,2,2,06,28,00,000,43,30,00,000,45*70
$BDGSV,1,1,02,02,00,000,37,05,00,000,36*6C
$B3CN0,0,0,0,0,0,0,0,0,0,0,0,0,0,0*4C
---00000006--- Acq_st=3 0  2019-4-3 9:48:12 
[00]  06(G07)  7 37  7  0   2041.0  2045997.3  0.2  2 0  562  831  406
[01]  12(G13)  7 40  7  0    -54.1  2046000.0  0.1  2 0  732 1234  614
[02]  16(G17)  7 45  7  0  -2194.0  2046002.8  0.0  2 0 2291 3674 2242
[03]  18(G19)  7 45  7  0  -3424.3  2046004.4 -0.0  2 0 2742 4030 1554
[04]  27(G28)  7 43  7  0  -2769.3  2046003.7  0.0  2 0  998 2015 1517
[05]  29(G30)  7 44  7  0    248.6  2045999.6 -0.0  2 0 2544 3322 1351
[16]  38(B02) 1f 37 25  0  -1101.1  4092002.8  0.8  2 0  935 1301  609
[17]  41(B05) 1f 38 26  0  -1104.3  4092002.6 -0.4  2 0 1374  742  392
[18]  49(B13)  1  7  7  0  -1656.0  4092004.0  0.2  1 0  641 1693  779
[48]  38(B02)  1 10 10  0  -1000.1 20460019.3 -0.2  1 0  224  379  192
$GNGGA,000000.000,,,,,0,00,,,M,,,,0000*2B
$GNRMC,000000.000,A,,,,,,,060180,,*29
$GPGSA,A,1,,,,,,,,,,,,,,,*1E
$BDGSA,A,1,,,,,,,,,,,,,,,*0F
$GLGSA,A,1,,,,,,,,,,,,,,,*02
$GPGSV,2,1,06,07,00,000,37,13,00,000,40,17,00,000,44,19,00,000,45*76
$GPGSV,2,2,06,28,00,000,43,30,00,000,44*71
$BDGSV,1,1,02,02,00,000,38,05,00,000,38*6D
$B3CN0,0,0,0,0,0,0,0,0,0,0,0,0,0,0*4C
---00000007--- Acq_st=3 0  2019-4-3 9:48:13 
[00]  06(G07)  7 37  7  0   2041.6  2045997.3  0.1  2 0  614  828   72
[01]  12(G13)  7 40  7  0    -60.6  2046000.0 -0.0  2 0 1082 1283  773
[02]  16(G17)  7 44  7  0  -2201.0  2046002.8  0.0  2 0 2477 3392 1804
[03]  18(G19)  7 45  7  0  -3430.5  2046004.4  0.0  2 0 3026 4143 1733
[04]  27(G28)  7 42  7  0  -2776.8  2046003.6 -0.0  2 0 1483 2432 1121
[05]  29(G30)  7 44  7  0    243.5  2045999.6  0.0  2 0 2423 3163 1570
[16]  38(B02) 1f 39 26  0  -1099.6  4092002.7  0.4  2 0  464  544  319
[17]  41(B05) 1f 39 22  0  -1105.4  4092002.7 -0.2  2 0 1255  747  391
[18]  49(B13)  7 39  7  0  -1662.4  4092004.3  0.0  2 0 1176 1171  424
[19]  65(B29)  1  7  7  0  -2000.0  4092007.0 -0.0  1 0  242  798 2073
[48]  38(B02)  1 10 14  1  -1266.9 20460015.1  0.0  1 0  339  728  413
[49]  41(B05)  1 21 19  0   -843.8 20460018.9  0.0  1 0  700  202  728
$GNGGA,094814.137,,,,,0,00,,,M,,,,0000*2E
$GNRMC,094814.137,A,,,,,,,090180,,*23
$GPGSA,A,1,,,,,,,,,,,,,,,*1E
$BDGSA,A,1,,,,,,,,,,,,,,,*0F
$GLGSA,A,1,,,,,,,,,,,,,,,*02
$GPGSV,2,1,06,07,00,000,37,13,00,000,40,17,00,000,44,19,00,000,45*76
$GPGSV,2,2,06,28,00,000,42,30,00,000,44*70
$BDGSV,1,1,03,02,00,000,39,05,00,000,39,13,00,000,39*54
$B3CN0,0,0,0,0,0,0,0,0,0,0,0,0,0,0*4C
---00000008--- Acq_st=2 0  2019-4-3 9:48:14 
[00]  06(G07)  f 36  7  0   2039.4  2045997.3  0.2  2 0  673  949  438
[01]  12(G13)  f 40  7  0    -57.0  2046000.0 -0.0  2 0  963 1468  734
[02]  16(G17)  f 45  7  0  -2198.5  2046002.8  0.0  2 0 3054 3522 1999
[03]  18(G19)  f 45  7  0  -3429.1  2046004.4  0.0  2 0 2313 3808 2003
[04]  27(G28)  f 43  7  0  -2776.8  2046003.5  0.1  2 0 1286 2044 1224
[05]  29(G30)  f 44 11  0    245.3  2045999.6  0.0  2 0 2103 3034 1079
[16]  38(B02) 1f 37 26  0  -1102.8  4092002.6  0.6  2 0 1030  677  168
[17]  41(B05) 1f 39 19  0  -1103.4  4092002.6 -0.0  2 0 1557 1423  503
[18]  49(B13)  7 42  7  0  -1655.3  4092004.2  0.1  2 0 1197 1396  326
[19]  65(B29)  1  7  7  0  -1885.4  4092005.0  0.3  1 0 1603 2210 1063
[32]  77(N-4)  1  7  7  0  -4240.4  1022002.4 -0.0  1 0   227   63  328
[48]  38(B02)  f 14 10  1  -1510.0 20460023.7  0.1  2 0  412  146  283
[49]  41(B05)  1 19 19  1   -853.4 20460020.2  0.3  1 0   60  134  119
$GNGGA,094815.137,,,,,0,00,,,M,,,,0000*2F
$GNRMC,094815.137,A,,,,,,,090180,,*22
$GPGSA,A,1,,,,,,,,,,,,,,,*1E
$BDGSA,A,1,,,,,,,,,,,,,,,*0F
$GLGSA,A,1,,,,,,,,,,,,,,,*02
$GPGSV,2,1,06,07,00,000,36,13,00,000,40,17,00,000,45,19,00,000,45*76
$GPGSV,2,2,06,28,00,000,43,30,00,000,44*71
$BDGSV,1,1,03,02,00,000,38,05,00,000,39,13,00,000,42*59
$B3CN0,0,20,0,0,0,0,0,0,0,0,0,0,0,0*7E
---00000009--- Acq_st=7 0  2019-4-3 9:48:15 
[00]  06(G07)  f 36  7  0   2040.3  2045997.3 -0.4  2 0  799  991  578
[01]  12(G13)  f 40  7  0    -61.5  2046000.0 -0.0  2 0 1332 1857 1027
[02]  16(G17)  f 45  7  0  -2200.0  2046002.8 -0.0  2 0 2987 3679 1537
[03]  18(G19)  f 44  7  0  -3433.1  2046004.4 -0.0  2 0 1987 3206 1183
[04]  27(G28)  f 42  7  0  -2776.7  2046003.6 -0.0  2 0 1230 2303  896
[05]  29(G30)  f 44  7  0    243.7  2045999.6  0.0  2 0 1828 3043 1440
[16]  38(B02) 1f 37 23  0  -1098.9  4092002.7 -0.5  2 0  934 1254  431
[17]  41(B05) 1f 39 26  0  -1110.8  4092002.8  0.4  2 0 1282 1394  540
[18]  49(B13)  7 42  7  0  -1662.5  4092004.2 -0.0  2 0 1201 1652  852
[19]  65(B29)  7 27  7  0  -1882.2  4092004.8  0.3 10 0  922 1722  936
[32]  77(N-4)  1 23 15  0  -4334.3  1022003.2  0.0  1 0   183  468  383
[33]  79(N-2)  1 24 13  0  -2208.1  1022002.3  0.1  1 0   480  626  380
[34]  86(N05)  1 15  7  0  -1750.0  1022003.2 -0.0  1 0   159  268  922
[48]  38(B02)  f 18 10  1  -1982.8 20460033.7 -0.2  2 0  539  299  451
[49]  41(B05)  1 23 24  0   -916.9 20460020.0 -0.2  1 0  142  522  369
$GNGGA,094816.137,,,,,0,00,,,M,,,,0000*2C
$GNRMC,094816.137,A,,,,,,,090180,,*21
$GPGSA,A,1,,,,,,,,,,,,,,,*1E
$BDGSA,A,1,,,,,,,,,,,,,,,*0F
$GLGSA,A,1,,,,,,,,,,,,,,,*02
$GPGSV,2,1,06,07,00,000,36,13,00,000,40,17,00,000,45,19,00,000,44*77
$GPGSV,2,2,06,28,00,000,42,30,00,000,44*70
$BDGSV,1,1,04,02,00,000,37,05,00,000,39,13,00,000,42,29,00,000,27*6F
$B3CN0,0,16,0,0,0,0,0,0,0,0,0,0,0,0*7B
---00000010--- Acq_st=7 0  2019-4-3 9:48:16 
[00]  06(G07)  f 38  7  0   2046.3  2045997.2 -0.1  2 0 1012 1427  839
[01]  12(G13)  f 40  7  0    -45.3  2046000.0  0.0  2 0  816 1523  715
[02]  16(G17)  f 45  7  0  -2190.3  2046002.7 -0.0  2 0 2907 4173 2127
[03]  18(G19)  f 44  7  0  -3421.0  2046004.4 -0.0  2 0 1657 2673 1532
[04]  27(G28)  f 43  7  0  -2767.9  2046003.5  0.1  2 0 1013 1918  893
[05]  29(G30)  f 43  7  0    254.4  2045999.7 -0.0  2 0 1342 2562 1097
[16]  38(B02) 1f 37 27  0  -1089.5  4092002.8  0.6  2 0  722  974  570
[17]  41(B05) 1f 40 10  0  -1097.6  4092002.6 -0.5  2 0 1316 1280  932
[18]  49(B13) 1f 42  7  0  -1652.7  4092004.2  0.0  2 0 1211 1633  647
[19]  65(B29)  7 43  7  0  -1871.4  4092004.8  0.0  2 0 1503 1836  773
[32]  77(N-4)  1 25 14  0  -4321.6  1022003.0  0.1  1 0   408  475  193
[33]  79(N-2)  7 28 13  0  -2202.6  1022001.3  0.2 10 0   310  211  315
[34]  86(N05)  1 30 22  0  -1766.9  1022002.2  1.0  1 0   927 1217  421
[48]  38(B02)  f 36 10  0  -2064.9 20460033.4 -0.1  2 0  632  260  113
[49]  41(B05)  1 21 26  1  -1231.3 20460018.5 -0.1  1 0  465  600  579
$GNGGA,094817.137,,,,,0,00,,,M,,,,0000*2D
$GNRMC,094817.137,A,,,,,,,090180,,*20
$GPGSA,A,1,,,,,,,,,,,,,,,*1E
$BDGSA,A,1,,,,,,,,,,,,,,,*0F
$GLGSA,A,1,,,,,,,,,,,,,,,*02
$GPGSV,2,1,06,07,00,000,38,13,00,000,40,17,00,000,45,19,00,000,44*79
$GPGSV,2,2,06,28,00,000,43,30,00,000,43*76
$BDGSV,1,1,04,02,00,000,37,05,00,000,41,13,00,000,42,29,00,000,43*62
$B3CN0,0,0,0,0,0,0,0,0,0,0,0,0,0,0*4C
---00000011--- Acq_st=3 0  2019-4-3 9:48:17 
[00]  06(G07)  f 39  7  0   2056.5  2045997.2  0.1  2 0 1221 1541  928
[01]  12(G13)  f 41 11  0    -47.1  2046000.0  0.1  2 0  992 1199  549
[02]  16(G17)  f 45  7  0  -2185.6  2046002.7  0.0  2 0 2654 4013 1898
[03]  18(G19)  f 44  7  0  -3416.8  2046004.3  0.0  2 0 2394 3147 1153
[04]  27(G28)  f 43  7  0  -2764.5  2046003.5 -0.1  2 0 1524 2306  868
[05]  29(G30)  f 43  7  0    260.1  2045999.7 -0.0  2 0 1057 3010 1479
[06]  05(G06)  1  7  7  0  -1000.0  2046001.5 -0.0  1 0  297  349  306
[16]  38(B02) 1f 38 26  0  -1087.7  4092002.8  0.5  2 0  411 1147  418
[17]  41(B05) 1f 41 20  0  -1093.3  4092002.7 -0.0  2 0  755 1285  755
[18]  49(B13) 1f 42  7  0  -1641.3  4092004.2 -0.1  2 0 1327 1189  347
[19]  65(B29)  7 43  7  0  -1867.6  4092004.8 -0.0  2 0 1454 2126 1045
[32]  77(N-4)  7 33  9  0  -4329.3  1022002.6  0.0  5 0   239  379   65
[33]  79(N-2)  7 33 16  0  -2190.7  1022001.2  0.0  5 0   171   37  277
[34]  86(N05)  7 40 16  0  -1762.3  1022001.0 -0.5  2 0   809  934  508
[48]  38(B02)  f 17 10  1  -2675.7 20460041.6  0.0  2 0  146  121  203
[50]  49(B13)  1  7  7  0  -1766.8 20460025.6 -0.2  1 0  213  285  590
$GNGGA,094818.137,,,,,0,00,,,M,,,,0000*22
$GNRMC,094818.137,A,,,,,,,090180,,*2F
$GPGSA,A,1,,,,,,,,,,,,,,,*1E
$BDGSA,A,1,,,,,,,,,,,,,,,*0F
$GLGSA,A,1,,,,,,,,,,,,,,,*02
$GPGSV,2,1,06,07,00,000,39,13,00,000,41,17,00,000,45,19,00,000,44*79
$GPGSV,2,2,06,28,00,000,43,30,00,000,43*76
$BDGSV,1,1,04,02,00,000,38,05,00,000,41,13,00,000,42,29,00,000,43*6D
$B3CN0,0,17,0,0,0,0,0,0,0,0,0,0,0,0*7A
---00000012--- Acq_st=3 0  2019-4-3 9:48:18 
[00]  06(G07)  f 40  7  0   2052.4  2045997.2  0.0  2 0 1593 1646  881
[01]  12(G13)  f 41  7  0    -44.8  2046000.0 -0.1  2 0 1028 1388  518
[02]  16(G17)  f 46  7  0  -2187.4  2046002.8 -0.1  2 0 2983 4037 1728
[03]  18(G19)  f 43  7  0  -3415.8  2046004.4  0.0  2 0  889 1217  514
[04]  27(G28)  f 43  7  0  -2763.0  2046003.5  0.1  2 0  925 1785 1016
[05]  29(G30)  f 43  7  0    255.9  2045999.7 -0.0  2 0  544 1485  689
[06]  05(G06)  1  9  7  0  -1114.2  2046001.1 -0.1  1 0  263  397  206
[16]  38(B02) 1f 37 23  0  -1091.2  4092002.6 -0.5  2 0  879  696   62
[17]  41(B05) 1f 42 23  0  -1094.6  4092002.8  0.6  2 0 1081 1523  716
[18]  49(B13) 1f 42  7  0  -1644.6  4092004.2  0.0  2 0 1211 1876  753
[19]  65(B29)  7 42  7  0  -1867.6  4092004.8  0.0  2 0 1388 1836  565
[32]  77(N-4)  7 33 18  0  -4330.4  1022002.7  0.1  5 0   354  322  317
[33]  79(N-2)  7 34 15  0  -2191.5  1022001.4  0.0  5 0   159  313  133
[34]  86(N05)  7 40 19  0  -1761.7  1022001.0 -0.2  2 0   806 1001  440
[49]  41(B05)  1 23 20  1   -950.1 20460019.6  0.0  1 0  384  457  602
[50]  49(B13)  1  7  9  0  -1481.0 20460027.2 -0.0  1 0  489  374  659
---00000013--- Acq_st=3 0  2019-4-3 9:48:19 
[00]  06(G07)  f 39  7  0   2040.7  2045997.3 -0.1  2 0 1386 1658  863
[01]  12(G13)  f 41  7  0    -55.4  2046000.0  0.0  2 0  616 1639 1334
[02]  16(G17)  f 45  7  0  -2195.8  2046002.8  0.0  2 0 2613 4186 1952
[03]  18(G19)  f 40  7  0  -3427.4  2046004.5 -0.1  2 0  763 1494 1061
[04]  27(G28)  f 43  7  0  -2768.8  2046003.6 -0.0  2 0 1832 2233  987
[05]  29(G30)  f 43  7  0    248.0  2045999.6  0.0  2 0 1194 2186 1270
[06]  05(G06)  1 15  7  0   -958.7  2046000.3  0.1  1 0  380  327  185
[16]  38(B02) 1f 38 26  0  -1100.8  4092002.7  0.5  2 0  925  891  333
[17]  41(B05) 1f 41 18  0  -1100.1  4092002.7  0.6  2 0 1307 1422  620
[18]  49(B13) 1f 42  7  0  -1655.9  4092004.2  0.0  2 0 1468 1491  861
[19]  65(B29)  7 42  7  0  -1876.7  4092004.8 -0.0  2 0 1650 1973  556
[32]  77(N-4)  7 33 17  0  -4337.2  1022002.8  0.1  5 0   124  326  372
[33]  79(N-2)  f 33  7  0  -2196.5  1022001.3 -0.0  5 0   675  503  330
[34]  86(N05)  7 40 19  0  -1768.6  1022001.0 -0.3  2 0   677 1245  681
[48]  38(B02)  1 20 10  1   -803.6 20460020.1  0.0  1 0  688  309  536
[49]  41(B05)  1 23 19  1   -769.0 20460020.3  0.1  1 0  440  171  297
[50]  49(B13)  1  7  7  0  -1356.6 20460025.9  0.0  1 0  717  671  479
$GNGGA,094819.137,,,,,0,00,,,M,,,,0000*23
$GNRMC,094819.137,A,,,,,,,030419,,*21
$GPGSA,A,1,,,,,,,,,,,,,,,*1E
$BDGSA,A,1,,,,,,,,,,,,,,,*0F
$GLGSA,A,1,,,,,,,,,,,,,,,*02
$GPGSV,2,1,06,07,00,000,39,13,00,000,41,17,00,000,45,19,00,000,40*7D
$GPGSV,2,2,06,28,00,000,43,30,00,000,43*76
$BDGSV,1,1,04,02,00,000,38,05,00,000,41,13,00,000,42,29,00,000,42*6C
$B3CN0,0,0,0,0,0,0,0,0,0,0,0,0,0,0*4C
---00000014--- Acq_st=3 0  2019-4-3 9:48:20 
[00]  06(G07)  f 39  7  0   2045.5  2045997.2  0.1  2 0 1061 1239  803
[01]  12(G13)  f 40  7  0    -55.8  2046000.0  0.1  2 0  688 1333  657
[02]  16(G17)  f 45  7  0  -2194.1  2046002.8  0.0  2 0 2815 4370 1807
[03]  18(G19)  f 38  7  0  -3430.7  2046004.6 -0.1  2 0  159  815  706
[04]  27(G28)  f 43  7  0  -2768.4  2046003.6 -0.1  2 0  549 1707  867
[05]  29(G30)  f 43  7  0    252.8  2045999.6  0.0  2 0 1117 1850 1172
[06]  05(G06)  1  7  7  0  -1394.6  2046000.8 -0.2  1 0  103  271  202
[16]  38(B02) 1f 37 22  0  -1097.8  4092002.7  0.9  2 0  629 1064  619
[17]  41(B05) 1f 41 26  0  -1099.6  4092002.8  0.1  2 0  882 1263  974
[18]  49(B13) 1f 42  7  0  -1652.9  4092004.2 -0.1  2 0  989 1554  605
[19]  65(B29)  7 42  7  0  -1872.7  4092004.8 -0.0  2 0 1366 1924  782
[32]  77(N-4)  7 33 17  0  -4333.0  1022002.8 -0.0  5 0   209  462  225
[33]  79(N-2)  f 35  7  0  -2193.1  1022001.3  0.0  5 0   215  571  510
[34]  86(N05)  7 41 14  0  -1765.2  1022001.0  0.0  2 0   295  782  656
[48]  38(B02)  1 10 19  0   -559.3 20460020.9  0.1  1 0  205  297   56
[49]  41(B05)  1 24 24  1   -801.1 20460022.8  0.1  1 0  259  890  946
[50]  49(B13)  1  9  7  0   -985.1 20460026.7 -0.1  1 0  686  688  125
$GNGGA,094820.137,,,,,0,00,,,M,,,,0000*29
$GNRMC,094820.137,A,,,,,,,030419,,*2B
$GPGSA,A,1,,,,,,,,,,,,,,,*1E
$BDGSA,A,1,,,,,,,,,,,,,,,*0F
$GLGSA,A,1,,,,,,,,,,,,,,,*02
$GPGSV,2,1,06,07,00,000,39,13,00,000,40,17,00,000,45,19,00,000,38*73
$GPGSV,2,2,06,28,00,000,43,30,00,000,43*76
$BDGSV,1,1,04,02,00,000,37,05,00,000,41,13,00,000,42,29,00,000,42*63
$B3CN0,0,0,0,0,0,0,0,0,0,0,0,0,0,0*4C
---00000015--- Acq_st=3 0  2019-4-3 9:48:21 
[00]  06(G07)  f 40  7  0   2047.4  2045997.2 -0.1  2 0  849 1498 1018
[01]  12(G13)  f 41  7  0    -49.3  2046000.0 -0.1  2 0  875 1701 1030
[02]  16(G17)  f 46  7  0  -2190.3  2046002.8 -0.0  2 0 2769 4249 2045
[03]  18(G19)  f 38  7  0  -3417.9  2046004.5  0.1  2 0  846 1087  670
[04]  27(G28)  f 42  7  0  -2763.5  2046003.5  0.0  2 0 1548 2442 1546
[05]  29(G30)  f 44  7  0    256.7  2045999.6 -0.0  2 0 1743 2273 1072
[06]  05(G06)  1 12  7  0  -1112.5  2046001.1 -0.1  1 0  532  219  117
[16]  38(B02) 1f 38 29  0  -1092.2  4092002.7  0.3  2 0  561  629  140
[17]  41(B05) 1f 41 17  0  -1097.6  4092002.7 -0.4  2 0 1247 1629  341
[18]  49(B13) 1f 42  7  0  -1649.1  4092004.2  0.1  2 0 1406 1636  949
[19]  65(B29)  7 42  7  0  -1869.7  4092004.8 -0.0  2 0 1132 1286  516
[32]  77(N-4)  f 32  7  0  -4327.6  1022002.8  0.1  5 0   204  337  294
[33]  79(N-2)  f 34  7  0  -2188.0  1022001.4 -0.1  2 0   199  744  564
[34]  86(N05)  f 39 10  0  -1762.1  1022001.1 -0.0  2 0   745 1226  565
[48]  38(B02)  f 20 10  1  -1253.9 20460019.3 -0.0  2 0   34  247  154
[49]  41(B05)  1 23 20  1  -1070.1 20460021.0 -0.1  1 0  197  174  406
$GNGGA,094821.137,,,,,0,00,,,M,,,,0000*28
$GNRMC,094821.137,A,,,,,,,030419,,*2A
$GPGSA,A,1,,,,,,,,,,,,,,,*1E
$BDGSA,A,1,,,,,,,,,,,,,,,*0F
$GLGSA,A,1,,,,,,,,,,,,,,,*02
$GPGSV,2,1,06,07,00,000,40,13,00,000,41,17,00,000,46,19,00,000,38*7F
$GPGSV,2,2,06,28,00,000,42,30,00,000,44*70
$BDGSV,1,1,04,02,00,000,38,05,00,000,41,13,00,000,42,29,00,000,42*6C
$B3CN0,0,20,0,0,0,0,0,0,0,0,0,0,0,0*7E
---00000016--- Acq_st=3 0  2019-4-3 9:48:22 
[00]  06(G07)  f 40  7  0   2044.5  2045997.2 -0.0  2 0 1008 1039  318
[01]  12(G13)  f 41  7  0    -52.2  2046000.0  0.0  2 0  695  912  506
[02]  16(G17)  f 45  7  0  -2192.2  2046002.8  0.0  2 0 2714 3979 2038
[03]  18(G19)  f 40  7  0  -3424.6  2046004.4  0.0  2 0  636 1183  962
[04]  27(G28)  f 42  7  0  -2769.2  2046003.5 -0.0  2 0 1356 1912  552
[05]  29(G30)  f 43  8  0    254.2  2045999.6  0.1  2 0 1715 2474 1422
[16]  38(B02) 1f 38 22  0  -1099.4  4092002.8 -0.7  2 0  447  984  350
[17]  41(B05) 1f 41 22  0  -1101.5  4092002.8 -0.3  2 0  906  995  295
[18]  49(B13) 1f 42  7  0  -1657.0  4092004.2 -0.1  2 0 1515 2153  875
[19]  65(B29) 1f 42  7  0  -1875.0  4092004.8  0.0  2 0 1561 2053  856
[32]  77(N-4)  f 32  7  0  -4335.7  1022002.8  0.1  5 0   234  323   54
[33]  79(N-2)  f 33 10  0  -2197.6  1022001.4  0.0  2 0   153  240  158
[34]  86(N05)  f 41 17  0  -1767.8  1022001.1  0.2  2 0   305  683  359
[48]  38(B02)  f 10 10  1  -1497.5 20460022.7 -0.1  2 0  649  329  347
[50]  49(B13)  1  7  7  0  -1450.5 20460027.5  0.1  1 0  352  497  183
$GNGGA,094822.137,,,,,0,00,,,M,,,,0000*2B
$GNRMC,094822.137,A,,,,,,,030419,,*29
$GPGSA,A,1,,,,,,,,,,,,,,,*1E
$BDGSA,A,1,,,,,,,,,,,,,,,*0F
$GLGSA,A,1,,,,,,,,,,,,,,,*02
$GPGSV,2,1,06,07,00,000,40,13,00,000,41,17,00,000,45,19,00,000,40*73
$GPGSV,2,2,06,28,00,000,42,30,00,000,43*77
$BDGSV,1,1,04,02,00,000,38,05,00,000,41,13,00,000,42,29,00,000,42*6C
$B3CN0,0,0,0,0,0,0,0,0,0,0,0,0,0,0*4C
---00000017--- Acq_st=3 0  2019-4-3 9:48:23 
[00]  06(G07)  f 41  7  0   2044.8  2045997.3 -0.1  2 0 1061 1585  646
[01]  12(G13)  f 40  7  0    -56.5  2046000.0 -0.1  2 0  743 1434  673
[02]  16(G17)  f 45  7  0  -2193.8  2046002.8  0.0  2 0 3079 4338 1647
[03]  18(G19)  f 42  7  0  -3425.2  2046004.3 -0.0  2 0 1826 2268 1066
[04]  27(G28)  f 43  7  0  -2772.3  2046003.5  0.0  2 0 1304 1814  657
[05]  29(G30)  f 44 10  0    254.0  2045999.6  0.0  2 0 1802 2425 1034
[16]  38(B02) 1f 37 21  0  -1095.2  4092002.9  0.4  2 0  899  728  269
[17]  41(B05) 1f 42 28  0  -1101.2  4092002.8 -0.4  2 0 1614 1819  996
[18]  49(B13) 1f 43  7  0  -1657.3  4092004.2  0.0  2 0 1545 1904  766
[19]  65(B29) 1f 42  7  0  -1873.3  4092004.8 -0.1  2 0 1643 2402  906
[32]  77(N-4)  f 32  7  0  -4334.2  1022002.7 -0.0  5 0    98  391  219
[33]  79(N-2)  f 32  7  0  -2196.5  1022001.4 -0.1  5 0   161   60   26
[34]  86(N05)  f 39 12  0  -1765.6  1022001.1 -0.0  2 0   506 1126  775
[48]  38(B02)  f 10 13  1  -1938.1 20460030.6  0.1  2 0  502  445  241
[49]  41(B05)  1 22 26  1   -924.2 20460020.7  0.1  1 0  119  100  608
[50]  49(B13)  1  9  7  0  -1426.4 20460025.8  0.1  1 0  476  414  116
[51]  65(B29)  1  7  9  0  -1708.5 20460031.8 -0.1  1 0   33  662  400
$GNGGA,094823.137,,,,,0,00,,,M,,,,0000*2A
$GNRMC,094823.137,A,,,,,,,030419,,*28
$GPGSA,A,1,,,,,,,,,,,,,,,*1E
$BDGSA,A,1,,,,,,,,,,,,,,,*0F
$GLGSA,A,1,,,,,,,,,,,,,,,*02
$GPGSV,2,1,06,07,00,000,41,13,00,000,40,17,00,000,45,19,00,000,42*71
$GPGSV,2,2,06,28,00,000,43,30,00,000,44*71
$BDGSV,1,1,04,02,00,000,37,05,00,000,42,13,00,000,43,29,00,000,42*61
$B3CN0,0,0,0,0,0,0,0,0,0,0,0,0,0,0*4C
---00000018--- Acq_st=7 0  2019-4-3 9:48:24 
[00]  06(G07)  f 40  7  0   2052.6  2045997.3  0.0  2 0 1133 1702 1064
[01]  12(G13)  f 40  7  0    -49.2  2046000.0 -0.0  2 0 1263 1473  495
[02]  16(G17)  f 45  7  0  -2185.8  2046002.8  0.0  2 0 2694 4139 2122
[03]  18(G19)  f 43  7  0  -3416.9  2046004.3 -0.0  2 0 1742 2193  784
[04]  27(G28)  f 43  7  0  -2763.1  2046003.5  0.0  2 0 1281 2122  967
[05]  29(G30)  f 43 13  0    258.5  2045999.6 -0.0  2 0 1631 2331  738
[16]  38(B02) 1f 37 27  0  -1087.2  4092002.7  0.2  2 0  629  314   14
[17]  41(B05) 1f 41 10  0  -1094.6  4092002.7 -0.2  2 0  842 1164  398
[18]  49(B13) 1f 42  7  0  -1644.7  4092004.2  0.1  2 0 1515 1833 1161
[19]  65(B29) 1f 42  7  0  -1870.0  4092004.7 -0.0  2 0 1506 2305 1090
[32]  77(N-4)  f 32  7  0  -4328.0  1022002.6 -0.0  5 0   136  414  545
[33]  79(N-2)  f 31  7  0  -2187.6  1022001.5 -0.0  5 0   378  347  103
[34]  86(N05)  f 40 14  0  -1758.1  1022001.1 -0.1  2 0   915 1057  381
[48]  38(B02)  f 10 20  0  -2369.4 20460038.3 -0.2  2 0  287  421  603
[49]  41(B05)  1 26 26  0  -1395.8 20460017.9 -0.0  1 0  409  315  189
[50]  49(B13)  1  7  7  0  -1822.3 20460028.0 -0.1  1 0  434  436  499
[51]  65(B29)  1  7  7  0  -2355.1 20460031.9 -0.2  1 0  395  493  374
$GNGGA,094824.137,,,,,0,00,,,M,,,,0000*2D
$GNRMC,094824.137,A,,,,,,,030419,,*2F
$GPGSA,A,1,,,,,,,,,,,,,,,*1E
$BDGSA,A,1,,,,,,,,,,,,,,,*0F
$GLGSA,A,1,,,,,,,,,,,,,,,*02
$GPGSV,2,1,06,07,00,000,40,13,00,000,40,17,00,000,45,19,00,000,43*71
$GPGSV,2,2,06,28,00,000,43,30,00,000,43*76
$BDGSV,1,1,04,02,00,000,37,05,00,000,41,13,00,000,42,29,00,000,42*63
$B3CN0,0,0,0,0,0,0,0,0,0,0,0,0,0,0*4C
---00000019--- Acq_st=7 0  2019-4-3 9:48:25 
[00]  06(G07)  f 40  7  0   2054.2  2045997.3 -0.1  2 0 1372 1666 1351
[01]  12(G13)  f 40 14  0    -43.4  2046000.0  0.0  2 0  744 1215  707
[02]  16(G17)  f 45  7  0  -2186.5  2046002.8 -0.0  2 0 2453 4046 2387
[03]  18(G19)  f 44  7  0  -3418.1  2046004.3  0.0  2 0 2239 3107 1686
[04]  27(G28)  f 42  7  0  -2763.6  2046003.6  0.0  2 0 1462 2181  833
[05]  29(G30)  f 43  7  0    260.9  2045999.6 -0.0  2 0 2055 2421  999
[16]  38(B02) 1f 39 19  0  -1089.6  4092002.8  0.7  2 0  381  575  329
[17]  41(B05) 1f 41 23  0  -1098.1  4092002.8  0.3  2 0 1122 1378  419
[18]  49(B13) 1f 43  7  0  -1649.4  4092004.2  0.0  2 0 1597 1906  692
[19]  65(B29) 1f 43  7  0  -1868.3  4092004.8 -0.1  2 0 1074 1631  805
[32]  77(N-4)  f 32  7  0  -4324.0  1022002.7 -0.0  5 0   355  249  202
[33]  79(N-2)  f 30  7  0  -2184.5  1022001.4  0.0  5 0   281  603  387
[34]  86(N05)  f 41  7  0  -1756.3  1022001.0  0.0  2 0  1123 1228  473
[49]  41(B05)  1 13 22  0  -2093.0 20460025.3  0.1  1 0  357  435  897
[50]  49(B13)  1  7  7  0  -2504.3 20460027.6 -0.0  1 0  264  239  123
[51]  65(B29)  1  7  7  0  -1367.6 20460029.9  0.0  1 0  533  371   31
$GNGGA,094825.137,,,,,0,00,,,M,,,,0000*2C
$GNRMC,094825.137,A,,,,,,,030419,,*2E
$GPGSA,A,1,,,,,,,,,,,,,,,*1E
$BDGSA,A,1,,,,,,,,,,,,,,,*0F
$GLGSA,A,1,,,,,,,,,,,,,,,*02
$GPGSV,2,1,06,07,00,000,40,13,00,000,40,17,00,000,45,19,00,000,44*76
$GPGSV,2,2,06,28,00,000,42,30,00,000,43*77
$BDGSV,1,1,04,02,00,000,39,05,00,000,41,13,00,000,43,29,00,000,43*6D
$B3CN0,0,0,0,0,0,0,0,0,0,0,0,0,0,0*4C
---00000020--- Acq_st=3 0  2019-4-3 9:48:26 
[00]  06(G07)  f 39  7  0   2038.2  2045997.3  0.1  2 0  600 1580  754
[01]  12(G13)  f 40  7  0    -61.7  2046000.0  0.0  2 0  866 1273  832
[02]  16(G17)  f 45  7  0  -2200.8  2046002.8 -0.0  2 0 2720 4370 2274
[03]  18(G19)  f 44  7  0  -3430.9  2046004.3 -0.0  2 0 2177 3246 1061
[04]  27(G28)  f 43  7  0  -2778.4  2046003.6  0.0  2 0 1341 2182 1248
[05]  29(G30)  f 43 11  0    249.5  2045999.6  0.0  2 0 1746 2249 1074
[06]  05(G06)  1 16  7  0  -4750.0  2046007.5 -0.0  1 0  239  560  614
[16]  38(B02) 1f 39 26  0  -1108.4  4092002.8  0.1  2 0  959 1249  699
[17]  41(B05) 1f 41 22  0  -1105.2  4092002.8  0.4  2 0 1143 1590  579
[18]  49(B13) 1f 42  7  0  -1657.9  4092004.2  0.0  2 0 1770 1707  670
[19]  65(B29) 1f 43  7  0  -1880.5  4092004.8  0.0  2 0 1422 1897  735
[32]  77(N-4)  f 34  7  0  -4340.2  1022002.8 -0.0  5 0   150  431  303
[33]  79(N-2)  f 31  8  0  -2198.4  1022001.4 -0.0  5 0   133  303  245
[34]  86(N05)  f 42 17  0  -1771.2  1022001.1 -0.1  2 0   947 1429  652
[48]  38(B02)  1 18 10  1  -1167.3 20460017.8 -0.1  1 0  306  333  686
[49]  41(B05)  1 23 16  1  -2390.5 20460022.8 -0.0  1 0  207  291  136
[51]  65(B29)  1 10  7  0  -1500.2 20460031.7 -0.0  1 0  347  289  212
$GNGGA,094826.137,,,,,0,00,,,M,,,,0000*2F
$GNRMC,094826.137,A,,,,,,,030419,,*2D
$GPGSA,A,1,,,,,,,,,,,,,,,*1E
$BDGSA,A,1,,,,,,,,,,,,,,,*0F
$GLGSA,A,1,,,,,,,,,,,,,,,*02
$GPGSV,2,1,06,07,00,000,39,13,00,000,40,17,00,000,45,19,00,000,44*78
$GPGSV,2,2,06,28,00,000,43,30,00,000,43*76
$BDGSV,1,1,04,02,00,000,39,05,00,000,41,13,00,000,42,29,00,000,43*6C
$B3CN0,0,0,0,0,0,0,0,0,0,0,0,0,0,0*4C
---00000021--- Acq_st=3 0  2019-4-3 9:48:27 
[00]  06(G07)  f 39  7  0   2059.4  2045997.4 -0.1  2 0  675 1212  757
[01]  12(G13)  f 41  7  0    -43.0  2046000.0 -0.0  2 0  997 1651  918
[02]  16(G17)  f 45  7  0  -2187.1  2046002.8  0.0  2 0 2073 3477 1735
[03]  18(G19)  f 45  7  0  -3416.4  2046004.3  0.0  2 0 3129 3693 1563
[04]  27(G28)  f 43  7  0  -2763.5  2046003.6  0.0  2 0 1026 1694 1019
[05]  29(G30)  f 43  7  0    261.0  2045999.6 -0.1  2 0 1659 2605 1215
[06]  05(G06)  1 35  7  0  -4763.0  2046005.9  0.7  1 0 1144 1243  320
[16]  38(B02) 1f 36 20  0  -1087.2  4092002.6  0.9  2 0  914 1122  497
[17]  41(B05) 1f 41 26  0  -1096.7  4092002.8 -0.6  2 0 1298 1291  141
[18]  49(B13) 1f 42  8  0  -1652.0  4092004.2 -0.0  2 0  890 1419  774
[19]  65(B29) 1f 43  7  0  -1866.8  4092004.8 -0.0  2 0 1372 1762  703
[32]  77(N-4)  f 34  7  0  -4327.0  1022002.7  0.0  5 0   383  494   81
[33]  79(N-2)  f 31  7  0  -2186.5  1022001.3  0.0  5 0    79  290  266
[34]  86(N05)  f 42  7  0  -1757.4  1022001.1  0.0  2 0   451 1162  879
[48]  38(B02)  7 10 10  0  -1171.4 20460019.1  0.0  2 0  205  514  350
[50]  49(B13)  1  7  7  0  -1594.7 20460026.2 -0.1  1 0  699  646  195
$GNGGA,094827.137,,,,,0,00,,,M,,,,0000*2E
$GNRMC,094827.137,A,,,,,,,030419,,*2C
$GPGSA,A,1,,,,,,,,,,,,,,,*1E
$BDGSA,A,1,,,,,,,,,,,,,,,*0F
$GLGSA,A,1,,,,,,,,,,,,,,,*02
$GPGSV,2,1,06,07,00,000,39,13,00,000,41,17,00,000,45,19,00,000,45*78
$GPGSV,2,2,06,28,00,000,43,30,00,000,43*76
$BDGSV,1,1,04,02,00,000,36,05,00,000,41,13,00,000,42,29,00,000,43*63
$B3CN0,0,0,0,0,0,0,0,0,0,0,0,0,0,0*4C
---00000022--- Acq_st=3 0  2019-4-3 9:48:28 
[00]  06(G07)  f 38  7  0   2048.0  2045997.3 -0.1  2 0 1102 1269  661
[01]  12(G13)  f 41  7  0    -52.2  2046000.0  0.1  2 0 1078 1842  943
[02]  16(G17)  f 44  7  0  -2193.6  2046002.8 -0.0  2 0 2112 3798 2053
[03]  18(G19)  f 45  7  0  -3424.3  2046004.4  0.0  2 0 3074 4648 1941
[04]  27(G28)  f 42  7  0  -2772.1  2046003.6 -0.0  2 0 1007 2094  763
[05]  29(G30)  f 43  7  0    254.4  2045999.6 -0.0  2 0 2107 2873 1141
[06]  05(G06)  7 34  7  0  -4771.4  2046006.1  0.8  5 0  788 1272  713
[16]  38(B02) 1f 37 25  0  -1107.4  4092002.8  0.8  2 0  620 1048  400
[17]  41(B05) 1f 42 24  0  -1105.3  4092002.8 -0.5  2 0 1328 1605  465
[18]  49(B13) 1f 43  7  0  -1653.4  4092004.2  0.0  2 0 1710 1624  423
[19]  65(B29) 1f 43  7  0  -1875.5  4092004.8 -0.0  2 0 1489 1578 1108
[32]  77(N-4)  f 35  7  0  -4331.3  1022002.7 -0.0  2 0   368  694  149
[33]  79(N-2)  f 31  7  0  -2193.7  1022001.3 -0.1  5 0   154  315  186
[34]  86(N05)  f 41  7  0  -1764.0  1022001.1 -0.1  2 0   439 1077  989
[48]  38(B02)  7 23 10  0  -1736.1 20460027.2  0.3  2 0  617  811  502
[49]  41(B05)  1 25 22  0  -1062.4 20460017.4 -0.1  1 0  164  145   92
[50]  49(B13)  1  7  7  0  -1665.9 20460027.4 -0.1  1 0  227  359  212
[51]  65(B29)  1  7  7  0  -1471.6 20460030.5  0.0  1 0  387   86  403
$GNGGA,094828.137,,,,,0,00,,,M,,,,0000*21
$GNRMC,094828.137,A,,,,,,,030419,,*23
$GPGSA,A,1,,,,,,,,,,,,,,,*1E
$BDGSA,A,1,,,,,,,,,,,,,,,*0F
$GLGSA,A,1,,,,,,,,,,,,,,,*02
$GPGSV,2,1,07,07,00,000,38,13,00,000,41,17,00,000,44,19,00,000,45*79
$GPGSV,2,2,07,28,00,000,42,30,00,000,43,06,00,000,33*40
$BDGSV,1,1,04,02,00,000,37,05,00,000,42,13,00,000,43,29,00,000,43*60
$B3CN0,0,23,0,0,0,0,0,0,0,0,0,0,0,0*7D
---00000023--- Acq_st=3 0  2019-4-3 9:48:29 
[00]  06(G07)  f 38  7  0   2046.2  2045997.4  0.3  2 0  594  807  688
[01]  12(G13)  f 41  7  0    -47.4  2046000.0 -0.0  2 0 1267 1362  382
[02]  16(G17)  f 45  7  0  -2191.9  2046002.8  0.0  2 0 2881 4095 2130
[03]  18(G19)  f 45  7  0  -3423.3  2046004.4 -0.0  2 0 2861 4357 2454
[04]  27(G28)  f 42  7  0  -2769.7  2046003.6  0.0  2 0 1019 1934  675
[05]  29(G30)  f 44 12  0    259.7  2045999.6  0.0  2 0 1428 2613 1384
[06]  05(G06)  7 35  7  0  -4772.7  2046006.1  0.3  2 0  281  286  116
[16]  38(B02) 1f 38 24  0  -1097.9  4092002.8 -0.6  2 0 1195 1118  434
[17]  41(B05) 1f 41 22  0  -1097.8  4092002.7  0.6  2 0  697 1080  159
[18]  49(B13) 1f 42  7  0  -1653.7  4092004.2 -0.1  2 0 1593 1888  769
[19]  65(B29) 1f 43  7  0  -1873.0  4092004.8  0.0  2 0 1399 1832  479
[32]  77(N-4)  f 35  7  0  -4333.5  1022002.6 -0.0  2 0   564  466  251
[33]  79(N-2)  f 31  7  0  -2191.4  1022001.5  0.0  5 0   397  623  498
[34]  86(N05)  f 40  7  0  -1763.2  1022001.1  0.0  2 0   414 1090  559
[48]  38(B02)  7 18 19  1  -1684.6 20460028.4  0.1  2 0  417  442   86
[49]  41(B05)  1 21 24  0  -1026.7 20460019.2  0.3  1 0  392  287  836
[50]  49(B13)  1  7  7  0  -2197.5 20460025.3  0.1  1 0  578  622  289
[51]  65(B29)  1  7  7  0  -1231.5 20460031.1 -0.1  1 0  240  281  443
$GNGGA,094829.137,,,,,0,00,,,M,,,,0000*20
$GNRMC,094829.137,A,,,,,,,030419,,*22
$GPGSA,A,1,,,,,,,,,,,,,,,*1E
$BDGSA,A,1,,,,,,,,,,,,,,,*0F
$GLGSA,A,1,,,,,,,,,,,,,,,*02
$GPGSV,2,1,07,07,00,000,38,13,00,000,41,17,00,000,45,19,00,000,45*78
$GPGSV,2,2,07,28,00,000,42,30,00,000,44,06,00,000,35*41
$BDGSV,1,1,04,02,00,000,38,05,00,000,41,13,00,000,42,29,00,000,43*6D
$B3CN0,0,16,0,0,0,0,0,0,0,0,0,0,0,0*7B
---00000024--- Acq_st=3 0  2019-4-3 9:48:29 
[00]  06(G07)  f 35  7  0   2041.4  2045997.3  0.1  2 0  588  959  157
[01]  12(G13)  f 41  7  0    -54.2  2046000.0  0.1  2 0  744 1753  988
[02]  16(G17)  f 45  7  0  -2193.6  2046002.8 -0.0  2 0 3087 4246 1940
[03]  18(G19)  f 45  7  0  -3423.4  2046004.4  0.1  2 0 2688 3956 1748
[04]  27(G28)  f 42  7  0  -2769.7  2046003.5  0.1  2 0 1300 1981  900
[05]  29(G30)  f 44  7  0    254.9  2045999.6  0.0  2 0 1528 2752 1478
[06]  05(G06)  7 35  7  0  -4772.6  2046006.1 -0.1  2 0  627 1123  411
[16]  38(B02) 1f 38 23  0  -1096.5  4092002.8  0.6  2 0  993 1186  485
[17]  41(B05) 1f 41 24  0  -1102.2  4092002.9  0.3  2 0 1073 1548  796
[18]  49(B13) 1f 43  7  0  -1652.6  4092004.2  0.1  2 0 1498 1852  868
[19]  65(B29) 1f 42  7  0  -1871.2  4092004.7 -0.0  2 0 1444 2039  811
[32]  77(N-4)  f 36  7  0  -4334.8  1022002.7  0.1  2 0   168  725  484
[33]  79(N-2)  f 27  7  0  -2371.4  1022001.8  0.0  5 0   278  384  561
[34]  86(N05)  f 40  7  0  -1763.8  1022001.2  0.0  2 0   314  567  334
[48]  38(B02)  7 36 10  0  -2179.8 20460035.8 -0.0  2 0  256  288  348
[49]  41(B05)  1 24 21  1    -68.3 20460019.2 -0.0  1 0  246  301  266
[50]  49(B13)  1  7  7  0  -2703.2 20460026.2 -0.1  1 0  226  405  554
[51]  65(B29)  1  7  7  0  -1262.7 20460030.0 -0.0  1 0   92  439  423
$GNGGA,094830.137,,,,,0,00,,,M,,,,0000*28
$GNRMC,094830.137,A,,,,,,,030419,,*2A
$GPGSA,A,1,,,,,,,,,,,,,,,*1E
$BDGSA,A,1,,,,,,,,,,,,,,,*0F
$GLGSA,A,1,,,,,,,,,,,,,,,*02
$GPGSV,2,1,07,07,00,000,35,13,00,000,41,17,00,000,45,19,00,000,45*75
$GPGSV,2,2,07,28,00,000,42,30,00,000,44,06,00,000,35*41
$BDGSV,1,1,04,02,00,000,38,05,00,000,41,13,00,000,43,29,00,000,42*6D
$B3CN0,0,36,0,0,0,0,0,0,0,0,0,0,0,0*79
---00000025--- Acq_st=3 0  2019-4-3 9:48:30 
[00]  06(G07)  f 37  7  0   2039.1  2045997.2  0.5  2 0  404  604  538
[01]  12(G13)  f 40  7  0    -47.4  2046000.0 -0.0  2 0 1165 1847  699
[02]  16(G17)  f 45  7  0  -2199.7  2046002.8  0.0  2 0 3369 4201 2005
[03]  18(G19)  f 45  7  0  -3428.2  2046004.4 -0.0  2 0 2753 3917 1722
[04]  27(G28)  f 42  7  0  -2775.7  2046003.5  0.0  2 0 1131 1570  503
[05]  29(G30)  f 44  9  0    253.3  2045999.6 -0.0  2 0 1547 2772 1362
[06]  05(G06)  7 35  7  0  -4777.2  2046006.1 -0.2  2 0  952 1433 1123
[16]  38(B02) 1f 38 29  0  -1103.3  4092002.7  0.3  2 0  741  630  266
[17]  41(B05) 1f 40 21  0  -1109.4  4092002.8  0.2  2 0  894  744  247
[18]  49(B13) 1f 42  7  0  -1660.3  4092004.3  0.0  2 0 1155 1783 1414
[19]  65(B29) 1f 43  7  0  -1882.0  4092004.8 -0.0  2 0 1646 1844  643
[32]  77(N-4)  f 36  7  0  -4337.7  1022002.7 -0.1  2 0   260  500  274
[33]  79(N-2)  f  7  7  0  -2554.9  1022001.9  0.0 10 0   119  224  241
[34]  86(N05)  f 38 16  0  -1769.8  1022001.1 -0.2  2 0   579 1234  684
[49]  41(B05)  1 19 18  0    471.0 20460017.6 -0.0  1 0  310  361  402
[51]  65(B29)  1  7  7  0   -891.7 20460031.4 -0.0  1 0  187  309  738
$GNGGA,094831.006,2944.9197,N,10633.1021,E,1,06,2.2,312.6,M,,,,0000*18
$GNRMC,094831.006,A,2944.9197,N,10633.1021,E,2.08,0.00,030419,,*11
$GPGSA,A,3,07,13,17,19,28,30,,,,,,,3.2,2.2,2.3*30
$BDGSA,A,3,,,,,,,,,,,,,3.2,2.2,2.3*23
$GLGSA,A,3,,,,,,,,,,,,,3.2,2.2,2.3*2E
$GPGSV,2,1,07,07,00,000,37,13,00,000,40,17,00,000,45,19,00,000,45*76
$GPGSV,2,2,07,28,00,000,42,30,00,000,44,06,00,000,35*41
$BDGSV,1,1,04,02,00,000,38,05,00,000,40,13,00,000,42,29,00,000,43*6C
$B3CN0,0,0,0,0,0,0,0,0,0,0,0,0,0,0*4C
---00000026--- Acq_st=2 0  2019-4-3 9:48:31 
[00]  06(G07)  f 38  7  0   2050.6  2045997.2  0.0  2 0  508  697  422
[01]  12(G13)  f 40  7  0    -52.3  2046000.0  0.2  2 0  781  995  535
[02]  16(G17)  f 45  7  0  -2192.1  2046002.8  0.0  2 0 2589 3973 2311
[03]  18(G19)  f 45  7  0  -3420.8  2046004.4  0.1  2 0 2607 3353 1366
[04]  27(G28)  f 42  7  0  -2769.6  2046003.5 -0.0  2 0 1314 1804  984
[05]  29(G30)  f 43  7  0    258.7  2045999.6 -0.0  2 0 1458 2963 1055
[06]  05(G06)  f 37  7  0  -4768.1  2046006.2  0.2  2 0  621  509  383
[16]  38(B02) 1f 37 20  0  -1097.0  4092002.7 -0.6  2 0  692  653  113
[17]  41(B05) 1f 41 22  0  -1098.2  4092002.7 -0.3  2 0  895 1003  239
[18]  49(B13) 1f 43  7  0  -1653.7  4092004.2 -0.1  2 0 1273 1892 1082
[19]  65(B29) 1f 43  7  0  -1869.0  4092004.8  0.1  2 0 1657 2007  852
[32]  77(N-4)  f 35  7  0  -4330.1  1022002.7  0.0  2 0   166  356  549
[33]  79(N-2)  f  7  7  0  -2610.1  1022001.8 -0.0 10 0    32  186  249
[34]  86(N05)  f 39  7  0  -1761.3  1022001.0 -0.0  2 0   725 1047  761
[48]  38(B02)  1 10 14  1  -1069.6 20460024.0  0.0  1 0  490  318  304
[50]  49(B13)  1  7  7  0  -1260.4 20460026.8  0.0  1 0  397  314  114
---00000027--- Acq_st=7 0  2019-4-3 9:48:32 
[00]  06(G07)  f 37  7  0   2065.0  2045997.3  0.1  2 0  588  662  304
[01]  12(G13)  f 40  7  0    -32.9  2046000.0 -0.1  2 0 1153 1837  681
[02]  16(G17)  f 46  7  0  -2176.9  2046002.8 -0.0  2 0 3002 4072 1915
[03]  18(G19)  f 45  7  0  -3410.0  2046004.4  0.0  2 0 1999 3252 1305
[04]  27(G28)  f 42  7  0  -2756.8  2046003.5  0.0  2 0 1327 2296 1365
[05]  29(G30)  f 43  7  0    271.4  2045999.6 -0.0  2 0 1734 2199 1110
[06]  05(G06)  f 36  7  0  -4765.9  2046006.1  0.1  2 0  499  854  670
[16]  38(B02) 1f 38 27  0  -1089.7  4092002.8 -0.1  2 0  532  549  459
[17]  41(B05) 1f 41 25  0  -1089.7  4092002.8  0.8  2 0 1031 1427  595
[18]  49(B13) 1f 42  7  0  -1641.3  4092004.2 -0.0  2 0 1348 1430  536
[19]  65(B29) 1f 43  7  0  -1860.6  4092004.8 -0.0  2 0 1240 1434  545
[32]  77(N-4) 8f 35  7  0  -4317.9  1022002.8 -0.1  2 0   380  702  724
[33]  79(N-2)  f  7 16  0  -2686.6  1022001.9 -0.1 10 0   123  123  133
[34]  86(N05) 8f 40  7  0  -1747.7  1022001.1  0.1  2 0   568 1112  185
[48]  38(B02)  1 10 10  0  -1497.7 20460022.0  0.1  1 0  490  387  333
[49]  41(B05)  1 21 24  0  -1020.3 20460020.6  0.0  1 0  398  706  663
[50]  49(B13)  1  7  7  0  -1297.1 20460025.4  0.1  1 0  464  255  279
[51]  65(B29)  1  7  7  0  -1624.2 20460029.6  0.0  1 0  336  286  445
Refix G07: 2, 294530.926798, 2062
Refix G13: 2, 294530.915877, -35
Refix G17: 2, 294530.925692, -2177
Refix G19: 2, 294530.920498, -3409
Refix G28: 2, 294530.928337, -2755
Refix G30: 2, 294530.930573, 272
$GNGGA,094833.000,2944.9171,N,10633.0982,E,1,06,2.2,313.8,M,,,,0000*1A
$GNRMC,094833.000,A,2944.9171,N,10633.0982,E,1.19,0.00,030419,,*1F
$GPGSA,A,3,07,13,17,19,28,30,,,,,,,3.2,2.2,2.3*30
$BDGSA,A,3,,,,,,,,,,,,,3.2,2.2,2.3*23
$GLGSA,A,3,,,,,,,,,,,,,3.2,2.2,2.3*2E
$GPGSV,2,1,07,07,00,000,37,13,00,000,40,17,00,000,46,19,00,000,45*75
$GPGSV,2,2,07,28,00,000,42,30,00,000,43,06,00,000,36*45
$BDGSV,1,1,04,02,00,000,38,05,00,000,41,13,00,000,42,29,00,000,43*6D
$B3CN0,0,0,0,0,0,0,0,0,0,0,0,0,0,0*4C
---00000028--- Acq_st=7 0  2019-4-3 9:48:33 
[00]  06(G07)  f 38  7  0   2046.8  2045997.2 -0.3  2 0  746 1060  633
[01]  12(G13)  f 40  7  0    -54.2  2046000.0 -0.1  2 0  359 1206  689
[02]  16(G17)  f 45  7  0  -2192.0  2046002.8 -0.0  2 0 2733 4060 2362
[03]  18(G19)  f 44  7  0  -3424.1  2046004.4 -0.0  2 0 2032 2865 1595
[04]  27(G28)  f 42  7  0  -2769.0  2046003.5 -0.0  2 0 1860 2461 1076
[05]  29(G30)  f 44  9  0    260.1  2045999.6  0.0  2 0 1803 2253 1127
[06]  05(G06)  f 36  7  0  -4775.5  2046006.2  0.2  2 0  501  607  416
[16]  38(B02) 1f 37 25  0  -1091.6  4092002.7 -0.6  2 0  801 1188  437
[17]  41(B05) 1f 42 21  0  -1101.4  4092002.8 -0.3  2 0  831 1164  471
[18]  49(B13) 1f 42  9  0  -1652.6  4092004.2  0.0  2 0 1656 2045  590
[19]  65(B29) 1f 43  8  0  -1871.2  4092004.8 -0.1  2 0 1415 1883 1090
[32]  77(N-4) 8f 34  7  0  -4332.4  1022002.8  0.0  2 0   539  412  364
[34]  86(N05) 8f 39  7  0  -1759.7  1022001.1 -0.0  2 0   897  854  291
[48]  38(B02)  1 10 14  1  -1782.2 20460020.4  0.1  1 0  248  625  827
[49]  41(B05)  1 24 18  0   -621.8 20460020.0  0.0  1 0  863  671  415
[50]  49(B13)  1  7  7  0  -1719.3 20460025.5 -0.0  1 0  128  388  312
[51]  65(B29)  1  7  7  0  -1460.1 20460030.5 -0.1  1 0  385  745  326
Refix G07: 2, 294531.926797, 2052
Refix G13: 2, 294531.915877, -46
Refix G17: 2, 294531.925693, -2191
Refix G19: 2, 294531.920500, -3421
Refix G28: 2, 294531.928339, -2767
Refix G30: 2, 294531.930573, 259
$GNGGA,094834.000,2944.9164,N,10633.0968,E,1,06,2.2,313.1,M,,,,0000*14
$GNRMC,094834.000,A,2944.9164,N,10633.0968,E,0.84,0.00,030419,,*1D
$GPGSA,A,3,07,13,17,19,28,30,,,,,,,3.2,2.2,2.3*30
$BDGSA,A,3,,,,,,,,,,,,,3.2,2.2,2.3*23
$GLGSA,A,3,,,,,,,,,,,,,3.2,2.2,2.3*2E
$GPGSV,2,1,07,07,36,181,38,13,05,285,40,17,39,281,45,19,18,262,44*71
$GPGSV,2,2,07,28,53,337,42,30,58,225,44,06,00,000,36*4B
$BDGSV,1,1,04,02,00,000,37,05,00,000,42,13,00,000,42,29,00,000,43*61
$B3CN0,0,0,0,0,0,0,0,0,0,0,0,0,0,0*4C
---00000029--- Acq_st=3 0  2019-4-3 9:48:34 
[00]  06(G07)  f 39  7  0   2052.5  2045997.2 -0.0  2 0 1114 1504 1065
[01]  12(G13)  f 40  7  0    -42.0  2046000.0 -0.1  2 0 1226 1354  861
[02]  16(G17)  f 46  7  0  -2187.1  2046002.8  0.0  2 0 2781 4333 2182
[03]  18(G19)  f 44  7  0  -3416.3  2046004.4 -0.0  2 0 1363 2313 1249
[04]  27(G28)  f 42  7  0  -2763.0  2046003.5  0.1  2 0 1729 2958 1451
[05]  29(G30)  f 43  7  0    264.7  2045999.6  0.0  2 0 1411 2182  562
[06]  05(G06)  f 35  7  0  -4760.8  2046006.2  0.0  2 0  548  964  633
[16]  38(B02) 1f 39 22  0  -1096.7  4092002.8 -0.1  2 0  922 1150  419
[17]  41(B05) 1f 41 26  0  -1099.0  4092002.8  0.2  2 0 1091 1188  325
[18]  49(B13) 1f 42  7  0  -1648.7  4092004.2 -0.0  2 0 1681 1928  803
[19]  65(B29) 1f 43  7  0  -1864.5  4092004.8  0.0  2 0 1546 2123 1131
[32]  77(N-4) 8f 34  7  0  -4325.2  1022002.8  0.1  2 0   224  606  473
[34]  86(N05) 8f 40  7  0  -1755.4  1022001.1  0.2  2 0   570  779  458
[48]  38(B02)  1 10 22  1  -2162.8 20460025.9  0.1  1 0  555  422   47
[49]  41(B05)  1 23 22  0   -328.2 20460015.6  0.0  1 0  649  494   71
[50]  49(B13)  1  8  7  0  -2302.1 20460026.1 -0.0  1 0   86  337  507
[51]  65(B29)  1  7  7  0  -1431.1 20460031.8 -0.0  1 0  224  142  212
Refix G07: 2, 294532.926795, 2055
Refix G13: 2, 294532.915877, -41
Refix G17: 2, 294532.925695, -2186
Refix G19: 2, 294532.920502, -3417
Refix G28: 2, 294532.928340, -2763
Refix G30: 2, 294532.930573, 264
$GNGGA,094835.000,2944.9160,N,10633.0947,E,1,06,2.2,313.5,M,,,,0000*18
$GNRMC,094835.000,A,2944.9160,N,10633.0947,E,0.33,0.00,030419,,*19
$GPGSA,A,3,07,13,17,19,28,30,,,,,,,3.2,2.2,2.3*30
$BDGSA,A,3,,,,,,,,,,,,,3.2,2.2,2.3*23
$GLGSA,A,3,,,,,,,,,,,,,3.2,2.2,2.3*2E
$GPGSV,2,1,07,07,36,181,39,13,05,285,40,17,39,281,46,19,18,262,44*73
$GPGSV,2,2,07,28,53,337,42,30,58,225,43,06,00,000,35*4F
$BDGSV,1,1,04,02,00,000,39,05,00,000,41,13,00,000,42,29,00,000,43*6C
$B3CN0,0,0,0,0,0,0,0,0,0,0,0,0,0,0*4C
---00000030--- Acq_st=3 0  2019-4-3 9:48:35 
[00]  06(G07)  f 40  7  0   2050.2  2045997.2  0.0  2 0 1008 1345  753
[01]  12(G13)  f 40  7  0    -49.7  2046000.0  0.0  2 0  843 1677  393
[02]  16(G17)  f 45  7  0  -2189.4  2046002.8  0.0  2 0 2312 3646 2101
[03]  18(G19)  f 42  7  0  -3419.4  2046004.4 -0.0  2 0 1081 1439  662
[04]  27(G28)  f 42  7  0  -2768.7  2046003.5 -0.0  2 0 2047 3029 1194
[05]  29(G30)  f 44  7  0    265.2  2045999.6  0.0  2 0 1036 2465 1166
[06]  05(G06)  f 35  7  0  -4767.6  2046006.2 -0.1  2 0  119  517  627
[16]  38(B02) 1f 37 28  0  -1095.0  4092002.8  0.7  2 0  434  824  391
[17]  41(B05) 1f 41 23  0  -1095.9  4092002.7 -0.0  2 0  909 1129  486
[18]  49(B13) 1f 42  7  0  -1653.2  4092004.2 -0.0  2 0 1406 2237 1223
[19]  65(B29) 1f 43  7  0  -1867.5  4092004.8  0.0  2 0 1722 2291  552
[32]  77(N-4) 8f 33  7  0  -4333.6  1022002.6  0.0  2 0   233  691  424
[34]  86(N05) 8f 39  7  0  -1756.7  1022001.1 -0.2  2 0    67  286  299
[48]  38(B02)  f 36 10  0  -2672.5 20460040.3 -0.0  2 0  491  422  160
[49]  41(B05)  1 22 23  0   -528.2 20460020.4 -0.0  1 0  651   82  327
[51]  65(B29)  1  7  7  0  -1356.4 20460030.3  0.1  1 0  265  492   41
Refix G07: 2, 294533.926794, 2053
Refix G13: 2, 294533.915877, -45
Refix G17: 2, 294533.925696, -2189
Refix G19: 2, 294533.920504, -3420
Refix G28: 2, 294533.928342, -2766
Refix G30: 2, 294533.930573, 262
$GNGGA,094836.000,2944.9160,N,10633.0943,E,1,06,2.2,312.9,M,,,,0000*12
$GNRMC,094836.000,A,2944.9160,N,10633.0943,E,0.14,0.00,030419,,*1B
$GPGSA,A,3,07,13,17,19,28,30,,,,,,,3.2,2.2,2.3*30
$BDGSA,A,3,,,,,,,,,,,,,3.2,2.2,2.3*23
$GLGSA,A,3,,,,,,,,,,,,,3.2,2.2,2.3*2E
$GPGSV,2,1,07,07,36,181,40,13,05,285,40,17,39,281,45,19,18,262,42*78
$GPGSV,2,2,07,28,53,337,42,30,58,225,44,06,00,000,35*48
$BDGSV,1,1,04,02,00,000,37,05,00,000,41,13,00,000,42,29,00,000,43*62
$B3CN0,0,36,0,0,0,0,0,0,0,0,0,0,0,0*79
---00000031--- Acq_st=3 0  2019-4-3 9:48:36 
[00]  06(G07)  f 40  7  0   2050.2  2045997.2 -0.0  2 0 1184 1548  903
[01]  12(G13)  f 40  7  0    -47.1  2046000.0 -0.0  2 0  875 1860  749
[02]  16(G17)  f 45  7  0  -2191.4  2046002.8 -0.0  2 0 2445 3984 2041
[03]  18(G19)  f 39  7  0  -3421.0  2046004.5  0.1  2 0  188 1087  968
[04]  27(G28)  f 43  7  0  -2773.3  2046003.5 -0.0  2 0 2090 2744 1539
[05]  29(G30)  f 44  7  0    260.4  2045999.6 -0.0  2 0 1362 2329 1396
[06]  05(G06)  f 35  7  0  -4772.5  2046006.1  0.0  2 0  962 1215  674
[16]  38(B02) 1f 36 22  0  -1104.2  4092002.8  0.9  2 0  934  876  673
[17]  41(B05) 1f 42 24  0  -1102.7  4092002.8 -0.3  2 0  904 1231 1070
[18]  49(B13) 1f 42  7  0  -1651.7  4092004.2 -0.0  2 0 1724 1997  697
[19]  65(B29) 1f 42  7  0  -1870.7  4092004.8  0.0  2 0 1432 2018 1181
[32]  77(N-4) 8f 33  8  0  -4332.4  1022002.7  0.0  2 0   433  193   99
[34]  86(N05) 8f 39  7  0  -1759.7  1022001.1  0.3  2 0   853  870  382
[48]  38(B02)  f 22 10  1  -2877.5 20460045.2  0.1  2 0  467  496  253
[50]  49(B13)  1  7  7  0  -1115.4 20460024.3  0.0  1 0  182  164  468
GPS IONO corr PRN[07] 36.36 181.25 6.46 294534.93
usrllh latitude:0.519211 longitude:1.859676
ion_pt: a0:0.000000 a1:0.000000 a2:-0.000000 a3:-0.000000 b0:88064.000000 b1:16384.000000 b2:-196608.000000 b3:-131072.000000 
GPS IONO corr PRN[13] 5.11 285.50 14.14 294534.92
usrllh latitude:0.519211 longitude:1.859676
ion_pt: a0:0.000000 a1:0.000000 a2:-0.000000 a3:-0.000000 b0:88064.000000 b1:16384.000000 b2:-196608.000000 b3:-131072.000000 
GPS IONO corr PRN[17] 39.57 281.00 6.33 294534.93
usrllh latitude:0.519211 longitude:1.859676
ion_pt: a0:0.000000 a1:0.000000 a2:-0.000000 a3:-0.000000 b0:88064.000000 b1:16384.000000 b2:-196608.000000 b3:-131072.000000 
GPS IONO corr PRN[19] 18.59 262.57 10.00 294534.92
usrllh latitude:0.519211 longitude:1.859676
ion_pt: a0:0.000000 a1:0.000000 a2:-0.000000 a3:-0.000000 b0:88064.000000 b1:16384.000000 b2:-196608.000000 b3:-131072.000000 
GPS IONO corr PRN[28] 53.07 337.39 5.02 294534.93
usrllh latitude:0.519211 longitude:1.859676
ion_pt: a0:0.000000 a1:0.000000 a2:-0.000000 a3:-0.000000 b0:88064.000000 b1:16384.000000 b2:-196608.000000 b3:-131072.000000 
GPS IONO corr PRN[30] 58.96 225.34 4.74 294534.93
usrllh latitude:0.519211 longitude:1.859676
ion_pt: a0:0.000000 a1:0.000000 a2:-0.000000 a3:-0.000000 b0:88064.000000 b1:16384.000000 b2:-196608.000000 b3:-131072.000000 
Refix G07: 2, 294534.926793, 2051
Refix G13: 2, 294534.915877, -47
Refix G17: 2, 294534.925697, -2192
Refix G19: 2, 294534.920506, -3423
Refix G28: 2, 294534.928344, -2769
Refix G30: 2, 294534.930572, 259
$GNGGA,094837.000,2944.9160,N,10633.0939,E,1,06,2.2,312.3,M,,,,0000*14
$GNRMC,094837.000,A,2944.9160,N,10633.0939,E,0.57,0.00,030419,,*10
$GPGSA,A,3,07,13,17,19,28,30,,,,,,,3.2,2.2,2.3*30
$BDGSA,A,3,,,,,,,,,,,,,3.2,2.2,2.3*23
$GLGSA,A,3,,,,,,,,,,,,,3.2,2.2,2.3*2E
$GPGSV,2,1,07,07,36,181,40,13,05,285,40,17,39,281,45,19,18,262,39*74
$GPGSV,2,2,07,28,53,337,43,30,58,225,44,06,00,000,35*49
$BDGSV,1,1,04,02,00,000,36,05,00,000,42,13,00,000,42,29,00,000,42*61
$B3CN0,0,22,0,0,0,0,0,0,0,0,0,0,0,0*7C
---00000032--- Acq_st=3 0  2019-4-3 9:48:37 
[00]  06(G07)  f 40  7  0   2051.4  2045997.2  0.1  2 0  941 1557  708
[01]  12(G13)  f 40  7  0    -48.4  2046000.0  0.0  2 0 1028 1274  298
[02]  16(G17)  f 45  7  0  -2192.9  2046002.8  0.0  2 0 2193 3299 1261
[03]  18(G19)  f 37  7  0  -3430.6  2046004.7  0.2  2 0  255  947  861
[04]  27(G28)  f 44  7  0  -2770.8  2046003.5  0.0  2 0 2032 2629  824
[05]  29(G30)  f 44  9  0    258.1  2045999.6 -0.0  2 0 1132 2147  867
[06]  05(G06)  f 33  7  0  -4773.9  2046006.2  0.0  2 0  492  344  404
[16]  38(B02) 1f 37 25  0  -1098.1  4092002.8  0.1  2 0  671  608  479
[17]  41(B05) 1f 40 23  0  -1106.9  4092002.8 -0.2  2 0  906 1245  669
[18]  49(B13) 1f 42  9  0  -1654.5  4092004.2 -0.0  2 0  953 1657  889
[19]  65(B29) 1f 43  7  0  -1872.5  4092004.8 -0.1  2 0 1642 2028  867
[32]  77(N-4) 8f 33  7  0  -4333.8  1022002.7 -0.1  2 0   375  446  180
[34]  86(N05) 8f 38 10  0  -1762.1  1022001.2 -0.5  2 0   262  489   23
[48]  38(B02)  f 13 10  0  -3285.5 20460053.6  0.0  2 0  430  447  891
[49]  41(B05)  1 24 26  0   -852.1 20460018.7 -0.0  1 0  952  960  968
[50]  49(B13)  1  8  7  0   -626.3 20460025.0  0.0  1 0  312  177  225
[51]  65(B29)  1  7  7  0  -1293.5 20460030.4 -0.1  1 0  320  421  194
GPS IONO corr PRN[07] 36.36 181.25 6.46 294535.93
usrllh latitude:0.519211 longitude:1.859676
ion_pt: a0:0.000000 a1:0.000000 a2:-0.000000 a3:-0.000000 b0:88064.000000 b1:16384.000000 b2:-196608.000000 b3:-131072.000000 
GPS IONO corr PRN[13] 5.11 285.50 14.14 294535.92
usrllh latitude:0.519211 longitude:1.859676
ion_pt: a0:0.000000 a1:0.000000 a2:-0.000000 a3:-0.000000 b0:88064.000000 b1:16384.000000 b2:-196608.000000 b3:-131072.000000 
GPS IONO corr PRN[17] 39.57 281.00 6.33 294535.93
usrllh latitude:0.519211 longitude:1.859676
ion_pt: a0:0.000000 a1:0.000000 a2:-0.000000 a3:-0.000000 b0:88064.000000 b1:16384.000000 b2:-196608.000000 b3:-131072.000000 
GPS IONO corr PRN[19] 18.59 262.57 10.00 294535.92
usrllh latitude:0.519211 longitude:1.859676
ion_pt: a0:0.000000 a1:0.000000 a2:-0.000000 a3:-0.000000 b0:88064.000000 b1:16384.000000 b2:-196608.000000 b3:-131072.000000 
GPS IONO corr PRN[28] 53.07 337.39 5.02 294535.93
usrllh latitude:0.519211 longitude:1.859676
ion_pt: a0:0.000000 a1:0.000000 a2:-0.000000 a3:-0.000000 b0:88064.000000 b1:16384.000000 b2:-196608.000000 b3:-131072.000000 
GPS IONO corr PRN[30] 58.96 225.34 4.74 294535.93
usrllh latitude:0.519211 longitude:1.859676
ion_pt: a0:0.000000 a1:0.000000 a2:-0.000000 a3:-0.000000 b0:88064.000000 b1:16384.000000 b2:-196608.000000 b3:-131072.000000 
Refix G07: 2, 294535.926791, 2048
Refix G13: 2, 294535.915877, -50
Refix G17: 2, 294535.925699, -2195
Refix G19: 2, 294535.920509, -3426
Refix G28: 2, 294535.928346, -2771
Refix G30: 2, 294535.930572, 257
$GNGGA,094838.000,2944.9158,N,10633.0937,E,1,06,2.2,311.6,M,,,,0000*18
$GNRMC,094838.000,A,2944.9158,N,10633.0937,E,1.12,0.00,030419,,*1A
$GPGSA,A,3,07,13,17,19,28,30,,,,,,,3.2,2.2,2.3*30
$BDGSA,A,3,,,,,,,,,,,,,3.2,2.2,2.3*23
$GLGSA,A,3,,,,,,,,,,,,,3.2,2.2,2.3*2E
$GPGSV,2,1,07,07,36,181,40,13,05,285,40,17,39,281,45,19,18,262,37*7A
$GPGSV,2,2,07,28,53,337,44,30,58,225,44,06,00,000,33*48
$BDGSV,1,1,04,02,00,000,37,05,00,000,40,13,00,000,42,29,00,000,43*63
$B3CN0,0,0,0,0,0,0,0,0,0,0,0,0,0,0*4C
---00000033--- Acq_st=3 0  2019-4-3 9:48:38 
[00]  06(G07)  f 40  7  0   2052.9  2045997.2  0.0  2 0  835 1656 1160
[01]  12(G13)  f 41 11  0    -42.7  2046000.0 -0.0  2 0 1134 1710  640
[02]  16(G17)  f 45  7  0  -2183.3  2046002.8  0.0  2 0 2459 3760 1900
[03]  18(G19)  f 37  7  0  -3413.5  2046004.4 -0.0  2 0 1033 1137  604
[04]  27(G28)  f 44  7  0  -2761.1  2046003.5  0.0  2 0 1813 2357  974
[05]  29(G30)  f 44  7  0    268.7  2045999.6  0.0  2 0 1667 2671 1503
[06]  05(G06)  f 31  7  0  -4763.0  2046006.0 -0.1  5 0  362  475  437
[16]  38(B02) 1f 37 25  0  -1086.5  4092002.6  0.7  2 0  873  982  260
[17]  41(B05) 1f 41 24  0  -1092.0  4092002.8 -0.6  2 0  944 1397  838
[18]  49(B13) 1f 42  7  0  -1645.3  4092004.2  0.0  2 0 1050 1822  900
[19]  65(B29) 1f 43  7  0  -1862.9  4092004.8 -0.0  2 0 1105 1722 1046
[32]  77(N-4) 8f 34  7  0  -4321.3  1022002.7 -0.0  2 0   230  386  306
[34]  86(N05) 8f 37  7  0  -1751.8  1022001.1 -0.2  2 0   388  431  218
[48]  38(B02)  f 21 23  1  -3980.6 20460064.4  0.0  2 0  127  170  388
[49]  41(B05)  1 22 23  1  -1007.8 20460020.0  0.2  1 0  736  461  587
[50]  49(B13)  1  7  7  0  -1142.9 20460025.5 -0.0  1 0  286  660  172
[51]  65(B29)  1  7  7  0  -1034.6 20460030.3 -0.0  1 0  522  463  540
GPS IONO corr PRN[07] 36.36 181.25 6.46 294536.93
usrllh latitude:0.519211 longitude:1.859676
ion_pt: a0:0.000000 a1:0.000000 a2:-0.000000 a3:-0.000000 b0:88064.000000 b1:16384.000000 b2:-196608.000000 b3:-131072.000000 
GPS IONO corr PRN[13] 5.11 285.50 14.14 294536.92
usrllh latitude:0.519211 longitude:1.859676
ion_pt: a0:0.000000 a1:0.000000 a2:-0.000000 a3:-0.000000 b0:88064.000000 b1:16384.000000 b2:-196608.000000 b3:-131072.000000 
GPS IONO corr PRN[17] 39.57 281.00 6.33 294536.93
usrllh latitude:0.519211 longitude:1.859676
ion_pt: a0:0.000000 a1:0.000000 a2:-0.000000 a3:-0.000000 b0:88064.000000 b1:16384.000000 b2:-196608.000000 b3:-131072.000000 
GPS IONO corr PRN[19] 18.59 262.57 10.00 294536.92
usrllh latitude:0.519211 longitude:1.859676
ion_pt: a0:0.000000 a1:0.000000 a2:-0.000000 a3:-0.000000 b0:88064.000000 b1:16384.000000 b2:-196608.000000 b3:-131072.000000 
GPS IONO corr PRN[28] 53.07 337.39 5.02 294536.93
usrllh latitude:0.519211 longitude:1.859676
ion_pt: a0:0.000000 a1:0.000000 a2:-0.000000 a3:-0.000000 b0:88064.000000 b1:16384.000000 b2:-196608.000000 b3:-131072.000000 
GPS IONO corr PRN[30] 58.96 225.34 4.74 294536.93
usrllh latitude:0.519211 longitude:1.859676
ion_pt: a0:0.000000 a1:0.000000 a2:-0.000000 a3:-0.000000 b0:88064.000000 b1:16384.000000 b2:-196608.000000 b3:-131072.000000 
Refix G07: 2, 294536.926790, 2055
Refix G13: 2, 294536.915877, -41
Refix G17: 2, 294536.925700, -2184
Refix G19: 2, 294536.920511, -3416
Refix G28: 2, 294536.928347, -2762
Refix G30: 2, 294536.930572, 268
$GNGGA,094839.000,2944.9156,N,10633.0934,E,1,06,2.2,311.6,M,,,,0000*14
$GNRMC,094839.000,A,2944.9156,N,10633.0934,E,1.09,0.00,030419,,*1C
$GPGSA,A,3,07,13,17,19,28,30,,,,,,,3.2,2.2,2.3*30
$BDGSA,A,3,,,,,,,,,,,,,3.2,2.2,2.3*23
$GLGSA,A,3,,,,,,,,,,,,,3.2,2.2,2.3*2E
$GPGSV,2,1,07,07,36,181,40,13,05,285,41,17,39,281,45,19,18,262,37*7B
$GPGSV,2,2,07,28,53,337,44,30,58,225,44,06,00,000,31*4A
$BDGSV,1,1,04,02,00,000,37,05,00,000,41,13,00,000,42,29,00,000,43*62
$B3CN0,0,22,0,0,0,0,0,0,0,0,0,0,0,0*7C
$GLGSV,1,1,01,26,00,000,37*54
---00000034--- Acq_st=3 0  2019-4-3 9:48:39 
[00]  06(G07)  f 40  7  0   2049.8  2045997.3  0.1  2 0  637 1062  728
[01]  12(G13)  f 41 13  0    -42.4  2046000.0 -0.0  2 0  810 1415  783
[02]  16(G17)  f 45  7  0  -2190.5  2046002.8 -0.0  2 0 3075 4144 1818
[03]  18(G19)  f 38  7  0  -3418.7  2046004.3  0.2  2 0 1358 1166  678
[04]  27(G28)  f 43  7  0  -2766.3  2046003.5 -0.0  2 0 1618 2179  761
[05]  29(G30)  f 43  7  0    263.3  2045999.6 -0.1  2 0 1655 2339 1197
[06]  05(G06)  f 31  7  0  -4771.1  2046006.2  0.2  5 0  328  525  572
[16]  38(B02) 1f 39 27  0  -1096.2  4092002.8 -0.3  2 0  795 1118  382
[17]  41(B05) 1f 42 22  0  -1101.7  4092002.9 -0.1  2 0 1030 1598  666
[18]  49(B13) 1f 42  7  0  -1649.3  4092004.2 -0.1  2 0 1538 1896  842
[19]  65(B29) 1f 43  7  0  -1868.3  4092004.8 -0.1  2 0 1456 1775  641
[32]  77(N-4) 8f 35  7  0  -4328.6  1022002.7 -0.1  2 0   584  692  358
[34]  86(N05) 8f 36  7  0  -1757.3  1022001.1  0.1  2 0   349  630  253
[49]  41(B05)  1 23 17  1  -1392.2 20460017.2 -0.0  1 0  153  226  789
[50]  49(B13)  1  7  7  0  -1161.4 20460026.4  0.2  1 0  238  470  434
[51]  65(B29)  1  7  7  0  -1385.6 20460029.0 -0.0  1 0  218  551 1030
GPS IONO corr PRN[07] 36.36 181.25 6.46 294537.93
usrllh latitude:0.519211 longitude:1.859675
ion_pt: a0:0.000000 a1:0.000000 a2:-0.000000 a3:-0.000000 b0:88064.000000 b1:16384.000000 b2:-196608.000000 b3:-131072.000000 
GPS IONO corr PRN[13] 5.11 285.50 14.14 294537.92
usrllh latitude:0.519211 longitude:1.859675
ion_pt: a0:0.000000 a1:0.000000 a2:-0.000000 a3:-0.000000 b0:88064.000000 b1:16384.000000 b2:-196608.000000 b3:-131072.000000 
GPS IONO corr PRN[17] 39.57 281.00 6.33 294537.93
usrllh latitude:0.519211 longitude:1.859675
ion_pt: a0:0.000000 a1:0.000000 a2:-0.000000 a3:-0.000000 b0:88064.000000 b1:16384.000000 b2:-196608.000000 b3:-131072.000000 
GPS IONO corr PRN[19] 18.59 262.57 10.00 294537.92
usrllh latitude:0.519211 longitude:1.859675
ion_pt: a0:0.000000 a1:0.000000 a2:-0.000000 a3:-0.000000 b0:88064.000000 b1:16384.000000 b2:-196608.000000 b3:-131072.000000 
GPS IONO corr PRN[28] 53.07 337.39 5.02 294537.93
usrllh latitude:0.519211 longitude:1.859675
ion_pt: a0:0.000000 a1:0.000000 a2:-0.000000 a3:-0.000000 b0:88064.000000 b1:16384.000000 b2:-196608.000000 b3:-131072.000000 
GPS IONO corr PRN[30] 58.96 225.34 4.74 294537.93
usrllh latitude:0.519211 longitude:1.859675
ion_pt: a0:0.000000 a1:0.000000 a2:-0.000000 a3:-0.000000 b0:88064.000000 b1:16384.000000 b2:-196608.000000 b3:-131072.000000 
Refix G07: 2, 294537.926789, 2052
Refix G13: 2, 294537.915877, -43
Refix G17: 2, 294537.925701, -2188
Refix G19: 2, 294537.920513, -3419
Refix G28: 2, 294537.928349, -2766
Refix G30: 2, 294537.930572, 264
$GNGGA,094840.000,2944.9155,N,10633.0935,E,1,06,2.2,311.1,M,,,,0000*1F
$GNRMC,094840.000,A,2944.9155,N,10633.0935,E,0.87,0.00,030419,,*17
$GPGSA,A,3,07,13,17,19,28,30,,,,,,,3.2,2.2,2.3*30
$BDGSA,A,3,,,,,,,,,,,,,3.2,2.2,2.3*23
$GLGSA,A,3,,,,,,,,,,,,,3.2,2.2,2.3*2E
$GPGSV,2,1,07,07,36,181,40,13,05,285,41,17,39,281,45,19,18,262,38*74
$GPGSV,2,2,07,28,53,337,43,30,58,225,43,06,00,000,31*4A
$BDGSV,1,1,04,02,00,000,39,05,00,000,42,13,00,000,42,29,00,000,43*6F
$B3CN0,0,0,0,0,0,0,0,0,0,0,0,0,0,0*4C
$GLGSV,1,1,01,26,00,000,36*55
---00000035--- Acq_st=3 0  2019-4-3 9:48:40 
[00]  06(G07)  f 40  7  0   2052.4  2045997.2 -0.1  2 0 1233 1075  459
[01]  12(G13)  f 41  9  0    -42.1  2046000.0 -0.0  2 0  930 1464  523
[02]  16(G17)  f 45  7  0  -2187.8  2046002.8 -0.0  2 0 2841 4249 2215
[03]  18(G19)  f 40  7  0  -3421.1  2046004.3 -0.0  2 0 2053 2149 1171
[04]  27(G28)  f 43  7  0  -2765.1  2046003.6  0.0  2 0 1483 2333 1079
[05]  29(G30)  f 43  7  0    266.6  2045999.6  0.0  2 0 1484 2715 1623
[06]  05(G06)  f 30  7  0  -4772.0  2046006.2 -0.1  5 0  911 1098 1066
[16]  38(B02) 1f 38 26  0  -1097.9  4092002.8  0.5  2 0 1240  987  135
[17]  41(B05) 1f 41 13  0  -1096.1  4092002.8 -0.2  2 0  982 1245  422
[18]  49(B13) 1f 42  7  0  -1645.2  4092004.2  0.0  2 0 1124 1719  692
[19]  65(B29) 1f 43  8  0  -1866.8  4092004.8 -0.0  2 0 1367 1975  731
[32]  77(N-4) 8f 34  7  0  -4325.1  1022002.6  0.0  2 0   360  683  450
[34]  86(N05) 8f 36  7  0  -1753.9  1022001.1  0.1  2 0   186  790  611
[48]  38(B02)  1 19 21  0   -965.7 20460019.4 -0.1  1 0  179  201  354
[49]  41(B05)  1 21 23  1   -940.1 20460018.5 -0.1  1 0  507  712  412
[51]  65(B29)  1  7  7  0  -1354.1 20460029.8 -0.2  1 0  576  652  229
GPS IONO corr PRN[07] 36.36 181.25 6.46 294538.93
usrllh latitude:0.519211 longitude:1.859676
ion_pt: a0:0.000000 a1:0.000000 a2:-0.000000 a3:-0.000000 b0:88064.000000 b1:16384.000000 b2:-196608.000000 b3:-131072.000000 
GPS IONO corr PRN[13] 5.11 285.50 14.14 294538.92
usrllh latitude:0.519211 longitude:1.859676
ion_pt: a0:0.000000 a1:0.000000 a2:-0.000000 a3:-0.000000 b0:88064.000000 b1:16384.000000 b2:-196608.000000 b3:-131072.000000 
GPS IONO corr PRN[17] 39.57 281.00 6.33 294538.93
usrllh latitude:0.519211 longitude:1.859676
ion_pt: a0:0.000000 a1:0.000000 a2:-0.000000 a3:-0.000000 b0:88064.000000 b1:16384.000000 b2:-196608.000000 b3:-131072.000000 
GPS IONO corr PRN[19] 18.59 262.57 10.00 294538.92
usrllh latitude:0.519211 longitude:1.859676
ion_pt: a0:0.000000 a1:0.000000 a2:-0.000000 a3:-0.000000 b0:88064.000000 b1:16384.000000 b2:-196608.000000 b3:-131072.000000 
GPS IONO corr PRN[28] 53.07 337.39 5.02 294538.93
usrllh latitude:0.519211 longitude:1.859676
ion_pt: a0:0.000000 a1:0.000000 a2:-0.000000 a3:-0.000000 b0:88064.000000 b1:16384.000000 b2:-196608.000000 b3:-131072.000000 
GPS IONO corr PRN[30] 58.96 225.34 4.74 294538.93
usrllh latitude:0.519211 longitude:1.859676
ion_pt: a0:0.000000 a1:0.000000 a2:-0.000000 a3:-0.000000 b0:88064.000000 b1:16384.000000 b2:-196608.000000 b3:-131072.000000 
Refix G07: 2, 294538.926787, 2053
Refix G13: 2, 294538.915877, -42
Refix G17: 2, 294538.925703, -2187
Refix G19: 2, 294538.920515, -3418
Refix G28: 2, 294538.928351, -2765
Refix G30: 2, 294538.930572, 266
$GNGGA,094841.000,2944.9154,N,10633.0934,E,1,06,2.2,310.8,M,,,,0000*16
$GNRMC,094841.000,A,2944.9154,N,10633.0934,E,1.10,0.00,030419,,*19
$GPGSA,A,3,07,13,17,19,28,30,,,,,,,3.2,2.2,2.3*30
$BDGSA,A,3,,,,,,,,,,,,,3.2,2.2,2.3*23
$GLGSA,A,3,,,,,,,,,,,,,3.2,2.2,2.3*2E
$GPGSV,2,1,07,07,36,181,40,13,05,285,41,17,39,281,45,19,18,262,40*7B
$GPGSV,2,2,07,28,53,337,43,30,58,225,43,06,00,000,30*4B
$BDGSV,1,1,04,02,00,000,38,05,00,000,41,13,00,000,42,29,00,000,43*6D
$B3CN0,0,0,0,0,0,0,0,0,0,0,0,0,0,0*4C
$GLGSV,1,1,01,26,00,000,36*55
---00000036--- Acq_st=7 0  2019-4-3 9:48:41 
[00]  06(G07)  f 40  7  0   2055.8  2045997.2  0.1  2 0  934 1228  390
[01]  12(G13)  f 42  7  0    -49.3  2046000.0 -0.0  2 0 1358 1691  841
