i=1
Rf R0 Config = ff777073
Rf R1 Config = 00dffbfe
Rf R52 Config = 00dfee40
i=2
Rf R0 Config = 007772f3
Rf R1 Config = 00dfdbfe
Rf R52 Config = 00db2f50
i=3
Rf R0 Config = 007772f3
Rf R1 Config = 00df3bfa
Rf R52 Config = 00de6ef0
i=4
Rf R0 Config = 00777273
Rf R1 Config = 00dffbfe
Rf R52 Config = 00de2e00
SD initialized success
Create debug.log Failed! 3
Start Channel by LuYu
$GNGGA,000000.000,,,,,0,00,,,M,,,,0000*2B
$GNRMC,000000.000,A,,,,,,,060180,,*29
$GPGSA,A,1,,,,,,,,,,,,,,,*1E
$BDGSA,A,1,,,,,,,,,,,,,,,*0F
$GLGSA,A,1,,,,,,,,,,,,,,,*02
$B3CN0,0,0,0,0,0,0,0,0,0,0,0,0,0,0*4C
---00000001--- Acq_st=3 0  2000-1-1 0:6:20 
[00]  06(G07)  1  7  7  0   2000.0  2045998.6  0.0  1 0  655 1329  949
$GNGGA,000000.000,,,,,0,00,,,M,,,,0000*2B
$GNRMC,000000.000,A,,,,,,,060180,,*29
$GPGSA,A,1,,,,,,,,,,,,,,,*1E
$BDGSA,A,1,,,,,,,,,,,,,,,*0F
$GLGSA,A,1,,,,,,,,,,,,,,,*02
$B3CN0,0,0,0,0,0,0,0,0,0,0,0,0,0,0*4C
---00000002--- Acq_st=3 0  2000-1-1 0:6:21 
[00]  06(G07)  1  7  7  0   2293.6  2045997.4  0.3  1 0  827  771  531
[01]  12(G13)  1 27  7  0   -341.9  2046003.1  0.4  1 0 1073 2635 2112
[02]  16(G17)  1 19  7  0  -2331.5  2046005.8  0.2  1 0  531 1835 4183
[03]  18(G19)  1  7  7  0  -3500.0  2046003.7  0.1  1 0  435  624  612
$GNGGA,000000.000,,,,,0,00,,,M,,,,0000*2B
$GNRMC,000000.000,A,,,,,,,060180,,*29
$GPGSA,A,1,,,,,,,,,,,,,,,*1E
$BDGSA,A,1,,,,,,,,,,,,,,,*0F
$GLGSA,A,1,,,,,,,,,,,,,,,*02
$B3CN0,0,0,0,0,0,0,0,0,0,0,0,0,0,0*4C
---00000003--- Acq_st=3 0  2000-1-1 0:6:22 
[00]  06(G07)  1  7  7  0   2287.3  2045997.5  0.1  1 0  742 1371  828
[01]  12(G13)  7 25  7  0   -338.8  2046000.3  0.5 10 0 2120 2461  822
[02]  16(G17)  7  7  7  0  -2327.1  2046002.9  1.0 10 0 3313 3406 1404
[03]  18(G19)  1  7  8  0  -3947.0  2046003.7  0.1  1 0  477  577  584
[04]  27(G28)  1  7  7  0  -2446.4  2046005.9 -0.0  1 0  193  798 1411
[05]  29(G30)  1 15  7  0   -176.3  2046003.6 -0.0  1 0  527 2127 2536
[16]  38(B02)  1 36 28  0  -1000.0  4092001.4  0.0  1 0  362  519  603
$GNGGA,000000.000,,,,,0,00,,,M,,,,0000*2B
$GNRMC,000000.000,A,,,,,,,060180,,*29
$GPGSA,A,1,,,,,,,,,,,,,,,*1E
$BDGSA,A,1,,,,,,,,,,,,,,,*0F
$GLGSA,A,1,,,,,,,,,,,,,,,*02
$GPGSV,1,1,01,13,00,000,25*4D
$B3CN0,0,0,0,0,0,0,0,0,0,0,0,0,0,0*4C
---00000004--- Acq_st=3 0  2000-1-1 0:6:23 
[00]  06(G07)  1  7  7  0   2282.9  2045997.8  0.2  1 0  671  801  782
[01]  12(G13)  7 45 13  0   -350.7  2046000.3  0.1  2 0 2501 2652 1027
[02]  16(G17)  7 46 10  0  -2340.2  2046002.9 -0.0  2 0 3279 3718 1553
[03]  18(G19)  1 14  7  0  -4332.7  2046003.4  0.2  1 0  205  303  447
[04]  27(G28)  1  7  7  0  -2339.0  2046004.4  0.1  1 0  473  367  432
[05]  29(G30)  7  8  7  0   -187.9  2046000.1  1.0 10 0 2431 2784  989
[16]  38(B02)  1 10 21  0  -1754.2  4092001.4 -0.0  1 0  381  172  150
[17]  41(B05)  1 36 10  0  -1341.4  4092002.5  0.1  1 0  383   68  190
$GNGGA,093632.026,,,,,0,00,,,M,,,,0000*22
$GNRMC,093632.026,A,,,,,,,090180,,*2F
$GPGSA,A,1,,,,,,,,,,,,,,,*1E
$BDGSA,A,1,,,,,,,,,,,,,,,*0F
$GLGSA,A,1,,,,,,,,,,,,,,,*02
$GPGSV,1,1,02,13,00,000,45,17,00,000,46*7C
$B3CN0,0,0,0,0,0,0,0,0,0,0,0,0,0,0*4C
---00000005--- Acq_st=3 0  2000-1-1 0:6:24 
[00]  06(G07)  1  7  7  0   2288.2  2045997.6  0.2  1 0  871 1064  756
[01]  12(G13)  f 44  8  0   -341.3  2046000.3  0.0  2 0 2376 3097 1228
[02]  16(G17)  f 45  8  0  -2331.3  2046002.9  0.0  2 0 3355 4582 2151
[03]  18(G19)  1  7  7  0  -4238.6  2046003.8 -0.0  1 0  735  280  625
[04]  27(G28)  1  7  7  0  -2318.6  2046003.6  0.1  1 0  921  827  141
[05]  29(G30)  7 45  7  0   -178.0  2046000.1  0.0  2 0 1716 1964  785
[16]  38(B02)  1 13 25  0  -2119.4  4092004.2  0.1  1 0  126  214  388
[17]  41(B05)  1 10 30  1  -1972.5  4092003.1 -0.1  1 0  247  504  386
[18]  49(B13)  1  7  7  0  -1749.8  4092006.9 -0.0  1 0  329 1620 1649
$GNGGA,093633.026,,,,,0,00,,,M,,,,0000*23
$GNRMC,093633.026,A,,,,,,,090180,,*2E
$GPGSA,A,1,,,,,,,,,,,,,,,*1E
$BDGSA,A,1,,,,,,,,,,,,,,,*0F
$GLGSA,A,1,,,,,,,,,,,,,,,*02
$GPGSV,1,1,03,13,00,000,44,17,00,000,45,30,00,000,45*4D
$B3CN0,0,0,0,0,0,0,0,0,0,0,0,0,0,0*4C
---00000006--- Acq_st=3 0  2000-1-1 0:6:25 
[01]  12(G13)  f 44  7  0   -338.6  2046000.3 -0.0  2 0 2245 3362 1674
[02]  16(G17)  f 45  7  0  -2327.6  2046002.9  0.0  2 0 3565 4001 1296
[03]  18(G19)  1  7  7  0  -4170.1  2046003.9  0.1  1 0  421  566  359
[04]  27(G28)  1  7 12  0  -2330.4  2046003.5 -0.0  1 0  625 1218  716
[05]  29(G30)  7 44  8  0   -175.2  2046000.1 -0.0  2 0 2446 3077 1429
[16]  38(B02)  7 10 26  1  -2010.2  4092004.9 -0.0  2 0  488  483  252
[17]  41(B05)  1 10 30  1  -2027.9  4092004.6  0.0  1 0  374  112  467
[18]  49(B13)  1  7  7  0  -1744.3  4092004.3  0.4  1 0 1506 1776  830
$GNGGA,093634.026,,,,,0,00,,,M,,,,0000*24
$GNRMC,093634.026,A,,,,,,,090180,,*29
$GPGSA,A,1,,,,,,,,,,,,,,,*1E
$BDGSA,A,1,,,,,,,,,,,,,,,*0F
$GLGSA,A,1,,,,,,,,,,,,,,,*02
$GPGSV,1,1,03,13,00,000,44,17,00,000,45,30,00,000,44*4C
$B3CN0,0,0,0,0,0,0,0,0,0,0,0,0,0,0*4C
---00000007--- Acq_st=3 0  2000-1-1 0:6:26 
[01]  12(G13)  f 44  7  0   -336.6  2046000.4 -0.0  2 0 2358 3334 1221
[02]  16(G17)  f 46  7  0  -2326.2  2046002.9 -0.0  2 0 3923 4922 2015
[05]  29(G30)  7 45  7  0   -175.3  2046000.1  0.0  2 0 2396 3048 1306
[16]  38(B02)  7 10 26  1  -2190.4  4092005.8 -0.0  2 0  122  176  118
[17]  41(B05)  7 13 31  1  -1998.4  4092005.3 -0.1  2 0  328  299  115
[18]  49(B13)  7 37  7  0  -1743.7  4092004.4  0.1  2 0 1141 1490  635
$GNGGA,093635.026,,,,,0,00,,,M,,,,0000*25
$GNRMC,093635.026,A,,,,,,,090180,,*28
$GPGSA,A,1,,,,,,,,,,,,,,,*1E
$BDGSA,A,1,,,,,,,,,,,,,,,*0F
$GLGSA,A,1,,,,,,,,,,,,,,,*02
$GPGSV,1,1,03,13,00,000,44,17,00,000,46,30,00,000,45*4E
$BDGSV,1,1,02,05,00,000,16,13,00,000,37*6E
$B3CN0,0,0,0,0,0,0,0,0,0,0,0,0,0,0*4C
---00000008--- Acq_st=3 0  2000-1-1 0:6:27 
[01]  12(G13)  f 45  7  0   -341.7  2046000.3  0.0  2 0 1983 3154 1454
[02]  16(G17)  f 45  7  0  -2332.0  2046003.0 -0.0  2 0 3296 4518 1914
[05]  29(G30)  7 44  7  0   -179.0  2046000.2  0.1  2 0 1681 2543 1099
[16]  38(B02)  7 20 10  0  -2463.5  4092006.6  0.1  2 0  169  236  293
[17]  41(B05)  7 10 28  1  -2001.5  4092005.2 -0.0  2 0  561  425  257
[18]  49(B13)  7 42  7  0  -1750.6  4092004.5  0.0  2 0 1360 1803  832
[19]  65(B29)  1 28  7  0  -2070.4  4092007.7  0.5  1 0  962 1282 2283
$GNGGA,093636.026,,,,,0,00,,,M,,,,0000*26
$GNRMC,093636.026,A,,,,,,,090180,,*2B
$GPGSA,A,1,,,,,,,,,,,,,,,*1E
$BDGSA,A,1,,,,,,,,,,,,,,,*0F
$GLGSA,A,1,,,,,,,,,,,,,,,*02
$GPGSV,1,1,03,13,00,000,45,17,00,000,45,30,00,000,44*4D
$BDGSV,1,1,02,02,00,000,19,13,00,000,42*64
$B3CN0,0,0,0,0,0,0,0,0,0,0,0,0,0,0*4C
---00000009--- Acq_st=7 0  2000-1-1 0:6:28 
[01]  12(G13)  f 44  7  0   -343.8  2046000.4 -0.0  2 0 1973 3088 1904
[02]  16(G17)  f 45  7  0  -2336.1  2046003.0  0.0  2 0 2900 4170 1885
[05]  29(G30)  7 44  7  0   -181.6  2046000.2 -0.0  2 0 2226 3027 1519
[16]  38(B02)  7 18 22  0  -2986.2  4092007.7 -0.0  2 0  560  608  389
[17]  41(B05)  7 10 30  1  -2028.3  4092005.3 -0.1  2 0  283  155  341
[18]  49(B13)  7 42 13  0  -1755.1  4092004.5  0.0  2 0 1479 1767  625
[19]  65(B29)  7 27  7  0  -2072.5  4092005.3  0.6 10 0 1713 2264  815
[32]  79(N-2)  1 27 22  0  -2625.3  1022001.8  0.2  1 0   402  613  675
[33]  86(N05)  1 15  7  0  -2250.0  1022002.4  0.0  1 0   323  226  808
$GNGGA,093637.026,,,,,0,00,,,M,,,,0000*27
$GNRMC,093637.026,A,,,,,,,090180,,*2A
$GPGSA,A,1,,,,,,,,,,,,,,,*1E
$BDGSA,A,1,,,,,,,,,,,,,,,*0F
$GLGSA,A,1,,,,,,,,,,,,,,,*02
$GPGSV,1,1,03,13,00,000,44,17,00,000,45,30,00,000,44*4C
$BDGSV,1,1,02,13,00,000,42,29,00,000,27*60
$B3CN0,0,0,0,0,0,0,0,0,0,0,0,0,0,0*4C
---00000010--- Acq_st=7 0  2000-1-1 0:6:29 
[01]  12(G13)  f 44  7  0   -344.1  2046000.4 -0.0  2 0 2199 3613 2165
[02]  16(G17)  f 45 12  0  -2335.0  2046003.0 -0.0  2 0 2391 4209 1784
[05]  29(G30)  7 44 12  0   -179.0  2046000.2 -0.0  2 0 1810 3211 1720
[16]  38(B02)  7 20 10  0  -3626.2  4092009.4 -0.2  2 0  438  286  368
[17]  41(B05)  7 21 31  1  -1977.2  4092005.0  0.0  2 0  272  778  905
[18]  49(B13)  7 42  7  0  -1750.1  4092004.5  0.0  2 0 1707 1919  618
[19]  65(B29)  7 43  7  0  -2069.0  4092005.3  0.0  2 0 1791 2286 1015
[32]  79(N-2)  7 27 15  0  -2616.7  1022001.6  0.5 10 0   231  451  373
[33]  86(N05)  1 19 19  0  -2180.7  1022001.8 -0.1  1 0   570  713  262
$GNGGA,093638.026,,,,,0,00,,,M,,,,0000*28
$GNRMC,093638.026,A,,,,,,,090180,,*25
$GPGSA,A,1,,,,,,,,,,,,,,,*1E
$BDGSA,A,1,,,,,,,,,,,,,,,*0F
$GLGSA,A,1,,,,,,,,,,,,,,,*02
$GPGSV,1,1,03,13,00,000,44,17,00,000,45,30,00,000,44*4C
$BDGSV,1,1,04,02,00,000,20,05,00,000,20,13,00,000,42,29,00,000,43*63
$B3CN0,0,0,0,0,0,0,0,0,0,0,0,0,0,0*4C
---00000011--- Acq_st=3 0  2000-1-1 0:6:30 
[00]  06(G07)  1 16  7  0   1750.0  2046000.3 -0.0  1 0  242  335  805
[01]  12(G13)  f 45  7  0   -343.2  2046000.4  0.0  2 0 2564 3630 1631
[02]  16(G17)  f 46  7  0  -2336.4  2046003.0  0.0  2 0 2787 4015 1728
[05]  29(G30)  f 44  7  0   -179.1  2046000.2 -0.0  2 0 1520 2957 1634
[16]  38(B02)  7 22 20  1  -3742.5  4092010.0  0.1  2 0  415  172  281
[17]  41(B05)  7 19 28  1  -2026.7  4092005.3  0.2  2 0  680  498  147
[18]  49(B13)  7 42  9  0  -1752.6  4092004.4  0.0  2 0 1317 1767  809
[19]  65(B29)  7 43  7  0  -2068.1  4092005.3 -0.0  2 0 1972 2525  957
[32]  79(N-2)  7 34 22  0  -2613.1  1022001.6  0.0  2 0   132  174  209
[33]  86(N05)  1 26 17  0  -2176.3  1022000.8  0.3  1 0   909 1115  101
$GNGGA,093639.026,,,,,0,00,,,M,,,,0000*29
$GNRMC,093639.026,A,,,,,,,090180,,*24
$GPGSA,A,1,,,,,,,,,,,,,,,*1E
$BDGSA,A,1,,,,,,,,,,,,,,,*0F
$GLGSA,A,1,,,,,,,,,,,,,,,*02
$GPGSV,1,1,03,13,00,000,45,17,00,000,46,30,00,000,44*4E
$BDGSV,1,1,04,02,00,000,20,05,00,000,20,13,00,000,42,29,00,000,43*63
$B3CN0,0,0,0,0,0,0,0,0,0,0,0,0,0,0*4C
---00000012--- Acq_st=3 0  2000-1-1 0:6:31 
[00]  06(G07)  1 32  7  0   1778.3  2045997.9  0.9  1 0 1165 1157  734
[01]  12(G13)  f 45 11  0   -346.8  2046000.4  0.0  2 0 1958 3478 1616
[02]  16(G17)  f 46  7  0  -2336.1  2046003.0 -0.0  2 0 2639 4235 1993
[03]  18(G19)  1 19  7  0  -3561.5  2046006.3  0.1  1 0  821 2433 2302
[05]  29(G30)  f 43  7  0   -179.7  2046000.2 -0.0  2 0 1983 2757 1141
[16]  38(B02)  7 10 22  0  -4112.4  4092010.6  0.2  2 0  413  313  154
[17]  41(B05)  7 10 29  1  -2007.2  4092005.2 -0.1  2 0  313  630  869
[18]  49(B13)  7 42 11  0  -1750.5  4092004.5 -0.0  2 0 1305 1747  406
[19]  65(B29)  7 43  7  0  -2070.6  4092005.3 -0.0  2 0 2321 2601  883
[32]  79(N-2)  7 33 22  0  -2613.8  1022001.6 -0.1  2 0   282  207  484
[33]  86(N05)  7 39 18  0  -2177.5  1022001.3  0.1  2 0   986  829  223
$GNGGA,093640.026,,,,,0,00,,,M,,,,0000*27
$GNRMC,093640.026,A,,,,,,,090180,,*2A
$GPGSA,A,1,,,,,,,,,,,,,,,*1E
$BDGSA,A,1,,,,,,,,,,,,,,,*0F
$GLGSA,A,1,,,,,,,,,,,,,,,*02
$GPGSV,1,1,03,13,00,000,45,17,00,000,46,30,00,000,43*49
$BDGSV,1,1,02,13,00,000,42,29,00,000,43*62
$B3CN0,0,0,0,0,0,0,0,0,0,0,0,0,0,0*4C
---00000013--- Acq_st=3 0  2000-1-1 0:6:32 
[00]  06(G07)  7 33  7  0   1777.4  2045997.6  0.0  5 0 1616 1664  720
[01]  12(G13)  f 45  7  0   -348.7  2046000.4  0.0  2 0 2502 3148 1343
[02]  16(G17)  f 46  7  0  -2338.4  2046003.0 -0.0  2 0 3296 4421 2269
[03]  18(G19)  7  7  7  0  -3559.0  2046004.5  1.0 10 0 1494 2365  809
[04]  27(G28)  1 19  7  0  -2832.8  2046005.9  0.2  1 0  517  694 1528
[05]  29(G30)  f 44 10  0   -182.2  2046000.2  0.1  2 0 1830 2851 1473
[06]  28(G29)  1  7  7  0   9293.8  2045988.4  0.0  1 0  199  300  144
[16]  38(B02)  7 19 16  1  -4327.1  4092011.4  0.1  2 0   35  116  191
[17]  41(B05)  7 21 32  1  -1998.8  4092005.1 -0.1  2 0  366  435  431
[18]  49(B13) 1f 42  7  0  -1758.1  4092004.5 -0.0  2 0 1001 1621  559
[19]  65(B29) 1f 43  8  0  -2075.6  4092005.3 -0.0  2 0 2171 2180  732
[32]  79(N-2)  7 31 21  0  -2618.8  1022001.7  0.2  5 0   498  402  176
[33]  86(N05)  7 40 19  0  -2177.9  1022001.4 -0.1  2 0   961 1158  441
---00000014--- Acq_st=3 0  2000-1-1 0:6:33 
[00]  06(G07)  7 38  7  0   1799.0  2045997.6  0.4  2 0 1591 1867  904
[01]  12(G13)  f 45  7  0   -330.2  2046000.4 -0.0  2 0 2375 3602 1504
[02]  16(G17)  f 46  7  0  -2324.7  2046002.9 -0.1  2 0 2972 4376 2180
[03]  18(G19)  7 45  7  0  -3542.1  2046004.5 -0.1  2 0 1716 2570 1387
[04]  27(G28)  7 25  7  0  -2819.4  2046003.5  0.5 10 0  931  955  761
[05]  29(G30)  f 44  7  0   -168.1  2046000.2 -0.1  2 0 1881 3211 1715
[06]  28(G29)  1  7  8  0   8503.7  2045987.9 -0.1  1 0  356  247  713
[17]  41(B05)  7 23 27  1  -1997.2  4092005.3 -0.1  2 0  357  168   94
[18]  49(B13) 1f 42  7  0  -1740.0  4092004.4  0.0  2 0 1178 1660  710
[19]  65(B29) 1f 43  7  0  -2060.9  4092005.2 -0.0  2 0 2313 2365 1275
[32]  79(N-2)  f 28 19  0  -2606.0  1022001.8 -0.0 10 0   266  197  163
[33]  86(N05)  7 41 18  0  -2164.1  1022001.4  0.3  2 0   741  887  240
[50]  49(B13)  1  7  7  0  -1655.0 20460028.9  0.1  1 0  677  520  118
[51]  65(B29)  1  7  7  0  -1778.8 20460033.8 -0.1  1 0  103   73  141
$GNGGA,093641.026,,,,,0,00,,,M,,,,0000*26
$GNRMC,093641.026,A,,,,,,,090180,,*2B
$GPGSA,A,1,,,,,,,,,,,,,,,*1E
$BDGSA,A,1,,,,,,,,,,,,,,,*0F
$GLGSA,A,1,,,,,,,,,,,,,,,*02
$GPGSV,2,1,06,07,00,000,38,13,00,000,45,17,00,000,46,19,00,000,45*7E
$GPGSV,2,2,06,28,00,000,25,30,00,000,44*71
$BDGSV,1,1,03,05,00,000,22,13,00,000,42,29,00,000,43*56
$B3CN0,0,0,0,0,0,0,0,0,0,0,0,0,0,0*4C
---00000015--- Acq_st=3 0  2000-1-1 0:6:34 
[00]  06(G07)  7 39  8  0   1784.1  2045997.5  0.1  2 0 1080 1126  651
[01]  12(G13)  f 45  7  0   -344.2  2046000.4  0.0  2 0 1955 3119 1529
[02]  16(G17)  f 45  7  0  -2334.7  2046003.0  0.0  2 0 3041 4397 1726
[03]  18(G19)  7 43  7  0  -3555.2  2046004.5  0.1  2 0 1404 2187  987
[04]  27(G28)  7 38  9  0  -2825.8  2046003.6 -0.2  2 0 1113 1399  623
[05]  29(G30)  f 44  7  0   -176.1  2046000.1  0.0  2 0 2120 2880 1296
[06]  28(G29)  1  7  7  0   8280.6  2045988.4 -0.1  1 0  258  124  323
[17]  41(B05)  7 10 29  1  -1976.5  4092005.3  0.1  2 0  158  269  154
[18]  49(B13) 1f 42 11  0  -1753.3  4092004.5  0.0  2 0 1288 1431  200
[19]  65(B29) 1f 43  7  0  -2071.6  4092005.3 -0.0  2 0 2194 2164  824
[32]  79(N-2)  f 27 17  0  -2614.8  1022001.9  0.1 10 0   210  346  397
[33]  86(N05)  7 42 17  0  -2174.0  1022001.3 -0.2  2 0   772 1403  916
[50]  49(B13)  1  7  7  0  -1656.0 20460027.1  0.1  1 0  539  393  354
[51]  65(B29)  1  7  7  0  -2132.3 20460034.2 -0.0  1 0  207  285  540
$GNGGA,093642.026,,,,,0,00,,,M,,,,0000*25
$GNRMC,093642.026,A,,,,,,,090180,,*28
$GPGSA,A,1,,,,,,,,,,,,,,,*1E
$BDGSA,A,1,,,,,,,,,,,,,,,*0F
$GLGSA,A,1,,,,,,,,,,,,,,,*02
$GPGSV,2,1,06,07,00,000,39,13,00,000,45,17,00,000,45,19,00,000,43*7A
$GPGSV,2,2,06,28,00,000,38,30,00,000,44*7D
$BDGSV,1,1,02,13,00,000,42,29,00,000,43*62
$B3CN0,0,0,0,0,0,0,0,0,0,0,0,0,0,0*4C
---00000016--- Acq_st=3 0  2000-1-1 0:6:35 
[00]  06(G07)  7 40  7  0   1781.6  2045997.5  0.1  2 0 1464 1424  237
[01]  12(G13)  f 45  7  0   -345.2  2046000.4 -0.0  2 0 2184 3418 1824
[02]  16(G17)  f 45 13  0  -2336.5  2046003.0  0.0  2 0 3143 5061 2166
[03]  18(G19)  7 42  7  0  -3552.7  2046004.6 -0.1  2 0  784 1489  734
[04]  27(G28)  7 39 11  0  -2830.2  2046003.5 -0.0  2 0 1807 1650  225
[05]  29(G30)  f 45  7  0   -178.4  2046000.1 -0.0  2 0 2055 3017 1726
[06]  28(G29)  1  7  7  0   8714.4  2045988.4 -0.0  1 0  364  266  197
[17]  41(B05)  7 13 29  1  -1997.8  4092005.3  0.0  2 0  347  295   83
[18]  49(B13) 1f 42 10  0  -1751.6  4092004.5  0.0  2 0 2000 2044  859
[19]  65(B29) 1f 43  7  0  -2072.8  4092005.3  0.1  2 0 2416 2389  779
[32]  79(N-2)  f 27 20  0  -2614.5  1022001.9  0.0 10 0   512  653  553
[33]  86(N05)  f 37  7  0  -2176.8  1022001.4 -0.1  2 0   895 1391  639
[50]  49(B13)  1  7  7  0  -1740.6 20460028.2  0.0  1 0  475  661  320
[51]  65(B29)  1  7  7  0  -1299.4 20460034.1 -0.1  1 0  768  168  247
$GNGGA,093643.026,,,,,0,00,,,M,,,,0000*24
$GNRMC,093643.026,A,,,,,,,090180,,*29
$GPGSA,A,1,,,,,,,,,,,,,,,*1E
$BDGSA,A,1,,,,,,,,,,,,,,,*0F
$GLGSA,A,1,,,,,,,,,,,,,,,*02
$GPGSV,2,1,06,07,00,000,40,13,00,000,45,17,00,000,45,19,00,000,42*75
$GPGSV,2,2,06,28,00,000,39,30,00,000,45*7D
$BDGSV,1,1,02,13,00,000,42,29,00,000,43*62
$B3CN0,0,0,0,0,0,0,0,0,0,0,0,0,0,0*4C
---00000017--- Acq_st=3 0  2000-1-1 0:6:36 
[00]  06(G07)  f 41  7  0   1785.2  2045997.5 -0.1  2 0 1381 1891  903
[01]  12(G13)  f 45  7  0   -336.9  2046000.4  0.0  2 0 2328 3305 1848
[02]  16(G17)  f 46  7  0  -2332.8  2046003.0 -0.0  2 0 3130 4485 2217
[03]  18(G19)  f 41  7  0  -3550.4  2046004.6 -0.0  2 0  952 1781  963
[04]  27(G28)  f 39  7  0  -2820.9  2046003.5 -0.2  2 0 1585 1477  495
[05]  29(G30)  f 45  7  0   -174.6  2046000.2  0.1  2 0 1875 3018 1043
[17]  41(B05)  7 10 26  1  -1970.2  4092005.1 -0.0  2 0  226  280  542
[18]  49(B13) 1f 42  7  0  -1748.0  4092004.5 -0.0  2 0 1191 1700  890
[19]  65(B29) 1f 44  7  0  -2067.8  4092005.3 -0.0  2 0 2287 2393 1068
[32]  79(N-2)  f 27 18  0  -2609.9  1022001.7 -0.0 10 0   349  111   55
[33]  86(N05)  f 42  7  0  -2170.6  1022001.4 -0.2  2 0  1040 1450  654
[50]  49(B13)  1  7  7  0  -2086.4 20460028.5  0.0  1 0  753  515  927
[51]  65(B29)  1  7  7  0   -925.0 20460032.7  0.0  1 0  331  787  390
$GNGGA,093644.026,,,,,0,00,,,M,,,,0000*23
$GNRMC,093644.026,A,,,,,,,090180,,*2E
$GPGSA,A,1,,,,,,,,,,,,,,,*1E
$BDGSA,A,1,,,,,,,,,,,,,,,*0F
$GLGSA,A,1,,,,,,,,,,,,,,,*02
$GPGSV,2,1,06,07,00,000,41,13,00,000,45,17,00,000,46,19,00,000,41*74
$GPGSV,2,2,06,28,00,000,39,30,00,000,45*7D
$BDGSV,1,1,02,13,00,000,42,29,00,000,44*65
$B3CN0,0,0,0,0,0,0,0,0,0,0,0,0,0,0*4C
---00000018--- Acq_st=3 0  2000-1-1 0:6:37 
[00]  06(G07)  f 41  7  0   1787.0  2045997.6  0.0  2 0 1571 1659  500
[01]  12(G13)  f 45  7  0   -337.3  2046000.4 -0.0  2 0 1967 3276 1718
[02]  16(G17)  f 45  9  0  -2333.4  2046003.0 -0.0  2 0 3096 4341 2160
[03]  18(G19)  f 42  7  0  -3552.3  2046004.5 -0.0  2 0 1122 1644  631
[04]  27(G28)  f 40  7  0  -2826.7  2046003.6 -0.1  2 0 1847 1872  704
[05]  29(G30)  f 44  9  0   -173.2  2046000.1 -0.0  2 0 2292 3373 1776
[17]  41(B05)  7 10 30  1  -2015.3  4092005.3  0.0  2 0  481  186  464
[18]  49(B13) 1f 42 13  0  -1750.5  4092004.4 -0.0  2 0 1466 2106  587
[19]  65(B29) 1f 44  7  0  -2064.2  4092005.2  0.1  2 0 2611 2522 1305
[32]  79(N-2)  f 27 18  0  -2608.7  1022001.7  0.1 10 0   223  388  301
[33]  86(N05)  f 41  7  0  -2170.4  1022001.4  0.0  2 0   735 1303  652
$GNGGA,093645.026,,,,,0,00,,,M,,,,0000*22
$GNRMC,093645.026,A,,,,,,,090180,,*2F
$GPGSA,A,1,,,,,,,,,,,,,,,*1E
$BDGSA,A,1,,,,,,,,,,,,,,,*0F
$GLGSA,A,1,,,,,,,,,,,,,,,*02
$GPGSV,2,1,06,07,00,000,41,13,00,000,45,17,00,000,45,19,00,000,42*74
$GPGSV,2,2,06,28,00,000,40,30,00,000,44*72
$BDGSV,1,1,02,13,00,000,42,29,00,000,44*65
$B3CN0,0,0,0,0,0,0,0,0,0,0,0,0,0,0*4C
---00000019--- Acq_st=7 0  2000-1-1 0:6:38 
[00]  06(G07)  f 41  7  0   1785.9  2045997.6 -0.0  2 0 1383 1896  637
[01]  12(G13)  f 45  7  0   -346.7  2046000.4  0.0  2 0 2224 3332 1668
[02]  16(G17)  f 45  7  0  -2339.0  2046003.0  0.0  2 0 2788 4681 2606
[03]  18(G19)  f 41  7  0  -3559.5  2046004.6 -0.0  2 0 1159 1964 1058
[04]  27(G28)  f 40  8  0  -2830.3  2046003.6  0.1  2 0 1299 1467  457
[05]  29(G30)  f 45  8  0   -179.2  2046000.2 -0.0  2 0 2177 3412 1606
[17]  41(B05)  7 18 29  1  -2010.1  4092005.1  0.1  2 0  368  570   93
[18]  49(B13) 1f 42  7  0  -1758.2  4092004.5 -0.1  2 0 1201 1743 1026
[19]  65(B29) 1f 44  7  0  -2072.6  4092005.3 -0.0  2 0 2365 2674 1138
[32]  79(N-2)  f 27 18  0  -2613.5  1022001.6  0.0 10 0   108  527  469
[33]  86(N05)  f 41  7  0  -2174.1  1022001.3 -0.1  2 0   863 1333  893
[50]  49(B13)  1  7  7  0  -1633.7 20460029.1  0.1  1 0  541  283  485
[51]  65(B29)  1  7  7  0  -1463.6 20460033.1  0.1  1 0  339  533  697
$GNGGA,093646.026,,,,,0,00,,,M,,,,0000*21
$GNRMC,093646.026,A,,,,,,,090180,,*2C
$GPGSA,A,1,,,,,,,,,,,,,,,*1E
$BDGSA,A,1,,,,,,,,,,,,,,,*0F
$GLGSA,A,1,,,,,,,,,,,,,,,*02
$GPGSV,2,1,06,07,00,000,41,13,00,000,45,17,00,000,45,19,00,000,41*77
$GPGSV,2,2,06,28,00,000,40,30,00,000,45*73
$BDGSV,1,1,03,05,00,000,18,13,00,000,42,29,00,000,44*58
$B3CN0,0,0,0,0,0,0,0,0,0,0,0,0,0,0*4C
---00000020--- Acq_st=3 0  2000-1-1 0:6:39 
[00]  06(G07)  f 41  7  0   1787.7  2045997.6 -0.0  2 0  982 1464  712
[01]  12(G13)  f 44  7  0   -338.9  2046000.4 -0.0  2 0 1811 2985 1881
[02]  16(G17)  f 45  7  0  -2334.1  2046003.0 -0.0  2 0 3590 4824 2225
[03]  18(G19)  f 42  7  0  -3555.5  2046004.5  0.0  2 0 1206 1715  721
[04]  27(G28)  f 41  7  0  -2833.2  2046003.6 -0.0  2 0 1782 2086  635
[05]  29(G30)  f 44  7  0   -175.3  2046000.2  0.1  2 0 2123 3067 1465
[06]  03(G04)  1 25  7  0    998.3  2045999.1  0.2  1 0  918 1583  818
[08]  07(G08)  1  7  7  0   6500.0  2045991.7 -0.2  1 0  186  357  298
[17]  41(B05)  7 10 29  1  -1997.7  4092005.3  0.2  2 0  200  236  105
[18]  49(B13) 1f 42  7  0  -1749.6  4092004.5 -0.1  2 0 1018 1807  979
[19]  65(B29) 1f 44  9  0  -2068.4  4092005.3 -0.0  2 0 2788 2942 1253
[32]  79(N-2)  f 29 17  0  -2611.1  1022001.5 -0.0  5 0   289  509  489
[33]  86(N05)  f 42  7  0  -2172.7  1022001.4 -0.0  2 0   903 1405  745
[50]  49(B13)  1  7  7  0  -1461.9 20460028.2 -0.0  1 0  212  516  503
[51]  65(B29)  1  7  9  0  -1432.1 20460031.9 -0.1  1 0  260  529  421
$GNGGA,093647.026,,,,,0,00,,,M,,,,0000*20
$GNRMC,093647.026,A,,,,,,,090180,,*2D
$GPGSA,A,1,,,,,,,,,,,,,,,*1E
$BDGSA,A,1,,,,,,,,,,,,,,,*0F
$GLGSA,A,1,,,,,,,,,,,,,,,*02
$GPGSV,2,1,06,07,00,000,41,13,00,000,44,17,00,000,45,19,00,000,42*75
$GPGSV,2,2,06,28,00,000,41,30,00,000,44*73
$BDGSV,1,1,02,13,00,000,42,29,00,000,44*65
$B3CN0,0,0,0,0,0,0,0,0,0,0,0,0,0,0*4C
---00000021--- Acq_st=3 0  2000-1-1 0:6:40 
[00]  06(G07)  f 41  7  0   1792.2  2045997.6  0.0  2 0 1234 1987 1419
[01]  12(G13)  f 44  7  0   -336.4  2046000.4 -0.0  2 0 2224 3592 1876
[02]  16(G17)  f 46  7  0  -2329.2  2046003.0  0.0  2 0 2947 4751 2545
[03]  18(G19)  f 43  7  0  -3552.0  2046004.5 -0.0  2 0 2040 2524 1177
[04]  27(G28)  f 41  7  0  -2826.2  2046003.6  0.1  2 0 1075 1388  431
[05]  29(G30)  f 45  7  0   -171.2  2046000.1 -0.1  2 0 2012 2624  984
[06]  03(G04)  7  7  7  0   1001.7  2045998.7  0.9 10 0 1052 1511  611
[08]  07(G08)  1  7  7  0   6435.7  2045992.1 -0.1  1 0  654  600  196
[17]  41(B05)  7 23 31  1  -2020.6  4092005.2  0.0  2 0  357  117  248
[18]  49(B13) 1f 42  8  0  -1749.6  4092004.5  0.1  2 0 1199 1953 1325
[19]  65(B29) 1f 44  7  0  -2063.6  4092005.3 -0.0  2 0 2257 2586 1071
[32]  79(N-2)  f 30 17  0  -2604.9  1022001.6 -0.0  5 0   602  616  283
[33]  86(N05)  f 42  7  0  -2167.4  1022001.3 -0.1  2 0  1038 1367  893
[50]  49(B13)  1  7  7  0   -987.5 20460029.0  0.0  1 0  728  489  232
[51]  65(B29)  1  7  7  0  -2363.6 20460032.7 -0.2  1 0  244  268  341
$GNGGA,093648.026,,,,,0,00,,,M,,,,0000*2F
$GNRMC,093648.026,A,,,,,,,090180,,*22
$GPGSA,A,1,,,,,,,,,,,,,,,*1E
$BDGSA,A,1,,,,,,,,,,,,,,,*0F
$GLGSA,A,1,,,,,,,,,,,,,,,*02
$GPGSV,2,1,06,07,00,000,41,13,00,000,44,17,00,000,46,19,00,000,43*77
$GPGSV,2,2,06,28,00,000,41,30,00,000,45*72
$BDGSV,1,1,03,05,00,000,23,13,00,000,42,29,00,000,44*50
$B3CN0,0,0,0,0,0,0,0,0,0,0,0,0,0,0*4C
---00000022--- Acq_st=3 0  2000-1-1 0:6:41 
[00]  06(G07)  f 40  7  0   1789.0  2045997.6 -0.1  2 0  979 1106  639
[01]  12(G13)  f 44 14  0   -334.8  2046000.4  0.0  2 0 1775 2598 1405
[02]  16(G17)  f 45 12  0  -2327.0  2046003.0  0.0  2 0 2250 3697 2114
[03]  18(G19)  f 43  7  0  -3546.4  2046004.5  0.0  2 0 1859 2484  950
[04]  27(G28)  f 41  9  0  -2818.7  2046003.6  0.1  2 0  695 1638  917
[05]  29(G30)  f 44  7  0   -166.5  2046000.1 -0.0  2 0 2389 3259 1537
[06]  03(G04)  7 39 15  0   1000.8  2045998.7 -0.5  2 0 1098 1536  608
[08]  07(G08)  1 11 10  0   6685.1  2045992.3 -0.1  1 0  295  357  329
[16]  38(B02)  1 13 16  1  -1250.0  4092002.4  0.0  1 0  339  973  657
[17]  41(B05)  7 10 29  1  -2011.9  4092005.3 -0.0  2 0  204  540  734
[18]  49(B13) 1f 42  7  0  -1743.0  4092004.5  0.0  2 0 1353 1631  634
[19]  65(B29) 1f 44  7  0  -2063.3  4092005.3  0.0  2 0 2312 2555 1223
[32]  79(N-2)  f 30 12  0  -2598.4  1022001.7  0.0  5 0    94  151  171
[33]  86(N05)  f 42  7  0  -2164.1  1022001.3  0.0  2 0   694 1550 1136
[50]  49(B13)  1  7  7  0  -1348.3 20460029.3  0.0  1 0  462  554  517
[51]  65(B29)  1  7  7  0  -2155.1 20460032.8 -0.1  1 0  603   78  268
$GNGGA,093649.026,,,,,0,00,,,M,,,,0000*2E
$GNRMC,093649.026,A,,,,,,,030419,,*2C
$GPGSA,A,1,,,,,,,,,,,,,,,*1E
$BDGSA,A,1,,,,,,,,,,,,,,,*0F
$GLGSA,A,1,,,,,,,,,,,,,,,*02
$GPGSV,2,1,07,07,00,000,40,13,00,000,44,17,00,000,45,19,00,000,43*74
$GPGSV,2,2,07,28,00,000,41,30,00,000,44,04,00,000,39*4C
$BDGSV,1,1,02,13,00,000,42,29,00,000,44*65
$B3CN0,0,0,0,0,0,0,0,0,0,0,0,0,0,0*4C
---00000023--- Acq_st=3 0  2000-1-1 0:6:42 
[00]  06(G07)  f 40  7  0   1784.4  2045997.6  0.0  2 0  922 1692 1001
[01]  12(G13)  f 44 12  0   -341.5  2046000.4 -0.1  2 0 2664 3464 1438
[02]  16(G17)  f 45  7  0  -2336.8  2046003.0 -0.1  2 0 2788 4241 1946
[03]  18(G19)  f 43  7  0  -3556.9  2046004.5  0.0  2 0 2065 2642 1202
[04]  27(G28)  f 40  7  0  -2830.8  2046003.7 -0.2  2 0  663 1600  622
[05]  29(G30)  f 44  7  0   -177.6  2046000.2 -0.0  2 0 2177 3058 1187
[06]  03(G04)  f 39 17  0    995.8  2045998.7 -0.1  2 0  924 1153  278
[08]  07(G08)  7 17  7  0   6616.4  2045991.3 -0.1 10 0  476  601  423
[16]  38(B02)  1 34 23  0  -1096.2  4092002.3  0.8  1 0  684  677  275
[17]  41(B05)  7 10 30  1  -2003.7  4092005.3  0.2  2 0  446  196  147
[18]  49(B13) 1f 42  7  0  -1757.0  4092004.5 -0.0  2 0 1383 2105  939
[19]  65(B29) 1f 44  7  0  -2071.1  4092005.3 -0.0  2 0 2302 2840 1416
[32]  79(N-2)  f 31 15  0  -2610.7  1022001.7 -0.0  5 0   273  362  516
[33]  86(N05)  f 41  7  0  -2173.9  1022001.3 -0.0  2 0   671  933  470
$GNGGA,093650.026,,,,,0,00,,,M,,,,0000*26
$GNRMC,093650.026,A,,,,,,,030419,,*24
$GPGSA,A,1,,,,,,,,,,,,,,,*1E
$BDGSA,A,1,,,,,,,,,,,,,,,*0F
$GLGSA,A,1,,,,,,,,,,,,,,,*02
$GPGSV,2,1,08,07,00,000,40,13,00,000,44,17,00,000,45,19,00,000,43*7B
$GPGSV,2,2,08,28,00,000,40,30,00,000,44,04,00,000,39,08,00,000,17*7C
$BDGSV,1,1,02,13,00,000,42,29,00,000,44*65
$B3CN0,0,0,0,0,0,0,0,0,0,0,0,0,0,0*4C
---00000024--- Acq_st=3 0  2000-1-1 0:6:43 
[00]  06(G07)  f 38  7  0   1792.4  2045997.7  0.2  2 0  692 1013  496
[01]  12(G13)  f 44  7  0   -331.7  2046000.4  0.0  2 0 1670 3142 2025
[02]  16(G17)  f 45  7  0  -2325.7  2046003.0  0.0  2 0 2912 4564 2185
[03]  18(G19)  f 43 11  0  -3542.2  2046004.5 -0.0  2 0 1443 2154  634
[04]  27(G28)  f 39 10  0  -2824.6  2046003.7  0.2  2 0  212 1426 1167
[05]  29(G30)  f 45  7  0   -160.8  2046000.2  0.0  2 0 2291 3340 1072
[06]  03(G04)  f 39 17  0   1005.9  2045998.7 -0.1  2 0  658 1110  331
[08]  07(G08)  7  7  7  0   6554.2  2045991.2 -0.1 10 0  406  408  213
[16]  38(B02) 1f 35 27  0  -1090.2  4092002.5 -0.1  2 0  724  605  124
[17]  41(B05)  7 19 31  1  -1997.7  4092005.3  0.0  2 0  425  301  156
[18]  49(B13) 1f 42  7  0  -1742.7  4092004.4 -0.1  2 0 1291 1952 1032
[19]  65(B29) 1f 44  7  0  -2060.6  4092005.3  0.0  2 0 2716 3166 1554
[32]  79(N-2)  f 30 17  0  -2598.0  1022001.8 -0.1  5 0   189  376  540
[33]  86(N05)  f 41  7  0  -2161.7  1022001.4 -0.0  2 0   525  890  513
[50]  49(B13)  1 10  7  0  -1935.6 20460028.8 -0.1  1 0  538  383  764
[51]  65(B29)  1  7  8  0  -1637.5 20460032.0  0.0  1 0  459  846  418
$GNGGA,093651.026,,,,,0,00,,,M,,,,0000*27
$GNRMC,093651.026,A,,,,,,,030419,,*25
$GPGSA,A,1,,,,,,,,,,,,,,,*1E
$BDGSA,A,1,,,,,,,,,,,,,,,*0F
$GLGSA,A,1,,,,,,,,,,,,,,,*02
$GPGSV,2,1,07,07,00,000,38,13,00,000,44,17,00,000,45,19,00,000,43*7B
$GPGSV,2,2,07,28,00,000,39,30,00,000,45,04,00,000,39*42
$BDGSV,1,1,04,02,00,000,35,05,00,000,19,13,00,000,42,29,00,000,44*6A
$B3CN0,0,0,0,0,0,0,0,0,0,0,0,0,0,0*4C
---00000025--- Acq_st=3 0  2000-1-1 0:6:44 
[00]  06(G07)  f 37  7  0   1788.7  2045997.6 -0.3  2 0  605 1288  938
[01]  12(G13)  f 44  8  0   -339.3  2046000.4  0.0  2 0 2022 3178 1722
[02]  16(G17)  f 45  7  0  -2333.5  2046003.0 -0.0  2 0 2605 3781 1719
[03]  18(G19)  f 44  7  0  -3554.7  2046004.5 -0.0  2 0 1593 2590 1112
[04]  27(G28)  f 40  7  0  -2830.4  2046003.6 -0.1  2 0  978  888  365
[05]  29(G30)  f 44  7  0   -173.3  2046000.2 -0.0  2 0 1795 3315 1825
[06]  03(G04)  f 39 15  0   1000.2  2045998.7 -0.1  2 0  856 1309 1127
[08]  07(G08)  7  7  7  0   6422.4  2045991.6  0.1 10 0  703  424  400
[16]  38(B02) 1f 36 28  0  -1093.7  4092002.7  0.5  2 0 1206  976   46
[17]  41(B05)  7 10 30  1  -2003.5  4092005.2 -0.0  2 0  449  251  176
[18]  49(B13) 1f 42  7  0  -1753.1  4092004.5  0.0  2 0 1405 1969  705
[19]  65(B29) 1f 44  9  0  -2067.5  4092005.3 -0.0  2 0 2162 2162  981
[32]  79(N-2)  f 30 16  0  -2606.7  1022001.6  0.0  5 0   451  219  179
[33]  86(N05)  f 41  7  0  -2169.1  1022001.4 -0.0  2 0   646 1393  975
[50]  49(B13)  1  9  7  0  -1236.7 20460028.6 -0.0  1 0  422  517  531
[51]  65(B29)  1  7  7  0  -1639.9 20460031.5 -0.1  1 0  303  407  212
$GNGGA,093652.026,,,,,0,00,,,M,,,,0000*24
$GNRMC,093652.026,A,,,,,,,030419,,*26
$GPGSA,A,1,,,,,,,,,,,,,,,*1E
$BDGSA,A,1,,,,,,,,,,,,,,,*0F
$GLGSA,A,1,,,,,,,,,,,,,,,*02
$GPGSV,2,1,07,07,00,000,37,13,00,000,44,17,00,000,45,19,00,000,44*73
$GPGSV,2,2,07,28,00,000,40,30,00,000,44,04,00,000,39*4D
$BDGSV,1,1,03,02,00,000,36,13,00,000,42,29,00,000,44*53
$B3CN0,0,0,0,0,0,0,0,0,0,0,0,0,0,0*4C
---00000026--- Acq_st=3 0  2000-1-1 0:6:45 
[00]  06(G07)  f 38  7  0   1789.7  2045997.6 -0.1  2 0  611 1126  553
[01]  12(G13)  f 45  7  0   -340.0  2046000.4  0.0  2 0 2023 3330 1820
[02]  16(G17)  f 46  9  0  -2333.3  2046003.0  0.0  2 0 3141 4445 1900
[03]  18(G19)  f 44  7  0  -3551.9  2046004.5  0.0  2 0 1416 2101 1524
[04]  27(G28)  f 40  7  0  -2830.2  2046003.6 -0.1  2 0 1117 1503  692
[05]  29(G30)  f 44  7  0   -167.7  2046000.2  0.0  2 0 1944 3010 1437
[06]  03(G04)  f 40 17  0    997.6  2045998.7 -0.1  2 0  611  899  760
[16]  38(B02) 1f 36 24  0  -1091.6  4092002.7 -0.3  2 0  527  725  241
[17]  41(B05)  7 10 31  1  -2004.8  4092005.3  0.1  2 0  358  157   96
[18]  49(B13) 1f 42 11  0  -1749.6  4092004.5  0.0  2 0 1845 1931  649
[19]  65(B29) 1f 44  7  0  -2067.5  4092005.3 -0.0  2 0 2168 2705 1438
[32]  79(N-2)  f 31 18  0  -2605.1  1022001.5 -0.0  5 0   533  231  168
[33]  86(N05)  f 41  7  0  -2168.0  1022001.3  0.0  2 0   870 1158  979
[48]  38(B02)  1 16 18  1   -435.6 20460021.3  0.1  1 0  218  275  316
[50]  49(B13)  1  7  8  0  -1153.0 20460030.0  0.1  1 0  670  205   62
[51]  65(B29)  1  7  7  0  -1922.8 20460034.4  0.0  1 0  508  298   53
$GNGGA,093653.026,,,,,0,00,,,M,,,,0000*25
$GNRMC,093653.026,A,,,,,,,030419,,*27
$GPGSA,A,1,,,,,,,,,,,,,,,*1E
$BDGSA,A,1,,,,,,,,,,,,,,,*0F
$GLGSA,A,1,,,,,,,,,,,,,,,*02
$GPGSV,2,1,07,07,00,000,38,13,00,000,45,17,00,000,46,19,00,000,44*7E
$GPGSV,2,2,07,28,00,000,40,30,00,000,44,04,00,000,40*43
$BDGSV,1,1,03,02,00,000,36,13,00,000,42,29,00,000,44*53
$B3CN0,0,0,0,0,0,0,0,0,0,0,0,0,0,0*4C
---00000027--- Acq_st=3 0  2000-1-1 0:6:46 
[00]  06(G07)  f 38  7  0   1793.9  2045997.6  0.1  2 0 1131 1327  364
[01]  12(G13)  f 45  7  0   -340.7  2046000.4 -0.0  2 0 2363 3472 1349
[02]  16(G17)  f 46  7  0  -2333.8  2046003.0 -0.0  2 0 2846 4587 2500
[03]  18(G19)  f 42  7  0  -3553.4  2046004.6 -0.0  2 0 1980 2371 1141
[04]  27(G28)  f 40  7  0  -2831.4  2046003.6 -0.0  2 0 1173 1696  815
[05]  29(G30)  f 44  8  0   -171.0  2046000.2  0.0  2 0 1710 2992 1326
[06]  03(G04)  f 40 17  0    992.1  2045998.6  0.0  2 0 1188 1851 1201
[16]  38(B02) 1f 36 24  0  -1094.3  4092002.8  0.3  2 0  557  640  446
[17]  41(B05)  7 16 30  1  -1971.0  4092005.2 -0.0  2 0  467   75  506
[18]  49(B13) 1f 42  8  0  -1753.0  4092004.5  0.0  2 0 1445 1994  767
[19]  65(B29) 1f 44  7  0  -2069.0  4092005.3  0.0  2 0 2346 2346  684
[32]  79(N-2)  f 32 15  0  -2606.4  1022001.5 -0.0  5 0   512  432   82
[33]  86(N05)  f 41  7  0  -2169.0  1022001.4 -0.1  2 0   450 1081  866
[48]  38(B02)  1 21 36  1   -886.9 20460019.4 -0.0  1 0  215  187   98
[50]  49(B13)  1  7  7  0  -1069.6 20460027.9  0.2  1 0  218  637  435
[51]  65(B29)  1  7  7  0  -2133.5 20460032.8  0.0  1 0  248  288  504
$GNGGA,093654.026,,,,,0,00,,,M,,,,0000*22
$GNRMC,093654.026,A,,,,,,,030419,,*20
$GPGSA,A,1,,,,,,,,,,,,,,,*1E
$BDGSA,A,1,,,,,,,,,,,,,,,*0F
$GLGSA,A,1,,,,,,,,,,,,,,,*02
$GPGSV,2,1,07,07,00,000,38,13,00,000,45,17,00,000,46,19,00,000,42*78
$GPGSV,2,2,07,28,00,000,40,30,00,000,44,04,00,000,40*43
$BDGSV,1,1,04,02,00,000,36,05,00,000,18,13,00,000,42,29,00,000,44*68
$B3CN0,0,0,0,0,0,0,0,0,0,0,0,0,0,0*4C
---00000028--- Acq_st=7 0  2000-1-1 0:6:47 
[00]  06(G07)  f 39  7  0   1776.5  2045997.6  0.1  2 0 1228 1722  635
[01]  12(G13)  f 45  7  0   -344.5  2046000.4  0.0  2 0 1587 2899 1398
[02]  16(G17)  f 46  7  0  -2340.4  2046003.0  0.0  2 0 3379 4568 2255
[03]  18(G19)  f 42  7  0  -3557.8  2046004.6 -0.0  2 0 1803 2256  861
[04]  27(G28)  f 40  7  0  -2835.7  2046003.6 -0.0  2 0 1584 1581  315
[05]  29(G30)  f 45  9  0   -176.1  2046000.2 -0.0  2 0 1941 3074 1384
[06]  03(G04)  f 40 16  0    986.6  2045998.7  0.0  2 0 1062 1696  929
[16]  38(B02) 1f 36 24  0  -1103.0  4092002.6 -0.5  2 0  173  313  198
[17]  41(B05)  7 19 30  1  -2005.2  4092005.2  0.1  2 0  522  220  417
[18]  49(B13) 1f 42  7  0  -1757.0  4092004.5 -0.0  2 0 1291 1839  951
[19]  65(B29) 1f 44  7  0  -2073.0  4092005.3 -0.0  2 0 2226 2928 1576
[32]  79(N-2)  f 33 19  0  -2611.5  1022001.7  0.0  5 0    84  388  139
[33]  86(N05)  f 40  7  0  -2173.0  1022001.4  0.1  2 0   361 1181  455
[48]  38(B02)  1 18 10  0   -739.1 20460017.6  0.0  1 0  737   61  424
$GNGGA,093655.026,,,,,0,00,,,M,,,,0000*23
$GNRMC,093655.026,A,,,,,,,030419,,*21
$GPGSA,A,1,,,,,,,,,,,,,,,*1E
$BDGSA,A,1,,,,,,,,,,,,,,,*0F
$GLGSA,A,1,,,,,,,,,,,,,,,*02
$GPGSV,2,1,07,07,00,000,39,13,00,000,45,17,00,000,46,19,00,000,42*79
$GPGSV,2,2,07,28,00,000,40,30,00,000,45,04,00,000,40*42
$BDGSV,1,1,04,02,00,000,36,05,00,000,19,13,00,000,42,29,00,000,44*69
$B3CN0,0,0,0,0,0,0,0,0,0,0,0,0,0,0*4C
---00000029--- Acq_st=3 0  2000-1-1 0:6:48 
[00]  06(G07)  f 40  7  0   1783.4  2045997.6  0.1  2 0 1268 1664  356
[01]  12(G13)  f 45  7  0   -344.0  2046000.4 -0.0  2 0 1601 2930 1291
[02]  16(G17)  f 46  7  0  -2339.2  2046003.0 -0.0  2 0 3047 4489 2510
[03]  18(G19)  f 42  9  0  -3559.8  2046004.5 -0.0  2 0 1998 2271  718
[04]  27(G28)  f 40  7  0  -2836.0  2046003.7  0.0  2 0  973 1566  973
[05]  29(G30)  f 45  7  0   -173.3  2046000.1  0.0  2 0 2383 3342  924
[06]  03(G04)  f 40 16  0    990.3  2045998.7  0.1  2 0  984 1724  894
[16]  38(B02) 1f 37 22  0  -1106.9  4092002.7 -0.6  2 0  582  777  438
[17]  41(B05)  7 18 31  1  -2015.5  4092005.2 -0.2  2 0  360  308   66
[18]  49(B13) 1f 42  7  0  -1753.8  4092004.5  0.0  2 0 1353 1615  714
[19]  65(B29) 1f 43  7  0  -2072.1  4092005.3 -0.0  2 0 2254 2821 1166
[32]  79(N-2)  f 33 20  0  -2611.5  1022001.6 -0.0  5 0   271  386   60
[33]  86(N05)  f 40  7  0  -2171.7  1022001.4 -0.2  2 0   591 1022  722
[48]  38(B02)  1 10 21  0   -986.4 20460023.8 -0.1  1 0  154  203  584
[50]  49(B13)  1  7  7  0  -1448.4 20460026.6  0.1  1 0  375  347  414
[51]  65(B29)  1  7  7  0  -1457.0 20460034.3  0.1  1 0  157  653  140
$GNGGA,093656.026,,,,,0,00,,,M,,,,0000*20
$GNRMC,093656.026,A,,,,,,,030419,,*22
$GPGSA,A,1,,,,,,,,,,,,,,,*1E
$BDGSA,A,1,,,,,,,,,,,,,,,*0F
$GLGSA,A,1,,,,,,,,,,,,,,,*02
$GPGSV,2,1,07,07,00,000,40,13,00,000,45,17,00,000,46,19,00,000,42*77
$GPGSV,2,2,07,28,00,000,40,30,00,000,45,04,00,000,40*42
$BDGSV,1,1,04,02,00,000,37,05,00,000,18,13,00,000,42,29,00,000,43*6E
$B3CN0,0,0,0,0,0,0,0,0,0,0,0,0,0,0*4C
---00000030--- Acq_st=3 0  2000-1-1 0:6:49 
[00]  06(G07)  f 41  7  0   1789.2  2045997.6  0.1  2 0 1004 1464  875
[01]  12(G13)  f 44  7  0   -334.5  2046000.4 -0.0  2 0 2404 3204 1530
[02]  16(G17)  f 46  7  0  -2328.0  2046002.9  0.1  2 0 3951 5145 2303
[03]  18(G19)  f 42  9  0  -3547.3  2046004.5  0.0  2 0 1569 2038 1016
[04]  27(G28)  f 41  7  0  -2825.8  2046003.6 -0.0  2 0 1010 1259  153
[05]  29(G30)  f 45  7  0   -165.9  2046000.1  0.0  2 0 2481 3592 1853
[06]  03(G04)  f 40 16  0    998.4  2045998.6 -0.0  2 0 1248 1351  880
[16]  38(B02) 1f 37 25  0  -1089.2  4092002.7 -0.9  2 0  966  826  260
[17]  41(B05)  7 25 29  1  -1980.0  4092005.4  0.0  2 0  201  280  182
[18]  49(B13) 1f 42  7  0  -1747.6  4092004.5  0.0  2 0 1205 1468  675
[19]  65(B29) 1f 43  7  0  -2062.3  4092005.3  0.0  2 0 2303 2444 1275
[32]  79(N-2)  f 33 13  0  -2600.1  1022001.6 -0.1  5 0   439  260  142
[33]  86(N05)  f 39  7  0  -2164.7  1022001.3 -0.5  2 0   520  554   98
[50]  49(B13)  1  7  7  0  -1380.6 20460029.6  0.1  1 0  328  633  424
[51]  65(B29)  1  7  7  0  -1794.2 20460034.6  0.1  1 0  523   96  198
$GNGGA,093657.026,,,,,0,00,,,M,,,,0000*21
$GNRMC,093657.026,A,,,,,,,030419,,*23
$GPGSA,A,1,,,,,,,,,,,,,,,*1E
$BDGSA,A,1,,,,,,,,,,,,,,,*0F
$GLGSA,A,1,,,,,,,,,,,,,,,*02
$GPGSV,2,1,07,07,00,000,41,13,00,000,44,17,00,000,46,19,00,000,42*77
$GPGSV,2,2,07,28,00,000,41,30,00,000,45,04,00,000,40*43
$BDGSV,1,1,04,02,00,000,37,05,00,000,26,13,00,000,42,29,00,000,43*63
$B3CN0,0,0,0,0,0,0,0,0,0,0,0,0,0,0*4C
---00000031--- Acq_st=3 0  2000-1-1 0:6:50 
[00]  06(G07)  f 41  7  0   1788.8  2045997.6 -0.0  2 0 1466 2074 1103
[01]  12(G13)  f 45  7  0   -336.0  2046000.4 -0.0  2 0 2394 3320 1405
[02]  16(G17)  f 46 10  0  -2335.5  2046003.0 -0.0  2 0 3564 5085 2618
[03]  18(G19)  f 42  7  0  -3555.6  2046004.6 -0.0  2 0  966 1721  566
[04]  27(G28)  f 41  7  0  -2830.0  2046003.6 -0.1  2 0  755 1266  607
[05]  29(G30)  f 45  7  0   -171.1  2046000.1 -0.0  2 0 2197 3477 1402
[06]  03(G04)  f 39 18  0    992.9  2045998.7  0.0  2 0  406 1276  777
[16]  38(B02) 1f 37 23  0  -1104.5  4092002.7 -0.3  2 0 1002 1039  309
[17]  41(B05)  7 13 30  1  -1976.2  4092005.1 -0.0  2 0  354  444  356
[18]  49(B13) 1f 42  7  0  -1753.0  4092004.5  0.0  2 0 1259 1370  632
[19]  65(B29) 1f 44  7  0  -2067.8  4092005.3 -0.0  2 0 1850 2605 1459
[32]  79(N-2)  f 33 17  0  -2604.6  1022001.6  0.1  5 0   108  331  299
[33]  86(N05)  f 38  7  0  -2169.1  1022001.5 -0.1  2 0   547 1133  615
[48]  38(B02)  1 10 10  1   -676.3 20460015.6  0.0  1 0  622  185  193
[50]  49(B13)  1  7  7  0  -1480.4 20460030.0  0.1  1 0  368  194  602
[51]  65(B29)  1  7 10  0  -1511.3 20460033.7 -0.1  1 0  227  214  670
$GNGGA,093658.026,,,,,0,00,,,M,,,,0000*2E
$GNRMC,093658.026,A,,,,,,,030419,,*2C
$GPGSA,A,1,,,,,,,,,,,,,,,*1E
$BDGSA,A,1,,,,,,,,,,,,,,,*0F
$GLGSA,A,1,,,,,,,,,,,,,,,*02
$GPGSV,2,1,07,07,00,000,41,13,00,000,45,17,00,000,46,19,00,000,42*76
$GPGSV,2,2,07,28,00,000,41,30,00,000,45,04,00,000,39*4D
$BDGSV,1,1,04,02,00,000,37,05,00,000,16,13,00,000,42,29,00,000,44*67
$B3CN0,0,0,0,0,0,0,0,0,0,0,0,0,0,0*4C
---00000032--- Acq_st=3 0  2000-1-1 0:6:51 
[00]  06(G07)  f 42  7  0   1787.3  2045997.6  0.0  2 0  852 1177  598
[01]  12(G13)  f 45  7  0   -339.5  2046000.4 -0.0  2 0 1911 2827 1253
[02]  16(G17)  f 46  7  0  -2336.4  2046003.0  0.0  2 0 3105 5068 2460
[03]  18(G19)  f 41  7  0  -3552.5  2046004.5 -0.1  2 0  812 1440  474
[04]  27(G28)  f 42  7  0  -2829.5  2046003.6  0.1  2 0 2346 2742  991
[05]  29(G30)  f 45  7  0   -170.7  2046000.2  0.0  2 0 2386 2975 1447
[06]  03(G04)  f 38 15  0    988.8  2045998.7 -0.1  2 0  941 1267  874
[16]  38(B02) 1f 37 26  0  -1094.1  4092002.6 -0.7  2 0  647  870  272
[17]  41(B05)  7 18 31  1  -1999.8  4092005.4 -0.0  2 0  556  457  319
[18]  49(B13) 1f 42  7  0  -1753.6  4092004.5  0.1  2 0 1435 1365  438
[19]  65(B29) 1f 44  7  0  -2068.5  4092005.3 -0.0  2 0 2176 2254  766
[32]  79(N-2)  f 35 15  0  -2607.0  1022001.6  0.0  2 0    68  327  426
[33]  86(N05)  f 37  7  0  -2169.3  1022001.4  0.1  2 0   451  767  377
[48]  38(B02)  1 20 10  1   -528.2 20460023.7  0.2  1 0  590  485  409
[50]  49(B13)  1  7  7  0   -945.5 20460029.2  0.0  1 0  427  410  396
[51]  65(B29)  1  7  7  0  -1790.0 20460033.4  0.0  1 0  333  572  511
$GNGGA,093659.026,,,,,0,00,,,M,,,,0000*2F
$GNRMC,093659.026,A,,,,,,,030419,,*2D
$GPGSA,A,1,,,,,,,,,,,,,,,*1E
$BDGSA,A,1,,,,,,,,,,,,,,,*0F
$GLGSA,A,1,,,,,,,,,,,,,,,*02
$GPGSV,2,1,07,07,00,000,42,13,00,000,45,17,00,000,46,19,00,000,41*76
$GPGSV,2,2,07,28,00,000,42,30,00,000,45,04,00,000,38*4F
$BDGSV,1,1,04,02,00,000,37,05,00,000,18,13,00,000,42,29,00,000,44*69
$B3CN0,0,0,0,0,0,0,0,0,0,0,0,0,0,0*4C
---00000033--- Acq_st=3 0  2000-1-1 0:6:52 
[00]  06(G07)  f 42  7  0   1781.8  2045997.6 -0.0  2 0 1540 1902 1077
[01]  12(G13)  f 44  8  0   -341.0  2046000.4  0.1  2 0 2031 3354 1515
[02]  16(G17)  f 45  7  0  -2338.7  2046003.0  0.0  2 0 3250 4500 2084
[03]  18(G19)  f 42  7  0  -3558.5  2046004.6 -0.0  2 0 1098 1951 1062
[04]  27(G28)  f 42  7  0  -2837.0  2046003.6  0.0  2 0 1580 2113  677
[05]  29(G30)  f 45  9  0   -175.9  2046000.2 -0.0  2 0 1952 3439 1546
[06]  03(G04)  f 39 16  0    983.8  2045998.6  0.0  2 0  887 1192  449
[16]  38(B02) 1f 36 21  0  -1104.4  4092002.8  0.5  2 0 1149 1448  758
[17]  41(B05)  7 10 30  1  -1992.0  4092005.5 -0.1  2 0   55  188  603
[18]  49(B13) 1f 42  7  0  -1759.2  4092004.5 -0.0  2 0 1539 1964 1002
[19]  65(B29) 1f 44  7  0  -2075.2  4092005.3  0.1  2 0 2183 2453 1237
[32]  79(N-2)  f 35 10  0  -2610.1  1022001.6 -0.0  2 0   430  409  232
[33]  86(N05)  f 37  7  0  -2176.1  1022001.3 -0.0  2 0   167  679  386
[48]  38(B02)  1 10 10  1   -120.1 20460016.2 -0.1  1 0  574  183  579
$GNGGA,093700.026,,,,,0,00,,,M,,,,0000*22
$GNRMC,093700.026,A,,,,,,,030419,,*20
$GPGSA,A,1,,,,,,,,,,,,,,,*1E
$BDGSA,A,1,,,,,,,,,,,,,,,*0F
$GLGSA,A,1,,,,,,,,,,,,,,,*02
$GPGSV,2,1,07,07,00,000,42,13,00,000,44,17,00,000,45,19,00,000,42*77
$GPGSV,2,2,07,28,00,000,42,30,00,000,45,04,00,000,39*4E
$BDGSV,1,1,03,02,00,000,36,13,00,000,42,29,00,000,44*53
$B3CN0,0,0,0,0,0,0,0,0,0,0,0,0,0,0*4C
---00000034--- Acq_st=3 0  2000-1-1 0:6:53 
[00]  06(G07)  f 42  7  0   1786.8  2045997.6  0.1  2 0  310 1217  995
[01]  12(G13)  f 44  7  0   -341.1  2046000.4 -0.0  2 0 2099 3076 1573
[02]  16(G17)  f 45  7  0  -2336.2  2046003.0  0.0  2 0 3043 4532 2050
[03]  18(G19)  f 42  7  0  -3557.6  2046004.5  0.1  2 0 1196 1753  420
[04]  27(G28)  f 41  7  0  -2830.3  2046003.6  0.1  2 0  866 1302  839
[05]  29(G30)  f 45  7  0   -172.4  2046000.2  0.0  2 0 2392 3843 1784
[06]  03(G04)  f 39 18  0    984.9  2045998.7  0.2  2 0  376 1194  756
[16]  38(B02) 1f 37 24  0  -1096.4  4092002.6 -0.7  2 0  416  751  703
[17]  41(B05)  7 14 30  1  -2000.9  4092005.3  0.1  2 0  491  122   60
[18]  49(B13) 1f 43  7  0  -1753.9  4092004.5  0.0  2 0 1546 1890  696
[19]  65(B29) 1f 44  8  0  -2071.9  4092005.3 -0.1  2 0 2349 2394 1510
[32]  79(N-2)  f 35 18  0  -2608.9  1022001.6  0.0  2 0   222  466  332
[33]  86(N05)  f 36  7  0  -2172.3  1022001.4 -0.0  2 0   448  579  217
[48]  38(B02)  1 18 23  0    221.3 20460019.9 -0.0  1 0  345  529  181
[50]  49(B13)  1  7  7  0  -1286.1 20460028.6  0.1  1 0  258  391   57
[51]  65(B29)  1  7  8  0  -1571.9 20460033.1 -0.1  1 0  276  207  142
$GNGGA,093700.901,2944.9082,N,10633.0621,E,1,06,2.3,327.7,M,,,,0000*18
$GNRMC,093700.901,A,2944.9082,N,10633.0621,E,1.05,0.00,030419,,*19
$GPGSA,A,3,07,13,17,19,28,30,,,,,,,3.3,2.3,2.4*37
$BDGSA,A,3,,,,,,,,,,,,,3.3,2.3,2.4*24
$GLGSA,A,3,,,,,,,,,,,,,3.3,2.3,2.4*29
$GPGSV,2,1,07,07,00,000,42,13,00,000,44,17,00,000,45,19,00,000,42*77
$GPGSV,2,2,07,28,00,000,41,30,00,000,45,04,00,000,39*4D
$BDGSV,1,1,04,02,00,000,37,05,00,000,16,13,00,000,43,29,00,000,44*66
$B3CN0,0,0,0,0,0,0,0,0,0,0,0,0,0,0*4C
---00000035--- Acq_st=3 0  2019-4-3 9:37:1 
[00]  06(G07)  f 41 12  0   1779.8  2045997.7 -0.1  2 0  551  889  529
[01]  12(G13)  f 44 10  0   -338.1  2046000.4  0.0  2 0 1794 2907 1101
[02]  16(G17)  f 45  7  0  -2335.9  2046003.0  0.0  2 0 3264 4689 2112
[03]  18(G19)  f 42  7  0  -3557.5  2046004.5 -0.0  2 0 1060 1850  948
[04]  27(G28)  f 41  7  0  -2834.0  2046003.6 -0.0  2 0  967 1600  735
[05]  29(G30)  f 45  8  0   -170.1  2046000.1 -0.0  2 0 1991 3465 1517
[06]  03(G04)  f 40 16  0    988.7  2045998.7 -0.1  2 0 1116 1753  910
[16]  38(B02) 1f 37 27  0  -1100.6  4092002.9 -0.4  2 0  533  628  449
[17]  41(B05)  7 14 32  1  -2004.3  4092005.4  0.1  2 0  614  454  588
[18]  49(B13) 1f 42 10  0  -1756.6  4092004.4 -0.1  2 0 1100 1360  577
[19]  65(B29) 1f 44  7  0  -2068.3  4092005.3  0.0  2 0 1579 2355 1007
[32]  79(N-2)  f 34 13  0  -2605.1  1022001.6 -0.1  2 0   243  302   53
[33]  86(N05)  f 35  7  0  -2171.4  1022001.4  0.0  2 0   161  328  234
[50]  49(B13)  1  7  7  0   -435.7 20460027.4  0.0  1 0   55  433  310
[51]  65(B29)  1  7  7  0  -1039.4 20460033.7 -0.2  1 0  757  332  141
Refix G07: 2, 293839.928113, 1785
Refix G13: 2, 293839.916265, -341
Refix G17: 2, 293839.925171, -2337
Refix G19: 2, 293839.919439, -3556
Refix G28: 2, 293839.927579, -2835
Refix G30: 2, 293839.931065, -171
$GNGGA,093702.000,2944.9082,N,10633.0652,E,1,06,2.3,323.9,M,,,,0000*1C
$GNRMC,093702.000,A,2944.9082,N,10633.0652,E,1.43,0.00,030419,,*15
$GPGSA,A,3,07,13,17,19,28,30,,,,,,,3.3,2.3,2.4*37
$BDGSA,A,3,,,,,,,,,,,,,3.3,2.3,2.4*24
$GLGSA,A,3,,,,,,,,,,,,,3.3,2.3,2.4*29
$GPGSV,2,1,07,07,00,000,41,13,00,000,44,17,00,000,45,19,00,000,42*74
$GPGSV,2,2,07,28,00,000,41,30,00,000,45,04,00,000,40*43
$BDGSV,1,1,03,02,00,000,37,13,00,000,42,29,00,000,44*52
$B3CN0,0,0,0,0,0,0,0,0,0,0,0,0,0,0*4C
---00000036--- Acq_st=7 0  2019-4-3 9:37:2 
[00]  06(G07)  f 40  7  0   1782.0  2045997.7  0.1  2 0  849 1387  744
[01]  12(G13)  f 44  7  0   -343.3  2046000.4 -0.0  2 0 1678 2650 1301
[02]  16(G17)  f 45  8  0  -2340.3  2046003.0 -0.0  2 0 3147 4649 2349
[03]  18(G19)  f 43  7  0  -3558.7  2046004.6 -0.1  2 0 1911 2414 1235
[04]  27(G28)  f 40  7  0  -2834.5  2046003.7 -0.0  2 0  860 1545 1025
[05]  29(G30)  f 45  7  0   -173.6  2046000.2 -0.0  2 0 2282 3477 1775
[06]  03(G04)  f 40 16  0    985.9  2045998.7  0.0  2 0  609 1065  689
[16]  38(B02) 1f 38 23  0  -1102.2  4092002.7 -0.6  2 0  953 1060  121
[17]  41(B05)  7 10 29  1  -2001.7  4092005.3 -0.1  2 0  471  485  325
[18]  49(B13) 1f 42  7  0  -1758.7  4092004.5 -0.0  2 0 1298 2101 1084
[19]  65(B29) 1f 44  7  0  -2073.4  4092005.3  0.0  2 0 1993 2881 1744
[32]  79(N-2) 8f 34 19  0  -2611.9  1022001.7 -0.1  2 0   393  432  197
[33]  86(N05) 8f 35  7  0  -2174.1  1022001.4  0.0  2 0   378  677  438
[48]  38(B02)  1 36 10  0  -1087.0 20460017.6  0.1  1 0  629  656  453
[50]  49(B13)  1  7  7  0  -1334.4 20460027.7  0.2  1 0  543  150  637
[51]  65(B29)  1  9  7  0   -716.3 20460033.1  0.1  1 0  147  216  890
Refix G07: 2, 293840.928112, 1783
Refix G13: 2, 293840.916265, -342
Refix G17: 2, 293840.925173, -2338
Refix G19: 2, 293840.919441, -3558
Refix G28: 2, 293840.927581, -2836
Refix G30: 2, 293840.931065, -173
$GNGGA,093703.000,2944.9087,N,10633.0667,E,1,06,2.3,323.0,M,,,,0000*17
$GNRMC,093703.000,A,2944.9087,N,10633.0667,E,1.10,0.00,030419,,*11
$GPGSA,A,3,07,13,17,19,28,30,,,,,,,3.3,2.3,2.4*37
$BDGSA,A,3,,,,,,,,,,,,,3.3,2.3,2.4*24
$GLGSA,A,3,,,,,,,,,,,,,3.3,2.3,2.4*29
$GPGSV,2,1,07,07,42,182,40,13,06,290,44,17,37,274,45,19,15,257,43*75
$GPGSV,2,2,07,28,49,332,40,30,62,235,45,04,00,000,40*4D
$BDGSV,1,1,03,02,46,219,38,13,00,000,42,29,00,000,44*55
$B3CN0,0,0,0,0,0,0,0,0,0,0,0,0,0,0*4C
---00000037--- Acq_st=7 0  2019-4-3 9:37:3 
[00]  06(G07)  f 40  7  0   1790.9  2045997.7  0.1  2 0  463 1051  633
[01]  12(G13)  f 45  7  0   -333.0  2046000.4  0.0  2 0 1938 2871 1258
[02]  16(G17)  f 46  7  0  -2331.3  2046003.0 -0.0  2 0 3286 4717 1957
[03]  18(G19)  f 43  7  0  -3553.2  2046004.6  0.0  2 0 1817 2599 1170
[04]  27(G28)  f 40  7  0  -2834.3  2046003.7 -0.3  2 0  419 1205  668
[05]  29(G30)  f 45  7  0   -165.7  2046000.1 -0.0  2 0 2408 3601 2068
[06]  03(G04)  f 40 16  0    990.7  2045998.7  0.1  2 0  759 1375 1007
[16]  38(B02) 1f 36 27  0  -1099.9  4092002.8  0.8  2 0 1056 1175  443
[17]  41(B05)  7 23 30  1  -1997.1  4092005.3 -0.2  2 0  339  139  274
[18]  49(B13) 1f 43  8  0  -1752.2  4092004.5  0.1  2 0 1212 1425  763
[19]  65(B29) 1f 44  7  0  -2066.8  4092005.3 -0.0  2 0 1542 1919  411
[32]  79(N-2) 8f 33 15  0  -2602.6  1022001.6 -0.1  2 0    78  570  300
[33]  86(N05) 8f 34  7  0  -2170.5  1022001.3 -0.0  2 0   379  265  310
[48]  38(B02)  1 16 18  0  -1182.8 20460018.2 -0.1  1 0  361  348  363
[50]  49(B13)  1  7  7  0  -1549.0 20460028.7 -0.0  1 0  111  288  316
[51]  65(B29)  1  7  7  0   -726.0 20460034.3  0.0  1 0  423  302  275
Refix G07: 2, 293841.928111, 1790
Refix G13: 2, 293841.916265, -335
Refix G17: 2, 293841.925174, -2330
Refix G19: 2, 293841.919444, -3550
Refix G28: 2, 293841.927583, -2829
Refix G30: 2, 293841.931065, -164
$GNGGA,093704.000,2944.9090,N,10633.0676,E,1,06,2.3,322.3,M,,,,0000*14
$GNRMC,093704.000,A,2944.9090,N,10633.0676,E,2.62,465.21,030419,,*12
$GPGSA,A,3,07,13,17,19,28,30,,,,,,,3.3,2.3,2.4*37
$BDGSA,A,3,,,,,,,,,,,,,3.3,2.3,2.4*24
$GLGSA,A,3,,,,,,,,,,,,,3.3,2.3,2.4*29
$GPGSV,2,1,07,07,42,182,40,13,06,290,45,17,37,274,46,19,15,257,43*77
$GPGSV,2,2,07,28,49,332,40,30,62,235,45,04,00,000,40*4D
$BDGSV,1,1,04,02,46,219,36,05,00,000,23,13,00,000,43,29,00,000,44*69
$B3CN0,0,0,0,0,0,0,0,0,0,0,0,0,0,0*4C
---00000038--- Acq_st=3 0  2019-4-3 9:37:4 
[00]  06(G07)  f 38 11  0   1800.6  2045997.7 -0.3  2 0  444 1143  844
[01]  12(G13)  f 44  7  0   -328.7  2046000.4 -0.1  2 0 1647 2852 1461
[02]  16(G17)  f 45  7  0  -2323.5  2046003.0  0.1  2 0 2606 4419 2702
[03]  18(G19)  f 42  7  0  -3543.0  2046004.5  0.0  2 0 1529 2225 1286
[04]  27(G28)  f 39  9  0  -2820.4  2046003.6 -0.1  2 0  943 1506 1093
[05]  29(G30)  f 45  7  0   -156.9  2046000.1 -0.0  2 0 2932 4226 2006
[06]  03(G04)  f 40 15  0    999.4  2045998.6 -0.1  2 0  334  772  429
[08]  08(G09)  1  7  7  0   -750.0  2046000.7 -0.0  1 0  234  380  405
[16]  38(B02) 1f 36 23  0  -1086.5  4092002.7 -0.6  2 0  306  321  421
[17]  41(B05)  7 20 32  1  -2006.5  4092005.2  0.1  2 0  363  223  204
[18]  49(B13) 1f 42  7  0  -1741.9  4092004.4  0.0  2 0 1706 2244  642
[19]  65(B29) 1f 44  7  0  -2056.5  4092005.3 -0.0  2 0 1349 2832 1436
[32]  79(N-2) 8f 33 11  0  -2591.1  1022001.6  0.1  2 0   389  446   82
[33]  86(N05) 8f 34  7  0  -2159.7  1022001.3 -0.1  2 0   287  279  324
[48]  38(B02)  1 10 36  1   -998.7 20460018.6 -0.1  1 0  218   77  280
Refix G07: 2, 293842.928110, 1794
Refix G13: 2, 293842.916266, -329
Refix G17: 2, 293842.925176, -2324
Refix G19: 2, 293842.919446, -3544
Refix G28: 2, 293842.927585, -2824
Refix G30: 2, 293842.931065, -158
$GNGGA,093705.000,2944.9094,N,10633.0687,E,1,06,2.3,321.5,M,,,,0000*1A
$GNRMC,093705.000,A,2944.9094,N,10633.0687,E,3.37,88.07,030419,,*2B
$GPGSA,A,3,07,13,17,19,28,30,,,,,,,3.3,2.3,2.4*37
$BDGSA,A,3,,,,,,,,,,,,,3.3,2.3,2.4*24
$GLGSA,A,3,,,,,,,,,,,,,3.3,2.3,2.4*29
$GPGSV,2,1,07,07,42,182,38,13,06,290,44,17,37,274,45,19,15,257,42*7B
$GPGSV,2,2,07,28,49,332,39,30,62,235,45,04,00,000,40*43
$BDGSV,1,1,04,02,46,219,36,05,00,000,19,13,00,000,42,29,00,000,44*61
$B3CN0,0,0,0,0,0,0,0,0,0,0,0,0,0,0*4C
---00000039--- Acq_st=3 0  2019-4-3 9:37:5 
[00]  06(G07)  f 36  7  0   1790.1  2045997.8 -0.1  2 0  236  958  636
[01]  12(G13)  f 44 13  0   -337.7  2046000.4  0.0  2 0 1780 3220 2001
[02]  16(G17)  f 45 10  0  -2332.4  2046003.0 -0.0  2 0 3102 4762 2373
[03]  18(G19)  f 44 12  0  -3553.1  2046004.5 -0.0  2 0 1906 2301 1107
[04]  27(G28)  f 39 11  0  -2831.0  2046003.6 -0.0  2 0  820 1425  673
[05]  29(G30)  f 44  7  0   -166.1  2046000.1 -0.0  2 0 2516 3592 1549
[06]  03(G04)  f 40 18  0    989.2  2045998.7 -0.1  2 0  739 1302  980
[08]  08(G09)  1  7  7  0   -919.2  2046000.7 -0.1  1 0  168  373   89
[16]  38(B02) 1f 36 25  0  -1098.9  4092002.7  0.6  2 0  656 1010  738
[17]  41(B05)  7 19 30  1  -1996.0  4092005.5  0.1  2 0  435  544  261
[18]  49(B13) 1f 42  7  0  -1754.8  4092004.5 -0.1  2 0 1587 2369  962
[19]  65(B29) 1f 43  7  0  -2069.8  4092005.3  0.0  2 0 1342 1965  543
[32]  79(N-2) 8f 32 12  0  -2601.7  1022001.6 -0.0  5 0   203  436  177
[33]  86(N05) 8f 35  7  0  -2169.2  1022001.3  0.1  2 0   334  206   66
[48]  38(B02)  1 10 10  1  -1117.7 20460022.4 -0.2  1 0  425  551  328
[50]  49(B13)  1  7  7  0  -1031.7 20460028.6  0.1  1 0  357  588  156
[51]  65(B29)  1  7  7  0  -1289.4 20460032.6 -0.1  1 0  409  229  332
Refix G07: 2, 293843.928109, 1789
Refix G13: 2, 293843.916266, -335
Refix G17: 2, 293843.925177, -2331
Refix G19: 2, 293843.919448, -3552
Refix G28: 2, 293843.927586, -2829
Refix G30: 2, 293843.931065, -164
$GNGGA,093706.000,2944.9094,N,10633.0697,E,1,06,2.3,320.3,M,,,,0000*1F
$GNRMC,093706.000,A,2944.9094,N,10633.0697,E,1.56,88.07,030419,,*2C
$GPGSA,A,3,07,13,17,19,28,30,,,,,,,3.3,2.3,2.4*37
$BDGSA,A,3,,,,,,,,,,,,,3.3,2.3,2.4*24
$GLGSA,A,3,,,,,,,,,,,,,3.3,2.3,2.4*29
$GPGSV,2,1,07,07,42,182,36,13,06,290,44,17,37,274,45,19,15,257,44*73
$GPGSV,2,2,07,28,49,332,39,30,62,235,44,04,00,000,40*42
$BDGSV,1,1,04,02,46,219,36,05,00,000,20,13,00,000,42,29,00,000,43*6C
$B3CN0,0,0,0,0,0,0,0,0,0,0,0,0,0,0*4C
---00000040--- Acq_st=3 0  2019-4-3 9:37:6 
[00]  06(G07)  f 35  7  0   1789.3  2045997.7  0.0  2 0   30  523  354
[01]  12(G13)  f 44  7  0   -336.8  2046000.4  0.0  2 0 1674 3495 1883
[02]  16(G17)  f 45  7  0  -2333.5  2046003.0  0.0  2 0 3099 4476 2470
[03]  18(G19)  f 44  7  0  -3552.5  2046004.5  0.1  2 0 2089 2846 1244
[04]  27(G28)  f 39  7  0  -2831.5  2046003.6 -0.1  2 0  825 1212  817
[05]  29(G30)  f 45  7  0   -166.5  2046000.1  0.0  2 0 2865 3892 1581
[06]  03(G04)  f 41 17  0    988.0  2045998.7  0.1  2 0 1280 1833 1025
[08]  08(G09)  1  7  7  0   -610.1  2046001.0  0.1  1 0  275  429  430
[16]  38(B02) 1f 37 24  0  -1096.3  4092002.7  0.9  2 0  952 1073  487
[17]  41(B05)  7 22 31  1  -2012.4  4092005.2  0.0  2 0   69  448  665
[18]  49(B13) 1f 42  7  0  -1750.4  4092004.5 -0.1  2 0 1235 1739  813
[19]  65(B29) 1f 43  7  0  -2066.6  4092005.3 -0.0  2 0 1082 1676  787
[32]  79(N-2) 8f 33 11  0  -2601.5  1022001.6  0.1  5 0   621  429  315
[33]  86(N05) 8f 36  7  0  -2169.5  1022001.4  0.2  2 0   492  623  390
[50]  49(B13)  1  8  7  0  -1273.1 20460027.7  0.1  1 0  369  176  636
[51]  65(B29)  1 12  7  0  -1438.9 20460033.3 -0.0  1 0  599  408  623
Refix G07: 2, 293844.928108, 1789
Refix G13: 2, 293844.916266, -334
Refix G17: 2, 293844.925178, -2331
Refix G19: 2, 293844.919450, -3551
Refix G28: 2, 293844.927588, -2829
Refix G30: 2, 293844.931066, -165
$GNGGA,093707.000,2944.9094,N,10633.0705,E,1,06,2.3,319.7,M,,,,0000*1A
$GNRMC,093707.000,A,2944.9094,N,10633.0705,E,1.65,88.07,030419,,*27
$GPGSA,A,3,07,13,17,19,28,30,,,,,,,3.3,2.3,2.4*37
$BDGSA,A,3,,,,,,,,,,,,,3.3,2.3,2.4*24
$GLGSA,A,3,,,,,,,,,,,,,3.3,2.3,2.4*29
$GPGSV,2,1,07,07,42,182,35,13,06,290,44,17,37,274,45,19,15,257,44*70
$GPGSV,2,2,07,28,49,332,39,30,62,235,45,04,00,000,41*42
$BDGSV,1,1,04,02,46,219,36,05,00,000,22,13,00,000,42,29,00,000,43*6E
$B3CN0,0,0,0,0,0,0,0,0,0,0,0,0,0,0*4C
---00000041--- Acq_st=3 0  2019-4-3 9:37:7 
[00]  06(G07)  f 36  7  0   1783.7  2045997.6 -0.1  2 0  660 1062  967
[01]  12(G13)  f 44  7  0   -338.5  2046000.4  0.0  2 0 1887 2868 1103
[02]  16(G17)  f 46  8  0  -2333.7  2046003.0 -0.1  2 0 2982 4439 1894
[03]  18(G19)  f 44  7  0  -3553.5  2046004.5 -0.0  2 0 2243 2945  893
[04]  27(G28)  f 39  7  0  -2833.1  2046003.6 -0.2  2 0  583  998  331
[05]  29(G30)  f 45  7  0   -163.2  2046000.1 -0.0  2 0 2947 3791 1426
[06]  03(G04)  f 41 14  0    987.6  2045998.6  0.0  2 0 1227 1514  605
[08]  08(G09)  1 17  7  0   -287.2  2046000.8 -0.0  1 0  302  400  255
[16]  38(B02) 1f 37 23  0  -1094.9  4092002.6 -0.5  2 0 1064 1057  454
[17]  41(B05)  7 23 30  1  -2000.3  4092005.3  0.1  2 0  475  192  421
[18]  49(B13) 1f 42 11  0  -1754.1  4092004.5  0.0  2 0 1427 1938  865
[19]  65(B29) 1f 43  8  0  -2070.8  4092005.3 -0.0  2 0 1493 2280 1115
[32]  79(N-2) 8f 33 14  0  -2599.7  1022001.6 -0.0  5 0   378  461  371
[33]  86(N05) 8f 37  7  0  -2167.4  1022001.3 -0.0  2 0   571  694  471
[48]  38(B02)  1 18 10  0   -785.0 20460013.2  0.0  1 0  627  651  538
[50]  49(B13)  1  7  7  0   -797.1 20460027.9 -0.1  1 0  837  591  194
[51]  65(B29)  1  7  7  0  -1426.2 20460032.5 -0.0  1 0  300  521  446
Refix G07: 2, 293845.928106, 1789
Refix G13: 2, 293845.916266, -334
Refix G17: 2, 293845.925180, -2331
Refix G19: 2, 293845.919453, -3552
Refix G28: 2, 293845.927590, -2830
Refix G30: 2, 293845.931066, -164
$GNGGA,093708.000,2944.9093,N,10633.0713,E,1,06,2.3,318.8,M,,,,0000*1B
$GNRMC,093708.000,A,2944.9093,N,10633.0713,E,1.63,88.07,030419,,*2E
$GPGSA,A,3,07,13,17,19,28,30,,,,,,,3.3,2.3,2.4*37
$BDGSA,A,3,,,,,,,,,,,,,3.3,2.3,2.4*24
$GLGSA,A,3,,,,,,,,,,,,,3.3,2.3,2.4*29
$GPGSV,2,1,07,07,42,182,36,13,06,290,44,17,37,274,46,19,15,257,44*70
$GPGSV,2,2,07,28,49,332,39,30,62,235,45,04,00,000,41*42
$BDGSV,1,1,04,02,46,219,37,05,00,000,23,13,00,000,42,29,00,000,43*6E
$B3CN0,0,0,0,0,0,0,0,0,0,0,0,0,0,0*4C
---00000042--- Acq_st=3 0  2019-4-3 9:37:8 
[00]  06(G07)  f 36  7  0   1787.0  2045997.5  0.1  2 0 1009 1243  373
[01]  12(G13)  f 44  7  0   -335.8  2046000.4  0.0  2 0 2143 2625  574
[02]  16(G17)  f 46  7  0  -2332.3  2046003.0  0.1  2 0 3120 4806 2213
[03]  18(G19)  f 44  7  0  -3552.6  2046004.5 -0.0  2 0 1948 3363 1545
[04]  27(G28)  f 39  7  0  -2831.0  2046003.6  0.3  2 0  827 1237  483
[05]  29(G30)  f 45  7  0   -164.4  2046000.2 -0.0  2 0 2286 3828 2086
[06]  03(G04)  f 40 16  0    984.1  2045998.6  0.1  2 0 1068 1871  999
[08]  08(G09)  1 21  7  0    -64.4  2046000.8  0.1  1 0  618  472  252
[16]  38(B02) 1f 37 26  0  -1097.5  4092002.9 -0.2  2 0 1152  801  228
[17]  41(B05)  7 10 28  1  -2016.8  4092005.2 -0.1  2 0  573   56  179
[18]  49(B13) 1f 42  7  0  -1754.2  4092004.5 -0.0  2 0 1229 1497  585
[19]  65(B29) 1f 43  7  0  -2065.9  4092005.4 -0.0  2 0 1813 2004  698
[32]  79(N-2) 8f 33 15  0  -2599.8  1022001.7 -0.0  5 0   402  562  490
[33]  86(N05) 8f 38  7  0  -2165.2  1022001.3 -0.0  2 0   763  919  403
[48]  38(B02)  1 10 20  0   -891.6 20460024.2  0.1  1 0  129  415  467
[50]  49(B13)  1  7  7  0   -844.3 20460028.0 -0.0  1 0  427  352  117
[51]  65(B29)  1  7  7  0  -1861.9 20460032.1 -0.1  1 0  201  149  745
Refix G07: 2, 293846.928105, 1790
Refix G13: 2, 293846.916266, -333
Refix G17: 2, 293846.925181, -2330
Refix G19: 2, 293846.919455, -3550
Refix G28: 2, 293846.927592, -2829
Refix G30: 2, 293846.931066, -163
$GNGGA,093709.000,2944.9092,N,10633.0723,E,1,06,2.3,317.8,M,,,,0000*17
$GNRMC,093709.000,A,2944.9092,N,10633.0723,E,2.04,20065.16,,,*11
$GPGSA,A,3,07,13,17,19,28,30,,,,,,,3.3,2.3,2.4*37
$BDGSA,A,3,,,,,,,,,,,,,3.3,2.3,2.4*24
$GLGSA,A,3,,,,,,,,,,,,,3.3,2.3,2.4*29
$GPGSV,2,1,07,07,42,182,36,13,06,290,44,17,37,274,46,19,15,257,44*70
$GPGSV,2,2,07,28,49,332,39,30,62,235,45,04,00,000,40*43
$BDGSV,1,1,03,02,46,219,37,13,00,000,42,29,00,000,43*5D
$B3CN0,0,0,0,0,0,0,0,0,0,0,0,0,0,0*4C
---00000043--- Acq_st=3 0  2019-4-3 9:37:9 
[00]  06(G07)  f 37  7  0   1797.4  2045997.5 -0.6  2 0  992 1242  492
[01]  12(G13)  f 44  7  0   -330.6  2046000.4 -0.0  2 0 1689 2202  975
[02]  16(G17)  f 46  7  0  -2324.0  2046002.9 -0.0  2 0 3050 4848 2408
[03]  18(G19)  f 44 12  0  -3545.2  2046004.5 -0.0  2 0 1348 2685 1624
[04]  27(G28)  f 39  7  0  -2826.4  2046003.6  0.0  2 0  856  961  620
[05]  29(G30)  f 45  7  0   -156.1  2046000.2 -0.0  2 0 2157 3321 1638
[06]  03(G04)  f 40 16  0   1000.6  2045998.6 -0.0  2 0 1216 1446  503
[16]  38(B02) 1f 37 27  0  -1093.0  4092002.9 -0.1  2 0  435  698  457
[17]  41(B05)  7 10 31  1  -2034.3  4092005.6 -0.1  2 0  206  238  350
[18]  49(B13) 1f 42 11  0  -1740.7  4092004.5 -0.0  2 0 1533 1579  236
[19]  65(B29) 1f 43  7  0  -2057.2  4092005.3  0.0  2 0 1471 1772  641
[32]  79(N-2) 8f 32  7  0  -2591.2  1022001.7 -0.1  5 0   205  309  220
[33]  86(N05) 8f 39  7  0  -2153.9  1022001.4 -0.3  2 0   359  806  634
[48]  38(B02)  1 14 13  0   -787.5 20460018.3  0.0  1 0  457  484  206
Refix G07: 2, 293847.928104, 1795
Refix G13: 2, 293847.916266, -329
Refix G17: 2, 293847.925183, -2326
Refix G19: 2, 293847.919457, -3546
Refix G28: 2, 293847.927593, -2825
Refix G30: 2, 293847.931066, -157
$GNGGA,093710.000,2944.9092,N,10633.0726,E,1,06,2.3,317.7,M,,,,0000*15
$GNRMC,093710.000,A,2944.9092,N,10633.0726,E,1.86,20065.16,,,*15
$GPGSA,A,3,07,13,17,19,28,30,,,,,,,3.3,2.3,2.4*37
$BDGSA,A,3,,,,,,,,,,,,,3.3,2.3,2.4*24
$GLGSA,A,3,,,,,,,,,,,,,3.3,2.3,2.4*29
$GPGSV,2,1,07,07,42,182,37,13,06,290,44,17,37,274,46,19,15,257,44*71
$GPGSV,2,2,07,28,49,332,39,30,62,235,45,04,00,000,40*43
$BDGSV,1,1,03,02,46,219,37,13,00,000,42,29,00,000,43*5D
$B3CN0,0,0,0,0,0,0,0,0,0,0,0,0,0,0*4C
---00000044--- Acq_st=3 0  2019-4-3 9:37:10 
[00]  06(G07)  f 38  9  0   1785.8  2045997.5  0.1  2 0  997 1510  659
[01]  12(G13)  f 44  7  0   -335.6  2046000.4  0.0  2 0 1499 2934 1861
[02]  16(G17)  f 45  8  0  -2334.4  2046003.0  0.0  2 0 3338 4449 2290
[03]  18(G19)  f 44  7  0  -3553.2  2046004.5  0.0  2 0 2294 3103 1738
