$GNGGA,000000.000,,,,,0,00,,,M,,,,0000*2B
$GNRMC,000000.000,A,,,,,,,060180,,*29
$GPGSA,A,1,,,,,,,,,,,,,,,*1E
$BDGSA,A,1,,,,,,,,,,,,,,,*0F
$GLGSA,A,1,,,,,,,,,,,,,,,*02
$B3CN0,0,0,0,0,0,0,0,0,0,0,0,0,0,0*4C
---00000003--- Acq_st=3 0  2019-4-3 9:45:13 
[00]  05(G06)  7 34  7  0  -4779.6  2046006.1  0.4  5 0  767 1070  468
[01]  06(G07)  7 33  7  0   1976.6  2045997.3  0.1  5 0 1247  856  329
[02]  12(G13)  7 26  7  0   -130.3  2046000.0  0.6 10 0 1557 1761  835
[03]  16(G17)  7 14  7  0  -2232.5  2046002.8  0.9 10 0 2715 3532 1528
[04]  18(G19)  1 36  7  0  -3464.3  2046004.2  1.0  1 0 2773 4061 1998
[05]  27(G28)  1 26  7  0  -2794.6  2046006.0  0.5  1 0  340 1566 1650
[06]  29(G30)  1 22  7  0    134.1  2046000.4  0.2  1 0 1787 3372 1632
[16]  38(B02)  1 10 10  1   -750.0  4092001.1  0.1  1 0  406  543   36
$GNGGA,000000.000,,,,,0,00,,,M,,,,0000*2B
$GNRMC,000000.000,A,,,,,,,060180,,*29
$GPGSA,A,1,,,,,,,,,,,,,,,*1E
$BDGSA,A,1,,,,,,,,,,,,,,,*0F
$GLGSA,A,1,,,,,,,,,,,,,,,*02
$GPGSV,1,1,03,06,00,000,34,07,00,000,33,13,00,000,26*4A
$B3CN0,0,0,0,0,0,0,0,0,0,0,0,0,0,0*4C
---00000004--- Acq_st=3 0  2019-4-3 9:45:14 
[00]  05(G06)  7 39  7  0  -4782.9  2046006.1 -0.1  2 0  566 1050  542
[01]  06(G07)  7 38  7  0   1980.7  2045997.3 -0.2  2 0 1020 1365  791
[02]  12(G13)  7 42  7  0   -128.2  2046000.0 -0.0  2 0 1102 1638 1014
[03]  16(G17)  7 46  7  0  -2231.3  2046002.8  0.0  2 0 2902 3714 1731
[04]  18(G19)  7 40  7  0  -3459.3  2046004.4  0.1  2 0 2956 3923 1421
[05]  27(G28)  7 24  7  0  -2788.5  2046003.5  0.8 10 0 1354 1863  383
[06]  29(G30)  7 19  7  0    140.1  2045999.7  0.8 10 0 1663 2471 1091
[16]  38(B02)  1 22 10  0   -835.6  4092001.4  0.2  1 0  225  284  187
[17]  41(B05)  1 41 18  0  -1103.7  4092003.1  1.0  1 0 1294 1481  353
$GNGGA,000000.000,,,,,0,00,,,M,,,,0000*2B
$GNRMC,000000.000,A,,,,,,,060180,,*29
$GPGSA,A,1,,,,,,,,,,,,,,,*1E
$BDGSA,A,1,,,,,,,,,,,,,,,*0F
$GLGSA,A,1,,,,,,,,,,,,,,,*02
$GPGSV,2,1,07,06,00,000,39,07,00,000,38,13,00,000,42,17,00,000,46*7D
$GPGSV,2,2,07,19,00,000,40,28,00,000,24,30,00,000,19*45
$B3CN0,0,0,0,0,0,0,0,0,0,0,0,0,0,0*4C
---00000005--- Acq_st=3 0  2019-4-3 9:45:15 
[00]  05(G06)  7 39  7  0  -4777.9  2046006.2 -0.1  2 0 1158 1241  734
[01]  06(G07)  7 39  7  0   1973.8  2045997.3  0.2  2 0  940  943  656
[02]  12(G13)  7 42  7  0   -133.3  2046000.1  0.0  2 0  990 1500  728
[03]  16(G17)  7 45  7  0  -2238.1  2046002.8 -0.0  2 0 3034 3663  864
[04]  18(G19)  7 45  7  0  -3464.5  2046004.4 -0.0  2 0 2402 3993 1955
[05]  27(G28)  7 42  7  0  -2792.9  2046003.5 -0.1  2 0 1350 1944 1269
[06]  29(G30)  7 43 12  0    132.0  2045999.8 -0.0  2 0 1265 2226  956
[16]  38(B02)  1 23 23  0  -1106.2  4092003.4 -0.1  1 0  177  364  301
[17]  41(B05)  7 41 27  0  -1109.4  4092002.7  0.6  2 0 1007 1472  543
[18]  49(B13)  1  7  7  0  -1690.4  4092005.5  0.0  1 0 1032 1875 1221
$GNGGA,000000.000,,,,,0,00,,,M,,,,0000*2B
$GNRMC,000000.000,A,,,,,,,060180,,*29
$GPGSA,A,1,,,,,,,,,,,,,,,*1E
$BDGSA,A,1,,,,,,,,,,,,,,,*0F
$GLGSA,A,1,,,,,,,,,,,,,,,*02
$GPGSV,2,1,07,06,00,000,39,07,00,000,39,13,00,000,42,17,00,000,45*7F
$GPGSV,2,2,07,19,00,000,45,28,00,000,42,30,00,000,43*4F
$BDGSV,1,1,01,05,00,000,41*59
$B3CN0,0,0,0,0,0,0,0,0,0,0,0,0,0,0*4C
---00000006--- Acq_st=3 0  2019-4-3 9:45:16 
[00]  05(G06)  7 39  7  0  -4782.9  2046006.1  0.1  2 0  513  682  362
[01]  06(G07)  7 40  7  0   1977.9  2045997.3  0.1  2 0 1185 1172  510
[02]  12(G13)  7 42  7  0   -132.7  2046000.1 -0.0  2 0 1788 2043 1025
[03]  16(G17)  7 45  7  0  -2234.2  2046002.8  0.0  2 0 2819 4169 1904
[04]  18(G19)  7 45  7  0  -3461.6  2046004.4 -0.0  2 0 2880 4093 1770
[05]  27(G28)  7 43  7  0  -2788.3  2046003.5 -0.0  2 0 2245 2126  388
[06]  29(G30)  7 43  7  0    139.2  2045999.8 -0.0  2 0 2077 2883 1368
[16]  38(B02)  1 10 10  0  -1312.6  4092003.3  0.1  1 0  281  171  196
[17]  41(B05)  f 41 22  0  -1102.8  4092002.8 -0.2  2 0 1109 1803  889
[18]  49(B13)  7  7  7  0  -1686.5  4092004.3  0.5  5 0 1399 2211 1005
$GNGGA,000000.000,,,,,0,00,,,M,,,,0000*2B
$GNRMC,000000.000,A,,,,,,,060180,,*29
$GPGSA,A,1,,,,,,,,,,,,,,,*1E
$BDGSA,A,1,,,,,,,,,,,,,,,*0F
$GLGSA,A,1,,,,,,,,,,,,,,,*02
$GPGSV,2,1,07,06,00,000,39,07,00,000,40,13,00,000,42,17,00,000,45*71
$GPGSV,2,2,07,19,00,000,45,28,00,000,43,30,00,000,43*4E
$BDGSV,1,1,01,05,00,000,41*59
$B3CN0,0,0,0,0,0,0,0,0,0,0,0,0,0,0*4C
---00000007--- Acq_st=3 0  2019-4-3 9:45:17 
[00]  05(G06)  7 40  7  0  -4785.1  2046006.1 -0.0  2 0 1033 1687 1197
[01]  06(G07)  7 40  7  0   1978.3  2045997.3  0.0  2 0 1426 1719 1002
[02]  12(G13)  7 42  7  0   -133.3  2046000.0  0.0  2 0 1326 1637  740
[03]  16(G17)  7 45  7  0  -2234.2  2046002.8 -0.0  2 0 2152 3579 1697
[04]  18(G19)  7 44  7  0  -3463.6  2046004.4 -0.0  2 0 2268 3464 1895
[05]  27(G28)  7 42  7  0  -2793.8  2046003.5 -0.0  2 0 1241 1747  771
[06]  29(G30)  7 43  7  0    133.2  2045999.8  0.0  2 0 1170 2415  858
[16]  38(B02)  7 20 10  1  -1461.1  4092003.6  0.0  2 0  430   43   45
[17]  41(B05)  f 42 26  0  -1106.0  4092002.8  0.7  2 0 1223 1657  671
[18]  49(B13)  7 43  7  0  -1682.3  4092004.3  0.1  2 0 1130 1852 1029
[19]  65(B29)  1  7  7  0  -2000.0  4092006.9  0.0  1 0  399  822 1991
[49]  41(B05)  1 26 23  1  -1433.9 20460018.4  0.0  1 0  590  649  706
$GNGGA,000000.000,,,,,0,00,,,M,,,,0000*2B
$GNRMC,000000.000,A,,,,,,,060180,,*29
$GPGSA,A,1,,,,,,,,,,,,,,,*1E
$BDGSA,A,1,,,,,,,,,,,,,,,*0F
$GLGSA,A,1,,,,,,,,,,,,,,,*02
$GPGSV,2,1,07,06,00,000,40,07,00,000,40,13,00,000,42,17,00,000,45*7F
$GPGSV,2,2,07,19,00,000,44,28,00,000,42,30,00,000,43*4E
$BDGSV,1,1,03,02,00,000,20,05,00,000,42,13,00,000,41*5F
$B3CN0,0,0,0,0,0,0,0,0,0,0,0,0,0,0*4C
---00000008--- Acq_st=3 0  2019-4-3 9:45:18 
[00]  05(G06)  7 39  7  0  -4788.2  2046006.2  0.1  2 0  906 1258  757
[01]  06(G07)  7 41  7  0   1973.8  2045997.3  0.0  2 0 2253 2229  739
[02]  12(G13)  7 41  7  0   -136.4  2046000.1  0.0  2 0  773 1900 1203
[03]  16(G17)  7 44  7  0  -2239.9  2046002.9  0.0  2 0 2069 3593 1776
[04]  18(G19)  7 44  7  0  -3471.3  2046004.5  0.1  2 0 1316 2913 1511
[05]  27(G28)  7 42  7  0  -2799.8  2046003.6  0.1  2 0 1271 1971  675
[06]  29(G30)  7 42  8  0    133.0  2045999.8  0.1  2 0  964 2198 1297
[16]  38(B02)  7 10 13  0  -1761.2  4092004.5  0.1  2 0  290  302  438
[17]  41(B05) 1f 41 27  0  -1112.7  4092002.8  0.2  2 0 1179 1347  433
[18]  49(B13)  7 42  7  0  -1691.3  4092004.3  0.1  2 0 1075 2005  914
[19]  65(B29)  1  7  7  0  -1939.2  4092005.0  0.2  1 0 1556 1911  417
[49]  41(B05)  1 24 24  1  -1068.7 20460015.4 -0.0  1 0  679  371  327
$GNGGA,094519.779,,,,,0,00,,,M,,,,0000*22
$GNRMC,094519.779,A,,,,,,,090180,,*2F
$GPGSA,A,1,,,,,,,,,,,,,,,*1E
$BDGSA,A,1,,,,,,,,,,,,,,,*0F
$GLGSA,A,1,,,,,,,,,,,,,,,*02
$GPGSV,2,1,07,06,00,000,39,07,00,000,41,13,00,000,41,17,00,000,44*72
$GPGSV,2,2,07,19,00,000,44,28,00,000,42,30,00,000,42*4F
$BDGSV,1,1,02,05,00,000,41,13,00,000,42*6E
$B3CN0,0,0,0,0,0,0,0,0,0,0,0,0,0,0*4C
---00000009--- Acq_st=7 0  2019-4-3 9:45:19 
[00]  05(G06)  f 39  7  0  -4774.7  2046006.2  0.1  2 0  378  860  130
[01]  06(G07)  f 42  7  0   1985.9  2045997.3  0.0  2 0 2070 2315 1414
[02]  12(G13)  f 42  7  0   -122.9  2046000.1 -0.1  2 0 1381 2190 1170
[03]  16(G17)  f 45  7  0  -2226.8  2046002.8  0.0  2 0 2461 3931 1864
[04]  18(G19)  f 44  7  0  -3458.7  2046004.4 -0.0  2 0 2068 3577 2054
[05]  27(G28)  f 43  7  0  -2784.2  2046003.6 -0.1  2 0 1208 1761 1056
[06]  29(G30)  f 43  7  0    144.1  2045999.8 -0.1  2 0 1003 1679  758
[16]  38(B02)  7 10 26  1  -2092.5  4092005.3  0.0  2 0   87  265  267
[17]  41(B05) 1f 41 22  0  -1099.8  4092002.7  0.1  2 0 1379 1350  428
[18]  49(B13)  7 42  7  0  -1675.1  4092004.3 -0.0  2 0 1566 2066 1011
[19]  65(B29)  7 28  7  0  -1922.8  4092004.9  0.4 10 0 1598 2084  748
[32]  86(N05)  1  7  7  0  -2000.0  1022002.3  0.0  1 0   540  853  898
[49]  41(B05)  1 22 20  1  -1384.1 20460020.9  0.1  1 0  638  565  427
$GNGGA,094520.779,,,,,0,00,,,M,,,,0000*28
$GNRMC,094520.779,A,,,,,,,090180,,*25
$GPGSA,A,1,,,,,,,,,,,,,,,*1E
$BDGSA,A,1,,,,,,,,,,,,,,,*0F
$GLGSA,A,1,,,,,,,,,,,,,,,*02
$GPGSV,2,1,07,06,00,000,39,07,00,000,42,13,00,000,42,17,00,000,45*73
$GPGSV,2,2,07,19,00,000,44,28,00,000,43,30,00,000,43*4F
$BDGSV,1,1,03,05,00,000,41,13,00,000,42,29,00,000,28*5E
$B3CN0,0,0,0,0,0,0,0,0,0,0,0,0,0,0*4C
---00000010--- Acq_st=7 0  2019-4-3 9:45:20 
[00]  05(G06)  f 39  7  0  -4783.3  2046006.2 -0.0  2 0  205  836  601
[01]  06(G07)  f 42  7  0   1979.7  2045997.3  0.0  2 0 1056 1769 1408
[02]  12(G13)  f 41  7  0   -129.8  2046000.1  0.1  2 0  707 1243  390
[03]  16(G17)  f 45  7  0  -2231.9  2046002.8 -0.0  2 0 3143 3835 1526
[04]  18(G19)  f 44  7  0  -3461.9  2046004.5 -0.0  2 0 1484 3262 2008
[05]  27(G28)  f 42  7  0  -2792.9  2046003.6 -0.0  2 0  476 1748 1336
[06]  29(G30)  f 42  7  0    139.6  2045999.8  0.1  2 0 1888 2304  791
[16]  38(B02)  7 10 10  1  -2262.7  4092005.7  0.1  2 0  348  467  361
[17]  41(B05) 1f 41 28  0  -1103.9  4092002.8 -0.4  2 0 1173 1266  443
[18]  49(B13)  7 42  9  0  -1682.0  4092004.3 -0.0  2 0 1326 1732  727
[19]  65(B29)  7 44  7  0  -1927.2  4092005.0 -0.0  2 0 1198 2149  769
[32]  86(N05)  1 40 27  0  -1875.2  1022001.1  1.0  1 0   487  570  342
[49]  41(B05)  1 21 19  0  -1332.8 20460022.7 -0.1  1 0  151  289  322
$GNGGA,094521.779,,,,,0,00,,,M,,,,0000*29
$GNRMC,094521.779,A,,,,,,,090180,,*24
$GPGSA,A,1,,,,,,,,,,,,,,,*1E
$BDGSA,A,1,,,,,,,,,,,,,,,*0F
$GLGSA,A,1,,,,,,,,,,,,,,,*02
$GPGSV,2,1,07,06,00,000,39,07,00,000,42,13,00,000,41,17,00,000,45*70
$GPGSV,2,2,07,19,00,000,44,28,00,000,42,30,00,000,42*4F
$BDGSV,1,1,03,05,00,000,41,13,00,000,42,29,00,000,44*54
$B3CN0,0,0,0,0,0,0,0,0,0,0,0,0,0,0*4C
---00000011--- Acq_st=3 0  2019-4-3 9:45:21 
[00]  05(G06)  f 38  7  0  -4785.0  2046006.1 -0.1  2 0  588  853  179
[01]  06(G07)  f 42  7  0   1985.2  2045997.3 -0.1  2 0 1370 2144 1175
[02]  12(G13)  f 42  7  0   -122.8  2046000.1  0.0  2 0  760 1676 1099
[03]  16(G17)  f 45  7  0  -2230.3  2046002.8  0.0  2 0 2869 3951 1903
[04]  18(G19)  f 43  7  0  -3459.1  2046004.4  0.0  2 0 1702 2499 1264
[05]  27(G28)  f 42  7  0  -2788.8  2046003.6 -0.0  2 0  776 1655  876
[06]  29(G30)  f 43  7  0    142.1  2045999.8 -0.1  2 0 1348 2310  946
[16]  38(B02)  7 10 10  0  -2423.7  4092006.5  0.1  2 0  323  266  135
[17]  41(B05) 1f 41 21  0  -1103.6  4092002.8  0.0  2 0 1672 2158 1102
[18]  49(B13) 1f 42  7  0  -1677.3  4092004.3  0.0  2 0 1516 2092  828
[19]  65(B29) 1f 43  7  0  -1923.7  4092004.9  0.1  2 0 1550 1829  641
[32]  86(N05)  7 40 27  0  -1871.4  1022001.1 -0.8  2 0   705  798  281
$GNGGA,094522.779,,,,,0,00,,,M,,,,0000*2A
$GNRMC,094522.779,A,,,,,,,090180,,*27
$GPGSA,A,1,,,,,,,,,,,,,,,*1E
$BDGSA,A,1,,,,,,,,,,,,,,,*0F
$GLGSA,A,1,,,,,,,,,,,,,,,*02
$GPGSV,2,1,07,06,00,000,38,07,00,000,42,13,00,000,42,17,00,000,45*72
$GPGSV,2,2,07,19,00,000,43,28,00,000,42,30,00,000,43*49
$BDGSV,1,1,03,05,00,000,41,13,00,000,42,29,00,000,43*53
$B3CN0,0,0,0,0,0,0,0,0,0,0,0,0,0,0*4C
---00000012--- Acq_st=3 0  2019-4-3 9:45:22 
[00]  05(G06)  f 38  7  0  -4779.9  2046006.1 -0.2  2 0  511 1313  929
[01]  06(G07)  f 42  7  0   1981.5  2045997.3  0.0  2 0 1477 1796  950
[02]  12(G13)  f 42  7  0   -122.8  2046000.1 -0.0  2 0 1322 1781  946
[03]  16(G17)  f 46  7  0  -2231.1  2046002.8 -0.0  2 0 3120 4313 2158
[04]  18(G19)  f 43  7  0  -3461.5  2046004.6  0.1  2 0  846 1914 1244
[05]  27(G28)  f 42  7  0  -2795.7  2046003.6  0.1  2 0 1096 1738  852
[06]  29(G30)  f 42  7  0    140.2  2045999.7  0.0  2 0 1957 2593 1010
[16]  38(B02)  7 18 21  0  -3260.5  4092008.5  0.1  2 0  241  236  211
[17]  41(B05) 1f 41 25  0  -1101.7  4092002.8 -0.2  2 0 1191 1406  657
[18]  49(B13) 1f 42 13  0  -1684.1  4092004.3 -0.0  2 0 1666 1835  522
[19]  65(B29) 1f 43  7  0  -1926.3  4092005.0 -0.0  2 0 1597 2261 1092
[32]  86(N05)  7 39 26  0  -1875.4  1022001.1  0.6  2 0   543 1227  585
[49]  41(B05)  1 23 25  0   -850.8 20460018.0 -0.2  1 0  685  446  678
[50]  49(B13)  1  7  7  0  -1362.7 20460028.1 -0.1  1 0  252  381  324
[51]  65(B29)  1  7  7  0  -1595.7 20460033.2  0.0  1 0  627  565  380
---00000013--- Acq_st=3 0  2019-4-3 9:45:23 
[00]  05(G06)  f 38  7  0  -4787.2  2046006.1 -0.2  2 0  168 1289  825
[01]  06(G07)  f 41  7  0   1981.7  2045997.4 -0.0  2 0 1153 1486 1115
[02]  12(G13)  f 42  7  0   -127.1  2046000.1  0.0  2 0 1565 2048 1180
[03]  16(G17)  f 46  7  0  -2231.8  2046002.8 -0.0  2 0 3577 4371 2159
[04]  18(G19)  f 43  7  0  -3457.2  2046004.5 -0.0  2 0  530 1805  975
[05]  27(G28)  f 42  7  0  -2793.7  2046003.5  0.0  2 0 1120 1664  851
[06]  29(G30)  f 43  7  0    140.3  2045999.7 -0.0  2 0 1903 2510 1167
[17]  41(B05) 1f 41 21  0  -1103.1  4092002.8 -0.4  2 0 1216 1736  518
[18]  49(B13) 1f 42 12  0  -1685.1  4092004.3  0.0  2 0 1428 1627  583
[19]  65(B29) 1f 42  7  0  -1925.5  4092004.9  0.0  2 0 1497 1926 1073
[32]  86(N05)  7 40 27  0  -1871.3  1022001.1 -0.0  2 0   570  921  388
[49]  41(B05)  1 24 24  0   -758.0 20460020.3 -0.0  1 0  264  241  166
[50]  49(B13)  1  8  7  0  -1400.7 20460026.6 -0.1  1 0  245  619  610
[51]  65(B29)  1  8  7  0  -1801.9 20460032.2 -0.2  1 0  456  461  995
$GNGGA,094523.779,,,,,0,00,,,M,,,,0000*2B
$GNRMC,094523.779,A,,,,,,,090180,,*26
$GPGSA,A,1,,,,,,,,,,,,,,,*1E
$BDGSA,A,1,,,,,,,,,,,,,,,*0F
$GLGSA,A,1,,,,,,,,,,,,,,,*02
$GPGSV,2,1,07,06,00,000,38,07,00,000,41,13,00,000,42,17,00,000,46*72
$GPGSV,2,2,07,19,00,000,43,28,00,000,42,30,00,000,43*49
$BDGSV,1,1,03,05,00,000,41,13,00,000,42,29,00,000,42*52
$B3CN0,0,0,0,0,0,0,0,0,0,0,0,0,0,0*4C
---00000014--- Acq_st=3 0  2019-4-3 9:45:24 
[00]  05(G06)  f 38  7  0  -4788.8  2046006.1  0.0  2 0  760  827  323
[01]  06(G07)  f 41  7  0   1973.8  2045997.4 -0.0  2 0 1310 1076  863
[02]  12(G13)  f 43  7  0   -137.6  2046000.1 -0.1  2 0 1701 2364 1187
[03]  16(G17)  f 46  7  0  -2240.6  2046002.8 -0.0  2 0 3865 4601 1938
[04]  18(G19)  f 42  7  0  -3470.7  2046004.5  0.0  2 0 1106 1563  649
[05]  27(G28)  f 43  7  0  -2797.0  2046003.6 -0.0  2 0 1315 1773  502
[06]  29(G30)  f 43  7  0    133.7  2045999.7 -0.1  2 0 1947 2596  834
[17]  41(B05) 1f 42 10  0  -1112.5  4092002.8  0.4  2 0 1115 1419  490
[18]  49(B13) 1f 42  7  0  -1691.7  4092004.3  0.0  2 0 1424 1800  701
[19]  65(B29) 1f 43  9  0  -1934.7  4092005.0 -0.1  2 0 1611 2093  887
[32]  86(N05)  f 34 23  0  -1882.6  1022001.2 -0.3  5 0   630  874  787
[49]  41(B05)  1 24 25  1    104.3 20460017.0 -0.1  1 0  331  773  315
[50]  49(B13)  1  7  8  0  -1074.9 20460026.9 -0.1  1 0  486   74  579
[51]  65(B29)  1  7  7  0  -1979.1 20460031.7  0.0  1 0  374  198  196
$GNGGA,094524.779,,,,,0,00,,,M,,,,0000*2C
$GNRMC,094524.779,A,,,,,,,090180,,*21
$GPGSA,A,1,,,,,,,,,,,,,,,*1E
$BDGSA,A,1,,,,,,,,,,,,,,,*0F
$GLGSA,A,1,,,,,,,,,,,,,,,*02
$GPGSV,2,1,07,06,00,000,38,07,00,000,41,13,00,000,43,17,00,000,46*73
$GPGSV,2,2,07,19,00,000,42,28,00,000,43,30,00,000,43*49
$BDGSV,1,1,03,05,00,000,42,13,00,000,42,29,00,000,43*50
$B3CN0,0,0,0,0,0,0,0,0,0,0,0,0,0,0*4C
---00000015--- Acq_st=3 0  2019-4-3 9:45:25 
[00]  05(G06)  f 38  7  0  -4785.8  2046006.2 -0.0  2 0  903 1066  371
[01]  06(G07)  f 40  7  0   1974.7  2045997.4  0.1  2 0  896 1598 1462
[02]  12(G13)  f 43  7  0   -133.3  2046000.1 -0.0  2 0 1526 2140  711
[03]  16(G17)  f 46  7  0  -2236.2  2046002.8  0.0  2 0 3214 4646 2114
[04]  18(G19)  f 42  7  0  -3468.4  2046004.5  0.0  2 0 1042 1409  838
[05]  27(G28)  f 42  7  0  -2796.5  2046003.6  0.1  2 0  803 1510 1143
[06]  29(G30)  f 44  7  0    137.7  2045999.7 -0.0  2 0 1271 2272 1068
[17]  41(B05) 1f 41 23  0  -1106.7  4092002.7  0.4  2 0 1345 1424  294
[18]  49(B13) 1f 42  7  0  -1688.0  4092004.3 -0.1  2 0  825 1477  576
[19]  65(B29) 1f 43  7  0  -1931.6  4092004.9  0.1  2 0 1112 1827 1061
[32]  86(N05)  f 40 24  0  -1876.5  1022001.1  0.7  2 0   903 1259  839
[49]  41(B05)  1 26 23  1   -200.1 20460016.1  0.1  1 0  658 1016 1084
[50]  49(B13)  1  7  9  0  -1385.1 20460025.9 -0.2  1 0  280  298  284
[51]  65(B29)  1  7  7  0  -1920.2 20460032.5 -0.1  1 0  293  373  289
$GNGGA,094525.779,,,,,0,00,,,M,,,,0000*2D
$GNRMC,094525.779,A,,,,,,,090180,,*20
$GPGSA,A,1,,,,,,,,,,,,,,,*1E
$BDGSA,A,1,,,,,,,,,,,,,,,*0F
$GLGSA,A,1,,,,,,,,,,,,,,,*02
$GPGSV,2,1,07,06,00,000,38,07,00,000,40,13,00,000,43,17,00,000,46*72
$GPGSV,2,2,07,19,00,000,42,28,00,000,42,30,00,000,44*4F
$BDGSV,1,1,03,05,00,000,41,13,00,000,42,29,00,000,43*53
$B3CN0,0,0,0,0,0,0,0,0,0,0,0,0,0,0*4C
---00000016--- Acq_st=3 0  2019-4-3 9:45:26 
[00]  05(G06)  f 39  7  0  -4769.4  2046006.1  0.2  2 0 1073 1219  445
[01]  06(G07)  f 39  7  0   1993.6  2045997.4  0.3  2 0 1396 1081  121
[02]  12(G13)  f 43  7  0   -112.8  2046000.1 -0.0  2 0 1117 2188 1355
[03]  16(G17)  f 46  7  0  -2219.0  2046002.8 -0.0  2 0 3282 4868 2217
[04]  18(G19)  f 43  7  0  -3445.9  2046004.4 -0.1  2 0 1296 2038 1062
[05]  27(G28)  f 42  7  0  -2779.0  2046003.6 -0.0  2 0 1205 1924  761
[06]  29(G30)  f 44  9  0    157.9  2045999.7  0.0  2 0 1858 2672 1099
[17]  41(B05) 1f 41 21  0  -1090.7  4092002.8 -0.5  2 0 1142 1397  508
[18]  49(B13) 1f 43  7  0  -1670.0  4092004.2  0.0  2 0  660 1749  720
[19]  65(B29) 1f 43  7  0  -1912.7  4092004.9 -0.0  2 0 1447 1977 1148
[32]  86(N05)  f 40 24  0  -1856.5  1022001.2  0.0  2 0   420  988  724
$GNGGA,094526.779,,,,,0,00,,,M,,,,0000*2E
$GNRMC,094526.779,A,,,,,,,090180,,*23
$GPGSA,A,1,,,,,,,,,,,,,,,*1E
$BDGSA,A,1,,,,,,,,,,,,,,,*0F
$GLGSA,A,1,,,,,,,,,,,,,,,*02
$GPGSV,2,1,07,06,00,000,39,07,00,000,39,13,00,000,43,17,00,000,46*7D
$GPGSV,2,2,07,19,00,000,43,28,00,000,42,30,00,000,44*4E
$BDGSV,1,1,03,05,00,000,41,13,00,000,43,29,00,000,43*52
$B3CN0,0,0,0,0,0,0,0,0,0,0,0,0,0,0*4C
---00000017--- Acq_st=3 0  2019-4-3 9:45:27 
[00]  05(G06)  f 39  7  0  -4781.3  2046006.1 -0.1  2 0  772 1506  715
[01]  06(G07)  f 38  7  0   1979.5  2045997.4 -0.1  2 0  794  900  908
[02]  12(G13)  f 43  7  0   -123.1  2046000.1  0.1  2 0 1020 1825  982
[03]  16(G17)  f 45  7  0  -2231.1  2046002.8  0.0  2 0 2940 4114 2277
[04]  18(G19)  f 43  7  0  -3462.8  2046004.4  0.0  2 0 2031 2604 1514
[05]  27(G28)  f 42  7  0  -2789.4  2046003.6 -0.0  2 0 1294 1942  696
[06]  29(G30)  f 44  7  0    140.9  2045999.8 -0.0  2 0 1693 2783 1591
[17]  41(B05) 1f 42 24  0  -1100.0  4092002.8  0.3  2 0 1357 1595  829
[18]  49(B13) 1f 42  7  0  -1682.9  4092004.3  0.0  2 0 1506 2157  769
[19]  65(B29) 1f 43  9  0  -1926.3  4092005.0  0.0  2 0 1248 2170  997
[32]  86(N05)  f 41 24  0  -1870.1  1022001.2 -0.1  2 0   721 1299  408
[49]  41(B05)  1 17 23  1   -393.4 20460017.9 -0.0  1 0  305  363  618
[50]  49(B13)  1  7  7  0  -1312.9 20460027.0 -0.1  1 0  465  297  435
[51]  65(B29)  1  7  7  0  -1317.8 20460029.6 -0.1  1 0  251  129   36
$GNGGA,094527.779,,,,,0,00,,,M,,,,0000*2F
$GNRMC,094527.779,A,,,,,,,030419,,*2D
$GPGSA,A,1,,,,,,,,,,,,,,,*1E
$BDGSA,A,1,,,,,,,,,,,,,,,*0F
$GLGSA,A,1,,,,,,,,,,,,,,,*02
$GPGSV,2,1,07,06,00,000,39,07,00,000,38,13,00,000,43,17,00,000,45*7F
$GPGSV,2,2,07,19,00,000,43,28,00,000,42,30,00,000,44*4E
$BDGSV,1,1,03,05,00,000,42,13,00,000,42,29,00,000,43*50
$B3CN0,0,0,0,0,0,0,0,0,0,0,0,0,0,0*4C
---00000018--- Acq_st=3 0  2019-4-3 9:45:28 
[00]  05(G06)  f 38  7  0  -4770.7  2046006.1 -0.2  2 0 1427 1871  847
[01]  06(G07)  f 37  7  0   1990.6  2045997.5  0.4  2 0  505 1461 1008
[02]  12(G13)  f 42  7  0   -115.6  2046000.1  0.0  2 0  973 1787  576
[03]  16(G17)  f 45  7  0  -2222.9  2046002.8 -0.0  2 0 2279 4238 2188
[04]  18(G19)  f 43  7  0  -3452.7  2046004.4 -0.0  2 0 2040 2780 1215
[05]  27(G28)  f 41  7  0  -2782.6  2046003.6  0.1  2 0 1201 1990 1007
[06]  29(G30)  f 44  7  0    153.0  2045999.7  0.0  2 0 1821 2715 1243
[17]  41(B05) 1f 42 25  0  -1094.2  4092002.8 -0.6  2 0  641  738  624
[18]  49(B13) 1f 42  7  0  -1673.7  4092004.3 -0.0  2 0 1452 1970  870
[19]  65(B29) 1f 43  7  0  -1918.5  4092004.9 -0.1  2 0 1049 1829  861
[32]  86(N05)  f 41 24  0  -1860.5  1022001.1 -0.1  2 0   908 1461  666
[33]  79(N-2)  1 20 15  0  -2303.5  1022002.0 -0.0  1 0    29  525  443
[34]  83(N02)  1 19  7  0  -2250.0  1022002.1 -0.0  1 0    69  226  235
[49]  41(B05)  1 23 26  0     -6.7 20460017.6  0.2  1 0  409  135  751
[50]  49(B13)  1  7  7  0   -970.4 20460027.6  0.2  1 0  504  258   85
[51]  65(B29)  1  7  7  0  -1683.9 20460030.2  0.0  1 0  190  394  482
$GNGGA,094528.779,,,,,0,00,,,M,,,,0000*20
$GNRMC,094528.779,A,,,,,,,030419,,*22
$GPGSA,A,1,,,,,,,,,,,,,,,*1E
$BDGSA,A,1,,,,,,,,,,,,,,,*0F
$GLGSA,A,1,,,,,,,,,,,,,,,*02
$GPGSV,2,1,07,06,00,000,38,07,00,000,37,13,00,000,42,17,00,000,45*70
$GPGSV,2,2,07,19,00,000,43,28,00,000,41,30,00,000,44*4D
$BDGSV,1,1,03,05,00,000,42,13,00,000,42,29,00,000,43*50
$B3CN0,0,0,0,0,0,0,0,0,0,0,0,0,0,0*4C
---00000019--- Acq_st=7 0  2019-4-3 9:45:29 
[00]  05(G06)  f 39  7  0  -4769.9  2046006.1  0.0  2 0  646  969  344
[01]  06(G07)  f 39 10  0   1990.9  2045997.3  0.0  2 0  680  997  648
[02]  12(G13)  f 42  7  0   -118.1  2046000.1  0.0  2 0 1361 1978  807
[03]  16(G17)  f 45  7  0  -2222.3  2046002.8  0.0  2 0 3000 4569 2234
[04]  18(G19)  f 44  7  0  -3451.2  2046004.4 -0.0  2 0 2011 2947 1658
[05]  27(G28)  f 41  7  0  -2781.9  2046003.6 -0.0  2 0  829 1686 1194
[06]  29(G30)  f 43  9  0    155.4  2045999.7  0.0  2 0 1840 2586 1370
[17]  41(B05) 1f 41 24  0  -1096.7  4092002.7  0.1  2 0  716  943  525
[18]  49(B13) 1f 42  7  0  -1673.1  4092004.3  0.0  2 0 1057 1337  193
[19]  65(B29) 1f 42  7  0  -1919.6  4092004.9  0.1  2 0 1328 2201  991
[32]  86(N05)  f 41 23  0  -1858.1  1022001.2  0.1  2 0   373  985  549
[33]  79(N-2)  1 25 17  0  -2345.9  1022001.8  0.8  1 0   381  236  240
[34]  83(N02)  1 18 18  0  -2662.1  1022002.7 -0.1  1 0   312  121  218
[49]  41(B05)  1 23 23  1   -288.8 20460023.3 -0.0  1 0  765  454  316
[50]  49(B13)  1  7  7  0   -557.8 20460026.8  0.1  1 0  628  255  139
[51]  65(B29)  1  7  7  0  -1286.4 20460031.1  0.2  1 0  180  392  272
$GNGGA,094529.779,,,,,0,00,,,M,,,,0000*21
$GNRMC,094529.779,A,,,,,,,030419,,*23
$GPGSA,A,1,,,,,,,,,,,,,,,*1E
$BDGSA,A,1,,,,,,,,,,,,,,,*0F
$GLGSA,A,1,,,,,,,,,,,,,,,*02
$GPGSV,2,1,07,06,00,000,39,07,00,000,39,13,00,000,42,17,00,000,45*7F
$GPGSV,2,2,07,19,00,000,44,28,00,000,41,30,00,000,43*4D
$BDGSV,1,1,03,05,00,000,41,13,00,000,42,29,00,000,42*52
$B3CN0,0,0,0,0,0,0,0,0,0,0,0,0,0,0*4C
---00000020--- Acq_st=3 0  2019-4-3 9:45:30 
[00]  05(G06)  f 39  7  0  -4784.1  2046006.2  0.1  2 0 1292 1747  851
[01]  06(G07)  f 39  7  0   1974.1  2045997.3  0.1  2 0  911 1382  466
[02]  12(G13)  f 42  7  0   -133.0  2046000.1 -0.1  2 0 1432 1499  636
[03]  16(G17)  f 45  7  0  -2237.6  2046002.9 -0.0  2 0 3595 5230 2853
[04]  18(G19)  f 44  7  0  -3469.7  2046004.4 -0.0  2 0 1564 2850 1448
[05]  27(G28)  f 42  7  0  -2799.7  2046003.6 -0.1  2 0  846 1863  770
[06]  29(G30)  f 44  7  0    137.7  2045999.7 -0.0  2 0 2142 3096  986
[17]  41(B05) 1f 42 27  0  -1110.8  4092002.7  0.1  2 0  838 1505  740
[18]  49(B13) 1f 42  7  0  -1687.8  4092004.3 -0.0  2 0 1101 2029 1086
[19]  65(B29) 1f 42  7  0  -1932.5  4092005.0 -0.0  2 0 1560 1657  486
[32]  86(N05)  f 41 25  0  -1873.1  1022001.2 -0.0  2 0   244  827  387
[33]  79(N-2)  7 15  7  0  -2299.4  1022001.4  0.7 10 0   517  522  290
[34]  83(N02)  1 16 16  0  -2782.2  1022002.4  0.1  1 0   154  117  195
[49]  41(B05)  1 23 19  1    -54.1 20460023.2  0.2  1 0   84  646 1039
[50]  49(B13)  1  7  7  0   -243.4 20460027.9 -0.2  1 0  622  491   72
[51]  65(B29)  1  7  7  0  -1092.8 20460030.9  0.1  1 0  436  171  511
$GNGGA,094530.779,,,,,0,00,,,M,,,,0000*29
$GNRMC,094530.779,A,,,,,,,030419,,*2B
$GPGSA,A,1,,,,,,,,,,,,,,,*1E
$BDGSA,A,1,,,,,,,,,,,,,,,*0F
$GLGSA,A,1,,,,,,,,,,,,,,,*02
$GPGSV,2,1,07,06,00,000,39,07,00,000,39,13,00,000,42,17,00,000,45*7F
$GPGSV,2,2,07,19,00,000,44,28,00,000,42,30,00,000,44*49
$BDGSV,1,1,03,05,00,000,42,13,00,000,42,29,00,000,42*51
$B3CN0,0,0,0,0,0,0,0,0,0,0,0,0,0,0*4C
---00000021--- Acq_st=3 0  2019-4-3 9:45:31 
[00]  05(G06)  f 40  7  0  -4785.1  2046006.1  0.0  2 0  777 1560 1188
[01]  06(G07)  f 40  7  0   1976.1  2045997.3  0.1  2 0 1598 1288  394
[02]  12(G13)  f 41  7  0   -129.6  2046000.1  0.0  2 0 1311 2130  843
[03]  16(G17)  f 45  7  0  -2235.4  2046002.9 -0.0  2 0 3062 4744 2412
[04]  18(G19)  f 44  7  0  -3463.3  2046004.4 -0.0  2 0 2644 3155 1308
[05]  27(G28)  f 42  7  0  -2798.9  2046003.5 -0.0  2 0 1538 1882  712
[06]  29(G30)  f 44  7  0    141.1  2045999.7  0.0  2 0 1756 2568 1024
[17]  41(B05) 1f 42 22  0  -1111.3  4092002.8 -0.4  2 0 1522 1687  843
[18]  49(B13) 1f 42  7  0  -1684.8  4092004.3 -0.0  2 0 1340 1981  986
[19]  65(B29) 1f 42  7  0  -1931.3  4092004.9  0.0  2 0 1217 1718  718
[32]  86(N05)  f 40 25  0  -1872.5  1022001.2 -0.1  2 0   753  870  199
[33]  79(N-2)  7 37 19  0  -2305.7  1022001.4 -0.1  2 0   534  848  408
[34]  83(N02)  1 18 18  0  -3068.2  1022002.1 -0.1  1 0    97  326   76
$GNGGA,094531.779,,,,,0,00,,,M,,,,0000*28
$GNRMC,094531.779,A,,,,,,,030419,,*2A
$GPGSA,A,1,,,,,,,,,,,,,,,*1E
$BDGSA,A,1,,,,,,,,,,,,,,,*0F
$GLGSA,A,1,,,,,,,,,,,,,,,*02
$GPGSV,2,1,07,06,00,000,40,07,00,000,40,13,00,000,41,17,00,000,45*7C
$GPGSV,2,2,07,19,00,000,44,28,00,000,42,30,00,000,44*49
$BDGSV,1,1,03,05,00,000,42,13,00,000,42,29,00,000,42*51
$B3CN0,0,0,0,0,0,0,0,0,0,0,0,0,0,0*4C
---00000022--- Acq_st=3 0  2019-4-3 9:45:32 
[00]  05(G06)  f 40  7  0  -4781.8  2046006.1  0.1  2 0  746 1488  687
[01]  06(G07)  f 41  7  0   1980.1  2045997.3 -0.0  2 0 1252 1690  613
[02]  12(G13)  f 42  7  0   -123.3  2046000.1  0.0  2 0 1535 2298  694
[03]  16(G17)  f 45  7  0  -2232.5  2046002.8 -0.0  2 0 2349 3809 1970
[04]  18(G19)  f 44  7  0  -3460.3  2046004.4  0.0  2 0 1837 2909 1326
[05]  27(G28)  f 41  7  0  -2790.2  2046003.6 -0.0  2 0 1167 1800 1071
[06]  29(G30)  f 44  7  0    147.2  2045999.7 -0.0  2 0 1981 2678 1184
[16]  38(B02)  1 10 23  1  -1105.9  4092003.7 -0.2  1 0  489 1242  909
[17]  41(B05) 1f 41 25  0  -1108.7  4092002.9 -0.1  2 0  968 1626  706
[18]  49(B13) 1f 42  7  0  -1683.5  4092004.3 -0.0  2 0 1247 1799  938
[19]  65(B29) 1f 43  7  0  -1923.6  4092004.9  0.1  2 0 1627 1764  686
[32]  86(N05) 8f 40 24  0  -1869.1  1022001.2  0.1  2 0   540  914  682
[33]  79(N-2)  7 37 21  0  -2299.1  1022001.4 -0.1  2 0   394  900  510
[34]  83(N02)  1 16 17  0  -3164.0  1022002.7  0.1  1 0   365  216  207
[49]  41(B05)  1 29 24  0   -905.8 20460016.2 -0.0  1 0  211  640  423
[50]  49(B13)  1  7  7  0  -1216.6 20460025.8  0.0  1 0  372  933  705
[51]  65(B29)  1  7  7  0  -1290.5 20460031.1 -0.1  1 0  437  394  380
$GNGGA,094532.779,,,,,0,00,,,M,,,,0000*2B
$GNRMC,094532.779,A,,,,,,,030419,,*29
$GPGSA,A,1,,,,,,,,,,,,,,,*1E
$BDGSA,A,1,,,,,,,,,,,,,,,*0F
$GLGSA,A,1,,,,,,,,,,,,,,,*02
$GPGSV,2,1,07,06,00,000,40,07,00,000,41,13,00,000,42,17,00,000,45*7E
$GPGSV,2,2,07,19,00,000,44,28,00,000,41,30,00,000,44*4A
$BDGSV,1,1,03,05,00,000,41,13,00,000,42,29,00,000,43*53
$B3CN0,0,0,0,0,0,0,0,0,0,0,0,0,0,0*4C
---00000023--- Acq_st=3 0  2019-4-3 9:45:33 
[00]  05(G06)  f 40  7  0  -4771.8  2046006.1 -0.0  2 0  937 1282  752
[01]  06(G07)  f 41  7  0   1990.9  2045997.3 -0.0  2 0  991 1751  689
[02]  12(G13)  f 42  7  0   -114.9  2046000.1  0.1  2 0 1932 2050  993
[03]  16(G17)  f 45  7  0  -2221.3  2046002.8  0.0  2 0 3257 4800 2437
[04]  18(G19)  f 44  7  0  -3453.3  2046004.4  0.0  2 0 2414 3690 1701
[05]  27(G28)  f 42  7  0  -2784.7  2046003.5  0.0  2 0 1105 1624  727
[06]  29(G30)  f 44  9  0    154.1  2045999.7 -0.0  2 0 1975 2971 1597
[16]  38(B02)  1 18 26  1  -1096.3  4092005.9  0.2  1 0 1308  646  155
[17]  41(B05) 1f 41 19  0  -1099.7  4092002.8  0.2  2 0 1856 1902  910
[18]  49(B13) 1f 42  7  0  -1678.0  4092004.3 -0.0  2 0 1073 1839  794
[19]  65(B29) 1f 42  7  0  -1921.6  4092004.9 -0.0  2 0 1078 1649  495
[32]  86(N05) 8f 40 25  0  -1858.7  1022001.2  0.0  2 0   726 1022  519
[33]  79(N-2)  7 37 21  0  -2289.5  1022001.5 -0.3  2 0   316  477  264
[49]  41(B05)  1 23 20  0  -1182.8 20460018.7 -0.0  1 0  399  411 1319
[50]  49(B13)  1  7  7  0  -1044.0 20460028.2 -0.0  1 0  119  477  424
[51]  65(B29)  1 11  7  0  -1197.6 20460031.3 -0.2  1 0  538  264   93
$GNGGA,094533.779,,,,,0,00,,,M,,,,0000*2A
$GNRMC,094533.779,A,,,,,,,030419,,*28
$GPGSA,A,1,,,,,,,,,,,,,,,*1E
$BDGSA,A,1,,,,,,,,,,,,,,,*0F
$GLGSA,A,1,,,,,,,,,,,,,,,*02
$GPGSV,2,1,07,06,00,000,40,07,00,000,41,13,00,000,42,17,00,000,45*7E
$GPGSV,2,2,07,19,00,000,44,28,00,000,42,30,00,000,44*49
$BDGSV,1,1,03,05,00,000,41,13,00,000,42,29,00,000,42*52
$B3CN0,0,0,0,0,0,0,0,0,0,0,0,0,0,0*4C
---00000024--- Acq_st=3 0  2019-4-3 9:45:34 
[00]  05(G06)  f 41  7  0  -4783.0  2046006.1 -0.0  2 0  982 1807  926
[01]  06(G07)  f 41  7  0   1989.1  2045997.3 -0.0  2 0 1097 1755  795
[02]  12(G13)  f 42  7  0   -119.7  2046000.1 -0.1  2 0 1456 2560 1271
[03]  16(G17)  f 45  7  0  -2229.4  2046002.8 -0.0  2 0 3176 4248 2350
[04]  18(G19)  f 44  7  0  -3459.7  2046004.4 -0.0  2 0 2040 3495 1479
[05]  27(G28)  f 42  7  0  -2793.5  2046003.5 -0.0  2 0 1769 2155  899
[06]  29(G30)  f 44  7  0    149.6  2045999.7  0.0  2 0 2473 3233 1198
[16]  38(B02)  7 30 25  0  -1103.5  4092002.6  0.0  2 0 1170  666  136
[17]  41(B05) 1f 42 22  0  -1107.3  4092002.8  0.4  2 0 1161 1569  644
[18]  49(B13) 1f 42  7  0  -1682.8  4092004.3 -0.0  2 0 1391 1770  559
[19]  65(B29) 1f 42  7  0  -1923.7  4092004.9  0.0  2 0 1454 2500 1003
[32]  86(N05) 8f 40 24  0  -1864.1  1022001.2  0.1  2 0   622 1047  563
[33]  79(N-2)  f 32 14  0  -2295.9  1022001.4 -0.2  5 0   378  833  363
[49]  41(B05)  1 24 23  0  -1324.3 20460021.0  0.1  1 0  570  205  606
[50]  49(B13)  1  7  7  0   -422.3 20460028.1 -0.1  1 0  144  221  317
[51]  65(B29)  1  7  7  0  -1821.8 20460031.0  0.0  1 0  356  448  360
$GNGGA,094534.779,,,,,0,00,,,M,,,,0000*2D
$GNRMC,094534.779,A,,,,,,,030419,,*2F
$GPGSA,A,1,,,,,,,,,,,,,,,*1E
$BDGSA,A,1,,,,,,,,,,,,,,,*0F
$GLGSA,A,1,,,,,,,,,,,,,,,*02
$GPGSV,2,1,07,06,00,000,41,07,00,000,41,13,00,000,42,17,00,000,45*7F
$GPGSV,2,2,07,19,00,000,44,28,00,000,42,30,00,000,44*49
$BDGSV,1,1,04,02,00,000,30,05,00,000,42,13,00,000,42,29,00,000,42*67
$B3CN0,0,0,0,0,0,0,0,0,0,0,0,0,0,0*4C
---00000025--- Acq_st=3 0  2019-4-3 9:45:35 
[00]  05(G06)  f 41  7  0  -4776.3  2046006.1  0.2  2 0  545 1144  545
[01]  06(G07)  f 42  7  0   1990.0  2045997.3 -0.1  2 0 1281 1705 1136
[02]  12(G13)  f 43  7  0   -112.5  2046000.1 -0.0  2 0 1469 2496 1024
[03]  16(G17)  f 45  7  0  -2223.8  2046002.9  0.0  2 0 2372 3966 2132
[04]  18(G19)  f 45  7  0  -3451.0  2046004.4 -0.0  2 0 1766 2753 1204
[05]  27(G28)  f 43  7  0  -2784.3  2046003.5 -0.0  2 0 1763 2340  846
[06]  29(G30)  f 44  7  0    157.4  2045999.7  0.0  2 0 2414 3317 1596
[16]  38(B02)  f 35 22  0  -1108.7  4092002.6 -0.0  2 0 1283  702   78
[17]  41(B05) 1f 41 24  0  -1095.9  4092002.7 -0.0  2 0  946 1192  262
[18]  49(B13) 1f 42  7  0  -1673.1  4092004.3 -0.0  2 0 1572 1865  913
[19]  65(B29) 1f 43  7  0  -1914.7  4092004.9  0.0  2 0 1536 2027  795
[32]  86(N05) 8f 40 24  0  -1861.1  1022001.2 -0.3  2 0   520  937  356
[33]  79(N-2)  f 37 15  0  -2289.7  1022001.4  0.0  2 0   435  584  534
[49]  41(B05)  1 23 25  0   -925.4 20460023.4 -0.1  1 0  442  159  621
[50]  49(B13)  1  9  7  0   -962.8 20460028.8 -0.0  1 0  411  396  216
[51]  65(B29)  1  9  7  0  -1674.1 20460028.8 -0.0  1 0  509  319  209
$GNGGA,094535.779,,,,,0,00,,,M,,,,0000*2C
$GNRMC,094535.779,A,,,,,,,030419,,*2E
$GPGSA,A,1,,,,,,,,,,,,,,,*1E
$BDGSA,A,1,,,,,,,,,,,,,,,*0F
$GLGSA,A,1,,,,,,,,,,,,,,,*02
$GPGSV,2,1,07,06,00,000,41,07,00,000,42,13,00,000,43,17,00,000,45*7D
$GPGSV,2,2,07,19,00,000,45,28,00,000,43,30,00,000,44*49
$BDGSV,1,1,04,02,00,000,34,05,00,000,41,13,00,000,42,29,00,000,43*61
$B3CN0,0,0,0,0,0,0,0,0,0,0,0,0,0,0*4C
---00000026--- Acq_st=3 0  2019-4-3 9:45:36 
[00]  05(G06)  f 39  7  0  -4776.2  2046006.2  0.1  2 0 1573 1820  728
[01]  06(G07)  f 41  7  0   1985.8  2045997.4 -0.1  2 0  509 1497 1032
[02]  12(G13)  f 42  7  0   -123.0  2046000.1  0.0  2 0 1292 1911  837
[03]  16(G17)  f 46  7  0  -2231.0  2046002.9 -0.0  2 0 1982 3343 1740
[04]  18(G19)  f 44  7  0  -3460.8  2046004.4  0.0  2 0 2422 3964 2071
[05]  27(G28)  f 43  7  0  -2791.8  2046003.5  0.0  2 0 2017 2801 1216
[06]  29(G30)  f 44  7  0    145.9  2045999.7 -0.0  2 0 2171 3217 1311
[16]  38(B02)  f 32 26  0  -1107.8  4092002.7 -0.0  2 0 1199  419  324
[17]  41(B05) 1f 41 19  0  -1106.2  4092002.7  0.2  2 0 1046 1754  655
[18]  49(B13) 1f 42  7  0  -1680.2  4092004.3  0.1  2 0 1486 1724  848
[19]  65(B29) 1f 43  7  0  -1925.0  4092004.9  0.0  2 0 1047 1232  453
[32]  86(N05) 8f 40 24  0  -1865.8  1022001.2 -0.0  2 0   943  937  675
[33]  79(N-2)  f 37 14  0  -2296.4  1022001.4  0.1  2 0   169  395  185
$GNGGA,094536.779,,,,,0,00,,,M,,,,0000*2F
$GNRMC,094536.779,A,,,,,,,030419,,*2D
$GPGSA,A,1,,,,,,,,,,,,,,,*1E
$BDGSA,A,1,,,,,,,,,,,,,,,*0F
$GLGSA,A,1,,,,,,,,,,,,,,,*02
$GPGSV,2,1,07,06,00,000,39,07,00,000,41,13,00,000,42,17,00,000,46*73
$GPGSV,2,2,07,19,00,000,44,28,00,000,43,30,00,000,44*48
$BDGSV,1,1,04,02,00,000,32,05,00,000,41,13,00,000,42,29,00,000,43*67
$B3CN0,0,0,0,0,0,0,0,0,0,0,0,0,0,0*4C
---00000027--- Acq_st=5 0  2019-4-3 9:45:37 
[00]  05(G06)  f 40  7  0  -4779.3  2046006.1  0.0  2 0 1147 1426  861
[01]  06(G07)  f 41  7  0   1986.7  2045997.4  0.1  2 0  188 1216  619
[02]  12(G13)  f 43  7  0   -121.3  2046000.1 -0.1  2 0  927 1720  955
[03]  16(G17)  f 45  7  0  -2225.9  2046002.8  0.0  2 0 2783 4394 2198
[04]  18(G19)  f 46  7  0  -3457.9  2046004.4  0.0  2 0 2215 3644 1830
[05]  27(G28)  f 43  7  0  -2787.8  2046003.5 -0.0  2 0 2123 2418  988
[06]  29(G30)  f 45  7  0    151.3  2045999.7  0.0  2 0 2507 3466 1635
[16]  38(B02)  f 35 28  0  -1110.0  4092002.7  0.2  2 0  970  749  293
[17]  41(B05) 1f 41 24  0  -1104.8  4092002.8  0.1  2 0 1002 1362  608
[18]  49(B13) 1f 42  8  0  -1677.4  4092004.3  0.0  2 0  992 1629  625
[19]  65(B29) 1f 42  7  0  -1924.6  4092004.9 -0.1  2 0 1580 1670  726
[32]  86(N05) 8f 40 24  0  -1861.4  1022001.2 -0.1  2 0   195  874  678
[33]  79(N-2)  f 36 17  0  -2292.3  1022001.5  0.0  2 0   476  558  186
[49]  41(B05)  1 24 25  1   -716.5 20460016.0  0.0  1 0  409  164  529
[50]  49(B13)  1  7  7  0  -1855.0 20460028.2 -0.0  1 0  656  398  255
[51]  65(B29)  1  7  7  0  -1463.4 20460032.0  0.1  1 0  685  330  342
$GNGGA,094537.779,,,,,0,00,,,M,,,,0000*2E
$GNRMC,094537.779,A,,,,,,,030419,,*2C
$GPGSA,A,1,,,,,,,,,,,,,,,*1E
$BDGSA,A,1,,,,,,,,,,,,,,,*0F
$GLGSA,A,1,,,,,,,,,,,,,,,*02
$GPGSV,2,1,07,06,00,000,40,07,00,000,41,13,00,000,43,17,00,000,45*7F
$GPGSV,2,2,07,19,00,000,46,28,00,000,43,30,00,000,45*4B
$BDGSV,1,1,04,02,00,000,35,05,00,000,41,13,00,000,42,29,00,000,42*61
$B3CN0,0,0,0,0,0,0,0,0,0,0,0,0,0,0*4C
---00000028--- Acq_st=7 0  2019-4-3 9:45:38 
[00]  05(G06)  f 39  7  0  -4774.4  2046006.2  0.2  2 0  735 1031  594
[01]  06(G07)  f 40  7  0   1990.7  2045997.3  0.1  2 0  899 1657 1136
[02]  12(G13)  f 43  7  0   -117.7  2046000.1  0.0  2 0 1557 2308 1350
[03]  16(G17)  f 45  7  0  -2224.7  2046002.8  0.0  2 0 2599 4255 2377
[04]  18(G19)  f 45  7  0  -3455.7  2046004.4  0.0  2 0 2376 3273 1357
[05]  27(G28)  f 43  7  0  -2787.1  2046003.5  0.1  2 0 1446 2074  821
[06]  29(G30)  f 45  7  0    154.5  2045999.7  0.0  2 0 1800 3191 1407
[16]  38(B02)  f 35 24  0  -1094.9  4092002.7 -0.8  2 0 1127  672  268
[17]  41(B05) 1f 41 18  0  -1096.1  4092002.7 -0.3  2 0  939 1423  777
[18]  49(B13) 1f 42  7  0  -1676.2  4092004.3  0.0  2 0 1243 1579  622
[19]  65(B29) 1f 43  7  0  -1919.8  4092004.9  0.0  2 0 1346 1663  747
[32]  86(N05) 8f 40 22  0  -1858.6  1022001.2 -0.0  2 0   456  822  417
[33]  79(N-2)  f 36 13  0  -2290.7  1022001.5 -0.0  2 0   492  632  386
[49]  41(B05)  1 23 16  1   -876.9 20460018.1  0.1  1 0 1118  359  653
[50]  49(B13)  1  7  7  0  -1869.6 20460026.7  0.0  1 0  234   92  275
[51]  65(B29)  1  7  7  0  -1646.5 20460032.5 -0.1  1 0  158  252  230
$GNGGA,094538.779,,,,,0,00,,,M,,,,0000*21
$GNRMC,094538.779,A,,,,,,,030419,,*23
$GPGSA,A,1,,,,,,,,,,,,,,,*1E
$BDGSA,A,1,,,,,,,,,,,,,,,*0F
$GLGSA,A,1,,,,,,,,,,,,,,,*02
$GPGSV,2,1,07,06,00,000,39,07,00,000,40,13,00,000,43,17,00,000,45*70
$GPGSV,2,2,07,19,00,000,45,28,00,000,43,30,00,000,45*48
$BDGSV,1,1,04,02,00,000,35,05,00,000,41,13,00,000,42,29,00,000,43*60
$B3CN0,0,0,0,0,0,0,0,0,0,0,0,0,0,0*4C
$GLGSV,1,1,01,26,00,000,40*54
---00000029--- Acq_st=3 0  2019-4-3 9:45:39 
[00]  05(G06)  f 38  7  0  -4772.8  2046006.1  0.1  2 0 1060 1099  242
[01]  06(G07)  f 40  7  0   1979.7  2045997.4 -0.2  2 0 1039 1400  506
[02]  12(G13)  f 42  7  0   -116.8  2046000.1 -0.0  2 0  895 2295 1427
[03]  16(G17)  f 45  7  0  -2227.7  2046002.8 -0.0  2 0 2633 4172 2215
[04]  18(G19)  f 45  7  0  -3456.9  2046004.4 -0.1  2 0 2384 3315 1586
[05]  27(G28)  f 42  7  0  -2787.9  2046003.6 -0.0  2 0 1395 2439 1388
[06]  29(G30)  f 45  7  0    151.6  2045999.7 -0.0  2 0 1838 2850 1077
[16]  38(B02) 1f 37 24  0  -1099.9  4092002.8  0.6  2 0  961  761  266
[17]  41(B05) 1f 41 25  0  -1102.9  4092002.8 -0.4  2 0 1406 1562  543
[18]  49(B13) 1f 41  7  0  -1676.3  4092004.3 -0.0  2 0  951 1494  556
[19]  65(B29) 1f 42  7  0  -1919.6  4092004.9  0.0  2 0 1102 1541  590
[32]  86(N05) 8f 39 24  0  -1861.8  1022001.2 -0.1  2 0   566  920  485
[33]  79(N-2)  f 34 16  0  -2291.1  1022001.4  0.0  2 0   184  187  235
[49]  41(B05)  1 23 23  1   -351.1 20460024.5  0.1  1 0  544   55  385
[50]  49(B13)  1  7  7  0  -2260.0 20460028.2  0.0  1 0  724 1240  622
[51]  65(B29)  1  7  7  0  -2206.9 20460029.9  0.1  1 0  672  754  535
$GNGGA,094539.779,,,,,0,00,,,M,,,,0000*20
$GNRMC,094539.779,A,,,,,,,030419,,*22
$GPGSA,A,1,,,,,,,,,,,,,,,*1E
$BDGSA,A,1,,,,,,,,,,,,,,,*0F
$GLGSA,A,1,,,,,,,,,,,,,,,*02
$GPGSV,2,1,07,06,00,000,38,07,00,000,40,13,00,000,42,17,00,000,45*70
$GPGSV,2,2,07,19,00,000,45,28,00,000,42,30,00,000,45*49
$BDGSV,1,1,04,02,00,000,37,05,00,000,41,13,00,000,41,29,00,000,42*60
$B3CN0,0,0,0,0,0,0,0,0,0,0,0,0,0,0*4C
$GLGSV,1,1,01,26,00,000,39*5A
---00000030--- Acq_st=3 0  2019-4-3 9:45:40 
[00]  05(G06)  f 38  7  0  -4778.1  2046006.2  0.3  2 0 1395 1494  612
[01]  06(G07)  f 39  7  0   1982.7  2045997.5 -0.2  2 0  913 1310  734
[02]  12(G13)  f 43  7  0   -117.7  2046000.1  0.1  2 0 1248 2195  881
[03]  16(G17)  f 45  7  0  -2229.2  2046002.8 -0.0  2 0 2947 4097 2025
[04]  18(G19)  f 45  7  0  -3458.8  2046004.4  0.0  2 0 2523 3237 1030
[05]  27(G28)  f 42  7  0  -2788.3  2046003.6 -0.0  2 0 1145 2214  999
[06]  29(G30)  f 44  7  0    150.5  2045999.7 -0.0  2 0 1982 3103 1512
[16]  38(B02) 1f 37 26  0  -1099.2  4092002.8 -0.6  2 0  826  760  162
[17]  41(B05) 1f 42 25  0  -1102.9  4092002.8  0.2  2 0 1174 1428  640
[18]  49(B13) 1f 41  7  0  -1678.0  4092004.3  0.1  2 0  946 1437  564
[19]  65(B29) 1f 42  7  0  -1920.7  4092004.9  0.0  2 0 1102 1433  743
[32]  86(N05) 8f 39 23  0  -1863.5  1022001.1  0.0  2 0   756  858  423
[33]  79(N-2)  f 33 16  0  -2293.5  1022001.4  0.0  2 0   155  551  308
[48]  38(B02)  1 10 19  0  -1178.9 20460019.5 -0.1  1 0  273  746  279
[49]  41(B05)  1 26 24  0   -185.1 20460023.5 -0.1  1 0  722  829  759
[50]  49(B13)  1  7  7  0  -2760.4 20460028.1 -0.2  1 0  496  374   90
[51]  65(B29)  1  7  7  0  -2484.9 20460032.2 -0.0  1 0  585  414  334
$GNGGA,094540.779,,,,,0,00,,,M,,,,0000*2E
$GNRMC,094540.779,A,,,,,,,030419,,*2C
$GPGSA,A,1,,,,,,,,,,,,,,,*1E
$BDGSA,A,1,,,,,,,,,,,,,,,*0F
$GLGSA,A,1,,,,,,,,,,,,,,,*02
$GPGSV,2,1,07,06,00,000,38,07,00,000,39,13,00,000,43,17,00,000,45*7F
$GPGSV,2,2,07,19,00,000,45,28,00,000,42,30,00,000,44*48
$BDGSV,1,1,04,02,00,000,37,05,00,000,42,13,00,000,41,29,00,000,42*63
$B3CN0,0,0,0,0,0,0,0,0,0,0,0,0,0,0*4C
$GLGSV,1,1,01,26,00,000,39*5A
---00000031--- Acq_st=3 0  2019-4-3 9:45:41 
[00]  05(G06)  f 38  7  0  -4767.8  2046006.1 -0.5  2 0  658 1234  699
[01]  06(G07)  f 37  7  0   1994.3  2045997.4 -0.1  2 0  268  786  730
[02]  12(G13)  f 43  7  0   -115.3  2046000.1 -0.1  2 0 1284 1974 1143
[03]  16(G17)  f 46  7  0  -2223.1  2046002.8  0.0  2 0 2982 4373 2374
[04]  18(G19)  f 44  7  0  -3453.4  2046004.4 -0.1  2 0 2124 3461 1863
[05]  27(G28)  f 41  7  0  -2784.3  2046003.7  0.1  2 0  695 1274  447
[06]  29(G30)  f 44  8  0    158.9  2045999.7 -0.0  2 0 2036 3140 1077
[16]  38(B02) 1f 36 26  0  -1095.4  4092002.7  0.2  2 0  934  742  840
[17]  41(B05) 1f 42 13  0  -1098.5  4092002.9 -0.0  2 0 1028 1911 1241
[18]  49(B13) 1f 42  7  0  -1675.7  4092004.3 -0.0  2 0 1071 1357  406
[19]  65(B29) 1f 42  7  0  -1912.7  4092004.9  0.0  2 0 1612 1995 1109
[32]  86(N05) 8f 40 23  0  -1855.0  1022001.1  0.1  2 0   371  930  670
[33]  79(N-2)  f 31 13  0  -2287.5  1022001.8  0.0  5 0   111  476  285
[48]  38(B02)  1 14 18  0  -1088.2 20460016.2 -0.0  1 0  475  139  205
$GNGGA,094541.779,,,,,0,00,,,M,,,,0000*2F
$GNRMC,094541.779,A,,,,,,,030419,,*2D
$GPGSA,A,1,,,,,,,,,,,,,,,*1E
$BDGSA,A,1,,,,,,,,,,,,,,,*0F
$GLGSA,A,1,,,,,,,,,,,,,,,*02
$GPGSV,2,1,07,06,00,000,38,07,00,000,37,13,00,000,43,17,00,000,46*72
$GPGSV,2,2,07,19,00,000,44,28,00,000,41,30,00,000,44*4A
$BDGSV,1,1,04,02,00,000,36,05,00,000,42,13,00,000,42,29,00,000,42*61
$B3CN0,0,0,0,0,0,0,0,0,0,0,0,0,0,0*4C
$GLGSV,1,1,01,26,00,000,40*54
---00000032--- Acq_st=3 0  2019-4-3 9:45:42 
[00]  05(G06)  f 38  7  0  -4775.9  2046006.2  0.2  2 0  961  719   71
[01]  06(G07)  f 38  7  0   1995.8  2045997.4  0.4  2 0  495 1052  305
[02]  12(G13)  f 43  7  0   -113.9  2046000.1 -0.0  2 0 1257 1335  230
[03]  16(G17)  f 45  7  0  -2223.1  2046002.8  0.0  2 0 2747 4154 1783
[04]  18(G19)  f 44  7  0  -3452.9  2046004.4  0.1  2 0 1312 2620 1304
[05]  27(G28)  f 40  7  0  -2783.6  2046003.7 -0.1  2 0  639 1765 1049
[06]  29(G30)  f 44  7  0    159.8  2045999.8 -0.0  2 0 2221 3260 1513
[16]  38(B02) 1f 37 27  0  -1093.7  4092002.8 -0.6  2 0  745  807  446
[17]  41(B05) 1f 42 26  0  -1099.2  4092002.8 -0.5  2 0 1142 1039  445
[18]  49(B13) 1f 41  7  0  -1675.5  4092004.3 -0.0  2 0  904 1745  695
[19]  65(B29) 1f 42  7  0  -1912.0  4092004.9 -0.0  2 0 1670 1889  797
[32]  86(N05) 8f 41 23  0  -1853.5  1022001.1 -0.1  2 0   497 1204  781
[33]  79(N-2)  f 21  7  0  -2446.6  1022001.6 -0.0 10 0   304  402  265
[48]  38(B02)  1 17 10  0   -682.0 20460019.6  0.0  1 0  450  262  496
[49]  41(B05)  1 26 23  0  -1009.0 20460019.2  0.0  1 0   92  985  603
[50]  49(B13)  1  7  7  0  -1667.7 20460025.8  0.0  1 0  418  421  580
[51]  65(B29)  1  7  7  0  -1938.5 20460032.2 -0.1  1 0  506  290  339
$GNGGA,094542.779,,,,,0,00,,,M,,,,0000*2C
$GNRMC,094542.779,A,,,,,,,030419,,*2E
$GPGSA,A,1,,,,,,,,,,,,,,,*1E
$BDGSA,A,1,,,,,,,,,,,,,,,*0F
$GLGSA,A,1,,,,,,,,,,,,,,,*02
$GPGSV,2,1,07,06,00,000,38,07,00,000,38,13,00,000,43,17,00,000,45*7E
$GPGSV,2,2,07,19,00,000,44,28,00,000,40,30,00,000,44*4B
$BDGSV,1,1,04,02,00,000,37,05,00,000,42,13,00,000,41,29,00,000,42*63
$B3CN0,0,0,0,0,0,0,0,0,0,0,0,0,0,0*4C
$GLGSV,1,1,01,26,00,000,41*55
---00000033--- Acq_st=3 0  2019-4-3 9:45:43 
[00]  05(G06)  f 37  7  0  -4779.5  2046006.2  0.8  2 0  710 1307  749
[01]  06(G07)  f 38  7  0   1992.1  2045997.3 -0.1  2 0  765  982  644
[02]  12(G13)  f 42  7  0   -111.8  2046000.1 -0.0  2 0 1318 2102  922
[03]  16(G17)  f 45  7  0  -2221.4  2046002.8  0.0  2 0 2593 3892 1754
[04]  18(G19)  f 43  7  0  -3448.8  2046004.4  0.0  2 0 1413 2126  835
[05]  27(G28)  f 39  7  0  -2781.0  2046003.6 -0.0  2 0  745 1432  752
[06]  29(G30)  f 44  7  0    160.8  2045999.7  0.0  2 0 1526 2951 1461
[16]  38(B02) 1f 37 25  0  -1088.2  4092002.8 -0.7  2 0  760  561  420
[17]  41(B05) 1f 41 13  0  -1099.1  4092002.9  0.5  2 0  932 1670 1029
[18]  49(B13) 1f 41  9  0  -1670.7  4092004.2 -0.1  2 0 1332 1771  541
[19]  65(B29) 1f 42 11  0  -1910.3  4092004.9  0.0  2 0 1863 1836 1022
[32]  86(N05) 8f 41 23  0  -1851.9  1022001.1 -0.2  2 0   787 1247  610
[33]  79(N-2)  f  7  7  0  -2626.2  1022001.4  0.1 10 0   177  169  160
[48]  38(B02)  1 14 36  1  -1065.0 20460024.6  0.0  1 0  228  125  510
[49]  41(B05)  1 23 19  1   -986.2 20460020.8 -0.0  1 0  201  356  376
[50]  49(B13)  1  7  7  0  -1483.0 20460026.0 -0.0  1 0  502  689  812
[51]  65(B29)  1  7  7  0  -1944.7 20460029.5  0.1  1 0  558  454   85
$GNGGA,094543.779,,,,,0,00,,,M,,,,0000*2D
$GNRMC,094543.779,A,,,,,,,030419,,*2F
$GPGSA,A,1,,,,,,,,,,,,,,,*1E
$BDGSA,A,1,,,,,,,,,,,,,,,*0F
$GLGSA,A,1,,,,,,,,,,,,,,,*02
$GPGSV,2,1,07,06,00,000,37,07,00,000,38,13,00,000,42,17,00,000,45*70
$GPGSV,2,2,07,19,00,000,43,28,00,000,39,30,00,000,44*42
$BDGSV,1,1,04,02,00,000,37,05,00,000,41,13,00,000,41,29,00,000,42*60
$B3CN0,0,0,0,0,0,0,0,0,0,0,0,0,0,0*4C
$GLGSV,1,1,01,26,00,000,41*55
---00000034--- Acq_st=3 0  2019-4-3 9:45:44 
[00]  05(G06)  f 37  7  0  -4777.3  2046006.2 -0.3  2 0 1058  832  624
[01]  06(G07)  f 39  7  0   1982.4  2045997.3 -0.2  2 0 1043 1065  122
[02]  12(G13)  f 42  9  0   -121.4  2046000.1  0.0  2 0 1253 1959  891
[03]  16(G17)  f 45  7  0  -2228.9  2046002.8 -0.0  2 0 2603 4212 2113
[04]  18(G19)  f 43  7  0  -3458.6  2046004.4 -0.0  2 0 1391 2232  784
[05]  27(G28)  f 40  7  0  -2790.3  2046003.6  0.0  2 0 1346 1673  870
[06]  29(G30)  f 44  7  0    154.3  2045999.7  0.0  2 0 1701 3062 1210
[16]  38(B02) 1f 37 26  0  -1100.7  4092002.7  0.5  2 0 1122 1188  229
[17]  41(B05) 1f 42 25  0  -1107.6  4092002.7 -0.3  2 0 1207 1831  714
[18]  49(B13) 1f 42  7  0  -1676.1  4092004.3  0.0  2 0 1473 1482  389
[19]  65(B29) 1f 43  7  0  -1922.5  4092004.9  0.0  2 0 1509 1905  782
[32]  86(N05) 8f 41 23  0  -1861.5  1022001.1 -0.1  2 0   741 1425  805
[33]  79(N-2)  f  7 17  0  -2728.9  1022001.8  0.2 10 0   332   90  199
[49]  41(B05)  1 24 25  0   -928.9 20460021.9  0.0  1 0  531  501  689
[50]  49(B13)  1  7  7  0  -1276.0 20460026.8 -0.0  1 0  295  536  510
[51]  65(B29)  1  7  7  0  -1994.2 20460030.5  0.2  1 0  593  507  687
$GNGGA,094544.779,,,,,0,00,,,M,,,,0000*2A
$GNRMC,094544.779,A,,,,,,,030419,,*28
$GPGSA,A,1,,,,,,,,,,,,,,,*1E
$BDGSA,A,1,,,,,,,,,,,,,,,*0F
$GLGSA,A,1,,,,,,,,,,,,,,,*02
$GPGSV,2,1,07,06,00,000,37,07,00,000,39,13,00,000,42,17,00,000,45*71
$GPGSV,2,2,07,19,00,000,43,28,00,000,40,30,00,000,44*4C
$BDGSV,1,1,04,02,00,000,37,05,00,000,42,13,00,000,42,29,00,000,43*61
$B3CN0,0,0,0,0,0,0,0,0,0,0,0,0,0,0*4C
$GLGSV,1,1,01,26,00,000,41*55
---00000035--- Acq_st=3 0  2019-4-3 9:45:45 
[00]  05(G06)  f 37  7  0  -4788.9  2046006.1 -0.6  2 0  815  947  553
[01]  06(G07)  f 39  7  0   1980.2  2045997.3  0.1  2 0 1327 1668  326
[02]  12(G13)  f 43  7  0   -121.7  2046000.1  0.0  2 0 1414 2147  742
[03]  16(G17)  f 44  7  0  -2232.9  2046002.9  0.0  2 0 2169 3631 2010
[04]  18(G19)  f 43  7  0  -3465.1  2046004.4 -0.0  2 0 1463 2756 1462
[05]  27(G28)  f 41  7  0  -2795.9  2046003.6  0.1  2 0  474 1468  967
[06]  29(G30)  f 44  7  0    149.5  2045999.8 -0.0  2 0 1827 3353 1806
[16]  38(B02) 1f 38 20  0  -1108.1  4092002.6  0.5  2 0  941 1114  656
[17]  41(B05) 1f 42 36  0  -1110.4  4092002.8  0.6  2 0 1025 1488  806
[18]  49(B13) 1f 42  7  0  -1681.1  4092004.3  0.0  2 0  909 1781  763
[19]  65(B29) 1f 43  7  0  -1925.6  4092004.9 -0.1  2 0 1521 1771  553
[32]  86(N05) 8f 40 24  0  -1866.0  1022001.2  0.0  2 0   278  899  726
[33]  79(N-2)  f  7  7  0  -2774.7  1022001.8 -0.0 10 0   307   48  264
[48]  38(B02)  1 22 16  1  -1035.7 20460017.3 -0.0  1 0  695  193  392
[49]  41(B05)  1 24 25  1  -1027.4 20460024.3  0.1  1 0  734  308  598
[50]  49(B13)  1  7  7  0  -1857.0 20460028.5  0.1  1 0  184  488  110
[51]  65(B29)  1  7  7  0  -1811.8 20460029.7 -0.0  1 0   76  169  185
$GNGGA,094545.779,,,,,0,00,,,M,,,,0000*2B
$GNRMC,094545.779,A,,,,,,,030419,,*29
$GPGSA,A,1,,,,,,,,,,,,,,,*1E
$BDGSA,A,1,,,,,,,,,,,,,,,*0F
$GLGSA,A,1,,,,,,,,,,,,,,,*02
$GPGSV,2,1,07,06,00,000,37,07,00,000,39,13,00,000,43,17,00,000,44*71
$GPGSV,2,2,07,19,00,000,43,28,00,000,41,30,00,000,44*4D
$BDGSV,1,1,04,02,00,000,38,05,00,000,42,13,00,000,42,29,00,000,43*6E
$B3CN0,0,0,0,0,0,0,0,0,0,0,0,0,0,0*4C
$GLGSV,1,1,01,26,00,000,40*54
---00000036--- Acq_st=7 0  2019-4-3 9:45:46 
[00]  05(G06)  f 38  7  0  -4787.0  2046006.2 -0.5  2 0 1003 1562 1231
[01]  06(G07)  f 41  7  0   1988.5  2045997.3 -0.0  2 0  929 1317  661
[02]  12(G13)  f 43  8  0   -115.3  2046000.1 -0.0  2 0 1516 2209 1061
[03]  16(G17)  f 45  7  0  -2226.6  2046002.8 -0.1  2 0 2660 3914 2070
[04]  18(G19)  f 43  7  0  -3456.0  2046004.4  0.0  2 0 1061 1644  834
[05]  27(G28)  f 42  7  0  -2791.6  2046003.5  0.0  2 0 1281 1594  871
[06]  29(G30)  f 44  7  0    157.9  2045999.7  0.0  2 0 2122 2559 1102
[16]  38(B02) 1f 37 26  0  -1100.5  4092002.6  0.1  2 0  661  980  265
[17]  41(B05) 1f 41 22  0  -1104.7  4092002.7  0.3  2 0 1226 1785  662
[18]  49(B13) 1f 41  8  0  -1680.1  4092004.3 -0.0  2 0 1442 1693  698
[19]  65(B29) 1f 43  7  0  -1920.5  4092004.9  0.0  2 0 1005 1826 1050
[32]  86(N05) 8f 39 24  0  -1860.7  1022001.1 -0.4  2 0   730 1121  677
[48]  38(B02)  1 10 10  1   -813.6 20460016.1 -0.1  1 0  939  343  465
$GNGGA,094546.779,,,,,0,00,,,M,,,,0000*28
$GNRMC,094546.779,A,,,,,,,030419,,*2A
$GPGSA,A,1,,,,,,,,,,,,,,,*1E
$BDGSA,A,1,,,,,,,,,,,,,,,*0F
$GLGSA,A,1,,,,,,,,,,,,,,,*02
$GPGSV,2,1,07,06,00,000,38,07,00,000,41,13,00,000,43,17,00,000,45*70
$GPGSV,2,2,07,19,00,000,43,28,00,000,42,30,00,000,44*4E
$BDGSV,1,1,04,02,00,000,37,05,00,000,41,13,00,000,41,29,00,000,43*61
$B3CN0,0,0,0,0,0,0,0,0,0,0,0,0,0,0*4C
$GLGSV,1,1,01,26,00,000,39*5A
---00000037--- Acq_st=7 0  2019-4-3 9:45:47 
[00]  05(G06)  f 38  7  0  -4774.8  2046006.1 -0.2  2 0  997 1241  521
[01]  06(G07)  f 41  7  0   1992.4  2045997.3 -0.0  2 0 1433 1674  854
[02]  12(G13)  f 43  7  0   -116.7  2046000.1  0.0  2 0 1449 2032  499
[03]  16(G17)  f 45  7  0  -2223.5  2046002.8  0.0  2 0 3004 4195 1710
[04]  18(G19)  f 43  7  0  -3454.1  2046004.4 -0.0  2 0 2195 3171 1759
[05]  27(G28)  f 42  7  0  -2788.0  2046003.5  0.1  2 0 1137 1462  541
[06]  29(G30)  f 44  7  0    161.5  2045999.7  0.1  2 0 2159 3079 2088
[16]  38(B02) 1f 37 26  0  -1100.3  4092002.7  0.7  2 0  695  945  435
[17]  41(B05) 1f 42 21  0  -1100.5  4092002.9 -0.2  2 0 1342 1544  480
[18]  49(B13) 1f 41 12  0  -1674.8  4092004.3 -0.0  2 0  951 1360  701
[19]  65(B29) 1f 43  7  0  -1916.5  4092004.9 -0.0  2 0 2007 2111 1203
[32]  86(N05) 8f 40 23  0  -1856.7  1022001.1 -0.0  2 0   750  946  352
[48]  38(B02)  1 10 10  0   -809.2 20460022.6 -0.3  1 0  354  471  306
[49]  41(B05)  1 25 24  0   -754.5 20460020.1 -0.0  1 0  252  168  527
[50]  49(B13)  1  7  9  0  -1270.4 20460028.4  0.1  1 0  384  667  191
[51]  65(B29)  1  7  7  0   -979.2 20460031.3  0.1  1 0  675  612  434
$GNGGA,094547.779,,,,,0,00,,,M,,,,0000*29
$GNRMC,094547.779,A,,,,,,,030419,,*2B
$GPGSA,A,1,,,,,,,,,,,,,,,*1E
$BDGSA,A,1,,,,,,,,,,,,,,,*0F
$GLGSA,A,1,,,,,,,,,,,,,,,*02
$GPGSV,2,1,07,06,00,000,38,07,00,000,41,13,00,000,43,17,00,000,45*70
$GPGSV,2,2,07,19,00,000,43,28,00,000,42,30,00,000,44*4E
$BDGSV,1,1,04,02,00,000,37,05,00,000,42,13,00,000,41,29,00,000,43*62
$B3CN0,0,0,0,0,0,0,0,0,0,0,0,0,0,0*4C
$GLGSV,1,1,01,26,00,000,40*54
---00000038--- Acq_st=3 0  2019-4-3 9:45:48 
[00]  05(G06)  f 38  7  0  -4782.4  2046006.1 -0.0  2 0  721 1206  788
[01]  06(G07)  f 40  7  0   1986.4  2045997.3 -0.0  2 0 1517 1714  824
[02]  12(G13)  f 42  7  0   -123.1  2046000.1  0.0  2 0 1579 1892  547
[03]  16(G17)  f 45  7  0  -2232.0  2046002.8 -0.0  2 0 3505 4446 2104
[04]  18(G19)  f 44  7  0  -3462.4  2046004.4  0.0  2 0 2239 2560 1009
[05]  27(G28)  f 42  7  0  -2796.1  2046003.5 -0.0  2 0 1438 2062  983
[06]  29(G30)  f 44  7  0    152.8  2045999.8 -0.0  2 0 2155 3106 1322
[16]  38(B02) 1f 37 23  0  -1105.0  4092002.6  0.6  2 0  611  480  153
[17]  41(B05) 1f 41 23  0  -1108.9  4092002.8 -0.1  2 0  865 1310  438
[18]  49(B13) 1f 42  7  0  -1682.7  4092004.3  0.0  2 0 1101 1391  454
[19]  65(B29) 1f 43  7  0  -1928.3  4092004.9 -0.1  2 0 1815 2195  886
[32]  86(N05) 8f 40 22  0  -1864.2  1022001.1 -0.2  2 0   511 1026  549
[48]  38(B02)  1 20 10  0   -869.6 20460020.4  0.1  1 0  384  633  464
[49]  41(B05)  1 24 24  0   -741.7 20460019.8 -0.0  1 0  672  532  550
[50]  49(B13)  1  7  7  0   -638.2 20460027.7  0.1  1 0  561  426  600
[51]  65(B29)  1  7 12  0   -739.8 20460031.5  0.1  1 0   30  227  319
$GNGGA,094548.648,2944.9159,N,10633.0716,E,1,09,2.0,340.8,M,,,,0000*13
$GNRMC,094548.648,A,2944.9159,N,10633.0716,E,0.82,0.00,030419,,*1E
$GPGSA,A,3,06,07,13,17,19,28,30,,,,,,2.8,2.0,1.9*36
$BDGSA,A,3,13,29,,,,,,,,,,,2.8,2.0,1.9*2A
$GLGSA,A,3,,,,,,,,,,,,,2.8,2.0,1.9*2E
$GPGSV,2,1,07,06,00,000,38,07,00,000,40,13,00,000,42,17,00,000,45*70
$GPGSV,2,2,07,19,00,000,44,28,00,000,42,30,00,000,44*49
$BDGSV,1,1,04,02,00,000,37,05,00,000,41,13,00,000,42,29,00,000,43*62
$B3CN0,0,0,0,0,0,0,0,0,0,0,0,0,0,0*4C
$GLGSV,1,1,01,26,00,000,40*54
---00000039--- Acq_st=3 0  2019-4-3 9:45:49 
[00]  05(G06)  f 40  7  0  -4777.8  2046006.2 -0.0  2 0  619 1035  554
[01]  06(G07)  f 41  7  0   1990.2  2045997.3  0.0  2 0  948 1466  575
[02]  12(G13)  f 42  7  0   -117.0  2046000.1  0.0  2 0 1404 2206  819
[03]  16(G17)  f 45  7  0  -2225.0  2046002.8  0.0  2 0 2245 3839 1660
[04]  18(G19)  f 44  7  0  -3456.0  2046004.4  0.0  2 0 2018 3098 1697
[05]  27(G28)  f 43  7  0  -2787.3  2046003.5  0.0  2 0 1651 2179  677
[06]  29(G30)  f 44  7  0    158.6  2045999.8 -0.0  2 0 1678 2917 1757
[16]  38(B02) 1f 37 26  0  -1101.2  4092002.8  0.7  2 0  432  899  150
[17]  41(B05) 1f 42 27  0  -1100.9  4092002.7 -0.0  2 0 1397 1748  451
[18]  49(B13) 1f 42  7  0  -1679.3  4092004.3 -0.0  2 0 1304 1710  606
[19]  65(B29) 1f 43  7  0  -1919.6  4092004.9  0.0  2 0 1830 2207 1002
[32]  86(N05) 8f 41 23  0  -1857.8  1022001.2  0.1  2 0   743 1148  500
[48]  38(B02)  f 14 10  0   -911.6 20460014.0 -0.0  2 0  684  545  223
[49]  41(B05)  1 24 26  0   -234.3 20460017.2 -0.0  1 0  349  235  179
[50]  49(B13)  1  7  7  0   -652.0 20460028.6  0.0  1 0  297  176  330
[51]  65(B29)  1  7  7  0   -450.6 20460029.7 -0.2  1 0  323  468  546
BDS IONO corr PRN[13] 59.32 214.04 39.85 294367.88
usrllh latitude:0.519211 longitude:1.859669
 source:0 ion_pt: a0:0.000000 a1:0.000000 a2:-0.000002 a3:0.000004 b0:153600.000000 b1:-720896.000000 b2:2621440.000000 b3:-720896.000000 
BDS IONO corr PRN[29] 53.70 274.17 53.54 294367.92
usrllh latitude:0.519211 longitude:1.859669
 source:0 ion_pt: a0:0.000000 a1:0.000000 a2:-0.000002 a3:0.000004 b0:153600.000000 b1:-720896.000000 b2:2621440.000000 b3:-720896.000000 
Refix G06: 2, 294367.915392, -4778
Refix G07: 2, 294367.927118, 1989
Refix G13: 2, 294367.915980, -115
Refix G17: 2, 294367.925575, -2227
Refix G19: 2, 294367.920253, -3456
Refix G28: 2, 294367.928161, -2789
Refix G30: 2, 294367.930706, 156
$GNGGA,094550.000,2944.9125,N,10633.0641,E,1,09,1.2,359.7,M,,,,0000*1E
$GNRMC,094550.000,A,2944.9125,N,10633.0641,E,0.62,0.00,030419,,*1B
$GPGSA,A,3,06,07,13,17,19,28,30,,,,,,1.4,1.2,0.7*37
$BDGSA,A,3,13,29,,,,,,,,,,,1.4,1.2,0.7*2B
$GLGSA,A,3,,,,,,,,,,,,,1.4,1.2,0.7*2F
$GPGSV,2,1,07,06,00,000,40,07,00,000,41,13,00,000,42,17,00,000,45*7E
$GPGSV,2,2,07,19,00,000,44,28,00,000,43,30,00,000,44*48
$BDGSV,1,1,04,02,00,000,37,05,00,000,42,13,00,000,42,29,00,000,43*61
$B3CN0,0,0,0,0,0,0,0,0,0,0,0,0,0,0*4C
$GLGSV,1,1,01,26,00,000,41*55
---00000040--- Acq_st=3 0  2019-4-3 9:45:50 
[00]  05(G06)  f 40  7  0  -4788.5  2046006.1  0.1  2 0 1214 1349  516
[01]  06(G07)  f 39  7  0   1981.6  2045997.3  0.0  2 0  718  750  197
[02]  12(G13)  f 41  7  0   -123.3  2046000.1 -0.0  2 0 1125 2103 1605
[03]  16(G17)  f 45  7  0  -2234.7  2046002.9 -0.0  2 0 2264 3773 1742
[04]  18(G19)  f 44  7  0  -3463.1  2046004.4 -0.0  2 0 2526 3664 1525
[05]  27(G28)  f 43  7  0  -2797.1  2046003.5  0.1  2 0 1446 2102  950
[06]  29(G30)  f 43  7  0    152.2  2045999.8  0.0  2 0 1343 2218  865
[16]  38(B02) 1f 38 36  0  -1110.9  4092002.7 -0.9  2 0  881 1016  337
[17]  41(B05) 1f 42 22  0  -1110.5  4092002.7  0.6  2 0 1696 1735  595
[18]  49(B13) 1f 41  7  0  -1685.7  4092004.3  0.1  2 0 1375 1703  711
[19]  65(B29) 1f 43  7  0  -1927.7  4092004.9  0.0  2 0 1748 1875  516
[32]  86(N05) 8f 41 24  0  -1863.6  1022001.1  0.1  2 0   835  965  392
[48]  38(B02)  f 10 10  1  -1110.4 20460020.2  0.1  2 0  126  137  268
[49]  41(B05)  1 18 25  1    -23.7 20460016.4 -0.1  1 0  337  596  358
[50]  49(B13)  1  7  8  0    -55.5 20460027.3  0.1  1 0  384  203  400
[51]  65(B29)  1  7  7  0   -200.4 20460030.2  0.1  1 0  514  636   70
BDS IONO corr PRN[13] 59.32 214.04 39.85 294368.88
usrllh latitude:0.519210 longitude:1.859667
 source:0 ion_pt: a0:0.000000 a1:0.000000 a2:-0.000002 a3:0.000004 b0:153600.000000 b1:-720896.000000 b2:2621440.000000 b3:-720896.000000 
BDS IONO corr PRN[29] 53.70 274.17 53.54 294368.92
usrllh latitude:0.519210 longitude:1.859667
 source:0 ion_pt: a0:0.000000 a1:0.000000 a2:-0.000002 a3:0.000004 b0:153600.000000 b1:-720896.000000 b2:2621440.000000 b3:-720896.000000 
Refix G06: 2, 294368.915395, -4779
Refix G07: 2, 294368.927117, 1988
Refix G13: 2, 294368.915980, -116
Refix G17: 2, 294368.925576, -2227
Refix G19: 2, 294368.920255, -3457
Refix G28: 2, 294368.928162, -2789
Refix G30: 2, 294368.930706, 156
$GNGGA,094551.000,2944.9115,N,10633.0616,E,1,09,1.2,359.5,M,,,,0000*1C
$GNRMC,094551.000,A,2944.9115,N,10633.0616,E,0.62,0.00,030419,,*1B
$GPGSA,A,3,06,07,13,17,19,28,30,,,,,,1.4,1.2,0.7*37
$BDGSA,A,3,13,29,,,,,,,,,,,1.4,1.2,0.7*2B
$GLGSA,A,3,,,,,,,,,,,,,1.4,1.2,0.7*2F
$GPGSV,2,1,07,06,02,212,40,07,37,181,39,13,05,286,41,17,39,279,45*72
$GPGSV,2,2,07,19,17,261,44,28,52,336,43,30,59,227,43*46
$BDGSV,1,1,04,02,00,000,38,05,00,000,42,13,59,214,41,29,53,274,43*61
$B3CN0,0,0,0,0,0,0,0,0,0,0,0,0,0,0*4C
$GLGSV,1,1,01,26,00,000,41*55
---00000041--- Acq_st=3 0  2019-4-3 9:45:51 
[00]  05(G06)  f 40  7  0  -4772.2  2046006.2  0.1  2 0  949 1252  942
[01]  06(G07)  f 39  7  0   1990.4  2045997.3 -0.0  2 0  791 1264  606
[02]  12(G13)  f 42  7  0   -109.4  2046000.1 -0.0  2 0 1400 2075 1023
[03]  16(G17)  f 46  7  0  -2219.9  2046002.8  0.0  2 0 2632 3955 1773
[04]  18(G19)  f 44  7  0  -3450.5  2046004.4 -0.0  2 0 2513 3605 1970
[05]  27(G28)  f 43  7  0  -2781.9  2046003.5 -0.0  2 0 1939 2495  822
[06]  29(G30)  f 43  7  0    163.1  2045999.8 -0.0  2 0 1097 2334 1249
[16]  38(B02) 1f 37 24  0  -1093.0  4092002.6  0.7  2 0  695  541  127
[17]  41(B05) 1f 41 24  0  -1098.4  4092002.8 -0.1  2 0 1246 1318  507
[18]  49(B13) 1f 41  7  0  -1671.4  4092004.3 -0.0  2 0  644  911  167
[19]  65(B29) 1f 43  7  0  -1912.3  4092004.9 -0.0  2 0 1426 2038  635
[32]  86(N05) 8f 41 22  0  -1850.0  1022001.1  0.0  2 0   343  920  562
[48]  38(B02)  f 18 19  0  -1194.6 20460020.5  0.1  2 0  464  368  207
BDS IONO corr PRN[13] 59.32 214.04 39.85 294369.88
usrllh latitude:0.519210 longitude:1.859666
 source:0 ion_pt: a0:0.000000 a1:0.000000 a2:-0.000002 a3:0.000004 b0:153600.000000 b1:-720896.000000 b2:2621440.000000 b3:-720896.000000 
BDS IONO corr PRN[29] 53.70 274.17 53.54 294369.92
usrllh latitude:0.519210 longitude:1.859666
 source:0 ion_pt: a0:0.000000 a1:0.000000 a2:-0.000002 a3:0.000004 b0:153600.000000 b1:-720896.000000 b2:2621440.000000 b3:-720896.000000 
Refix G06: 2, 294369.915398, -4774
Refix G07: 2, 294369.927116, 1994
Refix G13: 2, 294369.915980, -109
Refix G17: 2, 294369.925577, -2219
Refix G19: 2, 294369.920257, -3449
Refix G28: 2, 294369.928164, -2783
Refix G30: 2, 294369.930706, 164
$GNGGA,094552.000,2944.9105,N,10633.0612,E,1,09,1.2,360.7,M,,,,0000*12
$GNRMC,094552.000,A,2944.9105,N,10633.0612,E,1.98,20191.91,,,*15
$GPGSA,A,3,06,07,13,17,19,28,30,,,,,,1.4,1.2,0.7*37
$BDGSA,A,3,13,29,,,,,,,,,,,1.4,1.2,0.7*2B
$GLGSA,A,3,,,,,,,,,,,,,1.4,1.2,0.7*2F
$GPGSV,2,1,07,06,02,212,40,07,37,181,39,13,05,286,42,17,39,279,46*72
$GPGSV,2,2,07,19,17,261,44,28,52,336,43,30,59,227,43*46
$BDGSV,2,1,05,02,00,000,37,05,00,000,41,13,59,214,41,29,53,274,43*6F
$BDGSV,2,2,05,20,03,145,00*5C
$B3CN0,0,18,0,0,0,0,0,0,0,0,0,0,0,0*75
$GLGSV,1,1,01,26,00,000,41*55
---00000042--- Acq_st=3 0  2019-4-3 9:45:52 
[00]  05(G06)  f 39  7  0  -4780.3  2046006.1  0.0  2 0  737 1143  565
[01]  06(G07)  f 38  7  0   1990.6  2045997.4 -0.3  2 0  383  549  751
[02]  12(G13)  f 43  7  0   -108.7  2046000.0  0.0  2 0  725 1979 1081
[03]  16(G17)  f 45  7  0  -2223.8  2046002.8 -0.0  2 0 3002 4099 1791
[04]  18(G19)  f 45  7  0  -3453.0  2046004.4  0.0  2 0 3131 4133 1420
[05]  27(G28)  f 43  7  0  -2784.7  2046003.5  0.0  2 0 1583 2059  553
[06]  29(G30)  f 43  7  0    162.0  2045999.8  0.1  2 0  804 1924 1266
[16]  38(B02) 1f 37 25  0  -1101.0  4092002.8 -0.4  2 0  713  542  674
[17]  41(B05) 1f 42 21  0  -1100.6  4092002.8  0.0  2 0  864 1281  317
[18]  49(B13) 1f 41  7  0  -1671.9  4092004.3 -0.1  2 0 1111 1840  796
[19]  65(B29) 1f 43  7  0  -1913.4  4092004.9  0.1  2 0 1720 1692  276
