i=1
Rf R0 Config = ff777073
Rf R1 Config = 00dffbfe
Rf R52 Config = 00dfeec0
i=2
Rf R0 Config = 007770f3
Rf R1 Config = 00df3bf6
Rf R52 Config = 00daeef0
i=3
Rf R0 Config = 007772f3
Rf R1 Config = 00dd7bfe
Rf R52 Config = 00de0ed0
i=4
Rf R0 Config = 00777273
Rf R1 Config = 00defbfe
Rf R52 Config = 00de2e20
SD initialized success
Create debug.log Failed! 3
Start Channel by LuYu
$GNGGA,000000.000,,,,,0,00,,,M,,,,0000*2B
$GNRMC,000000.000,A,,,,,,,060180,,*29
$GPGSA,A,1,,,,,,,,,,,,,,,*1E
$BDGSA,A,1,,,,,,,,,,,,,,,*0F
$GLGSA,A,1,,,,,,,,,,,,,,,*02
$B3CN0,0,0,0,0,0,0,0,0,0,0,0,0,0,0*4C
---00000001--- Acq_st=3 0  2019-4-3 9:41:46 
[00]  05(G06)  1  7  7  0  -4797.4  2046008.1 -0.0  1 0  463  371  754
[01]  06(G07)  1  7  7  0   1750.0  2045999.2 -0.0  1 0  386 1010  983
$GNGGA,000000.000,,,,,0,00,,,M,,,,0000*2B
$GNRMC,000000.000,A,,,,,,,060180,,*29
$GPGSA,A,1,,,,,,,,,,,,,,,*1E
$BDGSA,A,1,,,,,,,,,,,,,,,*0F
$GLGSA,A,1,,,,,,,,,,,,,,,*02
$B3CN0,0,0,0,0,0,0,0,0,0,0,0,0,0,0*4C
---00000002--- Acq_st=3 0  2019-4-3 9:41:47 
[00]  05(G06)  1 29  7  0  -4779.1  2046006.9  0.6  1 0 1364 1639  521
[01]  06(G07)  1 28  7  0   1902.6  2045999.2  0.4  1 0  460  858  394
[02]  12(G13)  1 27  7  0   -213.6  2046002.4  0.3  1 0 1352 2217 1223
[03]  16(G17)  1 24  7  0  -2271.6  2046005.7 -0.1  1 0 1350 2260 4101
[04]  18(G19)  1 28  7  0  -3499.9  2046007.2  0.1  1 0 1119 3215 3429
$GNGGA,000000.000,,,,,0,00,,,M,,,,0000*2B
$GNRMC,000000.000,A,,,,,,,060180,,*29
$GPGSA,A,1,,,,,,,,,,,,,,,*1E
$BDGSA,A,1,,,,,,,,,,,,,,,*0F
$GLGSA,A,1,,,,,,,,,,,,,,,*02
$B3CN0,0,0,0,0,0,0,0,0,0,0,0,0,0,0*4C
---00000003--- Acq_st=3 0  2019-4-3 9:41:48 
[00]  05(G06)  1 29  7  0  -4786.9  2046005.9  1.0  1 0 1438 1476  320
[01]  06(G07)  1 32  7  0   1907.5  2045997.4  1.0  1 0 1012 1120  587
[02]  12(G13)  7 26  7  0   -212.4  2046000.1  0.6 10 0 1807 1815  790
[03]  16(G17)  7 14  7  0  -2271.5  2046002.8  0.9 10 0 3079 3715 1374
[04]  18(G19)  1 35  7  0  -3499.7  2046004.3  1.0  1 0 3013 3582 1285
[05]  27(G28)  1 23  7  0  -2811.4  2046005.9  0.2  1 0  563 1862 1787
[06]  29(G30)  1 31  7  0     10.2  2046000.7  0.2  1 0 1835 2438 1112
[16]  38(B02)  1 27 17  0  -1250.0  4092004.7 -0.0  1 0  313  339  959
$GNGGA,000000.000,,,,,0,00,,,M,,,,0000*2B
$GNRMC,000000.000,A,,,,,,,060180,,*29
$GPGSA,A,1,,,,,,,,,,,,,,,*1E
$BDGSA,A,1,,,,,,,,,,,,,,,*0F
$GLGSA,A,1,,,,,,,,,,,,,,,*02
$GPGSV,1,1,01,13,00,000,26*4E
$B3CN0,0,0,0,0,0,0,0,0,0,0,0,0,0,0*4C
---00000004--- Acq_st=3 0  2019-4-3 9:41:49 
[00]  05(G06)  7 37  7  0  -4784.8  2046006.1  0.2  2 0  708 1270  402
[01]  06(G07)  7 33  7  0   1903.3  2045997.4  0.3  5 0  965  961  320
[02]  12(G13)  7 42  7  0   -214.8  2046000.1 -0.0  2 0 1615 1867  735
[03]  16(G17)  7 46  7  0  -2272.6  2046002.8 -0.0  2 0 2776 3704 2174
[04]  18(G19)  7 40  7  0  -3498.0  2046004.4  0.0  2 0 2969 3630 1352
[05]  27(G28)  7 24  7  0  -2807.3  2046003.5  0.7 10 0 1692 1905  829
[06]  29(G30)  7 19  7  0     11.6  2045999.9  0.8 10 0 1937 2036  982
[16]  38(B02)  1 37 23  0  -1099.4  4092003.2  0.9  1 0  559  638  445
[17]  41(B05)  1 43 25  0  -1102.1  4092004.5  1.0  1 0 1256 2096  980
$GNGGA,094150.283,,,,,0,00,,,M,,,,0000*2B
$GNRMC,094150.283,A,,,,,,,090180,,*26
$GPGSA,A,1,,,,,,,,,,,,,,,*1E
$BDGSA,A,1,,,,,,,,,,,,,,,*0F
$GLGSA,A,1,,,,,,,,,,,,,,,*02
$GPGSV,2,1,07,06,00,000,37,07,00,000,33,13,00,000,42,17,00,000,46*78
$GPGSV,2,2,07,19,00,000,40,28,00,000,24,30,00,000,19*45
$B3CN0,0,0,0,0,0,0,0,0,0,0,0,0,0,0*4C
---00000005--- Acq_st=3 0  2019-4-3 9:41:50 
[00]  05(G06)  7 42  7  0  -4767.9  2046006.1 -0.1  2 0 1210 1603  220
[01]  06(G07)  7 39  7  0   1918.7  2045997.4  0.4  2 0 1533 1780  838
[02]  12(G13)  f 43  7  0   -194.2  2046000.1 -0.1  2 0 1399 1924  969
[03]  16(G17)  7 45  7  0  -2256.3  2046002.8  0.0  2 0 3044 3775 1496
[04]  18(G19)  7 45  7  0  -3483.0  2046004.4 -0.0  2 0 2473 3486 1225
[05]  27(G28)  7 42  7  0  -2792.0  2046003.5 -0.0  2 0 1416 1902 1109
[06]  29(G30)  7 44 13  0     27.3  2045999.9  0.0  2 0 1438 2190  897
[16]  38(B02)  7 35 29  0  -1080.2  4092002.5  0.1  2 0  314  520  208
[17]  41(B05)  f 41 20  0  -1089.1  4092002.6 -0.2  2 0 1386 1455  988
[18]  49(B13)  1  7  7  0  -2182.4  4092005.9  0.0  1 0  620 1149  505
$GNGGA,094151.283,,,,,0,00,,,M,,,,0000*2A
$GNRMC,094151.283,A,,,,,,,090180,,*27
$GPGSA,A,1,,,,,,,,,,,,,,,*1E
$BDGSA,A,1,,,,,,,,,,,,,,,*0F
$GLGSA,A,1,,,,,,,,,,,,,,,*02
$GPGSV,2,1,07,06,00,000,42,07,00,000,39,13,00,000,43,17,00,000,45*72
$GPGSV,2,2,07,19,00,000,45,28,00,000,42,30,00,000,44*48
$BDGSV,1,1,02,02,00,000,35,05,00,000,41*6E
$B3CN0,0,0,0,0,0,0,0,0,0,0,0,0,0,0*4C
---00000006--- Acq_st=3 0  2019-4-3 9:41:51 
[00]  05(G06)  7 41  7  0  -4776.2  2046006.1  0.1  2 0  401 1272  952
[01]  06(G07)  7 39  7  0   1906.2  2045997.4 -0.0  2 0 1226 1829  864
[02]  12(G13)  f 42  7  0   -205.3  2046000.2  0.1  2 0 1900 2238 1194
[03]  16(G17)  7 45  7  0  -2264.7  2046002.8  0.0  2 0 2697 3971 1774
[04]  18(G19)  7 44  7  0  -3491.9  2046004.4  0.0  2 0 2070 3283 1554
[05]  27(G28)  7 42  7  0  -2801.6  2046003.6 -0.1  2 0 1619 2039 1039
[06]  29(G30)  7 43 11  0     19.7  2045999.9  0.0  2 0 1575 2056  898
[16]  38(B02)  f 35 25  0  -1090.4  4092002.5 -0.1  2 0  787 1101  278
[17]  41(B05)  f 41 26  0  -1092.2  4092002.7  0.2  2 0 1685 1688  814
[18]  49(B13)  1 25  7  0  -2206.4  4092003.7  0.5  1 0  975  852  182
[49]  41(B05)  1 22 24  0   -607.3 20460020.8 -0.0  1 0  332  141  363
$GNGGA,094152.283,,,,,0,00,,,M,,,,0000*29
$GNRMC,094152.283,A,,,,,,,090180,,*24
$GPGSA,A,1,,,,,,,,,,,,,,,*1E
$BDGSA,A,1,,,,,,,,,,,,,,,*0F
$GLGSA,A,1,,,,,,,,,,,,,,,*02
$GPGSV,2,1,07,06,00,000,41,07,00,000,39,13,00,000,42,17,00,000,45*70
$GPGSV,2,2,07,19,00,000,44,28,00,000,42,30,00,000,43*4E
$BDGSV,1,1,02,02,00,000,35,05,00,000,42*6D
$B3CN0,0,0,0,0,0,0,0,0,0,0,0,0,0,0*4C
---00000007--- Acq_st=3 0  2019-4-3 9:41:52 
[00]  05(G06)  7 40  7  0  -4780.7  2046006.2 -0.0  2 0 1349 1566  669
[01]  06(G07)  7 39  7  0   1907.0  2045997.4 -0.1  2 0 1241 1201  410
[02]  12(G13)  f 42  7  0   -212.6  2046000.2 -0.0  2 0 1144 1701  937
[03]  16(G17)  7 45  7  0  -2271.2  2046002.9  0.0  2 0 3021 4346 2272
[04]  18(G19)  7 44  7  0  -3498.2  2046004.5 -0.0  2 0 2204 2678 1008
[05]  27(G28)  7 41  7  0  -2806.5  2046003.6  0.1  2 0  807 1772  556
[06]  29(G30)  7 42  9  0     12.5  2045999.9  0.0  2 0 1288 1857  656
[16]  38(B02)  f 36 26  0  -1099.4  4092002.8 -0.2  2 0  313  472  330
[17]  41(B05)  f 41 18  0  -1099.1  4092002.7 -0.0  2 0 1344 1356  456
[18]  49(B13)  1 31  7  0  -2211.6  4092004.4  1.0  1 0  734 1455  976
[19]  65(B29)  1  0  0  0  -2000.0  4092005.0  0.0  1 0  285 1724 1885
[49]  41(B05)  1 22 23  1   -332.7 20460021.8  0.1  1 0  464  673  701
$GNGGA,094153.283,,,,,0,00,,,M,,,,0000*28
$GNRMC,094153.283,A,,,,,,,090180,,*25
$GPGSA,A,1,,,,,,,,,,,,,,,*1E
$BDGSA,A,1,,,,,,,,,,,,,,,*0F
$GLGSA,A,1,,,,,,,,,,,,,,,*02
$GPGSV,2,1,07,06,00,000,40,07,00,000,39,13,00,000,42,17,00,000,45*71
$GPGSV,2,2,07,19,00,000,44,28,00,000,41,30,00,000,42*4C
$BDGSV,1,1,02,02,00,000,36,05,00,000,41*6D
$B3CN0,0,0,0,0,0,0,0,0,0,0,0,0,0,0*4C
---00000008--- Acq_st=3 0  2019-4-3 9:41:53 
[00]  05(G06)  7 42  7  0  -4772.7  2046006.1 -0.0  2 0 1363 1745  812
[01]  06(G07)  7 40  7  0   1912.5  2045997.4  0.0  2 0 1124 1744 1093
[02]  12(G13)  f 42  7  0   -207.0  2046000.2  0.0  2 0 1358 2107  902
[03]  16(G17)  7 45  7  0  -2264.7  2046002.9 -0.0  2 0 3173 4716 2350
[04]  18(G19)  7 43  7  0  -3495.0  2046004.5 -0.1  2 0 1221 2317 1119
[05]  27(G28)  7 42  7  0  -2800.7  2046003.6  0.0  2 0 1022 2022 1000
[06]  29(G30)  7 43 13  0     22.6  2046000.0  0.0  2 0 1250 2213 1128
[16]  38(B02)  f 37 27  0  -1094.3  4092002.6 -0.4  2 0 1250 1040  282
[17]  41(B05)  f 41 20  0  -1093.9  4092002.8 -0.1  2 0 1481 1592  670
[18]  49(B13)  1 31  7  0  -2206.7  4092004.3  1.0  1 0 1201 1383  852
[19]  65(B29)  1  7  7  0  -1980.4  4092005.2  0.2  1 0 1752 2659 1290
[48]  38(B02)  1 20 13  1   -863.0 20460016.4 -0.2  1 0   33  186  611
[49]  41(B05)  1 18 25  1  -1145.2 20460023.7 -0.1  1 0  358  165  223
$GNGGA,094154.283,,,,,0,00,,,M,,,,0000*2F
$GNRMC,094154.283,A,,,,,,,090180,,*22
$GPGSA,A,1,,,,,,,,,,,,,,,*1E
$BDGSA,A,1,,,,,,,,,,,,,,,*0F
$GLGSA,A,1,,,,,,,,,,,,,,,*02
$GPGSV,2,1,07,06,00,000,42,07,00,000,40,13,00,000,42,17,00,000,45*7D
$GPGSV,2,2,07,19,00,000,43,28,00,000,42,30,00,000,43*49
$BDGSV,1,1,02,02,00,000,37,05,00,000,41*6C
$B3CN0,0,0,0,0,0,0,0,0,0,0,0,0,0,0*4C
---00000009--- Acq_st=7 0  2019-4-3 9:41:54 
[00]  05(G06)  7 41  7  0  -4773.5  2046006.1 -0.0  2 0 1576 1727  762
[01]  06(G07)  7 40  7  0   1911.9  2045997.4  0.1  2 0 1111 1283  656
[02]  12(G13)  f 42  7  0   -204.6  2046000.2  0.0  2 0 1775 2732 1225
[03]  16(G17)  7 45  7  0  -2261.9  2046002.9 -0.0  2 0 3008 4779 2499
[04]  18(G19)  7 43  7  0  -3485.6  2046004.5  0.0  2 0  974 1614  580
[05]  27(G28)  7 42  7  0  -2799.4  2046003.6 -0.0  2 0  792 2053 1073
[06]  29(G30)  7 42 14  0     22.7  2045999.9  0.0  2 0 1402 1912  734
[16]  38(B02) 1f 35 25  0  -1092.8  4092002.7  0.3  2 0  782  780  436
[17]  41(B05) 1f 41 20  0  -1088.1  4092002.8 -0.1  2 0 1123 1588  664
[18]  49(B13)  1 31  7  0  -2203.4  4092004.3  1.0  1 0  665  880  499
[19]  65(B29)  7 27  7  0  -1975.3  4092005.1  0.3 10 0  959 1835  994
[32]  79(N-2)  1 17 17  0  -2366.1  1022002.3  0.1  1 0   243  142  449
[33]  86(N05)  1 24  7  0  -2000.0  1022002.7  0.0  1 0   861  902  540
[48]  38(B02)  f 10 10  1  -1282.7 20460022.7 -0.1  2 0  648  380  764
[49]  41(B05)  1 22 24  0   -974.7 20460021.7 -0.1  1 0  405  401  593
$GNGGA,094155.283,,,,,0,00,,,M,,,,0000*2E
$GNRMC,094155.283,A,,,,,,,090180,,*23
$GPGSA,A,1,,,,,,,,,,,,,,,*1E
$BDGSA,A,1,,,,,,,,,,,,,,,*0F
$GLGSA,A,1,,,,,,,,,,,,,,,*02
$GPGSV,2,1,07,06,00,000,41,07,00,000,40,13,00,000,42,17,00,000,45*7E
$GPGSV,2,2,07,19,00,000,43,28,00,000,42,30,00,000,42*48
$BDGSV,1,1,03,02,00,000,36,05,00,000,41,29,00,000,26*53
$B3CN0,0,0,0,0,0,0,0,0,0,0,0,0,0,0*4C
---00000010--- Acq_st=7 0  2019-4-3 9:41:55 
[00]  05(G06)  7 41  7  0  -4774.3  2046006.1 -0.1  2 0 1217 1730  599
[01]  06(G07)  7 40  7  0   1915.2  2045997.5 -0.1  2 0 1067  955  581
[02]  12(G13)  f 42  7  0   -199.8  2046000.2 -0.0  2 0 1322 2183  798
[03]  16(G17)  7 45  7  0  -2261.8  2046002.9  0.0  2 0 3480 4599 2225
[04]  18(G19)  7 42  7  0  -3487.6  2046004.5 -0.0  2 0 1126 2034  900
[05]  27(G28)  7 42  7  0  -2797.7  2046003.6  0.0  2 0 1050 1832  900
[06]  29(G30)  7 42  7  0     26.8  2046000.0 -0.1  2 0  858 1772 1078
[16]  38(B02) 1f 36 23  0  -1086.5  4092002.6  0.7  2 0  870  856  310
[17]  41(B05) 1f 42 10  0  -1086.8  4092002.7  0.2  2 0  915 1044  341
[19]  65(B29)  7 44  7  0  -1976.6  4092005.1 -0.0  2 0 1516 1746  620
[32]  79(N-2)  1  7 18  0  -1987.6  1022003.1  0.1  1 0   140  217  177
[33]  86(N05)  1 38 14  0  -1983.5  1022001.3  1.0  1 0   859  657  101
[48]  38(B02)  f 20 10  1  -1476.7 20460024.6  0.0  2 0  536  666  651
$GNGGA,094156.283,,,,,0,00,,,M,,,,0000*2D
$GNRMC,094156.283,A,,,,,,,090180,,*20
$GPGSA,A,1,,,,,,,,,,,,,,,*1E
$BDGSA,A,1,,,,,,,,,,,,,,,*0F
$GLGSA,A,1,,,,,,,,,,,,,,,*02
$GPGSV,2,1,07,06,00,000,41,07,00,000,40,13,00,000,42,17,00,000,45*7E
$GPGSV,2,2,07,19,00,000,42,28,00,000,42,30,00,000,42*49
$BDGSV,1,1,03,02,00,000,36,05,00,000,42,29,00,000,44*54
$B3CN0,0,22,0,0,0,0,0,0,0,0,0,0,0,0*7C
---00000011--- Acq_st=3 0  2019-4-3 9:41:56 
[00]  05(G06)  f 41  7  0  -4769.7  2046006.1 -0.0  2 0 1216 1903 1064
[01]  06(G07)  f 40  7  0   1907.4  2045997.5  0.1  2 0 1028 1268  386
[02]  12(G13)  f 42  7  0   -206.5  2046000.2  0.1  2 0  914 2303 1368
[03]  16(G17)  f 46  7  0  -2263.0  2046002.9 -0.0  2 0 3465 4877 2592
[04]  18(G19)  f 41  7  0  -3491.7  2046004.5 -0.0  2 0 1059 1636  617
[05]  27(G28)  f 42  7  0  -2801.6  2046003.6  0.0  2 0 1466 2080  999
[06]  29(G30)  f 42 10  0     25.3  2045999.9  0.0  2 0 1272 1550  423
[16]  38(B02) 1f 35 25  0  -1084.7  4092002.6  0.6  2 0  772  985  302
[17]  41(B05) 1f 42 25  0  -1090.8  4092002.7 -0.2  2 0  932 1140  582
[19]  65(B29)  7 43  7  0  -1975.3  4092005.1  0.0  2 0 1514 2516  956
[32]  79(N-2)  1 16 18  0  -1901.5  1022002.5 -0.1  1 0   119  120  168
[33]  86(N05)  1 39 11  0  -1984.7  1022001.2  1.0  1 0   589  839  490
[48]  38(B02)  f 18 10  0  -1921.7 20460032.0  0.1  2 0  397  977  669
[49]  41(B05)  1 26 24  1  -1000.3 20460019.2 -0.1  1 0  392  340  391
$GNGGA,094157.283,,,,,0,00,,,M,,,,0000*2C
$GNRMC,094157.283,A,,,,,,,030419,,*2E
$GPGSA,A,1,,,,,,,,,,,,,,,*1E
$BDGSA,A,1,,,,,,,,,,,,,,,*0F
$GLGSA,A,1,,,,,,,,,,,,,,,*02
$GPGSV,2,1,07,06,00,000,41,07,00,000,40,13,00,000,42,17,00,000,46*7D
$GPGSV,2,2,07,19,00,000,41,28,00,000,42,30,00,000,42*4A
$BDGSV,1,1,03,02,00,000,35,05,00,000,42,29,00,000,43*50
$B3CN0,0,20,0,0,0,0,0,0,0,0,0,0,0,0*7E
---00000012--- Acq_st=3 0  2019-4-3 9:41:57 
[00]  05(G06)  f 41  7  0  -4780.1  2046006.1  0.0  2 0 1105 1663 1080
[01]  06(G07)  f 39  7  0   1908.2  2045997.5 -0.0  2 0  994 1570  760
[02]  12(G13)  f 42  7  0   -211.4  2046000.2 -0.1  2 0 1350 2419 1243
[03]  16(G17)  f 46  7  0  -2271.3  2046002.9  0.0  2 0 3599 4529 1913
[04]  18(G19)  f 43  7  0  -3498.8  2046004.5 -0.0  2 0 1624 1919  628
[05]  27(G28)  f 41  9  0  -2811.0  2046003.6  0.1  2 0  691 1235  515
[06]  29(G30)  f 42 13  0     16.8  2045999.9 -0.0  2 0 1126 1999 1147
[16]  38(B02) 1f 36 21  0  -1102.3  4092002.6  0.8  2 0  570  885  631
[17]  41(B05) 1f 43 18  0  -1099.6  4092002.8  0.1  2 0 1360 1672  885
[19]  65(B29)  7 43  7  0  -1983.4  4092005.1 -0.0  2 0 1648 2305  903
[32]  79(N-2)  1 18 18  0  -1643.2  1022002.8 -0.0  1 0   185  114  210
[33]  86(N05)  7 40 13  0  -1991.2  1022001.2  0.1  2 0   567 1031  419
[48]  38(B02)  f 10 14  0  -2289.5 20460037.5 -0.1  2 0  125  405  245
[49]  41(B05)  1 24 24  1  -1281.5 20460023.3 -0.1  1 0  469  114  288
$GNGGA,094158.283,,,,,0,00,,,M,,,,0000*23
$GNRMC,094158.283,A,,,,,,,030419,,*21
$GPGSA,A,1,,,,,,,,,,,,,,,*1E
$BDGSA,A,1,,,,,,,,,,,,,,,*0F
$GLGSA,A,1,,,,,,,,,,,,,,,*02
$GPGSV,2,1,07,06,00,000,41,07,00,000,39,13,00,000,42,17,00,000,46*73
$GPGSV,2,2,07,19,00,000,43,28,00,000,41,30,00,000,42*4B
$BDGSV,1,1,03,02,00,000,36,05,00,000,43,29,00,000,43*52
$B3CN0,0,0,0,0,0,0,0,0,0,0,0,0,0,0*4C
---00000013--- Acq_st=3 0  2019-4-3 9:41:58 
[00]  05(G06)  f 42  7  0  -4773.9  2046006.2  0.1  2 0 1030 1920  798
[01]  06(G07)  f 38  7  0   1918.1  2045997.5 -0.0  2 0  905 1088  904
[02]  12(G13)  f 42  7  0   -203.2  2046000.2 -0.0  2 0  864 1572 1032
[03]  16(G17)  f 46  7  0  -2262.2  2046002.9 -0.0  2 0 3236 4675 1911
[04]  18(G19)  f 43  7  0  -3490.0  2046004.4  0.0  2 0 1620 2533 1187
[05]  27(G28)  f 41  7  0  -2798.4  2046003.6 -0.0  2 0  731 1628  776
[06]  29(G30)  f 42 12  0     25.7  2045999.9 -0.0  2 0 1205 2071 1241
[16]  38(B02) 1f 37 25  0  -1086.1  4092002.7 -0.9  2 0  648 1048  221
[17]  41(B05) 1f 42 26  0  -1090.4  4092002.7 -0.1  2 0 1483 1992  876
[19]  65(B29) 1f 44  7  0  -1972.6  4092005.1 -0.0  2 0 2192 2704 1365
[33]  86(N05)  7 41 17  0  -1981.6  1022001.2 -0.4  2 0   534 1116  662
[49]  41(B05)  1 23 25  1  -1113.5 20460022.2  0.1  1 0  658  918 1214
$GNGGA,094159.283,,,,,0,00,,,M,,,,0000*22
$GNRMC,094159.283,A,,,,,,,030419,,*20
$GPGSA,A,1,,,,,,,,,,,,,,,*1E
$BDGSA,A,1,,,,,,,,,,,,,,,*0F
$GLGSA,A,1,,,,,,,,,,,,,,,*02
$GPGSV,2,1,07,06,00,000,42,07,00,000,38,13,00,000,43,17,00,000,46*70
$GPGSV,2,2,07,19,00,000,43,28,00,000,41,30,00,000,42*4B
$BDGSV,1,1,03,02,00,000,36,05,00,000,41,29,00,000,43*50
$B3CN0,0,0,0,0,0,0,0,0,0,0,0,0,0,0*4C
---00000014--- Acq_st=3 0  2019-4-3 9:41:59 
[00]  05(G06)  f 42  7  0  -4778.3  2046006.2 -0.0  2 0 1161 1680  601
[01]  06(G07)  f 38  7  0   1912.3  2045997.5  0.1  2 0  770 1332  625
[02]  12(G13)  f 42  7  0   -203.4  2046000.2  0.0  2 0  958 1288  768
[03]  16(G17)  f 46  7  0  -2265.9  2046002.9  0.0  2 0 3025 4751 2143
[04]  18(G19)  f 44  7  0  -3491.4  2046004.5  0.0  2 0 2255 3178 1528
[05]  27(G28)  f 41  7  0  -2806.2  2046003.6 -0.1  2 0 1151 1260  530
[06]  29(G30)  f 42  7  0     23.6  2045999.9 -0.0  2 0 1112 2228 1168
[16]  38(B02) 1f 35 23  0  -1090.0  4092002.8 -0.6  2 0  853 1239  558
[17]  41(B05) 1f 41 24  0  -1094.2  4092002.7 -0.1  2 0 1179 2195  893
[18]  49(B13)  1  7  7  0  -2000.0  4092005.1  0.0  1 0 1396 2080 1053
[19]  65(B29) 1f 43  8  0  -1976.4  4092005.1 -0.0  2 0 1614 2213 1076
[33]  86(N05)  7 41 12  0  -1985.5  1022001.2 -0.3  2 0   573 1229  722
[48]  38(B02)  1 10 10  1   -825.6 20460018.5  0.1  1 0  184  760  716
[49]  41(B05)  1 23 24  1   -932.2 20460025.2 -0.1  1 0  384  190  422
[51]  65(B29)  1  7  7  0  -1810.3 20460031.8 -0.1  1 0  506  754  551
---00000015--- Acq_st=3 0  2019-4-3 9:42:0 
[00]  05(G06)  f 42  7  0  -4781.3  2046006.1  0.1  2 0  917 1831  712
[01]  06(G07)  f 36  7  0   1916.4  2045997.5  0.4  2 0  565 1094  461
[02]  12(G13)  f 41  7  0   -208.1  2046000.2 -0.0  2 0  913 1809  968
[03]  16(G17)  f 46  7  0  -2267.0  2046002.9  0.0  2 0 3193 4864 2184
[04]  18(G19)  f 45  7  0  -3495.2  2046004.4  0.0  2 0 2674 3571 1421
[05]  27(G28)  f 41  7  0  -2806.9  2046003.6 -0.1  2 0 1001 1437  780
[06]  29(G30)  f 42  7  0     23.3  2045999.9  0.1  2 0  996 1641  387
[16]  38(B02) 1f 35 24  0  -1094.5  4092002.8 -0.7  2 0  683  742  327
[17]  41(B05) 1f 43 25  0  -1099.8  4092002.7  0.3  2 0 1080 1500  498
[18]  49(B13)  1  7  7  0  -2210.2  4092004.1  0.0  1 0  326  705  415
[19]  65(B29) 1f 43 10  0  -1980.6  4092005.1 -0.0  2 0 1776 2325  893
[33]  86(N05)  f 29  7  0  -1984.7  1022001.2 -0.1  5 0   349 1112  799
[48]  38(B02)  1 21 36  1   -841.1 20460014.0  0.1  1 0   57  335  150
[51]  65(B29)  1 10  7  0  -1776.7 20460030.0  0.1  1 0   48  171  476
$GNGGA,094200.283,,,,,0,00,,,M,,,,0000*2D
$GNRMC,094200.283,A,,,,,,,030419,,*2F
$GPGSA,A,1,,,,,,,,,,,,,,,*1E
$BDGSA,A,1,,,,,,,,,,,,,,,*0F
$GLGSA,A,1,,,,,,,,,,,,,,,*02
$GPGSV,2,1,07,06,00,000,42,07,00,000,36,13,00,000,41,17,00,000,46*7C
$GPGSV,2,2,07,19,00,000,45,28,00,000,41,30,00,000,42*4D
$BDGSV,1,1,03,02,00,000,35,05,00,000,43,29,00,000,43*51
$B3CN0,0,0,0,0,0,0,0,0,0,0,0,0,0,0*4C
---00000016--- Acq_st=3 0  2019-4-3 9:42:1 
[00]  05(G06)  f 42  7  0  -4781.6  2046006.2 -0.0  2 0  703 1739 1069
[01]  06(G07)  f 36  7  0   1911.1  2045997.6  0.0  2 0  471  728  456
[02]  12(G13)  f 42  7  0   -206.6  2046000.2 -0.0  2 0 1522 1877  797
[03]  16(G17)  f 46  7  0  -2269.8  2046002.9 -0.0  2 0 3471 5007 2700
[04]  18(G19)  f 45  7  0  -3496.5  2046004.5 -0.0  2 0 2981 3948 1385
[05]  27(G28)  f 41  7  0  -2810.6  2046003.5 -0.0  2 0  990 1844  803
[06]  29(G30)  f 41  7  0     17.0  2046000.0 -0.0  2 0 1588 2357 1123
[16]  38(B02) 1f 37 26  0  -1096.7  4092002.6 -0.6  2 0  642  472  465
[17]  41(B05) 1f 41 23  0  -1100.8  4092002.8 -0.3  2 0 1342 1791  987
[18]  49(B13)  1  7  7  0  -2209.9  4092004.2  0.1  1 0  795 1386  935
[19]  65(B29) 1f 43  7  0  -1980.6  4092005.1  0.0  2 0 1857 2332  704
[33]  86(N05)  f 41  7  0  -1988.7  1022001.3  0.4  2 0   583  932  519
[48]  38(B02)  1 21 10  1   -432.4 20460021.4 -0.0  1 0  346  183   28
[49]  41(B05)  1 20 18  1   -927.9 20460018.6  0.1  1 0  638  617  470
[51]  65(B29)  1  7  7  0  -1376.4 20460031.3 -0.0  1 0  182  189  324
$GNGGA,094201.283,,,,,0,00,,,M,,,,0000*2C
$GNRMC,094201.283,A,,,,,,,030419,,*2E
$GPGSA,A,1,,,,,,,,,,,,,,,*1E
$BDGSA,A,1,,,,,,,,,,,,,,,*0F
$GLGSA,A,1,,,,,,,,,,,,,,,*02
$GPGSV,2,1,07,06,00,000,42,07,00,000,36,13,00,000,42,17,00,000,46*7F
$GPGSV,2,2,07,19,00,000,45,28,00,000,41,30,00,000,41*4E
$BDGSV,1,1,03,02,00,000,37,05,00,000,41,29,00,000,43*51
$B3CN0,0,0,0,0,0,0,0,0,0,0,0,0,0,0*4C
---00000017--- Acq_st=1 0  2019-4-3 9:42:2 
[00]  05(G06)  f 40  7  0  -4776.2  2046006.2 -0.0  2 0 1293 1595  215
[01]  06(G07)  f 37  7  0   1913.4  2045997.4  0.1  2 0  291  527  525
[02]  12(G13)  f 43  7  0   -203.0  2046000.2 -0.1  2 0 1108 2038 1312
[03]  16(G17)  f 46  7  0  -2266.6  2046002.9 -0.0  2 0 3315 5110 2735
[04]  18(G19)  f 45  7  0  -3493.6  2046004.4 -0.0  2 0 3372 4621 1854
[05]  27(G28)  f 41  7  0  -2803.8  2046003.6  0.1  2 0 1254 1671  799
[06]  29(G30)  f 41  7  0     21.0  2045999.9 -0.0  2 0  922 1393  560
[16]  38(B02) 1f 35 24  0  -1092.6  4092002.8  0.1  2 0  813 1422  492
[17]  41(B05) 1f 42 20  0  -1099.6  4092002.8  0.4  2 0 1102 1804  657
[18]  49(B13)  1  7  7  0  -2209.6  4092004.4  0.1  1 0  573 1127  694
[19]  65(B29) 1f 44  7  0  -1976.0  4092005.0 -0.0  2 0 1423 2251 1182
[33]  86(N05) 8f 41  7  0  -1983.2  1022001.2  0.1  2 0   957 1157  380
[48]  38(B02)  1 10 10  0   -453.3 20460018.1 -0.0  1 0  447  410  128
[49]  41(B05)  1 26 23  1   -426.9 20460019.2  0.0  1 0  105  328  572
[51]  65(B29)  1  7  7  0  -1221.2 20460033.5  0.0  1 0  453  898  477
$GNGGA,094202.283,,,,,0,00,,,M,,,,0000*2F
$GNRMC,094202.283,A,,,,,,,030419,,*2D
$GPGSA,A,1,,,,,,,,,,,,,,,*1E
$BDGSA,A,1,,,,,,,,,,,,,,,*0F
$GLGSA,A,1,,,,,,,,,,,,,,,*02
$GPGSV,2,1,07,06,00,000,40,07,00,000,37,13,00,000,43,17,00,000,46*7D
$GPGSV,2,2,07,19,00,000,45,28,00,000,41,30,00,000,41*4E
$BDGSV,1,1,03,02,00,000,35,05,00,000,42,29,00,000,44*57
$B3CN0,0,0,0,0,0,0,0,0,0,0,0,0,0,0*4C
---00000018--- Acq_st=3 0  2019-4-3 9:42:3 
[00]  05(G06)  f 41  7  0  -4785.4  2046006.2 -0.1  2 0 1078 1437  816
[01]  06(G07)  f 35  7  0   1902.6  2045997.6 -0.2  2 0  554 1093  926
[02]  12(G13)  f 43  7  0   -212.1  2046000.2  0.0  2 0 1556 2336 1177
[03]  16(G17)  f 46  7  0  -2273.6  2046002.9  0.0  2 0 2954 4861 2673
[04]  18(G19)  f 46  7  0  -3498.4  2046004.5  0.0  2 0 3014 4847 2073
[05]  27(G28)  f 42  7  0  -2811.8  2046003.6 -0.0  2 0 1011 1549  967
[06]  29(G30)  f 41  9  0     16.7  2045999.9  0.0  2 0 1364 1630  597
[16]  38(B02) 1f 36 23  0  -1097.5  4092002.7 -0.6  2 0  964 1157  289
[17]  41(B05) 1f 42 23  0  -1101.3  4092002.8  0.1  2 0 1416 1392  553
[18]  49(B13)  1  7  7  0  -2210.1  4092004.4 -0.1  1 0  655 1072  278
[19]  65(B29) 1f 44  7  0  -1983.5  4092005.1  0.0  2 0 1893 2021  826
[33]  86(N05) 8f 41  7  0  -1987.4  1022001.3  0.1  2 0   555  853  398
[49]  41(B05)  1 26 24  0   -137.3 20460018.6 -0.1  1 0  701  125  427
$GNGGA,094203.283,,,,,0,00,,,M,,,,0000*2E
$GNRMC,094203.283,A,,,,,,,030419,,*2C
$GPGSA,A,1,,,,,,,,,,,,,,,*1E
$BDGSA,A,1,,,,,,,,,,,,,,,*0F
$GLGSA,A,1,,,,,,,,,,,,,,,*02
$GPGSV,2,1,07,06,00,000,41,07,00,000,35,13,00,000,43,17,00,000,46*7E
$GPGSV,2,2,07,19,00,000,46,28,00,000,42,30,00,000,41*4E
$BDGSV,1,1,03,02,00,000,36,05,00,000,42,29,00,000,44*54
$B3CN0,0,0,0,0,0,0,0,0,0,0,0,0,0,0*4C
---00000019--- Acq_st=7 0  2019-4-3 9:42:4 
[00]  05(G06)  f 41  7  0  -4781.9  2046006.1  0.0  2 0 1370 1646  609
[01]  06(G07)  f 35  7  0   1901.6  2045997.5  0.0  2 0  504 1175  866
[02]  12(G13)  f 42  7  0   -202.6  2046000.2 -0.1  2 0 1653 2267 1431
[03]  16(G17)  f 46  7  0  -2268.2  2046002.9  0.0  2 0 2693 4171 2191
[04]  18(G19)  f 46  7  0  -3494.2  2046004.5 -0.0  2 0 3258 4966 1998
[05]  27(G28)  f 42  7  0  -2806.2  2046003.6  0.0  2 0 1735 1820 1025
[06]  29(G30)  f 41  7  0     21.8  2045999.9  0.0  2 0 1502 2048  930
[16]  38(B02) 1f 36 22  0  -1098.5  4092002.7  0.7  2 0  912  821  454
[17]  41(B05) 1f 42 23  0  -1098.4  4092002.8  0.2  2 0 1263 1459  598
[19]  65(B29) 1f 44 10  0  -1979.2  4092005.1 -0.0  2 0 1838 2618 1336
[33]  86(N05) 8f 41  7  0  -1984.4  1022001.2  0.1  2 0   613 1056  494
[48]  38(B02)  1 10 21  1   -652.6 20460013.9  0.1  1 0  342   15  374
[49]  41(B05)  1 22 23  1     47.3 20460022.6  0.1  1 0  843  924  793
[51]  65(B29)  1  7  7  0  -1403.7 20460031.2 -0.1  1 0  295  301  316
$GNGGA,094204.283,,,,,0,00,,,M,,,,0000*29
$GNRMC,094204.283,A,,,,,,,030419,,*2B
$GPGSA,A,1,,,,,,,,,,,,,,,*1E
$BDGSA,A,1,,,,,,,,,,,,,,,*0F
$GLGSA,A,1,,,,,,,,,,,,,,,*02
$GPGSV,2,1,07,06,00,000,41,07,00,000,35,13,00,000,42,17,00,000,46*7F
$GPGSV,2,2,07,19,00,000,46,28,00,000,42,30,00,000,41*4E
$BDGSV,1,1,03,02,00,000,36,05,00,000,42,29,00,000,44*54
$B3CN0,0,0,0,0,0,0,0,0,0,0,0,0,0,0*4C
---00000020--- Acq_st=3 0  2019-4-3 9:42:5 
[00]  05(G06)  f 40  7  0  -4782.6  2046006.2  0.1  2 0 1113 1777 1186
[01]  06(G07)  f 34  7  0   1906.1  2045997.5  0.0  2 0 1193 1018  434
[02]  12(G13)  f 42  7  0   -205.8  2046000.2  0.0  2 0 1306 2062 1293
[03]  16(G17)  f 45  7  0  -2267.1  2046002.9 -0.0  2 0 3760 5059 2380
[04]  18(G19)  f 46  7  0  -3493.8  2046004.4  0.0  2 0 3306 4340 2104
[05]  27(G28)  f 42  7  0  -2806.2  2046003.6 -0.0  2 0 1641 1904  662
[06]  29(G30)  f 42 13  0     25.7  2045999.9 -0.0  2 0 1853 2330 1196
[16]  38(B02) 1f 36 23  0  -1104.1  4092002.8  0.2  2 0  877  777  235
[17]  41(B05) 1f 42 18  0  -1099.9  4092002.8  0.4  2 0  822 1537  785
[19]  65(B29) 1f 44  7  0  -1978.1  4092005.1  0.0  2 0 2051 2610 1021
[33]  86(N05) 8f 41  7  0  -1982.7  1022001.2  0.0  2 0   948 1441  525
[48]  38(B02)  1 14 10  0   -183.3 20460023.3 -0.0  1 0  313  414  897
[51]  65(B29)  1  7  7  0   -861.3 20460030.7  0.1  1 0  591  242  589
$GNGGA,094205.283,,,,,0,00,,,M,,,,0000*28
$GNRMC,094205.283,A,,,,,,,030419,,*2A
$GPGSA,A,1,,,,,,,,,,,,,,,*1E
$BDGSA,A,1,,,,,,,,,,,,,,,*0F
$GLGSA,A,1,,,,,,,,,,,,,,,*02
$GPGSV,2,1,07,06,00,000,40,07,00,000,34,13,00,000,42,17,00,000,45*7C
$GPGSV,2,2,07,19,00,000,46,28,00,000,42,30,00,000,42*4D
$BDGSV,1,1,03,02,00,000,36,05,00,000,41,29,00,000,44*57
$B3CN0,0,0,0,0,0,0,0,0,0,0,0,0,0,0*4C
---00000021--- Acq_st=3 0  2019-4-3 9:42:6 
[00]  05(G06)  f 40  7  0  -4769.4  2046006.1 -0.0  2 0  777 1731  587
[01]  06(G07)  f 35  7  0   1916.7  2045997.4 -0.3  2 0  592  935  453
[02]  12(G13)  f 42  7  0   -192.6  2046000.2 -0.0  2 0 1508 2460 1280
[03]  16(G17)  f 46  7  0  -2259.0  2046002.9  0.0  2 0 3428 5071 2406
[04]  18(G19)  f 46  7  0  -3486.0  2046004.5  0.0  2 0 3151 4941 2261
[05]  27(G28)  f 41  7  0  -2798.0  2046003.6 -0.0  2 0 1572 2005  751
[06]  29(G30)  f 42 12  0     31.4  2045999.9 -0.0  2 0  719 1634  973
[16]  38(B02) 1f 36 25  0  -1087.0  4092002.6 -0.1  2 0  922  882  430
[17]  41(B05) 1f 43 23  0  -1088.6  4092002.8  0.3  2 0  933 1478  949
[19]  65(B29) 1f 43  7  0  -1971.1  4092005.0 -0.0  2 0 1820 2209 1089
[33]  86(N05) 8f 42  7  0  -1975.2  1022001.2  0.0  2 0   813 1148  704
[48]  38(B02)  f 10 17  0    -57.2 20460001.4 -0.2  2 0  627  463  484
[49]  41(B05)  1 24 23  0   -653.7 20460016.9 -0.1  1 0  403  497  424
[51]  65(B29)  1 10  7  0  -1250.3 20460032.5 -0.0  1 0  587   99  380
$GNGGA,094206.283,,,,,0,00,,,M,,,,0000*2B
$GNRMC,094206.283,A,,,,,,,030419,,*29
$GPGSA,A,1,,,,,,,,,,,,,,,*1E
$BDGSA,A,1,,,,,,,,,,,,,,,*0F
$GLGSA,A,1,,,,,,,,,,,,,,,*02
$GPGSV,2,1,07,06,00,000,40,07,00,000,35,13,00,000,42,17,00,000,46*7E
$GPGSV,2,2,07,19,00,000,46,28,00,000,41,30,00,000,42*4E
$BDGSV,1,1,03,02,00,000,36,05,00,000,43,29,00,000,43*52
$B3CN0,0,0,0,0,0,0,0,0,0,0,0,0,0,0*4C
---00000022--- Acq_st=3 0  2019-4-3 9:42:7 
[00]  05(G06)  f 41  7  0  -4768.3  2046006.1  0.0  2 0  981 1546  700
[01]  06(G07)  f 36  7  0   1916.2  2045997.4  0.3  2 0  615  897  251
[02]  12(G13)  f 42  7  0   -201.6  2046000.2  0.0  2 0  996 1938 1239
[03]  16(G17)  f 45  7  0  -2262.2  2046002.9  0.1  2 0 2976 5266 2730
[04]  18(G19)  f 45  7  0  -3488.0  2046004.5  0.0  2 0 2655 4435 1844
[05]  27(G28)  f 41  7  0  -2798.1  2046003.6  0.0  2 0 1367 1562  263
[06]  29(G30)  f 43  8  0     30.6  2045999.9  0.0  2 0 1294 1878 1182
[16]  38(B02) 1f 36 24  0  -1094.2  4092002.9  0.1  2 0  826 1599  886
[17]  41(B05) 1f 42 22  0  -1093.9  4092002.8  0.4  2 0 1645 2370 1189
[19]  65(B29) 1f 44  7  0  -1971.1  4092005.0  0.0  2 0 1723 2573 1176
[33]  86(N05) 8f 42  7  0  -1976.0  1022001.2  0.1  2 0   504 1253  374
[48]  38(B02)  f 18 21  0   -185.1 20460002.6 -0.1  2 0  252  557  279
[49]  41(B05)  1 21 22  0  -1106.3 20460022.1  0.1  1 0  333  402  287
[51]  65(B29)  1  7 10  0   -631.0 20460033.5 -0.0  1 0  627  289  451
$GNGGA,094207.283,,,,,0,00,,,M,,,,0000*2A
$GNRMC,094207.283,A,,,,,,,030419,,*28
$GPGSA,A,1,,,,,,,,,,,,,,,*1E
$BDGSA,A,1,,,,,,,,,,,,,,,*0F
$GLGSA,A,1,,,,,,,,,,,,,,,*02
$GPGSV,2,1,07,06,00,000,41,07,00,000,36,13,00,000,42,17,00,000,45*7F
$GPGSV,2,2,07,19,00,000,45,28,00,000,41,30,00,000,43*4C
$BDGSV,1,1,03,02,00,000,36,05,00,000,42,29,00,000,44*54
$B3CN0,0,18,0,0,0,0,0,0,0,0,0,0,0,0*75
---00000023--- Acq_st=3 0  2019-4-3 9:42:8 
[00]  05(G06)  f 41  7  0  -4769.6  2046006.1  0.1  2 0 1026 1547  627
[01]  06(G07)  f 37  7  0   1917.9  2045997.5  0.3  2 0  855  973  743
[02]  12(G13)  f 43  7  0   -194.2  2046000.2 -0.0  2 0 1405 2005 1247
[03]  16(G17)  f 45  7  0  -2255.9  2046002.9 -0.0  2 0 3053 4536 2389
[04]  18(G19)  f 45  7  0  -3483.8  2046004.5  0.0  2 0 2795 4226 1797
[05]  27(G28)  f 41  7  0  -2793.3  2046003.6 -0.1  2 0 1064 2072 1423
[06]  29(G30)  f 42  7  0     36.2  2045999.9 -0.0  2 0  807 1477  761
[16]  38(B02) 1f 36 25  0  -1094.1  4092002.9  0.5  2 0  375  900  605
[17]  41(B05) 1f 41 27  0  -1088.2  4092002.8  0.3  2 0 1321 1807  752
[18]  49(B13)  1  7  7  0  -1750.0  4092005.3 -0.0  1 0  981  298  817
[19]  65(B29) 1f 44  7  0  -1968.2  4092005.0  0.0  2 0 2063 2661  999
[33]  86(N05) 8f 41  7  0  -1972.0  1022001.2 -0.1  2 0   578 1445  931
[48]  38(B02)  f 10 18  0   -563.5 20460008.1 -0.1  2 0  516  248  399
[49]  41(B05)  1 26 24  0  -1121.4 20460021.8 -0.2  1 0  100  195  158
$GNGGA,094208.283,,,,,0,00,,,M,,,,0000*25
$GNRMC,094208.283,A,,,,,,,030419,,*27
$GPGSA,A,1,,,,,,,,,,,,,,,*1E
$BDGSA,A,1,,,,,,,,,,,,,,,*0F
$GLGSA,A,1,,,,,,,,,,,,,,,*02
$GPGSV,2,1,07,06,00,000,41,07,00,000,37,13,00,000,43,17,00,000,45*7F
$GPGSV,2,2,07,19,00,000,45,28,00,000,41,30,00,000,42*4D
$BDGSV,1,1,03,02,00,000,36,05,00,000,41,29,00,000,44*57
$B3CN0,0,0,0,0,0,0,0,0,0,0,0,0,0,0*4C
$GLGSV,1,1,01,26,00,000,41*55
---00000024--- Acq_st=3 0  2019-4-3 9:42:9 
[00]  05(G06)  f 41  7  0  -4781.8  2046006.2 -0.0  2 0 1027 1999 1300
[01]  06(G07)  f 38  7  0   1910.9  2045997.4  0.6  2 0 1072  938  129
[02]  12(G13)  f 42  7  0   -203.1  2046000.2 -0.0  2 0 1702 2847 1406
[03]  16(G17)  f 45  7  0  -2268.9  2046002.9  0.0  2 0 3397 4705 2335
[04]  18(G19)  f 45  7  0  -3494.5  2046004.5 -0.0  2 0 2605 3880 1882
[05]  27(G28)  f 41  7  0  -2808.7  2046003.6  0.0  2 0  727 1176  492
[06]  29(G30)  f 41  8  0     21.9  2046000.0  0.0  2 0 1148 1326  502
[16]  38(B02) 1f 37 20  0  -1100.0  4092002.6 -0.2  2 0  696  477  184
[17]  41(B05) 1f 43 23  0  -1100.6  4092002.7  0.3  2 0  901 1442  634
[18]  49(B13)  1  7  7  0  -1710.7  4092005.8  0.1  1 0  944 1611  634
[19]  65(B29) 1f 43  7  0  -1979.7  4092005.1  0.1  2 0 2073 2348  849
[33]  86(N05) 8f 42  7  0  -1983.5  1022001.2 -0.2  2 0   955 1830 1066
[48]  38(B02)  f 10 10  0   -918.4 20460012.9  0.2  2 0  859  815  395
[49]  41(B05)  1 23 25  1  -1156.4 20460023.6  0.1  1 0  463  700  311
[51]  65(B29)  1  7  7  0  -1510.5 20460031.1  0.0  1 0   68  275  553
$GNGGA,094209.283,,,,,0,00,,,M,,,,0000*24
$GNRMC,094209.283,A,,,,,,,030419,,*26
$GPGSA,A,1,,,,,,,,,,,,,,,*1E
$BDGSA,A,1,,,,,,,,,,,,,,,*0F
$GLGSA,A,1,,,,,,,,,,,,,,,*02
$GPGSV,2,1,07,06,00,000,41,07,00,000,38,13,00,000,42,17,00,000,45*71
$GPGSV,2,2,07,19,00,000,45,28,00,000,41,30,00,000,41*4E
$BDGSV,1,1,03,02,00,000,37,05,00,000,43,29,00,000,43*53
$B3CN0,0,0,0,0,0,0,0,0,0,0,0,0,0,0*4C
$GLGSV,1,1,01,26,00,000,42*56
---00000025--- Acq_st=3 0  2019-4-3 9:42:10 
[00]  05(G06)  f 41  7  0  -4771.8  2046006.1  0.1  2 0 1329 1942  604
[01]  06(G07)  f 39  7  0   1924.3  2045997.4  0.2  2 0 1319 1960  786
[02]  12(G13)  f 42  7  0   -191.0  2046000.2  0.0  2 0 1822 2343  976
[03]  16(G17)  f 46  7  0  -2259.4  2046002.9  0.0  2 0 3154 4223 2038
[04]  18(G19)  f 44  7  0  -3483.6  2046004.5 -0.0  2 0 1488 2691 1299
[05]  27(G28)  f 41  7  0  -2798.4  2046003.6 -0.0  2 0  587 1267  436
[06]  29(G30)  f 41  7  0     33.7  2045999.9  0.1  2 0 1157 1956 1076
[16]  38(B02) 1f 35 27  0  -1086.8  4092002.6  0.3  2 0  837 1271  682
[17]  41(B05) 1f 43 25  0  -1090.3  4092002.8 -0.1  2 0  911 1333  790
[18]  49(B13)  7 30  7  0  -1699.2  4092004.3  0.0  5 0 1423 1295  357
[19]  65(B29) 1f 44  7  0  -1969.2  4092005.1  0.0  2 0 2481 2615 1032
[33]  86(N05) 8f 41  7  0  -1974.6  1022001.3  0.0  2 0   668 1545  739
[51]  65(B29)  1  7  7  0  -1639.3 20460030.1 -0.1  1 0  423   54  209
$GNGGA,094210.283,,,,,0,00,,,M,,,,0000*2C
$GNRMC,094210.283,A,,,,,,,030419,,*2E
$GPGSA,A,1,,,,,,,,,,,,,,,*1E
$BDGSA,A,1,,,,,,,,,,,,,,,*0F
$GLGSA,A,1,,,,,,,,,,,,,,,*02
$GPGSV,2,1,07,06,00,000,41,07,00,000,39,13,00,000,42,17,00,000,46*73
$GPGSV,2,2,07,19,00,000,44,28,00,000,41,30,00,000,41*4F
$BDGSV,1,1,04,02,00,000,35,05,00,000,43,13,00,000,29,29,00,000,44*68
$B3CN0,0,0,0,0,0,0,0,0,0,0,0,0,0,0*4C
$GLGSV,1,1,01,26,00,000,41*55
---00000026--- Acq_st=2 0  2019-4-3 9:42:11 
[00]  05(G06)  f 42  7  0  -4778.1  2046006.2 -0.1  2 0  828 1292  466
[01]  06(G07)  f 39  7  0   1913.2  2045997.5  0.0  2 0  850 1044  655
[02]  12(G13)  f 42  7  0   -201.4  2046000.2  0.0  2 0 1374 2100  827
[03]  16(G17)  f 46  7  0  -2263.5  2046002.9 -0.0  2 0 3223 4250 2232
[04]  18(G19)  f 44  7  0  -3495.2  2046004.5  0.0  2 0 1526 2824 1518
[05]  27(G28)  f 41  7  0  -2805.7  2046003.6  0.0  2 0  518 1199  540
[06]  29(G30)  f 42  7  0     26.8  2045999.9  0.0  2 0 1329 1292  737
[16]  38(B02) 1f 38 27  0  -1089.8  4092002.9 -0.7  2 0  477  895  526
[17]  41(B05) 1f 42 25  0  -1096.2  4092002.7 -0.2  2 0 1518 1870  744
[18]  49(B13)  7 42  7  0  -1705.1  4092004.3  0.1  2 0 1134 1600  820
[19]  65(B29) 1f 43  7  0  -1973.5  4092005.1  0.1  2 0 1559 1971  697
[33]  86(N05) 8f 42  7  0  -1977.1  1022001.2 -0.0  2 0   981 1472  681
[49]  41(B05)  1 21 17  1   -786.5 20460017.4  0.0  1 0  400  205  239
[51]  65(B29)  1  7  7  0  -1213.4 20460031.1  0.1  1 0  507  373  361
$GNGGA,094211.283,,,,,0,00,,,M,,,,0000*2D
$GNRMC,094211.283,A,,,,,,,030419,,*2F
$GPGSA,A,1,,,,,,,,,,,,,,,*1E
$BDGSA,A,1,,,,,,,,,,,,,,,*0F
$GLGSA,A,1,,,,,,,,,,,,,,,*02
$GPGSV,2,1,07,06,00,000,42,07,00,000,39,13,00,000,42,17,00,000,46*70
$GPGSV,2,2,07,19,00,000,44,28,00,000,41,30,00,000,42*4C
$BDGSV,1,1,04,02,00,000,38,05,00,000,42,13,00,000,42,29,00,000,43*6E
$B3CN0,0,0,0,0,0,0,0,0,0,0,0,0,0,0*4C
$GLGSV,1,1,01,26,00,000,42*56
---00000027--- Acq_st=3 0  2019-4-3 9:42:12 
[00]  05(G06)  f 42  7  0  -4779.6  2046006.1  0.0  2 0 1344 2009  974
[01]  06(G07)  f 37  7  0   1914.9  2045997.5 -0.1  2 0  829  751  378
[02]  12(G13)  f 42  7  0   -199.7  2046000.2  0.0  2 0 1564 2402 1421
[03]  16(G17)  f 46  7  0  -2264.9  2046002.9  0.0  2 0 3298 4981 2501
[04]  18(G19)  f 43  7  0  -3493.7  2046004.6 -0.0  2 0  666 1830 1095
[05]  27(G28)  f 40  7  0  -2801.1  2046003.6 -0.1  2 0  892 1650  635
[06]  29(G30)  f 42  8  0     30.2  2045999.9  0.1  2 0 1314 1901  841
[16]  38(B02) 1f 36 22  0  -1097.1  4092002.7 -0.8  2 0  400 1020  327
[17]  41(B05) 1f 42 22  0  -1095.4  4092002.8 -0.0  2 0 1074 1388  669
[18]  49(B13)  7 42  7  0  -1701.3  4092004.3 -0.0  2 0 1184 1902  927
[19]  65(B29) 1f 44  7  0  -1974.6  4092005.0 -0.0  2 0 1590 2213 1196
[32]  79(N-2)  1 23 13  0  -2405.1  1022002.5 -0.2  1 0   390  728  349
[33]  86(N05) 8f 41  7  0  -1976.9  1022001.2  0.1  2 0   957 1092  940
[48]  38(B02)  1 10 10  0   -880.9 20460013.6  0.2  1 0  801  479  617
[49]  41(B05)  1 24 20  1   -929.1 20460020.1  0.1  1 0  637  643  775
[51]  65(B29)  1  7  7  0  -1322.3 20460032.5  0.0  1 0  200  183  116
$GNGGA,094212.283,,,,,0,00,,,M,,,,0000*2E
$GNRMC,094212.283,A,,,,,,,030419,,*2C
$GPGSA,A,1,,,,,,,,,,,,,,,*1E
$BDGSA,A,1,,,,,,,,,,,,,,,*0F
$GLGSA,A,1,,,,,,,,,,,,,,,*02
$GPGSV,2,1,07,06,00,000,42,07,00,000,37,13,00,000,42,17,00,000,46*7E
$GPGSV,2,2,07,19,00,000,43,28,00,000,40,30,00,000,42*4A
$BDGSV,1,1,04,02,00,000,36,05,00,000,42,13,00,000,42,29,00,000,44*67
$B3CN0,0,0,0,0,0,0,0,0,0,0,0,0,0,0*4C
$GLGSV,1,1,01,26,00,000,41*55
---00000028--- Acq_st=7 0  2019-4-3 9:42:13 
[00]  05(G06)  f 42  7  0  -4776.1  2046006.1  0.0  2 0 1039 2139 1049
[01]  06(G07)  f 38  7  0   1911.1  2045997.5  0.2  2 0  668 1175  513
[02]  12(G13)  f 43  7  0   -200.9  2046000.2  0.0  2 0 1310 2490  940
[03]  16(G17)  f 46  7  0  -2260.4  2046002.9 -0.0  2 0 3246 4670 2141
[04]  18(G19)  f 42  7  0  -3490.6  2046004.5 -0.0  2 0 1386 1626  419
[05]  27(G28)  f 40  7  0  -2801.9  2046003.6  0.0  2 0 1284 1465  979
[06]  29(G30)  f 42  7  0     32.5  2045999.9 -0.0  2 0 1586 1814  468
[16]  38(B02) 1f 36 26  0  -1102.0  4092002.7  0.0  2 0  787  821  813
[17]  41(B05) 1f 42 26  0  -1095.4  4092002.7  0.2  2 0 1411 1719  485
[18]  49(B13)  7 42  7  0  -1700.8  4092004.3  0.1  2 0 1265 1548  574
[19]  65(B29) 1f 43  7  0  -1970.3  4092005.0  0.1  2 0 1986 2349 1105
[32]  79(N-2)  1 26 18  0  -2404.2  1022002.0  0.9  1 0   254  703  358
[33]  86(N05) 8f 41  7  0  -1973.7  1022001.2 -0.1  2 0   645 1298  763
[48]  38(B02)  1 10 10  0  -1056.3 20460019.5 -0.1  1 0  397  581  537
[49]  41(B05)  1 25 23  0  -1034.2 20460020.1 -0.0  1 0  472  510  388
$GNGGA,094213.283,,,,,0,00,,,M,,,,0000*2F
$GNRMC,094213.283,A,,,,,,,030419,,*2D
$GPGSA,A,1,,,,,,,,,,,,,,,*1E
$BDGSA,A,1,,,,,,,,,,,,,,,*0F
$GLGSA,A,1,,,,,,,,,,,,,,,*02
$GPGSV,2,1,07,06,00,000,42,07,00,000,38,13,00,000,43,17,00,000,46*70
$GPGSV,2,2,07,19,00,000,42,28,00,000,40,30,00,000,42*4B
$BDGSV,1,1,04,02,00,000,36,05,00,000,42,13,00,000,42,29,00,000,43*60
$B3CN0,0,0,0,0,0,0,0,0,0,0,0,0,0,0*4C
$GLGSV,1,1,01,26,00,000,41*55
---00000029--- Acq_st=3 0  2019-4-3 9:42:14 
[00]  05(G06)  f 42  7  0  -4778.0  2046006.1  0.0  2 0 1091 2002  982
[01]  06(G07)  f 36  7  0   1919.3  2045997.5  0.1  2 0  187  934  705
[02]  12(G13)  f 43  7  0   -198.7  2046000.2 -0.1  2 0 1359 2338 1136
[03]  16(G17)  f 46  7  0  -2264.8  2046002.9 -0.0  2 0 2609 4758 2220
[04]  18(G19)  f 40  7  0  -3492.7  2046004.5  0.0  2 0 1378 2094  893
[05]  27(G28)  f 41  7  0  -2803.4  2046003.6 -0.0  2 0 1058 1608  867
[06]  29(G30)  f 43  7  0     29.7  2045999.9  0.0  2 0 1490 2247 1394
[16]  38(B02) 1f 36 20  0  -1100.5  4092002.7 -0.6  2 0  809  695   64
[17]  41(B05) 1f 43 22  0  -1096.5  4092002.7  0.0  2 0 1176 1768  822
[18]  49(B13)  7 42  7  0  -1704.3  4092004.3 -0.0  2 0 1318 1328  261
[19]  65(B29) 1f 43  7  0  -1975.4  4092005.0 -0.0  2 0 2053 2126  931
[32]  79(N-2)  7 36 17  0  -2410.8  1022001.5  0.1  2 0   429  567  295
[33]  86(N05) 8f 41  7  0  -1975.9  1022001.2 -0.0  2 0   378  916  401
[48]  38(B02)  1 10 36  1  -1051.6 20460023.3 -0.1  1 0  599  191  473
[49]  41(B05)  1 19 23  1   -963.7 20460021.5 -0.0  1 0  934  836  570
[51]  65(B29)  1  8  7  0  -1780.8 20460029.8 -0.1  1 0   83  187  451
$GNGGA,094214.283,,,,,0,00,,,M,,,,0000*28
$GNRMC,094214.283,A,,,,,,,030419,,*2A
$GPGSA,A,1,,,,,,,,,,,,,,,*1E
$BDGSA,A,1,,,,,,,,,,,,,,,*0F
$GLGSA,A,1,,,,,,,,,,,,,,,*02
$GPGSV,2,1,07,06,00,000,42,07,00,000,36,13,00,000,43,17,00,000,46*7E
$GPGSV,2,2,07,19,00,000,40,28,00,000,41,30,00,000,43*49
$BDGSV,1,1,04,02,00,000,36,05,00,000,43,13,00,000,42,29,00,000,43*61
$B3CN0,0,0,0,0,0,0,0,0,0,0,0,0,0,0*4C
$GLGSV,1,1,01,26,00,000,41*55
---00000030--- Acq_st=3 0  2019-4-3 9:42:15 
[00]  05(G06)  f 41  7  0  -4785.0  2046006.2 -0.0  2 0 1378 1998 1107
[01]  06(G07)  f 34  7  0   1903.7  2045997.5  0.3  2 0  502  680  581
[02]  12(G13)  f 43  7  0   -210.8  2046000.2 -0.0  2 0 1219 2374 1552
[03]  16(G17)  f 46  7  0  -2273.1  2046002.9  0.0  2 0 2132 4020 1730
[04]  18(G19)  f 42  7  0  -3502.6  2046004.5 -0.0  2 0 1890 2664 1364
[05]  27(G28)  f 42  7  0  -2810.2  2046003.5  0.0  2 0 1399 1877 1191
[06]  29(G30)  f 42  9  0     22.6  2045999.9 -0.1  2 0 1521 2118 1014
[16]  38(B02) 1f 36 23  0  -1100.2  4092002.8  0.4  2 0  598  564  418
[17]  41(B05) 1f 43 23  0  -1102.5  4092002.6 -0.0  2 0 1486 1659  812
[18]  49(B13)  7 42  7  0  -1710.9  4092004.4 -0.0  2 0 1273 1662  830
[19]  65(B29) 1f 43  7  0  -1984.7  4092005.1 -0.0  2 0 1669 2083  781
[32]  79(N-2)  7 36 10  0  -2419.9  1022001.5  0.0  2 0   460  860  392
[33]  86(N05) 8f 41  7  0  -1983.7  1022001.2  0.1  2 0   965 1313  673
[48]  38(B02)  1 10 17  0  -1775.4 20460023.9 -0.1  1 0 1049  231  589
[51]  65(B29)  1  7  7  0  -2145.2 20460030.1 -0.0  1 0  829  405  319
$GNGGA,094215.283,,,,,0,00,,,M,,,,0000*29
$GNRMC,094215.283,A,,,,,,,030419,,*2B
$GPGSA,A,1,,,,,,,,,,,,,,,*1E
$BDGSA,A,1,,,,,,,,,,,,,,,*0F
$GLGSA,A,1,,,,,,,,,,,,,,,*02
$GPGSV,2,1,07,06,00,000,41,07,00,000,34,13,00,000,43,17,00,000,46*7F
$GPGSV,2,2,07,19,00,000,42,28,00,000,42,30,00,000,42*49
$BDGSV,1,1,04,02,00,000,36,05,00,000,43,13,00,000,42,29,00,000,43*61
$B3CN0,0,0,0,0,0,0,0,0,0,0,0,0,0,0*4C
$GLGSV,1,1,01,26,00,000,41*55
---00000031--- Acq_st=3 0  2019-4-3 9:42:16 
[00]  05(G06)  f 42  7  0  -4781.5  2046006.2  0.0  2 0 1388 2100  891
[01]  06(G07)  f 35  7  0   1906.7  2045997.5 -0.1  2 0  339  644  419
[02]  12(G13)  f 44  7  0   -204.3  2046000.2  0.0  2 0 2142 2258 1137
[03]  16(G17)  f 45  7  0  -2269.6  2046002.9  0.0  2 0 2710 4409 2403
[04]  18(G19)  f 43  7  0  -3492.9  2046004.4 -0.1  2 0 1571 2648  882
[05]  27(G28)  f 41  7  0  -2808.5  2046003.5 -0.0  2 0 1642 2075  782
[06]  29(G30)  f 42  7  0     28.1  2045999.9  0.0  2 0 1031 1799 1005
[16]  38(B02) 1f 37 26  0  -1100.7  4092002.9 -0.0  2 0  535  776  383
[17]  41(B05) 1f 43 23  0  -1100.4  4092002.7 -0.0  2 0 1409 1587  535
[18]  49(B13) 1f 42  7  0  -1701.3  4092004.3 -0.0  2 0  973 1513  746
[19]  65(B29) 1f 43  7  0  -1978.0  4092005.1 -0.0  2 0 1974 2457  789
[32]  79(N-2)  f 28  7  0  -2414.6  1022001.5 -0.0  5 0   548  414  111
[33]  86(N05) 8f 42  7  0  -1982.3  1022001.2 -0.0  2 0   354  974  316
[49]  41(B05)  1 25 24  1  -1113.8 20460019.3  0.1  1 0  333  864  575
[51]  65(B29)  1  8  7  0  -2419.1 20460032.6 -0.0  1 0  234  115  297
$GNGGA,094216.283,,,,,0,00,,,M,,,,0000*2A
$GNRMC,094216.283,A,,,,,,,030419,,*28
$GPGSA,A,1,,,,,,,,,,,,,,,*1E
$BDGSA,A,1,,,,,,,,,,,,,,,*0F
$GLGSA,A,1,,,,,,,,,,,,,,,*02
$GPGSV,2,1,07,06,00,000,42,07,00,000,35,13,00,000,44,17,00,000,45*79
$GPGSV,2,2,07,19,00,000,43,28,00,000,41,30,00,000,42*4B
$BDGSV,1,1,04,02,00,000,36,05,00,000,43,13,00,000,42,29,00,000,43*61
$B3CN0,0,0,0,0,0,0,0,0,0,0,0,0,0,0*4C
$GLGSV,1,1,01,26,00,000,42*56
---00000032--- Acq_st=3 0  2019-4-3 9:42:17 
[00]  05(G06)  f 42  7  0  -4776.9  2046006.1 -0.0  2 0 1120 1971  815
[01]  06(G07)  f 35  7  0   1910.4  2045997.5 -0.2  2 0  639  567  365
[02]  12(G13)  f 44  7  0   -194.2  2046000.2 -0.1  2 0 1203 1931  789
[03]  16(G17)  f 46  7  0  -2260.5  2046002.9  0.0  2 0 3355 4855 2534
[04]  18(G19)  f 44  7  0  -3487.5  2046004.4  0.1  2 0 1887 2322  824
[05]  27(G28)  f 42  7  0  -2796.7  2046003.6  0.1  2 0  894 1610  734
[06]  29(G30)  f 43  7  0     37.5  2045999.8  0.0  2 0 1637 2571  825
[16]  38(B02) 1f 36 21  0  -1092.8  4092003.1 -0.7  2 0  708  630  194
[17]  41(B05) 1f 43 19  0  -1094.7  4092002.7  0.4  2 0 1115 1454  601
[18]  49(B13) 1f 42  7  0  -1700.0  4092004.3 -0.1  2 0 1682 1989 1014
[19]  65(B29) 1f 43  7  0  -1970.4  4092005.1 -0.0  2 0 1927 2045  840
[32]  79(N-2)  f 33  7  0  -2408.0  1022001.5 -0.1  5 0    89  323   78
[33]  86(N05) 8f 42  7  0  -1972.6  1022001.2  0.0  2 0   367  927  419
[48]  38(B02)  1 10 10  1   -499.6 20460017.7 -0.0  1 0  777  878  135
[49]  41(B05)  1 24 27  0  -1328.8 20460021.7  0.0  1 0  523  452  743
[50]  49(B13)  1  7  7  0  -1314.0 20460027.9  0.0  1 0  144  669  443
[51]  65(B29)  1  7  7  0  -3104.9 20460031.0  0.2  1 0  524  470  455
$GNGGA,094217.283,,,,,0,00,,,M,,,,0000*2B
$GNRMC,094217.283,A,,,,,,,030419,,*29
$GPGSA,A,1,,,,,,,,,,,,,,,*1E
$BDGSA,A,1,,,,,,,,,,,,,,,*0F
$GLGSA,A,1,,,,,,,,,,,,,,,*02
$GPGSV,2,1,07,06,00,000,42,07,00,000,35,13,00,000,44,17,00,000,46*7A
$GPGSV,2,2,07,19,00,000,44,28,00,000,42,30,00,000,43*4E
$BDGSV,1,1,04,02,00,000,36,05,00,000,43,13,00,000,42,29,00,000,43*61
$B3CN0,0,0,0,0,0,0,0,0,0,0,0,0,0,0*4C
$GLGSV,1,1,01,26,00,000,42*56
---00000033--- Acq_st=3 0  2019-4-3 9:42:18 
[00]  05(G06)  f 42  7  0  -4782.0  2046006.1  0.0  2 0 1197 1974 1245
[01]  06(G07)  f 36  7  0   1910.0  2045997.4  0.4  2 0  936  899  629
[02]  12(G13)  f 43  7  0   -200.7  2046000.2  0.0  2 0 1758 2168  972
[03]  16(G17)  f 45  7  0  -2266.3  2046002.9 -0.0  2 0 3225 4925 2174
[04]  18(G19)  f 45  7  0  -3492.0  2046004.4 -0.0  2 0 3438 3544 1268
[05]  27(G28)  f 42  7  0  -2803.6  2046003.5 -0.1  2 0 1186 1813  568
[06]  29(G30)  f 43 13  0     33.4  2045999.9  0.0  2 0 1566 2317  768
[16]  38(B02) 1f 36 23  0  -1093.2  4092002.7  0.6  2 0  651  679  374
[17]  41(B05) 1f 42 26  0  -1099.0  4092002.8  0.1  2 0  928 1471  707
[18]  49(B13) 1f 42  7  0  -1702.4  4092004.3  0.1  2 0 1522 1945 1011
[19]  65(B29) 1f 44 10  0  -1974.9  4092005.1 -0.0  2 0 2080 2667 1370
[32]  79(N-2)  f 33  7  0  -2410.4  1022001.5  0.1  5 0   332  451  217
[33]  86(N05) 8f 41  7  0  -1976.0  1022001.2  0.0  2 0   423 1436  622
[48]  38(B02)  1 10 10  1   -761.5 20460016.5  0.1  1 0   63  316  165
[49]  41(B05)  1 24 26  1  -1298.8 20460017.2 -0.1  1 0  751  880  649
[50]  49(B13)  1  7  7  0  -1385.2 20460027.7 -0.1  1 0  297  413  739
$GNGGA,094218.283,,,,,0,00,,,M,,,,0000*24
$GNRMC,094218.283,A,,,,,,,030419,,*26
$GPGSA,A,1,,,,,,,,,,,,,,,*1E
$BDGSA,A,1,,,,,,,,,,,,,,,*0F
$GLGSA,A,1,,,,,,,,,,,,,,,*02
$GPGSV,2,1,07,06,00,000,42,07,00,000,36,13,00,000,43,17,00,000,45*7D
$GPGSV,2,2,07,19,00,000,45,28,00,000,42,30,00,000,43*4F
$BDGSV,1,1,04,02,00,000,36,05,00,000,42,13,00,000,42,29,00,000,44*67
$B3CN0,0,0,0,0,0,0,0,0,0,0,0,0,0,0*4C
$GLGSV,1,1,01,26,00,000,41*55
---00000034--- Acq_st=3 0  2019-4-3 9:42:19 
[00]  05(G06)  f 43  7  0  -4774.8  2046006.1  0.0  2 0 1483 2165  552
[01]  06(G07)  f 36  7  0   1920.5  2045997.4  0.3  2 0 1131 1366  860
[02]  12(G13)  f 44  7  0   -193.8  2046000.2 -0.0  2 0 1477 2539 1001
[03]  16(G17)  f 45  7  0  -2260.0  2046002.9  0.0  2 0 3390 4523 1682
[04]  18(G19)  f 45  7  0  -3486.2  2046004.4 -0.0  2 0 2651 3905 1611
[05]  27(G28)  f 40  7  0  -2798.3  2046003.7  0.0  2 0  402 1456  898
[06]  29(G30)  f 43 13  0     37.7  2045999.9  0.0  2 0 1197 2165 1194
[16]  38(B02) 1f 35 27  0  -1089.1  4092002.8  0.6  2 0 1049 1090  489
[17]  41(B05) 1f 43 18  0  -1094.2  4092002.7  0.1  2 0  993 1282  516
[18]  49(B13) 1f 42  7  0  -1697.5  4092004.3 -0.0  2 0 1551 1639  440
[19]  65(B29) 1f 44  8  0  -1967.3  4092005.1 -0.0  2 0 1889 2307 1113
[32]  79(N-2)  f 33  7  0  -2404.2  1022001.5  0.0  5 0   297  724  318
[33]  86(N05) 8f 40  7  0  -1970.6  1022001.3 -0.3  2 0   758 1078  583
[48]  38(B02)  1 10 19  1   -441.2 20460020.7  0.1  1 0  249  236  339
[49]  41(B05)  1 25 28  1  -1286.2 20460021.4 -0.0  1 0  283  114  348
[50]  49(B13)  1  7  7  0  -1512.8 20460026.4 -0.0  1 0  547  211  327
[51]  65(B29)  1  7  7  0  -2167.8 20460030.8 -0.1  1 0  354  376  143
$GNGGA,094219.283,,,,,0,00,,,M,,,,0000*25
$GNRMC,094219.283,A,,,,,,,030419,,*27
$GPGSA,A,1,,,,,,,,,,,,,,,*1E
$BDGSA,A,1,,,,,,,,,,,,,,,*0F
$GLGSA,A,1,,,,,,,,,,,,,,,*02
$GPGSV,2,1,07,06,00,000,43,07,00,000,36,13,00,000,44,17,00,000,45*7B
$GPGSV,2,2,07,19,00,000,45,28,00,000,40,30,00,000,43*4D
$BDGSV,1,1,04,02,00,000,36,05,00,000,43,13,00,000,42,29,00,000,44*66
$B3CN0,0,0,0,0,0,0,0,0,0,0,0,0,0,0*4C
$GLGSV,1,1,01,26,00,000,40*54
---00000035--- Acq_st=3 0  2019-4-3 9:42:20 
[00]  05(G06)  f 42  7  0  -4780.9  2046006.1  0.0  2 0 1244 2018  956
[01]  06(G07)  f 37  7  0   1908.3  2045997.4  0.1  2 0  622  674  277
[02]  12(G13)  f 42  7  0   -199.9  2046000.2  0.1  2 0 1336 2156 1014
[03]  16(G17)  f 45  7  0  -2269.3  2046002.9 -0.0  2 0 3479 4798 2381
[04]  18(G19)  f 45  7  0  -3496.8  2046004.4  0.1  2 0 3229 4121 1723
[05]  27(G28)  f 40  7  0  -2810.1  2046003.6  0.0  2 0  839 1740 1009
[06]  29(G30)  f 42  7  0     28.4  2045999.9  0.0  2 0 1525 2023 1596
[16]  38(B02) 1f 36 18  0  -1101.7  4092002.6  0.8  2 0  757 1056  324
[17]  41(B05) 1f 43 25  0  -1103.7  4092002.8 -0.2  2 0 1316 1878  484
[18]  49(B13) 1f 42  7  0  -1711.6  4092004.3  0.1  2 0 1379 2126  963
[19]  65(B29) 1f 43  7  0  -1979.0  4092005.1 -0.0  2 0 1305 1976 1081
[32]  79(N-2)  f 33  7  0  -2413.5  1022001.4  0.0  5 0   409  503  373
[33]  86(N05) 8f 40  7  0  -1981.9  1022001.2  0.2  2 0   473 1149  597
[48]  38(B02)  7 16 18  1   -930.4 20460014.3 -0.1  2 0  126  394  783
[50]  49(B13)  1  7  7  0   -690.2 20460026.7 -0.1  1 0  557  184  404
[51]  65(B29)  1  7  7  0  -2008.8 20460030.9 -0.0  1 0  383  140  255
$GNGGA,094220.283,,,,,0,00,,,M,,,,0000*2F
$GNRMC,094220.283,A,,,,,,,030419,,*2D
$GPGSA,A,1,,,,,,,,,,,,,,,*1E
$BDGSA,A,1,,,,,,,,,,,,,,,*0F
$GLGSA,A,1,,,,,,,,,,,,,,,*02
$GPGSV,2,1,07,06,00,000,42,07,00,000,37,13,00,000,42,17,00,000,45*7D
$GPGSV,2,2,07,19,00,000,45,28,00,000,40,30,00,000,42*4C
$BDGSV,1,1,04,02,00,000,36,05,00,000,43,13,00,000,42,29,00,000,43*61
$B3CN0,0,16,0,0,0,0,0,0,0,0,0,0,0,0*7B
$GLGSV,1,1,01,26,00,000,40*54
---00000036--- Acq_st=7 0  2019-4-3 9:42:21 
[00]  05(G06)  f 42  7  0  -4786.1  2046006.1  0.0  2 0  955 2008 1403
[01]  06(G07)  f 37  7  0   1912.5  2045997.5 -0.3  2 0  659  761  620
[02]  12(G13)  f 43  7  0   -200.9  2046000.2 -0.0  2 0 1798 2764 1255
[03]  16(G17)  f 45  7  0  -2269.8  2046002.9 -0.0  2 0 3175 4921 2311
[04]  18(G19)  f 45  7  0  -3496.8  2046004.5  0.0  2 0 3176 4799 1852
[05]  27(G28)  f 40  7  0  -2810.5  2046003.6  0.0  2 0  990 1971 1362
[06]  29(G30)  f 42 10  0     29.1  2045999.9 -0.0  2 0 1212 2704 1662
[16]  38(B02) 1f 37 26  0  -1102.5  4092002.7 -0.6  2 0  230  425  231
[17]  41(B05) 1f 43 23  0  -1103.7  4092002.8  0.2  2 0 1220 1550  629
[18]  49(B13) 1f 42  7  0  -1705.9  4092004.4 -0.1  2 0 1249 1488  603
[19]  65(B29) 1f 44 10  0  -1977.4  4092005.1  0.1  2 0 2135 2380 1061
[32]  79(N-2)  f 33  7  0  -2412.9  1022001.5  0.0  5 0   330  334  152
[33]  86(N05) 8f 40  7  0  -1980.2  1022001.2  0.1  2 0   693 1299  667
[48]  38(B02)  7 20 23  0  -1219.0 20460019.2  0.1  2 0  172  279  274
[49]  41(B05)  1 23 24  0   -667.7 20460015.2  0.0  1 0  220  316  171
[51]  65(B29)  1  7  7  0  -2129.4 20460032.4 -0.1  1 0  473  193  477
$GNGGA,094221.283,,,,,0,00,,,M,,,,0000*2E
$GNRMC,094221.283,A,,,,,,,030419,,*2C
$GPGSA,A,1,,,,,,,,,,,,,,,*1E
$BDGSA,A,1,,,,,,,,,,,,,,,*0F
$GLGSA,A,1,,,,,,,,,,,,,,,*02
$GPGSV,2,1,07,06,00,000,42,07,00,000,37,13,00,000,43,17,00,000,45*7C
$GPGSV,2,2,07,19,00,000,45,28,00,000,40,30,00,000,42*4C
$BDGSV,1,1,04,02,00,000,37,05,00,000,43,13,00,000,42,29,00,000,44*67
$B3CN0,0,18,0,0,0,0,0,0,0,0,0,0,0,0*75
$GLGSV,1,1,01,26,00,000,40*54
---00000037--- Acq_st=7 0  2019-4-3 9:42:22 
[00]  05(G06)  f 43  7  0  -4776.4  2046006.1  0.0  2 0 1038 2123 1223
[01]  06(G07)  f 38  7  0   1912.8  2045997.4 -0.2  2 0 1053  936  111
[02]  12(G13)  f 43  7  0   -196.2  2046000.2  0.0  2 0 1691 2616 1317
[03]  16(G17)  f 45  7  0  -2259.0  2046002.9 -0.0  2 0 2786 4161 1888
[04]  18(G19)  f 46  7  0  -3487.7  2046004.4 -0.0  2 0 3291 4776 1732
[05]  27(G28)  f 40  7  0  -2798.1  2046003.6  0.1  2 0  455 1182 1070
[06]  29(G30)  f 43  7  0     35.6  2045999.9  0.0  2 0 1263 1713  719
[16]  38(B02) 1f 35 24  0  -1083.6  4092002.7 -0.8  2 0  592  900  372
[17]  41(B05) 1f 42 21  0  -1092.4  4092002.8 -0.1  2 0 1166 1594  577
[18]  49(B13) 1f 42  7  0  -1703.7  4092004.4  0.0  2 0 1141 1890  916
[19]  65(B29) 1f 43  7  0  -1969.2  4092005.0 -0.0  2 0 1339 2087 1202
[32]  79(N-2)  f 34  7  0  -2403.8  1022001.6 -0.1  5 0   610  420   51
[33]  86(N05) 8f 40  7  0  -1969.4  1022001.2  0.2  2 0   645 1041  471
[48]  38(B02)  7 14 21  0  -1805.0 20460028.0 -0.2  2 0  558  279   70
[49]  41(B05)  1 26 22  1   -579.0 20460019.1  0.0  1 0  519  238  191
[50]  49(B13)  1 11  7  0  -1305.8 20460028.1 -0.0  1 0  587  386  259
[51]  65(B29)  1  7  7  0  -2339.8 20460031.2 -0.1  1 0  828  824  533
$GNGGA,094222.283,,,,,0,00,,,M,,,,0000*2D
$GNRMC,094222.283,A,,,,,,,030419,,*2F
$GPGSA,A,1,,,,,,,,,,,,,,,*1E
$BDGSA,A,1,,,,,,,,,,,,,,,*0F
$GLGSA,A,1,,,,,,,,,,,,,,,*02
$GPGSV,2,1,07,06,00,000,43,07,00,000,38,13,00,000,43,17,00,000,45*72
$GPGSV,2,2,07,19,00,000,46,28,00,000,40,30,00,000,43*4E
$BDGSV,1,1,04,02,00,000,35,05,00,000,42,13,00,000,42,29,00,000,43*63
$B3CN0,0,17,0,0,0,0,0,0,0,0,0,0,0,0*7A
$GLGSV,1,1,01,26,00,000,40*54
---00000038--- Acq_st=3 0  2019-4-3 9:42:23 
[00]  05(G06)  f 42  7  0  -4777.2  2046006.1 -0.0  2 0 1009 2013  885
[01]  06(G07)  f 38  7  0   1920.9  2045997.4  0.1  2 0 1206 1196  301
[02]  12(G13)  f 43  7  0   -196.5  2046000.2 -0.0  2 0 1314 2196 1132
[03]  16(G17)  f 45  7  0  -2262.9  2046002.9 -0.0  2 0 3022 4771 2748
[04]  18(G19)  f 45  7  0  -3487.1  2046004.5 -0.0  2 0 4001 5346 2182
[05]  27(G28)  f 42  7  0  -2802.5  2046003.5 -0.0  2 0 1140 1813  745
[06]  29(G30)  f 42 11  0     38.0  2045999.9  0.0  2 0 1526 2533 1060
[08]  07(G08)  1  7  7  0  -8250.0  2046009.9  0.0  1 0  178  498  356
[16]  38(B02) 1f 37 24  0  -1099.2  4092002.8 -0.1  2 0  457  691  434
[17]  41(B05) 1f 42 24  0  -1093.9  4092002.7  0.2  2 0  994 1543  820
[18]  49(B13) 1f 42  7  0  -1698.2  4092004.3  0.1  2 0 1395 2116 1075
[19]  65(B29) 1f 43  7  0  -1972.4  4092005.0 -0.0  2 0 1771 2287  915
[32]  79(N-2)  f 33  7  0  -2405.1  1022001.6 -0.1  5 0   388  111  112
[33]  86(N05) 8f 40  7  0  -1971.1  1022001.2  0.2  2 0   429  591  665
[48]  38(B02)  7 18 18  1  -2077.9 20460031.0 -0.0  2 0  297  392  505
[49]  41(B05)  1 25 23  1   -562.2 20460018.2 -0.1  1 0  430  675  974
[50]  49(B13)  1 11  7  0  -1385.7 20460027.4 -0.2  1 0  193   65  200
$GNGGA,094223.283,,,,,0,00,,,M,,,,0000*2C
$GNRMC,094223.283,A,,,,,,,030419,,*2E
$GPGSA,A,1,,,,,,,,,,,,,,,*1E
$BDGSA,A,1,,,,,,,,,,,,,,,*0F
$GLGSA,A,1,,,,,,,,,,,,,,,*02
$GPGSV,2,1,07,06,00,000,42,07,00,000,38,13,00,000,43,17,00,000,45*73
$GPGSV,2,2,07,19,00,000,45,28,00,000,42,30,00,000,42*4E
$BDGSV,1,1,04,02,00,000,37,05,00,000,42,13,00,000,42,29,00,000,43*61
$B3CN0,0,18,0,0,0,0,0,0,0,0,0,0,0,0*75
$GLGSV,1,1,01,26,00,000,40*54
---00000039--- Acq_st=3 0  2019-4-3 9:42:24 
[00]  05(G06)  f 42  7  0  -4778.0  2046006.1  0.0  2 0 2025 2620 1049
[01]  06(G07)  f 38  7  0   1916.4  2045997.4  0.0  2 0  879 1056  346
[02]  12(G13)  f 43  7  0   -192.6  2046000.2  0.1  2 0  974 2036 1122
[03]  16(G17)  f 45  7  0  -2261.0  2046002.9  0.0  2 0 2940 4260 1874
[04]  18(G19)  f 45  7  0  -3488.1  2046004.5  0.0  2 0 3036 5097 2364
[05]  27(G28)  f 41  7  0  -2800.3  2046003.5 -0.1  2 0 1051 1361  425
[06]  29(G30)  f 43  8  0     38.5  2045999.8 -0.1  2 0 1597 2313 1059
[08]  07(G08)  1  7  7  0  -7636.8  2046009.4  0.2  1 0  300  112   69
[16]  38(B02) 1f 36 24  0  -1093.6  4092002.7 -0.3  2 0 1003 1247  609
[17]  41(B05) 1f 41 23  0  -1093.4  4092002.7 -0.2  2 0 1276 1702  844
[18]  49(B13) 1f 42  7  0  -1703.6  4092004.3 -0.0  2 0 1535 2096 1086
[19]  65(B29) 1f 43 10  0  -1969.1  4092005.1 -0.1  2 0 1600 2041  777
[32]  79(N-2)  f 33 12  0  -2403.6  1022001.5 -0.0  5 0   365  536  252
[33]  86(N05) 8f 40  7  0  -1969.9  1022001.2  0.1  2 0   727  851  308
[49]  41(B05)  1 25 23  0   -566.7 20460019.5 -0.1  1 0  502   56   94
[50]  49(B13)  1  7  7  0  -1438.9 20460025.6 -0.2  1 0  387  844  734
[51]  65(B29)  1  7  7  0  -2289.6 20460030.6  0.1  1 0  323  506  537
$GNGGA,094224.166,2944.9253,N,10633.0771,E,1,09,2.2,339.2,M,,,,0000*1B
$GNRMC,094224.166,A,2944.9253,N,10633.0771,E,1.15,0.00,030419,,*1F
$GPGSA,A,3,06,13,17,19,28,30,,,,,,,2.9,2.2,1.8*33
$BDGSA,A,3,02,05,29,,,,,,,,,,2.9,2.2,1.8*2D
$GLGSA,A,3,,,,,,,,,,,,,2.9,2.2,1.8*2C
$GPGSV,2,1,07,06,00,000,42,07,00,000,38,13,00,000,43,17,00,000,45*73
$GPGSV,2,2,07,19,00,000,45,28,00,000,41,30,00,000,43*4C
$BDGSV,1,1,04,02,00,000,37,05,00,000,41,13,00,000,42,29,00,000,43*62
$B3CN0,0,0,0,0,0,0,0,0,0,0,0,0,0,0*4C
$GLGSV,1,1,01,26,00,000,40*54
---00000040--- Acq_st=3 0  2019-4-3 9:42:24 
[00]  05(G06)  f 42  7  0  -4778.4  2046006.2 -0.1  2 0  761 1340  557
[01]  06(G07)  f 38  7  0   1920.5  2045997.4 -0.4  2 0  730 1453  835
[02]  12(G13)  f 42  7  0   -195.1  2046000.2  0.1  2 0 1884 2512 1041
[03]  16(G17)  f 46  7  0  -2264.6  2046002.9  0.0  2 0 2545 4392 2368
[04]  18(G19)  f 45  7  0  -3490.5  2046004.5 -0.0  2 0 2856 4821 2260
[05]  27(G28)  f 41  7  0  -2801.7  2046003.5 -0.1  2 0 1279 1408  476
[06]  29(G30)  f 44 10  0     37.0  2045999.8  0.0  2 0 1691 2428 1021
[08]  07(G08)  1  7  7  0  -7356.6  2046009.8  0.1  1 0  337  732  432
[16]  38(B02) 1f 36 23  0  -1092.6  4092002.6  0.8  2 0 1035  884  546
[17]  41(B05) 1f 42 23  0  -1098.4  4092002.8  0.6  2 0  954 1784 1114
[18]  49(B13) 1f 42  7  0  -1703.1  4092004.4  0.0  2 0 1544 1529  424
[19]  65(B29) 1f 43  7  0  -1972.5  4092005.0  0.0  2 0 1139 1846  954
[32]  79(N-2)  f 33  7  0  -2405.0  1022001.5  0.1  5 0   239  501   96
[33]  86(N05) 8f 40  7  0  -1975.6  1022001.3 -0.2  2 0   889  962  569
[48]  38(B02)  1 10 16  1  -1123.4 20460021.5 -0.0  1 0  199  152  260
[50]  49(B13)  1  7  7  0  -1442.2 20460026.6  0.0  1 0  317  246  664
[51]  65(B29)  1  9  7  0  -2576.7 20460030.5  0.1  1 0  796  373  237
BDS IONO corr PRN[02] 46.92 219.16 41.30 294163.88
usrllh latitude:0.519214 longitude:1.859671
 source:0 ion_pt: a0:0.000000 a1:0.000000 a2:-0.000002 a3:0.000004 b0:153600.000000 b1:-720896.000000 b2:2621440.000000 b3:-720896.000000 
BDS IONO corr PRN[05] 27.27 244.76 56.38 294163.87
usrllh latitude:0.519214 longitude:1.859671
 source:0 ion_pt: a0:0.000000 a1:0.000000 a2:-0.000002 a3:0.000004 b0:153600.000000 b1:-720896.000000 b2:2621440.000000 b3:-720896.000000 
BDS IONO corr PRN[29] 53.04 271.75 53.39 294163.92
usrllh latitude:0.519214 longitude:1.859671
 source:0 ion_pt: a0:0.000000 a1:0.000000 a2:-0.000002 a3:0.000004 b0:153600.000000 b1:-720896.000000 b2:2621440.000000 b3:-720896.000000 
Refix G06: 2, 294163.914913, -4782
Refix G13: 2, 294163.916099, -198
Refix G17: 2, 294163.925424, -2266
Refix G19: 2, 294163.919943, -3493
Refix G28: 2, 294163.927938, -2806
Refix G30: 2, 294163.930858, 32
$GNGGA,094226.000,2944.9168,N,10633.0704,E,1,09,1.2,354.4,M,,,,0000*1F
$GNRMC,094226.000,A,2944.9168,N,10633.0704,E,0.88,0.00,030419,,*10
$GPGSA,A,3,06,13,17,19,28,30,,,,,,,1.5,1.2,0.8*3E
$BDGSA,A,3,02,05,29,,,,,,,,,,1.5,1.2,0.8*20
$GLGSA,A,3,,,,,,,,,,,,,1.5,1.2,0.8*21
$GPGSV,2,1,07,06,00,000,42,07,00,000,38,13,00,000,42,17,00,000,46*71
$GPGSV,2,2,07,19,00,000,45,28,00,000,41,30,00,000,44*4B
$BDGSV,1,1,04,02,00,000,36,05,00,000,42,13,00,000,42,29,00,000,43*60
$B3CN0,0,0,0,0,0,0,0,0,0,0,0,0,0,0*4C
$GLGSV,1,1,01,26,00,000,40*54
---00000041--- Acq_st=3 0  2019-4-3 9:42:26 
[00]  05(G06)  f 41  7  0  -4783.6  2046006.1 -0.0  2 0 1398 2495 1587
[01]  06(G07)  f 38  7  0   1914.2  2045997.5 -0.0  2 0  741 1318  443
[02]  12(G13)  f 43  7  0   -199.5  2046000.2 -0.0  2 0 1249 2450 1129
[03]  16(G17)  f 46  7  0  -2266.2  2046002.9 -0.0  2 0 2585 4391 2377
[04]  18(G19)  f 45  7  0  -3494.6  2046004.5 -0.0  2 0 2352 4339 2129
[05]  27(G28)  f 42  7  0  -2809.2  2046003.5  0.1  2 0 1574 1864  511
[06]  29(G30)  f 43  7  0     32.9  2045999.9 -0.0  2 0 2162 2723  894
[08]  07(G08)  1  7 13  0  -7779.5  2046010.0 -0.0  1 0  281  563  690
[16]  38(B02) 1f 36 23  0  -1099.8  4092002.7  0.1  2 0  500  652  250
[17]  41(B05) 1f 42 24  0  -1104.6  4092002.8  0.0  2 0  983 1773  874
[18]  49(B13) 1f 42  7  0  -1707.1  4092004.3 -0.0  2 0 1213 1516  437
[19]  65(B29) 1f 43  7  0  -1978.7  4092005.1 -0.0  2 0 1991 2489 1291
[32]  79(N-2)  f 34  8  0  -2408.7  1022001.5  0.0  5 0   280  341  334
[33]  86(N05) 8f 40  7  0  -1977.3  1022001.2  0.0  2 0   867 1265  522
[48]  38(B02)  1 36 18  0  -1465.2 20460019.0 -0.1  1 0  148  186   87
[49]  41(B05)  1 17 23  0   -943.2 20460013.3  0.0  1 0  451  484  225
[51]  65(B29)  1  7  7  0  -3268.8 20460030.4  0.1  1 0  529  460  563
BDS IONO corr PRN[02] 46.92 219.16 41.30 294164.88
usrllh latitude:0.519211 longitude:1.859669
 source:0 ion_pt: a0:0.000000 a1:0.000000 a2:-0.000002 a3:0.000004 b0:153600.000000 b1:-720896.000000 b2:2621440.000000 b3:-720896.000000 
BDS IONO corr PRN[05] 27.27 244.76 56.37 294164.87
usrllh latitude:0.519211 longitude:1.859669
 source:0 ion_pt: a0:0.000000 a1:0.000000 a2:-0.000002 a3:0.000004 b0:153600.000000 b1:-720896.000000 b2:2621440.000000 b3:-720896.000000 
BDS IONO corr PRN[29] 53.04 271.75 53.39 294164.92
usrllh latitude:0.519211 longitude:1.859669
 source:0 ion_pt: a0:0.000000 a1:0.000000 a2:-0.000002 a3:0.000004 b0:153600.000000 b1:-720896.000000 b2:2621440.000000 b3:-720896.000000 
Refix G06: 2, 294164.914916, -4781
Refix G13: 2, 294164.916099, -198
Refix G17: 2, 294164.925425, -2266
Refix G19: 2, 294164.919945, -3493
Refix G28: 2, 294164.927940, -2806
Refix G30: 2, 294164.930858, 34
$GNGGA,094227.000,2944.9176,N,10633.0662,E,1,09,1.2,350.8,M,,,,0000*18
$GNRMC,094227.000,A,2944.9176,N,10633.0662,E,0.61,0.00,030419,,*18
$GPGSA,A,3,06,13,17,19,28,30,,,,,,,1.5,1.2,0.8*3E
