FlashID=0x1 0x20 0x18

BBram_blkflag1: 389b: c764

FW Ver: 1.30  
GPS00 Init Dop:  -5000, 41
GPS01 Init Dop:  -5000, 41
GPS02 Init Dop:  -5000, 41
GPS03 Init Dop:  -5000, 41
GPS04 Init Dop:  -5000, 41
GPS05 Init Dop:  -5000, 41
GPS06 Init Dop:  -5000, 41
GPS07 Init Dop:  -5000, 41
GPS08 Init Dop:  -5000, 41
GPS09 Init Dop:  -5000, 41
GPS10 Init Dop:  -5000, 41
GPS11 Init Dop:  -5000, 41
GPS12 Init Dop:  -5000, 41
GPS13 Init Dop:  -5000, 41
GPS14 Init Dop:  -5000, 41
GPS15 Init Dop:  -5000, 41
GPS16 Init Dop:  -5000, 41
GPS17 Init Dop:  -5000, 41
GPS18 Init Dop:  -5000, 41
GPS19 Init Dop:  -5000, 41
GPS20 Init Dop:  -5000, 41
GPS21 Init Dop:  -5000, 41
GPS22 Init Dop:  -5000, 41
GPS23 Init Dop:  -5000, 41
GPS24 Init Dop:  -5000, 41
GPS25 Init Dop:  -5000, 41
GPS26 Init Dop:  -5000, 41
GPS27 Init Dop:  -5000, 41
GPS28 Init Dop:  -5000, 41
GPS29 Init Dop:  -5000, 41
GPS30 Init Dop:  -5000, 41
GPS31 Init Dop:  -5000, 41
BDS00 Init Dop:  -5000, 41
BDS01 Init Dop:  -5000, 41
BDS02 Init Dop:  -5000, 41
BDS03 Init Dop:  -5000, 41
BDS04 Init Dop:  -5000, 41
BDS05 Init Dop:  -5000, 41
BDS06 Init Dop:  -5000, 41
BDS07 Init Dop:  -5000, 41
BDS08 Init Dop:  -5000, 41
BDS09 Init Dop:  -5000, 41
BDS10 Init Dop:  -5000, 41
BDS11 Init Dop:  -5000, 41
BDS12 Init Dop:  -5000, 41
BDS13 Init Dop:  -5000, 41
---00000001--- Acq_st=3 2019-10-4 07:26:22 
---00000002--- Acq_st=3 2019-10-4 07:26:23 
[00]  G18  1  7   8013.4 2045990.2  0.0  0.0  1  0         0
$GNGGA,000000.000,,,,,0,00,,,M,,,,0000*2B

$GNRMC,000000.000,A,,,,,,,000000,,*26

$GPGSA,A,1,,,,,,,,,,,,,,,*1E

$BDGSA,A,1,,,,,,,,,,,,,,,*0F

$LOGTIM,0,0.000000,0.000000,0.000000,0.000000,0.000*0A

BDS judge:38,2958,2870,i=0
BDS judge:38,3198,3441,i=1
BDS judge:38,3273,3300,i=2
BDS judge:38,3544,3527,i=3
BDS judge:38,3483,3467,i=4
BDS judge:38,3223,3661,i=5
BDS judge:38,3401,3656,i=6
BDS judge:38,3329,3406,i=7
BDS judge:38,3109,3222,i=8
BDS judge:38,2966,2821,i=9
BDS judge:38,2799,2942,i=10
BDS judge:38,2661,2895,i=11
BDS judge:38,2619,2692,i=12
BDS judge:38,2674,2635,i=13
BDS judge:38,2726,2722,i=14
BDS judge:38,2813,2931,i=15
BDS judge:38,2988,3018,i=16
BDS judge:38,3309,3370,i=17
BDS judge:38,3634,3205,i=18
BDS judge:38,3289,3215,i=19
BDS judge:38,3586,3066,i=20
BDS judge:38,3125,2894,i=21
BDS judge:38,2896,2810,i=22
BDS judge:38,2686,2681,i=23
BDS judge:38,2943,2772,i=24
BDS judge:38,2526,2433,i=25
BDS judge:38,2448,2582,i=26
BDS judge:38,2654,2565,i=27
BDS judge:38,2551,2536,i=28
BDS judge:38,2709,2611,i=29
BDS judge:38,2678,2570,i=30
BDS judge:38,2739,3002,i=31
BDS judge:38,2853,2838,i=32
BDS judge:38,3143,3535,i=33
BDS judge:38,3344,3685,i=34
BDS judge:38,3382,3856,i=35
BDS judge:38,3627,4173,i=36
BDS judge:38,4259,4099,i=37
BDS judge:38,4029,4051,i=38
BDS judge:38,3841,3946,i=39
BDS judge:38,3494,3689,i=40
BDS judge:38,3120,0,i=41
BDS judge:38,2958,3023,i=0
BDS judge:38,3255,3271,i=1
BDS judge:38,3411,3258,i=2
BDS judge:38,3443,3348,i=3
BDS judge:38,3576,3592,i=4
BDS judge:38,3609,3488,i=5
BDS judge:38,3440,3550,i=6
BDS judge:38,3521,3655,i=7
BDS judge:38,3055,3157,i=8
BDS judge:38,2931,2875,i=9
BDS judge:38,2717,2706,i=10
BDS judge:38,2706,3079,i=11
BDS judge:38,2623,2883,i=12
BDS judge:38,2583,2725,i=13
BDS judge:38,3017,2685,i=14
BDS judge:38,2779,3020,i=15
BDS judge:38,3107,3468,i=16
BDS judge:38,3144,3614,i=17
BDS judge:38,3724,3327,i=18
BDS judge:38,3359,3192,i=19
BDS judge:38,3185,3141,i=20
BDS judge:38,3357,3001,i=21
BDS judge:38,3015,2987,i=22
BDS judge:38,2980,2930,i=23
BDS judge:38,2702,2952,i=24
BDS judge:38,2593,3138,i=25
BDS judge:38,2388,2841,i=26
BDS judge:38,2606,3040,i=27
BDS judge:38,2772,2657,i=28
BDS judge:38,2505,2523,i=29
BDS judge:38,2579,3082,i=30
BDS judge:38,2883,2941,i=31
BDS judge:38,2847,3311,i=32
BDS judge:38,2998,3150,i=33
BDS judge:38,3473,3603,i=34
BDS judge:38,3807,3546,i=35
BDS judge:38,3731,4194,i=36
BDS judge:38,4461,3991,i=37
BDS judge:38,4324,3690,i=38
BDS judge:38,3783,3910,i=39
BDS judge:38,3724,3780,i=40
BDS judge:38,3722,0,i=41
---00000003--- Acq_st=3 2019-10-4 07:26:24 
[00]  G18  1  7   8023.6 2045990.0  0.0  0.0  1  0        13
BDS judge:39,3056,3198,i=0
BDS judge:39,3393,3295,i=1
BDS judge:39,3084,2932,i=2
BDS judge:39,2796,2608,i=3
BDS judge:39,2471,2440,i=4
BDS judge:39,2205,2274,i=5
BDS judge:39,2331,2232,i=6
BDS judge:39,2045,2393,i=7
BDS judge:39,2229,2414,i=8
BDS judge:39,2257,2326,i=9
BDS judge:39,2419,2318,i=10
BDS judge:39,2613,2412,i=11
BDS judge:39,2699,2685,i=12
BDS judge:39,2732,2605,i=13
BDS judge:39,2835,2545,i=14
BDS judge:39,2760,2600,i=15
BDS judge:39,2604,2806,i=16
BDS judge:39,2615,2684,i=17
BDS judge:39,2577,2785,i=18
BDS judge:39,2670,2752,i=19
BDS judge:39,2573,2879,i=20
BDS judge:39,2822,2754,i=21
BDS judge:39,2817,2770,i=22
BDS judge:39,2467,2538,i=23
BDS judge:39,2559,2413,i=24
BDS judge:39,2347,2400,i=25
BDS judge:39,2375,2275,i=26
BDS judge:39,2229,2202,i=27
BDS judge:39,2451,2388,i=28
BDS judge:39,2488,2627,i=29
BDS judge:39,2697,2445,i=30
BDS judge:39,2890,2719,i=31
BDS judge:39,3040,2983,i=32
BDS judge:39,3148,3340,i=33
BDS judge:39,2983,3123,i=34
BDS judge:39,2977,3071,i=35
BDS judge:39,2992,3250,i=36
BDS judge:39,3242,3115,i=37
BDS judge:39,3171,3325,i=38
BDS judge:39,2976,2852,i=39
BDS judge:39,2862,2792,i=40
BDS judge:39,2770,0,i=41
BDS judge:39,3056,2971,i=0
BDS judge:39,3032,2975,i=1
BDS judge:39,2922,2692,i=2
BDS judge:39,2679,2679,i=3
BDS judge:39,2502,2452,i=4
BDS judge:39,2439,2454,i=5
BDS judge:39,2316,2339,i=6
BDS judge:39,2454,2316,i=7
BDS judge:39,2418,2340,i=8
BDS judge:39,2873,2380,i=9
BDS judge:39,2598,2245,i=10
BDS judge:39,2576,2662,i=11
BDS judge:39,2654,3039,i=12
BDS judge:39,2854,2745,i=13
BDS judge:39,2857,3110,i=14
BDS judge:39,2726,2800,i=15
BDS judge:39,2775,2785,i=16
BDS judge:39,2707,2957,i=17
BDS judge:39,2929,2758,i=18
BDS judge:39,2915,3043,i=19
BDS judge:39,2913,2561,i=20
BDS judge:39,3032,2599,i=21
BDS judge:39,3038,2754,i=22
BDS judge:39,2776,2578,i=23
BDS judge:39,2859,2278,i=24
BDS judge:39,2731,2445,i=25
BDS judge:39,2209,2208,i=26
BDS judge:39,2138,2165,i=27
BDS judge:39,2319,2403,i=28
BDS judge:39,2514,2323,i=29
BDS judge:39,2808,2642,i=30
BDS judge:39,2989,2938,i=31
BDS judge:39,3031,3266,i=32
BDS judge:39,3244,3137,i=33
BDS judge:39,3146,3131,i=34
BDS judge:39,3027,3288,i=35
BDS judge:39,3137,3365,i=36
BDS judge:39,3261,3322,i=37
BDS judge:39,3070,3257,i=38
BDS judge:39,2941,3126,i=39
BDS judge:39,2833,2938,i=40
BDS judge:39,2762,0,i=41
BDS judge:40,2320,2289,i=0
BDS judge:40,2338,2317,i=1
BDS judge:40,2480,2363,i=2
BDS judge:40,2611,2497,i=3
BDS judge:40,2707,2547,i=4
BDS judge:40,2848,2593,i=5
BDS judge:40,2952,2912,i=6
BDS judge:40,3012,2917,i=7
BDS judge:40,2771,3008,i=8
BDS judge:40,3059,2825,i=9
BDS judge:40,2821,3014,i=10
BDS judge:40,3356,2833,i=11
BDS judge:40,2764,2604,i=12
BDS judge:40,2718,2886,i=13
BDS judge:40,2717,2650,i=14
BDS judge:40,2878,2774,i=15
BDS judge:40,3098,2640,i=16
BDS judge:40,3324,2846,i=17
BDS judge:40,3052,2712,i=18
BDS judge:40,2762,2727,i=19
BDS judge:40,2807,2677,i=20
BDS judge:40,2959,2766,i=21
BDS judge:40,3011,2847,i=22
BDS judge:40,2873,2779,i=23
BDS judge:40,2805,3068,i=24
BDS judge:40,2960,2765,i=25
BDS judge:40,2896,2794,i=26
BDS judge:40,2766,2651,i=27
BDS judge:40,2601,2877,i=28
BDS judge:40,2591,3073,i=29
BDS judge:40,2704,2617,i=30
BDS judge:40,2639,2855,i=31
BDS judge:40,2715,3090,i=32
BDS judge:40,3025,3139,i=33
BDS judge:40,3137,2823,i=34
BDS judge:40,2964,2715,i=35
BDS judge:40,2696,2578,i=36
BDS judge:40,2302,2393,i=37
BDS judge:40,2289,2498,i=38
BDS judge:40,2395,2366,i=39
BDS judge:40,2617,2575,i=40
BDS judge:40,2925,0,i=41
BDS judge:40,2320,2528,i=0
BDS judge:40,2585,2344,i=1
BDS judge:40,2624,2452,i=2
BDS judge:40,2783,2495,i=3
BDS judge:40,2813,2738,i=4
BDS judge:40,2963,2891,i=5
BDS judge:40,2862,2776,i=6
BDS judge:40,3017,3079,i=7
BDS judge:40,3047,2842,i=8
BDS judge:40,3477,2952,i=9
BDS judge:40,2955,3038,i=10
BDS judge:40,2829,3073,i=11
BDS judge:40,2895,2922,i=12
BDS judge:40,2988,2713,i=13
BDS judge:40,2660,2677,i=14
BDS judge:40,2773,2742,i=15
BDS judge:40,2953,2692,i=16
BDS judge:40,3031,2812,i=17
BDS judge:40,3050,2654,i=18
BDS judge:40,2662,3117,i=19
BDS judge:40,2809,2887,i=20
BDS judge:40,3672,2776,i=21
BDS judge:40,3236,2719,i=22
BDS judge:40,3207,3161,i=23
BDS judge:40,2780,2977,i=24
BDS judge:40,2990,3098,i=25
BDS judge:40,2983,2927,i=26
BDS judge:40,2948,2894,i=27
BDS judge:40,2674,2881,i=28
BDS judge:40,2610,2637,i=29
BDS judge:40,2866,2763,i=30
BDS judge:40,2947,2774,i=31
BDS judge:40,3053,2883,i=32
BDS judge:40,3164,2990,i=33
BDS judge:40,3147,3486,i=34
BDS judge:40,2928,3120,i=35
BDS judge:40,2829,2826,i=36
BDS judge:40,2458,2531,i=37
BDS judge:40,2168,2299,i=38
BDS judge:40,2266,2508,i=39
BDS judge:40,2623,2607,i=40
BDS judge:40,2955,0,i=41
BDS judge:41,2950,2894,i=0
BDS judge:41,2953,3112,i=1
BDS judge:41,2743,2819,i=2
BDS judge:41,2765,3200,i=3
BDS judge:41,2983,3112,i=4
BDS judge:41,3235,3116,i=5
BDS judge:41,3406,3151,i=6
BDS judge:41,3355,3009,i=7
BDS judge:41,2654,3022,i=8
BDS judge:41,2616,2849,i=9
BDS judge:41,2255,2451,i=10
BDS judge:41,2377,2492,i=11
BDS judge:41,2229,2315,i=12
BDS judge:41,2321,2463,i=13
BDS judge:41,2433,2541,i=14
BDS judge:41,2964,2627,i=15
BDS judge:41,2624,2582,i=16
BDS judge:41,2597,2829,i=17
BDS judge:41,2470,2775,i=18
BDS judge:41,2517,2680,i=19
BDS judge:41,2530,2244,i=20
BDS judge:41,2318,2347,i=21
BDS judge:41,2338,2498,i=22
BDS judge:41,2187,2380,i=23
BDS judge:41,2439,2531,i=24
BDS judge:41,2361,2530,i=25
BDS judge:41,2427,2712,i=26
BDS judge:41,2704,2811,i=27
BDS judge:41,2918,3073,i=28
BDS judge:41,2962,3102,i=29
BDS judge:41,3233,3304,i=30
BDS judge:41,3374,3312,i=31
BDS judge:41,3625,3248,i=32
BDS judge:41,3043,2798,i=33
BDS judge:41,2603,2672,i=34
BDS judge:41,2477,2425,i=35
BDS judge:41,2349,2305,i=36
BDS judge:41,2723,2470,i=37
BDS judge:41,2608,2610,i=38
BDS judge:41,2917,2706,i=39
BDS judge:41,3104,2979,i=40
BDS judge:41,2987,0,i=41
BDS judge:41,2950,2966,i=0
BDS judge:41,2850,3086,i=1
BDS judge:41,2779,2704,i=2
BDS judge:41,2936,2877,i=3
BDS judge:41,2908,2865,i=4
BDS judge:41,2999,2921,i=5
BDS judge:41,3086,3131,i=6
BDS judge:41,2729,2934,i=7
BDS judge:41,2612,2737,i=8
BDS judge:41,2557,2445,i=9
BDS judge:41,2410,2329,i=10
BDS judge:41,2491,2332,i=11
BDS judge:41,2629,2424,i=12
BDS judge:41,2644,2440,i=13
BDS judge:41,2577,2420,i=14
BDS judge:41,2532,2407,i=15
BDS judge:41,2477,2663,i=16
BDS judge:41,2376,2418,i=17
BDS judge:41,2431,2560,i=18
BDS judge:41,2365,2357,i=19
BDS judge:41,2350,2364,i=20
BDS judge:41,2314,2350,i=21
BDS judge:41,2668,2298,i=22
BDS judge:41,2390,2512,i=23
BDS judge:41,2333,2351,i=24
BDS judge:41,2427,2364,i=25
BDS judge:41,2357,2605,i=26
BDS judge:41,2581,2716,i=27
BDS judge:41,2934,2949,i=28
BDS judge:41,3157,3301,i=29
BDS judge:41,3400,3981,i=30
BDS judge:41,3342,3408,i=31
BDS judge:41,3305,2955,i=32
BDS judge:41,3023,2825,i=33
BDS judge:41,2836,2559,i=34
BDS judge:41,2819,2488,i=35
BDS judge:41,2488,2250,i=36
BDS judge:41,2666,2608,i=37
BDS judge:41,2580,2958,i=38
BDS judge:41,2891,3211,i=39
BDS judge:41,3111,3260,i=40
BDS judge:41,3228,0,i=41
BDS judge:42,2356,2094,i=0
BDS judge:42,2779,2461,i=1
BDS judge:42,2446,2236,i=2
BDS judge:42,2552,2416,i=3
BDS judge:42,2477,2221,i=4
BDS judge:42,2623,2373,i=5
BDS judge:42,2529,2354,i=6
BDS judge:42,2681,2301,i=7
BDS judge:42,2373,2425,i=8
BDS judge:42,2276,2316,i=9
BDS judge:42,2372,2543,i=10
BDS judge:42,2610,2662,i=11
BDS judge:42,2388,2921,i=12
BDS judge:42,2312,2489,i=13
BDS judge:42,2311,2364,i=14
BDS judge:42,2026,2451,i=15
BDS judge:42,2157,2319,i=16
BDS judge:42,2327,2550,i=17
BDS judge:42,2342,2683,i=18
BDS judge:42,2620,2636,i=19
BDS judge:42,3079,3006,i=20
BDS judge:42,3031,3253,i=21
BDS judge:42,3491,3154,i=22
BDS judge:42,3443,2992,i=23
BDS judge:42,3634,3209,i=24
BDS judge:42,3580,3331,i=25
BDS judge:42,3353,3126,i=26
BDS judge:42,3456,3387,i=27
BDS judge:42,3391,3944,i=28
BDS judge:42,3868,3819,i=29
BDS judge:42,3673,3376,i=30
BDS judge:42,3427,3485,i=31
BDS judge:42,3678,3896,i=32
BDS judge:42,3451,3243,i=33
BDS judge:42,3316,3284,i=34
BDS judge:42,3246,3031,i=35
BDS judge:42,3188,2779,i=36
BDS judge:42,2722,2549,i=37
BDS judge:42,2757,2748,i=38
BDS judge:42,2689,2512,i=39
BDS judge:42,2382,2589,i=40
BDS judge:42,2247,0,i=41
BDS judge:42,2356,2236,i=0
BDS judge:42,2242,2350,i=1
BDS judge:42,2390,2548,i=2
BDS judge:42,2483,2368,i=3
BDS judge:42,2474,2626,i=4
BDS judge:42,2502,2715,i=5
BDS judge:42,2351,2508,i=6
BDS judge:42,2254,2436,i=7
BDS judge:42,2354,2352,i=8
BDS judge:42,2344,2184,i=9
BDS judge:42,2313,2209,i=10
BDS judge:42,2291,2242,i=11
BDS judge:42,2515,2417,i=12
BDS judge:42,2488,2491,i=13
BDS judge:42,2589,2302,i=14
BDS judge:42,2446,2164,i=15
BDS judge:42,2547,2205,i=16
BDS judge:42,2575,2311,i=17
BDS judge:42,2389,2549,i=18
BDS judge:42,2612,2946,i=19
BDS judge:42,2749,3270,i=20
BDS judge:42,2845,2945,i=21
BDS judge:42,3144,3369,i=22
BDS judge:42,3234,3382,i=23
BDS judge:42,3360,3130,i=24
BDS judge:42,3316,3535,i=25
BDS judge:42,3252,3224,i=26
BDS judge:42,3853,3626,i=27
BDS judge:42,3586,3218,i=28
BDS judge:42,3455,3575,i=29
BDS judge:42,3337,3433,i=30
BDS judge:42,3499,3325,i=31
BDS judge:42,3708,3551,i=32
BDS judge:42,3483,3544,i=33
BDS judge:42,3751,3461,i=34
BDS judge:42,3566,2935,i=35
BDS judge:42,3660,2706,i=36
BDS judge:42,3237,2507,i=37
BDS judge:42,2673,2552,i=38
BDS judge:42,2590,2577,i=39
BDS judge:42,2574,2702,i=40
BDS judge:42,2321,0,i=41
BDS judge:43,2477,2698,i=0
BDS judge:43,2566,3046,i=1
BDS judge:43,2676,2770,i=2
BDS judge:43,2774,2595,i=3
BDS judge:43,2767,2633,i=4
BDS judge:43,2463,2782,i=5
BDS judge:43,2413,2618,i=6
BDS judge:43,2618,2658,i=7
BDS judge:43,2661,2414,i=8
BDS judge:43,2524,2349,i=9
BDS judge:43,2285,2418,i=10
BDS judge:43,2440,2274,i=11
BDS judge:43,2398,2135,i=12
BDS judge:43,2310,2367,i=13
BDS judge:43,2401,2450,i=14
BDS judge:43,2398,2366,i=15
BDS judge:43,2501,2554,i=16
BDS judge:43,2326,2689,i=17
BDS judge:43,2459,2473,i=18
BDS judge:43,2472,2410,i=19
BDS judge:43,2364,2504,i=20
BDS judge:43,2351,2350,i=21
BDS judge:43,2122,2293,i=22
BDS judge:43,2028,2254,i=23
BDS judge:43,2070,2288,i=24
BDS judge:43,2308,2396,i=25
BDS judge:43,2124,2290,i=26
BDS judge:43,2339,2344,i=27
BDS judge:43,2173,2392,i=28
BDS judge:43,2272,2479,i=29
BDS judge:43,2207,2200,i=30
BDS judge:43,2437,2228,i=31
BDS judge:43,2506,2272,i=32
BDS judge:43,2463,2669,i=33
BDS judge:43,2627,2519,i=34
BDS judge:43,2713,2531,i=35
BDS judge:43,2548,2355,i=36
BDS judge:43,2599,2417,i=37
BDS judge:43,2441,2491,i=38
BDS judge:43,2374,2315,i=39
BDS judge:43,2535,2425,i=40
BDS judge:43,2359,0,i=41
BDS judge:43,2477,2493,i=0
BDS judge:43,2364,2662,i=1
BDS judge:43,2689,2776,i=2
BDS judge:43,2481,2859,i=3
BDS judge:43,3055,2580,i=4
BDS judge:43,2581,2469,i=5
BDS judge:43,2452,2470,i=6
BDS judge:43,2551,2337,i=7
BDS judge:43,2455,2592,i=8
BDS judge:43,2364,2651,i=9
BDS judge:43,2365,2648,i=10
BDS judge:43,2428,2772,i=11
BDS judge:43,2564,2730,i=12
BDS judge:43,2354,2748,i=13
BDS judge:43,2190,2412,i=14
BDS judge:43,2530,2541,i=15
BDS judge:43,2434,2285,i=16
BDS judge:43,2469,2363,i=17
BDS judge:43,2554,2457,i=18
BDS judge:43,2710,2771,i=19
BDS judge:43,2741,2375,i=20
BDS judge:43,2446,2533,i=21
BDS judge:43,2203,2303,i=22
BDS judge:43,2056,2184,i=23
BDS judge:43,2181,2354,i=24
BDS judge:43,2290,2104,i=25
BDS judge:43,2444,2227,i=26
BDS judge:43,2600,2427,i=27
BDS judge:43,2425,2405,i=28
BDS judge:43,2581,2504,i=29
BDS judge:43,2327,2812,i=30
BDS judge:43,2485,2340,i=31
BDS judge:43,2326,2519,i=32
BDS judge:43,2439,2652,i=33
BDS judge:43,2457,2500,i=34
BDS judge:43,2575,2684,i=35
BDS judge:43,2544,2742,i=36
BDS judge:43,2429,2550,i=37
BDS judge:43,2556,2569,i=38
BDS judge:43,2475,2599,i=39
BDS judge:43,2554,2452,i=40
BDS judge:43,2278,0,i=41
BDS judge:44,2375,2485,i=0
BDS judge:44,2396,2615,i=1
BDS judge:44,2641,2599,i=2
BDS judge:44,3085,2646,i=3
BDS judge:44,3323,2736,i=4
BDS judge:44,3312,3075,i=5
BDS judge:44,3694,3355,i=6
BDS judge:44,3490,3551,i=7
BDS judge:44,3450,3435,i=8
BDS judge:44,3285,3453,i=9
BDS judge:44,3275,3369,i=10
BDS judge:44,3280,3381,i=11
BDS judge:44,3388,3334,i=12
BDS judge:44,3368,3177,i=13
BDS judge:44,3053,3110,i=14
BDS judge:44,2809,2978,i=15
BDS judge:44,2930,2915,i=16
BDS judge:44,2629,2627,i=17
BDS judge:44,2729,2644,i=18
BDS judge:44,2916,2664,i=19
BDS judge:44,2653,2485,i=20
BDS judge:44,2828,2693,i=21
BDS judge:44,2860,2733,i=22
BDS judge:44,2549,2725,i=23
BDS judge:44,2815,2663,i=24
BDS judge:44,2803,2971,i=25
BDS judge:44,2500,2713,i=26
BDS judge:44,2322,2547,i=27
BDS judge:44,2434,2459,i=28
BDS judge:44,2355,2765,i=29
BDS judge:44,2578,2439,i=30
BDS judge:44,2557,2273,i=31
BDS judge:44,2769,2239,i=32
BDS judge:44,2365,2273,i=33
BDS judge:44,2327,2367,i=34
BDS judge:44,2526,2398,i=35
BDS judge:44,2776,2673,i=36
BDS judge:44,3038,2991,i=37
BDS judge:44,3385,3232,i=38
BDS judge:44,3245,2954,i=39
BDS judge:44,3219,3174,i=40
BDS judge:44,3740,0,i=41
BDS judge:44,2375,2446,i=0
BDS judge:44,2604,2696,i=1
BDS judge:44,2419,2549,i=2
BDS judge:44,2732,2697,i=3
BDS judge:44,2861,2755,i=4
BDS judge:44,3308,2912,i=5
BDS judge:44,3712,3348,i=6
BDS judge:44,3666,3824,i=7
BDS judge:44,3617,3564,i=8
BDS judge:44,3568,3464,i=9
BDS judge:44,3573,3365,i=10
BDS judge:44,3537,3098,i=11
BDS judge:44,2962,2923,i=12
BDS judge:44,3024,2846,i=13
BDS judge:44,3202,2996,i=14
BDS judge:44,3101,2957,i=15
BDS judge:44,3253,2870,i=16
BDS judge:44,3224,2812,i=17
BDS judge:44,2718,2428,i=18
BDS judge:44,2421,2682,i=19
BDS judge:44,2573,2603,i=20
BDS judge:44,2536,3360,i=21
BDS judge:44,2818,3033,i=22
BDS judge:44,2761,2806,i=23
BDS judge:44,2710,2917,i=24
BDS judge:44,2620,2676,i=25
BDS judge:44,2549,2789,i=26
BDS judge:44,2485,2622,i=27
BDS judge:44,2415,2532,i=28
BDS judge:44,2479,2523,i=29
BDS judge:44,2281,2331,i=30
BDS judge:44,2274,2171,i=31
BDS judge:44,2247,2329,i=32
BDS judge:44,2347,2354,i=33
BDS judge:44,2453,2856,i=34
BDS judge:44,2548,3057,i=35
BDS judge:44,2687,2780,i=36
BDS judge:44,3130,2963,i=37
BDS judge:44,3187,2925,i=38
BDS judge:44,3135,2989,i=39
BDS judge:44,3214,3051,i=40
BDS judge:44,3392,0,i=41
BDS judge:45,2667,2760,i=0
BDS judge:45,2341,2667,i=1
BDS judge:45,2241,2271,i=2
BDS judge:45,2316,2530,i=3
BDS judge:45,2265,2316,i=4
BDS judge:45,2223,2155,i=5
BDS judge:45,2816,2431,i=6
BDS judge:45,2524,2509,i=7
BDS judge:45,2526,2664,i=8
BDS judge:45,2707,2450,i=9
BDS judge:45,2369,2376,i=10
BDS judge:45,2744,2724,i=11
BDS judge:45,2383,2409,i=12
BDS judge:45,2278,2442,i=13
BDS judge:45,2250,2422,i=14
BDS judge:45,2250,2379,i=15
BDS judge:45,2385,2760,i=16
BDS judge:45,2541,2534,i=17
BDS judge:45,2745,2750,i=18
BDS judge:45,2777,2675,i=19
BDS judge:45,2684,2625,i=20
BDS judge:45,2373,2518,i=21
BDS judge:45,2246,2435,i=22
BDS judge:45,2147,2287,i=23
BDS judge:45,2362,2263,i=24
BDS judge:45,2219,2303,i=25
BDS judge:45,2368,2392,i=26
BDS judge:45,2790,2580,i=27
BDS judge:45,2924,2713,i=28
BDS judge:45,2778,2718,i=29
BDS judge:45,2795,3128,i=30
BDS judge:45,2599,2895,i=31
BDS judge:45,2774,2674,i=32
BDS judge:45,2516,2562,i=33
BDS judge:45,2467,2532,i=34
BDS judge:45,2368,2238,i=35
BDS judge:45,2426,2216,i=36
BDS judge:45,2389,2280,i=37
BDS judge:45,2384,2151,i=38
BDS judge:45,2448,2301,i=39
BDS judge:45,2376,2366,i=40
BDS judge:45,2361,0,i=41
---00000004--- Acq_st=3 2019-10-4 07:26:25 
[00]  G18  1  7   7892.0 2045990.3 -0.1  0.0  1  0        13
$GNGGA,000000.000,,,,,0,00,,,M,,,,0000*2B

$GNRMC,000000.000,A,,,,,,,000000,,*26

$GPGSA,A,1,,,,,,,,,,,,,,,*1E

$BDGSA,A,1,,,,,,,,,,,,,,,*0F

$LOGTIM,0,0.000000,0.000000,0.000000,0.000000,0.000*0A

BDS judge:45,2667,3042,i=0
BDS judge:45,2509,2742,i=1
BDS judge:45,2418,2459,i=2
BDS judge:45,2234,2173,i=3
BDS judge:45,2294,2329,i=4
BDS judge:45,2165,2376,i=5
BDS judge:45,2326,2401,i=6
BDS judge:45,2355,2321,i=7
BDS judge:45,2461,2579,i=8
BDS judge:45,2586,2474,i=9
BDS judge:45,2538,2287,i=10
BDS judge:45,2489,2380,i=11
BDS judge:45,2615,2380,i=12
BDS judge:45,2431,2494,i=13
BDS judge:45,2598,2560,i=14
BDS judge:45,2542,2582,i=15
BDS judge:45,2655,2526,i=16
BDS judge:45,2440,2518,i=17
BDS judge:45,2584,2506,i=18
BDS judge:45,2652,2696,i=19
BDS judge:45,2687,2448,i=20
BDS judge:45,2308,2373,i=21
BDS judge:45,2333,2464,i=22
BDS judge:45,2205,2287,i=23
BDS judge:45,2279,2411,i=24
BDS judge:45,2532,2300,i=25
BDS judge:45,2423,2602,i=26
BDS judge:45,2417,2596,i=27
BDS judge:45,2514,2718,i=28
BDS judge:45,2682,2873,i=29
BDS judge:45,2608,2989,i=30
BDS judge:45,2780,2604,i=31
BDS judge:45,2591,2840,i=32
BDS judge:45,2722,2743,i=33
BDS judge:45,2607,2663,i=34
BDS judge:45,2352,2334,i=35
BDS judge:45,2305,2244,i=36
BDS judge:45,2546,2437,i=37
BDS judge:45,2354,2409,i=38
BDS judge:45,2331,2220,i=39
BDS judge:45,2385,2161,i=40
BDS judge:45,2201,0,i=41
BDS judge:46,2607,2749,i=0
BDS judge:46,2572,2857,i=1
BDS judge:46,2564,2419,i=2
BDS judge:46,2440,2370,i=3
BDS judge:46,2412,2397,i=4
BDS judge:46,2529,2398,i=5
BDS judge:46,2678,2523,i=6
BDS judge:46,3001,2641,i=7
BDS judge:46,3398,3111,i=8
BDS judge:46,3413,3198,i=9
BDS judge:46,3287,3179,i=10
BDS judge:46,2878,2631,i=11
BDS judge:46,2715,2675,i=12
BDS judge:46,2486,2686,i=13
BDS judge:46,2334,2356,i=14
BDS judge:46,2230,2438,i=15
BDS judge:46,2538,2679,i=16
BDS judge:46,2483,2779,i=17
BDS judge:46,3259,2847,i=18
BDS judge:46,3134,3140,i=19
BDS judge:46,2788,2959,i=20
BDS judge:46,3154,3012,i=21
BDS judge:46,2901,2784,i=22
BDS judge:46,2848,2626,i=23
BDS judge:46,2420,2807,i=24
BDS judge:46,2660,2387,i=25
BDS judge:46,2424,2397,i=26
BDS judge:46,2660,2432,i=27
BDS judge:46,2660,2781,i=28
BDS judge:46,3016,2977,i=29
BDS judge:46,3026,3131,i=30
BDS judge:46,3303,3554,i=31
BDS judge:46,3526,3625,i=32
BDS judge:46,3522,3484,i=33
BDS judge:46,3663,3777,i=34
BDS judge:46,3373,3698,i=35
BDS judge:46,3165,3491,i=36
BDS judge:46,3224,3351,i=37
BDS judge:46,2752,3397,i=38
BDS judge:46,2781,3453,i=39
BDS judge:46,2891,2869,i=40
BDS judge:46,2702,0,i=41
BDS judge:46,2607,2971,i=0
BDS judge:46,2804,2646,i=1
BDS judge:46,2508,2514,i=2
BDS judge:46,2482,2409,i=3
BDS judge:46,2445,2502,i=4
BDS judge:46,2494,2532,i=5
BDS judge:46,2788,2565,i=6
BDS judge:46,3140,2752,i=7
BDS judge:46,3315,3346,i=8
BDS judge:46,3254,3034,i=9
BDS judge:46,3113,3012,i=10
BDS judge:46,2733,2819,i=11
BDS judge:46,2636,2504,i=12
BDS judge:46,2408,2395,i=13
BDS judge:46,2298,2163,i=14
BDS judge:46,2334,2210,i=15
BDS judge:46,2497,2417,i=16
BDS judge:46,2635,2569,i=17
BDS judge:46,2780,3064,i=18
BDS judge:46,3113,3097,i=19
BDS judge:46,3167,2996,i=20
BDS judge:46,3571,3151,i=21
BDS judge:46,3017,2788,i=22
BDS judge:46,2925,2959,i=23
BDS judge:46,2525,2537,i=24
BDS judge:46,2629,2482,i=25
BDS judge:46,2294,2422,i=26
BDS judge:46,2652,2585,i=27
BDS judge:46,2665,2991,i=28
BDS judge:46,3214,2710,i=29
BDS judge:46,3361,3328,i=30
BDS judge:46,3237,3393,i=31
BDS judge:46,3651,3587,i=32
BDS judge:46,3591,3562,i=33
BDS judge:46,3613,3445,i=34
BDS judge:46,3362,3675,i=35
BDS judge:46,3536,3331,i=36
BDS judge:46,3032,3364,i=37
BDS judge:46,3187,2946,i=38
BDS judge:46,3383,3224,i=39
BDS judge:46,2786,2992,i=40
BDS judge:46,2685,0,i=41
BDS judge:47,3062,2998,i=0
BDS judge:47,3182,2875,i=1
BDS judge:47,2914,2843,i=2
BDS judge:47,2557,2668,i=3
BDS judge:47,2683,2358,i=4
BDS judge:47,2397,2232,i=5
BDS judge:47,2130,2207,i=6
BDS judge:47,2132,2510,i=7
BDS judge:47,2119,2570,i=8
BDS judge:47,2120,2435,i=9
BDS judge:47,2043,2796,i=10
BDS judge:47,2253,2270,i=11
BDS judge:47,2263,2399,i=12
BDS judge:47,2267,2407,i=13
BDS judge:47,2547,2271,i=14
BDS judge:47,2911,2449,i=15
BDS judge:47,2913,2896,i=16
BDS judge:47,3329,2895,i=17
BDS judge:47,2896,2824,i=18
BDS judge:47,2849,2733,i=19
BDS judge:47,2585,2487,i=20
BDS judge:47,2331,2383,i=21
BDS judge:47,2365,2285,i=22
BDS judge:47,2315,2520,i=23
BDS judge:47,2240,2179,i=24
BDS judge:47,2162,2170,i=25
BDS judge:47,2386,2413,i=26
BDS judge:47,2195,2605,i=27
BDS judge:47,2525,2524,i=28
BDS judge:47,2372,2480,i=29
BDS judge:47,2298,2709,i=30
BDS judge:47,2551,2757,i=31
BDS judge:47,2340,2351,i=32
BDS judge:47,2336,2329,i=33
BDS judge:47,2293,2284,i=34
BDS judge:47,2298,2181,i=35
BDS judge:47,2476,2174,i=36
BDS judge:47,2597,2201,i=37
BDS judge:47,2683,2388,i=38
BDS judge:47,2600,3133,i=39
BDS judge:47,2786,2605,i=40
BDS judge:47,2602,0,i=41
BDS judge:47,3062,3320,i=0
BDS judge:47,2962,2990,i=1
BDS judge:47,3099,3034,i=2
BDS judge:47,2800,2746,i=3
BDS judge:47,2796,2844,i=4
BDS judge:47,2511,2648,i=5
BDS judge:47,2428,2592,i=6
BDS judge:47,2287,2197,i=7
BDS judge:47,2114,2101,i=8
BDS judge:47,2236,2350,i=9
BDS judge:47,2290,2170,i=10
BDS judge:47,2398,2222,i=11
BDS judge:47,2388,2342,i=12
BDS judge:47,2406,2210,i=13
BDS judge:47,2770,2634,i=14
BDS judge:47,2849,2843,i=15
BDS judge:47,2908,3138,i=16
BDS judge:47,2943,3176,i=17
BDS judge:47,2937,3007,i=18
BDS judge:47,2837,2915,i=19
BDS judge:47,2788,2747,i=20
BDS judge:47,2642,2639,i=21
BDS judge:47,2260,2357,i=22
BDS judge:47,2384,2305,i=23
BDS judge:47,2174,2373,i=24
BDS judge:47,2216,2231,i=25
BDS judge:47,2231,2581,i=26
BDS judge:47,2414,2359,i=27
BDS judge:47,2254,2448,i=28
BDS judge:47,2398,2625,i=29
BDS judge:47,2418,2363,i=30
BDS judge:47,2472,2294,i=31
BDS judge:47,2501,2338,i=32
BDS judge:47,2628,2437,i=33
BDS judge:47,2414,2273,i=34
BDS judge:47,2269,2476,i=35
BDS judge:47,2356,2472,i=36
BDS judge:47,2313,2473,i=37
BDS judge:47,2522,2563,i=38
BDS judge:47,2599,2661,i=39
BDS judge:47,2571,2463,i=40
BDS judge:47,2829,0,i=41
BDS judge:48,2928,6171,i=0
BDS judge:48,2750,4822,i=1
BDS judge:48,2522,3188,i=2
BDS judge:48,2640,2519,i=3
BDS judge:48,2543,2621,i=4
BDS judge:48,2828,3026,i=5
BDS judge:48,2852,2836,i=6
BDS judge:48,3001,3145,i=7
BDS judge:48,2950,3064,i=8
BDS judge:48,2766,2989,i=9
BDS judge:48,2832,2666,i=10
BDS judge:48,2677,2733,i=11
BDS judge:48,2780,2482,i=12
BDS judge:48,2789,2637,i=13
BDS judge:48,2545,2576,i=14
BDS judge:48,2626,2741,i=15
BDS judge:48,2493,2754,i=16
BDS judge:48,2418,2813,i=17
BDS judge:48,2529,2448,i=18
BDS judge:48,2457,2471,i=19
BDS judge:48,2541,2614,i=20
BDS judge:48,2622,2653,i=21
BDS judge:48,2706,2762,i=22
BDS judge:48,2365,2647,i=23
BDS judge:48,2283,2587,i=24
BDS judge:48,2274,2440,i=25
BDS judge:48,2280,2209,i=26
BDS judge:48,2671,2439,i=27
BDS judge:48,2964,2462,i=28
BDS judge:48,2954,3029,i=29
BDS judge:48,2813,2650,i=30
BDS judge:48,2946,2899,i=31
BDS judge:48,3031,2786,i=32
BDS judge:48,2928,2648,i=33
BDS judge:48,2854,2509,i=34
BDS judge:48,2896,2462,i=35
BDS judge:48,2505,2666,i=36
BDS judge:48,2597,2684,i=37
BDS judge:48,3022,3124,i=38
BDS judge:48,2998,3094,i=39
BDS judge:48,3291,3549,i=40
BDS judge:48,3740,0,i=41
BDS judge:49,2729,2716,i=0
BDS judge:49,2655,2647,i=1
BDS judge:49,2518,2568,i=2
BDS judge:49,2532,2586,i=3
BDS judge:49,2774,2427,i=4
BDS judge:49,2651,2838,i=5
BDS judge:49,2658,2908,i=6
BDS judge:49,2906,3120,i=7
BDS judge:49,3094,3194,i=8
BDS judge:49,3404,3307,i=9
BDS judge:49,3373,3265,i=10
BDS judge:49,3964,3773,i=11
BDS judge:49,3293,3417,i=12
BDS judge:49,3033,3294,i=13
BDS judge:49,3019,2998,i=14
BDS judge:49,2925,2828,i=15
BDS judge:49,2643,2758,i=16
BDS judge:49,2479,2613,i=17
BDS judge:49,2496,2468,i=18
BDS judge:49,2420,2297,i=19
BDS judge:49,2486,2430,i=20
BDS judge:49,2580,2650,i=21
BDS judge:49,2668,2817,i=22
BDS judge:49,3015,3158,i=23
BDS judge:49,2990,2862,i=24
BDS judge:49,2957,3073,i=25
BDS judge:49,3141,2971,i=26
BDS judge:49,3052,2772,i=27
BDS judge:49,2593,2631,i=28
BDS judge:49,2596,2603,i=29
BDS judge:49,2496,2477,i=30
BDS judge:49,2611,2470,i=31
BDS judge:49,2735,2522,i=32
BDS judge:49,3125,2901,i=33
BDS judge:49,2580,2722,i=34
BDS judge:49,2677,2851,i=35
BDS judge:49,2442,2548,i=36
BDS judge:49,2662,2758,i=37
BDS judge:49,2392,2487,i=38
BDS judge:49,2560,2547,i=39
BDS judge:49,2680,2505,i=40
BDS judge:49,2644,0,i=41
BDS judge:49,2729,2877,i=0
BDS judge:49,2435,2670,i=1
BDS judge:49,2315,2468,i=2
BDS judge:49,2612,2387,i=3
BDS judge:49,2763,2491,i=4
BDS judge:49,2785,2819,i=5
BDS judge:49,3095,3119,i=6
BDS judge:49,2916,3234,i=7
BDS judge:49,3254,3277,i=8
BDS judge:49,3394,3438,i=9
BDS judge:49,3390,3264,i=10
BDS judge:49,3752,3424,i=11
BDS judge:49,3419,3582,i=12
BDS judge:49,3244,3106,i=13
BDS judge:49,3133,3120,i=14
BDS judge:49,3270,3113,i=15
BDS judge:49,2780,2845,i=16
BDS judge:49,2631,2797,i=17
BDS judge:49,2358,2364,i=18
BDS judge:49,2446,2401,i=19
BDS judge:49,2457,2642,i=20
BDS judge:49,2633,2640,i=21
BDS judge:49,3010,2747,i=22
BDS judge:49,3141,3002,i=23
BDS judge:49,3148,3058,i=24
BDS judge:49,3393,2898,i=25
BDS judge:49,2953,3072,i=26
BDS judge:49,3240,2937,i=27
BDS judge:49,2636,2933,i=28
BDS judge:49,2514,2751,i=29
BDS judge:49,2494,2558,i=30
BDS judge:49,2486,2555,i=31
BDS judge:49,2472,2511,i=32
BDS judge:49,2662,2605,i=33
BDS judge:49,2604,2864,i=34
BDS judge:49,2906,2794,i=35
BDS judge:49,2511,2558,i=36
BDS judge:49,2525,2700,i=37
BDS judge:49,2399,2776,i=38
BDS judge:49,2491,2910,i=39
BDS judge:49,3138,2822,i=40
BDS judge:49,2926,0,i=41
BDS judge:50,2935,2928,i=0
BDS judge:50,2941,3346,i=1
BDS judge:50,2824,2830,i=2
BDS judge:50,2896,2975,i=3
BDS judge:50,2870,3190,i=4
BDS judge:50,3055,3237,i=5
BDS judge:50,3175,3408,i=6
BDS judge:50,3076,2936,i=7
BDS judge:50,3019,2952,i=8
BDS judge:50,2670,2712,i=9
BDS judge:50,2636,2864,i=10
BDS judge:50,2801,2951,i=11
BDS judge:50,2729,3044,i=12
BDS judge:50,2739,2777,i=13
BDS judge:50,2813,2753,i=14
BDS judge:50,2828,2604,i=15
BDS judge:50,2837,2605,i=16
BDS judge:50,2411,2495,i=17
BDS judge:50,2432,2671,i=18
BDS judge:50,2303,2439,i=19
BDS judge:50,2198,2190,i=20
BDS judge:50,2307,2109,i=21
BDS judge:50,2237,2295,i=22
BDS judge:50,2137,2433,i=23
BDS judge:50,2462,2313,i=24
BDS judge:50,2399,2595,i=25
BDS judge:50,2734,2399,i=26
BDS judge:50,2607,2478,i=27
BDS judge:50,2559,2338,i=28
BDS judge:50,2167,2263,i=29
BDS judge:50,2071,2383,i=30
BDS judge:50,2167,2792,i=31
BDS judge:50,2804,3136,i=32
BDS judge:50,2883,3116,i=33
BDS judge:50,3407,3581,i=34
BDS judge:50,3585,3771,i=35
BDS judge:50,3961,
4145,i=36
BDS judge:50,3342,3442,i=37
BDS judge:50,3110,3185,i=38
BDS judge:50,2843,2902,i=39
BDS judge:50,2894,2759,i=40
BDS judge:50,2653,0,i=41
BDS judge:50,2935,3274,i=0
BDS judge:50,2940,3147,i=1
BDS judge:50,2709,2953,i=2
BDS judge:50,2683,3072,i=3
BDS judge:50,2965,3166,i=4
BDS judge:50,3183,3474,i=5
BDS judge:50,3415,3225,i=6
BDS judge:50,3450,3098,i=7
BDS judge:50,2848,2786,i=8
BDS judge:50,2828,2766,i=9
BDS judge:50,2786,2661,i=10
BDS judge:50,3287,2805,i=11
BDS judge:50,2853,263
0,i=12
BDS judge:50,2855,2745,i=13
BDS judge:50,2785,2834,i=14
BDS judge:50,2603,2662,i=15
BDS judge:50,2689,2792,i=16
BDS judge:50,2509,2510,i=17
BDS judge:50,2488,2652,i=18
BDS judge:50,2491,2388,i=19
BDS judge:50,2770,2342,i=20
BDS judge:50,2744,2386,i=21
BDS judge:50,2468,2259,i=22
BDS judge:50,2407,2398,i=23
BDS judge:50,2439,2425,i=24
BDS judge:50,2405,2850,i=25
BDS judge:50,2650,3020,i=26
BDS judge:50,2522,2455,i=27
BDS judge:50,2295,2326,i=28
BDS judge:50,2239,2321,i=29
BDS judge:5
0,2384,2175,i=30
BDS judge:50,2440,2223,i=31
BDS judge:50,2479,2723,i=32
BDS judge:50,2827,2905,i=33
BDS judge:50,3220,3062,i=34
BDS judge:50,3635,3201,i=35
BDS judge:50,3591,3744,i=36
BDS judge:50,3537,3515,i=37
BDS judge:50,3485,3315,i=38
BDS judge:50,3063,3098,i=39
BDS judge:50,2869,2831,i=40
BDS judge:50,2557,0,i=41
---00000005--- Acq_st=7 2019-10-4 07:26:26 
[16]  B12  1  7   4874.9 4091987.2  0.2  0.0  1  0         0

---00000006--- Acq_st=7 2019-10-4 07:26:27 
[16]  B12  1  7   4768.9 4091987.2  0.0  0.0  1  0         0
$GNGGA,000000.000,,,,,0,00,,,M,,,,0000*2B

$GNRMC,000000.000,A,,,,,,,000000,,*26

$GPGSA,A,1,,,,,,,,,,,,,,,*1E

$BDGSA,A,1,,,,,,,,,,,,,,,*0F

$LOGTIM,0,0.000000,0.000000,0.000000,0.000000,0.000*0A


---00000007--- Acq_st=7 2019-10-4 07:26:28 
[16]  B12  1 11   4645.8 4091986.9 -0.0  0.0  1  0      1401

---00000008--- Acq_st=3 2019-10-4 07:26:29 
[00]  G01  1 26   2099.0 2045997.2 -0.0  0.0  1  0        13
[01]  G11  1  7   2918.1 2045998.8  0.0  0.0  1  0         0
$GNGGA,000000.000,,,,,0,00,,,M,,,,0000*2B

$GNRMC,000000.000,A,,,,,,,000000,,*26

$GPGSA,A,1,,,,,,,,,,,,,,,*1E

$BDGSA,A,1,,,,,,,,,,,,,,,*0F

$LOGTIM,0,0.000000,0.000000,0.000000,0.000000,0.000*0A


---00000009--- Acq_st=3 2019-10-4 07:26:30 
[00]  G01  7 30   2106.2 2045997.2  0.6  1.0  5  0         4
[01]  G11  1 16   1969.3 2045998.2  0.0  0.0  1  0        10
[02]  G17  1 14  -1835.2 2046004.9  0.1  0.0  1  0         0
[03]  G18  1 25   2958.7 2045996.7  0.1  0.0  1  0         0
[04]  G19  1 20  -2668.2 2046005.7  0.0  0.0  1  0         0

BDS judge:38,2393,2581,i=0
BDS judge:38,2502,2784,i=1
BDS judge:38,2622,2844,i=2
BDS judge:38,2546,2653,i=3
BDS judge:38,2692,2797,i=4
BDS judge:38,2875,2787,i=5
BDS judge:38,2696,2859,i=6
BDS judge:38,2772,2650,i=7
BDS judge:38,2658,2640,i=8
BDS judge:38,2669,2508,i=9
BDS judge:38,2429,2612,i=10
BDS judge:38,2755,2710,i=11
BDS judge:38,2976,2712,i=12
BDS judge:38,3234,2703,i=13
BDS judge:38,3139,2524,i=14
BDS judge:38,2769,2537,i=15
BDS judge:38,2680,2540,i=16
BDS judge:38,2827,2579,i=17
BDS judge:38,2913,2746,i=18
BDS judge:38,2954,2867,i=19
BDS judge:38,2754,2788,i=20
BDS judge:38,3127,3339,i=21
BDS judge:38,3530,3623,i=22
BDS judge:38,3647,3548,i=23
BDS judge:38,3513,3477,i=24
BDS judge:38,3236,3478,i=25
BDS judge:38,3396,3044,i=26
BDS judge:38,3075,3200,i=27
BDS judge:38,2923,3128,i=28
BDS judge:38,3213,3016,i=29
BDS judge:38,3139,2946,i=30
BDS judge:38,2738,2771,i=31
BDS judge:38,2813,2870,i=32
BDS judge:38,2563,2677,i=33
BDS judge:38,3015,2767,i=34
BDS judge:38,2808,2
921,i=35
BDS judge:38,2919,3042,i=36
BDS judge:38,3169,3077,i=37
BDS judge:38,3109,3166,i=38
BDS judge:38,3209,3189,i=39
BDS judge:38,3093,3115,i=40
BDS judge:38,2967,0,i=41
BDS judge:38,2393,2493,i=0
BDS judge:38,2451,2659,i=1
BDS judge:38,2909,2823,i=2
BDS judge:38,2775,2922,i=3
BDS judge:38,3020,2974,i=4
BDS judge:38,2876,3032,i=5
BDS judge:38,2634,2879,i=6
BDS judge:38,2576,2663,i=7
BDS judge:38,2764,2977,i=8
BDS judge:38,2879,2706,i=9
BDS judge:38,2851,2837,i=10
BDS judge:38,2722,2599
,i=11
BDS judge:38,2658,2757,i=12
BDS judge:38,2781,2646,i=13
BDS judge:38,2717,2683,i=14
BDS judge:38,2733,2648,i=15
BDS judge:38,2805,2627,i=16
BDS judge:38,2776,2714,i=17
BDS judge:38,2758,2788,i=18
BDS judge:38,3183,3043,i=19
BDS judge:38,3055,3364,i=20
BDS judge:38,3341,3357,i=21
BDS judge:38,3514,3460,i=22
BDS judge:38,3442,3870,i=23
BDS judge:38,3656,3867,i=24
BDS judge:38,3675,3559,i=25
BDS judge:38,3575,3695,i=26
BDS judge:38,3684,3654,i=27
BDS judge:38,2992,3525,i=28
BDS judge:38
,2948,3375,i=29
BDS judge:38,2993,3224,i=30
BDS judge:38,2982,3168,i=31
BDS judge:38,3002,2917,i=32
BDS judge:38,3129,2872,i=33
BDS judge:38,3173,3091,i=34
BDS judge:38,3255,2953,i=35
BDS judge:38,3255,3106,i=36
BDS judge:38,3045,3232,i=37
BDS judge:38,3096,3246,i=38
BDS judge:38,3452,3386,i=39
BDS judge:38,3485,3229,i=40
BDS judge:38,3626,0,i=41
BDS judge:39,2823,3226,i=0
BDS judge:39,3256,3358,i=1
BDS judge:39,3218,2792,i=2
BDS judge:39,2890,2963,i=3
BDS judge:39,2973,2922,i=4
BDS judge:39,2909,3179,i=5
BDS judge:39,3008,2954,i=6
BDS judge:39,2920,2793,i=7
BDS judge:39,2709,2825,i=8
BDS judge:39,2555,2816,i=9
BDS judge:39,2865,2809,i=10
BDS judge:39,2967,2927,i=11
BDS judge:39,3204,2947,i=12
BDS judge:39,2931,2972,i=13
BDS judge:39,2996,2971,i=14
BDS judge:39,2866,2831,i=15
BDS judge:39,2728,2882,i=16
BDS judge:39,3171,2794,i=17
BDS judge:39,2906,2922,i=18
BDS judge:39,2973,2915,i=19
BDS judge:39,2990,3018,i=20
BDS judge:39,2897,3396,i=21
BDS judge:39,3057,3393,i=22
BDS j
udge:39,2956,3321,i=23
BDS judge:39,2744,2976,i=24
BDS judge:39,2519,3066,i=25
BDS judge:39,2576,2790,i=26
BDS judge:39,2692,2456,i=27
BDS judge:39,2437,2429,i=28
BDS judge:39,2505,2471,i=29
BDS judge:39,2436,2494,i=30
BDS judge:39,2675,2813,i=31
BDS judge:39,2922,3276,i=32
BDS judge:39,3292,3254,i=33
BDS judge:39,2733,3300,i=34
BDS judge:39,2871,3331,i=35
BDS judge:39,2626,2865,i=36
BDS judge:39,2793,2832,i=37
BDS judge:39,2830,2838,i=38
BDS judge:39,2720,2952,i=39
BDS judge:39,2664,3140,i
=40
BDS judge:39,2616,0,i=41
BDS judge:39,2823,3172,i=0
BDS judge:39,3459,3205,i=1
BDS judge:39,3048,3059,i=2
BDS judge:39,3065,3456,i=3
BDS judge:39,3105,2829,i=4
BDS judge:39,2875,3197,i=5
BDS judge:39,2764,2888,i=6
BDS judge:39,2643,2941,i=7
BDS judge:39,2820,2821,i=8
BDS judge:39,2694,2817,i=9
BDS judge:39,2728,2951,i=10
BDS judge:39,2865,2813,i=11
BDS judge:39,3096,2760,i=12
BDS judge:39,3195,2976,i=13
BDS judge:39,2971,2939,i=14
BDS judge:39,2901,3111,i=15
BDS judge:39,2896,3224,i=16

BDS judge:39,2966,3232,i=17
BDS judge:39,2913,3379,i=18
BDS judge:39,2808,3221,i=19
BDS judge:39,3009,3359,i=20
BDS judge:39,3144,3341,i=21
BDS judge:39,3011,2952,i=22
BDS judge:39,2770,2818,i=23
BDS judge:39,2798,2922,i=24
BDS judge:39,2725,2948,i=25
BDS judge:39,2487,2842,i=26
BDS judge:39,2414,2895,i=27
BDS judge:39,2577,2966,i=28
BDS judge:39,2639,2650,i=29
BDS judge:39,2590,2768,i=30
BDS judge:39,2722,2840,i=31
BDS judge:39,2815,3182,i=32
BDS judge:39,3267,2885,i=33
BDS judge:39,3092,3004,i=34
BDS judge:39,2972,3200,i=35
BDS judge:39,3115,3135,i=36
BDS judge:39,3085,3246,i=37
BDS judge:39,3089,3269,i=38
BDS judge:39,3178,3107,i=39
BDS judge:39,3183,2989,i=40
BDS judge:39,3245,0,i=41
---00000010--- Acq_st=3 2019-10-4 07:26:31 
[00]  G01  7 40   2109.3 2045997.2  1.0  1.0  5  0         4
[01]  G11  7 29   1953.2 2045997.3  0.0  0.9  5  0        10
[02]  G17  7 24  -1855.6 2046002.3  0.4  0.0 20  0         0
[03]  G18  7 23   2961.9 2045996.1  0.3  0.0 20  0         0
[04]  G
19  7 21  -2659.0 2046003.3  0.3  0.0 20  0         0
[05]  G28  1 17  -1832.1 2046003.3  0.0  0.0  1  0         0
BDS judge:40,2625,2595,i=0
BDS judge:40,2705,2708,i=1
BDS judge:40,2638,2956,i=2
BDS judge:40,2491,2892,i=3
BDS judge:40,2682,2533,i=4
BDS judge:40,2747,2605,i=5
BDS judge:40,2696,2576,i=6
BDS judge:40,2548,2682,i=7
BDS judge:40,2583,2820,i=8
BDS judge:40,2863,2950,i=9
BDS judge:40,2758,2870,i=10
BDS judge:40,3050,2954,i=11
BDS judge:40,2913,2830,i=12
BDS judge:40,2740,2920,i=13

BDS judge:40,2690,3003,i=14
BDS judge:40,2589,2889,i=15
BDS judge:40,2691,3078,i=16
BDS judge:40,2510,2591,i=17
BDS judge:40,2609,2662,i=18
BDS judge:40,2483,2611,i=19
BDS judge:40,2548,2527,i=20
BDS judge:40,2635,2657,i=21
BDS judge:40,2728,2937,i=22
BDS judge:40,2614,2813,i=23
BDS judge:40,2735,3055,i=24
BDS judge:40,3092,2915,i=25
BDS judge:40,3330,2763,i=26
BDS judge:40,3245,2640,i=27
BDS judge:40,3141,2727,i=28
BDS judge:40,2928,3186,i=29
BDS judge:40,2803,3261,i=30
BDS judge:40,2828,
2879,i=31
BDS judge:40,2783,3144,i=32
BDS judge:40,2798,2935,i=33
BDS judge:40,2923,2734,i=34
BDS judge:40,3178,2864,i=35
BDS judge:40,3225,3280,i=36
BDS judge:40,3050,3170,i=37
BDS judge:40,2764,3469,i=38
BDS judge:40,2705,3164,i=39
BDS judge:40,2663,2912,i=40
BDS judge:40,2614,0,i=41
BDS judge:40,2625,3217,i=0
BDS judge:40,2731,3417,i=1
BDS judge:40,2748,2962,i=2
BDS judge:40,2756,2871,i=3
BDS judge:40,2766,2856,i=4
BDS judge:40,2656,2599,i=5
BDS judge:40,2576,2637,i=6
BDS judge:40,2960,
2790,i=7
BDS judge:40,2567,2493,i=8
BDS judge:40,2841,2797,i=9
BDS judge:40,3112,2726,i=10
BDS judge:40,3338,2995,i=11
BDS judge:40,2813,2948,i=12
BDS judge:40,2736,2658,i=13
BDS judge:40,2807,2783,i=14
BDS judge:40,2737,2620,i=15
BDS judge:40,2914,2533,i=16
BDS judge:40,2792,2485,i=17
BDS judge:40,2937,2564,i=18
BDS judge:40,2569,2574,i=19
BDS judge:40,2485,2443,i=20
BDS judge:40,2711,2652,i=21
BDS judge:40,2765,2799,i=22
BDS judge:40,2917,3083,i=23
BDS judge:40,3133,3208,i=24
BDS judge:4
0,3293,3406,i=25
BDS judge:40,3037,3153,i=26
BDS judge:40,3216,3141,i=27
BDS judge:40,2822,3218,i=28
BDS judge:40,3198,3444,i=29
BDS judge:40,3032,3311,i=30
BDS judge:40,2887,3467,i=31
BDS judge:40,2781,3358,i=32
BDS judge:40,2867,3271,i=33
BDS judge:40,3066,3576,i=34
BDS judge:40,3089,3307,i=35
BDS judge:40,3047,3158,i=36
BDS judge:40,2943,3216,i=37
BDS judge:40,3043,2991,i=38
BDS judge:40,2878,3137,i=39
BDS judge:40,3088,3170,i=40
BDS judge:40,2859,0,i=41
$GNGGA,000000.000,,,,,0,00,,,M,,,
,0000*2B

$GNRMC,000000.000,A,,,,,,,000000,,*26

$GPGSA,A,1,,,,,,,,,,,,,,,*1E

$BDGSA,A,1,,,,,,,,,,,,,,,*0F

$GPGSV,2,1,05,01,00,000,40,11,00,000,29,17,00,000,24,18,00,000,23*79

$GPGSV,2,2,05,19,00,000,21*47

$LOGTIM,0,0.000000,0.000000,0.000000,0.000000,0.000*0A

BDS judge:41,2818,3401,i=0
BDS judge:41,2838,2996,i=1
BDS judge:41,3298,3195,i=2
BDS judge:41,2799,2698,i=3
BDS judge:41,2844,2879,i=4
BDS judge:41,2769,2861,i=5
BDS judge:41,2767,3037,i=6
BDS judge:41,2874,3004,i=7
BDS judge:41,30
56,3118,i=8
BDS judge:41,3246,3987,i=9
BDS judge:41,3302,3504,i=10
BDS judge:41,3454,4113,i=11
BDS judge:41,3818,3532,i=12
BDS judge:41,4175,3635,i=13
BDS judge:41,4036,3866,i=14
BDS judge:41,4695,3645,i=15
BDS judge:41,5227,4135,i=16
BDS judge:41,5552,3586,i=17
BDS judge:41,5538,3242,i=18
BDS judge:41,5557,3171,i=19
BDS judge:41,5160,2935,i=20
BDS judge:41,3976,3057,i=21
BDS judge:41,3413,2842,i=22
BDS judge:41,2838,2951,i=23
BDS judge:41,3106,2857,i=24
BDS judge:41,2683,2902,i=25
BDS jud
ge:41,2844,3153,i=26
BDS judge:41,2752,3085,i=27
BDS judge:41,2632,2796,i=28
BDS judge:41,2696,2955,i=29
BDS judge:41,2383,3035,i=30
BDS judge:41,2417,2961,i=31
BDS judge:41,2572,3169,i=32
BDS judge:41,2669,2847,i=33
BDS judge:41,2646,2618,i=34
BDS judge:41,2951,2749,i=35
BDS judge:41,2713,2723,i=36
BDS judge:41,2718,2585,i=37
BDS judge:41,2573,2709,i=38
BDS judge:41,2893,2635,i=39
BDS judge:41,2542,2659,i=40
BDS judge:41,2793,0,i=41
BDS judge:41,2818,3018,i=0
BDS judge:41,3272,3265,i=1
BD
S judge:41,2883,3341,i=2
BDS judge:41,3365,3557,i=3
BDS judge:41,3011,3575,i=4
BDS judge:41,2994,3216,i=5
BDS judge:41,3094,3320,i=6
BDS judge:41,3402,3008,i=7
BDS judge:41,3271,3451,i=8
BDS judge:41,3277,3304,i=9
BDS judge:41,3433,3485,i=10
BDS judge:41,3727,3549,i=11
BDS judge:41,3745,3739,i=12
BDS judge:41,3931,4426,i=13
BDS judge:41,4064,3883,i=14
BDS judge:41,4300,4355,i=15
BDS judge:41,4210,3541,i=16
BDS judge:41,4719,3431,i=17
BDS judge:41,5009,3247,i=18
BDS judge:41,5015,3261,i=19

BDS judge:41,4614,2897,i=20
BDS judge:41,3357,3184,i=21
BDS judge:41,3050,2956,i=22
BDS judge:41,3187,3015,i=23
BDS judge:41,3128,3193,i=24
BDS judge:41,3175,3372,i=25
BDS judge:41,3239,3295,i=26
BDS judge:41,3339,3320,i=27
BDS judge:41,2811,2787,i=28
BDS judge:41,2544,2610,i=29
BDS judge:41,2569,2736,i=30
BDS judge:41,2857,2565,i=31
BDS judge:41,3304,2635,i=32
BDS judge:41,3087,2682,i=33
BDS judge:41,3380,2574,i=34
BDS judge:41,3028,2614,i=35
BDS judge:41,2702,2788,i=36
BDS judge:41,2621,2
660,i=37
BDS judge:41,2854,2713,i=38
BDS judge:41,2530,2896,i=39
BDS judge:41,2487,2849,i=40
BDS judge:41,2612,0,i=41
dump miss 0
BDS judge:42,3002,2807,i=0
BDS judge:42,3062,2715,i=1
BDS judge:42,3045,2707,i=2
BDS judge:42,2718,2901,i=3
BDS judge:42,2837,2899,i=4
BDS judge:42,2914,2882,i=5
BDS judge:42,3136,3022,i=6
BDS judge:42,2738,2525,i=7
BDS judge:42,2521,2653,i=8
BDS judge:42,2898,2547,i=9
BDS judge:42,2978,3230,i=10
BDS judge:42,3455,3116,i=11
BDS judge:42,3249,3227,i=12
BDS judge
:42,3409,3242,i=13
BDS judge:42,3251,3161,i=14
BDS judge:42,3165,3416,i=15
BDS judge:42,3418,3381,i=16
BDS judge:42,2975,3301,i=17
BDS judge:42,3016,3354,i=18
BDS judge:42,3017,2843,i=19
BDS judge:42,2445,2495,i=20
BDS judge:42,2444,2840,i=21
BDS judge:42,2508,2650,i=22
BDS judge:42,3003,2564,i=23
BDS judge:42,2587,2866,i=24
BDS judge:42,2683,2847,i=25
BDS judge:42,2637,2597,i=26
BDS judge:42,2475,2372,i=27
BDS judge:42,2811,2478,i=28
BDS judge:42,2532,2463,i=29
BDS judge:42,2443,2491,i=30

BDS judge:42,2575,2545,i=31
BDS judge:42,2444,2542,i=32
BDS judge:42,2497,2556,i=33
BDS judge:42,2289,2426,i=34
BDS judge:42,2319,2442,i=35
BDS judge:42,2533,2447,i=36
BDS judge:42,2804,2403,i=37
BDS judge:42,2744,2506,i=38
BDS judge:42,3009,3018,i=39
BDS judge:42,2721,2771,i=40
BDS judge:42,2845,0,i=41
BDS judge:42,3002,3370,i=0
BDS judge:42,2870,2945,i=1
BDS judge:42,2957,2853,i=2
BDS judge:42,2834,2702,i=3
BDS judge:42,3150,2736,i=4
BDS judge:42,3014,3007,i=5
BDS judge:42,3158,2636,i=6

BDS judge:42,3041,2666,i=7
BDS judge:42,3045,2946,i=8
BDS judge:42,3018,2998,i=9
BDS judge:42,3001,2760,i=10
BDS judge:42,3510,3190,i=11
BDS judge:42,3835,3274,i=12
BDS judge:42,3662,3419,i=13
BDS judge:42,3461,3548,i=14
BDS judge:42,3162,3366,i=15
BDS judge:42,3683,3315,i=16
BDS judge:42,2949,3162,i=17
BDS judge:42,2627,2883,i=18
BDS judge:42,2567,2915,i=19
BDS judge:42,2627,2899,i=20
BDS judge:42,2657,2731,i=21
BDS judge:42,2758,2706,i=22
BDS judge:42,2690,2810,i=23
BDS judge:42,2830,287
3,i=24
BDS judge:42,2723,2790,i=25
BDS judge:42,2848,2878,i=26
BDS judge:42,2785,2637,i=27
BDS judge:42,2657,2510,i=28
BDS judge:42,2630,2695,i=29
BDS judge:42,2834,2616,i=30
BDS judge:42,2866,2571,i=31
BDS judge:42,2848,2570,i=32
BDS judge:42,2677,2751,i=33
BDS judge:42,2954,2602,i=34
BDS judge:42,2804,2554,i=35
BDS judge:42,3142,2709,i=36
BDS judge:42,2660,2990,i=37
BDS judge:42,2675,3184,i=38
BDS judge:42,2624,3475,i=39
BDS judge:42,2880,3221,i=40
BDS judge:42,3201,0,i=41
BDS judge:43,2
951,3050,i=0
BDS judge:43,3082,3011,i=1
BDS judge:43,3328,2776,i=2
BDS judge:43,2710,2671,i=3
BDS judge:43,2634,2553,i=4
BDS judge:43,2760,2740,i=5
BDS judge:43,2607,2623,i=6
BDS judge:43,2529,2705,i=7
BDS judge:43,2611,2640,i=8
BDS judge:43,2674,2513,i=9
BDS judge:43,2752,2593,i=10
BDS judge:43,2579,2443,i=11
BDS judge:43,2840,2470,i=12
BDS judge:43,2579,2457,i=13
BDS judge:43,2471,2474,i=14
BDS judge:43,2464,2509,i=15
BDS judge:43,2758,2444,i=16
BDS judge:43,2617,2345,i=17
BDS judge:43,2
654,2529,i=18
BDS judge:43,2763,2585,i=19
BDS judge:43,2652,2604,i=20
BDS judge:43,2580,2520,i=21
BDS judge:43,2548,2870,i=22
BDS judge:43,2538,3022,i=23
BDS judge:43,2683,3358,i=24
BDS judge:43,2474,3031,i=25
BDS judge:43,2648,2734,i=26
BDS judge:43,2498,2533,i=27
BDS judge:43,2778,2758,i=28
BDS judge:43,2855,2549,i=29
BDS judge:43,2533,2726,i=30
BDS judge:43,2531,2735,i=31
BDS judge:43,2465,2771,i=32
BDS judge:43,2607,2925,i=33
BDS judge:43,2546,2692,i=34
BDS judge:43,2728,2608,i=35
BDS 
judge:43,2664,2713,i=36
BDS judge:43,2663,2967,i=37
BDS judge:43,2623,2884,i=38
BDS judge:43,2707,2873,i=39
BDS judge:43,3071,2561,i=40
BDS judge:43,2809,0,i=41
BDS judge:43,2951,3174,i=0
BDS judge:43,2841,3092,i=1
BDS judge:43,2846,2844,i=2
BDS judge:43,2831,2933,i=3
BDS judge:43,2564,2701,i=4
BDS judge:43,2879,2870,i=5
BDS judge:43,2621,2736,i=6
BDS judge:43,2560,2762,i=7
BDS judge:43,2826,3125,i=8
BDS judge:43,2601,3110,i=9
BDS judge:43,2834,3163,i=10
BDS judge:43,2671,2950,i=11
BDS jud
ge:43,2700,2643,i=12
BDS judge:43,2469,2712,i=13
BDS judge:43,2689,2959,i=14
BDS judge:43,2718,2936,i=15
BDS judge:43,2707,3014,i=16
BDS judge:43,2605,2689,i=17
BDS judge:43,2537,2554,i=18
BDS judge:43,2442,2669,i=19
BDS judge:43,2594,2684,i=20
BDS judge:43,2639,2887,i=21
BDS judge:43,2737,2813,i=22
BDS judge:43,2711,2963,i=23
BDS judge:43,2567,2897,i=24
BDS judge:43,2614,2662,i=25
BDS judge:43,2565,2990,i=26
BDS judge:43,2786,2709,i=27
BDS judge:43,2784,2775,i=28
BDS judge:43,2885,2667,i=2
9
BDS judge:43,2592,2582,i=30
BDS judge:43,2920,2606,i=31
BDS judge:43,2934,2642,i=32
BDS judge:43,2838,2570,i=33
BDS judge:43,2437,2668,i=34
BDS judge:43,2494,2648,i=35
BDS judge:43,2555,2670,i=36
BDS judge:43,2821,2723,i=37
BDS judge:43,2835,2910,i=38
BDS judge:43,2931,2918,i=39
BDS judge:43,2728,2749,i=40
BDS judge:43,2770,0,i=41
BDS judge:44,2514,2776,i=0
BDS judge:44,2300,2327,i=1
BDS judge:44,2554,2768,i=2
BDS judge:44,2529,2491,i=3
BDS judge:44,2518,2511,i=4
BDS judge:44,2663,2615,i
=5
BDS judge:44,2642,2863,i=6
BDS judge:44,2602,2690,i=7
BDS judge:44,2957,2806,i=8
BDS judge:44,2932,2802,i=9
BDS judge:44,2773,2804,i=10
BDS judge:44,2628,2978,i=11
BDS judge:44,2535,2674,i=12
BDS judge:44,2538,2527,i=13
BDS judge:44,2489,2674,i=14
BDS judge:44,2372,2565,i=15
BDS judge:44,2573,2631,i=16
BDS judge:44,2590,2554,i=17
BDS judge:44,2800,2487,i=18
BDS judge:44,3219,2615,i=19
BDS judge:44,3447,2791,i=20
BDS judge:44,3101,3012,i=21
BDS judge:44,2868,3032,i=22
BDS judge:44,2718,2
888,i=23
BDS judge:44,2722,2919,i=24
BDS judge:44,2981,3011,i=25
BDS judge:44,3077,3500,i=26
BDS judge:44,3110,3368,i=27
BDS judge:44,3425,3525,i=28
BDS judge:44,3406,3225,i=29
BDS judge:44,3397,3088,i=30
BDS judge:44,3210,3320,i=31
BDS judge:44,3030,3425,i=32
BDS judge:44,2855,2899,i=33
BDS judge:44,2941,2934,i=34
BDS judge:44,2762,2908,i=35
BDS judge:44,2721,2919,i=36
BDS judge:44,2663,2976,i=37
BDS judge:44,2738,2737,i=38
BDS judge:44,2666,2969,i=39
BDS judge:44,2638,3085,i=40
BDS judge
:44,3283,0,i=41
BDS judge:44,2514,2544,i=0
BDS judge:44,2670,2687,i=1
BDS judge:44,2649,2523,i=2
BDS judge:44,2900,2552,i=3
BDS judge:44,2946,2468,i=4
BDS judge:44,2921,2644,i=5
BDS judge:44,3290,2630,i=6
BDS judge:44,2911,2959,i=7
BDS judge:44,2820,3089,i=8
BDS judge:44,3093,3145,i=9
BDS judge:44,3001,2891,i=10
BDS judge:44,3159,3000,i=11
BDS judge:44,2753,2854,i=12
BDS judge:44,2686,2838,i=13
BDS judge:44,2731,2656,i=14
BDS judge:44,2775,2759,i=15
BDS judge:44,2553,2954,i=16
BDS judge:44
,3043,2885,i=17
BDS judge:44,3438,2863,i=18
BDS judge:44,3632,2737,i=19
BDS judge:44,3718,2835,i=20
BDS judge:44,3172,2900,i=21
BDS judge:44,3056,2806,i=22
BDS judge:44,3049,2987,i=23
BDS judge:44,3013,2930,i=24
BDS judge:44,3177,3267,i=25
BDS judge:44,3387,3317,i=26
BDS judge:44,3665,3688,i=27
BDS judge:44,3396,3446,i=28
BDS judge:44,3240,3432,i=29
BDS judge:44,3249,3385,i=30
BDS judge:44,3508,3547,i=31
BDS judge:44,3357,3135,i=32
BDS judge:44,3473,3253,i=33
BDS judge:44,2945,2873,i=34
BD
S judge:44,3041,2952,i=35
BDS judge:44,3122,2795,i=36
BDS judge:44,2985,2590,i=37
BDS judge:44,2994,2772,i=38
BDS judge:44,2937,2881,i=39
BDS judge:44,3277,2808,i=40
BDS judge:44,3079,0,i=41
BDS judge:45,2990,3309,i=0
BDS judge:45,3467,3135,i=1
BDS judge:45,3315,2941,i=2
BDS judge:45,2834,3126,i=3
BDS judge:45,2721,3209,i=4
BDS judge:45,2923,3373,i=5
BDS judge:45,3110,3221,i=6
BDS judge:45,3052,2994,i=7
BDS judge:45,3147,3343,i=8
BDS judge:45,2813,3065,i=9
BDS judge:45,2912,3248,i=10
BDS j
udge:45,2807,3677,i=11
BDS judge:45,2935,3116,i=12
BDS judge:45,2609,3025,i=13
BDS judge:45,2868,2776,i=14
BDS judge:45,3180,3038,i=15
BDS judge:45,2892,3589,i=16
BDS judge:45,3127,3171,i=17
BDS judge:45,3113,3130,i=18
BDS judge:45,2891,2956,i=19
BDS judge:45,3088,2720,i=20
BDS judge:45,2738,2945,i=21
BDS judge:45,2704,2759,i=22
BDS judge:45,2338,2417,i=23
BDS judge:45,2368,2263,i=24
BDS judge:45,2482,2423,i=25
BDS judge:45,2489,2595,i=26
BDS judge:45,2564,2558,i=27
BDS judge:45,2539,2813,i
=28
BDS judge:45,2581,2613,i=29
BDS judge:45,2533,2791,i=30
BDS judge:45,2831,2746,i=31
BDS judge:45,3135,2648,i=32
BDS judge:45,3180,2712,i=33
BDS judge:45,2680,2520,i=34
BDS judge:45,2677,2612,i=35
BDS judge:45,2581,2628,i=36
BDS judge:45,2695,2769,i=37
BDS judge:45,2635,2746,i=38
BDS judge:45,2861,2625,i=39
BDS judge:45,2829,2565,i=40
BDS judge:45,2611,0,i=41
BDS judge:45,2990,2897,i=0
BDS judge:45,3041,2998,i=1
BDS judge:45,2908,2936,i=2
BDS judge:45,3013,3087,i=3
BDS judge:45,2847,317
9,i=4
BDS judge:45,3116,3013,i=5
BDS judge:45,3027,3133,i=6
BDS judge:45,3039,3055,i=7
BDS judge:45,3211,3172,i=8
BDS judge:45,3288,3112,i=9
BDS judge:45,3139,3348,i=10
BDS judge:45,3292,3451,i=11
BDS judge:45,2848,3204,i=12
BDS judge:45,2731,2906,i=13
BDS judge:45,3037,3514,i=14
BDS judge:45,3157,2985,i=15
BDS judge:45,3359,3072,i=16
BDS judge:45,3450,3007,i=17
BDS judge:45,3528,3031,i=18
BDS judge:45,3335,2887,i=19
BDS judge:45,3072,2823,i=20
BDS judge:45,2768,2828,i=21
BDS judge:45,2540
,2656,i=22
BDS judge:45,2580,2683,i=23
BDS judge:45,2501,2641,i=24
BDS judge:45,2601,2697,i=25
BDS judge:45,2583,2828,i=26
BDS judge:45,2990,2596,i=27
BDS judge:45,2684,2674,i=28
BDS judge:45,2626,2981,i=29
BDS judge:45,2730,3000,i=30
BDS judge:45,2678,2681,i=31
BDS judge:45,2918,2668,i=32
BDS judge:45,2896,2599,i=33
BDS judge:45,2875,2671,i=34
BDS judge:45,2915,2801,i=35
BDS judge:45,2886,2874,i=36
BDS judge:45,2815,2921,i=37
BDS judge:45,2763,2809,i=38
BDS judge:45,2949,2568,i=39
BDS jud
ge:45,2790,3133,i=40
BDS judge:45,2805,0,i=41
---00000011--- Acq_st=3 2019-10-4 07:26:32 
[00]  G01  7 36   2110.5 2045997.2  1.0  0.8  5  0        17
[01]  G11  7 33   1956.1 2045997.4  1.0  0.9  5  0        15
[02]  G17  7 42  -1853.9 2046002.3  1.0  1.0  5  0        12
[03]  G18  7 43   2963.6 2045996.1  0.9  1.0  5  0        11
[04]  G19  7 45  -2657.6 2046003.4  0.9  1.0  5  0         8
[05]  G28  7 27  -1803.6 2046002.3  0.2  1.0 10  0         7
[16]  B05  1 10   -369.7 4092000.8 -0.1  0.0  1
  0      1401
BDS judge:46,2860,2929,i=0
BDS judge:46,2587,2749,i=1
BDS judge:46,2672,2902,i=2
BDS judge:46,2802,3114,i=3
BDS judge:46,3219,2915,i=4
BDS judge:46,3030,2785,i=5
BDS judge:46,2966,2989,i=6
BDS judge:46,2532,2869,i=7
BDS judge:46,2411,3278,i=8
BDS judge:46,2576,3027,i=9
BDS judge:46,2782,2683,i=10
BDS judge:46,2651,2786,i=11
BDS judge:46,2813,2967,i=12
BDS judge:46,2615,3310,i=13
BDS judge:46,2669,3408,i=14
BDS judge:46,2875,3025,i=15
BDS judge:46,3047,3142,i=16
BDS judge:46,3
317,3209,i=17
BDS judge:46,3230,2940,i=18
BDS judge:46,2893,3370,i=19
BDS judge:46,2811,3481,i=20
BDS judge:46,2882,2964,i=21
BDS judge:46,2801,2614,i=22
BDS judge:46,2636,2580,i=23
BDS judge:46,2728,2441,i=24
BDS judge:46,2852,2546,i=25
BDS judge:46,2864,2755,i=26
BDS judge:46,3175,2804,i=27
BDS judge:46,2927,2980,i=28
BDS judge:46,2782,2919,i=29
BDS judge:46,2929,2861,i=30
BDS judge:46,2800,2621,i=31
BDS judge:46,2793,2699,i=32
BDS judge:46,2596,2590,i=33
BDS judge:46,2651,2653,i=34
BDS 
judge:46,2458,2630,i=35
BDS judge:46,3183,2905,i=36
BDS judge:46,2883,2829,i=37
BDS judge:46,2843,2752,i=38
BDS judge:46,2939,3090,i=39
BDS judge:46,2957,3157,i=40
BDS judge:46,2904,0,i=41
BDS judge:46,2860,2603,i=0
BDS judge:46,2813,2760,i=1
BDS judge:46,2955,2984,i=2
BDS judge:46,3018,2906,i=3
BDS judge:46,2998,2793,i=4
BDS judge:46,2994,2664,i=5
BDS judge:46,2654,2680,i=6
BDS judge:46,2733,2721,i=7
BDS judge:46,2782,2611,i=8
BDS judge:46,2709,2886,i=9
BDS judge:46,2543,2986,i=10
BDS jud
ge:46,2635,2720,i=11
BDS judge:46,2706,2865,i=12
BDS judge:46,2852,2943,i=13
BDS judge:46,2824,2902,i=14
BDS judge:46,2891,3066,i=15
BDS judge:46,3257,3144,i=16
BDS judge:46,3225,3888,i=17
BDS judge:46,3090,3953,i=18
BDS judge:46,3116,4049,i=19
BDS judge:46,3139,4148,i=20
BDS judge:46,3247,3733,i=21
BDS judge:46,2997,3183,i=22
BDS judge:46,2895,3124,i=23
BDS judge:46,2770,2930,i=24
BDS judge:46,2842,2970,i=25
BDS judge:46,2754,2839,i=26
BDS judge:46,3051,3071,i=27
BDS judge:46,2867,2988,i=2
8
BDS judge:46,2927,2992,i=29
BDS judge:46,2994,2980,i=30
BDS judge:46,2756,2787,i=31
BDS judge:46,3128,2769,i=32
BDS judge:46,2991,2710,i=33
BDS judge:46,2685,2717,i=34
BDS judge:46,2843,2630,i=35
BDS judge:46,2738,2785,i=36
BDS judge:46,2861,2865,i=37
BDS judge:46,3328,3280,i=38
BDS judge:46,3396,3041,i=39
BDS judge:46,3048,3128,i=40
BDS judge:46,3226,0,i=41
BDS judge:47,2815,2940,i=0
BDS judge:47,2910,2953,i=1
BDS judge:47,2814,2834,i=2
BDS judge:47,2619,2877,i=3
BDS judge:47,2494,2743,
i=4
BDS judge:47,2714,2806,i=5
BDS judge:47,2715,2910,i=6
BDS judge:47,2876,2692,i=7
BDS judge:47,2673,2649,i=8
BDS judge:47,2683,2565,i=9
BDS judge:47,2655,2768,i=10
BDS judge:47,2457,2621,i=11
BDS judge:47,2500,2644,i=12
BDS judge:47,2424,2523,i=13
BDS judge:47,2704,2681,i=14
BDS judge:47,2809,3241,i=15
BDS judge:47,2967,3169,i=16
BDS judge:47,3052,3069,i=17
BDS judge:47,2843,3723,i=18
BDS judge:47,2915,3473,i=19
BDS judge:47,2975,3582,i=20
BDS judge:47,2795,3579,i=21
BDS judge:47,2670,2
924,i=22
BDS judge:47,2756,2656,i=23
BDS judge:47,2589,2585,i=24
BDS judge:47,2407,2492,i=25
BDS judge:47,2401,2623,i=26
BDS judge:47,2465,2556,i=27
BDS judge:47,2566,2895,i=28
BDS judge:47,2453,2480,i=29
BDS judge:47,2329,2504,i=30
BDS judge:47,2387,2539,i=31
BDS judge:47,2503,2612,i=32
BDS judge:47,2469,2589,i=33
BDS judge:47,2460,2573,i=34
BDS judge:47,2739,2654,i=35
BDS judge:47,2849,2871,i=36
BDS judge:47,3459,2773,i=37
BDS judge:47,3011,3000,i=38
BDS judge:47,2784,2769,i=39
BDS judge
:47,2877,2718,i=40
BDS judge:47,2729,0,i=41
BDS judge:47,2815,2943,i=0
BDS judge:47,3086,2766,i=1
BDS judge:47,3689,2848,i=2
BDS judge:47,3389,2838,i=3
BDS judge:47,3530,2733,i=4
BDS judge:47,2709,2596,i=5
BDS judge:47,3305,2682,i=6
BDS judge:47,2721,2803,i=7
BDS judge:47,2841,2778,i=8
BDS judge:47,2804,2993,i=9
BDS judge:47,2588,2744,i=10
BDS judge:47,2628,2601,i=11
BDS judge:47,2609,2847,i=12
BDS judge:47,2433,3019,i=13
BDS judge:47,2609,2816,i=14
BDS judge:47,2647,2941,i=15
BDS judge:47
,2770,3338,i=16
BDS judge:47,2936,3294,i=17
BDS judge:47,2925,3134,i=18
BDS judge:47,3276,3226,i=19
BDS judge:47,3416,3033,i=20
BDS judge:47,3085,2956,i=21
BDS judge:47,2895,2854,i=22
BDS judge:47,2814,2995,i=23
BDS judge:47,2786,2934,i=24
BDS judge:47,2515,2794,i=25
BDS judge:47,2418,2669,i=26
BDS judge:47,2853,2745,i=27
BDS judge:47,2809,2423,i=28
BDS judge:47,2482,2785,i=29
BDS judge:47,2589,2419,i=30
BDS judge:47,2494,2572,i=31
BDS judge:47,2619,2610,i=32
BDS judge:47,2772,2812,i=33
BD
S judge:47,2894,3063,i=34
BDS judge:47,2948,3162,i=35
BDS judge:47,3088,3038,i=36
BDS judge:47,3009,3176,i=37
BDS judge:47,3017,2937,i=38
BDS judge:47,2915,2853,i=39
BDS judge:47,2988,2863,i=40
BDS judge:47,2796,0,i=41
BDS judge:49,3149,3332,i=0
BDS judge:49,3485,3361,i=1
BDS judge:49,3375,3368,i=2
BDS judge:49,3567,3459,i=3
BDS judge:49,3350,3713,i=4
BDS judge:49,3536,3787,i=5
BDS judge:49,3323,3626,i=6
BDS judge:49,3380,3516,i=7
BDS judge:49,3134,3494,i=8
BDS judge:49,3089,3295,i=9
BDS j
udge:49,3326,2801,i=10
BDS judge:49,2937,2667,i=11
BDS judge:49,2836,2806,i=12
BDS judge:49,2994,3030,i=13
BDS judge:49,2895,2885,i=14
BDS judge:49,2976,3453,i=15
BDS judge:49,2969,4330,i=16
BDS judge:49,3121,4923,i=17
BDS judge:49,2865,5433,i=18
BDS judge:49,2961,5114,i=19
BDS judge:49,2941,4561,i=20
BDS judge:49,2628,3153,i=21
BDS judge:49,2733,2791,i=22
BDS judge:49,2669,2681,i=23
BDS judge:49,2818,2789,i=24
BDS judge:49,2942,2811,i=25
BDS judge:49,3075,3000,i=26
BDS judge:49,3102,3086,i=27
BDS judge:49,3064,3170,i=28
BDS judge:49,3255,3354,i=29
BDS judge:49,3402,3195,i=30
BDS judge:49,3330,3183,i=31
BDS judge:49,3070,2881,i=32
BDS judge:49,2956,2940,i=33
BDS judge:49,3154,2906,i=34
BDS judge:49,3106,3044,i=35
BDS judge:49,2889,2839,i=36
BDS judge:49,2575,2838,i=37
BDS judge:49,2531,2697,i=38
BDS judge:49,2525,2827,i=39
BDS judge:49,2778,2783,i=40
BDS judge:49,2736,0,i=41
BDS judge:49,3149,3296,i=0
BDS judge:49,3627,3322,i=1
BDS judge:49,4115,3536,i=2
BDS judge:49,4346,36
88,i=3
BDS judge:49,4155,3705,i=4
BDS judge:49,3879,3546,i=5
BDS judge:49,3633,3566,i=6
BDS judge:49,3656,3716,i=7
BDS judge:49,3466,3558,i=8
BDS judge:49,3301,3070,i=9
BDS judge:49,3358,3185,i=10
BDS judge:49,2882,2827,i=11
BDS judge:49,2840,2759,i=12
BDS judge:49,2764,3020,i=13
BDS judge:49,2832,3620,i=14
BDS judge:49,2942,4835,i=15
BDS judge:49,3104,5407,i=16
BDS judge:49,3136,6083,i=17
BDS judge:49,3047,5764,i=18
BDS judge:49,3189,5648,i=19
BDS judge:49,2826,4692,i=20
BDS judge:49,2971
,3393,i=21
BDS judge:49,2664,2837,i=22
BDS judge:49,2730,2787,i=23
BDS judge:49,2978,3082,i=24
BDS judge:49,3078,3030,i=25
BDS judge:49,3669,3189,i=26
BDS judge:49,3307,3290,i=27
BDS judge:49,3195,3435,i=28
BDS judge:49,3962,3435,i=29
BDS judge:49,3541,3465,i=30
BDS judge:49,3399,3780,i=31
BDS judge:49,3064,3640,i=32
BDS judge:49,3022,3827,i=33
BDS judge:49,2911,3498,i=34
BDS judge:49,3111,3472,i=35
BDS judge:49,2807,3231,i=36
BDS judge:49,2647,2874,i=37
BDS judge:49,2673,2744,i=38
BDS jud
ge:49,2786,2701,i=39
BDS judge:49,2876,2857,i=40
BDS judge:49,2894,0,i=41
BDS judge:50,3068,2625,i=0
BDS judge:50,2985,2569,i=1
BDS judge:50,2733,2552,i=2
BDS judge:50,2836,2855,i=3
BDS judge:50,3003,3331,i=4
BDS judge:50,3004,3010,i=5
BDS judge:50,3007,3253,i=6
BDS judge:50,3181,3090,i=7
BDS judge:50,3170,3248,i=8
BDS judge:50,3287,3298,i=9
BDS judge:50,2948,3429,i=10
BDS judge:50,2991,3392,i=11
BDS judge:50,3314,3157,i=12
BDS judge:50,3185,3187,i=13
BDS judge:50,3461,3734,i=14
BDS judge:
50,3502,3420,i=15
BDS judge:50,4070,3462,i=16
BDS judge:50,3590,3217,i=17
BDS judge:50,3386,3659,i=18
BDS judge:50,2779,3545,i=19
BDS judge:50,2823,3028,i=20
BDS judge:50,2774,2860,i=21
BDS judge:50,2791,3126,i=22
BDS judge:50,2651,3167,i=23
BDS judge:50,2807,3109,i=24
BDS judge:50,2914,3112,i=25
BDS judge:50,2795,3024,i=26
BDS judge:50,2920,3009,i=27
