FlashID=0x1 0x20 0x18

BBram_blkflag1: 1c9a: e365

FW Ver: 1.30  
GPS00 Init Dop:  -1919,  2
GPS01 Init Dop:   1435,  2
GPS02 Init Dop:  -2364,  2
GPS03 Init Dop:  -5000, 41
GPS04 Init Dop:   1537,  2
GPS05 Init Dop:   -599,  2
GPS06 Init Dop:  -5000, 41
GPS07 Init Dop:  -5000, 41
GPS08 Init Dop:  -1845,  2
GPS09 Init Dop:  -5000, 41
GPS10 Init Dop:  -5000, 41
GPS11 Init Dop:  -1459,  2
GPS12 Init Dop:  -5000, 41
GPS13 Init Dop:  -5000, 41
GPS14 Init Dop:  -5000, 41
GPS15 Init Dop:  -5000, 41
GPS16 Init Dop:  -3128,  2
GPS17 Init Dop:  -5000, 41
GPS18 Init Dop:  -2794,  2
GPS19 Init Dop:  -5000, 41
GPS20 Init Dop:  -5000, 41
GPS21 Init Dop:  -1666,  2
GPS22 Init Dop:  -2729,  2
GPS23 Init Dop:  -5000, 41
GPS24 Init Dop:     66,  2
GPS25 Init Dop:  -5000, 41
GPS26 Init Dop:  -5000, 41
GPS27 Init Dop:  -5000, 41
GPS28 Init Dop:  -5000, 41
GPS29 Init Dop:  -5000, 41
GPS30 Init Dop:  -5000, 41
GPS31 Init Dop:  -5000, 41
BDS00 Init Dop:  -5000, 41
BDS01 Init Dop:  -5000, 41
BDS02 Init Dop:  -5000, 41
BDS03 Init Dop:  -5000, 41
BDS04 Init Dop:  -5000, 41
BDS05 Init Dop:  -5000, 41
BDS06 Init Dop:  -5000, 41
BDS07 Init Dop:  -5000, 41
BDS08 Init Dop:  -5000, 41
BDS09 Init Dop:  -5000, 41
BDS10 Init Dop:  -5000, 41
BDS11 Init Dop:  -5000, 41
BDS12 Init Dop:  -5000, 41
BDS13 Init Dop:  -5000, 41
BDS14 Init Dop:  -5000, 41
BDS15 Init Dop:  -5000, 41
BDS16 Init Dop:  -5000, 41
BDS17 Init Dop:  -5000, 41
BDS18 Init Dop:  -5000, 41
BDS19 Init Dop:  -5000, 41
BDS20 Init Dop:  -5000, 41
BDS21 Init Dop:  -5000, 41
BDS22 Init Dop:  -5000, 41
BDS23 Init Dop:  -5000, 41
BDS24 Init Dop:  -5000, 41
BDS25 Init Dop:  -5000, 41
BDS26 Init Dop:  -5000, 41
BDS27 Init Dop:  -5000, 41
BDS28 Init Dop:  -5000, 41
BDS29 Init Dop:  -5000, 41
BDS30 Init Dop:  -5000, 41
BDS31 Init Dop:  -5000, 41
good luck!
sat0 = 3265 1498 1427 -2169
sat1 = 44891 844 1158 1435
ch0 satid=1 freq = 1435 acq ok1!
sat2 = 2546 626 1109 -2364
sat3 = 14477 1606 3201 -14250
ch1 satid=3 freq = -14250 acq ok1!
sat4 = 17951 635 4027 1537
ch2 satid=4 freq = 1537 acq ok1!
sat5 = 12323 607 4284 -849
sat6 = 17589 732 5946 -11000
sat7 = 20915 1273 5335 -12000
sat8 = 11030 1181 5071 -1845
sat9 = 20046 644 5693 -13750
---00000001--- Acq_st=3 2019-5-14 12:39:12 
[00]  G02  1  7  -1489.8 2046001.1 -0.1  0.0  1  0         0
[01]  G04  1  7  14237.9 2045981.9  0.0  0.0  1  0         0
[02]  G05  1  7  -1488.4 2046000.8  0.0  0.0  1  0         0
$GNGGA,000000.000,,,,,0,00,,,M,,,,0000*2B

$GNRMC,000000.000,A,,,,,,,000000,,*26

$GPGSA,A,1,,,,,,,,,,,,,,,*1E

$BDGSA,A,1,,,,,,,,,,,,,,,*0F

$LOGTIM,0,0.000000,0.000000,0.000000,0.000000,0.000*0A

EndT:        0
sat10 = 25552 923 5527 -14250
ch3 satid=10 freq = -14250 acq ok1!
sat11 = 10212 1629 4097 -1709
sat12 = 19644 1022 4876 -6750
ch4 satid=12 freq = -6750 acq ok1!
sat13 = 23618 20 6440 -10500
sat14 = 15521 1544 4773 -6250
sat15 = 25373 327 6320 -10500
ch5 satid=15 freq = -10500 acq ok1!
---00000002--- Acq_st=3 2019-5-14 12:39:13 
[00]  G02  1  9  -1268.4 2046000.6  0.1  0.0  1  0         5
[01]  G04  1  7  14419.1 2045981.9 -0.2  0.0  1  0        19
[02]  G05  1  7  -1410.7 2046000.7  0.1  0.0  1  0         6
[03]  G11  1  7  14271.7 2045982.3 -0.0  0.0  1  0         0
[04]  G13  1  7   6737.9 2045991.8 -0.0  0.0  1  0         0
[05]  G16  1  7  13734.2 2045986.9 -0.0  0.0  1  0         0
sat16 = 6940 43 3149 -3128
$GNGGA,000000.000,,,,,0,00,,,M,,,,0000*2B

$GNRMC,000000.000,A,,,,,,,000000,,*26

$GPGSA,A,1,,,,,,,,,,,,,,,*1E

$BDGSA,A,1,,,,,,,,,,,,,,,*0F

$LOGTIM,0,0.000000,0.000000,0.000000,0.000000,0.000*0A

EndT:        1
sat17 = 24348 209 7313 -9000
sat18 = 9003 140 4428 -3044
sat19 = 19164 1084 5141 -8000
sat20 = 11603 1462 3699 -13750
sat21 = 12426 102 4372 -1916
sat22 = 17538 1176 7321 -2979
sat23 = 14384 316 3992 -10250
sat24 = 117111 224 4063 66
ch6 satid=24 freq = 66 acq ok1!
---00000003--- Acq_st=3 2019-5-14 12:39:14 
[00]  G02  1  7  -1316.7 2046001.0 -0.1  0.0  1  0         5
[01]  G04  1 10  14511.4 2045982.7 -0.1  0.0  1  0        19
[02]  G05  1 13  -1654.1 2046000.5 -0.1  0.0  1  0         6
[03]  G11  1  7  14143.7 2045982.2 -0.0  0.0  1  0        10
[04]  G13  1  8   6781.0 2045991.7 -0.1  0.0  1  0         4
[05]  G16  1 12  10395.3 2045987.0  0.0  0.0  1  0         5
[06]  G25  1  7    221.3 2046000.3 -0.1  0.0  1  0         0
$GNGGA,000000.000,,,,,0,00,,,M,,,,0000*2B

$GNRMC,000000.000,A,,,,,,,000000,,*26

$GPGSA,A,1,,,,,,,,,,,,,,,*1E

$BDGSA,A,1,,,,,,,,,,,,,,,*0F

$LOGTIM,0,0.000000,0.000000,0.000000,0.000000,0.000*0A

EndT:        0
sat25 = 19751 1233 6626 -14250
sat26 = 13018 1709 4276 -14250
sat27 = 24533 321 5577 -5500
ch7 satid=27 freq = -5500 acq ok1!
sat28 = 15025 1438 4494 -5000
sat29 = 19916 1704 5240 -8000
---00000004--- Acq_st=3 2019-5-14 12:39:15 
[03]  G11  1  7  14011.7 2045982.3 -0.0  0.0  1  0        10
[04]  G13  1  7   6684.4 2045992.4 -0.1  0.0  1  0         4
[05]  G16  1  7  10289.7 2045987.0  0.0  0.0  1  0         5
[06]  G25  1  7    -72.8 2046000.2  0.1  0.0  1  0         9
[07]  G28  1  7   5529.9 2045992.8  0.0  0.0  1  0         0
$GNGGA,000000.000,,,,,0,00,,,M,,,,0000*2B

$GNRMC,000000.000,A,,,,,,,000000,,*26

$GPGSA,A,1,,,,,,,,,,,,,,,*1E

$BDGSA,A,1,,,,,,,,,,,,,,,*0F

$LOGTIM,0,0.000000,0.000000,0.000000,0.000000,0.000*0A

EndT:        0
sat30 = 16951 1871 4945 -12750
sat31 = 16968 586 4856 -6750
sat37 = 2506 3995 1033 -14500
sat38 = 2653 1221 1043 -13000
sat39 = 2960 531 1036 -9500
---00000005--- Acq_st=3 2019-5-14 12:39:16 
[05]  G16  1  7  10481.7 2045986.9 -0.1  0.0  1  0         5
[06]  G25  1  7    137.7 2045999.9  0.0  0.0  1  0         9
[07]  G28  1  7   5681.8 2045993.7  0.1  0.0  1  0        10
$GNGGA,000000.000,,,,,0,00,,,M,,,,0000*2B

$GNRMC,000000.000,A,,,,,,,000000,,*26

$GPGSA,A,1,,,,,,,,,,,,,,,*1E

$BDGSA,A,1,,,,,,,,,,,,,,,*0F

$LOGTIM,0,0.000000,0.000000,0.000000,0.000000,0.000*0A

EndT:        0
sat40 = 3241 3020 1056 -9250
sat41 = 2665 84 1032 -14500
sat42 = 2406 453 1035 -14250
sat43 = 2634 1751 1031 -10500
---00000006--- Acq_st=3 2019-5-14 12:39:17 
[06]  G25  1  7    266.5 2045999.8  0.2  0.0  1  0         9
[07]  G28  1  7   5858.8 2045993.1 -0.0  0.0  1  0        10
$GNGGA,000000.000,,,,,0,00,,,M,,,,0000*2B

$GNRMC,000000.000,A,,,,,,,000000,,*26

$GPGSA,A,1,,,,,,,,,,,,,,,*1E

$BDGSA,A,1,,,,,,,,,,,,,,,*0F

$LOGTIM,0,0.000000,0.000000,0.000000,0.000000,0.000*0A

EndT:        0
sat44 = 2754 3435 1034 -14250
sat45 = 2605 2963 1042 -5250
sat46 = 2623 274 1056 -9000
sat47 = 2694 3179 1019 -10250
sat48 = 2473 1338 1033 -9000
---00000007--- Acq_st=3 2019-5-14 12:39:18 
$GNGGA,000000.000,,,,,0,00,,,M,,,,0000*2B

$GNRMC,000000.000,A,,,,,,,000000,,*26

$GPGSA,A,1,,,,,,,,,,,,,,,*1E

$BDGSA,A,1,,,,,,,,,,,,,,,*0F

$LOGTIM,0,0.000000,0.000000,0.000000,0.000000,0.000*0A

EndT:        0
sat49 = 2636 1009 1037 -13000
sat50 = 2624 3878 1032 -15000
sat51 = 2525 1235 1030 -14000
sat52 = 2928 1532 1055 -13250
---00000008--- Acq_st=3 2019-5-14 12:39:19 
$GNGGA,000000.000,,,,,0,00,,,M,,,,0000*2B

$GNRMC,000000.000,A,,,,,,,000000,,*26

$GPGSA,A,1,,,,,,,,,,,,,,,*1E

$BDGSA,A,1,,,,,,,,,,,,,,,*0F

$LOGTIM,0,0.000000,0.000000,0.000000,0.000000,0.000*0A

EndT:        0
sat53 = 2561 2618 1027 -9750
sat54 = 2546 672 1031 -12000
sat55 = 2628 373 1022 -9000
sat56 = 2878 618 1023 -6750
sat57 = 2609 4061 1020 -9500
---00000009--- Acq_st=3 2019-5-14 12:39:20 
$GNGGA,000000.000,,,,,0,00,,,M,,,,0000*2B

$GNRMC,000000.000,A,,,,,,,000000,,*26

$GPGSA,A,1,,,,,,,,,,,,,,,*1E

$BDGSA,A,1,,,,,,,,,,,,,,,*0F

$LOGTIM,0,0.000000,0.000000,0.000000,0.000000,0.000*0A

EndT:        0
sat58 = 2822 1402 1029 -12750
sat59 = 2603 2213 1027 -5500
sat60 = 2769 3910 1029 -8500
sat61 = 2505 3976 1021 -7250
---00000010--- Acq_st=3 2019-5-14 12:39:21 
sat62 = 2741 1550 1032 -9750
$GNGGA,000000.000,,,,,0,00,,,M,,,,0000*2B

$GNRMC,000000.000,A,,,,,,,000000,,*26

$GPGSA,A,1,,,,,,,,,,,,,,,*1E

$BDGSA,A,1,,,,,,,,,,,,,,,*0F

$LOGTIM,0,0.000000,0.000000,0.000000,0.000000,0.000*0A

EndT:        0
sat63 = 2730 1643 1025 -12000
sat64 = 2579 2245 1030 -6000
sat65 = 2613 2935 1040 -13000
sat66 = 2652 3987 1027 -5750
---00000011--- Acq_st=3 2019-5-14 12:39:22 
$GNGGA,000000.000,,,,,0,00,,,M,,,,0000*2B

$GNRMC,000000.000,A,,,,,,,000000,,*26

$GPGSA,A,1,,,,,,,,,,,,,,,*1E

$BDGSA,A,1,,,,,,,,,,,,,,,*0F

$LOGTIM,0,0.000000,0.000000,0.000000,0.000000,0.000*0A

EndT:        0
sat67 = 2609 299 1029 -5250
sat68 = 2536 3873 1028 -14000
---00000012--- Acq_st=7 2019-5-14 12:39:23 
$GNGGA,000000.000,,,,,0,00,,,M,,,,0000*2B

$GNRMC,000000.000,A,,,,,,,000000,,*26

$GPGSA,A,1,,,,,,,,,,,,,,,*1E

$BDGSA,A,1,,,,,,,,,,,,,,,*0F

$LOGTIM,0,0.000000,0.000000,0.000000,0.000000,0.000*0A

EndT:        0
---00000013--- Acq_st=7 2019-5-14 12:39:24 
$GNGGA,000000.000,,,,,0,00,,,M,,,,0000*2B

$GNRMC,000000.000,A,,,,,,,000000,,*26

$GPGSA,A,1,,,,,,,,,,,,,,,*1E

$BDGSA,A,1,,,,,,,,,,,,,,,*0F

$LOGTIM,0,0.000000,0.000000,0.000000,0.000000,0.000*0A

EndT:        0
sat0 = 10212 568 4116 -2250
sat1 = 243492 1680 4112 2250
ch0 satid=1 freq = 2250 acq ok1!
sat2 = 11697 442 4089 750
sat3 = 10670 171 4083 750
sat4 = 36827 1919 4162 2250
ch1 satid=4 freq = 2250 acq ok1!
sat5 = 12261 1348 4203 1250
---00000014--- Acq_st=3 2019-5-14 12:39:25 
[00]  G02  1  7  -2200.6 2046002.4 -0.0  0.0  1  0         5
[01]  G05  1  7  -2222.3 2046002.1  0.0  0.0  1  0        19
$GNGGA,000000.000,,,,,0,00,,,M,,,,0000*2B

$GNRMC,000000.000,A,,,,,,,000000,,*26

$GPGSA,A,1,,,,,,,,,,,,,,,*1E

$BDGSA,A,1,,,,,,,,,,,,,,,*0F

$LOGTIM,0,0.000000,0.000000,0.000000,0.000000,0.000*0A

EndT:        0
sat6 = 10778 1534 4202 -1750
sat7 = 10152 1859 4108 1500
sat8 = 10869 1101 4155 -250
sat9 = 11502 1716 4229 250
sat10 = 12958 1680 4204 500
sat11 = 33599 1485 4215 -250
ch2 satid=11 freq = -250 acq ok1!
---00000015--- Acq_st=3 2019-5-14 12:39:26 
[00]  G02  1 12  -2170.9 2046002.0  0.0  0.0  1  0        16
[01]  G05  1 15  -2149.6 2046002.0  0.0  0.0  1  0        13
[02]  G12  1  7    186.9 2046000.2  0.0  0.0  1  0         6
$GNGGA,000000.000,,,,,0,00,,,M,,,,0000*2B

$GNRMC,000000.000,A,,,,,,,000000,,*26

$GPGSA,A,1,,,,,,,,,,,,,,,*1E

$BDGSA,A,1,,,,,,,,,,,,,,,*0F

$LOGTIM,0,0.000000,0.000000,0.000000,0.000000,0.000*0A

EndT:        0
sat12 = 11051 1164 4212 -500
sat13 = 10826 677 4205 250
sat14 = 11759 1236 4237 -4250
sat15 = 10622 216 4214 -2250
sat16 = 10235 807 4147 1750
sat17 = 10848 1691 4133 -3000
---00000016--- Acq_st=3 2019-5-14 12:39:27 
[00]  G02  1  7  -1966.4 2046002.5  0.0  0.0  1  0        16
[01]  G05  1 10  -2146.3 2046001.8 -0.1  0.0  1  0        13
[02]  G12  1  7    303.2 2045999.8  0.0  0.0  1  0         7
$GNGGA,000000.000,,,,,0,00,,,M,,,,0000*2B

$GNRMC,000000.000,A,,,,,,,000000,,*26

$GPGSA,A,1,,,,,,,,,,,,,,,*1E

$BDGSA,A,1,,,,,,,,,,,,,,,*0F

$LOGTIM,0,0.000000,0.000000,0.000000,0.000000,0.000*0A

EndT:        0
sat18 = 10255 54 4127 500
sat19 = 9801 1879 4076 -3750
sat20 = 10634 1167 4169 3250
sat21 = 11128 358 4108 4750
sat22 = 11037 2044 4195 -1750
sat23 = 10941 1634 4189 -2500
---00000017--- Acq_st=3 2019-5-14 12:39:28 
[01]  G05  1 12  -2173.1 2046001.7  0.2  0.0  1  0        13
[02]  G12  1  7    305.2 2046000.3 -0.2  0.0  1  0         7
sat24 = 90829 779 4147 1500
ch0 satid=24 freq = 1500 acq ok1!
$GNGGA,000000.000,,,,,0,00,,,M,,,,0000*2B

$GNRMC,000000.000,A,,,,,,,000000,,*26

$GPGSA,A,1,,,,,,,,,,,,,,,*1E

$BDGSA,A,1,,,,,,,,,,,,,,,*0F

$LOGTIM,0,0.000000,0.000000,0.000000,0.000000,0.000*0A

EndT:        0
sat25 = 10300 1719 4126 4250
sat26 = 11235 1022 4139 -3750
sat27 = 10094 1728 4097 -750
sat28 = 43230 1384 4178 4500
ch1 satid=28 freq = 4500 acq ok1!
sat29 = 10401 424 4110 -3750
sat30 = 9796 1945 4109 2750
---00000018--- Acq_st=3 2019-5-14 12:39:29 
[00]  G25  1  7  -1388.8 2046000.8 -0.0  0.0  1  0        16
[01]  G29  1  7  -4497.6 2046004.5 -0.1  0.0  1  0        13
[02]  G12  1  7    276.0 2046000.4  0.0  0.0  1  0         7
$GNGGA,000000.000,,,,,0,00,,,M,,,,0000*2B

$GNRMC,000000.000,A,,,,,,,000000,,*26

$GPGSA,A,1,,,,,,,,,,,,,,,*1E

$BDGSA,A,1,,,,,,,,,,,,,,,*0F

$LOGTIM,0,0.000000,0.000000,0.000000,0.000000,0.000*0A

EndT:        0
sat31 = 10233 1814 4129 -2500
sat37 = 3764 1300 1315 750
sat38 = 3592 3423 1338 1750
sat39 = 3313 915 1322 2750
sat40 = 3328 2442 1333 -4000
---00000019--- Acq_st=3 2019-5-14 12:39:30 
[00]  G25  1  9  -1433.5 2046001.0  0.0  0.0  1  0        17
[01]  G29  1  7  -4317.4 2046004.9 -0.0  0.0  1  0        13
$GNGGA,000000.000,,,,,0,00,,,M,,,,0000*2B

$GNRMC,000000.000,A,,,,,,,000000,,*26

$GPGSA,A,1,,,,,,,,,,,,,,,*1E

$BDGSA,A,1,,,,,,,,,,,,,,,*0F

$LOGTIM,0,0.000000,0.000000,0.000000,0.000000,0.000*0A

EndT:        0
sat41 = 3548 1112 1326 -500
sat42 = 3458 711 1332 -1250
sat43 = 3376 885 1320 -4500
sat44 = 3426 975 1333 -1500
sat45 = 3811 1920 1328 1750
---00000020--- Acq_st=3 2019-5-14 12:39:31 
[00]  G25  1  7  -1380.7 2046001.3 -0.0  0.0  1  0        17
[01]  G29  1  7  -4086.5 2046005.0  0.2  0.0  1  0        13
$GNGGA,000000.000,,,,,0,00,,,M,,,,0000*2B

$GNRMC,000000.000,A,,,,,,,000000,,*26

$GPGSA,A,1,,,,,,,,,,,,,,,*1E

$BDGSA,A,1,,,,,,,,,,,,,,,*0F

$LOGTIM,0,0.000000,0.000000,0.000000,0.000000,0.000*0A

EndT:        0
sat46 = 3426 355 1332 -3750
sat47 = 6729 2660 1321 4000
ch16 satid=47 freq = 4000 acq ok1!
sat48 = 3410 3537 1325 1250
sat49 = 32409 1968 1323 2750
ch17 satid=49 freq = 2750 acq ok1!
sat50 = 3795 2166 1319 5000
---00000021--- Acq_st=3 2019-5-14 12:39:32 
[16]  B11  1  7  -3975.1 4092010.1  0.1  0.0  1  0         0
[17]  B13  1  7  -2781.2 4092007.2 -0.0  0.0  1  0         0
$GNGGA,000000.000,,,,,0,00,,,M,,,,0000*2B

$GNRMC,000000.000,A,,,,,,,000000,,*26

$GPGSA,A,1,,,,,,,,,,,,,,,*1E

$BDGSA,A,1,,,,,,,,,,,,,,,*0F

$LOGTIM,0,0.000000,0.000000,0.000000,0.000000,0.000*0A

EndT:        0
sat51 = 3403 3584 1320 1500
sat52 = 3614 3018 1332 -2000
sat53 = 4044 96 1324 4250
sat54 = 3384 1466 1325 2000
sat55 = 3397 2300 1323 -4750
---00000022--- Acq_st=3 2019-5-14 12:39:33 
[16]  B11  1  7  -3980.1 4092010.3  0.0  0.0  1  0       661
[17]  B13  1  7  -2892.0 4092007.1  0.0  0.0  1  0       259
$GNGGA,000000.000,,,,,0,00,,,M,,,,0000*2B

$GNRMC,000000.000,A,,,,,,,000000,,*26

$GPGSA,A,1,,,,,,,,,,,,,,,*1E

$BDGSA,A,1,,,,,,,,,,,,,,,*0F

$LOGTIM,0,0.000000,0.000000,0.000000,0.000000,0.000*0A

EndT:        0
sat56 = 3358 2406 1321 -2000
sat57 = 3527 1714 1319 4750
sat58 = 3300 3915 1323 -4000
sat59 = 3292 2138 1321 -4250
sat60 = 3408 996 1329 -3250
---00000023--- Acq_st=3 2019-5-14 12:39:34 
[16]  B11  1  7  -3799.2 4092010.0 -0.1  0.0  1  0      1661
[17]  B13  1  7  -3058.6 4092006.7  0.1  0.0  1  0      1259
$GNGGA,000000.000,,,,,0,00,,,M,,,,0000*2B

$GNRMC,000000.000,A,,,,,,,000000,,*26

$GPGSA,A,1,,,,,,,,,,,,,,,*1E

$BDGSA,A,1,,,,,,,,,,,,,,,*0F

$LOGTIM,0,0.000000,0.000000,0.000000,0.000000,0.000*0A

EndT:        0
sat61 = 3345 3503 1322 1250
sat62 = 3458 3249 1328 4500
sat63 = 3491 2818 1327 1500
sat64 = 3517 1596 1332 2500
sat65 = 3482 2856 1337 5000
---00000024--- Acq_st=3 2019-5-14 12:39:35 
[17]  B13  1  7  -3144.4 4092007.1  0.0  0.0  1  0      2259
$GNGGA,000000.000,,,,,0,00,,,M,,,,0000*2B

$GNRMC,000000.000,A,,,,,,,000000,,*26

$GPGSA,A,1,,,,,,,,,,,,,,,*1E

$BDGSA,A,1,,,,,,,,,,,,,,,*0F

$LOGTIM,0,0.000000,0.000000,0.000000,0.000000,0.000*0A

EndT:        0
sat66 = 4088 42 1328 2750
sat67 = 3630 569 1325 -3250
sat68 = 3810 2865 1329 -3250
---00000025--- Acq_st=7 2019-5-14 12:39:36 
$GNGGA,000000.000,,,,,0,00,,,M,,,,0000*2B

$GNRMC,000000.000,A,,,,,,,000000,,*26

$GPGSA,A,1,,,,,,,,,,,,,,,*1E

$BDGSA,A,1,,,,,,,,,,,,,,,*0F

$LOGTIM,0,0.000000,0.000000,0.000000,0.000000,0.000*0A

EndT:        0
sat0 = 10392 1333 4150 3750
sat1 = 215872 1263 4180 2250
ch0 satid=1 freq = 2250 acq ok1!
sat2 = 10686 1890 4173 2250
sat3 = 11669 861 4178 -3000
sat4 = 64923 1481 4132 3250
ch1 satid=4 freq = 3250 acq ok1!
sat5 = 10417 463 4182 4000
---00000026--- Acq_st=3 2019-5-14 12:39:37 
[00]  G02  1  7  -2243.5 2046002.0  0.1  0.0  1  0        17
[01]  G05  1  7  -3259.4 2046003.6 -0.0  0.0  1  0        13
$GNGGA,000000.000,,,,,0,00,,,M,,,,0000*2B

$GNRMC,000000.000,A,,,,,,,000000,,*26

$GPGSA,A,1,,,,,,,,,,,,,,,*1E

$BDGSA,A,1,,,,,,,,,,,,,,,*0F

$LOGTIM,0,0.000000,0.000000,0.000000,0.000000,0.000*0A

EndT:        0
sat6 = 10999 286 4229 -3750
sat7 = 9925 488 4095 -1000
sat8 = 11623 737 4122 -250
sat9 = 10536 72 4161 -4750
sat10 = 10945 1513 4157 -3750
sat11 = 58127 1179 4094 -1250
ch2 satid=11 freq = -1250 acq ok1!
---00000027--- Acq_st=3 2019-5-14 12:39:38 
[00]  G02  1  9  -2157.3 2046002.3  0.0  0.0  1  0        14
[01]  G05  1  7  -3177.8 2046004.3  0.0  0.0  1  0        11
[02]  G12  1  7   1221.0 2045999.3  0.0  0.0  1  0         7
$GNGGA,000000.000,,,,,0,00,,,M,,,,0000*2B

$GNRMC,000000.000,A,,,,,,,000000,,*26

$GPGSA,A,1,,,,,,,,,,,,,,,*1E

$BDGSA,A,1,,,,,,,,,,,,,,,*0F

$LOGTIM,0,0.000000,0.000000,0.000000,0.000000,0.000*0A

EndT:        0
sat12 = 12337 43 4119 -4250
sat13 = 10191 1848 4129 4250
sat14 = 10808 1764 4214 2500
sat15 = 10544 600 4229 -750
sat16 = 11996 43 4270 -4500
sat17 = 10827 194 4233 3750
---00000028--- Acq_st=3 2019-5-14 12:39:39 
[00]  G02  1  7  -2225.4 2046002.4  0.1  0.0  1  0        14
[01]  G05  1  7  -3176.3 2046003.8 -0.0  0.0  1  0        11
[02]  G12  1  7   1314.8 2045999.0 -0.1  0.0  1  0         5
$GNGGA,000000.000,,,,,0,00,,,M,,,,0000*2B

$GNRMC,000000.000,A,,,,,,,000000,,*26

$GPGSA,A,1,,,,,,,,,,,,,,,*1E

$BDGSA,A,1,,,,,,,,,,,,,,,*0F

$LOGTIM,0,0.000000,0.000000,0.000000,0.000000,0.000*0A

EndT:        0
sat18 = 10370 1001 4256 -4000
sat19 = 10925 933 4303 2750
sat20 = 10918 74 4313 -1000
sat21 = 11039 848 4252 -4250
sat22 = 10126 1178 4324 -3250
sat23 = 10946 1164 4377 -4500
---00000029--- Acq_st=3 2019-5-14 12:39:40 
[01]  G05  1  7  -3054.3 2046004.4 -0.1  0.0  1  0        11
[02]  G12  1  7   1100.9 2045999.0  0.1  0.0  1  0         5
sat24 = 125755 449 4291 500
ch0 satid=24 freq = 500 acq ok1!
sat25 = 12618 1814 4307 -3000
$GNGGA,000000.000,,,,,0,00,,,M,,,,0000*2B

$GNRMC,000000.000,A,,,,,,,000000,,*26

$GPGSA,A,1,,,,,,,,,,,,,,,*1E

$BDGSA,A,1,,,,,,,,,,,,,,,*0F

$LOGTIM,0,0.000000,0.000000,0.000000,0.000000,0.000*0A

EndT:        0
sat26 = 10520 1575 4331 1000
sat27 = 11186 1009 4289 -2000
sat28 = 81583 931 4320 4500
ch1 satid=28 freq = 4500 acq ok1!
sat29 = 10823 1244 4289 -1000
sat30 = 11114 897 4344 3500
---00000030--- Acq_st=3 2019-5-14 12:39:41 
[00]  G25  1  8   -566.5 2046000.3  0.1  0.0  1  0        14
[01]  G29  1  7  -4527.6 2046004.6  0.0  0.0  1  0        11
[02]  G12  1 10   1203.8 2045998.8  0.2  0.0  1  0         5
$GNGGA,000000.000,,,,,0,00,,,M,,,,0000*2B

$GNRMC,000000.000,A,,,,,,,000000,,*26

$GPGSA,A,1,,,,,,,,,,,,,,,*1E

$BDGSA,A,1,,,,,,,,,,,,,,,*0F

$LOGTIM,0,0.000000,0.000000,0.000000,0.000000,0.000*0A

EndT:        0
sat31 = 11297 401 4320 500
sat37 = 3333 1581 1310 3750
sat38 = 3541 495 1339 2500
sat39 = 3232 2583 1324 750
sat40 = 3249 2873 1336 1500
---00000031--- Acq_st=3 2019-5-14 12:39:42 
[00]  G25  1  8   -760.9 2045999.8  0.1  0.0  1  0        14
[01]  G29  1  7  -4631.8 2046005.2 -0.1  0.0  1  0        11
$GNGGA,000000.000,,,,,0,00,,,M,,,,0000*2B

$GNRMC,000000.000,A,,,,,,,000000,,*26

$GPGSA,A,1,,,,,,,,,,,,,,,*1E

$BDGSA,A,1,,,,,,,,,,,,,,,*0F

$LOGTIM,0,0.000000,0.000000,0.000000,0.000000,0.000*0A

EndT:        0
sat41 = 3261 194 1330 -1250
sat42 = 3422 631 1328 2500
sat43 = 3487 4040 1320 4500
sat44 = 5691 1902 1330 0
ch16 satid=44 freq = 0 acq ok1!
sat45 = 3441 3807 1318 3500
---00000032--- Acq_st=3 2019-5-14 12:39:43 
[00]  G25  1  9   -662.3 2045999.9  0.1  0.0  1  0        14
[01]  G29  1  7  -4415.5 2046005.1 -0.1  0.0  1  0        11
[16]  B08  1  7     -2.1 4092000.0 -0.0  0.0  1  0      2661
$GNGGA,000000.000,,,,,0,00,,,M,,,,0000*2B

$GNRMC,000000.000,A,,,,,,,000000,,*26

$GPGSA,A,1,,,,,,,,,,,,,,,*1E

$BDGSA,A,1,,,,,,,,,,,,,,,*0F

$LOGTIM,0,0.000000,0.000000,0.000000,0.000000,0.000*0A

EndT:        0
sat46 = 3867 1290 1332 -3000
sat47 = 3366 1323 1319 3500
sat48 = 3482 1511 1323 -2250
sat49 = 42448 3122 1331 3750
ch17 satid=49 freq = 3750 acq ok1!
sat50 = 3486 480 1312 1500
---00000033--- Acq_st=3 2019-5-14 12:39:44 
[16]  B08  1  7    101.7 4091999.9 -0.1  0.0  1  0       281
[17]  B13  1  7  -3733.2 4092009.2  0.1  0.0  1  0      3259
$GNGGA,000000.000,,,,,0,00,,,M,,,,0000*2B

$GNRMC,000000.000,A,,,,,,,000000,,*26

$GPGSA,A,1,,,,,,,,,,,,,,,*1E

$BDGSA,A,1,,,,,,,,,,,,,,,*0F

$LOGTIM,0,0.000000,0.000000,0.000000,0.000000,0.000*0A

EndT:        0
sat51 = 3533 197 1320 4000
sat52 = 3383 799 1333 -2750
sat53 = 3700 90 1320 1000
sat54 = 3572 3877 1326 3000
sat55 = 3301 3377 1323 -750
---00000034--- Acq_st=3 2019-5-14 12:39:45 
[16]  B08  1  7    227.0 4092000.2 -0.1  0.0  1  0      1281
[17]  B13  1  7  -3655.8 4092009.0  0.1  0.0  1  0       277
$GNGGA,000000.000,,,,,0,00,,,M,,,,0000*2B

$GNRMC,000000.000,A,,,,,,,000000,,*26

$GPGSA,A,1,,,,,,,,,,,,,,,*1E

$BDGSA,A,1,,,,,,,,,,,,,,,*0F

$LOGTIM,0,0.000000,0.000000,0.000000,0.000000,0.000*0A

EndT:        0
sat56 = 3473 345 1321 -750
sat57 = 3452 3438 1316 3000
sat58 = 3405 2799 1323 1750
sat59 = 3371 2696 1321 2250
sat60 = 3467 428 1328 -250
---00000035--- Acq_st=3 2019-5-14 12:39:46 
[16]  B08  1  7    161.6 4091999.9  0.2  0.0  1  0      2281
[17]  B13  1  7  -3826.6 4092008.6  0.2  0.0  1  0      1277
$GNGGA,000000.000,,,,,0,00,,,M,,,,0000*2B

$GNRMC,000000.000,A,,,,,,,000000,,*26

$GPGSA,A,1,,,,,,,,,,,,,,,*1E

$BDGSA,A,1,,,,,,,,,,,,,,,*0F

$LOGTIM,0,0.000000,0.000000,0.000000,0.000000,0.000*0A

EndT:        0
sat61 = 3326 3180 1317 2500
sat62 = 3597 1547 1318 4000
sat63 = 3441 721 1322 2750
sat64 = 3447 1155 1329 -3500
sat65 = 3775 2360 1332 2500
---00000036--- Acq_st=3 2019-5-14 12:39:47 
[17]  B13  1  7  -3643.3 4092008.8 -0.1  0.0  1  0      2277
$GNGGA,000000.000,,,,,0,00,,,M,,,,0000*2B

$GNRMC,000000.000,A,,,,,,,000000,,*26

$GPGSA,A,1,,,,,,,,,,,,,,,*1E

$BDGSA,A,1,,,,,,,,,,,,,,,*0F

$LOGTIM,0,0.000000,0.000000,0.000000,0.000000,0.000*0A

EndT:        0
sat66 = 3663 633 1321 -4000
sat67 = 3416 1281 1325 3750
sat68 = 3449 2573 1320 250
---00000037--- Acq_st=7 2019-5-14 12:39:48 
$GNGGA,000000.000,,,,,0,00,,,M,,,,0000*2B

$GNRMC,000000.000,A,,,,,,,000000,,*26

$GPGSA,A,1,,,,,,,,,,,,,,,*1E

$BDGSA,A,1,,,,,,,,,,,,,,,*0F

$LOGTIM,0,0.000000,0.000000,0.000000,0.000000,0.000*0A

EndT:        0
sat0 = 10372 633 4252 1750
sat1 = 153116 828 4197 3250
ch0 satid=1 freq = 3250 acq ok1!
sat2 = 10467 1020 4184 3250
sat3 = 12336 671 4159 250
sat4 = 87138 1084 4237 2250
ch1 satid=4 freq = 2250 acq ok1!
sat5 = 11666 1336 4199 -2500
---00000038--- Acq_st=3 2019-5-14 12:39:49 
[00]  G02  1  7  -3220.5 2046003.7  0.0  0.0  1  0        14
[01]  G05  1  7  -2238.2 2046002.2 -0.0  0.0  1  0        11
$GNGGA,000000.000,,,,,0,00,,,M,,,,0000*2B

$GNRMC,000000.000,A,,,,,,,000000,,*26

$GPGSA,A,1,,,,,,,,,,,,,,,*1E

$BDGSA,A,1,,,,,,,,,,,,,,,*0F

$LOGTIM,0,0.000000,0.000000,0.000000,0.000000,0.000*0A

EndT:        0
sat6 = 10699 184 4152 3250
sat7 = 10257 334 4073 2750
sat8 = 19930 437 4157 -1500
ch2 satid=8 freq = -1500 acq ok1!
sat9 = 10025 663 4192 1000
sat10 = 10598 802 4144 -2250
sat11 = 52998 744 4194 -250
ch3 satid=11 freq = -250 acq ok1!
---00000039--- Acq_st=3 2019-5-14 12:39:50 
[00]  G02  1  7  -3372.1 2046004.1 -0.1  0.0  1  0        12
[01]  G05  1 11  -2087.7 2046002.1  0.0  0.0  1  0         9
[02]  G09  1  7   1524.8 2045998.9 -0.0  0.0  1  0         5
[03]  G12  1  7    751.7 2046000.1  0.1  0.0  1  0        10
$GNGGA,000000.000,,,,,0,00,,,M,,,,0000*2B

$GNRMC,000000.000,A,,,,,,,000000,,*26

$GPGSA,A,1,,,,,,,,,,,,,,,*1E

$BDGSA,A,1,,,,,,,,,,,,,,,*0F

$LOGTIM,0,0.000000,0.000000,0.000000,0.000000,0.000*0A

EndT:        0
sat12 = 11149 1595 4163 -1000
sat13 = 10326 28 4199 -3000
sat14 = 10197 1725 4212 3500
sat15 = 10184 1278 4204 3250
sat16 = 11441 1087 4228 3500
sat17 = 10675 184 4219 500
---00000040--- Acq_st=3 2019-5-14 12:39:51 
[00]  G02  1  7  -3310.0 2046003.8 -0.0  0.0  1  0        12
[01]  G05  1  7  -2175.7 2046002.3  0.0  0.0  1  0         9
[02]  G09  1  7   1432.7 2045998.6 -0.1  0.0  1  0         5
[03]  G12  1  7    171.2 2045999.7 -0.1  0.0  1  0         3
sat18 = 10691 574 4183 -2000
$GNGGA,000000.000,,,,,0,00,,,M,,,,0000*2B

$GNRMC,000000.000,A,,,,,,,000000,,*26

$GPGSA,A,1,,,,,,,,,,,,,,,*1E

$BDGSA,A,1,,,,,,,,,,,,,,,*0F

$LOGTIM,0,0.000000,0.000000,0.000000,0.000000,0.000*0A

EndT:        0
sat19 = 11203 522 4158 2500
sat20 = 11362 596 4219 3750
sat21 = 10147 1862 4177 -4750
sat22 = 11081 1176 4173 -1250
sat23 = 10337 1961 4239 2500
---00000041--- Acq_st=3 2019-5-14 12:39:52 
[01]  G05  1  7  -2384.4 2046001.9  0.0  0.0  1  0         9
[02]  G09  1  7   1151.3 2045999.0 -0.1  0.0  1  0         5
[03]  G12  1  7    254.4 2045999.5 -0.1  0.0  1  0         3
sat24 = 106178 2037 4227 1500
ch0 satid=24 freq = 1500 acq ok1!
$GNGGA,000000.000,,,,,0,00,,,M,,,,0000*2B

$GNRMC,000000.000,A,,,,,,,000000,,*26

$GPGSA,A,1,,,,,,,,,,,,,,,*1E

$BDGSA,A,1,,,,,,,,,,,,,,,*0F

$LOGTIM,0,0.000000,0.000000,0.000000,0.000000,0.000*0A

EndT:        0
sat25 = 11899 428 4188 1000
sat26 = 10486 859 4223 2000
sat27 = 11479 952 4190 -3500
sat28 = 58226 479 4295 4500
ch1 satid=28 freq = 4500 acq ok1!
sat29 = 9943 1444 4103 3000
sat30 = 10336 297 4126 -4500
---00000042--- Acq_st=3 2019-5-14 12:39:53 
[00]  G25  1  7  -1511.4 2046001.1  0.0  0.0  1  0        12
[01]  G29  1  7  -4496.5 2046005.5 -0.0  0.0  1  0         9
[03]  G12  1  7    337.6 2045999.7 -0.1  0.0  1  0         3
$GNGGA,000000.000,,,,,0,00,,,M,,,,0000*2B

$GNRMC,000000.000,A,,,,,,,000000,,*26

$GPGSA,A,1,,,,,,,,,,,,,,,*1E

$BDGSA,A,1,,,,,,,,,,,,,,,*0F

$LOGTIM,0,0.000000,0.000000,0.000000,0.000000,0.000*0A

EndT:        0
sat31 = 12716 291 4163 -3250
sat37 = 3492 4071 1304 -500
sat38 = 3395 1665 1331 -1500
sat39 = 3307 936 1321 4500
sat40 = 3578 2584 1328 -3000
---00000043--- Acq_st=3 2019-5-14 12:39:54 
[00]  G25  1  7  -1394.2 2046001.6  0.0  0.0  1  0        12
[01]  G29  1  7  -4481.7 2046005.4  0.2  0.0  1  0         9
$GNGGA,000000.000,,,,,0,00,,,M,,,,0000*2B

$GNRMC,000000.000,A,,,,,,,000000,,*26

$GPGSA,A,1,,,,,,,,,,,,,,,*1E

$BDGSA,A,1,,,,,,,,,,,,,,,*0F

$LOGTIM,0,0.000000,0.000000,0.000000,0.000000,0.000*0A

EndT:        0
sat41 = 3830 625 1323 -4000
sat42 = 3545 2089 1325 -4750
sat43 = 3535 1694 1306 -4500
sat44 = 8084 2981 1326 2000
ch16 satid=44 freq = 2000 acq ok1!
sat45 = 3820 809 1314 250
---00000044--- Acq_st=3 2019-5-14 12:39:55 
[00]  G25  1  7  -1343.7 2046001.2  0.1  0.0  1  0        12
[01]  G29  1  7  -4516.1 2046004.9 -0.2  0.0  1  0         9
[16]  B08  1  7  -2002.1 4092004.9 -0.0  0.0  1  0      3281
$GNGGA,000000.000,,,,,0,00,,,M,,,,0000*2B

$GNRMC,000000.000,A,,,,,,,000000,,*26

$GPGSA,A,1,,,,,,,,,,,,,,,*1E

$BDGSA,A,1,,,,,,,,,,,,,,,*0F

$LOGTIM,0,0.000000,0.000000,0.000000,0.000000,0.000*0A

EndT:        0
sat46 = 3341 1365 1327 -3750
sat47 = 3385 3498 1319 -500
sat48 = 3399 3369 1318 1250
sat49 = 37881 2312 1324 3750
ch17 satid=49 freq = 3750 acq ok1!
sat50 = 3534 4084 1316 2750
---00000045--- Acq_st=3 2019-5-14 12:39:56 
[16]  B08  1  7  -1886.2 4092005.5  0.1  0.0  1  0       299
[17]  B13  1  7  -3750.5 4092009.2 -0.0  0.0  1  0      3277
$GNGGA,000000.000,,,,,0,00,,,M,,,,0000*2B

$GNRMC,000000.000,A,,,,,,,000000,,*26

$GPGSA,A,1,,,,,,,,,,,,,,,*1E

$BDGSA,A,1,,,,,,,,,,,,,,,*0F

$LOGTIM,0,0.000000,0.000000,0.000000,0.000000,0.000*0A

EndT:        0
sat51 = 3359 2537 1309 3250
sat52 = 3483 3424 1328 4000
sat53 = 3261 3883 1318 -2500
sat54 = 3493 3603 1318 -4750
sat55 = 3286 3595 1313 -2000
---00000046--- Acq_st=3 2019-5-14 12:39:57 
[16]  B08  1  7  -1754.7 4092005.4 -0.2  0.0  1  0      1299
[17]  B13  1  7  -4042.3 4092008.5 -0.1  0.0  1  0       295
$GNGGA,000000.000,,,,,0,00,,,M,,,,0000*2B

$GNRMC,000000.000,A,,,,,,,000000,,*26

$GPGSA,A,1,,,,,,,,,,,,,,,*1E

$BDGSA,A,1,,,,,,,,,,,,,,,*0F

$LOGTIM,0,0.000000,0.000000,0.000000,0.000000,0.000*0A

EndT:        0
sat56 = 3397 3906 1310 -3250
sat57 = 3362 629 1312 -4000
sat58 = 14431 1545 1314 -250
ch18 satid=58 freq = -250 acq ok1!
sat59 = 3565 2547 1324 -750
sat60 = 3225 224 1314 4250
---00000047--- Acq_st=3 2019-5-14 12:39:58 
[16]  B08  1 11  -1712.5 4092005.8 -0.0  0.0  1  0      2299
[17]  B13  1  7  -4083.6 4092008.9  0.1  0.0  1  0      1295
[18]  B22  1  7    258.9 4091999.8 -0.0  0.0  1  0         0
$GNGGA,000000.000,,,,,0,00,,,M,,,,0000*2B

$GNRMC,000000.000,A,,,,,,,000000,,*26

$GPGSA,A,1,,,,,,,,,,,,,,,*1E

$BDGSA,A,1,,,,,,,,,,,,,,,*0F

$LOGTIM,0,0.000000,0.000000,0.000000,0.000000,0.000*0A

EndT:        0
sat61 = 3726 1915 1305 3500
sat62 = 3451 3792 1313 5000
sat63 = 3384 3555 1314 2500
sat64 = 3258 721 1325 -1500
sat65 = 3764 2787 1332 2750
---00000048--- Acq_st=3 2019-5-14 12:39:59 
[17]  B13  1  7  -4083.9 4092009.3 -0.0  0.0  1  0      2295
[18]  B22  1  7    290.7 4091999.9  0.0  0.0  1  0       488
$GNGGA,000000.000,,,,,0,00,,,M,,,,0000*2B

$GNRMC,000000.000,A,,,,,,,000000,,*26

$GPGSA,A,1,,,,,,,,,,,,,,,*1E

$BDGSA,A,1,,,,,,,,,,,,,,,*0F

$LOGTIM,0,0.000000,0.000000,0.000000,0.000000,0.000*0A

EndT:        0
sat66 = 3781 1894 1314 -4000
sat67 = 3329 1801 1319 1750
sat68 = 3772 910 1320 -4500
---00000049--- Acq_st=7 2019-5-14 12:40:0 
[18]  B22  1  8    453.0 4092000.4  0.1  0.0  1  0      1488
$GNGGA,000000.000,,,,,0,00,,,M,,,,0000*2B

$GNRMC,000000.000,A,,,,,,,000000,,*26

$GPGSA,A,1,,,,,,,,,,,,,,,*1E

$BDGSA,A,1,,,,,,,,,,,,,,,*0F

$LOGTIM,0,0.000000,0.000000,0.000000,0.000000,0.000*0A

EndT:        0
sat0 = 11029 535 4207 3500
sat1 = 134861 413 4197 3250
ch0 satid=1 freq = 3250 acq ok1!
sat2 = 10670 1320 4232 0
sat3 = 10405 1294 4224 2750
sat4 = 93701 648 4207 3250
ch1 satid=4 freq = 3250 acq ok1!
sat5 = 11046 858 4275 4750
---00000050--- Acq_st=3 2019-5-14 12:40:1 
[00]  G02  1  7  -3242.5 2046004.1  0.0  0.0  1  0        12
[01]  G05  1  7  -3224.7 2046004.3 -0.0  0.0  1  0         9
$GNGGA,000000.000,,,,,0,00,,,M,,,,0000*2B

$GNRMC,000000.000,A,,,,,,,000000,,*26

$GPGSA,A,1,,,,,,,,,,,,,,,*1E

$BDGSA,A,1,,,,,,,,,,,,,,,*0F

$LOGTIM,0,0.000000,0.000000,0.000000,0.000000,0.000*0A

EndT:        0
sat6 = 11599 1295 4415 1250
sat7 = 10384 383 4251 2750
sat8 = 14626 73 4265 -1250
sat9 = 10205 1807 4292 4250
sat10 = 10594 654 4256 3750
sat11 = 47243 373 4356 -250
ch2 satid=11 freq = -250 acq ok1!
---00000051--- Acq_st=3 2019-5-14 12:40:2 
[00]  G02  1  7  -3314.4 2046004.0 -0.1  0.0  1  0         9
[01]  G05  1  7  -3265.8 2046003.8 -0.1  0.0  1  0         7
[02]  G12  1  7    273.5 2045999.8 -0.0  0.0  1  0         5
$GNGGA,000000.000,,,,,0,00,,,M,,,,0000*2B

$GNRMC,000000.000,A,,,,,,,000000,,*26

$GPGSA,A,1,,,,,,,,,,,,,,,*1E

$BDGSA,A,1,,,,,,,,,,,,,,,*0F

$LOGTIM,0,0.000000,0.000000,0.000000,0.000000,0.000*0A

EndT:        0
sat12 = 10438 641 4415 1750
sat13 = 11313 580 4264 -2750
sat14 = 11652 123 4281 2750
sat15 = 11874 1495 4284 -3250
sat16 = 10190 142 4271 4000
sat17 = 10553 684 4205 -2750
---00000052--- Acq_st=3 2019-5-14 12:40:3 
[00]  G02  1  7  -2790.3 2046004.1  0.2  0.0  1  0         9
[01]  G05  1  7  -3212.1 2046003.9 -0.0  0.0  1  0         7
[02]  G12  1  7    180.4 2046000.4  0.1  0.0  1  0         0
sat18 = 10376 934 4299 -2500
$GNGGA,000000.000,,,,,0,00,,,M,,,,0000*2B

$GNRMC,000000.000,A,,,,,,,000000,,*26

$GPGSA,A,1,,,,,,,,,,,,,,,*1E

$BDGSA,A,1,,,,,,,,,,,,,,,*0F

$LOGTIM,0,0.000000,0.000000,0.000000,0.000000,0.000*0A

EndT:        0
sat19 = 10985 1734 4361 -4250
sat20 = 11289 410 4316 -4500
sat21 = 11716 1425 4242 -1500
sat22 = 10850 26 4268 2750
sat23 = 11326 864 4298 -3750
---00000053--- Acq_st=3 2019-5-14 12:40:4 
[01]  G05  1  7  -3174.3 2046003.7  0.2  0.0  1  0         7
[02]  G12  1  9    354.6 2046000.2 -0.1  0.0  1  0         0
sat24 = 124724 1708 4243 500
ch0 satid=24 freq = 500 acq ok1!
$GNGGA,000000.000,,,,,0,00,,,M,,,,0000*2B

$GNRMC,000000.000,A,,,,,,,000000,,*26

$GPGSA,A,1,,,,,,,,,,,,,,,*1E

$BDGSA,A,1,,,,,,,,,,,,,,,*0F

$LOGTIM,0,0.000000,0.000000,0.000000,0.000000,0.000*0A

EndT:        0
sat25 = 12569 75 4268 500
sat26 = 11203 1710 4237 2500
sat27 = 10751 1701 4245 -1000
sat28 = 45654 27 4262 4500
ch1 satid=28 freq = 4500 acq ok1!
sat29 = 11831 1184 4270 750
sat30 = 10369 873 4222 -2500
---00000054--- Acq_st=3 2019-5-14 12:40:5 
[00]  G25  1  7   -591.6 2045999.9  0.1  0.0  1  0        10
[01]  G29  1  7  -4500.3 2046005.1  0.0  0.0  1  0         7
[02]  G12  1  8    167.0 2045999.8  0.1  0.0  1  0         0
$GNGGA,000000.000,,,,,0,00,,,M,,,,0000*2B

$GNRMC,000000.000,A,,,,,,,000000,,*26

$GPGSA,A,1,,,,,,,,,,,,,,,*1E

$BDGSA,A,1,,,,,,,,,,,,,,,*0F

$LOGTIM,0,0.000000,0.000000,0.000000,0.000000,0.000*0A

EndT:        0
sat31 = 9981 128 4199 1000
sat37 = 3440 682 1309 3750
sat38 = 3447 4016 1333 4750
sat39 = 3358 4032 1314 -1250
sat40 = 3463 3887 1333 -3750
---00000055--- Acq_st=3 2019-5-14 12:40:6 
[00]  G25  1  7   -691.1 2046000.1 -0.0  0.0  1  0        10
[01]  G29  1  7  -4527.7 2046005.3 -0.1  0.0  1  0         6
$GNGGA,000000.000,,,,,0,00,,,M,,,,0000*2B

$GNRMC,000000.000,A,,,,,,,000000,,*26

$GPGSA,A,1,,,,,,,,,,,,,,,*1E

$BDGSA,A,1,,,,,,,,,,,,,,,*0F

$LOGTIM,0,0.000000,0.000000,0.000000,0.000000,0.000*0A

EndT:        0
sat41 = 3234 1356 1318 -750
sat42 = 3346 612 1317 -4250
sat43 = 3642 1236 1308 -4250
sat44 = 8469 2173 1327 2000
ch16 satid=44 freq = 2000 acq ok1!

