FlashID=0x1 0x20 0x18

BBram_blkflag1: 1315: ecea

FW Ver: 1.30  
GPS00 Init Dop:  -1963,  2
GPS01 Init Dop:   1562,  2
GPS02 Init Dop:  -2706,  2
GPS03 Init Dop:  -5000, 41
GPS04 Init Dop:  -5000, 41
GPS05 Init Dop:   -271,  2
GPS06 Init Dop:  -5000, 41
GPS07 Init Dop:  -5000, 41
GPS08 Init Dop:   -973,  2
GPS09 Init Dop:  -5000, 41
GPS10 Init Dop:  -5000, 41
GPS11 Init Dop:   -704,  2
GPS12 Init Dop:  -5000, 41
GPS13 Init Dop:  -5000, 41
GPS14 Init Dop:  -5000, 41
GPS15 Init Dop:  -5000, 41
GPS16 Init Dop:  -2630,  2
GPS17 Init Dop:  -5000, 41
GPS18 Init Dop:  -2120,  2
GPS19 Init Dop:  -5000, 41
GPS20 Init Dop:  -5000, 41
GPS21 Init Dop:  -2021,  2
GPS22 Init Dop:  -2327,  2
GPS23 Init Dop:  -5000, 41
GPS24 Init Dop:    938,  2
GPS25 Init Dop:  -5000, 41
GPS26 Init Dop:  -5000, 41
GPS27 Init Dop:  -5000, 41
GPS28 Init Dop:  -5000, 41
GPS29 Init Dop:  -5000, 41
GPS30 Init Dop:  -5000, 41
GPS31 Init Dop:  -5000, 41
BDS00 Init Dop:  -5000, 41
BDS01 Init Dop:  -5000, 41
BDS02 Init Dop:  -5000, 41
BDS03 Init Dop:  -5000, 41
BDS04 Init Dop:  -5000, 41
BDS05 Init Dop:  -5000, 41
BDS06 Init Dop:  -5000, 41
BDS07 Init Dop:  -5000, 41
BDS08 Init Dop:  -5000, 41
BDS09 Init Dop:  -5000, 41
BDS10 Init Dop:  -5000, 41
BDS11 Init Dop:  -5000, 41
BDS12 Init Dop:  -5000, 41
BDS13 Init Dop:  -5000, 41
BDS14 Init Dop:  -5000, 41
BDS15 Init Dop:  -5000, 41
BDS16 Init Dop:  -5000, 41
BDS17 Init Dop:  -5000, 41
BDS18 Init Dop:  -5000, 41
BDS19 Init Dop:  -5000, 41
BDS20 Init Dop:  -5000, 41
BDS21 Init Dop:  -5000, 41
BDS22 Init Dop:  -5000, 41
BDS23 Init Dop:  -5000, 41
BDS24 Init Dop:  -5000, 41
BDS25 Init Dop:  -5000, 41
BDS26 Init Dop:  -5000, 41
BDS27 Init Dop:  -5000, 41
BDS28 Init Dop:  -5000, 41
BDS29 Init Dop:  -5000, 41
BDS30 Init Dop:  -5000, 41
BDS31 Init Dop:  -5000, 41
good luck!
sat0 = 3557 572 1480 -2213
sat1 = 64345 559 1128 1562
ch0 satid=1 freq = 1562 acq ok1!
sat2 = 2459 1013 1094 -2706
sat3 = 17072 972 3333 -14250
ch1 satid=3 freq = -14250 acq ok1!
sat4 = 13757 984 4515 -13250
sat5 = 13151 37 4142 -521
sat6 = 19135 306 6056 -11000
sat7 = 22438 1495 5522 -12000
ch2 satid=7 freq = -12000 acq ok1!
sat8 = 12177 1865 5256 -973
---00000001--- Acq_st=3 2019-5-14 12:13:37 
[00]  G02  1  7  -1554.6 2046002.0 -0.1  0.0  1  0         0
[01]  G04  1  7  14271.5 2045982.2  0.0  0.0  1  0         0
[02]  G08  1  7  12101.2 2045984.6  0.1  0.0  1  0         0
$GNGGA,000000.000,,,,,0,00,,,M,,,,0000*2B

$GNRMC,000000.000,A,,,,,,,000000,,*26

$GPGSA,A,1,,,,,,,,,,,,,,,*1E

$BDGSA,A,1,,,,,,,,,,,,,,,*0F

$LOGTIM,0,0.000000,0.000000,0.000000,0.000000,0.000*0A

EndT:        0
sat9 = 22719 320 5894 -12750
sat10 = 28490 188 5721 -14250
ch3 satid=10 freq = -14250 acq ok1!
sat11 = 34621 546 4133 -954
ch4 satid=11 freq = -954 acq ok1!
sat12 = 21086 1317 4984 -7750
ch5 satid=12 freq = -7750 acq ok1!
sat13 = 25703 118 6869 -10500
sat14 = 16097 1737 4822 -13000
---00000002--- Acq_st=3 2019-5-14 12:13:38 
[00]  G02  1  7  -1515.7 2046001.5 -0.0  0.0  1  0         5
[01]  G04  1 14  14409.0 2045982.2 -0.0  0.0  1  0         0
[02]  G08  1  7  12064.2 2045985.2  0.0  0.0  1  0         8
[03]  G11  1  7  14195.1 2045982.2  0.1  0.0  1  0         0
[04]  G12  1  7    984.3 2045998.9  0.1  0.0  1  0         0
[05]  G13  1  7   7700.6 2045990.0 -0.1  0.0  1  0         0
$GNGGA,000000.000,,,,,0,00,,,M,,,,0000*2B

$GNRMC,000000.000,A,,,,,,,000000,,*26

$GPGSA,A,1,,,,,,,,,,,,,,,*1E

$BDGSA,A,1,,,,,,,,,,,,,,,*0F

$LOGTIM,0,0.000000,0.000000,0.000000,0.000000,0.000*0A

EndT:        1
sat15 = 26995 572 6659 -7750
ch6 satid=15 freq = -7750 acq ok1!
sat16 = 6176 1841 2956 -2630
sat17 = 25982 1658 7877 -11250
sat18 = 11342 1571 4458 -2370
sat19 = 20210 894 5329 -8000
sat20 = 12163 721 3686 -12500
sat21 = 12347 1728 4329 -2271
sat22 = 19212 1241 7875 -2577
---00000003--- Acq_st=3 2019-5-14 12:13:39 
[00]  G02  1  7  -1387.3 2046001.2 -0.2  0.0  1  0         5
[01]  G04  1  9  14430.0 2045982.1  0.0  0.0  1  0         0
[02]  G08  1  7  11886.6 2045985.0 -0.1  0.0  1  0         8
[03]  G11  1  7  14179.9 2045982.0 -0.1  0.0  1  0         9
[04]  G12  1  7    994.8 2045998.8  0.1  0.0  1  0        16
[05]  G13  1  7   7699.0 2045989.8 -0.1  0.0  1  0         4
[06]  G16  1  7   7823.9 2045990.1 -0.1  0.0  1  0         0
$GNGGA,000000.000,,,,,0,00,,,M,,,,0000*2B

$GNRMC,000000.000,A,,,,,,,000000,,*26

$GPGSA,A,1,,,,,,,,,,,,,,,*1E

$BDGSA,A,1,,,,,,,,,,,,,,,*0F

$LOGTIM,0,0.000000,0.000000,0.000000,0.000000,0.000*0A

EndT:        0
sat23 = 12665 1572 3928 -11250
sat24 = 52929 295 3993 938
ch7 satid=24 freq = 938 acq ok1!
sat25 = 20124 1767 7204 -14250
sat26 = 13089 1035 4344 -9000
sat27 = 23814 126 5769 -5500
ch0 satid=27 freq = -5500 acq ok1!
sat28 = 17392 1132 4544 -14250
---00000004--- Acq_st=3 2019-5-14 12:13:40 
[00]  G28  1  7   5491.9 2045993.1  0.1  0.0  1  0         5
[02]  G08  1  7  11637.5 2045985.4 -0.3  0.0  1  0         8
[03]  G11  1 10  14278.8 2045982.2 -0.1  0.0  1  0         9
[04]  G12  1  7   1199.4 2045999.3 -0.0  0.0  1  0        16
[05]  G13  1  7   7790.6 2045990.0 -0.1  0.0  1  0         4
[06]  G16  1  7   7585.0 2045990.4  0.1  0.0  1  0         6
[07]  G25  1  7   -839.9 2046001.0  0.0  0.0  1  0         0
$GNGGA,000000.000,,,,,0,00,,,M,,,,0000*2B

$GNRMC,000000.000,A,,,,,,,000000,,*26

$GPGSA,A,1,,,,,,,,,,,,,,,*1E

$BDGSA,A,1,,,,,,,,,,,,,,,*0F

$LOGTIM,0,0.000000,0.000000,0.000000,0.000000,0.000*0A

EndT:        0
sat29 = 18395 560 5386 -8000
sat30 = 17378 1898 5026 -13750
sat31 = 16525 615 5013 -10500
sat37 = 2944 777 1056 -13500
sat38 = 2498 3030 1060 -14250
---00000005--- Acq_st=3 2019-5-14 12:13:41 
[00]  G28  1 12   5580.8 2045993.2 -0.1  0.0  1  0        10
[06]  G16  1  7   7807.4 2045989.9  0.0  0.0  1  0         6
[07]  G25  1  7   -807.6 2046000.7  0.0  0.0  1  0         9
$GNGGA,000000.000,,,,,0,00,,,M,,,,0000*2B

$GNRMC,000000.000,A,,,,,,,000000,,*26

$GPGSA,A,1,,,,,,,,,,,,,,,*1E

$BDGSA,A,1,,,,,,,,,,,,,,,*0F

$LOGTIM,0,0.000000,0.000000,0.000000,0.000000,0.000*0A

EndT:        0
sat39 = 2746 328 1059 -14750
sat40 = 2617 1971 1079 -13000
sat41 = 2608 1696 1058 -9000
sat42 = 2868 331 1063 -11500
sat43 = 2670 28 1060 -12500
---00000006--- Acq_st=3 2019-5-14 12:13:42 
[00]  G28  1 15   5522.1 2045993.2 -0.1  0.0  1  0        10
[07]  G25  1  7   -828.7 2046001.2  0.0  0.0  1  0         9
$GNGGA,000000.000,,,,,0,00,,,M,,,,0000*2B

$GNRMC,000000.000,A,,,,,,,000000,,*26

$GPGSA,A,1,,,,,,,,,,,,,,,*1E

$BDGSA,A,1,,,,,,,,,,,,,,,*0F

$LOGTIM,0,0.000000,0.000000,0.000000,0.000000,0.000*0A

EndT:        0
sat44 = 2625 2490 1061 -13000
sat45 = 2677 2628 1067 -14500
sat46 = 2716 750 1086 -6500
sat47 = 2987 2043 1050 -8000
---00000007--- Acq_st=3 2019-5-14 12:13:43 
$GNGGA,000000.000,,,,,0,00,,,M,,,,0000*2B

$GNRMC,000000.000,A,,,,,,,000000,,*26

$GPGSA,A,1,,,,,,,,,,,,,,,*1E

$BDGSA,A,1,,,,,,,,,,,,,,,*0F

$LOGTIM,0,0.000000,0.000000,0.000000,0.000000,0.000*0A

EndT:        0
sat48 = 2758 232 1062 -13000
sat49 = 2621 2470 1064 -9250
sat50 = 2846 897 1055 -14000
sat51 = 2556 1133 1060 -13000
sat52 = 2764 1837 1078 -14500
---00000008--- Acq_st=3 2019-5-14 12:13:44 
$GNGGA,000000.000,,,,,0,00,,,M,,,,0000*2B

$GNRMC,000000.000,A,,,,,,,000000,,*26

$GPGSA,A,1,,,,,,,,,,,,,,,*1E

$BDGSA,A,1,,,,,,,,,,,,,,,*0F

$LOGTIM,0,0.000000,0.000000,0.000000,0.000000,0.000*0A

EndT:        0
sat53 = 2839 1542 1063 -11250
sat54 = 2526 1920 1058 -15000
sat55 = 3336 1093 1054 -8000
sat56 = 2485 988 1053 -11250
---00000009--- Acq_st=3 2019-5-14 12:13:45 
$GNGGA,000000.000,,,,,0,00,,,M,,,,0000*2B

$GNRMC,000000.000,A,,,,,,,000000,,*26

$GPGSA,A,1,,,,,,,,,,,,,,,*1E

$BDGSA,A,1,,,,,,,,,,,,,,,*0F

$LOGTIM,0,0.000000,0.000000,0.000000,0.000000,0.000*0A

EndT:        0
sat57 = 2509 3601 1056 -11250
sat58 = 2689 857 1056 -6500
sat59 = 2775 149 1057 -6000
sat60 = 2666 2749 1056 -8500
sat61 = 2585 731 1056 -8500
---00000010--- Acq_st=3 2019-5-14 12:13:46 
$GNGGA,000000.000,,,,,0,00,,,M,,,,0000*2B

$GNRMC,000000.000,A,,,,,,,000000,,*26

$GPGSA,A,1,,,,,,,,,,,,,,,*1E

$BDGSA,A,1,,,,,,,,,,,,,,,*0F

$LOGTIM,0,0.000000,0.000000,0.000000,0.000000,0.000*0A

EndT:        0
sat62 = 2903 441 1066 -12250
sat63 = 2589 1301 1057 -9250
sat64 = 2633 3 1059 -11250
sat65 = 2818 2623 1072 -13500
---00000011--- Acq_st=3 2019-5-14 12:13:47 
$GNGGA,000000.000,,,,,0,00,,,M,,,,0000*2B

$GNRMC,000000.000,A,,,,,,,000000,,*26

$GPGSA,A,1,,,,,,,,,,,,,,,*1E

$BDGSA,A,1,,,,,,,,,,,,,,,*0F

$LOGTIM,0,0.000000,0.000000,0.000000,0.000000,0.000*0A

EndT:        0
sat66 = 2671 1456 1058 -15000
sat67 = 2663 2522 1059 -10000
sat68 = 3185 1055 1067 -7000
---00000012--- Acq_st=7 2019-5-14 12:13:48 
$GNGGA,000000.000,,,,,0,00,,,M,,,,0000*2B

$GNRMC,000000.000,A,,,,,,,000000,,*26

$GPGSA,A,1,,,,,,,,,,,,,,,*1E

$BDGSA,A,1,,,,,,,,,,,,,,,*0F

$LOGTIM,0,0.000000,0.000000,0.000000,0.000000,0.000*0A

EndT:        0
---00000013--- Acq_st=7 2019-5-14 12:13:49 
$GNGGA,000000.000,,,,,0,00,,,M,,,,0000*2B

$GNRMC,000000.000,A,,,,,,,000000,,*26

$GPGSA,A,1,,,,,,,,,,,,,,,*1E

$BDGSA,A,1,,,,,,,,,,,,,,,*0F

$LOGTIM,0,0.000000,0.000000,0.000000,0.000000,0.000*0A

EndT:        0
sat0 = 10774 1130 3924 3250
sat1 = 258870 1376 3856 3250
ch0 satid=1 freq = 3250 acq ok1!
sat2 = 10418 672 3877 1000
sat3 = 10119 2030 3844 -2500
sat4 = 11019 37 3880 1250
sat5 = 48537 1357 3892 500
ch1 satid=5 freq = 500 acq ok1!
---00000014--- Acq_st=3 2019-5-14 12:13:50 
[00]  G02  1  7  -3266.2 2046004.0  0.1  0.0  1  0        10
[01]  G06  1  7   2535.8 2045999.7 -0.0  0.0  1  0         0
$GNGGA,000000.000,,,,,0,00,,,M,,,,0000*2B

$GNRMC,000000.000,A,,,,,,,000000,,*26

$GPGSA,A,1,,,,,,,,,,,,,,,*1E

$BDGSA,A,1,,,,,,,,,,,,,,,*0F

$LOGTIM,0,0.000000,0.000000,0.000000,0.000000,0.000*0A

EndT:        0
sat6 = 11366 358 3960 -250
sat7 = 10708 225 3880 -2500
sat8 = 34591 1169 3944 -1000
ch2 satid=8 freq = -1000 acq ok1!
sat9 = 10567 297 3955 -2750
sat10 = 11232 1009 4008 750
sat11 = 152342 20 4035 1250
ch3 satid=11 freq = 1250 acq ok1!
---00000015--- Acq_st=3 2019-5-14 12:13:51 
[00]  G02  1  7  -3328.3 2046003.9 -0.0  0.0  1  0        16
[01]  G06  1  7   -537.2 2046000.1 -0.1  0.0  1  0        12
[02]  G09  1  7   1016.9 2045999.2  0.1  0.0  1  0         8
[03]  G12  1  7   -670.4 2046000.9  0.0  0.0  1  0         9
$GNGGA,000000.000,,,,,0,00,,,M,,,,0000*2B

$GNRMC,000000.000,A,,,,,,,000000,,*26

$GPGSA,A,1,,,,,,,,,,,,,,,*1E

$BDGSA,A,1,,,,,,,,,,,,,,,*0F

$LOGTIM,0,0.000000,0.000000,0.000000,0.000000,0.000*0A

EndT:        0
sat12 = 11651 18 4001 1750
sat13 = 11248 1677 3980 250
sat14 = 14038 1762 3980 1500
sat15 = 10147 1691 3883 1750
sat16 = 10974 454 3940 2750
sat17 = 11034 1663 3910 -750
---00000016--- Acq_st=3 2019-5-14 12:13:52 
[00]  G02  1  7  -3238.9 2046003.7  0.2  0.0  1  0        16
[01]  G06  1  9   -687.0 2046000.1 -0.0  0.0  1  0        12
[02]  G09  1  7    962.7 2045999.1 -0.3  0.0  1  0        10
[03]  G12  1  7  -1257.1 2046000.5 -0.0  0.0  1  0         7
$GNGGA,000000.000,,,,,0,00,,,M,,,,0000*2B

$GNRMC,000000.000,A,,,,,,,000000,,*26

$GPGSA,A,1,,,,,,,,,,,,,,,*1E

$BDGSA,A,1,,,,,,,,,,,,,,,*0F

$LOGTIM,0,0.000000,0.000000,0.000000,0.000000,0.000*0A

EndT:        0
sat18 = 10831 524 3930 2250
sat19 = 10194 1134 3884 3000
sat20 = 11348 1584 3923 -750
sat21 = 11381 526 3924 -250
sat22 = 23885 1718 3937 -1500
ch4 satid=22 freq = -1500 acq ok1!
sat23 = 10623 1470 3984 -2750
---00000017--- Acq_st=3 2019-5-14 12:13:53 
[01]  G06  1 10   -802.3 2045999.8  0.1  0.0  1  0        12
[02]  G09  1  7    824.6 2045998.8 -0.1  0.0  1  0        10
[03]  G12  1  7  -1214.3 2046001.0 -0.1  0.0  1  0         7
[04]  G23  1  7   1519.8 2045999.0 -0.0  0.0  1  0        16
sat24 = 85318 581 3950 1000
ch0 satid=24 freq = 1000 acq ok1!
$GNGGA,000000.000,,,,,0,00,,,M,,,,0000*2B

$GNRMC,000000.000,A,,,,,,,000000,,*26

$GPGSA,A,1,,,,,,,,,,,,,,,*1E

$BDGSA,A,1,,,,,,,,,,,,,,,*0F

$LOGTIM,0,0.000000,0.000000,0.000000,0.000000,0.000*0A

EndT:        0
sat25 = 13877 1522 3920 250
sat26 = 12555 1163 3960 2500
sat27 = 10098 19 3902 0
sat28 = 11104 277 3913 1000
sat29 = 11301 50 3932 5000
sat30 = 11661 496 3926 -3500
---00000018--- Acq_st=3 2019-5-14 12:13:54 
[00]  G25  1  7   -940.3 2046000.5  0.0  0.0  1  0        16
[03]  G12  1  7  -1300.9 2046001.3 -0.1  0.0  1  0         7
[04]  G23  1  7   1721.5 2045999.1  0.0  0.0  1  0        18
$GNGGA,000000.000,,,,,0,00,,,M,,,,0000*2B

$GNRMC,000000.000,A,,,,,,,000000,,*26

$GPGSA,A,1,,,,,,,,,,,,,,,*1E

$BDGSA,A,1,,,,,,,,,,,,,,,*0F

$LOGTIM,0,0.000000,0.000000,0.000000,0.000000,0.000*0A

EndT:        0
sat31 = 10397 341 3900 2750
sat37 = 3304 533 1284 4250
sat38 = 3085 748 1296 -4500
sat39 = 3086 954 1290 3500
sat40 = 3136 2381 1302 250
---00000019--- Acq_st=3 2019-5-14 12:13:55 
[00]  G25  1  7  -1182.3 2046001.1 -0.1  0.0  1  0        17
[04]  G23  1  7   1780.0 2045998.8 -0.1  0.0  1  0        18
$GNGGA,000000.000,,,,,0,00,,,M,,,,0000*2B

$GNRMC,000000.000,A,,,,,,,000000,,*26

$GPGSA,A,1,,,,,,,,,,,,,,,*1E

$BDGSA,A,1,,,,,,,,,,,,,,,*0F

$LOGTIM,0,0.000000,0.000000,0.000000,0.000000,0.000*0A

EndT:        0
sat41 = 3286 3254 1294 3250
sat42 = 3135 2028 1294 -2750
sat43 = 3289 2194 1285 2250
sat44 = 3175 2958 1299 -3750
sat45 = 3413 2803 1287 3250
---00000020--- Acq_st=3 2019-5-14 12:13:56 
[00]  G25  1  7   -873.2 2046001.0  0.0  0.0  1  0        17
[04]  G23  1  7   1696.5 2045998.9 -0.1  0.0  1  0        18
$GNGGA,000000.000,,,,,0,00,,,M,,,,0000*2B

$GNRMC,000000.000,A,,,,,,,000000,,*26

$GPGSA,A,1,,,,,,,,,,,,,,,*1E

$BDGSA,A,1,,,,,,,,,,,,,,,*0F

$LOGTIM,0,0.000000,0.000000,0.000000,0.000000,0.000*0A

EndT:        0
sat46 = 3322 3174 1299 3750
sat47 = 3478 2028 1289 -4750
sat48 = 3715 1913 1286 -2500
sat49 = 3191 2308 1290 -4500
sat50 = 3312 934 1287 -3500
---00000021--- Acq_st=3 2019-5-14 12:13:57 
$GNGGA,000000.000,,,,,0,00,,,M,,,,0000*2B

$GNRMC,000000.000,A,,,,,,,000000,,*26

$GPGSA,A,1,,,,,,,,,,,,,,,*1E

$BDGSA,A,1,,,,,,,,,,,,,,,*0F

$LOGTIM,0,0.000000,0.000000,0.000000,0.000000,0.000*0A

EndT:        0
sat51 = 3061 1629 1287 1500
sat52 = 3741 3055 1300 -2750
sat53 = 3286 1458 1290 2750
sat54 = 3189 1403 1287 -2750
sat55 = 5817 188 1287 -3000
ch16 satid=55 freq = -3000 acq ok1!
---00000022--- Acq_st=3 2019-5-14 12:13:58 
[16]  B19  1  7   8789.3 4091993.2 -0.0  0.0  1  0         0
$GNGGA,000000.000,,,,,0,00,,,M,,,,0000*2B

$GNRMC,000000.000,A,,,,,,,000000,,*26

$GPGSA,A,1,,,,,,,,,,,,,,,*1E

$BDGSA,A,1,,,,,,,,,,,,,,,*0F

$LOGTIM,0,0.000000,0.000000,0.000000,0.000000,0.000*0A

EndT:        0
sat56 = 3218 455 1296 1750
sat57 = 3461 2484 1279 4000
sat58 = 15496 1433 1292 750
ch17 satid=58 freq = 750 acq ok1!
sat59 = 3235 3675 1296 -500
sat60 = 3228 1902 1291 1000
---00000023--- Acq_st=3 2019-5-14 12:13:59 
[16]  B19  1  7   2915.6 4091993.1  0.0  0.0  1  0        54
[17]  B22  1  7   -755.3 4092000.7 -0.1  0.0  1  0         0
$GNGGA,000000.000,,,,,0,00,,,M,,,,0000*2B

$GNRMC,000000.000,A,,,,,,,000000,,*26

$GPGSA,A,1,,,,,,,,,,,,,,,*1E

$BDGSA,A,1,,,,,,,,,,,,,,,*0F

$LOGTIM,0,0.000000,0.000000,0.000000,0.000000,0.000*0A

EndT:        0
sat61 = 3245 2008 1285 -2000
sat62 = 3071 1972 1288 250
sat63 = 3284 419 1289 4000
sat64 = 3213 508 1298 4750
sat65 = 3510 251 1300 -4250
---00000024--- Acq_st=3 2019-5-14 12:14:0 
[16]  B19  1  7   2852.2 4091993.4  0.0  0.0  1  0      1054
[17]  B22  1  7  -1182.4 4092001.4  0.1  0.0  1  0       451
$GNGGA,000000.000,,,,,0,00,,,M,,,,0000*2B

$GNRMC,000000.000,A,,,,,,,000000,,*26

$GPGSA,A,1,,,,,,,,,,,,,,,*1E

$BDGSA,A,1,,,,,,,,,,,,,,,*0F

$LOGTIM,0,0.000000,0.000000,0.000000,0.000000,0.000*0A

EndT:        0
sat66 = 3161 4084 1295 -4500
sat67 = 3379 1771 1300 500
sat68 = 3181 3851 1293 2000
---00000025--- Acq_st=7 2019-5-14 12:14:1 
[16]  B19  1  7   2634.3 4091993.0 -0.0  0.0  1  0      2054
[17]  B22  1 11  -1354.4 4092001.2  0.1  0.0  1  0      1451
$GNGGA,000000.000,,,,,0,00,,,M,,,,0000*2B

$GNRMC,000000.000,A,,,,,,,000000,,*26

$GPGSA,A,1,,,,,,,,,,,,,,,*1E

$BDGSA,A,1,,,,,,,,,,,,,,,*0F

$LOGTIM,0,0.000000,0.000000,0.000000,0.000000,0.000*0A

EndT:        0
sat0 = 11251 373 3974 2000
sat1 = 275819 979 3920 2250
ch0 satid=1 freq = 2250 acq ok1!
sat2 = 10359 1721 3921 4750
sat3 = 11894 885 3930 1250
sat4 = 12330 1845 3933 3750
sat5 = 45737 970 3925 500
ch1 satid=5 freq = 500 acq ok1!
---00000026--- Acq_st=3 2019-5-14 12:14:2 
[00]  G02  1  7  -2267.1 2046002.0  0.0  0.0  1  0        17
[01]  G06  1  7   -555.6 2045999.9  0.0  0.0  1  0        12
$GNGGA,000000.000,,,,,0,00,,,M,,,,0000*2B

$GNRMC,000000.000,A,,,,,,,000000,,*26

$GPGSA,A,1,,,,,,,,,,,,,,,*1E

$BDGSA,A,1,,,,,,,,,,,,,,,*0F

$LOGTIM,0,0.000000,0.000000,0.000000,0.000000,0.000*0A

EndT:        0
sat6 = 11530 613 3968 -2500
sat7 = 10862 492 3866 -1000
sat8 = 29426 729 3892 0
ch2 satid=8 freq = 0 acq ok1!
sat9 = 10793 1010 3922 -3500
sat10 = 10188 249 3938 1500
sat11 = 120562 1686 3994 1250
ch3 satid=11 freq = 1250 acq ok1!
---00000027--- Acq_st=3 2019-5-14 12:14:3 
[00]  G02  1  7  -2165.8 2046001.9 -0.0  0.0  1  0        14
[01]  G06  1  7   -398.1 2046000.2  0.1  0.0  1  0        10
[02]  G09  1  7     -1.2 2045999.8  0.1  0.0  1  0        10
[03]  G12  1  7  -1253.0 2046001.3  0.0  0.0  1  0         7
$GNGGA,000000.000,,,,,0,00,,,M,,,,0000*2B

$GNRMC,000000.000,A,,,,,,,000000,,*26

$GPGSA,A,1,,,,,,,,,,,,,,,*1E

$BDGSA,A,1,,,,,,,,,,,,,,,*0F

$LOGTIM,0,0.000000,0.000000,0.000000,0.000000,0.000*0A

EndT:        0
sat12 = 10991 1921 3948 -2750
sat13 = 11221 1371 3965 3750
sat14 = 10644 1172 3893 2250
sat15 = 10976 141 3900 -3250
sat16 = 12481 1809 3978 1250
sat17 = 10645 622 3982 1250
---00000028--- Acq_st=3 2019-5-14 12:14:4 
[00]  G02  1  7  -1957.5 2046002.4  0.2  0.0  1  0        14
[01]  G06  1  7   -372.5 2046000.2  0.1  0.0  1  0        10
[02]  G09  1  7    -59.3 2045999.9 -0.0  0.0  1  0         8
[03]  G12  1  7  -1209.6 2046001.4 -0.1  0.0  1  0         5
$GNGGA,000000.000,,,,,0,00,,,M,,,,0000*2B

$GNRMC,000000.000,A,,,,,,,000000,,*26

$GPGSA,A,1,,,,,,,,,,,,,,,*1E

$BDGSA,A,1,,,,,,,,,,,,,,,*0F

$LOGTIM,0,0.000000,0.000000,0.000000,0.000000,0.000*0A

EndT:        0
sat18 = 12302 929 3980 -500
sat19 = 11020 64 3968 1750
sat20 = 11001 60 3957 -4500
sat21 = 10336 759 3953 1500
sat22 = 23360 1363 3979 -1500
ch4 satid=22 freq = -1500 acq ok1!
sat23 = 12161 1021 4018 2750
---00000029--- Acq_st=3 2019-5-14 12:14:5 
[01]  G06  1  7   -234.9 2046000.0 -0.0  0.0  1  0        10
[02]  G09  1  7   -190.7 2045999.9  0.2  0.0  1  0         8
[03]  G12  1  7  -1152.0 2046000.9 -0.1  0.0  1  0         5
[04]  G23  1  7   1532.9 2045999.4  0.0  0.0  1  0        18
sat24 = 72430 110 4035 2000
ch0 satid=24 freq = 2000 acq ok1!
sat25 = 13535 1346 3961 500
$GNGGA,000000.000,,,,,0,00,,,M,,,,0000*2B

$GNRMC,000000.000,A,,,,,,,000000,,*26

$GPGSA,A,1,,,,,,,,,,,,,,,*1E

$BDGSA,A,1,,,,,,,,,,,,,,,*0F

$LOGTIM,0,0.000000,0.000000,0.000000,0.000000,0.000*0A

EndT:        0
sat26 = 10335 884 3942 1750
sat27 = 11224 1929 3911 3250
sat28 = 11513 933 3948 2000
sat29 = 11306 435 3923 -2500
sat30 = 11372 170 3961 2750
---00000030--- Acq_st=3 2019-5-14 12:14:6 
[00]  G25  1  7  -2162.3 2046001.9  0.0  0.0  1  0        14
[03]  G12  1  7  -1214.3 2046001.3  0.1  0.0  1  0         5
[04]  G23  1 10   1698.0 2045999.2  0.0  0.0  1  0        16
$GNGGA,000000.000,,,,,0,00,,,M,,,,0000*2B

$GNRMC,000000.000,A,,,,,,,000000,,*26

$GPGSA,A,1,,,,,,,,,,,,,,,*1E

$BDGSA,A,1,,,,,,,,,,,,,,,*0F

$LOGTIM,0,0.000000,0.000000,0.000000,0.000000,0.000*0A

EndT:        0
sat31 = 11080 416 3939 3750
sat37 = 3371 3960 1290 -4750
sat38 = 3276 1751 1310 -3250
sat39 = 3213 3229 1298 250
sat40 = 3511 2732 1309 -3750
---00000031--- Acq_st=3 2019-5-14 12:14:7 
[00]  G25  1  7  -1957.0 2046001.7  0.2  0.0  1  0        14
[04]  G23  1  7   1683.1 2045999.4 -0.1  0.0  1  0        16
$GNGGA,000000.000,,,,,0,00,,,M,,,,0000*2B

$GNRMC,000000.000,A,,,,,,,000000,,*26

$GPGSA,A,1,,,,,,,,,,,,,,,*1E

$BDGSA,A,1,,,,,,,,,,,,,,,*0F

$LOGTIM,0,0.000000,0.000000,0.000000,0.000000,0.000*0A

EndT:        0
sat41 = 3396 1949 1305 -2250
sat42 = 3334 3258 1299 -500
sat43 = 3235 3987 1296 4500
sat44 = 5179 3751 1299 3250
sat45 = 3538 493 1298 -1000
---00000032--- Acq_st=3 2019-5-14 12:14:8 
[00]  G25  1  7  -2250.0 2046002.1 -0.1  0.0  1  0        14
[04]  G23  1  7   1787.2 2045999.1  0.1  0.0  1  0        16
$GNGGA,000000.000,,,,,0,00,,,M,,,,0000*2B

$GNRMC,000000.000,A,,,,,,,000000,,*26

$GPGSA,A,1,,,,,,,,,,,,,,,*1E

$BDGSA,A,1,,,,,,,,,,,,,,,*0F

$LOGTIM,0,0.000000,0.000000,0.000000,0.000000,0.000*0A

EndT:        0
sat46 = 3262 3419 1310 1250
sat47 = 3498 1931 1296 3750
sat48 = 3347 35 1306 3500
sat49 = 49889 1582 1314 2750
ch16 satid=49 freq = 2750 acq ok1!
sat50 = 3319 2079 1295 1000
---00000033--- Acq_st=3 2019-5-14 12:14:9 
[16]  B13  1  7  -2746.3 4092007.3  0.0  0.0  1  0      3054
$GNGGA,000000.000,,,,,0,00,,,M,,,,0000*2B

$GNRMC,000000.000,A,,,,,,,000000,,*26

$GPGSA,A,1,,,,,,,,,,,,,,,*1E

$BDGSA,A,1,,,,,,,,,,,,,,,*0F

$LOGTIM,0,0.000000,0.000000,0.000000,0.000000,0.000*0A

EndT:        0
sat51 = 3218 1531 1293 -3000
sat52 = 3564 2304 1310 -1000
sat53 = 3287 1490 1296 2000
sat54 = 3134 3277 1295 3750
sat56 = 3181 2861 1295 -1000
---00000034--- Acq_st=3 2019-5-14 12:14:10 
[16]  B13  1  7  -2810.0 4092007.2  0.0  0.0  1  0       277
$GNGGA,000000.000,,,,,0,00,,,M,,,,0000*2B

$GNRMC,000000.000,A,,,,,,,000000,,*26

$GPGSA,A,1,,,,,,,,,,,,,,,*1E

$BDGSA,A,1,,,,,,,,,,,,,,,*0F

$LOGTIM,0,0.000000,0.000000,0.000000,0.000000,0.000*0A

EndT:        0
sat57 = 3387 3819 1297 -2250
sat59 = 3711 3769 1304 0
sat60 = 3130 3661 1301 3500
sat61 = 3422 28 1288 -1750
sat62 = 3312 3818 1293 500
---00000035--- Acq_st=3 2019-5-14 12:14:11 
[16]  B13  1  7  -3061.5 4092006.9  0.1  0.0  1  0      1277
$GNGGA,000000.000,,,,,0,00,,,M,,,,0000*2B

$GNRMC,000000.000,A,,,,,,,000000,,*26

$GPGSA,A,1,,,,,,,,,,,,,,,*1E

$BDGSA,A,1,,,,,,,,,,,,,,,*0F

$LOGTIM,0,0.000000,0.000000,0.000000,0.000000,0.000*0A

EndT:        0
sat63 = 3492 3682 1296 1000
sat64 = 3227 1049 1310 -1500
sat65 = 3118 1227 1311 4500
sat66 = 3122 822 1309 -2250
sat67 = 3527 3358 1297 -750
---00000036--- Acq_st=3 2019-5-14 12:14:12 
[16]  B13  1  7  -3128.8 4092007.2 -0.0  0.0  1  0      2277
$GNGGA,000000.000,,,,,0,00,,,M,,,,0000*2B

$GNRMC,000000.000,A,,,,,,,000000,,*26

$GPGSA,A,1,,,,,,,,,,,,,,,*1E

$BDGSA,A,1,,,,,,,,,,,,,,,*0F

$LOGTIM,0,0.000000,0.000000,0.000000,0.000000,0.000*0A

EndT:        0
sat68 = 3376 1429 1302 -3750
---00000037--- Acq_st=7 2019-5-14 12:14:13 
$GNGGA,000000.000,,,,,0,00,,,M,,,,0000*2B

$GNRMC,000000.000,A,,,,,,,000000,,*26

$GPGSA,A,1,,,,,,,,,,,,,,,*1E

$BDGSA,A,1,,,,,,,,,,,,,,,*0F

$LOGTIM,0,0.000000,0.000000,0.000000,0.000000,0.000*0A

EndT:        0
sat0 = 10296 2004 4016 2000
sat1 = 280885 543 3987 3250
ch0 satid=1 freq = 3250 acq ok1!
sat2 = 12251 2025 3930 -1500
sat3 = 10392 644 3944 -2250
sat4 = 10438 1173 4006 1000
sat5 = 42114 584 3959 500
ch1 satid=5 freq = 500 acq ok1!
---00000038--- Acq_st=3 2019-5-14 12:14:14 
[00]  G02  1  7  -3150.0 2046004.2 -0.1  0.0  1  0        14
[01]  G06  1  7   -452.9 2046000.2  0.0  0.0  1  0        10
$GNGGA,000000.000,,,,,0,00,,,M,,,,0000*2B

$GNRMC,000000.000,A,,,,,,,000000,,*26

$GPGSA,A,1,,,,,,,,,,,,,,,*1E

$BDGSA,A,1,,,,,,,,,,,,,,,*0F

$LOGTIM,0,0.000000,0.000000,0.000000,0.000000,0.000*0A

EndT:        0
sat6 = 11557 607 3998 3500
sat7 = 11919 447 3959 3750
sat8 = 31192 353 4011 0
ch2 satid=8 freq = 0 acq ok1!
sat9 = 10738 1753 3994 -4250
sat10 = 10796 2025 3970 -250
sat11 = 164655 1372 3991 250
ch3 satid=11 freq = 250 acq ok1!
---00000039--- Acq_st=3 2019-5-14 12:14:15 
[00]  G02  1  7  -3055.7 2046004.0  0.1  0.0  1  0        11
[01]  G06  1  7   -463.8 2046000.0  0.1  0.0  1  0         7
[02]  G09  1  7    -58.5 2045999.8 -0.0  0.0  1  0         8
[03]  G12  1  7   -289.3 2046000.0 -0.0  0.0  1  0         5
$GNGGA,000000.000,,,,,0,00,,,M,,,,0000*2B

$GNRMC,000000.000,A,,,,,,,000000,,*26

$GPGSA,A,1,,,,,,,,,,,,,,,*1E

$BDGSA,A,1,,,,,,,,,,,,,,,*0F

$LOGTIM,0,0.000000,0.000000,0.000000,0.000000,0.000*0A

EndT:        0
sat12 = 10811 1300 3955 2750
sat13 = 11705 460 3996 4250
sat14 = 10786 175 4004 -250
sat15 = 10116 1462 3965 250
sat16 = 11517 685 3921 4500
sat17 = 10660 757 3939 -3000
---00000040--- Acq_st=3 2019-5-14 12:14:16 
[00]  G02  1  7  -3055.5 2046004.0 -0.1  0.0  1  0        11
[01]  G06  1  7   -563.3 2045999.6 -0.1  0.0  1  0         7
[02]  G09  1  7   -155.1 2046000.2  0.1  0.0  1  0         5
[03]  G12  1  9   -354.4 2046000.2  0.1  0.0  1  0         3
sat18 = 10530 1475 3974 1000
$GNGGA,000000.000,,,,,0,00,,,M,,,,0000*2B

$GNRMC,000000.000,A,,,,,,,000000,,*26

$GPGSA,A,1,,,,,,,,,,,,,,,*1E

$BDGSA,A,1,,,,,,,,,,,,,,,*0F

$LOGTIM,0,0.000000,0.000000,0.000000,0.000000,0.000*0A

EndT:        0
sat19 = 10835 1724 3933 4000
sat20 = 11398 1202 3955 -4000
sat21 = 10338 1109 3979 2500
sat22 = 17282 944 3922 -500
ch4 satid=22 freq = -500 acq ok1!
sat23 = 10898 1164 3984 1500
---00000041--- Acq_st=3 2019-5-14 12:14:17 
[01]  G06  1  7   -656.9 2045999.9  0.0  0.0  1  0         7
[02]  G09  1  7   -205.9 2045999.9 -0.1  0.0  1  0         5
[03]  G12  1  7   -302.7 2046000.0  0.1  0.0  1  0         3
[04]  G23  1  7    490.7 2046000.0  0.0  0.0  1  0        16
sat24 = 55387 1750 3913 2000
ch0 satid=24 freq = 2000 acq ok1!
$GNGGA,000000.000,,,,,0,00,,,M,,,,0000*2B

$GNRMC,000000.000,A,,,,,,,000000,,*26

$GPGSA,A,1,,,,,,,,,,,,,,,*1E

$BDGSA,A,1,,,,,,,,,,,,,,,*0F

$LOGTIM,0,0.000000,0.000000,0.000000,0.000000,0.000*0A

EndT:        0
sat25 = 11317 1713 3920 -2500
sat26 = 10110 1683 3975 -3750
sat27 = 12044 1921 3951 1000
sat28 = 11696 586 4093 1750
sat29 = 10555 1015 3954 1250
sat30 = 11662 1800 3949 -4750
---00000042--- Acq_st=3 2019-5-14 12:14:18 
[00]  G25  1  7  -1886.4 2046002.2  0.0  0.0  1  0        12
[03]  G12  1  9   -374.0 2046000.2  0.0  0.0  1  0         3
[04]  G23  1  7    468.1 2046000.1 -0.1  0.0  1  0        14
$GNGGA,000000.000,,,,,0,00,,,M,,,,0000*2B

$GNRMC,000000.000,A,,,,,,,000000,,*26

$GPGSA,A,1,,,,,,,,,,,,,,,*1E

$BDGSA,A,1,,,,,,,,,,,,,,,*0F

$LOGTIM,0,0.000000,0.000000,0.000000,0.000000,0.000*0A

EndT:        0
sat31 = 9621 876 3898 1750
sat37 = 3205 2530 1295 -2750
sat38 = 3374 670 1308 -3500
sat39 = 3734 2518 1304 -4500
sat40 = 3965 3714 1313 -4500
---00000043--- Acq_st=3 2019-5-14 12:14:19 
[00]  G25  1 10  -1753.4 2046002.5  0.0  0.0  1  0        12
[04]  G23  1 10    512.2 2046000.2 -0.0  0.0  1  0        14
$GNGGA,000000.000,,,,,0,00,,,M,,,,0000*2B

$GNRMC,000000.000,A,,,,,,,000000,,*26

$GPGSA,A,1,,,,,,,,,,,,,,,*1E

$BDGSA,A,1,,,,,,,,,,,,,,,*0F

$LOGTIM,0,0.000000,0.000000,0.000000,0.000000,0.000*0A

EndT:        0
sat41 = 3696 402 1302 2750
sat42 = 3843 2922 1302 -1750
sat43 = 3565 107 1295 2750
sat44 = 4272 988 1309 2750
sat45 = 3349 112 1303 -3500
---00000044--- Acq_st=3 2019-5-14 12:14:20 
[00]  G25  1 14  -1553.6 2046002.2 -0.0  0.0  1  0        12
[04]  G23  1  7    500.6 2046000.0  0.1  0.0  1  0        14
$GNGGA,000000.000,,,,,0,00,,,M,,,,0000*2B

$GNRMC,000000.000,A,,,,,,,000000,,*26

$GPGSA,A,1,,,,,,,,,,,,,,,*1E

$BDGSA,A,1,,,,,,,,,,,,,,,*0F

$LOGTIM,0,0.000000,0.000000,0.000000,0.000000,0.000*0A

EndT:        0
sat46 = 3192 149 1314 1500
sat47 = 3532 3465 1302 1750
sat48 = 3335 934 1307 2500
sat49 = 47315 939 1310 1000
ch16 satid=49 freq = 1000 acq ok1!
sat50 = 3398 3421 1303 -4750
---00000045--- Acq_st=3 2019-5-14 12:14:21 
[16]  B13  1  7  -1007.1 4092002.0 -0.0  0.0  1  0      3277
$GNGGA,000000.000,,,,,0,00,,,M,,,,0000*2B

$GNRMC,000000.000,A,,,,,,,000000,,*26

$GPGSA,A,1,,,,,,,,,,,,,,,*1E

$BDGSA,A,1,,,,,,,,,,,,,,,*0F

$LOGTIM,0,0.000000,0.000000,0.000000,0.000000,0.000*0A

EndT:        0
sat51 = 3177 860 1296 -1250
sat52 = 3404 1379 1309 -2000
sat53 = 3203 202 1302 750
sat54 = 3416 1696 1308 3750
sat55 = 3673 1928 1300 2500
---00000046--- Acq_st=3 2019-5-14 12:14:22 
[16]  B13  1  7   -971.5 4092002.2 -0.0  0.0  1  0       294
$GNGGA,000000.000,,,,,0,00,,,M,,,,0000*2B

$GNRMC,000000.000,A,,,,,,,000000,,*26

$GPGSA,A,1,,,,,,,,,,,,,,,*1E

$BDGSA,A,1,,,,,,,,,,,,,,,*0F

$LOGTIM,0,0.000000,0.000000,0.000000,0.000000,0.000*0A

EndT:        0
sat56 = 3457 500 1300 0
sat57 = 3218 997 1296 4250
sat58 = 28702 210 1304 -2500
ch17 satid=58 freq = -2500 acq ok1!
sat59 = 4070 1429 1303 -3500
sat60 = 3380 2756 1304 3000
---00000047--- Acq_st=3 2019-5-14 12:14:23 
[16]  B13  1  7  -1126.0 4092001.8  0.0  0.0  1  0      1294
[17]  B22  1  7   2510.4 4091994.1 -0.0  0.0  1  0      2451
$GNGGA,000000.000,,,,,0,00,,,M,,,,0000*2B

$GNRMC,000000.000,A,,,,,,,000000,,*26

$GPGSA,A,1,,,,,,,,,,,,,,,*1E

$BDGSA,A,1,,,,,,,,,,,,,,,*0F

$LOGTIM,0,0.000000,0.000000,0.000000,0.000000,0.000*0A

EndT:        0
sat61 = 3195 3234 1291 -2000
sat62 = 3410 1966 1297 -2500
sat63 = 4114 1313 1299 -750
sat64 = 3356 3470 1307 3500
sat65 = 3254 161 1307 -3500
---00000048--- Acq_st=3 2019-5-14 12:14:24 
[16]  B13  1  7  -1090.6 4092002.3 -0.0  0.0  1  0      2294
[17]  B22  1  7   2526.4 4091994.2 -0.1  0.0  1  0       487
$GNGGA,000000.000,,,,,0,00,,,M,,,,0000*2B

$GNRMC,000000.000,A,,,,,,,000000,,*26

$GPGSA,A,1,,,,,,,,,,,,,,,*1E

$BDGSA,A,1,,,,,,,,,,,,,,,*0F

$LOGTIM,0,0.000000,0.000000,0.000000,0.000000,0.000*0A

EndT:        0
sat66 = 3569 2614 1303 500
sat67 = 3255 1665 1304 250
sat68 = 3331 954 1305 500
---00000049--- Acq_st=7 2019-5-14 12:14:25 
[17]  B22  1  7   2458.9 4091994.3  0.1  0.0  1  0      1487
$GNGGA,000000.000,,,,,0,00,,,M,,,,0000*2B

$GNRMC,000000.000,A,,,,,,,000000,,*26

$GPGSA,A,1,,,,,,,,,,,,,,,*1E

$BDGSA,A,1,,,,,,,,,,,,,,,*0F

$LOGTIM,0,0.000000,0.000000,0.000000,0.000000,0.000*0A

EndT:        0
sat0 = 10687 1867 3995 5000
sat1 = 238725 149 3948 2250
ch0 satid=1 freq = 2250 acq ok1!
sat2 = 12209 1135 3990 250
sat3 = 10786 849 3958 -3250
sat4 = 10027 1676 3941 -3000
sat5 = 49176 197 3971 500
ch1 satid=5 freq = 500 acq ok1!
---00000050--- Acq_st=3 2019-5-14 12:14:26 
[00]  G02  1  7  -2267.5 2046002.0  0.1  0.0  1  0        12
[01]  G06  1  7   -573.3 2046000.0 -0.0  0.0  1  0         7
$GNGGA,000000.000,,,,,0,00,,,M,,,,0000*2B

$GNRMC,000000.000,A,,,,,,,000000,,*26

$GPGSA,A,1,,,,,,,,,,,,,,,*1E

$BDGSA,A,1,,,,,,,,,,,,,,,*0F

$LOGTIM,0,0.000000,0.000000,0.000000,0.000000,0.000*0A

EndT:        0
sat6 = 10753 2019 3989 2750
sat7 = 10150 940 3944 -500
sat8 = 40674 2025 3989 0
ch2 satid=8 freq = 0 acq ok1!
sat9 = 10931 36 4066 0
sat10 = 10158 882 4054 -2750
sat11 = 169309 993 4048 250
ch3 satid=11 freq = 250 acq ok1!
---00000051--- Acq_st=3 2019-5-14 12:14:27 
[00]  G02  1  7  -2101.2 2046001.8  0.0  0.0  1  0         9
[01]  G06  1  7   -607.2 2046000.0 -0.1  0.0  1  0         5
[02]  G09  1  7    -59.0 2045999.7 -0.1  0.0  1  0         5
[03]  G12  1  7   -250.6 2046000.0 -0.0  0.0  1  0         3
$GNGGA,000000.000,,,,,0,00,,,M,,,,0000*2B

$GNRMC,000000.000,A,,,,,,,000000,,*26

$GPGSA,A,1,,,,,,,,,,,,,,,*1E

$BDGSA,A,1,,,,,,,,,,,,,,,*0F

$LOGTIM,0,0.000000,0.000000,0.000000,0.000000,0.000*0A

EndT:        0
sat12 = 13048 451 4081 -750
sat13 = 11228 881 4088 -2500
sat14 = 10346 1999 4051 -3500
sat15 = 11613 1015 4040 5000
sat16 = 11880 2012 4094 5000
sat17 = 10709 682 4024 1250
---00000052--- Acq_st=3 2019-5-14 12:14:28 
[00]  G02  1  7  -2224.8 2046001.7  0.2  0.0  1  0         9
[01]  G06  1 15   -744.4 2046000.2 -0.1  0.0  1  0         5
[02]  G09  1  8     20.3 2045999.5  0.1  0.0  1  0         3
[03]  G12  1  7   -373.3 2046000.2  0.0  0.0  1  0         1
sat18 = 10414 584 4027 4500
$GNGGA,000000.000,,,,,0,00,,,M,,,,0000*2B

$GNRMC,000000.000,A,,,,,,,000000,,*26

$GPGSA,A,1,,,,,,,,,,,,,,,*1E

$BDGSA,A,1,,,,,,,,,,,,,,,*0F

$LOGTIM,0,0.000000,0.000000,0.000000,0.000000,0.000*0A

EndT:        0
sat19 = 11389 121 4032 -750
sat20 = 10920 1892 4014 0
sat21 = 11666 327 4038 -500
sat22 = 29782 654 4014 -1500
ch4 satid=22 freq = -1500 acq ok1!
sat23 = 11197 253 4048 -1500
---00000053--- Acq_st=3 2019-5-14 12:14:29 
[01]  G06  1  7   -901.0 2046000.5 -0.2  0.0  1  0         5
[02]  G09  1  7     22.2 2045999.8  0.0  0.0  1  0         3
[03]  G12  1  7   -364.2 2046000.1  0.2  0.0  1  0         1
[04]  G23  1  7   1517.0 2045998.8 -0.0  0.0  1  0        14
sat24 = 58900 1346 4020 2000
ch0 satid=24 freq = 2000 acq ok1!
$GNGGA,000000.000,,,,,0,00,,,M,,,,0000*2B

$GNRMC,000000.000,A,,,,,,,000000,,*26

$GPGSA,A,1,,,,,,,,,,,,,,,*1E

$BDGSA,A,1,,,,,,,,,,,,,,,*0F

$LOGTIM,0,0.000000,0.000000,0.000000,0.000000,0.000*0A

EndT:        0
sat25 = 10431 1964 4023 -750
sat26 = 10449 938 4007 4500
sat27 = 10957 528 4023 -1250
sat28 = 10720 1543 4067 -3750
sat29 = 10966 906 4044 -1250
sat30 = 10651 1049 4033 2750
---00000054--- Acq_st=3 2019-5-14 12:14:30 
[00]  G25  1 13  -2037.2 2046002.0 -0.0  0.0  1  0        10
[03]  G12  1  7   -189.3 2046000.2  0.2  0.0  1  0         1
[04]  G23  1  7   1574.7 2045999.1 -0.1  0.0  1  0        11
$GNGGA,000000.000,,,,,0,00,,,M,,,,0000*2B

$GNRMC,000000.000,A,,,,,,,000000,,*26

$GPGSA,A,1,,,,,,,,,,,,,,,*1E

$BDGSA,A,1,,,,,,,,,,,,,,,*0F

$LOGTIM,0,0.000000,0.000000,0.000000,0.000000,0.000*0A

EndT:        0
sat31 = 10884 832 4025 -500
sat37 = 3115 1284 1290 -1750
sat38 = 3358 1289 1309 -4250
sat39 = 3187 1110 1302 3500
sat40 = 3420 1239 1304 4500
---00000055--- Acq_st=3 2019-5-14 12:14:31 
[00]  G25  1  7  -2125.5 2046002.1  0.1  0.0  1  0        10
[04]  G23  1  7   1474.3 2045999.0 -0.1  0.0  1  0        11
$GNGGA,000000.000,,,,,0,00,,,M,,,,0000*2B

$GNRMC,000000.000,A,,,,,,,000000,,*26

$GPGSA,A,1,,,,,,,,,,,,,,,*1E

$BDGSA,A,1,,,,,,,,,,,,,,,*0F

$LOGTIM,0,0.000000,0.000000,0.000000,0.000000,0.000*0A

EndT:        0
sat41 = 3273 3032 1302 1250
sat42 = 3340 633 1296 1250
sat43 = 3126 806 1294 -4000
sat44 = 5285 186 1302 2250
ch16 satid=44 freq = 2250 acq ok1!
sat45 = 3256 960 1296 1250
---00000056--- Acq_st=3 2019-5-14 12:14:32 
[00]  G25  1  7  -2360.1 2046002.2  0.2  0.0  1  0        10
[04]  G23  1  8   1359.7 2045999.2  0.2  0.0  1  0        11
[16]  B08  1  7  -2246.3 4092005.0 -0.0  0.0  1  0      3294
$GNGGA,000000.000,,,,,0,00,,,M,,,,0000*2B

$GNRMC,000000.000,A,,,,,,,000000,,*26

$GPGSA,A,1,,,,,,,,,,,,,,,*1E

$BDGSA,A,1,,,,,,,,,,,,,,,*0F

$LOGTIM,0,0.000000,0.000000,0.000000,0.000000,0.000*0A

EndT:        0
sat46 = 3606 3172 1305 5000
sat47 = 3126 1802 1299 -2000
sat48 = 3173 343 1292 4000
sat49 = 43139 2102 1305 1500
ch17 satid=49 freq = 1500 acq ok1!
sat50 = 3366 3847 1293 3750
---00000057--- Acq_st=3 2019-5-14 12:14:33 
[16]  B08  1  7  -2133.5 4092004.6 -0.1  0.0  1  0       316
[17]  B13  1  7  -1469.8 4092003.0 -0.0  0.0  1  0      2487
$GNGGA,000000.000,,,,,0,00,,,M,,,,0000*2B

$GNRMC,000000.000,A,,,,,,,000000,,*26

$GPGSA,A,1,,,,,,,,,,,,,,,*1E

$BDGSA,A,1,,,,,,,,,,,,,,,*0F

$LOGTIM,0,0.000000,0.000000,0.000000,0.000000,0.000*0A

EndT:        0
sat51 = 3303 3351 1291 2250
sat52 = 3366 2645 1307 2750

