---00000001--- Acq_st=3 2019-5-14 10:03:13 
[00]  G02  1  7  -2093.7 2046002.1 -0.1  0.0  1  0         0
[01]  G06  1  7  -1124.8 2046001.4  0.0  0.0  1  0         0
$GNGGA,000000.000,,,,,0,00,,,M,,,,0000*2B
$GNRMC,000000.000,A,,,,,,,000000,,*26
$GPGSA,A,1,,,,,,,,,,,,,,,*1E
$BDGSA,A,1,,,,,,,,,,,,,,,*0F
$LOGTIM,0,0.000000,0.000000,0.000000,0.000000,0.000*0A
EndT:        0
---00000002--- Acq_st=3 2019-5-14 10:03:14 
[00]  G02  1 16  -2170.7 2046002.0 -0.2  0.0  1  0         5
[01]  G06  1  7  -1198.0 2046001.4 -0.1  0.0  1  0        13
[02]  G12  1  7  -3452.7 2046003.9 -0.1  0.0  1  0         0
$GNGGA,000000.000,,,,,0,00,,,M,,,,0000*2B
$GNRMC,000000.000,A,,,,,,,000000,,*26
$GPGSA,A,1,,,,,,,,,,,,,,,*1E
$BDGSA,A,1,,,,,,,,,,,,,,,*0F
$LOGTIM,0,0.000000,0.000000,0.000000,0.000000,0.000*0A
EndT:        1
---00000003--- Acq_st=3 2019-5-14 10:03:15 
[00]  G02  1 17  -2048.2 2046001.5  0.1  0.0  1  0         5
[01]  G06  1  7  -1275.9 2046001.2 -0.1  0.0  1  0        13
[02]  G12  1  7  -3508.9 2046003.5 -0.1  0.0  1  0        17
[03]  G17  1  7   -701.6 2046000.7 -0.0  0.0  1  0         0
[04]  G19  1  7  -1645.4 2046002.1  0.1  0.0  1  0         0
$GNGGA,000000.000,,,,,0,00,,,M,,,,0000*2B
$GNRMC,000000.000,A,,,,,,,000000,,*26
$GPGSA,A,1,,,,,,,,,,,,,,,*1E
$BDGSA,A,1,,,,,,,,,,,,,,,*0F
$LOGTIM,0,0.000000,0.000000,0.000000,0.000000,0.000*0A
EndT:        0
---00000004--- Acq_st=3 2019-5-14 10:03:16 
[02]  G12  1  9  -3718.5 2046004.1  0.2  0.0  1  0        17
[03]  G17  1 11   -912.4 2046001.2 -0.1  0.0  1  0        12
[04]  G19  1  7  -1650.4 2046002.9 -0.2  0.0  1  0         6
$GNGGA,000000.000,,,,,0,00,,,M,,,,0000*2B
$GNRMC,000000.000,A,,,,,,,000000,,*26
$GPGSA,A,1,,,,,,,,,,,,,,,*1E
$BDGSA,A,1,,,,,,,,,,,,,,,*0F
$LOGTIM,0,0.000000,0.000000,0.000000,0.000000,0.000*0A
EndT:        0
---00000005--- Acq_st=3 2019-5-14 10:03:17 
[03]  G17  7  7   -954.6 2046001.2  0.2  0.0 20  0        12
[04]  G19  1  7  -1491.9 2046002.9  0.2  0.0  1  0         6
$GNGGA,000000.000,,,,,0,00,,,M,,,,0000*2B
$GNRMC,000000.000,A,,,,,,,000000,,*26
$GPGSA,A,1,,,,,,,,,,,,,,,*1E
$BDGSA,A,1,,,,,,,,,,,,,,,*0F
$LOGTIM,0,0.000000,0.000000,0.000000,0.000000,0.000*0A
EndT:        0
---00000006--- Acq_st=3 2019-5-14 10:03:18 
[03]  G17  7 14   -955.2 2046001.6 -0.2  0.0 20  0         9
$GNGGA,000000.000,,,,,0,00,,,M,,,,0000*2B
$GNRMC,000000.000,A,,,,,,,000000,,*26
$GPGSA,A,1,,,,,,,,,,,,,,,*1E
$BDGSA,A,1,,,,,,,,,,,,,,,*0F
$GPGSV,1,1,01,17,00,000,14*4B
$LOGTIM,0,0.000000,0.000000,0.000000,0.000000,0.000*0A
EndT:        0
---00000007--- Acq_st=3 2019-5-14 10:03:19 
[03]  G17  7 11   -940.4 2046001.1 -0.1 -0.2 20  0         9
[16]  B08  1  7    -31.0 4092000.3 -0.0  0.0  1  0         0
$GNGGA,000000.000,,,,,0,00,,,M,,,,0000*2B
$GNRMC,000000.000,A,,,,,,,000000,,*26
$GPGSA,A,1,,,,,,,,,,,,,,,*1E
$BDGSA,A,1,,,,,,,,,,,,,,,*0F
$LOGTIM,0,0.000000,0.000000,0.000000,0.000000,0.000*0A
EndT:        0
---00000008--- Acq_st=3 2019-5-14 10:03:20 
[03]  G17  7  9   -943.5 2046001.2  0.1 -0.2 20  0         9
[16]  B08  1  9      0.7 4092000.3 -0.1  0.0  1  0       532
[17]  B12  1  7  -1931.8 4092003.6  0.1  0.0  1  0         0
[18]  B13  1  7   -257.8 4092000.1  0.0  0.0  1  0         0
$GNGGA,000000.000,,,,,0,00,,,M,,,,0000*2B
$GNRMC,000000.000,A,,,,,,,000000,,*26
$GPGSA,A,1,,,,,,,,,,,,,,,*1E
$BDGSA,A,1,,,,,,,,,,,,,,,*0F
$LOGTIM,0,0.000000,0.000000,0.000000,0.000000,0.000*0A
EndT:        0
---00000009--- Acq_st=3 2019-5-14 10:03:21 
[03]  G17  7 10   -957.3 2046001.2  0.1  0.0 20  0         9
[16]  B08  1  7     45.5 4092000.3 -0.0  0.0  1  0      1532
[17]  B12  1  7  -2022.9 4092003.8  0.0  0.0  1  0       849
[18]  B13  1  8    -76.4 4092000.1  0.0  0.0  1  0       828
$GNGGA,000000.000,,,,,0,00,,,M,,,,0000*2B
$GNRMC,000000.000,A,,,,,,,000000,,*26
$GPGSA,A,1,,,,,,,,,,,,,,,*1E
$BDGSA,A,1,,,,,,,,,,,,,,,*0F
$LOGTIM,0,0.000000,0.000000,0.000000,0.000000,0.000*0A
EndT:        0
---00000010--- Acq_st=3 2019-5-14 10:03:22 
[03]  G17  7  9   -946.7 2046001.3 -0.1 -0.2 20  0         9
[17]  B12  1  7  -1953.8 4092003.9  0.1  0.0  1  0      1849
[18]  B13  1  7   -112.4 4091999.9 -0.0  0.0  1  0      1828
[19]  B24  1  7    988.5 4091997.8  0.0  0.0  1  0         0
$GNGGA,000000.000,,,,,0,00,,,M,,,,0000*2B
$GNRMC,000000.000,A,,,,,,,000000,,*26
$GPGSA,A,1,,,,,,,,,,,,,,,*1E
$BDGSA,A,1,,,,,,,,,,,,,,,*0F
$LOGTIM,0,0.000000,0.000000,0.000000,0.000000,0.000*0A
EndT:        0
---00000011--- Acq_st=7 2019-5-14 10:03:23 
[03]  G17  7  7   -945.0 2046001.3  0.1 -0.3 20  0         9
[19]  B24  1  7   1148.1 4091998.6  0.1  0.0  1  0       999
$GNGGA,000000.000,,,,,0,00,,,M,,,,0000*2B
$GNRMC,000000.000,A,,,,,,,000000,,*26
$GPGSA,A,1,,,,,,,,,,,,,,,*1E
$BDGSA,A,1,,,,,,,,,,,,,,,*0F
$LOGTIM,0,0.000000,0.000000,0.000000,0.000000,0.000*0A
EndT:        0
---00000012--- Acq_st=7 2019-5-14 10:03:24 
[03]  G17  7  8   -951.0 2046001.4 -0.1 -0.2 20  0         9
[19]  B24  1  8   1317.8 4091998.2 -0.1  0.0  1  0      1999
$GNGGA,000000.000,,,,,0,00,,,M,,,,0000*2B
$GNRMC,000000.000,A,,,,,,,000000,,*26
$GPGSA,A,1,,,,,,,,,,,,,,,*1E
$BDGSA,A,1,,,,,,,,,,,,,,,*0F
$LOGTIM,0,0.000000,0.000000,0.000000,0.000000,0.000*0A
EndT:        0
---00000013--- Acq_st=7 2019-5-14 10:03:25 
[03]  G17  7  7   -938.2 2046001.4  0.1 -0.2 20  0         9
$GNGGA,000000.000,,,,,0,00,,,M,,,,0000*2B
$GNRMC,000000.000,A,,,,,,,000000,,*26
$GPGSA,A,1,,,,,,,,,,,,,,,*1E
$BDGSA,A,1,,,,,,,,,,,,,,,*0F
$LOGTIM,0,0.000000,0.000000,0.000000,0.000000,0.000*0A
EndT:        0
---00000014--- Acq_st=3 2019-5-14 10:03:26 
[00]  G02  1  7  -3549.5 2046003.9  0.1  0.0  1  0         5
[01]  G03  1  7    726.5 2046000.5  0.0  0.0  1  0        13
$GNGGA,000000.000,,,,,0,00,,,M,,,,0000*2B
$GNRMC,000000.000,A,,,,,,,000000,,*26
$GPGSA,A,1,,,,,,,,,,,,,,,*1E
$BDGSA,A,1,,,,,,,,,,,,,,,*0F
$LOGTIM,0,0.000000,0.000000,0.000000,0.000000,0.000*0A
EndT:        0
---00000015--- Acq_st=3 2019-5-14 10:03:27 
[00]  G02  1  7  -3734.3 2046004.4 -0.0  0.0  1  0        12
[01]  G03  1  7    627.5 2046000.3 -0.1  0.0  1  0        19
[02]  G06  1  7   -973.9 2046001.0  0.1  0.0  1  0        17
$GNGGA,000000.000,,,,,0,00,,,M,,,,0000*2B
$GNRMC,000000.000,A,,,,,,,000000,,*26
$GPGSA,A,1,,,,,,,,,,,,,,,*1E
$BDGSA,A,1,,,,,,,,,,,,,,,*0F
$LOGTIM,0,0.000000,0.000000,0.000000,0.000000,0.000*0A
EndT:        0
---00000016--- Acq_st=3 2019-5-14 10:03:28 
[00]  G02  1  7  -3745.6 2046004.3  0.0  0.0  1  0        12
[01]  G03  1  7    367.3 2046000.1 -0.1  0.0  1  0        19
[02]  G06  1  7  -1014.7 2046001.4 -0.1  0.0  1  0         0
[03]  G12  1  7  -4213.4 2046005.0 -0.1  0.0  1  0         9
$GNGGA,000000.000,,,,,0,00,,,M,,,,0000*2B
$GNRMC,000000.000,A,,,,,,,000000,,*26
$GPGSA,A,1,,,,,,,,,,,,,,,*1E
$BDGSA,A,1,,,,,,,,,,,,,,,*0F
$LOGTIM,0,0.000000,0.000000,0.000000,0.000000,0.000*0A
EndT:        0
---00000017--- Acq_st=3 2019-5-14 10:03:29 
[02]  G06  1  7  -1004.1 2046001.3 -0.1  0.0  1  0         0
[03]  G12  1 12  -4283.9 2046004.9  0.0  0.0  1  0         4
[04]  G19  1  7  -3403.7 2046004.0 -0.0  0.0  1  0         6
$GNGGA,000000.000,,,,,0,00,,,M,,,,0000*2B
$GNRMC,000000.000,A,,,,,,,000000,,*26
$GPGSA,A,1,,,,,,,,,,,,,,,*1E
$BDGSA,A,1,,,,,,,,,,,,,,,*0F
$LOGTIM,0,0.000000,0.000000,0.000000,0.000000,0.000*0A
EndT:        0
---00000018--- Acq_st=3 2019-5-14 10:03:30 
[03]  G12  1  7  -4236.1 2046005.4 -0.0  0.0  1  0         4
[04]  G19  1  7  -3497.3 2046004.3 -0.0  0.0  1  0         7
$GNGGA,000000.000,,,,,0,00,,,M,,,,0000*2B
$GNRMC,000000.000,A,,,,,,,000000,,*26
$GPGSA,A,1,,,,,,,,,,,,,,,*1E
$BDGSA,A,1,,,,,,,,,,,,,,,*0F
$LOGTIM,0,0.000000,0.000000,0.000000,0.000000,0.000*0A
EndT:        0
---00000019--- Acq_st=3 2019-5-14 10:03:31 
[03]  G12  7  7  -4102.8 2046005.3 -0.1  0.0 20  0         4
[04]  G19  1  7  -3464.9 2046004.0 -0.2  0.0  1  0         7
$GNGGA,000000.000,,,,,0,00,,,M,,,,0000*2B
$GNRMC,000000.000,A,,,,,,,000000,,*26
$GPGSA,A,1,,,,,,,,,,,,,,,*1E
$BDGSA,A,1,,,,,,,,,,,,,,,*0F
$LOGTIM,0,0.000000,0.000000,0.000000,0.000000,0.000*0A
EndT:        0
---00000020--- Acq_st=3 2019-5-14 10:03:32 
[03]  G12  7  7  -4099.4 2046005.2  0.0 -0.2 20  0        17
$GNGGA,000000.000,,,,,0,00,,,M,,,,0000*2B
$GNRMC,000000.000,A,,,,,,,000000,,*26
$GPGSA,A,1,,,,,,,,,,,,,,,*1E
$BDGSA,A,1,,,,,,,,,,,,,,,*0F
$LOGTIM,0,0.000000,0.000000,0.000000,0.000000,0.000*0A
EndT:        0
---00000021--- Acq_st=3 2019-5-14 10:03:33 
[03]  G12  7  7  -4089.7 2046005.3 -0.0 -0.2 20  0        17
$GNGGA,000000.000,,,,,0,00,,,M,,,,0000*2B
$GNRMC,000000.000,A,,,,,,,000000,,*26
$GPGSA,A,1,,,,,,,,,,,,,,,*1E
$BDGSA,A,1,,,,,,,,,,,,,,,*0F
$LOGTIM,0,0.000000,0.000000,0.000000,0.000000,0.000*0A
EndT:        0
---00000022--- Acq_st=3 2019-5-14 10:03:34 
[03]  G12  7  7  -4090.7 2046005.2  0.1  0.0 20  0        17
[16]  B13  1  7    -12.2 4092000.1  0.1  0.0  1  0      2532
$GNGGA,000000.000,,,,,0,00,,,M,,,,0000*2B
$GNRMC,000000.000,A,,,,,,,000000,,*26
$GPGSA,A,1,,,,,,,,,,,,,,,*1E
$BDGSA,A,1,,,,,,,,,,,,,,,*0F
$LOGTIM,0,0.000000,0.000000,0.000000,0.000000,0.000*0A
EndT:        0
---00000023--- Acq_st=3 2019-5-14 10:03:35 
[03]  G12  7  7  -4069.9 2046005.2  0.4 -0.3 20  0        17
[16]  B13  1  7     52.3 4092000.0  0.0  0.0  1  0       169
$GNGGA,000000.000,,,,,0,00,,,M,,,,0000*2B
$GNRMC,000000.000,A,,,,,,,000000,,*26
$GPGSA,A,1,,,,,,,,,,,,,,,*1E
$BDGSA,A,1,,,,,,,,,,,,,,,*0F
$LOGTIM,0,0.000000,0.000000,0.000000,0.000000,0.000*0A
EndT:        0
---00000024--- Acq_st=3 2019-5-14 10:03:36 
[03]  G12  7  7  -4069.1 2046005.2  0.0  0.0 20  0        17
[16]  B13  1  7   -189.1 4091999.8  0.0  0.0  1  0      1169
[17]  B19  1  7   1569.9 4091997.1 -0.0  0.0  1  0      2849
[18]  B20  1  7   2981.5 4091993.3 -0.0  0.0  1  0      2828
$GNGGA,000000.000,,,,,0,00,,,M,,,,0000*2B
$GNRMC,000000.000,A,,,,,,,000000,,*26
$GPGSA,A,1,,,,,,,,,,,,,,,*1E
$BDGSA,A,1,,,,,,,,,,,,,,,*0F
$LOGTIM,0,0.000000,0.000000,0.000000,0.000000,0.000*0A
EndT:        0
---00000025--- Acq_st=3 2019-5-14 10:03:37 
[03]  G12  7 10  -4081.0 2046005.2 -0.0  0.0 20  0        17
[16]  B13  1  7     65.3 4092000.1  0.1  0.0  1  0      2169
[17]  B19  1 11   1812.3 4091996.8 -0.1  0.0  1  0       844
[18]  B20  1  7   2878.1 4091992.7 -0.1  0.0  1  0       623
$GNGGA,000000.000,,,,,0,00,,,M,,,,0000*2B
$GNRMC,000000.000,A,,,,,,,000000,,*26
$GPGSA,A,1,,,,,,,,,,,,,,,*1E
$BDGSA,A,1,,,,,,,,,,,,,,,*0F
$LOGTIM,0,0.000000,0.000000,0.000000,0.000000,0.000*0A
EndT:        0
---00000026--- Acq_st=3 2019-5-14 10:03:38 
[17]  B19  1  7   2135.8 4091997.1 -0.1  0.0  1  0      1844
[18]  B20  1  7   2933.5 4091993.1 -0.0  0.0  1  0      1623
$GNGGA,000000.000,,,,,0,00,,,M,,,,0000*2B
$GNRMC,000000.000,A,,,,,,,000000,,*26
$GPGSA,A,1,,,,,,,,,,,,,,,*1E
$BDGSA,A,1,,,,,,,,,,,,,,,*0F
$LOGTIM,0,0.000000,0.000000,0.000000,0.000000,0.000*0A
EndT:        0
---00000027--- Acq_st=7 2019-5-14 10:03:39 
$GNGGA,000000.000,,,,,0,00,,,M,,,,0000*2B
$GNRMC,000000.000,A,,,,,,,000000,,*26
$GPGSA,A,1,,,,,,,,,,,,,,,*1E
$BDGSA,A,1,,,,,,,,,,,,,,,*0F
$LOGTIM,0,0.000000,0.000000,0.000000,0.000000,0.000*0A
EndT:        0
---00000028--- Acq_st=7 2019-5-14 10:03:40 
$GNGGA,000000.000,,,,,0,00,,,M,,,,0000*2B
$GNRMC,000000.000,A,,,,,,,000000,,*26
$GPGSA,A,1,,,,,,,,,,,,,,,*1E
$BDGSA,A,1,,,,,,,,,,,,,,,*0F
$LOGTIM,0,0.000000,0.000000,0.000000,0.000000,0.000*0A
EndT:        0
---00000029--- Acq_st=3 2019-5-14 10:03:41 
[00]  G02  1  7  -2506.7 2046003.1 -0.1  0.0  1  0        12
[01]  G03  1  7    684.4 2046000.1  0.0  0.0  1  0        19
$GNGGA,000000.000,,,,,0,00,,,M,,,,0000*2B
$GNRMC,000000.000,A,,,,,,,000000,,*26
$GPGSA,A,1,,,,,,,,,,,,,,,*1E
$BDGSA,A,1,,,,,,,,,,,,,,,*0F
$LOGTIM,0,0.000000,0.000000,0.000000,0.000000,0.000*0A
EndT:        1
---00000030--- Acq_st=3 2019-5-14 10:03:42 
[00]  G02  1  7  -2560.0 2046003.0 -0.0  0.0  1  0        14
[01]  G03  1  7    518.8 2046000.0  0.0  0.0  1  0         1
[02]  G06  1  7  -2056.5 2046002.1 -0.0  0.0  1  0         0
$GNGGA,000000.000,,,,,0,00,,,M,,,,0000*2B
$GNRMC,000000.000,A,,,,,,,000000,,*26
$GPGSA,A,1,,,,,,,,,,,,,,,*1E
$BDGSA,A,1,,,,,,,,,,,,,,,*0F
$LOGTIM,0,0.000000,0.000000,0.000000,0.000000,0.000*0A
EndT:        0
---00000031--- Acq_st=3 2019-5-14 10:03:43 
[00]  G02  1  7  -2494.1 2046003.0  0.0  0.0  1  0        14
[01]  G03  1  7    415.1 2046000.5 -0.1  0.0  1  0         1
[02]  G06  1 15  -2321.6 2046002.2 -0.2  0.0  1  0         3
[03]  G12  1  7  -4172.2 2046004.7  0.0  0.0  1  0        17
$GNGGA,000000.000,,,,,0,00,,,M,,,,0000*2B
$GNRMC,000000.000,A,,,,,,,000000,,*26
$GPGSA,A,1,,,,,,,,,,,,,,,*1E
$BDGSA,A,1,,,,,,,,,,,,,,,*0F
$LOGTIM,0,0.000000,0.000000,0.000000,0.000000,0.000*0A
EndT:        0
---00000032--- Acq_st=3 2019-5-14 10:03:44 
[02]  G06  1 12  -2257.0 2046001.3 -0.1  0.0  1  0         3
[03]  G12  1 14  -4146.5 2046005.3 -0.1  0.0  1  0         6
[04]  G17  1  7  -1893.4 2046001.4  0.1  0.0  1  0         7
[05]  G19  1  7  -2352.4 2046002.0 -0.0  0.0  1  0         0
$GNGGA,000000.000,,,,,0,00,,,M,,,,0000*2B
$GNRMC,000000.000,A,,,,,,,000000,,*26
$GPGSA,A,1,,,,,,,,,,,,,,,*1E
$BDGSA,A,1,,,,,,,,,,,,,,,*0F
$LOGTIM,0,0.000000,0.000000,0.000000,0.000000,0.000*0A
EndT:        0
---00000033--- Acq_st=3 2019-5-14 10:03:45 
[03]  G12  1 13  -4150.0 2046005.2  0.1  0.0  1  0         6
[04]  G17  1  7  -1811.5 2046001.6 -0.0  0.0  1  0         2
[05]  G19  1  7  -2460.2 2046001.6 -0.0  0.0  1  0        16
$GNGGA,000000.000,,,,,0,00,,,M,,,,0000*2B
$GNRMC,000000.000,A,,,,,,,000000,,*26
$GPGSA,A,1,,,,,,,,,,,,,,,*1E
$BDGSA,A,1,,,,,,,,,,,,,,,*0F
$LOGTIM,0,0.000000,0.000000,0.000000,0.000000,0.000*0A
EndT:        0
---00000034--- Acq_st=3 2019-5-14 10:03:46 
[04]  G17  1  7  -1809.2 2046001.5  0.0  0.0  1  0         2
[05]  G19  1  7  -2425.8 2046002.0  0.1  0.0  1  0        16
$GNGGA,000000.000,,,,,0,00,,,M,,,,0000*2B
$GNRMC,000000.000,A,,,,,,,000000,,*26
$GPGSA,A,1,,,,,,,,,,,,,,,*1E
$BDGSA,A,1,,,,,,,,,,,,,,,*0F
$LOGTIM,0,0.000000,0.000000,0.000000,0.000000,0.000*0A
EndT:        0
---00000035--- Acq_st=3 2019-5-14 10:03:47 
$GNGGA,000000.000,,,,,0,00,,,M,,,,0000*2B
$GNRMC,000000.000,A,,,,,,,000000,,*26
$GPGSA,A,1,,,,,,,,,,,,,,,*1E
$BDGSA,A,1,,,,,,,,,,,,,,,*0F
$LOGTIM,0,0.000000,0.000000,0.000000,0.000000,0.000*0A
EndT:        0
---00000036--- Acq_st=3 2019-5-14 10:03:48 
[16]  B08  1  7  -1607.3 4092004.0  0.0  0.0  1  0      3169
$GNGGA,000000.000,,,,,0,00,,,M,,,,0000*2B
$GNRMC,000000.000,A,,,,,,,000000,,*26
$GPGSA,A,1,,,,,,,,,,,,,,,*1E
$BDGSA,A,1,,,,,,,,,,,,,,,*0F
$LOGTIM,0,0.000000,0.000000,0.000000,0.000000,0.000*0A
EndT:        0
---00000037--- Acq_st=3 2019-5-14 10:03:49 
[16]  B08  1  8  -1487.3 4092004.2 -0.0  0.0  1  0       102
[17]  B12  1  7  -4759.0 4092012.1  0.0  0.0  1  0      2844
$GNGGA,000000.000,,,,,0,00,,,M,,,,0000*2B
$GNRMC,000000.000,A,,,,,,,000000,,*26
$GPGSA,A,1,,,,,,,,,,,,,,,*1E
$BDGSA,A,1,,,,,,,,,,,,,,,*0F
$LOGTIM,0,0.000000,0.000000,0.000000,0.000000,0.000*0A
EndT:        0
---00000115--- Acq_st=3 2019-5-14 10:05:7 
[17]  B19  1  7   1420.5 4091996.9  0.1  0.0  1  0       785
$GNGGA,000000.000,,,,,0,00,,,M,,,,0000*2B
$GNRMC,000000.000,A,,,,,,,000000,,*26
$GPGSA,A,1,,,,,,,,,,,,,,,*1E
$BDGSA,A,1,,,,,,,,,,,,,,,*0F
$LOGTIM,0,0.000000,0.000000,0.000000,0.000000,0.000*0A
EndT:        0
---00000116--- Acq_st=3 2019-5-14 10:05:8 
[17]  B19  1  7   1706.5 4091997.0 -0.1  0.0  1  0      1785
$GNGGA,000000.000,,,,,0,00,,,M,,,,0000*2B
$GNRMC,000000.000,A,,,,,,,000000,,*26
$GPGSA,A,1,,,,,,,,,,,,,,,*1E
$BDGSA,A,1,,,,,,,,,,,,,,,*0F
$LOGTIM,0,0.000000,0.000000,0.000000,0.000000,0.000*0A
EndT:        0
---00000117--- Acq_st=7 2019-5-14 10:05:9 
$GNGGA,000000.000,,,,,0,00,,,M,,,,0000*2B
$GNRMC,000000.000,A,,,,,,,000000,,*26
$GPGSA,A,1,,,,,,,,,,,,,,,*1E
$BDGSA,A,1,,,,,,,,,,,,,,,*0F
$LOGTIM,0,0.000000,0.000000,0.000000,0.000000,0.000*0A
EndT:        0
---00000118--- Acq_st=7 2019-5-14 10:05:10 
$GNGGA,000000.000,,,,,0,00,,,M,,,,0000*2B
$GNRMC,000000.000,A,,,,,,,000000,,*26
$GPGSA,A,1,,,,,,,,,,,,,,,*1E
$BDGSA,A,1,,,,,,,,,,,,,,,*0F
$LOGTIM,0,0.000000,0.000000,0.000000,0.000000,0.000*0A
EndT:        0
---00000119--- Acq_st=3 2019-5-14 10:05:11 
[00]  G02  1  7  -3496.1 2046003.7  0.0  0.0  1  0         9
$GNGGA,000000.000,,,,,0,00,,,M,,,,0000*2B
$GNRMC,000000.000,A,,,,,,,000000,,*26
$GPGSA,A,1,,,,,,,,,,,,,,,*1E
$BDGSA,A,1,,,,,,,,,,,,,,,*0F
$LOGTIM,0,0.000000,0.000000,0.000000,0.000000,0.000*0A
EndT:        0
---00000120--- Acq_st=3 2019-5-14 10:05:12 
[00]  G02  1  7  -3567.6 2046003.9 -0.1  0.0  1  0         7
[01]  G06  1  7   -925.4 2046001.1 -0.0  0.0  1  0        16
$GNGGA,000000.000,,,,,0,00,,,M,,,,0000*2B
$GNRMC,000000.000,A,,,,,,,000000,,*26
$GPGSA,A,1,,,,,,,,,,,,,,,*1E
$BDGSA,A,1,,,,,,,,,,,,,,,*0F
$LOGTIM,0,0.000000,0.000000,0.000000,0.000000,0.000*0A
EndT:        0
---00000121--- Acq_st=3 2019-5-14 10:05:13 
[00]  G02  1  7  -3659.0 2046004.1 -0.0  0.0  1  0         7
[01]  G06  1  7   -863.0 2046001.3 -0.0  0.0  1  0        16
[02]  G12  1  7  -4368.3 2046004.6  0.1  0.0  1  0        14
$GNGGA,000000.000,,,,,0,00,,,M,,,,0000*2B
$GNRMC,000000.000,A,,,,,,,000000,,*26
$GPGSA,A,1,,,,,,,,,,,,,,,*1E
$BDGSA,A,1,,,,,,,,,,,,,,,*0F
$LOGTIM,0,0.000000,0.000000,0.000000,0.000000,0.000*0A
EndT:        0
---00000122--- Acq_st=3 2019-5-14 10:05:14 
[01]  G06  1  7   -640.0 2046001.5  0.0  0.0  1  0        16
[02]  G12  1  7  -4446.0 2046005.3 -0.0  0.0  1  0        19
[03]  G17  1  7  -1050.5 2046001.3 -0.1  0.0  1  0        17
[04]  G19  1  7  -3329.0 2046003.8  0.0  0.0  1  0        13
$GNGGA,000000.000,,,,,0,00,,,M,,,,0000*2B
$GNRMC,000000.000,A,,,,,,,000000,,*26
$GPGSA,A,1,,,,,,,,,,,,,,,*1E
$BDGSA,A,1,,,,,,,,,,,,,,,*0F
$LOGTIM,0,0.000000,0.000000,0.000000,0.000000,0.000*0A
EndT:        0
---00000123--- Acq_st=3 2019-5-14 10:05:15 
[00]  G22  1  7   2971.9 2045997.0 -0.0  0.0  1  0         7
[02]  G12  1  7  -4382.7 2046004.5 -0.0  0.0  1  0        19
[03]  G17  1  7   -932.6 2046001.2  0.0  0.0  1  0        15
[04]  G19  1  7  -3367.8 2046003.8 -0.0  0.0  1  0        10
$GNGGA,000000.000,,,,,0,00,,,M,,,,0000*2B
$GNRMC,000000.000,A,,,,,,,000000,,*26
$GPGSA,A,1,,,,,,,,,,,,,,,*1E
$BDGSA,A,1,,,,,,,,,,,,,,,*0F
$LOGTIM,0,0.000000,0.000000,0.000000,0.000000,0.000*0A
EndT:        0
---00000124--- Acq_st=3 2019-5-14 10:05:16 
[00]  G22  1  7   3101.3 2045996.9 -0.1  0.0  1  0        11
[03]  G17  1 15   -799.0 2046001.2  0.1  0.0  1  0        15
[04]  G19  1  7  -3694.3 2046004.1  0.1  0.0  1  0        10
$GNGGA,000000.000,,,,,0,00,,,M,,,,0000*2B
$GNRMC,000000.000,A,,,,,,,000000,,*26
$GPGSA,A,1,,,,,,,,,,,,,,,*1E
$BDGSA,A,1,,,,,,,,,,,,,,,*0F
$LOGTIM,0,0.000000,0.000000,0.000000,0.000000,0.000*0A
EndT:        0
---00000125--- Acq_st=3 2019-5-14 10:05:17 
[00]  G22  1  7   3121.4 2045996.6 -0.0  0.0  1  0        11
$GNGGA,000000.000,,,,,0,00,,,M,,,,0000*2B
$GNRMC,000000.000,A,,,,,,,000000,,*26
$GPGSA,A,1,,,,,,,,,,,,,,,*1E
$BDGSA,A,1,,,,,,,,,,,,,,,*0F
$LOGTIM,0,0.000000,0.000000,0.000000,0.000000,0.000*0A
EndT:        0

