FlashID=0x1 0x20 0x18

BBram_blkflag1: 24ee: db11

FW Ver: 1.30  
GPS00 Init Dop:  -2427,  2
GPS01 Init Dop:   1883,  2
GPS02 Init Dop:  -3080,  2
GPS03 Init Dop:  -5000, 41
GPS04 Init Dop:  -5000, 41
GPS05 Init Dop:    892,  2
GPS06 Init Dop:  -5000, 41
GPS07 Init Dop:  -5000, 41
GPS08 Init Dop:  -5000, 41
GPS09 Init Dop:  -5000, 41
GPS10 Init Dop:  -5000, 41
GPS11 Init Dop:   3244,  2
GPS12 Init Dop:  -5000, 41
GPS13 Init Dop:  -5000, 41
GPS14 Init Dop:  -5000, 41
GPS15 Init Dop:  -5000, 41
GPS16 Init Dop:    512,  2
GPS17 Init Dop:  -5000, 41
GPS18 Init Dop:   1349,  2
GPS19 Init Dop:  -5000, 41
GPS20 Init Dop:  -5000, 41
GPS21 Init Dop:  -3168,  2
GPS22 Init Dop:  -5000, 41
GPS23 Init Dop:  -5000, 41
GPS24 Init Dop:  -5000, 41
GPS25 Init Dop:  -5000, 41
GPS26 Init Dop:  -5000, 41
GPS27 Init Dop:  -5000, 41
GPS28 Init Dop:  -5000, 41
GPS29 Init Dop:  -5000, 41
GPS30 Init Dop:  -5000, 41
GPS31 Init Dop:  -5000, 41
BDS00 Init Dop:  -5000, 41
BDS01 Init Dop:  -5000, 41
BDS02 Init Dop:  -5000, 41
BDS03 Init Dop:  -5000, 41
BDS04 Init Dop:  -5000, 41
BDS05 Init Dop:  -5000, 41
BDS06 Init Dop:  -5000, 41
BDS07 Init Dop:    110,  2
BDS08 Init Dop:  -5000, 41
BDS09 Init Dop:  -5000, 41
BDS10 Init Dop:  -5000, 41
BDS11 Init Dop:   1851,  2
BDS12 Init Dop:    198,  2
BDS13 Init Dop:  -5000, 41
BDS14 Init Dop:  -5000, 41
BDS15 Init Dop:  -5000, 41
BDS16 Init Dop:  -5000, 41
BDS17 Init Dop:  -5000, 41
BDS18 Init Dop:  -1271,  2
BDS19 Init Dop:  -2862,  2
BDS20 Init Dop:  -5000, 41
BDS21 Init Dop:  -5000, 41
BDS22 Init Dop:  -5000, 41
BDS23 Init Dop:  -1168,  2
BDS24 Init Dop:  -5000, 41
BDS25 Init Dop:  -5000, 41
BDS26 Init Dop:  -5000, 41
BDS27 Init Dop:  -5000, 41
BDS28 Init Dop:  -5000, 41
BDS29 Init Dop:  -5000, 41
BDS30 Init Dop:  -5000, 41
BDS31 Init Dop:  -5000, 41
good luck!
sat0 = 2681 540 1158 -2427
sat1 = 38672 1445 1437 1883
sat2 = 2495 1451 1130 -3330
sat3 = 8513 1931 2603 -13250
sat4 = 9838 1738 3888 -12500
sat5 = 308609 457 5549 892
sat6 = 8869 324 3874 -6250
sat7 = 10627 1649 3954 -11000
---00000001--- Acq_st=3 2019-5-14 10:15:58 
[00]  G02  1  7  -1849.6 2046001.8  0.0  0.0  1  0         0
[01]  G06  1  7   -887.1 2046000.8 -0.1  0.0  1  0         0
$GNGGA,000000.000,,,,,0,00,,,M,,,,0000*2B

$GNRMC,000000.000,A,,,,,,,000000,,*26

$GPGSA,A,1,,,,,,,,,,,,,,,*1E

$BDGSA,A,1,,,,,,,,,,,,,,,*0F

$LOGTIM,0,0.000000,0.000000,0.000000,0.000000,0.000*0A

EndT:        0
sat8 = 9815 862 3881 -12000
sat9 = 10231 110 3955 -13750
sat10 = 9384 211 3928 -8250
sat11 = 136771 1135 5425 3244
sat12 = 10302 1704 3915 -14500
sat13 = 10512 972 4040 -12250
---00000002--- Acq_st=3 2019-5-14 10:15:59 
[00]  G02  1  7  -1915.3 2046002.0  0.1  0.0  1  0         5
[01]  G06  1  7   -909.4 2046001.6  0.1  0.0  1  0        13
[02]  G12  1  7  -3240.7 2046004.3 -0.0  0.0  1  0         0
$GNGGA,000000.000,,,,,0,00,,,M,,,,0000*2B

$GNRMC,000000.000,A,,,,,,,000000,,*26

$GPGSA,A,1,,,,,,,,,,,,,,,*1E

$BDGSA,A,1,,,,,,,,,,,,,,,*0F

$LOGTIM,0,0.000000,0.000000,0.000000,0.000000,0.000*0A

EndT:        1
sat14 = 9458 514 3844 -10250
sat15 = 10766 1303 4007 -10250
sat16 = 77376 667 5408 512
sat17 = 10888 701 4108 -11250
sat18 = 130493 356 5379 1349
sat19 = 10030 39 3972 -7000
sat20 = 9206 2030 3759 -11750
sat21 = 8360 2013 3970 -3168
---00000003--- Acq_st=3 2019-5-14 10:16:0 
[00]  G02  1  7  -1668.5 2046001.3  0.1  0.0  1  0         5
[01]  G06  1 10   -994.5 2046001.6 -0.0  0.0  1  0        13
[02]  G12  1  7  -3404.2 2046003.9 -0.0  0.0  1  0        17
[03]  G17  1  7   -473.9 2046000.1 -0.1  0.0  1  0         0
[04]  G19  1  7  -1313.4 2046001.0  0.1  0.0  1  0         0
$GNGGA,000000.000,,,,,0,00,,,M,,,,0000*2B

$GNRMC,000000.000,A,,,,,,,000000,,*26

$GPGSA,A,1,,,,,,,,,,,,,,,*1E

$BDGSA,A,1,,,,,,,,,,,,,,,*0F

$LOGTIM,0,0.000000,0.000000,0.000000,0.000000,0.000*0A

EndT:        1
sat22 = 9959 1497 3924 -5250
sat23 = 9092 1631 3810 -7750
sat24 = 10006 1625 3942 -7500
sat25 = 9991 116 4156 -5000
sat26 = 9617 858 3871 -5000
---00000004--- Acq_st=3 2019-5-14 10:16:1 
[02]  G12  1  7  -3236.9 2046004.6  0.2  0.0  1  0        17
[03]  G17  1  7   -412.6 2046000.5  0.1  0.0  1  0        13
[04]  G19  1  7  -1331.8 2046000.5 -0.0  0.0  1  0         6
$GNGGA,000000.000,,,,,0,00,,,M,,,,0000*2B

$GNRMC,000000.000,A,,,,,,,000000,,*26

$GPGSA,A,1,,,,,,,,,,,,,,,*1E

$BDGSA,A,1,,,,,,,,,,,,,,,*0F

$LOGTIM,0,0.000000,0.000000,0.000000,0.000000,0.000*0A

EndT:        0
sat27 = 9605 405 3952 -13500
sat28 = 9581 1366 3856 -12750
sat29 = 11053 1334 3921 -15000
sat30 = 11404 2013 3919 -5250
sat31 = 10323 677 3935 -7750
---00000005--- Acq_st=3 2019-5-14 10:16:2 
[03]  G17  1  7   -465.6 2046000.2  0.1  0.0  1  0        13
[04]  G19  1  7  -1333.7 2046000.7 -0.1  0.0  1  0         6
$GNGGA,000000.000,,,,,0,00,,,M,,,,0000*2B

$GNRMC,000000.000,A,,,,,,,000000,,*26

$GPGSA,A,1,,,,,,,,,,,,,,,*1E

$BDGSA,A,1,,,,,,,,,,,,,,,*0F

$LOGTIM,0,0.000000,0.000000,0.000000,0.000000,0.000*0A

EndT:        0
sat37 = 2782 2037 1023 -11750
sat38 = 2560 719 1030 -9250
sat39 = 2751 1441 1023 -13250
sat40 = 2672 3141 1046 -11000
---00000006--- Acq_st=3 2019-5-14 10:16:3 
$GNGGA,000000.000,,,,,0,00,,,M,,,,0000*2B

$GNRMC,000000.000,A,,,,,,,000000,,*26

$GPGSA,A,1,,,,,,,,,,,,,,,*1E

$BDGSA,A,1,,,,,,,,,,,,,,,*0F

$LOGTIM,0,0.000000,0.000000,0.000000,0.000000,0.000*0A

EndT:        0
sat41 = 2628 2211 1012 -11500
sat42 = 2883 1856 1022 -5250
sat43 = 2659 1442 1013 -7750
sat44 = 3002 1851 1332 110
sat45 = 2590 3427 1021 -14500
sat46 = 2794 2182 1051 -9250
---00000007--- Acq_st=3 2019-5-14 10:16:4 
$GNGGA,000000.000,,,,,0,00,,,M,,,,0000*2B

$GNRMC,000000.000,A,,,,,,,000000,,*26

$GPGSA,A,1,,,,,,,,,,,,,,,*1E

$BDGSA,A,1,,,,,,,,,,,,,,,*0F

$LOGTIM,0,0.000000,0.000000,0.000000,0.000000,0.000*0A

EndT:        0
sat47 = 2746 1969 1003 -5250
sat48 = 48519 99 1376 1851
sat49 = 2937 1539 1328 198
sat50 = 2611 1323 1011 -9750
sat51 = 2380 228 1010 -9500
sat52 = 2638 3438 1036 -13000
---00000008--- Acq_st=3 2019-5-14 10:16:5 
[16]  B12  1  7  -1763.9 4092003.7 -0.1  0.0  1  0         0
$GNGGA,000000.000,,,,,0,00,,,M,,,,0000*2B

$GNRMC,000000.000,A,,,,,,,000000,,*26

$GPGSA,A,1,,,,,,,,,,,,,,,*1E

$BDGSA,A,1,,,,,,,,,,,,,,,*0F

$LOGTIM,0,0.000000,0.000000,0.000000,0.000000,0.000*0A

EndT:        0
sat53 = 2385 3177 1020 -12250
sat54 = 2489 2569 1013 -13750
sat55 = 2326 3062 1020 -1271
sat56 = 2340 1192 997 -3112
sat57 = 2447 2686 1002 -5000
sat58 = 2674 1569 1009 -9750
sat59 = 2514 1339 1014 -10000
---00000009--- Acq_st=3 2019-5-14 10:16:6 
[16]  B12  1  7  -1707.7 4092003.8 -0.0  0.0  1  0       849
sat60 = 2843 3650 1020 -1168
$GNGGA,000000.000,,,,,0,00,,,M,,,,0000*2B

$GNRMC,000000.000,A,,,,,,,000000,,*26

$GPGSA,A,1,,,,,,,,,,,,,,,*1E

$BDGSA,A,1,,,,,,,,,,,,,,,*0F

$LOGTIM,0,0.000000,0.000000,0.000000,0.000000,0.000*0A

EndT:        0
sat61 = 2533 4042 1009 -5000
sat62 = 2677 332 1024 -14500
sat63 = 2570 3740 1014 -10000
sat64 = 2752 1691 1017 -10500
---00000010--- Acq_st=3 2019-5-14 10:16:7 
[16]  B12  1  7  -1861.7 4092004.0  0.0  0.0  1  0      1849
$GNGGA,000000.000,,,,,0,00,,,M,,,,0000*2B

$GNRMC,000000.000,A,,,,,,,000000,,*26

$GPGSA,A,1,,,,,,,,,,,,,,,*1E

$BDGSA,A,1,,,,,,,,,,,,,,,*0F

$LOGTIM,0,0.000000,0.000000,0.000000,0.000000,0.000*0A

EndT:        0
sat65 = 2639 2839 1026 -7250
sat66 = 2543 2647 1007 -11000
sat67 = 2795 9 1012 -11000
sat68 = 2423 1397 1021 -14000
---00000011--- Acq_st=7 2019-5-14 10:16:8 
$GNGGA,000000.000,,,,,0,00,,,M,,,,0000*2B

$GNRMC,000000.000,A,,,,,,,000000,,*26

$GPGSA,A,1,,,,,,,,,,,,,,,*1E

$BDGSA,A,1,,,,,,,,,,,,,,,*0F

$LOGTIM,0,0.000000,0.000000,0.000000,0.000000,0.000*0A

EndT:        0
---00000012--- Acq_st=7 2019-5-14 10:16:9 
$GNGGA,000000.000,,,,,0,00,,,M,,,,0000*2B

$GNRMC,000000.000,A,,,,,,,000000,,*26

$GPGSA,A,1,,,,,,,,,,,,,,,*1E

$BDGSA,A,1,,,,,,,,,,,,,,,*0F

$LOGTIM,0,0.000000,0.000000,0.000000,0.000000,0.000*0A

EndT:        0
---00000013--- Acq_st=7 2019-5-14 10:16:10 
$GNGGA,000000.000,,,,,0,00,,,M,,,,0000*2B

$GNRMC,000000.000,A,,,,,,,000000,,*26

$GPGSA,A,1,,,,,,,,,,,,,,,*1E

$BDGSA,A,1,,,,,,,,,,,,,,,*0F

$LOGTIM,0,0.000000,0.000000,0.000000,0.000000,0.000*0A

EndT:        0
sat0 = 14555 730 5346 -4750
sat1 = 236268 277 5405 3500
sat2 = 49130 1199 5369 -3000
sat3 = 15022 1816 5413 -2000
sat4 = 16254 446 5353 0
---00000014--- Acq_st=3 2019-5-14 10:16:11 
[00]  G02  1  7  -3563.6 2046004.0 -0.0  0.0  1  0         5
[01]  G03  1  7   2929.8 2045997.4 -0.0  0.0  1  0        13
$GNGGA,000000.000,,,,,0,00,,,M,,,,0000*2B

$GNRMC,000000.000,A,,,,,,,000000,,*26

$GPGSA,A,1,,,,,,,,,,,,,,,*1E

$BDGSA,A,1,,,,,,,,,,,,,,,*0F

$LOGTIM,0,0.000000,0.000000,0.000000,0.000000,0.000*0A

EndT:        0
sat5 = 342254 33 5407 1000
sat6 = 15121 175 5406 3500
sat7 = 14753 1597 5349 2000
sat8 = 16760 9 5393 3500
sat9 = 15777 1696 5365 -4250
---00000015--- Acq_st=3 2019-5-14 10:16:12 
[00]  G02  1  7  -3731.4 2046004.0  0.0  0.0  1  0        11
[01]  G03  1  7   2864.3 2045997.1  0.1  0.0  1  0        19
[02]  G06  1  7   -946.1 2046000.9  0.0  0.0  1  0        17
$GNGGA,000000.000,,,,,0,00,,,M,,,,0000*2B

$GNRMC,000000.000,A,,,,,,,000000,,*26

$GPGSA,A,1,,,,,,,,,,,,,,,*1E

$BDGSA,A,1,,,,,,,,,,,,,,,*0F

$LOGTIM,0,0.000000,0.000000,0.000000,0.000000,0.000*0A

EndT:        0
sat10 = 17321 1127 5407 -2250
sat11 = 126687 909 5375 4250
sat12 = 14704 1092 5379 1500
sat13 = 15728 683 5386 2750
sat14 = 15669 1551 5424 -4500
---00000016--- Acq_st=3 2019-5-14 10:16:13 
[00]  G02  1  7  -3940.8 2046004.4  0.0  0.0  1  0        11
[01]  G03  1  7   2743.3 2045997.2 -0.1  0.0  1  0        19
[02]  G06  1  7   -882.6 2046000.9  0.0  0.0  1  0         0
[03]  G12  1  7  -4238.1 2046004.9  0.1  0.0  1  0        13
$GNGGA,000000.000,,,,,0,00,,,M,,,,0000*2B

$GNRMC,000000.000,A,,,,,,,000000,,*26

$GPGSA,A,1,,,,,,,,,,,,,,,*1E

$BDGSA,A,1,,,,,,,,,,,,,,,*0F

$LOGTIM,0,0.000000,0.000000,0.000000,0.000000,0.000*0A

EndT:        0
sat15 = 15580 1101 5355 3000
sat16 = 90095 831 5389 1750
sat17 = 15031 1779 5394 -1250
sat18 = 160296 827 5398 2250
sat19 = 14328 1701 5394 5000
---00000017--- Acq_st=3 2019-5-14 10:16:14 
[02]  G06  1  7   -590.4 2046001.2  0.1  0.0  1  0         0
[03]  G12  1  7  -4098.7 2046005.1 -0.0  0.0  1  0         4
[04]  G17  1  7  -1779.3 2046001.8 -0.1  0.0  1  0         6
[05]  G19  1  7  -2216.2 2046001.5 -0.0  0.0  1  0         0
$GNGGA,000000.000,,,,,0,00,,,M,,,,0000*2B

$GNRMC,000000.000,A,,,,,,,000000,,*26

$GPGSA,A,1,,,,,,,,,,,,,,,*1E

$BDGSA,A,1,,,,,,,,,,,,,,,*0F

$LOGTIM,0,0.000000,0.000000,0.000000,0.000000,0.000*0A

EndT:        0
sat20 = 16843 544 5455 3500
sat21 = 53008 755 5373 -3000
sat22 = 17417 917 5419 -3500
sat23 = 14367 247 5437 3250
sat24 = 16979 1973 5370 1750
---00000018--- Acq_st=3 2019-5-14 10:16:15 
[00]  G22  1  7   3084.3 2045996.9 -0.0  0.0  1  0        11
[03]  G12  1  7  -4117.1 2046005.4  0.1  0.0  1  0         4
[04]  G17  1  7  -1801.1 2046001.6  0.1  0.0  1  0         0
[05]  G19  1  7  -2271.7 2046001.8  0.1  0.0  1  0        14
sat25 = 15966 341 5357 4000
$GNGGA,000000.000,,,,,0,00,,,M,,,,0000*2B

$GNRMC,000000.000,A,,,,,,,000000,,*26

$GPGSA,A,1,,,,,,,,,,,,,,,*1E

$BDGSA,A,1,,,,,,,,,,,,,,,*0F

$LOGTIM,0,0.000000,0.000000,0.000000,0.000000,0.000*0A

EndT:        0
sat26 = 14461 1107 5351 4750
sat27 = 17793 908 5330 -1500
sat28 = 18557 1427 5333 -500
sat29 = 16731 1937 5328 500
sat30 = 14527 1997 5333 3250
---00000019--- Acq_st=3 2019-5-14 10:16:16 
[00]  G22  1  7   2965.1 2045996.8  0.0  0.0  1  0        16
[04]  G17  1  7  -1982.1 2046001.9  0.3  0.0  1  0         0
[05]  G19  1 10  -2074.0 2046001.9 -0.1  0.0  1  0        14
$GNGGA,000000.000,,,,,0,00,,,M,,,,0000*2B

$GNRMC,000000.000,A,,,,,,,000000,,*26

$GPGSA,A,1,,,,,,,,,,,,,,,*1E

$BDGSA,A,1,,,,,,,,,,,,,,,*0F

$LOGTIM,0,0.000000,0.000000,0.000000,0.000000,0.000*0A

EndT:        0
sat31 = 14089 654 5347 -2750
sat37 = 3317 3418 1325 750
sat38 = 3459 3192 1349 2000
sat39 = 3378 715 1336 2500
---00000020--- Acq_st=3 2019-5-14 10:16:17 
[00]  G22  1  7   3021.2 2045997.2  0.1  0.0  1  0        16
$GNGGA,000000.000,,,,,0,00,,,M,,,,0000*2B

$GNRMC,000000.000,A,,,,,,,000000,,*26

$GPGSA,A,1,,,,,,,,,,,,,,,*1E

$BDGSA,A,1,,,,,,,,,,,,,,,*0F

$LOGTIM,0,0.000000,0.000000,0.000000,0.000000,0.000*0A

EndT:        0
sat40 = 3514 3071 1352 -4750
sat41 = 3448 1149 1339 3000
sat42 = 3420 2187 1340 -3750
sat43 = 3236 3526 1325 -1000
sat44 = 14776 3617 1346 1000
---00000021--- Acq_st=3 2019-5-14 10:16:18 
[16]  B08  1  7  -1044.5 4092002.1 -0.0  0.0  1  0      2849
$GNGGA,000000.000,,,,,0,00,,,M,,,,0000*2B

$GNRMC,000000.000,A,,,,,,,000000,,*26

$GPGSA,A,1,,,,,,,,,,,,,,,*1E

$BDGSA,A,1,,,,,,,,,,,,,,,*0F

$LOGTIM,0,0.000000,0.000000,0.000000,0.000000,0.000*0A

EndT:        0
sat45 = 3117 2311 1336 -1000
sat46 = 3425 1252 1354 -500
sat47 = 3343 3124 1328 -1500
sat48 = 3441 2494 1330 3500
---00000022--- Acq_st=3 2019-5-14 10:16:19 
[16]  B08  1  9  -1091.0 4092001.5 -0.1  0.0  1  0        80
$GNGGA,000000.000,,,,,0,00,,,M,,,,0000*2B

$GNRMC,000000.000,A,,,,,,,000000,,*26

$GPGSA,A,1,,,,,,,,,,,,,,,*1E

$BDGSA,A,1,,,,,,,,,,,,,,,*0F

$LOGTIM,0,0.000000,0.000000,0.000000,0.000000,0.000*0A

EndT:        0
sat49 = 3246 1514 1340 500
sat50 = 3545 3549 1330 -4750
sat51 = 3363 2154 1327 -1750
sat52 = 3463 125 1349 2500
sat53 = 3461 1978 1333 4250
---00000023--- Acq_st=3 2019-5-14 10:16:20 
[16]  B08  1  7  -1461.4 4092001.9 -0.1  0.0  1  0      1080
$GNGGA,000000.000,,,,,0,00,,,M,,,,0000*2B

$GNRMC,000000.000,A,,,,,,,000000,,*26

$GPGSA,A,1,,,,,,,,,,,,,,,*1E

$BDGSA,A,1,,,,,,,,,,,,,,,*0F

$LOGTIM,0,0.000000,0.000000,0.000000,0.000000,0.000*0A

EndT:        0
sat54 = 3745 2751 1341 4750
sat55 = 11563 3991 1338 0
sat56 = 3262 1869 1327 -3000
sat57 = 3196 1992 1321 500
---00000024--- Acq_st=3 2019-5-14 10:16:21 
[16]  B08  1  7  -1472.0 4092001.9 -0.1  0.0  1  0      2080
[17]  B19  1  7    -44.9 4091999.9  0.1  0.0  1  0         0
$GNGGA,000000.000,,,,,0,00,,,M,,,,0000*2B

$GNRMC,000000.000,A,,,,,,,000000,,*26

$GPGSA,A,1,,,,,,,,,,,,,,,*1E

$BDGSA,A,1,,,,,,,,,,,,,,,*0F

$LOGTIM,0,0.000000,0.000000,0.000000,0.000000,0.000*0A

EndT:        0
sat58 = 3178 1027 1330 1250
sat59 = 3337 1546 1335 250
sat60 = 14345 2099 1337 0
sat61 = 3379 2408 1333 -5000
sat62 = 3511 525 1328 -3500
---00000025--- Acq_st=3 2019-5-14 10:16:22 
[16]  B24  1  7    -28.2 4091999.9  0.0  0.0  1  0      3080
[17]  B19  1  7    113.0 4091999.8  0.0  0.0  1  0       651
$GNGGA,000000.000,,,,,0,00,,,M,,,,0000*2B

$GNRMC,000000.000,A,,,,,,,000000,,*26

$GPGSA,A,1,,,,,,,,,,,,,,,*1E

$BDGSA,A,1,,,,,,,,,,,,,,,*0F

$LOGTIM,0,0.000000,0.000000,0.000000,0.000000,0.000*0A

EndT:        0
sat63 = 3364 2856 1336 -5000
sat64 = 3680 742 1341 -2000
sat65 = 3437 1742 1344 -1000
sat66 = 3600 2736 1340 2250
---00000026--- Acq_st=3 2019-5-14 10:16:23 
[16]  B24  1  7    217.7 4092000.4  0.1  0.0  1  0       548
[17]  B19  1  7    328.3 4092000.2 -0.0  0.0  1  0      1651
sat67 = 3464 2171 1341 -5000
$GNGGA,000000.000,,,,,0,00,,,M,,,,0000*2B

$GNRMC,000000.000,A,,,,,,,000000,,*26

$GPGSA,A,1,,,,,,,,,,,,,,,*1E

$BDGSA,A,1,,,,,,,,,,,,,,,*0F

$LOGTIM,0,0.000000,0.000000,0.000000,0.000000,0.000*0A

EndT:        0
sat68 = 3522 2860 1334 4750
---00000027--- Acq_st=7 2019-5-14 10:16:24 
[16]  B24  1  7    184.7 4091999.6  0.1  0.0  1  0      1548
$GNGGA,000000.000,,,,,0,00,,,M,,,,0000*2B

$GNRMC,000000.000,A,,,,,,,000000,,*26

$GPGSA,A,1,,,,,,,,,,,,,,,*1E

$BDGSA,A,1,,,,,,,,,,,,,,,*0F

$LOGTIM,0,0.000000,0.000000,0.000000,0.000000,0.000*0A

EndT:        0
---00000028--- Acq_st=7 2019-5-14 10:16:25 
$GNGGA,000000.000,,,,,0,00,,,M,,,,0000*2B

$GNRMC,000000.000,A,,,,,,,000000,,*26

$GPGSA,A,1,,,,,,,,,,,,,,,*1E

$BDGSA,A,1,,,,,,,,,,,,,,,*0F

$LOGTIM,0,0.000000,0.000000,0.000000,0.000000,0.000*0A

EndT:        0
sat0 = 16330 1914 5343 -5000
sat1 = 258201 777 5354 3500
sat2 = 40867 1731 5333 -2000
sat3 = 14485 2018 5301 -1250
sat4 = 15376 488 5290 -1750
---00000029--- Acq_st=3 2019-5-14 10:16:26 
[00]  G02  1  7  -3504.5 2046004.2  0.1  0.0  1  0        16
[01]  G03  1  7   2020.5 2045997.7  0.0  0.0  1  0        19
sat5 = 315892 490 5326 2000
$GNGGA,000000.000,,,,,0,00,,,M,,,,0000*2B

$GNRMC,000000.000,A,,,,,,,000000,,*26

$GPGSA,A,1,,,,,,,,,,,,,,,*1E

$BDGSA,A,1,,,,,,,,,,,,,,,*0F

$LOGTIM,0,0.000000,0.000000,0.000000,0.000000,0.000*0A

EndT:        0
sat6 = 13310 1995 5324 750
sat7 = 14256 1087 5233 4250
sat8 = 13945 1117 5325 -2500
sat9 = 14498 655 5327 -1250
---00000030--- Acq_st=3 2019-5-14 10:16:27 
[00]  G02  1  7  -3447.0 2046003.9 -0.0  0.0  1  0        14
[01]  G03  1 12   1789.1 2045997.8 -0.1  0.0  1  0         1
[02]  G06  1 17  -2020.5 2046001.9 -0.0  0.0  1  0         0
$GNGGA,000000.000,,,,,0,00,,,M,,,,0000*2B

$GNRMC,000000.000,A,,,,,,,000000,,*26

$GPGSA,A,1,,,,,,,,,,,,,,,*1E

$BDGSA,A,1,,,,,,,,,,,,,,,*0F

$LOGTIM,0,0.000000,0.000000,0.000000,0.000000,0.000*0A

EndT:        0
sat10 = 15824 1962 5345 500
sat11 = 148134 1383 5372 4250
sat12 = 14928 1539 5323 4000
sat13 = 14686 838 5306 -3250
sat14 = 14662 472 5338 3000
---00000031--- Acq_st=3 2019-5-14 10:16:28 
[00]  G02  1  7  -3642.8 2046004.2  0.1  0.0  1  0        14
[01]  G03  1  7   1634.5 2045998.0 -0.1  0.0  1  0         1
[02]  G06  1 16  -2178.4 2046002.0 -0.0  0.0  1  0         3
[03]  G12  1  7  -4252.6 2046005.0  0.2  0.0  1  0         4
$GNGGA,000000.000,,,,,0,00,,,M,,,,0000*2B

$GNRMC,000000.000,A,,,,,,,000000,,*26

$GPGSA,A,1,,,,,,,,,,,,,,,*1E

$BDGSA,A,1,,,,,,,,,,,,,,,*0F

$LOGTIM,0,0.000000,0.000000,0.000000,0.000000,0.000*0A

EndT:        0
sat15 = 13939 851 5388 3500
sat16 = 45800 1358 5359 1750
sat17 = 14929 156 5305 250
sat18 = 98719 1337 5314 2250
sat19 = 14353 1001 5297 1750
---00000032--- Acq_st=3 2019-5-14 10:16:29 
[02]  G06  1  7  -2220.0 2046002.3  0.1  0.0  1  0         3
[03]  G12  1  7  -4192.9 2046004.9  0.1  0.0  1  0         6
[04]  G17  1  7  -1750.8 2046001.9  0.1  0.0  1  0         0
[05]  G19  1  7  -2242.2 2046001.9  0.2  0.0  1  0        14
$GNGGA,000000.000,,,,,0,00,,,M,,,,0000*2B

$GNRMC,000000.000,A,,,,,,,000000,,*26

$GPGSA,A,1,,,,,,,,,,,,,,,*1E

$BDGSA,A,1,,,,,,,,,,,,,,,*0F

$LOGTIM,0,0.000000,0.000000,0.000000,0.000000,0.000*0A

EndT:        0
sat20 = 15955 842 5364 -3250
sat21 = 34545 1353 5282 -3000
sat22 = 15160 1234 5348 3000
sat23 = 15660 47 5376 -1250
sat24 = 13002 738 5316 -1750
---00000033--- Acq_st=3 2019-5-14 10:16:30 
[00]  G22  1  7   3044.2 2045997.2  0.0  0.0  1  0        14
[03]  G12  1  7  -4270.2 2046005.5 -0.0  0.0  1  0         6
[04]  G17  1  7  -1735.1 2046002.0 -0.1  0.0  1  0         2
[05]  G19  1  7  -2371.1 2046001.9  0.1  0.0  1  0        16
sat25 = 16025 359 5371 2500
$GNGGA,000000.000,,,,,0,00,,,M,,,,0000*2B

$GNRMC,000000.000,A,,,,,,,000000,,*26

$GPGSA,A,1,,,,,,,,,,,,,,,*1E

$BDGSA,A,1,,,,,,,,,,,,,,,*0F

$LOGTIM,0,0.000000,0.000000,0.000000,0.000000,0.000*0A

EndT:        0
sat26 = 15905 675 5330 -2500
sat27 = 14324 1654 5352 5000
sat28 = 15058 1048 5322 5000
sat29 = 14026 170 5272 2250
sat30 = 13522 1571 5242 1750
---00000034--- Acq_st=3 2019-5-14 10:16:31 
[00]  G22  1  7   3193.6 2045997.2 -0.1  0.0  1  0        18
[04]  G17  1  7  -1712.1 2046001.6  0.2  0.0  1  0         2
[05]  G19  1  7  -2185.5 2046001.9 -0.1  0.0  1  0        16
$GNGGA,000000.000,,,,,0,00,,,M,,,,0000*2B

$GNRMC,000000.000,A,,,,,,,000000,,*26

$GPGSA,A,1,,,,,,,,,,,,,,,*1E

$BDGSA,A,1,,,,,,,,,,,,,,,*0F

$LOGTIM,0,0.000000,0.000000,0.000000,0.000000,0.000*0A

EndT:        0
sat31 = 14153 1588 5259 3000
sat37 = 3460 1722 1319 -500
sat38 = 3416 843 1352 1000
sat39 = 3611 3115 1338 2500
---00000035--- Acq_st=3 2019-5-14 10:16:32 
[00]  G22  1  7   3162.9 2045997.2  0.2  0.0  1  0        18
$GNGGA,000000.000,,,,,0,00,,,M,,,,0000*2B

$GNRMC,000000.000,A,,,,,,,000000,,*26

$GPGSA,A,1,,,,,,,,,,,,,,,*1E

$BDGSA,A,1,,,,,,,,,,,,,,,*0F

$LOGTIM,0,0.000000,0.000000,0.000000,0.000000,0.000*0A

EndT:        0
sat40 = 3453 1607 1350 -500
sat41 = 3592 1547 1344 0
sat42 = 3591 835 1341 3250
sat43 = 3193 1343 1330 1750
sat44 = 3527 2669 1343 0
---00000036--- Acq_st=3 2019-5-14 10:16:33 
$GNGGA,000000.000,,,,,0,00,,,M,,,,0000*2B

$GNRMC,000000.000,A,,,,,,,000000,,*26

$GPGSA,A,1,,,,,,,,,,,,,,,*1E

$BDGSA,A,1,,,,,,,,,,,,,,,*0F

$LOGTIM,0,0.000000,0.000000,0.000000,0.000000,0.000*0A

EndT:        0
sat45 = 3547 223 1337 -3000
sat46 = 3630 2812 1351 3500
sat47 = 3492 3996 1335 -2750
sat48 = 51359 137 1345 1500
---00000037--- Acq_st=3 2019-5-14 10:16:34 
[16]  B12  1  7  -1494.5 4092003.2  0.0  0.0  1  0      2548
sat49 = 3469 1508 1339 -3000
$GNGGA,000000.000,,,,,0,00,,,M,,,,0000*2B

$GNRMC,000000.000,A,,,,,,,000000,,*26

$GPGSA,A,1,,,,,,,,,,,,,,,*1E

$BDGSA,A,1,,,,,,,,,,,,,,,*0F

$LOGTIM,0,0.000000,0.000000,0.000000,0.000000,0.000*0A

EndT:        0
sat50 = 3304 1146 1334 -1750
sat51 = 3193 1807 1333 500
sat52 = 3299 3343 1347 -1500
sat53 = 3558 1800 1339 4000
---00000038--- Acq_st=3 2019-5-14 10:16:35 
[16]  B12  1  7  -1526.9 4092003.0  0.0  0.0  1  0       219
$GNGGA,000000.000,,,,,0,00,,,M,,,,0000*2B

$GNRMC,000000.000,A,,,,,,,000000,,*26

$GPGSA,A,1,,,,,,,,,,,,,,,*1E

$BDGSA,A,1,,,,,,,,,,,,,,,*0F

$LOGTIM,0,0.000000,0.000000,0.000000,0.000000,0.000*0A

EndT:        0
sat54 = 3353 282 1341 -2000
sat55 = 3369 2632 1329 1000
sat56 = 3515 228 1329 500
sat57 = 3862 2635 1334 5000
---00000039--- Acq_st=3 2019-5-14 10:16:36 
[16]  B12  1  7  -1280.7 4092002.8  0.0  0.0  1  0      1219
sat58 = 3338 2912 1339 -3000
$GNGGA,000000.000,,,,,0,00,,,M,,,,0000*2B

$GNRMC,000000.000,A,,,,,,,000000,,*26

$GPGSA,A,1,,,,,,,,,,,,,,,*1E

$BDGSA,A,1,,,,,,,,,,,,,,,*0F

$LOGTIM,0,0.000000,0.000000,0.000000,0.000000,0.000*0A

EndT:        0
sat59 = 3374 2810 1336 3500
sat60 = 16436 1253 1341 -1000
sat61 = 3389 956 1328 -3000
sat62 = 3780 565 1337 -4000
---00000040--- Acq_st=3 2019-5-14 10:16:37 
[16]  B12  1  7  -1179.2 4092003.0 -0.0  0.0  1  0      2219
[17]  B24  1  7    964.5 4091997.7 -0.0  0.0  1  0      2651
$GNGGA,000000.000,,,,,0,00,,,M,,,,0000*2B

$GNRMC,000000.000,A,,,,,,,000000,,*26

$GPGSA,A,1,,,,,,,,,,,,,,,*1E

$BDGSA,A,1,,,,,,,,,,,,,,,*0F

$LOGTIM,0,0.000000,0.000000,0.000000,0.000000,0.000*0A

EndT:        0
sat63 = 3659 1083 1339 0
sat64 = 3601 3912 1340 4500
sat65 = 3561 3567 1351 -3000
sat66 = 3445 2021 1337 -3000
---00000041--- Acq_st=3 2019-5-14 10:16:38 
[17]  B24  1  7    981.1 4091998.2  0.1  0.0  1  0       569
sat67 = 3728 3075 1347 -750
$GNGGA,000000.000,,,,,0,00,,,M,,,,0000*2B

$GNRMC,000000.000,A,,,,,,,000000,,*26

$GPGSA,A,1,,,,,,,,,,,,,,,*1E

$BDGSA,A,1,,,,,,,,,,,,,,,*0F

$LOGTIM,0,0.000000,0.000000,0.000000,0.000000,0.000*0A

EndT:        0
sat68 = 3464 1400 1336 -500
---00000042--- Acq_st=7 2019-5-14 10:16:39 
[17]  B24  1  7   1003.2 4091998.0 -0.1  0.0  1  0      1569
$GNGGA,000000.000,,,,,0,00,,,M,,,,0000*2B

$GNRMC,000000.000,A,,,,,,,000000,,*26

$GPGSA,A,1,,,,,,,,,,,,,,,*1E

$BDGSA,A,1,,,,,,,,,,,,,,,*0F

$LOGTIM,0,0.000000,0.000000,0.000000,0.000000,0.000*0A

EndT:        0
---00000043--- Acq_st=7 2019-5-14 10:16:40 
$GNGGA,000000.000,,,,,0,00,,,M,,,,0000*2B

$GNRMC,000000.000,A,,,,,,,000000,,*26

$GPGSA,A,1,,,,,,,,,,,,,,,*1E

$BDGSA,A,1,,,,,,,,,,,,,,,*0F

$LOGTIM,0,0.000000,0.000000,0.000000,0.000000,0.000*0A

EndT:        0
sat0 = 14364 1672 5354 2250
sat1 = 227127 1297 5329 2500
sat2 = 43345 280 5363 -2000
sat3 = 14936 136 5288 -4000
sat4 = 14739 1770 5295 -5000
---00000044--- Acq_st=3 2019-5-14 10:16:41 
[00]  G02  1  7  -2557.9 2046002.8 -0.0  0.0  1  0        18
[01]  G03  1  7   1996.8 2045998.1  0.1  0.0  1  0         1
$GNGGA,000000.000,,,,,0,00,,,M,,,,0000*2B

$GNRMC,000000.000,A,,,,,,,000000,,*26

$GPGSA,A,1,,,,,,,,,,,,,,,*1E

$BDGSA,A,1,,,,,,,,,,,,,,,*0F

$LOGTIM,0,0.000000,0.000000,0.000000,0.000000,0.000*0A

EndT:        0
sat5 = 295512 1010 5340 2000
sat6 = 14763 312 5329 3000
sat7 = 14784 33 5278 -3750
sat8 = 13984 1089 5323 -1000
sat9 = 15731 1529 5354 -3500
---00000045--- Acq_st=3 2019-5-14 10:16:42 
[00]  G02  1  7  -2543.9 2046002.7  0.1  0.0  1  0        16
[01]  G03  1 15   2025.7 2045998.2 -0.2  0.0  1  0         3
[02]  G06  1 17  -2054.0 2046001.9 -0.2  0.0  1  0         3
$GNGGA,000000.000,,,,,0,00,,,M,,,,0000*2B

$GNRMC,000000.000,A,,,,,,,000000,,*26

$GPGSA,A,1,,,,,,,,,,,,,,,*1E

$BDGSA,A,1,,,,,,,,,,,,,,,*0F

$LOGTIM,0,0.000000,0.000000,0.000000,0.000000,0.000*0A

EndT:        0
sat10 = 15499 960 5320 -5000
sat11 = 160564 1857 5337 4250
sat12 = 13459 924 5352 -1750
sat13 = 14436 1005 5325 -5000
sat14 = 14319 1634 5378 -1750
---00000046--- Acq_st=3 2019-5-14 10:16:43 
[00]  G02  1  7  -2838.9 2046003.1  0.1  0.0  1  0        16
[01]  G03  1  7   2184.9 2045998.3 -0.1  0.0  1  0         3
[02]  G06  1 17  -2019.8 2046001.8 -0.1  0.0  1  0         5
[03]  G12  1  7  -4283.6 2046004.9 -0.0  0.0  1  0         6
$GNGGA,000000.000,,,,,0,00,,,M,,,,0000*2B

$GNRMC,000000.000,A,,,,,,,000000,,*26

$GPGSA,A,1,,,,,,,,,,,,,,,*1E

$BDGSA,A,1,,,,,,,,,,,,,,,*0F

$LOGTIM,0,0.000000,0.000000,0.000000,0.000000,0.000*0A

EndT:        0
sat15 = 15831 1711 5342 -3250
sat16 = 82176 1950 5370 750
sat17 = 15443 1539 5366 500
sat18 = 78734 1849 5336 2250
sat19 = 14902 983 5348 2250
---00000047--- Acq_st=3 2019-5-14 10:16:44 
[02]  G06  1 18  -2077.2 2046001.7 -0.0  0.0  1  0         5
[03]  G12  1  7  -4455.0 2046005.0 -0.1  0.0  1  0         8
[04]  G17  1  7   -704.6 2045999.3 -0.0  0.0  1  0         2
[05]  G19  1  7  -2211.0 2046002.2 -0.0  0.0  1  0        16
sat20 = 16279 1904 5357 3250
$GNGGA,000000.000,,,,,0,00,,,M,,,,0000*2B

$GNRMC,000000.000,A,,,,,,,000000,,*26

$GPGSA,A,1,,,,,,,,,,,,,,,*1E

$BDGSA,A,1,,,,,,,,,,,,,,,*0F

$LOGTIM,0,0.000000,0.000000,0.000000,0.000000,0.000*0A

EndT:        0
sat21 = 24910 1886 5287 -2000
sat22 = 14412 1023 5375 500
sat23 = 14265 427 5437 4000
sat24 = 15929 1545 5405 1750
---00000048--- Acq_st=3 2019-5-14 10:16:45 
[00]  G22  1 11   2013.4 2045997.6  0.1  0.0  1  0        16
[03]  G12  1  7  -4745.6 2046005.0 -0.1  0.0  1  0         8
[04]  G17  1  7   -460.1 2046000.3 -0.1  0.0  1  0         4
[05]  G19  1  9  -2222.6 2046002.3 -0.0  0.0  1  0        18
sat25 = 16360 1956 5364 -1750
$GNGGA,000000.000,,,,,0,00,,,M,,,,0000*2B

$GNRMC,000000.000,A,,,,,,,000000,,*26

$GPGSA,A,1,,,,,,,,,,,,,,,*1E

$BDGSA,A,1,,,,,,,,,,,,,,,*0F

$LOGTIM,0,0.000000,0.000000,0.000000,0.000000,0.000*0A

EndT:        0
sat26 = 15333 627 5380 2250
sat27 = 16409 1398 5344 3250
sat28 = 14847 1231 5333 1750
sat29 = 15313 1602 5337 -5000
sat30 = 13824 155 5331 -1000
---00000049--- Acq_st=3 2019-5-14 10:16:46 
[00]  G22  1  7   2255.7 2045998.4  0.1  0.0  1  0         0
[04]  G17  1  7   -500.4 2046000.1  0.2  0.0  1  0         4
[05]  G19  1  7  -2192.6 2046002.1 -0.2  0.0  1  0        18
$GNGGA,000000.000,,,,,0,00,,,M,,,,0000*2B

$GNRMC,000000.000,A,,,,,,,000000,,*26

$GPGSA,A,1,,,,,,,,,,,,,,,*1E

$BDGSA,A,1,,,,,,,,,,,,,,,*0F

$LOGTIM,0,0.000000,0.000000,0.000000,0.000000,0.000*0A

EndT:        0
sat31 = 15582 1809 5343 -2750
sat37 = 3339 613 1320 3000
sat38 = 3643 2082 1352 -3750
sat39 = 3464 3425 1346 -3250
---00000050--- Acq_st=3 2019-5-14 10:16:47 
[00]  G22  1  7   2509.9 2045998.2 -0.1  0.0  1  0         0
sat40 = 3356 762 1348 2000
$GNGGA,000000.000,,,,,0,00,,,M,,,,0000*2B

$GNRMC,000000.000,A,,,,,,,000000,,*26

$GPGSA,A,1,,,,,,,,,,,,,,,*1E

$BDGSA,A,1,,,,,,,,,,,,,,,*0F

$LOGTIM,0,0.000000,0.000000,0.000000,0.000000,0.000*0A

EndT:        0
sat41 = 3558 3571 1336 -4000
sat42 = 3908 390 1339 -3000
sat43 = 3497 2119 1328 -4750
sat44 = 3393 537 1340 -750
---00000051--- Acq_st=3 2019-5-14 10:16:48 
$GNGGA,000000.000,,,,,0,00,,,M,,,,0000*2B

$GNRMC,000000.000,A,,,,,,,000000,,*26

$GPGSA,A,1,,,,,,,,,,,,,,,*1E

$BDGSA,A,1,,,,,,,,,,,,,,,*0F

$LOGTIM,0,0.000000,0.000000,0.000000,0.000000,0.000*0A

EndT:        0
sat45 = 3459 1348 1332 -4250
sat46 = 4143 151 1348 -4250
sat47 = 3366 786 1338 0
sat48 = 46304 1136 1339 2000
---00000052--- Acq_st=3 2019-5-14 10:16:49 
[16]  B12  1  7  -1988.3 4092005.3 -0.0  0.0  1  0      3219
sat49 = 35729 679 1341 -500
$GNGGA,000000.000,,,,,0,00,,,M,,,,0000*2B

$GNRMC,000000.000,A,,,,,,,000000,,*26

$GPGSA,A,1,,,,,,,,,,,,,,,*1E

$BDGSA,A,1,,,,,,,,,,,,,,,*0F

$LOGTIM,0,0.000000,0.000000,0.000000,0.000000,0.000*0A

EndT:        0
sat50 = 3325 2473 1337 2750
sat51 = 3237 3346 1329 1000
sat52 = 3260 751 1347 2250
sat53 = 3508 532 1341 4250
---00000053--- Acq_st=3 2019-5-14 10:16:50 
[16]  B12  1  7  -2039.2 4092004.9 -0.1  0.0  1  0       241
[17]  B13  1  7    423.4 4091999.2 -0.0  0.0  1  0        20
$GNGGA,000000.000,,,,,0,00,,,M,,,,0000*2B

$GNRMC,000000.000,A,,,,,,,000000,,*26

$GPGSA,A,1,,,,,,,,,,,,,,,*1E

$BDGSA,A,1,,,,,,,,,,,,,,,*0F

$LOGTIM,0,0.000000,0.000000,0.000000,0.000000,0.000*0A

EndT:        0
sat54 = 3542 14 1340 4250
sat55 = 10383 180 1337 -1500
sat56 = 3927 1164 1330 2750
sat57 = 3290 410 1329 1500
---00000054--- Acq_st=3 2019-5-14 10:16:51 
[16]  B12  1  7  -2057.0 4092005.3  0.0  0.0  1  0      1241
[17]  B13  1  7    403.5 4091998.9  0.0  0.0  1  0      1020
[18]  B19  1  7   1494.5 4091997.1 -0.1  0.0  1  0         0
sat58 = 3644 2219 1341 -3000
$GNGGA,000000.000,,,,,0,00,,,M,,,,0000*2B

$GNRMC,000000.000,A,,,,,,,000000,,*26

$GPGSA,A,1,,,,,,,,,,,,,,,*1E

$BDGSA,A,1,,,,,,,,,,,,,,,*0F

$LOGTIM,0,0.000000,0.000000,0.000000,0.000000,0.000*0A

EndT:        0
sat59 = 3395 1751 1335 4000
sat60 = 5961 4091 1333 2750
sat61 = 3354 895 1327 1000
sat62 = 3644 28 1332 3250
---00000055--- Acq_st=3 2019-5-14 10:16:52 
[16]  B12  1  7  -2075.7 4092005.1 -0.1  0.0  1  0      2241
[17]  B13  1  7    269.4 4091999.0 -0.0  0.0  1  0      2020
[18]  B19  1  7   1488.2 4091997.4 -0.2  0.0  1  0       696
[19]  B24  1  7  -2704.5 4092007.0 -0.0  0.0  1  0         0
$GNGGA,000000.000,,,,,0,00,,,M,,,,0000*2B

$GNRMC,000000.000,A,,,,,,,000000,,*26

$GPGSA,A,1,,,,,,,,,,,,,,,*1E

$BDGSA,A,1,,,,,,,,,,,,,,,*0F

$LOGTIM,0,0.000000,0.000000,0.000000,0.000000,0.000*0A

EndT:        0
sat63 = 3235 767 1336 -500
sat64 = 3321 318 1343 -250
sat65 = 3494 3319 1347 4500
sat66 = 3674 3590 1347 -4750
---00000056--- Acq_st=3 2019-5-14 10:16:53 
[18]  B19  1 10   1810.1 4091997.0  0.1  0.0  1  0      1696
[19]  B24  1 13  -2627.9 4092006.8 -0.1  0.0  1  0       592
sat67 = 3614 2838 1332 4000
$GNGGA,000000.000,,,,,0,00,,,M,,,,0000*2B

$GNRMC,000000.000,A,,,,,,,000000,,*26

$GPGSA,A,1,,,,,,,,,,,,,,,*1E

$BDGSA,A,1,,,,,,,,,,,,,,,*0F

$LOGTIM,0,0.000000,0.000000,0.000000,0.000000,0.000*0A

EndT:        0
sat68 = 3432 2159 1334 -3500
---00000057--- Acq_st=7 2019-5-14 10:16:54 
[19]  B24  1 13  -2651.0 4092007.3  0.1  0.0  1  0      1592
$GNGGA,000000.000,,,,,0,00,,,M,,,,0000*2B

$GNRMC,000000.000,A,,,,,,,000000,,*26

$GPGSA,A,1,,,,,,,,,,,,,,,*1E

$BDGSA,A,1,,,,,,,,,,,,,,,*0F

$LOGTIM,0,0.000000,0.000000,0.000000,0.000000,0.000*0A

EndT:        0
---00000058--- Acq_st=7 2019-5-14 10:16:55 
$GNGGA,000000.000,,,,,0,00,,,M,,,,0000*2B

$GNRMC,000000.000,A,,,,,,,000000,,*26

$GPGSA,A,1,,,,,,,,,,,,,,,*1E

$BDGSA,A,1,,,,,,,,,,,,,,,*0F

$LOGTIM,0,0.000000,0.000000,0.000000,0.000000,0.000*0A

EndT:        0
sat0 = 15488 921 5415 -750
sat1 = 129824 1778 5392 3500
sat2 = 39009 877 5373 -2000
sat3 = 15660 1675 5353 250
sat4 = 14522 960 5386 2500
---00000059--- Acq_st=3 2019-5-14 10:16:56 
[00]  G02  1  7  -3545.9 2046003.7  0.1  0.0  1  0         0
[01]  G03  1  7   2005.6 2045998.0 -0.1  0.0  1  0         3
sat5 = 284180 1591 5411 1000
$GNGGA,000000.000,,,,,0,00,,,M,,,,0000*2B

$GNRMC,000000.000,A,,,,,,,000000,,*26

$GPGSA,A,1,,,,,,,,,,,,,,,*1E

$BDGSA,A,1,,,,,,,,,,,,,,,*0F

$LOGTIM,0,0.000000,0.000000,0.000000,0.000000,0.000*0A

EndT:        0
sat6 = 14204 1693 5438 2250
sat7 = 14730 1216 5335 -2000
sat8 = 15540 1403 5380 5000
sat9 = 14254 1489 5433 4500
---00000060--- Acq_st=3 2019-5-14 10:16:57 
[00]  G02  1  7  -3624.5 2046003.7 -0.1  0.0  1  0        18
[01]  G03  1 14   2087.7 2045998.5 -0.1  0.0  1  0         6
[02]  G06  1  9   -991.8 2046001.3  0.1  0.0  1  0         5
$GNGGA,000000.000,,,,,0,00,,,M,,,,0000*2B

$GNRMC,000000.000,A,,,,,,,000000,,*26

$GPGSA,A,1,,,,,,,,,,,,,,,*1E

$BDGSA,A,1,,,,,,,,,,,,,,,*0F

$LOGTIM,0,0.000000,0.000000,0.000000,0.000000,0.000*0A

EndT:        0
sat10 = 14884 1776 5403 1000
sat11 = 195820 283 5421 4250
sat12 = 14223 783 5349 -5000
sat13 = 13756 694 5391 3750
sat14 = 14671 1362 5353 1000
---00000061--- Acq_st=3 2019-5-14 10:16:58 
[00]  G02  1  7  -3755.7 2046003.7  0.0  0.0  1  0        18
[01]  G03  1 10   1981.5 2045998.1  0.1  0.0  1  0         6
[02]  G06  1  7   -751.1 2046001.8  0.2  0.0  1  0         7
[03]  G12  1  7  -4245.1 2046004.8 -0.1  0.0  1  0         8
sat15 = 15701 1948 5364 -500
$GNGGA,000000.000,,,,,0,00,,,M,,,,0000*2B

$GNRMC,000000.000,A,,,,,,,000000,,*26

$GPGSA,A,1,,,,,,,,,,,,,,,*1E

$BDGSA,A,1,,,,,,,,,,,,,,,*0F

$LOGTIM,0,0.000000,0.000000,0.000000,0.000000,0.000*0A

EndT:        0
sat16 = 75546 430 5418 750
sat17 = 15024 49 5373 -2250
sat18 = 156715 312 5351 2250
sat19 = 15187 1462 5376 3250
---00000062--- Acq_st=3 2019-5-14 10:16:59 
[02]  G06  1  7   -959.3 2046001.8  0.2  0.0  1  0         7
[03]  G12  1  7  -4324.2 2046005.1  0.0  0.0  1  0        10
[04]  G17  1  7   -670.5 2046000.3 -0.0  0.0  1  0         4
[05]  G19  1  7  -2266.1 2046001.7  0.0  0.0  1  0        18
sat20 = 15399 2015 5391 -250
$GNGGA,000000.000,,,,,0,00,,,M,,,,0000*2B

$GNRMC,000000.000,A,,,,,,,000000,,*26

$GPGSA,A,1,,,,,,,,,,,,,,,*1E

$BDGSA,A,1,,,,,,,,,,,,,,,*0F

$LOGTIM,0,0.000000,0.000000,0.000000,0.000000,0.000*0A

EndT:        0
sat21 = 18733 502 5314 -3000
sat22 = 14548 1418 5492 -1250
sat23 = 16326 1629 5486 -3250
sat24 = 15764 77 5370 4250
---00000063--- Acq_st=3 2019-5-14 10:17:0 
[03]  G12  1 10  -4365.9 2046005.4 -0.1  0.0  1  0        10
[04]  G17  1  7   -567.6 2045999.8 -0.1  0.0  1  0         6
[05]  G19  1  7  -2429.6 2046001.8  0.1  0.0  1  0         0
sat25 = 15191 1260 5362 -500
$GNGGA,000000.000,,,,,0,00,,,M,,,,0000*2B

$GNRMC,000000.000,A,,,,,,,000000,,*26

$GPGSA,A,1,,,,,,,,,,,,,,,*1E

$BDGSA,A,1,,,,,,,,,,,,,,,*0F

$LOGTIM,0,0.000000,0.000000,0.000000,0.000000,0.000*0A

EndT:        0
sat26 = 14697 1673 5367 -2250
sat27 = 15119 966 5339 -4500
sat28 = 14854 158 5317 1000
sat29 = 16961 175 5353 -2250
sat30 = 14417 1015 5299 750
---00000064--- Acq_st=3 2019-5-14 10:17:1 
[04]  G17  1 12   -414.5 2045999.9  0.1  0.0  1  0         6
[05]  G19  1  7  -2653.7 2046001.9 -0.1  0.0  1  0         0
$GNGGA,000000.000,,,,,0,00,,,M,,,,0000*2B

$GNRMC,000000.000,A,,,,,,,000000,,*26

$GPGSA,A,1,,,,,,,,,,,,,,,*1E

$BDGSA,A,1,,,,,,,,,,,,,,,*0F

$LOGTIM,0,0.000000,0.000000,0.000000,0.000000,0.000*0A

EndT:        0
sat31 = 13738 951 5334 2000
sat37 = 3360 1371 1330 0
sat38 = 3783 3346 1351 -1000
sat39 = 3337 1022 1339 3250
---00000065--- Acq_st=3 2019-5-14 10:17:2 
sat40 = 3740 494 1350 750
$GNGGA,000000.000,,,,,0,00,,,M,,,,0000*2B

$GNRMC,000000.000,A,,,,,,,000000,,*26

$GPGSA,A,1,,,,,,,,,,,,,,,*1E

$BDGSA,A,1,,,,,,,,,,,,,,,*0F

$LOGTIM,0,0.000000,0.000000,0.000000,0.000000,0.000*0A

EndT:        0
sat41 = 3653 2039 1342 -2500
sat42 = 3425 271 1340 2250
sat43 = 3397 1558 1333 1500
sat44 = 15460 602 1341 1250
---00000066--- Acq_st=3 2019-5-14 10:17:3 
[16]  B08  1  7  -1322.4 4092003.0 -0.0  0.0  1  0      3241
$GNGGA,000000.000,,,,,0,00,,,M,,,,0000*2B

$GNRMC,000000.000,A,,,,,,,000000,,*26

$GPGSA,A,1,,,,,,,,,,,,,,,*1E

$BDGSA,A,1,,,,,,,,,,,,,,,*0F

$LOGTIM,0,0.000000,0.000000,0.000000,0.000000,0.000*0A

EndT:        0
sat45 = 3444 3791 1330 -3500
sat46 = 3488 2557 1350 -3500
sat47 = 3639 1859 1332 -2250
sat48 = 43798 1971 1334 3250
---00000067--- Acq_st=3 2019-5-14 10:17:4 
[16]  B08  1  7  -1239.0 4092003.4  0.0  0.0  1  0       147
[17]  B12  1  7  -3264.3 4092008.0 -0.0  0.0  1  0      3020
sat49 = 29813 3545 1343 2750
$GNGGA,000000.000,,,,,0,00,,,M,,,,0000*2B

$GNRMC,000000.000,A,,,,,,,000000,,*26

$GPGSA,A,1,,,,,,,,,,,,,,,*1E

$BDGSA,A,1,,,,,,,,,,,,,,,*0F

$LOGTIM,0,0.000000,0.000000,0.000000,0.000000,0.000*0A

EndT:        0
sat50 = 3712 1432 1337 -2000
sat51 = 3537 1546 1329 2500
sat52 = 3545 601 1343 -1500
sat53 = 3498 733 1330 1250
---00000068--- Acq_st=3 2019-5-14 10:17:5 
[16]  B08  1  7  -1429.3 4092002.7 -0.1  0.0  1  0      1147
[17]  B12  1  7  -3105.0 4092008.2 -0.1  0.0  1  0       264
[18]  B13  1  7  -2653.7 4092006.9 -0.0  0.0  1  0        43
$GNGGA,000000.000,,,,,0,00,,,M,,,,0000*2B

$GNRMC,000000.000,A,,,,,,,000000,,*26

$GPGSA,A,1,,,,,,,,,,,,,,,*1E

$BDGSA,A,1,,,,,,,,,,,,,,,*0F

$LOGTIM,0,0.000000,0.000000,0.000000,0.000000,0.000*0A

EndT:        0
sat54 = 3384 2592 1338 0
sat55 = 10891 1141 1339 750
sat56 = 3200 3696 1333 5000
sat57 = 3305 823 1331 1750
---00000069--- Acq_st=3 2019-5-14 10:17:6 
[16]  B08  1  7  -1230.0 4092003.1  0.0  0.0  1  0      2147
[17]  B12  1  7  -3006.9 4092008.3  0.1  0.0  1  0      1264
[18]  B13  1 11  -2625.8 4092006.9  0.1  0.0  1  0      1043
[19]  B19  1  7   -702.4 4092001.1 -0.1  0.0  1  0      2592
sat58 = 3377 1555 1337 4750
$GNGGA,000000.000,,,,,0,00,,,M,,,,0000*2B

$GNRMC,000000.000,A,,,,,,,000000,,*26

$GPGSA,A,1,,,,,,,,,,,,,,,*1E

$BDGSA,A,1,,,,,,,,,,,,,,,*0F

$LOGTIM,0,0.000000,0.000000,0.000000,0.000000,0.000*0A

EndT:        0
sat59 = 4017 3704 1336 -1500
sat60 = 3341 2643 1336 2500
sat61 = 3484 3537 1329 2250
sat62 = 3331 4018 1336 750
---00000070--- Acq_st=3 2019-5-14 10:17:7 
[17]  B12  1  7  -2982.4 4092008.5  0.0  0.0  1  0      2264
[18]  B13  1  7  -2861.9 4092007.0 -0.1  0.0  1  0      2043
[19]  B19  1  7   -546.1 4092001.6  0.0  0.0  1  0       719
$GNGGA,000000.000,,,,,0,00,,,M,,,,0000*2B

$GNRMC,000000.000,A,,,,,,,000000,,*26

$GPGSA,A,1,,,,,,,,,,,,,,,*1E

$BDGSA,A,1,,,,,,,,,,,,,,,*0F

$LOGTIM,0,0.000000,0.000000,0.000000,0.000000,0.000*0A

EndT:        0
sat63 = 3264 2217 1332 -2000
sat64 = 3485 3105 1340 -4750
sat65 = 3685 923 1350 2500
sat66 = 3414 3799 1339 2500
---00000071--- Acq_st=3 2019-5-14 10:17:8 
[19]  B19  1  7   -785.9 4092000.9 -0.1  0.0  1  0      1719
sat67 = 3353 313 1338 3250
$GNGGA,000000.000,,,,,0,00,,,M,,,,0000*2B

$GNRMC,000000.000,A,,,,,,,000000,,*26

$GPGSA,A,1,,,,,,,,,,,,,,,*1E

$BDGSA,A,1,,,,,,,,,,,,,,,*0F

$LOGTIM,0,0.000000,0.000000,0.000000,0.000000,0.000*0A

EndT:        0
sat68 = 3238 2289 1335 1250
---00000072--- Acq_st=7 2019-5-14 10:17:9 
$GNGGA,000000.000,,,,,0,00,,,M,,,,0000*2B

$GNRMC,000000.000,A,,,,,,,000000,,*26

$GPGSA,A,1,,,,,,,,,,,,,,,*1E

$BDGSA,A,1,,,,,,,,,,,,,,,*0F

$LOGTIM,0,0.000000,0.000000,0.000000,0.000000,0.000*0A

EndT:        0

