FlashID=0x1 0x20 0x18

BBram_blkflag1: 24ee: db11

FW Ver: 1.30  
GPS00 Init Dop:  -2414,  2
GPS01 Init Dop:   1871,  2
GPS02 Init Dop:  -3105,  2
GPS03 Init Dop:  -5000, 41
GPS04 Init Dop:  -5000, 41
GPS05 Init Dop:    867,  2
GPS06 Init Dop:  -5000, 41
GPS07 Init Dop:  -5000, 41
GPS08 Init Dop:  -5000, 41
GPS09 Init Dop:  -5000, 41
GPS10 Init Dop:  -5000, 41
GPS11 Init Dop:   3199,  2
GPS12 Init Dop:  -5000, 41
GPS13 Init Dop:  -5000, 41
GPS14 Init Dop:  -5000, 41
GPS15 Init Dop:  -5000, 41
GPS16 Init Dop:    466,  2
GPS17 Init Dop:  -5000, 41
GPS18 Init Dop:   1304,  2
GPS19 Init Dop:  -5000, 41
GPS20 Init Dop:  -5000, 41
GPS21 Init Dop:  -3167,  2
GPS22 Init Dop:  -5000, 41
GPS23 Init Dop:  -5000, 41
GPS24 Init Dop:  -5000, 41
GPS25 Init Dop:  -5000, 41
GPS26 Init Dop:  -5000, 41
GPS27 Init Dop:  -5000, 41
GPS28 Init Dop:  -5000, 41
GPS29 Init Dop:  -5000, 41
GPS30 Init Dop:  -5000, 41
GPS31 Init Dop:  -5000, 41
BDS00 Init Dop:  -5000, 41
BDS01 Init Dop:  -5000, 41
BDS02 Init Dop:  -5000, 41
BDS03 Init Dop:  -5000, 41
BDS04 Init Dop:  -5000, 41
BDS05 Init Dop:  -5000, 41
BDS06 Init Dop:  -5000, 41
BDS07 Init Dop:    120,  2
BDS08 Init Dop:  -5000, 41
BDS09 Init Dop:  -5000, 41
BDS10 Init Dop:  -5000, 41
BDS11 Init Dop:   1841,  2
BDS12 Init Dop:    204,  2
BDS13 Init Dop:  -5000, 41
BDS14 Init Dop:  -5000, 41
BDS15 Init Dop:  -5000, 41
BDS16 Init Dop:  -5000, 41
BDS17 Init Dop:  -5000, 41
BDS18 Init Dop:  -1331,  2
BDS19 Init Dop:  -2877,  2
BDS20 Init Dop:  -5000, 41
BDS21 Init Dop:  -5000, 41
BDS22 Init Dop:  -5000, 41
BDS23 Init Dop:  -1207,  2
BDS24 Init Dop:  -5000, 41
BDS25 Init Dop:  -5000, 41
BDS26 Init Dop:  -5000, 41
BDS27 Init Dop:  -5000, 41
BDS28 Init Dop:  -5000, 41
BDS29 Init Dop:  -5000, 41
BDS30 Init Dop:  -5000, 41
BDS31 Init Dop:  -5000, 41
good luck!
sat0 = 2435 331 1186 -2414
sat1 = 35337 795 1407 1871
ch0 satid=1 acq ok!
sat2 = 2360 451 1129 -3105
sat3 = 10147 1947 2599 -14250
sat4 = 10318 126 3982 -14750
sat5 = 328604 2016 5496 867
ch1 satid=5 acq ok!
sat6 = 10594 1026 4136 -5750
sat7 = 11543 1354 4203 -7000
---00000001--- Acq_st=3 2019-5-14 10:18:4 
[00]  G02  1  7  -1765.5 2046002.1  0.1  0.0  1  0         0
[01]  G06  1  7   -902.6 2046001.0  0.0  0.0  1  0         0
$GNGGA,000000.000,,,,,0,00,,,M,,,,0000*2B

$GNRMC,000000.000,A,,,,,,,000000,,*26

$GPGSA,A,1,,,,,,,,,,,,,,,*1E

$BDGSA,A,1,,,,,,,,,,,,,,,*0F

$LOGTIM,0,0.000000,0.000000,0.000000,0.000000,0.000*0A

EndT:        0
sat8 = 9393 898 3985 -7000
sat9 = 11874 1587 4253 -5500
sat10 = 13727 1066 4191 -5000
sat11 = 131904 266 5256 3199
ch2 satid=11 acq ok!
sat12 = 10090 565 4005 -10500
sat13 = 11962 1264 4389 -11500
---00000002--- Acq_st=3 2019-5-14 10:18:5 
[00]  G02  1  7  -1669.5 2046002.3  0.2  0.0  1  0         5
[01]  G06  1  7   -880.2 2046000.7  0.2  0.0  1  0        13
[02]  G12  1  7  -3199.3 2046004.3  0.1  0.0  1  0         0
$GNGGA,000000.000,,,,,0,00,,,M,,,,0000*2B

$GNRMC,000000.000,A,,,,,,,000000,,*26

$GPGSA,A,1,,,,,,,,,,,,,,,*1E

$BDGSA,A,1,,,,,,,,,,,,,,,*0F

$LOGTIM,0,0.000000,0.000000,0.000000,0.000000,0.000*0A

EndT:        1
sat14 = 11794 71 4000 -6250
sat15 = 12103 1950 4300 -7750
sat16 = 71143 242 5262 466
ch3 satid=16 acq ok!
sat17 = 12928 852 4491 -10250
sat18 = 128633 1840 5297 1304
ch4 satid=18 acq ok!
sat19 = 11050 270 4114 -9000
sat20 = 10793 691 3786 -5500
sat21 = 9106 1812 3963 -3417
---00000003--- Acq_st=3 2019-5-14 10:18:6 
[00]  G02  1  7  -1541.2 2046001.9 -0.1  0.0  1  0         5
[01]  G06  1  7   -823.7 2046000.7 -0.0  0.0  1  0        13
[02]  G12  1  7  -3209.6 2046003.6  0.1  0.0  1  0        16
[03]  G17  1  7   -384.1 2045999.6  0.1  0.0  1  0         0
[04]  G19  1  7  -1241.0 2046001.2  0.1  0.0  1  0         0
$GNGGA,000000.000,,,,,0,00,,,M,,,,0000*2B

$GNRMC,000000.000,A,,,,,,,000000,,*26

$GPGSA,A,1,,,,,,,,,,,,,,,*1E

$BDGSA,A,1,,,,,,,,,,,,,,,*0F

$LOGTIM,0,0.000000,0.000000,0.000000,0.000000,0.000*0A

EndT:        1
sat22 = 10337 1358 3975 -5250
sat23 = 9893 306 3875 -12250
sat24 = 11064 1085 4045 -7250
sat25 = 10200 1142 4312 -10750
sat26 = 8985 67 3934 -6500
---00000004--- Acq_st=3 2019-5-14 10:18:7 
[02]  G12  1  7  -3289.9 2046003.8 -0.1  0.0  1  0        16
[03]  G17  1  8   -413.6 2046000.2  0.2  0.0  1  0        12
[04]  G19  1  7  -1307.2 2046001.3  0.1  0.0  1  0         7
$GNGGA,000000.000,,,,,0,00,,,M,,,,0000*2B

$GNRMC,000000.000,A,,,,,,,000000,,*26

$GPGSA,A,1,,,,,,,,,,,,,,,*1E

$BDGSA,A,1,,,,,,,,,,,,,,,*0F

$LOGTIM,0,0.000000,0.000000,0.000000,0.000000,0.000*0A

EndT:        0
sat27 = 11842 1890 4189 -12500
sat28 = 10102 1268 3982 -14500
sat29 = 9990 1340 4068 -14250
sat30 = 10827 437 4044 -9250
sat31 = 9869 1406 3999 -7000
---00000005--- Acq_st=3 2019-5-14 10:18:8 
[03]  G17  1  7   -211.0 2045999.8  0.0  0.0  1  0        12
[04]  G19  1  7  -1124.4 2046001.4 -0.1  0.0  1  0         7
$GNGGA,000000.000,,,,,0,00,,,M,,,,0000*2B

$GNRMC,000000.000,A,,,,,,,000000,,*26

$GPGSA,A,1,,,,,,,,,,,,,,,*1E

$BDGSA,A,1,,,,,,,,,,,,,,,*0F

$LOGTIM,0,0.000000,0.000000,0.000000,0.000000,0.000*0A

EndT:        0
sat37 = 2586 2705 1024 -9750
sat38 = 2526 947 1034 -10250
sat39 = 2549 1317 1019 -14250
sat40 = 2548 3965 1045 -9250
---00000006--- Acq_st=3 2019-5-14 10:18:9 
[04]  G19  7  7  -1044.2 2046001.1 -0.1  0.0 20  0         7
$GNGGA,000000.000,,,,,0,00,,,M,,,,0000*2B

$GNRMC,000000.000,A,,,,,,,000000,,*26

$GPGSA,A,1,,,,,,,,,,,,,,,*1E

$BDGSA,A,1,,,,,,,,,,,,,,,*0F

$LOGTIM,0,0.000000,0.000000,0.000000,0.000000,0.000*0A

EndT:        0
sat41 = 2551 2730 1013 -12250
sat42 = 2621 3613 1024 -6500
sat43 = 2549 1464 1020 -13750
sat44 = 2737 1274 1306 120
sat45 = 2614 3796 1025 -5500
sat46 = 2915 1895 1054 -9750
---00000007--- Acq_st=3 2019-5-14 10:18:10 
[04]  G19  7 15  -1049.2 2046001.1 -0.2 -0.3 20  0        19
$GNGGA,000000.000,,,,,0,00,,,M,,,,0000*2B

$GNRMC,000000.000,A,,,,,,,000000,,*26

$GPGSA,A,1,,,,,,,,,,,,,,,*1E

$BDGSA,A,1,,,,,,,,,,,,,,,*0F

$GPGSV,1,1,01,19,00,000,15*44

$LOGTIM,0,0.000000,0.000000,0.000000,0.000000,0.000*0A

EndT:        0
sat47 = 2562 3140 1003 -7750
sat48 = 3292 3723 1357 1841
sat49 = 32291 1818 1375 204
ch16 satid=49 acq ok!
sat50 = 2527 792 1014 -9250
sat51 = 2605 1956 1016 -6000
sat52 = 2824 2452 1039 -15000
---00000008--- Acq_st=3 2019-5-14 10:18:11 
[04]  G19  7 13  -1044.4 2046001.4  0.1 -0.4 20  0        19
[16]  B13  1  7   -172.5 4092000.3  0.0  0.0  1  0         0
$GNGGA,000000.000,,,,,0,00,,,M,,,,0000*2B

$GNRMC,000000.000,A,,,,,,,000000,,*26

$GPGSA,A,1,,,,,,,,,,,,,,,*1E

$BDGSA,A,1,,,,,,,,,,,,,,,*0F

$GPGSV,1,1,01,19,00,000,13*42

$LOGTIM,0,0.000000,0.000000,0.000000,0.000000,0.000*0A

EndT:        0
sat53 = 2869 987 1022 -9750
sat54 = 2512 3128 1011 -11500
sat55 = 2270 2428 1026 -1581
sat56 = 2217 2617 994 -2877
sat57 = 2466 1760 1003 -7500
sat58 = 2706 3999 1011 -15000
sat59 = 2630 822 1018 -12250
---00000009--- Acq_st=3 2019-5-14 10:18:12 
[04]  G19  7 17  -1026.2 2046001.4  0.2 -0.2 20  0        19
[16]  B13  1  7   -263.6 4092000.3 -0.1  0.0  1  0       829
sat60 = 4606 3350 1014 -1207
ch17 satid=60 acq ok!
$GNGGA,000000.000,,,,,0,00,,,M,,,,0000*2B

$GNRMC,000000.000,A,,,,,,,000000,,*26

$GPGSA,A,1,,,,,,,,,,,,,,,*1E

$BDGSA,A,1,,,,,,,,,,,,,,,*0F

$GPGSV,1,1,01,19,00,000,17*46

$LOGTIM,0,0.000000,0.000000,0.000000,0.000000,0.000*0A

EndT:        0
sat61 = 2549 3358 1007 -5000
sat62 = 2495 834 1017 -6750
sat63 = 2507 3021 1014 -15000
sat64 = 2504 2711 1015 -5750
---00000010--- Acq_st=3 2019-5-14 10:18:13 
[04]  G19  7 20  -1019.0 2046001.4 -0.1  0.2 20  0        19
[16]  B13  1  7      4.1 4092000.0 -0.0  0.0  1  0      1829
[17]  B24  1  7   1126.4 4091997.0 -0.0  0.0  1  0         0
$GNGGA,000000.000,,,,,0,00,,,M,,,,0000*2B

$GNRMC,000000.000,A,,,,,,,000000,,*26

$GPGSA,A,1,,,,,,,,,,,,,,,*1E

$BDGSA,A,1,,,,,,,,,,,,,,,*0F

$GPGSV,1,1,01,19,00,000,20*42

$LOGTIM,0,0.000000,0.000000,0.000000,0.000000,0.000*0A

EndT:        0
sat65 = 2451 2960 1024 -5750
sat66 = 2553 734 1011 -7750
sat67 = 2453 743 1017 -13500
sat68 = 2610 469 1014 -14500
---00000011--- Acq_st=7 2019-5-14 10:18:14 
[04]  G19  7 21  -1023.9 2046001.2 -0.1  0.0 20  0        19
[17]  B24  1  7   1154.6 4091996.8 -0.1  0.0  1  0       999
$GNGGA,000000.000,,,,,0,00,,,M,,,,0000*2B

$GNRMC,000000.000,A,,,,,,,000000,,*26

$GPGSA,A,1,,,,,,,,,,,,,,,*1E

$BDGSA,A,1,,,,,,,,,,,,,,,*0F

$GPGSV,1,1,01,19,00,000,21*43

$LOGTIM,0,0.000000,0.000000,0.000000,0.000000,0.000*0A

EndT:        0
---00000012--- Acq_st=7 2019-5-14 10:18:15 
[04]  G19  7 20  -1032.0 2046001.1 -0.1  0.0 20  0        19
[17]  B24  1  7   1160.6 4091997.7  0.0  0.0  1  0      1999
$GNGGA,000000.000,,,,,0,00,,,M,,,,0000*2B

$GNRMC,000000.000,A,,,,,,,000000,,*26

$GPGSA,A,1,,,,,,,,,,,,,,,*1E

$BDGSA,A,1,,,,,,,,,,,,,,,*0F

$GPGSV,1,1,01,19,00,000,20*42

$LOGTIM,0,0.000000,0.000000,0.000000,0.000000,0.000*0A

EndT:        0
---00000013--- Acq_st=7 2019-5-14 10:18:16 
[04]  G19  7 21  -1014.5 2046001.1  0.1  0.3 20  0        19
$GNGGA,000000.000,,,,,0,00,,,M,,,,0000*2B

$GNRMC,000000.000,A,,,,,,,000000,,*26

$GPGSA,A,1,,,,,,,,,,,,,,,*1E

$BDGSA,A,1,,,,,,,,,,,,,,,*0F

$GPGSV,1,1,01,19,00,000,21*43

$LOGTIM,0,0.000000,0.000000,0.000000,0.000000,0.000*0A

EndT:        0
sat0 = 16537 1878 5269 3250
sat1 = 188469 1693 5231 2500
ch0 satid=1 acq ok!
sat2 = 33030 1294 5264 -2000
ch1 satid=2 acq ok!
sat3 = 14992 34 5304 4250
sat4 = 15093 1190 5274 1250
---00000014--- Acq_st=3 2019-5-14 10:18:17 
[00]  G02  1  7  -2495.8 2046003.5  0.0  0.0  1  0         5
[01]  G03  1  7   2024.0 2045997.9  0.1  0.0  1  0        13
[04]  G19  7 21  -1018.9 2046001.4  0.1  0.2 20  0        19
$GNGGA,000000.000,,,,,0,00,,,M,,,,0000*2B

$GNRMC,000000.000,A,,,,,,,000000,,*26

$GPGSA,A,1,,,,,,,,,,,,,,,*1E

$BDGSA,A,1,,,,,,,,,,,,,,,*0F

$GPGSV,1,1,01,19,00,000,21*43

$LOGTIM,0,0.000000,0.000000,0.000000,0.000000,0.000*0A

EndT:        0
sat5 = 325722 1590 5290 1000
ch2 satid=5 acq ok!
sat6 = 14034 996 5268 -1250
sat7 = 14257 1493 5222 2250
sat8 = 15055 1105 5244 4250
sat9 = 13881 1433 5311 3250
---00000015--- Acq_st=3 2019-5-14 10:18:18 
[00]  G02  1  7  -2394.4 2046002.9 -0.1  0.0  1  0        12
[01]  G03  1 11   2040.7 2045998.2  0.0  0.0  1  0        19
[02]  G06  1 13   -970.7 2046001.0 -0.0  0.0  1  0        16
[04]  G19  7 20  -1020.9 2046001.3  0.1  0.1 20  0        19
$GNGGA,000000.000,,,,,0,00,,,M,,,,0000*2B

$GNRMC,000000.000,A,,,,,,,000000,,*26

$GPGSA,A,1,,,,,,,,,,,,,,,*1E

$BDGSA,A,1,,,,,,,,,,,,,,,*0F

$GPGSV,1,1,01,19,00,000,20*42

$LOGTIM,0,0.000000,0.000000,0.000000,0.000000,0.000*0A

EndT:        0
sat10 = 16709 2038 5272 -4000
sat11 = 98109 39 5316 4250
ch3 satid=11 acq ok!
sat12 = 15409 1134 5318 3250
sat13 = 14043 582 5220 4750
sat14 = 13963 1212 5275 3000
---00000016--- Acq_st=3 2019-5-14 10:18:19 
[00]  G02  1  7  -2614.3 2046003.1  0.1  0.0  1  0        12
[01]  G03  1  7   2144.8 2045998.2 -0.0  0.0  1  0        19
[02]  G06  1  7   -902.0 2046001.1 -0.3  0.0  1  0         0
[03]  G12  1  7  -4299.4 2046005.1  0.1  0.0  1  0        12
[04]  G19  7 19  -1041.1 2046001.3 -0.0  0.3 20  0        19
$GNGGA,000000.000,,,,,0,00,,,M,,,,0000*2B

$GNRMC,000000.000,A,,,,,,,000000,,*26

$GPGSA,A,1,,,,,,,,,,,,,,,*1E

$BDGSA,A,1,,,,,,,,,,,,,,,*0F

$GPGSV,1,1,01,19,00,000,19*48

$LOGTIM,0,0.000000,0.000000,0.000000,0.000000,0.000*0A

EndT:        0
sat15 = 16900 33 5206 -1500
sat16 = 55474 407 5210 1750
ch5 satid=16 acq ok!
sat17 = 12673 486 5183 5000
sat19 = 14498 1280 5188 2000
sat20 = 14536 669 5194 -500
---00000017--- Acq_st=3 2019-5-14 10:18:20 
[02]  G06  1  7   -826.0 2046001.3 -0.0  0.0  1  0         0
[03]  G12  1  7  -4398.3 2046004.9  0.2  0.0  1  0         3
[04]  G19  7 14  -1041.1 2046001.5 -0.1 -0.2 20  0        19
[05]  G17  1  7  -1691.7 2046002.2 -0.0  0.0  1  0         0
$GNGGA,000000.000,,,,,0,00,,,M,,,,0000*2B

$GNRMC,000000.000,A,,,,,,,000000,,*26

$GPGSA,A,1,,,,,,,,,,,,,,,*1E

$BDGSA,A,1,,,,,,,,,,,,,,,*0F

$GPGSV,1,1,01,19,00,000,14*45

$LOGTIM,0,0.000000,0.000000,0.000000,0.000000,0.000*0A

EndT:        0
sat21 = 17809 471 5190 -2000
sat22 = 17262 1575 5251 -3750
sat23 = 15212 1428 5278 1500
sat24 = 14951 1234 5215 -1250
sat25 = 14903 1639 5239 2250
---00000018--- Acq_st=3 2019-5-14 10:18:21 
[03]  G12  1  7  -4147.6 2046005.4 -0.2  0.0  1  0         3
[04]  G19  7 16  -1041.1 2046001.4 -0.0 -0.3 20  0        19
[05]  G17  1  7  -1673.5 2046001.9  0.1  0.0  1  0        19
sat26 = 13928 525 5235 3500
$GNGGA,000000.000,,,,,0,00,,,M,,,,0000*2B

$GNRMC,000000.000,A,,,,,,,000000,,*26

$GPGSA,A,1,,,,,,,,,,,,,,,*1E

$BDGSA,A,1,,,,,,,,,,,,,,,*0F

$GPGSV,1,1,01,19,00,000,16*47

$LOGTIM,0,0.000000,0.000000,0.000000,0.000000,0.000*0A

EndT:        0
sat27 = 16502 1863 5275 -4500
sat28 = 15489 1543 5231 3000
sat29 = 16143 1199 5233 -1000
sat30 = 14183 187 5190 3500
sat31 = 13761 1578 5200 4750
---00000019--- Acq_st=3 2019-5-14 10:18:22 
[04]  G19  7 12  -1033.1 2046001.3 -0.1 -0.2 20  0        19
[05]  G17  1  7  -1529.3 2046001.8 -0.1  0.0  1  0        19
$GNGGA,000000.000,,,,,0,00,,,M,,,,0000*2B

$GNRMC,000000.000,A,,,,,,,000000,,*26

$GPGSA,A,1,,,,,,,,,,,,,,,*1E

$BDGSA,A,1,,,,,,,,,,,,,,,*0F

$LOGTIM,0,0.000000,0.000000,0.000000,0.000000,0.000*0A

EndT:        0
sat37 = 3291 1094 1328 -750
sat38 = 3783 2744 1358 -2250
sat39 = 3327 973 1343 1000
sat40 = 3729 3544 1355 -4250
---00000020--- Acq_st=3 2019-5-14 10:18:23 
[04]  G19  7  7  -1017.1 2046001.1 -0.0 -0.2 20  0        19
$GNGGA,000000.000,,,,,0,00,,,M,,,,0000*2B

$GNRMC,000000.000,A,,,,,,,000000,,*26

$GPGSA,A,1,,,,,,,,,,,,,,,*1E

$BDGSA,A,1,,,,,,,,,,,,,,,*0F

$LOGTIM,0,0.000000,0.000000,0.000000,0.000000,0.000*0A

EndT:        0
sat41 = 3312 1424 1347 -2500
sat42 = 3419 2887 1340 750
sat43 = 3410 2662 1326 2500
sat44 = 12450 2109 1351 500
ch16 satid=44 acq ok!
sat45 = 3432 2567 1343 2500
---00000021--- Acq_st=3 2019-5-14 10:18:24 
[04]  G19  7  7  -1026.1 2046001.2  0.0 -0.1 20  0        19
[16]  B08  1  7   -538.0 4092000.5 -0.0  0.0  1  0      2829
$GNGGA,000000.000,,,,,0,00,,,M,,,,0000*2B

$GNRMC,000000.000,A,,,,,,,000000,,*26

$GPGSA,A,1,,,,,,,,,,,,,,,*1E

$BDGSA,A,1,,,,,,,,,,,,,,,*0F

$LOGTIM,0,0.000000,0.000000,0.000000,0.000000,0.000*0A

EndT:        0
sat46 = 3808 2707 1350 -1000
sat47 = 3340 1341 1339 4250
sat48 = 47839 3116 1343 2500
ch17 satid=48 acq ok!
sat49 = 32479 2909 1345 2750
ch18 satid=49 acq ok!
---00000022--- Acq_st=3 2019-5-14 10:18:25 
[04]  G19  7  7  -1031.1 2046001.1  0.1  0.2 20  0        19
[16]  B08  1  7   -555.5 4092001.3  0.1  0.0  1  0       273
[17]  B12  1  7  -2490.7 4092006.2 -0.0  0.0  1  0      2999
[18]  B13  1  7  -2728.1 4092006.7 -0.1  0.0  1  0         0
$GNGGA,000000.000,,,,,0,00,,,M,,,,0000*2B

$GNRMC,000000.000,A,,,,,,,000000,,*26

$GPGSA,A,1,,,,,,,,,,,,,,,*1E

$BDGSA,A,1,,,,,,,,,,,,,,,*0F

$LOGTIM,0,0.000000,0.000000,0.000000,0.000000,0.000*0A

EndT:        0
sat50 = 3557 3714 1336 -500
sat51 = 3317 2476 1332 1750
sat52 = 3602 2364 1361 3750
sat53 = 3524 1583 1340 -1500
sat54 = 3232 958 1348 -4500
---00000023--- Acq_st=3 2019-5-14 10:18:26 
[04]  G19  7  7  -1032.1 2046001.4 -0.1 -0.4 20  0        19
[16]  B08  1  7   -617.1 4092001.0  0.0  0.0  1  0      1273
[17]  B12  1 12  -2897.9 4092006.2  0.1  0.0  1  0       390
[18]  B13  1  7  -2918.3 4092007.2 -0.0  0.0  1  0       169
$GNGGA,000000.000,,,,,0,00,,,M,,,,0000*2B

$GNRMC,000000.000,A,,,,,,,000000,,*26

$GPGSA,A,1,,,,,,,,,,,,,,,*1E

$BDGSA,A,1,,,,,,,,,,,,,,,*0F

$LOGTIM,0,0.000000,0.000000,0.000000,0.000000,0.000*0A

EndT:        0
sat55 = 10368 2950 1340 0
ch19 satid=55 acq ok!
sat56 = 3506 1612 1330 -3250
sat57 = 4039 2980 1335 1000
sat58 = 3467 566 1336 2000
---00000024--- Acq_st=3 2019-5-14 10:18:27 
[04]  G19  7  7  -1033.1 2046001.3 -0.2 -0.1 20  0        19
[16]  B08  1  7   -533.7 4092000.9  0.1  0.0  1  0      2273
[17]  B12  1  7  -2704.9 4092006.4 -0.1  0.0  1  0      1390
[18]  B13  1  7  -2884.7 4092007.1 -0.0  0.0  1  0      1169
[19]  B19  1  7    -49.2 4092000.0  0.1  0.0  1  0         0
$GNGGA,000000.000,,,,,0,00,,,M,,,,0000*2B

$GNRMC,000000.000,A,,,,,,,000000,,*26

$GPGSA,A,1,,,,,,,,,,,,,,,*1E

$BDGSA,A,1,,,,,,,,,,,,,,,*0F

$LOGTIM,0,0.000000,0.000000,0.000000,0.000000,0.000*0A

EndT:        0
sat59 = 3599 2966 1342 -4500
sat60 = 3603 2827 1339 -1250
sat61 = 3731 503 1334 -2250
sat62 = 3484 3372 1340 -4000
sat63 = 3950 392 1336 1500
---00000025--- Acq_st=3 2019-5-14 10:18:28 
[04]  G19  7  7  -1040.1 2046001.7 -0.1 -0.3 20  0        19
[18]  B13  1  7  -2853.8 4092007.2  0.0  0.0  1  0      2169
[19]  B19  1  7   -517.5 4092000.3 -0.2  0.0  1  0       844
$GNGGA,000000.000,,,,,0,00,,,M,,,,0000*2B

$GNRMC,000000.000,A,,,,,,,000000,,*26

$GPGSA,A,1,,,,,,,,,,,,,,,*1E

$BDGSA,A,1,,,,,,,,,,,,,,,*0F

$LOGTIM,0,0.000000,0.000000,0.000000,0.000000,0.000*0A

EndT:        0
sat64 = 3557 1686 1349 -2250
sat65 = 3420 3306 1353 -3750
sat66 = 3394 2072 1338 -4250
sat67 = 3705 3653 1345 4500
---00000026--- Acq_st=3 2019-5-14 10:18:29 
[04]  G19  7  7  -1037.1 2046001.4 -0.2 -0.6 20  0        19
[19]  B19  1  7   -483.0 4092000.1  0.1  0.0  1  0      1844
$GNGGA,000000.000,,,,,0,00,,,M,,,,0000*2B

$GNRMC,000000.000,A,,,,,,,000000,,*26

$GPGSA,A,1,,,,,,,,,,,,,,,*1E

$BDGSA,A,1,,,,,,,,,,,,,,,*0F

$LOGTIM,0,0.000000,0.000000,0.000000,0.000000,0.000*0A

EndT:        0
sat68 = 3379 3591 1341 -1000
---00000027--- Acq_st=7 2019-5-14 10:18:30 
$GNGGA,000000.000,,,,,0,00,,,M,,,,0000*2B

$GNRMC,000000.000,A,,,,,,,000000,,*26

$GPGSA,A,1,,,,,,,,,,,,,,,*1E

$BDGSA,A,1,,,,,,,,,,,,,,,*0F

$LOGTIM,0,0.000000,0.000000,0.000000,0.000000,0.000*0A

EndT:        0
---00000028--- Acq_st=7 2019-5-14 10:18:31 
$GNGGA,000000.000,,,,,0,00,,,M,,,,0000*2B

$GNRMC,000000.000,A,,,,,,,000000,,*26

$GPGSA,A,1,,,,,,,,,,,,,,,*1E

$BDGSA,A,1,,,,,,,,,,,,,,,*0F

$LOGTIM,0,0.000000,0.000000,0.000000,0.000000,0.000*0A

EndT:        0
sat0 = 15013 646 5369 1000
sat1 = 186540 127 5332 3500
ch0 satid=1 acq ok!
sat2 = 36725 1891 5353 -2000
ch1 satid=2 acq ok!
sat3 = 15551 786 5294 1250
sat4 = 14691 312 5321 3250
---00000029--- Acq_st=3 2019-5-14 10:18:32 
[00]  G02  1  7  -3544.2 2046003.8  0.1  0.0  1  0        12
[01]  G03  1  7   2011.7 2045998.1  0.1  0.0  1  0        19
sat5 = 341725 2 5384 2000
ch2 satid=5 acq ok!
$GNGGA,000000.000,,,,,0,00,,,M,,,,0000*2B

$GNRMC,000000.000,A,,,,,,,000000,,*26

$GPGSA,A,1,,,,,,,,,,,,,,,*1E

$BDGSA,A,1,,,,,,,,,,,,,,,*0F

$LOGTIM,0,0.000000,0.000000,0.000000,0.000000,0.000*0A

EndT:        0
sat6 = 16219 1173 5290 2000
sat7 = 14314 641 5206 -4500
sat8 = 15440 775 5276 1000
sat9 = 15177 732 5332 2500
---00000030--- Acq_st=3 2019-5-14 10:18:33 
[00]  G02  1  9  -3654.5 2046004.2 -0.0  0.0  1  0        14
[01]  G03  1 12   2000.9 2045997.9 -0.1  0.0  1  0         1
[02]  G06  1  7  -2097.0 2046002.2 -0.0  0.0  1  0         0
$GNGGA,000000.000,,,,,0,00,,,M,,,,0000*2B

$GNRMC,000000.000,A,,,,,,,000000,,*26

$GPGSA,A,1,,,,,,,,,,,,,,,*1E

$BDGSA,A,1,,,,,,,,,,,,,,,*0F

$LOGTIM,0,0.000000,0.000000,0.000000,0.000000,0.000*0A

EndT:        0
sat10 = 14529 250 5247 1000
sat11 = 130695 514 5301 4250
ch3 satid=11 acq ok!
sat12 = 13768 1136 5323 -3000
sat13 = 16178 770 5265 1500
sat14 = 14260 1258 5331 2500
---00000031--- Acq_st=3 2019-5-14 10:18:34 
[00]  G02  1  7  -3633.4 2046004.2 -0.0  0.0  1  0        14
[01]  G03  1  7   1909.6 2045998.4  0.1  0.0  1  0         1
[02]  G06  1 14  -2085.3 2046002.2 -0.1  0.0  1  0         2
[03]  G12  1  7  -4096.7 2046005.0 -0.0  0.0  1  0         3
$GNGGA,000000.000,,,,,0,00,,,M,,,,0000*2B

$GNRMC,000000.000,A,,,,,,,000000,,*26

$GPGSA,A,1,,,,,,,,,,,,,,,*1E

$BDGSA,A,1,,,,,,,,,,,,,,,*0F

$LOGTIM,0,0.000000,0.000000,0.000000,0.000000,0.000*0A

EndT:        0
sat15 = 14769 1280 5295 -2500
sat16 = 51841 999 5292 750
ch4 satid=16 acq ok!
sat17 = 14943 283 5294 4750
sat18 = 95797 777 5207 2250
ch5 satid=18 acq ok!
sat19 = 13548 1008 5256 2250
---00000032--- Acq_st=3 2019-5-14 10:18:35 
[02]  G06  1  7  -2217.8 2046001.9 -0.2  0.0  1  0         2
[03]  G12  1  7  -4043.4 2046004.8  0.1  0.0  1  0         6
[04]  G17  1  7   -787.6 2045999.6 -0.0  0.0  1  0        19
[05]  G19  1  7  -2224.4 2046001.9  0.0  0.0  1  0        19
$GNGGA,000000.000,,,,,0,00,,,M,,,,0000*2B

$GNRMC,000000.000,A,,,,,,,000000,,*26

$GPGSA,A,1,,,,,,,,,,,,,,,*1E

$BDGSA,A,1,,,,,,,,,,,,,,,*0F

$LOGTIM,0,0.000000,0.000000,0.000000,0.000000,0.000*0A

EndT:        0
sat20 = 14522 1569 5250 -3250
sat21 = 16666 1738 5256 4750
sat22 = 18176 368 5246 -3250
sat23 = 14299 1511 5261 750
sat24 = 14876 688 5209 2000
---00000033--- Acq_st=3 2019-5-14 10:18:36 
[03]  G12  1 11  -3807.2 2046004.4 -0.1  0.0  1  0         6
[04]  G17  1  7   -740.5 2045999.9 -0.0  0.0  1  0         2
[05]  G19  1  7  -2302.9 2046002.1  0.0  0.0  1  0        17
sat25 = 14429 2026 5231 -750
$GNGGA,000000.000,,,,,0,00,,,M,,,,0000*2B

$GNRMC,000000.000,A,,,,,,,000000,,*26

$GPGSA,A,1,,,,,,,,,,,,,,,*1E

$BDGSA,A,1,,,,,,,,,,,,,,,*0F

$LOGTIM,0,0.000000,0.000000,0.000000,0.000000,0.000*0A

EndT:        0
sat26 = 17828 438 5319 1250
sat27 = 14511 670 5316 -4000
sat28 = 14856 750 5339 -2250
sat29 = 14309 1228 5288 3750
sat30 = 13872 380 5269 3000
---00000034--- Acq_st=3 2019-5-14 10:18:37 
[04]  G17  1  7   -713.5 2045999.6 -0.1  0.0  1  0         2
[05]  G19  1  9  -2657.5 2046002.0 -0.0  0.0  1  0        17
$GNGGA,000000.000,,,,,0,00,,,M,,,,0000*2B

$GNRMC,000000.000,A,,,,,,,000000,,*26

$GPGSA,A,1,,,,,,,,,,,,,,,*1E

$BDGSA,A,1,,,,,,,,,,,,,,,*0F

$LOGTIM,0,0.000000,0.000000,0.000000,0.000000,0.000*0A

EndT:        0
sat31 = 13981 1080 5324 -750
sat37 = 3511 3527 1327 -4000
sat38 = 3404 1754 1352 750
sat39 = 3848 1778 1341 -4750
---00000035--- Acq_st=3 2019-5-14 10:18:38 
$GNGGA,000000.000,,,,,0,00,,,M,,,,0000*2B

$GNRMC,000000.000,A,,,,,,,000000,,*26

$GPGSA,A,1,,,,,,,,,,,,,,,*1E

$BDGSA,A,1,,,,,,,,,,,,,,,*0F

$LOGTIM,0,0.000000,0.000000,0.000000,0.000000,0.000*0A

EndT:        0
sat40 = 3389 3687 1355 1250
sat41 = 3489 2567 1348 2750
sat42 = 3634 1734 1343 2750
sat43 = 3472 3970 1336 -1750
sat44 = 16081 3953 1353 500
ch16 satid=44 acq ok!
---00000036--- Acq_st=3 2019-5-14 10:18:39 
[16]  B08  1  7   -504.5 4092000.9  0.0  0.0  1  0      3273
$GNGGA,000000.000,,,,,0,00,,,M,,,,0000*2B

$GNRMC,000000.000,A,,,,,,,000000,,*26

$GPGSA,A,1,,,,,,,,,,,,,,,*1E

$BDGSA,A,1,,,,,,,,,,,,,,,*0F

$LOGTIM,0,0.000000,0.000000,0.000000,0.000000,0.000*0A

EndT:        0
sat45 = 3472 450 1340 -2750
sat46 = 3367 1984 1356 4750
sat47 = 3571 1690 1340 -4250
sat48 = 3365 3754 1336 4750
---00000037--- Acq_st=3 2019-5-14 10:18:40 
[16]  B08  1  7   -684.8 4092001.0  0.1  0.0  1  0       102
sat49 = 3374 1097 1341 -3500
$GNGGA,000000.000,,,,,0,00,,,M,,,,0000*2B

$GNRMC,000000.000,A,,,,,,,000000,,*26

$GPGSA,A,1,,,,,,,,,,,,,,,*1E

$BDGSA,A,1,,,,,,,,,,,,,,,*0F

$LOGTIM,0,0.000000,0.000000,0.000000,0.000000,0.000*0A

EndT:        0
sat50 = 3628 501 1333 3750
sat51 = 3231 2440 1333 -3000
sat52 = 3508 704 1356 -3750
sat53 = 3266 2962 1339 -3250
---00000038--- Acq_st=3 2019-5-14 10:18:41 
[16]  B08  1  7   -596.5 4092001.0  0.1  0.0  1  0      1102
$GNGGA,000000.000,,,,,0,00,,,M,,,,0000*2B

$GNRMC,000000.000,A,,,,,,,000000,,*26

$GPGSA,A,1,,,,,,,,,,,,,,,*1E

$BDGSA,A,1,,,,,,,,,,,,,,,*0F

$LOGTIM,0,0.000000,0.000000,0.000000,0.000000,0.000*0A

EndT:        0
sat54 = 4003 3646 1342 -5000
sat55 = 3477 1181 1340 2500
sat56 = 3397 2883 1330 -4750
sat57 = 3449 2195 1332 -4250
---00000039--- Acq_st=3 2019-5-14 10:18:42 
[16]  B08  1 13   -810.0 4092001.1 -0.1  0.0  1  0      2102
sat58 = 3469 2978 1339 -1000
$GNGGA,000000.000,,,,,0,00,,,M,,,,0000*2B

$GNRMC,000000.000,A,,,,,,,000000,,*26

$GPGSA,A,1,,,,,,,,,,,,,,,*1E

$BDGSA,A,1,,,,,,,,,,,,,,,*0F

$LOGTIM,0,0.000000,0.000000,0.000000,0.000000,0.000*0A

EndT:        0
sat59 = 3312 572 1337 250
sat60 = 13872 954 1347 -1500
ch16 satid=60 acq ok!
sat61 = 3460 2232 1334 3250
sat62 = 3397 3225 1335 0
---00000040--- Acq_st=3 2019-5-14 10:18:43 
[16]  B24  1  7   1533.0 4091997.1  0.0  0.0  1  0      3102
$GNGGA,000000.000,,,,,0,00,,,M,,,,0000*2B

$GNRMC,000000.000,A,,,,,,,000000,,*26

$GPGSA,A,1,,,,,,,,,,,,,,,*1E

$BDGSA,A,1,,,,,,,,,,,,,,,*0F

$LOGTIM,0,0.000000,0.000000,0.000000,0.000000,0.000*0A

EndT:        0
sat63 = 3299 3391 1338 -2500
sat64 = 3335 2259 1347 -5000
sat65 = 3442 514 1353 -5000
sat66 = 3503 3435 1341 500
---00000041--- Acq_st=3 2019-5-14 10:18:44 
[16]  B24  1  7   1356.1 4091997.4  0.0  0.0  1  0       569
sat67 = 3487 1034 1345 -2250
$GNGGA,000000.000,,,,,0,00,,,M,,,,0000*2B

$GNRMC,000000.000,A,,,,,,,000000,,*26

$GPGSA,A,1,,,,,,,,,,,,,,,*1E

$BDGSA,A,1,,,,,,,,,,,,,,,*0F

$LOGTIM,0,0.000000,0.000000,0.000000,0.000000,0.000*0A

EndT:        0
sat68 = 3617 654 1338 4750
---00000042--- Acq_st=7 2019-5-14 10:18:45 
[16]  B24  1  7   1548.4 4091997.5  0.3  0.0  1  0      1569
$GNGGA,000000.000,,,,,0,00,,,M,,,,0000*2B

$GNRMC,000000.000,A,,,,,,,000000,,*26

$GPGSA,A,1,,,,,,,,,,,,,,,*1E

$BDGSA,A,1,,,,,,,,,,,,,,,*0F

$LOGTIM,0,0.000000,0.000000,0.000000,0.000000,0.000*0A

EndT:        0
---00000043--- Acq_st=7 2019-5-14 10:18:46 
$GNGGA,000000.000,,,,,0,00,,,M,,,,0000*2B

$GNRMC,000000.000,A,,,,,,,000000,,*26

$GPGSA,A,1,,,,,,,,,,,,,,,*1E

$BDGSA,A,1,,,,,,,,,,,,,,,*0F

$LOGTIM,0,0.000000,0.000000,0.000000,0.000000,0.000*0A

EndT:        0
sat0 = 16798 204 5311 3000
sat1 = 162865 646 5301 2500
ch0 satid=1 acq ok!
sat2 = 38515 441 5300 -2000
ch1 satid=2 acq ok!
sat3 = 15095 1389 5267 -1250
sat4 = 15773 1392 5264 500
---00000044--- Acq_st=3 2019-5-14 10:18:47 
[00]  G02  1  7  -2503.0 2046003.0 -0.1  0.0  1  0        14
[01]  G03  1  7   1960.5 2045998.5  0.1  0.0  1  0         1
$GNGGA,000000.000,,,,,0,00,,,M,,,,0000*2B

$GNRMC,000000.000,A,,,,,,,000000,,*26

$GPGSA,A,1,,,,,,,,,,,,,,,*1E

$BDGSA,A,1,,,,,,,,,,,,,,,*0F

$LOGTIM,0,0.000000,0.000000,0.000000,0.000000,0.000*0A

EndT:        0
sat5 = 318738 520 5321 2000
ch2 satid=5 acq ok!
sat6 = 14506 1653 5288 -3250
sat7 = 14736 1067 5240 1250
sat8 = 15692 1566 5248 3250
sat9 = 14769 1666 5280 4000
---00000045--- Acq_st=3 2019-5-14 10:18:48 
[00]  G02  1  7  -2617.9 2046003.3 -0.0  0.0  1  0        17
[01]  G03  1  7   1846.8 2045998.1 -0.0  0.0  1  0         3
[02]  G06  1  7  -2029.3 2046002.2  0.1  0.0  1  0         2
$GNGGA,000000.000,,,,,0,00,,,M,,,,0000*2B

$GNRMC,000000.000,A,,,,,,,000000,,*26

$GPGSA,A,1,,,,,,,,,,,,,,,*1E

$BDGSA,A,1,,,,,,,,,,,,,,,*0F

$LOGTIM,0,0.000000,0.000000,0.000000,0.000000,0.000*0A

EndT:        0
sat10 = 16953 1715 5287 500
sat11 = 134295 986 5325 4250
ch3 satid=11 acq ok!
sat12 = 15199 154 5318 -2250
sat13 = 14593 1545 5360 -3250
sat14 = 14940 1894 5346 250
---00000046--- Acq_st=3 2019-5-14 10:18:49 
[00]  G02  1  7  -2484.9 2046003.0 -0.2  0.0  1  0        17
[01]  G03  1  7   1984.2 2045998.0 -0.2  0.0  1  0         3
[02]  G06  1  7  -1933.8 2046001.9 -0.0  0.0  1  0         5
[03]  G12  1  7  -4249.2 2046004.6  0.1  0.0  1  0         6
$GNGGA,000000.000,,,,,0,00,,,M,,,,0000*2B

$GNRMC,000000.000,A,,,,,,,000000,,*26

$GPGSA,A,1,,,,,,,,,,,,,,,*1E

$BDGSA,A,1,,,,,,,,,,,,,,,*0F

$LOGTIM,0,0.000000,0.000000,0.000000,0.000000,0.000*0A

EndT:        0
sat15 = 15484 83 5331 -1000
sat16 = 54859 1527 5340 750
ch4 satid=16 acq ok!
sat17 = 13879 344 5350 3750
sat18 = 106797 1268 5234 3250
ch5 satid=18 acq ok!
sat19 = 15018 1219 5313 -2000
---00000047--- Acq_st=3 2019-5-14 10:18:50 
[02]  G06  1  7  -1688.7 2046001.9 -0.1  0.0  1  0         5
[03]  G12  1  7  -4249.9 2046005.2  0.0  0.0  1  0         8
[04]  G17  1  7   -741.6 2045999.9  0.0  0.0  1  0         2
[05]  G19  1  7  -3160.1 2046004.2 -0.0  0.0  1  0        17
sat20 = 15087 176 5287 -2750
$GNGGA,000000.000,,,,,0,00,,,M,,,,0000*2B

$GNRMC,000000.000,A,,,,,,,000000,,*26

$GPGSA,A,1,,,,,,,,,,,,,,,*1E

$BDGSA,A,1,,,,,,,,,,,,,,,*0F

$LOGTIM,0,0.000000,0.000000,0.000000,0.000000,0.000*0A

EndT:        0
sat21 = 15733 640 5270 -3250
sat22 = 13857 728 5329 4750
sat23 = 14697 1072 5355 2000
sat24 = 14726 1975 5249 250
---00000048--- Acq_st=3 2019-5-14 10:18:51 
[03]  G12  1 10  -4093.0 2046004.9 -0.0  0.0  1  0         8
[04]  G17  1  7   -476.1 2046000.2  0.2  0.0  1  0         4
[05]  G19  1  7  -2986.7 2046004.2 -0.1  0.0  1  0        19
sat25 = 16160 1074 5287 4250
$GNGGA,000000.000,,,,,0,00,,,M,,,,0000*2B

$GNRMC,000000.000,A,,,,,,,000000,,*26

$GPGSA,A,1,,,,,,,,,,,,,,,*1E

$BDGSA,A,1,,,,,,,,,,,,,,,*0F

$LOGTIM,0,0.000000,0.000000,0.000000,0.000000,0.000*0A

EndT:        0
sat26 = 14417 687 5287 1750
sat27 = 14670 869 5257 2750
sat28 = 14011 1303 5264 750
sat29 = 14604 1649 5321 -1000
sat30 = 16216 985 5260 750
---00000049--- Acq_st=3 2019-5-14 10:18:52 
[04]  G17  1  9   -473.2 2046000.1 -0.2  0.0  1  0         4
[05]  G19  1  7  -2931.9 2046004.0 -0.1  0.0  1  0        19
$GNGGA,000000.000,,,,,0,00,,,M,,,,0000*2B

$GNRMC,000000.000,A,,,,,,,000000,,*26

$GPGSA,A,1,,,,,,,,,,,,,,,*1E

$BDGSA,A,1,,,,,,,,,,,,,,,*0F

$LOGTIM,0,0.000000,0.000000,0.000000,0.000000,0.000*0A

EndT:        0
sat31 = 13631 1453 5289 -1750
sat37 = 3278 3976 1330 2000
sat38 = 3523 981 1346 -5000
sat39 = 3505 1429 1341 -2750
---00000050--- Acq_st=3 2019-5-14 10:18:53 
sat40 = 3990 1892 1349 1250
$GNGGA,000000.000,,,,,0,00,,,M,,,,0000*2B

$GNRMC,000000.000,A,,,,,,,000000,,*26

$GPGSA,A,1,,,,,,,,,,,,,,,*1E

$BDGSA,A,1,,,,,,,,,,,,,,,*0F

$LOGTIM,0,0.000000,0.000000,0.000000,0.000000,0.000*0A

EndT:        0
sat41 = 3420 3174 1344 -250
sat42 = 3205 3215 1340 1000
sat43 = 3545 1808 1334 -250
sat44 = 4088 442 1352 750
---00000051--- Acq_st=3 2019-5-14 10:18:54 
$GNGGA,000000.000,,,,,0,00,,,M,,,,0000*2B

$GNRMC,000000.000,A,,,,,,,000000,,*26

$GPGSA,A,1,,,,,,,,,,,,,,,*1E

$BDGSA,A,1,,,,,,,,,,,,,,,*0F

$LOGTIM,0,0.000000,0.000000,0.000000,0.000000,0.000*0A

EndT:        0
sat45 = 3419 2954 1341 500
sat46 = 3692 816 1350 3250
sat47 = 3399 693 1336 -2500
sat48 = 5202 79 1335 -1000
---00000052--- Acq_st=3 2019-5-14 10:18:55 
sat49 = 7000 0 1345 -1500
ch16 satid=49 acq ok!
$GNGGA,000000.000,,,,,0,00,,,M,,,,0000*2B

$GNRMC,000000.000,A,,,,,,,000000,,*26

$GPGSA,A,1,,,,,,,,,,,,,,,*1E

$BDGSA,A,1,,,,,,,,,,,,,,,*0F

$LOGTIM,0,0.000000,0.000000,0.000000,0.000000,0.000*0A

EndT:        0
sat50 = 3830 2389 1336 -750
sat51 = 3338 2120 1332 250
sat52 = 3591 781 1347 -1250
sat53 = 3325 21 1336 500
---00000053--- Acq_st=3 2019-5-14 10:18:56 
[16]  B13  1  7   1630.8 4091996.9  0.2  0.0  1  0        21
$GNGGA,000000.000,,,,,0,00,,,M,,,,0000*2B

$GNRMC,000000.000,A,,,,,,,000000,,*26

$GPGSA,A,1,,,,,,,,,,,,,,,*1E

$BDGSA,A,1,,,,,,,,,,,,,,,*0F

$LOGTIM,0,0.000000,0.000000,0.000000,0.000000,0.000*0A

EndT:        0
sat54 = 3416 2406 1340 4750
sat55 = 10244 2 1347 -2500
ch17 satid=55 acq ok!
sat56 = 3228 892 1328 -3250
sat57 = 3420 11 1333 -4500
---00000054--- Acq_st=3 2019-5-14 10:18:57 
[16]  B13  1  7   1399.2 4091997.1 -0.1  0.0  1  0      1021
[17]  B19  1  7   2477.9 4091994.4  0.0  0.0  1  0      2390
sat58 = 3283 2513 1335 -2750
$GNGGA,000000.000,,,,,0,00,,,M,,,,0000*2B

$GNRMC,000000.000,A,,,,,,,000000,,*26

$GPGSA,A,1,,,,,,,,,,,,,,,*1E

$BDGSA,A,1,,,,,,,,,,,,,,,*0F

$LOGTIM,0,0.000000,0.000000,0.000000,0.000000,0.000*0A

EndT:        0
sat59 = 3453 2383 1336 -4500
sat60 = 12435 3876 1335 1750
ch18 satid=60 acq ok!
sat61 = 3610 129 1337 1250
sat62 = 3330 813 1336 2500
---00000055--- Acq_st=3 2019-5-14 10:18:58 
[16]  B13  1  7   1658.4 4091996.9 -0.0  0.0  1  0      2021
[17]  B19  1  7   2406.9 4091994.4  0.1  0.0  1  0       696
[18]  B24  1  7  -1756.3 4092003.9  0.1  0.0  1  0      3169
$GNGGA,000000.000,,,,,0,00,,,M,,,,0000*2B

$GNRMC,000000.000,A,,,,,,,000000,,*26

$GPGSA,A,1,,,,,,,,,,,,,,,*1E

$BDGSA,A,1,,,,,,,,,,,,,,,*0F

$LOGTIM,0,0.000000,0.000000,0.000000,0.000000,0.000*0A

EndT:        0
sat63 = 3730 1348 1339 0
sat64 = 3358 1653 1344 -1000
sat65 = 3624 2289 1352 -1500
sat66 = 3573 297 1337 -2750
---00000056--- Acq_st=3 2019-5-14 10:18:59 
[17]  B19  1  7   2560.0 4091994.4  0.1  0.0  1  0      1696
[18]  B24  1  7  -1806.3 4092003.6  0.0  0.0  1  0       592
sat67 = 3451 2984 1338 2000
$GNGGA,000000.000,,,,,0,00,,,M,,,,0000*2B

$GNRMC,000000.000,A,,,,,,,000000,,*26

$GPGSA,A,1,,,,,,,,,,,,,,,*1E

$BDGSA,A,1,,,,,,,,,,,,,,,*0F

$LOGTIM,0,0.000000,0.000000,0.000000,0.000000,0.000*0A

EndT:        0
sat68 = 3564 1349 1344 -3750
---00000057--- Acq_st=7 2019-5-14 10:19:0 
[18]  B24  1  7  -1763.4 4092004.2  0.1  0.0  1  0      1592
$GNGGA,000000.000,,,,,0,00,,,M,,,,0000*2B

$GNRMC,000000.000,A,,,,,,,000000,,*26

$GPGSA,A,1,,,,,,,,,,,,,,,*1E

$BDGSA,A,1,,,,,,,,,,,,,,,*0F

$LOGTIM,0,0.000000,0.000000,0.000000,0.000000,0.000*0A

EndT:        0

