FlashID=0x1 0x20 0x18
BBram_blkflag1: 29e8: d617
FW Ver: 1.30  
GPS00 Init Dop:  -2473,  2
GPS01 Init Dop:   1947,  2
GPS02 Init Dop:  -2944,  2
GPS03 Init Dop:  -5000, 41
GPS04 Init Dop:  -5000, 41
GPS05 Init Dop:   1014,  2
GPS06 Init Dop:  -5000, 41
GPS07 Init Dop:  -5000, 41
GPS08 Init Dop:  -5000, 41
GPS09 Init Dop:  -5000, 41
GPS10 Init Dop:  -5000, 41
GPS11 Init Dop:   3426,  2
GPS12 Init Dop:  -5000, 41
GPS13 Init Dop:  -5000, 41
GPS14 Init Dop:  -5000, 41
GPS15 Init Dop:  -5000, 41
GPS16 Init Dop:    706,  2
GPS17 Init Dop:  -5000, 41
GPS18 Init Dop:   1536,  2
GPS19 Init Dop:  -5000, 41
GPS20 Init Dop:  -5000, 41
GPS21 Init Dop:  -3152,  2
GPS22 Init Dop:  -5000, 41
GPS23 Init Dop:  -5000, 41
GPS24 Init Dop:  -5000, 41
GPS25 Init Dop:  -5000, 41
GPS26 Init Dop:  -5000, 41
GPS27 Init Dop:  -5000, 41
GPS28 Init Dop:  -5000, 41
GPS29 Init Dop:  -5000, 41
GPS30 Init Dop:  -5000, 41
GPS31 Init Dop:  -5000, 41
BDS00 Init Dop:  -5000, 41
BDS01 Init Dop:  -5000, 41
BDS02 Init Dop:  -5000, 41
BDS03 Init Dop:  -5000, 41
BDS04 Init Dop:  -5000, 41
BDS05 Init Dop:  -5000, 41
BDS06 Init Dop:  -5000, 41
BDS07 Init Dop:     80,  2
BDS08 Init Dop:  -5000, 41
BDS09 Init Dop:  -5000, 41
BDS10 Init Dop:  -5000, 41
BDS11 Init Dop:   1893,  2
BDS12 Init Dop:    184,  2
BDS13 Init Dop:  -5000, 41
BDS14 Init Dop:  -5000, 41
BDS15 Init Dop:  -5000, 41
BDS16 Init Dop:  -5000, 41
BDS17 Init Dop:  -5000, 41
BDS18 Init Dop:   -996,  2
BDS19 Init Dop:  -2774,  2
BDS20 Init Dop:  -5000, 41
BDS21 Init Dop:  -5000, 41
BDS22 Init Dop:  -5000, 41
BDS23 Init Dop:   -978,  2
BDS24 Init Dop:  -5000, 41
BDS25 Init Dop:  -5000, 41
BDS26 Init Dop:  -5000, 41
BDS27 Init Dop:  -5000, 41
BDS28 Init Dop:  -5000, 41
BDS29 Init Dop:  -5000, 41
BDS30 Init Dop:  -5000, 41
BDS31 Init Dop:  -5000, 41
good luck!
---00000001--- Acq_st=3 2019-5-14 10:06:55 
[00]  G02  1 28  -2068.6 2046003.2 -0.0  0.0  1  0         0
[01]  G06  1 23  -1137.8 2046002.1  0.0  0.0  1  0         0
[02]  G12  1  7  -3459.6 2046005.9 -0.0  0.0  1  0         0
[03]  G17  1  0  20000.0 2046000.0  0.0  0.0  1  0         0
$GNGGA,000000.000,,,,,0,00,,,M,,,,0000*2B
$GNRMC,000000.000,A,,,,,,,000000,,*26
$GPGSA,A,1,,,,,,,,,,,,,,,*1E
$BDGSA,A,1,,,,,,,,,,,,,,,*0F
$LOGTIM,0,0.000000,0.000000,0.000000,0.000000,0.000*0A
EndT:        0
---00000002--- Acq_st=3 2019-5-14 10:06:56 
[00]  G02  7 32  -2071.6 2046002.6  0.6  1.0  5  0         1
[01]  G06  7 28  -1138.9 2046001.4  0.5  1.0 10  0         0
[02]  G12  7  7  -3549.3 2046004.6 -0.0  0.0 20  0         8
[03]  G17  1 24   -833.5 2046003.7  0.2  0.0  1  0         2
[04]  G19  1 26  -1659.1 2046003.0  0.0  0.0  1  0         0
$GNGGA,000000.000,,,,,0,00,,,M,,,,0000*2B
$GNRMC,000000.000,A,,,,,,,000000,,*26
$GPGSA,A,1,,,,,,,,,,,,,,,*1E
$BDGSA,A,1,,,,,,,,,,,,,,,*0F
$GPGSV,1,1,02,02,00,000,32,06,00,000,28*74
$LOGTIM,0,0.000000,0.000000,0.000000,0.000000,0.000*0A
EndT:        1
---00000003--- Acq_st=3 2019-5-14 10:06:57 
[00]  G02  7 44  -2071.7 2046002.6  1.0  1.0  5  0         1
[01]  G06  7 49  -1138.6 2046001.4  1.0  1.0  5  0        11
[02]  G12  7 39  -3550.5 2046004.6  0.6  1.0  5  0        18
[03]  G17  7 32   -829.6 2046001.1  0.8  1.0  5  0         2
[04]  G19  7 31  -1660.5 2046002.1  0.5  1.0  5  0        13
$GNGGA,100657.487,3112.7063,N,12136.4138,E,1,05,0.0,149.3,M,,,,0000*1F
$GNRMC,100657.487,A,3112.7063,N,12136.4138,E,0.00,0.00,140519,,*11
$GPGSA,A,3,02,06,12,17,19,,,,,,,,0.0,0.0,0.0*3B
$BDGSA,A,3,,,,,,,,,,,,,0.0,0.0,0.0*23
$GPGSV,2,1,05,02,00,000,44,06,00,000,49,12,00,000,39,17,00,000,32*78
$GPGSV,2,2,05,19,00,000,31*46
$LOGTIM,1,-167596528.366555,0.000000,0.000000,0.000000,0.000*25
EndT:        1
---00000004--- Acq_st=3 2019-5-14 10:06:58 
[00]  G02  7 44  -2072.0 2046002.7  1.0  1.0  5  0         1
[01]  G06  7 50  -1138.7 2046001.4  1.0  1.0  5  0        11
[02]  G12  7 38  -3549.7 2046004.6  1.0  1.0  5  0        18
[03]  G17  7 44   -829.4 2046001.1  1.0  1.0  5  0        12
[04]  G19  7 43  -1660.9 2046002.2  1.0  1.0  5  0        12
[16]  B08  1  7   -113.6 4092000.1  0.0  0.0  1  0         0
[17]  B12  1  7  -1869.4 4092004.0 -0.0  0.0  1  0         0
[18]  B13  1  7   -170.2 4092000.1 -0.0  0.0  1  0         0
$GNGGA,100659.016,3112.6992,N,12136.4201,E,1,05,0.0,147.1,M,,,,0000*1E
$GNRMC,100659.016,A,3112.6992,N,12136.4201,E,0.00,0.00,140519,,*1C
$GPGSA,A,3,02,06,12,17,19,,,,,,,,0.0,0.0,0.0*3B
$BDGSA,A,3,,,,,,,,,,,,,0.0,0.0,0.0*23
$GPGSV,2,1,05,02,00,000,44,06,00,000,50,12,00,000,38,17,00,000,44*70
$GPGSV,2,2,05,19,00,000,43*43
$LOGTIM,1,4723807.871594,0.000000,0.000000,0.000000,0.000*00
EndT:        1
---00000005--- Acq_st=3 2019-5-14 10:06:59 
[00]  G02  7 43  -2071.9 2046002.7  1.0  1.0  5  0        14
[01]  G06  7 49  -1138.5 2046001.5  1.0  1.0  5  0         3
[02]  G12  7 38  -3549.8 2046004.6  1.0  1.0  5  0        11
[03]  G17  7 44   -829.4 2046001.1  1.0  1.0  5  0         5
[04]  G19  7 43  -1660.4 2046002.1  1.0  1.0  5  0         5
[16]  B08  1  8    135.6 4091999.8  0.0  0.0  1  0      1190
[17]  B12  1  7  -1678.9 4092004.4  0.1  0.0  1  0       677
[18]  B13  1  7   -167.8 4092000.3  0.1  0.0  1  0       670
[19]  B20  1  7   2779.2 4091993.2 -0.1  0.0  1  0         0
$GNGGA,100700.026,3112.6969,N,12136.4210,E,1,05,0.0,150.3,M,,,,0000*10
$GNRMC,100700.026,A,3112.6969,N,12136.4210,E,0.00,0.00,140519,,*16
$GPGSA,A,3,02,06,12,17,19,,,,,,,,0.0,0.0,0.0*3B
$BDGSA,A,3,,,,,,,,,,,,,0.0,0.0,0.0*23
$GPGSV,2,1,08,02,20,273,43,06,51,300,49,12,05,324,38,17,69,038,44*75
$GPGSV,2,2,08,19,60,346,43,01,02,067,00,03,23,042,00,22,04,041,00*7E
$BDGSV,2,1,06,08,58,343,00,12,44,324,00,13,46,298,00,19,46,061,00*64
$BDGSV,2,2,06,20,02,035,00,24,15,274,00*6B
$LOGTIM,1,7549087.115972,0.000000,0.000000,0.000000,0.000*02
EndT:        1
---00000006--- Acq_st=3 2019-5-14 10:07:0 
[00]  G02  7 43  -2070.7 2046002.7  1.0  1.0  5  0        14
[01]  G06  7 49  -1137.2 2046001.5  1.0  1.0  5  0         3
[02]  G12  7 38  -3549.1 2046004.6  1.0  1.0  5  0        11
[03]  G17  7 43   -827.9 2046001.1  1.0  1.0  5  0         5
[04]  G19  7 43  -1658.7 2046002.1  1.0  1.0  5  0         5
[16]  B08  1  7    301.8 4091999.9  0.0  0.0  1  0      2190
[17]  B12  1  7  -1707.8 4092004.0  0.1  0.0  1  0      1677
[18]  B13  1  7   -234.9 4092000.0 -0.1  0.0  1  0      1670
[19]  B20  1  7   2954.0 4091993.1 -0.1  0.0  1  0       804
$GNGGA,100701.031,3112.6960,N,12136.4206,E,1,05,0.0,155.1,M,,,,0000*1E
$GNRMC,100701.031,A,3112.6960,N,12136.4206,E,0.00,0.00,140519,,*1F
$GPGSA,A,3,02,06,12,17,19,,,,,,,,0.0,0.0,0.0*3B
$BDGSA,A,3,,,,,,,,,,,,,0.0,0.0,0.0*23
$GPGSV,2,1,08,02,20,273,43,06,51,300,49,12,05,324,38,17,69,038,43*72
$GPGSV,2,2,08,19,60,346,43,01,02,067,00,03,23,042,00,22,04,041,00*7E
$BDGSV,2,1,06,08,58,343,00,12,44,324,00,13,46,298,00,19,46,061,00*64
$BDGSV,2,2,06,20,02,035,00,24,15,274,00*6B
$LOGTIM,1,9167378.825144,0.000000,0.000000,0.000000,0.000*00
EndT:        1
---00000007--- Acq_st=7 2019-5-14 10:07:1 
[00]  G02  f 43  -2067.1 2046002.7  1.0  1.0  5  0        14
[01]  G06  f 49  -1133.9 2046001.4  1.0  1.0  5  0         3
[02]  G12  f 38  -3544.6 2046004.6  1.0  1.0  5  0        11
[03]  G17  f 43   -824.4 2046001.1  1.0  1.0  5  0         5
[04]  G19  f 43  -1655.4 2046002.1  1.0  1.0  5  0         5
[17]  B12  1  7  -1782.7 4092003.5  0.1  0.0  1  0      2677
[18]  B13  1 12   -158.3 4091999.7 -0.2  0.0  1  0      2670
[19]  B20  1  7   2810.9 4091993.4 -0.1  0.0  1  0      1804
lsq: nits= 5
$GNGGA,100701.874,3112.7172,N,12136.4217,E,1,05,3.4,86.8,M,,,,0000*2C
$GNRMC,100701.874,A,3112.7172,N,12136.4217,E,0.10,0.00,140519,,*1D
$GPGSA,A,3,02,06,12,17,19,,,,,,,,4.5,3.4,2.9*36
$BDGSA,A,3,,,,,,,,,,,,,4.5,3.4,2.9*2E
$GPGSV,2,1,08,02,20,273,43,06,51,300,49,12,05,324,38,17,69,038,43*72
$GPGSV,2,2,08,19,60,346,43,01,02,067,00,03,23,042,00,22,04,041,00*7E
$BDGSV,2,1,06,08,58,343,00,12,44,324,00,13,46,298,00,19,46,061,00*64
$BDGSV,2,2,06,20,02,035,00,24,15,274,00*6B
$LOGTIM,1,9288953.269403,0.000000,0.000000,0.000000,-64.022*1A
EndT:        1
---00000008--- Acq_st=3 2019-5-14 10:07:2 
[00]  G02  f 44  -2064.4 2046002.7  1.0  1.0  5  0 209239794
[01]  G06  f 49  -1130.9 2046001.5  1.0  1.0  5  0 209239803
[02]  G12  f 38  -3542.2 2046004.6  1.0  1.0  5  0 209239791
[03]  G17  f 44   -821.2 2046001.1  1.0  1.0  5  0 209239805
[04]  G19  f 43  -1652.2 2046002.1  1.0  1.0  5  0 209239805
[05]  G03  1 22   2829.8 2045996.3 -0.1  0.0  1  0        14
[19]  B20  1  7   2540.9 4091993.5 -0.1  0.0  1  0      2804
lsq: nits= 2
$GNGGA,100702.874,3112.7242,N,12136.4219,E,1,05,3.4,76.7,M,,,,0000*21
$GNRMC,100702.874,A,3112.7242,N,12136.4219,E,0.29,0.00,140519,,*1A
$GPGSA,A,3,02,06,12,17,19,,,,,,,,4.5,3.4,2.9*36
$BDGSA,A,3,,,,,,,,,,,,,4.5,3.4,2.9*2E
$GPGSV,2,1,08,02,20,273,44,06,51,300,49,12,05,324,38,17,69,038,44*72
$GPGSV,2,2,08,19,60,346,43,01,02,067,00,03,23,042,00,22,04,041,00*7E
$BDGSV,2,1,06,08,58,343,00,12,44,324,00,13,46,298,00,19,46,061,00*64
$BDGSV,2,2,06,20,02,035,00,24,15,274,00*6B
$LOGTIM,1,0.000000,0.000000,0.000000,0.000000,-63.919*12
EndT:        2
---00000009--- Acq_st=3 2019-5-14 10:07:3 
[00]  G02  f 44  -2064.3 2046002.7  1.0  1.0  5  0 209240794
[01]  G06  f 50  -1130.3 2046001.5  1.0  1.0  5  0 209240803
[02]  G12  f 38  -3541.5 2046004.5  1.0  1.0  5  0 209240791
[03]  G17  f 44   -820.8 2046001.1  1.0  1.0  5  0 209240805
[04]  G19  f 43  -1651.8 2046002.1  1.0  1.0  5  0 209240805
[05]  G22  1 21   3048.9 2045997.4 -0.2  0.0  1  0        16
lsq: nits= 2
$GNGGA,100704.000,3112.7250,N,12136.4219,E,1,05,3.4,76.4,M,,,,0000*2C
$GNRMC,100704.000,A,3112.7250,N,12136.4219,E,0.43,0.00,140519,,*18
$GPGSA,A,3,02,06,12,17,19,,,,,,,,4.5,3.4,2.9*36
$BDGSA,A,3,,,,,,,,,,,,,4.5,3.4,2.9*2E
$GPGSV,2,1,08,02,20,273,44,06,51,300,50,12,05,324,38,17,69,038,44*7A
$GPGSV,2,2,08,19,60,346,43,01,02,067,00,03,23,042,00,22,04,041,00*7E
$BDGSV,2,1,06,08,58,343,00,12,44,324,00,13,46,298,00,19,46,061,00*64
$BDGSV,2,2,06,20,02,035,00,24,15,274,00*6B
$LOGTIM,1,-69.641768,0.000000,0.000000,0.000000,-63.434*08
EndT:        2
---00000010--- Acq_st=3 2019-5-14 10:07:4 
[00]  G02  f 43  -2061.5 2046002.7  1.0  1.0  5  0 209241919
[01]  G06  f 49  -1127.4 2046001.5  1.0  1.0  5  0 209241929
[02]  G12  f 39  -3538.5 2046004.6  1.0  1.0  5  0 209241916
[03]  G17  f 44   -818.0 2046001.1  1.0  1.0  5  0 209241930
[04]  G19  f 43  -1648.7 2046002.1  1.0  1.0  5  0 209241930
[05]  G22  7 24   3037.5 2045995.9 -0.1  0.0 20  0         2
lsq: nits= 2
$GNGGA,100705.000,3112.7256,N,12136.4219,E,1,05,3.4,75.3,M,,,,0000*2F
$GNRMC,100705.000,A,3112.7256,N,12136.4219,E,0.14,0.00,140519,,*1D
$GPGSA,A,3,02,06,12,17,19,,,,,,,,4.5,3.4,2.9*36
$BDGSA,A,3,,,,,,,,,,,,,4.5,3.4,2.9*2E
$GPGSV,2,1,08,02,20,273,43,06,51,300,49,12,05,324,39,17,69,038,44*74
$GPGSV,2,2,08,19,60,346,43,22,04,041,24,01,02,067,00,03,23,042,00*78
$BDGSV,2,1,06,08,58,343,00,12,44,324,00,13,46,298,00,19,46,061,00*64
$BDGSV,2,2,06,20,02,035,00,24,15,274,00*6B
$LOGTIM,1,-133.229433,0.000000,0.000000,0.000000,-63.559*3B
EndT:        2
---00000011--- Acq_st=3 2019-5-14 10:07:5 
[00]  G02  f 43  -2064.4 2046002.7  1.0  1.0  5  0 209242919
[01]  G06  f 49  -1130.5 2046001.5  1.0  1.0  5  0 209242929
[02]  G12  f 39  -3541.4 2046004.6  1.0  1.0  5  0 209242916
[03]  G17  f 45   -820.5 2046001.1  1.0  1.0  5  0 209242930
[04]  G19  f 44  -1651.9 2046002.1  1.0  1.0  5  0 209242930
[05]  G22  7 36   3035.0 2045995.9  0.6  1.0  5  0        14
[16]  B08  1  7   -289.4 4091999.9  0.1  0.0  1  0       126
lsq: nits= 2
$GNGGA,100706.000,3112.7260,N,12136.4221,E,1,05,3.4,74.7,M,,,,0000*27
$GNRMC,100706.000,A,3112.7260,N,12136.4221,E,0.23,0.00,140519,,*14
$GPGSA,A,3,02,06,12,17,19,,,,,,,,4.5,3.4,2.9*36
$BDGSA,A,3,,,,,,,,,,,,,4.5,3.4,2.9*2E
$GPGSV,2,1,08,02,20,273,43,06,51,300,49,12,05,324,39,17,69,038,45*75
$GPGSV,2,2,08,19,60,346,44,22,04,041,36,01,02,067,00,03,23,042,00*7C
$BDGSV,2,1,06,08,58,343,00,12,44,324,00,13,46,298,00,19,46,061,00*64
$BDGSV,2,2,06,20,02,035,00,24,15,274,00*6B
$LOGTIM,1,-197.060484,0.000000,0.000000,0.000000,-63.831*35
EndT:        2
---00000012--- Acq_st=3 2019-5-14 10:07:6 
[00]  G02  f 43  -2065.4 2046002.7  1.0  1.0  5  0 209243919
[01]  G06  f 49  -1131.3 2046001.5  1.0  1.0  5  0 209243929
[02]  G12  f 39  -3542.1 2046004.6  1.0  1.0  5  0 209243916
[03]  G17  f 44   -821.4 2046001.1  1.0  1.0  5  0 209243930
[04]  G19  f 43  -1652.2 2046002.1  1.0  1.0  5  0 209243930
[05]  G22  7 36   3033.1 2045996.0  1.0  1.0  5  0        14
[16]  B08  1  7   -141.5 4092000.1 -0.0  0.0  1  0      1126
lsq: nits= 2
$GNGGA,100707.000,3112.7265,N,12136.4222,E,1,05,3.4,74.3,M,,,,0000*24
$GNRMC,100707.000,A,3112.7265,N,12136.4222,E,0.11,0.00,140519,,*12
$GPGSA,A,3,02,06,12,17,19,,,,,,,,4.5,3.4,2.9*36
$BDGSA,A,3,,,,,,,,,,,,,4.5,3.4,2.9*2E
$GPGSV,2,1,08,02,20,273,43,06,51,300,49,12,05,324,39,17,69,038,44*74
$GPGSV,2,2,08,19,60,346,43,22,04,041,36,01,02,067,00,03,23,042,00*7B
$BDGSV,2,1,06,08,58,343,00,12,44,324,00,13,46,298,00,19,46,061,00*64
$BDGSV,2,2,06,20,02,035,00,24,15,274,00*6B
$LOGTIM,1,-260.851746,0.000000,0.000000,0.000000,-63.764*36
EndT:        2
---00000013--- Acq_st=3 2019-5-14 10:07:7 
[00]  G02  f 44  -2064.1 2046002.7  1.0  1.0  5  0 209244919
[01]  G06  f 49  -1130.0 2046001.5  1.0  1.0  5  0 209244929
[02]  G12  f 39  -3540.9 2046004.6  1.0  1.0  5  0 209244916
[03]  G17  f 44   -819.9 2046001.1  1.0  1.0  5  0 209244930
[04]  G19  f 43  -1650.9 2046002.1  1.0  1.0  5  0 209244930
[05]  G22  f 36   3035.2 2045996.0  1.0  1.0  5  0        14
[16]  B08  1  7    -92.1 4092000.1 -0.1  0.0  1  0      2126
[17]  B24  1  7    991.5 4091998.3 -0.1  0.0  1  0        21
lsq: nits= 2
$GNGGA,100708.000,3112.7278,N,12136.4225,E,1,06,2.4,73.6,M,,,,0000*20
$GNRMC,100708.000,A,3112.7278,N,12136.4225,E,0.06,0.00,140519,,*10
$GPGSA,A,3,02,06,12,17,19,22,,,,,,,2.8,2.4,1.5*33
$BDGSA,A,3,,,,,,,,,,,,,2.8,2.4,1.5*2B
$GPGSV,2,1,08,02,20,273,44,06,51,300,49,12,05,324,39,17,69,038,44*73
$GPGSV,2,2,08,19,60,346,43,22,04,041,36,01,02,067,00,03,23,042,00*7B
$BDGSV,2,1,06,08,58,343,00,12,44,324,00,13,46,298,00,19,46,061,00*64
$BDGSV,2,2,06,20,02,035,00,24,15,274,00*6B
$LOGTIM,1,-324.725136,0.000000,0.000000,0.000000,-63.567*3B
EndT:        2
---00000014--- Acq_st=7 2019-5-14 10:07:8 
[00]  G02  f 45  -2063.1 2046002.7  1.0  1.0  5  0 209245919
[01]  G06  f 49  -1129.0 2046001.5  1.0  1.0  5  0 209245929
[02]  G12  f 39  -3539.8 2046004.6  1.0  1.0  5  0 209245916
[03]  G17  f 44   -819.0 2046001.1  1.0  1.0  5  0 209245930
[04]  G19  f 44  -1649.8 2046002.1  1.0  1.0  5  0 209245930
[05]  G22  f 37   3035.4 2045996.0  1.0  1.0  5  0 209245914
[17]  B24  1  9    940.9 4091998.5 -0.0  0.0  1  0      1021
lsq: nits= 2
$GNGGA,100709.000,3112.7281,N,12136.4227,E,1,06,2.4,73.3,M,,,,0000*20
$GNRMC,100709.000,A,3112.7281,N,12136.4227,E,0.09,0.00,140519,,*1A
$GPGSA,A,3,02,06,12,17,19,22,,,,,,,2.8,2.4,1.5*33
$BDGSA,A,3,,,,,,,,,,,,,2.8,2.4,1.5*2B
$GPGSV,2,1,08,02,20,273,45,06,51,300,49,12,05,324,39,17,69,038,44*72
$GPGSV,2,2,08,19,60,346,44,22,04,041,37,01,02,067,00,03,23,042,00*7D
$BDGSV,2,1,06,08,58,343,00,12,44,324,00,13,46,298,00,19,46,061,00*64
$BDGSV,2,2,06,20,02,035,00,24,15,274,00*6B
$LOGTIM,1,-388.528037,0.000000,0.000000,0.000000,-63.556*30
EndT:        2
---00000015--- Acq_st=7 2019-5-14 10:07:9 
[00]  G02  f 44  -2063.4 2046002.7  1.0  1.0  5  0 209246919
[01]  G06  f 49  -1129.1 2046001.5  1.0  1.0  5  0 209246929
[02]  G12  f 39  -3539.8 2046004.6  1.0  1.0  5  0 209246916
[03]  G17  f 44   -819.0 2046001.1  1.0  1.0  5  0 209246930
[04]  G19  f 44  -1649.8 2046002.1  1.0  1.0  5  0 209246930
[05]  G22  f 36   3034.7 2045996.0  1.0  0.9  5  0 209246914
[17]  B24  1  9   1065.3 4091997.9 -0.1  0.0  1  0      2021
lsq: nits= 2
$GNGGA,100710.000,3112.7277,N,12136.4228,E,1,06,2.4,73.7,M,,,,0000*2A
$GNRMC,100710.000,A,3112.7277,N,12136.4228,E,0.37,0.00,140519,,*19
$GPGSA,A,3,02,06,12,17,19,22,,,,,,,2.8,2.4,1.5*33
$BDGSA,A,3,,,,,,,,,,,,,2.8,2.4,1.5*2B
$GPGSV,2,1,08,02,20,273,44,06,51,300,49,12,05,324,39,17,69,038,44*73
$GPGSV,2,2,08,19,60,346,44,22,04,041,36,01,02,067,00,03,23,042,00*7C
$BDGSV,2,1,06,08,58,343,00,12,44,324,00,13,46,298,00,19,46,061,00*64
$BDGSV,2,2,06,20,02,035,00,24,15,274,00*6B
$LOGTIM,1,-451.973739,0.000000,0.000000,0.000000,-63.328*37
EndT:        2
---00000016--- Acq_st=7 2019-5-14 10:07:10 
[00]  G02  f 44  -2059.2 2046002.7  1.0  1.0  5  0 209247919
[01]  G06  f 49  -1124.7 2046001.5  1.0  1.0  5  0 209247929
[02]  G12  f 39  -3535.1 2046004.6  1.0  1.0  5  0 209247916
[03]  G17  f 44   -814.4 2046001.1  1.0  1.0  5  0 209247930
[04]  G19  f 44  -1645.5 2046002.1  1.0  1.0  5  0 209247930
[05]  G22  f 37   3039.5 2045996.0  1.0  1.0  5  0 209247914
lsq: nits= 2
$GNGGA,100711.000,3112.7269,N,12136.4231,E,1,06,2.4,74.0,M,,,,0000*2C
$GNRMC,100711.000,A,3112.7269,N,12136.4231,E,0.48,0.00,140519,,*17
$GPGSA,A,3,02,06,12,17,19,22,,,,,,,2.8,2.4,1.5*33
$BDGSA,A,3,,,,,,,,,,,,,2.8,2.4,1.5*2B
$GPGSV,2,1,08,02,20,273,44,06,51,300,49,12,05,324,39,17,69,038,44*73
$GPGSV,2,2,08,19,60,346,44,22,04,041,37,01,02,067,00,03,23,042,00*7D
$BDGSV,2,1,06,08,58,343,00,12,44,324,00,13,46,298,00,19,46,061,00*64
$BDGSV,2,2,06,20,02,035,00,24,15,274,00*6B
$LOGTIM,1,-515.363103,0.000000,0.000000,0.000000,-63.159*36
EndT:        2
---00000017--- Acq_st=3 2019-5-14 10:07:11 
[00]  G02  f 44  -2060.9 2046002.7  1.0  1.0  5  0 209248919
[01]  G06  f 50  -1126.1 2046001.5  1.0  1.0  5  0 209248929
[02]  G12  f 38  -3536.2 2046004.6  1.0  1.0  5  0 209248916
[03]  G17  f 44   -815.3 2046001.1  1.0  1.0  5  0 209248930
[04]  G19  f 44  -1646.8 2046002.1  1.0  1.0  5  0 209248930
[05]  G22  f 36   3037.7 2045996.0  1.0  0.9  5  0 209248914
lsq: nits= 2
$GNGGA,100712.000,3112.7259,N,12136.4235,E,1,06,2.4,74.3,M,,,,0000*2B
$GNRMC,100712.000,A,3112.7259,N,12136.4235,E,0.20,0.00,140519,,*1D
$GPGSA,A,3,02,06,12,17,19,22,,,,,,,2.8,2.4,1.5*33
$BDGSA,A,3,,,,,,,,,,,,,2.8,2.4,1.5*2B
$GPGSV,2,1,08,02,20,273,44,06,51,300,50,12,05,324,38,17,69,038,44*7A
$GPGSV,2,2,08,19,60,346,44,22,04,041,36,01,02,067,00,03,23,042,00*7C
$BDGSV,2,1,06,08,58,343,00,12,44,324,00,13,46,298,00,19,46,061,00*64
$BDGSV,2,2,06,20,02,035,00,24,15,274,00*6B
$LOGTIM,1,-579.200545,0.000000,0.000000,0.000000,-63.390*39
EndT:        2
---00000018--- Acq_st=3 2019-5-14 10:07:12 
[00]  G02  f 43  -2062.8 2046002.7  1.0  1.0  5  0 209249919
[01]  G06  f 49  -1128.2 2046001.5  1.0  1.0  5  0 209249929
[02]  G12  f 37  -3538.4 2046004.6  1.0  1.0  5  0 209249916
[03]  G17  f 44   -817.7 2046001.1  1.0  1.0  5  0 209249930
[04]  G19  f 44  -1648.9 2046002.1  1.0  1.0  5  0 209249930
[05]  G22  f 36   3035.8 2045996.0  1.0  1.0  5  0 209249914
lsq: nits= 2
$GNGGA,100713.000,3112.7248,N,12136.4239,E,1,06,2.4,74.4,M,,,,0000*21
$GNRMC,100713.000,A,3112.7248,N,12136.4239,E,0.16,0.00,140519,,*15
$GPGSA,A,3,02,06,12,17,19,22,,,,,,,2.8,2.4,1.5*33
$BDGSA,A,3,,,,,,,,,,,,,2.8,2.4,1.5*2B
$GPGSV,2,1,08,02,20,273,43,06,51,300,49,12,05,324,37,17,69,038,44*7A
$GPGSV,2,2,08,19,60,346,44,22,04,041,36,01,02,067,00,03,23,042,00*7C
$BDGSV,2,1,06,08,58,343,00,12,44,324,00,13,46,298,00,19,46,061,00*64
$BDGSV,2,2,06,20,02,035,00,24,15,274,00*6B
$LOGTIM,1,-643.841997,0.000000,0.000000,0.000000,-63.818*34
EndT:        2
---00000019--- Acq_st=3 2019-5-14 10:07:13 
[00]  G02  f 44  -2065.0 2046002.7  1.0  1.0  5  0 209250919
[01]  G06  f 49  -1130.5 2046001.5  1.0  1.0  5  0 209250929
[02]  G12  f 38  -3540.8 2046004.6  1.0  1.0  5  0 209250916
[03]  G17  f 43   -819.3 2046001.1  1.0  1.0  5  0 209250930
[04]  G19  f 44  -1651.0 2046002.2  1.0  1.0  5  0 209250930
[05]  G22  f 35   3033.8 2045996.1  1.0  1.0  5  0 209250914
lsq: nits= 2
$GNGGA,100714.000,3112.7240,N,12136.4243,E,1,06,2.4,74.7,M,,,,0000*20
$GNRMC,100714.000,A,3112.7240,N,12136.4243,E,0.05,0.00,140519,,*15
$GPGSA,A,3,02,06,12,17,19,22,,,,,,,2.8,2.4,1.5*33
$BDGSA,A,3,,,,,,,,,,,,,2.8,2.4,1.5*2B
$GPGSV,2,1,08,02,20,273,44,06,51,300,49,12,05,324,38,17,69,038,43*75
$GPGSV,2,2,08,19,60,346,44,22,04,041,35,01,02,067,00,03,23,042,00*7F
$BDGSV,2,1,06,08,58,343,00,12,44,324,00,13,46,298,00,19,46,061,00*64
$BDGSV,2,2,06,20,02,035,00,24,15,274,00*6B
$LOGTIM,1,-708.387017,0.000000,0.000000,0.000000,-63.825*34
EndT:        2
---00000020--- Acq_st=3 2019-5-14 10:07:14 
[00]  G02  f 44  -2063.6 2046002.7  1.0  1.0  5  0 209251919
[01]  G06  f 49  -1128.8 2046001.5  1.0  1.0  5  0 209251929
[02]  G12  f 38  -3539.0 2046004.6  1.0  1.0  5  0 209251916
[03]  G17  f 43   -818.0 2046001.0  1.0  1.0  5  0 209251930
[04]  G19  f 44  -1649.0 2046002.2  1.0  1.0  5  0 209251930
[05]  G22  f 36   3035.0 2045996.0  1.0  1.0  5  0 209251914
[16]  B08  1  7     25.3 4092000.3 -0.0  0.0  1  0       140
lsq: nits= 2
$GNGGA,100715.000,3112.7234,N,12136.4246,E,1,06,2.4,75.1,M,,,,0000*20
$GNRMC,100715.000,A,3112.7234,N,12136.4246,E,0.17,0.00,140519,,*11
$GPGSA,A,3,02,06,12,17,19,22,,,,,,,2.8,2.4,1.5*33
$BDGSA,A,3,,,,,,,,,,,,,2.8,2.4,1.5*2B
$GPGSV,2,1,08,02,20,273,44,06,51,300,49,12,05,324,38,17,69,038,43*75
$GPGSV,2,2,08,19,60,346,44,22,04,041,36,01,02,067,00,03,23,042,00*7C
$BDGSV,2,1,06,08,58,343,00,12,44,324,00,13,46,298,00,19,46,061,00*64
$BDGSV,2,2,06,20,02,035,00,24,15,274,00*6B
$LOGTIM,1,-772.553915,0.000000,0.000000,0.000000,-63.642*32
EndT:        2
---00000021--- Acq_st=3 2019-5-14 10:07:15 
[00]  G02  f 43  -2062.0 2046002.7  1.0  1.0  5  0 209252919
[01]  G06  f 49  -1127.2 2046001.5  1.0  1.0  5  0 209252929
[02]  G12  f 38  -3537.3 2046004.6  1.0  1.0  5  0 209252916
[03]  G17  f 43   -816.4 2046001.1  1.0  1.0  5  0 209252930
[04]  G19  f 43  -1647.5 2046002.1  1.0  1.0  5  0 209252930
[05]  G22  f 36   3036.6 2045996.0  1.0  1.0  5  0 209252914
[16]  B08  1  9    120.1 4092000.0  0.1  0.0  1  0      1140
[17]  B12  1  7  -2003.2 4092004.9  0.0  0.0  1  0       550
[18]  B13  1  7   -538.2 4092001.0 -0.0  0.0  1  0       465
lsq: nits= 2
$GNGGA,100716.000,3112.7229,N,12136.4251,E,1,06,2.4,75.4,M,,,,0000*2C
$GNRMC,100716.000,A,3112.7229,N,12136.4251,E,0.36,0.00,140519,,*1B
$GPGSA,A,3,02,06,12,17,19,22,,,,,,,2.8,2.4,1.5*33
$BDGSA,A,3,,,,,,,,,,,,,2.8,2.4,1.5*2B
$GPGSV,2,1,08,02,20,273,43,06,51,300,49,12,05,324,38,17,69,038,43*72
$GPGSV,2,2,08,19,60,346,43,22,04,041,36,01,02,067,00,03,23,042,00*7B
$BDGSV,2,1,06,08,58,343,00,12,44,324,00,13,46,298,00,19,46,061,00*64
$BDGSV,2,2,06,20,02,035,00,24,15,274,00*6B
$LOGTIM,1,-836.627707,0.000000,0.000000,0.000000,-63.541*30
EndT:        3
---00000022--- Acq_st=3 2019-5-14 10:07:16 
[00]  G02  f 44  -2063.5 2046002.7  1.0  1.0  5  0 209253919
[01]  G06  f 49  -1128.2 2046001.5  1.0  1.0  5  0 209253929
[02]  G12  f 37  -3538.5 2046004.6  1.0  1.0  5  0 209253916
[03]  G17  f 43   -816.8 2046001.1  1.0  1.0  5  0 209253930
[04]  G19  f 44  -1648.2 2046002.1  1.0  1.0  5  0 209253930
[05]  G22  f 36   3034.8 2045996.1  1.0  1.0  5  0 209253914
[16]  B08  1  7     87.0 4091999.7 -0.1  0.0  1  0      2140
[17]  B12  1  7  -2116.1 4092005.1 -0.0  0.0  1  0      1550
[18]  B13  1  7   -397.8 4092000.6  0.0  0.0  1  0      1465
[19]  B19  1  7   1330.1 4091996.9  0.2  0.0  1  0       538
[20]  B24  1  7    798.7 4091998.9  0.0  0.0  1  0         0
lsq: nits= 2
$GNGGA,100717.000,3112.7222,N,12136.4255,E,1,05,2.6,75.3,M,,,,0000*24
$GNRMC,100717.000,A,3112.7222,N,12136.4255,E,0.32,0.00,140519,,*11
$GPGSA,A,3,02,06,12,17,22,,,,,,,,3.1,2.6,1.8*3C
$BDGSA,A,3,,,,,,,,,,,,,3.1,2.6,1.8*2C
$GPGSV,2,1,08,02,20,273,44,06,51,300,49,12,05,324,37,17,69,038,43*7A
$GPGSV,2,2,08,19,60,346,44,22,04,041,36,01,02,067,00,03,23,042,00*7C
$BDGSV,2,1,06,08,58,343,00,12,44,324,00,13,46,298,00,19,46,061,00*64
$BDGSV,2,2,06,20,02,035,00,24,15,274,00*6B
$LOGTIM,1,-901.450821,0.000000,0.000000,0.000000,-64.158*37
EndT:        2
---00000023--- Acq_st=3 2019-5-14 10:07:18 
[00]  G02  f 44  -2067.9 2046002.7  1.0  1.0  5  0 209254919
[01]  G06  f 49  -1132.8 2046001.5  1.0  1.0  5  0 209254929
[02]  G12  f 36  -3542.4 2046004.6  1.0  1.0  5  0 209254916
[03]  G17  f 43   -821.7 2046001.1  1.0  1.0  5  0 209254930
[04]  G19  f 44  -1652.8 2046002.2  1.0  1.0  5  0 209254931
[05]  G22  f 36   3029.9 2045996.1  1.0  0.9  5  0 209254914
[17]  B12  1 10  -2148.0 4092005.0 -0.1  0.0  1  0      2550
[18]  B13  1  7   -455.7 4092001.2 -0.0  0.0  1  0      2465
[19]  B19  1  7   1326.5 4091996.9 -0.1  0.0  1  0      1538
[20]  B24  1  7    328.6 4091999.4  0.1  0.0  1  0       781
lsq: nits= 2
$GNGGA,100718.000,3112.7217,N,12136.4259,E,1,06,2.4,75.4,M,,,,0000*27
$GNRMC,100718.000,A,3112.7217,N,12136.4259,E,0.58,0.00,140519,,*18
$GPGSA,A,3,02,06,12,17,19,22,,,,,,,2.8,2.4,1.5*33
$BDGSA,A,3,,,,,,,,,,,,,2.8,2.4,1.5*2B
$GPGSV,2,1,08,02,20,273,44,06,51,300,49,12,05,324,36,17,69,038,43*7B
$GPGSV,2,2,08,19,60,346,44,22,04,041,36,01,02,067,00,03,23,042,00*7C
$BDGSV,2,1,06,08,58,343,00,12,44,324,00,13,46,298,00,19,46,061,00*64
$BDGSV,2,2,06,20,02,035,00,24,15,274,00*6B
$LOGTIM,1,-966.807477,0.000000,0.000000,0.000000,-64.607*3A
EndT:        3
---00000024--- Acq_st=7 2019-5-14 10:07:18 
[00]  G02  f 44  -2070.3 2046002.7  1.0  1.0  5  0 209255919
[01]  G06  f 49  -1134.9 2046001.5  1.0  1.0  5  0 209255929
[02]  G12  f 38  -3544.8 2046004.6  1.0  0.9  5  0 209255916
[03]  G17  f 44   -823.6 2046001.1  1.0  1.0  5  0 209255930
[04]  G19  f 45  -1654.7 2046002.2  1.0  1.0  5  0 209255931
[05]  G22  f 35   3028.1 2045996.1  1.0  0.9  5  0 209255914
[19]  B19  1  7   1362.5 4091997.4 -0.1  0.0  1  0      2538
[20]  B24  1  7    329.2 4091999.4 -0.2  0.0  1  0      1781
lsq: nits= 2
$GNGGA,100719.000,3112.7214,N,12136.4261,E,1,06,2.4,75.4,M,,,,0000*2E
$GNRMC,100719.000,A,3112.7214,N,12136.4261,E,0.90,0.00,140519,,*15
$GPGSA,A,3,02,06,12,17,19,22,,,,,,,2.8,2.4,1.5*33
$BDGSA,A,3,,,,,,,,,,,,,2.8,2.4,1.5*2B
$GPGSV,2,1,08,02,20,273,44,06,51,300,49,12,06,324,38,17,70,039,44*78
$GPGSV,2,2,08,19,60,347,45,22,04,041,35,01,02,067,00,03,23,042,00*7F
$BDGSV,2,1,06,08,58,343,00,12,44,324,00,13,46,298,00,19,46,061,00*64
$BDGSV,2,2,06,20,02,035,00,24,15,274,00*6B
$LOGTIM,1,-1032.539569,0.000000,0.000000,0.000000,-65.126*08
EndT:        2
---00000025--- Acq_st=7 2019-5-14 10:07:20 
[00]  G02  f 44  -2073.1 2046002.7  1.0  1.0  5  0 209256919
[01]  G06  f 49  -1137.6 2046001.5  1.0  1.0  5  0 209256929
[02]  G12  f 37  -3546.8 2046004.6  1.0  1.0  5  0 209256916
[03]  G17  f 44   -826.1 2046001.0  1.0  1.0  5  0 209256930
[04]  G19  f 45  -1657.6 2046002.2  1.0  1.0  5  0 209256931
[05]  G22  f 36   3025.3 2045996.1  1.0  1.0  5  0 209256914
[20]  B24  1  7    135.1 4091999.3 -0.0  0.0  1  0      2780
lsq: nits= 2
$GNGGA,100720.000,3112.7211,N,12136.4262,E,1,06,2.4,75.3,M,,,,0000*25
$GNRMC,100720.000,A,3112.7211,N,12136.4262,E,0.65,0.00,140519,,*13
$GPGSA,A,3,02,06,12,17,19,22,,,,,,,2.8,2.4,1.5*33
$BDGSA,A,3,,,,,,,,,,,,,2.8,2.4,1.5*2B
$GPGSV,2,1,08,02,20,273,44,06,51,300,49,12,06,324,37,17,70,039,44*77
$GPGSV,2,2,08,19,60,347,45,22,04,041,36,01,02,067,00,03,23,042,00*7C
$BDGSV,2,1,06,08,58,343,00,12,44,324,00,13,46,298,00,19,46,061,00*64
$BDGSV,2,2,06,20,02,035,00,24,15,274,00*6B
$LOGTIM,1,-1098.332980,0.000000,0.000000,0.000000,-65.205*0C
EndT:        2
---00000026--- Acq_st=3 2019-5-14 10:07:20 
[00]  G02  f 44  -2071.0 2046002.7  1.0  1.0  5  0 209257919
[01]  G06  f 49  -1135.6 2046001.5  1.0  1.0  5  0 209257929
[02]  G12  f 37  -3545.5 2046004.7  1.0  0.9  5  0 209257916
[03]  G17  f 44   -824.0 2046001.1  1.0  1.0  5  0 209257930
[04]  G19  f 44  -1655.3 2046002.2  1.0  1.0  5  0 209257931
[05]  G22  f 36   3027.2 2045996.0  1.0  1.0  5  0 209257914
lsq: nits= 2
$GNGGA,100721.000,3112.7212,N,12136.4260,E,1,06,2.4,75.4,M,,,,0000*22
$GNRMC,100721.000,A,3112.7212,N,12136.4260,E,0.14,0.00,140519,,*15
$GPGSA,A,3,02,06,12,17,19,22,,,,,,,2.8,2.4,1.5*33
$BDGSA,A,3,,,,,,,,,,,,,2.8,2.4,1.5*2B
$GPGSV,2,1,08,02,20,273,44,06,51,300,49,12,06,324,37,17,70,039,44*77
$GPGSV,2,2,08,19,60,347,44,22,04,041,36,01,02,067,00,03,23,042,00*7D
$BDGSV,2,1,06,08,58,343,00,12,44,324,00,13,46,298,00,19,46,061,00*64
$BDGSV,2,2,06,20,02,035,00,24,15,274,00*6B
$LOGTIM,1,-1163.281258,0.000000,0.000000,0.000000,-64.767*0E
EndT:        2
---00000027--- Acq_st=3 2019-5-14 10:07:21 
[00]  G02  f 44  -2067.1 2046002.7  1.0  1.0  5  0 209258919
[01]  G06  f 49  -1131.6 2046001.5  1.0  1.0  5  0 209258929
[02]  G12  f 37  -3541.4 2046004.7  1.0  1.0  5  0 209258916
[03]  G17  f 44   -820.1 2046001.0  1.0  1.0  5  0 209258930
[04]  G19  f 44  -1651.1 2046002.1  1.0  1.0  5  0 209258931
[05]  G22  f 35   3030.5 2045996.1  1.0  1.0  5  0 209258914
lsq: nits= 2
$GNGGA,100722.000,3112.7213,N,12136.4256,E,1,06,2.4,75.2,M,,,,0000*23
$GNRMC,100722.000,A,3112.7213,N,12136.4256,E,0.13,0.00,140519,,*15
$GPGSA,A,3,02,06,12,17,19,22,,,,,,,2.8,2.4,1.5*33
$BDGSA,A,3,,,,,,,,,,,,,2.8,2.4,1.5*2B
$GPGSV,2,1,08,02,20,273,44,06,51,300,49,12,06,324,37,17,70,039,44*77
$GPGSV,2,2,08,19,60,347,44,22,04,041,35,01,02,067,00,03,23,042,00*7E
$BDGSV,2,1,06,08,58,343,00,12,44,324,00,13,46,298,00,19,46,061,00*64
$BDGSV,2,2,06,20,02,035,00,24,15,274,00*6B
$LOGTIM,1,-1227.686413,0.000000,0.000000,0.000000,-64.495*09
EndT:        2
---00000028--- Acq_st=3 2019-5-14 10:07:22 
[00]  G02  f 43  -2064.8 2046002.7  1.0  1.0  5  0 209259919
[01]  G06  f 48  -1129.0 2046001.5  1.0  1.0  5  0 209259929
[02]  G12  f 36  -3538.2 2046004.6  1.0  1.1  5  0 209259916
[03]  G17  f 44   -817.4 2046001.1  1.0  1.0  5  0 209259930
[04]  G19  f 44  -1648.6 2046002.2  1.0  1.0  5  0 209259931
[05]  G22  f 35   3033.0 2045996.1  1.0  1.0  5  0 209259914
lsq: nits= 2
$GNGGA,100723.000,3112.7212,N,12136.4253,E,1,06,2.4,74.7,M,,,,0000*22
$GNRMC,100723.000,A,3112.7212,N,12136.4253,E,0.31,0.00,140519,,*10
$GPGSA,A,3,02,06,12,17,19,22,,,,,,,2.8,2.4,1.5*33
$BDGSA,A,3,,,,,,,,,,,,,2.8,2.4,1.5*2B
$GPGSV,2,1,08,02,20,273,43,06,51,300,48,12,06,324,36,17,70,039,44*70
$GPGSV,2,2,08,19,60,347,44,22,04,041,35,01,02,067,00,03,23,042,00*7E
$BDGSV,2,1,06,08,58,343,00,12,44,324,00,13,46,298,00,19,46,061,00*64
$BDGSV,2,2,06,20,02,035,00,24,15,274,00*6B
$LOGTIM,1,-1291.875072,0.000000,0.000000,0.000000,-64.247*0C
EndT:        2
---00000029--- Acq_st=3 2019-5-14 10:07:23 
[00]  G02  f 43  -2065.3 2046002.7  1.0  1.0  5  0 209260919
[01]  G06  f 49  -1129.0 2046001.5  1.0  1.0  5  0 209260929
[02]  G12  f 37  -3538.4 2046004.6  1.0  1.0  5  0 209260916
[03]  G17  f 44   -817.2 2046001.1  1.0  1.0  5  0 209260930
[04]  G19  f 45  -1648.3 2046002.1  1.0  1.0  5  0 209260931
[05]  G22  f 35   3033.3 2045996.1  1.0  1.0  5  0 209260914
[16]  B05  1 10  -5005.6 4092013.5 -0.1  0.0  1  0       575
[17]  B08  1  7     38.7 4092000.0  0.1  0.0  1  0       153
lsq: nits= 2
$GNGGA,100724.000,3112.7212,N,12136.4249,E,1,06,2.4,74.1,M,,,,0000*28
$GNRMC,100724.000,A,3112.7212,N,12136.4249,E,0.05,0.00,140519,,*1B
$GPGSA,A,3,02,06,12,17,19,22,,,,,,,2.8,2.4,1.5*33
$BDGSA,A,3,,,,,,,,,,,,,2.8,2.4,1.5*2B
$GPGSV,2,1,08,02,20,273,43,06,51,300,49,12,06,324,37,17,70,039,44*70
$GPGSV,2,2,08,19,60,347,45,22,04,041,35,01,02,067,00,03,23,042,00*7F
$BDGSV,2,1,06,08,58,343,00,12,44,324,00,13,46,298,00,19,46,061,00*64
$BDGSV,2,2,06,20,02,035,00,24,15,274,00*6B
$LOGTIM,1,-1356.055642,0.000000,0.000000,0.000000,-64.427*09
EndT:        3
---00000030--- Acq_st=3 2019-5-14 10:07:24 
[00]  G02  f 43  -2067.6 2046002.7  1.0  1.0  5  0 209261919
[01]  G06  f 49  -1131.4 2046001.5  1.0  1.0  5  0 209261929
[02]  G12  f 36  -3541.0 2046004.7  1.0  1.0  5  0 209261916
[03]  G17  f 44   -819.4 2046001.1  1.0  1.0  5  0 209261930
[04]  G19  f 45  -1650.9 2046002.1  1.0  1.0  5  0 209261931
[05]  G22  f 36   3030.1 2045996.1  1.0  1.0  5  0 209261914
[16]  B05  1 59  -5121.4 4092013.7  0.1  0.0  1  0      1575
[17]  B08  1  7   -182.6 4091999.8  0.2  0.0  1  0      1153
[18]  B12  1 10  -2019.5 4092004.6  0.1  0.0  1  0       563
[19]  B13  1  7    153.7 4091999.7 -0.1  0.0  1  0       478
lsq: nits= 2
$GNGGA,100725.000,3112.7211,N,12136.4247,E,1,06,2.4,73.6,M,,,,0000*24
$GNRMC,100725.000,A,3112.7211,N,12136.4247,E,0.22,0.00,140519,,*12
$GPGSA,A,3,02,06,12,17,19,22,,,,,,,2.8,2.4,1.5*33
$BDGSA,A,3,,,,,,,,,,,,,2.8,2.4,1.5*2B
$GPGSV,2,1,08,02,20,273,43,06,51,300,49,12,06,324,36,17,70,039,44*71
$GPGSV,2,2,08,19,60,347,45,22,04,041,36,01,02,067,00,03,23,042,00*7C
$BDGSV,2,1,06,08,58,343,00,12,44,324,00,13,46,298,00,19,46,061,00*64
$BDGSV,2,2,06,20,02,035,00,24,15,274,00*6B
$LOGTIM,1,-1420.821465,0.000000,0.000000,0.000000,-64.678*0B
EndT:        3
---00000031--- Acq_st=3 2019-5-14 10:07:25 
[00]  G02  f 43  -2067.4 2046002.7  1.0  1.0  5  0 209262919
[01]  G06  f 49  -1131.1 2046001.5  1.0  1.0  5  0 209262929
[02]  G12  f 36  -3540.0 2046004.6  1.0  1.0  5  0 209262916
[03]  G17  f 44   -819.2 2046001.1  1.0  1.0  5  0 209262930
[04]  G19  f 46  -1650.4 2046002.1  1.0  1.0  5  0 209262931
[05]  G22  f 36   3030.3 2045996.0  1.0  1.0  5  0 209262914
[16]  B05  1 16  -5087.3 4092013.7 -0.0  0.0  1  0      2575
[17]  B08  1  8   -331.3 4092000.2  0.1  0.0  1  0      2153
[18]  B12  1  7  -2164.1 4092005.4 -0.1  0.0  1  0      1563
[19]  B13  1  7    124.0 4091999.7 -0.0  0.0  1  0      1478
[20]  B19  1  7   1000.7 4091998.0  0.2  0.0  1  0       552
lsq: nits= 2
$GNGGA,100726.000,3112.7208,N,12136.4246,E,1,06,2.4,73.3,M,,,,0000*2B
$GNRMC,100726.000,A,3112.7208,N,12136.4246,E,0.18,0.00,140519,,*11
$GPGSA,A,3,02,06,12,17,19,22,,,,,,,2.8,2.4,1.5*33
$BDGSA,A,3,,,,,,,,,,,,,2.8,2.4,1.5*2B
$GPGSV,2,1,08,02,20,273,43,06,51,300,49,12,06,324,36,17,70,039,44*71
$GPGSV,2,2,08,19,60,347,46,22,04,041,36,01,02,067,00,03,23,042,00*7F
$BDGSV,2,1,06,08,58,343,00,12,44,324,00,13,46,298,00,19,46,061,00*64
$BDGSV,2,2,06,20,02,035,00,24,15,274,00*6B
$LOGTIM,1,-1485.799877,0.000000,0.000000,0.000000,-64.711*09
EndT:        3
---00000032--- Acq_st=3 2019-5-14 10:07:26 
[00]  G02  f 44  -2068.5 2046002.7  1.0  1.0  5  0 209263919
[01]  G06  f 49  -1132.0 2046001.5  1.0  1.0  5  0 209263929
[02]  G12  f 36  -3541.2 2046004.6  1.0  1.0  5  0 209263916
[03]  G17  f 45   -820.0 2046001.1  1.0  1.0  5  0 209263930
[04]  G19  f 45  -1651.0 2046002.2  1.0  1.0  5  0 209263931
[05]  G22  f 36   3029.5 2045996.1  1.0  1.0  5  0 209263914
[18]  B12  1  7  -2200.9 4092005.5 -0.0  0.0  1  0      2563
[19]  B13  1  7    -89.0 4091999.8  0.0  0.0  1  0      2478
[20]  B19  1  7    996.0 4091997.9 -0.1  0.0  1  0      1552
lsq: nits= 2
$GNGGA,100727.000,3112.7207,N,12136.4248,E,1,06,2.4,73.3,M,,,,0000*2B
$GNRMC,100727.000,A,3112.7207,N,12136.4248,E,0.25,0.00,140519,,*1F
$GPGSA,A,3,02,06,12,17,19,22,,,,,,,2.8,2.4,1.5*33
$BDGSA,A,3,,,,,,,,,,,,,2.8,2.4,1.5*2B
$GPGSV,2,1,08,02,20,273,44,06,51,300,49,12,06,324,36,17,70,039,45*77
$GPGSV,2,2,08,19,60,347,45,22,04,041,36,01,02,067,00,03,23,042,00*7C
$BDGSV,2,1,06,08,58,343,00,12,44,324,00,13,46,298,00,19,46,061,00*64
$BDGSV,2,2,06,20,02,035,00,24,15,274,00*6B
$LOGTIM,1,-1550.946181,0.000000,0.000000,0.000000,-64.833*03
EndT:        2
---00000033--- Acq_st=7 2019-5-14 10:07:27 
[00]  G02  f 43  -2067.9 2046002.7  1.0  1.0  5  0 209264919
[01]  G06  f 48  -1131.6 2046001.5  1.0  1.0  5  0 209264929
[02]  G12  f 37  -3540.7 2046004.6  1.0  1.0  5  0 209264916
[03]  G17  f 44   -819.2 2046001.1  1.0  1.0  5  0 209264930
[04]  G19  f 44  -1650.7 2046002.2  1.0  1.0  5  0 209264931
[05]  G22  f 37   3028.9 2045996.1  1.0  1.0  5  0 209264914
[20]  B19  1  7   1243.9 4091998.3  0.1  0.0  1  0      2552
lsq: nits= 2
$GNGGA,100728.000,3112.7207,N,12136.4250,E,1,06,2.4,73.8,M,,,,0000*26
$GNRMC,100728.000,A,3112.7207,N,12136.4250,E,0.14,0.00,140519,,*1B
$GPGSA,A,3,02,06,12,17,19,22,,,,,,,2.8,2.4,1.5*33
$BDGSA,A,3,,,,,,,,,,,,,2.8,2.4,1.5*2B
$GPGSV,2,1,08,02,20,273,43,06,51,300,48,12,06,324,37,17,70,039,44*71
$GPGSV,2,2,08,19,60,347,44,22,04,041,37,01,02,067,00,03,23,042,00*7C
$BDGSV,2,1,06,08,58,343,00,12,44,324,00,13,46,298,00,19,46,061,00*64
$BDGSV,2,2,06,20,02,035,00,24,15,274,00*6B
$LOGTIM,1,-1615.872054,0.000000,0.000000,0.000000,-64.628*0A
EndT:        2
---00000034--- Acq_st=7 2019-5-14 10:07:28 
[00]  G02  f 44  -2065.1 2046002.7  1.0  1.0  5  0 209265919
[01]  G06  f 49  -1128.5 2046001.5  1.0  1.0  5  0 209265929
[02]  G12  f 36  -3537.5 2046004.6  1.0  1.0  5  0 209265917
[03]  G17  f 44   -816.3 2046001.1  1.0  1.0  5  0 209265930
[04]  G19  f 45  -1647.7 2046002.2  1.0  1.0  5  0 209265931
[05]  G22  f 36   3032.5 2045996.0  1.0  1.0  5  0 209265914
lsq: nits= 2
$GNGGA,100729.000,3112.7210,N,12136.4252,E,1,06,2.4,74.4,M,,,,0000*28
$GNRMC,100729.000,A,3112.7210,N,12136.4252,E,0.37,0.00,140519,,*1F
$GPGSA,A,3,02,06,12,17,19,22,,,,,,,2.8,2.4,1.5*33
$BDGSA,A,3,,,,,,,,,,,,,2.8,2.4,1.5*2B
$GPGSV,2,1,08,02,20,273,44,06,51,300,49,12,06,324,36,17,70,039,44*76
$GPGSV,2,2,08,19,60,347,45,22,04,041,36,01,02,067,00,03,23,042,00*7C
$BDGSV,2,1,06,08,58,343,00,12,44,324,00,13,46,298,00,19,46,061,00*64
$BDGSV,2,2,06,20,02,035,00,24,15,274,00*6B
$LOGTIM,1,-1680.266297,0.000000,0.000000,0.000000,-64.311*0B
EndT:        2
---00000035--- Acq_st=3 2019-5-14 10:07:29 
[00]  G02  f 44  -2063.2 2046002.7  1.0  1.0  5  0 209266919
[01]  G06  f 49  -1126.5 2046001.5  1.0  1.0  5  0 209266929
[02]  G12  f 36  -3535.0 2046004.6  1.0  0.9  5  0 209266917
[03]  G17  f 43   -814.2 2046001.0  1.0  1.0  5  0 209266930
[04]  G19  f 45  -1645.3 2046002.2  1.0  1.0  5  0 209266931
[05]  G22  f 36   3034.0 2045996.1  1.0  1.0  5  0 209266914
lsq: nits= 2
$GNGGA,100730.000,3112.7211,N,12136.4255,E,1,06,2.4,74.7,M,,,,0000*25
$GNRMC,100730.000,A,3112.7211,N,12136.4255,E,0.61,0.00,140519,,*12
$GPGSA,A,3,02,06,12,17,19,22,,,,,,,2.8,2.4,1.5*33
$BDGSA,A,3,,,,,,,,,,,,,2.8,2.4,1.5*2B
$GPGSV,2,1,08,02,20,273,44,06,51,300,49,12,06,324,36,17,70,039,43*71
$GPGSV,2,2,08,19,60,347,45,22,04,041,36,01,02,067,00,03,23,042,00*7C
$BDGSV,2,1,06,08,58,343,00,12,44,324,00,13,46,298,00,19,46,061,00*64
$BDGSV,2,2,06,20,02,035,00,24,15,274,00*6B
$LOGTIM,1,-1744.321114,0.000000,0.000000,0.000000,-63.980*0D
EndT:        2
---00000036--- Acq_st=3 2019-5-14 10:07:30 
[00]  G02  f 44  -2060.0 2046002.7  1.0  1.0  5  0 209267919
[01]  G06  f 49  -1123.4 2046001.5  1.0  1.0  5  0 209267929
[02]  G12  f 36  -3532.7 2046004.6  1.0  1.0  5  0 209267917
[03]  G17  f 43   -811.0 2046001.1  1.0  1.0  5  0 209267930
[04]  G19  f 46  -1642.2 2046002.1  1.0  1.0  5  0 209267931
[05]  G22  f 35   3036.8 2045996.0  1.0  0.9  5  0 209267914
lsq: nits= 2
$GNGGA,100731.000,3112.7209,N,12136.4258,E,1,06,2.4,74.9,M,,,,0000*2E
$GNRMC,100731.000,A,3112.7209,N,12136.4258,E,0.71,0.00,140519,,*16
$GPGSA,A,3,02,06,12,17,19,22,,,,,,,2.8,2.4,1.5*33
$BDGSA,A,3,,,,,,,,,,,,,2.8,2.4,1.5*2B
$GPGSV,2,1,08,02,20,273,44,06,51,300,49,12,06,324,36,17,70,039,43*71
$GPGSV,2,2,08,19,60,347,46,22,04,041,35,01,02,067,00,03,23,042,00*7C
$BDGSV,2,1,06,08,58,343,00,12,44,324,00,13,46,298,00,19,46,061,00*64
$BDGSV,2,2,06,20,02,035,00,24,15,274,00*6B
$LOGTIM,1,-1808.184237,0.000000,0.000000,0.000000,-63.687*0D
EndT:        2
---00000037--- Acq_st=3 2019-5-14 10:07:31 
[00]  G02  f 44  -2060.2 2046002.7  1.0  1.0  5  0 209268919
[01]  G06  f 49  -1123.4 2046001.5  1.0  1.0  5  0 209268929
[02]  G12  f 36  -3532.1 2046004.6  1.0  1.0  5  0 209268917
[03]  G17  f 44   -810.7 2046001.1  1.0  1.0  5  0 209268930
[04]  G19  f 46  -1642.0 2046002.1  1.0  1.0  5  0 209268931
[05]  G22  f 36   3036.7 2045996.1  1.0  1.0  5  0 209268914
lsq: nits= 2
$GNGGA,100732.000,3112.7204,N,12136.4262,E,1,06,2.4,74.9,M,,,,0000*29
$GNRMC,100732.000,A,3112.7204,N,12136.4262,E,0.40,0.00,140519,,*13
$GPGSA,A,3,02,06,12,17,19,22,,,,,,,2.8,2.4,1.5*33
$BDGSA,A,3,,,,,,,,,,,,,2.8,2.4,1.5*2B
$GPGSV,2,1,08,02,20,273,44,06,51,300,49,12,06,324,36,17,70,039,44*76
$GPGSV,2,2,08,19,60,347,46,22,04,041,36,01,02,067,00,03,23,042,00*7F
$BDGSV,2,1,06,08,58,343,00,12,44,324,00,13,46,298,00,19,46,061,00*64
$BDGSV,2,2,06,20,02,035,00,24,15,274,00*6B
$LOGTIM,1,-1872.365870,0.000000,0.000000,0.000000,-63.900*04
EndT:        2
---00000038--- Acq_st=3 2019-5-14 10:07:32 
[00]  G02  f 44  -2062.2 2046002.7  1.0  1.0  5  0 209269919
[01]  G06  f 50  -1125.5 2046001.5  1.0  1.0  5  0 209269929
[02]  G12  f 35  -3534.2 2046004.6  1.0  0.9  5  0 209269917
[03]  G17  f 44   -812.5 2046001.0  1.0  1.0  5  0 209269930
[04]  G19  f 46  -1644.0 2046002.1  1.0  1.0  5  0 209269931
[05]  G22  f 36   3035.1 2045996.0  1.0  1.0  5  0 209269914
[16]  B08  1  7     14.4 4092000.0  0.0  0.0  1  0       166
[17]  B09  1  7  -4965.8 4092012.8  0.0  0.0  1  0      3153
lsq: nits= 2
$GNGGA,100733.000,3112.7198,N,12136.4265,E,1,06,2.4,74.6,M,,,,0000*26
$GNRMC,100733.000,A,3112.7198,N,12136.4265,E,0.15,0.00,140519,,*13
$GPGSA,A,3,02,06,12,17,19,22,,,,,,,2.8,2.4,1.5*33
$BDGSA,A,3,,,,,,,,,,,,,2.8,2.4,1.5*2B
$GPGSV,2,1,08,02,20,273,44,06,51,300,50,12,06,324,35,17,70,039,44*7D
$GPGSV,2,2,08,19,60,347,46,22,04,041,36,01,02,067,00,03,23,042,00*7F
$BDGSV,2,1,06,08,58,343,00,12,44,324,00,13,46,298,00,19,46,061,00*64
$BDGSV,2,2,06,20,02,035,00,24,15,274,00*6B
$LOGTIM,1,-1937.097920,0.000000,0.000000,0.000000,-64.157*03
EndT:        2
---00000039--- Acq_st=3 2019-5-14 10:07:33 
[00]  G02  f 44  -2064.3 2046002.7  1.0  1.0  5  0 209270919
[01]  G06  f 50  -1127.0 2046001.5  1.0  1.0  5  0 209270929
[02]  G12  f 34  -3536.1 2046004.7  1.0  1.0  5  0 209270917
[03]  G17  f 44   -814.4 2046001.1  1.0  1.0  5  0 209270930
[04]  G19  f 46  -1645.9 2046002.1  1.0  1.0  5  0 209270931
[05]  G22  f 36   3032.7 2045996.1  1.0  1.0  5  0 209270914
[16]  B08  1  7   -182.4 4092000.0  0.1  0.0  1  0      1166
[17]  B09  1  7  -5094.5 4092013.0 -0.0  0.0  1  0       998
[18]  B12  1  7  -1935.2 4092004.4  0.2  0.0  1  0       577
[19]  B13  1  7   -213.4 4092000.0  0.2  0.0  1  0       492
lsq: nits= 2
$GNGGA,100734.000,3112.7192,N,12136.4268,E,1,06,2.4,74.5,M,,,,0000*25
$GNRMC,100734.000,A,3112.7192,N,12136.4268,E,0.10,0.00,140519,,*16
$GPGSA,A,3,02,06,12,17,19,22,,,,,,,2.8,2.4,1.5*33
$BDGSA,A,3,,,,,,,,,,,,,2.8,2.4,1.5*2B
$GPGSV,2,1,08,02,20,273,44,06,51,300,50,12,06,324,34,17,70,039,44*7C
$GPGSV,2,2,08,19,60,347,46,22,04,041,36,01,02,067,00,03,23,042,00*7F
$BDGSV,2,1,06,08,58,343,00,12,44,324,00,13,46,298,00,19,46,061,00*64
$BDGSV,2,2,06,20,02,035,00,24,15,274,00*6B
$LOGTIM,1,-2002.170120,0.000000,0.000000,0.000000,-64.405*0D
EndT:        2
---00000040--- Acq_st=3 2019-5-14 10:07:34 
[00]  G02  f 44  -2064.9 2046002.7  1.0  1.0  5  0 209271919
[01]  G06  f 49  -1128.2 2046001.5  1.0  1.0  5  0 209271929
[02]  G12  f 35  -3537.1 2046004.6  1.0  1.0  5  0 209271917
[03]  G17  f 44   -815.0 2046001.1  1.0  1.0  5  0 209271930
[04]  G19  f 45  -1646.6 2046002.1  1.0  1.0  5  0 209271931
[05]  G22  f 36   3031.4 2045996.1  1.0  1.0  5  0 209271914
[16]  B08  1  7   -253.2 4092000.2 -0.1  0.0  1  0      2166
[17]  B09  1  7  -5034.3 4092012.7  0.0  0.0  1  0      1998
[18]  B12  1  7  -1730.6 4092004.9  0.0  0.0  1  0      1577
[19]  B13  1  7   -294.8 4092000.0  0.0  0.0  1  0      1492
[20]  B24  1  7    880.7 4091998.8  0.0  0.0  1  0      2552
lsq: nits= 2
$GNGGA,100735.000,3112.7188,N,12136.4269,E,1,06,2.4,74.6,M,,,,0000*2D
$GNRMC,100735.000,A,3112.7188,N,12136.4269,E,0.29,0.00,140519,,*17
$GPGSA,A,3,02,06,12,17,19,22,,,,,,,2.8,2.4,1.5*33
$BDGSA,A,3,,,,,,,,,,,,,2.8,2.4,1.5*2B
$GPGSV,2,1,08,02,20,273,44,06,51,300,49,12,06,324,35,17,70,039,44*75
$GPGSV,2,2,08,19,60,347,45,22,04,041,36,01,02,067,00,03,23,042,00*7C
$BDGSV,2,1,06,08,58,343,00,12,44,324,00,13,46,298,00,19,46,061,00*64
$BDGSV,2,2,06,20,02,035,00,24,15,274,00*6B
$LOGTIM,1,-2066.928306,0.000000,0.000000,0.000000,-64.148*00
EndT:        2
---00000041--- Acq_st=3 2019-5-14 10:07:35 
[00]  G02  f 43  -2059.5 2046002.7  1.0  1.0  5  0 209272919
[01]  G06  f 49  -1122.6 2046001.5  1.0  1.0  5  0 209272929
[02]  G12  f 35  -3531.3 2046004.6  1.0  1.0  5  0 209272917
[03]  G17  f 43   -809.4 2046001.1  1.0  1.0  5  0 209272930
[04]  G19  f 45  -1641.0 2046002.1  1.0  1.0  5  0 209272931
[05]  G22  f 36   3037.1 2045996.0  1.0  1.0  5  0 209272914
[17]  B09  1  7  -5131.0 4092012.8 -0.2  0.0  1  0      2998
[18]  B12  1  8  -1592.3 4092005.0 -0.0  0.0  1  0      2577
[19]  B13  1  9   -283.8 4091999.8 -0.0  0.0  1  0      2492
[20]  B24  1  7    758.2 4091999.3 -0.0  0.0  1  0       723
lsq: nits= 2
$GNGGA,100736.000,3112.7184,N,12136.4269,E,1,06,2.4,74.6,M,,,,0000*22
$GNRMC,100736.000,A,3112.7184,N,12136.4269,E,1.00,0.00,140519,,*12
$GPGSA,A,3,02,06,12,17,19,22,,,,,,,2.8,2.4,1.5*33
$BDGSA,A,3,,,,,,,,,,,,,2.8,2.4,1.5*2B
$GPGSV,2,1,08,02,20,273,43,06,51,300,49,12,06,324,35,17,70,039,43*75
$GPGSV,2,2,08,19,60,347,45,22,04,041,36,01,02,067,00,03,23,042,00*7C
$BDGSV,2,1,06,08,58,343,00,12,44,324,00,13,46,298,00,19,46,061,00*64
$BDGSV,2,2,06,20,02,035,00,24,15,274,00*6B
$LOGTIM,1,-2130.890538,0.000000,0.000000,0.000000,-63.512*07
EndT:        2
---00000042--- Acq_st=7 2019-5-14 10:07:37 
[00]  G02  f 43  -2057.3 2046002.7  1.0  1.0  5  0 209273919
[01]  G06  f 49  -1119.9 2046001.4  1.0  1.0  5  0 209273929
[02]  G12  f 36  -3527.8 2046004.5  1.0  1.0  5  0 209273917
[03]  G17  f 43   -806.7 2046001.0  1.0  1.0  5  0 209273930
[04]  G19  f 45  -1637.9 2046002.1  1.0  1.0  5  0 209273931
[05]  G22  f 36   3039.1 2045996.1  1.0  0.9  5  0 209273914
[20]  B24  1  7    690.1 4091999.1  0.0  0.0  1  0      1723
lsq: nits= 2
$GNGGA,100737.000,3112.7179,N,12136.4269,E,1,06,2.4,74.2,M,,,,0000*25
$GNRMC,100737.000,A,3112.7179,N,12136.4269,E,0.62,0.00,140519,,*14
$GPGSA,A,3,02,06,12,17,19,22,,,,,,,2.8,2.4,1.5*33
$BDGSA,A,3,,,,,,,,,,,,,2.8,2.4,1.5*2B
$GPGSV,2,1,08,02,20,273,43,06,51,300,49,12,06,324,36,17,70,039,43*76
$GPGSV,2,2,08,19,60,347,45,22,04,041,36,01,02,067,00,03,23,042,00*7C
$BDGSV,2,1,06,08,58,343,00,12,44,324,00,13,46,298,00,19,46,061,00*64
$BDGSV,2,2,06,20,02,035,00,24,15,274,00*6B
$LOGTIM,1,-2194.952092,0.000000,0.000000,0.000000,-63.642*05
EndT:        2
---00000043--- Acq_st=7 2019-5-14 10:07:37 
[00]  G02  f 44  -2060.4 2046002.7  1.0  1.0  5  0 209274919
[01]  G06  f 49  -1123.1 2046001.4  1.0  1.0  5  0 209274929
[02]  G12  f 36  -3531.9 2046004.6  1.0  0.9  5  0 209274917
[03]  G17  f 43   -809.7 2046001.0  1.0  1.0  5  0 209274930
[04]  G19  f 45  -1641.2 2046002.1  1.0  1.0  5  0 209274931
[05]  G22  f 36   3036.3 2045996.1  1.0  0.9  5  0 209274914
[20]  B24  1  7    596.1 4091999.1  0.1  0.0  1  0      2723
lsq: nits= 2
$GNGGA,100738.000,3112.7175,N,12136.4269,E,1,06,2.4,73.6,M,,,,0000*25
$GNRMC,100738.000,A,3112.7175,N,12136.4269,E,0.10,0.00,140519,,*12
$GPGSA,A,3,02,06,12,17,19,22,,,,,,,2.8,2.4,1.5*33
$BDGSA,A,3,,,,,,,,,,,,,2.8,2.4,1.5*2B
$GPGSV,2,1,08,02,20,273,44,06,51,300,49,12,06,324,36,17,70,039,43*71
$GPGSV,2,2,08,19,60,347,45,22,04,041,36,01,02,067,00,03,23,042,00*7C
$BDGSV,2,1,06,08,58,343,00,12,44,324,00,13,46,298,00,19,46,061,00*64
$BDGSV,2,2,06,20,02,035,00,24,15,274,00*6B
$LOGTIM,1,-2259.499326,0.000000,0.000000,0.000000,-64.095*0A
EndT:        2
---00000044--- Acq_st=3 2019-5-14 10:07:38 
[00]  G02  f 44  -2063.8 2046002.7  1.0  1.0  5  0 209275919
[01]  G06  f 49  -1126.3 2046001.5  1.0  1.0  5  0 209275929
[02]  G12  f 35  -3534.7 2046004.6  1.0  0.9  5  0 209275917
[03]  G17  f 44   -812.6 2046001.0  1.0  1.0  5  0 209275930
[04]  G19  f 44  -1644.1 2046002.1  1.0  1.0  5  0 209275931
[05]  G22  f 36   3032.8 2045996.1  1.0  1.0  5  0 209275914
[06]  G03  1 22   2828.4 2045996.6  0.0  0.0  1  0        14
lsq: nits= 2
$GNGGA,100739.000,3112.7171,N,12136.4268,E,1,06,2.4,73.0,M,,,,0000*27
$GNRMC,100739.000,A,3112.7171,N,12136.4268,E,0.13,0.00,140519,,*15
$GPGSA,A,3,02,06,12,17,19,22,,,,,,,2.8,2.4,1.5*33
$BDGSA,A,3,,,,,,,,,,,,,2.8,2.4,1.5*2B
$GPGSV,2,1,08,02,20,273,44,06,51,301,49,12,06,324,35,17,70,039,44*74
$GPGSV,2,2,08,19,61,347,44,22,04,041,36,01,01,067,00,03,23,042,00*7F
$BDGSV,2,1,06,08,58,343,00,12,44,324,00,13,46,298,00,19,46,061,00*64
$BDGSV,2,2,06,20,02,035,00,24,15,273,00*6C
$LOGTIM,1,-2324.312730,0.000000,0.000000,0.000000,-64.302*0B
EndT:        2
---00000045--- Acq_st=3 2019-5-14 10:07:40 
[00]  G02  f 44  -2064.1 2046002.7  1.0  1.0  5  0 209276919
[01]  G06  f 49  -1126.4 2046001.5  1.0  1.0  5  0 209276929
[02]  G12  f 36  -3535.0 2046004.6  1.0  1.0  5  0 209276917
[03]  G17  f 44   -812.6 2046001.0  1.0  1.0  5  0 209276930
[04]  G19  f 45  -1644.2 2046002.1  1.0  1.0  5  0 209276931
[05]  G22  f 36   3032.4 2045996.0  1.0  1.0  5  0 209276914
lsq: nits= 2
$GNGGA,100740.000,3112.7168,N,12136.4266,E,1,06,2.4,72.5,M,,,,0000*2B
$GNRMC,100740.000,A,3112.7168,N,12136.4266,E,0.09,0.00,140519,,*16
$GPGSA,A,3,02,06,12,17,19,22,,,,,,,2.8,2.4,1.5*33
$BDGSA,A,3,,,,,,,,,,,,,2.8,2.4,1.5*2B
$GPGSV,2,1,08,02,20,273,44,06,51,301,49,12,06,324,36,17,70,039,44*77
$GPGSV,2,2,08,19,61,347,45,22,04,041,36,01,01,067,00,03,23,042,00*7E
$BDGSV,2,1,06,08,58,343,00,12,44,324,00,13,46,298,00,19,46,061,00*64
$BDGSV,2,2,06,20,02,035,00,24,15,273,00*6C
$LOGTIM,1,-2389.170263,0.000000,0.000000,0.000000,-64.350*0E
EndT:        2
---00000046--- Acq_st=3 2019-5-14 10:07:40 
[00]  G02  f 45  -2064.1 2046002.7  1.0  1.0  5  0 209277919
[01]  G06  f 49  -1126.4 2046001.5  1.0  1.0  5  0 209277929
[02]  G12  f 36  -3534.7 2046004.6  1.0  1.0  5  0 209277917
[03]  G17  f 44   -812.6 2046001.0  1.0  1.0  5  0 209277930
[04]  G19  f 45  -1643.9 2046002.1  1.0  1.0  5  0 209277931
[05]  G22  f 37   3032.2 2045996.0  1.0  1.0  5  0 209277914
lsq: nits= 2
$GNGGA,100741.000,3112.7167,N,12136.4265,E,1,06,2.4,72.3,M,,,,0000*20
$GNRMC,100741.000,A,3112.7167,N,12136.4265,E,0.05,0.00,140519,,*17
$GPGSA,A,3,02,06,12,17,19,22,,,,,,,2.8,2.4,1.5*33
$BDGSA,A,3,,,,,,,,,,,,,2.8,2.4,1.5*2B
$GPGSV,2,1,08,02,20,273,45,06,51,301,49,12,06,324,36,17,70,039,44*76
$GPGSV,2,2,08,19,61,347,45,22,04,041,37,01,01,067,00,03,23,042,00*7F
$BDGSV,2,1,06,08,58,343,00,12,44,324,00,13,46,298,00,19,46,061,00*64
$BDGSV,2,2,06,20,02,035,00,24,15,273,00*6C
$LOGTIM,1,-2453.856437,0.000000,0.000000,0.000000,-64.310*00
EndT:        2
---00000047--- Acq_st=3 2019-5-14 10:07:41 
[00]  G02  f 45  -2062.4 2046002.7  1.0  1.0  5  0 209278919
[01]  G06  f 49  -1124.6 2046001.5  1.0  1.0  5  0 209278929
[02]  G12  f 37  -3533.1 2046004.6  1.0  1.0  5  0 209278917
[03]  G17  f 44   -810.8 2046001.1  1.0  1.0  5  0 209278930
[04]  G19  f 45  -1642.2 2046002.1  1.0  1.0  5  0 209278931
[05]  G22  f 36   3033.8 2045996.0  1.0  1.0  5  0 209278914
[16]  B08  1  7   -258.8 4091999.6 -0.1  0.0  1  0       222
lsq: nits= 2
$GNGGA,100742.000,3112.7169,N,12136.4265,E,1,06,2.4,72.5,M,,,,0000*2B
$GNRMC,100742.000,A,3112.7169,N,12136.4265,E,0.54,0.00,140519,,*1E
$GPGSA,A,3,02,06,12,17,19,22,,,,,,,2.8,2.4,1.5*33
$BDGSA,A,3,,,,,,,,,,,,,2.8,2.4,1.5*2B
$GPGSV,2,1,08,02,20,273,45,06,51,301,49,12,06,324,37,17,70,039,44*77
$GPGSV,2,2,08,19,61,347,45,22,04,041,36,01,01,067,00,03,23,042,00*7E
$BDGSV,2,1,06,08,58,343,00,12,44,324,00,13,46,298,00,19,46,061,00*64
$BDGSV,2,2,06,20,02,035,00,24,15,273,00*6C
$LOGTIM,1,-2517.871092,0.000000,0.000000,0.000000,-63.862*06
EndT:        2
---00000048--- Acq_st=3 2019-5-14 10:07:42 
[00]  G02  f 44  -2058.9 2046002.7  1.0  1.0  5  0 209279919
[01]  G06  f 49  -1121.0 2046001.5  1.0  1.0  5  0 209279929
[02]  G12  f 37  -3528.9 2046004.6  1.0  1.0  5  0 209279917
[03]  G17  f 43   -807.0 2046001.1  1.0  1.0  5  0 209279930
[04]  G19  f 45  -1638.5 2046002.1  1.0  1.0  5  0 209279931
[05]  G22  f 37   3037.7 2045996.0  1.0  1.0  5  0 209279914
[16]  B08  1  7   -140.3 4092000.3  0.1  0.0  1  0      1222
[17]  B12  1  7  -2049.1 4092005.3  0.1  0.0  1  0       632
[18]  B13  1  7   -550.4 4092001.2  0.0  0.0  1  0       547
lsq: nits= 2
$GNGGA,100743.000,3112.7170,N,12136.4266,E,1,06,2.4,72.8,M,,,,0000*2C
$GNRMC,100743.000,A,3112.7170,N,12136.4266,E,0.81,0.00,140519,,*1C
$GPGSA,A,3,02,06,12,17,19,22,,,,,,,2.8,2.4,1.5*33
$BDGSA,A,3,,,,,,,,,,,,,2.8,2.4,1.5*2B
$GPGSV,2,1,08,02,20,273,44,06,51,301,49,12,06,324,37,17,70,039,43*71
$GPGSV,2,2,08,19,61,347,45,22,04,041,37,01,01,067,00,03,23,042,00*7F
$BDGSV,2,1,06,08,58,343,00,12,44,324,00,13,46,298,00,19,46,061,00*64
$BDGSV,2,2,06,20,02,035,00,24,15,273,00*6C
$LOGTIM,1,-2581.376686,0.000000,0.000000,0.000000,-63.538*04
EndT:        2
---00000049--- Acq_st=3 2019-5-14 10:07:43 
[00]  G02  f 44  -2056.2 2046002.7  1.0  1.0  5  0 209280919
[01]  G06  f 49  -1117.7 2046001.5  1.0  1.0  5  0 209280929
[02]  G12  f 36  -3525.3 2046004.6  1.0  1.0  5  0 209280917
[03]  G17  f 43   -803.8 2046001.1  1.0  1.0  5  0 209280930
[04]  G19  f 45  -1635.4 2046002.1  1.0  1.0  5  0 209280931
[05]  G22  f 36   3040.6 2045996.1  1.0  1.0  5  0 209280914
[16]  B08  1  8    -96.2 4092000.1  0.3  0.0  1  0      2222
[17]  B12  1  7  -1992.2 4092005.0 -0.0  0.0  1  0      1632
[18]  B13  1  7   -348.3 4092001.1  0.1  0.0  1  0      1547
[19]  B19  1  7    986.1 4091998.5  0.1  0.0  1  0       621
lsq: nits= 2
$GNGGA,100744.000,3112.7169,N,12136.4268,E,1,06,2.4,73.1,M,,,,0000*25
$GNRMC,100744.000,A,3112.7169,N,12136.4268,E,1.54,0.00,140519,,*14
$GPGSA,A,3,02,06,12,17,19,22,,,,,,,2.8,2.4,1.5*33
$BDGSA,A,3,,,,,,,,,,,,,2.8,2.4,1.5*2B
$GPGSV,2,1,08,02,20,273,44,06,51,301,49,12,06,324,36,17,70,039,43*70
$GPGSV,2,2,08,19,61,347,45,22,04,041,36,01,01,067,00,03,23,042,00*7E
$BDGSV,2,1,06,08,58,343,00,12,44,324,00,13,46,298,00,19,46,061,00*64
$BDGSV,2,2,06,20,02,035,00,24,15,273,00*6C
$LOGTIM,1,-2644.068684,0.000000,0.000000,0.000000,-62.737*0C
EndT:        2
---00000050--- Acq_st=3 2019-5-14 10:07:44 
[00]  G02  f 44  -2048.8 2046002.6  1.0  1.0  5  0 209281919
[01]  G06  f 49  -1110.4 2046001.4  1.0  1.0  5  0 209281929
[02]  G12  f 38  -3518.5 2046004.6  1.0  1.0  5  0 209281917
[03]  G17  f 42   -796.4 2046001.1  1.0  1.0  5  0 209281930
[04]  G19  f 45  -1627.8 2046002.1  1.0  1.0  5  0 209281931
[05]  G22  f 36   3047.8 2045996.1  1.0  1.0  5  0 209281914
[17]  B12  1  7  -1684.7 4092005.1  0.0  0.0  1  0      2632
[18]  B13  1  7   -382.0 4092000.8 -0.0  0.0  1  0      2547
[19]  B19  1  7   1073.1 4091997.6  0.3  0.0  1  0      1621
lsq: nits= 2
$GNGGA,100745.000,3112.7168,N,12136.4271,E,1,06,2.4,73.4,M,,,,0000*28
$GNRMC,100745.000,A,3112.7168,N,12136.4271,E,1.69,0.00,140519,,*12
$GPGSA,A,3,02,06,12,17,19,22,,,,,,,2.8,2.4,1.5*33
$BDGSA,A,3,,,,,,,,,,,,,2.8,2.4,1.5*2B
$GPGSV,2,1,08,02,20,273,44,06,51,301,49,12,06,324,38,17,70,039,42*7F
$GPGSV,2,2,08,19,61,347,45,22,04,041,36,01,01,067,00,03,23,042,00*7E
$BDGSV,2,1,06,08,58,343,00,12,44,324,00,13,46,298,00,19,46,061,00*64
$BDGSV,2,2,06,20,02,035,00,24,15,273,00*6C
$LOGTIM,1,-2705.929430,0.000000,0.000000,0.000000,-62.172*0E
EndT:        2
---00000051--- Acq_st=7 2019-5-14 10:07:45 
[00]  G02  f 44  -2048.8 2046002.6  1.0  1.0  5  0 209282919
[01]  G06  f 49  -1110.1 2046001.4  1.0  1.0  5  0 209282929
[02]  G12  f 38  -3517.9 2046004.6  1.0  1.0  5  0 209282917
[03]  G17  f 42   -796.1 2046001.0  1.0  1.0  5  0 209282930
[04]  G19  f 45  -1627.4 2046002.1  1.0  1.0  5  0 209282931
[05]  G22  f 37   3047.7 2045996.0  1.0  1.0  5  0 209282914
[19]  B19  1  7    961.1 4091997.9  0.1  0.0  1  0      2621
lsq: nits= 2
$GNGGA,100746.000,3112.7164,N,12136.4277,E,1,06,2.4,73.6,M,,,,0000*23
$GNRMC,100746.000,A,3112.7164,N,12136.4277,E,0.92,0.00,140519,,*1E
$GPGSA,A,3,02,06,12,17,19,22,,,,,,,2.8,2.4,1.5*33
$BDGSA,A,3,,,,,,,,,,,,,2.8,2.4,1.5*2B
$GPGSV,2,1,08,02,20,273,44,06,51,301,49,12,06,324,38,17,70,039,42*7F
$GPGSV,2,2,08,19,61,347,45,22,04,041,37,01,01,067,00,03,23,042,00*7F
$BDGSV,2,1,06,08,58,343,00,12,44,324,00,13,46,298,00,19,46,061,00*64
$BDGSV,2,2,06,20,02,035,00,24,15,273,00*6C
$LOGTIM,1,-2768.366815,0.000000,0.000000,0.000000,-62.600*0D
EndT:        2
---00000052--- Acq_st=7 2019-5-14 10:07:46 
[00]  G02  f 44  -2053.8 2046002.7  1.0  1.0  5  0 209283919
[01]  G06  f 49  -1115.7 2046001.5  1.0  1.0  5  0 209283929
[02]  G12  f 37  -3523.2 2046004.5  1.0  1.0  5  0 209283917
[03]  G17  f 42   -801.0 2046001.0  1.0  1.0  5  0 209283930
[04]  G19  f 45  -1632.9 2046002.1  1.0  1.0  5  0 209283931
[05]  G22  f 36   3042.9 2045996.0  1.0  0.9  5  0 209283914
lsq: nits= 2
$GNGGA,100747.000,3112.7163,N,12136.4282,E,1,06,2.4,74.1,M,,,,0000*2F
$GNRMC,100747.000,A,3112.7163,N,12136.4282,E,0.61,0.00,140519,,*1E
$GPGSA,A,3,02,06,12,17,19,22,,,,,,,2.8,2.4,1.5*33
$BDGSA,A,3,,,,,,,,,,,,,2.8,2.4,1.5*2B
$GPGSV,2,1,08,02,20,273,44,06,51,301,49,12,06,324,37,17,70,039,42*70
$GPGSV,2,2,08,19,61,347,45,22,04,041,36,01,01,067,00,03,23,042,00*7E
$BDGSV,2,1,06,08,58,343,00,12,44,324,00,13,46,298,00,19,46,061,00*64
$BDGSV,2,2,06,20,02,035,00,24,15,273,00*6C
$LOGTIM,1,-2830.959816,0.000000,0.000000,0.000000,-62.663*0F
EndT:        2
---00000053--- Acq_st=3 2019-5-14 10:07:47 
[00]  G02  f 44  -2052.6 2046002.7  1.0  1.0  5  0 209284919
[01]  G06  f 49  -1114.1 2046001.4  1.0  1.0  5  0 209284929
[02]  G12  f 35  -3521.9 2046004.5  1.0  1.0  5  0 209284917
[03]  G17  f 42   -799.8 2046001.0  1.0  1.0  5  0 209284930
[04]  G19  f 44  -1631.2 2046002.1  1.0  1.0  5  0 209284931
[05]  G22  f 35   3043.6 2045996.1  1.0  1.0  5  0 209284914
lsq: nits= 2
$GNGGA,100748.000,3112.7161,N,12136.4288,E,1,06,2.4,74.7,M,,,,0000*2E
$GNRMC,100748.000,A,3112.7161,N,12136.4288,E,0.81,0.00,140519,,*17
$GPGSA,A,3,02,06,12,17,19,22,,,,,,,2.8,2.4,1.5*33
$BDGSA,A,3,,,,,,,,,,,,,2.8,2.4,1.5*2B
$GPGSV,2,1,08,02,20,273,44,06,51,301,49,12,06,324,35,17,70,039,42*72
$GPGSV,2,2,08,19,61,347,44,22,04,041,35,01,01,067,00,03,23,042,00*7C
$BDGSV,2,1,06,08,58,343,00,12,44,324,00,13,46,298,00,19,46,061,00*64
$BDGSV,2,2,06,20,02,035,00,24,15,273,00*6C
$LOGTIM,1,-2893.443044,0.000000,0.000000,0.000000,-62.410*09
EndT:        2
---00000054--- Acq_st=3 2019-5-14 10:07:48 
[00]  G02  f 44  -2050.7 2046002.7  1.0  1.0  5  0 209285919
[01]  G06  f 49  -1112.2 2046001.4  1.0  1.0  5  0 209285929
[02]  G12  f 36  -3519.8 2046004.6  1.0  1.0  5  0 209285917
[03]  G17  f 42   -797.8 2046001.0  1.0  1.0  5  0 209285930
[04]  G19  f 43  -1629.2 2046002.1  1.0  1.0  5  0 209285931
[05]  G22  f 36   3044.4 2045996.1  1.0  0.9  5  0 209285914
lsq: nits= 2
$GNGGA,100749.000,3112.7161,N,12136.4295,E,1,06,2.4,75.4,M,,,,0000*21
$GNRMC,100749.000,A,3112.7161,N,12136.4295,E,0.59,0.00,140519,,*1F
$GPGSA,A,3,02,06,12,17,19,22,,,,,,,2.8,2.4,1.5*33
$BDGSA,A,3,,,,,,,,,,,,,2.8,2.4,1.5*2B
$GPGSV,2,1,08,02,20,273,44,06,51,301,49,12,06,324,36,17,70,039,42*71
$GPGSV,2,2,08,19,61,347,43,22,04,041,36,01,01,067,00,03,23,042,00*78
$BDGSV,2,1,06,08,58,343,00,12,44,324,00,13,46,298,00,19,46,061,00*64
$BDGSV,2,2,06,20,02,035,00,24,15,273,00*6C
$LOGTIM,1,-2955.948472,0.000000,0.000000,0.000000,-62.440*00
EndT:        2
---00000055--- Acq_st=3 2019-5-14 10:07:49 
[00]  G02  f 44  -2052.7 2046002.7  1.0  1.0  5  0 209286919
[01]  G06  f 49  -1113.9 2046001.5  1.0  1.0  5  0 209286929
[02]  G12  f 35  -3521.8 2046004.6  1.0  0.9  5  0 209286917
[03]  G17  f 43   -799.0 2046001.1  1.0  1.0  5  0 209286930
[04]  G19  f 44  -1630.5 2046002.1  1.0  1.0  5  0 209286931
[05]  G22  f 36   3042.7 2045996.0  1.0  1.0  5  0 209286914
lsq: nits= 2
$GNGGA,100750.000,3112.7162,N,12136.4300,E,1,06,2.4,76.0,M,,,,0000*20
$GNRMC,100750.000,A,3112.7162,N,12136.4300,E,0.36,0.00,140519,,*10
