FlashID=0x1 0x20 0x18
BBram_blkflag1: 4845: b7ba
FW Ver: 1.30  
GPS00 Init Dop:   5000, 40
GPS01 Init Dop:   5000, 40
GPS02 Init Dop:   5000, 40
GPS03 Init Dop:   5000, 40
GPS04 Init Dop:   5000, 40
GPS05 Init Dop:   5000, 40
GPS06 Init Dop:   5000, 40
GPS07 Init Dop:   5000, 40
GPS08 Init Dop:   5000, 40
GPS09 Init Dop:   5000, 40
GPS10 Init Dop:   5000, 40
GPS11 Init Dop:   5000, 40
GPS12 Init Dop:   5000, 40
GPS13 Init Dop:   5000, 40
GPS14 Init Dop:   5000, 40
GPS15 Init Dop:   5000, 40
GPS16 Init Dop:   5000, 40
GPS17 Init Dop:   5000, 40
GPS18 Init Dop:   5000, 40
GPS19 Init Dop:   5000, 40
GPS20 Init Dop:   5000, 40
GPS21 Init Dop:   5000, 40
GPS22 Init Dop:   5000, 40
GPS23 Init Dop:   5000, 40
GPS24 Init Dop:   5000, 40
GPS25 Init Dop:   5000, 40
GPS26 Init Dop:   5000, 40
GPS27 Init Dop:   5000, 40
GPS28 Init Dop:   5000, 40
GPS29 Init Dop:   5000, 40
GPS30 Init Dop:   5000, 40
GPS31 Init Dop:   5000, 40
BDS00 Init Dop:   5000, 40
BDS01 Init Dop:   5000, 40
BDS02 Init Dop:   5000, 40
BDS03 Init Dop:   5000, 40
BDS04 Init Dop:   5000, 40
BDS05 Init Dop:   5000, 40
BDS06 Init Dop:   5000, 40
BDS07 Init Dop:   5000, 40
BDS08 Init Dop:   5000, 40
BDS09 Init Dop:   5000, 40
BDS10 Init Dop:   5000, 40
BDS11 Init Dop:   5000, 40
BDS12 Init Dop:   5000, 40
BDS13 Init Dop:   5000, 40
BDS14 Init Dop:   5000, 40
BDS15 Init Dop:   5000, 40
BDS16 Init Dop:   5000, 40
BDS17 Init Dop:   5000, 40
BDS18 Init Dop:   5000, 40
BDS19 Init Dop:   5000, 40
BDS20 Init Dop:   5000, 40
BDS21 Init Dop:   5000, 40
BDS22 Init Dop:   5000, 40
BDS23 Init Dop:   5000, 40
BDS24 Init Dop:   5000, 40
BDS25 Init Dop:   5000, 40
BDS26 Init Dop:   5000, 40
BDS27 Init Dop:   5000, 40
BDS28 Init Dop:   5000, 40
BDS29 Init Dop:   5000, 40
BDS30 Init Dop:   5000, 40
BDS31 Init Dop:   5000, 40
good luck!
sat0 = 3836 1787 1383 -2250
sat0 = 6416 2027 1662 5000
sat1 = 7084 761 1390 2000
ch0 satid=1,max_freq = 2000,max_mean = 1390,max_phase = 761,max_value = 7084,acq ok1!
sat2 = 27340 1587 1392 -2500
ch1 satid=2,max_freq = -2500,max_mean = 1392,max_phase = 1587,max_value = 27340,acq ok1!
sat3 = 3550 529 1390 -3750
sat3 = 8173 235 2349 1250
sat4 = 3676 119 1389 -1250
sat4 = 8397 259 2013 -3250
sat5 = 24329 1431 1392 1250
ch2 satid=5,max_freq = 1250,max_mean = 1392,max_phase = 1431,max_value = 24329,acq ok1!
sat6 = 3506 1793 1396 -1000
sat6 = 10041 1984 3534 -1000
sat7 = 4023 1329 1377 2250
sat7 = 12124 324 2946 3000
sat8 = 3642 241 1385 -500
sat8 = 6044 509 1749 -2000
sat9 = 3503 965 1388 -3500
sat9 = 14655 2040 3481 4250
sat10 = 3742 106 1389 -3250
sat10 = 11360 1287 2617 5000
sat11 = 24902 1703 1392 3750
ch3 satid=11,max_freq = 3750,max_mean = 1392,max_phase = 1703,max_value = 24902,acq ok1!
sat12 = 3582 1825 1388 -1000
sat12 = 11131 1346 2483 1750
sat13 = 3643 1175 1396 0
---00000001--- Acq_st=3 2019-5-20 09:32:6 
[00]  G02  1  7  -1871.7 2046003.2  0.0  0.0  1  0         0
[01]  G03  1 25   2620.9 2045996.6 -0.1  0.0  1  0         0
[02]  G06  1 26  -1272.8 2046003.4  0.1  0.0  1  0         0
[03]  G12  1  7  -3719.2 2046006.0 -0.0  0.0  1  0         0
$GNGGA,000000.000,,,,,0,00,,,M,,,,0000*2B
$GNRMC,000000.000,A,,,,,,,000000,,*26
$GPGSA,A,1,,,,,,,,,,,,,,,*1E
$BDGSA,A,1,,,,,,,,,,,,,,,*0F
$LOGTIM,0,0.000000,0.000000,0.000000,0.000000,0.000*0A
EndT:        0
sat13 = 15409 1191 4308 2000
sat14 = 3457 1653 1395 2750
sat14 = 8232 1043 2219 2750
sat15 = 3901 1500 1384 500
sat15 = 17868 1389 3904 -1500
sat16 = 79105 1701 1397 1000
ch4 satid=16,max_freq = 1000,max_mean = 1397,max_phase = 1701,max_value = 79105,acq ok1!
sat17 = 3290 205 1386 4500
sat17 = 15403 1901 4983 1250
sat18 = 28350 104 1393 1750
ch5 satid=18,max_freq = 1750,max_mean = 1393,max_phase = 104,max_value = 28350,acq ok1!
sat19 = 4370 1629 1387 2750
sat19 = 9268 662 2775 -1000
sat20 = 3757 408 1389 0
sat20 = 6588 286 1355 -4250
sat21 = 7140 1568 1377 -3000
ch6 satid=21,max_freq = -3000,max_mean = 1377,max_phase = 1568,max_value = 7140,acq ok1!
sat22 = 3729 421 1388 1000
sat22 = 13609 1545 2284 -4500
sat23 = 3812 631 1401 1250
sat23 = 6166 278 1522 -1000
sat24 = 3476 24 1385 4750
sat24 = 10352 1143 2843 2250
sat25 = 3629 647 1394 3750
sat25 = 10947 1751 4184 -1250
sat26 = 3282 1165 1385 -250
sat26 = 6563 887 1826 1000
---00000002--- Acq_st=3 2019-5-20 09:32:7 
[00]  G02  1 23  -2151.5 2046004.5  0.0  0.0  1  0         8
[01]  G03  7 28   2623.2 2045996.5  0.4  1.0 10  0         7
[02]  G06  7 24  -1272.3 2046001.6  0.4  0.0 20  0        18
[03]  G12  1 28  -3717.9 2046005.3  0.1  0.0  1  0        19
[04]  G17  1 28  -1039.0 2046003.3  0.1  0.0  1  0         0
[05]  G19  1 17  -1826.0 2046005.4 -0.0  0.0  1  0         0
[06]  G22  1  7   3015.6 2045999.0  0.0  0.0  1  0         0
$GNGGA,000000.000,,,,,0,00,,,M,,,,0000*2B
$GNRMC,000000.000,A,,,,,,,000000,,*26
$GPGSA,A,1,,,,,,,,,,,,,,,*1E
$BDGSA,A,1,,,,,,,,,,,,,,,*0F
$GPGSV,1,1,02,03,00,000,28,06,00,000,24*72
$LOGTIM,0,0.000000,0.000000,0.000000,0.000000,0.000*0A
EndT:        0
sat27 = 3785 162 1382 1750
sat27 = 14646 285 3474 4000
sat28 = 3657 133 1382 -750
sat28 = 6657 189 1798 5000
sat29 = 3194 1812 1386 -4500
sat29 = 9239 188 2619 -1000
sat30 = 3586 1545 1381 1500
sat30 = 8944 1819 2710 4250
sat31 = 3642 1027 1382 2000
sat31 = 10849 1938 2444 -3000
sat37 = 2721 2122 961 3750
sat37 = 2699 2887 688 4000
sat38 = 3463 2228 1155 -1000
sat38 = 3809 3754 715 -1000
sat39 = 2829 2484 1073 5000
sat39 = 2658 3902 791 5000
sat40 = 2658 2283 996 -2500
---00000003--- Acq_st=3 2019-5-20 09:32:8 
[00]  G02  7 28  -2149.2 2046002.7  0.5  1.0 10  0         8
[01]  G03  7 43   2625.7 2045996.5  1.0  1.0  5  0        18
[02]  G06  7 43  -1269.9 2046001.6  1.0  1.0  5  0         3
[03]  G12  7 35  -3714.6 2046004.8  0.6  1.0  5  0        19
[04]  G17  7 28  -1033.7 2046001.2  0.4  0.0 10  0         3
[05]  G19  7 25  -1841.8 2046002.3  0.3  0.0 20  0        17
[06]  G22  7 16   2984.8 2045995.9  0.3  0.0 20  0         9
$GNGGA,000000.000,,,,,0,00,,,M,,,,0000*2B
$GNRMC,000000.000,A,,,,,,,000000,,*26
$GPGSA,A,1,,,,,,,,,,,,,,,*1E
$BDGSA,A,1,,,,,,,,,,,,,,,*0F
$GPGSV,2,1,07,02,00,000,28,03,00,000,43,06,00,000,43,12,00,000,35*75
$GPGSV,2,2,07,17,00,000,27,19,00,000,25,22,00,000,16*45
$LOGTIM,0,0.000000,0.000000,0.000000,0.000000,0.000*0A
EndT:        0
sat40 = 2667 2335 756 -2000
sat41 = 4535 1612 1288 2000
sat41 = 4376 2948 564 2000
sat42 = 3541 3460 1013 1000
sat42 = 3429 3006 607 2250
sat43 = 2525 2859 914 4750
sat43 = 2668 2923 673 5000
sat44 = 5129 2434 1097 0
ch16 satid=44,max_freq = 0,max_mean = 1097,max_phase = 2434,max_value = 5129,acq ok1!
sat45 = 3468 0 1051 3000
sat45 = 3265 2608 696 3000
sat46 = 2723 2268 989 -2000
sat46 = 2776 3320 607 -1500
---00000004--- Acq_st=3 2019-5-20 09:32:9 
[00]  G02  7 38  -2154.0 2046002.7  1.0  1.0  5  0        13
[01]  G03  7 44   2621.0 2045996.6  1.0  1.0  5  0        18
[02]  G06  7 44  -1274.9 2046001.6  1.0  1.0  5  0         3
[03]  G12  7 43  -3719.6 2046004.8  1.0  1.0  5  0        10
[04]  G17  7 47  -1038.7 2046001.3  1.0  1.0  5  0         5
[05]  G19  7 45  -1846.7 2046002.3  1.0  1.0  5  0         4
[06]  G22  7 37   2979.9 2045996.0  0.5  1.0  5  0        10
[16]  B08  1  7   -104.4 4092002.0  0.0  0.0  1  0         0
$GNGGA,000000.000,,,,,0,00,,,M,,,,0000*2B
$GNRMC,000000.000,A,,,,,,,000000,,*26
$GPGSA,A,1,,,,,,,,,,,,,,,*1E
$BDGSA,A,1,,,,,,,,,,,,,,,*0F
$GPGSV,2,1,07,02,00,000,38,03,00,000,44,06,00,000,44,12,00,000,43*75
$GPGSV,2,2,07,17,00,000,47,19,00,000,45,22,00,000,37*46
$LOGTIM,0,0.000000,0.000000,0.000000,0.000000,0.000*0A
EndT:        0
sat47 = 3064 177 999 250
sat47 = 2850 3719 921 250
sat48 = 3090 2618 1145 500
sat48 = 3195 2682 545 500
sat49 = 4096 4075 1309 3500
sat49 = 4057 2583 715 4000
sat50 = 3305 245 1207 1250
sat50 = 3101 3828 607 1000
sat51 = 3156 3334 1108 3000
sat51 = 2968 3582 507 3000
sat52 = 3069 2353 1088 3000
sat52 = 3460 2417 413 3000
---00000005--- Acq_st=3 2019-5-20 09:32:10 
[00]  G02  7 38  -2156.8 2046002.7  1.0  1.0  5  0        13
[01]  G03  7 44   2617.7 2045996.6  1.0  1.0  5  0        18
[02]  G06  7 44  -1277.9 2046001.6  1.0  1.0  5  0         3
[03]  G12  7 44  -3722.7 2046004.8  1.0  1.0  5  0        10
[04]  G17  7 47  -1041.8 2046001.3  1.0  1.0  5  0         5
[05]  G19  7 45  -1849.6 2046002.3  1.0  1.0  5  0         4
[06]  G22  7 36   2975.7 2045996.0  1.0  1.0  5  0        10
[16]  B08  7  7   -178.5 4092000.4  0.1  0.0 20  0       351
$GNGGA,000000.000,,,,,0,00,,,M,,,,0000*2B
$GNRMC,000000.000,A,,,,,,,000000,,*26
$GPGSA,A,1,,,,,,,,,,,,,,,*1E
$BDGSA,A,1,,,,,,,,,,,,,,,*0F
$GPGSV,2,1,07,02,00,000,38,03,00,000,44,06,00,000,44,12,00,000,44*72
$GPGSV,2,2,07,17,00,000,47,19,00,000,45,22,00,000,36*47
$LOGTIM,0,0.000000,0.000000,0.000000,0.000000,0.000*0A
EndT:        0
sat53 = 3028 986 1061 -750
sat53 = 2775 3429 886 -1000
sat54 = 3324 2314 1202 -4250
sat54 = 3319 2102 632 -4500
sat55 = 2817 3034 1101 -1750
sat55 = 2786 3396 858 -2500
sat56 = 3445 1076 1104 750
sat56 = 3517 3622 562 1000
sat57 = 2564 3522 887 -4750
sat57 = 2507 3788 581 1250
sat58 = 7644 2198 890 -750
ch17 satid=58,max_freq = -750,max_mean = 890,max_phase = 2198,max_value = 7644,acq ok1!
sat59 = 3094 1868 1126 4250
---00000006--- Acq_st=3 2019-5-20 09:32:11 
[00]  G02  7 39  -2159.7 2046002.7  1.0  1.0  5  0        13
[01]  G03  7 44   2615.0 2045996.6  1.0  1.0  5  0        18
[02]  G06  7 44  -1280.4 2046001.6  1.0  1.0  5  0         3
[03]  G12  7 44  -3725.4 2046004.8  1.0  1.0  5  0        10
[04]  G17  7 47  -1044.5 2046001.3  1.0  1.0  5  0         5
[05]  G19  7 45  -1852.2 2046002.4  1.0  1.0  5  0         4
[06]  G22  7 37   2973.2 2045996.1  1.0  1.0  5  0        10
[16]  B08  7 39   -181.2 4092000.4  0.6  1.0  5  0      1332
[17]  B22  1  7    768.4 4091997.4 -0.1  0.0  1  0         0
$GNGGA,000000.000,,,,,0,00,,,M,,,,0000*2B
$GNRMC,000000.000,A,,,,,,,000000,,*26
$GPGSA,A,1,,,,,,,,,,,,,,,*1E
$BDGSA,A,1,,,,,,,,,,,,,,,*0F
$GPGSV,2,1,07,02,00,000,39,03,00,000,44,06,00,000,44,12,00,000,44*73
$GPGSV,2,2,07,17,00,000,47,19,00,000,45,22,00,000,37*46
$BDGSV,1,1,01,08,00,000,39*5B
$LOGTIM,0,0.000000,0.000000,0.000000,0.000000,0.000*0A
EndT:        0
sat59 = 3006 3895 655 1750
sat60 = 2944 2484 1041 4500
sat60 = 3003 2222 788 4250
sat61 = 5994 1424 871 -1000
ch18 satid=61,max_freq = -1000,max_mean = 871,max_phase = 1424,max_value = 5994,acq ok1!
sat62 = 3022 2530 961 3000
sat62 = 3022 2532 389 3000
sat63 = 3325 2904 1060 0
sat63 = 3325 2968 722 0
sat64 = 3538 3961 1238 -4000
sat64 = 3391 2160 807 -4250
sat65 = 3552 3064 1169 -500
sat65 = 3380 3128 789 -250
---00000007--- Acq_st=3 2019-5-20 09:32:12 
[00]  G02  7 38  -2157.2 2046002.8  1.0  1.0  5  0        13
[01]  G03  7 44   2618.8 2045996.6  1.0  1.0  5  0        18
[02]  G06  7 44  -1276.8 2046001.7  1.0  1.0  5  0         3
[03]  G12  7 43  -3721.7 2046004.8  1.0  1.0  5  0        10
[04]  G17  7 47  -1040.9 2046001.3  1.0  1.0  5  0         5
[05]  G19  7 45  -1848.7 2046002.4  1.0  1.0  5  0         4
[06]  G22  7 37   2977.0 2045996.1  1.0  1.0  5  0        10
[16]  B08  7 39   -178.2 4092000.5  1.0  1.0  5  0      2332
[17]  B22  1  7    922.5 4091995.6 -0.0  0.0  1  0       131
[18]  B25  1  7    857.1 4091998.6 -0.1  0.0  1  0         0
$GNGGA,000000.000,,,,,0,00,,,M,,,,0000*2B
$GNRMC,000000.000,A,,,,,,,000000,,*26
$GPGSA,A,1,,,,,,,,,,,,,,,*1E
$BDGSA,A,1,,,,,,,,,,,,,,,*0F
$GPGSV,2,1,07,02,00,000,38,03,00,000,44,06,00,000,44,12,00,000,43*75
$GPGSV,2,2,07,17,00,000,47,19,00,000,45,22,00,000,37*46
$BDGSV,1,1,01,08,00,000,39*5B
$LOGTIM,0,0.000000,0.000000,0.000000,0.000000,0.000*0A
EndT:        0
sat66 = 3203 3566 1049 1500
sat66 = 3140 3930 754 1500
sat67 = 2652 506 992 4000
sat67 = 2593 2971 792 4250
sat68 = 3278 734 1226 -500
sat68 = 3283 2325 497 2250
---00000008--- Acq_st=7 2019-5-20 09:32:13 
[00]  G02  f 38  -2154.3 2046002.7  1.0  1.0  5  0        13
[01]  G03  f 44   2621.7 2045996.6  1.0  1.0  5  0        18
[02]  G06  f 43  -1274.5 2046001.7  1.0  1.0  5  0         3
[03]  G12  f 44  -3719.1 2046004.8  1.0  1.0  5  0        10
[04]  G17  f 47  -1038.1 2046001.3  1.0  1.0  5  0         5
[05]  G19  f 45  -1845.9 2046002.4  1.0  1.0  5  0         4
[06]  G22  f 36   2979.9 2045996.1  1.0  1.0  5  0        10
[16]  B08  7 39   -176.3 4092000.4  1.0  1.0  5  0      3332
[17]  B22  7 34    925.4 4091997.5  0.6  1.0  5  0      1131
[18]  B25  7 26    859.6 4091997.7  0.2  0.0 20  0       720
$GNGGA,000000.000,,,,,0,00,,,M,,,,0000*2B
$GNRMC,000000.000,A,,,,,,,000000,,*26
$GPGSA,A,1,,,,,,,,,,,,,,,*1E
$BDGSA,A,1,,,,,,,,,,,,,,,*0F
$GPGSV,2,1,07,02,00,000,38,03,00,000,44,06,00,000,43,12,00,000,44*75
$GPGSV,2,2,07,17,00,000,47,19,00,000,45,22,00,000,36*47
$BDGSV,1,1,03,08,00,000,39,22,00,000,34,25,00,000,26*5D
$LOGTIM,0,0.000000,0.000000,0.000000,0.000000,0.000*0A
EndT:        0
---00000009--- Acq_st=7 2019-5-20 09:32:14 
[00]  G02  f 39  -2149.6 2046002.8  1.0  1.0  5  0 120751333
[01]  G03  f 44   2625.9 2045996.6  1.0  1.0  5  0 120751338
[02]  G06  f 43  -1269.9 2046001.6  1.0  1.0  5  0 120751343
[03]  G12  f 44  -3714.8 2046004.8  1.0  1.0  5  0 120751330
[04]  G17  f 46  -1033.5 2046001.3  1.0  1.0  5  0 120751345
[05]  G19  f 44  -1841.6 2046002.4  1.0  1.0  5  0 120751344
[06]  G22  f 37   2984.0 2045996.1  1.0  1.0  5  0 120751330
[16]  B08  7 39   -172.2 4092000.4  1.0  1.0  5  0      4332
[17]  B22  7 40    929.7 4091997.5  1.0  1.0  5  0      2117
[18]  B25  7 39    864.0 4091997.7  1.0  1.0  5  0      1709
$GNGGA,000000.000,,,,,0,00,,,M,,,,0000*2B
$GNRMC,000000.000,A,,,,,,,000000,,*26
$GPGSA,A,1,,,,,,,,,,,,,,,*1E
$BDGSA,A,1,,,,,,,,,,,,,,,*0F
$GPGSV,2,1,07,02,00,000,39,03,00,000,44,06,00,000,43,12,00,000,44*74
$GPGSV,2,2,07,17,00,000,46,19,00,000,44,22,00,000,37*46
$BDGSV,1,1,03,08,00,000,39,22,00,000,40,25,00,000,39*50
$LOGTIM,0,0.000000,0.000000,0.000000,0.000000,0.000*0A
EndT:        0
---00000010--- Acq_st=7 2019-5-20 09:32:15 
[00]  G02  f 39  -2147.2 2046002.8  1.0  1.0  5  0 120752333
[01]  G03  f 44   2628.3 2045996.6  1.0  1.0  5  0 120752338
[02]  G06  f 44  -1267.8 2046001.6  1.0  1.0  5  0 120752343
[03]  G12  f 44  -3712.4 2046004.8  1.0  1.0  5  0 120752330
[04]  G17  f 47  -1031.3 2046001.3  1.0  1.0  5  0 120752345
[05]  G19  f 44  -1839.0 2046002.4  1.0  1.0  5  0 120752344
[06]  G22  f 37   2985.2 2045996.1  1.0  1.0  5  0 120752330
[16]  B08 1f 39   -170.3 4092000.4  1.0  1.0  5  0      5332
[17]  B22 1f 40    932.4 4091997.6  1.0  1.0  5  0      3117
[18]  B25 1f 39    866.7 4091997.6  1.0  1.0  5  0      2709
$GNGGA,000000.000,,,,,0,00,,,M,,,,0000*2B
$GNRMC,000000.000,A,,,,,,,000000,,*26
$GPGSA,A,1,,,,,,,,,,,,,,,*1E
$BDGSA,A,1,,,,,,,,,,,,,,,*0F
$GPGSV,2,1,07,02,00,000,39,03,00,000,44,06,00,000,44,12,00,000,44*73
$GPGSV,2,2,07,17,00,000,47,19,00,000,44,22,00,000,37*47
$BDGSV,1,1,03,08,00,000,39,22,00,000,40,25,00,000,39*50
$LOGTIM,0,0.000000,0.000000,0.000000,0.000000,0.000*0A
EndT:        0
sat0 = 19496 1469 5265 -2500
sat0 = 8054 1996 1982 1250
sat3 = 14073 1586 5308 1500
sat3 = 8745 1974 2663 -1000
sat4 = 14052 1134 5295 1500
sat4 = 10656 66 2335 -3500
sat6 = 13905 742 5337 3750
sat6 = 11710 1896 3851 1250
sat7 = 13088 129 5238 3000
sat7 = 13704 1918 3254 -2750
sat8 = 14610 1625 5275 -4250
sat8 = 7065 1229 2068 -4750
sat9 = 13404 868 5295 -3500
sat9 = 16023 2040 3800 4250
sat10 = 15121 199 5282 1500
sat10 = 11906 1287 2933 5000
sat12 = 15162 1462 5263 -1000
sat12 = 12138 1552 2804 1500
sat13 = 13636 510 5318 4250
sat13 = 16337 1319 4625 2000
sat14 = 14055 1796 5350 1500
sat14 = 9664 1247 2541 2750
sat15 = 15002 166 5290 3750
---00000011--- Acq_st=3 2019-5-20 09:32:16 
[00]  G02  f 39  -2142.6 2046002.8  1.0  1.0  5  0 120753333
[01]  G03  f 44   2632.7 2045996.6  1.0  1.0  5  0 120753338
[02]  G06  f 43  -1263.1 2046001.6  1.0  1.0  5  0 120753343
[03]  G12  f 43  -3708.5 2046004.8  1.0  1.0  5  0 120753330
[04]  G17  f 47  -1026.7 2046001.3  1.0  1.0  5  0 120753345
[05]  G19  f 44  -1834.7 2046002.4  1.0  1.0  5  0 120753344
[06]  G22  f 36   2990.0 2045996.1  1.0  1.0  5  0 120753330
[16]  B08 1f 39   -166.4 4092000.4  1.0  1.0  5  0 120739292
[17]  B22 1f 40    937.4 4091997.5  1.0  1.0  5  0 120739337
[18]  B25 1f 40    871.5 4091997.7  1.0  1.0  5  0 120739329
sat15 = 18998 1910 4218 -1500
$GNGGA,000000.000,,,,,0,00,,,M,,,,0000*2B
$GNRMC,000000.000,A,,,,,,,000000,,*26
$GPGSA,A,1,,,,,,,,,,,,,,,*1E
$BDGSA,A,1,,,,,,,,,,,,,,,*0F
$GPGSV,2,1,07,02,00,000,39,03,00,000,44,06,00,000,43,12,00,000,43*73
$GPGSV,2,2,07,17,00,000,47,19,00,000,44,22,00,000,36*46
$BDGSV,1,1,03,08,00,000,39,22,00,000,40,25,00,000,40*5E
$LOGTIM,0,0.000000,0.000000,0.000000,0.000000,0.000*0A
EndT:        0
sat17 = 15004 166 5288 -1750
sat17 = 17130 1770 5295 -2750
sat19 = 13699 48 5301 -4500
sat19 = 10980 1638 3095 -1250
sat20 = 15534 1869 5329 -750
sat20 = 7764 1612 1680 4250
sat22 = 13762 1576 5290 5000
sat22 = 15050 1940 2595 -4500
sat23 = 13592 724 5350 1750
sat23 = 7361 2021 1842 1000
sat24 = 13288 1311 5302 1000
sat24 = 11986 123 3157 2250
sat25 = 14739 744 5340 3250
sat25 = 11932 997 4499 5000
sat26 = 13966 1940 5284 4750
sat26 = 7970 1584 2146 750
sat27 = 12458 474 5294 3000
sat27 = 15378 413 3791 -4000
sat28 = 13121 582 5271 -1750
sat28 = 7596 2036 2119 1250
sat29 = 15725 640 5279 3500
sat29 = 10805 357 2936 1250
sat30 = 13852 1016 5263 -4500
---00000012--- Acq_st=3 2019-5-20 09:32:17 
[00]  G02  f 38  -2147.3 2046002.8  1.0  1.0  5  0 120754333
[01]  G03  f 44   2628.9 2045996.6  1.0  1.0  5  0 120754338
[02]  G06  f 43  -1267.1 2046001.6  1.0  1.0  5  0 120754343
[03]  G12  f 43  -3711.9 2046004.8  1.0  1.0  5  0 120754330
[04]  G17  f 47  -1030.5 2046001.3  1.0  1.0  5  0 120754345
[05]  G19  f 44  -1838.6 2046002.4  1.0  1.0  5  0 120754344
[06]  G22  f 38   2986.2 2045996.1  1.0  1.0  5  0 120754330
[16]  B08 1f 40   -170.1 4092000.4  1.0  1.0  5  0 120740292
[17]  B22 1f 41    933.9 4091997.5  1.0  1.0  5  0 120740337
[18]  B25 1f 39    867.3 4091997.7  1.0  1.0  5  0 120740329
sat30 = 10745 1820 3025 4250
$GNGGA,000000.000,,,,,0,00,,,M,,,,0000*2B
$GNRMC,000000.000,A,,,,,,,000000,,*26
$GPGSA,A,1,,,,,,,,,,,,,,,*1E
$BDGSA,A,1,,,,,,,,,,,,,,,*0F
$GPGSV,2,1,07,02,00,000,38,03,00,000,44,06,00,000,43,12,00,000,43*72
$GPGSV,2,2,07,17,00,000,47,19,00,000,44,22,00,000,38*48
$BDGSV,1,1,03,08,00,000,40,22,00,000,41,25,00,000,39*5F
$LOGTIM,0,0.000000,0.000000,0.000000,0.000000,0.000*0A
EndT:        0
sat31 = 13891 674 5269 1000
sat31 = 12195 1261 2761 -3000
sat37 = 2957 680 980 3500
sat37 = 2570 2545 685 4250
sat38 = 3522 1595 1171 -750
sat38 = 3368 2222 711 -1000
sat39 = 2983 1355 1087 5000
sat39 = 2983 1355 790 5000
sat40 = 2760 186 1011 2250
sat40 = 2785 3109 759 -1250
sat41 = 4648 1098 1309 1750
sat41 = 4125 2453 565 1500
---00000013--- Acq_st=3 2019-5-20 09:32:18 
[00]  G02  f 38  -2151.1 2046002.8  1.0  1.0  5  0 120755333
[01]  G03  f 44   2625.2 2045996.5  1.0  1.0  5  0 120755338
[02]  G06  f 43  -1271.2 2046001.7  1.0  1.0  5  0 120755343
[03]  G12  f 42  -3715.8 2046004.9  1.0  1.0  5  0 120755330
[04]  G17  f 47  -1034.5 2046001.3  1.0  1.0  5  0 120755345
[05]  G19  f 43  -1842.5 2046002.4  1.0  1.0  5  0 120755344
[06]  G22  f 37   2981.7 2045996.2  1.0  1.0  5  0 120755330
[16]  B08 1f 39   -174.6 4092000.5  1.0  1.0  5  0 120741292
[17]  B22 1f 40    929.9 4091997.6  1.0  1.0  5  0 120741337
[18]  B25 1f 40    863.9 4091997.7  1.0  1.0  5  0 120741329
[19]  B03  1 21  -4947.8 4092013.0  0.2  0.0  1  0         0
sat42 = 3404 3613 1028 1500
$GNGGA,000000.000,,,,,0,00,,,M,,,,0000*2B
$GNRMC,000000.000,A,,,,,,,000000,,*26
$GPGSA,A,1,,,,,,,,,,,,,,,*1E
$BDGSA,A,1,,,,,,,,,,,,,,,*0F
$GPGSV,2,1,07,02,00,000,38,03,00,000,44,06,00,000,43,12,00,000,42*73
$GPGSV,2,2,07,17,00,000,47,19,00,000,43,22,00,000,37*40
$BDGSV,1,1,03,08,00,000,39,22,00,000,40,25,00,000,40*5E
$LOGTIM,0,0.000000,0.000000,0.000000,0.000000,0.000*0A
EndT:        0
sat42 = 3254 3578 608 1750
sat43 = 2814 6 925 5000
sat43 = 2814 6 672 5000
sat45 = 3005 2758 1066 2750
sat45 = 3002 2924 697 3250
sat46 = 2971 1014 1007 -2000
sat46 = 2689 3545 607 -4750
sat47 = 3461 2156 1012 2000
sat47 = 3524 2220 921 2500
sat48 = 3975 1572 1161 500
sat48 = 3349 3259 543 -1250
---00000014--- Acq_st=3 2019-5-20 09:32:19 
[00]  G02  f 39  -2150.3 2046002.8  1.0  1.0  5  0 120756333
[01]  G03  f 45   2626.2 2045996.6  1.0  1.0  5  0 120756338
[02]  G06  f 43  -1270.3 2046001.7  1.0  1.0  5  0 120756343
[03]  G12  f 42  -3715.0 2046004.8  1.0  1.0  5  0 120756330
[04]  G17  f 47  -1033.5 2046001.3  1.0  1.0  5  0 120756345
[05]  G19  f 43  -1841.7 2046002.4  1.0  1.0  5  0 120756344
[06]  G22  f 38   2982.9 2045996.1  1.0  1.0  5  0 120756330
[16]  B08 1f 39   -173.5 4092000.5  1.0  1.0  5  0 120742292
[17]  B22 1f 41    930.9 4091997.6  1.0  1.0  5  0 120742337
[18]  B25 1f 39    864.7 4091997.7  1.0  1.0  5  0 120742329
[19]  B03  1 10  -4914.6 4092012.4 -0.1  0.0  1  0       406
[20]  B07  1  7  -4980.4 4092013.2  0.2  0.0  1  0         0
sat49 = 3771 1114 1335 3750
$GNGGA,000000.000,,,,,0,00,,,M,,,,0000*2B
$GNRMC,000000.000,A,,,,,,,000000,,*26
$GPGSA,A,1,,,,,,,,,,,,,,,*1E
$BDGSA,A,1,,,,,,,,,,,,,,,*0F
$GPGSV,2,1,07,02,00,000,39,03,00,000,45,06,00,000,43,12,00,000,42*73
$GPGSV,2,2,07,17,00,000,47,19,00,000,43,22,00,000,38*4F
$BDGSV,1,1,03,08,00,000,39,22,00,000,41,25,00,000,39*51
$LOGTIM,0,0.000000,0.000000,0.000000,0.000000,0.000*0A
EndT:        0
sat49 = 3663 3155 717 4500
sat50 = 3658 1876 1223 1250
sat50 = 3243 3921 607 1250
sat51 = 3287 2467 1124 -3250
sat51 = 3214 2590 505 3250
sat52 = 3015 196 1107 3000
sat52 = 3082 2248 413 3000
sat53 = 3458 3870 1077 -1250
sat53 = 3215 3934 885 -1250
sat54 = 3791 2586 1219 -4000
sat54 = 3774 2324 632 -4500
sat55 = 3029 3793 1119 -2500
---00000015--- Acq_st=3 2019-5-20 09:32:20 
[00]  G02  f 38  -2153.6 2046002.8  1.0  1.0  5  0 120757333
[01]  G03  f 44   2623.2 2045996.6  1.0  1.0  5  0 120757338
[02]  G06  f 43  -1273.4 2046001.7  1.0  1.0  5  0 120757343
[03]  G12  f 42  -3718.0 2046004.8  1.0  1.0  5  0 120757330
[04]  G17  f 46  -1036.8 2046001.3  1.0  1.0  5  0 120757345
[05]  G19  f 43  -1844.4 2046002.4  1.0  1.0  5  0 120757344
[06]  G22  f 37   2979.8 2045996.1  1.0  1.0  5  0 120757330
[16]  B08 1f 39   -177.4 4092000.5  1.0  1.0  5  0 120743292
[17]  B22 1f 41    928.2 4091997.6  1.0  1.0  5  0 120743337
[18]  B25 1f 39    861.7 4091997.7  1.0  1.0  5  0 120743329
[19]  B03  1 17  -5008.8 4092014.1  0.0  0.0  1  0      1406
[20]  B07  1  7  -4929.1 4092012.9  0.1  0.0  1  0       748
$GNGGA,000000.000,,,,,0,00,,,M,,,,0000*2B
$GNRMC,000000.000,A,,,,,,,000000,,*26
$GPGSA,A,1,,,,,,,,,,,,,,,*1E
$BDGSA,A,1,,,,,,,,,,,,,,,*0F
$GPGSV,2,1,07,02,00,000,38,03,00,000,44,06,00,000,43,12,00,000,42*73
$GPGSV,2,2,07,17,00,000,46,19,00,000,43,22,00,000,37*41
$BDGSV,1,1,03,08,00,000,39,22,00,000,41,25,00,000,39*51
$LOGTIM,0,0.000000,0.000000,0.000000,0.000000,0.000*0A
EndT:        0
sat55 = 2814 4000 857 -2500
sat56 = 3374 483 1123 1000
sat56 = 3588 2121 560 1000
sat57 = 2527 2382 905 -4750
sat57 = 2666 2883 581 -4750
sat59 = 3550 1953 1135 1500
sat59 = 3240 3454 656 2000
sat60 = 2995 3730 1060 4750
sat60 = 2977 2789 788 3750
sat62 = 3603 2200 975 5000
sat62 = 3294 251 390 5000
sat63 = 3236 2992 1076 5000
---00000016--- Acq_st=3 2019-5-20 09:32:21 
[00]  G02  f 38  -2157.2 2046002.8  1.0  1.0  5  0 120758333
[01]  G03  f 44   2619.9 2045996.6  1.0  1.0  5  0 120758338
[02]  G06  f 44  -1276.6 2046001.7  1.0  1.0  5  0 120758343
[03]  G12  f 42  -3721.2 2046004.8  1.0  1.0  5  0 120758330
[04]  G17  f 47  -1039.8 2046001.3  1.0  1.0  5  0 120758345
[05]  G19  f 42  -1847.7 2046002.4  1.0  1.0  5  0 120758344
[06]  G22  f 38   2975.7 2045996.1  1.0  1.0  5  0 120758330
[16]  B08 1f 39   -180.3 4092000.4  1.0  1.0  5  0 120744292
[17]  B22 1f 41    925.3 4091997.6  1.0  1.0  5  0 120744337
[18]  B25 1f 39    859.0 4091997.7  1.0  1.0  5  0 120744329
[20]  B07  1  7  -4952.4 4092012.9 -0.2  0.0  1  0      1748
$GNGGA,000000.000,,,,,0,00,,,M,,,,0000*2B
$GNRMC,000000.000,A,,,,,,,000000,,*26
$GPGSA,A,1,,,,,,,,,,,,,,,*1E
$BDGSA,A,1,,,,,,,,,,,,,,,*0F
$GPGSV,2,1,07,02,00,000,38,03,00,000,44,06,00,000,44,12,00,000,42*74
$GPGSV,2,2,07,17,00,000,47,19,00,000,42,22,00,000,38*4E
$BDGSV,1,1,03,08,00,000,39,22,00,000,41,25,00,000,39*51
$LOGTIM,0,0.000000,0.000000,0.000000,0.000000,0.000*0A
EndT:        0
sat63 = 3117 543 721 5000
sat64 = 3553 760 1256 -4000
sat64 = 3511 3843 811 -3750
sat65 = 3547 1122 1192 -250
sat65 = 3623 3027 787 -250
sat66 = 2867 3152 1058 1500
sat66 = 3248 3216 753 1500
sat67 = 2836 3235 1009 4750
sat67 = 2655 3299 795 4500
sat68 = 3573 2329 1239 2000
sat68 = 3192 3464 495 2500
---00000017--- Acq_st=7 2019-5-20 09:32:22 
[00]  G02  f 39  -2151.2 2046002.8  1.0  1.0  5  0 120759333
[01]  G03  f 44   2625.7 2045996.6  1.0  1.0  5  0 120759338
[02]  G06  f 44  -1271.2 2046001.7  1.0  1.0  5  0 120759343
[03]  G12  f 43  -3715.8 2046004.8  1.0  1.0  5  0 120759330
[04]  G17  f 47  -1034.2 2046001.4  1.0  1.0  5  0 120759345
[05]  G19  f 42  -1842.4 2046002.4  1.0  1.0  5  0 120759344
[06]  G22  f 38   2981.3 2045996.1  1.0  1.0  5  0 120759330
[16]  B08 1f 39   -175.9 4092000.4  1.0  1.0  5  0 120745292
[17]  B22 1f 41    930.7 4091997.6  1.0  1.0  5  0 120745337
[18]  B25 1f 40    864.6 4091997.7  1.0  1.0  5  0 120745329
$GNGGA,000000.000,,,,,0,00,,,M,,,,0000*2B
$GNRMC,000000.000,A,,,,,,,000000,,*26
$GPGSA,A,1,,,,,,,,,,,,,,,*1E
$BDGSA,A,1,,,,,,,,,,,,,,,*0F
$GPGSV,2,1,07,02,00,000,39,03,00,000,44,06,00,000,44,12,00,000,43*74
$GPGSV,2,2,07,17,00,000,47,19,00,000,42,22,00,000,38*4E
$BDGSV,1,1,03,08,00,000,39,22,00,000,41,25,00,000,40*5F
$LOGTIM,0,0.000000,0.000000,0.000000,0.000000,0.000*0A
EndT:        0
---00000018--- Acq_st=7 2019-5-20 09:32:23 
[00]  G02  f 38  -2146.5 2046002.8  1.0  1.0  5  0 120760333
[01]  G03  f 45   2631.3 2045996.6  1.0  1.0  5  0 120760338
[02]  G06  f 43  -1265.7 2046001.6  1.0  1.0  5  0 120760343
[03]  G12  f 42  -3710.2 2046004.8  1.0  1.0  5  0 120760330
[04]  G17  f 47  -1028.6 2046001.4  1.0  1.0  5  0 120760345
[05]  G19  f 42  -1836.7 2046002.4  1.0  1.0  5  0 120760344
[06]  G22  f 38   2987.1 2045996.1  1.0  1.0  5  0 120760330
[16]  B08 1f 39   -170.2 4092000.4  1.0  1.0  5  0 120746292
[17]  B22 1f 41    936.7 4091997.5  1.0  1.0  5  0 120746337
[18]  B25 1f 39    870.0 4091997.7  1.0  1.0  5  0 120746329
$GNGGA,000000.000,,,,,0,00,,,M,,,,0000*2B
$GNRMC,000000.000,A,,,,,,,000000,,*26
$GPGSA,A,1,,,,,,,,,,,,,,,*1E
$BDGSA,A,1,,,,,,,,,,,,,,,*0F
$GPGSV,2,1,07,02,00,000,38,03,00,000,45,06,00,000,43,12,00,000,42*72
$GPGSV,2,2,07,17,00,000,47,19,00,000,42,22,00,000,38*4E
$BDGSV,1,1,03,08,00,000,39,22,00,000,41,25,00,000,39*51
$LOGTIM,0,0.000000,0.000000,0.000000,0.000000,0.000*0A
EndT:        0
---00000019--- Acq_st=7 2019-5-20 09:32:24 
[00]  G02  f 39  -2149.7 2046002.8  1.0  1.0  5  0 120761333
[01]  G03  f 44   2628.1 2045996.6  1.0  1.0  5  0 120761338
[02]  G06  f 43  -1268.5 2046001.6  1.0  1.0  5  0 120761343
[03]  G12  f 42  -3713.4 2046004.8  1.0  1.0  5  0 120761330
[04]  G17  f 46  -1031.5 2046001.3  1.0  1.0  5  0 120761345
[05]  G19  f 42  -1839.1 2046002.4  1.0  1.0  5  0 120761344
[06]  G22  f 39   2983.7 2045996.1  1.0  1.0  5  0 120761330
[16]  B08 1f 39   -173.5 4092000.5  1.0  1.0  5  0 120747292
[17]  B22 1f 41    934.2 4091997.5  1.0  1.0  5  0 120747337
[18]  B25 1f 39    866.7 4091997.7  1.0  1.0  5  0 120747329
$GNGGA,000000.000,,,,,0,00,,,M,,,,0000*2B
$GNRMC,000000.000,A,,,,,,,000000,,*26
$GPGSA,A,1,,,,,,,,,,,,,,,*1E
$BDGSA,A,1,,,,,,,,,,,,,,,*0F
$GPGSV,2,1,07,02,00,000,39,03,00,000,44,06,00,000,43,12,00,000,42*72
$GPGSV,2,2,07,17,00,000,46,19,00,000,42,22,00,000,39*4E
$BDGSV,1,1,03,08,00,000,39,22,00,000,41,25,00,000,39*51
$LOGTIM,0,0.000000,0.000000,0.000000,0.000000,0.000*0A
EndT:        0
sat0 = 17768 1872 5213 1500
sat0 = 7140 1999 1956 1250
sat3 = 13662 67 5229 -3250
sat3 = 8761 1868 2642 1250
sat4 = 12770 953 5219 4750
sat4 = 9693 259 2308 -3250
sat6 = 12813 1496 5259 0
sat6 = 11317 1959 3822 -3250
sat7 = 13315 231 5137 1750
sat7 = 13118 324 3231 3000
sat8 = 12913 1954 5212 -4500
sat8 = 7663 450 2037 -2250
sat9 = 13321 1142 5251 -4250
sat9 = 15586 2040 3771 4250
sat10 = 13302 1856 5220 -2000
sat10 = 12420 2003 2907 5000
sat12 = 13599 198 5236 5000
sat12 = 11965 1554 2768 1500
sat13 = 12975 1879 5268 -3500
sat13 = 15713 1319 4596 2000
sat14 = 13214 81 5250 -2000
sat14 = 9839 1710 2510 -2750
sat15 = 13083 737 5188 -1250
---00000020--- Acq_st=3 2019-5-20 09:32:25 
[00]  G02  f 38  -2151.3 2046002.9  1.0  1.0  5  0 120762333
[01]  G03  f 45   2626.9 2045996.6  1.0  1.0  5  0 120762338
[02]  G06  f 44  -1269.9 2046001.6  1.0  1.0  5  0 120762343
[03]  G12  f 43  -3715.0 2046004.8  1.0  1.0  5  0 120762330
[04]  G17  f 47  -1033.1 2046001.3  1.0  1.0  5  0 120762345
[05]  G19  f 41  -1840.9 2046002.4  1.0  1.0  5  0 120762344
[06]  G22  f 37   2982.5 2045996.0  1.0  1.0  5  0 120762330
[16]  B08 1f 40   -175.7 4092000.5  1.0  1.0  5  0 120748292
[17]  B22 1f 41    932.5 4091997.5  1.0  1.0  5  0 120748337
[18]  B25 1f 40    865.3 4091997.7  1.0  1.0  5  0 120748329
sat15 = 19371 1560 4191 -1500
$GNGGA,000000.000,,,,,0,00,,,M,,,,0000*2B
$GNRMC,000000.000,A,,,,,,,000000,,*26
$GPGSA,A,1,,,,,,,,,,,,,,,*1E
$BDGSA,A,1,,,,,,,,,,,,,,,*0F
$GPGSV,2,1,07,02,00,000,38,03,00,000,45,06,00,000,44,12,00,000,43*74
$GPGSV,2,2,07,17,00,000,47,19,00,000,41,22,00,000,37*42
$BDGSV,1,1,03,08,00,000,40,22,00,000,41,25,00,000,40*51
$LOGTIM,0,0.000000,0.000000,0.000000,0.000000,0.000*0A
EndT:        0
sat17 = 15175 456 5194 -500
sat17 = 16278 266 5270 -1250
sat19 = 15747 213 5198 3750
sat19 = 10321 658 3062 1000
sat20 = 13942 530 5249 -750
sat20 = 7398 1641 1644 4000
sat22 = 13170 1718 5218 0
sat22 = 14176 1319 2574 4500
sat23 = 13613 1027 5294 1250
sat23 = 7082 2021 1823 1000
sat24 = 14114 390 5203 -1250
sat24 = 11513 1177 3133 2750
sat25 = 14663 1131 5238 750
sat25 = 11625 1751 4472 -1250
sat26 = 13788 138 5211 2000
sat26 = 7177 997 2116 750
sat27 = 13986 101 5188 2750
sat27 = 16123 278 3768 4000
sat28 = 13915 1924 5202 0
sat28 = 8106 593 2088 5000
sat29 = 13811 922 5186 0
sat29 = 10136 944 2908 1250
sat30 = 12715 320 5196 2250
---00000021--- Acq_st=3 2019-5-20 09:32:26 
[00]  G02  f 38  -2151.5 2046002.8  1.0  1.0  5  0 120763333
[01]  G03  f 45   2626.7 2045996.6  1.0  1.0  5  0 120763338
[02]  G06  f 44  -1270.1 2046001.6  1.0  1.0  5  0 120763343
[03]  G12  f 43  -3715.0 2046004.8  1.0  1.0  5  0 120763330
[04]  G17  f 47  -1033.3 2046001.3  1.0  1.0  5  0 120763345
[05]  G19  f 39  -1841.7 2046002.4  1.0  1.0  5  0 120763344
[06]  G22  f 38   2982.1 2045996.1  1.0  1.0  5  0 120763330
[16]  B08 1f 39   -175.6 4092000.5  1.0  1.0  5  0 120749292
[17]  B22 1f 41    932.8 4091997.5  1.0  1.0  5  0 120749337
[18]  B25 1f 40    865.8 4091997.7  1.0  1.0  5  0 120749329
sat30 = 9933 1774 2999 500
$GNGGA,000000.000,,,,,0,00,,,M,,,,0000*2B
$GNRMC,000000.000,A,,,,,,,000000,,*26
$GPGSA,A,1,,,,,,,,,,,,,,,*1E
$BDGSA,A,1,,,,,,,,,,,,,,,*0F
$GPGSV,2,1,07,02,00,000,38,03,00,000,45,06,00,000,44,12,00,000,43*74
$GPGSV,2,2,07,17,00,000,47,19,00,000,39,22,00,000,38*42
$BDGSV,1,1,03,08,00,000,39,22,00,000,41,25,00,000,40*5F
$LOGTIM,0,0.000000,0.000000,0.000000,0.000000,0.000*0A
EndT:        0
sat31 = 13831 1688 5194 750
sat31 = 11763 1939 2730 -3000
sat37 = 3174 2945 981 3750
sat37 = 2779 3009 686 3500
sat38 = 3792 1014 1183 -750
sat38 = 3698 3359 713 -4750
sat39 = 3039 1434 1097 1500
sat39 = 2916 3268 792 250
sat40 = 3123 907 1021 -4750
sat40 = 2680 3096 758 -2500
sat41 = 4433 2812 1331 1750
sat41 = 3952 2558 563 1750
---00000022--- Acq_st=3 2019-5-20 09:32:27 
[00]  G02  f 38  -2150.0 2046002.8  1.0  1.0  5  0 120764333
[01]  G03  f 44   2628.5 2045996.6  1.0  1.0  5  0 120764338
[02]  G06  f 43  -1268.5 2046001.6  1.0  1.0  5  0 120764343
[03]  G12  f 43  -3713.3 2046004.8  1.0  1.0  5  0 120764330
[04]  G17  f 46  -1031.5 2046001.3  1.0  1.0  5  0 120764345
[05]  G19  f 39  -1839.3 2046002.4  1.0  1.0  5  0 120764344
[06]  G22  f 38   2982.7 2045996.1  1.0  1.0  5  0 120764330
[16]  B08 1f 40   -174.5 4092000.5  1.0  1.0  5  0 120750292
[17]  B22 1f 41    935.3 4091997.6  1.0  1.0  5  0 120750337
[18]  B25 1f 40    867.4 4091997.7  1.0  1.0  5  0 120750329
sat42 = 3559 889 1033 2000
$GNGGA,000000.000,,,,,0,00,,,M,,,,0000*2B
$GNRMC,000000.000,A,,,,,,,000000,,*26
$GPGSA,A,1,,,,,,,,,,,,,,,*1E
$BDGSA,A,1,,,,,,,,,,,,,,,*0F
$GPGSV,2,1,07,02,00,000,38,03,00,000,44,06,00,000,43,12,00,000,43*72
$GPGSV,2,2,07,17,00,000,46,19,00,000,39,22,00,000,38*43
$BDGSV,1,1,03,08,00,000,40,22,00,000,41,25,00,000,40*51
$LOGTIM,0,0.000000,0.000000,0.000000,0.000000,0.000*0A
EndT:        0
sat42 = 3404 2105 605 1250
sat43 = 2569 3310 924 -500
sat43 = 2621 3374 672 -500
sat45 = 3243 2440 1074 3000
sat45 = 3055 2620 695 3250
sat46 = 2858 335 1008 -4750
sat46 = 2999 2266 606 -2000
sat47 = 3556 3537 1015 2250
sat47 = 3797 3601 923 2500
sat48 = 3866 3013 1169 0
sat48 = 3866 3077 545 0
---00000023--- Acq_st=3 2019-5-20 09:32:28 
[00]  G02  f 38  -2150.8 2046002.8  1.0  1.0  5  0 120765333
[01]  G03  f 45   2627.5 2045996.6  1.0  1.0  5  0 120765338
[02]  G06  f 44  -1269.3 2046001.6  1.0  1.0  5  0 120765343
[03]  G12  f 44  -3714.6 2046004.8  1.0  1.0  5  0 120765330
[04]  G17  f 46  -1032.3 2046001.3  1.0  1.0  5  0 120765345
[05]  G19  f 39  -1840.8 2046002.4  1.0  1.0  5  0 120765344
[06]  G22  f 38   2982.2 2045996.2  1.0  1.0  5  0 120765330
[16]  B08 1f 40   -175.6 4092000.4  1.0  1.0  5  0 120751292
[17]  B22 1f 42    934.5 4091997.5  1.0  1.0  5  0 120751337
[18]  B25 1f 39    866.5 4091997.7  1.0  1.0  5  0 120751329
sat49 = 4032 3584 1352 4000
$GNGGA,000000.000,,,,,0,00,,,M,,,,0000*2B
$GNRMC,000000.000,A,,,,,,,000000,,*26
$GPGSA,A,1,,,,,,,,,,,,,,,*1E
$BDGSA,A,1,,,,,,,,,,,,,,,*0F
$GPGSV,2,1,07,02,00,000,38,03,00,000,45,06,00,000,44,12,00,000,44*73
$GPGSV,2,2,07,17,00,000,46,19,00,000,39,22,00,000,38*43
$BDGSV,1,1,03,08,00,000,40,22,00,000,42,25,00,000,39*5C
$LOGTIM,0,0.000000,0.000000,0.000000,0.000000,0.000*0A
EndT:        0
sat49 = 3857 2987 713 4000
sat50 = 3424 590 1238 1000
sat50 = 3420 2982 606 1000
sat51 = 3563 1335 1135 3000
sat51 = 3271 3049 507 3250
sat52 = 3406 191 1113 2500
sat52 = 3223 4054 411 2750
sat53 = 3081 3714 1082 -750
sat53 = 3160 3467 887 -1000
sat54 = 3780 70 1234 -4500
sat54 = 3451 3114 631 -4500
sat55 = 3215 2529 1123 -2250
---00000024--- Acq_st=3 2019-5-20 09:32:29 
[00]  G02  f 38  -2148.3 2046002.8  1.0  1.0  5  0 120766333
[01]  G03  f 45   2630.6 2045996.6  1.0  1.0  5  0 120766338
[02]  G06  f 43  -1266.9 2046001.6  1.0  1.0  5  0 120766343
[03]  G12  f 44  -3711.8 2046004.8  1.0  1.0  5  0 120766330
[04]  G17  f 46  -1029.6 2046001.4  1.0  1.0  5  0 120766345
[05]  G19  f 38  -1837.8 2046002.4  1.0  0.9  5  0 120766344
[06]  G22  f 38   2985.0 2045996.1  1.0  1.0  5  0 120766330
[16]  B08 1f 39   -173.2 4092000.4  1.0  1.0  5  0 120752292
[17]  B22 1f 42    937.0 4091997.5  1.0  1.0  5  0 120752337
[18]  B25 1f 39    869.4 4091997.7  1.0  1.0  5  0 120752329
$GNGGA,000000.000,,,,,0,00,,,M,,,,0000*2B
$GNRMC,000000.000,A,,,,,,,000000,,*26
$GPGSA,A,1,,,,,,,,,,,,,,,*1E
$BDGSA,A,1,,,,,,,,,,,,,,,*0F
$GPGSV,2,1,07,02,00,000,38,03,00,000,45,06,00,000,43,12,00,000,44*74
$GPGSV,2,2,07,17,00,000,46,19,00,000,38,22,00,000,38*42
$BDGSV,1,1,03,08,00,000,39,22,00,000,42,25,00,000,39*52
$LOGTIM,0,0.000000,0.000000,0.000000,0.000000,0.000*0A
EndT:        0
sat55 = 2800 3444 858 -3000
sat56 = 3794 1993 1125 750
sat56 = 3538 2057 560 1000
sat57 = 2771 325 906 1000
sat57 = 2404 3364 581 -4500
sat59 = 3391 348 1152 1000
sat59 = 3031 2440 655 1750
sat60 = 3197 305 1066 4500
sat60 = 2905 3850 786 4250
sat62 = 2993 3017 979 5000
sat62 = 2680 2421 388 4750
sat63 = 3738 3600 1084 5000
---00000025--- Acq_st=3 2019-5-20 09:32:30 
[00]  G02  f 38  -2147.6 2046002.8  1.0  0.9  5  0 120767333
[01]  G03  f 44   2631.3 2045996.6  1.0  1.0  5  0 120767338
[02]  G06  f 44  -1266.0 2046001.6  1.0  1.0  5  0 120767343
[03]  G12  f 44  -3710.9 2046004.8  1.0  1.0  5  0 120767330
[04]  G17  f 46  -1029.0 2046001.3  1.0  1.0  5  0 120767345
[05]  G19  f 37  -1837.3 2046002.4  1.0  1.0  5  0 120767344
[06]  G22  f 38   2985.4 2045996.1  1.0  1.0  5  0 120767330
[16]  B08 1f 39   -173.1 4092000.4  1.0  1.0  5  0 120753292
[17]  B22 1f 42    938.0 4091997.5  1.0  1.0  5  0 120753337
[18]  B25 1f 39    870.3 4091997.8  1.0  1.0  5  0 120753329
lsq: nits= 4
$GNGGA,093230.414,3112.7004,N,12136.4405,E,1,07,2.2,88.4,M,,,,0000*28
$GNRMC,093230.414,A,3112.7004,N,12136.4405,E,0.13,0.00,200519,,*1A
$GPGSA,A,3,02,03,06,12,17,19,22,,,,,,2.6,2.2,1.4*39
$BDGSA,A,3,,,,,,,,,,,,,2.6,2.2,1.4*22
$GPGSV,2,1,07,02,00,000,38,03,00,000,44,06,00,000,44,12,00,000,44*72
$GPGSV,2,2,07,17,00,000,46,19,00,000,37,22,00,000,38*4D
$BDGSV,1,1,03,08,00,000,39,22,00,000,42,25,00,000,39*52
$LOGTIM,1,9192173.699710,0.000000,0.000000,0.000000,-66.176*10
EndT:        1
sat63 = 3243 2043 723 5000
sat64 = 3558 2188 1271 -4000
sat64 = 3747 3836 809 -3750
sat65 = 3997 1240 1196 0
sat65 = 3370 3579 790 0
sat66 = 2943 3150 1063 1750
sat66 = 3146 2522 754 1500
sat67 = 2805 1198 1011 -4750
sat67 = 2636 4082 792 4000
sat68 = 3446 1484 1258 3000
sat68 = 3770 2441 496 2500
---00000026--- Acq_st=7 2019-5-20 09:32:30 
[00]  G02  f 38  -2149.2 2046002.8  1.0  1.0  5  0 120768333
[01]  G03  f 44   2630.0 2045996.6  1.0  1.0  5  0 120768338
[02]  G06  f 44  -1267.6 2046001.6  1.0  1.0  5  0 120768343
[03]  G12  f 44  -3712.4 2046004.8  1.0  1.0  5  0 120768330
[04]  G17  f 46  -1030.1 2046001.3  1.0  1.0  5  0 120768345
[05]  G19  f 36  -1837.8 2046002.5  1.0  1.0  5  0 120768344
[06]  G22  f 38   2983.7 2045996.2  1.0  1.0  5  0 120768330
[16]  B08 1f 39   -174.8 4092000.4  1.0  0.9  5  0 120754292
[17]  B22 1f 42    937.3 4091997.5  1.0  1.0  5  0 120754337
[18]  B25 1f 40    868.6 4091997.7  1.0  1.0  5  0 120754329
lsq: nits= 2
$GNGGA,093232.000,3112.6983,N,12136.4435,E,1,07,2.2,79.3,M,,,,0000*26
$GNRMC,093232.000,A,3112.6983,N,12136.4435,E,0.13,0.00,200519,,*1D
$GPGSA,A,3,02,03,06,12,17,19,22,,,,,,2.6,2.2,1.4*39
$BDGSA,A,3,,,,,,,,,,,,,2.6,2.2,1.4*22
$GPGSV,2,1,07,02,00,000,38,03,00,000,44,06,00,000,44,12,00,000,44*72
$GPGSV,2,2,07,17,00,000,46,19,00,000,36,22,00,000,38*4C
$BDGSV,1,1,03,08,00,000,39,22,00,000,42,25,00,000,40*5C
$LOGTIM,1,-108.530635,0.000000,0.000000,0.000000,-65.828*35
EndT:        2
---00000027--- Acq_st=7 2019-5-20 09:32:32 
[00]  G02  f 37  -2141.1 2046002.8  1.0  1.0  5  0 120769919
[01]  G03  f 44   2638.4 2045996.6  1.0  1.0  5  0 120769923
[02]  G06  f 45  -1259.1 2046001.6  1.0  1.0  5  0 120769928
[03]  G12  f 45  -3704.1 2046004.8  1.0  1.0  5  0 120769915
[04]  G17  f 46  -1021.8 2046001.3  1.0  1.0  5  0 120769930
[05]  G19  f 35  -1829.7 2046002.5  1.0  0.9  5  0 120769930
[06]  G22  f 38   2991.7 2045996.1  1.0  0.9  5  0 120769915
[16]  B08 1f 40   -166.7 4092000.4  1.0  1.0  5  0 120755877
[17]  B22 1f 42    945.4 4091997.5  1.0  1.0  5  0 120755922
[18]  B25 1f 39    877.0 4091997.7  1.0  1.0  5  0 120755914
lsq: nits= 2
$GNGGA,093233.000,3112.6969,N,12136.4436,E,1,07,2.2,76.6,M,,,,0000*2A
$GNRMC,093233.000,A,3112.6969,N,12136.4436,E,0.89,0.00,200519,,*18
$GPGSA,A,3,02,03,06,12,17,19,22,,,,,,2.6,2.2,1.4*39
$BDGSA,A,3,,,,,,,,,,,,,2.6,2.2,1.4*22
$GPGSV,2,1,07,02,17,269,37,03,27,043,44,06,49,294,45,12,02,326,45*73
$GPGSV,2,2,07,17,68,025,46,19,57,341,35,22,08,041,38*4F
$BDGSV,1,1,03,08,00,000,40,22,00,000,42,25,00,000,39*5C
$LOGTIM,1,-175.765822,0.000000,0.000000,0.000000,-64.812*3D
EndT:        2
---00000028--- Acq_st=7 2019-5-20 09:32:33 
[00]  G02  f 37  -2136.5 2046002.8  1.0  1.0  5  0 120770919
[01]  G03  f 45   2643.6 2045996.6  1.0  1.0  5  0 120770923
[02]  G06  f 44  -1254.2 2046001.6  1.0  1.0  5  0 120770928
[03]  G12  f 45  -3699.0 2046004.8  1.0  1.0  5  0 120770915
[04]  G17  f 46  -1016.7 2046001.3  1.0  1.0  5  0 120770930
[05]  G19  f 35  -1824.9 2046002.4  1.0  1.0  5  0 120770930
[06]  G22  f 38   2997.1 2045996.1  1.0  1.0  5  0 120770915
[16]  B08 1f 40   -161.7 4092000.4  1.0  1.0  5  0 120756877
[17]  B22 1f 42    951.2 4091997.5  1.0  1.0  5  0 120756922
[18]  B25 1f 40    882.6 4091997.6  1.0  1.0  5  0 120756914
sat0 = 20602 918 5275 -2500
sat0 = 7057 2034 1951 1250
sat3 = 13536 2024 5316 -2000
sat3 = 9032 233 2646 -1250
sat4 = 12975 1208 5300 0
sat4 = 8915 1594 2309 -3250
sat6 = 13595 1661 5319 -1250
sat6 = 11184 1984 3833 -1000
sat7 = 13710 1388 5221 -4750
sat7 = 12959 325 3239 3000
sat8 = 13063 755 5269 1000
sat8 = 7012 1850 2046 1750
sat9 = 13210 192 5316 2250
sat9 = 15217 1557 3779 -4250
lsq: nits= 2
$GNGGA,093234.000,3112.6970,N,12136.4433,E,1,07,2.2,74.5,M,,,,0000*21
$GNRMC,093234.000,A,3112.6970,N,12136.4433,E,0.49,0.00,200519,,*1E
$GPGSA,A,3,02,03,06,12,17,19,22,,,,,,2.6,2.2,1.4*39
$BDGSA,A,3,,,,,,,,,,,,,2.6,2.2,1.4*22
$GPGSV,2,1,07,02,17,269,37,03,27,043,45,06,49,294,44,12,02,326,45*73
$GPGSV,2,2,07,17,68,025,46,19,57,341,35,22,08,041,38*4F
$BDGSV,1,1,03,08,00,000,40,22,00,000,42,25,00,000,40*52
$LOGTIM,1,-241.062901,0.000000,0.000000,0.000000,-64.567*36
EndT:        2
sat10 = 12890 1955 5289 -250
sat10 = 11747 1287 2913 5000
sat12 = 14629 458 5282 1250
sat12 = 11622 1346 2776 1750
sat13 = 15258 693 5342 -4750
sat13 = 16687 1191 4604 2000
sat14 = 13461 299 5351 1500
sat14 = 9475 1800 2522 -2750
sat15 = 13131 1413 5268 2000
---00000029--- Acq_st=3 2019-5-20 09:32:34 
[00]  G02  f 38  -2137.7 2046002.8  1.0  1.0  5  0 120771919
[01]  G03  f 44   2642.1 2045996.6  1.0  1.0  5  0 120771923
[02]  G06  f 44  -1255.2 2046001.6  1.0  1.0  5  0 120771928
[03]  G12  f 45  -3700.2 2046004.8  1.0  1.0  5  0 120771915
[04]  G17  f 46  -1017.9 2046001.3  1.0  1.0  5  0 120771930
[05]  G19  f 35  -1826.0 2046002.4  1.0  0.9  5  0 120771930
[06]  G22  f 38   2994.9 2045996.1  1.0  1.0  5  0 120771915
[16]  B08 1f 39   -163.0 4092000.4  1.0  1.0  5  0 120757877
[17]  B22 1f 42    949.9 4091997.5  1.0  1.0  5  0 120757922
[18]  B25 1f 40    881.9 4091997.7  1.0  1.0  5  0 120757914
sat15 = 18534 1573 4198 -1500
sat17 = 13285 1197 5258 1250
sat17 = 17400 1901 5277 1250
sat19 = 12694 347 5301 -4750
sat19 = 10515 1638 3065 -1250
sat20 = 12790 117 5331 4750
sat20 = 7478 286 1653 -4250
sat22 = 13515 1859 5286 2000
sat22 = 14320 409 2575 -4500
sat23 = 15244 109 5380 4750
sat23 = 7206 1557 1822 1000
sat24 = 12983 1359 5272 -4000
sat24 = 10894 1269 3138 2750
sat25 = 12940 1841 5314 1250
sat25 = 12170 1044 4477 5000
lsq: nits= 2
$GNGGA,093235.000,3112.6976,N,12136.4432,E,1,07,2.2,72.6,M,,,,0000*22
$GNRMC,093235.000,A,3112.6976,N,12136.4432,E,0.15,0.00,200519,,*11
$GPGSA,A,3,02,03,06,12,17,19,22,,,,,,2.6,2.2,1.4*39
$BDGSA,A,3,,,,,,,,,,,,,2.6,2.2,1.4*22
$GPGSV,2,1,07,02,17,269,38,03,27,043,44,06,49,294,44,12,02,326,45*7D
$GPGSV,2,2,07,17,68,025,46,19,57,341,35,22,08,041,38*4F
$BDGSV,1,1,03,08,00,000,39,22,00,000,42,25,00,000,40*5C
$LOGTIM,1,-306.054711,0.000000,0.000000,0.000000,-64.649*31
EndT:        2
sat26 = 14431 1616 5294 -3000
sat26 = 7731 1566 2128 1000
sat27 = 13435 1529 5263 -2250
sat27 = 15918 1815 3769 -4000
sat28 = 13189 522 5264 4000
sat28 = 8453 598 2100 5000
sat29 = 13766 1259 5264 -2000
sat29 = 9989 1575 2917 1250
sat30 = 13865 1510 5272 -2500
---00000030--- Acq_st=3 2019-5-20 09:32:35 
[00]  G02  f 38  -2140.1 2046002.7  1.0  1.0  5  0 120772919
[01]  G03  f 44   2639.4 2045996.6  1.0  1.0  5  0 120772923
[02]  G06  f 45  -1258.4 2046001.6  1.0  1.0  5  0 120772928
[03]  G12  f 44  -3703.3 2046004.8  1.0  1.0  5  0 120772915
[04]  G17  f 46  -1020.9 2046001.3  1.0  1.0  5  0 120772930
[05]  G19  f 35  -1827.9 2046002.3  1.0  1.0  5  0 120772930
[06]  G22  f 37   2992.0 2045996.1  1.0  1.0  5  0 120772915
[16]  B08 1f 39   -167.2 4092000.4  1.0  1.0  5  0 120758877
[17]  B22 1f 42    946.8 4091997.5  1.0  1.0  5  0 120758922
[18]  B25 1f 39    878.3 4091997.6  1.0  1.0  5  0 120758914
sat30 = 9561 498 2999 4250
sat31 = 13592 42 5263 5000
sat31 = 11966 1938 2734 -3000
sat37 = 3028 3891 931 3500
sat37 = 2832 3510 685 3750
sat38 = 3602 620 1159 -500
sat38 = 3413 3062 713 -750
sat39 = 2974 276 1063 -4000
sat39 = 2870 3116 793 500
lsq: nits= 2
$GNGGA,093236.000,3112.6987,N,12136.4429,E,1,07,2.2,71.3,M,,,,0000*23
$GNRMC,093236.000,A,3112.6987,N,12136.4429,E,0.81,0.00,200519,,*1B
$GPGSA,A,3,02,03,06,12,17,19,22,,,,,,2.6,2.2,1.4*39
$BDGSA,A,3,,,,,,,,,,,,,2.6,2.2,1.4*22
$GPGSV,2,1,07,02,17,269,38,03,27,043,44,06,49,294,45,12,02,326,44*7D
$GPGSV,2,2,07,17,68,025,46,19,57,341,35,22,08,041,37*40
$BDGSV,1,1,03,08,00,000,39,22,00,000,42,25,00,000,39*52
$LOGTIM,1,-371.449508,0.000000,0.000000,0.000000,-65.471*3B
EndT:        2
sat40 = 2687 3222 975 -1500
sat40 = 2672 2216 756 -2250
sat41 = 4545 2846 1329 1750
sat41 = 4381 3019 566 2250
---00000031--- Acq_st=3 2019-5-20 09:32:36 
[00]  G02  f 38  -2149.6 2046002.8  1.0  1.0  5  0 120773919
[01]  G03  f 43   2631.3 2045996.6  1.0  1.0  5  0 120773923
[02]  G06  f 45  -1266.8 2046001.6  1.0  1.0  5  0 120773928
[03]  G12  f 44  -3711.5 2046004.8  1.0  1.0  5  0 120773915
[04]  G17  f 46  -1029.1 2046001.3  1.0  1.0  5  0 120773930
[05]  G19  f 35  -1837.1 2046002.3  1.0  1.0  5  0 120773930
[06]  G22  f 38   2983.9 2045996.1  1.0  1.0  5  0 120773915
[16]  B08 1f 39   -175.4 4092000.4  1.0  1.0  5  0 120759877
[17]  B22 1f 41    938.8 4091997.5  1.0  1.0  5  0 120759922
[18]  B25 1f 39    870.1 4091997.7  1.0  1.0  5  0 120759914
sat42 = 3430 3550 992 1750
sat42 = 3560 4079 607 2000
sat43 = 2447 3517 871 5000
sat43 = 2472 3504 672 5000
sat45 = 3341 3635 1043 3000
sat45 = 3351 3978 698 3000
sat46 = 3143 3315 963 1250
sat46 = 2719 2260 604 -2000
lsq: nits= 2
$GNGGA,093237.000,3112.7004,N,12136.4423,E,1,07,2.2,70.3,M,,,,0000*2A
$GNRMC,093237.000,A,3112.7004,N,12136.4423,E,1.63,0.00,200519,,*1E
$GPGSA,A,3,02,03,06,12,17,19,22,,,,,,2.6,2.2,1.4*39
$BDGSA,A,3,,,,,,,,,,,,,2.6,2.2,1.4*22
$GPGSV,2,1,07,02,17,269,38,03,27,043,43,06,49,294,45,12,02,326,44*7A
$GPGSV,2,2,07,17,68,025,46,19,57,341,35,22,08,041,38*4F
$BDGSV,1,1,03,08,00,000,39,22,00,000,41,25,00,000,39*51
$LOGTIM,1,-437.617551,0.000000,0.000000,0.000000,-66.405*3B
EndT:        2
sat47 = 3076 2500 977 5000
sat47 = 2830 2823 922 0
sat48 = 3584 1730 1151 3500
sat48 = 3135 4075 544 3500
---00000032--- Acq_st=3 2019-5-20 09:32:37 
[00]  G02  f 38  -2151.8 2046002.8  1.0  1.0  5  0 120774919
[01]  G03  f 44   2628.4 2045996.6  1.0  1.0  5  0 120774923
[02]  G06  f 45  -1269.6 2046001.7  1.0  1.0  5  0 120774928
[03]  G12  f 45  -3714.6 2046004.9  1.0  1.0  5  0 120774915
[04]  G17  f 46  -1031.9 2046001.3  1.0  1.0  5  0 120774930
[05]  G19  f 36  -1840.2 2046002.4  1.0  0.9  5  0 120774930
[06]  G22  f 37   2981.3 2045996.0  1.0  1.0  5  0 120774915
[16]  B08 1f 40   -178.8 4092000.4  1.0  1.0  5  0 120760877
[17]  B22 1f 41    936.6 4091997.6  1.0  1.0  5  0 120760922
[18]  B25 1f 39    868.2 4091997.7  1.0  1.0  5  0 120760914
sat49 = 4558 3880 1349 3750
sat49 = 4073 3060 718 4250
sat50 = 3473 3618 1224 1000
sat50 = 3557 2137 605 1250
sat51 = 3319 1203 1099 3000
sat51 = 3481 2529 505 3000
sat52 = 3158 3048 1074 3000
sat52 = 3424 3112 410 3250
lsq: nits= 2
$GNGGA,093238.000,3112.7022,N,12136.4418,E,1,07,2.2,69.0,M,,,,0000*22
$GNRMC,093238.000,A,3112.7022,N,12136.4418,E,1.46,0.00,200519,,*1A
$GPGSA,A,3,02,03,06,12,17,19,22,,,,,,2.6,2.2,1.4*39
$BDGSA,A,3,,,,,,,,,,,,,2.6,2.2,1.4*22
$GPGSV,2,1,07,02,17,269,38,03,27,043,44,06,49,294,45,12,02,326,45*7C
$GPGSV,2,2,07,17,68,025,46,19,57,341,36,22,08,041,37*43
$BDGSV,1,1,03,08,00,000,40,22,00,000,41,25,00,000,39*5F
$LOGTIM,1,-503.888032,0.000000,0.000000,0.000000,-66.506*37
EndT:        3
sat53 = 3363 3795 1046 -750
sat53 = 3222 3859 886 -1250
sat54 = 3935 1960 1221 -4250

