FlashID=0x1 0x20 0x18
BBram_blkflag1: 4845: b7ba
FW Ver: 1.30  
GPS00 Init Dop:   5000, 40
GPS01 Init Dop:   5000, 40
GPS02 Init Dop:   5000, 40
GPS03 Init Dop:   5000, 40
GPS04 Init Dop:   5000, 40
GPS05 Init Dop:   5000, 40
GPS06 Init Dop:   5000, 40
GPS07 Init Dop:   5000, 40
GPS08 Init Dop:   5000, 40
GPS09 Init Dop:   5000, 40
GPS10 Init Dop:   5000, 40
GPS11 Init Dop:   5000, 40
GPS12 Init Dop:   5000, 40
GPS13 Init Dop:   5000, 40
GPS14 Init Dop:   5000, 40
GPS15 Init Dop:   5000, 40
GPS16 Init Dop:   5000, 40
GPS17 Init Dop:   5000, 40
GPS18 Init Dop:   5000, 40
GPS19 Init Dop:   5000, 40
GPS20 Init Dop:   5000, 40
GPS21 Init Dop:   5000, 40
GPS22 Init Dop:   5000, 40
GPS23 Init Dop:   5000, 40
GPS24 Init Dop:   5000, 40
GPS25 Init Dop:   5000, 40
GPS26 Init Dop:   5000, 40
GPS27 Init Dop:   5000, 40
GPS28 Init Dop:   5000, 40
GPS29 Init Dop:   5000, 40
GPS30 Init Dop:   5000, 40
GPS31 Init Dop:   5000, 40
BDS00 Init Dop:   5000, 40
BDS01 Init Dop:   5000, 40
BDS02 Init Dop:   5000, 40
BDS03 Init Dop:   5000, 40
BDS04 Init Dop:   5000, 40
BDS05 Init Dop:   5000, 40
BDS06 Init Dop:   5000, 40
BDS07 Init Dop:   5000, 40
BDS08 Init Dop:   5000, 40
BDS09 Init Dop:   5000, 40
BDS10 Init Dop:   5000, 40
BDS11 Init Dop:   5000, 40
BDS12 Init Dop:   5000, 40
BDS13 Init Dop:   5000, 40
BDS14 Init Dop:   5000, 40
BDS15 Init Dop:   5000, 40
BDS16 Init Dop:   5000, 40
BDS17 Init Dop:   5000, 40
BDS18 Init Dop:   5000, 40
BDS19 Init Dop:   5000, 40
BDS20 Init Dop:   5000, 40
BDS21 Init Dop:   5000, 40
BDS22 Init Dop:   5000, 40
BDS23 Init Dop:   5000, 40
BDS24 Init Dop:   5000, 40
BDS25 Init Dop:   5000, 40
BDS26 Init Dop:   5000, 40
BDS27 Init Dop:   5000, 40
BDS28 Init Dop:   5000, 40
BDS29 Init Dop:   5000, 40
BDS30 Init Dop:   5000, 40
BDS31 Init Dop:   5000, 40
good luck!
sat0 = 3877 1737 1382 -2000
sat0 = 6631 383 1671 1250
sat1 = 10563 1927 1384 2250
ch0 satid=1,max_freq = 2250,max_mean = 1384,max_phase = 1927,max_value = 10563,acq ok1!
sat2 = 26261 1233 1385 -2500
ch1 satid=2,max_freq = -2500,max_mean = 1385,max_phase = 1233,max_value = 26261,acq ok1!
sat3 = 3248 301 1387 -750
sat3 = 7385 251 2342 5000
sat4 = 3445 241 1387 4000
sat4 = 8245 1053 2021 -3250
sat5 = 34940 1957 1387 1500
ch2 satid=5,max_freq = 1500,max_mean = 1387,max_phase = 1957,max_value = 34940,acq ok1!
sat6 = 3368 1053 1397 4000
sat6 = 10400 1958 3526 -3250
sat7 = 3453 857 1373 -2250
sat7 = 11489 1692 2949 -3000
sat8 = 3550 1725 1382 -4750
sat8 = 6015 1172 1753 4000
sat9 = 3243 224 1384 500
sat9 = 14473 1314 3504 4250
sat10 = 3596 1833 1384 -750
sat10 = 10781 67 2612 5000
sat11 = 3667 629 1387 -2750
sat11 = 6634 190 1879 250
sat12 = 3607 668 1386 0
sat12 = 10887 217 2491 1250
---00000001--- Acq_st=3 2019-5-20 09:22:23 
[00]  G02  1 29  -2234.9 2046004.3 -0.0  0.0  1  0         0
[01]  G03  1 25   2409.0 2045997.0 -0.1  0.0  1  0         0
[02]  G06  1  7  -1443.8 2046004.0 -0.0  0.0  1  0         0
$GNGGA,000000.000,,,,,0,00,,,M,,,,0000*2B
$GNRMC,000000.000,A,,,,,,,000000,,*26
$GPGSA,A,1,,,,,,,,,,,,,,,*1E
$BDGSA,A,1,,,,,,,,,,,,,,,*0F
$LOGTIM,0,0.000000,0.000000,0.000000,0.000000,0.000*0A
EndT:        0
sat13 = 3612 1374 1396 2250
sat13 = 15874 1324 4298 -2000
sat14 = 3947 1415 1393 250
sat14 = 9162 1319 2224 1250
sat15 = 3395 221 1384 1250
sat15 = 17923 48 3912 -1500
sat16 = 17603 10 1388 1250
ch3 satid=16,max_freq = 1250,max_mean = 1388,max_phase = 10,max_value = 17603,acq ok1!
sat17 = 3391 1755 1382 -2500
sat17 = 16048 2039 4988 -3000
sat18 = 36557 1067 1388 2000
ch4 satid=18,max_freq = 2000,max_mean = 1388,max_phase = 1067,max_value = 36557,acq ok1!
sat19 = 4004 171 1382 250
sat19 = 9691 1641 2766 -1250
sat20 = 3501 276 1390 -4250
sat20 = 6903 1971 1371 4250
sat21 = 16350 887 1376 -3000
ch5 satid=21,max_freq = -3000,max_mean = 1376,max_phase = 887,max_value = 16350,acq ok1!
sat22 = 3797 891 1383 1000
sat22 = 13369 67 2262 4500
sat23 = 3688 1868 1391 -2000
sat23 = 5565 1813 1514 -1000
sat24 = 3644 47 1382 3250
sat24 = 10064 152 2860 2750
sat25 = 3320 1289 1395 1250
sat25 = 10689 642 4183 5000
sat26 = 3546 1710 1381 -4500
---00000002--- Acq_st=3 2019-5-20 09:22:24 
[00]  G02  7 29  -2224.8 2046002.9  0.4  1.0  5  0         9
[01]  G03  7 28   2417.2 2045996.8  0.4  1.0 10  0         6
[02]  G06  7 24  -1411.3 2046001.8  0.2  0.0 20  0        18
[03]  G17  1 26  -1194.5 2046002.1 -0.0  0.0  1  0         0
[04]  G19  1 23  -1992.4 2046005.3 -0.1  0.0  1  0         0
[05]  G22  1  7   2947.5 2045997.9  0.0  0.0  1  0         0
$GNGGA,000000.000,,,,,0,00,,,M,,,,0000*2B
$GNRMC,000000.000,A,,,,,,,000000,,*26
$GPGSA,A,1,,,,,,,,,,,,,,,*1E
$BDGSA,A,1,,,,,,,,,,,,,,,*0F
$GPGSV,1,1,03,02,00,000,29,03,00,000,28,06,00,000,24*4A
$LOGTIM,0,0.000000,0.000000,0.000000,0.000000,0.000*0A
EndT:        0
sat26 = 6693 135 1836 4750
sat27 = 3583 541 1382 4750
sat27 = 14615 263 3471 -4000
sat28 = 3502 283 1381 3000
sat28 = 6924 190 1801 5000
sat29 = 3443 515 1376 4750
sat29 = 9683 168 2638 1250
sat30 = 3356 404 1382 -1250
sat30 = 9281 619 2714 -4250
sat31 = 3678 1529 1380 3500
sat31 = 10278 1943 2455 -3000
sat37 = 3101 2727 981 3500
sat37 = 2860 3331 689 -1000
sat38 = 3778 1294 1171 -1000
sat38 = 3357 2881 717 -500
sat39 = 2879 1919 1088 1250
sat39 = 2759 2166 799 4500
---00000003--- Acq_st=3 2019-5-20 09:22:25 
[00]  G02  f 40  -2224.5 2046002.9  1.0  1.0  5  0         9
[01]  G03  f 44   2418.0 2045996.8  1.0  1.0  5  0        15
[02]  G06  7 44  -1410.5 2046001.8  1.0  1.0  5  0        19
[03]  G17  7 27  -1191.4 2046001.6  0.2  0.0 10  0         1
[04]  G19  7 24  -1991.4 2046002.5 -0.1  0.0 20  0        16
[05]  G22  7 16   2921.3 2045996.0  0.2  0.0 20  0         7
$GNGGA,000000.000,,,,,0,00,,,M,,,,0000*2B
$GNRMC,000000.000,A,,,,,,,000000,,*26
$GPGSA,A,1,,,,,,,,,,,,,,,*1E
$BDGSA,A,1,,,,,,,,,,,,,,,*0F
$GPGSV,2,1,06,02,00,000,40,03,00,000,44,06,00,000,44,17,00,000,27*7C
$GPGSV,2,2,06,19,00,000,24,22,00,000,16*76
$LOGTIM,0,0.000000,0.000000,0.000000,0.000000,0.000*0A
EndT:        0
sat40 = 2700 2355 1008 2000
sat40 = 2760 3978 761 -4500
sat41 = 4284 190 1295 1750
sat41 = 4087 2143 580 1500
sat42 = 3483 1525 1027 1750
sat42 = 3337 2938 612 1250
sat43 = 2471 2685 927 5000
sat43 = 2406 3013 677 5000
sat44 = 3535 2182 1109 -2500
sat44 = 3669 2246 804 -2500
sat45 = 3115 3372 1061 2750
sat45 = 3208 3515 697 3250
---00000004--- Acq_st=3 2019-5-20 09:22:26 
[00]  G02  f 41  -2224.0 2046002.8  1.0  1.0  5  0 120163309
[01]  G03  f 44   2418.5 2045996.8  1.0  1.0  5  0 120163315
[02]  G06  7 45  -1410.2 2046001.8  1.0  1.0  5  0        19
[03]  G17  7 40  -1190.7 2046001.5  0.9  1.0  5  0         0
[04]  G19  7 43  -1990.6 2046002.5  0.9  1.0  5  0         0
[05]  G22  7 40   2921.7 2045996.1  1.0  1.0  5  0         7
$GNGGA,000000.000,,,,,0,00,,,M,,,,0000*2B
$GNRMC,000000.000,A,,,,,,,000000,,*26
$GPGSA,A,1,,,,,,,,,,,,,,,*1E
$BDGSA,A,1,,,,,,,,,,,,,,,*0F
$GPGSV,2,1,06,02,00,000,41,03,00,000,44,06,00,000,45,17,00,000,40*7D
$GPGSV,2,2,06,19,00,000,43,22,00,000,40*74
$LOGTIM,0,0.000000,0.000000,0.000000,0.000000,0.000*0A
EndT:        0
sat46 = 2760 379 1002 -1750
sat46 = 2706 2101 607 1250
sat47 = 2864 2728 1005 750
sat47 = 2989 4037 926 -4000
sat48 = 3661 1864 1159 500
sat48 = 3133 2205 554 3000
sat49 = 4206 2583 1322 4000
sat49 = 4053 2647 729 3750
sat50 = 3370 2073 1219 1000
sat50 = 3288 3837 618 2000
sat51 = 3166 2549 1122 3000
sat51 = 3123 2613 514 3250
---00000005--- Acq_st=3 2019-5-20 09:22:27 
[00]  G02  f 41  -2226.7 2046002.8  1.0  1.0  5  0 120164309
[01]  G03  f 44   2416.1 2045996.9  1.0  1.0  5  0 120164315
[02]  G06  7 45  -1412.9 2046001.8  1.0  1.0  5  0        19
[03]  G17  7 40  -1193.5 2046001.5  1.0  1.0  5  0         0
[04]  G19  7 43  -1993.0 2046002.5  1.0  1.0  5  0         0
[05]  G22  7 39   2919.1 2045996.2  1.0  1.0  5  0         7
sat52 = 2992 1416 1101 2500
$GNGGA,000000.000,,,,,0,00,,,M,,,,0000*2B
$GNRMC,000000.000,A,,,,,,,000000,,*26
$GPGSA,A,1,,,,,,,,,,,,,,,*1E
$BDGSA,A,1,,,,,,,,,,,,,,,*0F
$GPGSV,2,1,06,02,00,000,41,03,00,000,44,06,00,000,45,17,00,000,40*7D
$GPGSV,2,2,06,19,00,000,43,22,00,000,39*7A
$LOGTIM,0,0.000000,0.000000,0.000000,0.000000,0.000*0A
EndT:        0
sat52 = 3138 3113 420 3250
sat53 = 2874 2600 1076 -1250
sat53 = 3091 2664 889 -1250
sat54 = 3448 2834 1213 -4500
sat54 = 3489 3594 641 -4500
sat55 = 3151 2068 1118 -2250
sat55 = 3143 2132 868 -2250
sat56 = 3647 3594 1116 1750
sat56 = 3536 3658 568 1000
sat57 = 2507 1205 913 -2000
sat57 = 2606 3445 581 2250
sat58 = 10924 2232 904 -750
ch16 satid=58,max_freq = -750,max_mean = 904,max_phase = 2232,max_value = 10924,acq ok1!
---00000006--- Acq_st=3 2019-5-20 09:22:28 
[00]  G02  f 41  -2225.5 2046002.9  1.0  1.0  5  0 120165309
[01]  G03  f 44   2417.8 2045996.9  1.0  1.0  5  0 120165315
[02]  G06  7 45  -1411.6 2046001.8  1.0  1.0  5  0        19
[03]  G17  7 41  -1191.9 2046001.5  1.0  1.0  5  0         0
[04]  G19  7 44  -1991.6 2046002.5  1.0  1.0  5  0         0
[05]  G22  7 39   2920.2 2045996.2  1.0  1.0  5  0         7
[16]  B22  1  0  20000.0 4091999.0  0.0  0.0  1  0         0
$GNGGA,000000.000,,,,,0,00,,,M,,,,0000*2B
$GNRMC,000000.000,A,,,,,,,000000,,*26
$GPGSA,A,1,,,,,,,,,,,,,,,*1E
$BDGSA,A,1,,,,,,,,,,,,,,,*0F
$GPGSV,2,1,06,02,00,000,41,03,00,000,44,06,00,000,45,17,00,000,41*7C
$GPGSV,2,2,06,19,00,000,44,22,00,000,39*7D
$LOGTIM,0,0.000000,0.000000,0.000000,0.000000,0.000*0A
EndT:        0
sat59 = 3361 2182 1131 1750
sat59 = 3263 3308 665 1500
sat60 = 2805 3341 1055 4250
sat60 = 2775 2811 792 4000
sat61 = 2534 422 889 -4500
sat61 = 2330 3820 886 -4500
sat62 = 3251 2138 978 2750
sat62 = 3047 2202 393 3000
sat63 = 3284 2584 1079 5000
sat63 = 3338 2785 732 5000
sat64 = 3880 3086 1243 -4250
sat64 = 3376 3150 817 -4000
---00000007--- Acq_st=3 2019-5-20 09:22:29 
[00]  G02  f 41  -2225.6 2046002.9  1.0  1.0  5  0 120166309
[01]  G03  f 44   2417.8 2045996.9  1.0  1.0  5  0 120166315
[02]  G06  7 45  -1411.5 2046001.8  1.0  1.0  5  0        19
[03]  G17  7 41  -1191.8 2046001.6  1.0  1.0  5  0         0
[04]  G19  7 44  -1991.8 2046002.6  1.0  1.0  5  0         0
[05]  G22  7 39   2920.2 2045996.2  1.0  1.0  5  0         7
[16]  B22  1  7    627.2 4091998.2  0.2  0.0  1  0         8
$GNGGA,000000.000,,,,,0,00,,,M,,,,0000*2B
$GNRMC,000000.000,A,,,,,,,000000,,*26
$GPGSA,A,1,,,,,,,,,,,,,,,*1E
$BDGSA,A,1,,,,,,,,,,,,,,,*0F
$GPGSV,2,1,06,02,00,000,41,03,00,000,44,06,00,000,45,17,00,000,41*7C
$GPGSV,2,2,06,19,00,000,44,22,00,000,39*7D
$LOGTIM,0,0.000000,0.000000,0.000000,0.000000,0.000*0A
EndT:        1
sat65 = 3661 1961 1175 -500
sat65 = 3500 3669 796 0
sat66 = 2779 3868 1061 2250
sat66 = 2772 3248 762 1500
sat67 = 2806 2925 1008 -4500
sat67 = 2810 3204 795 4250
sat68 = 3751 2028 1238 3000
sat68 = 3487 2092 511 2750
---00000008--- Acq_st=7 2019-5-20 09:22:30 
[00]  G02  f 40  -2226.8 2046002.9  1.0  1.0  5  0 120167309
[01]  G03  f 44   2416.7 2045996.9  1.0  1.0  5  0 120167315
[02]  G06  7 44  -1412.4 2046001.8  1.0  1.0  5  0        19
[03]  G17  7 41  -1192.8 2046001.5  1.0  1.0  5  0         0
[04]  G19  7 44  -1992.5 2046002.6  1.0  1.0  5  0         0
[05]  G22  7 39   2918.7 2045996.2  1.0  1.0  5  0         7
[16]  B22  7 32    626.0 4091998.3  0.4  1.0  5  0      1008
$GNGGA,000000.000,,,,,0,00,,,M,,,,0000*2B
$GNRMC,000000.000,A,,,,,,,000000,,*26
$GPGSA,A,1,,,,,,,,,,,,,,,*1E
$BDGSA,A,1,,,,,,,,,,,,,,,*0F
$GPGSV,2,1,06,02,00,000,40,03,00,000,44,06,00,000,44,17,00,000,41*7C
$GPGSV,2,2,06,19,00,000,44,22,00,000,39*7D
$BDGSV,1,1,01,22,00,000,32*58
$LOGTIM,0,0.000000,0.000000,0.000000,0.000000,0.000*0A
EndT:        0
---00000009--- Acq_st=7 2019-5-20 09:22:31 
[00]  G02  f 41  -2226.4 2046002.9  1.0  1.0  5  0 120168309
[01]  G03  f 44   2417.6 2045996.9  1.0  1.0  5  0 120168315
[02]  G06  f 44  -1411.8 2046001.8  1.0  1.0  5  0        19
[03]  G17  f 41  -1192.3 2046001.5  1.0  1.0  5  0         0
[04]  G19  f 44  -1992.1 2046002.6  1.0  1.0  5  0         0
[05]  G22  f 39   2919.8 2045996.2  1.0  1.0  5  0         7
[16]  B22  7 44    627.2 4091998.3  1.0  1.0  5  0      1993
$GNGGA,000000.000,,,,,0,00,,,M,,,,0000*2B
$GNRMC,000000.000,A,,,,,,,000000,,*26
$GPGSA,A,1,,,,,,,,,,,,,,,*1E
$BDGSA,A,1,,,,,,,,,,,,,,,*0F
$GPGSV,2,1,06,02,00,000,41,03,00,000,44,06,00,000,44,17,00,000,41*7D
$GPGSV,2,2,06,19,00,000,44,22,00,000,39*7D
$BDGSV,1,1,01,22,00,000,44*59
$LOGTIM,0,0.000000,0.000000,0.000000,0.000000,0.000*0A
EndT:        1
---00000010--- Acq_st=7 2019-5-20 09:22:32 
[00]  G02  f 41  -2227.1 2046002.9  1.0  1.0  5  0 120169309
[01]  G03  f 44   2416.8 2045996.8  1.0  1.0  5  0 120169315
[02]  G06  f 45  -1412.5 2046001.8  1.0  1.0  5  0 120169319
[03]  G17  f 42  -1192.8 2046001.5  1.0  1.0  5  0 120169320
[04]  G19  f 44  -1993.0 2046002.6  1.0  1.0  5  0 120169320
[05]  G22  f 39   2917.9 2045996.2  1.0  0.9  5  0 120169307
[16]  B22  7 44    626.7 4091998.3  1.0  1.0  5  0      2993
$GNGGA,000000.000,,,,,0,00,,,M,,,,0000*2B
$GNRMC,000000.000,A,,,,,,,000000,,*26
$GPGSA,A,1,,,,,,,,,,,,,,,*1E
$BDGSA,A,1,,,,,,,,,,,,,,,*0F
$GPGSV,2,1,06,02,00,000,41,03,00,000,44,06,00,000,45,17,00,000,42*7F
$GPGSV,2,2,06,19,00,000,44,22,00,000,39*7D
$BDGSV,1,1,01,22,00,000,44*59
$LOGTIM,0,0.000000,0.000000,0.000000,0.000000,0.000*0A
EndT:        0
sat0 = 22494 155 5402 -2500
ch6 satid=0,max_freq = -2500,max_mean = 5402,max_phase = 155,max_value = 22494,acq ok1!
sat3 = 13210 174 5407 -2750
sat3 = 8582 1470 2649 -1000
sat4 = 13684 1452 5402 -2500
sat4 = 9497 1356 2325 3250
sat6 = 13530 1410 5474 -500
sat6 = 11033 1723 3832 3250
sat7 = 12897 1816 5313 -1750
sat7 = 11824 1006 3250 3000
sat8 = 14230 732 5397 4500
sat8 = 7187 1676 2061 2000
sat9 = 13321 829 5468 -4500
sat9 = 15603 1257 3818 4250
sat10 = 13962 414 5408 -4750
sat10 = 11706 1193 2919 5000
sat11 = 13369 26 5462 -250
sat11 = 7246 1458 2189 1000
sat12 = 14086 941 5433 4750
sat12 = 11617 203 2801 1500
sat13 = 13288 550 5464 4500
sat13 = 16779 1324 4602 -2000
sat14 = 14414 30 5459 2250
sat14 = 9369 117 2537 2750
---00000011--- Acq_st=3 2019-5-20 09:22:33 
[00]  G02  f 41  -2227.1 2046002.9  1.0  1.0  5  0 120170309
[01]  G03  f 44   2417.7 2045996.9  1.0  1.0  5  0 120170315
[02]  G06  f 44  -1412.4 2046001.8  1.0  1.0  5  0 120170319
[03]  G17  f 42  -1192.5 2046001.5  1.0  1.0  5  0 120170320
[04]  G19  f 44  -1992.5 2046002.6  1.0  1.0  5  0 120170320
[05]  G22  f 38   2918.9 2045996.1  1.0  1.0  5  0 120170307
[06]  G01  1 22   2472.9 2045997.6 -0.1  0.0  1  0         0
[16]  B22 1f 44    627.4 4091998.3  1.0  1.0  5  0      3993
$GNGGA,000000.000,,,,,0,00,,,M,,,,0000*2B
$GNRMC,000000.000,A,,,,,,,000000,,*26
$GPGSA,A,1,,,,,,,,,,,,,,,*1E
$BDGSA,A,1,,,,,,,,,,,,,,,*0F
$GPGSV,2,1,06,02,00,000,41,03,00,000,44,06,00,000,44,17,00,000,42*7E
$GPGSV,2,2,06,19,00,000,44,22,00,000,38*7C
$BDGSV,1,1,01,22,00,000,44*59
$LOGTIM,0,0.000000,0.000000,0.000000,0.000000,0.000*0A
EndT:        0
sat15 = 13276 1733 5372 4750
sat15 = 18966 1920 4218 1500
sat17 = 14590 625 5377 3750
sat17 = 16746 1900 5290 -1250
sat19 = 13576 1626 5425 2750
sat19 = 10230 1742 3076 -1000
sat20 = 13600 674 5443 2500
sat20 = 7971 1971 1686 4250
sat22 = 13676 1634 5408 -1500
sat22 = 14576 520 2571 -4500
sat23 = 13191 905 5463 4250
sat23 = 6656 1051 1825 -1000
sat24 = 13345 132 5419 2000
sat24 = 10608 1642 3163 -2750
sat25 = 13936 513 5452 -500
sat25 = 12005 1718 4493 5000
sat26 = 14380 1125 5417 3000
sat26 = 8085 1725 2145 -750
sat27 = 13482 872 5378 2250
sat27 = 15874 1925 3774 4000
sat28 = 15342 2 5406 3250
sat28 = 7569 1005 2112 5000
sat29 = 13274 1208 5385 -3000
sat29 = 10368 168 2945 1250
---00000012--- Acq_st=3 2019-5-20 09:22:34 
[00]  G02  f 41  -2228.7 2046002.9  1.0  1.0  5  0 120171309
[01]  G03  f 43   2416.2 2045996.9  1.0  1.0  5  0 120171315
[02]  G06  f 44  -1413.7 2046001.8  1.0  1.0  5  0 120171319
[03]  G17  f 42  -1194.2 2046001.6  1.0  1.0  5  0 120171320
[04]  G19  f 45  -1994.0 2046002.6  1.0  1.0  5  0 120171320
[05]  G22  f 39   2916.8 2045996.2  1.0  1.0  5  0 120171307
[06]  G01  7 28   2453.4 2045996.7 -0.1  0.9 10  0        13
[16]  B22 1f 44    626.2 4091998.3  1.0  1.0  5  0 120157313
$GNGGA,000000.000,,,,,0,00,,,M,,,,0000*2B
$GNRMC,000000.000,A,,,,,,,000000,,*26
$GPGSA,A,1,,,,,,,,,,,,,,,*1E
$BDGSA,A,1,,,,,,,,,,,,,,,*0F
$GPGSV,2,1,07,02,00,000,41,03,00,000,43,06,00,000,44,17,00,000,42*78
$GPGSV,2,2,07,19,00,000,45,22,00,000,39,01,00,000,28*46
$BDGSV,1,1,01,22,00,000,44*59
$LOGTIM,0,0.000000,0.000000,0.000000,0.000000,0.000*0A
EndT:        0
sat30 = 12968 1950 5395 4250
sat30 = 11149 1942 3018 -4250
sat31 = 14988 2003 5407 500
sat31 = 11619 1597 2763 -3000
sat37 = 2774 3767 971 3750
sat37 = 2545 3164 683 3500
sat38 = 3499 2882 1158 -4000
sat38 = 3554 2946 712 -4500
sat39 = 2676 438 1079 5000
sat39 = 2696 2994 792 4750
sat40 = 2554 4060 1000 2500
sat40 = 2578 3924 757 -2500
sat41 = 4799 216 1285 1750
sat41 = 4061 3748 575 2250
---00000013--- Acq_st=3 2019-5-20 09:22:35 
[00]  G02  f 41  -2224.8 2046002.9  1.0  1.0  5  0 120172309
[01]  G03  f 43   2420.3 2045996.9  1.0  1.0  5  0 120172315
[02]  G06  f 45  -1410.0 2046001.8  1.0  1.0  5  0 120172319
[03]  G17  f 42  -1190.2 2046001.5  1.0  1.0  5  0 120172320
[04]  G19  f 45  -1990.2 2046002.6  1.0  1.0  5  0 120172320
[05]  G22  f 39   2921.3 2045996.2  1.0  1.0  5  0 120172307
[06]  G01  7 32   2457.8 2045996.7  0.9  1.0  5  0         7
[16]  B22 1f 44    630.5 4091998.3  1.0  1.0  5  0 120158313
$GNGGA,000000.000,,,,,0,00,,,M,,,,0000*2B
$GNRMC,000000.000,A,,,,,,,000000,,*26
$GPGSA,A,1,,,,,,,,,,,,,,,*1E
$BDGSA,A,1,,,,,,,,,,,,,,,*0F
$GPGSV,2,1,07,02,00,000,41,03,00,000,43,06,00,000,45,17,00,000,42*79
$GPGSV,2,2,07,19,00,000,45,22,00,000,39,01,00,000,32*4D
$BDGSV,1,1,01,22,00,000,44*59
$LOGTIM,0,0.000000,0.000000,0.000000,0.000000,0.000*0A
EndT:        0
sat42 = 3169 2950 1016 2000
sat42 = 3589 3465 610 2250
sat43 = 2701 3853 929 5000
sat43 = 2530 3917 674 5000
sat44 = 3714 3272 1101 -2500
sat44 = 3573 3924 801 -1750
sat45 = 3226 820 1050 2750
sat45 = 3089 2314 695 3250
sat46 = 2909 1800 997 -2000
sat46 = 2753 3853 605 -2000
sat47 = 2807 2490 1006 500
sat47 = 2696 2554 923 250
---00000014--- Acq_st=3 2019-5-20 09:22:36 
[00]  G02  f 41  -2221.9 2046002.9  1.0  1.0  5  0 120173309
[01]  G03  f 44   2423.3 2045996.9  1.0  1.0  5  0 120173315
[02]  G06  f 44  -1406.9 2046001.8  1.0  1.0  5  0 120173319
[03]  G17  f 42  -1187.5 2046001.5  1.0  1.0  5  0 120173320
[04]  G19  f 45  -1987.3 2046002.6  1.0  1.0  5  0 120173320
[05]  G22  f 40   2923.8 2045996.2  1.0  1.0  5  0 120173307
[06]  G01  7 34   2459.7 2045996.7  1.0  1.0  5  0         7
[16]  B22 1f 44    633.9 4091998.3  1.0  1.0  5  0 120159313
$GNGGA,000000.000,,,,,0,00,,,M,,,,0000*2B
$GNRMC,000000.000,A,,,,,,,000000,,*26
$GPGSA,A,1,,,,,,,,,,,,,,,*1E
$BDGSA,A,1,,,,,,,,,,,,,,,*0F
$GPGSV,2,1,07,02,00,000,41,03,00,000,44,06,00,000,44,17,00,000,42*7F
$GPGSV,2,2,07,19,00,000,45,22,00,000,40,01,00,000,34*45
$BDGSV,1,1,01,22,00,000,44*59
$LOGTIM,0,0.000000,0.000000,0.000000,0.000000,0.000*0A
EndT:        0
sat48 = 3260 865 1157 3500
sat48 = 3695 2322 551 3500
sat49 = 3800 730 1313 3500
sat49 = 4273 3059 724 3750
sat50 = 3521 4051 1218 1000
sat50 = 3108 2994 612 1500
sat51 = 3343 1695 1116 -2750
sat51 = 2993 2750 507 3250
sat52 = 3202 54 1100 2250
sat52 = 3197 3916 413 2250
sat53 = 2837 1006 1066 -750
sat53 = 3133 2616 881 -1250
---00000015--- Acq_st=3 2019-5-20 09:22:37 
[00]  G02  f 40  -2225.2 2046002.9  1.0  1.0  5  0 120174309
[01]  G03  f 44   2420.6 2045996.8  1.0  1.0  5  0 120174315
[02]  G06  f 44  -1409.8 2046001.9  1.0  1.0  5  0 120174319
[03]  G17  f 42  -1189.7 2046001.5  1.0  1.0  5  0 120174320
[04]  G19  f 45  -1990.0 2046002.6  1.0  1.0  5  0 120174320
[05]  G22  f 40   2921.0 2045996.2  1.0  1.0  5  0 120174307
[06]  G01  f 34   2456.4 2045996.8  1.0  1.0  5  0         7
[16]  B22 1f 44    631.3 4091998.3  1.0  1.0  5  0 120160313
$GNGGA,000000.000,,,,,0,00,,,M,,,,0000*2B
$GNRMC,000000.000,A,,,,,,,000000,,*26
$GPGSA,A,1,,,,,,,,,,,,,,,*1E
$BDGSA,A,1,,,,,,,,,,,,,,,*0F
$GPGSV,2,1,07,02,00,000,40,03,00,000,44,06,00,000,44,17,00,000,42*7E
$GPGSV,2,2,07,19,00,000,45,22,00,000,40,01,00,000,34*45
$BDGSV,1,1,01,22,00,000,44*59
$LOGTIM,0,0.000000,0.000000,0.000000,0.000000,0.000*0A
EndT:        0
sat54 = 3456 3558 1206 -4000
sat54 = 3595 3278 638 -4250
sat55 = 2813 1219 1114 -2000
sat55 = 3066 2232 864 -3000
sat56 = 3356 2785 1108 1500
sat56 = 3276 2263 561 1000
sat57 = 2415 2240 902 -4750
sat57 = 2282 2886 578 1000
sat59 = 3211 803 1128 1750
sat59 = 3059 3901 661 1750
sat60 = 2965 610 1047 4750
sat60 = 2741 3190 791 4000
---00000016--- Acq_st=3 2019-5-20 09:22:38 
[00]  G02  f 40  -2226.3 2046002.9  1.0  1.0  5  0 120175309
[01]  G03  f 44   2419.5 2045996.9  1.0  1.0  5  0 120175315
[02]  G06  f 44  -1411.0 2046001.9  1.0  1.0  5  0 120175319
[03]  G17  f 42  -1191.3 2046001.5  1.0  1.0  5  0 120175320
[04]  G19  f 45  -1991.5 2046002.6  1.0  1.0  5  0 120175320
[05]  G22  f 40   2919.3 2045996.2  1.0  1.0  5  0 120175307
[06]  G01  f 35   2454.8 2045996.8  1.0  0.9  5  0 120175307
[16]  B22 1f 43    630.0 4091998.3  1.0  1.0  5  0 120161313
$GNGGA,000000.000,,,,,0,00,,,M,,,,0000*2B
$GNRMC,000000.000,A,,,,,,,000000,,*26
$GPGSA,A,1,,,,,,,,,,,,,,,*1E
$BDGSA,A,1,,,,,,,,,,,,,,,*0F
$GPGSV,2,1,07,02,00,000,40,03,00,000,44,06,00,000,44,17,00,000,42*7E
$GPGSV,2,2,07,19,00,000,45,22,00,000,40,01,00,000,35*44
$BDGSV,1,1,01,22,00,000,43*5E
$LOGTIM,0,0.000000,0.000000,0.000000,0.000000,0.000*0A
EndT:        0
sat61 = 2625 3582 884 -4750
sat61 = 2358 3433 883 -4750
sat62 = 2975 4000 976 2750
sat62 = 2903 3031 389 3000
sat63 = 3156 4052 1067 5000
sat63 = 3028 694 724 5000
sat64 = 3290 2774 1241 -3750
sat64 = 3250 2835 813 -4250
sat65 = 3635 2316 1173 250
sat65 = 3416 2380 788 250
sat66 = 2899 750 1056 -1250
sat66 = 2843 3878 757 1500
---00000017--- Acq_st=3 2019-5-20 09:22:39 
[00]  G02  f 41  -2229.3 2046002.9  1.0  1.0  5  0 120176309
[01]  G03  f 44   2416.5 2045996.9  1.0  1.0  5  0 120176315
[02]  G06  f 44  -1414.0 2046001.9  1.0  1.0  5  0 120176319
[03]  G17  f 42  -1194.3 2046001.6  1.0  1.0  5  0 120176320
[04]  G19  f 45  -1994.3 2046002.6  1.0  1.0  5  0 120176320
[05]  G22  f 40   2916.5 2045996.2  1.0  1.0  5  0 120176307
[06]  G01  f 34   2452.7 2045996.8  1.0  0.9  5  0 120176307
[16]  B22 1f 43    627.9 4091998.3  1.0  1.0  5  0 120162313
sat67 = 2612 3432 999 750
$GNGGA,000000.000,,,,,0,00,,,M,,,,0000*2B
$GNRMC,000000.000,A,,,,,,,000000,,*26
$GPGSA,A,1,,,,,,,,,,,,,,,*1E
$BDGSA,A,1,,,,,,,,,,,,,,,*0F
$GPGSV,2,1,07,02,00,000,41,03,00,000,44,06,00,000,44,17,00,000,42*7F
$GPGSV,2,2,07,19,00,000,45,22,00,000,40,01,00,000,34*45
$BDGSV,1,1,01,22,00,000,43*5E
$LOGTIM,0,0.000000,0.000000,0.000000,0.000000,0.000*0A
EndT:        0
sat67 = 2668 3496 793 750
sat68 = 3481 4035 1237 3000
sat68 = 3187 2298 511 -1250
---00000018--- Acq_st=7 2019-5-20 09:22:40 
[00]  G02  f 40  -2226.9 2046002.9  1.0  1.0  5  0 120177309
[01]  G03  f 44   2419.1 2045996.8  1.0  1.0  5  0 120177315
[02]  G06  f 45  -1411.6 2046001.8  1.0  1.0  5  0 120177319
[03]  G17  f 42  -1191.9 2046001.6  1.0  1.0  5  0 120177320
[04]  G19  f 45  -1991.9 2046002.6  1.0  1.0  5  0 120177320
[05]  G22  f 40   2918.9 2045996.2  1.0  1.0  5  0 120177307
[06]  G01  f 34   2454.7 2045996.8  1.0  1.0  5  0 120177307
[16]  B22 1f 43    629.9 4091998.3  1.0  1.0  5  0 120163313
$GNGGA,000000.000,,,,,0,00,,,M,,,,0000*2B
$GNRMC,000000.000,A,,,,,,,000000,,*26
$GPGSA,A,1,,,,,,,,,,,,,,,*1E
$BDGSA,A,1,,,,,,,,,,,,,,,*0F
$GPGSV,2,1,07,02,00,000,40,03,00,000,44,06,00,000,45,17,00,000,42*7F
$GPGSV,2,2,07,19,00,000,45,22,00,000,40,01,00,000,34*45
$BDGSV,1,1,01,22,00,000,43*5E
$LOGTIM,0,0.000000,0.000000,0.000000,0.000000,0.000*0A
EndT:        0
---00000019--- Acq_st=7 2019-5-20 09:22:41 
[00]  G02  f 41  -2224.8 2046002.9  1.0  1.0  5  0 120178309
[01]  G03  f 43   2421.6 2045996.8  1.0  1.0  5  0 120178315
[02]  G06  f 45  -1409.1 2046001.8  1.0  1.0  5  0 120178319
[03]  G17  f 42  -1189.2 2046001.6  1.0  1.0  5  0 120178320
[04]  G19  f 45  -1989.3 2046002.6  1.0  1.0  5  0 120178320
[05]  G22  f 40   2921.4 2045996.2  1.0  1.0  5  0 120178307
[06]  G01  f 34   2455.7 2045996.8  1.0  1.0  5  0 120178307
[16]  B22 1f 43    632.9 4091998.4  1.0  1.0  5  0 120164313
$GNGGA,000000.000,,,,,0,00,,,M,,,,0000*2B
$GNRMC,000000.000,A,,,,,,,000000,,*26
$GPGSA,A,1,,,,,,,,,,,,,,,*1E
$BDGSA,A,1,,,,,,,,,,,,,,,*0F
$GPGSV,2,1,07,02,00,000,41,03,00,000,43,06,00,000,45,17,00,000,42*79
$GPGSV,2,2,07,19,00,000,45,22,00,000,40,01,00,000,34*45
$BDGSV,1,1,01,22,00,000,43*5E
$LOGTIM,0,0.000000,0.000000,0.000000,0.000000,0.000*0A
EndT:        0
sat3 = 15375 438 5296 500
sat3 = 8988 871 2645 1000
sat4 = 14143 183 5256 5000
sat4 = 9178 1834 2316 3250
sat6 = 12851 706 5301 -250
sat6 = 11686 1723 3826 3250
sat7 = 13268 146 5223 1000
sat7 = 12771 496 3236 3000
sat8 = 12948 707 5234 -2250
sat8 = 6991 1874 2045 -1750
sat9 = 14125 418 5292 -4750
sat9 = 15641 1858 3801 4250
sat10 = 14404 1782 5280 -2500
sat10 = 11902 1192 2904 5000
sat11 = 13538 2000 5275 -1250
sat11 = 8231 1717 2175 3250
sat12 = 12513 1858 5265 -2500
sat12 = 11397 1939 2786 1750
sat13 = 16111 1670 5333 -1500
sat13 = 16236 1324 4599 -2000
sat14 = 13388 1901 5301 3000
sat14 = 9510 1190 2521 -2500
sat15 = 12942 1548 5249 -4500
---00000020--- Acq_st=3 2019-5-20 09:22:42 
[00]  G02  f 41  -2221.4 2046002.9  1.0  1.0  5  0 120179309
[01]  G03  f 44   2425.1 2045996.9  1.0  1.0  5  0 120179315
[02]  G06  f 45  -1405.9 2046001.8  1.0  1.0  5  0 120179319
[03]  G17  f 42  -1186.1 2046001.6  1.0  1.0  5  0 120179320
[04]  G19  f 45  -1986.2 2046002.6  1.0  1.0  5  0 120179320
[05]  G22  f 40   2924.4 2045996.2  1.0  1.0  5  0 120179307
[06]  G01  f 34   2459.3 2045996.8  1.0  1.0  5  0 120179307
[16]  B22 1f 43    636.3 4091998.4  1.0  1.0  5  0 120165313
sat15 = 19576 48 4204 -1500
$GNGGA,000000.000,,,,,0,00,,,M,,,,0000*2B
$GNRMC,000000.000,A,,,,,,,000000,,*26
$GPGSA,A,1,,,,,,,,,,,,,,,*1E
$BDGSA,A,1,,,,,,,,,,,,,,,*0F
$GPGSV,2,1,07,02,00,000,41,03,00,000,44,06,00,000,45,17,00,000,42*7E
$GPGSV,2,2,07,19,00,000,45,22,00,000,40,01,00,000,34*45
$BDGSV,1,1,01,22,00,000,43*5E
$LOGTIM,0,0.000000,0.000000,0.000000,0.000000,0.000*0A
EndT:        0
sat17 = 12860 600 5244 750
sat17 = 16167 265 5278 1250
sat19 = 13433 1599 5310 -1250
sat19 = 10523 1227 3060 -1250
sat20 = 12394 836 5298 2000
sat20 = 7213 1878 1669 4000
sat22 = 13947 411 5253 1750
sat22 = 14024 1660 2558 4500
sat23 = 13703 878 5309 -4250
sat23 = 6708 567 1811 -1000
sat24 = 13899 14 5255 1000
sat24 = 12587 1642 3150 -2750
sat25 = 13570 90 5307 2500
sat25 = 12225 1955 4481 -1250
sat26 = 13272 493 5248 -1000
sat26 = 7310 1173 2124 5000
sat27 = 15667 426 5240 4000
sat27 = 16157 261 3762 -4000
sat28 = 13685 1851 5240 750
sat28 = 7613 2037 2094 -1500
sat29 = 14009 1068 5253 2000
sat29 = 10504 639 2928 1000
sat30 = 12782 936 5231 -1750
---00000021--- Acq_st=3 2019-5-20 09:22:43 
[00]  G02  f 41  -2220.1 2046002.9  1.0  1.0  5  0 120180309
[01]  G03  f 44   2426.6 2045996.9  1.0  1.0  5  0 120180315
[02]  G06  f 45  -1404.7 2046001.8  1.0  1.0  5  0 120180319
[03]  G17  f 41  -1184.5 2046001.6  1.0  1.0  5  0 120180320
[04]  G19  f 46  -1984.7 2046002.6  1.0  1.0  5  0 120180320
[05]  G22  f 40   2925.2 2045996.2  1.0  1.0  5  0 120180307
[06]  G01  f 34   2460.3 2045996.8  1.0  1.0  5  0 120180307
[16]  B22 1f 43    637.7 4091998.3  1.0  1.0  5  0 120166313
sat30 = 9881 619 3004 -4250
$GNGGA,000000.000,,,,,0,00,,,M,,,,0000*2B
$GNRMC,000000.000,A,,,,,,,000000,,*26
$GPGSA,A,1,,,,,,,,,,,,,,,*1E
$BDGSA,A,1,,,,,,,,,,,,,,,*0F
$GPGSV,2,1,07,02,00,000,41,03,00,000,44,06,00,000,45,17,00,000,41*7D
$GPGSV,2,2,07,19,00,000,46,22,00,000,40,01,00,000,34*46
$BDGSV,1,1,01,22,00,000,43*5E
$LOGTIM,0,0.000000,0.000000,0.000000,0.000000,0.000*0A
EndT:        0
sat31 = 13319 715 5242 -1000
sat31 = 11384 918 2747 -3000
sat37 = 2915 3935 998 3500
sat37 = 2812 2825 681 -750
sat38 = 3199 3147 1175 -750
sat38 = 3232 3211 709 -750
sat39 = 3082 1670 1098 5000
sat39 = 3082 1670 789 5000
sat40 = 2985 2511 1020 -2000
sat40 = 2684 2575 756 -1750
sat41 = 4086 160 1298 1750
sat41 = 4014 3143 571 1750
---00000022--- Acq_st=3 2019-5-20 09:22:44 
[00]  G02  f 40  -2223.2 2046002.9  1.0  1.0  5  0 120181309
[01]  G03  f 43   2424.6 2045996.9  1.0  1.0  5  0 120181315
[02]  G06  f 45  -1406.9 2046001.8  1.0  1.0  5  0 120181319
[03]  G17  f 41  -1187.2 2046001.6  1.0  1.0  5  0 120181320
[04]  G19  f 46  -1987.3 2046002.6  1.0  1.0  5  0 120181320
[05]  G22  f 40   2922.7 2045996.2  1.0  1.0  5  0 120181307
[06]  G01  f 34   2457.5 2045996.7  1.0  0.9  5  0 120181307
[16]  B22 1f 43    636.0 4091998.3  1.0  1.0  5  0 120167313
[17]  B03  1 21  -4928.1 4092012.3 -0.1  0.0  1  0         0
sat42 = 3297 1511 1034 2000
$GNGGA,000000.000,,,,,0,00,,,M,,,,0000*2B
$GNRMC,000000.000,A,,,,,,,000000,,*26
$GPGSA,A,1,,,,,,,,,,,,,,,*1E
$BDGSA,A,1,,,,,,,,,,,,,,,*0F
$GPGSV,2,1,07,02,00,000,40,03,00,000,43,06,00,000,45,17,00,000,41*7B
$GPGSV,2,2,07,19,00,000,46,22,00,000,40,01,00,000,34*46
$BDGSV,1,1,01,22,00,000,43*5E
$LOGTIM,0,0.000000,0.000000,0.000000,0.000000,0.000*0A
EndT:        0
sat42 = 2984 3628 606 1500
sat43 = 2540 1520 943 -2500
sat43 = 2842 3742 670 3000
sat44 = 3429 4007 1115 -2000
sat44 = 3564 4071 797 -2500
sat45 = 3100 534 1079 4750
sat45 = 3099 3816 692 3000
sat46 = 2649 1658 1023 1250
sat46 = 2599 2092 602 1250
sat47 = 2986 1251 1023 250
sat47 = 2980 3779 918 -4000
---00000023--- Acq_st=3 2019-5-20 09:22:45 
[00]  G02  f 41  -2223.7 2046002.9  1.0  1.0  5  0 120182309
[01]  G03  f 44   2423.6 2045996.9  1.0  1.0  5  0 120182315
[02]  G06  f 45  -1407.7 2046001.8  1.0  1.0  5  0 120182319
[03]  G17  f 40  -1188.2 2046001.6  1.0  1.0  5  0 120182320
[04]  G19  f 46  -1988.3 2046002.6  1.0  1.0  5  0 120182320
[05]  G22  f 40   2921.5 2045996.2  1.0  1.0  5  0 120182307
[06]  G01  f 32   2456.4 2045996.9  1.0  0.9  5  0 120182307
[16]  B22 1f 43    635.3 4091998.3  1.0  1.0  5  0 120168313
[17]  B03  1 10  -4634.1 4092012.6  0.0  0.0  1  0       419
sat48 = 3364 2080 1162 1000
$GNGGA,000000.000,,,,,0,00,,,M,,,,0000*2B
$GNRMC,000000.000,A,,,,,,,000000,,*26
$GPGSA,A,1,,,,,,,,,,,,,,,*1E
$BDGSA,A,1,,,,,,,,,,,,,,,*0F
$GPGSV,2,1,07,02,00,000,41,03,00,000,44,06,00,000,45,17,00,000,40*7C
$GPGSV,2,2,07,19,00,000,46,22,00,000,40,01,00,000,32*40
$BDGSV,1,1,01,22,00,000,43*5E
$LOGTIM,0,0.000000,0.000000,0.000000,0.000000,0.000*0A
EndT:        0
sat48 = 3291 2144 547 1000
sat49 = 4908 672 1322 500
sat49 = 3732 4011 721 4000
sat50 = 3472 4085 1227 2000
sat50 = 3382 2546 610 -2000
sat51 = 3248 2901 1127 3000
sat51 = 3104 3744 504 -3250
sat52 = 3308 4072 1109 2750
sat52 = 3026 4091 411 3000
sat53 = 3166 2882 1085 -1000
sat53 = 3114 4067 880 -1500
sat54 = 3919 1690 1217 -4250
---00000024--- Acq_st=3 2019-5-20 09:22:46 
[00]  G02  f 41  -2223.6 2046002.9  1.0  1.0  5  0 120183309
[01]  G03  f 44   2423.8 2045996.8  1.0  1.0  5  0 120183315
[02]  G06  f 45  -1407.9 2046001.8  1.0  1.0  5  0 120183319
[03]  G17  f 40  -1188.0 2046001.6  1.0  1.0  5  0 120183320
[04]  G19  f 46  -1988.4 2046002.6  1.0  1.0  5  0 120183320
[05]  G22  f 40   2921.7 2045996.2  1.0  1.0  5  0 120183307
[06]  G01  f 32   2456.4 2045996.8  1.0  0.9  5  0 120183307
[16]  B22 1f 43    635.5 4091998.3  1.0  1.0  5  0 120169313
[17]  B03  1 10  -4579.7 4092014.3 -0.1  0.0  1  0      1419
$GNGGA,000000.000,,,,,0,00,,,M,,,,0000*2B
$GNRMC,000000.000,A,,,,,,,000000,,*26
$GPGSA,A,1,,,,,,,,,,,,,,,*1E
$BDGSA,A,1,,,,,,,,,,,,,,,*0F
$GPGSV,2,1,07,02,00,000,41,03,00,000,44,06,00,000,45,17,00,000,40*7C
$GPGSV,2,2,07,19,00,000,46,22,00,000,40,01,00,000,32*40
$BDGSV,1,1,01,22,00,000,43*5E
$LOGTIM,0,0.000000,0.000000,0.000000,0.000000,0.000*0A
EndT:        0
sat54 = 3542 3712 633 -4750
sat55 = 2902 1509 1123 -3000
sat55 = 2970 3995 860 -2500
sat56 = 4013 1595 1127 1000
sat56 = 3620 2433 560 750
sat57 = 2535 1809 929 4250
sat57 = 2521 3321 575 -4750
sat59 = 3328 3673 1143 2000
sat59 = 3405 2488 658 1750
sat60 = 3022 3966 1068 4500
sat60 = 2732 4049 786 4750
sat61 = 2590 564 903 -4750
---00000025--- Acq_st=3 2019-5-20 09:22:47 
[00]  G02  f 41  -2221.8 2046002.9  1.0  1.0  5  0 120184309
[01]  G03  f 44   2426.4 2045996.8  1.0  1.0  5  0 120184315
[02]  G06  f 45  -1405.4 2046001.8  1.0  1.0  5  0 120184319
[03]  G17  f 40  -1185.5 2046001.5  1.0  1.0  5  0 120184320
[04]  G19  f 46  -1985.8 2046002.6  1.0  1.0  5  0 120184320
[05]  G22  f 40   2924.3 2045996.2  1.0  1.0  5  0 120184307
[06]  G01  f 32   2458.6 2045996.8  1.0  0.9  5  0 120184307
[16]  B22 1f 43    638.1 4091998.3  1.0  1.0  5  0 120170313
$GNGGA,000000.000,,,,,0,00,,,M,,,,0000*2B
$GNRMC,000000.000,A,,,,,,,000000,,*26
$GPGSA,A,1,,,,,,,,,,,,,,,*1E
$BDGSA,A,1,,,,,,,,,,,,,,,*0F
$GPGSV,2,1,07,02,00,000,41,03,00,000,44,06,00,000,45,17,00,000,40*7C
$GPGSV,2,2,07,19,00,000,46,22,00,000,40,01,00,000,32*40
$BDGSV,1,1,01,22,00,000,43*5E
$LOGTIM,0,0.000000,0.000000,0.000000,0.000000,0.000*0A
EndT:        0
sat61 = 2413 3409 880 -1750
sat62 = 2885 1273 990 2500
sat62 = 3088 3982 385 2750
sat63 = 3280 2973 1083 5000
sat63 = 3063 137 720 5000
sat64 = 3648 3698 1245 -4000
sat64 = 3496 3185 813 -4000
sat65 = 3519 3097 1183 -500
sat65 = 3487 3114 787 -250
sat66 = 2895 1160 1062 1500
sat66 = 2915 3183 753 1500
sat67 = 2896 1458 1022 4500
---00000026--- Acq_st=3 2019-5-20 09:22:48 
[00]  G02  f 41  -2222.8 2046002.9  1.0  1.0  5  0 120185309
[01]  G03  f 44   2425.1 2045996.9  1.0  1.0  5  0 120185315
[02]  G06  f 45  -1406.4 2046001.8  1.0  1.0  5  0 120185319
[03]  G17  f 41  -1186.7 2046001.5  1.0  1.0  5  0 120185320
[04]  G19  f 46  -1987.0 2046002.6  1.0  1.0  5  0 120185320
[05]  G22  f 41   2922.5 2045996.2  1.0  1.0  5  0 120185307
[06]  G01  f 32   2455.8 2045996.7  1.0  1.0  5  0 120185307
[16]  B22 1f 43    637.2 4091998.3  1.0  1.0  5  0 120171313
$GNGGA,000000.000,,,,,0,00,,,M,,,,0000*2B
$GNRMC,000000.000,A,,,,,,,000000,,*26
$GPGSA,A,1,,,,,,,,,,,,,,,*1E
$BDGSA,A,1,,,,,,,,,,,,,,,*0F
$GPGSV,2,1,07,02,00,000,41,03,00,000,44,06,00,000,45,17,00,000,41*7D
$GPGSV,2,2,07,19,00,000,46,22,00,000,41,01,00,000,32*41
$BDGSV,1,1,01,22,00,000,43*5E
$LOGTIM,0,0.000000,0.000000,0.000000,0.000000,0.000*0A
EndT:        0
sat67 = 3136 3269 791 -4750
sat68 = 3277 3056 1237 2500
sat68 = 3242 3466 505 2500
---00000027--- Acq_st=7 2019-5-20 09:22:49 
[00]  G02  f 41  -2223.9 2046002.9  1.0  1.0  5  0 120186309
[01]  G03  f 43   2424.7 2045996.9  1.0  1.0  5  0 120186315
[02]  G06  f 45  -1407.4 2046001.8  1.0  1.0  5  0 120186319
[03]  G17  f 40  -1187.8 2046001.5  1.0  1.0  5  0 120186320
[04]  G19  f 46  -1987.7 2046002.6  1.0  1.0  5  0 120186320
[05]  G22  f 41   2922.2 2045996.2  1.0  1.0  5  0 120186307
[06]  G01  f 31   2454.7 2045996.8  1.0  1.0  5  0 120186307
[16]  B22 1f 43    637.0 4091998.3  1.0  1.0  5  0 120172313
$GNGGA,000000.000,,,,,0,00,,,M,,,,0000*2B
$GNRMC,000000.000,A,,,,,,,000000,,*26
$GPGSA,A,1,,,,,,,,,,,,,,,*1E
$BDGSA,A,1,,,,,,,,,,,,,,,*0F
$GPGSV,2,1,07,02,00,000,41,03,00,000,43,06,00,000,45,17,00,000,40*7B
$GPGSV,2,2,07,19,00,000,46,22,00,000,41,01,00,000,31*42
$BDGSV,1,1,01,22,00,000,43*5E
$LOGTIM,0,0.000000,0.000000,0.000000,0.000000,0.000*0A
EndT:        0
---00000028--- Acq_st=7 2019-5-20 09:22:50 
[00]  G02  f 41  -2221.6 2046002.9  1.0  1.0  5  0 120187309
[01]  G03  f 44   2427.3 2045996.8  1.0  1.0  5  0 120187315
[02]  G06  f 45  -1404.9 2046001.8  1.0  1.0  5  0 120187319
[03]  G17  f 40  -1185.1 2046001.6  1.0  1.0  5  0 120187320
[04]  G19  f 46  -1985.2 2046002.6  1.0  1.0  5  0 120187320
[05]  G22  f 41   2924.1 2045996.2  1.0  1.0  5  0 120187307
[06]  G01  f 31   2456.4 2045996.9  1.0  1.1  5  0 120187307
[16]  B22 1f 43    639.6 4091998.3  1.0  1.0  5  0 120173313
$GNGGA,000000.000,,,,,0,00,,,M,,,,0000*2B
$GNRMC,000000.000,A,,,,,,,000000,,*26
$GPGSA,A,1,,,,,,,,,,,,,,,*1E
$BDGSA,A,1,,,,,,,,,,,,,,,*0F
$GPGSV,2,1,07,02,00,000,41,03,00,000,44,06,00,000,45,17,00,000,40*7C
$GPGSV,2,2,07,19,00,000,46,22,00,000,41,01,00,000,31*42
$BDGSV,1,1,01,22,00,000,43*5E
$LOGTIM,0,0.000000,0.000000,0.000000,0.000000,0.000*0A
EndT:        0
sat3 = 14738 433 5364 -4500
sat3 = 9450 1639 2630 -3500
sat4 = 13832 1809 5339 4750
sat4 = 10085 1053 2310 -3250
sat6 = 13598 599 5403 -1000
sat6 = 10781 478 3817 -3500
sat7 = 14355 526 5267 -4250
sat7 = 11998 1733 3229 2750
sat8 = 14306 1123 5320 -3000
sat8 = 7836 904 2041 2000
sat9 = 13812 1351 5373 -2750
sat9 = 15312 1134 3781 -4250
sat10 = 13881 551 5351 -2000
sat10 = 11867 1238 2899 5000
sat11 = 13138 337 5347 -250
sat11 = 7643 1047 2164 750
sat12 = 15009 612 5365 -2000
sat12 = 12105 1904 2783 1500
sat13 = 14527 19 5397 3250
sat13 = 15746 1324 4586 -2000
sat14 = 13704 465 5402 -2250
sat14 = 9806 301 2515 2750
sat15 = 14174 519 5322 1750
---00000029--- Acq_st=3 2019-5-20 09:22:51 
[00]  G02  f 41  -2221.4 2046002.9  1.0  1.0  5  0 120188309
[01]  G03  f 44   2428.1 2045996.9  1.0  1.0  5  0 120188315
[02]  G06  f 45  -1404.5 2046001.8  1.0  1.0  5  0 120188319
[03]  G17  f 40  -1184.5 2046001.5  1.0  1.0  5  0 120188320
[04]  G19  f 46  -1984.8 2046002.6  1.0  1.0  5  0 120188320
[05]  G22  f 40   2924.7 2045996.2  1.0  1.0  5  0 120188307
[06]  G01  f 31   2458.9 2045996.8  1.0  0.9  5  0 120188307
[16]  B22 1f 43    640.5 4091998.3  1.0  1.0  5  0 120174313
sat15 = 18291 1568 4193 -1500
sat17 = 13854 1064 5329 750
sat17 = 17287 2039 5273 -3000
sat19 = 14128 676 5359 5000
sat19 = 10248 1737 3051 1000
$GNGGA,000000.000,,,,,0,00,,,M,,,,0000*2B
$GNRMC,000000.000,A,,,,,,,000000,,*26
$GPGSA,A,1,,,,,,,,,,,,,,,*1E
$BDGSA,A,1,,,,,,,,,,,,,,,*0F
$GPGSV,2,1,07,02,00,000,41,03,00,000,44,06,00,000,45,17,00,000,40*7C
$GPGSV,2,2,07,19,00,000,46,22,00,000,40,01,00,000,31*43
$BDGSV,1,1,01,22,00,000,43*5E
$LOGTIM,0,0.000000,0.000000,0.000000,0.000000,0.000*0A
EndT:        0
sat20 = 13987 574 5382 2000
sat20 = 7114 1971 1660 4250
sat22 = 14069 1501 5328 5000
sat22 = 15210 1943 2546 -4500
sat23 = 14142 253 5410 750
sat23 = 6724 1813 1809 -1000
sat24 = 12542 931 5325 -2500
sat24 = 11906 618 3139 2750
sat25 = 14009 1137 5398 -3500
sat25 = 11338 1101 4470 5000
sat26 = 13959 1110 5341 1750
sat26 = 7655 1848 2121 4750
sat27 = 13020 191 5307 1750
sat27 = 16045 263 3754 -4000
sat28 = 13009 1992 5321 -2250
sat28 = 7309 1518 2088 5000
sat29 = 16186 1101 5309 -4500
sat29 = 10606 168 2918 1250
sat30 = 13714 201 5328 -1250
---00000030--- Acq_st=3 2019-5-20 09:22:52 
[00]  G02  f 41  -2219.8 2046002.9  1.0  1.0  5  0 120189309
[01]  G03  f 44   2429.3 2045996.8  1.0  1.0  5  0 120189315
[02]  G06  f 45  -1402.9 2046001.8  1.0  1.0  5  0 120189319
[03]  G17  f 39  -1183.2 2046001.6  1.0  1.0  5  0 120189320
[04]  G19  f 46  -1983.3 2046002.6  1.0  1.0  5  0 120189320
[05]  G22  f 40   2925.6 2045996.2  1.0  1.0  5  0 120189307
[06]  G01  f 32   2458.1 2045996.8  1.0  0.9  5  0 120189307
[16]  B22 1f 43    642.0 4091998.3  1.0  1.0  5  0 120175313
sat30 = 9834 619 2999 -4250
$GNGGA,000000.000,,,,,0,00,,,M,,,,0000*2B
$GNRMC,000000.000,A,,,,,,,000000,,*26
$GPGSA,A,1,,,,,,,,,,,,,,,*1E
$BDGSA,A,1,,,,,,,,,,,,,,,*0F
$GPGSV,2,1,07,02,00,000,41,03,00,000,44,06,00,000,45,17,00,000,39*72
$GPGSV,2,2,07,19,00,000,46,22,00,000,40,01,00,000,32*40
$BDGSV,1,1,01,22,00,000,43*5E
$LOGTIM,0,0.000000,0.000000,0.000000,0.000000,0.000*0A
EndT:        0
sat31 = 13590 1975 5309 -2000
sat31 = 11106 2023 2741 3000
sat37 = 2885 4 969 4000
sat37 = 2655 2131 685 3500
sat38 = 3546 2786 1149 -500
sat38 = 3565 2850 715 -250
sat39 = 2774 955 1065 0
sat39 = 2742 237 793 5000
sat40 = 2605 3704 1000 -1500
sat40 = 2802 3303 758 -4250
sat41 = 4053 787 1277 1750
sat41 = 4090 3701 573 1750
---00000031--- Acq_st=3 2019-5-20 09:22:53 
[00]  G02  f 41  -2216.2 2046002.9  1.0  1.0  5  0 120190309
[01]  G03  f 44   2433.0 2045996.8  1.0  1.0  5  0 120190315
[02]  G06  f 45  -1399.7 2046001.8  1.0  1.0  5  0 120190319
[03]  G17  f 39  -1179.4 2046001.6  1.0  1.0  5  0 120190320
[04]  G19  f 47  -1980.0 2046002.6  1.0  1.0  5  0 120190320
[05]  G22  f 41   2929.1 2045996.2  1.0  1.0  5  0 120190307
[06]  G01  f 32   2461.5 2045996.8  1.0  0.9  5  0 120190307
[16]  B22 1f 43    645.7 4091998.3  1.0  1.0  5  0 120176313
sat42 = 3330 1243 1018 1750
$GNGGA,000000.000,,,,,0,00,,,M,,,,0000*2B
$GNRMC,000000.000,A,,,,,,,000000,,*26
$GPGSA,A,1,,,,,,,,,,,,,,,*1E
$BDGSA,A,1,,,,,,,,,,,,,,,*0F
$GPGSV,2,1,07,02,00,000,41,03,00,000,44,06,00,000,45,17,00,000,39*72
$GPGSV,2,2,07,19,00,000,47,22,00,000,41,01,00,000,32*40
$BDGSV,1,1,01,22,00,000,43*5E
$LOGTIM,0,0.000000,0.000000,0.000000,0.000000,0.000*0A
EndT:        0
sat42 = 3229 3777 610 2000
sat43 = 2685 308 917 4750
sat43 = 2588 308 672 5000
sat44 = 3558 2408 1092 -1750
sat44 = 3250 2472 800 -1750
sat45 = 3056 115 1049 3250
sat45 = 2955 3354 693 3250
sat46 = 2851 261 996 -2000
sat46 = 2545 4081 605 -2000
sat47 = 2906 3527 1000 5000
sat47 = 2768 3674 922 500
---00000032--- Acq_st=3 2019-5-20 09:22:54 
[00]  G02  f 41  -2217.4 2046002.9  1.0  1.0  5  0 120191309
[01]  G03  f 44   2432.1 2045996.8  1.0  1.0  5  0 120191315
[02]  G06  f 45  -1400.5 2046001.8  1.0  1.0  5  0 120191319
[03]  G17  f 40  -1180.3 2046001.5  1.0  1.0  5  0 120191320
[04]  G19  f 47  -1980.8 2046002.6  1.0  1.0  5  0 120191320
[05]  G22  f 41   2928.4 2045996.2  1.0  1.0  5  0 120191307
[06]  G01  f 32   2460.1 2045996.8  1.0  1.0  5  0 120191307
[16]  B22 1f 43    645.4 4091998.3  1.0  1.0  5  0 120177313
[17]  B07  1  7  -5064.1 4092013.4  0.0  0.0  1  0      2419
sat48 = 3104 2801 1140 500
$GNGGA,000000.000,,,,,0,00,,,M,,,,0000*2B
$GNRMC,000000.000,A,,,,,,,000000,,*26
$GPGSA,A,1,,,,,,,,,,,,,,,*1E
$BDGSA,A,1,,,,,,,,,,,,,,,*0F
$GPGSV,2,1,07,02,00,000,41,03,00,000,44,06,00,000,45,17,00,000,40*7C
$GPGSV,2,2,07,19,00,000,47,22,00,000,41,01,00,000,32*40
$BDGSV,1,1,01,22,00,000,43*5E
$LOGTIM,0,0.000000,0.000000,0.000000,0.000000,0.000*0A
EndT:        0
sat48 = 3005 4085 550 3500
sat49 = 3856 2094 1293 0
sat49 = 3969 3484 723 3750
sat50 = 3282 2137 1197 2250
sat50 = 3185 2201 612 2500
sat51 = 3130 1131 1103 -3000
sat51 = 3089 2279 508 3250
sat52 = 3072 344 1086 3000
sat52 = 3296 3491 413 3250
sat53 = 2909 1745 1058 -750
sat53 = 2695 2533 884 -1000
sat54 = 3608 4006 1193 -4250
---00000033--- Acq_st=3 2019-5-20 09:22:55 
[00]  G02  f 40  -2216.7 2046002.9  1.0  1.0  5  0 120192309
[01]  G03  f 44   2433.1 2045996.8  1.0  1.0  5  0 120192315
[02]  G06  f 45  -1399.5 2046001.8  1.0  1.0  5  0 120192319
[03]  G17  f 40  -1179.6 2046001.5  1.0  1.0  5  0 120192320
[04]  G19  f 47  -1980.0 2046002.5  1.0  1.0  5  0 120192320
[05]  G22  f 41   2929.3 2045996.2  1.0  1.0  5  0 120192307
[06]  G01  f 32   2461.1 2045996.8  1.0  0.9  5  0 120192307
[16]  B22 1f 43    646.6 4091998.3  1.0  1.0  5  0 120178313
[17]  B07  1  7  -5043.0 4092012.6 -0.1  0.0  1  0       775
$GNGGA,000000.000,,,,,0,00,,,M,,,,0000*2B
$GNRMC,000000.000,A,,,,,,,000000,,*26
$GPGSA,A,1,,,,,,,,,,,,,,,*1E
$BDGSA,A,1,,,,,,,,,,,,,,,*0F
$GPGSV,2,1,07,02,00,000,40,03,00,000,44,06,00,000,45,17,00,000,40*7D
$GPGSV,2,2,07,19,00,000,47,22,00,000,41,01,00,000,32*40
$BDGSV,1,1,01,22,00,000,43*5E
$LOGTIM,0,0.000000,0.000000,0.000000,0.000000,0.000*0A
EndT:        0
sat54 = 3311 3346 637 -4000
sat55 = 2914 2063 1098 -2250
sat55 = 2833 2571 863 -2500
sat56 = 3377 25 1097 1500
sat56 = 3046 2115 563 1000
sat57 = 2502 2027 903 -4500
sat57 = 2470 2091 577 -4750
sat59 = 3138 946 1115 1500
sat59 = 3085 3656 660 1750
sat60 = 2895 396 1040 4750
sat60 = 2950 3090 791 4750
sat61 = 2649 3891 880 -4750
---00000034--- Acq_st=3 2019-5-20 09:22:56 
[00]  G02  f 41  -2211.9 2046002.9  1.0  1.0  5  0 120193309
[01]  G03  f 44   2438.4 2045996.8  1.0  1.0  5  0 120193315
[02]  G06  f 45  -1394.7 2046001.8  1.0  1.0  5  0 120193319
[03]  G17  f 39  -1174.7 2046001.5  1.0  1.0  5  0 120193320
[04]  G19  f 46  -1974.9 2046002.6  1.0  1.0  5  0 120193320
[05]  G22  f 41   2934.2 2045996.2  1.0  1.0  5  0 120193307
[06]  G01  f 32   2466.0 2045996.8  1.0  0.9  5  0 120193307
[16]  B22 1f 43    651.5 4091998.3  1.0  1.0  5  0 120179313
[17]  B07  1 10  -5117.6 4092013.5  0.0  0.0  1  0      1775
$GNGGA,000000.000,,,,,0,00,,,M,,,,0000*2B
$GNRMC,000000.000,A,,,,,,,000000,,*26
$GPGSA,A,1,,,,,,,,,,,,,,,*1E
$BDGSA,A,1,,,,,,,,,,,,,,,*0F
$GPGSV,2,1,07,02,00,000,41,03,00,000,44,06,00,000,45,17,00,000,39*72
$GPGSV,2,2,07,19,00,000,46,22,00,000,41,01,00,000,32*41
$BDGSV,1,1,01,22,00,000,43*5E
$LOGTIM,0,0.000000,0.000000,0.000000,0.000000,0.000*0A
EndT:        0
sat61 = 2352 2969 881 2500
sat62 = 2840 4051 968 3000
sat62 = 3057 3201 386 3000
sat63 = 3315 3434 1060 2750
sat63 = 3338 3498 722 2750
sat64 = 3401 2677 1222 -4000
sat64 = 3167 2592 816 -3500
sat65 = 3806 136 1152 250
sat65 = 3486 4003 792 -500
sat66 = 2936 3536 1044 1500
sat66 = 2933 2724 756 1250
sat67 = 2750 3450 997 4250
---00000035--- Acq_st=3 2019-5-20 09:22:57 
[00]  G02  f 40  -2210.8 2046002.9  1.0  1.0  5  0 120194309
[01]  G03  f 44   2439.2 2045996.8  1.0  1.0  5  0 120194315
[02]  G06  f 46  -1393.8 2046001.8  1.0  1.0  5  0 120194319
[03]  G17  f 40  -1174.0 2046001.5  1.0  1.0  5  0 120194320
[04]  G19  f 46  -1974.5 2046002.6  1.0  1.0  5  0 120194320
[05]  G22  f 40   2934.4 2045996.2  1.0  1.0  5  0 120194307
[06]  G01  f 32   2466.3 2045996.9  1.0  0.9  5  0 120194307
[16]  B22 1f 43    652.8 4091998.3  1.0  1.0  5  0 120180313
$GNGGA,000000.000,,,,,0,00,,,M,,,,0000*2B
$GNRMC,000000.000,A,,,,,,,000000,,*26
$GPGSA,A,1,,,,,,,,,,,,,,,*1E
$BDGSA,A,1,,,,,,,,,,,,,,,*0F
$GPGSV,2,1,07,02,00,000,40,03,00,000,44,06,00,000,46,17,00,000,40*7E
$GPGSV,2,2,07,19,00,000,46,22,00,000,40,01,00,000,32*40
$BDGSV,1,1,01,22,00,000,43*5E
$LOGTIM,0,0.000000,0.000000,0.000000,0.000000,0.000*0A
EndT:        0
sat67 = 2671 3514 793 4500
sat68 = 3677 3358 1211 3000
sat68 = 3263 3422 510 2750
---00000036--- Acq_st=7 2019-5-20 09:22:58 
[00]  G02  f 40  -2214.7 2046002.9  1.0  1.0  5  0 120195309
[01]  G03  f 44   2435.9 2045996.8  1.0  1.0  5  0 120195315
[02]  G06  f 46  -1396.9 2046001.8  1.0  1.0  5  0 120195319
[03]  G17  f 40  -1177.3 2046001.5  1.0  1.0  5  0 120195320
[04]  G19  f 46  -1977.7 2046002.6  1.0  1.0  5  0 120195320
[05]  G22  f 41   2931.1 2045996.1  1.0  1.0  5  0 120195307
[06]  G01  f 32   2462.5 2045996.9  1.0  1.1  5  0 120195307
[16]  B22 1f 42    649.9 4091998.3  1.0  1.0  5  0 120181313
$GNGGA,000000.000,,,,,0,00,,,M,,,,0000*2B
$GNRMC,000000.000,A,,,,,,,000000,,*26
$GPGSA,A,1,,,,,,,,,,,,,,,*1E
$BDGSA,A,1,,,,,,,,,,,,,,,*0F
$GPGSV,2,1,07,02,00,000,40,03,00,000,44,06,00,000,46,17,00,000,40*7E
$GPGSV,2,2,07,19,00,000,46,22,00,000,41,01,00,000,32*41
$BDGSV,1,1,01,22,00,000,42*5F
$LOGTIM,0,0.000000,0.000000,0.000000,0.000000,0.000*0A
EndT:        0
---00000037--- Acq_st=7 2019-5-20 09:22:59 
[00]  G02  f 40  -2216.1 2046002.9  1.0  1.0  5  0 120196309
[01]  G03  f 44   2434.7 2045996.8  1.0  1.0  5  0 120196315
[02]  G06  f 46  -1398.4 2046001.8  1.0  1.0  5  0 120196319
[03]  G17  f 40  -1178.6 2046001.5  1.0  1.0  5  0 120196320
[04]  G19  f 46  -1979.1 2046002.6  1.0  1.0  5  0 120196320
[05]  G22  f 41   2929.3 2045996.2  1.0  1.0  5  0 120196307
[06]  G01  f 32   2460.4 2045996.8  1.0  0.9  5  0 120196307
[16]  B22 1f 43    648.1 4091998.3  1.0  1.0  5  0 120182313
$GNGGA,000000.000,,,,,0,00,,,M,,,,0000*2B
$GNRMC,000000.000,A,,,,,,,000000,,*26
$GPGSA,A,1,,,,,,,,,,,,,,,*1E
$BDGSA,A,1,,,,,,,,,,,,,,,*0F
$GPGSV,2,1,07,02,00,000,40,03,00,000,44,06,00,000,46,17,00,000,40*7E
$GPGSV,2,2,07,19,00,000,46,22,00,000,41,01,00,000,32*41
$BDGSV,1,1,01,22,00,000,43*5E
$LOGTIM,0,0.000000,0.000000,0.000000,0.000000,0.000*0A
EndT:        0
sat3 = 14014 671 5397 500
sat3 = 7972 379 2644 1000
sat4 = 14278 1081 5379 1750
sat4 = 9297 1816 2312 3500
sat6 = 13477 491 5408 -3750
sat6 = 10891 1958 3824 -3250
sat7 = 13813 2034 5305 -3000
sat7 = 14331 2031 3239 -3000
sat8 = 14556 1149 5345 -4250
sat8 = 7314 1925 2050 -2000
sat9 = 13436 223 5395 -1750
sat9 = 15513 1314 3801 4250
sat10 = 13841 73 5374 2750
sat10 = 11768 1614 2910 5000
sat11 = 15472 1625 5378 -2500
sat11 = 8053 1956 2176 -2750
sat12 = 12826 1055 5382 2500
sat12 = 11349 864 2789 1500
sat13 = 15084 1267 5460 0
sat13 = 16620 169 4598 -2000
sat14 = 15165 455 5411 3750
sat14 = 9855 298 2528 2750
sat15 = 14525 1404 5348 1250
---00000038--- Acq_st=3 2019-5-20 09:23:0 
[00]  G02  f 40  -2217.7 2046002.9  1.0  1.0  5  0 120197309
[01]  G03  f 44   2433.5 2045996.8  1.0  1.0  5  0 120197315
[02]  G06  f 46  -1400.1 2046001.8  1.0  1.0  5  0 120197319
[03]  G17  f 40  -1180.2 2046001.5  1.0  1.0  5  0 120197320
[04]  G19  f 46  -1980.4 2046002.6  1.0  1.0  5  0 120197320
[05]  G22  f 41   2928.0 2045996.2  1.0  1.0  5  0 120197307
[06]  G01  f 31   2459.1 2045996.9  1.0  1.0  5  0 120197307
[16]  B22 1f 43    647.2 4091998.3  1.0  1.0  5  0 120183313
sat15 = 19185 48 4203 -1500
lsq: nits= 4
$GNGGA,092300.391,3112.6894,N,12136.4463,E,1,07,3.4,74.0,M,,,,0000*21
$GNRMC,092300.391,A,3112.6894,N,12136.4463,E,0.27,0.00,200519,,*14
$GPGSA,A,3,01,02,03,06,17,19,22,,,,,,3.8,3.4,1.6*31
$BDGSA,A,3,,,,,,,,,,,,,3.8,3.4,1.6*28
$GPGSV,2,1,07,02,00,000,40,03,00,000,44,06,00,000,46,17,00,000,40*7E
$GPGSV,2,2,07,19,00,000,46,22,00,000,41,01,00,000,31*42
$BDGSV,1,1,01,22,00,000,43*5E
$LOGTIM,1,7424981.181178,0.000000,0.000000,0.000000,-65.679*1E
EndT:        1
sat17 = 14931 1661 5340 2750
sat17 = 16423 2039 5282 -3000
sat19 = 13468 1756 5402 -250
sat19 = 10442 654 3063 -1000
sat20 = 15095 355 5414 2250
sat20 = 7965 1885 1673 -3500
sat22 = 14533 1287 5379 -3250
sat22 = 15228 520 2552 -4500
sat23 = 14370 1151 5447 3750
sat23 = 6586 1556 1820 -1000
sat24 = 13243 819 5354 4000
sat24 = 11881 1752 3150 -2500
sat25 = 14387 340 5395 250
sat25 = 11523 995 4481 5000
sat26 = 13944 853 5369 4000
sat26 = 7747 2025 2140 -1000
sat27 = 14543 411 5316 -3000
sat27 = 15651 1925 3764 4000
sat28 = 12783 1682 5357 5000
sat28 = 7559 1523 2100 5000
sat29 = 14063 1949 5336 -4750
sat29 = 10017 168 2925 1250
sat30 = 15706 687 5355 -4000
---00000039--- Acq_st=3 2019-5-20 09:23:0 
[00]  G02  f 41  -2212.6 2046002.9  1.0  1.0  5  0 120198309
[01]  G03  f 44   2438.2 2045996.8  1.0  1.0  5  0 120198315
[02]  G06  f 46  -1395.0 2046001.8  1.0  1.0  5  0 120198319
[03]  G17  f 39  -1175.2 2046001.5  1.0  1.0  5  0 120198320
[04]  G19  f 46  -1975.6 2046002.6  1.0  1.0  5  0 120198320
[05]  G22  f 41   2932.6 2045996.2  1.0  1.0  5  0 120198307
[06]  G01  f 31   2463.7 2045996.7  1.0  0.9  5  0 120198307
[16]  B22 1f 42    652.6 4091998.3  1.0  1.0  5  0 120184313
sat30 = 10189 619 3005 -4250
sat31 = 13823 37 5342 -750
sat31 = 11189 1856 2753 -3000
sat37 = 2702 2488 970 4000
sat37 = 2924 2552 683 3750
sat38 = 3553 3752 1144 -500
sat38 = 3655 3620 719 -750
sat39 = 2778 3063 1070 1750
sat39 = 2731 3784 794 5000
lsq: nits= 2
$GNGGA,092302.000,3112.6912,N,12136.4462,E,1,07,3.4,74.0,M,,,,0000*26
$GNRMC,092302.000,A,3112.6912,N,12136.4462,E,0.14,0.00,200519,,*13
$GPGSA,A,3,01,02,03,06,17,19,22,,,,,,3.8,3.4,1.6*31
$BDGSA,A,3,,,,,,,,,,,,,3.8,3.4,1.6*28
$GPGSV,2,1,07,02,00,000,41,03,00,000,44,06,00,000,46,17,00,000,39*71
$GPGSV,2,2,07,19,00,000,46,22,00,000,41,01,00,000,31*42
$BDGSV,1,1,01,22,00,000,42*5F
$LOGTIM,1,-103.129534,0.000000,0.000000,0.000000,-64.379*3E
EndT:        3
sat40 = 3059 3847 1007 -1500
sat40 = 3067 3911 758 -1250
sat41 = 4053 1950 1267 1750
sat41 = 4236 2107 573 1500
---00000040--- Acq_st=3 2019-5-20 09:23:2 
[00]  G02  f 41  -2210.2 2046002.8  1.0  1.0  5  0 120199918
[01]  G03  f 43   2441.5 2045996.8  1.0  1.0  5  0 120199924
[02]  G06  f 46  -1392.2 2046001.8  1.0  1.0  5  0 120199928
[03]  G17  f 40  -1172.4 2046001.5  1.0  1.0  5  0 120199930
[04]  G19  f 46  -1972.5 2046002.6  1.0  1.0  5  0 120199929
[05]  G22  f 41   2935.8 2045996.2  1.0  1.0  5  0 120199916
[06]  G01  f 31   2466.4 2045996.8  1.0  0.9  5  0 120199916
[16]  B22 1f 42    655.9 4091998.3  1.0  1.0  5  0 120185923
sat42 = 3594 3877 1020 2000
sat42 = 3501 3941 606 1750
sat43 = 2534 4080 922 5000
sat43 = 2396 1259 670 5000
sat44 = 4388 3693 1094 -2250
ch17 satid=44,max_freq = -2250,max_mean = 1094,max_phase = 3693,max_value = 4388,acq ok1!
sat45 = 2988 3275 1045 3500
sat45 = 3101 3335 694 3000
sat46 = 2775 2095 998 1250
lsq: nits= 2
$GNGGA,092303.000,3112.6919,N,12136.4460,E,1,07,3.4,73.8,M,,,,0000*21
$GNRMC,092303.000,A,3112.6919,N,12136.4460,E,0.10,0.00,200519,,*1F
$GPGSA,A,3,01,02,03,06,17,19,22,,,,,,3.8,3.4,1.6*31
$BDGSA,A,3,,,,,,,,,,,,,3.8,3.4,1.6*28
$GPGSV,2,1,07,02,15,265,41,03,31,045,43,06,47,287,46,17,66,014,40*75
$GPGSV,2,2,07,19,53,336,46,22,11,042,41,01,07,061,31*44
$BDGSV,1,1,01,22,44,065,42*5C
$LOGTIM,1,-166.831501,0.000000,0.000000,0.000000,-64.394*38
EndT:        3
sat46 = 2663 3509 603 -1250
sat47 = 2851 1472 1000 5000
sat47 = 2851 1472 921 5000
sat48 = 3241 2637 1135 500
---00000041--- Acq_st=3 2019-5-20 09:23:3 
[00]  G02  f 41  -2210.4 2046002.9  1.0  1.0  5  0 120200918
[01]  G03  f 44   244
