FlashID=0x1 0x20 0x18
BBram_blkflag1: 42b0: bd4f
FW Ver: 1.30  
GPS00 Init Dop:  -2790,  8
GPS01 Init Dop:   5000, 40
GPS02 Init Dop:   5000, 40
GPS03 Init Dop:   5000, 40
GPS04 Init Dop:   5000, 40
GPS05 Init Dop:   5000, 40
GPS06 Init Dop:   5000, 40
GPS07 Init Dop:   5000, 40
GPS08 Init Dop:   5000, 40
GPS09 Init Dop:   5000, 40
GPS10 Init Dop:  -2464,  8
GPS11 Init Dop:   5000, 40
GPS12 Init Dop:   5000, 40
GPS13 Init Dop:   5000, 40
GPS14 Init Dop:   5000, 40
GPS15 Init Dop:   5000, 40
GPS16 Init Dop:   5000, 40
GPS17 Init Dop:   5000, 40
GPS18 Init Dop:   2325,  8
GPS19 Init Dop:   5000, 40
GPS20 Init Dop:   5000, 40
GPS21 Init Dop:  -1552,  8
GPS22 Init Dop:   5000, 40
GPS23 Init Dop:   5000, 40
GPS24 Init Dop:   5000, 40
GPS25 Init Dop:   5000, 40
GPS26 Init Dop:   5000, 40
GPS27 Init Dop:    556,  8
GPS28 Init Dop:   5000, 40
GPS29 Init Dop:   5000, 40
GPS30 Init Dop:   5000, 40
GPS31 Init Dop:   5000, 40
BDS00 Init Dop:   5000, 40
BDS01 Init Dop:   5000, 40
BDS02 Init Dop:   5000, 40
BDS03 Init Dop:   5000, 40
BDS04 Init Dop:   5000, 40
BDS05 Init Dop:   5000, 40
BDS06 Init Dop:   5000, 40
BDS07 Init Dop:   -236,  4
BDS08 Init Dop:   5000, 40
BDS09 Init Dop:   -310,  4
BDS10 Init Dop:  -1183,  4
BDS11 Init Dop:   5000, 40
BDS12 Init Dop:     96,  4
BDS13 Init Dop:   5000, 40
BDS14 Init Dop:   5000, 40
BDS15 Init Dop:   5000, 40
BDS16 Init Dop:   5000, 40
BDS17 Init Dop:   5000, 40
BDS18 Init Dop:   5000, 40
BDS19 Init Dop:   5000, 40
BDS20 Init Dop:  -1627,  4
BDS21 Init Dop:   5000, 40
BDS22 Init Dop:   5000, 40
BDS23 Init Dop:   5000, 40
BDS24 Init Dop:   5000, 40
BDS25 Init Dop:   5000, 40
BDS26 Init Dop:   5000, 40
BDS27 Init Dop:   1391,  4
BDS28 Init Dop:   5000, 40
BDS29 Init Dop:   5000, 40
BDS30 Init Dop:   5000, 40
BDS31 Init Dop:   5000, 40
GPS acq_max:3619
GPS acq_max:7376
GPS acq_max:6517
GPS acq_max:3180
GPS acq_max:3532
GPS acq_max:3398
GPS acq_max:4870
GPS acq_max:3586
SatID=0
GPS acq_max:1179
GPS acq_max:1047
GPS acq_max:1078
GPS acq_max:1095
GPS acq_max:1044
GPS acq_max:1047
GPS acq_max:1028
GPS acq_max:1112
SatID=1
GPS acq_max:3213
GPS acq_max:2992
GPS acq_max:3260
GPS acq_max:3243
GPS acq_max:2836
GPS acq_max:3216
GPS acq_max:3190
GPS acq_max:2960
SatID=1
GPS acq_max:3653
GPS acq_max:4005
GPS acq_max:4070
GPS acq_max:3630
GPS acq_max:3721
GPS acq_max:3860
GPS acq_max:3616
GPS acq_max:3789
SatID=1
GPS acq_max:3903
GPS acq_max:3727
GPS acq_max:4086
GPS acq_max:3467
GPS acq_max:4217
GPS acq_max:3972
GPS acq_max:3721
GPS acq_max:3661
SatID=1
GPS acq_max:3949
GPS acq_max:4853
GPS acq_max:4324
GPS acq_max:3736
GPS acq_max:4366
GPS acq_max:4366
GPS acq_max:3720
GPS acq_max:3603
SatID=1
GPS acq_max:4351
GPS acq_max:3788
GPS acq_max:3707
GPS acq_max:3753
GPS acq_max:3822
GPS acq_max:3801
GPS acq_max:4375
GPS acq_max:4136
SatID=2
GPS acq_max:4015
GPS acq_max:3717
GPS acq_max:3819
GPS acq_max:3785
GPS acq_max:3606
GPS acq_max:3661
GPS acq_max:4208
GPS acq_max:4188
SatID=2
GPS acq_max:3764
GPS acq_max:3804
GPS acq_max:4553
GPS acq_max:4490
GPS acq_max:4002
GPS acq_max:3973
GPS acq_max:4014
GPS acq_max:4179
SatID=2
GPS acq_max:3584
GPS acq_max:3752
GPS acq_max:3679
GPS acq_max:3762
GPS acq_max:3875
GPS acq_max:3747
GPS acq_max:4085
GPS acq_max:3873
SatID=2
GPS acq_max:4012
GPS acq_max:3813
GPS acq_max:3747
GPS acq_max:4054
GPS acq_max:3546
GPS acq_max:4024
GPS acq_max:3989
GPS acq_max:3869
SatID=2
GPS acq_max:4044
GPS acq_max:3950
GPS acq_max:3787
GPS acq_max:3641
GPS acq_max:4262
GPS acq_max:4022
GPS acq_max:3717
GPS acq_max:3648
SatID=3
GPS acq_max:3867
GPS acq_max:3587
GPS acq_max:3859
GPS acq_max:3711
GPS acq_max:4031
GPS acq_max:3552
GPS acq_max:3775
GPS acq_max:3587
SatID=3
GPS acq_max:3678
GPS acq_max:3874
GPS acq_max:3662
GPS acq_max:3946
GPS acq_max:3534
GPS acq_max:3958
GPS acq_max:3944
GPS acq_max:4337
SatID=3
GPS acq_max:3830
GPS acq_max:3411
GPS acq_max:3641
GPS acq_max:3904
GPS acq_max:3902
GPS acq_max:3478
GPS acq_max:3672
GPS acq_max:3815
SatID=3
GPS acq_max:4844
GPS acq_max:4400
GPS acq_max:4565
GPS acq_max:3929
GPS acq_max:3941
GPS acq_max:4668
GPS acq_max:3608
GPS acq_max:3980
SatID=3
GPS acq_max:4568
GPS acq_max:4037
GPS acq_max:4145
GPS acq_max:3695
GPS acq_max:3781
GPS acq_max:3615
GPS acq_max:3912
GPS acq_max:4098
SatID=4
GPS acq_max:3981
GPS acq_max:4082
GPS acq_max:4074
GPS acq_max:3933
GPS acq_max:4313
GPS acq_max:3782
GPS acq_max:3625
GPS acq_max:4343
SatID=4
GPS acq_max:3615
GPS acq_max:3872
GPS acq_max:3803
GPS acq_max:3875
GPS acq_max:3760
GPS acq_max:4243
GPS acq_max:4186
GPS acq_max:3466
SatID=4
GPS acq_max:3782
GPS acq_max:3798
GPS acq_max:3954
GPS acq_max:3765
GPS acq_max:3937
GPS acq_max:3658
GPS acq_max:3929
GPS acq_max:4219
SatID=4
GPS acq_max:3783
GPS acq_max:4353
GPS acq_max:4030
GPS acq_max:3693
GPS acq_max:3526
GPS acq_max:3805
GPS acq_max:4143
GPS acq_max:4565
SatID=4
GPS acq_max:3928
GPS acq_max:4551
GPS acq_max:4225
GPS acq_max:4126
GPS acq_max:3458
GPS acq_max:3727
GPS acq_max:4110
GPS acq_max:3729
SatID=5
GPS acq_max:3765
GPS acq_max:4328
GPS acq_max:3705
GPS acq_max:3871
GPS acq_max:3937
GPS acq_max:3824
GPS acq_max:3628
GPS acq_max:3711
SatID=5
GPS acq_max:3716
GPS acq_max:4119
GPS acq_max:4505
GPS acq_max:3931
GPS acq_max:3951
GPS acq_max:3517
GPS acq_max:3553
GPS acq_max:3659
SatID=5
GPS acq_max:3722
GPS acq_max:3774
GPS acq_max:3495
GPS acq_max:3402
GPS acq_max:3520
GPS acq_max:3623
GPS acq_max:3815
GPS acq_max:3602
SatID=5
GPS acq_max:3680
GPS acq_max:3958
GPS acq_max:4039
GPS acq_max:4113
GPS acq_max:4043
GPS acq_max:3750
GPS acq_max:4336
GPS acq_max:3733
SatID=5
GPS acq_max:4119
GPS acq_max:3798
GPS acq_max:3857
GPS acq_max:3605
GPS acq_max:3909
GPS acq_max:3628
GPS acq_max:3894
GPS acq_max:3737
SatID=6
GPS acq_max:3465
GPS acq_max:3843
GPS acq_max:3878
GPS acq_max:3509
GPS acq_max:3584
GPS acq_max:4389
GPS acq_max:3783
GPS acq_max:3902
SatID=6
GPS acq_max:4009
GPS acq_max:4104
GPS acq_max:4306
GPS acq_max:3770
GPS acq_max:4068
GPS acq_max:3806
GPS acq_max:3556
GPS acq_max:3705
SatID=6
GPS acq_max:3771
GPS acq_max:3694
GPS acq_max:3827
GPS acq_max:3908
GPS acq_max:3822
GPS acq_max:3791
GPS acq_max:4035
GPS acq_max:4078
SatID=6
GPS acq_max:3892
GPS acq_max:4695
GPS acq_max:4042
GPS acq_max:4199
GPS acq_max:4291
GPS acq_max:4364
GPS acq_max:3869
GPS acq_max:3882
SatID=6
GPS acq_max:3742
GPS acq_max:3721
GPS acq_max:3653
GPS acq_max:3768
GPS acq_max:3661
GPS acq_max:4033
GPS acq_max:3656
GPS acq_max:3532
SatID=7
GPS acq_max:3651
GPS acq_max:3649
GPS acq_max:3467
GPS acq_max:3456
GPS acq_max:3464
GPS acq_max:3588
GPS acq_max:4053
GPS acq_max:4013
SatID=7
GPS acq_max:3746
GPS acq_max:4246
GPS acq_max:3803
GPS acq_max:3568
GPS acq_max:3520
GPS acq_max:3967
GPS acq_max:3873
GPS acq_max:4092
SatID=7
GPS acq_max:4155
GPS acq_max:4456
GPS acq_max:3721
GPS acq_max:3719
GPS acq_max:3572
GPS acq_max:3902
GPS acq_max:3920
GPS acq_max:3893
SatID=7
GPS acq_max:4064
GPS acq_max:3948
GPS acq_max:4184
GPS acq_max:4072
GPS acq_max:3982
GPS acq_max:4112
GPS acq_max:3772
GPS acq_max:3739
SatID=7
GPS acq_max:4161
GPS acq_max:4352
GPS acq_max:4152
GPS acq_max:4167
GPS acq_max:3882
GPS acq_max:3785
GPS acq_max:3870
GPS acq_max:4828
SatID=8
GPS acq_max:4221
GPS acq_max:3771
GPS acq_max:3953
GPS acq_max:3722
GPS acq_max:3823
GPS acq_max:4153
GPS acq_max:3824
GPS acq_max:3964
SatID=8
GPS acq_max:3949
GPS acq_max:3783
GPS acq_max:4127
GPS acq_max:3918
GPS acq_max:3776
GPS acq_max:4194
GPS acq_max:4049
GPS acq_max:3867
SatID=8
GPS acq_max:3675
GPS acq_max:3894
GPS acq_max:4142
GPS acq_max:4286
GPS acq_max:3754
GPS acq_max:3655
GPS acq_max:3615
GPS acq_max:3714
SatID=8
GPS acq_max:5169
GPS acq_max:3653
GPS acq_max:3733
GPS acq_max:3827
GPS acq_max:4040
GPS acq_max:4131
GPS acq_max:3741
GPS acq_max:3984
SatID=8
---00000001--- Acq_st=3 2019-5-25 07:42:5 
$GNGGA,000000.000,,,,,0,00,,,M,,,,0000*2B
$GNRMC,000000.000,A,,,,,,,000000,,*26
$GPGSA,A,1,,,,,,,,,,,,,,,*1E
$BDGSA,A,1,,,,,,,,,,,,,,,*0F
$LOGTIM,0,0.000000,0.000000,0.000000,0.000000,0.000*0A
EndT:        0
GPS acq_max:4088
GPS acq_max:3958
GPS acq_max:3918
GPS acq_max:4194
GPS acq_max:3749
GPS acq_max:4008
GPS acq_max:3753
GPS acq_max:3574
SatID=9
GPS acq_max:3710
GPS acq_max:3686
GPS acq_max:3844
GPS acq_max:3737
GPS acq_max:3910
GPS acq_max:3657
GPS acq_max:3710
GPS acq_max:3824
SatID=9
GPS acq_max:4299
GPS acq_max:4291
GPS acq_max:3686
GPS acq_max:3717
GPS acq_max:3968
GPS acq_max:3777
GPS acq_max:3580
GPS acq_max:3864
SatID=9
GPS acq_max:3977
GPS acq_max:3884
GPS acq_max:4546
GPS acq_max:3604
GPS acq_max:3452
GPS acq_max:3705
GPS acq_max:4144
GPS acq_max:4322
SatID=9
GPS acq_max:3697
GPS acq_max:3576
GPS acq_max:3698
GPS acq_max:3612
GPS acq_max:3542
GPS acq_max:3860
GPS acq_max:3687
GPS acq_max:3809
SatID=9
GPS acq_max:25132
GPS acq_max:37902
GPS acq_max:18184
GPS acq_max:8691
GPS acq_max:14544
GPS acq_max:18693
GPS acq_max:14913
GPS acq_max:16276
SatID=10
GPS acq_max:4177
GPS acq_max:4182
GPS acq_max:3762
GPS acq_max:3698
GPS acq_max:3710
GPS acq_max:4057
GPS acq_max:3714
GPS acq_max:3650
SatID=11
GPS acq_max:3929
GPS acq_max:3852
GPS acq_max:4077
GPS acq_max:3931
GPS acq_max:3831
GPS acq_max:4035
GPS acq_max:3836
GPS acq_max:3953
SatID=11
GPS acq_max:3473
GPS acq_max:3578
GPS acq_max:3807
GPS acq_max:3739
GPS acq_max:3716
GPS acq_max:4323
GPS acq_max:3714
GPS acq_max:4241
SatID=11
GPS acq_max:3927
GPS acq_max:4144
GPS acq_max:3744
GPS acq_max:4141
GPS acq_max:3703
GPS acq_max:3723
GPS acq_max:3715
GPS acq_max:3667
SatID=11
GPS acq_max:3748
GPS acq_max:3720
GPS acq_max:4113
GPS acq_max:4125
GPS acq_max:3793
GPS acq_max:4057
GPS acq_max:3587
GPS acq_max:4097
SatID=11
GPS acq_max:4027
GPS acq_max:3659
GPS acq_max:3548
GPS acq_max:3534
GPS acq_max:3365
GPS acq_max:3592
GPS acq_max:3905
GPS acq_max:3803
SatID=12
GPS acq_max:3674
GPS acq_max:3643
GPS acq_max:3773
GPS acq_max:3828
GPS acq_max:3964
GPS acq_max:3767
GPS acq_max:3571
GPS acq_max:3852
SatID=12
GPS acq_max:3950
GPS acq_max:3779
GPS acq_max:4097
GPS acq_max:4311
GPS acq_max:4165
GPS acq_max:3996
GPS acq_max:3822
GPS acq_max:3689
SatID=12
GPS acq_max:4237
GPS acq_max:4105
GPS acq_max:4378
GPS acq_max:3811
GPS acq_max:3724
GPS acq_max:4296
GPS acq_max:3696
GPS acq_max:3682
SatID=12
GPS acq_max:3619
GPS acq_max:3768
GPS acq_max:3977
GPS acq_max:4130
GPS acq_max:3875
GPS acq_max:3827
GPS acq_max:4127
GPS acq_max:4337
SatID=12
GPS acq_max:3837
GPS acq_max:4256
GPS acq_max:3617
GPS acq_max:3828
GPS acq_max:3848
GPS acq_max:3993
GPS acq_max:3846
GPS acq_max:3640
SatID=13
GPS acq_max:3616
GPS acq_max:3600
GPS acq_max:3665
GPS acq_max:3775
GPS acq_max:3943
GPS acq_max:3484
GPS acq_max:3518
GPS acq_max:3762
SatID=13
GPS acq_max:3692
GPS acq_max:3715
GPS acq_max:4205
GPS acq_max:4119
GPS acq_max:3601
GPS acq_max:4005
GPS acq_max:4014
GPS acq_max:4041
SatID=13
GPS acq_max:3935
GPS acq_max:3713
GPS acq_max:3979
GPS acq_max:3830
GPS acq_max:4022
GPS acq_max:3975
GPS acq_max:3722
GPS acq_max:3933
SatID=13
GPS acq_max:3734
GPS acq_max:4018
GPS acq_max:4543
GPS acq_max:3912
GPS acq_max:4169
GPS acq_max:4030
GPS acq_max:4078
GPS acq_max:3653
SatID=13
GPS acq_max:3874
GPS acq_max:4129
GPS acq_max:3857
GPS acq_max:3866
GPS acq_max:4058
GPS acq_max:3874
GPS acq_max:3821
GPS acq_max:3631
SatID=14
GPS acq_max:3947
GPS acq_max:4510
GPS acq_max:4155
GPS acq_max:3938
GPS acq_max:4136
GPS acq_max:3989
GPS acq_max:3638
GPS acq_max:3867
SatID=14
GPS acq_max:3840
GPS acq_max:4372
GPS acq_max:4182
GPS acq_max:3840
GPS acq_max:4089
GPS acq_max:4604
GPS acq_max:4192
GPS acq_max:3734
SatID=14
GPS acq_max:3580
GPS acq_max:3750
GPS acq_max:3711
GPS acq_max:3825
GPS acq_max:3688
GPS acq_max:4187
GPS acq_max:4064
GPS acq_max:4225
SatID=14
GPS acq_max:3821
GPS acq_max:4163
GPS acq_max:3785
GPS acq_max:4058
GPS acq_max:3941
GPS acq_max:3796
GPS acq_max:3888
GPS acq_max:3993
SatID=14
GPS acq_max:4110
GPS acq_max:4094
GPS acq_max:4223
GPS acq_max:4351
GPS acq_max:4400
GPS acq_max:3658
GPS acq_max:3926
GPS acq_max:3634
SatID=15
GPS acq_max:4046
GPS acq_max:3913
GPS acq_max:4157
GPS acq_max:3814
GPS acq_max:3883
GPS acq_max:3760
GPS acq_max:3666
GPS acq_max:4166
SatID=15
GPS acq_max:4202
GPS acq_max:4282
GPS acq_max:3946
GPS acq_max:3969
GPS acq_max:3888
GPS acq_max:3886
GPS acq_max:3916
GPS acq_max:4179
SatID=15
GPS acq_max:3763
GPS acq_max:3785
GPS acq_max:3863
GPS acq_max:3882
GPS acq_max:3596
GPS acq_max:4075
GPS acq_max:3673
GPS acq_max:3693
SatID=15
GPS acq_max:3933
GPS acq_max:3708
GPS acq_max:3727
GPS acq_max:3828
GPS acq_max:3856
GPS acq_max:3955
GPS acq_max:3949
GPS acq_max:3632
SatID=15
GPS acq_max:4280
GPS acq_max:4255
GPS acq_max:4450
GPS acq_max:4434
GPS acq_max:4722
GPS acq_max:4565
GPS acq_max:3728
GPS acq_max:3851
SatID=16
GPS acq_max:4559
GPS acq_max:4240
GPS acq_max:4361
GPS acq_max:5855
GPS acq_max:8596
GPS acq_max:10718
GPS acq_max:8104
GPS acq_max:4554
SatID=16
GPS acq_max:3853
GPS acq_max:3943
GPS acq_max:3746
GPS acq_max:4010
GPS acq_max:4167
GPS acq_max:4198
GPS acq_max:4048
GPS acq_max:3784
SatID=16
GPS acq_max:4062
GPS acq_max:3637
GPS acq_max:3576
GPS acq_max:3394
GPS acq_max:4034
GPS acq_max:3942
GPS acq_max:3760
GPS acq_max:3833
SatID=16
GPS acq_max:3832
GPS acq_max:3839
GPS acq_max:3865
GPS acq_max:4005
GPS acq_max:4023
GPS acq_max:4845
GPS acq_max:4276
GPS acq_max:3866
SatID=16
ch0 satid=16,max_freq = 1750,max_mean = 1960,max_phase = 592,max_value = 10718,acq ok1!
acq ok1 timeH = 0,timeL = 33358540,freq_stage = 2
GPS acq_max:3689
GPS acq_max:3906
GPS acq_max:3638
GPS acq_max:3999
GPS acq_max:3763
GPS acq_max:3646
GPS acq_max:3525
GPS acq_max:3661
SatID=17
GPS acq_max:3494
GPS acq_max:3768
GPS acq_max:3770
GPS acq_max:3611
GPS acq_max:3443
GPS acq_max:4108
GPS acq_max:3700
GPS acq_max:3794
SatID=17
GPS acq_max:3598
GPS acq_max:3676
GPS acq_max:3666
GPS acq_max:3769
GPS acq_max:3618
GPS acq_max:3597
GPS acq_max:3622
GPS acq_max:4007
SatID=17
GPS acq_max:3950
GPS acq_max:4263
GPS acq_max:4206
GPS acq_max:3962
GPS acq_max:4417
GPS acq_max:4244
GPS acq_max:4799
GPS acq_max:7738
SatID=17
GPS acq_max:12014
GPS acq_max:10467
GPS acq_max:7617
GPS acq_max:4060
GPS acq_max:3740
GPS acq_max:4075
GPS acq_max:3890
GPS acq_max:4051
SatID=17
ch1 satid=17,max_freq = -3000,max_mean = 1932,max_phase = 419,max_value = 12014,acq ok1!
acq ok1 timeH = 0,timeL = 36983784,freq_stage = 5
GPS acq_max:5944
GPS acq_max:9590
GPS acq_max:3687
GPS acq_max:3890
GPS acq_max:4404
GPS acq_max:3999
GPS acq_max:3981
GPS acq_max:4147
SatID=18
ch2 satid=18,max_freq = 2075,max_mean = 2001,max_phase = 1837,max_value = 9590,acq ok1!
acq ok1 timeH = 0,timeL = 37452586,freq_stage = 2
---00000002--- Acq_st=3 2019-5-25 07:42:6 
[00]  G17  1  7  -1760.4 2046003.2 -0.0  0.0  1  0         0
[01]  G18  1  7   4697.6 2045997.9  0.0  0.0  1  0         0
[02]  G19  1  7   5438.9 2046003.1  0.0  0.0  1  0         0
GPS acq_max:3925
GPS acq_max:4228
GPS acq_max:4508
GPS acq_max:4231
GPS acq_max:3929
GPS acq_max:3963
GPS acq_max:3849
GPS acq_max:3734
SatID=19
$GNGGA,000000.000,,,,,0,00,,,M,,,,0000*2B
$GNRMC,000000.000,A,,,,,,,000000,,*26
$GPGSA,A,1,,,,,,,,,,,,,,,*1E
$BDGSA,A,1,,,,,,,,,,,,,,,*0F
$LOGTIM,0,0.000000,0.000000,0.000000,0.000000,0.000*0A
EndT:        0
GPS acq_max:3645
GPS acq_max:3792
GPS acq_max:4541
GPS acq_max:4547
GPS acq_max:3639
GPS acq_max:3624
GPS acq_max:3714
GPS acq_max:4054
SatID=19
GPS acq_max:4597
GPS acq_max:4329
GPS acq_max:4210
GPS acq_max:4012
GPS acq_max:3842
GPS acq_max:3260
GPS acq_max:3464
GPS acq_max:3488
SatID=19
GPS acq_max:3731
GPS acq_max:3735
GPS acq_max:3622
GPS acq_max:4057
GPS acq_max:4119
GPS acq_max:3902
GPS acq_max:3737
GPS acq_max:4352
SatID=19
GPS acq_max:3647
GPS acq_max:3768
GPS acq_max:4301
GPS acq_max:4784
GPS acq_max:3793
GPS acq_max:3600
GPS acq_max:3698
GPS acq_max:3692
SatID=19
GPS acq_max:3762
GPS acq_max:4188
GPS acq_max:3836
GPS acq_max:4014
GPS acq_max:3925
GPS acq_max:4093
GPS acq_max:4082
GPS acq_max:3674
SatID=20
GPS acq_max:3556
GPS acq_max:3801
GPS acq_max:3690
GPS acq_max:3767
GPS acq_max:3505
GPS acq_max:3768
GPS acq_max:3786
GPS acq_max:3700
SatID=20
GPS acq_max:3855
GPS acq_max:4247
GPS acq_max:4297
GPS acq_max:3989
GPS acq_max:3593
GPS acq_max:3891
GPS acq_max:4181
GPS acq_max:3564
SatID=20
GPS acq_max:3808
GPS acq_max:3800
GPS acq_max:3794
GPS acq_max:4061
GPS acq_max:3725
GPS acq_max:3743
GPS acq_max:4058
GPS acq_max:3831
SatID=20
GPS acq_max:4422
GPS acq_max:3977
GPS acq_max:3761
GPS acq_max:3654
GPS acq_max:3798
GPS acq_max:4179
GPS acq_max:3628
GPS acq_max:3795
SatID=20
GPS acq_max:7080
GPS acq_max:6791
GPS acq_max:21915
GPS acq_max:29147
GPS acq_max:34076
GPS acq_max:19416
GPS acq_max:18135
GPS acq_max:20259
SatID=21
GPS acq_max:3650
GPS acq_max:4079
GPS acq_max:3834
GPS acq_max:3684
GPS acq_max:3782
GPS acq_max:3570
GPS acq_max:3770
GPS acq_max:3621
SatID=22
GPS acq_max:4102
GPS acq_max:4345
GPS acq_max:4048
GPS acq_max:4043
GPS acq_max:3769
GPS acq_max:4076
GPS acq_max:3487
GPS acq_max:4106
SatID=22
GPS acq_max:3985
GPS acq_max:3643
GPS acq_max:3647
GPS acq_max:3615
GPS acq_max:3553
GPS acq_max:4113
GPS acq_max:4757
GPS acq_max:4015
SatID=22
GPS acq_max:3811
GPS acq_max:3780
GPS acq_max:3794
GPS acq_max:4167
GPS acq_max:3903
GPS acq_max:3815
GPS acq_max:3795
GPS acq_max:3773
SatID=22
GPS acq_max:4244
GPS acq_max:4332
GPS acq_max:3759
GPS acq_max:4258
GPS acq_max:3959
GPS acq_max:3705
GPS acq_max:3634
GPS acq_max:3966
SatID=22
GPS acq_max:4468
GPS acq_max:4009
GPS acq_max:4119
GPS acq_max:4591
GPS acq_max:4250
GPS acq_max:4680
GPS acq_max:4048
GPS acq_max:3816
SatID=23
GPS acq_max:3927
GPS acq_max:4258
GPS acq_max:4589
GPS acq_max:4072
GPS acq_max:3938
GPS acq_max:4534
GPS acq_max:4462
GPS acq_max:4669
SatID=23
GPS acq_max:3665
GPS acq_max:3848
GPS acq_max:3654
GPS acq_max:3937
GPS acq_max:3747
GPS acq_max:4206
GPS acq_max:3598
GPS acq_max:3791
SatID=23
GPS acq_max:4063
GPS acq_max:3882
GPS acq_max:3509
GPS acq_max:3923
GPS acq_max:4076
GPS acq_max:3648
GPS acq_max:3652
GPS acq_max:4100
SatID=23
GPS acq_max:4335
GPS acq_max:3859
GPS acq_max:3797
GPS acq_max:4315
GPS acq_max:3878
GPS acq_max:4071
GPS acq_max:4224
GPS acq_max:4224
SatID=23
GPS acq_max:4369
GPS acq_max:3875
GPS acq_max:4339
GPS acq_max:3948
GPS acq_max:4516
GPS acq_max:3834
GPS acq_max:3888
GPS acq_max:3706
SatID=24
GPS acq_max:3451
GPS acq_max:3624
GPS acq_max:3749
GPS acq_max:3689
GPS acq_max:3790
GPS acq_max:3692
GPS acq_max:3813
GPS acq_max:3684
SatID=24
GPS acq_max:3808
GPS acq_max:3529
GPS acq_max:3716
GPS acq_max:4033
GPS acq_max:3880
GPS acq_max:3881
GPS acq_max:3676
GPS acq_max:3903
SatID=24
GPS acq_max:3578
GPS acq_max:3754
GPS acq_max:4088
GPS acq_max:3707
GPS acq_max:4380
GPS acq_max:3962
GPS acq_max:3717
GPS acq_max:3695
SatID=24
GPS acq_max:3591
GPS acq_max:4102
GPS acq_max:3835
GPS acq_max:3863
GPS acq_max:3697
GPS acq_max:4034
GPS acq_max:4758
GPS acq_max:3881
SatID=24
GPS acq_max:4167
GPS acq_max:4199
GPS acq_max:4092
GPS acq_max:3547
GPS acq_max:4539
GPS acq_max:4308
GPS acq_max:4371
GPS acq_max:4543
SatID=25
GPS acq_max:3782
GPS acq_max:3857
GPS acq_max:3997
GPS acq_max:4136
GPS acq_max:4457
GPS acq_max:3972
GPS acq_max:3916
GPS acq_max:4023
SatID=25
GPS acq_max:3805
GPS acq_max:3911
GPS acq_max:4312
GPS acq_max:4561
GPS acq_max:4742
GPS acq_max:3936
GPS acq_max:3669
GPS acq_max:3555
SatID=25
GPS acq_max:3892
GPS acq_max:3912
GPS acq_max:3865
GPS acq_max:3890
GPS acq_max:4393
GPS acq_max:4322
GPS acq_max:3835
GPS acq_max:3655
SatID=25
GPS acq_max:3879
GPS acq_max:3864
GPS acq_max:4043
GPS acq_max:4300
GPS acq_max:3863
GPS acq_max:4094
GPS acq_max:4098
GPS acq_max:3824
SatID=25
GPS acq_max:3750
GPS acq_max:3883
GPS acq_max:3943
GPS acq_max:3647
GPS acq_max:3784
GPS acq_max:3632
GPS acq_max:3855
GPS acq_max:3772
SatID=26
GPS acq_max:3581
GPS acq_max:3753
GPS acq_max:4047
GPS acq_max:3827
GPS acq_max:4395
GPS acq_max:4447
GPS acq_max:3969
GPS acq_max:3715
SatID=26
GPS acq_max:4621
GPS acq_max:4374
GPS acq_max:4540
GPS acq_max:4158
GPS acq_max:4168
GPS acq_max:4016
GPS acq_max:4026
GPS acq_max:3836
SatID=26
GPS acq_max:3838
GPS acq_max:4016
GPS acq_max:4205
GPS acq_max:3961
GPS acq_max:3602
GPS acq_max:3587
GPS acq_max:3924
GPS acq_max:3820
SatID=26
GPS acq_max:3986
GPS acq_max:3753
GPS acq_max:4097
GPS acq_max:4135
GPS acq_max:3936
GPS acq_max:3887
GPS acq_max:3975
GPS acq_max:3897
SatID=26
GPS acq_max:5970
GPS acq_max:10173
GPS acq_max:4141
GPS acq_max:4109
GPS acq_max:3804
GPS acq_max:3806
GPS acq_max:3992
GPS acq_max:3818
SatID=27
ch3 satid=27,max_freq = 306,max_mean = 1985,max_phase = 1892,max_value = 10173,acq ok1!
acq ok1 timeH = 0,timeL = 54303098,freq_stage = 3
GPS acq_max:4228
GPS acq_max:3837
GPS acq_max:4042
GPS acq_max:3684
GPS acq_max:3641
GPS acq_max:3862
GPS acq_max:3730
GPS acq_max:3707
SatID=28
GPS acq_max:4004
GPS acq_max:3983
GPS acq_max:4251
GPS acq_max:4964
GPS acq_max:4669
GPS acq_max:3628
GPS acq_max:3967
GPS acq_max:4099
SatID=28
GPS acq_max:3835
GPS acq_max:3579
GPS acq_max:3766
GPS acq_max:3762
GPS acq_max:4060
GPS acq_max:3800
GPS acq_max:3655
GPS acq_max:3662
SatID=28
GPS acq_max:3756
GPS acq_max:3839
GPS acq_max:3892
GPS acq_max:3723
GPS acq_max:3899
GPS acq_max:3920
GPS acq_max:4075
GPS acq_max:4102
SatID=28
GPS acq_max:4089
GPS acq_max:4653
GPS acq_max:4167
GPS acq_max:4378
GPS acq_max:3761
GPS acq_max:3994
GPS acq_max:3967
GPS acq_max:4178
SatID=28
GPS acq_max:4291
GPS acq_max:3872
GPS acq_max:4363
GPS acq_max:4090
GPS acq_max:3863
GPS acq_max:4128
GPS acq_max:3929
GPS acq_max:3681
SatID=29
---00000003--- Acq_st=3 2019-5-25 07:42:7 
[00]  G17  1 26  -1802.5 2046003.3 -0.1  0.0  1  0         7
[01]  G18  1 29   3026.1 2045996.8 -0.0  0.0  1  0         9
[02]  G19  1 20  -2567.7 2046004.0 -0.0  0.0  1  0         4
[03]  G28  1  7   -414.7 2046001.5 -0.1  0.0  1  0         0
$GNGGA,000000.000,,,,,0,00,,,M,,,,0000*2B
$GNRMC,000000.000,A,,,,,,,000000,,*26
$GPGSA,A,1,,,,,,,,,,,,,,,*1E
$BDGSA,A,1,,,,,,,,,,,,,,,*0F
$LOGTIM,0,0.000000,0.000000,0.000000,0.000000,0.000*0A
EndT:        0
GPS acq_max:3773
GPS acq_max:3703
GPS acq_max:4105
GPS acq_max:3871
GPS acq_max:3807
GPS acq_max:3960
GPS acq_max:3821
GPS acq_max:3749
SatID=29
GPS acq_max:3599
GPS acq_max:3609
GPS acq_max:3430
GPS acq_max:3601
GPS acq_max:4042
GPS acq_max:3943
GPS acq_max:3871
GPS acq_max:3661
SatID=29
GPS acq_max:4317
GPS acq_max:3988
GPS acq_max:3739
GPS acq_max:4008
GPS acq_max:4070
GPS acq_max:3900
GPS acq_max:3534
GPS acq_max:4034
SatID=29
GPS acq_max:3744
GPS acq_max:3970
GPS acq_max:3576
GPS acq_max:3671
GPS acq_max:4009
GPS acq_max:3877
GPS acq_max:4099
GPS acq_max:4380
SatID=29
GPS acq_max:3570
GPS acq_max:4400
GPS acq_max:3963
GPS acq_max:3978
GPS acq_max:3725
GPS acq_max:3971
GPS acq_max:4419
GPS acq_max:3498
SatID=30
GPS acq_max:3815
GPS acq_max:3631
GPS acq_max:3794
GPS acq_max:3845
GPS acq_max:3953
GPS acq_max:4165
GPS acq_max:3789
GPS acq_max:3998
SatID=30
GPS acq_max:4430
GPS acq_max:3748
GPS acq_max:3750
GPS acq_max:4198
GPS acq_max:4279
GPS acq_max:4152
GPS acq_max:3930
GPS acq_max:3863
SatID=30
GPS acq_max:4138
GPS acq_max:4275
GPS acq_max:3825
GPS acq_max:4012
GPS acq_max:3810
GPS acq_max:3660
GPS acq_max:3721
GPS acq_max:3898
SatID=30
GPS acq_max:3672
GPS acq_max:4099
GPS acq_max:4125
GPS acq_max:3812
GPS acq_max:3751
GPS acq_max:4361
GPS acq_max:3753
GPS acq_max:3582
SatID=30
GPS acq_max:4116
GPS acq_max:3940
GPS acq_max:3846
GPS acq_max:3729
GPS acq_max:3924
GPS acq_max:3596
GPS acq_max:3876
GPS acq_max:3983
SatID=31
GPS acq_max:3855
GPS acq_max:3706
GPS acq_max:3930
GPS acq_max:3918
GPS acq_max:3935
GPS acq_max:4045
GPS acq_max:3762
GPS acq_max:3689
SatID=31
GPS acq_max:3630
GPS acq_max:3797
GPS acq_max:3594
GPS acq_max:4056
GPS acq_max:3829
GPS acq_max:3913
GPS acq_max:4116
GPS acq_max:3867
SatID=31
GPS acq_max:3908
GPS acq_max:3666
GPS acq_max:3773
GPS acq_max:3821
GPS acq_max:3780
GPS acq_max:3882
GPS acq_max:3941
GPS acq_max:3742
SatID=31
GPS acq_max:3772
GPS acq_max:4039
GPS acq_max:4045
GPS acq_max:3952
GPS acq_max:3798
GPS acq_max:3968
GPS acq_max:3889
GPS acq_max:3754
SatID=31
---00000004--- Acq_st=3 2019-5-25 07:42:8 
[00]  G17  7 32  -1792.2 2046002.3  0.3  0.9  5  0         7
[01]  G18  7 30   3017.2 2045996.0  0.1  1.0  5  0         9
[02]  G19  7 31  -2565.7 2046003.4  0.1  0.9  5  0         4
[03]  G28  1 23   -793.7 2046001.7 -0.0  0.0  1  0         7
$GNGGA,000000.000,,,,,0,00,,,M,,,,0000*2B
$GNRMC,000000.000,A,,,,,,,000000,,*26
$GPGSA,A,1,,,,,,,,,,,,,,,*1E
$BDGSA,A,1,,,,,,,,,,,,,,,*0F
$GPGSV,1,1,03,17,00,000,32,18,00,000,30,19,00,000,31*4D
$LOGTIM,0,0.000000,0.000000,0.000000,0.000000,0.000*0A
EndT:        0
---00000005--- Acq_st=3 2019-5-25 07:42:9 
[00]  G17  7 34  -1794.5 2046002.3  1.0  0.9  5  0        16
[01]  G18  7 35   3015.6 2045996.0  1.0  1.0  5  0         9
[02]  G19  7 39  -2567.7 2046003.4  1.0  1.0  5  0        13
[03]  G28  7 34   -796.1 2046001.0  0.2  0.9  5  0         7
$GNGGA,000000.000,,,,,0,00,,,M,,,,0000*2B
$GNRMC,000000.000,A,,,,,,,000000,,*26
$GPGSA,A,1,,,,,,,,,,,,,,,*1E
$BDGSA,A,1,,,,,,,,,,,,,,,*0F
$GPGSV,1,1,04,17,00,000,34,18,00,000,35,19,00,000,39,28,00,000,34*7C
$LOGTIM,0,0.000000,0.000000,0.000000,0.000000,0.000*0A
EndT:        0
ch16 satid=47,max_freq = -1933,max_mean = 648,max_phase = 802,max_value = 3750,acq ok1!
acq ok1 timeH = 0,timeL = 105756134,freq_stage = 4
ch17 satid=49,max_freq = 96,max_mean = 825,max_phase = 1584,max_value = 8664,acq ok1!
acq ok1 timeH = 0,timeL = 111385758,freq_stage = 3
---00000006--- Acq_st=3 2019-5-25 07:42:10 
[00]  G17  7 35  -1792.5 2046002.2  1.0  1.0  5  0        16
[01]  G18  7 36   3017.0 2045996.0  1.0  1.0  5  0         9
[02]  G19  7 38  -2565.2 2046003.3  1.0  1.0  5  0        14
[03]  G28  7 40   -792.6 2046001.0  1.0  1.0  5  0         2
[16]  B11  1  7   1136.3 4091995.9 -0.1  0.0  1  0         0
[17]  B13  1  7   -176.8 4092001.5  0.0  0.0  1  0         0
$GNGGA,000000.000,,,,,0,00,,,M,,,,0000*2B
$GNRMC,000000.000,A,,,,,,,000000,,*26
$GPGSA,A,1,,,,,,,,,,,,,,,*1E
$BDGSA,A,1,,,,,,,,,,,,,,,*0F
$GPGSV,1,1,04,17,00,000,35,18,00,000,36,19,00,000,38,28,00,000,40*7C
$LOGTIM,0,0.000000,0.000000,0.000000,0.000000,0.000*0A
EndT:        0
---00000007--- Acq_st=3 2019-5-25 07:42:11 
[00]  G17  7 36  -1791.1 2046002.3  1.0  0.9  5  0        16
[01]  G18  7 36   3019.7 2045996.0  1.0  1.0  5  0         9
[02]  G19  7 39  -2563.8 2046003.4  1.0  1.0  5  0        14
[03]  G28  7 40   -791.5 2046001.0  1.0  1.0  5  0         2
[16]  B11  7 19    939.7 4091997.7  0.2  0.0 20  0       464
[17]  B13  1  7   -340.9 4092001.2 -0.0  0.0  1  0       170
$GNGGA,000000.000,,,,,0,00,,,M,,,,0000*2B
$GNRMC,000000.000,A,,,,,,,000000,,*26
$GPGSA,A,1,,,,,,,,,,,,,,,*1E
$BDGSA,A,1,,,,,,,,,,,,,,,*0F
$GPGSV,1,1,04,17,00,000,36,18,00,000,36,19,00,000,39,28,00,000,40*7E
$BDGSV,1,1,01,11,00,000,19*51
$LOGTIM,0,0.000000,0.000000,0.000000,0.000000,0.000*0A
EndT:        0
---00000008--- Acq_st=3 2019-5-25 07:42:12 
[00]  G17  7 34  -1798.9 2046002.4  1.0  1.0  5  0        16
[01]  G18  7 36   3011.2 2045996.0  1.0  1.0  5  0         9
[02]  G19  7 39  -2571.4 2046003.3  1.0  1.0  5  0        14
[03]  G28  7 40   -798.7 2046001.0  1.0  1.0  5  0         2
[16]  B11  7 40    931.7 4091997.7  0.5  1.0  5  0      1452
[17]  B13  7 35   -348.2 4092000.9  0.3  1.0  5  0      1170
$GNGGA,000000.000,,,,,0,00,,,M,,,,0000*2B
$GNRMC,000000.000,A,,,,,,,000000,,*26
$GPGSA,A,1,,,,,,,,,,,,,,,*1E
$BDGSA,A,1,,,,,,,,,,,,,,,*0F
$GPGSV,1,1,04,17,00,000,34,18,00,000,36,19,00,000,39,28,00,000,40*7C
$BDGSV,1,1,02,11,00,000,40,13,00,000,35*6A
$LOGTIM,0,0.000000,0.000000,0.000000,0.000000,0.000*0A
EndT:        0
---00000009--- Acq_st=3 2019-5-25 07:42:13 
[00]  G17  f 34  -1803.6 2046002.3  1.0  0.9  5  0        16
[01]  G18  7 36   3006.5 2045996.1  1.0  1.0  5  0         9
[02]  G19  f 39  -2575.6 2046003.3  1.0  1.0  5  0        14
[03]  G28  f 40   -802.0 2046001.0  1.0  1.0  5  0         2
[16]  B11  7 41    927.1 4091997.7  1.0  1.0  5  0      2452
[17]  B13  7 41   -352.9 4092000.9  1.0  1.0  5  0      2164
$GNGGA,000000.000,,,,,0,00,,,M,,,,0000*2B
$GNRMC,000000.000,A,,,,,,,000000,,*26
$GPGSA,A,1,,,,,,,,,,,,,,,*1E
$BDGSA,A,1,,,,,,,,,,,,,,,*0F
$GPGSV,1,1,04,17,00,000,34,18,00,000,36,19,00,000,39,28,00,000,40*7C
$BDGSV,1,1,02,11,00,000,41,13,00,000,41*68
$LOGTIM,0,0.000000,0.000000,0.000000,0.000000,0.000*0A
EndT:        0
ch18 satid=64,max_freq = 1391,max_mean = 827,max_phase = 1515,max_value = 6376,acq ok1!
acq ok1 timeH = 0,timeL = 178768642,freq_stage = 2
---00000010--- Acq_st=3 2019-5-25 07:42:14 
[00]  G17  f 35  -1801.0 2046002.4  1.0  0.9  5  0 546151216
[01]  G18  f 36   3009.4 2045996.1  1.0  1.0  5  0 546151209
[02]  G19  f 39  -2573.6 2046003.3  1.0  1.0  5  0 546151214
[03]  G28  f 40   -799.4 2046001.0  1.0  1.0  5  0 546151222
[16]  B11  7 41    929.8 4091997.6  1.0  1.0  5  0      3452
[17]  B13  7 40   -350.0 4092000.9  1.0  1.0  5  0      3164
[18]  B28  1  7  -1641.3 4092004.2 -0.0  0.0  1  0         0
$GNGGA,000000.000,,,,,0,00,,,M,,,,0000*2B
$GNRMC,000000.000,A,,,,,,,000000,,*26
$GPGSA,A,1,,,,,,,,,,,,,,,*1E
$BDGSA,A,1,,,,,,,,,,,,,,,*0F
$GPGSV,1,1,04,17,00,000,35,18,00,000,36,19,00,000,39,28,00,000,40*7D
$BDGSV,1,1,02,11,00,000,41,13,00,000,40*69
$LOGTIM,0,0.000000,0.000000,0.000000,0.000000,0.000*0A
EndT:        0
---00000011--- Acq_st=7 2019-5-25 07:42:15 
[00]  G17  f 35  -1800.5 2046002.4  1.0  1.0  5  0 546152216
[01]  G18  f 36   3008.2 2045996.0  1.0  1.0  5  0 546152209
[02]  G19  f 39  -2574.1 2046003.4  1.0  1.0  5  0 546152214
[03]  G28  f 40   -799.4 2046001.0  1.0  1.0  5  0 546152222
[16]  B11  7 41    929.2 4091997.6  1.0  1.0  5  0      4452
[17]  B13  7 41   -350.6 4092001.0  1.0  1.0  5  0      4164
[18]  B28  7 25  -1645.1 4092004.4  0.2  0.0 20  0       661
$GNGGA,000000.000,,,,,0,00,,,M,,,,0000*2B
$GNRMC,000000.000,A,,,,,,,000000,,*26
$GPGSA,A,1,,,,,,,,,,,,,,,*1E
$BDGSA,A,1,,,,,,,,,,,,,,,*0F
$GPGSV,1,1,04,17,00,000,35,18,00,000,36,19,00,000,39,28,00,000,40*7D
$BDGSV,1,1,03,11,00,000,41,13,00,000,41,28,00,000,25*54
$LOGTIM,0,0.000000,0.000000,0.000000,0.000000,0.000*0A
EndT:        0
---00000012--- Acq_st=7 2019-5-25 07:42:16 
[00]  G17  f 35  -1799.2 2046002.3  1.0  0.9  5  0 546153216
[01]  G18  f 35   3008.2 2045996.1  1.0  0.9  5  0 546153209
[02]  G19  f 39  -2573.5 2046003.3  1.0  1.0  5  0 546153214
[03]  G28  f 41   -798.2 2046001.0  1.0  1.0  5  0 546153222
[16]  B11 1f 41    929.5 4091997.6  1.0  1.0  5  0 546139212
[17]  B13 1f 41   -349.7 4092000.9  1.0  1.0  5  0      5164
[18]  B28  7 40  -1644.6 4092004.4  0.6  1.0  5  0      1652
$GNGGA,000000.000,,,,,0,00,,,M,,,,0000*2B
$GNRMC,000000.000,A,,,,,,,000000,,*26
$GPGSA,A,1,,,,,,,,,,,,,,,*1E
$BDGSA,A,1,,,,,,,,,,,,,,,*0F
$GPGSV,1,1,04,17,00,000,35,18,00,000,35,19,00,000,39,28,00,000,41*7F
$BDGSV,1,1,03,11,00,000,41,13,00,000,41,28,00,000,40*57
$LOGTIM,0,0.000000,0.000000,0.000000,0.000000,0.000*0A
EndT:        0
---00000013--- Acq_st=7 2019-5-25 07:42:17 
[00]  G17  f 32  -1797.0 2046002.4  1.0  1.0  5  0 546154216
[01]  G18  f 36   3011.6 2045996.1  1.0  1.0  5  0 546154209
[02]  G19  f 39  -2570.1 2046003.3  1.0  1.0  5  0 546154214
[03]  G28  f 40   -794.9 2046001.0  1.0  1.0  5  0 546154222
[16]  B11 1f 41    932.3 4091997.6  1.0  1.0  5  0 546140212
[17]  B13 1f 41   -347.4 4092000.9  1.0  1.0  5  0 546140164
[18]  B28  7 40  -1642.1 4092004.3  1.0  1.0  5  0      2652
$GNGGA,000000.000,,,,,0,00,,,M,,,,0000*2B
$GNRMC,000000.000,A,,,,,,,000000,,*26
$GPGSA,A,1,,,,,,,,,,,,,,,*1E
$BDGSA,A,1,,,,,,,,,,,,,,,*0F
$GPGSV,1,1,04,17,00,000,32,18,00,000,36,19,00,000,39,28,00,000,40*7A
$BDGSV,1,1,03,11,00,000,41,13,00,000,41,28,00,000,40*57
$LOGTIM,0,0.000000,0.000000,0.000000,0.000000,0.000*0A
EndT:        0
GPS acq_max:3957
GPS acq_max:3755
GPS acq_max:3790
GPS acq_max:3882
GPS acq_max:3580
GPS acq_max:3979
GPS acq_max:4483
GPS acq_max:4088
SatID=0
GPS acq_max:3777
GPS acq_max:3720
GPS acq_max:3548
GPS acq_max:3789
GPS acq_max:3493
GPS acq_max:3717
GPS acq_max:3694
GPS acq_max:3940
SatID=0
GPS acq_max:4412
GPS acq_max:3792
GPS acq_max:3516
GPS acq_max:4105
GPS acq_max:3733
GPS acq_max:3521
GPS acq_max:3769
GPS acq_max:4537
SatID=0
GPS acq_max:3790
GPS acq_max:3735
GPS acq_max:4208
GPS acq_max:3914
GPS acq_max:7434
GPS acq_max:16737
GPS acq_max:22654
GPS acq_max:22146
SatID=0
GPS acq_max:11059
GPS acq_max:4116
GPS acq_max:3996
GPS acq_max:4098
GPS acq_max:4117
GPS acq_max:4117
GPS acq_max:3732
GPS acq_max:3564
SatID=0
ch4 satid=0,max_freq = -2500,max_mean = 1952,max_phase = 1054,max_value = 22654,acq ok1!
acq ok1 timeH = 0,timeL = 250602661,freq_stage = 4
GPS acq_max:3578
GPS acq_max:3860
GPS acq_max:3741
GPS acq_max:3913
GPS acq_max:3898
GPS acq_max:3826
GPS acq_max:3910
GPS acq_max:3655
SatID=1
GPS acq_max:3979
GPS acq_max:3638
GPS acq_max:3739
GPS acq_max:3841
GPS acq_max:3590
GPS acq_max:3775
GPS acq_max:3780
GPS acq_max:3709
SatID=1
GPS acq_max:4074
GPS acq_max:3823
GPS acq_max:3923
GPS acq_max:3878
GPS acq_max:3984
GPS acq_max:3713
GPS acq_max:3810
GPS acq_max:3644
SatID=1
GPS acq_max:3628
GPS acq_max:3727
GPS acq_max:4245
GPS acq_max:3959
GPS acq_max:3834
GPS acq_max:4121
GPS acq_max:3844
GPS acq_max:3684
SatID=1
GPS acq_max:3664
GPS acq_max:4119
GPS acq_max:4244
GPS acq_max:3940
GPS acq_max:3759
GPS acq_max:3633
GPS acq_max:3680
GPS acq_max:3930
SatID=1
GPS acq_max:4084
GPS acq_max:4176
GPS acq_max:3996
GPS acq_max:3839
GPS acq_max:4272
GPS acq_max:3618
GPS acq_max:3758
GPS acq_max:3897
SatID=2
GPS acq_max:3870
GPS acq_max:3906
GPS acq_max:3743
GPS acq_max:3716
GPS acq_max:3793
GPS acq_max:3906
GPS acq_max:3831
GPS acq_max:4058
SatID=2
GPS acq_max:4484
GPS acq_max:4308
GPS acq_max:4328
GPS acq_max:4056
GPS acq_max:3665
GPS acq_max:4311
GPS acq_max:3961
GPS acq_max:3986
SatID=2
GPS acq_max:4055
GPS acq_max:4097
GPS acq_max:4190
GPS acq_max:4175
GPS acq_max:4160
GPS acq_max:3841
GPS acq_max:3983
GPS acq_max:3596
SatID=2
GPS acq_max:3927
GPS acq_max:4273
GPS acq_max:3886
GPS acq_max:3807
GPS acq_max:3904
GPS acq_max:4119
GPS acq_max:4429
GPS acq_max:3877
SatID=2
GPS acq_max:3773
GPS acq_max:4060
GPS acq_max:4513
GPS acq_max:4135
GPS acq_max:3809
GPS acq_max:4312
GPS acq_max:4306
GPS acq_max:3841
SatID=3
GPS acq_max:3857
GPS acq_max:3843
GPS acq_max:3893
GPS acq_max:3741
GPS acq_max:3700
GPS acq_max:3906
GPS acq_max:3845
GPS acq_max:4148
SatID=3
GPS acq_max:3733
GPS acq_max:4097
GPS acq_max:4221
GPS acq_max:3953
GPS acq_max:3689
GPS acq_max:3903
GPS acq_max:4334
GPS acq_max:3809
SatID=3
GPS acq_max:3989
GPS acq_max:3932
GPS acq_max:3863
GPS acq_max:3862
GPS acq_max:3920
GPS acq_max:4137
GPS acq_max:4045
GPS acq_max:4141
SatID=3
GPS acq_max:3677
GPS acq_max:4038
GPS acq_max:3862
GPS acq_max:4553
GPS acq_max:4670
GPS acq_max:4231
GPS acq_max:4022
GPS acq_max:4169
SatID=3
GPS acq_max:3935
GPS acq_max:4027
GPS acq_max:3878
GPS acq_max:3960
GPS acq_max:3833
GPS acq_max:3730
GPS acq_max:4022
GPS acq_max:4552
SatID=4
GPS acq_max:3735
GPS acq_max:3972
GPS acq_max:4021
GPS acq_max:4476
GPS acq_max:4384
GPS acq_max:3847
GPS acq_max:3971
GPS acq_max:4016
SatID=4
GPS acq_max:4225
GPS acq_max:3773
GPS acq_max:4145
GPS acq_max:4368
GPS acq_max:4453
GPS acq_max:4015
GPS acq_max:3968
GPS acq_max:4352
SatID=4
GPS acq_max:3971
GPS acq_max:4003
GPS acq_max:4392
GPS acq_max:4136
GPS acq_max:3914
GPS acq_max:3966
GPS acq_max:3839
GPS acq_max:3815
SatID=4
GPS acq_max:3798
GPS acq_max:4193
GPS acq_max:4205
GPS acq_max:4030
GPS acq_max:4062
GPS acq_max:3890
GPS acq_max:4391
GPS acq_max:4299
SatID=4
GPS acq_max:4235
GPS acq_max:3835
GPS acq_max:3813
GPS acq_max:4270
GPS acq_max:4066
GPS acq_max:3690
GPS acq_max:3843
GPS acq_max:4277
SatID=5
GPS acq_max:4091
GPS acq_max:4280
GPS acq_max:3784
GPS acq_max:4466
GPS acq_max:3770
GPS acq_max:3935
GPS acq_max:3822
GPS acq_max:3916
SatID=5
GPS acq_max:3931
GPS acq_max:4147
GPS acq_max:3870
GPS acq_max:3823
GPS acq_max:3896
GPS acq_max:4361
GPS acq_max:4209
GPS acq_max:3932
SatID=5
GPS acq_max:4194
GPS acq_max:3926
GPS acq_max:3931
GPS acq_max:3854
GPS acq_max:4488
GPS acq_max:4138
GPS acq_max:4065
GPS acq_max:4143
SatID=5
GPS acq_max:4098
GPS acq_max:3995
GPS acq_max:4317
GPS acq_max:3880
GPS acq_max:3772
GPS acq_max:4286
GPS acq_max:3884
GPS acq_max:3977
SatID=5
GPS acq_max:4024
GPS acq_max:4515
GPS acq_max:4783
GPS acq_max:4348
GPS acq_max:4388
GPS acq_max:4136
GPS acq_max:4374
GPS acq_max:3797
SatID=6
GPS acq_max:3904
GPS acq_max:3873
GPS acq_max:3920
GPS acq_max:4017
GPS acq_max:3896
GPS acq_max:4253
GPS acq_max:4201
GPS acq_max:4140
SatID=6
GPS acq_max:4020
GPS acq_max:3822
GPS acq_max:4348
GPS acq_max:4027
GPS acq_max:4242
GPS acq_max:4076
GPS acq_max:3826
GPS acq_max:3980
SatID=6
GPS acq_max:3759
GPS acq_max:3959
GPS acq_max:3622
GPS acq_max:3848
GPS acq_max:3919
GPS acq_max:3724
GPS acq_max:4031
GPS acq_max:4516
SatID=6
GPS acq_max:3600
GPS acq_max:4159
GPS acq_max:3904
GPS acq_max:3700
GPS acq_max:4328
GPS acq_max:4164
GPS acq_max:3875
GPS acq_max:4300
SatID=6
GPS acq_max:3918
GPS acq_max:3677
GPS acq_max:3579
GPS acq_max:3667
GPS acq_max:3601
GPS acq_max:3335
GPS acq_max:3651
GPS acq_max:3850
SatID=7
GPS acq_max:3743
GPS acq_max:3798
GPS acq_max:3965
GPS acq_max:3721
GPS acq_max:3936
GPS acq_max:4271
GPS acq_max:4116
GPS acq_max:3856
SatID=7
GPS acq_max:3776
GPS acq_max:4174
GPS acq_max:3811
GPS acq_max:3954
GPS acq_max:3862
GPS acq_max:3804
GPS acq_max:3409
GPS acq_max:3890
SatID=7
GPS acq_max:3763
GPS acq_max:4131
GPS acq_max:4044
GPS acq_max:3858
GPS acq_max:3811
GPS acq_max:3977
GPS acq_max:3947
GPS acq_max:3813
SatID=7
GPS acq_max:3918
GPS acq_max:3885
GPS acq_max:4358
GPS acq_max:3949
GPS acq_max:3678
GPS acq_max:4027
GPS acq_max:3788
GPS acq_max:3522
SatID=7
GPS acq_max:3725
GPS acq_max:3890
GPS acq_max:3934
GPS acq_max:3943
GPS acq_max:4195
GPS acq_max:4156
GPS acq_max:4287
GPS acq_max:3848
SatID=8
GPS acq_max:3783
GPS acq_max:3885
GPS acq_max:4022
GPS acq_max:4402
GPS acq_max:3906
GPS acq_max:4095
GPS acq_max:3682
GPS acq_max:3800
SatID=8
---00000014--- Acq_st=3 2019-5-25 07:42:18 
[00]  G17  f 33  -1793.2 2046002.4  1.0  0.9  5  0 546155216
[01]  G18  f 35   3014.5 2045996.1  1.0  1.0  5  0 546155209
[02]  G19  f 39  -2567.6 2046003.4  1.0  1.0  5  0 546155214
[03]  G28  f 40   -791.6 2046001.0  1.0  1.0  5  0 546155222
[04]  G01  1 25   2549.5 2045997.3 -0.2  0.0  1  0         0
[16]  B11 1f 41    936.3 4091997.5  1.0  1.0  5  0 546141212
[17]  B13 1f 41   -343.8 4092000.9  1.0  1.0  5  0 546141164
[18]  B28  7 40  -1638.6 4092004.4  1.0  1.0  5  0      3652
GPS acq_max:4369
GPS acq_max:3929
GPS acq_max:4039
GPS acq_max:4280
GPS acq_max:4075
GPS acq_max:3572
GPS acq_max:3709
GPS acq_max:3834
SatID=8
$GNGGA,000000.000,,,,,0,00,,,M,,,,0000*2B
$GNRMC,000000.000,A,,,,,,,000000,,*26
$GPGSA,A,1,,,,,,,,,,,,,,,*1E
$BDGSA,A,1,,,,,,,,,,,,,,,*0F
$GPGSV,1,1,04,17,00,000,33,18,00,000,35,19,00,000,39,28,00,000,40*78
$BDGSV,1,1,03,11,00,000,41,13,00,000,41,28,00,000,40*57
$LOGTIM,0,0.000000,0.000000,0.000000,0.000000,0.000*0A
EndT:        1
GPS acq_max:3690
GPS acq_max:4080
GPS acq_max:3764
GPS acq_max:3599
GPS acq_max:4092
GPS acq_max:3864
GPS acq_max:4092
GPS acq_max:3882
SatID=8
GPS acq_max:3697
GPS acq_max:4351
GPS acq_max:3864
GPS acq_max:4074
GPS acq_max:4567
GPS acq_max:4337
GPS acq_max:4014
GPS acq_max:3649
SatID=8
GPS acq_max:3786
GPS acq_max:3793
GPS acq_max:4020
GPS acq_max:3666
GPS acq_max:3658
GPS acq_max:3556
GPS acq_max:3621
GPS acq_max:3866
SatID=9
GPS acq_max:3939
GPS acq_max:3936
GPS acq_max:3739
GPS acq_max:3855
GPS acq_max:4072
GPS acq_max:3740
GPS acq_max:3800
GPS acq_max:3681
SatID=9
GPS acq_max:4076
GPS acq_max:4509
GPS acq_max:4380
GPS acq_max:3913
GPS acq_max:3725
GPS acq_max:4160
GPS acq_max:3821
GPS acq_max:4184
SatID=9
GPS acq_max:4185
GPS acq_max:3831
GPS acq_max:4206
GPS acq_max:3914
GPS acq_max:4059
GPS acq_max:3731
GPS acq_max:4487
GPS acq_max:4264
SatID=9
GPS acq_max:3956
GPS acq_max:3950
GPS acq_max:4067
GPS acq_max:4313
GPS acq_max:3663
GPS acq_max:3925
GPS acq_max:4045
GPS acq_max:3869
SatID=9
GPS acq_max:3896
GPS acq_max:4395
GPS acq_max:4024
GPS acq_max:4006
GPS acq_max:4169
GPS acq_max:3878
GPS acq_max:4257
GPS acq_max:3823
SatID=10
GPS acq_max:4382
GPS acq_max:3827
GPS acq_max:3811
GPS acq_max:3983
GPS acq_max:4150
GPS acq_max:3818
GPS acq_max:4232
GPS acq_max:3935
SatID=10
GPS acq_max:3963
GPS acq_max:4190
GPS acq_max:4000
GPS acq_max:3961
GPS acq_max:3762
GPS acq_max:4721
GPS acq_max:4534
GPS acq_max:5012
SatID=10
GPS acq_max:4278
GPS acq_max:4109
GPS acq_max:7630
GPS acq_max:22322
GPS acq_max:40347
GPS acq_max:44471
GPS acq_max:32589
GPS acq_max:15008
SatID=10
GPS acq_max:4425
GPS acq_max:4068
GPS acq_max:3916
GPS acq_max:4050
GPS acq_max:3992
GPS acq_max:4133
GPS acq_max:4403
GPS acq_max:3642
SatID=10
ch5 satid=10,max_freq = -2250,max_mean = 1972,max_phase = 570,max_value = 44471,acq ok1!
acq ok1 timeH = 0,timeL = 273332170,freq_stage = 4
GPS acq_max:3794
GPS acq_max:4431
GPS acq_max:3857
GPS acq_max:4120
GPS acq_max:3877
GPS acq_max:4212
GPS acq_max:4752
GPS acq_max:3735
SatID=11
GPS acq_max:3807
GPS acq_max:3903
GPS acq_max:4080
GPS acq_max:3806
GPS acq_max:3828
GPS acq_max:3726
GPS acq_max:3795
GPS acq_max:4066
SatID=11
GPS acq_max:3695
GPS acq_max:4231
GPS acq_max:3847
GPS acq_max:3920
GPS acq_max:3947
GPS acq_max:3654
GPS acq_max:3936
GPS acq_max:4277
SatID=11
GPS acq_max:4233
GPS acq_max:4012
GPS acq_max:4181
GPS acq_max:3600
GPS acq_max:3776
GPS acq_max:3868
GPS acq_max:4364
GPS acq_max:3845
SatID=11
GPS acq_max:4067
GPS acq_max:3788
GPS acq_max:4241
GPS acq_max:4175
GPS acq_max:3868
GPS acq_max:3860
GPS acq_max:3946
GPS acq_max:3952
SatID=11
GPS acq_max:4063
GPS acq_max:3682
GPS acq_max:4066
GPS acq_max:3973
GPS acq_max:3757
GPS acq_max:3868
GPS acq_max:4017
GPS acq_max:3713
SatID=12
GPS acq_max:4016
GPS acq_max:3984
GPS acq_max:4308
GPS acq_max:4217
GPS acq_max:4275
GPS acq_max:4331
GPS acq_max:3770
GPS acq_max:4173
SatID=12
GPS acq_max:3847
GPS acq_max:3448
GPS acq_max:4098
GPS acq_max:3901
GPS acq_max:3748
GPS acq_max:4054
GPS acq_max:3971
GPS acq_max:3949
SatID=12
GPS acq_max:3895
GPS acq_max:4092
GPS acq_max:3608
GPS acq_max:3880
GPS acq_max:4097
GPS acq_max:3800
GPS acq_max:3780
GPS acq_max:3744
SatID=12
GPS acq_max:4233
GPS acq_max:4640
GPS acq_max:4339
GPS acq_max:5078
GPS acq_max:4268
GPS acq_max:3692
GPS acq_max:3977
GPS acq_max:3919
SatID=12
GPS acq_max:4110
GPS acq_max:3855
GPS acq_max:3955
GPS acq_max:3754
GPS acq_max:3761
GPS acq_max:3947
GPS acq_max:3744
GPS acq_max:3820
SatID=13
GPS acq_max:4112
GPS acq_max:4097
GPS acq_max:4193
GPS acq_max:3786
GPS acq_max:4122
GPS acq_max:3924
GPS acq_max:4205
GPS acq_max:3756
SatID=13
GPS acq_max:3772
GPS acq_max:3869
GPS acq_max:3682
GPS acq_max:3515
GPS acq_max:3939
GPS acq_max:3907
GPS acq_max:3942
GPS acq_max:3936
SatID=13
GPS acq_max:3913
GPS acq_max:3929
GPS acq_max:3884
GPS acq_max:3853
GPS acq_max:4242
GPS acq_max:3732
GPS acq_max:4257
GPS acq_max:3963
SatID=13
GPS acq_max:4056
GPS acq_max:4310
GPS acq_max:3758
GPS acq_max:3740
GPS acq_max:4155
GPS acq_max:4010
GPS acq_max:3530
GPS acq_max:3987
SatID=13
GPS acq_max:4098
GPS acq_max:3884
GPS acq_max:4383
GPS acq_max:3821
GPS acq_max:4312
GPS acq_max:4194
GPS acq_max:4070
GPS acq_max:3725
SatID=14
GPS acq_max:3914
GPS acq_max:4025
GPS acq_max:4090
GPS acq_max:3928
GPS acq_max:3945
GPS acq_max:3822
GPS acq_max:3945
GPS acq_max:4548
SatID=14
GPS acq_max:3812
GPS acq_max:4319
GPS acq_max:4064
GPS acq_max:3997
GPS acq_max:4143
GPS acq_max:4242
GPS acq_max:3826
GPS acq_max:3961
SatID=14
GPS acq_max:3811
GPS acq_max:3657
GPS acq_max:4090
GPS acq_max:3553
GPS acq_max:3785
GPS acq_max:4290
GPS acq_max:3840
GPS acq_max:3817
SatID=14
GPS acq_max:4431
GPS acq_max:3982
GPS acq_max:3593
GPS acq_max:4712
GPS acq_max:4916
GPS acq_max:4215
GPS acq_max:4321
GPS acq_max:4472
SatID=14
GPS acq_max:3939
GPS acq_max:3773
GPS acq_max:4266
GPS acq_max:4372
GPS acq_max:4173
GPS acq_max:3886
GPS acq_max:3640
GPS acq_max:3848
SatID=15
GPS acq_max:4580
GPS acq_max:4095
GPS acq_max:4506
GPS acq_max:4065
GPS acq_max:3984
GPS acq_max:5116
GPS acq_max:3940
GPS acq_max:3989
SatID=15
GPS acq_max:4197
GPS acq_max:3639
GPS acq_max:3764
GPS acq_max:3622
GPS acq_max:3644
GPS acq_max:4132
GPS acq_max:4337
GPS acq_max:3677
SatID=15
GPS acq_max:3888
GPS acq_max:3814
GPS acq_max:4430
GPS acq_max:3953
GPS acq_max:3990
GPS acq_max:3924
GPS acq_max:3780
GPS acq_max:3665
SatID=15
GPS acq_max:3638
GPS acq_max:3618
GPS acq_max:3733
GPS acq_max:3751
GPS acq_max:3878
GPS acq_max:3966
GPS acq_max:4394
GPS acq_max:4381
SatID=15
GPS acq_max:4258
GPS acq_max:4151
GPS acq_max:4118
GPS acq_max:4232
GPS acq_max:3778
GPS acq_max:4333
GPS acq_max:4166
GPS acq_max:3854
SatID=19
GPS acq_max:3958
GPS acq_max:4500
GPS acq_max:3673
GPS acq_max:4022
GPS acq_max:3898
GPS acq_max:3793
GPS acq_max:4045
GPS acq_max:3960
SatID=19
GPS acq_max:4157
GPS acq_max:4005
GPS acq_max:4497
GPS acq_max:4069
GPS acq_max:4013
GPS acq_max:3724
GPS acq_max:3745
GPS acq_max:3957
SatID=19
GPS acq_max:3744
GPS acq_max:4085
GPS acq_max:3467
GPS acq_max:3660
GPS acq_max:3762
GPS acq_max:3942
GPS acq_max:4160
GPS acq_max:4454
SatID=19
---00000015--- Acq_st=3 2019-5-25 07:42:19 
[00]  G17  f 33  -1797.5 2046002.5  1.0  1.0  5  0 546156216
[01]  G18  f 36   3013.2 2045996.1  1.0  1.0  5  0 546156209
[02]  G19  f 39  -2569.3 2046003.3  1.0  1.0  5  0 546156214
[03]  G28  f 40   -792.3 2046001.0  1.0  1.0  5  0 546156222
[04]  G01  7 29   2546.5 2045996.6  0.0  1.0  5  0        19
[05]  G11  1 30   2215.2 2045997.5  0.0  0.0  1  0         0
[16]  B11 1f 41    934.2 4091997.6  1.0  1.0  5  0 546142212
[17]  B13 1f 41   -346.2 4092000.9  1.0  1.0  5  0 546142164
[18]  B28  7 40  -1640.6 4092004.3  1.0  1.0  5  0      4652
GPS acq_max:3869
GPS acq_max:4523
GPS acq_max:4053
GPS acq_max:3815
GPS acq_max:4297
GPS acq_max:3665
GPS acq_max:3850
GPS acq_max:3896
SatID=19
$GNGGA,000000.000,,,,,0,00,,,M,,,,0000*2B
$GNRMC,000000.000,A,,,,,,,000000,,*26
$GPGSA,A,1,,,,,,,,,,,,,,,*1E
$BDGSA,A,1,,,,,,,,,,,,,,,*0F
$GPGSV,2,1,05,17,00,000,33,18,00,000,36,19,00,000,39,28,00,000,40*79
$GPGSV,2,2,05,01,00,000,29*46
$BDGSV,1,1,03,11,00,000,41,13,00,000,41,28,00,000,40*57
$LOGTIM,0,0.000000,0.000000,0.000000,0.000000,0.000*0A
EndT:        1
GPS acq_max:3841
GPS acq_max:4056
GPS acq_max:3763
GPS acq_max:3998
GPS acq_max:3710
GPS acq_max:3947
GPS acq_max:3808
GPS acq_max:3830
SatID=20
GPS acq_max:4379
GPS acq_max:3701
GPS acq_max:3895
GPS acq_max:4009
GPS acq_max:3884
GPS acq_max:3855
GPS acq_max:3908
GPS acq_max:4581
SatID=20
GPS acq_max:4358
GPS acq_max:4129
GPS acq_max:4014
GPS acq_max:3872
GPS acq_max:4070
GPS acq_max:4185
GPS acq_max:3942
GPS acq_max:4015
SatID=20
GPS acq_max:3778
GPS acq_max:3637
GPS acq_max:4214
GPS acq_max:4481
GPS acq_max:4168
GPS acq_max:4120
GPS acq_max:4259
GPS acq_max:4213
SatID=20
GPS acq_max:4005
GPS acq_max:4041
GPS acq_max:3923
GPS acq_max:3558
GPS acq_max:3538
GPS acq_max:3738
GPS acq_max:3933
GPS acq_max:3726
SatID=20
GPS acq_max:4203
GPS acq_max:4026
GPS acq_max:3893
GPS acq_max:4113
GPS acq_max:4681
GPS acq_max:3917
GPS acq_max:3806
GPS acq_max:3836
SatID=21
GPS acq_max:4035
GPS acq_max:3836
GPS acq_max:3704
GPS acq_max:3666
GPS acq_max:4317
GPS acq_max:3765
GPS acq_max:4237
GPS acq_max:4320
SatID=21
GPS acq_max:4234
GPS acq_max:3868
GPS acq_max:4174
GPS acq_max:4101
GPS acq_max:3839
GPS acq_max:4015
GPS acq_max:3891
GPS acq_max:5741
SatID=21
GPS acq_max:15553
GPS acq_max:19071
GPS acq_max:15784
GPS acq_max:8467
GPS acq_max:3788
GPS acq_max:4244
GPS acq_max:3726
GPS acq_max:3915
SatID=21
GPS acq_max:3933
GPS acq_max:3687
GPS acq_max:3672
GPS acq_max:3840
GPS acq_max:3778
GPS acq_max:4035
GPS acq_max:3793
GPS acq_max:3784
SatID=21
ch6 satid=21,max_freq = -1250,max_mean = 1976,max_phase = 329,max_value = 19071,acq ok1!
acq ok1 timeH = 0,timeL = 291515725,freq_stage = 4
GPS acq_max:3964
GPS acq_max:4457
GPS acq_max:3863
GPS acq_max:4040
GPS acq_max:3695
GPS acq_max:3667
GPS acq_max:3802
GPS acq_max:4052
SatID=22
GPS acq_max:3494
GPS acq_max:3855
GPS acq_max:4408
GPS acq_max:3839
GPS acq_max:4048
GPS acq_max:3738
GPS acq_max:4090
GPS acq_max:3756
SatID=22
GPS acq_max:4101
GPS acq_max:3815
GPS acq_max:3760
GPS acq_max:4147
GPS acq_max:4051
GPS acq_max:3704
GPS acq_max:3685
GPS acq_max:3609
SatID=22
GPS acq_max:3573
GPS acq_max:3901
GPS acq_max:3938
GPS acq_max:4075
GPS acq_max:4272
GPS acq_max:4024
GPS acq_max:4172
GPS acq_max:4003
SatID=22
GPS acq_max:4110
GPS acq_max:3959
GPS acq_max:4097
GPS acq_max:3818
GPS acq_max:4014
GPS acq_max:3856
GPS acq_max:4063
GPS acq_max:3790
SatID=22
GPS acq_max:4068
GPS acq_max:3866
GPS acq_max:3653
GPS acq_max:4079
GPS acq_max:3869
GPS acq_max:3680
GPS acq_max:3945
GPS acq_max:4139
SatID=23
GPS acq_max:3635
GPS acq_max:3707
GPS acq_max:4279
GPS acq_max:4433
GPS acq_max:4283
GPS acq_max:4219
GPS acq_max:3973
GPS acq_max:3630
SatID=23
GPS acq_max:4380
GPS acq_max:4034
GPS acq_max:3968
GPS acq_max:3949
GPS acq_max:4076
GPS acq_max:4184
GPS acq_max:4302
GPS acq_max:3838
SatID=23
GPS acq_max:4085
GPS acq_max:4089
GPS acq_max:4709
GPS acq_max:3895
GPS acq_max:3790
GPS acq_max:4126
GPS acq_max:3917
GPS acq_max:4052
SatID=23
GPS acq_max:3600
GPS acq_max:3712
GPS acq_max:3492
GPS acq_max:3582
GPS acq_max:3853
GPS acq_max:3809
GPS acq_max:3927
GPS acq_max:3771
SatID=23
GPS acq_max:4494
GPS acq_max:3772
GPS acq_max:4086
GPS acq_max:3746
GPS acq_max:3861
GPS acq_max:3723
GPS acq_max:3930
GPS acq_max:3846
SatID=24
GPS acq_max:3711
GPS acq_max:3908
GPS acq_max:3845
GPS acq_max:3652
GPS acq_max:3978
GPS acq_max:4025
GPS acq_max:3887
GPS acq_max:3870
SatID=24
GPS acq_max:3833
GPS acq_max:3697
GPS acq_max:3731
GPS acq_max:3683
GPS acq_max:3750
GPS acq_max:3908
GPS acq_max:3456
GPS acq_max:4203
SatID=24
GPS acq_max:3791
GPS acq_max:4175
GPS acq_max:4230
GPS acq_max:3587
GPS acq_max:3769
GPS acq_max:3767
GPS acq_max:4060
GPS acq_max:3869
SatID=24
GPS acq_max:3872
GPS acq_max:3594
GPS acq_max:4028
GPS acq_max:4277
GPS acq_max:3670
GPS acq_max:3805
GPS acq_max:3890
GPS acq_max:4063
SatID=24
GPS acq_max:3738
GPS acq_max:3881
GPS acq_max:3863
GPS acq_max:3914
GPS acq_max:3808
GPS acq_max:3747
GPS acq_max:3890
GPS acq_max:4143
SatID=25
GPS acq_max:4050
GPS acq_max:3957
GPS acq_max:3818
GPS acq_max:3727
GPS acq_max:3883
GPS acq_max:3796
GPS acq_max:4083
GPS acq_max:3865
SatID=25
GPS acq_max:3821
GPS acq_max:4001
GPS acq_max:3758
GPS acq_max:3893
GPS acq_max:3708
GPS acq_max:3800
GPS acq_max:3779
GPS acq_max:3746
SatID=25
GPS acq_max:4188
GPS acq_max:4366
GPS acq_max:3923
GPS acq_max:4136
GPS acq_max:3739
GPS acq_max:4268
GPS acq_max:4846
GPS acq_max:3834
SatID=25
GPS acq_max:3694
GPS acq_max:4034
GPS acq_max:4098
GPS acq_max:4055
GPS acq_max:3633
GPS acq_max:3863
GPS acq_max:4020
GPS acq_max:3821
SatID=25
GPS acq_max:3889
GPS acq_max:3846
GPS acq_max:4220
GPS acq_max:3796
GPS acq_max:3630
GPS acq_max:4052
GPS acq_max:4010
GPS acq_max:4210
SatID=26
GPS acq_max:4008
GPS acq_max:3980
GPS acq_max:3984
GPS acq_max:3789
GPS acq_max:3529
GPS acq_max:3976
GPS acq_max:3814
GPS acq_max:3814
SatID=26
GPS acq_max:4207
GPS acq_max:4057
GPS acq_max:3952
GPS acq_max:3773
GPS acq_max:3837
GPS acq_max:3896
GPS acq_max:4019
GPS acq_max:3516
SatID=26
GPS acq_max:3858
GPS acq_max:3542
GPS acq_max:3827
GPS acq_max:3555
GPS acq_max:3865
GPS acq_max:3951
GPS acq_max:4219
GPS acq_max:4061
SatID=26
GPS acq_max:3656
GPS acq_max:4217
GPS acq_max:4034
GPS acq_max:3784
GPS acq_max:3468
GPS acq_max:3765
GPS acq_max:3546
GPS acq_max:4038
SatID=26
GPS acq_max:3887
GPS acq_max:4209
GPS acq_max:3819
GPS acq_max:4138
GPS acq_max:3971
GPS acq_max:3554
GPS acq_max:4213
GPS acq_max:3863
SatID=28
GPS acq_max:3846
GPS acq_max:4039
GPS acq_max:4224
GPS acq_max:3720
GPS acq_max:4089
GPS acq_max:4034
GPS acq_max:3727
GPS acq_max:3739
SatID=28
GPS acq_max:4299
GPS acq_max:3975
GPS acq_max:3910
GPS acq_max:4257
GPS acq_max:4084
GPS acq_max:4045
GPS acq_max:3747
GPS acq_max:4101
SatID=28
GPS acq_max:4267
GPS acq_max:3769
GPS acq_max:3859
GPS acq_max:4275
GPS acq_max:3752
GPS acq_max:3816
GPS acq_max:3909
GPS acq_max:3693
SatID=28
GPS acq_max:3788
GPS acq_max:3776
GPS acq_max:3875
GPS acq_max:3991
GPS acq_max:3865
GPS acq_max:3708
GPS acq_max:4017
GPS acq_max:3746
SatID=28
GPS acq_max:3819
GPS acq_max:3691
GPS acq_max:4024
GPS acq_max:4644
GPS acq_max:3675
GPS acq_max:3750
GPS acq_max:3765
GPS acq_max:3656
SatID=29
---00000016--- Acq_st=3 2019-5-25 07:42:20 
[00]  G17  f 32  -1800.8 2046002.3  0.9  0.9  5  0 546157216
[01]  G18  f 36   3007.8 2045996.1  1.0  0.9  5  0 546157209
[02]  G19  f 39  -2573.8 2046003.4  1.0  1.0  5  0 546157214
[03]  G28  f 41   -796.7 2046001.0  1.0  1.0  5  0 546157222
[04]  G01  7 38   2542.8 2045996.6  0.9  1.0  5  0        15
[05]  G11  7 27   2216.6 2045997.1  0.3  0.0 20  0        15
[06]  G22  1 24   1319.9 2045998.5 -0.0  0.0  1  0         0
[16]  B11 1f 41    929.2 4091997.6  1.0  1.0  5  0 546143212
[17]  B13 1f 41   -350.5 4092000.9  1.0  0.9  5  0 546143164
[18]  B28  7 40  -1645.3 4092004.3  1.0  1.0  5  0      5652
GPS acq_max:3950
GPS acq_max:4194
GPS acq_max:3793
GPS acq_max:3946
GPS acq_max:4514
GPS acq_max:3913
GPS acq_max:3588
GPS acq_max:3830
SatID=29
$GNGGA,000000.000,,,,,0,00,,,M,,,,0000*2B
$GNRMC,000000.000,A,,,,,,,000000,,*26
$GPGSA,A,1,,,,,,,,,,,,,,,*1E
$BDGSA,A,1,,,,,,,,,,,,,,,*0F
$GPGSV,2,1,06,17,00,000,32,18,00,000,36,19,00,000,39,28,00,000,41*7A
$GPGSV,2,2,06,01,00,000,38,11,00,000,27*70
$BDGSV,1,1,03,11,00,000,41,13,00,000,41,28,00,000,40*57
$LOGTIM,0,0.000000,0.000000,0.000000,0.000000,0.000*0A
EndT:        0
GPS acq_max:4090
GPS acq_max:3930
GPS acq_max:3417
GPS acq_max:3872
GPS acq_max:3791
GPS acq_max:3833
GPS acq_max:3641
GPS acq_max:3381
SatID=29
GPS acq_max:3891
GPS acq_max:4210
GPS acq_max:4029
GPS acq_max:3929
GPS acq_max:3701
GPS acq_max:3996
GPS acq_max:3791
GPS acq_max:3742
SatID=29
GPS acq_max:4049
GPS acq_max:3763
GPS acq_max:3794
GPS acq_max:3709
GPS acq_max:3930
GPS acq_max:3646
GPS acq_max:4068
GPS acq_max:3670
SatID=29
GPS acq_max:3794
GPS acq_max:3914
GPS acq_max:3788
GPS acq_max:3930
GPS acq_max:3609
GPS acq_max:4556
GPS acq_max:3973
GPS acq_max:4001
SatID=30
GPS acq_max:3782
GPS acq_max:4080
GPS acq_max:4178
GPS acq_max:3844
GPS acq_max:3908
GPS acq_max:3894
GPS acq_max:3705
GPS acq_max:3636
SatID=30
GPS acq_max:4033
GPS acq_max:4032
GPS acq_max:4229
GPS acq_max:3736
GPS acq_max:3639
GPS acq_max:3590
GPS acq_max:4062
GPS acq_max:4073
SatID=30
GPS acq_max:4299
GPS acq_max:3827
GPS acq_max:4006
GPS acq_max:3740
GPS acq_max:3691
GPS acq_max:3844
GPS acq_max:3759
GPS acq_max:3840
SatID=30
GPS acq_max:3834
GPS acq_max:3476
GPS acq_max:3565
GPS acq_max:4432
GPS acq_max:3906
GPS acq_max:3881
GPS acq_max:3787
GPS acq_max:3670
SatID=30
GPS acq_max:3880
GPS acq_max:4150
GPS acq_max:3721
GPS acq_max:3883
GPS acq_max:3645
GPS acq_max:3870
GPS acq_max:4265
GPS acq_max:3810
SatID=31
GPS acq_max:3863
GPS acq_max:4104
GPS acq_max:3939
GPS acq_max:4122
GPS acq_max:4158
GPS acq_max:3885
GPS acq_max:3931
GPS acq_max:4084
SatID=31
GPS acq_max:3812
GPS acq_max:4018
GPS acq_max:3731
GPS acq_max:4093
GPS acq_max:3936
GPS acq_max:3881
GPS acq_max:4212
GPS acq_max:3832
SatID=31
GPS acq_max:3861
GPS acq_max:3671
GPS acq_max:3538
GPS acq_max:4084
GPS acq_max:3673
GPS acq_max:4175
GPS acq_max:3807
GPS acq_max:3931
SatID=31
GPS acq_max:4043
GPS acq_max:4139
GPS acq_max:3728
GPS acq_max:3816
GPS acq_max:3971
GPS acq_max:3743
GPS acq_max:3925
GPS acq_max:3847
SatID=31
---00000017--- Acq_st=3 2019-5-25 07:42:21 
[00]  G17  f 33  -1805.1 2046002.3  1.0  1.0  5  0 546158216
[01]  G18  f 36   3004.0 2045996.1  1.0  1.0  5  0 546158209
[02]  G19  f 39  -2578.6 2046003.4  1.0  1.0  5  0 546158214
[03]  G28  f 41   -800.8 2046001.1  1.0  1.0  5  0 546158222
[04]  G01  7 39   2538.8 2045996.7  1.0  1.0  5  0        15
[05]  G11  7 42   2212.4 2045997.1  0.8  1.0  5  0        14
[06]  G22  7 26   1307.7 2045998.2  0.4  0.0 20  0         8
[16]  B11 1f 41    924.6 4091997.6  1.0  0.9  5  0 546144212
[17]  B13 1f 41   -354.9 4092000.9  1.0  1.0  5  0 546144164
[18]  B28  7 39  -1649.2 4092004.3  1.0  1.0  5  0      6652
lsq: nits= 4
$GNGGA,074221.290,3112.8455,N,12136.3978,E,1,05,4.3,317.5,M,,,,0000*15
$GNRMC,074221.290,A,3112.8455,N,12136.3978,E,0.12,0.00,250519,,*12
$GPGSA,A,3,19,28,,,,,,,,,,,7.0,4.3,5.6*33
$BDGSA,A,3,11,13,28,,,,,,,,,,7.0,4.3,5.6*28
$GPGSV,2,1,07,17,00,000,33,18,00,000,36,19,00,000,39,28,00,000,41*7A
$GPGSV,2,2,07,01,00,000,39,11,00,000,42,22,00,000,26*47
$BDGSV,1,1,03,11,00,000,41,13,00,000,41,28,00,000,39*59
$LOGTIM,3,9620602.818170,9620403.090025,0.000000,0.000000,-64.150*18
EndT:        0
---00000018--- Acq_st=3 2019-5-25 07:42:21 
[00]  G17  f 32  -1804.5 2046002.3  1.0  0.9  5  0 546159216
[01]  G18  f 36   3005.2 2045996.1  1.0  1.0  5  0 546159209
[02]  G19  f 39  -2577.2 2046003.4  1.0  1.0  5  0 546159214
[03]  G28  f 41   -798.7 2046001.0  1.0  1.0  5  0 546159222
[04]  G01  7 39   2540.1 2045996.7  1.0  1.0  5  0        15
[05]  G11  7 42   2213.4 2045997.1  1.0  1.0  5  0        14
[06]  G22  7 37   1309.8 2045998.2  0.9  1.0  5  0        15
[16]  B11 1f 41    926.2 4091997.6  1.0  1.0  5  0 546145212
[17]  B13 1f 40   -353.6 4092000.9  1.0  1.0  5  0 546145164
[18]  B28 1f 39  -1648.4 4092004.3  1.0  1.0  5  0 546145212
lsq: nits= 2
$GNGGA,074223.000,3112.8128,N,12136.3842,E,1,05,1.9,342.1,M,,,,0000*10
$GNRMC,074223.000,A,3112.8128,N,12136.3842,E,2.37,281.98,250519,,*13
$GPGSA,A,3,19,28,,,,,,,,,,,2.1,1.9,0.9*32
$BDGSA,A,3,11,13,28,,,,,,,,,,2.1,1.9,0.9*29
