FlashID=0x1 0x20 0x18
BBram_blkflag1: 42b0: bd4f
FW Ver: 1.30  
GPS00 Init Dop:  -1551,  8
GPS01 Init Dop:   5000, 40
GPS02 Init Dop:   5000, 40
GPS03 Init Dop:   5000, 40
GPS04 Init Dop:   5000, 40
GPS05 Init Dop:   5000, 40
GPS06 Init Dop:   5000, 40
GPS07 Init Dop:   5000, 40
GPS08 Init Dop:   5000, 40
GPS09 Init Dop:   5000, 40
GPS10 Init Dop:  -1426,  8
GPS11 Init Dop:   5000, 40
GPS12 Init Dop:   5000, 40
GPS13 Init Dop:   5000, 40
GPS14 Init Dop:   5000, 40
GPS15 Init Dop:   5000, 40
GPS16 Init Dop:   5000, 40
GPS17 Init Dop:   5000, 40
GPS18 Init Dop:   3165,  8
GPS19 Init Dop:   5000, 40
GPS20 Init Dop:   5000, 40
GPS21 Init Dop:  -1774,  8
GPS22 Init Dop:   5000, 40
GPS23 Init Dop:   5000, 40
GPS24 Init Dop:   5000, 40
GPS25 Init Dop:   5000, 40
GPS26 Init Dop:   5000, 40
GPS27 Init Dop:   -401,  8
GPS28 Init Dop:   5000, 40
GPS29 Init Dop:   5000, 40
GPS30 Init Dop:   5000, 40
GPS31 Init Dop:   5000, 40
BDS00 Init Dop:   5000, 40
BDS01 Init Dop:   5000, 40
BDS02 Init Dop:   5000, 40
BDS03 Init Dop:   5000, 40
BDS04 Init Dop:   5000, 40
BDS05 Init Dop:   5000, 40
BDS06 Init Dop:   5000, 40
BDS07 Init Dop:    571,  4
BDS08 Init Dop:   5000, 40
BDS09 Init Dop:   -192,  4
BDS10 Init Dop:   -755,  4
BDS11 Init Dop:   5000, 40
BDS12 Init Dop:    752,  4
BDS13 Init Dop:   5000, 40
BDS14 Init Dop:   5000, 40
BDS15 Init Dop:   5000, 40
BDS16 Init Dop:   5000, 40
BDS17 Init Dop:   5000, 40
BDS18 Init Dop:   5000, 40
BDS19 Init Dop:   5000, 40
BDS20 Init Dop:  -2083,  4
BDS21 Init Dop:   5000, 40
BDS22 Init Dop:   5000, 40
BDS23 Init Dop:   5000, 40
BDS24 Init Dop:   5000, 40
BDS25 Init Dop:   5000, 40
BDS26 Init Dop:   5000, 40
BDS27 Init Dop:   1873,  4
BDS28 Init Dop:   5000, 40
BDS29 Init Dop:   5000, 40
BDS30 Init Dop:   5000, 40
BDS31 Init Dop:   5000, 40
GPS acq_max:3682
GPS acq_max:6615
GPS acq_max:5929
GPS acq_max:3198
GPS acq_max:3494
GPS acq_max:3027
GPS acq_max:4894
GPS acq_max:3677
SatID=0
sat0 = 6615 1587 2140 -1801
GPS acq_max:1221
GPS acq_max:1207
GPS acq_max:1119
GPS acq_max:1079
GPS acq_max:1108
GPS acq_max:990
GPS acq_max:1049
GPS acq_max:1099
SatID=1
GPS acq_max:3805
GPS acq_max:3314
GPS acq_max:3588
GPS acq_max:3421
GPS acq_max:3103
GPS acq_max:2956
GPS acq_max:2974
GPS acq_max:3215
SatID=1
GPS acq_max:3981
GPS acq_max:4092
GPS acq_max:4007
GPS acq_max:4017
GPS acq_max:4050
GPS acq_max:4242
GPS acq_max:4109
GPS acq_max:4443
SatID=1
GPS acq_max:4319
GPS acq_max:3981
GPS acq_max:4722
GPS acq_max:4084
GPS acq_max:3998
GPS acq_max:3976
GPS acq_max:3942
GPS acq_max:4070
SatID=1
GPS acq_max:4445
GPS acq_max:4047
GPS acq_max:4507
GPS acq_max:4634
GPS acq_max:4288
GPS acq_max:3800
GPS acq_max:3784
GPS acq_max:4070
SatID=1
sat1 = 4722 1321 1670 -1500
GPS acq_max:4104
GPS acq_max:4391
GPS acq_max:4238
GPS acq_max:4357
GPS acq_max:3942
GPS acq_max:4360
GPS acq_max:4343
GPS acq_max:4373
SatID=2
GPS acq_max:4260
GPS acq_max:4178
GPS acq_max:3956
GPS acq_max:4067
GPS acq_max:4650
GPS acq_max:4582
GPS acq_max:4174
GPS acq_max:4142
SatID=2
GPS acq_max:3747
GPS acq_max:4492
GPS acq_max:4275
GPS acq_max:4445
GPS acq_max:4200
GPS acq_max:4687
GPS acq_max:4349
GPS acq_max:4331
SatID=2
GPS acq_max:3999
GPS acq_max:4424
GPS acq_max:18268
GPS acq_max:38178
GPS acq_max:49917
GPS acq_max:45680
GPS acq_max:27899
GPS acq_max:8907
SatID=2
GPS acq_max:3939
GPS acq_max:4355
GPS acq_max:4390
GPS acq_max:3903
GPS acq_max:3916
GPS acq_max:3765
GPS acq_max:3822
GPS acq_max:4544
SatID=2
sat2 = 49917 1044 2075 -2000
ch0 satid=2,max_freq = -2000,max_mean = 2075,max_phase = 1044,max_value = 49917,acq ok1!
acq ok1 timeH = 0,timeL = 4241790,freq_stage = 4
GPS acq_max:4245
GPS acq_max:4395
GPS acq_max:4070
GPS acq_max:3843
GPS acq_max:4095
GPS acq_max:3947
GPS acq_max:4131
GPS acq_max:3968
SatID=3
GPS acq_max:4012
GPS acq_max:3752
GPS acq_max:4641
GPS acq_max:3959
GPS acq_max:4227
GPS acq_max:4546
GPS acq_max:4278
GPS acq_max:3956
SatID=3
GPS acq_max:4351
GPS acq_max:4542
GPS acq_max:4763
GPS acq_max:4191
GPS acq_max:4214
GPS acq_max:4418
GPS acq_max:4080
GPS acq_max:4217
SatID=3
GPS acq_max:4111
GPS acq_max:3818
GPS acq_max:4255
GPS acq_max:4217
GPS acq_max:4066
GPS acq_max:3991
GPS acq_max:4081
GPS acq_max:3819
SatID=3
GPS acq_max:3991
GPS acq_max:3883
GPS acq_max:3851
GPS acq_max:3800
GPS acq_max:3654
GPS acq_max:4006
GPS acq_max:4229
GPS acq_max:4260
SatID=3
sat3 = 4763 1340 2058 500
GPS acq_max:4109
GPS acq_max:4249
GPS acq_max:4600
GPS acq_max:3969
GPS acq_max:3725
GPS acq_max:4115
GPS acq_max:4039
GPS acq_max:4185
SatID=4
GPS acq_max:3925
GPS acq_max:4149
GPS acq_max:4066
GPS acq_max:4398
GPS acq_max:4475
GPS acq_max:4049
GPS acq_max:4230
GPS acq_max:4411
SatID=4
GPS acq_max:3930
GPS acq_max:3979
GPS acq_max:3790
GPS acq_max:4633
GPS acq_max:4329
GPS acq_max:4189
GPS acq_max:3806
GPS acq_max:3956
SatID=4
GPS acq_max:4016
GPS acq_max:4202
GPS acq_max:4102
GPS acq_max:4114
GPS acq_max:4146
GPS acq_max:3820
GPS acq_max:3924
GPS acq_max:4153
SatID=4
GPS acq_max:4159
GPS acq_max:3906
GPS acq_max:4658
GPS acq_max:4641
GPS acq_max:3723
GPS acq_max:4367
GPS acq_max:3880
GPS acq_max:3787
SatID=4
sat4 = 4658 1978 2065 -3500
GPS acq_max:3773
GPS acq_max:3803
GPS acq_max:4149
GPS acq_max:3708
GPS acq_max:4109
GPS acq_max:3808
GPS acq_max:3530
GPS acq_max:4028
SatID=5
GPS acq_max:4135
GPS acq_max:4450
GPS acq_max:4147
GPS acq_max:3927
GPS acq_max:3816
GPS acq_max:4008
GPS acq_max:4299
GPS acq_max:4057
SatID=5
GPS acq_max:4090
GPS acq_max:4487
GPS acq_max:3959
GPS acq_max:3809
GPS acq_max:3955
GPS acq_max:3860
GPS acq_max:4165
GPS acq_max:3991
SatID=5
GPS acq_max:4041
GPS acq_max:4333
GPS acq_max:4310
GPS acq_max:3810
GPS acq_max:4017
GPS acq_max:3929
GPS acq_max:4025
GPS acq_max:4388
SatID=5
GPS acq_max:4491
GPS acq_max:4467
GPS acq_max:4468
GPS acq_max:4090
GPS acq_max:3899
GPS acq_max:4237
GPS acq_max:4138
GPS acq_max:4552
SatID=5
sat5 = 4552 84 2040 -4750
GPS acq_max:4131
GPS acq_max:3992
GPS acq_max:4156
GPS acq_max:3915
GPS acq_max:4237
GPS acq_max:4634
GPS acq_max:4060
GPS acq_max:3700
SatID=6
GPS acq_max:4116
GPS acq_max:4314
GPS acq_max:4410
GPS acq_max:4061
GPS acq_max:3887
GPS acq_max:4009
GPS acq_max:4379
GPS acq_max:4208
SatID=6
GPS acq_max:4175
GPS acq_max:4412
GPS acq_max:4023
GPS acq_max:4123
GPS acq_max:4357
GPS acq_max:3858
GPS acq_max:3723
GPS acq_max:3862
SatID=6
GPS acq_max:3710
GPS acq_max:3983
GPS acq_max:3854
GPS acq_max:3750
GPS acq_max:3874
GPS acq_max:4270
GPS acq_max:4293
GPS acq_max:4135
SatID=6
GPS acq_max:4045
GPS acq_max:4033
GPS acq_max:4271
GPS acq_max:4219
GPS acq_max:4456
GPS acq_max:3911
GPS acq_max:4696
GPS acq_max:4735
SatID=6
sat6 = 4735 240 2060 -4750
GPS acq_max:4197
GPS acq_max:3870
GPS acq_max:4224
GPS acq_max:3903
GPS acq_max:4092
GPS acq_max:4233
GPS acq_max:3933
GPS acq_max:3869
SatID=7
GPS acq_max:3963
GPS acq_max:3893
GPS acq_max:3786
GPS acq_max:4012
GPS acq_max:3697
GPS acq_max:4050
GPS acq_max:3968
GPS acq_max:4255
SatID=7
GPS acq_max:4444
GPS acq_max:3881
GPS acq_max:3883
GPS acq_max:3614
GPS acq_max:3743
GPS acq_max:3981
GPS acq_max:4224
GPS acq_max:4159
SatID=7
GPS acq_max:3685
GPS acq_max:4315
GPS acq_max:3735
GPS acq_max:3946
GPS acq_max:4026
GPS acq_max:3763
GPS acq_max:4385
GPS acq_max:4137
SatID=7
GPS acq_max:3947
GPS acq_max:4183
GPS acq_max:3939
GPS acq_max:4297
GPS acq_max:3983
GPS acq_max:4135
GPS acq_max:4308
GPS acq_max:4265
SatID=7
sat7 = 4444 289 2003 1000
GPS acq_max:3638
GPS acq_max:4240
GPS acq_max:3923
GPS acq_max:4119
GPS acq_max:4679
GPS acq_max:3987
GPS acq_max:4029
GPS acq_max:4112
SatID=8
GPS acq_max:3666
GPS acq_max:3721
GPS acq_max:3912
GPS acq_max:4081
GPS acq_max:3904
GPS acq_max:3882
GPS acq_max:3719
GPS acq_max:4176
SatID=8
GPS acq_max:4183
GPS acq_max:3812
GPS acq_max:4232
GPS acq_max:3724
GPS acq_max:4314
GPS acq_max:4111
GPS acq_max:3874
GPS acq_max:3753
SatID=8
GPS acq_max:4022
GPS acq_max:3697
GPS acq_max:4293
GPS acq_max:3811
GPS acq_max:3847
GPS acq_max:3874
GPS acq_max:4334
GPS acq_max:4381
SatID=8
GPS acq_max:3954
GPS acq_max:4471
GPS acq_max:4104
GPS acq_max:4313
GPS acq_max:4675
GPS acq_max:4031
GPS acq_max:3935
GPS acq_max:3817
SatID=8
sat8 = 4679 592 2036 4000
---00000001--- Acq_st=3 2019-5-25 08:46:50 
[00]  G03  1 28   2018.4 2045997.8 -0.0  0.0  1  0         0
$GNGGA,000000.000,,,,,0,00,,,M,,,,0000*2B
$GNRMC,000000.000,A,,,,,,,000000,,*26
$GPGSA,A,1,,,,,,,,,,,,,,,*1E
$BDGSA,A,1,,,,,,,,,,,,,,,*0F
$LOGTIM,0,0.000000,0.000000,0.000000,0.000000,0.000*0A
EndT:        0
GPS acq_max:4172
GPS acq_max:3839
GPS acq_max:4198
GPS acq_max:4210
GPS acq_max:4094
GPS acq_max:4126
GPS acq_max:3754
GPS acq_max:3773
SatID=9
GPS acq_max:4008
GPS acq_max:4719
GPS acq_max:5511
GPS acq_max:4921
GPS acq_max:3824
GPS acq_max:3877
GPS acq_max:3841
GPS acq_max:3941
SatID=9
GPS acq_max:4134
GPS acq_max:3914
GPS acq_max:3984
GPS acq_max:4050
GPS acq_max:4004
GPS acq_max:3702
GPS acq_max:4441
GPS acq_max:3901
SatID=9
GPS acq_max:3730
GPS acq_max:4249
GPS acq_max:4274
GPS acq_max:4165
GPS acq_max:4302
GPS acq_max:3987
GPS acq_max:3982
GPS acq_max:4139
SatID=9
GPS acq_max:3725
GPS acq_max:4484
GPS acq_max:4240
GPS acq_max:4346
GPS acq_max:4189
GPS acq_max:3895
GPS acq_max:3686
GPS acq_max:3705
SatID=9
sat9 = 5511 1073 2034 2500
GPS acq_max:25004
GPS acq_max:37704
GPS acq_max:16651
GPS acq_max:7582
GPS acq_max:13739
GPS acq_max:19258
GPS acq_max:14945
GPS acq_max:14570
SatID=10
sat10 = 37704 2029 10558 -1676
GPS acq_max:3912
GPS acq_max:3709
GPS acq_max:3956
GPS acq_max:3845
GPS acq_max:3922
GPS acq_max:4138
GPS acq_max:4200
GPS acq_max:3735
SatID=11
GPS acq_max:3616
GPS acq_max:3698
GPS acq_max:4270
GPS acq_max:4222
GPS acq_max:3999
GPS acq_max:4304
GPS acq_max:4546
GPS acq_max:4323
SatID=11
GPS acq_max:4175
GPS acq_max:4001
GPS acq_max:4386
GPS acq_max:4236
GPS acq_max:4317
GPS acq_max:3781
GPS acq_max:3847
GPS acq_max:3866
SatID=11
GPS acq_max:4565
GPS acq_max:4317
GPS acq_max:4455
GPS acq_max:4329
GPS acq_max:4889
GPS acq_max:4174
GPS acq_max:3968
GPS acq_max:4047
SatID=11
GPS acq_max:4498
GPS acq_max:4207
GPS acq_max:4331
GPS acq_max:4148
GPS acq_max:4360
GPS acq_max:4025
GPS acq_max:4187
GPS acq_max:3923
SatID=11
sat11 = 4889 195 2073 -2000
GPS acq_max:4546
GPS acq_max:4186
GPS acq_max:3821
GPS acq_max:4027
GPS acq_max:4470
GPS acq_max:4509
GPS acq_max:4167
GPS acq_max:4089
SatID=12
GPS acq_max:4274
GPS acq_max:4231
GPS acq_max:4088
GPS acq_max:4181
GPS acq_max:4539
GPS acq_max:4219
GPS acq_max:4010
GPS acq_max:3960
SatID=12
GPS acq_max:4083
GPS acq_max:4050
GPS acq_max:4074
GPS acq_max:3925
GPS acq_max:4146
GPS acq_max:4062
GPS acq_max:3698
GPS acq_max:4053
SatID=12
GPS acq_max:4065
GPS acq_max:4014
GPS acq_max:4909
GPS acq_max:4283
GPS acq_max:4036
GPS acq_max:3628
GPS acq_max:4104
GPS acq_max:4189
SatID=12
GPS acq_max:4147
GPS acq_max:4498
GPS acq_max:3868
GPS acq_max:4044
GPS acq_max:4112
GPS acq_max:4451
GPS acq_max:4417
GPS acq_max:4254
SatID=12
sat12 = 4909 437 2081 -1500
GPS acq_max:4561
GPS acq_max:4749
GPS acq_max:3723
GPS acq_max:3709
GPS acq_max:4202
GPS acq_max:4072
GPS acq_max:4489
GPS acq_max:4949
SatID=13
GPS acq_max:3567
GPS acq_max:3864
GPS acq_max:3640
GPS acq_max:3956
GPS acq_max:3841
GPS acq_max:3983
GPS acq_max:4091
GPS acq_max:4244
SatID=13
GPS acq_max:3943
GPS acq_max:4464
GPS acq_max:4336
GPS acq_max:3894
GPS acq_max:3961
GPS acq_max:4608
GPS acq_max:4381
GPS acq_max:4179
SatID=13
GPS acq_max:4332
GPS acq_max:3969
GPS acq_max:4168
GPS acq_max:4218
GPS acq_max:3969
GPS acq_max:4316
GPS acq_max:4838
GPS acq_max:4432
SatID=13
GPS acq_max:3821
GPS acq_max:3777
GPS acq_max:4099
GPS acq_max:4027
GPS acq_max:4034
GPS acq_max:3837
GPS acq_max:3967
GPS acq_max:4497
SatID=13
sat13 = 4949 229 2031 3250
GPS acq_max:3975
GPS acq_max:3932
GPS acq_max:4089
GPS acq_max:4190
GPS acq_max:4067
GPS acq_max:4385
GPS acq_max:4056
GPS acq_max:4013
SatID=14
GPS acq_max:4504
GPS acq_max:4236
GPS acq_max:4494
GPS acq_max:4811
GPS acq_max:4301
GPS acq_max:4090
GPS acq_max:4445
GPS acq_max:3968
SatID=14
GPS acq_max:4076
GPS acq_max:4248
GPS acq_max:3802
GPS acq_max:4080
GPS acq_max:3991
GPS acq_max:4226
GPS acq_max:4376
GPS acq_max:4003
SatID=14
GPS acq_max:4344
GPS acq_max:3968
GPS acq_max:4259
GPS acq_max:4238
GPS acq_max:4314
GPS acq_max:4021
GPS acq_max:4070
GPS acq_max:4402
SatID=14
GPS acq_max:3948
GPS acq_max:3904
GPS acq_max:4408
GPS acq_max:4603
GPS acq_max:4200
GPS acq_max:3860
GPS acq_max:3940
GPS acq_max:3732
SatID=14
sat14 = 4811 1687 2069 2250
GPS acq_max:4220
GPS acq_max:3774
GPS acq_max:4411
GPS acq_max:4348
GPS acq_max:3973
GPS acq_max:4063
GPS acq_max:3918
GPS acq_max:4919
SatID=15
GPS acq_max:4193
GPS acq_max:4097
GPS acq_max:4191
GPS acq_max:4031
GPS acq_max:4040
GPS acq_max:4477
GPS acq_max:4154
GPS acq_max:3931
SatID=15
GPS acq_max:4469
GPS acq_max:4196
GPS acq_max:4166
GPS acq_max:4378
GPS acq_max:4019
GPS acq_max:4085
GPS acq_max:4533
GPS acq_max:4111
SatID=15
GPS acq_max:3988
GPS acq_max:3622
GPS acq_max:3683
GPS acq_max:4051
GPS acq_max:4002
GPS acq_max:4510
GPS acq_max:4324
GPS acq_max:4297
SatID=15
GPS acq_max:4172
GPS acq_max:3782
GPS acq_max:3813
GPS acq_max:3699
GPS acq_max:3805
GPS acq_max:4201
GPS acq_max:4186
GPS acq_max:4106
SatID=15
sat15 = 4919 1349 2049 3250
GPS acq_max:4506
GPS acq_max:4455
GPS acq_max:4089
GPS acq_max:3682
GPS acq_max:4022
GPS acq_max:3885
GPS acq_max:4007
GPS acq_max:3738
SatID=16
GPS acq_max:3885
GPS acq_max:4158
GPS acq_max:3782
GPS acq_max:4159
GPS acq_max:16180
GPS acq_max:35807
GPS acq_max:51503
GPS acq_max:49166
SatID=16
GPS acq_max:29351
GPS acq_max:10940
GPS acq_max:3919
GPS acq_max:3892
GPS acq_max:4735
GPS acq_max:4557
GPS acq_max:4058
GPS acq_max:4260
SatID=16
GPS acq_max:4441
GPS acq_max:4811
GPS acq_max:4534
GPS acq_max:3834
GPS acq_max:4208
GPS acq_max:4285
GPS acq_max:4005
GPS acq_max:3954
SatID=16
GPS acq_max:4529
GPS acq_max:3889
GPS acq_max:3895
GPS acq_max:4195
GPS acq_max:4070
GPS acq_max:4011
GPS acq_max:3706
GPS acq_max:3967
SatID=16
sat16 = 51503 1028 2049 1500
ch1 satid=16,max_freq = 1500,max_mean = 2049,max_phase = 1028,max_value = 51503,acq ok1!
acq ok1 timeH = 0,timeL = 33358598,freq_stage = 2
GPS acq_max:3783
GPS acq_max:3734
GPS acq_max:4235
GPS acq_max:4369
GPS acq_max:4144
GPS acq_max:3865
GPS acq_max:4318
GPS acq_max:4097
SatID=17
GPS acq_max:4435
GPS acq_max:4191
GPS acq_max:4205
GPS acq_max:4273
GPS acq_max:4196
GPS acq_max:4575
GPS acq_max:4646
GPS acq_max:4128
SatID=17
GPS acq_max:3956
GPS acq_max:3733
GPS acq_max:3838
GPS acq_max:4046
GPS acq_max:4043
GPS acq_max:4113
GPS acq_max:3919
GPS acq_max:3696
SatID=17
GPS acq_max:3883
GPS acq_max:4049
GPS acq_max:3742
GPS acq_max:4152
GPS acq_max:3976
GPS acq_max:4148
GPS acq_max:4021
GPS acq_max:3942
SatID=17
GPS acq_max:4280
GPS acq_max:4026
GPS acq_max:4123
GPS acq_max:4034
GPS acq_max:4214
GPS acq_max:4033
GPS acq_max:3888
GPS acq_max:4050
SatID=17
sat17 = 4646 769 2035 1500
GPS acq_max:4266
GPS acq_max:7344
GPS acq_max:25241
GPS acq_max:46869
GPS acq_max:58541
GPS acq_max:49188
GPS acq_max:26317
GPS acq_max:7468
SatID=18
sat18 = 58541 446 2086 2165
ch2 satid=18,max_freq = 2165,max_mean = 2086,max_phase = 446,max_value = 58541,acq ok1!
acq ok1 timeH = 0,timeL = 37452606,freq_stage = 2
---00000002--- Acq_st=3 2019-5-25 08:46:51 
[00]  G03  7 27   2031.6 2045997.3  0.3  0.0 20  0        11
[01]  G17  1  7  -1447.1 2046003.0  0.1  0.0  1  0         0
[02]  G19  1  7   5383.6 2046003.6  0.0  0.0  1  0         0
GPS acq_max:4436
GPS acq_max:3923
GPS acq_max:4888
GPS acq_max:4581
GPS acq_max:4271
GPS acq_max:3817
GPS acq_max:3869
GPS acq_max:3963
SatID=19
$GNGGA,000000.000,,,,,0,00,,,M,,,,0000*2B
$GNRMC,000000.000,A,,,,,,,000000,,*26
$GPGSA,A,1,,,,,,,,,,,,,,,*1E
$BDGSA,A,1,,,,,,,,,,,,,,,*0F
$GPGSV,1,1,01,03,00,000,27*4E
$LOGTIM,0,0.000000,0.000000,0.000000,0.000000,0.000*0A
EndT:        0
GPS acq_max:4391
GPS acq_max:4196
GPS acq_max:4052
GPS acq_max:3665
GPS acq_max:4005
GPS acq_max:3996
GPS acq_max:4622
GPS acq_max:3968
SatID=19
GPS acq_max:3916
GPS acq_max:3970
GPS acq_max:4158
GPS acq_max:3960
GPS acq_max:3621
GPS acq_max:3613
GPS acq_max:3944
GPS acq_max:3697
SatID=19
GPS acq_max:4314
GPS acq_max:3755
GPS acq_max:3633
GPS acq_max:4044
GPS acq_max:4062
GPS acq_max:4334
GPS acq_max:3977
GPS acq_max:3622
SatID=19
GPS acq_max:3939
GPS acq_max:4213
GPS acq_max:4726
GPS acq_max:4261
GPS acq_max:3977
GPS acq_max:4364
GPS acq_max:3827
GPS acq_max:4116
SatID=19
sat19 = 4888 1774 2039 4500
GPS acq_max:4531
GPS acq_max:4377
GPS acq_max:4299
GPS acq_max:4213
GPS acq_max:4258
GPS acq_max:3956
GPS acq_max:4364
GPS acq_max:4132
SatID=20
GPS acq_max:4043
GPS acq_max:3906
GPS acq_max:3758
GPS acq_max:4029
GPS acq_max:3933
GPS acq_max:3827
GPS acq_max:4123
GPS acq_max:3933
SatID=20
GPS acq_max:3790
GPS acq_max:4279
GPS acq_max:3947
GPS acq_max:4061
GPS acq_max:3987
GPS acq_max:3903
GPS acq_max:3668
GPS acq_max:3923
SatID=20
GPS acq_max:3686
GPS acq_max:4021
GPS acq_max:3912
GPS acq_max:3658
GPS acq_max:4068
GPS acq_max:3869
GPS acq_max:4023
GPS acq_max:3927
SatID=20
GPS acq_max:4073
GPS acq_max:4035
GPS acq_max:4278
GPS acq_max:4141
GPS acq_max:4367
GPS acq_max:4016
GPS acq_max:3901
GPS acq_max:3899
SatID=20
sat20 = 4531 1464 2034 5000
GPS acq_max:6774
GPS acq_max:7731
GPS acq_max:22450
GPS acq_max:27284
GPS acq_max:36319
GPS acq_max:16842
GPS acq_max:16840
GPS acq_max:17439
SatID=21
sat21 = 36319 718 9790 -2774
GPS acq_max:4101
GPS acq_max:4504
GPS acq_max:4514
GPS acq_max:4149
GPS acq_max:3921
GPS acq_max:3816
GPS acq_max:3984
GPS acq_max:4158
SatID=22
GPS acq_max:3802
GPS acq_max:3966
GPS acq_max:4429
GPS acq_max:3879
GPS acq_max:3966
GPS acq_max:4631
GPS acq_max:4505
GPS acq_max:4353
SatID=22
GPS acq_max:3670
GPS acq_max:3651
GPS acq_max:3774
GPS acq_max:4060
GPS acq_max:4032
GPS acq_max:4175
GPS acq_max:3632
GPS acq_max:3908
SatID=22
GPS acq_max:4081
GPS acq_max:4029
GPS acq_max:3783
GPS acq_max:4076
GPS acq_max:4042
GPS acq_max:4165
GPS acq_max:4003
GPS acq_max:3905
SatID=22
GPS acq_max:3749
GPS acq_max:3800
GPS acq_max:4017
GPS acq_max:4084
GPS acq_max:3991
GPS acq_max:3903
GPS acq_max:3909
GPS acq_max:4050
SatID=22
sat22 = 4631 34 2018 1750
GPS acq_max:4261
GPS acq_max:3616
GPS acq_max:3678
GPS acq_max:3948
GPS acq_max:4379
GPS acq_max:3891
GPS acq_max:3858
GPS acq_max:3735
SatID=23
GPS acq_max:4061
GPS acq_max:3824
GPS acq_max:4265
GPS acq_max:4280
GPS acq_max:3999
GPS acq_max:3922
GPS acq_max:3734
GPS acq_max:3851
SatID=23
GPS acq_max:4122
GPS acq_max:3653
GPS acq_max:3897
GPS acq_max:3941
GPS acq_max:4178
GPS acq_max:4109
GPS acq_max:4078
GPS acq_max:4357
SatID=23
GPS acq_max:4015
GPS acq_max:3807
GPS acq_max:4265
GPS acq_max:4345
GPS acq_max:4847
GPS acq_max:4177
GPS acq_max:4027
GPS acq_max:3962
SatID=23
GPS acq_max:3847
GPS acq_max:4413
GPS acq_max:4084
GPS acq_max:3983
GPS acq_max:4199
GPS acq_max:3979
GPS acq_max:4087
GPS acq_max:3905
SatID=23
sat23 = 4847 50 2036 -2000
GPS acq_max:3727
GPS acq_max:4249
GPS acq_max:5006
GPS acq_max:4462
GPS acq_max:3764
GPS acq_max:4081
GPS acq_max:3520
GPS acq_max:3782
SatID=24
GPS acq_max:3743
GPS acq_max:4181
GPS acq_max:4453
GPS acq_max:4634
GPS acq_max:4380
GPS acq_max:4279
GPS acq_max:4006
GPS acq_max:4066
SatID=24
GPS acq_max:3730
GPS acq_max:3680
GPS acq_max:4122
GPS acq_max:3880
GPS acq_max:3660
GPS acq_max:3972
GPS acq_max:3752
GPS acq_max:4000
SatID=24
GPS acq_max:3777
GPS acq_max:3881
GPS acq_max:3773
GPS acq_max:4200
GPS acq_max:4102
GPS acq_max:3919
GPS acq_max:3743
GPS acq_max:4161
SatID=24
GPS acq_max:3780
GPS acq_max:3635
GPS acq_max:3871
GPS acq_max:3627
GPS acq_max:3713
GPS acq_max:3889
GPS acq_max:4063
GPS acq_max:3805
SatID=24
sat24 = 5006 1556 2000 4500
GPS acq_max:3978
GPS acq_max:4846
GPS acq_max:4230
GPS acq_max:3825
GPS acq_max:3878
GPS acq_max:3829
GPS acq_max:3728
GPS acq_max:4098
SatID=25
GPS acq_max:4085
GPS acq_max:4183
GPS acq_max:4394
GPS acq_max:3886
GPS acq_max:4110
GPS acq_max:4094
GPS acq_max:4204
GPS acq_max:3979
SatID=25
GPS acq_max:3684
GPS acq_max:4206
GPS acq_max:4347
GPS acq_max:4536
GPS acq_max:3948
GPS acq_max:3764
GPS acq_max:4037
GPS acq_max:3834
SatID=25
GPS acq_max:4073
GPS acq_max:4160
GPS acq_max:4006
GPS acq_max:3844
GPS acq_max:4300
GPS acq_max:3825
GPS acq_max:4168
GPS acq_max:4059
SatID=25
GPS acq_max:3698
GPS acq_max:3640
GPS acq_max:3881
GPS acq_max:3748
GPS acq_max:3772
GPS acq_max:4173
GPS acq_max:4007
GPS acq_max:4298
SatID=25
sat25 = 4846 1148 2040 4750
GPS acq_max:4228
GPS acq_max:3892
GPS acq_max:3949
GPS acq_max:3766
GPS acq_max:4238
GPS acq_max:3843
GPS acq_max:4519
GPS acq_max:3969
SatID=26
GPS acq_max:3780
GPS acq_max:3842
GPS acq_max:4041
GPS acq_max:4263
GPS acq_max:4258
GPS acq_max:4178
GPS acq_max:4063
GPS acq_max:3944
SatID=26
GPS acq_max:3964
GPS acq_max:3708
GPS acq_max:3866
GPS acq_max:3886
GPS acq_max:3991
GPS acq_max:4182
GPS acq_max:3866
GPS acq_max:3895
SatID=26
GPS acq_max:3913
GPS acq_max:4198
GPS acq_max:3939
GPS acq_max:3777
GPS acq_max:4290
GPS acq_max:4585
GPS acq_max:3975
GPS acq_max:3850
SatID=26
GPS acq_max:4295
GPS acq_max:3857
GPS acq_max:4156
GPS acq_max:3920
GPS acq_max:4184
GPS acq_max:3863
GPS acq_max:3659
GPS acq_max:3899
SatID=26
sat26 = 4585 1808 2045 -2250
GPS acq_max:13099
GPS acq_max:7380
GPS acq_max:19822
GPS acq_max:37160
GPS acq_max:53134
GPS acq_max:62946
GPS acq_max:50954
GPS acq_max:26462
SatID=27
sat27 = 62946 505 22079 -1651
GPS acq_max:3842
GPS acq_max:4226
GPS acq_max:4125
GPS acq_max:4104
GPS acq_max:4108
GPS acq_max:4083
GPS acq_max:3966
GPS acq_max:4086
SatID=28
GPS acq_max:4085
GPS acq_max:4274
GPS acq_max:4396
GPS acq_max:4144
GPS acq_max:4081
GPS acq_max:3881
GPS acq_max:4169
GPS acq_max:4148
SatID=28
GPS acq_max:4004
GPS acq_max:4155
GPS acq_max:4416
GPS acq_max:3836
GPS acq_max:4183
GPS acq_max:4082
GPS acq_max:4081
GPS acq_max:4059
SatID=28
GPS acq_max:4004
GPS acq_max:4076
GPS acq_max:4342
GPS acq_max:3881
GPS acq_max:3765
GPS acq_max:4341
GPS acq_max:4136
GPS acq_max:4380
SatID=28
GPS acq_max:3991
GPS acq_max:4115
GPS acq_max:4045
GPS acq_max:3915
GPS acq_max:4265
GPS acq_max:4119
GPS acq_max:3992
GPS acq_max:3933
SatID=28
sat28 = 4416 235 2076 500
GPS acq_max:4657
GPS acq_max:3811
GPS acq_max:4180
GPS acq_max:3965
GPS acq_max:4030
GPS acq_max:4254
GPS acq_max:4483
GPS acq_max:4191
SatID=29
---00000003--- Acq_st=3 2019-5-25 08:46:52 
[00]  G03  7 43   2034.2 2045997.3  0.8  1.0  5  0        12
[01]  G17  1 27  -1385.8 2046002.2 -0.0  0.0  1  0         7
[02]  G19  1 26  -2164.8 2046003.7 -0.1  0.0  1  0         4
$GNGGA,000000.000,,,,,0,00,,,M,,,,0000*2B
$GNRMC,000000.000,A,,,,,,,000000,,*26
$GPGSA,A,1,,,,,,,,,,,,,,,*1E
$BDGSA,A,1,,,,,,,,,,,,,,,*0F
$GPGSV,1,1,01,03,00,000,43*4C
$LOGTIM,0,0.000000,0.000000,0.000000,0.000000,0.000*0A
EndT:        0
GPS acq_max:3709
GPS acq_max:3851
GPS acq_max:4267
GPS acq_max:4565
GPS acq_max:4133
GPS acq_max:3650
GPS acq_max:4016
GPS acq_max:3914
SatID=29
GPS acq_max:3842
GPS acq_max:3920
GPS acq_max:3672
GPS acq_max:4021
GPS acq_max:3780
GPS acq_max:3633
GPS acq_max:3826
GPS acq_max:4041
SatID=29
GPS acq_max:3988
GPS acq_max:4006
GPS acq_max:3953
GPS acq_max:3877
GPS acq_max:3830
GPS acq_max:3670
GPS acq_max:4214
GPS acq_max:3982
SatID=29
GPS acq_max:3924
GPS acq_max:3999
GPS acq_max:3780
GPS acq_max:3944
GPS acq_max:4159
GPS acq_max:4326
GPS acq_max:4137
GPS acq_max:4075
SatID=29
sat29 = 4657 1446 2017 5000
GPS acq_max:3898
GPS acq_max:4017
GPS acq_max:3614
GPS acq_max:3600
GPS acq_max:3777
GPS acq_max:4466
GPS acq_max:4056
GPS acq_max:3909
SatID=30
GPS acq_max:3544
GPS acq_max:4318
GPS acq_max:3591
GPS acq_max:3506
GPS acq_max:3886
GPS acq_max:3766
GPS acq_max:3795
GPS acq_max:3855
SatID=30
GPS acq_max:4199
GPS acq_max:4034
GPS acq_max:4085
GPS acq_max:4006
GPS acq_max:3901
GPS acq_max:4690
GPS acq_max:4942
GPS acq_max:4144
SatID=30
GPS acq_max:4063
GPS acq_max:3743
GPS acq_max:4128
GPS acq_max:3996
GPS acq_max:4537
GPS acq_max:4111
GPS acq_max:3845
GPS acq_max:4097
SatID=30
GPS acq_max:4142
GPS acq_max:4104
GPS acq_max:4178
GPS acq_max:3946
GPS acq_max:4012
GPS acq_max:4045
GPS acq_max:4098
GPS acq_max:4379
SatID=30
sat30 = 4942 637 2039 -500
GPS acq_max:3842
GPS acq_max:4473
GPS acq_max:3857
GPS acq_max:4016
GPS acq_max:4007
GPS acq_max:4009
GPS acq_max:3581
GPS acq_max:3836
SatID=31
GPS acq_max:3629
GPS acq_max:4002
GPS acq_max:4261
GPS acq_max:4342
GPS acq_max:3873
GPS acq_max:3968
GPS acq_max:4329
GPS acq_max:3868
SatID=31
GPS acq_max:4165
GPS acq_max:3972
GPS acq_max:4124
GPS acq_max:3792
GPS acq_max:3659
GPS acq_max:4064
GPS acq_max:3832
GPS acq_max:3842
SatID=31
GPS acq_max:4616
GPS acq_max:4356
GPS acq_max:4175
GPS acq_max:4335
GPS acq_max:4310
GPS acq_max:4185
GPS acq_max:4800
GPS acq_max:4999
SatID=31
GPS acq_max:4208
GPS acq_max:4159
GPS acq_max:3988
GPS acq_max:4016
GPS acq_max:4055
GPS acq_max:4147
GPS acq_max:3929
GPS acq_max:4410
SatID=31
sat31 = 4999 1323 2079 -2750
sat37 = 1827 2118 801 4750
sat38 = 1897 492 836 4250
---00000004--- Acq_st=3 2019-5-25 08:46:53 
[00]  G03  7 43   2038.4 2045997.3  1.0  1.0  5  0        12
[01]  G17  7 35  -1381.2 2046001.8  0.4  1.0  5  0         7
[02]  G19  7 32  -2158.5 2046002.8  0.4  1.0  5  0         4
$GNGGA,000000.000,,,,,0,00,,,M,,,,0000*2B
$GNRMC,000000.000,A,,,,,,,000000,,*26
$GPGSA,A,1,,,,,,,,,,,,,,,*1E
$BDGSA,A,1,,,,,,,,,,,,,,,*0F
$GPGSV,1,1,03,03,00,000,43,17,00,000,35,19,00,000,32*47
$LOGTIM,0,0.000000,0.000000,0.000000,0.000000,0.000*0A
EndT:        0
sat39 = 2010 1893 809 -3000
sat40 = 2052 494 829 -2250
sat41 = 1908 1643 830 250
sat42 = 1893 3400 825 -4000
---00000005--- Acq_st=3 2019-5-25 08:46:54 
[00]  G03  7 43   2040.1 2045997.3  1.0  1.0  5  0        12
[01]  G17  7 42  -1379.7 2046001.8  1.0  1.0  5  0        15
[02]  G19  7 43  -2157.4 2046002.7  1.0  1.0  5  0        14
$GNGGA,000000.000,,,,,0,00,,,M,,,,0000*2B
$GNRMC,000000.000,A,,,,,,,000000,,*26
$GPGSA,A,1,,,,,,,,,,,,,,,*1E
$BDGSA,A,1,,,,,,,,,,,,,,,*0F
$GPGSV,1,1,03,03,00,000,43,17,00,000,42,19,00,000,43*41
$LOGTIM,0,0.000000,0.000000,0.000000,0.000000,0.000*0A
EndT:        0
sat43 = 1907 1002 792 4000
sat44 = 11593 1261 834 71
ch16 satid=44,max_freq = 71,max_mean = 834,max_phase = 1261,max_value = 11593,acq ok1!
acq ok1 timeH = 0,timeL = 99599046,freq_stage = 3
sat45 = 1991 304 805 -2750
sat46 = 1436 564 713 -942
sat47 = 1601 3979 653 -755
sat48 = 1887 3983 814 -500
sat49 = 15553 3946 819 252
ch17 satid=49,max_freq = 252,max_mean = 819,max_phase = 3946,max_value = 15553,acq ok1!
acq ok1 timeH = 0,timeL = 111385772,freq_stage = 3
---00000006--- Acq_st=3 2019-5-25 08:46:55 
[00]  G03  f 43   2039.7 2045997.3  1.0  1.0  5  0        12
[01]  G17  f 41  -1380.4 2046001.8  1.0  1.0  5  0        15
[02]  G19  f 42  -2158.3 2046002.8  1.0  1.0  5  0        14
[16]  B08  1  7    -69.9 4091999.9 -0.0  0.0  1  0         0
[17]  B13  1  7   -250.4 4092001.0  0.1  0.0  1  0         0
$GNGGA,000000.000,,,,,0,00,,,M,,,,0000*2B
$GNRMC,000000.000,A,,,,,,,000000,,*26
$GPGSA,A,1,,,,,,,,,,,,,,,*1E
$BDGSA,A,1,,,,,,,,,,,,,,,*0F
$GPGSV,1,1,03,03,00,000,43,17,00,000,41,19,00,000,42*43
$LOGTIM,0,0.000000,0.000000,0.000000,0.000000,0.000*0A
EndT:        1
sat50 = 18310 1639 828 -1250
ch18 satid=50,max_freq = -1250,max_mean = 828,max_phase = 1639,max_value = 18310,acq ok1!
acq ok1 timeH = 0,timeL = 114963560,freq_stage = 4
sat51 = 2005 903 813 4250
sat52 = 2056 3223 831 -3250
sat53 = 1860 269 823 -1250
---00000007--- Acq_st=3 2019-5-25 08:46:56 
[00]  G03  f 43   2040.0 2045997.3  1.0  1.0  5  0 550033832
[01]  G17  f 41  -1380.9 2046001.8  1.0  1.0  5  0 550033835
[02]  G19  f 43  -2158.5 2046002.8  1.0  1.0  5  0 550033834
[16]  B08  1  7    -70.3 4092000.3  0.3  0.0  1  0       784
[17]  B13  1  7   -251.5 4092000.7  0.3  0.0  1  0       171
[18]  B14  1  7   1109.4 4091997.4  0.0  0.0  1  0         0
$GNGGA,000000.000,,,,,0,00,,,M,,,,0000*2B
$GNRMC,000000.000,A,,,,,,,000000,,*26
$GPGSA,A,1,,,,,,,,,,,,,,,*1E
$BDGSA,A,1,,,,,,,,,,,,,,,*0F
$GPGSV,1,1,03,03,00,000,43,17,00,000,41,19,00,000,43*42
$LOGTIM,0,0.000000,0.000000,0.000000,0.000000,0.000*0A
EndT:        0
sat54 = 1827 298 818 -2000
sat55 = 1856 284 808 -1250
sat56 = 2010 892 817 -3250
sat57 = 1820 378 674 -2333
sat58 = 1858 3615 800 2000
---00000008--- Acq_st=3 2019-5-25 08:46:57 
[00]  G03  f 43   2035.8 2045997.3  1.0  1.0  5  0 550034832
[01]  G17  f 40  -1384.5 2046001.8  1.0  1.0  5  0 550034835
[02]  G19  f 42  -2163.1 2046002.8  1.0  1.0  5  0 550034834
[16]  B08  7 28    -74.8 4092000.2  0.6  1.0 10  0      1784
[17]  B13  7 35   -256.0 4092000.7  0.8  1.0  5  0      1171
[18]  B14  7 30   1104.5 4091997.1  0.1  1.0  5  0       905
$GNGGA,000000.000,,,,,0,00,,,M,,,,0000*2B
$GNRMC,000000.000,A,,,,,,,000000,,*26
$GPGSA,A,1,,,,,,,,,,,,,,,*1E
$BDGSA,A,1,,,,,,,,,,,,,,,*0F
$GPGSV,1,1,03,03,00,000,43,17,00,000,40,19,00,000,42*42
$BDGSV,1,1,03,08,00,000,28,13,00,000,35,14,00,000,30*5B
$LOGTIM,0,0.000000,0.000000,0.000000,0.000000,0.000*0A
EndT:        0
sat59 = 2008 2129 815 -1250
sat60 = 1936 860 808 250
sat61 = 1888 1132 804 4500
---00000009--- Acq_st=3 2019-5-25 08:46:58 
[00]  G03  f 43   2034.1 2045997.3  1.0  1.0  5  0 550035832
[01]  G17  f 40  -1387.2 2046001.8  1.0  1.0  5  0 550035835
[02]  G19  f 42  -2165.0 2046002.8  1.0  1.0  5  0 550035834
[16]  B08  7 40    -77.4 4092000.2  1.0  1.0  5  0      2783
[17]  B13  7 41   -258.7 4092000.7  1.0  1.0  5  0      2160
[18]  B14  7 42   1103.4 4091997.0  1.0  1.0  5  0      1886
$GNGGA,000000.000,,,,,0,00,,,M,,,,0000*2B
$GNRMC,000000.000,A,,,,,,,000000,,*26
$GPGSA,A,1,,,,,,,,,,,,,,,*1E
$BDGSA,A,1,,,,,,,,,,,,,,,*0F
$GPGSV,1,1,03,03,00,000,43,17,00,000,40,19,00,000,42*42
$BDGSV,1,1,03,08,00,000,40,13,00,000,41,14,00,000,42*53
$LOGTIM,0,0.000000,0.000000,0.000000,0.000000,0.000*0A
EndT:        0
sat62 = 1935 2384 810 250
sat63 = 16881 3527 810 2500
ch19 satid=63,max_freq = 2500,max_mean = 810,max_phase = 3527,max_value = 16881,acq ok1!
acq ok1 timeH = 0,timeL = 174683620,freq_stage = 2
sat64 = 23646 3576 832 1373
ch20 satid=64,max_freq = 1373,max_mean = 832,max_phase = 3576,max_value = 23646,acq ok1!
acq ok1 timeH = 0,timeL = 178768661,freq_stage = 2
sat65 = 1878 1008 824 2500
sat66 = 1902 74 812 -4250
---00000010--- Acq_st=3 2019-5-25 08:46:59 
[00]  G03  f 43   2036.3 2045997.4  1.0  1.0  5  0 550036832
[01]  G17  f 40  -1385.2 2046001.8  1.0  1.0  5  0 550036835
[02]  G19  f 42  -2162.8 2046002.8  1.0  1.0  5  0 550036834
[16]  B08  7 40    -74.9 4092000.2  1.0  1.0  5  0      3783
[17]  B13  7 42   -256.8 4092000.7  1.0  1.0  5  0      3160
[18]  B14  7 42   1106.0 4091997.1  1.0  1.0  5  0      2886
[19]  B27  1  7  -2478.4 4092007.3  0.0  0.0  1  0         0
[20]  B28  1  7  -1374.2 4092004.1 -0.1  0.0  1  0         0
$GNGGA,000000.000,,,,,0,00,,,M,,,,0000*2B
$GNRMC,000000.000,A,,,,,,,000000,,*26
$GPGSA,A,1,,,,,,,,,,,,,,,*1E
$BDGSA,A,1,,,,,,,,,,,,,,,*0F
$GPGSV,1,1,03,03,00,000,43,17,00,000,40,19,00,000,42*42
$BDGSV,1,1,03,08,00,000,40,13,00,000,42,14,00,000,42*50
$LOGTIM,0,0.000000,0.000000,0.000000,0.000000,0.000*0A
EndT:        0
sat67 = 2037 1256 815 4000
sat68 = 1994 879 818 -4500
---00000011--- Acq_st=7 2019-5-25 08:47:0 
[00]  G03  f 43   2037.3 2045997.3  1.0  1.0  5  0 550037832
[01]  G17  f 40  -1384.1 2046001.8  1.0  1.0  5  0 550037835
[02]  G19  f 42  -2162.1 2046002.8  1.0  1.0  5  0 550037834
[16]  B08  7 40    -74.9 4092000.2  1.0  1.0  5  0      4783
[17]  B13  7 41   -256.0 4092000.7  1.0  1.0  5  0      4160
[18]  B14  7 42   1106.9 4091997.1  1.0  1.0  5  0      3886
[19]  B27  7 26  -2477.6 4092006.4  0.6  0.0 20  0       688
[20]  B28  7 25  -1376.5 4092003.6  0.5  0.0 20  0       660
$GNGGA,000000.000,,,,,0,00,,,M,,,,0000*2B
$GNRMC,000000.000,A,,,,,,,000000,,*26
$GPGSA,A,1,,,,,,,,,,,,,,,*1E
$BDGSA,A,1,,,,,,,,,,,,,,,*0F
$GPGSV,1,1,03,03,00,000,43,17,00,000,40,19,00,000,42*42
$BDGSV,2,1,05,08,00,000,40,13,00,000,41,14,00,000,42,27,00,000,26*67
$BDGSV,2,2,05,28,00,000,25*50
$LOGTIM,0,0.000000,0.000000,0.000000,0.000000,0.000*0A
EndT:        0
---00000012--- Acq_st=7 2019-5-25 08:47:1 
[00]  G03  f 43   2036.8 2045997.3  1.0  1.0  5  0 550038832
[01]  G17  f 40  -1385.4 2046001.8  1.0  1.0  5  0 550038835
[02]  G19  f 41  -2163.0 2046002.8  1.0  1.0  5  0 550038834
[16]  B08  7 40    -76.3 4092000.2  1.0  1.0  5  0      5783
[17]  B13  7 42   -257.5 4092000.7  1.0  1.0  5  0      5160
[18]  B14  7 42   1106.1 4091997.1  1.0  1.0  5  0      4886
[19]  B27  7 42  -2479.3 4092006.4  1.0  1.0  5  0      1679
[20]  B28  7 44  -1377.8 4092003.6  1.0  1.0  5  0      1650
$GNGGA,000000.000,,,,,0,00,,,M,,,,0000*2B
$GNRMC,000000.000,A,,,,,,,000000,,*26
$GPGSA,A,1,,,,,,,,,,,,,,,*1E
$BDGSA,A,1,,,,,,,,,,,,,,,*0F
$GPGSV,1,1,03,03,00,000,43,17,00,000,40,19,00,000,41*41
$BDGSV,2,1,05,08,00,000,40,13,00,000,42,14,00,000,42,27,00,000,42*66
$BDGSV,2,2,05,28,00,000,44*57
$LOGTIM,0,0.000000,0.000000,0.000000,0.000000,0.000*0A
EndT:        1
---00000013--- Acq_st=7 2019-5-25 08:47:2 
[00]  G03  f 43   2034.8 2045997.4  1.0  1.0  5  0 550039832
[01]  G17  f 39  -1387.2 2046001.8  1.0  1.0  5  0 550039835
[02]  G19  f 41  -2165.2 2046002.8  1.0  1.0  5  0 550039834
[16]  B08  7 40    -78.1 4092000.2  1.0  1.0  5  0      6783
[17]  B13  7 42   -259.3 4092000.6  1.0  1.0  5  0      6160
[18]  B14  7 43   1104.9 4091997.1  1.0  1.0  5  0      5886
[19]  B27  7 42  -2481.1 4092006.5  1.0  1.0  5  0      2679
[20]  B28  7 44  -1379.7 4092003.6  1.0  1.0  5  0      2650
$GNGGA,000000.000,,,,,0,00,,,M,,,,0000*2B
$GNRMC,000000.000,A,,,,,,,000000,,*26
$GPGSA,A,1,,,,,,,,,,,,,,,*1E
$BDGSA,A,1,,,,,,,,,,,,,,,*0F
$GPGSV,1,1,03,03,00,000,43,17,00,000,39,19,00,000,41*4F
$BDGSV,2,1,05,08,00,000,40,13,00,000,42,14,00,000,43,27,00,000,42*67
$BDGSV,2,2,05,28,00,000,44*57
$LOGTIM,0,0.000000,0.000000,0.000000,0.000000,0.000*0A
EndT:        0
GPS acq_max:3915
GPS acq_max:3808
GPS acq_max:4065
GPS acq_max:4073
GPS acq_max:4081
GPS acq_max:3808
GPS acq_max:4364
GPS acq_max:3924
SatID=0
GPS acq_max:4067
GPS acq_max:3866
GPS acq_max:4005
GPS acq_max:4176
GPS acq_max:3645
GPS acq_max:3837
GPS acq_max:3549
GPS acq_max:3950
SatID=0
GPS acq_max:4007
GPS acq_max:3686
GPS acq_max:4055
GPS acq_max:3815
GPS acq_max:3931
GPS acq_max:3847
GPS acq_max:4267
GPS acq_max:3564
SatID=0
GPS acq_max:4002
GPS acq_max:4008
GPS acq_max:3952
GPS acq_max:4060
GPS acq_max:7730
GPS acq_max:16220
GPS acq_max:19549
GPS acq_max:17719
SatID=0
GPS acq_max:9597
GPS acq_max:4093
GPS acq_max:4335
GPS acq_max:4540
GPS acq_max:4592
GPS acq_max:4184
GPS acq_max:4036
GPS acq_max:4344
SatID=0
sat0 = 19549 447 2024 -2500
ch3 satid=0,max_freq = -2500,max_mean = 2024,max_phase = 447,max_value = 19549,acq ok1!
acq ok1 timeH = 0,timeL = 250602674,freq_stage = 4
GPS acq_max:4105
GPS acq_max:3778
GPS acq_max:4653
GPS acq_max:4624
GPS acq_max:4264
GPS acq_max:4031
GPS acq_max:4215
GPS acq_max:4070
SatID=1
GPS acq_max:4391
GPS acq_max:4534
GPS acq_max:4299
GPS acq_max:4217
GPS acq_max:4070
GPS acq_max:3700
GPS acq_max:3555
GPS acq_max:3913
SatID=1
GPS acq_max:3958
GPS acq_max:3897
GPS acq_max:3645
GPS acq_max:3840
GPS acq_max:3959
GPS acq_max:3918
GPS acq_max:3886
GPS acq_max:3924
SatID=1
GPS acq_max:3763
GPS acq_max:4197
GPS acq_max:3807
GPS acq_max:4120
GPS acq_max:3892
GPS acq_max:3863
GPS acq_max:3906
GPS acq_max:3861
SatID=1
GPS acq_max:3673
GPS acq_max:3824
GPS acq_max:3859
GPS acq_max:4199
GPS acq_max:4144
GPS acq_max:3590
GPS acq_max:3637
GPS acq_max:3995
SatID=1
sat1 = 4653 1053 2005 4500
GPS acq_max:3939
GPS acq_max:4163
GPS acq_max:3963
GPS acq_max:3798
GPS acq_max:4137
GPS acq_max:4238
GPS acq_max:3996
GPS acq_max:3745
SatID=3
GPS acq_max:3693
GPS acq_max:3709
GPS acq_max:3948
GPS acq_max:3886
GPS acq_max:3682
GPS acq_max:4241
GPS acq_max:3980
GPS acq_max:3711
SatID=3
GPS acq_max:3635
GPS acq_max:4164
GPS acq_max:4210
GPS acq_max:3927
GPS acq_max:4282
GPS acq_max:4012
GPS acq_max:3850
GPS acq_max:3796
SatID=3
GPS acq_max:3879
GPS acq_max:3970
GPS acq_max:3764
GPS acq_max:3765
GPS acq_max:3667
GPS acq_max:4061
GPS acq_max:3758
GPS acq_max:3890
SatID=3
GPS acq_max:4411
GPS acq_max:4187
GPS acq_max:3897
GPS acq_max:3560
GPS acq_max:4092
GPS acq_max:3822
GPS acq_max:3813
GPS acq_max:3971
SatID=3
sat3 = 4411 1116 1983 -3000
GPS acq_max:4288
GPS acq_max:4097
GPS acq_max:3880
GPS acq_max:3963
GPS acq_max:4234
GPS acq_max:3893
GPS acq_max:3584
GPS acq_max:3781
SatID=4
GPS acq_max:3995
GPS acq_max:3700
GPS acq_max:3961
GPS acq_max:3831
GPS acq_max:4159
GPS acq_max:3905
GPS acq_max:4044
GPS acq_max:3831
SatID=4
GPS acq_max:4052
GPS acq_max:3638
GPS acq_max:3683
GPS acq_max:3705
GPS acq_max:3791
GPS acq_max:3911
GPS acq_max:4037
GPS acq_max:3977
SatID=4
GPS acq_max:4057
GPS acq_max:4194
GPS acq_max:4465
GPS acq_max:4073
GPS acq_max:3965
GPS acq_max:3928
GPS acq_max:3765
GPS acq_max:4022
SatID=4
GPS acq_max:3888
GPS acq_max:3984
GPS acq_max:3829
GPS acq_max:3969
GPS acq_max:4194
GPS acq_max:4088
GPS acq_max:4010
GPS acq_max:3948
SatID=4
sat4 = 4465 1029 1992 -1500
GPS acq_max:3924
GPS acq_max:3992
GPS acq_max:4373
GPS acq_max:3715
GPS acq_max:3833
GPS acq_max:3864
GPS acq_max:3683
GPS acq_max:3621
SatID=5
GPS acq_max:3908
GPS acq_max:4170
GPS acq_max:3795
GPS acq_max:3889
GPS acq_max:4301
GPS acq_max:4224
GPS acq_max:4095
GPS acq_max:4127
SatID=5
GPS acq_max:4397
GPS acq_max:3745
GPS acq_max:3424
GPS acq_max:3776
GPS acq_max:3731
GPS acq_max:3848
GPS acq_max:4277
GPS acq_max:3750
SatID=5
GPS acq_max:3610
GPS acq_max:3617
GPS acq_max:3614
GPS acq_max:3633
GPS acq_max:4117
GPS acq_max:3935
GPS acq_max:3699
GPS acq_max:3931
SatID=5
GPS acq_max:3793
GPS acq_max:4247
GPS acq_max:4158
GPS acq_max:4180
GPS acq_max:3931
GPS acq_max:3912
GPS acq_max:3886
GPS acq_max:3664
SatID=5
sat5 = 4397 518 1974 1000
GPS acq_max:4053
GPS acq_max:3843
GPS acq_max:4092
GPS acq_max:4136
GPS acq_max:3910
GPS acq_max:3900
GPS acq_max:3922
GPS acq_max:3911
SatID=6
GPS acq_max:3567
GPS acq_max:3862
GPS acq_max:3530
GPS acq_max:3642
GPS acq_max:3852
GPS acq_max:3807
GPS acq_max:4291
GPS acq_max:4031
SatID=6
GPS acq_max:3736
GPS acq_max:3710
GPS acq_max:3700
GPS acq_max:3831
GPS acq_max:3674
GPS acq_max:3749
GPS acq_max:3815
GPS acq_max:3705
SatID=6
GPS acq_max:4708
GPS acq_max:3465
GPS acq_max:3472
GPS acq_max:3700
GPS acq_max:3637
GPS acq_max:3815
GPS acq_max:4106
GPS acq_max:3496
SatID=6
GPS acq_max:3968
GPS acq_max:3969
GPS acq_max:3600
GPS acq_max:3566
GPS acq_max:3667
GPS acq_max:3859
GPS acq_max:4038
GPS acq_max:4078
SatID=6
sat6 = 4708 1982 2001 -1000
GPS acq_max:3905
GPS acq_max:3813
GPS acq_max:3858
GPS acq_max:4640
GPS acq_max:3929
GPS acq_max:3618
GPS acq_max:3684
GPS acq_max:3812
SatID=7
GPS acq_max:3797
GPS acq_max:3636
GPS acq_max:3780
GPS acq_max:3868
GPS acq_max:3713
GPS acq_max:3941
GPS acq_max:4390
GPS acq_max:3893
SatID=7
GPS acq_max:4190
GPS acq_max:3968
GPS acq_max:3678
GPS acq_max:3632
GPS acq_max:3721
GPS acq_max:3568
GPS acq_max:3757
GPS acq_max:3499
SatID=7
GPS acq_max:4055
GPS acq_max:3967
GPS acq_max:3814
GPS acq_max:3677
GPS acq_max:3732
GPS acq_max:3879
GPS acq_max:3880
GPS acq_max:3875
SatID=7
GPS acq_max:3750
GPS acq_max:3656
GPS acq_max:3925
GPS acq_max:3684
GPS acq_max:3632
GPS acq_max:3765
GPS acq_max:4095
GPS acq_max:3898
SatID=7
sat7 = 4640 1819 1955 4250
GPS acq_max:4233
GPS acq_max:3742
GPS acq_max:3641
GPS acq_max:3989
GPS acq_max:3939
GPS acq_max:4141
GPS acq_max:4045
GPS acq_max:3603
SatID=8
GPS acq_max:4417
GPS acq_max:4357
GPS acq_max:3893
GPS acq_max:3934
GPS acq_max:3869
GPS acq_max:4128
GPS acq_max:4315
GPS acq_max:3863
SatID=8
GPS acq_max:3809
GPS acq_max:4080
GPS acq_max:4286
GPS acq_max:4548
GPS acq_max:4004
GPS acq_max:3958
GPS acq_max:4061
GPS acq_max:3868
SatID=8
GPS acq_max:3530
GPS acq_max:3647
GPS acq_max:3763
GPS acq_max:3921
GPS acq_max:3904
GPS acq_max:4011
GPS acq_max:3993
GPS acq_max:3766
SatID=8
GPS acq_max:3967
GPS acq_max:4435
GPS acq_max:4203
GPS acq_max:3909
GPS acq_max:4044
GPS acq_max:3549
GPS acq_max:3732
GPS acq_max:3716
SatID=8
sat8 = 4548 744 1979 250
GPS acq_max:3480
GPS acq_max:3867
GPS acq_max:4162
GPS acq_max:3789
GPS acq_max:3876
GPS acq_max:3616
GPS acq_max:3943
GPS acq_max:3807
SatID=9
GPS acq_max:4418
GPS acq_max:4736
GPS acq_max:4769
GPS acq_max:3802
GPS acq_max:3856
GPS acq_max:3752
GPS acq_max:3749
GPS acq_max:4158
SatID=9
---00000014--- Acq_st=3 2019-5-25 08:47:3 
[00]  G03  f 42   2036.1 2045997.4  1.0  1.0  5  0 550040832
[01]  G17  f 39  -1386.6 2046001.8  1.0  1.0  5  0 550040835
[02]  G19  f 41  -2164.0 2046002.8  1.0  1.0  5  0 550040834
[03]  G01  1 27   2550.2 2045996.7 -0.0  0.0  1  0         0
[16]  B08 1f 40    -77.6 4092000.2  1.0  1.0  5  0      7783
[17]  B13 1f 42   -258.7 4092000.7  1.0  1.0  5  0      7160
[18]  B14 1f 43   1105.8 4091997.1  1.0  1.0  5  0      6886
[19]  B27 1f 42  -2480.4 4092006.5  1.0  1.0  5  0      3679
[20]  B28 1f 44  -1378.7 4092003.6  1.0  1.0  5  0      3650
GPS acq_max:3967
GPS acq_max:3662
GPS acq_max:3702
GPS acq_max:3895
GPS acq_max:3886
GPS acq_max:3864
GPS acq_max:4024
GPS acq_max:3851
SatID=9
$GNGGA,000000.000,,,,,0,00,,,M,,,,0000*2B
$GNRMC,000000.000,A,,,,,,,000000,,*26
$GPGSA,A,1,,,,,,,,,,,,,,,*1E
$BDGSA,A,1,,,,,,,,,,,,,,,*0F
$GPGSV,1,1,03,03,00,000,42,17,00,000,39,19,00,000,41*4E
$BDGSV,2,1,05,08,00,000,40,13,00,000,42,14,00,000,43,27,00,000,42*67
$BDGSV,2,2,05,28,00,000,44*57
$LOGTIM,0,0.000000,0.000000,0.000000,0.000000,0.000*0A
EndT:        0
GPS acq_max:3876
GPS acq_max:4014
GPS acq_max:4052
GPS acq_max:4229
GPS acq_max:3536
GPS acq_max:3713
GPS acq_max:3621
GPS acq_max:3652
SatID=9
GPS acq_max:3805
GPS acq_max:3747
GPS acq_max:3678
GPS acq_max:3622
GPS acq_max:3840
GPS acq_max:3955
GPS acq_max:3584
GPS acq_max:3656
SatID=9
sat9 = 4769 747 1950 2500
GPS acq_max:3705
GPS acq_max:3750
GPS acq_max:3929
GPS acq_max:3793
GPS acq_max:3597
GPS acq_max:4061
GPS acq_max:3715
GPS acq_max:3835
SatID=10
GPS acq_max:3639
GPS acq_max:3751
GPS acq_max:3869
GPS acq_max:4006
GPS acq_max:3896
GPS acq_max:3907
GPS acq_max:3949
GPS acq_max:4630
SatID=10
GPS acq_max:4108
GPS acq_max:4012
GPS acq_max:3681
GPS acq_max:3617
GPS acq_max:3869
GPS acq_max:4050
GPS acq_max:4399
GPS acq_max:3688
SatID=10
GPS acq_max:3777
GPS acq_max:3678
GPS acq_max:3949
GPS acq_max:3989
GPS acq_max:3758
GPS acq_max:3679
GPS acq_max:3792
GPS acq_max:3886
SatID=10
GPS acq_max:3593
GPS acq_max:3875
GPS acq_max:3797
GPS acq_max:3742
GPS acq_max:3933
GPS acq_max:4016
GPS acq_max:3951
GPS acq_max:3377
SatID=10
sat10 = 4630 1824 1965 1250
GPS acq_max:3756
GPS acq_max:3701
GPS acq_max:3955
GPS acq_max:4112
GPS acq_max:3759
GPS acq_max:3877
GPS acq_max:3776
GPS acq_max:3484
SatID=11
GPS acq_max:3618
GPS acq_max:3726
GPS acq_max:3894
GPS acq_max:4759
GPS acq_max:4653
GPS acq_max:4295
GPS acq_max:3791
GPS acq_max:3678
SatID=11
GPS acq_max:4208
GPS acq_max:3615
GPS acq_max:3633
GPS acq_max:3792
GPS acq_max:3767
GPS acq_max:3728
GPS acq_max:3777
GPS acq_max:3485
SatID=11
GPS acq_max:3600
GPS acq_max:3806
GPS acq_max:3806
GPS acq_max:3907
GPS acq_max:3522
GPS acq_max:3753
GPS acq_max:3971
GPS acq_max:3581
SatID=11
GPS acq_max:3949
GPS acq_max:3621
GPS acq_max:3905
GPS acq_max:3970
GPS acq_max:3789
GPS acq_max:4065
GPS acq_max:3796
GPS acq_max:3752
SatID=11
sat11 = 4759 1011 1962 2250
GPS acq_max:3993
GPS acq_max:3869
GPS acq_max:3683
GPS acq_max:3930
GPS acq_max:4046
GPS acq_max:4527
GPS acq_max:4581
GPS acq_max:3789
SatID=12
GPS acq_max:4082
GPS acq_max:3942
GPS acq_max:4071
GPS acq_max:4059
GPS acq_max:3835
GPS acq_max:3701
GPS acq_max:4038
GPS acq_max:3940
SatID=12
GPS acq_max:3943
GPS acq_max:3957
GPS acq_max:3797
GPS acq_max:3768
GPS acq_max:4070
GPS acq_max:3623
GPS acq_max:3694
GPS acq_max:3920
SatID=12
GPS acq_max:3679
GPS acq_max:3784
GPS acq_max:4065
GPS acq_max:3947
GPS acq_max:3921
GPS acq_max:3828
GPS acq_max:3803
GPS acq_max:3968
SatID=12
GPS acq_max:3721
GPS acq_max:3880
GPS acq_max:4079
GPS acq_max:3732
GPS acq_max:3813
GPS acq_max:3924
GPS acq_max:3789
GPS acq_max:4247
SatID=12
sat12 = 4581 1641 2002 3500
GPS acq_max:3737
GPS acq_max:3551
GPS acq_max:3921
GPS acq_max:3657
GPS acq_max:4123
GPS acq_max:3539
GPS acq_max:3763
GPS acq_max:3923
SatID=13
GPS acq_max:3740
GPS acq_max:3957
GPS acq_max:4173
GPS acq_max:4038
GPS acq_max:3798
GPS acq_max:4044
GPS acq_max:3676
GPS acq_max:3581
SatID=13
GPS acq_max:3573
GPS acq_max:3607
GPS acq_max:3584
GPS acq_max:3442
GPS acq_max:3655
GPS acq_max:4551
GPS acq_max:3655
GPS acq_max:3867
SatID=13
GPS acq_max:3976
GPS acq_max:3968
GPS acq_max:4210
GPS acq_max:3975
GPS acq_max:4023
GPS acq_max:3917
GPS acq_max:4426
GPS acq_max:4485
SatID=13
GPS acq_max:4291
GPS acq_max:3935
GPS acq_max:4092
GPS acq_max:3655
GPS acq_max:3838
GPS acq_max:3996
GPS acq_max:4051
GPS acq_max:4322
SatID=13
sat13 = 4551 725 1976 -250
GPS acq_max:3493
GPS acq_max:4013
GPS acq_max:3587
GPS acq_max:3651
GPS acq_max:4103
GPS acq_max:4092
GPS acq_max:4559
GPS acq_max:4316
SatID=14
GPS acq_max:4122
GPS acq_max:4362
GPS acq_max:4369
GPS acq_max:3847
GPS acq_max:4052
GPS acq_max:3801
GPS acq_max:3873
GPS acq_max:4090
SatID=14
GPS acq_max:4251
GPS acq_max:3619
GPS acq_max:3558
GPS acq_max:4052
GPS acq_max:3781
GPS acq_max:4118
GPS acq_max:4061
GPS acq_max:3887
SatID=14
GPS acq_max:3743
GPS acq_max:3747
GPS acq_max:3840
GPS acq_max:4037
GPS acq_max:3895
GPS acq_max:4165
GPS acq_max:3730
GPS acq_max:3452
SatID=14
GPS acq_max:3834
GPS acq_max:3921
GPS acq_max:3786
GPS acq_max:3744
GPS acq_max:4360
GPS acq_max:3961
GPS acq_max:3547
GPS acq_max:3898
SatID=14
sat14 = 4559 62 1988 3500
GPS acq_max:3995
GPS acq_max:4518
GPS acq_max:4175
GPS acq_max:3797
GPS acq_max:3822
GPS acq_max:4104
GPS acq_max:3750
GPS acq_max:3940
SatID=15
GPS acq_max:3609
GPS acq_max:4052
GPS acq_max:3690
GPS acq_max:3591
GPS acq_max:3429
GPS acq_max:3672
GPS acq_max:4108
GPS acq_max:4078
SatID=15
GPS acq_max:3748
GPS acq_max:4145
GPS acq_max:3724
GPS acq_max:3842
GPS acq_max:3843
GPS acq_max:3771
GPS acq_max:4222
GPS acq_max:3540
SatID=15
GPS acq_max:3655
GPS acq_max:3791
GPS acq_max:3642
GPS acq_max:3549
GPS acq_max:3558
GPS acq_max:3857
GPS acq_max:4253
GPS acq_max:4067
SatID=15
GPS acq_max:3822
GPS acq_max:3553
GPS acq_max:3935
GPS acq_max:4045
GPS acq_max:3932
GPS acq_max:3822
GPS acq_max:3588
GPS acq_max:3656
SatID=15
sat15 = 4518 355 1935 4750
GPS acq_max:3954
GPS acq_max:3635
GPS acq_max:3582
GPS acq_max:4021
GPS acq_max:3919
GPS acq_max:3757
GPS acq_max:3670
GPS acq_max:3829
SatID=17
GPS acq_max:4116
GPS acq_max:3946
GPS acq_max:4340
GPS acq_max:3707
GPS acq_max:4165
GPS acq_max:3705
GPS acq_max:3732
GPS acq_max:3554
SatID=17
GPS acq_max:3619
GPS acq_max:3623
GPS acq_max:4002
GPS acq_max:4040
GPS acq_max:3749
GPS acq_max:3851
GPS acq_max:3696
GPS acq_max:3848
SatID=17
GPS acq_max:4770
GPS acq_max:4065
GPS acq_max:4018
GPS acq_max:4075
GPS acq_max:4022
GPS acq_max:3741
GPS acq_max:3681
GPS acq_max:3948
SatID=17
GPS acq_max:3884
GPS acq_max:3944
GPS acq_max:3856
GPS acq_max:3977
GPS acq_max:3875
GPS acq_max:3727
GPS acq_max:3670
GPS acq_max:3826
SatID=17
sat17 = 4770 1701 1949 -1000
GPS acq_max:3705
GPS acq_max:3878
GPS acq_max:3839
GPS acq_max:3959
GPS acq_max:3644
GPS acq_max:3656
GPS acq_max:3527
GPS acq_max:3893
SatID=19
GPS acq_max:3637
GPS acq_max:4037
GPS acq_max:3954
GPS acq_max:4460
GPS acq_max:3722
GPS acq_max:3572
GPS acq_max:3967
GPS acq_max:3687
SatID=19
GPS acq_max:3686
GPS acq_max:3778
GPS acq_max:3728
GPS acq_max:3526
GPS acq_max:3620
GPS acq_max:4065
GPS acq_max:3880
GPS acq_max:4086
SatID=19
GPS acq_max:3787
GPS acq_max:3504
GPS acq_max:4094
GPS acq_max:4038
GPS acq_max:4362
GPS acq_max:4046
GPS acq_max:4032
GPS acq_max:4150
SatID=19
---00000015--- Acq_st=3 2019-5-25 08:47:4 
[00]  G03  f 42   2038.6 2045997.4  1.0  1.0  5  0 550041832
[01]  G17  f 39  -1383.8 2046001.8  1.0  1.0  5  0 550041835
[02]  G19  f 40  -2161.9 2046002.8  1.0  1.0  5  0 550041834
[03]  G01  7 26   2576.5 2045996.7  0.0  0.7 20  0        19
[16]  B08 1f 40    -74.9 4092000.2  1.0  1.0  5  0 550027783
[17]  B13 1f 42   -256.1 4092000.7  1.0  1.0  5  0 550027780
[18]  B14 1f 43   1109.0 4091997.1  1.0  1.0  5  0 550027826
[19]  B27 1f 42  -2478.1 4092006.5  1.0  1.0  5  0 550027819
[20]  B28 1f 44  -1376.4 4092003.6  1.0  1.0  5  0 550027830
GPS acq_max:3683
GPS acq_max:3802
GPS acq_max:4319
GPS acq_max:3988
GPS acq_max:3976
GPS acq_max:3951
GPS acq_max:3502
GPS acq_max:3832
SatID=19
sat19 = 4460 1359 1961 2250
$GNGGA,000000.000,,,,,0,00,,,M,,,,0000*2B
$GNRMC,000000.000,A,,,,,,,000000,,*26
$GPGSA,A,1,,,,,,,,,,,,,,,*1E
$BDGSA,A,1,,,,,,,,,,,,,,,*0F
$GPGSV,1,1,04,03,00,000,42,17,00,000,39,19,00,000,40,01,00,000,26*7D
$BDGSV,2,1,05,08,00,000,40,13,00,000,42,14,00,000,43,27,00,000,42*67
$BDGSV,2,2,05,28,00,000,44*57
$LOGTIM,0,0.000000,0.000000,0.000000,0.000000,0.000*0A
EndT:        0
GPS acq_max:3941
GPS acq_max:3654
GPS acq_max:3641
GPS acq_max:3744
GPS acq_max:3555
GPS acq_max:3695
GPS acq_max:3627
GPS acq_max:3868
SatID=20
GPS acq_max:3991
GPS acq_max:3887
GPS acq_max:4171
GPS acq_max:3874
GPS acq_max:3966
GPS acq_max:4213
GPS acq_max:3939
GPS acq_max:3990
SatID=20
GPS acq_max:3956
GPS acq_max:3681
GPS acq_max:4240
GPS acq_max:3891
GPS acq_max:3755
GPS acq_max:3901
GPS acq_max:3847
GPS acq_max:3895
SatID=20
GPS acq_max:3624
GPS acq_max:4550
GPS acq_max:4108
GPS acq_max:3667
GPS acq_max:4189
GPS acq_max:3709
GPS acq_max:3600
GPS acq_max:3843
SatID=20
GPS acq_max:4249
GPS acq_max:3666
GPS acq_max:4318
GPS acq_max:4420
GPS acq_max:4676
GPS acq_max:3764
GPS acq_max:4129
GPS acq_max:3778
SatID=20
sat20 = 4676 350 1971 -4000
GPS acq_max:3823
GPS acq_max:3897
GPS acq_max:3475
GPS acq_max:3977
GPS acq_max:4183
GPS acq_max:3812
GPS acq_max:4051
GPS acq_max:4169
SatID=21
GPS acq_max:3796
GPS acq_max:4063
GPS acq_max:3704
GPS acq_max:3696
GPS acq_max:3624
GPS acq_max:3930
GPS acq_max:3928
GPS acq_max:3395
SatID=21
GPS acq_max:3867
GPS acq_max:3670
GPS acq_max:3906
GPS acq_max:3848
GPS acq_max:3491
GPS acq_max:3684
GPS acq_max:3646
GPS acq_max:4075
SatID=21
GPS acq_max:3609
GPS acq_max:3980
GPS acq_max:3669
GPS acq_max:4204
GPS acq_max:3794
GPS acq_max:4529
GPS acq_max:8252
GPS acq_max:10875
SatID=21
GPS acq_max:10216
GPS acq_max:7017
GPS acq_max:4249
GPS acq_max:4095
GPS acq_max:4065
GPS acq_max:4211
GPS acq_max:3951
GPS acq_max:3948
SatID=21
sat21 = 10875 1494 1983 -2750
ch4 satid=21,max_freq = -2750,max_mean = 1983,max_phase = 1494,max_value = 10875,acq ok1!
acq ok1 timeH = 0,timeL = 291515748,freq_stage = 4
GPS acq_max:4167
GPS acq_max:4108
GPS acq_max:4468
GPS acq_max:4068
GPS acq_max:3881
GPS acq_max:4133
GPS acq_max:3838
GPS acq_max:4147
SatID=22
GPS acq_max:4181
GPS acq_max:3901
GPS acq_max:3958
GPS acq_max:3868
GPS acq_max:3960
GPS acq_max:3690
GPS acq_max:3803
GPS acq_max:4094
SatID=22
GPS acq_max:3747
GPS acq_max:3854
GPS acq_max:3836
GPS acq_max:3766
GPS acq_max:4000
GPS acq_max:4271
GPS acq_max:4699
GPS acq_max:4087
SatID=22
GPS acq_max:4211
GPS acq_max:3809
GPS acq_max:3571
GPS acq_max:3733
GPS acq_max:4203
GPS acq_max:3627
GPS acq_max:3771
GPS acq_max:3799
SatID=22
GPS acq_max:4216
GPS acq_max:4020
GPS acq_max:3948
GPS acq_max:3700
GPS acq_max:3762
GPS acq_max:3961
GPS acq_max:4023
GPS acq_max:3828
SatID=22
sat22 = 4699 1922 2015 -500
GPS acq_max:3745
GPS acq_max:3912
GPS acq_max:4034
GPS acq_max:4034
GPS acq_max:4065
GPS acq_max:3819
GPS acq_max:3883
GPS acq_max:3912
SatID=23
GPS acq_max:3946
GPS acq_max:3981
GPS acq_max:4119
GPS acq_max:4582
GPS acq_max:4046
GPS acq_max:4084
GPS acq_max:4157
GPS acq_max:4075
SatID=23
GPS acq_max:3869
GPS acq_max:3902
GPS acq_max:4008
GPS acq_max:4004
GPS acq_max:3849
GPS acq_max:3744
GPS acq_max:3716
GPS acq_max:3643
SatID=23
GPS acq_max:3659
GPS acq_max:3698
GPS acq_max:4072
GPS acq_max:4247
GPS acq_max:3781
GPS acq_max:4002
GPS acq_max:3904
GPS acq_max:3817
SatID=23
GPS acq_max:4323
GPS acq_max:3994
GPS acq_max:4098
GPS acq_max:4397
GPS acq_max:4085
GPS acq_max:4197
GPS acq_max:4160
GPS acq_max:3850
SatID=23
sat23 = 4582 1263 2035 2250
GPS acq_max:4174
GPS acq_max:3801
GPS acq_max:3794
GPS acq_max:3972
GPS acq_max:3859
GPS acq_max:4052
GPS acq_max:3866
GPS acq_max:3724
SatID=24
GPS acq_max:4035
GPS acq_max:4144
GPS acq_max:4423
GPS acq_max:3733
GPS acq_max:3653
GPS acq_max:4054
GPS acq_max:3633
GPS acq_max:3526
SatID=24
GPS acq_max:4112
GPS acq_max:3608
GPS acq_max:3759
GPS acq_max:3708
GPS acq_max:3603
GPS acq_max:3861
GPS acq_max:3774
GPS acq_max:3976
SatID=24
GPS acq_max:3926
GPS acq_max:3995
GPS acq_max:4039
GPS acq_max:3997
GPS acq_max:3931
GPS acq_max:3813
GPS acq_max:4026
GPS acq_max:3926
SatID=24
GPS acq_max:3890
GPS acq_max:4102
GPS acq_max:3951
GPS acq_max:3765
GPS acq_max:3729
GPS acq_max:4040
GPS acq_max:4092
GPS acq_max:3782
SatID=24
sat24 = 4423 88 2001 2500
GPS acq_max:4335
GPS acq_max:3808
GPS acq_max:4143
GPS acq_max:3831
GPS acq_max:3751
GPS acq_max:3836
GPS acq_max:3915
GPS acq_max:3672
SatID=25
GPS acq_max:3963
GPS acq_max:3866
GPS acq_max:4147
GPS acq_max:4128
GPS acq_max:3670
GPS acq_max:3760
GPS acq_max:3790
GPS acq_max:4079
SatID=25
GPS acq_max:3934
GPS acq_max:3994
GPS acq_max:4225
GPS acq_max:3831
GPS acq_max:3944
GPS acq_max:3527
GPS acq_max:3873
GPS acq_max:3603
SatID=25
GPS acq_max:3725
GPS acq_max:3960
GPS acq_max:3774
GPS acq_max:3948
GPS acq_max:4032
GPS acq_max:3720
GPS acq_max:3902
GPS acq_max:3837
SatID=25
GPS acq_max:4296
GPS acq_max:3781
GPS acq_max:4321
GPS acq_max:4256
GPS acq_max:4086
GPS acq_max:3780
GPS acq_max:3943
GPS acq_max:3791
SatID=25
sat25 = 4335 745 2009 5000
GPS acq_max:3683
GPS acq_max:3490
GPS acq_max:4198
GPS acq_max:4238
GPS acq_max:3871
GPS acq_max:3626
GPS acq_max:3976
GPS acq_max:4049
SatID=26
GPS acq_max:3650
GPS acq_max:3611
GPS acq_max:3936
GPS acq_max:3842
GPS acq_max:4339
GPS acq_max:3873
GPS acq_max:4381
GPS acq_max:4287
SatID=26
GPS acq_max:4015
GPS acq_max:3759
GPS acq_max:4673
GPS acq_max:4299
GPS acq_max:3835
GPS acq_max:3884
GPS acq_max:3917
GPS acq_max:4061
SatID=26
GPS acq_max:3706
GPS acq_max:3791
GPS acq_max:3978
GPS acq_max:4440
GPS acq_max:4671
GPS acq_max:4451
GPS acq_max:3658
GPS acq_max:4089
SatID=26
GPS acq_max:3865
GPS acq_max:4009
GPS acq_max:3947
GPS acq_max:3958
GPS acq_max:4330
GPS acq_max:4578
GPS acq_max:3701
GPS acq_max:3632
SatID=26
sat26 = 4673 128 2008 500
GPS acq_max:4237
GPS acq_max:3975
GPS acq_max:3620
GPS acq_max:3667
GPS acq_max:3449
GPS acq_max:3704
GPS acq_max:3755
GPS acq_max:3815
SatID=27
GPS acq_max:3815
GPS acq_max:3966
GPS acq_max:3755
GPS acq_max:3833
GPS acq_max:4194
GPS acq_max:3801
GPS acq_max:3821
GPS acq_max:4127
SatID=27
GPS acq_max:4030
GPS acq_max:3744
GPS acq_max:3851
GPS acq_max:3994
GPS acq_max:3593
GPS acq_max:3541
GPS acq_max:3583
GPS acq_max:3713
SatID=27
GPS acq_max:3744
GPS acq_max:4196
GPS acq_max:4332
GPS acq_max:4437
GPS acq_max:4182
GPS acq_max:3678
GPS acq_max:3935
GPS acq_max:4039
SatID=27
GPS acq_max:3952
GPS acq_max:4135
GPS acq_max:4342
GPS acq_max:3776
GPS acq_max:3689
GPS acq_max:4052
GPS acq_max:4100
GPS acq_max:4145
SatID=27
sat27 = 4437 1556 1987 -1750
GPS acq_max:3924
GPS acq_max:3741
GPS acq_max:3843
GPS acq_max:3985
GPS acq_max:3798
GPS acq_max:4175
GPS acq_max:4036
GPS acq_max:3571
SatID=28
---00000016--- Acq_st=3 2019-5-25 08:47:5 
[00]  G03  f 42   2045.0 2045997.3  1.0  1.0  5  0 550042832
[01]  G17  f 40  -1377.2 2046001.8  1.0  1.0  5  0 550042835
[02]  G19  f 41  -2155.9 2046002.8  1.0  1.0  5  0 550042834
[03]  G01  7 27   2582.6 2045996.6 -0.0  0.2  5  0         4
[04]  G22  1 25   2790.5 2045997.4  0.0  0.0  1  0         0
[16]  B08 1f 40    -69.1 4092000.2  1.0  1.0  5  0 550028783
[17]  B13 1f 42   -250.5 4092000.7  1.0  1.0  5  0 550028780
[18]  B14 1f 43   1115.4 4091997.1  1.0  1.0  5  0 550028826
[19]  B27 1f 42  -2472.5 4092006.5  1.0  1.0  5  0 550028819
[20]  B28 1f 43  -1370.6 4092003.6  1.0  1.0  5  0 550028830
GPS acq_max:3816
GPS acq_max:4486
GPS acq_max:3947
GPS acq_max:3798
GPS acq_max:3922
GPS acq_max:4127
GPS acq_max:3652
GPS acq_max:3700
SatID=28
$GNGGA,000000.000,,,,,0,00,,,M,,,,0000*2B
$GNRMC,000000.000,A,,,,,,,000000,,*26
$GPGSA,A,1,,,,,,,,,,,,,,,*1E
$BDGSA,A,1,,,,,,,,,,,,,,,*0F
$GPGSV,1,1,04,03,00,000,42,17,00,000,40,19,00,000,41,01,00,000,27*73
$BDGSV,2,1,05,08,00,000,40,13,00,000,42,14,00,000,43,27,00,000,42*67
$BDGSV,2,2,05,28,00,000,43*50
$LOGTIM,0,0.000000,0.000000,0.000000,0.000000,0.000*0A
EndT:        0
GPS acq_max:3910
GPS acq_max:3580
GPS acq_max:3940
GPS acq_max:3607
GPS acq_max:3651
GPS acq_max:3932
GPS acq_max:3689
GPS acq_max:3758
SatID=28
GPS acq_max:3694
GPS acq_max:3877
GPS acq_max:3863
GPS acq_max:3992
GPS acq_max:3857
GPS acq_max:3710
GPS acq_max:3769
GPS acq_max:3820
SatID=28
GPS acq_max:3712
GPS acq_max:3746
GPS acq_max:4473
GPS acq_max:3927
GPS acq_max:4022
GPS acq_max:4195
GPS acq_max:3994
GPS acq_max:4230
SatID=28
sat28 = 4486 473 1987 2750
GPS acq_max:4301
GPS acq_max:3947
GPS acq_max:3741
GPS acq_max:3814
GPS acq_max:3791
GPS acq_max:3660
GPS acq_max:3749
GPS acq_max:3693
SatID=29
GPS acq_max:3780
GPS acq_max:3653
GPS acq_max:4067
GPS acq_max:3928
GPS acq_max:4696
GPS acq_max:4028
GPS acq_max:4260
GPS acq_max:4089
SatID=29
GPS acq_max:4191
GPS acq_max:3571
GPS acq_max:3604
GPS acq_max:3909
GPS acq_max:3800
GPS acq_max:3762
GPS acq_max:3562
GPS acq_max:3682
SatID=29
GPS acq_max:3677
GPS acq_max:3683
GPS acq_max:3983
GPS acq_max:3758
GPS acq_max:4132
GPS acq_max:4318
GPS acq_max:4044
GPS acq_max:3787
SatID=29
GPS acq_max:3974
GPS acq_max:3989
GPS acq_max:3660
GPS acq_max:3748
GPS acq_max:3851
GPS acq_max:3856
GPS acq_max:3815
GPS acq_max:3872
SatID=29
sat29 = 4696 781 1971 2000
GPS acq_max:3945
GPS acq_max:4066
