FlashID=0x1 0x20 0x18
BBram_blkflag1: 3df4: c20b
FW Ver: 1.30  
GPS00 Init Dop:  -1524,  8
GPS01 Init Dop:   5000, 40
GPS02 Init Dop:  -1215,  8
GPS03 Init Dop:   5000, 40
GPS04 Init Dop:   5000, 40
GPS05 Init Dop:   2511,  8
GPS06 Init Dop:   5000, 40
GPS07 Init Dop:   5000, 40
GPS08 Init Dop:   5000, 40
GPS09 Init Dop:   5000, 40
GPS10 Init Dop:   5000, 40
GPS11 Init Dop:   5000, 40
GPS12 Init Dop:   5000, 40
GPS13 Init Dop:   5000, 40
GPS14 Init Dop:   5000, 40
GPS15 Init Dop:   5000, 40
GPS16 Init Dop:   2301,  8
GPS17 Init Dop:   5000, 40
GPS18 Init Dop:   3086,  8
GPS19 Init Dop:   5000, 40
GPS20 Init Dop:   5000, 40
GPS21 Init Dop:   5000, 40
GPS22 Init Dop:   5000, 40
GPS23 Init Dop:   5000, 40
GPS24 Init Dop:   5000, 40
GPS25 Init Dop:   5000, 40
GPS26 Init Dop:   5000, 40
GPS27 Init Dop:   5000, 40
GPS28 Init Dop:   5000, 40
GPS29 Init Dop:   5000, 40
GPS30 Init Dop:   5000, 40
GPS31 Init Dop:   5000, 40
BDS00 Init Dop:   5000, 40
BDS01 Init Dop:   5000, 40
BDS02 Init Dop:   5000, 40
BDS03 Init Dop:   5000, 40
BDS04 Init Dop:   5000, 40
BDS05 Init Dop:   5000, 40
BDS06 Init Dop:   5000, 40
BDS07 Init Dop:    588,  4
BDS08 Init Dop:   5000, 40
BDS09 Init Dop:   5000, 40
BDS10 Init Dop:   5000, 40
BDS11 Init Dop:   5000, 40
BDS12 Init Dop:    750,  4
BDS13 Init Dop:   -803,  4
BDS14 Init Dop:   5000, 40
BDS15 Init Dop:   5000, 40
BDS16 Init Dop:   5000, 40
BDS17 Init Dop:   5000, 40
BDS18 Init Dop:   5000, 40
BDS19 Init Dop:   5000, 40
BDS20 Init Dop:   5000, 40
BDS21 Init Dop:   5000, 40
BDS22 Init Dop:   5000, 40
BDS23 Init Dop:   5000, 40
BDS24 Init Dop:   5000, 40
BDS25 Init Dop:   5000, 40
BDS26 Init Dop:   2989,  4
BDS27 Init Dop:   1834,  4
BDS28 Init Dop:   5000, 40
BDS29 Init Dop:   5000, 40
BDS30 Init Dop:   5000, 40
BDS31 Init Dop:   5000, 40
GPS acq_max:3759
GPS acq_max:6971
GPS acq_max:6201
GPS acq_max:3228
GPS acq_max:3598
GPS acq_max:3204
GPS acq_max:5307
GPS acq_max:3284
SatID=0
sat0 = 6971 531 2070 -1774
GPS acq_max:1417
GPS acq_max:1390
GPS acq_max:1417
GPS acq_max:1227
GPS acq_max:1333
GPS acq_max:1523
GPS acq_max:1344
GPS acq_max:1520
SatID=1
GPS acq_max:3740
GPS acq_max:4263
GPS acq_max:5720
GPS acq_max:5485
GPS acq_max:4477
GPS acq_max:3570
GPS acq_max:4063
GPS acq_max:3868
SatID=1
GPS acq_max:4400
GPS acq_max:4794
GPS acq_max:4447
GPS acq_max:4421
GPS acq_max:4497
GPS acq_max:4565
GPS acq_max:4592
GPS acq_max:4597
SatID=1
GPS acq_max:5497
GPS acq_max:4672
GPS acq_max:4999
GPS acq_max:4422
GPS acq_max:4387
GPS acq_max:4440
GPS acq_max:5119
GPS acq_max:4733
SatID=1
GPS acq_max:4704
GPS acq_max:4746
GPS acq_max:4413
GPS acq_max:4385
GPS acq_max:4179
GPS acq_max:4353
GPS acq_max:4421
GPS acq_max:4336
SatID=1
sat1 = 5720 1157 1888 2500
GPS acq_max:13043
GPS acq_max:8085
GPS acq_max:9711
GPS acq_max:13702
GPS acq_max:13181
GPS acq_max:16940
GPS acq_max:12166
GPS acq_max:19166
SatID=2
sat2 = 19166 1677 6136 -2965
GPS acq_max:4870
GPS acq_max:4455
GPS acq_max:4859
GPS acq_max:4754
GPS acq_max:4691
GPS acq_max:4459
GPS acq_max:4746
GPS acq_max:4596
SatID=3
GPS acq_max:4850
GPS acq_max:4840
GPS acq_max:4268
GPS acq_max:4488
GPS acq_max:4441
GPS acq_max:4407
GPS acq_max:4473
GPS acq_max:4146
SatID=3
GPS acq_max:5286
GPS acq_max:4696
GPS acq_max:4891
GPS acq_max:4893
GPS acq_max:4514
GPS acq_max:4840
GPS acq_max:4591
GPS acq_max:5085
SatID=3
GPS acq_max:4983
GPS acq_max:4812
GPS acq_max:4778
GPS acq_max:4160
GPS acq_max:4768
GPS acq_max:4573
GPS acq_max:4526
GPS acq_max:4673
SatID=3
GPS acq_max:4305
GPS acq_max:4446
GPS acq_max:4811
GPS acq_max:4764
GPS acq_max:4325
GPS acq_max:4999
GPS acq_max:4670
GPS acq_max:4228
SatID=3
sat3 = 5286 1079 2352 1000
GPS acq_max:4681
GPS acq_max:4554
GPS acq_max:4292
GPS acq_max:4257
GPS acq_max:5275
GPS acq_max:5238
GPS acq_max:5271
GPS acq_max:4436
SatID=4
GPS acq_max:5049
GPS acq_max:4645
GPS acq_max:4927
GPS acq_max:5054
GPS acq_max:4490
GPS acq_max:4684
GPS acq_max:4478
GPS acq_max:4540
SatID=4
GPS acq_max:5102
GPS acq_max:4647
GPS acq_max:4350
GPS acq_max:4328
GPS acq_max:4455
GPS acq_max:4560
GPS acq_max:4952
GPS acq_max:4873
SatID=4
GPS acq_max:4542
GPS acq_max:4062
GPS acq_max:4611
GPS acq_max:4578
GPS acq_max:4222
GPS acq_max:5128
GPS acq_max:4544
GPS acq_max:5162
SatID=4
GPS acq_max:4717
GPS acq_max:4352
GPS acq_max:4192
GPS acq_max:4634
GPS acq_max:4641
GPS acq_max:4743
GPS acq_max:4332
GPS acq_max:4672
SatID=4
sat4 = 5275 1963 2294 4000
GPS acq_max:4372
GPS acq_max:4812
GPS acq_max:15671
GPS acq_max:30384
GPS acq_max:40757
GPS acq_max:33444
GPS acq_max:16609
GPS acq_max:4819
SatID=5
sat5 = 40757 366 2336 1511
ch0 satid=5,max_freq = 1511,max_mean = 2336,max_phase = 366,max_value = 40757,acq ok1!
acq ok1 timeH = 0,timeL = 7904257,freq_stage = 2
GPS acq_max:4257
GPS acq_max:5101
GPS acq_max:4576
GPS acq_max:4792
GPS acq_max:4216
GPS acq_max:4511
GPS acq_max:4280
GPS acq_max:4697
SatID=6
GPS acq_max:4216
GPS acq_max:4378
GPS acq_max:4354
GPS acq_max:4566
GPS acq_max:4557
GPS acq_max:4497
GPS acq_max:4408
GPS acq_max:4630
SatID=6
GPS acq_max:4674
GPS acq_max:4251
GPS acq_max:4540
GPS acq_max:5286
GPS acq_max:4453
GPS acq_max:4427
GPS acq_max:4464
GPS acq_max:4457
SatID=6
GPS acq_max:4457
GPS acq_max:4757
GPS acq_max:5297
GPS acq_max:4843
GPS acq_max:4785
GPS acq_max:4511
GPS acq_max:4918
GPS acq_max:4496
SatID=6
GPS acq_max:4172
GPS acq_max:4316
GPS acq_max:4405
GPS acq_max:4879
GPS acq_max:4925
GPS acq_max:4850
GPS acq_max:4428
GPS acq_max:4897
SatID=6
sat6 = 5297 1091 2323 -1500
GPS acq_max:4725
GPS acq_max:4546
GPS acq_max:4811
GPS acq_max:5144
GPS acq_max:4231
GPS acq_max:4646
GPS acq_max:4419
GPS acq_max:4209
SatID=7
GPS acq_max:4521
GPS acq_max:4637
GPS acq_max:5168
GPS acq_max:4517
GPS acq_max:4835
GPS acq_max:4614
GPS acq_max:4576
GPS acq_max:4273
SatID=7
GPS acq_max:4130
GPS acq_max:4166
GPS acq_max:4075
GPS acq_max:4332
GPS acq_max:4171
GPS acq_max:4148
GPS acq_max:4508
GPS acq_max:4462
SatID=7
GPS acq_max:4056
GPS acq_max:3946
GPS acq_max:4386
GPS acq_max:4459
GPS acq_max:4148
GPS acq_max:4483
GPS acq_max:4136
GPS acq_max:4030
SatID=7
GPS acq_max:5311
GPS acq_max:4606
GPS acq_max:4953
GPS acq_max:4711
GPS acq_max:4609
GPS acq_max:4391
GPS acq_max:4681
GPS acq_max:4787
SatID=7
sat7 = 5311 1929 2251 -3000
GPS acq_max:4715
GPS acq_max:5032
GPS acq_max:5303
GPS acq_max:5144
GPS acq_max:5178
GPS acq_max:4925
GPS acq_max:4470
GPS acq_max:4972
SatID=8
GPS acq_max:4519
GPS acq_max:5116
GPS acq_max:5275
GPS acq_max:4429
GPS acq_max:4411
GPS acq_max:4478
GPS acq_max:4680
GPS acq_max:4953
SatID=8
GPS acq_max:4433
GPS acq_max:4439
GPS acq_max:4193
GPS acq_max:4493
GPS acq_max:4822
GPS acq_max:4870
GPS acq_max:4276
GPS acq_max:4457
SatID=8
GPS acq_max:4372
GPS acq_max:4631
GPS acq_max:4679
GPS acq_max:4647
GPS acq_max:4302
GPS acq_max:5090
GPS acq_max:4473
GPS acq_max:4310
SatID=8
GPS acq_max:4667
GPS acq_max:4525
GPS acq_max:4263
GPS acq_max:4485
GPS acq_max:4858
GPS acq_max:4370
GPS acq_max:4416
GPS acq_max:4274
SatID=8
sat8 = 5303 2022 2292 4500
GPS acq_max:4275
GPS acq_max:5135
GPS acq_max:4719
GPS acq_max:4506
GPS acq_max:4578
GPS acq_max:4155
GPS acq_max:4473
GPS acq_max:4567
SatID=9
GPS acq_max:4527
GPS acq_max:4263
GPS acq_max:5239
GPS acq_max:4594
GPS acq_max:4123
GPS acq_max:4063
GPS acq_max:5005
GPS acq_max:4981
SatID=9
GPS acq_max:4357
GPS acq_max:4515
GPS acq_max:4792
GPS acq_max:4907
GPS acq_max:4404
GPS acq_max:4973
GPS acq_max:4654
GPS acq_max:4977
SatID=9
GPS acq_max:4681
GPS acq_max:4371
GPS acq_max:4081
GPS acq_max:4120
GPS acq_max:4120
GPS acq_max:4745
GPS acq_max:4175
GPS acq_max:4550
SatID=9
GPS acq_max:4699
GPS acq_max:4381
GPS acq_max:4423
GPS acq_max:4504
GPS acq_max:4480
GPS acq_max:4239
GPS acq_max:4140
GPS acq_max:3930
SatID=9
sat9 = 5239 1204 2250 2500
GPS acq_max:4323
GPS acq_max:4826
GPS acq_max:4566
GPS acq_max:4540
GPS acq_max:4335
GPS acq_max:5233
GPS acq_max:4519
GPS acq_max:4459
SatID=10
GPS acq_max:4505
GPS acq_max:5013
GPS acq_max:4431
GPS acq_max:4118
GPS acq_max:4590
GPS acq_max:4279
GPS acq_max:4396
GPS acq_max:4784
SatID=10
GPS acq_max:4731
GPS acq_max:5178
GPS acq_max:4731
GPS acq_max:4795
GPS acq_max:4612
GPS acq_max:5380
GPS acq_max:5134
GPS acq_max:4220
SatID=10
---00000001--- Acq_st=3 2019-5-25 08:53:32 
[00]  G06  1 24  -1525.0 2046003.0  0.0  0.0  1  0         0
$GNGGA,000000.000,,,,,0,00,,,M,,,,0000*2B
$GNRMC,000000.000,A,,,,,,,000000,,*26
$GPGSA,A,1,,,,,,,,,,,,,,,*1E
$BDGSA,A,1,,,,,,,,,,,,,,,*0F
$LOGTIM,0,0.000000,0.000000,0.000000,0.000000,0.000*0A
EndT:        0
GPS acq_max:5147
GPS acq_max:4515
GPS acq_max:4501
GPS acq_max:4642
GPS acq_max:4506
GPS acq_max:4301
GPS acq_max:4318
GPS acq_max:4329
SatID=10
GPS acq_max:4510
GPS acq_max:4668
GPS acq_max:4311
GPS acq_max:4977
GPS acq_max:4765
GPS acq_max:4588
GPS acq_max:4245
GPS acq_max:4250
SatID=10
sat10 = 5380 1675 2260 -250
GPS acq_max:4285
GPS acq_max:4496
GPS acq_max:4758
GPS acq_max:4418
GPS acq_max:4700
GPS acq_max:4697
GPS acq_max:5031
GPS acq_max:4935
SatID=11
GPS acq_max:4153
GPS acq_max:4628
GPS acq_max:4488
GPS acq_max:4852
GPS acq_max:4462
GPS acq_max:4647
GPS acq_max:4125
GPS acq_max:4247
SatID=11
GPS acq_max:4492
GPS acq_max:4705
GPS acq_max:5120
GPS acq_max:4895
GPS acq_max:4524
GPS acq_max:4872
GPS acq_max:5065
GPS acq_max:4514
SatID=11
GPS acq_max:4355
GPS acq_max:4400
GPS acq_max:5093
GPS acq_max:4431
GPS acq_max:4222
GPS acq_max:4552
GPS acq_max:4658
GPS acq_max:4525
SatID=11
GPS acq_max:4971
GPS acq_max:4703
GPS acq_max:5082
GPS acq_max:5675
GPS acq_max:4723
GPS acq_max:4395
GPS acq_max:5007
GPS acq_max:4645
SatID=11
sat11 = 5675 1710 2280 -3750
GPS acq_max:4134
GPS acq_max:4389
GPS acq_max:4221
GPS acq_max:4467
GPS acq_max:4471
GPS acq_max:4855
GPS acq_max:4531
GPS acq_max:4265
SatID=12
GPS acq_max:4439
GPS acq_max:4752
GPS acq_max:4678
GPS acq_max:4479
GPS acq_max:4436
GPS acq_max:5025
GPS acq_max:5184
GPS acq_max:4567
SatID=12
GPS acq_max:4416
GPS acq_max:4540
GPS acq_max:4180
GPS acq_max:4421
GPS acq_max:4534
GPS acq_max:4244
GPS acq_max:4497
GPS acq_max:4404
SatID=12
GPS acq_max:4599
GPS acq_max:4641
GPS acq_max:4477
GPS acq_max:4874
GPS acq_max:4580
GPS acq_max:4204
GPS acq_max:4714
GPS acq_max:4862
SatID=12
GPS acq_max:4412
GPS acq_max:4537
GPS acq_max:4762
GPS acq_max:4409
GPS acq_max:4442
GPS acq_max:4683
GPS acq_max:4661
GPS acq_max:4337
SatID=12
sat12 = 5184 106 2270 1500
GPS acq_max:4429
GPS acq_max:4537
GPS acq_max:4442
GPS acq_max:5390
GPS acq_max:5515
GPS acq_max:4426
GPS acq_max:4322
GPS acq_max:4642
SatID=13
GPS acq_max:4844
GPS acq_max:4421
GPS acq_max:4666
GPS acq_max:5058
GPS acq_max:5422
GPS acq_max:4480
GPS acq_max:4997
GPS acq_max:4336
SatID=13
GPS acq_max:4721
GPS acq_max:4625
GPS acq_max:4440
GPS acq_max:4516
GPS acq_max:4709
GPS acq_max:4478
GPS acq_max:4737
GPS acq_max:4291
SatID=13
GPS acq_max:4313
GPS acq_max:4958
GPS acq_max:5118
GPS acq_max:4487
GPS acq_max:4582
GPS acq_max:4661
GPS acq_max:4286
GPS acq_max:4705
SatID=13
GPS acq_max:5070
GPS acq_max:4604
GPS acq_max:4489
GPS acq_max:4483
GPS acq_max:4477
GPS acq_max:4516
GPS acq_max:5105
GPS acq_max:4515
SatID=13
sat13 = 5515 1560 2273 4000
GPS acq_max:4261
GPS acq_max:4425
GPS acq_max:4148
GPS acq_max:5008
GPS acq_max:4668
GPS acq_max:4230
GPS acq_max:4053
GPS acq_max:4454
SatID=14
GPS acq_max:4523
GPS acq_max:4518
GPS acq_max:4034
GPS acq_max:4261
GPS acq_max:4534
GPS acq_max:5021
GPS acq_max:4478
GPS acq_max:4244
SatID=14
GPS acq_max:4376
GPS acq_max:4880
GPS acq_max:4233
GPS acq_max:4750
GPS acq_max:4433
GPS acq_max:5170
GPS acq_max:5338
GPS acq_max:4648
SatID=14
GPS acq_max:4296
GPS acq_max:4797
GPS acq_max:4347
GPS acq_max:4466
GPS acq_max:4265
GPS acq_max:4536
GPS acq_max:4749
GPS acq_max:4855
SatID=14
GPS acq_max:4736
GPS acq_max:4419
GPS acq_max:4213
GPS acq_max:4362
GPS acq_max:4757
GPS acq_max:4600
GPS acq_max:4495
GPS acq_max:4608
SatID=14
sat14 = 5338 1870 2276 -500
GPS acq_max:4458
GPS acq_max:4840
GPS acq_max:4771
GPS acq_max:4848
GPS acq_max:4499
GPS acq_max:4941
GPS acq_max:4364
GPS acq_max:4578
SatID=15
GPS acq_max:4280
GPS acq_max:4479
GPS acq_max:4577
GPS acq_max:4222
GPS acq_max:4433
GPS acq_max:4392
GPS acq_max:4611
GPS acq_max:4341
SatID=15
GPS acq_max:4492
GPS acq_max:4061
GPS acq_max:4172
GPS acq_max:4329
GPS acq_max:4978
GPS acq_max:4981
GPS acq_max:4789
GPS acq_max:4772
SatID=15
GPS acq_max:4303
GPS acq_max:4344
GPS acq_max:4249
GPS acq_max:4397
GPS acq_max:4541
GPS acq_max:4424
GPS acq_max:4892
GPS acq_max:5182
SatID=15
GPS acq_max:4356
GPS acq_max:4064
GPS acq_max:4237
GPS acq_max:4284
GPS acq_max:4790
GPS acq_max:4981
GPS acq_max:4250
GPS acq_max:4505
SatID=15
sat15 = 5182 35 2257 -2750
GPS acq_max:4485
GPS acq_max:6637
GPS acq_max:27515
GPS acq_max:53954
GPS acq_max:63776
GPS acq_max:50185
GPS acq_max:23202
GPS acq_max:4783
SatID=16
sat16 = 63776 1805 2339 1301
ch1 satid=16,max_freq = 1301,max_mean = 2339,max_phase = 1805,max_value = 63776,acq ok1!
acq ok1 timeH = 0,timeL = 31103686,freq_stage = 2
GPS acq_max:4216
GPS acq_max:4331
GPS acq_max:4342
GPS acq_max:4786
GPS acq_max:5001
GPS acq_max:5312
GPS acq_max:4400
GPS acq_max:4308
SatID=17
GPS acq_max:4401
GPS acq_max:4497
GPS acq_max:4336
GPS acq_max:4759
GPS acq_max:5077
GPS acq_max:4405
GPS acq_max:4292
GPS acq_max:4352
SatID=17
GPS acq_max:4981
GPS acq_max:4465
GPS acq_max:4448
GPS acq_max:4375
GPS acq_max:4318
GPS acq_max:4519
GPS acq_max:4138
GPS acq_max:4327
SatID=17
GPS acq_max:4764
GPS acq_max:4432
GPS acq_max:4530
GPS acq_max:4202
GPS acq_max:4348
GPS acq_max:4991
GPS acq_max:4278
GPS acq_max:4757
SatID=17
GPS acq_max:4652
GPS acq_max:4208
GPS acq_max:4872
GPS acq_max:4488
GPS acq_max:4475
GPS acq_max:4497
GPS acq_max:4560
GPS acq_max:4472
SatID=17
sat17 = 5312 463 2268 3750
GPS acq_max:4591
GPS acq_max:9473
GPS acq_max:37524
GPS acq_max:69990
GPS acq_max:84252
GPS acq_max:65433
GPS acq_max:32588
GPS acq_max:8510
SatID=18
sat18 = 84252 1575 2343 2086
ch2 satid=18,max_freq = 2086,max_mean = 2343,max_phase = 1575,max_value = 84252,acq ok1!
acq ok1 timeH = 0,timeL = 33846569,freq_stage = 2
GPS acq_max:4591
GPS acq_max:4575
GPS acq_max:4932
GPS acq_max:4658
GPS acq_max:4467
GPS acq_max:4138
GPS acq_max:4791
GPS acq_max:4264
SatID=19
GPS acq_max:4527
GPS acq_max:4805
GPS acq_max:4734
GPS acq_max:4907
GPS acq_max:4657
GPS acq_max:4665
GPS acq_max:4429
GPS acq_max:4560
SatID=19
GPS acq_max:4819
GPS acq_max:4459
GPS acq_max:4886
GPS acq_max:4601
GPS acq_max:4821
GPS acq_max:5183
GPS acq_max:4811
GPS acq_max:4555
SatID=19
GPS acq_max:4782
GPS acq_max:4679
GPS acq_max:4443
GPS acq_max:5067
GPS acq_max:4773
GPS acq_max:4498
GPS acq_max:4728
GPS acq_max:4726
SatID=19
GPS acq_max:4604
GPS acq_max:4575
GPS acq_max:4577
GPS acq_max:4705
GPS acq_max:4675
GPS acq_max:5445
GPS acq_max:4926
GPS acq_max:4623
SatID=19
sat19 = 5445 1287 2311 -4250
GPS acq_max:4300
GPS acq_max:4455
GPS acq_max:4225
GPS acq_max:4695
GPS acq_max:5436
GPS acq_max:5518
GPS acq_max:5095
GPS acq_max:4388
SatID=20
GPS acq_max:4382
GPS acq_max:4163
GPS acq_max:4713
GPS acq_max:4307
GPS acq_max:4730
GPS acq_max:4845
GPS acq_max:4293
GPS acq_max:4440
SatID=20
GPS acq_max:4518
GPS acq_max:4779
GPS acq_max:4914
GPS acq_max:5116
GPS acq_max:4305
GPS acq_max:4688
GPS acq_max:4876
GPS acq_max:4619
SatID=20
---00000002--- Acq_st=3 2019-5-25 08:53:33 
[00]  G06  7 23  -1528.6 2046002.0 -0.0  0.0 20  0         3
[01]  G17  1 20  -1314.5 2046003.2  0.1  0.0  1  0         0
[02]  G19  1 19  -2091.7 2046003.6 -0.0  0.0  1  0         0
GPS acq_max:4283
GPS acq_max:4082
GPS acq_max:4343
GPS acq_max:4234
GPS acq_max:4347
GPS acq_max:4634
GPS acq_max:4266
GPS acq_max:4802
SatID=20
$GNGGA,000000.000,,,,,0,00,,,M,,,,0000*2B
$GNRMC,000000.000,A,,,,,,,000000,,*26
$GPGSA,A,1,,,,,,,,,,,,,,,*1E
$BDGSA,A,1,,,,,,,,,,,,,,,*0F
$GPGSV,1,1,01,06,00,000,23*4F
$LOGTIM,0,0.000000,0.000000,0.000000,0.000000,0.000*0A
EndT:        0
GPS acq_max:4954
GPS acq_max:4149
GPS acq_max:4204
GPS acq_max:4487
GPS acq_max:4341
GPS acq_max:4379
GPS acq_max:4233
GPS acq_max:4140
SatID=20
sat20 = 5518 173 2259 3750
GPS acq_max:4465
GPS acq_max:4414
GPS acq_max:4533
GPS acq_max:4832
GPS acq_max:4917
GPS acq_max:4470
GPS acq_max:4687
GPS acq_max:4826
SatID=21
GPS acq_max:5217
GPS acq_max:4283
GPS acq_max:4316
GPS acq_max:4764
GPS acq_max:4712
GPS acq_max:4698
GPS acq_max:4836
GPS acq_max:4350
SatID=21
GPS acq_max:4610
GPS acq_max:4330
GPS acq_max:4810
GPS acq_max:5083
GPS acq_max:4819
GPS acq_max:4874
GPS acq_max:4305
GPS acq_max:4882
SatID=21
GPS acq_max:4409
GPS acq_max:4474
GPS acq_max:4450
GPS acq_max:4828
GPS acq_max:4437
GPS acq_max:4623
GPS acq_max:4331
GPS acq_max:4306
SatID=21
GPS acq_max:5081
GPS acq_max:4305
GPS acq_max:4713
GPS acq_max:4719
GPS acq_max:5043
GPS acq_max:4665
GPS acq_max:4638
GPS acq_max:4724
SatID=21
sat21 = 5217 100 2305 3000
GPS acq_max:4089
GPS acq_max:4370
GPS acq_max:4598
GPS acq_max:4653
GPS acq_max:4549
GPS acq_max:4572
GPS acq_max:4434
GPS acq_max:4144
SatID=22
GPS acq_max:4224
GPS acq_max:4556
GPS acq_max:4488
GPS acq_max:4584
GPS acq_max:4651
GPS acq_max:4712
GPS acq_max:4428
GPS acq_max:5050
SatID=22
GPS acq_max:4758
GPS acq_max:4737
GPS acq_max:4244
GPS acq_max:4478
GPS acq_max:4130
GPS acq_max:4915
GPS acq_max:4892
GPS acq_max:5290
SatID=22
GPS acq_max:4409
GPS acq_max:4483
GPS acq_max:4548
GPS acq_max:4618
GPS acq_max:4418
GPS acq_max:4776
GPS acq_max:5008
GPS acq_max:4579
SatID=22
GPS acq_max:4760
GPS acq_max:4593
GPS acq_max:4814
GPS acq_max:4646
GPS acq_max:4316
GPS acq_max:4267
GPS acq_max:5038
GPS acq_max:4630
SatID=22
sat22 = 5290 190 2297 -750
GPS acq_max:4772
GPS acq_max:5552
GPS acq_max:5018
GPS acq_max:5216
GPS acq_max:4499
GPS acq_max:4553
GPS acq_max:4722
GPS acq_max:4240
SatID=23
GPS acq_max:5478
GPS acq_max:5526
GPS acq_max:5190
GPS acq_max:4992
GPS acq_max:4319
GPS acq_max:4253
GPS acq_max:4288
GPS acq_max:4702
SatID=23
GPS acq_max:4945
GPS acq_max:4484
GPS acq_max:4457
GPS acq_max:4361
GPS acq_max:4802
GPS acq_max:4380
GPS acq_max:5005
GPS acq_max:4638
SatID=23
GPS acq_max:4624
GPS acq_max:5143
GPS acq_max:4685
GPS acq_max:4367
GPS acq_max:4616
GPS acq_max:4651
GPS acq_max:4675
GPS acq_max:4585
SatID=23
GPS acq_max:4576
GPS acq_max:4824
GPS acq_max:4720
GPS acq_max:4657
GPS acq_max:4748
GPS acq_max:5045
GPS acq_max:4762
GPS acq_max:4882
SatID=23
sat23 = 5552 858 2316 4750
GPS acq_max:4681
GPS acq_max:4345
GPS acq_max:4699
GPS acq_max:4851
GPS acq_max:4820
GPS acq_max:4396
GPS acq_max:4403
GPS acq_max:4737
SatID=24
GPS acq_max:4688
GPS acq_max:4837
GPS acq_max:4847
GPS acq_max:4647
GPS acq_max:4487
GPS acq_max:4806
GPS acq_max:4640
GPS acq_max:4515
SatID=24
GPS acq_max:4616
GPS acq_max:4488
GPS acq_max:4865
GPS acq_max:4680
GPS acq_max:4321
GPS acq_max:4483
GPS acq_max:4337
GPS acq_max:4708
SatID=24
GPS acq_max:4464
GPS acq_max:4766
GPS acq_max:4587
GPS acq_max:4807
GPS acq_max:4469
GPS acq_max:4615
GPS acq_max:5543
GPS acq_max:4986
SatID=24
GPS acq_max:4896
GPS acq_max:4116
GPS acq_max:5156
GPS acq_max:4452
GPS acq_max:4179
GPS acq_max:4385
GPS acq_max:4276
GPS acq_max:4784
SatID=24
sat24 = 5543 1180 2317 -2500
GPS acq_max:4691
GPS acq_max:5280
GPS acq_max:4239
GPS acq_max:4606
GPS acq_max:4867
GPS acq_max:5290
GPS acq_max:4985
GPS acq_max:4979
SatID=25
GPS acq_max:4739
GPS acq_max:4858
GPS acq_max:4990
GPS acq_max:4746
GPS acq_max:5127
GPS acq_max:4797
GPS acq_max:4700
GPS acq_max:4606
SatID=25
GPS acq_max:4454
GPS acq_max:4971
GPS acq_max:4871
GPS acq_max:4327
GPS acq_max:4908
GPS acq_max:5069
GPS acq_max:4863
GPS acq_max:4335
SatID=25
GPS acq_max:4557
GPS acq_max:4514
GPS acq_max:4267
GPS acq_max:4917
GPS acq_max:6096
GPS acq_max:4862
GPS acq_max:4568
GPS acq_max:4882
SatID=25
GPS acq_max:4456
GPS acq_max:4342
GPS acq_max:5058
GPS acq_max:4521
GPS acq_max:4771
GPS acq_max:4646
GPS acq_max:5313
GPS acq_max:5223
SatID=25
sat25 = 6096 1852 2315 -2000
GPS acq_max:4514
GPS acq_max:4560
GPS acq_max:4668
GPS acq_max:4299
GPS acq_max:4416
GPS acq_max:4545
GPS acq_max:4974
GPS acq_max:4656
SatID=26
GPS acq_max:4723
GPS acq_max:4183
GPS acq_max:4519
GPS acq_max:4845
GPS acq_max:4544
GPS acq_max:4577
GPS acq_max:4585
GPS acq_max:5400
SatID=26
GPS acq_max:4280
GPS acq_max:4961
GPS acq_max:4780
GPS acq_max:4499
GPS acq_max:4479
GPS acq_max:4614
GPS acq_max:4147
GPS acq_max:4270
SatID=26
GPS acq_max:4211
GPS acq_max:4795
GPS acq_max:4580
GPS acq_max:4241
GPS acq_max:4107
GPS acq_max:4632
GPS acq_max:4412
GPS acq_max:4642
SatID=26
GPS acq_max:4642
GPS acq_max:4607
GPS acq_max:4601
GPS acq_max:4661
GPS acq_max:4410
GPS acq_max:4727
GPS acq_max:4551
GPS acq_max:4351
SatID=26
sat26 = 5400 1990 2270 1250
GPS acq_max:4095
GPS acq_max:4335
GPS acq_max:4325
GPS acq_max:4204
GPS acq_max:4377
GPS acq_max:4351
GPS acq_max:4478
GPS acq_max:4350
SatID=27
GPS acq_max:4482
GPS acq_max:4145
GPS acq_max:4529
GPS acq_max:5449
GPS acq_max:4458
GPS acq_max:4585
GPS acq_max:4564
GPS acq_max:4450
SatID=27
GPS acq_max:4264
GPS acq_max:4412
GPS acq_max:4262
GPS acq_max:4700
GPS acq_max:4743
GPS acq_max:4595
GPS acq_max:4366
GPS acq_max:4337
SatID=27
GPS acq_max:4269
GPS acq_max:4426
GPS acq_max:4434
GPS acq_max:4619
GPS acq_max:4955
GPS acq_max:4531
GPS acq_max:4642
GPS acq_max:4299
SatID=27
GPS acq_max:4818
GPS acq_max:5033
GPS acq_max:4594
GPS acq_max:4712
GPS acq_max:4481
GPS acq_max:4473
GPS acq_max:4646
GPS acq_max:4498
SatID=27
sat27 = 5449 808 2289 2250
GPS acq_max:4839
GPS acq_max:4372
GPS acq_max:4570
GPS acq_max:4654
GPS acq_max:4615
GPS acq_max:4941
GPS acq_max:4588
GPS acq_max:4874
SatID=28
GPS acq_max:4104
GPS acq_max:4205
GPS acq_max:4655
GPS acq_max:4536
GPS acq_max:4502
GPS acq_max:4506
GPS acq_max:4871
GPS acq_max:4435
SatID=28
GPS acq_max:5109
GPS acq_max:4368
GPS acq_max:4696
GPS acq_max:4999
GPS acq_max:4634
GPS acq_max:4240
GPS acq_max:4588
GPS acq_max:3978
SatID=28
GPS acq_max:5019
GPS acq_max:5044
GPS acq_max:4880
GPS acq_max:4428
GPS acq_max:4359
GPS acq_max:4809
GPS acq_max:4482
GPS acq_max:4666
SatID=28
GPS acq_max:5376
GPS acq_max:4615
GPS acq_max:5286
GPS acq_max:5020
GPS acq_max:4317
GPS acq_max:4228
GPS acq_max:4477
GPS acq_max:4611
SatID=28
sat28 = 5376 871 2269 -3000
GPS acq_max:4928
GPS acq_max:4215
GPS acq_max:3988
GPS acq_max:4330
GPS acq_max:4898
GPS acq_max:4703
GPS acq_max:4710
GPS acq_max:4551
SatID=29
---00000003--- Acq_st=3 2019-5-25 08:53:34 
[00]  G06  7 40  -1529.2 2046001.9  1.0  1.0  5  0         8
[01]  G17  7  7  -1315.8 2046001.7  0.4  0.0 20  0        15
[02]  G19  1 35  -2098.0 2046002.9 -0.0  0.0  1  0        11
$GNGGA,000000.000,,,,,0,00,,,M,,,,0000*2B
$GNRMC,000000.000,A,,,,,,,000000,,*26
$GPGSA,A,1,,,,,,,,,,,,,,,*1E
$BDGSA,A,1,,,,,,,,,,,,,,,*0F
$GPGSV,1,1,01,06,00,000,40*4A
$LOGTIM,0,0.000000,0.000000,0.000000,0.000000,0.000*0A
EndT:        0
GPS acq_max:4393
GPS acq_max:4513
GPS acq_max:4239
GPS acq_max:4712
GPS acq_max:4996
GPS acq_max:4510
GPS acq_max:4590
GPS acq_max:4500
SatID=29
GPS acq_max:4229
GPS acq_max:4544
GPS acq_max:4638
GPS acq_max:4395
GPS acq_max:4776
GPS acq_max:4358
GPS acq_max:4193
GPS acq_max:5239
SatID=29
GPS acq_max:4243
GPS acq_max:4492
GPS acq_max:4321
GPS acq_max:4364
GPS acq_max:4589
GPS acq_max:5046
GPS acq_max:4907
GPS acq_max:4775
SatID=29
GPS acq_max:4715
GPS acq_max:4657
GPS acq_max:4386
GPS acq_max:5085
GPS acq_max:4974
GPS acq_max:4881
GPS acq_max:4354
GPS acq_max:4308
SatID=29
sat29 = 5239 1671 2276 -750
GPS acq_max:4294
GPS acq_max:4559
GPS acq_max:4633
GPS acq_max:4399
GPS acq_max:4313
GPS acq_max:4891
GPS acq_max:4476
GPS acq_max:4710
SatID=30
GPS acq_max:4993
GPS acq_max:4261
GPS acq_max:4188
GPS acq_max:4636
GPS acq_max:4425
GPS acq_max:4601
GPS acq_max:4944
GPS acq_max:5096
SatID=30
GPS acq_max:4612
GPS acq_max:5109
GPS acq_max:4995
GPS acq_max:4534
GPS acq_max:5581
GPS acq_max:4208
GPS acq_max:4277
GPS acq_max:4782
SatID=30
GPS acq_max:4425
GPS acq_max:5052
GPS acq_max:5200
GPS acq_max:4693
GPS acq_max:4249
GPS acq_max:4207
GPS acq_max:4521
GPS acq_max:4219
SatID=30
GPS acq_max:4907
GPS acq_max:4747
GPS acq_max:4428
GPS acq_max:4637
GPS acq_max:4727
GPS acq_max:4852
GPS acq_max:4613
GPS acq_max:4479
SatID=30
sat30 = 5581 1247 2287 0
GPS acq_max:4489
GPS acq_max:5168
GPS acq_max:4673
GPS acq_max:4457
GPS acq_max:4442
GPS acq_max:4379
GPS acq_max:4556
GPS acq_max:4406
SatID=31
GPS acq_max:4314
GPS acq_max:4771
GPS acq_max:4569
GPS acq_max:4233
GPS acq_max:4461
GPS acq_max:4943
GPS acq_max:4869
GPS acq_max:5187
SatID=31
GPS acq_max:4660
GPS acq_max:4197
GPS acq_max:4467
GPS acq_max:5060
GPS acq_max:4931
GPS acq_max:4558
GPS acq_max:4696
GPS acq_max:4563
SatID=31
GPS acq_max:4691
GPS acq_max:5126
GPS acq_max:4618
GPS acq_max:4453
GPS acq_max:5229
GPS acq_max:4620
GPS acq_max:4218
GPS acq_max:4305
SatID=31
GPS acq_max:4771
GPS acq_max:4479
GPS acq_max:4631
GPS acq_max:4674
GPS acq_max:4582
GPS acq_max:4593
GPS acq_max:4432
GPS acq_max:4376
SatID=31
sat31 = 5229 431 2322 -2000
sat37 = 1941 4000 786 -3000
sat38 = 2022 3961 835 -3500
---00000004--- Acq_st=3 2019-5-25 08:53:35 
[00]  G06  7 40  -1529.3 2046002.0  1.0  1.0  5  0         8
[01]  G17  7 44  -1315.4 2046001.7  1.0  1.0  5  0        10
[02]  G19  7 38  -2097.5 2046002.7  0.8  1.0  5  0        11
$GNGGA,000000.000,,,,,0,00,,,M,,,,0000*2B
$GNRMC,000000.000,A,,,,,,,000000,,*26
$GPGSA,A,1,,,,,,,,,,,,,,,*1E
$BDGSA,A,1,,,,,,,,,,,,,,,*0F
$GPGSV,1,1,03,06,00,000,40,17,00,000,44,19,00,000,38*4D
$LOGTIM,0,0.000000,0.000000,0.000000,0.000000,0.000*0A
EndT:        0
sat39 = 1801 1054 800 -2250
sat40 = 1997 2838 822 -1500
sat41 = 1966 2302 820 3750
sat42 = 2061 3476 822 -3000
---00000005--- Acq_st=3 2019-5-25 08:53:36 
[00]  G06  7 40  -1528.6 2046002.0  1.0  1.0  5  0         8
[01]  G17  7 43  -1315.2 2046001.7  1.0  1.0  5  0        10
[02]  G19  7 43  -2097.3 2046002.7  1.0  1.0  5  0         9
$GNGGA,000000.000,,,,,0,00,,,M,,,,0000*2B
$GNRMC,000000.000,A,,,,,,,000000,,*26
$GPGSA,A,1,,,,,,,,,,,,,,,*1E
$BDGSA,A,1,,,,,,,,,,,,,,,*0F
$GPGSV,1,1,03,06,00,000,40,17,00,000,43,19,00,000,43*46
$LOGTIM,0,0.000000,0.000000,0.000000,0.000000,0.000*0A
EndT:        0
sat43 = 1824 1909 788 1500
sat44 = 8733 2321 828 88
ch16 satid=44,max_freq = 88,max_mean = 828,max_phase = 2321,max_value = 8733,acq ok1!
acq ok1 timeH = 0,timeL = 99599041,freq_stage = 3
sat45 = 1997 2241 802 -3000
sat46 = 2414 2991 823 -500
---00000006--- Acq_st=3 2019-5-25 08:53:37 
[00]  G06  f 40  -1527.1 2046002.0  1.0  1.0  5  0         8
[01]  G17  f 44  -1313.3 2046001.7  1.0  1.0  5  0        10
[02]  G19  f 43  -2095.8 2046002.7  1.0  1.0  5  0         9
[16]  B08  1  7   -105.2 4092000.5  0.2  0.0  1  0         0
$GNGGA,000000.000,,,,,0,00,,,M,,,,0000*2B
$GNRMC,000000.000,A,,,,,,,000000,,*26
$GPGSA,A,1,,,,,,,,,,,,,,,*1E
$BDGSA,A,1,,,,,,,,,,,,,,,*0F
$GPGSV,1,1,03,06,00,000,40,17,00,000,44,19,00,000,43*41
$LOGTIM,0,0.000000,0.000000,0.000000,0.000000,0.000*0A
EndT:        0
sat47 = 1825 986 797 500
sat48 = 1875 3029 816 -500
sat49 = 18432 2652 805 250
ch17 satid=49,max_freq = 250,max_mean = 805,max_phase = 2652,max_value = 18432,acq ok1!
acq ok1 timeH = 0,timeL = 120535101,freq_stage = 3
sat50 = 1935 714 688 -803
sat51 = 2182 2711 812 3750
sat52 = 1896 344 834 -3000
---00000007--- Acq_st=3 2019-5-25 08:53:38 
[00]  G06  f 40  -1527.4 2046002.0  1.0  1.0  5  0 550435908
[01]  G17  f 44  -1313.9 2046001.7  1.0  1.0  5  0 550435910
[02]  G19  f 43  -2096.6 2046002.7  1.0  1.0  5  0 550435909
[16]  B08  7 27   -106.1 4092000.2  0.6  1.0 10  0       784
[17]  B13  1  7   -272.0 4092001.5  0.0  0.0  1  0         0
$GNGGA,000000.000,,,,,0,00,,,M,,,,0000*2B
$GNRMC,000000.000,A,,,,,,,000000,,*26
$GPGSA,A,1,,,,,,,,,,,,,,,*1E
$BDGSA,A,1,,,,,,,,,,,,,,,*0F
$GPGSV,1,1,03,06,00,000,40,17,00,000,44,19,00,000,43*41
$BDGSV,1,1,01,08,00,000,27*54
$LOGTIM,0,0.000000,0.000000,0.000000,0.000000,0.000*0A
EndT:        0
sat53 = 1984 1819 812 -3500
sat54 = 1884 4057 810 -500
sat55 = 1873 313 797 1000
sat56 = 1918 3392 798 2500
---00000008--- Acq_st=3 2019-5-25 08:53:39 
[00]  G06  f 39  -1525.7 2046002.0  1.0  1.0  5  0 550436908
[01]  G17  f 44  -1312.0 2046001.7  1.0  1.0  5  0 550436910
[02]  G19  f 43  -2094.8 2046002.7  1.0  1.0  5  0 550436909
[16]  B08  7 39   -104.0 4092000.3  1.0  1.0  5  0      1778
[17]  B13  7 26   -271.0 4092000.7  0.4  0.0 20  0       694
$GNGGA,000000.000,,,,,0,00,,,M,,,,0000*2B
$GNRMC,000000.000,A,,,,,,,000000,,*26
$GPGSA,A,1,,,,,,,,,,,,,,,*1E
$BDGSA,A,1,,,,,,,,,,,,,,,*0F
$GPGSV,1,1,03,06,00,000,39,17,00,000,44,19,00,000,43*4F
$BDGSV,1,1,02,08,00,000,39,13,00,000,26*6E
$LOGTIM,0,0.000000,0.000000,0.000000,0.000000,0.000*0A
EndT:        0
sat57 = 1931 1697 787 -3250
sat58 = 2013 2963 794 2000
sat59 = 1843 3977 812 -4250
---00000009--- Acq_st=3 2019-5-25 08:53:40 
[00]  G06  f 40  -1522.6 2046002.0  1.0  1.0  5  0 550437908
[01]  G17  f 44  -1309.3 2046001.7  1.0  1.0  5  0 550437910
[02]  G19  f 42  -2092.3 2046002.7  1.0  1.0  5  0 550437909
[16]  B08  7 39   -102.0 4092000.2  1.0  1.0  5  0      2778
[17]  B13  7 42   -268.3 4092000.7  1.0  1.0  5  0      1675
sat60 = 1882 3076 796 5000
$GNGGA,000000.000,,,,,0,00,,,M,,,,0000*2B
$GNRMC,000000.000,A,,,,,,,000000,,*26
$GPGSA,A,1,,,,,,,,,,,,,,,*1E
$BDGSA,A,1,,,,,,,,,,,,,,,*0F
$GPGSV,1,1,03,06,00,000,40,17,00,000,44,19,00,000,42*40
$BDGSV,1,1,02,08,00,000,39,13,00,000,42*6C
$LOGTIM,0,0.000000,0.000000,0.000000,0.000000,0.000*0A
EndT:        0
sat61 = 1920 4074 793 -1500
sat62 = 1991 253 800 -3250
sat63 = 22464 3874 814 2489
ch18 satid=63,max_freq = 2489,max_mean = 814,max_phase = 3874,max_value = 22464,acq ok1!
acq ok1 timeH = 0,timeL = 182815818,freq_stage = 2
sat64 = 28365 2209 837 1334
ch19 satid=64,max_freq = 1334,max_mean = 837,max_phase = 2209,max_value = 28365,acq ok1!
acq ok1 timeH = 0,timeL = 183343313,freq_stage = 2
sat65 = 1930 2351 823 750
---00000010--- Acq_st=3 2019-5-25 08:53:41 
[00]  G06  f 39  -1523.4 2046002.0  1.0  1.0  5  0 550438908
[01]  G17  f 44  -1310.1 2046001.7  1.0  1.0  5  0 550438910
[02]  G19  f 42  -2092.7 2046002.7  1.0  1.0  5  0 550438909
[16]  B08  7 39   -103.6 4092000.3  1.0  1.0  5  0      3778
[17]  B13  7 43   -269.8 4092000.7  1.0  1.0  5  0      2675
[18]  B27  1  7  -2506.2 4092008.1 -0.1  0.0  1  0         0
[19]  B28  1  7  -1344.7 4092004.1  0.0  0.0  1  0         0
$GNGGA,000000.000,,,,,0,00,,,M,,,,0000*2B
$GNRMC,000000.000,A,,,,,,,000000,,*26
$GPGSA,A,1,,,,,,,,,,,,,,,*1E
$BDGSA,A,1,,,,,,,,,,,,,,,*0F
$GPGSV,1,1,03,06,00,000,39,17,00,000,44,19,00,000,42*4E
$BDGSV,1,1,02,08,00,000,39,13,00,000,43*6D
$LOGTIM,0,0.000000,0.000000,0.000000,0.000000,0.000*0A
EndT:        0
sat66 = 1963 1612 812 -3500
sat67 = 1916 2547 812 -3000
sat68 = 2329 811 821 -1000
---00000011--- Acq_st=7 2019-5-25 08:53:42 
[00]  G06  f 39  -1517.7 2046002.0  1.0  1.0  5  0 550439908
[01]  G17  f 44  -1304.5 2046001.7  1.0  1.0  5  0 550439910
[02]  G19  f 42  -2087.2 2046002.7  1.0  1.0  5  0 550439909
[16]  B08  7 39    -98.0 4092000.2  1.0  1.0  5  0      4778
[17]  B13  7 42   -264.5 4092000.7  1.0  1.0  5  0      3675
[18]  B27  7 17  -2500.3 4092006.5  0.4  0.0 20  0       450
[19]  B28  7 15  -1342.8 4092003.5  0.2  0.0 20  0       422
$GNGGA,000000.000,,,,,0,00,,,M,,,,0000*2B
$GNRMC,000000.000,A,,,,,,,000000,,*26
$GPGSA,A,1,,,,,,,,,,,,,,,*1E
$BDGSA,A,1,,,,,,,,,,,,,,,*0F
$GPGSV,1,1,03,06,00,000,39,17,00,000,44,19,00,000,42*4E
$BDGSV,1,1,04,08,00,000,39,13,00,000,42,27,00,000,17,28,00,000,15*67
$LOGTIM,0,0.000000,0.000000,0.000000,0.000000,0.000*0A
EndT:        0
---00000012--- Acq_st=7 2019-5-25 08:53:43 
[00]  G06  f 39  -1519.2 2046002.0  1.0  1.0  5  0 550440908
[01]  G17  f 45  -1306.0 2046001.7  1.0  1.0  5  0 550440910
[02]  G19  f 42  -2088.3 2046002.7  1.0  1.0  5  0 550440909
[16]  B08  7 39    -99.0 4092000.3  1.0  1.0  5  0      5778
[17]  B13  7 42   -265.6 4092000.7  1.0  1.0  5  0      4675
[18]  B27  7 42  -2501.3 4092006.5  1.0  1.0  5  0      1434
[19]  B28  7 45  -1344.2 4092003.5  1.0  1.0  5  0      1405
$GNGGA,085343.958,3112.7215,N,12136.4435,E,1,07,0.0,7.9,M,,,,0000*14
$GNRMC,085343.958,A,3112.7215,N,12136.4435,E,0.00,0.00,250519,,*1B
$GPGSA,A,3,06,17,19,,,,,,,,,,0.0,0.0,0.0*3A
$BDGSA,A,3,08,13,27,28,,,,,,,,,0.0,0.0,0.0*26
$GPGSV,1,1,03,06,00,000,39,17,00,000,45,19,00,000,42*4F
$BDGSV,1,1,04,08,00,000,39,13,00,000,42,27,00,000,42,28,00,000,45*62
$LOGTIM,3,-15722837.546846,-15841052.356451,0.000000,0.000000,0.000*05
EndT:        0
---00000013--- Acq_st=7 2019-5-25 08:53:44 
[00]  G06  f 39  -1523.3 2046002.0  1.0  1.0  5  0 550441908
[01]  G17  f 44  -1310.1 2046001.7  1.0  1.0  5  0 550441910
[02]  G19  f 42  -2092.9 2046002.7  1.0  1.0  5  0 550441909
[16]  B08  7 39   -103.9 4092000.2  1.0  1.0  5  0      6778
[17]  B13  7 43   -270.1 4092000.7  1.0  1.0  5  0      5675
[18]  B27  7 42  -2506.3 4092006.6  1.0  1.0  5  0      2434
[19]  B28  7 45  -1348.7 4092003.5  1.0  1.0  5  0      2405
GPS acq_max:4209
GPS acq_max:4402
GPS acq_max:4355
GPS acq_max:4155
GPS acq_max:4997
GPS acq_max:4510
GPS acq_max:4768
GPS acq_max:4347
SatID=0
GPS acq_max:4199
GPS acq_max:4266
GPS acq_max:4369
GPS acq_max:4193
GPS acq_max:4852
GPS acq_max:4435
GPS acq_max:4259
GPS acq_max:4494
SatID=0
$GNGGA,085344.972,3112.7247,N,12136.4697,E,1,07,0.0,-170.2,M,,,,0000*31
$GNRMC,085344.972,A,3112.7247,N,12136.4697,E,0.00,0.00,250519,,*19
$GPGSA,A,3,06,17,19,,,,,,,,,,0.0,0.0,0.0*3A
$BDGSA,A,3,08,13,27,28,,,,,,,,,0.0,0.0,0.0*26
$GPGSV,1,1,03,06,00,000,39,17,00,000,44,19,00,000,42*4E
$BDGSV,1,1,04,08,00,000,39,13,00,000,43,27,00,000,42,28,00,000,45*63
$LOGTIM,3,-24245188.106791,-24318015.753982,0.000000,0.000000,0.000*0F
EndT:        0
GPS acq_max:4846
GPS acq_max:4329
GPS acq_max:4227
GPS acq_max:4286
GPS acq_max:4183
GPS acq_max:4057
GPS acq_max:4006
GPS acq_max:4185
SatID=0
GPS acq_max:4025
GPS acq_max:4314
GPS acq_max:4112
GPS acq_max:4367
GPS acq_max:5886
GPS acq_max:12658
GPS acq_max:16028
GPS acq_max:14560
SatID=0
GPS acq_max:9424
GPS acq_max:4772
GPS acq_max:4401
GPS acq_max:4415
GPS acq_max:4481
GPS acq_max:4516
GPS acq_max:4490
GPS acq_max:4310
SatID=0
sat0 = 16028 297 2215 -2500
ch3 satid=0,max_freq = -2500,max_mean = 2215,max_phase = 297,max_value = 16028,acq ok1!
acq ok1 timeH = 0,timeL = 250602669,freq_stage = 4
GPS acq_max:4571
GPS acq_max:4673
GPS acq_max:4027
GPS acq_max:4100
GPS acq_max:4266
GPS acq_max:4541
GPS acq_max:4101
GPS acq_max:4204
SatID=1
GPS acq_max:4883
GPS acq_max:4687
GPS acq_max:4722
GPS acq_max:4992
GPS acq_max:4687
GPS acq_max:4268
GPS acq_max:4516
GPS acq_max:4256
SatID=1
GPS acq_max:4324
GPS acq_max:4329
GPS acq_max:5001
GPS acq_max:4345
GPS acq_max:3862
GPS acq_max:3909
GPS acq_max:4057
GPS acq_max:4170
SatID=1
GPS acq_max:4511
GPS acq_max:5233
GPS acq_max:4273
GPS acq_max:4418
GPS acq_max:4390
GPS acq_max:4741
GPS acq_max:4253
GPS acq_max:4150
SatID=1
GPS acq_max:4294
GPS acq_max:4946
GPS acq_max:4096
GPS acq_max:4318
GPS acq_max:4486
GPS acq_max:4081
GPS acq_max:4146
GPS acq_max:4465
SatID=1
sat1 = 5233 1172 2191 -1250
GPS acq_max:4996
GPS acq_max:4499
GPS acq_max:4432
GPS acq_max:4174
GPS acq_max:4816
GPS acq_max:4717
GPS acq_max:4741
GPS acq_max:4496
SatID=2
GPS acq_max:4462
GPS acq_max:4573
GPS acq_max:4231
GPS acq_max:4890
GPS acq_max:4585
GPS acq_max:4565
GPS acq_max:4699
GPS acq_max:4568
SatID=2
GPS acq_max:4862
GPS acq_max:4331
GPS acq_max:3935
GPS acq_max:4804
GPS acq_max:4398
GPS acq_max:4252
GPS acq_max:4627
GPS acq_max:4613
SatID=2
GPS acq_max:4601
GPS acq_max:4895
GPS acq_max:8714
GPS acq_max:23335
GPS acq_max:42026
GPS acq_max:48387
GPS acq_max:37622
GPS acq_max:18383
SatID=2
GPS acq_max:4286
GPS acq_max:4058
GPS acq_max:4067
GPS acq_max:4615
GPS acq_max:4123
GPS acq_max:4238
GPS acq_max:4402
GPS acq_max:4650
SatID=2
sat2 = 48387 457 2246 -2250
ch4 satid=2,max_freq = -2250,max_mean = 2246,max_phase = 457,max_value = 48387,acq ok1!
acq ok1 timeH = 0,timeL = 255148513,freq_stage = 4
GPS acq_max:4512
GPS acq_max:4297
GPS acq_max:4328
GPS acq_max:4148
GPS acq_max:4137
GPS acq_max:4482
GPS acq_max:4637
GPS acq_max:4551
SatID=3
GPS acq_max:4702
GPS acq_max:4453
GPS acq_max:4039
GPS acq_max:4229
GPS acq_max:4545
GPS acq_max:4411
GPS acq_max:4719
GPS acq_max:4311
SatID=3
GPS acq_max:4056
GPS acq_max:4578
GPS acq_max:4797
GPS acq_max:4975
GPS acq_max:4331
GPS acq_max:4485
GPS acq_max:4327
GPS acq_max:4421
SatID=3
GPS acq_max:4091
GPS acq_max:3991
GPS acq_max:4217
GPS acq_max:4057
GPS acq_max:4277
GPS acq_max:3990
GPS acq_max:4386
GPS acq_max:4513
SatID=3
GPS acq_max:4739
GPS acq_max:4316
GPS acq_max:5374
GPS acq_max:4785
GPS acq_max:4097
GPS acq_max:4584
GPS acq_max:4821
GPS acq_max:4768
SatID=3
sat3 = 5374 599 2225 -3500
GPS acq_max:4052
GPS acq_max:4752
GPS acq_max:4201
GPS acq_max:4919
GPS acq_max:5180
GPS acq_max:4800
GPS acq_max:4109
GPS acq_max:4227
SatID=4
GPS acq_max:4802
GPS acq_max:4102
GPS acq_max:4640
GPS acq_max:4905
GPS acq_max:4420
GPS acq_max:4259
GPS acq_max:4202
GPS acq_max:4326
SatID=4
GPS acq_max:4763
GPS acq_max:4266
GPS acq_max:3820
GPS acq_max:4267
GPS acq_max:4468
GPS acq_max:4432
GPS acq_max:4162
GPS acq_max:4033
SatID=4
GPS acq_max:4215
GPS acq_max:4436
GPS acq_max:4117
GPS acq_max:4355
GPS acq_max:4289
GPS acq_max:4402
GPS acq_max:4276
GPS acq_max:4753
SatID=4
GPS acq_max:4016
GPS acq_max:4047
GPS acq_max:4541
GPS acq_max:4458
GPS acq_max:4446
GPS acq_max:4437
GPS acq_max:4076
GPS acq_max:4853
SatID=4
sat4 = 5180 1373 2188 4000
GPS acq_max:4589
GPS acq_max:4313
GPS acq_max:4601
GPS acq_max:4656
GPS acq_max:5067
GPS acq_max:4631
GPS acq_max:4407
GPS acq_max:4626
SatID=6
GPS acq_max:4672
GPS acq_max:4075
GPS acq_max:4261
GPS acq_max:4445
GPS acq_max:4252
GPS acq_max:4342
GPS acq_max:4314
GPS acq_max:4829
SatID=6
GPS acq_max:4098
GPS acq_max:4331
GPS acq_max:4389
GPS acq_max:4105
GPS acq_max:4406
GPS acq_max:4486
GPS acq_max:4390
GPS acq_max:3967
SatID=6
GPS acq_max:4107
GPS acq_max:4105
GPS acq_max:4476
GPS acq_max:4330
GPS acq_max:4468
GPS acq_max:5144
GPS acq_max:4867
GPS acq_max:4289
SatID=6
GPS acq_max:4453
GPS acq_max:4375
GPS acq_max:4775
GPS acq_max:4262
GPS acq_max:4266
GPS acq_max:4640
GPS acq_max:5370
GPS acq_max:4481
SatID=6
sat6 = 5370 1386 2232 -4500
GPS acq_max:4113
GPS acq_max:4223
GPS acq_max:4345
GPS acq_max:4450
GPS acq_max:4293
GPS acq_max:4113
GPS acq_max:4478
GPS acq_max:4092
SatID=7
GPS acq_max:4375
GPS acq_max:4267
GPS acq_max:4266
GPS acq_max:4575
GPS acq_max:5078
GPS acq_max:4803
GPS acq_max:4901
GPS acq_max:4164
SatID=7
GPS acq_max:4431
GPS acq_max:4390
GPS acq_max:3794
GPS acq_max:4193
GPS acq_max:4767
GPS acq_max:4565
GPS acq_max:4606
GPS acq_max:4797
SatID=7
GPS acq_max:4087
GPS acq_max:4394
GPS acq_max:4701
GPS acq_max:4379
GPS acq_max:4721
GPS acq_max:4014
GPS acq_max:4172
GPS acq_max:4114
SatID=7
GPS acq_max:4990
GPS acq_max:4565
GPS acq_max:4118
GPS acq_max:4369
GPS acq_max:4327
GPS acq_max:3958
GPS acq_max:4126
GPS acq_max:4254
SatID=7
sat7 = 5078 1513 2191 2000
GPS acq_max:4634
GPS acq_max:4677
GPS acq_max:5080
GPS acq_max:4285
GPS acq_max:4466
GPS acq_max:4633
GPS acq_max:4547
GPS acq_max:4205
SatID=8
GPS acq_max:4772
GPS acq_max:4285
GPS acq_max:4355
GPS acq_max:4431
GPS acq_max:4209
GPS acq_max:4393
GPS acq_max:4582
GPS acq_max:4393
SatID=8
GPS acq_max:4568
GPS acq_max:5119
GPS acq_max:4500
GPS acq_max:4839
GPS acq_max:4483
GPS acq_max:4660
GPS acq_max:4303
GPS acq_max:4071
SatID=8
GPS acq_max:4509
GPS acq_max:3952
GPS acq_max:4611
GPS acq_max:4366
GPS acq_max:4652
GPS acq_max:4216
GPS acq_max:4947
GPS acq_max:4313
SatID=8
GPS acq_max:4278
GPS acq_max:4473
GPS acq_max:4361
GPS acq_max:4414
GPS acq_max:4653
GPS acq_max:4465
GPS acq_max:4568
GPS acq_max:4467
SatID=8
sat8 = 5119 807 2211 750
GPS acq_max:4087
GPS acq_max:4180
GPS acq_max:3930
GPS acq_max:4213
GPS acq_max:4365
GPS acq_max:4341
GPS acq_max:4470
GPS acq_max:4500
SatID=9
GPS acq_max:4160
GPS acq_max:4296
GPS acq_max:4467
GPS acq_max:4661
GPS acq_max:4246
GPS acq_max:4155
GPS acq_max:4182
GPS acq_max:4352
SatID=9
---00000014--- Acq_st=3 2019-5-25 08:53:45 
[00]  G06  f 40  -1522.8 2046002.0  1.0  1.0  5  0 550442950
[01]  G17  f 44  -1308.7 2046001.7  1.0  1.0  5  0 550442952
[02]  G19  f 41  -2091.4 2046002.7  1.0  1.0  5  0 550442952
[03]  G01  1 30   2527.4 2045996.9 -0.0  0.0  1  0         0
[04]  G03  1 25   2209.7 2045998.2 -0.1  0.0  1  0         0
[16]  B08 1f 39   -102.7 4092000.2  1.0  1.0  5  0      7820
[17]  B13 1f 42   -269.3 4092000.7  1.0  1.0  5  0      6717
[18]  B27 1f 42  -2505.6 4092006.6  1.0  1.0  5  0      3477
[19]  B28 1f 45  -1347.6 4092003.5  1.0  1.0  5  0      3447
GPS acq_max:4473
GPS acq_max:4580
GPS acq_max:4293
GPS acq_max:4092
GPS acq_max:4246
GPS acq_max:4632
GPS acq_max:4911
GPS acq_max:4235
SatID=9
GPS acq_max:4589
GPS acq_max:4922
GPS acq_max:4886
GPS acq_max:4059
GPS acq_max:4154
GPS acq_max:4375
GPS acq_max:4282
GPS acq_max:4465
SatID=9
lsq: nits= 2
$GNGGA,085346.023,3112.7024,N,12136.4012,E,1,07,6.2,119.2,M,,,,0000*14
$GNRMC,085346.023,A,3112.7024,N,12136.4012,E,0.25,0.00,250519,,*1D
$GPGSA,A,3,06,17,19,,,,,,,,,,7.7,6.2,4.6*3C
$BDGSA,A,3,08,13,27,28,,,,,,,,,7.7,6.2,4.6*20
$GPGSV,2,1,06,06,46,282,40,17,64,005,44,19,50,332,41,01,09,058,00*7A
$GPGSV,2,2,06,03,35,047,00,23,17,102,00*7D
$BDGSV,2,1,05,08,60,333,39,13,46,289,42,27,13,296,42,28,55,336,45*6D
$BDGSV,2,2,05,14,31,053,00*5C
$LOGTIM,3,9018820.529706,9018648.063913,0.000000,0.000000,-64.700*10
EndT:        0
GPS acq_max:4981
GPS acq_max:4026
GPS acq_max:4567
GPS acq_max:4873
GPS acq_max:4675
GPS acq_max:4269
GPS acq_max:4247
GPS acq_max:4478
SatID=9
sat9 = 4981 14 2239 -3000
GPS acq_max:4613
GPS acq_max:4464
GPS acq_max:4690
GPS acq_max:4563
GPS acq_max:4610
GPS acq_max:4351
GPS acq_max:3884
GPS acq_max:4298
SatID=10
GPS acq_max:4627
GPS acq_max:4280
GPS acq_max:4383
GPS acq_max:4070
GPS acq_max:4198
GPS acq_max:4604
GPS acq_max:4753
GPS acq_max:4227
SatID=10
GPS acq_max:4116
GPS acq_max:4130
GPS acq_max:4519
GPS acq_max:4808
GPS acq_max:4375
GPS acq_max:4675
GPS acq_max:4368
GPS acq_max:4523
SatID=10
GPS acq_max:5490
GPS acq_max:4986
GPS acq_max:4220
GPS acq_max:4088
GPS acq_max:4088
GPS acq_max:4276
GPS acq_max:4619
GPS acq_max:4948
SatID=10
GPS acq_max:4211
GPS acq_max:4273
GPS acq_max:5105
GPS acq_max:5545
GPS acq_max:4968
GPS acq_max:4542
GPS acq_max:4395
GPS acq_max:4544
SatID=10
sat10 = 5545 538 2204 -3750
GPS acq_max:4326
GPS acq_max:4112
GPS acq_max:4324
GPS acq_max:4638
GPS acq_max:4285
GPS acq_max:4395
GPS acq_max:5363
GPS acq_max:5496
SatID=11
GPS acq_max:3990
GPS acq_max:5063
GPS acq_max:4617
GPS acq_max:4854
GPS acq_max:4331
GPS acq_max:5470
GPS acq_max:4861
GPS acq_max:4117
SatID=11
GPS acq_max:4705
GPS acq_max:4768
GPS acq_max:4492
GPS acq_max:4251
GPS acq_max:4608
GPS acq_max:4382
GPS acq_max:4394
GPS acq_max:4473
SatID=11
GPS acq_max:4719
GPS acq_max:4298
GPS acq_max:4294
GPS acq_max:4382
GPS acq_max:4196
GPS acq_max:4785
GPS acq_max:4894
GPS acq_max:4562
SatID=11
GPS acq_max:4318
GPS acq_max:4483
GPS acq_max:4388
GPS acq_max:4178
GPS acq_max:4313
GPS acq_max:4205
GPS acq_max:4668
GPS acq_max:4522
SatID=11
sat11 = 5496 217 2239 3250
GPS acq_max:4853
GPS acq_max:4431
GPS acq_max:4222
GPS acq_max:4833
GPS acq_max:4363
GPS acq_max:4557
GPS acq_max:4326
GPS acq_max:4573
SatID=12
GPS acq_max:4534
GPS acq_max:4454
GPS acq_max:4465
GPS acq_max:4188
GPS acq_max:4387
GPS acq_max:4610
GPS acq_max:5233
GPS acq_max:4545
SatID=12
GPS acq_max:4213
GPS acq_max:4597
GPS acq_max:4349
GPS acq_max:4406
GPS acq_max:4245
GPS acq_max:4502
GPS acq_max:4707
GPS acq_max:4672
SatID=12
GPS acq_max:4508
GPS acq_max:4069
GPS acq_max:4239
GPS acq_max:4352
GPS acq_max:4716
GPS acq_max:4030
GPS acq_max:4568
GPS acq_max:4909
SatID=12
GPS acq_max:4772
GPS acq_max:4978
GPS acq_max:4651
GPS acq_max:4311
GPS acq_max:4239
GPS acq_max:4051
GPS acq_max:4147
GPS acq_max:4576
SatID=12
sat12 = 5233 1796 2232 1500
GPS acq_max:4548
GPS acq_max:4985
GPS acq_max:5011
GPS acq_max:4678
GPS acq_max:4458
GPS acq_max:4259
GPS acq_max:4389
GPS acq_max:4870
SatID=13
GPS acq_max:4613
GPS acq_max:4234
GPS acq_max:4282
GPS acq_max:5351
GPS acq_max:5717
GPS acq_max:4876
GPS acq_max:4520
GPS acq_max:4555
SatID=13
GPS acq_max:3952
GPS acq_max:4200
GPS acq_max:4367
GPS acq_max:4101
GPS acq_max:4310
GPS acq_max:4087
GPS acq_max:4300
GPS acq_max:4330
SatID=13
GPS acq_max:4598
GPS acq_max:4365
GPS acq_max:4605
GPS acq_max:4270
GPS acq_max:4338
GPS acq_max:4180
GPS acq_max:4350
GPS acq_max:4226
SatID=13
GPS acq_max:4232
GPS acq_max:4374
GPS acq_max:4246
GPS acq_max:4622
GPS acq_max:4586
GPS acq_max:4855
GPS acq_max:4420
GPS acq_max:4450
SatID=13
sat13 = 5717 1038 2233 2000
GPS acq_max:4075
GPS acq_max:4701
GPS acq_max:4977
GPS acq_max:5316
GPS acq_max:4225
GPS acq_max:4349
GPS acq_max:4399
GPS acq_max:4102
SatID=14
GPS acq_max:3973
GPS acq_max:4069
GPS acq_max:4130
GPS acq_max:4406
GPS acq_max:4511
GPS acq_max:4744
GPS acq_max:4418
GPS acq_max:4541
SatID=14
GPS acq_max:4573
GPS acq_max:4618
GPS acq_max:4174
GPS acq_max:4562
GPS acq_max:4459
GPS acq_max:4563
GPS acq_max:4543
GPS acq_max:4013
SatID=14
GPS acq_max:4959
GPS acq_max:4253
GPS acq_max:4556
GPS acq_max:4185
GPS acq_max:4510
GPS acq_max:5328
GPS acq_max:4748
GPS acq_max:4545
SatID=14
GPS acq_max:4583
GPS acq_max:4488
GPS acq_max:4458
GPS acq_max:4304
GPS acq_max:4004
GPS acq_max:4428
GPS acq_max:4121
GPS acq_max:4136
SatID=14
sat14 = 5328 1135 2236 -2250
GPS acq_max:4044
GPS acq_max:4032
GPS acq_max:4590
GPS acq_max:4208
GPS acq_max:4298
GPS acq_max:4043
GPS acq_max:4091
GPS acq_max:4238
SatID=15
GPS acq_max:4583
GPS acq_max:4911
GPS acq_max:4678
GPS acq_max:4139
GPS acq_max:4516
GPS acq_max:4454
GPS acq_max:4218
GPS acq_max:4567
SatID=15
GPS acq_max:4349
GPS acq_max:5461
GPS acq_max:4119
GPS acq_max:4335
GPS acq_max:4447
GPS acq_max:4226
GPS acq_max:4524
GPS acq_max:4698
SatID=15
GPS acq_max:4184
GPS acq_max:4466
GPS acq_max:4228
GPS acq_max:4441
GPS acq_max:4411
GPS acq_max:4558
GPS acq_max:4499
GPS acq_max:4170
SatID=15
GPS acq_max:4813
GPS acq_max:4531
GPS acq_max:4423
GPS acq_max:4644
GPS acq_max:4203
GPS acq_max:4072
GPS acq_max:4017
GPS acq_max:4135
SatID=15
sat15 = 5461 154 2253 750
GPS acq_max:4114
GPS acq_max:4084
GPS acq_max:4071
GPS acq_max:4163
GPS acq_max:4069
GPS acq_max:3854
GPS acq_max:4131
GPS acq_max:4281
SatID=17
GPS acq_max:4385
GPS acq_max:4199
GPS acq_max:4745
GPS acq_max:4203
GPS acq_max:4400
GPS acq_max:4336
GPS acq_max:4557
GPS acq_max:4592
SatID=17
GPS acq_max:4179
GPS acq_max:4446
GPS acq_max:5113
GPS acq_max:4209
GPS acq_max:3999
GPS acq_max:4005
GPS acq_max:4171
GPS acq_max:4082
SatID=17
GPS acq_max:4881
GPS acq_max:4234
GPS acq_max:4255
GPS acq_max:4231
GPS acq_max:4625
GPS acq_max:4451
GPS acq_max:4282
GPS acq_max:4238
SatID=17
GPS acq_max:4240
GPS acq_max:4446
GPS acq_max:5124
GPS acq_max:4592
GPS acq_max:4385
GPS acq_max:4341
GPS acq_max:3952
GPS acq_max:4208
SatID=17
sat17 = 5124 1040 2200 -3500
GPS acq_max:5069
GPS acq_max:4521
GPS acq_max:4358
GPS acq_max:4324
GPS acq_max:4514
GPS acq_max:4208
GPS acq_max:4030
GPS acq_max:4222
SatID=19
GPS acq_max:4832
GPS acq_max:4330
GPS acq_max:4223
GPS acq_max:4634
GPS acq_max:4804
GPS acq_max:4251
GPS acq_max:4196
GPS acq_max:4339
SatID=19
GPS acq_max:4356
GPS acq_max:4166
GPS acq_max:4558
GPS acq_max:4216
GPS acq_max:4776
GPS acq_max:4225
GPS acq_max:3933
GPS acq_max:4278
SatID=19
GPS acq_max:4402
GPS acq_max:4086
GPS acq_max:4164
GPS acq_max:4537
GPS acq_max:4419
GPS acq_max:4391
GPS acq_max:4095
GPS acq_max:4125
SatID=19
---00000015--- Acq_st=3 2019-5-25 08:53:46 
[00]  G06  f 39  -1518.8 2046002.0  1.0  1.0  5  0 550443950
[01]  G17  f 45  -1305.7 2046001.7  1.0  1.0  5  0 550443952
[02]  G19  f 41  -2088.4 2046002.7  1.0  1.0  5  0 550443952
[03]  G01  7 29   2513.7 2045996.7  0.6  1.0  5  0         1
[04]  G03  7 25   2215.4 2045997.0  0.3  0.0 20  0         4
[16]  B08 1f 39   -100.2 4092000.3  1.0  1.0  5  0 550429900
[17]  B13 1f 42   -266.3 4092000.7  1.0  1.0  5  0 550429897
[18]  B27 1f 42  -2503.0 4092006.6  1.0  1.0  5  0 550429937
[19]  B28 1f 45  -1344.7 4092003.5  1.0  1.0  5  0 550429947
GPS acq_max:4035
GPS acq_max:4091
GPS acq_max:4218
GPS acq_max:4600
GPS acq_max:4666
GPS acq_max:4630
GPS acq_max:4008
GPS acq_max:4241
SatID=19
sat19 = 5069 658 2209 5000
GPS acq_max:4250
GPS acq_max:4685
GPS acq_max:4712
GPS acq_max:4825
GPS acq_max:4475
GPS acq_max:4328
GPS acq_max:4731
GPS acq_max:4148
SatID=20
GPS acq_max:4377
GPS acq_max:4548
GPS acq_max:4644
GPS acq_max:4488
GPS acq_max:4941
GPS acq_max:4456
GPS acq_max:4560
GPS acq_max:4452
SatID=20
lsq: nits= 2
$GNGGA,085347.023,3112.7864,N,12136.4531,E,1,07,2.5,91.8,M,,,,0000*25
$GNRMC,085347.023,A,3112.7864,N,12136.4531,E,4.67,131.04,250519,,*11
$GPGSA,A,3,06,17,19,,,,,,,,,,2.8,2.5,1.4*32
$BDGSA,A,3,08,13,27,28,,,,,,,,,2.8,2.5,1.4*2E
$GPGSV,2,1,06,06,46,282,39,17,64,005,45,19,50,332,41,01,09,058,29*7E
$GPGSV,2,2,06,03,35,047,25,23,17,102,00*7A
$BDGSV,2,1,05,08,60,333,39,13,46,289,42,27,13,296,42,28,55,336,45*6D
$BDGSV,2,2,05,14,31,053,00*5C
$LOGTIM,3,9018783.910325,9018571.422316,0.000000,0.000000,-61.641*13
EndT:        1
GPS acq_max:4234
GPS acq_max:4483
GPS acq_max:4333
GPS acq_max:4403
GPS acq_max:4534
GPS acq_max:4319
GPS acq_max:4627
GPS acq_max:4680
SatID=20
GPS acq_max:4596
GPS acq_max:4381
GPS acq_max:3922
GPS acq_max:4269
GPS acq_max:4063
GPS acq_max:4150
GPS acq_max:4159
GPS acq_max:4283
SatID=20
GPS acq_max:4345
GPS acq_max:4185
GPS acq_max:4475
GPS acq_max:5029
GPS acq_max:4742
GPS acq_max:5432
GPS acq_max:4723
GPS acq_max:4205
SatID=20
sat20 = 5432 1709 2215 -4250
GPS acq_max:4044
GPS acq_max:4811
GPS acq_max:4419
GPS acq_max:4716
GPS acq_max:3918
GPS acq_max:3833
GPS acq_max:4077
GPS acq_max:4721
SatID=21
GPS acq_max:4680
GPS acq_max:4554
GPS acq_max:4493
GPS acq_max:4401
GPS acq_max:4170
GPS acq_max:3898
GPS acq_max:4252
GPS acq_max:3966
SatID=21
GPS acq_max:4213
GPS acq_max:4184
GPS acq_max:4602
GPS acq_max:4401
GPS acq_max:4116
GPS acq_max:3985
GPS acq_max:4411
GPS acq_max:4258
SatID=21
GPS acq_max:4301
GPS acq_max:4561
GPS acq_max:4212
GPS acq_max:4232
GPS acq_max:4333
GPS acq_max:4124
GPS acq_max:3887
GPS acq_max:3932
SatID=21
GPS acq_max:4147
GPS acq_max:4379
GPS acq_max:4257
GPS acq_max:4632
GPS acq_max:4508
GPS acq_max:4282
GPS acq_max:4544
GPS acq_max:4463
SatID=21
sat21 = 4811 2025 2175 4750
GPS acq_max:4259
GPS acq_max:4325
GPS acq_max:4483
GPS acq_max:4493
GPS acq_max:4342
GPS acq_max:4310
GPS acq_max:4456
GPS acq_max:4596
SatID=22
GPS acq_max:4146
GPS acq_max:4115
GPS acq_max:4172
GPS acq_max:4790
GPS acq_max:5124
GPS acq_max:4459
GPS acq_max:4084
GPS acq_max:4406
SatID=22
GPS acq_max:4497
GPS acq_max:4498
GPS acq_max:4546
GPS acq_max:4713
GPS acq_max:4881
GPS acq_max:4867
GPS acq_max:4486
GPS acq_max:4840
SatID=22
GPS acq_max:4570
GPS acq_max:4320
GPS acq_max:5207
GPS acq_max:4570
GPS acq_max:4296
GPS acq_max:4742
GPS acq_max:3987
GPS acq_max:4385
SatID=22
GPS acq_max:4531
GPS acq_max:4211
GPS acq_max:4909
GPS acq_max:4385
GPS acq_max:4691
GPS acq_max:4374
GPS acq_max:4281
GPS acq_max:4442
SatID=22
sat22 = 5207 1604 2190 -1500
GPS acq_max:4254
GPS acq_max:4072
GPS acq_max:4471
GPS acq_max:4329
GPS acq_max:4221
GPS acq_max:4336
GPS acq_max:4310
GPS acq_max:4947
SatID=23
GPS acq_max:4305
GPS acq_max:4079
GPS acq_max:4033
GPS acq_max:4418
GPS acq_max:4520
GPS acq_max:4223
GPS acq_max:4227
GPS acq_max:4511
SatID=23
GPS acq_max:4227
GPS acq_max:4314
GPS acq_max:4430
GPS acq_max:4409
GPS acq_max:4450
GPS acq_max:3978
GPS acq_max:4830
GPS acq_max:4637
SatID=23
GPS acq_max:4021
GPS acq_max:4441
GPS acq_max:4539
GPS acq_max:4581
GPS acq_max:4666
GPS acq_max:4829
GPS acq_max:4882
GPS acq_max:4648
SatID=23
GPS acq_max:4024
GPS acq_max:4617
GPS acq_max:4347
GPS acq_max:4583
GPS acq_max:4931
GPS acq_max:4179
GPS acq_max:4187
GPS acq_max:4190
SatID=23
sat23 = 4947 1844 2200 3250
GPS acq_max:4094
GPS acq_max:4667
GPS acq_max:4164
GPS acq_max:4395
GPS acq_max:4314
GPS acq_max:4418
GPS acq_max:4106
GPS acq_max:4561
SatID=24
GPS acq_max:4661
GPS acq_max:4024
GPS acq_max:4074
GPS acq_max:4083
GPS acq_max:4099
GPS acq_max:4307
GPS acq_max:4935
GPS acq_max:4791
SatID=24
GPS acq_max:4193
GPS acq_max:4108
GPS acq_max:4362
GPS acq_max:4650
GPS acq_max:5087
GPS acq_max:4602
GPS acq_max:4452
GPS acq_max:4366
SatID=24
GPS acq_max:4617
GPS acq_max:4019
GPS acq_max:4286
GPS acq_max:3880
GPS acq_max:4503
GPS acq_max:3872
GPS acq_max:4150
GPS acq_max:4087
SatID=24
GPS acq_max:4263
GPS acq_max:4050
GPS acq_max:3929
GPS acq_max:4513
GPS acq_max:4210
GPS acq_max:4327
GPS acq_max:4359
GPS acq_max:4194
SatID=24
sat24 = 5087 388 2166 0
GPS acq_max:4460
GPS acq_max:4026
GPS acq_max:4185
GPS acq_max:4193
GPS acq_max:4037
GPS acq_max:4297
GPS acq_max:4643
GPS acq_max:5021
SatID=25
GPS acq_max:4203
GPS acq_max:3837
GPS acq_max:4146
GPS acq_max:3925
GPS acq_max:4240
GPS acq_max:4219
GPS acq_max:4393
GPS acq_max:5139
SatID=25
GPS acq_max:4469
GPS acq_max:4344
GPS acq_max:4888
GPS acq_max:4618
GPS acq_max:4310
GPS acq_max:4221
GPS acq_max:4449
GPS acq_max:4156
SatID=25
GPS acq_max:3872
GPS acq_max:4218
GPS acq_max:4040
GPS acq_max:3998
GPS acq_max:4004
GPS acq_max:4446
GPS acq_max:4400
GPS acq_max:4118
SatID=25
GPS acq_max:4315
GPS acq_max:4446
GPS acq_max:4127
GPS acq_max:4282
GPS acq_max:4299
GPS acq_max:4028
GPS acq_max:4576
GPS acq_max:4735
SatID=25
sat25 = 5139 1952 2156 1250
GPS acq_max:4517
GPS acq_max:4649
GPS acq_max:4123
GPS acq_max:4164
GPS acq_max:4197
GPS acq_max:4432
GPS acq_max:4365
GPS acq_max:4163
SatID=26
GPS acq_max:4578
GPS acq_max:4307
GPS acq_max:4379
GPS acq_max:4521
GPS acq_max:3895
GPS acq_max:4157
GPS acq_max:4507
GPS acq_max:4088
SatID=26
GPS acq_max:4105
GPS acq_max:4061
GPS acq_max:4092
GPS acq_max:4303
GPS acq_max:4181
GPS acq_max:4635
GPS acq_max:4431
GPS acq_max:3994
SatID=26
GPS acq_max:4335
GPS acq_max:3957
GPS acq_max:4079
GPS acq_max:3950
GPS acq_max:3945
GPS acq_max:4143
GPS acq_max:4892
GPS acq_max:4929
SatID=26
GPS acq_max:4815
GPS acq_max:4633
GPS acq_max:4248
GPS acq_max:4258
GPS acq_max:4030
GPS acq_max:4249
GPS acq_max:4411
GPS acq_max:4341
SatID=26
sat26 = 4929 1109 2160 -2750
GPS acq_max:4534
GPS acq_max:4055
GPS acq_max:4282
GPS acq_max:4122
GPS acq_max:4110
GPS acq_max:4405
GPS acq_max:4863
GPS acq_max:4234
SatID=27
GPS acq_max:3821
GPS acq_max:3973
GPS acq_max:4055
GPS acq_max:4033
GPS acq_max:4218
GPS acq_max:4302
GPS acq_max:4209
GPS acq_max:4341
SatID=27
GPS acq_max:3769
GPS acq_max:4208
GPS acq_max:4049
GPS acq_max:4528
GPS acq_max:3884
GPS acq_max:3934
GPS acq_max:3761
GPS acq_max:3789
SatID=27
GPS acq_max:4567
GPS acq_max:4235
GPS acq_max:4420
GPS acq_max:4106
GPS acq_max:4596
GPS acq_max:4700
GPS acq_max:4500
GPS acq_max:4343
SatID=27
GPS acq_max:4307
GPS acq_max:4616
GPS acq_max:4767
GPS acq_max:4481
GPS acq_max:4237
GPS acq_max:3947
GPS acq_max:4699
GPS acq_max:4541
SatID=27
sat27 = 4863 1427 2135 3500
GPS acq_max:4304
GPS acq_max:4111
GPS acq_max:4086
GPS acq_max:4469
GPS acq_max:4698
GPS acq_max:4286
GPS acq_max:4438
GPS acq_max:4323
SatID=28
---00000016--- Acq_st=3 2019-5-25 08:53:47 
[00]  G06  f 40  -1521.0 2046002.0  1.0  1.0  5  0 550444950
[01]  G17  f 44  -1307.7 2046001.7  1.0  1.0  5  0 550444952
[02]  G19  f 42  -2090.5 2046002.7  1.0  1.0  5  0 550444952
[03]  G01  7 38   2511.8 2045996.7  1.0  1.0  5  0         0
[04]  G03  7 42   2213.7 2045997.0  0.9  1.0  5  0         8
[16]  B08 1f 39   -101.8 4092000.2  1.0  1.0  5  0 550430900
[17]  B13 1f 42   -267.9 4092000.6  1.0  1.0  5  0 550430897
[18]  B27 1f 42  -2504.4 4092006.5  1.0  1.0  5  0 550430937
[19]  B28 1f 45  -1346.3 4092003.5  1.0  1.0  5  0 550430947
GPS acq_max:4658
GPS acq_max:4220
GPS acq_max:4497
GPS acq_max:4489
GPS acq_max:4612
GPS acq_max:4205
GPS acq_max:4411
GPS acq_max:5030
SatID=28
GPS acq_max:4527
GPS acq_max:4051
GPS acq_max:4346
GPS acq_max:4147
GPS acq_max:4004
GPS acq_max:4265
GPS acq_max:4295
GPS acq_max:4634
SatID=28
GPS acq_max:4467
GPS acq_max:4256
GPS acq_max:4172
GPS acq_max:4592
GPS acq_max:4720
GPS acq_max:4207
GPS acq_max:4474
GPS acq_max:4232
SatID=28
lsq: nits= 2
$GNGGA,085348.023,3112.7863,N,12136.4483,E,1,05,4.6,91.4,M,,,,0000*2E
$GNRMC,085348.023,A,3112.7863,N,12136.4483,E,3.77,135.15,250519,,*13
$GPGSA,A,3,06,17,19,,,,,,,,,,5.3,4.6,2.6*3A
$BDGSA,A,3,08,13,,,,,,,,,,,5.3,4.6,2.6*29
$GPGSV,2,1,06,06,46,282,40,17,64,005,44,19,50,332,42,01,09,058,38*72
$GPGSV,2,2,06,03,35,047,42,23,17,102,00*7B
$BDGSV,2,1,05,08,60,333,39,13,46,289,42,27,13,296,42,28,55,336,45*6D
$BDGSV,2,2,05,14,31,053,00*5C
$LOGTIM,3,0.000000,-207.715000,0.000000,0.000000,-62.501*3F
EndT:        0
GPS acq_max:4420
GPS acq_max:4494
GPS acq_max:4620
GPS acq_max:4530
GPS acq_max:5068
GPS acq_max:4226
GPS acq_max:4305
GPS acq_max:4045
SatID=28
sat28 = 5068 80 2198 -4000
GPS acq_max:4055
GPS acq_max:5281
GPS acq_max:4032
GPS acq_max:4059
GPS acq_max:4367
GPS acq_max:4106
GPS acq_max:4551
GPS acq_max:4066
SatID=29
GPS acq_max:4919
GPS acq_max:4724
GPS acq_max:4463
GPS acq_max:4407
GPS acq_max:4743
GPS acq_max:4351
GPS acq_max:4360
GPS acq_max:4433
SatID=29
GPS acq_max:4226
GPS acq_max:4541
GPS acq_max:4251
GPS acq_max:4457
GPS acq_max:4190
GPS acq_max:4298
GPS acq_max:4647
GPS acq_max:5024
SatID=29
GPS acq_max:4160
GPS acq_max:3930
GPS acq_max:4351
GPS acq_max:4077
GPS acq_max:4136
GPS acq_max:4183
GPS acq_max:4352
GPS acq_max:4282
SatID=29
GPS acq_max:4469
GPS acq_max:4066
GPS acq_max:4156
GPS acq_max:3864
GPS acq_max:4470
GPS acq_max:4266
GPS acq_max:4676
GPS acq_max:4100
SatID=29
sat29 = 5281 317 2173 4750
GPS acq_max:4434
GPS acq_max:4382
GPS acq_max:4813
GPS acq_max:4303
GPS acq_max:4425
GPS acq_max:4262
GPS acq_max:4583
