FlashID=0x1 0x20 0x18
BBram_blkflag1: 2109: def6
FW Ver: 1.30  
GPS00 Init Dop:   5000, 40
GPS01 Init Dop:   5000, 40
GPS02 Init Dop:   5000, 40
GPS03 Init Dop:   5000, 40
GPS04 Init Dop:   5000, 40
GPS05 Init Dop:   5000, 40
GPS06 Init Dop:   5000, 40
GPS07 Init Dop:   5000, 40
GPS08 Init Dop:   5000, 40
GPS09 Init Dop:   5000, 40
GPS10 Init Dop:   5000, 40
GPS11 Init Dop:   5000, 40
GPS12 Init Dop:   5000, 40
GPS13 Init Dop:   5000, 40
GPS14 Init Dop:   5000, 40
GPS15 Init Dop:   5000, 40
GPS16 Init Dop:   5000, 40
GPS17 Init Dop:   5000, 40
GPS18 Init Dop:   5000, 40
GPS19 Init Dop:   5000, 40
GPS20 Init Dop:   5000, 40
GPS21 Init Dop:   5000, 40
GPS22 Init Dop:   5000, 40
GPS23 Init Dop:   5000, 40
GPS24 Init Dop:   5000, 40
GPS25 Init Dop:   5000, 40
GPS26 Init Dop:   5000, 40
GPS27 Init Dop:   5000, 40
GPS28 Init Dop:   5000, 40
GPS29 Init Dop:   5000, 40
GPS30 Init Dop:   5000, 40
GPS31 Init Dop:   5000, 40
BDS00 Init Dop:   5000, 40
BDS01 Init Dop:   5000, 40
BDS02 Init Dop:   5000, 40
BDS03 Init Dop:   5000, 40
BDS04 Init Dop:   5000, 40
BDS05 Init Dop:   5000, 40
BDS06 Init Dop:   5000, 40
BDS07 Init Dop:   5000, 40
BDS08 Init Dop:   5000, 40
BDS09 Init Dop:   5000, 40
BDS10 Init Dop:   5000, 40
BDS11 Init Dop:   5000, 40
BDS12 Init Dop:   5000, 40
BDS13 Init Dop:   5000, 40
BDS14 Init Dop:   5000, 40
BDS15 Init Dop:   5000, 40
BDS16 Init Dop:   5000, 40
BDS17 Init Dop:   5000, 40
BDS18 Init Dop:   5000, 40
BDS19 Init Dop:   5000, 40
BDS20 Init Dop:   5000, 40
BDS21 Init Dop:   5000, 40
BDS22 Init Dop:   5000, 40
BDS23 Init Dop:   5000, 40
BDS24 Init Dop:   5000, 40
BDS25 Init Dop:   5000, 40
BDS26 Init Dop:   5000, 40
BDS27 Init Dop:   5000, 40
BDS28 Init Dop:   5000, 40
BDS29 Init Dop:   5000, 40
BDS30 Init Dop:   5000, 40
BDS31 Init Dop:   5000, 40
sat0 = 9033 456 2781 -2500
sat1 = 10933 1044 4193 -1750
sat2 = 9394 335 4209 -250
sat3 = 74281 2043 4234 2500
ch0 satid=3,max_freq = 2500,max_mean = 4234,max_phase = 2043,max_value = 74281,acq ok1!
acq ok1 timeH = 0,timeL = 7406060,freq_stage = 2
sat4 = 10870 93 4297 1750
sat5 = 9996 576 4228 -750
sat6 = 69573 527 4261 3500
ch1 satid=6,max_freq = 3500,max_mean = 4261,max_phase = 527,max_value = 69573,acq ok1!
acq ok1 timeH = 0,timeL = 13773633,freq_stage = 1
sat7 = 9541 155 4184 1000
---00000001--- Acq_st=3 2019-5-27 01:50:39 
[00]  G04  1 18  -2599.8 2046004.3 -0.1  0.0  1  0         0
[01]  G07  1  7  -3513.5 2046006.0  0.0  0.0  1  0         0
$GNGGA,000000.000,,,,,0,00,,,M,,,,0000*2B
$GNRMC,000000.000,A,,,,,,,000000,,*26
$GPGSA,A,1,,,,,,,,,,,,,,,*1E
$BDGSA,A,1,,,,,,,,,,,,,,,*0F
$LOGTIM,0,0.000000,0.000000,0.000000,0.000000,0.000*0A
EndT:        0
sat8 = 31105 1621 4234 1750
ch2 satid=8,max_freq = 1750,max_mean = 4234,max_phase = 1621,max_value = 31105,acq ok1!
acq ok1 timeH = 0,timeL = 18770796,freq_stage = 2
sat9 = 10198 225 4226 500
sat10 = 9765 1383 4169 -2250
sat11 = 9868 1188 4258 -2750
sat12 = 9723 520 4150 500
sat13 = 9708 559 4261 -2250
sat14 = 10918 1719 4297 750
sat15 = 215041 451 4192 -1000
ch3 satid=15,max_freq = -1000,max_mean = 4192,max_phase = 451,max_value = 215041,acq ok1!
acq ok1 timeH = 0,timeL = 35582917,freq_stage = 4
---00000002--- Acq_st=3 2019-5-27 01:50:40 
[00]  G04  7 22  -2612.5 2046003.4  0.3  0.0 20  0        18
[01]  G07  1 31  -3562.5 2046004.9  0.1  0.0  1  0         3
[02]  G09  1 23  -1590.8 2046003.7 -0.0  0.0  1  0         0
[03]  G16  1  7   1128.7 2046000.1  0.0  0.0  1  0         0
$GNGGA,000000.000,,,,,0,00,,,M,,,,0000*2B
$GNRMC,000000.000,A,,,,,,,000000,,*26
$GPGSA,A,1,,,,,,,,,,,,,,,*1E
$BDGSA,A,1,,,,,,,,,,,,,,,*0F
$GPGSV,1,1,01,04,00,000,22*4C
$LOGTIM,0,0.000000,0.000000,0.000000,0.000000,0.000*0A
EndT:        0
sat16 = 9578 1631 4202 4000
sat17 = 9499 405 4085 -2750
sat18 = 10355 141 4087 -4250
sat19 = 9947 1518 4135 -3000
sat20 = 28113 511 4215 -1000
ch4 satid=20,max_freq = -1000,max_mean = 4215,max_phase = 511,max_value = 28113,acq ok1!
acq ok1 timeH = 0,timeL = 46947653,freq_stage = 4
sat21 = 9587 234 4106 1000
sat22 = 99152 270 4138 -250
ch5 satid=22,max_freq = -250,max_mean = 4138,max_phase = 270,max_value = 99152,acq ok1!
acq ok1 timeH = 0,timeL = 51042797,freq_stage = 3
sat23 = 9841 1617 4213 5000
sat24 = 11521 1153 4210 -3500
---00000003--- Acq_st=3 2019-5-27 01:50:41 
[00]  G04  7 43  -2614.2 2046003.3  1.0  1.0  5  0         8
[01]  G07  7 35  -3565.6 2046004.6  0.8  1.0  5  0         3
[02]  G09  7 30  -1597.9 2046002.0  0.1  1.0  5  0         7
[03]  G16  1 30    875.3 2045998.8 -0.2  0.0  1  0        18
[04]  G21  1 26   1017.8 2045999.4  0.1  0.0  1  0         0
[05]  G23  1 19    240.2 2046002.5 -0.0  0.0  1  0         0
$GNGGA,000000.000,,,,,0,00,,,M,,,,0000*2B
$GNRMC,000000.000,A,,,,,,,000000,,*26
$GPGSA,A,1,,,,,,,,,,,,,,,*1E
$BDGSA,A,1,,,,,,,,,,,,,,,*0F
$GPGSV,1,1,03,04,00,000,43,07,00,000,35,09,00,000,30*42
$LOGTIM,0,0.000000,0.000000,0.000000,0.000000,0.000*0A
EndT:        0
sat25 = 127694 1195 4312 -1500
ch6 satid=25,max_freq = -1500,max_mean = 4312,max_phase = 1195,max_value = 127694,acq ok1!
acq ok1 timeH = 0,timeL = 58312390,freq_stage = 4
sat26 = 84607 710 4181 500
ch7 satid=26,max_freq = 500,max_mean = 4181,max_phase = 710,max_value = 84607,acq ok1!
acq ok1 timeH = 0,timeL = 60134578,freq_stage = 3
sat27 = 9945 1634 4182 -1250
sat28 = 9789 604 4190 2500
sat29 = 10537 1069 4163 2250
sat30 = 9623 1314 4168 -3750
sat31 = 9478 1054 4237 3250
---00000004--- Acq_st=3 2019-5-27 01:50:42 
[00]  G04  7 43  -2613.6 2046003.4  1.0  1.0  5  0         8
[01]  G07  7 41  -3565.6 2046004.6  1.0  1.0  5  0         5
[02]  G09  7 38  -1595.5 2046002.0  1.0  1.0  5  0        13
[03]  G16  7 34    874.9 2045998.8  0.7  1.0  5  0        18
[04]  G21  7 20   1012.1 2045998.6  0.2  0.0 20  0         6
[05]  G23  1 32    236.2 2045999.7  0.1  0.0  1  0         9
[06]  G26  1 28   1554.0 2045998.2 -0.1  0.0  1  0         0
[07]  G27  1 23   -600.9 2046001.6 -0.0  0.0  1  0         0
$GNGGA,000000.000,,,,,0,00,,,M,,,,0000*2B
$GNRMC,000000.000,A,,,,,,,000000,,*26
$GPGSA,A,1,,,,,,,,,,,,,,,*1E
$BDGSA,A,1,,,,,,,,,,,,,,,*0F
$GPGSV,2,1,05,04,00,000,43,07,00,000,41,09,00,000,38,16,00,000,34*7C
$GPGSV,2,2,05,21,00,000,19*47
$LOGTIM,0,0.000000,0.000000,0.000000,0.000000,0.000*0A
EndT:        0
sat37 = 1845 996 807 -2000
sat38 = 1947 2124 834 -750
sat39 = 1898 473 810 5000
sat40 = 1965 3881 817 2000
---00000005--- Acq_st=3 2019-5-27 01:50:43 
[00]  G04  f 43  -2611.5 2046003.4  1.0  1.0  5  0         8
[01]  G07  f 41  -3563.3 2046004.6  1.0  1.0  5  0         5
[02]  G09  f 38  -1592.9 2046002.0  1.0  1.0  5  0        13
[03]  G16  7 46    876.7 2045998.8  1.0  1.0  5  0        19
[04]  G21  7 37   1014.7 2045998.6  0.7  1.0  5  0         7
[05]  G23  7 39    237.9 2045999.6  0.8  1.0  5  0         9
[06]  G26  7 31   1561.1 2045997.8  0.5  1.0  5  0        14
[07]  G27  7 28   -605.3 2046000.7  0.4  1.0 10  0        16
$GNGGA,000000.000,,,,,0,00,,,M,,,,0000*2B
$GNRMC,000000.000,A,,,,,,,000000,,*26
$GPGSA,A,1,,,,,,,,,,,,,,,*1E
$BDGSA,A,1,,,,,,,,,,,,,,,*0F
$GPGSV,2,1,08,04,00,000,43,07,00,000,41,09,00,000,38,16,00,000,46*74
$GPGSV,2,2,08,21,00,000,37,23,00,000,39,26,00,000,31,27,00,000,28*74
$LOGTIM,0,0.000000,0.000000,0.000000,0.000000,0.000*0A
EndT:        0
sat41 = 2095 3961 827 4500
sat42 = 1857 483 828 -1500
sat43 = 23970 1049 802 500
ch16 satid=43,max_freq = 500,max_mean = 802,max_phase = 1049,max_value = 23970,acq ok1!
acq ok1 timeH = 0,timeL = 105535964,freq_stage = 3
sat44 = 1943 2927 828 1750
---00000006--- Acq_st=3 2019-5-27 01:50:44 
[00]  G04  f 43  -2613.0 2046003.4  1.0  1.0  5  0  93061848
[01]  G07  f 41  -3565.7 2046004.6  1.0  1.0  5  0  93061845
[02]  G09  f 38  -1594.4 2046002.1  1.0  1.0  5  0  93061853
[03]  G16  7 46    874.8 2045998.9  1.0  1.0  5  0        19
[04]  G21  7 37   1012.7 2045998.6  1.0  1.0  5  0         7
[05]  G23  7 43    236.3 2045999.6  1.0  1.0  5  0        16
[06]  G26  7 44   1558.2 2045997.9  1.0  1.0  5  0        14
[07]  G27  7 42   -607.7 2046000.7  1.0  1.0  5  0         2
[16]  B07  1  7   -444.6 4092002.8 -0.1  0.0  1  0         0
$GNGGA,000000.000,,,,,0,00,,,M,,,,0000*2B
$GNRMC,000000.000,A,,,,,,,000000,,*26
$GPGSA,A,1,,,,,,,,,,,,,,,*1E
$BDGSA,A,1,,,,,,,,,,,,,,,*0F
$GPGSV,2,1,08,04,00,000,43,07,00,000,41,09,00,000,38,16,00,000,46*74
$GPGSV,2,2,08,21,00,000,37,23,00,000,43,26,00,000,44,27,00,000,42*77
$LOGTIM,0,0.000000,0.000000,0.000000,0.000000,0.000*0A
EndT:        0
sat45 = 1955 2953 808 -1500
sat46 = 25896 3064 822 500
ch17 satid=46,max_freq = 500,max_mean = 822,max_phase = 3064,max_value = 25896,acq ok1!
acq ok1 timeH = 0,timeL = 120842385,freq_stage = 3
sat47 = 1908 3783 817 -1250
sat48 = 1877 2596 819 4000
---00000007--- Acq_st=3 2019-5-27 01:50:45 
[00]  G04  f 44  -2617.0 2046003.4  1.0  1.0  5  0  93062848
[01]  G07  f 41  -3570.5 2046004.6  1.0  1.0  5  0  93062845
[02]  G09  f 37  -1599.0 2046002.1  1.0  1.0  5  0  93062853
[03]  G16  7 46    870.2 2045998.9  1.0  1.0  5  0        19
[04]  G21  7 37   1008.7 2045998.6  1.0  1.0  5  0         7
[05]  G23  7 43    232.5 2045999.7  1.0  1.0  5  0        16
[06]  G26  7 44   1553.8 2045997.9  1.0  1.0  5  0        14
[07]  G27  7 43   -611.2 2046000.8  1.0  1.0  5  0         2
[16]  B07  7  7   -431.6 4092001.1  0.3  0.0 10  0       343
[17]  B10  1  7   -477.0 4092002.0  0.1  0.0  1  0         0
$GNGGA,000000.000,,,,,0,00,,,M,,,,0000*2B
$GNRMC,000000.000,A,,,,,,,000000,,*26
$GPGSA,A,1,,,,,,,,,,,,,,,*1E
$BDGSA,A,1,,,,,,,,,,,,,,,*0F
$GPGSV,2,1,08,04,00,000,44,07,00,000,41,09,00,000,37,16,00,000,46*7C
$GPGSV,2,2,08,21,00,000,37,23,00,000,43,26,00,000,44,27,00,000,43*76
$LOGTIM,0,0.000000,0.000000,0.000000,0.000000,0.000*0A
EndT:        1
sat49 = 2037 1213 853 4750
sat50 = 2136 2440 822 2000
sat51 = 1850 1167 820 1000
---00000008--- Acq_st=3 2019-5-27 01:50:46 
[00]  G04  f 44  -2618.9 2046003.4  1.0  1.0  5  0  93063848
[01]  G07  f 40  -3573.1 2046004.7  1.0  1.0  5  0  93063845
[02]  G09  f 37  -1600.1 2046002.1  1.0  1.0  5  0  93063853
[03]  G16  7 46    868.3 2045998.9  1.0  1.0  5  0        19
[04]  G21  7 37   1006.8 2045998.7  1.0  1.0  5  0         7
[05]  G23  7 43    231.1 2045999.7  1.0  1.0  5  0        16
[06]  G26  7 45   1552.0 2045997.9  1.0  1.0  5  0        14
[07]  G27  7 43   -612.8 2046000.8  1.0  1.0  5  0         2
[16]  B07  7 44   -433.5 4092001.1  0.8  1.0  5  0      1327
[17]  B10  7 23   -474.9 4092001.2  0.3  0.0 20  0       545
$GNGGA,000000.000,,,,,0,00,,,M,,,,0000*2B
$GNRMC,000000.000,A,,,,,,,000000,,*26
$GPGSA,A,1,,,,,,,,,,,,,,,*1E
$BDGSA,A,1,,,,,,,,,,,,,,,*0F
$GPGSV,2,1,08,04,00,000,44,07,00,000,40,09,00,000,37,16,00,000,46*7D
$GPGSV,2,2,08,21,00,000,37,23,00,000,43,26,00,000,45,27,00,000,43*77
$BDGSV,1,1,02,07,00,000,44,10,00,000,23*6D
$LOGTIM,0,0.000000,0.000000,0.000000,0.000000,0.000*0A
EndT:        0
sat52 = 2059 1300 840 5000
sat53 = 1882 844 818 -2250
sat54 = 2141 3561 832 500
sat55 = 2082 3979 831 1750
---00000009--- Acq_st=3 2019-5-27 01:50:47 
[00]  G04  f 44  -2619.4 2046003.4  1.0  1.0  5  0  93064848
[01]  G07  f 40  -3574.0 2046004.7  1.0  1.0  5  0  93064845
[02]  G09  f 37  -1600.6 2046002.1  1.0  1.0  5  0  93064853
[03]  G16  7 45    867.6 2045998.9  1.0  1.0  5  0        19
[04]  G21  7 37   1006.1 2045998.6  1.0  1.0  5  0         7
[05]  G23  7 43    230.8 2045999.7  1.0  1.0  5  0        16
[06]  G26  7 44   1551.0 2045997.9  1.0  1.0  5  0        14
[07]  G27  7 43   -613.0 2046000.8  1.0  1.0  5  0         2
[16]  B07  7 43   -434.4 4092001.1  1.0  1.0  5  0      2327
[17]  B10  7 44   -475.6 4092001.2  0.9  1.0  5  0      1543
$GNGGA,000000.000,,,,,0,00,,,M,,,,0000*2B
$GNRMC,000000.000,A,,,,,,,000000,,*26
$GPGSA,A,1,,,,,,,,,,,,,,,*1E
$BDGSA,A,1,,,,,,,,,,,,,,,*0F
$GPGSV,2,1,08,04,00,000,44,07,00,000,40,09,00,000,37,16,00,000,45*7E
$GPGSV,2,2,08,21,00,000,37,23,00,000,43,26,00,000,44,27,00,000,43*76
$BDGSV,1,1,02,07,00,000,43,10,00,000,44*6B
$LOGTIM,0,0.000000,0.000000,0.000000,0.000000,0.000*0A
EndT:        1
sat56 = 2020 1228 843 -1750
sat57 = 7635 3405 818 -1250
ch18 satid=57,max_freq = -1250,max_mean = 818,max_phase = 3405,max_value = 7635,acq ok1!
acq ok1 timeH = 0,timeL = 177982526,freq_stage = 4
sat58 = 1929 1196 810 500
sat59 = 1981 1444 822 -2500
---00000010--- Acq_st=3 2019-5-27 01:50:48 
[00]  G04  f 43  -2617.0 2046003.4  1.0  1.0  5  0  93065848
[01]  G07  f 41  -3571.8 2046004.7  1.0  1.0  5  0  93065845
[02]  G09  f 37  -1598.7 2046002.0  1.0  1.0  5  0  93065853
[03]  G16  7 46    869.3 2045998.9  1.0  1.0  5  0        19
[04]  G21  7 37   1008.6 2045998.7  1.0  1.0  5  0         7
[05]  G23  7 43    233.1 2045999.7  1.0  1.0  5  0        16
[06]  G26  7 44   1552.8 2045997.9  1.0  1.0  5  0        14
[07]  G27  7 43   -610.5 2046000.8  1.0  1.0  5  0         2
[16]  B07  7 44   -433.0 4092001.1  1.0  1.0  5  0      3327
[17]  B10  7 44   -474.0 4092001.2  1.0  1.0  5  0      2543
[18]  B21  1  7   1263.7 4091997.0  0.0  0.0  1  0         0
$GNGGA,000000.000,,,,,0,00,,,M,,,,0000*2B
$GNRMC,000000.000,A,,,,,,,000000,,*26
$GPGSA,A,1,,,,,,,,,,,,,,,*1E
$BDGSA,A,1,,,,,,,,,,,,,,,*0F
$GPGSV,2,1,08,04,00,000,43,07,00,000,41,09,00,000,37,16,00,000,46*7B
$GPGSV,2,2,08,21,00,000,37,23,00,000,43,26,00,000,44,27,00,000,43*76
$BDGSV,1,1,02,07,00,000,44,10,00,000,44*6C
$LOGTIM,0,0.000000,0.000000,0.000000,0.000000,0.000*0A
EndT:        0
sat60 = 2013 2823 811 -1250
sat61 = 1847 2076 811 -3750
sat62 = 2841 421 813 3000
sat63 = 1839 3751 812 -2250
---00000011--- Acq_st=3 2019-5-27 01:50:49 
[00]  G04  f 43  -2612.6 2046003.4  1.0  1.0  5  0  93066848
[01]  G07  f 40  -3568.6 2046004.7  1.0  1.0  5  0  93066845
[02]  G09  f 37  -1595.0 2046002.1  1.0  1.0  5  0  93066853
[03]  G16  f 46    873.6 2045998.9  1.0  1.0  5  0        19
[04]  G21  f 38   1013.5 2045998.6  1.0  1.0  5  0         7
[05]  G23  f 44    237.3 2045999.7  1.0  1.0  5  0        16
[06]  G26  f 44   1556.7 2045998.0  1.0  1.0  5  0        14
[07]  G27  f 43   -606.0 2046000.8  1.0  1.0  5  0         2
[16]  B07  7 44   -429.5 4092001.1  1.0  1.0  5  0      4327
[17]  B10  7 44   -470.2 4092001.2  1.0  1.0  5  0      3543
[18]  B21  7 24   1260.0 4091996.7  0.4  0.0 20  0       622
$GNGGA,000000.000,,,,,0,00,,,M,,,,0000*2B
$GNRMC,000000.000,A,,,,,,,000000,,*26
$GPGSA,A,1,,,,,,,,,,,,,,,*1E
$BDGSA,A,1,,,,,,,,,,,,,,,*0F
$GPGSV,2,1,08,04,00,000,43,07,00,000,40,09,00,000,37,16,00,000,46*7A
$GPGSV,2,2,08,21,00,000,38,23,00,000,44,26,00,000,44,27,00,000,43*7E
$BDGSV,1,1,03,07,00,000,44,10,00,000,44,21,00,000,24*58
$LOGTIM,0,0.000000,0.000000,0.000000,0.000000,0.000*0A
EndT:        0
sat64 = 1879 1474 842 2250
sat65 = 2167 4052 850 1500
sat66 = 41521 3586 826 -1500
ch19 satid=66,max_freq = -1500,max_mean = 826,max_phase = 3586,max_value = 41521,acq ok1!
acq ok1 timeH = 0,timeL = 223901798,freq_stage = 4
---00000012--- Acq_st=3 2019-5-27 01:50:50 
[00]  G04  f 43  -2610.9 2046003.4  1.0  1.0  5  0  93067848
[01]  G07  f 40  -3567.2 2046004.7  1.0  1.0  5  0  93067845
[02]  G09  f 37  -1592.2 2046002.1  1.0  1.0  5  0  93067853
[03]  G16  f 46    874.8 2045998.9  1.0  1.0  5  0  93067859
[04]  G21  f 38   1014.9 2045998.7  1.0  1.0  5  0  93067847
[05]  G23  f 43    239.4 2045999.7  1.0  1.0  5  0  93067856
[06]  G26  f 44   1558.1 2045998.0  1.0  1.0  5  0  93067854
[07]  G27  f 42   -604.5 2046000.8  1.0  1.0  5  0  93067862
[16]  B07  7 44   -427.8 4092001.1  1.0  1.0  5  0      5327
[17]  B10  7 44   -469.1 4092001.2  1.0  1.0  5  0      4543
[18]  B21  7 38   1261.7 4091996.7  0.9  1.0  5  0      1621
[19]  B30  1  7   1512.8 4091997.0 -0.1  0.0  1  0         0
$GNGGA,000000.000,,,,,0,00,,,M,,,,0000*2B
$GNRMC,000000.000,A,,,,,,,000000,,*26
$GPGSA,A,1,,,,,,,,,,,,,,,*1E
$BDGSA,A,1,,,,,,,,,,,,,,,*0F
$GPGSV,2,1,08,04,00,000,43,07,00,000,40,09,00,000,37,16,00,000,46*7A
$GPGSV,2,2,08,21,00,000,38,23,00,000,43,26,00,000,44,27,00,000,42*78
$BDGSV,1,1,03,07,00,000,44,10,00,000,44,21,00,000,38*55
$LOGTIM,0,0.000000,0.000000,0.000000,0.000000,0.000*0A
EndT:        0
sat67 = 2455 2785 838 1750
sat68 = 2028 69 852 -1250
---00000013--- Acq_st=7 2019-5-27 01:50:51 
[00]  G04  f 43  -2614.3 2046003.4  1.0  1.0  5  0  93068848
[01]  G07  f 40  -3570.8 2046004.7  1.0  1.0  5  0  93068845
[02]  G09  f 37  -1595.1 2046002.1  1.0  1.0  5  0  93068853
[03]  G16  f 45    871.3 2045998.9  1.0  1.0  5  0  93068859
[04]  G21  f 38   1011.8 2045998.7  1.0  1.0  5  0  93068847
[05]  G23  f 43    236.4 2045999.7  1.0  1.0  5  0  93068856
[06]  G26  f 44   1554.8 2045998.0  1.0  1.0  5  0  93068854
[07]  G27  f 43   -607.0 2046000.7  1.0  1.0  5  0  93068862
[16]  B07 1f 44   -431.7 4092001.1  1.0  1.0  5  0      6327
[17]  B10 1f 44   -472.7 4092001.2  1.0  1.0  5  0      5543
[18]  B21 1f 38   1258.2 4091996.7  1.0  0.9  5  0      2621
[19]  B30  1  7   1524.1 4091995.8  0.3  0.0  1  0       231
$GNGGA,000000.000,,,,,0,00,,,M,,,,0000*2B
$GNRMC,000000.000,A,,,,,,,000000,,*26
$GPGSA,A,1,,,,,,,,,,,,,,,*1E
$BDGSA,A,1,,,,,,,,,,,,,,,*0F
$GPGSV,2,1,08,04,00,000,43,07,00,000,40,09,00,000,37,16,00,000,45*79
$GPGSV,2,2,08,21,00,000,38,23,00,000,43,26,00,000,44,27,00,000,43*79
$BDGSV,1,1,03,07,00,000,44,10,00,000,44,21,00,000,38*55
$LOGTIM,0,0.000000,0.000000,0.000000,0.000000,0.000*0A
EndT:        0
sat0 = 11162 1503 4153 1500
sat1 = 9719 1257 4098 2750
sat2 = 10219 1745 4127 5000
sat4 = 9740 477 4060 4250
sat5 = 10091 183 4106 1750
sat7 = 11577 568 4040 -4750
sat9 = 10138 1539 4060 -2000
sat10 = 11239 14 4032 -3250
---00000014--- Acq_st=3 2019-5-27 01:50:52 
[00]  G04  f 43  -2614.4 2046003.4  1.0  1.0  5  0  93069848
[01]  G07  f 40  -3571.8 2046004.6  1.0  1.0  5  0  93069845
[02]  G09  f 37  -1595.1 2046002.1  1.0  1.0  5  0  93069853
[03]  G16  f 45    870.9 2045998.9  1.0  1.0  5  0  93069859
[04]  G21  f 38   1011.6 2045998.6  1.0  0.9  5  0  93069847
[05]  G23  f 43    236.2 2045999.7  1.0  1.0  5  0  93069856
[06]  G26  f 45   1554.2 2045998.0  1.0  1.0  5  0  93069854
[07]  G27  f 43   -607.2 2046000.8  1.0  1.0  5  0  93069862
[16]  B07 1f 44   -432.4 4092001.1  1.0  1.0  5  0  93055807
[17]  B10 1f 44   -473.4 4092001.2  1.0  1.0  5  0  93055803
[18]  B21 1f 37   1257.9 4091996.7  1.0  1.0  5  0  93055841
[19]  B30  7 37   1523.6 4091996.0  0.9  1.0  5  0      1231
$GNGGA,000000.000,,,,,0,00,,,M,,,,0000*2B
$GNRMC,000000.000,A,,,,,,,000000,,*26
$GPGSA,A,1,,,,,,,,,,,,,,,*1E
$BDGSA,A,1,,,,,,,,,,,,,,,*0F
$GPGSV,2,1,08,04,00,000,43,07,00,000,40,09,00,000,37,16,00,000,45*79
$GPGSV,2,2,08,21,00,000,38,23,00,000,43,26,00,000,45,27,00,000,43*78
$BDGSV,1,1,04,07,00,000,44,10,00,000,44,21,00,000,37,30,00,000,37*6A
$LOGTIM,0,0.000000,0.000000,0.000000,0.000000,0.000*0A
EndT:        0
sat11 = 9466 1892 4043 -1750
sat12 = 9813 157 4110 -250
sat13 = 11079 830 4147 2500
sat14 = 10799 1134 4157 750
sat16 = 10513 938 4194 2000
sat17 = 9076 1047 4127 250
sat18 = 9435 1396 4122 4000
sat19 = 10630 1162 4114 -1250
---00000015--- Acq_st=3 2019-5-27 01:50:53 
[00]  G04  f 43  -2612.5 2046003.4  1.0  1.0  5  0  93070848
[01]  G07  f 40  -3570.3 2046004.6  1.0  1.0  5  0  93070845
[02]  G09  f 37  -1593.2 2046002.0  1.0  0.9  5  0  93070853
[03]  G16  f 45    872.8 2045998.9  1.0  1.0  5  0  93070859
[04]  G21  f 38   1014.1 2045998.7  1.0  1.0  5  0  93070847
[05]  G23  f 42    238.3 2045999.7  1.0  1.0  5  0  93070856
[06]  G26  f 44   1555.3 2045998.0  1.0  1.0  5  0  93070854
[07]  G27  f 43   -605.2 2046000.8  1.0  1.0  5  0  93070862
[16]  B07 1f 43   -430.9 4092001.1  1.0  1.0  5  0  93056807
[17]  B10 1f 44   -471.8 4092001.2  1.0  1.0  5  0  93056803
[18]  B21 1f 37   1259.2 4091996.7  1.0  1.0  5  0  93056841
[19]  B30  7 46   1525.8 4091996.0  1.0  1.0  5  0      2212
sat21 = 9680 721 4052 5000
$GNGGA,000000.000,,,,,0,00,,,M,,,,0000*2B
$GNRMC,000000.000,A,,,,,,,000000,,*26
$GPGSA,A,1,,,,,,,,,,,,,,,*1E
$BDGSA,A,1,,,,,,,,,,,,,,,*0F
$GPGSV,2,1,08,04,00,000,43,07,00,000,40,09,00,000,37,16,00,000,45*79
$GPGSV,2,2,08,21,00,000,38,23,00,000,42,26,00,000,44,27,00,000,43*78
$BDGSV,1,1,04,07,00,000,43,10,00,000,44,21,00,000,37,30,00,000,46*6B
$LOGTIM,0,0.000000,0.000000,0.000000,0.000000,0.000*0A
EndT:        0
sat23 = 10593 651 4176 2250
sat24 = 9597 1417 4081 -750
sat27 = 9362 1980 4084 1500
sat28 = 9266 159 4168 -2500
sat29 = 9623 180 4096 -2500
sat30 = 9792 1261 4091 1500
sat31 = 9542 1036 4121 3500
---00000016--- Acq_st=3 2019-5-27 01:50:54 
[00]  G04  f 43  -2611.8 2046003.4  1.0  1.0  5  0  93071848
[01]  G07  f 40  -3569.8 2046004.6  1.0  1.0  5  0  93071845
[02]  G09  f 37  -1592.8 2046002.0  1.0  1.0  5  0  93071853
[03]  G16  f 45    873.1 2045998.9  1.0  1.0  5  0  93071859
[04]  G21  f 38   1014.0 2045998.7  1.0  1.0  5  0  93071847
[05]  G23  f 42    239.4 2045999.7  1.0  1.0  5  0  93071856
[06]  G26  f 45   1556.0 2045998.0  1.0  1.0  5  0  93071854
[07]  G27  f 43   -604.2 2046000.8  1.0  1.0  5  0  93071862
[16]  B07 1f 43   -430.6 4092001.1  1.0  1.0  5  0  93057807
[17]  B10 1f 44   -471.7 4092001.2  1.0  1.0  5  0  93057803
[18]  B21 1f 37   1259.8 4091996.7  1.0  1.0  5  0  93057841
[19]  B30  7 46   1526.3 4091996.0  1.0  1.0  5  0      3212
$GNGGA,000000.000,,,,,0,00,,,M,,,,0000*2B
$GNRMC,000000.000,A,,,,,,,000000,,*26
$GPGSA,A,1,,,,,,,,,,,,,,,*1E
$BDGSA,A,1,,,,,,,,,,,,,,,*0F
$GPGSV,2,1,08,04,00,000,43,07,00,000,40,09,00,000,37,16,00,000,45*79
$GPGSV,2,2,08,21,00,000,38,23,00,000,42,26,00,000,45,27,00,000,43*79
$BDGSV,1,1,04,07,00,000,43,10,00,000,44,21,00,000,37,30,00,000,46*6B
$LOGTIM,0,0.000000,0.000000,0.000000,0.000000,0.000*0A
EndT:        0
sat37 = 1993 3727 810 -4750
sat38 = 2047 3355 857 -3000
sat39 = 2747 917 877 4500
sat40 = 2032 736 824 2250
---00000017--- Acq_st=3 2019-5-27 01:50:55 
[00]  G04  f 43  -2608.7 2046003.4  1.0  1.0  5  0  93072848
[01]  G07  f 40  -3567.3 2046004.6  1.0  1.0  5  0  93072845
[02]  G09  f 36  -1589.9 2046002.0  1.0  1.0  5  0  93072853
[03]  G16  f 45    875.8 2045998.9  1.0  1.0  5  0  93072859
[04]  G21  f 38   1016.7 2045998.7  1.0  1.0  5  0  93072847
[05]  G23  f 43    242.1 2045999.7  1.0  1.0  5  0  93072856
[06]  G26  f 44   1558.7 2045998.0  1.0  1.0  5  0  93072854
[07]  G27  f 43   -601.0 2046000.8  1.0  1.0  5  0  93072862
[16]  B07 1f 43   -428.2 4092001.1  1.0  1.0  5  0  93058807
[17]  B10 1f 44   -469.3 4092001.2  1.0  1.0  5  0  93058803
[18]  B21 1f 38   1262.9 4091996.7  1.0  0.9  5  0  93058841
[19]  B30  7 46   1529.1 4091996.0  1.0  1.0  5  0      4212
$GNGGA,000000.000,,,,,0,00,,,M,,,,0000*2B
$GNRMC,000000.000,A,,,,,,,000000,,*26
$GPGSA,A,1,,,,,,,,,,,,,,,*1E
$BDGSA,A,1,,,,,,,,,,,,,,,*0F
$GPGSV,2,1,08,04,00,000,43,07,00,000,40,09,00,000,36,16,00,000,45*78
$GPGSV,2,2,08,21,00,000,38,23,00,000,43,26,00,000,44,27,00,000,43*79
$BDGSV,1,1,04,07,00,000,43,10,00,000,44,21,00,000,38,30,00,000,46*64
$LOGTIM,0,0.000000,0.000000,0.000000,0.000000,0.000*0A
EndT:        0
sat41 = 2142 1876 880 5000
sat42 = 1984 346 831 1250
sat44 = 2034 2712 850 2000
sat45 = 1945 1976 818 -1000
---00000018--- Acq_st=3 2019-5-27 01:50:56 
[00]  G04  f 43  -2608.7 2046003.4  1.0  1.0  5  0  93073848
[01]  G07  f 40  -3568.2 2046004.6  1.0  1.0  5  0  93073845
[02]  G09  f 38  -1589.6 2046002.0  1.0  1.0  5  0  93073853
[03]  G16  f 45    875.4 2045998.9  1.0  1.0  5  0  93073859
[04]  G21  f 38   1017.0 2045998.7  1.0  1.0  5  0  93073847
[05]  G23  f 43    242.5 2045999.7  1.0  1.0  5  0  93073856
[06]  G26  f 45   1557.9 2045998.0  1.0  1.0  5  0  93073854
[07]  G27  f 43   -601.2 2046000.8  1.0  1.0  5  0  93073862
[16]  B07 1f 43   -429.3 4092001.1  1.0  1.0  5  0  93059807
[17]  B10 1f 44   -470.1 4092001.2  1.0  1.0  5  0  93059803
[18]  B21 1f 37   1262.2 4091996.7  1.0  1.0  5  0  93059841
[19]  B30  7 46   1528.8 4091996.0  1.0  1.0  5  0      5212
$GNGGA,000000.000,,,,,0,00,,,M,,,,0000*2B
$GNRMC,000000.000,A,,,,,,,000000,,*26
$GPGSA,A,1,,,,,,,,,,,,,,,*1E
$BDGSA,A,1,,,,,,,,,,,,,,,*0F
$GPGSV,2,1,08,04,00,000,43,07,00,000,40,09,00,000,38,16,00,000,45*76
$GPGSV,2,2,08,21,00,000,38,23,00,000,43,26,00,000,45,27,00,000,43*78
$BDGSV,1,1,04,07,00,000,43,10,00,000,44,21,00,000,37,30,00,000,46*6B
$LOGTIM,0,0.000000,0.000000,0.000000,0.000000,0.000*0A
EndT:        0
sat47 = 1916 1876 826 -4500
sat48 = 2087 2862 820 4750
sat49 = 1899 527 816 -2250
---00000019--- Acq_st=3 2019-5-27 01:50:57 
[00]  G04  f 42  -2610.5 2046003.4  1.0  1.0  5  0  93074848
[01]  G07  f 40  -3570.4 2046004.6  1.0  1.0  5  0  93074845
[02]  G09  f 37  -1590.6 2046002.1  1.0  1.0  5  0  93074853
[03]  G16  f 46    873.5 2045998.9  1.0  1.0  5  0  93074859
[04]  G21  f 39   1015.2 2045998.6  1.0  1.0  5  0  93074847
[05]  G23  f 42    240.9 2045999.7  1.0  1.0  5  0  93074856
[06]  G26  f 45   1556.1 2045998.0  1.0  1.0  5  0  93074854
[07]  G27  f 42   -602.1 2046000.8  1.0  1.0  5  0  93074862
[16]  B07 1f 43   -430.7 4092001.1  1.0  1.0  5  0  93060807
[17]  B10 1f 44   -472.0 4092001.2  1.0  1.0  5  0  93060803
[18]  B21 1f 37   1261.2 4091996.7  1.0  1.0  5  0  93060841
[19]  B30 1f 46   1527.8 4091996.0  1.0  1.0  5  0      6212
$GNGGA,000000.000,,,,,0,00,,,M,,,,0000*2B
$GNRMC,000000.000,A,,,,,,,000000,,*26
$GPGSA,A,1,,,,,,,,,,,,,,,*1E
$BDGSA,A,1,,,,,,,,,,,,,,,*0F
$GPGSV,2,1,08,04,00,000,42,07,00,000,40,09,00,000,37,16,00,000,46*7B
$GPGSV,2,2,08,21,00,000,39,23,00,000,42,26,00,000,45,27,00,000,42*79
$BDGSV,1,1,04,07,00,000,43,10,00,000,44,21,00,000,37,30,00,000,46*6B
$LOGTIM,0,0.000000,0.000000,0.000000,0.000000,0.000*0A
EndT:        0
sat50 = 1931 806 867 4250
sat51 = 1882 116 823 -1250
sat52 = 1869 2296 847 -500
sat53 = 2069 1945 849 -1750
---00000020--- Acq_st=3 2019-5-27 01:50:58 
[00]  G04  f 42  -2610.9 2046003.4  1.0  1.0  5  0  93075848
[01]  G07  f 40  -3571.0 2046004.6  1.0  1.0  5  0  93075845
[02]  G09  f 38  -1590.4 2046002.0  1.0  1.0  5  0  93075853
[03]  G16  f 45    872.7 2045998.9  1.0  1.0  5  0  93075859
[04]  G21  f 39   1015.4 2045998.6  1.0  1.0  5  0  93075847
[05]  G23  f 42    240.8 2045999.7  1.0  1.0  5  0  93075856
[06]  G26  f 45   1555.3 2045998.0  1.0  1.0  5  0  93075854
[07]  G27  f 42   -602.7 2046000.8  1.0  1.0  5  0  93075862
[16]  B07 1f 43   -431.8 4092001.1  1.0  1.0  5  0  93061807
[17]  B10 1f 44   -473.1 4092001.2  1.0  1.0  5  0  93061803
[18]  B21 1f 37   1260.1 4091996.7  1.0  1.0  5  0  93061841
[19]  B30 1f 46   1527.2 4091996.0  1.0  1.0  5  0  93061852
$GNGGA,000000.000,,,,,0,00,,,M,,,,0000*2B
$GNRMC,000000.000,A,,,,,,,000000,,*26
$GPGSA,A,1,,,,,,,,,,,,,,,*1E
$BDGSA,A,1,,,,,,,,,,,,,,,*0F
$GPGSV,2,1,08,04,00,000,42,07,00,000,40,09,00,000,38,16,00,000,45*77
$GPGSV,2,2,08,21,00,000,39,23,00,000,42,26,00,000,45,27,00,000,42*79
$BDGSV,1,1,04,07,00,000,43,10,00,000,44,21,00,000,37,30,00,000,46*6B
$LOGTIM,0,0.000000,0.000000,0.000000,0.000000,0.000*0A
EndT:        0
sat54 = 2112 3642 844 4250
sat55 = 2097 3001 880 -1500
sat56 = 1988 78 835 3250
sat58 = 1933 2594 822 3000
---00000021--- Acq_st=3 2019-5-27 01:50:59 
[00]  G04  f 42  -2610.9 2046003.4  1.0  1.0  5  0  93076848
[01]  G07  f 41  -3571.8 2046004.6  1.0  1.0  5  0  93076845
[02]  G09  f 38  -1591.4 2046002.1  1.0  1.0  5  0  93076853
[03]  G16  f 45    872.7 2045998.9  1.0  1.0  5  0  93076859
[04]  G21  f 39   1015.1 2045998.7  1.0  1.0  5  0  93076847
[05]  G23  f 42    241.0 2045999.7  1.0  1.0  5  0  93076856
[06]  G26  f 44   1554.7 2045998.0  1.0  1.0  5  0  93076854
[07]  G27  f 42   -602.2 2046000.8  1.0  1.0  5  0  93076862
[16]  B07 1f 43   -432.8 4092001.1  1.0  1.0  5  0  93062807
[17]  B10 1f 44   -473.7 4092001.2  1.0  1.0  5  0  93062803
[18]  B21 1f 37   1259.4 4091996.7  1.0  1.0  5  0  93062841
[19]  B30 1f 47   1527.1 4091996.0  1.0  1.0  5  0  93062852
$GNGGA,000000.000,,,,,0,00,,,M,,,,0000*2B
$GNRMC,000000.000,A,,,,,,,000000,,*26
$GPGSA,A,1,,,,,,,,,,,,,,,*1E
$BDGSA,A,1,,,,,,,,,,,,,,,*0F
$GPGSV,2,1,08,04,00,000,42,07,00,000,41,09,00,000,38,16,00,000,45*76
$GPGSV,2,2,08,21,00,000,39,23,00,000,42,26,00,000,44,27,00,000,42*78
$BDGSV,1,1,04,07,00,000,43,10,00,000,44,21,00,000,37,30,00,000,47*6A
$LOGTIM,0,0.000000,0.000000,0.000000,0.000000,0.000*0A
EndT:        0
sat59 = 2000 1664 825 -4500
sat60 = 1877 1739 806 2750
sat61 = 1919 2332 809 -2500
sat62 = 1846 2743 805 1000
---00000022--- Acq_st=3 2019-5-27 01:51:0 
[00]  G04  f 42  -2610.8 2046003.4  1.0  1.0  5 3f  93077848
[01]  G07  f 41  -3571.6 2046004.6  1.0  1.0  5  0  93077845
[02]  G09  f 37  -1591.2 2046002.1  1.0  1.0  5  0  93077853
[03]  G16  f 45    872.4 2045998.9  1.0  1.0  5  0  93077859
[04]  G21  f 39   1015.4 2045998.7  1.0  1.0  5  0  93077847
[05]  G23  f 42    241.1 2045999.7  1.0  1.0  5  0  93077856
[06]  G26  f 44   1554.8 2045998.0  1.0  1.0  5  0  93077854
[07]  G27  f 42   -601.6 2046000.8  1.0  1.0  5  0  93077862
[16]  B07 1f 43   -432.8 4092001.1  1.0  1.0  5  0  93063807
[17]  B10 1f 44   -473.8 4092001.3  1.0  1.0  5  0  93063803
[18]  B21 1f 37   1259.2 4091996.7  1.0  1.0  5  0  93063841
[19]  B30 1f 47   1527.2 4091996.0  1.0  1.0  5  0  93063852
$GNGGA,000000.000,,,,,0,00,,,M,,,,0000*2B
$GNRMC,000000.000,A,,,,,,,000000,,*26
$GPGSA,A,1,,,,,,,,,,,,,,,*1E
$BDGSA,A,1,,,,,,,,,,,,,,,*0F
$GPGSV,2,1,08,04,00,000,42,07,00,000,41,09,00,000,37,16,00,000,45*79
$GPGSV,2,2,08,21,00,000,39,23,00,000,42,26,00,000,44,27,00,000,42*78
$BDGSV,1,1,04,07,00,000,43,10,00,000,44,21,00,000,37,30,00,000,47*6A
$LOGTIM,0,0.000000,0.000000,0.000000,0.000000,0.000*0A
EndT:        0
sat63 = 2013 4029 812 -4750
sat64 = 1907 2773 836 -2500
sat65 = 1977 3365 840 -2250
---00000023--- Acq_st=3 2019-5-27 01:51:1 
[00]  G04  f 42  -2609.4 2046003.4  1.0  1.0  5 3f  93078848
[01]  G07  f 41  -3571.2 2046004.6  1.0  1.0  5  0  93078845
[02]  G09  f 37  -1590.0 2046002.1  1.0  1.0  5  0  93078853
[03]  G16  f 45    873.3 2045998.9  1.0  1.0  5  0  93078859
[04]  G21  f 39   1016.2 2045998.7  1.0  1.0  5  0  93078847
[05]  G23  f 42    242.2 2045999.7  1.0  1.0  5  0  93078856
[06]  G26  f 44   1555.1 2045998.0  1.0  1.0  5  0  93078854
[07]  G27  f 42   -600.7 2046000.8  1.0  1.0  5  0  93078862
[16]  B07 1f 43   -431.8 4092001.1  1.0  1.0  5  0  93064807
[17]  B10 1f 44   -473.0 4092001.2  1.0  1.0  5  0  93064803
[18]  B21 1f 37   1261.3 4091996.6  1.0  1.0  5  0  93064841
[19]  B30 1f 47   1528.5 4091996.0  1.0  1.0  5  0  93064852
sat67 = 1901 2030 815 -1250
$GNGGA,000000.000,,,,,0,00,,,M,,,,0000*2B
$GNRMC,000000.000,A,,,,,,,000000,,*26
$GPGSA,A,1,,,,,,,,,,,,,,,*1E
$BDGSA,A,1,,,,,,,,,,,,,,,*0F
$GPGSV,2,1,08,04,00,000,42,07,00,000,41,09,00,000,37,16,00,000,45*79
$GPGSV,2,2,08,21,00,000,39,23,00,000,42,26,00,000,44,27,00,000,42*78
$BDGSV,1,1,04,07,00,000,43,10,00,000,44,21,00,000,37,30,00,000,47*6A
$LOGTIM,0,0.000000,0.000000,0.000000,0.000000,0.000*0A
EndT:        0
sat68 = 1965 588 826 1500
---00000024--- Acq_st=7 2019-5-27 01:51:2 
[00]  G04  f 42  -2609.3 2046003.4  1.0  1.0  5 3f  93079848
[01]  G07  f 41  -3572.1 2046004.6  1.0  1.0  5  0  93079845
[02]  G09  f 38  -1589.9 2046002.1  1.0  1.0  5  0  93079853
[03]  G16  f 45    872.9 2045998.9  1.0  1.0  5  0  93079859
[04]  G21  f 39   1015.8 2045998.7  1.0  0.9  5  0  93079847
[05]  G23  f 42    242.7 2045999.7  1.0  1.0  5  0  93079856
[06]  G26  f 44   1555.0 2045998.0  1.0  1.0  5  0  93079854
[07]  G27  f 43   -600.2 2046000.8  1.0  1.0  5  0  93079862
[16]  B07 1f 43   -432.5 4092001.1  1.0  1.0  5  0  93065807
[17]  B10 1f 44   -474.1 4092001.2  1.0  1.0  5  0  93065803
[18]  B21 1f 37   1260.9 4091996.7  1.0  1.0  5  0  93065841
[19]  B30 1f 47   1528.2 4091996.0  1.0  1.0  5  0  93065852
$GNGGA,000000.000,,,,,0,00,,,M,,,,0000*2B
$GNRMC,000000.000,A,,,,,,,000000,,*26
$GPGSA,A,1,,,,,,,,,,,,,,,*1E
$BDGSA,A,1,,,,,,,,,,,,,,,*0F
$GPGSV,2,1,08,04,00,000,42,07,00,000,41,09,00,000,38,16,00,000,45*76
$GPGSV,2,2,08,21,00,000,39,23,00,000,42,26,00,000,44,27,00,000,43*79
$BDGSV,1,1,04,07,00,000,43,10,00,000,44,21,00,000,37,30,00,000,47*6A
$LOGTIM,0,0.000000,0.000000,0.000000,0.000000,0.000*0A
EndT:        0
---00000025--- Acq_st=7 2019-5-27 01:51:3 
[00]  G04  f 42  -2607.2 2046003.4  1.0  1.0  5 3f  93080848
[01]  G07  f 41  -3569.5 2046004.6  1.0  1.0  5  0  93080845
[02]  G09  f 38  -1585.9 2046002.1  1.0  1.0  5  0  93080853
[03]  G16  f 45    875.2 2045998.9  1.0  1.0  5  0  93080859
[04]  G21  f 39   1018.5 2045998.7  1.0  1.0  5  0  93080847
[05]  G23  f 42    245.4 2045999.7  1.0  1.0  5  0  93080856
[06]  G26  f 44   1557.3 2045998.0  1.0  1.0  5  0  93080854
[07]  G27  f 42   -597.5 2046000.8  1.0  1.0  5  0  93080862
[16]  B07 1f 43   -430.4 4092001.1  1.0  1.0  5  0  93066807
[17]  B10 1f 44   -471.6 4092001.2  1.0  1.0  5  0  93066803
[18]  B21 1f 38   1262.8 4091996.7  1.0  1.0  5  0  93066841
[19]  B30 1f 47   1530.9 4091996.0  1.0  1.0  5  0  93066852
$GNGGA,000000.000,,,,,0,00,,,M,,,,0000*2B
$GNRMC,000000.000,A,,,,,,,000000,,*26
$GPGSA,A,1,,,,,,,,,,,,,,,*1E
$BDGSA,A,1,,,,,,,,,,,,,,,*0F
$GPGSV,2,1,08,04,00,000,42,07,00,000,41,09,00,000,38,16,00,000,45*76
$GPGSV,2,2,08,21,00,000,39,23,00,000,42,26,00,000,44,27,00,000,42*78
$BDGSV,1,1,04,07,00,000,43,10,00,000,44,21,00,000,38,30,00,000,47*65
$LOGTIM,0,0.000000,0.000000,0.000000,0.000000,0.000*0A
EndT:        0
sat0 = 9197 823 3874 -4000
sat1 = 9800 224 3855 -4500
sat2 = 9858 1518 3922 -2750
sat4 = 9074 981 3900 -4250
sat5 = 10077 1129 3928 2000
sat7 = 9056 1574 3844 -2250
sat9 = 11300 1897 3922 -3500
sat10 = 9423 895 3941 2750
---00000026--- Acq_st=3 2019-5-27 01:51:4 
[00]  G04  f 42  -2606.2 2046003.4  1.0  1.0  5 3f  93081848
[01]  G07  f 41  -3569.8 2046004.6  1.0  1.0  5  0  93081845
[02]  G09  f 39  -1585.5 2046002.1  1.0  1.0  5  0  93081853
[03]  G16  f 45    875.7 2045998.8  1.0  1.0  5  0  93081859
[04]  G21  f 39   1019.7 2045998.7  1.0  1.0  5  0  93081847
[05]  G23  f 42    246.4 2045999.7  1.0  1.0  5  0  93081856
[06]  G26  f 44   1557.7 2045998.0  1.0  1.0  5  0  93081854
[07]  G27  f 43   -596.6 2046000.8  1.0  1.0  5  0  93081862
[16]  B07 1f 43   -430.1 4092001.1  1.0  1.0  5  0  93067807
[17]  B10 1f 45   -471.3 4092001.2  1.0  1.0  5  0  93067803
[18]  B21 1f 38   1263.4 4091996.6  1.0  0.9  5  0  93067841
[19]  B30 1f 47   1531.7 4091995.9  1.0  1.0  5  0  93067852
$GNGGA,000000.000,,,,,0,00,,,M,,,,0000*2B
$GNRMC,000000.000,A,,,,,,,000000,,*26
$GPGSA,A,1,,,,,,,,,,,,,,,*1E
$BDGSA,A,1,,,,,,,,,,,,,,,*0F
$GPGSV,2,1,08,04,00,000,42,07,00,000,41,09,00,000,39,16,00,000,45*77
$GPGSV,2,2,08,21,00,000,39,23,00,000,42,26,00,000,44,27,00,000,43*79
$BDGSV,1,1,04,07,00,000,43,10,00,000,45,21,00,000,38,30,00,000,47*64
$LOGTIM,0,0.000000,0.000000,0.000000,0.000000,0.000*0A
EndT:        0
sat11 = 9761 985 3929 -4750
sat12 = 8440 1009 3882 -1000
sat13 = 9867 1133 3873 -2500
sat14 = 10593 917 3903 2250
sat16 = 9225 832 3929 -2750
sat17 = 9055 1504 3871 -2250
sat18 = 9482 1215 3925 1500
sat19 = 9366 1441 3942 -1250
---00000027--- Acq_st=3 2019-5-27 01:51:5 
[00]  G04  f 42  -2604.7 2046003.4  1.0  1.0  5 3f  93082848
[01]  G07  f 41  -3569.0 2046004.7  1.0  1.0  5  0  93082845
[02]  G09  f 38  -1584.0 2046002.1  1.0  1.0  5  0  93082853
[03]  G16  f 45    876.7 2045998.9  1.0  1.0  5  0  93082859
[04]  G21  f 38   1021.3 2045998.7  1.0  1.0  5  0  93082847
[05]  G23  f 42    247.7 2045999.7  1.0  1.0  5  0  93082856
[06]  G26  f 44   1558.5 2045998.0  1.0  1.0  5  0  93082854
[07]  G27  f 43   -595.1 2046000.7  1.0  1.0  5  0  93082862
[16]  B07 1f 44   -429.5 4092001.1  1.0  1.0  5  0  93068807
[17]  B10 1f 45   -471.0 4092001.2  1.0  1.0  5  0  93068803
[18]  B21 1f 38   1264.5 4091996.7  1.0  1.0  5  0  93068841
[19]  B30 1f 47   1532.8 4091996.0  1.0  1.0  5  0  93068852
sat21 = 9191 1929 3830 -4750
$GNGGA,000000.000,,,,,0,00,,,M,,,,0000*2B
$GNRMC,000000.000,A,,,,,,,000000,,*26
$GPGSA,A,1,,,,,,,,,,,,,,,*1E
$BDGSA,A,1,,,,,,,,,,,,,,,*0F
$GPGSV,2,1,08,04,00,000,42,07,00,000,41,09,00,000,38,16,00,000,45*76
$GPGSV,2,2,08,21,00,000,38,23,00,000,42,26,00,000,44,27,00,000,43*78
$BDGSV,1,1,04,07,00,000,44,10,00,000,45,21,00,000,38,30,00,000,47*63
$LOGTIM,0,0.000000,0.000000,0.000000,0.000000,0.000*0A
EndT:        0
sat23 = 9178 2022 3970 -4000
sat24 = 9611 1132 3917 5000
sat27 = 8490 2017 3873 -4500
sat28 = 9195 1591 3854 -2000
sat29 = 8943 967 3851 1250
sat30 = 9071 1523 3893 3500
sat31 = 10770 1267 3938 2250
---00000028--- Acq_st=3 2019-5-27 01:51:6 
[00]  G04  f 42  -2606.4 2046003.4  1.0  1.0  5 3f  93083848
[01]  G07  f 41  -3570.5 2046004.6  1.0  1.0  5  0  93083845
[02]  G09  f 37  -1585.6 2046002.0  1.0  1.0  5  0  93083853
[03]  G16  f 45    874.9 2045998.9  1.0  1.0  5  0  93083859
[04]  G21  f 38   1019.1 2045998.8  1.0  1.0  5  0  93083847
[05]  G23  f 42    246.6 2045999.7  1.0  1.0  5  0  93083856
[06]  G26  f 44   1556.5 2045998.0  1.0  1.0  5  0  93083854
[07]  G27  f 43   -596.8 2046000.8  1.0  1.0  5  0  93083862
[16]  B07 1f 44   -431.6 4092001.1  1.0  1.0  5  0  93069807
[17]  B10 1f 44   -472.7 4092001.2  1.0  1.0  5  0  93069803
[18]  B21 1f 38   1262.2 4091996.7  1.0  1.0  5  0  93069841
[19]  B30 1f 47   1531.0 4091996.0  1.0  1.0  5  0  93069852
$GNGGA,000000.000,,,,,0,00,,,M,,,,0000*2B
$GNRMC,000000.000,A,,,,,,,000000,,*26
$GPGSA,A,1,,,,,,,,,,,,,,,*1E
$BDGSA,A,1,,,,,,,,,,,,,,,*0F
$GPGSV,2,1,08,04,00,000,42,07,00,000,41,09,00,000,37,16,00,000,45*79
$GPGSV,2,2,08,21,00,000,38,23,00,000,42,26,00,000,44,27,00,000,43*78
$BDGSV,1,1,04,07,00,000,44,10,00,000,44,21,00,000,38,30,00,000,47*62
$LOGTIM,0,0.000000,0.000000,0.000000,0.000000,0.000*0A
EndT:        0
sat37 = 1880 781 798 1500
sat38 = 1994 3528 836 -4500
sat39 = 1955 926 810 500
sat40 = 1967 2372 818 -1000
---00000029--- Acq_st=3 2019-5-27 01:51:7 
[00]  G04  f 42  -2605.7 2046003.4  1.0  1.0  5 3f  93084848
[01]  G07  f 42  -3571.2 2046004.6  1.0  1.0  5  0  93084845
[02]  G09  f 37  -1585.4 2046002.0  1.0  1.0  5  0  93084853
[03]  G16  f 45    875.0 2045998.8  1.0  1.0  5  0  93084859
[04]  G21  f 38   1019.7 2045998.7  1.0  1.0  5  0  93084847
[05]  G23  f 42    247.0 2045999.7  1.0  1.0  5  0  93084856
[06]  G26  f 44   1556.6 2045997.9  1.0  1.0  5  0  93084854
[07]  G27  f 43   -596.1 2046000.8  1.0  1.0  5  0  93084862
[16]  B07 1f 44   -431.3 4092001.1  1.0  1.0  5  0  93070807
[17]  B10 1f 44   -472.7 4092001.3  1.0  1.0  5  0  93070803
[18]  B21 1f 38   1263.5 4091996.6  1.0  1.0  5  0  93070841
[19]  B30 1f 47   1531.7 4091996.0  1.0  1.0  5  0  93070852
sat41 = 1881 3588 825 -1250
$GNGGA,000000.000,,,,,0,00,,,M,,,,0000*2B
$GNRMC,000000.000,A,,,,,,,000000,,*26
$GPGSA,A,1,,,,,,,,,,,,,,,*1E
$BDGSA,A,1,,,,,,,,,,,,,,,*0F
$GPGSV,2,1,08,04,00,000,42,07,00,000,42,09,00,000,37,16,00,000,45*7A
$GPGSV,2,2,08,21,00,000,38,23,00,000,42,26,00,000,44,27,00,000,43*78
$BDGSV,1,1,04,07,00,000,44,10,00,000,44,21,00,000,38,30,00,000,47*62
$LOGTIM,0,0.000000,0.000000,0.000000,0.000000,0.000*0A
EndT:        0
sat42 = 1869 641 819 -1750
sat44 = 1880 2128 816 500
sat45 = 1863 1163 806 -750
---00000030--- Acq_st=3 2019-5-27 01:51:8 
[00]  G04  f 42  -2604.4 2046003.4  1.0  1.0  5 3f  93085848
[01]  G07  f 42  -3569.8 2046004.7  1.0  1.0  5  0  93085845
[02]  G09  f 38  -1583.9 2046002.0  1.0  1.0  5  0  93085853
[03]  G16  f 46    876.2 2045998.9  1.0  1.0  5  0  93085859
[04]  G21  f 38   1020.6 2045998.6  1.0  1.0  5  0  93085847
[05]  G23  f 42    248.2 2045999.7  1.0  1.0  5  0  93085856
[06]  G26  f 44   1557.9 2045998.0  1.0  1.0  5  0  93085854
[07]  G27  f 44   -594.2 2046000.8  1.0  1.0  5  0  93085862
[16]  B07 1f 44   -430.6 4092001.1  1.0  1.0  5  0  93071807
[17]  B10 1f 45   -471.8 4092001.2  1.0  1.0  5  0  93071803
[18]  B21 1f 38   1264.6 4091996.7  1.0  1.0  5  0  93071841
[19]  B30 1f 47   1533.1 4091996.0  1.0  1.0  5  0  93071852
$GNGGA,000000.000,,,,,0,00,,,M,,,,0000*2B
$GNRMC,000000.000,A,,,,,,,000000,,*26
$GPGSA,A,1,,,,,,,,,,,,,,,*1E
$BDGSA,A,1,,,,,,,,,,,,,,,*0F
$GPGSV,2,1,08,04,00,000,42,07,00,000,42,09,00,000,38,16,00,000,46*76
$GPGSV,2,2,08,21,00,000,38,23,00,000,42,26,00,000,44,27,00,000,44*7F
$BDGSV,1,1,04,07,00,000,44,10,00,000,45,21,00,000,38,30,00,000,47*63
$LOGTIM,0,0.000000,0.000000,0.000000,0.000000,0.000*0A
EndT:        0
sat47 = 1916 2980 808 1500
sat48 = 1851 2340 809 2750
sat49 = 2010 971 816 -250
---00000031--- Acq_st=3 2019-5-27 01:51:9 
[00]  G04  f 41  -2604.3 2046003.4  1.0  1.0  5 3f  93086848
[01]  G07  f 41  -3570.1 2046004.6  1.0  1.0  5  0  93086845
[02]  G09  f 37  -1582.7 2046002.1  1.0  1.0  5  0  93086853
[03]  G16  f 46    876.3 2045998.8  1.0  1.0  5  0  93086859
[04]  G21  f 38   1021.8 2045998.7  1.0  1.0  5  0  93086847
[05]  G23  f 42    249.3 2045999.7  1.0  1.0  5  0  93086856
[06]  G26  f 44   1557.8 2045998.0  1.0  1.0  5  0  93086854
[07]  G27  f 43   -593.7 2046000.8  1.0  1.0  5  0  93086862
[16]  B07 1f 44   -430.4 4092001.1  1.0  1.0  5  0  93072807
[17]  B10 1f 45   -471.7 4092001.2  1.0  1.0  5  0  93072803
[18]  B21 1f 38   1264.9 4091996.7  1.0  0.9  5  0  93072841
[19]  B30 1f 47   1533.7 4091996.0  1.0  1.0  5  0  93072852
sat50 = 1899 1929 823 -3500
$GNGGA,000000.000,,,,,0,00,,,M,,,,0000*2B
$GNRMC,000000.000,A,,,,,,,000000,,*26
$GPGSA,A,1,,,,,,,,,,,,,,,*1E
$BDGSA,A,1,,,,,,,,,,,,,,,*0F
$GPGSV,2,1,08,04,00,000,41,07,00,000,41,09,00,000,37,16,00,000,46*79
$GPGSV,2,2,08,21,00,000,38,23,00,000,42,26,00,000,44,27,00,000,43*78
$BDGSV,1,1,04,07,00,000,44,10,00,000,45,21,00,000,38,30,00,000,47*63
$LOGTIM,0,0.000000,0.000000,0.000000,0.000000,0.000*0A
EndT:        0
sat51 = 1942 919 811 5000
sat52 = 1971 3059 828 -3500
sat53 = 2135 3025 816 5000
---00000032--- Acq_st=3 2019-5-27 01:51:10 
[00]  G04  f 42  -2602.0 2046003.4  1.0  1.0  5 3f  93087848
[01]  G07  f 41  -3568.2 2046004.6  1.0  1.0  5  0  93087845
[02]  G09  f 38  -1580.2 2046002.0  1.0  1.0  5  0  93087853
[03]  G16  f 46    878.4 2045998.9  1.0  1.0  5  0  93087859
[04]  G21  f 38   1024.2 2045998.7  1.0  1.0  5  0  93087847
[05]  G23  f 41    251.4 2045999.7  1.0  1.0  5  0  93087856
[06]  G26  f 43   1559.9 2045998.0  1.0  1.0  5  0  93087854
[07]  G27  f 44   -591.4 2046000.7  1.0  1.0  5  0  93087862
[16]  B07 1f 44   -428.9 4092001.1  1.0  1.0  5  0  93073807
[17]  B10 1f 44   -470.0 4092001.2  1.0  1.0  5  0  93073803
[18]  B21 1f 38   1266.7 4091996.7  1.0  1.0  5  0  93073841
[19]  B30 1f 47   1535.9 4091996.0  1.0  1.0  5  0  93073852
$GNGGA,000000.000,,,,,0,00,,,M,,,,0000*2B
$GNRMC,000000.000,A,,,,,,,000000,,*26
$GPGSA,A,1,,,,,,,,,,,,,,,*1E
$BDGSA,A,1,,,,,,,,,,,,,,,*0F
$GPGSV,2,1,08,04,00,000,42,07,00,000,41,09,00,000,38,16,00,000,46*75
$GPGSV,2,2,08,21,00,000,38,23,00,000,41,26,00,000,43,27,00,000,44*7B
$BDGSV,1,1,04,07,00,000,44,10,00,000,44,21,00,000,38,30,00,000,47*62
$LOGTIM,0,0.000000,0.000000,0.000000,0.000000,0.000*0A
EndT:        0
sat54 = 2054 95 828 250
sat55 = 1906 504 813 -1500
sat56 = 2205 460 813 1250
sat58 = 1777 2330 804 -1000
---00000033--- Acq_st=3 2019-5-27 01:51:11 
[00]  G04  f 42  -2597.1 2046003.3  1.0  1.0  5 3f  93088848
[01]  G07  f 41  -3564.4 2046004.7  1.0  1.0  5  0  93088845
[02]  G09  f 38  -1575.9 2046002.1  1.0  1.0  5  0  93088853
[03]  G16  f 45    882.4 2045998.8  1.0  1.0  5  0  93088859
[04]  G21  f 38   1028.9 2045998.6  1.0  1.0  5  0  93088847
[05]  G23  f 42    256.4 2045999.7  1.0  1.0  5  0  93088856
[06]  G26  f 43   1563.7 2045998.0  1.0  1.0  5  0  93088854
[07]  G27  f 44   -586.7 2046000.7  1.0  1.0  5  0  93088862
[16]  B07 1f 44   -424.7 4092001.1  1.0  1.0  5  0  93074807
[17]  B10 1f 45   -466.3 4092001.2  1.0  1.0  5  0  93074803
[18]  B21 1f 38   1270.7 4091996.7  1.0  1.0  5  0  93074841
[19]  B30 1f 47   1540.2 4091995.9  1.0  1.0  5  0  93074852
$GNGGA,000000.000,,,,,0,00,,,M,,,,0000*2B
$GNRMC,000000.000,A,,,,,,,000000,,*26
$GPGSA,A,1,,,,,,,,,,,,,,,*1E
$BDGSA,A,1,,,,,,,,,,,,,,,*0F
$GPGSV,2,1,08,04,00,000,42,07,00,000,41,09,00,000,38,16,00,000,45*76
$GPGSV,2,2,08,21,00,000,38,23,00,000,42,26,00,000,43,27,00,000,44*78
$BDGSV,1,1,04,07,00,000,44,10,00,000,45,21,00,000,38,30,00,000,47*63
$LOGTIM,0,0.000000,0.000000,0.000000,0.000000,0.000*0A
EndT:        0
sat59 = 1931 125 814 250
sat60 = 2105 3223 805 500
sat61 = 1839 1620 802 -1000
sat62 = 3568 3914 804 3000
ch20 satid=62,max_freq = 3000,max_mean = 804,max_phase = 3914,max_value = 3568,acq ok1!
acq ok1 timeH = 0,timeL = 647149314,freq_stage = 2
---00000034--- Acq_st=3 2019-5-27 01:51:12 
[00]  G04  f 42  -2597.4 2046003.4  1.0  1.0  5 3f  93089848
[01]  G07  f 42  -3565.4 2046004.6  1.0  1.0  5  0  93089845
[02]  G09  f 38  -1575.9 2046002.1  1.0  1.0  5  0  93089853
[03]  G16  f 46    881.9 2045998.9  1.0  1.0  5  0  93089859
[04]  G21  f 39   1028.1 2045998.7  1.0  1.0  5  0  93089847
[05]  G23  f 42    256.1 2045999.7  1.0  1.0  5  0  93089856
[06]  G26  f 44   1562.9 2045998.0  1.0  1.0  5  0  93089854
[07]  G27  f 44   -586.5 2046000.8  1.0  1.0  5  0  93089862
[16]  B07 1f 44   -426.0 4092001.1  1.0  1.0  5  0  93075807
[17]  B10 1f 44   -466.9 4092001.2  1.0  1.0  5  0  93075803
[18]  B21 1f 38   1269.9 4091996.6  1.0  1.0  5  0  93075841
[19]  B30 1f 47   1539.9 4091995.9  1.0  1.0  5  0  93075852
[20]  B26  1  7   2197.7 4092007.8 -0.0  0.0  1  0         0
$GNGGA,000000.000,,,,,0,00,,,M,,,,0000*2B
$GNRMC,000000.000,A,,,,,,,000000,,*26
$GPGSA,A,1,,,,,,,,,,,,,,,*1E
$BDGSA,A,1,,,,,,,,,,,,,,,*0F
$GPGSV,2,1,08,04,00,000,42,07,00,000,42,09,00,000,38,16,00,000,46*76
$GPGSV,2,2,08,21,00,000,39,23,00,000,42,26,00,000,44,27,00,000,44*7E
$BDGSV,1,1,04,07,00,000,44,10,00,000,44,21,00,000,38,30,00,000,47*62
$LOGTIM,0,0.000000,0.000000,0.000000,0.000000,0.000*0A
EndT:        0
sat63 = 1978 2117 810 -2250
sat64 = 1998 158 833 -2500
sat65 = 2115 3529 829 1750
---00000035--- Acq_st=3 2019-5-27 01:51:13 
[00]  G04  f 42  -2598.9 2046003.4  1.0  1.0  5 3f  93090848
[01]  G07  f 42  -3566.6 2046004.6  1.0  1.0  5  0  93090845
[02]  G09  f 38  -1577.0 2046002.0  1.0  1.0  5  0  93090853
[03]  G16  f 46    880.6 2045998.8  1.0  1.0  5  0  93090859
[04]  G21  f 39   1027.1 2045998.7  1.0  1.0  5  0  93090847
[05]  G23  f 41    255.1 2045999.7  1.0  1.0  5  0  93090856
[06]  G26  f 43   1561.6 2045998.0  1.0  1.0  5  0  93090854
[07]  G27  f 44   -587.9 2046000.8  1.0  1.0  5  0  93090862
[16]  B07 1f 44   -427.3 4092001.1  1.0  1.0  5  0  93076807
[17]  B10 1f 45   -468.3 4092001.2  1.0  1.0  5  0  93076803
[18]  B21 1f 38   1269.2 4091996.7  1.0  1.0  5  0  93076841
[19]  B30 1f 48   1538.9 4091996.0  1.0  1.0  5  0  93076852
[20]  B26  1 11  -2872.8 4092009.1  0.0  0.0  1  0        80
sat67 = 2036 2852 807 0
$GNGGA,000000.000,,,,,0,00,,,M,,,,0000*2B
$GNRMC,000000.000,A,,,,,,,000000,,*26
$GPGSA,A,1,,,,,,,,,,,,,,,*1E
$BDGSA,A,1,,,,,,,,,,,,,,,*0F
$GPGSV,2,1,08,04,00,000,42,07,00,000,42,09,00,000,38,16,00,000,46*76
$GPGSV,2,2,08,21,00,000,39,23,00,000,41,26,00,000,43,27,00,000,44*7A
$BDGSV,1,1,04,07,00,000,44,10,00,000,45,21,00,000,38,30,00,000,48*6C
$LOGTIM,0,0.000000,0.000000,0.000000,0.000000,0.000*0A
EndT:        0
sat68 = 1921 3709 823 4750
---00000036--- Acq_st=7 2019-5-27 01:51:14 
[00]  G04  f 42  -2597.8 2046003.4  1.0  1.0  5 3f  93091848
[01]  G07  f 42  -3567.0 2046004.7  1.0  1.0  5  0  93091845
[02]  G09  f 38  -1576.3 2046002.0  1.0  1.0  5  0  93091853
[03]  G16  f 46    880.9 2045998.9  1.0  1.0  5  0  93091859
[04]  G21  f 39   1028.1 2045998.7  1.0  1.0  5  0  93091847
[05]  G23  f 41    255.8 2045999.7  1.0  1.0  5  0  93091856
[06]  G26  f 44   1562.1 2045998.0  1.0  1.0  5  0  93091854
[07]  G27  f 44   -586.8 2046000.7  1.0  1.0  5  0  93091862
[16]  B07 1f 44   -427.4 4092001.1  1.0  1.0  5  0  93077807
[17]  B10 1f 44   -468.7 4092001.2  1.0  1.0  5  0  93077803
[18]  B21 1f 38   1269.4 4091996.7  1.0  1.0  5  0  93077841
[19]  B30 1f 47   1539.0 4091996.0  1.0  1.0  5  0  93077852
[20]  B26  7 30  -2884.9 4092007.6  0.6  1.0  5  0      1080
lsq: nits= 5
$GNGGA,015114.929,3112.6869,N,12136.4451,E,1,06,4.4,73.5,M,,,,0000*27
$GNRMC,015114.929,A,3112.6869,N,12136.4451,E,0.62,0.00,270519,,*10
$GPGSA,A,3,07,09,,,,,,,,,,,5.0,4.4,2.2*39
$BDGSA,A,3,07,10,21,30,,,,,,,,,5.0,4.4,2.2*20
$GPGSV,2,1,08,04,00,000,42,07,00,000,42,09,00,000,38,16,00,000,46*76
$GPGSV,2,2,08,21,00,000,39,23,00,000,41,26,00,000,44,27,00,000,44*7D
$BDGSV,2,1,05,07,00,000,44,10,00,000,44,21,00,000,38,30,00,000,47*60
$BDGSV,2,2,05,26,00,000,30*5A
$LOGTIM,3,7202217.655985,7202099.490035,0.000000,0.000000,-58.514*14
EndT:        1
---00000037--- Acq_st=7 2019-5-27 01:51:15 
[00]  G04  f 42  -2597.8 2046003.4  1.0  1.0  5 3f  93092848
[01]  G07  f 42  -3566.7 2046004.6  1.0  1.0  5  0  93092846
[02]  G09  f 37  -1575.8 2046002.0  1.0  1.0  5  0  93092853
[03]  G16  f 46    880.7 2045998.9  1.0  1.0  5  0  93092859
[04]  G21  f 39   1028.6 2045998.7  1.0  1.0  5  0  93092847
[05]  G23  f 41    256.1 2045999.7  1.0  1.0  5  0  93092856
[06]  G26  f 44   1561.8 2045998.0  1.0  1.0  5  0  93092854
[07]  G27  f 44   -586.4 2046000.8  1.0  1.0  5  0  93092862
[16]  B07 1f 44   -427.6 4092001.1  1.0  1.0  5  0  93078807
[17]  B10 1f 45   -468.7 4092001.2  1.0  1.0  5  0  93078803
[18]  B21 1f 38   1269.5 4091996.7  1.0  1.0  5  0  93078841
[19]  B30 1f 47   1539.4 4091996.0  1.0  1.0  5  0  93078852
[20]  B26  7 34  -2885.5 4092007.7  1.0  1.0  5  0      2079
sat0 = 10696 984 3812 500
lsq: nits= 2
$GNGGA,015116.000,3112.7290,N,12136.4790,E,1,06,3.7,45.5,M,,,,0000*25
$GNRMC,015116.000,A,3112.7290,N,12136.4790,E,0.81,0.00,270519,,*1E
$GPGSA,A,3,07,09,,,,,,,,,,,4.2,3.7,1.9*36
$BDGSA,A,3,07,10,21,30,,,,,,,,,4.2,3.7,1.9*2F
$GPGSV,2,1,08,04,00,000,42,07,00,000,42,09,00,000,37,16,00,000,46*79
$GPGSV,2,2,08,21,00,000,39,23,00,000,41,26,00,000,44,27,00,000,44*7D
$BDGSV,2,1,05,07,00,000,44,10,00,000,45,21,00,000,38,30,00,000,47*61
$BDGSV,2,2,05,26,00,000,34*5E
$LOGTIM,3,-57.421523,-198.836995,0.000000,0.000000,-59.111*20
EndT:        1
sat1 = 9371 1404 3833 4250
sat2 = 9539 1932 3869 -4750
sat4 = 11127 1118 3831 -3000
sat5 = 8823 1635 3831 -500
sat7 = 8684 304 3767 1500
sat9 = 9439 642 3821 4000
sat10 = 9799 1808 3817 1000
---00000038--- Acq_st=3 2019-5-27 01:51:16 
[00]  G04  f 42  -2599.6 2046003.4  1.0  1.0  5 3f  93093919
[01]  G07  f 42  -3569.5 2046004.6  1.0  1.0  5  0  93093916
[02]  G09  f 37  -1577.3 2046002.0  1.0  0.9  5  0  93093924
[03]  G16  f 46    878.6 2045998.9  1.0  1.0  5  0  93093929
[04]  G21  f 38   1025.7 2045998.6  1.0  1.0  5  0  93093917
[05]  G23  f 41    254.9 2045999.7  1.0  1.0  5  0  93093927
[06]  G26  f 43   1559.5 2045998.0  1.0  1.0  5  0  93093925
[07]  G27  f 44   -588.0 2046000.7  1.0  1.0  5  0  93093933
[16]  B07 1f 44   -429.7 4092001.1  1.0  1.0  5  0  93079878
[17]  B10 1f 45   -471.2 4092001.3  1.0  1.0  5  0  93079874
[18]  B21 1f 38   1267.0 4091996.7  1.0  1.0  5  0  93079912
[19]  B30 1f 47   1537.5 4091996.0  1.0  1.0  5  0  93079922
[20]  B26  7 33  -2888.0 4092007.7  1.0  0.9  5  0      3150
sat11 = 9080 1982 3873 -1250
lsq: nits= 2
$GNGGA,015117.000,3112.7107,N,12136.4602,E,1,06,3.7,45.8,M,,,,0000*2E
$GNRMC,015117.000,A,3112.7107,N,12136.4602,E,0.44,0.00,270519,,*11
$GPGSA,A,3,07,09,,,,,,,,,,,4.2,3.7,1.9*36
$BDGSA,A,3,07,10,21,30,,,,,,,,,4.2,3.7,1.9*2F
$GPGSV,2,1,08,04,00,000,42,07,11,313,42,09,28,299,37,16,00,000,46*70
$GPGSV,2,2,08,21,00,000,38,23,00,000,41,26,36,056,43,27,00,000,44*7D
$BDGSV,2,1,05,07,65,353,44,10,49,305,45,21,07,268,38,30,43,051,47*64
$BDGSV,2,2,05,26,00,000,33*59
$LOGTIM,3,-115.465825,-258.776963,0.000000,0.000000,-59.245*13
EndT:        1
sat12 = 9863 1106 3817 -1000
sat13 = 8928 621 3826 -1250
sat14 = 9864 232 3888 3250
sat16 = 9623 8 3861 2250
sat17 = 9379 1943 3788 1250
sat18 = 8978 648 3828 4750
sat19 = 9533 1723 3798 -3000
---00000039--- Acq_st=3 2019-5-27 01:51:17 
[00]  G04  f 42  -2600.1 2046003.4  1.0  1.0  5 3f  93094919
[01]  G07  f 42  -3570.8 2046004.6  1.0  1.0  5  0  93094916
[02]  G09  f 37  -1577.9 2046002.0  1.0  1.0  5  0  93094924
[03]  G16  f 45    877.4 2045998.9  1.0  1.0  5  0  93094929
[04]  G21  f 39   1025.1 2045998.6  1.0  1.0  5  0  93094917
[05]  G23  f 40    253.4 2045999.7  1.0  1.0  5  0  93094927
[06]  G26  f 44   1558.3 2045998.0  1.0  1.0  5  0  93094925
[07]  G27  f 44   -588.8 2046000.8  1.0  1.0  5  0  93094933
[16]  B07 1f 44   -431.4 4092001.1  1.0  1.0  5  0  93080878
[17]  B10 1f 44   -472.8 4092001.2  1.0  1.0  5  0  93080874
[18]  B21 1f 37   1265.9 4091996.6  1.0  1.0  5  0  93080912
[19]  B30 1f 48   1536.5 4091995.9  1.0  1.0  5  0  93080922
[20]  B26  7 34  -2889.1 4092007.6  1.0  1.0  5  0      4150
sat21 = 9128 5 3725 -3000
lsq: nits= 2
$GNGGA,015118.000,3112.7028,N,12136.4584,E,1,06,3.7,66.1,M,,,,0000*28
$GNRMC,015118.000,A,3112.7028,N,12136.4584,E,0.13,0.00,270519,,*1D
$GPGSA,A,3,07,09,,,,,,,,,,,4.2,3.7,1.9*36
$BDGSA,A,3,07,10,21,30,,,,,,,,,4.2,3.7,1.9*2F
$GPGSV,2,1,08,04,00,000,42,07,11,313,42,09,28,299,37,16,00,000,45*73
$GPGSV,2,2,08,21,00,000,39,23,00,000,40,26,36,056,44,27,00,000,44*7A
$BDGSV,2,1,05,07,65,353,44,10,49,305,44,21,07,268,37,30,43,051,48*65
$BDGSV,2,2,05,26,00,000,34*5E
$LOGTIM,3,-177.574229,-311.706191,0.000000,0.000000,-59.373*1A
EndT:        1
sat23 = 9263 1372 3801 4750
sat24 = 8827 210 3739 -4250
sat27 = 9351 1091 3760 5000
sat28 = 8665 997 3774 1000
sat29 = 8560 1258 3777 -2000
sat30 = 8824 541 3864 -2500
sat31 = 10235 123 3810 4750
---00000040--- Acq_st=3 2019-5-27 01:51:18 
[00]  G04  f 42  -2601.1 2046003.4  1.0  1.0  5 3f  93095919
[01]  G07  f 41  -3572.0 2046004.6  1.0  1.0  5  0  93095916
[02]  G09  f 37  -1578.4 2046002.0  1.0  1.0  5  0  93095924
[03]  G16  f 46    876.3 2045998.9  1.0  1.0  5  0  93095929
[04]  G21  f 38   1024.6 2045998.7  1.0  1.0  5  0  93095917
[05]  G23  f 40    253.2 2045999.6  1.0  1.0  5  0  93095927
[06]  G26  f 43   1557.2 2045998.0  1.0  1.0  5  0  93095925
[07]  G27  f 44   -589.4 2046000.8  1.0  1.0  5  0  93095933
[16]  B07 1f 44   -432.6 4092001.1  1.0  1.0  5  0  93081878
[17]  B10 1f 45   -473.8 4092001.2  1.0  1.0  5  0  93081874
[18]  B21 1f 37   1264.9 4091996.7  1.0  1.0  5  0  93081912
[19]  B30 1f 48   1535.7 4091996.0  1.0  1.0  5  0  93081922
[20]  B26  7 34  -2890.1 4092007.6  1.0  0.9  5  0      5150
sat37 = 1810 1574 800 -4750
lsq: nits= 2
$GNGGA,015119.000,3112.7136,N,12136.4464,E,1,11,1.1,43.7,M,,,,0000*2B
$GNRMC,015119.000,A,3112.7136,N,12136.4464,E,0.36,0.00,270519,,*1A
$GPGSA,A,3,07,09,16,21,23,26,27,,,,,,1.3,1.1,0.7*3D
$BDGSA,A,3,07,10,21,30,,,,,,,,,1.3,1.1,0.7*20
$GPGSV,2,1,08,04,00,000,42,07,11,313,41,09,28,299,37,16,00,000,46*73
$GPGSV,2,2,08,21,00,000,38,23,00,000,40,26,36,056,43,27,00,000,44*7C
$BDGSV,2,1,05,07,65,353,44,10,49,305,45,21,07,268,37,30,43,051,48*64
$BDGSV,2,2,05,26,00,000,34*5E
$LOGTIM,3,-219.674702,-383.091986,0.000000,0.000000,-59.408*19
EndT:        1
sat38 = 1892 875 830 2000
sat39 = 1968 2770 809 2500
sat40 = 1980 3943 818 -4500
---00000041--- Acq_st=3 2019-5-27 01:51:19 
[00]  G04  f 42  -2598.2 2046003.4  1.0  1.0  5 3f  93096919
[01]  G07  f 41  -3569.6 2046004.6  1.0  1.0  5  0  93096916
[02]  G09  f 37  -1575.6 2046002.0  1.0  1.0  5  0  93096924
[03]  G16  f 45    879.1 2045998.9  1.0  1.0  5  0  93096929
[04]  G21  f 38   1027.6 2045998.6  1.0  1.0  5  0  93096917
[05]  G23  f 40    256.5 2045999.7  1.0  1.0  5  0  93096927
[06]  G26  f 43   1559.8 2045998.0  1.0  1.0  5  0  93096925
[07]  G27  f 44   -586.0 2046000.7  1.0  1.0  5  0  93096933
[16]  B07 1f 44   -430.1 4092001.1  1.0  1.0  5  0  93082878
[17]  B10 1f 45   -471.2 4092001.2  1.0  1.0  5  0  93082874
[18]  B21 1f 37   1268.2 4091996.6  1.0  1.0  5  0  93082912
[19]  B30 1f 47   1539.0 4091996.0  1.0  1.0  5  0  93082922
[20]  B26  7 34  -2887.8 4092007.5  1.0  0.9  5  0      6150
lsq: nits= 2
$GNGGA,015120.000,3112.7157,N,12136.4500,E,1,11,1.1,37.8,M,,,,0000*29
$GNRMC,015120.000,A,3112.7157,N,12136.4500,E,0.07,0.00,270519,,*16
$GPGSA,A,3,07,09,16,21,23,26,27,,,,,,1.3,1.1,0.7*3D
$BDGSA,A,3,07,10,21,30,,,,,,,,,1.3,1.1,0.7*20
$GPGSV,2,1,08,04,00,000,42,07,11,313,41,09,28,299,37,16,53,020,45*74
$GPGSV,2,2,08,21,16,055,38,23,44,257,40,26,36,056,43,27,85,191,44*7F
$BDGSV,2,1,05,07,65,353,44,10,49,305,45,21,07,268,37,30,43,051,47*6B
$BDGSV,2,2,05,26,00,000,34*5E
$LOGTIM,3,-279.480089,-446.522068,0.000000,0.000000,-59.166*15
EndT:        1
sat41 = 2079 3230 822 4750
sat42 = 1955 2676 825 -2000
sat44 = 2057 2492 822 2500
sat45 = 2249 2607 811 -1000
---00000042--- Acq_st=3 2019-5-27 01:51:20 
[00]  G04  f 42  -2598.3 2046003.4  1.0  1.0  5 3f  93097919
[01]  G07  f 42  -3570.2 2046004.6  1.0  1.0  5  0  93097916
[02]  G09  f 38  -1575.7 2046002.0  1.0  1.0  5  0  93097924
[03]  G16  f 45    878.8 2045998.9  1.0  1.0  5  0  93097929
[04]  G21  f 39   1027.4 2045998.7  1.0  1.0  5  0  93097917
[05]  G23  f 41    256.2 2045999.7  1.0  1.0  5  0  93097927
[06]  G26  f 43   1559.2 2045998.0  1.0  1.0  5  0  93097925
[07]  G27  f 44   -586.1 2046000.7  1.0  1.0  5  0  93097933
[16]  B07 1f 44   -430.9 4092001.1  1.0  1.0  5  0  93083878
[17]  B10 1f 44   -471.9 4092001.2  1.0  1.0  5  0  93083874
[18]  B21 1f 37   1267.5 4091996.6  1.0  1.0  5  0  93083912
[19]  B30 1f 48   1538.6 4091995.9  1.0  1.0  5  0  93083922
[20]  B26  7 34  -2888.7 4092007.6  1.0  1.0  5  0      7150
lsq: nits= 2
$GNGGA,015121.000,3112.7159,N,12136.4431,E,1,11,1.1,46.8,M,,,,0000*23
$GNRMC,015121.000,A,3112.7159,N,12136.4431,E,0.29,0.00,270519,,*16
$GPGSA,A,3,07,09,16,21,23,26,27,,,,,,1.3,1.1,0.7*3D
$BDGSA,A,3,07,10,21,30,,,,,,,,,1.3,1.1,0.7*20
$GPGSV,2,1,08,04,00,000,42,07,11,313,42,09,28,299,38,16,53,020,45*78
$GPGSV,2,2,08,21,16,055,39,23,44,257,41,26,36,056,43,27,85,191,44*7F
$BDGSV,2,1,05,07,65,353,44,10,49,305,44,21,07,268,37,30,43,051,48*65
$BDGSV,2,2,05,26,00,000,34*5E
$LOGTIM,3,-334.772322,-505.928337,0.000000,0.000000,-59.153*1E
EndT:        1
sat47 = 2056 1619 810 -4500
sat48 = 1970 2466 813 1250
sat49 = 1981 1512 817 250
---00000043--- Acq_st=3 2019-5-27 01:51:21 
[00]  G04  f 43  -2598.1 2046003.3  1.0  1.0  5 3f  93098919
[01]  G07  f 42  -3570.4 2046004.7  1.0  1.0  5  0  93098916
[02]  G09  f 38  -1574.9 2046002.0  1.0  1.0  5  0  93098924
[03]  G16  f 45    879.1 2045998.9  1.0  1.0  5  0  93098929
[04]  G21  f 38   1027.9 2045998.6  1.0  1.0  5  0  93098917
[05]  G23  f 40    257.3 2045999.7  1.0  1.0  5  0  93098927
[06]  G26  f 44   1559.4 2045998.0  1.0  1.0  5  0  93098925
[07]  G27  f 44   -585.3 2046000.7  1.0  1.0  5  0  93098933
[16]  B07 1f 44   -430.8 4092001.1  1.0  1.0  5  0  93084878
[17]  B10 1f 44   -472.0 4092001.2  1.0  1.0  5  0  93084874
[18]  B21 1f 37   1267.7 4091996.7  1.0  1.0  5  0  93084912
[19]  B30 1f 48   1539.0 4091995.9  1.0  1.0  5  0  93084922
[20]  B26 1f 34  -2888.5 4092007.6  1.0  0.9  5  0      8150
sat50 = 1753 432 818 4250
lsq: nits= 2
$GNGGA,015122.000,3112.7144,N,12136.4430,E,1,11,1.1,42.5,M,,,,0000*24
$GNRMC,015122.000,A,3112.7144,N,12136.4430,E,0.09,0.00,270519,,*1A
$GPGSA,A,3,07,09,16,21,23,26,27,,,,,,1.3,1.1,0.7*3D
$BDGSA,A,3,07,10,21,30,,,,,,,,,1.3,1.1,0.7*20
$GPGSV,2,1,08,04,00,000,43,07,11,313,42,09,28,299,38,16,53,020,45*79
$GPGSV,2,2,08,21,16,055,38,23,44,257,40,26,36,056,44,27,85,191,44*78
