FlashID=0x1 0x20 0x18
BBram_blkflag1: 42b0: bd4f
FW Ver: 1.30  
GPS00 Init Dop:   5000, 40
GPS01 Init Dop:   5000, 40
GPS02 Init Dop:   5000, 40
GPS03 Init Dop:   5000, 40
GPS04 Init Dop:   5000, 40
GPS05 Init Dop:   5000, 40
GPS06 Init Dop:   5000, 40
GPS07 Init Dop:   5000, 40
GPS08 Init Dop:   5000, 40
GPS09 Init Dop:   5000, 40
GPS10 Init Dop:   5000, 40
GPS11 Init Dop:   5000, 40
GPS12 Init Dop:   5000, 40
GPS13 Init Dop:   5000, 40
GPS14 Init Dop:   5000, 40
GPS15 Init Dop:   5000, 40
GPS16 Init Dop:   5000, 40
GPS17 Init Dop:   5000, 40
GPS18 Init Dop:   5000, 40
GPS19 Init Dop:   5000, 40
GPS20 Init Dop:   5000, 40
GPS21 Init Dop:   5000, 40
GPS22 Init Dop:   5000, 40
GPS23 Init Dop:   5000, 40
GPS24 Init Dop:   5000, 40
GPS25 Init Dop:   5000, 40
GPS26 Init Dop:   5000, 40
GPS27 Init Dop:   5000, 40
GPS28 Init Dop:   5000, 40
GPS29 Init Dop:   5000, 40
GPS30 Init Dop:   5000, 40
GPS31 Init Dop:   5000, 40
BDS00 Init Dop:   5000, 40
BDS01 Init Dop:   5000, 40
BDS02 Init Dop:   5000, 40
BDS03 Init Dop:   5000, 40
BDS04 Init Dop:   5000, 40
BDS05 Init Dop:   5000, 40
BDS06 Init Dop:   5000, 40
BDS07 Init Dop:   5000, 40
BDS08 Init Dop:   5000, 40
BDS09 Init Dop:   5000, 40
BDS10 Init Dop:   5000, 40
BDS11 Init Dop:   5000, 40
BDS12 Init Dop:   5000, 40
BDS13 Init Dop:   5000, 40
BDS14 Init Dop:   5000, 40
BDS15 Init Dop:   5000, 40
BDS16 Init Dop:   5000, 40
BDS17 Init Dop:   5000, 40
BDS18 Init Dop:   5000, 40
BDS19 Init Dop:   5000, 40
BDS20 Init Dop:   5000, 40
BDS21 Init Dop:   5000, 40
BDS22 Init Dop:   5000, 40
BDS23 Init Dop:   5000, 40
BDS24 Init Dop:   5000, 40
BDS25 Init Dop:   5000, 40
BDS26 Init Dop:   5000, 40
BDS27 Init Dop:   5000, 40
BDS28 Init Dop:   5000, 40
BDS29 Init Dop:   5000, 40
BDS30 Init Dop:   5000, 40
BDS31 Init Dop:   5000, 40
sat0 = 13721 1235 1298 -2500
ch0 satid=0,max_freq = -2500,max_mean = 1298,max_phase = 1235,max_value = 13721,acq ok1!
acq ok1 timeH = 0,timeL = 1488704,freq_stage = 4
sat1 = 4352 47 1995 -500
sat2 = 51254 1447 2016 -2250
ch1 satid=2,max_freq = -2250,max_mean = 2016,max_phase = 1447,max_value = 51254,acq ok1!
acq ok1 timeH = 0,timeL = 6034594,freq_stage = 4
sat3 = 4464 1750 1999 -3750
sat4 = 4690 1484 1982 -3250
sat5 = 4917 1488 1959 -250
sat6 = 4470 778 1965 -2750
sat7 = 4623 760 1929 1500
---00000001--- Acq_st=3 2019-5-25 08:51:33 
[00]  G01  1 26   2535.6 2045997.1 -0.1  0.0  1  0         0
[01]  G03  1 24   2167.1 2045997.9 -0.1  0.0  1  0         0
$GNGGA,000000.000,,,,,0,00,,,M,,,,0000*2B
$GNRMC,000000.000,A,,,,,,,000000,,*26
$GPGSA,A,1,,,,,,,,,,,,,,,*1E
$BDGSA,A,1,,,,,,,,,,,,,,,*0F
$LOGTIM,0,0.000000,0.000000,0.000000,0.000000,0.000*0A
EndT:        0
sat8 = 4314 2032 1959 1250
sat9 = 4414 1453 1948 1250
sat10 = 4690 819 1939 -2750
sat11 = 4439 1215 1988 4750
sat12 = 4976 991 1982 -3000
sat13 = 4772 1374 1923 4750
sat14 = 4403 2039 1950 4500
sat15 = 4198 1128 1921 4500
---00000002--- Acq_st=3 2019-5-25 08:51:34 
[00]  G01  7 28   2529.3 2045996.7  0.5  1.0 10  0        14
[01]  G03  7 25   2162.0 2045997.1  0.0  0.0 20  0        17
$GNGGA,000000.000,,,,,0,00,,,M,,,,0000*2B
$GNRMC,000000.000,A,,,,,,,000000,,*26
$GPGSA,A,1,,,,,,,,,,,,,,,*1E
$BDGSA,A,1,,,,,,,,,,,,,,,*0F
$GPGSV,1,1,02,01,00,000,28,03,00,000,25*74
$LOGTIM,0,0.000000,0.000000,0.000000,0.000000,0.000*0A
EndT:        0
sat16 = 58358 355 2041 1250
ch2 satid=16,max_freq = 1250,max_mean = 2041,max_phase = 355,max_value = 58358,acq ok1!
acq ok1 timeH = 0,timeL = 36954382,freq_stage = 2
sat17 = 4554 1647 2005 1250
sat18 = 54526 436 2068 2250
ch3 satid=18,max_freq = 2250,max_mean = 2068,max_phase = 436,max_value = 54526,acq ok1!
acq ok1 timeH = 0,timeL = 41500273,freq_stage = 2
sat19 = 5109 420 1994 1250
sat20 = 4339 477 1938 1000
sat21 = 4434 21 1923 -2750
sat22 = 4548 841 1923 3500
sat23 = 4658 997 2025 3500
sat24 = 5259 691 2025 1500
---00000003--- Acq_st=3 2019-5-25 08:51:35 
[00]  G01  7 38   2528.1 2045996.7  1.0  1.0  5  0         2
[01]  G03  7 42   2160.7 2045997.1  0.6  1.0  5  0        10
[02]  G17  1 27  -1338.6 2046002.1  0.1  0.0  1  0         0
[03]  G19  1 18  -2126.4 2046004.2 -0.1  0.0  1  0         0
$GNGGA,000000.000,,,,,0,00,,,M,,,,0000*2B
$GNRMC,000000.000,A,,,,,,,000000,,*26
$GPGSA,A,1,,,,,,,,,,,,,,,*1E
$BDGSA,A,1,,,,,,,,,,,,,,,*0F
$GPGSV,1,1,02,01,00,000,38,03,00,000,42*74
$LOGTIM,0,0.000000,0.000000,0.000000,0.000000,0.000*0A
EndT:        0
sat25 = 4615 1732 2013 -1750
sat26 = 4665 959 1942 2000
sat27 = 4712 158 1951 -4500
sat28 = 4517 457 1931 -2250
sat29 = 4601 453 2008 4500
sat30 = 4616 1937 2038 -3750
sat31 = 4612 198 2013 250
---00000004--- Acq_st=3 2019-5-25 08:51:36 
[00]  G01  7 38   2535.7 2045996.7  1.0  1.0  5  0         2
[01]  G03  7 42   2168.9 2045997.1  1.0  1.0  5  0        10
[02]  G17  7 31  -1323.0 2046001.7  0.3  1.0  5  0        19
[03]  G19  7 27  -2107.1 2046002.7 -0.1  0.0 10  0         2
$GNGGA,000000.000,,,,,0,00,,,M,,,,0000*2B
$GNRMC,000000.000,A,,,,,,,000000,,*26
$GPGSA,A,1,,,,,,,,,,,,,,,*1E
$BDGSA,A,1,,,,,,,,,,,,,,,*0F
$GPGSV,1,1,04,01,00,000,38,03,00,000,42,17,00,000,31,19,00,000,27*7B
$LOGTIM,0,0.000000,0.000000,0.000000,0.000000,0.000*0A
EndT:        0
sat37 = 1776 133 792 -1000
sat38 = 1987 2371 834 -250
sat39 = 1875 616 801 2750
sat40 = 2043 141 826 -2000
---00000005--- Acq_st=3 2019-5-25 08:51:37 
[00]  G01  f 37   2534.3 2045996.7  1.0  1.1  5  0         2
[01]  G03  f 42   2168.2 2045997.1  1.0  1.0  5  0        10
[02]  G17  f 43  -1324.0 2046001.7  1.0  1.0  5  0        14
[03]  G19  7 42  -2104.7 2046002.7  0.9  1.0  5  0        13
$GNGGA,000000.000,,,,,0,00,,,M,,,,0000*2B
$GNRMC,000000.000,A,,,,,,,000000,,*26
$GPGSA,A,1,,,,,,,,,,,,,,,*1E
$BDGSA,A,1,,,,,,,,,,,,,,,*0F
$GPGSV,1,1,04,01,00,000,37,03,00,000,42,17,00,000,43,19,00,000,42*72
$LOGTIM,0,0.000000,0.000000,0.000000,0.000000,0.000*0A
EndT:        0
sat41 = 2006 3723 826 3500
sat42 = 2035 1579 822 2250
sat43 = 1888 3540 787 -1250
sat44 = 6621 234 809 0
ch16 satid=44,max_freq = 0,max_mean = 809,max_phase = 234,max_value = 6621,acq ok1!
acq ok1 timeH = 0,timeL = 111146504,freq_stage = 3
---00000006--- Acq_st=3 2019-5-25 08:51:38 
[00]  G01  f 37   2537.2 2045996.7  1.0  1.0  5  0 550315622
[01]  G03  f 42   2171.7 2045997.2  1.0  1.0  5  0 550315630
[02]  G17  f 43  -1320.7 2046001.7  1.0  1.0  5  0 550315634
[03]  G19  7 42  -2101.9 2046002.7  1.0  1.0  5  0        13
[16]  B08  1  7    599.7 4091998.8  0.0  0.0  1  0         0
$GNGGA,000000.000,,,,,0,00,,,M,,,,0000*2B
$GNRMC,000000.000,A,,,,,,,000000,,*26
$GPGSA,A,1,,,,,,,,,,,,,,,*1E
$BDGSA,A,1,,,,,,,,,,,,,,,*0F
$GPGSV,1,1,04,01,00,000,37,03,00,000,42,17,00,000,43,19,00,000,42*72
$LOGTIM,0,0.000000,0.000000,0.000000,0.000000,0.000*0A
EndT:        1
sat45 = 1984 2920 803 5000
sat46 = 1958 1500 820 -4250
sat47 = 2037 378 795 -4250
sat48 = 1906 3940 816 0
---00000007--- Acq_st=3 2019-5-25 08:51:39 
[00]  G01  f 38   2541.6 2045996.7  1.0  1.0  5  0 550316622
[01]  G03  f 43   2176.6 2045997.2  1.0  1.0  5  0 550316630
[02]  G17  f 43  -1316.2 2046001.7  1.0  1.0  5  0 550316634
[03]  G19  7 43  -2097.1 2046002.7  1.0  1.0  5  0        13
[16]  B08  1  7    -76.8 4092000.3  0.0  0.0  1  0        77
$GNGGA,000000.000,,,,,0,00,,,M,,,,0000*2B
$GNRMC,000000.000,A,,,,,,,000000,,*26
$GPGSA,A,1,,,,,,,,,,,,,,,*1E
$BDGSA,A,1,,,,,,,,,,,,,,,*0F
$GPGSV,1,1,04,01,00,000,38,03,00,000,43,17,00,000,43,19,00,000,43*7D
$LOGTIM,0,0.000000,0.000000,0.000000,0.000000,0.000*0A
EndT:        0
sat49 = 28785 1468 819 250
ch17 satid=49,max_freq = 250,max_mean = 819,max_phase = 1468,max_value = 28785,acq ok1!
acq ok1 timeH = 0,timeL = 136148954,freq_stage = 3
sat50 = 12190 2919 815 -1250
ch18 satid=50,max_freq = -1250,max_mean = 815,max_phase = 2919,max_value = 12190,acq ok1!
acq ok1 timeH = 0,timeL = 142267694,freq_stage = 4
sat51 = 1907 1504 806 1750
---00000008--- Acq_st=3 2019-5-25 08:51:40 
[00]  G01  f 37   2546.1 2045996.7  1.0  1.0  5  0 550317622
[01]  G03  f 42   2181.4 2045997.1  1.0  1.0  5  0 550317630
[02]  G17  f 43  -1311.3 2046001.7  1.0  1.0  5  0 550317634
[03]  G19  7 42  -2092.5 2046002.8  1.0  1.0  5  0        13
[16]  B08  7 32    -72.2 4092000.2  0.6  1.0  5  0      1077
[17]  B13  1  7   -243.0 4092000.8  0.0  0.0  1  0         0
[18]  B14  1  7   1252.8 4091997.1 -0.0  0.0  1  0         0
$GNGGA,000000.000,,,,,0,00,,,M,,,,0000*2B
$GNRMC,000000.000,A,,,,,,,000000,,*26
$GPGSA,A,1,,,,,,,,,,,,,,,*1E
$BDGSA,A,1,,,,,,,,,,,,,,,*0F
$GPGSV,1,1,04,01,00,000,37,03,00,000,42,17,00,000,43,19,00,000,42*72
$BDGSV,1,1,01,08,00,000,32*50
$LOGTIM,0,0.000000,0.000000,0.000000,0.000000,0.000*0A
EndT:        0
sat52 = 1851 3100 834 -1500
sat53 = 1842 2791 812 -4000
sat54 = 2018 387 814 3000
sat55 = 1940 2630 810 4750
---00000009--- Acq_st=3 2019-5-25 08:51:41 
[00]  G01  f 38   2548.6 2045996.7  1.0  1.0  5  0 550318622
[01]  G03  f 42   2184.3 2045997.1  1.0  1.0  5  0 550318630
[02]  G17  f 43  -1308.7 2046001.7  1.0  1.0  5  0 550318634
[03]  G19  7 42  -2089.9 2046002.7  1.0  0.9  5  0        13
[16]  B08  7 37    -69.7 4092000.2  1.0  1.0  5  0      2062
[17]  B13  7 27   -241.5 4092000.6  0.6  0.0 10  0       749
[18]  B14  7 20   1256.2 4091996.7  0.1  0.0 20  0       483
$GNGGA,000000.000,,,,,0,00,,,M,,,,0000*2B
$GNRMC,000000.000,A,,,,,,,000000,,*26
$GPGSA,A,1,,,,,,,,,,,,,,,*1E
$BDGSA,A,1,,,,,,,,,,,,,,,*0F
$GPGSV,1,1,04,01,00,000,38,03,00,000,42,17,00,000,43,19,00,000,42*7D
$BDGSV,1,1,03,08,00,000,37,13,00,000,27,14,00,000,20*57
$LOGTIM,0,0.000000,0.000000,0.000000,0.000000,0.000*0A
EndT:        0
sat56 = 1797 4048 808 -2750
sat57 = 1794 3843 798 -4500
sat58 = 1884 4050 798 2000
sat59 = 1886 1371 815 -1000
---00000010--- Acq_st=3 2019-5-25 08:51:42 
[00]  G01  f 38   2554.4 2045996.7  1.0  1.0  5  0 550319622
[01]  G03  f 42   2191.2 2045997.2  1.0  1.0  5  0 550319630
[02]  G17  f 43  -1302.1 2046001.7  1.0  1.0  5  0 550319634
[03]  G19  7 42  -2083.5 2046002.7  1.0  1.0  5  0        13
[16]  B08  7 37    -64.0 4092000.2  1.0  1.0  5  0      3062
[17]  B13  7 45   -234.5 4092000.6  0.8  1.0  5  0      1739
[18]  B14  7 41   1264.1 4091996.6  0.4  1.0  5  0      1465
$GNGGA,000000.000,,,,,0,00,,,M,,,,0000*2B
$GNRMC,000000.000,A,,,,,,,000000,,*26
$GPGSA,A,1,,,,,,,,,,,,,,,*1E
$BDGSA,A,1,,,,,,,,,,,,,,,*0F
$GPGSV,1,1,04,01,00,000,38,03,00,000,42,17,00,000,43,19,00,000,42*7D
$BDGSV,1,1,03,08,00,000,37,13,00,000,45,14,00,000,41*54
$LOGTIM,0,0.000000,0.000000,0.000000,0.000000,0.000*0A
EndT:        0
sat60 = 2066 2205 802 -1000
sat61 = 1909 2945 801 -3250
sat62 = 1875 4082 799 -4500
sat63 = 27816 995 809 2500
ch19 satid=63,max_freq = 2500,max_mean = 809,max_phase = 995,max_value = 27816,acq ok1!
acq ok1 timeH = 0,timeL = 206562425,freq_stage = 2
---00000011--- Acq_st=3 2019-5-25 08:51:43 
[00]  G01  f 39   2549.8 2045996.7  1.0  1.0  5  0 550320622
[01]  G03  f 42   2186.9 2045997.2  1.0  1.0  5  0 550320630
[02]  G17  f 43  -1306.6 2046001.7  1.0  1.0  5  0 550320634
[03]  G19  f 42  -2088.1 2046002.7  1.0  1.0  5  0        13
[16]  B08  7 37    -68.5 4092000.2  1.0  1.0  5  0      4062
[17]  B13  7 44   -239.2 4092000.6  1.0  1.0  5  0      2739
[18]  B14  7 41   1259.1 4091996.7  1.0  1.0  5  0      2465
[19]  B27  1  0  10971.6 4092006.0  0.0  0.0  1  0         0
$GNGGA,000000.000,,,,,0,00,,,M,,,,0000*2B
$GNRMC,000000.000,A,,,,,,,000000,,*26
$GPGSA,A,1,,,,,,,,,,,,,,,*1E
$BDGSA,A,1,,,,,,,,,,,,,,,*0F
$GPGSV,1,1,04,01,00,000,39,03,00,000,42,17,00,000,43,19,00,000,42*7C
$BDGSV,1,1,03,08,00,000,37,13,00,000,44,14,00,000,41*55
$LOGTIM,0,0.000000,0.000000,0.000000,0.000000,0.000*0A
EndT:        0
sat64 = 25687 45 820 1250
ch20 satid=64,max_freq = 1250,max_mean = 820,max_phase = 45,max_value = 25687,acq ok1!
acq ok1 timeH = 0,timeL = 212172869,freq_stage = 2
sat65 = 1958 176 822 3500
sat66 = 1920 1214 810 4750
---00000012--- Acq_st=3 2019-5-25 08:51:44 
[00]  G01  f 39   2541.6 2045996.7  1.0  1.0  5  0 550321622
[01]  G03  f 42   2178.9 2045997.2  1.0  1.0  5  0 550321630
[02]  G17  f 43  -1314.3 2046001.7  1.0  1.0  5  0 550321634
[03]  G19  f 42  -2095.5 2046002.7  1.0  1.0  5  0 550321633
[16]  B08  7 38    -76.8 4092000.1  1.0  1.0  5  0      5062
[17]  B13  7 45   -247.3 4092000.7  1.0  1.0  5  0      3739
[18]  B14  7 41   1252.1 4091996.7  1.0  1.0  5  0      3465
[19]  B27  1  7  -2479.6 4092006.6  0.0  0.0  1  0        27
[20]  B28  1  7  -1339.2 4092005.2  0.1  0.0  1  0         0
$GNGGA,000000.000,,,,,0,00,,,M,,,,0000*2B
$GNRMC,000000.000,A,,,,,,,000000,,*26
$GPGSA,A,1,,,,,,,,,,,,,,,*1E
$BDGSA,A,1,,,,,,,,,,,,,,,*0F
$GPGSV,1,1,04,01,00,000,39,03,00,000,42,17,00,000,43,19,00,000,42*7C
$BDGSV,1,1,03,08,00,000,38,13,00,000,45,14,00,000,41*5B
$LOGTIM,0,0.000000,0.000000,0.000000,0.000000,0.000*0A
EndT:        0
sat67 = 1804 3947 809 500
sat68 = 2129 2140 820 4000
---00000013--- Acq_st=7 2019-5-25 08:51:45 
[00]  G01  f 39   2540.5 2045996.7  1.0  1.0  5  0 550322622
[01]  G03  f 42   2178.0 2045997.2  1.0  1.0  5  0 550322630
[02]  G17  f 43  -1315.7 2046001.7  1.0  1.0  5  0 550322634
[03]  G19  f 42  -2097.2 2046002.7  1.0  1.0  5  0 550322633
[16]  B08 1f 38    -78.2 4092000.2  1.0  1.0  5  0      6062
[17]  B13 1f 45   -249.0 4092000.6  1.0  1.0  5  0      4739
[18]  B14 1f 41   1250.9 4091996.7  1.0  1.0  5  0      4465
[19]  B27  7 32  -2481.0 4092006.5  0.8  1.0  5  0      1027
[20]  B28  7 27  -1340.3 4092003.4  0.7  0.0 10  0       762
$GNGGA,000000.000,,,,,0,00,,,M,,,,0000*2B
$GNRMC,000000.000,A,,,,,,,000000,,*26
$GPGSA,A,1,,,,,,,,,,,,,,,*1E
$BDGSA,A,1,,,,,,,,,,,,,,,*0F
$GPGSV,1,1,04,01,00,000,39,03,00,000,42,17,00,000,43,19,00,000,42*7C
$BDGSV,2,1,05,08,00,000,38,13,00,000,45,14,00,000,41,27,00,000,32*6A
$BDGSV,2,2,05,28,00,000,27*52
$LOGTIM,0,0.000000,0.000000,0.000000,0.000000,0.000*0A
EndT:        0
sat1 = 6829 1892 2045 2250
sat3 = 4785 973 2067 -4000
sat4 = 5014 1771 2062 -3500
sat5 = 4958 607 2016 -4500
sat6 = 5024 1309 2065 -4750
sat7 = 4899 219 1998 500
sat8 = 4621 2024 2060 -1500
sat9 = 4410 934 1995 -2250
---00000014--- Acq_st=3 2019-5-25 08:51:46 
[00]  G01  f 38   2539.7 2045996.6  1.0  1.0  5  0 550323622
[01]  G03  f 42   2178.7 2045997.2  1.0  1.0  5  0 550323630
[02]  G17  f 43  -1315.9 2046001.7  1.0  1.0  5  0 550323634
[03]  G19  f 42  -2096.8 2046002.7  1.0  1.0  5  0 550323633
[16]  B08 1f 37    -78.6 4092000.2  1.0  1.0  5  0 550309582
[17]  B13 1f 45   -249.0 4092000.6  1.0  1.0  5  0 550309579
[18]  B14 1f 41   1250.8 4091996.8  1.0  1.0  5  0 550309625
[19]  B27  7 44  -2481.2 4092006.5  1.0  1.0  5  0      2018
[20]  B28  7 43  -1340.7 4092003.4  1.0  1.0  5  0      1749
$GNGGA,000000.000,,,,,0,00,,,M,,,,0000*2B
$GNRMC,000000.000,A,,,,,,,000000,,*26
$GPGSA,A,1,,,,,,,,,,,,,,,*1E
$BDGSA,A,1,,,,,,,,,,,,,,,*0F
$GPGSV,1,1,04,01,00,000,38,03,00,000,42,17,00,000,43,19,00,000,42*7D
$BDGSV,2,1,05,08,00,000,37,13,00,000,45,14,00,000,41,27,00,000,44*64
$BDGSV,2,2,05,28,00,000,43*50
$LOGTIM,0,0.000000,0.000000,0.000000,0.000000,0.000*0A
EndT:        0
sat10 = 4756 787 2002 -3750
sat11 = 4894 272 2026 -3750
sat12 = 4704 278 2039 -500
sat13 = 4522 1767 2027 1500
sat14 = 4735 738 2025 2750
sat15 = 4922 1325 2025 3750
sat17 = 4698 1310 2015 2500
sat19 = 5046 1784 2036 -3500
---00000015--- Acq_st=3 2019-5-25 08:51:47 
[00]  G01  f 38   2536.1 2045996.7  1.0  1.0  5  0 550324622
[01]  G03  f 42   2174.2 2045997.2  1.0  1.0  5  0 550324630
[02]  G17  f 43  -1320.1 2046001.7  1.0  1.0  5  0 550324634
[03]  G19  f 41  -2101.6 2046002.7  1.0  1.0  5  0 550324633
[16]  B08 1f 37    -83.1 4092000.3  1.0  1.0  5  0 550310582
[17]  B13 1f 45   -253.6 4092000.7  1.0  1.0  5  0 550310579
[18]  B14 1f 41   1246.6 4091996.7  1.0  1.0  5  0 550310625
[19]  B27  7 43  -2485.7 4092006.5  1.0  1.0  5  0      3018
[20]  B28  7 43  -1344.9 4092003.5  1.0  1.0  5  0      2749
sat20 = 5004 510 2056 500
$GNGGA,000000.000,,,,,0,00,,,M,,,,0000*2B
$GNRMC,000000.000,A,,,,,,,000000,,*26
$GPGSA,A,1,,,,,,,,,,,,,,,*1E
$BDGSA,A,1,,,,,,,,,,,,,,,*0F
$GPGSV,1,1,04,01,00,000,38,03,00,000,42,17,00,000,43,19,00,000,41*7E
$BDGSV,2,1,05,08,00,000,37,13,00,000,45,14,00,000,41,27,00,000,43*63
$BDGSV,2,2,05,28,00,000,43*50
$LOGTIM,0,0.000000,0.000000,0.000000,0.000000,0.000*0A
EndT:        0
sat21 = 5974 1735 2021 -2750
sat22 = 4857 171 2014 4250
sat23 = 4574 891 2063 -750
sat24 = 4399 287 2036 -3000
sat25 = 4903 1435 2029 -500
sat26 = 4887 1230 2019 -2750
sat27 = 4534 1214 1992 -3500
sat28 = 4468 1174 1990 -1250
---00000016--- Acq_st=3 2019-5-25 08:51:48 
[00]  G01  f 38   2533.7 2045996.7  1.0  1.0  5  0 550325622
[01]  G03  f 42   2173.3 2045997.2  1.0  1.0  5  0 550325630
[02]  G17  f 43  -1321.3 2046001.7  1.0  1.0  5  0 550325634
[03]  G19  f 41  -2102.6 2046002.7  1.0  1.0  5  0 550325633
[16]  B08 1f 37    -84.1 4092000.2  1.0  1.0  5  0 550311582
[17]  B13 1f 45   -254.9 4092000.7  1.0  1.0  5  0 550311579
[18]  B14 1f 41   1246.2 4091996.7  1.0  1.0  5  0 550311625
[19]  B27  7 43  -2486.8 4092006.6  1.0  1.0  5  0      4018
[20]  B28  7 43  -1346.1 4092003.5  1.0  1.0  5  0      3749
$GNGGA,000000.000,,,,,0,00,,,M,,,,0000*2B
$GNRMC,000000.000,A,,,,,,,000000,,*26
$GPGSA,A,1,,,,,,,,,,,,,,,*1E
$BDGSA,A,1,,,,,,,,,,,,,,,*0F
$GPGSV,1,1,04,01,00,000,38,03,00,000,42,17,00,000,43,19,00,000,41*7E
$BDGSV,2,1,05,08,00,000,37,13,00,000,45,14,00,000,41,27,00,000,43*63
$BDGSV,2,2,05,28,00,000,43*50
$LOGTIM,0,0.000000,0.000000,0.000000,0.000000,0.000*0A
EndT:        0
sat29 = 5173 251 2032 -3000
sat30 = 5023 239 2032 5000
sat31 = 4954 1270 2041 750
sat37 = 1825 246 793 -3500
sat38 = 1967 3196 837 -3000
---00000017--- Acq_st=3 2019-5-25 08:51:49 
[00]  G01  f 39   2537.7 2045996.7  1.0  0.9  5  0 550326622
[01]  G03  f 42   2177.8 2045997.2  1.0  1.0  5  0 550326630
[02]  G17  f 43  -1317.1 2046001.7  1.0  1.0  5  0 550326634
[03]  G19  f 41  -2098.4 2046002.7  1.0  1.0  5  0 550326633
[16]  B08 1f 37    -80.6 4092000.2  1.0  1.0  5  0 550312582
[17]  B13 1f 45   -251.2 4092000.6  1.0  1.0  5  0 550312579
[18]  B14 1f 41   1250.5 4091996.7  1.0  1.0  5  0 550312625
[19]  B27  7 43  -2483.1 4092006.5  1.0  1.0  5  0      5018
[20]  B28  7 43  -1342.5 4092003.5  1.0  1.0  5  0      4749
$GNGGA,000000.000,,,,,0,00,,,M,,,,0000*2B
$GNRMC,000000.000,A,,,,,,,000000,,*26
$GPGSA,A,1,,,,,,,,,,,,,,,*1E
$BDGSA,A,1,,,,,,,,,,,,,,,*0F
$GPGSV,1,1,04,01,00,000,39,03,00,000,42,17,00,000,43,19,00,000,41*7F
$BDGSV,2,1,05,08,00,000,37,13,00,000,45,14,00,000,41,27,00,000,43*63
$BDGSV,2,2,05,28,00,000,43*50
$LOGTIM,0,0.000000,0.000000,0.000000,0.000000,0.000*0A
EndT:        0
sat39 = 1876 3823 805 -1000
sat40 = 2226 2753 825 -4500
sat41 = 2186 1272 821 250
sat42 = 1970 977 826 -2750
---00000018--- Acq_st=3 2019-5-25 08:51:50 
[00]  G01  f 39   2534.5 2045996.7  1.0  1.0  5  0 550327622
[01]  G03  f 42   2175.9 2045997.2  1.0  1.0  5  0 550327630
[02]  G17  f 43  -1319.2 2046001.7  1.0  1.0  5  0 550327634
[03]  G19  f 41  -2101.0 2046002.7  1.0  1.0  5  0 550327633
[16]  B08 1f 37    -82.9 4092000.3  1.0  0.9  5  0 550313582
[17]  B13 1f 45   -253.2 4092000.7  1.0  1.0  5  0 550313579
[18]  B14 1f 41   1248.8 4091996.7  1.0  1.0  5  0 550313625
[19]  B27  7 43  -2485.4 4092006.5  1.0  1.0  5  0      6018
[20]  B28  7 43  -1344.6 4092003.5  1.0  1.0  5  0      5749
$GNGGA,000000.000,,,,,0,00,,,M,,,,0000*2B
$GNRMC,000000.000,A,,,,,,,000000,,*26
$GPGSA,A,1,,,,,,,,,,,,,,,*1E
$BDGSA,A,1,,,,,,,,,,,,,,,*0F
$GPGSV,1,1,04,01,00,000,39,03,00,000,42,17,00,000,43,19,00,000,41*7F
$BDGSV,2,1,05,08,00,000,37,13,00,000,45,14,00,000,41,27,00,000,43*63
$BDGSV,2,2,05,28,00,000,43*50
$LOGTIM,0,0.000000,0.000000,0.000000,0.000000,0.000*0A
EndT:        0
sat43 = 1850 661 786 2500
sat45 = 2108 3819 803 -3250
sat46 = 2218 1995 824 -1250
sat47 = 1859 689 796 500
---00000019--- Acq_st=3 2019-5-25 08:51:51 
[00]  G01  f 38   2533.9 2045996.7  1.0  0.9  5  0 550328622
[01]  G03  f 42   2175.4 2045997.2  1.0  1.0  5  0 550328630
[02]  G17  f 43  -1320.2 2046001.7  1.0  1.0  5  0 550328634
[03]  G19  f 42  -2101.5 2046002.7  1.0  1.0  5  0 550328633
[16]  B08 1f 37    -84.5 4092000.3  1.0  1.0  5  0 550314582
[17]  B13 1f 45   -254.5 4092000.6  1.0  1.0  5  0 550314579
[18]  B14 1f 41   1248.1 4091996.7  1.0  1.0  5  0 550314625
[19]  B27 1f 43  -2487.0 4092006.5  1.0  1.0  5  0      7018
[20]  B28 1f 44  -1345.6 4092003.5  1.0  1.0  5  0      6749
$GNGGA,000000.000,,,,,0,00,,,M,,,,0000*2B
$GNRMC,000000.000,A,,,,,,,000000,,*26
$GPGSA,A,1,,,,,,,,,,,,,,,*1E
$BDGSA,A,1,,,,,,,,,,,,,,,*0F
$GPGSV,1,1,04,01,00,000,38,03,00,000,42,17,00,000,43,19,00,000,42*7D
$BDGSV,2,1,05,08,00,000,37,13,00,000,45,14,00,000,41,27,00,000,43*63
$BDGSV,2,2,05,28,00,000,44*57
$LOGTIM,0,0.000000,0.000000,0.000000,0.000000,0.000*0A
EndT:        0
sat48 = 2019 1334 812 -3000
sat51 = 1953 2876 811 4000
sat52 = 1923 3635 841 2750
---00000020--- Acq_st=3 2019-5-25 08:51:52 
[00]  G01  f 39   2532.8 2045996.7  1.0  1.0  5  0 550329622
[01]  G03  f 42   2174.8 2045997.2  1.0  1.0  5  0 550329630
[02]  G17  f 43  -1320.8 2046001.7  1.0  1.0  5  0 550329634
[03]  G19  f 41  -2102.5 2046002.7  1.0  1.0  5  0 550329633
[16]  B08 1f 38    -85.0 4092000.3  1.0  1.0  5  0 550315582
[17]  B13 1f 45   -255.2 4092000.7  1.0  1.0  5  0 550315579
[18]  B14 1f 42   1247.5 4091996.7  1.0  1.0  5  0 550315625
[19]  B27 1f 43  -2487.8 4092006.5  1.0  1.0  5  0 550315618
[20]  B28 1f 44  -1345.9 4092003.5  1.0  1.0  5  0 550315629
$GNGGA,000000.000,,,,,0,00,,,M,,,,0000*2B
$GNRMC,000000.000,A,,,,,,,000000,,*26
$GPGSA,A,1,,,,,,,,,,,,,,,*1E
$BDGSA,A,1,,,,,,,,,,,,,,,*0F
$GPGSV,1,1,04,01,00,000,39,03,00,000,42,17,00,000,43,19,00,000,41*7F
$BDGSV,2,1,05,08,00,000,38,13,00,000,45,14,00,000,42,27,00,000,43*6F
$BDGSV,2,2,05,28,00,000,44*57
$LOGTIM,0,0.000000,0.000000,0.000000,0.000000,0.000*0A
EndT:        0
sat53 = 1910 1417 817 -1750
sat54 = 1902 3989 814 2000
sat55 = 1875 2193 805 -3000
sat56 = 1966 2213 810 -1000
---00000021--- Acq_st=3 2019-5-25 08:51:53 
[00]  G01  f 39   2531.9 2045996.7  1.0  1.0  5  0 550330622
[01]  G03  f 42   2174.3 2045997.2  1.0  1.0  5  0 550330630
[02]  G17  f 43  -1321.6 2046001.7  1.0  1.0  5  0 550330634
[03]  G19  f 41  -2103.2 2046002.8  1.0  1.0  5  0 550330633
[16]  B08 1f 38    -85.9 4092000.2  1.0  1.0  5  0 550316582
[17]  B13 1f 44   -256.2 4092000.7  1.0  1.0  5  0 550316579
[18]  B14 1f 41   1247.3 4091996.8  1.0  1.0  5  0 550316625
[19]  B27 1f 43  -2488.7 4092006.5  1.0  1.0  5  0 550316618
[20]  B28 1f 43  -1346.7 4092003.5  1.0  1.0  5  0 550316629
$GNGGA,000000.000,,,,,0,00,,,M,,,,0000*2B
$GNRMC,000000.000,A,,,,,,,000000,,*26
$GPGSA,A,1,,,,,,,,,,,,,,,*1E
$BDGSA,A,1,,,,,,,,,,,,,,,*0F
$GPGSV,1,1,04,01,00,000,39,03,00,000,42,17,00,000,43,19,00,000,41*7F
$BDGSV,2,1,05,08,00,000,38,13,00,000,44,14,00,000,41,27,00,000,43*6D
$BDGSV,2,2,05,28,00,000,43*50
$LOGTIM,0,0.000000,0.000000,0.000000,0.000000,0.000*0A
EndT:        0
sat57 = 1848 1134 793 -2750
sat58 = 1851 2842 800 3250
sat59 = 1850 3414 813 -2000
sat60 = 1759 3126 796 1750
---00000022--- Acq_st=3 2019-5-25 08:51:54 
[00]  G01  f 39   2535.2 2045996.7  1.0  1.0  5  0 550331622
[01]  G03  f 41   2178.2 2045997.2  1.0  1.0  5  0 550331630
[02]  G17  f 43  -1318.2 2046001.7  1.0  1.0  5  0 550331634
[03]  G19  f 41  -2099.5 2046002.7  1.0  1.0  5  0 550331633
[16]  B08 1f 37    -82.6 4092000.2  1.0  1.0  5  0 550317582
[17]  B13 1f 44   -253.1 4092000.7  1.0  1.0  5  0 550317579
[18]  B14 1f 41   1251.3 4091996.7  1.0  1.0  5  0 550317625
[19]  B27 1f 43  -2485.4 4092006.5  1.0  1.0  5  0 550317618
[20]  B28 1f 43  -1343.7 4092003.5  1.0  1.0  5  0 550317629
$GNGGA,000000.000,,,,,0,00,,,M,,,,0000*2B
$GNRMC,000000.000,A,,,,,,,000000,,*26
$GPGSA,A,1,,,,,,,,,,,,,,,*1E
$BDGSA,A,1,,,,,,,,,,,,,,,*0F
$GPGSV,1,1,04,01,00,000,39,03,00,000,41,17,00,000,43,19,00,000,41*7C
$BDGSV,2,1,05,08,00,000,37,13,00,000,44,14,00,000,41,27,00,000,43*62
$BDGSV,2,2,05,28,00,000,43*50
$LOGTIM,0,0.000000,0.000000,0.000000,0.000000,0.000*0A
EndT:        0
sat61 = 1887 513 795 2000
sat62 = 1900 3708 802 3000
sat65 = 1984 3297 824 1250
sat66 = 1967 22 809 4500
---00000023--- Acq_st=3 2019-5-25 08:51:55 
[00]  G01  f 38   2534.5 2045996.7  1.0  1.0  5  0 550332622
[01]  G03  f 42   2177.9 2045997.2  1.0  1.0  5  0 550332630
[02]  G17  f 43  -1318.2 2046001.7  1.0  1.0  5  0 550332634
[03]  G19  f 42  -2099.8 2046002.7  1.0  1.0  5  0 550332633
[16]  B08 1f 38    -83.5 4092000.2  1.0  1.0  5  0 550318582
[17]  B13 1f 44   -253.2 4092000.7  1.0  1.0  5  0 550318579
[18]  B14 1f 41   1251.0 4091996.7  1.0  1.0  5  0 550318625
[19]  B27 1f 43  -2485.7 4092006.5  1.0  1.0  5  0 550318618
[20]  B28 1f 43  -1343.8 4092003.5  1.0  1.0  5  0 550318629
$GNGGA,000000.000,,,,,0,00,,,M,,,,0000*2B
$GNRMC,000000.000,A,,,,,,,000000,,*26
$GPGSA,A,1,,,,,,,,,,,,,,,*1E
$BDGSA,A,1,,,,,,,,,,,,,,,*0F
$GPGSV,1,1,04,01,00,000,38,03,00,000,42,17,00,000,43,19,00,000,42*7D
$BDGSV,2,1,05,08,00,000,38,13,00,000,44,14,00,000,41,27,00,000,43*6D
$BDGSV,2,2,05,28,00,000,43*50
$LOGTIM,0,0.000000,0.000000,0.000000,0.000000,0.000*0A
EndT:        0
sat67 = 1935 61 814 3000
sat68 = 1836 3013 814 2750
---00000024--- Acq_st=7 2019-5-25 08:51:56 
[00]  G01  f 39   2528.4 2045996.8  1.0  1.0  5  0 550333622
[01]  G03  f 42   2172.2 2045997.2  1.0  1.0  5  0 550333630
[02]  G17  f 43  -1324.6 2046001.7  1.0  1.0  5  0 550333634
[03]  G19  f 42  -2105.5 2046002.7  1.0  1.0  5  0 550333633
[16]  B08 1f 38    -90.0 4092000.2  1.0  1.0  5  0 550319582
[17]  B13 1f 44   -259.6 4092000.7  1.0  1.0  5  0 550319579
[18]  B14 1f 42   1245.4 4091996.7  1.0  1.0  5  0 550319625
[19]  B27 1f 43  -2491.8 4092006.5  1.0  1.0  5  0 550319618
[20]  B28 1f 43  -1350.0 4092003.6  1.0  1.0  5  0 550319629
$GNGGA,000000.000,,,,,0,00,,,M,,,,0000*2B
$GNRMC,000000.000,A,,,,,,,000000,,*26
$GPGSA,A,1,,,,,,,,,,,,,,,*1E
$BDGSA,A,1,,,,,,,,,,,,,,,*0F
$GPGSV,1,1,04,01,00,000,39,03,00,000,42,17,00,000,43,19,00,000,42*7C
$BDGSV,2,1,05,08,00,000,38,13,00,000,44,14,00,000,42,27,00,000,43*6E
$BDGSV,2,2,05,28,00,000,43*50
$LOGTIM,0,0.000000,0.000000,0.000000,0.000000,0.000*0A
EndT:        0
---00000025--- Acq_st=7 2019-5-25 08:51:57 
[00]  G01  f 39   2516.9 2045996.7  1.0  1.0  5  0 550334622
[01]  G03  f 42   2161.3 2045997.2  1.0  1.0  5  0 550334630
[02]  G17  f 43  -1335.6 2046001.8  1.0  1.0  5  0 550334634
[03]  G19  f 42  -2116.8 2046002.8  1.0  1.0  5  0 550334633
[16]  B08 1f 38   -101.2 4092000.2  1.0  0.9  5  0 550320582
[17]  B13 1f 44   -271.0 4092000.7  1.0  1.0  5  0 550320579
[18]  B14 1f 41   1234.5 4091996.8  1.0  1.0  5  0 550320625
[19]  B27 1f 44  -2503.4 4092006.5  1.0  1.0  5  0 550320618
[20]  B28 1f 43  -1361.6 4092003.6  1.0  1.0  5  0 550320629
$GNGGA,000000.000,,,,,0,00,,,M,,,,0000*2B
$GNRMC,000000.000,A,,,,,,,000000,,*26
$GPGSA,A,1,,,,,,,,,,,,,,,*1E
$BDGSA,A,1,,,,,,,,,,,,,,,*0F
$GPGSV,1,1,04,01,00,000,39,03,00,000,42,17,00,000,43,19,00,000,42*7C
$BDGSV,2,1,05,08,00,000,38,13,00,000,44,14,00,000,41,27,00,000,44*6A
$BDGSV,2,2,05,28,00,000,43*50
$LOGTIM,0,0.000000,0.000000,0.000000,0.000000,0.000*0A
EndT:        0
sat1 = 5072 459 2154 -3750
sat3 = 5043 214 2138 2250
sat4 = 5388 92 2179 1250
sat5 = 4777 390 2169 3000
sat6 = 5308 1804 2195 1000
sat7 = 4479 237 2139 1250
sat8 = 4956 661 2180 -3750
sat9 = 5159 775 2140 -500
---00000026--- Acq_st=3 2019-5-25 08:51:58 
[00]  G01  f 39   2515.7 2045996.7  1.0  1.0  5  0 550335622
[01]  G03  f 42   2160.8 2045997.2  1.0  1.0  5  0 550335630
[02]  G17  f 43  -1336.1 2046001.8  1.0  1.0  5  0 550335634
[03]  G19  f 42  -2117.7 2046002.8  1.0  1.0  5  0 550335633
[16]  B08 1f 38   -101.4 4092000.2  1.0  1.0  5  0 550321582
[17]  B13 1f 44   -271.7 4092000.7  1.0  1.0  5  0 550321579
[18]  B14 1f 42   1234.1 4091996.7  1.0  1.0  5  0 550321625
[19]  B27 1f 44  -2504.4 4092006.5  1.0  1.0  5  0 550321618
[20]  B28 1f 43  -1361.9 4092003.6  1.0  1.0  5  0 550321629
$GNGGA,000000.000,,,,,0,00,,,M,,,,0000*2B
$GNRMC,000000.000,A,,,,,,,000000,,*26
$GPGSA,A,1,,,,,,,,,,,,,,,*1E
$BDGSA,A,1,,,,,,,,,,,,,,,*0F
$GPGSV,1,1,04,01,00,000,39,03,00,000,42,17,00,000,43,19,00,000,42*7C
$BDGSV,2,1,05,08,00,000,38,13,00,000,44,14,00,000,42,27,00,000,44*69
$BDGSV,2,2,05,28,00,000,43*50
$LOGTIM,0,0.000000,0.000000,0.000000,0.000000,0.000*0A
EndT:        0
sat10 = 4844 172 2161 5000
sat11 = 4994 836 2182 1000
sat12 = 5003 1461 2189 -750
sat13 = 5263 1415 2118 -500
sat14 = 4914 1542 2186 3500
sat15 = 5085 1848 2171 -4250
sat17 = 4857 129 2139 2000
sat19 = 4663 290 2133 1250
---00000027--- Acq_st=3 2019-5-25 08:51:59 
[00]  G01  f 39   2522.8 2045996.7  1.0  1.0  5  0 550336622
[01]  G03  f 42   2168.6 2045997.2  1.0  1.0  5  0 550336630
[02]  G17  f 42  -1328.7 2046001.7  1.0  1.0  5  0 550336634
[03]  G19  f 41  -2110.1 2046002.8  1.0  1.0  5  0 550336633
[16]  B08 1f 37    -94.9 4092000.2  1.0  0.9  5  0 550322582
[17]  B13 1f 44   -264.6 4092000.7  1.0  1.0  5  0 550322579
[18]  B14 1f 41   1241.8 4091996.7  1.0  1.0  5  0 550322625
[19]  B27 1f 43  -2497.2 4092006.5  1.0  1.0  5  0 550322618
[20]  B28 1f 43  -1354.8 4092003.5  1.0  1.0  5  0 550322629
sat20 = 5012 1896 2181 -750
$GNGGA,000000.000,,,,,0,00,,,M,,,,0000*2B
$GNRMC,000000.000,A,,,,,,,000000,,*26
$GPGSA,A,1,,,,,,,,,,,,,,,*1E
$BDGSA,A,1,,,,,,,,,,,,,,,*0F
$GPGSV,1,1,04,01,00,000,39,03,00,000,42,17,00,000,42,19,00,000,41*7E
$BDGSV,2,1,05,08,00,000,37,13,00,000,44,14,00,000,41,27,00,000,43*62
$BDGSV,2,2,05,28,00,000,43*50
$LOGTIM,0,0.000000,0.000000,0.000000,0.000000,0.000*0A
EndT:        0
sat21 = 4958 886 2127 -2250
sat22 = 4823 1141 2155 -3000
sat23 = 4901 323 2155 2250
sat24 = 4891 1685 2136 -2250
sat25 = 4902 483 2144 2250
sat26 = 5330 1936 2150 4000
sat27 = 5023 45 2129 -1500
sat28 = 5127 332 2121 1000
---00000028--- Acq_st=3 2019-5-25 08:52:0 
[00]  G01  f 39   2519.2 2045996.7  1.0  1.0  5  0 550337622
[01]  G03  f 42   2165.0 2045997.2  1.0  1.0  5  0 550337630
[02]  G17  f 42  -1332.5 2046001.8  1.0  1.0  5  0 550337634
[03]  G19  f 41  -2113.6 2046002.8  1.0  1.0  5  0 550337633
[16]  B08 1f 38    -98.4 4092000.2  1.0  1.0  5  0 550323582
[17]  B13 1f 44   -268.3 4092000.7  1.0  1.0  5  0 550323579
[18]  B14 1f 41   1238.4 4091996.8  1.0  1.0  5  0 550323625
[19]  B27 1f 44  -2501.1 4092006.5  1.0  1.0  5  0 550323618
[20]  B28 1f 43  -1358.4 4092003.5  1.0  1.0  5  0 550323629
lsq: nits= 4
$GNGGA,085200.705,3112.7329,N,12136.4405,E,1,04,12.9,74.1,M,,,,0000*1C
$GNRMC,085200.705,A,3112.7329,N,12136.4405,E,0.92,0.00,250519,,*1D
$GPGSA,A,3,01,03,17,19,,,,,,,,,13.5,12.9,4.1*36
$BDGSA,A,3,,,,,,,,,,,,,13.5,12.9,4.1*2B
$GPGSV,1,1,04,01,00,000,40,03,00,000,42,17,00,000,42,19,00,000,41*70
$BDGSV,2,1,05,08,00,000,38,13,00,000,44,14,00,000,41,27,00,000,44*6A
$BDGSV,2,2,05,28,00,000,43*50
$LOGTIM,1,8995390.736620,0.000000,0.000000,0.000000,-65.438*1B
EndT:        0
sat29 = 5386 2044 2114 4500
sat30 = 4510 1620 2098 -3750
sat31 = 5009 1141 2099 -1250
sat37 = 1857 680 793 -1250
sat38 = 1887 183 841 1500
---00000029--- Acq_st=3 2019-5-25 08:52:1 
[00]  G01  f 39   2520.6 2045996.8  1.0  1.0  5  0 550338622
[01]  G03  f 43   2167.4 2045997.2  1.0  1.0  5  0 550338630
[02]  G17  f 42  -1330.1 2046001.7  1.0  1.0  5  0 550338634
[03]  G19  f 41  -2111.9 2046002.8  1.0  1.0  5  0 550338633
[16]  B08 1f 38    -96.8 4092000.2  1.0  1.0  5  0 550324582
[17]  B13 1f 44   -266.6 4092000.7  1.0  1.0  5  0 550324579
[18]  B14 1f 41   1240.4 4091996.8  1.0  1.0  5  0 550324625
[19]  B27 1f 43  -2499.4 4092006.5  1.0  1.0  5  0 550324618
[20]  B28 1f 43  -1356.5 4092003.5  1.0  1.0  5  0 550324629
sat39 = 1848 2615 810 -1250
lsq: nits= 4
$GNGGA,085202.000,3112.7305,N,12136.4392,E,1,04,12.9,78.3,M,,,,0000*15
$GNRMC,085202.000,A,3112.7305,N,12136.4392,E,1.06,0.00,250519,,*16
$GPGSA,A,3,01,03,17,19,,,,,,,,,13.5,12.9,4.1*36
$BDGSA,A,3,,,,,,,,,,,,,13.5,12.9,4.1*2B
$GPGSV,1,1,04,01,00,000,39,03,00,000,43,17,00,000,42,19,00,000,41*7F
$BDGSV,2,1,05,08,00,000,38,13,00,000,44,14,00,000,41,27,00,000,43*6D
$BDGSV,2,2,05,28,00,000,43*50
$LOGTIM,1,-84.500697,0.000000,0.000000,0.000000,-65.227*0E
EndT:        0
sat40 = 2014 2661 828 1000
sat41 = 1955 291 830 1750
sat42 = 1893 179 827 -4250
---00000030--- Acq_st=3 2019-5-25 08:52:2 
[00]  G01  f 39   2521.7 2045996.7  1.0  1.0  5  0 550339917
[01]  G03  f 43   2168.2 2045997.2  1.0  1.0  5  0 550339925
[02]  G17  f 42  -1329.9 2046001.7  1.0  1.0  5  0 550339930
[03]  G19  f 40  -2111.2 2046002.8  1.0  1.0  5  0 550339929
[16]  B08 1f 38    -96.3 4092000.3  1.0  1.0  5  0 550325877
[17]  B13 1f 45   -266.1 4092000.7  1.0  1.0  5  0 550325874
[18]  B14 1f 41   1241.4 4091996.8  1.0  1.0  5  0 550325920
[19]  B27 1f 44  -2499.0 4092006.5  1.0  1.0  5  0 550325914
[20]  B28 1f 43  -1355.9 4092003.5  1.0  1.0  5  0 550325925
sat43 = 1778 2357 789 -3750
lsq: nits= 4
$GNGGA,085203.000,3112.7295,N,12136.4385,E,1,04,12.8,78.9,M,,,,0000*11
$GNRMC,085203.000,A,3112.7295,N,12136.4385,E,1.26,0.00,250519,,*1B
$GPGSA,A,3,01,03,17,19,,,,,,,,,13.5,12.8,4.1*37
$BDGSA,A,3,,,,,,,,,,,,,13.5,12.8,4.1*2A
$GPGSV,1,1,04,01,10,058,39,03,35,047,43,17,63,004,42,19,50,331,40*72
$BDGSV,2,1,06,08,00,000,38,13,00,000,45,14,00,000,41,27,00,000,44*68
$BDGSV,2,2,06,28,00,000,43,11,60,333,00*66
$LOGTIM,1,-150.208751,0.000000,0.000000,0.000000,-65.500*30
EndT:        0
sat45 = 1855 1435 811 4500
sat46 = 1964 2411 830 3750
sat47 = 1945 3666 803 -4750
---00000031--- Acq_st=3 2019-5-25 08:52:3 
[00]  G01  f 39   2515.7 2045996.7  1.0  1.0  5  0 550340917
[01]  G03  f 43   2162.9 2045997.2  1.0  1.0  5  0 550340925
[02]  G17  f 42  -1334.9 2046001.7  1.0  1.0  5  0 550340930
[03]  G19  f 40  -2116.5 2046002.7  1.0  1.0  5  0 550340929
[16]  B08 1f 38   -102.0 4092000.3  1.0  1.0  5  0 550326877
[17]  B13 1f 44   -272.0 4092000.7  1.0  1.0  5  0 550326874
[18]  B14 1f 42   1236.3 4091996.7  1.0  1.0  5  0 550326920
[19]  B27 1f 44  -2504.8 4092006.5  1.0  1.0  5  0 550326914
[20]  B28 1f 44  -1361.5 4092003.5  1.0  1.0  5  0 550326925
sat48 = 1957 111 815 1750
lsq: nits= 4
$GNGGA,085204.000,3112.7286,N,12136.4376,E,1,04,12.8,79.2,M,,,,0000*12
$GNRMC,085204.000,A,3112.7286,N,12136.4376,E,0.96,0.00,250519,,*18
$GPGSA,A,3,01,03,17,19,,,,,,,,,13.5,12.8,4.1*37
$BDGSA,A,3,,,,,,,,,,,,,13.5,12.8,4.1*2A
$GPGSV,1,1,04,01,10,058,39,03,35,047,43,17,63,004,42,19,50,331,40*72
$BDGSV,2,1,06,08,00,000,38,13,00,000,44,14,00,000,42,27,00,000,44*6A
$BDGSV,2,2,06,28,00,000,44,11,60,333,00*61
$LOGTIM,1,-216.689837,0.000000,0.000000,0.000000,-66.091*3D
EndT:        0
sat51 = 1975 3671 816 -750
sat52 = 1968 348 841 3750
---00000032--- Acq_st=3 2019-5-25 08:52:4 
[00]  G01  f 39   2513.7 2045996.8  1.0  1.0  5  0 550341917
[01]  G03  f 43   2161.5 2045997.2  1.0  1.0  5  0 550341925
[02]  G17  f 42  -1336.7 2046001.7  1.0  1.0  5  0 550341930
[03]  G19  f 40  -2118.0 2046002.8  1.0  1.0  5  0 550341929
[16]  B08 1f 38   -103.2 4092000.3  1.0  1.0  5  0 550327877
[17]  B13 1f 45   -273.4 4092000.7  1.0  1.0  5  0 550327874
[18]  B14 1f 41   1235.2 4091996.8  1.0  1.0  5  0 550327920
[19]  B27 1f 44  -2506.2 4092006.5  1.0  1.0  5  0 550327914
[20]  B28 1f 44  -1362.8 4092003.5  1.0  1.0  5  0 550327925
sat53 = 1953 2484 826 -2000
sat54 = 1947 2905 821 4750
lsq: nits= 4
$GNGGA,085205.000,3112.7282,N,12136.4368,E,1,04,12.8,79.2,M,,,,0000*18
$GNRMC,085205.000,A,3112.7282,N,12136.4368,E,0.82,0.00,250519,,*17
$GPGSA,A,3,01,03,17,19,,,,,,,,,13.5,12.8,4.1*37
$BDGSA,A,3,,,,,,,,,,,,,13.5,12.8,4.1*2A
$GPGSV,1,1,04,01,10,058,39,03,35,047,43,17,63,004,42,19,50,331,40*72
$BDGSV,2,1,06,08,00,000,38,13,00,000,45,14,00,000,41,27,00,000,44*68
$BDGSV,2,2,06,28,00,000,44,11,60,333,00*61
$LOGTIM,1,-283.119608,0.000000,0.000000,0.000000,-66.224*31
EndT:        0
sat55 = 2074 1925 810 4000
sat56 = 1815 2712 814 -750
---00000033--- Acq_st=3 2019-5-25 08:52:5 
[00]  G01  f 39   2514.9 2045996.7  1.0  1.0  5  0 550342917
[01]  G03  f 43   2164.1 2045997.2  1.0  1.0  5  0 550342925
[02]  G17  f 42  -1334.8 2046001.7  1.0  1.0  5  0 550342930
[03]  G19  f 40  -2116.3 2046002.8  1.0  1.0  5  0 550342929
[16]  B08 1f 38   -101.9 4092000.3  1.0  1.0  5  0 550328877
[17]  B13 1f 44   -272.2 4092000.7  1.0  1.0  5  0 550328874
[18]  B14 1f 41   1237.3 4091996.7  1.0  1.0  5  0 550328920
[19]  B27 1f 44  -2504.9 4092006.6  1.0  1.0  5  0 550328914
[20]  B28 1f 44  -1361.5 4092003.6  1.0  1.0  5  0 550328925
sat57 = 1915 1637 798 1500
lsq: nits= 4
$GNGGA,085206.000,3112.7293,N,12136.4321,E,1,04,12.8,72.3,M,,,,0000*1C
$GNRMC,085206.000,A,3112.7293,N,12136.4321,E,2.96,258.68,250519,,*1F
$GPGSA,A,3,01,03,17,19,,,,,,,,,13.4,12.8,4.1*36
$BDGSA,A,3,,,,,,,,,,,,,13.4,12.8,4.1*2B
$GPGSV,1,1,04,01,10,058,39,03,35,047,43,17,63,004,42,19,50,331,40*72
$BDGSV,2,1,06,08,00,000,38,13,00,000,44,14,00,000,41,27,00,000,44*69
$BDGSV,2,2,06,28,00,000,44,11,60,333,00*61
$LOGTIM,1,-354.249316,0.000000,0.000000,0.000000,-66.767*34
EndT:        0
sat58 = 1853 4068 807 3250
sat59 = 1917 3591 820 -2250
sat60 = 1872 3230 811 1000
---00000034--- Acq_st=3 2019-5-25 08:52:6 
[00]  G01  f 39   2521.5 2045996.7  1.0  1.0  5  0 550343917
[01]  G03  f 43   2170.7 2045997.2  1.0  1.0  5  0 550343925
[02]  G17  f 42  -1328.2 2046001.7  1.0  1.0  5  0 550343930
[03]  G19  f 40  -2110.0 2046002.7  1.0  1.0  5  0 550343929
[16]  B08 1f 38    -96.0 4092000.2  1.0  1.0  5  0 550329877
[17]  B13 1f 44   -265.6 4092000.7  1.0  1.0  5  0 550329874
[18]  B14 1f 42   1244.4 4091996.7  1.0  1.0  5  0 550329920
[19]  B27 1f 44  -2498.5 4092006.6  1.0  1.0  5  0 550329914
[20]  B28 1f 44  -1355.1 4092003.5  1.0  1.0  5  0 550329925
sat61 = 1845 3162 801 -4000
lsq: nits= 4
$GNGGA,085207.000,3112.7291,N,12136.4319,E,1,04,12.8,71.9,M,,,,0000*1D
$GNRMC,085207.000,A,3112.7291,N,12136.4319,E,3.92,256.70,250519,,*15
$GPGSA,A,3,01,03,17,19,,,,,,,,,13.4,12.8,4.1*36
$BDGSA,A,3,,,,,,,,,,,,,13.4,12.8,4.1*2B
$GPGSV,1,1,04,01,10,058,39,03,35,047,43,17,63,004,42,19,50,331,40*72
$BDGSV,2,1,06,08,00,000,38,13,00,000,44,14,00,000,42,27,00,000,44*6A
$BDGSV,2,2,06,28,00,000,44,11,60,333,00*61
$LOGTIM,1,-419.641623,0.000000,0.000000,0.000000,-66.164*30
EndT:        0
sat62 = 1855 2932 814 2000
sat65 = 1978 3891 824 -4250
sat66 = 1832 3695 815 5000
---00000035--- Acq_st=3 2019-5-25 08:52:7 
[00]  G01  f 39   2522.9 2045996.7  1.0  1.0  5  0 550344917
[01]  G03  f 43   2172.6 2045997.2  1.0  1.0  5  0 550344925
[02]  G17  f 42  -1326.6 2046001.7  1.0  1.0  5  0 550344930
[03]  G19  f 40  -2108.2 2046002.7  1.0  1.0  5  0 550344929
[16]  B08 1f 38    -94.1 4092000.2  1.0  1.0  5  0 550330877
[17]  B13 1f 44   -264.3 4092000.7  1.0  1.0  5  0 550330874
[18]  B14 1f 42   1245.7 4091996.7  1.0  1.0  5  0 550330920
[19]  B27 1f 44  -2497.5 4092006.6  1.0  1.0  5  0 550330914
[20]  B28 1f 45  -1353.4 4092003.6  1.0  1.0  5  0 550330925
sat67 = 1898 2713 815 500
lsq: nits= 4
$GNGGA,085208.000,3112.7275,N,12136.4303,E,1,04,12.8,67.2,M,,,,0000*1F
$GNRMC,085208.000,A,3112.7275,N,12136.4303,E,4.77,258.29,250519,,*15
$GPGSA,A,3,01,03,17,19,,,,,,,,,13.4,12.8,4.1*36
$BDGSA,A,3,,,,,,,,,,,,,13.4,12.8,4.1*2B
$GPGSV,1,1,04,01,10,058,39,03,35,047,43,17,63,004,42,19,50,331,40*72
$BDGSV,2,1,06,08,00,000,38,13,00,000,44,14,00,000,42,27,00,000,44*6A
$BDGSV,2,2,06,28,00,000,45,11,60,333,00*60
$LOGTIM,1,-488.850951,0.000000,0.000000,0.000000,-66.427*3E
EndT:        0
sat68 = 1872 1641 826 -750
---00000036--- Acq_st=7 2019-5-25 08:52:8 
[00]  G01  f 40   2522.3 2045996.7  1.0  1.0  5  0 550345917
[01]  G03  f 43   2172.8 2045997.2  1.0  1.0  5  0 550345925
[02]  G17  f 42  -1327.2 2046001.7  1.0  1.0  5  0 550345930
[03]  G19  f 40  -2108.4 2046002.7  1.0  1.0  5  0 550345929
[16]  B08 1f 38    -94.8 4092000.2  1.0  0.9  5  0 550331877
[17]  B13 1f 44   -264.8 4092000.7  1.0  1.0  5  0 550331874
[18]  B14 1f 42   1245.9 4091996.7  1.0  1.0  5  0 550331920
[19]  B27 1f 43  -2498.0 4092006.5  1.0  1.0  5  0 550331914
[20]  B28 1f 44  -1354.0 4092003.5  1.0  1.0  5  0 550331925
lsq: nits= 4
$GNGGA,085209.000,3112.7239,N,12136.4298,E,1,04,12.7,64.7,M,,,,0000*1C
$GNRMC,085209.000,A,3112.7239,N,12136.4298,E,6.04,259.66,250519,,*13
$GPGSA,A,3,01,03,17,19,,,,,,,,,13.4,12.7,4.1*39
$BDGSA,A,3,,,,,,,,,,,,,13.4,12.7,4.1*24
$GPGSV,1,1,04,01,10,058,40,03,35,047,43,17,63,004,42,19,50,331,40*7C
$BDGSV,2,1,06,08,00,000,38,13,00,000,44,14,00,000,42,27,00,000,43*6D
$BDGSV,2,2,06,28,00,000,44,11,60,333,00*61
$LOGTIM,1,-558.533894,0.000000,0.000000,0.000000,-66.611*35
EndT:        0
---00000037--- Acq_st=7 2019-5-25 08:52:9 
[00]  G01  f 39   2528.6 2045996.7  1.0  1.0  5  0 550346917
[01]  G03  f 43   2179.8 2045997.2  1.0  1.0  5  0 550346925
[02]  G17  f 43  -1319.7 2046001.7  1.0  1.0  5  0 550346930
[03]  G19  f 40  -2101.3 2046002.7  1.0  1.0  5  0 550346929
[16]  B08 1f 38    -87.5 4092000.2  1.0  1.0  5  0 550332877
[17]  B13 1f 44   -258.2 4092000.6  1.0  1.0  5  0 550332874
[18]  B14 1f 42   1253.1 4091996.7  1.0  1.0  5  0 550332920
[19]  B27 1f 44  -2490.8 4092006.5  1.0  1.0  5  0 550332914
[20]  B28 1f 45  -1347.0 4092003.5  1.0  1.0  5  0 550332925
sat1 = 6118 1019 2122 2250
sat3 = 5248 515 2146 -4000
lsq: nits= 4
$GNGGA,085210.000,3112.7232,N,12136.4296,E,1,04,12.7,64.4,M,,,,0000*12
$GNRMC,085210.000,A,3112.7232,N,12136.4296,E,7.15,258.10,250519,,*1F
$GPGSA,A,3,01,03,17,19,,,,,,,,,13.4,12.7,4.1*39
$BDGSA,A,3,,,,,,,,,,,,,13.4,12.7,4.1*24
$GPGSV,1,1,04,01,10,058,39,03,35,047,43,17,63,004,43,19,50,331,40*73
$BDGSV,2,1,06,08,00,000,38,13,00,000,44,14,00,000,42,27,00,000,44*6A
$BDGSV,2,2,06,28,00,000,45,11,60,333,00*60
$LOGTIM,1,-622.926467,0.000000,0.000000,0.000000,-66.086*3B
EndT:        0
sat4 = 4721 1574 2120 4000
sat5 = 18217 27 2134 1500
ch4 satid=5,max_freq = 1500,max_mean = 2134,max_phase = 27,max_value = 18217,acq ok1!
acq ok1 timeH = 0,timeL = 716633284,freq_stage = 2
sat6 = 5316 1617 2144 -1750
sat7 = 5036 1568 2098 -3500
sat8 = 4725 1568 2112 2750
sat9 = 5204 1433 2113 -2000
---00000038--- Acq_st=3 2019-5-25 08:52:10 
[00]  G01  f 39   2532.2 2045996.7  1.0  1.0  5  0 550347917
[01]  G03  f 43   2183.4 2045997.2  1.0  1.0  5  0 550347925
[02]  G17  f 42  -1316.2 2046001.8  1.0  1.0  5  0 550347930
[03]  G19  f 41  -2098.0 2046002.7  1.0  1.0  5  0 550347929
[04]  G06  1 23  -1517.8 2046002.5 -0.0  0.0  1  0         0
[16]  B08 1f 38    -85.0 4092000.2  1.0  0.9  5  0 550333877
[17]  B13 1f 44   -254.8 4092000.7  1.0  1.0  5  0 550333874
[18]  B14 1f 42   1256.3 4091996.7  1.0  1.0  5  0 550333920
[19]  B27 1f 44  -2487.8 4092006.5  1.0  1.0  5  0 550333914
[20]  B28 1f 45  -1344.0 4092003.5  1.0  1.0  5  0 550333925
sat10 = 4951 1706 2112 -1000
sat11 = 4849 1739 2169 -1500
sat12 = 4928 1026 2160 -500
lsq: nits= 4
$GNGGA,085211.000,3112.7217,N,12136.4297,E,1,04,12.7,64.5,M,,,,0000*14
$GNRMC,085211.000,A,3112.7217,N,12136.4297,E,7.56,259.02,250519,,*1D
$GPGSA,A,3,01,03,17,19,,,,,,,,,13.4,12.7,4.1*39
$BDGSA,A,3,,,,,,,,,,,,,13.4,12.7,4.1*24
$GPGSV,1,1,04,01,10,058,39,03,35,047,43,17,63,004,42,19,50,331,41*73
$BDGSV,2,1,06,08,00,000,38,13,00,000,44,14,00,000,42,27,00,000,44*6A
$BDGSV,2,2,06,28,00,000,45,11,60,333,00*60
$LOGTIM,1,-686.909372,0.000000,0.000000,0.000000,-65.722*31
EndT:        0
sat13 = 4977 1288 2139 -4250
sat14 = 5036 604 2172 -3750
sat15 = 6156 1108 2153 0
sat17 = 5736 525 2166 -1250
sat19 = 4647 1428 2138 750
---00000039--- Acq_st=3 2019-5-25 08:52:11 
[00]  G01  f 39   2532.0 2045996.7  1.0  1.0  5  0 550348917
[01]  G03  f 43   2183.5 2045997.2  1.0  1.0  5  0 550348925
[02]  G17  f 42  -1315.9 2046001.7  1.0  1.0  5  0 550348930
[03]  G19  f 41  -2097.4 2046002.7  1.0  1.0  5  0 550348929
[04]  G06  7 22  -1533.9 2046002.0  0.2  0.0 20  0        15
[16]  B08 1f 38    -85.5 4092000.2  1.0  1.0  5  0 550334877
[17]  B13 1f 44   -255.1 4092000.7  1.0  1.0  5  0 550334874
[18]  B14 1f 42   1256.5 4091996.7  1.0  1.0  5  0 550334920
[19]  B27 1f 44  -2488.0 4092006.5  1.0  1.0  5  0 550334914
[20]  B28 1f 44  -1343.8 4092003.5  1.0  1.0  5  0 550334925
sat20 = 5525 1610 2177 -3000
sat21 = 4993 1021 2158 -2750
sat22 = 5637 734 2197 -1250
lsq: nits= 4
$GNGGA,085212.000,3112.7196,N,12136.4298,E,1,04,12.7,64.6,M,,,,0000*11
$GNRMC,085212.000,A,3112.7196,N,12136.4298,E,7.56,260.20,250519,,*11
$GPGSA,A,3,01,03,17,19,,,,,,,,,13.3,12.7,4.1*3E
$BDGSA,A,3,,,,,,,,,,,,,13.3,12.7,4.1*23
$GPGSV,2,1,05,01,10,058,39,03,35,047,43,17,63,004,42,19,50,331,41*71
$GPGSV,2,2,05,06,00,000,22*4A
$BDGSV,2,1,06,08,00,000,38,13,00,000,44,14,00,000,42,27,00,000,44*6A
$BDGSV,2,2,06,28,00,000,44,11,60,333,00*61
$LOGTIM,1,-751.194696,0.000000,0.000000,0.000000,-65.525*3C
EndT:        0
sat23 = 5053 1122 2196 1000
sat24 = 4877 1503 2138 -4250
sat25 = 4848 632 2168 1750
sat26 = 5059 350 2171 750
sat27 = 5088 1279 2139 -4750
sat28 = 5212 581 2169 5000
---00000040--- Acq_st=3 2019-5-25 08:52:12 
[00]  G01  f 39   2531.1 2045996.7  1.0  0.9  5  0 550349917
[01]  G03  f 43   2183.3 2045997.2  1.0  1.0  5  0 550349925
[02]  G17  f 42  -1316.7 2046001.7  1.0  1.0  5  0 550349930
[03]  G19  f 41  -2098.5 2046002.7  1.0  1.0  5  0 550349929
[04]  G06  7 39  -1534.4 2046002.0  0.9  1.0  5  0         8
[16]  B08 1f 38    -86.4 4092000.2  1.0  1.0  5  0 550335877
[17]  B13 1f 44   -256.0 4092000.7  1.0  1.0  5  0 550335874
[18]  B14 1f 42   1256.7 4091996.7  1.0  1.0  5  0 550335920
[19]  B27 1f 44  -2489.0 4092006.5  1.0  1.0  5  0 550335914
[20]  B28 1f 44  -1344.6 4092003.5  1.0  1.0  5  0 550335925
sat29 = 4925 1677 2176 -1250
sat30 = 5154 69 2171 -4000
sat31 = 4923 508 2174 -2750
lsq: nits= 4
$GNGGA,085213.000,3112.7179,N,12136.4300,E,1,04,12.7,65.1,M,,,,0000*17
$GNRMC,085213.000,A,3112.7179,N,12136.4300,E,6.70,261.98,250519,,*16
$GPGSA,A,3,01,03,17,19,,,,,,,,,13.3,12.7,4.1*3E
$BDGSA,A,3,,,,,,,,,,,,,13.3,12.7,4.1*23
$GPGSV,2,1,05,01,10,058,39,03,35,047,43,17,63,004,42,19,50,331,41*71
$GPGSV,2,2,05,06,00,000,39*40
$BDGSV,2,1,06,08,00,000,38,13,00,000,44,14,00,000,42,27,00,000,44*6A
$BDGSV,2,2,06,28,00,000,44,11,60,333,00*61
$LOGTIM,1,-815.238432,0.000000,0.000000,0.000000,-65.443*3B
EndT:        0
sat37 = 1921 3220 803 -4000
sat38 = 1922 1800 839 -2000
---00000041--- Acq_st=3 2019-5-25 08:52:13 
[00]  G01  f 39   2529.2 2045996.7  1.0  1.0  5  0 550350917
[01]  G03  f 43   2182.2 2045997.1  1.0  1.0  5  0 550350925
[02]  G17  f 42  -1318.4 2046001.7  1.0  1.0  5  0 550350930
[03]  G19  f 41  -2100.4 2046002.7  1.0  1.0  5  0 550350929
[04]  G06  f 38  -1535.7 2046002.0  1.0  1.0  5  0         8
[16]  B08 1f 38    -88.1 4092000.2  1.0  1.0  5  0 550336877
[17]  B13 1f 44   -257.8 4092000.7  1.0  1.0  5  0 550336874
[18]  B14 1f 42   1255.2 4091996.7  1.0  1.0  5  0 550336920
[19]  B27 1f 44  -2490.7 4092006.5  1.0  1.0  5  0 550336914
[20]  B28 1f 44  -1346.4 4092003.5  1.0  1.0  5  0 550336925
sat39 = 1850 2757 812 -1000
lsq: nits= 4
$GNGGA,085214.000,3112.7158,N,12136.4304,E,1,04,12.7,65.8,M,,,,0000*1E
$GNRMC,085214.000,A,3112.7158,N,12136.4304,E,6.31,263.20,250519,,*12
$GPGSA,A,3,01,03,17,19,,,,,,,,,13.3,12.7,4.1*3E
$BDGSA,A,3,,,,,,,,,,,,,13.3,12.7,4.1*23
$GPGSV,2,1,05,01,10,058,39,03,35,047,43,17,63,004,42,19,50,331,41*71
$GPGSV,2,2,05,06,00,000,38*41
$BDGSV,2,1,06,08,00,000,38,13,00,000,44,14,00,000,42,27,00,000,44*6A
$BDGSV,2,2,06,28,00,000,44,11,60,333,00*61
$LOGTIM,1,-879.800401,0.000000,0.000000,0.000000,-65.375*32
EndT:        0
sat40 = 2026 2781 828 -4750
sat41 = 2339 3738 834 250
sat42 = 1993 3880 824 -500
---00000042--- Acq_st=3 2019-5-25 08:52:14 
[00]  G01  f 40   2527.0 2045996.7  1.0  1.0  5  0 550351917
[01]  G03  f 43   2180.3 2045997.2  1.0  1.0  5  0 550351925
[02]  G17  f 42  -1319.8 2046001.7  1.0  1.0  5  0 550351930
[03]  G19  f 41  -2101.9 2046002.7  1.0  1.0  5  0 550351929
[04]  G06  f 38  -1537.0 2046002.0  1.0  1.0  5  0 550351928
[16]  B08 1f 38    -89.7 4092000.2  1.0  1.0  5  0 550337877
[17]  B13 1f 44   -259.7 4092000.7  1.0  1.0  5  0 550337874
[18]  B14 1f 42   1253.5 4091996.7  1.0  1.0  5  0 550337920
[19]  B27 1f 44  -2492.6 4092006.5  1.0  1.0  5  0 550337914
[20]  B28 1f 44  -1348.1 4092003.5  1.0  1.0  5  0 550337925
sat43 = 1799 1731 799 -2500
lsq: nits= 4
$GNGGA,085215.000,3112.7104,N,12136.4311,E,1,09,12.6,65.7,M,,,,0000*11
$GNRMC,085215.000,A,3112.7104,N,12136.4311,E,5.76,264.67,250519,,*1A
$GPGSA,A,3,01,03,17,19,,,,,,,,,13.3,12.6,4.1*3F
$BDGSA,A,3,08,13,14,27,28,,,,,,,,13.3,12.6,4.1*22
$GPGSV,2,1,05,01,10,058,40,03,35,047,43,17,63,004,42,19,50,331,41*7F
$GPGSV,2,2,05,06,00,000,38*41
$BDGSV,2,1,06,08,00,000,38,13,00,000,44,14,00,000,42,27,00,000,44*6A
$BDGSV,2,2,06,28,00,000,44,11,60,333,00*61
$LOGTIM,3,-948.502865,-1083.590457,0.000000,0.000000,-65.701*28
EndT:        0
sat45 = 2054 1406 810 -2250
sat46 = 2015 1841 829 -3750
sat47 = 2017 1349 811 2000
---00000043--- Acq_st=3 2019-5-25 08:52:15 
[00]  G01  f 39   2523.6 2045996.7  1.0  1.0  5  0 550352917
[01]  G03  f 43   2177.2 2045997.2  1.0  1.0  5  0 550352925
[02]  G17  f 42  -1323.4 2046001.7  1.0  1.0  5  0 550352930
[03]  G19  f 42  -2104.8 2046002.7  1.0  1.0  5  0 550352929
[04]  G06  f 38  -1540.4 2046002.0  1.0  1.0  5  0 550352928
[16]  B08 1f 38    -93.7 4092000.2  1.0  1.0  5  0 550338877
[17]  B13 1f 44   -263.0 4092000.7  1.0  1.0  5  0 550338874
[18]  B14 1f 42   1250.8 4091996.7  1.0  1.0  5  0 550338920
[19]  B27 1f 44  -2496.3 4092006.5  1.0  1.0  5  0 550338914
[20]  B28 1f 44  -1351.5 4092003.5  1.0  1.0  5  0 550338925
sat48 = 2104 2604 819 -4000
lsq: nits= 2
$GNGGA,085216.000,3112.6119,N,12136.4336,E,1,09,2.0,84.2,M,,,,0000*27
$GNRMC,085216.000,A,3112.6119,N,12136.4336,E,20.24,274.55,250519,,*21
$GPGSA,A,3,01,03,17,19,,,,,,,,,2.4,2.0,1.2*39
$BDGSA,A,3,08,13,14,27,28,,,,,,,,2.4,2.0,1.2*24
$GPGSV,2,1,05,01,10,058,39,03,35,047,43,17,63,004,42,19,50,331,42*72
$GPGSV,2,2,05,06,00,000,38*41
$BDGSV,2,1,06,08,60,333,38,13,46,288,44,14,32,054,42,27,13,296,44*60
$BDGSV,2,2,06,28,54,336,44,11,60,333,00*66
$LOGTIM,3,-1093.371160,-1241.979413,0.000000,0.000000,-69.575*12
EndT:        1
sat51 = 1993 3707 820 5000
sat52 = 1996 1927 847 -3750
---00000044--- Acq_st=3 2019-5-25 08:52:16 
[00]  G01  f 39   2521.7 2045996.7  1.0  1.0  5  0 550353917
[01]  G03  f 43   2176.1 2045997.2  1.0  1.0  5  0 550353925
[02]  G17  f 42  -1325.1 2046001.7  1.0  1.0  5  0 550353930
[03]  G19  f 42  -2106.8 2046002.8  1.0  1.0  5  0 550353929
[04]  G06  f 38  -1542.5 2046002.1  1.0  1.0  5  0 550353928
[16]  B08 1f 38    -95.6 4092000.2  1.0  1.0  5  0 550339877
[17]  B13 1f 44   -264.4 4092000.7  1.0  1.0  5  0 550339874
[18]  B14 1f 42   1249.6 4091996.7  1.0  1.0  5  0 550339920
[19]  B27 1f 44  -2498.0 4092006.5  1.0  1.0  5  0 550339914
[20]  B28 1f 44  -1352.9 4092003.5  1.0  1.0  5  0 550339925
sat53 = 1923 2013 827 -3250
sat54 = 2018 1583 824 -1750
lsq: nits= 2
$GNGGA,085217.000,3112.6149,N,12136.4339,E,1,08,2.1,85.2,M,,,,0000*2D
$GNRMC,085217.000,A,3112.6149,N,12136.4339,E,13.56,276.16,250519,,*2A
$GPGSA,A,3,01,03,17,19,,,,,,,,,2.5,2.1,1.4*3F
$BDGSA,A,3,08,14,27,28,,,,,,,,,2.5,2.1,1.4*20
$GPGSV,2,1,05,01,10,058,39,03,35,047,43,17,63,004,42,19,50,331,42*72
$GPGSV,2,2,05,06,00,000,38*41
$BDGSV,2,1,06,08,60,333,38,13,46,288,44,14,32,054,42,27,13,296,44*60
$BDGSV,2,2,06,28,54,336,44,11,60,333,00*66
$LOGTIM,3,-1153.443728,-1301.433011,0.000000,0.000000,-68.059*19
EndT:        0
sat55 = 1979 1130 814 3250
sat56 = 1846 3789 820 -4000
---00000045--- Acq_st=3 2019-5-25 08:52:17 
[00]  G01  f 39   2524.1 2045996.7  1.0  1.0  5  0 550354917
[01]  G03  f 43   2179.1 2045997.2  1.0  1.0  5  0 550354925
[02]  G17  f 42  -1322.3 2046001.7  1.0  1.0  5  0 550354930
[03]  G19  f 41  -2104.3 2046002.7  1.0  1.0  5  0 550354929
[04]  G06  f 38  -1539.8 2046001.9  1.0  1.0  5  0 550354928
[16]  B08 1f 38    -92.4 4092000.2  1.0  1.0  5  0 550340877
[17]  B13 1f 44   -262.6 4092000.7  1.0  1.0  5  0 550340874
[18]  B14 1f 42   1252.4 4091996.7  1.0  1.0  5  0 550340920
[19]  B27 1f 44  -2495.5 4092006.5  1.0  1.0  5  0 550340914
[20]  B28 1f 45  -1350.5 4092003.5  1.0  1.0  5  0 550340925
sat57 = 1835 2043 803 4000
lsq: nits= 2
$GNGGA,085218.000,3112.6175,N,12136.4341,E,1,08,2.1,84.6,M,,,,0000*27
$GNRMC,085218.000,A,3112.6175,N,12136.4341,E,9.96,276.37,250519,,*11
$GPGSA,A,3,01,03,17,19,,,,,,,,,2.5,2.1,1.4*3F
$BDGSA,A,3,08,14,27,28,,,,,,,,,2.5,2.1,1.4*20
$GPGSV,2,1,05,01,10,058,39,03,35,047,43,17,63,004,42,19,50,331,41*71
$GPGSV,2,2,05,06,00,000,38*41
$BDGSV,2,1,06,08,60,333,38,13,46,288,44,14,32,054,42,27,13,296,44*60
$BDGSV,2,2,06,28,54,336,45,11,60,333,00*67
$LOGTIM,3,-1215.159551,-1362.878697,0.000000,0.000000,-66.879*10
EndT:        0
sat58 = 2087 1448 808 1750
sat59 = 1946 2756 820 3750
sat60 = 1928 1319 809 -3250
---00000046--- Acq_st=3 2019-5-25 08:52:18 
[00]  G01  f 39   2520.8 2045996.7  1.0  1.0  5  0 550355917
[01]  G03  f 43   2176.1 2045997.2  1.0  1.0  5  0 550355925
[02]  G17  f 42  -1325.5 2046001.7  1.0  1.0  5  0 550355930
[03]  G19  f 41  -2106.9 2046002.7  1.0  1.0  5  0 550355929
[04]  G06  f 39  -1542.2 2046002.0  1.0  1.0  5  0 550355928
[16]  B08 1f 38    -96.1 4092000.2  1.0  1.0  5  0 550341877
[17]  B13 1f 44   -265.1 4092000.7  1.0  1.0  5  0 550341874
[18]  B14 1f 42   1249.8 4091996.7  1.0  1.0  5  0 550341920
[19]  B27 1f 44  -2498.8 4092006.5  1.0  1.0  5  0 550341914
[20]  B28 1f 45  -1353.8 4092003.5  1.0  1.0  5  0 550341925
sat61 = 1970 1160 809 4000
lsq: nits= 2
$GNGGA,085219.000,3112.6215,N,12136.4338,E,1,07,4.0,80.8,M,,,,0000*2F
$GNRMC,085219.000,A,3112.6215,N,12136.4338,E,5.09,275.45,250519,,*17
$GPGSA,A,3,01,03,17,19,,,,,,,,,4.6,4.0,2.3*39
$BDGSA,A,3,08,14,28,,,,,,,,,,4.6,4.0,2.3*23
$GPGSV,2,1,05,01,10,058,39,03,35,047,43,17,63,004,42,19,50,331,41*71
$GPGSV,2,2,05,06,00,000,39*40
$BDGSV,2,1,06,08,60,333,38,13,46,288,44,14,32,054,42,27,13,296,44*60
$BDGSV,2,2,06,28,54,336,45,11,60,333,00*67
$LOGTIM,3,-1278.118515,-1425.047170,0.000000,0.000000,-66.389*14
EndT:        0
sat62 = 1943 302 813 -2250
sat65 = 1882 2579 831 750
sat66 = 1984 789 822 1250
---00000047--- Acq_st=3 2019-5-25 08:52:19 
[00]  G01  f 39   2515.6 2045996.7  1.0  1.0  5  0 550356917
[01]  G03  f 43   2171.8 2045997.2  1.0  1.0  5  0 550356925
[02]  G17  f 42  -1330.0 2046001.7  1.0  1.0  5  0 550356930
[03]  G19  f 42  -2111.8 2046002.8  1.0  1.0  5  0 550356929
[04]  G06  f 39  -1546.7 2046002.0  1.0  1.0  5  0 550356928
[16]  B08 1f 38   -101.7 4092000.3  1.0  1.0  5  0 550342877
[17]  B13 1f 44   -270.6 4092000.7  1.0  1.0  5  0 550342874
[18]  B14 1f 42   1244.9 4091996.7  1.0  1.0  5  0 550342920
[19]  B27 1f 44  -2504.1 4092006.5  1.0  1.0  5  0 550342914
[20]  B28 1f 45  -1358.4 4092003.5  1.0  1.0  5  0 550342925
sat67 = 1941 3813 821 -2250
lsq: nits= 2
$GNGGA,085220.000,3112.6261,N,12136.4346,E,1,07,2.4,77.8,M,,,,0000*25
$GNRMC,085220.000,A,3112.6261,N,12136.4346,E,2.14,275.04,250519,,*19
$GPGSA,A,3,01,03,17,19,,,,,,,,,2.8,2.4,1.4*37
$BDGSA,A,3,08,27,28,,,,,,,,,,2.8,2.4,1.4*2D
$GPGSV,2,1,05,01,10,058,39,03,35,047,43,17,63,004,42,19,50,331,42*72
$GPGSV,2,2,05,06,00,000,39*40
$BDGSV,2,1,06,08,60,333,38,13,46,288,44,14,32,054,42,27,13,296,44*60
$BDGSV,2,2,06,28,54,336,45,11,60,333,00*67
$LOGTIM,3,-1340.909666,-1487.664429,0.000000,0.000000,-66.296*18
EndT:        0
sat68 = 1918 935 827 2750
---00000048--- Acq_st=7 2019-5-25 08:52:20 
[00]  G01  f 39   2515.0 2045996.7  1.0  1.0  5  0 550357917
[01]  G03  f 42   2171.7 2045997.2  1.0  1.0  5  0 550357925
[02]  G17  f 42  -1330.1 2046001.7  1.0  1.0  5  0 550357930
[03]  G19  f 42  -2111.7 2046002.7  1.0  1.0  5  0 550357929
[04]  G06  f 39  -1547.3 2046002.0  1.0  0.9  5  0 550357928
[16]  B08 1f 38   -101.6 4092000.2  1.0  1.0  5  0 550343877
[17]  B13 1f 44   -271.3 4092000.7  1.0  1.0  5  0 550343874
[18]  B14 1f 42   1245.5 4091996.7  1.0  1.0  5  0 550343920
[19]  B27 1f 44  -2504.2 4092006.6  1.0  1.0  5  0 550343914
[20]  B28 1f 45  -1359.0 4092003.6  1.0  1.0  5  0 550343925
lsq: nits= 2
$GNGGA,085221.000,3112.6087,N,12136.4331,E,1,08,2.1,83.5,M,,,,0000*22
$GNRMC,085221.000,A,3112.6087,N,12136.4331,E,5.68,274.83,250519,,*10
$GPGSA,A,3,01,03,17,19,,,,,,,,,2.4,2.1,1.3*39
$BDGSA,A,3,08,13,14,27,,,,,,,,,2.4,2.1,1.3*2E
$GPGSV,2,1,05,01,10,058,39,03,35,047,42,17,63,004,42,19,50,331,42*73
$GPGSV,2,2,05,06,00,000,39*40
$BDGSV,2,1,06,08,60,333,38,13,46,288,44,14,32,054,42,27,13,296,44*60
$BDGSV,2,2,06,28,54,336,45,11,60,333,00*67
$LOGTIM,3,-1420.308616,-1567.140712,0.000000,0.000000,-66.857*17
EndT:        1
---00000049--- Acq_st=7 2019-5-25 08:52:21 
[00]  G01  f 39   2518.4 2045996.7  1.0  1.0  5  0 550358917
[01]  G03  f 42   2176.0 2045997.2  1.0  1.0  5  0 550358925
[02]  G17  f 42  -1327.0 2046001.7  1.0  1.0  5  0 550358930
[03]  G19  f 42  -2108.4 2046002.7  1.0  1.0  5  0 550358929
[04]  G06  f 39  -1544.0 2046002.0  1.0  1.0  5  0 550358928
[16]  B08 1f 39    -98.5 4092000.2  1.0  1.0  5  0 550344877
[17]  B13 1f 43   -267.5 4092000.7  1.0  1.0  5  0 550344874
[18]  B14 1f 42   1249.3 4091996.7  1.0  1.0  5  0 550344920
[19]  B27 1f 44  -2500.9 4092006.6  1.0  1.0  5  0 550344914
[20]  B28 1f 45  -1355.3 4092003.5  1.0  1.0  5  0 550344925
sat1 = 5485 583 2072 2500
sat3 = 4728 822 2074 -4750
sat4 = 4818 1546 2043 4500
lsq: nits= 2
$GNGGA,085222.000,3112.6105,N,12136.4342,E,1,08,2.1,79.5,M,,,,0000*2B
$GNRMC,085222.000,A,3112.6105,N,12136.4342,E,4.26,276.18,250519,,*17
$GPGSA,A,3,01,03,17,19,,,,,,,,,2.5,2.1,1.4*3F
$BDGSA,A,3,08,14,27,28,,,,,,,,,2.5,2.1,1.4*20
$GPGSV,2,1,05,01,10,058,39,03,35,047,42,17,64,004,42,19,50,331,42*74
$GPGSV,2,2,05,06,00,000,39*40
$BDGSV,2,1,06,08,60,333,39,13,46,288,43,14,32,054,42,27,13,296,44*66
$BDGSV,2,2,06,28,54,336,45,11,60,333,00*67
$LOGTIM,3,-1484.873966,-1631.479508,0.000000,0.000000,-66.346*1B
EndT:        0
sat6 = 5596 1089 2097 2750
sat7 = 4751 190 2057 3250
sat8 = 4783 1982 2107 1000
sat9 = 4830 1659 2107 -1500
sat10 = 4583 102 2078 2000
---00000050--- Acq_st=3 2019-5-25 08:52:23 
[00]  G01  f 39   2518.0 2045996.8  1.0  1.0  5  0 550359917
[01]  G03  f 42   2175.8 2045997.2  1.0  1.0  5  0 550359925
[02]  G17  f 42  -1326.6 2046001.7  1.0  1.0  5  0 550359930
[03]  G19  f 42  -2108.3 2046002.7  1.0  1.0  5  0 550359929
[04]  G06  f 38  -1543.9 2046002.0  1.0  1.0  5  0 550359928
[16]  B08 1f 38    -98.4 4092000.2  1.0  1.0  5  0 550345877
[17]  B13 1f 43   -267.7 4092000.7  1.0  1.0  5  0 550345874
[18]  B14 1f 42   1249.1 4091996.7  1.0  1.0  5  0 550345920
[19]  B27 1f 44  -2501.6 4092006.5  1.0  1.0  5  0 550345914
[20]  B28 1f 46  -1355.6 4092003.5  1.0  1.0  5  0 550345925
sat11 = 4728 1405 2095 250
sat12 = 4974 452 2138 -4750
sat13 = 5053 1384 2107 750
lsq: nits= 2
$GNGGA,085223.000,3112.6146,N,12136.4350,E,1,08,2.1,76.0,M,,,,0000*24
$GNRMC,085223.000,A,3112.6146,N,12136.4350,E,2.33,276.78,250519,,*16
$GPGSA,A,3,01,03,17,19,,,,,,,,,2.5,2.1,1.4*3F
$BDGSA,A,3,08,14,27,28,,,,,,,,,2.5,2.1,1.4*20
$GPGSV,2,1,05,01,10,058,39,03,35,047,42,17,64,004,42,19,50,331,42*74
$GPGSV,2,2,05,06,00,000,38*41
$BDGSV,2,1,06,08,60,333,38,13,46,288,43,14,32,054,42,27,13,296,44*67
$BDGSV,2,2,06,28,54,336,46,11,60,333,00*64
