FlashID=0x1 0x20 0x18
BBram_blkflag1: 1608: e9f7
FW Ver: 1.30  
GPS00 Init Dop:   5000, 40
GPS01 Init Dop:   5000, 40
GPS02 Init Dop:   5000, 40
GPS03 Init Dop:   5000, 40
GPS04 Init Dop:   5000, 40
GPS05 Init Dop:   5000, 40
GPS06 Init Dop:   5000, 40
GPS07 Init Dop:   5000, 40
GPS08 Init Dop:   5000, 40
GPS09 Init Dop:   5000, 40
GPS10 Init Dop:   5000, 40
GPS11 Init Dop:   5000, 40
GPS12 Init Dop:   5000, 40
GPS13 Init Dop:   5000, 40
GPS14 Init Dop:   5000, 40
GPS15 Init Dop:   5000, 40
GPS16 Init Dop:   5000, 40
GPS17 Init Dop:   5000, 40
GPS18 Init Dop:   5000, 40
GPS19 Init Dop:   5000, 40
GPS20 Init Dop:   5000, 40
GPS21 Init Dop:   5000, 40
GPS22 Init Dop:   5000, 40
GPS23 Init Dop:   5000, 40
GPS24 Init Dop:   5000, 40
GPS25 Init Dop:   5000, 40
GPS26 Init Dop:   5000, 40
GPS27 Init Dop:   5000, 40
GPS28 Init Dop:   5000, 40
GPS29 Init Dop:   5000, 40
GPS30 Init Dop:   5000, 40
GPS31 Init Dop:   5000, 40
BDS00 Init Dop:   5000, 40
BDS01 Init Dop:   5000, 40
BDS02 Init Dop:   5000, 40
BDS03 Init Dop:   5000, 40
BDS04 Init Dop:   5000, 40
BDS05 Init Dop:   5000, 40
BDS06 Init Dop:   5000, 40
BDS07 Init Dop:   5000, 40
BDS08 Init Dop:   5000, 40
BDS09 Init Dop:   5000, 40
BDS10 Init Dop:   5000, 40
BDS11 Init Dop:   5000, 40
BDS12 Init Dop:   5000, 40
BDS13 Init Dop:   5000, 40
BDS14 Init Dop:   5000, 40
BDS15 Init Dop:   5000, 40
BDS16 Init Dop:   5000, 40
BDS17 Init Dop:   5000, 40
BDS18 Init Dop:   5000, 40
BDS19 Init Dop:   5000, 40
BDS20 Init Dop:   5000, 40
BDS21 Init Dop:   5000, 40
BDS22 Init Dop:   5000, 40
BDS23 Init Dop:   5000, 40
BDS24 Init Dop:   5000, 40
BDS25 Init Dop:   5000, 40
BDS26 Init Dop:   5000, 40
BDS27 Init Dop:   5000, 40
BDS28 Init Dop:   5000, 40
BDS29 Init Dop:   5000, 40
BDS30 Init Dop:   5000, 40
BDS31 Init Dop:   5000, 40
GPS acq_max:1759
GPS acq_max:1467
GPS acq_max:1536
GPS acq_max:1677
GPS acq_max:1602
GPS acq_max:1636
GPS acq_max:1605
GPS acq_max:1535
SatID=0
GPS acq_max:1662
GPS acq_max:1496
GPS acq_max:1516
GPS acq_max:1516
GPS acq_max:1630
GPS acq_max:1526
GPS acq_max:1532
GPS acq_max:1478
SatID=0
GPS acq_max:4651
GPS acq_max:4101
GPS acq_max:4260
GPS acq_max:4134
GPS acq_max:4413
GPS acq_max:4600
GPS acq_max:4408
GPS acq_max:4791
SatID=0
GPS acq_max:5246
GPS acq_max:5047
GPS acq_max:5257
GPS acq_max:5426
GPS acq_max:5568
GPS acq_max:5368
GPS acq_max:5400
GPS acq_max:5889
SatID=0
GPS acq_max:5670
GPS acq_max:5798
GPS acq_max:5503
GPS acq_max:5348
GPS acq_max:5872
GPS acq_max:5085
GPS acq_max:5373
GPS acq_max:5322
SatID=0
sat0 = 5889 268 1847 -2750
GPS acq_max:5227
GPS acq_max:5067
GPS acq_max:5976
GPS acq_max:5857
GPS acq_max:6173
GPS acq_max:5684
GPS acq_max:5582
GPS acq_max:5868
SatID=1
GPS acq_max:4892
GPS acq_max:5283
GPS acq_max:5539
GPS acq_max:5469
GPS acq_max:5999
GPS acq_max:5645
GPS acq_max:5545
GPS acq_max:5437
SatID=1
GPS acq_max:5956
GPS acq_max:5831
GPS acq_max:5643
GPS acq_max:5379
GPS acq_max:5702
GPS acq_max:5965
GPS acq_max:6138
GPS acq_max:5345
SatID=1
GPS acq_max:6603
GPS acq_max:5387
GPS acq_max:5065
GPS acq_max:6233
GPS acq_max:5875
GPS acq_max:5503
GPS acq_max:5837
GPS acq_max:5891
SatID=1
GPS acq_max:5987
GPS acq_max:5501
GPS acq_max:5768
GPS acq_max:5800
GPS acq_max:5898
GPS acq_max:6215
GPS acq_max:5577
GPS acq_max:5184
SatID=1
sat1 = 6603 802 2814 -1000
GPS acq_max:5420
GPS acq_max:6286
GPS acq_max:5123
GPS acq_max:5050
GPS acq_max:5398
GPS acq_max:5916
GPS acq_max:5650
GPS acq_max:5781
SatID=2
GPS acq_max:5436
GPS acq_max:5423
GPS acq_max:5288
GPS acq_max:5668
GPS acq_max:5409
GPS acq_max:6333
GPS acq_max:6370
GPS acq_max:5733
SatID=2
GPS acq_max:5020
GPS acq_max:5549
GPS acq_max:5789
GPS acq_max:5978
GPS acq_max:6404
GPS acq_max:6266
GPS acq_max:6209
GPS acq_max:6691
SatID=2
GPS acq_max:5956
GPS acq_max:5304
GPS acq_max:5691
GPS acq_max:5557
GPS acq_max:5392
GPS acq_max:5508
GPS acq_max:5687
GPS acq_max:6442
SatID=2
GPS acq_max:5811
GPS acq_max:5513
GPS acq_max:5412
GPS acq_max:5939
GPS acq_max:6044
GPS acq_max:5759
GPS acq_max:5982
GPS acq_max:6284
SatID=2
sat2 = 6691 815 2850 -750
GPS acq_max:5868
GPS acq_max:5968
GPS acq_max:5630
GPS acq_max:6112
GPS acq_max:6332
GPS acq_max:5929
GPS acq_max:6184
GPS acq_max:5756
SatID=3
GPS acq_max:5748
GPS acq_max:5682
GPS acq_max:18900
GPS acq_max:38843
GPS acq_max:47078
GPS acq_max:37473
GPS acq_max:19210
GPS acq_max:6385
SatID=3
GPS acq_max:6200
GPS acq_max:5812
GPS acq_max:5589
GPS acq_max:5139
GPS acq_max:5617
GPS acq_max:5725
GPS acq_max:5605
GPS acq_max:6127
SatID=3
GPS acq_max:5800
GPS acq_max:6084
GPS acq_max:5620
GPS acq_max:5593
GPS acq_max:5692
GPS acq_max:5921
GPS acq_max:5505
GPS acq_max:6208
SatID=3
GPS acq_max:5547
GPS acq_max:6317
GPS acq_max:5545
GPS acq_max:5200
GPS acq_max:5771
GPS acq_max:5562
GPS acq_max:6151
GPS acq_max:6373
SatID=3
sat3 = 47078 1380 2838 2000
ch0 satid=3,max_freq = 2000,max_mean = 2838,max_phase = 1380,max_value = 47078,acq ok1!
acq ok1 timeH = 0,timeL = 7406629,freq_stage = 2
GPS acq_max:6019
GPS acq_max:5536
GPS acq_max:5538
GPS acq_max:5310
GPS acq_max:5622
GPS acq_max:5346
GPS acq_max:5609
GPS acq_max:5589
SatID=4
GPS acq_max:5658
GPS acq_max:6174
GPS acq_max:6126
GPS acq_max:5165
GPS acq_max:6134
GPS acq_max:6239
GPS acq_max:5507
GPS acq_max:5376
SatID=4
GPS acq_max:5151
GPS acq_max:5250
GPS acq_max:6215
GPS acq_max:5611
GPS acq_max:5515
GPS acq_max:6619
GPS acq_max:5930
GPS acq_max:5543
SatID=4
GPS acq_max:5801
GPS acq_max:5554
GPS acq_max:5913
GPS acq_max:5328
GPS acq_max:5859
GPS acq_max:6140
GPS acq_max:5800
GPS acq_max:5935
SatID=4
GPS acq_max:5740
GPS acq_max:5403
GPS acq_max:5633
GPS acq_max:5679
GPS acq_max:5527
GPS acq_max:5854
GPS acq_max:5792
GPS acq_max:5197
SatID=4
sat4 = 6619 179 2841 -250
GPS acq_max:5882
GPS acq_max:5418
GPS acq_max:5638
GPS acq_max:5686
GPS acq_max:5697
GPS acq_max:5693
GPS acq_max:6042
GPS acq_max:6140
SatID=5
GPS acq_max:6519
GPS acq_max:6164
GPS acq_max:5844
GPS acq_max:6201
GPS acq_max:5866
GPS acq_max:6285
GPS acq_max:6044
GPS acq_max:6741
SatID=5
GPS acq_max:6010
GPS acq_max:5879
GPS acq_max:5562
GPS acq_max:6014
GPS acq_max:5957
GPS acq_max:6121
GPS acq_max:5754
GPS acq_max:5928
SatID=5
GPS acq_max:5816
GPS acq_max:6824
GPS acq_max:6073
GPS acq_max:5961
GPS acq_max:5954
GPS acq_max:5399
GPS acq_max:5502
GPS acq_max:5338
SatID=5
GPS acq_max:5522
GPS acq_max:6098
GPS acq_max:5592
GPS acq_max:6196
GPS acq_max:5662
GPS acq_max:6019
GPS acq_max:5598
GPS acq_max:5771
SatID=5
sat5 = 6824 61 2879 -1250
GPS acq_max:6253
GPS acq_max:5719
GPS acq_max:6483
GPS acq_max:24591
GPS acq_max:70692
GPS acq_max:114260
GPS acq_max:122016
GPS acq_max:84356
SatID=6
GPS acq_max:30795
GPS acq_max:6295
GPS acq_max:7231
GPS acq_max:11235
GPS acq_max:9553
GPS acq_max:5747
GPS acq_max:6271
GPS acq_max:6120
SatID=6
GPS acq_max:6768
GPS acq_max:6468
GPS acq_max:6330
GPS acq_max:6618
GPS acq_max:5464
GPS acq_max:5634
GPS acq_max:6879
GPS acq_max:5361
SatID=6
GPS acq_max:5541
GPS acq_max:5974
GPS acq_max:5972
GPS acq_max:5752
GPS acq_max:5410
GPS acq_max:5994
GPS acq_max:5801
GPS acq_max:5828
SatID=6
GPS acq_max:6041
GPS acq_max:5577
GPS acq_max:6110
GPS acq_max:5950
GPS acq_max:6827
GPS acq_max:6070
GPS acq_max:6210
GPS acq_max:6041
SatID=6
sat6 = 122016 1923 2928 3500
ch1 satid=6,max_freq = 3500,max_mean = 2928,max_phase = 1923,max_value = 122016,acq ok1!
acq ok1 timeH = 0,timeL = 13773618,freq_stage = 1
GPS acq_max:7649
GPS acq_max:5763
GPS acq_max:6414
GPS acq_max:6387
GPS acq_max:5585
GPS acq_max:5768
GPS acq_max:5498
GPS acq_max:5611
SatID=7
GPS acq_max:5304
GPS acq_max:6625
GPS acq_max:5856
GPS acq_max:5950
GPS acq_max:5786
GPS acq_max:5987
GPS acq_max:5759
GPS acq_max:6232
SatID=7
GPS acq_max:6181
GPS acq_max:5805
GPS acq_max:6351
GPS acq_max:5888
GPS acq_max:5462
GPS acq_max:5744
GPS acq_max:5932
GPS acq_max:5744
SatID=7
GPS acq_max:5649
GPS acq_max:5918
GPS acq_max:5704
GPS acq_max:5596
GPS acq_max:5505
GPS acq_max:5603
GPS acq_max:6047
GPS acq_max:5971
SatID=7
GPS acq_max:5357
GPS acq_max:5100
GPS acq_max:5025
GPS acq_max:5641
GPS acq_max:5619
GPS acq_max:6073
GPS acq_max:5351
GPS acq_max:5624
SatID=7
sat7 = 7649 1139 2848 5000
GPS acq_max:6041
GPS acq_max:6399
GPS acq_max:5598
GPS acq_max:5386
GPS acq_max:5460
GPS acq_max:5539
GPS acq_max:5933
GPS acq_max:5563
SatID=8
---00000001--- Acq_st=3 2019-5-27 02:11:33 
[00]  G04  1 18  -1979.9 2046004.6 -0.1  0.0  1  0         0
[01]  G07  1  7  -3537.7 2046005.9  0.1  0.0  1  0         0
GPS acq_max:5457
GPS acq_max:5173
GPS acq_max:5917
GPS acq_max:6181
GPS acq_max:6450
GPS acq_max:5500
GPS acq_max:5455
GPS acq_max:10573
SatID=8
$GNGGA,000000.000,,,,,0,00,,,M,,,,0000*2B
$GNRMC,000000.000,A,,,,,,,000000,,*26
$GPGSA,A,1,,,,,,,,,,,,,,,*1E
$BDGSA,A,1,,,,,,,,,,,,,,,*0F
$LOGTIM,0,0.000000,0.000000,0.000000,0.000000,0.000*0A
EndT:        0
GPS acq_max:21995
GPS acq_max:23162
GPS acq_max:18472
GPS acq_max:9758
GPS acq_max:5856
GPS acq_max:5494
GPS acq_max:5871
GPS acq_max:6360
SatID=8
GPS acq_max:5282
GPS acq_max:5875
GPS acq_max:5256
GPS acq_max:5699
GPS acq_max:5108
GPS acq_max:5054
GPS acq_max:5541
GPS acq_max:5420
SatID=8
GPS acq_max:6551
GPS acq_max:5276
GPS acq_max:5291
GPS acq_max:5418
GPS acq_max:5263
GPS acq_max:5875
GPS acq_max:5765
GPS acq_max:5483
SatID=8
sat8 = 23162 1739 2830 750
ch2 satid=8,max_freq = 750,max_mean = 2830,max_phase = 1739,max_value = 23162,acq ok1!
acq ok1 timeH = 0,timeL = 19222224,freq_stage = 3
GPS acq_max:6045
GPS acq_max:5166
GPS acq_max:5545
GPS acq_max:5341
GPS acq_max:5164
GPS acq_max:5633
GPS acq_max:5292
GPS acq_max:5469
SatID=9
GPS acq_max:6998
GPS acq_max:6231
GPS acq_max:6859
GPS acq_max:6564
GPS acq_max:5930
GPS acq_max:5828
GPS acq_max:5647
GPS acq_max:5519
SatID=9
GPS acq_max:6249
GPS acq_max:5347
GPS acq_max:5303
GPS acq_max:5318
GPS acq_max:5606
GPS acq_max:5751
GPS acq_max:5999
GPS acq_max:6858
SatID=9
GPS acq_max:5818
GPS acq_max:5374
GPS acq_max:5652
GPS acq_max:6117
GPS acq_max:6375
GPS acq_max:6355
GPS acq_max:5259
GPS acq_max:5850
SatID=9
GPS acq_max:5650
GPS acq_max:5296
GPS acq_max:6066
GPS acq_max:5513
GPS acq_max:5708
GPS acq_max:6216
GPS acq_max:6124
GPS acq_max:5889
SatID=9
sat9 = 6998 1499 2867 3000
GPS acq_max:5548
GPS acq_max:6558
GPS acq_max:5539
GPS acq_max:6808
GPS acq_max:5988
GPS acq_max:5397
GPS acq_max:5737
GPS acq_max:5521
SatID=10
GPS acq_max:5423
GPS acq_max:5955
GPS acq_max:5890
GPS acq_max:6107
GPS acq_max:5989
GPS acq_max:5752
GPS acq_max:5483
GPS acq_max:5283
SatID=10
GPS acq_max:5227
GPS acq_max:5720
GPS acq_max:5645
GPS acq_max:5889
GPS acq_max:5837
GPS acq_max:6331
GPS acq_max:6409
GPS acq_max:5201
SatID=10
GPS acq_max:5656
GPS acq_max:5973
GPS acq_max:5705
GPS acq_max:5536
GPS acq_max:7306
GPS acq_max:6964
GPS acq_max:6103
GPS acq_max:5651
SatID=10
GPS acq_max:6010
GPS acq_max:5786
GPS acq_max:5601
GPS acq_max:6119
GPS acq_max:5660
GPS acq_max:5563
GPS acq_max:5902
GPS acq_max:5326
SatID=10
sat10 = 7306 1300 2809 -2000
GPS acq_max:5411
GPS acq_max:6367
GPS acq_max:6160
GPS acq_max:6416
GPS acq_max:5220
GPS acq_max:5388
GPS acq_max:5398
GPS acq_max:5793
SatID=11
GPS acq_max:6838
GPS acq_max:5882
GPS acq_max:6006
GPS acq_max:6100
GPS acq_max:5681
GPS acq_max:6143
GPS acq_max:6008
GPS acq_max:5874
SatID=11
GPS acq_max:5393
GPS acq_max:6035
GPS acq_max:6040
GPS acq_max:5389
GPS acq_max:6446
GPS acq_max:6990
GPS acq_max:6185
GPS acq_max:5865
SatID=11
GPS acq_max:6018
GPS acq_max:5692
GPS acq_max:5794
GPS acq_max:5943
GPS acq_max:5468
GPS acq_max:5809
GPS acq_max:5759
GPS acq_max:5485
SatID=11
GPS acq_max:6041
GPS acq_max:5614
GPS acq_max:7208
GPS acq_max:6320
GPS acq_max:6222
GPS acq_max:5949
GPS acq_max:5697
GPS acq_max:5548
SatID=11
sat11 = 7208 1005 2869 -3500
GPS acq_max:6476
GPS acq_max:5661
GPS acq_max:5495
GPS acq_max:5407
GPS acq_max:5951
GPS acq_max:5705
GPS acq_max:5512
GPS acq_max:5577
SatID=12
GPS acq_max:5708
GPS acq_max:5362
GPS acq_max:6512
GPS acq_max:6014
GPS acq_max:5405
GPS acq_max:5506
GPS acq_max:5904
GPS acq_max:5710
SatID=12
GPS acq_max:5407
GPS acq_max:6029
GPS acq_max:5304
GPS acq_max:5714
GPS acq_max:5757
GPS acq_max:5873
GPS acq_max:5764
GPS acq_max:6151
SatID=12
GPS acq_max:6401
GPS acq_max:5996
GPS acq_max:5842
GPS acq_max:5691
GPS acq_max:5771
GPS acq_max:6488
GPS acq_max:6572
GPS acq_max:6775
SatID=12
GPS acq_max:5904
GPS acq_max:6327
GPS acq_max:5429
GPS acq_max:5244
GPS acq_max:5767
GPS acq_max:6172
GPS acq_max:5477
GPS acq_max:5710
SatID=12
sat12 = 6775 1177 2884 -2750
GPS acq_max:6221
GPS acq_max:6070
GPS acq_max:5580
GPS acq_max:5492
GPS acq_max:6181
GPS acq_max:7108
GPS acq_max:6196
GPS acq_max:6043
SatID=13
GPS acq_max:5621
GPS acq_max:5729
GPS acq_max:5549
GPS acq_max:5358
GPS acq_max:5704
GPS acq_max:6122
GPS acq_max:6086
GPS acq_max:5391
SatID=13
GPS acq_max:5758
GPS acq_max:5577
GPS acq_max:5666
GPS acq_max:5474
GPS acq_max:6012
GPS acq_max:6053
GPS acq_max:5870
GPS acq_max:5578
SatID=13
GPS acq_max:6199
GPS acq_max:6825
GPS acq_max:5974
GPS acq_max:6121
GPS acq_max:5608
GPS acq_max:5857
GPS acq_max:6115
GPS acq_max:6153
SatID=13
GPS acq_max:6316
GPS acq_max:5731
GPS acq_max:5520
GPS acq_max:5425
GPS acq_max:5441
GPS acq_max:5957
GPS acq_max:5486
GPS acq_max:5813
SatID=13
sat13 = 7108 307 2912 3750
GPS acq_max:5544
GPS acq_max:5569
GPS acq_max:6404
GPS acq_max:6555
GPS acq_max:6944
GPS acq_max:6392
GPS acq_max:6535
GPS acq_max:5489
SatID=14
GPS acq_max:5550
GPS acq_max:6106
GPS acq_max:5569
GPS acq_max:6014
GPS acq_max:5636
GPS acq_max:5650
GPS acq_max:6119
GPS acq_max:6022
SatID=14
GPS acq_max:5925
GPS acq_max:5629
GPS acq_max:5722
GPS acq_max:6405
GPS acq_max:6329
GPS acq_max:6403
GPS acq_max:6024
GPS acq_max:5707
SatID=14
GPS acq_max:6040
GPS acq_max:6509
GPS acq_max:6014
GPS acq_max:6405
GPS acq_max:6515
GPS acq_max:5511
GPS acq_max:6001
GPS acq_max:6053
SatID=14
GPS acq_max:5814
GPS acq_max:5513
GPS acq_max:5891
GPS acq_max:5867
GPS acq_max:6493
GPS acq_max:6432
GPS acq_max:6125
GPS acq_max:6565
SatID=14
sat14 = 6944 1503 2924 4000
GPS acq_max:5586
GPS acq_max:5707
GPS acq_max:5572
GPS acq_max:5253
GPS acq_max:6171
GPS acq_max:5451
GPS acq_max:5732
GPS acq_max:5537
SatID=15
GPS acq_max:6029
GPS acq_max:5575
GPS acq_max:5061
GPS acq_max:5507
GPS acq_max:5679
GPS acq_max:5945
GPS acq_max:6677
GPS acq_max:5601
SatID=15
GPS acq_max:5392
GPS acq_max:5549
GPS acq_max:7162
GPS acq_max:5873
GPS acq_max:5469
GPS acq_max:5191
GPS acq_max:18702
GPS acq_max:42119
SatID=15
GPS acq_max:69867
GPS acq_max:63566
GPS acq_max:39852
GPS acq_max:15646
GPS acq_max:5361
GPS acq_max:5892
GPS acq_max:7366
GPS acq_max:5798
SatID=15
GPS acq_max:5586
GPS acq_max:5807
GPS acq_max:5791
GPS acq_max:5314
GPS acq_max:5841
GPS acq_max:5572
GPS acq_max:5337
GPS acq_max:5628
SatID=15
sat15 = 69867 1021 2807 -1000
ch3 satid=15,max_freq = -1000,max_mean = 2807,max_phase = 1021,max_value = 69867,acq ok1!
acq ok1 timeH = 0,timeL = 35583580,freq_stage = 4
GPS acq_max:5745
GPS acq_max:6139
GPS acq_max:6282
GPS acq_max:6200
GPS acq_max:5957
GPS acq_max:5620
GPS acq_max:5965
GPS acq_max:5877
SatID=16
GPS acq_max:6001
GPS acq_max:5907
GPS acq_max:5853
GPS acq_max:5953
GPS acq_max:5222
GPS acq_max:5537
GPS acq_max:5950
GPS acq_max:5793
SatID=16
GPS acq_max:7031
GPS acq_max:5607
GPS acq_max:5409
GPS acq_max:6117
GPS acq_max:7047
GPS acq_max:7109
GPS acq_max:5631
GPS acq_max:5912
SatID=16
GPS acq_max:6394
GPS acq_max:5871
GPS acq_max:6055
GPS acq_max:5354
GPS acq_max:5915
GPS acq_max:6349
GPS acq_max:6319
GPS acq_max:6581
SatID=16
---00000002--- Acq_st=3 2019-5-27 02:11:34 
[00]  G04  7 22  -1988.7 2046002.5  0.1  0.0 20  0        19
[01]  G07  1 32  -3614.6 2046004.9  0.1  0.0  1  0         4
[02]  G09  1 23   -831.9 2046001.8  0.0  0.0  1  0         0
[03]  G16  1  7   1143.3 2046001.0  0.0  0.0  1  0         0
$GNGGA,000000.000,,,,,0,00,,,M,,,,0000*2B
$GNRMC,000000.000,A,,,,,,,000000,,*26
$GPGSA,A,1,,,,,,,,,,,,,,,*1E
$BDGSA,A,1,,,,,,,,,,,,,,,*0F
$GPGSV,1,1,01,04,00,000,22*4C
$LOGTIM,0,0.000000,0.000000,0.000000,0.000000,0.000*0A
EndT:        0
GPS acq_max:5650
GPS acq_max:6048
GPS acq_max:5647
GPS acq_max:5830
GPS acq_max:5743
GPS acq_max:5817
GPS acq_max:5318
GPS acq_max:6374
SatID=16
sat16 = 7109 2007 2888 -250
GPS acq_max:5714
GPS acq_max:5550
GPS acq_max:5257
GPS acq_max:5542
GPS acq_max:5620
GPS acq_max:6251
GPS acq_max:5755
GPS acq_max:5846
SatID=17
GPS acq_max:5873
GPS acq_max:5546
GPS acq_max:5739
GPS acq_max:5906
GPS acq_max:6008
GPS acq_max:5472
GPS acq_max:6056
GPS acq_max:5773
SatID=17
GPS acq_max:5688
GPS acq_max:6337
GPS acq_max:7287
GPS acq_max:6170
GPS acq_max:5728
GPS acq_max:5891
GPS acq_max:6115
GPS acq_max:6529
SatID=17
GPS acq_max:6040
GPS acq_max:6185
GPS acq_max:6945
GPS acq_max:5530
GPS acq_max:5791
GPS acq_max:5249
GPS acq_max:5762
GPS acq_max:6124
SatID=17
GPS acq_max:5770
GPS acq_max:5219
GPS acq_max:5382
GPS acq_max:6206
GPS acq_max:5757
GPS acq_max:5769
GPS acq_max:5643
GPS acq_max:5683
SatID=17
sat17 = 7287 1354 2870 500
GPS acq_max:5634
GPS acq_max:6156
GPS acq_max:6116
GPS acq_max:7028
GPS acq_max:6535
GPS acq_max:5674
GPS acq_max:6369
GPS acq_max:5903
SatID=18
GPS acq_max:6222
GPS acq_max:5958
GPS acq_max:5523
GPS acq_max:5651
GPS acq_max:6164
GPS acq_max:6120
GPS acq_max:5769
GPS acq_max:5303
SatID=18
GPS acq_max:6113
GPS acq_max:5544
GPS acq_max:5664
GPS acq_max:5556
GPS acq_max:6005
GPS acq_max:5550
GPS acq_max:6079
GPS acq_max:5891
SatID=18
GPS acq_max:5789
GPS acq_max:6058
GPS acq_max:5940
GPS acq_max:5956
GPS acq_max:6423
GPS acq_max:5566
GPS acq_max:6019
GPS acq_max:5863
SatID=18
GPS acq_max:5768
GPS acq_max:6045
GPS acq_max:6523
GPS acq_max:6849
GPS acq_max:5855
GPS acq_max:5746
GPS acq_max:5690
GPS acq_max:5814
SatID=18
sat18 = 7028 0 2904 4250
GPS acq_max:5711
GPS acq_max:6128
GPS acq_max:5771
GPS acq_max:5477
GPS acq_max:5762
GPS acq_max:5541
GPS acq_max:5812
GPS acq_max:5474
SatID=19
GPS acq_max:5534
GPS acq_max:5682
GPS acq_max:6008
GPS acq_max:6296
GPS acq_max:6230
GPS acq_max:5846
GPS acq_max:5502
GPS acq_max:5490
SatID=19
GPS acq_max:5762
GPS acq_max:5738
GPS acq_max:6202
GPS acq_max:5679
GPS acq_max:5455
GPS acq_max:5698
GPS acq_max:5419
GPS acq_max:5826
SatID=19
GPS acq_max:5668
GPS acq_max:6360
GPS acq_max:6148
GPS acq_max:5428
GPS acq_max:5607
GPS acq_max:5989
GPS acq_max:5521
GPS acq_max:6052
SatID=19
GPS acq_max:5808
GPS acq_max:5650
GPS acq_max:5795
GPS acq_max:5817
GPS acq_max:5967
GPS acq_max:5677
GPS acq_max:6077
GPS acq_max:5496
SatID=19
sat19 = 6360 954 2893 -1250
GPS acq_max:6179
GPS acq_max:5312
GPS acq_max:6206
GPS acq_max:5974
GPS acq_max:5636
GPS acq_max:5937
GPS acq_max:6397
GPS acq_max:5859
SatID=20
GPS acq_max:6196
GPS acq_max:6406
GPS acq_max:5932
GPS acq_max:5492
GPS acq_max:5747
GPS acq_max:5716
GPS acq_max:6303
GPS acq_max:6267
SatID=20
GPS acq_max:5794
GPS acq_max:5558
GPS acq_max:6225
GPS acq_max:6411
GPS acq_max:6297
GPS acq_max:7058
GPS acq_max:6086
GPS acq_max:6236
SatID=20
GPS acq_max:6439
GPS acq_max:13506
GPS acq_max:18554
GPS acq_max:18593
GPS acq_max:11795
GPS acq_max:6210
GPS acq_max:5671
GPS acq_max:5620
SatID=20
GPS acq_max:5294
GPS acq_max:5810
GPS acq_max:5722
GPS acq_max:6118
GPS acq_max:7509
GPS acq_max:6471
GPS acq_max:6122
GPS acq_max:5713
SatID=20
sat20 = 18593 1604 2943 -1750
ch4 satid=20,max_freq = -1750,max_mean = 2943,max_phase = 1604,max_value = 18593,acq ok1!
acq ok1 timeH = 0,timeL = 46948306,freq_stage = 4
GPS acq_max:5979
GPS acq_max:5784
GPS acq_max:6407
GPS acq_max:6100
GPS acq_max:5481
GPS acq_max:5650
GPS acq_max:6303
GPS acq_max:5660
SatID=21
GPS acq_max:5399
GPS acq_max:5775
GPS acq_max:5362
GPS acq_max:5871
GPS acq_max:6174
GPS acq_max:6194
GPS acq_max:5662
GPS acq_max:5360
SatID=21
GPS acq_max:5897
GPS acq_max:6694
GPS acq_max:6217
GPS acq_max:6228
GPS acq_max:6895
GPS acq_max:6445
GPS acq_max:6131
GPS acq_max:6470
SatID=21
GPS acq_max:5643
GPS acq_max:6272
GPS acq_max:6536
GPS acq_max:6447
GPS acq_max:6277
GPS acq_max:6310
GPS acq_max:5814
GPS acq_max:6151
SatID=21
GPS acq_max:7010
GPS acq_max:6435
GPS acq_max:5420
GPS acq_max:6030
GPS acq_max:6195
GPS acq_max:6417
GPS acq_max:5814
GPS acq_max:5897
SatID=21
sat21 = 7010 1078 2948 -3000
GPS acq_max:5513
GPS acq_max:5770
GPS acq_max:5658
GPS acq_max:6283
GPS acq_max:6558
GPS acq_max:5737
GPS acq_max:5859
GPS acq_max:5550
SatID=22
GPS acq_max:5681
GPS acq_max:5607
GPS acq_max:5941
GPS acq_max:5335
GPS acq_max:5303
GPS acq_max:5650
GPS acq_max:5395
GPS acq_max:5992
SatID=22
GPS acq_max:5716
GPS acq_max:5787
GPS acq_max:5782
GPS acq_max:5675
GPS acq_max:5565
GPS acq_max:5604
GPS acq_max:8341
GPS acq_max:10617
SatID=22
GPS acq_max:8964
GPS acq_max:7848
GPS acq_max:5593
GPS acq_max:6072
GPS acq_max:5658
GPS acq_max:6387
GPS acq_max:5987
GPS acq_max:6525
SatID=22
GPS acq_max:5423
GPS acq_max:5877
GPS acq_max:5139
GPS acq_max:6191
GPS acq_max:6821
GPS acq_max:6072
GPS acq_max:5990
GPS acq_max:6464
SatID=22
sat22 = 10617 245 2901 -750
GPS acq_max:6110
GPS acq_max:5635
GPS acq_max:6265
GPS acq_max:7614
GPS acq_max:6754
GPS acq_max:6769
GPS acq_max:6326
GPS acq_max:5824
SatID=23
GPS acq_max:5861
GPS acq_max:5855
GPS acq_max:6743
GPS acq_max:5789
GPS acq_max:5988
GPS acq_max:6005
GPS acq_max:5793
GPS acq_max:6128
SatID=23
GPS acq_max:5643
GPS acq_max:5873
GPS acq_max:6137
GPS acq_max:5650
GPS acq_max:6087
GPS acq_max:5921
GPS acq_max:6186
GPS acq_max:6316
SatID=23
GPS acq_max:5717
GPS acq_max:5972
GPS acq_max:6158
GPS acq_max:5833
GPS acq_max:5794
GPS acq_max:5546
GPS acq_max:5839
GPS acq_max:5849
SatID=23
GPS acq_max:6419
GPS acq_max:5687
GPS acq_max:5696
GPS acq_max:5935
GPS acq_max:6272
GPS acq_max:6342
GPS acq_max:5753
GPS acq_max:6663
SatID=23
sat23 = 7614 1174 2949 4250
GPS acq_max:5977
GPS acq_max:6702
GPS acq_max:6446
GPS acq_max:5792
GPS acq_max:5460
GPS acq_max:5679
GPS acq_max:6163
GPS acq_max:5898
SatID=24
GPS acq_max:6324
GPS acq_max:5704
GPS acq_max:7003
GPS acq_max:7187
GPS acq_max:5270
GPS acq_max:5503
GPS acq_max:5956
GPS acq_max:5185
SatID=24
GPS acq_max:5923
GPS acq_max:5777
GPS acq_max:5661
GPS acq_max:6275
GPS acq_max:6058
GPS acq_max:6102
GPS acq_max:5928
GPS acq_max:5576
SatID=24
GPS acq_max:5872
GPS acq_max:5679
GPS acq_max:5860
GPS acq_max:6032
GPS acq_max:5936
GPS acq_max:6179
GPS acq_max:5797
GPS acq_max:5892
SatID=24
GPS acq_max:5724
GPS acq_max:5331
GPS acq_max:6886
GPS acq_max:7318
GPS acq_max:7185
GPS acq_max:5609
GPS acq_max:5629
GPS acq_max:6791
SatID=24
sat24 = 7318 150 2921 -3750
GPS acq_max:5591
GPS acq_max:5762
GPS acq_max:5726
GPS acq_max:6081
GPS acq_max:5746
GPS acq_max:6142
GPS acq_max:6301
GPS acq_max:7626
SatID=25
---00000003--- Acq_st=3 2019-5-27 02:11:35 
[00]  G04  7 40  -1984.9 2046002.5  1.0  1.0  5  0         5
[01]  G07  7 36  -3610.6 2046004.7  0.7  1.0  5  0         4
[02]  G09  7 29   -842.0 2046001.1  0.2  1.0  5  0         7
[03]  G16  1 28   1052.6 2045998.9  0.1  0.0  1  0        18
[04]  G21  1  7   1593.8 2045998.7 -0.1  0.0  1  0         0
$GNGGA,000000.000,,,,,0,00,,,M,,,,0000*2B
$GNRMC,000000.000,A,,,,,,,000000,,*26
$GPGSA,A,1,,,,,,,,,,,,,,,*1E
$BDGSA,A,1,,,,,,,,,,,,,,,*0F
$GPGSV,1,1,03,04,00,000,40,07,00,000,36,09,00,000,29*4A
$LOGTIM,0,0.000000,0.000000,0.000000,0.000000,0.000*0A
EndT:        0
GPS acq_max:5983
GPS acq_max:5953
GPS acq_max:5748
GPS acq_max:5829
GPS acq_max:5645
GPS acq_max:5932
GPS acq_max:6223
GPS acq_max:5652
SatID=25
GPS acq_max:5962
GPS acq_max:5582
GPS acq_max:5649
GPS acq_max:5521
GPS acq_max:5946
GPS acq_max:7313
GPS acq_max:5501
GPS acq_max:5541
SatID=25
GPS acq_max:11466
GPS acq_max:30097
GPS acq_max:47021
GPS acq_max:48829
GPS acq_max:33827
GPS acq_max:15782
GPS acq_max:5896
GPS acq_max:6114
SatID=25
GPS acq_max:5970
GPS acq_max:5268
GPS acq_max:5507
GPS acq_max:6701
GPS acq_max:5786
GPS acq_max:5825
GPS acq_max:5410
GPS acq_max:6067
SatID=25
sat25 = 48829 747 2916 -1750
ch5 satid=25,max_freq = -1750,max_mean = 2916,max_phase = 747,max_value = 48829,acq ok1!
acq ok1 timeH = 0,timeL = 58313042,freq_stage = 4
GPS acq_max:5962
GPS acq_max:6086
GPS acq_max:6032
GPS acq_max:6072
GPS acq_max:5872
GPS acq_max:6162
GPS acq_max:6023
GPS acq_max:6917
SatID=26
GPS acq_max:5663
GPS acq_max:5984
GPS acq_max:6281
GPS acq_max:5421
GPS acq_max:5324
GPS acq_max:5835
GPS acq_max:7817
GPS acq_max:9475
SatID=26
GPS acq_max:6291
GPS acq_max:5786
GPS acq_max:27446
GPS acq_max:74579
GPS acq_max:141256
GPS acq_max:139818
GPS acq_max:99468
GPS acq_max:47371
SatID=26
GPS acq_max:10071
GPS acq_max:6853
GPS acq_max:9769
GPS acq_max:7682
GPS acq_max:5908
GPS acq_max:5878
GPS acq_max:5887
GPS acq_max:5951
SatID=26
GPS acq_max:5714
GPS acq_max:6030
GPS acq_max:5791
GPS acq_max:6052
GPS acq_max:6094
GPS acq_max:5521
GPS acq_max:5769
GPS acq_max:5638
SatID=26
sat26 = 141256 1397 2967 0
ch6 satid=26,max_freq = 0,max_mean = 2967,max_phase = 1397,max_value = 141256,acq ok1!
acq ok1 timeH = 0,timeL = 60135260,freq_stage = 3
GPS acq_max:5928
GPS acq_max:5451
GPS acq_max:6295
GPS acq_max:5723
GPS acq_max:5989
GPS acq_max:6069
GPS acq_max:5902
GPS acq_max:6077
SatID=27
GPS acq_max:5628
GPS acq_max:6499
GPS acq_max:5859
GPS acq_max:5933
GPS acq_max:6453
GPS acq_max:5896
GPS acq_max:5702
GPS acq_max:5765
SatID=27
GPS acq_max:6023
GPS acq_max:5699
GPS acq_max:5898
GPS acq_max:5816
GPS acq_max:5650
GPS acq_max:5498
GPS acq_max:5794
GPS acq_max:5669
SatID=27
GPS acq_max:5721
GPS acq_max:5990
GPS acq_max:6174
GPS acq_max:5442
GPS acq_max:5341
GPS acq_max:5662
GPS acq_max:5270
GPS acq_max:5289
SatID=27
GPS acq_max:6186
GPS acq_max:6900
GPS acq_max:5902
GPS acq_max:5503
GPS acq_max:5759
GPS acq_max:5838
GPS acq_max:6607
GPS acq_max:6633
SatID=27
sat27 = 6900 1507 2881 -3250
GPS acq_max:5529
GPS acq_max:6370
GPS acq_max:6579
GPS acq_max:5624
GPS acq_max:5942
GPS acq_max:5539
GPS acq_max:6132
GPS acq_max:5680
SatID=28
GPS acq_max:7017
GPS acq_max:6630
GPS acq_max:5761
GPS acq_max:5785
GPS acq_max:6026
GPS acq_max:6742
GPS acq_max:6358
GPS acq_max:6129
SatID=28
GPS acq_max:6430
GPS acq_max:5926
GPS acq_max:5709
GPS acq_max:6684
GPS acq_max:7559
GPS acq_max:7282
GPS acq_max:5967
GPS acq_max:5935
SatID=28
GPS acq_max:5949
GPS acq_max:6398
GPS acq_max:6232
GPS acq_max:6825
GPS acq_max:5759
GPS acq_max:5834
GPS acq_max:6172
GPS acq_max:5877
SatID=28
GPS acq_max:5445
GPS acq_max:5328
GPS acq_max:5655
GPS acq_max:5945
GPS acq_max:5613
GPS acq_max:5653
GPS acq_max:6168
GPS acq_max:6993
SatID=28
sat28 = 7559 10 2915 0
GPS acq_max:6482
GPS acq_max:6106
GPS acq_max:6450
GPS acq_max:5927
GPS acq_max:6051
GPS acq_max:5691
GPS acq_max:6587
GPS acq_max:6351
SatID=29
GPS acq_max:6110
GPS acq_max:6428
GPS acq_max:7290
GPS acq_max:5947
GPS acq_max:5804
GPS acq_max:6773
GPS acq_max:6588
GPS acq_max:6271
SatID=29
GPS acq_max:5572
GPS acq_max:5882
GPS acq_max:6927
GPS acq_max:6140
GPS acq_max:5893
GPS acq_max:6540
GPS acq_max:6101
GPS acq_max:5399
SatID=29
GPS acq_max:5484
GPS acq_max:5253
GPS acq_max:6164
GPS acq_max:5917
GPS acq_max:6381
GPS acq_max:5679
GPS acq_max:5816
GPS acq_max:5405
SatID=29
GPS acq_max:5453
GPS acq_max:5541
GPS acq_max:6022
GPS acq_max:5804
GPS acq_max:6127
GPS acq_max:6455
GPS acq_max:5484
GPS acq_max:5738
SatID=29
sat29 = 7290 1236 2914 2500
GPS acq_max:5684
GPS acq_max:5779
GPS acq_max:5371
GPS acq_max:5491
GPS acq_max:5772
GPS acq_max:5839
GPS acq_max:5551
GPS acq_max:5481
SatID=30
GPS acq_max:5557
GPS acq_max:5274
GPS acq_max:5714
GPS acq_max:5357
GPS acq_max:5801
GPS acq_max:6714
GPS acq_max:5705
GPS acq_max:6629
SatID=30
GPS acq_max:5716
GPS acq_max:5902
GPS acq_max:5966
GPS acq_max:6602
GPS acq_max:6402
GPS acq_max:6314
GPS acq_max:6162
GPS acq_max:6322
SatID=30
GPS acq_max:6279
GPS acq_max:6158
GPS acq_max:6797
GPS acq_max:6809
GPS acq_max:6330
GPS acq_max:6092
GPS acq_max:5558
GPS acq_max:5989
SatID=30
GPS acq_max:5533
GPS acq_max:6246
GPS acq_max:5678
GPS acq_max:5816
GPS acq_max:5609
GPS acq_max:6506
GPS acq_max:6020
GPS acq_max:6690
SatID=30
sat30 = 6809 1796 2909 -1750
GPS acq_max:5722
GPS acq_max:6409
GPS acq_max:5456
GPS acq_max:5541
GPS acq_max:5890
GPS acq_max:6014
GPS acq_max:6236
GPS acq_max:5647
SatID=31
GPS acq_max:6719
GPS acq_max:6204
GPS acq_max:6484
GPS acq_max:5773
GPS acq_max:5807
GPS acq_max:6079
GPS acq_max:6338
GPS acq_max:6044
SatID=31
GPS acq_max:5829
GPS acq_max:6030
GPS acq_max:6012
GPS acq_max:6616
GPS acq_max:5931
GPS acq_max:5740
GPS acq_max:5800
GPS acq_max:5592
SatID=31
GPS acq_max:5617
GPS acq_max:5746
GPS acq_max:5837
GPS acq_max:5662
GPS acq_max:5849
GPS acq_max:5827
GPS acq_max:5439
GPS acq_max:7047
SatID=31
GPS acq_max:5574
GPS acq_max:5719
GPS acq_max:5569
GPS acq_max:5610
GPS acq_max:5975
GPS acq_max:6095
GPS acq_max:6009
GPS acq_max:5924
SatID=31
sat31 = 7047 394 2931 -2750
---00000004--- Acq_st=3 2019-5-27 02:11:36 
[00]  G04  7 41  -1976.4 2046002.5  1.0  1.0  5  0         5
[01]  G07  7 44  -3602.5 2046004.7  1.0  1.0  5  0         3
[02]  G09  7 37   -832.9 2046001.1  1.0  1.0  5  0         8
[03]  G16  7 34   1060.6 2045998.5  0.3  1.0  5  0        18
[04]  G21  7 21   1563.5 2045997.9 -0.0  0.0 20  0         6
[05]  G26  1 26   1628.6 2045998.2 -0.0  0.0  1  0         0
[06]  G27  1 25    173.2 2046000.1  0.0  0.0  1  0         0
$GNGGA,000000.000,,,,,0,00,,,M,,,,0000*2B
$GNRMC,000000.000,A,,,,,,,000000,,*26
$GPGSA,A,1,,,,,,,,,,,,,,,*1E
$BDGSA,A,1,,,,,,,,,,,,,,,*0F
$GPGSV,2,1,05,04,00,000,41,07,00,000,44,09,00,000,37,16,00,000,34*74
$GPGSV,2,2,05,21,00,000,21*4C
$LOGTIM,0,0.000000,0.000000,0.000000,0.000000,0.000*0A
EndT:        0
sat37 = 1871 356 795 -2750
sat38 = 1992 306 831 -3750
sat39 = 2112 479 804 3250
sat40 = 1996 300 808 -4000
---00000005--- Acq_st=3 2019-5-27 02:11:37 
[00]  G04  f 41  -1975.7 2046002.5  1.0  1.0  5  0         5
[01]  G07  f 44  -3602.6 2046004.7  1.0  1.0  5  0         3
[02]  G09  f 35   -831.8 2046001.1  1.0  0.9  5  0         8
[03]  G16  f 42   1060.2 2045998.5  1.0  1.0  5  0        12
[04]  G21  7 37   1564.2 2045997.9  0.8  1.0  5  0         0
[05]  G26  7 30   1645.5 2045997.8  0.5  1.0  5  0        14
[06]  G27  7 28    176.7 2045999.7  0.5  1.0 10  0        15
$GNGGA,000000.000,,,,,0,00,,,M,,,,0000*2B
$GNRMC,000000.000,A,,,,,,,000000,,*26
$GPGSA,A,1,,,,,,,,,,,,,,,*1E
$BDGSA,A,1,,,,,,,,,,,,,,,*0F
$GPGSV,2,1,07,04,00,000,41,07,00,000,44,09,00,000,35,16,00,000,42*75
$GPGSV,2,2,07,21,00,000,37,26,00,000,30,27,00,000,28*41
$LOGTIM,0,0.000000,0.000000,0.000000,0.000000,0.000*0A
EndT:        0
sat41 = 1981 2798 820 4250
sat42 = 1817 3180 812 -2750
sat43 = 25006 1758 785 500
ch16 satid=43,max_freq = 500,max_mean = 785,max_phase = 1758,max_value = 25006,acq ok1!
acq ok1 timeH = 0,timeL = 105535994,freq_stage = 3
sat44 = 1897 1162 813 2750
---00000006--- Acq_st=3 2019-5-27 02:11:38 
[00]  G04  f 42  -1984.9 2046002.5  1.0  1.0  5  0  94315425
[01]  G07  f 44  -3612.2 2046004.7  1.0  1.0  5  0  94315423
[02]  G09  f 34   -842.5 2046001.2  0.9  1.0  5  0  94315428
[03]  G16  f 42   1050.8 2045998.6  1.0  1.0  5  0  94315432
[04]  G21  7 37   1553.6 2045997.9  1.0  1.0  5  0         0
[05]  G26  7 41   1636.2 2045997.8  1.0  1.0  5  0         8
[06]  G27  7 46    167.9 2045999.7  0.9  1.0  5  0        16
[16]  B07  1  7   -503.4 4092002.6  0.1  0.0  1  0         0
$GNGGA,000000.000,,,,,0,00,,,M,,,,0000*2B
$GNRMC,000000.000,A,,,,,,,000000,,*26
$GPGSA,A,1,,,,,,,,,,,,,,,*1E
$BDGSA,A,1,,,,,,,,,,,,,,,*0F
$GPGSV,2,1,07,04,00,000,42,07,00,000,44,09,00,000,34,16,00,000,42*77
$GPGSV,2,2,07,21,00,000,37,26,00,000,41,27,00,000,46*4F
$LOGTIM,0,0.000000,0.000000,0.000000,0.000000,0.000*0A
EndT:        0
sat45 = 2128 3974 800 1250
sat46 = 22078 3635 812 500
ch17 satid=46,max_freq = 500,max_mean = 812,max_phase = 3635,max_value = 22078,acq ok1!
acq ok1 timeH = 0,timeL = 120842425,freq_stage = 3
sat47 = 1875 2933 798 -500
sat48 = 1885 1711 803 2750
---00000007--- Acq_st=3 2019-5-27 02:11:39 
[00]  G04  f 41  -1981.9 2046002.6  1.0  1.0  5  0  94316425
[01]  G07  f 45  -3609.6 2046004.7  1.0  1.0  5  0  94316423
[02]  G09  f 34   -838.4 2046001.3  1.0  0.9  5  0  94316428
[03]  G16  f 42   1053.7 2045998.6  1.0  1.0  5  0  94316432
[04]  G21  7 37   1557.4 2045998.0  1.0  1.0  5  0         0
[05]  G26  7 41   1639.0 2045997.9  1.0  1.0  5  0         8
[06]  G27  7 46    171.2 2045999.7  1.0  1.0  5  0        16
[16]  B07  7  7   -498.5 4092001.2  0.2  0.0 20  0       343
[17]  B10  1  7   -536.1 4092001.9  0.1  0.0  1  0         0
$GNGGA,000000.000,,,,,0,00,,,M,,,,0000*2B
$GNRMC,000000.000,A,,,,,,,000000,,*26
$GPGSA,A,1,,,,,,,,,,,,,,,*1E
$BDGSA,A,1,,,,,,,,,,,,,,,*0F
$GPGSV,2,1,07,04,00,000,41,07,00,000,45,09,00,000,34,16,00,000,42*75
$GPGSV,2,2,07,21,00,000,37,26,00,000,41,27,00,000,46*4F
$LOGTIM,0,0.000000,0.000000,0.000000,0.000000,0.000*0A
EndT:        0
sat49 = 2015 895 809 -750
sat50 = 1894 841 813 4250
sat51 = 2116 2591 804 3750
---00000008--- Acq_st=3 2019-5-27 02:11:40 
[00]  G04  f 42  -1973.8 2046002.6  1.0  1.0  5  0  94317425
[01]  G07  f 44  -3601.9 2046004.7  1.0  1.0  5  0  94317423
[02]  G09  f 34   -830.1 2046001.1  1.0  1.0  5  0  94317428
[03]  G16  f 42   1061.8 2045998.6  1.0  1.0  5  0  94317432
[04]  G21  7 37   1565.4 2045997.9  1.0  1.0  5  0         0
[05]  G26  7 42   1646.7 2045997.9  1.0  1.0  5  0         8
[06]  G27  7 47    179.3 2045999.7  1.0  1.0  5  0        16
[16]  B07  7 44   -491.2 4092001.2  0.6  1.0  5  0      1342
[17]  B10  7 23   -534.0 4092001.4  0.4  0.0 20  0       545
$GNGGA,000000.000,,,,,0,00,,,M,,,,0000*2B
$GNRMC,000000.000,A,,,,,,,000000,,*26
$GPGSA,A,1,,,,,,,,,,,,,,,*1E
$BDGSA,A,1,,,,,,,,,,,,,,,*0F
$GPGSV,2,1,07,04,00,000,42,07,00,000,44,09,00,000,34,16,00,000,42*77
$GPGSV,2,2,07,21,00,000,37,26,00,000,42,27,00,000,47*4D
$BDGSV,1,1,02,07,00,000,44,10,00,000,23*6D
$LOGTIM,0,0.000000,0.000000,0.000000,0.000000,0.000*0A
EndT:        0
sat52 = 2036 3583 824 -3750
sat53 = 1853 1717 812 250
sat54 = 2864 1140 819 500
sat55 = 1807 598 802 -1500
---00000009--- Acq_st=3 2019-5-27 02:11:41 
[00]  G04  f 42  -1980.5 2046002.6  1.0  1.0  5  0  94318425
[01]  G07  f 45  -3609.5 2046004.7  1.0  1.0  5  0  94318423
[02]  G09  f 35   -836.3 2046001.0  1.0  1.0  5  0  94318428
[03]  G16  f 42   1054.3 2045998.6  1.0  1.0  5  0  94318432
[04]  G21  7 37   1558.5 2045998.0  1.0  1.0  5  0         0
[05]  G26  7 42   1639.4 2045997.9  1.0  1.0  5  0         8
[06]  G27  7 47    172.5 2045999.8  1.0  1.0  5  0        16
[16]  B07  7 44   -498.5 4092001.3  1.0  1.0  5  0      2342
[17]  B10  7 44   -541.2 4092001.4  0.9  1.0  5  0      1538
$GNGGA,000000.000,,,,,0,00,,,M,,,,0000*2B
$GNRMC,000000.000,A,,,,,,,000000,,*26
$GPGSA,A,1,,,,,,,,,,,,,,,*1E
$BDGSA,A,1,,,,,,,,,,,,,,,*0F
$GPGSV,2,1,07,04,00,000,42,07,00,000,45,09,00,000,35,16,00,000,42*77
$GPGSV,2,2,07,21,00,000,37,26,00,000,42,27,00,000,47*4D
$BDGSV,1,1,02,07,00,000,44,10,00,000,44*6C
$LOGTIM,0,0.000000,0.000000,0.000000,0.000000,0.000*0A
EndT:        0
sat56 = 2119 721 811 -250
sat57 = 3660 1984 795 -1500
ch18 satid=57,max_freq = -1500,max_mean = 795,max_phase = 1984,max_value = 3660,acq ok1!
acq ok1 timeH = 0,timeL = 177982604,freq_stage = 4
sat58 = 1793 2145 796 2500
sat59 = 2061 1775 805 -1250
---00000010--- Acq_st=3 2019-5-27 02:11:42 
[00]  G04  f 42  -1984.2 2046002.6  1.0  1.0  5  0  94319425
[01]  G07  f 44  -3613.3 2046004.7  1.0  1.0  5  0  94319423
[02]  G09  f 36   -839.8 2046001.1  1.0  1.0  5  0  94319428
[03]  G16  f 41   1050.5 2045998.6  1.0  1.0  5  0  94319432
[04]  G21  7 37   1554.3 2045998.0  1.0  1.0  5  0         0
[05]  G26  7 42   1635.7 2045997.9  1.0  1.0  5  0         8
[06]  G27  7 46    169.0 2045999.8  1.0  1.0  5  0        16
[16]  B07  7 44   -502.6 4092001.3  1.0  1.0  5  0      3342
[17]  B10  7 44   -545.5 4092001.4  1.0  1.0  5  0      2538
[18]  B21  1  7   1486.2 4091996.4 -0.0  0.0  1  0         0
$GNGGA,000000.000,,,,,0,00,,,M,,,,0000*2B
$GNRMC,000000.000,A,,,,,,,000000,,*26
$GPGSA,A,1,,,,,,,,,,,,,,,*1E
$BDGSA,A,1,,,,,,,,,,,,,,,*0F
$GPGSV,2,1,07,04,00,000,42,07,00,000,44,09,00,000,36,16,00,000,41*76
$GPGSV,2,2,07,21,00,000,37,26,00,000,42,27,00,000,46*4C
$BDGSV,1,1,02,07,00,000,44,10,00,000,44*6C
$LOGTIM,0,0.000000,0.000000,0.000000,0.000000,0.000*0A
EndT:        0
sat60 = 1864 2624 800 -3000
sat61 = 1759 1409 798 -4750
sat62 = 3793 1149 798 3000
ch19 satid=62,max_freq = 3000,max_mean = 798,max_phase = 1149,max_value = 3793,acq ok1!
acq ok1 timeH = 0,timeL = 201460140,freq_stage = 2
sat63 = 1826 3313 803 2500
---00000011--- Acq_st=3 2019-5-27 02:11:43 
[00]  G04  f 41  -1983.4 2046002.6  1.0  1.0  5  0  94320425
[01]  G07  f 45  -3613.1 2046004.7  1.0  1.0  5  0  94320423
[02]  G09  f 37   -839.1 2046001.1  1.0  1.0  5  0  94320428
[03]  G16  f 41   1050.7 2045998.7  1.0  1.0  5  0  94320432
[04]  G21  f 37   1555.2 2045998.0  1.0  1.0  5  0         0
[05]  G26  f 41   1635.8 2045997.8  1.0  1.0  5  0         8
[06]  G27  f 46    169.8 2045999.8  1.0  1.0  5  0        16
[16]  B07  7 44   -502.5 4092001.3  1.0  1.0  5  0      4342
[17]  B10  7 44   -545.1 4092001.4  1.0  1.0  5  0      3538
[18]  B21  7 23   1476.4 4091996.1  0.2  0.0 20  0       623
[19]  B26  1  7  -2997.1 4092008.3  0.0  0.0  1  0         0
$GNGGA,000000.000,,,,,0,00,,,M,,,,0000*2B
$GNRMC,000000.000,A,,,,,,,000000,,*26
$GPGSA,A,1,,,,,,,,,,,,,,,*1E
$BDGSA,A,1,,,,,,,,,,,,,,,*0F
$GPGSV,2,1,07,04,00,000,41,07,00,000,45,09,00,000,37,16,00,000,41*75
$GPGSV,2,2,07,21,00,000,37,26,00,000,41,27,00,000,46*4F
$BDGSV,1,1,03,07,00,000,44,10,00,000,44,21,00,000,23*5F
$LOGTIM,0,0.000000,0.000000,0.000000,0.000000,0.000*0A
EndT:        0
sat64 = 2041 3056 821 -3500
sat65 = 1887 2043 820 1250
sat66 = 29720 1505 804 -2000
ch20 satid=66,max_freq = -2000,max_mean = 804,max_phase = 1505,max_value = 29720,acq ok1!
acq ok1 timeH = 0,timeL = 224410194,freq_stage = 4
---00000012--- Acq_st=3 2019-5-27 02:11:44 
[00]  G04  f 42  -1979.5 2046002.6  1.0  1.0  5  0  94321425
[01]  G07  f 45  -3610.0 2046004.7  1.0  1.0  5  0  94321423
[02]  G09  f 38   -834.8 2046001.1  1.0  1.0  5  0  94321428
[03]  G16  f 41   1054.2 2045998.6  1.0  1.0  5  0  94321432
[04]  G21  f 36   1559.3 2045998.0  1.0  1.0  5  0  94321420
[05]  G26  f 42   1639.0 2045997.9  1.0  1.0  5  0  94321428
[06]  G27  f 46    173.8 2045999.8  1.0  1.0  5  0  94321436
[16]  B07  7 44   -499.3 4092001.3  1.0  1.0  5  0      5342
[17]  B10  7 44   -542.4 4092001.4  1.0  1.0  5  0      4538
[18]  B21  7 34   1480.6 4091996.1  0.9  1.0  5  0      1615
[19]  B26  1  7  -3008.1 4092008.8 -0.1  0.0  1  0       294
[20]  B30  1  7   2000.5 4091994.5  0.0  0.0  1  0         0
$GNGGA,000000.000,,,,,0,00,,,M,,,,0000*2B
$GNRMC,000000.000,A,,,,,,,000000,,*26
$GPGSA,A,1,,,,,,,,,,,,,,,*1E
$BDGSA,A,1,,,,,,,,,,,,,,,*0F
$GPGSV,2,1,07,04,00,000,42,07,00,000,45,09,00,000,38,16,00,000,41*79
$GPGSV,2,2,07,21,00,000,36,26,00,000,42,27,00,000,46*4D
$BDGSV,1,1,03,07,00,000,44,10,00,000,44,21,00,000,34*59
$LOGTIM,0,0.000000,0.000000,0.000000,0.000000,0.000*0A
EndT:        0
sat67 = 1884 2970 800 5000
sat68 = 1976 4055 815 750
---00000013--- Acq_st=7 2019-5-27 02:11:45 
[00]  G04  f 42  -1975.2 2046002.6  1.0  1.0  5  0  94322425
[01]  G07  f 45  -3606.0 2046004.7  1.0  1.0  5  0  94322423
[02]  G09  f 37   -831.2 2046001.1  1.0  0.9  5  0  94322428
[03]  G16  f 40   1058.4 2045998.6  1.0  1.0  5  0  94322432
[04]  G21  f 36   1563.8 2045998.0  1.0  1.0  5  0  94322420
[05]  G26  f 41   1643.2 2045997.9  1.0  1.0  5  0  94322428
[06]  G27  f 46    178.0 2045999.8  1.0  1.0  5  0  94322436
[16]  B07 1f 44   -495.5 4092001.3  1.0  1.0  5  0      6342
[17]  B10 1f 44   -538.5 4092001.4  1.0  1.0  5  0      5538
[18]  B21 1f 34   1484.8 4091996.0  1.0  0.9  5  0      2615
[19]  B26  7 32  -2994.4 4092007.9  0.4  0.8  5  0      1294
[20]  B30  1  7   2003.3 4091994.6  0.3  0.0  1  0       231
GPS acq_max:5686
GPS acq_max:5429
GPS acq_max:6073
GPS acq_max:6787
GPS acq_max:5839
GPS acq_max:7521
GPS acq_max:6334
GPS acq_max:6120
SatID=0
$GNGGA,000000.000,,,,,0,00,,,M,,,,0000*2B
$GNRMC,000000.000,A,,,,,,,000000,,*26
$GPGSA,A,1,,,,,,,,,,,,,,,*1E
$BDGSA,A,1,,,,,,,,,,,,,,,*0F
$GPGSV,2,1,07,04,00,000,42,07,00,000,45,09,00,000,37,16,00,000,40*77
$GPGSV,2,2,07,21,00,000,36,26,00,000,41,27,00,000,46*4E
$BDGSV,1,1,04,07,00,000,44,10,00,000,44,21,00,000,34,26,00,000,32*6B
$LOGTIM,0,0.000000,0.000000,0.000000,0.000000,0.000*0A
EndT:        0
GPS acq_max:6640
GPS acq_max:6176
GPS acq_max:6020
GPS acq_max:5999
GPS acq_max:7069
GPS acq_max:6785
GPS acq_max:6459
GPS acq_max:5903
SatID=0
GPS acq_max:6011
GPS acq_max:5666
GPS acq_max:5887
GPS acq_max:6123
GPS acq_max:6049
GPS acq_max:6279
GPS acq_max:6143
GPS acq_max:5630
SatID=0
GPS acq_max:5927
GPS acq_max:5827
GPS acq_max:6435
GPS acq_max:6649
GPS acq_max:6720
GPS acq_max:6285
GPS acq_max:5496
GPS acq_max:5955
SatID=0
GPS acq_max:6730
GPS acq_max:6310
GPS acq_max:6538
GPS acq_max:6289
GPS acq_max:6073
GPS acq_max:6066
GPS acq_max:6658
GPS acq_max:6282
SatID=0
sat0 = 7521 1358 2995 3750
GPS acq_max:5842
GPS acq_max:6262
GPS acq_max:5939
GPS acq_max:5914
GPS acq_max:6157
GPS acq_max:5771
GPS acq_max:5659
GPS acq_max:6513
SatID=1
GPS acq_max:5814
GPS acq_max:6373
GPS acq_max:6148
GPS acq_max:5372
GPS acq_max:5600
GPS acq_max:6153
GPS acq_max:5897
GPS acq_max:6102
SatID=1
GPS acq_max:6269
GPS acq_max:6631
GPS acq_max:7178
GPS acq_max:7229
GPS acq_max:6274
GPS acq_max:6544
GPS acq_max:6344
GPS acq_max:7148
SatID=1
GPS acq_max:6119
GPS acq_max:5892
GPS acq_max:6508
GPS acq_max:6859
GPS acq_max:6955
GPS acq_max:6272
GPS acq_max:5886
GPS acq_max:6382
SatID=1
GPS acq_max:6179
GPS acq_max:5735
GPS acq_max:5759
GPS acq_max:6049
GPS acq_max:5510
GPS acq_max:5805
GPS acq_max:5959
GPS acq_max:5871
SatID=1
sat1 = 7229 1689 3074 250
GPS acq_max:5925
GPS acq_max:6164
GPS acq_max:5818
GPS acq_max:6983
GPS acq_max:7837
GPS acq_max:6799
GPS acq_max:6100
GPS acq_max:6493
SatID=2
GPS acq_max:6200
GPS acq_max:5854
GPS acq_max:6149
GPS acq_max:6323
GPS acq_max:6476
GPS acq_max:6286
GPS acq_max:5895
GPS acq_max:6157
SatID=2
GPS acq_max:6147
GPS acq_max:6769
GPS acq_max:6483
GPS acq_max:5749
GPS acq_max:6228
GPS acq_max:6889
GPS acq_max:5949
GPS acq_max:5786
SatID=2
GPS acq_max:6165
GPS acq_max:6619
GPS acq_max:6040
GPS acq_max:6209
GPS acq_max:6168
GPS acq_max:5806
GPS acq_max:6151
GPS acq_max:5770
SatID=2
GPS acq_max:6174
GPS acq_max:5901
GPS acq_max:5897
GPS acq_max:5588
GPS acq_max:6158
GPS acq_max:6923
GPS acq_max:6627
GPS acq_max:6314
SatID=2
sat2 = 7837 1496 3063 4000
GPS acq_max:6553
GPS acq_max:6035
GPS acq_max:5956
GPS acq_max:5811
GPS acq_max:5923
GPS acq_max:6516
GPS acq_max:6119
GPS acq_max:6336
SatID=4
GPS acq_max:6215
GPS acq_max:6772
GPS acq_max:6388
GPS acq_max:5811
GPS acq_max:5676
GPS acq_max:5715
GPS acq_max:5425
GPS acq_max:6090
SatID=4
GPS acq_max:6582
GPS acq_max:6275
GPS acq_max:5906
GPS acq_max:5681
GPS acq_max:5899
GPS acq_max:6259
GPS acq_max:6230
GPS acq_max:6184
SatID=4
GPS acq_max:5660
GPS acq_max:6080
GPS acq_max:5640
GPS acq_max:5374
GPS acq_max:5746
GPS acq_max:5843
GPS acq_max:5840
GPS acq_max:6156
SatID=4
GPS acq_max:6111
GPS acq_max:5685
GPS acq_max:5980
GPS acq_max:7120
GPS acq_max:6098
GPS acq_max:6167
GPS acq_max:6020
GPS acq_max:5930
SatID=4
sat4 = 7120 265 3011 -3750
GPS acq_max:6026
GPS acq_max:6269
GPS acq_max:6365
GPS acq_max:5705
GPS acq_max:5325
GPS acq_max:6707
GPS acq_max:7217
GPS acq_max:6246
SatID=5
GPS acq_max:5907
GPS acq_max:5994
GPS acq_max:5831
GPS acq_max:5930
GPS acq_max:6325
GPS acq_max:6194
GPS acq_max:6514
GPS acq_max:7042
SatID=5
GPS acq_max:5879
GPS acq_max:6143
GPS acq_max:5663
GPS acq_max:5416
GPS acq_max:6069
GPS acq_max:6750
GPS acq_max:6441
GPS acq_max:5874
SatID=5
GPS acq_max:6044
GPS acq_max:5806
GPS acq_max:5388
GPS acq_max:5531
GPS acq_max:5648
GPS acq_max:6466
GPS acq_max:5576
GPS acq_max:6064
SatID=5
GPS acq_max:6249
GPS acq_max:5438
GPS acq_max:6342
GPS acq_max:6485
GPS acq_max:6491
GPS acq_max:6296
GPS acq_max:5692
GPS acq_max:5461
SatID=5
sat5 = 7217 1294 2973 3500
GPS acq_max:5698
GPS acq_max:6315
GPS acq_max:6934
GPS acq_max:5923
GPS acq_max:6164
GPS acq_max:6136
GPS acq_max:6038
GPS acq_max:5861
SatID=7
GPS acq_max:6517
GPS acq_max:5865
GPS acq_max:6408
GPS acq_max:6290
GPS acq_max:7476
GPS acq_max:5589
GPS acq_max:6262
GPS acq_max:6266
SatID=7
GPS acq_max:6049
GPS acq_max:5855
GPS acq_max:6249
GPS acq_max:5625
GPS acq_max:7040
GPS acq_max:6216
GPS acq_max:6492
GPS acq_max:6295
SatID=7
GPS acq_max:5290
GPS acq_max:5270
GPS acq_max:5610
GPS acq_max:6116
GPS acq_max:5942
GPS acq_max:5570
GPS acq_max:5898
GPS acq_max:6018
SatID=7
GPS acq_max:5742
GPS acq_max:5970
GPS acq_max:5851
GPS acq_max:5739
GPS acq_max:5847
GPS acq_max:6667
GPS acq_max:7499
GPS acq_max:5795
SatID=7
sat7 = 7499 1371 2947 -4500
GPS acq_max:5947
GPS acq_max:6353
GPS acq_max:6127
GPS acq_max:6542
GPS acq_max:5907
GPS acq_max:6222
GPS acq_max:6281
GPS acq_max:7299
SatID=9
GPS acq_max:5884
GPS acq_max:5959
GPS acq_max:6081
GPS acq_max:6095
GPS acq_max:5740
GPS acq_max:6037
GPS acq_max:6482
GPS acq_max:5512
SatID=9
GPS acq_max:6164
GPS acq_max:6047
GPS acq_max:5700
GPS acq_max:5628
GPS acq_max:6338
GPS acq_max:5918
GPS acq_max:6551
GPS acq_max:6042
SatID=9
GPS acq_max:5953
GPS acq_max:6444
GPS acq_max:6652
GPS acq_max:7271
GPS acq_max:6277
GPS acq_max:5659
GPS acq_max:5704
GPS acq_max:5757
SatID=9
GPS acq_max:5796
GPS acq_max:6915
GPS acq_max:6366
GPS acq_max:6238
GPS acq_max:5876
GPS acq_max:5915
GPS acq_max:5669
GPS acq_max:6044
SatID=9
sat9 = 7299 1374 2981 3250
GPS acq_max:6390
GPS acq_max:6396
GPS acq_max:6024
GPS acq_max:5683
GPS acq_max:5658
GPS acq_max:6798
GPS acq_max:6187
GPS acq_max:6449
SatID=10
GPS acq_max:6194
GPS acq_max:5929
GPS acq_max:5859
GPS acq_max:5797
GPS acq_max:6051
GPS acq_max:5949
GPS acq_max:5921
GPS acq_max:5440
SatID=10
GPS acq_max:5970
GPS acq_max:5542
GPS acq_max:5592
GPS acq_max:5496
GPS acq_max:5511
GPS acq_max:5532
GPS acq_max:5483
GPS acq_max:5525
SatID=10
GPS acq_max:6364
GPS acq_max:6173
GPS acq_max:5638
GPS acq_max:5696
GPS acq_max:5840
GPS acq_max:6490
GPS acq_max:5982
GPS acq_max:5583
SatID=10
GPS acq_max:6071
GPS acq_max:5527
GPS acq_max:6407
GPS acq_max:6005
GPS acq_max:6138
GPS acq_max:5846
GPS acq_max:5772
GPS acq_max:6443
SatID=10
sat10 = 6798 1029 2949 3750
GPS acq_max:5747
GPS acq_max:5861
GPS acq_max:5591
GPS acq_max:5502
GPS acq_max:5707
GPS acq_max:6725
GPS acq_max:6063
GPS acq_max:5338
SatID=11
GPS acq_max:5775
GPS acq_max:5609
GPS acq_max:6113
GPS acq_max:6524
GPS acq_max:5773
GPS acq_max:6377
GPS acq_max:5937
GPS acq_max:6313
SatID=11
---00000014--- Acq_st=3 2019-5-27 02:11:46 
[00]  G04  f 41  -1973.3 2046002.6  1.0  1.0  5  0  94323425
[01]  G07  f 44  -3604.6 2046004.7  1.0  1.0  5  0  94323423
[02]  G09  f 38   -829.6 2046000.9  1.0  1.0  5  0  94323428
[03]  G16  f 41   1059.2 2045998.7  1.0  1.0  5  0  94323432
[04]  G21  f 37   1565.2 2045998.0  1.0  1.0  5  0  94323420
[05]  G26  f 41   1644.1 2045997.9  1.0  1.0  5  0  94323428
[06]  G27  f 46    180.0 2045999.8  1.0  1.0  5  0  94323436
[16]  B07 1f 44   -494.4 4092001.3  1.0  1.0  5  0  94309382
[17]  B10 1f 43   -537.4 4092001.4  1.0  1.0  5  0  94309378
[18]  B21 1f 34   1485.6 4091996.1  1.0  1.0  5  0  94309415
[19]  B26  7 34  -2993.7 4092007.9  1.0  0.9  5  0      2276
[20]  B30  7 38   2004.9 4091994.7  1.0  1.0  5  0      1231
GPS acq_max:5785
GPS acq_max:5892
GPS acq_max:5407
GPS acq_max:5479
GPS acq_max:6404
GPS acq_max:5622
GPS acq_max:5722
GPS acq_max:5788
SatID=11
$GNGGA,000000.000,,,,,0,00,,,M,,,,0000*2B
$GNRMC,000000.000,A,,,,,,,000000,,*26
$GPGSA,A,1,,,,,,,,,,,,,,,*1E
$BDGSA,A,1,,,,,,,,,,,,,,,*0F
$GPGSV,2,1,07,04,00,000,41,07,00,000,44,09,00,000,38,16,00,000,41*7B
$GPGSV,2,2,07,21,00,000,37,26,00,000,41,27,00,000,46*4F
$BDGSV,2,1,05,07,00,000,44,10,00,000,43,21,00,000,34,26,00,000,34*68
$BDGSV,2,2,05,30,00,000,38*55
$LOGTIM,0,0.000000,0.000000,0.000000,0.000000,0.000*0A
EndT:        0
GPS acq_max:5836
GPS acq_max:6604
GPS acq_max:5564
GPS acq_max:5757
GPS acq_max:5917
GPS acq_max:5867
GPS acq_max:6247
GPS acq_max:6474
SatID=11
GPS acq_max:5923
GPS acq_max:5842
GPS acq_max:6034
GPS acq_max:6088
GPS acq_max:6144
GPS acq_max:6124
GPS acq_max:6356
GPS acq_max:5777
SatID=11
sat11 = 6725 274 2934 3750
GPS acq_max:6005
GPS acq_max:6495
GPS acq_max:6876
GPS acq_max:5889
GPS acq_max:5847
GPS acq_max:5467
GPS acq_max:5658
GPS acq_max:5957
SatID=12
GPS acq_max:5638
GPS acq_max:5859
GPS acq_max:5763
GPS acq_max:5861
GPS acq_max:6091
GPS acq_max:5489
GPS acq_max:5492
GPS acq_max:5634
SatID=12
GPS acq_max:6782
GPS acq_max:5896
GPS acq_max:6101
GPS acq_max:5637
GPS acq_max:6023
GPS acq_max:5387
GPS acq_max:5604
GPS acq_max:5706
SatID=12
GPS acq_max:6008
GPS acq_max:6089
GPS acq_max:6819
GPS acq_max:5991
GPS acq_max:6462
GPS acq_max:6200
GPS acq_max:5782
GPS acq_max:6128
SatID=12
GPS acq_max:6145
GPS acq_max:5315
GPS acq_max:5511
GPS acq_max:6268
GPS acq_max:5927
GPS acq_max:5487
GPS acq_max:5573
GPS acq_max:5818
SatID=12
sat12 = 6876 1430 2941 4500
GPS acq_max:6156
GPS acq_max:6007
GPS acq_max:5731
GPS acq_max:6022
GPS acq_max:5399
GPS acq_max:5977
GPS acq_max:6377
GPS acq_max:5775
SatID=13
GPS acq_max:5924
GPS acq_max:5645
GPS acq_max:5676
GPS acq_max:5543
GPS acq_max:5820
GPS acq_max:5411
GPS acq_max:5845
GPS acq_max:5835
SatID=13
GPS acq_max:5340
GPS acq_max:5522
GPS acq_max:6200
GPS acq_max:5975
GPS acq_max:5251
GPS acq_max:5776
GPS acq_max:5965
GPS acq_max:6010
SatID=13
GPS acq_max:7383
GPS acq_max:7111
GPS acq_max:6251
GPS acq_max:5634
GPS acq_max:5833
GPS acq_max:5362
GPS acq_max:5682
GPS acq_max:5855
SatID=13
GPS acq_max:6089
GPS acq_max:5854
GPS acq_max:5732
GPS acq_max:5786
GPS acq_max:6337
GPS acq_max:6010
GPS acq_max:5540
GPS acq_max:6076
SatID=13
sat13 = 7383 144 2960 -1000
GPS acq_max:5830
GPS acq_max:5569
GPS acq_max:6118
GPS acq_max:5500
GPS acq_max:6004
GPS acq_max:5851
GPS acq_max:6548
GPS acq_max:5732
SatID=14
GPS acq_max:6189
GPS acq_max:5962
GPS acq_max:5760
GPS acq_max:5849
GPS acq_max:5502
GPS acq_max:5977
GPS acq_max:5597
GPS acq_max:5480
SatID=14
GPS acq_max:5859
GPS acq_max:5657
GPS acq_max:5459
GPS acq_max:5421
GPS acq_max:5639
GPS acq_max:6204
GPS acq_max:5724
GPS acq_max:5406
SatID=14
GPS acq_max:6456
GPS acq_max:5697
GPS acq_max:5940
GPS acq_max:5590
GPS acq_max:6087
GPS acq_max:6087
GPS acq_max:6322
GPS acq_max:5794
SatID=14
GPS acq_max:6208
GPS acq_max:6400
GPS acq_max:6203
GPS acq_max:6108
GPS acq_max:6424
GPS acq_max:6427
GPS acq_max:6454
GPS acq_max:6014
SatID=14
sat14 = 6548 1228 2956 3500
GPS acq_max:5879
GPS acq_max:6162
GPS acq_max:6135
GPS acq_max:6240
GPS acq_max:6960
GPS acq_max:6567
GPS acq_max:5566
GPS acq_max:6158
SatID=16
GPS acq_max:6190
GPS acq_max:5974
GPS acq_max:5674
GPS acq_max:6284
GPS acq_max:6226
GPS acq_max:6054
GPS acq_max:6188
GPS acq_max:5552
SatID=16
GPS acq_max:5787
GPS acq_max:6382
GPS acq_max:6258
GPS acq_max:6193
GPS acq_max:6715
GPS acq_max:6157
GPS acq_max:6602
GPS acq_max:6155
SatID=16
GPS acq_max:6015
GPS acq_max:6095
GPS acq_max:6382
GPS acq_max:5712
GPS acq_max:6340
GPS acq_max:5988
GPS acq_max:5919
GPS acq_max:6125
SatID=16
GPS acq_max:5544
GPS acq_max:6029
GPS acq_max:7022
GPS acq_max:5877
GPS acq_max:6724
GPS acq_max:6484
GPS acq_max:6316
GPS acq_max:7131
SatID=16
sat16 = 7131 1074 3016 -4750
GPS acq_max:5754
GPS acq_max:6012
GPS acq_max:5756
GPS acq_max:6157
GPS acq_max:6067
GPS acq_max:6037
GPS acq_max:5671
GPS acq_max:6461
SatID=17
GPS acq_max:6347
GPS acq_max:6633
GPS acq_max:5575
GPS acq_max:5934
GPS acq_max:5837
GPS acq_max:5669
GPS acq_max:7973
GPS acq_max:7807
SatID=17
GPS acq_max:6396
GPS acq_max:8322
GPS acq_max:7298
GPS acq_max:6295
GPS acq_max:6243
GPS acq_max:6866
GPS acq_max:6709
GPS acq_max:6287
SatID=17
GPS acq_max:6465
GPS acq_max:6064
GPS acq_max:6029
GPS acq_max:6084
GPS acq_max:6150
GPS acq_max:6597
GPS acq_max:6642
GPS acq_max:7705
SatID=17
GPS acq_max:5998
GPS acq_max:5846
GPS acq_max:6371
GPS acq_max:5435
GPS acq_max:5688
GPS acq_max:6290
GPS acq_max:6189
GPS acq_max:6921
SatID=17
sat17 = 8322 681 3038 750
GPS acq_max:6526
GPS acq_max:5737
GPS acq_max:5959
GPS acq_max:5614
GPS acq_max:6029
GPS acq_max:6389
GPS acq_max:6147
GPS acq_max:5561
SatID=18
GPS acq_max:5583
GPS acq_max:5538
GPS acq_max:6178
GPS acq_max:6125
GPS acq_max:5471
GPS acq_max:6481
GPS acq_max:5815
GPS acq_max:5817
SatID=18
GPS acq_max:6136
GPS acq_max:5664
GPS acq_max:5852
GPS acq_max:5660
GPS acq_max:5780
GPS acq_max:5641
GPS acq_max:6679
GPS acq_max:7430
SatID=18
GPS acq_max:5916
GPS acq_max:6433
GPS acq_max:6502
GPS acq_max:5738
GPS acq_max:6222
GPS acq_max:5757
GPS acq_max:5977
GPS acq_max:6659
SatID=18
GPS acq_max:7043
GPS acq_max:6289
GPS acq_max:6053
GPS acq_max:6350
GPS acq_max:6311
GPS acq_max:5951
GPS acq_max:6509
GPS acq_max:6523
SatID=18
sat18 = 7430 1484 2985 -750
GPS acq_max:5501
GPS acq_max:5670
GPS acq_max:6405
GPS acq_max:6078
GPS acq_max:6602
GPS acq_max:6196
GPS acq_max:5888
GPS acq_max:6808
SatID=19
GPS acq_max:6195
GPS acq_max:5907
GPS acq_max:5748
GPS acq_max:6187
GPS acq_max:6255
GPS acq_max:5872
GPS acq_max:6034
GPS acq_max:6731
SatID=19
GPS acq_max:6489
GPS acq_max:6056
GPS acq_max:6174
GPS acq_max:7841
GPS acq_max:7186
GPS acq_max:6034
GPS acq_max:5679
GPS acq_max:5875
SatID=19
GPS acq_max:6207
GPS acq_max:6088
GPS acq_max:6122
GPS acq_max:6144
GPS acq_max:6347
GPS acq_max:6179
GPS acq_max:5837
GPS acq_max:6177
SatID=19
GPS acq_max:6289
GPS acq_max:5404
GPS acq_max:5465
GPS acq_max:5954
GPS acq_max:6329
GPS acq_max:5813
GPS acq_max:6220
GPS acq_max:6164
SatID=19
sat19 = 7841 1158 2956 250
GPS acq_max:6017
GPS acq_max:5620
GPS acq_max:5964
GPS acq_max:5813
GPS acq_max:5702
GPS acq_max:6098
GPS acq_max:6516
GPS acq_max:5268
SatID=21
GPS acq_max:5757
GPS acq_max:5595
GPS acq_max:5920
GPS acq_max:5695
GPS acq_max:5812
GPS acq_max:6285
GPS acq_max:6168
GPS acq_max:7041
SatID=21
GPS acq_max:5529
GPS acq_max:5562
GPS acq_max:5537
GPS acq_max:6152
GPS acq_max:6123
GPS acq_max:7142
GPS acq_max:6996
GPS acq_max:6583
SatID=21
GPS acq_max:5836
GPS acq_max:5979
GPS acq_max:6489
GPS acq_max:6341
GPS acq_max:6184
GPS acq_max:5745
GPS acq_max:5989
GPS acq_max:5693
SatID=21
---00000015--- Acq_st=3 2019-5-27 02:11:47 
[00]  G04  f 41  -1976.1 2046002.6  1.0  1.0  5  0  94324425
[01]  G07  f 44  -3608.3 2046004.7  1.0  1.0  5  0  94324423
[02]  G09  f 38   -831.8 2046001.0  1.0  1.0  5  0  94324428
[03]  G16  f 40   1056.0 2045998.6  1.0  1.0  5  0  94324432
[04]  G21  f 36   1562.2 2045998.0  1.0  1.0  5  0  94324420
[05]  G26  f 42   1641.1 2045997.9  1.0  1.0  5  0  94324428
[06]  G27  f 46    177.2 2045999.8  1.0  1.0  5  0  94324436
[16]  B07 1f 44   -497.6 4092001.3  1.0  1.0  5  0  94310382
[17]  B10 1f 43   -540.6 4092001.4  1.0  1.0  5  0  94310378
[18]  B21 1f 34   1483.1 4091996.1  1.0  0.9  5  0  94310415
[19]  B26  7 33  -2996.2 4092007.9  1.0  1.0  5  0      3276
[20]  B30  7 46   2002.0 4091994.7  1.0  1.0  5  0      2225
GPS acq_max:5733
GPS acq_max:5415
GPS acq_max:5831
GPS acq_max:5606
GPS acq_max:5666
GPS acq_max:5689
GPS acq_max:5595
GPS acq_max:6390
SatID=21
sat21 = 7142 627 2960 -250
$GNGGA,000000.000,,,,,0,00,,,M,,,,0000*2B
$GNRMC,000000.000,A,,,,,,,000000,,*26
$GPGSA,A,1,,,,,,,,,,,,,,,*1E
$BDGSA,A,1,,,,,,,,,,,,,,,*0F
$GPGSV,2,1,07,04,00,000,41,07,00,000,44,09,00,000,38,16,00,000,40*7A
$GPGSV,2,2,07,21,00,000,36,26,00,000,42,27,00,000,46*4D
$BDGSV,2,1,05,07,00,000,44,10,00,000,43,21,00,000,34,26,00,000,33*6F
$BDGSV,2,2,05,30,00,000,46*5C
$LOGTIM,0,0.000000,0.000000,0.000000,0.000000,0.000*0A
EndT:        0
GPS acq_max:6388
GPS acq_max:6496
GPS acq_max:5888
GPS acq_max:5954
GPS acq_max:5700
GPS acq_max:6234
GPS acq_max:6454
GPS acq_max:6358
SatID=22
GPS acq_max:5746
GPS acq_max:5403
GPS acq_max:6128
GPS acq_max:5562
GPS acq_max:5772
GPS acq_max:5981
GPS acq_max:6218
GPS acq_max:5492
SatID=22
GPS acq_max:5709
GPS acq_max:6481
GPS acq_max:6310
GPS acq_max:5648
GPS acq_max:5725
GPS acq_max:5727
GPS acq_max:6156
GPS acq_max:6645
SatID=22
GPS acq_max:6290
GPS acq_max:6568
GPS acq_max:6464
GPS acq_max:6121
GPS acq_max:6070
GPS acq_max:5904
GPS acq_max:6277
GPS acq_max:6328
SatID=22
GPS acq_max:5872
GPS acq_max:5476
GPS acq_max:5611
GPS acq_max:5901
GPS acq_max:5848
GPS acq_max:5935
GPS acq_max:5711
GPS acq_max:6220
SatID=22
sat22 = 6645 680 2934 -750
GPS acq_max:5707
GPS acq_max:6002
GPS acq_max:5545
GPS acq_max:6238
GPS acq_max:5953
GPS acq_max:6243
GPS acq_max:6218
GPS acq_max:5732
SatID=23
GPS acq_max:5958
GPS acq_max:5657
GPS acq_max:5966
GPS acq_max:6007
GPS acq_max:6221
GPS acq_max:6893
GPS acq_max:7158
GPS acq_max:6203
SatID=23
GPS acq_max:5661
GPS acq_max:5726
GPS acq_max:6491
GPS acq_max:6502
GPS acq_max:6149
GPS acq_max:6823
GPS acq_max:6101
GPS acq_max:6247
SatID=23
GPS acq_max:6103
GPS acq_max:6313
GPS acq_max:5936
GPS acq_max:5529
GPS acq_max:6107
GPS acq_max:5906
GPS acq_max:6159
GPS acq_max:6652
SatID=23
GPS acq_max:5731
GPS acq_max:5842
GPS acq_max:6316
GPS acq_max:5927
GPS acq_max:6264
GPS acq_max:5897
GPS acq_max:6298
GPS acq_max:6236
SatID=23
sat23 = 7158 745 3000 1500
GPS acq_max:5746
GPS acq_max:6251
GPS acq_max:6393
GPS acq_max:6032
GPS acq_max:6378
GPS acq_max:5857
GPS acq_max:6104
GPS acq_max:5631
SatID=24
GPS acq_max:6897
GPS acq_max:7207
GPS acq_max:6533
GPS acq_max:6122
GPS acq_max:6593
GPS acq_max:5344
GPS acq_max:5579
GPS acq_max:6184
SatID=24
GPS acq_max:6628
GPS acq_max:6276
GPS acq_max:6442
GPS acq_max:6337
GPS acq_max:6403
GPS acq_max:5859
GPS acq_max:6224
GPS acq_max:6223
SatID=24
GPS acq_max:6205
GPS acq_max:5476
GPS acq_max:5750
GPS acq_max:6839
GPS acq_max:7251
GPS acq_max:5902
GPS acq_max:6450
GPS acq_max:5914
SatID=24
GPS acq_max:5701
GPS acq_max:6019
GPS acq_max:6229
GPS acq_max:5519
GPS acq_max:6042
GPS acq_max:7140
GPS acq_max:7562
GPS acq_max:7753
