FlashID=0x1 0x20 0x18
BBram_blkflag1: 42b0: bd4f
FW Ver: 1.30  
GPS00 Init Dop:   5000, 40
GPS01 Init Dop:   5000, 40
GPS02 Init Dop:   5000, 40
GPS03 Init Dop:   5000, 40
GPS04 Init Dop:   5000, 40
GPS05 Init Dop:   5000, 40
GPS06 Init Dop:   5000, 40
GPS07 Init Dop:   5000, 40
GPS08 Init Dop:   5000, 40
GPS09 Init Dop:   5000, 40
GPS10 Init Dop:   5000, 40
GPS11 Init Dop:   5000, 40
GPS12 Init Dop:   5000, 40
GPS13 Init Dop:   5000, 40
GPS14 Init Dop:   5000, 40
GPS15 Init Dop:   5000, 40
GPS16 Init Dop:   5000, 40
GPS17 Init Dop:   5000, 40
GPS18 Init Dop:   5000, 40
GPS19 Init Dop:   5000, 40
GPS20 Init Dop:   5000, 40
GPS21 Init Dop:   5000, 40
GPS22 Init Dop:   5000, 40
GPS23 Init Dop:   5000, 40
GPS24 Init Dop:   5000, 40
GPS25 Init Dop:   5000, 40
GPS26 Init Dop:   5000, 40
GPS27 Init Dop:   5000, 40
GPS28 Init Dop:   5000, 40
GPS29 Init Dop:   5000, 40
GPS30 Init Dop:   5000, 40
GPS31 Init Dop:   5000, 40
BDS00 Init Dop:   5000, 40
BDS01 Init Dop:   5000, 40
BDS02 Init Dop:   5000, 40
BDS03 Init Dop:   5000, 40
BDS04 Init Dop:   5000, 40
BDS05 Init Dop:   5000, 40
BDS06 Init Dop:   5000, 40
BDS07 Init Dop:   5000, 40
BDS08 Init Dop:   5000, 40
BDS09 Init Dop:   5000, 40
BDS10 Init Dop:   5000, 40
BDS11 Init Dop:   5000, 40
BDS12 Init Dop:   5000, 40
BDS13 Init Dop:   5000, 40
BDS14 Init Dop:   5000, 40
BDS15 Init Dop:   5000, 40
BDS16 Init Dop:   5000, 40
BDS17 Init Dop:   5000, 40
BDS18 Init Dop:   5000, 40
BDS19 Init Dop:   5000, 40
BDS20 Init Dop:   5000, 40
BDS21 Init Dop:   5000, 40
BDS22 Init Dop:   5000, 40
BDS23 Init Dop:   5000, 40
BDS24 Init Dop:   5000, 40
BDS25 Init Dop:   5000, 40
BDS26 Init Dop:   5000, 40
BDS27 Init Dop:   5000, 40
BDS28 Init Dop:   5000, 40
BDS29 Init Dop:   5000, 40
BDS30 Init Dop:   5000, 40
BDS31 Init Dop:   5000, 40
sat0 = 15343 1764 1291 -2500
ch0 satid=0,max_freq = -2500,max_mean = 1291,max_phase = 1764,max_value = 15343,acq ok1!
acq ok1 timeH = 0,timeL = 1488738,freq_stage = 4
sat1 = 6467 268 1970 2500
sat2 = 50052 572 2080 -1750
ch1 satid=2,max_freq = -1750,max_mean = 2080,max_phase = 572,max_value = 50052,acq ok1!
acq ok1 timeH = 0,timeL = 6034630,freq_stage = 4
sat3 = 4569 716 2052 4500
sat4 = 4795 919 2057 -1500
sat5 = 11613 1793 2049 1750
ch2 satid=5,max_freq = 1750,max_mean = 2049,max_phase = 1793,max_value = 11613,acq ok1!
acq ok1 timeH = 0,timeL = 11951970,freq_stage = 2
sat6 = 4479 269 2059 -4000
sat7 = 4713 1279 2004 4000
---00000001--- Acq_st=3 2019-5-25 08:37:43 
[00]  G01  1 25   2586.3 2045997.6 -0.1  0.0  1  0         0
[01]  G03  1 26   1745.3 2045999.1  0.0  0.0  1  0         0
[02]  G06  1  8  -1731.8 2046003.1  0.1  0.0  1  0         0
$GNGGA,000000.000,,,,,0,00,,,M,,,,0000*2B
$GNRMC,000000.000,A,,,,,,,000000,,*26
$GPGSA,A,1,,,,,,,,,,,,,,,*1E
$BDGSA,A,1,,,,,,,,,,,,,,,*0F
$LOGTIM,0,0.000000,0.000000,0.000000,0.000000,0.000*0A
EndT:        0
sat8 = 5026 547 2044 -2250
sat9 = 4847 1583 2046 -750
sat10 = 4912 868 2059 1000
sat11 = 4875 1071 2035 -1250
sat12 = 5023 1526 2068 250
sat13 = 4593 1675 2040 -2500
sat14 = 4628 1602 2005 1250
sat15 = 4749 1704 2009 2500
---00000002--- Acq_st=3 2019-5-25 08:37:44 
[00]  G01  7 29   2598.9 2045996.5  0.4  1.0  5  0        14
[01]  G03  7 25   1768.6 2045997.6  0.3  0.0 20  0        16
[02]  G06  1 28  -1766.5 2046002.1  0.3  0.0  1  0         2
$GNGGA,000000.000,,,,,0,00,,,M,,,,0000*2B
$GNRMC,000000.000,A,,,,,,,000000,,*26
$GPGSA,A,1,,,,,,,,,,,,,,,*1E
$BDGSA,A,1,,,,,,,,,,,,,,,*0F
$GPGSV,1,1,02,01,00,000,29,03,00,000,25*75
$LOGTIM,0,0.000000,0.000000,0.000000,0.000000,0.000*0A
EndT:        0
sat16 = 97302 1073 2065 1500
ch3 satid=16,max_freq = 1500,max_mean = 2065,max_phase = 1073,max_value = 97302,acq ok1!
acq ok1 timeH = 0,timeL = 36954408,freq_stage = 2
sat17 = 5281 1416 2051 1750
sat18 = 8072 1989 2088 2500
sat19 = 4564 182 2046 1750
sat20 = 5090 1863 2120 3250
sat21 = 31110 353 2091 -2750
ch4 satid=21,max_freq = -2750,max_mean = 2091,max_phase = 353,max_value = 31110,acq ok1!
acq ok1 timeH = 0,timeL = 49220666,freq_stage = 4
sat22 = 5534 193 2100 2750
sat23 = 5244 272 2109 -1250
sat24 = 5026 1497 2080 -2500
---00000003--- Acq_st=3 2019-5-25 08:37:45 
[00]  G01  7 39   2594.6 2045996.5  1.0  1.0  5  0         7
[01]  G03  7 42   1765.9 2045997.7  1.0  1.0  5  0        14
[02]  G06  7 36  -1770.4 2046002.3  0.9  0.9  5  0         2
[03]  G17  1 31  -1476.9 2046002.7 -0.2  0.0  1  0         0
[04]  G22  1  7   2679.0 2045996.8 -0.1  0.0  1  0         0
$GNGGA,000000.000,,,,,0,00,,,M,,,,0000*2B
$GNRMC,000000.000,A,,,,,,,000000,,*26
$GPGSA,A,1,,,,,,,,,,,,,,,*1E
$BDGSA,A,1,,,,,,,,,,,,,,,*0F
$GPGSV,1,1,03,01,00,000,39,03,00,000,42,06,00,000,36*47
$LOGTIM,0,0.000000,0.000000,0.000000,0.000000,0.000*0A
EndT:        0
sat25 = 4860 1266 2113 -2500
sat26 = 5088 268 2109 -1500
sat27 = 4794 1771 2075 -3000
sat28 = 4986 858 2082 -3000
sat29 = 5117 1635 2083 4750
sat30 = 4852 4 2085 -3750
sat31 = 5554 1466 2026 -2500
---00000004--- Acq_st=3 2019-5-25 08:37:46 
[00]  G01  7 38   2589.9 2045996.6  1.0  1.0  5  0         7
[01]  G03  7 42   1761.6 2045997.7  1.0  1.0  5  0        14
[02]  G06  7 36  -1773.7 2046002.3  1.0  1.0  5  0        15
[03]  G17  7 32  -1484.8 2046001.9  0.4  1.0  5  0         0
[04]  G22  7 16   2647.8 2045996.6  0.3  0.0 20  0         7
$GNGGA,000000.000,,,,,0,00,,,M,,,,0000*2B
$GNRMC,000000.000,A,,,,,,,000000,,*26
$GPGSA,A,1,,,,,,,,,,,,,,,*1E
$BDGSA,A,1,,,,,,,,,,,,,,,*0F
$GPGSV,2,1,05,01,00,000,38,03,00,000,42,06,00,000,36,17,00,000,32*74
$GPGSV,2,2,05,22,00,000,16*4B
$LOGTIM,0,0.000000,0.000000,0.000000,0.000000,0.000*0A
EndT:        0
sat37 = 1738 3529 781 -2750
sat38 = 2096 3875 822 -2500
sat39 = 1837 1202 792 -4500
sat40 = 2135 3184 808 1500
---00000005--- Acq_st=3 2019-5-25 08:37:47 
[00]  G01  7 38   2588.5 2045996.6  1.0  1.0  5  0         7
[01]  G03  7 42   1760.7 2045997.7  1.0  1.0  5  0        14
[02]  G06  7 36  -1774.7 2046002.4  1.0  1.0  5  0        15
[03]  G17  7 45  -1485.7 2046001.9  1.0  1.0  5  0        17
[04]  G22  7 41   2646.9 2045996.5  0.9  1.0  5  0         7
$GNGGA,000000.000,,,,,0,00,,,M,,,,0000*2B
$GNRMC,000000.000,A,,,,,,,000000,,*26
$GPGSA,A,1,,,,,,,,,,,,,,,*1E
$BDGSA,A,1,,,,,,,,,,,,,,,*0F
$GPGSV,2,1,05,01,00,000,38,03,00,000,42,06,00,000,36,17,00,000,45*74
$GPGSV,2,2,05,22,00,000,41*49
$LOGTIM,0,0.000000,0.000000,0.000000,0.000000,0.000*0A
EndT:        0
sat41 = 2334 1191 809 250
sat42 = 1842 1989 805 -500
sat43 = 1905 116 773 2500
sat44 = 1893 2579 794 3000
---00000006--- Acq_st=3 2019-5-25 08:37:48 
[00]  G01  7 38   2587.1 2045996.6  1.0  1.0  5  0         7
[01]  G03  7 41   1759.9 2045997.7  1.0  1.0  5  0        14
[02]  G06  7 36  -1776.3 2046002.4  1.0  1.0  5  0        15
[03]  G17  7 46  -1487.3 2046001.9  1.0  1.0  5  0        17
[04]  G22  7 41   2645.6 2045996.6  1.0  1.0  5  0         7
$GNGGA,000000.000,,,,,0,00,,,M,,,,0000*2B
$GNRMC,000000.000,A,,,,,,,000000,,*26
$GPGSA,A,1,,,,,,,,,,,,,,,*1E
$BDGSA,A,1,,,,,,,,,,,,,,,*0F
$GPGSV,2,1,05,01,00,000,38,03,00,000,41,06,00,000,36,17,00,000,46*74
$GPGSV,2,2,05,22,00,000,41*49
$LOGTIM,0,0.000000,0.000000,0.000000,0.000000,0.000*0A
EndT:        0
sat45 = 1924 1940 789 -3500
sat46 = 1967 2926 814 -1250
sat47 = 1811 3547 782 -3250
sat48 = 1763 266 801 3750
---00000007--- Acq_st=3 2019-5-25 08:37:49 
[00]  G01  f 38   2587.0 2045996.6  1.0  1.0  5  0         7
[01]  G03  f 42   1760.3 2045997.7  1.0  1.0  5  0        14
[02]  G06  f 37  -1776.1 2046002.3  1.0  1.0  5  0        15
[03]  G17  f 46  -1486.8 2046001.9  1.0  1.0  5  0        17
[04]  G22  f 41   2645.7 2045996.5  1.0  1.0  5  0         7
$GNGGA,000000.000,,,,,0,00,,,M,,,,0000*2B
$GNRMC,000000.000,A,,,,,,,000000,,*26
$GPGSA,A,1,,,,,,,,,,,,,,,*1E
$BDGSA,A,1,,,,,,,,,,,,,,,*0F
$GPGSV,2,1,05,01,00,000,38,03,00,000,42,06,00,000,37,17,00,000,46*76
$GPGSV,2,2,05,22,00,000,41*49
$LOGTIM,0,0.000000,0.000000,0.000000,0.000000,0.000*0A
EndT:        0
sat49 = 22254 411 807 250
ch16 satid=49,max_freq = 250,max_mean = 807,max_phase = 411,max_value = 22254,acq ok1!
acq ok1 timeH = 0,timeL = 136148986,freq_stage = 3
sat50 = 2162 3132 808 -1000
sat51 = 1803 342 802 -1000
---00000008--- Acq_st=3 2019-5-25 08:37:50 
[00]  G01  f 38   2588.7 2045996.7  1.0  1.0  5  0 549487827
[01]  G03  f 41   1762.4 2045997.7  1.0  1.0  5  0 549487834
[02]  G06  f 37  -1774.2 2046002.3  1.0  1.0  5  0 549487835
[03]  G17  f 46  -1485.2 2046001.9  1.0  1.0  5  0 549487837
[04]  G22  f 40   2647.5 2045996.6  1.0  1.0  5  0 549487827
[16]  B13  1  7   -255.5 4092001.2  0.1  0.0  1  0         0
$GNGGA,000000.000,,,,,0,00,,,M,,,,0000*2B
$GNRMC,000000.000,A,,,,,,,000000,,*26
$GPGSA,A,1,,,,,,,,,,,,,,,*1E
$BDGSA,A,1,,,,,,,,,,,,,,,*0F
$GPGSV,2,1,05,01,00,000,38,03,00,000,41,06,00,000,37,17,00,000,46*75
$GPGSV,2,2,05,22,00,000,40*48
$LOGTIM,0,0.000000,0.000000,0.000000,0.000000,0.000*0A
EndT:        0
sat52 = 1887 2252 825 -1000
sat53 = 1899 485 810 -4000
sat54 = 1795 750 807 -4500
sat55 = 1808 1251 799 4500
---00000009--- Acq_st=3 2019-5-25 08:37:51 
[00]  G01  f 38   2596.2 2045996.6  1.0  1.0  5  0 549488827
[01]  G03  f 41   1770.6 2045997.7  1.0  1.0  5  0 549488834
[02]  G06  f 38  -1766.3 2046002.3  1.0  1.0  5  0 549488835
[03]  G17  f 46  -1477.5 2046001.9  1.0  1.0  5  0 549488837
[04]  G22  f 41   2654.5 2045996.6  1.0  1.0  5  0 549488827
[16]  B13  7 27   -248.8 4092000.6  0.6  0.0 10  0       748
$GNGGA,000000.000,,,,,0,00,,,M,,,,0000*2B
$GNRMC,000000.000,A,,,,,,,000000,,*26
$GPGSA,A,1,,,,,,,,,,,,,,,*1E
$BDGSA,A,1,,,,,,,,,,,,,,,*0F
$GPGSV,2,1,05,01,00,000,38,03,00,000,41,06,00,000,38,17,00,000,46*7A
$GPGSV,2,2,05,22,00,000,41*49
$BDGSV,1,1,01,13,00,000,27*5E
$LOGTIM,0,0.000000,0.000000,0.000000,0.000000,0.000*0A
EndT:        0
sat56 = 1838 3022 803 -1000
sat57 = 1985 672 786 2000
sat58 = 1788 2650 786 4250
sat59 = 1874 3362 805 3000
---00000010--- Acq_st=3 2019-5-25 08:37:52 
[00]  G01  f 38   2596.2 2045996.6  1.0  1.0  5  0 549489827
[01]  G03  f 41   1771.7 2045997.7  1.0  1.0  5  0 549489834
[02]  G06  f 38  -1765.6 2046002.4  1.0  1.0  5  0 549489835
[03]  G17  f 46  -1477.4 2046001.9  1.0  1.0  5  0 549489837
[04]  G22  f 40   2655.6 2045996.6  1.0  1.0  5  0 549489827
[16]  B13  7 44   -248.3 4092000.7  0.9  1.0  5  0      1742
$GNGGA,000000.000,,,,,0,00,,,M,,,,0000*2B
$GNRMC,000000.000,A,,,,,,,000000,,*26
$GPGSA,A,1,,,,,,,,,,,,,,,*1E
$BDGSA,A,1,,,,,,,,,,,,,,,*0F
$GPGSV,2,1,05,01,00,000,38,03,00,000,41,06,00,000,38,17,00,000,46*7A
$GPGSV,2,2,05,22,00,000,40*48
$BDGSV,1,1,01,13,00,000,44*5B
$LOGTIM,0,0.000000,0.000000,0.000000,0.000000,0.000*0A
EndT:        0
sat60 = 1858 215 793 -2750
sat61 = 1954 3721 795 2500
sat62 = 2020 2329 799 -2000
sat63 = 10960 665 803 2500
ch17 satid=63,max_freq = 2500,max_mean = 803,max_phase = 665,max_value = 10960,acq ok1!
acq ok1 timeH = 0,timeL = 206562456,freq_stage = 2
---00000011--- Acq_st=3 2019-5-25 08:37:53 
[00]  G01  f 37   2597.0 2045996.6  1.0  1.0  5  0 549490827
[01]  G03  f 42   1772.9 2045997.7  1.0  1.0  5  0 549490834
[02]  G06  f 38  -1763.9 2046002.3  1.0  1.0  5  0 549490835
[03]  G17  f 46  -1475.8 2046001.9  1.0  1.0  5  0 549490837
[04]  G22  f 41   2657.3 2045996.5  1.0  1.0  5  0 549490827
[16]  B13  7 43   -246.9 4092000.6  1.0  1.0  5  0      2742
[17]  B27  1  0  10298.1 4092006.0  0.0  0.0  1  0         0
$GNGGA,000000.000,,,,,0,00,,,M,,,,0000*2B
$GNRMC,000000.000,A,,,,,,,000000,,*26
$GPGSA,A,1,,,,,,,,,,,,,,,*1E
$BDGSA,A,1,,,,,,,,,,,,,,,*0F
$GPGSV,2,1,05,01,00,000,37,03,00,000,42,06,00,000,38,17,00,000,46*76
$GPGSV,2,2,05,22,00,000,41*49
$BDGSV,1,1,01,13,00,000,43*5C
$LOGTIM,0,0.000000,0.000000,0.000000,0.000000,0.000*0A
EndT:        0
sat64 = 18625 1447 816 1500
ch18 satid=64,max_freq = 1500,max_mean = 816,max_phase = 1447,max_value = 18625,acq ok1!
acq ok1 timeH = 0,timeL = 212172909,freq_stage = 2
sat65 = 2051 2980 812 1250
sat66 = 1915 2423 800 1250
---00000012--- Acq_st=3 2019-5-25 08:37:54 
[00]  G01  f 37   2599.0 2045996.6  1.0  1.0  5  0 549491827
[01]  G03  f 41   1775.3 2045997.7  1.0  1.0  5  0 549491834
[02]  G06  f 39  -1762.8 2046002.3  1.0  1.0  5  0 549491835
[03]  G17  f 46  -1474.2 2046001.9  1.0  1.0  5  0 549491837
[04]  G22  f 41   2658.9 2045996.5  1.0  1.0  5  0 549491827
[16]  B13  7 43   -245.5 4092000.6  1.0  1.0  5  0      3742
[17]  B27  1  7  -2444.0 4092006.6  0.2  0.0  1  0        28
[18]  B28  1  7  -1414.4 4092004.4  0.1  0.0  1  0         0
$GNGGA,000000.000,,,,,0,00,,,M,,,,0000*2B
$GNRMC,000000.000,A,,,,,,,000000,,*26
$GPGSA,A,1,,,,,,,,,,,,,,,*1E
$BDGSA,A,1,,,,,,,,,,,,,,,*0F
$GPGSV,2,1,05,01,00,000,37,03,00,000,41,06,00,000,39,17,00,000,46*74
$GPGSV,2,2,05,22,00,000,41*49
$BDGSV,1,1,01,13,00,000,43*5C
$LOGTIM,0,0.000000,0.000000,0.000000,0.000000,0.000*0A
EndT:        0
sat67 = 1816 1835 800 2250
sat68 = 1951 3146 811 -1000
---00000013--- Acq_st=7 2019-5-25 08:37:55 
[00]  G01  f 37   2602.6 2045996.6  1.0  1.0  5  0 549492827
[01]  G03  f 41   1780.1 2045997.7  1.0  1.0  5  0 549492834
[02]  G06  f 38  -1757.5 2046002.3  1.0  1.0  5  0 549492835
[03]  G17  f 46  -1469.5 2046001.9  1.0  1.0  5  0 549492837
[04]  G22  f 41   2663.8 2045996.5  1.0  1.0  5  0 549492827
[16]  B13  7 43   -241.0 4092000.6  1.0  1.0  5  0      4742
[17]  B27  7 32  -2439.7 4092006.4  0.7  1.0  5  0      1028
[18]  B28  7 27  -1409.2 4092003.7  0.6  0.0 10  0       762
$GNGGA,000000.000,,,,,0,00,,,M,,,,0000*2B
$GNRMC,000000.000,A,,,,,,,000000,,*26
$GPGSA,A,1,,,,,,,,,,,,,,,*1E
$BDGSA,A,1,,,,,,,,,,,,,,,*0F
$GPGSV,2,1,05,01,00,000,37,03,00,000,41,06,00,000,38,17,00,000,46*75
$GPGSV,2,2,05,22,00,000,41*49
$BDGSV,1,1,03,13,00,000,43,27,00,000,32,28,00,000,27*55
$LOGTIM,0,0.000000,0.000000,0.000000,0.000000,0.000*0A
EndT:        0
sat1 = 5353 1039 2032 -1750
sat3 = 5043 1137 2082 3000
sat4 = 5038 1268 2086 4750
sat6 = 5399 1963 2125 -4750
sat7 = 4863 1006 1972 -4750
sat8 = 4751 1773 2027 -2250
sat9 = 4894 439 2075 -500
sat10 = 5359 958 2119 -2250
---00000014--- Acq_st=3 2019-5-25 08:37:56 
[00]  G01  f 37   2601.7 2045996.7  1.0  1.0  5  0 549493827
[01]  G03  f 41   1779.2 2045997.7  1.0  1.0  5  0 549493834
[02]  G06  f 38  -1759.0 2046002.2  1.0  1.0  5  0 549493835
[03]  G17  f 46  -1470.8 2046001.9  1.0  1.0  5  0 549493837
[04]  G22  f 41   2662.7 2045996.5  1.0  1.0  5  0 549493827
[16]  B13  7 43   -242.3 4092000.6  1.0  1.0  5  0      5742
[17]  B27  7 40  -2440.6 4092006.4  1.0  1.0  5  0      2020
[18]  B28  7 43  -1410.5 4092003.7  1.0  1.0  5  0      1752
$GNGGA,000000.000,,,,,0,00,,,M,,,,0000*2B
$GNRMC,000000.000,A,,,,,,,000000,,*26
$GPGSA,A,1,,,,,,,,,,,,,,,*1E
$BDGSA,A,1,,,,,,,,,,,,,,,*0F
$GPGSV,2,1,05,01,00,000,37,03,00,000,41,06,00,000,38,17,00,000,46*75
$GPGSV,2,2,05,22,00,000,41*49
$BDGSV,1,1,03,13,00,000,43,27,00,000,40,28,00,000,43*52
$LOGTIM,0,0.000000,0.000000,0.000000,0.000000,0.000*0A
EndT:        0
sat11 = 5554 1496 2128 250
sat12 = 5162 1524 2104 -4000
sat13 = 5078 1736 2141 -250
sat14 = 5325 1986 2125 -1500
sat15 = 4844 1847 2106 5000
sat17 = 5439 589 2088 2500
sat18 = 7986 1573 2090 2250
sat19 = 4863 1768 2062 2500
---00000015--- Acq_st=3 2019-5-25 08:37:57 
[00]  G01  f 38   2598.9 2045996.7  1.0  1.0  5  0 549494827
[01]  G03  f 42   1776.9 2045997.7  1.0  1.0  5  0 549494834
[02]  G06  f 38  -1761.1 2046002.3  1.0  1.0  5  0 549494835
[03]  G17  f 47  -1472.9 2046001.9  1.0  1.0  5  0 549494837
[04]  G22  f 41   2660.0 2045996.6  1.0  1.0  5  0 549494827
[16]  B13 1f 44   -245.0 4092000.6  1.0  1.0  5  0      6742
[17]  B27 1f 40  -2443.8 4092006.4  1.0  1.0  5  0      3020
[18]  B28 1f 43  -1412.8 4092003.6  1.0  1.0  5  0      2752
sat20 = 4956 1587 2089 -4750
$GNGGA,000000.000,,,,,0,00,,,M,,,,0000*2B
$GNRMC,000000.000,A,,,,,,,000000,,*26
$GPGSA,A,1,,,,,,,,,,,,,,,*1E
$BDGSA,A,1,,,,,,,,,,,,,,,*0F
$GPGSV,2,1,05,01,00,000,38,03,00,000,42,06,00,000,38,17,00,000,47*78
$GPGSV,2,2,05,22,00,000,41*49
$BDGSV,1,1,03,13,00,000,44,27,00,000,40,28,00,000,43*55
$LOGTIM,0,0.000000,0.000000,0.000000,0.000000,0.000*0A
EndT:        0
sat22 = 5051 1604 2128 -3500
sat23 = 4915 526 2162 -1500
sat24 = 5032 183 2090 -3250
sat25 = 5254 146 2123 -4750
sat26 = 4837 1356 2105 -1750
sat27 = 6370 715 2079 -4250
sat28 = 5601 1786 2091 -2250
sat29 = 5123 2008 2087 -4750
---00000016--- Acq_st=3 2019-5-25 08:37:58 
[00]  G01  f 38   2598.1 2045996.6  1.0  1.0  5  0 549495827
[01]  G03  f 42   1776.5 2045997.7  1.0  1.0  5  0 549495834
[02]  G06  f 39  -1761.9 2046002.3  1.0  1.0  5  0 549495835
[03]  G17  f 47  -1473.9 2046001.9  1.0  1.0  5  0 549495837
[04]  G22  f 40   2659.6 2045996.6  1.0  0.9  5  0 549495827
[16]  B13 1f 43   -246.3 4092000.6  1.0  1.0  5  0 549481782
[17]  B27 1f 40  -2445.0 4092006.4  1.0  1.0  5  0 549481820
[18]  B28 1f 44  -1413.7 4092003.7  1.0  1.0  5  0 549481832
$GNGGA,000000.000,,,,,0,00,,,M,,,,0000*2B
$GNRMC,000000.000,A,,,,,,,000000,,*26
$GPGSA,A,1,,,,,,,,,,,,,,,*1E
$BDGSA,A,1,,,,,,,,,,,,,,,*0F
$GPGSV,2,1,05,01,00,000,38,03,00,000,42,06,00,000,39,17,00,000,47*79
$GPGSV,2,2,05,22,00,000,40*48
$BDGSV,1,1,03,13,00,000,43,27,00,000,40,28,00,000,44*55
$LOGTIM,0,0.000000,0.000000,0.000000,0.000000,0.000*0A
EndT:        0
sat30 = 5298 291 2125 4500
sat31 = 5520 183 2122 1750
sat37 = 1924 9 793 4000
sat38 = 1982 4002 819 -4000
---00000017--- Acq_st=3 2019-5-25 08:37:59 
[00]  G01  f 37   2597.4 2045996.6  1.0  1.0  5  0 549496827
[01]  G03  f 42   1776.8 2045997.7  1.0  1.0  5  0 549496834
[02]  G06  f 39  -1761.9 2046002.3  1.0  1.0  5  0 549496835
[03]  G17  f 47  -1474.3 2046001.9  1.0  1.0  5  0 549496837
[04]  G22  f 40   2659.5 2045996.6  1.0  1.0  5  0 549496827
[16]  B13 1f 43   -246.5 4092000.6  1.0  1.0  5  0 549482782
[17]  B27 1f 40  -2445.4 4092006.4  1.0  1.0  5  0 549482820
[18]  B28 1f 44  -1414.3 4092003.7  1.0  1.0  5  0 549482832
sat39 = 1856 3601 797 -4750
$GNGGA,000000.000,,,,,0,00,,,M,,,,0000*2B
$GNRMC,000000.000,A,,,,,,,000000,,*26
$GPGSA,A,1,,,,,,,,,,,,,,,*1E
$BDGSA,A,1,,,,,,,,,,,,,,,*0F
$GPGSV,2,1,05,01,00,000,37,03,00,000,42,06,00,000,39,17,00,000,47*76
$GPGSV,2,2,05,22,00,000,40*48
$BDGSV,1,1,03,13,00,000,43,27,00,000,40,28,00,000,44*55
$LOGTIM,0,0.000000,0.000000,0.000000,0.000000,0.000*0A
EndT:        0
sat40 = 1958 3399 805 -2250
sat41 = 2069 1989 814 250
sat42 = 1941 3646 809 3500
---00000018--- Acq_st=3 2019-5-25 08:38:0 
[00]  G01  f 38   2592.2 2045996.6  1.0  1.0  5  0 549497827
[01]  G03  f 42   1772.2 2045997.7  1.0  1.0  5  0 549497834
[02]  G06  f 39  -1767.1 2046002.3  1.0  1.0  5  0 549497835
[03]  G17  f 47  -1479.2 2046001.9  1.0  1.0  5  0 549497837
[04]  G22  f 40   2654.6 2045996.6  1.0  1.0  5  0 549497827
[16]  B13 1f 43   -251.9 4092000.6  1.0  1.0  5  0 549483782
[17]  B27 1f 40  -2450.6 4092006.4  1.0  1.0  5  0 549483820
[18]  B28 1f 44  -1419.3 4092003.7  1.0  1.0  5  0 549483832
$GNGGA,000000.000,,,,,0,00,,,M,,,,0000*2B
$GNRMC,000000.000,A,,,,,,,000000,,*26
$GPGSA,A,1,,,,,,,,,,,,,,,*1E
$BDGSA,A,1,,,,,,,,,,,,,,,*0F
$GPGSV,2,1,05,01,00,000,38,03,00,000,42,06,00,000,39,17,00,000,47*79
$GPGSV,2,2,05,22,00,000,40*48
$BDGSV,1,1,03,13,00,000,43,27,00,000,40,28,00,000,44*55
$LOGTIM,0,0.000000,0.000000,0.000000,0.000000,0.000*0A
EndT:        0
sat43 = 1781 2626 781 3000
sat44 = 1983 146 807 1750
sat45 = 2017 2842 795 4250
sat46 = 1785 1372 804 4250
