FlashID=0x1 0x20 0x18
BBram_blkflag1: 41b3: be4c
FW Ver: 1.30  
GPS00 Init Dop:  -5000, 41
GPS01 Init Dop:  -5000, 41
GPS02 Init Dop:  -5000, 41
GPS03 Init Dop:  -5000, 41
GPS04 Init Dop:  -5000, 41
GPS05 Init Dop:  -5000, 41
GPS06 Init Dop:  -5000, 41
GPS07 Init Dop:  -5000, 41
GPS08 Init Dop:  -5000, 41
GPS09 Init Dop:  -5000, 41
GPS10 Init Dop:  -5000, 41
GPS11 Init Dop:  -5000, 41
GPS12 Init Dop:  -5000, 41
GPS13 Init Dop:  -5000, 41
GPS14 Init Dop:  -5000, 41
GPS15 Init Dop:  -5000, 41
GPS16 Init Dop:  -5000, 41
GPS17 Init Dop:  -5000, 41
GPS18 Init Dop:  -5000, 41
GPS19 Init Dop:  -5000, 41
GPS20 Init Dop:  -5000, 41
GPS21 Init Dop:  -5000, 41
GPS22 Init Dop:  -5000, 41
GPS23 Init Dop:  -5000, 41
GPS24 Init Dop:  -5000, 41
GPS25 Init Dop:  -5000, 41
GPS26 Init Dop:  -5000, 41
GPS27 Init Dop:  -5000, 41
GPS28 Init Dop:  -5000, 41
GPS29 Init Dop:  -5000, 41
GPS30 Init Dop:  -5000, 41
GPS31 Init Dop:  -5000, 41
BDS00 Init Dop:  -5000, 41
BDS01 Init Dop:  -5000, 41
BDS02 Init Dop:  -5000, 41
BDS03 Init Dop:  -5000, 41
BDS04 Init Dop:  -5000, 41
BDS05 Init Dop:  -5000, 41
BDS06 Init Dop:  -5000, 41
BDS07 Init Dop:  -5000, 41
BDS08 Init Dop:  -5000, 41
BDS09 Init Dop:  -5000, 41
BDS10 Init Dop:  -5000, 41
BDS11 Init Dop:  -5000, 41
BDS12 Init Dop:  -5000, 41
BDS13 Init Dop:  -5000, 41
---00000001--- Acq_st=3 2019-10-4 07:36:31 
[00]  G01  1 13   7250.4 2045990.9  0.1  0.0  1  0         0
---00000002--- Acq_st=3 2019-10-4 07:36:32 
[00]  G01  1 14   7184.9 2045990.6 -0.1  0.0  1  0         0
[01]  G18  1  7   8025.4 2045990.1 -0.0  0.0  1  0         0
$GNGGA,000000.000,,,,,0,00,,,M,,,,0000*2B
$GNRMC,000000.000,A,,,,,,,000000,,*26
$GPGSA,A,1,,,,,,,,,,,,,,,*1E
$BDGSA,A,1,,,,,,,,,,,,,,,*0F
$LOGTIM,0,0.000000,0.000000,0.000000,0.000000,0.000*0A
---00000003--- Acq_st=3 2019-10-4 07:36:33 
[00]  G01  1  7   7149.1 2045991.2 -0.0  0.0  1  0         8
[01]  G18  1  7   8113.8 2045990.0 -0.1  0.0  1  0        18
---00000004--- Acq_st=3 2019-10-4 07:36:34 
[01]  G18  1 10   8175.0 2045990.7  0.0  0.0  1  0        18
$GNGGA,000000.000,,,,,0,00,,,M,,,,0000*2B
$GNRMC,000000.000,A,,,,,,,000000,,*26
$GPGSA,A,1,,,,,,,,,,,,,,,*1E
$BDGSA,A,1,,,,,,,,,,,,,,,*0F
$LOGTIM,0,0.000000,0.000000,0.000000,0.000000,0.000*0A
---00000005--- Acq_st=7 2019-10-4 07:36:35 
---00000006--- Acq_st=7 2019-10-4 07:36:36 
$GNGGA,000000.000,,,,,0,00,,,M,,,,0000*2B
$GNRMC,000000.000,A,,,,,,,000000,,*26
$GPGSA,A,1,,,,,,,,,,,,,,,*1E
$BDGSA,A,1,,,,,,,,,,,,,,,*0F
$LOGTIM,0,0.000000,0.000000,0.000000,0.000000,0.000*0A
---00000007--- Acq_st=7 2019-10-4 07:36:37 
---00000008--- Acq_st=3 2019-10-4 07:36:38 
[00]  G01  1 30   2278.0 2045997.2  0.1  0.0  1  0         8
[01]  G11  1  7   2312.1 2045999.3 -0.0  0.0  1  0        18
$GNGGA,000000.000,,,,,0,00,,,M,,,,0000*2B
$GNRMC,000000.000,A,,,,,,,000000,,*26
$GPGSA,A,1,,,,,,,,,,,,,,,*1E
$BDGSA,A,1,,,,,,,,,,,,,,,*0F
$LOGTIM,0,0.000000,0.000000,0.000000,0.000000,0.000*0A
---00000009--- Acq_st=3 2019-10-4 07:36:39 
[00]  G01  7 30   2273.0 2045996.9  0.5  1.0  5  0         5
[01]  G11  1 28   2047.1 2045997.8  0.0  0.0  1  0        10
[02]  G17  1 21  -1833.1 2046002.9 -0.1  0.0  1  0         0
[03]  G18  1 25   3011.6 2045996.2  0.2  0.0  1  0         0
[04]  G19  1  7  -2687.2 2046005.6 -0.1  0.0  1  0         0
[05]  G22  1 14    482.7 2046001.2 -0.0  0.0  1  0         0
---00000010--- Acq_st=3 2019-10-4 07:36:40 
[00]  G01  7 41   2271.5 2045996.9  1.0  1.0  5  0         5
[01]  G11  7 31   2046.6 2045997.2  0.1  1.0  5  0        10
[02]  G17  7 24  -1841.3 2046002.3  0.1  0.0 20  0         0
[03]  G18  7 23   3006.8 2045996.0  0.2  0.0 20  0         0
[04]  G19  7 21  -2637.4 2046003.4  0.1  0.0 20  0         0
[05]  G22  1 28    451.3 2045999.5  0.2  0.0  1  0         0
[06]  G28  1 24  -1572.4 2046003.3 -0.2  0.0  1  0         0
$GNGGA,000000.000,,,,,0,00,,,M,,,,0000*2B
$GNRMC,000000.000,A,,,,,,,000000,,*26
$GPGSA,A,1,,,,,,,,,,,,,,,*1E
$BDGSA,A,1,,,,,,,,,,,,,,,*0F
$GPGSV,2,1,05,01,00,000,41,11,00,000,31,17,00,000,24,18,00,000,23*71
$GPGSV,2,2,05,19,00,000,21*47
$LOGTIM,0,0.000000,0.000000,0.000000,0.000000,0.000*0A
---00000011--- Acq_st=3 2019-10-4 07:36:41 
[00]  G01  7 40   2272.2 2045997.0  1.0  1.0  5  0        10
[01]  G11  7 35   2047.1 2045997.2  1.0  1.0  5  0         8
[02]  G17  7 46  -1840.7 2046002.4  1.0  1.0  5  0         7
[03]  G18  7 43   3007.4 2045996.1  1.0  1.0  5  0         4
[04]  G19  7 40  -2636.9 2046003.4  1.0  1.0  5  0         3
[05]  G22  7 37    453.4 2045999.3  0.9  1.0  5  0         8
[06]  G28  7 27  -1554.0 2046002.0  0.3  1.0 10  0        11
[16]  B08  1  7    -35.2 4091999.8  0.0  0.0  1  0         0
---00000012--- Acq_st=7 2019-10-4 07:36:42 
[00]  G01  f 41   2271.4 2045997.0  1.0  1.0  5  0        10
[01]  G11  f 36   2046.3 2045997.3  1.0  1.0  5  0         8
[02]  G17  f 47  -1841.8 2046002.4  1.0  1.0  5  0         7
[03]  G18  f 43   3006.0 2045996.1  1.0  1.0  5  0         4
[04]  G19  f 40  -2638.0 2046003.4  1.0  1.0  5  0         3
[05]  G22  f 39    452.0 2045999.4  1.0  1.0  5  0         8
[06]  G28  7 37  -1554.7 2046002.0  0.9  1.0  5  0        11
[16]  B08  7  7    -57.6 4092000.1  0.2  0.0 20  0         0
[17]  B10  1  7   -165.1 4092000.8  0.0  0.0  1  0         0
[18]  B12  1  7   -583.9 4092001.3 -0.2  0.0  1  0         0
[19]  B13  1  7   -459.5 4092001.3  0.1  0.0  1  0         0
$GNGGA,000000.000,,,,,0,00,,,M,,,,0000*2B
$GNRMC,000000.000,A,,,,,,,000000,,*26
$GPGSA,A,1,,,,,,,,,,,,,,,*1E
$BDGSA,A,1,,,,,,,,,,,,,,,*0F
$GPGSV,2,1,07,01,00,000,41,11,00,000,36,17,00,000,47,18,00,000,43*77
$GPGSV,2,2,07,19,00,000,40,22,00,000,39,28,00,000,37*46
$LOGTIM,0,0.000000,0.000000,0.000000,0.000000,0.000*0A
---00000013--- Acq_st=7 2019-10-4 07:36:43 
[00]  G01  f 40   2272.3 2045997.0  1.0  1.0  5  0 113815930
[01]  G11  f 37   2047.0 2045997.3  1.0  0.9  5  0 113815928
[02]  G17  f 47  -1841.6 2046002.4  1.0  1.0  5  0 113815927
[03]  G18  f 43   3006.7 2045996.0  1.0  1.0  5  0 113815924
[04]  G19  f 40  -2637.4 2046003.4  1.0  1.0  5  0 113815923
[05]  G22  f 38    453.6 2045999.4  1.0  1.0  5  0 113815928
[06]  G28  7 36  -1553.9 2046002.1  1.0  1.0  5  0        13
[16]  B08  7 40    -56.9 4092000.2  1.0  1.0  5  0      1341
[17]  B10  7 29   -164.0 4092000.4  0.2  0.9  5  0      1015
[18]  B12  7 25   -577.8 4092001.6  0.3  0.0 20  0       679
[19]  B13  7 23   -440.9 4092001.2  0.3  0.0 20  0       593
---00000014--- Acq_st=3 2019-10-4 07:36:44 
[00]  G01  f 40   2274.4 2045997.1  1.0  1.0  5  0 113815930
[01]  G11  f 37   2048.3 2045997.3  1.0  1.0  5  0 113815928
[02]  G17  f 47  -1839.8 2046002.4  1.0  1.0  5  0 113815927
[03]  G18  f 43   3008.4 2045996.1  1.0  1.0  5  0 113815924
[04]  G19  f 40  -2636.0 2046003.4  1.0  1.0  5  0 113815923
[05]  G22  f 39    455.5 2045999.4  1.0  1.0  5  0 113815928
[06]  G28  7 36  -1551.1 2046002.0  1.0  1.0  5  0        13
[16]  B08 1f 40    -55.7 4092000.1  1.0  1.0  5  0      1341
[17]  B10  7 34   -161.7 4092000.4  1.0  0.9  5  0      1015
[18]  B12  7 37   -576.8 4092001.5  0.9  1.0  5  0       679
[19]  B13  7 39   -439.5 4092001.1  1.0  1.0  5  0       593
$GNGGA,000000.000,,,,,0,00,,,M,,,,0000*2B
$GNRMC,000000.000,A,,,,,,,000000,,*26
$GPGSA,A,1,,,,,,,,,,,,,,,*1E
$BDGSA,A,1,,,,,,,,,,,,,,,*0F
$GPGSV,2,1,07,01,00,000,40,11,00,000,37,17,00,000,47,18,00,000,43*77
$GPGSV,2,2,07,19,00,000,40,22,00,000,39,28,00,000,36*47
$BDGSV,1,1,04,08,00,000,40,10,00,000,34,12,00,000,37,13,00,000,39*69
$LOGTIM,0,0.000000,0.000000,0.000000,0.000000,0.000*0A
---00000015--- Acq_st=3 2019-10-4 07:36:45 
[00]  G01  f 39   2274.0 2045997.0  1.0  1.0  5  0 113817930
[01]  G11  f 36   2047.1 2045997.3  1.0  1.0  5  0 113817928
[02]  G17  f 47  -1840.7 2046002.4  1.0  1.0  5  0 113817927
[03]  G18  f 43   3007.5 2045996.1  1.0  1.0  5  0 113817924
[04]  G19  f 41  -2636.8 2046003.4  1.0  1.0  5  0 113817923
[05]  G22  f 39    455.4 2045999.4  1.0  1.0  5  0 113817928
[06]  G28  7 36  -1552.6 2046002.1  1.0  1.0  5  0        13
[16]  B08 1f 40    -56.3 4092000.1  1.0  1.0  5  0 113803881
[17]  B10  7 35   -163.4 4092000.4  1.0  0.9  5  0      3001
[18]  B12  7 38   -577.0 4092001.6  1.0  0.9  5  0      2668
[19]  B13  7 40   -440.2 4092001.2  1.0  1.0  5  0      2576
---00000016--- Acq_st=3 2019-10-4 07:36:46 
[00]  G01  f 39   2273.4 2045997.0  1.0  1.0  5  0 113817930
[01]  G11  f 37   2047.6 2045997.3  1.0  0.9  5  0 113817928
[02]  G17  f 47  -1840.6 2046002.4  1.0  1.0  5  0 113817927
[03]  G18  f 42   3007.6 2045996.1  1.0  1.0  5  0 113817924
[04]  G19  f 41  -2636.6 2046003.4  1.0  1.0  5  0 113817923
[05]  G22  f 39    455.8 2045999.4  1.0  1.0  5  0 113817928
[06]  G28  7 37  -1552.6 2046002.0  1.0  1.0  5  0        13
[16]  B08 1f 40    -56.5 4092000.2  1.0  1.0  5  0 113803881
[17]  B10  7 35   -162.4 4092000.4  1.0  0.9  5  0      3001
[18]  B12  7 38   -577.0 4092001.5  1.0  1.0  5  0      2668
[19]  B13  7 39   -439.9 4092001.1  1.0  1.0  5  0      2576
$GNGGA,000000.000,,,,,0,00,,,M,,,,0000*2B
$GNRMC,000000.000,A,,,,,,,000000,,*26
$GPGSA,A,1,,,,,,,,,,,,,,,*1E
$BDGSA,A,1,,,,,,,,,,,,,,,*0F
$GPGSV,2,1,07,01,00,000,39,11,00,000,37,17,00,000,47,18,00,000,42*78
$GPGSV,2,2,07,19,00,000,41,22,00,000,39,28,00,000,37*47
$BDGSV,1,1,04,08,00,000,40,10,00,000,35,12,00,000,38,13,00,000,39*67
$LOGTIM,0,0.000000,0.000000,0.000000,0.000000,0.000*0A
---00000017--- Acq_st=7 2019-10-4 07:36:47 
[00]  G01  f 39   2273.8 2045997.0  1.0  1.0  5  0 113819930
[01]  G11  f 37   2047.2 2045997.3  1.0  1.0  5  0 113819928
[02]  G17  f 46  -1840.5 2046002.4  1.0  1.0  5  0 113819927
[03]  G18  f 43   3007.8 2045996.1  1.0  1.0  5  0 113819924
[04]  G19  f 40  -2636.5 2046003.4  1.0  1.0  5  0 113819923
[05]  G22  f 39    456.6 2045999.4  1.0  1.0  5  0 113819928
[06]  G28  7 37  -1551.6 2046002.1  1.0  0.9  5  0        13
[16]  B08 1f 41    -56.4 4092000.2  1.0  1.0  5  0 113805881
[17]  B10  7 35   -162.6 4092000.5  1.0  1.0  5  0      5001
[18]  B12  7 38   -577.4 4092001.5  1.0  0.9  5  0      4668
[19]  B13  7 40   -440.0 4092001.2  1.0  1.0  5  0      4576
---00000018--- Acq_st=7 2019-10-4 07:36:48 
[00]  G01  f 39   2276.3 2045997.1  1.0  1.0  5  0 113819930
[01]  G11  f 37   2049.8 2045997.4  1.0  1.0  5  0 113819928
[02]  G17  f 46  -1838.5 2046002.4  1.0  1.0  5  0 113819927
[03]  G18  f 43   3010.3 2045996.1  1.0  1.0  5  0 113819924
[04]  G19  f 41  -2634.3 2046003.4  1.0  1.0  5  0 113819923
[05]  G22  f 40    459.1 2045999.4  1.0  1.0  5  0 113819928
[06]  G28  f 38  -1548.6 2046002.0  1.0  1.0  5  0        13
[16]  B08 1f 41    -54.2 4092000.1  1.0  1.0  5  0 113805881
[17]  B10  7 35   -160.1 4092000.3  1.0  0.9  5  0      5001
[18]  B12  7 39   -574.8 4092001.5  1.0  1.0  5  0      4668
[19]  B13  7 40   -437.8 4092001.1  1.0  0.9  5  0      4576
$GNGGA,000000.000,,,,,0,00,,,M,,,,0000*2B
$GNRMC,000000.000,A,,,,,,,000000,,*26
$GPGSA,A,1,,,,,,,,,,,,,,,*1E
$BDGSA,A,1,,,,,,,,,,,,,,,*0F
$GPGSV,2,1,07,01,00,000,39,11,00,000,37,17,00,000,46,18,00,000,43*78
$GPGSV,2,2,07,19,00,000,41,22,00,000,40,28,00,000,38*46
$BDGSV,1,1,04,08,00,000,41,10,00,000,35,12,00,000,39,13,00,000,40*69
$LOGTIM,0,0.000000,0.000000,0.000000,0.000000,0.000*0A
---00000019--- Acq_st=7 2019-10-4 07:36:49 
[00]  G01  f 40   2276.4 2045997.0  1.0  1.0  5  0 113821930
[01]  G11  f 36   2050.3 2045997.4  1.0  0.9  5  0 113821928
[02]  G17  f 46  -1838.7 2046002.4  1.0  1.0  5  0 113821927
[03]  G18  f 43   3009.3 2045996.1  1.0  1.0  5  0 113821924
[04]  G19  f 41  -2635.0 2046003.4  1.0  1.0  5  0 113821923
[05]  G22  f 40    459.4 2045999.4  1.0  1.0  5  0 113821928
[06]  G28  f 39  -1548.5 2046002.0  1.0  1.0  5  0 113821933
[16]  B08 1f 41    -54.6 4092000.1  1.0  1.0  5  0 113807881
[17]  B10  7 35   -160.7 4092000.4  1.0  0.9  5  0      7001
[18]  B12  7 38   -574.8 4092001.5  1.0  1.0  5  0      6668
[19]  B13  7 40   -438.0 4092001.1  1.0  1.0  5  0      6576
---00000020--- Acq_st=3 2019-10-4 07:36:50 
[00]  G01  f 40   2280.3 2045997.1  1.0  1.0  5  0 113821930
[01]  G11  f 37   2053.5 2045997.3  1.0  1.0  5  0 113821928
[02]  G17  f 46  -1835.3 2046002.4  1.0  1.0  5  0 113821927
[03]  G18  f 43   3013.2 2045996.1  1.0  1.0  5  0 113821924
[04]  G19  f 40  -2631.2 2046003.4  1.0  1.0  5  0 113821923
[05]  G22  f 40    463.5 2045999.4  1.0  1.0  5  0 113821928
[06]  G28  f 38  -1545.1 2046002.0  1.0  1.0  5  0 113821933
[16]  B08 1f 41    -51.2 4092000.1  1.0  1.0  5  0 113807881
[17]  B10 1f 35   -156.8 4092000.4  1.0  1.0  5  0      7001
[18]  B12 1f 39   -572.0 4092001.4  1.0  1.0  5  0      6668
[19]  B13 1f 40   -434.3 4092001.2  1.0  1.0  5  0      6576
$GNGGA,000000.000,,,,,0,00,,,M,,,,0000*2B
$GNRMC,000000.000,A,,,,,,,000000,,*26
$GPGSA,A,1,,,,,,,,,,,,,,,*1E
$BDGSA,A,1,,,,,,,,,,,,,,,*0F
$GPGSV,2,1,07,01,00,000,40,11,00,000,37,17,00,000,46,18,00,000,43*76
$GPGSV,2,2,07,19,00,000,40,22,00,000,40,28,00,000,38*47
$BDGSV,1,1,04,08,00,000,41,10,00,000,35,12,00,000,39,13,00,000,40*69
$LOGTIM,0,0.000000,0.000000,0.000000,0.000000,0.000*0A
---00000021--- Acq_st=3 2019-10-4 07:36:51 
[00]  G01  f 41   2277.7 2045997.0  1.0  1.0  5  0 113823930
[01]  G11  f 36   2050.6 2045997.3  1.0  1.0  5  0 113823928
[02]  G17  f 46  -1837.8 2046002.4  1.0  1.0  5  0 113823927
[03]  G18  f 43   3010.6 2045996.1  1.0  1.0  5  0 113823924
[04]  G19  f 41  -2634.0 2046003.4  1.0  1.0  5  0 113823923
[05]  G22  f 40    461.5 2045999.4  1.0  1.0  5  0 113823928
[06]  G28  f 37  -1546.8 2046002.0  1.0  1.0  5  0 113823933
[16]  B08 1f 41    -53.7 4092000.1  1.0  1.0  5  0 113809881
[17]  B10 1f 36   -160.0 4092000.4  1.0  0.9  5  0 113809881
[18]  B12 1f 39   -574.3 4092001.5  1.0  1.0  5  0 113809928
[19]  B13 1f 40   -437.1 4092001.1  1.0  1.0  5  0 113809876
---00000022--- Acq_st=3 2019-10-4 07:36:52 
[00]  G01  f 41   2274.7 2045997.0  1.0  1.0  5  0 113823930
[01]  G11  f 37   2048.2 2045997.3  1.0  0.9  5  0 113823928
[02]  G17  f 46  -1841.1 2046002.4  1.0  1.0  5  0 113823927
[03]  G18  f 43   3007.5 2045996.1  1.0  1.0  5  0 113823924
[04]  G19  f 40  -2636.8 2046003.4  1.0  0.9  5  0 113823923
[05]  G22  f 40    458.7 2045999.4  1.0  1.0  5  0 113823928
[06]  G28  f 38  -1549.6 2046002.0  1.0  1.0  5  0 113823933
[16]  B08 1f 41    -56.7 4092000.1  1.0  1.0  5  0 113809881
[17]  B10 1f 36   -162.2 4092000.3  1.0  1.0  5  0 113809881
[18]  B12 1f 39   -577.3 4092001.5  1.0  1.0  5  0 113809928
[19]  B13 1f 40   -440.1 4092001.1  1.0  1.0  5  0 113809876
$GNGGA,000000.000,,,,,0,00,,,M,,,,0000*2B
$GNRMC,000000.000,A,,,,,,,000000,,*26
$GPGSA,A,1,,,,,,,,,,,,,,,*1E
$BDGSA,A,1,,,,,,,,,,,,,,,*0F
$GPGSV,2,1,07,01,00,000,41,11,00,000,37,17,00,000,46,18,00,000,43*77
$GPGSV,2,2,07,19,00,000,40,22,00,000,40,28,00,000,38*47
$BDGSV,1,1,04,08,00,000,41,10,00,000,36,12,00,000,39,13,00,000,40*6A
$LOGTIM,0,0.000000,0.000000,0.000000,0.000000,0.000*0A
---00000023--- Acq_st=7 2019-10-4 07:36:53 
[00]  G01  f 41   2272.8 2045997.0  1.0  1.0  5  0 113825930
[01]  G11  f 37   2046.2 2045997.4  1.0  1.0  5  0 113825928
[02]  G17  f 46  -1842.9 2046002.4  1.0  1.0  5  0 113825927
[03]  G18  f 43   3005.5 2045996.1  1.0  1.0  5  0 113825924
[04]  G19  f 40  -2638.8 2046003.5  1.0  1.0  5  0 113825923
[05]  G22  f 40    457.5 2045999.4  1.0  1.0  5  0 113825928
[06]  G28  f 38  -1551.6 2046002.0  1.0  1.0  5  0 113825933
[16]  B08 1f 40    -58.6 4092000.1  1.0  1.0  5  0 113811881
[17]  B10 1f 35   -164.2 4092000.4  1.0  1.0  5  0 113811881
[18]  B12 1f 39   -578.9 4092001.5  1.0  0.9  5  0 113811928
[19]  B13 1f 39   -441.7 4092001.1  1.0  1.0  5  0 113811876
---00000024--- Acq_st=7 2019-10-4 07:36:54 
[00]  G01  f 41   2275.1 2045997.0  1.0  1.0  5  0 113825930
[01]  G11  f 37   2047.9 2045997.3  1.0  1.0  5  0 113825928
[02]  G17  f 46  -1840.6 2046002.4  1.0  1.0  5  0 113825927
[03]  G18  f 43   3007.8 2045996.1  1.0  1.0  5  0 113825924
[04]  G19  f 40  -2636.9 2046003.5  1.0  1.0  5  0 113825923
[05]  G22  f 40    460.7 2045999.4  1.0  1.0  5  0 113825928
[06]  G28  f 38  -1549.3 2046002.1  1.0  1.0  5  0 113825933
[16]  B08 1f 40    -56.7 4092000.1  1.0  1.0  5  0 113811881
[17]  B10 1f 35   -162.4 4092000.3  1.0  0.9  5  0 113811881
[18]  B12 1f 38   -577.2 4092001.5  1.0  1.0  5  0 113811928
[19]  B13 1f 39   -440.0 4092001.1  1.0  1.0  5  0 113811876
$GNGGA,000000.000,,,,,0,00,,,M,,,,0000*2B
$GNRMC,000000.000,A,,,,,,,000000,,*26
$GPGSA,A,1,,,,,,,,,,,,,,,*1E
$BDGSA,A,1,,,,,,,,,,,,,,,*0F
$GPGSV,2,1,07,01,00,000,41,11,00,000,37,17,00,000,46,18,00,000,43*77
$GPGSV,2,2,07,19,00,000,40,22,00,000,40,28,00,000,38*47
$BDGSV,1,1,04,08,00,000,40,10,00,000,35,12,00,000,38,13,00,000,39*67
$LOGTIM,0,0.000000,0.000000,0.000000,0.000000,0.000*0A
---00000025--- Acq_st=7 2019-10-4 07:36:55 
[00]  G01  f 42   2277.3 2045997.0  1.0  1.0  5  0 113827930
[01]  G11  f 37   2050.9 2045997.3  1.0  1.0  5  0 113827928
[02]  G17  f 46  -1839.0 2046002.4  1.0  1.0  5  0 113827927
[03]  G18  f 43   3009.4 2045996.1  1.0  1.0  5  0 113827924
[04]  G19  f 40  -2634.7 2046003.4  1.0  1.0  5  0 113827923
[05]  G22  f 40    462.4 2045999.4  1.0  1.0  5  0 113827928
[06]  G28  f 38  -1546.0 2046002.1  1.0  1.0  5  0 113827933
[16]  B08 1f 40    -54.8 4092000.1  1.0  1.0  5  0 113813881
[17]  B10 1f 34   -159.9 4092000.5  1.0  1.0  5  0 113813881
[18]  B12 1f 38   -574.7 4092001.5  1.0  1.0  5  0 113813928
[19]  B13 1f 39   -438.3 4092001.2  1.0  1.0  5  0 113813876
---00000026--- Acq_st=3 2019-10-4 07:36:56 
[00]  G01  f 42   2274.9 2045997.0  1.0  1.0  5  0 113827930
[01]  G11  f 36   2047.9 2045997.3  1.0  0.9  5  0 113827928
[02]  G17  f 46  -1841.5 2046002.4  1.0  1.0  5  0 113827927
[03]  G18  f 42   3007.4 2045996.1  1.0  1.0  5  0 113827924
[04]  G19  f 40  -2637.3 2046003.5  1.0  1.0  5  0 113827923
[05]  G22  f 39    460.9 2045999.4  1.0  1.0  5  0 113827928
[06]  G28  f 37  -1548.8 2046002.1  1.0  1.0  5  0 113827933
[16]  B08 1f 39    -56.8 4092000.1  1.0  1.0  5  0 113813881
[17]  B10 1f 35   -162.8 4092000.4  1.0  1.0  5  0 113813881
[18]  B12 1f 38   -577.3 4092001.5  1.0  1.0  5  0 113813928
[19]  B13 1f 39   -440.4 4092001.1  1.0  1.0  5  0 113813876
$GNGGA,000000.000,,,,,0,00,,,M,,,,0000*2B
$GNRMC,000000.000,A,,,,,,,000000,,*26
$GPGSA,A,1,,,,,,,,,,,,,,,*1E
$BDGSA,A,1,,,,,,,,,,,,,,,*0F
$GPGSV,2,1,07,01,00,000,42,11,00,000,36,17,00,000,46,18,00,000,42*74
$GPGSV,2,2,07,19,00,000,40,22,00,000,39,28,00,000,37*46
$BDGSV,1,1,04,08,00,000,39,10,00,000,35,12,00,000,38,13,00,000,39*69
$LOGTIM,0,0.000000,0.000000,0.000000,0.000000,0.000*0A
---00000027--- Acq_st=3 2019-10-4 07:36:57 
[00]  G01  f 42   2271.8 2045997.1  1.0  1.0  5  0 113829930
[01]  G11  f 35   2044.8 2045997.4  1.0  1.0  5  0 113829928
[02]  G17  f 46  -1844.6 2046002.4  1.0  1.0  5  0 113829927
[03]  G18  f 42   3004.1 2045996.1  1.0  1.0  5  0 113829924
[04]  G19  f 40  -2640.4 2046003.4  1.0  1.0  5  0 113829923
[05]  G22  f 39    458.0 2045999.4  1.0  1.0  5  0 113829928
[06]  G28  f 37  -1551.1 2046002.0  1.0  1.0  5  0 113829933
[16]  B08 1f 40    -60.2 4092000.2  1.0  1.0  5  0 113815881
[17]  B10 1f 35   -165.6 4092000.4  1.0  1.0  5  0 113815881
[18]  B12 1f 37   -580.7 4092001.5  1.0  1.0  5  0 113815928
[19]  B13 1f 39   -443.8 4092001.1  1.0  1.0  5  0 113815876
---00000028--- Acq_st=3 2019-10-4 07:36:58 
[00]  G01  f 42   2271.6 2045997.0  1.0  1.0  5  0 113829930
[01]  G11  f 35   2045.1 2045997.3  1.0  1.0  5  0 113829928
[02]  G17  f 46  -1845.3 2046002.4  1.0  1.0  5  0 113829927
[03]  G18  f 43   3003.2 2045996.1  1.0  1.0  5  0 113829924
[04]  G19  f 40  -2641.5 2046003.5  1.0  1.0  5  0 113829923
[05]  G22  f 39    458.1 2045999.4  1.0  1.0  5  0 113829928
[06]  G28  f 36  -1551.3 2046002.1  1.0  0.9  5  0 113829933
[16]  B08 1f 40    -60.6 4092000.1  1.0  1.0  5  0 113815881
[17]  B10 1f 35   -165.5 4092000.5  1.0  1.0  5  0 113815881
[18]  B12 1f 38   -580.6 4092001.6  1.0  1.0  5  0 113815928
[19]  B13 1f 39   -443.7 4092001.2  1.0  1.0  5  0 113815876
$GNGGA,000000.000,,,,,0,00,,,M,,,,0000*2B
$GNRMC,000000.000,A,,,,,,,000000,,*26
$GPGSA,A,1,,,,,,,,,,,,,,,*1E
$BDGSA,A,1,,,,,,,,,,,,,,,*0F
$GPGSV,2,1,07,01,00,000,42,11,00,000,35,17,00,000,46,18,00,000,43*76
$GPGSV,2,2,07,19,00,000,40,22,00,000,39,28,00,000,36*47
$BDGSV,1,1,04,08,00,000,40,10,00,000,35,12,00,000,38,13,00,000,39*67
$LOGTIM,0,0.000000,0.000000,0.000000,0.000000,0.000*0A
---00000029--- Acq_st=7 2019-10-4 07:36:59 
[00]  G01  f 43   2274.1 2045997.1  1.0  1.0  5  0 113831930
[01]  G11  f 36   2047.2 2045997.3  1.0  1.0  5  0 113831928
[02]  G17  f 45  -1843.0 2046002.4  1.0  1.0  5  0 113831927
[03]  G18  f 43   3005.5 2045996.1  1.0  1.0  5  0 113831924
[04]  G19  f 40  -2638.8 2046003.4  1.0  1.0  5  0 113831923
[05]  G22  f 40    460.9 2045999.4  1.0  1.0  5  0 113831928
[06]  G28  f 35  -1549.4 2046002.0  1.0  1.0  5  0 113831933
[16]  B08 1f 39    -58.2 4092000.1  1.0  1.0  5  0 113817881
[17]  B10 1f 35   -162.7 4092000.4  1.0  1.0  5  0 113817881
[18]  B12 1f 38   -578.8 4092001.5  1.0  1.0  5  0 113817928
[19]  B13 1f 39   -441.6 4092001.2  1.0  1.0  5  0 113817876
---00000030--- Acq_st=7 2019-10-4 07:37:0 
[00]  G01  f 43   2277.7 2045997.0  1.0  1.0  5  0 113831930
[01]  G11  f 36   2049.2 2045997.3  1.0  0.9  5  0 113831928
[02]  G17  f 46  -1839.7 2046002.4  1.0  1.0  5  0 113831927
[03]  G18  f 43   3008.5 2045996.1  1.0  1.0  5  0 113831924
[04]  G19  f 40  -2636.0 2046003.4  1.0  1.0  5  0 113831923
[05]  G22  f 40    464.3 2045999.5  1.0  1.0  5  0 113831928
[06]  G28  f 35  -1545.3 2046002.0  1.0  0.9  5  0 113831933
[16]  B08 1f 39    -55.2 4092000.2  1.0  0.9  5  0 113817881
[17]  B10 1f 35   -160.0 4092000.5  1.0  0.9  5  0 113817881
[18]  B12 1f 38   -575.4 4092001.5  1.0  1.0  5  0 113817928
[19]  B13 1f 39   -438.7 4092001.2  1.0  1.0  5  0 113817876
$GNGGA,000000.000,,,,,0,00,,,M,,,,0000*2B
$GNRMC,000000.000,A,,,,,,,000000,,*26
$GPGSA,A,1,,,,,,,,,,,,,,,*1E
$BDGSA,A,1,,,,,,,,,,,,,,,*0F
$GPGSV,2,1,07,01,00,000,43,11,00,000,36,17,00,000,46,18,00,000,43*74
$GPGSV,2,2,07,19,00,000,40,22,00,000,40,28,00,000,35*4A
$BDGSV,1,1,04,08,00,000,39,10,00,000,35,12,00,000,38,13,00,000,39*69
$LOGTIM,0,0.000000,0.000000,0.000000,0.000000,0.000*0A
---00000031--- Acq_st=7 2019-10-4 07:37:1 
[00]  G01  f 42   2278.5 2045997.1  1.0  1.0  5  0 113833930
[01]  G11  f 35   2050.6 2045997.4  1.0  0.9  5  0 113833928
[02]  G17  f 45  -1839.1 2046002.4  1.0  1.0  5  0 113833927
[03]  G18  f 42   3009.2 2045996.1  1.0  1.0  5  0 113833924
[04]  G19  f 40  -2635.1 2046003.4  1.0  1.0  5  0 113833923
[05]  G22  f 39    465.4 2045999.4  1.0  1.0  5  0 113833928
[06]  G28  f 34  -1544.3 2046002.2  1.0  1.0  5  0 113833933
[16]  B08 1f 39    -54.7 4092000.2  1.0  1.0  5  0 113819881
[17]  B10 1f 35   -159.7 4092000.4  1.0  0.9  5  0 113819881
[18]  B12 1f 38   -574.7 4092001.5  1.0  0.9  5  0 113819928
[19]  B13 1f 39   -438.3 4092001.1  1.0  1.0  5  0 113819876
---00000032--- Acq_st=3 2019-10-4 07:37:2 
[00]  G01  f 43   2277.0 2045997.1  1.0  1.0  5  0 113833930
[01]  G11  f 36   2049.4 2045997.4  1.0  0.9  5  0 113833928
[02]  G17  f 46  -1840.6 2046002.4  1.0  1.0  5  0 113833927
[03]  G18  f 43   3008.0 2045996.1  1.0  1.0  5  0 113833924
[04]  G19  f 40  -2636.2 2046003.4  1.0  1.0  5  0 113833923
[05]  G22  f 39    465.1 2045999.4  1.0  1.0  5  0 113833928
[06]  G28  f 34  -1544.5 2046002.1  1.0  1.0  5  0 113833933
[16]  B08 1f 39    -56.6 4092000.1  1.0  1.0  5  0 113819881
[17]  B10 1f 35   -161.1 4092000.4  1.0  1.0  5  0 113819881
[18]  B12 1f 38   -575.7 4092001.5  1.0  1.0  5  0 113819928
[19]  B13 1f 39   -439.4 4092001.1  1.0  1.0  5  0 113819876
$GNGGA,000000.000,,,,,0,00,,,M,,,,0000*2B
$GNRMC,000000.000,A,,,,,,,000000,,*26
$GPGSA,A,1,,,,,,,,,,,,,,,*1E
$BDGSA,A,1,,,,,,,,,,,,,,,*0F
$GPGSV,2,1,07,01,00,000,43,11,00,000,36,17,00,000,46,18,00,000,43*74
$GPGSV,2,2,07,19,00,000,40,22,00,000,39,28,00,000,34*45
$BDGSV,1,1,04,08,00,000,39,10,00,000,35,12,00,000,38,13,00,000,39*69
$LOGTIM,0,0.000000,0.000000,0.000000,0.000000,0.000*0A
---00000033--- Acq_st=3 2019-10-4 07:37:3 
[00]  G01  f 44   2279.0 2045997.0  1.0  1.0  5  0 113835930
[01]  G11  f 37   2051.4 2045997.4  1.0  1.0  5  0 113835928
[02]  G17  f 46  -1838.7 2046002.4  1.0  1.0  5  0 113835927
[03]  G18  f 43   3010.1 2045996.1  1.0  1.0  5  0 113835924
[04]  G19  f 40  -2634.5 2046003.4  1.0  1.0  5  0 113835923
[05]  G22  f 39    467.2 2045999.4  1.0  1.0  5  0 113835928
[06]  G28  f 33  -1543.2 2046002.1  1.0  0.9  5  0 113835933
[16]  B08 1f 39    -54.1 4092000.1  1.0  1.0  5  0 113821881
[17]  B10 1f 35   -158.3 4092000.2  1.0  0.9  5  0 113821881
[18]  B12 1f 38   -573.4 4092001.5  1.0  1.0  5  0 113821928
[19]  B13 1f 39   -437.3 4092001.1  1.0  1.0  5  0 113821876
---00000034--- Acq_st=3 2019-10-4 07:37:4 
[00]  G01  f 44   2281.6 2045997.0  1.0  1.0  5  0 113835930
[01]  G11  f 36   2053.8 2045997.3  1.0  1.0  5  0 113835928
[02]  G17  f 45  -1836.3 2046002.4  1.0  1.0  5  0 113835927
[03]  G18  f 42   3012.3 2045996.1  1.0  1.0  5  0 113835924
[04]  G19  f 40  -2632.1 2046003.5  1.0  1.0  5  0 113835923
[05]  G22  f 39    470.2 2045999.4  1.0  1.0  5  0 113835928
[06]  G28  f 33  -1539.9 2046002.1  1.0  1.0  5  0 113835933
[16]  B08 1f 39    -51.5 4092000.2  1.0  1.0  5  0 113821881
[17]  B10 1f 35   -155.4 4092000.3  1.0  1.0  5  0 113821881
[18]  B12 1f 37   -572.1 4092001.5  1.0  1.0  5  0 113821928
[19]  B13 1f 39   -435.2 4092001.1  1.0  1.0  5  0 113821876
$GNGGA,000000.000,,,,,0,00,,,M,,,,0000*2B
$GNRMC,000000.000,A,,,,,,,000000,,*26
$GPGSA,A,1,,,,,,,,,,,,,,,*1E
$BDGSA,A,1,,,,,,,,,,,,,,,*0F
$GPGSV,2,1,07,01,00,000,44,11,00,000,36,17,00,000,45,18,00,000,42*71
$GPGSV,2,2,07,19,00,000,40,22,00,000,39,28,00,000,33*42
$BDGSV,1,1,04,08,00,000,39,10,00,000,35,12,00,000,37,13,00,000,39*66
$LOGTIM,0,0.000000,0.000000,0.000000,0.000000,0.000*0A
---00000035--- Acq_st=7 2019-10-4 07:37:5 
[00]  G01  f 43   2281.0 2045997.0  1.0  1.0  5  0 113837930
[01]  G11  f 37   2053.2 2045997.3  1.0  1.0  5  0 113837928
[02]  G17  f 46  -1837.3 2046002.4  1.0  1.0  5  0 113837927
[03]  G18  f 42   3011.6 2045996.1  1.0  1.0  5  0 113837924
[04]  G19  f 40  -2632.9 2046003.4  1.0  1.0  5  0 113837923
[05]  G22  f 39    469.9 2045999.4  1.0  1.0  5  0 113837928
[06]  G28  f 32  -1540.5 2046002.0  1.0  0.9  5  0 113837933
[16]  B08 1f 39    -52.5 4092000.1  1.0  1.0  5  0 113823881
[17]  B10 1f 35   -157.5 4092000.3  1.0  1.0  5  0 113823881
[18]  B12 1f 37   -572.9 4092001.5  1.0  1.0  5  0 113823928
[19]  B13 1f 39   -436.2 4092001.1  1.0  1.0  5  0 113823876
---00000036--- Acq_st=7 2019-10-4 07:37:6 
[00]  G01  f 44   2279.5 2045997.1  1.0  1.0  5  0 113837930
[01]  G11  f 37   2051.5 2045997.4  1.0  1.0  5  0 113837928
[02]  G17  f 46  -1839.0 2046002.4  1.0  1.0  5  0 113837927
[03]  G18  f 43   3010.1 2045996.1  1.0  1.0  5  0 113837924
[04]  G19  f 40  -2634.7 2046003.4  1.0  1.0  5  0 113837923
[05]  G22  f 39    469.2 2045999.5  1.0  1.0  5  0 113837928
[06]  G28  f 32  -1542.5 2046002.2  0.9  1.0  5  0 113837933
[16]  B08 1f 39    -54.3 4092000.2  1.0  1.0  5  0 113823881
[17]  B10 1f 35   -158.9 4092000.5  1.0  0.9  5  0 113823881
[18]  B12 1f 38   -573.6 4092001.5  1.0  0.9  5  0 113823928
[19]  B13 1f 39   -437.3 4092001.1  1.0  1.0  5  0 113823876
$GNGGA,073707.002,3112.7085,N,12136.4295,E,1,07,2.9,117.9,M,,,,0000*13
$GNRMC,073707.002,A,3112.7085,N,12136.4295,E,0.15,0.00,041099,,*1C
$GPGSA,A,3,01,11,17,18,19,22,28,,,,,,3.7,2.9,2.3*30
$BDGSA,A,3,,,,,,,,,,,,,3.7,2.9,2.3*2D
$GPGSV,2,1,07,01,00,000,44,11,00,000,37,17,00,000,46,18,00,000,43*72
$GPGSV,2,2,07,19,00,000,40,22,00,000,39,28,00,000,32*43
$BDGSV,1,1,04,08,00,000,39,10,00,000,35,12,00,000,38,13,00,000,39*69
$LOGTIM,1,8468452.433125,0.000000,0.000000,0.000000,-61.311*11
---00000037--- Acq_st=7 2019-10-4 07:37:7 
[00]  G01  f 43   2278.6 2045997.0  1.0  1.0  5  0 113839930
[01]  G11  f 37   2050.6 2045997.4  1.0  1.0  5  0 113839928
[02]  G17  f 46  -1840.1 2046002.4  1.0  1.0  5  0 113839927
[03]  G18  f 43   3008.6 2045996.1  1.0  1.0  5  0 113839924
[04]  G19  f 40  -2636.1 2046003.4  1.0  1.0  5  0 113839923
[05]  G22  f 39    467.9 2045999.4  1.0  1.0  5  0 113839928
[06]  G28  f 32  -1543.1 2046001.9  1.0  0.9  5  0 113839933
[16]  B08 1f 39    -56.0 4092000.1  1.0  1.0  5  0 113825881
[17]  B10 1f 35   -159.0 4092000.4  1.0  1.0  5  0 113825881
[18]  B12 1f 38   -575.9 4092001.5  1.0  1.0  5  0 113825928
[19]  B13 1f 39   -438.9 4092001.2  1.0  1.0  5  0 113825876
---00000038--- Acq_st=3 2019-10-4 07:37:8 
[00]  G01  f 43   2278.1 2045997.1  1.0  1.0  5  0 113839930
[01]  G11  f 37   2050.6 2045997.4  1.0  1.0  5  0 113839928
[02]  G17  f 46  -1840.6 2046002.4  1.0  1.0  5  0 113839927
[03]  G18  f 42   3008.1 2045996.1  1.0  1.0  5  0 113839924
[04]  G19  f 40  -2636.4 2046003.4  1.0  1.0  5  0 113839923
[05]  G22  f 39    468.0 2045999.4  1.0  1.0  5  0 113839928
[06]  G28  f 32  -1541.5 2046002.0  1.0  0.9  5  0 113839933
[16]  B08 1f 39    -56.2 4092000.2  1.0  1.0  5  0 113825881
[17]  B10 1f 35   -160.6 4092000.5  1.0  1.0  5  0 113825881
[18]  B12 1f 38   -575.9 4092001.5  1.0  1.0  5  0 113825928
[19]  B13 1f 38   -439.1 4092001.1  1.0  1.0  5  0 113825876
---00000039--- Acq_st=3 2019-10-4 07:37:9 
[00]  G01  f 43   2278.6 2045997.0  1.0  1.0  5  0 113839930
[01]  G11  f 37   2050.4 2045997.3  1.0  1.0  5  0 113839928
[02]  G17  f 46  -1840.4 2046002.4  1.0  1.0  5  0 113839927
[03]  G18  f 42   3008.5 2045996.1  1.0  1.0  5  0 113839924
[04]  G19  f 40  -2636.0 2046003.4  1.0  1.0  5  0 113839923
[05]  G22  f 39    468.5 2045999.4  1.0  1.0  5  0 113839928
[06]  G28  f 33  -1543.4 2046002.1  1.0  1.0  5  0 113839933
[16]  B08 1f 39    -56.0 4092000.1  1.0  1.0  5  0 113825881
[17]  B10 1f 35   -160.4 4092000.4  1.0  1.0  5  0 113825881
[18]  B12 1f 37   -575.4 4092001.4  1.0  1.0  5  0 113825928
[19]  B13 1f 39   -439.5 4092001.1  1.0  1.0  5  0 113825876
---00000040--- Acq_st=3 2019-10-4 07:37:10 
[00]  G01  f 44   2279.5 2045997.0  1.0  1.0  5  0 113839930
[01]  G11  f 37   2051.2 2045997.3  1.0  0.9  5  0 113839928
[02]  G17  f 46  -1840.0 2046002.4  1.0  1.0  5  0 113839927
[03]  G18  f 42   3008.9 2045996.1  1.0  1.0  5  0 113839924
[04]  G19  f 40  -2635.7 2046003.4  1.0  1.0  5  0 113839923
[05]  G22  f 38    469.7 2045999.4  1.0  1.0  5  0 113839928
[06]  G28  f 33  -1541.8 2046002.0  1.0  0.9  5  0 113839933
[16]  B08 1f 39    -55.7 4092000.1  1.0  1.0  5  0 113825881
[17]  B10 1f 35   -158.3 4092000.4  1.0  0.9  5  0 113825881
[18]  B12 1f 37   -575.0 4092001.4  1.0  0.9  5  0 113825928
[19]  B13 1f 39   -437.8 4092001.1  1.0  1.0  5  0 113825876
$GNGGA,073710.998,3112.7215,N,12136.4317,E,1,07,3.0,64.1,M,,,,0000*2A
$GNRMC,073710.998,A,3112.7215,N,12136.4317,E,3.61,15583.45,,,*1E
$GPGSA,A,3,01,11,17,18,19,22,28,,,,,,3.7,3.0,2.3*38
$BDGSA,A,3,,,,,,,,,,,,,3.7,3.0,2.3*25
$GPGSV,2,1,07,01,00,000,44,11,00,000,37,17,00,000,46,18,00,000,42*73
$GPGSV,2,2,07,19,00,000,40,22,00,000,38,28,00,000,33*43
$BDGSV,1,1,04,08,00,000,39,10,00,000,35,12,00,000,37,13,00,000,39*66
$LOGTIM,1,-261.670105,0.000000,0.000000,0.000000,-63.430*39
---00000041--- Acq_st=7 2019-10-4 07:37:11 
[00]  G01  f 43   2281.6 2045997.1  1.0  1.0  5  0 113843925
[01]  G11  f 37   2053.3 2045997.3  1.0  1.0  5  0 113843924
[02]  G17  f 46  -1838.0 2046002.4  1.0  1.0  5  0 113843922
[03]  G18  f 43   3011.1 2045996.1  1.0  1.0  5  0 113843919
[04]  G19  f 40  -2633.6 2046003.4  1.0  1.0  5  0 113843919
[05]  G22  f 38    471.8 2045999.5  1.0  1.0  5  0 113843923
[06]  G28  f 34  -1539.3 2046001.9  1.0  1.0  5  0 113843929
[16]  B08 1f 39    -53.4 4092000.1  1.0  1.0  5  0 113829876
[17]  B10 1f 35   -157.4 4092000.4  1.0  1.0  5  0 113829877
[18]  B12 1f 37   -572.7 4092001.4  1.0  1.0  5  0 113829923
[19]  B13 1f 39   -436.5 4092001.1  1.0  1.0  5  0 113829872
---00000042--- Acq_st=7 2019-10-4 07:37:12 
[00]  G01  f 43   2279.7 2045997.0  1.0  1.0  5  0 113843925
[01]  G11  f 37   2051.3 2045997.4  1.0  1.0  5  0 113843924
[02]  G17  f 46  -1840.1 2046002.4  1.0  1.0  5  0 113843922
[03]  G18  f 43   3008.8 2045996.1  1.0  1.0  5  0 113843919
[04]  G19  f 40  -2636.2 2046003.4  1.0  1.0  5  0 113843919
[05]  G22  f 39    470.5 2045999.4  1.0  1.0  5  0 113843923
[06]  G28  f 34  -1541.3 2046001.9  1.0  1.0  5  0 113843929
[16]  B08 1f 39    -55.4 4092000.2  1.0  1.0  5  0 113829876
[17]  B10 1f 35   -158.5 4092000.4  1.0  1.0  5  0 113829877
[18]  B12 1f 37   -575.3 4092001.5  1.0  1.0  5  0 113829923
[19]  B13 1f 39   -438.1 4092001.1  1.0  1.0  5  0 113829872
$GNGGA,073712.998,3112.7151,N,12136.4327,E,1,07,3.0,61.3,M,,,,0000*2F
$GNRMC,073712.998,A,3112.7151,N,12136.4327,E,3.43,15608.26,,,*19
$GPGSA,A,3,01,11,17,18,19,22,28,,,,,,3.7,3.0,2.3*38
$BDGSA,A,3,,,,,,,,,,,,,3.7,3.0,2.3*25
$GPGSV,2,1,07,01,44,036,43,11,35,051,37,17,38,309,46,18,19,046,43*79
$GPGSV,2,2,07,19,20,293,40,22,42,074,39,28,72,320,34*4E
$BDGSV,2,1,06,08,00,000,39,10,00,000,35,12,00,000,37,13,00,000,39*67
$BDGSV,2,2,06,02,35,235,00,26,33,201,00*69
$LOGTIM,1,-392.563943,0.000000,0.000000,0.000000,-63.350*3E
---00000043--- Acq_st=7 2019-10-4 07:37:13 
[00]  G01  f 43   2279.0 2045997.0  1.0  1.0  5  0 113845925
[01]  G11  f 36   2050.3 2045997.4  1.0  1.0  5  0 113845924
[02]  G17  f 46  -1841.0 2046002.4  1.0  1.0  5  0 113845922
[03]  G18  f 42   3008.1 2045996.1  1.0  1.0  5  0 113845919
[04]  G19  f 40  -2636.5 2046003.4  1.0  1.0  5  0 113845919
[05]  G22  f 39    470.6 2045999.4  1.0  1.0  5  0 113845923
[06]  G28  f 35  -1540.2 2046001.9  1.0  1.0  5  0 113845929
[16]  B08 1f 39    -56.3 4092000.2  1.0  1.0  5  0 113831876
[17]  B10 1f 35   -159.7 4092000.4  1.0  0.9  5  0 113831877
[18]  B12 1f 38   -576.2 4092001.5  1.0  1.0  5  0 113831923
[19]  B13 1f 39   -439.1 4092001.1  1.0  1.0  5  0 113831872
---00000044--- Acq_st=3 2019-10-4 07:37:14 
[00]  G01  f 43   2276.6 2045997.0  1.0  1.0  5  0 113845925
[01]  G11  f 37   2048.1 2045997.3  1.0  0.9  5  0 113845924
[02]  G17  f 46  -1843.6 2046002.4  1.0  1.0  5  0 113845922
[03]  G18  f 42   3005.2 2045996.1  1.0  1.0  5  0 113845919
[04]  G19  f 40  -2639.5 2046003.4  1.0  1.0  5  0 113845919
[05]  G22  f 39    468.4 2045999.5  1.0  1.0  5  0 113845923
[06]  G28  f 36  -1543.1 2046001.9  1.0  1.0  5  0 113845929
[16]  B08 1f 39    -58.5 4092000.1  1.0  1.0  5  0 113831876
[17]  B10 1f 35   -161.5 4092000.4  1.0  1.1  5  0 113831877
[18]  B12 1f 38   -578.3 4092001.5  1.0  1.0  5  0 113831923
[19]  B13 1f 39   -440.9 4092001.1  1.0  1.0  5  0 113831872
$GNGGA,073714.998,3112.7119,N,12136.4328,E,1,07,3.0,58.5,M,,,,0000*26
$GNRMC,073714.998,A,3112.7119,N,12136.4328,E,2.38,15446.29,,,*16
$GPGSA,A,3,01,11,17,18,19,22,28,,,,,,3.7,3.0,2.3*38
$BDGSA,A,3,,,,,,,,,,,,,3.7,3.0,2.3*25
$GPGSV,2,1,07,01,44,036,43,11,35,051,37,17,38,309,46,18,19,046,42*78
$GPGSV,2,2,07,19,20,293,40,22,42,074,39,28,72,320,36*4C
$BDGSV,2,1,06,08,00,000,39,10,00,000,35,12,00,000,38,13,00,000,39*68
$BDGSV,2,2,06,02,35,235,00,26,33,201,00*69
$LOGTIM,1,-521.131280,0.000000,0.000000,0.000000,-63.497*3B
---00000045--- Acq_st=3 2019-10-4 07:37:15 
[00]  G01  f 43   2275.0 2045997.1  1.0  1.0  5  0 113847925
[01]  G11  f 37   2045.9 2045997.4  1.0  1.0  5  0 113847924
[02]  G17  f 46  -1845.7 2046002.4  1.0  1.0  5  0 113847922
[03]  G18  f 41   3003.1 2045996.1  1.0  1.0  5  0 113847919
[04]  G19  f 40  -2641.5 2046003.5  1.0  1.0  5  0 113847919
[05]  G22  f 39    467.1 2045999.4  1.0  1.0  5  0 113847923
[06]  G28  f 35  -1545.8 2046001.9  1.0  1.0  5  0 113847929
[16]  B08 1f 38    -61.1 4092000.1  1.0  1.0  5  0 113833876
[17]  B10 1f 35   -164.7 4092000.3  1.0  1.0  5  0 113833877
[18]  B12 1f 38   -580.3 4092001.5  1.0  1.0  5  0 113833923
[19]  B13 1f 39   -444.4 4092001.1  1.0  1.0  5  0 113833872
---00000046--- Acq_st=3 2019-10-4 07:37:16 
[00]  G01  f 43   2273.4 2045997.1  1.0  1.0  5  0 113847925
[01]  G11  f 38   2045.1 2045997.3  1.0  1.0  5  0 113847924
[02]  G17  f 46  -1847.3 2046002.4  1.0  1.0  5  0 113847922
[03]  G18  f 42   3001.6 2045996.1  1.0  1.0  5  0 113847919
[04]  G19  f 39  -2643.1 2046003.4  1.0  1.0  5  0 113847919
[05]  G22  f 39    466.0 2045999.3  1.0  1.0  5  0 113847923
[06]  G28  f 36  -1547.2 2046002.0  1.0  0.9  5  0 113847929
[16]  B08 1f 38    -62.6 4092000.1  1.0  1.0  5  0 113833876
[17]  B10 1f 35   -166.1 4092000.4  1.0  1.0  5  0 113833877
[18]  B12 1f 37   -581.8 4092001.5  1.0  1.0  5  0 113833923
[19]  B13 1f 39   -444.9 4092001.2  1.0  1.0  5  0 113833872
$GNGGA,073716.998,3112.7103,N,12136.4321,E,1,07,3.0,57.5,M,,,,0000*29
$GNRMC,073716.998,A,3112.7103,N,12136.4321,E,1.33,15446.29,,,*1E
$GPGSA,A,3,01,11,17,18,19,22,28,,,,,,3.7,3.0,2.3*38
$BDGSA,A,3,,,,,,,,,,,,,3.7,3.0,2.3*25
$GPGSV,2,1,07,01,44,036,43,11,35,051,38,17,38,309,46,18,19,046,42*77
$GPGSV,2,2,07,19,20,293,39,22,42,074,39,28,72,320,36*42
$BDGSV,2,1,06,08,00,000,38,10,00,000,35,12,00,000,37,13,00,000,39*66
$BDGSV,2,2,06,02,35,235,00,26,33,201,00*69
$LOGTIM,1,-649.160564,0.000000,0.000000,0.000000,-63.707*35
---00000047--- Acq_st=7 2019-10-4 07:37:17 
[00]  G01  f 43   2272.7 2045997.0  1.0  1.0  5  0 113849925
[01]  G11  f 37   2044.0 2045997.3  1.0  1.0  5  0 113849924
[02]  G17  f 45  -1847.8 2046002.4  1.0  1.0  5  0 113849922
[03]  G18  f 42   3000.9 2045996.1  1.0  1.0  5  0 113849919
[04]  G19  f 39  -2643.5 2046003.4  1.0  1.0  5  0 113849919
[05]  G22  f 40    465.8 2045999.4  1.0  1.0  5  0 113849923
[06]  G28  f 36  -1547.0 2046002.0  1.0  1.0  5  0 113849929
[16]  B08 1f 39    -63.2 4092000.1  1.0  1.0  5  0 113835876
[17]  B10 1f 35   -165.8 4092000.5  1.0  1.0  5  0 113835877
[18]  B12 1f 38   -582.4 4092001.5  1.0  1.0  5  0 113835923
[19]  B13 1f 39   -445.6 4092001.2  1.0  1.0  5  0 113835872
---00000048--- Acq_st=7 2019-10-4 07:37:18 
[00]  G01  f 42   2273.1 2045997.1  1.0  1.0  5  0 113849925
[01]  G11  f 37   2043.9 2045997.3  1.0  1.0  5  0 113849924
[02]  G17  f 45  -1848.6 2046002.4  1.0  1.0  5  0 113849922
[03]  G18  f 42   3001.0 2045996.1  1.0  1.0  5  0 113849919
[04]  G19  f 40  -2644.2 2046003.4  1.0  1.0  5  0 113849919
[05]  G22  f 40    466.2 2045999.4  1.0  1.0  5  0 113849923
[06]  G28  f 36  -1546.5 2046002.0  1.0  1.0  5  0 113849929
[16]  B08 1f 39    -63.3 4092000.2  1.0  1.0  5  0 113835876
[17]  B10 1f 35   -166.4 4092000.4  1.0  1.0  5  0 113835877
[18]  B12 1f 38   -582.5 4092001.5  1.0  1.0  5  0 113835923
[19]  B13 1f 39   -446.5 4092001.2  1.0  1.0  5  0 113835872
$GNGGA,073718.998,3112.7106,N,12136.4313,E,1,07,3.0,57.3,M,,,,0000*25
$GNRMC,073718.998,A,3112.7106,N,12136.4313,E,0.85,15446.29,,,*18
$GPGSA,A,3,01,11,17,18,19,22,28,,,,,,3.7,3.0,2.3*38
$BDGSA,A,3,,,,,,,,,,,,,3.7,3.0,2.3*25
$GPGSV,2,1,07,01,44,036,42,11,35,051,37,17,38,309,45,18,19,046,42*7A
$GPGSV,2,2,07,19,20,293,40,22,42,074,40,28,72,320,36*42
$BDGSV,2,1,06,08,00,000,39,10,00,000,35,12,00,000,38,13,00,000,39*68
$BDGSV,2,2,06,02,35,235,00,26,33,201,00*69
$LOGTIM,1,0.000000,0.000000,0.000000,0.000000,-63.739*1E
---00000049--- Acq_st=7 2019-10-4 07:37:19 
[00]  G01  f 42   2273.4 2045997.1  1.0  1.0  5  0 113851925
[01]  G11  f 37   2044.1 2045997.4  1.0  1.0  5  0 113851924
[02]  G17  f 45  -1848.3 2046002.4  1.0  1.0  5  0 113851922
[03]  G18  f 42   3000.9 2045996.1  1.0  1.0  5  0 113851919
[04]  G19  f 40  -2643.3 2046003.4  1.0  1.0  5  0 113851919
[05]  G22  f 40    466.7 2045999.4  1.0  1.0  5  0 113851923
[06]  G28  f 37  -1546.0 2046002.1  1.0  1.0  5  0 113851929
[16]  B08 1f 38    -63.7 4092000.2  1.0  1.0  5  0 113837876
[17]  B10 1f 35   -166.5 4092000.4  1.0  1.0  5  0 113837877
[18]  B12 1f 37   -583.0 4092001.5  1.0  1.0  5  0 113837923
[19]  B13 1f 38   -445.8 4092001.2  1.0  1.0  5  0 113837872
---00000050--- Acq_st=3 2019-10-4 07:37:20 
[00]  G01  f 42   2276.5 2045997.1  1.0  1.0  5  0 113851925
[01]  G11  f 37   2047.0 2045997.3  1.0  1.0  5  0 113851924
[02]  G17  f 45  -1845.2 2046002.4  1.0  1.0  5  0 113851922
[03]  G18  f 42   3004.1 2045996.1  1.0  1.0  5  0 113851919
[04]  G19  f 40  -2640.8 2046003.4  1.0  1.0  5  0 113851919
[05]  G22  f 41    470.0 2045999.4  1.0  1.0  5  0 113851923
[06]  G28  f 37  -1542.8 2046002.0  1.0  1.0  5  0 113851929
[16]  B08 1f 39    -60.8 4092000.1  1.0  1.0  5  0 113837876
[17]  B10 1f 35   -164.0 4092000.4  1.0  1.0  5  0 113837877
[18]  B12 1f 37   -579.8 4092001.5  1.0  0.9  5  0 113837923
[19]  B13 1f 38   -442.9 4092001.2  1.0  1.0  5  0 113837872
$GNGGA,073721.002,3112.7113,N,12136.4301,E,1,07,3.0,57.1,M,,,,0000*20
$GNRMC,073721.002,A,3112.7113,N,12136.4301,E,0.88,15446.29,,,*12
$GPGSA,A,3,01,17,18,19,22,,,,,,,,3.7,3.0,2.3*32
$BDGSA,A,3,08,13,,,,,,,,,,,3.7,3.0,2.3*2F
$GPGSV,2,1,07,01,44,036,42,11,35,051,37,17,38,309,45,18,19,046,42*7A
$GPGSV,2,2,07,19,20,293,40,22,42,074,41,28,72,320,37*42
$BDGSV,2,1,06,08,00,000,39,10,00,000,35,12,00,000,37,13,00,000,38*66
$BDGSV,2,2,06,02,35,235,00,26,33,201,00*69
$LOGTIM,3,0.000000,-161.198354,0.000000,0.000000,-63.327*3E
---00000051--- Acq_st=3 2019-10-4 07:37:21 
[00]  G01  f 42   2279.4 2045997.0  1.0  1.0  5  0 113853930
[01]  G11  f 37   2049.8 2045997.4  1.0  1.0  5  0 113853928
[02]  G17  f 45  -1842.3 2046002.4  1.0  1.0  5  0 113853927
[03]  G18  f 43   3006.9 2045996.1  1.0  1.0  5  0 113853924
[04]  G19  f 39  -2638.0 2046003.4  1.0  1.0  5  0 113853923
[05]  G22  f 41    473.6 2045999.4  1.0  1.0  5  0 113853928
[06]  G28  f 38  -1538.8 2046001.9  1.0  1.0  5  0 113853933
[16]  B08 1f 39    -57.4 4092000.1  1.0  1.0  5  0 113839881
[17]  B10 1f 35   -160.3 4092000.4  1.0  0.9  5  0 113839881
[18]  B12 1f 37   -576.5 4092001.5  1.0  1.0  5  0 113839928
[19]  B13 1f 38   -439.2 4092001.1  1.0  1.0  5  0 113839876
---00000052--- Acq_st=3 2019-10-4 07:37:22 
[00]  G01  f 41   2279.4 2045997.0  1.0  1.0  5  0 113853930
[01]  G11  f 37   2050.2 2045997.4  1.0  1.0  5  0 113853928
[02]  G17  f 45  -1842.5 2046002.4  1.0  1.0  5  0 113853927
[03]  G18  f 43   3007.0 2045996.1  1.0  1.0  5  0 113853924
[04]  G19  f 40  -2638.5 2046003.4  1.0  1.0  5  0 113853923
[05]  G22  f 42    473.9 2045999.4  1.0  1.0  5  0 113853928
[06]  G28  f 38  -1539.0 2046002.0  1.0  1.0  5  0 113853933
[16]  B08 1f 39    -57.4 4092000.1  1.0  1.0  5  0 113839881
[17]  B10 1f 35   -159.3 4092000.4  1.0  0.9  5  0 113839881
[18]  B12 1f 37   -576.5 4092001.5  1.0  1.0  5  0 113839928
[19]  B13 1f 38   -439.8 4092001.2  1.0  0.9  5  0 113839876
$GNGGA,073722.998,3112.7103,N,12136.4293,E,1,11,1.6,50.4,M,,,,0000*23
$GNRMC,073722.998,A,3112.7103,N,12136.4293,E,1.33,15446.29,,,*11
$GPGSA,A,3,01,11,17,18,19,22,28,,,,,,1.7,1.6,0.6*39
$BDGSA,A,3,08,10,12,13,,,,,,,,,1.7,1.6,0.6*2C
$GPGSV,2,1,07,01,44,036,41,11,35,051,37,17,38,309,45,18,19,046,43*78
$GPGSV,2,2,07,19,20,293,40,22,42,074,42,28,72,320,38*4E
$BDGSV,2,1,06,08,69,296,39,10,73,261,35,12,56,335,37,13,47,256,38*61
$BDGSV,2,2,06,02,35,235,00,26,33,201,00*69
$LOGTIM,3,0.000000,-166.845512,0.000000,0.000000,-63.097*3C
---00000053--- Acq_st=7 2019-10-4 07:37:23 
[00]  G01  f 42   2278.5 2045997.0  1.0  1.0  5  0 113855925
[01]  G11  f 37   2048.8 2045997.3  1.0  1.0  5  0 113855924
[02]  G17  f 45  -1843.7 2046002.4  1.0  1.0  5  0 113855922
[03]  G18  f 42   3005.4 2045996.1  1.0  1.0  5  0 113855919
[04]  G19  f 40  -2639.7 2046003.4  1.0  0.9  5  0 113855919
[05]  G22  f 41    473.3 2045999.3  1.0  1.0  5  0 113855923
[06]  G28  f 38  -1539.7 2046002.0  1.0  1.0  5  0 113855929
[16]  B08 1f 38    -58.9 4092000.1  1.0  1.0  5  0 113841876
[17]  B10 1f 35   -161.5 4092000.4  1.0  0.9  5  0 113841877
[18]  B12 1f 37   -577.8 4092001.5  1.0  1.0  5  0 113841923
[19]  B13 1f 39   -441.5 4092001.2  1.0  1.0  5  0 113841872
---00000054--- Acq_st=7 2019-10-4 07:37:24 
[00]  G01  f 42   2278.1 2045997.1  1.0  1.0  5  0 113855925
[01]  G11  f 37   2048.3 2045997.3  1.0  1.0  5  0 113855924
[02]  G17  f 46  -1844.3 2046002.4  1.0  1.0  5  0 113855922
[03]  G18  f 42   3005.3 2045996.1  1.0  1.0  5  0 113855919
[04]  G19  f 40  -2640.0 2046003.4  1.0  1.0  5  0 113855919
[05]  G22  f 41    473.4 2045999.3  1.0  1.0  5  0 113855923
[06]  G28  f 38  -1540.0 2046002.0  1.0  1.0  5  0 113855929
[16]  B08 1f 38    -59.5 4092000.2  1.0  0.9  5  0 113841876
[17]  B10 1f 36   -162.8 4092000.4  1.0  1.0  5  0 113841877
[18]  B12 1f 37   -579.1 4092001.5  1.0  1.0  5  0 113841923
[19]  B13 1f 38   -442.3 4092001.2  1.0  0.9  5  0 113841872
$GNGGA,073725.002,3112.7168,N,12136.4294,E,1,11,1.6,50.8,M,,,,0000*28
$GNRMC,073725.002,A,3112.7168,N,12136.4294,E,0.25,15446.29,,,*10
$GPGSA,A,3,01,11,17,18,19,22,28,,,,,,1.7,1.6,0.6*39
$BDGSA,A,3,08,10,12,13,,,,,,,,,1.7,1.6,0.6*2C
$GPGSV,2,1,07,01,44,036,42,11,35,051,37,17,38,309,46,18,19,046,42*79
$GPGSV,2,2,07,19,20,293,40,22,42,074,41,28,72,320,38*4D
$BDGSV,2,1,06,08,69,296,38,10,73,261,36,12,56,335,37,13,47,256,38*63
$BDGSV,2,2,06,02,35,235,00,26,33,201,00*69
$LOGTIM,3,0.000000,-171.402974,0.000000,0.000000,-62.865*3D
---00000055--- Acq_st=7 2019-10-4 07:37:25 
[00]  G01  f 41   2278.6 2045997.0  1.0  1.0  5  0 113857930
[01]  G11  f 36   2047.9 2045997.3  1.0  0.9  5  0 113857928
[02]  G17  f 46  -1843.9 2046002.4  1.0  1.0  5  0 113857927
[03]  G18  f 42   3005.7 2045996.1  1.0  1.0  5  0 113857924
[04]  G19  f 40  -2639.7 2046003.5  1.0  1.0  5  0 113857923
[05]  G22  f 41    474.3 2045999.4  1.0  1.0  5  0 113857928
[06]  G28  f 39  -1539.3 2046002.0  1.0  1.0  5  0 113857933
[16]  B08 1f 39    -59.4 4092000.2  1.0  1.0  5  0 113843881
[17]  B10 1f 35   -160.8 4092000.6  1.0  1.0  5  0 113843881
[18]  B12 1f 38   -578.7 4092001.5  1.0  1.0  5  0 113843928
[19]  B13 1f 39   -441.6 4092001.1  1.0  1.0  5  0 113843876
---00000056--- Acq_st=3 2019-10-4 07:37:26 
[00]  G01  f 42   2280.1 2045997.0  1.0  1.0  5  0 113857930
[01]  G11  f 37   2049.9 2045997.3  1.0  1.0  5  0 113857928
[02]  G17  f 46  -1842.8 2046002.4  1.0  1.0  5  0 113857927
[03]  G18  f 42   3006.4 2045996.1  1.0  1.0  5  0 113857924
[04]  G19  f 39  -2638.0 2046003.4  1.0  1.0  5  0 113857923
[05]  G22  f 41    475.8 2045999.4  1.0  1.0  5  0 113857928
[06]  G28  f 39  -1537.4 2046002.0  1.0  1.0  5  0 113857933
[16]  B08 1f 38    -58.0 4092000.1  1.0  1.0  5  0 113843881
[17]  B10 1f 36   -159.4 4092000.4  1.0  1.0  5  0 113843881
[18]  B12 1f 37   -576.3 4092001.5  1.0  1.0  5  0 113843928
[19]  B13 1f 38   -440.3 4092001.2  1.0  0.9  5  0 113843876
$GNGGA,073726.998,3112.7193,N,12136.4299,E,1,11,1.6,47.3,M,,,,0000*25
$GNRMC,073726.998,A,3112.7193,N,12136.4299,E,0.34,15446.29,,,*10
$GPGSA,A,3,01,11,17,18,19,22,28,,,,,,1.7,1.6,0.6*39
$BDGSA,A,3,08,10,12,13,,,,,,,,,1.7,1.6,0.6*2C
$GPGSV,2,1,07,01,44,036,42,11,35,051,37,17,38,309,46,18,19,046,42*79
$GPGSV,2,2,07,19,20,293,39,22,42,074,41,28,72,320,39*42
$BDGSV,2,1,06,08,69,296,38,10,73,261,36,12,56,335,37,13,47,256,38*63
$BDGSV,2,2,06,02,35,235,00,26,32,201,00*68
$LOGTIM,3,0.000000,-169.631068,0.000000,0.000000,-62.545*3D
---00000057--- Acq_st=3 2019-10-4 07:37:27 
[00]  G01  f 40   2282.1 2045997.0  1.0  1.0  5  0 113859925
[01]  G11  f 36   2052.6 2045997.4  1.0  1.0  5  0 113859924
[02]  G17  f 46  -1840.2 2046002.4  1.0  1.0  5  0 113859922
[03]  G18  f 42   3008.4 2045996.1  1.0  1.0  5  0 113859919
[04]  G19  f 40  -2635.9 2046003.5  1.0  1.0  5  0 113859919
[05]  G22  f 41    478.9 2045999.4  1.0  1.0  5  0 113859923
[06]  G28  f 39  -1535.2 2046002.0  1.0  1.0  5  0 113859929
[16]  B08 1f 38    -55.6 4092000.1  1.0  1.0  5  0 113845876
[17]  B10 1f 36   -157.3 4092000.3  1.0  0.9  5  0 113845877
[18]  B12 1f 38   -574.4 4092001.5  1.0  1.0  5  0 113845923
[19]  B13 1f 39   -438.0 4092001.2  1.0  1.0  5  0 113845872
---00000058--- Acq_st=3 2019-10-4 07:37:28 
[00]  G01  f 41   2284.4 2045997.0  1.0  1.0  5  0 113859925
[01]  G11  f 36   2055.4 2045997.3  1.0  0.9  5  0 113859924
[02]  G17  f 46  -1838.2 2046002.4  1.0  1.0  5  0 113859922
[03]  G18  f 42   3011.1 2045996.1  1.0  1.0  5  0 113859919
[04]  G19  f 40  -2633.6 2046003.4  1.0  1.0  5  0 113859919
[05]  G22  f 41    481.7 2045999.4  1.0  1.0  5  0 113859923
[06]  G28  f 39  -1532.1 2046002.0  1.0  1.0  5  0 113859929
[16]  B08 1f 38    -53.4 4092000.1  1.0  1.0  5  0 113845876
[17]  B10 1f 35   -155.8 4092000.4  1.0  1.0  5  0 113845877
[18]  B12 1f 38   -572.6 4092001.4  1.0  1.0  5  0 113845923
[19]  B13 1f 38   -435.6 4092001.1  1.0  1.0  5  0 113845872
$GNGGA,073729.002,3112.7217,N,12136.4307,E,1,11,1.6,48.0,M,,,,0000*25
$GNRMC,073729.002,A,3112.7217,N,12136.4307,E,0.07,15446.29,,,*1C
$GPGSA,A,3,01,11,17,18,19,22,28,,,,,,1.7,1.6,0.6*39
$BDGSA,A,3,08,10,12,13,,,,,,,,,1.7,1.6,0.6*2C
$GPGSV,2,1,07,01,44,036,41,11,35,051,36,17,38,309,46,18,19,046,42*7B
$GPGSV,2,2,07,19,20,293,40,22,42,074,41,28,72,320,39*4C
$BDGSV,2,1,07,08,69,296,38,10,73,261,35,12,56,335,38,13,47,256,38*6E
$BDGSV,2,2,07,02,35,235,00,03,52,201,00,26,32,201,00*5E
$LOGTIM,3,0.000000,-173.770369,0.000000,0.000000,-61.945*3F
---00000059--- Acq_st=7 2019-10-4 07:37:29 
[00]  G01  f 41   2285.8 2045997.0  1.0  1.0  5  0 113861930
[01]  G11  f 36   2056.2 2045997.3  1.0  1.0  5  0 113861928
[02]  G17  f 45  -1837.2 2046002.4  1.0  1.0  5  0 113861927
[03]  G18  f 42   3012.1 2045996.1  1.0  1.0  5  0 113861924
[04]  G19  f 40  -2633.1 2046003.4  1.0  1.0  5  0 113861923
[05]  G22  f 41    483.5 2045999.3  1.0  1.0  5  0 113861928
[06]  G28  f 39  -1530.9 2046002.0  1.0  1.0  5  0 113861933
[16]  B08 1f 38    -52.4 4092000.1  1.0  1.0  5  0 113847881
[17]  B10 1f 35   -154.0 4092000.4  1.0  1.0  5  0 113847881
[18]  B12 1f 38   -571.1 4092001.5  1.0  1.0  5  0 113847928
[19]  B13 1f 38   -434.7 4092001.1  1.0  1.0  5  0 113847876
---00000060--- Acq_st=7 2019-10-4 07:37:30 
[00]  G01  f 41   2287.2 2045997.0  1.0  1.0  5  0 113861930
[01]  G11  f 37   2056.7 2045997.4  1.0  1.0  5  0 113861928
[02]  G17  f 45  -1837.0 2046002.4  1.0  1.0  5  0 113861927
[03]  G18  f 42   3012.4 2045996.1  1.0  1.0  5  0 113861924
[04]  G19  f 40  -2632.4 2046003.4  1.0  1.0  5  0 113861923
[05]  G22  f 41    484.5 2045999.4  1.0  1.0  5  0 113861928
[06]  G28  f 39  -1530.1 2046001.9  1.0  1.0  5  0 113861933
[16]  B08 1f 39    -52.1 4092000.2  1.0  1.0  5  0 113847881
[17]  B10 1f 36   -154.7 4092000.4  1.0  1.0  5  0 113847881
[18]  B12 1f 38   -571.2 4092001.5  1.0  1.0  5  0 113847928
[19]  B13 1f 39   -433.9 4092001.2  1.0  1.0  5  0 113847876
$GNGGA,073730.998,3112.7241,N,12136.4303,E,1,11,1.6,46.1,M,,,,0000*2F
$GNRMC,073730.998,A,3112.7241,N,12136.4303,E,0.22,15446.29,,,*1E
$GPGSA,A,3,01,11,17,18,19,22,28,,,,,,1.7,1.6,0.6*39
$BDGSA,A,3,08,10,12,13,,,,,,,,,1.7,1.6,0.6*2C
$GPGSV,2,1,07,01,44,036,41,11,35,051,37,17,38,310,45,18,19,046,42*71
$GPGSV,2,2,07,19,20,293,40,22,42,074,41,28,73,319,39*47
$BDGSV,2,1,07,08,69,296,39,10,73,261,36,12,56,335,38,13,47,256,39*6D
$BDGSV,2,2,07,02,35,235,00,03,52,201,00,26,32,201,00*5E
$LOGTIM,3,0.000000,-172.800143,0.000000,0.000000,-61.524*37
---00000061--- Acq_st=7 2019-10-4 07:37:31 
[00]  G01  f 40   2287.0 2045997.1  1.0  1.0  5  0 113863925
[01]  G11  f 36   2056.5 2045997.4  1.0  1.0  5  0 113863924
[02]  G17  f 45  -1836.9 2046002.4  1.0  1.0  5  0 113863922
[03]  G18  f 42   3012.5 2045996.1  1.0  1.0  5  0 113863919
[04]  G19  f 40  -2632.3 2046003.5  1.0  1.0  5  0 113863919
[05]  G22  f 42    484.5 2045999.4  1.0  1.0  5  0 113863923
[06]  G28  f 39  -1529.7 2046002.0  1.0  1.0  5  0 113863929
[16]  B08 1f 38    -51.8 4092000.2  1.0  1.0  5  0 113849876
[17]  B10 1f 35   -153.8 4092000.4  1.0  1.0  5  0 113849877
[18]  B12 1f 38   -570.6 4092001.4  1.0  0.9  5  0 113849923
[19]  B13 1f 39   -434.5 4092001.1  1.0  1.0  5  0 113849872
---00000062--- Acq_st=3 2019-10-4 07:37:32 
[00]  G01  f 40   2286.1 2045997.0  1.0  1.0  5  0 113863925
[01]  G11  f 37   2055.6 2045997.3  1.0  0.9  5  0 113863924
[02]  G17  f 46  -1837.8 2046002.4  1.0  1.0  5  0 113863922
[03]  G18  f 42   3011.5 2045996.1  1.0  1.0  5  0 113863919
[04]  G19  f 39  -2633.3 2046003.5  1.0  1.0  5  0 113863919
[05]  G22  f 40    484.3 2045999.4  1.0  1.0  5  0 113863923
[06]  G28  f 39  -1530.2 2046002.0  1.0  1.0  5  0 113863929
[16]  B08 1f 38    -52.4 4092000.2  1.0  1.0  5  0 113849876
[17]  B10 1f 36   -154.3 4092000.4  1.0  1.0  5  0 113849877
[18]  B12 1f 38   -571.4 4092001.5  1.0  1.0  5  0 113849923
[19]  B13 1f 39   -434.8 4092001.1  1.0  1.0  5  0 113849872
$GNGGA,073733.002,3112.7271,N,12136.4304,E,1,11,1.6,49.1,M,,,,0000*2D
$GNRMC,073733.002,A,3112.7271,N,12136.4304,E,0.52,15446.29,,,*14
$GPGSA,A,3,01,11,17,18,19,22,28,,,,,,1.7,1.6,0.6*39
$BDGSA,A,3,08,10,12,13,,,,,,,,,1.7,1.6,0.6*2C
$GPGSV,2,1,07,01,44,036,40,11,35,051,37,17,38,310,46,18,19,046,42*73
$GPGSV,2,2,07,19,20,293,39,22,42,074,40,28,73,319,39*48
$BDGSV,2,1,07,08,69,296,38,10,73,261,36,12,56,335,38,13,47,256,39*6C
$BDGSV,2,2,07,02,35,235,00,03,52,201,00,26,32,201,00*5E
$LOGTIM,3,0.000000,-175.454933,0.000000,0.000000,-61.361*35
---00000063--- Acq_st=3 2019-10-4 07:37:33 
[00]  G01  f 40   2283.7 2045997.0  1.0  1.0  5  0 113865930
[01]  G11  f 37   2052.6 2045997.3  1.0  0.9  5  0 113865928
[02]  G17  f 46  -1840.7 2046002.4  1.0  1.0  5  0 113865927
[03]  G18  f 42   3008.9 2045996.1  1.0  1.0  5  0 113865924
[04]  G19  f 40  -2636.0 2046003.4  1.0  1.0  5  0 113865923
[05]  G22  f 41    482.2 2045999.4  1.0  1.0  5  0 113865928
[06]  G28  f 39  -1532.7 2046002.0  1.0  1.0  5  0 113865933
[16]  B08 1f 39    -55.8 4092000.2  1.0  1.0  5  0 113851881
[17]  B10 1f 36   -157.2 4092000.4  1.0  1.0  5  0 113851881
[18]  B12 1f 38   -574.2 4092001.5  1.0  1.0  5  0 113851928
[19]  B13 1f 39   -437.7 4092001.1  1.0  1.0  5  0 113851876
---00000064--- Acq_st=3 2019-10-4 07:37:34 
[00]  G01  f 41   2282.3 2045997.0  1.0  1.0  5  0 113865930
[01]  G11  f 37   2051.9 2045997.3  1.0  1.0  5  0 113865928
[02]  G17  f 46  -1842.1 2046002.4  1.0  1.0  5  0 113865927
[03]  G18  f 43   3007.6 2045996.1  1.0  1.0  5  0 113865924
[04]  G19  f 40  -2637.4 2046003.4  1.0  1.0  5  0 113865923
[05]  G22  f 42    481.1 2045999.4  1.0  1.0  5  0 113865928
[06]  G28  f 40  -1533.7 2046002.0  1.0  1.0  5  0 113865933
[16]  B08 1f 38    -56.6 4092000.2  1.0  1.0  5  0 113851881
[17]  B10 1f 36   -158.8 4092000.4  1.0  1.0  5  0 113851881
[18]  B12 1f 37   -575.8 4092001.5  1.0  1.0  5  0 113851928
[19]  B13 1f 38   -439.4 4092001.2  1.0  1.0  5  0 113851876
[20]  B03  1 10  -4976.5 4092012.8  0.1  0.0  1  0         0
$GNGGA,073734.998,3112.7299,N,12136.4306,E,1,11,1.6,49.2,M,,,,0000*27
$GNRMC,073734.998,A,3112.7299,N,12136.4306,E,1.18,15446.29,,,*12
$GPGSA,A,3,01,11,17,18,19,22,28,,,,,,1.7,1.6,0.6*39
$BDGSA,A,3,08,10,12,13,,,,,,,,,1.7,1.6,0.6*2C
$GPGSV,2,1,07,01,44,036,41,11,35,051,37,17,38,310,46,18,19,046,43*73
$GPGSV,2,2,07,19,20,293,40,22,42,074,42,28,73,319,40*4A
$BDGSV,2,1,07,08,69,296,38,10,73,261,36,12,56,335,37,13,47,256,38*62
$BDGSV,2,2,07,02,35,235,00,03,52,201,00,26,32,201,00*5E
$LOGTIM,3,0.000000,-175.459663,0.000000,0.000000,-61.730*32
---00000065--- Acq_st=7 2019-10-4 07:37:35 
[00]  G01  f 41   2282.4 2045997.1  1.0  1.0  5  0 113867925
[01]  G11  f 36   2051.8 2045997.4  1.0  1.0  5  0 113867924
[02]  G17  f 46  -1842.0 2046002.4  1.0  1.0  5  0 113867922
[03]  G18  f 42   3007.6 2045996.1  1.0  1.0  5  0 113867919
[04]  G19  f 40  -2637.2 2046003.4  1.0  1.0  5  0 113867919
[05]  G22  f 41    481.8 2045999.4  1.0  1.0  5  0 113867923
[06]  G28  f 40  -1533.2 2046002.0  1.0  1.0  5  0 113867929
[16]  B08 1f 38    -56.5 4092000.1  1.0  1.0  5  0 113853876
[17]  B10 1f 35   -158.6 4092000.4  1.0  0.9  5  0 113853877
[18]  B12 1f 37   -575.8 4092001.5  1.0  1.0  5  0 113853923
[19]  B13 1f 38   -438.9 4092001.2  1.0  1.0  5  0 113853872
[20]  B03  7 18  -5154.7 4092013.3 -0.0  0.0  2  0       529
---00000066--- Acq_st=7 2019-10-4 07:37:36 
[00]  G01  f 41   2284.8 2045997.0  1.0  1.0  5  0 113867925
[01]  G11  f 37   2053.8 2045997.3  1.0  1.0  5  0 113867924
[02]  G17  f 46  -1840.4 2046002.4  1.0  1.0  5  0 113867922
[03]  G18  f 42   3009.1 2045996.1  1.0  1.0  5  0 113867919
[04]  G19  f 39  -2635.7 2046003.4  1.0  1.0  5  0 113867919
[05]  G22  f 42    484.5 2045999.4  1.0  1.0  5  0 113867923
[06]  G28  f 40  -1531.5 2046002.0  1.0  1.0  5  0 113867929
[16]  B08 1f 38    -55.5 4092000.1  1.0  1.0  5  0 113853876
[17]  B10 1f 36   -155.6 4092000.5  1.0  1.0  5  0 113853877
[18]  B12 1f 37   -573.3 4092001.5  1.0  1.0  5  0 113853923
[19]  B13 1f 39   -437.3 4092001.2  1.0  0.9  5  0 113853872
[20]  B03  7 18  -5159.0 4092013.8 -0.3  0.0  2  0       529
$GNGGA,073737.002,3112.7339,N,12136.4311,E,1,11,1.6,53.3,M,,,,0000*29
$GNRMC,073737.002,A,3112.7339,N,12136.4311,E,1.13,15446.29,,,*1D
$GPGSA,A,3,01,11,17,18,19,22,28,,,,,,1.7,1.6,0.6*39
$BDGSA,A,3,08,10,12,13,,,,,,,,,1.7,1.6,0.6*2C
$GPGSV,2,1,07,01,44,036,41,11,35,051,37,17,38,310,46,18,19,046,42*72
$GPGSV,2,2,07,19,20,293,39,22,42,074,42,28,73,319,40*44
$BDGSV,2,1,07,08,69,296,38,10,73,261,36,12,56,335,37,13,47,256,39*63
$BDGSV,2,2,07,03,52,201,18,02,35,235,00,26,32,201,00*57
$LOGTIM,3,0.000000,-178.044221,0.000000,0.000000,-61.385*3F
---00000067--- Acq_st=7 2019-10-4 07:37:37 
[00]  G01  f 42   2287.3 2045997.0  1.0  1.0  5  0 113869930
[01]  G11  f 37   2056.5 2045997.3  1.0  1.0  5  0 113869928
[02]  G17  f 46  -1837.5 2046002.4  1.0  1.0  5  0 113869927
[03]  G18  f 43   3011.9 2045996.1  1.0  1.0  5  0 113869924
[04]  G19  f 39  -2633.1 2046003.4  1.0  1.0  5  0 113869923
[05]  G22  f 41    487.0 2045999.4  1.0  1.0  5  0 113869928
[06]  G28  f 41  -1528.1 2046002.0  1.0  1.0  5  0 113869933
[16]  B08 1f 38    -52.1 4092000.1  1.0  0.9  5  0 113855881
[17]  B10 1f 36   -153.7 4092000.4  1.0  1.0  5  0 113855881
[18]  B12 1f 37   -570.5 4092001.6  1.0  1.0  5  0 113855928
[19]  B13 1f 39   -434.5 4092001.1  1.0  1.0  5  0 113855876
[20]  B03  7 14  -5154.1 4092013.3 -0.0  0.0  2  0      2533
---00000068--- Acq_st=3 2019-10-4 07:37:38 
[00]  G01  f 42   2288.4 2045997.0  1.0  1.0  5  0 113869930
[01]  G11  f 38   2057.3 2045997.3  1.0  1.0  5  0 113869928
[02]  G17  f 46  -1836.9 2046002.4  1.0  1.0  5  0 113869927
[03]  G18  f 43   3012.5 2045996.1  1.0  1.0  5  0 113869924
[04]  G19  f 39  -2632.2 2046003.4  1.0  1.0  5  0 113869923
[05]  G22  f 41    488.5 2045999.4  1.0  1.0  5  0 113869928
[06]  G28  f 41  -1526.6 2046002.0  1.0  1.0  5  0 113869933
[16]  B08 1f 38    -51.9 4092000.1  1.0  1.0  5  0 113855881
[17]  B10 1f 35   -153.2 4092000.3  1.0  0.9  5  0 113855881
[18]  B12 1f 36   -570.3 4092001.6  1.0  1.0  5  0 113855928
[19]  B13 1f 38   -433.8 4092001.2  1.0  1.0  5  0 113855876
[20]  B03  7 10  -5159.0 4092013.3 -0.1  0.0  2  0      2533
$GNGGA,073738.998,3112.7349,N,12136.4324,E,1,11,1.6,49.8,M,,,,0000*2D
$GNRMC,073738.998,A,3112.7349,N,12136.4324,E,0.54,15446.29,,,*1B
$GPGSA,A,3,01,11,17,18,19,22,28,,,,,,1.7,1.6,0.6*39
$BDGSA,A,3,08,10,12,13,,,,,,,,,1.7,1.6,0.6*2C
$GPGSV,2,1,07,01,44,036,42,11,35,051,38,17,38,310,46,18,19,046,43*7F
$GPGSV,2,2,07,19,20,293,39,22,42,074,41,28,73,319,41*46
$BDGSV,2,1,07,08,69,296,38,10,73,261,35,12,56,335,36,13,47,256,38*60
$BDGSV,2,2,07,02,35,235,00,03,52,201,00,26,32,201,00*5E
$LOGTIM,3,0.000000,-178.621091,0.000000,0.000000,-61.094*30
