FlashID=0x1 0x20 0x18
BBram_blkflag1: 4bf4: b40b
FW Ver: 1.30  
GPS00 Init Dop:  -5000, 41
GPS01 Init Dop:  -5000, 41
GPS02 Init Dop:  -5000, 41
GPS03 Init Dop:  -5000, 41
GPS04 Init Dop:  -5000, 41
GPS05 Init Dop:  -5000, 41
GPS06 Init Dop:  -5000, 41
GPS07 Init Dop:  -5000, 41
GPS08 Init Dop:  -5000, 41
GPS09 Init Dop:  -5000, 41
GPS10 Init Dop:  -5000, 41
GPS11 Init Dop:  -5000, 41
GPS12 Init Dop:  -5000, 41
GPS13 Init Dop:  -5000, 41
GPS14 Init Dop:  -5000, 41
GPS15 Init Dop:  -5000, 41
GPS16 Init Dop:  -5000, 41
GPS17 Init Dop:  -5000, 41
GPS18 Init Dop:  -5000, 41
GPS19 Init Dop:  -5000, 41
GPS20 Init Dop:  -5000, 41
GPS21 Init Dop:  -5000, 41
GPS22 Init Dop:  -5000, 41
GPS23 Init Dop:  -5000, 41
GPS24 Init Dop:  -5000, 41
GPS25 Init Dop:  -5000, 41
GPS26 Init Dop:  -5000, 41
GPS27 Init Dop:  -5000, 41
GPS28 Init Dop:  -5000, 41
GPS29 Init Dop:  -5000, 41
GPS30 Init Dop:  -5000, 41
GPS31 Init Dop:  -5000, 41
BDS00 Init Dop:  -5000, 41
BDS01 Init Dop:  -5000, 41
BDS02 Init Dop:  -5000, 41
BDS03 Init Dop:  -5000, 41
BDS04 Init Dop:  -5000, 41
BDS05 Init Dop:  -5000, 41
BDS06 Init Dop:  -5000, 41
BDS07 Init Dop:  -5000, 41
BDS08 Init Dop:  -5000, 41
BDS09 Init Dop:  -5000, 41
BDS10 Init Dop:  -5000, 41
BDS11 Init Dop:  -5000, 41
BDS12 Init Dop:  -5000, 41
BDS13 Init Dop:  -5000, 41
---00000001--- Acq_st=3 2019-10-4 08:10:29 
[00]  G01  1  7   7489.4 2045990.9 -0.0  0.0  1  0         0
$GNGGA,000000.000,,,,,0,00,,,M,,,,0000*2B
$GNRMC,000000.000,A,,,,,,,000000,,*26
$GPGSA,A,1,,,,,,,,,,,,,,,*1E
$BDGSA,A,1,,,,,,,,,,,,,,,*0F
$LOGTIM,0,0.000000,0.000000,0.000000,0.000000,0.000*0A
---00000002--- Acq_st=3 2019-10-4 08:10:30 
[00]  G01  1 12   7590.7 2045991.0 -0.2  0.0  1  0         7
$GNGGA,000000.000,,,,,0,00,,,M,,,,0000*2B
$GNRMC,000000.000,A,,,,,,,000000,,*26
$GPGSA,A,1,,,,,,,,,,,,,,,*1E
$BDGSA,A,1,,,,,,,,,,,,,,,*0F
$LOGTIM,0,0.000000,0.000000,0.000000,0.000000,0.000*0A
---00000003--- Acq_st=3 2019-10-4 08:10:31 
[00]  G01  1  7   7482.7 2045990.8 -0.2  0.0  1  0         7
$GNGGA,000000.000,,,,,0,00,,,M,,,,0000*2B
$GNRMC,000000.000,A,,,,,,,000000,,*26
$GPGSA,A,1,,,,,,,,,,,,,,,*1E
$BDGSA,A,1,,,,,,,,,,,,,,,*0F
$LOGTIM,0,0.000000,0.000000,0.000000,0.000000,0.000*0A
---00000004--- Acq_st=3 2019-10-4 08:10:32 
$GNGGA,000000.000,,,,,0,00,,,M,,,,0000*2B
$GNRMC,000000.000,A,,,,,,,000000,,*26
$GPGSA,A,1,,,,,,,,,,,,,,,*1E
$BDGSA,A,1,,,,,,,,,,,,,,,*0F
$LOGTIM,0,0.000000,0.000000,0.000000,0.000000,0.000*0A
---00000005--- Acq_st=7 2019-10-4 08:10:33 
[16]  B11  1  7   4942.9 4091987.0 -0.0  0.0  1  0         0
[17]  B12  1  7   5010.9 4091986.8 -0.0  0.0  1  0         0
$GNGGA,000000.000,,,,,0,00,,,M,,,,0000*2B
$GNRMC,000000.000,A,,,,,,,000000,,*26
$GPGSA,A,1,,,,,,,,,,,,,,,*1E
$BDGSA,A,1,,,,,,,,,,,,,,,*0F
$LOGTIM,0,0.000000,0.000000,0.000000,0.000000,0.000*0A
---00000006--- Acq_st=7 2019-10-4 08:10:34 
[16]  B11  1  8   4705.3 4091987.3  0.2  0.0  1  0       534
[17]  B12  1  7   4948.9 4091987.2 -0.2  0.0  1  0       450
$GNGGA,000000.000,,,,,0,00,,,M,,,,0000*2B
$GNRMC,000000.000,A,,,,,,,000000,,*26
$GPGSA,A,1,,,,,,,,,,,,,,,*1E
$BDGSA,A,1,,,,,,,,,,,,,,,*0F
$LOGTIM,0,0.000000,0.000000,0.000000,0.000000,0.000*0A
---00000007--- Acq_st=7 2019-10-4 08:10:35 
[16]  B11  1  7   4705.4 4091987.4  0.1  0.0  1  0      1534
[17]  B12  1  7   5075.4 4091986.9  0.2  0.0  1  0      1450
$GNGGA,000000.000,,,,,0,00,,,M,,,,0000*2B
$GNRMC,000000.000,A,,,,,,,000000,,*26
$GPGSA,A,1,,,,,,,,,,,,,,,*1E
$BDGSA,A,1,,,,,,,,,,,,,,,*0F
$LOGTIM,0,0.000000,0.000000,0.000000,0.000000,0.000*0A
---00000008--- Acq_st=3 2019-10-4 08:10:36 
[00]  G01  1 27   2596.0 2045997.1  0.1  0.0  1  0         7
[01]  G03  1 25     21.8 2046000.8 -0.0  0.0  1  0         0
[02]  G11  1  8   2284.9 2045999.4  0.0  0.0  1  0         0
$GNGGA,000000.000,,,,,0,00,,,M,,,,0000*2B
$GNRMC,000000.000,A,,,,,,,000000,,*26
$GPGSA,A,1,,,,,,,,,,,,,,,*1E
$BDGSA,A,1,,,,,,,,,,,,,,,*0F
$LOGTIM,0,0.000000,0.000000,0.000000,0.000000,0.000*0A
---00000009--- Acq_st=3 2019-10-4 08:10:37 
[00]  G01  7 30   2599.8 2045996.5  0.4  1.0  5  0         4
[01]  G03  7 28     38.8 2045999.8  0.4  1.0 10  0        16
[02]  G11  1 28   2263.0 2045997.1  0.0  0.0  1  0        15
[03]  G17  1 27  -1766.8 2046002.6  0.0  0.0  1  0         0
[04]  G18  1 25   3017.1 2045996.2  0.1  0.0  1  0         0
[05]  G19  1 16  -2513.4 2046004.9 -0.1  0.0  1  0         0
[06]  G22  1 11   1558.9 2045999.5 -0.1  0.0  1  0         0
$GNGGA,000000.000,,,,,0,00,,,M,,,,0000*2B
$GNRMC,000000.000,A,,,,,,,000000,,*26
$GPGSA,A,1,,,,,,,,,,,,,,,*1E
$BDGSA,A,1,,,,,,,,,,,,,,,*0F
$GPGSV,1,1,02,01,00,000,30,03,00,000,28*70
$LOGTIM,0,0.000000,0.000000,0.000000,0.000000,0.000*0A
---00000010--- Acq_st=3 2019-10-4 08:10:38 
[00]  G01  7 43   2599.1 2045996.6  1.0  1.0  5  0        11
[01]  G03  7 39     39.5 2045999.9  1.0  1.0  5  0        16
[02]  G11  7 26   2244.6 2045996.9  0.2  0.3 20  0        15
[03]  G17  7 26  -1760.6 2046002.3  0.4  0.0 20  0         5
[04]  G18  7 16   3022.1 2045996.0  0.2  0.0 20  0         0
[05]  G19  7 22  -2536.3 2046003.2  0.2  0.0 20  0        17
[06]  G22  7  7   1574.4 2045997.7  0.4  0.0  5  0         3
[07]  G28  1 28   -531.1 2046001.3 -0.1  0.0  1  0         0
$GNGGA,000000.000,,,,,0,00,,,M,,,,0000*2B
$GNRMC,000000.000,A,,,,,,,000000,,*26
$GPGSA,A,1,,,,,,,,,,,,,,,*1E
$BDGSA,A,1,,,,,,,,,,,,,,,*0F
$GPGSV,2,1,06,01,00,000,43,03,00,000,39,11,00,000,26,17,00,000,26*75
$GPGSV,2,2,06,18,00,000,16,19,00,000,22*79
$LOGTIM,0,0.000000,0.000000,0.000000,0.000000,0.000*0A
---00000011--- Acq_st=3 2019-10-4 08:10:39 
[00]  G01  7 44   2600.5 2045996.6  1.0  1.0  5  0        11
[01]  G03  7 39     41.6 2045999.9  1.0  1.0  5  0        16
[02]  G11  7 25   2246.5 2045997.0 -0.3 -0.1 10  0        10
[03]  G17  7 42  -1759.1 2046002.3  0.9  1.0  5  0        14
[04]  G18  7 25   3023.9 2045996.0  0.6 -0.0 20  0         5
[05]  G19  7 37  -2534.1 2046003.2  0.9  1.0  5  0        11
[06]  G22  7 41   1576.3 2045997.9  0.9  1.0  5  0        11
[07]  G28  7 29   -521.1 2046000.6  0.4  1.0  5  0        13
[16]  B08  1  7     19.1 4092000.1 -0.1  0.0  1  0      2534
$GNGGA,000000.000,,,,,0,00,,,M,,,,0000*2B
$GNRMC,000000.000,A,,,,,,,000000,,*26
$GPGSA,A,1,,,,,,,,,,,,,,,*1E
$BDGSA,A,1,,,,,,,,,,,,,,,*0F
$GPGSV,2,1,08,01,00,000,44,03,00,000,39,11,00,000,25,17,00,000,42*7D
$GPGSV,2,2,08,18,00,000,25,19,00,000,37,22,00,000,41,28,00,000,29*77
$LOGTIM,0,0.000000,0.000000,0.000000,0.000000,0.000*0A
---00000012--- Acq_st=7 2019-10-4 08:10:40 
[00]  G01  7 44   2598.2 2045996.6  1.0  1.0  5  0        11
[01]  G03  7 38     40.0 2046000.0  1.0  1.0  5  0        16
[02]  G11  7 26   2243.9 2045997.0 -0.9 -0.1 10  0        10
[03]  G17  7 43  -1761.7 2046002.2  1.0  1.0  5  0        14
[04]  G18  7 25   3021.4 2045996.1  0.5  0.0 20  0         5
[05]  G19  7 37  -2536.9 2046003.3  1.0  1.0  5  0        11
[06]  G22  7 41   1574.2 2045997.9  1.0  1.0  5  0        11
[07]  G28  7 40   -523.6 2046000.7  1.0  1.0  5  0        19
[16]  B08  7  7      3.4 4092000.0  0.1  0.0 20  0       394
$GNGGA,000000.000,,,,,0,00,,,M,,,,0000*2B
$GNRMC,000000.000,A,,,,,,,000000,,*26
$GPGSA,A,1,,,,,,,,,,,,,,,*1E
$BDGSA,A,1,,,,,,,,,,,,,,,*0F
$GPGSV,2,1,08,01,00,000,44,03,00,000,38,11,00,000,26,17,00,000,43*7E
$GPGSV,2,2,08,18,00,000,25,19,00,000,37,22,00,000,41,28,00,000,40*78
$LOGTIM,0,0.000000,0.000000,0.000000,0.000000,0.000*0A
---00000013--- Acq_st=7 2019-10-4 08:10:41 
[00]  G01  7 44   2595.1 2045996.6  1.0  1.0  5  0        11
[01]  G03  7 38     36.9 2045999.9  1.0  1.0  5  0        16
[02]  G11  7 26   2241.0 2045997.1 -0.9  0.0 10  0        10
[03]  G17  7 43  -1764.1 2046002.3  1.0  1.0  5  0        14
[04]  G18  7 24   3018.0 2045996.1 -0.0 -0.1 20  0         5
[05]  G19  7 37  -2539.0 2046003.3  1.0  1.0  5  0        11
[06]  G22  7 41   1572.0 2045997.9  1.0  1.0  5  0        11
[07]  G28  7 41   -526.1 2046000.7  1.0  1.0  5  0        19
[16]  B08  7 38      1.5 4092000.0  0.6  1.0  5  0      1385
$GNGGA,000000.000,,,,,0,00,,,M,,,,0000*2B
$GNRMC,000000.000,A,,,,,,,000000,,*26
$GPGSA,A,1,,,,,,,,,,,,,,,*1E
$BDGSA,A,1,,,,,,,,,,,,,,,*0F
$GPGSV,2,1,08,01,00,000,44,03,00,000,38,11,00,000,26,17,00,000,43*7E
$GPGSV,2,2,08,18,00,000,24,19,00,000,37,22,00,000,41,28,00,000,41*78
$BDGSV,1,1,01,08,00,000,38*5A
$LOGTIM,0,0.000000,0.000000,0.000000,0.000000,0.000*0A
---00000014--- Acq_st=3 2019-10-4 08:10:42 
[00]  G01  7 44   2595.6 2045996.6  1.0  1.0  5  0        11
[01]  G03  7 38     38.6 2045999.9  1.0  1.0  5  0        16
[02]  G11  7 26   2240.4 2045997.0 -0.9 -0.0 10  0        10
[03]  G17  7 43  -1764.2 2046002.3  1.0  1.0  5  0        14
[04]  G18  7 25   3018.6 2045996.2  0.5 -0.0 20  0         5
[05]  G19  7 38  -2539.5 2046003.2  1.0  1.0  5  0        11
[06]  G22  7 41   1572.8 2045998.0  1.0  1.0  5  0        11
[07]  G28  7 41   -525.3 2046000.7  1.0  1.0  5  0        19
[08]  G06  1  7  -2657.4 2046003.3  0.1  0.0  1  0         0
[16]  B08  7 38      2.1 4091999.9  1.0  1.0  5  0      2385
$GNGGA,000000.000,,,,,0,00,,,M,,,,0000*2B
$GNRMC,000000.000,A,,,,,,,000000,,*26
$GPGSA,A,1,,,,,,,,,,,,,,,*1E
$BDGSA,A,1,,,,,,,,,,,,,,,*0F
$GPGSV,2,1,08,01,00,000,44,03,00,000,38,11,00,000,26,17,00,000,43*7E
$GPGSV,2,2,08,18,00,000,25,19,00,000,38,22,00,000,41,28,00,000,41*76
$BDGSV,1,1,01,08,00,000,38*5A
$LOGTIM,0,0.000000,0.000000,0.000000,0.000000,0.000*0A
---00000015--- Acq_st=3 2019-10-4 08:10:43 
[00]  G01  f 45   2595.8 2045996.6  1.0  1.0  5  0        11
[01]  G03  f 38     39.0 2045999.9  1.0  1.0  5  0        16
[02]  G11  7 26   2239.9 2045997.0 -1.0  0.0 10  0        10
[03]  G17  f 43  -1764.3 2046002.3  1.0  1.0  5  0        14
[04]  G18  7 25   3017.9 2045996.1  0.9  0.0 20  0         5
[05]  G19  f 38  -2539.6 2046003.3  1.0  1.0  5  0        11
[06]  G22  f 41   1573.0 2045997.9  1.0  1.0  5  0        11
[07]  G28  f 41   -524.4 2046000.7  1.0  1.0  5  0        19
[08]  G06  7 23  -2615.6 2046003.5 -0.1  0.0 20  0        15
[16]  B08  7 38      1.6 4092000.0  1.0  1.0  5  0      3385
$GNGGA,000000.000,,,,,0,00,,,M,,,,0000*2B
$GNRMC,000000.000,A,,,,,,,000000,,*26
$GPGSA,A,1,,,,,,,,,,,,,,,*1E
$BDGSA,A,1,,,,,,,,,,,,,,,*0F
$GPGSV,3,1,09,01,00,000,45,03,00,000,38,11,00,000,26,17,00,000,43*7F
$GPGSV,3,2,09,18,00,000,25,19,00,000,38,22,00,000,41,28,00,000,41*76
$GPGSV,3,3,09,06,00,000,23*47
$BDGSV,1,1,01,08,00,000,38*5A
$LOGTIM,0,0.000000,0.000000,0.000000,0.000000,0.000*0A
---00000016--- Acq_st=3 2019-10-4 08:10:44 
[00]  G01  f 45   2594.3 2045996.6  1.0  1.0  5  0 115855731
[01]  G03  f 38     37.9 2045999.9  1.0  1.0  5  0 115855736
[02]  G11  7 26   2239.3 2045997.1 -1.0 -0.0 10  0        10
[03]  G17  f 43  -1765.3 2046002.3  1.0  1.0  5  0 115855734
[04]  G18  7 25   3017.0 2045996.0  0.8  0.0 20  0         5
[05]  G19  f 38  -2541.0 2046003.3  1.0  1.0  5  0 115855731
[06]  G22  f 41   1572.7 2045997.9  1.0  1.0  5  0 115855731
[07]  G28  f 41   -525.7 2046000.7  1.0  1.0  5  0 115855739
[08]  G06  7 33  -2621.7 2046003.4  0.5  1.0  5  0        11
[16]  B08  7 38      1.0 4092000.0  1.0  1.0  5  0      4385
[17]  B03  1 10  -5191.9 4092013.9 -0.0  0.0  1  0      2450
$GNGGA,000000.000,,,,,0,00,,,M,,,,0000*2B
$GNRMC,000000.000,A,,,,,,,000000,,*26
$GPGSA,A,1,,,,,,,,,,,,,,,*1E
$BDGSA,A,1,,,,,,,,,,,,,,,*0F
$GPGSV,3,1,09,01,00,000,45,03,00,000,38,11,00,000,26,17,00,000,43*7F
$GPGSV,3,2,09,18,00,000,25,19,00,000,38,22,00,000,41,28,00,000,41*76
$GPGSV,3,3,09,06,00,000,33*46
$BDGSV,1,1,01,08,00,000,38*5A
$LOGTIM,0,0.000000,0.000000,0.000000,0.000000,0.000*0A
---00000017--- Acq_st=3 2019-10-4 08:10:45 
[00]  G01  f 44   2592.8 2045996.6  1.0  1.0  5  0 115856731
[01]  G03  f 37     36.9 2045999.9  1.0  0.9  5  0 115856736
[02]  G11  7 26   2237.4 2045997.1 -0.9  0.0 10  0        10
[03]  G17  f 44  -1767.2 2046002.3  1.0  1.0  5  0 115856734
[04]  G18  7 26   3014.9 2045996.1  0.5  0.0 20  0         5
[05]  G19  f 38  -2542.8 2046003.3  1.0  1.0  5  0 115856731
[06]  G22  f 41   1571.5 2045998.0  1.0  1.0  5  0 115856731
[07]  G28  f 41   -526.7 2046000.7  1.0  1.0  5  0 115856739
[08]  G06  7 34  -2622.8 2046003.4  1.0  1.0  5  0        11
[16]  B08 1f 38     -1.1 4092000.0  1.0  1.0  5  0      5385
[17]  B03  1 10  -5125.5 4092013.8 -0.2  0.0  1  0       548
[18]  B12  1  7   -453.9 4092002.0  0.1  0.0  1  0         0
$GNGGA,000000.000,,,,,0,00,,,M,,,,0000*2B
$GNRMC,000000.000,A,,,,,,,000000,,*26
$GPGSA,A,1,,,,,,,,,,,,,,,*1E
$BDGSA,A,1,,,,,,,,,,,,,,,*0F
$GPGSV,3,1,09,01,00,000,44,03,00,000,37,11,00,000,26,17,00,000,44*76
$GPGSV,3,2,09,18,00,000,26,19,00,000,38,22,00,000,41,28,00,000,41*75
$GPGSV,3,3,09,06,00,000,34*41
$BDGSV,1,1,01,08,00,000,38*5A
$LOGTIM,0,0.000000,0.000000,0.000000,0.000000,0.000*0A
---00000018--- Acq_st=7 2019-10-4 08:10:46 
[00]  G01  f 44   2590.3 2045996.6  1.0  1.0  5  0 115857731
[01]  G03  f 37     34.8 2046000.0  1.0  0.9  5  0 115857736
[02]  G11  7 26   2235.1 2045997.0 -0.9  0.0 10  0        10
[03]  G17  f 44  -1769.3 2046002.3  1.0  1.0  5  0 115857734
[04]  G18  7 25   3012.8 2045996.0  0.1 -0.0 20  0         5
[05]  G19  f 38  -2545.2 2046003.3  1.0  1.0  5  0 115857731
[06]  G22  f 41   1569.4 2045997.9  1.0  1.0  5  0 115857731
[07]  G28  f 41   -528.5 2046000.7  1.0  1.0  5  0 115857739
[08]  G06  7 35  -2625.4 2046003.4  1.0  1.0  5  0        11
[16]  B08 1f 38     -3.8 4092000.0  1.0  1.0  5  0 115843685
[17]  B03  1 10  -5326.1 4092014.4 -0.0  0.0  1  0      1548
[18]  B12  1  7   -412.9 4092001.1  0.2  0.0  1  0       285
$GNGGA,000000.000,,,,,0,00,,,M,,,,0000*2B
$GNRMC,000000.000,A,,,,,,,000000,,*26
$GPGSA,A,1,,,,,,,,,,,,,,,*1E
$BDGSA,A,1,,,,,,,,,,,,,,,*0F
$GPGSV,3,1,09,01,00,000,44,03,00,000,37,11,00,000,26,17,00,000,44*76
$GPGSV,3,2,09,18,00,000,25,19,00,000,38,22,00,000,41,28,00,000,41*76
$GPGSV,3,3,09,06,00,000,35*40
$BDGSV,1,1,01,08,00,000,38*5A
$LOGTIM,0,0.000000,0.000000,0.000000,0.000000,0.000*0A
---00000019--- Acq_st=7 2019-10-4 08:10:47 
[00]  G01  f 43   2590.0 2045996.7  1.0  1.0  5  0 115858731
[01]  G03  f 36     35.1 2046000.0  1.0  0.9  5  0 115858736
[02]  G11  7 26   2234.4 2045997.1 -0.9 -0.0 10  0        10
[03]  G17  f 44  -1769.9 2046002.3  1.0  1.0  5  0 115858734
[04]  G18  7 25   3011.9 2045996.2  0.7  0.1 20  0         5
[05]  G19  f 38  -2546.1 2046003.3  1.0  1.0  5  0 115858731
[06]  G22  f 41   1569.2 2045997.9  1.0  1.0  5  0 115858731
[07]  G28  f 41   -528.4 2046000.7  1.0  1.0  5  0 115858739
[08]  G06  7 35  -2625.4 2046003.4  1.0  0.9  5  0        11
[16]  B08 1f 38     -4.2 4091999.9  1.0  1.0  5  0 115844685
[18]  B12  7 39   -413.5 4092001.1  0.9  1.0  5  0      1285
$GNGGA,000000.000,,,,,0,00,,,M,,,,0000*2B
$GNRMC,000000.000,A,,,,,,,000000,,*26
$GPGSA,A,1,,,,,,,,,,,,,,,*1E
$BDGSA,A,1,,,,,,,,,,,,,,,*0F
$GPGSV,3,1,09,01,00,000,43,03,00,000,36,11,00,000,26,17,00,000,44*70
$GPGSV,3,2,09,18,00,000,25,19,00,000,38,22,00,000,41,28,00,000,41*76
$GPGSV,3,3,09,06,00,000,35*40
$BDGSV,1,1,02,08,00,000,38,12,00,000,39*60
$LOGTIM,0,0.000000,0.000000,0.000000,0.000000,0.000*0A
---00000020--- Acq_st=3 2019-10-4 08:10:48 
[00]  G01  f 43   2589.7 2045996.6  1.0  1.0  5  0 115859731
[01]  G03  f 34     36.0 2046000.0  1.0  0.9  5  0 115859736
[02]  G11  7 26   2235.8 2045997.0 -1.0  0.0 10  0        10
[03]  G17  f 44  -1770.2 2046002.3  1.0  1.0  5  0 115859734
[04]  G18  7 25   3012.0 2045996.2  0.9 -0.0 20  0         5
[05]  G19  f 39  -2545.3 2046003.3  1.0  1.0  5  0 115859731
[06]  G22  f 41   1569.7 2045997.9  1.0  1.0  5  0 115859731
[07]  G28  f 41   -528.6 2046000.7  1.0  1.0  5  0 115859739
[08]  G06  7 35  -2625.3 2046003.4  1.0  1.0  5  0        11
[16]  B08 1f 38     -3.8 4092000.0  1.0  1.0  5  0 115845685
[18]  B12  7 44   -413.4 4092001.1  1.0  1.0  5  0      2273
$GNGGA,000000.000,,,,,0,00,,,M,,,,0000*2B
$GNRMC,000000.000,A,,,,,,,000000,,*26
$GPGSA,A,1,,,,,,,,,,,,,,,*1E
$BDGSA,A,1,,,,,,,,,,,,,,,*0F
$GPGSV,3,1,09,01,00,000,43,03,00,000,34,11,00,000,26,17,00,000,44*72
$GPGSV,3,2,09,18,00,000,25,19,00,000,39,22,00,000,41,28,00,000,41*77
$GPGSV,3,3,09,06,00,000,35*40
$BDGSV,1,1,02,08,00,000,38,12,00,000,44*6A
$LOGTIM,0,0.000000,0.000000,0.000000,0.000000,0.000*0A
---00000021--- Acq_st=3 2019-10-4 08:10:49 
[00]  G01  f 44   2589.6 2045996.7  1.0  1.0  5  0 115860731
[01]  G03  f 35     36.7 2046000.0  1.0  0.9  5  0 115860736
[02]  G11  7 26   2235.9 2045997.2 -1.0  0.0 10  0        10
[03]  G17  f 44  -1770.2 2046002.3  1.0  1.0  5  0 115860734
[04]  G18  7 24   3011.6 2045996.1  0.9 -0.1 20  0         5
[05]  G19  f 40  -2545.9 2046003.3  1.0  1.0  5  0 115860731
[06]  G22  f 41   1569.4 2045998.0  1.0  1.0  5  0 115860731
[07]  G28  f 41   -527.9 2046000.7  1.0  1.0  5  0 115860739
[08]  G06  f 36  -2625.3 2046003.4  1.0  1.0  5  0        11
[16]  B08 1f 38     -4.8 4092000.0  1.0  1.0  5  0 115846685
[18]  B12  7 43   -413.4 4092001.1  1.0  1.0  5  0      3273
$GNGGA,000000.000,,,,,0,00,,,M,,,,0000*2B
$GNRMC,000000.000,A,,,,,,,000000,,*26
$GPGSA,A,1,,,,,,,,,,,,,,,*1E
$BDGSA,A,1,,,,,,,,,,,,,,,*0F
$GPGSV,3,1,09,01,00,000,44,03,00,000,35,11,00,000,26,17,00,000,44*74
$GPGSV,3,2,09,18,00,000,24,19,00,000,40,22,00,000,41,28,00,000,41*78
$GPGSV,3,3,09,06,00,000,36*43
$BDGSV,1,1,02,08,00,000,38,12,00,000,43*6D
$LOGTIM,0,0.000000,0.000000,0.000000,0.000000,0.000*0A
---00000022--- Acq_st=3 2019-10-4 08:10:50 
[00]  G01  f 43   2589.6 2045996.7  1.0  1.0  5  0 115861731
[01]  G03  f 35     36.6 2046000.0  1.0  1.0  5  0 115861736
[02]  G11  7 26   2235.5 2045997.2 -1.0 -0.0 10  0        10
[03]  G17  f 45  -1770.4 2046002.3  1.0  1.0  5  0 115861734
[04]  G18  7 25   3011.1 2045996.0  0.9  0.0 20  0         5
[05]  G19  f 40  -2545.4 2046003.3  1.0  1.0  5  0 115861731
[06]  G22  f 41   1570.0 2045998.0  1.0  1.0  5  0 115861731
[07]  G28  f 41   -527.6 2046000.7  1.0  1.0  5  0 115861739
[08]  G06  f 36  -2625.3 2046003.4  1.0  0.9  5  0 115861731
[16]  B08 1f 38     -4.7 4092000.0  1.0  1.0  5  0 115847685
[18]  B12  7 43   -413.9 4092001.1  1.0  1.0  5  0      4273
$GNGGA,000000.000,,,,,0,00,,,M,,,,0000*2B
$GNRMC,000000.000,A,,,,,,,000000,,*26
$GPGSA,A,1,,,,,,,,,,,,,,,*1E
$BDGSA,A,1,,,,,,,,,,,,,,,*0F
$GPGSV,3,1,09,01,00,000,43,03,00,000,35,11,00,000,26,17,00,000,45*72
$GPGSV,3,2,09,18,00,000,25,19,00,000,40,22,00,000,41,28,00,000,41*79
$GPGSV,3,3,09,06,00,000,36*43
$BDGSV,1,1,02,08,00,000,38,12,00,000,43*6D
$LOGTIM,0,0.000000,0.000000,0.000000,0.000000,0.000*0A
---00000023--- Acq_st=7 2019-10-4 08:10:51 
[00]  G01  f 43   2589.4 2045996.7  1.0  1.0  5  0 115862731
[01]  G03  f 35     37.0 2046000.0  1.0  0.9  5  0 115862736
[02]  G11  7 26   2235.5 2045997.0 -1.0 -0.1 10  0        10
[03]  G17  f 45  -1770.3 2046002.3  1.0  1.0  5  0 115862734
[04]  G18  7 25   3011.4 2045996.1  0.9 -0.1 20  0         5
[05]  G19  f 40  -2545.9 2046003.3  1.0  1.0  5  0 115862731
[06]  G22  f 41   1570.8 2045998.0  1.0  1.0  5  0 115862731
[07]  G28  f 41   -527.2 2046000.7  1.0  1.0  5  0 115862739
[08]  G06  f 36  -2624.6 2046003.4  1.0  1.0  5  0 115862731
[16]  B08 1f 38     -4.6 4092000.0  1.0  1.0  5  0 115848685
[17]  B07  1  7  -4858.3 4092013.2  0.1  0.0  1  0      2548
[18]  B12 1f 43   -413.8 4092001.1  1.0  1.0  5  0      5273
$GNGGA,000000.000,,,,,0,00,,,M,,,,0000*2B
$GNRMC,000000.000,A,,,,,,,000000,,*26
$GPGSA,A,1,,,,,,,,,,,,,,,*1E
$BDGSA,A,1,,,,,,,,,,,,,,,*0F
$GPGSV,3,1,09,01,00,000,43,03,00,000,35,11,00,000,26,17,00,000,45*72
$GPGSV,3,2,09,18,00,000,25,19,00,000,40,22,00,000,41,28,00,000,41*79
$GPGSV,3,3,09,06,00,000,36*43
$BDGSV,1,1,02,08,00,000,38,12,00,000,43*6D
$LOGTIM,0,0.000000,0.000000,0.000000,0.000000,0.000*0A
---00000024--- Acq_st=7 2019-10-4 08:10:52 
[00]  G01  f 43   2590.5 2045996.7  1.0  1.0  5  0 115863731
[01]  G03  f 35     38.2 2045999.9  1.0  1.0  5  0 115863736
[02]  G11  7 26   2236.3 2045997.1 -1.0 -0.1 10  0        10
[03]  G17  f 45  -1769.7 2046002.3  1.0  1.0  5  0 115863734
[04]  G18  7 25   3011.9 2045996.0  0.9 -0.0 20  0         5
[05]  G19  f 39  -2545.2 2046003.3  1.0  1.0  5  0 115863731
[06]  G22  f 41   1571.7 2045997.9  1.0  1.0  5  0 115863731
[07]  G28  f 41   -525.7 2046000.7  1.0  1.0  5  0 115863739
[08]  G06  f 36  -2624.0 2046003.4  1.0  1.0  5  0 115863731
[16]  B08 1f 38     -4.0 4092000.0  1.0  1.0  5  0 115849685
[17]  B07  1  7  -4780.0 4092013.3  0.1  0.0  1  0       968
[18]  B12 1f 43   -413.0 4092001.1  1.0  1.0  5  0 115849733
$GNGGA,000000.000,,,,,0,00,,,M,,,,0000*2B
$GNRMC,000000.000,A,,,,,,,000000,,*26
$GPGSA,A,1,,,,,,,,,,,,,,,*1E
$BDGSA,A,1,,,,,,,,,,,,,,,*0F
$GPGSV,3,1,09,01,00,000,43,03,00,000,35,11,00,000,26,17,00,000,45*72
$GPGSV,3,2,09,18,00,000,25,19,00,000,39,22,00,000,41,28,00,000,41*77
$GPGSV,3,3,09,06,00,000,36*43
$BDGSV,1,1,02,08,00,000,38,12,00,000,43*6D
$LOGTIM,0,0.000000,0.000000,0.000000,0.000000,0.000*0A
---00000025--- Acq_st=7 2019-10-4 08:10:53 
[00]  G01  f 43   2591.7 2045996.6  1.0  1.0  5  0 115864731
[01]  G03  f 35     40.9 2045999.9  1.0  1.0  5  0 115864736
[02]  G11  7 26   2237.5 2045997.0 -1.0 -0.0 10  0        10
[03]  G17  f 44  -1768.2 2046002.3  1.0  1.0  5  0 115864734
[04]  G18  7 25   3013.0 2045996.1  0.9 -0.0 20  0         5
[05]  G19  f 39  -2543.4 2046003.3  1.0  1.0  5  0 115864731
[06]  G22  f 41   1573.3 2045998.0  1.0  1.0  5  0 115864731
[07]  G28  f 41   -523.8 2046000.7  1.0  1.0  5  0 115864739
[08]  G06  f 36  -2621.9 2046003.4  1.0  1.0  5  0 115864731
[16]  B08 1f 38     -2.9 4092000.0  1.0  1.0  5  0 115850685
[17]  B07  1  7  -4803.5 4092013.0 -0.0  0.0  1  0      1968
[18]  B12 1f 43   -411.7 4092001.1  1.0  1.0  5  0 115850733
$GNGGA,000000.000,,,,,0,00,,,M,,,,0000*2B
$GNRMC,000000.000,A,,,,,,,000000,,*26
$GPGSA,A,1,,,,,,,,,,,,,,,*1E
$BDGSA,A,1,,,,,,,,,,,,,,,*0F
$GPGSV,3,1,09,01,00,000,43,03,00,000,35,11,00,000,26,17,00,000,44*73
$GPGSV,3,2,09,18,00,000,25,19,00,000,39,22,00,000,41,28,00,000,41*77
$GPGSV,3,3,09,06,00,000,36*43
$BDGSV,1,1,02,08,00,000,38,12,00,000,43*6D
$LOGTIM,0,0.000000,0.000000,0.000000,0.000000,0.000*0A
---00000026--- Acq_st=3 2019-10-4 08:10:54 
[00]  G01  f 43   2594.5 2045996.6  1.0  1.0  5  0 115865731
[01]  G03  f 35     43.9 2046000.0  1.0  1.0  5  0 115865736
[02]  G11  7 26   2240.3 2045996.9 -0.9  0.0 10  0        10
[03]  G17  f 44  -1765.5 2046002.3  1.0  1.0  5  0 115865734
[04]  G18  7 25   3015.4 2045996.1  0.3 -0.0 20  0         5
[05]  G19  f 38  -2540.4 2046003.3  1.0  1.0  5  0 115865731
[06]  G22  f 41   1576.4 2045998.0  1.0  1.0  5  0 115865731
[07]  G28  f 41   -520.7 2046000.7  1.0  1.0  5  0 115865739
[08]  G06  f 36  -2619.6 2046003.4  1.0  1.0  5  0 115865731
[16]  B08 1f 38     -0.2 4092000.0  1.0  1.0  5  0 115851685
[18]  B12 1f 44   -409.0 4092001.1  1.0  1.0  5  0 115851733
$GNGGA,000000.000,,,,,0,00,,,M,,,,0000*2B
$GNRMC,000000.000,A,,,,,,,000000,,*26
$GPGSA,A,1,,,,,,,,,,,,,,,*1E
$BDGSA,A,1,,,,,,,,,,,,,,,*0F
$GPGSV,3,1,09,01,00,000,43,03,00,000,35,11,00,000,26,17,00,000,44*73
$GPGSV,3,2,09,18,00,000,25,19,00,000,38,22,00,000,41,28,00,000,41*76
$GPGSV,3,3,09,06,00,000,36*43
$BDGSV,1,1,02,08,00,000,38,12,00,000,44*6A
$LOGTIM,0,0.000000,0.000000,0.000000,0.000000,0.000*0A
---00000027--- Acq_st=3 2019-10-4 08:10:55 
[00]  G01  f 44   2597.3 2045996.6  1.0  1.0  5  0 115866731
[01]  G03  f 35     47.0 2045999.8  1.0  1.0  5  0 115866736
[02]  G11  7 26   2242.0 2045997.0 -0.9 -0.0 10  0        10
[03]  G17  f 44  -1762.4 2046002.3  1.0  1.0  5  0 115866734
[04]  G18  7 26   3018.4 2045996.2 -0.0  0.2 20  0         5
[05]  G19  f 38  -2537.8 2046003.3  1.0  1.0  5  0 115866731
[06]  G22  f 41   1580.1 2045998.0  1.0  1.0  5  0 115866731
[07]  G28  f 41   -517.0 2046000.7  1.0  1.0  5  0 115866739
[08]  G06  f 36  -2615.8 2046003.4  1.0  1.0  5  0 115866731
[16]  B08 1f 38      2.8 4092000.0  1.0  1.0  5  0 115852685
[18]  B12 1f 43   -405.9 4092001.0  1.0  1.0  5  0 115852733
$GNGGA,000000.000,,,,,0,00,,,M,,,,0000*2B
$GNRMC,000000.000,A,,,,,,,000000,,*26
$GPGSA,A,1,,,,,,,,,,,,,,,*1E
$BDGSA,A,1,,,,,,,,,,,,,,,*0F
$GPGSV,3,1,09,01,00,000,44,03,00,000,35,11,00,000,26,17,00,000,44*74
$GPGSV,3,2,09,18,00,000,26,19,00,000,38,22,00,000,41,28,00,000,41*75
$GPGSV,3,3,09,06,00,000,36*43
$BDGSV,1,1,02,08,00,000,38,12,00,000,43*6D
$LOGTIM,0,0.000000,0.000000,0.000000,0.000000,0.000*0A
---00000028--- Acq_st=3 2019-10-4 08:10:56 
[00]  G01  f 44   2597.1 2045996.7  1.0  1.0  5  0 115867731
[01]  G03  f 35     48.1 2045999.9  1.0  0.9  5  0 115867736
[02]  G11  7 26   2241.7 2045996.9 -1.0  0.0 10  0        10
[03]  G17  f 45  -1763.3 2046002.3  1.0  1.0  5  0 115867734
[04]  G18  7 25   3017.0 2045996.2  1.0 -0.0 10  0         5
[05]  G19  f 38  -2538.6 2046003.3  1.0  1.0  5  0 115867731
[06]  G22  f 41   1579.9 2045997.9  1.0  1.0  5  0 115867731
[07]  G28  f 41   -517.0 2046000.7  1.0  1.0  5  0 115867739
[08]  G06  f 36  -2616.1 2046003.4  1.0  0.9  5  0 115867731
[16]  B08 1f 38      1.8 4092000.0  1.0  1.0  5  0 115853685
[18]  B12 1f 43   -406.5 4092001.1  1.0  1.0  5  0 115853733
$GNGGA,000000.000,,,,,0,00,,,M,,,,0000*2B
$GNRMC,000000.000,A,,,,,,,000000,,*26
$GPGSA,A,1,,,,,,,,,,,,,,,*1E
$BDGSA,A,1,,,,,,,,,,,,,,,*0F
$GPGSV,3,1,09,01,00,000,44,03,00,000,35,11,00,000,26,17,00,000,45*75
$GPGSV,3,2,09,18,00,000,25,19,00,000,38,22,00,000,41,28,00,000,41*76
$GPGSV,3,3,09,06,00,000,36*43
$BDGSV,1,1,02,08,00,000,38,12,00,000,43*6D
$LOGTIM,0,0.000000,0.000000,0.000000,0.000000,0.000*0A
---00000029--- Acq_st=7 2019-10-4 08:10:57 
[00]  G01  f 43   2595.7 2045996.6  1.0  1.0  5  0 115868731
[01]  G03  f 35     47.9 2045999.9  1.0  1.0  5  0 115868736
[02]  G11  7 26   2240.3 2045997.1 -1.0 -0.1 10  0        10
[03]  G17  f 45  -1764.5 2046002.3  1.0  1.0  5  0 115868734
[04]  G18  7 26   3015.5 2045996.0  0.9  0.1 10  0         5
[05]  G19  f 38  -2540.7 2046003.3  1.0  1.0  5  0 115868731
[06]  G22  f 42   1578.9 2045997.9  1.0  1.0  5  0 115868731
[07]  G28  f 40   -518.3 2046000.7  1.0  1.0  5  0 115868739
[08]  G06  f 36  -2618.4 2046003.4  1.0  1.0  5  0 115868731
[16]  B08 1f 37      0.6 4092000.0  1.0  0.9  5  0 115854685
[18]  B12 1f 43   -407.9 4092001.1  1.0  1.0  5  0 115854733
$GNGGA,000000.000,,,,,0,00,,,M,,,,0000*2B
$GNRMC,000000.000,A,,,,,,,000000,,*26
$GPGSA,A,1,,,,,,,,,,,,,,,*1E
$BDGSA,A,1,,,,,,,,,,,,,,,*0F
$GPGSV,3,1,09,01,00,000,43,03,00,000,35,11,00,000,26,17,00,000,45*72
$GPGSV,3,2,09,18,00,000,26,19,00,000,38,22,00,000,42,28,00,000,40*77
$GPGSV,3,3,09,06,00,000,36*43
$BDGSV,1,1,02,08,00,000,37,12,00,000,43*62
$LOGTIM,0,0.000000,0.000000,0.000000,0.000000,0.000*0A
---00000030--- Acq_st=7 2019-10-4 08:10:58 
[00]  G01  f 44   2594.5 2045996.6  1.0  1.0  5  0 115869731
[01]  G03  f 35     46.2 2045999.9  1.0  0.9  5  0 115869736
[02]  G11  7 26   2239.4 2045997.1 -0.9  0.0 10  0        10
[03]  G17  f 44  -1765.6 2046002.3  1.0  1.0  5  0 115869734
[04]  G18  7 25   3014.6 2045996.3  0.9  0.1 10  0         5
[05]  G19  f 38  -2540.8 2046003.4  1.0  1.0  5  0 115869731
[06]  G22  f 42   1578.1 2045997.9  1.0  1.0  5  0 115869731
[07]  G28  f 40   -518.7 2046000.7  1.0  1.0  5  0 115869739
[08]  G06  f 36  -2618.7 2046003.4  1.0  1.0  5  0 115869731
[16]  B08 1f 37     -0.5 4092000.0  1.0  1.0  5  0 115855685
[18]  B12 1f 43   -409.0 4092001.1  1.0  1.0  5  0 115855733
$GNGGA,000000.000,,,,,0,00,,,M,,,,0000*2B
$GNRMC,000000.000,A,,,,,,,000000,,*26
$GPGSA,A,1,,,,,,,,,,,,,,,*1E
$BDGSA,A,1,,,,,,,,,,,,,,,*0F
$GPGSV,3,1,09,01,00,000,44,03,00,000,35,11,00,000,26,17,00,000,44*74
$GPGSV,3,2,09,18,00,000,25,19,00,000,38,22,00,000,42,28,00,000,40*74
$GPGSV,3,3,09,06,00,000,36*43
$BDGSV,1,1,02,08,00,000,37,12,00,000,43*62
$LOGTIM,0,0.000000,0.000000,0.000000,0.000000,0.000*0A
---00000031--- Acq_st=7 2019-10-4 08:10:59 
[00]  G01  f 44   2593.5 2045996.6  1.0  1.0  5  0 115870731
[01]  G03  f 35     46.6 2045999.9  1.0  1.0  5  0 115870736
[02]  G11  7 26   2238.4 2045997.1 -0.9  0.0 10  0        10
[03]  G17  f 45  -1766.4 2046002.3  1.0  1.0  5  0 115870734
[04]  G18  7 25   3014.5 2045996.1  0.9 -0.1 10  0         5
[05]  G19  f 38  -2541.4 2046003.2  1.0  1.0  5  0 115870731
[06]  G22  f 42   1578.1 2045997.9  1.0  1.0  5  0 115870731
[07]  G28  f 40   -518.7 2046000.7  1.0  1.0  5  0 115870739
[08]  G06  f 37  -2618.6 2046003.4  1.0  1.0  5  0 115870731
[16]  B08 1f 37     -0.9 4092000.0  1.0  0.9  5  0 115856685
[18]  B12 1f 43   -409.8 4092001.1  1.0  1.0  5  0 115856733
$GNGGA,000000.000,,,,,0,00,,,M,,,,0000*2B
$GNRMC,000000.000,A,,,,,,,000000,,*26
$GPGSA,A,1,,,,,,,,,,,,,,,*1E
$BDGSA,A,1,,,,,,,,,,,,,,,*0F
$GPGSV,3,1,09,01,00,000,44,03,00,000,35,11,00,000,26,17,00,000,45*75
$GPGSV,3,2,09,18,00,000,25,19,00,000,38,22,00,000,42,28,00,000,40*74
$GPGSV,3,3,09,06,00,000,37*42
$BDGSV,1,1,02,08,00,000,37,12,00,000,43*62
$LOGTIM,0,0.000000,0.000000,0.000000,0.000000,0.000*0A
---00000032--- Acq_st=3 2019-10-4 08:11:0 
[00]  G01  f 43   2593.5 2045996.6  1.0  1.0  5  0 115871731
[01]  G03  f 35     47.4 2046000.0  1.0  0.9  5  0 115871736
[02]  G11  7 26   2238.3 2045997.1 -0.9  0.0 10  0        10
[03]  G17  f 45  -1766.6 2046002.3  1.0  1.0  5  0 115871734
[04]  G18  7 25   3014.1 2045996.1  1.0  0.0 10  0         5
[05]  G19  f 37  -2542.1 2046003.3  1.0  0.9  5  0 115871731
[06]  G22  f 42   1578.4 2045997.9  1.0  1.0  5  0 115871731
[07]  G28  f 40   -518.7 2046000.7  1.0  1.0  5  0 115871739
[08]  G06  f 37  -2619.1 2046003.4  1.0  1.0  5  0 115871731
[16]  B08 1f 37     -1.2 4092000.0  1.0  1.0  5  0 115857685
[18]  B12 1f 43   -409.8 4092001.1  1.0  1.0  5  0 115857733
$GNGGA,000000.000,,,,,0,00,,,M,,,,0000*2B
$GNRMC,000000.000,A,,,,,,,000000,,*26
$GPGSA,A,1,,,,,,,,,,,,,,,*1E
$BDGSA,A,1,,,,,,,,,,,,,,,*0F
$GPGSV,3,1,09,01,00,000,43,03,00,000,35,11,00,000,26,17,00,000,45*72
$GPGSV,3,2,09,18,00,000,25,19,00,000,37,22,00,000,42,28,00,000,40*7B
$GPGSV,3,3,09,06,00,000,37*42
$BDGSV,1,1,02,08,00,000,37,12,00,000,43*62
$LOGTIM,0,0.000000,0.000000,0.000000,0.000000,0.000*0A
---00000033--- Acq_st=3 2019-10-4 08:11:1 
[00]  G01  f 44   2592.9 2045996.7  1.0  1.0  5  0 115872731
[01]  G03  f 35     46.9 2046000.0  1.0  1.0  5  0 115872736
[02]  G11  7 26   2238.0 2045997.1 -1.0  0.0 10  0        10
[03]  G17  f 45  -1767.2 2046002.3  1.0  1.0  5  0 115872734
[04]  G18  7 25   3014.0 2045996.1  0.9  0.0 10  0         5
[05]  G19  f 37  -2542.5 2046003.3  1.0  1.0  5  0 115872731
[06]  G22  f 42   1578.1 2045997.9  1.0  1.0  5  0 115872731
[07]  G28  f 40   -518.6 2046000.7  1.0  1.0  5  0 115872739
[08]  G06  f 37  -2619.5 2046003.4  1.0  1.0  5  0 115872731
[16]  B08 1f 37     -2.0 4092000.0  1.0  1.0  5  0 115858685
[18]  B12 1f 43   -410.0 4092001.1  1.0  1.0  5  0 115858733
$GNGGA,000000.000,,,,,0,00,,,M,,,,0000*2B
$GNRMC,000000.000,A,,,,,,,000000,,*26
$GPGSA,A,1,,,,,,,,,,,,,,,*1E
$BDGSA,A,1,,,,,,,,,,,,,,,*0F
$GPGSV,3,1,09,01,00,000,44,03,00,000,35,11,00,000,26,17,00,000,45*75
$GPGSV,3,2,09,18,00,000,25,19,00,000,37,22,00,000,42,28,00,000,40*7B
$GPGSV,3,3,09,06,00,000,37*42
$BDGSV,1,1,02,08,00,000,37,12,00,000,43*62
$LOGTIM,0,0.000000,0.000000,0.000000,0.000000,0.000*0A
---00000034--- Acq_st=3 2019-10-4 08:11:2 
[00]  G01  f 43   2593.3 2045996.6  1.0  1.0  5  0 115873731
[01]  G03  f 34     48.1 2046000.0  1.0  0.9  5  0 115873736
[02]  G11  7 26   2239.9 2045997.0 -1.0 -0.0 10  0        10
[03]  G17  f 45  -1766.4 2046002.3  1.0  1.0  5  0 115873734
[04]  G18  7 25   3014.2 2045996.1  0.9  0.0 10  0         5
[05]  G19  f 37  -2541.8 2046003.3  1.0  1.0  5  0 115873731
[06]  G22  f 42   1579.3 2045997.9  1.0  1.0  5  0 115873731
[07]  G28  f 40   -517.6 2046000.7  1.0  1.0  5  0 115873739
[08]  G06  f 36  -2618.1 2046003.4  1.0  0.9  5  0 115873731
[16]  B08 1f 37     -1.6 4092000.0  1.0  1.0  5  0 115859685
[18]  B12 1f 42   -409.7 4092001.1  1.0  1.0  5  0 115859733
$GNGGA,000000.000,,,,,0,00,,,M,,,,0000*2B
$GNRMC,000000.000,A,,,,,,,000000,,*26
$GPGSA,A,1,,,,,,,,,,,,,,,*1E
$BDGSA,A,1,,,,,,,,,,,,,,,*0F
$GPGSV,3,1,09,01,00,000,43,03,00,000,34,11,00,000,26,17,00,000,45*73
$GPGSV,3,2,09,18,00,000,25,19,00,000,37,22,00,000,42,28,00,000,40*7B
$GPGSV,3,3,09,06,00,000,36*43
$BDGSV,1,1,02,08,00,000,37,12,00,000,42*63
$LOGTIM,0,0.000000,0.000000,0.000000,0.000000,0.000*0A
---00000035--- Acq_st=7 2019-10-4 08:11:3 
[00]  G01  f 44   2594.8 2045996.6  1.0  1.0  5  0 115874731
[01]  G03  f 34     50.0 2046000.0  1.0  1.0  5  0 115874736
[02]  G11  7 26   2241.1 2045997.1 -0.9 -0.1 10  0        10
[03]  G17  f 45  -1765.3 2046002.3  1.0  1.0  5  0 115874734
[04]  G18  7 25   3015.6 2045996.1  0.9  0.0 10  0         5
[05]  G19  f 37  -2540.3 2046003.4  1.0  1.0  5  0 115874731
[06]  G22  f 42   1581.1 2045997.9  1.0  1.0  5  0 115874731
[07]  G28  f 40   -515.6 2046000.7  1.0  1.0  5  0 115874739
[08]  G06  f 37  -2616.3 2046003.4  1.0  1.0  5  0 115874731
[16]  B08 1f 37      0.0 4092000.0  1.0  1.0  5  0 115860685
[18]  B12 1f 43   -408.4 4092001.1  1.0  1.0  5  0 115860733
$GNGGA,000000.000,,,,,0,00,,,M,,,,0000*2B
$GNRMC,000000.000,A,,,,,,,000000,,*26
$GPGSA,A,1,,,,,,,,,,,,,,,*1E
$BDGSA,A,1,,,,,,,,,,,,,,,*0F
$GPGSV,3,1,09,01,00,000,44,03,00,000,34,11,00,000,26,17,00,000,45*74
$GPGSV,3,2,09,18,00,000,25,19,00,000,37,22,00,000,42,28,00,000,40*7B
$GPGSV,3,3,09,06,00,000,37*42
$BDGSV,1,1,02,08,00,000,37,12,00,000,43*62
$LOGTIM,0,0.000000,0.000000,0.000000,0.000000,0.000*0A
---00000036--- Acq_st=7 2019-10-4 08:11:4 
[00]  G01  f 44   2596.3 2045996.6  1.0  1.0  5  0 115875731
[01]  G03  f 35     51.9 2045999.9  1.0  1.0  5  0 115875736
[03]  G17  f 45  -1763.6 2046002.3  1.0  1.0  5  0 115875734
[04]  G18  7 25   3016.8 2045996.2  0.9 -0.0 10  0         5
[05]  G19  f 36  -2539.0 2046003.3  1.0  1.0  5  0 115875731
[06]  G22  f 42   1583.1 2045997.9  1.0  1.0  5  0 115875731
[07]  G28  f 40   -513.9 2046000.7  1.0  1.0  5  0 115875739
[08]  G06  f 37  -2614.8 2046003.4  1.0  1.0  5  0 115875731
[16]  B08 1f 37      1.5 4092000.0  1.0  1.0  5  0 115861685
[18]  B12 1f 43   -406.8 4092001.1  1.0  1.0  5  0 115861733
$GNGGA,000000.000,,,,,0,00,,,M,,,,0000*2B
$GNRMC,000000.000,A,,,,,,,000000,,*26
$GPGSA,A,1,,,,,,,,,,,,,,,*1E
$BDGSA,A,1,,,,,,,,,,,,,,,*0F
$GPGSV,2,1,08,01,00,000,44,03,00,000,35,17,00,000,45,18,00,000,25*7F
$GPGSV,2,2,08,19,00,000,36,22,00,000,42,28,00,000,40,06,00,000,37*76
$BDGSV,1,1,02,08,00,000,37,12,00,000,43*62
$LOGTIM,0,0.000000,0.000000,0.000000,0.000000,0.000*0A
---00000037--- Acq_st=7 2019-10-4 08:11:5 
[00]  G01  f 44   2597.0 2045996.6  1.0  1.0  5  0 115876731
[01]  G03  f 34     53.4 2046000.0  1.0  1.0  5  0 115876736
[03]  G17  f 45  -1763.0 2046002.3  1.0  1.0  5  0 115876734
[04]  G18  7 25   3016.1 2045996.2  0.9 -0.0 10  0         5
[05]  G19  f 35  -2538.4 2046003.3  1.0  1.0  5  0 115876731
[06]  G22  f 41   1583.7 2045997.9  1.0  1.0  5  0 115876731
[07]  G28  f 40   -512.9 2046000.7  1.0  1.0  5  0 115876739
[08]  G06  f 37  -2614.0 2046003.4  1.0  1.0  5  0 115876731
[16]  B08 1f 37      1.7 4092000.0  1.0  1.0  5  0 115862685
[18]  B12 1f 43   -406.1 4092001.0  1.0  1.0  5  0 115862733
$GNGGA,000000.000,,,,,0,00,,,M,,,,0000*2B
$GNRMC,000000.000,A,,,,,,,000000,,*26
$GPGSA,A,1,,,,,,,,,,,,,,,*1E
$BDGSA,A,1,,,,,,,,,,,,,,,*0F
$GPGSV,2,1,08,01,00,000,44,03,00,000,34,17,00,000,45,18,00,000,25*7E
$GPGSV,2,2,08,19,00,000,35,22,00,000,41,28,00,000,40,06,00,000,37*76
$BDGSV,1,1,02,08,00,000,37,12,00,000,43*62
$LOGTIM,0,0.000000,0.000000,0.000000,0.000000,0.000*0A
---00000038--- Acq_st=3 2019-10-4 08:11:6 
[00]  G01  f 43   2596.0 2045996.6  1.0  1.0  5  0 115877731
[01]  G03  f 34     52.5 2046000.0  1.0  0.9  5  0 115877736
[02]  G11  1 21   2255.0 2045998.2  0.0  0.0  1  0        10
[03]  G17  f 45  -1763.8 2046002.3  1.0  1.0  5  0 115877734
[04]  G18  7 25   3015.0 2045996.1  0.9  0.0 10  0         5
[05]  G19  f 36  -2539.6 2046003.3  1.0  1.0  5  0 115877731
[06]  G22  f 42   1583.5 2045997.9  1.0  1.0  5  0 115877731
[07]  G28  f 40   -512.6 2046000.7  1.0  1.0  5  0 115877739
[08]  G06  f 37  -2614.6 2046003.4  1.0  1.0  5  0 115877731
[16]  B08 1f 37      1.3 4092000.0  1.0  1.0  5  0 115863685
[18]  B12 1f 43   -407.0 4092001.1  1.0  1.0  5  0 115863733
$GNGGA,081105.807,3112.7216,N,12136.4353,E,1,07,1.5,65.3,M,,,,0000*25
$GNRMC,081105.807,A,3112.7216,N,12136.4353,E,0.01,0.00,041099,,*1E
$GPGSA,A,3,01,03,06,17,19,22,28,,,,,,2.8,1.5,2.3*3D
$BDGSA,A,3,,,,,,,,,,,,,2.8,1.5,2.3*2C
$GPGSV,2,1,08,01,00,000,43,03,00,000,34,17,00,000,45,18,00,000,25*79
$GPGSV,2,2,08,19,00,000,36,22,00,000,42,28,00,000,40,06,00,000,37*76
$BDGSV,1,1,02,08,00,000,37,12,00,000,43*62
$LOGTIM,1,9650680.725192,0.000000,0.000000,0.000000,-62.058*11
---00000039--- Acq_st=3 2019-10-4 08:11:6 
[00]  G01  f 44   2597.2 2045996.6  1.0  1.0  5  0 115878731
[01]  G03  f 34     54.8 2045999.9  1.0  0.9  5  0 115878736
[02]  G11  7  7   2268.9 2045996.9  0.4  0.0  5  0        11
[03]  G17  f 45  -1762.8 2046002.3  1.0  1.0  5  0 115878734
[04]  G18  7 25   3016.1 2045996.3  0.9  0.0 10  0         5
[05]  G19  f 36  -2537.9 2046003.4  1.0  1.0  5  0 115878731
[06]  G22  f 42   1585.3 2045998.0  1.0  1.0  5  0 115878731
[07]  G28  f 39   -511.3 2046000.7  1.0  1.0  5  0 115878739
[08]  G06  f 36  -2612.9 2046003.4  1.0  1.0  5  0 115878731
[16]  B08 1f 37      2.1 4092000.0  1.0  1.0  5  0 115864685
[18]  B12 1f 43   -405.7 4092001.0  1.0  1.0  5  0 115864733
$GNGGA,081107.193,3112.7231,N,12136.4385,E,1,07,1.5,54.5,M,,,,0000*29
$GNRMC,081107.193,A,3112.7231,N,12136.4385,E,0.13,0.00,041099,,*15
$GPGSA,A,3,01,03,06,17,19,22,28,,,,,,2.8,1.5,2.3*3D
$BDGSA,A,3,,,,,,,,,,,,,2.8,1.5,2.3*2C
$GPGSV,2,1,08,01,00,000,44,03,00,000,34,17,00,000,45,18,00,000,25*7E
$GPGSV,2,2,08,19,00,000,36,22,00,000,42,28,00,000,39,06,00,000,36*79
$BDGSV,1,1,02,08,00,000,37,12,00,000,43*62
$LOGTIM,1,-85.774506,0.000000,0.000000,0.000000,-61.525*04
---00000040--- Acq_st=3 2019-10-4 08:11:7 
[00]  G01  f 44   2599.6 2045996.6  1.0  1.0  5  0 115880117
[01]  G03  f 35     57.1 2046000.0  1.0  1.0  5  0 115880122
[02]  G11  7 36   2270.7 2045996.9  0.9  1.0  5  0        15
[03]  G17  f 44  -1761.0 2046002.3  1.0  1.0  5  0 115880119
[04]  G18  7 25   3018.1 2045996.2  0.9 -0.0 10  0        10
[05]  G19  f 35  -2536.0 2046003.3  1.0  1.0  5  0 115880117
[06]  G22  f 42   1587.5 2045997.9  1.0  1.0  5  0 115880117
[07]  G28  f 39   -508.7 2046000.6  1.0  1.0  5  0 115880124
[08]  G06  f 37  -2611.1 2046003.4  1.0  1.0  5  0 115880116
[16]  B08 1f 37      3.9 4092000.0  1.0  1.0  5  0 115866071
[17]  B03  1 10  -5188.8 4092014.0 -0.1  0.0  1  0        11
[18]  B12 1f 43   -404.0 4092001.1  1.0  1.0  5  0 115866118
$GNGGA,081108.193,3112.7234,N,12136.4372,E,1,07,1.5,50.6,M,,,,0000*2C
$GNRMC,081108.193,A,3112.7234,N,12136.4372,E,0.04,0.00,041099,,*11
$GPGSA,A,3,01,03,06,17,19,22,28,,,,,,2.8,1.5,2.3*3D
$BDGSA,A,3,,,,,,,,,,,,,2.8,1.5,2.3*2C
$GPGSV,3,1,09,01,30,042,44,03,51,080,35,11,00,000,36,17,47,325,44*7B
$GPGSV,3,2,09,18,00,000,25,19,30,306,35,22,35,057,42,28,82,244,39*7D
$GPGSV,3,3,09,06,29,249,37*46
$BDGSV,1,1,03,08,00,000,37,12,00,000,43,22,41,108,00*5F
$LOGTIM,1,-150.428488,0.000000,0.000000,0.000000,-61.686*3A
---00000041--- Acq_st=7 2019-10-4 08:11:8 
[00]  G01  f 44   2599.3 2045996.6  1.0  1.0  5  0 115881117
[01]  G03  f 35     57.9 2045999.9  1.0  1.0  5  0 115881122
[02]  G11  7 35   2270.5 2045997.0  1.0  1.0  5  0        15
[03]  G17  f 44  -1761.0 2046002.3  1.0  1.0  5  0 115881119
[04]  G18  7 25   3018.1 2045996.1  1.0  0.1 10  0        10
[05]  G19  f 36  -2536.8 2046003.3  1.0  1.0  5  0 115881117
[06]  G22  f 42   1588.0 2045997.9  1.0  1.0  5  0 115881117
[07]  G28  f 39   -508.5 2046000.6  1.0  1.0  5  0 115881124
[08]  G06  f 37  -2611.0 2046003.4  1.0  1.0  5  0 115881116
[16]  B08 1f 37      3.7 4092000.0  1.0  1.0  5  0 115867071
[17]  B03  1 10  -5326.3 4092014.5 -0.0  0.0  1  0      1011
[18]  B12 1f 43   -403.9 4092001.1  1.0  1.0  5  0 115867118
$GNGGA,081109.193,3112.7233,N,12136.4370,E,1,07,1.5,48.3,M,,,,0000*24
$GNRMC,081109.193,A,3112.7233,N,12136.4370,E,0.01,0.00,041099,,*10
$GPGSA,A,3,01,03,06,17,19,22,28,,,,,,2.8,1.5,2.3*3D
$BDGSA,A,3,,,,,,,,,,,,,2.8,1.5,2.3*2C
$GPGSV,3,1,09,01,30,042,44,03,51,080,35,11,00,000,35,17,47,325,44*78
$GPGSV,3,2,09,18,00,000,25,19,30,306,36,22,35,057,42,28,82,244,39*7E
$GPGSV,3,3,09,06,29,249,37*46
$BDGSV,1,1,03,08,00,000,37,12,00,000,43,22,41,108,00*5F
$LOGTIM,1,-214.009010,0.000000,0.000000,0.000000,-61.819*33
---00000042--- Acq_st=7 2019-10-4 08:11:9 
[00]  G01  f 44   2599.8 2045996.6  1.0  1.0  5  0 115882117
[01]  G03  f 35     59.3 2045999.9  1.0  0.9  5  0 115882122
[02]  G11  7 36   2270.4 2045997.0  1.0  1.0  5  0        15
[03]  G17  f 45  -1760.4 2046002.3  1.0  1.0  5  0 115882119
[04]  G18  7 25   3018.4 2045996.2  0.9 -0.0 10  0        10
[05]  G19  f 36  -2535.8 2046003.3  1.0  1.0  5  0 115882117
[06]  G22  f 42   1588.5 2045997.9  1.0  1.0  5  0 115882117
[07]  G28  f 39   -507.3 2046000.7  1.0  1.0  5  0 115882124
[08]  G06  f 37  -2610.3 2046003.4  1.0  1.0  5  0 115882116
[16]  B08 1f 37      4.5 4092000.0  1.0  1.0  5  0 115868071
[17]  B03  1 10  -5287.0 4092014.8  0.1  0.0  1  0      2011
[18]  B12 1f 43   -403.4 4092001.0  1.0  1.0  5  0 115868118
$GNGGA,081110.193,3112.7232,N,12136.4370,E,1,07,1.5,48.1,M,,,,0000*2F
$GNRMC,081110.193,A,3112.7232,N,12136.4370,E,0.18,0.00,041099,,*11
$GPGSA,A,3,01,03,06,17,19,22,28,,,,,,2.8,1.5,2.3*3D
$BDGSA,A,3,,,,,,,,,,,,,2.8,1.5,2.3*2C
$GPGSV,3,1,09,01,30,042,44,03,51,080,35,11,00,000,36,17,47,325,45*7A
$GPGSV,3,2,09,18,00,000,25,19,30,306,36,22,35,057,42,28,82,244,39*7E
$GPGSV,3,3,09,06,29,249,37*46
$BDGSV,1,1,03,08,00,000,37,12,00,000,43,22,41,108,00*5F
$LOGTIM,1,-275.682186,0.000000,0.000000,0.000000,-61.445*3A
---00000043--- Acq_st=7 2019-10-4 08:11:10 
[00]  G01  f 44   2604.7 2045996.6  1.0  1.0  5  0 115883117
[01]  G03  f 35     64.2 2045999.9  1.0  0.9  5  0 115883122
[02]  G11  7 36   2274.8 2045997.0  1.0  1.0  5  0        15
[03]  G17  f 45  -1755.8 2046002.3  1.0  1.0  5  0 115883119
[04]  G18  7 25   3022.7 2045996.2  0.7 -0.1 10  0        10
[05]  G19  f 35  -2531.0 2046003.3  1.0  0.9  5  0 115883117
[06]  G22  f 42   1593.9 2045998.0  1.0  1.0  5  0 115883117
[07]  G28  f 39   -501.8 2046000.6  1.0  1.0  5  0 115883124
[08]  G06  f 36  -2605.3 2046003.5  1.0  1.0  5  0 115883116
[16]  B08 1f 37      8.8 4092000.0  1.0  1.0  5  0 115869071
[18]  B12 1f 42   -399.0 4092001.1  1.0  1.0  5  0 115869118
$GNGGA,081111.193,3112.7230,N,12136.4372,E,1,07,1.5,47.6,M,,,,0000*26
$GNRMC,081111.193,A,3112.7230,N,12136.4372,E,0.59,0.00,041099,,*15
$GPGSA,A,3,01,03,06,17,19,22,28,,,,,,2.8,1.5,2.3*3D
$BDGSA,A,3,,,,,,,,,,,,,2.8,1.5,2.3*2C
$GPGSV,3,1,09,01,30,042,44,03,51,080,35,11,00,000,36,17,47,325,45*7A
$GPGSV,3,2,09,18,00,000,25,19,30,306,35,22,35,057,42,28,82,244,39*7D
$GPGSV,3,3,09,06,29,249,36*47
$BDGSV,1,1,03,08,00,000,37,12,00,000,42,22,41,108,00*5E
$LOGTIM,1,0.000000,0.000000,0.000000,0.000000,-61.023*10
---00000044--- Acq_st=3 2019-10-4 08:11:11 
[00]  G01  f 44   2604.8 2045996.6  1.0  1.0  5  0 115884117
[01]  G03  f 35     64.8 2045999.9  1.0  0.9  5  0 115884122
[02]  G11  7 36   2275.0 2045996.9  1.0  1.0  5  0        15
[03]  G17  f 45  -1755.8 2046002.3  1.0  1.0  5  0 115884119
[04]  G18  7 24   3024.2 2045996.2  0.9 -0.1 10  0        10
[05]  G19  f 36  -2531.2 2046003.3  1.0  1.0  5  0 115884117
[06]  G22  f 42   1593.8 2045997.9  1.0  1.0  5  0 115884117
[07]  G28  f 40   -501.6 2046000.7  1.0  1.0  5  0 115884124
[08]  G06  f 36  -2604.4 2046003.4  1.0  1.0  5  0 115884116
[09]  G13  1  7   -245.9 2046000.0 -0.0  0.0  1  0         0
[16]  B08 1f 37      9.4 4092000.0  1.0  1.0  5  0 115870071
[18]  B12 1f 43   -398.6 4092001.0  1.0  1.0  5  0 115870118
---00000045--- Acq_st=3 2019-10-4 08:11:12 
[00]  G01  f 44   2600.1 2045996.6  1.0  1.0  5  0 115884117
[01]  G03  f 35     61.0 2046000.0  1.0  1.0  5  0 115884122
[02]  G11  f 37   2270.1 2045997.0  1.0  1.0  5  0        15
[03]  G17  f 45  -1760.7 2046002.3  1.0  1.0  5  0 115884119
[04]  G18  7 24   3021.8 2045996.0  0.6  0.0 10  0        10
[05]  G19  f 36  -2535.8 2046003.3  1.0  1.0  5  0 115884117
[06]  G22  f 42   1590.2 2045998.0  1.0  1.0  5  0 115884117
[07]  G28  f 40   -505.8 2046000.6  1.0  1.0  5  0 115884124
[08]  G06  f 36  -2609.1 2046003.4  1.0  1.0  5  0 115884116
[09]  G13  1  7   -170.0 2045999.3  0.1  0.0  1  0         0
[16]  B08 1f 36      4.2 4091999.9  1.0  1.0  5  0 115870071
[18]  B12 1f 42   -403.3 4092001.0  1.0  1.0  5  0 115870118
$GNGGA,081112.807,3112.7212,N,12136.4370,E,1,07,1.5,43.1,M,,,,0000*20
$GNRMC,081112.807,A,3112.7212,N,12136.4370,E,0.23,0.00,041099,,*1D
$GPGSA,A,3,01,03,06,17,19,22,28,,,,,,2.8,1.5,2.3*3D
$BDGSA,A,3,,,,,,,,,,,,,2.8,1.5,2.3*2C
$GPGSV,3,1,09,01,30,042,44,03,51,080,35,11,00,000,37,17,47,325,45*7B
$GPGSV,3,2,09,18,00,000,24,19,30,306,36,22,35,057,42,28,82,244,40*71
$GPGSV,3,3,09,06,29,249,36*47
$BDGSV,1,1,03,08,00,000,36,12,00,000,42,22,41,108,00*5F
$LOGTIM,1,0.000000,0.000000,0.000000,0.000000,-61.709*1F
---00000046--- Acq_st=3 2019-10-4 08:11:13 
[00]  G01  f 44   2596.1 2045996.6  1.0  1.0  5  0 115885731
[01]  G03  f 35     57.7 2045999.9  1.0  1.0  5  0 115885736
[02]  G11  f 36   2265.9 2045997.1  1.0  0.9  5  0 115885730
[03]  G17  f 44  -1764.1 2046002.3  1.0  1.0  5  0 115885734
[04]  G18  7 24   3015.0 2045996.2  0.5 -0.0 10  0         5
[05]  G19  f 36  -2539.5 2046003.3  1.0  1.0  5  0 115885731
[06]  G22  f 42   1586.6 2045998.0  1.0  1.0  5  0 115885731
[07]  G28  f 39   -509.1 2046000.7  1.0  1.0  5  0 115885739
[08]  G06  f 36  -2612.7 2046003.3  1.0  1.0  5  0 115885731
[09]  G13  1  9   -220.9 2045999.7 -0.0  0.0  1  0        11
[16]  B08 1f 36      0.0 4092000.0  1.0  1.0  5  0 115871685
[18]  B12 1f 43   -407.3 4092001.1  1.0  1.0  5  0 115871733
$GNGGA,081114.193,3112.7202,N,12136.4367,E,1,07,1.5,40.2,M,,,,0000*25
$GNRMC,081114.193,A,3112.7202,N,12136.4367,E,0.09,0.00,041099,,*10
$GPGSA,A,3,01,03,06,17,19,22,28,,,,,,2.8,1.5,2.3*3D
$BDGSA,A,3,,,,,,,,,,,,,2.8,1.5,2.3*2C
$GPGSV,3,1,09,01,30,042,44,03,51,080,35,11,00,000,36,17,47,325,44*7B
$GPGSV,3,2,09,18,00,000,24,19,30,306,36,22,35,057,42,28,82,244,39*7F
$GPGSV,3,3,09,06,29,249,36*47
$BDGSV,1,1,03,08,00,000,36,12,00,000,43,22,41,108,00*5E
$LOGTIM,1,0.000000,0.000000,0.000000,0.000000,-62.482*1C
---00000047--- Acq_st=7 2019-10-4 08:11:14 
[00]  G01  f 44   2595.3 2045996.6  1.0  1.0  5  0 115887117
[01]  G03  f 35     58.0 2045999.9  1.0  1.0  5  0 115887122
[02]  G11  f 36   2264.7 2045997.1  1.0  1.0  5  0 115887115
[03]  G17  f 45  -1765.3 2046002.3  1.0  1.0  5  0 115887119
[04]  G18  7 25   3014.0 2045996.1  0.9 -0.0 10  0        10
[05]  G19  f 37  -2540.7 2046003.2  1.0  1.0  5  0 115887117
[06]  G22  f 41   1586.1 2045997.9  1.0  1.0  5  0 115887117
[07]  G28  f 39   -509.9 2046000.7  1.0  1.0  5  0 115887124
[08]  G06  f 36  -2614.0 2046003.4  1.0  1.0  5  0 115887116
[09]  G13  1  7   -384.4 2045999.9  0.0  0.0  1  0        17
[16]  B08 1f 36     -0.8 4092000.0  1.0  0.9  5  0 115873071
[18]  B12 1f 43   -407.7 4092001.1  1.0  1.0  5  0 115873118
---00000048--- Acq_st=7 2019-10-4 08:11:15 
[00]  G01  f 45   2596.5 2045996.6  1.0  1.0  5  0 115887117
[01]  G03  f 36     59.4 2045999.9  1.0  1.0  5  0 115887122
[02]  G11  f 36   2267.4 2045997.0  1.0  1.0  5  0 115887115
[03]  G17  f 45  -1764.2 2046002.3  1.0  1.0  5  0 115887119
[04]  G18  7 25   3015.0 2045996.1  0.9  0.0 10  0        10
[05]  G19  f 37  -2540.0 2046003.3  1.0  0.9  5  0 115887117
[06]  G22  f 42   1587.7 2045998.0  1.0  1.0  5  0 115887117
[07]  G28  f 39   -508.4 2046000.6  1.0  1.0  5  0 115887124
[08]  G06  f 35  -2612.1 2046003.4  1.0  1.0  5  0 115887116
[16]  B08 1f 37      0.2 4092000.0  1.0  1.0  5  0 115873071
[18]  B12 1f 43   -406.8 4092001.1  1.0  1.0  5  0 115873118
$GNGGA,081115.807,3112.7200,N,12136.4367,E,1,07,1.5,39.5,M,,,,0000*2B
$GNRMC,081115.807,A,3112.7200,N,12136.4367,E,0.08,0.00,041099,,*16
$GPGSA,A,3,01,03,06,17,19,22,28,,,,,,2.8,1.5,2.3*3D
$BDGSA,A,3,,,,,,,,,,,,,2.8,1.5,2.3*2C
$GPGSV,3,1,09,01,30,042,45,03,51,080,36,11,00,000,36,17,47,325,45*78
$GPGSV,3,2,09,18,00,000,25,19,30,306,37,22,35,057,42,28,82,244,39*7F
$GPGSV,3,3,09,06,29,249,35*44
$BDGSV,1,1,03,08,00,000,37,12,00,000,43,22,41,108,00*5F
$LOGTIM,1,0.000000,0.000000,0.000000,0.000000,-62.493*1C
---00000049--- Acq_st=7 2019-10-4 08:11:16 
[00]  G01  f 44   2595.4 2045996.6  1.0  1.0  5  0 115888731
[01]  G03  f 35     58.4 2045999.9  1.0  1.0  5  0 115888736
[02]  G11  f 36   2266.0 2045997.1  1.0  1.0  5  0 115888730
[03]  G17  f 44  -1765.0 2046002.3  1.0  1.0  5  0 115888734
[04]  G18  7 25   3013.9 2045996.1  0.9 -0.0 10  0         5
[05]  G19  f 38  -2540.8 2046003.3  1.0  1.1  5  0 115888731
[06]  G22  f 41   1587.2 2045998.0  1.0  1.0  5  0 115888731
[07]  G28  f 39   -508.8 2046000.6  1.0  1.0  5  0 115888739
[08]  G06  f 36  -2613.3 2046003.4  1.0  1.0  5  0 115888731
[16]  B08 1f 37     -0.5 4092000.0  1.0  1.0  5  0 115874685
[18]  B12 1f 43   -408.3 4092001.0  1.0  1.0  5  0 115874733
$GNGGA,081117.193,3112.7190,N,12136.4365,E,1,07,1.5,38.9,M,,,,0000*28
$GNRMC,081117.193,A,3112.7190,N,12136.4365,E,0.08,0.00,041099,,*18
$GPGSA,A,3,01,03,06,17,19,22,28,,,,,,2.8,1.5,2.3*3D
$BDGSA,A,3,,,,,,,,,,,,,2.8,1.5,2.3*2C
$GPGSV,3,1,09,01,30,042,44,03,51,080,35,11,00,000,36,17,47,325,44*7B
$GPGSV,3,2,09,18,00,000,25,19,30,306,38,22,35,057,41,28,82,244,39*73
$GPGSV,3,3,09,06,29,249,36*47
$BDGSV,1,1,03,08,00,000,37,12,00,000,43,22,41,108,00*5F
$LOGTIM,1,0.000000,0.000000,0.000000,0.000000,-62.799*15
---00000050--- Acq_st=3 2019-10-4 08:11:17 
[00]  G01  f 44   2594.6 2045996.6  1.0  1.0  5  0 115890117
[01]  G03  f 35     57.8 2045999.9  1.0  1.0  5  0 115890122
[02]  G11  f 36   2265.0 2045997.1  1.0  1.0  5  0 115890115
[03]  G17  f 44  -1766.1 2046002.3  1.0  1.0  5  0 115890119
[04]  G18  7 25   3013.1 2045996.2  0.9  0.0 10  0        10
[05]  G19  f 38  -2541.3 2046003.3  1.0  1.0  5  0 115890117
[06]  G22  f 41   1587.0 2045997.9  1.0  1.0  5  0 115890117
[07]  G28  f 39   -508.7 2046000.6  1.0  1.0  5  0 115890124
[08]  G06  f 36  -2613.8 2046003.4  1.0  0.9  5  0 115890116
[16]  B08 1f 37     -1.4 4092000.0  1.0  1.0  5  0 115876071
[18]  B12 1f 43   -408.4 4092001.1  1.0  1.0  5  0 115876118
---00000051--- Acq_st=3 2019-10-4 08:11:18 
[00]  G01  f 44   2598.0 2045996.6  1.0  1.0  5  0 115890117
[01]  G03  f 35     62.3 2045999.9  1.0  1.0  5  0 115890122
[02]  G11  f 37   2267.9 2045997.1  1.0  1.0  5  0 115890115
[03]  G17  f 43  -1762.7 2046002.3  1.0  1.0  5  0 115890119
[04]  G18  7 26   3014.9 2045996.1  0.9 -0.0 10  0        10
[05]  G19  f 38  -2538.4 2046003.3  1.0  1.0  5  0 115890117
[06]  G22  f 41   1590.9 2045997.9  1.0  1.0  5  0 115890117
[07]  G28  f 39   -504.9 2046000.6  1.0  1.0  5  0 115890124
[08]  G06  f 36  -2609.9 2046003.4  1.0  0.9  5  0 115890116
[16]  B08 1f 37      1.2 4092000.0  1.0  0.9  5  0 115876071
[18]  B12 1f 43   -405.5 4092001.1  1.0  1.0  5  0 115876118
$GNGGA,081118.807,3112.7191,N,12136.4358,E,1,07,1.5,39.7,M,,,,0000*23
$GNRMC,081118.807,A,3112.7191,N,12136.4358,E,0.25,0.00,041099,,*13
$GPGSA,A,3,01,03,06,17,19,22,28,,,,,,2.8,1.5,2.3*3D
$BDGSA,A,3,,,,,,,,,,,,,2.8,1.5,2.3*2C
$GPGSV,3,1,09,01,30,042,44,03,51,080,35,11,00,000,37,17,47,325,43*7D
$GPGSV,3,2,09,18,00,000,26,19,30,306,38,22,35,057,41,28,82,244,39*70
$GPGSV,3,3,09,06,29,249,36*47
$BDGSV,1,1,03,08,00,000,37,12,00,000,43,22,41,108,00*5F
$LOGTIM,1,0.000000,0.000000,0.000000,0.000000,-62.467*17
---00000052--- Acq_st=3 2019-10-4 08:11:19 
[00]  G01  f 44   2597.6 2045996.6  1.0  1.0  5  0 115891731
[01]  G03  f 35     63.3 2045999.9  1.0  1.0  5  0 115891736
[02]  G11  f 36   2267.0 2045997.1  1.0  1.0  5  0 115891730
[03]  G17  f 43  -1763.0 2046002.3  1.0  1.0  5  0 115891734
[04]  G18  7 25   3014.4 2045996.2  0.9  0.1 10  0         5
[05]  G19  f 39  -2539.0 2046003.3  1.0  1.0  5  0 115891731
[06]  G22  f 41   1590.2 2045997.9  1.0  1.0  5  0 115891731
[07]  G28  f 40   -505.2 2046000.6  1.0  1.0  5  0 115891739
[08]  G06  f 36  -2610.8 2046003.4  1.0  1.0  5  0 115891731
[16]  B08 1f 37      1.5 4092000.0  1.0  0.9  5  0 115877685
[18]  B12 1f 43   -405.9 4092001.0  1.0  1.0  5  0 115877733
$GNGGA,081120.193,3112.7199,N,12136.4345,E,1,07,1.5,41.6,M,,,,0000*26
$GNRMC,081120.193,A,3112.7199,N,12136.4345,E,0.25,0.00,041099,,*18
$GPGSA,A,3,01,06,17,19,22,28,,,,,,,2.8,1.5,2.3*3E
$BDGSA,A,3,12,,,,,,,,,,,,2.8,1.5,2.3*2F
$GPGSV,3,1,09,01,30,042,44,03,51,080,35,11,00,000,36,17,47,325,43*7C
$GPGSV,3,2,09,18,00,000,25,19,30,306,39,22,35,057,41,28,82,244,40*7C
$GPGSV,3,3,09,06,29,249,36*47
$BDGSV,1,1,03,08,00,000,37,12,00,000,43,22,41,108,00*5F
$LOGTIM,3,0.000000,-191.689099,0.000000,0.000000,-62.272*34
---00000053--- Acq_st=7 2019-10-4 08:11:20 
[00]  G01  f 44   2598.5 2045996.6  1.0  1.0  5  0 115893117
[01]  G03  f 35     64.1 2045999.9  1.0  1.0  5  0 115893122
[02]  G11  f 37   2268.9 2045997.0  1.0  1.0  5  0 115893115
[03]  G17  f 43  -1762.3 2046002.3  1.0  1.0  5  0 115893119
[04]  G18  7 25   3014.9 2045996.1  0.9  0.0 10  0        10
[05]  G19  f 40  -2537.1 2046003.3  1.0  1.0  5  0 115893117
[06]  G22  f 42   1591.7 2045997.9  1.0  1.0  5  0 115893117
[07]  G28  f 39   -503.9 2046000.7  1.0  1.0  5  0 115893124
[08]  G06  f 36  -2610.0 2046003.3  1.0  1.0  5  0 115893116
[16]  B08 1f 36      2.2 4091999.9  1.0  1.0  5  0 115879071
[18]  B12 1f 43   -404.8 4092001.1  1.0  1.0  5  0 115879118
---00000054--- Acq_st=7 2019-10-4 08:11:21 
[00]  G01  f 44   2598.2 2045996.6  1.0  1.0  5  0 115893117
[01]  G03  f 36     63.9 2045999.9  1.0  1.0  5  0 115893122
[02]  G11  f 37   2268.6 2045997.1  1.0  1.0  5  0 115893115
[03]  G17  f 43  -1762.5 2046002.3  1.0  1.0  5  0 115893119
[04]  G18  7 25   3014.7 2045996.1  1.0  0.0 10  0        10
[05]  G19  f 39  -2537.8 2046003.3  1.0  1.0  5  0 115893117
[06]  G22  f 41   1591.9 2045997.9  1.0  1.0  5  0 115893117
[07]  G28  f 39   -503.4 2046000.7  1.0  1.0  5  0 115893124
[08]  G06  f 36  -2609.0 2046003.4  1.0  1.0  5  0 115893116
[16]  B08 1f 36      2.0 4092000.0  1.0  0.9  5  0 115879071
[18]  B12 1f 43   -404.9 4092001.0  1.0  1.0  5  0 115879118
$GNGGA,081121.807,3112.7200,N,12136.4337,E,1,09,1.3,39.4,M,,,,0000*20
$GNRMC,081121.807,A,3112.7200,N,12136.4337,E,0.40,0.00,041099,,*18
$GPGSA,A,3,01,03,06,17,19,22,28,,,,,,1.5,1.3,0.8*3C
$BDGSA,A,3,08,12,,,,,,,,,,,1.5,1.3,0.8*26
$GPGSV,3,1,09,01,30,042,44,03,51,080,36,11,00,000,37,17,47,325,43*7E
$GPGSV,3,2,09,18,00,000,25,19,30,306,39,22,35,057,41,28,82,244,39*72
$GPGSV,3,3,09,06,29,249,36*47
$BDGSV,1,1,03,08,65,312,36,12,57,001,43,22,41,108,00*5E
$LOGTIM,3,0.000000,-167.566383,0.000000,0.000000,-61.934*3D
---00000055--- Acq_st=7 2019-10-4 08:11:22 
[00]  G01  f 44   2600.2 2045996.6  1.0  1.0  5  0 115894731
[01]  G03  f 36     67.2 2046000.0  1.0  0.9  5  0 115894736
[02]  G11  f 37   2270.9 2045997.0  1.0  1.0  5  0 115894730
[03]  G17  f 42  -1760.8 2046002.3  1.0  1.0  5  0 115894734
[04]  G18  7 25   3017.0 2045996.1  0.9 -0.0 10  0         5
[05]  G19  f 38  -2536.0 2046003.3  1.0  1.0  5  0 115894731
[06]  G22  f 41   1594.4 2045997.9  1.0  1.0  5  0 115894731
[07]  G28  f 39   -500.8 2046000.7  1.0  1.0  5  0 115894739
[08]  G06  f 35  -2606.1 2046003.4  1.0  1.0  5  0 115894731
[16]  B08 1f 36      3.9 4092000.0  1.0  1.0  5  0 115880685
[18]  B12 1f 43   -402.9 4092001.0  1.0  1.0  5  0 115880733
$GNGGA,081123.193,3112.7203,N,12136.4335,E,1,09,1.3,39.9,M,,,,0000*2A
$GNRMC,081123.193,A,3112.7203,N,12136.4335,E,0.13,0.00,041099,,*19
$GPGSA,A,3,01,03,06,17,19,22,28,,,,,,1.5,1.3,0.8*3C
$BDGSA,A,3,08,12,,,,,,,,,,,1.5,1.3,0.8*26
$GPGSV,3,1,09,01,30,042,44,03,51,080,36,11,00,000,37,17,47,325,42*7F
$GPGSV,3,2,09,18,00,000,25,19,30,306,38,22,35,057,41,28,82,244,39*73
$GPGSV,3,3,09,06,29,249,35*44
$BDGSV,1,1,03,08,65,312,36,12,57,001,43,22,41,108,00*5E
$LOGTIM,3,0.000000,-167.112488,0.000000,0.000000,-61.561*3A
---00000056--- Acq_st=3 2019-10-4 08:11:23 
[00]  G01  f 44   2604.1 2045996.6  1.0  1.0  5  0 115896117
[01]  G03  f 36     71.6 2046000.0  1.0  1.0  5  0 115896122
[02]  G11  f 37   2274.2 2045997.0  1.0  1.0  5  0 115896115
[03]  G17  f 41  -1756.9 2046002.3  1.0  1.0  5  0 115896119
[04]  G18  7 25   3020.4 2045996.1  0.8  0.0 10  0        10
[05]  G19  f 38  -2532.2 2046003.4  1.0  1.0  5  0 115896117
[06]  G22  f 41   1598.6 2045997.9  1.0  1.0  5  0 115896117
[07]  G28  f 38   -496.3 2046000.7  1.0  1.0  5  0 115896124
[08]  G06  f 35  -2602.9 2046003.3  1.0  1.0  5  0 115896116
[16]  B08 1f 36      7.3 4091999.9  1.0  1.0  5  0 115882071
[18]  B12 1f 43   -399.5 4092001.0  1.0  1.0  5  0 115882118
---00000057--- Acq_st=3 2019-10-4 08:11:24 
[00]  G01  f 44   2606.7 2045996.6  1.0  1.0  5  0 115896117
[01]  G03  f 36     74.5 2045999.9  1.0  1.0  5  0 115896122
[02]  G11  f 37   2276.7 2045997.1  1.0  1.0  5  0 115896115
[03]  G17  f 42  -1754.2 2046002.4  1.0  1.0  5  0 115896119
[04]  G18  7 25   3023.9 2045996.1  0.7 -0.0 10  0        10
[05]  G19  f 38  -2529.4 2046003.4  1.0  1.0  5  0 115896117
[06]  G22  f 42   1601.6 2045997.9  1.0  1.0  5  0 115896117
[07]  G28  f 39   -493.7 2046000.6  1.0  1.0  5  0 115896124
[08]  G06  f 36  -2599.4 2046003.4  1.0  1.0  5  0 115896116
[16]  B08 1f 36      9.9 4091999.9  1.0  1.0  5  0 115882071
[18]  B12 1f 43   -396.8 4092001.0  1.0  1.0  5  0 115882118
$GNGGA,081124.807,3112.7217,N,12136.4321,E,1,08,1.3,44.5,M,,,,0000*2E
$GNRMC,081124.807,A,3112.7217,N,12136.4321,E,0.36,0.00,041099,,*1D
$GPGSA,A,3,01,03,06,17,19,22,28,,,,,,1.7,1.3,1.0*37
$BDGSA,A,3,08,,,,,,,,,,,,1.7,1.3,1.0*2E
$GPGSV,3,1,09,01,30,042,44,03,51,080,36,11,00,000,37,17,47,325,42*7F
$GPGSV,3,2,09,18,00,000,25,19,30,306,38,22,35,057,42,28,82,244,39*70
$GPGSV,3,3,09,06,29,249,36*47
$BDGSV,1,1,03,08,65,312,36,12,57,001,43,22,41,108,00*5E
$LOGTIM,3,0.000000,-165.601013,0.000000,0.000000,-60.698*3F
---00000058--- Acq_st=3 2019-10-4 08:11:25 
[00]  G01  f 44   2605.5 2045996.6  1.0  1.0  5  0 115897731
[01]  G03  f 36     73.5 2045999.9  1.0  0.9  5  0 115897736
[02]  G11  f 37   2276.3 2045997.1  1.0  1.0  5  0 115897730
[03]  G17  f 42  -1755.1 2046002.3  1.0  1.0  5  0 115897734
[04]  G18  7 25   3023.1 2045996.2  0.9  0.1 10  0         5
[05]  G19  f 37  -2530.6 2046003.3  1.0  1.0  5  0 115897731
[06]  G22  f 42   1601.1 2045997.9  1.0  1.0  5  0 115897731
[07]  G28  f 39   -494.0 2046000.6  1.0  1.0  5  0 115897739
[08]  G06  f 35  -2600.2 2046003.5  1.0  0.9  5  0 115897731
[16]  B08 1f 36      9.8 4092000.0  1.0  1.0  5  0 115883685
[18]  B12 1f 43   -397.0 4092001.0  1.0  1.0  5  0 115883733
$GNGGA,081126.193,3112.7218,N,12136.4317,E,1,09,1.3,44.8,M,,,,0000*2E
$GNRMC,081126.193,A,3112.7218,N,12136.4317,E,0.22,0.00,041099,,*14
$GPGSA,A,3,01,03,06,17,19,22,28,,,,,,1.5,1.3,0.8*3C
$BDGSA,A,3,08,12,,,,,,,,,,,1.5,1.3,0.8*26
$GPGSV,3,1,09,01,30,042,44,03,51,080,36,11,00,000,37,17,47,325,42*7F
$GPGSV,3,2,09,18,00,000,25,19,30,306,37,22,35,057,42,28,82,244,39*7F
$GPGSV,3,3,09,06,29,249,35*44
