FlashID=0x1 0x20 0x18
BBram_blkflag1: 6ae6: 9519
FW Ver: 1.30  
GPS00 Init Dop:  -5000, 41
GPS01 Init Dop:  -5000, 41
GPS02 Init Dop:  -5000, 41
GPS03 Init Dop:  -5000, 41
GPS04 Init Dop:  -5000, 41
GPS05 Init Dop:  -5000, 41
GPS06 Init Dop:  -5000, 41
GPS07 Init Dop:  -5000, 41
GPS08 Init Dop:  -5000, 41
GPS09 Init Dop:  -5000, 41
GPS10 Init Dop:  -5000, 41
GPS11 Init Dop:  -5000, 41
GPS12 Init Dop:  -5000, 41
GPS13 Init Dop:  -5000, 41
GPS14 Init Dop:  -5000, 41
GPS15 Init Dop:  -5000, 41
GPS16 Init Dop:  -5000, 41
GPS17 Init Dop:  -5000, 41
GPS18 Init Dop:  -5000, 41
GPS19 Init Dop:  -5000, 41
GPS20 Init Dop:  -5000, 41
GPS21 Init Dop:  -5000, 41
GPS22 Init Dop:  -5000, 41
GPS23 Init Dop:  -5000, 41
GPS24 Init Dop:  -5000, 41
GPS25 Init Dop:  -5000, 41
GPS26 Init Dop:  -5000, 41
GPS27 Init Dop:  -5000, 41
GPS28 Init Dop:  -5000, 41
GPS29 Init Dop:  -5000, 41
GPS30 Init Dop:  -5000, 41
GPS31 Init Dop:  -5000, 41
BDS00 Init Dop:  -5000, 41
BDS01 Init Dop:  -5000, 41
BDS02 Init Dop:  -5000, 41
BDS03 Init Dop:  -5000, 41
BDS04 Init Dop:  -5000, 41
BDS05 Init Dop:  -5000, 41
BDS06 Init Dop:  -5000, 41
BDS07 Init Dop:  -5000, 41
BDS08 Init Dop:  -5000, 41
BDS09 Init Dop:  -5000, 41
BDS10 Init Dop:  -5000, 41
BDS11 Init Dop:  -5000, 41
BDS12 Init Dop:  -5000, 41
BDS13 Init Dop:  -5000, 41
BDS14 Init Dop:  -5000, 41
BDS15 Init Dop:  -5000, 41
BDS16 Init Dop:  -5000, 41
BDS17 Init Dop:  -5000, 41
BDS18 Init Dop:  -5000, 41
BDS19 Init Dop:  -5000, 41
BDS20 Init Dop:  -5000, 41
BDS21 Init Dop:  -5000, 41
BDS22 Init Dop:  -5000, 41
BDS23 Init Dop:  -5000, 41
BDS24 Init Dop:  -5000, 41
BDS25 Init Dop:  -5000, 41
BDS26 Init Dop:  -5000, 41
BDS27 Init Dop:  -5000, 41
BDS28 Init Dop:  -5000, 41
BDS29 Init Dop:  -5000, 41
BDS30 Init Dop:  -5000, 41
BDS31 Init Dop:  -5000, 41
---00000001--- Acq_st=3 2019-4-28 07:49:15 
[00]  G01  1  7   5452.4 2045992.8 -0.1  0.0  1  0         0
$GNGGA,000000.000,,,,,0,00,,,M,,,,0000*2B
$GNRMC,000000.000,A,,,,,,,000000,,*26
$GPGSA,A,1,,,,,,,,,,,,,,,*1E
$BDGSA,A,1,,,,,,,,,,,,,,,*0F
$LOGTIM,0,0.000000,0.000000,0.000000,0.000000,0.000*0A
---00000002--- Acq_st=3 2019-4-28 07:49:16 
[00]  G01  1  9   5618.1 2045993.0  0.1  0.0  1  0         6
[01]  G07  1 15   7426.3 2045991.1  0.1  0.0  1  0         0
[02]  G11  1  7   6491.7 2045992.2  0.1  0.0  1  0         0
$GNGGA,000000.000,,,,,0,00,,,M,,,,0000*2B
$GNRMC,000000.000,A,,,,,,,000000,,*26
$GPGSA,A,1,,,,,,,,,,,,,,,*1E
$BDGSA,A,1,,,,,,,,,,,,,,,*0F
$LOGTIM,0,0.000000,0.000000,0.000000,0.000000,0.000*0A
---00000003--- Acq_st=3 2019-4-28 07:49:17 
[00]  G01  1 10   5665.2 2045993.1  0.1  0.0  1  0         6
[01]  G07  1 15   7478.4 2045991.0 -0.0  0.0  1  0        15
[02]  G11  1 16   6490.0 2045992.4  0.1  0.0  1  0         1
[03]  G18  1  7   7239.3 2045991.2  0.0  0.0  1  0         0
$GNGGA,000000.000,,,,,0,00,,,M,,,,0000*2B
$GNRMC,000000.000,A,,,,,,,000000,,*26
$GPGSA,A,1,,,,,,,,,,,,,,,*1E
$BDGSA,A,1,,,,,,,,,,,,,,,*0F
$LOGTIM,0,0.000000,0.000000,0.000000,0.000000,0.000*0A
---00000004--- Acq_st=3 2019-4-28 07:49:18 
[01]  G07  1 15   7614.0 2045991.0 -0.1  0.0  1  0        15
[02]  G11  1 11   6468.0 2045991.9 -0.0  0.0  1  0         1
[03]  G18  1  7   7161.9 2045991.0  0.2  0.0  1  0         0
$GNGGA,000000.000,,,,,0,00,,,M,,,,0000*2B
$GNRMC,000000.000,A,,,,,,,000000,,*26
$GPGSA,A,1,,,,,,,,,,,,,,,*1E
$BDGSA,A,1,,,,,,,,,,,,,,,*0F
$LOGTIM,0,0.000000,0.000000,0.000000,0.000000,0.000*0A
---00000005--- Acq_st=3 2019-4-28 07:49:19 
[00]  G30  1  7   5565.6 2045992.7 -0.1  0.0  1  0         6
[02]  G11  1 15   6590.8 2045992.6 -0.1  0.0  1  0         1
[03]  G18  1  7   7057.4 2045990.7  0.2  0.0  1  0         0
$GNGGA,000000.000,,,,,0,00,,,M,,,,0000*2B
$GNRMC,000000.000,A,,,,,,,000000,,*26
$GPGSA,A,1,,,,,,,,,,,,,,,*1E
$BDGSA,A,1,,,,,,,,,,,,,,,*0F
$LOGTIM,0,0.000000,0.000000,0.000000,0.000000,0.000*0A
---00000006--- Acq_st=3 2019-4-28 07:49:20 
[00]  G30  1  7   5562.4 2045992.9  0.0  0.0  1  0        13
[02]  G11  7  7   6603.5 2045991.4  0.0 -0.3 20  0        18
[03]  G18  1  7   7257.1 2045990.9  0.1  0.0  1  0         0
[16]  B01  1 10   5003.2 4091986.2 -0.0  0.0  1  0         0
[17]  B03  1 10  12314.6 4091986.4  0.0  0.0  1  0         0
$GNGGA,000000.000,,,,,0,00,,,M,,,,0000*2B
$GNRMC,000000.000,A,,,,,,,000000,,*26
$GPGSA,A,1,,,,,,,,,,,,,,,*1E
$BDGSA,A,1,,,,,,,,,,,,,,,*0F
$LOGTIM,0,0.000000,0.000000,0.000000,0.000000,0.000*0A
---00000007--- Acq_st=3 2019-4-28 07:49:21 
[00]  G30  1  7   5766.5 2045993.5  0.0  0.0  1  0        13
[02]  G11  7  7   6608.6 2045991.2  0.1  0.0 20  0        18
[16]  B01  1 10   5005.1 4091987.3  0.0  0.0  1  0       527
[17]  B03  1 10   4943.5 4091987.3  0.1  0.0  1  0        23
$GNGGA,000000.000,,,,,0,00,,,M,,,,0000*2B
$GNRMC,000000.000,A,,,,,,,000000,,*26
$GPGSA,A,1,,,,,,,,,,,,,,,*1E
$BDGSA,A,1,,,,,,,,,,,,,,,*0F
$LOGTIM,0,0.000000,0.000000,0.000000,0.000000,0.000*0A
---00000008--- Acq_st=4 2019-4-28 07:49:22 
[00]  G30  1  7   5675.6 2045993.3  0.1  0.0  1  0        13
[02]  G11  7  7   6619.2 2045991.5  0.1  0.0 20  0        18
[16]  B01  1 10   5244.3 4091989.2  0.1  0.0  1  0      1527
[17]  B03  7 22   4920.6 4091987.2  0.0  0.0  2  0      1023
[18]  B07  1  7   4984.5 4091987.2  0.1  0.0  1  0         0
$GNGGA,000000.000,,,,,0,00,,,M,,,,0000*2B
$GNRMC,000000.000,A,,,,,,,000000,,*26
$GPGSA,A,1,,,,,,,,,,,,,,,*1E
$BDGSA,A,1,,,,,,,,,,,,,,,*0F
$BDGSV,1,1,01,03,00,000,22*5A
$LOGTIM,0,0.000000,0.000000,0.000000,0.000000,0.000*0A
---00000009--- Acq_st=3 2019-4-28 07:49:23 
[02]  G11  7  7   6618.6 2045991.3 -0.1  0.0 20  0        18
[17]  B03  7 20   4923.3 4091987.2 -0.1  0.0  2  0      2023
[18]  B07  1  9   5078.0 4091987.1  0.1  0.0  1  0       848
[19]  B10  1  7   5266.0 4091987.2 -0.2  0.0  1  0        10
[20]  B12  1  7   6754.2 4091982.9 -0.1  0.0  1  0         0
$GNGGA,000000.000,,,,,0,00,,,M,,,,0000*2B
$GNRMC,000000.000,A,,,,,,,000000,,*26
$GPGSA,A,1,,,,,,,,,,,,,,,*1E
$BDGSA,A,1,,,,,,,,,,,,,,,*0F
$BDGSV,1,1,01,03,00,000,20*58
$LOGTIM,0,0.000000,0.000000,0.000000,0.000000,0.000*0A
---00000010--- Acq_st=3 2019-4-28 07:49:24 
[02]  G11  7  7   6624.6 2045991.7 -0.1  0.0 20  0        18
[17]  B03  7 10   4923.9 4091987.0 -0.0  0.0  2  0      3023
[18]  B07  1  7   5409.1 4091987.1 -0.1  0.0  1  0      1848
[19]  B10  1  9   5516.3 4091987.0 -0.0  0.0  1  0      1010
[20]  B12  1  7   6645.3 4091982.7  0.1  0.0  1  0       505
$GNGGA,000000.000,,,,,0,00,,,M,,,,0000*2B
$GNRMC,000000.000,A,,,,,,,000000,,*26
$GPGSA,A,1,,,,,,,,,,,,,,,*1E
$BDGSA,A,1,,,,,,,,,,,,,,,*0F
$LOGTIM,0,0.000000,0.000000,0.000000,0.000000,0.000*0A
---00000011--- Acq_st=3 2019-4-28 07:49:25 
[02]  G11  7  7   6634.9 2045991.3 -0.0 -0.3 20  0        18
[19]  B10  1  7   5675.8 4091987.7 -0.1  0.0  1  0      2010
[20]  B12  1  7   6676.9 4091982.9  0.0  0.0  1  0      1505
$GNGGA,000000.000,,,,,0,00,,,M,,,,0000*2B
$GNRMC,000000.000,A,,,,,,,000000,,*26
$GPGSA,A,1,,,,,,,,,,,,,,,*1E
$BDGSA,A,1,,,,,,,,,,,,,,,*0F
$LOGTIM,0,0.000000,0.000000,0.000000,0.000000,0.000*0A
---00000012--- Acq_st=3 2019-4-28 07:49:26 
[02]  G11  7  7   6629.8 2045991.4 -0.1 -0.2 20  0        18
$GNGGA,000000.000,,,,,0,00,,,M,,,,0000*2B
$GNRMC,000000.000,A,,,,,,,000000,,*26
$GPGSA,A,1,,,,,,,,,,,,,,,*1E
$BDGSA,A,1,,,,,,,,,,,,,,,*0F
$LOGTIM,0,0.000000,0.000000,0.000000,0.000000,0.000*0A
---00000013--- Acq_st=3 2019-4-28 07:49:27 
[16]  B24  1  7   6265.0 4091984.2 -0.0  0.0  1  0      2527
[17]  B26  1  7   7739.1 4091980.3 -0.0  0.0  1  0      4023
$GNGGA,000000.000,,,,,0,00,,,M,,,,0000*2B
$GNRMC,000000.000,A,,,,,,,000000,,*26
$GPGSA,A,1,,,,,,,,,,,,,,,*1E
$BDGSA,A,1,,,,,,,,,,,,,,,*0F
$LOGTIM,0,0.000000,0.000000,0.000000,0.000000,0.000*0A
---00000014--- Acq_st=3 2019-4-28 07:49:28 
[16]  B24  1  7   6354.8 4091984.1  0.0  0.0  1  0       650
[17]  B26  1  7   7752.3 4091980.2 -0.1  0.0  1  0       145
$GNGGA,000000.000,,,,,0,00,,,M,,,,0000*2B
$GNRMC,000000.000,A,,,,,,,000000,,*26
$GPGSA,A,1,,,,,,,,,,,,,,,*1E
$BDGSA,A,1,,,,,,,,,,,,,,,*0F
$LOGTIM,0,0.000000,0.000000,0.000000,0.000000,0.000*0A
---00000015--- Acq_st=7 2019-4-28 07:49:29 
[16]  B24  1  7   6370.4 4091984.0 -0.0  0.0  1  0      1650
[17]  B26  1 13   7635.2 4091980.3 -0.1  0.0  1  0      1145
$GNGGA,000000.000,,,,,0,00,,,M,,,,0000*2B
$GNRMC,000000.000,A,,,,,,,000000,,*26
$GPGSA,A,1,,,,,,,,,,,,,,,*1E
$BDGSA,A,1,,,,,,,,,,,,,,,*0F
$LOGTIM,0,0.000000,0.000000,0.000000,0.000000,0.000*0A
---00000016--- Acq_st=7 2019-4-28 07:49:30 
[17]  B26  1  7   7638.1 4091980.4  0.1  0.0  1  0      2145
$GNGGA,000000.000,,,,,0,00,,,M,,,,0000*2B
$GNRMC,000000.000,A,,,,,,,000000,,*26
$GPGSA,A,1,,,,,,,,,,,,,,,*1E
$BDGSA,A,1,,,,,,,,,,,,,,,*0F
$LOGTIM,0,0.000000,0.000000,0.000000,0.000000,0.000*0A
---00000017--- Acq_st=3 2019-4-28 07:49:31 
[00]  G01  1 26    564.1 2045999.8  0.0  0.0  1  0        13
[01]  G03  1 21  -2689.8 2046005.1 -0.0  0.0  1  0        15
$GNGGA,000000.000,,,,,0,00,,,M,,,,0000*2B
$GNRMC,000000.000,A,,,,,,,000000,,*26
$GPGSA,A,1,,,,,,,,,,,,,,,*1E
$BDGSA,A,1,,,,,,,,,,,,,,,*0F
$LOGTIM,0,0.000000,0.000000,0.000000,0.000000,0.000*0A
---00000018--- Acq_st=3 2019-4-28 07:49:32 
[00]  G01  1 29    528.6 2045999.0  0.5  0.0  1  0        16
[01]  G03  7 23  -2718.7 2046003.5  0.0  0.0 20  0         1
[02]  G07  1 28   2453.8 2045997.2 -0.1  0.0  1  0         9
[03]  G08  1 24   2256.2 2045997.5  0.0  0.0  1  0         0
[04]  G11  1 22   1547.7 2045997.8  0.1  0.0  1  0         0
$GNGGA,000000.000,,,,,0,00,,,M,,,,0000*2B
$GNRMC,000000.000,A,,,,,,,000000,,*26
$GPGSA,A,1,,,,,,,,,,,,,,,*1E
$BDGSA,A,1,,,,,,,,,,,,,,,*0F
$GPGSV,1,1,01,03,00,000,23*4A
$LOGTIM,0,0.000000,0.000000,0.000000,0.000000,0.000*0A
---00000019--- Acq_st=3 2019-4-28 07:49:33 
[00]  G01  7 29    528.8 2045999.3  0.9  1.0  5  0        16
[01]  G03  7 37  -2721.8 2046003.5  0.7  1.0  5  0        16
[02]  G07  7 31   2476.2 2045996.7  0.6  1.0  5  0         9
[03]  G08  7 28   2234.7 2045997.0  0.4  1.0 10  0         4
[04]  G11  7 19   1546.1 2045998.0  0.3  0.0 20  0         0
[05]  G15  1  7  -1201.7 2046000.8  0.1  0.0  1  0         0
[06]  G17  1  9  -1690.4 2046003.7 -0.0  0.0  1  0         0
[07]  G18  1  7   2203.4 2045999.6  0.0  0.0  1  0         0
$GNGGA,000000.000,,,,,0,00,,,M,,,,0000*2B
$GNRMC,000000.000,A,,,,,,,000000,,*26
$GPGSA,A,1,,,,,,,,,,,,,,,*1E
$BDGSA,A,1,,,,,,,,,,,,,,,*0F
$GPGSV,2,1,05,01,00,000,29,03,00,000,37,07,00,000,31,08,00,000,28*75
$GPGSV,2,2,05,11,00,000,19*44
$LOGTIM,0,0.000000,0.000000,0.000000,0.000000,0.000*0A
---00000020--- Acq_st=3 2019-4-28 07:49:34 
[00]  G01  7 43    530.0 2045999.3  1.0  1.0  5  0         8
[01]  G03  7 37  -2720.9 2046003.6  1.0  1.0  5  0        16
[02]  G07  7 43   2477.4 2045996.7  1.0  1.0  5  0         5
[03]  G08  7 34   2235.3 2045996.9  1.0  0.9  5  0        16
[04]  G11  7 43   1547.1 2045998.0  0.8  1.0  5  0         6
[05]  G15  1  7  -1252.3 2046000.8  0.1  0.0  1  0         2
[06]  G17  7 22  -1655.4 2046002.1 -0.1  0.0 20  0         8
[07]  G18  7 18   2170.0 2045997.0  0.1  0.0 20  0         3
[08]  G22  1  7  -1655.6 2046004.1 -0.1  0.0  1  0         0
$GNGGA,000000.000,,,,,0,00,,,M,,,,0000*2B
$GNRMC,000000.000,A,,,,,,,000000,,*26
$GPGSA,A,1,,,,,,,,,,,,,,,*1E
$BDGSA,A,1,,,,,,,,,,,,,,,*0F
$GPGSV,2,1,07,01,00,000,43,03,00,000,37,07,00,000,43,08,00,000,34*73
$GPGSV,2,2,07,11,00,000,43,17,00,000,22,18,00,000,18*4F
$LOGTIM,0,0.000000,0.000000,0.000000,0.000000,0.000*0A
---00000021--- Acq_st=3 2019-4-28 07:49:35 
[00]  G01  7 43    534.4 2045999.3  1.0  1.0  5  0         8
[01]  G03  7 37  -2717.8 2046003.5  1.0  1.0  5  0        16
[02]  G07  7 43   2481.8 2045996.7  1.0  0.9  5  0         5
[03]  G08  7 34   2238.3 2045997.0  0.9  1.0  5  0        16
[04]  G11  7 42   1551.1 2045998.0  0.9  1.0  5  0         6
[05]  G15  1  7  -1434.1 2046000.8 -0.1  0.0  1  0         2
[06]  G17  7 39  -1648.9 2046002.1  0.7  1.0  5  0         1
[07]  G18  7 40   2174.0 2045997.0  0.5  1.0  5  0         4
[08]  G22  7 28  -1728.7 2046002.2  0.3  1.0 10  0        11
[09]  G28  1  7  -1954.3 2046002.1  0.3  0.0  1  0         0
[10]  G30  1 28    478.1 2045999.9  0.0  0.0  1  0         0
[16]  B01  1 29   -240.7 4092001.6  0.0  0.0  1  0      2650
$GNGGA,000000.000,,,,,0,00,,,M,,,,0000*2B
$GNRMC,000000.000,A,,,,,,,000000,,*26
$GPGSA,A,1,,,,,,,,,,,,,,,*1E
$BDGSA,A,1,,,,,,,,,,,,,,,*0F
$GPGSV,2,1,08,01,00,000,43,03,00,000,37,07,00,000,43,08,00,000,34*7C
$GPGSV,2,2,08,11,00,000,42,17,00,000,39,18,00,000,40,22,00,000,28*7C
$LOGTIM,0,0.000000,0.000000,0.000000,0.000000,0.000*0A
---00000022--- Acq_st=3 2019-4-28 07:49:36 
[00]  G01  7 43    536.7 2045999.3  1.0  1.0  5  0         8
[01]  G03  7 36  -2715.3 2046003.5  1.0  1.0  5  0        16
[02]  G07  7 43   2483.6 2045996.7  1.0  1.0  5  0         5
[03]  G08  7 34   2240.2 2045997.0  1.0  1.0  5  0        16
[04]  G11  7 43   1553.6 2045998.0  1.0  1.0  5  0         6
[06]  G17  7 40  -1646.7 2046002.1  1.0  1.0  5  0         1
[07]  G18  7 41   2176.0 2045997.1  1.0  1.0  5  0         4
[08]  G22  7 38  -1727.5 2046002.3  0.9  1.0  5  0        17
[09]  G28  1  7  -1879.8 2046002.4  0.1  0.0  1  0        19
[10]  G30  7 26    476.8 2045999.3  0.4  0.0 20  0         4
[16]  B01  1 39   -280.6 4092001.6  0.9  0.0  1  0       145
[17]  B02  1 40   -325.4 4092001.7  0.9  0.0  1  0      3145
[18]  B03  1 43   -298.1 4092001.3  0.7  0.0  1  0      2848
[19]  B04  1 26   -286.0 4092002.3  0.0  0.0  1  0      3010
$GNGGA,000000.000,,,,,0,00,,,M,,,,0000*2B
$GNRMC,000000.000,A,,,,,,,000000,,*26
$GPGSA,A,1,,,,,,,,,,,,,,,*1E
$BDGSA,A,1,,,,,,,,,,,,,,,*0F
$GPGSV,3,1,09,01,00,000,43,03,00,000,36,07,00,000,43,08,00,000,34*7D
$GPGSV,3,2,09,11,00,000,43,17,00,000,40,18,00,000,41,22,00,000,38*73
$GPGSV,3,3,09,30,00,000,26*47
$LOGTIM,0,0.000000,0.000000,0.000000,0.000000,0.000*0A
---00000023--- Acq_st=3 2019-4-28 07:49:37 
[00]  G01  f 46    536.9 2045999.3  1.0  1.0  5  0         8
[01]  G03  f 37  -2716.5 2046003.5  1.0  1.0  5  0        16
[02]  G07  f 46   2483.2 2045996.8  1.0  1.0  5  0         5
[03]  G08  f 34   2239.4 2045997.1  1.0  0.9  5  0        16
[04]  G11  f 45   1553.0 2045998.0  1.0  1.0  5  0         6
[06]  G17  f 41  -1646.9 2046002.1  1.0  1.0  5  0         1
[07]  G18  f 43   2175.8 2045997.1  1.0  1.0  5  0         4
[08]  G22  f 39  -1728.0 2046002.2  1.0  1.0  5  0        17
[09]  G28  1  7  -2048.7 2046002.4 -0.1  0.0  1  0        19
[10]  G30  7 47    476.4 2045999.3  1.0  1.0  5  0         7
[16]  B01  f 40   -281.0 4092000.8  0.9  0.0  2  0  28181531
[17]  B02  f 38   -325.6 4092000.7  0.9  0.0  2  0       132
[18]  B03  7 43   -299.7 4092000.6  1.0  0.0  2  0       134
[19]  B04  7 39   -296.3 4092000.7  0.9  0.0  2  0       638
[20]  B07  1  7   -346.3 4092001.0  0.2  0.0  1  0      2505
[21]  B08  1  7   -230.5 4092000.7  0.0  0.0  1  0         0
[22]  B10  1  7   -562.6 4092001.7  0.1  0.0  1  0         0
$GNGGA,000000.000,,,,,0,00,,,M,,,,0000*2B
$GNRMC,000000.000,A,,,,,,,000000,,*26
$GPGSA,A,1,,,,,,,,,,,,,,,*1E
$BDGSA,A,1,,,,,,,,,,,,,,,*0F
$GPGSV,3,1,09,01,00,000,46,03,00,000,37,07,00,000,46,08,00,000,34*7C
$GPGSV,3,2,09,11,00,000,45,17,00,000,41,18,00,000,43,22,00,000,39*77
$GPGSV,3,3,09,30,00,000,47*40
$BDGSV,1,1,04,01,00,000,40,02,00,000,38,03,00,000,43,04,00,000,39*6A
$LOGTIM,0,0.000000,0.000000,0.000000,0.000000,0.000*0A
---00000024--- Acq_st=3 2019-4-28 07:49:38 
[00]  G01  f 46    539.0 2045999.3  1.0  1.0  5  0  28195988
[01]  G03  f 38  -2714.4 2046003.6  1.0  1.0  5  0  28195976
[02]  G07  f 46   2485.4 2045996.8  1.0  1.0  5  0  28195985
[03]  G08  f 33   2241.4 2045997.1  1.0  1.0  5  0  28195976
[04]  G11  f 45   1555.2 2045998.0  1.0  1.0  5  0  28195986
[06]  G17  f 42  -1645.4 2046002.1  1.0  1.0  5  0  28195981
[07]  G18  f 41   2178.1 2045997.1  1.0  1.0  5  0  28195984
[08]  G22  f 39  -1726.3 2046002.2  1.0  1.0  5  0  28195977
[10]  G30  7 47    478.6 2045999.3  1.0  1.0  5  0         7
[16]  B01 1f 39   -279.5 4092000.7  0.9  0.0  2  0  28182531
[17]  B02 1f 38   -324.9 4092000.8  0.9  0.0  2  0  28182532
[18]  B03  f 43   -298.0 4092000.8  1.0  0.0  2  0      1134
[19]  B04 1f 39   -294.9 4092000.7  0.9  0.0  2  0      1637
[20]  B07  7 28   -345.5 4092000.9  0.1  1.0 10  0       799
[21]  B08  1  7   -275.3 4092000.4 -0.1  0.0  1  0       630
[22]  B10  1  7   -694.1 4092001.9  0.2  0.0  1  0       127
[23]  B11  1  7  -1466.2 4092004.6  0.0  0.0  1  0         0
[24]  B12  1  7   1866.3 4091994.0  0.0  0.0  1  0         0
[25]  B13  1  7  -1068.6 4092004.0 -0.0  0.0  1  0         0
$GNGGA,000000.000,,,,,0,00,,,M,,,,0000*2B
$GNRMC,000000.000,A,,,,,,,000000,,*26
$GPGSA,A,1,,,,,,,,,,,,,,,*1E
$BDGSA,A,1,,,,,,,,,,,,,,,*0F
$GPGSV,3,1,09,01,00,000,46,03,00,000,38,07,00,000,46,08,00,000,33*74
$GPGSV,3,2,09,11,00,000,45,17,00,000,42,18,00,000,41,22,00,000,39*76
$GPGSV,3,3,09,30,00,000,47*40
$BDGSV,2,1,05,01,00,000,39,02,00,000,38,03,00,000,43,04,00,000,40*68
$BDGSV,2,2,05,07,00,000,28*50
$LOGTIM,0,0.000000,0.000000,0.000000,0.000000,0.000*0A
---00000025--- Acq_st=3 2019-4-28 07:49:39 
[00]  G01  f 45    542.6 2045999.3  1.0  1.0  5  0  28196988
[01]  G03  f 37  -2711.4 2046003.5  1.0  1.0  5  0  28196976
[02]  G07  f 45   2489.2 2045996.8  1.0  1.0  5  0  28196985
[03]  G08  f 34   2243.8 2045997.1  1.0  0.9  5  0  28196976
[04]  G11  f 44   1559.0 2045998.0  1.0  1.0  5  0  28196986
[06]  G17  f 41  -1642.1 2046002.1  1.0  1.0  5  0  28196981
[07]  G18  f 41   2181.5 2045997.1  1.0  1.0  5  0  28196984
[08]  G22  f 39  -1722.8 2046002.2  1.0  1.0  5  0  28196977
[10]  G30  7 45    482.5 2045999.3  1.0  1.0  5  0         7
[16]  B01 1f 39   -277.1 4092000.7  0.9  0.0  2  0  28182931
[17]  B02 1f 38   -322.2 4092000.7  0.9  0.0  2  0  28182932
[18]  B03  f 42   -295.5 4092000.8  1.0  0.0  2  0  28183534
[19]  B04 1f 39   -292.2 4092000.7  0.9  0.0  2  0  28182925
[20]  B07  7 43   -342.8 4092000.9  0.8  1.0  5  0      1795
[21]  B08  1  7     11.8 4092000.7  0.1  0.0  1  0      1630
[22]  B10  7 34   -690.9 4092001.8  0.3  1.0  5  0      1127
[23]  B11  7 31  -1462.3 4092003.8  0.3  1.0  5  0       958
[24]  B12  7 28   1869.7 4091995.1  0.4  0.0 10  0       789
[25]  B13  7 24  -1071.4 4092002.8  0.1  0.0 20  0       620
$GNGGA,000000.000,,,,,0,00,,,M,,,,0000*2B
$GNRMC,000000.000,A,,,,,,,000000,,*26
$GPGSA,A,1,,,,,,,,,,,,,,,*1E
$BDGSA,A,1,,,,,,,,,,,,,,,*0F
$GPGSV,3,1,09,01,00,000,45,03,00,000,37,07,00,000,45,08,00,000,34*7C
$GPGSV,3,2,09,11,00,000,44,17,00,000,41,18,00,000,41,22,00,000,39*74
$GPGSV,3,3,09,30,00,000,45*42
$BDGSV,3,1,09,01,00,000,39,02,00,000,38,03,00,000,42,04,00,000,39*6A
$BDGSV,3,2,09,07,00,000,43,10,00,000,34,11,00,000,31,12,00,000,28*6D
$BDGSV,3,3,09,13,00,000,24*55
$LOGTIM,0,0.000000,0.000000,0.000000,0.000000,0.000*0A
---00000026--- Acq_st=3 2019-4-28 07:49:40 
[00]  G01  f 44    541.9 2045999.3  1.0  1.0  5  0  28197988
[01]  G03  f 38  -2712.1 2046003.5  1.0  1.0  5  0  28197976
[02]  G07  f 44   2488.2 2045996.8  1.0  1.0  5  0  28197985
[03]  G08  f 34   2243.1 2045997.0  1.0  1.0  5  0  28197976
[04]  G11  f 44   1557.5 2045998.0  1.0  1.0  5  0  28197986
[06]  G17  f 40  -1643.1 2046002.1  1.0  1.0  5  0  28197981
[07]  G18  f 41   2180.4 2045997.2  1.0  1.0  5  0  28197984
[08]  G22  f 38  -1723.5 2046002.3  1.0  1.0  5  0  28197977
[10]  G30  7 45    481.4 2045999.3  1.0  1.0  5  0         7
[16]  B01 1f 40   -278.4 4092000.5  1.0  0.0  2  0  28183931
[17]  B02 1f 39   -323.2 4092000.9  0.9  0.0  2  0  28183932
[18]  B03  f 42   -296.1 4092000.6  1.0  0.0  2  0  28184534
[19]  B04 1f 38   -293.0 4092000.8  0.9  0.0  2  0  28183925
[20]  B07  7 43   -343.6 4092000.9  1.0  1.0  5  0      2795
[22]  B10  7 43   -692.2 4092001.8  1.0  1.0  5  0      2116
[23]  B11  7 42  -1464.0 4092003.8  1.0  1.0  5  0      1940
[24]  B12  7 42   1868.6 4091995.1  1.0  1.0  5  0      1778
[25]  B13  7 42  -1071.9 4092002.8  0.8  1.0  5  0      1612
$GNGGA,000000.000,,,,,0,00,,,M,,,,0000*2B
$GNRMC,000000.000,A,,,,,,,000000,,*26
$GPGSA,A,1,,,,,,,,,,,,,,,*1E
$BDGSA,A,1,,,,,,,,,,,,,,,*0F
$GPGSV,3,1,09,01,00,000,44,03,00,000,38,07,00,000,44,08,00,000,34*73
$GPGSV,3,2,09,11,00,000,44,17,00,000,40,18,00,000,41,22,00,000,38*74
$GPGSV,3,3,09,30,00,000,45*42
$BDGSV,3,1,09,01,00,000,40,02,00,000,39,03,00,000,42,04,00,000,38*64
$BDGSV,3,2,09,07,00,000,43,10,00,000,43,11,00,000,42,12,00,000,42*65
$BDGSV,3,3,09,13,00,000,42*55
$LOGTIM,0,0.000000,0.000000,0.000000,0.000000,0.000*0A
---00000027--- Acq_st=3 2019-4-28 07:49:41 
[00]  G01  f 47    541.0 2045999.3  1.0  1.0  5  0  28198988
[01]  G03  f 38  -2713.7 2046003.5  1.0  1.0  5  0  28198976
[02]  G07  f 46   2486.8 2045996.8  1.0  1.0  5  0  28198985
[03]  G08  f 34   2240.5 2045997.1  1.0  1.0  5  0  28198976
[04]  G11  f 46   1556.5 2045998.0  1.0  1.0  5  0  28198986
[06]  G17  f 41  -1644.8 2046002.1  1.0  1.0  5  0  28198981
[07]  G18  f 43   2179.7 2045997.1  1.0  1.0  5  0  28198984
[08]  G22  f 39  -1725.0 2046002.2  1.0  1.0  5  0  28198977
[10]  G30  7 48    480.8 2045999.4  1.0  1.0  5  0         7
[16]  B01 1f 39   -279.4 4092000.5  1.0  0.0  2  0  28184931
[17]  B02 1f 39   -324.4 4092000.9  0.9  0.0  2  0  28184932
[18]  B03 1f 42   -297.6 4092000.7  1.0  0.0  2  0  28185534
[19]  B04 1f 39   -294.3 4092000.7  0.9  0.0  2  0  28184925
[20]  B07  7 44   -345.0 4092000.9  1.0  1.0  5  0      3795
[21]  B24  1  7   1184.6 4091995.7  0.0  0.0  1  0      2630
[22]  B10  7 44   -693.4 4092001.8  1.0  1.0  5  0      3116
[23]  B11  7 43  -1465.0 4092003.8  1.0  1.0  5  0      2940
[24]  B12  7 43   1867.3 4091995.1  1.0  1.0  5  0      2778
[25]  B13  7 43  -1073.5 4092002.8  1.0  1.0  5  0      2612
$GNGGA,000000.000,,,,,0,00,,,M,,,,0000*2B
$GNRMC,000000.000,A,,,,,,,000000,,*26
$GPGSA,A,1,,,,,,,,,,,,,,,*1E
$BDGSA,A,1,,,,,,,,,,,,,,,*0F
$GPGSV,3,1,09,01,00,000,47,03,00,000,38,07,00,000,46,08,00,000,34*72
$GPGSV,3,2,09,11,00,000,46,17,00,000,41,18,00,000,43,22,00,000,39*74
$GPGSV,3,3,09,30,00,000,48*4F
$BDGSV,3,1,09,01,00,000,39,02,00,000,39,03,00,000,42,04,00,000,39*6B
$BDGSV,3,2,09,07,00,000,44,10,00,000,44,11,00,000,43,12,00,000,43*65
$BDGSV,3,3,09,13,00,000,43*54
$LOGTIM,0,0.000000,0.000000,0.000000,0.000000,0.000*0A
---00000028--- Acq_st=3 2019-4-28 07:49:42 
[00]  G01  f 47    538.7 2045999.3  1.0  1.0  5  0  28199988
[01]  G03  f 38  -2716.5 2046003.6  1.0  0.9  5  0  28199976
[02]  G07  f 47   2484.3 2045996.8  1.0  1.0  5  0  28199985
[03]  G08  f 34   2237.8 2045997.0  1.0  0.9  5  0  28199976
[04]  G11  f 46   1554.0 2045998.0  1.0  1.0  5  0  28199986
[06]  G17  f 42  -1647.7 2046002.1  1.0  1.0  5  0  28199981
[07]  G18  f 43   2177.1 2045997.2  1.0  1.0  5  0  28199984
[08]  G22  f 39  -1727.9 2046002.2  1.0  1.0  5  0  28199977
[10]  G30  7 48    478.2 2045999.4  1.0  1.0  5  0         7
[16]  B01 1f 40   -283.0 4092000.8  0.9  0.0  2  0  28185931
[17]  B02 1f 40   -327.7 4092000.9  1.0  0.0  2  0  28185932
[18]  B03 1f 43   -301.0 4092000.8  1.0  0.0  2  0  28185934
[19]  B04 1f 40   -298.0 4092000.8  1.0  0.0  2  0  28185925
[20]  B07  7 44   -348.5 4092000.9  1.0  1.0  5  0      4795
[21]  B24  1  7   1246.2 4091996.7  0.1  0.0  1  0       100
[22]  B10  7 44   -697.0 4092001.8  1.0  1.0  5  0      4116
[23]  B11  7 43  -1467.7 4092003.8  1.0  1.0  5  0      3940
[24]  B12  7 42   1863.9 4091995.1  1.0  1.0  5  0      3778
[25]  B13  7 43  -1076.8 4092002.8  1.0  1.0  5  0      3612
[26]  B25  1  7  -1710.4 4092004.2  0.2  0.0  1  0         0
$GNGGA,000000.000,,,,,0,00,,,M,,,,0000*2B
$GNRMC,000000.000,A,,,,,,,000000,,*26
$GPGSA,A,1,,,,,,,,,,,,,,,*1E
$BDGSA,A,1,,,,,,,,,,,,,,,*0F
$GPGSV,3,1,09,01,00,000,47,03,00,000,38,07,00,000,47,08,00,000,34*73
$GPGSV,3,2,09,11,00,000,46,17,00,000,42,18,00,000,43,22,00,000,39*77
$GPGSV,3,3,09,30,00,000,48*4F
$BDGSV,3,1,09,01,00,000,40,02,00,000,40,03,00,000,43,04,00,000,40*64
$BDGSV,3,2,09,07,00,000,44,10,00,000,44,11,00,000,43,12,00,000,42*64
$BDGSV,3,3,09,13,00,000,43*54
$LOGTIM,0,0.000000,0.000000,0.000000,0.000000,0.000*0A
---00000029--- Acq_st=3 2019-4-28 07:49:43 
[00]  G01  f 47    538.6 2045999.3  1.0  1.0  5  0  28200988
[01]  G03  f 38  -2717.5 2046003.4  1.0  1.0  5  0  28200976
[02]  G07  f 46   2483.7 2045996.8  1.0  1.0  5  0  28200985
[03]  G08  f 34   2236.8 2045997.0  1.0  1.0  5  0  28200976
[04]  G11  f 46   1553.6 2045998.0  1.0  1.0  5  0  28200986
[06]  G17  f 41  -1648.2 2046002.1  1.0  1.0  5  0  28200981
[07]  G18  f 43   2176.8 2045997.1  1.0  1.0  5  0  28200984
[08]  G22  f 39  -1728.2 2046002.2  1.0  1.0  5  0  28200977
[10]  G30  f 48    478.3 2045999.4  1.0  1.0  5  0         7
[16]  B01 1f 39   -283.7 4092000.8  0.9  0.0  2  0  28186931
[17]  B02 1f 39   -329.1 4092000.7  1.0  0.0  2  0  28186932
[18]  B03 1f 42   -301.9 4092000.8  1.0  0.0  2  0  28186934
[19]  B04 1f 39   -298.7 4092000.7  0.9  0.0  2  0  28186925
[20]  B07  7 44   -349.2 4092000.9  1.0  1.0  5  0      5795
[21]  B24  7 33   1245.8 4091996.7  0.8  1.0  5  0      1100
[22]  B10  7 44   -697.6 4092001.8  1.0  1.0  5  0      5116
[23]  B11  7 44  -1468.3 4092003.8  1.0  1.0  5  0      4940
[24]  B12  7 43   1863.3 4091995.2  1.0  1.0  5  0      4778
[25]  B13  7 43  -1076.9 4092002.8  1.0  1.0  5  0      4612
[26]  B25  1  7  -1769.4 4092004.0 -0.1  0.0  1  0       930
$GNGGA,000000.000,,,,,0,00,,,M,,,,0000*2B
$GNRMC,000000.000,A,,,,,,,000000,,*26
$GPGSA,A,1,,,,,,,,,,,,,,,*1E
$BDGSA,A,1,,,,,,,,,,,,,,,*0F
$GPGSV,3,1,09,01,00,000,47,03,00,000,38,07,00,000,46,08,00,000,34*72
$GPGSV,3,2,09,11,00,000,46,17,00,000,41,18,00,000,43,22,00,000,39*74
$GPGSV,3,3,09,30,00,000,48*4F
$BDGSV,3,1,10,01,00,000,39,02,00,000,39,03,00,000,42,04,00,000,39*63
$BDGSV,3,2,10,07,00,000,44,24,00,000,33,10,00,000,44,11,00,000,44*68
$BDGSV,3,3,10,12,00,000,43,13,00,000,43*68
$LOGTIM,0,0.000000,0.000000,0.000000,0.000000,0.000*0A
---00000030--- Acq_st=7 2019-4-28 07:49:44 
[00]  G01  f 47    539.4 2045999.3  1.0  1.0  5  0  28201988
[01]  G03  f 38  -2717.2 2046003.5  1.0  1.0  5  0  28201976
[02]  G07  f 46   2484.4 2045996.8  1.0  1.0  5  0  28201985
[03]  G08  f 34   2236.2 2045997.1  1.0  0.9  5  0  28201976
[04]  G11  f 45   1554.1 2045998.0  1.0  1.0  5  0  28201986
[06]  G17  f 42  -1648.1 2046002.2  1.0  1.0  5  0  28201981
[07]  G18  f 43   2177.3 2045997.2  1.0  1.0  5  0  28201984
[08]  G22  f 39  -1728.4 2046002.2  1.0  1.0  5  0  28201977
[10]  G30  f 48    478.9 2045999.4  1.0  1.0  5  0  28201987
[16]  B01 1f 39   -283.5 4092000.8  1.0  0.0  2  0  28187931
[17]  B02 1f 39   -329.3 4092000.9  0.9  0.0  2  0  28187932
[18]  B03 1f 43   -301.9 4092000.7  1.0  0.0  2  0  28187934
[19]  B04 1f 40   -298.6 4092000.7  0.9  0.0  2  0  28187925
[20]  B07  7 44   -349.1 4092000.9  1.0  1.0  5  0      6795
[21]  B24  7 47   1246.2 4091996.7  1.0  1.0  5  0      2082
[22]  B10  7 44   -697.5 4092001.8  1.0  1.0  5  0      6116
[23]  B11  7 43  -1468.3 4092003.9  1.0  1.0  5  0      5940
[24]  B12  7 42   1863.2 4091995.1  1.0  1.0  5  0      5778
[25]  B13  7 43  -1077.1 4092002.8  1.0  1.0  5  0      5612
[26]  B25  1  9  -1753.2 4092004.8 -0.1  0.0  1  0      1930
$GNGGA,000000.000,,,,,0,00,,,M,,,,0000*2B
$GNRMC,000000.000,A,,,,,,,000000,,*26
$GPGSA,A,1,,,,,,,,,,,,,,,*1E
$BDGSA,A,1,,,,,,,,,,,,,,,*0F
$GPGSV,3,1,09,01,00,000,47,03,00,000,38,07,00,000,46,08,00,000,34*72
$GPGSV,3,2,09,11,00,000,45,17,00,000,42,18,00,000,43,22,00,000,39*74
$GPGSV,3,3,09,30,00,000,48*4F
$BDGSV,3,1,10,01,00,000,39,02,00,000,39,03,00,000,43,04,00,000,40*6C
$BDGSV,3,2,10,07,00,000,44,24,00,000,47,10,00,000,44,11,00,000,43*6C
$BDGSV,3,3,10,12,00,000,42,13,00,000,43*69
$LOGTIM,0,0.000000,0.000000,0.000000,0.000000,0.000*0A
---00000031--- Acq_st=7 2019-4-28 07:49:45 
[00]  G01  f 47    540.0 2045999.3  1.0  1.0  5  0  28202988
[01]  G03  f 37  -2717.3 2046003.5  1.0  1.0  5  0  28202976
[02]  G07  f 46   2484.7 2045996.8  1.0  1.0  5  0  28202985
[03]  G08  f 35   2236.5 2045997.0  1.0  1.0  5  0  28202976
[04]  G11  f 45   1554.7 2045998.0  1.0  1.0  5  0  28202986
[06]  G17  f 41  -1647.6 2046002.2  1.0  1.0  5  0  28202981
[07]  G18  f 43   2177.7 2045997.2  1.0  1.0  5  0  28202984
[08]  G22  f 39  -1727.5 2046002.2  1.0  1.0  5  0  28202977
[10]  G30  f 48    479.7 2045999.4  1.0  1.0  5  0  28202987
[16]  B01 1f 39   -283.9 4092000.7  1.0  0.0  2  0  28188931
[17]  B02 1f 40   -328.7 4092000.8  0.9  0.0  2  0  28188932
[18]  B03 1f 42   -301.7 4092000.8  1.0  0.0  2  0  28188934
[19]  B04 1f 39   -298.5 4092000.8  0.9  0.0  2  0  28188925
[20]  B07 1f 44   -348.6 4092000.9  1.0  1.0  5  0      7795
[21]  B24 1f 47   1247.0 4091996.7  1.0  1.0  5  0      3082
[22]  B10 1f 44   -697.4 4092001.8  1.0  1.0  5  0      7116
[23]  B11 1f 43  -1467.6 4092003.9  1.0  1.0  5  0      6940
[24]  B12 1f 43   1863.5 4091995.1  1.0  1.0  5  0      6778
[25]  B13 1f 43  -1076.6 4092002.8  1.0  1.0  5  0      6612
$GNGGA,000000.000,,,,,0,00,,,M,,,,0000*2B
$GNRMC,000000.000,A,,,,,,,000000,,*26
$GPGSA,A,1,,,,,,,,,,,,,,,*1E
$BDGSA,A,1,,,,,,,,,,,,,,,*0F
$GPGSV,3,1,09,01,00,000,47,03,00,000,37,07,00,000,46,08,00,000,35*7C
$GPGSV,3,2,09,11,00,000,45,17,00,000,41,18,00,000,43,22,00,000,39*77
$GPGSV,3,3,09,30,00,000,48*4F
$BDGSV,3,1,10,01,00,000,39,02,00,000,40,03,00,000,42,04,00,000,39*6D
$BDGSV,3,2,10,07,00,000,44,24,00,000,47,10,00,000,44,11,00,000,43*6C
$BDGSV,3,3,10,12,00,000,43,13,00,000,43*68
$LOGTIM,0,0.000000,0.000000,0.000000,0.000000,0.000*0A
---00000032--- Acq_st=3 2019-4-28 07:49:46 
[00]  G01  f 48    540.8 2045999.3  1.0  1.0  5  0  28203988
[01]  G03  f 38  -2717.2 2046003.5  1.0  1.0  5  0  28203976
[02]  G07  f 46   2485.6 2045996.8  1.0  1.0  5  0  28203985
[03]  G08  f 35   2236.7 2045997.1  1.0  1.0  5  0  28203976
[04]  G11  f 46   1555.3 2045998.0  1.0  1.0  5  0  28203986
[06]  G17  f 41  -1647.1 2046002.1  1.0  1.0  5  0  28203981
[07]  G18  f 41   2178.3 2045997.2  1.0  1.0  5  0  28203984
[08]  G22  f 40  -1727.3 2046002.2  1.0  1.0  5  0  28203977
[10]  G30  f 48    480.4 2045999.4  1.0  1.0  5  0  28203987
[16]  B01 1f 40   -283.0 4092000.8  0.9  0.0  2  0  28189931
[17]  B02 1f 39   -328.3 4092000.9  0.9  0.0  2  0  28189932
[18]  B03 1f 43   -301.4 4092000.8  1.0  0.0  2  0  28189934
[19]  B04 1f 40   -297.7 4092000.9  0.9  0.0  2  0  28189925
[20]  B07 1f 43   -348.2 4092000.9  1.0  1.0  5  0  28189935
[21]  B24 1f 47   1247.9 4091996.7  1.0  1.0  5  0  28189982
[22]  B10 1f 44   -696.5 4092001.8  1.0  1.0  5  0  28189936
[23]  B11 1f 43  -1466.6 4092003.8  1.0  1.0  5  0  28189980
[24]  B12 1f 43   1864.3 4091995.1  1.0  1.0  5  0  28189978
[25]  B13 1f 43  -1076.3 4092002.8  1.0  1.0  5  0  28189932
$GNGGA,000000.000,,,,,0,00,,,M,,,,0000*2B
$GNRMC,000000.000,A,,,,,,,000000,,*26
$GPGSA,A,1,,,,,,,,,,,,,,,*1E
$BDGSA,A,1,,,,,,,,,,,,,,,*0F
$GPGSV,3,1,09,01,00,000,48,03,00,000,38,07,00,000,46,08,00,000,35*7C
$GPGSV,3,2,09,11,00,000,46,17,00,000,41,18,00,000,41,22,00,000,40*78
$GPGSV,3,3,09,30,00,000,48*4F
$BDGSV,3,1,10,01,00,000,40,02,00,000,39,03,00,000,43,04,00,000,40*62
$BDGSV,3,2,10,07,00,000,43,24,00,000,47,10,00,000,44,11,00,000,43*6B
$BDGSV,3,3,10,12,00,000,43,13,00,000,43*68
$LOGTIM,0,0.000000,0.000000,0.000000,0.000000,0.000*0A
---00000033--- Acq_st=3 2019-4-28 07:49:47 
[00]  G01  f 47    542.3 2045999.3  1.0  1.0  5  0  28204988
[01]  G03  f 38  -2716.4 2046003.5  1.0  1.0  5  0  28204976
[02]  G07  f 46   2486.3 2045996.8  1.0  1.0  5  0  28204985
[03]  G08  f 35   2237.2 2045997.1  1.0  1.0  5  0  28204976
[04]  G11  f 46   1556.1 2045998.0  1.0  1.0  5  0  28204986
[06]  G17  f 41  -1646.3 2046002.1  1.0  1.0  5  0  28204981
[07]  G18  f 43   2179.7 2045997.2  1.0  1.0  5  0  28204984
[08]  G22  f 40  -1726.1 2046002.2  1.0  1.0  5  0  28204977
[10]  G30  f 48    481.6 2045999.4  1.0  1.0  5  0  28204987
[16]  B01 1f 41   -282.5 4092000.8  0.9  0.0  2  0  28190931
[17]  B02 1f 39   -327.9 4092000.8  0.9  0.0  2  0  28190932
[18]  B03 1f 42   -301.0 4092000.8  1.0  0.0  2  0  28190934
[19]  B04 1f 39   -297.6 4092000.7  0.9  0.0  2  0  28190925
[20]  B07 1f 43   -347.6 4092000.9  1.0  1.0  5  0  28190935
[21]  B24 1f 47   1248.5 4091996.7  1.0  1.0  5  0  28190982
[22]  B10 1f 45   -696.1 4092001.8  1.0  1.0  5  0  28190936
[23]  B11 1f 44  -1465.8 4092003.8  1.0  1.0  5  0  28190980
[24]  B12 1f 42   1864.6 4091995.1  1.0  1.0  5  0  28190978
[25]  B13 1f 43  -1075.9 4092002.8  1.0  1.0  5  0  28190932
$GNGGA,000000.000,,,,,0,00,,,M,,,,0000*2B
$GNRMC,000000.000,A,,,,,,,000000,,*26
$GPGSA,A,1,,,,,,,,,,,,,,,*1E
$BDGSA,A,1,,,,,,,,,,,,,,,*0F
$GPGSV,3,1,09,01,00,000,47,03,00,000,38,07,00,000,46,08,00,000,35*73
$GPGSV,3,2,09,11,00,000,46,17,00,000,41,18,00,000,43,22,00,000,40*7A
$GPGSV,3,3,09,30,00,000,48*4F
$BDGSV,3,1,10,01,00,000,41,02,00,000,39,03,00,000,42,04,00,000,39*6C
$BDGSV,3,2,10,07,00,000,43,24,00,000,47,10,00,000,45,11,00,000,44*6D
$BDGSV,3,3,10,12,00,000,42,13,00,000,43*69
$LOGTIM,0,0.000000,0.000000,0.000000,0.000000,0.000*0A
---00000034--- Acq_st=3 2019-4-28 07:49:48 
[00]  G01  f 43    542.5 2045999.3  1.0  1.0  5  0  28205988
[01]  G03  f 37  -2716.4 2046003.5  1.0  0.9  5  0  28205976
[02]  G07  f 43   2486.4 2045996.8  1.0  1.0  5  0  28205985
[03]  G08  f 34   2237.4 2045997.1  1.0  0.9  5  0  28205976
[04]  G11  f 43   1556.7 2045998.0  1.0  1.0  5  0  28205986
[05]  G19  1  7  -2843.9 2046004.5  0.1  0.0  1  0         2
[06]  G17  f 40  -1646.4 2046002.1  1.0  1.0  5  0  28205981
[07]  G18  f 40   2179.5 2045997.2  1.0  1.0  5  0  28205984
[08]  G22  f 39  -1725.9 2046002.2  1.0  0.9  5  0  28205977
[10]  G30  f 45    481.9 2045999.4  1.0  1.0  5  0  28205987
[16]  B01 1f 40   -282.2 4092000.8  0.9  0.0  2  0  28191931
[17]  B02 1f 39   -327.3 4092000.8  0.9  0.0  2  0  28191932
[18]  B03 1f 42   -300.3 4092000.8  1.0  0.0  2  0  28191934
[19]  B04 1f 40   -297.2 4092000.8  0.9  0.0  2  0  28191925
[20]  B07 1f 43   -347.5 4092000.9  1.0  1.0  5  0  28191935
[21]  B24 1f 45   1249.2 4091996.7  1.0  1.0  5  0  28191982
[22]  B10 1f 43   -696.0 4092001.8  1.0  1.0  5  0  28191936
[23]  B11 1f 43  -1465.9 4092003.9  1.0  1.0  5  0  28191980
[24]  B12 1f 42   1864.8 4091995.1  1.0  1.0  5  0  28191978
[25]  B13 1f 42  -1075.0 4092002.8  1.0  1.0  5  0  28191932
$GNGGA,000000.000,,,,,0,00,,,M,,,,0000*2B
$GNRMC,000000.000,A,,,,,,,000000,,*26
$GPGSA,A,1,,,,,,,,,,,,,,,*1E
$BDGSA,A,1,,,,,,,,,,,,,,,*0F
$GPGSV,3,1,09,01,00,000,43,03,00,000,37,07,00,000,43,08,00,000,34*7C
$GPGSV,3,2,09,11,00,000,43,17,00,000,40,18,00,000,40,22,00,000,39*73
$GPGSV,3,3,09,30,00,000,45*42
$BDGSV,3,1,10,01,00,000,40,02,00,000,39,03,00,000,42,04,00,000,40*63
$BDGSV,3,2,10,07,00,000,43,24,00,000,45,10,00,000,43,11,00,000,43*6E
$BDGSV,3,3,10,12,00,000,42,13,00,000,42*68
$LOGTIM,0,0.000000,0.000000,0.000000,0.000000,0.000*0A
---00000035--- Acq_st=3 2019-4-28 07:49:49 
[00]  G01  f 43    545.0 2045999.3  1.0  1.0  5  0  28206988
[01]  G03  f 37  -2714.9 2046003.5  1.0  0.9  5  0  28206976
[02]  G07  f 42   2488.8 2045996.8  1.0  1.0  5  0  28206985
[03]  G08  f 34   2238.7 2045997.0  1.0  0.9  5  0  28206976
[04]  G11  f 42   1558.5 2045998.0  1.0  1.0  5  0  28206986
[05]  G19  1 19  -2800.6 2046004.8  0.0  0.0  1  0        10
[06]  G17  f 39  -1644.5 2046002.1  1.0  1.0  5  0  28206981
[07]  G18  f 39   2181.9 2045997.1  1.0  1.0  5  0  28206984
[08]  G22  f 39  -1724.1 2046002.2  1.0  1.0  5  0  28206977
[09]  G28  1 20  -2067.6 2046004.4  0.0  0.0  1  0        19
[10]  G30  f 43    484.6 2045999.4  1.0  1.0  5  0  28206987
[16]  B01 1f 39   -281.5 4092000.8  0.9  0.0  2  0  28192931
[17]  B02 1f 40   -326.4 4092000.8  0.9  0.0  2  0  28192932
[18]  B03 1f 42   -299.6 4092000.8  1.0  0.0  2  0  28192934
[19]  B04 1f 40   -296.1 4092000.8  0.9  0.0  2  0  28192925
[20]  B07 1f 43   -346.6 4092000.9  1.0  1.0  5  0  28192935
[21]  B24 1f 44   1251.0 4091996.7  1.0  1.0  5  0  28192982
[22]  B10 1f 43   -695.1 4092001.8  1.0  1.0  5  0  28192936
[23]  B11 1f 42  -1464.4 4092003.8  1.0  1.0  5  0  28192980
[24]  B12 1f 41   1866.1 4091995.1  1.0  1.0  5  0  28192978
[25]  B13 1f 42  -1074.1 4092002.8  1.0  1.0  5  0  28192932
$GNGGA,000000.000,,,,,0,00,,,M,,,,0000*2B
$GNRMC,000000.000,A,,,,,,,000000,,*26
$GPGSA,A,1,,,,,,,,,,,,,,,*1E
$BDGSA,A,1,,,,,,,,,,,,,,,*0F
$GPGSV,3,1,09,01,00,000,43,03,00,000,37,07,00,000,42,08,00,000,34*7D
$GPGSV,3,2,09,11,00,000,42,17,00,000,39,18,00,000,39,22,00,000,39*72
$GPGSV,3,3,09,30,00,000,43*44
$BDGSV,3,1,10,01,00,000,39,02,00,000,40,03,00,000,42,04,00,000,40*63
$BDGSV,3,2,10,07,00,000,43,24,00,000,44,10,00,000,43,11,00,000,42*6E
$BDGSV,3,3,10,12,00,000,41,13,00,000,42*6B
$LOGTIM,0,0.000000,0.000000,0.000000,0.000000,0.000*0A
---00000036--- Acq_st=3 2019-4-28 07:49:50 
[00]  G01  f 42    543.7 2045999.3  1.0  1.0  5  0  28207988
[01]  G03  f 38  -2716.5 2046003.5  0.9  0.9  5  0  28207976
[02]  G07  f 42   2487.1 2045996.8  1.0  1.0  5  0  28207985
[03]  G08  f 34   2237.4 2045997.1  1.0  1.0  5  0  28207976
[04]  G11  f 42   1556.7 2045998.0  1.0  1.0  5  0  28207986
[05]  G19  7 26  -2825.7 2046003.6 -0.2  0.9 20  0        10
[06]  G17  f 39  -1646.1 2046002.1  1.0  1.0  5  0  28207981
[07]  G18  f 40   2180.4 2045997.2  1.0  1.0  5  0  28207984
[08]  G22  f 38  -1725.6 2046002.2  1.0  1.0  5  0  28207977
[09]  G28  7 24  -2079.6 2046002.6  0.2  0.0 20  0         0
[10]  G30  f 43    482.9 2045999.4  1.0  1.0  5  0  28207987
[16]  B01 1f 40   -283.1 4092000.6  0.9  0.0  2  0  28193931
[17]  B02 1f 39   -328.0 4092000.8  0.9  0.0  2  0  28193932
[18]  B03 1f 43   -301.1 4092000.8  0.9  0.0  2  0  28193934
[19]  B04 1f 40   -298.1 4092000.8  0.9  0.0  2  0  28193925
[20]  B07 1f 43   -347.7 4092000.9  1.0  1.0  5  0  28193935
[21]  B24 1f 44   1249.7 4091996.7  1.0  1.0  5  0  28193982
[22]  B10 1f 43   -696.6 4092001.8  1.0  1.0  5  0  28193936
[23]  B11 1f 42  -1465.4 4092003.8  1.0  1.0  5  0  28193980
[24]  B12 1f 41   1864.6 4091995.1  1.0  1.0  5  0  28193978
[25]  B13 1f 42  -1075.7 4092002.8  1.0  1.0  5  0  28193932
[26]  B05  1 33   -335.1 4092002.2  0.5  0.0  1  0      2930
[27]  B08  1  7   -378.8 4092002.6 -0.1  0.0  1  0         0
$GNGGA,000000.000,,,,,0,00,,,M,,,,0000*2B
$GNRMC,000000.000,A,,,,,,,000000,,*26
$GPGSA,A,1,,,,,,,,,,,,,,,*1E
$BDGSA,A,1,,,,,,,,,,,,,,,*0F
$GPGSV,3,1,11,01,00,000,42,03,00,000,38,07,00,000,42,08,00,000,34*7A
$GPGSV,3,2,11,11,00,000,42,19,00,000,26,17,00,000,39,18,00,000,40*73
$GPGSV,3,3,11,22,00,000,38,28,00,000,24,30,00,000,43*4A
$BDGSV,3,1,10,01,00,000,40,02,00,000,39,03,00,000,43,04,00,000,40*62
$BDGSV,3,2,10,07,00,000,43,24,00,000,44,10,00,000,43,11,00,000,42*6E
$BDGSV,3,3,10,12,00,000,41,13,00,000,42*6B
$LOGTIM,0,0.000000,0.000000,0.000000,0.000000,0.000*0A
---00000037--- Acq_st=3 2019-4-28 07:49:51 
[00]  G01  f 44    542.8 2045999.3  1.0  1.0  5  0  28208988
[01]  G03  f 38  -2717.8 2046003.5  1.0  1.0  5  0  28208976
[02]  G07  f 44   2486.3 2045996.8  1.0  1.0  5  0  28208985
[03]  G08  f 35   2234.8 2045997.2  1.0  0.9  5  0  28208976
[04]  G11  f 43   1556.3 2045998.0  1.0  1.0  5  0  28208986
[05]  G19  7 32  -2826.2 2046003.6  1.0  0.9  5  0        15
[06]  G17  f 40  -1647.5 2046002.2  1.0  1.0  5  0  28208981
[07]  G18  f 41   2179.6 2045997.2  1.0  1.0  5  0  28208984
[08]  G22  f 39  -1726.4 2046002.3  1.0  1.0  5  0  28208977
[09]  G28  7 43  -2081.4 2046002.7  0.8  1.0  5  0         3
[10]  G30  f 45    482.3 2045999.4  1.0  1.0  5  0  28208987
[16]  B01 1f 41   -284.2 4092000.8  1.0  0.0  2  0  28194931
[17]  B02 1f 40   -329.5 4092000.8  0.9  0.0  2  0  28194932
[18]  B03 1f 41   -302.5 4092000.8  1.0  0.0  2  0  28194934
[19]  B04 1f 39   -299.2 4092000.7  0.9  0.0  2  0  28194925
[20]  B07 1f 43   -349.2 4092000.9  1.0  1.0  5  0  28194935
[21]  B24 1f 46   1249.0 4091996.7  1.0  1.0  5  0  28194982
[22]  B10 1f 43   -697.9 4092001.8  1.0  1.0  5  0  28194936
[23]  B11 1f 43  -1466.6 4092003.8  1.0  1.0  5  0  28194980
[24]  B12 1f 42   1863.4 4091995.1  1.0  1.0  5  0  28194978
[25]  B13 1f 43  -1076.4 4092002.8  1.0  1.0  5  0  28194932
[26]  B05  7 37   -336.9 4092001.0  0.9  0.0  2  0       931
[27]  B08  7 10   -570.7 4092001.5  0.3  0.0 20  0       427
$GNGGA,000000.000,,,,,0,00,,,M,,,,0000*2B
$GNRMC,000000.000,A,,,,,,,000000,,*26
$GPGSA,A,1,,,,,,,,,,,,,,,*1E
$BDGSA,A,1,,,,,,,,,,,,,,,*0F
$GPGSV,3,1,11,01,00,000,44,03,00,000,38,07,00,000,44,08,00,000,35*7B
$GPGSV,3,2,11,11,00,000,43,19,00,000,32,17,00,000,40,18,00,000,41*78
$GPGSV,3,3,11,22,00,000,39,28,00,000,43,30,00,000,45*4C
$BDGSV,3,1,11,01,00,000,41,02,00,000,40,03,00,000,41,04,00,000,39*60
$BDGSV,3,2,11,07,00,000,43,24,00,000,46,10,00,000,43,11,00,000,43*6C
$BDGSV,3,3,11,12,00,000,42,13,00,000,43,05,00,000,37*59
$LOGTIM,0,0.000000,0.000000,0.000000,0.000000,0.000*0A
---00000038--- Acq_st=3 2019-4-28 07:49:52 
[00]  G01  f 48    541.2 2045999.3  1.0  1.0  5  0  28209988
[01]  G03  f 38  -2720.4 2046003.6  1.0  1.0  5  0  28209976
[02]  G07  f 46   2484.2 2045996.8  1.0  1.0  5  0  28209985
[03]  G08  f 35   2233.0 2045997.1  1.0  1.0  5  0  28209976
[04]  G11  f 45   1553.7 2045998.0  1.0  1.0  5  0  28209986
[05]  G19  7 32  -2829.0 2046003.7  1.0  0.9  5  0        15
[06]  G17  f 42  -1650.0 2046002.2  1.0  1.0  5  0  28209981
[07]  G18  f 43   2177.4 2045997.2  1.0  1.0  5  0  28209984
[08]  G22  f 40  -1729.2 2046002.2  1.0  1.0  5  0  28209977
[09]  G28  7 45  -2084.1 2046002.7  1.0  1.0  5  0         3
[10]  G30  f 48    480.3 2045999.4  1.0  1.0  5  0  28209987
[16]  B01 1f 41   -287.1 4092000.6  1.0  0.0  2  0  28195931
[17]  B02 1f 39   -332.1 4092000.9  0.9  0.0  2  0  28195932
[18]  B03 1f 42   -305.2 4092000.8  1.0  0.0  2  0  28195934
[19]  B04 1f 38   -301.8 4092000.7  0.9  0.0  2  0  28195925
[20]  B07 1f 44   -351.9 4092000.9  1.0  1.0  5  0  28195935
[21]  B24 1f 47   1246.6 4091996.7  1.0  1.0  5  0  28195982
[22]  B10 1f 44   -700.5 4092001.8  1.0  1.0  5  0  28195936
[23]  B11 1f 44  -1468.9 4092003.8  1.0  1.0  5  0  28195980
[24]  B12 1f 43   1860.7 4091995.1  1.0  1.0  5  0  28195978
[25]  B13 1f 43  -1079.2 4092002.8  1.0  1.0  5  0  28195932
[26]  B05  f 36   -339.4 4092000.9  0.9  0.0  2  0       126
[27]  B08  7 43   -574.5 4092001.5  0.4  1.0  5  0      1416
$GNGGA,000000.000,,,,,0,00,,,M,,,,0000*2B
$GNRMC,000000.000,A,,,,,,,000000,,*26
$GPGSA,A,1,,,,,,,,,,,,,,,*1E
$BDGSA,A,1,,,,,,,,,,,,,,,*0F
$GPGSV,3,1,11,01,00,000,48,03,00,000,38,07,00,000,46,08,00,000,35*75
$GPGSV,3,2,11,11,00,000,45,19,00,000,32,17,00,000,42,18,00,000,43*7E
$GPGSV,3,3,11,22,00,000,40,28,00,000,45,30,00,000,48*49
$BDGSV,3,1,12,01,00,000,41,02,00,000,39,03,00,000,42,04,00,000,38*6F
$BDGSV,3,2,12,07,00,000,44,24,00,000,47,10,00,000,44,11,00,000,44*69
$BDGSV,3,3,12,12,00,000,43,13,00,000,43,05,00,000,36,08,00,000,43*65
$LOGTIM,0,0.000000,0.000000,0.000000,0.000000,0.000*0A
---00000039--- Acq_st=3 2019-4-28 07:49:53 
[00]  G01  f 46    541.1 2045999.3  1.0  1.0  5  0  28210988
[01]  G03  f 37  -2720.9 2046003.5  1.0  1.0  5  0  28210976
[02]  G07  f 45   2483.9 2045996.8  1.0  1.0  5  0  28210985
[03]  G08  f 34   2232.1 2045997.1  1.0  0.9  5  0  28210976
[04]  G11  f 45   1553.5 2045998.0  1.0  1.0  5  0  28210986
[05]  G19  7 31  -2828.9 2046003.6  1.0  0.9  5  0        15
[06]  G17  f 42  -1650.2 2046002.2  1.0  1.0  5  0  28210981
[07]  G18  f 42   2177.2 2045997.2  1.0  1.0  5  0  28210984
[08]  G22  f 40  -1729.4 2046002.3  1.0  1.0  5  0  28210977
[09]  G28  7 44  -2084.5 2046002.7  1.0  1.0  5  0         3
[10]  G30  f 47    480.4 2045999.4  1.0  1.0  5  0  28210987
[16]  B01 1f 39   -288.0 4092000.7  1.0  0.0  2  0  28196931
[17]  B02 1f 39   -332.6 4092001.0  0.9  0.0  2  0  28196932
[18]  B03 1f 42   -306.0 4092000.8  1.0  0.0  2  0  28196934
[19]  B04 1f 40   -302.5 4092000.8  0.9  0.0  2  0  28196925
[20]  B07 1f 43   -352.6 4092000.9  1.0  1.0  5  0  28196935
[21]  B24 1f 47   1246.5 4091996.7  1.0  1.0  5  0  28196982
[22]  B10 1f 44   -701.3 4092001.9  1.0  1.0  5  0  28196936
[23]  B11 1f 43  -1469.6 4092003.8  1.0  1.0  5  0  28196980
[24]  B12 1f 42   1859.7 4091995.1  1.0  1.0  5  0  28196978
[25]  B13 1f 43  -1080.1 4092002.8  1.0  1.0  5  0  28196932
[26]  B05 1f 36   -340.5 4092001.0  0.9  0.0  2  0  28197526
[27]  B08  7 43   -575.1 4092001.5  1.0  1.0  5  0      2416
$GNGGA,000000.000,,,,,0,00,,,M,,,,0000*2B
$GNRMC,000000.000,A,,,,,,,000000,,*26
$GPGSA,A,1,,,,,,,,,,,,,,,*1E
$BDGSA,A,1,,,,,,,,,,,,,,,*0F
$GPGSV,3,1,11,01,00,000,46,03,00,000,37,07,00,000,45,08,00,000,34*76
$GPGSV,3,2,11,11,00,000,45,19,00,000,31,17,00,000,42,18,00,000,42*7C
$GPGSV,3,3,11,22,00,000,40,28,00,000,44,30,00,000,47*47
$BDGSV,3,1,12,01,00,000,39,02,00,000,39,03,00,000,42,04,00,000,40*6F
$BDGSV,3,2,12,07,00,000,43,24,00,000,47,10,00,000,44,11,00,000,43*69
$BDGSV,3,3,12,12,00,000,42,13,00,000,43,05,00,000,36,08,00,000,43*64
$LOGTIM,0,0.000000,0.000000,0.000000,0.000000,0.000*0A
---00000040--- Acq_st=3 2019-4-28 07:49:54 
[00]  G01  f 48    542.6 2045999.3  1.0  1.0  5  0  28211988
[01]  G03  f 38  -2719.8 2046003.5  1.0  1.0  5  0  28211976
[02]  G07  f 46   2485.1 2045996.8  1.0  1.0  5  0  28211985
[03]  G08  f 34   2231.6 2045997.1  1.0  1.0  5  0  28211976
[04]  G11  f 46   1554.8 2045998.0  1.0  1.0  5  0  28211986
[05]  G19  7 32  -2828.9 2046003.5  1.0  0.9  5  0        15
[06]  G17  f 42  -1649.1 2046002.2  1.0  1.0  5  0  28211981
[07]  G18  f 42   2178.7 2045997.2  1.0  1.0  5  0  28211984
[08]  G22  f 40  -1728.2 2046002.3  1.0  1.0  5  0  28211977
[09]  G28  7 45  -2083.7 2046002.7  1.0  1.0  5  0         3
[10]  G30  f 48    481.8 2045999.4  1.0  1.0  5  0  28211987
[16]  B01 1f 41   -287.0 4092000.8  1.0  0.0  2  0  28197931
[17]  B02 1f 39   -332.3 4092000.9  1.0  0.0  2  0  28197932
[18]  B03 1f 43   -305.0 4092000.7  1.0  0.0  2  0  28197934
[19]  B04 1f 39   -301.7 4092000.8  0.9  0.0  2  0  28197925
[20]  B07 1f 44   -351.4 4092000.9  1.0  1.0  5  0  28197935
[21]  B24 1f 47   1247.6 4091996.7  1.0  1.0  5  0  28197982
[22]  B10 1f 44   -700.5 4092001.8  1.0  1.0  5  0  28197936
[23]  B11 1f 44  -1468.0 4092003.8  1.0  1.0  5  0  28197980
[24]  B12 1f 42   1860.8 4091995.1  1.0  1.0  5  0  28197978
[25]  B13 1f 43  -1078.6 4092002.8  1.0  1.0  5  0  28197932
[26]  B05 1f 36   -339.5 4092000.8  0.9  0.0  2  0  28197926
[27]  B08  7 43   -574.3 4092001.5  1.0  1.0  5  0      3416
[28]  B23  1  7  -4984.9 4092013.2 -0.0  0.0  1  0         0
[29]  B25  1  7  -1879.3 4092006.5 -0.0  0.0  1  0         0
[30]  B26  1  7   2940.5 4091993.3  0.1  0.0  1  0         0
$GNGGA,000000.000,,,,,0,00,,,M,,,,0000*2B
$GNRMC,000000.000,A,,,,,,,000000,,*26
$GPGSA,A,1,,,,,,,,,,,,,,,*1E
$BDGSA,A,1,,,,,,,,,,,,,,,*0F
$GPGSV,3,1,11,01,00,000,48,03,00,000,38,07,00,000,46,08,00,000,34*74
$GPGSV,3,2,11,11,00,000,46,19,00,000,32,17,00,000,42,18,00,000,42*7C
$GPGSV,3,3,11,22,00,000,40,28,00,000,45,30,00,000,48*49
$BDGSV,3,1,12,01,00,000,41,02,00,000,39,03,00,000,43,04,00,000,39*6F
$BDGSV,3,2,12,07,00,000,44,24,00,000,47,10,00,000,44,11,00,000,44*69
$BDGSV,3,3,12,12,00,000,42,13,00,000,43,05,00,000,36,08,00,000,43*64
$LOGTIM,0,0.000000,0.000000,0.000000,0.000000,0.000*0A
---00000041--- Acq_st=3 2019-4-28 07:49:55 
[00]  G01  f 47    544.8 2045999.3  1.0  1.0  5  0  28212988
[01]  G03  f 37  -2718.2 2046003.6  1.0  1.0  5  0  28212976
[02]  G07  f 45   2487.2 2045996.8  1.0  1.0  5  0  28212984
[03]  G08  f 34   2234.6 2045997.1  1.0  1.0  5  0  28212976
[04]  G11  f 45   1556.7 2045997.9  1.0  1.0  5  0  28212986
[05]  G19  f 31  -2827.0 2046003.6  1.0  1.0  5  0        15
[06]  G17  f 42  -1647.0 2046002.1  1.0  1.0  5  0  28212981
[07]  G18  f 42   2180.7 2045997.2  1.0  1.0  5  0  28212984
[08]  G22  f 40  -1726.6 2046002.2  1.0  1.0  5  0  28212977
[09]  G28  f 44  -2081.9 2046002.7  1.0  1.0  5  0         3
[10]  G30  f 47    483.9 2045999.4  1.0  1.0  5  0  28212987
[16]  B01 1f 40   -285.7 4092000.8  1.0  0.0  2  0  28198931
[17]  B02 1f 39   -330.2 4092000.9  0.9  0.0  2  0  28198932
[18]  B03 1f 42   -303.6 4092000.8  1.0  0.0  2  0  28198934
[19]  B04 1f 38   -300.3 4092000.9  0.9  0.0  2  0  28198925
[20]  B07 1f 43   -349.5 4092000.9  1.0  1.0  5  0  28198935
[21]  B24 1f 47   1249.7 4091996.7  1.0  1.0  5  0  28198982
[22]  B10 1f 43   -698.4 4092001.8  1.0  1.0  5  0  28198936
[23]  B11 1f 44  -1466.2 4092003.8  1.0  1.0  5  0  28198980
[24]  B12 1f 42   1862.4 4091995.1  1.0  1.0  5  0  28198978
[25]  B13 1f 43  -1077.0 4092002.8  1.0  1.0  5  0  28198932
[26]  B05 1f 37   -337.8 4092000.8  0.9  0.0  2  0  28198926
[27]  B08  7 42   -572.1 4092001.5  1.0  1.0  5  0      4416
[28]  B23  1  7  -4940.7 4092013.2  0.0  0.0  1  0       740
[29]  B25  7 22  -1896.6 4092004.9  0.2  0.0 20  0       571
[30]  B26  7  7   2920.0 4091992.3  0.3  0.0 20  0       402
$GNGGA,000000.000,,,,,0,00,,,M,,,,0000*2B
$GNRMC,000000.000,A,,,,,,,000000,,*26
$GPGSA,A,1,,,,,,,,,,,,,,,*1E
$BDGSA,A,1,,,,,,,,,,,,,,,*0F
$GPGSV,3,1,11,01,00,000,47,03,00,000,37,07,00,000,45,08,00,000,34*77
$GPGSV,3,2,11,11,00,000,45,19,00,000,31,17,00,000,42,18,00,000,42*7C
$GPGSV,3,3,11,22,00,000,40,28,00,000,44,30,00,000,47*47
$BDGSV,3,1,12,01,00,000,40,02,00,000,39,03,00,000,42,04,00,000,38*6E
$BDGSV,3,2,12,07,00,000,43,24,00,000,47,10,00,000,43,11,00,000,44*69
$BDGSV,3,3,12,12,00,000,42,13,00,000,43,05,00,000,37,08,00,000,42*64
$LOGTIM,0,0.000000,0.000000,0.000000,0.000000,0.000*0A
---00000042--- Acq_st=7 2019-4-28 07:49:56 
[00]  G01  f 47    545.4 2045999.3  1.0  1.0  5  0  28213988
[01]  G03  f 37  -2718.2 2046003.5  1.0  1.0  5  0  28213976
[02]  G07  f 46   2487.6 2045996.8  1.0  1.0  5  0  28213984
[03]  G08  f 34   2233.6 2045997.0  1.0  0.9  5  0  28213976
[04]  G11  f 46   1557.1 2045998.0  1.0  1.0  5  0  28213986
[05]  G19  f 32  -2826.1 2046003.6  1.0  0.9  5  0  28213975
[06]  G17  f 42  -1647.4 2046002.1  1.0  1.0  5  0  28213981
[07]  G18  f 42   2181.2 2045997.2  1.0  1.0  5  0  28213984
[08]  G22  f 40  -1726.0 2046002.3  1.0  1.0  5  0  28213977
[09]  G28  f 45  -2082.3 2046002.7  1.0  1.0  5  0  28213983
[10]  G30  f 48    484.6 2045999.4  1.0  1.0  5  0  28213987
[16]  B01 1f 41   -285.5 4092000.7  1.0  0.0  2  0  28199931
[17]  B02 1f 39   -330.1 4092000.9  0.9  0.0  2  0  28199932
[18]  B03 1f 43   -303.8 4092000.8  1.0  0.0  2  0  28199934
[19]  B04 1f 39   -300.3 4092001.0  0.9  0.0  2  0  28199925
[20]  B07 1f 44   -349.7 4092000.9  1.0  1.0  5  0  28199935
[21]  B24 1f 47   1250.1 4091996.7  1.0  1.0  5  0  28199982
[22]  B10 1f 44   -698.8 4092001.8  1.0  1.0  5  0  28199936
[23]  B11 1f 43  -1466.1 4092003.8  1.0  1.0  5  0  28199980
[24]  B12 1f 42   1862.5 4091995.1  1.0  1.0  5  0  28199978
[25]  B13 1f 43  -1077.3 4092002.8  1.0  1.0  5  0  28199932
[26]  B05 1f 36   -338.6 4092000.6  0.9  0.0  2  0  28199926
[27]  B08  7 42   -572.6 4092001.5  1.0  1.0  5  0      5416
[28]  B23  1  7  -4881.5 4092013.1  0.1  0.0  1  0      1740
[29]  B25  7 46  -1895.9 4092004.9  0.8  1.0  5  0      1560
[30]  B26  7 39   2920.3 4091992.3  0.9  1.0  5  0      1391
$GNGGA,000000.000,,,,,0,00,,,M,,,,0000*2B
$GNRMC,000000.000,A,,,,,,,000000,,*26
$GPGSA,A,1,,,,,,,,,,,,,,,*1E
$BDGSA,A,1,,,,,,,,,,,,,,,*0F
$GPGSV,3,1,11,01,00,000,47,03,00,000,37,07,00,000,46,08,00,000,34*74
$GPGSV,3,2,11,11,00,000,46,19,00,000,32,17,00,000,42,18,00,000,42*7C
$GPGSV,3,3,11,22,00,000,40,28,00,000,45,30,00,000,48*49
$BDGSV,3,1,12,01,00,000,41,02,00,000,39,03,00,000,42,04,00,000,39*6E
$BDGSV,3,2,12,07,00,000,44,24,00,000,47,10,00,000,44,11,00,000,43*6E
$BDGSV,3,3,12,12,00,000,42,13,00,000,43,05,00,000,36,08,00,000,42*65
$LOGTIM,0,0.000000,0.000000,0.000000,0.000000,0.000*0A
---00000043--- Acq_st=7 2019-4-28 07:49:57 
[00]  G01  f 47    547.9 2045999.3  1.0  1.0  5  0  28214988
[01]  G03  f 37  -2716.3 2046003.5  1.0  1.0  5  0  28214976
[02]  G07  f 46   2489.7 2045996.8  1.0  1.0  5  0  28214984
[03]  G08  f 35   2235.5 2045997.1  1.0  0.9  5  0  28214976
[04]  G11  f 45   1559.2 2045998.0  1.0  1.0  5  0  28214986
[05]  G19  f 31  -2823.9 2046003.6  1.0  0.9  5  0  28214975
[06]  G17  f 41  -1645.3 2046002.2  1.0  1.0  5  0  28214981
[07]  G18  f 42   2183.2 2045997.2  1.0  1.0  5  0  28214984
[08]  G22  f 40  -1724.0 2046002.3  1.0  1.0  5  0  28214977
[09]  G28  f 45  -2080.2 2046002.7  1.0  1.0  5  0  28214983
[10]  G30  f 48    487.0 2045999.4  1.0  1.0  5  0  28214987
[16]  B01 1f 41   -283.9 4092001.0  1.0  0.0  2  0  28200931
[17]  B02 1f 38   -329.2 4092000.9  0.9  0.0  2  0  28200932
[18]  B03 1f 42   -301.9 4092000.7  1.0  0.0  2  0  28200934
[19]  B04 1f 39   -299.0 4092000.7  0.9  0.0  2  0  28200925
[20]  B07 1f 43   -348.0 4092000.9  1.0  1.0  5  0  28200935
[21]  B24 1f 47   1252.0 4091996.7  1.0  1.0  5  0  28200982
[22]  B10 1f 44   -697.3 4092001.8  1.0  1.0  5  0  28200936
[23]  B11 1f 43  -1464.3 4092003.8  1.0  1.0  5  0  28200980
[24]  B12 1f 42   1864.1 4091995.1  1.0  1.0  5  0  28200978
[25]  B13 1f 43  -1075.2 4092002.8  1.0  1.0  5  0  28200932
[26]  B05 1f 37   -336.6 4092000.8  0.9  0.0  2  0  28200926
[27]  B08 1f 43   -570.0 4092001.5  1.0  1.0  5  0      6416
[29]  B25 1f 46  -1894.1 4092004.9  1.0  1.0  5  0      2560
[30]  B26 1f 40   2922.3 4091992.3  1.0  1.0  5  0      2391
$GNGGA,000000.000,,,,,0,00,,,M,,,,0000*2B
$GNRMC,000000.000,A,,,,,,,000000,,*26
$GPGSA,A,1,,,,,,,,,,,,,,,*1E
$BDGSA,A,1,,,,,,,,,,,,,,,*0F
$GPGSV,3,1,11,01,00,000,47,03,00,000,37,07,00,000,46,08,00,000,35*75
$GPGSV,3,2,11,11,00,000,45,19,00,000,31,17,00,000,41,18,00,000,42*7F
$GPGSV,3,3,11,22,00,000,40,28,00,000,45,30,00,000,48*49
$BDGSV,3,1,12,01,00,000,41,02,00,000,38,03,00,000,42,04,00,000,39*6F
$BDGSV,3,2,12,07,00,000,43,24,00,000,47,10,00,000,44,11,00,000,43*69
$BDGSV,3,3,12,12,00,000,42,13,00,000,43,05,00,000,37,08,00,000,43*65
$LOGTIM,0,0.000000,0.000000,0.000000,0.000000,0.000*0A
---00000044--- Acq_st=3 2019-4-28 07:49:58 
[00]  G01  f 47    547.3 2045999.3  1.0  1.0  5  0  28215988
[01]  G03  f 38  -2718.1 2046003.5  1.0  1.0  5  0  28215976
[02]  G07  f 46   2488.7 2045996.8  1.0  1.0  5  0  28215984
[03]  G08  f 35   2234.0 2045997.1  1.0  0.9  5  0  28215976
[04]  G11  f 45   1558.2 2045998.0  1.0  1.0  5  0  28215986
[05]  G19  f 32  -2826.0 2046003.7  1.0  0.9  5  0  28215975
[06]  G17  f 41  -1646.5 2046002.2  1.0  1.0  5  0  28215981
[07]  G18  f 42   2182.4 2045997.2  1.0  1.0  5  0  28215984
[08]  G22  f 39  -1725.2 2046002.3  1.0  1.0  5  0  28215977
[09]  G28  f 44  -2081.7 2046002.7  1.0  1.0  5  0  28215983
[10]  G30  f 47    486.2 2045999.4  1.0  1.0  5  0  28215987
[16]  B01 1f 40   -285.1 4092000.8  0.9  0.0  2  0  28201931
[17]  B02 1f 38   -330.4 4092001.0  0.9  0.0  2  0  28201932
[18]  B03 1f 42   -303.1 4092000.8  1.0  0.0  2  0  28201934
[19]  B04 1f 39   -299.8 4092000.8  1.0  0.0  2  0  28201925
[20]  B07 1f 44   -349.4 4092000.9  1.0  1.0  5  0  28201935
[21]  B24 1f 47   1251.5 4091996.7  1.0  1.0  5  0  28201982
[22]  B10 1f 44   -698.4 4092001.8  1.0  1.0  5  0  28201936
[23]  B11 1f 44  -1465.1 4092003.8  1.0  1.0  5  0  28201980
[24]  B12 1f 42   1863.3 4091995.1  1.0  1.0  5  0  28201978
[25]  B13 1f 42  -1076.5 4092002.8  1.0  1.0  5  0  28201932
[26]  B05 1f 37   -336.9 4092000.9  0.9  0.0  2  0  28201926
[27]  B08 1f 43   -571.5 4092001.5  1.0  1.0  5  0  28201936
[29]  B25 1f 45  -1894.6 4092004.9  1.0  1.0  5  0  28201980
[30]  B26 1f 40   2921.1 4091992.3  1.0  1.0  5  0  28201971
$GNGGA,000000.000,,,,,0,00,,,M,,,,0000*2B
$GNRMC,000000.000,A,,,,,,,000000,,*26
$GPGSA,A,1,,,,,,,,,,,,,,,*1E
$BDGSA,A,1,,,,,,,,,,,,,,,*0F
$GPGSV,3,1,11,01,00,000,47,03,00,000,38,07,00,000,46,08,00,000,35*7A
$GPGSV,3,2,11,11,00,000,45,19,00,000,32,17,00,000,41,18,00,000,42*7C
$GPGSV,3,3,11,22,00,000,39,28,00,000,44,30,00,000,47*49
$BDGSV,3,1,12,01,00,000,40,02,00,000,38,03,00,000,42,04,00,000,39*6E
$BDGSV,3,2,12,07,00,000,44,24,00,000,47,10,00,000,44,11,00,000,44*69
$BDGSV,3,3,12,12,00,000,42,13,00,000,42,05,00,000,37,08,00,000,43*64
$LOGTIM,0,0.000000,0.000000,0.000000,0.000000,0.000*0A
---00000045--- Acq_st=3 2019-4-28 07:49:59 
[00]  G01  f 47    547.4 2045999.3  1.0  1.0  5  0  28216988
[01]  G03  f 38  -2718.2 2046003.5  1.0  1.0  5  0  28216976
[02]  G07  f 46   2488.7 2045996.8  1.0  1.0  5  0  28216984
[03]  G08  f 34   2233.6 2045997.1  1.0  1.0  5  0  28216976
[04]  G11  f 45   1558.3 2045998.0  1.0  1.0  5  0  28216986
[05]  G19  f 32  -2826.4 2046003.7  1.0  1.0  5  0  28216975
[06]  G17  f 41  -1646.4 2046002.1  1.0  1.0  5  0  28216981
[07]  G18  f 42   2182.5 2045997.2  1.0  1.0  5  0  28216984
[08]  G22  f 39  -1725.5 2046002.2  1.0  1.0  5  0  28216977
[09]  G28  f 44  -2081.9 2046002.7  1.0  1.0  5  0  28216983
[10]  G30  f 48    486.4 2045999.4  1.0  1.0  5  0  28216987
[11]  G13  1 17    305.0 2046000.4  0.1  0.0  1  0         0
[12]  G15  1  7   2526.6 2045997.0  0.1  0.0  1  0         0
[16]  B01 1f 40   -285.7 4092000.8  1.0  0.0  2  0  28202931
[17]  B02 1f 39   -330.7 4092000.7  0.9  0.0  2  0  28202932
[18]  B03 1f 42   -303.7 4092000.8  1.0  0.0  2  0  28202934
[19]  B04 1f 39   -300.5 4092000.9  0.9  0.0  2  0  28202925
[20]  B07 1f 44   -349.6 4092000.9  1.0  1.0  5  0  28202935
[21]  B24 1f 47   1251.2 4091996.7  1.0  1.0  5  0  28202982
[22]  B10 1f 44   -698.7 4092001.8  1.0  1.0  5  0  28202936
[23]  B11 1f 44  -1465.5 4092003.9  1.0  1.0  5  0  28202980
[24]  B12 1f 42   1862.2 4091995.1  1.0  1.0  5  0  28202978
[25]  B13 1f 43  -1076.9 4092002.8  1.0  1.0  5  0  28202932
[26]  B05 1f 36   -338.0 4092000.9  0.9  0.0  2  0  28202926
[27]  B08 1f 43   -571.7 4092001.5  1.0  1.0  5  0  28202936
[29]  B25 1f 46  -1894.8 4092005.0  1.0  1.0  5  0  28202980
[30]  B26 1f 40   2920.7 4091992.3  1.0  1.0  5  0  28202971
$GNGGA,000000.000,,,,,0,00,,,M,,,,0000*2B
$GNRMC,000000.000,A,,,,,,,000000,,*26
$GPGSA,A,1,,,,,,,,,,,,,,,*1E
$BDGSA,A,1,,,,,,,,,,,,,,,*0F
$GPGSV,3,1,11,01,00,000,47,03,00,000,38,07,00,000,46,08,00,000,34*7B
$GPGSV,3,2,11,11,00,000,45,19,00,000,32,17,00,000,41,18,00,000,42*7C
$GPGSV,3,3,11,22,00,000,39,28,00,000,44,30,00,000,48*46
$BDGSV,3,1,12,01,00,000,40,02,00,000,39,03,00,000,42,04,00,000,39*6F
$BDGSV,3,2,12,07,00,000,44,24,00,000,47,10,00,000,44,11,00,000,44*69
$BDGSV,3,3,12,12,00,000,42,13,00,000,43,05,00,000,37,08,00,000,43*65
$LOGTIM,0,0.000000,0.000000,0.000000,0.000000,0.000*0A
---00000046--- Acq_st=3 2019-4-28 07:50:0 
[00]  G01  f 47    552.1 2045999.3  1.0  1.0  5  0  28217988
[01]  G03  f 38  -2714.3 2046003.5  1.0  1.0  5  0  28217976
[02]  G07  f 45   2493.3 2045996.8  1.0  1.0  5  0  28217984
[03]  G08  f 36   2237.4 2045997.1  1.0  1.0  5  0  28217976
[04]  G11  f 45   1562.9 2045998.0  1.0  1.0  5  0  28217986
[05]  G19  f 32  -2822.8 2046003.6  1.0  0.9  5  0  28217975
[06]  G17  f 41  -1642.2 2046002.1  1.0  1.0  5  0  28217981
[07]  G18  f 42   2187.2 2045997.1  1.0  1.0  5  0  28217984
[08]  G22  f 39  -1721.1 2046002.3  1.0  1.0  5  0  28217977
[09]  G28  f 44  -2077.8 2046002.7  1.0  1.0  5  0  28217983
[10]  G30  f 47    491.1 2045999.3  1.0  1.0  5  0  28217987
[11]  G13  7 12    339.3 2045999.4 -0.0  0.0 20  0         4
[12]  G15  1 18   2608.5 2045996.7  0.0  0.0  1  0         6
