FlashID=0x1 0x20 0x18
BBram_blkflag1: 4faa: b055
FW Ver: 1.30  
GPS00 Init Dop:   5000, 40
GPS01 Init Dop:   5000, 40
GPS02 Init Dop:   5000, 40
GPS03 Init Dop:   5000, 40
GPS04 Init Dop:   5000, 40
GPS05 Init Dop:   5000, 40
GPS06 Init Dop:   5000, 40
GPS07 Init Dop:   5000, 40
GPS08 Init Dop:   5000, 40
GPS09 Init Dop:   5000, 40
GPS10 Init Dop:   5000, 40
GPS11 Init Dop:   5000, 40
GPS12 Init Dop:   5000, 40
GPS13 Init Dop:   5000, 40
GPS14 Init Dop:   5000, 40
GPS15 Init Dop:   5000, 40
GPS16 Init Dop:   5000, 40
GPS17 Init Dop:   5000, 40
GPS18 Init Dop:   5000, 40
GPS19 Init Dop:   5000, 40
GPS20 Init Dop:   5000, 40
GPS21 Init Dop:   5000, 40
GPS22 Init Dop:   5000, 40
GPS23 Init Dop:   5000, 40
GPS24 Init Dop:   5000, 40
GPS25 Init Dop:   5000, 40
GPS26 Init Dop:   5000, 40
GPS27 Init Dop:   5000, 40
GPS28 Init Dop:   5000, 40
GPS29 Init Dop:   5000, 40
GPS30 Init Dop:   5000, 40
GPS31 Init Dop:   5000, 40
BDS00 Init Dop:   5000, 40
BDS01 Init Dop:   5000, 40
BDS02 Init Dop:   5000, 40
BDS03 Init Dop:   5000, 40
BDS04 Init Dop:   5000, 40
BDS05 Init Dop:   5000, 40
BDS06 Init Dop:   5000, 40
BDS07 Init Dop:   5000, 40
BDS08 Init Dop:   5000, 40
BDS09 Init Dop:   5000, 40
BDS10 Init Dop:   5000, 40
BDS11 Init Dop:   5000, 40
BDS12 Init Dop:   5000, 40
BDS13 Init Dop:   5000, 40
BDS14 Init Dop:   5000, 40
BDS15 Init Dop:   5000, 40
BDS16 Init Dop:   5000, 40
BDS17 Init Dop:   5000, 40
BDS18 Init Dop:   5000, 40
BDS19 Init Dop:   5000, 40
BDS20 Init Dop:   5000, 40
BDS21 Init Dop:   5000, 40
BDS22 Init Dop:   5000, 40
BDS23 Init Dop:   5000, 40
BDS24 Init Dop:   5000, 40
BDS25 Init Dop:   5000, 40
BDS26 Init Dop:   5000, 40
BDS27 Init Dop:   5000, 40
BDS28 Init Dop:   5000, 40
BDS29 Init Dop:   5000, 40
BDS30 Init Dop:   5000, 40
BDS31 Init Dop:   5000, 40
good luck!
ch0 satid=1 freq = -1500 acq ok1!
acq ok1 timeH = 0,timeL = 23624648,time_stage = 4
ch1 satid=3 freq = 3250 acq ok1!
acq ok1 timeH = 0,timeL = 26616473,time_stage = 1
ch2 satid=6 freq = 3500 acq ok1!
acq ok1 timeH = 0,timeL = 33003734,time_stage = 1
---00000001--- Acq_st=3 2019-5-20 01:58:17 
[00]  G02  1  7   1420.6 2045999.6 -0.0  0.0  1  0         0
[01]  G04  1 13  -3173.6 2046006.3  0.1  0.0  1  0         0
[02]  G07  1 15  -3482.1 2046005.3 -0.0  0.0  1  0         0
ch3 satid=8 freq = 2250 acq ok1!
acq ok1 timeH = 0,timeL = 37684305,time_stage = 2
$GNGGA,000000.000,,,,,0,00,,,M,,,,0000*2B
$GNRMC,000000.000,A,,,,,,,000000,,*26
$GPGSA,A,1,,,,,,,,,,,,,,,*1E
$BDGSA,A,1,,,,,,,,,,,,,,,*0F
$LOGTIM,0,0.000000,0.000000,0.000000,0.000000,0.000*0A
EndT:        0
ch4 satid=15 freq = -500 acq ok1!
acq ok1 timeH = 0,timeL = 53009908,time_stage = 3
---00000002--- Acq_st=3 2019-5-20 01:58:18 
[00]  G02  1  9   1432.6 2045999.6 -0.0  0.0  1  0        10
[01]  G04  7 24  -3153.3 2046004.0  0.2  0.0 20  0         8
[02]  G07  1 31  -3469.7 2046004.5 -0.0  0.0  1  0        16
[03]  G09  1 28  -2332.7 2046003.5 -0.1  0.0  1  0         0
[04]  G16  1  7    547.1 2046001.7  0.0  0.0  1  0         0
$GNGGA,000000.000,,,,,0,00,,,M,,,,0000*2B
$GNRMC,000000.000,A,,,,,,,000000,,*26
$GPGSA,A,1,,,,,,,,,,,,,,,*1E
$BDGSA,A,1,,,,,,,,,,,,,,,*0F
$GPGSV,1,1,01,04,00,000,24*4A
$LOGTIM,0,0.000000,0.000000,0.000000,0.000000,0.000*0A
EndT:        1
ch5 satid=20 freq = -500 acq ok1!
acq ok1 timeH = 0,timeL = 63655361,time_stage = 3
ch6 satid=22 freq = 500 acq ok1!
acq ok1 timeH = 0,timeL = 67913544,time_stage = 3
ch7 satid=25 freq = -1500 acq ok1!
acq ok1 timeH = 0,timeL = 74722780,time_stage = 4
---00000003--- Acq_st=3 2019-5-20 01:58:19 
[00]  G02  1  7   1278.2 2045999.6  0.1  0.0  1  0        10
[01]  G04  7 40  -3154.0 2046004.0  0.9  1.0  5  0         6
[02]  G07  7 36  -3470.6 2046004.5  0.9  1.0  5  0        16
[03]  G09  7 32  -2331.4 2046003.0  0.6  1.0  5  0        14
[04]  G16  1 33    592.2 2045999.1  0.2  0.0  1  0        17
[05]  G21  1 23    406.5 2046000.3  0.0  0.0  1  0         0
[06]  G23  1 13   -582.9 2046001.0  0.1  0.0  1  0         0
[07]  G26  1  7   1580.2 2046000.2 -0.0  0.0  1  0         0
$GNGGA,000000.000,,,,,0,00,,,M,,,,0000*2B
$GNRMC,000000.000,A,,,,,,,000000,,*26
$GPGSA,A,1,,,,,,,,,,,,,,,*1E
$BDGSA,A,1,,,,,,,,,,,,,,,*0F
$GPGSV,1,1,03,04,00,000,40,07,00,000,36,09,00,000,32*40
$LOGTIM,0,0.000000,0.000000,0.000000,0.000000,0.000*0A
EndT:        0
BDS satid:37,max_value:1801,max_phase:2006,max_freq:5000,i:0
BDS satid:37,max_value:2490,max_phase:3690,max_freq:5000,i:0
BDS satid:37,max_value:3216,max_phase:3372,max_freq:4500,i:2
BDS satid:37,max_value:4110,max_phase:2936,max_freq:4250,i:3
BDS satid:37,max_value:4551,max_phase:2900,max_freq:3500,i:6
ch16 satid=37 freq = 3500 acq ok1!
acq ok1 timeH = 0,timeL = 88696142,time_stage = 1
BDS satid:38,max_value:2257,max_phase:67,max_freq:5000,i:0
BDS satid:38,max_value:3349,max_phase:2370,max_freq:4500,i:2
BDS satid:38,max_value:3391,max_phase:3377,max_freq:2500,i:10
BDS satid:38,max_value:3625,max_phase:3320,max_freq:2250,i:11
BDS satid:38,max_value:3705,max_phase:3840,max_freq:1250,i:15
BDS satid:38,max_value:4006,max_phase:3506,max_freq:500,i:18
BDS satid:38,max_value:4400,max_phase:3981,max_freq:250,i:19
BDS satid:38,max_value:5007,max_phase:2815,max_freq:-500,i:22
BDS satid:38,max_value:5039,max_phase:2403,max_freq:-750,i:23
BDS satid:38,max_value:5046,max_phase:3973,max_freq:-3500,i:34
BDS satid:38,max_value:5196,max_phase:3973,max_freq:-3750,i:35
ch17 satid=38 freq = -3750 acq ok1!
acq ok1 timeH = 0,timeL = 94095585,time_stage = 5
---00000004--- Acq_st=3 2019-5-20 01:58:20 
[01]  G04  f 40  -3152.3 2046004.1  1.0  1.0  5  0         6
[02]  G07  7 42  -3469.7 2046004.5  1.0  1.0  5  0         3
[03]  G09  7 48  -2329.6 2046003.0  1.0  1.0  5  0        11
[04]  G16  7 37    593.8 2045999.2  0.9  1.0  5  0        17
[05]  G21  7 24    395.6 2045999.4  0.3  0.0 20  0         3
[06]  G23  7 19   -602.2 2046000.8  0.2  0.0 20  0         1
[07]  G26  1 26   1429.1 2045998.7  0.2  0.0  1  0         9
[16]  B01  1 10  -3670.4 4092009.6 -0.1  0.0  1  0         0
[17]  B02  1 10   3836.9 4091990.3 -0.0  0.0  1  0         0
$GNGGA,000000.000,,,,,0,00,,,M,,,,0000*2B
$GNRMC,000000.000,A,,,,,,,000000,,*26
$GPGSA,A,1,,,,,,,,,,,,,,,*1E
$BDGSA,A,1,,,,,,,,,,,,,,,*0F
$GPGSV,2,1,06,04,00,000,40,07,00,000,42,09,00,000,48,16,00,000,37*7B
$GPGSV,2,2,06,21,00,000,24,23,00,000,19*73
$LOGTIM,0,0.000000,0.000000,0.000000,0.000000,0.000*0A
EndT:        0
BDS satid:39,max_value:2351,max_phase:1855,max_freq:5000,i:0
BDS satid:39,max_value:2391,max_phase:3561,max_freq:5000,i:0
BDS satid:39,max_value:2678,max_phase:1935,max_freq:4750,i:1
BDS satid:39,max_value:2871,max_phase:649,max_freq:4500,i:2
BDS satid:39,max_value:4248,max_phase:2695,max_freq:4500,i:2
BDS satid:39,max_value:4262,max_phase:3815,max_freq:2500,i:10
BDS satid:39,max_value:4384,max_phase:3914,max_freq:1250,i:15
BDS satid:39,max_value:4836,max_phase:2122,max_freq:500,i:18
ch18 satid=39 freq = 500 acq ok1!
acq ok1 timeH = 0,timeL = 96013678,time_stage = 3
BDS satid:40,max_value:2500,max_phase:1252,max_freq:5000,i:0
BDS satid:40,max_value:3237,max_phase:2102,max_freq:4500,i:2
BDS satid:40,max_value:3509,max_phase:3458,max_freq:4250,i:3
BDS satid:40,max_value:3770,max_phase:2334,max_freq:2500,i:10
BDS satid:40,max_value:3806,max_phase:2627,max_freq:2250,i:11
BDS satid:40,max_value:4272,max_phase:2443,max_freq:-1500,i:26
BDS satid:40,max_value:4743,max_phase:2747,max_freq:-1750,i:27
ch19 satid=40 freq = -1750 acq ok1!
acq ok1 timeH = 0,timeL = 99830692,time_stage = 4
BDS satid:41,max_value:2002,max_phase:864,max_freq:5000,i:0
BDS satid:41,max_value:2474,max_phase:2346,max_freq:5000,i:0
BDS satid:41,max_value:2727,max_phase:1083,max_freq:4750,i:1
BDS satid:41,max_value:3896,max_phase:2154,max_freq:4500,i:2
BDS satid:41,max_value:4157,max_phase:2852,max_freq:3750,i:5
BDS satid:41,max_value:4600,max_phase:2810,max_freq:3250,i:7
BDS satid:41,max_value:4686,max_phase:3382,max_freq:3000,i:8
BDS satid:41,max_value:4736,max_phase:1336,max_freq:2750,i:9
BDS satid:41,max_value:6948,max_phase:3387,max_freq:2500,i:10
BDS satid:41,max_value:7577,max_phase:3387,max_freq:2250,i:11
ch20 satid=41 freq = 2250 acq ok1!
acq ok1 timeH = 0,timeL = 101748790,time_stage = 2
BDS satid:42,max_value:2490,max_phase:811,max_freq:5000,i:0
BDS satid:42,max_value:2607,max_phase:1619,max_freq:4750,i:1
BDS satid:42,max_value:3568,max_phase:3016,max_freq:4500,i:2
BDS satid:42,max_value:3657,max_phase:2125,max_freq:4250,i:3
BDS satid:42,max_value:4590,max_phase:2449,max_freq:2500,i:10
BDS satid:42,max_value:5052,max_phase:2749,max_freq:2250,i:11
ch21 satid=42 freq = 2250 acq ok1!
acq ok1 timeH = 0,timeL = 104932834,time_stage = 2
BDS satid:43,max_value:2250,max_phase:785,max_freq:5000,i:0
BDS satid:43,max_value:3373,max_phase:4001,max_freq:4500,i:2
BDS satid:43,max_value:3537,max_phase:4001,max_freq:4250,i:3
BDS satid:43,max_value:3571,max_phase:3936,max_freq:1500,i:14
BDS satid:43,max_value:4364,max_phase:682,max_freq:1000,i:16
BDS satid:43,max_value:4793,max_phase:682,max_freq:750,i:17
BDS satid:43,max_value:4926,max_phase:682,max_freq:500,i:18
BDS satid:43,max_value:5931,max_phase:2728,max_freq:500,i:18
ch22 satid=43 freq = 500 acq ok1!
acq ok1 timeH = 0,timeL = 108749852,time_stage = 3
BDS satid:44,max_value:2206,max_phase:1167,max_freq:5000,i:0
BDS satid:44,max_value:3145,max_phase:3658,max_freq:4500,i:2
BDS satid:44,max_value:3207,max_phase:2976,max_freq:4250,i:3
BDS satid:44,max_value:3448,max_phase:3380,max_freq:3500,i:6
BDS satid:44,max_value:3687,max_phase:2055,max_freq:3250,i:7
BDS satid:44,max_value:3693,max_phase:3491,max_freq:1250,i:15
BDS satid:44,max_value:3796,max_phase:3512,max_freq:500,i:18
BDS satid:44,max_value:4034,max_phase:2837,max_freq:-500,i:22
BDS satid:44,max_value:4530,max_phase:3088,max_freq:-750,i:23
BDS satid:44,max_value:5103,max_phase:3167,max_freq:-1500,i:26
BDS satid:44,max_value:5162,max_phase:3712,max_freq:-1750,i:27
BDS satid:44,max_value:5316,max_phase:3249,max_freq:-2500,i:30
ch23 satid=44 freq = -2500 acq ok1!
acq ok1 timeH = 0,timeL = 112883353,time_stage = 4
---00000005--- Acq_st=3 2019-5-20 01:58:21 
[01]  G04  f 40  -3149.6 2046004.0  1.0  1.0  5  0  93518046
[02]  G07  7 42  -3466.8 2046004.5  1.0  1.0  5  0         3
[03]  G09  7 48  -2326.4 2046003.0  1.0  1.0  5  0        11
[04]  G16  7 44    596.7 2045999.2  1.0  1.0  5  0        19
[05]  G21  7 36    398.5 2045999.4  0.8  0.9  5  0         7
[06]  G23  7 46   -598.4 2046000.8  0.8  1.0  5  0        16
[07]  G26  7 31   1428.7 2045998.0  0.2  1.0  5  0         9
[16]  B01  1 23  -3709.3 4092009.7 -0.0  0.0  1  0       276
[17]  B02  1 10   3854.4 4091990.7 -0.0  0.0  1  0       110
[18]  B03  1 26   -559.2 4092001.3 -0.0  0.0  1  0         0
[19]  B04  1 25   1438.0 4091995.5  0.1  0.0  1  0         0
[20]  B05  1 27  -2552.5 4092004.8 -0.1  0.0  1  0         0
[21]  B06  1  7  -2063.6 4092005.3  0.1  0.0  1  0         0
[22]  B07  1  7   -502.7 4092000.6 -0.0  0.0  1  0         0
[23]  B08  1  7   2554.1 4091993.8 -0.0  0.0  1  0         0
$GNGGA,000000.000,,,,,0,00,,,M,,,,0000*2B
$GNRMC,000000.000,A,,,,,,,000000,,*26
$GPGSA,A,1,,,,,,,,,,,,,,,*1E
$BDGSA,A,1,,,,,,,,,,,,,,,*0F
$GPGSV,2,1,07,04,00,000,40,07,00,000,42,09,00,000,48,16,00,000,44*7E
$GPGSV,2,2,07,21,00,000,36,23,00,000,46,26,00,000,31*4D
$LOGTIM,0,0.000000,0.000000,0.000000,0.000000,0.000*0A
EndT:        0
BDS satid:45,max_value:2104,max_phase:671,max_freq:5000,i:0
BDS satid:45,max_value:2452,max_phase:3662,max_freq:5000,i:0
BDS satid:45,max_value:2558,max_phase:150,max_freq:4750,i:1
BDS satid:45,max_value:2779,max_phase:3748,max_freq:4750,i:1
BDS satid:45,max_value:3595,max_phase:3007,max_freq:4500,i:2
BDS satid:45,max_value:4078,max_phase:3007,max_freq:4250,i:3
BDS satid:45,max_value:4524,max_phase:2695,max_freq:3500,i:6
BDS satid:45,max_value:4720,max_phase:3470,max_freq:3250,i:7
ch24 satid=45 freq = 3250 acq ok1!
acq ok1 timeH = 0,timeL = 114168489,time_stage = 1
BDS satid:46,max_value:2523,max_phase:775,max_freq:5000,i:0
BDS satid:46,max_value:3814,max_phase:4010,max_freq:4500,i:2
BDS satid:46,max_value:4123,max_phase:2225,max_freq:1500,i:14
BDS satid:46,max_value:4374,max_phase:2612,max_freq:1250,i:15
BDS satid:46,max_value:4519,max_phase:2828,max_freq:-1500,i:26
ch25 satid=46 freq = -1500 acq ok1!
acq ok1 timeH = 0,timeL = 118934958,time_stage = 4
BDS satid:47,max_value:2065,max_phase:67,max_freq:5000,i:0
BDS satid:47,max_value:2380,max_phase:3302,max_freq:5000,i:0
BDS satid:47,max_value:2621,max_phase:24,max_freq:4750,i:1
BDS satid:47,max_value:3820,max_phase:2814,max_freq:4500,i:2
BDS satid:47,max_value:3967,max_phase:2750,max_freq:1500,i:14
BDS satid:47,max_value:4255,max_phase:2508,max_freq:1250,i:15
BDS satid:47,max_value:4616,max_phase:2631,max_freq:500,i:18
BDS satid:47,max_value:4659,max_phase:2631,max_freq:250,i:19
ch26 satid=47 freq = 250 acq ok1!
acq ok1 timeH = 0,timeL = 121486025,time_stage = 3
BDS satid:48,max_value:2325,max_phase:1070,max_freq:5000,i:0
BDS satid:48,max_value:2409,max_phase:2489,max_freq:5000,i:0
BDS satid:48,max_value:2680,max_phase:1959,max_freq:4750,i:1
BDS satid:48,max_value:2725,max_phase:2245,max_freq:4750,i:1
BDS satid:48,max_value:3764,max_phase:2543,max_freq:4500,i:2
BDS satid:48,max_value:4710,max_phase:3030,max_freq:3500,i:6
BDS satid:48,max_value:5008,max_phase:3614,max_freq:1500,i:14
ch27 satid=48 freq = 1500 acq ok1!
acq ok1 timeH = 0,timeL = 124353581,time_stage = 2
BDS satid:49,max_value:2669,max_phase:1941,max_freq:5000,i:0
BDS satid:49,max_value:3617,max_phase:2930,max_freq:5000,i:0
BDS satid:49,max_value:3682,max_phase:884,max_freq:4750,i:1
BDS satid:49,max_value:3753,max_phase:863,max_freq:4500,i:2
BDS satid:49,max_value:6150,max_phase:2378,max_freq:4500,i:2
ch28 satid=49 freq = 4500 acq ok1!
acq ok1 timeH = 0,timeL = 126587765,time_stage = 1
BDS satid:50,max_value:3933,max_phase:47,max_freq:5000,i:0
BDS satid:50,max_value:4278,max_phase:2329,max_freq:3500,i:6
BDS satid:50,max_value:4331,max_phase:3739,max_freq:3250,i:7
BDS satid:50,max_value:4363,max_phase:3954,max_freq:2500,i:10
BDS satid:50,max_value:4959,max_phase:2238,max_freq:2250,i:11
BDS satid:50,max_value:5310,max_phase:2129,max_freq:1500,i:14
ch29 satid=50 freq = 1500 acq ok1!
acq ok1 timeH = 0,timeL = 130721660,time_stage = 2
---00000006--- Acq_st=3 2019-5-20 01:58:22 
[01]  G04  f 41  -3149.3 2046004.1  1.0  1.0  5  0  93519046
[02]  G07  7 41  -3467.8 2046004.5  1.0  1.0  5  0         3
[03]  G09  7 47  -2326.5 2046003.0  1.0  1.0  5  0        11
[04]  G16  7 45    595.9 2045999.2  1.0  1.0  5  0        19
[05]  G21  7 35    398.5 2045999.4  1.0  0.9  5  0         7
[06]  G23  7 45   -598.6 2046000.8  1.0  1.0  5  0        16
[07]  G26  7 36   1427.8 2045998.0  1.0  1.0  5  0        16
[16]  B01  1 22  -3683.9 4092009.8 -0.0  0.0  1  0      1276
[17]  B02  1 10   3849.9 4091992.2 -0.2  0.0  1  0      1110
[18]  B03  1 23   -675.6 4092001.4  0.0  0.0  1  0       945
[19]  B04  1 26   1354.7 4091996.8 -0.0  0.0  1  0       779
[20]  B05  1 32  -2644.2 4092006.1 -0.1  0.0  1  0       613
[21]  B06  1  7  -2195.8 4092005.4 -0.2  0.0  1  0       447
[22]  B07  1  7   -583.2 4092001.4  0.1  0.0  1  0       281
[23]  B08  1  7   2359.2 4091993.9  0.0  0.0  1  0       115
[24]  B09  1  7  -3650.7 4092008.2  0.1  0.0  1  0         0
[25]  B10  1  7   1406.0 4091996.9 -0.0  0.0  1  0         0
[26]  B11  1  7   -261.6 4092000.3  0.1  0.0  1  0         0
[27]  B12  1  7  -1536.8 4092003.0 -0.1  0.0  1  0         0
[28]  B13  1  7  -4549.2 4092011.0 -0.0  0.0  1  0         0
[29]  B14  1  7  -1476.2 4092003.5  0.0  0.0  1  0         0
BDS satid:51,max_value:1971,max_phase:337,max_freq:5000,i:0
BDS satid:51,max_value:2179,max_phase:861,max_freq:4750,i:1
BDS satid:51,max_value:2536,max_phase:3989,max_freq:4750,i:1
BDS satid:51,max_value:2704,max_phase:3060,max_freq:4500,i:2
BDS satid:51,max_value:3094,max_phase:3989,max_freq:4250,i:3
BDS satid:51,max_value:3256,max_phase:3523,max_freq:4000,i:4
BDS satid:51,max_value:4624,max_phase:3271,max_freq:3500,i:6
BDS satid:51,max_value:5437,max_phase:3523,max_freq:3250,i:7
ch30 satid=51 freq = 3250 acq ok1!
acq ok1 timeH = 0,timeL = 133272750,time_stage = 1
$GNGGA,000000.000,,,,,0,00,,,M,,,,0000*2B
$GNRMC,000000.000,A,,,,,,,000000,,*26
$GPGSA,A,1,,,,,,,,,,,,,,,*1E
$BDGSA,A,1,,,,,,,,,,,,,,,*0F
$GPGSV,2,1,07,04,00,000,41,07,00,000,41,09,00,000,47,16,00,000,45*72
$GPGSV,2,2,07,21,00,000,35,23,00,000,45,26,00,000,36*4A
$LOGTIM,0,0.000000,0.000000,0.000000,0.000000,0.000*0A
EndT:        0
BDS satid:52,max_value:1738,max_phase:1323,max_freq:5000,i:0
BDS satid:52,max_value:2634,max_phase:2692,max_freq:5000,i:0
BDS satid:52,max_value:3044,max_phase:646,max_freq:4750,i:1
BDS satid:52,max_value:4054,max_phase:3151,max_freq:4500,i:2
BDS satid:52,max_value:5308,max_phase:3763,max_freq:3500,i:6
BDS satid:52,max_value:5394,max_phase:3893,max_freq:3250,i:7
ch31 satid=52 freq = 3250 acq ok1!
acq ok1 timeH = 0,timeL = 136456794,time_stage = 1
---00000007--- Acq_st=6 2019-5-20 01:58:23 
[01]  G04  f 40  -3150.5 2046004.1  1.0  1.0  5  0  93520046
[02]  G07  7 43  -3469.1 2046004.5  1.0  1.0  5  0         3
[03]  G09  7 47  -2327.2 2046003.0  1.0  1.0  5  0        11
[04]  G16  7 44    595.2 2045999.2  1.0  1.0  5  0        19
[05]  G21  7 36    398.2 2045999.5  1.0  1.0  5  0         7
[06]  G23  7 46   -599.3 2046000.8  1.0  1.0  5  0        16
[07]  G26  7 35   1427.4 2045998.1  1.0  1.0  5  0        16
[16]  B01  1 10  -3954.1 4092009.3 -0.1  0.0  1  0      2276
[17]  B02  1 10   3846.7 4091992.9  0.0  0.0  1  0      2110
[18]  B03  1 27   -625.9 4092001.5 -0.1  0.0  1  0      1945
[19]  B04  1 26   1361.3 4091997.0  0.1  0.0  1  0      1779
[20]  B05  1 31  -2627.8 4092005.1 -0.0  0.0  1  0      1613
[21]  B06  1  7  -2086.6 4092005.1 -0.2  0.0  1  0      1447
[22]  B07  1  7   -556.0 4092000.9  0.1  0.0  1  0      1281
[23]  B08  1  7   2342.6 4091994.2 -0.0  0.0  1  0      1115
[24]  B09  1  7  -3636.7 4092007.9  0.2  0.0  1  0       949
[25]  B10  1 12   1332.9 4091997.2  0.1  0.0  1  0       784
[26]  B11  1  7   -387.8 4091999.8  0.0  0.0  1  0       618
[27]  B12  1  7  -1427.5 4092002.6 -0.0  0.0  1  0       451
[28]  B13  1  7  -4652.2 4092011.0 -0.1  0.0  1  0       286
[29]  B14  1  7  -2132.7 4092003.0 -0.1  0.0  1  0       120
[30]  B15  1  7  -3650.2 4092008.2 -0.2  0.0  1  0         0
[31]  B16  1  7  -3593.6 4092007.8 -0.0  0.0  1  0         0
$GNGGA,000000.000,,,,,0,00,,,M,,,,0000*2B
$GNRMC,000000.000,A,,,,,,,000000,,*26
$GPGSA,A,1,,,,,,,,,,,,,,,*1E
$BDGSA,A,1,,,,,,,,,,,,,,,*0F
$GPGSV,2,1,07,04,00,000,40,07,00,000,43,09,00,000,47,16,00,000,44*70
$GPGSV,2,2,07,21,00,000,36,23,00,000,46,26,00,000,35*49
$LOGTIM,0,0.000000,0.000000,0.000000,0.000000,0.000*0A
EndT:        0
BDS satid:53,max_value:2386,max_phase:1051,max_freq:5000,i:0
BDS satid:53,max_value:3548,max_phase:3640,max_freq:4500,i:2
BDS satid:53,max_value:4186,max_phase:3371,max_freq:3250,i:7
BDS satid:53,max_value:4391,max_phase:4085,max_freq:2500,i:10
BDS satid:53,max_value:4808,max_phase:2618,max_freq:2250,i:11
ch16 satid=53 freq = 2250 acq ok1!
acq ok1 timeH = 0,timeL = 155628186,time_stage = 2
BDS satid:54,max_value:2233,max_phase:988,max_freq:5000,i:0
BDS satid:54,max_value:2496,max_phase:3373,max_freq:5000,i:0
BDS satid:54,max_value:2507,max_phase:1327,max_freq:4750,i:1
BDS satid:54,max_value:2846,max_phase:3050,max_freq:4750,i:1
BDS satid:54,max_value:3343,max_phase:2047,max_freq:4500,i:2
BDS satid:54,max_value:3567,max_phase:2307,max_freq:4250,i:3
BDS satid:54,max_value:4010,max_phase:2479,max_freq:3500,i:6
BDS satid:54,max_value:4141,max_phase:3560,max_freq:3250,i:7
BDS satid:54,max_value:4739,max_phase:2961,max_freq:1250,i:15
BDS satid:54,max_value:5000,max_phase:2238,max_freq:500,i:18
BDS satid:54,max_value:5527,max_phase:3559,max_freq:-4500,i:38
ch17 satid=54 freq = -4500 acq ok1!
acq ok1 timeH = 0,timeL = 161027614,time_stage = 5
BDS satid:55,max_value:2187,max_phase:334,max_freq:5000,i:0
BDS satid:55,max_value:2247,max_phase:1576,max_freq:4750,i:1
BDS satid:55,max_value:2318,max_phase:2412,max_freq:4750,i:1
BDS satid:55,max_value:3290,max_phase:3193,max_freq:4500,i:2
BDS satid:55,max_value:3482,max_phase:3769,max_freq:4250,i:3
BDS satid:55,max_value:3805,max_phase:3399,max_freq:3500,i:6
BDS satid:55,max_value:3845,max_phase:3112,max_freq:1500,i:14
BDS satid:55,max_value:3994,max_phase:3045,max_freq:-750,i:23
BDS satid:55,max_value:4052,max_phase:2974,max_freq:-1500,i:26
BDS satid:55,max_value:4656,max_phase:2571,max_freq:-1750,i:27
BDS satid:55,max_value:4736,max_phase:2577,max_freq:-2750,i:31
ch18 satid=55 freq = -2750 acq ok1!
acq ok1 timeH = 0,timeL = 163578690,time_stage = 4
BDS satid:56,max_value:2095,max_phase:1970,max_freq:5000,i:0
BDS satid:56,max_value:2160,max_phase:1090,max_freq:4500,i:2
BDS satid:56,max_value:3366,max_phase:3136,max_freq:4500,i:2
BDS satid:56,max_value:3784,max_phase:3911,max_freq:2500,i:10
BDS satid:56,max_value:4517,max_phase:2052,max_freq:2250,i:11
BDS satid:56,max_value:5452,max_phase:3279,max_freq:1500,i:14
ch19 satid=56 freq = 1500 acq ok1!
acq ok1 timeH = 0,timeL = 165496780,time_stage = 2
BDS satid:57,max_value:1862,max_phase:535,max_freq:5000,i:0
BDS satid:57,max_value:2120,max_phase:1246,max_freq:4750,i:1
BDS satid:57,max_value:2178,max_phase:2643,max_freq:4750,i:1
BDS satid:57,max_value:3188,max_phase:4014,max_freq:4500,i:2
BDS satid:57,max_value:3553,max_phase:3706,max_freq:1500,i:14
BDS satid:57,max_value:3739,max_phase:2458,max_freq:1250,i:15
BDS satid:57,max_value:3836,max_phase:2495,max_freq:-4500,i:38
BDS satid:57,max_value:3939,max_phase:3518,max_freq:-4750,i:39
ch20 satid=57 freq = -4750 acq ok1!
acq ok1 timeH = 0,timeL = 170579742,time_stage = 5
---00000008--- Acq_st=3 2019-5-20 01:58:24 
[01]  G04  f 40  -3150.4 2046004.1  1.0  1.0  5  0  93521046
[02]  G07  7 43  -3469.8 2046004.5  1.0  1.0  5  0         3
[03]  G09  7 47  -2327.0 2046003.0  1.0  1.0  5  0        11
[04]  G16  7 45    594.8 2045999.2  1.0  1.0  5  0        19
[05]  G21  7 36    398.0 2045999.5  1.0  0.9  5  0         7
[06]  G23  7 47   -599.0 2046000.8  1.0  1.0  5  0        16
[07]  G26  7 35   1426.8 2045998.1  1.0  1.0  5  0        16
[16]  B17  1  7  -2623.5 4092004.8  0.0  0.0  1  0      3276
[17]  B18  1  7   4228.5 4091989.0  0.2  0.0  1  0      3110
[18]  B19  1  7   2628.0 4091993.1  0.0  0.0  1  0      2945
[19]  B20  1  7  -1615.0 4092003.1 -0.0  0.0  1  0      2779
[20]  B21  1  7   4724.4 4091988.1  0.0  0.0  1  0      2613
[22]  B07  1  7   -785.1 4092001.3  0.1  0.0  1  0      2281
[23]  B08  1  7   2373.7 4091994.2 -0.0  0.0  1  0      2115
[24]  B09  1  7  -3667.2 4092008.1 -0.1  0.0  1  0      1949
[25]  B10  1  7   1308.2 4091997.0 -0.0  0.0  1  0      1784
[26]  B11  1  7   -358.7 4091999.7 -0.1  0.0  1  0      1618
[27]  B12  1  7  -1504.8 4092003.1  0.1  0.0  1  0      1451
[28]  B13  1  7  -4650.3 4092011.1  0.0  0.0  1  0      1286
[29]  B14  1  7  -2151.4 4092003.3 -0.0  0.0  1  0      1120
[30]  B15  1  7  -3666.1 4092008.2  0.1  0.0  1  0       955
[31]  B16  1  7  -3647.7 4092008.1 -0.1  0.0  1  0       789
BDS satid:58,max_value:2137,max_phase:2007,max_freq:5000,i:0
BDS satid:58,max_value:2200,max_phase:3617,max_freq:5000,i:0
BDS satid:58,max_value:2441,max_phase:1034,max_freq:4750,i:1
BDS satid:58,max_value:2739,max_phase:2751,max_freq:4750,i:1
BDS satid:58,max_value:3712,max_phase:3080,max_freq:4500,i:2
BDS satid:58,max_value:3981,max_phase:3696,max_freq:3500,i:6
BDS satid:58,max_value:4099,max_phase:3459,max_freq:500,i:18
ch21 satid=58 freq = 500 acq ok1!
acq ok1 timeH = 0,timeL = 172181353,time_stage = 3
$GNGGA,000000.000,,,,,0,00,,,M,,,,0000*2B
$GNRMC,000000.000,A,,,,,,,000000,,*26
$GPGSA,A,1,,,,,,,,,,,,,,,*1E
$BDGSA,A,1,,,,,,,,,,,,,,,*0F
$GPGSV,2,1,07,04,00,000,40,07,00,000,43,09,00,000,47,16,00,000,45*71
$GPGSV,2,2,07,21,00,000,36,23,00,000,47,26,00,000,35*48
$LOGTIM,0,0.000000,0.000000,0.000000,0.000000,0.000*0A
EndT:        0
BDS satid:59,max_value:2081,max_phase:1957,max_freq:5000,i:0
BDS satid:59,max_value:2587,max_phase:2812,max_freq:5000,i:0
BDS satid:59,max_value:3269,max_phase:1078,max_freq:4500,i:2
BDS satid:59,max_value:4753,max_phase:2812,max_freq:4500,i:2
BDS satid:59,max_value:5456,max_phase:2917,max_freq:1500,i:14
ch22 satid=59 freq = 1500 acq ok1!
acq ok1 timeH = 0,timeL = 175048918,time_stage = 2
BDS satid:60,max_value:2724,max_phase:639,max_freq:5000,i:0
BDS satid:60,max_value:2832,max_phase:2993,max_freq:5000,i:0
BDS satid:60,max_value:4590,max_phase:2408,max_freq:4500,i:2
BDS satid:60,max_value:4776,max_phase:2540,max_freq:4250,i:3
ch23 satid=60 freq = 4250 acq ok1!
acq ok1 timeH = 0,timeL = 177283098,time_stage = 1
BDS satid:61,max_value:3006,max_phase:1565,max_freq:5000,i:0
BDS satid:61,max_value:3299,max_phase:3229,max_freq:4500,i:2
BDS satid:61,max_value:3469,max_phase:3229,max_freq:4250,i:3
BDS satid:61,max_value:3581,max_phase:2248,max_freq:3500,i:6
BDS satid:61,max_value:3767,max_phase:3307,max_freq:-2500,i:30
BDS satid:61,max_value:3906,max_phase:2527,max_freq:-4750,i:39
ch24 satid=61 freq = -4750 acq ok1!
acq ok1 timeH = 0,timeL = 183315914,time_stage = 5
BDS satid:62,max_value:1858,max_phase:975,max_freq:5000,i:0
BDS satid:62,max_value:2045,max_phase:2849,max_freq:5000,i:0
BDS satid:62,max_value:2068,max_phase:1453,max_freq:4750,i:1
BDS satid:62,max_value:2309,max_phase:4087,max_freq:4750,i:1
BDS satid:62,max_value:3740,max_phase:2241,max_freq:4500,i:2
BDS satid:62,max_value:4130,max_phase:2247,max_freq:3500,i:6
BDS satid:62,max_value:4463,max_phase:2095,max_freq:3250,i:7
BDS satid:62,max_value:4823,max_phase:2690,max_freq:2500,i:10
ch25 satid=62 freq = 2500 acq ok1!
acq ok1 timeH = 0,timeL = 184284549,time_stage = 2
BDS satid:63,max_value:2414,max_phase:704,max_freq:5000,i:0
BDS satid:63,max_value:2557,max_phase:2646,max_freq:5000,i:0
BDS satid:63,max_value:4040,max_phase:3056,max_freq:4500,i:2
BDS satid:63,max_value:4050,max_phase:2644,max_freq:4250,i:3
BDS satid:63,max_value:4301,max_phase:2187,max_freq:3500,i:6
BDS satid:63,max_value:4839,max_phase:3030,max_freq:2500,i:10
ch26 satid=63 freq = 2500 acq ok1!
acq ok1 timeH = 0,timeL = 187468598,time_stage = 2
---00000009--- Acq_st=3 2019-5-20 01:58:25 
[01]  G04  f 40  -3149.7 2046004.1  1.0  1.0  5  0  93522046
[02]  G07  7 43  -3469.7 2046004.5  1.0  1.0  5  0         3
[03]  G09  7 47  -2326.4 2046003.0  1.0  1.0  5  0        11
[04]  G16  7 45    595.3 2045999.2  1.0  1.0  5  0        19
[05]  G21  7 36    398.8 2045999.5  1.0  1.0  5  0         7
[06]  G23  7 47   -598.2 2046000.8  1.0  1.0  5  0        16
[07]  G26  7 35   1427.6 2045998.0  1.0  1.0  5  0        16
[16]  B17  1  9  -2644.4 4092005.2 -0.0  0.0  1  0       807
[17]  B18  1  7   4403.5 4091989.3 -0.0  0.0  1  0       640
[18]  B19  1  7   2392.1 4091993.2  0.0  0.0  1  0       475
[19]  B20  1  7  -1832.3 4092003.3  0.2  0.0  1  0       309
[20]  B21  1  7   4838.7 4091988.0  0.0  0.0  1  0       143
[21]  B22  1  7   -769.4 4092000.7  0.1  0.0  1  0      2447
[22]  B23  1  7  -1288.7 4092002.8  0.0  0.0  1  0      3281
[23]  B24  1  7  -4671.8 4092011.2 -0.1  0.0  1  0      3115
[24]  B25  1  7   4611.8 4091988.5 -0.0  0.0  1  0      2949
[25]  B26  1  7  -2472.7 4092005.9 -0.0  0.0  1  0      2784
[26]  B27  1  7  -2553.7 4092006.1  0.0  0.0  1  0      2618
[28]  B13  1  7  -4637.4 4092011.4  0.1  0.0  1  0      2286
[29]  B14  1  7  -2160.3 4092003.1 -0.1  0.0  1  0      2120
[30]  B15  1  7  -3638.0 4092008.2 -0.1  0.0  1  0      1955
[31]  B16  1  7  -3704.7 4092008.1 -0.0  0.0  1  0      1789
BDS satid:64,max_value:2755,max_phase:540,max_freq:5000,i:0
BDS satid:64,max_value:4357,max_phase:2889,max_freq:4500,i:2
BDS satid:64,max_value:4457,max_phase:3441,max_freq:4250,i:3
BDS satid:64,max_value:4634,max_phase:4010,max_freq:1500,i:14
BDS satid:64,max_value:5739,max_phase:3663,max_freq:-3500,i:34
ch27 satid=64 freq = -3500 acq ok1!
acq ok1 timeH = 0,timeL = 192551554,time_stage = 5
$GNGGA,000000.000,,,,,0,00,,,M,,,,0000*2B
$GNRMC,000000.000,A,,,,,,,000000,,*26
$GPGSA,A,1,,,,,,,,,,,,,,,*1E
$BDGSA,A,1,,,,,,,,,,,,,,,*0F
$GPGSV,2,1,07,04,00,000,40,07,00,000,43,09,00,000,47,16,00,000,45*71
$GPGSV,2,2,07,21,00,000,36,23,00,000,47,26,00,000,35*48
$LOGTIM,0,0.000000,0.000000,0.000000,0.000000,0.000*0A
EndT:        0
BDS satid:65,max_value:2598,max_phase:490,max_freq:5000,i:0
BDS satid:65,max_value:3234,max_phase:3255,max_freq:4500,i:2
BDS satid:65,max_value:3397,max_phase:4051,max_freq:4250,i:3
BDS satid:65,max_value:3495,max_phase:2447,max_freq:3500,i:6
BDS satid:65,max_value:3695,max_phase:2452,max_freq:3250,i:7
BDS satid:65,max_value:5361,max_phase:2338,max_freq:500,i:18
BDS satid:65,max_value:6268,max_phase:2814,max_freq:250,i:19
ch28 satid=65 freq = 250 acq ok1!
acq ok1 timeH = 0,timeL = 194469654,time_stage = 3
BDS satid:66,max_value:2043,max_phase:496,max_freq:5000,i:0
BDS satid:66,max_value:2251,max_phase:2956,max_freq:5000,i:0
BDS satid:66,max_value:2369,max_phase:217,max_freq:4500,i:2
BDS satid:66,max_value:3938,max_phase:2907,max_freq:4500,i:2
BDS satid:66,max_value:4073,max_phase:3654,max_freq:2250,i:11
BDS satid:66,max_value:4511,max_phase:3823,max_freq:1500,i:14
BDS satid:66,max_value:5615,max_phase:2047,max_freq:750,i:17
BDS satid:66,max_value:8732,max_phase:132,max_freq:-1000,i:24
BDS satid:66,max_value:9959,max_phase:132,max_freq:-1500,i:26
BDS satid:66,max_value:11611,max_phase:2178,max_freq:-1500,i:26
ch29 satid=66 freq = -1500 acq ok1!
acq ok1 timeH = 0,timeL = 198286672,time_stage = 4
BDS satid:67,max_value:2530,max_phase:1271,max_freq:5000,i:0
BDS satid:67,max_value:4344,max_phase:2791,max_freq:4500,i:2
BDS satid:67,max_value:4540,max_phase:2145,max_freq:-4750,i:39
ch30 satid=67 freq = -4750 acq ok1!
acq ok1 timeH = 0,timeL = 202420173,time_stage = 5
BDS satid:68,max_value:2606,max_phase:1949,max_freq:5000,i:0
BDS satid:68,max_value:3212,max_phase:2663,max_freq:4500,i:2
BDS satid:68,max_value:3649,max_phase:3912,max_freq:4250,i:3
BDS satid:68,max_value:4134,max_phase:2566,max_freq:3500,i:6
BDS satid:68,max_value:5096,max_phase:3891,max_freq:3250,i:7
BDS satid:68,max_value:5325,max_phase:2700,max_freq:2500,i:10
ch31 satid=68 freq = 2500 acq ok1!
acq ok1 timeH = 0,timeL = 203388806,time_stage = 2
---00000010--- Acq_st=7 2019-5-20 01:58:26 
[01]  G04  f 40  -3146.7 2046004.1  1.0  1.0  5  0  93523046
[02]  G07  f 43  -3467.2 2046004.5  1.0  1.0  5  0         3
[03]  G09  f 48  -2323.2 2046003.0  1.0  1.0  5  0        11
[04]  G16  f 45    598.3 2045999.2  1.0  1.0  5  0        19
[05]  G21  f 35    402.5 2045999.4  1.0  1.0  5  0         7
[06]  G23  f 47   -595.1 2046000.8  1.0  1.0  5  0        16
[07]  G26  f 36   1430.0 2045998.2  1.0  1.0  5  0        16
[16]  B17  1  7  -2627.3 4092004.9  0.1  0.0  1  0      1807
[17]  B18  1  7   4377.0 4091989.2  0.2  0.0  1  0      1640
[18]  B19  1  7   2377.6 4091993.1  0.1  0.0  1  0      1475
[19]  B20  1  7  -1776.9 4092002.7  0.0  0.0  1  0      1309
[20]  B21  1  7   4779.1 4091987.8  0.2  0.0  1  0      1143
[21]  B22  1 11   -677.1 4092000.9  0.2  0.0  1  0       977
[22]  B23  1  8  -1120.3 4092002.9  0.1  0.0  1  0       811
[23]  B24  1  7  -4639.3 4092011.3  0.0  0.0  1  0       646
[24]  B25  1  7   4417.0 4091988.1 -0.2  0.0  1  0       480
[25]  B26  1  7  -2579.0 4092006.4  0.0  0.0  1  0       314
[26]  B27  1  9  -2656.2 4092006.2 -0.0  0.0  1  0       148
[27]  B28  1  7   3504.8 4091991.1  0.0  0.0  1  0      2451
[28]  B29  1  7   -636.5 4091999.7 -0.1  0.0  1  0      3286
[29]  B30  1  7   1243.2 4091996.7 -0.0  0.0  1  0      3120
[30]  B31  1  7   4648.0 4091988.1  0.1  0.0  1  0      2955
[31]  B32  1  7  -2521.0 4092005.9  0.1  0.0  1  0      2789
$GNGGA,000000.000,,,,,0,00,,,M,,,,0000*2B
$GNRMC,000000.000,A,,,,,,,000000,,*26
$GPGSA,A,1,,,,,,,,,,,,,,,*1E
$BDGSA,A,1,,,,,,,,,,,,,,,*0F
$GPGSV,2,1,07,04,00,000,40,07,00,000,43,09,00,000,48,16,00,000,45*7E
$GPGSV,2,2,07,21,00,000,35,23,00,000,47,26,00,000,36*48
$LOGTIM,0,0.000000,0.000000,0.000000,0.000000,0.000*0A
EndT:        0
---00000011--- Acq_st=4 2019-5-20 01:58:27 
[01]  G04  f 40  -3143.6 2046004.1  1.0  1.0  5  0  93524046
[02]  G07  f 43  -3463.8 2046004.5  1.0  1.0  5  0  93524043
[03]  G09  f 47  -2319.4 2046003.0  1.0  1.0  5  0  93524051
[04]  G16  f 45    601.6 2045999.2  1.0  1.0  5  0  93524059
[05]  G21  f 36    405.4 2045999.5  1.0  0.9  5  0  93524047
[06]  G23  f 47   -590.9 2046000.8  1.0  1.0  5  0  93524056
[07]  G26  f 35   1432.8 2045998.2  1.0  1.0  5  0  93524056
[19]  B20  1  7  -1752.3 4092003.2  0.1  0.0  1  0      2309
[20]  B21  1  7   4922.0 4091988.2 -0.1  0.0  1  0      2143
[21]  B22  1  7   -634.8 4092001.0  0.0  0.0  1  0      1977
[22]  B23  1  7  -1080.2 4092003.2 -0.1  0.0  1  0      1811
[23]  B24  1  8  -4673.8 4092010.8  0.1  0.0  1  0      1646
[24]  B25  1  7   4386.8 4091987.9  0.1  0.0  1  0      1480
[25]  B26  1  7  -2794.4 4092006.2  0.0  0.0  1  0      1314
[26]  B27  1 12  -2680.8 4092006.0  0.2  0.0  1  0      1148
[27]  B28  1  7   3446.7 4091991.1 -0.1  0.0  1  0       982
[28]  B29  1  7   -627.1 4091999.9  0.1  0.0  1  0       817
[29]  B30  1  7   1411.2 4091996.8 -0.1  0.0  1  0       651
[30]  B31  1 10   4359.2 4091988.4 -0.1  0.0  1  0       485
[31]  B32  1  7  -2614.0 4092006.2 -0.1  0.0  1  0       319
$GNGGA,000000.000,,,,,0,00,,,M,,,,0000*2B
$GNRMC,000000.000,A,,,,,,,000000,,*26
$GPGSA,A,1,,,,,,,,,,,,,,,*1E
$BDGSA,A,1,,,,,,,,,,,,,,,*0F
$GPGSV,2,1,07,04,00,000,40,07,00,000,43,09,00,000,47,16,00,000,45*71
$GPGSV,2,2,07,21,00,000,36,23,00,000,47,26,00,000,35*48
$LOGTIM,0,0.000000,0.000000,0.000000,0.000000,0.000*0A
EndT:        0
---00000012--- Acq_st=5 2019-5-20 01:58:28 
[01]  G04  f 40  -3142.1 2046004.1  1.0  1.0  5  0  93525046
[02]  G07  f 43  -3463.2 2046004.5  1.0  1.0  5  0  93525043
[03]  G09  f 47  -2318.2 2046003.0  1.0  1.0  5  0  93525051
[04]  G16  f 45    602.7 2045999.2  1.0  1.0  5  0  93525059
[05]  G21  f 35    406.2 2045999.4  1.0  0.9  5  0  93525047
[06]  G23  f 47   -589.6 2046000.8  1.0  1.0  5  0  93525056
[07]  G26  f 35   1433.6 2045998.1  1.0  1.0  5  0  93525056
[25]  B26  1  7  -2642.5 4092006.0 -0.2  0.0  1  0      2314
[26]  B27  1  8  -2609.3 4092005.8 -0.0  0.0  1  0      2148
[27]  B28  1  7   3367.8 4091990.9 -0.0  0.0  1  0      1982
[28]  B29  1  7   -637.7 4092000.3 -0.0  0.0  1  0      1817
[29]  B30  1  7   1402.6 4091997.0  0.1  0.0  1  0      1651
[30]  B31  1  7   4290.9 4091987.9 -0.2  0.0  1  0      1485
[31]  B32  1  7  -2632.9 4092006.5 -0.0  0.0  1  0      1319
$GNGGA,000000.000,,,,,0,00,,,M,,,,0000*2B
$GNRMC,000000.000,A,,,,,,,000000,,*26
$GPGSA,A,1,,,,,,,,,,,,,,,*1E
$BDGSA,A,1,,,,,,,,,,,,,,,*0F
$GPGSV,2,1,07,04,00,000,40,07,00,000,43,09,00,000,47,16,00,000,45*71
$GPGSV,2,2,07,21,00,000,35,23,00,000,47,26,00,000,35*4B
$LOGTIM,0,0.000000,0.000000,0.000000,0.000000,0.000*0A
EndT:        0
BDS satid:37,max_value:1947,max_phase:1321,max_freq:5000,i:0
BDS satid:37,max_value:2568,max_phase:3042,max_freq:5000,i:0
BDS satid:37,max_value:2738,max_phase:3042,max_freq:4750,i:1
BDS satid:37,max_value:3229,max_phase:3196,max_freq:4500,i:2
BDS satid:37,max_value:3953,max_phase:3148,max_freq:4250,i:3
BDS satid:37,max_value:4204,max_phase:2877,max_freq:3500,i:6
ch16 satid=37 freq = 3500 acq ok1!
acq ok1 timeH = 0,timeL = 265391337,time_stage = 1
---00000013--- Acq_st=3 2019-5-20 01:58:29 
[01]  G04  f 40  -3142.1 2046004.0  1.0  1.0  5  0  93526046
[02]  G07  f 42  -3464.1 2046004.5  1.0  1.0  5  0  93526043
[03]  G09  f 48  -2318.3 2046003.0  1.0  1.0  5  0  93526051
[04]  G16  f 45    602.3 2045999.2  1.0  1.0  5  0  93526059
[05]  G21  f 35    406.7 2045999.5  1.0  1.0  5  0  93526047
[06]  G23  f 47   -589.5 2046000.8  1.0  1.0  5  0  93526056
[07]  G26  f 35   1433.9 2045998.1  1.0  1.0  5  0  93526056
[16]  B01  1 10  -3458.1 4092008.3 -0.2  0.0  1  0      2807
[31]  B32  1  7  -2623.8 4092006.3  0.3  0.0  1  0      2319
$GNGGA,000000.000,,,,,0,00,,,M,,,,0000*2B
$GNRMC,000000.000,A,,,,,,,000000,,*26
$GPGSA,A,1,,,,,,,,,,,,,,,*1E
$BDGSA,A,1,,,,,,,,,,,,,,,*0F
$GPGSV,2,1,07,04,00,000,40,07,00,000,42,09,00,000,48,16,00,000,45*7F
$GPGSV,2,2,07,21,00,000,35,23,00,000,47,26,00,000,35*4B
$LOGTIM,0,0.000000,0.000000,0.000000,0.000000,0.000*0A
EndT:        0
BDS satid:38,max_value:2183,max_phase:1291,max_freq:5000,i:0
BDS satid:38,max_value:2248,max_phase:3041,max_freq:4750,i:1
BDS satid:38,max_value:3307,max_phase:3081,max_freq:4500,i:2
BDS satid:38,max_value:3461,max_phase:2879,max_freq:2250,i:11
BDS satid:38,max_value:4217,max_phase:3482,max_freq:500,i:18
BDS satid:38,max_value:4492,max_phase:2672,max_freq:250,i:19
BDS satid:38,max_value:5450,max_phase:3456,max_freq:-500,i:22
ch17 satid=38 freq = -500 acq ok1!
acq ok1 timeH = 0,timeL = 269841326,time_stage = 3
BDS satid:39,max_value:2125,max_phase:1313,max_freq:5000,i:0
BDS satid:39,max_value:2316,max_phase:3663,max_freq:5000,i:0
BDS satid:39,max_value:2424,max_phase:1977,max_freq:4500,i:2
BDS satid:39,max_value:3844,max_phase:4023,max_freq:4500,i:2
BDS satid:39,max_value:4203,max_phase:3337,max_freq:2250,i:11
BDS satid:39,max_value:4573,max_phase:3462,max_freq:250,i:19
ch18 satid=39 freq = 250 acq ok1!
acq ok1 timeH = 0,timeL = 272708873,time_stage = 3
BDS satid:40,max_value:2230,max_phase:1259,max_freq:5000,i:0
BDS satid:40,max_value:2418,max_phase:2437,max_freq:4750,i:1
BDS satid:40,max_value:2947,max_phase:3342,max_freq:4500,i:2
BDS satid:40,max_value:3429,max_phase:3784,max_freq:4250,i:3
BDS satid:40,max_value:3562,max_phase:2144,max_freq:2500,i:10
BDS satid:40,max_value:3868,max_phase:3433,max_freq:-750,i:23
BDS satid:40,max_value:4429,max_phase:3924,max_freq:-1750,i:27
BDS satid:40,max_value:4457,max_phase:2868,max_freq:-2500,i:30
ch19 satid=40 freq = -2500 acq ok1!
acq ok1 timeH = 0,timeL = 276842370,time_stage = 4
BDS satid:41,max_value:1881,max_phase:1136,max_freq:5000,i:0
BDS satid:41,max_value:3019,max_phase:3642,max_freq:5000,i:0
BDS satid:41,max_value:4055,max_phase:2535,max_freq:4500,i:2
BDS satid:41,max_value:4123,max_phase:2341,max_freq:4250,i:3
BDS satid:41,max_value:4202,max_phase:3564,max_freq:3500,i:6
BDS satid:41,max_value:5319,max_phase:3564,max_freq:3250,i:7
BDS satid:41,max_value:5765,max_phase:2147,max_freq:2500,i:10
BDS satid:41,max_value:6316,max_phase:3962,max_freq:2250,i:11
BDS satid:41,max_value:6620,max_phase:3287,max_freq:1500,i:14
ch20 satid=41 freq = 1500 acq ok1!
acq ok1 timeH = 0,timeL = 278760464,time_stage = 2
BDS satid:42,max_value:2414,max_phase:910,max_freq:5000,i:0
BDS satid:42,max_value:2498,max_phase:2560,max_freq:4750,i:1
BDS satid:42,max_value:3527,max_phase:2327,max_freq:4500,i:2
BDS satid:42,max_value:3584,max_phase:2560,max_freq:4250,i:3
BDS satid:42,max_value:3622,max_phase:3200,max_freq:3500,i:6
BDS satid:42,max_value:4269,max_phase:3399,max_freq:2500,i:10
BDS satid:42,max_value:5358,max_phase:2400,max_freq:2250,i:11
ch21 satid=42 freq = 2250 acq ok1!
acq ok1 timeH = 0,timeL = 281628020,time_stage = 2
BDS satid:43,max_value:2416,max_phase:990,max_freq:5000,i:0
BDS satid:43,max_value:3240,max_phase:3727,max_freq:4500,i:2
BDS satid:43,max_value:3242,max_phase:3841,max_freq:3500,i:6
BDS satid:43,max_value:3475,max_phase:4029,max_freq:3250,i:7
BDS satid:43,max_value:3755,max_phase:989,max_freq:1000,i:16
BDS satid:43,max_value:4553,max_phase:3035,max_freq:1000,i:16
BDS satid:43,max_value:5360,max_phase:989,max_freq:750,i:17
BDS satid:43,max_value:5590,max_phase:3035,max_freq:750,i:17
BDS satid:43,max_value:5757,max_phase:3035,max_freq:250,i:19
ch22 satid=43 freq = 250 acq ok1!
acq ok1 timeH = 0,timeL = 285445050,time_stage = 3
---00000014--- Acq_st=3 2019-5-20 01:58:30 
[01]  G04  f 39  -3143.7 2046004.1  1.0  1.0  5  0  93527046
[02]  G07  f 43  -3465.9 2046004.5  1.0  1.0  5  0  93527043
[03]  G09  f 47  -2319.7 2046003.0  1.0  1.0  5  0  93527051
[04]  G16  f 45    600.9 2045999.2  1.0  1.0  5  0  93527059
[05]  G21  f 34    405.1 2045999.5  1.0  0.9  5  0  93527047
[06]  G23  f 47   -590.7 2046000.8  1.0  1.0  5  0  93527056
[07]  G26  f 36   1431.0 2045998.2  1.0  1.0  5  0  93527056
[16]  B01  1 20  -3828.7 4092009.4 -0.1  0.0  1  0        73
[17]  B02  1 30    378.5 4091999.6 -0.1  0.0  1  0      2640
[18]  B03  1 10   -214.8 4091999.1  0.1  0.0  1  0      2475
[19]  B04  1 20   2551.4 4091994.4  0.1  0.0  1  0      2309
[20]  B05  1 21  -1391.9 4092003.0 -0.1  0.0  1  0      3143
[21]  B06  1  7  -2188.5 4092004.8  0.1  0.0  1  0      2977
[22]  B07  1  7   -297.6 4092000.1  0.0  0.0  1  0      2811
$GNGGA,000000.000,,,,,0,00,,,M,,,,0000*2B
$GNRMC,000000.000,A,,,,,,,000000,,*26
$GPGSA,A,1,,,,,,,,,,,,,,,*1E
$BDGSA,A,1,,,,,,,,,,,,,,,*0F
$GPGSV,2,1,07,04,00,000,39,07,00,000,43,09,00,000,47,16,00,000,45*7F
$GPGSV,2,2,07,21,00,000,34,23,00,000,47,26,00,000,36*49
$LOGTIM,0,0.000000,0.000000,0.000000,0.000000,0.000*0A
EndT:        0
BDS satid:44,max_value:2405,max_phase:142,max_freq:5000,i:0
BDS satid:44,max_value:2551,max_phase:3003,max_freq:4500,i:2
BDS satid:44,max_value:2871,max_phase:3620,max_freq:4250,i:3
BDS satid:44,max_value:3220,max_phase:2096,max_freq:3500,i:6
BDS satid:44,max_value:3304,max_phase:4088,max_freq:3250,i:7
BDS satid:44,max_value:3466,max_phase:3065,max_freq:2500,i:10
BDS satid:44,max_value:3571,max_phase:3345,max_freq:2250,i:11
BDS satid:44,max_value:3678,max_phase:2050,max_freq:500,i:18
BDS satid:44,max_value:4469,max_phase:3233,max_freq:-750,i:23
BDS satid:44,max_value:5372,max_phase:2701,max_freq:-1500,i:26
BDS satid:44,max_value:5521,max_phase:2633,max_freq:-1750,i:27
ch23 satid=44 freq = -1750 acq ok1!
acq ok1 timeH = 0,timeL = 289262073,time_stage = 4
BDS satid:45,max_value:1625,max_phase:1871,max_freq:5000,i:0
BDS satid:45,max_value:2356,max_phase:2948,max_freq:5000,i:0
BDS satid:45,max_value:2607,max_phase:1150,max_freq:4750,i:1
BDS satid:45,max_value:3678,max_phase:3112,max_freq:4500,i:2
BDS satid:45,max_value:4101,max_phase:2146,max_freq:4250,i:3
BDS satid:45,max_value:4802,max_phase:2707,max_freq:3500,i:6
BDS satid:45,max_value:5271,max_phase:4018,max_freq:3250,i:7
ch24 satid=45 freq = 3250 acq ok1!
acq ok1 timeH = 0,timeL = 290863678,time_stage = 1
BDS satid:46,max_value:2351,max_phase:1116,max_freq:5000,i:0
BDS satid:46,max_value:3363,max_phase:3886,max_freq:4500,i:2
BDS satid:46,max_value:3948,max_phase:2154,max_freq:4250,i:3
BDS satid:46,max_value:4267,max_phase:3507,max_freq:1500,i:14
BDS satid:46,max_value:4350,max_phase:3507,max_freq:1250,i:15
BDS satid:46,max_value:4503,max_phase:3332,max_freq:-1500,i:26
BDS satid:46,max_value:4727,max_phase:2823,max_freq:-1750,i:27
ch25 satid=46 freq = -1750 acq ok1!
acq ok1 timeH = 0,timeL = 295630142,time_stage = 4
BDS satid:47,max_value:2006,max_phase:1133,max_freq:5000,i:0
BDS satid:47,max_value:2538,max_phase:3537,max_freq:5000,i:0
BDS satid:47,max_value:3901,max_phase:2837,max_freq:4500,i:2
BDS satid:47,max_value:4078,max_phase:2638,max_freq:1250,i:15
BDS satid:47,max_value:4421,max_phase:3296,max_freq:500,i:18
ch26 satid=47 freq = 500 acq ok1!
acq ok1 timeH = 0,timeL = 298181210,time_stage = 3
BDS satid:48,max_value:2441,max_phase:461,max_freq:5000,i:0
BDS satid:48,max_value:2520,max_phase:834,max_freq:4750,i:1
BDS satid:48,max_value:2724,max_phase:3445,max_freq:4750,i:1
BDS satid:48,max_value:3702,max_phase:2146,max_freq:4500,i:2
BDS satid:48,max_value:3718,max_phase:2931,max_freq:4250,i:3
BDS satid:48,max_value:4833,max_phase:2749,max_freq:3500,i:6
BDS satid:48,max_value:4844,max_phase:2867,max_freq:3250,i:7
BDS satid:48,max_value:5002,max_phase:3072,max_freq:1250,i:15
ch27 satid=48 freq = 1250 acq ok1!
acq ok1 timeH = 0,timeL = 301048766,time_stage = 2
BDS satid:49,max_value:2151,max_phase:622,max_freq:5000,i:0
BDS satid:49,max_value:4014,max_phase:3896,max_freq:5000,i:0
BDS satid:49,max_value:6011,max_phase:3197,max_freq:4500,i:2
BDS satid:49,max_value:6922,max_phase:3901,max_freq:4250,i:3
ch28 satid=49 freq = 4250 acq ok1!
acq ok1 timeH = 0,timeL = 303282950,time_stage = 1
---00000015--- Acq_st=3 2019-5-20 01:58:31 
[01]  G04  f 39  -3143.3 2046004.1  1.0  1.0  5  0  93528046
[02]  G07  f 43  -3466.0 2046004.5  1.0  1.0  5  0  93528043
[03]  G09  f 48  -2319.0 2046003.0  1.0  1.0  5  0  93528051
[04]  G16  f 45    601.4 2045999.2  1.0  1.0  5  0  93528059
[05]  G21  f 34    405.8 2045999.5  1.0  1.0  5  0  93528047
[06]  G23  f 47   -589.8 2046000.8  1.0  1.0  5  0  93528056
[07]  G26  f 36   1431.9 2045998.1  1.0  1.0  5  0  93528056
[16]  B01  1 25  -3601.5 4092008.9 -0.0  0.0  1  0      1073
[17]  B02  1 31    373.0 4091998.7 -0.0  0.0  1  0       907
[18]  B03  1 10   -113.7 4092000.2  0.2  0.0  1  0       742
[19]  B04  1 10   2256.0 4091993.0 -0.1  0.0  1  0       575
[20]  B05  1 10  -1125.6 4092003.1  0.0  0.0  1  0       409
[21]  B06  1 10  -2098.9 4092005.3 -0.1  0.0  1  0       244
[22]  B07  1  7   -343.6 4092000.2  0.0  0.0  1  0        78
[23]  B08  1  7   1886.6 4091996.4 -0.0  0.0  1  0      2646
[24]  B09  1  7  -3657.5 4092008.0  0.0  0.0  1  0      2480
[25]  B10  1  7   1545.2 4091995.6 -0.1  0.0  1  0      2314
[26]  B11  1  7   -642.4 4092000.9 -0.0  0.0  1  0      3148
[27]  B12  1  7  -1195.1 4092003.0 -0.0  0.0  1  0      2982
[28]  B13  1  7  -4114.3 4092011.1 -0.0  0.0  1  0      2817
$GNGGA,000000.000,,,,,0,00,,,M,,,,0000*2B
$GNRMC,000000.000,A,,,,,,,000000,,*26
$GPGSA,A,1,,,,,,,,,,,,,,,*1E
$BDGSA,A,1,,,,,,,,,,,,,,,*0F
$GPGSV,2,1,07,04,00,000,39,07,00,000,43,09,00,000,48,16,00,000,45*70
$GPGSV,2,2,07,21,00,000,34,23,00,000,47,26,00,000,36*49
$LOGTIM,0,0.000000,0.000000,0.000000,0.000000,0.000*0A
EndT:        0
BDS satid:50,max_value:3903,max_phase:1657,max_freq:5000,i:0
BDS satid:50,max_value:4121,max_phase:2170,max_freq:3500,i:6
BDS satid:50,max_value:4238,max_phase:3632,max_freq:3250,i:7
BDS satid:50,max_value:4763,max_phase:3352,max_freq:2250,i:11
BDS satid:50,max_value:5717,max_phase:2801,max_freq:1500,i:14
ch29 satid=50 freq = 1500 acq ok1!
acq ok1 timeH = 0,timeL = 307416854,time_stage = 2
BDS satid:51,max_value:1809,max_phase:1748,max_freq:5000,i:0
BDS satid:51,max_value:2118,max_phase:1350,max_freq:4750,i:1
BDS satid:51,max_value:2463,max_phase:2949,max_freq:4750,i:1
BDS satid:51,max_value:2756,max_phase:2974,max_freq:4500,i:2
BDS satid:51,max_value:3164,max_phase:3236,max_freq:4250,i:3
BDS satid:51,max_value:3214,max_phase:3239,max_freq:3750,i:5
BDS satid:51,max_value:4540,max_phase:3589,max_freq:3500,i:6
BDS satid:51,max_value:5194,max_phase:3255,max_freq:3250,i:7
ch30 satid=51 freq = 3250 acq ok1!
acq ok1 timeH = 0,timeL = 309967930,time_stage = 1
BDS satid:52,max_value:1535,max_phase:403,max_freq:5000,i:0
BDS satid:52,max_value:2439,max_phase:3120,max_freq:5000,i:0
BDS satid:52,max_value:2794,max_phase:978,max_freq:4750,i:1
BDS satid:52,max_value:2896,max_phase:2129,max_freq:4750,i:1
BDS satid:52,max_value:3613,max_phase:2907,max_freq:4500,i:2
BDS satid:52,max_value:3895,max_phase:3220,max_freq:4250,i:3
BDS satid:52,max_value:5117,max_phase:3514,max_freq:3500,i:6
ch31 satid=52 freq = 3500 acq ok1!
acq ok1 timeH = 0,timeL = 313151980,time_stage = 1
---00000016--- Acq_st=5 2019-5-20 01:58:32 
[01]  G04  f 37  -3143.7 2046004.1  1.0  1.0  5  0  93529046
[02]  G07  f 42  -3466.7 2046004.5  1.0  1.0  5  0  93529043
[03]  G09  f 48  -2319.4 2046003.0  1.0  1.0  5  0  93529051
[04]  G16  f 45    600.3 2045999.2  1.0  1.0  5  0  93529059
[05]  G21  f 32    405.1 2045999.5  1.0  0.9  5  0  93529047
[06]  G23  f 46   -590.4 2046000.8  1.0  1.0  5  0  93529056
[07]  G26  f 37   1431.3 2045998.2  1.0  0.9  5  0  93529056
[16]  B01  1 24  -3624.6 4092010.7 -0.0  0.0  1  0      2073
[17]  B02  1 30    352.1 4092000.9  0.1  0.0  1  0      1907
[18]  B03  1 10   -116.6 4092001.9 -0.0  0.0  1  0      1742
[19]  B04  1 23   2298.0 4091995.7  0.0  0.0  1  0      1575
[20]  B05  1 10  -1137.2 4092004.1  0.1  0.0  1  0      1409
[21]  B06  1  7  -2097.3 4092005.1 -0.1  0.0  1  0      1244
[22]  B07  1  7   -394.2 4091999.7  0.1  0.0  1  0      1078
[23]  B08  1 10   1906.0 4091995.8  0.0  0.0  1  0       913
[24]  B09  1  7  -3651.6 4092008.1  0.0  0.0  1  0       747
[25]  B10  1  7   1351.3 4091996.0 -0.1  0.0  1  0       581
[26]  B11  1  7   -618.1 4092001.1 -0.1  0.0  1  0       415
[27]  B12  1  7  -1153.1 4092003.1  0.0  0.0  1  0       249
[28]  B13  1  7  -4636.3 4092010.9 -0.2  0.0  1  0        83
[29]  B14  1  7  -2139.7 4092002.9  0.1  0.0  1  0      2651
[30]  B15  1  7  -3630.8 4092007.8 -0.0  0.0  1  0      2485
[31]  B16  1  7  -3793.3 4092009.2  0.1  0.0  1  0      2319
$GNGGA,000000.000,,,,,0,00,,,M,,,,0000*2B
$GNRMC,000000.000,A,,,,,,,000000,,*26
$GPGSA,A,1,,,,,,,,,,,,,,,*1E
$BDGSA,A,1,,,,,,,,,,,,,,,*0F
$GPGSV,2,1,07,04,00,000,37,07,00,000,42,09,00,000,48,16,00,000,45*7F
$GPGSV,2,2,07,21,00,000,32,23,00,000,46,26,00,000,37*4F
$LOGTIM,0,0.000000,0.000000,0.000000,0.000000,0.000*0A
EndT:        0
BDS satid:67,max_value:2410,max_phase:1506,max_freq:5000,i:0
BDS satid:67,max_value:2837,max_phase:2256,max_freq:5000,i:0
BDS satid:67,max_value:4562,max_phase:2068,max_freq:4500,i:2
ch16 satid=67 freq = 4500 acq ok1!
acq ok1 timeH = 0,timeL = 331689970,time_stage = 1
BDS satid:68,max_value:2730,max_phase:427,max_freq:5000,i:0
BDS satid:68,max_value:2987,max_phase:3181,max_freq:4500,i:2
BDS satid:68,max_value:3053,max_phase:3165,max_freq:4250,i:3
BDS satid:68,max_value:3303,max_phase:1183,max_freq:3750,i:5
BDS satid:68,max_value:4765,max_phase:2160,max_freq:3500,i:6
BDS satid:68,max_value:5033,max_phase:3234,max_freq:3250,i:7
BDS satid:68,max_value:5335,max_phase:3030,max_freq:2500,i:10
ch17 satid=68 freq = 2500 acq ok1!
acq ok1 timeH = 0,timeL = 335507397,time_stage = 2
---00000017--- Acq_st=7 2019-5-20 01:58:33 
[01]  G04  f 36  -3142.0 2046004.1  1.0  1.0  5  0  93530046
[02]  G07  f 42  -3466.0 2046004.6  1.0  1.0  5  0  93530043
[03]  G09  f 48  -2317.9 2046003.0  1.0  1.0  5  0  93530051
[04]  G16  f 44    601.6 2045999.2  1.0  1.0  5  0  93530059
[05]  G21  f 32    406.7 2045999.5  1.0  0.9  5  0  93530047
[06]  G23  f 46   -588.6 2046000.8  1.0  1.0  5  0  93530056
[07]  G26  f 37   1432.3 2045998.1  1.0  1.0  5  0  93530056
[16]  B31  1  7  -4552.2 4092010.9 -0.0  0.0  1  0      3073
[17]  B32  1  7  -2563.6 4092005.7 -0.0  0.0  1  0      2907
[21]  B06  1 11  -2116.1 4092004.8  0.0  0.0  1  0      2244
[22]  B07  1  7   -322.1 4092000.1  0.0  0.0  1  0      2078
[23]  B08  1  7   1927.0 4091996.6 -0.1  0.0  1  0      1913
[24]  B09  1  7  -3631.8 4092008.5  0.2  0.0  1  0      1747
[25]  B10  1  7   1368.0 4091996.2 -0.0  0.0  1  0      1581
[26]  B11  1  7   -745.2 4092000.8 -0.1  0.0  1  0      1415
[27]  B12  1  7  -1062.8 4092003.4 -0.0  0.0  1  0      1249
[28]  B13  1  7  -4637.7 4092010.8 -0.1  0.0  1  0      1083
[29]  B14  1  7  -2128.0 4092002.6  0.0  0.0  1  0       917
[30]  B15  1  7  -3639.4 4092008.0  0.2  0.0  1  0       752
[31]  B16  1  7  -3649.2 4092008.8  0.1  0.0  1  0       585
$GNGGA,000000.000,,,,,0,00,,,M,,,,0000*2B
$GNRMC,000000.000,A,,,,,,,000000,,*26
$GPGSA,A,1,,,,,,,,,,,,,,,*1E
$BDGSA,A,1,,,,,,,,,,,,,,,*0F
$GPGSV,2,1,07,04,00,000,36,07,00,000,42,09,00,000,48,16,00,000,44*7F
$GPGSV,2,2,07,21,00,000,32,23,00,000,46,26,00,000,37*4F
$LOGTIM,0,0.000000,0.000000,0.000000,0.000000,0.000*0A
EndT:        0
---00000018--- Acq_st=7 2019-5-20 01:58:34 
[01]  G04  f 37  -3142.1 2046004.1  1.0  1.0  5  0  93531046
[02]  G07  f 41  -3465.8 2046004.5  1.0  1.0  5  0  93531043
[03]  G09  f 48  -2316.9 2046003.0  1.0  1.0  5  0  93531051
[04]  G16  f 44    602.4 2045999.2  1.0  1.0  5  0  93531059
[05]  G21  f 32    407.4 2045999.4  1.0  0.9  5  0  93531047
[06]  G23  f 46   -587.6 2046000.8  1.0  1.0  5  0  93531056
[07]  G26  f 36   1433.2 2045998.2  1.0  1.0  5  0  93531056
[16]  B31  1  7  -4657.9 4092011.1 -0.1  0.0  1  0       604
[17]  B32  1  7  -2645.8 4092005.8 -0.2  0.0  1  0       438
[27]  B12  1  7  -1023.7 4092002.8  0.0  0.0  1  0      2249
[28]  B13  1  7  -4638.4 4092011.0 -0.1  0.0  1  0      2083
[29]  B14  1  7  -2141.9 4092003.1 -0.0  0.0  1  0      1917
[30]  B15  1  7  -3637.8 4092008.2  0.0  0.0  1  0      1752
[31]  B16  1  7  -3660.2 4092008.7 -0.1  0.0  1  0      1585
$GNGGA,000000.000,,,,,0,00,,,M,,,,0000*2B
$GNRMC,000000.000,A,,,,,,,000000,,*26
$GPGSA,A,1,,,,,,,,,,,,,,,*1E
$BDGSA,A,1,,,,,,,,,,,,,,,*0F
$GPGSV,2,1,07,04,00,000,37,07,00,000,41,09,00,000,48,16,00,000,44*7D
$GPGSV,2,2,07,21,00,000,32,23,00,000,46,26,00,000,36*4E
$LOGTIM,0,0.000000,0.000000,0.000000,0.000000,0.000*0A
EndT:        0
---00000019--- Acq_st=7 2019-5-20 01:58:35 
[01]  G04  f 35  -3142.9 2046004.0  1.0  0.9  5  0  93532046
[02]  G07  f 42  -3466.7 2046004.5  1.0  1.0  5  0  93532043
[03]  G09  f 49  -2317.5 2046003.0  1.0  1.0  5  0  93532051
[04]  G16  f 45    601.2 2045999.2  1.0  1.0  5  0  93532059
[05]  G21  f 30    407.4 2045999.6  0.9  0.9  5  0  93532047
[06]  G23  f 46   -588.1 2046000.8  1.0  1.0  5  0  93532056
[07]  G26  f 36   1432.1 2045998.2  1.0  0.9  5  0  93532056
[16]  B31  1  7  -4696.9 4092011.0 -0.1  0.0  1  0      1604
[17]  B32  1  7  -2610.7 4092006.2 -0.2  0.0  1  0      1438
$GNGGA,000000.000,,,,,0,00,,,M,,,,0000*2B
$GNRMC,000000.000,A,,,,,,,000000,,*26
$GPGSA,A,1,,,,,,,,,,,,,,,*1E
$BDGSA,A,1,,,,,,,,,,,,,,,*0F
$GPGSV,2,1,07,04,00,000,35,07,00,000,42,09,00,000,49,16,00,000,45*7C
$GPGSV,2,2,07,21,00,000,30,23,00,000,46,26,00,000,36*4C
$LOGTIM,0,0.000000,0.000000,0.000000,0.000000,0.000*0A
EndT:        0
---00000020--- Acq_st=5 2019-5-20 01:58:36 
[01]  G04  f 35  -3142.5 2046004.0  1.0  1.0  5  0  93533046
[02]  G07  f 43  -3467.2 2046004.5  1.0  1.0  5  0  93533043
[03]  G09  f 48  -2317.0 2046003.0  1.0  1.0  5  0  93533051
[04]  G16  f 44    600.9 2045999.2  1.0  1.0  5  0  93533059
[05]  G21  f 30    408.7 2045999.6  0.9  0.9  5  0  93533047
[06]  G23  f 47   -587.6 2046000.7  1.0  1.0  5  0  93533056
[07]  G26  f 35   1432.7 2045998.2  1.0  0.9  5  0  93533056
$GNGGA,000000.000,,,,,0,00,,,M,,,,0000*2B
$GNRMC,000000.000,A,,,,,,,000000,,*26
$GPGSA,A,1,,,,,,,,,,,,,,,*1E
$BDGSA,A,1,,,,,,,,,,,,,,,*0F
$GPGSV,2,1,07,04,00,000,35,07,00,000,43,09,00,000,48,16,00,000,44*7D
$GPGSV,2,2,07,21,00,000,30,23,00,000,47,26,00,000,35*4E
$LOGTIM,0,0.000000,0.000000,0.000000,0.000000,0.000*0A
EndT:        0
---00000021--- Acq_st=3 2019-5-20 01:58:37 
[01]  G04  f 35  -3140.3 2046004.1  1.0  1.0  5  0  93534046
[02]  G07  f 43  -3465.8 2046004.5  1.0  1.0  5  0  93534043
[03]  G09  f 49  -2314.9 2046003.0  1.0  1.0  5  0  93534051
[04]  G16  f 44    603.4 2045999.2  1.0  1.0  5  0  93534059
[05]  G21  f 29    409.7 2045999.6  0.9  0.9  5  0  93534047
[06]  G23  f 47   -585.5 2046000.8  1.0  1.0  5  0  93534056
[07]  G26  f 36   1433.0 2045998.1  1.0  1.0  5  0  93534056
$GNGGA,000000.000,,,,,0,00,,,M,,,,0000*2B
$GNRMC,000000.000,A,,,,,,,000000,,*26
$GPGSA,A,1,,,,,,,,,,,,,,,*1E
$BDGSA,A,1,,,,,,,,,,,,,,,*0F
$GPGSV,2,1,07,04,00,000,35,07,00,000,43,09,00,000,49,16,00,000,44*7C
$GPGSV,2,2,07,21,00,000,29,23,00,000,47,26,00,000,36*45
$LOGTIM,0,0.000000,0.000000,0.000000,0.000000,0.000*0A
EndT:        0
BDS satid:37,max_value:1795,max_phase:1974,max_freq:5000,i:0
BDS satid:37,max_value:2477,max_phase:2187,max_freq:5000,i:0
BDS satid:37,max_value:3050,max_phase:2128,max_freq:4500,i:2
BDS satid:37,max_value:4094,max_phase:2281,max_freq:4250,i:3
BDS satid:37,max_value:4250,max_phase:3884,max_freq:3500,i:6
ch16 satid=37 freq = 3500 acq ok1!
acq ok1 timeH = 0,timeL = 437924242,time_stage = 1
---00000022--- Acq_st=3 2019-5-20 01:58:38 
[01]  G04  f 36  -3138.8 2046004.1  1.0  1.0  5  0  93535046
[02]  G07  f 43  -3464.0 2046004.5  1.0  1.0  5  0  93535043
[03]  G09  f 49  -2312.7 2046003.0  1.0  1.0  5  0  93535051
[04]  G16  f 44    605.3 2045999.2  1.0  1.0  5  0  93535059
[05]  G21  f 28    413.2 2045999.6  0.8  0.8  5  0  93535047
[06]  G23  f 47   -582.9 2046000.8  1.0  1.0  5  0  93535056
[07]  G26  f 37   1436.2 2045998.2  1.0  1.0  5  0  93535056
[16]  B01  1 10  -3579.0 4092009.2  0.1  0.0  1  0      2604
$GNGGA,000000.000,,,,,0,00,,,M,,,,0000*2B
$GNRMC,000000.000,A,,,,,,,000000,,*26
$GPGSA,A,1,,,,,,,,,,,,,,,*1E
$BDGSA,A,1,,,,,,,,,,,,,,,*0F
$GPGSV,2,1,07,04,00,000,36,07,00,000,43,09,00,000,49,16,00,000,44*7F
$GPGSV,2,2,07,21,00,000,28,23,00,000,47,26,00,000,37*45
$LOGTIM,0,0.000000,0.000000,0.000000,0.000000,0.000*0A
EndT:        0
BDS satid:38,max_value:2131,max_phase:1011,max_freq:5000,i:0
BDS satid:38,max_value:2350,max_phase:3140,max_freq:4750,i:1
BDS satid:38,max_value:3174,max_phase:2562,max_freq:4500,i:2
BDS satid:38,max_value:3186,max_phase:2246,max_freq:1750,i:13
BDS satid:38,max_value:3720,max_phase:2484,max_freq:500,i:18
BDS satid:38,max_value:4455,max_phase:3979,max_freq:250,i:19
BDS satid:38,max_value:5440,max_phase:3296,max_freq:-500,i:22
BDS satid:38,max_value:5586,max_phase:3240,max_freq:-750,i:23
ch17 satid=38 freq = -750 acq ok1!
acq ok1 timeH = 0,timeL = 442374226,time_stage = 3
BDS satid:39,max_value:1894,max_phase:1085,max_freq:5000,i:0
BDS satid:39,max_value:2164,max_phase:3647,max_freq:5000,i:0
BDS satid:39,max_value:2457,max_phase:1858,max_freq:4500,i:2
BDS satid:39,max_value:3996,max_phase:2403,max_freq:4500,i:2
BDS satid:39,max_value:4324,max_phase:3875,max_freq:1250,i:15
BDS satid:39,max_value:4532,max_phase:3278,max_freq:500,i:18
ch18 satid=39 freq = 500 acq ok1!
acq ok1 timeH = 0,timeL = 445241788,time_stage = 3
BDS satid:40,max_value:2442,max_phase:961,max_freq:5000,i:0
BDS satid:40,max_value:3290,max_phase:3572,max_freq:4500,i:2
BDS satid:40,max_value:3816,max_phase:3135,max_freq:2500,i:10
BDS satid:40,max_value:4011,max_phase:3919,max_freq:-1750,i:27
BDS satid:40,max_value:4271,max_phase:2554,max_freq:-2750,i:31
BDS satid:40,max_value:4334,max_phase:3436,max_freq:-4500,i:38
ch19 satid=40 freq = -4500 acq ok1!
acq ok1 timeH = 0,timeL = 450008266,time_stage = 5
BDS satid:41,max_value:1869,max_phase:1376,max_freq:5000,i:0
BDS satid:41,max_value:2504,max_phase:3625,max_freq:5000,i:0
BDS satid:41,max_value:2515,max_phase:3950,max_freq:4750,i:1
BDS satid:41,max_value:4005,max_phase:2336,max_freq:4500,i:2
BDS satid:41,max_value:4352,max_phase:2539,max_freq:3500,i:6
BDS satid:41,max_value:4523,max_phase:3563,max_freq:3250,i:7
BDS satid:41,max_value:5855,max_phase:2811,max_freq:2500,i:10
BDS satid:41,max_value:6344,max_phase:3985,max_freq:2250,i:11
BDS satid:41,max_value:6564,max_phase:2452,max_freq:1500,i:14
ch20 satid=41 freq = 1500 acq ok1!
acq ok1 timeH = 0,timeL = 451293388,time_stage = 2
BDS satid:42,max_value:2402,max_phase:1188,max_freq:5000,i:0
BDS satid:42,max_value:2459,max_phase:3893,max_freq:5000,i:0
BDS satid:42,max_value:2531,max_phase:1847,max_freq:4750,i:1
BDS satid:42,max_value:3424,max_phase:2603,max_freq:4500,i:2
BDS satid:42,max_value:3634,max_phase:3893,max_freq:4250,i:3
BDS satid:42,max_value:3830,max_phase:2516,max_freq:3250,i:7
BDS satid:42,max_value:4239,max_phase:2170,max_freq:2500,i:10
BDS satid:42,max_value:5345,max_phase:2748,max_freq:2250,i:11
ch21 satid=42 freq = 2250 acq ok1!
acq ok1 timeH = 0,timeL = 454160944,time_stage = 2
BDS satid:43,max_value:2239,max_phase:322,max_freq:5000,i:0
