FlashID=0x1 0x20 0x18
BBram_blkflag1: 3cf6: c309
FW Ver: 1.30  
GPS00 Init Dop:   -767,  2
GPS01 Init Dop:  -5000, 41
GPS02 Init Dop:   2581,  2
GPS03 Init Dop:  -5000, 41
GPS04 Init Dop:  -5000, 41
GPS05 Init Dop:  -5000, 41
GPS06 Init Dop:  -2672,  2
GPS07 Init Dop:  -2345,  2
GPS08 Init Dop:  -5000, 41
GPS09 Init Dop:  -5000, 41
GPS10 Init Dop:  -1741,  2
GPS11 Init Dop:  -5000, 41
GPS12 Init Dop:  -5000, 41
GPS13 Init Dop:  -5000, 41
GPS14 Init Dop:  -5000, 41
GPS15 Init Dop:  -5000, 41
GPS16 Init Dop:   1492,  2
GPS17 Init Dop:  -2375,  2
GPS18 Init Dop:   2676,  2
GPS19 Init Dop:  -5000, 41
GPS20 Init Dop:  -5000, 41
GPS21 Init Dop:   1555,  2
GPS22 Init Dop:  -5000, 41
GPS23 Init Dop:  -5000, 41
GPS24 Init Dop:  -5000, 41
GPS25 Init Dop:  -5000, 41
GPS26 Init Dop:  -5000, 41
GPS27 Init Dop:   1952,  2
GPS28 Init Dop:  -5000, 41
GPS29 Init Dop:   -701,  2
GPS30 Init Dop:  -5000, 41
GPS31 Init Dop:  -5000, 41
BDS00 Init Dop:    159,  2
BDS01 Init Dop:    205,  2
BDS02 Init Dop:    177,  2
BDS03 Init Dop:    174,  2
BDS04 Init Dop:    212,  2
BDS05 Init Dop:  -5000, 41
BDS06 Init Dop:    209,  2
BDS07 Init Dop:    419,  2
BDS08 Init Dop:  -1058,  2
BDS09 Init Dop:    564,  2
BDS10 Init Dop:   1290,  2
BDS11 Init Dop:  -1999,  2
BDS12 Init Dop:    927,  2
BDS13 Init Dop:  -5000, 41
BDS14 Init Dop:  -5000, 41
BDS15 Init Dop:  -5000, 41
BDS16 Init Dop:  -5000, 41
BDS17 Init Dop:  -5000, 41
BDS18 Init Dop:  -5000, 41
BDS19 Init Dop:  -5000, 41
BDS20 Init Dop:   2186,  2
BDS21 Init Dop:  -5000, 41
BDS22 Init Dop:  -5000, 41
BDS23 Init Dop:  -1451,  2
BDS24 Init Dop:   1698,  2
BDS25 Init Dop:  -3066,  2
BDS26 Init Dop:  -5000, 41
BDS27 Init Dop:  -5000, 41
BDS28 Init Dop:  -5000, 41
BDS29 Init Dop:  -5000, 41
BDS30 Init Dop:  -5000, 41
BDS31 Init Dop:  -5000, 41
---00000001--- Acq_st=3 2019-4-28 07:52:28 
[00]  G01  1 20    652.4 2045999.9  0.1  0.0  1  0         0
[01]  G03  1  7  -2652.7 2046004.8 -0.1  0.0  1  0         0
$GNGGA,000000.000,,,,,0,00,,,M,,,,0000*2B
$GNRMC,000000.000,A,,,,,,,000000,,*26
$GPGSA,A,1,,,,,,,,,,,,,,,*1E
$BDGSA,A,1,,,,,,,,,,,,,,,*0F
$LOGTIM,0,0.000000,0.000000,0.000000,0.000000,0.000*0A
---00000002--- Acq_st=3 2019-4-28 07:52:29 
[00]  G01  7 30    646.1 2045999.1  0.5  1.0  5  0         3
[01]  G03  7 26  -2704.9 2046003.6 -0.1  0.0 20  0         7
$GNGGA,000000.000,,,,,0,00,,,M,,,,0000*2B
$GNRMC,000000.000,A,,,,,,,000000,,*26
$GPGSA,A,1,,,,,,,,,,,,,,,*1E
$BDGSA,A,1,,,,,,,,,,,,,,,*0F
$GPGSV,1,1,02,01,00,000,30,03,00,000,26*7E
$LOGTIM,0,0.000000,0.000000,0.000000,0.000000,0.000*0A
---00000003--- Acq_st=3 2019-4-28 07:52:30 
[00]  G01  7 44    649.7 2045999.1  1.0  1.0  5  0        16
[01]  G03  7 36  -2701.9 2046003.5  0.9  1.0  5  0         5
[02]  G17  1  7  -1574.2 2046003.7 -0.2  0.0  1  0         0
[03]  G19  1 16  -2770.0 2046004.4 -0.1  0.0  1  0         0
[04]  G22  1  7  -1611.1 2046004.4  0.1  0.0  1  0         0
$GNGGA,000000.000,,,,,0,00,,,M,,,,0000*2B
$GNRMC,000000.000,A,,,,,,,000000,,*26
$GPGSA,A,1,,,,,,,,,,,,,,,*1E
$BDGSA,A,1,,,,,,,,,,,,,,,*0F
$GPGSV,1,1,02,01,00,000,44,03,00,000,36*7C
$LOGTIM,0,0.000000,0.000000,0.000000,0.000000,0.000*0A
---00000004--- Acq_st=3 2019-4-28 07:52:31 
[00]  G01  f 44    650.1 2045999.1  1.0  1.0  5  0        16
[01]  G03  f 35  -2702.2 2046003.5  1.0  1.0  5  0         5
[02]  G17  7 31  -1612.1 2046002.1  0.5  1.0  5  0         6
[03]  G19  1 25  -2796.6 2046003.8  0.1  0.0  1  0        19
[04]  G22  7 24  -1674.7 2046002.1  0.2  0.0 20  0        13
[05]  G28  1 24  -2078.0 2046003.4  0.1  0.0  1  0         0
[06]  G30  1  7    910.8 2045999.5 -0.0  0.0  1  0         0
[16]  B01  1 10   -199.3 4092001.7 -0.2  0.0  1  0         0
[17]  B02  1 10   -234.2 4092001.7  0.0  0.0  1  0         0
[18]  B03  1 33   -209.1 4092002.1  0.0  0.0  1  0         0
[19]  B04  1 10   -184.8 4092001.4 -0.1  0.0  1  0         0
[20]  B05  1 10     28.6 4092000.3 -0.1  0.0  1  0         0
$GNGGA,000000.000,,,,,0,00,,,M,,,,0000*2B
$GNRMC,000000.000,A,,,,,,,000000,,*26
$GPGSA,A,1,,,,,,,,,,,,,,,*1E
$BDGSA,A,1,,,,,,,,,,,,,,,*0F
$GPGSV,1,1,04,01,00,000,44,03,00,000,35,17,00,000,31,22,00,000,24*7B
$LOGTIM,0,0.000000,0.000000,0.000000,0.000000,0.000*0A
---00000005--- Acq_st=3 2019-4-28 07:52:32 
[00]  G01  f 44    650.6 2045999.1  1.0  1.0  5  0  28369256
[01]  G03  f 35  -2702.6 2046003.6  1.0  1.0  5  0  28369245
[02]  G17  7 40  -1612.5 2046002.1  1.0  1.0  5  0         9
[03]  G19  7 27  -2795.8 2046003.6  0.2  1.0 10  0        19
[04]  G22  7 39  -1674.4 2046002.1  0.8  1.0  5  0         5
[05]  G28  7 28  -2072.7 2046002.7  0.4  0.0 10  0         0
[06]  G30  1  7    756.6 2045998.6  0.0  0.0  1  0         3
[16]  B01  1 32   -285.4 4092001.1  0.7  0.0  1  0       180
[17]  B02  1 33   -330.9 4092001.4  0.8  0.0  1  0       167
[18]  B03  9 41   -303.3 4092001.4  0.9  0.0  1  0       154
[19]  B04  1 32   -300.3 4092000.1  0.7  0.0  1  0       140
[20]  B05  1 32   -338.3 4092001.1  0.5  0.0  1  0       117
[21]  B07  1  7   -338.2 4092002.0 -0.1  0.0  1  0         0
[22]  B08  1  7   -548.5 4092002.6  0.3  0.0  1  0         0
[23]  B10  1  7   -690.3 4092003.5  0.2  0.0  1  0         0
[24]  B11  1  7  -1420.6 4092004.7  0.1  0.0  1  0         0
[25]  B13  1  7  -1054.7 4092003.6  0.0  0.0  1  0         0
$GNGGA,000000.000,,,,,0,00,,,M,,,,0000*2B
$GNRMC,000000.000,A,,,,,,,000000,,*26
$GPGSA,A,1,,,,,,,,,,,,,,,*1E
$BDGSA,A,1,,,,,,,,,,,,,,,*0F
$GPGSV,2,1,06,01,00,000,44,03,00,000,35,17,00,000,40,19,00,000,27*77
$GPGSV,2,2,06,22,00,000,39,28,00,000,28*75
$LOGTIM,0,0.000000,0.000000,0.000000,0.000000,0.000*0A
---00000006--- Acq_st=3 2019-4-28 07:52:33 
[00]  G01  f 44    652.9 2045999.1  1.0  1.0  5  0  28370256
[01]  G03  f 35  -2699.9 2046003.6  1.0  1.0  5  0  28370245
[02]  G17  7 41  -1610.2 2046002.1  1.0  1.0  5  0         9
[03]  G19  7 33  -2796.1 2046003.6  1.0  1.0  5  0         4
[04]  G22  7 39  -1672.4 2046002.2  1.0  1.0  5  0         5
[05]  G28  7 42  -2070.9 2046002.7  1.0  1.0  5  0        12
[06]  G30  1  7    963.7 2045999.5  0.0  0.0  1  0         3
[16]  B01  1 10   -283.6 4092001.4  0.2  0.0  1  0      1180
[17]  B02  1 10   -329.5 4092001.6  0.2  0.0  1  0      1167
[18]  B03 19 42   -302.0 4092001.5  0.9  0.0  1  0  28356802
[19]  B04  1 10   -299.0 4092000.7  0.3  0.0  1  0      1140
[20]  B05  1 10   -344.8 4092001.0  0.1  0.0  1  0      1117
[21]  B07  7 28   -335.5 4092000.8  0.6  0.0 10  0       769
[22]  B08  7 27   -546.1 4092001.3  0.5  0.0 10  0       756
[23]  B10  7 27   -690.7 4092001.7  0.2  0.0 20  0       720
[24]  B11  7 26  -1418.0 4092003.7  0.3  0.0 20  0       707
[25]  B13  7 26  -1053.8 4092002.7  0.4  0.0 20  0       671
$GNGGA,075233.249,2944.9328,N,10633.0897,E,1,06,0.0,215.7,M,,,,0000*13
$GNRMC,075233.249,A,2944.9328,N,10633.0897,E,0.00,0.00,280419,,*1E
$GPGSA,A,3,01,03,17,19,22,28,,,,,,,0.0,0.0,0.0*34
$BDGSA,A,3,,,,,,,,,,,,,0.0,0.0,0.0*23
$GPGSV,2,1,06,01,00,000,44,03,00,000,35,17,00,000,41,19,00,000,33*73
$GPGSV,2,2,06,22,00,000,39,28,00,000,42*79
$BDGSV,2,1,05,07,00,000,28,08,00,000,27,10,00,000,27,11,00,000,26*6E
$BDGSV,2,2,05,13,00,000,26*5B
$LOGTIM,1,-32077302.276823,0.000000,0.000000,0.000000,0.000*1C
---00000007--- Acq_st=3 2019-4-28 07:52:34 
[00]  G01  f 44    658.5 2045999.1  1.0  1.0  5  0  28371256
[01]  G03  f 35  -2694.7 2046003.5  1.0  0.9  5  0  28371245
[02]  G17  7 41  -1605.1 2046002.1  1.0  1.0  5  0         9
[03]  G19  7 32  -2789.5 2046003.5  1.0  1.0  5  0         4
[04]  G22  7 40  -1666.9 2046002.2  1.0  1.0  5  0         5
[05]  G28  7 43  -2065.7 2046002.7  1.0  1.0  5  0        12
[16]  B01  7 40   -278.5 4092000.7  1.0  0.0  2  0      2180
[17]  B02  7 39   -324.1 4092000.8  0.9  0.0  2  0      2167
[18]  B03 1f 42   -296.7 4092000.8  1.0  0.0  2  0  28357202
[19]  B04  7 40   -293.7 4092000.7  1.0  0.0  2  0      2140
[20]  B05  7 38   -331.9 4092000.8  0.9  0.0  2  0      2117
[21]  B07  7 43   -330.1 4092000.8  1.0  1.0  5  0      1763
[22]  B08  7 43   -540.0 4092001.3  1.0  1.0  5  0      1744
[23]  B10  7 43   -684.3 4092001.8  1.0  1.0  5  0      1704
[24]  B11  7 43  -1411.4 4092003.7  1.0  1.0  5  0      1688
[25]  B13  7 44  -1047.8 4092002.7  1.0  1.0  5  0      1661
[26]  B21  1  7  -2185.5 4092006.0 -0.0  0.0  1  0         0
$GNGGA,000000.000,,,,,0,00,,,M,,,,0000*2B
$GNRMC,000000.000,A,,,,,,,000000,,*26
$GPGSA,A,1,,,,,,,,,,,,,,,*1E
$BDGSA,A,1,,,,,,,,,,,,,,,*0F
$GPGSV,2,1,06,01,00,000,44,03,00,000,35,17,00,000,41,19,00,000,32*72
$GPGSV,2,2,06,22,00,000,40,28,00,000,43*76
$BDGSV,3,1,10,01,00,000,40,02,00,000,39,03,00,000,42,04,00,000,40*63
$BDGSV,3,2,10,05,00,000,38,07,00,000,43,08,00,000,43,10,00,000,43*6F
$BDGSV,3,3,10,11,00,000,43,13,00,000,44*6C
$LOGTIM,0,0.000000,0.000000,0.000000,0.000000,0.000*0A
---00000008--- Acq_st=3 2019-4-28 07:52:35 
[00]  G01  f 43    662.6 2045999.1  1.0  1.0  5  0  28373007
[01]  G03  f 35  -2691.8 2046003.5  1.0  1.0  5  0  28372995
[02]  G17  7 41  -1601.4 2046002.1  1.0  1.0  5  0         0
[03]  G19  7 32  -2785.4 2046003.6  1.0  0.9  5  0        14
[04]  G22  7 40  -1663.7 2046002.1  1.0  1.0  5  0        16
[05]  G28  7 42  -2062.5 2046002.7  1.0  1.0  5  0         2
[16]  B01  f 40   -275.1 4092000.8  0.9  0.0  2  0  28359550
[17]  B02  f 38   -321.1 4092000.8  0.9  0.0  2  0  28359551
[18]  B03 1f 42   -293.5 4092000.8  1.0  0.0  2  0  28358953
[19]  B04  f 40   -290.4 4092000.8  0.9  0.0  2  0  28359544
[20]  B05  f 36   -328.1 4092000.9  0.9  0.0  2  0  28359545
[21]  B07  7 43   -326.2 4092000.8  1.0  1.0  5  0      3514
[22]  B08  7 43   -536.4 4092001.4  1.0  1.0  5  0      3495
[23]  B10  7 43   -681.0 4092001.8  1.0  1.0  5  0      3455
[24]  B11  7 43  -1407.7 4092003.7  1.0  1.0  5  0      3439
[25]  B13  7 43  -1043.8 4092002.7  1.0  1.0  5  0      3411
[26]  B21  1  7  -2182.3 4092007.7  0.1  0.0  1  0      1061
[27]  B24  1  7   1709.6 4091997.4  0.1  0.0  1  0       379
[28]  B25  1  7  -1811.7 4092007.1 -0.1  0.0  1  0       365
[29]  B26  1  7   3085.5 4091991.9  0.0  0.0  1  0       342
$GNGGA,075236.075,2944.9399,N,10633.0804,E,1,07,2.1,258.9,M,,,,0000*1E
$GNRMC,075236.075,A,2944.9399,N,10633.0804,E,0.06,0.00,280419,,*10
$GPGSA,A,3,01,03,,,,,,,,,,,3.0,2.1,2.1*33
$BDGSA,A,3,01,02,03,04,05,,,,,,,,3.0,2.1,2.1*21
$GPGSV,3,1,11,01,64,066,43,03,17,127,35,17,35,273,41,19,15,257,32*76
$GPGSV,3,2,11,22,21,104,40,28,48,331,42,07,42,181,00,08,16,056,00*7E
$GPGSV,3,3,11,11,53,041,00,18,38,046,00,30,63,235,00*48
$BDGSV,3,1,12,01,40,125,40,02,46,219,38,03,55,171,41,04,23,109,40*67
$BDGSV,3,2,12,05,27,244,36,07,65,101,43,08,83,174,43,10,78,008,43*69
$BDGSV,3,3,12,11,49,262,43,13,55,208,43,09,03,199,00,12,38,036,00*6E
$LOGTIM,3,9541006.170566,9540792.911718,0.000000,0.000000,-54.299*18
---00000009--- Acq_st=3 2019-4-28 07:52:36 
[00]  G01  f 43    666.1 2045999.1  1.0  1.0  5  0  28374007
[01]  G03  f 35  -2688.2 2046003.6  1.0  1.0  5  0  28373995
[02]  G17  7 41  -1598.2 2046002.1  1.0  1.0  5  0         0
[03]  G19  7 33  -2782.9 2046003.7  1.0  0.9  5  0        14
[04]  G22  7 39  -1660.0 2046002.2  1.0  1.0  5  0        16
[05]  G28  7 42  -2059.4 2046002.7  1.0  1.0  5  0         2
[16]  B01 1f 40   -271.7 4092000.8  0.9  0.0  2  0  28359950
[17]  B02 1f 39   -317.8 4092000.8  0.9  0.0  2  0  28359951
[18]  B03 1f 41   -290.4 4092000.9  1.0  0.0  2  0  28359953
[19]  B04 1f 38   -287.2 4092000.8  0.9  0.0  2  0  28359944
[20]  B05 1f 36   -324.9 4092000.5  0.9  0.0  2  0  28359945
[21]  B07  7 43   -322.9 4092000.8  1.0  1.0  5  0      4514
[22]  B08  7 43   -533.3 4092001.4  1.0  1.0  5  0      4495
[23]  B10  7 43   -677.7 4092001.8  1.0  1.0  5  0      4455
[24]  B11  7 43  -1404.4 4092003.7  1.0  1.0  5  0      4439
[25]  B13  7 43  -1040.4 4092002.7  1.0  1.0  5  0      4411
[26]  B21  1  7  -2298.8 4092006.8  0.1  0.0  1  0      2061
[27]  B24  7 24   1340.5 4091996.8  0.0  0.0 20  0      1361
[28]  B25  7 24  -1810.6 4092004.7 -0.0  0.0 20  0      1359
[29]  B26  1  7   3160.4 4091992.0 -0.0  0.0  1  0      1342
$GNGGA,075237.075,2944.9512,N,10633.0736,E,1,07,1.4,254.4,M,,,,0000*13
$GNRMC,075237.075,A,2944.9512,N,10633.0736,E,0.06,0.00,280419,,*1A
$GPGSA,A,3,01,03,,,,,,,,,,,1.7,1.4,1.0*32
$BDGSA,A,3,01,02,03,04,05,,,,,,,,1.7,1.4,1.0*20
$GPGSV,3,1,11,01,64,066,43,03,17,127,35,17,35,273,41,19,15,257,33*77
$GPGSV,3,2,11,22,21,104,39,28,48,331,42,07,42,181,00,08,16,056,00*70
$GPGSV,3,3,11,11,53,041,00,18,38,046,00,30,63,235,00*48
$BDGSV,3,1,12,01,40,125,40,02,46,219,39,03,55,171,41,04,23,109,38*69
$BDGSV,3,2,12,05,27,244,36,07,65,101,43,08,83,174,43,10,78,008,43*69
$BDGSV,3,3,12,11,49,262,43,13,55,208,43,24,63,168,24,25,52,306,24*61
$LOGTIM,3,9540948.361010,9540736.995547,0.000000,0.000000,-55.140*10
---00000010--- Acq_st=7 2019-4-28 07:52:37 
[00]  G01  f 44    659.1 2045999.1  1.0  1.0  5  0  28375007
[01]  G03  f 35  -2696.1 2046003.5  1.0  1.0  5  0  28374995
[02]  G17  f 40  -1606.2 2046002.1  1.0  1.0  5  0         0
[03]  G19  f 32  -2791.2 2046003.6  1.0  1.0  5  0        14
[04]  G22  f 40  -1667.5 2046002.2  1.0  1.0  5  0        16
[05]  G28  f 43  -2067.3 2046002.7  1.0  1.0  5  0         2
[16]  B01 1f 40   -280.1 4092000.9  0.9  0.0  2  0  28360950
[17]  B02 1f 38   -325.8 4092000.9  0.9  0.0  2  0  28360951
[18]  B03 1f 43   -298.1 4092000.7  0.9  0.0  2  0  28360953
[19]  B04 1f 40   -295.0 4092000.7  0.9  0.0  2  0  28360944
[20]  B05 1f 36   -332.9 4092001.1  0.9  0.0  2  0  28360945
[21]  B07  7 43   -330.8 4092000.8  1.0  1.0  5  0      5514
[22]  B08  7 42   -541.3 4092001.4  1.0  1.0  5  0      5495
[23]  B10  7 44   -685.4 4092001.8  1.0  1.0  5  0      5455
[24]  B11  7 42  -1412.1 4092003.7  1.0  1.0  5  0      5439
[25]  B13  7 43  -1048.3 4092002.7  1.0  1.0  5  0      5411
[26]  B21  7 36  -2307.2 4092005.9  0.6  1.0  5  0      3046
[27]  B24  7 43   1329.4 4091996.8  0.6  1.0  5  0      2361
[28]  B25  7 43  -1820.9 4092004.7  0.8  1.0  5  0      2359
[29]  B26  1 10   3222.9 4091992.0  0.0  0.0  1  0      2342
$GNGGA,075238.075,2944.9111,N,10633.0897,E,1,11,1.0,256.0,M,,,,0000*1A
$GNRMC,075238.075,A,2944.9111,N,10633.0897,E,0.24,0.00,280419,,*16
$GPGSA,A,3,01,03,17,19,22,28,,,,,,,1.2,1.0,0.8*3E
$BDGSA,A,3,01,02,03,04,05,,,,,,,,1.2,1.0,0.8*28
$GPGSV,3,1,11,01,64,066,44,03,17,127,35,17,35,273,40,19,15,257,32*70
$GPGSV,3,2,11,22,21,104,40,28,48,331,43,07,42,181,00,08,16,056,00*7F
$GPGSV,3,3,11,11,53,041,00,18,38,046,00,30,63,235,00*48
$BDGSV,3,1,12,01,40,125,40,02,46,219,38,03,55,171,43,04,23,109,40*65
$BDGSV,3,2,12,05,27,244,36,07,65,101,43,08,83,174,42,10,78,008,44*6F
$BDGSV,3,3,12,11,49,262,42,13,55,208,43,21,04,128,36,24,63,168,43*6B
$LOGTIM,3,0.000000,-210.918990,0.000000,0.000000,-56.582*36
---00000011--- Acq_st=3 2019-4-28 07:52:38 
[00]  G01  f 43    653.3 2045999.2  1.0  1.0  5  0  28376007
[01]  G03  f 35  -2702.2 2046003.5  1.0  0.9  5  0  28375995
[02]  G17  f 40  -1612.4 2046002.1  1.0  1.0  5  0  28376000
[03]  G19  f 32  -2796.5 2046003.6  1.0  1.0  5  0  28375994
[04]  G22  f 39  -1674.3 2046002.2  1.0  1.0  5  0  28375996
[05]  G28  f 42  -2074.0 2046002.7  1.0  1.0  5  0  28376002
[06]  G07  1  7   2519.5 2045994.8  0.0  0.0  1  0         3
[16]  B01 1f 41   -286.5 4092000.7  1.0  0.0  2  0  28361950
[17]  B02 1f 39   -332.4 4092000.9  0.9  0.0  2  0  28361951
[18]  B03 1f 43   -304.7 4092000.9  1.0  0.0  2  0  28361953
[19]  B04 1f 40   -301.7 4092000.9  0.9  0.0  2  0  28361944
[20]  B05 1f 36   -339.9 4092000.8  0.9  0.0  2  0  28361945
[21]  B07  7 43   -337.4 4092000.8  1.0  1.0  5  0      6514
[22]  B08  7 43   -547.6 4092001.4  1.0  1.0  5  0      6495
[23]  B10  7 43   -692.1 4092001.8  1.0  1.0  5  0      6455
[24]  B11  7 42  -1418.6 4092003.7  1.0  1.0  5  0      6439
[25]  B13  7 43  -1054.8 4092002.7  1.0  1.0  5  0      6411
[26]  B21  7 37  -2313.3 4092006.0  1.0  0.9  5  0      4046
[27]  B24  7 45   1323.3 4091996.7  1.0  1.0  5  0      3361
[28]  B25  7 43  -1827.1 4092004.7  1.0  1.0  5  0      3359
$GNGGA,075239.000,2944.9091,N,10633.0932,E,1,11,1.0,262.1,M,,,,0000*18
$GNRMC,075239.000,A,2944.9091,N,10633.0932,E,0.05,0.00,280419,,*11
$GPGSA,A,3,01,03,17,19,22,28,,,,,,,1.2,1.0,0.8*3E
$BDGSA,A,3,01,02,03,04,05,,,,,,,,1.2,1.0,0.8*28
$GPGSV,3,1,11,01,64,066,43,03,17,127,35,17,35,273,40,19,15,257,32*77
$GPGSV,3,2,11,22,21,104,39,28,48,331,42,07,42,181,00,08,16,056,00*70
$GPGSV,3,3,11,11,53,041,00,18,38,046,00,30,63,235,00*48
$BDGSV,3,1,12,01,40,125,41,02,46,219,39,03,55,171,43,04,23,109,40*65
$BDGSV,3,2,12,05,27,244,36,07,65,101,43,08,83,174,43,10,78,008,43*69
$BDGSV,3,3,12,11,49,262,42,13,55,208,43,21,04,128,37,24,63,168,45*6C
$LOGTIM,3,-45.229651,-260.748503,0.000000,0.000000,-57.180*2C
---00000012--- Acq_st=3 2019-4-28 07:52:39 
[00]  G01  f 44    650.9 2045999.2  1.0  1.0  5  0  28376931
[01]  G03  f 35  -2705.3 2046003.6  1.0  1.0  5  0  28376920
[02]  G17  f 41  -1614.9 2046002.1  1.0  1.0  5  0  28376924
[03]  G19  f 32  -2799.2 2046003.6  1.0  0.9  5  0  28376919
[04]  G22  f 40  -1676.5 2046002.2  1.0  1.0  5  0  28376920
[05]  G28  f 42  -2076.6 2046002.7  1.0  1.0  5  0  28376927
[06]  G07  1 33   2551.3 2045996.5  0.0  0.0  1  0         5
[07]  G11  1 16   1637.6 2045997.8 -0.0  0.0  1  0        11
[08]  G12  1  7  -3958.3 2046005.4  0.0  0.0  1  0         2
[09]  G13  1  7    443.4 2046000.5  0.1  0.0  1  0         0
[16]  B01 1f 40   -289.4 4092000.7  0.9  0.0  2  0  28362874
[17]  B02 1f 39   -334.6 4092000.8  1.0  0.0  2  0  28362875
[18]  B03 1f 42   -307.6 4092000.8  1.0  0.0  2  0  28362877
[19]  B04 1f 40   -304.5 4092000.9  0.9  0.0  2  0  28362869
[20]  B05 1f 36   -342.4 4092001.1  0.9  0.0  2  0  28362870
[21]  B07  7 43   -340.0 4092000.9  1.0  1.0  5  0      7439
[22]  B08  7 43   -549.9 4092001.4  1.0  1.0  5  0      7420
[23]  B10  7 44   -694.7 4092001.8  1.0  1.0  5  0      7379
[24]  B11 1f 43  -1420.3 4092003.7  1.0  1.0  5  0      7363
[25]  B13  7 43  -1057.4 4092002.8  1.0  1.0  5  0      7336
[26]  B21 1f 38  -2316.5 4092006.0  1.0  1.0  5  0      4971
[27]  B24 1f 46   1321.0 4091996.7  1.0  1.0  5  0      4285
[28]  B25 1f 44  -1829.4 4092004.8  1.0  1.0  5  0      4284
$GNGGA,075240.000,2944.8890,N,10633.0897,E,1,19,0.8,263.7,M,,,,0000*16
$GNRMC,075240.000,A,2944.8890,N,10633.0897,E,0.23,0.00,280419,,*1D
$GPGSA,A,3,01,03,17,19,22,28,,,,,,,0.9,0.8,0.4*31
$BDGSA,A,3,01,02,03,04,05,07,08,10,11,13,21,24,0.9,0.8,0.4*2E
$GPGSV,3,1,11,01,64,066,44,03,17,127,35,17,35,273,41,19,15,257,32*71
$GPGSV,3,2,11,22,21,104,40,28,48,331,42,07,42,181,00,08,16,056,00*7E
$GPGSV,3,3,11,11,53,041,00,18,38,046,00,30,63,235,00*48
$BDGSV,3,1,12,01,40,125,40,02,46,219,39,03,55,171,42,04,23,109,40*65
$BDGSV,3,2,12,05,27,244,36,07,65,101,43,08,83,174,43,10,78,008,44*6E
$BDGSV,3,3,12,11,49,262,43,13,55,208,43,21,04,128,38,24,63,168,46*61
$LOGTIM,3,-108.934291,-297.257931,0.000000,0.000000,-57.460*1E
---00000013--- Acq_st=3 2019-4-28 07:52:40 
[00]  G01  f 44    650.2 2045999.2  1.0  1.0  5  0  28377931
[01]  G03  f 35  -2707.4 2046003.6  1.0  1.0  5  0  28377920
[02]  G17  f 41  -1616.3 2046002.1  1.0  1.0  5  0  28377924
[03]  G19  f 32  -2800.8 2046003.6  1.0  1.0  5  0  28377919
[04]  G22  f 40  -1677.4 2046002.1  1.0  1.0  5  0  28377920
[05]  G28  f 43  -2078.0 2046002.7  1.0  1.0  5  0  28377927
[06]  G07  7 35   2552.0 2045996.7  0.8  1.0  5  0         8
[07]  G11  7 24   1618.8 2045997.9  0.0  0.0 20  0        11
[08]  G12  1  7  -3946.7 2046004.6 -0.0  0.0  1  0         2
[09]  G13  1 27    381.0 2045999.6  0.1  0.0  1  0        13
[10]  G18  1 24   2246.7 2045995.6 -0.0  0.0  1  0         0
[16]  B01 1f 40   -291.2 4092000.7  1.0  0.0  2  0  28363874
[17]  B02 1f 38   -336.9 4092000.8  0.9  0.0  2  0  28363875
[18]  B03 1f 43   -309.5 4092000.8  1.0  0.0  2  0  28363877
[19]  B04 1f 40   -306.4 4092000.7  0.9  0.0  2  0  28363869
[20]  B05 1f 37   -344.6 4092000.7  0.9  0.0  2  0  28363870
[21]  B07 1f 43   -341.8 4092000.9  1.0  1.0  5  0  28363879
[22]  B08 1f 43   -551.6 4092001.4  1.0  1.0  5  0  28363880
[23]  B10 1f 44   -696.7 4092001.8  1.0  1.0  5  0  28363879
[24]  B11 1f 43  -1422.5 4092003.7  1.0  1.0  5  0  28363923
[25]  B13 1f 43  -1059.2 4092002.8  1.0  1.0  5  0  28363876
[26]  B21 1f 38  -2318.4 4092006.0  1.0  1.0  5  0  28363911
[27]  B24 1f 46   1319.6 4091996.6  1.0  1.0  5  0  28363925
[28]  B25 1f 44  -1830.7 4092004.8  1.0  1.0  5  0  28363924
$GNGGA,075241.000,2944.8948,N,10633.0925,E,1,19,0.8,273.4,M,,,,0000*19
$GNRMC,075241.000,A,2944.8948,N,10633.0925,E,0.22,0.00,280419,,*11
$GPGSA,A,3,01,03,17,19,22,28,,,,,,,0.9,0.8,0.4*31
$BDGSA,A,3,01,02,03,04,05,07,08,10,11,13,21,24,0.9,0.8,0.4*2E
$GPGSV,3,1,11,01,64,066,44,03,17,127,35,17,35,273,41,19,15,257,32*71
$GPGSV,3,2,11,22,21,104,40,28,48,331,43,07,42,181,35,11,53,041,24*70
$GPGSV,3,3,11,08,16,056,00,18,38,046,00,30,63,235,00*47
$BDGSV,3,1,12,01,40,125,40,02,46,219,38,03,55,171,43,04,23,109,40*65
$BDGSV,3,2,12,05,27,244,37,07,65,101,43,08,83,174,43,10,78,008,44*6F
$BDGSV,3,3,12,11,49,262,43,13,55,208,43,21,04,128,38,24,63,168,46*61
$LOGTIM,3,-156.972186,-346.572631,0.000000,0.000000,-57.885*17
---00000014--- Acq_st=3 2019-4-28 07:52:41 
[00]  G01  f 43    649.0 2045999.2  1.0  1.0  5  0  28378931
[01]  G03  f 35  -2708.2 2046003.5  1.0  1.0  5  0  28378920
[02]  G17  f 40  -1617.8 2046002.1  1.0  1.0  5  0  28378924
[03]  G19  f 32  -2802.3 2046003.6  1.0  0.9  5  0  28378919
[04]  G22  f 40  -1679.2 2046002.2  1.0  1.0  5  0  28378920
[05]  G28  f 42  -2079.9 2046002.7  1.0  1.0  5  0  28378927
[06]  G07  7 45   2550.4 2045996.7  1.0  1.0  5  0         8
[07]  G11  7 43   1618.6 2045997.9  0.7  1.0  5  0         9
[08]  G12  1  7  -4012.3 2046004.8  0.1  0.0  1  0         2
[09]  G13  7 32    377.0 2045999.5  0.4  0.9  5  0        16
[10]  G18  7 25   2253.8 2045997.1  0.2  0.0 20  0         7
[11]  G30  1  7    685.1 2046001.4  0.0  0.0  1  0         0
[16]  B01 1f 40   -292.8 4092000.8  0.9  0.0  2  0  28364874
[17]  B02 1f 39   -338.9 4092000.9  0.9  0.0  2  0  28364875
[18]  B03 1f 41   -311.2 4092000.8  1.0  0.0  2  0  28364877
[19]  B04 1f 39   -308.1 4092000.8  0.9  0.0  2  0  28364869
[20]  B05 1f 35   -346.3 4092000.8  0.9  0.0  2  0  28364870
[21]  B07 1f 43   -343.5 4092000.9  1.0  1.0  5  0  28364879
[22]  B08 1f 43   -553.4 4092001.4  1.0  1.0  5  0  28364880
[23]  B10 1f 43   -698.3 4092001.8  1.0  1.0  5  0  28364879
[24]  B11 1f 43  -1423.6 4092003.7  1.0  1.0  5  0  28364923
[25]  B13 1f 43  -1060.8 4092002.8  1.0  1.0  5  0  28364876
[26]  B21 1f 38  -2320.6 4092006.0  1.0  1.0  5  0  28364911
[27]  B24 1f 46   1318.4 4091996.6  1.0  1.0  5  0  28364925
[28]  B25 1f 43  -1832.1 4092004.8  1.0  1.0  5  0  28364924
$GNGGA,075242.000,2944.9011,N,10633.0956,E,1,19,0.8,279.7,M,,,,0000*13
$GNRMC,075242.000,A,2944.9011,N,10633.0956,E,0.11,0.00,280419,,*12
$GPGSA,A,3,01,03,17,19,22,28,,,,,,,0.9,0.8,0.4*31
$BDGSA,A,3,01,02,03,04,05,07,08,10,11,13,21,24,0.9,0.8,0.4*2E
$GPGSV,3,1,12,01,64,066,43,03,17,127,35,17,35,273,40,19,15,257,32*74
$GPGSV,3,2,12,22,21,104,40,28,48,331,42,07,42,181,45,11,53,041,43*74
$GPGSV,3,3,12,13,00,000,32,18,38,046,25,08,16,056,00,30,63,235,00*70
$BDGSV,3,1,12,01,40,125,40,02,46,219,39,03,55,171,41,04,23,109,39*68
$BDGSV,3,2,12,05,27,244,36,07,65,101,43,08,83,174,43,10,78,008,43*69
$BDGSV,3,3,12,11,49,262,43,13,55,208,43,21,04,128,38,24,63,168,46*61
$LOGTIM,3,-207.627090,-401.117026,0.000000,0.000000,-57.757*1A
---00000015--- Acq_st=3 2019-4-28 07:52:42 
[00]  G01  f 43    652.2 2045999.2  1.0  1.0  5  0  28379931
[01]  G03  f 36  -2705.2 2046003.6  1.0  1.0  5  0  28379920
[02]  G17  f 41  -1614.7 2046002.1  1.0  1.0  5  0  28379924
[03]  G19  f 31  -2799.4 2046003.6  1.0  0.9  5  0  28379919
[04]  G22  f 40  -1675.9 2046002.2  1.0  1.0  5  0  28379920
[05]  G28  f 42  -2077.4 2046002.7  1.0  1.0  5  0  28379927
[06]  G07  7 44   2554.0 2045996.7  1.0  1.0  5  0         8
[07]  G11  7 42   1621.7 2045997.9  1.0  1.0  5  0         9
[09]  G13  7 34    380.2 2045999.5  1.0  1.0  5  0        16
[10]  G18  7 42   2257.3 2045997.1  0.9  1.0  5  0         7
[11]  G30  1 26    584.6 2045999.1 -0.0  0.0  1  0         1
[16]  B01 1f 40   -290.1 4092000.8  0.9  0.0  2  0  28365874
[17]  B02 1f 39   -335.8 4092000.8  0.9  0.0  2  0  28365875
[18]  B03 1f 42   -308.1 4092000.8  0.9  0.0  2  0  28365877
[19]  B04 1f 39   -304.9 4092000.7  0.9  0.0  2  0  28365869
[20]  B05 1f 37   -343.1 4092000.9  0.8  0.0  2  0  28365870
[21]  B07 1f 43   -340.6 4092000.9  1.0  1.0  5  0  28365879
[22]  B08 1f 43   -550.4 4092001.4  1.0  1.0  5  0  28365880
[23]  B10 1f 43   -695.5 4092001.8  1.0  1.0  5  0  28365879
[24]  B11 1f 43  -1420.4 4092003.7  1.0  1.0  5  0  28365923
[25]  B13 1f 43  -1058.0 4092002.7  1.0  1.0  5  0  28365876
[26]  B21 1f 38  -2317.9 4092006.1  1.0  1.0  5  0  28365911
[27]  B24 1f 46   1321.6 4091996.6  1.0  1.0  5  0  28365925
[28]  B25 1f 43  -1828.9 4092004.8  1.0  1.0  5  0  28365924
$GNGGA,075243.000,2944.8996,N,10633.0956,E,1,19,0.8,283.0,M,,,,0000*17
$GNRMC,075243.000,A,2944.8996,N,10633.0956,E,0.08,0.00,280419,,*1C
$GPGSA,A,3,01,03,17,19,22,28,,,,,,,0.9,0.8,0.4*31
$BDGSA,A,3,01,02,03,04,05,07,08,10,11,13,21,24,0.9,0.8,0.4*2E
$GPGSV,3,1,12,01,64,066,43,03,17,127,36,17,35,273,41,19,15,257,31*75
$GPGSV,3,2,12,22,21,104,40,28,48,331,42,07,42,181,44,11,53,041,42*74
$GPGSV,3,3,12,13,00,000,34,18,38,046,42,08,16,056,00,30,63,235,00*77
$BDGSV,3,1,12,01,40,125,40,02,46,219,39,03,55,171,42,04,23,109,39*6B
$BDGSV,3,2,12,05,27,244,37,07,65,101,43,08,83,174,43,10,78,008,43*68
$BDGSV,3,3,12,11,49,262,43,13,55,208,43,21,04,128,38,24,63,168,46*61
$LOGTIM,3,-262.448472,-453.571839,0.000000,0.000000,-57.124*1D
---00000016--- Acq_st=3 2019-4-28 07:52:43 
[00]  G01  f 42    655.0 2045999.1  1.0  1.0  5  0  28380931
[01]  G03  f 36  -2704.0 2046003.5  1.0  0.9  5  0  28380920
[02]  G17  f 40  -1613.1 2046002.1  1.0  1.0  5  0  28380924
[03]  G19  f 31  -2797.6 2046003.6  1.0  0.9  5  0  28380919
[04]  G22  f 39  -1674.1 2046002.2  1.0  1.0  5  0  28380920
[05]  G28  f 41  -2074.7 2046002.7  1.0  1.0  5  0  28380927
[06]  G07  f 44   2556.0 2045996.7  1.0  1.0  5  0         8
[07]  G11  f 42   1623.8 2045997.9  1.0  1.0  5  0         9
[09]  G13  f 35    381.8 2045999.5  1.0  0.9  5  0        16
[10]  G18  f 42   2260.2 2045997.1  1.0  1.0  5  0         7
[11]  G30  7 36    587.9 2045999.1  0.8  1.0  5  0        11
[16]  B01 1f 41   -288.3 4092000.7  0.9  0.0  2  0  28366874
[17]  B02 1f 40   -333.8 4092000.8  0.9  0.0  2  0  28366875
[18]  B03 1f 43   -306.2 4092000.7  1.0  0.0  2  0  28366877
[19]  B04 1f 40   -303.0 4092000.9  0.9  0.0  2  0  28366869
[20]  B05 1f 37   -341.6 4092000.9  0.9  0.0  2  0  28366870
[21]  B07 1f 43   -339.0 4092000.9  1.0  1.0  5  0  28366879
[22]  B08 1f 43   -548.4 4092001.4  1.0  1.0  5  0  28366880
[23]  B10 1f 43   -693.5 4092001.8  1.0  1.0  5  0  28366879
[24]  B11 1f 42  -1418.4 4092003.7  1.0  1.0  5  0  28366923
[25]  B13 1f 43  -1055.6 4092002.7  1.0  1.0  5  0  28366876
[26]  B21 1f 37  -2316.0 4092006.1  1.0  1.0  5  0  28366911
[27]  B24 1f 45   1324.1 4091996.5  1.0  1.0  5  0  28366925
[28]  B25 1f 44  -1826.7 4092004.8  1.0  1.0  5  0  28366924
[29]  B12  1  7   1870.5 4091994.9  0.1  0.0  1  0       650
$GNGGA,075244.000,2944.8984,N,10633.0955,E,1,22,0.7,294.1,M,,,,0000*10
$GNRMC,075244.000,A,2944.8984,N,10633.0955,E,0.15,0.00,280419,,*17
$GPGSA,A,3,01,03,07,11,17,18,19,22,28,,,,0.8,0.7,0.4*31
$BDGSA,A,3,01,02,03,04,05,07,08,10,11,13,21,24,0.8,0.7,0.4*20
$GPGSV,3,1,12,01,64,066,42,03,17,127,36,17,35,273,40,19,15,257,31*75
$GPGSV,3,2,12,22,21,104,39,28,48,331,41,07,42,181,44,11,53,041,42*79
$GPGSV,3,3,12,13,00,000,35,18,38,046,42,30,63,235,36,08,16,056,00*73
$BDGSV,3,1,12,01,40,125,41,02,46,219,40,03,55,171,43,04,23,109,40*6B
$BDGSV,3,2,12,05,27,244,37,07,65,101,43,08,83,174,43,10,78,008,43*68
$BDGSV,3,3,12,11,49,262,42,13,55,208,43,21,04,128,37,24,63,168,45*6C
$LOGTIM,3,-311.896528,-505.955099,0.000000,0.000000,-56.791*1A
---00000017--- Acq_st=3 2019-4-28 07:52:44 
[00]  G01  f 43    658.7 2045999.1  1.0  1.0  5  0  28381931
[01]  G03  f 35  -2700.6 2046003.5  1.0  0.9  5  0  28381920
[02]  G17  f 40  -1609.5 2046002.1  1.0  1.0  5  0  28381924
[03]  G19  f 31  -2794.6 2046003.6  1.0  0.9  5  0  28381919
[04]  G22  f 39  -1670.5 2046002.2  1.0  1.0  5  0  28381920
[05]  G28  f 42  -2071.7 2046002.7  1.0  1.0  5  0  28381927
[06]  G07  f 43   2559.5 2045996.7  1.0  1.0  5  0  28381928
[07]  G11  f 42   1627.3 2045997.9  1.0  1.0  5  0  28381929
[09]  G13  f 34    385.1 2045999.5  1.0  0.9  5  0  28381916
[10]  G18  f 41   2263.5 2045997.1  1.0  1.0  5  0  28381927
[11]  G30  7 44    591.8 2045999.2  1.0  1.0  5  0        11
[16]  B01 1f 41   -284.9 4092000.7  0.9  0.0  2  0  28367874
[17]  B02 1f 38   -330.7 4092000.8  0.9  0.0  2  0  28367875
[18]  B03 1f 43   -303.6 4092000.8  1.0  0.0  2  0  28367877
[19]  B04 1f 40   -300.1 4092000.8  0.9  0.0  2  0  28367869
[20]  B05 1f 37   -337.8 4092000.6  0.9  0.0  2  0  28367870
[21]  B07 1f 42   -335.1 4092000.9  1.0  1.0  5  0  28367879
[22]  B08 1f 43   -545.2 4092001.4  1.0  1.0  5  0  28367880
[23]  B10 1f 43   -690.4 4092001.8  1.0  1.0  5  0  28367879
[24]  B11 1f 43  -1415.2 4092003.7  1.0  1.0  5  0  28367923
[25]  B13 1f 43  -1052.9 4092002.7  1.0  1.0  5  0  28367876
[26]  B21 1f 37  -2312.9 4092006.1  1.0  1.0  5  0  28367911
[27]  B24 1f 46   1327.7 4091996.5  1.0  1.0  5  0  28367925
[28]  B25 1f 43  -1823.0 4092004.7  1.0  1.0  5  0  28367924
[29]  B12  7 31   1873.9 4091995.1  0.7  1.0  5  0      1641
$GNGGA,075245.000,2944.9072,N,10633.0881,E,1,22,0.7,288.6,M,,,,0000*12
$GNRMC,075245.000,A,2944.9072,N,10633.0881,E,0.26,0.00,280419,,*1F
$GPGSA,A,3,01,03,07,11,17,18,19,22,28,,,,0.8,0.7,0.4*31
$BDGSA,A,3,01,02,03,04,05,07,08,10,11,13,21,24,0.8,0.7,0.4*20
$GPGSV,3,1,12,01,64,066,43,03,17,127,35,17,35,273,40,19,15,257,31*77
$GPGSV,3,2,12,22,21,104,39,28,48,331,42,07,42,181,43,11,53,041,42*7D
$GPGSV,3,3,12,13,00,000,34,18,38,046,41,30,63,235,44,08,16,056,00*74
$BDGSV,3,1,12,01,40,125,41,02,46,219,38,03,55,171,43,04,23,109,40*64
$BDGSV,3,2,12,05,27,244,37,07,65,101,42,08,83,174,43,10,78,008,43*69
$BDGSV,3,3,12,11,49,262,43,13,55,208,43,21,04,128,37,24,63,168,46*6E
$LOGTIM,3,-368.198772,-566.347270,0.000000,0.000000,-56.447*1F
---00000018--- Acq_st=3 2019-4-28 07:52:45 
[00]  G01  f 43    660.9 2045999.1  1.0  1.0  5  0  28382931
[01]  G03  f 34  -2698.5 2046003.5  1.0  1.0  5  0  28382920
[02]  G17  f 41  -1607.6 2046002.1  1.0  1.0  5  0  28382924
[03]  G19  f 31  -2792.5 2046003.6  1.0  0.9  5  0  28382919
[04]  G22  f 40  -1668.4 2046002.1  1.0  1.0  5  0  28382920
[05]  G28  f 42  -2070.2 2046002.7  1.0  1.0  5  0  28382927
[06]  G07  f 44   2561.4 2045996.7  1.0  1.0  5  0  28382928
[07]  G11  f 41   1629.4 2045997.9  1.0  1.0  5  0  28382929
[09]  G13  f 35    388.6 2045999.5  1.0  1.0  5  0  28382916
[10]  G18  f 42   2265.7 2045997.0  1.0  1.0  5  0  28382927
[11]  G30  7 44    593.9 2045999.2  1.0  1.0  5  0        11
[16]  B01 1f 39   -283.3 4092000.8  1.0  0.0  2  0  28368874
[17]  B02 1f 39   -329.0 4092000.9  0.9  0.0  2  0  28368875
[18]  B03 1f 42   -301.6 4092000.9  1.0  0.0  2  0  28368877
[19]  B04 1f 39   -298.5 4092000.8  0.9  0.0  2  0  28368869
[20]  B05 1f 37   -336.4 4092000.8  0.9  0.0  2  0  28368870
[21]  B07 1f 43   -333.8 4092000.9  1.0  1.0  5  0  28368879
[22]  B08 1f 43   -543.3 4092001.4  1.0  1.0  5  0  28368880
[23]  B10 1f 43   -688.9 4092001.8  1.0  1.0  5  0  28368879
[24]  B11 1f 43  -1413.2 4092003.7  1.0  1.0  5  0  28368923
[25]  B13 1f 43  -1050.8 4092002.7  1.0  1.0  5  0  28368876
[26]  B21 1f 38  -2311.6 4092006.1  1.0  1.0  5  0  28368911
[27]  B24 1f 46   1329.7 4091996.5  1.0  1.0  5  0  28368925
[28]  B25 1f 44  -1821.1 4092004.8  1.0  1.0  5  0  28368924
[29]  B12 1f 42   1875.3 4091995.1  1.0  1.0  5  0      2641
$GNGGA,075246.000,2944.9091,N,10633.0898,E,1,23,0.6,281.5,M,,,,0000*1E
$GNRMC,075246.000,A,2944.9091,N,10633.0898,E,0.12,0.00,280419,,*1E
$GPGSA,A,3,01,03,07,11,17,18,19,22,28,,,,0.7,0.6,0.4*3F
$BDGSA,A,3,01,02,03,04,05,07,08,10,11,12,13,21,0.7,0.6,0.4*2B
$GPGSV,3,1,12,01,64,066,43,03,17,127,34,17,35,273,41,19,15,257,31*77
$GPGSV,3,2,12,22,21,104,40,28,48,331,42,07,42,181,44,11,53,041,41*77
$GPGSV,3,3,12,13,00,000,35,18,38,046,42,30,63,235,44,08,16,056,00*76
$BDGSV,3,1,12,01,40,125,39,02,46,219,39,03,55,171,42,04,23,109,39*65
$BDGSV,3,2,12,05,27,244,37,07,65,101,43,08,83,174,43,10,78,008,43*68
$BDGSV,3,3,12,11,49,262,43,13,55,208,43,21,04,128,38,24,63,168,46*61
$LOGTIM,3,-424.897107,-621.489959,0.000000,0.000000,-56.313*11
---00000019--- Acq_st=3 2019-4-28 07:52:46 
[00]  G01  f 43    662.8 2045999.1  1.0  1.0  5  0  28383931
[01]  G03  f 35  -2696.9 2046003.5  1.0  1.0  5  0  28383920
[02]  G17  f 40  -1606.1 2046002.1  1.0  1.0  5  0  28383924
[03]  G19  f 32  -2790.6 2046003.6  1.0  0.9  5  0  28383919
[04]  G22  f 40  -1667.2 2046002.2  1.0  1.0  5  0  28383920
[05]  G28  f 41  -2069.0 2046002.7  1.0  1.0  5  0  28383927
[06]  G07  f 44   2562.9 2045996.7  1.0  1.0  5  0  28383928
[07]  G11  f 42   1631.7 2045997.8  1.0  1.0  5  0  28383929
[09]  G13  f 34    389.2 2045999.5  1.0  0.9  5  0  28383916
[10]  G18  f 42   2267.4 2045997.1  1.0  1.0  5  0  28383927
[11]  G30  7 44    596.0 2045999.2  1.0  1.0  5  0        11
[16]  B01 1f 41   -282.3 4092000.7  1.0  0.0  2  0  28369874
[17]  B02 1f 38   -327.8 4092001.0  0.9  0.0  2  0  28369875
[18]  B03 1f 41   -300.2 4092000.7  1.0  0.0  2  0  28369877
[19]  B04 1f 39   -296.8 4092000.7  0.9  0.0  2  0  28369869
[20]  B05 1f 36   -335.2 4092001.1  0.9  0.0  2  0  28369870
[21]  B07 1f 43   -332.2 4092000.9  1.0  1.0  5  0  28369879
[22]  B08 1f 43   -541.6 4092001.4  1.0  1.0  5  0  28369880
[23]  B10 1f 44   -687.4 4092001.7  1.0  1.0  5  0  28369879
[24]  B11 1f 43  -1411.5 4092003.7  1.0  1.0  5  0  28369923
[25]  B13 1f 43  -1049.3 4092002.7  1.0  1.0  5  0  28369876
[26]  B21 1f 37  -2310.1 4092006.0  1.0  1.0  5  0  28369911
[27]  B24 1f 46   1331.4 4091996.5  1.0  1.0  5  0  28369925
[28]  B25 1f 44  -1819.1 4092004.7  1.0  1.0  5  0  28369924
[29]  B12 1f 41   1876.5 4091995.1  1.0  1.0  5  0  28369921
$GNGGA,075247.000,2944.9123,N,10633.0924,E,1,23,0.6,281.6,M,,,,0000*12
$GNRMC,075247.000,A,2944.9123,N,10633.0924,E,0.14,0.00,280419,,*17
$GPGSA,A,3,01,03,07,11,17,18,19,22,28,,,,0.7,0.6,0.4*3F
$BDGSA,A,3,01,02,03,04,05,07,08,10,11,12,13,21,0.7,0.6,0.4*2B
$GPGSV,3,1,12,01,64,066,43,03,17,127,35,17,35,273,40,19,15,257,32*74
$GPGSV,3,2,12,22,21,104,40,28,48,331,41,07,42,181,44,11,53,041,42*77
$GPGSV,3,3,12,13,00,000,34,18,38,046,42,30,63,235,44,08,16,056,00*77
$BDGSV,3,1,12,01,40,125,41,02,46,219,38,03,55,171,41,04,23,109,39*68
$BDGSV,3,2,12,05,27,244,36,07,65,101,43,08,83,174,43,10,78,008,44*6E
$BDGSV,3,3,12,11,49,262,43,13,55,208,43,21,04,128,37,24,63,168,46*6E
$LOGTIM,3,-480.687844,-678.011822,0.000000,0.000000,-56.001*1A
---00000020--- Acq_st=3 2019-4-28 07:52:47 
[00]  G01  f 42    664.9 2045999.1  1.0  1.0  5  0  28384931
[01]  G03  f 35  -2696.5 2046003.5  1.0  1.0  5  0  28384920
[02]  G17  f 40  -1604.6 2046002.1  1.0  1.0  5  0  28384924
[03]  G19  f 32  -2789.3 2046003.6  1.0  0.9  5  0  28384919
[04]  G22  f 39  -1665.3 2046002.2  1.0  1.0  5  0  28384920
[05]  G28  f 42  -2067.6 2046002.7  1.0  1.0  5  0  28384927
[06]  G07  f 43   2564.6 2045996.7  1.0  1.0  5  0  28384928
[07]  G11  f 42   1632.7 2045997.9  1.0  1.0  5  0  28384929
[09]  G13  f 34    390.4 2045999.5  1.0  1.0  5  0  28384916
[10]  G18  f 42   2268.8 2045997.1  1.0  1.0  5  0  28384927
[11]  G30  7 44    597.9 2045999.2  1.0  1.0  5  0        11
[16]  B01 1f 40   -281.2 4092000.8  0.9  0.0  2  0  28370874
[17]  B02 1f 39   -327.0 4092000.9  0.9  0.0  2  0  28370875
[18]  B03 1f 42   -299.6 4092000.8  0.9  0.0  2  0  28370877
[19]  B04 1f 40   -296.3 4092000.7  0.9  0.0  2  0  28370869
[20]  B05 1f 36   -334.4 4092000.9  0.9  0.0  2  0  28370870
[21]  B07 1f 42   -331.0 4092000.9  1.0  1.0  5  0  28370879
[22]  B08 1f 43   -540.5 4092001.4  1.0  1.0  5  0  28370880
[23]  B10 1f 43   -686.6 4092001.8  1.0  1.0  5  0  28370879
[24]  B11 1f 42  -1410.5 4092003.7  1.0  1.0  5  0  28370923
[25]  B13 1f 43  -1048.5 4092002.8  1.0  1.0  5  0  28370876
[26]  B21 1f 38  -2308.8 4092006.0  1.0  1.0  5  0  28370911
[27]  B24 1f 45   1332.7 4091996.5  1.0  1.0  5  0  28370925
[28]  B25 1f 43  -1817.9 4092004.7  1.0  1.0  5  0  28370924
[29]  B12 1f 40   1877.7 4091995.1  1.0  1.0  5  0  28370921
$GNGGA,075248.000,2944.9130,N,10633.0898,E,1,23,0.6,280.1,M,,,,0000*1F
$GNRMC,075248.000,A,2944.9130,N,10633.0898,E,0.04,0.00,280419,,*1D
$GPGSA,A,3,01,03,07,11,17,18,19,22,28,,,,0.7,0.6,0.4*3F
$BDGSA,A,3,01,02,03,04,05,07,08,10,11,12,13,21,0.7,0.6,0.4*2B
$GPGSV,3,1,12,01,64,066,42,03,17,127,35,17,35,273,40,19,15,257,32*75
$GPGSV,3,2,12,22,21,104,39,28,48,331,42,07,42,181,43,11,53,041,42*7D
$GPGSV,3,3,12,13,00,000,34,18,38,046,42,30,63,235,44,08,16,056,00*77
$BDGSV,3,1,12,01,40,125,40,02,46,219,39,03,55,171,42,04,23,109,40*65
$BDGSV,3,2,12,05,27,244,36,07,65,101,42,08,83,174,43,10,78,008,43*68
$BDGSV,3,3,12,11,49,262,42,13,55,208,43,21,04,128,38,24,63,168,45*63
$LOGTIM,3,-537.440981,-733.585030,0.000000,0.000000,-56.478*11
---00000021--- Acq_st=7 2019-4-28 07:52:48 
[00]  G01  f 43    661.1 2045999.2  1.0  1.0  5  0  28385931
[01]  G03  f 35  -2700.1 2046003.5  1.0  1.0  5  0  28385920
[02]  G17  f 40  -1609.1 2046002.1  1.0  1.0  5  0  28385924
[03]  G19  f 31  -2793.0 2046003.6  1.0  1.0  5  0  28385919
[04]  G22  f 39  -1669.6 2046002.2  1.0  1.0  5  0  28385920
[05]  G28  f 42  -2071.9 2046002.7  1.0  1.0  5  0  28385927
[06]  G07  f 44   2560.8 2045996.7  1.0  1.0  5  0  28385928
[07]  G11  f 42   1628.8 2045997.9  1.0  1.0  5  0  28385929
[09]  G13  f 34    386.9 2045999.5  1.0  1.0  5  0  28385916
[10]  G18  f 41   2264.9 2045997.0  1.0  1.0  5  0  28385927
[11]  G30  7 44    594.0 2045999.2  1.0  1.0  5  0        11
[16]  B01 1f 40   -284.9 4092000.6  1.0  0.0  2  0  28371874
[17]  B02 1f 40   -331.1 4092000.9  0.9  0.0  2  0  28371875
[18]  B03 1f 43   -303.3 4092000.7  1.0  0.0  2  0  28371877
[19]  B04 1f 40   -300.4 4092000.7  0.9  0.0  2  0  28371869
[20]  B05 1f 36   -337.7 4092001.0  0.9  0.0  2  0  28371870
[21]  B07 1f 42   -335.1 4092000.9  1.0  1.0  5  0  28371879
[22]  B08 1f 42   -544.5 4092001.4  1.0  1.0  5  0  28371880
[23]  B10 1f 43   -690.4 4092001.8  1.0  1.0  5  0  28371879
[24]  B11 1f 42  -1414.0 4092003.7  1.0  1.0  5  0  28371923
[25]  B13 1f 43  -1051.8 4092002.7  1.0  1.0  5  0  28371876
[26]  B21 1f 37  -2313.2 4092006.1  1.0  1.0  5  0  28371911
[27]  B24 1f 46   1329.3 4091996.5  1.0  1.0  5  0  28371925
[28]  B25 1f 43  -1821.2 4092004.8  1.0  1.0  5  0  28371924
[29]  B12 1f 41   1873.3 4091995.1  1.0  1.0  5  0  28371921
$GNGGA,075249.000,2944.9118,N,10633.0887,E,1,23,0.6,281.0,M,,,,0000*1A
$GNRMC,075249.000,A,2944.9118,N,10633.0887,E,0.13,0.00,280419,,*1E
$GPGSA,A,3,01,03,07,11,17,18,19,22,28,,,,0.7,0.6,0.4*3F
$BDGSA,A,3,01,02,03,04,05,07,08,10,11,12,13,21,0.7,0.6,0.4*2B
$GPGSV,3,1,12,01,64,066,43,03,17,127,35,17,35,273,40,19,15,257,31*77
$GPGSV,3,2,12,22,21,104,39,28,48,331,42,07,42,181,44,11,53,041,42*7A
$GPGSV,3,3,12,13,00,000,34,18,38,046,41,30,63,235,44,08,16,056,00*74
$BDGSV,3,1,12,01,40,125,40,02,46,219,40,03,55,171,43,04,23,109,40*6A
$BDGSV,3,2,12,05,27,244,36,07,65,101,42,08,83,174,42,10,78,008,43*69
$BDGSV,3,3,12,11,49,262,42,13,55,208,43,21,04,128,37,24,63,168,46*6F
$LOGTIM,3,-593.840516,-788.910611,0.000000,0.000000,-56.910*17
---00000022--- Acq_st=7 2019-4-28 07:52:49 
[00]  G01  f 42    660.2 2045999.1  1.0  1.0  5  0  28386931
[01]  G03  f 35  -2702.5 2046003.5  0.9  0.9  5  0  28386920
[02]  G17  f 40  -1610.4 2046002.1  1.0  1.0  5  0  28386924
[03]  G19  f 31  -2794.6 2046003.7  0.9  0.9  5  0  28386919
[04]  G22  f 39  -1670.7 2046002.2  1.0  1.0  5  0  28386920
[05]  G28  f 41  -2073.5 2046002.7  1.0  1.0  5  0  28386927
[06]  G07  f 42   2559.4 2045996.7  1.0  1.0  5  0  28386928
[07]  G11  f 41   1627.1 2045997.9  1.0  0.9  5  0  28386929
[09]  G13  f 35    385.8 2045999.5  1.0  1.0  5  0  28386916
[10]  G18  f 41   2263.7 2045997.0  1.0  1.0  5  0  28386927
[11]  G30  f 43    592.8 2045999.2  1.0  1.0  5  0        11
[16]  B01 1f 41   -287.3 4092000.7  0.9  0.0  2  0  28372874
[17]  B02 1f 39   -332.9 4092000.8  0.9  0.0  2  0  28372875
[18]  B03 1f 43   -305.5 4092000.8  1.0  0.0  2  0  28372877
[19]  B04 1f 40   -302.5 4092000.7  0.9  0.0  2  0  28372869
[20]  B05 1f 36   -340.6 4092000.9  0.9  0.0  2  0  28372870
[21]  B07 1f 42   -336.9 4092000.8  1.0  1.0  5  0  28372879
[22]  B08 1f 42   -546.6 4092001.4  1.0  1.0  5  0  28372880
[23]  B10 1f 43   -692.6 4092001.8  1.0  1.0  5  0  28372879
[24]  B11 1f 42  -1415.9 4092003.7  1.0  1.0  5  0  28372923
[25]  B13 1f 43  -1054.0 4092002.8  1.0  1.0  5  0  28372876
[26]  B21 1f 38  -2315.6 4092006.0  1.0  1.0  5  0  28372911
[27]  B24 1f 45   1327.5 4091996.5  1.0  1.0  5  0  28372925
[28]  B25 1f 43  -1823.0 4092004.8  1.0  1.0  5  0  28372924
[29]  B12 1f 41   1871.1 4091995.1  1.0  1.0  5  0  28372921
$GNGGA,075250.000,2944.9118,N,10633.0893,E,1,24,0.6,288.2,M,,,,0000*1B
$GNRMC,075250.000,A,2944.9118,N,10633.0893,E,0.12,0.00,280419,,*12
$GPGSA,A,3,01,03,07,11,17,18,19,22,28,30,,,0.7,0.6,0.4*3C
$BDGSA,A,3,01,02,03,04,05,07,08,10,11,12,13,21,0.7,0.6,0.4*2B
$GPGSV,3,1,12,01,64,066,42,03,17,127,35,17,35,273,40,19,15,257,31*76
$GPGSV,3,2,12,22,21,104,39,28,48,331,41,07,42,181,42,11,53,041,41*7C
$GPGSV,3,3,12,13,00,000,35,18,38,046,41,30,63,235,43,08,16,056,00*72
$BDGSV,3,1,12,01,40,125,41,02,46,219,39,03,55,171,43,04,23,109,40*65
$BDGSV,3,2,12,05,27,244,37,07,65,101,42,08,83,174,42,10,78,008,43*68
$BDGSV,3,3,12,11,49,262,42,13,55,208,43,21,04,128,38,24,63,168,45*63
$LOGTIM,3,-647.130056,-840.657397,0.000000,0.000000,-56.929*14
---00000023--- Acq_st=3 2019-4-28 07:52:50 
[00]  G01  f 42    661.2 2045999.1  1.0  1.0  5  0  28387931
[01]  G03  f 35  -2701.7 2046003.5  1.0  1.0  5  0  28387920
[02]  G17  f 40  -1610.2 2046002.1  1.0  1.0  5  0  28387924
[03]  G19  f 32  -2794.7 2046003.6  1.0  0.9  5  0  28387919
[04]  G22  f 39  -1670.0 2046002.2  1.0  1.0  5  0  28387920
[05]  G28  f 41  -2073.2 2046002.7  1.0  1.0  5  0  28387927
[06]  G07  f 43   2560.3 2045996.7  1.0  1.0  5  0  28387928
[07]  G11  f 42   1628.2 2045997.9  1.0  1.0  5  0  28387929
[09]  G13  f 34    386.5 2045999.5  1.0  1.0  5  0  28387916
[10]  G18  f 42   2264.9 2045997.1  1.0  1.0  5  0  28387927
[11]  G30  f 44    593.9 2045999.2  1.0  1.0  5  0  28387931
[16]  B01 1f 40   -287.0 4092000.7  1.0  0.0  2  0  28373874
[17]  B02 1f 39   -332.6 4092000.9  0.9  0.0  2  0  28373875
[18]  B03 1f 42   -305.4 4092000.8  1.0  0.0  2  0  28373877
[19]  B04 1f 40   -301.8 4092000.8  0.9  0.0  2  0  28373869
[20]  B05 1f 38   -340.4 4092000.8  0.9  0.0  2  0  28373870
[21]  B07 1f 43   -336.8 4092000.9  1.0  1.0  5  0  28373879
[22]  B08 1f 43   -546.2 4092001.4  1.0  1.0  5  0  28373880
[23]  B10 1f 43   -692.1 4092001.8  1.0  1.0  5  0  28373879
[24]  B11 1f 43  -1415.2 4092003.7  1.0  1.0  5  0  28373923
[25]  B13 1f 43  -1053.6 4092002.8  1.0  1.0  5  0  28373876
[26]  B21 1f 37  -2315.3 4092006.1  1.0  1.0  5  0  28373911
[27]  B24 1f 46   1328.5 4091996.5  1.0  1.0  5  0  28373925
[28]  B25 1f 44  -1822.1 4092004.8  1.0  1.0  5  0  28373924
[29]  B12 1f 41   1872.2 4091995.1  1.0  1.0  5  0  28373921
$GNGGA,075251.000,2944.9150,N,10633.0887,E,1,24,0.6,291.3,M,,,,0000*1A
$GNRMC,075251.000,A,2944.9150,N,10633.0887,E,0.07,0.00,280419,,*1E
$GPGSA,A,3,01,03,07,11,17,18,19,22,28,30,,,0.7,0.6,0.4*3C
$BDGSA,A,3,01,02,03,04,05,07,08,10,11,12,13,21,0.7,0.6,0.4*2B
$GPGSV,3,1,12,01,64,066,42,03,17,127,35,17,35,273,40,19,15,257,32*75
$GPGSV,3,2,12,22,21,104,39,28,48,331,41,07,42,181,43,11,53,041,42*7E
$GPGSV,3,3,12,13,00,000,34,18,38,046,42,30,63,235,44,08,16,056,00*77
$BDGSV,3,1,12,01,40,125,40,02,46,219,39,03,55,171,42,04,23,109,40*65
$BDGSV,3,2,12,05,27,244,38,07,65,101,43,08,83,174,43,10,78,008,43*67
$BDGSV,3,3,12,11,49,262,43,13,55,208,43,21,04,128,37,24,63,168,46*6E
$LOGTIM,3,-704.597997,-898.998645,0.000000,0.000000,-56.941*12
---00000024--- Acq_st=3 2019-4-28 07:52:51 
[00]  G01  f 43    659.4 2045999.1  1.0  1.0  5  0  28388931
[01]  G03  f 35  -2703.6 2046003.5  1.0  1.0  5  0  28388920
[02]  G17  f 40  -1611.7 2046002.1  1.0  1.0  5  0  28388924
[03]  G19  f 32  -2796.4 2046003.6  1.0  0.9  5  0  28388919
[04]  G22  f 40  -1671.8 2046002.2  1.0  1.0  5  0  28388920
[05]  G28  f 41  -2075.2 2046002.7  1.0  1.0  5  0  28388927
[06]  G07  f 44   2558.3 2045996.7  1.0  1.0  5  0  28388928
[07]  G11  f 42   1626.6 2045997.9  1.0  1.0  5  0  28388929
[09]  G13  f 34    385.1 2045999.5  1.0  1.0  5  0  28388916
[10]  G18  f 41   2263.0 2045997.1  1.0  1.0  5  0  28388927
[11]  G30  f 44    592.3 2045999.2  1.0  1.0  5  0  28388931
[16]  B01 1f 40   -288.5 4092000.7  0.9  0.0  2  0  28374874
[17]  B02 1f 38   -334.2 4092000.8  0.9  0.0  2  0  28374875
[18]  B03 1f 42   -306.8 4092000.8  1.0  0.0  2  0  28374877
[19]  B04 1f 39   -303.5 4092000.8  0.9  0.0  2  0  28374869
[20]  B05 1f 37   -341.3 4092000.9  0.9  0.0  2  0  28374870
[21]  B07 1f 43   -338.2 4092000.9  1.0  1.0  5  0  28374879
[22]  B08 1f 43   -547.0 4092001.4  1.0  1.0  5  0  28374880
[23]  B10 1f 43   -693.4 4092001.8  1.0  1.0  5  0  28374879
[24]  B11 1f 42  -1416.5 4092003.7  1.0  1.0  5  0  28374923
[25]  B13 1f 43  -1055.2 4092002.8  1.0  1.0  5  0  28374876
[26]  B21 1f 37  -2317.5 4092006.1  1.0  1.0  5  0  28374911
[27]  B24 1f 45   1327.1 4091996.5  1.0  1.0  5  0  28374925
[28]  B25 1f 43  -1823.2 4092004.7  1.0  1.0  5  0  28374924
[29]  B12 1f 41   1870.3 4091995.1  1.0  1.0  5  0  28374921
$GNGGA,075252.000,2944.9155,N,10633.0869,E,1,24,0.6,290.2,M,,,,0000*1C
$GNRMC,075252.000,A,2944.9155,N,10633.0869,E,0.04,0.00,280419,,*1B
$GPGSA,A,3,01,03,07,11,17,18,19,22,28,30,,,0.7,0.6,0.4*3C
$BDGSA,A,3,01,02,03,04,05,07,08,10,11,12,13,21,0.7,0.6,0.4*2B
$GPGSV,3,1,12,01,64,065,43,03,17,127,35,17,36,273,40,19,15,257,32*74
$GPGSV,3,2,12,22,22,104,40,28,48,331,41,07,42,181,44,11,53,041,42*74
$GPGSV,3,3,12,13,00,000,34,18,38,046,41,30,63,234,44,08,16,057,00*74
$BDGSV,3,1,12,01,40,125,40,02,46,219,39,03,55,171,42,04,23,109,39*6B
$BDGSV,3,2,12,05,27,244,37,07,65,101,43,08,83,174,43,10,78,008,43*68
$BDGSV,3,3,12,11,49,262,42,13,55,208,43,21,04,128,37,24,63,168,45*6C
$LOGTIM,3,-763.288462,-957.708260,0.000000,0.000000,-57.353*13
---00000025--- Acq_st=3 2019-4-28 07:52:52 
[00]  G01  f 43    660.1 2045999.2  1.0  1.0  5  0  28389931
[01]  G03  f 34  -2702.7 2046003.5  1.0  1.0  5  0  28389920
[02]  G17  f 41  -1611.7 2046002.1  1.0  1.0  5  0  28389924
[03]  G19  f 32  -2796.8 2046003.7  1.0  0.9  5  0  28389919
[04]  G22  f 40  -1671.9 2046002.2  1.0  1.0  5  0  28389920
[05]  G28  f 42  -2075.1 2046002.7  1.0  1.0  5  0  28389927
[06]  G07  f 44   2558.9 2045996.7  1.0  1.0  5  0  28389928
[07]  G11  f 42   1626.8 2045997.9  1.0  1.0  5  0  28389929
[09]  G13  f 35    385.4 2045999.5  1.0  0.9  5  0  28389916
[10]  G18  f 42   2263.4 2045997.1  1.0  1.0  5  0  28389927
[11]  G30  f 44    592.9 2045999.2  1.0  1.0  5  0  28389931
[16]  B01 1f 40   -288.6 4092000.8  0.9  0.0  2  0  28375874
[17]  B02 1f 39   -334.5 4092001.0  0.9  0.0  2  0  28375875
[18]  B03 1f 41   -307.1 4092000.8  1.0  0.0  2  0  28375877
[19]  B04 1f 39   -304.1 4092000.7  0.9  0.0  2  0  28375869
[20]  B05 1f 37   -342.2 4092001.0  0.9  0.0  2  0  28375870
[21]  B07 1f 43   -338.7 4092000.9  1.0  1.0  5  0  28375879
[22]  B08 1f 43   -547.6 4092001.4  1.0  1.0  5  0  28375880
[23]  B10 1f 43   -693.7 4092001.8  1.0  1.0  5  0  28375879
[24]  B11 1f 42  -1416.4 4092003.7  1.0  1.0  5  0  28375923
[25]  B13 1f 43  -1055.4 4092002.8  1.0  1.0  5  0  28375876
[26]  B21 1f 38  -2317.6 4092006.1  1.0  1.0  5  0  28375911
[27]  B24 1f 46   1327.3 4091996.5  1.0  1.0  5  0  28375925
[28]  B25 1f 43  -1823.7 4092004.8  1.0  1.0  5  0  28375924
[29]  B12 1f 40   1870.6 4091995.1  1.0  1.0  5  0  28375921
$GNGGA,075253.000,2944.9118,N,10633.0893,E,1,24,0.6,298.4,M,,,,0000*1F
$GNRMC,075253.000,A,2944.9118,N,10633.0893,E,0.17,0.00,280419,,*14
$GPGSA,A,3,01,03,07,11,17,18,19,22,28,30,,,0.7,0.6,0.4*3C
$BDGSA,A,3,01,02,03,04,05,07,08,10,11,12,13,21,0.7,0.6,0.4*2B
$GPGSV,3,1,12,01,64,065,43,03,17,127,34,17,36,273,41,19,15,257,32*74
$GPGSV,3,2,12,22,22,104,40,28,48,331,42,07,42,181,44,11,53,041,42*77
$GPGSV,3,3,12,13,00,000,35,18,38,046,42,30,63,234,44,08,16,057,00*76
$BDGSV,3,1,12,01,40,125,40,02,46,219,39,03,55,171,41,04,23,109,39*68
$BDGSV,3,2,12,05,27,244,37,07,65,101,43,08,83,174,43,10,78,008,43*68
$BDGSV,3,3,12,11,49,262,42,13,55,208,43,21,04,128,38,24,63,168,46*60
$LOGTIM,3,-818.263400,-1013.422743,0.000000,0.000000,-57.453*21
---00000026--- Acq_st=3 2019-4-28 07:52:53 
[00]  G01  f 42    659.6 2045999.2  1.0  1.0  5  0  28390931
[01]  G03  f 35  -2704.3 2046003.6  0.9  1.0  5  0  28390920
[02]  G17  f 40  -1612.2 2046002.1  1.0  1.0  5  0  28390924
[03]  G19  f 32  -2797.5 2046003.6  1.0  0.9  5  0  28390919
[04]  G22  f 39  -1672.3 2046002.2  1.0  1.0  5  0  28390920
[05]  G28  f 41  -2076.3 2046002.7  1.0  1.0  5  0  28390927
[06]  G07  f 42   2558.1 2045996.7  1.0  1.0  5  0  28390928
[07]  G11  f 42   1626.4 2045997.9  1.0  1.0  5  0  28390929
[09]  G13  f 35    384.9 2045999.5  1.0  0.9  5  0  28390916
[10]  G18  f 41   2262.6 2045997.1  1.0  1.0  5  0  28390927
[11]  G30  f 43    592.4 2045999.2  1.0  1.0  5  0  28390931
[16]  B01 1f 39   -289.9 4092000.7  0.9  0.0  2  0  28376874
[17]  B02 1f 40   -335.8 4092000.8  0.9  0.0  2  0  28376875
[18]  B03 1f 41   -308.0 4092000.7  0.9  0.0  2  0  28376877
[19]  B04 1f 39   -305.0 4092000.8  0.9  0.0  2  0  28376869
[20]  B05 1f 37   -343.2 4092000.9  0.9  0.0  2  0  28376870
[21]  B07 1f 42   -339.1 4092000.9  1.0  1.0  5  0  28376879
[22]  B08 1f 42   -548.3 4092001.4  1.0  1.0  5  0  28376880
[23]  B10 1f 43   -694.4 4092001.8  1.0  1.0  5  0  28376879
[24]  B11 1f 42  -1417.0 4092003.7  1.0  1.0  5  0  28376923
[25]  B13 1f 43  -1055.9 4092002.7  1.0  1.0  5  0  28376876
[26]  B21 1f 37  -2319.1 4092006.1  1.0  1.0  5  0  28376911
[27]  B24 1f 45   1326.9 4091996.5  1.0  1.0  5  0  28376925
[28]  B25 1f 43  -1824.0 4092004.8  1.0  1.0  5  0  28376924
[29]  B12 1f 40   1869.2 4091995.1  1.0  1.0  5  0  28376921
$GNGGA,075254.000,2944.9081,N,10633.0910,E,1,24,0.6,303.5,M,,,,0000*11
$GNRMC,075254.000,A,2944.9081,N,10633.0910,E,0.21,0.00,280419,,*1D
$GPGSA,A,3,01,03,07,11,17,18,19,22,28,30,,,0.7,0.6,0.4*3C
$BDGSA,A,3,01,02,03,04,05,07,08,10,11,12,13,21,0.7,0.6,0.4*2B
$GPGSV,3,1,12,01,64,065,42,03,17,127,35,17,36,273,40,19,15,257,32*75
$GPGSV,3,2,12,22,22,104,39,28,48,331,41,07,42,181,42,11,53,041,42*7C
$GPGSV,3,3,12,13,00,000,35,18,38,046,41,30,63,234,43,08,16,057,00*72
$BDGSV,3,1,12,01,40,125,39,02,46,219,40,03,55,171,41,04,23,109,39*68
$BDGSV,3,2,12,05,27,244,37,07,65,101,42,08,83,174,42,10,78,008,43*68
$BDGSV,3,3,12,11,49,262,42,13,55,208,43,21,04,128,37,24,63,168,45*6C
$LOGTIM,3,-874.974217,-1071.118655,0.000000,0.000000,-57.357*2B
---00000027--- Acq_st=3 2019-4-28 07:52:54 
[00]  G01  f 42    660.3 2045999.1  1.0  1.0  5  0  28391931
[01]  G03  f 35  -2704.3 2046003.5  1.0  1.0  5  0  28391920
[02]  G17  f 40  -1612.4 2046002.1  1.0  1.0  5  0  28391924
[03]  G19  f 32  -2797.2 2046003.6  1.0  0.9  5  0  28391919
[04]  G22  f 39  -1672.1 2046002.2  1.0  1.0  5  0  28391920
[05]  G28  f 41  -2076.4 2046002.7  1.0  1.0  5  0  28391927
[06]  G07  f 43   2558.3 2045996.7  1.0  1.0  5  0  28391928
[07]  G11  f 42   1626.3 2045997.9  1.0  1.0  5  0  28391929
[09]  G13  f 35    385.6 2045999.5  1.0  0.9  5  0  28391916
[10]  G18  f 41   2263.0 2045997.0  1.0  1.0  5  0  28391927
[11]  G30  f 43    593.1 2045999.2  1.0  1.0  5  0  28391931
[16]  B01 1f 40   -289.8 4092000.7  0.9  0.0  2  0  28377874
[17]  B02 1f 39   -336.0 4092000.8  0.9  0.0  2  0  28377875
[18]  B03 1f 41   -307.9 4092000.8  0.9  0.0  2  0  28377877
[19]  B04 1f 40   -305.4 4092000.8  0.9  0.0  2  0  28377869
[20]  B05 1f 37   -342.8 4092000.9  0.9  0.0  2  0  28377870
[21]  B07 1f 42   -339.5 4092000.9  1.0  1.0  5  0  28377879
[22]  B08 1f 43   -548.5 4092001.4  1.0  1.0  5  0  28377880
[23]  B10 1f 43   -695.0 4092001.8  1.0  1.0  5  0  28377879
[24]  B11 1f 42  -1416.9 4092003.7  1.0  1.0  5  0  28377923
[25]  B13 1f 43  -1056.0 4092002.8  1.0  1.0  5  0  28377876
[26]  B21 1f 37  -2319.3 4092006.1  1.0  1.0  5  0  28377911
[27]  B24 1f 45   1327.2 4091996.5  1.0  1.0  5  0  28377925
[28]  B25 1f 43  -1823.7 4092004.8  1.0  1.0  5  0  28377924
[29]  B12 1f 41   1869.1 4091995.1  1.0  1.0  5  0  28377921
$GNGGA,075255.000,2944.9079,N,10633.0965,E,1,24,0.6,304.0,M,,,,0000*17
$GNRMC,075255.000,A,2944.9079,N,10633.0965,E,0.15,0.00,280419,,*1E
$GPGSA,A,3,01,03,07,11,17,18,19,22,28,30,,,0.7,0.6,0.4*3C
$BDGSA,A,3,01,02,03,04,05,07,08,10,11,12,13,21,0.7,0.6,0.4*2B
$GPGSV,3,1,12,01,64,065,42,03,17,127,35,17,36,273,40,19,15,257,32*75
$GPGSV,3,2,12,22,22,104,39,28,48,331,41,07,42,181,43,11,53,041,42*7D
$GPGSV,3,3,12,13,00,000,35,18,38,046,41,30,63,234,43,08,16,057,00*72
$BDGSV,3,1,12,01,40,125,40,02,46,219,39,03,55,171,41,04,23,109,40*66
$BDGSV,3,2,12,05,27,244,37,07,65,101,42,08,83,174,43,10,78,008,43*69
$BDGSV,3,3,12,11,49,262,42,13,55,208,43,21,04,128,37,24,63,168,45*6C
$LOGTIM,3,-931.900384,-1129.128127,0.000000,0.000000,-57.209*24
---00000028--- Acq_st=3 2019-4-28 07:52:55 
[00]  G01  f 43    664.7 2045999.1  1.0  1.0  5  0  28392931
[01]  G03  f 35  -2700.4 2046003.5  1.0  0.9  5  0  28392920
[02]  G17  f 40  -1608.6 2046002.1  1.0  1.0  5  0  28392924
[03]  G19  f 32  -2793.6 2046003.6  1.0  1.0  5  0  28392919
[04]  G22  f 39  -1667.7 2046002.2  1.0  1.0  5  0  28392920
[05]  G28  f 41  -2072.3 2046002.7  1.0  1.0  5  0  28392927
[06]  G07  f 43   2562.9 2045996.7  1.0  1.0  5  0  28392928
[07]  G11  f 42   1630.7 2045997.9  1.0  1.0  5  0  28392929
[09]  G13  f 36    389.8 2045999.5  1.0  1.0  5  0  28392916
[10]  G18  f 42   2267.5 2045997.1  1.0  1.0  5  0  28392927
[11]  G30  f 44    597.5 2045999.2  1.0  1.0  5  0  28392931
[16]  B01 1f 41   -286.9 4092000.6  0.9  0.0  2  0  28378874
[17]  B02 1f 40   -332.8 4092000.7  0.9  0.0  2  0  28378875
[18]  B03 1f 42   -305.0 4092000.7  1.0  0.0  2  0  28378877
[19]  B04 1f 39   -301.7 4092000.7  0.9  0.0  2  0  28378869
[20]  B05 1f 37   -339.9 4092000.8  0.9  0.0  2  0  28378870
[21]  B07 1f 43   -336.3 4092000.9  1.0  1.0  5  0  28378879
[22]  B08 1f 43   -545.2 4092001.4  1.0  1.0  5  0  28378880
[23]  B10 1f 43   -691.7 4092001.8  1.0  1.0  5  0  28378879
[24]  B11 1f 42  -1413.2 4092003.7  1.0  1.0  5  0  28378923
[25]  B13 1f 43  -1052.9 4092002.8  1.0  1.0  5  0  28378876
[26]  B21 1f 37  -2316.1 4092006.1  1.0  1.0  5  0  28378911
[27]  B24 1f 46   1330.7 4091996.5  1.0  1.0  5  0  28378925
[28]  B25 1f 43  -1819.9 4092004.8  1.0  1.0  5  0  28378924
[29]  B12 1f 41   1872.6 4091995.1  1.0  1.0  5  0  28378921
$GNGGA,075256.000,2944.9095,N,10633.0971,E,1,24,0.6,304.7,M,,,,0000*14
$GNRMC,075256.000,A,2944.9095,N,10633.0971,E,0.12,0.00,280419,,*1D
$GPGSA,A,3,01,03,07,11,17,18,19,22,28,30,,,0.7,0.6,0.4*3C
$BDGSA,A,3,01,02,03,04,05,07,08,10,11,12,13,21,0.7,0.6,0.4*2B
$GPGSV,3,1,12,01,64,065,43,03,17,127,35,17,36,273,40,19,15,257,32*74
$GPGSV,3,2,12,22,22,104,39,28,48,331,41,07,42,181,43,11,53,041,42*7D
$GPGSV,3,3,12,13,00,000,36,18,38,046,42,30,63,234,44,08,16,057,00*75
$BDGSV,3,1,12,01,40,125,41,02,46,219,40,03,55,171,43,04,23,109,39*65
$BDGSV,3,2,12,05,27,244,37,07,65,101,43,08,83,174,43,10,78,008,43*68
$BDGSV,3,3,12,11,49,262,42,13,55,208,43,21,04,128,37,24,63,168,46*6F
$LOGTIM,3,-985.338520,-1181.876431,0.000000,0.000000,-56.660*2A
---00000029--- Acq_st=3 2019-4-28 07:52:56 
[00]  G01  f 43    667.7 2045999.1  1.0  1.0  5  0  28393931
[01]  G03  f 35  -2698.8 2046003.5  1.0  0.9  5  0  28393920
[02]  G17  f 40  -1606.1 2046002.1  1.0  1.0  5  0  28393924
[03]  G19  f 32  -2791.9 2046003.7  1.0  1.0  5  0  28393919
[04]  G22  f 39  -1666.3 2046002.2  1.0  1.0  5  0  28393920
[05]  G28  f 41  -2070.6 2046002.7  1.0  1.0  5  0  28393927
[06]  G07  f 43   2564.9 2045996.6  1.0  1.0  5  0  28393928
[07]  G11  f 42   1633.0 2045997.9  1.0  1.0  5  0  28393929
[09]  G13  f 35    391.5 2045999.6  1.0  0.9  5  0  28393916
[10]  G18  f 42   2269.6 2045997.1  1.0  1.0  5  0  28393927
[11]  G30  f 44    600.0 2045999.2  1.0  1.0  5  0  28393931
[16]  B01 1f 40   -284.5 4092000.8  1.0  0.0  2  0  28379874
[17]  B02 1f 39   -330.5 4092000.9  0.9  0.0  2  0  28379875
[18]  B03 1f 42   -302.4 4092000.7  1.0  0.0  2  0  28379877
[19]  B04 1f 40   -299.4 4092000.8  0.9  0.0  2  0  28379869
[20]  B05 1f 36   -337.4 4092000.9  0.9  0.0  2  0  28379870
[21]  B07 1f 42   -333.8 4092000.9  1.0  1.0  5  0  28379879
[22]  B08 1f 43   -542.4 4092001.4  1.0  1.0  5  0  28379880
[23]  B10 1f 43   -689.2 4092001.8  1.0  1.0  5  0  28379879
[24]  B11 1f 42  -1410.5 4092003.7  1.0  1.0  5  0  28379923
[25]  B13 1f 43  -1050.4 4092002.7  1.0  1.0  5  0  28379876
[26]  B21 1f 37  -2314.0 4092006.1  1.0  1.0  5  0  28379911
[27]  B24 1f 45   1333.7 4091996.5  1.0  1.0  5  0  28379925
[28]  B25 1f 43  -1817.1 4092004.8  1.0  1.0  5  0  28379924
[29]  B12 1f 41   1874.7 4091995.0  1.0  1.0  5  0  28379921
$GNGGA,075257.000,2944.9132,N,10633.0914,E,1,24,0.6,303.4,M,,,,0000*1E
$GNRMC,075257.000,A,2944.9132,N,10633.0914,E,0.17,0.00,280419,,*16
$GPGSA,A,3,01,03,07,11,17,18,19,22,28,30,,,0.7,0.6,0.4*3C
$BDGSA,A,3,01,02,03,04,05,07,08,10,11,12,13,21,0.7,0.6,0.4*2B
$GPGSV,3,1,12,01,64,065,43,03,17,127,35,17,36,273,40,19,15,257,32*74
$GPGSV,3,2,12,22,22,104,39,28,48,331,41,07,42,181,43,11,53,041,42*7D
$GPGSV,3,3,12,13,00,000,35,18,38,046,42,30,63,234,44,08,16,057,00*76
$BDGSV,3,1,12,01,40,125,40,02,46,219,39,03,55,171,42,04,23,109,40*65
$BDGSV,3,2,12,05,27,244,36,07,65,101,42,08,83,174,43,10,78,008,43*68
$BDGSV,3,3,12,11,49,262,42,13,55,208,43,21,04,128,37,24,63,168,45*6C
$LOGTIM,3,-1043.526106,-1240.661987,0.000000,0.000000,-56.623*10
---00000030--- Acq_st=3 2019-4-28 07:52:57 
[00]  G01  f 44    668.0 2045999.1  1.0  1.0  5  0  28394931
[01]  G03  f 36  -2698.5 2046003.5  1.0  0.9  5  0  28394920
[02]  G17  f 41  -1605.9 2046002.1  1.0  1.0  5  0  28394924
[03]  G19  f 32  -2790.7 2046003.6  1.0  0.9  5  0  28394919
[04]  G22  f 39  -1665.2 2046002.1  1.0  1.0  5  0  28394920
[05]  G28  f 42  -2070.4 2046002.7  1.0  1.0  5  0  28394927
[06]  G07  f 45   2565.6 2045996.7  1.0  1.0  5  0  28394928
[07]  G11  f 42   1633.3 2045997.9  1.0  1.0  5  0  28394929
[09]  G13  f 34    392.3 2045999.5  1.0  1.0  5  0  28394916
[10]  G18  f 43   2270.3 2045997.0  1.0  1.0  5  0  28394927
[11]  G30  f 46    600.6 2045999.2  1.0  1.0  5  0  28394931
[16]  B01 1f 40   -284.6 4092000.7  0.9  0.0  2  0  28380874
[17]  B02 1f 39   -330.0 4092001.0  0.9  0.0  2  0  28380875
[18]  B03 1f 43   -302.8 4092000.8  1.0  0.0  2  0  28380877
[19]  B04 1f 39   -299.3 4092000.7  1.0  0.0  2  0  28380869
