FlashID=0x1 0x20 0x18
BBram_blkflag1: 3a68: c597
FW Ver: 1.30  
GPS00 Init Dop:   -914,  2
GPS01 Init Dop:  -5000, 41
GPS02 Init Dop:   2554,  2
GPS03 Init Dop:  -5000, 41
GPS04 Init Dop:  -5000, 41
GPS05 Init Dop:  -5000, 41
GPS06 Init Dop:  -2762,  2
GPS07 Init Dop:  -2331,  2
GPS08 Init Dop:  -5000, 41
GPS09 Init Dop:  -5000, 41
GPS10 Init Dop:  -1829,  2
GPS11 Init Dop:  -5000, 41
GPS12 Init Dop:   -596,  2
GPS13 Init Dop:  -5000, 41
GPS14 Init Dop:  -5000, 41
GPS15 Init Dop:  -5000, 41
GPS16 Init Dop:   1444,  2
GPS17 Init Dop:  -2479,  2
GPS18 Init Dop:   2634,  2
GPS19 Init Dop:  -5000, 41
GPS20 Init Dop:  -5000, 41
GPS21 Init Dop:   1479,  2
GPS22 Init Dop:  -5000, 41
GPS23 Init Dop:  -5000, 41
GPS24 Init Dop:  -5000, 41
GPS25 Init Dop:  -5000, 41
GPS26 Init Dop:  -5000, 41
GPS27 Init Dop:   1937,  2
GPS28 Init Dop:  -5000, 41
GPS29 Init Dop:   -840,  2
GPS30 Init Dop:  -5000, 41
GPS31 Init Dop:  -5000, 41
BDS00 Init Dop:    159,  2
BDS01 Init Dop:    205,  2
BDS02 Init Dop:    177,  2
BDS03 Init Dop:    174,  2
BDS04 Init Dop:    213,  2
BDS05 Init Dop:  -5000, 41
BDS06 Init Dop:    190,  2
BDS07 Init Dop:    384,  2
BDS08 Init Dop:  -1024,  2
BDS09 Init Dop:    553,  2
BDS10 Init Dop:   1224,  2
BDS11 Init Dop:  -2011,  2
BDS12 Init Dop:    895,  2
BDS13 Init Dop:  -5000, 41
BDS14 Init Dop:  -5000, 41
BDS15 Init Dop:  -5000, 41
BDS16 Init Dop:  -5000, 41
BDS17 Init Dop:  -5000, 41
BDS18 Init Dop:  -5000, 41
BDS19 Init Dop:  -5000, 41
BDS20 Init Dop:   2208,  2
BDS21 Init Dop:  -5000, 41
BDS22 Init Dop:  -5000, 41
BDS23 Init Dop:  -1551,  2
BDS24 Init Dop:   1600,  2
BDS25 Init Dop:  -3089,  2
BDS26 Init Dop:  -5000, 41
BDS27 Init Dop:  -5000, 41
BDS28 Init Dop:  -5000, 41
BDS29 Init Dop:  -5000, 41
BDS30 Init Dop:  -5000, 41
BDS31 Init Dop:  -5000, 41
---00000001--- Acq_st=3 2019-4-28 07:56:8 
[00]  G01  1 23    745.0 2045999.2 -0.0  0.0  1  0         0
[01]  G03  1  7  -2577.7 2046005.2 -0.1  0.0  1  0         0
$GNGGA,000000.000,,,,,0,00,,,M,,,,0000*2B
$GNRMC,000000.000,A,,,,,,,000000,,*26
$GPGSA,A,1,,,,,,,,,,,,,,,*1E
$BDGSA,A,1,,,,,,,,,,,,,,,*0F
$LOGTIM,0,0.000000,0.000000,0.000000,0.000000,0.000*0A
---00000002--- Acq_st=3 2019-4-28 07:56:9 
[00]  G01  7 30    793.0 2045999.0  0.1  1.0  5  0         3
[01]  G03  7 27  -2677.1 2046003.5  0.3  0.0 20  0         6
[02]  G17  1  7  -1452.7 2046002.8 -0.0  0.0  1  0         0
$GNGGA,000000.000,,,,,0,00,,,M,,,,0000*2B
$GNRMC,000000.000,A,,,,,,,000000,,*26
$GPGSA,A,1,,,,,,,,,,,,,,,*1E
$BDGSA,A,1,,,,,,,,,,,,,,,*0F
$GPGSV,1,1,02,01,00,000,30,03,00,000,27*7F
$LOGTIM,0,0.000000,0.000000,0.000000,0.000000,0.000*0A
---00000003--- Acq_st=3 2019-4-28 07:56:10 
[00]  G01  7 43    796.4 2045999.0  1.0  1.0  5  0        17
[01]  G03  7 37  -2674.0 2046003.6  1.0  0.9  5  0         6
[02]  G17  1 19  -1563.2 2046003.5 -0.1  0.0  1  0         2
[03]  G22  1 11  -1565.3 2046002.7  0.1  0.0  1  0         0
$GNGGA,000000.000,,,,,0,00,,,M,,,,0000*2B
$GNRMC,000000.000,A,,,,,,,000000,,*26
$GPGSA,A,1,,,,,,,,,,,,,,,*1E
$BDGSA,A,1,,,,,,,,,,,,,,,*0F
$GPGSV,1,1,02,01,00,000,43,03,00,000,37*7A
$LOGTIM,0,0.000000,0.000000,0.000000,0.000000,0.000*0A
---00000004--- Acq_st=3 2019-4-28 07:56:11 
[00]  G01  7 43    796.7 2045999.0  1.0  1.0  5  0        17
[01]  G03  7 37  -2674.1 2046003.5  1.0  1.0  5  0         6
[02]  G17  7 34  -1564.2 2046002.1  0.8  1.0  5  0         2
[03]  G22  7 27  -1598.1 2046002.0  0.4  1.0 10  0        10
[04]  G28  1  7  -2022.8 2046005.3  0.1  0.0  1  0         0
[05]  G30  1  7   1091.5 2046000.3  0.0  0.0  1  0         0
[16]  B01  1 10   -207.7 4092002.5  0.1  0.0  1  0         0
[17]  B02  1 10   -280.5 4092002.3  0.0  0.0  1  0         0
[18]  B03  1 38   -255.2 4092001.9  0.0  0.0  1  0         0
[19]  B04  1 36   -230.5 4092001.0 -0.0  0.0  1  0         0
$GNGGA,000000.000,,,,,0,00,,,M,,,,0000*2B
$GNRMC,000000.000,A,,,,,,,000000,,*26
$GPGSA,A,1,,,,,,,,,,,,,,,*1E
$BDGSA,A,1,,,,,,,,,,,,,,,*0F
$GPGSV,1,1,04,01,00,000,43,03,00,000,37,17,00,000,34,22,00,000,27*78
$LOGTIM,0,0.000000,0.000000,0.000000,0.000000,0.000*0A
---00000005--- Acq_st=3 2019-4-28 07:56:12 
[00]  G01  7 43    795.9 2045999.0  1.0  1.0  5  0        17
[01]  G03  7 37  -2674.9 2046003.5  1.0  1.0  5  0         6
[02]  G17  7 39  -1565.3 2046002.0  1.0  1.0  5  0        11
[03]  G22  7 38  -1599.4 2046002.1  1.0  1.0  5  0         7
[04]  G28  7 30  -2059.1 2046002.6  0.4  1.0  5  0        15
[05]  G30  1  7   1219.4 2046001.4  0.1  0.0  1  0         0
[16]  B01  7 10   -285.7 4092000.7  0.5  0.0  2  0       335
[17]  B02  7 10   -333.2 4092000.8  0.5  0.0  2  0       323
[18]  B03  f 10   -304.5 4092000.7  0.9  0.0  2  0       309
[19]  B04  9 40   -301.5 4092000.9  0.9  0.0  1  0       297
[20]  B07  1 27   -318.7 4092001.4  0.3  0.0  1  0         0
[21]  B08  1  7   -513.4 4092002.0 -0.1  0.0  1  0         0
[22]  B09  1  7   1007.6 4091998.0 -0.1  0.0  1  0         0
[23]  B10  1  7   -681.2 4092004.0  0.1  0.0  1  0         0
[24]  B11  1  7  -1353.5 4092004.7 -0.1  0.0  1  0         0
[25]  B12  1  7   2630.3 4091994.4  0.0  0.0  1  0         0
[26]  B13  1  7  -1023.3 4092003.3  0.1  0.0  1  0         0
$GNGGA,000000.000,,,,,0,00,,,M,,,,0000*2B
$GNRMC,000000.000,A,,,,,,,000000,,*26
$GPGSA,A,1,,,,,,,,,,,,,,,*1E
$BDGSA,A,1,,,,,,,,,,,,,,,*0F
$GPGSV,2,1,05,01,00,000,43,03,00,000,37,17,00,000,39,22,00,000,38*79
$GPGSV,2,2,05,28,00,000,30*45
$LOGTIM,0,0.000000,0.000000,0.000000,0.000000,0.000*0A
---00000006--- Acq_st=3 2019-4-28 07:56:13 
[00]  G01  f 42    798.6 2045999.0  1.0  1.0  5  0        17
[01]  G03  f 37  -2673.2 2046003.5  1.0  1.0  5  0         6
[02]  G17  f 40  -1563.6 2046002.0  1.0  1.0  5  0        11
[03]  G22  f 37  -1597.2 2046002.1  1.0  1.0  5  0         7
[04]  G28  f 40  -2056.5 2046002.6  1.0  1.0  5  0        13
[05]  G30  1  7   1219.9 2045998.5 -0.1  0.0  1  0         0
[16]  B01  7 40   -284.5 4092000.8  0.9  0.0  2  0      1334
[17]  B02  7 39   -331.2 4092000.7  0.9  0.0  2  0      1322
[18]  B03  f 42   -303.0 4092000.8  0.9  0.0  2  0  28577044
[19]  B04  f 40   -299.9 4092000.8  0.9  0.0  2  0  28577035
[20]  B07  7 31   -316.5 4092000.8  0.9  1.0  5  0       925
[21]  B08  7 30   -510.8 4092001.3  0.5  1.0  5  0       912
[22]  B09  1  7    708.2 4091998.7  0.2  0.0  1  0       888
[23]  B10  7 29   -679.3 4092001.7  0.5  1.0  5  0       875
[24]  B11  7 29  -1351.1 4092003.4  0.3  1.0  5  0       863
[25]  B12  1  7   2607.0 4091994.1 -0.1  0.0  1  0       839
[26]  B13  7 29  -1021.6 4092002.6  0.4  1.0 10  0       826
$GNGGA,075613.566,2944.9203,N,10633.0916,E,1,05,2.7,303.8,M,,,,0000*10
$GNRMC,075613.566,A,2944.9203,N,10633.0916,E,0.26,0.00,280419,,*16
$GPGSA,A,3,01,03,17,22,28,,,,,,,,4.8,2.7,3.9*3F
$BDGSA,A,3,,,,,,,,,,,,,4.8,2.7,3.9*20
$GPGSV,2,1,05,01,00,000,42,03,00,000,37,17,00,000,40,22,00,000,37*79
$GPGSV,2,2,05,28,00,000,40*42
$BDGSV,3,1,09,01,00,000,40,02,00,000,39,03,00,000,42,04,00,000,40*6B
$BDGSV,3,2,09,07,00,000,31,08,00,000,30,10,00,000,29,11,00,000,29*6F
$BDGSV,3,3,09,13,00,000,29*58
$LOGTIM,1,173216284.899311,0.000000,0.000000,0.000000,-56.900*19
---00000007--- Acq_st=3 2019-4-28 07:56:14 
[00]  G01  f 43    799.5 2045999.0  1.0  1.0  5  0  28591497
[01]  G03  f 37  -2673.2 2046003.5  1.0  0.9  5  0  28591486
[02]  G17  f 40  -1562.5 2046002.0  1.0  1.0  5  0  28591491
[03]  G22  f 38  -1596.6 2046002.1  1.0  0.9  5  0  28591487
[04]  G28  f 41  -2056.3 2046002.7  1.0  1.0  5  0  28591493
[16]  B01  f 39   -283.7 4092000.7  0.9  0.0  2  0       640
[17]  B02  f 38   -329.9 4092000.9  0.9  0.0  2  0       642
[18]  B03  f 42   -301.9 4092000.8  1.0  0.0  2  0  28578044
[19]  B04  f 39   -298.9 4092000.7  0.9  0.0  2  0  28578035
[20]  B07  7 42   -315.7 4092000.8  1.0  1.0  5  0      1925
[21]  B08  7 41   -510.4 4092001.3  1.0  1.0  5  0      1906
[22]  B09  1  7    378.3 4091997.8  0.1  0.0  1  0      1888
[23]  B10  7 43   -678.3 4092001.7  1.0  1.0  5  0      1865
[24]  B11  7 42  -1350.6 4092003.5  1.0  1.0  5  0      1850
[25]  B12  1  7   2804.8 4091994.7 -0.0  0.0  1  0      1839
[26]  B13  7 42  -1020.8 4092002.6  1.0  1.0  5  0      1822
[27]  B21  1  7  -1959.9 4092005.2 -0.1  0.0  1  0         0
$GNGGA,075615.000,2944.9143,N,10633.0915,E,1,09,2.7,306.1,M,,,,0000*17
$GNRMC,075615.000,A,2944.9143,N,10633.0915,E,0.15,0.00,280419,,*11
$GPGSA,A,3,01,03,17,22,28,,,,,,,,4.8,2.7,3.9*3F
$BDGSA,A,3,01,02,03,04,,,,,,,,,4.8,2.7,3.9*24
$GPGSV,2,1,05,01,00,000,43,03,00,000,37,17,00,000,40,22,00,000,38*77
$GPGSV,2,2,05,28,00,000,41*43
$BDGSV,3,1,09,01,00,000,39,02,00,000,38,03,00,000,42,04,00,000,38*6B
$BDGSV,3,2,09,07,00,000,42,08,00,000,41,10,00,000,43,11,00,000,42*6C
$BDGSV,3,3,09,13,00,000,42*55
$LOGTIM,3,-80.049279,-253.754727,0.000000,0.000000,-55.966*24
---00000008--- Acq_st=3 2019-4-28 07:56:15 
[00]  G01  f 43    805.0 2045998.9  1.0  1.0  5  0  28592931
[01]  G03  f 37  -2668.0 2046003.5  1.0  1.0  5  0  28592920
[02]  G17  f 39  -1558.4 2046002.0  1.0  1.0  5  0  28592925
[03]  G22  f 38  -1591.2 2046002.1  1.0  0.9  5  0  28592921
[04]  G28  f 41  -2051.6 2046002.7  1.0  1.0  5  0  28592927
[16]  B01 1f 41   -279.2 4092000.8  0.9  0.0  2  0  28578874
[17]  B02 1f 38   -326.0 4092000.8  0.9  0.0  2  0  28578875
[18]  B03 1f 42   -298.1 4092000.7  1.0  0.0  2  0  28578877
[19]  B04 1f 39   -294.9 4092000.8  0.9  0.0  2  0  28578869
[20]  B07 1f 42   -311.5 4092000.8  1.0  1.0  5  0      3359
[21]  B08 1f 42   -505.7 4092001.3  1.0  1.0  5  0      3340
[23]  B10 1f 43   -673.9 4092001.7  1.0  1.0  5  0      3299
[24]  B11 1f 42  -1346.4 4092003.5  1.0  1.0  5  0      3283
[26]  B13 1f 42  -1015.9 4092002.6  1.0  1.0  5  0      3256
[27]  B21  1  7  -2242.5 4092005.0 -0.0  0.0  1  0       890
[28]  B24  1  7   2190.8 4091995.0 -0.0  0.0  1  0       207
[29]  B25  1  7  -1723.2 4092006.5  0.0  0.0  1  0       194
$GNGGA,075616.000,2944.8967,N,10633.0886,E,1,14,1.0,337.6,M,,,,0000*1D
$GNRMC,075616.000,A,2944.8967,N,10633.0886,E,0.14,0.00,280419,,*17
$GPGSA,A,3,01,03,17,22,28,,,,,,,,1.1,1.0,0.4*39
$BDGSA,A,3,01,02,03,04,07,08,10,11,13,,,,1.1,1.0,0.4*2E
$GPGSV,3,1,12,01,63,062,43,03,18,125,37,17,36,275,39,22,22,102,38*76
$GPGSV,3,2,12,28,49,332,41,07,40,181,00,08,15,058,00,11,51,041,00*70
$GPGSV,3,3,12,13,06,289,00,18,37,045,00,19,16,258,00,30,62,231,00*76
$BDGSV,3,1,12,01,40,125,41,02,46,219,38,03,55,171,42,04,23,109,39*6B
$BDGSV,3,2,12,07,65,103,42,08,83,176,42,10,78,008,43,11,49,264,42*65
$BDGSV,3,3,12,13,56,210,42,05,27,244,00,09,02,199,00,12,36,037,00*65
$LOGTIM,3,-122.830118,-324.624396,0.000000,0.000000,-56.000*1C
---00000009--- Acq_st=3 2019-4-28 07:56:16 
[00]  G01  f 43    798.5 2045998.9  1.0  1.0  5  0  28593931
[01]  G03  f 37  -2674.0 2046003.5  1.0  1.0  5  0  28593920
[02]  G17  f 39  -1564.5 2046002.1  1.0  1.0  5  0  28593925
[03]  G22  f 37  -1598.1 2046002.1  1.0  1.0  5  0  28593921
[04]  G28  f 41  -2058.3 2046002.7  1.0  1.0  5  0  28593927
[16]  B01 1f 39   -285.4 4092000.8  0.9  0.0  2  0  28579874
[17]  B02 1f 38   -332.3 4092000.8  0.9  0.0  2  0  28579875
[18]  B03 1f 41   -304.1 4092000.8  1.0  0.0  2  0  28579877
[19]  B04 1f 39   -300.9 4092000.8  0.9  0.0  2  0  28579869
[20]  B07 1f 42   -318.0 4092000.8  1.0  1.0  5  0  28579879
[21]  B08 1f 42   -512.1 4092001.3  1.0  1.0  5  0  28579880
[23]  B10 1f 43   -680.2 4092001.7  1.0  1.0  5  0  28579879
[24]  B11 1f 42  -1352.0 4092003.5  1.0  1.0  5  0  28579923
[26]  B13 1f 42  -1022.6 4092002.7  1.0  1.0  5  0  28579876
[27]  B21  1  7  -2137.4 4092005.4  0.1  0.0  1  0      1890
[28]  B24  1  7   2333.5 4091995.0  0.1  0.0  1  0      1207
[29]  B25  1  7  -1728.9 4092004.3  0.9  0.0  1  0      1194
$GNGGA,075617.000,2944.9109,N,10633.0860,E,1,14,1.0,319.4,M,,,,0000*1B
$GNRMC,075617.000,A,2944.9109,N,10633.0860,E,0.10,0.00,280419,,*1B
$GPGSA,A,3,01,03,17,22,28,,,,,,,,1.1,1.0,0.4*39
$BDGSA,A,3,01,02,03,04,07,08,10,11,13,,,,1.1,1.0,0.4*2E
$GPGSV,3,1,12,01,63,062,43,03,18,125,37,17,36,275,39,22,22,102,37*79
$GPGSV,3,2,12,28,49,332,41,07,40,181,00,08,15,058,00,11,51,041,00*70
$GPGSV,3,3,12,13,06,289,00,18,37,045,00,19,16,258,00,30,62,231,00*76
$BDGSV,3,1,12,01,40,125,39,02,46,219,38,03,55,171,41,04,23,109,39*67
$BDGSV,3,2,12,07,65,103,42,08,83,176,42,10,78,008,43,11,49,264,42*65
$BDGSV,3,3,12,13,56,210,42,05,27,244,00,09,02,199,00,12,36,037,00*65
$LOGTIM,3,-184.977255,-389.609874,0.000000,0.000000,-57.280*1C
---00000010--- Acq_st=7 2019-4-28 07:56:17 
[00]  G01  f 43    798.6 2045999.0  1.0  1.0  5  0  28594931
[01]  G03  f 37  -2675.0 2046003.5  1.0  0.9  5  0  28594920
[02]  G17  f 39  -1565.1 2046002.0  1.0  1.0  5  0  28594925
[03]  G22  f 37  -1597.9 2046002.1  1.0  1.0  5  0  28594921
[04]  G28  f 41  -2059.2 2046002.7  1.0  1.0  5  0  28594927
[16]  B01 1f 40   -286.7 4092000.7  0.9  0.0  2  0  28580874
[17]  B02 1f 38   -333.3 4092000.9  0.9  0.0  2  0  28580875
[18]  B03 1f 41   -305.1 4092000.7  0.9  0.0  2  0  28580877
[19]  B04 1f 40   -302.1 4092000.7  0.9  0.0  2  0  28580869
[20]  B07 1f 42   -318.6 4092000.8  1.0  1.0  5  0  28580879
[21]  B08 1f 42   -513.1 4092001.3  1.0  1.0  5  0  28580880
[23]  B10 1f 43   -681.4 4092001.8  1.0  1.0  5  0  28580879
[24]  B11 1f 43  -1352.7 4092003.5  1.0  1.0  5  0  28580923
[26]  B13 1f 42  -1023.7 4092002.6  1.0  1.0  5  0  28580876
[28]  B24  1 11   2334.4 4091995.3 -0.1  0.0  1  0      2207
[29]  B25  1  7  -1729.6 4092004.4  0.9  0.0  1  0      2194
$GNGGA,075618.000,2944.9085,N,10633.0890,E,1,14,1.0,319.5,M,,,,0000*1F
$GNRMC,075618.000,A,2944.9085,N,10633.0890,E,0.10,0.00,280419,,*1E
$GPGSA,A,3,01,03,17,22,28,,,,,,,,1.1,1.0,0.4*39
$BDGSA,A,3,01,02,03,04,07,08,10,11,13,,,,1.1,1.0,0.4*2E
$GPGSV,3,1,12,01,63,062,43,03,18,125,37,17,36,275,39,22,22,102,37*79
$GPGSV,3,2,12,28,49,332,41,07,40,181,00,08,15,058,00,11,51,041,00*70
$GPGSV,3,3,12,13,06,289,00,18,37,045,00,19,16,258,00,30,62,231,00*76
$BDGSV,3,1,12,01,40,125,40,02,46,219,38,03,55,171,41,04,23,109,40*67
$BDGSV,3,2,12,07,65,103,42,08,83,176,42,10,78,008,43,11,49,264,43*64
$BDGSV,3,3,12,13,56,210,42,05,27,244,00,09,02,199,00,12,36,037,00*65
$LOGTIM,3,-240.972898,-441.524560,0.000000,0.000000,-56.653*15
---00000011--- Acq_st=3 2019-4-28 07:56:18 
[00]  G01  f 42    803.5 2045999.0  1.0  1.0  5  0  28595931
[01]  G03  f 38  -2670.8 2046003.5  1.0  1.0  5  0  28595920
[02]  G17  f 40  -1560.8 2046002.1  1.0  1.0  5  0  28595925
[03]  G22  f 38  -1593.7 2046002.1  1.0  1.0  5  0  28595921
[04]  G28  f 41  -2054.6 2046002.7  1.0  1.0  5  0  28595927
[05]  G07  1  7   2705.9 2045998.2  0.0  0.0  1  0         0
[06]  G08  1  7   2785.9 2045998.6 -0.0  0.0  1  0         0
[16]  B01 1f 40   -282.3 4092000.7  0.9  0.0  2  0  28581874
[17]  B02 1f 39   -328.7 4092000.7  0.9  0.0  2  0  28581875
[18]  B03 1f 42   -300.9 4092000.7  0.9  0.0  2  0  28581877
[19]  B04 1f 39   -297.5 4092000.8  0.9  0.0  2  0  28581869
[20]  B07 1f 43   -314.3 4092000.8  1.0  1.0  5  0  28581879
[21]  B08 1f 42   -508.8 4092001.3  1.0  1.0  5  0  28581880
[23]  B10 1f 43   -677.0 4092001.8  1.0  1.0  5  0  28581879
[24]  B11 1f 43  -1348.5 4092003.5  1.0  1.0  5  0  28581923
[26]  B13 1f 42  -1019.0 4092002.6  1.0  1.0  5  0  28581876
$GNGGA,075619.000,2944.9126,N,10633.0954,E,1,14,1.0,313.5,M,,,,0000*15
$GNRMC,075619.000,A,2944.9126,N,10633.0954,E,0.24,0.00,280419,,*19
$GPGSA,A,3,01,03,17,22,28,,,,,,,,1.1,1.0,0.4*39
$BDGSA,A,3,01,02,03,04,07,08,10,11,13,,,,1.1,1.0,0.4*2E
$GPGSV,3,1,12,01,63,062,42,03,18,125,38,17,36,275,40,22,22,102,38*76
$GPGSV,3,2,12,28,49,332,41,07,40,181,00,08,15,058,00,11,51,041,00*70
$GPGSV,3,3,12,13,06,289,00,18,37,045,00,19,16,258,00,30,62,231,00*76
$BDGSV,3,1,12,01,40,125,40,02,46,219,39,03,55,171,42,04,23,109,39*6B
$BDGSV,3,2,12,07,65,103,43,08,83,176,42,10,78,008,43,11,49,264,43*65
$BDGSV,3,3,12,13,56,210,42,05,27,244,00,09,02,199,00,12,36,037,00*65
$LOGTIM,3,-297.569891,-500.110886,0.000000,0.000000,-56.356*12
---00000012--- Acq_st=3 2019-4-28 07:56:19 
[00]  G01  f 43    803.7 2045999.0  1.0  1.0  5  0  28596931
[01]  G03  f 37  -2670.6 2046003.4  1.0  1.0  5  0  28596920
[02]  G17  f 40  -1560.5 2046002.0  1.0  1.0  5  0  28596925
[03]  G22  f 38  -1593.2 2046002.1  1.0  1.0  5  0  28596921
[04]  G28  f 41  -2054.9 2046002.7  1.0  1.0  5  0  28596927
[05]  G07  1 30   2647.7 2045996.6 -0.1  0.0  1  0         3
[06]  G08  1 13   2222.6 2045996.8  0.1  0.0  1  0        18
[07]  G11  1 24   1687.0 2045998.2 -0.1  0.0  1  0        14
[16]  B01 1f 40   -282.6 4092000.7  0.9  0.0  2  0  28582874
[17]  B02 1f 39   -329.1 4092000.8  0.9  0.0  2  0  28582875
[18]  B03 1f 42   -300.9 4092000.8  1.0  0.0  2  0  28582877
[19]  B04 1f 39   -297.8 4092000.7  0.9  0.0  2  0  28582869
[20]  B07 1f 43   -314.3 4092000.8  1.0  1.0  5  0  28582879
[21]  B08 1f 42   -508.4 4092001.3  1.0  1.0  5  0  28582880
[23]  B10 1f 44   -677.4 4092001.8  1.0  1.0  5  0  28582879
[24]  B11 1f 43  -1348.4 4092003.5  1.0  1.0  5  0  28582923
[26]  B13 1f 42  -1019.1 4092002.7  1.0  1.0  5  0  28582876
$GNGGA,075620.000,2944.9130,N,10633.0951,E,1,14,1.0,307.2,M,,,,0000*1F
$GNRMC,075620.000,A,2944.9130,N,10633.0951,E,0.11,0.00,280419,,*17
$GPGSA,A,3,01,03,17,22,28,,,,,,,,1.1,1.0,0.4*39
$BDGSA,A,3,01,02,03,04,07,08,10,11,13,,,,1.1,1.0,0.4*2E
$GPGSV,3,1,12,01,63,062,43,03,18,125,37,17,36,275,40,22,22,102,38*78
$GPGSV,3,2,12,28,49,332,41,07,40,181,00,08,15,058,00,11,51,041,00*70
$GPGSV,3,3,12,13,06,289,00,18,37,045,00,19,16,258,00,30,62,231,00*76
$BDGSV,3,1,12,01,40,125,40,02,46,219,39,03,55,171,42,04,23,109,39*6B
$BDGSV,3,2,12,07,65,103,43,08,83,176,42,10,78,008,44,11,49,264,43*62
$BDGSV,3,3,12,13,56,210,42,05,27,244,00,09,02,199,00,12,36,037,00*65
$LOGTIM,3,-356.012931,-555.085143,0.000000,0.000000,-56.653*11
---00000013--- Acq_st=3 2019-4-28 07:56:20 
[00]  G01  f 43    801.2 2045999.0  1.0  1.0  5  0  28597931
[01]  G03  f 38  -2674.2 2046003.5  1.0  1.0  5  0  28597920
[02]  G17  f 40  -1563.9 2046002.0  1.0  1.0  5  0  28597925
[03]  G22  f 38  -1596.5 2046002.1  1.0  1.0  5  0  28597921
[04]  G28  f 42  -2058.5 2046002.7  1.0  1.0  5  0  28597927
[05]  G07  7 35   2646.1 2045996.5  0.6  1.0  5  0         7
[06]  G08  7 32   2208.6 2045997.1  0.2  1.0  5  0        18
[07]  G11  7 25   1713.6 2045997.8 -0.0  0.0 20  0        14
[08]  G18  1 23   2364.9 2045997.1  0.0  0.0  1  0         3
[16]  B01 1f 40   -286.1 4092000.7  0.9  0.0  2  0  28583874
[17]  B02 1f 39   -332.1 4092000.9  0.9  0.0  2  0  28583875
[18]  B03 1f 42   -304.3 4092000.8  0.9  0.0  2  0  28583877
[19]  B04 1f 39   -301.5 4092000.8  0.9  0.0  2  0  28583869
[20]  B07 1f 42   -317.7 4092000.8  1.0  1.0  5  0  28583879
[21]  B08 1f 42   -512.0 4092001.3  1.0  1.0  5  0  28583880
[23]  B10 1f 43   -680.4 4092001.8  1.0  1.0  5  0  28583879
[24]  B11 1f 43  -1351.1 4092003.5  1.0  1.0  5  0  28583923
[26]  B13 1f 42  -1022.3 4092002.7  1.0  1.0  5  0  28583876
$GNGGA,075621.000,2944.9129,N,10633.0940,E,1,14,1.0,306.0,M,,,,0000*15
$GNRMC,075621.000,A,2944.9129,N,10633.0940,E,0.05,0.00,280419,,*1B
$GPGSA,A,3,01,03,17,22,28,,,,,,,,1.1,1.0,0.4*39
$BDGSA,A,3,01,02,03,04,07,08,10,11,13,,,,1.1,1.0,0.4*2E
$GPGSV,3,1,12,01,63,062,43,03,18,125,38,17,36,275,40,22,22,102,38*77
$GPGSV,3,2,12,28,49,332,42,07,40,181,35,08,15,058,32,11,51,041,25*73
$GPGSV,3,3,12,13,06,289,00,18,37,045,00,19,16,258,00,30,62,231,00*76
$BDGSV,3,1,12,01,40,125,40,02,46,219,39,03,55,171,42,04,23,109,39*6B
$BDGSV,3,2,12,07,65,103,42,08,83,176,42,10,78,008,43,11,49,264,43*64
$BDGSV,3,3,12,13,56,210,42,05,27,244,00,09,02,199,00,12,36,037,00*65
$LOGTIM,3,-412.508289,-607.712830,0.000000,0.000000,-57.054*10
---00000014--- Acq_st=3 2019-4-28 07:56:21 
[00]  G01  f 43    798.1 2045999.0  1.0  1.0  5  0  28598931
[01]  G03  f 37  -2678.4 2046003.5  1.0  1.0  5  0  28598920
[02]  G17  f 39  -1567.4 2046002.0  1.0  1.0  5  0  28598925
[03]  G22  f 38  -1599.9 2046002.1  1.0  1.0  5  0  28598921
[04]  G28  f 41  -2061.9 2046002.7  1.0  1.0  5  0  28598927
[05]  G07  7 43   2643.1 2045996.5  1.0  1.0  5  0         7
[06]  G08  7 37   2204.4 2045997.1  1.0  1.0  5  0        18
[07]  G11  7 42   1709.6 2045997.7  0.7  1.0  5  0         9
[08]  G18  7 26   2361.2 2045996.9  0.1  0.0 20  0         3
[09]  G30  1  7    863.8 2046000.1  0.0  0.0  1  0         0
[16]  B01 1f 40   -289.2 4092000.7  0.9  0.0  2  0  28584874
[17]  B02 1f 39   -335.9 4092000.8  0.9  0.0  2  0  28584875
[18]  B03 1f 41   -307.9 4092000.8  1.0  0.0  2  0  28584877
[19]  B04 1f 40   -304.6 4092000.8  0.9  0.0  2  0  28584869
[20]  B07 1f 43   -321.1 4092000.8  1.0  1.0  5  0  28584879
[21]  B08 1f 43   -515.1 4092001.3  1.0  1.0  5  0  28584880
[23]  B10 1f 43   -683.9 4092001.8  1.0  1.0  5  0  28584879
[24]  B11 1f 42  -1354.4 4092003.5  1.0  1.0  5  0  28584923
[26]  B13 1f 43  -1025.5 4092002.7  1.0  1.0  5  0  28584876
$GNGGA,075622.000,2944.9134,N,10633.0931,E,1,14,1.0,305.3,M,,,,0000*1C
$GNRMC,075622.000,A,2944.9134,N,10633.0931,E,0.14,0.00,280419,,*12
$GPGSA,A,3,01,03,17,22,28,,,,,,,,1.1,1.0,0.4*39
$BDGSA,A,3,01,02,03,04,07,08,10,11,13,,,,1.1,1.0,0.4*2E
$GPGSV,3,1,12,01,63,062,43,03,18,125,37,17,36,275,39,22,22,102,38*76
$GPGSV,3,2,12,28,49,332,41,07,40,181,43,08,15,058,37,11,51,041,42*75
$GPGSV,3,3,12,18,37,045,26,13,06,289,00,19,16,258,00,30,62,231,00*72
$BDGSV,3,1,12,01,40,125,40,02,46,219,39,03,55,171,41,04,23,109,40*66
$BDGSV,3,2,12,07,65,103,43,08,83,176,43,10,78,008,43,11,49,264,42*65
$BDGSV,3,3,12,13,56,210,43,05,27,244,00,09,02,199,00,12,36,037,00*64
$LOGTIM,3,-469.886035,-662.900707,0.000000,0.000000,-57.682*1A
---00000015--- Acq_st=3 2019-4-28 07:56:22 
[00]  G01  f 43    795.2 2045999.0  1.0  1.0  5  0  28599931
[01]  G03  f 37  -2680.6 2046003.5  1.0  1.0  5  0  28599920
[02]  G17  f 40  -1570.1 2046002.0  1.0  1.0  5  0  28599925
[03]  G22  f 38  -1602.9 2046002.1  1.0  1.0  5  0  28599921
[04]  G28  f 42  -2064.9 2046002.7  1.0  1.0  5  0  28599927
[05]  G07  7 43   2640.3 2045996.5  1.0  1.0  5  0         7
[06]  G08  7 36   2201.8 2045997.1  1.0  1.0  5  0        18
[07]  G11  7 43   1707.3 2045997.8  1.0  1.0  5  0         9
[08]  G18  7 42   2358.3 2045996.9  0.7  1.0  5  0         7
[09]  G30  1 26    724.4 2045998.9 -0.0  0.0  1  0        14
[16]  B01 1f 41   -292.1 4092000.5  0.9  0.0  2  0  28585874
[17]  B02 1f 38   -339.2 4092001.1  0.9  0.0  2  0  28585875
[18]  B03 1f 43   -310.8 4092000.8  0.9  0.0  2  0  28585877
[19]  B04 1f 40   -307.8 4092000.8  0.9  0.0  2  0  28585869
[20]  B07 1f 43   -324.0 4092000.8  1.0  1.0  5  0  28585879
[21]  B08 1f 43   -518.1 4092001.4  1.0  1.0  5  0  28585880
[23]  B10 1f 44   -687.0 4092001.8  1.0  1.0  5  0  28585879
[24]  B11 1f 43  -1357.3 4092003.6  1.0  1.0  5  0  28585923
[26]  B13 1f 42  -1028.4 4092002.7  1.0  1.0  5  0  28585876
$GNGGA,075623.000,2944.9195,N,10633.0948,E,1,14,1.0,322.3,M,,,,0000*1D
$GNRMC,075623.000,A,2944.9195,N,10633.0948,E,0.14,0.00,280419,,*16
$GPGSA,A,3,01,03,17,22,28,,,,,,,,1.1,1.0,0.4*39
$BDGSA,A,3,01,02,03,04,07,08,10,11,13,,,,1.1,1.0,0.4*2E
$GPGSV,3,1,12,01,63,062,43,03,18,125,37,17,36,275,40,22,22,102,38*78
$GPGSV,3,2,12,28,49,332,42,07,40,181,43,08,15,058,36,11,51,041,43*76
$GPGSV,3,3,12,18,37,045,42,13,06,289,00,19,16,258,00,30,62,231,00*70
$BDGSV,3,1,12,01,40,125,41,02,46,219,38,03,55,171,43,04,23,109,39*6A
$BDGSV,3,2,12,07,65,103,43,08,83,176,43,10,78,008,44,11,49,264,43*63
$BDGSV,3,3,12,13,56,210,42,05,27,244,00,09,02,199,00,12,36,037,00*65
$LOGTIM,3,-518.964742,-717.932993,0.000000,0.000000,-57.768*13
---00000016--- Acq_st=3 2019-4-28 07:56:23 
[00]  G01  f 43    796.0 2045999.0  1.0  1.0  5  0  28600931
[01]  G03  f 38  -2680.4 2046003.5  1.0  1.0  5  0  28600920
[02]  G17  f 40  -1570.0 2046002.0  1.0  1.0  5  0  28600925
[03]  G22  f 38  -1602.5 2046002.1  1.0  1.0  5  0  28600921
[04]  G28  f 42  -2064.9 2046002.7  1.0  1.0  5  0  28600927
[05]  G07  7 43   2640.7 2045996.5  1.0  1.0  5  0         7
[06]  G08  7 36   2201.1 2045997.1  1.0  1.0  5  0        18
[07]  G11  7 43   1707.3 2045997.8  1.0  1.0  5  0         9
[08]  G18  7 42   2358.4 2045996.9  1.0  1.0  5  0         7
[09]  G30  7 34    722.2 2045999.0  0.8  1.0  5  0        10
[16]  B01 1f 40   -292.8 4092000.6  0.9  0.0  2  0  28586874
[17]  B02 1f 39   -339.4 4092001.0  1.0  0.0  2  0  28586875
[18]  B03 1f 42   -311.1 4092000.8  1.0  0.0  2  0  28586877
[19]  B04 1f 39   -308.4 4092000.9  0.9  0.0  2  0  28586869
[20]  B07 1f 42   -324.3 4092000.8  1.0  1.0  5  0  28586879
[21]  B08 1f 42   -518.4 4092001.4  1.0  1.0  5  0  28586880
[22]  B12  1  7   1841.8 4091994.9  0.0  0.0  1  0      1888
[23]  B10 1f 43   -687.2 4092001.8  1.0  1.0  5  0  28586879
[24]  B11 1f 43  -1357.4 4092003.5  1.0  1.0  5  0  28586923
[26]  B13 1f 42  -1028.8 4092002.7  1.0  1.0  5  0  28586876
$GNGGA,075624.000,2944.9232,N,10633.0906,E,1,14,1.0,321.7,M,,,,0000*19
$GNRMC,075624.000,A,2944.9232,N,10633.0906,E,0.08,0.00,280419,,*18
$GPGSA,A,3,01,03,17,22,28,,,,,,,,1.1,1.0,0.4*39
$BDGSA,A,3,01,02,03,04,07,08,10,11,13,,,,1.1,1.0,0.4*2E
$GPGSV,3,1,12,01,63,062,43,03,18,125,38,17,36,275,40,22,22,102,38*77
$GPGSV,3,2,12,28,49,332,42,07,40,181,43,08,15,058,36,11,51,041,43*76
$GPGSV,3,3,12,18,37,045,42,30,62,231,34,13,06,289,00,19,16,258,00*77
$BDGSV,3,1,12,01,40,125,40,02,46,219,39,03,55,171,42,04,23,109,39*6B
$BDGSV,3,2,12,07,65,103,42,08,83,176,42,10,78,008,43,11,49,264,43*64
$BDGSV,3,3,12,13,56,210,42,05,27,244,00,09,02,199,00,12,36,037,00*65
$LOGTIM,3,-577.888863,-781.516350,0.000000,0.000000,-57.940*11
---00000017--- Acq_st=3 2019-4-28 07:56:24 
[00]  G01  f 45    798.7 2045999.0  1.0  1.0  5  0  28601931
[01]  G03  f 38  -2678.9 2046003.5  1.0  1.0  5  0  28601920
[02]  G17  f 41  -1568.2 2046002.0  1.0  1.0  5  0  28601925
[03]  G22  f 39  -1599.8 2046002.1  1.0  1.0  5  0  28601921
[04]  G28  f 43  -2063.0 2046002.7  1.0  1.0  5  0  28601927
[05]  G07  7 44   2643.3 2045996.6  1.0  1.0  5  0         7
[06]  G08  7 36   2203.2 2045997.1  1.0  1.0  5  0        18
[07]  G11  7 44   1710.0 2045997.8  1.0  1.0  5  0         9
[08]  G18  7 43   2360.7 2045996.9  1.0  1.0  5  0         7
[09]  G30  7 45    724.8 2045999.0  1.0  1.0  5  0        10
[16]  B01 1f 40   -291.0 4092000.9  1.0  0.0  2  0  28587874
[17]  B02 1f 40   -337.2 4092000.9  0.9  0.0  2  0  28587875
[18]  B03 1f 43   -308.9 4092000.8  1.0  0.0  2  0  28587877
[19]  B04 1f 39   -306.4 4092000.9  0.9  0.0  2  0  28587869
[20]  B07 1f 43   -322.4 4092000.8  1.0  1.0  5  0  28587879
[21]  B08 1f 43   -515.9 4092001.3  1.0  1.0  5  0  28587880
[22]  B12  1  7   1879.4 4091995.0  0.7  0.0  1  0       989
[23]  B10 1f 44   -685.0 4092001.8  1.0  1.0  5  0  28587879
[24]  B11 1f 43  -1354.8 4092003.5  1.0  1.0  5  0  28587923
[26]  B13 1f 43  -1026.4 4092002.7  1.0  1.0  5  0  28587876
$GNGGA,075625.000,2944.9175,N,10633.0924,E,1,12,1.1,311.8,M,,,,0000*13
$GNRMC,075625.000,A,2944.9175,N,10633.0924,E,0.07,0.00,280419,,*16
$GPGSA,A,3,01,03,17,22,28,,,,,,,,1.2,1.1,0.5*3A
$BDGSA,A,3,01,02,03,04,07,10,11,,,,,,1.2,1.1,0.5*27
$GPGSV,3,1,12,01,63,062,45,03,18,125,38,17,36,275,41,22,22,102,39*71
$GPGSV,3,2,12,28,49,332,43,07,40,181,44,08,15,058,36,11,51,041,44*77
$GPGSV,3,3,12,18,37,045,43,30,62,231,45,13,06,289,00,19,16,258,00*70
$BDGSV,3,1,12,01,40,125,40,02,46,219,40,03,55,171,43,04,23,109,39*64
$BDGSV,3,2,12,07,65,103,43,08,83,176,43,10,78,008,44,11,49,264,43*63
$BDGSV,3,3,12,13,56,210,43,05,27,244,00,09,02,199,00,12,36,037,00*64
$LOGTIM,3,-640.269798,-831.955949,0.000000,0.000000,-57.374*18
---00000018--- Acq_st=3 2019-4-28 07:56:25 
[00]  G01  f 44    806.5 2045999.0  1.0  1.0  5  0  28602931
[01]  G03  f 38  -2671.7 2046003.5  1.0  1.0  5  0  28602920
[02]  G17  f 41  -1560.8 2046002.0  1.0  1.0  5  0  28602925
[03]  G22  f 39  -1593.0 2046002.1  1.0  1.0  5  0  28602921
[04]  G28  f 42  -2055.6 2046002.7  1.0  1.0  5  0  28602927
[05]  G07  f 43   2650.6 2045996.5  1.0  1.0  5  0         7
[06]  G08  f 36   2210.0 2045997.1  1.0  1.0  5  0        18
[07]  G11  f 43   1717.2 2045997.8  1.0  1.0  5  0         9
[08]  G18  f 42   2368.6 2045996.9  1.0  1.0  5  0         7
[09]  G30  f 44    732.3 2045999.0  1.0  1.0  5  0        10
[16]  B01 1f 39   -283.9 4092000.9  0.9  0.0  2  0  28588874
[17]  B02 1f 39   -330.3 4092000.8  1.0  0.0  2  0  28588875
[18]  B03 1f 42   -302.1 4092000.8  1.0  0.0  2  0  28588877
[19]  B04 1f 40   -299.4 4092000.8  0.9  0.0  2  0  28588869
[20]  B07 1f 43   -315.0 4092000.8  1.0  1.0  5  0  28588879
[21]  B08 1f 43   -508.7 4092001.3  1.0  1.0  5  0  28588880
[22]  B12  1  7   1886.8 4091994.9  0.9  0.0  1  0      1989
[23]  B10 1f 43   -678.1 4092001.7  1.0  1.0  5  0  28588879
[24]  B11 1f 43  -1347.7 4092003.5  1.0  1.0  5  0  28588923
[26]  B13 1f 43  -1019.3 4092002.7  1.0  1.0  5  0  28588876
$GNGGA,075626.000,2944.9130,N,10633.0911,E,1,19,0.7,317.6,M,,,,0000*13
$GNRMC,075626.000,A,2944.9130,N,10633.0911,E,0.18,0.00,280419,,*1C
$GPGSA,A,3,01,03,07,08,11,17,18,22,28,30,,,0.9,0.7,0.4*33
$BDGSA,A,3,01,02,03,04,07,08,10,11,13,,,,0.9,0.7,0.4*21
$GPGSV,3,1,12,01,63,062,44,03,18,125,38,17,36,275,41,22,22,102,39*70
$GPGSV,3,2,12,28,49,332,42,07,40,181,43,08,15,058,36,11,51,041,43*76
$GPGSV,3,3,12,18,37,045,42,30,62,231,44,13,06,289,00,19,16,258,00*70
$BDGSV,3,1,12,01,40,125,39,02,46,219,39,03,55,171,42,04,23,109,40*6B
$BDGSV,3,2,12,07,65,103,43,08,83,176,43,10,78,008,43,11,49,264,43*64
$BDGSV,3,3,12,13,56,210,43,05,27,244,00,09,02,199,00,12,36,037,00*64
$LOGTIM,3,-696.327678,-884.706064,0.000000,0.000000,-56.577*13
---00000019--- Acq_st=3 2019-4-28 07:56:26 
[00]  G01  f 44    807.1 2045998.9  1.0  1.0  5  0  28603931
[01]  G03  f 38  -2671.3 2046003.5  1.0  1.0  5  0  28603920
[02]  G17  f 41  -1560.5 2046002.0  1.0  1.0  5  0  28603925
[03]  G22  f 39  -1591.8 2046002.1  1.0  1.0  5  0  28603921
[04]  G28  f 42  -2055.9 2046002.7  1.0  1.0  5  0  28603927
[05]  G07  f 43   2650.9 2045996.6  1.0  1.0  5  0  28603927
[06]  G08  f 36   2209.6 2045997.2  1.0  1.0  5  0  28603918
[07]  G11  f 43   1717.6 2045997.8  1.0  1.0  5  0  28603929
[08]  G18  f 42   2369.1 2045996.9  1.0  1.0  5  0  28603927
[09]  G30  f 44    733.0 2045999.0  1.0  1.0  5  0  28603930
[16]  B01 1f 41   -284.0 4092000.6  1.0  0.0  2  0  28589874
[17]  B02 1f 39   -330.2 4092000.9  0.9  0.0  2  0  28589875
[18]  B03 1f 41   -302.3 4092000.8  1.0  0.0  2  0  28589877
[19]  B04 1f 40   -299.2 4092000.8  0.9  0.0  2  0  28589869
[20]  B07 1f 42   -315.4 4092000.8  1.0  1.0  5  0  28589879
[21]  B08 1f 42   -508.7 4092001.3  1.0  1.0  5  0  28589880
[22]  B26  1  7   2116.1 4091993.0  0.0  0.0  1  0      2989
[23]  B10 1f 43   -677.8 4092001.8  1.0  1.0  5  0  28589879
[24]  B11 1f 43  -1347.2 4092003.5  1.0  1.0  5  0  28589923
[26]  B13 1f 42  -1019.4 4092002.7  1.0  1.0  5  0  28589876
$GNGGA,075627.000,2944.9116,N,10633.0911,E,1,19,0.7,317.9,M,,,,0000*19
$GNRMC,075627.000,A,2944.9116,N,10633.0911,E,0.11,0.00,280419,,*10
$GPGSA,A,3,01,03,07,08,11,17,18,22,28,30,,,0.9,0.7,0.4*33
$BDGSA,A,3,01,02,03,04,07,08,10,11,13,,,,0.9,0.7,0.4*21
$GPGSV,3,1,12,01,63,062,44,03,18,125,38,17,36,275,41,22,22,102,39*70
$GPGSV,3,2,12,28,49,332,42,07,40,181,43,08,15,058,36,11,51,041,43*76
$GPGSV,3,3,12,18,37,045,42,30,62,231,44,13,06,289,00,19,16,258,00*70
$BDGSV,3,1,12,01,40,125,41,02,46,219,39,03,55,171,41,04,23,109,40*67
$BDGSV,3,2,12,07,65,103,42,08,83,176,42,10,78,008,43,11,49,264,43*64
$BDGSV,3,3,12,13,56,210,42,05,27,244,00,09,02,199,00,12,36,037,00*65
$LOGTIM,3,-753.513499,-940.248553,0.000000,0.000000,-56.742*14
---00000020--- Acq_st=3 2019-4-28 07:56:27 
[00]  G01  f 44    806.9 2045999.0  1.0  1.0  5  0  28604931
[01]  G03  f 38  -2672.0 2046003.5  1.0  1.0  5  0  28604920
[02]  G17  f 40  -1560.9 2046002.0  1.0  1.0  5  0  28604925
[03]  G22  f 39  -1592.6 2046002.0  1.0  1.0  5  0  28604921
[04]  G28  f 42  -2056.5 2046002.7  1.0  1.0  5  0  28604927
[05]  G07  f 43   2650.6 2045996.6  1.0  1.0  5  0  28604927
[06]  G08  f 36   2209.3 2045997.1  1.0  1.0  5  0  28604918
[07]  G11  f 43   1717.3 2045997.8  1.0  1.0  5  0  28604929
[08]  G18  f 41   2368.4 2045996.9  1.0  1.0  5  0  28604927
[09]  G30  f 44    733.0 2045999.1  1.0  1.0  5  0  28604930
[16]  B01 1f 39   -284.7 4092000.8  0.9  0.0  2  0  28590874
[17]  B02 1f 39   -331.2 4092000.9  0.9  0.0  2  0  28590875
[18]  B03 1f 41   -302.9 4092000.8  1.0  0.0  2  0  28590877
[19]  B04 1f 39   -300.0 4092000.9  0.9  0.0  2  0  28590869
[20]  B07 1f 42   -316.0 4092000.8  1.0  1.0  5  0  28590879
[21]  B08 1f 42   -509.5 4092001.3  1.0  1.0  5  0  28590880
[22]  B26  1  7   2887.9 4091992.0 -0.0  0.0  1  0       468
[23]  B10 1f 43   -678.7 4092001.8  1.0  1.0  5  0  28590879
[24]  B11 1f 43  -1347.8 4092003.5  1.0  1.0  5  0  28590923
[26]  B13 1f 42  -1019.9 4092002.7  1.0  1.0  5  0  28590876
$GNGGA,075628.000,2944.9092,N,10633.0918,E,1,19,0.7,319.0,M,,,,0000*15
$GNRMC,075628.000,A,2944.9092,N,10633.0918,E,0.14,0.00,280419,,*1E
$GPGSA,A,3,01,03,07,08,11,17,18,22,28,30,,,0.9,0.7,0.4*33
$BDGSA,A,3,01,02,03,04,07,08,10,11,13,,,,0.9,0.7,0.4*21
$GPGSV,3,1,12,01,63,062,44,03,18,125,38,17,36,275,40,22,22,102,39*71
$GPGSV,3,2,12,28,49,332,42,07,40,181,43,08,15,058,36,11,51,041,43*76
$GPGSV,3,3,12,18,37,045,41,30,62,231,44,13,06,289,00,19,16,258,00*73
$BDGSV,3,1,12,01,40,125,39,02,46,219,39,03,55,171,42,04,23,109,39*65
$BDGSV,3,2,12,07,65,103,42,08,83,176,42,10,78,008,43,11,49,264,43*64
$BDGSV,3,3,12,13,56,210,42,05,27,244,00,09,02,199,00,12,36,037,00*65
$LOGTIM,3,-811.135446,-997.057291,0.000000,0.000000,-56.834*1E
---00000021--- Acq_st=3 2019-4-28 07:56:28 
[00]  G01  f 44    806.4 2045999.0  1.0  1.0  5  0  28605931
[01]  G03  f 38  -2672.5 2046003.4  1.0  1.0  5  0  28605920
[02]  G17  f 41  -1562.1 2046002.0  1.0  1.0  5  0  28605925
[03]  G22  f 39  -1593.3 2046002.1  1.0  1.0  5  0  28605921
[04]  G28  f 41  -2057.5 2046002.7  1.0  1.0  5  0  28605927
[05]  G07  f 43   2649.7 2045996.6  1.0  1.0  5  0  28605927
[06]  G08  f 36   2208.0 2045997.1  1.0  1.0  5  0  28605918
[07]  G11  f 43   1716.4 2045997.8  1.0  1.0  5  0  28605929
[08]  G18  f 42   2367.8 2045996.9  1.0  1.0  5  0  28605927
[09]  G30  f 45    732.5 2045999.1  1.0  1.0  5  0  28605930
[16]  B01 1f 40   -286.4 4092000.9  0.9  0.0  2  0  28591874
[17]  B02 1f 40   -332.5 4092000.7  0.9  0.0  2  0  28591875
[18]  B03 1f 43   -304.0 4092000.8  1.0  0.0  2  0  28591877
[19]  B04 1f 40   -301.1 4092000.8  0.9  0.0  2  0  28591869
[20]  B07 1f 42   -316.9 4092000.8  1.0  1.0  5  0  28591879
[21]  B08 1f 42   -510.3 4092001.3  1.0  1.0  5  0  28591880
[22]  B26  1  7   2967.8 4091990.0 -0.2  0.0  1  0      1468
[23]  B10 1f 43   -680.0 4092001.8  1.0  1.0  5  0  28591879
[24]  B11 1f 43  -1348.8 4092003.5  1.0  1.0  5  0  28591923
[26]  B13 1f 43  -1021.1 4092002.7  1.0  1.0  5  0  28591876
$GNGGA,075629.000,2944.9076,N,10633.0926,E,1,19,0.7,318.8,M,,,,0000*1A
$GNRMC,075629.000,A,2944.9076,N,10633.0926,E,0.13,0.00,280419,,*1F
$GPGSA,A,3,01,03,07,08,11,17,18,22,28,30,,,0.9,0.7,0.4*33
$BDGSA,A,3,01,02,03,04,07,08,10,11,13,,,,0.9,0.7,0.4*21
$GPGSV,3,1,12,01,63,062,44,03,18,125,38,17,36,275,41,22,22,102,39*70
$GPGSV,3,2,12,28,49,332,41,07,40,181,43,08,15,058,36,11,51,041,43*75
$GPGSV,3,3,12,18,37,045,42,30,62,231,45,13,06,289,00,19,16,258,00*71
$BDGSV,3,1,12,01,40,125,40,02,46,219,39,03,55,171,43,04,23,109,40*64
$BDGSV,3,2,12,07,65,103,42,08,83,176,42,10,78,008,43,11,49,264,43*64
$BDGSV,3,3,12,13,56,210,43,05,27,244,00,09,02,199,00,12,36,037,00*64
$LOGTIM,3,-868.912944,-1054.295101,0.000000,0.000000,-57.066*2D
---00000022--- Acq_st=7 2019-4-28 07:56:29 
[00]  G01  f 44    804.4 2045998.9  1.0  1.0  5  0  28606931
[01]  G03  f 38  -2675.5 2046003.5  1.0  1.0  5  0  28606920
[02]  G17  f 41  -1564.4 2046002.0  1.0  1.0  5  0  28606925
[03]  G22  f 38  -1596.0 2046002.1  1.0  1.0  5  0  28606921
[04]  G28  f 42  -2059.9 2046002.7  1.0  1.0  5  0  28606927
[05]  G07  f 43   2647.4 2045996.6  1.0  1.0  5  0  28606927
[06]  G08  f 36   2205.6 2045997.1  1.0  0.9  5  0  28606918
[07]  G11  f 44   1714.2 2045997.8  1.0  1.0  5  0  28606929
[08]  G18  f 42   2365.5 2045996.9  1.0  1.0  5  0  28606927
[09]  G30  f 45    730.3 2045999.0  1.0  1.0  5  0  28606930
[16]  B01 1f 40   -288.2 4092000.7  0.9  0.0  2  0  28592874
[17]  B02 1f 39   -334.7 4092000.9  0.9  0.0  2  0  28592875
[18]  B03 1f 41   -306.4 4092000.8  1.0  0.0  2  0  28592877
[19]  B04 1f 40   -303.9 4092000.7  0.9  0.0  2  0  28592869
[20]  B07 1f 42   -319.3 4092000.8  1.0  1.0  5  0  28592879
[21]  B08 1f 42   -512.9 4092001.3  1.0  1.0  5  0  28592880
[22]  B26  7 31   2960.9 4091992.3  0.4  1.0  5  0      2454
[23]  B10 1f 44   -682.2 4092001.8  1.0  1.0  5  0  28592879
[24]  B11 1f 43  -1351.0 4092003.5  1.0  1.0  5  0  28592923
[26]  B13 1f 43  -1023.6 4092002.7  1.0  1.0  5  0  28592876
$GNGGA,075630.000,2944.9063,N,10633.0930,E,1,19,0.7,318.4,M,,,,0000*1D
$GNRMC,075630.000,A,2944.9063,N,10633.0930,E,0.14,0.00,280419,,*13
$GPGSA,A,3,01,03,07,08,11,17,18,22,28,30,,,0.9,0.7,0.4*33
$BDGSA,A,3,01,02,03,04,07,08,10,11,13,,,,0.9,0.7,0.4*21
$GPGSV,3,1,12,01,63,062,44,03,18,125,38,17,36,275,41,22,22,102,38*71
$GPGSV,3,2,12,28,49,332,42,07,40,181,43,08,15,058,36,11,51,041,44*71
$GPGSV,3,3,12,18,37,045,42,30,62,231,45,13,06,289,00,19,16,258,00*71
$BDGSV,3,1,12,01,40,125,41,02,46,219,39,03,55,171,41,04,23,109,40*67
$BDGSV,3,2,12,07,65,103,42,08,83,176,42,26,13,150,31,10,78,008,44*69
$BDGSV,3,3,12,11,49,264,43,13,56,210,43,05,27,244,00,09,02,199,00*6C
$LOGTIM,3,-926.710765,-1111.582764,0.000000,0.000000,-57.510*27
---00000023--- Acq_st=3 2019-4-28 07:56:30 
[00]  G01  f 44    802.5 2045999.0  1.0  1.0  5  0  28607931
[01]  G03  f 38  -2677.9 2046003.5  1.0  1.0  5  0  28607920
[02]  G17  f 40  -1566.9 2046002.0  1.0  1.0  5  0  28607925
[03]  G22  f 39  -1597.8 2046002.0  1.0  1.0  5  0  28607921
[04]  G28  f 42  -2062.7 2046002.7  1.0  1.0  5  0  28607927
[05]  G07  f 44   2645.1 2045996.6  1.0  1.0  5  0  28607927
[06]  G08  f 37   2202.3 2045997.1  1.0  1.0  5  0  28607918
[07]  G11  f 43   1712.1 2045997.8  1.0  1.0  5  0  28607929
[08]  G18  f 42   2363.3 2045996.9  1.0  1.0  5  0  28607927
[09]  G30  f 45    728.4 2045999.0  1.0  1.0  5  0  28607930
[16]  B01 1f 40   -291.3 4092000.8  0.9  0.0  2  0  28593874
[17]  B02 1f 39   -337.3 4092000.9  0.9  0.0  2  0  28593875
[18]  B03 1f 42   -309.5 4092000.8  1.0  0.0  2  0  28593877
[19]  B04 1f 40   -306.5 4092000.8  0.9  0.0  2  0  28593869
[20]  B07 1f 42   -321.7 4092000.8  1.0  1.0  5  0  28593879
[21]  B08 1f 43   -515.1 4092001.3  1.0  1.0  5  0  28593880
[22]  B26  7 37   2959.3 4091992.3  1.0  1.0  5  0      3454
[23]  B10 1f 44   -684.9 4092001.8  1.0  1.0  5  0  28593879
[24]  B11 1f 43  -1353.6 4092003.6  1.0  1.0  5  0  28593923
[26]  B13 1f 43  -1025.7 4092002.7  1.0  1.0  5  0  28593876
$GNGGA,075631.000,2944.9074,N,10633.0894,E,1,19,0.7,316.7,M,,,,0000*18
$GNRMC,075631.000,A,2944.9074,N,10633.0894,E,0.08,0.00,280419,,*16
$GPGSA,A,3,01,03,07,08,11,17,18,22,28,30,,,0.9,0.7,0.4*33
$BDGSA,A,3,01,02,03,04,07,08,10,11,13,,,,0.9,0.7,0.4*21
$GPGSV,3,1,12,01,63,062,44,03,18,125,38,17,36,275,40,22,22,102,39*71
$GPGSV,3,2,12,28,49,332,42,07,40,181,44,08,15,058,37,11,51,041,43*70
$GPGSV,3,3,12,18,37,045,42,30,62,231,45,13,06,289,00,19,16,258,00*71
$BDGSV,3,1,12,01,40,125,40,02,46,219,39,03,55,171,42,04,23,109,40*65
$BDGSV,3,2,12,07,65,103,42,08,83,176,43,26,13,150,37,10,78,008,44*6E
$BDGSV,3,3,12,11,49,264,43,13,56,210,43,05,27,244,00,09,02,199,00*6C
$LOGTIM,3,-986.953509,-1172.280505,0.000000,0.000000,-58.080*2A
---00000024--- Acq_st=3 2019-4-28 07:56:31 
[00]  G01  f 44    801.2 2045998.9  1.0  1.0  5  0  28608931
[01]  G03  f 38  -2679.7 2046003.5  1.0  1.0  5  0  28608920
[02]  G17  f 40  -1568.7 2046002.1  1.0  1.0  5  0  28608925
[03]  G22  f 38  -1599.4 2046002.1  1.0  1.0  5  0  28608921
[04]  G28  f 41  -2064.8 2046002.7  1.0  1.0  5  0  28608927
[05]  G07  f 43   2643.4 2045996.6  1.0  1.0  5  0  28608927
[06]  G08  f 36   2200.3 2045997.2  1.0  1.0  5  0  28608918
[07]  G11  f 43   1710.8 2045997.8  1.0  1.0  5  0  28608929
[08]  G18  f 42   2361.7 2045996.9  1.0  1.0  5  0  28608927
[09]  G30  f 44    727.0 2045999.1  1.0  1.0  5  0  28608930
[16]  B01 1f 40   -292.8 4092000.8  1.0  0.0  2  0  28594874
[17]  B02 1f 40   -339.5 4092000.8  1.0  0.0  2  0  28594875
[18]  B03 1f 42   -311.3 4092000.8  1.0  0.0  2  0  28594877
[19]  B04 1f 39   -308.3 4092000.7  1.0  0.0  2  0  28594869
[20]  B07 1f 42   -323.6 4092000.9  1.0  1.0  5  0  28594879
[21]  B08 1f 42   -516.8 4092001.4  1.0  1.0  5  0  28594880
[22]  B26  7 37   2957.1 4091992.3  1.0  0.9  5  0      4454
[23]  B10 1f 43   -686.8 4092001.8  1.0  1.0  5  0  28594879
[24]  B11 1f 43  -1354.9 4092003.5  1.0  1.0  5  0  28594923
[26]  B13 1f 42  -1027.2 4092002.7  1.0  1.0  5  0  28594876
$GNGGA,075632.000,2944.9069,N,10633.0893,E,1,19,0.7,319.1,M,,,,0000*19
$GNRMC,075632.000,A,2944.9069,N,10633.0893,E,0.06,0.00,280419,,*10
$GPGSA,A,3,01,03,07,08,11,17,18,22,28,30,,,0.9,0.7,0.4*33
$BDGSA,A,3,01,02,03,04,07,08,10,11,13,,,,0.9,0.7,0.4*21
$GPGSV,3,1,12,01,63,062,44,03,18,125,38,17,36,275,40,22,22,102,38*70
$GPGSV,3,2,12,28,49,333,41,07,40,181,43,08,15,058,36,11,51,041,43*74
$GPGSV,3,3,12,18,36,045,42,30,61,231,44,13,06,289,00,19,16,258,00*72
$BDGSV,3,1,12,01,40,125,40,02,46,219,40,03,55,171,42,04,23,109,39*65
$BDGSV,3,2,12,07,65,103,42,08,84,177,42,26,13,150,37,10,78,008,43*6E
$BDGSV,3,3,12,11,49,265,43,13,56,210,42,05,27,244,00,09,02,199,00*6C
$LOGTIM,3,-1044.492407,-1229.954293,0.000000,0.000000,-58.089*1D
---00000025--- Acq_st=3 2019-4-28 07:56:32 
[00]  G01  f 44    803.5 2045998.9  1.0  1.0  5  0  28609931
[01]  G03  f 38  -2677.9 2046003.5  1.0  1.0  5  0  28609920
[02]  G17  f 40  -1566.9 2046002.1  1.0  1.0  5  0  28609925
[03]  G22  f 38  -1597.9 2046002.1  1.0  1.0  5  0  28609921
[04]  G28  f 42  -2062.9 2046002.7  1.0  1.0  5  0  28609927
[05]  G07  f 43   2645.7 2045996.6  1.0  1.0  5  0  28609927
[06]  G08  f 36   2202.2 2045997.1  1.0  1.0  5  0  28609918
[07]  G11  f 42   1711.9 2045997.8  1.0  1.0  5  0  28609929
[08]  G18  f 42   2363.9 2045996.9  1.0  1.0  5  0  28609927
[09]  G30  f 45    729.5 2045999.0  1.0  1.0  5  0  28609930
[10]  G24  1  7  -1777.4 2046001.9 -0.0  0.0  1  0         0
[16]  B01 1f 40   -291.2 4092000.7  0.9  0.0  2  0  28595874
[17]  B02 1f 37   -337.8 4092000.7  0.9  0.0  2  0  28595875
[18]  B03 1f 43   -309.5 4092000.9  1.0  0.0  2  0  28595877
[19]  B04 1f 41   -306.5 4092000.7  0.9  0.0  2  0  28595869
[20]  B07 1f 42   -322.1 4092000.8  1.0  1.0  5  0  28595879
[21]  B08 1f 42   -515.0 4092001.3  1.0  1.0  5  0  28595880
[22]  B26  7 37   2959.3 4091992.3  1.0  1.0  5  0      5454
[23]  B10 1f 43   -685.1 4092001.8  1.0  1.0  5  0  28595879
[24]  B11 1f 43  -1353.0 4092003.5  1.0  1.0  5  0  28595923
[26]  B13 1f 43  -1025.8 4092002.7  1.0  1.0  5  0  28595876
$GNGGA,075633.000,2944.9058,N,10633.0884,E,1,19,0.7,318.6,M,,,,0000*1A
$GNRMC,075633.000,A,2944.9058,N,10633.0884,E,0.09,0.00,280419,,*1A
$GPGSA,A,3,01,03,07,08,11,17,18,22,28,30,,,0.9,0.7,0.4*33
$BDGSA,A,3,01,02,03,04,07,08,10,11,13,,,,0.9,0.7,0.4*21
$GPGSV,3,1,12,01,63,062,44,03,18,125,38,17,36,275,40,22,22,102,38*70
$GPGSV,3,2,12,28,49,333,42,07,40,181,43,08,15,058,36,11,51,041,42*76
$GPGSV,3,3,12,18,36,045,42,30,61,231,45,13,06,289,00,19,16,258,00*73
$BDGSV,3,1,12,01,40,125,40,02,46,219,37,03,55,171,43,04,23,109,41*6B
$BDGSV,3,2,12,07,65,103,42,08,84,177,42,26,13,150,37,10,78,008,43*6E
$BDGSV,3,3,12,11,49,265,43,13,56,210,43,05,27,244,00,09,02,199,00*6D
$LOGTIM,3,-1103.061251,-1288.435115,0.000000,0.000000,-57.965*1A
---00000026--- Acq_st=3 2019-4-28 07:56:33 
[00]  G01  f 44    805.3 2045998.9  1.0  1.0  5  0  28610931
[01]  G03  f 38  -2676.5 2046003.5  1.0  1.0  5  0  28610920
[02]  G17  f 40  -1565.7 2046002.0  1.0  1.0  5  0  28610925
[03]  G22  f 38  -1596.3 2046002.1  1.0  1.0  5  0  28610921
[04]  G28  f 42  -2061.3 2046002.7  1.0  1.0  5  0  28610927
[05]  G07  f 43   2647.4 2045996.6  1.0  1.0  5  0  28610927
[06]  G08  f 37   2202.6 2045997.1  1.0  1.0  5  0  28610918
[07]  G11  f 43   1714.0 2045997.8  1.0  1.0  5  0  28610929
[08]  G18  f 42   2365.8 2045996.9  1.0  1.0  5  0  28610927
[09]  G30  f 45    730.8 2045999.1  1.0  1.0  5  0  28610930
[10]  G24  1  7  -1784.1 2046001.4 -0.0  0.0  1  0        14
[16]  B01 1f 39   -290.2 4092000.6  0.9  0.0  2  0  28596874
[17]  B02 1f 40   -336.8 4092000.8  1.0  0.0  2  0  28596875
[18]  B03 1f 41   -308.7 4092000.8  1.0  0.0  2  0  28596877
[19]  B04 1f 39   -305.5 4092000.8  0.9  0.0  2  0  28596869
[20]  B07 1f 42   -321.0 4092000.8  1.0  1.0  5  0  28596879
[21]  B08 1f 43   -514.1 4092001.3  1.0  1.0  5  0  28596880
[22]  B26 1f 37   2960.0 4091992.3  1.0  0.9  5  0      6454
[23]  B10 1f 43   -684.2 4092001.8  1.0  1.0  5  0  28596879
[24]  B11 1f 43  -1351.7 4092003.5  1.0  1.0  5  0  28596923
[26]  B13 1f 43  -1024.4 4092002.7  1.0  1.0  5  0  28596876
$GNGGA,075634.000,2944.9070,N,10633.0909,E,1,20,0.7,321.7,M,,,,0000*12
$GNRMC,075634.000,A,2944.9070,N,10633.0909,E,0.05,0.00,280419,,*1F
$GPGSA,A,3,01,03,07,08,11,17,18,22,28,30,,,0.8,0.7,0.4*32
$BDGSA,A,3,01,02,03,04,07,08,10,11,13,26,,,0.8,0.7,0.4*24
$GPGSV,3,1,12,01,63,062,44,03,18,125,38,17,36,275,40,22,22,102,38*70
$GPGSV,3,2,12,28,49,333,42,07,40,181,43,08,15,058,37,11,51,041,43*76
$GPGSV,3,3,12,18,36,045,42,30,61,231,45,13,06,289,00,19,16,258,00*73
$BDGSV,3,1,12,01,40,125,39,02,46,219,40,03,55,171,41,04,23,109,39*68
$BDGSV,3,2,12,07,65,103,42,08,84,177,43,26,13,150,37,10,78,008,43*6F
$BDGSV,3,3,12,11,49,265,43,13,56,210,43,05,27,244,00,09,02,199,00*6D
$LOGTIM,3,-1160.387563,-1346.686605,0.000000,0.000000,-57.673*15
---00000027--- Acq_st=3 2019-4-28 07:56:34 
[00]  G01  f 44    809.1 2045998.9  1.0  1.0  5  0  28611931
[01]  G03  f 38  -2674.0 2046003.5  1.0  1.0  5  0  28611920
[02]  G17  f 40  -1561.8 2046002.0  1.0  1.0  5  0  28611925
[03]  G22  f 39  -1592.5 2046002.1  1.0  1.0  5  0  28611921
[04]  G28  f 42  -2058.5 2046002.7  1.0  1.0  5  0  28611927
[05]  G07  f 43   2650.5 2045996.6  1.0  1.0  5  0  28611927
[06]  G08  f 36   2206.5 2045997.1  1.0  1.0  5  0  28611918
[07]  G11  f 43   1717.5 2045997.8  1.0  1.0  5  0  28611929
[08]  G18  f 42   2369.3 2045996.9  1.0  1.0  5  0  28611927
[09]  G30  f 45    734.8 2045999.0  1.0  1.0  5  0  28611930
[10]  G24  1  7  -1834.1 2046001.8 -0.1  0.0  1  0        14
[16]  B01 1f 41   -287.1 4092000.8  1.0  0.0  2  0  28597874
[17]  B02 1f 37   -333.5 4092000.9  0.9  0.0  2  0  28597875
[18]  B03 1f 42   -305.2 4092000.9  1.0  0.0  2  0  28597877
[19]  B04 1f 40   -302.4 4092000.8  0.9  0.0  2  0  28597869
[20]  B07 1f 43   -317.6 4092000.8  1.0  1.0  5  0  28597879
[21]  B08 1f 43   -511.0 4092001.3  1.0  1.0  5  0  28597880
[22]  B26 1f 37   2963.7 4091992.2  1.0  1.0  5  0  28597914
[23]  B10 1f 44   -680.5 4092001.8  1.0  1.0  5  0  28597879
[24]  B11 1f 43  -1348.2 4092003.5  1.0  1.0  5  0  28597923
[26]  B13 1f 42  -1021.2 4092002.7  1.0  1.0  5  0  28597876
$GNGGA,075635.000,2944.9078,N,10633.0930,E,1,20,0.7,324.6,M,,,,0000*15
$GNRMC,075635.000,A,2944.9078,N,10633.0930,E,0.13,0.00,280419,,*1B
$GPGSA,A,3,01,03,07,08,11,17,18,22,28,30,,,0.8,0.7,0.4*32
$BDGSA,A,3,01,02,03,04,07,08,10,11,13,26,,,0.8,0.7,0.4*24
$GPGSV,3,1,12,01,63,062,44,03,18,125,38,17,36,275,40,22,22,102,39*71
$GPGSV,3,2,12,28,49,333,42,07,40,181,43,08,15,058,36,11,51,041,43*77
$GPGSV,3,3,12,18,36,045,42,30,61,231,45,13,06,289,00,19,16,258,00*73
$BDGSV,3,1,12,01,40,125,41,02,46,219,37,03,55,171,42,04,23,109,40*6A
$BDGSV,3,2,12,07,65,103,43,08,84,177,43,26,13,150,37,10,78,008,44*69
$BDGSV,3,3,12,11,49,265,43,13,56,210,42,05,27,244,00,09,02,199,00*6C
$LOGTIM,3,-1216.575673,-1403.803597,0.000000,0.000000,-56.644*16
---00000028--- Acq_st=3 2019-4-28 07:56:35 
[00]  G01  f 44    816.1 2045998.9  1.0  1.0  5  0  28612931
[01]  G03  f 38  -2666.8 2046003.5  1.0  1.0  5  0  28612920
[02]  G17  f 40  -1555.3 2046002.0  1.0  1.0  5  0  28612925
[03]  G22  f 39  -1586.3 2046002.1  1.0  1.0  5  0  28612921
[04]  G28  f 41  -2052.1 2046002.7  1.0  1.0  5  0  28612927
[05]  G07  f 43   2657.5 2045996.6  1.0  1.0  5  0  28612927
[06]  G08  f 37   2212.5 2045997.1  1.0  1.0  5  0  28612918
[07]  G11  f 43   1724.1 2045997.7  1.0  1.0  5  0  28612929
[08]  G18  f 42   2375.8 2045996.9  1.0  1.0  5  0  28612927
[09]  G30  f 45    741.5 2045999.0  1.0  1.0  5  0  28612930
[10]  G24  1  7  -1778.3 2046001.9  0.0  0.0  1  0        14
[16]  B01 1f 40   -280.8 4092000.7  0.9  0.0  2  0  28598874
[17]  B02 1f 39   -327.3 4092000.7  0.9  0.0  2  0  28598875
[18]  B03 1f 41   -299.2 4092000.7  1.0  0.0  2  0  28598877
[19]  B04 1f 40   -296.1 4092000.7  0.9  0.0  2  0  28598869
[20]  B07 1f 43   -311.0 4092000.8  1.0  1.0  5  0  28598879
[21]  B08 1f 43   -504.3 4092001.3  1.0  1.0  5  0  28598880
[22]  B26 1f 37   2969.6 4091992.2  1.0  1.0  5  0  28598914
[23]  B10 1f 44   -674.2 4092001.7  1.0  1.0  5  0  28598879
[24]  B11 1f 43  -1341.6 4092003.5  1.0  1.0  5  0  28598923
[25]  B12  1  7   1890.0 4091994.9  0.3  0.0  1  0       431
[26]  B13 1f 42  -1015.3 4092002.6  1.0  1.0  5  0  28598876
$GNGGA,075636.000,2944.9093,N,10633.0928,E,1,20,0.7,325.1,M,,,,0000*1C
$GNRMC,075636.000,A,2944.9093,N,10633.0928,E,0.11,0.00,280419,,*16
$GPGSA,A,3,01,03,07,08,11,17,18,22,28,30,,,0.8,0.7,0.4*32
$BDGSA,A,3,01,02,03,04,07,08,10,11,13,26,,,0.8,0.7,0.4*24
$GPGSV,3,1,12,01,63,062,44,03,18,125,38,17,36,275,40,22,22,102,39*71
$GPGSV,3,2,12,28,49,333,41,07,40,181,43,08,15,058,37,11,51,041,43*75
$GPGSV,3,3,12,18,36,045,42,30,61,231,45,13,06,289,00,19,16,258,00*73
$BDGSV,3,1,12,01,40,125,40,02,46,219,39,03,55,171,41,04,23,109,40*66
$BDGSV,3,2,12,07,65,103,43,08,84,177,43,26,13,150,37,10,78,008,44*69
$BDGSV,3,3,12,11,49,265,43,13,56,210,42,05,27,244,00,09,02,199,00*6C
$LOGTIM,3,-1271.991284,-1459.294708,0.000000,0.000000,-56.465*13
---00000029--- Acq_st=3 2019-4-28 07:56:37 
[00]  G01  f 44    811.9 2045998.9  1.0  1.0  5  0  28613931
[01]  G03  f 38  -2672.0 2046003.5  1.0  1.0  5  0  28613920
[02]  G17  f 40  -1560.1 2046002.0  1.0  1.0  5  0  28613925
[03]  G22  f 38  -1590.4 2046002.0  1.0  1.0  5  0  28613921
[04]  G28  f 41  -2057.1 2046002.7  1.0  1.0  5  0  28613927
[05]  G07  f 43   2652.6 2045996.5  1.0  1.0  5  0  28613927
[06]  G08  f 36   2207.5 2045997.1  1.0  1.0  5  0  28613918
[07]  G11  f 42   1719.3 2045997.7  1.0  1.0  5  0  28613929
[08]  G18  f 41   2371.1 2045996.9  1.0  1.0  5  0  28613927
[09]  G30  f 44    737.3 2045999.0  1.0  1.0  5  0  28613930
[16]  B01 1f 40   -286.0 4092000.8  1.0  0.0  2  0  28599874
[17]  B02 1f 39   -333.3 4092000.9  0.9  0.0  2  0  28599875
[18]  B03 1f 42   -304.4 4092000.8  1.0  0.0  2  0  28599877
[19]  B04 1f 40   -301.4 4092000.8  0.9  0.0  2  0  28599869
[20]  B07 1f 42   -316.4 4092000.8  1.0  1.0  5  0  28599879
[21]  B08 1f 42   -509.3 4092001.3  1.0  1.0  5  0  28599880
[22]  B26 1f 37   2964.4 4091992.2  1.0  1.0  5  0  28599914
[23]  B10 1f 43   -679.6 4092001.8  1.0  1.0  5  0  28599879
[24]  B11 1f 43  -1346.6 4092003.5  1.0  1.0  5  0  28599923
[25]  B12  7 31   1884.3 4091995.0  0.3  1.0  5  0      1421
[26]  B13 1f 42  -1020.1 4092002.7  1.0  1.0  5  0  28599876
$GNGGA,075637.000,2944.9093,N,10633.0924,E,1,20,0.7,320.4,M,,,,0000*11
$GNRMC,075637.000,A,2944.9093,N,10633.0924,E,0.09,0.00,280419,,*12
$GPGSA,A,3,01,03,07,08,11,17,18,22,28,30,,,0.8,0.7,0.4*32
$BDGSA,A,3,01,02,03,04,07,08,10,11,13,26,,,0.8,0.7,0.4*24
$GPGSV,3,1,12,01,63,062,44,03,18,125,38,17,36,275,40,22,22,102,38*70
$GPGSV,3,2,12,28,49,333,41,07,40,181,43,08,15,058,36,11,51,041,42*75
$GPGSV,3,3,12,18,36,045,41,30,61,231,44,13,06,289,00,19,16,258,00*71
$BDGSV,3,1,12,01,40,125,40,02,46,219,39,03,55,171,42,04,23,109,40*65
$BDGSV,3,2,12,07,65,103,42,08,84,177,42,26,13,150,37,10,78,008,43*6E
$BDGSV,3,3,12,11,49,265,43,12,36,037,31,13,56,210,42,05,27,244,00*66
$LOGTIM,3,-1329.269045,-1515.962810,0.000000,0.000000,-57.121*15
---00000030--- Acq_st=3 2019-4-28 07:56:37 
[00]  G01  f 43    810.3 2045998.9  1.0  1.0  5  0  28614931
[01]  G03  f 37  -2673.8 2046003.5  1.0  1.0  5  0  28614920
[02]  G17  f 40  -1562.0 2046002.0  1.0  1.0  5  0  28614925
[03]  G22  f 38  -1592.6 2046002.1  1.0  1.0  5  0  28614921
[04]  G28  f 41  -2058.9 2046002.7  1.0  1.0  5  0  28614927
[05]  G07  f 43   2651.0 2045996.6  1.0  1.0  5  0  28614927
[06]  G08  f 37   2204.9 2045997.2  1.0  1.0  5  0  28614918
[07]  G11  f 42   1717.8 2045997.8  1.0  1.0  5  0  28614929
[08]  G18  f 42   2369.6 2045996.9  1.0  1.0  5  0  28614927
[09]  G30  f 44    736.2 2045999.0  1.0  1.0  5  0  28614930
[16]  B01 1f 40   -288.0 4092000.8  1.0  0.0  2  0  28600874
[17]  B02 1f 38   -334.6 4092000.9  0.9  0.0  2  0  28600875
[18]  B03 1f 43   -306.1 4092000.8  1.0  0.0  2  0  28600877
[19]  B04 1f 39   -303.4 4092000.9  0.9  0.0  2  0  28600869
[20]  B07 1f 42   -318.1 4092000.8  1.0  1.0  5  0  28600879
[21]  B08 1f 42   -510.9 4092001.3  1.0  1.0  5  0  28600880
[22]  B26 1f 37   2962.6 4091992.3  1.0  1.0  5  0  28600914
[23]  B10 1f 43   -681.2 4092001.8  1.0  1.0  5  0  28600879
[24]  B11 1f 43  -1348.2 4092003.5  1.0  1.0  5  0  28600923
[25]  B12  7 42   1883.2 4091995.1  1.0  1.0  5  0      2421
[26]  B13 1f 42  -1021.8 4092002.7  1.0  1.0  5  0  28600876
[27]  B21  1  7  -2485.9 4092005.0 -0.1  0.0  1  0      2890
$GNGGA,075638.000,2944.9098,N,10633.0886,E,1,20,0.7,318.0,M,,,,0000*13
$GNRMC,075638.000,A,2944.9098,N,10633.0886,E,0.08,0.00,280419,,*1E
$GPGSA,A,3,01,03,07,08,11,17,18,22,28,30,,,0.8,0.7,0.4*32
$BDGSA,A,3,01,02,03,04,07,08,10,11,13,26,,,0.8,0.7,0.4*24
$GPGSV,3,1,12,01,63,062,43,03,18,125,37,17,36,275,40,22,22,102,38*78
$GPGSV,3,2,12,28,49,333,41,07,40,181,43,08,15,058,37,11,51,041,42*74
$GPGSV,3,3,12,18,36,045,42,30,61,231,44,13,06,289,00,19,16,258,00*72
$BDGSV,3,1,12,01,40,125,40,02,46,219,38,03,55,171,43,04,23,109,39*6B
$BDGSV,3,2,12,07,65,103,42,08,84,177,42,26,13,150,37,10,78,008,43*6E
$BDGSV,3,3,12,11,49,265,43,12,36,037,42,13,56,210,42,05,27,244,00*62
$LOGTIM,3,-1389.410409,-1576.472693,0.000000,0.000000,-57.756*11
