FlashID=0x1 0x20 0x18
BBram_blkflag1: 3ea8: c157
FW Ver: 1.30  
GPS00 Init Dop:  -1857,  2
GPS01 Init Dop:  -5000, 41
GPS02 Init Dop:   2193,  2
GPS03 Init Dop:  -5000, 41
GPS04 Init Dop:  -5000, 41
GPS05 Init Dop:  -5000, 41
GPS06 Init Dop:  -3253,  2
GPS07 Init Dop:  -2220,  2
GPS08 Init Dop:  -5000, 41
GPS09 Init Dop:  -5000, 41
GPS10 Init Dop:  -2351,  2
GPS11 Init Dop:  -5000, 41
GPS12 Init Dop:  -1188,  2
GPS13 Init Dop:  -5000, 41
GPS14 Init Dop:  -5000, 41
GPS15 Init Dop:  -5000, 41
GPS16 Init Dop:   1145,  2
GPS17 Init Dop:  -3072,  2
GPS18 Init Dop:   2335,  2
GPS19 Init Dop:  -5000, 41
GPS20 Init Dop:  -5000, 41
GPS21 Init Dop:    819,  2
GPS22 Init Dop:  -5000, 41
GPS23 Init Dop:  -5000, 41
GPS24 Init Dop:  -5000, 41
GPS25 Init Dop:  -5000, 41
GPS26 Init Dop:  -5000, 41
GPS27 Init Dop:   1750,  2
GPS28 Init Dop:  -5000, 41
GPS29 Init Dop:  -1757,  2
GPS30 Init Dop:  -5000, 41
GPS31 Init Dop:  -5000, 41
BDS00 Init Dop:    154,  2
BDS01 Init Dop:    206,  2
BDS02 Init Dop:    173,  2
BDS03 Init Dop:    171,  2
BDS04 Init Dop:    213,  2
BDS05 Init Dop:  -5000, 41
BDS06 Init Dop:     31,  2
BDS07 Init Dop:    150,  2
BDS08 Init Dop:   -769,  2
BDS09 Init Dop:    444,  2
BDS10 Init Dop:    787,  2
BDS11 Init Dop:  -2039,  2
BDS12 Init Dop:    667,  2
BDS13 Init Dop:  -5000, 41
BDS14 Init Dop:  -5000, 41
BDS15 Init Dop:  -5000, 41
BDS16 Init Dop:  -5000, 41
BDS17 Init Dop:  -5000, 41
BDS18 Init Dop:  -5000, 41
BDS19 Init Dop:  -5000, 41
BDS20 Init Dop:   2242,  2
BDS21 Init Dop:  -5000, 41
BDS22 Init Dop:  -5000, 41
BDS23 Init Dop:  -2204,  2
BDS24 Init Dop:    822,  2
BDS25 Init Dop:  -3166,  2
BDS26 Init Dop:  -5000, 41
BDS27 Init Dop:  -5000, 41
BDS28 Init Dop:  -5000, 41
BDS29 Init Dop:  -5000, 41
BDS30 Init Dop:  -5000, 41
BDS31 Init Dop:  -5000, 41
---00000001--- Acq_st=3 2019-4-28 08:22:17 
[00]  G03  1  7  -2296.0 2046004.1  0.1  0.0  1  0         0
$GNGGA,000000.000,,,,,0,00,,,M,,,,0000*2B
$GNRMC,000000.000,A,,,,,,,000000,,*26
$GPGSA,A,1,,,,,,,,,,,,,,,*1E
$BDGSA,A,1,,,,,,,,,,,,,,,*0F
$LOGTIM,0,0.000000,0.000000,0.000000,0.000000,0.000*0A
---00000002--- Acq_st=3 2019-4-28 08:22:18 
[00]  G03  7 26  -2338.7 2046003.0  0.4  0.0 20  0         1
[01]  G17  1  7  -1141.8 2046003.2 -0.1  0.0  1  0         0
$GNGGA,000000.000,,,,,0,00,,,M,,,,0000*2B
$GNRMC,000000.000,A,,,,,,,000000,,*26
$GPGSA,A,1,,,,,,,,,,,,,,,*1E
$BDGSA,A,1,,,,,,,,,,,,,,,*0F
$GPGSV,1,1,01,03,00,000,26*4F
$LOGTIM,0,0.000000,0.000000,0.000000,0.000000,0.000*0A
---00000003--- Acq_st=3 2019-4-28 08:22:19 
[00]  G03  7 40  -2338.5 2046003.0  1.0  0.9  5  0         6
[01]  G17  1 26  -1290.6 2046002.4  0.0  0.0  1  0        15
[02]  G22  1  7   -912.6 2046003.1  0.0  0.0  1  0         0
$GNGGA,000000.000,,,,,0,00,,,M,,,,0000*2B
$GNRMC,000000.000,A,,,,,,,000000,,*26
$GPGSA,A,1,,,,,,,,,,,,,,,*1E
$BDGSA,A,1,,,,,,,,,,,,,,,*0F
$GPGSV,1,1,01,03,00,000,40*4F
$LOGTIM,0,0.000000,0.000000,0.000000,0.000000,0.000*0A
---00000004--- Acq_st=3 2019-4-28 08:22:20 
[00]  G03  7 39  -2337.7 2046003.0  1.0  1.0  5  0         6
[01]  G17  7 35  -1290.1 2046001.6  0.8  1.0  5  0        15
[02]  G22  7 27   -963.2 2046001.2  0.5  0.0 20  0         3
[03]  G28  1 26  -1911.3 2046002.9  0.0  0.0  1  0         0
[16]  B01  1 10   -250.5 4092001.9  0.1  0.0  1  0         0
[17]  B02  1 10   -190.7 4092000.6  0.0  0.0  1  0         0
[18]  B03  1 36   -265.9 4092001.6  0.0  0.0  1  0         0
[19]  B04  1 36   -253.3 4092000.2  0.0  0.0  1  0         0
[20]  B05  1 10   -139.0 4092001.7 -0.1  0.0  1  0         0
$GNGGA,000000.000,,,,,0,00,,,M,,,,0000*2B
$GNRMC,000000.000,A,,,,,,,000000,,*26
$GPGSA,A,1,,,,,,,,,,,,,,,*1E
$BDGSA,A,1,,,,,,,,,,,,,,,*0F
$GPGSV,1,1,03,03,00,000,39,17,00,000,35,22,00,000,27*46
$LOGTIM,0,0.000000,0.000000,0.000000,0.000000,0.000*0A
---00000005--- Acq_st=3 2019-4-28 08:22:21 
[00]  G03  7 40  -2334.0 2046003.0  1.0  1.0  5  0         6
[01]  G17  7 45  -1286.2 2046001.6  1.0  1.0  5  0         9
[02]  G22  7 39   -958.8 2046001.1  0.8  1.0  5  0         5
[03]  G28  7 30  -1890.8 2046002.4  0.6  1.0  5  0         9
[16]  B01  7 10   -300.8 4092000.7  0.4  0.0  2  0       323
[17]  B02  7 10   -353.1 4092000.9  0.2  0.0  2  0       310
[18]  B03  9 43   -320.2 4092001.0  0.8  0.0  1  0       297
[19]  B04  9 40   -318.6 4092000.9  0.9  0.0  1  0       284
[20]  B05  1 10   -362.2 4092001.8 -0.5  0.0  1  0       260
[21]  B07  1  7   -179.3 4092000.9  0.1  0.0  1  0         0
[22]  B08  1  7   -299.1 4092001.1 -0.1  0.0  1  0         0
[23]  B10  1 25   -592.2 4092001.9  0.2  0.0  1  0         0
[24]  B11  1  7   -936.7 4092002.9 -0.0  0.0  1  0         0
[25]  B12  1  7   2044.2 4091995.0 -0.1  0.0  1  0         0
[26]  B13  1  7   -815.8 4092002.5  0.1  0.0  1  0         0
$GNGGA,000000.000,,,,,0,00,,,M,,,,0000*2B
$GNRMC,000000.000,A,,,,,,,000000,,*26
$GPGSA,A,1,,,,,,,,,,,,,,,*1E
$BDGSA,A,1,,,,,,,,,,,,,,,*0F
$GPGSV,1,1,04,03,00,000,40,17,00,000,45,22,00,000,39,28,00,000,30*7E
$LOGTIM,0,0.000000,0.000000,0.000000,0.000000,0.000*0A
---00000006--- Acq_st=3 2019-4-28 08:22:22 
[00]  G03  7 39  -2333.7 2046003.1  1.0  1.0  5  0         6
[01]  G17  7 44  -1285.9 2046001.6  1.0  1.0  5  0         9
[02]  G22  7 38   -958.6 2046001.2  1.0  1.0  5  0         5
[03]  G28  7 42  -1890.9 2046002.4  1.0  1.0  5  0        12
[16]  B01  7 39   -301.3 4092000.7  0.9  0.0  2  0      1322
[17]  B02  7 38   -353.1 4092001.0  0.9  0.0  2  0      1309
[18]  B03  f 43   -319.9 4092000.8  0.9  0.0  2  0  30146041
[19]  B04  f 39   -318.5 4092000.8  0.9  0.0  2  0  30146032
[20]  B05  7 37   -360.5 4092000.9  0.9  0.0  2  0      1260
[21]  B07  1  7   -178.5 4092000.4  0.9  0.0  1  0       912
[22]  B08  1  7   -298.0 4092000.6 -0.3  0.0  1  0       899
[23]  B10  1 42   -591.5 4092001.3  1.0  0.0  1  0       863
[24]  B11  1  7   -935.9 4092002.4 -0.3  0.0  1  0       850
[25]  B12  1 10   1983.8 4091995.2  0.1  0.0  1  0       826
[26]  B13  1  7   -815.2 4092002.3 -0.1  0.0  1  0       813
$GNGGA,000000.000,,,,,0,00,,,M,,,,0000*2B
$GNRMC,000000.000,A,,,,,,,000000,,*26
$GPGSA,A,1,,,,,,,,,,,,,,,*1E
$BDGSA,A,1,,,,,,,,,,,,,,,*0F
$GPGSV,1,1,04,03,00,000,39,17,00,000,44,22,00,000,38,28,00,000,42*75
$BDGSV,2,1,05,01,00,000,39,02,00,000,38,03,00,000,43,04,00,000,39*66
$BDGSV,2,2,05,05,00,000,37*5C
$LOGTIM,0,0.000000,0.000000,0.000000,0.000000,0.000*0A
---00000007--- Acq_st=3 2019-4-28 08:22:23 
[00]  G03  7 39  -2332.4 2046003.0  1.0  1.0  5  0         6
[01]  G17  7 43  -1284.6 2046001.7  1.0  1.0  5  0         9
[02]  G22  7 38   -956.8 2046001.2  1.0  1.0  5  0         5
[03]  G28  7 43  -1889.4 2046002.4  1.0  1.0  5  0        12
[16]  B01  f 40   -300.4 4092000.8  0.9  0.0  2  0       638
[17]  B02  f 38   -351.7 4092000.9  0.9  0.0  2  0       639
[18]  B03  f 43   -319.0 4092000.8  1.0  0.0  2  0  30147041
[19]  B04  f 39   -317.2 4092000.8  0.9  0.0  2  0  30147032
[20]  B05  f 37   -359.4 4092000.8  0.9  0.0  2  0       633
[21]  B07  1  7   -177.6 4092000.4  0.9  0.0  1  0      1912
[22]  B08  1  7   -297.0 4092000.8  0.0  0.0  1  0      1899
[23]  B10  1 43   -590.7 4092001.4  1.0  0.0  1  0      1863
[24]  B11  1  7   -934.7 4092002.4 -0.4  0.0  1  0      1850
[25]  B12  1  8   1969.3 4091994.9  0.0  0.0  1  0      1826
[26]  B13  1  7   -814.5 4092002.0  0.1  0.0  1  0      1813
$GNGGA,000000.000,,,,,0,00,,,M,,,,0000*2B
$GNRMC,000000.000,A,,,,,,,000000,,*26
$GPGSA,A,1,,,,,,,,,,,,,,,*1E
$BDGSA,A,1,,,,,,,,,,,,,,,*0F
$GPGSV,1,1,04,03,00,000,39,17,00,000,43,22,00,000,38,28,00,000,43*73
$BDGSV,2,1,05,01,00,000,40,02,00,000,38,03,00,000,43,04,00,000,39*68
$BDGSV,2,2,05,05,00,000,37*5C
$LOGTIM,0,0.000000,0.000000,0.000000,0.000000,0.000*0A
---00000008--- Acq_st=3 2019-4-28 08:22:24 
[00]  G03  7 39  -2331.6 2046003.0  1.0  1.0  5  0         6
[01]  G17  7 43  -1283.9 2046001.7  1.0  1.0  5  0         9
[02]  G22  7 38   -955.3 2046001.2  1.0  1.0  5  0         5
[03]  G28  7 43  -1888.7 2046002.5  1.0  1.0  5  0        12
[16]  B01 1f 40   -300.4 4092000.8  0.9  0.0  2  0  30148038
[17]  B02 1f 40   -351.4 4092001.0  0.9  0.0  2  0  30148039
[18]  B03 1f 42   -318.8 4092000.8  1.0  0.0  2  0  30148041
[19]  B04 1f 40   -317.1 4092000.7  0.9  0.0  2  0  30148032
[20]  B05 1f 36   -359.3 4092001.0  0.9  0.0  2  0  30148033
[27]  B25  1  7   -847.8 4092001.7  0.0  0.0  1  0         0
$GNGGA,082224.563,2945.0463,N,10633.0866,E,1,05,99.1,474.8,M,,,,0000*20
$GNRMC,082224.563,A,2945.0463,N,10633.0866,E,3.90,0.00,280419,,*1B
$GPGSA,A,3,,,,,,,,,,,,,113.0,99.1,54.4*35
$BDGSA,A,3,01,02,03,04,05,,,,,,,,113.0,99.1,54.4*25
$GPGSV,1,1,04,03,00,000,39,17,00,000,43,22,00,000,38,28,00,000,43*73
$BDGSV,2,1,05,01,00,000,40,02,00,000,40,03,00,000,42,04,00,000,40*68
$BDGSV,2,2,05,05,00,000,36*5D
$LOGTIM,2,0.000000,173216357.057220,0.000000,0.000000,-60.345*12
---00000009--- Acq_st=3 2019-4-28 08:22:25 
[00]  G03  f 39  -2332.1 2046003.0  1.0  0.9  5  0         6
[01]  G17  f 43  -1285.2 2046001.7  1.0  1.0  5  0         9
[02]  G22  f 38   -956.2 2046001.2  1.0  1.0  5  0         5
[03]  G28  f 43  -1890.2 2046002.4  1.0  1.0  5  0        12
[16]  B01 1f 40   -301.1 4092000.9  0.9  0.0  2  0  30148438
[17]  B02 1f 40   -352.9 4092000.8  1.0  0.0  2  0  30148439
[18]  B03 1f 43   -320.1 4092000.9  1.0  0.0  2  0  30148441
[19]  B04 1f 39   -318.0 4092000.8  0.9  0.0  2  0  30148432
[20]  B05 1f 37   -359.8 4092000.9  0.9  0.0  2  0  30148433
[27]  B25  1  7   -928.5 4092001.4 -0.1  0.0  1  0       737
$GNGGA,082226.000,2944.9055,N,10633.0910,E,1,09,1.8,328.4,M,,,,0000*1D
$GNRMC,082226.000,A,2944.9055,N,10633.0910,E,0.13,0.00,280419,,*18
$GPGSA,A,3,03,17,22,28,,,,,,,,,2.9,1.8,2.3*3E
$BDGSA,A,3,01,02,03,04,05,,,,,,,,2.9,1.8,2.3*21
$GPGSV,1,1,04,03,00,000,39,17,00,000,43,22,00,000,38,28,00,000,43*73
$BDGSV,2,1,05,01,00,000,40,02,00,000,40,03,00,000,43,04,00,000,39*67
$BDGSV,2,2,05,05,00,000,37*5C
$LOGTIM,3,87.632745,-61.164498,0.000000,0.000000,-60.714*32
---00000010--- Acq_st=7 2019-4-28 08:22:26 
[00]  G03  f 40  -2331.4 2046003.0  1.0  1.0  5  0  30163922
[01]  G17  f 45  -1284.7 2046001.6  1.0  1.0  5  0  30163926
[02]  G22  f 39   -955.4 2046001.3  1.0  1.0  5  0  30163922
[03]  G28  f 44  -1889.6 2046002.5  1.0  1.0  5  0  30163929
[16]  B01 1f 40   -301.2 4092000.8  0.9  0.0  2  0  30149874
[17]  B02 1f 39   -353.0 4092000.9  0.9  0.0  2  0  30149875
[18]  B03 1f 41   -319.7 4092000.8  1.0  0.0  2  0  30149877
[19]  B04 1f 39   -317.9 4092000.8  0.9  0.0  2  0  30149869
[20]  B05 1f 37   -359.8 4092000.9  0.9  0.0  2  0  30149870
[27]  B25  1  7  -1044.7 4092002.2  0.2  0.0  1  0      2173
$GNGGA,082227.000,2944.8984,N,10633.0926,E,1,09,1.4,336.4,M,,,,0000*1E
$GNRMC,082227.000,A,2944.8984,N,10633.0926,E,0.11,0.00,280419,,*1A
$GPGSA,A,3,03,17,22,28,,,,,,,,,1.8,1.4,1.0*30
$BDGSA,A,3,01,02,03,04,05,,,,,,,,1.8,1.4,1.0*2F
$GPGSV,3,1,12,03,25,115,40,17,42,289,45,22,26,090,39,28,58,343,44*7B
$GPGSV,3,2,12,01,53,046,00,07,27,179,00,08,08,066,00,11,40,042,00*71
$GPGSV,3,3,12,13,03,278,00,18,26,042,00,19,22,269,00,30,52,213,00*7C
$BDGSV,3,1,12,01,40,125,40,02,46,219,39,03,55,171,41,04,23,109,39*68
$BDGSV,3,2,12,05,27,244,37,07,64,117,00,08,87,276,00,10,83,014,00*65
$BDGSV,3,3,12,11,54,283,00,12,28,043,00,13,60,221,00,21,10,118,00*62
$LOGTIM,3,28.724746,-123.160857,0.000000,0.000000,-60.232*0F
---00000011--- Acq_st=3 2019-4-28 08:22:27 
[00]  G03  f 39  -2327.7 2046003.0  1.0  1.0  5  0  30164922
[01]  G17  f 43  -1281.1 2046001.7  1.0  1.0  5  0  30164926
[02]  G22  f 38   -951.6 2046001.3  1.0  1.0  5  0  30164922
[03]  G28  f 42  -1885.9 2046002.4  1.0  1.0  5  0  30164929
[04]  G01  1 25   1754.0 2045998.3  0.1  0.0  1  0         4
[05]  G07  1  7   3557.0 2045999.0  0.0  0.0  1  0         0
[16]  B01 1f 39   -297.2 4092000.7  0.9  0.0  2  0  30150874
[17]  B02 1f 39   -348.8 4092000.9  0.9  0.0  2  0  30150875
[18]  B03 1f 43   -316.2 4092000.9  1.0  0.0  2  0  30150877
[19]  B04 1f 39   -314.4 4092000.8  0.9  0.0  2  0  30150869
[20]  B05 1f 35   -356.2 4092000.9  0.9  0.0  2  0  30150870
$GNGGA,082228.000,2944.8992,N,10633.0923,E,1,09,1.5,336.2,M,,,,0000*14
$GNRMC,082228.000,A,2944.8992,N,10633.0923,E,0.01,0.00,280419,,*16
$GPGSA,A,3,03,17,22,28,,,,,,,,,1.8,1.5,1.0*31
$BDGSA,A,3,01,02,03,04,05,,,,,,,,1.8,1.5,1.0*2E
$GPGSV,3,1,12,03,25,115,39,17,42,289,43,22,26,090,38,28,58,343,42*74
$GPGSV,3,2,12,01,53,046,00,07,27,179,00,08,08,066,00,11,40,042,00*71
$GPGSV,3,3,12,13,03,278,00,18,26,042,00,19,22,269,00,30,52,213,00*7C
$BDGSV,3,1,12,01,40,125,39,02,47,219,38,03,55,171,43,04,23,109,39*64
$BDGSV,3,2,12,05,27,244,35,07,64,117,00,08,87,276,00,10,83,014,00*67
$BDGSV,3,3,12,11,54,283,00,12,28,043,00,13,60,221,00,21,10,118,00*62
$LOGTIM,3,-30.354126,-184.303555,0.000000,0.000000,-59.870*2B
---00000012--- Acq_st=3 2019-4-28 08:22:28 
[00]  G03  f 39  -2325.8 2046003.0  1.0  1.0  5  0  30165922
[01]  G17  f 43  -1278.6 2046001.7  1.0  1.0  5  0  30165926
[02]  G22  f 38   -949.0 2046001.2  1.0  1.0  5  0  30165922
[03]  G28  f 42  -1883.8 2046002.4  1.0  1.0  5  0  30165929
[04]  G01  7 29   1728.9 2045997.7  0.6  1.0 10  0         4
[05]  G07  1 24   3116.8 2045995.9  0.1  0.0  1  0         1
[06]  G11  1 25   2210.7 2045998.2  0.0  0.0  1  0         0
[16]  B01 1f 40   -295.3 4092000.8  0.9  0.0  2  0  30151874
[17]  B02 1f 39   -346.8 4092000.9  0.9  0.0  2  0  30151875
[18]  B03 1f 41   -314.0 4092000.8  0.9  0.0  2  0  30151877
[19]  B04 1f 40   -312.2 4092000.8  0.9  0.0  2  0  30151869
[20]  B05 1f 36   -354.1 4092001.0  0.9  0.0  2  0  30151870
$GNGGA,082229.000,2944.8997,N,10633.0915,E,1,09,1.5,335.0,M,,,,0000*14
$GNRMC,082229.000,A,2944.8997,N,10633.0915,E,0.08,0.00,280419,,*1E
$GPGSA,A,3,03,17,22,28,,,,,,,,,1.8,1.5,1.0*31
$BDGSA,A,3,01,02,03,04,05,,,,,,,,1.8,1.5,1.0*2E
$GPGSV,3,1,12,03,25,115,39,17,42,289,43,22,26,090,38,28,58,343,42*74
$GPGSV,3,2,12,01,53,046,29,07,27,179,00,08,08,066,00,11,40,042,00*7A
$GPGSV,3,3,12,13,03,278,00,18,26,042,00,19,22,269,00,30,52,213,00*7C
$BDGSV,3,1,12,01,40,125,40,02,47,219,39,03,55,171,41,04,23,109,40*67
$BDGSV,3,2,12,05,27,244,36,07,64,117,00,08,87,276,00,10,83,014,00*64
$BDGSV,3,3,12,11,54,283,00,12,28,043,00,13,60,221,00,21,10,118,00*62
$LOGTIM,3,-89.651609,-247.321600,0.000000,0.000000,-59.543*21
---00000013--- Acq_st=3 2019-4-28 08:22:29 
[00]  G03  f 39  -2324.2 2046003.0  1.0  1.0  5  0  30166922
[01]  G17  f 43  -1277.3 2046001.7  1.0  1.0  5  0  30166926
[02]  G22  f 38   -947.7 2046001.3  1.0  1.0  5  0  30166922
[03]  G28  f 42  -1882.5 2046002.4  1.0  1.0  5  0  30166929
[04]  G01  7 42   1730.5 2045997.7  1.0  1.0  5  0        10
[05]  G07  7 33   3122.2 2045995.8  0.7  1.0  5  0         4
[06]  G11  7 21   2220.7 2045997.0  0.2  0.0 20  0         8
[07]  G18  1 22   2938.2 2045997.2 -0.0  0.0  1  0         0
[16]  B01 1f 40   -294.3 4092000.9  0.9  0.0  2  0  30152874
[17]  B02 1f 39   -345.6 4092000.8  0.9  0.0  2  0  30152875
[18]  B03 1f 41   -312.8 4092000.8  0.9  0.0  2  0  30152877
[19]  B04 1f 40   -310.8 4092000.8  0.9  0.0  2  0  30152869
[20]  B05 1f 36   -352.6 4092001.1  0.9  0.0  2  0  30152870
$GNGGA,082230.000,2944.9004,N,10633.0906,E,1,09,1.5,333.0,M,,,,0000*1A
$GNRMC,082230.000,A,2944.9004,N,10633.0906,E,0.09,0.00,280419,,*17
$GPGSA,A,3,03,17,22,28,,,,,,,,,1.8,1.5,1.0*31
$BDGSA,A,3,01,02,03,04,05,,,,,,,,1.8,1.5,1.0*2E
$GPGSV,3,1,12,03,25,115,39,17,42,289,43,22,26,090,38,28,58,343,42*74
$GPGSV,3,2,12,01,53,046,42,07,27,179,33,11,40,042,21,08,08,066,00*74
$GPGSV,3,3,12,13,03,278,00,18,26,042,00,19,22,269,00,30,52,213,00*7C
$BDGSV,3,1,12,01,40,125,40,02,47,219,39,03,55,171,41,04,23,109,40*67
$BDGSV,3,2,12,05,27,244,35,07,64,117,00,08,87,276,00,10,83,014,00*67
$BDGSV,3,3,12,11,54,283,00,12,28,043,00,13,60,221,00,21,10,118,00*62
$LOGTIM,3,-149.108575,-308.963861,0.000000,0.000000,-59.357*13
---00000014--- Acq_st=3 2019-4-28 08:22:30 
[00]  G03  f 40  -2323.5 2046003.0  1.0  1.0  5  0  30167922
[01]  G17  f 46  -1277.0 2046001.7  1.0  1.0  5  0  30167926
[02]  G22  f 39   -946.2 2046001.2  1.0  1.0  5  0  30167922
[03]  G28  f 45  -1881.8 2046002.4  1.0  1.0  5  0  30167929
[04]  G01  7 45   1731.5 2045997.7  1.0  1.0  5  0        10
[05]  G07  7 44   3122.9 2045995.9  1.0  1.0  5  0         4
[06]  G11  7 43   2221.4 2045997.0  0.7  1.0  5  0         7
[07]  G18  7 22   2942.8 2045996.1  0.2  0.0 20  0        17
[16]  B01 1f 40   -293.7 4092000.7  1.0  0.0  2  0  30153874
[17]  B02 1f 38   -345.1 4092000.9  0.9  0.0  2  0  30153875
[18]  B03 1f 42   -312.4 4092000.7  1.0  0.0  2  0  30153877
[19]  B04 1f 40   -310.3 4092000.6  0.9  0.0  2  0  30153869
[20]  B05 1f 37   -352.1 4092000.8  0.9  0.0  2  0  30153870
$GNGGA,082231.000,2944.9006,N,10633.0960,E,1,09,1.5,333.3,M,,,,0000*1A
$GNRMC,082231.000,A,2944.9006,N,10633.0960,E,0.10,0.00,280419,,*1C
$GPGSA,A,3,03,17,22,28,,,,,,,,,1.8,1.5,1.0*31
$BDGSA,A,3,01,02,03,04,05,,,,,,,,1.8,1.5,1.0*2E
$GPGSV,3,1,12,03,25,115,40,17,42,289,46,22,26,090,39,28,58,343,45*79
$GPGSV,3,2,12,01,53,046,45,07,27,179,44,11,40,042,43,18,26,042,22*7C
$GPGSV,3,3,12,08,08,066,00,13,03,278,00,19,22,269,00,30,52,213,00*77
$BDGSV,3,1,12,01,40,125,40,02,47,219,38,03,55,171,42,04,23,109,40*65
$BDGSV,3,2,12,05,27,244,37,07,64,117,00,08,87,276,00,10,83,014,00*65
$BDGSV,3,3,12,11,54,283,00,12,28,043,00,13,60,221,00,21,10,118,00*62
$LOGTIM,3,-211.341252,-375.376870,0.000000,0.000000,-59.444*11
---00000015--- Acq_st=3 2019-4-28 08:22:31 
[00]  G03  f 39  -2322.0 2046003.0  1.0  1.0  5  0  30168922
[01]  G17  f 43  -1276.3 2046001.7  1.0  1.0  5  0  30168926
[02]  G22  f 38   -945.4 2046001.2  1.0  1.0  5  0  30168922
[03]  G28  f 43  -1881.3 2046002.4  1.0  1.0  5  0  30168929
[04]  G01  f 43   1732.3 2045997.7  1.0  1.0  5  0        10
[05]  G07  f 42   3123.8 2045995.9  1.0  1.0  5  0         4
[06]  G11  f 41   2222.0 2045997.1  1.0  1.0  5  0         7
[07]  G18  7 39   2943.2 2045996.1  1.0  1.0  5  0         4
[08]  G30  1 20   1608.7 2045997.4 -0.1  0.0  1  0         7
[16]  B01 1f 41   -293.4 4092000.7  0.9  0.0  2  0  30154874
[17]  B02 1f 37   -344.7 4092000.7  0.9  0.0  2  0  30154875
[18]  B03 1f 42   -312.0 4092000.9  1.0  0.0  2  0  30154877
[19]  B04 1f 39   -310.4 4092000.8  0.9  0.0  2  0  30154869
[20]  B05 1f 37   -352.3 4092001.0  0.8  0.0  2  0  30154870
[21]  B07  1  7    -36.6 4092001.6  0.0  0.0  1  0      2912
$GNGGA,082232.000,2944.8990,N,10633.0977,E,1,12,0.8,331.0,M,,,,0000*1F
$GNRMC,082232.000,A,2944.8990,N,10633.0977,E,0.14,0.00,280419,,*1A
$GPGSA,A,3,01,03,07,11,17,22,28,,,,,,1.1,0.8,0.7*34
$BDGSA,A,3,01,02,03,04,05,,,,,,,,1.1,0.8,0.7*2D
$GPGSV,3,1,12,03,25,115,39,17,42,289,43,22,26,090,38,28,58,343,43*75
$GPGSV,3,2,12,01,53,046,43,07,27,179,42,11,40,042,41,18,26,042,39*74
$GPGSV,3,3,12,08,08,066,00,13,03,278,00,19,22,269,00,30,52,213,00*77
$BDGSV,3,1,12,01,40,125,41,02,47,219,37,03,55,171,42,04,23,109,40*6B
$BDGSV,3,2,12,05,27,244,37,07,64,117,00,08,87,276,00,10,83,014,00*65
$BDGSV,3,3,12,11,54,283,00,12,28,043,00,13,60,221,00,21,10,118,00*62
$LOGTIM,3,-275.352509,-432.783384,0.000000,0.000000,-59.455*12
---00000016--- Acq_st=3 2019-4-28 08:22:32 
[00]  G03  f 40  -2323.1 2046003.0  1.0  1.0  5  0  30169922
[01]  G17  f 46  -1276.9 2046001.6  1.0  1.0  5  0  30169926
[02]  G22  f 38   -945.8 2046001.2  1.0  0.9  5  0  30169922
[03]  G28  f 45  -1881.8 2046002.4  1.0  1.0  5  0  30169929
[04]  G01  f 45   1731.9 2045997.7  1.0  1.0  5  0  30169930
[05]  G07  f 44   3122.7 2045995.9  1.0  1.0  5  0  30169924
[06]  G11  f 43   2221.3 2045997.1  1.0  1.0  5  0  30169927
[07]  G18  7 40   2942.5 2045996.1  1.0  1.0  5  0         4
[08]  G30  7 31   1632.0 2045997.9  0.4  1.0  5  0         9
[16]  B01 1f 40   -294.2 4092000.7  0.9  0.0  2  0  30155874
[17]  B02 1f 39   -345.3 4092000.9  0.9  0.0  2  0  30155875
[18]  B03 1f 43   -312.9 4092000.9  1.0  0.0  2  0  30155877
[19]  B04 1f 40   -311.1 4092000.7  0.9  0.0  2  0  30155869
[20]  B05 1f 36   -353.1 4092000.9  0.8  0.0  2  0  30155870
[21]  B07  1  7   -170.6 4092000.7  0.1  0.0  1  0       493
[22]  B08  1  7   -289.8 4092001.4 -0.1  0.0  1  0       324
[23]  B10  1  7   -546.2 4092003.6  0.1  0.0  1  0      2863
[24]  B11  1  7   -966.3 4092004.4  0.0  0.0  1  0      2850
[25]  B12  1  7   1999.5 4091996.5 -0.0  0.0  1  0      2826
$GNGGA,082233.000,2944.9004,N,10633.0976,E,1,12,0.8,326.0,M,,,,0000*1C
$GNRMC,082233.000,A,2944.9004,N,10633.0976,E,0.19,0.00,280419,,*12
$GPGSA,A,3,01,03,07,11,17,22,28,,,,,,1.1,0.8,0.7*34
$BDGSA,A,3,01,02,03,04,05,,,,,,,,1.1,0.8,0.7*2D
$GPGSV,3,1,12,03,25,115,40,17,42,289,46,22,26,090,38,28,58,343,45*78
$GPGSV,3,2,12,01,53,046,45,07,27,179,44,11,40,042,43,18,26,042,40*78
$GPGSV,3,3,12,30,52,213,31,08,08,066,00,13,03,278,00,19,22,269,00*75
$BDGSV,3,1,12,01,40,125,40,02,47,219,39,03,55,171,43,04,23,109,39*6B
$BDGSV,3,2,12,05,27,244,36,07,64,117,00,08,87,276,00,10,83,014,00*64
$BDGSV,3,3,12,11,54,283,00,12,28,043,00,13,60,221,00,21,10,118,00*62
$LOGTIM,3,-337.144751,-494.479655,0.000000,0.000000,-59.513*1F
---00000017--- Acq_st=3 2019-4-28 08:22:33 
[00]  G03  f 40  -2323.1 2046003.0  1.0  1.0  5  0  30170922
[01]  G17  f 45  -1277.2 2046001.7  1.0  1.0  5  0  30170926
[02]  G22  f 38   -946.2 2046001.2  1.0  1.0  5  0  30170922
[03]  G28  f 44  -1882.6 2046002.4  1.0  1.0  5  0  30170929
[04]  G01  f 44   1731.9 2045997.8  1.0  1.0  5  0  30170930
[05]  G07  f 44   3122.3 2045995.9  1.0  1.0  5  0  30170924
[06]  G11  f 43   2220.9 2045997.1  1.0  1.0  5  0  30170927
[07]  G18  7 40   2942.5 2045996.1  1.0  1.0  5  0         4
[08]  G30  7 44   1631.3 2045997.9  1.0  1.0  5  0         9
[16]  B01 1f 40   -294.6 4092000.7  1.0  0.0  2  0  30156874
[17]  B02 1f 39   -346.4 4092000.9  0.9  0.0  2  0  30156875
[18]  B03 1f 42   -313.5 4092000.8  1.0  0.0  2  0  30156877
[19]  B04 1f 39   -311.7 4092000.7  0.9  0.0  2  0  30156869
[20]  B05 1f 35   -353.5 4092001.0  0.9  0.0  2  0  30156870
[21]  B07  7 32   -170.8 4092000.4  0.2  1.0  5  0      1479
[22]  B08  7 29   -290.6 4092000.7  0.4  1.0  5  0      1320
[23]  B10  7  7   -584.7 4092001.4  0.1  0.0 20  0       821
[24]  B11  1  7   -926.7 4092002.5  0.3  0.0  1  0       651
[25]  B12  1  7   1899.1 4091995.0  0.3  0.0  1  0       482
[26]  B13  1  7   -807.9 4092002.1 -0.2  0.0  1  0       314
$GNGGA,082234.000,2944.9012,N,10633.0969,E,1,12,0.8,324.3,M,,,,0000*13
$GNRMC,082234.000,A,2944.9012,N,10633.0969,E,0.18,0.00,280419,,*1D
$GPGSA,A,3,01,03,07,11,17,22,28,,,,,,1.1,0.8,0.7*34
$BDGSA,A,3,01,02,03,04,05,,,,,,,,1.1,0.8,0.7*2D
$GPGSV,3,1,12,03,25,115,40,17,42,289,45,22,26,090,38,28,58,343,44*7A
$GPGSV,3,2,12,01,53,046,44,07,27,179,44,11,40,042,43,18,26,042,40*79
$GPGSV,3,3,12,30,52,213,44,08,08,066,00,13,03,278,00,19,22,269,00*77
$BDGSV,3,1,12,01,40,125,40,02,47,219,39,03,55,171,42,04,23,109,39*6A
$BDGSV,3,2,12,05,27,244,35,07,64,117,32,08,87,276,29,10,83,014,00*6D
$BDGSV,3,3,12,11,54,283,00,12,28,043,00,13,60,221,00,21,10,118,00*62
$LOGTIM,3,-396.860066,-555.628313,0.000000,0.000000,-59.693*1E
---00000018--- Acq_st=3 2019-4-28 08:22:34 
[00]  G03  f 40  -2323.5 2046003.0  1.0  1.0  5  0  30171922
[01]  G17  f 45  -1277.8 2046001.7  1.0  1.0  5  0  30171926
[02]  G22  f 39   -946.3 2046001.2  1.0  1.0  5  0  30171922
[03]  G28  f 44  -1882.7 2046002.5  1.0  1.0  5  0  30171929
[04]  G01  f 44   1732.1 2045997.7  1.0  1.0  5  0  30171930
[05]  G07  f 44   3121.8 2045995.9  1.0  1.0  5  0  30171924
[06]  G11  f 42   2220.7 2045997.1  1.0  1.0  5  0  30171927
[07]  G18  7 40   2942.4 2045996.1  1.0  1.0  5  0         4
[08]  G30  7 45   1631.5 2045997.9  1.0  1.0  5  0         9
[16]  B01 1f 40   -295.2 4092000.8  1.0  0.0  2  0  30157874
[17]  B02 1f 37   -347.0 4092000.8  0.9  0.0  2  0  30157875
[18]  B03 1f 42   -313.9 4092000.8  1.0  0.0  2  0  30157877
[19]  B04 1f 39   -311.9 4092000.8  1.0  0.0  2  0  30157869
[20]  B05 1f 37   -354.0 4092000.8  0.9  0.0  2  0  30157870
[21]  B07  7 44   -171.4 4092000.4  1.0  1.0  5  0      2479
[22]  B08  7 43   -290.5 4092000.7  1.0  1.0  5  0      2320
[23]  B10  7 43   -584.8 4092001.5  0.9  1.0  5  0      1820
[24]  B11  7 37   -926.9 4092002.3  0.9  1.0  5  0      1644
[25]  B12  7 31   1898.9 4091994.9  0.8  1.0  5  0      1479
[26]  B13  7 29   -807.1 4092002.1  0.1  1.0  5  0      1297
$GNGGA,082235.000,2944.9024,N,10633.0959,E,1,12,0.8,323.0,M,,,,0000*10
$GNRMC,082235.000,A,2944.9024,N,10633.0959,E,0.17,0.00,280419,,*15
$GPGSA,A,3,01,03,07,11,17,22,28,,,,,,1.1,0.8,0.7*34
$BDGSA,A,3,01,02,03,04,05,,,,,,,,1.1,0.8,0.7*2D
$GPGSV,3,1,12,03,25,115,40,17,42,289,45,22,26,090,39,28,58,343,44*7B
$GPGSV,3,2,12,01,53,046,44,07,27,179,44,11,40,042,42,18,26,042,40*78
$GPGSV,3,3,12,30,52,213,45,08,08,066,00,13,03,278,00,19,22,269,00*76
$BDGSV,3,1,12,01,40,125,40,02,47,219,37,03,55,171,42,04,23,109,39*64
$BDGSV,3,2,12,05,27,244,37,07,64,117,44,08,87,276,43,10,83,014,43*65
$BDGSV,3,3,12,11,54,283,37,12,28,043,31,13,60,221,29,21,10,118,00*6F
$LOGTIM,3,-455.755250,-616.160804,0.000000,0.000000,-59.463*17
---00000019--- Acq_st=3 2019-4-28 08:22:35 
[00]  G03  f 40  -2318.8 2046003.0  1.0  1.0  5  0  30172922
[01]  G17  f 46  -1272.8 2046001.7  1.0  1.0  5  0  30172926
[02]  G22  f 39   -941.1 2046001.2  1.0  1.0  5  0  30172922
[03]  G28  f 45  -1878.1 2046002.4  1.0  1.0  5  0  30172929
[04]  G01  f 45   1737.4 2045997.7  1.0  1.0  5  0  30172930
[05]  G07  f 44   3127.0 2045995.9  1.0  1.0  5  0  30172924
[06]  G11  f 43   2225.7 2045997.1  1.0  1.0  5  0  30172927
[07]  G18  7 40   2947.2 2045996.2  1.0  1.0  5  0         4
[08]  G30  7 46   1636.6 2045997.9  1.0  1.0  5  0         9
[16]  B01 1f 41   -290.9 4092000.7  0.9  0.0  2  0  30158874
[17]  B02 1f 39   -342.2 4092001.0  0.9  0.0  2  0  30158875
[18]  B03 1f 42   -309.3 4092000.8  1.0  0.0  2  0  30158877
[19]  B04 1f 39   -307.2 4092000.8  0.9  0.0  2  0  30158869
[20]  B05 1f 37   -350.0 4092001.0  0.9  0.0  2  0  30158870
[21]  B07  7 45   -166.4 4092000.4  1.0  1.0  5  0      3479
[22]  B08  7 44   -285.4 4092000.7  1.0  1.0  5  0      3320
[23]  B10  7 43   -579.8 4092001.5  1.0  1.0  5  0      2820
[24]  B11  7 45   -921.8 4092002.4  1.0  1.0  5  0      2644
[25]  B12  7 39   1903.3 4091995.0  1.0  1.0  5  0      2479
[26]  B13  7 44   -802.6 4092002.1  1.0  1.0  5  0      2297
[27]  B21  1  7  -2217.6 4092005.1 -0.0  0.0  1  0      3173
$GNGGA,082236.000,2944.9014,N,10633.0959,E,1,12,0.8,332.3,M,,,,0000*13
$GNRMC,082236.000,A,2944.9014,N,10633.0959,E,0.05,0.00,280419,,*16
$GPGSA,A,3,01,03,07,11,17,22,28,,,,,,1.1,0.8,0.7*34
$BDGSA,A,3,01,02,03,04,05,,,,,,,,1.1,0.8,0.7*2D
$GPGSV,3,1,12,03,25,115,40,17,42,289,46,22,26,090,39,28,58,343,45*79
$GPGSV,3,2,12,01,53,046,45,07,27,179,44,11,40,042,43,18,26,042,40*78
$GPGSV,3,3,12,30,52,213,46,08,08,066,00,13,03,278,00,19,22,269,00*75
$BDGSV,3,1,12,01,40,125,41,02,47,219,39,03,55,171,42,04,23,109,39*6B
$BDGSV,3,2,12,05,27,244,37,07,64,117,45,08,87,276,44,10,83,014,43*63
$BDGSV,3,3,12,11,54,283,45,12,28,043,39,13,60,221,44,21,10,118,00*69
$LOGTIM,3,-508.910428,-675.091054,0.000000,0.000000,-58.341*19
---00000020--- Acq_st=3 2019-4-28 08:22:36 
[00]  G03  f 40  -2315.4 2046003.0  1.0  1.0  5  0  30173922
[01]  G17  f 45  -1270.1 2046001.7  1.0  1.0  5  0  30173926
[02]  G22  f 38   -938.1 2046001.2  1.0  1.0  5  0  30173922
[03]  G28  f 44  -1875.2 2046002.4  1.0  1.0  5  0  30173929
[04]  G01  f 44   1740.4 2045997.7  1.0  1.0  5  0  30173930
[05]  G07  f 44   3129.9 2045995.9  1.0  1.0  5  0  30173924
[06]  G11  f 43   2228.5 2045997.1  1.0  1.0  5  0  30173927
[07]  G18  7 40   2950.3 2045996.1  1.0  1.0  5  0         4
[08]  G30  7 46   1639.8 2045997.9  1.0  1.0  5  0         9
[16]  B01 1f 40   -288.1 4092000.7  1.0  0.0  2  0  30159874
[17]  B02 1f 39   -339.6 4092000.9  0.9  0.0  2  0  30159875
[18]  B03 1f 42   -306.7 4092000.8  1.0  0.0  2  0  30159877
[19]  B04 1f 39   -304.3 4092000.9  0.9  0.0  2  0  30159869
[20]  B05 1f 35   -347.0 4092000.8  0.9  0.0  2  0  30159870
[21]  B07  7 44   -163.8 4092000.4  1.0  1.0  5  0      4479
[22]  B08  7 43   -283.0 4092000.7  1.0  1.0  5  0      4320
[23]  B10  7 43   -577.3 4092001.5  1.0  1.0  5  0      3820
[24]  B11  7 44   -919.4 4092002.4  1.0  1.0  5  0      3644
[25]  B12  7 39   1906.3 4091994.9  1.0  1.0  5  0      3479
[26]  B13  7 44   -800.1 4092002.1  1.0  1.0  5  0      3297
[27]  B21  1 10  -2222.2 4092005.0  0.1  0.0  1  0       632
[28]  B23  1  7  -3172.7 4092008.6 -0.2  0.0  1  0       128
[29]  B24  1  7   2064.2 4091994.2  0.1  0.0  1  0         0
[30]  B26  1  7   3007.8 4091991.3 -0.0  0.0  1  0         0
$GNGGA,082237.000,2944.9005,N,10633.0959,E,1,12,0.8,337.9,M,,,,0000*1D
$GNRMC,082237.000,A,2944.9005,N,10633.0959,E,0.12,0.00,280419,,*11
$GPGSA,A,3,01,03,07,11,17,22,28,,,,,,1.1,0.8,0.7*34
$BDGSA,A,3,01,02,03,04,05,,,,,,,,1.1,0.8,0.7*2D
$GPGSV,3,1,12,03,25,115,40,17,42,289,45,22,26,090,38,28,58,343,44*7A
$GPGSV,3,2,12,01,53,046,44,07,27,179,44,11,40,042,43,18,26,042,40*79
$GPGSV,3,3,12,30,52,213,46,08,08,066,00,13,03,278,00,19,22,269,00*75
$BDGSV,3,1,12,01,40,125,40,02,47,219,39,03,55,171,42,04,23,109,39*6A
$BDGSV,3,2,12,05,27,244,35,07,64,117,44,08,87,276,43,10,83,014,43*67
$BDGSV,3,3,12,11,54,283,44,12,28,043,39,13,60,221,44,21,10,118,00*68
$LOGTIM,3,-563.691404,-733.196022,0.000000,0.000000,-58.082*14
---00000021--- Acq_st=3 2019-4-28 08:22:37 
[00]  G03  f 40  -2318.9 2046003.0  1.0  1.0  5  0  30174922
[01]  G17  f 45  -1273.5 2046001.6  1.0  1.0  5  0  30174926
[02]  G22  f 39   -941.1 2046001.2  1.0  1.0  5  0  30174922
[03]  G28  f 43  -1878.5 2046002.4  1.0  1.0  5  0  30174929
[04]  G01  f 44   1737.5 2045997.7  1.0  1.0  5  0  30174930
[05]  G07  f 43   3126.5 2045995.9  1.0  1.0  5  0  30174924
[06]  G11  f 42   2225.4 2045997.1  1.0  1.0  5  0  30174927
[07]  G18  f 39   2947.0 2045996.2  1.0  1.0  5  0         4
[08]  G30  f 45   1636.8 2045997.9  1.0  1.0  5  0         9
[16]  B01 1f 40   -291.8 4092000.7  0.9  0.0  2  0  30160874
[17]  B02 1f 39   -342.9 4092001.0  0.9  0.0  2  0  30160875
[18]  B03 1f 41   -310.3 4092000.8  0.9  0.0  2  0  30160877
[19]  B04 1f 38   -308.3 4092000.7  0.9  0.0  2  0  30160869
[20]  B05 1f 36   -350.5 4092000.9  0.9  0.0  2  0  30160870
[21]  B07  7 44   -167.3 4092000.4  1.0  1.0  5  0      5479
[22]  B08  7 43   -286.0 4092000.7  1.0  1.0  5  0      5320
[23]  B10  7 43   -580.8 4092001.5  1.0  1.0  5  0      4820
[24]  B11  7 44   -922.5 4092002.4  1.0  1.0  5  0      4644
[25]  B12  7 38   1902.5 4091995.0  1.0  1.0  5  0      4479
[26]  B13  7 44   -803.5 4092002.1  1.0  1.0  5  0      4297
[27]  B21  1  7  -1981.0 4092005.0 -0.0  0.0  1  0      1632
[28]  B23  7 25  -3174.9 4092008.3 -0.1  0.0 20  0      1128
[29]  B24  7 21   2070.7 4091994.6  0.5  0.0 20  0       959
[30]  B26  1  7   3028.1 4091991.4  0.0  0.0  1  0       625
$GNGGA,082238.000,2944.9029,N,10633.0959,E,1,14,0.8,330.7,M,,,,0000*13
$GNRMC,082238.000,A,2944.9029,N,10633.0959,E,0.07,0.00,280419,,*14
$GPGSA,A,3,01,03,07,11,17,18,22,28,30,,,,1.1,0.8,0.7*3E
$BDGSA,A,3,01,02,03,04,05,,,,,,,,1.1,0.8,0.7*2D
$GPGSV,3,1,12,03,25,115,40,17,42,289,45,22,26,090,39,28,58,343,43*7C
$GPGSV,3,2,12,01,53,046,44,07,27,179,43,11,40,042,42,18,26,042,39*71
$GPGSV,3,3,12,30,52,213,45,08,08,066,00,13,03,278,00,19,22,269,00*76
$BDGSV,3,1,12,01,40,125,40,02,47,219,39,03,55,171,41,04,23,109,38*68
$BDGSV,3,2,12,05,27,244,36,07,64,117,44,08,87,276,43,10,83,014,43*64
$BDGSV,3,3,12,11,54,283,44,12,28,043,38,13,60,221,44,23,00,000,25*65
$LOGTIM,3,-624.607186,-794.653937,0.000000,0.000000,-58.727*12
---00000022--- Acq_st=2 2019-4-28 08:22:38 
[00]  G03  f 40  -2319.6 2046003.0  1.0  0.9  5  0  30175922
[01]  G17  f 44  -1274.6 2046001.7  1.0  1.0  5  0  30175926
[02]  G22  f 38   -941.9 2046001.3  1.0  1.0  5  0  30175922
[03]  G28  f 43  -1879.6 2046002.4  1.0  1.0  5  0  30175929
[04]  G01  f 43   1736.4 2045997.7  1.0  1.0  5  0  30175930
[05]  G07  f 43   3125.2 2045995.9  1.0  1.0  5  0  30175924
[06]  G11  f 42   2224.0 2045997.1  1.0  1.0  5  0  30175927
[07]  G18  f 39   2945.6 2045996.2  1.0  1.0  5  0  30175924
[08]  G30  f 44   1636.0 2045997.9  1.0  1.0  5  0  30175929
[16]  B01 1f 41   -293.4 4092000.7  0.9  0.0  2  0  30161874
[17]  B02 1f 39   -344.7 4092000.9  0.9  0.0  2  0  30161875
[18]  B03 1f 42   -312.0 4092000.8  1.0  0.0  2  0  30161877
[19]  B04 1f 38   -309.5 4092000.7  0.9  0.0  2  0  30161869
[20]  B05 1f 37   -351.4 4092000.9  0.9  0.0  2  0  30161870
[21]  B07  7 44   -168.6 4092000.4  1.0  1.0  5  0      6479
[22]  B08  7 43   -287.9 4092000.7  1.0  1.0  5  0      6320
[23]  B10  7 42   -582.0 4092001.5  1.0  1.0  5  0      5820
[24]  B11  7 44   -923.7 4092002.4  1.0  1.0  5  0      5644
[25]  B12  7 39   1901.3 4091995.0  1.0  1.0  5  0      5479
[26]  B13  7 43   -805.0 4092002.1  1.0  1.0  5  0      5297
[27]  B21  1 10  -1944.1 4092004.8  0.0  0.0  1  0      2632
[28]  B23  7 39  -3177.3 4092008.3  1.0  1.0  5  0      2113
[29]  B24  7 45   2069.2 4091994.6  0.8  1.0  5  0      1943
[30]  B26  7 32   3027.8 4091992.0  0.8  1.1  5  0      1611
[31]  B31  1  7  -4981.5 4092012.8  0.1  0.0  1  0         0
$GNGGA,082239.000,2944.9044,N,10633.0962,E,1,14,0.8,325.8,M,,,,0000*1A
$GNRMC,082239.000,A,2944.9044,N,10633.0962,E,0.02,0.00,280419,,*13
$GPGSA,A,3,01,03,07,11,17,18,22,28,30,,,,1.1,0.8,0.7*3E
$BDGSA,A,3,01,02,03,04,05,,,,,,,,1.1,0.8,0.7*2D
$GPGSV,3,1,12,03,25,115,40,17,42,289,44,22,26,090,38,28,58,343,43*7C
$GPGSV,3,2,12,01,53,046,43,07,27,179,43,11,40,042,42,18,26,042,39*76
$GPGSV,3,3,12,30,52,213,44,08,08,066,00,13,03,278,00,19,22,269,00*77
$BDGSV,3,1,12,01,40,125,41,02,47,219,39,03,55,171,43,04,23,109,38*6B
$BDGSV,3,2,12,05,27,244,37,07,64,117,44,08,87,276,43,10,83,014,42*64
$BDGSV,3,3,12,11,54,283,44,12,28,043,39,13,60,221,43,23,00,000,39*6E
$LOGTIM,3,-685.776605,-857.217877,0.000000,0.000000,-59.178*1E
---00000023--- Acq_st=7 2019-4-28 08:22:39 
[00]  G03  f 40  -2322.3 2046003.1  1.0  1.0  5  0  30176922
[01]  G17  f 44  -1277.1 2046001.7  1.0  1.0  5  0  30176926
[02]  G22  f 39   -943.7 2046001.2  1.0  1.0  5  0  30176922
[03]  G28  f 43  -1882.1 2046002.4  1.0  1.0  5  0  30176929
[04]  G01  f 44   1734.5 2045997.8  1.0  1.0  5  0  30176930
[05]  G07  f 44   3123.2 2045995.9  1.0  1.0  5  0  30176924
[06]  G11  f 42   2222.0 2045997.1  1.0  1.0  5  0  30176927
[07]  G18  f 40   2943.5 2045996.2  1.0  1.0  5  0  30176924
[08]  G30  f 45   1634.1 2045997.9  1.0  1.0  5  0  30176929
[16]  B01 1f 40   -295.2 4092000.7  0.9  0.0  2  0  30162874
[17]  B02 1f 39   -346.2 4092000.9  0.9  0.0  2  0  30162875
[18]  B03 1f 41   -313.7 4092000.8  1.0  0.0  2  0  30162877
[19]  B04 1f 39   -312.0 4092000.8  0.9  0.0  2  0  30162869
[20]  B05 1f 37   -353.9 4092000.9  0.9  0.0  2  0  30162870
[21]  B07 1f 44   -170.8 4092000.4  1.0  1.0  5  0      7479
[22]  B08 1f 43   -290.1 4092000.8  1.0  1.0  5  0      7320
[23]  B10 1f 42   -584.6 4092001.5  1.0  1.0  5  0      6820
[24]  B11 1f 44   -926.0 4092002.4  1.0  1.0  5  0      6644
[25]  B12 1f 38   1898.1 4091995.0  1.0  1.0  5  0      6479
[26]  B13 1f 44   -806.9 4092002.1  1.0  1.0  5  0      6297
[28]  B23 1f 39  -3179.1 4092008.3  1.0  1.0  5  0      3113
[29]  B24 1f 46   2067.4 4091994.6  1.0  1.0  5  0      2943
[30]  B26 1f 35   3026.3 4091992.0  1.0  0.9  5  0      2611
[31]  B31  1  7  -4701.5 4092012.9  0.2  0.0  1  0       948
$GNGGA,082240.000,2944.9053,N,10633.0958,E,1,22,0.6,323.2,M,,,,0000*1C
$GNRMC,082240.000,A,2944.9053,N,10633.0958,E,0.05,0.00,280419,,*15
$GPGSA,A,3,01,03,07,11,17,18,22,28,30,,,,0.7,0.6,0.4*34
$BDGSA,A,3,01,02,03,04,05,07,08,10,11,12,13,24,0.7,0.6,0.4*2E
$GPGSV,3,1,12,03,25,115,40,17,42,289,44,22,26,090,39,28,58,343,43*7D
$GPGSV,3,2,12,01,53,046,44,07,27,179,44,11,40,042,42,18,26,042,40*78
$GPGSV,3,3,12,30,52,213,45,08,08,066,00,13,03,278,00,19,22,269,00*76
$BDGSV,3,1,12,01,40,125,40,02,47,219,39,03,55,171,41,04,23,109,39*69
$BDGSV,3,2,12,05,27,244,37,07,64,117,44,08,87,276,43,10,83,014,42*64
$BDGSV,3,3,12,11,54,283,44,12,28,043,38,13,60,221,44,23,00,000,39*68
$LOGTIM,3,-746.183474,-917.636742,0.000000,0.000000,-59.324*18
---00000024--- Acq_st=7 2019-4-28 08:22:40 
[00]  G03  f 39  -2319.3 2046003.0  1.0  1.0  5  0  30177922
[01]  G17  f 43  -1274.5 2046001.6  1.0  1.0  5  0  30177926
[02]  G22  f 38   -941.1 2046001.2  1.0  1.0  5  0  30177922
[03]  G28  f 42  -1879.4 2046002.4  1.0  1.0  5  0  30177929
[04]  G01  f 43   1737.5 2045997.8  1.0  1.0  5  0  30177930
[05]  G07  f 42   3125.4 2045995.9  1.0  1.0  5  0  30177924
[06]  G11  f 42   2224.6 2045997.1  1.0  1.0  5  0  30177927
[07]  G18  f 39   2946.2 2045996.2  1.0  1.0  5  0  30177924
[08]  G30  f 43   1636.8 2045997.9  1.0  1.0  5  0  30177929
[16]  B01 1f 39   -293.4 4092000.7  0.9  0.0  2  0  30163874
[17]  B02 1f 39   -344.9 4092001.0  0.9  0.0  2  0  30163875
[18]  B03 1f 41   -312.1 4092000.8  1.0  0.0  2  0  30163877
[19]  B04 1f 39   -310.2 4092000.9  0.9  0.0  2  0  30163869
[20]  B05 1f 36   -351.8 4092000.9  0.8  0.0  2  0  30163870
[21]  B07 1f 43   -168.8 4092000.4  1.0  1.0  5  0  30163879
[22]  B08 1f 43   -287.8 4092000.8  1.0  1.0  5  0  30163880
[23]  B10 1f 43   -582.4 4092001.5  1.0  1.0  5  0  30163880
[24]  B11 1f 44   -923.7 4092002.4  1.0  1.0  5  0  30163924
[25]  B12 1f 39   1900.9 4091995.0  1.0  1.0  5  0  30163919
[26]  B13 1f 43   -804.9 4092002.1  1.0  1.0  5  0  30163877
[28]  B23 1f 39  -3176.6 4092008.3  1.0  1.0  5  0  30163913
[29]  B24 1f 45   2069.6 4091994.6  1.0  1.0  5  0  30163923
[30]  B26 1f 35   3028.7 4091992.0  1.0  1.0  5  0  30163911
[31]  B31  1  7  -4594.1 4092012.9  0.1  0.0  1  0      1948
$GNGGA,082241.000,2944.9061,N,10633.0954,E,1,22,0.6,321.9,M,,,,0000*19
$GNRMC,082241.000,A,2944.9061,N,10633.0954,E,0.15,0.00,280419,,*18
$GPGSA,A,3,01,03,07,11,17,18,22,28,30,,,,0.7,0.6,0.4*34
$BDGSA,A,3,01,02,03,04,05,07,08,10,11,12,13,24,0.7,0.6,0.4*2E
$GPGSV,3,1,12,03,25,115,39,17,42,289,43,22,26,090,38,28,58,343,42*74
$GPGSV,3,2,12,01,53,046,43,07,27,178,42,11,40,042,42,18,26,042,39*76
$GPGSV,3,3,12,30,52,213,43,08,08,066,00,13,03,278,00,19,23,269,00*71
$BDGSV,3,1,12,01,40,125,39,02,47,219,39,03,55,171,41,04,23,109,39*67
$BDGSV,3,2,12,05,27,244,36,07,64,117,43,08,87,278,43,10,83,014,43*6D
$BDGSV,3,3,12,11,54,283,44,12,28,043,39,13,60,221,43,23,00,000,39*6E
$LOGTIM,3,-805.744973,-977.387546,0.000000,0.000000,-58.874*17
---00000025--- Acq_st=7 2019-4-28 08:22:41 
[00]  G03  f 39  -2316.8 2046003.0  1.0  1.0  5  0  30178922
[01]  G17  f 44  -1272.4 2046001.6  1.0  1.0  5  0  30178926
[02]  G22  f 38   -939.0 2046001.2  1.0  0.9  5  0  30178922
[03]  G28  f 43  -1877.3 2046002.4  1.0  1.0  5  0  30178929
[04]  G01  f 44   1739.9 2045997.7  1.0  1.0  5  0  30178930
[05]  G07  f 43   3127.7 2045995.9  1.0  1.0  5  0  30178924
[06]  G11  f 42   2226.8 2045997.1  1.0  1.0  5  0  30178927
[07]  G18  f 40   2948.3 2045996.2  1.0  1.0  5  0  30178924
[08]  G30  f 44   1639.2 2045997.9  1.0  1.0  5  0  30178929
[16]  B01 1f 39   -291.4 4092000.7  1.0  0.0  2  0  30164874
[17]  B02 1f 40   -342.5 4092001.0  0.9  0.0  2  0  30164875
[18]  B03 1f 42   -309.9 4092000.8  1.0  0.0  2  0  30164877
[19]  B04 1f 40   -308.2 4092000.9  1.0  0.0  2  0  30164869
[20]  B05 1f 36   -349.9 4092000.9  0.9  0.0  2  0  30164870
[21]  B07 1f 43   -166.6 4092000.4  1.0  1.0  5  0  30164879
[22]  B08 1f 43   -285.5 4092000.8  1.0  1.0  5  0  30164880
[23]  B10 1f 43   -580.1 4092001.5  1.0  1.0  5  0  30164880
[24]  B11 1f 45   -921.3 4092002.4  1.0  1.0  5  0  30164924
[25]  B12 1f 38   1902.7 4091995.0  1.0  1.0  5  0  30164919
[26]  B13 1f 43   -802.5 4092002.1  1.0  1.0  5  0  30164877
[28]  B23 1f 39  -3175.0 4092008.3  1.0  1.0  5  0  30164913
[29]  B24 1f 45   2072.3 4091994.6  1.0  1.0  5  0  30164923
[30]  B26 1f 36   3029.8 4091992.0  1.0  1.0  5  0  30164911
$GNGGA,082242.000,2944.9078,N,10633.0944,E,1,20,0.6,318.1,M,,,,0000*13
$GNRMC,082242.000,A,2944.9078,N,10633.0944,E,0.11,0.00,280419,,*16
$GPGSA,A,3,01,03,07,11,17,18,22,28,30,,,,0.8,0.6,0.5*3A
$BDGSA,A,3,01,02,03,04,05,07,11,12,13,24,26,,0.8,0.6,0.5*2D
$GPGSV,3,1,12,03,25,115,39,17,42,289,44,22,26,090,38,28,58,343,43*72
$GPGSV,3,2,12,01,53,046,44,07,27,178,43,11,40,042,42,18,26,042,40*7E
$GPGSV,3,3,12,30,52,213,44,08,08,066,00,13,03,278,00,19,23,269,00*76
$BDGSV,3,1,12,01,40,125,39,02,47,219,40,03,55,171,42,04,23,109,40*64
$BDGSV,3,2,12,05,27,244,36,07,64,117,43,08,87,278,43,10,83,014,43*6D
$BDGSV,3,3,12,11,54,283,45,12,28,043,38,13,60,221,43,23,00,000,39*6E
$LOGTIM,3,-866.813632,-1039.760198,0.000000,0.000000,-58.968*21
---00000026--- Acq_st=3 2019-4-28 08:22:43 
[00]  G03  f 39  -2320.7 2046003.0  1.0  1.0  5  0  30179922
[01]  G17  f 44  -1276.5 2046001.7  1.0  1.0  5  0  30179926
[02]  G22  f 38   -942.4 2046001.3  1.0  1.0  5  0  30179922
[03]  G28  f 43  -1881.2 2046002.5  1.0  1.0  5  0  30179929
[04]  G01  f 44   1736.2 2045997.8  1.0  1.0  5  0  30179930
[05]  G07  f 43   3123.8 2045995.9  1.0  1.0  5  0  30179924
[06]  G11  f 42   2222.8 2045997.1  1.0  1.0  5  0  30179927
[07]  G18  f 39   2944.5 2045996.2  1.0  1.0  5  0  30179924
[08]  G30  f 44   1635.8 2045997.9  1.0  1.0  5  0  30179929
[16]  B01 1f 40   -294.9 4092000.8  0.9  0.0  2  0  30165874
[17]  B02 1f 39   -346.7 4092000.9  0.9  0.0  2  0  30165875
[18]  B03 1f 41   -313.3 4092000.8  1.0  0.0  2  0  30165877
[19]  B04 1f 41   -311.8 4092000.8  0.9  0.0  2  0  30165869
[20]  B05 1f 36   -354.2 4092001.0  0.9  0.0  2  0  30165870
[21]  B07 1f 43   -170.2 4092000.4  1.0  1.0  5  0  30165879
[22]  B08 1f 43   -289.2 4092000.7  1.0  1.0  5  0  30165880
[23]  B10 1f 43   -584.0 4092001.5  1.0  1.0  5  0  30165880
[24]  B11 1f 44   -924.9 4092002.4  1.0  1.0  5  0  30165924
[25]  B12 1f 39   1899.3 4091995.1  1.0  1.0  5  0  30165919
[26]  B13 1f 43   -806.5 4092002.1  1.0  1.0  5  0  30165877
[28]  B23 1f 39  -3178.2 4092008.3  1.0  1.0  5  0  30165913
[29]  B24 1f 45   2068.8 4091994.6  1.0  1.0  5  0  30165923
[30]  B26 1f 36   3027.2 4091992.0  1.0  1.0  5  0  30165911
$GNGGA,082243.000,2944.9082,N,10633.0941,E,1,22,0.6,322.1,M,,,,0000*19
$GNRMC,082243.000,A,2944.9082,N,10633.0941,E,0.08,0.00,280419,,*1F
$GPGSA,A,3,01,03,07,11,17,18,22,28,30,,,,0.7,0.6,0.4*34
$BDGSA,A,3,01,02,03,04,05,07,08,10,11,12,13,24,0.7,0.6,0.4*2E
$GPGSV,3,1,12,03,25,115,39,17,42,289,44,22,26,090,38,28,58,343,43*72
$GPGSV,3,2,12,01,53,046,44,07,27,178,43,11,40,042,42,18,26,042,39*70
$GPGSV,3,3,12,30,52,213,44,08,08,066,00,13,03,278,00,19,23,269,00*76
$BDGSV,3,1,12,01,40,125,40,02,47,219,39,03,55,171,41,04,23,109,41*66
$BDGSV,3,2,12,05,27,244,36,07,64,117,43,08,87,278,43,10,83,014,43*6D
$BDGSV,3,3,12,11,54,283,44,12,28,043,39,13,60,221,43,23,00,000,39*6E
$LOGTIM,3,-924.291305,-1097.804866,0.000000,0.000000,-59.292*29
---00000027--- Acq_st=3 2019-4-28 08:22:43 
[00]  G03  f 40  -2320.4 2046003.1  1.0  1.0  5  0  30180922
[01]  G17  f 44  -1276.0 2046001.6  1.0  1.0  5  0  30180926
[02]  G22  f 39   -940.9 2046001.3  1.0  1.0  5  0  30180922
[03]  G28  f 44  -1881.0 2046002.4  1.0  1.0  5  0  30180929
[04]  G01  f 44   1737.0 2045997.7  1.0  1.0  5  0  30180930
[05]  G07  f 44   3124.5 2045995.9  1.0  1.0  5  0  30180924
[06]  G11  f 42   2223.6 2045997.1  1.0  1.0  5  0  30180927
[07]  G18  f 40   2945.5 2045996.2  1.0  1.0  5  0  30180924
[08]  G30  f 44   1636.5 2045997.9  1.0  1.0  5  0  30180929
[16]  B01 1f 40   -295.1 4092000.8  0.9  0.0  2  0  30166874
[17]  B02 1f 39   -346.5 4092000.8  0.9  0.0  2  0  30166875
[18]  B03 1f 41   -313.7 4092000.8  1.0  0.0  2  0  30166877
[19]  B04 1f 40   -311.7 4092000.9  0.9  0.0  2  0  30166869
[20]  B05 1f 37   -353.9 4092001.2  0.9  0.0  2  0  30166870
[21]  B07 1f 43   -169.8 4092000.4  1.0  1.0  5  0  30166879
[22]  B08 1f 43   -288.7 4092000.8  1.0  1.0  5  0  30166880
[23]  B10 1f 43   -583.6 4092001.5  1.0  1.0  5  0  30166880
[24]  B11 1f 44   -924.4 4092002.4  1.0  1.0  5  0  30166924
[25]  B12 1f 39   1899.4 4091995.0  1.0  1.0  5  0  30166919
[26]  B13 1f 43   -806.2 4092002.1  1.0  1.0  5  0  30166877
[28]  B23 1f 39  -3177.2 4092008.3  1.0  1.0  5  0  30166913
[29]  B24 1f 45   2069.3 4091994.6  1.0  1.0  5  0  30166923
[30]  B26 1f 36   3027.0 4091992.2  1.0  1.0  5  0  30166911
$GNGGA,082244.000,2944.9068,N,10633.0942,E,1,22,0.6,322.3,M,,,,0000*1B
$GNRMC,082244.000,A,2944.9068,N,10633.0942,E,0.04,0.00,280419,,*13
$GPGSA,A,3,01,03,07,11,17,18,22,28,30,,,,0.7,0.6,0.4*34
$BDGSA,A,3,01,02,03,04,05,07,08,10,11,12,13,24,0.7,0.6,0.4*2E
$GPGSV,3,1,12,03,25,115,40,17,42,289,44,22,26,090,39,28,58,343,44*7A
$GPGSV,3,2,12,01,53,046,44,07,27,178,44,11,40,042,42,18,26,042,40*79
$GPGSV,3,3,12,30,52,213,44,06,11,214,00,08,08,066,00,13,03,278,00*73
$BDGSV,3,1,12,01,40,125,40,02,47,219,39,03,55,171,41,04,23,109,40*67
$BDGSV,3,2,12,05,27,244,37,07,64,117,43,08,87,278,43,10,83,014,43*6C
$BDGSV,3,3,12,11,54,283,44,12,28,043,39,13,60,221,43,23,00,000,39*6E
$LOGTIM,3,-984.018486,-1158.263799,0.000000,0.000000,-59.120*20
---00000028--- Acq_st=3 2019-4-28 08:22:44 
[00]  G03  f 40  -2317.8 2046003.0  1.0  1.0  5  0  30181922
[01]  G17  f 45  -1273.7 2046001.6  1.0  1.0  5  0  30181926
[02]  G22  f 39   -938.9 2046001.2  1.0  1.0  5  0  30181922
[03]  G28  f 44  -1878.4 2046002.5  1.0  1.0  5  0  30181929
[04]  G01  f 45   1740.0 2045997.7  1.0  1.0  5  0  30181930
[05]  G07  f 44   3126.9 2045995.9  1.0  1.0  5  0  30181924
[06]  G11  f 42   2226.1 2045997.1  1.0  1.0  5  0  30181927
[07]  G18  f 41   2947.7 2045996.1  1.0  1.0  5  0  30181924
[08]  G30  f 46   1639.5 2045997.9  1.0  1.0  5  0  30181929
[16]  B01 1f 40   -292.6 4092000.7  0.9  0.0  2  0  30167874
[17]  B02 1f 39   -344.4 4092000.8  1.0  0.0  2  0  30167875
[18]  B03 1f 41   -311.6 4092000.8  1.0  0.0  2  0  30167877
[19]  B04 1f 39   -309.5 4092000.9  0.9  0.0  2  0  30167869
[20]  B05 1f 36   -352.2 4092000.9  0.9  0.0  2  0  30167870
[21]  B07 1f 45   -167.8 4092000.4  1.0  1.0  5  0  30167879
[22]  B08 1f 44   -286.7 4092000.7  1.0  1.0  5  0  30167880
[23]  B10 1f 43   -581.5 4092001.5  1.0  1.0  5  0  30167880
[24]  B11 1f 45   -922.0 4092002.4  1.0  1.0  5  0  30167924
[25]  B12 1f 39   1901.3 4091995.0  1.0  1.0  5  0  30167919
[26]  B13 1f 44   -803.7 4092002.1  1.0  1.0  5  0  30167877
[28]  B23 1f 39  -3175.5 4092008.3  1.0  1.0  5  0  30167913
[29]  B24 1f 46   2071.7 4091994.6  1.0  1.0  5  0  30167923
[30]  B26 1f 36   3028.6 4091992.1  1.0  0.9  5  0  30167911
$GNGGA,082245.000,2944.9078,N,10633.0937,E,1,21,0.6,319.3,M,,,,0000*12
$GNRMC,082245.000,A,2944.9078,N,10633.0937,E,0.03,0.00,280419,,*16
$GPGSA,A,3,01,03,07,11,17,18,22,28,30,,,,0.8,0.6,0.4*3B
$BDGSA,A,3,01,02,03,04,05,07,08,10,12,13,24,26,0.8,0.6,0.4*25
$GPGSV,3,1,12,03,25,115,40,17,42,289,45,22,26,090,39,28,58,343,44*7B
$GPGSV,3,2,12,01,53,046,45,07,27,178,44,11,40,042,42,18,26,042,41*79
$GPGSV,3,3,12,30,52,213,46,06,11,214,00,08,08,066,00,13,03,278,00*71
$BDGSV,3,1,12,01,40,125,40,02,47,219,39,03,55,171,41,04,23,109,39*69
$BDGSV,3,2,12,05,27,244,36,07,64,117,44,08,87,278,44,10,83,014,43*6D
$BDGSV,3,3,12,11,54,283,45,12,28,043,39,13,60,221,44,23,00,000,39*68
$LOGTIM,3,-1043.756349,-1217.723593,0.000000,0.000000,-59.258*17
---00000029--- Acq_st=2 2019-4-28 08:22:45 
[00]  G03  f 40  -2321.4 2046003.0  1.0  1.0  5  0  30182922
[01]  G17  f 45  -1277.4 2046001.7  1.0  1.0  5  0  30182926
[02]  G22  f 39   -942.0 2046001.2  1.0  1.0  5  0  30182922
[03]  G28  f 43  -1882.4 2046002.5  1.0  1.0  5  0  30182929
[04]  G01  f 45   1736.8 2045997.7  1.0  1.0  5  0  30182930
[05]  G07  f 45   3123.2 2045995.9  1.0  1.0  5  0  30182924
[06]  G11  f 42   2222.0 2045997.1  1.0  1.0  5  0  30182927
[07]  G18  f 40   2944.3 2045996.2  1.0  1.0  5  0  30182924
[08]  G30  f 45   1635.9 2045997.9  1.0  1.0  5  0  30182929
[16]  B01 1f 40   -296.8 4092000.9  0.9  0.0  2  0  30168874
[17]  B02 1f 39   -348.2 4092000.9  0.9  0.0  2  0  30168875
[18]  B03 1f 42   -315.5 4092000.7  1.0  0.0  2  0  30168877
[19]  B04 1f 40   -313.6 4092000.7  0.9  0.0  2  0  30168869
[20]  B05 1f 37   -355.1 4092000.9  0.9  0.0  2  0  30168870
[21]  B07 1f 44   -171.4 4092000.4  1.0  1.0  5  0  30168879
[22]  B08 1f 43   -290.2 4092000.7  1.0  1.0  5  0  30168880
[23]  B10 1f 43   -584.9 4092001.5  1.0  1.0  5  0  30168880
[24]  B11 1f 45   -925.6 4092002.4  1.0  1.0  5  0  30168924
[25]  B12 1f 39   1897.1 4091995.0  1.0  1.0  5  0  30168919
[26]  B13 1f 43   -807.7 4092002.1  1.0  1.0  5  0  30168877
[28]  B23 1f 39  -3179.1 4092008.3  1.0  1.0  5  0  30168913
[29]  B24 1f 45   2068.3 4091994.6  1.0  1.0  5  0  30168923
[30]  B26 1f 36   3024.8 4091992.1  1.0  0.9  5  0  30168911
$GNGGA,082246.000,2944.9081,N,10633.0933,E,1,22,0.6,319.1,M,,,,0000*12
$GNRMC,082246.000,A,2944.9081,N,10633.0933,E,0.06,0.00,280419,,*12
$GPGSA,A,3,01,03,07,11,17,18,22,28,30,,,,0.7,0.6,0.4*34
$BDGSA,A,3,01,02,03,04,05,07,08,10,11,12,13,24,0.7,0.6,0.4*2E
$GPGSV,3,1,12,03,25,115,40,17,42,289,45,22,26,090,39,28,58,343,43*7C
$GPGSV,3,2,12,01,53,046,45,07,27,178,45,11,40,042,42,18,26,042,40*79
$GPGSV,3,3,12,30,52,213,45,06,11,214,00,08,08,066,00,13,03,278,00*72
$BDGSV,3,1,12,01,40,125,40,02,47,219,39,03,55,171,43,04,23,109,40*65
$BDGSV,3,2,12,05,27,244,37,07,64,117,44,08,87,278,43,10,83,014,43*6B
$BDGSV,3,3,12,11,54,283,45,12,28,043,39,13,60,221,43,23,00,000,39*6F
$LOGTIM,3,-1103.400058,-1277.370514,0.000000,0.000000,-59.683*18
---00000030--- Acq_st=3 2019-4-28 08:22:46 
[00]  G03  f 40  -2323.0 2046003.0  1.0  1.0  5  0  30183922
[01]  G17  f 46  -1279.5 2046001.7  1.0  1.0  5  0  30183926
[02]  G22  f 39   -944.3 2046001.2  1.0  1.0  5  0  30183922
[03]  G28  f 44  -1884.6 2046002.4  1.0  1.0  5  0  30183929
[04]  G01  f 46   1734.5 2045997.7  1.0  1.0  5  0  30183930
[05]  G07  f 45   3120.9 2045996.0  1.0  1.0  5  0  30183924
[06]  G11  f 43   2220.0 2045997.1  1.0  1.0  5  0  30183927
[07]  G18  f 40   2942.1 2045996.2  1.0  1.0  5  0  30183924
[08]  G30  f 46   1634.1 2045997.9  1.0  1.0  5  0  30183929
[16]  B01 1f 39   -299.1 4092000.8  1.0  0.0  2  0  30169874
[17]  B02 1f 40   -350.4 4092000.9  0.9  0.0  2  0  30169875
[18]  B03 1f 42   -317.7 4092000.8  1.0  0.0  2  0  30169877
[19]  B04 1f 38   -316.0 4092000.8  0.9  0.0  2  0  30169869
[20]  B05 1f 35   -357.4 4092001.1  0.8  0.0  2  0  30169870
[21]  B07 1f 45   -173.9 4092000.4  1.0  1.0  5  0  30169879
[22]  B08 1f 44   -292.7 4092000.8  1.0  1.0  5  0  30169880
[23]  B10 1f 43   -587.8 4092001.5  1.0  1.0  5  0  30169880
[24]  B11 1f 45   -927.8 4092002.4  1.0  1.0  5  0  30169924
[25]  B12 1f 39   1894.7 4091995.1  1.0  1.0  5  0  30169919
[26]  B13 1f 44   -809.7 4092002.1  1.0  1.0  5  0  30169877
[28]  B23 1f 39  -3181.5 4092008.3  1.0  1.0  5  0  30169913
[29]  B24 1f 46   2066.2 4091994.6  1.0  1.0  5  0  30169923
[30]  B26 1f 36   3022.3 4091992.1  1.0  1.0  5  0  30169911
$GNGGA,082247.000,2944.9071,N,10633.0937,E,1,22,0.6,323.8,M,,,,0000*18
$GNRMC,082247.000,A,2944.9071,N,10633.0937,E,0.14,0.00,280419,,*1B
$GPGSA,A,3,01,03,07,11,17,18,22,28,30,,,,0.7,0.6,0.4*34
$BDGSA,A,3,01,02,03,04,05,07,08,10,11,12,13,24,0.7,0.6,0.4*2E
$GPGSV,3,1,12,03,25,115,40,17,42,289,46,22,26,090,39,28,58,343,44*78
$GPGSV,3,2,12,01,53,046,46,07,27,178,45,11,40,042,43,18,26,042,40*7B
$GPGSV,3,3,12,30,52,213,46,06,11,214,00,08,08,066,00,13,03,278,00*71
$BDGSV,3,1,12,01,40,125,39,02,47,219,40,03,55,171,42,04,23,109,38*6B
$BDGSV,3,2,12,05,27,244,35,07,64,117,45,08,87,278,44,10,83,014,43*6F
$BDGSV,3,3,12,11,54,283,45,12,28,043,39,13,60,221,44,23,00,000,39*68
$LOGTIM,3,-1162.743368,-1337.478919,0.000000,0.000000,-60.139*1C
---00000031--- Acq_st=3 2019-4-28 08:22:47 
[00]  G03  f 39  -2325.3 2046003.0  1.0  1.0  5  0  30184922
[01]  G17  f 45  -1282.1 2046001.7  1.0  1.0  5  0  30184926
[02]  G22  f 39   -947.2 2046001.2  1.0  1.0  5  0  30184922
[03]  G28  f 44  -1887.4 2046002.4  1.0  1.0  5  0  30184929
[04]  G01  f 45   1732.3 2045997.7  1.0  1.0  5  0  30184930
[05]  G07  f 45   3118.2 2045996.0  1.0  1.0  5  0  30184924
[06]  G11  f 42   2217.6 2045997.1  1.0  1.0  5  0  30184927
[07]  G18  f 40   2939.4 2045996.2  1.0  1.0  5  0  30184924
[08]  G30  f 45   1631.4 2045997.9  1.0  1.0  5  0  30184929
[16]  B01 1f 40   -302.2 4092000.8  0.9  0.0  2  0  30170874
[17]  B02 1f 38   -353.4 4092000.9  0.9  0.0  2  0  30170875
[18]  B03 1f 41   -321.0 4092000.8  1.0  0.0  2  0  30170877
[19]  B04 1f 39   -318.8 4092000.7  0.9  0.0  2  0  30170869
[20]  B05 1f 36   -360.9 4092000.8  0.8  0.0  2  0  30170870
[21]  B07 1f 44   -176.7 4092000.5  1.0  1.0  5  0  30170879
[22]  B08 1f 43   -295.6 4092000.8  1.0  1.0  5  0  30170880
[23]  B10 1f 43   -590.4 4092001.5  1.0  1.0  5  0  30170880
[24]  B11 1f 45   -930.7 4092002.4  1.0  1.0  5  0  30170924
[25]  B12 1f 39   1891.9 4091995.0  1.0  1.0  5  0  30170919
[26]  B13 1f 43   -812.2 4092002.2  1.0  1.0  5  0  30170877
[28]  B23 1f 39  -3184.1 4092008.4  1.0  1.0  5  0  30170913
[29]  B24 1f 45   2063.3 4091994.6  1.0  1.0  5  0  30170923
[30]  B26 1f 36   3019.1 4091992.1  1.0  0.9  5  0  30170911
$GNGGA,082248.000,2944.9071,N,10633.0928,E,1,22,0.6,324.0,M,,,,0000*16
$GNRMC,082248.000,A,2944.9071,N,10633.0928,E,0.20,0.00,280419,,*1D
$GPGSA,A,3,01,03,07,11,17,18,22,28,30,,,,0.7,0.6,0.4*34
$BDGSA,A,3,01,02,03,04,05,07,08,10,11,12,13,24,0.7,0.6,0.4*2E
$GPGSV,3,1,12,03,25,115,39,17,42,289,45,22,26,090,39,28,58,343,44*75
$GPGSV,3,2,12,01,53,046,45,07,27,178,45,11,40,042,42,18,26,042,40*79
$GPGSV,3,3,12,30,52,213,45,06,11,214,00,08,08,066,00,13,03,278,00*72
$BDGSV,3,1,12,01,40,125,40,02,47,219,38,03,55,171,41,04,23,109,39*68
$BDGSV,3,2,12,05,27,244,36,07,64,117,44,08,87,278,43,10,83,014,43*6A
$BDGSV,3,3,12,11,54,283,45,12,28,043,39,13,60,221,43,23,00,000,39*6F
$LOGTIM,3,-1223.306506,-1398.307935,0.000000,0.000000,-60.509*12
---00000032--- Acq_st=3 2019-4-28 08:22:49 
[00]  G03  f 39  -2327.1 2046003.0  1.0  0.9  5  0  30185922
[01]  G17  f 43  -1283.4 2046001.7  1.0  0.9  5  0  30185926
[02]  G22  f 38   -947.3 2046001.2  1.0  1.0  5  0  30185922
[03]  G28  f 42  -1888.5 2046002.5  1.0  1.0  5  0  30185929
[04]  G01  f 43   1731.5 2045997.8  1.0  1.0  5  0  30185930
[05]  G07  f 42   3117.2 2045996.0  1.0  1.0  5  0  30185924
[06]  G11  f 41   2216.5 2045997.1  1.0  1.0  5  0  30185927
[07]  G18  f 40   2938.7 2045996.2  1.0  1.0  5  0  30185924
[08]  G30  f 43   1630.9 2045997.9  1.0  1.0  5  0  30185929
[16]  B01 1f 40   -303.2 4092000.8  1.0  0.0  2  0  30171874
[17]  B02 1f 40   -354.5 4092000.8  0.9  0.0  2  0  30171875
[18]  B03 1f 42   -321.7 4092000.9  1.0  0.0  2  0  30171877
[19]  B04 1f 38   -319.8 4092000.9  0.9  0.0  2  0  30171869
[20]  B05 1f 36   -362.1 4092000.9  0.9  0.0  2  0  30171870
[21]  B07 1f 43   -177.9 4092000.5  1.0  1.0  5  0  30171879
[22]  B08 1f 42   -296.4 4092000.8  1.0  1.0  5  0  30171880
[23]  B10 1f 42   -591.4 4092001.5  1.0  1.0  5  0  30171880
[24]  B11 1f 44   -931.3 4092002.4  1.0  1.0  5  0  30171924
[25]  B12 1f 38   1890.6 4091995.1  1.0  1.0  5  0  30171919
[26]  B13 1f 43   -813.4 4092002.1  1.0  1.0  5  0  30171877
[28]  B23 1f 39  -3184.7 4092008.3  1.0  1.0  5  0  30171914
[29]  B24 1f 45   2062.9 4091994.6  1.0  1.0  5  0  30171923
[30]  B26 1f 36   3018.5 4091992.1  1.0  1.0  5  0  30171911
$GNGGA,082249.000,2944.9075,N,10633.0927,E,1,22,0.6,322.5,M,,,,0000*1F
$GNRMC,082249.000,A,2944.9075,N,10633.0927,E,0.08,0.00,280419,,*1D
$GPGSA,A,3,01,03,07,11,17,18,22,28,30,,,,0.7,0.6,0.4*34
$BDGSA,A,3,01,02,03,04,05,07,08,10,11,12,13,24,0.7,0.6,0.4*2E
$GPGSV,3,1,12,03,25,115,39,17,42,289,43,22,26,090,38,28,58,343,42*74
$GPGSV,3,2,12,01,53,046,43,07,27,178,42,11,40,042,41,18,26,042,40*7B
$GPGSV,3,3,12,30,52,213,43,06,11,214,00,08,08,066,00,13,03,278,00*74
$BDGSV,3,1,12,01,40,125,41,02,47,219,40,03,55,171,42,04,23,109,38*64
$BDGSV,3,2,12,05,27,244,36,07,64,117,43,08,87,278,42,10,83,014,42*6D
$BDGSV,3,3,12,11,54,283,44,12,28,043,38,13,60,221,43,23,00,000,39*6F
$LOGTIM,3,-1284.226893,-1459.163824,0.000000,0.000000,-60.700*1D
---00000033--- Acq_st=5 2019-4-28 08:22:49 
[00]  G03  f 39  -2326.6 2046003.1  1.0  1.0  5  0  30186922
[01]  G17  f 46  -1283.2 2046001.7  1.0  1.0  5  0  30186926
[02]  G22  f 38   -946.9 2046001.3  1.0  1.0  5  0  30186922
[03]  G28  f 45  -1888.0 2046002.4  1.0  1.0  5  0  30186929
[04]  G01  f 45   1731.9 2045997.8  1.0  1.0  5  0  30186930
[05]  G07  f 45   3117.5 2045996.0  1.0  1.0  5  0  30186924
[06]  G11  f 43   2217.0 2045997.1  1.0  1.0  5  0  30186927
[07]  G18  f 41   2938.9 2045996.2  1.0  1.0  5  0  30186924
[08]  G30  f 45   1631.4 2045997.9  1.0  1.0  5  0  30186929
[16]  B01 1f 39   -303.1 4092000.8  0.9  0.0  2  0  30172874
[17]  B02 1f 39   -354.8 4092001.0  0.9  0.0  2  0  30172875
[18]  B03 1f 43   -321.7 4092000.8  1.0  0.0  2  0  30172877
[19]  B04 1f 39   -320.1 4092000.9  0.9  0.0  2  0  30172869
[20]  B05 1f 36   -361.8 4092000.9  0.9  0.0  2  0  30172870
[21]  B07 1f 44   -177.3 4092000.5  1.0  1.0  5  0  30172879
[22]  B08 1f 43   -296.0 4092000.8  1.0  1.0  5  0  30172880
[23]  B10 1f 43   -591.2 4092001.6  1.0  1.0  5  0  30172880
[24]  B11 1f 45   -931.0 4092002.4  1.0  1.0  5  0  30172924
[25]  B12 1f 39   1891.2 4091995.0  1.0  1.0  5  0  30172919
[26]  B13 1f 43   -813.4 4092002.1  1.0  1.0  5  0  30172877
[27]  B21  1  7  -2390.7 4092005.5 -0.0  0.0  1  0        92
[28]  B23 1f 39  -3184.8 4092008.3  1.0  1.0  5  0  30172914
[29]  B24 1f 45   2063.2 4091994.6  1.0  1.0  5  0  30172923
[30]  B26 1f 36   3018.8 4091992.0  1.0  1.0  5  0  30172911
[31]  B25  1  7  -1006.6 4092002.4  0.0  0.0  1  0      2948
$GNGGA,082250.000,2944.9063,N,10633.0921,E,1,22,0.6,324.8,M,,,,0000*1D
$GNRMC,082250.000,A,2944.9063,N,10633.0921,E,0.07,0.00,280419,,*1B
$GPGSA,A,3,01,03,07,11,17,18,22,28,30,,,,0.7,0.6,0.4*34
$BDGSA,A,3,01,02,03,04,05,07,08,10,11,12,13,24,0.7,0.6,0.4*2E
$GPGSV,3,1,12,03,25,115,39,17,42,289,46,22,26,090,38,28,58,343,45*76
$GPGSV,3,2,12,01,53,046,45,07,27,178,45,11,40,042,43,18,26,042,41*79
$GPGSV,3,3,12,30,52,213,45,06,11,214,00,08,08,066,00,13,03,278,00*72
$BDGSV,3,1,12,01,40,125,39,02,47,219,39,03,55,171,43,04,23,109,39*65
$BDGSV,3,2,12,05,27,244,36,07,64,117,44,08,87,278,43,10,83,014,43*6A
$BDGSV,3,3,12,11,54,283,45,12,28,043,39,13,60,221,43,23,00,000,39*6F
$LOGTIM,3,-1345.175822,-1520.743527,0.000000,0.000000,-60.687*15
---00000034--- Acq_st=2 2019-4-28 08:22:50 
[00]  G03  f 40  -2326.3 2046003.1  1.0  1.0  5  0  30187922
[01]  G17  f 45  -1283.1 2046001.7  1.0  1.0  5  0  30187926
[02]  G22  f 37   -946.8 2046001.2  1.0  1.0  5  0  30187922
[03]  G28  f 44  -1888.0 2046002.5  1.0  1.0  5  0  30187929
[04]  G01  f 45   1732.9 2045997.7  1.0  1.0  5  0  30187930
[05]  G07  f 45   3117.5 2045995.9  1.0  1.0  5  0  30187924
[06]  G11  f 43   2217.1 2045997.1  1.0  1.0  5  0  30187927
[07]  G18  f 41   2938.9 2045996.2  1.0  1.0  5  0  30187924
[08]  G30  f 45   1631.8 2045997.9  1.0  1.0  5  0  30187929
[16]  B01 1f 40   -303.4 4092000.9  0.9  0.0  2  0  30173874
[17]  B02 1f 40   -354.8 4092001.0  0.9  0.0  2  0  30173875
[18]  B03 1f 41   -322.1 4092000.8  1.0  0.0  2  0  30173877
[19]  B04 1f 38   -320.1 4092000.7  0.9  0.0  2  0  30173869
