FlashID=0x1 0x20 0x18
BBram_blkflag1: 361e: c9e1
FW Ver: 1.30  
GPS00 Init Dop:  -1200,  2
GPS01 Init Dop:  -5000, 41
GPS02 Init Dop:   2479,  2
GPS03 Init Dop:  -5000, 41
GPS04 Init Dop:  -5000, 41
GPS05 Init Dop:  -5000, 41
GPS06 Init Dop:  -2930,  2
GPS07 Init Dop:  -2303,  2
GPS08 Init Dop:  -5000, 41
GPS09 Init Dop:  -5000, 41
GPS10 Init Dop:  -1998,  2
GPS11 Init Dop:  -5000, 41
GPS12 Init Dop:   -785,  2
GPS13 Init Dop:  -5000, 41
GPS14 Init Dop:  -5000, 41
GPS15 Init Dop:  -5000, 41
GPS16 Init Dop:   1350,  2
GPS17 Init Dop:  -2675,  2
GPS18 Init Dop:   2547,  2
GPS19 Init Dop:  -5000, 41
GPS20 Init Dop:  -5000, 41
GPS21 Init Dop:   1311,  2
GPS22 Init Dop:  -5000, 41
GPS23 Init Dop:  -5000, 41
GPS24 Init Dop:  -5000, 41
GPS25 Init Dop:  -5000, 41
GPS26 Init Dop:  -5000, 41
GPS27 Init Dop:   1897,  2
GPS28 Init Dop:  -5000, 41
GPS29 Init Dop:  -1115,  2
GPS30 Init Dop:  -5000, 41
GPS31 Init Dop:  -5000, 41
BDS00 Init Dop:    155,  2
BDS01 Init Dop:    204,  2
BDS02 Init Dop:    174,  2
BDS03 Init Dop:    171,  2
BDS04 Init Dop:    211,  2
BDS05 Init Dop:  -5000, 41
BDS06 Init Dop:    147,  2
BDS07 Init Dop:    313,  2
BDS08 Init Dop:   -957,  2
BDS09 Init Dop:    525,  2
BDS10 Init Dop:   1092,  2
BDS11 Init Dop:  -2031,  2
BDS12 Init Dop:    828,  2
BDS13 Init Dop:  -5000, 41
BDS14 Init Dop:  -5000, 41
BDS15 Init Dop:  -5000, 41
BDS16 Init Dop:  -5000, 41
BDS17 Init Dop:  -5000, 41
BDS18 Init Dop:  -5000, 41
BDS19 Init Dop:  -5000, 41
BDS20 Init Dop:   2237,  2
BDS21 Init Dop:  -5000, 41
BDS22 Init Dop:  -5000, 41
BDS23 Init Dop:  -1749,  2
BDS24 Init Dop:   1392,  2
BDS25 Init Dop:  -3130,  2
BDS26 Init Dop:  -5000, 41
BDS27 Init Dop:  -5000, 41
BDS28 Init Dop:  -5000, 41
BDS29 Init Dop:  -5000, 41
BDS30 Init Dop:  -5000, 41
BDS31 Init Dop:  -5000, 41
---00000001--- Acq_st=3 2019-4-28 08:03:29 
[00]  G03  1  7  -2532.2 2046005.5 -0.1  0.0  1  0         0
$GNGGA,000000.000,,,,,0,00,,,M,,,,0000*2B
$GNRMC,000000.000,A,,,,,,,000000,,*26
$GPGSA,A,1,,,,,,,,,,,,,,,*1E
$BDGSA,A,1,,,,,,,,,,,,,,,*0F
$LOGTIM,0,0.000000,0.000000,0.000000,0.000000,0.000*0A
---00000002--- Acq_st=3 2019-4-28 08:03:30 
[00]  G03  7 26  -2610.4 2046003.4  0.2  0.0 20  0         0
[01]  G17  1  7  -1327.6 2046002.7  0.1  0.0  1  0         0
$GNGGA,000000.000,,,,,0,00,,,M,,,,0000*2B
$GNRMC,000000.000,A,,,,,,,000000,,*26
$GPGSA,A,1,,,,,,,,,,,,,,,*1E
$BDGSA,A,1,,,,,,,,,,,,,,,*0F
$GPGSV,1,1,01,03,00,000,26*4F
$LOGTIM,0,0.000000,0.000000,0.000000,0.000000,0.000*0A
---00000003--- Acq_st=3 2019-4-28 08:03:31 
[00]  G03  7 38  -2610.5 2046003.4  1.0  1.0  5  0         7
[01]  G17  1 23  -1482.2 2046003.2  0.1  0.0  1  0        15
[02]  G22  1  8  -1252.8 2046000.9  0.0  0.0  1  0         0
$GNGGA,000000.000,,,,,0,00,,,M,,,,0000*2B
$GNRMC,000000.000,A,,,,,,,000000,,*26
$GPGSA,A,1,,,,,,,,,,,,,,,*1E
$BDGSA,A,1,,,,,,,,,,,,,,,*0F
$GPGSV,1,1,01,03,00,000,38*40
$LOGTIM,0,0.000000,0.000000,0.000000,0.000000,0.000*0A
---00000004--- Acq_st=3 2019-4-28 08:03:32 
[00]  G03  7 38  -2605.9 2046003.4  1.0  1.0  5  0         7
[01]  G17  7 34  -1477.4 2046001.9  0.2  1.0  5  0        15
[02]  G22  1 16  -1244.6 2046001.2  0.1  0.0  1  0         2
[03]  G28  1  9  -1988.5 2046003.7 -0.0  0.0  1  0         0
[04]  G30  1  7   1218.0 2046002.3  0.0  0.0  1  0         0
[16]  B01  1 38   -252.0 4092000.7 -0.0  0.0  1  0         0
[17]  B02  1 10   -288.1 4092002.0  0.2  0.0  1  0         0
[18]  B03  1 39   -268.6 4092001.3  0.0  0.0  1  0         0
[19]  B04  1 10   -228.6 4092001.6  0.1  0.0  1  0         0
[20]  B05  1 10   -253.2 4092002.3  0.1  0.0  1  0         0
$GNGGA,000000.000,,,,,0,00,,,M,,,,0000*2B
$GNRMC,000000.000,A,,,,,,,000000,,*26
$GPGSA,A,1,,,,,,,,,,,,,,,*1E
$BDGSA,A,1,,,,,,,,,,,,,,,*0F
$GPGSV,1,1,02,03,00,000,38,17,00,000,34*72
$LOGTIM,0,0.000000,0.000000,0.000000,0.000000,0.000*0A
---00000005--- Acq_st=3 2019-4-28 08:03:33 
[00]  G03  7 38  -2603.0 2046003.3  1.0  0.9  5  0         7
[01]  G17  7 40  -1474.2 2046001.9  1.0  1.0  5  0        11
[02]  G22  1 13  -1075.5 2046001.5 -0.0  0.0  1  0         2
[03]  G28  7 30  -2021.1 2046002.5  0.5  1.0  5  0         9
[04]  G30  1 30    994.1 2045998.7  0.3  0.0  1  0        13
[16]  B01  f 10   -284.8 4092000.6  0.8  0.0  2  0       329
[17]  B02  7 10   -333.9 4092001.0  0.5  0.0  2  0       317
[18]  B03  9 42   -304.4 4092001.1  0.8  0.0  1  0       304
[19]  B04  1 19   -301.5 4092001.8  0.4  0.0  1  0       290
[20]  B05  1 18   -340.9 4092001.9  0.5  0.0  1  0       267
[21]  B07  1  7   -278.2 4092001.3  0.1  0.0  1  0         0
[22]  B08  1 24   -444.7 4092003.2  0.1  0.0  1  0         0
[23]  B10  1  7   -656.9 4092004.2 -0.1  0.0  1  0         0
[24]  B11  1  7  -1225.4 4092005.4  0.1  0.0  1  0         0
[25]  B13  1  7   -960.2 4092003.0  0.1  0.0  1  0         0
$GNGGA,000000.000,,,,,0,00,,,M,,,,0000*2B
$GNRMC,000000.000,A,,,,,,,000000,,*26
$GPGSA,A,1,,,,,,,,,,,,,,,*1E
$BDGSA,A,1,,,,,,,,,,,,,,,*0F
$GPGSV,1,1,03,03,00,000,38,17,00,000,40,28,00,000,30*49
$LOGTIM,0,0.000000,0.000000,0.000000,0.000000,0.000*0A
---00000006--- Acq_st=3 2019-4-28 08:03:34 
[00]  G03  7 38  -2599.8 2046003.4  1.0  1.0  5  0         7
[01]  G17  7 40  -1471.1 2046001.9  1.0  1.0  5  0        11
[03]  G28  7 42  -2018.2 2046002.6  1.0  1.0  5  0        14
[04]  G30  1 35    998.0 2045998.2  0.3  0.0  1  0        13
[16]  B01  f 40   -282.6 4092000.9  0.9  0.0  2  0  29018001
[17]  B02  7 39   -330.4 4092000.9  0.9  0.0  2  0      1316
[18]  B03  f 43   -301.2 4092000.7  1.0  0.0  2  0  29018004
[19]  B04  7 41   -298.5 4092000.6  0.9  0.0  2  0      1290
[20]  B05  7 37   -338.3 4092000.9  0.9  0.0  2  0      1267
[21]  B07  7 30   -275.1 4092000.7  0.5  1.0  5  0       918
[22]  B08  7 30   -441.7 4092001.1  0.8  1.0  5  0       906
[23]  B10  7 29   -652.3 4092001.6  0.5  1.0  5  0       869
[24]  B11  7 29  -1221.0 4092003.1  0.7  1.0  5  0       856
[25]  B13  7 28   -956.8 4092002.4  0.5  1.0 10  0       820
$GNGGA,000000.000,,,,,0,00,,,M,,,,0000*2B
$GNRMC,000000.000,A,,,,,,,000000,,*26
$GPGSA,A,1,,,,,,,,,,,,,,,*1E
$BDGSA,A,1,,,,,,,,,,,,,,,*0F
$GPGSV,1,1,03,03,00,000,38,17,00,000,40,28,00,000,42*4C
$BDGSV,3,1,10,01,00,000,40,02,00,000,39,03,00,000,43,04,00,000,41*63
$BDGSV,3,2,10,05,00,000,37,07,00,000,30,08,00,000,30,10,00,000,29*6C
$BDGSV,3,3,10,11,00,000,29,13,00,000,28*6A
$LOGTIM,0,0.000000,0.000000,0.000000,0.000000,0.000*0A
---00000007--- Acq_st=3 2019-4-28 08:03:35 
[00]  G03  7 38  -2601.0 2046003.4  1.0  1.0  5  0         7
[01]  G17  7 40  -1471.9 2046001.9  1.0  1.0  5  0        11
[03]  G28  7 42  -2019.1 2046002.6  1.0  1.0  5  0        14
[04]  G30  7 27    997.5 2045998.7  0.4  0.0 20  0        13
[16]  B01  f 41   -284.0 4092000.8  0.9  0.0  2  0  29019001
[17]  B02  f 39   -332.1 4092000.8  0.9  0.0  2  0       602
[18]  B03  f 42   -302.4 4092000.9  1.0  0.0  2  0  29019004
[19]  B04  f 40   -299.3 4092000.7  0.9  0.0  2  0       595
[20]  B05  f 37   -338.7 4092000.9  0.9  0.0  2  0       596
[21]  B07  7 42   -276.1 4092000.7  1.0  1.0  5  0      1905
[22]  B08  7 43   -442.5 4092001.1  1.0  1.0  5  0      1906
[23]  B10  7 43   -653.7 4092001.6  1.0  1.0  5  0      1866
[24]  B11  7 43  -1222.2 4092003.2  1.0  1.0  5  0      1850
[25]  B13  7 43   -957.3 4092002.5  1.0  1.0  5  0      1803
[26]  B21  1  7  -2308.2 4092005.3  0.2  0.0  1  0         0
$GNGGA,000000.000,,,,,0,00,,,M,,,,0000*2B
$GNRMC,000000.000,A,,,,,,,000000,,*26
$GPGSA,A,1,,,,,,,,,,,,,,,*1E
$BDGSA,A,1,,,,,,,,,,,,,,,*0F
$GPGSV,1,1,04,03,00,000,38,17,00,000,40,28,00,000,42,30,00,000,27*7D
$BDGSV,3,1,10,01,00,000,41,02,00,000,39,03,00,000,42,04,00,000,40*62
$BDGSV,3,2,10,05,00,000,37,07,00,000,42,08,00,000,43,10,00,000,43*61
$BDGSV,3,3,10,11,00,000,43,13,00,000,43*6B
$LOGTIM,0,0.000000,0.000000,0.000000,0.000000,0.000*0A
---00000008--- Acq_st=3 2019-4-28 08:03:36 
[00]  G03  7 38  -2603.1 2046003.4  1.0  1.0  5  0         7
[01]  G17  7 40  -1473.7 2046001.9  1.0  1.0  5  0        11
[03]  G28  7 42  -2021.3 2046002.6  1.0  1.0  5  0        14
[04]  G30  7 43    996.1 2045998.7  0.9  1.0  5  0        17
[16]  B01 1f 40   -285.4 4092000.7  0.9  0.0  2  0  29020001
[17]  B02 1f 37   -333.0 4092000.9  0.9  0.0  2  0  29020002
[18]  B03 1f 41   -304.0 4092000.8  1.0  0.0  2  0  29020004
[19]  B04 1f 40   -301.0 4092000.8  0.9  0.0  2  0  29019995
[20]  B05 1f 36   -340.6 4092000.8  0.9  0.0  2  0  29019996
[21]  B07  7 42   -277.5 4092000.7  1.0  1.0  5  0      2905
[22]  B08  7 43   -443.8 4092001.1  1.0  1.0  5  0      2906
[23]  B10  7 43   -655.2 4092001.7  1.0  1.0  5  0      2866
[24]  B11  7 43  -1223.7 4092003.2  1.0  1.0  5  0      2850
[25]  B13  7 42   -958.7 4092002.5  1.0  1.0  5  0      2803
[26]  B21  1  8  -2152.2 4092005.6  0.0  0.0  1  0       450
[27]  B24  1  7   2294.3 4091995.3  0.0  0.0  1  0         0
[28]  B25  1  7  -1523.5 4092005.3 -0.1  0.0  1  0         0
[29]  B26  1  7   3179.5 4091991.8 -0.0  0.0  1  0         0
$GNGGA,080336.526,2947.7408,N,10632.9834,E,1,05,87.3,3111.2,M,,,,0000*14
$GNRMC,080336.526,A,2947.7408,N,10632.9834,E,10.87,0.00,280419,,*29
$GPGSA,A,3,,,,,,,,,,,,,99.6,87.3,48.0*04
$BDGSA,A,3,01,02,03,04,05,,,,,,,,99.6,87.3,48.0*14
$GPGSV,1,1,04,03,00,000,38,17,00,000,40,28,00,000,42,30,00,000,43*7F
$BDGSV,3,1,10,01,00,000,40,02,00,000,37,03,00,000,41,04,00,000,40*6E
$BDGSV,3,2,10,05,00,000,36,07,00,000,42,08,00,000,43,10,00,000,43*60
$BDGSV,3,3,10,11,00,000,43,13,00,000,42*6A
$LOGTIM,2,0.000000,172297430.811313,0.000000,0.000000,-57.598*15
---00000009--- Acq_st=3 2019-4-28 08:03:37 
[00]  G03  f 38  -2603.8 2046003.4  1.0  1.0  5  0         7
[01]  G17  f 41  -1474.8 2046001.9  1.0  1.0  5  0        11
[03]  G28  f 42  -2022.4 2046002.6  1.0  1.0  5  0        14
[04]  G30  f 43    995.4 2045998.7  1.0  1.0  5  0        17
[16]  B01 1f 39   -287.5 4092000.8  0.9  0.0  2  0  29020401
[17]  B02 1f 38   -335.9 4092000.7  0.9  0.0  2  0  29020402
[18]  B03 1f 41   -305.9 4092000.8  0.9  0.0  2  0  29020404
[19]  B04 1f 39   -303.3 4092000.9  0.9  0.0  2  0  29020395
[20]  B05 1f 36   -343.3 4092000.7  0.9  0.0  2  0  29020396
[21]  B07  7 42   -279.4 4092000.7  1.0  1.0  5  0      3905
[22]  B08  7 43   -445.9 4092001.1  1.0  1.0  5  0      3906
[23]  B10  7 43   -657.4 4092001.7  1.0  1.0  5  0      3866
[24]  B11  7 43  -1225.3 4092003.2  1.0  1.0  5  0      3850
[25]  B13  7 42   -960.9 4092002.5  1.0  1.0  5  0      3803
[26]  B21  1  7  -2126.6 4092005.3 -0.2  0.0  1  0      1450
[27]  B24  1  7   2220.3 4091995.3  0.0  0.0  1  0       767
[28]  B25  7 27  -1526.0 4092003.9  0.2  0.0 10  0       754
[29]  B26  1  7   3127.1 4091991.7 -0.0  0.0  1  0       730
$GNGGA,080338.000,2946.4575,N,10633.0504,E,1,05,87.3,1921.9,M,,,,0000*16
$GNRMC,080338.000,A,2946.4575,N,10633.0504,E,3.60,0.00,280419,,*12
$GPGSA,A,3,,,,,,,,,,,,,99.6,87.3,47.9*02
$BDGSA,A,3,01,02,03,04,05,,,,,,,,99.6,87.3,47.9*12
$GPGSV,1,1,04,03,00,000,38,17,00,000,41,28,00,000,42,30,00,000,43*7E
$BDGSV,3,1,11,01,00,000,39,02,00,000,38,03,00,000,41,04,00,000,39*60
$BDGSV,3,2,11,05,00,000,36,07,00,000,42,08,00,000,43,10,00,000,43*61
$BDGSV,3,3,11,11,00,000,43,13,00,000,42,25,00,000,27*59
$LOGTIM,2,0.000000,259.102146,0.000000,0.000000,-58.086*18
---00000010--- Acq_st=7 2019-4-28 08:03:38 
[00]  G03  f 38  -2608.0 2046003.3  1.0  1.0  5  0  29035921
[01]  G17  f 40  -1479.0 2046001.9  1.0  1.0  5  0  29035925
[03]  G28  f 42  -2026.4 2046002.6  1.0  1.0  5  0  29035928
[04]  G30  f 43    991.9 2045998.7  1.0  1.0  5  0  29035930
[16]  B01 1f 41   -291.3 4092000.8  0.9  0.0  2  0  29021874
[17]  B02 1f 39   -339.1 4092000.9  0.9  0.0  2  0  29021875
[18]  B03 1f 41   -309.8 4092000.8  0.9  0.0  2  0  29021877
[19]  B04 1f 40   -307.5 4092000.8  0.9  0.0  2  0  29021869
[20]  B05 1f 35   -347.2 4092000.9  0.9  0.0  2  0  29021870
[21]  B07  7 42   -282.8 4092000.7  1.0  1.0  5  0      5379
[22]  B08  7 43   -449.6 4092001.2  1.0  1.0  5  0      5380
[23]  B10  7 43   -660.9 4092001.7  1.0  1.0  5  0      5339
[24]  B11  7 43  -1229.0 4092003.2  1.0  1.0  5  0      5324
[25]  B13  7 43   -964.3 4092002.5  1.0  1.0  5  0      5276
[27]  B24  1  7   1952.8 4091994.5 -0.2  0.0  1  0      2240
[28]  B25  7 45  -1529.1 4092004.0  0.9  1.0  5  0      2225
[29]  B26  1  7   3132.5 4091992.0 -0.0  0.0  1  0      2203
$GNGGA,080339.000,2946.4821,N,10633.0493,E,1,05,87.3,1947.4,M,,,,0000*19
$GNRMC,080339.000,A,2946.4821,N,10633.0493,E,1.43,0.00,280419,,*13
$GPGSA,A,3,,,,,,,,,,,,,99.6,87.3,47.9*02
$BDGSA,A,3,01,02,03,04,05,,,,,,,,99.6,87.3,47.9*12
$GPGSV,3,1,12,03,20,123,38,17,38,278,40,28,51,335,42,30,59,225,43*76
$GPGSV,3,2,12,01,60,056,00,07,36,180,00,08,13,060,00,11,48,041,00*71
$GPGSV,3,3,12,13,05,286,00,18,34,044,00,19,18,261,00,22,23,099,00*7A
$BDGSV,3,1,12,01,40,125,41,02,46,219,39,03,55,171,41,04,23,109,40*67
$BDGSV,3,2,12,05,27,244,35,07,65,107,42,08,85,185,43,10,80,010,43*6B
$BDGSV,3,3,12,11,51,269,43,13,57,212,43,25,56,301,45,09,01,198,00*6C
$LOGTIM,2,0.000000,196.035102,0.000000,0.000000,-58.423*16
---00000011--- Acq_st=3 2019-4-28 08:03:39 
[00]  G03  f 38  -2610.0 2046003.4  1.0  1.0  5  0  29036921
[01]  G17  f 41  -1480.8 2046001.9  1.0  1.0  5  0  29036925
[02]  G01  1 24   1065.9 2045998.9 -0.1  0.0  1  0         0
[03]  G28  f 42  -2028.6 2046002.6  1.0  1.0  5  0  29036928
[04]  G30  f 43    990.1 2045998.7  1.0  1.0  5  0  29036930
[05]  G07  1  7   3313.7 2045997.8 -0.0  0.0  1  0         0
[16]  B01 1f 40   -294.0 4092000.8  0.9  0.0  2  0  29022874
[17]  B02 1f 37   -341.0 4092000.8  0.9  0.0  2  0  29022875
[18]  B03 1f 41   -312.5 4092000.9  1.0  0.0  2  0  29022877
[19]  B04 1f 39   -309.7 4092000.7  0.9  0.0  2  0  29022869
[20]  B05 1f 36   -349.1 4092001.0  0.9  0.0  2  0  29022870
[21]  B07 1f 42   -285.3 4092000.7  1.0  1.0  5  0      6379
[22]  B08 1f 43   -451.9 4092001.2  1.0  1.0  5  0      6380
[23]  B10 1f 43   -663.0 4092001.7  1.0  1.0  5  0      6339
[24]  B11 1f 43  -1231.0 4092003.2  1.0  1.0  5  0      6324
[25]  B13 1f 43   -967.0 4092002.5  1.0  1.0  5  0      6276
[28]  B25 1f 45  -1531.0 4092004.0  1.0  1.0  5  0      3225
$GNGGA,080340.000,2944.9347,N,10633.0943,E,1,11,1.4,330.1,M,,,,0000*11
$GNRMC,080340.000,A,2944.9347,N,10633.0943,E,0.05,0.00,280419,,*1A
$GPGSA,A,3,,,,,,,,,,,,,2.3,1.4,1.8*3F
$BDGSA,A,3,01,02,03,04,05,07,08,10,11,13,25,,2.3,1.4,1.8*24
$GPGSV,3,1,12,03,20,123,38,17,38,278,41,28,51,335,42,30,59,225,43*77
$GPGSV,3,2,12,01,60,056,00,07,36,180,00,08,13,060,00,11,48,041,00*71
$GPGSV,3,3,12,13,05,286,00,18,34,044,00,19,18,261,00,22,23,099,00*7A
$BDGSV,3,1,12,01,40,125,40,02,46,219,37,03,55,171,41,04,23,109,39*66
$BDGSV,3,2,12,05,27,244,36,07,65,107,42,08,85,185,43,10,80,010,43*68
$BDGSV,3,3,12,11,51,269,43,13,57,212,43,25,56,301,45,09,01,198,00*6C
$LOGTIM,2,0.000000,429.567784,0.000000,0.000000,-58.793*15
---00000012--- Acq_st=3 2019-4-28 08:03:40 
[00]  G03  f 38  -2611.5 2046003.4  1.0  1.0  5  0  29037921
[01]  G17  f 41  -1483.0 2046001.9  1.0  1.0  5  0  29037925
[02]  G01  7 29   1073.5 2045998.5  0.4  1.0 10  0        11
[03]  G28  f 42  -2030.8 2046002.6  1.0  1.0  5  0  29037928
[04]  G30  f 43    988.6 2045998.7  1.0  1.0  5  0  29037930
[05]  G07  1 26   2809.3 2045996.3  0.1  0.0  1  0        17
[06]  G11  1  7   1910.2 2045997.8  0.2  0.0  1  0         0
[16]  B01 1f 40   -296.3 4092000.8  0.9  0.0  2  0  29023874
[17]  B02 1f 38   -344.2 4092000.9  0.9  0.0  2  0  29023875
[18]  B03 1f 42   -314.4 4092000.8  1.0  0.0  2  0  29023877
[19]  B04 1f 40   -311.9 4092000.8  0.9  0.0  2  0  29023869
[20]  B05 1f 36   -351.8 4092001.0  0.9  0.0  2  0  29023870
[21]  B07 1f 42   -287.8 4092000.7  1.0  1.0  5  0  29023879
[22]  B08 1f 43   -453.9 4092001.2  1.0  1.0  5  0  29023880
[23]  B10 1f 43   -665.2 4092001.7  1.0  1.0  5  0  29023879
[24]  B11 1f 43  -1232.7 4092003.2  1.0  1.0  5  0  29023924
[25]  B13 1f 43   -968.9 4092002.5  1.0  1.0  5  0  29023876
[28]  B25 1f 45  -1532.8 4092004.0  1.0  1.0  5  0  29023925
$GNGGA,080341.000,2944.9130,N,10633.0947,E,1,11,1.4,348.7,M,,,,0000*1F
$GNRMC,080341.000,A,2944.9130,N,10633.0947,E,0.22,0.00,280419,,*18
$GPGSA,A,3,,,,,,,,,,,,,2.3,1.4,1.8*3F
$BDGSA,A,3,01,02,03,04,05,07,08,10,11,13,25,,2.3,1.4,1.8*24
$GPGSV,3,1,12,03,20,123,38,17,38,278,41,01,60,056,29,28,51,335,42*75
$GPGSV,3,2,12,30,59,225,43,07,36,180,00,08,13,060,00,11,48,041,00*78
$GPGSV,3,3,12,13,05,286,00,18,34,044,00,19,18,261,00,22,23,099,00*7A
$BDGSV,3,1,12,01,40,125,40,02,46,219,38,03,55,171,43,04,23,109,40*65
$BDGSV,3,2,12,05,27,244,36,07,65,107,42,08,85,185,43,10,80,010,43*68
$BDGSV,3,3,12,11,51,269,43,13,57,212,43,25,56,301,45,09,01,198,00*6C
$LOGTIM,2,0.000000,379.472823,0.000000,0.000000,-59.015*18
---00000013--- Acq_st=3 2019-4-28 08:03:41 
[00]  G03  f 38  -2613.1 2046003.4  1.0  1.0  5  0  29038921
[01]  G17  f 41  -1484.1 2046001.9  1.0  1.0  5  0  29038925
[02]  G01  7 44   1073.1 2045998.6  1.0  1.0  5  0        11
[03]  G28  f 42  -2032.4 2046002.6  1.0  1.0  5  0  29038928
[04]  G30  f 43    987.4 2045998.7  1.0  1.0  5  0  29038930
[05]  G07  7 33   2798.8 2045996.3  0.7  1.0  5  0         6
[06]  G11  7 19   1867.1 2045997.5  0.3  0.0 20  0         5
[07]  G18  1 22   2524.0 2045996.9  0.1  0.0  1  0        13
[16]  B01 1f 39   -297.9 4092000.8  1.0  0.0  2  0  29024874
[17]  B02 1f 36   -345.5 4092000.8  0.9  0.0  2  0  29024875
[18]  B03 1f 42   -315.7 4092000.9  1.0  0.0  2  0  29024877
[19]  B04 1f 40   -313.1 4092000.8  0.9  0.0  2  0  29024869
[20]  B05 1f 36   -352.6 4092000.8  0.9  0.0  2  0  29024870
[21]  B07 1f 42   -289.0 4092000.8  1.0  1.0  5  0  29024879
[22]  B08 1f 43   -455.1 4092001.2  1.0  1.0  5  0  29024880
[23]  B10 1f 43   -666.8 4092001.7  1.0  1.0  5  0  29024879
[24]  B11 1f 43  -1234.1 4092003.2  1.0  1.0  5  0  29024924
[25]  B13 1f 42   -970.4 4092002.5  1.0  1.0  5  0  29024876
[28]  B25 1f 45  -1533.7 4092004.0  1.0  1.0  5  0  29024925
$GNGGA,080342.000,2944.9130,N,10633.0930,E,1,10,1.4,336.0,M,,,,0000*13
$GNRMC,080342.000,A,2944.9130,N,10633.0930,E,0.12,0.00,280419,,*18
$GPGSA,A,3,,,,,,,,,,,,,2.3,1.4,1.8*3F
$BDGSA,A,3,01,02,03,04,05,07,08,10,13,25,,,2.3,1.4,1.8*24
$GPGSV,3,1,12,03,20,123,38,17,38,278,41,01,60,056,44,28,51,335,42*7E
$GPGSV,3,2,12,30,59,225,43,07,36,180,33,11,48,041,19,08,13,060,00*70
$GPGSV,3,3,12,13,05,286,00,18,34,044,00,19,18,261,00,22,23,099,00*7A
$BDGSV,3,1,12,01,40,125,39,02,46,219,36,03,55,171,42,04,23,109,40*64
$BDGSV,3,2,12,05,27,244,36,07,65,107,42,08,85,185,43,10,80,010,43*68
$BDGSV,3,3,12,11,51,269,43,13,57,213,42,25,56,301,45,09,01,198,00*6C
$LOGTIM,2,0.000000,314.371360,0.000000,0.000000,-59.479*15
---00000014--- Acq_st=3 2019-4-28 08:03:42 
[00]  G03  f 38  -2613.4 2046003.4  1.0  1.0  5  0  29039921
[01]  G17  f 41  -1484.3 2046001.9  1.0  1.0  5  0  29039925
[02]  G01  7 44   1073.3 2045998.6  1.0  1.0  5  0        11
[03]  G28  f 42  -2032.2 2046002.7  1.0  1.0  5  0  29039928
[04]  G30  f 43    987.8 2045998.7  1.0  1.0  5  0  29039930
[05]  G07  7 43   2798.9 2045996.3  1.0  1.0  5  0         6
[06]  G11  7 43   1867.7 2045997.5  0.9  1.0  5  0         9
[07]  G18  7 22   2544.1 2045996.7  0.2  0.0 20  0        13
[08]  G22  1  7  -1502.3 2046003.4  0.1  0.0  1  0         1
[09]  G24  1  7   1902.2 2045997.8  0.2  0.0  1  0         2
[16]  B01 1f 40   -297.9 4092000.7  1.0  0.0  2  0  29025874
[17]  B02 1f 38   -345.5 4092000.9  0.9  0.0  2  0  29025875
[18]  B03 1f 42   -316.0 4092000.9  1.0  0.0  2  0  29025877
[19]  B04 1f 39   -313.7 4092000.7  0.9  0.0  2  0  29025869
[20]  B05 1f 35   -353.2 4092000.9  0.9  0.0  2  0  29025870
[21]  B07 1f 42   -288.8 4092000.7  1.0  1.0  5  0  29025879
[22]  B08 1f 43   -455.3 4092001.2  1.0  1.0  5  0  29025880
[23]  B10 1f 43   -666.9 4092001.7  1.0  1.0  5  0  29025879
[24]  B11 1f 43  -1233.8 4092003.2  1.0  1.0  5  0  29025924
[25]  B13 1f 42   -970.4 4092002.5  1.0  1.0  5  0  29025876
[28]  B25 1f 45  -1533.4 4092004.0  1.0  1.0  5  0  29025925
$GNGGA,080343.000,2944.9126,N,10633.0920,E,1,11,1.4,327.6,M,,,,0000*13
$GNRMC,080343.000,A,2944.9126,N,10633.0920,E,0.10,0.00,280419,,*1D
$GPGSA,A,3,,,,,,,,,,,,,2.3,1.4,1.8*3F
$BDGSA,A,3,01,02,03,04,05,07,08,10,11,13,25,,2.3,1.4,1.8*24
$GPGSV,3,1,12,03,20,123,38,17,38,278,41,01,60,056,44,28,51,335,42*7E
$GPGSV,3,2,12,30,59,225,43,07,36,180,43,11,48,041,43,18,34,044,22*7A
$GPGSV,3,3,12,08,13,060,00,13,05,286,00,19,18,261,00,22,23,099,00*78
$BDGSV,3,1,12,01,40,125,40,02,46,219,38,03,55,171,42,04,23,109,39*6A
$BDGSV,3,2,12,05,27,244,35,07,65,107,42,08,85,185,43,10,80,010,43*6B
$BDGSV,3,3,12,11,51,269,43,13,57,213,42,25,56,301,45,09,01,198,00*6C
$LOGTIM,2,0.000000,249.832510,0.000000,0.000000,-59.169*15
---00000015--- Acq_st=3 2019-4-28 08:03:43 
[00]  G03  f 39  -2609.1 2046003.4  1.0  1.0  5  0  29040921
[01]  G17  f 41  -1480.4 2046001.9  1.0  1.0  5  0  29040925
[02]  G01  f 44   1077.8 2045998.6  1.0  1.0  5  0        11
[03]  G28  f 42  -2028.7 2046002.6  1.0  1.0  5  0  29040928
[04]  G30  f 43    992.3 2045998.7  1.0  1.0  5  0  29040930
[05]  G07  f 43   2803.0 2045996.3  1.0  1.0  5  0         6
[06]  G11  f 44   1871.3 2045997.6  1.0  1.0  5  0         9
[07]  G18  7 41   2548.9 2045996.7  0.5  1.0  5  0         6
[08]  G22  1 30  -1437.7 2046002.9  0.4  0.0  1  0         1
[09]  G24  1 15   1786.8 2045997.8 -0.0  0.0  1  0         2
[16]  B01 1f 40   -293.5 4092000.8  0.9  0.0  2  0  29026874
[17]  B02 1f 37   -341.9 4092000.9  0.9  0.0  2  0  29026875
[18]  B03 1f 42   -312.1 4092000.7  1.0  0.0  2  0  29026877
[19]  B04 1f 39   -309.2 4092000.9  0.9  0.0  2  0  29026869
[20]  B05 1f 36   -348.8 4092000.9  0.9  0.0  2  0  29026870
[21]  B07 1f 42   -285.0 4092000.8  1.0  1.0  5  0  29026879
[22]  B08 1f 43   -451.3 4092001.2  1.0  1.0  5  0  29026880
[23]  B10 1f 43   -663.1 4092001.7  1.0  1.0  5  0  29026879
[24]  B11 1f 43  -1229.7 4092003.2  1.0  1.0  5  0  29026924
[25]  B13 1f 42   -966.4 4092002.5  1.0  1.0  5  0  29026876
[28]  B25 1f 45  -1529.1 4092004.0  1.0  1.0  5  0  29026925
$GNGGA,080344.000,2944.9161,N,10633.0934,E,1,11,1.4,332.4,M,,,,0000*14
$GNRMC,080344.000,A,2944.9161,N,10633.0934,E,0.33,0.00,280419,,*1D
$GPGSA,A,3,,,,,,,,,,,,,2.3,1.4,1.8*3F
$BDGSA,A,3,01,02,03,04,05,07,08,10,11,13,25,,2.3,1.4,1.8*24
$GPGSV,3,1,12,03,20,123,39,17,38,278,41,01,60,056,44,28,51,335,42*7F
$GPGSV,3,2,12,30,59,225,43,07,36,180,43,11,48,041,44,18,34,044,41*78
$GPGSV,3,3,12,08,13,060,00,13,05,286,00,19,18,261,00,22,23,099,00*78
$BDGSV,3,1,12,01,40,125,40,02,46,219,37,03,55,171,42,04,23,109,39*65
$BDGSV,3,2,12,05,27,244,36,07,65,107,42,08,85,185,43,10,80,010,43*68
$BDGSV,3,3,12,11,51,269,43,13,57,213,42,25,56,301,45,09,01,198,00*6C
$LOGTIM,2,0.000000,190.740331,0.000000,0.000000,-58.954*1A
---00000016--- Acq_st=3 2019-4-28 08:03:44 
[00]  G03  f 39  -2609.6 2046003.4  1.0  1.0  5  0  29041921
[01]  G17  f 40  -1480.6 2046001.9  1.0  1.0  5  0  29041925
[02]  G01  f 44   1078.3 2045998.6  1.0  1.0  5  0  29041931
[03]  G28  f 42  -2028.4 2046002.6  1.0  1.0  5  0  29041928
[04]  G30  f 44    992.7 2045998.7  1.0  1.0  5  0  29041930
[05]  G07  f 43   2803.1 2045996.3  1.0  1.0  5  0  29041926
[06]  G11  f 43   1871.8 2045997.6  1.0  1.0  5  0  29041929
[07]  G18  7 41   2548.9 2045996.7  1.0  1.0  5  0         6
[08]  G22  7 31  -1438.4 2046001.7  0.7  1.0  5  0         1
[09]  G24  1 17   1877.4 2045997.6  0.1  0.0  1  0         2
[16]  B01 1f 40   -293.8 4092000.7  0.9  0.0  2  0  29027874
[17]  B02 1f 40   -341.9 4092000.9  0.9  0.0  2  0  29027875
[18]  B03 1f 43   -312.3 4092000.8  1.0  0.0  2  0  29027877
[19]  B04 1f 41   -309.7 4092000.9  0.9  0.0  2  0  29027869
[20]  B05 1f 36   -348.9 4092001.0  0.9  0.0  2  0  29027870
[21]  B07 1f 42   -285.2 4092000.7  1.0  1.0  5  0  29027879
[22]  B08 1f 43   -451.3 4092001.1  1.0  1.0  5  0  29027880
[23]  B10 1f 43   -663.0 4092001.7  1.0  1.0  5  0  29027879
[24]  B11 1f 43  -1229.4 4092003.2  1.0  1.0  5  0  29027924
[25]  B13 1f 42   -966.8 4092002.5  1.0  1.0  5  0  29027876
[26]  B12  1  7   1894.0 4091995.0  0.0  0.0  1  0       195
[28]  B25 1f 45  -1528.7 4092004.0  1.0  1.0  5  0  29027925
$GNGGA,080345.000,2944.9184,N,10633.0941,E,1,11,1.4,334.8,M,,,,0000*16
$GNRMC,080345.000,A,2944.9184,N,10633.0941,E,0.46,0.00,280419,,*17
$GPGSA,A,3,,,,,,,,,,,,,2.3,1.4,1.8*3F
$BDGSA,A,3,01,02,03,04,05,07,08,10,11,13,25,,2.3,1.4,1.8*24
$GPGSV,3,1,12,03,20,123,39,17,38,278,40,01,60,056,44,28,51,335,42*7E
$GPGSV,3,2,12,30,59,225,44,07,36,180,43,11,48,041,43,18,34,044,41*78
$GPGSV,3,3,12,22,23,099,31,08,13,060,00,13,05,286,00,19,18,261,00*7A
$BDGSV,3,1,12,01,40,125,40,02,46,219,40,03,55,171,43,04,23,109,41*6B
$BDGSV,3,2,12,05,27,244,36,07,65,107,42,08,85,185,43,10,80,010,43*68
$BDGSV,3,3,12,11,51,269,43,13,57,213,42,25,56,301,45,09,01,198,00*6C
$LOGTIM,2,0.000000,131.926932,0.000000,0.000000,-58.549*16
---00000017--- Acq_st=3 2019-4-28 08:03:45 
[00]  G03  f 39  -2602.4 2046003.4  1.0  1.0  5  0  29042921
[01]  G17  f 41  -1473.3 2046001.9  1.0  1.0  5  0  29042925
[02]  G01  f 44   1085.6 2045998.6  1.0  1.0  5  0  29042931
[03]  G28  f 42  -2021.7 2046002.6  1.0  1.0  5  0  29042928
[04]  G30  f 44   1000.1 2045998.7  1.0  1.0  5  0  29042930
[05]  G07  f 43   2810.4 2045996.3  1.0  1.0  5  0  29042926
[06]  G11  f 43   1878.7 2045997.5  1.0  1.0  5  0  29042929
[07]  G18  7 42   2556.0 2045996.7  1.0  1.0  5  0         6
[08]  G22  7 39  -1430.6 2046001.8  1.0  1.0  5  0         1
[16]  B01 1f 39   -287.2 4092000.8  0.9  0.0  2  0  29028874
[17]  B02 1f 40   -335.5 4092000.9  0.9  0.0  2  0  29028875
[18]  B03 1f 42   -305.6 4092000.8  1.0  0.0  2  0  29028877
[19]  B04 1f 38   -303.0 4092000.8  0.9  0.0  2  0  29028869
[20]  B05 1f 36   -343.1 4092000.8  0.9  0.0  2  0  29028870
[21]  B07 1f 42   -278.3 4092000.7  1.0  1.0  5  0  29028879
[22]  B08 1f 43   -444.4 4092001.2  1.0  1.0  5  0  29028880
[23]  B10 1f 43   -656.1 4092001.7  1.0  1.0  5  0  29028879
[24]  B11 1f 43  -1222.6 4092003.2  1.0  1.0  5  0  29028924
[25]  B13 1f 43   -959.5 4092002.5  1.0  1.0  5  0  29028876
[26]  B12  7 26   1897.2 4091995.0  0.2  0.0 20  0      1195
[28]  B25 1f 45  -1521.6 4092004.0  1.0  1.0  5  0  29028925
$GNGGA,080346.000,2944.9200,N,10633.0943,E,1,10,1.4,336.1,M,,,,0000*12
$GNRMC,080346.000,A,2944.9200,N,10633.0943,E,0.79,0.00,280419,,*15
$GPGSA,A,3,,,,,,,,,,,,,2.3,1.4,1.8*3F
$BDGSA,A,3,01,02,03,04,05,07,08,10,13,25,,,2.3,1.4,1.8*24
$GPGSV,3,1,12,03,20,123,39,17,38,278,41,01,60,056,44,28,51,335,42*7F
$GPGSV,3,2,12,30,59,225,44,07,36,180,43,11,48,041,43,18,34,044,42*7B
$GPGSV,3,3,12,22,23,099,39,08,13,060,00,13,05,286,00,19,18,261,00*72
$BDGSV,3,1,12,01,40,125,39,02,46,219,40,03,55,171,42,04,23,109,38*6A
$BDGSV,3,2,12,05,27,244,36,07,65,107,42,08,85,185,43,10,80,010,43*68
$BDGSV,3,3,12,11,51,269,43,13,57,213,43,12,34,039,26,25,56,301,45*6F
$LOGTIM,2,0.000000,73.944141,0.000000,0.000000,-57.313*2F
---00000018--- Acq_st=3 2019-4-28 08:03:46 
[00]  G03  f 39  -2596.2 2046003.3  1.0  0.9  5  0  29043921
[01]  G17  f 40  -1466.9 2046001.9  1.0  0.9  5  0  29043925
[02]  G01  f 44   1092.2 2045998.6  1.0  1.0  5  0  29043931
[03]  G28  f 42  -2015.7 2046002.6  1.0  1.0  5  0  29043928
[04]  G30  f 44   1006.7 2045998.7  1.0  1.0  5  0  29043930
[05]  G07  f 43   2816.6 2045996.3  1.0  1.0  5  0  29043926
[06]  G11  f 43   1885.0 2045997.5  1.0  1.0  5  0  29043929
[07]  G18  7 41   2562.4 2045996.7  1.0  1.0  5  0         6
[08]  G22  7 39  -1424.0 2046001.8  1.0  1.0  5  0         1
[16]  B01 1f 39   -281.1 4092000.8  0.9  0.0  2  0  29029874
[17]  B02 1f 39   -329.4 4092001.1  0.9  0.0  2  0  29029875
[18]  B03 1f 41   -299.8 4092000.7  1.0  0.0  2  0  29029877
[19]  B04 1f 39   -297.2 4092000.9  0.9  0.0  2  0  29029869
[20]  B05 1f 36   -336.2 4092001.0  0.9  0.0  2  0  29029870
[21]  B07 1f 42   -272.3 4092000.7  1.0  1.0  5  0  29029879
[22]  B08 1f 43   -438.3 4092001.1  1.0  1.0  5  0  29029880
[23]  B10 1f 43   -650.6 4092001.7  1.0  1.0  5  0  29029879
[24]  B11 1f 43  -1216.4 4092003.2  1.0  1.0  5  0  29029924
[25]  B13 1f 43   -953.2 4092002.5  1.0  1.0  5  0  29029876
[26]  B12  7 39   1905.9 4091995.0  0.7  1.0  5  0      2181
[27]  B21  1  7    -11.1 4092005.0  0.0  0.0  1  0      3240
[28]  B25 1f 45  -1515.0 4092004.0  1.0  1.0  5  0  29029925
$GNGGA,080347.000,2944.9194,N,10633.0971,E,1,09,1.5,338.7,M,,,,0000*1D
$GNRMC,080347.000,A,2944.9194,N,10633.0971,E,0.60,0.00,280419,,*13
$GPGSA,A,3,,,,,,,,,,,,,2.4,1.5,1.9*38
$BDGSA,A,3,02,03,04,05,07,08,11,13,25,,,,2.4,1.5,1.9*23
$GPGSV,3,1,12,03,20,123,39,17,38,278,40,01,60,056,44,28,51,335,42*7E
$GPGSV,3,2,12,30,59,225,44,07,36,180,43,11,48,041,43,18,34,044,41*78
$GPGSV,3,3,12,22,23,099,39,08,13,060,00,13,05,286,00,19,18,261,00*72
$BDGSV,3,1,12,01,40,125,39,02,46,219,39,03,55,171,41,04,23,109,39*66
$BDGSV,3,2,12,05,27,244,36,07,65,107,42,08,85,185,43,10,80,010,43*68
$BDGSV,3,3,12,11,51,269,43,13,57,213,43,12,34,039,39,25,56,301,45*61
$LOGTIM,2,0.000000,17.735291,0.000000,0.000000,-56.708*24
---00000019--- Acq_st=3 2019-4-28 08:03:47 
[00]  G03  f 39  -2596.9 2046003.4  1.0  0.9  5  0  29044921
[01]  G17  f 40  -1467.8 2046001.9  1.0  1.0  5  0  29044925
[02]  G01  f 44   1091.9 2045998.6  1.0  1.0  5  0  29044931
[03]  G28  f 42  -2016.6 2046002.6  1.0  1.0  5  0  29044928
[04]  G30  f 43   1006.4 2045998.7  1.0  1.0  5  0  29044930
[05]  G07  f 43   2816.1 2045996.4  1.0  1.0  5  0  29044926
[06]  G11  f 42   1884.8 2045997.5  1.0  1.0  5  0  29044929
[07]  G18  7 40   2562.2 2045996.7  1.0  1.0  5  0         6
[08]  G22  7 38  -1424.4 2046001.8  1.0  1.0  5  0         1
[16]  B01 1f 40   -281.9 4092000.7  1.0  0.0  2  0  29030874
[17]  B02 1f 37   -330.2 4092000.9  0.9  0.0  2  0  29030875
[18]  B03 1f 42   -300.7 4092000.7  1.0  0.0  2  0  29030877
[19]  B04 1f 40   -298.0 4092000.6  1.0  0.0  2  0  29030869
[20]  B05 1f 36   -337.2 4092000.8  0.9  0.0  2  0  29030870
[21]  B07 1f 42   -273.0 4092000.7  1.0  1.0  5  0  29030879
[22]  B08 1f 42   -439.4 4092001.1  1.0  1.0  5  0  29030880
[23]  B10 1f 43   -651.2 4092001.7  1.0  1.0  5  0  29030879
[24]  B11 1f 43  -1216.8 4092003.2  1.0  1.0  5  0  29030924
[25]  B13 1f 43   -954.2 4092002.5  1.0  1.0  5  0  29030876
[26]  B12  7 39   1904.9 4091995.0  1.0  1.0  5  0      3181
[27]  B21  1  8  -2276.5 4092005.4  0.1  0.0  1  0       513
[28]  B25 1f 44  -1515.6 4092004.0  1.0  1.0  5  0  29030925
$GNGGA,080348.000,2944.9160,N,10633.0972,E,1,11,1.4,345.3,M,,,,0000*1C
$GNRMC,080348.000,A,2944.9160,N,10633.0972,E,0.09,0.00,280419,,*1B
$GPGSA,A,3,,,,,,,,,,,,,2.3,1.4,1.8*3F
$BDGSA,A,3,01,02,03,04,05,07,08,10,11,13,25,,2.3,1.4,1.8*24
$GPGSV,3,1,12,03,20,123,39,17,38,278,40,01,60,056,44,28,51,335,42*7E
$GPGSV,3,2,12,30,59,225,43,07,36,180,43,11,48,041,42,18,34,044,40*7F
$GPGSV,3,3,12,22,23,099,38,08,13,060,00,13,05,286,00,19,18,261,00*73
$BDGSV,3,1,12,01,40,125,40,02,46,219,37,03,55,171,42,04,23,109,40*6B
$BDGSV,3,2,12,05,27,244,36,07,65,107,42,08,85,185,42,10,80,010,43*69
$BDGSV,3,3,12,11,51,269,43,13,57,213,43,12,34,039,39,25,56,301,44*60
$LOGTIM,2,0.000000,-35.529858,0.000000,0.000000,-56.668*0E
---00000020--- Acq_st=3 2019-4-28 08:03:48 
[00]  G03  f 38  -2599.1 2046003.4  1.0  1.0  5  0  29045921
[01]  G17  f 41  -1470.2 2046001.9  1.0  1.0  5  0  29045925
[02]  G01  f 44   1090.1 2045998.6  1.0  1.0  5  0  29045931
[03]  G28  f 42  -2018.4 2046002.6  1.0  1.0  5  0  29045928
[04]  G30  f 43   1004.3 2045998.7  1.0  1.0  5  0  29045930
[05]  G07  f 43   2814.2 2045996.3  1.0  1.0  5  0  29045926
[06]  G11  f 43   1882.7 2045997.6  1.0  1.0  5  0  29045929
[07]  G18  7 41   2559.8 2045996.7  1.0  1.0  5  0         6
[08]  G22  7 39  -1427.4 2046001.8  1.0  0.9  5  0         1
[16]  B01 1f 41   -284.7 4092000.8  0.9  0.0  2  0  29031874
[17]  B02 1f 38   -333.2 4092000.7  0.9  0.0  2  0  29031875
[18]  B03 1f 41   -303.3 4092000.8  1.0  0.0  2  0  29031877
[19]  B04 1f 40   -300.9 4092000.8  0.9  0.0  2  0  29031869
[20]  B05 1f 34   -340.5 4092000.9  0.8  0.0  2  0  29031870
[21]  B07 1f 42   -275.9 4092000.7  1.0  1.0  5  0  29031879
[22]  B08 1f 43   -441.5 4092001.2  1.0  1.0  5  0  29031880
[23]  B10 1f 43   -653.8 4092001.7  1.0  1.0  5  0  29031879
[24]  B11 1f 43  -1219.4 4092003.2  1.0  1.0  5  0  29031924
[25]  B13 1f 43   -956.5 4092002.5  1.0  1.0  5  0  29031876
[26]  B12  7 39   1902.5 4091995.0  1.0  1.0  5  0      4181
[27]  B21  1  7  -2284.0 4092005.5 -0.1  0.0  1  0      1513
[28]  B25 1f 45  -1517.8 4092004.0  1.0  1.0  5  0  29031925
$GNGGA,080349.000,2944.9100,N,10633.0999,E,1,10,1.5,351.0,M,,,,0000*18
$GNRMC,080349.000,A,2944.9100,N,10633.0999,E,0.60,0.00,280419,,*16
$GPGSA,A,3,,,,,,,,,,,,,2.7,1.5,2.3*32
$BDGSA,A,3,01,02,03,04,07,08,10,11,13,25,,,2.7,1.5,2.3*2C
$GPGSV,3,1,12,03,20,123,38,17,38,278,41,01,60,056,44,28,51,335,42*7E
$GPGSV,3,2,12,30,59,225,43,07,36,180,43,11,48,041,43,18,34,044,41*7F
$GPGSV,3,3,12,22,23,099,39,08,13,060,00,13,05,286,00,19,18,261,00*72
$BDGSV,3,1,12,01,40,125,41,02,46,219,38,03,55,171,41,04,23,109,40*66
$BDGSV,3,2,12,05,27,244,34,07,65,107,42,08,85,185,43,10,80,010,43*6A
$BDGSV,3,3,12,11,51,269,43,13,57,213,43,12,34,039,39,25,56,301,45*61
$LOGTIM,2,0.000000,-93.722116,0.000000,0.000000,-57.244*03
---00000021--- Acq_st=7 2019-4-28 08:03:49 
[00]  G03  f 38  -2601.9 2046003.4  1.0  1.0  5  0  29046921
[01]  G17  f 41  -1472.8 2046001.9  1.0  1.0  5  0  29046925
[02]  G01  f 43   1088.0 2045998.6  1.0  1.0  5  0  29046931
[03]  G28  f 42  -2021.6 2046002.6  1.0  1.0  5  0  29046928
[04]  G30  f 43   1002.3 2045998.7  1.0  1.0  5  0  29046930
[05]  G07  f 43   2811.2 2045996.4  1.0  1.0  5  0  29046926
[06]  G11  f 42   1879.7 2045997.6  1.0  1.0  5  0  29046929
[07]  G18  f 41   2557.5 2045996.7  1.0  1.0  5  0         6
[08]  G22  f 39  -1428.8 2046001.8  1.0  1.0  5  0         1
[16]  B01 1f 40   -288.0 4092000.7  0.9  0.0  2  0  29032874
[17]  B02 1f 38   -335.9 4092000.8  0.9  0.0  2  0  29032875
[18]  B03 1f 42   -306.3 4092000.8  0.9  0.0  2  0  29032877
[19]  B04 1f 40   -303.5 4092000.7  0.9  0.0  2  0  29032869
[20]  B05 1f 35   -343.0 4092000.9  0.9  0.0  2  0  29032870
[21]  B07 1f 42   -278.5 4092000.7  1.0  1.0  5  0  29032879
[22]  B08 1f 42   -444.2 4092001.2  1.0  1.0  5  0  29032880
[23]  B10 1f 43   -656.8 4092001.7  1.0  1.0  5  0  29032879
[24]  B11 1f 43  -1222.1 4092003.2  1.0  1.0  5  0  29032924
[25]  B13 1f 42   -959.5 4092002.5  1.0  1.0  5  0  29032876
[26]  B12  7 39   1899.7 4091995.0  1.0  0.9  5  0      5181
[27]  B21  1  7  -2432.7 4092005.1 -0.1  0.0  1  0      2513
[28]  B25 1f 45  -1520.1 4092004.0  1.0  1.0  5  0  29032925
$GNGGA,080350.000,2944.9094,N,10633.0932,E,1,11,1.4,340.1,M,,,,0000*1C
$GNRMC,080350.000,A,2944.9094,N,10633.0932,E,0.27,0.00,280419,,*10
$GPGSA,A,3,,,,,,,,,,,,,2.3,1.4,1.8*3F
$BDGSA,A,3,01,02,03,04,05,07,08,10,11,13,25,,2.3,1.4,1.8*24
$GPGSV,3,1,12,03,20,123,38,17,38,278,41,01,60,056,43,28,51,335,42*79
$GPGSV,3,2,12,30,59,225,43,07,36,180,43,11,48,041,42,18,34,044,41*7E
$GPGSV,3,3,12,22,23,099,39,08,13,060,00,13,05,286,00,19,18,261,00*72
$BDGSV,3,1,12,01,40,125,40,02,46,219,38,03,55,171,42,04,23,109,40*64
$BDGSV,3,2,12,05,27,244,35,07,65,107,42,08,85,185,42,10,80,010,43*6A
$BDGSV,3,3,12,11,51,269,43,13,57,213,42,12,34,039,39,25,56,301,45*60
$LOGTIM,2,0.000000,-164.937376,0.000000,0.000000,-58.294*36
---00000022--- Acq_st=7 2019-4-28 08:03:50 
[00]  G03  f 39  -2604.2 2046003.4  1.0  0.9  5  0  29047921
[01]  G17  f 41  -1475.8 2046001.9  1.0  1.0  5  0  29047925
[02]  G01  f 43   1085.3 2045998.6  1.0  1.0  5  0  29047931
[03]  G28  f 41  -2024.8 2046002.6  1.0  1.0  5  0  29047928
[04]  G30  f 43   1000.0 2045998.7  1.0  1.0  5  0  29047930
[05]  G07  f 42   2808.4 2045996.4  1.0  1.0  5  0  29047926
[06]  G11  f 42   1877.0 2045997.6  1.0  1.0  5  0  29047929
[07]  G18  f 41   2555.2 2045996.7  1.0  1.0  5  0  29047926
[08]  G22  f 39  -1432.5 2046001.8  1.0  1.0  5  0  29047921
[16]  B01 1f 41   -291.0 4092000.8  0.9  0.0  2  0  29033874
[17]  B02 1f 39   -338.8 4092000.8  0.9  0.0  2  0  29033875
[18]  B03 1f 41   -308.9 4092000.8  0.9  0.0  2  0  29033877
[19]  B04 1f 40   -306.6 4092000.9  0.9  0.0  2  0  29033869
[20]  B05 1f 34   -345.2 4092001.0  0.9  0.0  2  0  29033870
[21]  B07 1f 42   -281.1 4092000.7  1.0  1.0  5  0  29033879
[22]  B08 1f 43   -446.8 4092001.2  1.0  1.0  5  0  29033880
[23]  B10 1f 43   -659.3 4092001.7  1.0  1.0  5  0  29033879
[24]  B11 1f 43  -1224.6 4092003.2  1.0  1.0  5  0  29033924
[25]  B13 1f 43   -962.1 4092002.5  1.0  1.0  5  0  29033876
[26]  B12  7 39   1897.0 4091995.0  1.0  1.0  5  0      6181
[28]  B25 1f 44  -1522.6 4092004.0  1.0  1.0  5  0  29033925
$GNGGA,080351.000,2944.9043,N,10633.0875,E,1,11,1.4,338.4,M,,,,0000*1F
$GNRMC,080351.000,A,2944.9043,N,10633.0875,E,0.79,0.00,280419,,*12
$GPGSA,A,3,,,,,,,,,,,,,2.3,1.4,1.8*3F
$BDGSA,A,3,01,02,03,04,05,07,08,10,11,13,25,,2.3,1.4,1.8*24
$GPGSV,3,1,12,03,20,123,39,17,38,278,41,01,60,056,43,28,51,335,41*7B
$GPGSV,3,2,12,30,59,225,43,07,36,180,42,11,48,041,42,18,34,044,41*7F
$GPGSV,3,3,12,22,23,099,39,08,13,060,00,13,05,286,00,19,18,261,00*72
$BDGSV,3,1,12,01,40,125,41,02,46,219,39,03,55,171,41,04,23,109,40*67
$BDGSV,3,2,12,05,27,244,34,07,65,107,42,08,85,185,43,10,80,010,43*6A
$BDGSV,3,3,12,11,51,269,43,13,57,213,43,12,34,039,39,25,56,301,44*60
$LOGTIM,2,0.000000,-222.510369,0.000000,0.000000,-58.476*3A
---00000023--- Acq_st=3 2019-4-28 08:03:51 
[00]  G03  f 39  -2608.0 2046003.4  1.0  0.9  5  0  29048921
[01]  G17  f 40  -1479.3 2046001.9  1.0  1.0  5  0  29048925
[02]  G01  f 43   1082.4 2045998.6  1.0  1.0  5  0  29048931
[03]  G28  f 41  -2028.0 2046002.7  1.0  1.0  5  0  29048928
[04]  G30  f 43    996.5 2045998.7  1.0  1.0  5  0  29048930
[05]  G07  f 42   2805.5 2045996.3  1.0  1.0  5  0  29048926
[06]  G11  f 42   1873.7 2045997.6  1.0  1.0  5  0  29048929
[07]  G18  f 41   2551.6 2045996.7  1.0  1.0  5  0  29048926
[08]  G22  f 39  -1435.0 2046001.8  1.0  1.0  5  0  29048921
[16]  B01 1f 41   -294.2 4092000.8  0.9  0.0  2  0  29034874
[17]  B02 1f 39   -342.2 4092000.7  0.9  0.0  2  0  29034875
[18]  B03 1f 43   -312.9 4092000.8  1.0  0.0  2  0  29034877
[19]  B04 1f 39   -310.0 4092000.7  0.9  0.0  2  0  29034869
[20]  B05 1f 35   -350.2 4092000.8  0.9  0.0  2  0  29034870
[21]  B07 1f 42   -285.0 4092000.7  1.0  1.0  5  0  29034879
[22]  B08 1f 43   -450.4 4092001.2  1.0  1.0  5  0  29034880
[23]  B10 1f 43   -663.2 4092001.7  1.0  1.0  5  0  29034879
[24]  B11 1f 43  -1228.2 4092003.2  1.0  1.0  5  0  29034924
[25]  B13 1f 42   -965.5 4092002.5  1.0  1.0  5  0  29034876
[26]  B12 1f 39   1893.3 4091995.0  1.0  1.0  5  0      7181
[28]  B25 1f 44  -1526.0 4092004.0  1.0  1.0  5  0  29034925
$GNGGA,080352.000,2944.9086,N,10633.0893,E,1,12,1.0,342.8,M,,,,0000*1B
$GNRMC,080352.000,A,2944.9086,N,10633.0893,E,0.03,0.00,280419,,*1D
$GPGSA,A,3,,,,,,,,,,,,,1.9,1.0,1.6*3C
$BDGSA,A,3,01,02,03,04,05,07,08,10,11,12,13,25,1.9,1.0,1.6*24
$GPGSV,3,1,12,03,20,123,39,17,38,278,40,01,60,056,43,28,51,335,41*7A
$GPGSV,3,2,12,30,59,225,43,07,36,180,42,11,48,041,42,18,34,044,41*7F
$GPGSV,3,3,12,22,23,099,39,08,13,060,00,13,05,286,00,19,18,261,00*72
$BDGSV,3,1,12,01,40,125,41,02,46,219,39,03,55,171,43,04,23,109,39*6B
$BDGSV,3,2,12,05,27,244,35,07,65,107,42,08,85,185,43,10,80,010,43*6B
$BDGSV,3,3,12,11,51,269,43,13,57,213,42,12,34,039,39,25,56,301,44*61
$LOGTIM,2,0.000000,-278.733578,0.000000,0.000000,-58.890*34
---00000024--- Acq_st=3 2019-4-28 08:03:52 
[00]  G03  f 38  -2608.9 2046003.4  1.0  1.0  5  0  29049921
[01]  G17  f 40  -1480.2 2046001.9  1.0  1.0  5  0  29049925
[02]  G01  f 44   1082.0 2045998.6  1.0  1.0  5  0  29049931
[03]  G28  f 41  -2028.8 2046002.6  1.0  1.0  5  0  29049928
[04]  G30  f 43    996.3 2045998.7  1.0  1.0  5  0  29049930
[05]  G07  f 42   2804.9 2045996.4  1.0  1.0  5  0  29049926
[06]  G11  f 43   1873.4 2045997.6  1.0  1.0  5  0  29049929
[07]  G18  f 41   2550.9 2045996.7  1.0  1.0  5  0  29049926
[08]  G22  f 38  -1435.7 2046001.8  1.0  1.0  5  0  29049921
[16]  B01 1f 40   -295.3 4092000.7  0.9  0.0  2  0  29035874
[17]  B02 1f 38   -343.3 4092000.8  0.9  0.0  2  0  29035875
[18]  B03 1f 42   -313.8 4092000.8  1.0  0.0  2  0  29035877
[19]  B04 1f 39   -310.9 4092000.9  0.9  0.0  2  0  29035869
[20]  B05 1f 36   -351.0 4092000.8  0.9  0.0  2  0  29035870
[21]  B07 1f 42   -285.6 4092000.7  1.0  1.0  5  0  29035879
[22]  B08 1f 42   -451.8 4092001.2  1.0  1.0  5  0  29035880
[23]  B10 1f 43   -664.1 4092001.7  1.0  1.0  5  0  29035879
[24]  B11 1f 43  -1228.5 4092003.2  1.0  1.0  5  0  29035924
[25]  B13 1f 42   -966.3 4092002.5  1.0  1.0  5  0  29035876
[26]  B12 1f 39   1892.7 4091995.0  1.0  1.0  5  0  29035921
[28]  B25 1f 44  -1526.4 4092004.0  1.0  1.0  5  0  29035925
$GNGGA,080353.000,2944.9100,N,10633.0897,E,1,11,1.4,341.5,M,,,,0000*18
$GNRMC,080353.000,A,2944.9100,N,10633.0897,E,0.07,0.00,280419,,*13
$GPGSA,A,3,,,,,,,,,,,,,2.3,1.4,1.8*3F
$BDGSA,A,3,01,02,03,04,05,07,08,10,11,13,25,,2.3,1.4,1.8*24
$GPGSV,3,1,12,03,20,122,38,17,38,279,40,01,60,056,44,28,51,335,41*7C
$GPGSV,3,2,12,30,59,225,43,07,36,180,42,11,48,041,43,18,33,044,41*79
$GPGSV,3,3,12,22,23,099,38,08,13,060,00,13,05,286,00,19,18,261,00*73
$BDGSV,3,1,12,01,40,125,40,02,46,219,38,03,55,171,42,04,23,109,39*6A
$BDGSV,3,2,12,05,27,244,36,07,65,107,42,08,85,185,42,10,80,010,43*69
$BDGSV,3,3,12,11,51,269,43,13,57,213,42,12,34,039,39,25,56,300,44*60
$LOGTIM,2,0.000000,-335.565467,0.000000,0.000000,-58.815*3F
---00000025--- Acq_st=3 2019-4-28 08:03:53 
[00]  G03  f 38  -2608.8 2046003.4  1.0  1.0  5  0  29050921
[01]  G17  f 41  -1480.0 2046001.9  1.0  1.0  5  0  29050925
[02]  G01  f 44   1082.7 2045998.6  1.0  1.0  5  0  29050931
[03]  G28  f 42  -2029.1 2046002.6  1.0  1.0  5  0  29050928
[04]  G30  f 43    996.5 2045998.7  1.0  1.0  5  0  29050930
[05]  G07  f 43   2805.0 2045996.3  1.0  1.0  5  0  29050926
[06]  G11  f 43   1873.4 2045997.5  1.0  1.0  5  0  29050929
[07]  G18  f 41   2551.3 2045996.7  1.0  1.0  5  0  29050926
[08]  G22  f 39  -1435.3 2046001.8  1.0  1.0  5  0  29050921
[16]  B01 1f 39   -295.5 4092000.8  0.9  0.0  2  0  29036874
[17]  B02 1f 39   -343.4 4092000.9  0.9  0.0  2  0  29036875
[18]  B03 1f 41   -313.5 4092000.9  1.0  0.0  2  0  29036877
[19]  B04 1f 39   -310.8 4092000.7  0.9  0.0  2  0  29036869
[20]  B05 1f 34   -351.0 4092001.0  0.9  0.0  2  0  29036870
[21]  B07 1f 42   -285.5 4092000.8  1.0  1.0  5  0  29036879
[22]  B08 1f 42   -451.2 4092001.1  1.0  1.0  5  0  29036880
[23]  B10 1f 43   -663.8 4092001.7  1.0  1.0  5  0  29036879
[24]  B11 1f 43  -1228.9 4092003.2  1.0  1.0  5  0  29036924
[25]  B13 1f 42   -966.4 4092002.5  1.0  1.0  5  0  29036876
[26]  B12 1f 39   1892.4 4091995.0  1.0  1.0  5  0  29036921
[28]  B25 1f 45  -1525.9 4092004.0  1.0  1.0  5  0  29036925
$GNGGA,080354.000,2944.9127,N,10633.0903,E,1,12,1.0,349.0,M,,,,0000*1C
$GNRMC,080354.000,A,2944.9127,N,10633.0903,E,0.14,0.00,280419,,*1F
$GPGSA,A,3,,,,,,,,,,,,,1.9,1.0,1.6*3C
$BDGSA,A,3,01,02,03,04,05,07,08,10,11,12,13,25,1.9,1.0,1.6*24
$GPGSV,3,1,12,03,20,122,38,17,38,279,41,01,60,056,44,28,51,335,42*7E
$GPGSV,3,2,12,30,59,225,43,07,36,180,43,11,48,041,43,18,33,044,41*78
$GPGSV,3,3,12,22,23,099,39,08,13,060,00,13,05,286,00,19,18,261,00*72
$BDGSV,3,1,12,01,40,125,39,02,46,219,39,03,55,171,41,04,23,109,39*66
$BDGSV,3,2,12,05,27,244,34,07,65,107,42,08,85,185,42,10,80,010,43*6B
$BDGSV,3,3,12,11,51,269,43,13,57,213,42,12,34,039,39,25,56,300,45*61
$LOGTIM,2,0.000000,-394.168154,0.000000,0.000000,-58.817*3A
---00000026--- Acq_st=2 2019-4-28 08:03:54 
[00]  G03  f 38  -2607.9 2046003.4  1.0  1.0  5  0  29051921
[01]  G17  f 41  -1478.6 2046001.9  1.0  1.0  5  0  29051925
[02]  G01  f 43   1084.0 2045998.6  1.0  1.0  5  0  29051931
[03]  G28  f 42  -2028.2 2046002.7  1.0  1.0  5  0  29051928
[04]  G30  f 43    998.5 2045998.7  1.0  1.0  5  0  29051930
[05]  G07  f 42   2806.6 2045996.4  1.0  1.0  5  0  29051926
[06]  G11  f 42   1874.6 2045997.5  1.0  1.0  5  0  29051929
[07]  G18  f 40   2552.6 2045996.7  1.0  1.0  5  0  29051926
[08]  G22  f 39  -1434.2 2046001.9  1.0  1.0  5  0  29051921
[16]  B01 1f 39   -294.2 4092000.8  0.9  0.0  2  0  29037874
[17]  B02 1f 39   -342.1 4092000.8  0.9  0.0  2  0  29037875
[18]  B03 1f 42   -313.4 4092000.8  1.0  0.0  2  0  29037877
[19]  B04 1f 40   -310.3 4092000.9  0.9  0.0  2  0  29037869
[20]  B05 1f 36   -350.0 4092000.9  0.9  0.0  2  0  29037870
[21]  B07 1f 42   -284.7 4092000.7  1.0  1.0  5  0  29037879
[22]  B08 1f 43   -450.5 4092001.2  1.0  1.0  5  0  29037880
[23]  B10 1f 43   -663.2 4092001.7  1.0  1.0  5  0  29037879
[24]  B11 1f 43  -1227.5 4092003.2  1.0  1.0  5  0  29037924
[25]  B13 1f 42   -965.6 4092002.5  1.0  0.9  5  0  29037876
[26]  B12 1f 39   1893.1 4091995.0  1.0  1.0  5  0  29037921
[28]  B25 1f 45  -1524.7 4092004.0  1.0  1.0  5  0  29037925
$GNGGA,080355.000,2944.9127,N,10633.0945,E,1,12,1.0,334.9,M,,,,0000*1C
$GNRMC,080355.000,A,2944.9127,N,10633.0945,E,0.22,0.00,280419,,*19
$GPGSA,A,3,,,,,,,,,,,,,1.9,1.0,1.6*3C
$BDGSA,A,3,01,02,03,04,05,07,08,10,11,12,13,25,1.9,1.0,1.6*24
$GPGSV,3,1,12,03,20,122,38,17,38,279,41,01,60,056,43,28,51,335,42*79
$GPGSV,3,2,12,30,59,225,43,07,36,180,42,11,48,041,42,18,33,044,40*79
$GPGSV,3,3,12,22,23,099,39,08,13,060,00,13,05,286,00,19,18,261,00*72
$BDGSV,3,1,12,01,40,125,39,02,46,219,39,03,55,171,42,04,23,109,40*6B
$BDGSV,3,2,12,05,27,244,36,07,65,107,42,08,85,185,43,10,80,010,43*68
$BDGSV,3,3,12,11,51,269,43,13,57,213,42,12,34,039,39,25,56,300,45*61
$LOGTIM,2,0.000000,-456.494620,0.000000,0.000000,-58.902*34
---00000027--- Acq_st=3 2019-4-28 08:03:55 
[00]  G03  f 39  -2608.9 2046003.4  1.0  1.0  5  0  29052921
[01]  G17  f 40  -1480.1 2046001.9  1.0  1.0  5  0  29052925
[02]  G01  f 43   1083.3 2045998.6  1.0  1.0  5  0  29052931
[03]  G28  f 41  -2029.6 2046002.6  1.0  1.0  5  0  29052928
[04]  G30  f 43    997.5 2045998.7  1.0  1.0  5  0  29052930
[05]  G07  f 42   2805.1 2045996.3  1.0  1.0  5  0  29052926
[06]  G11  f 42   1873.7 2045997.6  1.0  1.0  5  0  29052929
[07]  G18  f 40   2551.1 2045996.7  1.0  1.0  5  0  29052926
[08]  G22  f 39  -1434.9 2046001.9  1.0  1.0  5  0  29052921
[16]  B01 1f 40   -295.5 4092000.7  1.0  0.0  2  0  29038874
[17]  B02 1f 39   -344.1 4092001.0  0.9  0.0  2  0  29038875
[18]  B03 1f 42   -314.4 4092000.8  1.0  0.0  2  0  29038877
[19]  B04 1f 40   -311.5 4092000.9  0.9  0.0  2  0  29038869
[20]  B05 1f 35   -351.7 4092000.9  0.9  0.0  2  0  29038870
[21]  B07 1f 42   -285.8 4092000.8  1.0  1.0  5  0  29038879
[22]  B08 1f 42   -451.4 4092001.1  1.0  1.0  5  0  29038880
[23]  B10 1f 43   -664.4 4092001.7  1.0  1.0  5  0  29038879
[24]  B11 1f 43  -1228.3 4092003.2  1.0  1.0  5  0  29038924
[25]  B13 1f 42   -966.6 4092002.5  1.0  1.0  5  0  29038876
[26]  B12 1f 39   1892.0 4091995.1  1.0  1.0  5  0  29038921
[28]  B25 1f 45  -1525.5 4092004.0  1.0  1.0  5  0  29038925
$GNGGA,080356.000,2944.9126,N,10633.0972,E,1,12,1.0,325.3,M,,,,0000*10
$GNRMC,080356.000,A,2944.9126,N,10633.0972,E,0.22,0.00,280419,,*1F
$GPGSA,A,3,,,,,,,,,,,,,1.9,1.0,1.6*3C
$BDGSA,A,3,01,02,03,04,05,07,08,10,11,12,13,25,1.9,1.0,1.6*24
$GPGSV,3,1,12,03,20,122,39,17,38,279,40,01,60,056,43,28,51,335,41*7A
$GPGSV,3,2,12,30,59,225,43,07,36,180,42,11,48,041,42,18,33,044,40*79
$GPGSV,3,3,12,22,23,099,39,08,13,060,00,13,05,286,00,19,18,261,00*72
$BDGSV,3,1,12,01,40,125,40,02,46,219,39,03,55,171,42,04,23,109,40*65
$BDGSV,3,2,12,05,27,244,35,07,65,107,42,08,85,185,42,10,80,010,43*6A
$BDGSV,3,3,12,11,51,269,43,13,57,213,42,12,34,039,39,25,56,300,45*61
$LOGTIM,2,0.000000,-519.029441,0.000000,0.000000,-59.390*39
---00000028--- Acq_st=3 2019-4-28 08:03:56 
[00]  G03  f 38  -2610.0 2046003.4  1.0  1.0  5  0  29053921
[01]  G17  f 40  -1480.8 2046001.9  1.0  1.0  5  0  29053925
[02]  G01  f 43   1083.0 2045998.6  1.0  1.0  5  0  29053931
[03]  G28  f 42  -2030.4 2046002.7  1.0  1.0  5  0  29053928
[04]  G30  f 43    996.9 2045998.7  1.0  1.0  5  0  29053930
[05]  G07  f 42   2804.5 2045996.4  1.0  1.0  5  0  29053926
[06]  G11  f 42   1873.1 2045997.6  1.0  1.0  5  0  29053929
[07]  G18  f 40   2550.9 2045996.7  1.0  1.0  5  0  29053926
[08]  G22  f 39  -1435.9 2046001.9  1.0  1.0  5  0  29053921
[16]  B01 1f 40   -297.1 4092000.8  0.9  0.0  2  0  29039874
[17]  B02 1f 39   -344.7 4092000.9  0.9  0.0  2  0  29039875
[18]  B03 1f 42   -315.2 4092000.9  1.0  0.0  2  0  29039877
[19]  B04 1f 40   -312.4 4092000.7  0.9  0.0  2  0  29039869
[20]  B05 1f 35   -352.0 4092001.0  0.9  0.0  2  0  29039870
[21]  B07 1f 42   -286.7 4092000.7  1.0  1.0  5  0  29039879
[22]  B08 1f 43   -452.4 4092001.2  1.0  1.0  5  0  29039880
[23]  B10 1f 43   -665.2 4092001.7  1.0  1.0  5  0  29039879
[24]  B11 1f 43  -1229.1 4092003.2  1.0  1.0  5  0  29039924
[25]  B13 1f 42   -967.3 4092002.5  1.0  1.0  5  0  29039876
[26]  B12 1f 39   1890.8 4091995.1  1.0  1.0  5  0  29039921
[28]  B25 1f 45  -1526.0 4092004.0  1.0  1.0  5  0  29039925
$GNGGA,080357.000,2944.9144,N,10633.0961,E,1,12,1.0,318.2,M,,,,0000*18
$GNRMC,080357.000,A,2944.9144,N,10633.0961,E,0.09,0.00,280419,,*11
$GPGSA,A,3,,,,,,,,,,,,,1.9,1.0,1.6*3C
$BDGSA,A,3,01,02,03,04,05,07,08,10,11,12,13,25,1.9,1.0,1.6*24
$GPGSV,3,1,12,03,20,122,38,17,38,279,40,01,60,056,43,28,51,335,42*78
$GPGSV,3,2,12,30,59,225,43,07,36,180,42,11,48,041,42,18,33,044,40*79
$GPGSV,3,3,12,22,23,099,39,08,13,060,00,13,05,286,00,19,18,261,00*72
$BDGSV,3,1,12,01,40,125,40,02,46,219,39,03,55,171,42,04,23,109,40*65
$BDGSV,3,2,12,05,27,244,35,07,65,107,42,08,85,185,43,10,80,010,43*6B
$BDGSV,3,3,12,11,51,269,43,13,57,213,42,12,34,039,39,25,56,300,45*61
$LOGTIM,2,0.000000,-580.193746,0.000000,0.000000,-59.451*37
---00000029--- Acq_st=3 2019-4-28 08:03:57 
[00]  G03  f 38  -2609.9 2046003.4  1.0  0.9  5  0  29054921
[01]  G17  f 40  -1480.5 2046001.9  1.0  1.0  5  0  29054925
[02]  G01  f 43   1083.7 2045998.6  1.0  1.0  5  0  29054931
[03]  G28  f 42  -2030.0 2046002.6  1.0  1.0  5  0  29054928
[04]  G30  f 43    998.0 2045998.7  1.0  1.0  5  0  29054930
[05]  G07  f 42   2804.9 2045996.4  1.0  1.0  5  0  29054926
[06]  G11  f 42   1873.6 2045997.6  1.0  1.0  5  0  29054929
[07]  G18  f 40   2551.4 2045996.7  1.0  1.0  5  0  29054926
[08]  G22  f 39  -1435.2 2046001.9  1.0  1.0  5  0  29054921
[16]  B01 1f 40   -296.6 4092000.8  0.9  0.0  2  0  29040874
[17]  B02 1f 38   -344.6 4092000.8  0.9  0.0  2  0  29040875
[18]  B03 1f 41   -315.0 4092000.8  0.9  0.0  2  0  29040877
[19]  B04 1f 39   -312.7 4092000.9  0.9  0.0  2  0  29040869
[20]  B05 1f 36   -351.6 4092000.8  0.9  0.0  2  0  29040870
[21]  B07 1f 42   -286.5 4092000.7  1.0  1.0  5  0  29040879
[22]  B08 1f 43   -451.9 4092001.1  1.0  1.0  5  0  29040880
[23]  B10 1f 43   -665.1 4092001.7  1.0  1.0  5  0  29040879
[24]  B11 1f 43  -1228.9 4092003.2  1.0  1.0  5  0  29040924
[25]  B13 1f 42   -967.1 4092002.5  1.0  1.0  5  0  29040876
[26]  B12 1f 39   1891.0 4091995.0  1.0  1.0  5  0  29040921
[28]  B25 1f 44  -1525.3 4092004.0  1.0  1.0  5  0  29040925
$GNGGA,080358.000,2944.9157,N,10633.0951,E,1,12,1.0,313.6,M,,,,0000*19
$GNRMC,080358.000,A,2944.9157,N,10633.0951,E,0.17,0.00,280419,,*10
$GPGSA,A,3,,,,,,,,,,,,,1.9,1.0,1.6*3C
$BDGSA,A,3,01,02,03,04,05,07,08,10,11,12,13,25,1.9,1.0,1.6*24
$GPGSV,3,1,12,03,20,122,38,17,38,279,40,01,60,056,43,28,51,335,42*78
$GPGSV,3,2,12,30,59,225,43,07,36,180,42,11,48,041,42,18,33,044,40*79
$GPGSV,3,3,12,22,23,099,39,08,13,060,00,13,05,286,00,19,18,261,00*72
$BDGSV,3,1,12,01,40,125,40,02,46,219,38,03,55,171,41,04,23,109,40*67
$BDGSV,3,2,12,05,27,244,36,07,65,107,42,08,85,185,43,10,80,010,43*68
$BDGSV,3,3,12,11,51,269,43,13,57,213,42,12,34,039,39,25,56,300,44*60
$LOGTIM,2,0.000000,-641.267572,0.000000,0.000000,-59.524*37
---00000030--- Acq_st=3 2019-4-28 08:03:58 
[00]  G03  f 38  -2608.6 2046003.4  1.0  1.0  5  0  29055921
[01]  G17  f 41  -1479.6 2046001.9  1.0  1.0  5  0  29055925
[02]  G01  f 43   1084.9 2045998.6  1.0  1.0  5  0  29055931
[03]  G28  f 42  -2029.5 2046002.6  1.0  1.0  5  0  29055928
[04]  G30  f 43    998.8 2045998.7  1.0  1.0  5  0  29055930
[05]  G07  f 42   2805.7 2045996.4  1.0  1.0  5  0  29055926
[06]  G11  f 43   1874.4 2045997.6  1.0  1.0  5  0  29055929
[07]  G18  f 41   2552.2 2045996.7  1.0  1.0  5  0  29055926
[08]  G22  f 38  -1434.0 2046001.9  1.0  1.0  5  0  29055921
[16]  B01 1f 40   -296.0 4092000.8  1.0  0.0  2  0  29041874
[17]  B02 1f 38   -344.2 4092000.9  0.9  0.0  2  0  29041875
[18]  B03 1f 43   -314.6 4092000.9  1.0  0.0  2  0  29041877
[19]  B04 1f 39   -311.5 4092000.8  0.9  0.0  2  0  29041869
[20]  B05 1f 35   -351.4 4092001.1  0.9  0.0  2  0  29041870
[21]  B07 1f 42   -286.0 4092000.7  1.0  1.0  5  0  29041879
[22]  B08 1f 43   -451.2 4092001.2  1.0  1.0  5  0  29041880
[23]  B10 1f 43   -664.5 4092001.7  1.0  1.0  5  0  29041879
[24]  B11 1f 43  -1227.8 4092003.2  1.0  1.0  5  0  29041924
[25]  B13 1f 42   -966.6 4092002.5  1.0  1.0  5  0  29041876
[26]  B12 1f 39   1891.7 4091995.0  1.0  1.0  5  0  29041921
[27]  B21  1  7  -2627.2 4092006.8  0.0  0.0  1  0       125
[28]  B25 1f 44  -1524.1 4092004.0  1.0  1.0  5  0  29041925
$GNGGA,080359.000,2944.9155,N,10633.0937,E,1,11,1.4,310.9,M,,,,0000*11
$GNRMC,080359.000,A,2944.9155,N,10633.0937,E,0.13,0.00,280419,,*17
$GPGSA,A,3,,,,,,,,,,,,,2.3,1.4,1.8*3F
$BDGSA,A,3,01,02,03,04,05,07,08,10,11,13,25,,2.3,1.4,1.8*24
$GPGSV,3,1,12,03,20,122,38,17,38,279,41,01,60,056,43,28,51,335,42*79
$GPGSV,3,2,12,30,59,225,43,07,36,180,42,11,48,041,43,18,33,044,41*79
$GPGSV,3,3,12,22,23,099,38,08,13,060,00,13,05,286,00,19,18,261,00*73
$BDGSV,3,1,12,01,40,125,40,02,46,219,38,03,55,171,43,04,23,109,39*6B
$BDGSV,3,2,12,05,27,244,35,07,65,107,42,08,85,185,43,10,80,010,43*6B
$BDGSV,3,3,12,11,51,269,43,13,57,213,42,12,34,039,39,25,56,300,44*60
$LOGTIM,2,0.000000,-701.015971,0.000000,0.000000,-59.437*39
---00000031--- Acq_st=3 2019-4-28 08:03:59 
[00]  G03  f 39  -2607.6 2046003.4  1.0  1.0  5  0  29056921
[01]  G17  f 41  -1478.4 2046001.9  1.0  1.0  5  0  29056925
[02]  G01  f 44   1086.2 2045998.6  1.0  1.0  5  0  29056931
[03]  G28  f 42  -2028.5 2046002.7  1.0  1.0  5  0  29056928
[04]  G30  f 43   1000.7 2045998.7  1.0  1.0  5  0  29056930
[05]  G07  f 43   2807.1 2045996.4  1.0  1.0  5  0  29056926
[06]  G11  f 43   1875.7 2045997.6  1.0  1.0  5  0  29056929
[07]  G18  f 40   2553.6 2045996.7  1.0  1.0  5  0  29056926
[08]  G22  f 38  -1433.0 2046001.9  1.0  1.0  5  0  29056921
[16]  B01 1f 39   -294.8 4092000.8  0.9  0.0  2  0  29042874
[17]  B02 1f 40   -342.6 4092001.0  0.9  0.0  2  0  29042875
[18]  B03 1f 42   -313.1 4092000.8  1.0  0.0  2  0  29042877
[19]  B04 1f 39   -310.6 4092000.9  0.9  0.0  2  0  29042869
[20]  B05 1f 36   -350.1 4092000.8  0.9  0.0  2  0  29042870
[21]  B07 1f 42   -284.6 4092000.7  1.0  1.0  5  0  29042879
[22]  B08 1f 43   -449.5 4092001.2  1.0  1.0  5  0  29042880
[23]  B10 1f 43   -663.0 4092001.7  1.0  1.0  5  0  29042879
[24]  B11 1f 43  -1226.4 4092003.2  1.0  1.0  5  0  29042924
[25]  B13 1f 43   -964.9 4092002.5  1.0  1.0  5  0  29042876
[26]  B12 1f 39   1893.3 4091995.0  1.0  1.0  5  0  29042921
[27]  B21  1  7  -2664.0 4092007.1 -0.0  0.0  1  0      1125
[28]  B25 1f 44  -1522.3 4092004.0  1.0  1.0  5  0  29042925
[29]  B24  1  7   1618.4 4091996.5  0.0  0.0  1  0       285
$GNGGA,080400.000,2944.9164,N,10633.0934,E,1,11,1.0,309.4,M,,,,0000*1A
$GNRMC,080400.000,A,2944.9164,N,10633.0934,E,0.25,0.00,280419,,*18
$GPGSA,A,3,,,,,,,,,,,,,2.0,1.0,1.8*38
$BDGSA,A,3,01,02,03,04,05,07,10,11,12,13,25,,2.0,1.0,1.8*28
$GPGSV,3,1,12,03,20,122,39,17,38,279,41,01,60,056,44,28,51,335,42*7F
$GPGSV,3,2,12,30,59,225,43,07,36,180,43,11,48,041,43,18,33,044,40*79
$GPGSV,3,3,12,22,23,099,38,08,13,060,00,13,05,286,00,19,18,261,00*73
$BDGSV,3,1,12,01,40,125,39,02,46,219,40,03,55,171,42,04,23,109,39*6B
$BDGSV,3,2,12,05,27,244,36,07,65,107,42,08,85,185,43,10,80,010,43*68
$BDGSV,3,3,12,11,51,269,43,13,57,213,43,12,34,039,39,25,56,300,44*61
$LOGTIM,2,0.000000,-761.001745,0.000000,0.000000,-58.817*3C
---00000032--- Acq_st=3 2019-4-28 08:04:0 
[00]  G03  f 39  -2600.8 2046003.4  1.0  1.0  5  0  29057921
[01]  G17  f 41  -1472.0 2046001.9  1.0  1.0  5  0  29057925
[02]  G01  f 44   1093.4 2045998.6  1.0  1.0  5  0  29057931
[03]  G28  f 42  -2021.7 2046002.6  1.0  1.0  5  0  29057928
[04]  G30  f 43   1007.6 2045998.7  1.0  1.0  5  0  29057930
[05]  G07  f 43   2814.2 2045996.3  1.0  1.0  5  0  29057926
[06]  G11  f 43   1882.5 2045997.6  1.0  1.0  5  0  29057929
[07]  G18  f 41   2560.5 2045996.7  1.0  1.0  5  0  29057926
[08]  G22  f 38  -1426.0 2046001.9  1.0  1.0  5  0  29057921
[16]  B01 1f 39   -288.8 4092000.7  0.9  0.0  2  0  29043874
[17]  B02 1f 38   -336.8 4092000.9  0.9  0.0  2  0  29043875
[18]  B03 1f 41   -306.8 4092000.9  1.0  0.0  2  0  29043877
[19]  B04 1f 39   -304.1 4092000.8  0.9  0.0  2  0  29043869
[20]  B05 1f 35   -343.7 4092000.9  0.9  0.0  2  0  29043870
[21]  B07 1f 42   -278.2 4092000.7  1.0  1.0  5  0  29043879
[22]  B08 1f 43   -443.5 4092001.2  1.0  1.0  5  0  29043880
[23]  B10 1f 43   -657.1 4092001.7  1.0  1.0  5  0  29043879
[24]  B11 1f 43  -1220.0 4092003.2  1.0  1.0  5  0  29043924
[25]  B13 1f 43   -958.6 4092002.5  1.0  1.0  5  0  29043876
[26]  B12 1f 39   1899.5 4091995.0  1.0  1.0  5  0  29043921
[27]  B21  1  7  -2514.8 4092007.5  0.2  0.0  1  0      2125
[28]  B25 1f 45  -1515.9 4092004.0  1.0  1.0  5  0  29043925
[29]  B24  7 28   1625.2 4091995.6  0.4  1.0 10  0      1285
$GNGGA,080401.000,2944.9171,N,10633.0933,E,1,11,1.0,308.0,M,,,,0000*1D
$GNRMC,080401.000,A,2944.9171,N,10633.0933,E,0.33,0.00,280419,,*1D
$GPGSA,A,3,,,,,,,,,,,,,2.0,1.0,1.7*37
$BDGSA,A,3,01,02,03,04,05,08,10,11,12,13,25,,2.0,1.0,1.7*28
$GPGSV,3,1,12,03,20,122,39,17,38,279,41,01,60,056,44,28,51,335,42*7F
$GPGSV,3,2,12,30,59,225,43,07,36,180,43,11,48,041,43,18,33,044,41*78
$GPGSV,3,3,12,22,23,099,38,08,13,060,00,13,05,286,00,19,18,261,00*73
$BDGSV,3,1,12,01,40,125,39,02,46,219,38,03,55,171,41,04,23,109,39*67
$BDGSV,3,2,12,05,27,244,35,07,65,107,42,08,85,185,43,10,80,010,43*6B
$BDGSV,3,3,12,11,51,269,43,13,57,213,43,12,34,039,39,25,56,300,45*60
$LOGTIM,2,0.000000,-820.056555,0.000000,0.000000,-58.093*33
---00000033--- Acq_st=7 2019-4-28 08:04:1 
[00]  G03  f 39  -2599.0 2046003.4  1.0  1.0  5  0  29058921
[01]  G17  f 41  -1470.1 2046001.9  1.0  1.0  5  0  29058925
[02]  G01  f 43   1095.6 2045998.6  1.0  1.0  5  0  29058931
[03]  G28  f 42  -2020.3 2046002.6  1.0  1.0  5  0  29058928
[04]  G30  f 43   1009.6 2045998.7  1.0  1.0  5  0  29058930
[05]  G07  f 43   2815.8 2045996.3  1.0  1.0  5  0  29058926
[06]  G11  f 43   1884.3 2045997.5  1.0  1.0  5  0  29058929
[07]  G18  f 41   2562.9 2045996.7  1.0  1.0  5  0  29058926
[08]  G22  f 39  -1424.2 2046001.8  1.0  1.0  5  0  29058921
[16]  B01 1f 40   -287.2 4092000.8  0.9  0.0  2  0  29044874
[17]  B02 1f 40   -335.4 4092000.9  0.9  0.0  2  0  29044875
[18]  B03 1f 43   -305.5 4092000.9  1.0  0.0  2  0  29044877
[19]  B04 1f 39   -302.9 4092000.9  0.9  0.0  2  0  29044869
[20]  B05 1f 36   -342.5 4092000.9  0.9  0.0  2  0  29044870
