FlashID=0x1 0x20 0x18
BBram_blkflag1: 3dd9: c226
FW Ver: 1.30  
GPS00 Init Dop:  -5000, 41
GPS01 Init Dop:  -5000, 41
GPS02 Init Dop:  -5000, 41
GPS03 Init Dop:  -5000, 41
GPS04 Init Dop:  -5000, 41
GPS05 Init Dop:  -5000, 41
GPS06 Init Dop:  -5000, 41
GPS07 Init Dop:  -5000, 41
GPS08 Init Dop:  -5000, 41
GPS09 Init Dop:  -5000, 41
GPS10 Init Dop:  -5000, 41
GPS11 Init Dop:  -5000, 41
GPS12 Init Dop:  -5000, 41
GPS13 Init Dop:  -5000, 41
GPS14 Init Dop:  -5000, 41
GPS15 Init Dop:  -5000, 41
GPS16 Init Dop:  -5000, 41
GPS17 Init Dop:  -5000, 41
GPS18 Init Dop:  -5000, 41
GPS19 Init Dop:  -5000, 41
GPS20 Init Dop:  -5000, 41
GPS21 Init Dop:  -5000, 41
GPS22 Init Dop:  -5000, 41
GPS23 Init Dop:  -5000, 41
GPS24 Init Dop:  -5000, 41
GPS25 Init Dop:  -5000, 41
GPS26 Init Dop:  -5000, 41
GPS27 Init Dop:  -5000, 41
GPS28 Init Dop:  -5000, 41
GPS29 Init Dop:  -5000, 41
GPS30 Init Dop:  -5000, 41
GPS31 Init Dop:  -5000, 41
BDS00 Init Dop:    171,  2
BDS01 Init Dop:    184,  2
BDS02 Init Dop:    183,  2
BDS03 Init Dop:    187,  2
BDS04 Init Dop:    190,  2
BDS05 Init Dop:  -1356,  2
BDS06 Init Dop:    411,  2
BDS07 Init Dop:   1697,  2
BDS08 Init Dop:  -1630,  2
BDS09 Init Dop:    490,  2
BDS10 Init Dop:  -5000, 41
BDS11 Init Dop:  -5000, 41
BDS12 Init Dop:   1803,  2
BDS13 Init Dop:  -5000, 41
BDS14 Init Dop:  -5000, 41
BDS15 Init Dop:  -1524,  2
BDS16 Init Dop:  -5000, 41
BDS17 Init Dop:    617,  2
BDS18 Init Dop:  -1608,  2
BDS19 Init Dop:  -5000, 41
BDS20 Init Dop:  -5000, 41
BDS21 Init Dop:  -5000, 41
BDS22 Init Dop:  -5000, 41
BDS23 Init Dop:  -5000, 41
BDS24 Init Dop:  -5000, 41
BDS25 Init Dop:  -5000, 41
BDS26 Init Dop:  -1391,  2
BDS27 Init Dop:  -5000, 41
BDS28 Init Dop:   3327,  2
BDS29 Init Dop:   1681,  2
BDS30 Init Dop:  -5000, 41
BDS31 Init Dop:  -5000, 41
---00000001--- Acq_st=3 2019-4-10 06:55:7 
[00]  G04  1  7   6001.0 2045993.5  0.1  0.0  1  0         0
$GNGGA,000000.000,,,,,0,00,,,M,,,,0000*2B
$GNRMC,000000.000,A,,,,,,,000000,,*26
$GPGSA,A,1,,,,,,,,,,,,,,,*1E
$BDGSA,A,1,,,,,,,,,,,,,,,*0F
$LOGTIM,0,0.000000,0.000000,0.000000,0.000000,0.000*0A
---00000002--- Acq_st=3 2019-4-10 06:55:8 
[00]  G04  1  7   5895.9 2045992.7  0.1  0.0  1  0        13
[01]  G08  1  7   6254.4 2045992.1  0.1  0.0  1  0         0
[02]  G09  1  7   6994.8 2045991.2  0.1  0.0  1  0         0
$GNGGA,000000.000,,,,,0,00,,,M,,,,0000*2B
$GNRMC,000000.000,A,,,,,,,000000,,*26
$GPGSA,A,1,,,,,,,,,,,,,,,*1E
$BDGSA,A,1,,,,,,,,,,,,,,,*0F
$LOGTIM,0,0.000000,0.000000,0.000000,0.000000,0.000*0A
---00000003--- Acq_st=3 2019-4-10 06:55:9 
[00]  G04  1  7   5781.9 2045993.0  0.0  0.0  1  0        13
[01]  G08  1 11   6400.6 2045992.0 -0.1  0.0  1  0         0
[02]  G09  1  9   6951.2 2045991.0  0.1  0.0  1  0        15
$GNGGA,000000.000,,,,,0,00,,,M,,,,0000*2B
$GNRMC,000000.000,A,,,,,,,000000,,*26
$GPGSA,A,1,,,,,,,,,,,,,,,*1E
$BDGSA,A,1,,,,,,,,,,,,,,,*0F
$LOGTIM,0,0.000000,0.000000,0.000000,0.000000,0.000*0A
---00000004--- Acq_st=3 2019-4-10 06:55:10 
[00]  G04  1  7   5521.0 2045992.9  0.0  0.0  1  0        13
[01]  G08  1  8   6354.8 2045991.9 -0.1  0.0  1  0         0
[02]  G09  1  7   6727.5 2045990.8  0.0  0.0  1  0        15
[03]  G23  1  7   7744.1 2045989.9 -0.0  0.0  1  0         0
$GNGGA,000000.000,,,,,0,00,,,M,,,,0000*2B
$GNRMC,000000.000,A,,,,,,,000000,,*26
$GPGSA,A,1,,,,,,,,,,,,,,,*1E
$BDGSA,A,1,,,,,,,,,,,,,,,*0F
$LOGTIM,0,0.000000,0.000000,0.000000,0.000000,0.000*0A
---00000005--- Acq_st=3 2019-4-10 06:55:11 
[00]  G27  1  7   7772.3 2045989.7 -0.1  0.0  1  0        13
[03]  G23  1  7   7666.1 2045989.7 -0.1  0.0  1  0         8
$GNGGA,000000.000,,,,,0,00,,,M,,,,0000*2B
$GNRMC,000000.000,A,,,,,,,000000,,*26
$GPGSA,A,1,,,,,,,,,,,,,,,*1E
$BDGSA,A,1,,,,,,,,,,,,,,,*0F
$LOGTIM,0,0.000000,0.000000,0.000000,0.000000,0.000*0A
---00000006--- Acq_st=3 2019-4-10 06:55:12 
[00]  G27  1  8   7718.0 2045990.3  0.1  0.0  1  0        16
[03]  G23  1  7   7481.6 2045989.8  0.1  0.0  1  0         8
[16]  B01  1 10   -293.3 4092001.3  0.4  0.0  1  0         0
[17]  B02  1 10   -306.5 4092001.7 -0.3  0.0  1  0         0
[18]  B03  1 41   -305.8 4092002.2  0.8  0.0  1  0         0
[19]  B04  1 38   -311.1 4092002.8 -0.5  0.0  1  0         0
[20]  B05  1 37   -311.3 4092002.2  0.5  0.0  1  0         0
[21]  B07  1  7   -529.9 4092001.7 -0.0  0.0  1  0         0
[22]  B08  1  7  -1815.7 4092006.8  0.0  0.0  1  1         0
[23]  B10  1  7   -613.5 4092001.7  0.0  0.0  1  0         0
$GNGGA,000000.000,,,,,0,00,,,M,,,,0000*2B
$GNRMC,000000.000,A,,,,,,,000000,,*26
$GPGSA,A,1,,,,,,,,,,,,,,,*1E
$BDGSA,A,1,,,,,,,,,,,,,,,*0F
$LOGTIM,0,0.000000,0.000000,0.000000,0.000000,0.000*0A
---00000007--- Acq_st=3 2019-4-10 06:55:13 
[00]  G27  1  7   7693.3 2045990.2  0.1  0.0  1  0        16
[03]  G23  1  7   7466.0 2045990.0 -0.0  0.0  1  0         8
[16]  B01  7 40   -294.2 4092000.9  1.0  0.0  2  0       764
[17]  B02  7 39   -306.9 4092000.8  0.9  0.0  2  0       751
[18]  B03  f 42   -306.6 4092000.7  1.0  0.0  2  0       294
[19]  B04  f 40   -310.6 4092000.6  0.9  0.0  2  0       286
[20]  B05  f 38   -313.0 4092000.6  0.9  0.0  2  0       287
[21]  B07  7 26   -534.1 4092001.4  0.1  0.0 20  0       676
[22]  B08  7 26  -1820.5 4092004.7  0.4  0.0 20  1       662
[23]  B10  7 25   -613.0 4092001.6  0.3  0.0 20  0       626
[24]  B13  1  7  -1927.1 4092005.4  0.1  0.0  1  0         0
$GNGGA,065521.600,2945.0477,N,10633.0873,E,1,05,0.0,501.5,M,,,,0000*13
$GNRMC,065521.600,A,2945.0477,N,10633.0873,E,0.00,0.00,100419,,*16
$GPGSA,A,3,,,,,,,,,,,,,0.0,0.0,0.0*32
$BDGSA,A,3,01,02,03,04,05,,,,,,,,0.0,0.0,0.0*22
$BDGSV,2,1,08,01,00,000,40,02,00,000,39,03,00,000,42,04,00,000,40*6B
$BDGSV,2,2,08,05,00,000,37,07,00,000,26,08,00,000,26,10,00,000,25*68
$LOGTIM,2,0.000000,2219882315.237626,0.000000,0.000000,0.000*31
---00000008--- Acq_st=3 2019-4-10 06:55:14 
[16]  B01  f 40   -293.9 4092000.8  0.9  0.0  2  0      1763
[17]  B02  f 39   -306.7 4092000.7  0.9  0.0  2  0      1750
[18]  B03  f 42   -306.5 4092000.7  1.0  0.0  2  0 284118094
[19]  B04  f 40   -310.7 4092000.7  0.9  0.0  2  0 284118086
[20]  B05  f 37   -312.6 4092001.0  0.9  0.0  2  0 284118087
[21]  B07  7 43   -534.2 4092001.4  0.8  1.0  5  0      1675
[22]  B08  7 42  -1820.3 4092004.7  0.9  1.0  5  1      1652
[23]  B10  7 43   -613.2 4092001.6  0.6  1.0  5  0      1614
[24]  B13  7 30  -1926.7 4092005.0  0.6  1.0  5  0       943
[25]  B18  1  7   -739.9 4092003.1 -0.0  0.0  1  1         0
$GNGGA,065515.018,2944.8461,N,10633.0926,E,1,05,53.3,266.0,M,,,,0000*22
$GNRMC,065515.018,A,2944.8461,N,10633.0926,E,7.71,0.00,100419,,*10
$GPGSA,A,3,,,,,,,,,,,,,60.9,53.3,29.4*07
$BDGSA,A,3,01,02,03,04,05,,,,,,,,60.9,53.3,29.4*17
$BDGSV,3,1,09,01,00,000,40,02,00,000,39,03,00,000,42,04,00,000,40*6B
$BDGSV,3,2,09,05,00,000,37,07,00,000,43,08,00,000,41,10,00,000,43*6A
$BDGSV,3,3,09,13,00,000,30*50
$LOGTIM,2,0.000000,173168070.419551,0.000000,0.000000,-55.280*1F
---00000009--- Acq_st=3 2019-4-10 06:55:15 
[16]  B01 1f 40   -293.8 4092000.8  0.9  0.0  2  0 284118892
[17]  B02 1f 40   -306.8 4092000.9  0.9  0.0  2  0 284118893
[18]  B03 1f 43   -306.9 4092000.8  0.9  0.0  2  0 284118895
[19]  B04 1f 38   -310.8 4092000.8  0.9  0.0  2  0 284118886
[20]  B05 1f 37   -312.6 4092000.8  0.9  0.0  2  0 284118887
[21]  B07 1f 42   -534.1 4092001.4  1.0  1.0  5  0      3075
[22]  B08 1f 41  -1820.5 4092004.7  1.0  1.0  5  1      3053
[23]  B10 1f 43   -613.0 4092001.6  1.0  1.0  5  0      3015
[24]  B13 1f 42  -1926.9 4092005.0  1.0  1.0  5  0      2327
[25]  B18  7 30   -740.6 4092001.9  0.5  1.0  5  1      1296
$GNGGA,065516.018,2944.9051,N,10633.0899,E,1,08,1.3,327.9,M,,,,0000*15
$GNRMC,065516.018,A,2944.9051,N,10633.0899,E,0.13,0.00,100419,,*13
$GPGSA,A,3,,,,,,,,,,,,,2.7,1.3,2.4*33
$BDGSA,A,3,01,02,03,04,05,07,10,13,,,,,2.7,1.3,2.4*27
$BDGSV,3,1,12,01,40,125,40,02,46,218,40,03,55,171,43,04,23,109,38*64
$BDGSV,3,2,12,05,26,244,37,07,61,043,42,08,00,000,41,10,62,346,43*62
$BDGSV,3,3,12,13,30,179,42,18,00,000,30,06,10,182,00,09,26,205,00*6F
$LOGTIM,2,0.000000,173168005.490245,0.000000,0.000000,-55.312*14
---00000010--- Acq_st=3 2019-4-10 06:55:16 
[16]  B01 1f 41   -297.5 4092000.7  1.0  0.0  2  0 284119892
[17]  B02 1f 40   -310.2 4092000.8  0.9  0.0  2  0 284119893
[18]  B03 1f 43   -310.1 4092000.8  1.0  0.0  2  0 284119895
[19]  B04 1f 39   -314.4 4092000.9  1.0  0.0  2  0 284119886
[20]  B05 1f 37   -316.7 4092000.8  0.9  0.0  2  0 284119887
[21]  B07 1f 43   -537.9 4092001.4  1.0  1.0  5  0 284119895
[22]  B08 1f 42  -1823.3 4092004.7  1.0  1.0  5  1 284119893
[23]  B10 1f 43   -616.6 4092001.6  1.0  1.0  5  0 284119895
[24]  B13 1f 42  -1930.3 4092005.0  1.0  1.0  5  0 284119887
[25]  B18  7 45   -743.6 4092001.9  1.0  1.0  5  1      2296
[26]  B27  1  7   1686.2 4091996.2 -0.1  0.0  1  0         0
[27]  B30  1  7  -1650.6 4092004.0  0.0  0.0  1  0         0
$GNGGA,065517.595,2944.8929,N,10633.0912,E,1,08,99.0,329.8,M,,,,0000*2C
$GNRMC,065517.595,A,2944.8929,N,10633.0912,E,1.01,0.00,100419,,*15
$GPGSA,A,3,,,,,,,,,,,,,99.0,99.0,99.0*02
$BDGSA,A,3,01,02,03,04,05,07,10,13,,,,,99.0,99.0,99.0*16
$BDGSV,3,1,12,01,40,125,41,02,46,218,40,03,55,171,43,04,23,109,39*64
$BDGSV,3,2,12,05,26,244,37,07,61,043,43,08,00,000,42,10,62,346,43*60
$BDGSV,3,3,12,13,30,179,42,18,00,000,45,06,10,182,00,09,26,205,00*6D
$LOGTIM,2,0.000000,173167934.676603,0.000000,0.000000,-54.596*17
---00000011--- Acq_st=7 2019-4-10 06:55:18 
[16]  B01 1f 40   -300.3 4092000.8  0.9  0.0  2  0 284120892
[17]  B02 1f 37   -313.2 4092000.7  1.0  0.0  2  0 284120893
[18]  B03 1f 42   -312.7 4092000.8  1.0  0.0  2  0 284120895
[19]  B04 1f 39   -317.2 4092000.7  0.9  0.0  2  0 284120886
[20]  B05 1f 39   -318.8 4092000.9  0.9  0.0  2  0 284120887
[21]  B07 1f 43   -540.7 4092001.4  1.0  1.0  5  0 284120895
[22]  B08 1f 42  -1826.7 4092004.8  1.0  1.0  5  1 284120893
[23]  B10 1f 44   -619.6 4092001.6  1.0  1.0  5  0 284120895
[24]  B13 1f 42  -1932.9 4092005.0  1.0  1.0  5  0 284120887
[25]  B18  7 45   -746.5 4092001.9  1.0  1.0  5  1      3296
[26]  B27  1  7   1531.8 4091995.6  0.0  0.0  1  0       919
[27]  B30  1  7  -1772.4 4092004.1 -0.1  0.0  1  0       548
$GNGGA,065518.595,2944.8907,N,10633.0855,E,1,08,99.0,346.9,M,,,,0000*25
$GNRMC,065518.595,A,2944.8907,N,10633.0855,E,1.07,0.00,100419,,*12
$GPGSA,A,3,,,,,,,,,,,,,99.0,99.0,99.0*02
$BDGSA,A,3,01,02,03,04,05,07,10,13,,,,,99.0,99.0,99.0*16
$BDGSV,3,1,12,01,40,125,40,02,46,218,37,03,55,171,42,04,23,109,39*64
$BDGSV,3,2,12,05,26,244,38,07,61,043,43,08,00,000,42,10,62,346,44*68
$BDGSV,3,3,12,13,30,179,42,18,00,000,45,06,10,182,00,09,26,205,00*6D
$LOGTIM,2,0.000000,173167892.334981,0.000000,0.000000,-54.823*1F
---00000012--- Acq_st=7 2019-4-10 06:55:19 
[16]  B01 1f 40   -299.9 4092000.8  0.9  0.0  2  0 284121892
[17]  B02 1f 39   -312.5 4092000.9  0.9  0.0  2  0 284121893
[18]  B03 1f 43   -312.0 4092000.8  0.9  0.0  2  0 284121895
[19]  B04 1f 39   -316.4 4092000.8  0.9  0.0  2  0 284121886
[20]  B05 1f 37   -318.7 4092001.0  0.9  0.0  2  0 284121887
[21]  B07 1f 43   -540.2 4092001.4  1.0  1.0  5  0 284121895
[22]  B08 1f 41  -1825.7 4092004.8  1.0  1.0  5  1 284121893
[23]  B10 1f 43   -619.0 4092001.6  1.0  1.0  5  0 284121895
[24]  B13 1f 42  -1932.6 4092005.0  1.0  1.0  5  0 284121887
[25]  B18  7 45   -745.9 4092001.9  1.0  1.0  5  1      4296
[26]  B27  1  7   1770.9 4091996.3 -0.1  0.0  1  0      1919
[27]  B30  1  9  -1809.5 4092003.9 -0.1  0.0  1  0      1548
$GNGGA,065519.595,2944.9069,N,10633.0906,E,1,08,99.0,347.5,M,,,,0000*2E
$GNRMC,065519.595,A,2944.9069,N,10633.0906,E,0.25,0.00,100419,,*15
$GPGSA,A,3,,,,,,,,,,,,,99.0,99.0,99.0*02
$BDGSA,A,3,01,02,03,04,05,07,10,13,,,,,99.0,99.0,99.0*16
$BDGSV,3,1,12,01,40,125,40,02,46,218,39,03,55,171,43,04,23,109,39*6B
$BDGSV,3,2,12,05,26,244,37,07,61,043,43,08,00,000,41,10,62,346,43*63
$BDGSV,3,3,12,13,30,179,42,18,00,000,45,06,10,182,00,09,26,205,00*6D
$LOGTIM,2,0.000000,0.000000,0.000000,0.000000,-55.794*1F
---00000013--- Acq_st=7 2019-4-10 06:55:20 
[16]  B01 1f 40   -298.5 4092000.8  0.9  0.0  2  0 284122892
[17]  B02 1f 40   -311.2 4092000.9  0.9  0.0  2  0 284122893
[18]  B03 1f 42   -310.6 4092000.9  1.0  0.0  2  0 284122895
[19]  B04 1f 40   -314.8 4092000.8  0.9  0.0  2  0 284122886
[20]  B05 1f 36   -316.4 4092000.9  0.9  0.0  2  0 284122887
[21]  B07 1f 42   -538.4 4092001.4  1.0  1.0  5  0 284122895
[22]  B08 1f 40  -1824.2 4092004.8  1.0  1.0  5  1 284122893
[23]  B10 1f 43   -617.6 4092001.6  1.0  1.0  5  0 284122895
[24]  B13 1f 41  -1930.8 4092005.0  1.0  1.0  5  0 284122887
[25]  B18  7 44   -744.4 4092001.9  1.0  1.0  5  1      5296
[27]  B30  1  7  -1593.3 4092004.6 -0.2  0.0  1  0      2548
$GNGGA,065520.422,2944.9021,N,10633.0895,E,1,08,99.0,342.1,M,,,,0000*2F
$GNRMC,065520.422,A,2944.9021,N,10633.0895,E,0.18,0.00,100419,,*1B
$GPGSA,A,3,,,,,,,,,,,,,99.0,99.0,99.0*02
$BDGSA,A,3,01,02,03,04,05,07,10,13,,,,,99.0,99.0,99.0*16
$BDGSV,3,1,12,01,40,125,40,02,46,218,40,03,55,171,42,04,23,109,40*6A
$BDGSV,3,2,12,05,26,244,36,07,61,043,42,08,00,000,40,10,62,346,43*62
$BDGSV,3,3,12,13,30,179,41,18,00,000,44,06,10,182,00,09,26,205,00*6F
$LOGTIM,2,0.000000,0.000000,0.000000,0.000000,-55.874*1E
---00000014--- Acq_st=3 2019-4-10 06:55:20 
[00]  G01  1 26  -3672.7 2046005.9  0.0  0.0  1  0        17
[01]  G04  1 19   1026.4 2045999.2  0.1  0.0  1  0        13
[16]  B01 1f 41   -296.6 4092000.7  0.9  0.0  2  0 284124297
[17]  B02 1f 40   -308.9 4092000.8  0.9  0.0  2  0 284124298
[18]  B03 1f 41   -308.6 4092000.8  1.0  0.0  2  0 284124300
[19]  B04 1f 39   -313.1 4092000.8  0.9  0.0  2  0 284124291
[20]  B05 1f 37   -314.5 4092000.8  0.9  0.0  2  0 284124292
[21]  B07 1f 42   -536.3 4092001.4  1.0  0.9  5  0 284124300
[22]  B08 1f 41  -1821.9 4092004.8  1.0  1.0  5  1 284124297
[23]  B10 1f 42   -615.3 4092001.6  1.0  1.0  5  0 284124300
[24]  B13 1f 41  -1928.6 4092005.1  1.0  1.1  5  0 284124292
[25]  B18  7 43   -742.1 4092001.9  1.0  1.0  5  1      6701
$GNGGA,065521.000,2944.9026,N,10633.0898,E,1,08,99.0,341.9,M,,,,0000*2B
$GNRMC,065521.000,A,2944.9026,N,10633.0898,E,0.22,0.00,100419,,*1D
$GPGSA,A,3,,,,,,,,,,,,,99.0,99.0,99.0*02
$BDGSA,A,3,01,02,03,04,05,07,10,13,,,,,99.0,99.0,99.0*16
$BDGSV,3,1,12,01,40,125,41,02,46,218,40,03,55,171,41,04,23,109,39*66
$BDGSV,3,2,12,05,26,244,37,07,61,043,42,08,00,000,41,10,62,346,42*63
$BDGSV,3,3,12,13,30,179,41,18,00,000,43,06,10,182,00,09,26,205,00*68
$LOGTIM,2,0.000000,-32.521959,0.000000,0.000000,-55.522*0F
---00000015--- Acq_st=3 2019-4-10 06:55:21 
[00]  G01  7 28  -3679.0 2046004.8 -0.0  1.0 10  0        14
[01]  G04  7 16   1042.4 2045998.6  0.2  0.0 20  0        10
[02]  G07  1 30  -2023.0 2046003.7  0.1  0.0  1  0         7
[03]  G08  1 24   1349.0 2045998.3  0.1  0.0  1  0         2
[04]  G09  1 27   1941.6 2045997.8 -0.1  0.0  1  0        17
[05]  G11  1 23  -2707.8 2046005.4  0.0  0.0  1  0         0
[16]  B01 1f 41   -290.2 4092000.7  0.9  0.0  2  0 284124874
[17]  B02 1f 41   -303.1 4092000.7  0.9  0.0  2  0 284124875
[18]  B03 1f 41   -302.7 4092000.7  0.9  0.0  2  0 284124877
[19]  B04 1f 40   -307.2 4092000.9  0.9  0.0  2  0 284124869
[20]  B05 1f 37   -309.4 4092000.8  0.8  0.0  2  0 284124870
[21]  B07 1f 42   -530.7 4092001.4  1.0  1.0  5  0 284124878
[22]  B08 1f 41  -1816.4 4092004.7  1.0  1.0  5  1 284124875
[23]  B10 1f 42   -609.6 4092001.6  1.0  0.9  5  0 284124877
[24]  B13 1f 42  -1923.0 4092005.0  1.0  1.0  5  0 284124870
[25]  B18 1f 43   -736.3 4092001.9  1.0  0.9  5  1      7279
$GNGGA,065522.000,2944.9031,N,10633.0900,E,1,08,99.0,341.5,M,,,,0000*22
$GNRMC,065522.000,A,2944.9031,N,10633.0900,E,0.45,0.00,100419,,*19
$GPGSA,A,3,,,,,,,,,,,,,99.0,99.0,99.0*02
$BDGSA,A,3,01,02,03,04,05,07,10,13,,,,,99.0,99.0,99.0*16
$GPGSV,1,1,02,01,00,000,28,04,00,000,13*76
$BDGSV,3,1,12,01,40,125,41,02,46,218,41,03,55,171,41,04,23,109,40*69
$BDGSV,3,2,12,05,26,244,37,07,61,043,42,08,00,000,41,10,62,346,42*63
$BDGSV,3,3,12,13,30,179,42,18,00,000,43,06,10,182,00,09,26,205,00*6B
$LOGTIM,2,0.000000,-87.839646,0.000000,0.000000,-54.669*09
---00000016--- Acq_st=3 2019-4-10 06:55:22 
[00]  G01  7 38  -3668.7 2046004.7  0.8  1.0  5  0         3
[01]  G04  7 38   1047.7 2045998.6  0.5  1.0  5  0         5
[02]  G07  7 31  -2022.8 2046002.6  0.6  1.0  5  0        11
[03]  G08  7 30   1352.2 2045998.2  0.5  1.0  5  0        11
[04]  G09  7 28   1947.5 2045997.4 -0.2  1.0 10  0        17
[05]  G11  7 23  -2694.0 2046003.4  0.3  0.0 20  0         2
[06]  G16  1 16   1975.2 2045997.0  0.1  0.0  1  0        16
[07]  G18  1 18  -2685.9 2046004.3  0.0  0.0  1  0         0
[16]  B01 1f 41   -286.3 4092000.8  0.9  0.0  2  0 284125874
[17]  B02 1f 39   -299.1 4092000.8  0.9  0.0  2  0 284125875
[18]  B03 1f 42   -298.6 4092000.8  0.9  0.0  2  0 284125877
[19]  B04 1f 39   -302.9 4092000.9  0.9  0.0  2  0 284125869
[20]  B05 1f 39   -304.7 4092000.8  0.9  0.0  2  0 284125870
[21]  B07 1f 41   -526.4 4092001.4  1.0  0.9  5  0 284125878
[22]  B08 1f 40  -1811.5 4092004.7  1.0  1.0  5  1 284125875
[23]  B10 1f 42   -605.8 4092001.6  1.0  1.0  5  0 284125877
[24]  B13 1f 41  -1918.6 4092005.0  1.0  1.0  5  0 284125870
[25]  B18 1f 43   -732.4 4092001.9  1.0  0.9  5  1 284125879
$GNGGA,065523.000,2944.9096,N,10633.0893,E,1,08,99.0,350.6,M,,,,0000*26
$GNRMC,065523.000,A,2944.9096,N,10633.0893,E,1.07,0.00,100419,,*19
$GPGSA,A,3,,,,,,,,,,,,,99.0,99.0,99.0*02
$BDGSA,A,3,01,02,03,04,05,07,10,13,,,,,99.0,99.0,99.0*16
$GPGSV,2,1,06,01,00,000,38,04,00,000,38,07,00,000,31,08,00,000,30*77
$GPGSV,2,2,06,09,00,000,28,11,00,000,23*7D
$BDGSV,3,1,12,01,40,125,41,02,46,218,39,03,55,171,42,04,23,109,39*6B
$BDGSV,3,2,12,05,26,244,39,07,61,043,41,08,00,000,40,10,62,346,42*6F
$BDGSV,3,3,12,13,30,179,41,18,00,000,43,06,10,182,00,09,26,205,00*68
$LOGTIM,2,0.000000,-145.586491,0.000000,0.000000,-54.259*30
---00000017--- Acq_st=3 2019-4-10 06:55:23 
[00]  G01  7 38  -3670.3 2046004.7  1.0  1.0  5  0         3
[01]  G04  7 38   1047.2 2045998.6  1.0  1.0  5  0         5
[02]  G07  7 42  -2023.8 2046002.6  1.0  1.0  5  0        11
[03]  G08  7 42   1351.0 2045998.2  1.0  1.0  5  0        11
[04]  G09  7 41   1946.0 2045997.4  0.9  1.0  5  0         5
[05]  G11  7 41  -2694.6 2046003.4  0.9  1.0  5  0         8
[06]  G16  7 23   1938.5 2045997.5  0.1  0.0 20  0        16
[07]  G18  7 18  -2671.1 2046003.5  0.3  0.0 20  0         1
[08]  G23  1 25   2813.5 2045995.9  0.1  0.0  1  0        19
[09]  G26  1  7  -1220.5 2046001.1 -0.0  0.0  1  0         0
[10]  G27  1  7   2874.6 2045996.4 -0.0  0.0  1  0         0
[16]  B01 1f 39   -287.2 4092000.8  0.9  0.0  2  0 284126874
[17]  B02 1f 37   -300.0 4092000.7  0.9  0.0  2  0 284126875
[18]  B03 1f 42   -299.7 4092000.7  0.9  0.0  2  0 284126877
[19]  B04 1f 40   -304.2 4092000.9  0.9  0.0  2  0 284126869
[20]  B05 1f 38   -306.2 4092000.6  0.9  0.0  2  0 284126870
[21]  B07 1f 41   -528.0 4092001.4  1.0  0.9  5  0 284126878
[22]  B08 1f 40  -1812.6 4092004.7  1.0  1.0  5  1 284126875
[23]  B10 1f 42   -607.0 4092001.6  1.0  1.0  5  0 284126877
[24]  B13 1f 41  -1919.5 4092005.0  1.0  1.0  5  0 284126870
[25]  B18 1f 43   -733.5 4092001.9  1.0  0.9  5  1 284126879
$GNGGA,065524.000,2944.9068,N,10633.0943,E,1,08,99.0,365.8,M,,,,0000*24
$GNRMC,065524.000,A,2944.9068,N,10633.0943,E,0.32,0.00,100419,,*14
$GPGSA,A,3,,,,,,,,,,,,,99.0,99.0,99.0*02
$BDGSA,A,3,01,02,03,04,05,07,10,13,,,,,99.0,99.0,99.0*16
$GPGSV,2,1,08,01,00,000,38,04,00,000,38,07,00,000,42,08,00,000,42*78
$GPGSV,2,2,08,09,00,000,41,11,00,000,41,16,00,000,23,18,00,000,18*7E
$BDGSV,3,1,12,01,40,125,39,02,46,218,37,03,55,171,42,04,23,109,40*64
$BDGSV,3,2,12,05,26,244,38,07,61,043,41,08,00,000,40,10,62,346,42*6E
$BDGSV,3,3,12,13,30,179,41,18,00,000,43,06,10,182,00,09,26,205,00*68
$LOGTIM,2,0.000000,-197.484446,0.000000,0.000000,-54.335*3D
---00000018--- Acq_st=3 2019-4-10 06:55:24 
[00]  G01  7 38  -3675.1 2046004.7  1.0  1.0  5  0         3
[01]  G04  7 39   1042.7 2045998.6  1.0  1.0  5  0         5
[02]  G07  7 43  -2028.4 2046002.6  1.0  1.0  5  0        11
[03]  G08  7 43   1346.4 2045998.2  1.0  1.0  5  0        11
[04]  G09  7 41   1941.7 2045997.4  1.0  1.0  5  0         5
[05]  G11  7 41  -2698.8 2046003.5  1.0  1.0  5  0         8
[06]  G16  7 31   1939.8 2045997.4  0.5  0.9  5  0        19
[07]  G18  7 41  -2674.8 2046003.5  0.9  1.0  5  0         7
[08]  G23  7 26   2810.1 2045996.3  0.4  0.0 20  0        19
[09]  G26  1  7  -1120.1 2046000.9  0.1  0.0  1  0        12
[10]  G27  1 30   2835.9 2045996.1  0.0  0.0  1  0         7
[11]  G28  1 24  -1992.8 2046004.1 -0.1  0.0  1  0        17
[12]  G30  1 16  -3350.1 2046005.8 -0.0  0.0  1  0         3
[16]  B01 1f 41   -292.4 4092000.8  0.9  0.0  2  0 284127874
[17]  B02 1f 41   -305.3 4092000.7  0.9  0.0  2  0 284127875
[18]  B03 1f 42   -305.1 4092000.8  1.0  0.0  2  0 284127877
[19]  B04 1f 40   -309.2 4092000.6  0.9  0.0  2  0 284127869
[20]  B05 1f 36   -311.0 4092000.8  0.9  0.0  2  0 284127870
[21]  B07 1f 42   -533.4 4092001.4  1.0  1.0  5  0 284127878
[22]  B08 1f 40  -1817.8 4092004.8  1.0  1.0  5  1 284127875
[23]  B10 1f 42   -612.4 4092001.6  1.0  1.0  5  0 284127877
[24]  B13 1f 41  -1924.7 4092005.0  1.0  1.0  5  0 284127870
[25]  B18 1f 43   -739.1 4092001.9  1.0  0.9  5  1 284127879
$GNGGA,065525.000,2944.9013,N,10633.0929,E,1,08,99.0,373.7,M,,,,0000*2D
$GNRMC,065525.000,A,2944.9013,N,10633.0929,E,0.71,0.00,100419,,*12
$GPGSA,A,3,,,,,,,,,,,,,99.0,99.0,99.0*02
$BDGSA,A,3,01,02,03,04,05,07,10,13,,,,,99.0,99.0,99.0*16
$GPGSV,3,1,09,01,00,000,38,04,00,000,39,07,00,000,43,08,00,000,43*79
$GPGSV,3,2,09,09,00,000,41,11,00,000,41,16,00,000,31,18,00,000,41*71
$GPGSV,3,3,09,23,00,000,26*45
$BDGSV,3,1,12,01,40,125,41,02,46,218,41,03,55,171,42,04,23,109,40*6A
$BDGSV,3,2,12,05,26,244,36,07,61,043,42,08,00,000,40,10,62,346,42*63
$BDGSV,3,3,12,13,30,179,41,18,00,000,43,06,10,182,00,09,26,205,00*68
$LOGTIM,2,0.000000,-245.146104,0.000000,0.000000,-54.643*3D
---00000019--- Acq_st=3 2019-4-10 06:55:25 
[00]  G01  f 38  -3681.7 2046004.7  1.0  1.0  5  0         3
[01]  G04  f 39   1036.6 2045998.6  1.0  1.0  5  0         5
[02]  G07  f 43  -2034.5 2046002.6  1.0  1.0  5  0        11
[03]  G08  f 43   1340.2 2045998.2  1.0  1.0  5  0        11
[04]  G09  f 42   1935.4 2045997.5  1.0  1.0  5  0         5
[05]  G11  f 41  -2704.7 2046003.5  1.0  1.0  5  0         8
[06]  G16  f 32   1931.5 2045997.5  1.0  1.0  5  0        19
[07]  G18  f 41  -2681.1 2046003.5  1.0  1.0  5  0         7
[08]  G23  7 41   2803.7 2045996.3  0.9  0.9  5  0         1
[09]  G26  1  7  -1138.8 2046001.2  0.2  0.0  1  0        12
[10]  G27  7 33   2827.8 2045996.3  0.4  1.0  5  0         4
[11]  G28  1 31  -1996.8 2046003.3  0.2  0.0  1  0        17
[12]  G30  7 26  -3341.5 2046004.3  0.1  0.0 20  0         3
[16]  B01 1f 40   -298.5 4092000.8  1.0  0.0  2  0 284128874
[17]  B02 1f 40   -311.4 4092000.8  0.9  0.0  2  0 284128875
[18]  B03 1f 43   -311.0 4092000.7  1.0  0.0  2  0 284128877
[19]  B04 1f 39   -315.3 4092000.8  0.9  0.0  2  0 284128869
[20]  B05 1f 37   -317.0 4092000.9  0.9  0.0  2  0 284128870
[21]  B07 1f 42   -539.3 4092001.4  1.0  1.0  5  0 284128878
[22]  B08 1f 41  -1823.7 4092004.8  1.0  1.0  5  1 284128875
[23]  B10 1f 42   -618.5 4092001.6  1.0  1.0  5  0 284128877
[24]  B13 1f 41  -1930.9 4092005.1  1.0  1.0  5  0 284128870
[25]  B18 1f 44   -745.0 4092001.9  1.0  0.9  5  1 284128879
[26]  B09  1  7   1502.4 4091996.2  0.0  0.0  1  0       188
$GNGGA,065526.000,2944.8988,N,10633.0966,E,1,08,99.0,393.0,M,,,,0000*26
$GNRMC,065526.000,A,2944.8988,N,10633.0966,E,1.11,0.00,100419,,*17
$GPGSA,A,3,,,,,,,,,,,,,99.0,99.0,99.0*02
$BDGSA,A,3,01,02,03,04,05,07,10,13,,,,,99.0,99.0,99.0*16
$GPGSV,3,1,11,01,00,000,38,04,00,000,39,07,00,000,43,08,00,000,43*70
$GPGSV,3,2,11,09,00,000,42,11,00,000,41,16,00,000,32,18,00,000,41*78
$GPGSV,3,3,11,23,00,000,41,27,00,000,33,30,00,000,26*4F
$BDGSV,3,1,12,01,40,125,40,02,46,218,40,03,55,171,42,04,23,109,39*64
$BDGSV,3,2,12,05,26,244,37,07,61,043,42,08,00,000,41,10,62,346,42*63
$BDGSV,3,3,12,13,30,179,41,18,00,000,44,06,10,182,00,09,26,205,00*6F
$LOGTIM,2,0.000000,-290.867460,0.000000,0.000000,-54.864*33
---00000020--- Acq_st=3 2019-4-10 06:55:26 
[00]  G01  f 39  -3681.7 2046004.8  1.0  1.0  5  0 284143923
[01]  G04  f 39   1037.0 2045998.6  1.0  1.0  5  0 284143925
[02]  G07  f 44  -2034.4 2046002.6  1.0  1.0  5  0 284143931
[03]  G08  f 44   1340.2 2045998.2  1.0  1.0  5  0 284143931
[04]  G09  f 43   1935.1 2045997.5  1.0  1.0  5  0 284143925
[05]  G11  f 42  -2704.9 2046003.5  1.0  1.0  5  0 284143928
[06]  G16  f 32   1932.3 2045997.5  1.0  0.8  5  0 284143919
[07]  G18  f 42  -2681.2 2046003.5  1.0  1.0  5  0 284143927
[08]  G23  7 42   2803.5 2045996.4  1.0  1.0  5  0         1
[09]  G26  1  7  -1110.0 2046001.0 -0.0  0.0  1  0        12
[10]  G27  7 41   2827.2 2045996.3  1.0  1.0  5  0         4
[11]  G28  7 25  -2025.8 2046002.5  0.0  0.5 20  0        18
[12]  G30  7 38  -3342.8 2046004.3  1.0  1.0  5  0         3
[16]  B01 1f 40   -299.5 4092000.9  0.9  0.0  2  0 284129874
[17]  B02 1f 40   -311.7 4092000.7  0.9  0.0  2  0 284129875
[18]  B03 1f 42   -311.9 4092000.8  1.0  0.0  2  0 284129877
[19]  B04 1f 40   -315.6 4092000.8  0.9  0.0  2  0 284129869
[20]  B05 1f 38   -317.9 4092000.8  0.9  0.0  2  0 284129870
[21]  B07 1f 42   -539.8 4092001.4  1.0  1.0  5  0 284129878
[22]  B08 1f 41  -1824.0 4092004.8  1.0  1.0  5  1 284129875
[23]  B10 1f 42   -619.0 4092001.6  1.0  1.0  5  0 284129877
[24]  B13 1f 41  -1931.6 4092005.1  1.0  1.0  5  0 284129870
[25]  B18 1f 44   -745.6 4092001.9  1.0  0.9  5  1 284129879
[26]  B09  1  7   1502.8 4091995.7  0.3  0.0  1  0      1188
$GNGGA,065527.000,2944.8994,N,10633.0968,E,1,08,99.0,379.5,M,,,,0000*25
$GNRMC,065527.000,A,2944.8994,N,10633.0968,E,0.79,0.00,100419,,*1A
$GPGSA,A,3,,,,,,,,,,,,,99.0,99.0,99.0*02
$BDGSA,A,3,01,02,03,04,05,07,10,13,,,,,99.0,99.0,99.0*16
$GPGSV,3,1,12,01,00,000,39,04,00,000,39,07,00,000,44,08,00,000,44*72
$GPGSV,3,2,12,09,00,000,43,11,00,000,42,16,00,000,32,18,00,000,42*7A
$GPGSV,3,3,12,23,00,000,42,27,00,000,41,28,00,000,25,30,00,000,38*78
$BDGSV,3,1,12,01,40,125,40,02,46,218,40,03,55,171,42,04,23,109,40*6A
$BDGSV,3,2,12,05,26,244,38,07,61,043,42,08,00,000,41,10,62,346,42*6C
$BDGSV,3,3,12,13,30,179,41,18,00,000,44,06,10,182,00,09,26,205,00*6F
$LOGTIM,2,0.000000,-350.307019,0.000000,0.000000,-55.283*3B
---00000021--- Acq_st=3 2019-4-10 06:55:27 
[00]  G01  f 39  -3682.0 2046004.8  1.0  1.0  5  0 284144923
[01]  G04  f 41   1036.2 2045998.6  1.0  1.0  5  0 284144925
[02]  G07  f 47  -2034.9 2046002.6  1.0  1.0  5  0 284144931
[03]  G08  f 46   1339.6 2045998.2  1.0  1.0  5  0 284144931
[04]  G09  f 43   1934.5 2045997.5  1.0  1.0  5  0 284144925
[05]  G11  f 44  -2705.6 2046003.5  1.0  1.0  5  0 284144928
[06]  G16  f 33   1930.5 2045997.6  1.0  0.9  5  0 284144919
[07]  G18  f 43  -2681.7 2046003.5  1.0  1.0  5  0 284144927
[08]  G23  7 43   2802.4 2045996.3  1.0  1.0  5  0         1
[10]  G27  7 42   2826.3 2045996.3  1.0  1.0  5  0         4
[12]  G30  7 39  -3343.2 2046004.3  1.0  1.0  5  0         3
[16]  B01 1f 39   -300.2 4092001.0  1.0  0.0  2  0 284130874
[17]  B02 1f 39   -313.0 4092000.8  1.0  0.0  2  0 284130875
[18]  B03 1f 41   -313.1 4092000.8  1.0  0.0  2  0 284130877
[19]  B04 1f 39   -316.7 4092000.7  0.9  0.0  2  0 284130869
[20]  B05 1f 37   -318.8 4092000.9  0.9  0.0  2  0 284130870
[21]  B07 1f 42   -540.9 4092001.4  1.0  1.0  5  0 284130878
[22]  B08 1f 41  -1825.2 4092004.7  1.0  1.0  5  1 284130875
[23]  B10 1f 43   -620.1 4092001.6  1.0  1.0  5  0 284130877
[24]  B13 1f 41  -1932.4 4092005.0  1.0  1.0  5  0 284130870
[25]  B18 1f 45   -746.7 4092001.9  1.0  1.0  5  1 284130879
[26]  B09  7 27   1501.4 4091996.0  0.5  0.0 10  0      2188
$GNGGA,065528.000,2944.9002,N,10633.0972,E,1,08,99.0,367.9,M,,,,0000*25
$GNRMC,065528.000,A,2944.9002,N,10633.0972,E,0.65,0.00,100419,,*14
$GPGSA,A,3,,,,,,,,,,,,,99.0,99.0,99.0*02
$BDGSA,A,3,01,02,03,04,05,07,10,13,,,,,99.0,99.0,99.0*16
$GPGSV,3,1,11,01,00,000,39,04,00,000,41,07,00,000,47,08,00,000,46*7F
$GPGSV,3,2,11,09,00,000,43,11,00,000,44,16,00,000,33,18,00,000,43*7F
$GPGSV,3,3,11,23,00,000,43,27,00,000,42,30,00,000,39*45
$BDGSV,3,1,12,01,40,125,40,02,46,218,39,03,55,171,41,04,23,109,38*68
$BDGSV,3,2,12,05,26,244,37,07,61,043,42,08,00,000,41,10,62,346,43*62
$BDGSV,3,3,12,13,30,179,41,18,00,000,45,09,26,205,27,06,10,182,00*6B
$LOGTIM,2,0.000000,-410.221870,0.000000,0.000000,-55.837*3F
---00000022--- Acq_st=3 2019-4-10 06:55:28 
[00]  G01  f 39  -3684.5 2046004.8  1.0  0.9  5  0 284145923
[01]  G04  f 40   1034.8 2045998.7  1.0  1.0  5  0 284145925
[02]  G07  f 45  -2036.4 2046002.6  1.0  1.0  5  0 284145931
[03]  G08  f 45   1337.9 2045998.3  1.0  1.0  5  0 284145931
[04]  G09  f 42   1932.4 2045997.5  1.0  1.0  5  0 284145925
[05]  G11  f 43  -2707.1 2046003.5  1.0  1.0  5  0 284145928
[06]  G16  f 33   1928.9 2045997.5  1.0  1.0  5  0 284145919
[07]  G18  f 42  -2682.9 2046003.5  1.0  1.0  5  0 284145927
[08]  G23  7 42   2800.1 2045996.4  1.0  1.0  5  0         1
[10]  G27  7 41   2824.9 2045996.3  1.0  1.0  5  0         4
[12]  G30  7 39  -3345.4 2046004.3  1.0  1.0  5  0         3
[16]  B01 1f 40   -302.0 4092000.8  0.9  0.0  2  0 284131874
[17]  B02 1f 40   -314.7 4092000.7  0.9  0.0  2  0 284131875
[18]  B03 1f 41   -314.4 4092000.8  0.9  0.0  2  0 284131877
[19]  B04 1f 40   -318.7 4092000.8  0.9  0.0  2  0 284131869
[20]  B05 1f 39   -320.7 4092000.8  0.9  0.0  2  0 284131870
[21]  B07 1f 43   -542.9 4092001.4  1.0  1.0  5  0 284131878
[22]  B08 1f 41  -1827.0 4092004.8  1.0  1.0  5  1 284131875
[23]  B10 1f 43   -622.1 4092001.6  1.0  1.0  5  0 284131877
[24]  B13 1f 41  -1934.2 4092005.0  1.0  1.0  5  0 284131870
[25]  B18 1f 44   -748.3 4092001.9  1.0  0.9  5  1 284131879
[26]  B09  7 39   1499.4 4091996.1  1.0  1.0  5  0      3171
$GNGGA,065529.000,2944.9037,N,10633.1023,E,1,08,99.0,366.0,M,,,,0000*26
$GNRMC,065529.000,A,2944.9037,N,10633.1023,E,0.38,0.00,100419,,*17
$GPGSA,A,3,,,,,,,,,,,,,99.0,99.0,99.0*02
$BDGSA,A,3,01,02,03,04,05,07,10,13,,,,,99.0,99.0,99.0*16
$GPGSV,3,1,11,01,00,000,39,04,00,000,40,07,00,000,45,08,00,000,45*7F
$GPGSV,3,2,11,09,00,000,42,11,00,000,43,16,00,000,33,18,00,000,42*78
$GPGSV,3,3,11,23,00,000,42,27,00,000,41,30,00,000,39*47
$BDGSV,3,1,12,01,40,125,40,02,46,218,40,03,55,171,41,04,23,109,40*69
$BDGSV,3,2,12,05,26,244,39,07,61,043,43,08,00,000,41,10,62,346,43*6D
$BDGSV,3,3,12,13,30,179,41,18,00,000,44,09,26,205,39,06,10,182,00*65
$LOGTIM,2,0.000000,-470.245981,0.000000,0.000000,-56.292*32
---00000023--- Acq_st=3 2019-4-10 06:55:29 
[00]  G01  f 39  -3684.9 2046004.8  1.0  1.0  5  0 284146923
[01]  G04  f 39   1034.6 2045998.7  1.0  1.0  5  0 284146925
[02]  G07  f 43  -2036.6 2046002.6  1.0  1.0  5  0 284146931
[03]  G08  f 43   1337.6 2045998.2  1.0  1.0  5  0 284146931
[04]  G09  f 41   1932.9 2045997.5  1.0  1.0  5  0 284146925
[05]  G11  f 42  -2706.8 2046003.5  1.0  1.0  5  0 284146928
[06]  G16  f 32   1928.6 2045997.5  1.0  0.9  5  0 284146919
[07]  G18  f 41  -2682.9 2046003.5  1.0  1.0  5  0 284146927
[08]  G23  7 40   2799.7 2045996.3  1.0  0.9  5  0         1
[10]  G27  7 40   2824.5 2045996.3  1.0  1.0  5  0         4
[12]  G30  7 38  -3345.6 2046004.3  1.0  1.0  5  0         3
[16]  B01 1f 41   -302.7 4092000.8  0.9  0.0  2  0 284132874
[17]  B02 1f 40   -315.4 4092000.8  0.9  0.0  2  0 284132875
[18]  B03 1f 42   -315.0 4092000.9  0.9  0.0  2  0 284132877
[19]  B04 1f 40   -319.1 4092000.8  0.9  0.0  2  0 284132869
[20]  B05 1f 38   -321.4 4092000.8  0.9  0.0  2  0 284132870
[21]  B07 1f 42   -543.4 4092001.4  1.0  1.0  5  0 284132878
[22]  B08 1f 40  -1827.5 4092004.8  1.0  1.0  5  1 284132875
[23]  B10 1f 42   -622.5 4092001.6  1.0  1.0  5  0 284132877
[24]  B13 1f 40  -1934.6 4092005.1  1.0  1.0  5  0 284132870
[25]  B18 1f 43   -748.7 4092001.9  1.0  0.9  5  1 284132879
[26]  B09  7 39   1499.1 4091996.0  1.0  1.0  5  0      4171
$GNGGA,065530.000,2944.9046,N,10633.1024,E,1,08,99.0,356.7,M,,,,0000*2B
$GNRMC,065530.000,A,2944.9046,N,10633.1024,E,0.28,0.00,100419,,*1F
$GPGSA,A,3,,,,,,,,,,,,,99.0,99.0,99.0*02
$BDGSA,A,3,01,02,03,04,05,07,10,13,,,,,99.0,99.0,99.0*16
$GPGSV,3,1,11,01,00,000,39,04,00,000,39,07,00,000,43,08,00,000,43*71
$GPGSV,3,2,11,09,00,000,41,11,00,000,42,16,00,000,32,18,00,000,41*78
$GPGSV,3,3,11,23,00,000,40,27,00,000,40,30,00,000,38*45
$BDGSV,3,1,12,01,40,125,41,02,46,218,40,03,55,171,42,04,23,109,40*6B
$BDGSV,3,2,12,05,26,244,38,07,61,043,42,08,00,000,40,10,62,346,42*6D
$BDGSV,3,3,12,13,30,179,40,18,00,000,43,09,26,205,39,06,10,182,00*63
$LOGTIM,2,0.000000,-530.643279,0.000000,0.000000,-56.535*33
---00000024--- Acq_st=3 2019-4-10 06:55:30 
[00]  G01  f 39  -3681.8 2046004.8  1.0  1.0  5  0 284147923
[01]  G04  f 38   1038.2 2045998.6  1.0  1.0  5  0 284147925
[02]  G07  f 43  -2033.4 2046002.6  1.0  1.0  5  0 284147931
[03]  G08  f 42   1340.9 2045998.3  1.0  1.0  5  0 284147931
[04]  G09  f 41   1935.8 2045997.5  1.0  1.0  5  0 284147925
[05]  G11  f 41  -2704.0 2046003.5  1.0  1.0  5  0 284147928
[06]  G16  f 31   1931.6 2045997.3  0.9  0.8  5  0 284147919
[07]  G18  f 40  -2679.9 2046003.5  1.0  1.0  5  0 284147927
[08]  G23  7 40   2802.7 2045996.4  1.0  1.0  5  0         1
[10]  G27  7 40   2827.1 2045996.3  1.0  1.0  5  0         4
[12]  G30  7 38  -3343.1 2046004.3  1.0  1.0  5  0         3
[16]  B01 1f 41   -300.3 4092000.8  0.9  0.0  2  0 284133874
[17]  B02 1f 39   -312.8 4092000.9  0.9  0.0  2  0 284133875
[18]  B03 1f 43   -312.4 4092000.7  0.9  0.0  2  0 284133877
[19]  B04 1f 39   -316.6 4092000.7  0.9  0.0  2  0 284133869
[20]  B05 1f 37   -318.8 4092000.9  0.9  0.0  2  0 284133870
[21]  B07 1f 41   -540.7 4092001.4  1.0  1.0  5  0 284133878
[22]  B08 1f 40  -1824.8 4092004.8  1.0  1.0  5  1 284133875
[23]  B10 1f 41   -619.8 4092001.6  1.0  0.9  5  0 284133877
[24]  B13 1f 41  -1932.3 4092005.0  1.0  1.0  5  0 284133870
[25]  B18 1f 43   -746.4 4092002.0  1.0  0.9  5  1 284133879
[26]  B09  7 39   1501.6 4091996.1  1.0  1.0  5  0      5171
[27]  B27  1  7   1267.3 4091996.3 -0.2  0.0  1  0       327
$GNGGA,065531.000,2944.9021,N,10633.1017,E,1,08,99.0,343.7,M,,,,0000*2F
$GNRMC,065531.000,A,2944.9021,N,10633.1017,E,0.10,0.00,100419,,*14
$GPGSA,A,3,,,,,,,,,,,,,99.0,99.0,99.0*02
$BDGSA,A,3,01,02,03,04,05,07,10,13,,,,,99.0,99.0,99.0*16
$GPGSV,3,1,11,01,00,000,39,04,00,000,38,07,00,000,43,08,00,000,42*71
$GPGSV,3,2,11,09,00,000,41,11,00,000,41,16,00,000,31,18,00,000,40*79
$GPGSV,3,3,11,23,00,000,40,27,00,000,40,30,00,000,38*45
$BDGSV,3,1,12,01,40,125,41,02,46,218,39,03,55,171,43,04,23,109,39*6A
$BDGSV,3,2,12,05,26,244,37,07,61,043,41,08,00,000,40,10,62,346,41*62
$BDGSV,3,3,12,13,30,179,41,18,00,000,43,09,26,205,39,06,10,182,00*62
$LOGTIM,2,0.000000,-597.102461,0.000000,0.000000,-56.592*3E
---00000025--- Acq_st=7 2019-4-10 06:55:31 
[00]  G01  f 38  -3681.0 2046004.8  1.0  0.9  5  0 284148923
[01]  G04  f 38   1039.4 2045998.7  1.0  1.0  5  0 284148925
[02]  G07  f 42  -2032.1 2046002.6  1.0  1.0  5  0 284148931
[03]  G08  f 42   1342.1 2045998.3  1.0  1.0  5  0 284148931
[04]  G09  f 40   1937.1 2045997.5  1.0  1.0  5  0 284148925
[05]  G11  f 41  -2702.8 2046003.5  1.0  1.0  5  0 284148928
[06]  G16  f 31   1931.4 2045997.5  0.9  0.8  5  0 284148919
[07]  G18  f 40  -2678.5 2046003.5  1.0  1.0  5  0 284148927
[08]  G23  f 40   2803.4 2045996.4  1.0  1.0  5  0         1
[10]  G27  f 39   2828.2 2045996.4  1.0  1.0  5  0         4
[12]  G30  f 37  -3341.8 2046004.3  1.0  0.9  5  0         3
[16]  B01 1f 40   -299.1 4092000.7  0.9  0.0  2  0 284134874
[17]  B02 1f 41   -311.6 4092000.8  0.9  0.0  2  0 284134875
[18]  B03 1f 41   -311.0 4092000.8  1.0  0.0  2  0 284134877
[19]  B04 1f 40   -315.3 4092000.9  0.9  0.0  2  0 284134869
[20]  B05 1f 37   -317.8 4092001.0  0.9  0.0  2  0 284134870
[21]  B07 1f 41   -539.7 4092001.4  1.0  1.0  5  0 284134878
[22]  B08 1f 40  -1823.2 4092004.7  1.0  1.0  5  1 284134875
[23]  B10 1f 42   -619.0 4092001.6  1.0  1.0  5  0 284134877
[24]  B13 1f 41  -1930.9 4092005.0  1.0  1.0  5  0 284134870
[25]  B18 1f 43   -745.3 4092001.9  1.0  0.9  5  1 284134879
[26]  B09  7 39   1502.4 4091996.0  1.0  1.0  5  0      6171
[27]  B27  7 31   1269.1 4091996.7  0.5  1.0  5  0      1325
$GNGGA,065532.000,2944.9041,N,10633.0938,E,1,08,99.0,339.4,M,,,,0000*21
$GNRMC,065532.000,A,2944.9041,N,10633.0938,E,0.61,0.00,100419,,*12
$GPGSA,A,3,,,,,,,,,,,,,99.0,99.0,99.0*02
$BDGSA,A,3,01,02,03,04,05,07,10,13,,,,,99.0,99.0,99.0*16
$GPGSV,3,1,11,01,00,000,38,04,00,000,38,07,00,000,42,08,00,000,42*71
$GPGSV,3,2,11,09,00,000,40,11,00,000,41,16,00,000,31,18,00,000,40*78
$GPGSV,3,3,11,23,00,000,40,27,00,000,39,30,00,000,37*44
$BDGSV,3,1,12,01,40,125,40,02,46,218,41,03,55,171,41,04,23,109,40*68
$BDGSV,3,2,12,05,26,244,37,07,61,043,41,08,00,000,40,10,62,346,42*61
$BDGSV,3,3,12,13,30,179,41,18,00,000,43,09,26,205,39,27,57,047,31*68
$LOGTIM,2,0.000000,-663.722960,0.000000,0.000000,-56.830*3B
---00000026--- Acq_st=3 2019-4-10 06:55:32 
[00]  G01  f 38  -3682.6 2046004.8  1.0  1.0  5  0 284149923
[01]  G04  f 38   1037.4 2045998.6  1.0  1.0  5  0 284149925
[02]  G07  f 42  -2033.7 2046002.6  1.0  1.0  5  0 284149931
[03]  G08  f 42   1340.5 2045998.3  1.0  1.0  5  0 284149931
[04]  G09  f 40   1935.3 2045997.5  1.0  1.0  5  0 284149925
[05]  G11  f 41  -2704.1 2046003.5  1.0  1.0  5  0 284149928
[06]  G16  f 31   1930.0 2045997.5  0.9  0.9  5  0 284149919
[07]  G18  f 40  -2680.2 2046003.5  1.0  1.0  5  0 284149927
[08]  G23  f 40   2801.6 2045996.3  1.0  0.9  5  0 284149921
[09]  G05  1  7   1677.0 2045997.6 -0.1  0.0  1  0        12
[10]  G27  f 39   2826.3 2045996.3  1.0  1.0  5  0 284149924
[12]  G30  f 38  -3343.6 2046004.4  1.0  1.0  5  0 284149923
[16]  B01 1f 40   -300.5 4092000.7  0.9  0.0  2  0 284135874
[17]  B02 1f 40   -313.6 4092000.8  0.9  0.0  2  0 284135875
[18]  B03 1f 42   -313.1 4092000.8  1.0  0.0  2  0 284135877
[19]  B04 1f 39   -317.3 4092000.8  0.9  0.0  2  0 284135869
[20]  B05 1f 36   -319.2 4092000.7  0.9  0.0  2  0 284135870
[21]  B07 1f 41   -541.9 4092001.4  1.0  0.9  5  0 284135878
[22]  B08 1f 40  -1825.0 4092004.8  1.0  1.0  5  1 284135875
[23]  B10 1f 42   -621.2 4092001.6  1.0  0.9  5  0 284135877
[24]  B13 1f 41  -1933.0 4092005.1  1.0  1.0  5  0 284135870
[25]  B18 1f 43   -747.2 4092002.0  1.0  0.9  5  1 284135879
[26]  B09  7 39   1500.6 4091996.1  1.0  1.0  5  0      7171
[27]  B27  7 44   1267.3 4091996.7  1.0  1.0  5  0      2325
$GNGGA,065533.000,2944.9091,N,10633.0889,E,1,08,99.0,337.4,M,,,,0000*28
$GNRMC,065533.000,A,2944.9091,N,10633.0889,E,0.90,0.00,100419,,*1B
$GPGSA,A,3,,,,,,,,,,,,,99.0,99.0,99.0*02
$BDGSA,A,3,01,02,03,04,05,07,10,13,,,,,99.0,99.0,99.0*16
$GPGSV,3,1,11,01,00,000,38,04,00,000,38,07,00,000,42,08,00,000,42*71
$GPGSV,3,2,11,09,00,000,40,11,00,000,41,16,00,000,31,18,00,000,40*78
$GPGSV,3,3,11,23,00,000,40,27,00,000,39,30,00,000,38*4B
$BDGSV,3,1,12,01,40,125,40,02,46,218,40,03,55,171,42,04,23,109,39*64
$BDGSV,3,2,12,05,26,244,36,07,61,043,41,08,00,000,40,10,62,346,42*60
$BDGSV,3,3,12,13,30,179,41,18,00,000,43,09,26,205,39,27,57,047,44*6A
$LOGTIM,2,0.000000,-725.090300,0.000000,0.000000,-57.146*33
---00000027--- Acq_st=3 2019-4-10 06:55:33 
[00]  G01  f 38  -3681.6 2046004.8  1.0  1.0  5  0 284150923
[01]  G04  f 38   1038.5 2045998.6  1.0  1.0  5  0 284150925
[02]  G07  f 43  -2032.9 2046002.6  1.0  1.0  5  0 284150931
[03]  G08  f 43   1341.2 2045998.3  1.0  1.0  5  0 284150931
[04]  G09  f 41   1935.7 2045997.5  1.0  1.0  5  0 284150925
[05]  G11  f 42  -2703.3 2046003.5  1.0  1.0  5  0 284150928
[06]  G16  f 32   1931.0 2045997.5  1.0  0.8  5  0 284150919
[07]  G18  f 40  -2679.0 2046003.5  1.0  1.0  5  0 284150927
[08]  G23  f 41   2801.8 2045996.4  1.0  1.0  5  0 284150921
[09]  G05  1  7   1586.2 2045997.8 -0.1  0.0  1  0         8
[10]  G27  f 40   2826.6 2045996.3  1.0  1.0  5  0 284150924
[11]  G15  1  7   -686.8 2046000.1  0.1  0.0  1  0        18
[12]  G30  f 38  -3342.8 2046004.3  1.0  1.0  5  0 284150923
[16]  B01 1f 40   -301.0 4092000.7  0.9  0.0  2  0 284136874
[17]  B02 1f 40   -313.8 4092000.8  0.9  0.0  2  0 284136875
[18]  B03 1f 42   -313.4 4092000.8  1.0  0.0  2  0 284136877
[19]  B04 1f 40   -317.8 4092000.8  1.0  0.0  2  0 284136869
[20]  B05 1f 38   -320.0 4092000.8  0.9  0.0  2  0 284136870
[21]  B07 1f 42   -541.9 4092001.4  1.0  0.9  5  0 284136878
[22]  B08 1f 41  -1825.0 4092004.8  1.0  1.0  5  1 284136875
[23]  B10 1f 43   -621.0 4092001.6  1.0  1.0  5  0 284136877
[24]  B13 1f 41  -1932.9 4092005.1  1.0  1.0  5  0 284136870
[25]  B18 1f 44   -747.3 4092001.9  1.0  1.0  5  1 284136879
[26]  B09 1f 39   1500.6 4091996.1  1.0  1.1  5  0      8171
[27]  B27 1f 44   1267.5 4091996.7  1.0  1.0  5  0      3325
$GNGGA,065534.000,2944.9056,N,10633.0908,E,1,10,99.0,327.6,M,,,,0000*26
$GNRMC,065534.000,A,2944.9056,N,10633.0908,E,0.36,0.00,100419,,*13
$GPGSA,A,3,,,,,,,,,,,,,99.0,99.0,99.0*02
$BDGSA,A,3,01,02,03,04,05,07,09,10,13,27,,,99.0,99.0,99.0*1A
$GPGSV,3,1,11,01,00,000,38,04,00,000,38,07,00,000,43,08,00,000,43*71
$GPGSV,3,2,11,09,00,000,41,11,00,000,42,16,00,000,32,18,00,000,40*79
$GPGSV,3,3,11,23,00,000,41,27,00,000,40,30,00,000,38*44
$BDGSV,3,1,12,01,40,125,40,02,46,218,40,03,55,171,42,04,23,109,40*6A
$BDGSV,3,2,12,05,26,244,38,07,61,043,42,08,00,000,41,10,62,346,43*6D
$BDGSV,3,3,12,13,30,179,41,18,00,000,44,09,26,205,39,27,57,047,44*6D
$LOGTIM,2,0.000000,-782.585255,0.000000,0.000000,-56.968*3B
---00000028--- Acq_st=3 2019-4-10 06:55:34 
[00]  G01  f 39  -3679.6 2046004.8  1.0  0.9  5  0 284151923
[01]  G04  f 39   1041.5 2045998.6  1.0  1.0  5  0 284151925
[02]  G07  f 44  -2030.1 2046002.6  1.0  1.0  5  0 284151931
[03]  G08  f 44   1344.0 2045998.2  1.0  1.0  5  0 284151931
[04]  G09  f 42   1938.8 2045997.5  1.0  1.0  5  0 284151925
[05]  G11  f 42  -2700.6 2046003.5  1.0  1.0  5  0 284151928
[06]  G16  f 33   1932.5 2045997.4  1.0  1.0  5  0 284151919
[07]  G18  f 41  -2676.8 2046003.5  1.0  1.0  5  0 284151927
[08]  G23  f 41   2804.4 2045996.4  1.0  1.0  5  0 284151921
[09]  G05  1  7   1559.3 2045998.6  0.2  0.0  1  0         8
[10]  G27  f 41   2829.4 2045996.4  1.0  1.0  5  0 284151924
[11]  G15  1 16   -756.7 2045999.6 -0.1  0.0  1  0        13
[12]  G30  f 39  -3341.0 2046004.3  1.0  1.0  5  0 284151923
[16]  B01 1f 41   -298.4 4092000.7  1.0  0.0  2  0 284137874
[17]  B02 1f 39   -311.0 4092000.9  1.0  0.0  2  0 284137875
[18]  B03 1f 41   -310.8 4092000.7  1.0  0.0  2  0 284137877
[19]  B04 1f 40   -315.0 4092000.9  0.9  0.0  2  0 284137869
[20]  B05 1f 37   -317.2 4092000.9  0.9  0.0  2  0 284137870
[21]  B07 1f 43   -539.3 4092001.4  1.0  1.0  5  0 284137878
[22]  B08 1f 41  -1822.5 4092004.7  1.0  1.0  5  1 284137875
[23]  B10 1f 43   -618.7 4092001.6  1.0  1.0  5  0 284137877
[24]  B13 1f 41  -1930.4 4092005.1  1.0  1.0  5  0 284137870
[25]  B18 1f 45   -744.8 4092001.9  1.0  1.0  5  1 284137879
[26]  B09 1f 39   1503.4 4091996.0  1.0  1.0  5  0 284137871
[27]  B27 1f 46   1270.5 4091996.7  1.0  1.0  5  0 284137925
$GNGGA,065535.000,2944.9037,N,10633.0949,E,1,10,99.0,322.5,M,,,,0000*23
$GNRMC,065535.000,A,2944.9037,N,10633.0949,E,0.30,0.00,100419,,*16
$GPGSA,A,3,,,,,,,,,,,,,99.0,99.0,99.0*02
$BDGSA,A,3,01,02,03,04,05,07,09,10,13,27,,,99.0,99.0,99.0*1A
$GPGSV,3,1,11,01,00,000,39,04,00,000,39,07,00,000,44,08,00,000,44*71
$GPGSV,3,2,11,09,00,000,42,11,00,000,42,16,00,000,33,18,00,000,41*7A
$GPGSV,3,3,11,23,00,000,41,27,00,000,41,30,00,000,39*44
$BDGSV,3,1,12,01,40,125,41,02,46,218,39,03,55,171,41,04,23,109,40*66
$BDGSV,3,2,12,05,26,244,37,07,61,043,43,08,00,000,41,10,62,346,43*63
$BDGSV,3,3,12,13,30,179,41,18,00,000,45,09,26,205,39,27,57,047,46*6E
$LOGTIM,2,0.000000,-839.875404,0.000000,0.000000,-56.948*36
---00000029--- Acq_st=3 2019-4-10 06:55:35 
[00]  G01  f 39  -3683.1 2046004.7  1.0  1.0  5  0 284152923
[01]  G04  f 39   1039.0 2045998.6  1.0  1.0  5  0 284152925
[02]  G07  f 44  -2032.7 2046002.6  1.0  1.0  5  0 284152931
[03]  G08  f 44   1341.1 2045998.3  1.0  1.0  5  0 284152930
[04]  G09  f 43   1935.4 2045997.5  1.0  1.0  5  0 284152925
[05]  G11  f 43  -2703.3 2046003.5  1.0  1.0  5  0 284152928
[06]  G16  f 33   1929.4 2045997.6  1.0  0.9  5  0 284152919
[07]  G18  f 41  -2679.5 2046003.5  1.0  1.0  5  0 284152927
[08]  G23  f 42   2801.4 2045996.4  1.0  1.0  5  0 284152921
[10]  G27  f 41   2826.0 2045996.3  1.0  1.0  5  0 284152924
[11]  G15  1  7   -722.7 2045999.3 -0.1  0.0  1  0        13
[12]  G30  f 39  -3343.9 2046004.3  1.0  1.0  5  0 284152923
[13]  G28  1 24  -2001.2 2046003.9  0.0  0.0  1  0        13
[16]  B01 1f 40   -301.8 4092000.8  0.9  0.0  2  0 284138874
[17]  B02 1f 39   -314.6 4092000.9  1.0  0.0  2  0 284138875
[18]  B03 1f 42   -314.2 4092000.8  1.0  0.0  2  0 284138877
[19]  B04 1f 39   -318.7 4092000.7  1.0  0.0  2  0 284138869
[20]  B05 1f 38   -320.9 4092000.5  0.9  0.0  2  0 284138870
[21]  B07 1f 43   -542.8 4092001.4  1.0  1.0  5  0 284138878
[22]  B08 1f 41  -1825.4 4092004.8  1.0  1.0  5  1 284138875
[23]  B10 1f 43   -622.1 4092001.6  1.0  1.0  5  0 284138877
[24]  B13 1f 42  -1933.7 4092005.0  1.0  1.0  5  0 284138870
[25]  B18 1f 45   -748.3 4092002.0  1.0  1.0  5  1 284138879
[26]  B09 1f 39   1500.1 4091996.1  1.0  1.0  5  0 284138871
[27]  B27 1f 46   1267.7 4091996.7  1.0  1.0  5  0 284138925
$GNGGA,065536.000,2944.9082,N,10633.0980,E,1,10,99.0,321.1,M,,,,0000*2C
$GNRMC,065536.000,A,2944.9082,N,10633.0980,E,0.59,0.00,100419,,*11
$GPGSA,A,3,,,,,,,,,,,,,99.0,99.0,99.0*02
$BDGSA,A,3,01,02,03,04,05,07,09,10,13,27,,,99.0,99.0,99.0*1A
$GPGSV,3,1,11,01,00,000,39,04,00,000,39,07,00,000,44,08,00,000,44*71
$GPGSV,3,2,11,09,00,000,43,11,00,000,43,16,00,000,33,18,00,000,41*7A
$GPGSV,3,3,11,23,00,000,42,27,00,000,41,30,00,000,39*47
$BDGSV,3,1,12,01,40,125,40,02,46,218,39,03,55,171,42,04,23,109,39*6A
$BDGSV,3,2,12,05,26,244,38,07,61,043,43,08,00,000,41,10,62,346,43*6C
$BDGSV,3,3,12,13,30,179,42,18,00,000,45,09,26,205,39,27,57,047,46*6D
$LOGTIM,2,0.000000,-900.059905,0.000000,0.000000,-57.245*30
---00000030--- Acq_st=3 2019-4-10 06:55:36 
[00]  G01  f 39  -3684.2 2046004.8  1.0  1.0  5  0 284153923
[01]  G04  f 40   1037.1 2045998.7  1.0  1.0  5  0 284153925
[02]  G07  f 44  -2034.4 2046002.7  1.0  1.0  5  0 284153931
[03]  G08  f 44   1339.4 2045998.3  1.0  1.0  5  0 284153930
[04]  G09  f 43   1934.0 2045997.5  1.0  1.0  5  0 284153925
[05]  G11  f 42  -2705.0 2046003.5  1.0  1.0  5  0 284153928
[06]  G16  f 33   1927.3 2045997.5  1.0  1.0  5  0 284153919
[07]  G18  f 41  -2680.9 2046003.5  1.0  1.0  5  0 284153927
[08]  G23  f 42   2799.2 2045996.4  1.0  1.0  5  0 284153921
[10]  G27  f 41   2824.8 2045996.4  1.0  1.0  5  0 284153924
[12]  G30  f 39  -3345.4 2046004.3  1.0  1.0  5  0 284153923
[13]  G28  7 28  -2003.2 2046002.6  0.0  0.8 10  0        18
[16]  B01 1f 40   -303.6 4092000.7  0.9  0.0  2  0 284139874
[17]  B02 1f 40   -316.2 4092000.7  0.9  0.0  2  0 284139875
[18]  B03 1f 43   -315.9 4092000.9  1.0  0.0  2  0 284139877
[19]  B04 1f 40   -320.3 4092000.9  0.9  0.0  2  0 284139869
[20]  B05 1f 37   -322.4 4092000.9  0.9  0.0  2  0 284139870
[21]  B07 1f 43   -544.2 4092001.4  1.0  1.0  5  0 284139878
[22]  B08 1f 41  -1827.1 4092004.8  1.0  1.0  5  1 284139875
[23]  B10 1f 43   -623.8 4092001.6  1.0  1.0  5  0 284139877
[24]  B13 1f 42  -1935.0 4092005.0  1.0  1.0  5  0 284139870
[25]  B18 1f 45   -749.9 4092001.9  1.0  1.0  5  1 284139879
[26]  B09 1f 39   1498.1 4091996.1  1.0  1.0  5  0 284139871
[27]  B27 1f 46   1266.3 4091996.7  1.0  1.0  5  0 284139925
$GNGGA,065537.000,2944.9109,N,10633.1016,E,1,10,99.0,318.4,M,,,,0000*27
$GNRMC,065537.000,A,2944.9109,N,10633.1016,E,0.64,0.00,100419,,*1B
$GPGSA,A,3,,,,,,,,,,,,,99.0,99.0,99.0*02
$BDGSA,A,3,01,02,03,04,05,07,09,10,13,27,,,99.0,99.0,99.0*1A
$GPGSV,3,1,12,01,00,000,39,04,00,000,40,07,00,000,44,08,00,000,44*7C
$GPGSV,3,2,12,09,00,000,43,11,00,000,42,16,00,000,33,18,00,000,41*78
$GPGSV,3,3,12,23,00,000,42,27,00,000,41,30,00,000,39,28,00,000,28*74
$BDGSV,3,1,12,01,40,125,40,02,46,218,40,03,55,171,42,04,23,109,40*6A
$BDGSV,3,2,12,05,26,244,37,07,61,043,43,08,00,000,41,10,62,346,43*63
$BDGSV,3,3,12,13,30,179,42,18,00,000,45,09,26,205,39,27,57,047,46*6D
$LOGTIM,2,0.000000,-960.716066,0.000000,0.000000,-57.705*37
---00000031--- Acq_st=3 2019-4-10 06:55:37 
[00]  G01  f 39  -3685.7 2046004.8  1.0  1.0  5  0 284154923
[01]  G04  f 40   1036.5 2045998.7  1.0  1.0  5  0 284154925
[02]  G07  f 43  -2035.0 2046002.7  1.0  1.0  5  0 284154931
[03]  G08  f 43   1338.7 2045998.3  1.0  1.0  5  0 284154930
[04]  G09  f 42   1933.2 2045997.5  1.0  1.0  5  0 284154925
[05]  G11  f 42  -2705.7 2046003.5  1.0  1.0  5  0 284154928
[06]  G16  f 32   1926.0 2045997.5  0.9  0.8  5  0 284154919
[07]  G18  f 41  -2681.4 2046003.5  1.0  1.0  5  0 284154927
[08]  G23  f 41   2798.2 2045996.4  1.0  1.0  5  0 284154921
[10]  G27  f 40   2823.2 2045996.3  1.0  1.0  5  0 284154924
[12]  G30  f 38  -3346.6 2046004.4  1.0  1.0  5  0 284154923
[13]  G28  f 34  -2005.2 2046002.6  1.0  1.0  5  0        18
[16]  B01 1f 39   -305.3 4092000.8  0.9  0.0  2  0 284140874
[17]  B02 1f 40   -317.3 4092000.8  0.9  0.0  2  0 284140875
[18]  B03 1f 42   -317.2 4092000.8  1.0  0.0  2  0 284140877
[19]  B04 1f 40   -321.7 4092000.8  0.9  0.0  2  0 284140869
[20]  B05 1f 38   -324.0 4092000.6  0.9  0.0  2  0 284140870
[21]  B07 1f 42   -546.3 4092001.4  1.0  1.0  5  0 284140878
[22]  B08 1f 41  -1828.7 4092004.8  1.0  1.0  5  1 284140875
[23]  B10 1f 43   -625.4 4092001.6  1.0  1.0  5  0 284140877
[24]  B13 1f 41  -1936.5 4092005.1  1.0  1.0  5  0 284140870
[25]  B18 1f 44   -751.3 4092002.0  1.0  1.0  5  1 284140879
[26]  B09 1f 39   1497.0 4091996.1  1.0  0.9  5  0 284140871
[27]  B27 1f 45   1265.4 4091996.7  1.0  1.0  5  0 284140925
[28]  B16  1  7   1442.2 4091997.5  0.0  0.0  1  0         0
$GNGGA,065538.000,2944.9096,N,10633.0987,E,1,10,99.0,311.2,M,,,,0000*20
$GNRMC,065538.000,A,2944.9096,N,10633.0987,E,0.26,0.00,100419,,*15
$GPGSA,A,3,,,,,,,,,,,,,99.0,99.0,99.0*02
$BDGSA,A,3,01,02,03,04,05,07,09,10,13,27,,,99.0,99.0,99.0*1A
$GPGSV,3,1,12,01,00,000,39,04,00,000,40,07,00,000,43,08,00,000,43*7C
$GPGSV,3,2,12,09,00,000,42,11,00,000,42,16,00,000,32,18,00,000,41*78
$GPGSV,3,3,12,23,00,000,41,27,00,000,40,30,00,000,38,28,00,000,34*7A
$BDGSV,3,1,12,01,40,125,39,02,46,218,40,03,55,171,42,04,23,109,40*64
$BDGSV,3,2,12,05,26,244,38,07,61,043,42,08,00,000,41,10,62,346,43*6D
$BDGSV,3,3,12,13,30,179,41,18,00,000,44,09,26,205,39,27,57,047,45*6C
$LOGTIM,2,0.000000,-1018.073368,0.000000,0.000000,-57.697*03
---00000032--- Acq_st=3 2019-4-10 06:55:38 
[00]  G01  f 39  -3685.0 2046004.8  1.0  1.0  5  0 284155923
[01]  G04  f 40   1037.2 2045998.7  1.0  0.9  5  0 284155925
[02]  G07  f 46  -2034.5 2046002.6  1.0  1.0  5  0 284155931
[03]  G08  f 46   1339.2 2045998.3  1.0  1.0  5  0 284155930
[04]  G09  f 43   1933.9 2045997.5  1.0  1.0  5  0 284155925
[05]  G11  f 43  -2705.0 2046003.5  1.0  1.0  5  0 284155928
[06]  G16  f 33   1927.1 2045997.5  1.0  1.0  5  0 284155919
[07]  G18  f 42  -2680.7 2046003.5  1.0  1.0  5  0 284155927
[08]  G23  f 42   2798.6 2045996.3  1.0  1.0  5  0 284155921
[10]  G27  f 42   2823.5 2045996.4  1.0  1.0  5  0 284155924
[12]  G30  f 39  -3346.3 2046004.4  1.0  1.0  5  0 284155923
[13]  G28  f 34  -2004.8 2046002.6  1.0  0.9  5  0 284155918
[16]  B01 1f 41   -304.7 4092000.8  0.9  0.0  2  0 284141874
[17]  B02 1f 40   -317.2 4092000.7  0.9  0.0  2  0 284141875
[18]  B03 1f 45   -317.2 4092000.8  1.0  0.0  2  0 284141877
[19]  B04 1f 40   -321.1 4092000.8  1.0  0.0  2  0 284141869
[20]  B05 1f 37   -323.5 4092000.8  0.9  0.0  2  0 284141870
[21]  B07 1f 43   -545.8 4092001.4  1.0  1.0  5  0 284141878
[22]  B08 1f 41  -1828.1 4092004.8  1.0  1.0  5  1 284141875
[23]  B10 1f 43   -625.1 4092001.6  1.0  1.0  5  0 284141877
[24]  B13 1f 41  -1936.0 4092005.0  1.0  1.0  5  0 284141870
[25]  B18 1f 45   -751.0 4092002.0  1.0  1.0  5  1 284141879
[26]  B09 1f 39   1497.2 4091996.1  1.0  1.0  5  0 284141871
[27]  B27 1f 46   1266.0 4091996.7  1.0  1.0  5  0 284141925
[28]  B16  7  7   1380.8 4091996.2  0.0  0.0 20  0       802
$GNGGA,065539.000,2944.9091,N,10633.0957,E,1,10,99.0,312.8,M,,,,0000*22
$GNRMC,065539.000,A,2944.9091,N,10633.0957,E,0.12,0.00,100419,,*19
$GPGSA,A,3,,,,,,,,,,,,,99.0,99.0,99.0*02
$BDGSA,A,3,01,02,03,04,05,07,09,10,13,27,,,99.0,99.0,99.0*1A
$GPGSV,3,1,12,01,00,000,39,04,00,000,40,07,00,000,46,08,00,000,46*7C
$GPGSV,3,2,12,09,00,000,43,11,00,000,43,16,00,000,33,18,00,000,42*7A
$GPGSV,3,3,12,23,00,000,42,27,00,000,42,30,00,000,39,28,00,000,34*7A
$BDGSV,3,1,12,01,40,125,41,02,46,218,40,03,55,171,45,04,23,109,40*6C
$BDGSV,3,2,12,05,26,244,37,07,61,043,43,08,00,000,41,10,62,346,43*63
$BDGSV,3,3,12,13,30,179,41,18,00,000,45,09,26,205,39,27,57,047,46*6E
$LOGTIM,2,0.000000,-1071.217536,0.000000,0.000000,-57.553*0A
---00000033--- Acq_st=3 2019-4-10 06:55:39 
[00]  G01  f 39  -3683.3 2046004.8  1.0  1.0  5  0 284156923
[01]  G04  f 40   1038.9 2045998.7  1.0  1.0  5  0 284156925
[02]  G07  f 45  -2033.2 2046002.6  1.0  1.0  5  0 284156931
[03]  G08  f 45   1340.4 2045998.3  1.0  1.0  5  0 284156930
[04]  G09  f 43   1934.9 2045997.5  1.0  1.0  5  0 284156925
[05]  G11  f 43  -2703.5 2046003.5  1.0  1.0  5  0 284156928
[06]  G16  f 31   1927.0 2045997.6  0.9  0.9  5  0 284156919
[07]  G18  f 42  -2679.3 2046003.5  1.0  1.0  5  0 284156927
[08]  G23  f 42   2799.0 2045996.4  1.0  1.0  5  0 284156921
[10]  G27  f 41   2824.7 2045996.3  1.0  1.0  5  0 284156924
[12]  G30  f 39  -3345.4 2046004.3  1.0  1.0  5  0 284156923
[13]  G28  f 35  -2004.0 2046002.7  1.0  1.0  5  0 284156918
[16]  B01 1f 41   -304.0 4092000.7  0.9  0.0  2  0 284142874
[17]  B02 1f 38   -316.8 4092000.9  0.9  0.0  2  0 284142875
[18]  B03 1f 43   -316.4 4092000.8  1.0  0.0  2  0 284142877
[19]  B04 1f 40   -320.2 4092000.9  0.9  0.0  2  0 284142869
[20]  B05 1f 39   -322.8 4092000.9  0.9  0.0  2  0 284142870
[21]  B07 1f 43   -544.8 4092001.4  1.0  1.0  5  0 284142878
[22]  B08 1f 41  -1826.9 4092004.8  1.0  1.0  5  1 284142875
[23]  B10 1f 43   -624.3 4092001.6  1.0  1.0  5  0 284142877
[24]  B13 1f 42  -1935.1 4092005.0  1.0  1.0  5  0 284142870
[25]  B18 1f 45   -750.7 4092002.0  1.0  1.0  5  1 284142879
[26]  B09 1f 38   1497.8 4091996.0  1.0  1.0  5  0 284142871
[27]  B27 1f 46   1267.3 4091996.7  1.0  1.0  5  0 284142925
[28]  B16  7 33   1390.2 4091996.3  0.3  1.0  5  0      1786
$GNGGA,065540.000,2944.9086,N,10633.0951,E,1,10,99.0,312.1,M,,,,0000*25
$GNRMC,065540.000,A,2944.9086,N,10633.0951,E,0.26,0.00,100419,,*10
$GPGSA,A,3,,,,,,,,,,,,,99.0,99.0,99.0*02
$BDGSA,A,3,01,02,03,04,05,07,09,10,13,27,,,99.0,99.0,99.0*1A
$GPGSV,3,1,12,01,00,000,39,04,00,000,40,07,00,000,45,08,00,000,45*7C
$GPGSV,3,2,12,09,00,000,43,11,00,000,43,16,00,000,31,18,00,000,42*78
$GPGSV,3,3,12,23,00,000,42,27,00,000,41,30,00,000,39,28,00,000,35*78
$BDGSV,3,1,12,01,40,125,41,02,46,218,38,03,55,171,43,04,23,109,40*65
$BDGSV,3,2,12,05,26,244,39,07,61,043,43,08,00,000,41,10,62,346,43*6D
$BDGSV,3,3,12,13,30,179,42,18,00,000,45,09,26,205,38,27,57,047,46*6C
$LOGTIM,2,0.000000,-1127.073635,0.000000,0.000000,-57.090*02
---00000034--- Acq_st=3 2019-4-10 06:55:40 
[00]  G01  f 39  -3679.2 2046004.8  1.0  1.0  5  0 284157923
[01]  G04  f 40   1044.1 2045998.7  1.0  1.0  5  0 284157925
[02]  G07  f 46  -2027.9 2046002.6  1.0  1.0  5  0 284157931
[03]  G08  f 45   1345.8 2045998.3  1.0  1.0  5  0 284157930
[04]  G09  f 43   1940.0 2045997.5  1.0  1.0  5  0 284157925
[05]  G11  f 44  -2698.3 2046003.5  1.0  1.0  5  0 284157928
[06]  G16  f 32   1931.6 2045997.5  1.0  0.9  5  0 284157919
[07]  G18  f 43  -2674.0 2046003.5  1.0  1.0  5  0 284157927
[08]  G23  f 42   2804.0 2045996.4  1.0  1.0  5  0 284157921
[10]  G27  f 41   2829.4 2045996.3  1.0  1.0  5  0 284157924
[12]  G30  f 39  -3339.9 2046004.4  1.0  1.0  5  0 284157923
[13]  G28  f 34  -1998.6 2046002.6  1.0  0.9  5  0 284157918
[16]  B01 1f 41   -299.3 4092000.7  0.9  0.0  2  0 284143874
[17]  B02 1f 39   -311.2 4092000.8  0.9  0.0  2  0 284143875
[18]  B03 1f 41   -311.4 4092000.7  0.9  0.0  2  0 284143877
[19]  B04 1f 40   -315.1 4092000.8  0.9  0.0  2  0 284143869
[20]  B05 1f 38   -317.3 4092000.8  0.9  0.0  2  0 284143870
[21]  B07 1f 43   -539.9 4092001.4  1.0  1.0  5  0 284143878
[22]  B08 1f 41  -1822.1 4092004.8  1.0  1.0  5  1 284143875
[23]  B10 1f 43   -619.1 4092001.6  1.0  1.0  5  0 284143877
[24]  B13 1f 41  -1930.5 4092005.0  1.0  1.0  5  0 284143870
[25]  B18 1f 45   -745.3 4092002.0  1.0  1.0  5  1 284143879
[26]  B09 1f 39   1502.9 4091996.0  1.0  1.0  5  0 284143871
[27]  B27 1f 46   1272.5 4091996.7  1.0  1.0  5  0 284143925
[28]  B16  7 34   1396.2 4091996.3  1.0  0.9  5  0      2786
$GNGGA,065541.000,2944.9080,N,10633.0939,E,1,10,99.0,310.9,M,,,,0000*26
$GNRMC,065541.000,A,2944.9080,N,10633.0939,E,0.39,0.00,100419,,*17
$GPGSA,A,3,,,,,,,,,,,,,99.0,99.0,99.0*02
$BDGSA,A,3,01,02,03,04,05,07,09,10,13,27,,,99.0,99.0,99.0*1A
$GPGSV,3,1,12,01,00,000,39,04,00,000,40,07,00,000,46,08,00,000,45*7F
$GPGSV,3,2,12,09,00,000,43,11,00,000,44,16,00,000,32,18,00,000,43*7D
$GPGSV,3,3,12,23,00,000,42,27,00,000,41,30,00,000,39,28,00,000,34*79
$BDGSV,3,1,12,01,40,125,41,02,46,218,39,03,55,171,41,04,23,109,40*66
$BDGSV,3,2,12,05,26,244,38,07,61,043,43,08,00,000,41,10,62,346,43*6C
$BDGSV,3,3,12,13,30,179,41,18,00,000,45,09,26,205,39,27,57,047,46*6E
$LOGTIM,2,0.000000,-1183.516843,0.000000,0.000000,-56.469*06
---00000035--- Acq_st=3 2019-4-10 06:55:42 
[00]  G01  f 39  -3678.9 2046004.8  1.0  0.9  5  0 284158923
[01]  G04  f 39   1044.0 2045998.6  1.0  1.0  5  0 284158925
[02]  G07  f 44  -2027.7 2046002.6  1.0  1.0  5  0 284158931
[03]  G08  f 43   1345.7 2045998.3  1.0  1.0  5  0 284158930
[04]  G09  f 42   1940.0 2045997.5  1.0  1.0  5  0 284158925
[05]  G11  f 42  -2697.6 2046003.5  1.0  1.0  5  0 284158928
[06]  G16  f 31   1932.9 2045997.4  0.9  0.9  5  0 284158919
[07]  G18  f 41  -2673.6 2046003.4  1.0  1.0  5  0 284158927
[08]  G23  f 41   2804.0 2045996.3  1.0  1.0  5  0 284158921
[10]  G27  f 40   2829.6 2045996.3  1.0  1.0  5  0 284158924
[12]  G30  f 38  -3340.0 2046004.3  1.0  1.0  5  0 284158923
[13]  G28  f 34  -1999.6 2046002.6  1.0  1.0  5  0 284158918
[16]  B01 1f 41   -298.7 4092001.0  0.9  0.0  2  0 284144874
[17]  B02 1f 39   -311.7 4092000.8  0.9  0.0  2  0 284144875
[18]  B03 1f 41   -311.3 4092000.8  0.9  0.0  2  0 284144877
[19]  B04 1f 40   -315.3 4092000.8  0.9  0.0  2  0 284144869
[20]  B05 1f 38   -317.5 4092000.9  0.9  0.0  2  0 284144870
[21]  B07 1f 42   -540.1 4092001.4  1.0  1.0  5  0 284144878
[22]  B08 1f 41  -1821.9 4092004.8  1.0  1.0  5  1 284144875
[23]  B10 1f 43   -619.4 4092001.7  1.0  1.0  5  0 284144877
[24]  B13 1f 41  -1930.0 4092005.0  1.0  1.0  5  0 284144870
[25]  B18 1f 44   -745.4 4092001.9  1.0  1.0  5  1 284144879
[26]  B09 1f 39   1502.7 4091996.1  1.0  1.0  5  0 284144871
[27]  B27 1f 45   1272.9 4091996.7  1.0  1.0  5  0 284144925
