FlashID=0x1 0x20 0x18
BBram_blkflag1: 7347: 8cb8
FW Ver: 1.30  
GPS00 Init Dop:  -5000, 41
GPS01 Init Dop:  -5000, 41
GPS02 Init Dop:  -5000, 41
GPS03 Init Dop:  -5000, 41
GPS04 Init Dop:  -5000, 41
GPS05 Init Dop:  -5000, 41
GPS06 Init Dop:  -5000, 41
GPS07 Init Dop:  -5000, 41
GPS08 Init Dop:  -5000, 41
GPS09 Init Dop:  -5000, 41
GPS10 Init Dop:  -5000, 41
GPS11 Init Dop:  -5000, 41
GPS12 Init Dop:  -5000, 41
GPS13 Init Dop:  -5000, 41
GPS14 Init Dop:  -5000, 41
GPS15 Init Dop:  -5000, 41
GPS16 Init Dop:  -5000, 41
GPS17 Init Dop:  -5000, 41
GPS18 Init Dop:  -5000, 41
GPS19 Init Dop:  -5000, 41
GPS20 Init Dop:  -5000, 41
GPS21 Init Dop:  -5000, 41
GPS22 Init Dop:  -5000, 41
GPS23 Init Dop:  -5000, 41
GPS24 Init Dop:  -5000, 41
GPS25 Init Dop:  -5000, 41
GPS26 Init Dop:  -5000, 41
GPS27 Init Dop:  -5000, 41
GPS28 Init Dop:  -5000, 41
GPS29 Init Dop:  -5000, 41
GPS30 Init Dop:  -5000, 41
GPS31 Init Dop:  -5000, 41
BDS00 Init Dop:    167,  2
BDS01 Init Dop:    182,  2
BDS02 Init Dop:    180,  2
BDS03 Init Dop:    185,  2
BDS04 Init Dop:    188,  2
BDS05 Init Dop:  -1320,  2
BDS06 Init Dop:    422,  2
BDS07 Init Dop:   1630,  2
BDS08 Init Dop:  -1635,  2
BDS09 Init Dop:    512,  2
BDS10 Init Dop:  -5000, 41
BDS11 Init Dop:  -5000, 41
BDS12 Init Dop:   1773,  2
BDS13 Init Dop:  -5000, 41
BDS14 Init Dop:  -5000, 41
BDS15 Init Dop:  -1496,  2
BDS16 Init Dop:  -5000, 41
BDS17 Init Dop:    621,  2
BDS18 Init Dop:  -1530,  2
BDS19 Init Dop:  -5000, 41
BDS20 Init Dop:  -5000, 41
BDS21 Init Dop:  -5000, 41
BDS22 Init Dop:  -5000, 41
BDS23 Init Dop:  -5000, 41
BDS24 Init Dop:  -5000, 41
BDS25 Init Dop:  -5000, 41
BDS26 Init Dop:  -1580,  2
BDS27 Init Dop:  -5000, 41
BDS28 Init Dop:   3258,  2
BDS29 Init Dop:   1464,  2
BDS30 Init Dop:  -5000, 41
BDS31 Init Dop:  -5000, 41
---00000001--- Acq_st=3 2019-4-10 07:02:53 
[00]  G04  1  7   6273.8 2045991.9 -0.0  0.0  1  0         0
$GNGGA,000000.000,,,,,0,00,,,M,,,,0000*2B
$GNRMC,000000.000,A,,,,,,,000000,,*26
$GPGSA,A,1,,,,,,,,,,,,,,,*1E
$BDGSA,A,1,,,,,,,,,,,,,,,*0F
$LOGTIM,0,0.000000,0.000000,0.000000,0.000000,0.000*0A
---00000002--- Acq_st=3 2019-4-10 07:02:54 
[00]  G04  1  7   6180.6 2045992.3 -0.1  0.0  1  0        13
[01]  G08  1  7   6555.5 2045991.7 -0.1  0.0  1  0         0
$GNGGA,000000.000,,,,,0,00,,,M,,,,0000*2B
$GNRMC,000000.000,A,,,,,,,000000,,*26
$GPGSA,A,1,,,,,,,,,,,,,,,*1E
$BDGSA,A,1,,,,,,,,,,,,,,,*0F
$LOGTIM,0,0.000000,0.000000,0.000000,0.000000,0.000*0A
---00000003--- Acq_st=3 2019-4-10 07:02:55 
[00]  G04  1  7   6333.9 2045992.5  0.0  0.0  1  0        13
[01]  G08  1 15   6568.0 2045992.0  0.1  0.0  1  0         0
[02]  G17  1  7   8297.4 2045989.9  0.0  0.0  1  0         0
$GNGGA,000000.000,,,,,0,00,,,M,,,,0000*2B
$GNRMC,000000.000,A,,,,,,,000000,,*26
$GPGSA,A,1,,,,,,,,,,,,,,,*1E
$BDGSA,A,1,,,,,,,,,,,,,,,*0F
$LOGTIM,0,0.000000,0.000000,0.000000,0.000000,0.000*0A
---00000004--- Acq_st=3 2019-4-10 07:02:56 
[00]  G04  1  7   6204.2 2045991.9 -0.1  0.0  1  0        13
[01]  G08  1 14   6459.7 2045991.8  0.1  0.0  1  0         0
[02]  G17  1  7   8209.4 2045989.7  0.0  0.0  1  0        16
[03]  G23  1  7   7804.5 2045990.3 -0.0  0.0  1  0         0
$GNGGA,000000.000,,,,,0,00,,,M,,,,0000*2B
$GNRMC,000000.000,A,,,,,,,000000,,*26
$GPGSA,A,1,,,,,,,,,,,,,,,*1E
$BDGSA,A,1,,,,,,,,,,,,,,,*0F
$LOGTIM,0,0.000000,0.000000,0.000000,0.000000,0.000*0A
---00000005--- Acq_st=3 2019-4-10 07:02:57 
[00]  G27  1  7   7999.6 2045990.2  0.1  0.0  1  0        13
[02]  G17  1 12   8118.7 2045990.3 -0.0  0.0  1  0        16
[03]  G23  1 10   7713.8 2045990.0  0.1  0.0  1  0         4
$GNGGA,000000.000,,,,,0,00,,,M,,,,0000*2B
$GNRMC,000000.000,A,,,,,,,000000,,*26
$GPGSA,A,1,,,,,,,,,,,,,,,*1E
$BDGSA,A,1,,,,,,,,,,,,,,,*0F
$LOGTIM,0,0.000000,0.000000,0.000000,0.000000,0.000*0A
---00000006--- Acq_st=3 2019-4-10 07:02:58 
[00]  G27  1  7   7964.8 2045990.1 -0.1  0.0  1  0         7
[02]  G17  1  7   8166.5 2045990.1  0.2  0.0  1  0        16
[03]  G23  1  7   7436.6 2045990.2 -0.0  0.0  1  0         4
[16]  B01  1 39   -293.9 4092000.1 -0.0  0.0  1  0         0
[17]  B02  1 40   -309.4 4092000.9 -0.0  0.0  1  0         0
[18]  B03  1 41   -311.7 4092000.1  0.8  0.0  1  0         0
[19]  B04  1 37   -277.6 4092001.9  0.1  0.0  1  0         0
[20]  B05  1 35   -253.4 4092001.1  0.1  0.0  1  0         0
[21]  B07  1  7   -529.8 4092001.7 -0.1  0.0  1  0         0
[22]  B08  1  7  -1725.4 4092005.0  0.0  0.0  1  1         0
[23]  B10  1  7   -631.4 4092001.7 -0.0  0.0  1  0         0
$GNGGA,000000.000,,,,,0,00,,,M,,,,0000*2B
$GNRMC,000000.000,A,,,,,,,000000,,*26
$GPGSA,A,1,,,,,,,,,,,,,,,*1E
$BDGSA,A,1,,,,,,,,,,,,,,,*0F
$LOGTIM,0,0.000000,0.000000,0.000000,0.000000,0.000*0A
---00000007--- Acq_st=3 2019-4-10 07:02:59 
[00]  G27  1  7   7900.6 2045989.6  0.0  0.0  1  0         7
[03]  G23  1  7   7450.2 2045989.8  0.1  0.0  1  0         4
[16]  B01  7 40   -302.0 4092000.7  0.9  0.0  2  0       596
[17]  B02  7 41   -316.8 4092000.8  0.9  0.0  2  0       583
[18]  B03  f 42   -314.8 4092000.9  1.0  0.0  2  0       244
[19]  B04  7 39   -319.1 4092000.8  0.9  0.0  2  0       556
[20]  B05  7 38   -322.9 4092000.8  0.9  0.0  2  0       543
[21]  B07  7 21   -556.4 4092001.5 -0.0  0.0 20  0       506
[22]  B08  7 20  -1765.5 4092004.6  0.2  0.0 20  1       494
[23]  B10  7 18   -645.8 4092001.7  0.0  0.0 20  0       458
[24]  B13  1  7  -1907.1 4092005.1 -0.1  0.0  1  0         0
[25]  B16  1  7   2454.3 4091996.0  0.0  0.0  1  0         0
$GNGGA,070259.285,2944.6235,N,10633.1064,E,1,05,0.0,19.2,M,,,,0000*25
$GNRMC,070259.285,A,2944.6235,N,10633.1064,E,0.00,0.00,100419,,*1B
$GPGSA,A,3,,,,,,,,,,,,,0.0,0.0,0.0*32
$BDGSA,A,3,01,02,03,04,05,,,,,,,,0.0,0.0,0.0*22
$BDGSV,2,1,08,01,00,000,40,02,00,000,41,03,00,000,42,04,00,000,39*6A
$BDGSV,2,2,08,05,00,000,38,07,00,000,21,08,00,000,20,10,00,000,18*68
$LOGTIM,2,0.000000,-317511392.160569,0.000000,0.000000,0.000*20
---00000008--- Acq_st=3 2019-4-10 07:03:0 
[16]  B01  f 41   -303.6 4092000.7  0.9  0.0  2  0      1595
[17]  B02  f 40   -319.0 4092000.9  0.9  0.0  2  0      1582
[18]  B03  f 42   -317.0 4092000.9  1.0  0.0  2  0 284584244
[19]  B04  f 39   -321.2 4092000.9  0.9  0.0  2  0      1555
[20]  B05  f 38   -324.8 4092000.9  0.9  0.0  2  0      1542
[21]  B07  7 43   -558.2 4092001.5  1.0  1.0  5  0      1504
[22]  B08  7 41  -1767.7 4092004.7  0.6  1.0  5  1      1482
[23]  B10  7 44   -648.4 4092001.7  0.5  1.0  5  0      1444
[24]  B13  7 28  -1909.6 4092005.1  0.2  0.0 10  0       774
[25]  B16  1  7   1359.9 4091997.9  0.0  0.0  1  0        81
[26]  B18  1  7   -756.8 4092002.2 -0.1  0.0  1  1         0
$GNGGA,070301.451,2944.9330,N,10633.0749,E,1,08,0.0,256.0,M,,,,0000*12
$GNRMC,070301.451,A,2944.9330,N,10633.0749,E,0.00,0.00,100419,,*1A
$GPGSA,A,3,,,,,,,,,,,,,0.0,0.0,0.0*32
$BDGSA,A,3,01,02,03,04,05,07,10,13,,,,,0.0,0.0,0.0*26
$BDGSV,3,1,09,01,00,000,41,02,00,000,40,03,00,000,42,04,00,000,39*6A
$BDGSV,3,2,09,05,00,000,38,07,00,000,43,08,00,000,41,10,00,000,44*62
$BDGSV,3,3,09,13,00,000,28*59
$LOGTIM,2,0.000000,-182218486.131373,0.000000,0.000000,0.000*2B
---00000009--- Acq_st=3 2019-4-10 07:03:1 
[16]  B01  f 40   -306.2 4092000.8  0.9  0.0  2  0 284585956
[17]  B02  f 39   -320.9 4092000.9  1.0  0.0  2  0 284585957
[18]  B03  f 41   -319.2 4092000.9  1.0  0.0  2  0 284585959
[19]  B04  f 40   -323.6 4092000.7  0.9  0.0  2  0 284585950
[20]  B05  f 37   -326.6 4092001.0  0.9  0.0  2  0 284585951
[21]  B07  7 43   -560.5 4092001.5  1.0  1.0  5  0      3220
[22]  B08  7 41  -1769.6 4092004.6  1.0  1.0  5  1      3197
[23]  B10  7 43   -650.3 4092001.7  1.0  1.0  5  0      3159
[24]  B13  7 41  -1911.7 4092005.0  0.9  1.0  5  0      2472
[25]  B16  7 32   1357.9 4091996.5  0.2  1.0  5  0      1787
[26]  B18  7 27   -759.8 4092002.0  0.4  0.0 10  1      1441
$GNGGA,070302.673,2944.9121,N,10633.0711,E,1,09,0.0,234.5,M,,,,0000*1C
$GNRMC,070302.673,A,2944.9121,N,10633.0711,E,0.00,0.00,100419,,*14
$GPGSA,A,3,,,,,,,,,,,,,0.0,0.0,0.0*32
$BDGSA,A,3,01,02,03,04,05,07,10,13,16,,,,0.0,0.0,0.0*21
$BDGSV,3,1,12,01,40,125,40,02,46,218,39,03,55,171,41,04,23,109,40*67
$BDGSV,3,2,12,05,26,244,37,07,62,045,43,08,00,000,41,10,63,347,43*66
$BDGSV,3,3,12,13,32,180,41,16,13,190,32,18,00,000,27,06,09,182,00*60
$LOGTIM,2,0.000000,-115747420.736915,0.000000,0.000000,0.000*2D
---00000010--- Acq_st=3 2019-4-10 07:03:2 
[16]  B01 1f 41   -302.6 4092000.7  0.9  0.0  2  0 284586956
[17]  B02 1f 40   -317.9 4092000.7  0.9  0.0  2  0 284586957
[18]  B03 1f 42   -315.8 4092000.8  1.0  0.0  2  0 284586959
[19]  B04 1f 39   -320.6 4092000.6  0.9  0.0  2  0 284586950
[20]  B05 1f 37   -324.1 4092000.8  0.9  0.0  2  0 284586951
[21]  B07  7 43   -557.5 4092001.4  1.0  1.0  5  0      4220
[22]  B08  7 41  -1766.2 4092004.6  1.0  1.0  5  1      4197
[23]  B10  7 43   -647.5 4092001.7  1.0  1.0  5  0      4159
[24]  B13  7 41  -1908.2 4092005.0  1.0  1.0  5  0      3472
[25]  B16  7 38   1361.4 4091996.4  1.0  1.0  5  0      2787
[26]  B18  7 45   -756.4 4092002.0  1.0  1.0  5  1      2441
$GNGGA,070303.482,2944.9193,N,10633.0692,E,1,09,1.3,217.3,M,,,,0000*17
$GNRMC,070303.482,A,2944.9193,N,10633.0692,E,0.17,0.00,100419,,*1C
$GPGSA,A,3,,,,,,,,,,,,,2.5,1.3,2.1*34
$BDGSA,A,3,01,02,03,04,05,07,10,13,16,,,,2.5,1.3,2.1*27
$BDGSV,3,1,12,01,40,125,41,02,46,218,40,03,55,171,42,04,23,109,39*65
$BDGSV,3,2,12,05,26,244,37,07,62,045,43,08,00,000,41,10,63,347,43*66
$BDGSV,3,3,12,13,32,180,41,16,13,190,38,18,00,000,45,06,09,182,00*6E
$LOGTIM,2,0.000000,0.000000,0.000000,0.000000,-56.762*15
---00000011--- Acq_st=7 2019-4-10 07:03:3 
[16]  B01 1f 40   -301.5 4092000.8  0.9  0.0  2  0 284587356
[17]  B02 1f 39   -316.1 4092000.8  0.9  0.0  2  0 284587357
[18]  B03 1f 43   -314.4 4092000.8  0.9  0.0  2  0 284587359
[19]  B04 1f 40   -318.8 4092000.6  0.9  0.0  2  0 284587350
[20]  B05 1f 38   -322.4 4092000.8  0.9  0.0  2  0 284587351
[21]  B07 1f 42   -556.3 4092001.4  1.0  1.0  5  0 284587360
[22]  B08 1f 40  -1764.4 4092004.6  1.0  1.0  5  1 284587357
[23]  B10 1f 42   -645.8 4092001.7  1.0  1.0  5  0 284587359
[24]  B13 1f 41  -1907.0 4092005.0  1.0  1.0  5  0 284587352
[25]  B16 1f 38   1362.9 4091996.4  1.0  1.0  5  0 284587347
[26]  B18 1f 43   -755.5 4092002.0  1.0  1.0  5  1 284587361
[27]  B30  1  7  -1598.7 4092004.6  0.0  0.0  1  0       682
$GNGGA,070304.000,2944.9022,N,10633.1006,E,1,09,99.0,246.3,M,,,,0000*29
$GNRMC,070304.000,A,2944.9022,N,10633.1006,E,0.30,0.00,100419,,*11
$GPGSA,A,3,,,,,,,,,,,,,99.0,99.0,99.0*02
$BDGSA,A,3,01,02,03,04,05,07,10,13,16,,,,99.0,99.0,99.0*11
$BDGSV,3,1,12,01,40,125,40,02,46,218,39,03,55,171,43,04,23,109,40*65
$BDGSV,3,2,12,05,26,244,38,07,62,045,42,08,00,000,40,10,63,347,42*68
$BDGSV,3,3,12,13,32,180,41,16,13,190,38,18,00,000,43,06,09,182,00*68
$LOGTIM,2,0.000000,-20.010325,0.000000,0.000000,-56.566*09
---00000012--- Acq_st=7 2019-4-10 07:03:4 
[16]  B01 1f 38   -301.8 4092000.8  0.9  0.0  2  0 284587874
[17]  B02 1f 40   -316.6 4092000.8  0.9  0.0  2  0 284587875
[18]  B03 1f 43   -314.6 4092000.8  0.9  0.0  2  0 284587877
[19]  B04 1f 39   -319.1 4092000.8  0.9  0.0  2  0 284587869
[20]  B05 1f 37   -322.6 4092000.8  0.9  0.0  2  0 284587870
[21]  B07 1f 43   -556.3 4092001.5  1.0  1.0  5  0 284587878
[22]  B08 1f 41  -1765.0 4092004.6  1.0  1.0  5  1 284587876
[23]  B10 1f 43   -646.2 4092001.7  1.0  0.9  5  0 284587877
[24]  B13 1f 42  -1907.3 4092005.0  1.0  1.0  5  0 284587870
[25]  B16 1f 38   1362.5 4091996.4  1.0  1.0  5  0 284587865
[26]  B18 1f 45   -755.8 4092002.0  1.0  1.0  5  1 284587879
[27]  B30  7 31  -1598.5 4092004.2  0.4  1.0  5  0      1200
$GNGGA,070305.000,2944.9063,N,10633.1271,E,1,09,99.0,271.7,M,,,,0000*2F
$GNRMC,070305.000,A,2944.9063,N,10633.1271,E,0.41,0.00,100419,,*11
$GPGSA,A,3,,,,,,,,,,,,,99.0,99.0,99.0*02
$BDGSA,A,3,01,02,03,04,05,07,10,13,16,,,,99.0,99.0,99.0*11
$BDGSV,3,1,12,01,40,125,38,02,46,218,40,03,55,171,43,04,23,109,39*6A
$BDGSV,3,2,12,05,26,244,37,07,62,045,43,08,00,000,41,10,63,347,43*66
$BDGSV,3,3,12,13,32,180,42,16,13,190,38,18,00,000,45,30,66,213,31*68
$LOGTIM,2,0.000000,-65.672234,0.000000,0.000000,-56.356*0E
---00000013--- Acq_st=7 2019-4-10 07:03:5 
[16]  B01 1f 39   -301.5 4092000.8  0.9  0.0  2  0 284588874
[17]  B02 1f 39   -316.3 4092000.9  0.9  0.0  2  0 284588875
[18]  B03 1f 43   -313.6 4092000.8  1.0  0.0  2  0 284588877
[19]  B04 1f 40   -318.9 4092000.8  0.9  0.0  2  0 284588869
[20]  B05 1f 37   -321.9 4092000.8  0.9  0.0  2  0 284588870
[21]  B07 1f 43   -555.8 4092001.5  1.0  1.0  5  0 284588878
[22]  B08 1f 41  -1764.1 4092004.6  1.0  1.0  5  1 284588876
[23]  B10 1f 43   -645.8 4092001.7  1.0  1.0  5  0 284588877
[24]  B13 1f 41  -1906.5 4092005.0  1.0  1.0  5  0 284588870
[25]  B16 1f 38   1362.8 4091996.5  1.0  1.0  5  0 284588865
[26]  B18 1f 44   -754.9 4092002.0  1.0  0.9  5  1 284588879
[27]  B30  7 45  -1597.6 4092004.2  1.0  1.0  5  0      2186
$GNGGA,070306.000,2944.9013,N,10633.1140,E,1,09,99.0,280.2,M,,,,0000*21
$GNRMC,070306.000,A,2944.9013,N,10633.1140,E,0.72,0.00,100419,,*14
$GPGSA,A,3,,,,,,,,,,,,,99.0,99.0,99.0*02
$BDGSA,A,3,01,02,03,04,05,07,10,13,16,,,,99.0,99.0,99.0*11
$BDGSV,3,1,12,01,40,125,39,02,46,218,39,03,55,171,43,04,23,109,40*6B
$BDGSV,3,2,12,05,26,244,37,07,62,045,43,08,00,000,41,10,63,347,43*66
$BDGSV,3,3,12,13,32,180,41,16,13,190,38,18,00,000,44,30,66,213,45*69
$LOGTIM,2,0.000000,-107.521283,0.000000,0.000000,-55.967*39
---00000014--- Acq_st=3 2019-4-10 07:03:6 
[00]  G01  1 25  -3601.3 2046006.6  0.0  0.0  1  0         4
[01]  G04  1 24   1245.2 2045998.0  0.0  0.0  1  0         0
[02]  G05  1  7   4755.8 2045994.5  0.0  0.0  1  0        16
[16]  B01 1f 40   -302.1 4092000.8  0.9  0.0  2  0 284589874
[17]  B02 1f 40   -317.0 4092000.8  0.9  0.0  2  0 284589875
[18]  B03 1f 43   -314.7 4092000.8  0.9  0.0  2  0 284589877
[19]  B04 1f 41   -319.6 4092000.8  0.9  0.0  2  0 284589869
[20]  B05 1f 38   -322.8 4092000.7  0.9  0.0  2  0 284589870
[21]  B07 1f 43   -556.7 4092001.5  1.0  1.0  5  0 284589878
[22]  B08 1f 41  -1764.6 4092004.6  1.0  1.0  5  1 284589876
[23]  B10 1f 43   -646.7 4092001.7  1.0  1.0  5  0 284589877
[24]  B13 1f 42  -1907.2 4092005.0  1.0  1.0  5  0 284589870
[25]  B16 1f 38   1361.8 4091996.4  1.0  1.0  5  0 284589865
[26]  B18 1f 45   -755.9 4092002.0  1.0  1.0  5  1 284589879
[27]  B30  7 45  -1598.0 4092004.2  1.0  1.0  5  0      3186
$GNGGA,070307.000,2944.9059,N,10633.1061,E,1,09,99.0,274.9,M,,,,0000*2C
$GNRMC,070307.000,A,2944.9059,N,10633.1061,E,0.54,0.00,100419,,*1D
$GPGSA,A,3,,,,,,,,,,,,,99.0,99.0,99.0*02
$BDGSA,A,3,01,02,03,04,05,07,10,13,16,,,,99.0,99.0,99.0*11
$BDGSV,3,1,12,01,40,125,40,02,46,218,40,03,55,171,43,04,23,109,41*6A
$BDGSV,3,2,12,05,26,244,38,07,62,045,43,08,00,000,41,10,63,347,43*69
$BDGSV,3,3,12,13,32,180,42,16,13,190,38,18,00,000,45,30,66,213,45*6B
$LOGTIM,2,0.000000,-160.714782,0.000000,0.000000,-56.386*3E
---00000015--- Acq_st=3 2019-4-10 07:03:7 
[00]  G01  7 29  -3593.9 2046004.6 -0.1  1.0 10  0         4
[01]  G04  7 13   1254.5 2045998.4  0.2  0.0 20  0         1
[02]  G05  1  7   4794.8 2045994.1 -0.0  0.0  1  0        12
[03]  G07  1 27  -1829.5 2046003.8  0.2  0.0  1  0        17
[04]  G08  1 30   1501.9 2045998.7 -0.0  0.0  1  0        12
[05]  G09  1 21   2054.6 2045998.1 -0.1  0.0  1  0         7
[06]  G11  1 19  -2506.7 2046006.1 -0.0  0.0  1  0         0
[16]  B01 1f 40   -304.5 4092000.9  0.9  0.0  2  0 284590874
[17]  B02 1f 39   -319.0 4092000.9  0.9  0.0  2  0 284590875
[18]  B03 1f 42   -317.0 4092000.9  1.0  0.0  2  0 284590877
[19]  B04 1f 39   -321.6 4092000.9  0.9  0.0  2  0 284590869
[20]  B05 1f 39   -324.9 4092000.8  0.9  0.0  2  0 284590870
[21]  B07 1f 43   -559.1 4092001.5  1.0  1.0  5  0 284590878
[22]  B08 1f 41  -1767.2 4092004.7  1.0  1.0  5  1 284590876
[23]  B10 1f 43   -649.1 4092001.7  1.0  1.0  5  0 284590877
[24]  B13 1f 41  -1909.5 4092005.0  1.0  1.0  5  0 284590870
[25]  B16 1f 38   1359.5 4091996.4  1.0  1.0  5  0 284590865
[26]  B18 1f 45   -758.2 4092002.0  1.0  1.0  5  1 284590879
[27]  B30  7 45  -1599.8 4092004.2  1.0  1.0  5  0      4186
$GNGGA,070308.000,2944.9119,N,10633.1090,E,1,09,99.0,281.3,M,,,,0000*28
$GNRMC,070308.000,A,2944.9119,N,10633.1090,E,0.30,0.00,100419,,*1B
$GPGSA,A,3,,,,,,,,,,,,,99.0,99.0,99.0*02
$BDGSA,A,3,01,02,03,04,05,07,10,13,16,,,,99.0,99.0,99.0*11
$GPGSV,1,1,02,01,00,000,29,04,00,000,13*77
$BDGSV,3,1,12,01,40,125,40,02,46,218,39,03,55,171,42,04,23,109,39*6A
$BDGSV,3,2,12,05,26,244,39,07,62,045,43,08,00,000,41,10,63,347,43*68
$BDGSV,3,3,12,13,32,180,41,16,13,190,38,18,00,000,45,30,66,213,45*68
$LOGTIM,2,0.000000,-215.224542,0.000000,0.000000,-56.751*39
---00000016--- Acq_st=3 2019-4-10 07:03:8 
[00]  G01  7 39  -3591.9 2046004.6  0.9  0.9  5  0         4
[01]  G04  7 40   1255.8 2045998.4  1.0  1.0  5  0         5
[02]  G05  1  8   4344.3 2045993.6 -0.1  0.0  1  0        12
[03]  G07  7 32  -1822.2 2046002.3  0.6  1.0  5  0        17
[04]  G08  7 30   1509.4 2045997.9  0.6  1.0  5  0        12
[05]  G09  7 29   2074.9 2045997.2  0.4  1.0 10  0         7
[06]  G11  7 23  -2492.5 2046003.1  0.2  0.0 20  0        13
[07]  G16  1 21   1935.6 2045999.3 -0.2  0.0  1  0        11
[08]  G18  1 21  -2470.6 2046005.1 -0.0  0.0  1  0         0
[16]  B01 1f 40   -303.9 4092000.9  1.0  0.0  2  0 284591874
[17]  B02 1f 39   -318.4 4092000.8  0.9  0.0  2  0 284591875
[18]  B03 1f 42   -316.5 4092000.8  1.0  0.0  2  0 284591877
[19]  B04 1f 39   -320.9 4092000.9  0.9  0.0  2  0 284591869
[20]  B05 1f 37   -324.5 4092000.8  0.9  0.0  2  0 284591870
[21]  B07 1f 43   -558.0 4092001.5  1.0  1.0  5  0 284591878
[22]  B08 1f 41  -1766.0 4092004.6  1.0  1.0  5  1 284591876
[23]  B10 1f 43   -648.2 4092001.7  1.0  1.0  5  0 284591877
[24]  B13 1f 41  -1908.4 4092005.0  1.0  1.0  5  0 284591870
[25]  B16 1f 38   1360.0 4091996.4  1.0  1.0  5  0 284591865
[26]  B18 1f 45   -757.3 4092002.0  1.0  1.0  5  1 284591879
[27]  B30  7 45  -1598.5 4092004.2  1.0  1.0  5  0      5186
$GNGGA,070309.000,2944.9117,N,10633.1074,E,1,09,99.0,280.3,M,,,,0000*2C
$GNRMC,070309.000,A,2944.9117,N,10633.1074,E,0.34,0.00,100419,,*1A
$GPGSA,A,3,,,,,,,,,,,,,99.0,99.0,99.0*02
$BDGSA,A,3,01,02,03,04,05,07,10,13,16,,,,99.0,99.0,99.0*11
$GPGSV,2,1,06,01,00,000,39,04,00,000,40,07,00,000,32,08,00,000,30*7A
$GPGSV,2,2,06,09,00,000,29,11,00,000,23*7C
$BDGSV,3,1,12,01,40,125,40,02,46,218,39,03,55,171,41,04,23,109,39*69
$BDGSV,3,2,12,05,26,244,37,07,62,045,43,08,00,000,41,10,63,347,43*66
$BDGSV,3,3,12,13,32,180,41,16,13,190,38,18,00,000,45,30,66,213,45*68
$LOGTIM,2,0.000000,-270.521669,0.000000,0.000000,-56.693*3D
---00000017--- Acq_st=3 2019-4-10 07:03:9 
[00]  G01  7 39  -3590.5 2046004.6  1.0  1.0  5  0         4
[01]  G04  7 40   1257.3 2045998.4  1.0  1.0  5  0         5
[02]  G05  1  7   4443.2 2045994.2 -0.1  0.0  1  0        12
[03]  G07  7 44  -1820.1 2046002.3  1.0  1.0  5  0        11
[04]  G08  7 44   1511.0 2045997.9  1.0  1.0  5  0        10
[05]  G09  7 40   2077.0 2045997.2  1.0  1.0  5  0         4
[06]  G11  7 42  -2490.0 2046003.1  0.7  1.0  5  0         9
[07]  G16  7 26   1930.0 2045997.4  0.2  1.1 20  0        11
[08]  G18  7 22  -2458.0 2046003.1  0.2  0.0 20  0        17
[09]  G23  1 23   2793.9 2045996.5  0.0  0.0  1  0        14
[10]  G27  1  7   2944.9 2045997.2 -0.0  0.0  1  0         0
[16]  B01 1f 40   -302.1 4092000.8  0.9  0.0  2  0 284592874
[17]  B02 1f 40   -316.7 4092000.9  0.9  0.0  2  0 284592875
[18]  B03 1f 41   -314.8 4092000.9  1.0  0.0  2  0 284592877
[19]  B04 1f 39   -319.1 4092000.8  0.9  0.0  2  0 284592869
[20]  B05 1f 38   -323.0 4092000.9  0.9  0.0  2  0 284592870
[21]  B07 1f 43   -556.4 4092001.5  1.0  1.0  5  0 284592878
[22]  B08 1f 41  -1764.0 4092004.6  1.0  1.0  5  1 284592876
[23]  B10 1f 43   -646.3 4092001.7  1.0  1.0  5  0 284592877
[24]  B13 1f 41  -1906.8 4092005.0  1.0  1.0  5  0 284592870
[25]  B16 1f 38   1362.6 4091996.5  1.0  1.0  5  0 284592865
[26]  B18 1f 44   -755.6 4092002.0  1.0  1.0  5  1 284592879
[27]  B30 1f 45  -1596.2 4092004.2  1.0  1.0  5  0      6186
$GNGGA,070310.000,2944.9074,N,10633.1036,E,1,10,99.0,277.6,M,,,,0000*23
$GNRMC,070310.000,A,2944.9074,N,10633.1036,E,0.31,0.00,100419,,*15
$GPGSA,A,3,,,,,,,,,,,,,99.0,99.0,99.0*02
$BDGSA,A,3,01,02,03,04,05,07,10,13,16,30,,,99.0,99.0,99.0*12
$GPGSV,2,1,08,01,00,000,39,04,00,000,40,07,00,000,44,08,00,000,44*76
$GPGSV,2,2,08,09,00,000,40,11,00,000,42,16,00,000,26,18,00,000,22*70
$BDGSV,3,1,12,01,40,125,40,02,46,218,40,03,55,171,41,04,23,109,39*67
$BDGSV,3,2,12,05,26,244,38,07,62,045,43,08,00,000,41,10,63,347,43*69
$BDGSV,3,3,12,13,32,180,41,16,13,190,38,18,00,000,44,30,66,213,45*69
$LOGTIM,2,0.000000,-328.912106,0.000000,0.000000,-56.358*31
---00000018--- Acq_st=3 2019-4-10 07:03:10 
[00]  G01  7 39  -3586.1 2046004.6  1.0  1.0  5  0         4
[01]  G04  7 40   1262.2 2045998.4  1.0  1.0  5  0         5
[02]  G30  1 22  -3263.8 2046006.3 -0.0  0.0  1  0        18
[03]  G07  7 45  -1815.8 2046002.3  1.0  1.0  5  0        11
[04]  G08  7 45   1515.5 2045997.9  1.0  1.0  5  0        10
[05]  G09  7 41   2081.1 2045997.2  1.0  1.0  5  0         4
[06]  G11  7 43  -2485.5 2046003.2  1.0  1.0  5  0         9
[07]  G16  7 36   1933.3 2045997.4  0.9  1.0  5  0        18
[08]  G18  7 42  -2453.4 2046003.1  0.9  1.0  5  0         8
[09]  G23  7 28   2817.5 2045996.3  0.5  1.0 10  0        14
[10]  G27  1 31   2884.3 2045995.7 -0.1  0.0  1  0         1
[16]  B01 1f 41   -298.0 4092000.8  0.9  0.0  2  0 284593874
[17]  B02 1f 40   -313.2 4092000.8  0.9  0.0  2  0 284593875
[18]  B03 1f 42   -311.1 4092000.8  1.0  0.0  2  0 284593877
[19]  B04 1f 39   -315.1 4092000.8  0.9  0.0  2  0 284593869
[20]  B05 1f 39   -319.2 4092000.8  0.9  0.0  2  0 284593870
[21]  B07 1f 43   -552.9 4092001.5  1.0  1.0  5  0 284593878
[22]  B08 1f 42  -1760.4 4092004.6  1.0  1.0  5  1 284593876
[23]  B10 1f 43   -643.1 4092001.7  1.0  1.0  5  0 284593877
[24]  B13 1f 41  -1903.2 4092005.0  1.0  1.0  5  0 284593870
[25]  B16 1f 38   1365.2 4091996.4  1.0  1.0  5  0 284593865
[26]  B18 1f 45   -752.3 4092002.0  1.0  1.0  5  1 284593879
[27]  B30 1f 45  -1592.3 4092004.2  1.0  1.0  5  0 284593926
$GNGGA,070311.000,2944.9076,N,10633.1012,E,1,10,99.0,280.3,M,,,,0000*2B
$GNRMC,070311.000,A,2944.9076,N,10633.1012,E,0.17,0.00,100419,,*14
$GPGSA,A,3,,,,,,,,,,,,,99.0,99.0,99.0*02
$BDGSA,A,3,01,02,03,04,05,07,10,13,16,30,,,99.0,99.0,99.0*12
$GPGSV,3,1,09,01,00,000,39,04,00,000,40,07,00,000,45,08,00,000,45*76
$GPGSV,3,2,09,09,00,000,41,11,00,000,43,16,00,000,36,18,00,000,42*77
$GPGSV,3,3,09,23,00,000,27*44
$BDGSV,3,1,12,01,40,125,41,02,46,218,40,03,55,171,42,04,23,109,39*65
$BDGSV,3,2,12,05,26,244,39,07,62,045,43,08,00,000,42,10,63,347,43*6B
$BDGSV,3,3,12,13,32,180,41,16,13,190,38,18,00,000,45,30,66,213,45*68
$LOGTIM,2,0.000000,-380.500541,0.000000,0.000000,-56.011*35
---00000019--- Acq_st=3 2019-4-10 07:03:11 
[00]  G01  7 39  -3590.0 2046004.6  1.0  1.0  5  0         4
[01]  G04  7 40   1258.8 2045998.4  1.0  1.0  5  0         5
[02]  G30  7 27  -3252.6 2046004.1  0.5  0.0 10  0        18
[03]  G07  7 44  -1819.1 2046002.3  1.0  1.0  5  0        11
[04]  G08  7 44   1512.0 2045998.0  1.0  1.0  5  0        10
[05]  G09  7 41   2077.6 2045997.3  1.0  1.0  5  0         4
[06]  G11  7 43  -2488.9 2046003.2  1.0  1.0  5  0         9
[07]  G16  7 35   1929.3 2045997.4  1.0  0.9  5  0        18
[08]  G18  7 41  -2456.8 2046003.2  1.0  1.0  5  0         8
[09]  G23  7 39   2813.6 2045996.3  1.0  1.0  5  0         0
[10]  G27  7 34   2880.3 2045996.2  0.7  1.0  5  0         3
[16]  B01 1f 40   -301.3 4092000.7  0.9  0.0  2  0 284594874
[17]  B02 1f 38   -316.7 4092000.9  1.0  0.0  2  0 284594875
[18]  B03 1f 41   -314.5 4092000.7  1.0  0.0  2  0 284594877
[19]  B04 1f 37   -318.9 4092000.8  0.9  0.0  2  0 284594869
[20]  B05 1f 37   -322.7 4092001.0  0.9  0.0  2  0 284594870
[21]  B07 1f 43   -556.4 4092001.5  1.0  1.0  5  0 284594878
[22]  B08 1f 41  -1763.6 4092004.6  1.0  1.0  5  1 284594876
[23]  B10 1f 43   -646.5 4092001.7  1.0  1.0  5  0 284594877
[24]  B13 1f 41  -1906.3 4092005.0  1.0  1.0  5  0 284594870
[25]  B16 1f 38   1361.4 4091996.4  1.0  1.0  5  0 284594865
[26]  B18 1f 45   -755.8 4092002.0  1.0  1.0  5  1 284594879
[27]  B30 1f 45  -1595.4 4092004.2  1.0  1.0  5  0 284594926
[28]  B09  1  7   1499.1 4091996.2 -0.1  0.0  1  0       124
$GNGGA,070312.000,2944.9079,N,10633.1004,E,1,10,99.0,281.7,M,,,,0000*25
$GNRMC,070312.000,A,2944.9079,N,10633.1004,E,0.37,0.00,100419,,*1D
$GPGSA,A,3,,,,,,,,,,,,,99.0,99.0,99.0*02
$BDGSA,A,3,01,02,03,04,05,07,10,13,16,30,,,99.0,99.0,99.0*12
$GPGSV,3,1,11,01,00,000,39,04,00,000,40,30,00,000,27,07,00,000,44*71
$GPGSV,3,2,11,08,00,000,44,09,00,000,41,11,00,000,43,16,00,000,35*7A
$GPGSV,3,3,11,18,00,000,41,23,00,000,39,27,00,000,34*4C
$BDGSV,3,1,12,01,40,125,40,02,46,218,38,03,55,171,41,04,23,109,37*66
$BDGSV,3,2,12,05,26,244,37,07,62,045,43,08,00,000,41,10,63,347,43*66
$BDGSV,3,3,12,13,32,180,41,16,13,190,38,18,00,000,45,30,66,213,45*68
$LOGTIM,2,0.000000,-434.614712,0.000000,0.000000,-56.396*33
---00000020--- Acq_st=3 2019-4-10 07:03:12 
[00]  G01  7 40  -3590.7 2046004.6  1.0  1.0  5  0         4
[01]  G04  7 40   1257.9 2045998.4  1.0  1.0  5  0         5
[02]  G30  7 40  -3253.5 2046004.2  0.9  1.0  5  0         4
[03]  G07  7 45  -1820.1 2046002.3  1.0  1.0  5  0        11
[04]  G08  7 45   1510.8 2045998.0  1.0  1.0  5  0        10
[05]  G09  7 42   2076.3 2045997.3  1.0  1.0  5  0         4
[06]  G11  7 43  -2489.7 2046003.2  1.0  1.0  5  0         9
[07]  G16  7 35   1927.9 2045997.5  1.0  1.0  5  0        18
[08]  G18  7 41  -2458.1 2046003.2  1.0  1.0  5  0         8
[09]  G23  7 40   2812.2 2045996.4  1.0  1.0  5  0         0
[10]  G27  7 38   2878.7 2045996.2  1.0  1.0  5  0         3
[16]  B01 1f 41   -302.7 4092000.8  0.9  0.0  2  0 284595874
[17]  B02 1f 40   -317.9 4092000.9  0.9  0.0  2  0 284595875
[18]  B03 1f 43   -316.1 4092000.8  1.0  0.0  2  0 284595877
[19]  B04 1f 39   -320.6 4092000.8  0.9  0.0  2  0 284595869
[20]  B05 1f 36   -324.3 4092000.8  0.9  0.0  2  0 284595870
[21]  B07 1f 43   -557.8 4092001.4  1.0  1.0  5  0 284595878
[22]  B08 1f 41  -1765.1 4092004.6  1.0  1.0  5  1 284595876
[23]  B10 1f 43   -648.1 4092001.7  1.0  1.0  5  0 284595877
[24]  B13 1f 41  -1907.9 4092005.0  1.0  1.0  5  0 284595870
[25]  B16 1f 38   1359.8 4091996.4  1.0  1.0  5  0 284595865
[26]  B18 1f 45   -757.2 4092002.0  1.0  1.0  5  1 284595879
[27]  B30 1f 46  -1596.2 4092004.2  1.0  1.0  5  0 284595926
[28]  B09  7 29   1499.5 4091995.9  0.5  1.0 10  0      1124
$GNGGA,070313.000,2944.9082,N,10633.0983,E,1,10,99.0,281.3,M,,,,0000*23
$GNRMC,070313.000,A,2944.9082,N,10633.0983,E,0.38,0.00,100419,,*10
$GPGSA,A,3,,,,,,,,,,,,,99.0,99.0,99.0*02
$BDGSA,A,3,01,02,03,04,05,07,10,13,16,30,,,99.0,99.0,99.0*12
$GPGSV,3,1,11,01,00,000,40,04,00,000,40,30,00,000,40,07,00,000,45*7F
$GPGSV,3,2,11,08,00,000,45,09,00,000,42,11,00,000,43,16,00,000,35*78
$GPGSV,3,3,11,18,00,000,41,23,00,000,40,27,00,000,38*4E
$BDGSV,3,1,12,01,40,125,41,02,46,218,40,03,55,171,43,04,23,109,39*64
$BDGSV,3,2,12,05,26,244,36,07,62,045,43,08,00,000,41,10,63,347,43*67
$BDGSV,3,3,12,13,32,180,41,16,13,190,38,18,00,000,45,30,66,213,46*6B
$LOGTIM,2,0.000000,-491.035391,0.000000,0.000000,-56.783*36
---00000021--- Acq_st=3 2019-4-10 07:03:13 
[00]  G01  f 40  -3589.9 2046004.7  1.0  1.0  5  0         4
[01]  G04  f 40   1258.9 2045998.4  1.0  1.0  5  0         5
[02]  G30  f 40  -3252.6 2046004.2  1.0  1.0  5  0         4
[03]  G07  f 45  -1818.8 2046002.3  1.0  1.0  5  0        11
[04]  G08  f 45   1512.1 2045998.0  1.0  1.0  5  0        10
[05]  G09  f 42   2077.7 2045997.3  1.0  1.0  5  0         4
[06]  G11  f 43  -2488.5 2046003.2  1.0  1.0  5  0         9
[07]  G16  f 35   1928.7 2045997.5  1.0  1.0  5  0        18
[08]  G18  f 42  -2456.3 2046003.2  1.0  1.0  5  0         8
[09]  G23  f 40   2813.1 2045996.4  1.0  1.0  5  0         0
[10]  G27  f 37   2880.0 2045996.2  1.0  1.0  5  0         3
[16]  B01 1f 40   -302.6 4092000.8  0.9  0.0  2  0 284596874
[17]  B02 1f 39   -317.0 4092000.8  0.9  0.0  2  0 284596875
[18]  B03 1f 41   -315.2 4092000.8  1.0  0.0  2  0 284596877
[19]  B04 1f 37   -319.5 4092000.8  0.9  0.0  2  0 284596869
[20]  B05 1f 37   -323.5 4092000.9  0.9  0.0  2  0 284596870
[21]  B07 1f 43   -557.3 4092001.4  1.0  1.0  5  0 284596878
[22]  B08 1f 41  -1763.9 4092004.6  1.0  1.0  5  1 284596876
[23]  B10 1f 43   -647.2 4092001.7  1.0  1.0  5  0 284596877
[24]  B13 1f 41  -1907.3 4092005.0  1.0  1.0  5  0 284596870
[25]  B16 1f 38   1360.8 4091996.4  1.0  0.9  5  0 284596865
[26]  B18 1f 45   -756.2 4092002.0  1.0  1.0  5  1 284596879
[27]  B30 1f 46  -1594.9 4092004.2  1.0  1.0  5  0 284596926
[28]  B09  7 37   1501.1 4091996.0  1.0  1.0  5  0      2111
$GNGGA,070314.000,2944.9082,N,10633.0983,E,1,10,99.0,282.5,M,,,,0000*21
$GNRMC,070314.000,A,2944.9082,N,10633.0983,E,0.17,0.00,100419,,*1A
$GPGSA,A,3,,,,,,,,,,,,,99.0,99.0,99.0*02
$BDGSA,A,3,01,02,03,04,05,07,10,13,16,30,,,99.0,99.0,99.0*12
$GPGSV,3,1,11,01,00,000,40,04,00,000,40,30,00,000,40,07,00,000,45*7F
$GPGSV,3,2,11,08,00,000,45,09,00,000,42,11,00,000,43,16,00,000,35*78
$GPGSV,3,3,11,18,00,000,42,23,00,000,40,27,00,000,37*42
$BDGSV,3,1,12,01,40,125,40,02,46,218,39,03,55,171,41,04,23,109,37*67
$BDGSV,3,2,12,05,26,244,37,07,62,045,43,08,00,000,41,10,63,347,43*66
$BDGSV,3,3,12,13,32,180,41,16,13,190,38,18,00,000,45,30,66,213,46*6B
$LOGTIM,2,0.000000,-546.825965,0.000000,0.000000,-56.541*39
---00000022--- Acq_st=3 2019-4-10 07:03:14 
[00]  G01  f 40  -3587.6 2046004.7  1.0  1.0  5  0 284611924
[01]  G04  f 39   1261.3 2045998.4  1.0  1.0  5  0 284611925
[02]  G30  f 40  -3250.6 2046004.2  1.0  1.0  5  0 284611924
[03]  G07  f 44  -1816.5 2046002.4  1.0  1.0  5  0 284611931
[04]  G08  f 44   1514.4 2045998.0  1.0  1.0  5  0 284611930
[05]  G09  f 42   2079.8 2045997.3  1.0  1.0  5  0 284611924
[06]  G11  f 43  -2485.9 2046003.2  1.0  1.0  5  0 284611929
[07]  G16  f 35   1930.9 2045997.5  1.0  1.0  5  0 284611918
[08]  G18  f 42  -2453.8 2046003.2  1.0  1.0  5  0 284611928
[09]  G23  f 39   2815.3 2045996.3  1.0  1.0  5  0 284611920
[10]  G27  f 38   2881.9 2045996.2  1.0  1.0  5  0 284611923
[16]  B01 1f 40   -300.1 4092000.8  0.9  0.0  2  0 284597874
[17]  B02 1f 38   -315.3 4092000.9  1.0  0.0  2  0 284597875
[18]  B03 1f 42   -312.9 4092000.8  1.0  0.0  2  0 284597877
[19]  B04 1f 39   -318.0 4092000.8  0.9  0.0  2  0 284597869
[20]  B05 1f 37   -321.4 4092000.7  0.9  0.0  2  0 284597870
[21]  B07 1f 43   -555.2 4092001.5  1.0  1.0  5  0 284597878
[22]  B08 1f 41  -1761.8 4092004.6  1.0  1.0  5  1 284597876
[23]  B10 1f 43   -645.3 4092001.7  1.0  1.0  5  0 284597877
[24]  B13 1f 41  -1905.1 4092005.0  1.0  1.0  5  0 284597870
[25]  B16 1f 38   1363.8 4091996.5  1.0  1.0  5  0 284597865
[26]  B18 1f 45   -754.1 4092002.0  1.0  1.0  5  1 284597879
[27]  B30 1f 45  -1592.4 4092004.2  1.0  1.0  5  0 284597926
[28]  B09  7 38   1503.2 4091996.0  1.0  1.0  5  0      3111
$GNGGA,070315.000,2944.9114,N,10633.1050,E,1,10,99.0,292.0,M,,,,0000*2C
$GNRMC,070315.000,A,2944.9114,N,10633.1050,E,0.31,0.00,100419,,*17
$GPGSA,A,3,,,,,,,,,,,,,99.0,99.0,99.0*02
$BDGSA,A,3,01,02,03,04,05,07,10,13,16,30,,,99.0,99.0,99.0*12
$GPGSV,3,1,11,01,00,000,40,04,00,000,39,30,00,000,40,07,00,000,44*70
$GPGSV,3,2,11,08,00,000,44,09,00,000,42,11,00,000,43,16,00,000,35*79
$GPGSV,3,3,11,18,00,000,42,23,00,000,39,27,00,000,38*43
$BDGSV,3,1,12,01,40,125,40,02,46,218,38,03,55,171,42,04,23,109,39*6B
$BDGSV,3,2,12,05,26,244,37,07,62,045,43,08,00,000,41,10,63,347,43*66
$BDGSV,3,3,12,13,32,180,41,16,13,190,38,18,00,000,45,30,66,213,45*68
$LOGTIM,2,0.000000,-602.257824,0.000000,0.000000,-56.391*3A
---00000023--- Acq_st=3 2019-4-10 07:03:15 
[00]  G01  f 40  -3586.0 2046004.7  1.0  1.0  5  0 284612924
[01]  G04  f 39   1263.0 2045998.4  1.0  1.0  5  0 284612925
[02]  G30  f 40  -3249.2 2046004.2  1.0  1.0  5  0 284612924
[03]  G07  f 45  -1814.4 2046002.3  1.0  1.0  5  0 284612931
[04]  G08  f 45   1516.0 2045998.0  1.0  1.0  5  0 284612930
[05]  G09  f 42   2081.5 2045997.3  1.0  1.0  5  0 284612924
[06]  G11  f 43  -2484.2 2046003.2  1.0  1.0  5  0 284612929
[07]  G16  f 34   1932.0 2045997.5  1.0  1.0  5  0 284612918
[08]  G18  f 42  -2452.3 2046003.2  1.0  1.0  5  0 284612928
[09]  G23  f 39   2816.6 2045996.3  1.0  1.0  5  0 284612920
[10]  G27  f 38   2883.1 2045996.3  1.0  1.0  5  0 284612923
[16]  B01 1f 40   -299.4 4092000.9  0.9  0.0  2  0 284598874
[17]  B02 1f 40   -314.4 4092000.8  0.9  0.0  2  0 284598875
[18]  B03 1f 42   -312.3 4092000.8  1.0  0.0  2  0 284598877
[19]  B04 1f 39   -316.9 4092000.8  0.9  0.0  2  0 284598869
[20]  B05 1f 38   -320.6 4092000.8  0.9  0.0  2  0 284598870
[21]  B07 1f 43   -554.6 4092001.5  1.0  1.0  5  0 284598878
[22]  B08 1f 41  -1761.2 4092004.6  1.0  1.0  5  1 284598876
[23]  B10 1f 43   -644.6 4092001.6  1.0  1.0  5  0 284598877
[24]  B13 1f 41  -1904.1 4092005.0  1.0  1.0  5  0 284598870
[25]  B16 1f 38   1363.7 4091996.4  1.0  1.0  5  0 284598865
[26]  B18 1f 45   -753.6 4092002.0  1.0  1.0  5  1 284598879
[27]  B30 1f 45  -1591.1 4092004.2  1.0  1.0  5  0 284598926
[28]  B09 1f 38   1503.7 4091996.0  1.0  1.0  5  0      4111
[29]  B27  1  7   1469.8 4091997.4 -0.0  0.0  1  0         0
$GNGGA,070316.000,2944.9108,N,10633.1042,E,1,10,99.0,290.5,M,,,,0000*26
$GNRMC,070316.000,A,2944.9108,N,10633.1042,E,0.15,0.00,100419,,*1C
$GPGSA,A,3,,,,,,,,,,,,,99.0,99.0,99.0*02
$BDGSA,A,3,01,02,03,04,05,07,09,10,13,16,,,99.0,99.0,99.0*18
$GPGSV,3,1,11,01,00,000,40,04,00,000,39,30,00,000,40,07,00,000,45*71
$GPGSV,3,2,11,08,00,000,45,09,00,000,42,11,00,000,43,16,00,000,34*79
$GPGSV,3,3,11,18,00,000,42,23,00,000,39,27,00,000,38*43
$BDGSV,3,1,12,01,40,125,40,02,46,218,40,03,55,171,41,04,23,109,39*67
$BDGSV,3,2,12,05,26,244,38,07,62,045,43,08,00,000,41,10,63,347,43*69
$BDGSV,3,3,12,13,32,180,41,16,13,190,38,18,00,000,45,30,66,213,45*68
$LOGTIM,2,0.000000,-657.255461,0.000000,0.000000,-56.177*3F
---00000024--- Acq_st=3 2019-4-10 07:03:16 
[00]  G01  f 39  -3587.0 2046004.6  1.0  1.0  5  0 284613924
[01]  G04  f 39   1261.9 2045998.4  1.0  1.0  5  0 284613925
[02]  G30  f 40  -3250.5 2046004.2  1.0  1.0  5  0 284613924
[03]  G07  f 43  -1815.5 2046002.4  1.0  1.0  5  0 284613931
[04]  G08  f 44   1514.9 2045998.0  1.0  1.0  5  0 284613930
[05]  G09  f 41   2080.2 2045997.3  1.0  1.0  5  0 284613924
[06]  G11  f 42  -2485.4 2046003.2  1.0  1.0  5  0 284613929
[07]  G16  f 35   1930.7 2045997.5  1.0  0.9  5  0 284613918
[08]  G18  f 42  -2453.0 2046003.2  1.0  1.0  5  0 284613928
[09]  G23  f 40   2815.0 2045996.3  1.0  1.0  5  0 284613920
[10]  G27  f 38   2881.9 2045996.3  1.0  0.9  5  0 284613923
[16]  B01 1f 40   -300.3 4092000.8  0.9  0.0  2  0 284599874
[17]  B02 1f 39   -314.9 4092000.7  0.9  0.0  2  0 284599875
[18]  B03 1f 42   -313.1 4092000.8  0.9  0.0  2  0 284599877
[19]  B04 1f 39   -317.6 4092000.8  0.9  0.0  2  0 284599869
[20]  B05 1f 38   -321.7 4092000.8  0.9  0.0  2  0 284599870
[21]  B07 1f 43   -555.4 4092001.4  1.0  1.0  5  0 284599878
[22]  B08 1f 41  -1761.8 4092004.6  1.0  1.0  5  1 284599876
[23]  B10 1f 43   -645.3 4092001.7  1.0  1.0  5  0 284599877
[24]  B13 1f 41  -1905.1 4092005.0  1.0  1.0  5  0 284599870
[25]  B16 1f 38   1363.2 4091996.4  1.0  1.0  5  0 284599865
[26]  B18 1f 44   -754.3 4092002.0  1.0  1.0  5  1 284599879
[27]  B30 1f 45  -1591.6 4092004.2  1.0  1.0  5  0 284599926
[28]  B09 1f 38   1502.2 4091996.0  1.0  1.0  5  0 284599871
[29]  B27  7  7   1452.4 4091996.1  0.0  0.0 10  0       598
$GNGGA,070317.000,2944.9073,N,10633.1035,E,1,11,99.0,288.4,M,,,,0000*23
$GNRMC,070317.000,A,2944.9073,N,10633.1035,E,0.33,0.00,100419,,*14
$GPGSA,A,3,,,,,,,,,,,,,99.0,99.0,99.0*02
$BDGSA,A,3,01,02,03,04,05,07,09,10,13,16,30,,99.0,99.0,99.0*1B
$GPGSV,3,1,11,01,00,000,39,04,00,000,39,30,00,000,40,07,00,000,43*79
$GPGSV,3,2,11,08,00,000,44,09,00,000,41,11,00,000,42,16,00,000,35*7B
$GPGSV,3,3,11,18,00,000,42,23,00,000,40,27,00,000,38*4D
$BDGSV,3,1,12,01,40,125,40,02,46,218,39,03,55,171,42,04,23,109,39*6A
$BDGSV,3,2,12,05,26,244,38,07,62,045,43,08,00,000,41,10,63,347,43*69
$BDGSV,3,3,12,13,32,180,41,16,13,190,38,18,00,000,44,30,66,213,45*69
$LOGTIM,2,0.000000,-715.821315,0.000000,0.000000,-56.271*30
---00000025--- Acq_st=7 2019-4-10 07:03:17 
[00]  G01  f 39  -3587.1 2046004.7  1.0  1.0  5  0 284614924
[01]  G04  f 39   1262.9 2045998.4  1.0  1.0  5  0 284614925
[02]  G30  f 40  -3250.1 2046004.3  1.0  1.0  5  0 284614924
[03]  G07  f 45  -1815.2 2046002.4  1.0  1.0  5  0 284614931
[04]  G08  f 45   1515.2 2045998.0  1.0  1.0  5  0 284614930
[05]  G09  f 42   2080.3 2045997.3  1.0  1.0  5  0 284614924
[06]  G11  f 43  -2484.6 2046003.2  1.0  1.0  5  0 284614929
[07]  G16  f 35   1930.5 2045997.5  1.0  1.0  5  0 284614918
[08]  G18  f 42  -2452.5 2046003.2  1.0  1.0  5  0 284614928
[09]  G23  f 39   2815.0 2045996.3  1.0  1.0  5  0 284614920
[10]  G27  f 39   2881.4 2045996.3  1.0  1.0  5  0 284614923
[16]  B01 1f 40   -300.1 4092000.8  0.9  0.0  2  0 284600874
[17]  B02 1f 38   -315.6 4092001.0  1.0  0.0  2  0 284600875
[18]  B03 1f 42   -313.1 4092000.8  1.0  0.0  2  0 284600877
[19]  B04 1f 39   -317.8 4092000.8  0.9  0.0  2  0 284600869
[20]  B05 1f 37   -321.5 4092000.8  0.9  0.0  2  0 284600870
[21]  B07 1f 43   -555.4 4092001.4  1.0  1.0  5  0 284600878
[22]  B08 1f 41  -1761.8 4092004.6  1.0  1.0  5  1 284600876
[23]  B10 1f 43   -645.7 4092001.7  1.0  1.0  5  0 284600877
[24]  B13 1f 41  -1904.9 4092005.0  1.0  1.0  5  0 284600870
[25]  B16 1f 38   1362.2 4091996.4  1.0  0.9  5  0 284600865
[26]  B18 1f 45   -754.3 4092002.0  1.0  1.0  5  1 284600879
[27]  B30 1f 45  -1591.1 4092004.2  1.0  1.0  5  0 284600926
[28]  B09 1f 38   1502.6 4091996.1  1.0  1.0  5  0 284600871
[29]  B27  7 45   1452.3 4091996.1  1.0  1.0  5  0      1585
$GNGGA,070318.000,2944.9101,N,10633.1091,E,1,11,99.0,295.2,M,,,,0000*2C
$GNRMC,070318.000,A,2944.9101,N,10633.1091,E,0.25,0.00,100419,,*16
$GPGSA,A,3,,,,,,,,,,,,,99.0,99.0,99.0*02
$BDGSA,A,3,01,02,03,04,05,07,09,10,13,16,30,,99.0,99.0,99.0*1B
$GPGSV,3,1,11,01,00,000,39,04,00,000,39,30,00,000,40,07,00,000,45*7F
$GPGSV,3,2,11,08,00,000,45,09,00,000,42,11,00,000,43,16,00,000,35*78
$GPGSV,3,3,11,18,00,000,42,23,00,000,39,27,00,000,39*42
$BDGSV,3,1,12,01,40,125,40,02,46,218,38,03,55,171,42,04,23,109,39*6B
$BDGSV,3,2,12,05,26,244,37,07,62,045,43,08,00,000,41,10,63,347,43*66
$BDGSV,3,3,12,13,32,180,41,16,13,190,38,18,00,000,45,30,66,213,45*68
$LOGTIM,2,0.000000,-771.775136,0.000000,0.000000,-56.384*34
---00000026--- Acq_st=3 2019-4-10 07:03:18 
[00]  G01  f 39  -3585.1 2046004.7  1.0  1.0  5  0 284615924
[01]  G04  f 39   1265.1 2045998.4  1.0  1.0  5  0 284615925
[02]  G30  f 40  -3248.2 2046004.2  1.0  1.0  5  0 284615924
[03]  G07  f 43  -1812.9 2046002.4  1.0  1.0  5  0 284615931
[04]  G08  f 44   1517.5 2045998.0  1.0  1.0  5  0 284615930
[05]  G09  f 42   2082.5 2045997.3  1.0  1.0  5  0 284615924
[06]  G11  f 43  -2482.5 2046003.2  1.0  1.0  5  0 284615929
[07]  G16  f 35   1932.1 2045997.5  1.0  1.0  5  0 284615918
[08]  G18  f 42  -2450.9 2046003.2  1.0  1.0  5  0 284615928
[09]  G23  f 39   2816.8 2045996.3  1.0  0.9  5  0 284615920
[10]  G27  f 38   2883.4 2045996.2  1.0  1.0  5  0 284615923
[16]  B01 1f 41   -299.7 4092000.6  0.9  0.0  2  0 284601874
[17]  B02 1f 40   -313.9 4092000.8  0.9  0.0  2  0 284601875
[18]  B03 1f 42   -312.1 4092000.9  0.9  0.0  2  0 284601877
[19]  B04 1f 40   -316.5 4092000.8  0.9  0.0  2  0 284601869
[20]  B05 1f 38   -320.3 4092000.8  0.9  0.0  2  0 284601870
[21]  B07 1f 42   -554.0 4092001.5  1.0  1.0  5  0 284601878
[22]  B08 1f 41  -1760.0 4092004.6  1.0  1.0  5  1 284601876
[23]  B10 1f 43   -644.7 4092001.7  1.0  1.0  5  0 284601877
[24]  B13 1f 41  -1903.4 4092005.0  1.0  1.0  5  0 284601870
[25]  B16 1f 38   1363.9 4091996.4  1.0  1.0  5  0 284601865
[26]  B18 1f 44   -752.9 4092002.0  1.0  0.9  5  1 284601879
[27]  B30 1f 45  -1589.4 4092004.2  1.0  1.0  5  0 284601926
[28]  B09 1f 38   1503.9 4091996.0  1.0  1.0  5  0 284601871
[29]  B27  7 45   1454.0 4091996.1  1.0  1.0  5  0      2585
$GNGGA,070319.000,2944.9097,N,10633.1071,E,1,11,99.0,295.5,M,,,,0000*2A
$GNRMC,070319.000,A,2944.9097,N,10633.1071,E,0.13,0.00,100419,,*12
$GPGSA,A,3,,,,,,,,,,,,,99.0,99.0,99.0*02
$BDGSA,A,3,01,02,03,04,05,07,09,10,13,16,30,,99.0,99.0,99.0*1B
$GPGSV,3,1,11,01,00,000,39,04,00,000,39,30,00,000,40,07,00,000,43*79
$GPGSV,3,2,11,08,00,000,44,09,00,000,42,11,00,000,43,16,00,000,35*79
$GPGSV,3,3,11,18,00,000,42,23,00,000,39,27,00,000,38*43
$BDGSV,3,1,12,01,40,125,41,02,46,218,40,03,55,171,42,04,23,109,40*6B
$BDGSV,3,2,12,05,26,244,38,07,62,045,42,08,00,000,41,10,63,347,43*68
$BDGSV,3,3,12,13,32,180,41,16,13,190,38,18,00,000,44,30,66,213,45*69
$LOGTIM,2,0.000000,-825.141963,0.000000,0.000000,-56.050*39
---00000027--- Acq_st=3 2019-4-10 07:03:19 
[00]  G01  f 39  -3583.4 2046004.7  1.0  1.0  5  0 284616924
[01]  G04  f 39   1266.8 2045998.4  1.0  1.0  5  0 284616925
[02]  G30  f 40  -3246.4 2046004.2  1.0  1.0  5  0 284616924
[03]  G07  f 44  -1811.0 2046002.3  1.0  1.0  5  0 284616931
[04]  G08  f 44   1519.2 2045998.0  1.0  1.0  5  0 284616930
[05]  G09  f 42   2084.6 2045997.3  1.0  1.0  5  0 284616924
[06]  G11  f 43  -2480.5 2046003.2  1.0  1.0  5  0 284616929
[07]  G16  f 36   1933.4 2045997.5  1.0  0.9  5  0 284616918
[08]  G18  f 43  -2448.5 2046003.2  1.0  1.0  5  0 284616928
[09]  G23  f 40   2818.2 2045996.3  1.0  1.0  5  0 284616920
[10]  G27  f 38   2885.4 2045996.2  1.0  1.0  5  0 284616923
[11]  G13  1  7    229.5 2046000.2 -0.0  0.0  1  0         1
[16]  B01 1f 41   -297.2 4092000.9  0.9  0.0  2  0 284602874
[17]  B02 1f 40   -311.9 4092000.8  0.9  0.0  2  0 284602875
[18]  B03 1f 42   -310.1 4092000.7  0.9  0.0  2  0 284602877
[19]  B04 1f 39   -314.3 4092000.7  0.9  0.0  2  0 284602869
[20]  B05 1f 38   -318.5 4092000.7  0.9  0.0  2  0 284602870
[21]  B07 1f 43   -552.3 4092001.4  1.0  1.0  5  0 284602878
[22]  B08 1f 41  -1758.4 4092004.6  1.0  1.0  5  1 284602876
[23]  B10 1f 43   -642.5 4092001.7  1.0  1.0  5  0 284602877
[24]  B13 1f 41  -1902.0 4092005.0  1.0  1.0  5  0 284602870
[25]  B16 1f 38   1365.6 4091996.4  1.0  1.0  5  0 284602865
[26]  B18 1f 44   -751.1 4092002.0  1.0  1.0  5  1 284602879
[27]  B30 1f 45  -1587.3 4092004.1  1.0  1.0  5  0 284602926
[28]  B09 1f 37   1506.2 4091996.0  1.0  1.0  5  0 284602871
[29]  B27  7 45   1455.9 4091996.1  1.0  1.0  5  0      3585
$GNGGA,070320.000,2944.9093,N,10633.1047,E,1,11,99.0,296.5,M,,,,0000*22
$GNRMC,070320.000,A,2944.9093,N,10633.1047,E,0.10,0.00,100419,,*1A
$GPGSA,A,3,,,,,,,,,,,,,99.0,99.0,99.0*02
$BDGSA,A,3,01,02,03,04,05,07,09,10,13,16,30,,99.0,99.0,99.0*1B
$GPGSV,3,1,11,01,00,000,39,04,00,000,39,30,00,000,40,07,00,000,44*7E
$GPGSV,3,2,11,08,00,000,44,09,00,000,42,11,00,000,43,16,00,000,36*7A
$GPGSV,3,3,11,18,00,000,43,23,00,000,40,27,00,000,38*4C
$BDGSV,3,1,12,01,40,125,41,02,46,218,40,03,55,171,42,04,23,109,39*65
$BDGSV,3,2,12,05,26,244,38,07,62,045,43,08,00,000,41,10,63,347,43*69
$BDGSV,3,3,12,13,32,180,41,16,13,190,38,18,00,000,44,30,66,213,45*69
$LOGTIM,2,0.000000,-878.917208,0.000000,0.000000,-55.727*38
---00000028--- Acq_st=3 2019-4-10 07:03:20 
[00]  G01  f 39  -3580.3 2046004.7  1.0  1.0  5  0 284617924
[01]  G04  f 39   1270.7 2045998.4  1.0  1.0  5  0 284617925
[02]  G30  f 40  -3242.8 2046004.2  1.0  1.0  5  0 284617924
[03]  G07  f 44  -1807.5 2046002.3  1.0  1.0  5  0 284617931
[04]  G08  f 44   1522.5 2045998.0  1.0  1.0  5  0 284617930
[05]  G09  f 42   2087.4 2045997.3  1.0  1.0  5  0 284617924
[06]  G11  f 43  -2477.1 2046003.2  1.0  1.0  5  0 284617929
[07]  G16  f 37   1937.3 2045997.5  1.0  0.9  5  0 284617918
[08]  G18  f 42  -2445.0 2046003.2  1.0  1.0  5  0 284617928
[09]  G23  f 39   2821.0 2045996.4  1.0  1.0  5  0 284617920
[10]  G27  f 39   2888.0 2045996.2  1.0  1.0  5  0 284617923
[11]  G13  1  7    287.9 2045999.8  0.0  0.0  1  0         1
[16]  B01 1f 40   -294.8 4092000.7  0.9  0.0  2  0 284603874
[17]  B02 1f 41   -310.0 4092000.8  0.9  0.0  2  0 284603875
[18]  B03 1f 42   -307.7 4092000.8  0.9  0.0  2  0 284603877
[19]  B04 1f 39   -311.9 4092000.8  0.9  0.0  2  0 284603869
[20]  B05 1f 38   -315.5 4092000.9  0.9  0.0  2  0 284603870
[21]  B07 1f 43   -550.0 4092001.5  1.0  1.0  5  0 284603878
[22]  B08 1f 41  -1755.4 4092004.6  1.0  1.0  5  1 284603876
[23]  B10 1f 43   -640.0 4092001.7  1.0  1.0  5  0 284603877
[24]  B13 1f 41  -1899.4 4092005.0  1.0  1.0  5  0 284603870
[25]  B16 1f 38   1367.8 4091996.4  1.0  1.0  5  0 284603865
[26]  B18 1f 44   -748.6 4092002.0  1.0  1.0  5  1 284603879
[27]  B30 1f 45  -1584.2 4092004.1  1.0  1.0  5  0 284603926
[28]  B09 1f 38   1508.6 4091996.1  1.0  1.0  5  0 284603871
[29]  B27  7 45   1459.0 4091996.2  1.0  1.0  5  0      4585
$GNGGA,070321.000,2944.9087,N,10633.1021,E,1,11,99.0,297.5,M,,,,0000*27
$GNRMC,070321.000,A,2944.9087,N,10633.1021,E,0.10,0.00,100419,,*1E
$GPGSA,A,3,,,,,,,,,,,,,99.0,99.0,99.0*02
$BDGSA,A,3,01,02,03,04,05,07,09,10,13,16,30,,99.0,99.0,99.0*1B
$GPGSV,3,1,11,01,00,000,39,04,00,000,39,30,00,000,40,07,00,000,44*7E
$GPGSV,3,2,11,08,00,000,44,09,00,000,42,11,00,000,43,16,00,000,37*7B
$GPGSV,3,3,11,18,00,000,42,23,00,000,39,27,00,000,39*42
$BDGSV,3,1,12,01,40,125,40,02,46,218,41,03,55,171,42,04,23,109,39*65
$BDGSV,3,2,12,05,26,244,38,07,62,045,43,08,00,000,41,10,63,347,43*69
$BDGSV,3,3,12,13,32,180,41,16,13,190,38,18,00,000,44,30,66,213,45*69
$LOGTIM,2,0.000000,-932.024439,0.000000,0.000000,-55.255*3A
---00000029--- Acq_st=3 2019-4-10 07:03:21 
[00]  G01  f 39  -3578.0 2046004.7  1.0  1.0  5  0 284618924
[01]  G04  f 39   1272.8 2045998.4  1.0  1.0  5  0 284618925
[02]  G30  f 40  -3241.1 2046004.2  1.0  1.0  5  0 284618924
[03]  G07  f 43  -1804.5 2046002.3  1.0  1.0  5  0 284618931
[04]  G08  f 44   1525.2 2045998.0  1.0  1.0  5  0 284618930
[05]  G09  f 42   2090.0 2045997.3  1.0  1.0  5  0 284618924
[06]  G11  f 43  -2474.7 2046003.2  1.0  1.0  5  0 284618929
[07]  G16  f 36   1939.0 2045997.5  1.0  0.9  5  0 284618918
[08]  G18  f 42  -2442.2 2046003.2  1.0  1.0  5  0 284618928
[09]  G23  f 39   2823.7 2045996.3  1.0  0.9  5  0 284618920
[10]  G27  f 38   2890.6 2045996.2  1.0  1.0  5  0 284618923
[11]  G13  1  7    388.5 2046000.0 -0.1  0.0  1  0         1
[12]  G28  1 28  -1974.5 2046002.0 -0.1  0.0  1  0        19
[16]  B01 1f 39   -292.5 4092000.7  0.9  0.0  2  0 284604874
[17]  B02 1f 41   -307.0 4092000.6  0.9  0.0  2  0 284604875
[18]  B03 1f 42   -305.3 4092000.7  0.9  0.0  2  0 284604877
[19]  B04 1f 38   -309.7 4092000.8  0.9  0.0  2  0 284604869
[20]  B05 1f 37   -313.4 4092000.9  0.9  0.0  2  0 284604870
[21]  B07 1f 42   -547.5 4092001.4  1.0  0.9  5  0 284604878
[22]  B08 1f 41  -1752.7 4092004.6  1.0  1.0  5  1 284604876
[23]  B10 1f 42   -637.8 4092001.7  1.0  1.0  5  0 284604877
[24]  B13 1f 41  -1896.7 4092005.0  1.0  1.0  5  0 284604870
[25]  B16 1f 38   1370.2 4091996.5  1.0  1.0  5  0 284604865
[26]  B18 1f 44   -746.2 4092001.9  1.0  1.0  5  1 284604879
[27]  B30 1f 45  -1581.4 4092004.1  1.0  1.0  5  0 284604926
[28]  B09 1f 38   1510.6 4091996.0  1.0  1.0  5  0 284604871
[29]  B27 1f 45   1462.0 4091996.1  1.0  1.0  5  0      5585
$GNGGA,070322.000,2944.9075,N,10633.0990,E,1,12,99.0,298.9,M,,,,0000*2B
$GNRMC,070322.000,A,2944.9075,N,10633.0990,E,0.19,0.00,100419,,*1B
$GPGSA,A,3,,,,,,,,,,,,,99.0,99.0,99.0*02
$BDGSA,A,3,01,02,03,04,05,07,09,10,13,16,27,30,99.0,99.0,99.0*1E
$GPGSV,3,1,11,01,00,000,39,04,00,000,39,30,00,000,40,07,00,000,43*79
$GPGSV,3,2,11,08,00,000,44,09,00,000,42,11,00,000,43,16,00,000,36*7A
$GPGSV,3,3,11,18,00,000,42,23,00,000,39,27,00,000,38*43
$BDGSV,3,1,12,01,40,125,39,02,46,218,41,03,55,171,42,04,23,109,38*6A
$BDGSV,3,2,12,05,26,244,37,07,62,045,42,08,00,000,41,10,63,347,42*66
$BDGSV,3,3,12,13,32,180,41,16,13,190,38,18,00,000,44,30,66,213,45*69
$LOGTIM,2,0.000000,-984.227632,0.000000,0.000000,-54.814*31
---00000030--- Acq_st=3 2019-4-10 07:03:22 
[00]  G01  f 40  -3577.6 2046004.6  1.0  1.0  5  0 284619924
[01]  G04  f 39   1273.2 2045998.3  1.0  1.0  5  0 284619925
[02]  G30  f 41  -3240.7 2046004.2  1.0  1.0  5  0 284619924
[03]  G07  f 44  -1804.4 2046002.3  1.0  1.0  5  0 284619931
[04]  G08  f 44   1525.3 2045998.0  1.0  1.0  5  0 284619930
[05]  G09  f 42   2090.1 2045997.3  1.0  1.0  5  0 284619924
[06]  G11  f 43  -2474.2 2046003.2  1.0  1.0  5  0 284619929
[07]  G16  f 37   1938.4 2045997.5  1.0  0.9  5  0 284619918
[08]  G18  f 42  -2442.2 2046003.2  1.0  1.0  5  0 284619928
[09]  G23  f 39   2823.1 2045996.3  1.0  0.9  5  0 284619920
[10]  G27  f 38   2890.1 2045996.2  1.0  1.0  5  0 284619923
[12]  G28  7 14  -1960.3 2046002.7  0.0 -0.6 20  0        19
[16]  B01 1f 40   -292.8 4092000.8  0.9  0.0  2  0 284605874
[17]  B02 1f 39   -307.6 4092000.8  0.9  0.0  2  0 284605875
[18]  B03 1f 43   -305.7 4092000.7  0.9  0.0  2  0 284605877
[19]  B04 1f 40   -309.8 4092000.9  0.9  0.0  2  0 284605869
[20]  B05 1f 38   -313.6 4092000.9  0.9  0.0  2  0 284605870
[21]  B07 1f 42   -547.9 4092001.4  1.0  1.0  5  0 284605878
[22]  B08 1f 41  -1753.3 4092004.6  1.0  1.0  5  1 284605876
[23]  B10 1f 43   -638.0 4092001.6  1.0  1.0  5  0 284605877
[24]  B13 1f 41  -1896.7 4092004.9  1.0  1.0  5  0 284605870
[25]  B16 1f 38   1370.0 4091996.4  1.0  1.0  5  0 284605865
[26]  B18 1f 44   -746.5 4092002.0  1.0  0.9  5  1 284605879
[27]  B30 1f 46  -1581.2 4092004.1  1.0  1.0  5  0 284605926
[28]  B09 1f 37   1510.8 4091996.0  1.0  1.0  5  0 284605871
[29]  B27 1f 45   1461.8 4091996.1  1.0  1.0  5  0 284605925
$GNGGA,070323.000,2944.9048,N,10633.0975,E,1,11,99.0,293.9,M,,,,0000*27
$GNRMC,070323.000,A,2944.9048,N,10633.0975,E,0.16,0.00,100419,,*10
$GPGSA,A,3,,,,,,,,,,,,,99.0,99.0,99.0*02
$BDGSA,A,3,01,02,03,04,05,07,09,10,13,16,30,,99.0,99.0,99.0*1B
$GPGSV,3,1,12,01,00,000,40,04,00,000,39,30,00,000,41,07,00,000,44*72
$GPGSV,3,2,12,08,00,000,44,09,00,000,42,11,00,000,43,16,00,000,37*78
$GPGSV,3,3,12,18,00,000,42,23,00,000,39,27,00,000,38,28,00,000,14*7F
$BDGSV,3,1,12,01,40,125,40,02,46,218,39,03,55,171,43,04,23,109,40*65
$BDGSV,3,2,12,05,26,244,38,07,62,045,42,08,00,000,41,10,63,347,43*68
$BDGSV,3,3,12,13,32,180,41,16,13,190,38,18,00,000,44,30,66,213,46*6A
$LOGTIM,2,0.000000,-1044.942581,0.000000,0.000000,-55.165*08
---00000031--- Acq_st=3 2019-4-10 07:03:23 
[00]  G01  f 40  -3580.7 2046004.6  1.0  1.0  5  0 284620924
[01]  G04  f 39   1270.3 2045998.3  1.0  1.0  5  0 284620925
[02]  G30  f 40  -3244.1 2046004.2  1.0  1.0  5  0 284620924
[03]  G07  f 44  -1807.1 2046002.4  1.0  1.0  5  0 284620931
[04]  G08  f 44   1522.3 2045998.0  1.0  1.0  5  0 284620930
[05]  G09  f 41   2087.2 2045997.3  1.0  1.0  5  0 284620924
[06]  G11  f 43  -2476.7 2046003.2  1.0  1.0  5  0 284620929
[07]  G16  f 37   1935.6 2045997.4  1.0  0.9  5  0 284620918
[08]  G18  f 42  -2445.0 2046003.2  1.0  1.0  5  0 284620928
[09]  G23  f 40   2819.7 2045996.4  1.0  0.9  5  0 284620920
[10]  G27  f 39   2886.8 2045996.2  1.0  1.0  5  0 284620923
[12]  G28  7 24  -1964.7 2046002.6 -0.2 -0.0 20  0        19
[16]  B01 1f 40   -295.7 4092000.8  0.9  0.0  2  0 284606874
[17]  B02 1f 40   -310.6 4092000.7  0.9  0.0  2  0 284606875
[18]  B03 1f 43   -308.4 4092000.7  1.0  0.0  2  0 284606877
[19]  B04 1f 39   -312.8 4092000.9  0.9  0.0  2  0 284606869
[20]  B05 1f 37   -316.6 4092000.7  0.9  0.0  2  0 284606870
[21]  B07 1f 43   -550.9 4092001.4  1.0  1.0  5  0 284606878
[22]  B08 1f 41  -1756.7 4092004.6  1.0  1.0  5  1 284606876
[23]  B10 1f 43   -641.5 4092001.7  1.0  1.0  5  0 284606877
[24]  B13 1f 41  -1899.9 4092005.0  1.0  1.0  5  0 284606870
[25]  B16 1f 38   1366.4 4091996.4  1.0  1.0  5  0 284606865
[26]  B18 1f 44   -749.9 4092002.0  1.0  1.0  5  1 284606879
[27]  B30 1f 45  -1583.9 4092004.2  1.0  1.0  5  0 284606927
[28]  B09 1f 38   1507.4 4091996.1  1.0  1.0  5  0 284606871
[29]  B27 1f 45   1459.1 4091996.2  1.0  1.0  5  0 284606925
$GNGGA,070324.000,2944.9015,N,10633.0974,E,1,11,99.0,302.7,M,,,,0000*2E
$GNRMC,070324.000,A,2944.9015,N,10633.0974,E,0.39,0.00,100419,,*13
$GPGSA,A,3,,,,,,,,,,,,,99.0,99.0,99.0*02
$BDGSA,A,3,01,02,03,04,05,07,09,10,13,16,27,,99.0,99.0,99.0*1D
$GPGSV,3,1,12,01,00,000,40,04,00,000,39,30,00,000,40,07,00,000,44*73
$GPGSV,3,2,12,08,00,000,44,09,00,000,41,11,00,000,43,16,00,000,37*7B
$GPGSV,3,3,12,18,00,000,42,23,00,000,40,27,00,000,39,28,00,000,24*73
$BDGSV,3,1,12,01,40,125,40,02,46,218,40,03,55,171,43,04,23,109,39*65
$BDGSV,3,2,12,05,26,244,37,07,62,045,43,08,00,000,41,10,63,347,43*66
$BDGSV,3,3,12,13,32,180,41,16,13,190,38,18,00,000,44,30,66,213,45*69
$LOGTIM,2,0.000000,-1094.999896,0.000000,0.000000,-55.267*09
---00000032--- Acq_st=3 2019-4-10 07:03:24 
[00]  G01  f 39  -3578.8 2046004.6  1.0  1.0  5  0 284621924
[01]  G04  f 39   1273.0 2045998.4  1.0  1.0  5  0 284621925
[02]  G30  f 40  -3241.6 2046004.2  1.0  1.0  5  0 284621924
[03]  G07  f 45  -1804.8 2046002.3  1.0  1.0  5  0 284621931
[04]  G08  f 45   1524.6 2045998.0  1.0  1.0  5  0 284621930
[05]  G09  f 42   2089.4 2045997.3  1.0  1.0  5  0 284621924
[06]  G11  f 44  -2474.6 2046003.2  1.0  1.0  5  0 284621929
[07]  G16  f 37   1937.3 2045997.5  1.0  1.0  5  0 284621918
[08]  G18  f 42  -2442.5 2046003.2  1.0  1.0  5  0 284621928
[09]  G23  f 40   2821.7 2045996.3  1.0  1.0  5  0 284621920
[10]  G27  f 39   2889.6 2045996.2  1.0  1.0  5  0 284621923
[12]  G28  7 25  -1963.2 2046002.6  0.3  0.0 20  0        19
[16]  B01 1f 40   -294.0 4092000.8  1.0  0.0  2  0 284607874
[17]  B02 1f 40   -308.6 4092000.7  0.9  0.0  2  0 284607875
[18]  B03 1f 42   -307.0 4092000.8  1.0  0.0  2  0 284607877
[19]  B04 1f 39   -311.0 4092000.7  0.9  0.0  2  0 284607869
[20]  B05 1f 37   -314.9 4092000.8  0.9  0.0  2  0 284607870
[21]  B07 1f 44   -549.2 4092001.4  1.0  1.0  5  0 284607878
[22]  B08 1f 41  -1754.1 4092004.6  1.0  1.0  5  1 284607876
[23]  B10 1f 44   -639.4 4092001.6  1.0  1.0  5  0 284607877
[24]  B13 1f 41  -1897.7 4092004.9  1.0  1.0  5  0 284607870
[25]  B16 1f 38   1368.9 4091996.5  1.0  1.0  5  0 284607865
[26]  B18 1f 45   -747.8 4092002.0  1.0  1.0  5  1 284607879
[27]  B30 1f 46  -1581.5 4092004.1  1.0  1.0  5  0 284607927
[28]  B09 1f 38   1509.3 4091996.0  1.0  1.0  5  0 284607871
[29]  B27 1f 46   1461.3 4091996.1  1.0  1.0  5  0 284607925
$GNGGA,070325.000,2944.8995,N,10633.0982,E,1,11,99.0,311.2,M,,,,0000*21
$GNRMC,070325.000,A,2944.8995,N,10633.0982,E,0.40,0.00,100419,,*15
$GPGSA,A,3,,,,,,,,,,,,,99.0,99.0,99.0*02
$BDGSA,A,3,01,02,03,04,05,07,09,10,13,16,30,,99.0,99.0,99.0*1B
$GPGSV,3,1,12,01,00,000,39,04,00,000,39,30,00,000,40,07,00,000,45*7C
$GPGSV,3,2,12,08,00,000,45,09,00,000,42,11,00,000,44,16,00,000,37*7E
$GPGSV,3,3,12,18,00,000,42,23,00,000,40,27,00,000,39,28,00,000,25*72
$BDGSV,3,1,12,01,40,125,40,02,46,218,40,03,55,171,42,04,23,109,39*64
$BDGSV,3,2,12,05,26,244,37,07,62,045,44,08,00,000,41,10,63,347,44*66
$BDGSV,3,3,12,13,32,180,41,16,13,190,38,18,00,000,45,30,66,213,46*6B
$LOGTIM,2,0.000000,-1144.792072,0.000000,0.000000,-54.893*02
---00000033--- Acq_st=3 2019-4-10 07:03:25 
[00]  G01  f 40  -3575.3 2046004.7  1.0  1.0  5  0 284622924
[01]  G04  f 40   1276.8 2045998.4  1.0  1.0  5  0 284622925
[02]  G30  f 40  -3238.5 2046004.2  1.0  0.9  5  0 284622924
[03]  G07  f 45  -1800.8 2046002.3  1.0  1.0  5  0 284622931
[04]  G08  f 45   1528.5 2045998.0  1.0  1.0  5  0 284622930
[05]  G09  f 42   2092.9 2045997.3  1.0  1.0  5  0 284622924
[06]  G11  f 43  -2470.6 2046003.2  1.0  1.0  5  0 284622929
[07]  G16  f 36   1941.2 2045997.5  1.0  1.0  5  0 284622918
[08]  G18  f 42  -2438.9 2046003.2  1.0  1.0  5  0 284622928
[09]  G23  f 40   2825.3 2045996.3  1.0  1.0  5  0 284622920
[10]  G27  f 39   2892.6 2045996.3  1.0  1.0  5  0 284622923
[12]  G28  7 24  -1959.3 2046002.5 -0.1 -0.0 20  0        19
[16]  B01 1f 40   -290.5 4092000.8  1.0  0.0  2  0 284608874
[17]  B02 1f 41   -305.2 4092000.9  0.9  0.0  2  0 284608875
[18]  B03 1f 42   -303.4 4092000.8  1.0  0.0  2  0 284608877
[19]  B04 1f 39   -307.9 4092000.8  0.9  0.0  2  0 284608869
[20]  B05 1f 38   -311.3 4092000.8  0.9  0.0  2  0 284608870
[21]  B07 1f 44   -545.9 4092001.4  1.0  1.0  5  0 284608878
[22]  B08 1f 41  -1750.7 4092004.6  1.0  1.0  5  1 284608876
[23]  B10 1f 43   -636.0 4092001.7  1.0  1.0  5  0 284608877
[24]  B13 1f 41  -1894.3 4092005.0  1.0  1.0  5  0 284608870
[25]  B16 1f 38   1372.0 4091996.4  1.0  1.0  5  0 284608865
[26]  B18 1f 45   -744.6 4092002.0  1.0  1.0  5  1 284608879
[27]  B30 1f 45  -1577.8 4092004.1  1.0  1.0  5  0 284608927
[28]  B09 1f 38   1512.1 4091996.0  1.0  1.0  5  0 284608871
[29]  B27 1f 45   1465.2 4091996.1  1.0  1.0  5  0 284608925
$GNGGA,070326.000,2944.9009,N,10633.0975,E,1,12,99.0,308.5,M,,,,0000*2B
$GNRMC,070326.000,A,2944.9009,N,10633.0975,E,0.17,0.00,100419,,*11
$GPGSA,A,3,,,,,,,,,,,,,99.0,99.0,99.0*02
$BDGSA,A,3,01,02,03,04,05,07,09,10,13,16,27,30,99.0,99.0,99.0*1E
$GPGSV,3,1,12,01,00,000,40,04,00,000,40,30,00,000,40,07,00,000,45*7C
$GPGSV,3,2,12,08,00,000,45,09,00,000,42,11,00,000,43,16,00,000,36*78
$GPGSV,3,3,12,18,00,000,42,23,00,000,40,27,00,000,39,28,00,000,24*73
$BDGSV,3,1,12,01,40,125,40,02,46,218,41,03,55,171,42,04,23,109,40*6B
$BDGSV,3,2,12,05,26,244,38,07,62,045,44,08,00,000,41,10,63,347,43*6E
$BDGSV,3,3,12,13,32,180,41,16,13,190,38,18,00,000,45,30,66,213,45*68
$LOGTIM,2,0.000000,-1199.243702,0.000000,0.000000,-54.472*08
---00000034--- Acq_st=3 2019-4-10 07:03:26 
[00]  G01  f 40  -3576.6 2046004.6  1.0  1.0  5  0 284623924
[01]  G04  f 39   1275.8 2045998.3  1.0  1.0  5  0 284623925
[02]  G30  f 40  -3239.3 2046004.2  1.0  1.0  5  0 284623924
[03]  G07  f 44  -1802.0 2046002.3  1.0  1.0  5  0 284623931
[04]  G08  f 45   1527.1 2045998.0  1.0  1.0  5  0 284623930
[05]  G09  f 42   2091.7 2045997.3  1.0  1.0  5  0 284623924
[06]  G11  f 43  -2471.7 2046003.2  1.0  1.0  5  0 284623929
[07]  G16  f 36   1939.3 2045997.5  1.0  0.9  5  0 284623918
[08]  G18  f 42  -2439.7 2046003.1  1.0  1.0  5  0 284623928
[09]  G23  f 39   2823.5 2045996.4  1.0  0.9  5  0 284623920
[10]  G27  f 38   2891.4 2045996.2  1.0  1.0  5  0 284623923
[12]  G28  7 24  -1960.9 2046002.6  0.6 -0.0 20  0        19
[16]  B01 1f 40   -292.2 4092000.8  0.9  0.0  2  0 284609874
[17]  B02 1f 41   -307.1 4092000.9  0.9  0.0  2  0 284609875
[18]  B03 1f 42   -305.0 4092000.8  1.0  0.0  2  0 284609877
[19]  B04 1f 39   -309.3 4092000.9  0.9  0.0  2  0 284609869
[20]  B05 1f 38   -313.4 4092000.8  0.9  0.0  2  0 284609870
[21]  B07 1f 44   -547.2 4092001.4  1.0  1.0  5  0 284609878
[22]  B08 1f 41  -1752.1 4092004.6  1.0  1.0  5  1 284609876
[23]  B10 1f 43   -638.1 4092001.7  1.0  1.0  5  0 284609877
[24]  B13 1f 41  -1896.2 4092005.0  1.0  1.0  5  0 284609870
[25]  B16 1f 38   1370.1 4091996.4  1.0  1.0  5  0 284609865
[26]  B18 1f 44   -746.4 4092002.0  1.0  1.0  5  1 284609879
[27]  B30 1f 45  -1578.8 4092004.1  1.0  1.0  5  0 284609927
[28]  B09 1f 38   1510.8 4091996.0  1.0  1.0  5  0 284609871
