FlashID=0x1 0x20 0x18
BBram_blkflag1: 4553: baac
FW Ver: 1.30  
GPS00 Init Dop:  -5000, 41
GPS01 Init Dop:  -5000, 41
GPS02 Init Dop:  -5000, 41
GPS03 Init Dop:  -5000, 41
GPS04 Init Dop:  -5000, 41
GPS05 Init Dop:  -5000, 41
GPS06 Init Dop:  -5000, 41
GPS07 Init Dop:  -5000, 41
GPS08 Init Dop:  -5000, 41
GPS09 Init Dop:  -5000, 41
GPS10 Init Dop:  -5000, 41
GPS11 Init Dop:  -5000, 41
GPS12 Init Dop:  -5000, 41
GPS13 Init Dop:  -5000, 41
GPS14 Init Dop:  -5000, 41
GPS15 Init Dop:  -5000, 41
GPS16 Init Dop:  -5000, 41
GPS17 Init Dop:  -5000, 41
GPS18 Init Dop:  -5000, 41
GPS19 Init Dop:  -5000, 41
GPS20 Init Dop:  -5000, 41
GPS21 Init Dop:  -5000, 41
GPS22 Init Dop:  -5000, 41
GPS23 Init Dop:  -5000, 41
GPS24 Init Dop:  -5000, 41
GPS25 Init Dop:  -5000, 41
GPS26 Init Dop:  -5000, 41
GPS27 Init Dop:  -5000, 41
GPS28 Init Dop:  -5000, 41
GPS29 Init Dop:  -5000, 41
GPS30 Init Dop:  -5000, 41
GPS31 Init Dop:  -5000, 41
BDS00 Init Dop:    172,  2
BDS01 Init Dop:    186,  2
BDS02 Init Dop:    185,  2
BDS03 Init Dop:    189,  2
BDS04 Init Dop:    193,  2
BDS05 Init Dop:  -1333,  2
BDS06 Init Dop:    421,  2
BDS07 Init Dop:   1664,  2
BDS08 Init Dop:  -1630,  2
BDS09 Init Dop:    506,  2
BDS10 Init Dop:  -5000, 41
BDS11 Init Dop:  -5000, 41
BDS12 Init Dop:   1791,  2
BDS13 Init Dop:  -5000, 41
BDS14 Init Dop:  -5000, 41
BDS15 Init Dop:  -1505,  2
BDS16 Init Dop:  -5000, 41
BDS17 Init Dop:    623,  2
BDS18 Init Dop:  -1564,  2
BDS19 Init Dop:  -5000, 41
BDS20 Init Dop:  -5000, 41
BDS21 Init Dop:  -5000, 41
BDS22 Init Dop:  -5000, 41
BDS23 Init Dop:  -5000, 41
BDS24 Init Dop:  -5000, 41
BDS25 Init Dop:  -5000, 41
BDS26 Init Dop:  -1492,  2
BDS27 Init Dop:  -5000, 41
BDS28 Init Dop:   3294,  2
BDS29 Init Dop:   1566,  2
BDS30 Init Dop:  -5000, 41
BDS31 Init Dop:  -5000, 41
---00000001--- Acq_st=3 2019-4-10 06:59:21 
[00]  G04  1  7   6245.8 2045992.2  0.0  0.0  1  0         0
$GNGGA,000000.000,,,,,0,00,,,M,,,,0000*2B
$GNRMC,000000.000,A,,,,,,,000000,,*26
$GPGSA,A,1,,,,,,,,,,,,,,,*1E
$BDGSA,A,1,,,,,,,,,,,,,,,*0F
$LOGTIM,0,0.000000,0.000000,0.000000,0.000000,0.000*0A
---00000002--- Acq_st=3 2019-4-10 06:59:22 
[00]  G04  1  7   6252.2 2045992.3 -0.1  0.0  1  0        13
[01]  G08  1  7   6570.2 2045992.1 -0.1  0.0  1  0         0
[02]  G09  1  7   6939.9 2045990.8  0.2  0.0  1  0         0
$GNGGA,000000.000,,,,,0,00,,,M,,,,0000*2B
$GNRMC,000000.000,A,,,,,,,000000,,*26
$GPGSA,A,1,,,,,,,,,,,,,,,*1E
$BDGSA,A,1,,,,,,,,,,,,,,,*0F
$LOGTIM,0,0.000000,0.000000,0.000000,0.000000,0.000*0A
---00000003--- Acq_st=3 2019-4-10 06:59:23 
[00]  G04  1 10   6023.3 2045992.1 -0.1  0.0  1  0        13
[01]  G08  1  7   6515.7 2045991.5  0.0  0.0  1  0         0
[02]  G09  1  7   6850.6 2045991.1 -0.1  0.0  1  0        15
$GNGGA,000000.000,,,,,0,00,,,M,,,,0000*2B
$GNRMC,000000.000,A,,,,,,,000000,,*26
$GPGSA,A,1,,,,,,,,,,,,,,,*1E
$BDGSA,A,1,,,,,,,,,,,,,,,*0F
$LOGTIM,0,0.000000,0.000000,0.000000,0.000000,0.000*0A
---00000004--- Acq_st=3 2019-4-10 06:59:24 
[00]  G04  1  7   6040.2 2045992.3 -0.0  0.0  1  0        13
[01]  G08  1  7   6594.9 2045991.9  0.1  0.0  1  0         0
[02]  G09  1 13   6735.6 2045990.6 -0.0  0.0  1  0        15
[03]  G23  1  7   7988.1 2045990.1 -0.1  0.0  1  0         0
$GNGGA,000000.000,,,,,0,00,,,M,,,,0000*2B
$GNRMC,000000.000,A,,,,,,,000000,,*26
$GPGSA,A,1,,,,,,,,,,,,,,,*1E
$BDGSA,A,1,,,,,,,,,,,,,,,*0F
$LOGTIM,0,0.000000,0.000000,0.000000,0.000000,0.000*0A
---00000005--- Acq_st=3 2019-4-10 06:59:25 
[00]  G27  1 10   7813.2 2045990.2  0.0  0.0  1  0        13
[03]  G23  1  7   7982.6 2045990.1 -0.1  0.0  1  0         9
$GNGGA,000000.000,,,,,0,00,,,M,,,,0000*2B
$GNRMC,000000.000,A,,,,,,,000000,,*26
$GPGSA,A,1,,,,,,,,,,,,,,,*1E
$BDGSA,A,1,,,,,,,,,,,,,,,*0F
$LOGTIM,0,0.000000,0.000000,0.000000,0.000000,0.000*0A
---00000006--- Acq_st=3 2019-4-10 06:59:26 
[00]  G27  1  7   7865.5 2045989.8  0.1  0.0  1  0        15
[03]  G23  1  7   7823.1 2045990.0  0.0  0.0  1  0         9
[16]  B01  1 40   -314.5 4092001.5 -0.7  0.0  1  0         0
[17]  B02  1 40   -326.8 4092000.9  0.9  0.0  1  0         0
[18]  B03  1 10   -326.5 4092000.7  0.2  0.0  1  0         0
[19]  B04  1 10   -330.9 4092001.1 -0.3  0.0  1  0         0
[20]  B05  1 10   -331.8 4092001.8  0.0  0.0  1  0         0
[21]  B06  1  7   1258.0 4091996.9 -0.1  0.0  1  0         0
[22]  B07  1  7   -558.5 4092002.2  0.1  0.0  1  0         0
[23]  B08  1  7  -1800.8 4092005.7  0.1  0.0  1  1         0
[24]  B10  1  7   -637.6 4092002.0  0.1  0.0  1  0         0
$GNGGA,000000.000,,,,,0,00,,,M,,,,0000*2B
$GNRMC,000000.000,A,,,,,,,000000,,*26
$GPGSA,A,1,,,,,,,,,,,,,,,*1E
$BDGSA,A,1,,,,,,,,,,,,,,,*0F
$LOGTIM,0,0.000000,0.000000,0.000000,0.000000,0.000*0A
---00000007--- Acq_st=3 2019-4-10 06:59:27 
[00]  G27  1 11   7779.1 2045989.8 -0.1  0.0  1  0        15
[03]  G23  1  7   7870.8 2045990.2  0.0  0.0  1  0         9
[16]  B01  f 40   -312.1 4092000.8  0.9  0.0  2  0       194
[17]  B02  f 39   -325.9 4092000.8  0.9  0.0  2  0       195
[18]  B03  7 43   -324.9 4092000.8  1.0  0.0  2  0       738
[19]  B04  7 38   -329.6 4092000.9  0.9  0.0  2  0       725
[20]  B05  7 39   -332.4 4092000.7  0.9  0.0  2  0       713
[21]  B06  1  7   1175.0 4091996.8 -0.0  0.0  1  0       689
[22]  B07  7 26   -561.0 4092001.4  0.1  0.0 20  0       676
[23]  B08  7 25  -1805.5 4092004.7  0.1  0.0 20  1       662
[24]  B10  7 25   -642.6 4092001.7  0.1  0.0 20  0       626
[25]  B13  1  7  -1930.6 4092005.4  0.2  0.0  1  0         0
$GNGGA,065932.464,2945.0530,N,10633.0843,E,1,05,0.0,492.9,M,,,,0000*1B
$GNRMC,065932.464,A,2945.0530,N,10633.0843,E,0.00,0.00,100419,,*19
$GPGSA,A,3,,,,,,,,,,,,,0.0,0.0,0.0*32
$BDGSA,A,3,01,02,03,04,05,,,,,,,,0.0,0.0,0.0*22
$BDGSV,2,1,08,01,00,000,40,02,00,000,39,03,00,000,43,04,00,000,38*65
$BDGSV,2,2,08,05,00,000,39,07,00,000,26,08,00,000,25,10,00,000,25*65
$LOGTIM,2,0.000000,1189890988.888294,0.000000,0.000000,0.000*36
---00000008--- Acq_st=3 2019-4-10 06:59:28 
[16]  B01  f 40   -310.7 4092000.8  0.9  0.0  2  0 284372394
[17]  B02  f 41   -324.8 4092000.8  0.9  0.0  2  0 284372395
[18]  B03  f 42   -323.2 4092000.8  0.9  0.0  2  0      1737
[19]  B04  f 40   -327.3 4092000.9  0.9  0.0  2  0      1724
[20]  B05  f 38   -330.8 4092000.8  0.9  0.0  2  0      1712
[21]  B06  1  7   1105.9 4091997.2  0.1  0.0  1  0      1689
[22]  B07  7 43   -558.9 4092001.4  1.0  1.0  5  0      1658
[23]  B08  7 41  -1803.4 4092004.7  1.0  1.0  5  1      1655
[24]  B10  7 43   -644.0 4092001.7  0.9  1.0  5  0      1617
[25]  B13  7 30  -1929.2 4092005.1  0.5  1.0  5  0       943
[26]  B18  1  7   -761.6 4092002.9 -0.1  0.0  1  1         0
[27]  B20  1  7   5023.4 4091987.1  0.1  0.0  1  0         0
$GNGGA,000000.000,,,,,0,00,,,M,,,,0000*2B
$GNRMC,000000.000,A,,,,,,,000000,,*26
$GPGSA,A,1,,,,,,,,,,,,,,,*1E
$BDGSA,A,1,,,,,,,,,,,,,,,*0F
$BDGSV,3,1,09,01,00,000,40,02,00,000,41,03,00,000,42,04,00,000,40*64
$BDGSV,3,2,09,05,00,000,38,07,00,000,43,08,00,000,41,10,00,000,43*65
$BDGSV,3,3,09,13,00,000,30*50
$LOGTIM,0,0.000000,0.000000,0.000000,0.000000,0.000*0A
---00000009--- Acq_st=3 2019-4-10 06:59:29 
[16]  B01 1f 41   -308.0 4092000.8  0.9  0.0  2  0 284373931
[17]  B02 1f 39   -321.5 4092000.8  0.9  0.0  2  0 284373932
[18]  B03 1f 41   -320.5 4092000.8  0.9  0.0  2  0 284373933
[19]  B04 1f 40   -324.5 4092000.9  0.9  0.0  2  0 284373925
[20]  B05 1f 38   -327.2 4092001.0  0.9  0.0  2  0 284373926
[22]  B07  7 44   -556.1 4092001.5  1.0  1.0  5  0      3194
[23]  B08  7 41  -1800.2 4092004.7  1.0  1.0  5  1      3192
[24]  B10  7 43   -640.9 4092001.7  1.0  1.0  5  0      3154
[25]  B13  7 41  -1926.1 4092005.1  1.0  1.0  5  0      2467
[26]  B18  7 30   -758.4 4092001.9  0.3  1.0  5  1      1435
[27]  B20  1  9   4910.1 4091986.9 -0.1  0.0  1  0      1079
$GNGGA,000000.000,,,,,0,00,,,M,,,,0000*2B
$GNRMC,000000.000,A,,,,,,,000000,,*26
$GPGSA,A,1,,,,,,,,,,,,,,,*1E
$BDGSA,A,1,,,,,,,,,,,,,,,*0F
$BDGSV,3,1,12,01,40,125,41,02,46,218,39,03,55,171,41,04,23,109,40*66
$BDGSV,3,2,12,05,26,244,38,07,62,044,44,08,00,000,41,10,63,347,43*6F
$BDGSV,3,3,12,13,31,179,41,18,00,000,30,06,09,182,00,09,25,205,00*66
$LOGTIM,0,0.000000,0.000000,0.000000,0.000000,0.000*0A
---00000010--- Acq_st=3 2019-4-10 06:59:30 
[16]  B01 1f 41   -306.3 4092000.9  0.9  0.0  2  0 284374331
[17]  B02 1f 41   -320.6 4092001.0  0.9  0.0  2  0 284374332
[18]  B03 1f 43   -319.3 4092000.9  1.0  0.0  2  0 284374333
[19]  B04 1f 40   -323.4 4092000.9  0.9  0.0  2  0 284374325
[20]  B05 1f 37   -326.4 4092000.8  0.9  0.0  2  0 284374326
[21]  B30  1  7  -1546.5 4092006.1  0.0  0.0  1  0      3225
[22]  B07  7 43   -555.0 4092001.4  1.0  1.0  5  0      4194
[23]  B08  7 41  -1798.9 4092004.7  1.0  1.0  5  1      4192
[24]  B10  7 43   -639.7 4092001.7  1.0  1.0  5  0      4154
[25]  B13  7 41  -1924.8 4092005.0  1.0  1.0  5  0      3467
[26]  B18  7 45   -757.4 4092001.9  1.0  1.0  5  1      2435
[27]  B20  1  9   4781.4 4091987.2  0.2  0.0  1  0      2079
$GNGGA,000000.000,,,,,0,00,,,M,,,,0000*2B
$GNRMC,000000.000,A,,,,,,,000000,,*26
$GPGSA,A,1,,,,,,,,,,,,,,,*1E
$BDGSA,A,1,,,,,,,,,,,,,,,*0F
$BDGSV,3,1,12,01,40,125,41,02,46,218,41,03,55,171,43,04,23,109,40*6B
$BDGSV,3,2,12,05,26,244,37,07,62,044,43,08,00,000,41,10,63,347,43*67
$BDGSV,3,3,12,13,31,179,41,18,00,000,45,06,09,182,00,09,25,205,00*64
$LOGTIM,0,0.000000,0.000000,0.000000,0.000000,0.000*0A
---00000011--- Acq_st=7 2019-4-10 06:59:31 
[16]  B01 1f 40   -305.9 4092000.8  0.9  0.0  2  0 284375331
[17]  B02 1f 39   -320.4 4092000.9  0.9  0.0  2  0 284375332
[18]  B03 1f 41   -318.5 4092000.8  0.9  0.0  2  0 284375333
[19]  B04 1f 40   -322.9 4092000.8  0.9  0.0  2  0 284375325
[20]  B05 1f 38   -326.2 4092001.0  0.9  0.0  2  0 284375326
[21]  B30  1  7  -1701.1 4092005.2  0.2  0.0  1  0       673
[22]  B07  7 43   -554.3 4092001.4  1.0  1.0  5  0      5194
[23]  B08  7 41  -1798.5 4092004.7  1.0  1.0  5  1      5192
[24]  B10  7 43   -639.0 4092001.7  1.0  1.0  5  0      5154
[25]  B13  7 41  -1924.6 4092005.1  1.0  1.0  5  0      4467
[26]  B18  7 45   -756.7 4092002.0  1.0  1.0  5  1      3435
$GNGGA,000000.000,,,,,0,00,,,M,,,,0000*2B
$GNRMC,000000.000,A,,,,,,,000000,,*26
$GPGSA,A,1,,,,,,,,,,,,,,,*1E
$BDGSA,A,1,,,,,,,,,,,,,,,*0F
$BDGSV,3,1,12,01,40,125,40,02,46,218,39,03,55,171,41,04,23,109,40*67
$BDGSV,3,2,12,05,26,244,38,07,62,044,43,08,00,000,41,10,63,347,43*68
$BDGSV,3,3,12,13,31,179,41,18,00,000,45,06,09,182,00,09,25,205,00*64
$LOGTIM,0,0.000000,0.000000,0.000000,0.000000,0.000*0A
---00000012--- Acq_st=7 2019-4-10 06:59:32 
[16]  B01 1f 41   -303.2 4092000.9  1.0  0.0  2  0 284376331
[17]  B02 1f 40   -317.1 4092000.7  0.9  0.0  2  0 284376332
[18]  B03 1f 43   -316.0 4092000.9  1.0  0.0  2  0 284376333
[19]  B04 1f 39   -320.2 4092000.9  0.9  0.0  2  0 284376325
[20]  B05 1f 39   -323.1 4092001.0  0.9  0.0  2  0 284376326
[21]  B30  7 35  -1698.0 4092004.3  0.4  1.0  5  0      1663
[22]  B07  7 43   -551.9 4092001.4  1.0  1.0  5  0      6194
[23]  B08  7 41  -1795.6 4092004.7  1.0  1.0  5  1      6192
[24]  B10  7 43   -636.7 4092001.6  1.0  1.0  5  0      6154
[25]  B13  7 41  -1921.5 4092005.0  1.0  1.0  5  0      5467
[26]  B18  7 44   -754.0 4092002.0  1.0  1.0  5  1      4435
$GNGGA,000000.000,,,,,0,00,,,M,,,,0000*2B
$GNRMC,000000.000,A,,,,,,,000000,,*26
$GPGSA,A,1,,,,,,,,,,,,,,,*1E
$BDGSA,A,1,,,,,,,,,,,,,,,*0F
$BDGSV,3,1,12,01,40,125,41,02,46,218,40,03,55,171,43,04,23,109,39*64
$BDGSV,3,2,12,05,26,244,39,30,65,211,35,07,62,044,43,08,00,000,41*6E
$BDGSV,3,3,12,10,63,347,43,13,31,179,41,18,00,000,44,06,09,182,00*6F
$LOGTIM,0,0.000000,0.000000,0.000000,0.000000,0.000*0A
---00000013--- Acq_st=7 2019-4-10 06:59:33 
[16]  B01 1f 40   -302.6 4092000.8  0.9  0.0  2  0 284377331
[17]  B02 1f 40   -316.2 4092000.8  0.9  0.0  2  0 284377332
[18]  B03 1f 43   -315.2 4092000.8  1.0  0.0  2  0 284377333
[19]  B04 1f 38   -319.8 4092000.8  1.0  0.0  2  0 284377325
[20]  B05 1f 38   -322.8 4092000.8  0.9  0.0  2  0 284377326
[21]  B30 1f 46  -1696.7 4092004.4  1.0  1.0  5  0 284377383
[22]  B07 1f 44   -551.0 4092001.5  1.0  1.0  5  0 284377334
[23]  B08 1f 41  -1794.7 4092004.7  1.0  1.0  5  1 284377332
[24]  B10 1f 43   -636.2 4092001.7  1.0  1.0  5  0 284377334
[25]  B13 1f 41  -1921.1 4092005.0  1.0  1.0  5  0 284377327
[26]  B18 1f 45   -753.2 4092001.9  1.0  1.0  5  1 284377335
$GNGGA,000000.000,,,,,0,00,,,M,,,,0000*2B
$GNRMC,000000.000,A,,,,,,,000000,,*26
$GPGSA,A,1,,,,,,,,,,,,,,,*1E
$BDGSA,A,1,,,,,,,,,,,,,,,*0F
$BDGSV,3,1,12,01,40,125,40,02,46,218,40,03,55,171,43,04,23,109,38*64
$BDGSV,3,2,12,05,26,244,38,30,65,211,46,07,62,044,44,08,00,000,41*6C
$BDGSV,3,3,12,10,63,347,43,13,31,179,41,18,00,000,45,06,09,182,00*6E
$LOGTIM,0,0.000000,0.000000,0.000000,0.000000,0.000*0A
---00000014--- Acq_st=3 2019-4-10 06:59:34 
[00]  G01  1  9  -3669.2 2046007.4 -0.0  0.0  1  0         7
[01]  G04  1  7   1174.7 2045999.2 -0.0  0.0  1  0         0
[16]  B01 1f 40   -305.5 4092000.7  0.9  0.0  2  0 284378331
[17]  B02 1f 41   -319.7 4092000.8  0.9  0.0  2  0 284378332
[18]  B03 1f 41   -318.1 4092000.9  1.0  0.0  2  0 284378333
[19]  B04 1f 40   -322.6 4092000.9  0.9  0.0  2  0 284378325
[20]  B05 1f 37   -325.9 4092001.1  0.9  0.0  2  0 284378326
[21]  B30 1f 46  -1698.9 4092004.4  1.0  1.0  5  0 284378383
[22]  B07 1f 44   -554.0 4092001.4  1.0  1.0  5  0 284378334
[23]  B08 1f 41  -1797.8 4092004.7  1.0  1.0  5  1 284378332
[24]  B10 1f 43   -638.6 4092001.7  1.0  1.0  5  0 284378334
[25]  B13 1f 40  -1923.7 4092005.0  1.0  1.0  5  0 284378327
[26]  B18 1f 45   -756.0 4092002.0  1.0  1.0  5  1 284378335
$GNGGA,000000.000,,,,,0,00,,,M,,,,0000*2B
$GNRMC,000000.000,A,,,,,,,000000,,*26
$GPGSA,A,1,,,,,,,,,,,,,,,*1E
$BDGSA,A,1,,,,,,,,,,,,,,,*0F
$BDGSV,3,1,12,01,40,125,40,02,46,218,41,03,55,171,41,04,23,109,40*68
$BDGSV,3,2,12,05,26,244,37,30,65,211,46,07,62,044,44,08,00,000,41*63
$BDGSV,3,3,12,10,63,347,43,13,31,179,40,18,00,000,45,06,09,182,00*6F
$LOGTIM,0,0.000000,0.000000,0.000000,0.000000,0.000*0A
---00000015--- Acq_st=3 2019-4-10 06:59:35 
[00]  G01  7 29  -3642.5 2046004.7  0.5  1.0 10  0         0
[01]  G04  7 16   1151.7 2045998.4  0.1  0.0 20  0         4
[02]  G07  1 28  -1910.2 2046003.6 -0.2  0.0  1  0         0
[03]  G08  1 28   1416.0 2045998.6 -0.0  0.0  1  0        15
[04]  G09  1 28   2007.2 2045997.9 -0.0  0.0  1  0        10
[05]  G11  1 18  -2577.3 2046005.7 -0.1  0.0  1  0        15
[16]  B01 1f 40   -307.7 4092000.8  0.9  0.0  2  0 284379331
[17]  B02 1f 40   -321.3 4092000.9  0.9  0.0  2  0 284379332
[18]  B03 1f 42   -320.2 4092000.8  1.0  0.0  2  0 284379333
[19]  B04 1f 40   -324.3 4092000.8  0.9  0.0  2  0 284379325
[20]  B05 1f 36   -327.2 4092000.9  0.9  0.0  2  0 284379326
[21]  B30 1f 46  -1700.4 4092004.4  1.0  1.0  5  0 284379383
[22]  B07 1f 44   -555.8 4092001.5  1.0  1.0  5  0 284379334
[23]  B08 1f 41  -1798.7 4092004.7  1.0  1.0  5  1 284379332
[24]  B10 1f 43   -640.9 4092001.7  1.0  1.0  5  0 284379334
[25]  B13 1f 41  -1925.8 4092005.1  1.0  1.0  5  0 284379327
[26]  B18 1f 45   -758.2 4092002.0  1.0  1.0  5  1 284379335
$GNGGA,000000.000,,,,,0,00,,,M,,,,0000*2B
$GNRMC,000000.000,A,,,,,,,000000,,*26
$GPGSA,A,1,,,,,,,,,,,,,,,*1E
$BDGSA,A,1,,,,,,,,,,,,,,,*0F
$GPGSV,1,1,02,01,00,000,29,04,00,000,16*72
$BDGSV,3,1,12,01,40,125,40,02,46,218,40,03,55,171,42,04,23,109,40*6A
$BDGSV,3,2,12,05,26,244,36,30,65,211,46,07,62,044,44,08,00,000,41*62
$BDGSV,3,3,12,10,63,347,43,13,31,179,41,18,00,000,45,06,09,182,00*6E
$LOGTIM,0,0.000000,0.000000,0.000000,0.000000,0.000*0A
---00000016--- Acq_st=3 2019-4-10 06:59:36 
[00]  G01  7 40  -3642.5 2046004.7  1.0  0.9  5  0         0
[01]  G04  7 39   1151.2 2045998.4  0.8  1.0  5  0         2
[02]  G07  7 32  -1927.9 2046002.4  0.6  1.0  5  0         7
[03]  G08  7 30   1427.5 2045998.0  0.5  1.0  5  0         7
[04]  G09  7 29   2006.8 2045997.3  0.7  1.0 10  0         1
[05]  G11  7 23  -2598.7 2046003.3 -0.1  0.0 20  0        15
[06]  G16  1  7   1955.3 2045998.9  0.1  0.0  1  0        14
[07]  G18  1  7  -2519.4 2046006.0 -0.0  0.0  1  0        19
[16]  B01 1f 41   -307.9 4092000.8  0.9  0.0  2  0 284380331
[17]  B02 1f 40   -321.5 4092000.8  0.9  0.0  2  0 284380332
[18]  B03 1f 43   -320.4 4092000.8  0.9  0.0  2  0 284380333
[19]  B04 1f 39   -324.8 4092000.8  0.9  0.0  2  0 284380325
[20]  B05 1f 39   -328.1 4092000.8  0.9  0.0  2  0 284380326
[21]  B30 1f 45  -1700.4 4092004.4  1.0  1.0  5  0 284380383
[22]  B07 1f 44   -556.5 4092001.4  1.0  1.0  5  0 284380334
[23]  B08 1f 41  -1799.2 4092004.7  1.0  1.0  5  1 284380332
[24]  B10 1f 43   -641.6 4092001.6  1.0  1.0  5  0 284380334
[25]  B13 1f 41  -1926.0 4092005.0  1.0  1.0  5  0 284380327
[26]  B18 1f 45   -758.4 4092002.0  1.0  1.0  5  1 284380335
$GNGGA,000000.000,,,,,0,00,,,M,,,,0000*2B
$GNRMC,000000.000,A,,,,,,,000000,,*26
$GPGSA,A,1,,,,,,,,,,,,,,,*1E
$BDGSA,A,1,,,,,,,,,,,,,,,*0F
$GPGSV,2,1,06,01,00,000,40,04,00,000,39,07,00,000,32,08,00,000,30*7A
$GPGSV,2,2,06,09,00,000,29,11,00,000,23*7C
$BDGSV,3,1,12,01,40,125,41,02,46,218,40,03,55,171,43,04,23,109,39*64
$BDGSV,3,2,12,05,26,244,39,30,65,211,45,07,62,044,44,08,00,000,41*6E
$BDGSV,3,3,12,10,63,347,43,13,31,179,41,18,00,000,45,06,09,182,00*6E
$LOGTIM,0,0.000000,0.000000,0.000000,0.000000,0.000*0A
---00000017--- Acq_st=3 2019-4-10 06:59:37 
[00]  G01  f 40  -3644.6 2046004.7  1.0  1.0  5  0 284395380
[01]  G04  f 39   1150.1 2045998.5  1.0  1.0  5  0 284395382
[02]  G07  7 44  -1929.2 2046002.4  1.0  1.0  5  0         7
[03]  G08  7 43   1426.4 2045998.0  1.0  1.0  5  0         7
[04]  G09  7 42   2006.3 2045997.3  1.0  1.0  5  0         1
[05]  G11  7 43  -2599.0 2046003.3  0.9  1.0  5  0         5
[06]  G16  7 23   1944.0 2045997.4 -0.0  0.4 20  0        15
[07]  G18  7 23  -2571.8 2046003.2  0.2  0.0 20  0        19
[08]  G23  1 29   2799.1 2045996.1  0.0  0.0  1  0        17
[09]  G27  1  7   2787.2 2045997.6  0.0  0.0  1  0         0
[16]  B01 1f 40   -309.5 4092000.7  0.9  0.0  2  0 284381331
[17]  B02 1f 40   -323.3 4092000.8  1.0  0.0  2  0 284381332
[18]  B03 1f 41   -322.0 4092000.9  1.0  0.0  2  0 284381333
[19]  B04 1f 40   -326.5 4092000.8  0.9  0.0  2  0 284381325
[20]  B05 1f 37   -329.3 4092000.8  0.9  0.0  2  0 284381326
[21]  B30 1f 46  -1701.7 4092004.4  1.0  1.0  5  0 284381383
[22]  B07 1f 44   -558.3 4092001.4  1.0  1.0  5  0 284381334
[23]  B08 1f 41  -1800.9 4092004.7  1.0  1.0  5  1 284381332
[24]  B10 1f 43   -643.0 4092001.7  1.0  1.0  5  0 284381334
[25]  B13 1f 41  -1927.5 4092005.0  1.0  1.0  5  0 284381327
[26]  B18 1f 45   -760.2 4092002.0  1.0  1.0  5  1 284381335
$GNGGA,000000.000,,,,,0,00,,,M,,,,0000*2B
$GNRMC,000000.000,A,,,,,,,000000,,*26
$GPGSA,A,1,,,,,,,,,,,,,,,*1E
$BDGSA,A,1,,,,,,,,,,,,,,,*0F
$GPGSV,2,1,08,01,00,000,40,04,00,000,39,07,00,000,44,08,00,000,43*71
$GPGSV,2,2,08,09,00,000,42,11,00,000,43,16,00,000,23,18,00,000,23*77
$BDGSV,3,1,12,01,40,125,40,02,46,218,40,03,55,171,41,04,23,109,40*69
$BDGSV,3,2,12,05,26,244,37,30,65,211,46,07,62,044,44,08,00,000,41*63
$BDGSV,3,3,12,10,63,347,43,13,31,179,41,18,00,000,45,06,09,182,00*6E
$LOGTIM,0,0.000000,0.000000,0.000000,0.000000,0.000*0A
---00000018--- Acq_st=3 2019-4-10 06:59:38 
[00]  G01  f 40  -3641.6 2046004.7  1.0  1.0  5  0 284396380
[01]  G04  f 39   1153.1 2045998.5  1.0  1.0  5  0 284396382
[02]  G07  7 44  -1926.2 2046002.5  1.0  1.0  5  0         7
[03]  G08  7 43   1429.4 2045998.1  1.0  1.0  5  0         7
[04]  G09  7 42   2009.4 2045997.3  1.0  1.0  5  0         1
[05]  G11  7 42  -2595.9 2046003.3  1.0  1.0  5  0         5
[06]  G16  7 26   1947.8 2045997.4  0.4  0.1 10  0        15
[07]  G18  7 42  -2568.7 2046003.2  1.0  1.0  5  0         4
[08]  G23  7 28   2806.0 2045996.4  0.1  0.0 10  0        17
[09]  G27  1 29   2852.3 2045996.3 -0.0  0.0  1  0         4
[10]  G30  1 27  -3310.9 2046006.1  0.0  0.0  1  0         0
[16]  B01 1f 39   -306.6 4092000.7  0.9  0.0  2  0 284382331
[17]  B02 1f 40   -320.9 4092000.8  0.9  0.0  2  0 284382332
[18]  B03 1f 41   -319.3 4092000.9  1.0  0.0  2  0 284382333
[19]  B04 1f 39   -323.9 4092000.8  0.9  0.0  2  0 284382325
[20]  B05 1f 37   -326.3 4092000.9  0.9  0.0  2  0 284382326
[21]  B30 1f 45  -1698.5 4092004.4  1.0  1.0  5  0 284382383
[22]  B07 1f 43   -555.6 4092001.4  1.0  1.0  5  0 284382334
[23]  B08 1f 40  -1798.3 4092004.7  1.0  1.0  5  1 284382332
[24]  B10 1f 43   -640.3 4092001.7  1.0  1.0  5  0 284382334
[25]  B13 1f 40  -1925.0 4092005.0  1.0  1.0  5  0 284382327
[26]  B18 1f 45   -757.7 4092002.0  1.0  1.0  5  1 284382335
$GNGGA,000000.000,,,,,0,00,,,M,,,,0000*2B
$GNRMC,000000.000,A,,,,,,,000000,,*26
$GPGSA,A,1,,,,,,,,,,,,,,,*1E
$BDGSA,A,1,,,,,,,,,,,,,,,*0F
$GPGSV,3,1,09,01,00,000,40,04,00,000,39,07,00,000,44,08,00,000,43*71
$GPGSV,3,2,09,09,00,000,42,11,00,000,42,16,00,000,26,18,00,000,42*74
$GPGSV,3,3,09,23,00,000,28*4B
$BDGSV,3,1,12,01,40,125,39,02,46,218,40,03,55,171,41,04,23,109,39*69
$BDGSV,3,2,12,05,26,244,37,30,65,211,45,07,62,044,43,08,00,000,40*66
$BDGSV,3,3,12,10,63,347,43,13,31,179,40,18,00,000,45,06,09,182,00*6F
$LOGTIM,0,0.000000,0.000000,0.000000,0.000000,0.000*0A
---00000019--- Acq_st=3 2019-4-10 06:59:39 
[00]  G01  f 39  -3639.7 2046004.7  1.0  1.0  5  0 284397380
[01]  G04  f 38   1155.0 2045998.5  1.0  1.0  5  0 284397382
[02]  G07  7 42  -1924.3 2046002.5  1.0  1.0  5  0         7
[03]  G08  7 42   1431.1 2045998.1  1.0  1.0  5  0         7
[04]  G09  7 41   2010.7 2045997.3  1.0  1.0  5  0         1
[05]  G11  7 41  -2593.9 2046003.3  1.0  1.0  5  0         5
[06]  G16  7 25   1950.4 2045997.5 -0.5 -0.1 10  0        15
[07]  G18  7 41  -2566.9 2046003.3  1.0  1.0  5  0         4
[08]  G23  7 41   2807.2 2045996.3  0.8  1.0  5  0        17
[09]  G27  7 35   2854.0 2045996.2  0.5  1.0  5  0         0
[10]  G30  7 27  -3300.3 2046004.2  0.3  0.0 10  0         0
[16]  B01 1f 40   -305.3 4092000.8  0.9  0.0  2  0 284383331
[17]  B02 1f 39   -318.7 4092000.7  0.9  0.0  2  0 284383332
[18]  B03 1f 42   -317.7 4092000.7  0.9  0.0  2  0 284383333
[19]  B04 1f 38   -321.6 4092000.8  0.9  0.0  2  0 284383325
[20]  B05 1f 37   -324.7 4092000.8  0.9  0.0  2  0 284383326
[21]  B30 1f 45  -1696.4 4092004.4  1.0  1.0  5  0 284383383
[22]  B07 1f 43   -553.6 4092001.4  1.0  1.0  5  0 284383334
[23]  B08 1f 40  -1795.8 4092004.7  1.0  1.0  5  1 284383332
[24]  B10 1f 42   -638.7 4092001.7  1.0  1.0  5  0 284383334
[25]  B13 1f 40  -1923.2 4092005.0  1.0  1.0  5  0 284383327
[26]  B18 1f 44   -755.9 4092002.0  1.0  1.0  5  1 284383335
[27]  B09  1  7   1496.8 4091995.8 -0.0  0.0  1  0       426
$GNGGA,000000.000,,,,,0,00,,,M,,,,0000*2B
$GNRMC,000000.000,A,,,,,,,000000,,*26
$GPGSA,A,1,,,,,,,,,,,,,,,*1E
$BDGSA,A,1,,,,,,,,,,,,,,,*0F
$GPGSV,3,1,11,01,00,000,39,04,00,000,38,07,00,000,42,08,00,000,42*70
$GPGSV,3,2,11,09,00,000,41,11,00,000,41,16,00,000,25,18,00,000,41*7D
$GPGSV,3,3,11,23,00,000,41,27,00,000,35,30,00,000,27*48
$BDGSV,3,1,12,01,40,125,40,02,46,218,39,03,55,171,42,04,23,109,38*6B
$BDGSV,3,2,12,05,26,244,37,30,65,211,45,07,62,044,43,08,00,000,40*66
$BDGSV,3,3,12,10,63,347,42,13,31,179,40,18,00,000,44,06,09,182,00*6F
$LOGTIM,0,0.000000,0.000000,0.000000,0.000000,0.000*0A
---00000020--- Acq_st=3 2019-4-10 06:59:40 
[00]  G01  f 40  -3638.0 2046004.7  1.0  1.0  5  0 284398380
[01]  G04  f 39   1157.2 2045998.5  1.0  1.0  5  0 284398382
[02]  G07  7 43  -1922.3 2046002.5  1.0  1.0  5  0         7
[03]  G08  7 42   1433.0 2045998.1  1.0  1.0  5  0         7
[04]  G09  7 41   2012.8 2045997.4  1.0  1.0  5  0         1
[05]  G11  7 42  -2592.3 2046003.3  1.0  1.0  5  0         5
[06]  G16  7 25   1952.8 2045997.4 -0.9 -0.0 10  0        15
[07]  G18  7 41  -2564.6 2046003.3  1.0  1.0  5  0         4
[08]  G23  7 40   2808.4 2045996.3  1.0  1.0  5  0        17
[09]  G27  7 39   2854.9 2045996.2  1.0  1.0  5  0         0
[10]  G30  7 39  -3299.3 2046004.2  0.9  1.0  5  0         0
[16]  B01 1f 40   -304.1 4092000.8  0.9  0.0  2  0 284384331
[17]  B02 1f 40   -317.9 4092000.7  0.9  0.0  2  0 284384332
[18]  B03 1f 42   -316.3 4092000.8  1.0  0.0  2  0 284384333
[19]  B04 1f 40   -320.9 4092000.9  0.9  0.0  2  0 284384325
[20]  B05 1f 39   -323.7 4092001.0  0.9  0.0  2  0 284384326
[21]  B30 1f 45  -1694.9 4092004.4  1.0  1.0  5  0 284384383
[22]  B07 1f 43   -552.8 4092001.4  1.0  1.0  5  0 284384334
[23]  B08 1f 40  -1794.9 4092004.7  1.0  1.0  5  1 284384332
[24]  B10 1f 42   -637.8 4092001.7  1.0  1.0  5  0 284384334
[25]  B13 1f 40  -1922.3 4092005.0  1.0  1.0  5  0 284384327
[26]  B18 1f 44   -754.8 4092002.0  1.0  1.0  5  1 284384335
[27]  B09  7 29   1498.8 4091996.0  0.4  1.0  5  0      1407
[28]  B16  1  7   1456.7 4091997.9  0.1  0.0  1  0         0
$GNGGA,000000.000,,,,,0,00,,,M,,,,0000*2B
$GNRMC,000000.000,A,,,,,,,000000,,*26
$GPGSA,A,1,,,,,,,,,,,,,,,*1E
$BDGSA,A,1,,,,,,,,,,,,,,,*0F
$GPGSV,3,1,11,01,00,000,40,04,00,000,39,07,00,000,43,08,00,000,42*7E
$GPGSV,3,2,11,09,00,000,41,11,00,000,42,16,00,000,25,18,00,000,41*7E
$GPGSV,3,3,11,23,00,000,40,27,00,000,39,30,00,000,39*4A
$BDGSV,3,1,12,01,40,125,40,02,46,218,40,03,55,171,42,04,23,109,40*6A
$BDGSV,3,2,12,05,26,244,39,30,65,211,45,07,62,044,43,08,00,000,40*68
$BDGSV,3,3,12,10,63,347,42,13,31,179,40,18,00,000,44,09,25,205,29*69
$LOGTIM,0,0.000000,0.000000,0.000000,0.000000,0.000*0A
---00000021--- Acq_st=3 2019-4-10 06:59:41 
[00]  G01  f 39  -3637.8 2046004.7  1.0  1.0  5  0 284399380
[01]  G04  f 39   1157.7 2045998.5  1.0  1.0  5  0 284399382
[02]  G07  7 43  -1922.1 2046002.5  1.0  1.0  5  0         7
[03]  G08  7 42   1433.3 2045998.1  1.0  1.0  5  0         7
[04]  G09  7 41   2012.7 2045997.4  1.0  1.0  5  0         1
[05]  G11  7 41  -2591.7 2046003.3  1.0  1.0  5  0         5
[06]  G16  7 25   1953.3 2045997.3 -0.9 -0.1 10  0        15
[07]  G18  7 41  -2564.2 2046003.3  1.0  1.0  5  0         4
[08]  G23  7 40   2808.5 2045996.3  1.0  0.9  5  0        17
[09]  G27  7 39   2855.0 2045996.3  1.0  1.0  5  0         0
[10]  G30  7 39  -3299.3 2046004.3  1.0  1.0  5  0         0
[16]  B01 1f 39   -303.9 4092000.7  0.9  0.0  2  0 284385331
[17]  B02 1f 40   -318.1 4092000.9  0.9  0.0  2  0 284385332
[18]  B03 1f 41   -316.4 4092000.9  0.9  0.0  2  0 284385333
[19]  B04 1f 38   -320.8 4092000.9  0.9  0.0  2  0 284385325
[20]  B05 1f 39   -323.8 4092000.8  0.9  0.0  2  0 284385326
[21]  B30 1f 44  -1694.5 4092004.4  1.0  1.0  5  0 284385383
[22]  B07 1f 43   -552.7 4092001.4  1.0  1.0  5  0 284385334
[23]  B08 1f 40  -1794.8 4092004.7  1.0  1.0  5  1 284385332
[24]  B10 1f 42   -637.7 4092001.7  1.0  1.0  5  0 284385334
[25]  B13 1f 40  -1921.7 4092005.0  1.0  1.0  5  0 284385327
[26]  B18 1f 43   -754.9 4092002.0  1.0  0.9  5  1 284385335
[27]  B09  7 38   1499.5 4091996.0  1.0  0.9  5  0      2407
[28]  B16  1  7   1374.8 4091996.3  0.2  0.0  1  0       750
$GNGGA,000000.000,,,,,0,00,,,M,,,,0000*2B
$GNRMC,000000.000,A,,,,,,,000000,,*26
$GPGSA,A,1,,,,,,,,,,,,,,,*1E
$BDGSA,A,1,,,,,,,,,,,,,,,*0F
$GPGSV,3,1,11,01,00,000,39,04,00,000,39,07,00,000,43,08,00,000,42*70
$GPGSV,3,2,11,09,00,000,41,11,00,000,41,16,00,000,25,18,00,000,41*7D
$GPGSV,3,3,11,23,00,000,40,27,00,000,39,30,00,000,39*4A
$BDGSV,3,1,12,01,40,125,39,02,46,218,40,03,55,171,41,04,23,109,38*68
$BDGSV,3,2,12,05,26,244,39,30,65,211,44,07,62,044,43,08,00,000,40*69
$BDGSV,3,3,12,10,63,347,42,13,31,179,40,18,00,000,43,09,25,205,38*6E
$LOGTIM,0,0.000000,0.000000,0.000000,0.000000,0.000*0A
---00000022--- Acq_st=3 2019-4-10 06:59:42 
[00]  G01  f 39  -3635.5 2046004.7  1.0  1.0  5  0 284400380
[01]  G04  f 39   1160.6 2045998.5  1.0  1.0  5  0 284400382
[02]  G07  7 43  -1919.1 2046002.5  1.0  1.0  5  0         7
[03]  G08  7 43   1436.1 2045998.1  1.0  1.0  5  0         7
[04]  G09  7 41   2015.6 2045997.4  1.0  1.0  5  0         1
[05]  G11  7 42  -2588.9 2046003.3  1.0  1.0  5  0         5
[06]  G16  7 25   1955.4 2045997.4 -0.9 -0.1 10  0        15
[07]  G18  7 42  -2561.6 2046003.3  1.0  1.0  5  0         4
[08]  G23  7 40   2811.1 2045996.4  1.0  0.9  5  0        17
[09]  G27  7 39   2857.5 2045996.3  1.0  1.0  5  0         0
[10]  G30  7 39  -3296.5 2046004.2  1.0  1.0  5  0         0
[16]  B01 1f 40   -302.1 4092000.8  0.9  0.0  2  0 284386331
[17]  B02 1f 39   -315.3 4092000.8  0.9  0.0  2  0 284386332
[18]  B03 1f 42   -314.1 4092000.8  0.9  0.0  2  0 284386333
[19]  B04 1f 39   -318.1 4092000.8  0.9  0.0  2  0 284386325
[20]  B05 1f 37   -320.9 4092000.9  0.9  0.0  2  0 284386326
[21]  B30 1f 45  -1691.2 4092004.4  1.0  1.0  5  0 284386383
[22]  B07 1f 42   -550.4 4092001.4  1.0  1.0  5  0 284386334
[23]  B08 1f 40  -1792.2 4092004.7  1.0  1.0  5  1 284386332
[24]  B10 1f 42   -635.4 4092001.7  1.0  1.0  5  0 284386334
[25]  B13 1f 40  -1919.6 4092005.0  1.0  1.0  5  0 284386327
[26]  B18 1f 43   -752.4 4092002.0  1.0  1.0  5  1 284386335
[27]  B09  7 38   1501.6 4091996.0  1.0  0.9  5  0      3407
[28]  B16  7 33   1376.7 4091996.3  0.8  1.0  5  0      1742
$GNGGA,000000.000,,,,,0,00,,,M,,,,0000*2B
$GNRMC,000000.000,A,,,,,,,000000,,*26
$GPGSA,A,1,,,,,,,,,,,,,,,*1E
$BDGSA,A,1,,,,,,,,,,,,,,,*0F
$GPGSV,3,1,11,01,00,000,39,04,00,000,39,07,00,000,43,08,00,000,43*71
$GPGSV,3,2,11,09,00,000,41,11,00,000,42,16,00,000,25,18,00,000,42*7D
$GPGSV,3,3,11,23,00,000,40,27,00,000,39,30,00,000,39*4A
$BDGSV,3,1,12,01,40,125,40,02,46,218,39,03,55,171,42,04,23,109,39*6A
$BDGSV,3,2,12,05,26,244,37,30,65,211,45,07,62,044,42,08,00,000,40*67
$BDGSV,3,3,12,10,63,347,42,13,31,179,40,18,00,000,43,09,25,205,38*6E
$LOGTIM,0,0.000000,0.000000,0.000000,0.000000,0.000*0A
---00000023--- Acq_st=3 2019-4-10 06:59:43 
[00]  G01  f 39  -3634.3 2046004.7  1.0  1.0  5  0 284401380
[01]  G04  f 40   1162.0 2045998.5  1.0  1.0  5  0 284401382
[02]  G07  f 42  -1917.5 2046002.5  1.0  1.0  5  0 284401387
[03]  G08  f 42   1437.3 2045998.1  1.0  1.0  5  0 284401387
[04]  G09  f 41   2016.8 2045997.4  1.0  1.0  5  0 284401381
[05]  G11  f 42  -2587.5 2046003.4  1.0  1.0  5  0 284401385
[06]  G16  7 24   1956.2 2045997.5 -0.9 -0.1 10  0        15
[07]  G18  f 41  -2559.9 2046003.3  1.0  1.0  5  0 284401384
[08]  G23  f 40   2812.0 2045996.4  1.0  1.0  5  0 284401377
[09]  G27  f 39   2858.7 2045996.3  1.0  1.0  5  0 284401380
[10]  G30  f 39  -3296.0 2046004.3  1.0  0.9  5  0 284401380
[16]  B01 1f 40   -300.4 4092000.9  0.9  0.0  2  0 284387331
[17]  B02 1f 41   -314.4 4092000.8  0.9  0.0  2  0 284387332
[18]  B03 1f 42   -313.0 4092000.8  1.0  0.0  2  0 284387333
[19]  B04 1f 40   -317.3 4092000.8  0.9  0.0  2  0 284387325
[20]  B05 1f 38   -320.2 4092001.0  0.9  0.0  2  0 284387326
[21]  B30 1f 45  -1689.8 4092004.4  1.0  1.0  5  0 284387383
[22]  B07 1f 43   -549.2 4092001.4  1.0  1.0  5  0 284387334
[23]  B08 1f 40  -1791.2 4092004.7  1.0  1.0  5  1 284387332
[24]  B10 1f 42   -634.1 4092001.7  1.0  1.0  5  0 284387334
[25]  B13 1f 41  -1918.4 4092005.0  1.0  1.0  5  0 284387327
[26]  B18 1f 44   -751.5 4092001.9  1.0  1.0  5  1 284387335
[27]  B09  7 38   1502.5 4091996.1  1.0  1.0  5  0      4407
[28]  B16  7 36   1377.9 4091996.3  1.0  0.9  5  0      2742
$GNGGA,000000.000,,,,,0,00,,,M,,,,0000*2B
$GNRMC,000000.000,A,,,,,,,000000,,*26
$GPGSA,A,1,,,,,,,,,,,,,,,*1E
$BDGSA,A,1,,,,,,,,,,,,,,,*0F
$GPGSV,3,1,11,01,00,000,39,04,00,000,40,07,00,000,42,08,00,000,42*7F
$GPGSV,3,2,11,09,00,000,41,11,00,000,42,16,00,000,24,18,00,000,41*7F
$GPGSV,3,3,11,23,00,000,40,27,00,000,39,30,00,000,39*4A
$BDGSV,3,1,12,01,40,125,40,02,46,218,41,03,55,171,42,04,23,109,40*6B
$BDGSV,3,2,12,05,26,244,38,30,65,211,45,07,62,044,43,08,00,000,40*69
$BDGSV,3,3,12,10,63,347,42,13,31,179,41,18,00,000,44,09,25,205,38*68
$LOGTIM,0,0.000000,0.000000,0.000000,0.000000,0.000*0A
---00000024--- Acq_st=3 2019-4-10 06:59:44 
[00]  G01  f 39  -3635.3 2046004.7  1.0  1.0  5  0 284402380
[01]  G04  f 39   1161.2 2045998.5  1.0  1.0  5  0 284402382
[02]  G07  f 43  -1918.6 2046002.5  1.0  1.0  5  0 284402387
[03]  G08  f 42   1436.8 2045998.1  1.0  1.0  5  0 284402387
[04]  G09  f 41   2016.1 2045997.4  1.0  1.0  5  0 284402381
[05]  G11  f 42  -2588.2 2046003.4  1.0  1.0  5  0 284402385
[06]  G16  7 25   1954.2 2045997.5 -0.9 -0.0 10  0        15
[07]  G18  f 41  -2560.8 2046003.3  1.0  1.0  5  0 284402384
[08]  G23  f 39   2810.4 2045996.4  1.0  0.9  5  0 284402377
[09]  G27  f 39   2857.5 2045996.3  1.0  1.0  5  0 284402380
[10]  G30  f 39  -3296.5 2046004.3  1.0  0.9  5  0 284402380
[16]  B01 1f 41   -301.9 4092000.8  0.9  0.0  2  0 284388331
[17]  B02 1f 40   -316.5 4092000.8  0.9  0.0  2  0 284388332
[18]  B03 1f 42   -315.1 4092000.8  0.9  0.0  2  0 284388333
[19]  B04 1f 40   -319.6 4092000.8  0.9  0.0  2  0 284388325
[20]  B05 1f 38   -322.1 4092000.7  0.9  0.0  2  0 284388326
[21]  B30 1f 44  -1691.1 4092004.4  1.0  1.0  5  0 284388383
[22]  B07 1f 43   -550.9 4092001.4  1.0  1.0  5  0 284388334
[23]  B08 1f 40  -1792.4 4092004.7  1.0  1.0  5  1 284388332
[24]  B10 1f 42   -635.7 4092001.6  1.0  1.0  5  0 284388334
[25]  B13 1f 40  -1919.7 4092005.0  1.0  1.0  5  0 284388327
[26]  B18 1f 44   -752.8 4092002.0  1.0  1.0  5  1 284388335
[27]  B09  7 38   1501.1 4091996.1  1.0  1.0  5  0      5407
[28]  B16  7 37   1376.6 4091996.4  1.0  1.0  5  0      3742
[29]  B27  1  7   1367.9 4091995.8  0.1  0.0  1  0       564
$GNGGA,000000.000,,,,,0,00,,,M,,,,0000*2B
$GNRMC,000000.000,A,,,,,,,000000,,*26
$GPGSA,A,1,,,,,,,,,,,,,,,*1E
$BDGSA,A,1,,,,,,,,,,,,,,,*0F
$GPGSV,3,1,11,01,00,000,39,04,00,000,39,07,00,000,43,08,00,000,42*70
$GPGSV,3,2,11,09,00,000,41,11,00,000,42,16,00,000,25,18,00,000,41*7E
$GPGSV,3,3,11,23,00,000,39,27,00,000,39,30,00,000,39*44
$BDGSV,3,1,12,01,40,125,41,02,46,218,40,03,55,171,42,04,23,109,40*6B
$BDGSV,3,2,12,05,26,244,38,30,65,211,44,07,62,044,43,08,00,000,40*68
$BDGSV,3,3,12,10,63,347,42,13,31,179,40,18,00,000,44,09,25,205,38*69
$LOGTIM,0,0.000000,0.000000,0.000000,0.000000,0.000*0A
---00000025--- Acq_st=7 2019-4-10 06:59:45 
[00]  G01  f 40  -3637.9 2046004.7  1.0  1.0  5  0 284403380
[01]  G04  f 39   1158.9 2045998.5  1.0  1.0  5  0 284403382
[02]  G07  f 43  -1920.6 2046002.5  1.0  1.0  5  0 284403387
[03]  G08  f 42   1434.1 2045998.1  1.0  1.0  5  0 284403387
[04]  G09  f 42   2013.4 2045997.4  1.0  1.0  5  0 284403381
[05]  G11  f 42  -2590.5 2046003.4  1.0  1.0  5  0 284403385
[06]  G16  7 25   1951.9 2045997.4 -0.9 -0.1 10  0        15
[07]  G18  f 41  -2563.1 2046003.3  1.0  1.0  5  0 284403384
[08]  G23  f 40   2808.2 2045996.4  1.0  1.0  5  0 284403377
[09]  G27  f 39   2854.8 2045996.3  1.0  1.0  5  0 284403380
[10]  G30  f 39  -3298.9 2046004.3  1.0  1.0  5  0 284403380
[16]  B01 1f 39   -304.8 4092000.7  0.9  0.0  2  0 284389331
[17]  B02 1f 40   -318.7 4092000.9  0.9  0.0  2  0 284389332
[18]  B03 1f 41   -317.3 4092000.9  0.9  0.0  2  0 284389333
[19]  B04 1f 40   -321.4 4092000.8  0.9  0.0  2  0 284389325
[20]  B05 1f 38   -324.4 4092000.9  0.9  0.0  2  0 284389326
[21]  B30 1f 45  -1693.2 4092004.4  1.0  1.0  5  0 284389383
[22]  B07 1f 43   -553.3 4092001.4  1.0  1.0  5  0 284389334
[23]  B08 1f 41  -1795.0 4092004.7  1.0  1.0  5  1 284389332
[24]  B10 1f 42   -638.5 4092001.7  1.0  1.0  5  0 284389334
[25]  B13 1f 40  -1922.4 4092005.0  1.0  1.0  5  0 284389327
[26]  B18 1f 44   -755.2 4092002.0  1.0  1.0  5  1 284389335
[27]  B09 1f 39   1498.6 4091996.1  1.0  1.0  5  0 284389327
[28]  B16 1f 37   1373.7 4091996.4  1.0  1.0  5  0 284389322
[29]  B27  7 32   1365.9 4091996.5  0.2  1.0  5  0      1561
$GNGGA,000000.000,,,,,0,00,,,M,,,,0000*2B
$GNRMC,000000.000,A,,,,,,,000000,,*26
$GPGSA,A,1,,,,,,,,,,,,,,,*1E
$BDGSA,A,1,,,,,,,,,,,,,,,*0F
$GPGSV,3,1,11,01,00,000,40,04,00,000,39,07,00,000,43,08,00,000,42*7E
$GPGSV,3,2,11,09,00,000,42,11,00,000,42,16,00,000,25,18,00,000,41*7D
$GPGSV,3,3,11,23,00,000,40,27,00,000,39,30,00,000,39*4A
$BDGSV,3,1,12,01,40,125,39,02,46,218,40,03,55,171,41,04,23,109,40*67
$BDGSV,3,2,12,05,26,244,38,30,65,211,45,07,62,044,43,08,00,000,41*68
$BDGSV,3,3,12,10,63,347,42,13,31,179,40,18,00,000,44,09,25,205,39*68
$LOGTIM,0,0.000000,0.000000,0.000000,0.000000,0.000*0A
---00000026--- Acq_st=3 2019-4-10 06:59:46 
[00]  G01  f 39  -3637.4 2046004.7  1.0  1.0  5  0 284404380
[01]  G04  f 39   1159.9 2045998.5  1.0  1.0  5  0 284404382
[02]  G07  f 42  -1919.6 2046002.5  1.0  1.0  5  0 284404387
[03]  G08  f 42   1435.2 2045998.1  1.0  1.0  5  0 284404387
[04]  G09  f 41   2013.9 2045997.4  1.0  1.0  5  0 284404381
[05]  G11  f 42  -2589.9 2046003.4  1.0  1.0  5  0 284404385
[06]  G16  7 25   1950.4 2045997.4 -0.9  0.0 10  0        15
[07]  G18  f 40  -2562.2 2046003.3  1.0  1.0  5  0 284404384
[08]  G23  f 40   2808.6 2045996.4  1.0  0.9  5  0 284404377
[09]  G27  f 39   2855.3 2045996.3  1.0  1.0  5  0 284404380
[10]  G30  f 39  -3298.3 2046004.3  1.0  1.0  5  0 284404380
[16]  B01 1f 40   -304.9 4092000.8  0.9  0.0  2  0 284390331
[17]  B02 1f 40   -318.3 4092000.8  0.9  0.0  2  0 284390332
[18]  B03 1f 42   -317.3 4092000.8  0.9  0.0  2  0 284390333
[19]  B04 1f 39   -321.1 4092000.9  0.9  0.0  2  0 284390325
[20]  B05 1f 37   -324.5 4092001.0  0.8  0.0  2  0 284390326
[21]  B30 1f 44  -1692.4 4092004.4  1.0  1.0  5  0 284390383
[22]  B07 1f 42   -553.2 4092001.5  1.0  1.0  5  0 284390334
[23]  B08 1f 40  -1794.6 4092004.7  1.0  1.0  5  1 284390332
[24]  B10 1f 42   -638.5 4092001.7  1.0  1.0  5  0 284390334
[25]  B13 1f 41  -1922.0 4092005.0  1.0  1.0  5  0 284390327
[26]  B18 1f 44   -755.5 4092002.0  1.0  1.0  5  1 284390335
[27]  B09 1f 38   1499.0 4091996.0  1.0  1.0  5  0 284390327
[28]  B16 1f 37   1373.9 4091996.4  1.0  1.0  5  0 284390322
[29]  B27  7 44   1366.4 4091996.4  1.0  1.0  5  0      2561
$GNGGA,000000.000,,,,,0,00,,,M,,,,0000*2B
$GNRMC,000000.000,A,,,,,,,000000,,*26
$GPGSA,A,1,,,,,,,,,,,,,,,*1E
$BDGSA,A,1,,,,,,,,,,,,,,,*0F
$GPGSV,3,1,11,01,00,000,39,04,00,000,39,07,00,000,42,08,00,000,42*71
$GPGSV,3,2,11,09,00,000,41,11,00,000,42,16,00,000,25,18,00,000,40*7F
$GPGSV,3,3,11,23,00,000,40,27,00,000,39,30,00,000,39*4A
$BDGSV,3,1,12,01,40,125,40,02,46,218,40,03,55,171,42,04,23,109,39*64
$BDGSV,3,2,12,05,26,244,37,30,65,211,44,07,62,044,42,08,00,000,40*66
$BDGSV,3,3,12,10,63,347,42,13,31,179,41,18,00,000,44,09,25,205,38*68
$LOGTIM,0,0.000000,0.000000,0.000000,0.000000,0.000*0A
---00000027--- Acq_st=3 2019-4-10 06:59:47 
[00]  G01  f 39  -3631.7 2046004.7  1.0  1.0  5  0 284405380
[01]  G04  f 39   1165.2 2045998.5  1.0  1.0  5  0 284405382
[02]  G07  f 42  -1913.9 2046002.5  1.0  1.0  5  0 284405387
[03]  G08  f 42   1440.5 2045998.1  1.0  1.0  5  0 284405387
[04]  G09  f 41   2019.8 2045997.4  1.0  1.0  5  0 284405381
[05]  G11  f 42  -2584.0 2046003.3  1.0  1.0  5  0 284405385
[06]  G16  7 25   1953.6 2045997.6 -0.5 -0.1 10  0        15
[07]  G18  f 40  -2556.3 2046003.3  1.0  1.0  5  0 284405384
[08]  G23  f 40   2814.0 2045996.3  1.0  1.0  5  0 284405377
[09]  G27  f 38   2861.1 2045996.3  1.0  1.0  5  0 284405380
[10]  G30  f 39  -3292.8 2046004.2  1.0  1.0  5  0 284405380
[11]  G15  1  7   4484.3 2045995.1 -0.0  0.0  1  0         0
[16]  B01 1f 40   -299.3 4092000.7  0.9  0.0  2  0 284391331
[17]  B02 1f 40   -313.4 4092000.8  0.9  0.0  2  0 284391332
[18]  B03 1f 42   -311.9 4092000.9  0.9  0.0  2  0 284391333
[19]  B04 1f 40   -316.3 4092000.8  0.9  0.0  2  0 284391325
[20]  B05 1f 37   -319.7 4092000.8  0.9  0.0  2  0 284391326
[21]  B30 1f 44  -1686.8 4092004.4  1.0  1.0  5  0 284391383
[22]  B07 1f 43   -548.3 4092001.4  1.0  1.0  5  0 284391334
[23]  B08 1f 40  -1789.6 4092004.7  1.0  1.0  5  1 284391332
[24]  B10 1f 42   -633.3 4092001.6  1.0  1.0  5  0 284391334
[25]  B13 1f 40  -1917.0 4092005.0  1.0  1.0  5  0 284391327
[26]  B18 1f 44   -750.4 4092002.0  1.0  1.0  5  1 284391335
[27]  B09 1f 38   1503.3 4091996.1  1.0  1.0  5  0 284391327
[28]  B16 1f 36   1378.7 4091996.4  1.0  1.0  5  0 284391322
[29]  B27  7 44   1372.0 4091996.4  1.0  1.0  5  0      3561
$GNGGA,000000.000,,,,,0,00,,,M,,,,0000*2B
$GNRMC,000000.000,A,,,,,,,000000,,*26
$GPGSA,A,1,,,,,,,,,,,,,,,*1E
$BDGSA,A,1,,,,,,,,,,,,,,,*0F
$GPGSV,3,1,11,01,00,000,39,04,00,000,39,07,00,000,42,08,00,000,42*71
$GPGSV,3,2,11,09,00,000,41,11,00,000,42,16,00,000,25,18,00,000,40*7F
$GPGSV,3,3,11,23,00,000,40,27,00,000,38,30,00,000,39*4B
$BDGSV,3,1,12,01,40,125,40,02,46,218,40,03,55,171,42,04,23,109,40*6A
$BDGSV,3,2,12,05,26,244,37,30,65,211,44,07,62,044,43,08,00,000,40*67
$BDGSV,3,3,12,10,63,347,42,13,31,179,40,18,00,000,44,09,25,205,38*69
$LOGTIM,0,0.000000,0.000000,0.000000,0.000000,0.000*0A
---00000028--- Acq_st=3 2019-4-10 06:59:48 
[00]  G01  f 39  -3633.6 2046004.7  1.0  1.0  5  0 284406380
[01]  G04  f 39   1163.5 2045998.5  1.0  1.0  5  0 284406382
[02]  G07  f 43  -1916.1 2046002.5  1.0  1.0  5  0 284406387
[03]  G08  f 42   1438.4 2045998.1  1.0  1.0  5  0 284406387
[04]  G09  f 41   2017.7 2045997.4  1.0  1.0  5  0 284406381
[05]  G11  f 42  -2586.3 2046003.4  1.0  1.0  5  0 284406385
[06]  G16  7 25   1953.5 2045997.6 -0.5 -0.1 10  0        15
[07]  G18  f 41  -2558.1 2046003.3  1.0  1.0  5  0 284406384
[08]  G23  f 40   2811.2 2045996.3  1.0  1.0  5  0 284406377
[09]  G27  f 39   2858.6 2045996.3  1.0  1.0  5  0 284406380
[10]  G30  f 40  -3295.5 2046004.3  1.0  1.0  5  0 284406380
[11]  G15  1 10   4346.0 2045994.9  0.0  0.0  1  0         6
[16]  B01 1f 40   -301.2 4092000.8  0.9  0.0  2  0 284392331
[17]  B02 1f 40   -314.9 4092000.8  0.9  0.0  2  0 284392332
[18]  B03 1f 41   -313.8 4092000.8  0.9  0.0  2  0 284392333
[19]  B04 1f 40   -318.6 4092000.9  0.9  0.0  2  0 284392325
[20]  B05 1f 37   -321.2 4092000.8  0.9  0.0  2  0 284392326
[21]  B30 1f 45  -1688.2 4092004.4  1.0  1.0  5  0 284392383
[22]  B07 1f 43   -550.2 4092001.4  1.0  1.0  5  0 284392334
[23]  B08 1f 41  -1791.4 4092004.6  1.0  1.0  5  1 284392332
[24]  B10 1f 42   -635.3 4092001.7  1.0  1.0  5  0 284392334
[25]  B13 1f 40  -1918.8 4092005.0  1.0  1.0  5  0 284392327
[26]  B18 1f 44   -752.4 4092002.0  1.0  1.0  5  1 284392335
[27]  B09 1f 38   1501.8 4091996.0  1.0  1.0  5  0 284392327
[28]  B16 1f 37   1377.2 4091996.3  1.0  1.0  5  0 284392322
[29]  B27  7 44   1370.4 4091996.4  1.0  1.0  5  0      4561
$GNGGA,000000.000,,,,,0,00,,,M,,,,0000*2B
$GNRMC,000000.000,A,,,,,,,000000,,*26
$GPGSA,A,1,,,,,,,,,,,,,,,*1E
$BDGSA,A,1,,,,,,,,,,,,,,,*0F
$GPGSV,3,1,11,01,00,000,39,04,00,000,39,07,00,000,43,08,00,000,42*70
$GPGSV,3,2,11,09,00,000,41,11,00,000,42,16,00,000,25,18,00,000,41*7E
$GPGSV,3,3,11,23,00,000,40,27,00,000,39,30,00,000,40*44
$BDGSV,3,1,12,01,40,125,40,02,46,218,40,03,55,171,41,04,23,109,40*69
$BDGSV,3,2,12,05,26,244,37,30,65,211,45,07,62,044,43,08,00,000,41*67
$BDGSV,3,3,12,10,63,347,42,13,31,179,40,18,00,000,44,09,25,205,38*69
$LOGTIM,0,0.000000,0.000000,0.000000,0.000000,0.000*0A
---00000029--- Acq_st=3 2019-4-10 06:59:49 
[00]  G01  f 38  -3635.0 2046004.7  1.0  1.0  5  0 284407380
[01]  G04  f 39   1162.6 2045998.5  1.0  1.0  5  0 284407382
[02]  G07  f 43  -1916.8 2046002.5  1.0  1.0  5  0 284407387
[03]  G08  f 42   1437.6 2045998.1  1.0  1.0  5  0 284407387
[04]  G09  f 41   2016.5 2045997.4  1.0  1.0  5  0 284407381
[05]  G11  f 42  -2586.7 2046003.4  1.0  1.0  5  0 284407385
[06]  G16  7 25   1952.1 2045997.5 -0.9 -0.1 10  0        15
[07]  G18  f 41  -2559.5 2046003.3  1.0  1.0  5  0 284407384
[08]  G23  f 40   2809.9 2045996.4  1.0  1.0  5  0 284407377
[09]  G27  f 39   2857.5 2045996.3  1.0  1.0  5  0 284407380
[10]  G30  f 39  -3296.0 2046004.3  1.0  1.0  5  0 284407380
[11]  G15  1  7   4400.0 2045994.9 -0.1  0.0  1  0         6
[12]  G28  1 22  -1990.9 2046004.0  0.2  0.0  1  0         2
[16]  B01 1f 41   -303.0 4092000.8  0.9  0.0  2  0 284393331
[17]  B02 1f 39   -316.7 4092000.9  0.9  0.0  2  0 284393332
[18]  B03 1f 41   -315.7 4092000.8  0.9  0.0  2  0 284393333
[19]  B04 1f 39   -319.6 4092000.8  0.9  0.0  2  0 284393325
[20]  B05 1f 38   -322.4 4092000.9  0.9  0.0  2  0 284393326
[21]  B30 1f 44  -1689.6 4092004.4  1.0  1.0  5  0 284393383
[22]  B07 1f 43   -551.9 4092001.4  1.0  1.0  5  0 284393334
[23]  B08 1f 41  -1792.5 4092004.7  1.0  1.0  5  1 284393332
[24]  B10 1f 42   -636.6 4092001.7  1.0  1.0  5  0 284393334
[25]  B13 1f 40  -1920.1 4092005.0  1.0  1.0  5  0 284393327
[26]  B18 1f 43   -753.8 4092002.0  1.0  1.0  5  1 284393335
[27]  B09 1f 38   1500.1 4091996.1  1.0  1.0  5  0 284393327
[28]  B16 1f 37   1375.4 4091996.4  1.0  0.9  5  0 284393322
[29]  B27  7 44   1369.1 4091996.4  1.0  1.0  5  0      5561
$GNGGA,000000.000,,,,,0,00,,,M,,,,0000*2B
$GNRMC,000000.000,A,,,,,,,000000,,*26
$GPGSA,A,1,,,,,,,,,,,,,,,*1E
$BDGSA,A,1,,,,,,,,,,,,,,,*0F
$GPGSV,3,1,11,01,00,000,38,04,00,000,39,07,00,000,43,08,00,000,42*71
$GPGSV,3,2,11,09,00,000,41,11,00,000,42,16,00,000,25,18,00,000,41*7E
$GPGSV,3,3,11,23,00,000,40,27,00,000,39,30,00,000,39*4A
$BDGSV,3,1,12,01,40,125,41,02,46,218,39,03,55,171,41,04,23,109,39*68
$BDGSV,3,2,12,05,26,244,38,30,65,211,44,07,62,044,43,08,00,000,41*69
$BDGSV,3,3,12,10,63,347,42,13,31,179,40,18,00,000,43,09,25,205,38*6E
$LOGTIM,0,0.000000,0.000000,0.000000,0.000000,0.000*0A
---00000030--- Acq_st=3 2019-4-10 06:59:50 
[00]  G01  f 39  -3629.2 2046004.8  1.0  1.0  5  0 284408380
[01]  G04  f 39   1168.7 2045998.5  1.0  1.0  5  0 284408382
[02]  G07  f 43  -1910.8 2046002.5  1.0  1.0  5  0 284408387
[03]  G08  f 43   1443.5 2045998.1  1.0  1.0  5  0 284408387
[04]  G09  f 42   2022.5 2045997.4  1.0  1.0  5  0 284408381
[05]  G11  f 42  -2580.5 2046003.3  1.0  1.0  5  0 284408385
[06]  G16  7 25   1958.2 2045997.4 -0.7 -0.0 10  0        15
[07]  G18  f 41  -2552.8 2046003.3  1.0  1.0  5  0 284408384
[08]  G23  f 40   2815.7 2045996.4  1.0  1.0  5  0 284408377
[09]  G27  f 39   2863.4 2045996.3  1.0  1.0  5  0 284408380
[10]  G30  f 39  -3290.3 2046004.3  1.0  1.0  5  0 284408380
[12]  G28  7  7  -2089.7 2046002.9  0.1  0.2 20  0        15
[16]  B01 1f 40   -297.4 4092000.9  0.9  0.0  2  0 284394331
[17]  B02 1f 39   -311.5 4092001.0  0.9  0.0  2  0 284394332
[18]  B03 1f 42   -310.4 4092000.8  0.9  0.0  2  0 284394333
[19]  B04 1f 40   -314.1 4092000.7  0.9  0.0  2  0 284394325
[20]  B05 1f 37   -317.3 4092000.8  0.9  0.0  2  0 284394326
[21]  B30 1f 45  -1683.7 4092004.4  1.0  1.0  5  0 284394383
[22]  B07 1f 42   -546.1 4092001.4  1.0  1.0  5  0 284394334
[23]  B08 1f 40  -1787.1 4092004.7  1.0  1.0  5  1 284394332
[24]  B10 1f 42   -631.6 4092001.6  1.0  1.0  5  0 284394334
[25]  B13 1f 40  -1914.7 4092005.0  1.0  1.0  5  0 284394327
[26]  B18 1f 44   -748.3 4092002.0  1.0  1.0  5  1 284394335
[27]  B09 1f 38   1505.6 4091996.0  1.0  1.0  5  0 284394327
[28]  B16 1f 37   1380.1 4091996.3  1.0  1.0  5  0 284394322
[29]  B27  7 45   1375.2 4091996.4  1.0  1.0  5  0      6561
$GNGGA,000000.000,,,,,0,00,,,M,,,,0000*2B
$GNRMC,000000.000,A,,,,,,,000000,,*26
$GPGSA,A,1,,,,,,,,,,,,,,,*1E
$BDGSA,A,1,,,,,,,,,,,,,,,*0F
$GPGSV,3,1,11,01,00,000,39,04,00,000,39,07,00,000,43,08,00,000,43*71
$GPGSV,3,2,11,09,00,000,42,11,00,000,42,16,00,000,25,18,00,000,41*7D
$GPGSV,3,3,11,23,00,000,40,27,00,000,39,30,00,000,39*4A
$BDGSV,3,1,12,01,40,125,40,02,46,218,39,03,55,171,42,04,23,109,40*64
$BDGSV,3,2,12,05,26,244,37,30,65,211,45,07,62,044,42,08,00,000,40*67
$BDGSV,3,3,12,10,63,347,42,13,31,179,40,18,00,000,44,09,25,205,38*69
$LOGTIM,0,0.000000,0.000000,0.000000,0.000000,0.000*0A
---00000031--- Acq_st=3 2019-4-10 06:59:51 
[00]  G01  f 39  -3631.2 2046004.7  1.0  1.0  5  0 284409380
[01]  G04  f 40   1167.5 2045998.5  1.0  1.0  5  0 284409382
[02]  G07  f 43  -1912.2 2046002.5  1.0  1.0  5  0 284409387
[03]  G08  f 42   1442.0 2045998.1  1.0  1.0  5  0 284409387
[04]  G09  f 41   2021.4 2045997.4  1.0  1.0  5  0 284409381
[05]  G11  f 42  -2581.9 2046003.3  1.0  1.0  5  0 284409385
[06]  G16  7 25   1957.1 2045997.4 -0.9 -0.1 10  0        15
[07]  G18  f 41  -2554.1 2046003.3  1.0  1.0  5  0 284409384
[08]  G23  f 40   2814.0 2045996.3  1.0  1.0  5  0 284409377
[09]  G27  f 39   2861.8 2045996.3  1.0  1.0  5  0 284409380
[10]  G30  f 39  -3292.5 2046004.3  1.0  0.9  5  0 284409380
[12]  G28  7  7  -2099.0 2046002.6  0.1  0.0 20  0        15
[16]  B01 1f 40   -298.6 4092000.8  0.9  0.0  2  0 284395331
[17]  B02 1f 41   -312.5 4092000.9  0.9  0.0  2  0 284395332
[18]  B03 1f 41   -311.1 4092000.8  0.9  0.0  2  0 284395333
[19]  B04 1f 40   -315.4 4092000.8  0.9  0.0  2  0 284395325
[20]  B05 1f 39   -318.5 4092000.8  0.9  0.0  2  0 284395326
[21]  B30 1f 45  -1684.3 4092004.4  1.0  1.0  5  0 284395383
[22]  B07 1f 42   -547.5 4092001.4  1.0  1.0  5  0 284395334
[23]  B08 1f 40  -1788.3 4092004.7  1.0  1.0  5  1 284395332
[24]  B10 1f 42   -633.0 4092001.6  1.0  1.0  5  0 284395334
[25]  B13 1f 40  -1915.8 4092005.0  1.0  1.0  5  0 284395327
[26]  B18 1f 44   -749.4 4092001.9  1.0  1.0  5  1 284395335
[27]  B09 1f 38   1504.8 4091996.1  1.0  1.0  5  0 284395327
[28]  B16 1f 37   1379.1 4091996.4  1.0  1.0  5  0 284395322
[29]  B27 1f 44   1374.1 4091996.4  1.0  1.0  5  0 284395381
$GNGGA,000000.000,,,,,0,00,,,M,,,,0000*2B
$GNRMC,000000.000,A,,,,,,,000000,,*26
$GPGSA,A,1,,,,,,,,,,,,,,,*1E
$BDGSA,A,1,,,,,,,,,,,,,,,*0F
$GPGSV,3,1,11,01,00,000,39,04,00,000,40,07,00,000,43,08,00,000,42*7E
$GPGSV,3,2,11,09,00,000,41,11,00,000,42,16,00,000,25,18,00,000,41*7E
$GPGSV,3,3,11,23,00,000,40,27,00,000,39,30,00,000,39*4A
$BDGSV,3,1,12,01,40,125,40,02,46,218,41,03,55,171,41,04,23,109,40*68
$BDGSV,3,2,12,05,26,244,39,30,65,211,45,07,62,044,42,08,00,000,40*69
$BDGSV,3,3,12,10,63,347,42,13,31,179,40,18,00,000,44,09,25,205,38*69
$LOGTIM,0,0.000000,0.000000,0.000000,0.000000,0.000*0A
---00000032--- Acq_st=3 2019-4-10 06:59:52 
[00]  G01  f 40  -3629.1 2046004.7  1.0  1.0  5  0 284410380
[01]  G04  f 39   1169.2 2045998.4  1.0  1.0  5  0 284410382
[02]  G07  f 43  -1910.6 2046002.5  1.0  1.0  5  0 284410387
[03]  G08  f 43   1443.8 2045998.1  1.0  1.0  5  0 284410387
[04]  G09  f 41   2022.6 2045997.4  1.0  1.0  5  0 284410381
[05]  G11  f 42  -2580.4 2046003.4  1.0  1.0  5  0 284410385
[06]  G16  7 25   1957.7 2045997.4 -0.9  0.0 10  0        15
[07]  G18  f 42  -2552.8 2046003.3  1.0  1.0  5  0 284410384
[08]  G23  f 40   2814.8 2045996.4  1.0  1.0  5  0 284410377
[09]  G27  f 39   2862.8 2045996.3  1.0  1.0  5  0 284410380
[10]  G30  f 39  -3290.6 2046004.3  1.0  1.0  5  0 284410380
[12]  G28  7  7  -2099.1 2046002.7  0.1  0.0 20  0        15
[16]  B01 1f 40   -298.1 4092000.7  0.9  0.0  2  0 284396331
[17]  B02 1f 40   -311.6 4092000.9  0.9  0.0  2  0 284396332
[18]  B03 1f 43   -310.4 4092000.8  1.0  0.0  2  0 284396333
[19]  B04 1f 39   -315.1 4092000.8  0.9  0.0  2  0 284396325
[20]  B05 1f 38   -317.4 4092000.9  0.9  0.0  2  0 284396326
[21]  B30 1f 45  -1683.1 4092004.4  1.0  1.0  5  0 284396383
[22]  B07 1f 43   -547.1 4092001.4  1.0  1.0  5  0 284396334
[23]  B08 1f 40  -1787.4 4092004.7  1.0  1.0  5  1 284396332
[24]  B10 1f 42   -632.2 4092001.7  1.0  1.0  5  0 284396334
[25]  B13 1f 41  -1915.0 4092005.0  1.0  1.0  5  0 284396327
[26]  B18 1f 44   -748.7 4092002.0  1.0  1.0  5  1 284396335
[27]  B09 1f 38   1505.4 4091996.0  1.0  1.0  5  0 284396327
[28]  B16 1f 37   1380.0 4091996.4  1.0  1.0  5  0 284396322
[29]  B27 1f 45   1375.4 4091996.4  1.0  1.0  5  0 284396381
$GNGGA,000000.000,,,,,0,00,,,M,,,,0000*2B
$GNRMC,000000.000,A,,,,,,,000000,,*26
$GPGSA,A,1,,,,,,,,,,,,,,,*1E
$BDGSA,A,1,,,,,,,,,,,,,,,*0F
$GPGSV,3,1,11,01,00,000,40,04,00,000,39,07,00,000,43,08,00,000,43*7F
$GPGSV,3,2,11,09,00,000,41,11,00,000,42,16,00,000,25,18,00,000,42*7D
$GPGSV,3,3,11,23,00,000,40,27,00,000,39,30,00,000,39*4A
$BDGSV,3,1,12,01,40,125,40,02,46,218,40,03,55,171,43,04,23,109,39*65
$BDGSV,3,2,12,05,26,244,38,30,65,211,45,07,62,044,43,08,00,000,40*69
$BDGSV,3,3,12,10,63,347,42,13,31,179,41,18,00,000,44,09,25,205,38*68
$LOGTIM,0,0.000000,0.000000,0.000000,0.000000,0.000*0A
---00000033--- Acq_st=3 2019-4-10 06:59:53 
[00]  G01  f 39  -3631.7 2046004.7  1.0  1.0  5  0 284411380
[01]  G04  f 39   1166.9 2045998.5  1.0  1.0  5  0 284411382
[02]  G07  f 43  -1912.6 2046002.5  1.0  1.0  5  0 284411387
[03]  G08  f 43   1441.6 2045998.1  1.0  1.0  5  0 284411387
[04]  G09  f 41   2020.5 2045997.4  1.0  1.0  5  0 284411381
[05]  G11  f 42  -2582.3 2046003.4  1.0  1.0  5  0 284411385
[06]  G16  7 24   1954.7 2045997.6 -0.9 -0.2 10  0        15
[07]  G18  f 41  -2554.8 2046003.3  1.0  1.0  5  0 284411384
[08]  G23  f 40   2812.2 2045996.4  1.0  0.9  5  0 284411377
[09]  G27  f 39   2860.6 2045996.3  1.0  1.0  5  0 284411380
[10]  G30  f 39  -3292.9 2046004.3  1.0  1.0  5  0 284411380
[12]  G28  7  7  -2093.1 2046002.6  0.0  0.0 20  0        15
[16]  B01 1f 41   -300.4 4092000.9  0.9  0.0  2  0 284397331
[17]  B02 1f 40   -313.9 4092000.9  0.9  0.0  2  0 284397332
[18]  B03 1f 42   -313.0 4092000.9  0.9  0.0  2  0 284397333
[19]  B04 1f 40   -317.0 4092000.8  0.9  0.0  2  0 284397325
[20]  B05 1f 37   -320.2 4092000.8  0.9  0.0  2  0 284397326
[21]  B30 1f 45  -1685.2 4092004.4  1.0  1.0  5  0 284397383
[22]  B07 1f 42   -549.4 4092001.4  1.0  0.9  5  0 284397334
[23]  B08 1f 40  -1789.6 4092004.7  1.0  1.0  5  1 284397332
[24]  B10 1f 42   -634.7 4092001.7  1.0  0.9  5  0 284397334
[25]  B13 1f 40  -1917.3 4092005.0  1.0  1.0  5  0 284397327
[26]  B18 1f 44   -751.2 4092002.0  1.0  0.9  5  1 284397335
[27]  B09 1f 38   1503.1 4091996.1  1.0  1.0  5  0 284397327
[28]  B16 1f 37   1378.0 4091996.4  1.0  1.0  5  0 284397322
[29]  B27 1f 44   1373.5 4091996.4  1.0  1.0  5  0 284397381
$GNGGA,000000.000,,,,,0,00,,,M,,,,0000*2B
$GNRMC,000000.000,A,,,,,,,000000,,*26
$GPGSA,A,1,,,,,,,,,,,,,,,*1E
$BDGSA,A,1,,,,,,,,,,,,,,,*0F
$GPGSV,3,1,11,01,00,000,39,04,00,000,39,07,00,000,43,08,00,000,43*71
$GPGSV,3,2,11,09,00,000,41,11,00,000,42,16,00,000,24,18,00,000,41*7F
$GPGSV,3,3,11,23,00,000,40,27,00,000,39,30,00,000,39*4A
$BDGSV,3,1,12,01,40,125,41,02,46,218,40,03,55,171,42,04,23,109,40*6B
$BDGSV,3,2,12,05,26,244,37,30,65,211,45,07,62,044,42,08,00,000,40*67
$BDGSV,3,3,12,10,63,347,42,13,31,179,40,18,00,000,44,09,25,205,38*69
$LOGTIM,0,0.000000,0.000000,0.000000,0.000000,0.000*0A
---00000034--- Acq_st=3 2019-4-10 06:59:54 
[00]  G01  f 39  -3632.2 2046004.7  1.0  1.0  5  0 284412380
[01]  G04  f 39   1167.1 2045998.5  1.0  1.0  5  0 284412382
[02]  G07  f 43  -1912.7 2046002.5  1.0  1.0  5  0 284412387
[03]  G08  f 42   1441.2 2045998.2  1.0  1.0  5  0 284412387
[04]  G09  f 41   2019.8 2045997.4  1.0  1.0  5  0 284412381
[05]  G11  f 42  -2582.9 2046003.4  1.0  1.0  5  0 284412385
[06]  G16  7 25   1954.8 2045997.4 -0.9 -0.1 10  0        15
[07]  G18  f 41  -2554.8 2046003.3  1.0  1.0  5  0 284412384
[08]  G23  f 40   2811.9 2045996.3  1.0  0.9  5  0 284412377
[09]  G27  f 39   2859.8 2045996.3  1.0  1.0  5  0 284412380
[10]  G30  f 39  -3293.9 2046004.3  1.0  1.0  5  0 284412380
[12]  G28  7  7  -2091.9 2046002.7  0.0  0.0 20  0        15
[16]  B01 1f 40   -301.3 4092000.9  1.0  0.0  2  0 284398331
[17]  B02 1f 41   -315.4 4092000.8  0.9  0.0  2  0 284398332
[18]  B03 1f 42   -313.8 4092000.8  1.0  0.0  2  0 284398333
[19]  B04 1f 39   -318.1 4092000.9  0.9  0.0  2  0 284398325
[20]  B05 1f 37   -321.2 4092000.8  0.9  0.0  2  0 284398326
[21]  B30 1f 45  -1685.7 4092004.4  1.0  1.0  5  0 284398383
[22]  B07 1f 43   -550.4 4092001.5  1.0  1.0  5  0 284398334
[23]  B08 1f 41  -1790.4 4092004.7  1.0  1.0  5  1 284398332
[24]  B10 1f 42   -635.8 4092001.7  1.0  1.0  5  0 284398334
[25]  B13 1f 40  -1918.4 4092005.0  1.0  1.0  5  0 284398327
[26]  B18 1f 44   -752.3 4092002.0  1.0  1.0  5  1 284398335
[27]  B09 1f 38   1501.9 4091996.0  1.0  1.0  5  0 284398327
[28]  B16 1f 37   1376.3 4091996.4  1.0  1.0  5  0 284398322
[29]  B27 1f 44   1372.9 4091996.4  1.0  1.0  5  0 284398381
$GNGGA,000000.000,,,,,0,00,,,M,,,,0000*2B
$GNRMC,000000.000,A,,,,,,,000000,,*26
$GPGSA,A,1,,,,,,,,,,,,,,,*1E
$BDGSA,A,1,,,,,,,,,,,,,,,*0F
$GPGSV,3,1,11,01,00,000,39,04,00,000,39,07,00,000,43,08,00,000,42*70
$GPGSV,3,2,11,09,00,000,41,11,00,000,42,16,00,000,25,18,00,000,41*7E
$GPGSV,3,3,11,23,00,000,40,27,00,000,39,30,00,000,39*4A
$BDGSV,3,1,12,01,40,125,40,02,46,218,41,03,55,171,42,04,23,109,39*65
$BDGSV,3,2,12,05,26,244,37,30,65,211,45,07,62,044,43,08,00,000,41*67
$BDGSV,3,3,12,10,63,347,42,13,31,179,40,18,00,000,44,09,25,205,38*69
$LOGTIM,0,0.000000,0.000000,0.000000,0.000000,0.000*0A
---00000035--- Acq_st=7 2019-4-10 06:59:55 
[00]  G01  f 39  -3632.9 2046004.7  1.0  1.0  5  0 284413380
[01]  G04  f 39   1166.3 2045998.5  1.0  1.0  5  0 284413382
[02]  G07  f 44  -1913.5 2046002.5  1.0  1.0  5  0 284413387
[03]  G08  f 43   1440.7 2045998.1  1.0  1.0  5  0 284413387
[04]  G09  f 41   2019.2 2045997.4  1.0  1.0  5  0 284413381
[05]  G11  f 42  -2583.2 2046003.4  1.0  1.0  5  0 284413385
[06]  G16  7 24   1954.5 2045997.5 -0.9 -0.2 10  0        15
[07]  G18  f 42  -2555.3 2046003.3  1.0  1.0  5  0 284413384
[08]  G23  f 40   2810.7 2045996.3  1.0  1.0  5  0 284413377
[09]  G27  f 39   2858.9 2045996.3  1.0  1.0  5  0 284413380
[10]  G30  f 39  -3294.1 2046004.2  1.0  1.0  5  0 284413380
[12]  G28  7  7  -2084.3 2046002.9  0.0 -0.2 20  0        15
[16]  B01 1f 40   -301.6 4092000.7  0.9  0.0  2  0 284399331
[17]  B02 1f 39   -315.1 4092000.9  0.9  0.0  2  0 284399332
[18]  B03 1f 41   -314.3 4092000.8  0.9  0.0  2  0 284399333
[19]  B04 1f 39   -318.6 4092000.9  0.9  0.0  2  0 284399325
[20]  B05 1f 39   -321.1 4092001.0  0.9  0.0  2  0 284399326
[21]  B30 1f 45  -1685.4 4092004.4  1.0  1.0  5  0 284399383
[22]  B07 1f 43   -550.8 4092001.4  1.0  1.0  5  0 284399334
[23]  B08 1f 40  -1791.0 4092004.7  1.0  1.0  5  1 284399332
[24]  B10 1f 42   -636.0 4092001.7  1.0  1.0  5  0 284399334
[25]  B13 1f 40  -1919.0 4092005.0  1.0  1.0  5  0 284399327
[26]  B18 1f 44   -752.7 4092002.0  1.0  1.0  5  1 284399335
[27]  B09 1f 38   1501.2 4091996.1  1.0  1.0  5  0 284399327
[28]  B16 1f 37   1376.0 4091996.4  1.0  1.0  5  0 284399322
[29]  B27 1f 44   1372.7 4091996.4  1.0  1.0  5  0 284399381
$GNGGA,000000.000,,,,,0,00,,,M,,,,0000*2B
$GNRMC,000000.000,A,,,,,,,000000,,*26
$GPGSA,A,1,,,,,,,,,,,,,,,*1E
$BDGSA,A,1,,,,,,,,,,,,,,,*0F
$GPGSV,3,1,11,01,00,000,39,04,00,000,39,07,00,000,44,08,00,000,43*76
$GPGSV,3,2,11,09,00,000,41,11,00,000,42,16,00,000,24,18,00,000,42*7C
$GPGSV,3,3,11,23,00,000,40,27,00,000,39,30,00,000,39*4A
$BDGSV,3,1,12,01,40,125,40,02,46,218,39,03,55,171,41,04,23,109,39*69
$BDGSV,3,2,12,05,26,244,39,30,65,211,45,07,62,044,43,08,00,000,40*68
$BDGSV,3,3,12,10,63,347,42,13,31,179,40,18,00,000,44,09,25,205,38*69
$LOGTIM,0,0.000000,0.000000,0.000000,0.000000,0.000*0A
---00000036--- Acq_st=7 2019-4-10 06:59:56 
[00]  G01  f 40  -3630.3 2046004.7  1.0  1.0  5  0 284414380
[01]  G04  f 39   1169.6 2045998.5  1.0  1.0  5  0 284414382
[02]  G07  f 42  -1910.4 2046002.5  1.0  1.0  5  0 284414387
[03]  G08  f 42   1443.5 2045998.1  1.0  1.0  5  0 284414387
[04]  G09  f 41   2021.8 2045997.4  1.0  1.0  5  0 284414381
[05]  G11  f 42  -2580.4 2046003.3  1.0  1.0  5  0 284414385
[06]  G16  7 24   1956.9 2045997.5 -0.9 -0.1 10  0        15
[07]  G18  f 41  -2552.0 2046003.3  1.0  1.0  5  0 284414384
[08]  G23  f 40   2813.2 2045996.4  1.0  1.0  5  0 284414377
[09]  G27  f 39   2861.5 2045996.3  1.0  1.0  5  0 284414380
