sat16 = 13600 822 5094 -750
FlashID=0x1 0x20 0x18

BBram_blkflag1: 5601: a9fe

FW Ver: 1.30  
GPS00 Init Dop:   5000, 40
GPS01 Init Dop:   5000, 40
GPS02 Init Dop:   5000, 40
GPS03 Init Dop:   5000, 40
GPS04 Init Dop:   5000, 40
GPS05 Init Dop:   5000, 40
GPS06 Init Dop:   5000, 40
GPS07 Init Dop:   5000, 40
GPS08 Init Dop:   5000, 40
GPS09 Init Dop:   5000, 40
GPS10 Init Dop:   5000, 40
GPS11 Init Dop:   5000, 40
GPS12 Init Dop:   5000, 40
GPS13 Init Dop:   5000, 40
GPS14 Init Dop:   5000, 40
GPS15 Init Dop:   5000, 40
GPS16 Init Dop:   5000, 40
GPS17 Init Dop:   5000, 40
GPS18 Init Dop:   5000, 40
GPS19 Init Dop:   5000, 40
GPS20 Init Dop:   5000, 40
GPS21 Init Dop:   5000, 40
GPS22 Init Dop:   5000, 40
GPS23 Init Dop:   5000, 40
GPS24 Init Dop:   5000, 40
GPS25 Init Dop:   5000, 40
GPS26 Init Dop:   5000, 40
GPS27 Init Dop:   5000, 40
GPS28 Init Dop:   5000, 40
GPS29 Init Dop:   5000, 40
GPS30 Init Dop:   5000, 40
GPS31 Init Dop:   5000, 40
BDS00 Init Dop:   5000, 40
BDS01 Init Dop:   5000, 40
BDS02 Init Dop:   5000, 40
BDS03 Init Dop:   5000, 40
BDS04 Init Dop:   5000, 40
BDS05 Init Dop:   5000, 40
BDS06 Init Dop:   5000, 40
BDS07 Init Dop:   5000, 40
BDS08 Init Dop:   5000, 40
BDS09 Init Dop:   5000, 40
BDS10 Init Dop:   5000, 40
BDS11 Init Dop:   5000, 40
BDS12 Init Dop:   5000, 40
BDS13 Init Dop:   5000, 40
BDS14 Init Dop:   5000, 40
BDS15 Init Dop:   5000, 40
BDS16 Init Dop:   5000, 40
BDS17 Init Dop:   5000, 40
BDS18 Init Dop:   5000, 40
BDS19 Init Dop:   5000, 40
BDS20 Init Dop:   5000, 40
BDS21 Init Dop:   5000, 40
BDS22 Init Dop:   5000, 40
BDS23 Init Dop:   5000, 40
BDS24 Init Dop:   5000, 40
BDS25 Init Dop:   5000, 40
BDS26 Init Dop:   5000, 40
BDS27 Init Dop:   5000, 40
BDS28 Init Dop:   5000, 40
BDS29 Init Dop:   5000, 40
BDS30 Init Dop:   5000, 40
BDS31 Init Dop:   5000, 40
good luck!
sat0 = 3552 1886 1272 -4000
sat1 = 11230 616 2680 -1750
ch0 satid=1 freq = -1750 acq ok1!
acq ok1 timeH = 0,timeL = 23624653,time_stage = 4
sat2 = 12732 605 4668 4750
sat3 = 11051 1405 4629 3500
sat4 = 12140 181 4559 3500
sat5 = 11205 1852 4551 250
sat6 = 12603 1737 4588 0
sat7 = 11836 916 4515 -4000
---00000001--- Acq_st=3 2019-5-20 01:15:54 
[00]  G02  1  7   1730.4 2045998.1 -0.0  0.0  1  0         0
$GNGGA,000000.000,,,,,0,00,,,M,,,,0000*2B

$GNRMC,000000.000,A,,,,,,,000000,,*26

$GPGSA,A,1,,,,,,,,,,,,,,,*1E

$BDGSA,A,1,,,,,,,,,,,,,,,*0F

$LOGTIM,0,0.000000,0.000000,0.000000,0.000000,0.000*0A

EndT:        0
sat8 = 130674 850 4549 3500
ch1 satid=8 freq = 3500 acq ok1!
acq ok1 timeH = 0,timeL = 37261922,time_stage = 1
sat9 = 12434 182 4590 -1000
sat10 = 11580 201 4561 -4750
sat11 = 11489 1836 4617 -1250
sat12 = 11572 1801 4577 -3750
sat13 = 12047 1369 4627 2000
sat14 = 12503 1339 4608 4750
sat15 = 102545 1931 4513 0
ch2 satid=15 freq = 0 acq ok1!
acq ok1 timeH = 0,timeL = 53009902,time_stage = 3
sat16 = 13022 308 4568 5000
---00000002--- Acq_st=3 2019-5-20 01:15:55 
[00]  G02  1  7   1738.5 2045998.2  0.0  0.0  1  0         9
[01]  G09  1 30  -3390.3 2046004.8  0.0  0.0  1  0         0
[02]  G16  1  7    -59.2 2046000.5  0.0  0.0  1  0         0
sat17 = 12547 472 4578 2000
$GNGGA,000000.000,,,,,0,00,,,M,,,,0000*2B

$GNRMC,000000.000,A,,,,,,,000000,,*26

$GPGSA,A,1,,,,,,,,,,,,,,,*1E

$BDGSA,A,1,,,,,,,,,,,,,,,*0F

$LOGTIM,0,0.000000,0.000000,0.000000,0.000000,0.000*0A

EndT:        0
sat18 = 12328 1031 4577 4000
sat19 = 12821 45 4535 -4500
sat20 = 13085 1281 4571 3250
sat21 = 11153 913 4527 250
sat22 = 124380 542 4574 2250
ch3 satid=22 freq = 2250 acq ok1!
acq ok1 timeH = 0,timeL = 67491545,time_stage = 2
sat23 = 11920 628 4543 -250
sat24 = 12969 1981 4520 4000
sat25 = 242933 2041 4581 -1000
ch4 satid=25 freq = -1000 acq ok1!
acq ok1 timeH = 0,timeL = 74722766,time_stage = 4
---00000003--- Acq_st=3 2019-5-20 01:15:56 
[00]  G02  1 13   1933.4 2045998.3 -0.0  0.0  1  0         9
[01]  G09  7 32  -3403.4 2046004.3  0.7  1.0  5  0        14
[02]  G16  1 26   -126.1 2046000.1 -0.0  0.0  1  0        17
[03]  G23  1  7  -2160.9 2046004.2 -0.1  0.0  1  0         0
[04]  G26  1  7   1117.7 2045999.4 -0.0  0.0  1  0         0
sat26 = 11420 1471 4581 750
$GNGGA,000000.000,,,,,0,00,,,M,,,,0000*2B

$GNRMC,000000.000,A,,,,,,,000000,,*26

$GPGSA,A,1,,,,,,,,,,,,,,,*1E

$BDGSA,A,1,,,,,,,,,,,,,,,*0F

$GPGSV,1,1,01,09,00,000,32*40

$LOGTIM,0,0.000000,0.000000,0.000000,0.000000,0.000*0A

EndT:        0
sat27 = 14738 693 4527 3500
sat28 = 12077 1955 4601 -3250
sat29 = 12490 1519 4633 -3500
sat30 = 11711 1509 4525 -4500
sat31 = 11314 50 4505 -3250
sat37 = 4808 2891 1256 -4500
sat38 = 5240 3823 1289 -3750
ch16 satid=38 freq = -3750 acq ok1!
acq ok1 timeH = 0,timeL = 94095552,time_stage = 5
---00000004--- Acq_st=3 2019-5-20 01:15:57 
[01]  G09  7 43  -3405.7 2046004.4  1.0  1.0  5  0        14
[02]  G16  7 37   -127.9 2046000.2  0.5  1.0  5  0        17
[03]  G23  7 16  -2140.6 2046002.8  0.1  0.0 20  0         1
[04]  G26  1 29   1094.0 2045998.5 -0.0  0.0  1  0         8
[16]  B02  1 20   3818.6 4091990.5  0.0  0.0  1  0         0
$GNGGA,000000.000,,,,,0,00,,,M,,,,0000*2B

$GNRMC,000000.000,A,,,,,,,000000,,*26

$GPGSA,A,1,,,,,,,,,,,,,,,*1E

$BDGSA,A,1,,,,,,,,,,,,,,,*0F

$GPGSV,1,1,03,09,00,000,43,16,00,000,37,23,00,000,16*41

$LOGTIM,0,0.000000,0.000000,0.000000,0.000000,0.000*0A

EndT:        1
sat39 = 4761 2950 1280 250
sat40 = 4829 3020 1298 -2500
sat41 = 4857 3594 1274 250
sat42 = 4386 2216 1271 1500
sat43 = 20667 2527 1261 750
ch17 satid=43 freq = 750 acq ok1!
acq ok1 timeH = 0,timeL = 108749814,time_stage = 3
sat44 = 4631 2101 1272 1250
---00000005--- Acq_st=3 2019-5-20 01:15:58 
[01]  G09  7 43  -3401.8 2046004.4  1.0  1.0  5  0        14
[02]  G16  7 43   -124.1 2046000.2  1.0  1.0  5  0         7
[03]  G23  7 44  -2136.6 2046002.7  0.9  1.0  5  0         2
[04]  G26  7 35   1098.6 2045998.5  0.6  1.0  5  0         8
[16]  B02  1 10   3542.9 4091990.9  0.2  0.0  1  0       110
[17]  B07  1  7   -748.6 4092001.6 -0.1  0.0  1  0         0
$GNGGA,000000.000,,,,,0,00,,,M,,,,0000*2B

$GNRMC,000000.000,A,,,,,,,000000,,*26

$GPGSA,A,1,,,,,,,,,,,,,,,*1E

$BDGSA,A,1,,,,,,,,,,,,,,,*0F

$GPGSV,1,1,04,09,00,000,43,16,00,000,43,23,00,000,44,26,00,000,35*70

$LOGTIM,0,0.000000,0.000000,0.000000,0.000000,0.000*0A

EndT:        0
sat45 = 4389 3304 1262 -500
sat46 = 19613 3558 1297 750
ch18 satid=46 freq = 750 acq ok1!
acq ok1 timeH = 0,timeL = 118301938,time_stage = 3
sat47 = 4572 2477 1250 -750
sat48 = 4900 2301 1260 3500
sat49 = 4706 3471 1274 250
sat50 = 4582 3879 1253 -3750
---00000006--- Acq_st=3 2019-5-20 01:15:59 
[01]  G09  7 43  -3399.5 2046004.4  1.0  1.0  5  0        14
[02]  G16  7 43   -122.0 2046000.2  1.0  1.0  5  0         7
[03]  G23  7 44  -2134.2 2046002.7  1.0  1.0  5  0         2
[04]  G26  7 47   1100.7 2045998.5  1.0  1.0  5  0         5
[16]  B02  1 10   3587.1 4091991.2 -0.1  0.0  1  0      1110
[17]  B07  1  7   -846.3 4092001.4 -0.1  0.0  1  0       281
[18]  B10  1  7   -813.2 4092000.8 -0.2  0.0  1  0         0
$GNGGA,000000.000,,,,,0,00,,,M,,,,0000*2B

$GNRMC,000000.000,A,,,,,,,000000,,*26

$GPGSA,A,1,,,,,,,,,,,,,,,*1E

$BDGSA,A,1,,,,,,,,,,,,,,,*0F

$GPGSV,1,1,04,09,00,000,43,16,00,000,43,23,00,000,44,26,00,000,47*75

$LOGTIM,0,0.000000,0.000000,0.000000,0.000000,0.000*0A

EndT:        0
sat51 = 4459 3104 1253 -500
sat52 = 4960 2509 1294 4250
sat53 = 4756 2530 1264 2250
sat54 = 5019 3821 1261 -1750
sat55 = 4847 3752 1254 -4750
sat56 = 4546 3474 1252 4500
---00000007--- Acq_st=3 2019-5-20 01:16:0 
[01]  G09  7 43  -3403.4 2046004.4  1.0  1.0  5  0        14
[02]  G16  7 43   -125.6 2046000.2  1.0  1.0  5  0         7
[03]  G23  7 44  -2137.5 2046002.8  1.0  1.0  5  0         2
[04]  G26  7 47   1097.0 2045998.6  1.0  1.0  5  0         5
[16]  B02  1 10   3583.5 4091991.9 -0.0  0.0  1  0      2110
[17]  B07  1  7   -775.2 4092001.4  0.1  0.0  1  0      1281
[18]  B10  1  7   -840.9 4092001.0  0.0  0.0  1  0       784
$GNGGA,000000.000,,,,,0,00,,,M,,,,0000*2B

$GNRMC,000000.000,A,,,,,,,000000,,*26

$GPGSA,A,1,,,,,,,,,,,,,,,*1E

$BDGSA,A,1,,,,,,,,,,,,,,,*0F

$GPGSV,1,1,04,09,00,000,43,16,00,000,43,23,00,000,44,26,00,000,47*75

$LOGTIM,0,0.000000,0.000000,0.000000,0.000000,0.000*0A

EndT:        0
sat57 = 16664 3807 1253 -500
ch19 satid=57 freq = -500 acq ok1!
acq ok1 timeH = 0,timeL = 153642878,time_stage = 3
sat58 = 5016 2552 1264 -2750
sat59 = 4440 3302 1263 250
sat60 = 4724 3205 1273 -4500
sat61 = 4424 4088 1258 1500
sat62 = 4856 2158 1260 1250
---00000008--- Acq_st=3 2019-5-20 01:16:1 
[01]  G09  7 43  -3403.9 2046004.4  1.0  1.0  5  0        14
[02]  G16  7 43   -126.2 2046000.1  1.0  1.0  5  0         7
[03]  G23  7 44  -2138.3 2046002.8  1.0  1.0  5  0         2
[04]  G26  7 47   1095.8 2045998.6  1.0  1.0  5  0         5
[16]  B02  7 16   3714.2 4091990.6 -0.0  0.0  2  0      3110
[17]  B07  1  7   -741.9 4092001.4  0.0  0.0  1  0      2281
[18]  B10  1  7  -1046.3 4092001.0 -0.1  0.0  1  0      1784
[19]  B21  1  7    541.2 4091999.2  0.0  0.0  1  0         0
$GNGGA,000000.000,,,,,0,00,,,M,,,,0000*2B

$GNRMC,000000.000,A,,,,,,,000000,,*26

$GPGSA,A,1,,,,,,,,,,,,,,,*1E

$BDGSA,A,1,,,,,,,,,,,,,,,*0F

$GPGSV,1,1,04,09,00,000,43,16,00,000,43,23,00,000,44,26,00,000,47*75

$BDGSV,1,1,01,02,00,000,16*5C

$LOGTIM,0,0.000000,0.000000,0.000000,0.000000,0.000*0A

EndT:        0
sat63 = 5787 3719 1259 -2500
ch20 satid=63 freq = -2500 acq ok1!
acq ok1 timeH = 0,timeL = 173380102,time_stage = 4
sat64 = 4531 2297 1269 4500
sat65 = 4972 2385 1282 4500
sat66 = 4925 2940 1277 250
sat67 = 5074 2467 1265 1250
ch17 satid=67 freq = 1250 acq ok1!
acq ok1 timeH = 0,timeL = 184850312,time_stage = 2
sat68 = 4609 2756 1266 -750
---00000009--- Acq_st=7 2019-5-20 01:16:2 
[01]  G09  f 43  -3399.8 2046004.4  1.0  1.0  5  0        14
[02]  G16  f 42   -122.1 2046000.1  1.0  1.0  5  0         7
[03]  G23  f 44  -2133.5 2046002.8  1.0  1.0  5  0         2
[04]  G26  f 47   1099.9 2045998.6  1.0  1.0  5  0         5
[16]  B02  7 17   3714.2 4091990.3 -0.0  0.0  2  0      4109
[17]  B31  1  7  -1259.2 4092002.9 -0.1  0.0  1  0      3281
[19]  B21  1  7    678.2 4091999.1 -0.0  0.0  1  0       960
[20]  B27  1  7   2434.7 4091994.1  0.1  0.0  1  0         0
$GNGGA,000000.000,,,,,0,00,,,M,,,,0000*2B

$GNRMC,000000.000,A,,,,,,,000000,,*26

$GPGSA,A,1,,,,,,,,,,,,,,,*1E

$BDGSA,A,1,,,,,,,,,,,,,,,*0F

$GPGSV,1,1,04,09,00,000,43,16,00,000,42,23,00,000,44,26,00,000,47*74

$BDGSV,1,1,01,02,00,000,17*5D

$LOGTIM,0,0.000000,0.000000,0.000000,0.000000,0.000*0A

EndT:        0
---00000010--- Acq_st=7 2019-5-20 01:16:3 
[01]  G09  f 43  -3398.1 2046004.4  1.0  1.0  5  0  90980154
[02]  G16  f 43   -120.3 2046000.2  1.0  1.0  5  0  90980167
[03]  G23  f 44  -2131.9 2046002.8  1.0  1.0  5  0  90980162
[04]  G26  f 47   1101.4 2045998.6  1.0  1.0  5  0  90980165
[16]  B02  7 10   3713.0 4091990.2  0.0  0.0  2  0      5109
[17]  B31  1  7  -1454.9 4092003.4 -0.0  0.0  1  0       301
[19]  B21  1  7    779.0 4091998.8  0.2  0.0  1  0      1960
[20]  B27  1  7   2420.3 4091993.5 -0.2  0.0  1  0       964
$GNGGA,000000.000,,,,,0,00,,,M,,,,0000*2B

$GNRMC,000000.000,A,,,,,,,000000,,*26

$GPGSA,A,1,,,,,,,,,,,,,,,*1E

$BDGSA,A,1,,,,,,,,,,,,,,,*0F

$GPGSV,1,1,04,09,00,000,43,16,00,000,43,23,00,000,44,26,00,000,47*75

$LOGTIM,0,0.000000,0.000000,0.000000,0.000000,0.000*0A

EndT:        0
sat0 = 12921 1483 4563 4000
sat1 = 11085 283 4543 -3500
sat2 = 11890 1100 4552 2000
sat3 = 11925 299 4495 1750
sat4 = 12275 532 4539 3000
sat5 = 12895 620 4555 3250
sat6 = 13369 313 4573 3750
sat7 = 11534 1186 4482 -750
sat9 = 11914 641 4518 2500
---00000011--- Acq_st=5 2019-5-20 01:16:4 
[01]  G09  f 44  -3399.0 2046004.4  1.0  1.0  5  0  90981154
[02]  G16  f 42   -121.5 2046000.2  1.0  1.0  5  0  90981167
[03]  G23  f 43  -2132.8 2046002.8  1.0  1.0  5  0  90981162
[04]  G26  f 47   1100.3 2045998.6  1.0  1.0  5  0  90981165
[17]  B31  1  7  -1658.2 4092002.9  0.0  0.0  1  0      1301
[20]  B27  1  7   2473.1 4091993.9  0.2  0.0  1  0      1964
$GNGGA,000000.000,,,,,0,00,,,M,,,,0000*2B

$GNRMC,000000.000,A,,,,,,,000000,,*26

$GPGSA,A,1,,,,,,,,,,,,,,,*1E

$BDGSA,A,1,,,,,,,,,,,,,,,*0F

$GPGSV,1,1,04,09,00,000,44,16,00,000,42,23,00,000,43,26,00,000,47*74

$LOGTIM,0,0.000000,0.000000,0.000000,0.000000,0.000*0A

EndT:        0
sat10 = 11488 1082 4499 -4500
sat11 = 12398 1746 4529 750
sat12 = 13035 132 4545 -3500
sat13 = 13713 710 4532 -3750
sat14 = 11843 1838 4553 3000
sat16 = 13481 467 4549 -750
sat17 = 11668 1214 4534 1500
sat18 = 11948 1581 4500 -1000
sat19 = 11980 1130 4488 -3500
---00000012--- Acq_st=3 2019-5-20 01:16:5 
[01]  G09  f 43  -3397.5 2046004.4  1.0  1.0  5  0  90982154
[02]  G16  f 42   -119.5 2046000.1  1.0  1.0  5  0  90982167
[03]  G23  f 43  -2130.4 2046002.8  1.0  1.0  5  0  90982162
[04]  G26  f 47   1102.0 2045998.6  1.0  1.0  5  0  90982165
[17]  B31  1  7  -1894.0 4092003.5  0.2  0.0  1  0      2301
$GNGGA,000000.000,,,,,0,00,,,M,,,,0000*2B

$GNRMC,000000.000,A,,,,,,,000000,,*26

$GPGSA,A,1,,,,,,,,,,,,,,,*1E

$BDGSA,A,1,,,,,,,,,,,,,,,*0F

$GPGSV,1,1,04,09,00,000,43,16,00,000,42,23,00,000,43,26,00,000,47*73

$LOGTIM,0,0.000000,0.000000,0.000000,0.000000,0.000*0A

EndT:        0
sat20 = 11648 676 4572 -4000
sat21 = 12516 1777 4518 4250
sat23 = 13199 201 4595 -1750
sat24 = 12634 274 4577 4000
sat26 = 12661 1757 4531 1750
sat27 = 11528 1441 4520 5000
sat28 = 12331 513 4542 4000
sat29 = 12124 1841 4587 -3250
sat30 = 12250 576 4457 2750
---00000013--- Acq_st=3 2019-5-20 01:16:6 
[01]  G09  f 43  -3396.8 2046004.4  1.0  1.0  5  0  90983154
[02]  G16  f 42   -118.9 2046000.1  1.0  1.0  5  0  90983167
[03]  G23  f 44  -2129.8 2046002.8  1.0  1.0  5  0  90983162
[04]  G26  f 47   1102.1 2045998.6  1.0  1.0  5  0  90983165
$GNGGA,000000.000,,,,,0,00,,,M,,,,0000*2B

$GNRMC,000000.000,A,,,,,,,000000,,*26

$GPGSA,A,1,,,,,,,,,,,,,,,*1E

$BDGSA,A,1,,,,,,,,,,,,,,,*0F

$GPGSV,1,1,04,09,00,000,43,16,00,000,42,23,00,000,44,26,00,000,47*74

$LOGTIM,0,0.000000,0.000000,0.000000,0.000000,0.000*0A

EndT:        0
sat31 = 11814 521 4534 -2250
sat37 = 4629 3641 1253 -750
sat39 = 5017 3377 1267 -4750
sat40 = 4995 2467 1294 -2500
sat41 = 4868 2551 1268 250
sat42 = 4814 3433 1266 -1750
---00000014--- Acq_st=3 2019-5-20 01:16:7 
[01]  G09  f 43  -3389.5 2046004.4  1.0  1.0  5  0  90984154
[02]  G16  f 42   -111.1 2046000.1  1.0  1.0  5  0  90984167
[03]  G23  f 43  -2121.8 2046002.8  1.0  1.0  5  0  90984162
[04]  G26  f 47   1109.6 2045998.6  1.0  1.0  5  0  90984165
$GNGGA,000000.000,,,,,0,00,,,M,,,,0000*2B

$GNRMC,000000.000,A,,,,,,,000000,,*26

$GPGSA,A,1,,,,,,,,,,,,,,,*1E

$BDGSA,A,1,,,,,,,,,,,,,,,*0F

$GPGSV,1,1,04,09,00,000,43,16,00,000,42,23,00,000,43,26,00,000,47*73

$LOGTIM,0,0.000000,0.000000,0.000000,0.000000,0.000*0A

EndT:        0
sat43 = 20517 3592 1254 -500
ch16 satid=43 freq = -500 acq ok1!
acq ok1 timeH = 0,timeL = 288955042,time_stage = 3
sat44 = 4769 2933 1276 1250
sat45 = 4416 2623 1259 -1500
sat46 = 18413 2512 1299 250
ch17 satid=46 freq = 250 acq ok1!
acq ok1 timeH = 0,timeL = 298190668,time_stage = 3
sat47 = 4487 3615 1250 -4750
sat48 = 4592 2174 1269 4250
---00000015--- Acq_st=3 2019-5-20 01:16:8 
[01]  G09  f 43  -3387.3 2046004.4  1.0  1.0  5  0  90985154
[02]  G16  f 43   -108.9 2046000.1  1.0  1.0  5  0  90985167
[03]  G23  f 43  -2119.5 2046002.7  1.0  1.0  5  0  90985162
[04]  G26  f 47   1112.0 2045998.6  1.0  1.0  5  0  90985165
[16]  B07  1  7    361.3 4091999.1 -0.1  0.0  1  0      6109
[17]  B10  1  7   -218.1 4092000.2  0.1  0.0  1  0      2301
$GNGGA,000000.000,,,,,0,00,,,M,,,,0000*2B

$GNRMC,000000.000,A,,,,,,,000000,,*26

$GPGSA,A,1,,,,,,,,,,,,,,,*1E

$BDGSA,A,1,,,,,,,,,,,,,,,*0F

$GPGSV,1,1,04,09,00,000,43,16,00,000,43,23,00,000,43,26,00,000,47*72

$LOGTIM,0,0.000000,0.000000,0.000000,0.000000,0.000*0A

EndT:        0
sat49 = 4593 3083 1262 2250
sat50 = 4586 2731 1259 -1750
sat51 = 5168 2591 1258 2500
ch18 satid=51 freq = 2500 acq ok1!
acq ok1 timeH = 0,timeL = 313477908,time_stage = 2
sat52 = 4638 2757 1287 -1500
sat53 = 4483 3217 1262 -4500
sat54 = 4461 3806 1259 -4750
---00000016--- Acq_st=3 2019-5-20 01:16:9 
[01]  G09  f 44  -3389.8 2046004.4  1.0  1.0  5  0  90986154
[02]  G16  f 42   -111.8 2046000.1  1.0  1.0  5  0  90986167
[03]  G23  f 44  -2122.1 2046002.8  1.0  1.0  5  0  90986162
[04]  G26  f 47   1109.1 2045998.6  1.0  1.0  5  0  90986165
[16]  B07  1  7    440.6 4091998.8  0.0  0.0  1  0       912
[17]  B10  1  7   -266.3 4092000.0  0.0  0.0  1  0       415
[18]  B15  1  7  -2508.0 4092006.0  0.0  0.0  1  0      2784
$GNGGA,000000.000,,,,,0,00,,,M,,,,0000*2B

$GNRMC,000000.000,A,,,,,,,000000,,*26

$GPGSA,A,1,,,,,,,,,,,,,,,*1E

$BDGSA,A,1,,,,,,,,,,,,,,,*0F

$GPGSV,1,1,04,09,00,000,44,16,00,000,42,23,00,000,44,26,00,000,47*73

$LOGTIM,0,0.000000,0.000000,0.000000,0.000000,0.000*0A

EndT:        0
sat55 = 4466 4088 1252 -750
sat56 = 4410 4045 1257 250
sat58 = 4736 2444 1253 -4500
sat59 = 4708 4044 1262 -1750
sat60 = 4597 3255 1261 -750
sat61 = 4711 3544 1246 3250
---00000017--- Acq_st=3 2019-5-20 01:16:10 
[01]  G09  f 44  -3390.6 2046004.4  1.0  1.0  5  0  90987154
[02]  G16  f 42   -112.8 2046000.1  1.0  1.0  5  0  90987167
[03]  G23  f 44  -2122.4 2046002.8  1.0  1.0  5  0  90987162
[04]  G26  f 47   1108.1 2045998.6  1.0  1.0  5  0  90987165
[16]  B07  1  7     97.4 4091999.2 -0.0  0.0  1  0      1912
[17]  B10  1  7   -399.7 4092000.0 -0.2  0.0  1  0      1415
[18]  B15  1  7  -2480.9 4092006.2  0.2  0.0  1  0       585
$GNGGA,000000.000,,,,,0,00,,,M,,,,0000*2B

$GNRMC,000000.000,A,,,,,,,000000,,*26

$GPGSA,A,1,,,,,,,,,,,,,,,*1E

$BDGSA,A,1,,,,,,,,,,,,,,,*0F

$GPGSV,1,1,04,09,00,000,44,16,00,000,42,23,00,000,44,26,00,000,47*73

$LOGTIM,0,0.000000,0.000000,0.000000,0.000000,0.000*0A

EndT:        0
sat62 = 4363 3382 1260 2500
sat64 = 4642 2286 1270 -500
sat65 = 4692 2724 1278 2500
sat66 = 4877 3463 1275 1250
sat68 = 4457 2441 1263 250
---00000018--- Acq_st=7 2019-5-20 01:16:11 
[01]  G09  f 44  -3391.9 2046004.4  1.0  1.0  5  0  90988154
[02]  G16  f 43   -113.4 2046000.1  1.0  1.0  5  0  90988167
[03]  G23  f 43  -2123.6 2046002.8  1.0  1.0  5  0  90988162
[04]  G26  f 47   1106.8 2045998.5  1.0  1.0  5  0  90988165
[18]  B15  1  7  -2421.0 4092005.8 -0.1  0.0  1  0      1585
$GNGGA,000000.000,,,,,0,00,,,M,,,,0000*2B

$GNRMC,000000.000,A,,,,,,,000000,,*26

$GPGSA,A,1,,,,,,,,,,,,,,,*1E

$BDGSA,A,1,,,,,,,,,,,,,,,*0F

$GPGSV,1,1,04,09,00,000,44,16,00,000,43,23,00,000,43,26,00,000,47*75

$LOGTIM,0,0.000000,0.000000,0.000000,0.000000,0.000*0A

EndT:        0
---00000019--- Acq_st=7 2019-5-20 01:16:12 
[01]  G09  f 44  -3396.0 2046004.4  1.0  1.0  5  0  90989154
[02]  G16  f 42   -117.8 2046000.1  1.0  1.0  5  0  90989167
[03]  G23  f 42  -2127.2 2046002.8  1.0  1.0  5  0  90989162
[04]  G26  f 47   1102.6 2045998.6  1.0  1.0  5  0  90989165
$GNGGA,000000.000,,,,,0,00,,,M,,,,0000*2B

$GNRMC,000000.000,A,,,,,,,000000,,*26

$GPGSA,A,1,,,,,,,,,,,,,,,*1E

$BDGSA,A,1,,,,,,,,,,,,,,,*0F

$GPGSV,1,1,04,09,00,000,44,16,00,000,42,23,00,000,42,26,00,000,47*75

$LOGTIM,0,0.000000,0.000000,0.000000,0.000000,0.000*0A

EndT:        0
sat0 = 12731 1892 4507 500
sat1 = 11927 1634 4496 -1250
sat2 = 14581 150 4601 -1750
sat3 = 11039 1226 4516 250
sat4 = 11050 1315 4563 -3750
sat5 = 13101 198 4533 -2000
sat6 = 13268 926 4576 1000
sat7 = 11572 851 4493 2000
sat9 = 11458 184 4560 -2500
---00000020--- Acq_st=5 2019-5-20 01:16:13 
[01]  G09  f 44  -3393.8 2046004.4  1.0  1.0  5  0  90990154
[02]  G16  f 42   -115.6 2046000.2  1.0  1.0  5  0  90990167
[03]  G23  f 42  -2125.3 2046002.8  1.0  1.0  5  0  90990162
[04]  G26  f 47   1104.4 2045998.6  1.0  1.0  5  0  90990165
$GNGGA,000000.000,,,,,0,00,,,M,,,,0000*2B

$GNRMC,000000.000,A,,,,,,,000000,,*26

$GPGSA,A,1,,,,,,,,,,,,,,,*1E

$BDGSA,A,1,,,,,,,,,,,,,,,*0F

$GPGSV,1,1,04,09,00,000,44,16,00,000,42,23,00,000,42,26,00,000,47*75

$LOGTIM,0,0.000000,0.000000,0.000000,0.000000,0.000*0A

EndT:        0
sat10 = 11948 621 4519 3500
sat11 = 11768 1698 4521 -750
sat12 = 12284 1825 4590 -2000
sat13 = 12514 1752 4601 2000
sat14 = 11660 1825 4600 -2250
sat16 = 11515 108 4543 3250
sat17 = 12649 367 4519 2750
sat18 = 13194 1019 4515 3500
sat19 = 12460 86 4490 -2250
---00000021--- Acq_st=3 2019-5-20 01:16:14 
[01]  G09  f 45  -3392.3 2046004.4  1.0  1.0  5  0  90991154
[02]  G16  f 43   -114.0 2046000.1  1.0  1.0  5  0  90991167
[03]  G23  f 43  -2123.6 2046002.7  1.0  1.0  5  0  90991162
[04]  G26  f 47   1105.9 2045998.6  1.0  1.0  5  0  90991165
$GNGGA,000000.000,,,,,0,00,,,M,,,,0000*2B

$GNRMC,000000.000,A,,,,,,,000000,,*26

$GPGSA,A,1,,,,,,,,,,,,,,,*1E

$BDGSA,A,1,,,,,,,,,,,,,,,*0F

$GPGSV,1,1,04,09,00,000,45,16,00,000,43,23,00,000,43,26,00,000,47*74

$LOGTIM,0,0.000000,0.000000,0.000000,0.000000,0.000*0A

EndT:        0
sat20 = 11571 1952 4514 250
sat21 = 12278 1636 4443 250
sat23 = 13515 547 4575 2500
sat24 = 15738 27 4550 -500
sat26 = 12953 873 4627 4500
sat27 = 11435 13 4517 500
sat28 = 12944 1191 4594 -4500
sat29 = 11810 1294 4564 2500
sat30 = 12042 1047 4533 4750
---00000022--- Acq_st=3 2019-5-20 01:16:15 
[01]  G09  f 44  -3395.4 2046004.4  1.0  1.0  5  0  90992154
[02]  G16  f 43   -116.7 2046000.1  1.0  1.0  5  0  90992167
[03]  G23  f 42  -2125.8 2046002.8  1.0  1.0  5  0  90992162
[04]  G26  f 47   1103.0 2045998.6  1.0  1.0  5  0  90992165
$GNGGA,000000.000,,,,,0,00,,,M,,,,0000*2B

$GNRMC,000000.000,A,,,,,,,000000,,*26

$GPGSA,A,1,,,,,,,,,,,,,,,*1E

$BDGSA,A,1,,,,,,,,,,,,,,,*0F

$GPGSV,1,1,04,09,00,000,44,16,00,000,43,23,00,000,42,26,00,000,47*74

$LOGTIM,0,0.000000,0.000000,0.000000,0.000000,0.000*0A

EndT:        0
sat31 = 11754 141 4556 2750
sat37 = 4576 3741 1252 -3750
sat38 = 4802 3081 1282 250
sat39 = 4641 3154 1274 -2500
sat40 = 4507 4037 1293 -2750
sat41 = 5758 2743 1268 -500
ch16 satid=41 freq = -500 acq ok1!
acq ok1 timeH = 0,timeL = 458313402,time_stage = 3
---00000023--- Acq_st=3 2019-5-20 01:16:16 
[01]  G09  f 44  -3398.2 2046004.4  1.0  1.0  5  0  90993154
[02]  G16  f 43   -120.0 2046000.2  1.0  1.0  5  0  90993167
[03]  G23  f 42  -2128.8 2046002.8  1.0  1.0  5  0  90993162
[04]  G26  f 47   1099.6 2045998.6  1.0  1.0  5  0  90993165
[16]  B05  1 10    475.0 4092000.5  0.0  0.0  1  0      2912
$GNGGA,000000.000,,,,,0,00,,,M,,,,0000*2B

$GNRMC,000000.000,A,,,,,,,000000,,*26

$GPGSA,A,1,,,,,,,,,,,,,,,*1E

$BDGSA,A,1,,,,,,,,,,,,,,,*0F

$GPGSV,1,1,04,09,00,000,44,16,00,000,43,23,00,000,42,26,00,000,47*74

$LOGTIM,0,0.000000,0.000000,0.000000,0.000000,0.000*0A

EndT:        0
sat42 = 4461 2493 1272 4250
sat43 = 16372 3657 1260 750
ch17 satid=43 freq = 750 acq ok1!
acq ok1 timeH = 0,timeL = 464364998,time_stage = 3
sat44 = 4967 2452 1268 -4500
sat45 = 7516 2701 1254 -750
ch18 satid=45 freq = -750 acq ok1!
acq ok1 timeH = 0,timeL = 471049566,time_stage = 3
sat46 = 20864 2704 1296 -500
ch19 satid=46 freq = -500 acq ok1!
acq ok1 timeH = 0,timeL = 474233610,time_stage = 3
sat47 = 4538 2315 1249 -3500
---00000024--- Acq_st=3 2019-5-20 01:16:17 
[01]  G09  f 44  -3397.4 2046004.4  1.0  1.0  5  0  90994154
[02]  G16  f 43   -119.2 2046000.2  1.0  1.0  5  0  90994167
[03]  G23  f 43  -2127.6 2046002.7  1.0  1.0  5  0  90994162
[04]  G26  f 47   1100.4 2045998.6  1.0  1.0  5  0  90994165
[16]  B05  1 10    310.3 4092000.5 -0.2  0.0  1  0        91
[17]  B07  1  7   -746.7 4092000.9  0.0  0.0  1  0      2415
[18]  B09  1  7    731.2 4091998.8 -0.0  0.0  1  0      2585
[19]  B10  1  7    503.2 4091999.2  0.0  0.0  1  0      2960
$GNGGA,000000.000,,,,,0,00,,,M,,,,0000*2B

$GNRMC,000000.000,A,,,,,,,000000,,*26

$GPGSA,A,1,,,,,,,,,,,,,,,*1E

$BDGSA,A,1,,,,,,,,,,,,,,,*0F

$GPGSV,1,1,04,09,00,000,44,16,00,000,43,23,00,000,43,26,00,000,47*75

$LOGTIM,0,0.000000,0.000000,0.000000,0.000000,0.000*0A

EndT:        0
sat48 = 4870 2534 1262 -2500
sat49 = 4684 2284 1262 4250
sat50 = 4566 2084 1262 4500
sat51 = 4279 3600 1254 -750
sat52 = 4718 2238 1291 -1500
sat53 = 4837 3266 1258 -3500
---00000025--- Acq_st=3 2019-5-20 01:16:18 
[01]  G09  f 44  -3398.1 2046004.4  1.0  1.0  5  0  90995154
[02]  G16  f 43   -119.7 2046000.2  1.0  1.0  5  0  90995167
[03]  G23  f 43  -2128.6 2046002.8  1.0  1.0  5  0  90995162
[04]  G26  f 48   1099.3 2045998.6  1.0  1.0  5  0  90995165
[16]  B05  1 10    479.9 4091999.3  0.1  0.0  1  0      1091
[17]  B07  1  7   -751.7 4092001.3 -0.0  0.0  1  0       759
[18]  B09  1  7    897.1 4091999.3 -0.0  0.0  1  0       427
[19]  B10  1  7    574.9 4091999.5 -0.0  0.0  1  0       262
$GNGGA,000000.000,,,,,0,00,,,M,,,,0000*2B

$GNRMC,000000.000,A,,,,,,,000000,,*26

$GPGSA,A,1,,,,,,,,,,,,,,,*1E

$BDGSA,A,1,,,,,,,,,,,,,,,*0F

$GPGSV,1,1,04,09,00,000,44,16,00,000,43,23,00,000,43,26,00,000,48*7A

$LOGTIM,0,0.000000,0.000000,0.000000,0.000000,0.000*0A

EndT:        0
sat54 = 5291 3603 1251 -2750
ch20 satid=54 freq = -2750 acq ok1!
acq ok1 timeH = 0,timeL = 500338920,time_stage = 4
sat55 = 4509 2331 1259 -4500
sat56 = 4459 3855 1244 -1750
sat57 = 13454 2830 1237 750
ch21 satid=57 freq = 750 acq ok1!
acq ok1 timeH = 0,timeL = 508941577,time_stage = 3
sat58 = 4540 3072 1257 3500
sat59 = 4519 3704 1260 -1500
---00000026--- Acq_st=3 2019-5-20 01:16:19 
[01]  G09  f 44  -3389.1 2046004.4  1.0  1.0  5  0  90996154
[02]  G16  f 43   -111.1 2046000.1  1.0  1.0  5  0  90996167
[03]  G23  f 43  -2119.5 2046002.7  1.0  1.0  5  0  90996162
[04]  G26  f 47   1107.9 2045998.5  1.0  1.0  5  0  90996165
[16]  B05  1 22    341.8 4091999.1  0.2  0.0  1  0      2091
[17]  B07  1  7   -820.2 4092000.9  0.1  0.0  1  0      1759
[18]  B09  1  7   1030.7 4091999.3  0.0  0.0  1  0      1427
[19]  B10  1  7    573.7 4091999.2 -0.1  0.0  1  0      1262
[20]  B18  1  7   2740.9 4091993.3  0.1  0.0  1  0      2964
[21]  B21  1  7   -752.9 4092001.4 -0.0  0.0  1  0         0
$GNGGA,000000.000,,,,,0,00,,,M,,,,0000*2B

$GNRMC,000000.000,A,,,,,,,000000,,*26

$GPGSA,A,1,,,,,,,,,,,,,,,*1E

$BDGSA,A,1,,,,,,,,,,,,,,,*0F

$GPGSV,1,1,04,09,00,000,44,16,00,000,43,23,00,000,43,26,00,000,47*75

$LOGTIM,0,0.000000,0.000000,0.000000,0.000000,0.000*0A

EndT:        0
sat60 = 4585 2644 1260 -4750
sat61 = 4686 3639 1256 250
sat62 = 4507 3469 1254 -2750
sat63 = 5434 2845 1252 -1750
ch22 satid=63 freq = -1750 acq ok1!
acq ok1 timeH = 0,timeL = 528678798,time_stage = 4
sat64 = 4378 3326 1269 2250
sat65 = 4665 2754 1287 250
---00000027--- Acq_st=3 2019-5-20 01:16:20 
[01]  G09  f 44  -3387.6 2046004.4  1.0  1.0  5  0  90997154
[02]  G16  f 43   -109.3 2046000.2  1.0  1.0  5  0  90997167
[03]  G23  f 43  -2117.3 2046002.8  1.0  1.0  5  0  90997162
[04]  G26  f 47   1109.7 2045998.5  1.0  1.0  5  0  90997165
[16]  B05  7 18    245.2 4091999.2  0.1  0.0  2  0      3091
[19]  B10  1  7    759.9 4091998.9  0.1  0.0  1  0      2262
[20]  B18  1  7   2880.5 4091993.0 -0.1  0.0  1  0       935
[21]  B21  1  7   -792.1 4092001.3 -0.1  0.0  1  0       438
[22]  B27  1  7   1695.5 4091995.7 -0.1  0.0  1  0         0
$GNGGA,000000.000,,,,,0,00,,,M,,,,0000*2B

$GNRMC,000000.000,A,,,,,,,000000,,*26

$GPGSA,A,1,,,,,,,,,,,,,,,*1E

$BDGSA,A,1,,,,,,,,,,,,,,,*0F

$GPGSV,1,1,04,09,00,000,44,16,00,000,43,23,00,000,43,26,00,000,47*75

$BDGSV,1,1,01,05,00,000,18*55

$LOGTIM,0,0.000000,0.000000,0.000000,0.000000,0.000*0A

EndT:        0
sat66 = 5021 4061 1281 250
sat67 = 4616 3812 1264 -1750
sat68 = 4294 3514 1269 -2500
---00000028--- Acq_st=7 2019-5-20 01:16:21 
[01]  G09  f 44  -3394.1 2046004.4  1.0  1.0  5  0  90998154
[02]  G16  f 43   -115.9 2046000.1  1.0  1.0  5  0  90998167
[03]  G23  f 43  -2123.7 2046002.8  1.0  1.0  5  0  90998162
[04]  G26  f 47   1103.0 2045998.6  1.0  1.0  5  0  90998165
[16]  B05  7 10    243.5 4091999.5 -0.1  0.0  2  0      4091
[20]  B18  1 12   2747.5 4091993.0 -0.1  0.0  1  0      1935
[21]  B21  1  7   -870.3 4092001.5  0.1  0.0  1  0      1438
[22]  B27  1  7   1660.7 4091996.4  0.1  0.0  1  0       443
$GNGGA,000000.000,,,,,0,00,,,M,,,,0000*2B

$GNRMC,000000.000,A,,,,,,,000000,,*26

$GPGSA,A,1,,,,,,,,,,,,,,,*1E

$BDGSA,A,1,,,,,,,,,,,,,,,*0F

$GPGSV,1,1,04,09,00,000,44,16,00,000,43,23,00,000,43,26,00,000,47*75

$LOGTIM,0,0.000000,0.000000,0.000000,0.000000,0.000*0A

EndT:        0
sat0 = 12370 303 4618 -750
sat1 = 12312 1941 4514 1500
sat2 = 11221 43 4541 750
sat3 = 11808 738 4559 -750
sat4 = 11816 1086 4547 500
sat5 = 14805 111 4511 3750
sat6 = 10939 1846 4541 1250
sat7 = 12145 314 4451 2500
sat9 = 12297 1395 4504 -250
---00000029--- Acq_st=5 2019-5-20 01:16:22 
[01]  G09  f 44  -3395.6 2046004.4  1.0  1.0  5  0  90999154
[02]  G16  f 43   -117.2 2046000.2  1.0  1.0  5  0  90999167
[03]  G23  f 43  -2124.6 2046002.7  1.0  1.0  5  0  90999162
[04]  G26  f 47   1101.6 2045998.6  1.0  1.0  5  0  90999165
[16]  B05  7 23    236.6 4091999.4  0.1  0.0  2  0      5091
[22]  B27  1 12   1763.8 4091995.7  0.1  0.0  1  0      1443
sat10 = 10969 1774 4505 -750
$GNGGA,000000.000,,,,,0,00,,,M,,,,0000*2B

$GNRMC,000000.000,A,,,,,,,000000,,*26

$GPGSA,A,1,,,,,,,,,,,,,,,*1E

$BDGSA,A,1,,,,,,,,,,,,,,,*0F

$GPGSV,1,1,04,09,00,000,44,16,00,000,43,23,00,000,43,26,00,000,47*75

$BDGSV,1,1,01,05,00,000,23*5D

$LOGTIM,0,0.000000,0.000000,0.000000,0.000000,0.000*0A

EndT:        0
sat11 = 12071 1275 4516 -1500
sat12 = 13185 4 4612 -1250
sat13 = 12485 1827 4624 4000
sat14 = 11594 1424 4597 4500
sat16 = 12540 794 4608 1000
sat17 = 11847 576 4605 4250
sat18 = 11685 1878 4569 -1500
sat19 = 12364 1767 4566 -500
---00000030--- Acq_st=3 2019-5-20 01:16:23 
[01]  G09  f 44  -3396.5 2046004.4  1.0  1.0  5  0  91000154
[02]  G16  f 43   -118.0 2046000.2  1.0  1.0  5  0  91000167
[03]  G23  f 43  -2125.5 2046002.8  1.0  1.0  5  0  91000162
[04]  G26  f 47   1100.5 2045998.6  1.0  1.0  5  0  91000165
$GNGGA,000000.000,,,,,0,00,,,M,,,,0000*2B

$GNRMC,000000.000,A,,,,,,,000000,,*26

$GPGSA,A,1,,,,,,,,,,,,,,,*1E

$BDGSA,A,1,,,,,,,,,,,,,,,*0F

$GPGSV,1,1,04,09,00,000,44,16,00,000,43,23,00,000,43,26,00,000,47*75

$LOGTIM,0,0.000000,0.000000,0.000000,0.000000,0.000*0A

EndT:        0
sat20 = 13224 890 4582 3250
sat21 = 12162 67 4543 -1000
sat23 = 12999 282 4612 3250
sat24 = 11976 987 4543 -1750
sat26 = 12359 80 4604 -2500
sat27 = 11670 686 4571 -1500
sat28 = 15600 1218 4592 -250
sat29 = 13184 689 4532 2750
sat30 = 14357 489 4512 4750
---00000031--- Acq_st=3 2019-5-20 01:16:24 
[01]  G09  f 44  -3397.6 2046004.4  1.0  1.0  5  0  91001154
[02]  G16  f 42   -118.9 2046000.2  1.0  1.0  5  0  91001167
[03]  G23  f 43  -2126.0 2046002.8  1.0  1.0  5  0  91001162
[04]  G26  f 47   1099.5 2045998.6  1.0  1.0  5  0  91001165
$GNGGA,000000.000,,,,,0,00,,,M,,,,0000*2B

$GNRMC,000000.000,A,,,,,,,000000,,*26

$GPGSA,A,1,,,,,,,,,,,,,,,*1E

$BDGSA,A,1,,,,,,,,,,,,,,,*0F

$GPGSV,1,1,04,09,00,000,44,16,00,000,42,23,00,000,43,26,00,000,47*74

$LOGTIM,0,0.000000,0.000000,0.000000,0.000000,0.000*0A

EndT:        0
sat31 = 12294 248 4572 -500
sat37 = 4833 3870 1258 -2750
sat38 = 4666 3428 1293 4250
sat39 = 4669 2111 1279 4250
sat40 = 5023 3102 1302 250
sat42 = 5002 2716 1271 250
---00000032--- Acq_st=3 2019-5-20 01:16:25 
[01]  G09  f 43  -3398.1 2046004.4  1.0  1.0  5  0  91002154
[02]  G16  f 43   -119.5 2046000.2  1.0  1.0  5  0  91002167
[03]  G23  f 43  -2126.8 2046002.8  1.0  1.0  5  0  91002162
[04]  G26  f 47   1098.4 2045998.6  1.0  1.0  5  0  91002165
$GNGGA,000000.000,,,,,0,00,,,M,,,,0000*2B

$GNRMC,000000.000,A,,,,,,,000000,,*26

$GPGSA,A,1,,,,,,,,,,,,,,,*1E

$BDGSA,A,1,,,,,,,,,,,,,,,*0F

$GPGSV,1,1,04,09,00,000,43,16,00,000,43,23,00,000,43,26,00,000,47*72

$LOGTIM,0,0.000000,0.000000,0.000000,0.000000,0.000*0A

EndT:        0
sat43 = 26758 2513 1269 -500
ch16 satid=43 freq = -500 acq ok1!
acq ok1 timeH = 0,timeL = 634039856,time_stage = 3
sat44 = 4551 2339 1277 -4500
sat45 = 7276 3551 1267 -750
ch17 satid=45 freq = -750 acq ok1!
acq ok1 timeH = 0,timeL = 640407944,time_stage = 3
sat46 = 15821 3537 1300 -500
ch18 satid=46 freq = -500 acq ok1!
acq ok1 timeH = 0,timeL = 643591984,time_stage = 3
sat47 = 4427 2540 1261 -1500
sat48 = 4951 2564 1269 3500
---00000033--- Acq_st=3 2019-5-20 01:16:26 
[01]  G09  f 44  -3399.2 2046004.4  1.0  1.0  5  0  91003154
[02]  G16  f 43   -120.9 2046000.1  1.0  1.0  5  0  91003167
[03]  G23  f 43  -2127.3 2046002.8  1.0  1.0  5  0  91003162
[04]  G26  f 47   1097.2 2045998.6  1.0  1.0  5  0  91003165
[16]  B07  1  7    441.2 4091999.0 -0.0  0.0  1  0      6091
[17]  B09  1  7    793.1 4091999.1 -0.0  0.0  1  0      2759
[18]  B10  1  7    519.0 4091998.9 -0.0  0.0  1  0      2427
$GNGGA,000000.000,,,,,0,00,,,M,,,,0000*2B

$GNRMC,000000.000,A,,,,,,,000000,,*26

$GPGSA,A,1,,,,,,,,,,,,,,,*1E

$BDGSA,A,1,,,,,,,,,,,,,,,*0F

$GPGSV,1,1,04,09,00,000,44,16,00,000,43,23,00,000,43,26,00,000,47*75

$LOGTIM,0,0.000000,0.000000,0.000000,0.000000,0.000*0A

EndT:        0
sat49 = 4669 3077 1265 3250
sat50 = 4437 2131 1262 4500
sat51 = 4399 3253 1255 3250
sat52 = 5180 3494 1300 -1750
sat53 = 4951 2830 1274 1250
sat55 = 4590 2215 1262 -4500
---00000034--- Acq_st=3 2019-5-20 01:16:27 
[01]  G09  f 44  -3398.8 2046004.4  1.0  1.0  5  0  91004154
[02]  G16  f 43   -119.9 2046000.2  1.0  1.0  5  0  91004167
[03]  G23  f 43  -2126.7 2046002.7  1.0  1.0  5  0  91004162
[04]  G26  f 47   1097.7 2045998.6  1.0  1.0  5  0  91004165
[16]  B07  1  7    533.6 4091998.8  0.0  0.0  1  0       938
[17]  B09  1  7    881.6 4091999.2 -0.0  0.0  1  0       607
[18]  B10  1 12    964.9 4091999.0 -0.1  0.0  1  0       442
$GNGGA,000000.000,,,,,0,00,,,M,,,,0000*2B

$GNRMC,000000.000,A,,,,,,,000000,,*26

$GPGSA,A,1,,,,,,,,,,,,,,,*1E

$BDGSA,A,1,,,,,,,,,,,,,,,*0F

$GPGSV,1,1,04,09,00,000,44,16,00,000,43,23,00,000,43,26,00,000,47*75

$LOGTIM,0,0.000000,0.000000,0.000000,0.000000,0.000*0A

EndT:        0
sat56 = 4857 3041 1263 -3750
sat58 = 4679 2072 1268 3500
sat59 = 4570 2354 1273 2500
sat60 = 4784 3376 1256 -2750
sat61 = 4550 2479 1257 4250
sat62 = 4787 3746 1259 3250
---00000035--- Acq_st=3 2019-5-20 01:16:28 
[01]  G09  f 44  -3398.2 2046004.4  1.0  1.0  5  0  91005154
[02]  G16  f 42   -119.3 2046000.2  1.0  1.0  5  0  91005167
[03]  G23  f 43  -2125.9 2046002.8  1.0  1.0  5  0  91005162
[04]  G26  f 47   1097.9 2045998.6  1.0  1.0  5  0  91005165
[16]  B07  1  8    897.3 4091999.1  0.0  0.0  1  0      1938
[17]  B09  1  7    797.7 4091998.7  0.0  0.0  1  0      1607
[18]  B10  1  7   1077.1 4091999.3  0.1  0.0  1  0      1442
$GNGGA,000000.000,,,,,0,00,,,M,,,,0000*2B

$GNRMC,000000.000,A,,,,,,,000000,,*26

$GPGSA,A,1,,,,,,,,,,,,,,,*1E

$BDGSA,A,1,,,,,,,,,,,,,,,*0F

$GPGSV,1,1,04,09,00,000,44,16,00,000,42,23,00,000,43,26,00,000,47*74

$LOGTIM,0,0.000000,0.000000,0.000000,0.000000,0.000*0A

EndT:        0
sat64 = 4641 2206 1275 3250
sat65 = 4806 3710 1294 3250
sat66 = 4722 3902 1284 4500
sat67 = 5153 2664 1275 1500
ch16 satid=67 freq = 1500 acq ok1!
acq ok1 timeH = 0,timeL = 700271754,time_stage = 2
sat68 = 4603 2332 1276 4250
---00000036--- Acq_st=7 2019-5-20 01:16:29 
[01]  G09  f 44  -3399.2 2046004.4  1.0  1.0  5  0  91006154
[02]  G16  f 42   -120.5 2046000.2  1.0  1.0  5  0  91006167
[03]  G23  f 43  -2126.5 2046002.8  1.0  1.0  5  0  91006162
[04]  G26  f 47   1097.0 2045998.6  1.0  1.0  5  0  91006165
[16]  B31  1  7  -1481.3 4092002.6  0.0  0.0  1  0      2938
$GNGGA,000000.000,,,,,0,00,,,M,,,,0000*2B

$GNRMC,000000.000,A,,,,,,,000000,,*26

$GPGSA,A,1,,,,,,,,,,,,,,,*1E

$BDGSA,A,1,,,,,,,,,,,,,,,*0F

$GPGSV,1,1,04,09,00,000,44,16,00,000,42,23,00,000,43,26,00,000,47*74

$LOGTIM,0,0.000000,0.000000,0.000000,0.000000,0.000*0A

EndT:        0
---00000037--- Acq_st=7 2019-5-20 01:16:30 
[01]  G09  f 44  -3398.8 2046004.4  1.0  1.0  5  0  91007154
[02]  G16  f 42   -120.1 2046000.2  1.0  1.0  5  0  91007167
[03]  G23  f 44  -2126.2 2046002.8  1.0  1.0  5  0  91007162
[04]  G26  f 47   1097.2 2045998.6  1.0  1.0  5  0  91007165
[16]  B31  1  8  -1420.7 4092003.1  0.0  0.0  1  0       456
lsq: nits= 5
$GNGGA,011630.236,3112.6775,N,12136.4453,E,1,04,27.8,8.5,M,,,,0000*24

$GNRMC,011630.236,A,3112.6775,N,12136.4453,E,3.39,0.00,200519,,*1A

$GPGSA,A,3,09,16,23,26,,,,,,,,,34.3,27.8,20.1*03

$BDGSA,A,3,,,,,,,,,,,,,34.3,27.8,20.1*19

$GPGSV,1,1,04,09,00,000,44,16,00,000,42,23,00,000,44,26,00,000,47*73

$LOGTIM,1,9535341.944409,0.000000,0.000000,0.000000,-64.952*12

EndT:        1
sat0 = 11954 1340 4436 3250
sat1 = 12444 1974 4484 -3250
sat2 = 11944 1613 4528 1500
sat3 = 12101 1571 4433 -4750
sat4 = 11403 322 4484 -250
sat5 = 11960 52 4501 -2000
sat6 = 11766 253 4543 -500
sat7 = 10944 927 4411 3000
sat9 = 14054 1719 4512 -2500
---00000038--- Acq_st=5 2019-5-20 01:16:31 
[01]  G09  f 44  -3396.7 2046004.4  1.0  1.0  5  0  91008154
[02]  G16  f 42   -118.0 2046000.1  1.0  1.0  5  0  91008167
[03]  G23  f 44  -2123.9 2046002.8  1.0  1.0  5  0  91008162
[04]  G26  f 46   1098.9 2045998.6  1.0  1.0  5  0  91008165
[16]  B31  1  7  -1352.1 4092002.8  0.0  0.0  1  0      1456
sat10 = 11603 1474 4485 -250
sat11 = 12378 120 4499 -2250
sat12 = 12453 1367 4497 -3000
sat13 = 12167 1234 4532 -2750
sat14 = 13366 241 4518 2750
sat16 = 11833 1771 4489 -4500
sat17 = 11895 61 4514 -1250
lsq: nits= 5
$GNGGA,011632.000,3112.6492,N,12136.4551,E,1,04,27.7,-34.4,M,,,,0000*34

$GNRMC,011632.000,A,3112.6492,N,12136.4551,E,0.71,0.00,200519,,*19

$GPGSA,A,3,09,16,23,26,,,,,,,,,34.2,27.7,20.0*0C

$BDGSA,A,3,,,,,,,,,,,,,34.2,27.7,20.0*16

$GPGSV,1,1,04,09,00,000,44,16,00,000,42,23,00,000,44,26,00,000,46*72

$LOGTIM,1,-175.241262,0.000000,0.000000,0.000000,-65.308*31

EndT:        1
sat18 = 12947 116 4458 -1750
sat19 = 12136 1789 4471 1000
---00000039--- Acq_st=3 2019-5-20 01:16:32 
[01]  G09  f 44  -3391.1 2046004.4  1.0  1.0  5  0  91009918
[02]  G16  f 42   -112.5 2046000.1  1.0  1.0  5  0  91009931
[03]  G23  f 44  -2118.1 2046002.8  1.0  1.0  5  0  91009926
[04]  G26  f 46   1104.6 2045998.5  1.0  1.0  5  0  91009929
sat20 = 12571 1016 4460 1000
sat21 = 11398 1705 4459 -3000
sat23 = 13086 498 4491 5000
sat24 = 11200 570 4441 -3000
sat26 = 11927 891 4400 3000
sat27 = 10870 1000 4365 2500
sat28 = 12465 976 4457 -4000
lsq: nits= 5
$GNGGA,011633.000,3112.6316,N,12136.4619,E,1,04,27.6,-61.5,M,,,,0000*31

$GNRMC,011633.000,A,3112.6316,N,12136.4619,E,0.62,0.00,200519,,*1E

$GPGSA,A,3,09,16,23,26,,,,,,,,,34.1,27.6,20.0*0E

$BDGSA,A,3,,,,,,,,,,,,,34.1,27.6,20.0*14

$GPGSV,1,1,04,09,11,319,44,16,63,322,42,23,40,299,44,26,54,026,46*7C

$LOGTIM,1,-277.827327,0.000000,0.000000,0.000000,-65.889*38

EndT:        1
sat29 = 11492 1445 4422 -500
sat30 = 12075 1153 4392 -3250
---00000040--- Acq_st=3 2019-5-20 01:16:33 
[01]  G09  f 44  -3391.2 2046004.4  1.0  1.0  5  0  91010918
[02]  G16  f 43   -112.4 2046000.1  1.0  1.0  5  0  91010931
[03]  G23  f 44  -2118.0 2046002.7  1.0  1.0  5  0  91010926
[04]  G26  f 46   1104.2 2045998.6  1.0  1.0  5  0  91010929
sat31 = 11260 1124 4403 4250
sat37 = 4771 4073 1262 -1750
sat38 = 4665 4015 1287 -4500
sat39 = 4732 3083 1288 1500
sat40 = 4866 3644 1297 -4750
lsq: nits= 5
$GNGGA,011634.000,3112.6392,N,12136.4588,E,1,04,27.5,-50.5,M,,,,0000*30

$GNRMC,011634.000,A,3112.6392,N,12136.4588,E,0.08,0.00,200519,,*12

$GPGSA,A,3,09,16,23,26,,,,,,,,,34.0,27.5,19.9*0F

$BDGSA,A,3,,,,,,,,,,,,,34.0,27.5,19.9*15

$GPGSV,1,1,04,09,11,319,44,16,63,322,43,23,40,299,44,26,54,026,46*7D

$LOGTIM,1,-328.520672,0.000000,0.000000,0.000000,-65.851*39

EndT:        1
sat41 = 4886 3630 1267 250
---00000041--- Acq_st=3 2019-5-20 01:16:34 
[01]  G09  f 44  -3392.2 2046004.4  1.0  1.0  5  0  91011918
[02]  G16  f 43   -113.5 2046000.1  1.0  1.0  5  0  91011931
[03]  G23  f 44  -2118.7 2046002.8  1.0  1.0  5  0  91011926
[04]  G26  f 46   1102.9 2045998.6  1.0  1.0  5  0  91011929
sat42 = 4625 2826 1267 -1750
sat43 = 22267 2572 1258 750
ch16 satid=43 freq = 750 acq ok1!
acq ok1 timeH = 0,timeL = 809449834,time_stage = 3
sat44 = 4889 3444 1282 250
sat45 = 6204 3763 1274 -1500
ch17 satid=45 freq = -1500 acq ok1!
acq ok1 timeH = 0,timeL = 816450886,time_stage = 4
sat46 = 12795 3596 1304 750
ch18 satid=46 freq = 750 acq ok1!
acq ok1 timeH = 0,timeL = 819001949,time_stage = 3
lsq: nits= 5
$GNGGA,011635.000,3112.6292,N,12136.4621,E,1,04,27.5,-63.7,M,,,,0000*32

$GNRMC,011635.000,A,3112.6292,N,12136.4621,E,0.59,0.00,200519,,*16

$GPGSA,A,3,09,16,23,26,,,,,,,,,33.9,27.5,19.8*00

$BDGSA,A,3,,,,,,,,,,,,,33.9,27.5,19.8*1A

$GPGSV,1,1,04,09,11,319,44,16,63,322,43,23,40,299,44,26,54,026,46*7D

$LOGTIM,1,-414.223123,0.000000,0.000000,0.000000,-65.750*38

EndT:        1
sat47 = 4505 2180 1250 -2500
---00000042--- Acq_st=3 2019-5-20 01:16:35 
[01]  G09  f 44  -3392.3 2046004.4  1.0  1.0  5  0  91012918
[02]  G16  f 43   -113.0 2046000.1  1.0  1.0  5  0  91012931
[03]  G23  f 44  -2118.7 2046002.8  1.0  1.0  5  0  91012926
[04]  G26  f 46   1103.0 2045998.6  1.0  1.0  5  0  91012929
[16]  B07  1  7   -790.8 4092001.0  0.1  0.0  1  0       551
[17]  B09  1  7   1488.1 4091997.0  0.0  0.0  1  0       219
[18]  B10  1  7   -741.5 4092001.1  0.1  0.0  1  0        53
sat48 = 4630 3976 1281 -4500
sat49 = 4505 2911 1275 3250
sat50 = 4674 2599 1259 -750
sat51 = 4263 3060 1258 2500
sat52 = 4629 3349 1306 2250
lsq: nits= 5
$GNGGA,011636.000,3112.6084,N,12136.4709,E,1,04,27.4,-97.2,M,,,,0000*30

$GNRMC,011636.000,A,3112.6084,N,12136.4709,E,0.05,0.00,200519,,*12

$GPGSA,A,3,09,16,23,26,,,,,,,,,33.8,27.4,19.8*00

$BDGSA,A,3,,,,,,,,,,,,,33.8,27.4,19.8*1A

$GPGSV,1,1,04,09,11,319,44,16,63,322,43,23,40,299,44,26,54,026,46*7D

$LOGTIM,1,-524.686956,0.000000,0.000000,0.000000,-65.465*3E

EndT:        1
sat53 = 4879 3862 1265 3250
---00000043--- Acq_st=3 2019-5-20 01:16:36 
[01]  G09  f 44  -3389.5 2046004.4  1.0  1.0  5  0  91013918
[02]  G16  f 43   -110.4 2046000.1  1.0  1.0  5  0  91013931
[03]  G23  f 43  -2115.4 2046002.7  1.0  1.0  5  0  91013926
[04]  G26  f 45   1105.7 2045998.6  1.0  1.0  5  0  91013929
[16]  B07  1  7   -782.7 4092000.9  0.1  0.0  1  0      1551
[17]  B09  1  7   1381.0 4091997.1 -0.3  0.0  1  0      1219
[18]  B10  1  7   -823.9 4092000.8  0.1  0.0  1  0      1053
sat54 = 4532 4086 1262 -4750
sat55 = 4315 3472 1261 -3750
sat56 = 4351 3043 1252 -4750
sat57 = 25861 3864 1253 -500
ch19 satid=57 freq = -500 acq ok1!
acq ok1 timeH = 0,timeL = 854342889,time_stage = 3
sat58 = 4696 3737 1262 4250
lsq: nits= 5
$GNGGA,011637.000,3112.5640,N,12136.4868,E,1,04,27.3,-161.9,M,,,,0000*00

$GNRMC,011637.000,A,3112.5640,N,12136.4868,E,0.99,0.00,200519,,*13

$GPGSA,A,3,09,16,23,26,,,,,,,,,33.7,27.3,19.7*07

$BDGSA,A,3,,,,,,,,,,,,,33.7,27.3,19.7*1D

$GPGSV,1,1,04,09,11,319,44,16,63,322,43,23,40,299,43,26,54,026,45*79

$LOGTIM,1,-680.307185,0.000000,0.000000,0.000000,-65.731*3B

EndT:        1
sat59 = 4629 2163 1265 -1500
---00000044--- Acq_st=3 2019-5-20 01:16:37 
[01]  G09  f 43  -3388.1 2046004.4  1.0  1.0  5  0  91014918
[02]  G16  f 43   -109.1 2046000.1  1.0  1.0  5  0  91014931
[03]  G23  f 44  -2113.7 2046002.8  1.0  1.0  5  0  91014926
[04]  G26  f 45   1106.9 2045998.6  1.0  1.0  5  0  91014929
[16]  B07  1  7   -857.2 4092000.8  0.1  0.0  1  0      2551
[17]  B09  1  7   1303.4 4091997.1  0.0  0.0  1  0      2219
[18]  B10  1  7  -1064.8 4092001.1  0.0  0.0  1  0      2053
[19]  B21  1  7    519.4 4091999.1 -0.0  0.0  1  0       229
sat60 = 4852 3168 1263 -750
sat61 = 4604 2340 1262 3500
sat62 = 4566 2816 1264 3500
sat63 = 6392 3983 1261 -2500
ch20 satid=63 freq = -2500 acq ok1!
acq ok1 timeH = 0,timeL = 874080114,time_stage = 4
sat64 = 4509 3647 1276 -3750
lsq: nits= 5
$GNGGA,011638.000,3112.5362,N,12136.4980,E,1,04,27.2,-206.2,M,,,,0000*05

$GNRMC,011638.000,A,3112.5362,N,12136.4980,E,3.19,0.00,200519,,*15

$GPGSA,A,3,09,16,23,26,,,,,,,,,33.6,27.2,19.7*07

$BDGSA,A,3,,,,,,,,,,,,,33.6,27.2,19.7*1D

$GPGSV,2,1,05,09,11,319,43,16,63,322,43,23,40,299,44,26,54,026,45*7B

$GPGSV,2,2,05,31,40,097,00*44

$LOGTIM,1,-806.093059,0.000000,0.000000,0.000000,-63.763*34

EndT:        1
sat65 = 5117 2059 1288 3250
---00000045--- Acq_st=3 2019-5-20 01:16:38 
[01]  G09  f 43  -3388.8 2046004.4  1.0  1.0  5  0  91015918
[02]  G16  f 44   -109.8 2046000.1  1.0  1.0  5  0  91015931
[03]  G23  f 44  -2114.6 2046002.8  1.0  1.0  5  0  91015926
[04]  G26  f 45   1105.7 2045998.6  1.0  1.0  5  0  91015929
[18]  B10  1  7   -978.5 4092001.3 -0.1  0.0  1  0      3053
[19]  B21  1  7    839.4 4091998.9 -0.2  0.0  1  0      1229
[20]  B27  1  7   2516.7 4091994.0  0.0  0.0  1  0       234
sat66 = 4800 3244 1281 -1500
sat68 = 4716 3376 1278 -4750
lsq: nits= 5
$GNGGA,011639.000,3112.5096,N,12136.5077,E,1,04,27.1,-245.1,M,,,,0000*0B

$GNRMC,011639.000,A,3112.5096,N,12136.5077,E,2.90,0.00,200519,,*1C

$GPGSA,A,3,09,16,23,26,,,,,,,,,33.5,27.1,19.6*06

$BDGSA,A,3,,,,,,,,,,,,,33.5,27.1,19.6*1C

$GPGSV,2,1,05,09,11,319,43,16,63,322,44,23,40,299,44,26,54,026,45*7C

$GPGSV,2,2,05,31,40,097,00*44

$LOGTIM,1,-927.140960,0.000000,0.000000,0.000000,-63.981*38

EndT:        1
---00000046--- Acq_st=7 2019-5-20 01:16:39 
[01]  G09  f 43  -3388.7 2046004.4  1.0  1.0  5  0  91016918
[02]  G16  f 44   -109.4 2046000.2  1.0  1.0  5  0  91016931
[03]  G23  f 44  -2113.9 2046002.8  1.0  1.0  5  0  91016926
[04]  G26  f 45   1106.2 2045998.6  1.0  1.0  5  0  91016929
[19]  B21  1  7    952.4 4091998.8  0.1  0.0  1  0      2229
[20]  B27  1  7   2323.6 4091993.8  0.1  0.0  1  0      1234
sat0 = 10804 2028 4420 2000
sat1 = 13824 525 4412 -3250
sat2 = 10951 1706 4455 1750
sat3 = 12087 354 4399 2000
sat4 = 11322 1746 4453 -3250
sat5 = 11435 208 4390 5000
sat6 = 13296 1300 4402 -4750
lsq: nits= 5
$GNGGA,011640.000,3112.5079,N,12136.5103,E,1,04,27.1,-250.7,M,,,,0000*04

$GNRMC,011640.000,A,3112.5079,N,12136.5103,E,2.41,0.00,200519,,*1D

$GPGSA,A,3,09,16,23,26,,,,,,,,,33.4,27.1,19.6*07

$BDGSA,A,3,,,,,,,,,,,,,33.4,27.1,19.6*1D

$GPGSV,2,1,05,09,11,319,43,16,63,322,44,23,40,299,44,26,54,026,45*7C

$GPGSV,2,2,05,31,40,097,00*44

$LOGTIM,1,-1000.040601,0.000000,0.000000,0.000000,-64.137*0E

EndT:        1
sat7 = 11471 1600 4357 -1000
sat9 = 11209 1594 4449 -4500
---00000047--- Acq_st=5 2019-5-20 01:16:40 
[01]  G09  f 43  -3387.5 2046004.4  1.0  1.0  5  0  91017918
[02]  G16  f 44   -108.6 2046000.1  1.0  1.0  5  0  91017931
[03]  G23  f 44  -2112.4 2046002.8  1.0  1.0  5  0  91017926
[04]  G26  f 45   1107.1 2045998.6  1.0  1.0  5  0  91017929
[20]  B27  1  7   2201.3 4091993.8  0.1  0.0  1  0      2234
sat10 = 13039 76 4405 1000
sat11 = 10776 609 4436 4500
sat12 = 13118 1792 4463 -1750
sat13 = 12173 645 4458 -500
sat14 = 11239 1555 4455 -1250
sat16 = 12416 1710 4413 750
sat17 = 12962 285 4486 3750
lsq: nits= 5
$GNGGA,011641.000,3112.5173,N,12136.5089,E,1,04,27.0,-239.7,M,,,,0000*03

$GNRMC,011641.000,A,3112.5173,N,12136.5089,E,1.01,0.00,200519,,*13

$GPGSA,A,3,09,16,23,26,,,,,,,,,33.3,27.0,19.5*02

$BDGSA,A,3,,,,,,,,,,,,,33.3,27.0,19.5*18

$GPGSV,2,1,05,09,11,319,43,16,63,322,44,23,40,299,44,26,54,026,45*7C

$GPGSV,2,2,05,31,40,097,00*44

$LOGTIM,1,-1048.978796,0.000000,0.000000,0.000000,-66.334*0C

EndT:        1
sat18 = 12440 1560 4414 2500
sat19 = 11156 1731 4444 4250
---00000048--- Acq_st=3 2019-5-20 01:16:41 
[01]  G09  f 43  -3390.3 2046004.4  1.0  1.0  5  0  91018918
[02]  G16  f 43   -111.4 2046000.1  1.0  1.0  5  0  91018931
[03]  G23  f 44  -2115.2 2046002.7  1.0  1.0  5  0  91018926
[04]  G26  f 45   1103.8 2045998.6  1.0  1.0  5  0  91018929
sat20 = 11018 1637 4484 -750
sat21 = 11788 1157 4434 4500
sat23 = 11956 857 4447 -2750
sat24 = 11490 32 4435 0
sat26 = 12034 1505 4443 4250
sat27 = 11607 1147 4475 750
sat28 = 12875 793 4507 -3500
lsq: nits= 5
$GNGGA,011642.000,3112.5166,N,12136.5124,E,1,04,26.9,-246.4,M,,,,0000*01

$GNRMC,011642.000,A,3112.5166,N,12136.5124,E,1.24,0.00,200519,,*15

$GPGSA,A,3,09,16,23,26,,,,,,,,,33.2,26.9,19.5*0B

$BDGSA,A,3,,,,,,,,,,,,,33.2,26.9,19.5*11

$GPGSV,2,1,05,09,11,319,43,16,63,322,43,23,40,299,44,26,54,026,45*7B

$GPGSV,2,2,05,31,40,097,00*44

$LOGTIM,1,-1120.851353,0.000000,0.000000,0.000000,-65.156*01

EndT:        1
sat29 = 11185 1531 4532 1000
sat30 = 10847 1291 4525 2500
---00000049--- Acq_st=3 2019-5-20 01:16:42 
[01]  G09  f 43  -3389.5 2046004.4  1.0  1.0  5  0  91019918
[02]  G16  f 43   -110.2 2046000.1  1.0  1.0  5  0  91019931
[03]  G23  f 45  -2114.2 2046002.7  1.0  1.0  5  0  91019926
[04]  G26  f 44   1104.6 2045998.6  1.0  1.0  5  0  91019929
sat31 = 12010 1115 4498 750
sat37 = 4445 3502 1257 2250
sat38 = 4988 3493 1291 -2750
sat39 = 5220 3868 1281 3500
ch16 satid=39 freq = 3500 acq ok1!
acq ok1 timeH = 0,timeL = 968306622,time_stage = 1
sat40 = 4720 2499 1303 3500
lsq: nits= 5
$GNGGA,011643.000,3112.5336,N,12136.5075,E,1,04,26.8,-224.0,M,,,,0000*03

$GNRMC,011643.000,A,3112.5336,N,12136.5075,E,1.49,0.00,200519,,*1D

$GPGSA,A,3,09,16,23,26,,,,,,,,,33.1,26.8,19.4*08

$BDGSA,A,3,,,,,,,,,,,,,33.1,26.8,19.4*12

$GPGSV,2,1,05,09,11,319,43,16,63,322,43,23,40,299,45,26,54,026,44*7B

$GPGSV,2,2,05,31,40,097,00*44

$LOGTIM,1,-1153.933133,0.000000,0.000000,0.000000,-66.431*03

EndT:        1
sat41 = 5569 3156 1272 -500
ch17 satid=41 freq = -500 acq ok1!
acq ok1 timeH = 0,timeL = 975940652,time_stage = 3
---00000050--- Acq_st=3 2019-5-20 01:16:43 
[01]  G09  f 43  -3387.7 2046004.4  1.0  1.0  5  0  91020918
[02]  G16  f 43   -108.8 2046000.2  1.0  1.0  5  0  91020931
[03]  G23  f 44  -2112.3 2046002.7  1.0  1.0  5  0  91020926
[04]  G26  f 44   1106.5 2045998.6  1.0  1.0  5  0  91020929
[16]  B03  1 10  -3507.4 4092009.5 -0.1  0.0  1  0       227
[17]  B05  1 10    537.6 4091999.9 -0.1  0.0  1  0      3219
sat42 = 4692 2806 1267 4500
sat43 = 25580 2097 1273 -500
ch18 satid=43 freq = -500 acq ok1!
acq ok1 timeH = 0,timeL = 982308732,time_stage = 3
sat44 = 4507 2917 1289 1250
sat45 = 4681 3440 1265 250
sat46 = 17614 3118 1306 -500
ch19 satid=46 freq = -500 acq ok1!
acq ok1 timeH = 0,timeL = 991860856,time_stage = 3
lsq: nits= 5
$GNGGA,011644.000,3112.5685,N,12136.4964,E,1,04,26.8,-171.4,M,,,,0000*06

$GNRMC,011644.000,A,3112.5685,N,12136.4964,E,0.21,0.00,200519,,*10

$GPGSA,A,3,09,16,23,26,,,,,,,,,33.0,26.8,19.3*0E

$BDGSA,A,3,,,,,,,,,,,,,33.0,26.8,19.3*14

$GPGSV,2,1,05,09,11,319,43,16,63,322,43,23,40,299,44,26,54,026,44*7A

$GPGSV,2,2,05,31,40,097,00*44

$LOGTIM,1,-1149.074134,0.000000,0.000000,0.000000,-65.620*04

EndT:        1
sat47 = 4511 2245 1260 2500
---00000051--- Acq_st=3 2019-5-20 01:16:44 
[01]  G09  f 43  -3387.8 2046004.4  1.0  1.0  5  0  91021918
[02]  G16  f 42   -108.4 2046000.2  1.0  1.0  5  0  91021931
[03]  G23  f 45  -2112.0 2046002.7  1.0  1.0  5  0  91021926
[04]  G26  f 43   1106.3 2045998.6  1.0  1.0  5  0  91021929
[16]  B03  7 10  -3550.2 4092009.4  0.1  0.0  2  0      1227
[17]  B05  1 10    453.9 4091997.9  0.1  0.0  1  0       896
[18]  B07  1  7    550.9 4091998.9 -0.1  0.0  1  0       564
[19]  B10  1  7    516.3 4091998.9  0.0  0.0  1  0        67
sat48 = 4648 3198 1263 -3750
sat49 = 5183 3277 1274 2250
ch20 satid=49 freq = 2250 acq ok1!
acq ok1 timeH = 0,timeL = 1000463526,time_stage = 2
sat50 = 5007 2251 1261 1250
sat51 = 4618 2214 1260 -4750
sat52 = 4450 2527 1299 -500
lsq: nits= 5
$GNGGA,011645.000,3112.5855,N,12136.4908,E,1,04,26.7,-145.8,M,,,,0000*0A

$GNRMC,011645.000,A,3112.5855,N,12136.4908,E,2.93,0.00,200519,,*13

$GPGSA,A,3,09,16,23,26,,,,,,,,,32.9,26.7,19.3*09

$BDGSA,A,3,,,,,,,,,,,,,32.9,26.7,19.3*13

$GPGSV,2,1,05,09,11,319,43,16,63,322,42,23,40,299,45,26,54,026,43*7D

$GPGSV,2,2,05,31,40,097,00*44

$LOGTIM,1,-1181.198142,0.000000,0.000000,0.000000,-63.848*04

EndT:        1
sat53 = 4630 2098 1266 -2750
---00000052--- Acq_st=3 2019-5-20 01:16:45 
[01]  G09  f 44  -3385.9 2046004.4  1.0  1.0  5  0  91022918
[02]  G16  f 43   -106.5 2046000.1  1.0  1.0  5  0  91022931
[03]  G23  f 45  -2109.5 2046002.8  1.0  1.0  5  0  91022926
[04]  G26  f 44   1108.2 2045998.6  1.0  1.0  5  0  91022929
[16]  B03  7 19  -3542.4 4092009.1 -0.1  0.0  2  0      2227
[17]  B05  1 59    354.9 4091999.0 -0.0  0.0  1  0      1896
[18]  B07  1  7    589.5 4091999.2 -0.1  0.0  1  0      1564
[19]  B10  1  7    466.3 4091999.0  0.1  0.0  1  0      1067
[20]  B13  1  7  -2226.7 4092005.1 -0.0  0.0  1  0       569
sat54 = 4393 3368 1264 -2750
sat55 = 4732 3284 1262 -4750
sat56 = 4277 2498 1261 2500
sat58 = 4715 2178 1265 -2750
sat59 = 4825 4058 1265 1250
lsq: nits= 5
$GNGGA,011646.000,3112.5645,N,12136.4982,E,1,04,26.6,-175.6,M,,,,0000*08

$GNRMC,011646.000,A,3112.5645,N,12136.4982,E,2.31,0.00,200519,,*15

$GPGSA,A,3,09,16,23,26,,,,,,,,,32.8,26.6,19.2*08

$BDGSA,A,3,,,,,,,,,,,,,32.8,26.6,19.2*12

$GPGSV,2,1,05,09,11,319,44,16,63,322,43,23,40,299,45,26,54,026,44*7C

$GPGSV,2,2,05,31,40,097,00*44

$BDGSV,1,1,01,03,00,000,19*52

$LOGTIM,1,-1289.009174,0.000000,0.000000,0.000000,-63.794*0D

EndT:        1
sat60 = 4464 3805 1262 3500
---00000053--- Acq_st=3 2019-5-20 01:16:46 
[01]  G09  f 44  -3384.1 2046004.4  1.0  1.0  5  0  91023918
[02]  G16  f 43   -105.1 2046000.1  1.0  1.0  5  0  91023931
[03]  G23  f 44  -2107.3 2046002.8  1.0  1.0  5  0  91023926
[04]  G26  f 44   1109.6 2045998.6  1.0  1.0  5  0  91023929
[16]  B03  7 13  -3539.9 4092009.2  0.0  0.0  2  0      3227
[17]  B05  1 10    510.1 4091999.0 -0.0  0.0  1  0      2896
[18]  B07  1  7    874.7 4091999.7  0.2  0.0  1  0      2564
[19]  B10  1  7    483.0 4091999.0  0.1  0.0  1  0      2067
[20]  B13  1  7  -1976.9 4092004.8 -0.0  0.0  1  0      1569
sat61 = 4382 2812 1264 -3500
sat62 = 4818 3494 1249 -2500
sat64 = 4584 3233 1273 -500
sat65 = 4887 3629 1286 -4750
sat66 = 4768 3389 1278 -4500
lsq: nits= 5
$GNGGA,011647.000,3112.5313,N,12136.5092,E,1,04,26.5,-223.7,M,,,,0000*04

$GNRMC,011647.000,A,3112.5313,N,12136.5092,E,1.50,0.00,200519,,*1F

$GPGSA,A,3,09,16,23,26,,,,,,,,,32.8,26.5,19.2*0B

$BDGSA,A,3,,,,,,,,,,,,,32.8,26.5,19.2*11

$GPGSV,2,1,05,09,11,319,44,16,63,322,43,23,40,299,44,26,54,026,44*7D

$GPGSV,2,2,05,31,40,097,00*44

$LOGTIM,1,-1421.097176,0.000000,0.000000,0.000000,-64.343*05

EndT:        1
sat67 = 4667 2529 1279 3500
---00000054--- Acq_st=3 2019-5-20 01:16:47 
[01]  G09  f 43  -3384.4 2046004.4  1.0  1.0  5  0  91024918
[02]  G16  f 42   -104.9 2046000.1  1.0  1.0  5  0  91024931
[03]  G23  f 44  -2107.9 2046002.7  1.0  1.0  5  0  91024926
[04]  G26  f 43   1109.4 2045998.6  1.0  1.0  5  0  91024929
[16]  B03  7 13  -3544.2 4092009.1 -0.0  0.0  2  0      4227
[19]  B10  1  7    651.3 4091998.8  0.1  0.0  1  0      3067
[20]  B13  1  7  -1987.4 4092005.4 -0.2  0.0  1  0      2569
sat68 = 4664 3789 1268 3500
lsq: nits= 5
$GNGGA,011648.000,3112.5119,N,12136.5162,E,1,04,26.5,-252.1,M,,,,0000*0D

$GNRMC,011648.000,A,3112.5119,N,12136.5162,E,3.59,0.00,200519,,*1D

$GPGSA,A,3,09,16,23,26,,,,,,,,,32.7,26.5,19.1*07

$BDGSA,A,3,,,,,,,,,,,,,32.7,26.5,19.1*1D

$GPGSV,2,1,05,09,11,319,43,16,63,322,42,23,40,299,44,26,54,026,43*7C

$GPGSV,2,2,05,31,40,097,00*44

$BDGSV,1,1,01,03,00,000,13*58

$LOGTIM,1,-1526.536691,0.000000,0.000000,0.000000,-63.318*0A

EndT:        1
---00000055--- Acq_st=7 2019-5-20 01:16:48 
[01]  G09  f 44  -3384.5 2046004.4  1.0  1.0  5  0  91025918
[02]  G16  f 42   -104.9 2046000.1  1.0  1.0  5  0  91025931
[03]  G23  f 45  -2107.5 2046002.8  1.0  1.0  5  0  91025926
[04]  G26  f 43   1109.4 2045998.6  1.0  1.0  5  0  91025929
sat0 = 11224 1559 4347 -4000
sat1 = 12575 713 4316 -500
sat2 = 10797 1721 4369 1000
sat3 = 13288 2040 4295 0
sat4 = 11104 1366 4329 0
sat5 = 11083 349 4348 1500
sat6 = 12104 848 4382 1000
lsq: nits= 5
$GNGGA,011649.000,3112.5064,N,12136.5172,E,1,04,26.4,-257.1,M,,,,0000*02

$GNRMC,011649.000,A,3112.5064,N,12136.5172,E,0.75,0.00,200519,,*1B

$GPGSA,A,3,09,16,23,26,,,,,,,,,32.6,26.4,19.1*07

$BDGSA,A,3,,,,,,,,,,,,,32.6,26.4,19.1*1D

$GPGSV,2,1,05,09,11,319,44,16,63,322,42,23,40,299,45,26,54,026,43*7A

$GPGSV,2,2,05,31,40,097,00*44

$LOGTIM,1,-1601.828969,0.000000,0.000000,0.000000,-64.740*08

EndT:        1
sat7 = 12063 1789 4312 1000
sat9 = 11791 1324 4312 -1000
---00000056--- Acq_st=5 2019-5-20 01:16:49 
[01]  G09  f 43  -3383.9 2046004.4  1.0  1.0  5  0  91026918
[02]  G16  f 42   -104.4 2046000.2  1.0  1.0  5  0  91026931
[03]  G23  f 44  -2106.8 2046002.7  1.0  1.0  5  0  91026926
[04]  G26  f 43   1109.2 2045998.5  1.0  1.0  5  0  91026929
sat10 = 10885 862 4299 -3500
sat11 = 11785 1007 4424 -4750
sat12 = 10925 732 4409 -3250
sat13 = 10596 1572 4448 -3750
sat14 = 12777 849 4419 2500
sat16 = 11110 1307 4394 4750
sat17 = 12403 1244 4386 1250
lsq: nits= 5
$GNGGA,011650.000,3112.5223,N,12136.5105,E,1,04,26.3,-231.2,M,,,,0000*0F

$GNRMC,011650.000,A,3112.5223,N,12136.5105,E,0.30,0.00,200519,,*13

$GPGSA,A,3,09,16,23,26,,,,,,,,,32.5,26.3,19.0*02

$BDGSA,A,3,,,,,,,,,,,,,32.5,26.3,19.0*18

$GPGSV,2,1,05,09,11,319,43,16,63,322,42,23,40,299,44,26,54,026,43*7C

$GPGSV,2,2,05,31,40,097,00*44

$LOGTIM,1,-1633.861236,0.000000,0.000000,0.000000,-65.479*0D

EndT:        1
sat18 = 12322 20 4364 4250
sat19 = 10726 721 4335 -2250
---00000057--- Acq_st=3 2019-5-20 01:16:50 
[01]  G09  f 43  -3384.5 2046004.4  1.0  1.0  5  0  91027918
[02]  G16  f 41   -105.2 2046000.1  1.0  1.0  5  0  91027931
[03]  G23  f 44  -2107.3 2046002.8  1.0  1.0  5  0  91027926
[04]  G26  f 43   1108.7 2045998.6  1.0  1.0  5  0  91027929
sat20 = 11197 19 4379 750
sat21 = 10676 723 4312 750
sat23 = 11327 1535 4370 -1000
sat24 = 10767 1622 4318 1500
sat26 = 10972 906 4357 2500
sat27 = 11580 1911 4319 -2750
sat28 = 11064 1610 4339 2000
lsq: nits= 5
$GNGGA,011651.000,3112.5311,N,12136.5100,E,1,04,26.2,-220.3,M,,,,0000*0B

$GNRMC,011651.000,A,3112.5311,N,12136.5100,E,0.84,0.00,200519,,*18

$GPGSA,A,3,09,16,23,26,,,,,,,,,32.4,26.2,19.0*02

$BDGSA,A,3,,,,,,,,,,,,,32.4,26.2,19.0*18

$GPGSV,2,1,05,09,11,319,43,16,63,322,41,23,40,299,44,26,54,026,43*7F

$GPGSV,2,2,05,31,40,097,00*44

$LOGTIM,1,-1685.050351,0.000000,0.000000,0.000000,-66.007*04

EndT:        1
sat29 = 11438 674 4352 -2500
sat30 = 10516 783 4307 1750
---00000058--- Acq_st=3 2019-5-20 01:16:51 
[01]  G09  f 43  -3385.3 2046004.4  1.0  1.0  5  0  91028918
[02]  G16  f 42   -105.6 2046000.1  1.0  1.0  5  0  91028931
[03]  G23  f 44  -2107.6 2046002.7  1.0  1.0  5  0  91028926
[04]  G26  f 43   1108.1 2045998.6  1.0  1.0  5  0  91028929
sat31 = 11931 1670 4319 -2000
sat37 = 4517 3613 1261 -3500
sat38 = 4664 2191 1301 -1750
sat39 = 4485 3006 1275 4500
sat40 = 4560 2235 1300 -750
lsq: nits= 5
$GNGGA,011652.000,3112.5436,N,12136.5074,E,1,04,26.2,-204.9,M,,,,0000*04

$GNRMC,011652.000,A,3112.5436,N,12136.5074,E,0.21,0.00,200519,,*14

$GPGSA,A,3,09,16,23,26,,,,,,,,,32.3,26.2,18.9*0D

$BDGSA,A,3,,,,,,,,,,,,,32.3,26.2,18.9*17

$GPGSV,2,1,05,09,11,319,43,16,63,322,42,23,41,298,44,26,54,026,43*7C

$GPGSV,2,2,05,31,40,097,00*44

$LOGTIM,1,-1728.176641,0.000000,0.000000,0.000000,-65.514*07

EndT:        0
sat41 = 4601 3974 1278 4500
---00000059--- Acq_st=3 2019-5-20 01:16:52 
[01]  G09  f 44  -3385.0 2046004.4  1.0  1.0  5  0  91029918
[02]  G16  f 41   -105.2 2046000.1  1.0  1.0  5  0  91029931
[03]  G23  f 44  -2107.4 2046002.8  1.0  1.0  5  0  91029926
[04]  G26  f 44   1108.1 2045998.6  1.0  1.0  5  0  91029929
sat42 = 4529 2652 1276 1250
sat43 = 19567 3598 1265 -500
ch16 satid=43 freq = -500 acq ok1!
acq ok1 timeH = 0,timeL = 1154851164,time_stage = 3
sat44 = 4439 2820 1279 2250
sat45 = 4945 2714 1274 -1500
sat46 = 17694 2507 1305 750
ch17 satid=46 freq = 750 acq ok1!
acq ok1 timeH = 0,timeL = 1164086785,time_stage = 3
lsq: nits= 5
$GNGGA,011653.000,3112.5528,N,12136.5060,E,1,04,26.1,-194.0,M,,,,0000*0E

$GNRMC,011653.000,A,3112.5528,N,12136.5060,E,3.56,0.00,200519,,*1D

$GPGSA,A,3,09,16,23,26,,,,,,,,,32.2,26.1,18.9*0F

$BDGSA,A,3,,,,,,,,,,,,,32.2,26.1,18.9*15

$GPGSV,2,1,05,09,11,319,44,16,63,322,41,23,41,298,44,26,54,026,44*7F

$GPGSV,2,2,05,31,40,097,00*44

$LOGTIM,1,-1777.677253,0.000000,0.000000,0.000000,-63.854*03

EndT:        0
sat47 = 4984 2736 1262 -3500
---00000060--- Acq_st=3 2019-5-20 01:16:53 
[01]  G09  f 43  -3385.2 2046004.4  1.0  1.0  5  0  91030918
[02]  G16  f 41   -105.6 2046000.1  1.0  1.0  5  0  91030931
[03]  G23  f 45  -2107.4 2046002.7  1.0  1.0  5  0  91030926
[04]  G26  f 44   1107.6 2045998.6  1.0  1.0  5  0  91030929
[16]  B07  1  7    524.0 4091998.8 -0.1  0.0  1  0       578
[17]  B10  1  7   -751.5 4092001.0 -0.0  0.0  1  0        80
sat48 = 4375 2494 1272 -4750
sat49 = 4892 3976 1275 3250
sat50 = 4702 3134 1267 3250
sat51 = 4594 3657 1261 250
sat52 = 4573 2121 1302 4250
lsq: nits= 5
$GNGGA,011654.000,3112.5800,N,12136.4979,E,1,04,26.0,-155.6,M,,,,0000*04

$GNRMC,011654.000,A,3112.5800,N,12136.4979,E,2.06,0.00,200519,,*19

$GPGSA,A,3,09,16,23,26,,,,,,,,,32.1,26.0,18.8*0C

$BDGSA,A,3,,,,,,,,,,,,,32.1,26.0,18.8*16

$GPGSV,2,1,05,09,11,319,43,16,63,322,41,23,41,298,45,26,54,026,44*79

