i=1
Rf R0 Config = ff777073
Rf R1 Config = 00dffbfe
Rf R52 Config = 00dfeec0
i=2
Rf R0 Config = 007772f3
Rf R1 Config = 00dffbf6
Rf R52 Config = 00daaed0
i=3
Rf R0 Config = 007770f3
Rf R1 Config = 00df9be6
Rf R52 Config = 00de4ef0
i=4
Rf R0 Config = 00777273
Rf R1 Config = 00dffbfe
Rf R52 Config = 00dece60
SD initialized success
Create debug.log Failed! 3
Start Channel by LuYu
$GNGGA,000000.000,,,,,0,00,,,M,,,,0000*2B
$GNRMC,000000.000,A,,,,,,,060180,,*29
$GPGSA,A,1,,,,,,,,,,,,,,,*1E
$BDGSA,A,1,,,,,,,,,,,,,,,*0F
$GLGSA,A,1,,,,,,,,,,,,,,,*02
$B3CN0,0,0,0,0,0,0,0,0,0,0,0,0,0,0*4C
---00000001--- Acq_st=3 0  2019-4-16 1:53:46 
[00]  02(G03)  1 22  7  0  -1362.9  2046003.2  0.1  1 0  694 2513 1362
$GNGGA,000000.000,,,,,0,00,,,M,,,,0000*2B
$GNRMC,000000.000,A,,,,,,,060180,,*29
$GPGSA,A,1,,,,,,,,,,,,,,,*1E
$BDGSA,A,1,,,,,,,,,,,,,,,*0F
$GLGSA,A,1,,,,,,,,,,,,,,,*02
$B3CN0,0,0,0,0,0,0,0,0,0,0,0,0,0,0*4C
---00000002--- Acq_st=3 0  2019-4-16 1:53:47 
[00]  02(G03)  7 20  7  0  -1360.4  2046001.7  0.8 10 0 1168 1978  994
[01]  15(G16)  1 26  7  0  -3495.3  2046006.5  0.3  1 0 1470 3054 2003
[02]  21(G22)  1  7  7  0   -250.0  2046002.0  0.0  1 0  434  509 1927
[03]  22(G23)  1  7  7  0  -4500.0  2046007.3  0.0  1 0  480  197 1452
[04]  25(G26)  1  7  7  0  -1250.0  2046002.6  0.0  1 0  516  233 1405
$GNGGA,000000.000,,,,,0,00,,,M,,,,0000*2B
$GNRMC,000000.000,A,,,,,,,060180,,*29
$GPGSA,A,1,,,,,,,,,,,,,,,*1E
$BDGSA,A,1,,,,,,,,,,,,,,,*0F
$GLGSA,A,1,,,,,,,,,,,,,,,*02
$GPGSV,1,1,01,03,00,000,20*49
$B3CN0,0,0,0,0,0,0,0,0,0,0,0,0,0,0*4C
---00000003--- Acq_st=3 0  2019-4-16 1:53:48 
[00]  02(G03)  7 44  7  0  -1363.3  2046001.7  0.0  2 0 1902 2714 1301
[01]  15(G16)  7 18  7  0  -3496.1  2046004.4  0.8 10 0 2539 3116 1318
[02]  21(G22)  1 36  8  0   -234.7  2046000.4  0.7  1 0 1147 1518  340
[03]  22(G23)  1 29  7  0  -4379.9  2046006.2  0.8  1 0 1556 2154  963
[04]  25(G26)  1 32  8  0  -1244.3  2046002.1  0.5  1 0 1341 1826  596
[16]  38(B02)  1 10 29  1  -1000.0  4092002.4  0.0  1 0   35  368  532
$GNGGA,015349.904,,,,,0,00,,,M,,,,0000*2C
$GNRMC,015349.904,A,,,,,,,080180,,*20
$GPGSA,A,1,,,,,,,,,,,,,,,*1E
$BDGSA,A,1,,,,,,,,,,,,,,,*0F
$GLGSA,A,1,,,,,,,,,,,,,,,*02
$GPGSV,1,1,02,03,00,000,44,16,00,000,18*76
$B3CN0,0,0,0,0,0,0,0,0,0,0,0,0,0,0*4C
---00000004--- Acq_st=3 0  2019-4-16 1:53:49 
[00]  02(G03)  f 44 12  0  -1355.9  2046001.6 -0.0  2 0 1435 2229  857
[01]  15(G16)  7 46  7  0  -3488.7  2046004.4 -0.0  2 0 2364 3187 1017
[02]  21(G22)  7 32  7  0   -222.4  2046000.2  0.3  5 0 1237 1636  711
[03]  22(G23)  7 31  7  0  -4368.2  2046005.6  0.3  5 0 1103 2067  719
[04]  25(G26)  f 27  7  0  -1235.4  2046001.5  0.6 10 0 1281 2114 1219
[16]  38(B02)  1 10 10  0  -1202.3  4092004.4  0.0  1 0  255  335  875
[17]  41(B05)  1 17 25  0  -1056.7  4092004.0  0.0  1 0  419  321  728
[18]  46(B10)  1  7  7  0  -1250.0  4092004.8  0.0  1 0  405  293 1601
$GNGGA,015350.904,,,,,0,00,,,M,,,,0000*24
$GNRMC,015350.904,A,,,,,,,080180,,*28
$GPGSA,A,1,,,,,,,,,,,,,,,*1E
$BDGSA,A,1,,,,,,,,,,,,,,,*0F
$GLGSA,A,1,,,,,,,,,,,,,,,*02
$GPGSV,2,1,05,03,00,000,44,16,00,000,46,22,00,000,32,23,00,000,31*7B
$GPGSV,2,2,05,26,00,000,27*4D
$B3CN0,0,0,0,0,0,0,0,0,0,0,0,0,0,0*4C
---00000005--- Acq_st=3 0  2019-4-16 1:53:50 
[00]  02(G03)  f 44  8  0  -1359.1  2046001.7 -0.1  2 0 1829 2131  166
[01]  15(G16)  7 45  7  0  -3492.6  2046004.4 -0.0  2 0 2067 3196 1061
[02]  21(G22)  7 42  8  0   -226.9  2046000.2  0.1  2 0 1482 1955  721
[03]  22(G23)  7 43  7  0  -4372.3  2046005.6  0.2  2 0 1747 2226  715
[04]  25(G26)  f 43  7  0  -1240.9  2046001.5 -0.0  2 0 1451 2046  985
[16]  38(B02)  7 18 13  1  -1312.6  4092003.6  0.1  2 0  130  371  605
[17]  41(B05)  7 38 27  0  -1072.6  4092003.1  0.8  2 0  248 1180 1611
[18]  46(B10)  1  7 14  0  -1258.1  4092003.9  0.3  1 0  850  998  435
$GNGGA,015351.904,,,,,0,00,,,M,,,,0000*25
$GNRMC,015351.904,A,,,,,,,080180,,*29
$GPGSA,A,1,,,,,,,,,,,,,,,*1E
$BDGSA,A,1,,,,,,,,,,,,,,,*0F
$GLGSA,A,1,,,,,,,,,,,,,,,*02
$GPGSV,2,1,05,03,00,000,44,16,00,000,45,22,00,000,42,23,00,000,43*7A
$GPGSV,2,2,05,26,00,000,43*4F
$BDGSV,1,1,02,02,00,000,20,05,00,000,38*64
$B3CN0,0,0,0,0,0,0,0,0,0,0,0,0,0,0*4C
---00000006--- Acq_st=3 0  2019-4-16 1:53:51 
[00]  02(G03)  f 44  7  0  -1358.0  2046001.7 -0.0  2 0 2120 2401  618
[01]  15(G16)  7 44  7  0  -3492.0  2046004.5  0.0  2 0 2010 3185 1412
[02]  21(G22)  7 42  7  0   -227.4  2046000.2  0.0  2 0 1142 2091  885
[03]  22(G23)  7 43  7  0  -4374.7  2046005.6 -0.0  2 0  947 1815  631
[04]  25(G26)  f 42  7  0  -1239.5  2046001.5  0.0  2 0 1035 1895  671
[16]  38(B02)  7 10 10  1  -1332.8  4092003.4  0.1  2 0  758  853 1076
[17]  41(B05)  f 40 23  0  -1070.7  4092002.9 -0.6  2 0  357 1038  666
[18]  46(B10)  7 27  7  0  -1252.9  4092003.1  0.2 10 0 1516 1747  596
[19]  54(B18)  1  7  7  0  -1022.0  4092004.7  0.3  1 0  997 2262 2082
[20]  55(B19)  1  7  7  0  -2207.6  4092006.3  0.1  1 0  327  101  306
[21]  58(B22)  1  7  7  0  -4000.0  4092013.1  0.1  1 0  205 1725 3048
$GNGGA,015352.904,,,,,0,00,,,M,,,,0000*26
$GNRMC,015352.904,A,,,,,,,080180,,*2A
$GPGSA,A,1,,,,,,,,,,,,,,,*1E
$BDGSA,A,1,,,,,,,,,,,,,,,*0F
$GLGSA,A,1,,,,,,,,,,,,,,,*02
$GPGSV,2,1,05,03,00,000,44,16,00,000,44,22,00,000,42,23,00,000,43*7B
$GPGSV,2,2,05,26,00,000,42*4E
$BDGSV,1,1,02,05,00,000,40,10,00,000,27*6F
$B3CN0,0,0,0,0,0,0,0,0,0,0,0,0,0,0*4C
---00000007--- Acq_st=3 0  2019-4-16 1:53:52 
[00]  02(G03)  f 44  7  0  -1358.0  2046001.7 -0.0  2 0 2923 3197 1148
[01]  15(G16)  7 44  7  0  -3492.6  2046004.5 -0.0  2 0 1912 2950 1351
[02]  21(G22)  7 43 10  0   -224.5  2046000.2  0.0  2 0 1086 1895  841
[03]  22(G23)  7 42  7  0  -4373.5  2046005.6  0.0  2 0 1471 1807 1050
[04]  25(G26)  f 43  7  0  -1237.6  2046001.6 -0.1  2 0 1304 2392 1009
[16]  38(B02)  7 18 10  0  -1316.6  4092003.5 -0.0  2 0  728 1400  977
[17]  41(B05)  f 41 23  0  -1069.6  4092002.9 -0.3  2 0  681 1636  913
[18]  46(B10)  7 41 15  0  -1247.0  4092003.1  0.0  2 0 1191 1321  878
[19]  54(B18)  7 23  7  0  -1019.5  4092002.5  0.4 10 0 1677 1642  455
[20]  55(B19)  7 16  7  0  -2156.1  4092006.0  0.1 10 0  267  852  455
[21]  58(B22)  1  7  7  0  -3996.4  4092010.3  0.4  1 0 2203 2474  774
[49]  41(B05)  1 22 22  1   -794.0 20460015.3 -0.1  1 0  642  471  543
$GNGGA,015353.904,,,,,0,00,,,M,,,,0000*27
$GNRMC,015353.904,A,,,,,,,080180,,*2B
$GPGSA,A,1,,,,,,,,,,,,,,,*1E
$BDGSA,A,1,,,,,,,,,,,,,,,*0F
$GLGSA,A,1,,,,,,,,,,,,,,,*02
$GPGSV,2,1,05,03,00,000,44,16,00,000,44,22,00,000,43,23,00,000,42*7B
$GPGSV,2,2,05,26,00,000,43*4F
$BDGSV,1,1,04,02,00,000,16,05,00,000,41,10,00,000,41,18,00,000,22*64
$B3CN0,0,0,0,0,0,0,0,0,0,0,0,0,0,0*4C
---00000008--- Acq_st=2 0  2019-4-16 1:53:53 
[00]  02(G03)  f 44  7  0  -1361.2  2046001.7  0.0  2 0 2396 3508 1673
[01]  15(G16)  7 44  7  0  -3494.0  2046004.5 -0.0  2 0 1861 2727 1370
[02]  21(G22)  7 42  7  0   -233.0  2046000.2  0.1  2 0 1190 1855  860
[03]  22(G23)  7 42  7  0  -4378.1  2046005.6  0.0  2 0  942 1645  718
[04]  25(G26)  f 43 10  0  -1245.1  2046001.6  0.1  2 0  947 1750  761
[16]  38(B02)  7 34 16  0  -1080.2  4092002.5  0.2  2 0 1647 1261  462
[17]  41(B05) 1f 41 26  0  -1074.0  4092002.8  0.5  2 0 1107 1413 1130
[18]  46(B10)  7 41 13  0  -1255.8  4092003.2 -0.0  2 0  923 1651 1046
[19]  54(B18)  7 43  9  0  -1024.1  4092002.6 -0.0  2 0 1505 1870  609
[20]  55(B19)  7 33  7  0  -2162.8  4092005.9 -0.0  5 0  381  559 1141
[21]  58(B22)  7 33  7  0  -3996.8  4092010.4  0.1  5 0 2172 2598  915
[32]  80(N-1)  1  0  0  0 177650.5  1022001.0  0.0  1 0   307  726  998
[49]  41(B05)  1 25 26  0   -832.9 20460020.1  0.1  1 0  291  633  425
$GNGGA,015354.904,,,,,0,00,,,M,,,,0000*20
$GNRMC,015354.904,A,,,,,,,080180,,*2C
$GPGSA,A,1,,,,,,,,,,,,,,,*1E
$BDGSA,A,1,,,,,,,,,,,,,,,*0F
$GLGSA,A,1,,,,,,,,,,,,,,,*02
$GPGSV,2,1,05,03,00,000,44,16,00,000,44,22,00,000,42,23,00,000,42*7A
$GPGSV,2,2,05,26,00,000,43*4F
$BDGSV,2,1,06,02,00,000,33,05,00,000,41,10,00,000,41,18,00,000,43*65
$BDGSV,2,2,06,19,00,000,33,22,00,000,33*66
$B3CN0,0,0,0,0,0,0,0,0,0,0,0,0,0,0*4C
---00000009--- Acq_st=7 0  2019-4-16 1:53:54 
[00]  02(G03)  f 44  7  0  -1357.9  2046001.7  0.0  2 0 2154 3095 1729
[01]  15(G16)  7 44  7  0  -3492.7  2046004.5 -0.0  2 0 1763 3106 1385
[02]  21(G22)  7 42  7  0   -229.2  2046000.3  0.0  2 0 1321 1702  555
[03]  22(G23)  7 42  7  0  -4376.8  2046005.6  0.1  2 0 2010 2612  777
[04]  25(G26)  f 43  7  0  -1241.2  2046001.5 -0.0  2 0 1470 2320  623
[16]  38(B02)  f 40 27  0  -1075.7  4092002.6 -0.3  2 0 1290  981  102
[17]  41(B05) 1f 42 23  0  -1074.7  4092002.8 -0.2  2 0  913 1378  485
[18]  46(B10)  7 40 15  0  -1251.8  4092003.2  0.0  2 0 1097 1215  643
[19]  54(B18)  7 43  7  0  -1022.3  4092002.6 -0.0  2 0 1946 2207  973
[20]  55(B19)  7 30  7  0  -2139.8  4092005.8 -0.0  5 0  622  677 1395
[21]  58(B22)  7 44  7  0  -3996.8  4092010.4  0.0  2 0 1752 2115  869
[32]  80(N-1)  1 26 24  0  -2474.6  1022002.2  0.9  1 0   481  750  427
[33]  81(N00)  1 25 27  0  -1053.1  1022001.8  0.3  1 0   117  322  566
[34]  82(N01)  1 31 22  0  -3116.1  1022003.4  0.4  1 0   356 1053  908
[35]  85(N04)  1 25  7  0  -5310.9  1022003.9  0.0  1 0   320   81  303
[49]  41(B05)  1 18 26  1   -819.2 20460019.4  0.1  1 0  763  195  128
$GNGGA,015355.904,,,,,0,00,,,M,,,,0000*21
$GNRMC,015355.904,A,,,,,,,080180,,*2D
$GPGSA,A,1,,,,,,,,,,,,,,,*1E
$BDGSA,A,1,,,,,,,,,,,,,,,*0F
$GLGSA,A,1,,,,,,,,,,,,,,,*02
$GPGSV,2,1,05,03,00,000,44,16,00,000,44,22,00,000,42,23,00,000,42*7A
$GPGSV,2,2,05,26,00,000,43*4F
$BDGSV,2,1,06,02,00,000,41,05,00,000,42,10,00,000,40,18,00,000,43*62
$BDGSV,2,2,06,19,00,000,30,22,00,000,44*65
$B3CN0,0,0,0,0,0,0,0,0,0,0,0,0,0,0*4C
---00000010--- Acq_st=7 0  2019-4-16 1:53:55 
[00]  02(G03)  f 45  7  0  -1354.9  2046001.7  0.1  2 0 2535 3762 1725
[01]  15(G16)  f 44  7  0  -3488.0  2046004.5 -0.0  2 0 1692 2627 1447
[02]  21(G22)  f 42  7  0   -223.7  2046000.2 -0.0  2 0 1609 1795  768
[03]  22(G23)  f 44  7  0  -4371.1  2046005.6 -0.0  2 0 1799 2867  890
[04]  25(G26)  f 43  7  0  -1232.9  2046001.5  0.0  2 0 1164 2266  976
[16]  38(B02)  f 38 26  0  -1070.9  4092002.7 -0.5  2 0  777  585  240
[17]  41(B05) 1f 41 28  0  -1070.8  4092002.7 -0.1  2 0 1104 1350  773
[18]  46(B10)  7 41 15  0  -1249.7  4092003.1 -0.0  2 0  679 1224  763
[19]  54(B18)  7 43  7  0  -1017.8  4092002.5  0.0  2 0 1586 1935  532
[20]  55(B19)  7 29  7  0  -2152.9  4092005.9 -0.1  5 0  657  768 2337
[21]  58(B22)  7 44  7  0  -3990.3  4092010.3 -0.0  2 0 1991 2424 1323
[32]  80(N-1)  1 27 25  0  -2469.4  1022001.0  0.9  1 0   686 1041  586
[33]  81(N00)  7 19  7  0  -1076.2  1022000.7 -0.0 10 0   437  388  263
[34]  82(N01)  7 29 16  0  -3112.4  1022001.9  0.4 10 0   848 1352  480
[35]  85(N04)  1 26 25  0  -5334.2  1022003.7  0.6  1 0   162  581  326
[48]  38(B02)  1 10 10  0   -641.4 20460020.4 -0.1  1 0  773  485  485
[49]  41(B05)  1 23 23  0  -1006.3 20460022.6 -0.1  1 0  257  386  761
$GNGGA,015356.904,,,,,0,00,,,M,,,,0000*22
$GNRMC,015356.904,A,,,,,,,160419,,*24
$GPGSA,A,1,,,,,,,,,,,,,,,*1E
$BDGSA,A,1,,,,,,,,,,,,,,,*0F
$GLGSA,A,1,,,,,,,,,,,,,,,*02
$GPGSV,2,1,05,03,00,000,45,16,00,000,44,22,00,000,42,23,00,000,44*7D
$GPGSV,2,2,05,26,00,000,43*4F
$BDGSV,2,1,06,02,00,000,38,05,00,000,41,10,00,000,41,18,00,000,43*6E
$BDGSV,2,2,06,19,00,000,29,22,00,000,44*6D
$B3CN0,0,0,0,0,0,0,0,0,0,0,0,0,0,0*4C
---00000011--- Acq_st=3 0  2019-4-16 1:53:56 
[00]  02(G03)  f 45  7  0  -1357.0  2046001.7 -0.0  2 0 1522 2602 1173
[01]  15(G16)  f 44  7  0  -3489.4  2046004.5  0.0  2 0 1102 2474 1226
[02]  21(G22)  f 42  7  0   -225.6  2046000.3 -0.0  2 0 1604 2413 1247
[03]  22(G23)  f 43  7  0  -4375.7  2046005.6 -0.0  2 0 1650 2475 1196
[04]  25(G26)  f 43  7  0  -1238.8  2046001.5 -0.0  2 0  946 2199 1284
[16]  38(B02) 1f 40 23  0  -1075.7  4092002.6 -0.5  2 0  737 1084  568
[17]  41(B05) 1f 41 24  0  -1068.1  4092002.8 -0.0  2 0  894 1477  938
[18]  46(B10)  7 41 14  0  -1253.6  4092003.2  0.0  2 0  829 1242  646
[19]  54(B18)  7 43  7  0  -1019.8  4092002.6  0.0  2 0 1254 1608  511
[20]  55(B19)  7 37  7  0  -2150.9  4092006.0  0.1  2 0  411 1621 2500
[21]  58(B22)  7 43  7  0  -3993.3  4092010.4 -0.0  2 0 1689 2463 1395
[32]  80(N-1)  7 33 22  0  -2474.6  1022001.6 -0.4  5 0   244  623  676
[33]  81(N00)  7 24 13  0  -1076.6  1022000.5 -0.2 10 0   516  398  102
[34]  82(N01)  7 42 24  0  -3114.3  1022001.9 -0.1  2 0   799  991  388
[35]  85(N04)  7  7  7  0  -5546.0  1022003.4 -0.0 10 0   574  613  201
[48]  38(B02)  1 10 17  1   -787.1 20460019.8 -0.1  1 0  404  669  181
$GNGGA,015357.904,,,,,0,00,,,M,,,,0000*23
$GNRMC,015357.904,A,,,,,,,160419,,*25
$GPGSA,A,1,,,,,,,,,,,,,,,*1E
$BDGSA,A,1,,,,,,,,,,,,,,,*0F
$GLGSA,A,1,,,,,,,,,,,,,,,*02
$GPGSV,2,1,05,03,00,000,45,16,00,000,44,22,00,000,42,23,00,000,43*7A
$GPGSV,2,2,05,26,00,000,43*4F
$BDGSV,2,1,06,02,00,000,40,05,00,000,41,10,00,000,41,18,00,000,43*61
$BDGSV,2,2,06,19,00,000,37,22,00,000,43*65
$B3CN0,0,0,0,0,0,0,0,0,0,0,0,0,0,0*4C
---00000012--- Acq_st=3 0  2019-4-16 1:53:57 
[00]  02(G03)  f 45  7  0  -1360.1  2046001.7 -0.0  2 0 1890 2893 1099
[01]  15(G16)  f 44  7  0  -3491.4  2046004.5  0.0  2 0 1403 2232 1063
[02]  21(G22)  f 42  8  0   -226.1  2046000.2  0.0  2 0  846 1915  751
[03]  22(G23)  f 44  7  0  -4375.1  2046005.6 -0.0  2 0 2150 2930 1366
[04]  25(G26)  f 43  7  0  -1241.4  2046001.5 -0.1  2 0 1370 2192 1042
[16]  38(B02) 1f 40 28  0  -1073.7  4092002.7  0.6  2 0 1146 1254  353
[17]  41(B05) 1f 41 25  0  -1073.7  4092002.8  0.3  2 0 1521 1818  673
[18]  46(B10) 1f 40 13  0  -1256.2  4092003.1 -0.0  2 0 1164 1519  746
[19]  54(B18) 1f 42  7  0  -1021.0  4092002.6  0.0  2 0 1124 1428  453
[20]  55(B19) 1f 42  7  0  -2152.2  4092005.9  0.1  2 0  335 2100 1536
[21]  58(B22) 1f 43  7  0  -3995.2  4092010.4 -0.1  2 0 1307 2285 1413
[32]  80(N-1)  7 38 21  0  -2476.5  1022001.6  0.0  2 0   546  921  612
[33]  81(N00)  7 26 14  0  -1076.3  1022000.5  0.1 10 0   259  448  340
[34]  82(N01)  7 43 23  0  -3114.9  1022001.9  0.1  2 0   798 1610  933
[35]  85(N04)  7  7 17  0  -5677.4  1022003.4  0.1 10 0   791  319  161
[48]  38(B02)  1 10 10  1   -802.4 20460019.8  0.0  1 0  333  297  375
[49]  41(B05)  1 22 23  0   -669.4 20460016.4 -0.0  1 0  796  440  771
---00000013--- Acq_st=3 0  2019-4-16 1:53:58 
[00]  02(G03)  f 45  7  0  -1349.3  2046001.7  0.0  2 0 1967 3165 1502
[01]  15(G16)  f 43 10  0  -3484.0  2046004.5  0.0  2 0 1509 2400  794
[02]  21(G22)  f 42  7  0   -215.8  2046000.2 -0.0  2 0 1296 1996  892
[03]  22(G23)  f 45  7  0  -4369.1  2046005.6  0.0  2 0 2083 3202 1647
[04]  25(G26)  f 43  7  0  -1227.0  2046001.6  0.0  2 0 1529 2128  930
[16]  38(B02) 1f 40 28  0  -1066.7  4092002.6  0.2  2 0 1140 1346  608
[17]  41(B05) 1f 42 27  0  -1065.7  4092002.7 -0.0  2 0  781 1193  569
[18]  46(B10) 1f 41 14  0  -1247.2  4092003.1 -0.0  2 0 1234 1766  951
[19]  54(B18) 1f 42  7  0  -1015.6  4092002.5  0.0  2 0 1225 1844  932
[20]  55(B19) 1f 43  7  0  -2143.1  4092005.7  0.0  2 0  842 2305 1556
[21]  58(B22) 1f 43  7  0  -3986.7  4092010.3  0.1  2 0 1491 2293 1255
[32]  80(N-1)  7 38 22  0  -2467.9  1022001.5  0.1  2 0   475  666  546
[33]  81(N00)  7 26 15  0  -1067.9  1022000.6 -0.0 10 0   360  518  256
[34]  82(N01)  f 36 20  0  -3106.0  1022001.9  0.0  2 0   834 1254  346
[35]  85(N04)  7 13 14  0  -5841.3  1022003.6 -0.1 10 0   410  159  322
[48]  38(B02)  1 10 10  0  -1212.7 20460017.2  0.0  1 0  276  316  298
[49]  41(B05)  1 25 26  0   -747.9 20460019.9  0.0  1 0  174  652  415
[50]  46(B10)  1  7  7  0   -981.4 20460023.0 -0.0  1 0  507  485  330
[51]  54(B18)  1  7  7  0   -681.2 20460016.1  0.0  1 0  380  507  685
[52]  55(B19)  1  7  7  0  -1934.3 20460035.0  0.1  1 0  347  573  487
[53]  58(B22)  1  7  7  0  -3301.1 20460064.2 -0.1  1 0  454  206  237
$GNGGA,015358.904,,,,,0,00,,,M,,,,0000*2C
$GNRMC,015358.904,A,,,,,,,160419,,*2A
$GPGSA,A,1,,,,,,,,,,,,,,,*1E
$BDGSA,A,1,,,,,,,,,,,,,,,*0F
$GLGSA,A,1,,,,,,,,,,,,,,,*02
$GPGSV,2,1,05,03,00,000,45,16,00,000,43,22,00,000,42,23,00,000,45*7B
$GPGSV,2,2,05,26,00,000,43*4F
$BDGSV,2,1,06,02,00,000,40,05,00,000,42,10,00,000,41,18,00,000,42*63
$BDGSV,2,2,06,19,00,000,43,22,00,000,43*66
$B3CN0,0,0,0,0,0,0,0,0,0,0,0,0,0,0*4C
---00000014--- Acq_st=4 0  2019-4-16 1:53:59 
[00]  02(G03)  f 45  7  0  -1358.4  2046001.7  0.0  2 0 2218 3099 1414
[01]  15(G16)  f 42  7  0  -3494.7  2046004.5  0.0  2 0 1395 2167  992
[02]  21(G22)  f 42  7  0   -227.7  2046000.2  0.1  2 0  941 1890  737
[03]  22(G23)  f 45  7  0  -4378.8  2046005.6  0.0  2 0 2382 3494 2103
[04]  25(G26)  f 43  7  0  -1239.1  2046001.6  0.0  2 0 1132 2184 1244
[16]  38(B02) 1f 40 27  0  -1075.1  4092002.6  0.3  2 0 1070 1081  542
[17]  41(B05) 1f 42 16  0  -1077.1  4092002.7  0.6  2 0 1053 1468  587
[18]  46(B10) 1f 40 14  0  -1256.4  4092003.2  0.0  2 0 1257 1216  334
[19]  54(B18) 1f 42  7  0  -1024.5  4092002.6  0.0  2 0 1350 1779  836
[20]  55(B19) 1f 44  7  0  -2153.1  4092005.7  0.0  2 0 1182 2587 1788
[21]  58(B22) 1f 43  7  0  -3997.0  4092010.4  0.0  2 0 1164 1744  950
[32]  80(N-1)  7 38 20  0  -2476.3  1022001.6  0.1  2 0   324  592   72
[33]  81(N00)  7 26 13  0  -1079.5  1022000.7  0.4 10 0   471  751  506
[34]  82(N01)  f 43 23  0  -3116.9  1022001.9  0.1  2 0   834 1826  860
[49]  41(B05)  1 23 21  1   -897.6 20460019.6  0.0  1 0  115  247   77
[50]  46(B10)  1  7  8  0   -793.3 20460020.2 -0.1  1 0  383  600  828
[51]  54(B18)  1  7  7  0   -416.4 20460015.4  0.0  1 0  694  770  683
[52]  55(B19)  1  7  7  0  -2474.5 20460032.0 -0.1  1 0  236  266  279
[53]  58(B22)  1  8  7  0  -3338.6 20460064.7 -0.0  1 0  338  426  200
$GNGGA,015359.904,,,,,0,00,,,M,,,,0000*2D
$GNRMC,015359.904,A,,,,,,,160419,,*2B
$GPGSA,A,1,,,,,,,,,,,,,,,*1E
$BDGSA,A,1,,,,,,,,,,,,,,,*0F
$GLGSA,A,1,,,,,,,,,,,,,,,*02
$GPGSV,2,1,05,03,00,000,45,16,00,000,42,22,00,000,42,23,00,000,45*7A
$GPGSV,2,2,05,26,00,000,43*4F
$BDGSV,2,1,06,02,00,000,40,05,00,000,42,10,00,000,40,18,00,000,42*62
$BDGSV,2,2,06,19,00,000,44,22,00,000,43*61
$B3CN0,0,0,0,0,0,0,0,0,0,0,0,0,0,0*4C
---00000015--- Acq_st=3 0  2019-4-16 1:54:0 
[00]  02(G03)  f 45  7  0  -1360.3  2046001.7 -0.0  2 0 2386 3314 1246
[01]  15(G16)  f 43  7  0  -3497.3  2046004.4  0.0  2 0 1555 2090 1177
[02]  21(G22)  f 42  7  0   -230.1  2046000.3 -0.0  2 0 1247 1908  806
[03]  22(G23)  f 45  7  0  -4383.9  2046005.6 -0.0  2 0 1858 3326 1754
[04]  25(G26)  f 43  7  0  -1243.7  2046001.6 -0.1  2 0 1600 2114  625
[16]  38(B02) 1f 40 28  0  -1081.7  4092002.7  0.6  2 0 1122 1585  246
[17]  41(B05) 1f 41 25  0  -1077.0  4092002.7  0.1  2 0 1296 1513  584
[18]  46(B10) 1f 40 13  0  -1261.7  4092003.2 -0.0  2 0  931 1291  398
[19]  54(B18) 1f 42  7  0  -1026.8  4092002.6 -0.1  2 0 1259 1820  886
[20]  55(B19) 1f 44  8  0  -2154.7  4092005.6 -0.0  2 0 1857 2840 1321
[21]  58(B22) 1f 42  7  0  -3999.7  4092010.4  0.0  2 0 1628 2130 1013
[32]  80(N-1)  f 34  8  0  -2477.6  1022001.5  0.3  5 0   733 1016  335
[33]  81(N00)  7 25 14  0  -1081.0  1022000.7  0.1 10 0   508  787  576
[34]  82(N01)  f 44 22  0  -3118.2  1022001.9 -0.0  2 0   811 1320  773
[48]  38(B02)  1 10 10  0   -900.2 20460018.8 -0.3  1 0  689  168  106
[49]  41(B05)  1 23 18  1  -1062.4 20460018.6 -0.0  1 0  506  741  103
[50]  46(B10)  1  7  7  0   -807.5 20460019.8  0.0  1 0  150  586  682
[51]  54(B18)  1  7  7  0   -779.7 20460015.5  0.2  1 0  346  405  310
[52]  55(B19)  1  7  7  0  -2844.0 20460033.0 -0.1  1 0  350  226  507
[53]  58(B22)  1  7  7  0  -3221.1 20460064.0  0.1  1 0  424  466   72
$GNGGA,015400.904,,,,,0,00,,,M,,,,0000*26
$GNRMC,015400.904,A,,,,,,,160419,,*20
$GPGSA,A,1,,,,,,,,,,,,,,,*1E
$BDGSA,A,1,,,,,,,,,,,,,,,*0F
$GLGSA,A,1,,,,,,,,,,,,,,,*02
$GPGSV,2,1,05,03,00,000,45,16,00,000,43,22,00,000,42,23,00,000,45*7B
$GPGSV,2,2,05,26,00,000,43*4F
$BDGSV,2,1,06,02,00,000,40,05,00,000,41,10,00,000,40,18,00,000,42*61
$BDGSV,2,2,06,19,00,000,44,22,00,000,42*60
$B3CN0,0,0,0,0,0,0,0,0,0,0,0,0,0,0*4C
---00000016--- Acq_st=3 0  2019-4-16 1:54:1 
[00]  02(G03)  f 44  9  0  -1354.4  2046001.7 -0.0  2 0 2419 3053 1027
[01]  15(G16)  f 43  7  0  -3493.5  2046004.5 -0.1  2 0 1609 2517  934
[02]  21(G22)  f 42  7  0   -222.9  2046000.2  0.1  2 0  934 1672  779
[03]  22(G23)  f 45  7  0  -4372.6  2046005.6  0.0  2 0 2442 3277 1590
[04]  25(G26)  f 43  7  0  -1235.5  2046001.5  0.1  2 0 1347 2209 1151
[16]  38(B02) 1f 40 26  0  -1071.0  4092002.6 -0.8  2 0  870  982  323
[17]  41(B05) 1f 41 24  0  -1074.2  4092002.8  0.2  2 0  899 1186  565
[18]  46(B10) 1f 40 14  0  -1252.6  4092003.2  0.0  2 0 1171 1019  167
[19]  54(B18) 1f 43  7  0  -1023.1  4092002.5  0.0  2 0 1731 1960  849
[20]  55(B19) 1f 43  7  0  -2147.0  4092005.6  0.0  2 0 1667 2798 1370
[21]  58(B22) 1f 43  7  0  -3993.0  4092010.3 -0.0  2 0 1610 1990 1021
[32]  80(N-1)  f 38  7  0  -2473.7  1022001.6  0.2  2 0   245  266  341
[33]  81(N00)  7 25 14  0  -1075.4  1022000.6  0.0 10 0   473  618  386
[34]  82(N01)  f 44 24  0  -3112.0  1022002.0 -0.1  2 0   845 1812 1107
[48]  38(B02)  1 19 10  1  -1099.4 20460017.0  0.0  1 0  523  289  360
[50]  46(B10)  1  7  7  0   -816.8 20460021.7  0.1  1 0  227  332  720
[51]  54(B18)  1  7  7  0   -817.9 20460017.8  0.1  1 0  387  154  362
[52]  55(B19)  1  7 10  0  -2975.2 20460034.5  0.0  1 0  283  812  102
[53]  58(B22)  1  7  7  0  -3591.2 20460064.7 -0.0  1 0  185  190  265
$GNGGA,015401.904,,,,,0,00,,,M,,,,0000*27
$GNRMC,015401.904,A,,,,,,,160419,,*21
$GPGSA,A,1,,,,,,,,,,,,,,,*1E
$BDGSA,A,1,,,,,,,,,,,,,,,*0F
$GLGSA,A,1,,,,,,,,,,,,,,,*02
$GPGSV,2,1,05,03,00,000,44,16,00,000,43,22,00,000,42,23,00,000,45*7A
$GPGSV,2,2,05,26,00,000,43*4F
$BDGSV,2,1,06,02,00,000,40,05,00,000,41,10,00,000,40,18,00,000,43*60
$BDGSV,2,2,06,19,00,000,43,22,00,000,43*66
$B3CN0,0,0,0,0,0,0,0,0,0,0,0,0,0,0*4C
---00000017--- Acq_st=3 0  2019-4-16 1:54:2 
[00]  02(G03)  f 44  7  0  -1356.1  2046001.7  0.0  2 0 2053 3330 1833
[01]  15(G16)  f 44  7  0  -3491.3  2046004.4 -0.0  2 0 1919 2551 1271
[02]  21(G22)  f 42  7  0   -225.7  2046000.2 -0.1  2 0  824 2038  919
[03]  22(G23)  f 45  7  0  -4380.7  2046005.6  0.0  2 0 1962 2987 1306
[04]  25(G26)  f 43  7  0  -1241.5  2046001.5 -0.0  2 0 1422 2061 1232
[16]  38(B02) 1f 39 28  0  -1078.1  4092002.8 -0.0  2 0 1017 1148  402
[17]  41(B05) 1f 42 28  0  -1074.0  4092002.7 -0.3  2 0 1177 1595  583
[18]  46(B10) 1f 41 12  0  -1262.0  4092003.1  0.2  2 0  695 1464 1085
[19]  54(B18) 1f 43  8  0  -1022.5  4092002.6  0.0  2 0 1389 2246 1055
[20]  55(B19) 1f 43  7  0  -2152.8  4092005.5 -0.0  2 0 2075 2433  805
[21]  58(B22) 1f 43  7  0  -3999.4  4092010.4  0.0  2 0 1530 1929  983
[32]  80(N-1) 8f 38 13  0  -2472.9  1022001.5  0.1  2 0   574  590  458
[33]  81(N00)  7 24 15  0  -1080.8  1022000.7  0.1 10 0   511  787  444
[34]  82(N01) 8f 44 22  0  -3116.4  1022001.9  0.0  2 0   665 1461  487
[48]  38(B02)  1 10 10  1   -849.5 20460017.7  0.1  1 0  202  401  287
[49]  41(B05)  1 23 23  0   -881.0 20460014.8  0.0  1 0 1009 1014  520
$GNGGA,015402.904,,,,,0,00,,,M,,,,0000*24
$GNRMC,015402.904,A,,,,,,,160419,,*22
$GPGSA,A,1,,,,,,,,,,,,,,,*1E
$BDGSA,A,1,,,,,,,,,,,,,,,*0F
$GLGSA,A,1,,,,,,,,,,,,,,,*02
$GPGSV,2,1,05,03,00,000,44,16,00,000,44,22,00,000,42,23,00,000,45*7D
$GPGSV,2,2,05,26,00,000,43*4F
$BDGSV,2,1,06,02,00,000,39,05,00,000,42,10,00,000,41,18,00,000,43*6C
$BDGSV,2,2,06,19,00,000,43,22,00,000,43*66
$B3CN0,0,0,0,0,0,0,0,0,0,0,0,0,0,0*4C
---00000018--- Acq_st=7 0  2019-4-16 1:54:3 
[00]  02(G03)  f 44  7  0  -1354.9  2046001.7  0.0  2 0 2092 3551 1519
[01]  15(G16)  f 44  7  0  -3488.8  2046004.4  0.0  2 0 2287 2831 1398
[02]  21(G22)  f 42  7  0   -222.1  2046000.1 -0.0  2 0 1747 1891  572
[03]  22(G23)  f 44  7  0  -4377.9  2046005.7 -0.0  2 0 1638 3152 1288
[04]  25(G26)  f 43  7  0  -1232.9  2046001.5  0.0  2 0 1550 2249 1224
[16]  38(B02) 1f 41 26  0  -1075.8  4092002.7  0.5  2 0  840 1135  432
[17]  41(B05) 1f 41 28  0  -1072.4  4092002.8 -0.3  2 0  901 1441  451
[18]  46(B10) 1f 41 11  0  -1254.7  4092003.1  0.0  2 0  714 1014  508
[19]  54(B18) 1f 43 13  0  -1023.4  4092002.6  0.0  2 0 1434 2121  663
[20]  55(B19) 1f 43  7  0  -2146.7  4092005.5 -0.0  2 0 1230 2251  980
[21]  58(B22) 1f 43  7  0  -3995.5  4092010.3  0.0  2 0 1558 2110  940
[32]  80(N-1) 8f 39  7  0  -2468.5  1022001.6  0.3  2 0   578  831   90
[33]  81(N00)  7 24 16  0  -1079.8  1022001.0  0.1 10 0   346  514  371
[34]  82(N01) 8f 43 22  0  -3112.4  1022002.0 -0.0  2 0   741 1398  603
[48]  38(B02)  1 10 18  1  -1647.9 20460025.1  0.0  1 0  661  736  450
[49]  41(B05)  1 24 21  1  -1515.3 20460020.7 -0.2  1 0  430  764  785
[50]  46(B10)  1  7  7  0  -1011.2 20460019.6  0.1  1 0  453   90  268
[51]  54(B18)  1  7  7  0  -1064.2 20460016.3 -0.0  1 0  609  548  587
[52]  55(B19)  1  7  7  0  -1647.2 20460034.9  0.1  1 0  396  616  141
[53]  58(B22)  1  7  7  0  -3276.1 20460063.5 -0.1  1 0  359  444  598
$GNGGA,015403.904,,,,,0,00,,,M,,,,0000*25
$GNRMC,015403.904,A,,,,,,,160419,,*23
$GPGSA,A,1,,,,,,,,,,,,,,,*1E
$BDGSA,A,1,,,,,,,,,,,,,,,*0F
$GLGSA,A,1,,,,,,,,,,,,,,,*02
$GPGSV,2,1,05,03,00,000,44,16,00,000,44,22,00,000,42,23,00,000,44*7C
$GPGSV,2,2,05,26,00,000,43*4F
$BDGSV,2,1,06,02,00,000,41,05,00,000,41,10,00,000,41,18,00,000,43*60
$BDGSV,2,2,06,19,00,000,43,22,00,000,43*66
$B3CN0,0,0,0,0,0,0,0,0,0,0,0,0,0,0*4C
---00000019--- Acq_st=7 0  2019-4-16 1:54:4 
[00]  02(G03)  f 44 12  0  -1352.8  2046001.7  0.0  2 0 1857 3542 1737
[01]  15(G16)  f 44  7  0  -3485.3  2046004.4 -0.0  2 0 2410 2930 1049
[02]  21(G22)  f 43  7  0   -220.9  2046000.2 -0.0  2 0 1426 2204  741
[03]  22(G23)  f 43  7  0  -4373.6  2046005.6 -0.0  2 0 1570 2172 1296
[04]  25(G26)  f 42  7  0  -1232.2  2046001.5 -0.0  2 0 1376 2625 1210
[16]  38(B02) 1f 40 27  0  -1073.3  4092002.7  0.3  2 0 1009 1311  469
[17]  41(B05) 1f 41 23  0  -1076.0  4092002.7  0.5  2 0  739  828  292
[18]  46(B10) 1f 41 13  0  -1251.9  4092003.1 -0.1  2 0 1345 1508  977
[19]  54(B18) 1f 43  7  0  -1021.4  4092002.5 -0.1  2 0 1423 1903 1126
[20]  55(B19) 1f 43  7  0  -2146.2  4092005.5  0.0  2 0 1157 1986 1223
[21]  58(B22) 1f 42  7  0  -3991.2  4092010.3  0.0  2 0 1731 1734  733
[32]  80(N-1) 8f 38 18  0  -2467.5  1022001.6 -0.3  2 0   444 1121  688
[33]  81(N00)  7 24 18  0  -1074.1  1022000.6  0.1 10 0   442  284  322
[34]  82(N01) 8f 43 20  0  -3109.2  1022002.0  0.1  2 0   707 1430  758
[49]  41(B05)  1 22 23  1  -1467.6 20460023.1 -0.0  1 0  665  474  369
[50]  46(B10)  1  7  7  0   -832.3 20460020.6 -0.2  1 0 1073  876  564
[51]  54(B18)  1  7  7  0  -1485.2 20460016.2 -0.1  1 0  974  865  975
[52]  55(B19)  1 11  7  0  -2290.3 20460034.6 -0.2  1 0  240  663  726
[53]  58(B22)  1  7  7  0  -3392.9 20460062.9 -0.1  1 0  161  395  157
$GNGGA,015404.904,,,,,0,00,,,M,,,,0000*22
$GNRMC,015404.904,A,,,,,,,160419,,*24
$GPGSA,A,1,,,,,,,,,,,,,,,*1E
$BDGSA,A,1,,,,,,,,,,,,,,,*0F
$GLGSA,A,1,,,,,,,,,,,,,,,*02
$GPGSV,2,1,05,03,00,000,44,16,00,000,44,22,00,000,43,23,00,000,43*7A
$GPGSV,2,2,05,26,00,000,42*4E
$BDGSV,2,1,06,02,00,000,40,05,00,000,41,10,00,000,41,18,00,000,43*61
$BDGSV,2,2,06,19,00,000,43,22,00,000,42*67
$B3CN0,0,0,0,0,0,0,0,0,0,0,0,0,0,0*4C
---00000020--- Acq_st=3 0  2019-4-16 1:54:5 
[00]  02(G03)  f 44  7  0  -1351.1  2046001.7  0.0  2 0 1291 2145  974
[01]  15(G16)  f 44  7  0  -3487.0  2046004.4  0.0  2 0 2702 3120 1272
[02]  21(G22)  f 43  7  0   -220.8  2046000.2 -0.0  2 0 1800 2580 1080
[03]  22(G23)  f 42  7  0  -4373.9  2046005.7 -0.0  2 0 1631 2616 1280
[04]  25(G26)  f 42  7  0  -1233.0  2046001.5  0.1  2 0 1452 2172 1217
[16]  38(B02) 1f 40 28  0  -1077.9  4092002.7  0.3  2 0 1389 1506  543
[17]  41(B05) 1f 40 28  0  -1073.2  4092002.6  0.2  2 0 1282 1370  407
[18]  46(B10) 1f 41 14  0  -1254.2  4092003.1 -0.0  2 0 1012 1301  884
[19]  54(B18) 1f 43  7  0  -1021.2  4092002.6  0.0  2 0 1334 1837  969
[20]  55(B19) 1f 44  7  0  -2145.6  4092005.5  0.0  2 0 1497 1979  629
[21]  58(B22) 1f 43  7  0  -3991.2  4092010.3 -0.1  2 0 1947 2157 1004
[32]  80(N-1) 8f 38 17  0  -2466.9  1022001.5 -0.2  2 0   352  742  343
[33]  81(N00)  7 25 18  0  -1072.2  1022000.5 -0.0 10 0   443  640  178
[34]  82(N01) 8f 42 21  0  -3110.5  1022002.0  0.0  2 0   646 1040  346
[48]  38(B02)  1 23 13  1  -1035.6 20460018.7  0.0  1 0  266  165  168
[49]  41(B05)  1 19 22  1  -1432.8 20460027.5  0.0  1 0  334  478  300
[50]  46(B10)  1  8  7  0  -1056.8 20460019.4  0.0  1 0  615  718  170
[51]  54(B18)  1  7  7  0  -1360.8 20460015.6 -0.0  1 0 1124  530  338
[52]  55(B19)  1  7  7  0  -2031.8 20460033.0 -0.1  1 0  211  489  264
[53]  58(B22)  1  9 11  0  -3611.2 20460065.0  0.0  1 0  120  918  979
$GNGGA,015405.904,,,,,0,00,,,M,,,,0000*23
$GNRMC,015405.904,A,,,,,,,160419,,*25
$GPGSA,A,1,,,,,,,,,,,,,,,*1E
$BDGSA,A,1,,,,,,,,,,,,,,,*0F
$GLGSA,A,1,,,,,,,,,,,,,,,*02
$GPGSV,2,1,05,03,00,000,44,16,00,000,44,22,00,000,43,23,00,000,42*7B
$GPGSV,2,2,05,26,00,000,42*4E
$BDGSV,2,1,06,02,00,000,40,05,00,000,40,10,00,000,41,18,00,000,43*60
$BDGSV,2,2,06,19,00,000,44,22,00,000,43*61
$B3CN0,0,0,0,0,0,0,0,0,0,0,0,0,0,0*4C
---00000021--- Acq_st=3 0  2019-4-16 1:54:6 
[00]  02(G03)  f 43  7  0  -1345.6  2046001.7  0.0  2 0 1451 2994 1438
[01]  15(G16)  f 45  8  0  -3481.1  2046004.4  0.0  2 0 2089 2990 1078
[02]  21(G22)  f 44  7  0   -214.5  2046000.2  0.1  2 0 2075 2491  595
[03]  22(G23)  f 41  7  0  -4372.0  2046005.7  0.1  2 0  804 1985  999
[04]  25(G26)  f 43  7  0  -1225.5  2046001.5  0.1  2 0 1567 2553 1201
[16]  38(B02) 1f 40 26  0  -1066.5  4092002.6  0.7  2 0  878  930  229
[17]  41(B05) 1f 41 27  0  -1067.4  4092002.8 -0.6  2 0  379  578  528
[18]  46(B10) 1f 41 14  0  -1251.0  4092003.1  0.1  2 0 1400 1220  360
[19]  54(B18) 1f 43  7  0  -1017.3  4092002.6  0.0  2 0 1379 2071 1151
[20]  55(B19) 1f 43  7  0  -2142.7  4092005.5  0.0  2 0 1419 2534  952
[21]  58(B22) 1f 43  7  0  -3985.9  4092010.3  0.0  2 0 2107 2382 1236
[32]  80(N-1) 8f 38 17  0  -2459.9  1022001.5  0.3  2 0   312  640  347
[33]  81(N00)  7 26 14  0  -1065.9  1022000.5  0.2 10 0   655  755  302
[34]  82(N01) 8f 40 20  0  -3105.5  1022001.9  0.1  2 0   333  687  370
[48]  38(B02)  7 17 10  1  -1110.8 20460018.1  0.2  2 0   30  333  273
[50]  46(B10)  1  7  7  0  -1146.7 20460020.7  0.0  1 0  356  528  495
[51]  54(B18)  1  7  7  0  -1616.8 20460017.7 -0.2  1 0  812  328  392
[52]  55(B19)  1  8  9  0  -1824.4 20460033.6  0.1  1 0  530  169  389
[53]  58(B22)  1  7  7  0  -3952.3 20460065.9  0.0  1 0   95  913  478
$GNGGA,015406.904,,,,,0,00,,,M,,,,0000*20
$GNRMC,015406.904,A,,,,,,,160419,,*26
$GPGSA,A,1,,,,,,,,,,,,,,,*1E
$BDGSA,A,1,,,,,,,,,,,,,,,*0F
$GLGSA,A,1,,,,,,,,,,,,,,,*02
$GPGSV,2,1,05,03,00,000,43,16,00,000,45,22,00,000,44,23,00,000,41*79
$GPGSV,2,2,05,26,00,000,43*4F
$BDGSV,2,1,06,02,00,000,40,05,00,000,41,10,00,000,41,18,00,000,43*61
$BDGSV,2,2,06,19,00,000,43,22,00,000,43*66
$B3CN0,0,16,0,0,0,0,0,0,0,0,0,0,0,0*7B
---00000022--- Acq_st=3 0  2019-4-16 1:54:7 
[00]  02(G03)  f 43  7  0  -1352.3  2046001.7 -0.0  2 0 1743 2772 1325
[01]  15(G16)  f 44  7  0  -3486.5  2046004.4 -0.0  2 0 2235 3343 1436
[02]  21(G22)  f 43  7  0   -220.4  2046000.2  0.0  2 0 1729 2634 1173
[03]  22(G23)  f 40  7  0  -4376.6  2046005.7  0.0  2 0 1395 2049 1045
[04]  25(G26)  f 42  7  0  -1231.5  2046001.5 -0.1  2 0 1080 1907  870
[16]  38(B02) 1f 41 25  0  -1074.5  4092002.8 -0.7  2 0  764 1243  845
[17]  41(B05) 1f 41 26  0  -1074.7  4092002.7 -0.4  2 0 1251 1530  953
[18]  46(B10) 1f 40 13  0  -1253.4  4092003.1  0.0  2 0 1121 1463  829
[19]  54(B18) 1f 43  7  0  -1021.8  4092002.5 -0.0  2 0 1370 2009  929
[20]  55(B19) 1f 43  8  0  -2146.9  4092005.5  0.1  2 0 1852 2106  542
[21]  58(B22) 1f 43  7  0  -3992.4  4092010.3 -0.0  2 0 1812 1941  825
[32]  80(N-1) 8f 38 19  0  -2465.8  1022001.5  0.3  2 0   425  777  305
[33]  81(N00)  7 27 15  0  -1071.7  1022000.6  0.0 10 0   522  813  375
[34]  82(N01) 8f 39 21  0  -3113.7  1022001.9 -0.3  2 0   116  790  664
[48]  38(B02)  7 10 10  0  -1712.6 20460028.5 -0.0  2 0  335  593  862
[49]  41(B05)  1 22 23  1   -514.3 20460017.7  0.1  1 0  262  546  867
$GNGGA,015407.904,,,,,0,00,,,M,,,,0000*21
$GNRMC,015407.904,A,,,,,,,160419,,*27
$GPGSA,A,1,,,,,,,,,,,,,,,*1E
$BDGSA,A,1,,,,,,,,,,,,,,,*0F
$GLGSA,A,1,,,,,,,,,,,,,,,*02
$GPGSV,2,1,05,03,00,000,43,16,00,000,44,22,00,000,43,23,00,000,40*7E
$GPGSV,2,2,05,26,00,000,42*4E
$BDGSV,2,1,06,02,00,000,41,05,00,000,41,10,00,000,40,18,00,000,43*61
$BDGSV,2,2,06,19,00,000,43,22,00,000,43*66
$B3CN0,0,0,0,0,0,0,0,0,0,0,0,0,0,0*4C
---00000023--- Acq_st=3 0  2019-4-16 1:54:8 
[00]  02(G03)  f 43  7  0  -1343.4  2046001.7 -0.0  2 0 1823 2885 1388
[01]  15(G16)  f 45  7  0  -3478.1  2046004.4  0.0  2 0 2379 3566 1672
[02]  21(G22)  f 43  7  0   -214.9  2046000.2  0.0  2 0 1728 2474  731
[03]  22(G23)  f 41  7  0  -4370.6  2046005.6 -0.0  2 0  777 1795  617
[04]  25(G26)  f 42  7  0  -1224.8  2046001.5  0.0  2 0 1812 2480  848
[16]  38(B02) 1f 40 27  0  -1072.5  4092002.6  0.4  2 0 1177 1354  292
[17]  41(B05) 1f 41 27  0  -1068.1  4092002.7 -0.5  2 0 1123 1311  362
[18]  46(B10) 1f 41 15  0  -1249.0  4092003.1 -0.1  2 0 1206 1158  260
[19]  54(B18) 1f 43  9  0  -1016.7  4092002.5  0.0  2 0 1369 1728  633
[20]  55(B19) 1f 44  7  0  -2139.5  4092005.5 -0.1  2 0 1645 2350 1317
[21]  58(B22) 1f 43  7  0  -3986.8  4092010.3  0.0  2 0 1977 1972  460
[32]  80(N-1) 8f 38 18  0  -2459.1  1022001.5 -0.4  2 0   677 1024  723
[33]  81(N00)  7 26 15  0  -1066.7  1022000.6 -0.0 10 0   585 1212  857
[34]  82(N01) 8f 38 22  0  -3108.3  1022001.9 -0.5  2 0   325  577  305
[48]  38(B02)  7 10 21  0  -1580.7 20460023.9  0.2  2 0  294  521  466
[49]  41(B05)  1 24 23  1   -608.5 20460015.4  0.0  1 0  596  365   77
[50]  46(B10)  1  7  9  0  -1129.6 20460019.8  0.0  1 0  668  712  395
[51]  54(B18)  1  7  7  0   -751.4 20460016.6 -0.1  1 0  223  571  446
[52]  55(B19)  1  7  7  0  -1659.7 20460033.1  0.1  1 0  222  324   97
[53]  58(B22)  1  7  7  0  -3041.6 20460065.2  0.0  1 0  430  551  748
$GNGGA,015408.904,,,,,0,00,,,M,,,,0000*2E
$GNRMC,015408.904,A,,,,,,,160419,,*28
$GPGSA,A,1,,,,,,,,,,,,,,,*1E
$BDGSA,A,1,,,,,,,,,,,,,,,*0F
$GLGSA,A,1,,,,,,,,,,,,,,,*02
$GPGSV,2,1,05,03,00,000,43,16,00,000,45,22,00,000,43,23,00,000,41*7E
$GPGSV,2,2,05,26,00,000,42*4E
$BDGSV,2,1,06,02,00,000,40,05,00,000,41,10,00,000,41,18,00,000,43*61
$BDGSV,2,2,06,19,00,000,44,22,00,000,43*61
$B3CN0,0,0,0,0,0,0,0,0,0,0,0,0,0,0*4C
$GLGSV,1,1,02,01,00,000,38,12,00,000,38*65
---00000024--- Acq_st=3 0  2019-4-16 1:54:9 
[00]  02(G03)  f 43  7  0  -1352.4  2046001.7  0.0  2 0 1637 2155  717
[01]  15(G16)  f 44  7  0  -3486.6  2046004.5 -0.0  2 0 2475 3209 1236
[02]  21(G22)  f 43  7  0   -219.9  2046000.2 -0.0  2 0 1743 2662  922
[03]  22(G23)  f 41  7  0  -4379.4  2046005.6 -0.1  2 0 1183 2158 1519
[04]  25(G26)  f 42  7  0  -1235.4  2046001.5  0.0  2 0 1693 2257 1219
[16]  38(B02) 1f 41 26  0  -1081.3  4092002.7  0.1  2 0  848 1163  478
[17]  41(B05) 1f 41 24  0  -1077.5  4092002.7 -0.1  2 0  860 1385  690
[18]  46(B10) 1f 41 15  0  -1252.0  4092003.2  0.1  2 0  691  788  276
[19]  54(B18) 1f 42  7  0  -1021.2  4092002.6 -0.0  2 0 1537 1953  822
[20]  55(B19) 1f 43  7  0  -2145.6  4092005.5  0.0  2 0 1627 2107  756
[21]  58(B22) 1f 43  7  0  -3994.3  4092010.3  0.1  2 0 1964 2093  793
[32]  80(N-1) 8f 39 20  0  -2464.4  1022001.5 -0.4  2 0   523  734  342
[33]  81(N00)  7 26 18  0  -1071.2  1022000.6 -0.7 10 0   517  624  319
[34]  82(N01) 8f 33 20  0  -3114.7  1022002.0 -0.1  2 0   246  617  450
[48]  38(B02)  7 13 16  1  -2077.7 20460034.7 -0.2  2 0  505  336  305
[49]  41(B05)  1 23 22  0   -487.2 20460023.7 -0.1  1 0  687  994 1030
[50]  46(B10)  1  7  7  0  -1327.8 20460020.0 -0.0  1 0  508  559  323
[51]  54(B18)  1  7  7  0   -582.7 20460015.5  0.0  1 0  669  130  279
[52]  55(B19)  1  7  7  0  -1763.8 20460034.1 -0.0  1 0  203  518  668
[53]  58(B22)  1  8  7  0  -2854.6 20460064.8 -0.1  1 0  180  114  459
$GNGGA,015409.904,,,,,0,00,,,M,,,,0000*2F
$GNRMC,015409.904,A,,,,,,,160419,,*29
$GPGSA,A,1,,,,,,,,,,,,,,,*1E
$BDGSA,A,1,,,,,,,,,,,,,,,*0F
$GLGSA,A,1,,,,,,,,,,,,,,,*02
$GPGSV,2,1,05,03,00,000,43,16,00,000,44,22,00,000,43,23,00,000,41*7F
$GPGSV,2,2,05,26,00,000,42*4E
$BDGSV,2,1,06,02,00,000,41,05,00,000,41,10,00,000,41,18,00,000,42*61
$BDGSV,2,2,06,19,00,000,43,22,00,000,43*66
$B3CN0,0,0,0,0,0,0,0,0,0,0,0,0,0,0*4C
$GLGSV,1,1,02,01,00,000,39,12,00,000,33*6F
---00000025--- Acq_st=3 0  2019-4-16 1:54:10 
[00]  02(G03)  f 44  7  0  -1345.6  2046001.7 -0.0  2 0 1780 2963 1594
[01]  15(G16)  f 45  7  0  -3480.8  2046004.4  0.0  2 0 2135 3375 1490
[02]  21(G22)  f 44  7  0   -213.5  2046000.2  0.0  2 0 1477 2720 1649
[03]  22(G23)  f 42  7  0  -4372.8  2046005.6  0.1  2 0 1945 2179  899
[04]  25(G26)  f 42  7  0  -1227.5  2046001.5 -0.0  2 0 1100 2005 1359
[16]  38(B02) 1f 40 27  0  -1072.9  4092002.7  0.7  2 0 1153 1519  751
[17]  41(B05) 1f 41 27  0  -1067.6  4092002.7  0.4  2 0 1190 1261  559
[18]  46(B10) 1f 41 11  0  -1248.2  4092003.2 -0.2  2 0 1075 1572  668
[19]  54(B18) 1f 43  7  0  -1016.8  4092002.5  0.1  2 0 1642 1884  705
[20]  55(B19) 1f 43  7  0  -2139.9  4092005.5 -0.0  2 0 1844 2209 1000
[21]  58(B22) 1f 44  7  0  -3986.8  4092010.3 -0.0  2 0 2099 2003  630
[32]  80(N-1) 8f 39 18  0  -2459.2  1022001.6 -0.2  2 0   334  722  340
[33]  81(N00)  7 26 18  0  -1070.2  1022000.7 -0.2 10 0   432  981  709
[34]  82(N01) 8f 29 22  0  -3111.3  1022001.8  0.1  5 0   156  279  192
[49]  41(B05)  1 24 24  0     93.3 20460021.5 -0.0  1 0  542  767  631
[50]  46(B10)  1  7  7  0  -1710.2 20460019.7 -0.2  1 0  229  788  507
[51]  54(B18)  1  7  7  0   -582.5 20460014.7  0.1  1 0  932  494  499
[52]  55(B19)  1  7  7  0  -1821.2 20460034.5 -0.2  1 0  136  344  366
[53]  58(B22)  1  7  9  0  -2996.5 20460064.4  0.2  1 0  295  447  486
$GNGGA,015410.904,,,,,0,00,,,M,,,,0000*27
$GNRMC,015410.904,A,,,,,,,160419,,*21
$GPGSA,A,1,,,,,,,,,,,,,,,*1E
$BDGSA,A,1,,,,,,,,,,,,,,,*0F
$GLGSA,A,1,,,,,,,,,,,,,,,*02
$GPGSV,2,1,05,03,00,000,44,16,00,000,45,22,00,000,44,23,00,000,42*7D
$GPGSV,2,2,05,26,00,000,42*4E
$BDGSV,2,1,06,02,00,000,40,05,00,000,41,10,00,000,41,18,00,000,43*61
$BDGSV,2,2,06,19,00,000,43,22,00,000,44*61
$B3CN0,0,0,0,0,0,0,0,0,0,0,0,0,0,0*4C
$GLGSV,1,1,02,01,00,000,39,12,00,000,29*64
---00000026--- Acq_st=3 0  2019-4-16 1:54:11 
[00]  02(G03)  f 44  7  0  -1351.0  2046001.7  0.0  2 0 1669 2713 1431
[01]  15(G16)  f 45  7  0  -3487.6  2046004.5  0.0  2 0 2400 3843 1691
[02]  21(G22)  f 44  9  0   -219.6  2046000.2 -0.1  2 0 1202 2178 1552
[03]  22(G23)  f 43  7  0  -4376.8  2046005.6  0.0  2 0 1330 2167  948
[04]  25(G26)  f 42  7  0  -1232.3  2046001.6  0.0  2 0  803 2224  997
[16]  38(B02) 1f 40 26  0  -1077.1  4092002.8  0.4  2 0  597 1003  480
[17]  41(B05) 1f 41 28  0  -1079.8  4092002.7  0.1  2 0  716 1072  354
[18]  46(B10) 1f 41 16  0  -1258.2  4092003.2 -0.1  2 0 1066 1741 1122
[19]  54(B18) 1f 42  7  0  -1024.8  4092002.6  0.0  2 0 1223 1404  638
[20]  55(B19) 1f 43  7  0  -2145.8  4092005.5 -0.0  2 0 1819 2524 1181
[21]  58(B22) 1f 44  7  0  -3994.0  4092010.3  0.0  2 0 1769 2030  876
[32]  80(N-1) 8f 39 21  0  -2464.6  1022001.6  0.2  2 0    85  668  482
[33]  81(N00)  7 26 15  0  -1074.5  1022000.7 -0.0 10 0   220  416   85
[34]  82(N01) 8f 29 22  0  -3118.0  1022001.9 -0.0  5 0   321  794  443
[48]  38(B02)  1 18 16  0   -793.4 20460019.5 -0.1  1 0  491 1068  524
[50]  46(B10)  1  7  7  0  -2145.1 20460019.6 -0.1  1 0  513  823  461
[51]  54(B18)  1  7  7  0      0.6 20460016.0  0.1  1 0  291  394  373
[52]  55(B19)  1  7  7  0  -1769.6 20460033.6 -0.0  1 0  142  831  884
[53]  58(B22)  1  7  7  0  -3546.6 20460065.3  0.0  1 0  217  519  298
$GNGGA,015411.904,,,,,0,00,,,M,,,,0000*26
$GNRMC,015411.904,A,,,,,,,160419,,*20
$GPGSA,A,1,,,,,,,,,,,,,,,*1E
$BDGSA,A,1,,,,,,,,,,,,,,,*0F
$GLGSA,A,1,,,,,,,,,,,,,,,*02
$GPGSV,2,1,05,03,00,000,44,16,00,000,45,22,00,000,44,23,00,000,43*7C
$GPGSV,2,2,05,26,00,000,42*4E
$BDGSV,2,1,06,02,00,000,40,05,00,000,41,10,00,000,41,18,00,000,42*60
$BDGSV,2,2,06,19,00,000,43,22,00,000,44*61
$B3CN0,0,0,0,0,0,0,0,0,0,0,0,0,0,0*4C
$GLGSV,1,1,02,01,00,000,39,12,00,000,29*64
---00000027--- Acq_st=7 0  2019-4-16 1:54:12 
[00]  02(G03)  f 44  7  0  -1347.0  2046001.7  0.0  2 0 2149 2973 1125
[01]  15(G16)  f 45  7  0  -3482.8  2046004.5 -0.0  2 0 1513 3123 2045
[02]  21(G22)  f 44  7  0   -214.7  2046000.2  0.0  2 0 1067 2296  705
[03]  22(G23)  f 44  7  0  -4372.0  2046005.6 -0.0  2 0 2016 2835 1213
[04]  25(G26)  f 42  7  0  -1225.1  2046001.5  0.0  2 0 1093 1564 1107
[16]  38(B02) 1f 40 26  0  -1068.8  4092002.7  0.2  2 0  766 1264  543
[17]  41(B05) 1f 41 23  0  -1070.2  4092002.6 -0.2  2 0  967 1421  709
[18]  46(B10) 1f 41 14  0  -1249.4  4092003.2  0.1  2 0  706  959  745
[19]  54(B18) 1f 42  9  0  -1017.8  4092002.5 -0.0  2 0 1702 1767  749
[20]  55(B19) 1f 44 11  0  -2140.1  4092005.5 -0.0  2 0 2021 2238  997
[21]  58(B22) 1f 44  7  0  -3986.5  4092010.3 -0.0  2 0 1723 2229  673
[32]  80(N-1) 8f 39 19  0  -2460.3  1022001.5 -0.2  2 0   488  940  493
[33]  81(N00)  7 25 19  0  -1068.6  1022000.8 -0.0 10 0   421  512  200
[34]  82(N01) 8f 32 21  0  -3109.9  1022002.0 -0.1  5 0   512  682  385
[35]  85(N04)  1 25 11  0  -5312.7  1022004.9  0.1  1 0   183  759  668
[48]  38(B02)  7 10 10  1  -1633.5 20460028.0  0.0  2 0  777  684  546
[49]  41(B05)  1 21 27  1   -314.3 20460013.6 -0.0  1 0  189  258  734
$GNGGA,015412.904,,,,,0,00,,,M,,,,0000*25
$GNRMC,015412.904,A,,,,,,,160419,,*23
$GPGSA,A,1,,,,,,,,,,,,,,,*1E
$BDGSA,A,1,,,,,,,,,,,,,,,*0F
$GLGSA,A,1,,,,,,,,,,,,,,,*02
$GPGSV,2,1,05,03,00,000,44,16,00,000,45,22,00,000,44,23,00,000,44*7B
$GPGSV,2,2,05,26,00,000,42*4E
$BDGSV,2,1,06,02,00,000,40,05,00,000,41,10,00,000,41,18,00,000,42*60
$BDGSV,2,2,06,19,00,000,44,22,00,000,44*66
$B3CN0,0,0,0,0,0,0,0,0,0,0,0,0,0,0*4C
$GLGSV,1,1,02,01,00,000,39,12,00,000,32*6E
---00000028--- Acq_st=7 0  2019-4-16 1:54:13 
[00]  02(G03)  f 44  7  0  -1345.3  2046001.7 -0.0  2 0 1607 2807 1639
[01]  15(G16)  f 45  7  0  -3481.1  2046004.5 -0.0  2 0 1858 3149 1381
[02]  21(G22)  f 44  7  0   -211.8  2046000.2  0.0  2 0 1211 2308 1105
[03]  22(G23)  f 44  7  0  -4373.4  2046005.6  0.0  2 0 1962 2176 1006
[04]  25(G26)  f 43  7  0  -1225.5  2046001.5  0.0  2 0 1196 1989  769
[16]  38(B02) 1f 41 28  0  -1070.6  4092002.7  0.3  2 0 1153 1313  650
[17]  41(B05) 1f 41 28  0  -1068.8  4092002.7  0.0  2 0 1389 1758  714
[18]  46(B10) 1f 41 14  0  -1249.0  4092003.2 -0.0  2 0  579  932  322
[19]  54(B18) 1f 42  7  0  -1017.8  4092002.5  0.0  2 0 1819 1721  475
[20]  55(B19) 1f 44  7  0  -2139.3  4092005.5  0.0  2 0 1642 2111  955
[21]  58(B22) 1f 43  7  0  -3990.7  4092010.3  0.1  2 0 2208 2745 1226
[32]  80(N-1) 8f 38 19  0  -2457.6  1022001.6  0.2  2 0   336  817  627
[33]  81(N00)  7 25 18  0  -1067.6  1022000.7 -0.0 10 0   267  594  538
[34]  82(N01) 8f 37 22  0  -3107.5  1022002.0 -0.5  2 0   465  639  608
[35]  85(N04)  1 26 24  0  -5310.8  1022003.5  0.4  1 0   672 1004  429
[48]  38(B02)  7 14 10  0  -1915.0 20460033.1 -0.1  2 0  880  928  437
[49]  41(B05)  1 24 22  0   -185.8 20460017.3 -0.0  1 0  922  662  315
[50]  46(B10)  1  7  7  0   -748.5 20460019.5 -0.2  1 0  134  270  456
[51]  54(B18)  1  7  7  0   -603.5 20460016.6  0.2  1 0  126  606  320
[52]  55(B19)  1 10  7  0  -1539.0 20460034.2 -0.1  1 0  464  173  232
[53]  58(B22)  1  7  7  0  -3275.4 20460065.7  0.1  1 0  132  503  540
$GNGGA,015413.904,,,,,0,00,,,M,,,,0000*24
$GNRMC,015413.904,A,,,,,,,160419,,*22
$GPGSA,A,1,,,,,,,,,,,,,,,*1E
$BDGSA,A,1,,,,,,,,,,,,,,,*0F
$GLGSA,A,1,,,,,,,,,,,,,,,*02
$GPGSV,2,1,05,03,00,000,44,16,00,000,45,22,00,000,44,23,00,000,44*7B
$GPGSV,2,2,05,26,00,000,43*4F
$BDGSV,2,1,06,02,00,000,41,05,00,000,41,10,00,000,41,18,00,000,42*61
$BDGSV,2,2,06,19,00,000,44,22,00,000,43*61
$B3CN0,0,0,0,0,0,0,0,0,0,0,0,0,0,0*4C
$GLGSV,1,1,02,01,00,000,38,12,00,000,37*6A
---00000029--- Acq_st=3 0  2019-4-16 1:54:14 
[00]  02(G03)  f 44  7  0  -1334.9  2046001.7 -0.0  2 0 1761 2607  824
[01]  15(G16)  f 44 10  0  -3471.5  2046004.5 -0.0  2 0 1536 2176 1245
[02]  21(G22)  f 44  7  0   -203.7  2046000.2 -0.0  2 0 1619 2443  937
[03]  22(G23)  f 45  7  0  -4361.9  2046005.6  0.0  2 0 2138 2958 1177
[04]  25(G26)  f 43  7  0  -1216.8  2046001.5 -0.0  2 0 1239 1941 1105
[16]  38(B02) 1f 40 23  0  -1061.9  4092002.7  0.7  2 0  524  808  448
[17]  41(B05) 1f 41 26  0  -1060.0  4092002.6 -0.0  2 0 1087 1207  274
[18]  46(B10) 1f 41 15  0  -1238.5  4092003.1 -0.0  2 0 1042 1612  756
[19]  54(B18) 1f 43  8  0  -1008.1  4092002.5 -0.0  2 0 1664 1883  934
[20]  55(B19) 1f 43  7  0  -2129.0  4092005.4 -0.0  2 0 1942 2302 1322
[21]  58(B22) 1f 44  7  0  -3979.6  4092010.3 -0.1  2 0 2067 2510 1217
[32]  80(N-1) 8f 38 17  0  -2448.0  1022001.6 -0.0  2 0   349  532  446
[33]  81(N00)  7 25 21  0  -1058.1  1022000.8 -0.0 10 0   867  734  414
[34]  82(N01) 8f 40 18  0  -3095.8  1022002.0  0.0  2 0   879 1231  367
[35]  85(N04)  7 38 27  0  -5309.3  1022003.3  0.1  2 0   488  604  227
[48]  38(B02)  7 10 10  0  -1838.1 20460030.4 -0.0  2 0  101  460  176
[49]  41(B05)  1 23 23  0    515.9 20460019.6 -0.0  1 0  621  599  587
[50]  46(B10)  1  7  7  0   -612.3 20460020.8  0.0  1 0  186  688  712
[51]  54(B18)  1  7  7  0   -841.4 20460016.3 -0.1  1 0  289  271  121
[52]  55(B19)  1  7  7  0  -2190.2 20460034.2  0.1  1 0  278  476  363
[53]  58(B22)  1  7  7  0  -3836.9 20460064.2 -0.0  1 0  294    9  322
$GNGGA,015414.771,2944.9403,N,10633.0783,E,1,05,4.6,396.4,M,,,,0000*14
$GNRMC,015414.771,A,2944.9403,N,10633.0783,E,1.44,0.00,160419,,*1D
$GPGSA,A,3,,,,,,,,,,,,,5.4,4.6,2.9*3A
$BDGSA,A,3,10,19,22,,,,,,,,,,5.4,4.6,2.9*22
$GLGSA,A,3,02,13,,,,,,,,,,,5.4,4.6,2.9*26
$GPGSV,2,1,05,03,00,000,44,16,00,000,44,22,00,000,44,23,00,000,45*7B
$GPGSV,2,2,05,26,00,000,43*4F
$BDGSV,2,1,06,02,00,000,40,05,00,000,41,10,00,000,41,18,00,000,43*61
$BDGSV,2,2,06,19,00,000,43,22,00,000,44*61
$B3CN0,0,0,0,0,0,0,0,0,0,0,0,0,0,0*4C
$GLGSV,1,1,02,01,00,000,38,12,00,000,40*6A
---00000030--- Acq_st=3 0  2019-4-16 1:54:15 
[00]  02(G03)  f 44 10  0  -1339.8  2046001.7  0.0  2 0 1483 2992 1523
[01]  15(G16)  f 43  7  0  -3478.6  2046004.5  0.0  2 0 1727 2452 1062
[02]  21(G22)  f 44  7  0   -208.8  2046000.2 -0.0  2 0 1759 2688 1300
[03]  22(G23)  f 44  7  0  -4370.8  2046005.6 -0.0  2 0 2453 3437 1401
[04]  25(G26)  f 43  7  0  -1221.8  2046001.5 -0.0  2 0 1559 2557 1496
[16]  38(B02) 1f 40 26  0  -1067.6  4092002.7  0.1  2 0 1216 1548  794
[17]  41(B05) 1f 41 23  0  -1068.5  4092002.7 -0.1  2 0  992 1104  391
[18]  46(B10) 1f 41 15  0  -1245.1  4092003.1  0.0  2 0 1243 1621  582
[19]  54(B18) 1f 42  7  0  -1011.1  4092002.5 -0.0  2 0 1106 1717  912
[20]  55(B19) 1f 43  7  0  -2134.7  4092005.5  0.0  2 0 1692 1913  661
[21]  58(B22) 1f 43 13  0  -3985.5  4092010.3  0.0  2 0 1894 2127  818
[32]  80(N-1) 8f 37 15  0  -2453.6  1022001.5  0.1  2 0   740  966  484
[33]  81(N00)  7 26 20  0  -1062.5  1022000.6  0.4 10 0   783  387  149
[34]  82(N01) 8f 42 14  0  -3100.8  1022002.0  0.1  2 0  1003 1282  709
[35]  85(N04)  7 37 24  0  -5315.5  1022003.2 -0.1  2 0   450  465  338
[48]  38(B02)  7 10 10  1  -2084.7 20460033.8 -0.0  2 0  572  328  518
[49]  41(B05)  1 25 13  0    298.6 20460022.4 -0.1  1 0  536  195  649
[50]  46(B10)  1  7  7  0   -899.9 20460021.1 -0.0  1 0  704  623  735
[51]  54(B18)  1  7  7  0   -945.1 20460016.8 -0.0  1 0  104  278  537
[52]  55(B19)  1  7  7  0  -1554.3 20460036.5 -0.1  1 0  411  131  485
[53]  58(B22)  1  7  7  0  -3454.7 20460064.7  0.0  1 0  443  469  744
dyn_stat = 0.268837
Refix G14: 1, 179673.929633, 157
$GNGGA,015416.000,2944.9379,N,10633.0721,E,1,05,1.9,392.8,M,,,,0000*17
$GNRMC,015416.000,A,2944.9379,N,10633.0721,E,0.46,0.00,160419,,*1F
$GPGSA,A,3,,,,,,,,,,,,,2.2,1.9,1.1*3A
$BDGSA,A,3,10,19,22,,,,,,,,,,2.2,1.9,1.1*22
$GLGSA,A,3,01,12,,,,,,,,,,,2.2,1.9,1.1*24
$GPGSV,2,1,05,03,00,000,44,16,00,000,43,22,00,000,44,23,00,000,44*7D
$GPGSV,2,2,05,26,00,000,43*4F
$BDGSV,2,1,06,02,00,000,40,05,00,000,41,10,00,000,41,18,00,000,42*60
$BDGSV,2,2,06,19,00,000,43,22,00,000,43*66
$B3CN0,0,0,0,0,0,0,0,0,0,0,0,0,0,0*4C
$GLGSV,1,1,02,01,00,000,37,12,00,000,42*67
---00000031--- Acq_st=3 0  2019-4-16 1:54:16 
[00]  02(G03)  f 44  9  0  -1336.5  2046001.7 -0.0  2 0 1531 2808 1371
[01]  15(G16)  f 43  7  0  -3475.4  2046004.5 -0.0  2 0 1243 2038 1080
[02]  21(G22)  f 44  7  0   -208.7  2046000.2  0.0  2 0 1253 2134 1152
[03]  22(G23)  f 45  7  0  -4367.0  2046005.6 -0.0  2 0 2141 3071 1405
[04]  25(G26)  f 44  8  0  -1221.2  2046001.5 -0.0  2 0 1642 1894 1126
[16]  38(B02) 1f 41 28  0  -1064.0  4092002.7  0.7  2 0  887 1439  582
[17]  41(B05) 1f 41 28  0  -1063.0  4092002.6 -0.4  2 0 1339 1375  314
[18]  46(B10) 1f 41 15  0  -1246.0  4092003.1  0.0  2 0 1722 2036  758
[19]  54(B18) 1f 43  7  0  -1012.5  4092002.5 -0.0  2 0 1345 1858  779
[20]  55(B19) 1f 43  7  0  -2131.8  4092005.5 -0.0  2 0 2340 2678 1034
[21]  58(B22) 1f 44  7  0  -3982.6  4092010.3  0.0  2 0 1816 2250 1019
[32]  80(N-1) 8f 38 13  0  -2449.4  1022001.5 -0.0  2 0   388  811  349
[33]  81(N00)  7 26 20  0  -1060.5  1022000.6  0.5 10 0   129  804  382
[34]  82(N01) 8f 42 15  0  -3099.6  1022002.0 -0.0  2 0   819 1720  915
[35]  85(N04)  f 33 21  0  -5311.6  1022003.4 -0.2  5 0   677  822  351
[50]  46(B10)  1  7  7  0   -953.3 20460020.1 -0.0  1 0  212  400  538
[51]  54(B18)  1 10  7  0   -489.1 20460016.7  0.1  1 0  672  278  528
[52]  55(B19)  1  7  7  0  -1817.7 20460036.4 -0.0  1 0  400   96  145
[53]  58(B22)  1  8  7  0  -3225.2 20460064.9  0.3  1 0  168  230  250
dyn_stat = 0.335186
Refix G14: 1, 179674.929633, 153
$GNGGA,015417.000,2944.9353,N,10633.0702,E,1,05,1.9,388.1,M,,,,0000*1D
$GNRMC,015417.000,A,2944.9353,N,10633.0702,E,1.96,20602.92,,,*1D
$GPGSA,A,3,,,,,,,,,,,,,2.2,1.9,1.1*3A
$BDGSA,A,3,10,19,22,,,,,,,,,,2.2,1.9,1.1*22
$GLGSA,A,3,01,12,,,,,,,,,,,2.2,1.9,1.1*24
$GPGSV,2,1,06,03,00,000,44,16,00,000,43,22,00,000,44,23,00,000,45*7F
$GPGSV,2,2,06,26,00,000,44,14,54,111,00*7E
$BDGSV,2,1,06,02,00,000,41,05,00,000,41,10,65,245,41,18,00,000,43*60
$BDGSV,2,2,06,19,45,295,43,22,02,324,44*69
$B3CN0,0,0,0,0,0,0,0,0,0,0,0,0,0,0*4C
$GLGSV,1,1,02,01,61,306,38,12,25,261,42*68
---00000032--- Acq_st=3 0  2019-4-16 1:54:17 
[00]  02(G03)  f 44  7  0  -1339.4  2046001.7 -0.0  2 0 1301 2657 1389
[01]  15(G16)  f 43  8  0  -3476.0  2046004.5  0.0  2 0 1567 1931 1148
[02]  21(G22)  f 44  7  0   -211.2  2046000.2  0.0  2 0 1132 2021  321
[03]  22(G23)  f 44  7  0  -4370.0  2046005.6 -0.0  2 0 1678 2659 1325
[04]  25(G26)  f 43  7  0  -1220.9  2046001.5 -0.0  2 0 1339 1899 1472
[16]  38(B02) 1f 41 24  0  -1069.5  4092002.7 -0.2  2 0 1388 1685  775
[17]  41(B05) 1f 41 23  0  -1064.3  4092002.7 -0.1  2 0 1008 1228  737
[18]  46(B10) 1f 40 15  0  -1243.7  4092003.1  0.1  2 0  994 1086  172
[19]  54(B18) 1f 43  7  0  -1015.3  4092002.5  0.0  2 0 1629 2124 1042
[20]  55(B19) 1f 43  7  0  -2132.3  4092005.5  0.1  2 0 2144 2403 1112
[21]  58(B22) 1f 44  7  0  -3984.5  4092010.3 -0.0  2 0 2013 2612 1013
[32]  80(N-1) 8f 38  8  0  -2451.8  1022001.6  0.2  2 0   771 1097  468
[33]  81(N00)  7 26 19  0  -1060.2  1022000.7 -0.2 10 0   409  883  574
[34]  82(N01) 8f 43 14  0  -3101.1  1022002.0  0.1  2 0  1044 1646 1012
[35]  85(N04)  f 37 19  0  -5312.9  1022003.4  0.0  2 0   376  849  820
[48]  38(B02)  1 10 18  0  -1441.0 20460014.7 -0.2  1 0  568  630  574
[49]  41(B05)  1 21 21  0  -1065.4 20460016.7 -0.1  1 0  347  436    3
dyn_stat = 0.196981
Refix G14: 1, 179675.929632, 154
$GNGGA,015418.000,2944.9336,N,10633.0699,E,1,05,1.9,384.7,M,,,,0000*18
$GNRMC,015418.000,A,2944.9336,N,10633.0699,E,0.91,20602.92,,,*14
$GPGSA,A,3,,,,,,,,,,,,,2.2,1.9,1.1*3A
$BDGSA,A,3,10,19,22,,,,,,,,,,2.2,1.9,1.1*22
$GLGSA,A,3,01,12,,,,,,,,,,,2.2,1.9,1.1*24
$GPGSV,2,1,06,03,00,000,44,16,00,000,43,22,00,000,44,23,00,000,44*7E
$GPGSV,2,2,06,26,00,000,43,14,54,111,00*79
$BDGSV,2,1,06,02,00,000,41,05,00,000,41,10,65,245,40,18,00,000,43*61
$BDGSV,2,2,06,19,45,295,43,22,02,324,44*69
$B3CN0,0,0,0,0,0,0,0,0,0,0,0,0,0,0*4C
$GLGSV,1,1,02,01,61,306,38,12,25,261,43*69
---00000033--- Acq_st=3 0  2019-4-16 1:54:18 
[00]  02(G03)  f 44 12  0  -1340.4  2046001.7  0.0  2 0 2061 2867 1524
[01]  15(G16)  f 43  7  0  -3475.7  2046004.4 -0.0  2 0 1663 2230  785
[02]  21(G22)  f 43  7  0   -209.5  2046000.2 -0.0  2 0  971 2281  673
[03]  22(G23)  f 44  7  0  -4373.2  2046005.6 -0.1  2 0 1959 2719 1135
[04]  25(G26)  f 43  7  0  -1221.9  2046001.5  0.1  2 0  488 1960 1089
[16]  38(B02) 1f 40 28  0  -1073.4  4092002.7 -0.2  2 0  493  788  469
[17]  41(B05) 1f 41 28  0  -1066.8  4092002.6 -0.6  2 0  908 1103  652
[18]  46(B10) 1f 40 14  0  -1250.9  4092003.2  0.0  2 0  754 1212  614
[19]  54(B18) 1f 43  7  0  -1018.6  4092002.5 -0.0  2 0 1567 2054  818
[20]  55(B19) 1f 43  7  0  -2135.3  4092005.5 -0.0  2 0 2189 2362 1248
[21]  58(B22) 1f 44  9  0  -3985.6  4092010.3 -0.0  2 0 1702 2107  925
[32]  80(N-1) 8f 38  7  0  -2452.7  1022001.6  0.1  2 0   602  758  153
[33]  81(N00)  7 26 19  0  -1062.4  1022000.6 -0.3 10 0   734  800  105
[34]  82(N01) 8f 44 14  0  -3101.4  1022002.0 -0.0  2 0   760 1971 1253
[35]  85(N04)  f 35 21  0  -5315.4  1022003.4 -0.0  2 0   566  659  321
[48]  38(B02)  1 14 10  0  -1693.7 20460020.2 -0.1  1 0  587  499  563
[49]  41(B05)  1 25 19  0   -928.9 20460018.5  0.0  1 0  347 1104  693
[50]  46(B10)  1  7  7  0  -1189.8 20460020.1  0.2  1 0  208  466  356
[51]  54(B18)  1  7  7  0  -1001.1 20460015.1 -0.1  1 0  724   81  327
[52]  55(B19)  1  7  7  0  -1404.2 20460034.1 -0.1  1 0  476  420  294
[53]  58(B22)  1  7  9  0  -3451.7 20460066.1 -0.0  1 0  520  387  599
dyn_stat = 0.164605
Refix G03: 2, 179676.925884, -1346
Refix G14: 1, 179676.929632, 152
$GNGGA,015419.000,2944.9312,N,10633.0701,E,1,06,99.0,379.8,M,,,,0000*29
$GNRMC,015419.000,A,2944.9312,N,10633.0701,E,0.40,20602.92,,,*1F
$GPGSA,A,3,03,,,,,,,,,,,,99.0,99.0,99.0*01
$BDGSA,A,3,10,19,22,,,,,,,,,,99.0,99.0,99.0*1A
$GLGSA,A,3,01,12,,,,,,,,,,,99.0,99.0,99.0*1C
$GPGSV,2,1,06,03,00,000,44,16,00,000,43,22,00,000,43,23,00,000,44*79
$GPGSV,2,2,06,26,00,000,43,14,54,111,00*79
$BDGSV,2,1,06,02,00,000,40,05,00,000,41,10,65,245,40,18,00,000,43*60
$BDGSV,2,2,06,19,45,295,43,22,02,324,44*69
$B3CN0,0,0,0,0,0,0,0,0,0,0,0,0,0,0*4C
$GLGSV,1,1,02,01,61,306,38,12,25,261,44*6E
---00000034--- Acq_st=3 0  2019-4-16 1:54:19 
[00]  02(G03)  f 44  7  0  -1336.9  2046001.7  0.0  2 0 1938 3045 1266
[01]  15(G16)  f 42  7  0  -3471.4  2046004.4  0.0  2 0 2021 2390  946
[02]  21(G22)  f 43  9  0   -206.7  2046000.3 -0.1  2 0 1224 2536 1083
[03]  22(G23)  f 43  7  0  -4365.9  2046005.6  0.0  2 0 1292 2171  993
[04]  25(G26)  f 42  7  0  -1214.9  2046001.5  0.0  2 0 1323 1984 1076
[16]  38(B02) 1f 41 27  0  -1067.4  4092002.7 -0.2  2 0 1106 1809 1192
[17]  41(B05) 1f 41 29  0  -1063.8  4092002.7  0.1  2 0 1209  944  302
[18]  46(B10) 1f 40 14  0  -1239.0  4092003.1 -0.0  2 0 1061 1512  670
[19]  54(B18) 1f 43  7  0  -1014.3  4092002.5  0.0  2 0 1591 2170 1209
[20]  55(B19) 1f 44  7  0  -2130.8  4092005.5  0.1  2 0 2046 2324 1306
[21]  58(B22) 1f 44  7  0  -3978.0  4092010.3  0.0  2 0 1773 2089  835
[32]  80(N-1) 8f 39  7  0  -2445.2  1022001.5  0.0  2 0   588  643  339
[33]  81(N00)  7 27 19  0  -1057.5  1022000.7 -0.5 10 0   453  859  389
[34]  82(N01) 8f 45 17  0  -3097.7  1022002.0 -0.1  2 0  1356 1944  737
[35]  85(N04)  f 35 18  0  -5315.7  1022003.3 -0.0  2 0   638  872  519
[48]  38(B02)  1 16 36  1  -1137.1 20460019.7  0.0  1 0  583  303  316
[49]  41(B05)  1 25 24  1   -907.4 20460020.6 -0.0  1 0  638  465  590
[50]  46(B10)  1  7  7  0   -558.7 20460020.4 -0.1  1 0   99  649  916
[51]  54(B18)  1  7  7  0   -762.9 20460015.8 -0.1  1 0  531  491  956
[52]  55(B19)  1  7  7  0   -718.7 20460034.0 -0.1  1 0  236  242  183
[53]  58(B22)  1  7  7  0  -3474.6 20460063.9  0.0  1 0  500  604  286
dyn_stat = 0.315790
Refix G03: 2, 179677.925885, -1341
Refix G14: 1, 179677.929632, 153
$GNGGA,015420.000,2944.9287,N,10633.0708,E,1,06,1.8,374.4,M,,,,0000*1F
$GNRMC,015420.000,A,2944.9287,N,10633.0708,E,1.57,20602.92,,,*16
$GPGSA,A,3,03,,,,,,,,,,,,2.0,1.8,1.0*3B
$BDGSA,A,3,10,19,22,,,,,,,,,,2.0,1.8,1.0*20
$GLGSA,A,3,01,12,,,,,,,,,,,2.0,1.8,1.0*26
$GPGSV,2,1,06,03,36,283,44,16,00,000,42,22,00,000,43,23,00,000,43*73
$GPGSV,2,2,06,26,00,000,42,14,54,111,00*78
$BDGSV,2,1,06,02,00,000,41,05,00,000,41,10,65,245,40,18,00,000,43*61
$BDGSV,2,2,06,19,45,295,44,22,02,324,44*6E
$B3CN0,0,0,0,0,0,0,0,0,0,0,0,0,0,0*4C
$GLGSV,1,1,02,01,61,306,39,12,25,261,45*6E
---00000035--- Acq_st=3 0  2019-4-16 1:54:20 
[00]  02(G03)  f 44 10  0  -1343.8  2046001.7 -0.0  2 0 1864 2819 1696
[01]  15(G16)  f 43  7  0  -3478.8  2046004.4  0.1  2 0 2276 1912  621
[02]  21(G22)  f 42  7  0   -215.1  2046000.3  0.1  2 0 1452 2145 1124
[03]  22(G23)  f 43  7  0  -4376.5  2046005.6  0.0  2 0 1457 2569 1296
[04]  25(G26)  f 43  7  0  -1227.0  2046001.5  0.0  2 0 1199 2009  601
[16]  38(B02) 1f 40 24  0  -1075.5  4092002.7  0.3  2 0  883 1363  984
[17]  41(B05) 1f 41 24  0  -1073.6  4092002.6 -0.0  2 0 1223 1136  477
[18]  46(B10) 1f 40 13  0  -1256.0  4092003.2  0.0  2 0 1052 1335  503
[19]  54(B18) 1f 42  7  0  -1021.7  4092002.5 -0.0  2 0 1841 2215  784
[20]  55(B19) 1f 44  7  0  -2138.2  4092005.5 -0.0  2 0 2213 2406 1116
[21]  58(B22) 1f 44  7  0  -3991.1  4092010.3 -0.1  2 0 1965 2599  905
[32]  80(N-1) 8f 39 13  0  -2453.4  1022001.6 -0.4  2 0   545  703  327
[33]  81(N00)  7 26 19  0  -1064.8  1022000.6 -0.3 10 0   252  602  234
[34]  82(N01) 8f 45 15  0  -3105.5  1022001.9  0.0  2 0   962 1797  807
[35]  85(N04)  f 35 19  0  -5321.8  1022003.3  0.1  2 0   611  619  335
[48]  38(B02)  f 18 36  1  -1314.7 20460021.4  0.1  2 0  538  257  466
[49]  41(B05)  1 23 26  1  -1012.3 20460019.7 -0.1  1 0  503  253  344
[50]  46(B10)  1  7  7  0   -274.6 20460022.1  0.1  1 0  184  554  503
[51]  54(B18)  1  7  7  0  -1063.3 20460017.1  0.1  1 0  276  315  596
[52]  55(B19)  1  7  7  0   -775.4 20460034.2  0.0  1 0  555  727  403
[53]  58(B22)  1  7  7  0  -3393.9 20460063.5  0.0  1 0  342   83  811
dyn_stat = 0.233504
Refix G03: 2, 179678.925886, -1343
Refix G14: 1, 179678.929632, 150
$GNGGA,015421.000,2944.9270,N,10633.0711,E,1,06,1.8,370.7,M,,,,0000*19
$GNRMC,015421.000,A,2944.9270,N,10633.0711,E,1.59,20602.92,,,*19
$GPGSA,A,3,03,,,,,,,,,,,,2.0,1.8,1.0*3B
$BDGSA,A,3,10,19,22,,,,,,,,,,2.0,1.8,1.0*20
$GLGSA,A,3,01,12,,,,,,,,,,,2.0,1.8,1.0*26
$GPGSV,2,1,06,03,36,283,44,16,00,000,43,22,00,000,42,23,00,000,43*73
$GPGSV,2,2,06,26,00,000,43,14,54,111,00*79
$BDGSV,2,1,06,02,00,000,40,05,00,000,41,10,65,245,40,18,00,000,42*61
$BDGSV,2,2,06,19,45,295,44,22,02,324,44*6E
$B3CN0,0,18,0,0,0,0,0,0,0,0,0,0,0,0*75
$GLGSV,1,1,02,01,61,306,39,12,25,261,45*6E
---00000036--- Acq_st=7 0  2019-4-16 1:54:21 
[00]  02(G03)  f 44  7  0  -1329.8  2046001.7  0.0  2 0 1953 3023 1453
[01]  15(G16)  f 44  7  0  -3466.7  2046004.4 -0.0  2 0 2725 3202 1052
[02]  21(G22)  f 42  7  0   -204.4  2046000.2 -0.0  2 0  715 1843 1143
[03]  22(G23)  f 43 10  0  -4363.4  2046005.6  0.0  2 0 1276 2084 1218
[04]  25(G26)  f 42  7  0  -1211.8  2046001.5  0.0  2 0 1196 2238 1271
[16]  38(B02) 1f 41 27  0  -1062.8  4092002.7  0.3  2 0  608 1112  665
[17]  41(B05) 1f 42 29  0  -1064.5  4092002.8  0.5  2 0  633 1314  839
[18]  46(B10) 1f 41 16  0  -1236.4  4092003.1  0.0  2 0  866 1285  391
[19]  54(B18) 1f 43  7  0  -1010.0  4092002.6  0.0  2 0 1660 2168 1047
[20]  55(B19) 1f 44  7  0  -2128.7  4092005.5  0.0  2 0 2314 2534  924
[21]  58(B22) 1f 44  7  0  -3976.5  4092010.3  0.0  2 0 1769 2508  769
[32]  80(N-1) 8f 39  7  0  -2440.3  1022001.5 -0.3  2 0   577  763  535
[33]  81(N00)  7 26 20  0  -1054.8  1022000.6 -0.2 10 0   587  241  245
[34]  82(N01) 8f 45 16  0  -3092.5  1022001.9 -0.1  2 0   826 1873 1075
[35]  85(N04)  f 34 20  0  -5306.6  1022003.3 -0.0  2 0   613  379  505
[48]  38(B02)  f 10 19  1  -1560.7 20460026.3  0.0  2 0  532  331  310
[50]  46(B10)  1  7  7  0    100.7 20460019.7  0.0  1 0  540  513  697
[51]  54(B18)  1  7  8  0   -674.1 20460016.2 -0.2  1 0  377  820  592
[52]  55(B19)  1  7  7  0   -194.0 20460034.4 -0.1  1 0  163  341  140
[53]  58(B22)  1  7  7  0  -3348.3 20460064.2  0.1  1 0  591  492  463
dyn_stat = 0.576345
Refix G03: 2, 179679.925887, -1338
Refix G14: 1, 179679.929632, 149
$GNGGA,015422.000,2944.9262,N,10633.0727,E,1,06,1.8,368.5,M,,,,0000*17
$GNRMC,015422.000,A,2944.9262,N,10633.0727,E,3.23,20606.59,,,*10
$GPGSA,A,3,03,,,,,,,,,,,,2.0,1.8,1.0*3B
$BDGSA,A,3,10,19,22,,,,,,,,,,2.0,1.8,1.0*20
