i=1
Rf R0 Config = ff777073
Rf R1 Config = 00dffbfe
Rf R52 Config = 00dfeec0
i=2
Rf R0 Config = 007770f3
Rf R1 Config = 00dffbfe
Rf R52 Config = 00daaed0
i=3
Rf R0 Config = 007770f3
Rf R1 Config = 00df9bfa
Rf R52 Config = 00de4ef0
i=4
Rf R0 Config = 00777273
Rf R1 Config = 00dffbfe
Rf R52 Config = 00dece60
SD initialized success
Create debug.log Failed! 3
Start Channel by LuYu
$GNGGA,000000.000,,,,,0,00,,,M,,,,0000*2B
$GNRMC,000000.000,A,,,,,,,060180,,*29
$GPGSA,A,1,,,,,,,,,,,,,,,*1E
$BDGSA,A,1,,,,,,,,,,,,,,,*0F
$GLGSA,A,1,,,,,,,,,,,,,,,*02
$B3CN0,0,0,0,0,0,0,0,0,0,0,0,0,0,0*4C
---00000001--- Acq_st=3 0  2000-1-1 0:2:3 
[00]  02(G03)  1 24  7  0  -1459.4  2046002.7  0.1  1 0 1641 3270 1825
$GNGGA,000000.000,,,,,0,00,,,M,,,,0000*2B
$GNRMC,000000.000,A,,,,,,,060180,,*29
$GPGSA,A,1,,,,,,,,,,,,,,,*1E
$BDGSA,A,1,,,,,,,,,,,,,,,*0F
$GLGSA,A,1,,,,,,,,,,,,,,,*02
$B3CN0,0,0,0,0,0,0,0,0,0,0,0,0,0,0*4C
---00000002--- Acq_st=3 0  2000-1-1 0:2:4 
[00]  02(G03)  7 21  7  0  -1456.7  2046001.8  0.8 10 0 1516 2858 1469
[01]  15(G16)  1  7  7  0  -3196.8  2046004.5  0.1  1 0  131  272  561
[02]  21(G22)  1  7  7  0   -250.0  2046001.4 -0.1  1 0  340   28 1017
[03]  22(G23)  1  7  7  0  -4500.0  2046007.5 -0.0  1 0  245  637 1962
[04]  25(G26)  1  7  7  0  -1250.0  2046002.4  0.0  1 0  429  324 1009
$GNGGA,000000.000,,,,,0,00,,,M,,,,0000*2B
$GNRMC,000000.000,A,,,,,,,060180,,*29
$GPGSA,A,1,,,,,,,,,,,,,,,*1E
$BDGSA,A,1,,,,,,,,,,,,,,,*0F
$GLGSA,A,1,,,,,,,,,,,,,,,*02
$GPGSV,1,1,01,03,00,000,21*48
$B3CN0,0,0,0,0,0,0,0,0,0,0,0,0,0,0*4C
---00000003--- Acq_st=3 0  2000-1-1 0:2:5 
[00]  02(G03)  7 45  8  0  -1455.2  2046001.8 -0.0  2 0 1634 2939  999
[01]  15(G16)  1 11  7  0  -3581.3  2046007.9 -0.0  1 0  138 1193 2647
[02]  21(G22)  1 29  7  0   -310.8  2046001.9  0.4  1 0 1626 2619 1250
[03]  22(G23)  1 26  7  0  -4386.2  2046005.8  0.6  1 0 1748 2220  852
[04]  25(G26)  1 26  7  0  -1332.2  2046003.5  0.5  1 0 1111 2251 1501
[16]  38(B02)  1 28 10  0  -1250.0  4092005.2 -0.1  1 0  460  659 1173
$GNGGA,000000.000,,,,,0,00,,,M,,,,0000*2B
$GNRMC,000000.000,A,,,,,,,060180,,*29
$GPGSA,A,1,,,,,,,,,,,,,,,*1E
$BDGSA,A,1,,,,,,,,,,,,,,,*0F
$GLGSA,A,1,,,,,,,,,,,,,,,*02
$GPGSV,1,1,01,03,00,000,45*4A
$B3CN0,0,0,0,0,0,0,0,0,0,0,0,0,0,0*4C
---00000004--- Acq_st=3 0  2000-1-1 0:2:6 
[00]  02(G03)  7 44  7  0  -1452.7  2046001.8  0.0  2 0 2143 2829 1372
[01]  15(G16)  7 18  7  0  -3575.3  2046004.4  0.5 10 0 1892 2197  635
[02]  21(G22)  7 32  7  0   -307.0  2046000.3  0.3  5 0 1691 2083  578
[03]  22(G23)  7 31  7  0  -4387.2  2046005.6  0.3  5 0 1359 2042  916
[04]  25(G26)  7 27  7  0  -1327.5  2046001.6  0.6 10 0 1144 1911 1088
[16]  38(B02)  1 10 28  1  -1092.2  4092002.8  0.4  1 0  865  761  779
[17]  41(B05)  1 19 30  1   -924.8  4092001.7 -0.0  1 0  159  260  648
$GNGGA,000000.000,,,,,0,00,,,M,,,,0000*2B
$GNRMC,000000.000,A,,,,,,,060180,,*29
$GPGSA,A,1,,,,,,,,,,,,,,,*1E
$BDGSA,A,1,,,,,,,,,,,,,,,*0F
$GLGSA,A,1,,,,,,,,,,,,,,,*02
$GPGSV,2,1,05,03,00,000,44,16,00,000,18,22,00,000,32,23,00,000,31*70
$GPGSV,2,2,05,26,00,000,27*4D
$B3CN0,0,0,0,0,0,0,0,0,0,0,0,0,0,0*4C
---00000005--- Acq_st=3 0  2000-1-1 0:2:7 
[00]  02(G03)  7 44  7  0  -1449.2  2046001.8 -0.0  2 0 1500 2373 1211
[01]  15(G16)  7 45  7  0  -3573.0  2046004.5 -0.0  2 0 2171 2225  727
[02]  21(G22)  7 43  9  0   -305.0  2046000.3 -0.1  2 0 1616 2577  987
[03]  22(G23)  7 43  7  0  -4382.1  2046005.6  0.0  2 0 1713 2113 1385
[04]  25(G26)  7 42  7  0  -1324.9  2046001.6  0.1  2 0 1480 1929  628
[16]  38(B02)  7 34 17  0  -1091.0  4092002.5  0.0  2 0 1096  408  179
[17]  41(B05)  7 36 21  0  -1087.4  4092003.2  0.8  2 0  276 1032 1676
[18]  46(B10)  1  7  7  0   -693.7  4092002.6  0.0  1 0  397  226  323
$GNGGA,015149.863,,,,,0,00,,,M,,,,0000*2E
$GNRMC,015149.863,A,,,,,,,080180,,*22
$GPGSA,A,1,,,,,,,,,,,,,,,*1E
$BDGSA,A,1,,,,,,,,,,,,,,,*0F
$GLGSA,A,1,,,,,,,,,,,,,,,*02
$GPGSV,2,1,05,03,00,000,44,16,00,000,45,22,00,000,43,23,00,000,43*7B
$GPGSV,2,2,05,26,00,000,42*4E
$BDGSV,1,1,02,02,00,000,33,05,00,000,36*68
$B3CN0,0,0,0,0,0,0,0,0,0,0,0,0,0,0*4C
---00000006--- Acq_st=3 0  2000-1-1 0:2:8 
[00]  02(G03)  f 44  7  0  -1449.9  2046001.8  0.0  2 0 2553 3014 1317
[01]  15(G16)  f 44  7  0  -3572.9  2046004.5  0.0  2 0 2418 3035 1285
[02]  21(G22)  f 43  8  0   -299.0  2046000.3 -0.0  2 0 1349 2242  476
[03]  22(G23)  f 43  7  0  -4381.6  2046005.6  0.0  2 0 1672 2499 1211
[04]  25(G26)  f 42  7  0  -1322.6  2046001.6 -0.1  2 0  890 1492  958
[16]  38(B02)  f 37 27  0  -1090.1  4092002.5  0.7  2 0 1478  652  173
[17]  41(B05)  f 38 25  0  -1082.3  4092003.2  0.5  2 0  139  810 1506
[18]  46(B10)  1  7 10  0   -834.8  4092003.0  0.2  1 0  453  304  163
[19]  54(B18)  1  7  7  0  -1042.1  4092004.6  0.1  1 0  554 1677 1565
[20]  55(B19)  1  7  7  0  -2229.5  4092008.2  0.0  1 0  470 1086 2058
[21]  58(B22)  1  7  7  0  -4000.0  4092012.4 -0.0  1 0  164 1048 1994
$GNGGA,015150.863,,,,,0,00,,,M,,,,0000*26
$GNRMC,015150.863,A,,,,,,,080180,,*2A
$GPGSA,A,1,,,,,,,,,,,,,,,*1E
$BDGSA,A,1,,,,,,,,,,,,,,,*0F
$GLGSA,A,1,,,,,,,,,,,,,,,*02
$GPGSV,2,1,05,03,00,000,44,16,00,000,44,22,00,000,43,23,00,000,43*7A
$GPGSV,2,2,05,26,00,000,42*4E
$BDGSV,1,1,02,02,00,000,37,05,00,000,38*62
$B3CN0,0,0,0,0,0,0,0,0,0,0,0,0,0,0*4C
---00000007--- Acq_st=3 0  2000-1-1 0:2:9 
[00]  02(G03)  f 44  7  0  -1451.1  2046001.8  0.0  2 0 2604 3646 1745
[01]  15(G16)  f 44  9  0  -3574.2  2046004.5 -0.0  2 0 2144 2943 1163
[02]  21(G22)  f 43  8  0   -302.6  2046000.3  0.0  2 0 1798 2551  898
[03]  22(G23)  f 44  7  0  -4383.7  2046005.6  0.0  2 0 2175 2933 1140
[04]  25(G26)  f 42  7  0  -1325.2  2046001.6  0.0  2 0 1387 1957  965
[16]  38(B02) 1f 37 26  0  -1090.3  4092002.5  0.5  2 0 1409  631  101
[17]  41(B05) 1f 40 25  0  -1089.2  4092003.1 -0.2  2 0  259 1003 1051
[18]  46(B10)  1  7  7  0  -1852.9  4092002.8  0.1  1 0  371  244  733
[19]  54(B18)  7 20  7  0  -1043.0  4092002.6  0.4 10 0 1621 2128  630
[20]  55(B19)  7  9  7  0  -2230.4  4092005.7  0.5 10 0 1414 1764 1161
[21]  58(B22)  1  7  8  0  -4037.6  4092010.6  0.4  1 0 1554 2039  670
[48]  38(B02)  1 10 10  1   -735.8 20460018.6 -0.0  1 0  494  525  283
[49]  41(B05)  1 21 22  0   -650.7 20460013.9  0.1  1 0  439  290  162
$GNGGA,015151.863,,,,,0,00,,,M,,,,0000*27
$GNRMC,015151.863,A,,,,,,,080180,,*2B
$GPGSA,A,1,,,,,,,,,,,,,,,*1E
$BDGSA,A,1,,,,,,,,,,,,,,,*0F
$GLGSA,A,1,,,,,,,,,,,,,,,*02
$GPGSV,2,1,05,03,00,000,44,16,00,000,44,22,00,000,43,23,00,000,44*7D
$GPGSV,2,2,05,26,00,000,42*4E
$BDGSV,1,1,03,02,00,000,36,05,00,000,40,18,00,000,18*5D
$B3CN0,0,0,0,0,0,0,0,0,0,0,0,0,0,0*4C
---00000008--- Acq_st=3 0  2000-1-1 0:2:10 
[00]  02(G03)  f 44  7  0  -1448.7  2046001.8 -0.0  2 0 2420 3542 1259
[01]  15(G16)  f 43  7  0  -3566.6  2046004.5  0.0  2 0 2047 3121 1527
[02]  21(G22)  f 44  7  0   -300.4  2046000.3 -0.0  2 0 1899 2595 1121
[03]  22(G23)  f 43  7  0  -4380.9  2046005.6  0.0  2 0 2052 3067 1165
[04]  25(G26)  f 43  8  0  -1320.7  2046001.6  0.0  2 0 1545 2088  919
[16]  38(B02) 1f 38 21  0  -1088.4  4092002.6 -0.4  2 0 1691 1421  242
[17]  41(B05) 1f 41 18  0  -1081.7  4092002.9  0.3  2 0  839 1501 1124
[18]  46(B10)  1  7  7  0  -1619.1  4092003.0  0.1  1 0  565  701  291
[19]  54(B18)  7 43  8  0  -1040.0  4092002.6 -0.0  2 0 1702 2146  986
[20]  55(B19)  7 43 14  0  -2224.8  4092005.7 -0.0  2 0 1318 1706  471
[21]  58(B22)  7 31  7  0  -4030.4  4092010.5  0.2  5 0 1912 2138 1043
[48]  38(B02)  7 10 10  1  -1084.6 20460018.4 -0.1  2 0  300  172  605
[49]  41(B05)  1 25 19  1   -560.2 20460020.3  0.1  1 0  622  474  275
$GNGGA,015152.863,,,,,0,00,,,M,,,,0000*24
$GNRMC,015152.863,A,,,,,,,080180,,*28
$GPGSA,A,1,,,,,,,,,,,,,,,*1E
$BDGSA,A,1,,,,,,,,,,,,,,,*0F
$GLGSA,A,1,,,,,,,,,,,,,,,*02
$GPGSV,2,1,05,03,00,000,44,16,00,000,43,22,00,000,44,23,00,000,43*7A
$GPGSV,2,2,05,26,00,000,43*4F
$BDGSV,2,1,05,02,00,000,38,05,00,000,41,18,00,000,43,19,00,000,43*66
$BDGSV,2,2,05,22,00,000,31*5F
$B3CN0,0,0,0,0,0,0,0,0,0,0,0,0,0,0*4C
---00000009--- Acq_st=7 0  2000-1-1 0:2:11 
[00]  02(G03)  f 44  7  0  -1447.7  2046001.8  0.1  2 0 1861 3334 1458
[01]  15(G16)  f 44  7  0  -3569.2  2046004.6  0.0  2 0 2276 3432 1401
[02]  21(G22)  f 44  7  0   -299.5  2046000.3  0.1  2 0 1638 2806 1098
[03]  22(G23)  f 44  7  0  -4378.9  2046005.6  0.0  2 0 1399 2393 1040
[04]  25(G26)  f 42  7  0  -1324.5  2046001.6 -0.0  2 0 1690 2170 1081
[16]  38(B02) 1f 39 25  0  -1087.9  4092002.8 -0.5  2 0  989 1126  583
[17]  41(B05) 1f 43 23  0  -1084.7  4092002.8 -0.2  2 0  965 1324 1016
[19]  54(B18)  7 42  7  0  -1037.6  4092002.6 -0.0  2 0 1454 1946  962
[20]  55(B19)  7 43  7  0  -2226.4  4092005.7  0.1  2 0 1410 2185  959
[21]  58(B22)  7 44 11  0  -4029.9  4092010.5 -0.0  2 0 1712 2271  826
[32]  80(N-1)  1 25 18  0  -2586.3  1022004.0  0.4  1 0   157  644  954
[33]  81(N00)  1 26 23  0  -1081.3  1022001.6  0.5  1 0   463  619  218
[34]  82(N01)  1 28 26  0  -3173.3  1022003.4  0.3  1 0   725 1170  702
[35]  85(N04)  1 14  7  0  -5250.0  1022004.3  0.1  1 0    77  191  482
[48]  38(B02)  7 19 21  1  -1632.4 20460025.5 -0.0  2 0  195  139  115
[49]  41(B05)  1 26 16  0   -996.2 20460020.2  0.0  1 0  910  313  461
$GNGGA,015153.863,,,,,0,00,,,M,,,,0000*25
$GNRMC,015153.863,A,,,,,,,080180,,*29
$GPGSA,A,1,,,,,,,,,,,,,,,*1E
$BDGSA,A,1,,,,,,,,,,,,,,,*0F
$GLGSA,A,1,,,,,,,,,,,,,,,*02
$GPGSV,2,1,05,03,00,000,44,16,00,000,44,22,00,000,44,23,00,000,44*7A
$GPGSV,2,2,05,26,00,000,42*4E
$BDGSV,2,1,05,02,00,000,39,05,00,000,43,18,00,000,42,19,00,000,43*64
$BDGSV,2,2,05,22,00,000,44*5D
$B3CN0,0,22,0,0,0,0,0,0,0,0,0,0,0,0*7C
---00000010--- Acq_st=7 0  2000-1-1 0:2:12 
[00]  02(G03)  f 46  7  0  -1444.8  2046001.8 -0.0  2 0 2171 3637 1732
[01]  15(G16)  f 44  8  0  -3566.5  2046004.6  0.0  2 0 2364 2989 1354
[02]  21(G22)  f 44  7  0   -298.6  2046000.3 -0.0  2 0 1945 2972  906
[03]  22(G23)  f 44  7  0  -4378.9  2046005.6  0.0  2 0 1633 2104 1003
[04]  25(G26)  f 43 11  0  -1320.1  2046001.6 -0.0  2 0 1308 2058 1110
[16]  38(B02) 1f 39 27  0  -1087.1  4092002.6  0.3  2 0 1273 1217  309
[17]  41(B05) 1f 41 22  0  -1085.7  4092002.8 -0.0  2 0 1209 1920  869
[19]  54(B18)  7 42  7  0  -1039.8  4092002.6 -0.1  2 0 1855 2092  785
[20]  55(B19)  7 43  7  0  -2227.6  4092005.7  0.0  2 0 1707 2094  408
[21]  58(B22)  7 43 13  0  -4025.9  4092010.5  0.0  2 0 1543 2602 1359
[32]  80(N-1)  1 28  9  0  -2585.1  1022001.6  0.9  1 0   757  848  187
[33]  81(N00)  1 24  7  0  -1081.3  1022000.3  0.8  1 0   623  571  265
[34]  82(N01)  1 32 31  0  -3171.0  1022001.5  1.0  1 0   639 1104  740
[35]  85(N04)  1 19 20  0  -5343.5  1022005.9 -0.0  1 0   218  628  666
[48]  38(B02)  7 10 10  1  -1985.5 20460032.5 -0.0  2 0  547   83  306
[49]  41(B05)  1 23 22  1   -887.1 20460024.7 -0.1  1 0  342  247  351
$GNGGA,015154.863,,,,,0,00,,,M,,,,0000*22
$GNRMC,015154.863,A,,,,,,,080180,,*2E
$GPGSA,A,1,,,,,,,,,,,,,,,*1E
$BDGSA,A,1,,,,,,,,,,,,,,,*0F
$GLGSA,A,1,,,,,,,,,,,,,,,*02
$GPGSV,2,1,05,03,00,000,46,16,00,000,44,22,00,000,44,23,00,000,44*78
$GPGSV,2,2,05,26,00,000,43*4F
$BDGSV,2,1,05,02,00,000,38,05,00,000,41,18,00,000,42,19,00,000,43*67
$BDGSV,2,2,05,22,00,000,43*5A
$B3CN0,0,0,0,0,0,0,0,0,0,0,0,0,0,0*4C
---00000011--- Acq_st=3 0  2000-1-1 0:2:13 
[00]  02(G03)  f 46  7  0  -1445.7  2046001.8 -0.0  2 0 2804 3478 1622
[01]  15(G16)  f 44  7  0  -3565.7  2046004.6  0.0  2 0 1497 3032 1249
[02]  21(G22)  f 44  7  0   -297.0  2046000.3  0.0  2 0 1963 3580 1528
[03]  22(G23)  f 43  7  0  -4379.3  2046005.6 -0.0  2 0 1969 3441 1988
[04]  25(G26)  f 43 10  0  -1316.3  2046001.6  0.0  2 0 1446 2325  911
[16]  38(B02) 1f 40 24  0  -1083.4  4092002.8 -0.8  2 0 1227 1591  986
[17]  41(B05) 1f 41 22  0  -1082.2  4092002.8 -0.4  2 0  899 1714  636
[19]  54(B18)  7 42  7  0  -1037.2  4092002.6  0.1  2 0 1321 1414  252
[20]  55(B19)  7 43 11  0  -2223.5  4092005.7  0.0  2 0 1808 2283  813
[21]  58(B22)  7 43  7  0  -4027.2  4092010.4 -0.0  2 0 1589 2125  809
[32]  80(N-1)  7 31  7  0  -2584.4  1022001.6  0.4  5 0   448  662  339
[33]  81(N00)  7 28  7  0  -1080.3  1022000.7  0.1 10 0   426  864  700
[34]  82(N01)  7 27 24  0  -3169.3  1022001.9  0.4 10 0   201  608  667
[35]  85(N04)  1 26 26  0  -5357.9  1022003.6  0.4  1 0   207   72  255
[48]  38(B02)  7 36 10  0  -2357.5 20460038.6  0.1  2 0  544  110  258
$GNGGA,015155.863,,,,,0,00,,,M,,,,0000*23
$GNRMC,015155.863,A,,,,,,,080180,,*2F
$GPGSA,A,1,,,,,,,,,,,,,,,*1E
$BDGSA,A,1,,,,,,,,,,,,,,,*0F
$GLGSA,A,1,,,,,,,,,,,,,,,*02
$GPGSV,2,1,05,03,00,000,46,16,00,000,44,22,00,000,43,23,00,000,43*78
$GPGSV,2,2,05,26,00,000,43*4F
$BDGSV,2,1,05,02,00,000,41,05,00,000,41,18,00,000,42,19,00,000,43*69
$BDGSV,2,2,05,22,00,000,43*5A
$B3CN0,0,36,0,0,0,0,0,0,0,0,0,0,0,0*79
---00000012--- Acq_st=3 0  2000-1-1 0:2:14 
[00]  02(G03)  f 45  7  0  -1443.2  2046001.8  0.0  2 0 2148 3379 1052
[01]  15(G16)  f 45  7  0  -3567.5  2046004.5 -0.0  2 0 2454 3481 1206
[02]  21(G22)  f 44  8  0   -296.0  2046000.3 -0.0  2 0 1913 3127 1789
[03]  22(G23)  f 44  7  0  -4378.1  2046005.6  0.0  2 0 1800 3050 1406
[04]  25(G26)  f 43  7  0  -1319.2  2046001.6 -0.0  2 0 1403 2426 1289
[16]  38(B02) 1f 41 27  0  -1082.9  4092002.8 -0.4  2 0 1478 1369  888
[17]  41(B05) 1f 41 24  0  -1076.1  4092002.5 -0.4  2 0 1191 1100  100
[19]  54(B18)  7 42  7  0  -1038.0  4092002.6 -0.0  2 0 1066 1680  658
[20]  55(B19)  7 43  7  0  -2221.7  4092005.7 -0.0  2 0 1744 1966  796
[21]  58(B22)  7 43  7  0  -4025.4  4092010.5 -0.0  2 0 1873 2014  523
[32]  80(N-1)  7 39 14  0  -2582.1  1022001.6 -0.3  2 0   297  785  559
[33]  81(N00)  7 38 15  0  -1081.8  1022000.7  0.5  2 0   478  931  341
[34]  82(N01)  7 36 31  0  -3170.9  1022002.0  0.3  2 0   278  506  301
[35]  85(N04)  1 26 25  0  -5340.5  1022003.4  0.3  1 0   327  566  156
[49]  41(B05)  1 25 24  0   -732.1 20460018.3  0.1  1 0  529  464  828
$GNGGA,015156.863,,,,,0,00,,,M,,,,0000*20
$GNRMC,015156.863,A,,,,,,,160419,,*26
$GPGSA,A,1,,,,,,,,,,,,,,,*1E
$BDGSA,A,1,,,,,,,,,,,,,,,*0F
$GLGSA,A,1,,,,,,,,,,,,,,,*02
$GPGSV,2,1,05,03,00,000,45,16,00,000,45,22,00,000,45,23,00,000,44*7B
$GPGSV,2,2,05,26,00,000,44*48
$BDGSV,2,1,05,02,00,000,41,05,00,000,41,18,00,000,42,19,00,000,43*69
$BDGSV,2,2,05,22,00,000,43*5A
$B3CN0,0,0,0,0,0,0,0,0,0,0,0,0,0,0*4C
---00000013--- Acq_st=3 0  2000-1-1 0:2:15 
[00]  02(G03)  f 45  7  0  -1437.7  2046001.8 -0.0  2 0 2462 3151 1738
[01]  15(G16)  f 45  7  0  -3559.8  2046004.6  0.0  2 0 2311 3801 1980
[02]  21(G22)  f 45 11  0   -292.4  2046000.3 -0.0  2 0 1997 3015 1206
[03]  22(G23)  f 44  7  0  -4372.9  2046005.6  0.0  2 0 1588 2716 1789
[04]  25(G26)  f 44  7  0  -1315.6  2046001.6  0.1  2 0 1492 2353 1563
[16]  38(B02) 1f 41 24  0  -1080.7  4092002.6 -0.3  2 0  576  593  222
[17]  41(B05) 1f 41 21  0  -1073.9  4092002.7  0.0  2 0 1304 1980  883
[19]  54(B18)  7 42  7  0  -1032.5  4092002.6  0.0  2 0 1245 1599  314
[20]  55(B19)  7 43  7  0  -2217.3  4092005.7  0.1  2 0 1682 2336 1095
[21]  58(B22)  7 43  7  0  -4017.9  4092010.4 -0.0  2 0 1587 1611  627
[32]  80(N-1)  7 39 17  0  -2576.4  1022001.6 -0.4  2 0   462  903  648
[33]  81(N00)  7 38 16  0  -1076.7  1022000.7  0.1  2 0    92  485  485
[34]  82(N01)  7 37 31  0  -3164.1  1022002.0 -0.3  2 0   648  444  176
[35]  85(N04)  1 26 28  0  -5339.2  1022003.2  0.7  1 0   199  512  180
[48]  38(B02)  1 10 19  0  -1141.7 20460014.7  0.0  1 0  568   91  182
[49]  41(B05)  1 25 22  1  -1315.2 20460015.0 -0.2  1 0  540  808  745
---00000014--- Acq_st=3 0  2000-1-1 0:2:16 
[00]  02(G03)  f 45  7  0  -1438.7  2046001.8 -0.0  2 0 1550 2983 1534
[01]  15(G16)  f 45  7  0  -3561.4  2046004.6  0.1  2 0 1999 3225 1635
[02]  21(G22)  f 44  7  0   -293.3  2046000.3 -0.0  2 0 1811 2927  992
[03]  22(G23)  f 43  7  0  -4378.6  2046005.7 -0.0  2 0  942 2533 1551
[04]  25(G26)  f 44  7  0  -1314.0  2046001.6 -0.0  2 0 1142 2009  794
[16]  38(B02) 1f 40 24  0  -1081.9  4092002.7  0.4  2 0  909 1324  555
[17]  41(B05) 1f 41 26  0  -1079.1  4092002.5  0.0  2 0  966 1046  162
[18]  46(B10)  1  7  7  0  -1250.0  4092004.7  0.1  1 0  296 1619 1360
[19]  54(B18) 1f 42  9  0  -1037.1  4092002.6 -0.1  2 0 1448 1810  822
[20]  55(B19) 1f 43  7  0  -2218.6  4092005.7 -0.0  2 0 1716 2090  786
[21]  58(B22) 1f 43  8  0  -4019.9  4092010.4  0.0  2 0 1796 2590  980
[32]  80(N-1)  7 39 17  0  -2576.5  1022001.6  0.1  2 0   379  632  423
[33]  81(N00)  7 37 16  0  -1078.1  1022000.7  0.2  2 0   447  683  455
[34]  82(N01)  7 37 30  0  -3165.3  1022001.9 -0.2  2 0   613  778  497
[48]  38(B02)  1 10 10  0   -745.9 20460017.0  0.1  1 0  111  330  448
[49]  41(B05)  1 22 26  1   -911.7 20460020.3  0.0  1 0  313  162  259
$GNGGA,015157.863,,,,,0,00,,,M,,,,0000*21
$GNRMC,015157.863,A,,,,,,,160419,,*27
$GPGSA,A,1,,,,,,,,,,,,,,,*1E
$BDGSA,A,1,,,,,,,,,,,,,,,*0F
$GLGSA,A,1,,,,,,,,,,,,,,,*02
$GPGSV,2,1,05,03,00,000,45,16,00,000,45,22,00,000,44,23,00,000,43*7D
$GPGSV,2,2,05,26,00,000,44*48
$BDGSV,2,1,05,02,00,000,40,05,00,000,41,18,00,000,42,19,00,000,43*68
$BDGSV,2,2,05,22,00,000,43*5A
$B3CN0,0,0,0,0,0,0,0,0,0,0,0,0,0,0*4C
---00000015--- Acq_st=3 0  2000-1-1 0:2:17 
[00]  02(G03)  f 45  8  0  -1440.1  2046001.8  0.1  2 0 2498 3675 1533
[01]  15(G16)  f 44  7  0  -3559.8  2046004.6 -0.0  2 0 1390 2796 1355
[02]  21(G22)  f 44  7  0   -293.5  2046000.3 -0.0  2 0 1662 2865 1400
[03]  22(G23)  f 43  7  0  -4376.0  2046005.7  0.0  2 0  812 2148 1082
[04]  25(G26)  f 43  7  0  -1313.2  2046001.6 -0.0  2 0 1300 2216 1096
[16]  38(B02) 1f 41 25  0  -1086.2  4092002.6 -0.2  2 0 1104 1477  797
[17]  41(B05) 1f 42 23  0  -1080.2  4092002.8  0.1  2 0 1270 1481  757
[18]  46(B10)  1  7  7  0  -1273.6  4092003.4 -0.1  1 0 1025 1410  461
[19]  54(B18) 1f 42  7  0  -1034.8  4092002.6  0.1  2 0 1669 2040  731
[20]  55(B19) 1f 43  7  0  -2217.4  4092005.7 -0.0  2 0 1653 2241  816
[21]  58(B22) 1f 43  7  0  -4024.1  4092010.4 -0.0  2 0 1252 1691  815
[32]  80(N-1)  f 34  7  0  -2578.4  1022001.6 -0.1  5 0   213  665  606
[33]  81(N00)  f 33  7  0  -1076.2  1022000.6 -0.1  5 0   132  655  252
[34]  82(N01)  f 33 19  0  -3165.3  1022002.0  0.0  5 0   438 1001  689
[48]  38(B02)  1 10 19  0   -768.4 20460021.7  0.0  1 0  260  337  405
[49]  41(B05)  1 26 21  1   -924.5 20460021.0 -0.1  1 0  205  497  686
[51]  54(B18)  1  7  7  0   -853.3 20460015.6 -0.0  1 0  467  308  322
[52]  55(B19)  1  7  7  0  -2112.8 20460035.3  0.0  1 0  479 1055  777
[53]  58(B22)  1  7  7  0  -3293.5 20460064.5 -0.0  1 0  486   36  391
$GNGGA,015158.863,,,,,0,00,,,M,,,,0000*2E
$GNRMC,015158.863,A,,,,,,,160419,,*28
$GPGSA,A,1,,,,,,,,,,,,,,,*1E
$BDGSA,A,1,,,,,,,,,,,,,,,*0F
$GLGSA,A,1,,,,,,,,,,,,,,,*02
$GPGSV,2,1,05,03,00,000,45,16,00,000,44,22,00,000,44,23,00,000,43*7C
$GPGSV,2,2,05,26,00,000,43*4F
$BDGSV,2,1,05,02,00,000,41,05,00,000,42,18,00,000,42,19,00,000,43*6A
$BDGSV,2,2,05,22,00,000,43*5A
$B3CN0,0,0,0,0,0,0,0,0,0,0,0,0,0,0*4C
---00000016--- Acq_st=3 0  2000-1-1 0:2:18 
[00]  02(G03)  f 45 10  0  -1436.5  2046001.8 -0.0  2 0 2238 3565 1708
[01]  15(G16)  f 44  7  0  -3561.4  2046004.6  0.0  2 0 1760 2897 1546
[02]  21(G22)  f 44  7  0   -288.6  2046000.3  0.0  2 0 2028 2794 1054
[03]  22(G23)  f 43  7  0  -4377.4  2046005.7  0.0  2 0 1371 2045 1106
[04]  25(G26)  f 43  8  0  -1311.4  2046001.7  0.0  2 0 1872 2589 1495
[16]  38(B02) 1f 41 25  0  -1083.3  4092002.8 -0.5  2 0 1012 1407  694
[17]  41(B05) 1f 41 24  0  -1077.1  4092002.7 -0.5  2 0  733 1280  514
[18]  46(B10)  7 36  7  0  -1268.2  4092003.2  0.1  2 0  939 1360  468
[19]  54(B18) 1f 43  7  0  -1034.2  4092002.6  0.0  2 0 1298 1585  511
[20]  55(B19) 1f 43 16  0  -2217.2  4092005.7  0.0  2 0 2212 2156  607
[21]  58(B22) 1f 43  9  0  -4020.9  4092010.4 -0.0  2 0 1763 2224 1166
[32]  80(N-1)  f 38  7  0  -2576.7  1022001.7  0.3  2 0   555  795  505
[33]  81(N00)  f 36  7  0  -1075.6  1022000.7 -0.1  2 0   334  582  420
[34]  82(N01)  f 37  7  0  -3163.7  1022001.9 -0.2  2 0   704 1040  329
[48]  38(B02)  1 10 10  0   -798.4 20460018.0 -0.0  1 0  326  169  552
[51]  54(B18)  1  7  7  0   -745.3 20460015.3 -0.1  1 0  327  707  907
[52]  55(B19)  1 12  8  0  -2426.1 20460035.1  0.3  1 0  209  330  323
[53]  58(B22)  1  7  7  0  -3230.8 20460064.4 -0.1  1 0  274  263  491
$GNGGA,015159.863,,,,,0,00,,,M,,,,0000*2F
$GNRMC,015159.863,A,,,,,,,160419,,*29
$GPGSA,A,1,,,,,,,,,,,,,,,*1E
$BDGSA,A,1,,,,,,,,,,,,,,,*0F
$GLGSA,A,1,,,,,,,,,,,,,,,*02
$GPGSV,2,1,05,03,00,000,45,16,00,000,44,22,00,000,44,23,00,000,43*7C
$GPGSV,2,2,05,26,00,000,43*4F
$BDGSV,2,1,06,02,00,000,41,05,00,000,41,10,00,000,36,18,00,000,43*60
$BDGSV,2,2,06,19,00,000,43,22,00,000,43*66
$B3CN0,0,0,0,0,0,0,0,0,0,0,0,0,0,0*4C
---00000017--- Acq_st=3 0  2000-1-1 0:2:19 
[00]  02(G03)  f 45  7  0  -1439.8  2046001.8  0.0  2 0 1917 3199 1214
[01]  15(G16)  f 43  7  0  -3561.9  2046004.6 -0.0  2 0 1199 2430 1268
[02]  21(G22)  f 44  7  0   -294.2  2046000.3 -0.0  2 0 1794 2509 1107
[03]  22(G23)  f 42  7  0  -4375.7  2046005.6 -0.0  2 0  926 2138  881
[04]  25(G26)  f 43  7  0  -1313.4  2046001.7  0.0  2 0 1318 2218 1191
[16]  38(B02) 1f 41 26  0  -1085.4  4092002.8  0.4  2 0 1221 1423  553
[17]  41(B05) 1f 41 18  0  -1081.6  4092002.7 -0.0  2 0 1170 1473  753
[18]  46(B10)  7 42  8  0  -1269.3  4092003.2  0.0  2 0 1295 1776  757
[19]  54(B18) 1f 42  7  0  -1036.5  4092002.6  0.0  2 0  840 1187  499
[20]  55(B19) 1f 44  7  0  -2218.8  4092005.7 -0.0  2 0 1739 1820  455
[21]  58(B22) 1f 43  9  0  -4021.8  4092010.4 -0.1  2 0 1616 2339 1000
[32]  80(N-1)  f 38  7  0  -2579.5  1022001.6 -0.2  2 0   472  636  312
[33]  81(N00)  f 35  7  0  -1077.7  1022000.6  0.3  2 0   627  526  445
[34]  82(N01)  f 39 16  0  -3164.8  1022002.0  0.0  2 0   580  948  357
[35]  75(N-6)  1  7  7  0 8441666.5  1022000.3  0.0  1 0   478  395  330
[48]  38(B02)  f 14 10  1  -1087.2 20460016.2  0.0  2 0  470  654  602
[49]  41(B05)  1 21 27  1   -808.3 20460012.0 -0.0  1 0  185   91  860
[51]  54(B18)  1  7  7  0   -436.2 20460015.5  0.1  1 0  330  515 1074
[52]  55(B19)  1  7  7  0  -2410.4 20460035.1  0.0  1 0  550  263  523
[53]  58(B22)  1  7  7  0  -3125.7 20460063.0  0.1  1 0  567  286  316
$GNGGA,015200.863,,,,,0,00,,,M,,,,0000*20
$GNRMC,015200.863,A,,,,,,,160419,,*26
$GPGSA,A,1,,,,,,,,,,,,,,,*1E
$BDGSA,A,1,,,,,,,,,,,,,,,*0F
$GLGSA,A,1,,,,,,,,,,,,,,,*02
$GPGSV,2,1,05,03,00,000,45,16,00,000,43,22,00,000,44,23,00,000,42*7A
$GPGSV,2,2,05,26,00,000,43*4F
$BDGSV,2,1,06,02,00,000,41,05,00,000,41,10,00,000,42,18,00,000,42*62
$BDGSV,2,2,06,19,00,000,44,22,00,000,43*61
$B3CN0,0,0,0,0,0,0,0,0,0,0,0,0,0,0*4C
---00000018--- Acq_st=7 0  2000-1-1 0:2:20 
[00]  02(G03)  f 45 11  0  -1436.3  2046001.8 -0.1  2 0 2240 3033 1358
[01]  15(G16)  f 44  7  0  -3560.6  2046004.5  0.0  2 0 1695 2718  969
[02]  21(G22)  f 44  7  0   -292.0  2046000.3  0.0  2 0 1627 2691 1087
[03]  22(G23)  f 43  7  0  -4380.8  2046005.6 -0.0  2 0 1543 2539 1300
[04]  25(G26)  f 44  7  0  -1311.4  2046001.6 -0.1  2 0 1117 2313 1067
[16]  38(B02) 1f 41 22  0  -1082.2  4092002.8  0.5  2 0 1076 1539  549
[17]  41(B05) 1f 42 24  0  -1083.0  4092002.7  0.4  2 0 1095 1418  791
[18]  46(B10)  7 42  7  0  -1271.1  4092003.2 -0.1  2 0 1018 1347  768
[19]  54(B18) 1f 43  7  0  -1036.6  4092002.6  0.0  2 0 1281 1599  364
[20]  55(B19) 1f 43 10  0  -2216.7  4092005.7 -0.0  2 0 2017 2040  745
[21]  58(B22) 1f 44 10  0  -4023.0  4092010.4 -0.0  2 0 1796 2023  441
[32]  80(N-1)  f 38  7  0  -2575.7  1022001.5 -0.3  2 0   708  769  245
[33]  81(N00)  f 34  7  0  -1079.8  1022000.7 -0.0  2 0   531  433  336
[34]  82(N01)  f 39  7  0  -3166.8  1022002.0  0.1  2 0   544  670  277
[35]  75(N-6)  1 16 14  0 8441666.5  1021999.6  0.1  1 0   307   74  128
[48]  38(B02)  f 10 36  1  -1096.3 20460015.5  0.0  2 0  259  275  450
[49]  41(B05)  1 24 26  0   -316.5 20460016.2 -0.1  1 0  400  516  496
[51]  54(B18)  1 13  7  0     -0.6 20460015.9 -0.0  1 0  537  395  336
[52]  55(B19)  1  7  7  0  -2885.7 20460035.3 -0.1  1 0  443  404  263
[53]  58(B22)  1  7  7  0  -2638.3 20460064.1 -0.2  1 0  304  561  389
$GNGGA,015201.863,,,,,0,00,,,M,,,,0000*21
$GNRMC,015201.863,A,,,,,,,160419,,*27
$GPGSA,A,1,,,,,,,,,,,,,,,*1E
$BDGSA,A,1,,,,,,,,,,,,,,,*0F
$GLGSA,A,1,,,,,,,,,,,,,,,*02
$GPGSV,2,1,05,03,00,000,45,16,00,000,44,22,00,000,44,23,00,000,43*7C
$GPGSV,2,2,05,26,00,000,44*48
$BDGSV,2,1,06,02,00,000,41,05,00,000,41,10,00,000,42,18,00,000,43*63
$BDGSV,2,2,06,19,00,000,43,22,00,000,44*61
$B3CN0,0,36,0,0,0,0,0,0,0,0,0,0,0,0*79
---00000019--- Acq_st=7 0  2000-1-1 0:2:21 
[00]  02(G03)  f 44  7  0  -1435.3  2046001.8  0.0  2 0 2163 3464 1725
[01]  15(G16)  f 44  7  0  -3559.5  2046004.5  0.0  2 0 1825 2997 1926
[02]  21(G22)  f 44  7  0   -289.9  2046000.4 -0.1  2 0 1558 2520  589
[03]  22(G23)  f 42  7  0  -4376.8  2046005.6  0.1  2 0 1223 2392 1395
[04]  25(G26)  f 43  7  0  -1307.1  2046001.6 -0.1  2 0 1457 2427 1459
[16]  38(B02) 1f 40 25  0  -1074.5  4092002.6  0.0  2 0  892 1136  615
[17]  41(B05) 1f 41 27  0  -1077.0  4092002.7  0.7  2 0 1265 1509  796
[18]  46(B10)  7 42  7  0  -1269.7  4092003.2  0.0  2 0 1448 1659  621
[19]  54(B18) 1f 43  7  0  -1035.7  4092002.6 -0.0  2 0 1494 2052 1213
[20]  55(B19) 1f 44  7  0  -2216.2  4092005.7 -0.0  2 0 1485 2334 1266
[21]  58(B22) 1f 43  8  0  -4020.7  4092010.4  0.1  2 0 1809 2736 1067
[32]  80(N-1) 8f 38  7  0  -2574.6  1022001.6  0.2  2 0   218  729  675
[33]  81(N00) 8f 34  7  0  -1078.4  1022000.8 -0.1  2 0   423  370  411
[34]  82(N01) 8f 39 17  0  -3160.7  1022002.0 -0.4  2 0   314  696  541
[35]  75(N-6)  1 17 20  0 8441666.5  1022000.4 -0.0  1 0   382  145  168
[48]  38(B02)  f 16 10  0  -1321.4 20460021.4 -0.1  2 0  118  151  124
[49]  41(B05)  1 25 25  0   -840.5 20460019.3 -0.0  1 0  522  407  509
$GNGGA,015202.863,,,,,0,00,,,M,,,,0000*22
$GNRMC,015202.863,A,,,,,,,160419,,*24
$GPGSA,A,1,,,,,,,,,,,,,,,*1E
$BDGSA,A,1,,,,,,,,,,,,,,,*0F
$GLGSA,A,1,,,,,,,,,,,,,,,*02
$GPGSV,2,1,05,03,00,000,44,16,00,000,44,22,00,000,44,23,00,000,42*7C
$GPGSV,2,2,05,26,00,000,43*4F
$BDGSV,2,1,06,02,00,000,40,05,00,000,41,10,00,000,42,18,00,000,43*62
$BDGSV,2,2,06,19,00,000,44,22,00,000,43*61
$B3CN0,0,16,0,0,0,0,0,0,0,0,0,0,0,0*7B
---00000020--- Acq_st=3 0  2000-1-1 0:2:22 
[00]  02(G03)  f 44  7  0  -1434.2  2046001.8 -0.0  2 0 2147 3799 1925
[01]  15(G16)  f 44  7  0  -3556.8  2046004.5 -0.0  2 0 2344 3380 1242
[02]  21(G22)  f 44  7  0   -286.8  2046000.3  0.0  2 0 1553 2287  982
[03]  22(G23)  f 42  7  0  -4372.5  2046005.6  0.0  2 0 1754 1896  678
[04]  25(G26)  f 43  7  0  -1309.6  2046001.6  0.0  2 0 1485 2039  801
[16]  38(B02) 1f 39 24  0  -1081.6  4092002.8  0.2  2 0 1041 1385  840
[17]  41(B05) 1f 41 25  0  -1077.0  4092002.7 -0.7  2 0 1215 1421  842
[18]  46(B10) 1f 41  8  0  -1268.6  4092003.2  0.0  2 0  747 1365  435
[19]  54(B18) 1f 43  7  0  -1033.1  4092002.6 -0.1  2 0 1834 2052  651
[20]  55(B19) 1f 44  8  0  -2213.3  4092005.7 -0.0  2 0 1462 2185 1048
[21]  58(B22) 1f 43  9  0  -4019.5  4092010.4  0.0  2 0 2026 2279  617
[32]  80(N-1) 8f 39  7  0  -2572.2  1022001.6  0.5  2 0   534  733  489
[33]  81(N00) 8f 34  7  0  -1074.8  1022000.6  0.0  2 0   577  341  151
[34]  82(N01) 8f 40  7  0  -3159.6  1022002.0  0.2  2 0   652  975  429
[35]  75(N-6)  1 15 14  0 8441666.5  1022000.0  0.0  1 0   170  196  238
[48]  38(B02)  f 16 10  1  -1990.2 20460033.2  0.1  2 0  153  102  475
[49]  41(B05)  1 25 25  1   -620.5 20460020.6 -0.0  1 0  506  575  558
[51]  54(B18)  1  7  7  0   -711.9 20460015.6 -0.0  1 0  419  593  648
[52]  55(B19)  1  7  7  0  -1608.3 20460034.5  0.0  1 0  180  130  149
[53]  58(B22)  1  7  7  0  -2954.9 20460063.8  0.1  1 0  632  878  348
$GNGGA,015203.863,,,,,0,00,,,M,,,,0000*23
$GNRMC,015203.863,A,,,,,,,160419,,*25
$GPGSA,A,1,,,,,,,,,,,,,,,*1E
$BDGSA,A,1,,,,,,,,,,,,,,,*0F
$GLGSA,A,1,,,,,,,,,,,,,,,*02
$GPGSV,2,1,05,03,00,000,44,16,00,000,44,22,00,000,44,23,00,000,42*7C
$GPGSV,2,2,05,26,00,000,43*4F
$BDGSV,2,1,06,02,00,000,39,05,00,000,41,10,00,000,41,18,00,000,43*6F
$BDGSV,2,2,06,19,00,000,44,22,00,000,43*61
$B3CN0,0,16,0,0,0,0,0,0,0,0,0,0,0,0*7B
---00000021--- Acq_st=3 0  2000-1-1 0:2:23 
[00]  02(G03)  f 44 11  0  -1433.4  2046001.8  0.0  2 0 2004 3314 1509
[01]  15(G16)  f 44  8  0  -3554.8  2046004.5 -0.0  2 0 2056 3314 1880
[02]  21(G22)  f 43  7  0   -286.4  2046000.3 -0.0  2 0 1395 2283  801
[03]  22(G23)  f 42  7  0  -4373.1  2046005.6 -0.0  2 0 1916 2416 1389
[04]  25(G26)  f 43  7  0  -1307.2  2046001.6 -0.0  2 0 1462 2461 1107
[16]  38(B02) 1f 40 24  0  -1079.5  4092002.7  0.2  2 0  990 1075  457
[17]  41(B05) 1f 41 17  0  -1075.5  4092002.6  0.5  2 0  859 1216  390
[18]  46(B10) 1f 41 11  0  -1271.3  4092003.2 -0.1  2 0  900 1163  649
[19]  54(B18) 1f 43  8  0  -1027.9  4092002.6  0.0  2 0 1246 1680  381
[20]  55(B19) 1f 44  7  0  -2210.4  4092005.7  0.0  2 0 1366 1786  639
[21]  58(B22) 1f 43  7  0  -4019.1  4092010.4 -0.1  2 0 1465 1762  789
[32]  80(N-1) 8f 39  7  0  -2569.3  1022001.6 -0.2  2 0   777  842  522
[33]  81(N00) 8f 36  7  0  -1072.5  1022000.6 -0.1  2 0   371  671  463
[34]  82(N01) 8f 40 18  0  -3160.2  1022002.0 -0.3  2 0   608  955  162
[35]  75(N-6)  1 17 15  0 8441666.5  1022000.2  0.1  1 0   182  266  243
[50]  46(B10)  1  7  7  0   -557.0 20460021.2  0.1  1 0  260  511  639
[51]  54(B18)  1  7  9  0   -694.6 20460014.0 -0.0  1 0  244  917  457
[52]  55(B19)  1  7  7  0  -1375.6 20460035.4 -0.0  1 0  350  214  320
[53]  58(B22)  1 11  7  0  -3498.3 20460064.0  0.0  1 0  540  420  474
$GNGGA,015204.863,,,,,0,00,,,M,,,,0000*24
$GNRMC,015204.863,A,,,,,,,160419,,*22
$GPGSA,A,1,,,,,,,,,,,,,,,*1E
$BDGSA,A,1,,,,,,,,,,,,,,,*0F
$GLGSA,A,1,,,,,,,,,,,,,,,*02
$GPGSV,2,1,05,03,00,000,44,16,00,000,44,22,00,000,43,23,00,000,42*7B
$GPGSV,2,2,05,26,00,000,43*4F
$BDGSV,2,1,06,02,00,000,40,05,00,000,41,10,00,000,41,18,00,000,43*61
$BDGSV,2,2,06,19,00,000,44,22,00,000,43*61
$B3CN0,0,0,0,0,0,0,0,0,0,0,0,0,0,0*4C
---00000022--- Acq_st=3 0  2000-1-1 0:2:24 
[00]  02(G03)  f 44  9  0  -1437.2  2046001.8  0.0  2 0 1212 2479 1311
[01]  15(G16)  f 44  7  0  -3559.9  2046004.5  0.0  2 0 2504 3313 1405
[02]  21(G22)  f 43 11  0   -292.0  2046000.3 -0.0  2 0 1531 2712  973
[03]  22(G23)  f 43  7  0  -4377.8  2046005.6  0.0  2 0 1798 2231  871
[04]  25(G26)  f 43  7  0  -1308.7  2046001.6  0.0  2 0 1372 2300 1165
[16]  38(B02) 1f 41 27  0  -1081.4  4092002.7 -0.3  2 0 1330 1715  533
[17]  41(B05) 1f 41 27  0  -1079.0  4092002.7 -0.1  2 0 1267 1134  411
[18]  46(B10) 1f 41 11  0  -1270.3  4092003.2 -0.0  2 0 1053 1724  774
[19]  54(B18) 1f 42  9  0  -1035.4  4092002.6  0.0  2 0 1490 1895  828
[20]  55(B19) 1f 43  7  0  -2216.9  4092005.7  0.0  2 0 1480 2171  988
[21]  58(B22) 1f 43  7  0  -4022.1  4092010.4  0.0  2 0 1799 2083  902
[32]  80(N-1) 8f 39  7  0  -2573.3  1022001.6 -0.6  2 0   752  872  200
[33]  81(N00) 8f 36  7  0  -1076.4  1022000.7 -0.1  2 0   171  662  613
[34]  82(N01) 8f 39  7  0  -3161.5  1022002.0  0.1  2 0   320  865  432
[48]  38(B02)  1 24 10  0  -1048.0 20460021.0 -0.1  1 0  298  486  129
[49]  41(B05)  1 25 25  0  -1412.7 20460023.1  0.2  1 0  551  544  409
[50]  46(B10)  1  7  7  0   -865.2 20460020.9  0.0  1 0    7  314  180
[51]  54(B18)  1  7  7  0  -1443.2 20460017.4  0.2  1 0  400  206  206
[52]  55(B19)  1  7  7  0  -1631.3 20460035.2  0.1  1 0  239  587  132
[53]  58(B22)  1  7  7  0  -2991.9 20460066.4 -0.0  1 0 1139  524  223
$GNGGA,015205.863,,,,,0,00,,,M,,,,0000*25
$GNRMC,015205.863,A,,,,,,,160419,,*23
$GPGSA,A,1,,,,,,,,,,,,,,,*1E
$BDGSA,A,1,,,,,,,,,,,,,,,*0F
$GLGSA,A,1,,,,,,,,,,,,,,,*02
$GPGSV,2,1,05,03,00,000,44,16,00,000,44,22,00,000,43,23,00,000,43*7A
$GPGSV,2,2,05,26,00,000,43*4F
$BDGSV,2,1,06,02,00,000,41,05,00,000,41,10,00,000,41,18,00,000,42*61
$BDGSV,2,2,06,19,00,000,43,22,00,000,43*66
$B3CN0,0,0,0,0,0,0,0,0,0,0,0,0,0,0*4C
---00000023--- Acq_st=3 0  2000-1-1 0:2:25 
[00]  02(G03)  f 44 11  0  -1436.6  2046001.8 -0.0  2 0 1559 3300 1801
[01]  15(G16)  f 44  7  0  -3561.2  2046004.5  0.0  2 0 2411 3697 1986
[02]  21(G22)  f 43  7  0   -289.4  2046000.4  0.1  2 0 1962 2739  911
[03]  22(G23)  f 43  7  0  -4381.9  2046005.6  0.0  2 0 1924 2456 1258
[04]  25(G26)  f 43  7  0  -1313.2  2046001.6 -0.1  2 0 1761 2466  934
[16]  38(B02) 1f 41 25  0  -1083.9  4092002.7 -0.0  2 0  588 1147  520
[17]  41(B05) 1f 41 10  0  -1079.7  4092002.7 -0.1  2 0 1252 1377  520
[18]  46(B10) 1f 41 12  0  -1269.3  4092003.2 -0.0  2 0 1300 1552  557
[19]  54(B18) 1f 43  7  0  -1039.9  4092002.6 -0.0  2 0 1695 2016  663
[20]  55(B19) 1f 43 13  0  -2218.3  4092005.7  0.0  2 0 1516 2197  926
[21]  58(B22) 1f 43  9  0  -4023.0  4092010.4 -0.0  2 0 1826 2065  845
[32]  80(N-1) 8f 39  7  0  -2573.2  1022001.7  0.3  2 0   660  756  321
[33]  81(N00) 8f 35  7  0  -1078.0  1022000.7  0.1  2 0   517  512  264
[34]  82(N01) 8f 39 16  0  -3165.2  1022002.0  0.2  2 0   678 1197  682
[48]  38(B02)  7 22 17  1  -1212.1 20460018.4 -0.0  2 0  324  356  362
[49]  41(B05)  1 23 24  0  -1647.8 20460014.7 -0.0  1 0  301  374  654
[50]  46(B10)  1  8  7  0   -848.3 20460020.7 -0.1  1 0  508  571  380
[51]  54(B18)  1  7 12  0   -616.4 20460015.4 -0.1  1 0  247  582  588
[52]  55(B19)  1  7  7  0  -1926.1 20460036.5 -0.0  1 0  266  190  556
[53]  58(B22)  1  7  7  0  -3823.3 20460063.8 -0.0  1 0   19  139  377
$GNGGA,015206.863,,,,,0,00,,,M,,,,0000*26
$GNRMC,015206.863,A,,,,,,,160419,,*20
$GPGSA,A,1,,,,,,,,,,,,,,,*1E
$BDGSA,A,1,,,,,,,,,,,,,,,*0F
$GLGSA,A,1,,,,,,,,,,,,,,,*02
$GPGSV,2,1,05,03,00,000,44,16,00,000,44,22,00,000,43,23,00,000,43*7A
$GPGSV,2,2,05,26,00,000,43*4F
$BDGSV,2,1,06,02,00,000,41,05,00,000,41,10,00,000,41,18,00,000,43*60
$BDGSV,2,2,06,19,00,000,43,22,00,000,43*66
$B3CN0,0,20,0,0,0,0,0,0,0,0,0,0,0,0*7E
---00000024--- Acq_st=3 0  2000-1-1 0:2:26 
[00]  02(G03)  f 44  7  0  -1429.1  2046001.8 -0.0  2 0 1478 2818 1482
[01]  15(G16)  f 45  7  0  -3554.2  2046004.5 -0.0  2 0 2622 3449 1743
[02]  21(G22)  f 43  7  0   -287.2  2046000.3 -0.0  2 0  839 2323 1207
[03]  22(G23)  f 44  7  0  -4376.7  2046005.6 -0.0  2 0 1968 2539 1120
[04]  25(G26)  f 43  7  0  -1301.7  2046001.6  0.1  2 0 1491 2507 1324
[16]  38(B02) 1f 40 22  0  -1077.1  4092002.6  0.7  2 0  916  931  426
[17]  41(B05) 1f 42 26  0  -1076.8  4092002.8  0.5  2 0 1247 1499  244
[18]  46(B10) 1f 41  7  0  -1269.1  4092003.2  0.1  2 0  995 1664  871
[19]  54(B18) 1f 43  7  0  -1031.2  4092002.6  0.0  2 0 1492 1861  651
[20]  55(B19) 1f 43  7  0  -2214.8  4092005.7 -0.0  2 0 1239 2205 1099
[21]  58(B22) 1f 43  7  0  -4019.1  4092010.4  0.0  2 0 1501 2205 1038
[32]  80(N-1) 8f 38  7  0  -2566.5  1022001.6  0.2  2 0   366 1123  707
[33]  81(N00) 8f 33  7  0  -1069.9  1022000.7 -0.0  2 0    56  196  354
[34]  82(N01) 8f 38  7  0  -3162.7  1022002.1 -0.3  2 0   234  860  910
[48]  38(B02)  7 10 10  0  -1736.6 20460029.0  0.0  2 0  121  452  282
[49]  41(B05)  1 16 23  0  -1642.4 20460020.4  0.0  1 0  410  330  429
[50]  46(B10)  1  7  7  0   -944.0 20460020.0 -0.0  1 0  497  731  295
$GNGGA,015207.863,,,,,0,00,,,M,,,,0000*27
$GNRMC,015207.863,A,,,,,,,160419,,*21
$GPGSA,A,1,,,,,,,,,,,,,,,*1E
$BDGSA,A,1,,,,,,,,,,,,,,,*0F
$GLGSA,A,1,,,,,,,,,,,,,,,*02
$GPGSV,2,1,05,03,00,000,44,16,00,000,45,22,00,000,43,23,00,000,44*7C
$GPGSV,2,2,05,26,00,000,43*4F
$BDGSV,2,1,06,02,00,000,40,05,00,000,42,10,00,000,41,18,00,000,43*62
$BDGSV,2,2,06,19,00,000,43,22,00,000,43*66
$B3CN0,0,0,0,0,0,0,0,0,0,0,0,0,0,0*4C
---00000025--- Acq_st=3 0  2000-1-1 0:2:27 
[00]  02(G03)  f 45  7  0  -1432.3  2046001.8 -0.0  2 0 2118 3245 1649
[01]  15(G16)  f 45  7  0  -3557.2  2046004.5 -0.0  2 0 2649 3394 1293
[02]  21(G22)  f 43  7  0   -287.4  2046000.3  0.1  2 0 1419 2546 1617
[03]  22(G23)  f 44  7  0  -4378.2  2046005.6  0.0  2 0 2080 2896 1146
[04]  25(G26)  f 42  8  0  -1307.0  2046001.6 -0.0  2 0 1493 2449  967
[16]  38(B02) 1f 41 29  0  -1083.6  4092002.8 -0.5  2 0  534 1168  794
[17]  41(B05) 1f 40 27  0  -1080.5  4092002.7  0.2  2 0 1307 1403  420
[18]  46(B10) 1f 41  7  0  -1272.9  4092003.2 -0.0  2 0 1416 1183  592
[19]  54(B18) 1f 42  7  0  -1032.9  4092002.6 -0.1  2 0 1282 1606  623
[20]  55(B19) 1f 43  7  0  -2214.5  4092005.7  0.0  2 0  988 1903 1482
[21]  58(B22) 1f 43  8  0  -4022.8  4092010.4 -0.1  2 0 1559 2250  878
[22]  64(B28)  1  7  7  0  -2250.0  4092003.5 -0.0  1 0  509  307  422
[32]  80(N-1) 8f 38  7  0  -2571.8  1022001.6 -0.1  2 0   215  763  753
[33]  81(N00) 8f 32  7  0  -1073.2  1022000.7 -0.0  5 0   295  251  394
[34]  82(N01) 8f 37 16  0  -3163.9  1022002.0  0.3  2 0   830  957  402
[48]  38(B02)  7 19 36  1  -2421.4 20460038.7  0.1  2 0  289  263  179
[49]  41(B05)  1 23 23  0  -1827.0 20460017.2 -0.2  1 0  616  564  304
[51]  54(B18)  1  7  7  0   -811.0 20460015.8 -0.1  1 0  323  232  768
[52]  55(B19)  1  7  7  0  -1655.0 20460035.8  0.1  1 0  408  493  494
[53]  58(B22)  1  7  7  0  -3056.4 20460064.3  0.0  1 0  364  249  196
$GNGGA,015208.863,,,,,0,00,,,M,,,,0000*28
$GNRMC,015208.863,A,,,,,,,160419,,*2E
$GPGSA,A,1,,,,,,,,,,,,,,,*1E
$BDGSA,A,1,,,,,,,,,,,,,,,*0F
$GLGSA,A,1,,,,,,,,,,,,,,,*02
$GPGSV,2,1,05,03,00,000,45,16,00,000,45,22,00,000,43,23,00,000,44*7D
$GPGSV,2,2,05,26,00,000,42*4E
$BDGSV,2,1,06,02,00,000,41,05,00,000,40,10,00,000,41,18,00,000,42*60
$BDGSV,2,2,06,19,00,000,43,22,00,000,43*66
$B3CN0,0,20,0,0,0,0,0,0,0,0,0,0,0,0*7E
$GLGSV,1,1,02,01,00,000,38,12,00,000,37*6A
---00000026--- Acq_st=3 0  2000-1-1 0:2:28 
[00]  02(G03)  f 45  7  0  -1437.5  2046001.8  0.1  2 0 1917 3086 1277
[01]  15(G16)  f 44  7  0  -3559.4  2046004.5  0.0  2 0 2135 3251 1468
[02]  21(G22)  f 43  9  0   -290.9  2046000.3  0.0  2 0 1352 2433 1046
[03]  22(G23)  f 44  7  0  -4379.1  2046005.6 -0.0  2 0 1627 3237 1466
[04]  25(G26)  f 42  7  0  -1308.4  2046001.6 -0.0  2 0 1221 2189 1117
[16]  38(B02) 1f 40 24  0  -1085.2  4092002.7 -0.2  2 0 1177 1322  698
[17]  41(B05) 1f 41 19  0  -1080.4  4092002.8 -0.0  2 0  784 1240  840
[18]  46(B10) 1f 41  7  0  -1273.9  4092003.2  0.1  2 0 1006 1596  583
[19]  54(B18) 1f 42  7  0  -1038.5  4092002.6  0.1  2 0 1241 1631  623
[20]  55(B19) 1f 43  7  0  -2216.0  4092005.7  0.0  2 0 1118 1827 1117
[21]  58(B22) 1f 43 13  0  -4026.9  4092010.4  0.1  2 0 1920 2150  873
[22]  64(B28)  1  7  7  0  -2081.3  4092004.4  0.2  1 0  649  806  455
[32]  80(N-1) 8f 38  7  0  -2574.7  1022001.6 -0.1  2 0   695 1088  694
[33]  81(N00) 8f 32  7  0  -1077.2  1022000.8 -0.1  5 0   408  575  424
[34]  82(N01) 8f 38  7  0  -3166.6  1022001.9  0.0  2 0   651 1127  870
[48]  38(B02)  7 10 22  0  -2506.8 20460041.1  0.1  2 0  898  832  203
[50]  46(B10)  1  7  7  0   -557.7 20460020.7  0.1  1 0  503  635  664
[51]  54(B18)  1  7  7  0   -207.1 20460014.9 -0.0  1 0  818  441   67
[52]  55(B19)  1  7  7  0   -664.0 20460035.2 -0.0  1 0  309  718  578
[53]  58(B22)  1  7  8  0  -3275.7 20460066.0 -0.2  1 0  119  305  134
$GNGGA,015209.863,,,,,0,00,,,M,,,,0000*29
$GNRMC,015209.863,A,,,,,,,160419,,*2F
$GPGSA,A,1,,,,,,,,,,,,,,,*1E
$BDGSA,A,1,,,,,,,,,,,,,,,*0F
$GLGSA,A,1,,,,,,,,,,,,,,,*02
$GPGSV,2,1,05,03,00,000,45,16,00,000,44,22,00,000,43,23,00,000,44*7C
$GPGSV,2,2,05,26,00,000,42*4E
$BDGSV,2,1,06,02,00,000,40,05,00,000,41,10,00,000,41,18,00,000,42*60
$BDGSV,2,2,06,19,00,000,43,22,00,000,43*66
$B3CN0,0,0,0,0,0,0,0,0,0,0,0,0,0,0*4C
$GLGSV,1,1,02,01,00,000,38,12,00,000,38*65
---00000027--- Acq_st=7 0  2000-1-1 0:2:29 
[00]  02(G03)  f 44  7  0  -1434.8  2046001.8 -0.0  2 0 2568 3055  749
[01]  15(G16)  f 45  7  0  -3557.6  2046004.6  0.0  2 0 2245 3331 1369
[02]  21(G22)  f 43  7  0   -287.0  2046000.3 -0.0  2 0 1785 2815 1467
[03]  22(G23)  f 44  7  0  -4379.6  2046005.7 -0.0  2 0 1226 2730 1328
[04]  25(G26)  f 42  8  0  -1310.5  2046001.6  0.0  2 0 1729 2378 1312
[16]  38(B02) 1f 40 23  0  -1085.6  4092002.8  0.4  2 0  447 1046  687
[17]  41(B05) 1f 41 25  0  -1078.1  4092002.8 -0.2  2 0 1085 1452  590
[18]  46(B10) 1f 41  7  0  -1272.1  4092003.2 -0.1  2 0 1085 1486  769
[19]  54(B18) 1f 42  7  0  -1034.2  4092002.6 -0.1  2 0 1301 1973  890
[20]  55(B19) 1f 43  7  0  -2213.0  4092005.7  0.0  2 0 1434 2064  834
[21]  58(B22) 1f 43  7  0  -4025.8  4092010.4 -0.1  2 0 1903 2349 1435
[22]  64(B28)  7 28  7  0  -2073.9  4092005.5  0.1 10 0   56  677  678
[32]  80(N-1) 8f 38  7  0  -2572.1  1022001.6  0.1  2 0   752  839   97
[33]  81(N00) 8f 32  7  0  -1074.3  1022000.8  0.0  5 0   320  544   99
[34]  82(N01) 8f 40 16  0  -3160.3  1022001.9  0.1  2 0   480  607  384
[35]  85(N04)  1 25 22  0  -5341.7  1022004.6  0.2  1 0   205  605  559
[49]  41(B05)  1 23 23  0   -923.7 20460017.9 -0.1  1 0  501  140  358
[50]  46(B10)  1  7  7  0   -387.8 20460019.2  0.1  1 0  931 1094  268
[51]  54(B18)  1  7  7  0    154.5 20460015.6 -0.2  1 0  555  915  818
[52]  55(B19)  1 12  7  0    -29.7 20460035.5 -0.1  1 0  705  315  476
[53]  58(B22)  1  7  7  0  -2904.1 20460064.3  0.1  1 0  400  347   53
$GNGGA,015210.863,,,,,0,00,,,M,,,,0000*21
$GNRMC,015210.863,A,,,,,,,160419,,*27
$GPGSA,A,1,,,,,,,,,,,,,,,*1E
$BDGSA,A,1,,,,,,,,,,,,,,,*0F
$GLGSA,A,1,,,,,,,,,,,,,,,*02
$GPGSV,2,1,05,03,00,000,44,16,00,000,45,22,00,000,43,23,00,000,44*7C
$GPGSV,2,2,05,26,00,000,42*4E
$BDGSV,2,1,07,02,00,000,40,05,00,000,41,10,00,000,41,18,00,000,42*61
$BDGSV,2,2,07,19,00,000,43,22,00,000,43,28,00,000,28*57
$B3CN0,0,0,0,0,0,0,0,0,0,0,0,0,0,0*4C
$GLGSV,1,1,02,01,00,000,38,12,00,000,40*6A
---00000028--- Acq_st=7 0  2000-1-1 0:2:30 
[00]  02(G03)  f 45  7  0  -1433.7  2046001.8  0.1  2 0 2895 3267 1101
[01]  15(G16)  f 45  7  0  -3559.6  2046004.6 -0.0  2 0 2075 3537 1858
[02]  21(G22)  f 44  7  0   -289.9  2046000.3 -0.0  2 0 1865 3112 1278
[03]  22(G23)  f 44  7  0  -4380.4  2046005.6 -0.0  2 0 1872 3117  905
[04]  25(G26)  f 43  7  0  -1307.2  2046001.6 -0.0  2 0 1093 2052 1038
[16]  38(B02) 1f 41 28  0  -1086.8  4092002.7 -0.1  2 0 1235 1458  651
[17]  41(B05) 1f 41 17  0  -1079.9  4092002.7 -0.3  2 0 1250 1422  768
[18]  46(B10) 1f 41  7  0  -1272.1  4092003.2 -0.0  2 0 1137 1158  373
[19]  54(B18) 1f 42  7  0  -1036.6  4092002.6  0.1  2 0 1382 1832  774
[20]  55(B19) 1f 43  7  0  -2212.1  4092005.7 -0.0  2 0 1703 2110  681
[21]  58(B22) 1f 42 10  0  -4022.1  4092010.4  0.0  2 0 1119 1604  623
[22]  64(B28)  7 37  7  0  -2074.4  4092005.5  0.3  2 0  655  682  495
[32]  80(N-1) 8f 38  7  0  -2570.1  1022001.6  0.1  2 0   484  906  743
[33]  81(N00) 8f 31  7  0  -1075.5  1022000.8 -0.1  5 0    60  231  157
[34]  82(N01) 8f 40  7  0  -3163.6  1022001.9 -0.1  2 0   613 1153  599
[35]  85(N04)  1 39 24  0  -5342.2  1022003.2  1.0  1 0   665 1027  491
[48]  38(B02)  1 10 14  0   -951.4 20460013.0  0.1  1 0  447  269  157
[49]  41(B05)  1 25 26  1  -1326.7 20460017.6 -0.0  1 0  310   44  295
[50]  46(B10)  1  7  7  0    617.1 20460018.5  0.1  1 0  163  175  459
[51]  54(B18)  1  7  7  0     32.4 20460015.3  0.0  1 0  328  394  598
[52]  55(B19)  1  7  7  0   -662.7 20460035.3  0.1  1 0  273  394  304
[53]  58(B22)  1 10  7  0  -2285.6 20460063.8 -0.1  1 0  170  276  235
$GNGGA,015211.863,,,,,0,00,,,M,,,,0000*20
$GNRMC,015211.863,A,,,,,,,160419,,*26
$GPGSA,A,1,,,,,,,,,,,,,,,*1E
$BDGSA,A,1,,,,,,,,,,,,,,,*0F
$GLGSA,A,1,,,,,,,,,,,,,,,*02
$GPGSV,2,1,05,03,00,000,45,16,00,000,45,22,00,000,44,23,00,000,44*7A
$GPGSV,2,2,05,26,00,000,43*4F
$BDGSV,2,1,07,02,00,000,41,05,00,000,41,10,00,000,41,18,00,000,42*60
$BDGSV,2,2,07,19,00,000,43,22,00,000,42,28,00,000,37*58
$B3CN0,0,0,0,0,0,0,0,0,0,0,0,0,0,0*4C
$GLGSV,1,1,02,01,00,000,38,12,00,000,40*6A
---00000029--- Acq_st=3 0  2000-1-1 0:2:31 
[00]  02(G03)  f 45  7  0  -1428.4  2046001.8 -0.0  2 0 2626 3351 1532
[01]  15(G16)  f 45  7  0  -3550.7  2046004.6 -0.1  2 0 1996 2778 1356
[02]  21(G22)  f 44  7  0   -284.1  2046000.3 -0.0  2 0 1505 2348  965
[03]  22(G23)  f 44  7  0  -4377.3  2046005.6  0.0  2 0 1917 2839 1680
[04]  25(G26)  f 43  7  0  -1301.0  2046001.6 -0.0  2 0 1510 2102 1012
[16]  38(B02) 1f 41 19  0  -1080.8  4092002.8 -0.1  2 0  711 1127  751
[17]  41(B05) 1f 41 19  0  -1074.9  4092002.7  0.3  2 0 1171 1442  820
[18]  46(B10) 1f 41  7  0  -1267.4  4092003.2  0.0  2 0 1260 1530  287
[19]  54(B18) 1f 42  7  0  -1029.6  4092002.6 -0.0  2 0 1182 1561  363
[20]  55(B19) 1f 43  7  0  -2207.4  4092005.7  0.1  2 0 1841 2174  692
[21]  58(B22) 1f 43 10  0  -4016.6  4092010.4  0.0  2 0 1446 1801  914
[22]  64(B28)  7 37  7  0  -2065.2  4092005.5  0.4  2 0  423  617  577
[32]  80(N-1) 8f 37  8  0  -2564.8  1022001.7  0.1  2 0   303  612  507
[33]  81(N00) 8f 31  7  0  -1071.8  1022000.5  0.1  5 0   258  261  248
[34]  82(N01) 8f 42 18  0  -3155.3  1022001.9 -0.1  2 0   844 1226  327
[35]  85(N04)  7 20  9  0  -5337.1  1022003.3  1.0 10 0   509  889  511
[48]  38(B02)  1 10 14  1   -691.8 20460018.9  0.4  1 0  965  106  765
[49]  41(B05)  1 25 23  0  -1263.7 20460022.4 -0.1  1 0  533  612  718
[50]  46(B10)  1  7  9  0    964.7 20460020.0 -0.1  1 0  835  594  457
$GNGGA,015212.863,,,,,0,00,,,M,,,,0000*23
$GNRMC,015212.863,A,,,,,,,160419,,*25
$GPGSA,A,1,,,,,,,,,,,,,,,*1E
$BDGSA,A,1,,,,,,,,,,,,,,,*0F
$GLGSA,A,1,,,,,,,,,,,,,,,*02
$GPGSV,2,1,05,03,00,000,45,16,00,000,45,22,00,000,44,23,00,000,44*7A
$GPGSV,2,2,05,26,00,000,43*4F
$BDGSV,2,1,07,02,00,000,41,05,00,000,41,10,00,000,41,18,00,000,42*60
$BDGSV,2,2,07,19,00,000,43,22,00,000,43,28,00,000,37*59
$B3CN0,0,0,0,0,0,0,0,0,0,0,0,0,0,0*4C
$GLGSV,1,1,02,01,00,000,37,12,00,000,42*67
---00000030--- Acq_st=3 0  2000-1-1 0:2:32 
[00]  02(G03)  f 45  7  0  -1432.1  2046001.8  0.0  2 0 2539 3759 1737
[01]  15(G16)  f 44  7  0  -3554.1  2046004.6 -0.0  2 0 1620 2898 1651
[02]  21(G22)  f 44  7  0   -286.5  2046000.3 -0.0  2 0 1223 2616 1337
[03]  22(G23)  f 44  7  0  -4379.3  2046005.7  0.0  2 0 1635 2698 1309
[04]  25(G26)  f 43  7  0  -1303.4  2046001.7  0.0  2 0  933 2274 1094
[16]  38(B02) 1f 39 27  0  -1082.2  4092002.6 -0.2  2 0 1117 1334  342
[17]  41(B05) 1f 40 23  0  -1079.2  4092002.7 -0.4  2 0 1168 1201  482
[18]  46(B10) 1f 41 12  0  -1269.4  4092003.2  0.0  2 0 1390 1332  416
[19]  54(B18) 1f 42  7  0  -1033.2  4092002.6  0.0  2 0 1153 1387  513
[20]  55(B19) 1f 43 10  0  -2212.8  4092005.7  0.0  2 0 1527 1904  600
[21]  58(B22) 1f 42  7  0  -4022.6  4092010.4 -0.0  2 0 1182 1816 1140
[22]  64(B28)  7 37  7  0  -2068.6  4092005.5  0.1  2 0  544 1063  392
[32]  80(N-1) 8f 38  7  0  -2566.1  1022001.6 -0.0  2 0   595  859  166
[33]  81(N00) 8f 33  7  0  -1073.1  1022000.6 -0.0  5 0   319  559  607
[34]  82(N01) 8f 42 13  0  -3157.3  1022002.0 -0.1  2 0   914 1219  506
[35]  85(N04)  7 38 27  0  -5345.7  1022003.3  0.1  2 0   476  843  331
[48]  38(B02)  1 22 10  0   -763.5 20460022.6 -0.1  1 0  372  652  828
[49]  41(B05)  1 25 25  0  -1299.7 20460023.3 -0.0  1 0  636  983  461
[51]  54(B18)  1  7  7  0  -1122.7 20460016.4 -0.0  1 0  610  347  444
[52]  55(B19)  1  7  7  0  -1383.3 20460035.5 -0.1  1 0   87  106  122
[53]  58(B22)  1 10  7  0  -3109.7 20460064.2 -0.1  1 0  475  646  291
$GNGGA,015213.863,,,,,0,00,,,M,,,,0000*22
$GNRMC,015213.863,A,,,,,,,160419,,*24
$GPGSA,A,1,,,,,,,,,,,,,,,*1E
$BDGSA,A,1,,,,,,,,,,,,,,,*0F
$GLGSA,A,1,,,,,,,,,,,,,,,*02
$GPGSV,2,1,05,03,00,000,45,16,00,000,44,22,00,000,44,23,00,000,44*7B
$GPGSV,2,2,05,26,00,000,43*4F
$BDGSV,2,1,07,02,00,000,39,05,00,000,40,10,00,000,41,18,00,000,42*6E
$BDGSV,2,2,07,19,00,000,43,22,00,000,42,28,00,000,37*58
$B3CN0,0,0,0,0,0,0,0,0,0,0,0,0,0,0*4C
$GLGSV,1,1,02,01,00,000,38,12,00,000,42*68
---00000031--- Acq_st=3 0  2000-1-1 0:2:33 
[00]  02(G03)  f 45  7  0  -1432.1  2046001.8 -0.1  2 0 2659 3872 1672
[01]  15(G16)  f 43  7  0  -3558.3  2046004.7 -0.0  2 0 1326 2342 1421
[02]  21(G22)  f 43  7  0   -285.2  2046000.3 -0.0  2 0 1517 2725 1517
[03]  22(G23)  f 44  7  0  -4379.4  2046005.6 -0.0  2 0 1796 3183 1245
[04]  25(G26)  f 43  7  0  -1306.7  2046001.6 -0.0  2 0 1079 2047 1192
[16]  38(B02) 1f 41 25  0  -1082.6  4092002.7 -0.2  2 0  554 1164  836
[17]  41(B05) 1f 41 20  0  -1085.3  4092002.8 -0.2  2 0  808 1632  693
[18]  46(B10) 1f 41  7  0  -1273.9  4092003.2  0.1  2 0 1364 1414  735
[19]  54(B18) 1f 42  9  0  -1034.7  4092002.6  0.0  2 0 1470 1963  786
[20]  55(B19) 1f 44  7  0  -2213.9  4092005.7 -0.0  2 0 2332 2806 1150
[21]  58(B22) 1f 42  9  0  -4021.8  4092010.4  0.0  2 0 1382 1676 1049
[22]  64(B28)  7 38  7  0  -2075.6  4092005.4 -0.2  2 0  440  782  264
[32]  80(N-1) 8f 38  7  0  -2565.7  1022001.6  0.2  2 0   614 1081  695
[33]  81(N00) 8f 33  7  0  -1073.2  1022000.6  0.0  5 0   372  423  195
[34]  82(N01) 8f 42 18  0  -3161.4  1022001.9  0.0  2 0   841 1095  519
[35]  85(N04)  7 38 27  0  -5342.4  1022003.4  0.1  2 0   403  900  479
[48]  38(B02)  1 10 13  0   -993.2 20460021.6 -0.0  1 0  530  225  181
[50]  46(B10)  1  7  7  0  -1159.0 20460019.7  0.1  1 0 1231 1104  958
[51]  54(B18)  1  8  7  0  -1032.5 20460016.6 -0.1  1 0  633  769  523
[52]  55(B19)  1  7  7  0   -923.6 20460034.8  0.1  1 0  401  352  188
[53]  58(B22)  1  7  7  0  -3115.7 20460064.4 -0.0  1 0  586  579  285
$GNGGA,015214.863,,,,,0,00,,,M,,,,0000*25
$GNRMC,015214.863,A,,,,,,,160419,,*23
$GPGSA,A,1,,,,,,,,,,,,,,,*1E
$BDGSA,A,1,,,,,,,,,,,,,,,*0F
$GLGSA,A,1,,,,,,,,,,,,,,,*02
$GPGSV,2,1,05,03,00,000,45,16,00,000,43,22,00,000,43,23,00,000,44*7B
$GPGSV,2,2,05,26,00,000,43*4F
$BDGSV,2,1,07,02,00,000,41,05,00,000,41,10,00,000,41,18,00,000,42*60
$BDGSV,2,2,07,19,00,000,44,22,00,000,42,28,00,000,38*50
$B3CN0,0,0,0,0,0,0,0,0,0,0,0,0,0,0*4C
$GLGSV,1,1,02,01,00,000,38,12,00,000,42*68
---00000032--- Acq_st=3 0  2000-1-1 0:2:34 
[00]  02(G03)  f 45  7  0  -1432.6  2046001.8 -0.0  2 0 2068 3328 1735
[01]  15(G16)  f 44  7  0  -3558.3  2046004.6  0.1  2 0 1224 1910  954
[02]  21(G22)  f 43  9  0   -287.7  2046000.3  0.1  2 0 1668 2605  909
[03]  22(G23)  f 44  7  0  -4381.5  2046005.6  0.0  2 0 1350 2506  778
[04]  25(G26)  f 43  7  0  -1308.0  2046001.6  0.0  2 0 1436 2291 1171
[16]  38(B02) 1f 40 26  0  -1086.4  4092002.7 -0.7  2 0  812 1117  277
[17]  41(B05) 1f 41 25  0  -1086.2  4092002.6 -0.5  2 0 1007 1436  773
[18]  46(B10) 1f 41  7  0  -1276.7  4092003.2 -0.0  2 0  824 1197  744
[19]  54(B18) 1f 42  7  0  -1038.0  4092002.6 -0.0  2 0 1706 2116 1077
[20]  55(B19) 1f 43  8  0  -2215.1  4092005.7 -0.0  2 0 1686 2145  805
[21]  58(B22) 1f 43  8  0  -4023.8  4092010.4 -0.0  2 0 1578 1535  468
[22]  64(B28) 1f 37  7  0  -2075.8  4092005.3  0.0  2 0  324  574  187
[32]  80(N-1) 8f 38  7  0  -2568.9  1022001.5 -0.0  2 0   519 1021  405
[33]  81(N00) 8f 34  7  0  -1074.4  1022000.6  0.1  5 0   865  785  252
[34]  82(N01) 8f 41  7  0  -3161.6  1022002.0  0.1  2 0   697 1059  652
[35]  85(N04)  7 38 26  0  -5349.1  1022003.4  0.1  2 0   284  791  787
[49]  41(B05)  1 23 23  1  -1402.7 20460018.6  0.2  1 0  284  683  833
[50]  46(B10)  1  7  7  0  -1757.9 20460022.0  0.1  1 0  451  969  774
[51]  54(B18)  1 13  7  0  -1196.9 20460016.3  0.0  1 0  263  446  772
[52]  55(B19)  1  8  7  0  -1305.5 20460035.7  0.0  1 0  428  330  458
[53]  58(B22)  1  9  7  0  -2607.5 20460065.8 -0.1  1 0  108   97  164
$GNGGA,015215.863,,,,,0,00,,,M,,,,0000*24
$GNRMC,015215.863,A,,,,,,,160419,,*22
$GPGSA,A,1,,,,,,,,,,,,,,,*1E
$BDGSA,A,1,,,,,,,,,,,,,,,*0F
$GLGSA,A,1,,,,,,,,,,,,,,,*02
$GPGSV,2,1,05,03,00,000,45,16,00,000,44,22,00,000,43,23,00,000,44*7C
$GPGSV,2,2,05,26,00,000,43*4F
$BDGSV,2,1,07,02,00,000,40,05,00,000,41,10,00,000,41,18,00,000,42*61
$BDGSV,2,2,07,19,00,000,43,22,00,000,43,28,00,000,37*59
$B3CN0,0,0,0,0,0,0,0,0,0,0,0,0,0,0*4C
$GLGSV,1,1,02,01,00,000,38,12,00,000,41*6B
---00000033--- Acq_st=3 0  2000-1-1 0:2:35 
[00]  02(G03)  f 45  7  0  -1428.3  2046001.8  0.1  2 0 2008 3807 1935
[01]  15(G16)  f 43  7  0  -3553.8  2046004.6 -0.0  2 0 1214 2233 1040
[02]  21(G22)  f 43  8  0   -285.6  2046000.3 -0.0  2 0 1610 2737 1208
[03]  22(G23)  f 44  7  0  -4380.5  2046005.6 -0.0  2 0 1531 2711 1357
[04]  25(G26)  f 43  7  0  -1304.2  2046001.6  0.1  2 0 1092 1892 1126
[16]  38(B02) 1f 40 23  0  -1080.9  4092002.8 -0.3  2 0 1027 1283  457
[17]  41(B05) 1f 41 27  0  -1083.6  4092002.6  0.0  2 0 1229 1503  624
[18]  46(B10) 1f 41  8  0  -1269.8  4092003.2  0.0  2 0 1273 1542  865
[19]  54(B18) 1f 43  7  0  -1033.7  4092002.6  0.0  2 0 1564 1928  518
[20]  55(B19) 1f 44  7  0  -2213.4  4092005.6 -0.0  2 0 1881 2202 1089
[21]  58(B22) 1f 43 12  0  -4022.4  4092010.4  0.1  2 0 1022 1313  401
[22]  64(B28) 1f 37  7  0  -2064.9  4092005.3  0.1  2 0  743 1117  473
[32]  80(N-1) 8f 39  7  0  -2565.6  1022001.5 -0.1  2 0   573  798  581
[33]  81(N00) 8f 36  7  0  -1072.6  1022000.5  0.0  2 0   464  489  385
[34]  82(N01) 8f 41 18  0  -3158.7  1022002.0  0.1  2 0   721 1288  837
[35]  85(N04)  f 33 18  0  -5343.1  1022003.4 -0.0  5 0   575  800   32
[48]  38(B02)  1 10 10  1   -850.1 20460020.3  0.1  1 0  504  488  229
[49]  41(B05)  1 22 26  1  -1316.7 20460022.5 -0.2  1 0  385  289  580
[50]  46(B10)  1  7  7  0  -1389.2 20460020.7 -0.1  1 0  532  231  595
[51]  54(B18)  1  7  7  0  -1140.6 20460017.1 -0.0  1 0 1010  399  528
[52]  55(B19)  1  7  7  0  -2421.7 20460034.6 -0.1  1 0  269  453  446
[53]  58(B22)  1  7  8  0  -2237.3 20460066.1 -0.1  1 0  713  414  344
[54]  64(B28)  1 11  7  0  -1388.2 20460033.7 -0.0  1 0  570  141  674
$GNGGA,015216.863,,,,,0,00,,,M,,,,0000*27
$GNRMC,015216.863,A,,,,,,,160419,,*21
$GPGSA,A,1,,,,,,,,,,,,,,,*1E
$BDGSA,A,1,,,,,,,,,,,,,,,*0F
$GLGSA,A,1,,,,,,,,,,,,,,,*02
$GPGSV,2,1,05,03,00,000,45,16,00,000,43,22,00,000,43,23,00,000,44*7B
$GPGSV,2,2,05,26,00,000,43*4F
$BDGSV,2,1,07,02,00,000,40,05,00,000,41,10,00,000,41,18,00,000,43*60
$BDGSV,2,2,07,19,00,000,44,22,00,000,43,28,00,000,37*5E
$B3CN0,0,0,0,0,0,0,0,0,0,0,0,0,0,0*4C
$GLGSV,1,1,02,01,00,000,39,12,00,000,41*6A
---00000034--- Acq_st=3 0  2000-1-1 0:2:36 
[00]  02(G03)  f 45  7  0  -1427.4  2046001.8  0.0  2 0 1581 3028 1831
[01]  15(G16)  f 43  7  0  -3553.5  2046004.5  0.0  2 0 1294 2240 1349
[02]  21(G22)  f 44  7  0   -285.5  2046000.3  0.1  2 0 1871 2505 1052
[03]  22(G23)  f 44  7  0  -4380.5  2046005.6 -0.0  2 0 1554 2226  854
[04]  25(G26)  f 43  9  0  -1304.0  2046001.6 -0.1  2 0 1642 2346 1232
[16]  38(B02) 1f 39 24  0  -1084.3  4092002.8  0.5  2 0  689 1435  677
[17]  41(B05) 1f 42 28  0  -1082.1  4092002.6  0.2  2 0 1191 1196  466
[18]  46(B10) 1f 41  7  0  -1271.3  4092003.2  0.0  2 0 1425 1490  297
[19]  54(B18) 1f 43  7  0  -1039.4  4092002.6  0.1  2 0 1172 1684  683
[20]  55(B19) 1f 44  7  0  -2210.2  4092005.6 -0.0  2 0 2241 2599 1068
[21]  58(B22) 1f 43 11  0  -4023.9  4092010.4 -0.0  2 0 1029 1529  672
[22]  64(B28) 1f 37  7  0  -2066.5  4092005.2  0.5  2 0  210  568  310
[32]  80(N-1) 8f 39  7  0  -2564.3  1022001.6 -0.4  2 0   351  869  360
[33]  81(N00) 8f 37  7  0  -1070.7  1022000.5 -0.0  2 0   701  554  217
[34]  82(N01) 8f 40  7  0  -3161.0  1022002.1  0.0  2 0   605  946  447
[35]  85(N04)  f 37  7  0  -5344.2  1022003.4  0.0  2 0   456  591  288
[48]  38(B02)  1 10 20  0    504.1 20460015.0 -0.0  1 0  420  828  838
[49]  41(B05)  1 25 23  0   -673.1 20460024.4 -0.1  1 0  243  582  420
[50]  46(B10)  1  7  7  0  -1320.7 20460019.7  0.0  1 0  106  164  327
[54]  64(B28)  1  7  8  0  -1686.7 20460034.0  0.1  1 0  690  704  883
$GNGGA,015217.863,,,,,0,00,,,M,,,,0000*26
$GNRMC,015217.863,A,,,,,,,160419,,*20
$GPGSA,A,1,,,,,,,,,,,,,,,*1E
$BDGSA,A,1,,,,,,,,,,,,,,,*0F
$GLGSA,A,1,,,,,,,,,,,,,,,*02
$GPGSV,2,1,05,03,00,000,45,16,00,000,43,22,00,000,44,23,00,000,44*7C
$GPGSV,2,2,05,26,00,000,43*4F
$BDGSV,2,1,07,02,00,000,39,05,00,000,42,10,00,000,42,18,00,000,43*6E
$BDGSV,2,2,07,19,00,000,44,22,00,000,43,28,00,000,37*5E
$B3CN0,0,0,0,0,0,0,0,0,0,0,0,0,0,0*4C
$GLGSV,1,1,02,01,00,000,39,12,00,000,40*6B
---00000035--- Acq_st=2 0  2000-1-1 0:2:37 
[00]  02(G03)  f 45  7  0  -1429.1  2046001.9  0.0  2 0 1236 2834 1563
[01]  15(G16)  f 43  7  0  -3554.0  2046004.5  0.0  2 0 1265 1892 1057
[02]  21(G22)  f 44  7  0   -284.0  2046000.3 -0.0  2 0 2117 2582  711
[03]  22(G23)  f 43  7  0  -4379.8  2046005.6 -0.0  2 0 1610 2014  917
[04]  25(G26)  f 42  7  0  -1304.6  2046001.6 -0.0  2 0  851 1882  681
[16]  38(B02) 1f 41 27  0  -1080.8  4092002.6  0.4  2 0 1267 1377  480
[17]  41(B05) 1f 41 25  0  -1084.3  4092002.7 -0.0  2 0  919 1225  498
[18]  46(B10) 1f 41  8  0  -1269.1  4092003.2 -0.0  2 0 1268 1732  680
[19]  54(B18) 1f 43  8  0  -1037.9  4092002.6 -0.1  2 0 1767 2057 1108
[20]  55(B19) 1f 44  7  0  -2212.4  4092005.7 -0.0  2 0 2692 2638 1305
[21]  58(B22) 1f 43  7  0  -4020.6  4092010.4 -0.0  2 0 1002 1688 1166
[22]  64(B28) 1f 37  7  0  -2071.5  4092005.3 -0.0  2 0  613  985  231
[32]  80(N-1) 8f 39  7  0  -2566.4  1022001.6  0.5  2 0   136  777  586
[33]  81(N00) 8f 38  7  0  -1071.7  1022000.6  0.0  2 0   475  676  248
[34]  82(N01) 8f 39 17  0  -3160.1  1022002.0 -0.0  2 0   749  850  372
[35]  85(N04)  f 37 16  0  -5345.4  1022003.4 -0.0  2 0   348  496  449
[36]  75(N-6)  1 21 28  1   1000.0  1021999.7 -0.1  1 0   186  202  202
[48]  38(B02)  f 10 36  1    372.3 20459994.3  0.1  2 0  201  440  291
[49]  41(B05)  1 23 22  1  -1402.9 20460021.8 -0.2  1 0  701  982  747
[51]  54(B18)  1  7  7  0   -870.7 20460015.3 -0.0  1 0  582  304  505
[52]  55(B19)  1 12  7  0  -1984.8 20460035.6  0.1  1 0  323  577  364
[53]  58(B22)  1  7  7  0  -3536.4 20460064.4 -0.1  1 0  320  428  551
[54]  64(B28)  1  7  7  0  -1775.1 20460033.2 -0.1  1 0  299  235  357
$GNGGA,015218.730,2944.9059,N,10633.0815,E,1,09,2.3,322.3,M,,,,0000*17
$GNRMC,015218.730,A,2944.9059,N,10633.0815,E,0.85,0.00,160419,,*15
$GPGSA,A,3,03,16,22,23,26,,,,,,,,3.0,2.3,2.0*33
$BDGSA,A,3,19,22,,,,,,,,,,,3.0,2.3,2.0*2B
$GLGSA,A,3,02,13,,,,,,,,,,,3.0,2.3,2.0*2E
$GPGSV,2,1,05,03,00,000,45,16,00,000,43,22,00,000,44,23,00,000,43*7B
$GPGSV,2,2,05,26,00,000,42*4E
$BDGSV,2,1,07,02,00,000,41,05,00,000,41,10,00,000,41,18,00,000,43*61
$BDGSV,2,2,07,19,00,000,44,22,00,000,43,28,00,000,37*5E
$B3CN0,0,0,0,0,0,0,0,0,0,0,0,0,0,0*4C
$GLGSV,1,1,02,01,00,000,39,12,00,000,39*65
---00000036--- Acq_st=7 0  2019-4-16 1:52:19 
[00]  02(G03)  f 44  7  0  -1426.3  2046001.8 -0.0  2 0 1125 2276 1233
[01]  15(G16)  f 43  7  0  -3553.1  2046004.5  0.0  2 0 1736 2478  841
[02]  21(G22)  f 44  7  0   -285.1  2046000.3  0.0  2 0 1616 3191 1475
[03]  22(G23)  f 43 10  0  -4379.1  2046005.6  0.1  2 0 1508 2482 1122
[04]  25(G26)  f 42  7  0  -1306.7  2046001.7  0.1  2 0  922 1633  794
[16]  38(B02) 1f 41 25  0  -1086.2  4092002.8  0.9  2 0  699 1019  565
[17]  41(B05) 1f 41 24  0  -1079.6  4092002.7  0.5  2 0  923 1424  771
[18]  46(B10) 1f 41  7  0  -1270.6  4092003.2  0.0  2 0  775 1311  695
[19]  54(B18) 1f 43 13  0  -1035.1  4092002.6  0.1  2 0 1874 1997  643
[20]  55(B19) 1f 44  7  0  -2209.9  4092005.6  0.0  2 0 2107 2423 1414
[21]  58(B22) 1f 42  9  0  -4020.8  4092010.4  0.1  2 0 1091 1702  973
[22]  64(B28) 1f 39  7  0  -2062.1  4092005.2 -0.2  2 0  745  882  225
[32]  80(N-1) 8f 38  7  0  -2564.7  1022001.6 -0.6  2 0   484  743  284
[33]  81(N00) 8f 38  7  0  -1070.4  1022000.6 -0.2  2 0   303  664  133
[34]  82(N01) 8f 39  7  0  -3160.9  1022002.0  0.1  2 0   724  813  540
[35]  85(N04)  f 36  7  0  -5347.1  1022003.3 -0.1  2 0   357   54  130
[36]  75(N-6)  1 24 20  1   1103.1  1022000.0 -0.1  1 0   289  265   85
[48]  38(B02)  f 18 10  0   -350.0 20460005.0  0.0  2 0  623  614  321
[50]  46(B10)  1  7  7  0   -702.2 20460020.1  0.1  1 0  263  208  570
[51]  54(B18)  1  7  7  0   -479.0 20460014.8 -0.0  1 0  512  834  910
[52]  55(B19)  1  7  7  0  -1897.0 20460034.9  0.1  1 0  450  699  501
[53]  58(B22)  1  8  7  0  -3641.4 20460064.8 -0.0  1 0  524  448  343
[54]  64(B28)  1  7  7  0  -1643.3 20460033.6 -0.1  1 0  539  547  335
dyn_stat = 361.481712
Refix G03: 2, 179557.925861, -1425
Refix G16: 2, 179557.929844, -3550
Refix G22: 2, 179557.925460, -281
Refix G23: 2, 179557.917305, -4378
Refix G26: 2, 179557.933084, -1300
Refix G32: 1, 179557.926611, 1215
$GNGGA,015220.000,2944.9155,N,10633.0865,E,1,09,1.3,335.5,M,,,,0000*11
$GNRMC,015220.000,A,2944.9155,N,10633.0865,E,0.12,0.00,160419,,*1E
$GPGSA,A,3,03,16,22,23,26,,,,,,,,1.6,1.3,0.9*3F
$BDGSA,A,3,19,22,,,,,,,,,,,1.6,1.3,0.9*27
$GLGSA,A,3,01,12,,,,,,,,,,,1.6,1.3,0.9*20
$GPGSV,2,1,05,03,00,000,44,16,00,000,43,22,00,000,44,23,00,000,43*7A
$GPGSV,2,2,05,26,00,000,42*4E
$BDGSV,2,1,07,02,00,000,41,05,00,000,41,10,00,000,41,18,00,000,43*61
$BDGSV,2,2,07,19,00,000,44,22,00,000,42,28,00,000,39*51
$B3CN0,0,18,0,0,0,0,0,0,0,0,0,0,0,0*75
$GLGSV,1,1,02,01,00,000,38,12,00,000,39*64
---00000037--- Acq_st=7 0  2019-4-16 1:52:20 
[00]  02(G03)  f 44 10  0  -1426.2  2046001.8  0.0  2 0 1697 3214 1987
[01]  15(G16)  f 43  7  0  -3550.0  2046004.5  0.0  2 0 2415 3213 1555
[02]  21(G22)  f 44  7  0   -283.1  2046000.3 -0.1  2 0  861 2567 1340
