i=1
Rf R0 Config = ff777073
Rf R1 Config = 00dffbfe
Rf R52 Config = 00dfee00
i=2
Rf R0 Config = 007772f3
Rf R1 Config = 00df9bfe
Rf R52 Config = 00da6e70
i=3
Rf R0 Config = 007772f3
Rf R1 Config = 00dfdbfe
Rf R52 Config = 00de9070
i=4
Rf R0 Config = 00777273
Rf R1 Config = 00df9bfe
Rf R52 Config = 00deee20
SD initialized success
Create debug.log Failed! 3
Start Channel by LuYu
$GNGGA,000000.000,,,,,0,00,,,M,,,,0000*2B
$GNRMC,000000.000,A,,,,,,,060180,,*29
$GPGSA,A,1,,,,,,,,,,,,,,,*1E
$BDGSA,A,1,,,,,,,,,,,,,,,*0F
$GLGSA,A,1,,,,,,,,,,,,,,,*02
$B3CN0,0,0,0,0,0,0,0,0,0,0,0,0,0,0*4C
---00000001--- Acq_st=3 0  2019-4-16 2:54:55 
[00]  02(G03)  1 22  7  0    627.8  2045999.3  0.2  1 0 2420 3639 1612
[01]  07(G08)  1  7  7  0  -5000.0  2046007.3 -0.1  1 0  252  791  398
[02]  08(G09)  1  7  7  0  -4750.0  2046007.6  0.0  1 0  640 1473 1553
$GNGGA,000000.000,,,,,0,00,,,M,,,,0000*2B
$GNRMC,000000.000,A,,,,,,,060180,,*29
$GPGSA,A,1,,,,,,,,,,,,,,,*1E
$BDGSA,A,1,,,,,,,,,,,,,,,*0F
$GLGSA,A,1,,,,,,,,,,,,,,,*02
$B3CN0,0,0,0,0,0,0,0,0,0,0,0,0,0,0*4C
---00000002--- Acq_st=3 0  2019-4-16 2:54:56 
[00]  02(G03)  7 20  7  0    625.4  2045999.1  0.3 10 0 2518 3497 1259
[01]  07(G08)  1 29  7  0  -4814.7  2046006.3  0.8  1 0  428  605  464
[02]  08(G09)  1 29  7  0  -4615.7  2046005.8  0.7  1 0 1706 2138  842
[03]  15(G16)  1 14  7  0  -1356.0  2046004.5  0.1  1 0  391  754 2048
[04]  21(G22)  1  7  7  0   1000.0  2046000.4  0.0  1 0  486 1467  824
[05]  22(G23)  1  7  7  0  -4000.0  2046007.3 -0.0  1 0  353  836 2006
$GNGGA,000000.000,,,,,0,00,,,M,,,,0000*2B
$GNRMC,000000.000,A,,,,,,,060180,,*29
$GPGSA,A,1,,,,,,,,,,,,,,,*1E
$BDGSA,A,1,,,,,,,,,,,,,,,*0F
$GLGSA,A,1,,,,,,,,,,,,,,,*02
$GPGSV,1,1,01,03,00,000,19*43
$B3CN0,0,0,0,0,0,0,0,0,0,0,0,0,0,0*4C
---00000003--- Acq_st=3 0  2019-4-16 2:54:57 
[00]  02(G03)  7 46  7  0    624.9  2045999.1  0.0  2 0 2248 3992 1815
[01]  07(G08)  7 32  7  0  -4820.7  2046006.2  0.4  5 0  411 1005  447
[02]  08(G09)  7 33  7  0  -4612.0  2046005.9  0.3  5 0 1010 2154  898
[03]  15(G16)  7 20  7  0  -1353.1  2046001.6  0.5 10 0 1415 1735 1045
[04]  21(G22)  1 27  7  0   1087.5  2045998.2  0.7  1 0 1241 1522  697
[05]  22(G23)  1 33  8  0  -3979.2  2046005.4  0.7  1 0 2198 2164  497
[16]  38(B02)  1 10 13  1  -1500.0  4092004.0 -0.0  1 0  575 1152  799
$GNGGA,000000.000,,,,,0,00,,,M,,,,0000*2B
$GNRMC,000000.000,A,,,,,,,060180,,*29
$GPGSA,A,1,,,,,,,,,,,,,,,*1E
$BDGSA,A,1,,,,,,,,,,,,,,,*0F
$GLGSA,A,1,,,,,,,,,,,,,,,*02
$GPGSV,1,1,04,03,00,000,46,08,00,000,32,09,00,000,33,16,00,000,20*79
$B3CN0,0,0,0,0,0,0,0,0,0,0,0,0,0,0*4C
---00000004--- Acq_st=3 0  2019-4-16 2:54:58 
[00]  02(G03)  7 39  7  0    626.6  2045999.1  0.1  2 0 2767 3733 1461
[01]  07(G08)  7 32  7  0  -4821.2  2046006.2  0.1  5 0  852  990  391
[02]  08(G09)  7 36  9  0  -4614.2  2046005.9  0.1  2 0 1380 2039  703
[03]  15(G16)  7 37  7  0  -1350.6  2046001.6 -0.1  2 0 1384 2167 1077
[04]  21(G22)  7 31  7  0   1091.3  2045998.5  0.4  5 0 1246 2161  862
[05]  22(G23)  7 30  7  0  -3975.6  2046005.0  0.5  5 0 2194 2259  685
[16]  38(B02)  1 22 10  1  -1571.8  4092004.2  0.3  1 0  916  586  196
[17]  41(B05)  1 26 24  1   -973.4  4092003.1  0.1  1 0  335   71  580
[18]  45(B09)  1  7  7  0  -1250.0  4092003.7  0.0  1 0  140  228  731
$GNGGA,000000.000,,,,,0,00,,,M,,,,0000*2B
$GNRMC,000000.000,A,,,,,,,060180,,*29
$GPGSA,A,1,,,,,,,,,,,,,,,*1E
$BDGSA,A,1,,,,,,,,,,,,,,,*0F
$GLGSA,A,1,,,,,,,,,,,,,,,*02
$GPGSV,2,1,06,03,00,000,39,08,00,000,32,09,00,000,36,16,00,000,37*73
$GPGSV,2,2,06,22,00,000,31,23,00,000,30*7F
$B3CN0,0,0,0,0,0,0,0,0,0,0,0,0,0,0*4C
---00000005--- Acq_st=3 0  2019-4-16 2:54:59 
[00]  02(G03)  7 45  8  0    624.0  2045999.1  0.0  2 0 2866 3987 1433
[01]  07(G08)  7 37  7  0  -4823.5  2046006.2 -0.3  2 0  387  629  643
[02]  08(G09)  7 43  7  0  -4610.9  2046005.9  0.0  2 0 1683 2297  797
[03]  15(G16)  7 43  7  0  -1355.5  2046001.6 -0.1  2 0 1286 1943  734
[04]  21(G22)  7 42  7  0   1091.4  2045998.5  0.0  2 0  982 1573  756
[05]  22(G23)  7 44  7  0  -3976.4  2046005.0 -0.1  2 0 1364 2161  744
[16]  38(B02)  1 16 10  0  -1511.5  4092003.9  0.1  1 0  354  310  181
[17]  41(B05)  1 10 10  0   -585.9  4092005.4 -0.0  1 0  345  411  684
[18]  45(B09)  1  7  7  0  -1487.4  4092003.1 -0.1  1 0  276  332  329
[19]  46(B10)  1  7  7  0  -1001.5  4092004.1  0.2  1 0  519 1466  907
$GNGGA,000000.000,,,,,0,00,,,M,,,,0000*2B
$GNRMC,000000.000,A,,,,,,,060180,,*29
$GPGSA,A,1,,,,,,,,,,,,,,,*1E
$BDGSA,A,1,,,,,,,,,,,,,,,*0F
$GLGSA,A,1,,,,,,,,,,,,,,,*02
$GPGSV,2,1,06,03,00,000,45,08,00,000,37,09,00,000,43,16,00,000,43*7C
$GPGSV,2,2,06,22,00,000,42,23,00,000,44*78
$B3CN0,0,0,0,0,0,0,0,0,0,0,0,0,0,0*4C
---00000006--- Acq_st=3 0  2019-4-16 2:55:0 
[00]  02(G03)  7 44  7  0    621.8  2045999.1 -0.0  2 0 2252 3397 1485
[01]  07(G08)  7 36  7  0  -4828.1  2046006.3  0.3  2 0  588 1240  526
[02]  08(G09)  7 43  7  0  -4618.4  2046005.9 -0.0  2 0 1491 1940  758
[03]  15(G16)  7 43  7  0  -1356.5  2046001.6  0.1  2 0 1159 1682  490
[04]  21(G22)  7 43  9  0   1086.5  2045998.5  0.0  2 0  866 1680  981
[05]  22(G23)  7 43  7  0  -3981.3  2046005.1  0.0  2 0 1120 1700  619
[16]  38(B02)  1 13 23  0  -1873.7  4092004.6  0.1  1 0  292  213  267
[17]  41(B05)  1 10 10  0   -582.9  4092003.3 -0.2  1 0  682  619   54
[18]  45(B09)  1  7  7  0  -1376.8  4092002.1  0.1  1 0  453   66  115
[19]  46(B10)  7 26  7  0  -1002.5  4092002.5  0.2 10 0 1080 1628  513
[20]  54(B18)  1  7  7  0   -953.7  4092003.1  0.3  1 0 1075 2176 1486
[21]  55(B19)  1  7  7  0   -197.4  4092001.6  0.1  1 0 1482 2962 1661
[22]  58(B22)  1  7  7  0  -3000.0  4092006.8  0.0  1 0 1525 2829 1543
kf_residual=0.000000
$GNGGA,025501.641,,,,,0,00,,,M,,,,0000*2B
$GNRMC,025501.641,A,,,,,,,080180,,*27
$GPGSA,A,1,,,,,,,,,,,,,,,*1E
$BDGSA,A,1,,,,,,,,,,,,,,,*0F
$GLGSA,A,1,,,,,,,,,,,,,,,*02
$GPGSV,2,1,06,03,00,000,44,08,00,000,36,09,00,000,43,16,00,000,43*7C
$GPGSV,2,2,06,22,00,000,42,23,00,000,43*7F
$BDGSV,1,1,01,10,00,000,26*5C
$B3CN0,0,0,0,0,0,0,0,0,0,0,0,0,0,0*4C
---00000007--- Acq_st=3 0  2019-4-16 2:55:1 
[00]  02(G03)  f 45  7  0    620.8  2045999.1 -0.0  2 0 2314 3559 1611
[01]  07(G08)  f 36  7  0  -4831.5  2046006.3 -0.4  2 0  607  895  152
[02]  08(G09)  f 43  7  0  -4620.2  2046005.9  0.0  2 0 1689 2433 1299
[03]  15(G16)  f 43  7  0  -1357.1  2046001.7 -0.0  2 0 1396 1320  284
[04]  21(G22)  f 42  7  0   1088.7  2045998.5  0.0  2 0 1501 1917  929
[05]  22(G23)  f 43  8  0  -3981.0  2046005.1 -0.0  2 0 1624 2511 1422
[16]  38(B02)  1 13 10  0  -1556.6  4092006.2  0.1  1 0  424  301  197
[17]  41(B05)  1 10 10  0   -587.4  4092002.5  0.1  1 0  552  695  594
[18]  45(B09)  1  7  7  0  -1404.6  4092001.9  0.1  1 0  405  372  288
[19]  46(B10)  7 42  7  0  -1004.4  4092002.5  0.1  2 0 1106 1979  886
[20]  54(B18)  7 20  7  0   -952.1  4092002.5  0.4 10 0 1364 2416 1195
[21]  55(B19)  7  8  7  0   -195.6  4092000.4  0.7 10 0 1969 2385 1009
[22]  58(B22)  1  7  7  0  -2803.5  4092007.3  0.3  1 0 1408 2281 1667
kf_residual=0.000000
$GNGGA,025502.641,,,,,0,00,,,M,,,,0000*28
$GNRMC,025502.641,A,,,,,,,080180,,*24
$GPGSA,A,1,,,,,,,,,,,,,,,*1E
$BDGSA,A,1,,,,,,,,,,,,,,,*0F
$GLGSA,A,1,,,,,,,,,,,,,,,*02
$GPGSV,2,1,06,03,00,000,45,08,00,000,36,09,00,000,43,16,00,000,43*7D
$GPGSV,2,2,06,22,00,000,42,23,00,000,43*7F
$BDGSV,1,1,02,10,00,000,42,18,00,000,19*6C
$B3CN0,0,0,0,0,0,0,0,0,0,0,0,0,0,0*4C
---00000008--- Acq_st=3 0  2019-4-16 2:55:2 
[00]  02(G03)  f 45  8  0    622.6  2045999.1 -0.0  2 0 2572 3869 1531
[01]  07(G08)  f 35  7  0  -4819.8  2046006.2  0.4  2 0  930  715  372
[02]  08(G09)  f 43  7  0  -4611.8  2046005.9  0.0  2 0 1350 2286 1254
[03]  15(G16)  f 43  7  0  -1351.9  2046001.7  0.0  2 0 1395 1628  689
[04]  21(G22)  f 42  7  0   1089.8  2045998.5 -0.0  2 0  726 1765 1070
[05]  22(G23)  f 43  7  0  -3976.3  2046005.1  0.1  2 0 1340 2455 1180
[18]  45(B09)  1  7  7  0  -2164.2  4092001.8 -0.0  1 0  472  404  106
[19]  46(B10)  7 42  7  0   -999.3  4092002.5  0.0  2 0  889 1595  750
[20]  54(B18)  7 45  8  0   -946.2  4092002.4  0.0  2 0 2020 2367 1034
[21]  55(B19)  7 45  7  0   -193.2  4092000.4  0.0  2 0 1903 2952 1560
[22]  58(B22)  7 32  7  0  -2796.9  4092007.3  0.2  5 0 1670 2399 1109
[32]  75(N-6)  1 25 21  0   3000.0  1021999.9 -0.1  1 0   606  677  642
kf_residual=0.000000
$GNGGA,025503.641,,,,,0,00,,,M,,,,0000*29
$GNRMC,025503.641,A,,,,,,,080180,,*25
$GPGSA,A,1,,,,,,,,,,,,,,,*1E
$BDGSA,A,1,,,,,,,,,,,,,,,*0F
$GLGSA,A,1,,,,,,,,,,,,,,,*02
$GPGSV,2,1,06,03,00,000,45,08,00,000,35,09,00,000,43,16,00,000,43*7E
$GPGSV,2,2,06,22,00,000,42,23,00,000,43*7F
$BDGSV,1,1,04,10,00,000,42,18,00,000,45,19,00,000,45,22,00,000,31*68
$B3CN0,0,0,0,0,0,0,0,0,0,0,0,0,0,0*4C
---00000009--- Acq_st=7 0  2019-4-16 2:55:3 
[00]  02(G03)  f 45 10  0    625.2  2045999.1 -0.0  2 0 2890 3780 1761
[01]  07(G08)  f 36  8  0  -4821.0  2046006.2  0.1  2 0  451 1110  395
[02]  08(G09)  f 42  7  0  -4613.1  2046005.9  0.1  2 0 1340 2278 1157
[03]  15(G16)  f 43  7  0  -1350.6  2046001.7 -0.0  2 0  917 1501  685
[04]  21(G22)  f 42  7  0   1088.4  2045998.6  0.1  2 0  830 1723 1008
[05]  22(G23)  f 43  7  0  -3972.1  2046005.1 -0.0  2 0 1592 2480 1215
[19]  46(B10) 1f 41  7  0  -1000.8  4092002.5 -0.1  2 0 1101 1596  574
[20]  54(B18) 1f 43  7  0   -946.9  4092002.4 -0.0  2 0 1654 2685 1024
[21]  55(B19) 1f 44  7  0   -187.5  4092000.4  0.0  2 0 1989 2616  916
[22]  58(B22) 1f 44  7  0  -2791.5  4092007.3  0.0  2 0 1683 2339 1151
[32]  75(N-6)  1 24 17  0   3087.5  1021998.0  0.2  1 0   530  491  291
[33]  80(N-1)  1 31  7  0    730.1  1022000.0  0.7  1 0   329  607  223
[34]  82(N01)  1 30  7  0  -2042.5  1022001.7  0.4  1 0   865 1120  411
[35]  85(N04)  1 12 28  1  -4000.0  1022003.5  0.1  1 0    29  761 1362
kf_residual=0.000000
$GNGGA,025504.641,,,,,0,00,,,M,,,,0000*2E
$GNRMC,025504.641,A,,,,,,,080180,,*22
$GPGSA,A,1,,,,,,,,,,,,,,,*1E
$BDGSA,A,1,,,,,,,,,,,,,,,*0F
$GLGSA,A,1,,,,,,,,,,,,,,,*02
$GPGSV,2,1,06,03,00,000,45,08,00,000,36,09,00,000,42,16,00,000,43*7C
$GPGSV,2,2,06,22,00,000,42,23,00,000,43*7F
$BDGSV,1,1,04,10,00,000,41,18,00,000,43,19,00,000,44,22,00,000,44*6E
$B3CN0,0,0,0,0,0,0,0,0,0,0,0,0,0,0*4C
---00000010--- Acq_st=7 0  2019-4-16 2:55:4 
[00]  02(G03)  f 45  7  0    628.9  2045999.1 -0.0  2 0 3254 4508 1728
[01]  07(G08)  f 36  7  0  -4824.2  2046006.2 -0.0  2 0  513 1156  770
[02]  08(G09)  f 42  7  0  -4610.1  2046005.9 -0.1  2 0 1054 1762 1065
[03]  15(G16)  f 43  7  0  -1344.7  2046001.7 -0.0  2 0 1227 2166 1109
[04]  21(G22)  f 41  7  0   1096.1  2045998.5  0.0  2 0 1521 2459 1273
[05]  22(G23)  f 42  7  0  -3971.2  2046005.1  0.0  2 0 1392 2278  932
[19]  46(B10) 1f 42  7  0   -998.9  4092002.5 -0.0  2 0  719 1003  240
[20]  54(B18) 1f 43  7  0   -942.1  4092002.4  0.0  2 0 1469 2193 1229
[21]  55(B19) 1f 44  7  0   -187.5  4092000.4 -0.0  2 0 1612 2348 1153
[22]  58(B22) 1f 43  7  0  -2787.8  4092007.2  0.0  2 0 1004 1683  720
[32]  75(N-6)  7 32 19  0   3066.2  1021997.9  0.0  5 0   481  597  325
[33]  80(N-1)  7 29  7  0    729.3  1021999.5  0.3  5 0   262  179  252
[34]  82(N01)  7 24  7  0  -2040.0  1022001.3  0.8 10 0   658  923  369
[35]  85(N04)  1 32 10  0  -3878.1  1022003.2  1.0  1 0  1217 1465  742
[51]  46(B10)  1  7  7  0   -495.6 20460016.2 -0.0  1 0  488  456  145
[52]  54(B18)  1  7  7  0  -1024.4 20460015.1  0.1  1 0  523  109  504
[53]  55(B19)  1  7  7  0   -362.7 20460001.5  0.1  1 0  311  232  425
[54]  58(B22)  1  7  7  0  -2392.5 20460045.0  0.0  1 0  462  458  174
kf_residual=0.000000
$GNGGA,025505.641,,,,,0,00,,,M,,,,0000*2F
$GNRMC,025505.641,A,,,,,,,080180,,*23
$GPGSA,A,1,,,,,,,,,,,,,,,*1E
$BDGSA,A,1,,,,,,,,,,,,,,,*0F
$GLGSA,A,1,,,,,,,,,,,,,,,*02
$GPGSV,2,1,06,03,00,000,45,08,00,000,36,09,00,000,42,16,00,000,43*7C
$GPGSV,2,2,06,22,00,000,41,23,00,000,43*7C
$BDGSV,1,1,04,10,00,000,42,18,00,000,43,19,00,000,44,22,00,000,43*6A
$B3CN0,0,0,0,0,0,0,0,0,0,0,0,0,0,0*4C
---00000011--- Acq_st=3 0  2019-4-16 2:55:5 
[00]  02(G03)  f 46  7  0    629.4  2045999.1  0.0  2 0 2887 4399 2124
[01]  07(G08)  f 36  7  0  -4820.4  2046006.3  0.2  2 0  546  881  320
[02]  08(G09)  f 43  9  0  -4613.6  2046006.0  0.1  2 0 1180 1913  837
[03]  15(G16)  f 43  7  0  -1347.2  2046001.6  0.0  2 0 1148 1864  600
[04]  21(G22)  f 41  7  0   1095.0  2045998.5 -0.1  2 0 1385 1965  731
[05]  22(G23)  f 42  7  0  -3973.2  2046005.2 -0.0  2 0 1369 1989  738
[19]  46(B10) 1f 42  7  0   -996.0  4092002.5 -0.0  2 0 1241 1755  615
[20]  54(B18) 1f 43  7  0   -943.6  4092002.4 -0.1  2 0 1832 2392 1126
[21]  55(B19) 1f 44  7  0   -184.9  4092000.4  0.0  2 0 1852 2528  887
[22]  58(B22) 1f 43  7  0  -2792.7  4092007.2 -0.1  2 0 1933 2264  788
[32]  75(N-6)  7 31 19  0   3067.4  1021997.9  0.0  5 0    89  310  247
[33]  80(N-1)  7 34  7  0    730.7  1021999.5 -0.1  5 0   189  414  345
[34]  82(N01)  7 40  7  0  -2038.6  1022001.3  0.2  2 0   849 1438  594
[35]  85(N04)  1 33  9  0  -3878.8  1022002.2  1.0  1 0  1281 1620  645
[51]  46(B10)  1  7  7  0   -585.4 20460015.4 -0.0  1 0  137  315  422
[52]  54(B18)  1  7  7  0   -927.9 20460015.7  0.1  1 0  529  684  496
[53]  55(B19)  1  7  7  0   -176.0 20460003.3  0.1  1 0  441  605  636
[54]  58(B22)  1  7  7  0  -2681.4 20460045.1 -0.0  1 0  407  367  510
kf_residual=0.000000
$GNGGA,025506.641,,,,,0,00,,,M,,,,0000*2C
$GNRMC,025506.641,A,,,,,,,080180,,*20
$GPGSA,A,1,,,,,,,,,,,,,,,*1E
$BDGSA,A,1,,,,,,,,,,,,,,,*0F
$GLGSA,A,1,,,,,,,,,,,,,,,*02
$GPGSV,2,1,06,03,00,000,46,08,00,000,36,09,00,000,43,16,00,000,43*7E
$GPGSV,2,2,06,22,00,000,41,23,00,000,42*7D
$BDGSV,1,1,04,10,00,000,42,18,00,000,43,19,00,000,44,22,00,000,43*6A
$B3CN0,0,0,0,0,0,0,0,0,0,0,0,0,0,0*4C
---00000012--- Acq_st=3 0  2019-4-16 2:55:6 
[00]  02(G03)  f 46  7  0    626.7  2045999.1 -0.0  2 0 3470 4919 2103
[01]  07(G08)  f 37  7  0  -4823.9  2046006.2 -0.1  2 0  564  937  382
[02]  08(G09)  f 43  7  0  -4612.6  2046005.9 -0.1  2 0 1210 1892  503
[03]  15(G16)  f 43  7  0  -1349.0  2046001.7  0.0  2 0 1920 2218 1345
[04]  21(G22)  f 42  7  0   1095.1  2045998.5  0.0  2 0  746 1608  962
[05]  22(G23)  f 42  7  0  -3976.6  2046005.2  0.0  2 0  852 1635 1193
[19]  46(B10) 1f 42  7  0  -1001.4  4092002.5  0.1  2 0 1120 1481  643
[20]  54(B18) 1f 43  7  0   -945.8  4092002.4  0.0  2 0 1180 1897  765
[21]  55(B19) 1f 44  7  0   -187.7  4092000.4 -0.0  2 0 1884 2052  507
[22]  58(B22) 1f 43  7  0  -2792.1  4092007.2  0.0  2 0 1099 1682  972
[32]  75(N-6)  f 28 13  0   3063.5  1021997.8  0.1 10 0   566  606  105
[33]  80(N-1)  7 35 12  0    729.6  1021999.4 -0.2  2 0   446  491  131
[34]  82(N01)  7 40  7  0  -2042.6  1022001.2  0.2  2 0   651 1203  577
[35]  85(N04)  7 43 17  0  -3878.3  1022002.4 -0.2  2 0   474  954  696
[51]  46(B10)  1  7  7  0   -631.3 20460016.8 -0.0  1 0  517  334  542
[52]  54(B18)  1  7  7  0   -778.1 20460017.2  0.0  1 0  170  284  479
[53]  55(B19)  1  7  7  0     43.7 20460002.9  0.1  1 0   52  470  340
[54]  58(B22)  1  7  7  0  -3274.7 20460045.3  0.1  1 0  466  255  357
kf_residual=0.000000
$GNGGA,025507.641,,,,,0,00,,,M,,,,0000*2D
$GNRMC,025507.641,A,,,,,,,080180,,*21
$GPGSA,A,1,,,,,,,,,,,,,,,*1E
$BDGSA,A,1,,,,,,,,,,,,,,,*0F
$GLGSA,A,1,,,,,,,,,,,,,,,*02
$GPGSV,2,1,06,03,00,000,46,08,00,000,37,09,00,000,43,16,00,000,43*7F
$GPGSV,2,2,06,22,00,000,42,23,00,000,42*7E
$BDGSV,1,1,04,10,00,000,42,18,00,000,43,19,00,000,44,22,00,000,43*6A
$B3CN0,0,0,0,0,0,0,0,0,0,0,0,0,0,0*4C
---00000013--- Acq_st=3 0  2019-4-16 2:55:7 
[00]  02(G03)  f 46  7  0    631.5  2045999.1 -0.0  2 0 3767 5107 1968
[01]  07(G08)  f 37  7  0  -4824.6  2046006.2  0.1  2 0  532  909  393
[02]  08(G09)  f 43  7  0  -4610.9  2046005.9  0.0  2 0 1387 2490 1291
[03]  15(G16)  f 43  7  0  -1343.4  2046001.7  0.0  2 0 1331 2278 1207
[04]  21(G22)  f 41  7  0   1098.1  2045998.5 -0.0  2 0  776 1987 1612
[05]  22(G23)  f 42  7  0  -3971.6  2046005.1 -0.0  2 0  776 1314  450
[16]  38(B02)  1 10 26  1  -1063.1  4092003.8 -0.0  1 0  402  555 1267
[17]  41(B05)  1 10 22  0  -1000.0  4092002.3 -0.1  1 0  415  747  745
[19]  46(B10) 1f 42  7  0   -994.0  4092002.5  0.0  2 0 1065 1674  708
[20]  54(B18) 1f 43  7  0   -943.7  4092002.3  0.1  2 0 1721 2338  733
[21]  55(B19) 1f 44  7  0   -184.4  4092000.4 -0.0  2 0 1678 2796 1481
[22]  58(B22) 1f 43  7  0  -2788.2  4092007.2  0.1  2 0 1378 1751  971
[32]  75(N-6)  f 32  7  0   3073.5  1021998.0  0.0  5 0   335  289  217
[33]  80(N-1)  7 36  8  0    734.2  1021999.4  0.2  2 0   438  505  105
[34]  82(N01)  7 39  7  0  -2039.0  1022001.3 -0.5  2 0   556 1176  670
[35]  85(N04)  7 42  7  0  -3874.0  1022002.4 -0.1  2 0   948 1611  882
[51]  46(B10)  1  7  7  0   -734.0 20460014.7 -0.0  1 0  279  495  360
[52]  54(B18)  1  7  7  0   -688.3 20460014.4  0.2  1 0  125  343  513
[53]  55(B19)  1  7  7  0   -132.3 20460004.3 -0.0  1 0  335  161  383
[54]  58(B22)  1  7  7  0  -3651.8 20460045.7 -0.1  1 0  332  208   55
kf_residual=0.000000
$GNGGA,025508.641,,,,,0,00,,,M,,,,0000*22
$GNRMC,025508.641,A,,,,,,,080180,,*2E
$GPGSA,A,1,,,,,,,,,,,,,,,*1E
$BDGSA,A,1,,,,,,,,,,,,,,,*0F
$GLGSA,A,1,,,,,,,,,,,,,,,*02
$GPGSV,2,1,06,03,00,000,46,08,00,000,37,09,00,000,44,16,00,000,43*78
$GPGSV,2,2,06,22,00,000,42,23,00,000,42*7E
$BDGSV,1,1,04,10,00,000,42,18,00,000,43,19,00,000,43,22,00,000,42*6C
$B3CN0,0,0,0,0,0,0,0,0,0,0,0,0,0,0*4C
---00000014--- Acq_st=3 0  2019-4-16 2:55:8 
[00]  02(G03)  f 46  8  0    624.1  2045999.1 -0.0  2 0 3357 4800 2253
[01]  07(G08)  f 37  7  0  -4834.3  2046006.2 -0.6  2 0  427  837  531
[02]  08(G09)  f 44  7  0  -4614.1  2046005.9 -0.0  2 0 1297 1973  580
[03]  15(G16)  f 43  7  0  -1354.9  2046001.7  0.0  2 0 1349 2005 1035
[04]  21(G22)  f 42  7  0   1088.5  2045998.6 -0.1  2 0  858 1613 1016
[05]  22(G23)  f 42  7  0  -3977.1  2046005.1  0.0  2 0 1641 2791 1171
[16]  38(B02)  1 10 25  1  -1083.7  4092005.0  0.4  1 0 1238 1570  742
[17]  41(B05)  1 10 10  1   -731.3  4092002.7 -0.0  1 0  125  116  214
[19]  46(B10) 1f 42  7  0  -1003.4  4092002.5  0.0  2 0 1190 1605  762
[20]  54(B18) 1f 43  7  0   -949.5  4092002.4 -0.0  2 0 1750 2190  833
[21]  55(B19) 1f 43  7  0   -190.2  4092000.4  0.0  2 0 1724 2417  933
[22]  58(B22) 1f 42  7  0  -2792.6  4092007.2  0.0  2 0 1429 2196  952
[32]  75(N-6)  f 32 15  0   3063.4  1021998.0 -0.0  5 0   598  816  206
[33]  80(N-1)  f 31  7  0    728.7  1021999.5  0.1  5 0   561  690  159
[34]  82(N01)  f 32  7  0  -2045.8  1022001.3 -0.3  5 0   333 1302 1116
[35]  85(N04)  f 33  7  0  -3883.5  1022002.4  0.0  5 0   848 1608 1068
---00000015--- Acq_st=3 0  2019-4-16 2:55:9 
[00]  02(G03)  f 43  7  0    629.4  2045999.1 -0.0  2 0 2297 3191 1434
[01]  07(G08)  f 35  7  0  -4822.1  2046006.6  0.0  2 0  455  622  476
[02]  08(G09)  f 39  7  0  -4567.7  2046006.0 -0.1  2 0  950 1445  636
[03]  15(G16)  f 40  7  0  -1308.2  2046001.7 -0.1  2 0 1045 1722  889
[04]  21(G22)  f 38  7  0   1091.3  2045998.3  0.1  2 0  780 1346  597
[05]  22(G23)  f 39  9  0  -3961.7  2046005.0  0.0  2 0  869 1260  625
[16]  38(B02)  f 37 25  0  -1072.8  4092002.8  0.6  2 0 1284 1416  320
[17]  41(B05)  1 10 10  0  -1503.7  4092003.9 -0.2  1 0  425  555  566
[19]  46(B10) 1f 41  7  0   -993.4  4092002.5 -0.1  2 0  992 1818  846
[20]  54(B18) 1f 43  7  0   -942.5  4092002.3  0.0  2 0 1779 2444  910
[21]  55(B19) 1f 44  7  0   -184.6  4092000.4  0.0  2 0 2448 2780  926
[22]  58(B22) 1f 42  7  0  -2786.5  4092007.2 -0.1  2 0 1747 2316  806
[32]  75(N-6)  f 32 15  0   3071.2  1021998.0 -0.1  5 0   234  258   67
[33]  80(N-1)  f 37  7  0    735.3  1021999.4  0.1  2 0   527  666  217
[34]  82(N01)  f 40  7  0  -2038.1  1022001.3  0.4  2 0   561  806  205
[35]  85(N04)  f 42  7  0  -3873.7  1022002.5 -0.2  2 0   684 1363  608
[51]  46(B10)  1  7  7  0   -742.5 20460016.2 -0.1  1 0  772  496  190
[52]  54(B18)  1  7  7  0   -463.8 20460013.9  0.0  1 0  473  407  564
[53]  55(B19)  1  7  7  0   -239.6 20460005.1  0.3  1 0  381  431  139
[54]  58(B22)  1  7 10  0  -1893.9 20460043.9 -0.1  1 0  917  442  277
kf_residual=0.000000
$GNGGA,025509.641,,,,,0,00,,,M,,,,0000*23
$GNRMC,025509.641,A,,,,,,,080180,,*2F
$GPGSA,A,1,,,,,,,,,,,,,,,*1E
$BDGSA,A,1,,,,,,,,,,,,,,,*0F
$GLGSA,A,1,,,,,,,,,,,,,,,*02
$GPGSV,2,1,06,03,00,000,43,08,00,000,35,09,00,000,39,16,00,000,40*76
$GPGSV,2,2,06,22,00,000,38,23,00,000,39*7F
$BDGSV,2,1,05,02,00,000,37,10,00,000,41,18,00,000,43,19,00,000,44*6A
$BDGSV,2,2,05,22,00,000,42*5B
$B3CN0,0,0,0,0,0,0,0,0,0,0,0,0,0,0*4C
---00000016--- Acq_st=3 0  2019-4-16 2:55:10 
[00]  02(G03)  f 41  7  0    627.7  2045999.1 -0.1  2 0 3244 4716 1877
[01]  07(G08)  f 34  7  0  -4825.6  2046006.2 -0.7  5 0  943  982  311
[02]  08(G09)  f 39  7  0  -4613.2  2046005.9  0.1  2 0 1728 2299  419
[03]  15(G16)  f 37  7  0  -1346.0  2046001.7  0.0  2 0 1052 2335 1005
[04]  21(G22)  f 38  7  0   1091.7  2045998.5  0.1  2 0 1556 2196 1215
[05]  22(G23)  f 37  7  0  -3974.4  2046005.1 -0.1  2 0 1495 2018  851
[16]  38(B02)  f 41 23  0  -1078.1  4092002.8  0.7  2 0  990 1566  739
[17]  41(B05)  1 10 10  0  -1582.5  4092004.9 -0.1  1 0  584  575  409
[19]  46(B10) 1f 41  7  0   -999.4  4092002.5  0.1  2 0 1297 1587  754
[20]  54(B18) 1f 42  7  0   -947.6  4092002.4  0.0  2 0 1999 2309  813
[21]  55(B19) 1f 42  7  0   -186.2  4092000.4  0.0  2 0 1766 2335  806
[22]  58(B22) 1f 42  7  0  -2791.4  4092007.2  0.0  2 0 1748 2030 1062
[32]  75(N-6)  f 34 13  0   3068.9  1021998.0  0.1  5 0   718  742  386
[33]  80(N-1)  f 38  7  0    736.2  1021999.5  0.1  2 0   573  916  293
[34]  82(N01)  f 39  7  0  -2039.1  1022001.3  0.1  2 0   504 1148  736
[35]  85(N04)  f 42  7  0  -3878.2  1022002.4  0.1  2 0   722 1125  628
[48]  38(B02)  1 10 36  1   -727.6 20460018.4 -0.1  1 0  496  313  208
[51]  46(B10)  1  7  7  0   -650.4 20460015.2  0.2  1 0  468  407  366
[52]  54(B18)  1  7  7  0   -417.2 20460017.9  0.1  1 0  437  446  722
[53]  55(B19)  1  7  7  0   -801.3 20460003.9 -0.0  1 0  406  270  167
[54]  58(B22)  1  7  7  0  -1519.9 20460043.4 -0.1  1 0  180  115  271
kf_residual=0.000000
$GNGGA,025510.641,,,,,0,00,,,M,,,,0000*2B
$GNRMC,025510.641,A,,,,,,,080180,,*27
$GPGSA,A,1,,,,,,,,,,,,,,,*1E
$BDGSA,A,1,,,,,,,,,,,,,,,*0F
$GLGSA,A,1,,,,,,,,,,,,,,,*02
$GPGSV,2,1,06,03,00,000,41,08,00,000,34,09,00,000,39,16,00,000,37*75
$GPGSV,2,2,06,22,00,000,38,23,00,000,37*71
$BDGSV,2,1,05,02,00,000,41,10,00,000,41,18,00,000,42,19,00,000,42*6C
$BDGSV,2,2,05,22,00,000,42*5B
$B3CN0,0,0,0,0,0,0,0,0,0,0,0,0,0,0*4C
---00000017--- Acq_st=3 0  2019-4-16 2:55:11 
[00]  02(G03)  f 46  7  0    629.6  2045999.1  0.0  2 0 2877 4662 2015
[01]  07(G08)  f 37  7  0  -4825.4  2046006.2 -0.0  2 0  628  762  191
[02]  08(G09)  f 43  8  0  -4613.8  2046005.9  0.0  2 0 1551 2500 1373
[03]  15(G16)  f 43  7  0  -1344.6  2046001.7  0.0  2 0  944 2290  769
[04]  21(G22)  f 43  8  0   1091.3  2045998.5 -0.1  2 0 1608 2135  746
[05]  22(G23)  f 43 10  0  -3973.0  2046005.1 -0.0  2 0 1964 2161  554
[16]  38(B02)  f 41 24  0  -1077.4  4092002.7  0.1  2 0  964 1462  675
[17]  41(B05)  1 10 10  0  -1611.7  4092003.3 -0.0  1 0  831  265  363
[19]  46(B10) 1f 42  7  0   -998.4  4092002.5  0.0  2 0 1224 1683  681
[20]  54(B18) 1f 43  7  0   -946.3  4092002.4  0.1  2 0 1630 1823  974
[21]  55(B19) 1f 44  7  0   -185.7  4092000.4  0.1  2 0 1974 2795 1202
[22]  58(B22) 1f 43  7  0  -2793.5  4092007.2 -0.0  2 0 1889 2186  962
[32]  75(N-6)  f 35 15  0   3068.6  1021998.0  0.0  2 0   276  443  463
[33]  80(N-1)  f 37  7  0    736.1  1021999.6 -0.1  2 0   181  528  312
[34]  82(N01)  f 40  7  0  -2040.2  1022001.2 -0.1  2 0   638 1186  378
[35]  85(N04)  f 42  7  0  -3876.5  1022002.5 -0.1  2 0   882 1432  788
[48]  38(B02)  7 18 10  0   -761.0 20460013.2  0.1  2 0  210  252  353
[51]  46(B10)  1  7  7  0   -583.4 20460017.6  0.0  1 0   39  285  441
[52]  54(B18)  1  9  7  0   -108.7 20460015.4  0.1  1 0  614  362   83
[53]  55(B19)  1 10  9  0   -256.4 20460004.1 -0.1  1 0  277  537  609
[54]  58(B22)  1  7  7  0  -2022.6 20460046.5 -0.1  1 0  247  389  151
kf_residual=0.000000
$GNGGA,025511.641,,,,,0,00,,,M,,,,0000*2A
$GNRMC,025511.641,A,,,,,,,080180,,*26
$GPGSA,A,1,,,,,,,,,,,,,,,*1E
$BDGSA,A,1,,,,,,,,,,,,,,,*0F
$GLGSA,A,1,,,,,,,,,,,,,,,*02
$GPGSV,2,1,06,03,00,000,46,08,00,000,37,09,00,000,43,16,00,000,43*7F
$GPGSV,2,2,06,22,00,000,43,23,00,000,43*7E
$BDGSV,2,1,05,02,00,000,41,10,00,000,42,18,00,000,43,19,00,000,44*68
$BDGSV,2,2,05,22,00,000,43*5A
$B3CN0,0,18,0,0,0,0,0,0,0,0,0,0,0,0*75
---00000018--- Acq_st=7 0  2019-4-16 2:55:12 
[00]  02(G03)  f 45  7  0    634.5  2045999.1  0.0  2 0 2656 4253 1775
[01]  07(G08)  f 38  8  0  -4817.7  2046006.2  0.5  2 0  700 1177  848
[02]  08(G09)  f 43  7  0  -4606.8  2046005.9  0.1  2 0 1410 2534 1235
[03]  15(G16)  f 41  7  0  -1340.2  2046001.7 -0.1  2 0 1114 1914  726
[04]  21(G22)  f 43  7  0   1099.9  2045998.5  0.0  2 0 1532 2047 1312
[05]  22(G23)  f 43  9  0  -3968.1  2046005.1 -0.0  2 0 1468 2410  780
[16]  38(B02) 1f 41 27  0  -1070.9  4092002.7  0.1  2 0 1103 1349  642
[19]  46(B10) 1f 42  7  0   -993.9  4092002.4  0.1  2 0 1222 1442  503
[20]  54(B18) 1f 43  7  0   -941.1  4092002.4 -0.0  2 0 1546 1971 1018
[21]  55(B19) 1f 44  7  0   -177.5  4092000.3 -0.0  2 0 1752 2578 1040
[22]  58(B22) 1f 44  7  0  -2782.2  4092007.2  0.0  2 0 1510 2310 1413
[32]  75(N-6)  f 36  8  0   3076.2  1021997.9  0.1  2 0   600  390  118
[33]  80(N-1)  f 35  7  0    741.2  1021999.5 -0.0  2 0    56  406  235
[34]  82(N01)  f 39  7  0  -2034.9  1022001.3  0.0  2 0   791 1169  663
[35]  85(N04)  f 42  7  0  -3868.4  1022002.4  0.1  2 0   576 1214  573
[36]  81(N00)  1 22  7  0   -143.6  1022001.4 -0.0  1 0   573  544  302
[48]  38(B02)  7 18 10  1   -249.8 20460002.6 -0.1  2 0  466  225  409
[51]  46(B10)  1  7  7  0   -851.4 20460016.1  0.0  1 0  564  573  270
[52]  54(B18)  1  9  7  0   -144.8 20460015.2  0.1  1 0  880 1029  406
[53]  55(B19)  1  7  7  0    169.3 20460004.4 -0.0  1 0  225  219  441
[54]  58(B22)  1  7  7  0  -1735.8 20460044.2  0.1  1 0   82  404  567
kf_residual=0.000000
$GNGGA,025512.641,,,,,0,00,,,M,,,,0000*29
$GNRMC,025512.641,A,,,,,,,080180,,*25
$GPGSA,A,1,,,,,,,,,,,,,,,*1E
$BDGSA,A,1,,,,,,,,,,,,,,,*0F
$GLGSA,A,1,,,,,,,,,,,,,,,*02
$GPGSV,2,1,06,03,00,000,45,08,00,000,38,09,00,000,43,16,00,000,41*71
$GPGSV,2,2,06,22,00,000,43,23,00,000,43*7E
$BDGSV,2,1,05,02,00,000,41,10,00,000,42,18,00,000,43,19,00,000,44*68
$BDGSV,2,2,05,22,00,000,44*5D
$B3CN0,0,18,0,0,0,0,0,0,0,0,0,0,0,0*75
---00000019--- Acq_st=7 0  2019-4-16 2:55:13 
[00]  02(G03)  f 45  7  0    628.1  2045999.1 -0.0  2 0 2573 4110 1879
[01]  07(G08)  f 37  7  0  -4826.2  2046006.2 -0.4  2 0  548 1180  412
[02]  08(G09)  f 43  7  0  -4615.4  2046005.9 -0.1  2 0 1071 1906 1435
[03]  15(G16)  f 42  7  0  -1349.5  2046001.7 -0.0  2 0 1138 1962 1012
[04]  21(G22)  f 42  7  0   1089.2  2045998.5 -0.0  2 0 1391 2249 1083
[05]  22(G23)  f 43  7  0  -3973.0  2046005.1 -0.0  2 0 1119 2016  982
[16]  38(B02) 1f 40 20  0  -1077.8  4092002.8 -0.2  2 0 1264 1615  613
[19]  46(B10) 1f 42  7  0  -1000.7  4092002.5  0.1  2 0 1105 1679  661
[20]  54(B18) 1f 43  9  0   -946.8  4092002.4  0.0  2 0 1862 2082  895
[21]  55(B19) 1f 44  7  0   -187.0  4092000.4 -0.0  2 0 2030 2426  875
[22]  58(B22) 1f 43  7  0  -2791.4  4092007.2  0.0  2 0 1840 2457 1169
[32]  75(N-6)  f 36  8  0   3067.1  1021998.0  0.0  2 0   380  595  645
[33]  80(N-1)  f 34  7  0    735.6  1021999.5  0.0  2 0   194  401  251
[34]  82(N01)  f 39  7  0  -2041.3  1022001.3  0.1  2 0   266  874  752
[35]  85(N04)  f 42  7  0  -3876.1  1022002.5 -0.1  2 0   429  945  356
[36]  81(N00)  7 12  7  0   -168.7  1021999.9 -0.1 10 0   299  307  132
[48]  38(B02)  7 10 36  1   -459.3 20460005.7  0.0  2 0  433  216  229
kf_residual=0.000000
$GNGGA,025513.641,,,,,0,00,,,M,,,,0000*28
$GNRMC,025513.641,A,,,,,,,080180,,*24
$GPGSA,A,1,,,,,,,,,,,,,,,*1E
$BDGSA,A,1,,,,,,,,,,,,,,,*0F
$GLGSA,A,1,,,,,,,,,,,,,,,*02
$GPGSV,2,1,06,03,00,000,45,08,00,000,37,09,00,000,43,16,00,000,42*7D
$GPGSV,2,2,06,22,00,000,42,23,00,000,43*7F
$BDGSV,2,1,05,02,00,000,40,10,00,000,42,18,00,000,43,19,00,000,44*69
$BDGSV,2,2,05,22,00,000,43*5A
$B3CN0,0,0,0,0,0,0,0,0,0,0,0,0,0,0*4C
---00000020--- Acq_st=3 0  2019-4-16 2:55:14 
[00]  02(G03)  f 45  7  0    627.2  2045999.1  0.0  2 0 2411 3973 1881
[01]  07(G08)  f 37  7  0  -4827.8  2046006.2  0.8  2 0  821  969  304
[02]  08(G09)  f 43  7  0  -4614.7  2046005.9  0.0  2 0 1346 2245  923
[03]  15(G16)  f 42  7  0  -1350.2  2046001.7  0.0  2 0 1593 2076  726
[04]  21(G22)  f 43  7  0   1090.3  2045998.5 -0.1  2 0 1194 1931 1074
[05]  22(G23)  f 43  9  0  -3975.8  2046005.1  0.0  2 0 1328 2348 1429
[16]  38(B02) 1f 40 27  0  -1078.5  4092002.6 -0.4  2 0 1132 1489  702
[19]  46(B10) 1f 42  7  0  -1004.1  4092002.5  0.0  2 0 1202 1523  935
[20]  54(B18) 1f 43 11  0   -947.8  4092002.4  0.1  2 0 1597 2171  853
[21]  55(B19) 1f 44  7  0   -186.7  4092000.4  0.0  2 0 1230 2198  740
[22]  58(B22) 1f 44  7  0  -2791.0  4092007.2  0.1  2 0 1967 2740 1412
[32]  75(N-6)  f 35 15  0   3065.8  1021998.1  0.1  2 0   506  586  366
[33]  80(N-1)  f 35  7  0    735.4  1021999.5 -0.1  2 0   290  662  447
[34]  82(N01)  f 38  7  0  -2042.9  1022001.4 -0.2  2 0   157  524  465
[35]  85(N04)  f 42  7  0  -3877.6  1022002.4  0.2  2 0   732 1523  895
[36]  81(N00)  7 29 11  0   -155.8  1022000.0 -0.1  5 0   432  595  525
[48]  38(B02)  7 22 10  1      5.9 20460000.2  0.2  2 0  443  878  915
[51]  46(B10)  1  7  7  0  -1129.5 20460015.1  0.0  1 0  557  136  640
[52]  54(B18)  1  7  7  0   -659.4 20460013.6 -0.3  1 0  180  333  523
[53]  55(B19)  1  8  7  0   -513.0 20460004.1 -0.2  1 0  214  749  764
[54]  58(B22)  1  7  7  0  -1948.0 20460044.1 -0.1  1 0  573  764  289
kf_residual=0.000000
$GNGGA,025514.641,,,,,0,00,,,M,,,,0000*2F
$GNRMC,025514.641,A,,,,,,,080180,,*23
$GPGSA,A,1,,,,,,,,,,,,,,,*1E
$BDGSA,A,1,,,,,,,,,,,,,,,*0F
$GLGSA,A,1,,,,,,,,,,,,,,,*02
$GPGSV,2,1,06,03,00,000,45,08,00,000,37,09,00,000,43,16,00,000,42*7D
$GPGSV,2,2,06,22,00,000,43,23,00,000,43*7E
$BDGSV,2,1,05,02,00,000,40,10,00,000,42,18,00,000,43,19,00,000,44*69
$BDGSV,2,2,05,22,00,000,44*5D
$B3CN0,0,23,0,0,0,0,0,0,0,0,0,0,0,0*7D
---00000021--- Acq_st=3 0  2019-4-16 2:55:15 
[00]  02(G03)  f 45  7  0    629.1  2045999.1 -0.0  2 0 2918 4257 1823
[01]  07(G08)  f 37  7  0  -4822.7  2046006.2  0.5  2 0  719 1198  460
[02]  08(G09)  f 44  7  0  -4613.2  2046005.9 -0.0  2 0 1691 2922 1852
[03]  15(G16)  f 42  7  0  -1344.3  2046001.7  0.1  2 0 1277 2125 1176
[04]  21(G22)  f 43 11  0   1091.3  2045998.5 -0.0  2 0 1084 1872 1143
[05]  22(G23)  f 42  7  0  -3977.3  2046005.2  0.0  2 0  945 1638  619
[16]  38(B02) 1f 41 25  0  -1077.1  4092002.8 -0.2  2 0 1232 1590  940
[19]  46(B10) 1f 42  7  0   -998.9  4092002.5 -0.0  2 0 1765 1947  653
[20]  54(B18) 1f 43  7  0   -947.6  4092002.4 -0.0  2 0 1390 2418 1139
[21]  55(B19) 1f 44  7  0   -185.4  4092000.4  0.0  2 0 2236 2822 1037
[22]  58(B22) 1f 44  7  0  -2787.8  4092007.2 -0.0  2 0 1600 2248 1081
[32]  75(N-6)  f 33 16  0   3054.8  1021998.0 -0.0  2 0   377  408  209
[33]  80(N-1)  f 36  7  0    738.3  1021999.5  0.1  2 0   735 1026  451
[34]  82(N01)  f 38  7  0  -2038.7  1022001.2 -0.1  2 0   557 1068  409
[35]  85(N04)  f 42  7  0  -3873.8  1022002.5 -0.1  2 0   938 1486  749
[36]  81(N00)  7 18 21  0   -322.0  1022000.2  0.1 10 0   298  195  238
[51]  46(B10)  1  7  7  0  -1219.7 20460016.9  0.1  1 0  532  784  762
[52]  54(B18)  1  7  7  0   -143.4 20460016.5  0.0  1 0 1066  847  606
[53]  55(B19)  1  7  7  0   -381.9 20460003.0 -0.0  1 0  451  395  440
[54]  58(B22)  1  7  7  0  -1382.6 20460044.3 -0.1  1 0  338  548  670
kf_residual=0.000000
$GNGGA,025515.641,,,,,0,00,,,M,,,,0000*2E
$GNRMC,025515.641,A,,,,,,,080180,,*22
$GPGSA,A,1,,,,,,,,,,,,,,,*1E
$BDGSA,A,1,,,,,,,,,,,,,,,*0F
$GLGSA,A,1,,,,,,,,,,,,,,,*02
$GPGSV,2,1,06,03,00,000,45,08,00,000,37,09,00,000,44,16,00,000,42*7A
$GPGSV,2,2,06,22,00,000,43,23,00,000,42*7F
$BDGSV,2,1,05,02,00,000,41,10,00,000,42,18,00,000,43,19,00,000,44*68
$BDGSV,2,2,05,22,00,000,44*5D
$B3CN0,0,0,0,0,0,0,0,0,0,0,0,0,0,0*4C
---00000022--- Acq_st=3 0  2019-4-16 2:55:16 
[00]  02(G03)  f 45  7  0    625.2  2045999.1 -0.0  2 0 2639 3864 1862
[01]  07(G08)  f 38  7  0  -4832.0  2046006.2  0.1  2 0  741 1154  287
[02]  08(G09)  f 44  7  0  -4618.8  2046005.9 -0.0  2 0 1738 2683 1476
[03]  15(G16)  f 42  7  0  -1353.2  2046001.7 -0.0  2 0 1319 1960  819
[04]  21(G22)  f 43  7  0   1085.3  2045998.5  0.0  2 0 1455 2537 1240
[05]  22(G23)  f 42 12  0  -3976.1  2046005.2  0.0  2 0 1151 1662  664
[16]  38(B02) 1f 41 24  0  -1088.4  4092002.7  0.5  2 0 1163 1287  428
[17]  41(B05)  1 10 29  1  -1000.0  4092003.3 -0.1  1 0  470  501  753
[19]  46(B10) 1f 41  7  0  -1008.1  4092002.5 -0.1  2 0 1446 1835  731
[20]  54(B18) 1f 43  7  0   -951.9  4092002.4  0.0  2 0 1631 2046 1172
[21]  55(B19) 1f 44  7  0   -189.6  4092000.4  0.0  2 0 2265 3022 1216
[22]  58(B22) 1f 44 11  0  -2794.1  4092007.2  0.0  2 0 2071 2564 1085
[32]  75(N-6)  f 32 15  0   3064.4  1021998.0  0.0  5 0   173  414  256
[33]  80(N-1)  f 38  7  0    734.0  1021999.4 -0.1  2 0   547  694  324
[34]  82(N01)  f 39  7  0  -2045.9  1022001.3  0.1  2 0   551  893  560
[35]  85(N04)  f 42  7  0  -3878.0  1022002.4 -0.2  2 0   992 1430  626
[36]  81(N00)  7 14  7  0   -446.7  1022000.3  0.1 10 0   244  323  263
[48]  38(B02)  1 36 21  0   -664.7 20460021.4  0.1  1 0  364  241  461
[51]  46(B10)  1  7  7  0   -909.3 20460016.1  0.0  1 0  269  670  450
[52]  54(B18)  1  7  7  0   -326.9 20460015.9  0.1  1 0  500  602  766
[53]  55(B19)  1  7  7  0   -813.7 20460003.4 -0.1  1 0  613  614  315
[54]  58(B22)  1  7  7  0  -1498.6 20460045.9  0.1  1 0  467  611  119
kf_residual=0.000000
$GNGGA,025516.641,,,,,0,00,,,M,,,,0000*2D
$GNRMC,025516.641,A,,,,,,,080180,,*21
$GPGSA,A,1,,,,,,,,,,,,,,,*1E
$BDGSA,A,1,,,,,,,,,,,,,,,*0F
$GLGSA,A,1,,,,,,,,,,,,,,,*02
$GPGSV,2,1,06,03,00,000,45,08,00,000,38,09,00,000,44,16,00,000,42*75
$GPGSV,2,2,06,22,00,000,43,23,00,000,42*7F
$BDGSV,2,1,05,02,00,000,41,10,00,000,41,18,00,000,43,19,00,000,44*6B
$BDGSV,2,2,05,22,00,000,44*5D
$B3CN0,0,0,0,0,0,0,0,0,0,0,0,0,0,0*4C
---00000023--- Acq_st=3 0  2019-4-16 2:55:17 
[00]  02(G03)  f 45 10  0    630.6  2045999.1  0.0  2 0 2816 3949 1912
[01]  07(G08)  f 37  8  0  -4823.6  2046006.2 -0.8  2 0  391 1128  693
[02]  08(G09)  f 44  7  0  -4612.6  2046005.9  0.0  2 0 1653 2180  821
[03]  15(G16)  f 42  7  0  -1343.8  2046001.7 -0.0  2 0 1227 2050  640
[04]  21(G22)  f 43  7  0   1097.0  2045998.5  0.0  2 0 1132 1898 1187
[05]  22(G23)  f 41  9  0  -3976.9  2046005.1  0.0  2 0  622 1282  536
[16]  38(B02) 1f 41 27  0  -1074.7  4092002.7 -0.4  2 0 1202 1695  752
[17]  41(B05)  1 10 23  0  -1077.8  4092005.2  0.2  1 0  319  637 1457
[19]  46(B10) 1f 42  7  0   -998.1  4092002.5  0.0  2 0 1236 1918  876
[20]  54(B18) 1f 43  7  0   -946.3  4092002.4  0.0  2 0 1766 2348  844
[21]  55(B19) 1f 44  7  0   -181.3  4092000.3  0.0  2 0 1880 2492  452
[22]  58(B22) 1f 44  7  0  -2788.6  4092007.2 -0.0  2 0 1873 2514  952
[32]  75(N-6)  f 35 14  0   3069.9  1021998.0 -0.0  2 0   610 1192  782
[33]  80(N-1)  f 37  7  0    737.7  1021999.5 -0.1  2 0   225  524  246
[34]  82(N01)  f 39  7  0  -2037.9  1022001.2 -0.3  2 0   722  736  145
[35]  85(N04)  f 42  7  0  -3873.4  1022002.4  0.2  2 0   833 1371  639
[36]  81(N00)  7 16  7  0   -538.5  1022000.3 -0.1 10 0   172  204   98
[48]  38(B02)  1 10 19  0  -1027.7 20460022.5 -0.1  1 0  158  437  703
[51]  46(B10)  1  7  7  0   -472.4 20460017.7  0.1  1 0  391  143  807
[52]  54(B18)  1  7  7  0    247.2 20460016.8 -0.1  1 0  450  190  464
[53]  55(B19)  1 10  7  0   -739.2 20460000.9  0.0  1 0   87  439  512
[54]  58(B22)  1  7  7  0  -1161.5 20460045.3 -0.1  1 0  221  205  173
kf_residual=0.000000
$GNGGA,025517.641,,,,,0,00,,,M,,,,0000*2C
$GNRMC,025517.641,A,,,,,,,080180,,*20
$GPGSA,A,1,,,,,,,,,,,,,,,*1E
$BDGSA,A,1,,,,,,,,,,,,,,,*0F
$GLGSA,A,1,,,,,,,,,,,,,,,*02
$GPGSV,2,1,06,03,00,000,45,08,00,000,37,09,00,000,44,16,00,000,42*7A
$GPGSV,2,2,06,22,00,000,43,23,00,000,41*7C
$BDGSV,2,1,05,02,00,000,41,10,00,000,42,18,00,000,43,19,00,000,44*68
$BDGSV,2,2,05,22,00,000,44*5D
$B3CN0,0,0,0,0,0,0,0,0,0,0,0,0,0,0*4C
---00000024--- Acq_st=3 0  2019-4-16 2:55:18 
[00]  02(G03)  f 45  7  0    630.7  2045999.1 -0.0  2 0 2767 4225 1442
[01]  07(G08)  f 36  7  0  -4825.1  2046006.2  0.3  2 0 1330 1620  644
[02]  08(G09)  f 44  7  0  -4615.0  2046005.9 -0.0  2 0 1584 2553 1270
[03]  15(G16)  f 42  7  0  -1343.6  2046001.7  0.0  2 0  950 2153 1121
[04]  21(G22)  f 42  7  0   1090.4  2045998.5  0.0  2 0 1562 2377 1064
[05]  22(G23)  f 41  9  0  -3973.8  2046005.1  0.1  2 0  621 1314  631
[16]  38(B02) 1f 41 23  0  -1076.1  4092002.8  0.3  2 0 1163 1447  636
[17]  41(B05)  7 40 24  0  -1078.2  4092003.0 -0.5  2 0  418  963 1069
[19]  46(B10) 1f 42  7  0  -1000.9  4092002.5 -0.0  2 0 1536 1965 1373
[20]  54(B18) 1f 43  7  0   -951.7  4092002.4 -0.0  2 0 1454 2262  998
[21]  55(B19) 1f 43  7  0   -184.0  4092000.4 -0.0  2 0 2249 2740  936
[22]  58(B22) 1f 44  7  0  -2786.2  4092007.2  0.0  2 0 1606 2129 1053
[32]  75(N-6)  f 36  7  0   3068.5  1021998.0 -0.1  2 0   752  891  502
[33]  80(N-1)  f 35  7  0    736.2  1021999.5  0.1  2 0   226  469  317
[34]  82(N01)  f 40  7  0  -2040.4  1022001.2 -0.1  2 0   831 1223  375
[35]  85(N04)  f 41  7  0  -3875.0  1022002.4  0.1  2 0   928 1579  717
[36]  81(N00)  7 16 18  0   -642.6  1022000.5  0.0 10 0   200  288  279
[48]  38(B02)  1 19 16  1   -615.7 20460021.4 -0.1  1 0  296  523  936
kf_residual=0.000000
$GNGGA,025518.641,,,,,0,00,,,M,,,,0000*23
$GNRMC,025518.641,A,,,,,,,160419,,*25
$GPGSA,A,1,,,,,,,,,,,,,,,*1E
$BDGSA,A,1,,,,,,,,,,,,,,,*0F
$GLGSA,A,1,,,,,,,,,,,,,,,*02
$GPGSV,2,1,06,03,00,000,45,08,00,000,36,09,00,000,44,16,00,000,42*7B
$GPGSV,2,2,06,22,00,000,42,23,00,000,41*7D
$BDGSV,2,1,06,02,00,000,41,05,00,000,40,10,00,000,42,18,00,000,43*62
$BDGSV,2,2,06,19,00,000,43,22,00,000,44*61
$B3CN0,0,0,0,0,0,0,0,0,0,0,0,0,0,0*4C
---00000025--- Acq_st=3 0  2019-4-16 2:55:19 
[00]  02(G03)  f 38  7  0    615.3  2045999.1 -0.1  2 0 2014 2217  492
[01]  07(G08)  f 31  7  0  -4817.0  2046006.2 -0.0  5 0  901 1174 1042
[02]  08(G09)  f 35  7  0  -4621.2  2046005.9  0.1  2 0  447  358  106
[03]  15(G16)  f 35  7  0  -1336.4  2046001.9  0.0  2 0  760  848   92
[04]  21(G22)  f 34  7  0   1064.2  2045998.7 -0.0  2 0 1010  937 1103
[05]  22(G23)  f 34  8  0  -4008.6  2046005.1 -0.1  2 0  366  547  877
[16]  38(B02) 1f 36 22  0  -1077.1  4092002.8  0.8  2 0  727  565  463
[17]  41(B05)  f 36 26  0  -1078.5  4092002.8  0.4  2 0  696  739  293
[19]  46(B10) 1f 39  7  0  -1000.0  4092002.5  0.0  2 0  587  993  454
[20]  54(B18) 1f 40  7  0   -947.4  4092002.4  0.1  2 0  886 1273  276
[21]  55(B19) 1f 41  7  0   -183.8  4092000.4  0.0  2 0 1061 1235  287
[22]  58(B22) 1f 40  8  0  -2785.0  4092007.2  0.0  2 0  898 1254  782
[32]  75(N-6)  f 36  7  0   3071.2  1021998.0 -0.2  2 0   557 1194  480
[33]  80(N-1)  f 34  7  0    739.4  1021999.5 -0.1  2 0   474  794  442
[34]  82(N01)  f 40  7  0  -2039.3  1022001.2  0.3  2 0   398 1040  348
[35]  85(N04)  f 42  7  0  -3872.5  1022002.5  0.3  2 0   772 1080  568
[48]  38(B02)  1 36 13  0   -187.2 20460015.7 -0.0  1 0  107  370   96
[51]  46(B10)  1  7  7  0   -775.7 20460016.1  0.0  1 0  303  260  494
[52]  54(B18)  1  7  7  0   -915.0 20460014.7  0.0  1 0  398  120  533
[53]  55(B19)  1  7  8  0   -614.5 20460004.0 -0.0  1 0  322  487  270
[54]  58(B22)  1  7  7  0  -2398.8 20460045.6  0.2  1 0  601  200  481
kf_residual=0.000000
$GNGGA,025519.641,,,,,0,00,,,M,,,,0000*22
$GNRMC,025519.641,A,,,,,,,160419,,*24
$GPGSA,A,1,,,,,,,,,,,,,,,*1E
$BDGSA,A,1,,,,,,,,,,,,,,,*0F
$GLGSA,A,1,,,,,,,,,,,,,,,*02
$GPGSV,2,1,06,03,00,000,38,08,00,000,31,09,00,000,35,16,00,000,35*70
$GPGSV,2,2,06,22,00,000,34,23,00,000,34*7E
$BDGSV,2,1,06,02,00,000,36,05,00,000,36,10,00,000,39,18,00,000,40*6C
$BDGSV,2,2,06,19,00,000,41,22,00,000,40*67
$B3CN0,0,0,0,0,0,0,0,0,0,0,0,0,0,0*4C
---00000026--- Acq_st=3 0  2019-4-16 2:55:20 
[00]  02(G03)  f 35 10  0    627.5  2045999.1  0.1  2 0 1893 1672  259
[01]  07(G08)  f 27 11  0  -4826.3  2046006.1 -0.1 10 0  587  574  851
[02]  08(G09)  f 33  7  0  -4619.4  2046005.9 -0.1  5 0 1270 1463 1082
[03]  15(G16)  f 32  7  0  -1343.2  2046001.7  0.1  5 0  676 1181  701
[04]  21(G22)  f 25  7  0    942.7  2045999.1  0.0 10 0  659  532  470
[05]  22(G23)  f 31  9  0  -3969.8  2046005.1 -0.1  5 0 1357  742 1064
[16]  38(B02) 1f 39 28  0  -1075.0  4092002.7  0.0  2 0 1133 1111  430
[17]  41(B05)  f 38 26  0  -1076.2  4092002.8  0.2  2 0  205  347  569
[19]  46(B10) 1f 38  7  0  -1001.4  4092002.5  0.0  2 0  806  681  397
[20]  54(B18) 1f 39  7  0   -946.8  4092002.4 -0.0  2 0  947 1011  154
[21]  55(B19) 1f 39  7  0   -182.3  4092000.4 -0.0  2 0  785  958  714
[22]  58(B22) 1f 39  8  0  -2786.0  4092007.2  0.0  2 0  784 1487  657
[32]  75(N-6)  f 36  7  0   3070.4  1021998.0 -0.0  2 0   839  891  169
[33]  80(N-1)  f 34  7  0    741.4  1021999.5 -0.1  2 0   109  324  372
[34]  82(N01)  f 40  7  0  -2039.2  1022001.2 -0.0  2 0   748 1009  667
[35]  85(N04)  f 42  7  0  -3870.7  1022002.4 -0.1  2 0   895 1282  622
[49]  41(B05)  1 20 21  0   -810.1 20460018.9  0.1  1 0  453  477  773
[51]  46(B10)  1  7  7  0   -891.6 20460018.1 -0.0  1 0  914  715  646
[52]  54(B18)  1  7  7  0   -879.8 20460016.4  0.1  1 0  709 1033 1144
[53]  55(B19)  1  7  7  0   -496.2 20460002.9  0.2  1 0  376  402  202
[54]  58(B22)  1  7  7  0  -1911.7 20460044.5 -0.1  1 0  540  522  225
kf_residual=0.000000
$GNGGA,025520.641,,,,,0,00,,,M,,,,0000*28
$GNRMC,025520.641,A,,,,,,,160419,,*2E
$GPGSA,A,1,,,,,,,,,,,,,,,*1E
$BDGSA,A,1,,,,,,,,,,,,,,,*0F
$GLGSA,A,1,,,,,,,,,,,,,,,*02
$GPGSV,2,1,06,03,00,000,35,08,00,000,27,09,00,000,33,16,00,000,32*7B
$GPGSV,2,2,06,22,00,000,25,23,00,000,31*7B
$BDGSV,2,1,06,02,00,000,39,05,00,000,38,10,00,000,38,18,00,000,39*62
$BDGSV,2,2,06,19,00,000,39,22,00,000,39*66
$B3CN0,0,0,0,0,0,0,0,0,0,0,0,0,0,0*4C
---00000027--- Acq_st=7 0  2019-4-16 2:55:21 
[00]  02(G03)  f 38  7  0    633.7  2045999.1  0.1  2 0 2158 3717 1676
[01]  07(G08)  f 31  7  0  -4822.4  2046006.1 -0.1  5 0  875 1107  615
[02]  08(G09)  f 35  7  0  -4609.1  2046005.9  0.0  2 0 1655 2613 1268
[03]  15(G16)  f 35  7  0  -1339.8  2046001.7 -0.1  2 0 1283 1891 1116
[04]  21(G22)  f  7  7  0    946.7  2045998.5  0.0 10 0 1656 1448  680
[05]  22(G23)  f 34  7  0  -3973.7  2046005.1  0.1  5 0 1064 1766  717
[16]  38(B02) 1f 41 21  0  -1074.1  4092002.7  0.7  2 0 1121 1321  877
[17]  41(B05) 1f 41 23  0  -1075.8  4092002.8 -0.1  2 0  831 1262  680
[19]  46(B10) 1f 39  7  0  -1000.4  4092002.5 -0.1  2 0 1416 2150  971
[20]  54(B18) 1f 40  7  0   -943.7  4092002.3 -0.0  2 0 1662 2421 1006
[21]  55(B19) 1f 40  7  0   -179.9  4092000.4 -0.0  2 0 1940 2228  939
[22]  58(B22) 1f 40  7  0  -2784.2  4092007.2 -0.0  2 0 1861 2378 1249
[32]  75(N-6)  f 35  7  0   3071.6  1021998.0 -0.1  2 0   521  808  275
[33]  80(N-1)  f 36  7  0    745.9  1021999.5 -0.0  2 0   760 1121  525
[34]  82(N01)  f 41  7  0  -2036.8  1022001.3 -0.1  2 0   845 1070  541
[35]  85(N04)  f 42  7  0  -3867.5  1022002.5 -0.2  2 0  1137 1426  454
[48]  38(B02)  1 14 13  0  -1360.0 20460019.2  0.0  1 0  396  437  285
[49]  41(B05)  1 24 26  1  -1139.5 20460014.0  0.2  1 0  175  221   51
[51]  46(B10)  1  7  7  0   -866.4 20460016.4  0.2  1 0  766  656  149
[52]  54(B18)  1  9  7  0   -670.2 20460014.8 -0.1  1 0 1197  975  283
[53]  55(B19)  1  7  7  0   -757.5 20460003.8 -0.1  1 0  380  368  528
[54]  58(B22)  1  7  7  0  -1943.8 20460042.2 -0.1  1 0  326  680  479
kf_residual=0.000000
$GNGGA,025521.641,,,,,0,00,,,M,,,,0000*29
$GNRMC,025521.641,A,,,,,,,160419,,*2F
$GPGSA,A,1,,,,,,,,,,,,,,,*1E
$BDGSA,A,1,,,,,,,,,,,,,,,*0F
$GLGSA,A,1,,,,,,,,,,,,,,,*02
$GPGSV,2,1,05,03,00,000,38,08,00,000,31,09,00,000,35,16,00,000,35*73
$GPGSV,2,2,05,23,00,000,34*4A
$BDGSV,2,1,06,02,00,000,41,05,00,000,41,10,00,000,39,18,00,000,40*6C
$BDGSV,2,2,06,19,00,000,40,22,00,000,40*66
$B3CN0,0,0,0,0,0,0,0,0,0,0,0,0,0,0*4C
---00000028--- Acq_st=7 0  2019-4-16 2:55:22 
[00]  02(G03)  f 45  7  0    628.8  2045999.1 -0.0  2 0 1735 3814 2036
[01]  07(G08)  f 37  7  0  -4821.2  2046006.2  0.1  2 0  174  871  589
[02]  08(G09)  f 43  7  0  -4615.8  2046005.9 -0.0  2 0 1202 2364 1322
[03]  15(G16)  f 42  7  0  -1344.9  2046001.6  0.0  2 0 1256 1881  877
[04]  21(G22)  f  7  7  0    941.7  2045999.0 -0.0 10 0 1590 1149  316
[05]  22(G23)  f 41 11  0  -3974.4  2046005.1 -0.1  2 0 1583 1746  500
[16]  38(B02) 1f 41 27  0  -1080.9  4092002.8 -0.6  2 0 1078 1486  645
[17]  41(B05) 1f 41 26  0  -1085.0  4092002.8 -0.4  2 0  766 1761  905
[19]  46(B10) 1f 41  7  0   -999.3  4092002.5 -0.0  2 0 1044 1569  883
[20]  54(B18) 1f 43  7  0   -949.9  4092002.4 -0.0  2 0 1931 2308  818
[21]  55(B19) 1f 44  7  0   -183.9  4092000.4  0.1  2 0 1656 2169  923
[22]  58(B22) 1f 43  8  0  -2787.2  4092007.2  0.0  2 0 1641 2589 1301
[32]  75(N-6)  f 34  7  0   3069.4  1021998.0  0.0  2 0   283  743  481
[33]  80(N-1)  f 37  7  0    738.4  1021999.5  0.2  2 0   225  426  348
[34]  82(N01)  f 40  7  0  -2042.5  1022001.2 -0.0  2 0   700 1202  221
[35]  85(N04)  f 42  7  0  -3875.4  1022002.5 -0.2  2 0   644  997  332
[48]  38(B02)  1 19 18  1   -988.8 20460021.1 -0.1  1 0  284  413  322
[49]  41(B05)  1 24 25  1   -825.1 20460022.9 -0.1  1 0  428  355  989
[51]  46(B10)  1  7  7  0   -229.4 20460018.4 -0.0  1 0  742  706  751
[52]  54(B18)  1  7  7  0   -489.7 20460014.6  0.1  1 0  588  834  837
[53]  55(B19)  1  7  7  0    -88.4 20460000.7  0.1  1 0  482  391  217
[54]  58(B22)  1  7  7  0  -1500.1 20460045.0 -0.0  1 0  136  751  560
kf_residual=0.000000
$GNGGA,025522.641,,,,,0,00,,,M,,,,0000*2A
$GNRMC,025522.641,A,,,,,,,160419,,*2C
$GPGSA,A,1,,,,,,,,,,,,,,,*1E
$BDGSA,A,1,,,,,,,,,,,,,,,*0F
$GLGSA,A,1,,,,,,,,,,,,,,,*02
$GPGSV,2,1,05,03,00,000,45,08,00,000,37,09,00,000,43,16,00,000,42*7E
$GPGSV,2,2,05,23,00,000,41*48
$BDGSV,2,1,06,02,00,000,41,05,00,000,41,10,00,000,41,18,00,000,43*60
$BDGSV,2,2,06,19,00,000,44,22,00,000,43*61
$B3CN0,0,0,0,0,0,0,0,0,0,0,0,0,0,0*4C
---00000029--- Acq_st=3 0  2019-4-16 2:55:23 
[00]  02(G03)  f 46  7  0    634.0  2045999.1 -0.0  2 0 2315 3761 1639
[01]  07(G08)  f 37  7  0  -4827.1  2046006.2 -0.0  2 0  395 1010  569
[02]  08(G09)  f 43  7  0  -4610.6  2046005.9 -0.0  2 0 1394 2219  944
[03]  15(G16)  f 42 13  0  -1341.6  2046001.7 -0.1  2 0  826 1973  601
[04]  21(G22)  f  7  7  0    945.3  2045998.9  0.1 10 0 2102  982  559
[05]  22(G23)  f 42  8  0  -3969.5  2046005.0 -0.0  2 0 1744 2552  898
[16]  38(B02) 1f 41 24  0  -1074.6  4092002.7 -0.4  2 0 1064 1559  744
[17]  41(B05) 1f 41 23  0  -1079.7  4092002.7  0.5  2 0  794 1348  925
[19]  46(B10) 1f 41  7  0   -994.6  4092002.5 -0.1  2 0 1519 2075  831
[20]  54(B18) 1f 43  7  0   -944.8  4092002.4  0.0  2 0 1442 2156 1025
[21]  55(B19) 1f 44  7  0   -179.4  4092000.3 -0.0  2 0 2122 2583  984
[22]  58(B22) 1f 43  8  0  -2781.5  4092007.2 -0.0  2 0 1497 2276 1463
[32]  75(N-6)  f 32  7  0   3072.3  1021998.1  0.0  5 0   326  460  254
[33]  80(N-1)  f 37  7  0    745.4  1021999.4  0.2  2 0   383  650  297
[34]  82(N01)  f 39  7  0  -2036.9  1022001.3  0.1  2 0   466  761  295
[35]  85(N04)  f 42  7  0  -3867.5  1022002.5 -0.1  2 0   602  840  335
[48]  38(B02)  f 10 18  0  -1170.7 20460017.9 -0.1  2 0  568  188  262
[49]  41(B05)  1 23 23  0   -671.3 20460018.1  0.1  1 0  508  472  193
kf_residual=0.000000
$GNGGA,025523.641,,,,,0,00,,,M,,,,0000*2B
$GNRMC,025523.641,A,,,,,,,160419,,*2D
$GPGSA,A,1,,,,,,,,,,,,,,,*1E
$BDGSA,A,1,,,,,,,,,,,,,,,*0F
$GLGSA,A,1,,,,,,,,,,,,,,,*02
$GPGSV,2,1,05,03,00,000,46,08,00,000,37,09,00,000,43,16,00,000,42*7D
$GPGSV,2,2,05,23,00,000,42*4B
$BDGSV,2,1,06,02,00,000,41,05,00,000,41,10,00,000,41,18,00,000,43*60
$BDGSV,2,2,06,19,00,000,44,22,00,000,43*61
$B3CN0,0,0,0,0,0,0,0,0,0,0,0,0,0,0*4C
---00000030--- Acq_st=3 0  2019-4-16 2:55:24 
[00]  02(G03)  f 45  7  0    636.9  2045999.1  0.0  2 0 2431 3865 1740
[01]  07(G08)  f 36  7  0  -4811.5  2046006.2 -0.0  2 0  169  944  896
[02]  08(G09)  f 42  7  0  -4609.4  2046005.9  0.0  2 0 1438 2599 1517
[03]  15(G16)  f 42  7  0  -1335.9  2046001.6 -0.0  2 0 1062 1834  651
[04]  25(G26)  1  7  7  0    500.0  2046001.1 -0.0  1 0  327  650  465
[05]  22(G23)  f 42 12  0  -3968.8  2046005.0 -0.0  2 0 1265 1960  796
[16]  38(B02) 1f 41 22  0  -1074.9  4092002.7  0.6  2 0 1503 1610  906
[17]  41(B05) 1f 41 23  0  -1073.1  4092002.7  0.7  2 0  801 1134  766
[19]  46(B10) 1f 42  7  0   -996.5  4092002.5  0.0  2 0 1305 1399   69
[20]  54(B18) 1f 43 10  0   -944.0  4092002.3 -0.0  2 0 1846 2157  822
[21]  55(B19) 1f 44  7  0   -177.2  4092000.3  0.0  2 0 2152 2716 1076
[22]  58(B22) 1f 42  9  0  -2783.9  4092007.2 -0.0  2 0 1587 2096  865
[32]  75(N-6)  f 31  7  0   3075.2  1021998.0 -0.1  5 0   481  586  728
[33]  80(N-1)  f 37  7  0    748.5  1021999.5 -0.1  2 0   608  840  531
[34]  82(N01)  f 39  7  0  -2036.6  1022001.3  0.2  2 0   609  946  278
[35]  85(N04)  f 40  7  0  -3864.0  1022002.4 -0.3  2 0   335 1068  602
[48]  38(B02)  f 10 14  1  -1229.5 20460020.1 -0.2  2 0  324  400  456
[51]  46(B10)  1  7  9  0  -1263.7 20460016.5  0.1  1 0  485  198  220
[52]  54(B18)  1  7  7  0  -1101.0 20460015.1  0.0  1 0  453  300  161
[53]  55(B19)  1  7  8  0    -51.1 20460003.4  0.0  1 0  628  792  411
[54]  58(B22)  1  7  8  0  -2352.4 20460045.6 -0.1  1 0  387  227  253
kf_residual=0.000000
$GNGGA,025524.641,,,,,0,00,,,M,,,,0000*2C
$GNRMC,025524.641,A,,,,,,,160419,,*2A
$GPGSA,A,1,,,,,,,,,,,,,,,*1E
$BDGSA,A,1,,,,,,,,,,,,,,,*0F
$GLGSA,A,1,,,,,,,,,,,,,,,*02
$GPGSV,2,1,05,03,00,000,45,08,00,000,36,09,00,000,42,16,00,000,42*7E
$GPGSV,2,2,05,23,00,000,42*4B
$BDGSV,2,1,06,02,00,000,41,05,00,000,41,10,00,000,42,18,00,000,43*63
$BDGSV,2,2,06,19,00,000,44,22,00,000,42*60
$B3CN0,0,0,0,0,0,0,0,0,0,0,0,0,0,0*4C
---00000031--- Acq_st=3 0  2019-4-16 2:55:25 
[00]  02(G03)  f 45  9  0    629.3  2045999.1 -0.1  2 0 2628 3916 1686
[01]  07(G08)  f 36  7  0  -4830.7  2046006.2 -0.0  2 0  350  678  246
[02]  08(G09)  f 43  7  0  -4616.6  2046005.9 -0.0  2 0 1442 1945 1106
[03]  15(G16)  f 42  7  0  -1343.0  2046001.7 -0.0  2 0 1768 2641 1159
[04]  25(G26)  1 23  7  0    525.0  2046000.2  0.1  1 0  497  163  464
[05]  22(G23)  f 43 12  0  -3971.3  2046005.0 -0.1  2 0 1439 2808 1351
[16]  38(B02) 1f 41 26  0  -1080.1  4092002.7 -0.1  2 0 1268 1723  968
[17]  41(B05) 1f 40 20  0  -1076.6  4092002.7  0.1  2 0  838 1415 1087
[19]  46(B10) 1f 42  7  0  -1001.9  4092002.5  0.0  2 0 1262 1688 1027
[20]  54(B18) 1f 43  7  0   -952.8  4092002.4  0.1  2 0 1159 1882 1086
[21]  55(B19) 1f 44  7  0   -182.9  4092000.3  0.0  2 0 2091 2381  882
[22]  58(B22) 1f 43  7  0  -2786.1  4092007.2  0.0  2 0 2053 2047  798
[32]  75(N-6)  f 33 12  0   3069.0  1021998.0 -0.1  5 0   443  935  595
[33]  80(N-1)  f 37  7  0    741.4  1021999.5 -0.2  2 0   528  601  187
[34]  82(N01)  f 39  7  0  -2042.1  1022001.3  0.2  2 0   347  706  319
[35]  85(N04)  f 40  7  0  -3872.3  1022002.4 -0.2  2 0   598  971  304
[48]  38(B02)  f 10 10  1  -1620.1 20460026.8  0.1  2 0  366  297  598
[49]  41(B05)  1 24 23  0   -941.7 20460018.6 -0.1  1 0  652  326  406
[51]  46(B10)  1  7  7  0  -1713.2 20460016.7  0.1  1 0  216  307  133
[52]  54(B18)  1  7  7  0  -1135.8 20460016.1 -0.0  1 0  717  210  654
[53]  55(B19)  1  7  7  0    692.8 20460000.6  0.1  1 0  138  665  311
[54]  58(B22)  1  7 13  0  -2329.8 20460043.2 -0.0  1 0   60  352  271
kf_residual=0.000000
$GNGGA,025525.641,,,,,0,00,,,M,,,,0000*2D
$GNRMC,025525.641,A,,,,,,,160419,,*2B
$GPGSA,A,1,,,,,,,,,,,,,,,*1E
$BDGSA,A,1,,,,,,,,,,,,,,,*0F
$GLGSA,A,1,,,,,,,,,,,,,,,*02
$GPGSV,2,1,05,03,00,000,45,08,00,000,36,09,00,000,43,16,00,000,42*7F
$GPGSV,2,2,05,23,00,000,43*4A
$BDGSV,2,1,06,02,00,000,41,05,00,000,40,10,00,000,42,18,00,000,43*62
$BDGSV,2,2,06,19,00,000,44,22,00,000,43*61
$B3CN0,0,0,0,0,0,0,0,0,0,0,0,0,0,0*4C
---00000032--- Acq_st=3 0  2019-4-16 2:55:26 
[00]  02(G03)  f 46  7  0    629.7  2045999.1  0.1  2 0 2591 4134 1905
[01]  07(G08)  f 36  7  0  -4834.2  2046006.2 -0.0  2 0  896  655  185
[02]  08(G09)  f 43  7  0  -4617.5  2046005.9 -0.0  2 0 1784 2582 1031
[03]  15(G16)  f 42  7  0  -1339.7  2046001.6  0.1  2 0 2002 2136  677
[04]  25(G26)  7  7  7  0    532.5  2045999.2 -0.0 10 0  303  390  142
[05]  22(G23)  f 43  8  0  -3977.4  2046005.1  0.0  2 0 1165 1980  908
[16]  38(B02) 1f 40 22  0  -1077.3  4092002.6 -0.0  2 0  711 1266 1023
[17]  41(B05) 1f 41 23  0  -1080.1  4092002.8  0.3  2 0  793 1411  793
[19]  46(B10) 1f 42  7  0  -1003.0  4092002.5 -0.0  2 0 1271 1635 1077
[20]  54(B18) 1f 43  7  0   -953.3  4092002.4 -0.0  2 0 1351 2110 1185
[21]  55(B19) 1f 44  7  0   -182.4  4092000.4 -0.0  2 0 2553 3121 1057
[22]  58(B22) 1f 43  7  0  -2788.4  4092007.2  0.0  2 0 1972 2548 1153
[32]  75(N-6)  f 34 12  0   3068.0  1021998.0 -0.0  5 0   167  248  118
[33]  80(N-1)  f 36  7  0    741.3  1021999.5  0.0  2 0   327  843  680
[34]  82(N01)  f 39  7  0  -2043.1  1022001.3  0.0  2 0   360  705  341
[35]  85(N04)  f 41  7  0  -3871.9  1022002.5 -0.5  2 0   373  644  573
[48]  38(B02)  f 18 22  0  -1964.2 20460030.3 -0.1  2 0  423  139  203
[49]  41(B05)  1 24 20  0   -726.0 20460017.9  0.1  1 0  652  437  555
[51]  46(B10)  1  7  7  0  -1322.9 20460016.1  0.2  1 0  480  741  730
[52]  54(B18)  1  7  7  0   -669.4 20460015.7 -0.2  1 0  581  177   14
[53]  55(B19)  1  7  7  0    493.2 20460003.1  0.1  1 0  759  321  294
[54]  58(B22)  1  7  7  0  -2088.0 20460041.2 -0.1  1 0  338  211  627
kf_residual=0.000000
$GNGGA,025526.641,,,,,0,00,,,M,,,,0000*2E
$GNRMC,025526.641,A,,,,,,,160419,,*28
$GPGSA,A,1,,,,,,,,,,,,,,,*1E
$BDGSA,A,1,,,,,,,,,,,,,,,*0F
$GLGSA,A,1,,,,,,,,,,,,,,,*02
$GPGSV,2,1,05,03,00,000,46,08,00,000,36,09,00,000,43,16,00,000,42*7C
$GPGSV,2,2,05,23,00,000,43*4A
$BDGSV,2,1,06,02,00,000,40,05,00,000,41,10,00,000,42,18,00,000,43*62
$BDGSV,2,2,06,19,00,000,44,22,00,000,43*61
$B3CN0,0,18,0,0,0,0,0,0,0,0,0,0,0,0*75
---00000033--- Acq_st=3 0  2019-4-16 2:55:27 
[00]  02(G03)  f 45  8  0    628.0  2045999.1 -0.0  2 0 2159 4123 1972
[01]  07(G08)  f 37  7  0  -4835.1  2046006.1  0.0  2 0  493  646  231
[02]  08(G09)  f 43  7  0  -4616.6  2046005.9 -0.1  2 0 1491 2226 1006
[03]  15(G16)  f 43  7  0  -1342.9  2046001.7 -0.0  2 0 1662 2169  766
[04]  25(G26)  7 18  7  0    458.5  2045999.2  0.1 10 0  107  467  122
[05]  22(G23)  f 43  8  0  -3976.2  2046005.1  0.0  2 0 1595 2174 1337
[16]  38(B02) 1f 40 27  0  -1083.6  4092002.7 -0.1  2 0 1016 1437  515
[17]  41(B05) 1f 40 25  0  -1083.8  4092002.7  0.3  2 0  869 1003  221
[19]  46(B10) 1f 41  7  0  -1002.2  4092002.5 -0.0  2 0 1429 1997  919
[20]  54(B18) 1f 43  8  0   -953.1  4092002.4 -0.0  2 0 1338 1777  745
[21]  55(B19) 1f 44  7  0   -183.1  4092000.3 -0.1  2 0 2524 3143 1351
[22]  58(B22) 1f 43  7  0  -2791.5  4092007.2  0.0  2 0 1393 2271 1096
[32]  75(N-6)  f 35 14  0   3067.0  1021998.0  0.0  2 0   109  453   34
[33]  80(N-1)  f 36  7  0    741.9  1021999.5 -0.1  2 0   490  705  295
[34]  82(N01)  f 38  7  0  -2043.2  1022001.3  0.3  2 0   288  720  609
[35]  85(N04)  f 40  7  0  -3872.8  1022002.4 -0.2  2 0  1287 1488  576
[49]  41(B05)  1 24 19  0    287.0 20460024.9 -0.0  1 0  389  561  668
[51]  46(B10)  1  7  7  0  -1776.6 20460017.9 -0.1  1 0  666  908  483
[52]  54(B18)  1  7  7  0   -557.3 20460015.6  0.0  1 0  486  715  354
[53]  55(B19)  1 10  7  0     89.6 20460001.9  0.1  1 0  499  656  325
[54]  58(B22)  1  7  7  0  -1749.2 20460045.1  0.1  1 0  254  342  201
kf_residual=0.000000
$GNGGA,025527.641,,,,,0,00,,,M,,,,0000*2F
$GNRMC,025527.641,A,,,,,,,160419,,*29
$GPGSA,A,1,,,,,,,,,,,,,,,*1E
$BDGSA,A,1,,,,,,,,,,,,,,,*0F
$GLGSA,A,1,,,,,,,,,,,,,,,*02
$GPGSV,2,1,06,03,00,000,45,08,00,000,37,09,00,000,43,16,00,000,43*7C
$GPGSV,2,2,06,26,00,000,18,23,00,000,43*74
$BDGSV,2,1,06,02,00,000,40,05,00,000,40,10,00,000,41,18,00,000,43*60
$BDGSV,2,2,06,19,00,000,44,22,00,000,43*61
$B3CN0,0,0,0,0,0,0,0,0,0,0,0,0,0,0*4C
---00000034--- Acq_st=3 0  2019-4-16 2:55:28 
[00]  02(G03)  f 45  8  0    635.0  2045999.1  0.0  2 0 2581 3957 1624
[01]  07(G08)  f 36  7  0  -4826.4  2046006.2  0.1  2 0  279  597  465
[02]  08(G09)  f 43  7  0  -4612.1  2046005.9 -0.0  2 0 1513 2634 1424
[03]  15(G16)  f 43  7  0  -1337.0  2046001.7 -0.0  2 0 1420 1729  420
[04]  25(G26)  7  7  7  0    336.3  2045999.8 -0.0 10 0  171  267  275
[05]  22(G23)  f 43  7  0  -3967.2  2046005.1  0.0  2 0 1570 2138  873
[16]  38(B02) 1f 41 26  0  -1075.9  4092002.7 -0.7  2 0  721 1120  332
[17]  41(B05) 1f 40 20  0  -1076.5  4092002.7 -0.2  2 0 1038 1303  645
[19]  46(B10) 1f 42  7  0   -997.2  4092002.5 -0.0  2 0 1222 1506  449
[20]  54(B18) 1f 43  7  0   -947.4  4092002.4  0.0  2 0 1953 2154  910
[21]  55(B19) 1f 44  7  0   -175.3  4092000.3  0.0  2 0 2241 3011 1337
[22]  58(B22) 1f 43  7  0  -2782.6  4092007.2  0.0  2 0 1859 2179 1155
[32]  75(N-6)  f 35 12  0   3074.0  1021998.0  0.1  2 0   426  785  462
[33]  80(N-1)  f 36  7  0    751.3  1021999.4 -0.0  2 0   703  554  440
[34]  82(N01)  f 38  7  0  -2035.2  1022001.2  0.2  2 0   416  881  554
[35]  85(N04)  f 41  7  0  -3865.4  1022002.4 -0.5  2 0   906 1431  689
[48]  38(B02)  1 10 20  1  -1350.3 20460013.4  0.0  1 0  201  426    2
[49]  41(B05)  1 27 20  0     31.1 20460018.4  0.1  1 0  425  261  896
kf_residual=0.000000
$GNGGA,025528.641,,,,,0,00,,,M,,,,0000*20
$GNRMC,025528.641,A,,,,,,,160419,,*26
$GPGSA,A,1,,,,,,,,,,,,,,,*1E
$BDGSA,A,1,,,,,,,,,,,,,,,*0F
$GLGSA,A,1,,,,,,,,,,,,,,,*02
$GPGSV,2,1,05,03,00,000,45,08,00,000,36,09,00,000,43,16,00,000,43*7E
$GPGSV,2,2,05,23,00,000,43*4A
$BDGSV,2,1,06,02,00,000,41,05,00,000,40,10,00,000,42,18,00,000,43*62
$BDGSV,2,2,06,19,00,000,44,22,00,000,43*61
$B3CN0,0,0,0,0,0,0,0,0,0,0,0,0,0,0*4C
---00000035--- Acq_st=3 0  2019-4-16 2:55:29 
[00]  02(G03)  f 45  7  0    633.4  2045999.1 -0.0  2 0 2423 3891 2074
[01]  07(G08)  f 36  7  0  -4829.6  2046006.2  0.2  2 0  419  748  307
[02]  08(G09)  f 43  7  0  -4611.0  2046005.9 -0.0  2 0 1018 1791 1159
[03]  15(G16)  f 42  7  0  -1335.5  2046001.7 -0.1  2 0 1153 1847  840
[05]  22(G23)  f 43 10  0  -3969.8  2046005.1 -0.0  2 0 1595 2140  790
[16]  38(B02) 1f 41 18  0  -1079.3  4092002.7  0.5  2 0 1094 1132  470
[17]  41(B05) 1f 41 24  0  -1078.6  4092002.6  0.1  2 0 1111 1224  226
[19]  46(B10) 1f 42  7  0  -1001.6  4092002.5 -0.0  2 0 1143 1535  727
[20]  54(B18) 1f 43  7  0   -950.3  4092002.3 -0.0  2 0 1446 1581  334
[21]  55(B19) 1f 44  7  0   -179.6  4092000.3 -0.0  2 0 2293 2698 1239
[22]  58(B22) 1f 43  7  0  -2786.1  4092007.2  0.0  2 0 1710 2041  705
[32]  75(N-6)  f 35 11  0   3070.9  1021998.0 -0.2  2 0    84  733  357
[33]  80(N-1)  f 37  7  0    747.2  1021999.4  0.1  2 0   275  732  544
[34]  82(N01)  f 38  7  0  -2038.9  1022001.3 -0.5  2 0   655  467  201
[35]  85(N04)  f 42  7  0  -3866.2  1022002.4 -0.0  2 0   783 1205  639
[48]  38(B02)  1 13 10  0  -1354.2 20460020.9 -0.1  1 0  460  325   83
[51]  46(B10)  1  7  7  0   -341.2 20460016.9  0.1  1 0  634  754  255
[52]  54(B18)  1  7  7  0   -989.1 20460014.1  0.0  1 0  314  795  838
[53]  55(B19)  1  7  7  0   -174.3 20460002.6  0.0  1 0  594  431   39
[54]  58(B22)  1  7  7  0  -2567.1 20460043.5  0.1  1 0  303  349  543
kf_residual=0.000000
$GNGGA,025529.641,,,,,0,00,,,M,,,,0000*21
$GNRMC,025529.641,A,,,,,,,160419,,*27
$GPGSA,A,1,,,,,,,,,,,,,,,*1E
$BDGSA,A,1,,,,,,,,,,,,,,,*0F
$GLGSA,A,1,,,,,,,,,,,,,,,*02
$GPGSV,2,1,05,03,00,000,45,08,00,000,36,09,00,000,43,16,00,000,42*7F
$GPGSV,2,2,05,23,00,000,43*4A
$BDGSV,2,1,06,02,00,000,41,05,00,000,41,10,00,000,42,18,00,000,43*63
$BDGSV,2,2,06,19,00,000,44,22,00,000,43*61
$B3CN0,0,0,0,0,0,0,0,0,0,0,0,0,0,0*4C
---00000036--- Acq_st=7 0  2019-4-16 2:55:30 
[00]  02(G03)  f 45 10  0    628.4  2045999.1 -0.0  2 0 3011 4305 1948
[01]  07(G08)  f 36 11  0  -4832.7  2046006.1  0.3  2 0  936  792  123
[02]  08(G09)  f 42  7  0  -4619.8  2046005.9  0.1  2 0 1423 2411 1046
[03]  15(G16)  f 43  7  0  -1347.4  2046001.7  0.0  2 0 1799 2752 1305
[05]  22(G23)  f 43  7  0  -3975.9  2046005.1  0.1  2 0  925 1912  519
[16]  38(B02) 1f 41 26  0  -1086.2  4092002.8 -0.5  2 0  876 1053  486
[17]  41(B05) 1f 40 26  0  -1084.1  4092002.7  0.1  2 0 1217 1243 1128
[19]  46(B10) 1f 42  7  0  -1008.5  4092002.5 -0.0  2 0 1588 1983  925
[20]  54(B18) 1f 43  8  0   -956.5  4092002.4 -0.1  2 0 1706 2102  630
[21]  55(B19) 1f 44  7  0   -186.3  4092000.4 -0.0  2 0 2216 2998 1055
