i=1
Rf R0 Config = ff777073
Rf R1 Config = 00dffbfe
Rf R52 Config = 00dfee40
i=2
Rf R0 Config = 007772f3
Rf R1 Config = 00df9bf6
Rf R52 Config = 00da6e70
i=3
Rf R0 Config = 007772f3
Rf R1 Config = 00dfdbee
Rf R52 Config = 00de9070
i=4
Rf R0 Config = 00777273
Rf R1 Config = 00df9bfe
Rf R52 Config = 00deee20
SD initialized success
Create debug.log Failed! 3
Start Channel by LuYu
$GNGGA,000000.000,,,,,0,00,,,M,,,,0000*2B
$GNRMC,000000.000,A,,,,,,,060180,,*29
$GPGSA,A,1,,,,,,,,,,,,,,,*1E
$BDGSA,A,1,,,,,,,,,,,,,,,*0F
$GLGSA,A,1,,,,,,,,,,,,,,,*02
$B3CN0,0,0,0,0,0,0,0,0,0,0,0,0,0,0*4C
---00000001--- Acq_st=3 0  2019-4-16 3:0:3 
[00]  02(G03)  1 29  7  0    737.2  2045999.5  0.2  1 0 2949 2977 1019
[01]  07(G08)  1  7  7  0  -5000.0  2046008.0 -0.0  1 0  209  714  975
[02]  08(G09)  1  7  7  0  -4750.0  2046008.3  0.1  1 0  688 2444 2718
$GNGGA,000000.000,,,,,0,00,,,M,,,,0000*2B
$GNRMC,000000.000,A,,,,,,,060180,,*29
$GPGSA,A,1,,,,,,,,,,,,,,,*1E
$BDGSA,A,1,,,,,,,,,,,,,,,*0F
$GLGSA,A,1,,,,,,,,,,,,,,,*02
$B3CN0,0,0,0,0,0,0,0,0,0,0,0,0,0,0*4C
---00000002--- Acq_st=3 0  2019-4-16 3:0:4 
[00]  02(G03)  7 20  7  0    739.9  2045998.9  0.9 10 0 2625 2934  814
[01]  07(G08)  1 30  9  0  -4838.9  2046006.2  0.8  1 0 1018  897  304
[02]  08(G09)  1 30  7  0  -4604.2  2046005.8  0.7  1 0 1927 2412  885
[03]  15(G16)  1  7  7  0  -1650.6  2046002.6  0.1  1 0  354  433  512
[04]  21(G22)  1  7  7  0   1000.0  2046000.2 -0.0  1 0  685 1639  815
[05]  22(G23)  1  7  7  0  -4000.0  2046007.0 -0.0  1 0  176  404  809
$GNGGA,000000.000,,,,,0,00,,,M,,,,0000*2B
$GNRMC,000000.000,A,,,,,,,060180,,*29
$GPGSA,A,1,,,,,,,,,,,,,,,*1E
$BDGSA,A,1,,,,,,,,,,,,,,,*0F
$GLGSA,A,1,,,,,,,,,,,,,,,*02
$GPGSV,1,1,01,03,00,000,20*49
$B3CN0,0,0,0,0,0,0,0,0,0,0,0,0,0,0*4C
---00000003--- Acq_st=3 0  2019-4-16 3:0:5 
[00]  02(G03)  7 46  7  0    740.8  2045999.0  0.0  2 0 1960 3133 1842
[01]  07(G08)  7 32  7  0  -4844.2  2046006.2  0.3  5 0 1013 1688  526
[02]  08(G09)  7 32  7  0  -4601.7  2046005.9  0.3  5 0 1957 2040  800
[03]  15(G16)  1  7  7  0  -2245.5  2046002.5 -0.1  1 0  160  269  421
[04]  21(G22)  1 32 12  0   1138.8  2045998.3  0.8  1 0  936 1908 1039
[05]  22(G23)  1 30  7  0  -3892.9  2046005.7  0.7  1 0 1701 2262  929
[16]  38(B02)  1 10 25  1  -1000.0  4092002.8  0.0  1 0  130  207  404
$GNGGA,000000.000,,,,,0,00,,,M,,,,0000*2B
$GNRMC,000000.000,A,,,,,,,060180,,*29
$GPGSA,A,1,,,,,,,,,,,,,,,*1E
$BDGSA,A,1,,,,,,,,,,,,,,,*0F
$GLGSA,A,1,,,,,,,,,,,,,,,*02
$GPGSV,1,1,03,03,00,000,46,08,00,000,32,09,00,000,32*4A
$B3CN0,0,0,0,0,0,0,0,0,0,0,0,0,0,0*4C
---00000004--- Acq_st=3 0  2019-4-16 3:0:6 
[00]  02(G03)  7 44  7  0    747.0  2045999.0 -0.0  2 0 2167 3174 1513
[01]  07(G08)  7 40  7  0  -4833.5  2046006.2 -0.1  2 0  894 1237  653
[02]  08(G09)  7 43  7  0  -4596.5  2046005.9 -0.0  2 0 1428 2282 1084
[03]  15(G16)  1  7  7  0  -2632.6  2046002.8 -0.0  1 0  454  443  496
[04]  21(G22)  7 33  7  0   1144.2  2045998.5  0.4  5 0  907 1757  885
[05]  22(G23)  7 31  7  0  -3887.3  2046004.9  0.4  5 0 1512 1870  679
[16]  38(B02)  1 18 29  1  -1020.2  4092003.9 -0.0  1 0  327  360  566
[17]  41(B05)  1 21 28  1  -1074.0  4092005.1  0.5  1 0  885 1258  657
[18]  46(B10)  1  7  7  0   -750.0  4092001.5 -0.0  1 0  518  390  422
kf_residual=0.000000
$GNGGA,030007.957,,,,,0,00,,,M,,,,0000*24
$GNRMC,030007.957,A,,,,,,,080180,,*28
$GPGSA,A,1,,,,,,,,,,,,,,,*1E
$BDGSA,A,1,,,,,,,,,,,,,,,*0F
$GLGSA,A,1,,,,,,,,,,,,,,,*02
$GPGSV,2,1,05,03,00,000,44,08,00,000,39,09,00,000,43,22,00,000,33*70
$GPGSV,2,2,05,23,00,000,31*4F
$B3CN0,0,0,0,0,0,0,0,0,0,0,0,0,0,0*4C
---00000005--- Acq_st=3 0  2019-4-16 3:0:7 
[00]  02(G03)  f 44 10  0    746.6  2045999.0 -0.0  2 0 1854 2981 1357
[01]  07(G08)  f 39  7  0  -4838.1  2046006.2 -0.1  2 0  953 1305  638
[02]  08(G09)  f 43  7  0  -4595.9  2046005.9 -0.0  2 0 1409 2172  895
[03]  15(G16)  1  7  8  0  -2665.9  2046001.2 -0.2  1 0  421  392  130
[04]  21(G22)  7 41  7  0   1146.3  2045998.4 -0.0  2 0  956 1632  497
[05]  22(G23)  7 42 10  0  -3887.9  2046004.9 -0.0  2 0 1649 1983 1172
[16]  38(B02)  7 16 23  1  -1041.8  4092002.7 -0.1  2 0   68   86  128
[17]  41(B05)  7 34 23  0  -1079.9  4092002.5 -0.5  2 0 1948 1125  315
[18]  46(B10)  1  7 11  0   -233.4  4092001.1  0.0  1 0  330  360  334
kf_residual=0.000000
$GNGGA,030008.957,,,,,0,00,,,M,,,,0000*2B
$GNRMC,030008.957,A,,,,,,,080180,,*27
$GPGSA,A,1,,,,,,,,,,,,,,,*1E
$BDGSA,A,1,,,,,,,,,,,,,,,*0F
$GLGSA,A,1,,,,,,,,,,,,,,,*02
$GPGSV,2,1,05,03,00,000,44,08,00,000,39,09,00,000,43,22,00,000,41*75
$GPGSV,2,2,05,23,00,000,42*4B
$BDGSV,1,1,01,05,00,000,34*5B
$B3CN0,0,0,0,0,0,0,0,0,0,0,0,0,0,0*4C
---00000006--- Acq_st=3 0  2019-4-16 3:0:8 
[00]  02(G03)  f 44  7  0    753.9  2045999.0  0.0  2 0 1727 2980 1768
[01]  07(G08)  f 39  8  0  -4827.6  2046006.2  0.0  2 0  704 1106  468
[02]  08(G09)  f 43  7  0  -4589.6  2046005.9  0.1  2 0  974 2010  793
[04]  21(G22)  7 42  7  0   1151.1  2045998.4 -0.0  2 0  877 1528  696
[05]  22(G23)  7 42  7  0  -3878.6  2046005.0  0.0  2 0  996 1712  913
[16]  38(B02)  7 17 29  1  -1020.6  4092002.5 -0.0  2 0  559  529  627
[17]  41(B05) 1f 37 27  0  -1070.8  4092002.5  0.5  2 0 1524 1038  470
[18]  46(B10)  1  7  7  0   -718.5  4092001.4 -0.0  1 0  467  451  470
[19]  54(B18)  1  7  7  0  -1002.5  4092001.9  0.1  1 0  461  468  321
[20]  55(B19)  1  7  7  0    -32.2  4092001.0  0.0  1 0 1836 2773 1750
[21]  58(B22)  1  7  7  0  -2500.0  4092006.6  0.0  1 0  319  230  240
kf_residual=0.000000
$GNGGA,030009.957,,,,,0,00,,,M,,,,0000*2A
$GNRMC,030009.957,A,,,,,,,080180,,*26
$GPGSA,A,1,,,,,,,,,,,,,,,*1E
$BDGSA,A,1,,,,,,,,,,,,,,,*0F
$GLGSA,A,1,,,,,,,,,,,,,,,*02
$GPGSV,2,1,05,03,00,000,44,08,00,000,39,09,00,000,43,22,00,000,42*76
$GPGSV,2,2,05,23,00,000,42*4B
$BDGSV,1,1,02,02,00,000,16,05,00,000,37*6E
$B3CN0,0,0,0,0,0,0,0,0,0,0,0,0,0,0*4C
---00000007--- Acq_st=3 0  2019-4-16 3:0:9 
[00]  02(G03)  f 44  7  0    753.1  2045999.0  0.0  2 0 2043 3019 1262
[01]  07(G08)  f 39  7  0  -4834.6  2046006.2  0.2  2 0  663 1359  440
[02]  08(G09)  f 43  7  0  -4589.1  2046005.9 -0.1  2 0 1276 1675  783
[04]  21(G22)  7 42  7  0   1150.2  2045998.5  0.1  2 0  634 1360  371
[05]  22(G23)  7 42  7  0  -3884.5  2046005.0 -0.0  2 0 1244 1646  773
[16]  38(B02)  7 21 26  1  -1006.3  4092003.0 -0.0  2 0  295  286  820
[17]  41(B05) 1f 37 25  0  -1075.2  4092002.6 -0.1  2 0 1021  689  315
[18]  46(B10)  1  7 11  0   -826.8  4092001.4 -0.0  1 0   41  220  203
[19]  54(B18)  7  7  7  0  -1092.2  4092002.9  0.2 10 0  538  280  124
[20]  55(B19)  7 19  7  0    -30.0  4092000.0  0.3 10 0 2046 3251 1586
[21]  58(B22)  1  7 11  0  -2487.1  4092007.3  0.2  1 0  276  300  506
[49]  41(B05)  1 25 36  1   -663.3 20460017.3  0.1  1 0  664  233  540
kf_residual=0.000000
$GNGGA,030010.957,,,,,0,00,,,M,,,,0000*22
$GNRMC,030010.957,A,,,,,,,080180,,*2E
$GPGSA,A,1,,,,,,,,,,,,,,,*1E
$BDGSA,A,1,,,,,,,,,,,,,,,*0F
$GLGSA,A,1,,,,,,,,,,,,,,,*02
$GPGSV,2,1,05,03,00,000,44,08,00,000,39,09,00,000,43,22,00,000,42*76
$GPGSV,2,2,05,23,00,000,42*4B
$BDGSV,1,1,03,02,00,000,22,05,00,000,37,19,00,000,19*58
$B3CN0,0,0,0,0,0,0,0,0,0,0,0,0,0,0*4C
---00000008--- Acq_st=2 0  2019-4-16 3:0:10 
[00]  02(G03)  f 44  7  0    751.9  2045999.0 -0.0  2 0 1695 2854  825
[01]  07(G08)  f 38  8  0  -4829.8  2046006.3  0.2  2 0  979  921  210
[02]  08(G09)  f 43  7  0  -4592.7  2046005.9 -0.0  2 0 1193 1979 1180
[04]  21(G22)  7 41  7  0   1149.2  2045998.4  0.0  2 0  892 1875 1352
[05]  22(G23)  7 42  7  0  -3884.5  2046004.9  0.0  2 0 1307 1926 1348
[16]  38(B02)  7 10 10  0  -1571.3  4092004.1 -0.0  2 0  541  318  222
[17]  41(B05) 1f 38 21  0  -1069.4  4092002.6  0.8  2 0 1344 1303  449
[18]  46(B10)  1  8  7  0   -641.5  4092000.8  0.1  1 0  251  270  180
[19]  54(B18)  7  7  7  0  -1229.7  4092002.9 -0.1 10 0  392  388  556
[20]  55(B19)  7 45 13  0    -30.9  4092000.0  0.0  2 0 1975 2689 1087
[21]  58(B22)  1 25  7  0  -2651.6  4092010.2  0.2  1 0  224  698 1949
[32]  75(N-6)  1  7  7  0   3164.0  1021998.3 -0.2  1 0   431  633  550
[33]  80(N-1)  1  7  7  0 145823.6  1022000.7  0.0  1 0   412  380  559
[49]  41(B05)  1 22 24  1   -399.1 20460022.6  0.1  1 0  213  116  161
kf_residual=0.000000
$GNGGA,030011.957,,,,,0,00,,,M,,,,0000*23
$GNRMC,030011.957,A,,,,,,,080180,,*2F
$GPGSA,A,1,,,,,,,,,,,,,,,*1E
$BDGSA,A,1,,,,,,,,,,,,,,,*0F
$GLGSA,A,1,,,,,,,,,,,,,,,*02
$GPGSV,2,1,05,03,00,000,44,08,00,000,38,09,00,000,43,22,00,000,41*74
$GPGSV,2,2,05,23,00,000,42*4B
$BDGSV,1,1,02,05,00,000,38,19,00,000,45*6D
$B3CN0,0,0,0,0,0,0,0,0,0,0,0,0,0,0*4C
---00000009--- Acq_st=7 0  2019-4-16 3:0:11 
[00]  02(G03)  f 44  7  0    740.8  2045999.0  0.0  2 0 2110 3223 1399
[01]  07(G08)  f 38  7  0  -4844.7  2046006.2  0.3  2 0  659  947  642
[02]  08(G09)  f 43 10  0  -4604.1  2046005.9  0.1  2 0  803 2163 1595
[04]  21(G22)  7 41  7  0   1140.1  2045998.5 -0.1  2 0  755 1967 1131
[05]  22(G23)  7 42  9  0  -3891.3  2046004.9  0.0  2 0 1441 2178  593
[16]  38(B02)  7 10 17  1  -1523.2  4092003.7  0.0  2 0  183  650  989
[17]  41(B05) 1f 39 26  0  -1085.9  4092002.7  0.2  2 0 1469 1573  946
[19]  54(B18)  7  7  7  0  -1295.7  4092003.3  0.1 10 0  432  290 1484
[20]  55(B19)  7 44 12  0    -41.9  4092000.0 -0.0  2 0 2148 2769 1129
[21]  58(B22)  7 34  7  0  -2660.0  4092007.0  0.1  5 0 1117 1888 1664
[32]  75(N-6)  1 32  7  0   3134.9  1021997.8  0.9  1 0   372  523   22
[33]  80(N-1)  1 28 11  0    967.2  1022000.7  0.6  1 0   543  839  285
[34]  82(N01)  1 27  7  0  -1982.7  1022001.6  0.5  1 0   805  874  171
[35]  85(N04)  1 27 11  0  -3675.8  1022004.1 -0.3  1 0   334 1338  772
[49]  41(B05)  1 23 21  0    127.1 20460023.2 -0.0  1 0  270  775  769
kf_residual=0.000000
$GNGGA,030012.957,,,,,0,00,,,M,,,,0000*20
$GNRMC,030012.957,A,,,,,,,080180,,*2C
$GPGSA,A,1,,,,,,,,,,,,,,,*1E
$BDGSA,A,1,,,,,,,,,,,,,,,*0F
$GLGSA,A,1,,,,,,,,,,,,,,,*02
$GPGSV,2,1,05,03,00,000,44,08,00,000,38,09,00,000,43,22,00,000,41*74
$GPGSV,2,2,05,23,00,000,42*4B
$BDGSV,1,1,03,05,00,000,40,19,00,000,44,22,00,000,33*52
$B3CN0,0,0,0,0,0,0,0,0,0,0,0,0,0,0*4C
---00000010--- Acq_st=7 0  2019-4-16 3:0:12 
[00]  02(G03)  f 45  7  0    747.3  2045999.0  0.0  2 0 2379 3203 1178
[01]  07(G08)  f 39  8  0  -4843.1  2046006.3  0.4  2 0  591  765  179
[02]  08(G09)  f 42  7  0  -4598.7  2046005.9  0.1  2 0 1136 1887  727
[04]  21(G22)  7 41  7  0   1145.6  2045998.5  0.0  2 0  768 1776  597
[05]  22(G23)  7 43  7  0  -3886.6  2046005.0  0.0  2 0 1341 2093 1229
[16]  38(B02)  7 10 10  1  -1414.5  4092003.7 -0.1  2 0 1116  916  493
[17]  41(B05) 1f 39 24  0  -1078.1  4092002.7  0.5  2 0 1434 1196  193
[20]  55(B19)  7 44 10  0    -36.0  4092000.0  0.1  2 0 1481 2312 1216
[21]  58(B22)  7 43  9  0  -2652.4  4092007.0  0.0  2 0  849 1792 1318
[32]  75(N-6)  7 35  7  0   3136.0  1021997.9 -0.1  2 0   249  651  327
[33]  80(N-1)  7 31  7  0    965.5  1021999.1  0.0  5 0   701  845  278
[34]  82(N01)  7 28  7  0  -1981.1  1022001.2  0.9 10 0   531  777  667
[35]  85(N04)  1 26 16  0  -3673.6  1022002.3  0.9  1 0  1099 1735  752
[49]  41(B05)  1 25 23  1    653.1 20460022.0  0.1  1 0  848  592  628
kf_residual=0.000000
$GNGGA,030013.957,,,,,0,00,,,M,,,,0000*21
$GNRMC,030013.957,A,,,,,,,080180,,*2D
$GPGSA,A,1,,,,,,,,,,,,,,,*1E
$BDGSA,A,1,,,,,,,,,,,,,,,*0F
$GLGSA,A,1,,,,,,,,,,,,,,,*02
$GPGSV,2,1,05,03,00,000,45,08,00,000,39,09,00,000,42,22,00,000,41*75
$GPGSV,2,2,05,23,00,000,43*4A
$BDGSV,1,1,03,05,00,000,40,19,00,000,44,22,00,000,43*55
$B3CN0,0,0,0,0,0,0,0,0,0,0,0,0,0,0*4C
---00000011--- Acq_st=3 0  2019-4-16 3:0:13 
[00]  02(G03)  f 45  7  0    747.6  2045999.0  0.0  2 0 2310 3383 1530
[01]  07(G08)  f 39  7  0  -4833.8  2046006.2  0.4  2 0  695 1218  545
[02]  08(G09)  f 43  7  0  -4599.4  2046005.9  0.0  2 0 1276 2251  884
[04]  21(G22)  f 41  7  0   1144.5  2045998.5  0.0  2 0  904 1461 1053
[05]  22(G23)  f 43  7  0  -3885.7  2046004.9  0.0  2 0 1805 2185  661
[17]  41(B05) 1f 40 23  0  -1075.8  4092002.6  0.8  2 0  673  761  526
[20]  55(B19)  7 44  7  0    -34.4  4092000.0 -0.0  2 0 1773 2288 1286
[21]  58(B22)  7 42  7  0  -2651.2  4092006.9 -0.0  2 0 1093 1740 1163
[32]  75(N-6)  7 33  7  0   3147.9  1021997.9 -0.0  2 0   564  290  184
[33]  80(N-1)  7 35 13  0    971.5  1021999.2 -0.1  2 0   318  575  224
[34]  82(N01)  7 40  7  0  -1975.3  1022001.3 -0.0  2 0   489  973  687
[35]  85(N04)  7 43 22  0  -3668.4  1022002.2 -0.1  2 0  1212 1549  709
kf_residual=0.000000
$GNGGA,030014.957,,,,,0,00,,,M,,,,0000*26
$GNRMC,030014.957,A,,,,,,,080180,,*2A
$GPGSA,A,1,,,,,,,,,,,,,,,*1E
$BDGSA,A,1,,,,,,,,,,,,,,,*0F
$GLGSA,A,1,,,,,,,,,,,,,,,*02
$GPGSV,2,1,05,03,00,000,45,08,00,000,39,09,00,000,43,22,00,000,41*74
$GPGSV,2,2,05,23,00,000,43*4A
$BDGSV,1,1,03,05,00,000,39,19,00,000,44,22,00,000,42*5A
$B3CN0,0,0,0,0,0,0,0,0,0,0,0,0,0,0*4C
---00000012--- Acq_st=3 0  2019-4-16 3:0:14 
[00]  02(G03)  f 45  7  0    738.7  2045999.0 -0.0  2 0 2199 2883 1216
[01]  07(G08)  f 39  9  0  -4844.0  2046006.2 -0.1  2 0  794 1108  123
[02]  08(G09)  f 43  7  0  -4603.3  2046005.9 -0.0  2 0 1425 2723 1553
[03]  15(G16)  1 27  7  0  -1181.4  2046002.1  0.4  1 0 1333 2267 1229
[04]  21(G22)  f 41  7  0   1137.3  2045998.5 -0.0  2 0  436 1148  357
[05]  22(G23)  f 44  7  0  -3891.2  2046005.0 -0.0  2 0 1723 2233  892
[17]  41(B05) 1f 40 26  0  -1082.0  4092002.6  0.4  2 0  833 1071  465
[20]  55(B19)  7 44  9  0    -38.5  4092000.0 -0.0  2 0 2281 2797 1109
[21]  58(B22)  7 42  7  0  -2660.2  4092007.0  0.0  2 0  544 1711 1234
[32]  75(N-6)  7 33  7  0   3130.1  1021997.9  0.1  5 0   204  405   58
[33]  80(N-1)  7 37  8  0    967.4  1021999.2  0.1  2 0   254  707  393
[34]  82(N01)  7 39  7  0  -1981.5  1022001.3 -0.6  2 0   184 1050  884
[35]  85(N04)  7 43 16  0  -3676.4  1022002.3  0.2  2 0   949 1606  710
[49]  41(B05)  1 26 25  1   -836.0 20460019.0 -0.1  1 0  452  396  120
---00000013--- Acq_st=3 0  2019-4-16 3:0:15 
[00]  02(G03)  f 45  7  0    758.2  2045998.9  0.0  2 0 2461 3657 1748
[01]  07(G08)  f 39  7  0  -4831.1  2046006.2 -0.2  2 0  548  819  409
[02]  08(G09)  f 43 11  0  -4589.3  2046005.9  0.0  2 0 1467 2412 1197
[03]  15(G16)  7 25  7  0  -1162.6  2046001.4  0.6 10 0 1145 1664  962
[04]  21(G22)  f 40  7  0   1157.4  2045998.4  0.0  2 0  775 1963  595
[05]  22(G23)  f 44 10  0  -3873.6  2046004.9 -0.1  2 0 1845 2188  673
[17]  41(B05) 1f 39 20  0  -1073.0  4092002.7 -0.3  2 0  882  846  331
[20]  55(B19) 1f 44 12  0    -24.4  4092000.0  0.0  2 0 1795 2245  671
[21]  58(B22) 1f 42  7  0  -2643.9  4092007.0 -0.0  2 0  963 1736 1160
[32]  75(N-6)  7 33  7  0   3144.7  1021998.0  0.0  5 0   226  436  402
[33]  80(N-1)  7 37 17  0    983.0  1021999.2  0.2  2 0   494  714  447
[34]  82(N01)  7 38  7  0  -1967.1  1022001.4  0.5  2 0   382  826  632
[35]  85(N04)  7 43 20  0  -3657.3  1022002.3  0.1  2 0   961 1350  488
[49]  41(B05)  1 24 25  0  -1099.5 20460022.0 -0.1  1 0  376  498  811
kf_residual=0.000000
$GNGGA,030015.957,,,,,0,00,,,M,,,,0000*27
$GNRMC,030015.957,A,,,,,,,080180,,*2B
$GPGSA,A,1,,,,,,,,,,,,,,,*1E
$BDGSA,A,1,,,,,,,,,,,,,,,*0F
$GLGSA,A,1,,,,,,,,,,,,,,,*02
$GPGSV,2,1,06,03,00,000,45,08,00,000,39,09,00,000,43,16,00,000,25*72
$GPGSV,2,2,06,22,00,000,40,23,00,000,44*7A
$BDGSV,1,1,03,05,00,000,39,19,00,000,44,22,00,000,42*5A
$B3CN0,0,0,0,0,0,0,0,0,0,0,0,0,0,0*4C
---00000014--- Acq_st=3 0  2019-4-16 3:0:16 
[00]  02(G03)  f 45  7  0    741.9  2045999.0 -0.0  2 0 2343 3650 1512
[01]  07(G08)  f 40  7  0  -4841.2  2046006.2 -0.0  2 0  473 1113  355
[02]  08(G09)  f 43  7  0  -4605.8  2046005.9  0.1  2 0 1574 2471 1105
[03]  15(G16)  7 43  7  0  -1179.9  2046001.4  0.0  2 0 1144 1608  587
[04]  21(G22)  f 41  7  0   1136.8  2045998.4 -0.0  2 0 1908 2129  580
[05]  22(G23)  f 44 11  0  -3891.5  2046005.0 -0.0  2 0 1649 2755 1552
[16]  45(B09)  1  7  7  0   -232.0  4092000.2 -0.0  1 0   85  323  159
[17]  41(B05) 1f 40 26  0  -1082.9  4092002.7  0.1  2 0  418  585  260
[18]  46(B10)  1  7  7  0   -999.2  4092005.1  0.1  1 0  671 1477 2149
[20]  55(B19) 1f 43 11  0    -40.5  4092000.0  0.0  2 0 1780 2781 1347
[21]  58(B22) 1f 42  7  0  -2659.0  4092007.0  0.0  2 0 1215 1797  567
[32]  75(N-6)  7 36  7  0   3130.0  1021998.0  0.2  2 0   606  766  536
[33]  80(N-1)  f 34  7  0    970.2  1021999.3 -0.0  5 0   388  521  179
[34]  82(N01)  f 34  7  0  -1981.6  1022001.2  0.0  5 0   470 1119  654
[35]  85(N04)  f 36  7  0  -3673.4  1022002.3 -0.1  2 0   823 1250  437
[49]  41(B05)  1 27 26  0  -1158.1 20460021.1 -0.1  1 0  532  544  434
[52]  55(B19)  1  7  7  0     42.8 20459999.8  0.2  1 0  345  494  240
[53]  58(B22)  1  7  7  0  -2072.9 20460041.7 -0.1  1 0  267  361  674
kf_residual=0.000000
$GNGGA,030016.957,,,,,0,00,,,M,,,,0000*24
$GNRMC,030016.957,A,,,,,,,080180,,*28
$GPGSA,A,1,,,,,,,,,,,,,,,*1E
$BDGSA,A,1,,,,,,,,,,,,,,,*0F
$GLGSA,A,1,,,,,,,,,,,,,,,*02
$GPGSV,2,1,06,03,00,000,45,08,00,000,40,09,00,000,43,16,00,000,43*7C
$GPGSV,2,2,06,22,00,000,41,23,00,000,44*7B
$BDGSV,1,1,03,05,00,000,40,19,00,000,43,22,00,000,42*53
$B3CN0,0,0,0,0,0,0,0,0,0,0,0,0,0,0*4C
---00000015--- Acq_st=3 0  2019-4-16 3:0:17 
[00]  02(G03)  f 45  7  0    740.6  2045999.0 -0.0  2 0 2089 3682 1446
[01]  07(G08)  f 39  7  0  -4844.6  2046006.2 -0.0  2 0  785 1219  850
[02]  08(G09)  f 44  7  0  -4607.5  2046005.9  0.0  2 0 1745 3061 1841
[03]  15(G16)  7 43  7  0  -1179.2  2046001.5 -0.0  2 0 1215 1327  383
[04]  21(G22)  f 41  8  0   1133.3  2045998.5  0.1  2 0  518 1059  409
[05]  22(G23)  f 43  7  0  -3893.9  2046005.0  0.1  2 0 1592 2309 1035
[16]  45(B09)  1  7 11  0   -627.2  4092000.1 -0.1  1 0  164  142  123
[17]  41(B05) 1f 39 26  0  -1081.1  4092002.7  0.3  2 0  868 1099  741
[18]  46(B10)  1  7  9  0   -997.6  4092002.4  0.5  1 0 1736 2138  870
[19]  54(B18)  1  7  7  0  -1000.0  4092004.4  0.1  1 0  748 1255 2571
[20]  55(B19) 1f 44 12  0    -39.4  4092000.0 -0.0  2 0 2150 2540 1550
[21]  58(B22) 1f 41  9  0  -2658.2  4092006.9 -0.0  2 0 1432 1840  999
[32]  75(N-6)  7 37  7  0   3127.4  1021998.0  0.2  2 0   565  822  337
[33]  80(N-1)  f 37  7  0    964.2  1021999.4 -0.1  2 0   552  644  265
[34]  82(N01)  f 38  7  0  -1986.1  1022001.3 -0.8  2 0   543  796  342
[35]  85(N04)  f 41  7  0  -3677.9  1022002.3 -0.0  2 0   965 1158  482
[49]  41(B05)  1 23 19  0   -787.2 20460021.7  0.1  1 0  653  634  537
[52]  55(B19)  1  7  7  0    240.6 20459999.2  0.0  1 0  316   70  258
[53]  58(B22)  1  7  7  0  -2034.1 20460040.5 -0.0  1 0  309  327  235
kf_residual=0.000000
$GNGGA,030017.957,,,,,0,00,,,M,,,,0000*25
$GNRMC,030017.957,A,,,,,,,080180,,*29
$GPGSA,A,1,,,,,,,,,,,,,,,*1E
$BDGSA,A,1,,,,,,,,,,,,,,,*0F
$GLGSA,A,1,,,,,,,,,,,,,,,*02
$GPGSV,2,1,06,03,00,000,45,08,00,000,39,09,00,000,44,16,00,000,43*75
$GPGSV,2,2,06,22,00,000,41,23,00,000,43*7C
$BDGSV,1,1,03,05,00,000,39,19,00,000,44,22,00,000,41*59
$B3CN0,0,0,0,0,0,0,0,0,0,0,0,0,0,0*4C
---00000016--- Acq_st=3 0  2019-4-16 3:0:18 
[00]  02(G03)  f 45 10  0    750.2  2045999.0  0.0  2 0 2378 3925 2099
[01]  07(G08)  f 40  7  0  -4838.9  2046006.2  0.1  2 0  763 1424  685
[02]  08(G09)  f 44 10  0  -4597.4  2046005.9 -0.0  2 0 1450 2864 1178
[03]  15(G16)  7 42  7  0  -1171.4  2046001.4  0.0  2 0 1710 2117  860
[04]  21(G22)  f 41  7  0   1149.2  2045998.5  0.0  2 0  963 1374  299
[05]  22(G23)  f 43  7  0  -3889.5  2046005.0 -0.0  2 0 1464 2165 1022
[16]  45(B09)  1  7  7  0   -356.3  4092000.3 -0.1  1 0  194  153  188
[17]  41(B05) 1f 40 22  0  -1081.7  4092002.8  0.4  2 0  845 1268  471
[18]  46(B10)  7 38  8  0   -987.2  4092002.4  0.1  2 0 1733 2065  782
[19]  54(B18)  1  7  7  0   -952.7  4092002.4  0.5  1 0 1589 2407  808
[20]  55(B19) 1f 44 10  0    -34.2  4092000.0  0.1  2 0 2085 2606  963
[21]  58(B22) 1f 41  7  0  -2652.2  4092006.9 -0.2  2 0  916 1325 1045
[32]  75(N-6)  f 35  7  0   3139.7  1021997.9 -0.1  5 0   177  589  424
[33]  80(N-1)  f 37  7  0    974.8  1021999.4 -0.0  2 0   103  729  411
[34]  82(N01)  f 38  7  0  -1978.3  1022001.3 -0.6  2 0   493  670  383
[35]  85(N04)  f 40  7  0  -3668.1  1022002.3 -0.2  2 0   220  772  763
[52]  55(B19)  1  7  7  0    459.0 20460000.9 -0.1  1 0  546  467  635
[53]  58(B22)  1  7  9  0  -1421.5 20460042.7 -0.0  1 0  307  306  400
kf_residual=0.000000
$GNGGA,030018.957,,,,,0,00,,,M,,,,0000*2A
$GNRMC,030018.957,A,,,,,,,160419,,*2C
$GPGSA,A,1,,,,,,,,,,,,,,,*1E
$BDGSA,A,1,,,,,,,,,,,,,,,*0F
$GLGSA,A,1,,,,,,,,,,,,,,,*02
$GPGSV,2,1,06,03,00,000,45,08,00,000,40,09,00,000,44,16,00,000,42*7A
$GPGSV,2,2,06,22,00,000,41,23,00,000,43*7C
$BDGSV,1,1,04,05,00,000,40,10,00,000,38,19,00,000,44,22,00,000,41*6A
$B3CN0,0,0,0,0,0,0,0,0,0,0,0,0,0,0*4C
---00000017--- Acq_st=2 0  2019-4-16 3:0:19 
[00]  02(G03)  f 45  7  0    756.6  2045999.0  0.0  2 0 3180 4165 1640
[01]  07(G08)  f 40  7  0  -4832.1  2046006.2  0.1  2 0  726  907  420
[02]  08(G09)  f 44  7  0  -4591.9  2046005.9 -0.0  2 0 1558 2630  756
[03]  15(G16)  f 42  7  0  -1164.7  2046001.4  0.0  2 0 1834 2522 1303
[04]  21(G22)  f 42  7  0   1152.7  2045998.4  0.0  2 0 1257 1448  395
[05]  22(G23)  f 43  7  0  -3876.4  2046005.0  0.1  2 0  915 2410 1198
[16]  45(B09)  1  7  8  0   -413.0  4091999.9  0.1  1 0  392   84  259
[17]  41(B05) 1f 41 27  0  -1065.4  4092002.7  0.4  2 0 1295 1581  706
[18]  46(B10)  7 43 10  0   -975.6  4092002.4 -0.0  2 0 1308 1984  856
[19]  54(B18)  7 32  7  0   -942.4  4092002.4  0.1  5 0  929 2298 1000
[20]  55(B19) 1f 44 13  0    -23.6  4091999.9 -0.1  2 0 1729 2564 1125
[21]  58(B22) 1f 41  7  0  -2640.0  4092006.8  0.1  2 0 1323 1893  559
[32]  75(N-6)  f 38  7  0   3146.9  1021998.0 -0.1  2 0   712  905  516
[33]  80(N-1)  f 36  7  0    984.8  1021999.3 -0.1  2 0   140  631  454
[34]  82(N01)  f 37  7  0  -1972.0  1022001.3 -0.2  2 0   374  966  670
[35]  85(N04)  f 40  7  0  -3658.8  1022002.3 -0.0  2 0   345  571  700
[49]  41(B05)  1 23 24  1   -856.7 20460019.0 -0.1  1 0  508  541  435
[52]  55(B19)  1  9  7  0     47.7 20459999.6 -0.3  1 0  792  311  305
[53]  58(B22)  1  7  7  0   -746.3 20460043.4 -0.2  1 0  518  216  688
kf_residual=0.000000
$GNGGA,030019.957,,,,,0,00,,,M,,,,0000*2B
$GNRMC,030019.957,A,,,,,,,160419,,*2D
$GPGSA,A,1,,,,,,,,,,,,,,,*1E
$BDGSA,A,1,,,,,,,,,,,,,,,*0F
$GLGSA,A,1,,,,,,,,,,,,,,,*02
$GPGSV,2,1,06,03,00,000,45,08,00,000,40,09,00,000,44,16,00,000,42*7A
$GPGSV,2,2,06,22,00,000,42,23,00,000,43*7F
$BDGSV,2,1,05,05,00,000,41,10,00,000,43,18,00,000,32,19,00,000,44*68
$BDGSV,2,2,05,22,00,000,41*58
$B3CN0,0,0,0,0,0,0,0,0,0,0,0,0,0,0*4C
---00000018--- Acq_st=7 0  2019-4-16 3:0:20 
[00]  02(G03)  f 45  7  0    750.9  2045999.0 -0.0  2 0 2128 3513 1484
[01]  07(G08)  f 39  7  0  -4833.7  2046006.2  0.1  2 0  353  946  467
[02]  08(G09)  f 44 10  0  -4596.3  2046005.9  0.0  2 0 1806 2856 1442
[03]  15(G16)  f 42  7  0  -1167.8  2046001.5 -0.0  2 0 1560 2387  619
[04]  21(G22)  f 42  7  0   1150.5  2045998.4  0.0  2 0 1224 2160 1027
[05]  22(G23)  f 43  9  0  -3882.6  2046005.0 -0.0  2 0 1422 2122  762
[17]  41(B05) 1f 40 24  0  -1070.4  4092002.7 -0.1  2 0  801 1187  604
[18]  46(B10)  7 42  9  0   -981.8  4092002.5  0.1  2 0 1562 1644  687
[19]  54(B18)  7 43  7  0   -945.7  4092002.4  0.1  2 0 1644 2391 1021
[20]  55(B19) 1f 43 12  0    -30.6  4092000.0  0.0  2 0  982 2298 1010
[21]  58(B22) 1f 41  7  0  -2651.6  4092006.8 -0.0  2 0 1174 1284  372
[32]  75(N-6)  f 37  7  0   3143.1  1021998.0  0.1  2 0   464  841  388
[33]  80(N-1)  f 36  7  0    978.6  1021999.3 -0.1  2 0   522  718  533
[34]  82(N01)  f 37  7  0  -1974.9  1022001.2 -0.2  2 0   422  741  221
[35]  85(N04)  f 40  7  0  -3662.8  1022002.4  0.2  2 0   157  710  302
[49]  41(B05)  1 22 24  0   -914.2 20460021.2  0.1  1 0  443  297  130
kf_residual=0.000000
$GNGGA,030020.957,,,,,0,00,,,M,,,,0000*21
$GNRMC,030020.957,A,,,,,,,160419,,*27
$GPGSA,A,1,,,,,,,,,,,,,,,*1E
$BDGSA,A,1,,,,,,,,,,,,,,,*0F
$GLGSA,A,1,,,,,,,,,,,,,,,*02
$GPGSV,2,1,06,03,00,000,45,08,00,000,39,09,00,000,44,16,00,000,42*74
$GPGSV,2,2,06,22,00,000,42,23,00,000,43*7F
$BDGSV,2,1,05,05,00,000,40,10,00,000,42,18,00,000,43,19,00,000,43*69
$BDGSV,2,2,05,22,00,000,41*58
$B3CN0,0,0,0,0,0,0,0,0,0,0,0,0,0,0*4C
---00000019--- Acq_st=7 0  2019-4-16 3:0:21 
[00]  02(G03)  f 45  8  0    755.4  2045999.0  0.0  2 0 2091 3766 1791
[01]  07(G08)  f 39  7  0  -4830.7  2046006.2 -0.1  2 0 1061 1134  160
[02]  08(G09)  f 44  7  0  -4592.2  2046005.9 -0.0  2 0 1553 2624 1136
[03]  15(G16)  f 43  7  0  -1165.4  2046001.5  0.1  2 0 1536 1895  590
[04]  21(G22)  f 42  7  0   1152.0  2045998.4 -0.0  2 0 1326 1651  882
[05]  22(G23)  f 43  7  0  -3883.4  2046005.0 -0.0  2 0 1432 2290 1144
[17]  41(B05) 1f 41 24  0  -1074.7  4092002.7 -0.6  2 0 1054 1477  627
[18]  46(B10) 1f 43  7  0   -981.9  4092002.5 -0.1  2 0 2048 2561 1039
[19]  54(B18) 1f 43  7  0   -943.7  4092002.4  0.0  2 0 1300 2124  893
[20]  55(B19) 1f 44 13  0    -25.8  4092000.0 -0.0  2 0 1330 1828  528
[21]  58(B22) 1f 41  7  0  -2646.2  4092006.8  0.0  2 0 1037 1282  542
[32]  75(N-6)  f 36  7  0   3142.0  1021997.9 -0.1  2 0   434  651  319
[33]  80(N-1)  f 36  7  0    980.6  1021999.3  0.2  2 0   191  555   40
[34]  82(N01)  f 37  7  0  -1973.5  1022001.3 -0.2  2 0   209  383  362
[35]  85(N04)  f 39  7  0  -3661.7  1022002.3 -0.1  2 0   291  832  354
[49]  41(B05)  1 24 19  0  -1020.4 20460019.5  0.1  1 0  534  376  201
[52]  55(B19)  1  7  9  0   -158.1 20459999.7 -0.2  1 0  238  352  346
[53]  58(B22)  1  7  7  0  -2300.4 20460041.6 -0.1  1 0  168  344  292
kf_residual=0.000000
$GNGGA,030021.957,,,,,0,00,,,M,,,,0000*20
$GNRMC,030021.957,A,,,,,,,160419,,*26
$GPGSA,A,1,,,,,,,,,,,,,,,*1E
$BDGSA,A,1,,,,,,,,,,,,,,,*0F
$GLGSA,A,1,,,,,,,,,,,,,,,*02
$GPGSV,2,1,06,03,00,000,45,08,00,000,39,09,00,000,44,16,00,000,43*75
$GPGSV,2,2,06,22,00,000,42,23,00,000,43*7F
$BDGSV,2,1,05,05,00,000,41,10,00,000,43,18,00,000,43,19,00,000,44*6E
$BDGSV,2,2,05,22,00,000,41*58
$B3CN0,0,0,0,0,0,0,0,0,0,0,0,0,0,0*4C
---00000020--- Acq_st=3 0  2019-4-16 3:0:22 
[00]  02(G03)  f 45  7  0    761.0  2045999.0 -0.0  2 0 2189 3467 1448
[01]  07(G08)  f 39  7  0  -4824.8  2046006.2  0.2  2 0  966  871  205
[02]  08(G09)  f 44  9  0  -4585.6  2046005.9 -0.0  2 0 1813 2507  847
[03]  15(G16)  f 42  7  0  -1156.5  2046001.5 -0.1  2 0 1221 2005  948
[04]  21(G22)  f 42  9  0   1158.8  2045998.4  0.1  2 0  767 1956 1106
[05]  22(G23)  f 43  7  0  -3867.5  2046005.0  0.0  2 0 1018 2271 1300
[17]  41(B05) 1f 40 29  0  -1065.0  4092002.7 -0.3  2 0  928 1144  413
[18]  46(B10) 1f 42 13  0   -972.7  4092002.5  0.0  2 0 1318 2113  845
[19]  54(B18) 1f 43  7  0   -935.9  4092002.3 -0.0  2 0 1281 2136  542
[20]  55(B19) 1f 43  7  0    -20.2  4091999.9 -0.0  2 0 1357 2067  985
[21]  58(B22) 1f 41  7  0  -2636.4  4092006.8  0.1  2 0  802 1262  966
[32]  75(N-6)  f 35  7  0   3150.0  1021998.0  0.0  2 0   261  198  287
[33]  80(N-1)  f 37  7  0    991.6  1021999.3 -0.1  2 0   249  777  701
[34]  82(N01)  f 37  7  0  -1967.5  1022001.2 -0.2  2 0   344  655  107
[35]  85(N04)  f 40  7  0  -3655.4  1022002.3 -0.0  2 0   157  865  422
[49]  41(B05)  1 10 25  0   -933.4 20460023.1  0.2  1 0 1014  736  263
[50]  46(B10)  1  7  7  0   -787.3 20460014.5  0.1  1 0  666  598  211
[51]  54(B18)  1  7  7  0   -869.2 20460014.6  0.0  1 0  820  728  339
[52]  55(B19)  1  7  7  0    -77.4 20460000.0  0.0  1 0  454  404  299
[53]  58(B22)  1  8  9  0  -2575.2 20460043.0  0.1  1 0  156  344  283
kf_residual=0.000000
$GNGGA,030022.957,,,,,0,00,,,M,,,,0000*23
$GNRMC,030022.957,A,,,,,,,160419,,*25
$GPGSA,A,1,,,,,,,,,,,,,,,*1E
$BDGSA,A,1,,,,,,,,,,,,,,,*0F
$GLGSA,A,1,,,,,,,,,,,,,,,*02
$GPGSV,2,1,06,03,00,000,45,08,00,000,39,09,00,000,44,16,00,000,42*74
$GPGSV,2,2,06,22,00,000,42,23,00,000,43*7F
$BDGSV,2,1,05,05,00,000,40,10,00,000,42,18,00,000,43,19,00,000,43*69
$BDGSV,2,2,05,22,00,000,41*58
$B3CN0,0,0,0,0,0,0,0,0,0,0,0,0,0,0*4C
---00000021--- Acq_st=3 0  2019-4-16 3:0:23 
[00]  02(G03)  f 44  7  0    754.9  2045999.0 -0.0  2 0 2104 3001 1645
[01]  07(G08)  f 39  7  0  -4831.7  2046006.3  0.1  2 0  425 1045  819
[02]  08(G09)  f 44  7  0  -4591.1  2046005.9  0.0  2 0 1953 3119 1487
[03]  15(G16)  f 41  7  0  -1163.2  2046001.5 -0.0  2 0 1008 1872  977
[04]  21(G22)  f 42  7  0   1152.0  2045998.4 -0.0  2 0 1139 1909  606
[05]  22(G23)  f 42 11  0  -3880.1  2046005.0 -0.0  2 0 1449 2275 1149
[17]  41(B05) 1f 41 25  0  -1073.4  4092002.7  0.0  2 0  939  939  283
[18]  46(B10) 1f 42  7  0   -983.4  4092002.4 -0.0  2 0 1658 1788  786
[19]  54(B18) 1f 43  7  0   -946.3  4092002.4  0.0  2 0 1562 1990  872
[20]  55(B19) 1f 43 13  0    -27.3  4092000.0  0.0  2 0 1259 1973  641
[21]  58(B22) 1f 42  7  0  -2646.1  4092006.8  0.0  2 0 1378 1735  948
[32]  75(N-6)  f 33  7  0   3141.8  1021997.9  0.0  2 0   304  599  452
[33]  80(N-1)  f 38  7  0    983.9  1021999.3 -0.2  2 0   436  890  492
[34]  82(N01)  f 37  7  0  -1974.3  1022001.2  0.1  2 0   578  988  580
[35]  85(N04)  f 40  7  0  -3661.3  1022002.3 -0.2  2 0   493 1298 1040
[50]  46(B10)  1  7  7  0  -1070.0 20460014.6  0.0  1 0  653  309  240
[51]  54(B18)  1  7  7  0  -1100.3 20460015.1  0.1  1 0  616  998  802
[52]  55(B19)  1  7  7  0   -453.6 20460000.2 -0.0  1 0  152  399  837
[53]  58(B22)  1  7  7  0  -2788.8 20460040.2  0.1  1 0  206  603  213
kf_residual=0.000000
$GNGGA,030023.957,,,,,0,00,,,M,,,,0000*22
$GNRMC,030023.957,A,,,,,,,160419,,*24
$GPGSA,A,1,,,,,,,,,,,,,,,*1E
$BDGSA,A,1,,,,,,,,,,,,,,,*0F
$GLGSA,A,1,,,,,,,,,,,,,,,*02
$GPGSV,2,1,06,03,00,000,44,08,00,000,39,09,00,000,44,16,00,000,41*76
$GPGSV,2,2,06,22,00,000,42,23,00,000,42*7E
$BDGSV,2,1,05,05,00,000,41,10,00,000,42,18,00,000,43,19,00,000,43*68
$BDGSV,2,2,05,22,00,000,42*5B
$B3CN0,0,0,0,0,0,0,0,0,0,0,0,0,0,0*4C
---00000022--- Acq_st=3 0  2019-4-16 3:0:24 
[00]  02(G03)  f 44  7  0    747.5  2045999.0  0.0  2 0 1667 2935 1358
[01]  07(G08)  f 38  7  0  -4841.3  2046006.2 -0.2  2 0  615 1155  476
[02]  08(G09)  f 43  7  0  -4600.0  2046005.9 -0.0  2 0 1633 2486 1460
[03]  15(G16)  f 42  7  0  -1169.3  2046001.5 -0.0  2 0 1816 2090  839
[04]  21(G22)  f 42  7  0   1146.9  2045998.5  0.1  2 0 1334 2496  747
[05]  22(G23)  f 43  7  0  -3885.1  2046005.0 -0.0  2 0 1087 1814 1030
[16]  38(B02)  1 23 28  1  -1000.0  4092004.2  0.1  1 0  442  335  622
[17]  41(B05) 1f 41 23  0  -1077.7  4092002.6  0.0  2 0  733  902  370
[18]  46(B10) 1f 42  9  0   -988.5  4092002.4  0.0  2 0 1330 1756  688
[19]  54(B18) 1f 43  7  0   -950.6  4092002.4  0.0  2 0 1663 1967  387
[20]  55(B19) 1f 43 11  0    -30.1  4092000.0  0.0  2 0 1710 2520  969
[21]  58(B22) 1f 42  7  0  -2650.3  4092006.9 -0.1  2 0  926 1318  785
[32]  75(N-6)  f 33  7  0   3138.4  1021998.0 -0.0  2 0   106  457  672
[33]  80(N-1)  f 38  7  0    978.6  1021999.3  0.1  2 0   450  751  358
[34]  82(N01)  f 37  7  0  -1978.6  1022001.3 -0.4  2 0   159  593  479
[35]  85(N04)  f 42  7  0  -3662.8  1022002.3  0.1  2 0   870 1316  644
[49]  41(B05)  1 25 27  1   -606.9 20460022.9 -0.2  1 0  252  597  927
[50]  46(B10)  1  7  7  0  -1288.0 20460016.8 -0.1  1 0  376  572  567
[51]  54(B18)  1  7  9  0   -994.8 20460016.0 -0.1  1 0  359  395  361
[52]  55(B19)  1  7  7  0   -687.7 20460000.8 -0.3  1 0  319  242  142
[53]  58(B22)  1  7  7  0  -3270.1 20460041.9 -0.1  1 0   73  268   25
kf_residual=0.000000
$GNGGA,030024.957,,,,,0,00,,,M,,,,0000*25
$GNRMC,030024.957,A,,,,,,,160419,,*23
$GPGSA,A,1,,,,,,,,,,,,,,,*1E
$BDGSA,A,1,,,,,,,,,,,,,,,*0F
$GLGSA,A,1,,,,,,,,,,,,,,,*02
$GPGSV,2,1,06,03,00,000,44,08,00,000,38,09,00,000,43,16,00,000,42*73
$GPGSV,2,2,06,22,00,000,42,23,00,000,43*7F
$BDGSV,2,1,05,05,00,000,40,10,00,000,42,18,00,000,43,19,00,000,43*69
$BDGSV,2,2,05,22,00,000,42*5B
$B3CN0,0,0,0,0,0,0,0,0,0,0,0,0,0,0*4C
---00000023--- Acq_st=3 0  2019-4-16 3:0:25 
[00]  02(G03)  f 44  8  0    755.2  2045999.0 -0.0  2 0 1843 2933 1294
[01]  07(G08)  f 38  8  0  -4841.4  2046006.2  0.1  2 0  300  741  353
[02]  08(G09)  f 44  7  0  -4592.5  2046005.9  0.0  2 0 1884 2875 1303
[03]  15(G16)  f 42  7  0  -1165.4  2046001.4  0.0  2 0 1684 2458 1285
[04]  21(G22)  f 42  7  0   1150.5  2045998.5 -0.0  2 0 1189 1694  771
[05]  22(G23)  f 42  8  0  -3878.7  2046005.0  0.0  2 0 1290 2147  914
[16]  38(B02)  1 10 10  1  -1582.5  4092002.4 -0.0  1 0  138  502  636
[17]  41(B05) 1f 41 26  0  -1067.5  4092002.6 -0.8  2 0  983 1289  604
[18]  46(B10) 1f 42 10  0   -978.2  4092002.5  0.1  2 0 1153 1558  210
[19]  54(B18) 1f 43  7  0   -943.7  4092002.3  0.0  2 0 1880 2238  857
[20]  55(B19) 1f 43  9  0    -25.0  4091999.9 -0.0  2 0 1305 2201 1100
[21]  58(B22) 1f 41  7  0  -2649.6  4092006.8  0.0  2 0 1257 1927 1083
[22]  45(B09)  1  7  7  0   -937.6  4092003.0  0.0  1 0  332  772  439
[32]  75(N-6)  f 34  7  0   3145.3  1021997.9 -0.0  2 0   261  724  643
[33]  80(N-1)  f 38  7  0    988.6  1021999.3  0.2  2 0   771  901  588
[34]  82(N01)  f 37  7  0  -1970.8  1022001.3  0.1  2 0   300  648  550
[35]  85(N04)  f 43  7  0  -3657.3  1022002.2 -0.0  2 0  1303 1799  597
[49]  41(B05)  1 26 23  1   -779.0 20460015.9  0.1  1 0  328  473  350
[50]  46(B10)  1  7  7  0   -972.9 20460016.7  0.4  1 0  837  731  418
[51]  54(B18)  1  7  7  0  -1103.8 20460016.8  0.1  1 0  579  239  324
kf_residual=0.000000
$GNGGA,030025.957,,,,,0,00,,,M,,,,0000*24
$GNRMC,030025.957,A,,,,,,,160419,,*22
$GPGSA,A,1,,,,,,,,,,,,,,,*1E
$BDGSA,A,1,,,,,,,,,,,,,,,*0F
$GLGSA,A,1,,,,,,,,,,,,,,,*02
$GPGSV,2,1,06,03,00,000,44,08,00,000,38,09,00,000,44,16,00,000,42*74
$GPGSV,2,2,06,22,00,000,42,23,00,000,42*7E
$BDGSV,2,1,05,05,00,000,41,10,00,000,42,18,00,000,43,19,00,000,43*68
$BDGSV,2,2,05,22,00,000,41*58
$B3CN0,0,0,0,0,0,0,0,0,0,0,0,0,0,0*4C
---00000024--- Acq_st=3 0  2019-4-16 3:0:26 
[00]  02(G03)  f 44  8  0    756.4  2045999.0  0.0  2 0 1658 2736 1237
[01]  07(G08)  f 38  7  0  -4838.6  2046006.2 -0.1  2 0  119  955  646
[02]  08(G09)  f 44  7  0  -4591.2  2046005.9  0.0  2 0 1769 2635  909
[03]  15(G16)  f 43  7  0  -1164.6  2046001.4 -0.0  2 0 1472 2097 1098
[04]  21(G22)  f 42  7  0   1150.1  2045998.5 -0.1  2 0 1075 1855 1034
[05]  22(G23)  f 42  7  0  -3880.0  2046005.0  0.1  2 0 1191 2144  694
[16]  38(B02)  1 10 10  1  -1537.8  4092004.1 -0.1  1 0  816  619  177
[17]  41(B05) 1f 40 21  0  -1075.3  4092002.7  0.2  2 0 1147 1402  585
[18]  46(B10) 1f 42  8  0   -979.6  4092002.4  0.1  2 0 1631 2089 1033
[19]  54(B18) 1f 43  7  0   -946.1  4092002.4 -0.1  2 0 1472 2234  550
[20]  55(B19) 1f 43 12  0    -25.6  4091999.9 -0.0  2 0 1339 2032  545
[21]  58(B22) 1f 42  7  0  -2647.9  4092006.8 -0.1  2 0 1658 1423  653
[22]  45(B09)  1  7  7  0   -820.3  4092001.7  0.2  1 0  312  685  485
[32]  75(N-6)  f 35  7  0   3144.9  1021997.9 -0.2  2 0   209  634  643
[33]  80(N-1)  f 39  7  0    986.8  1021999.3  0.2  2 0    47  544  557
[34]  82(N01)  f 37  7  0  -1972.8  1022001.2 -0.1  2 0   930  933  462
[35]  85(N04)  f 43  7  0  -3655.3  1022002.3 -0.0  2 0  1464 2021  701
[49]  41(B05)  1 20 23  1   -799.7 20460016.1  0.2  1 0  103  440  885
[52]  55(B19)  1  7  7  0   -122.5 20460001.2  0.0  1 0  354  461  776
[53]  58(B22)  1  7  7  0  -1853.5 20460041.7 -0.1  1 0  910  699  196
kf_residual=0.000000
$GNGGA,030026.957,,,,,0,00,,,M,,,,0000*27
$GNRMC,030026.957,A,,,,,,,160419,,*21
$GPGSA,A,1,,,,,,,,,,,,,,,*1E
$BDGSA,A,1,,,,,,,,,,,,,,,*0F
$GLGSA,A,1,,,,,,,,,,,,,,,*02
$GPGSV,2,1,06,03,00,000,44,08,00,000,38,09,00,000,44,16,00,000,43*75
$GPGSV,2,2,06,22,00,000,42,23,00,000,42*7E
$BDGSV,2,1,05,05,00,000,40,10,00,000,42,18,00,000,43,19,00,000,43*69
$BDGSV,2,2,05,22,00,000,42*5B
$B3CN0,0,0,0,0,0,0,0,0,0,0,0,0,0,0*4C
---00000025--- Acq_st=3 0  2019-4-16 3:0:27 
[00]  02(G03)  f 44  7  0    744.0  2045999.0 -0.0  2 0 1523 2103 1163
[01]  07(G08)  f 38  7  0  -4848.3  2046006.2 -0.1  2 0  223  937  787
[02]  08(G09)  f 43  7  0  -4605.7  2046005.9 -0.0  2 0 1345 2689 1478
[03]  15(G16)  f 42  7  0  -1175.5  2046001.5 -0.0  2 0 1032 1731  666
[04]  21(G22)  f 41 11  0   1136.9  2045998.5 -0.0  2 0  744 1696  706
[05]  22(G23)  f 42  7  0  -3890.6  2046005.0 -0.0  2 0 1371 1972  972
[16]  38(B02)  1 10 16  1  -1796.5  4092003.5  0.1  1 0  546  288  239
[17]  41(B05) 1f 41 25  0  -1088.4  4092002.7  0.1  2 0  657  967  551
[18]  46(B10) 1f 42  7  0   -995.7  4092002.5  0.0  2 0 1409 2038  936
[19]  54(B18) 1f 43  7  0   -959.4  4092002.4  0.0  2 0 1680 2148 1153
[20]  55(B19) 1f 43 14  0    -36.4  4092000.0 -0.0  2 0 1815 2045 1071
[21]  58(B22) 1f 42  7  0  -2655.0  4092006.8  0.0  2 0 1260 1444  577
[22]  45(B09)  7 34  7  0   -838.1  4092002.1 -0.5  5 0  803  919  516
[32]  75(N-6)  f 37  7  0   3130.8  1021997.9  0.3  2 0   369  969  558
[33]  80(N-1)  f 38  7  0    973.7  1021999.4 -0.2  2 0   495  385  312
[34]  82(N01)  f 37  7  0  -1987.4  1022001.2  0.1  2 0   514  634  385
[35]  85(N04)  f 43  7  0  -3669.2  1022002.3  0.0  2 0  1252 1508  412
[49]  41(B05)  1 17 25  1     12.8 20460020.4 -0.0  1 0  628  761  421
[50]  46(B10)  1  7  7  0   -719.7 20460015.7 -0.1  1 0  896  633  255
[51]  54(B18)  1  7  7  0  -1257.2 20460017.1 -0.3  1 0  587  558  593
[52]  55(B19)  1  9  7  0   -648.3 20460000.8  0.2  1 0  810  570  667
[53]  58(B22)  1  7  7  0  -2125.5 20460042.4 -0.0  1 0  290   29  114
kf_residual=0.000000
$GNGGA,030027.957,,,,,0,00,,,M,,,,0000*26
$GNRMC,030027.957,A,,,,,,,160419,,*20
$GPGSA,A,1,,,,,,,,,,,,,,,*1E
$BDGSA,A,1,,,,,,,,,,,,,,,*0F
$GLGSA,A,1,,,,,,,,,,,,,,,*02
$GPGSV,2,1,06,03,00,000,44,08,00,000,38,09,00,000,43,16,00,000,42*73
$GPGSV,2,2,06,22,00,000,41,23,00,000,42*7D
$BDGSV,2,1,06,05,00,000,41,10,00,000,42,18,00,000,43,19,00,000,43*6B
$BDGSV,2,2,06,22,00,000,42,09,00,000,34*66
$B3CN0,0,0,0,0,0,0,0,0,0,0,0,0,0,0*4C
---00000026--- Acq_st=3 0  2019-4-16 3:0:28 
[00]  02(G03)  f 44  7  0    745.2  2045999.0 -0.0  2 0 1423 2777 1687
[01]  07(G08)  f 38  8  0  -4842.8  2046006.2  0.3  2 0 1336 1250  493
[02]  08(G09)  f 44  7  0  -4603.6  2046005.9 -0.0  2 0 1833 2700 1243
[03]  15(G16)  f 43  7  0  -1170.8  2046001.4  0.0  2 0 1393 2243 1095
[04]  21(G22)  f 41  8  0   1143.3  2045998.5  0.1  2 0  533 1244  731
[05]  22(G23)  f 43  7  0  -3884.6  2046004.9  0.0  2 0 1660 2724 1438
[16]  38(B02)  1 14 25  1  -1925.1  4092007.4  0.0  1 0  250  566   51
[17]  41(B05) 1f 40 26  0  -1080.6  4092002.7  0.3  2 0 1291 1379  612
[18]  46(B10) 1f 43  7  0   -991.6  4092002.5  0.0  2 0 1352 1872 1153
[19]  54(B18) 1f 43  7  0   -954.7  4092002.4  0.0  2 0 1836 2131  534
[20]  55(B19) 1f 43 11  0    -33.0  4091999.9 -0.0  2 0 2072 2132  728
[21]  58(B22) 1f 42  7  0  -2649.2  4092006.8 -0.0  2 0 1574 1860  815
[22]  45(B09)  7 36 10  0   -834.4  4092002.1 -0.2  2 0  852  960  620
[32]  75(N-6)  f 36  7  0   3138.0  1021998.0  0.0  2 0   442  786  438
[33]  80(N-1)  f 37  7  0    978.8  1021999.3 -0.0  2 0   462  583  339
[34]  82(N01)  f 37  7  0  -1982.6  1022001.2 -0.3  2 0   346  992  620
[35]  85(N04)  f 43  7  0  -3665.2  1022002.3 -0.1  2 0  1056 1407  637
[50]  46(B10)  1  7  7  0  -1118.1 20460015.8 -0.1  1 0  421  562  960
[51]  54(B18)  1  7  7  0  -1283.2 20460015.7  0.1  1 0  230  388   32
[52]  55(B19)  1  7  7  0   -493.9 20459998.9  0.0  1 0  237  481  575
[53]  58(B22)  1  7  7  0  -2610.2 20460041.6 -0.1  1 0  543  258   58
kf_residual=0.000000
$GNGGA,030028.957,,,,,0,00,,,M,,,,0000*29
$GNRMC,030028.957,A,,,,,,,160419,,*2F
$GPGSA,A,1,,,,,,,,,,,,,,,*1E
$BDGSA,A,1,,,,,,,,,,,,,,,*0F
$GLGSA,A,1,,,,,,,,,,,,,,,*02
$GPGSV,2,1,06,03,00,000,44,08,00,000,38,09,00,000,44,16,00,000,43*75
$GPGSV,2,2,06,22,00,000,41,23,00,000,43*7C
$BDGSV,2,1,06,05,00,000,40,10,00,000,43,18,00,000,43,19,00,000,43*6B
$BDGSV,2,2,06,22,00,000,42,09,00,000,36*64
$B3CN0,0,0,0,0,0,0,0,0,0,0,0,0,0,0*4C
---00000027--- Acq_st=7 0  2019-4-16 3:0:29 
[00]  02(G03)  f 45  7  0    760.0  2045998.9 -0.0  2 0 2038 2666  917
[01]  07(G08)  f 38  7  0  -4830.9  2046006.2 -0.6  2 0  857 1084  620
[02]  08(G09)  f 44  7  0  -4586.4  2046005.9  0.0  2 0 1378 2596 1434
[03]  15(G16)  f 43  7  0  -1154.8  2046001.4 -0.0  2 0 1658 2564 1130
[04]  21(G22)  f 41  7  0   1156.6  2045998.4 -0.1  2 0 1527 1870 1040
[05]  22(G23)  f 43  9  0  -3874.8  2046004.9 -0.1  2 0 1182 1940  873
[16]  38(B02)  7 10 10  1  -2427.5  4092006.3 -0.0  2 0  183  510  301
[17]  41(B05) 1f 41 18  0  -1070.9  4092002.8 -0.3  2 0  592 1295  208
[18]  46(B10) 1f 42  7  0   -974.3  4092002.4 -0.0  2 0 1684 2150  745
[19]  54(B18) 1f 43  7  0   -941.8  4092002.3 -0.0  2 0 1465 2419 1025
[20]  55(B19) 1f 44 13  0    -16.1  4091999.9  0.0  2 0 2285 3078 1628
[21]  58(B22) 1f 43  7  0  -2635.5  4092006.7  0.0  2 0 1456 1880  930
[22]  45(B09)  7 36  7  0   -822.4  4092002.0  0.2  2 0  435  896  480
[32]  75(N-6)  f 36  7  0   3150.9  1021998.0 -0.1  2 0   510  906  325
[33]  80(N-1)  f 35  7  0    991.4  1021999.5  0.0  2 0   242  849  557
[34]  82(N01)  f 37  7  0  -1966.3  1022001.2  0.4  2 0   606 1053  539
[35]  85(N04)  f 44  7  0  -3649.2  1022002.3 -0.1  2 0  1012 1858  946
[49]  41(B05)  1 26 26  1  -1030.5 20460020.1  0.0  1 0  330  421  385
[50]  46(B10)  1  7  7  0   -921.6 20460015.4  0.1  1 0  242  292  298
[51]  54(B18)  1  7  7  0  -1389.9 20460014.2  0.1  1 0  735  439  135
[52]  55(B19)  1  7  7  0   -489.8 20460001.3  0.1  1 0  333  260  236
[53]  58(B22)  1  7  7  0  -2835.1 20460042.2  0.2  1 0  164  263  283
kf_residual=0.000000
$GNGGA,030029.957,,,,,0,00,,,M,,,,0000*28
$GNRMC,030029.957,A,,,,,,,160419,,*2E
$GPGSA,A,1,,,,,,,,,,,,,,,*1E
$BDGSA,A,1,,,,,,,,,,,,,,,*0F
$GLGSA,A,1,,,,,,,,,,,,,,,*02
$GPGSV,2,1,06,03,00,000,45,08,00,000,38,09,00,000,44,16,00,000,43*74
$GPGSV,2,2,06,22,00,000,41,23,00,000,43*7C
$BDGSV,2,1,06,05,00,000,41,10,00,000,42,18,00,000,43,19,00,000,44*6C
$BDGSV,2,2,06,22,00,000,43,09,00,000,36*65
$B3CN0,0,0,0,0,0,0,0,0,0,0,0,0,0,0*4C
---00000028--- Acq_st=7 0  2019-4-16 3:0:30 
[00]  02(G03)  f 44  7  0    754.6  2045998.9  0.1  2 0 2317 2766 1497
[01]  07(G08)  f 38  7  0  -4833.6  2046006.2 -0.3  2 0  118 1013  639
[02]  08(G09)  f 43  7  0  -4595.1  2046005.9 -0.0  2 0 1690 2540  975
[03]  15(G16)  f 42  7  0  -1161.1  2046001.4  0.0  2 0 1393 2299 1444
[04]  21(G22)  f 41  7  0   1150.1  2045998.4  0.0  2 0  939 2053  995
[05]  22(G23)  f 43  7  0  -3879.7  2046004.9  0.1  2 0 2061 2391 1141
[16]  38(B02)  7 10 10  0  -2602.9  4092006.8 -0.1  2 0  230  166   37
[17]  41(B05) 1f 40 28  0  -1081.4  4092002.7 -0.4  2 0 1279 1448  719
[18]  46(B10) 1f 42  7  0   -981.5  4092002.4 -0.1  2 0 1555 1877  453
[19]  54(B18) 1f 43  7  0   -946.9  4092002.4  0.0  2 0 2111 2453 1182
[20]  55(B19) 1f 43  7  0    -25.4  4091999.9 -0.1  2 0 1856 2770 1463
[21]  58(B22) 1f 43  7  0  -2644.3  4092006.8 -0.0  2 0 1524 1748  793
[22]  45(B09)  7 36  7  0   -833.2  4092002.0  0.1  2 0 1035  600  243
[32]  75(N-6)  f 36  7  0   3145.2  1021997.9 -0.0  2 0   737  814  282
[33]  80(N-1)  f 34  7  0    985.9  1021999.4 -0.1  2 0   300  706  535
[34]  82(N01)  f 37  7  0  -1972.0  1022001.2 -0.1  2 0   416  641  718
[35]  85(N04)  f 44  7  0  -3656.1  1022002.3  0.0  2 0   966 1350  722
[49]  41(B05)  1 19 26  1   -900.1 20460018.3 -0.0  1 0  629  330  396
[50]  46(B10)  1  7  7  0   -974.9 20460015.5 -0.0  1 0  553  423  363
[51]  54(B18)  1  7  7  0   -957.6 20460016.2 -0.1  1 0  827  863  705
ls_residual=3.853683
kf_residual=3.853683
$GNGGA,030030.834,2944.9094,N,10633.0667,E,1,05,2.5,310.7,M,,,,0000*16
$GNRMC,030030.834,A,2944.9094,N,10633.0667,E,1.25,0.00,160419,,*10
$GPGSA,A,3,03,08,09,22,23,,,,,,,,3.6,2.5,2.6*37
$BDGSA,A,3,,,,,,,,,,,,,3.6,2.5,2.6*25
$GLGSA,A,3,,,,,,,,,,,,,3.6,2.5,2.6*28
$GPGSV,2,1,06,03,00,000,44,08,00,000,38,09,00,000,43,16,00,000,42*73
$GPGSV,2,2,06,22,00,000,41,23,00,000,43*7C
$BDGSV,2,1,06,05,00,000,40,10,00,000,42,18,00,000,43,19,00,000,43*6A
$BDGSV,2,2,06,22,00,000,43,09,00,000,36*65
$B3CN0,0,0,0,0,0,0,0,0,0,0,0,0,0,0*4C
---00000029--- Acq_st=3 0  2019-4-16 3:0:31 
[00]  02(G03)  f 44  7  0    751.9  2045998.9 -0.0  2 0 2277 2988 1260
[01]  07(G08)  f 39  7  0  -4836.6  2046006.2  0.2  2 0  336  907  442
[02]  08(G09)  f 43  7  0  -4599.2  2046005.9  0.0  2 0 1294 2117  598
[03]  15(G16)  f 42  7  0  -1163.3  2046001.4  0.0  2 0 1141 2412 1300
[04]  21(G22)  f 42  7  0   1143.4  2045998.4  0.0  2 0 1582 2189  606
[05]  22(G23)  f 44  7  0  -3884.7  2046004.9  0.0  2 0 2005 2763 1728
[16]  38(B02)  7 10 24  0  -3116.4  4092008.2  0.1  2 0  204  406  143
[17]  41(B05) 1f 40 20  0  -1075.6  4092002.6 -0.9  2 0  508 1300 1049
[18]  46(B10) 1f 42  7  0   -985.1  4092002.5 -0.0  2 0 1019 1804  973
[19]  54(B18) 1f 43  9  0   -951.7  4092002.3  0.0  2 0 1773 2624 1543
[20]  55(B19) 1f 44 13  0    -28.2  4091999.9  0.0  2 0 2536 2410  835
[21]  58(B22) 1f 43  7  0  -2646.5  4092006.8  0.1  2 0 1915 2177  619
[22]  45(B09)  7 36  7  0   -833.4  4092002.1 -0.0  2 0  981  986  433
[32]  75(N-6)  f 35  7  0   3140.1  1021998.0  0.1  2 0   471  749  546
[33]  80(N-1)  f 34  7  0    983.9  1021999.3  0.1  2 0   452  796  460
[34]  82(N01)  f 37  7  0  -1975.5  1022001.2  0.1  2 0   877 1165  365
[35]  85(N04)  f 43  7  0  -3659.3  1022002.3  0.1  2 0   561 1393  904
[49]  41(B05)  1 23 24  1   -341.6 20460016.7 -0.1  1 0  567  563  549
[52]  55(B19)  1  7  7  0     31.6 20460000.5  0.1  1 0  708  184  180
[53]  58(B22)  1  7  7  0  -2436.4 20460041.3  0.1  1 0  548  308  159
ls_residual=8.142702
kf_residual=8.429567
Refix G03: 2, 183649.923624, 750
Refix G08: 2, 183649.918105, -4841
Refix G09: 2, 183649.916867, -4599
Refix G22: 2, 183649.921126, 1145
Refix G23: 2, 183649.925455, -3884
$GNGGA,030032.000,2944.9104,N,10633.0655,E,1,05,2.5,302.4,M,,,,0000*12
$GNRMC,030032.000,A,2944.9104,N,10633.0655,E,0.74,0.00,160419,,*11
$GPGSA,A,3,03,08,09,22,23,,,,,,,,3.6,2.5,2.6*37
$BDGSA,A,3,,,,,,,,,,,,,3.6,2.5,2.6*25
$GLGSA,A,3,,,,,,,,,,,,,3.6,2.5,2.6*28
$GPGSV,2,1,06,03,00,000,44,08,00,000,39,09,00,000,43,16,00,000,42*72
$GPGSV,2,2,06,22,00,000,42,23,00,000,44*78
$BDGSV,2,1,06,05,00,000,40,10,00,000,42,18,00,000,43,19,00,000,44*6D
$BDGSV,2,2,06,22,00,000,43,09,00,000,36*65
$B3CN0,0,0,0,0,0,0,0,0,0,0,0,0,0,0*4C
---00000030--- Acq_st=3 0  2019-4-16 3:0:32 
[00]  02(G03)  f 45  7  0    756.7  2045998.9 -0.0  2 0 2623 3566 1731
[01]  07(G08)  f 39  7  0  -4837.7  2046006.2 -0.2  2 0  529  965  640
[02]  08(G09)  f 43  7  0  -4593.6  2046005.9 -0.0  2 0 1481 1901  504
[03]  15(G16)  f 42  8  0  -1160.9  2046001.4 -0.0  2 0 1159 1509  670
[04]  21(G22)  f 42  7  0   1152.7  2045998.4  0.0  2 0 1141 1676  376
[05]  22(G23)  f 44  7  0  -3877.4  2046004.9 -0.0  2 0 1680 2206 1071
[16]  38(B02)  7 10 10  0  -3395.4  4092009.0 -0.1  2 0  180  581  692
[17]  41(B05) 1f 40 27  0  -1072.9  4092002.7  0.2  2 0  944 1548  724
[18]  46(B10) 1f 42 11  0   -983.6  4092002.4  0.0  2 0 1656 2003 1105
[19]  54(B18) 1f 43  7  0   -944.8  4092002.3  0.0  2 0 2105 2245  520
[20]  55(B19) 1f 44 11  0    -22.5  4091999.9  0.0  2 0 1692 2098  967
[21]  58(B22) 1f 43  7  0  -2640.8  4092006.7 -0.0  2 0 2027 2363 1130
[22]  45(B09)  7 35  7  0   -823.2  4092002.0 -0.1  2 0  851  837  543
[32]  75(N-6) 8f 34  7  0   3143.9  1021998.1 -0.1  2 0   234  277  208
[33]  80(N-1)  f 36  7  0    993.8  1021999.3  0.1  2 0   102  379  416
[34]  82(N01) 8f 37  7  0  -1971.3  1022001.2  0.0  2 0   565  701  377
[35]  85(N04) 8f 43  7  0  -3653.0  1022002.3 -0.1  2 0  1130 1472  863
[49]  41(B05)  1 23 25  0    355.5 20460020.0 -0.0  1 0  452  766  262
[50]  46(B10)  1  7  7  0  -1443.1 20460014.0  0.1  1 0  583  649  381
[51]  54(B18)  1  7  7  0   -554.7 20460015.2 -0.0  1 0  393  569  756
[52]  55(B19)  1  7  7  0    187.2 20459999.9 -0.1  1 0  528  643  568
[53]  58(B22)  1  7  7  0  -2735.1 20460040.3 -0.0  1 0  259  518  953
ls_residual=9.969560
kf_residual=11.323113
Refix G03: 2, 183650.923623, 762
Refix G08: 2, 183650.918108, -4833
Refix G09: 2, 183650.916869, -4591
Refix G22: 2, 183650.921125, 1155
Refix G23: 2, 183650.925458, -3873
$GNGGA,030033.000,2944.9109,N,10633.0636,E,1,05,2.5,298.2,M,,,,0000*1F
$GNRMC,030033.000,A,2944.9109,N,10633.0636,E,2.25,3.76,160419,,*1C
$GPGSA,A,3,03,08,09,22,23,,,,,,,,3.6,2.5,2.6*37
$BDGSA,A,3,,,,,,,,,,,,,3.6,2.5,2.6*25
$GLGSA,A,3,,,,,,,,,,,,,3.6,2.5,2.6*28
$GPGSV,2,1,06,03,28,247,45,08,10,190,39,09,06,319,43,16,00,000,42*7C
$GPGSV,2,2,06,22,22,225,42,23,39,315,44*70
$BDGSV,2,1,06,05,00,000,40,10,00,000,42,18,00,000,43,19,00,000,44*6D
$BDGSV,2,2,06,22,00,000,43,09,00,000,35*66
$B3CN0,0,0,0,0,0,0,0,0,0,0,0,0,0,0*4C
---00000031--- Acq_st=3 0  2019-4-16 3:0:33 
[00]  02(G03)  f 44  7  0    768.6  2045998.9 -0.0  2 0 2432 3353 1164
[01]  07(G08)  f 39  7  0  -4828.2  2046006.2  0.1  2 0  874 1285  917
[02]  08(G09)  f 43  7  0  -4583.6  2046005.9  0.0  2 0 2158 2822  969
[03]  15(G16)  f 43  7  0  -1148.5  2046001.4 -0.0  2 0 1362 2443 1157
[04]  21(G22)  f 42  7  0   1162.4  2045998.4 -0.0  2 0 1153 1840  963
[05]  22(G23)  f 44  7  0  -3869.2  2046004.9  0.0  2 0 1647 2328 1124
[17]  41(B05) 1f 41 27  0  -1064.9  4092002.7  0.1  2 0 1202 1694 1079
[18]  46(B10) 1f 42 11  0   -972.3  4092002.4  0.0  2 0 1374 1713  807
[19]  54(B18) 1f 43  7  0   -935.1  4092002.3 -0.0  2 0 1737 2246  841
[20]  55(B19) 1f 44  7  0    -13.7  4091999.9  0.0  2 0 1848 2033  774
[21]  58(B22) 1f 43  7  0  -2628.7  4092006.8 -0.0  2 0 1565 1882  803
[22]  45(B09) 1f 36  7  0   -813.7  4092002.0  0.0  2 0  709  650   53
[32]  75(N-6) 8f 33  7  0   3155.6  1021998.1 -0.1  2 0   188  251  246
[33]  80(N-1)  f 36  7  0   1000.9  1021999.3 -0.0  2 0   390  455   21
[34]  82(N01) 8f 37  7  0  -1959.8  1022001.2  0.2  2 0   457  779  272
[35]  85(N04) 8f 43  7  0  -3642.5  1022002.3 -0.0  2 0   585 1252  919
[50]  46(B10)  1  7  7  0  -1545.5 20460014.7 -0.1  1 0  222  121  258
[51]  54(B18)  1  7  7  0   -760.6 20460013.3 -0.1  1 0 1058  547  765
[52]  55(B19)  1  7  9  0   -132.5 20460002.8  0.1  1 0  768  855  422
[53]  58(B22)  1  7  7  0  -2695.0 20460042.5 -0.0  1 0  397  126  555
ls_residual=8.499003
kf_residual=10.587439
Refix G03: 2, 183651.923623, 766
Refix G08: 2, 183651.918111, -4830
Refix G09: 2, 183651.916872, -4586
Refix G22: 2, 183651.921124, 1159
Refix G23: 2, 183651.925460, -3869
$GNGGA,030034.000,2944.9112,N,10633.0630,E,1,05,2.5,294.0,M,,,,0000*1A
$GNRMC,030034.000,A,2944.9112,N,10633.0630,E,3.05,20624.74,,,*1C
$GPGSA,A,3,03,08,09,22,23,,,,,,,,3.6,2.5,2.6*37
$BDGSA,A,3,,,,,,,,,,,,,3.6,2.5,2.6*25
$GLGSA,A,3,,,,,,,,,,,,,3.6,2.5,2.6*28
$GPGSV,2,1,06,03,28,247,44,08,10,190,39,09,06,319,43,16,00,000,43*7C
$GPGSV,2,2,06,22,22,225,42,23,39,315,44*70
$BDGSV,2,1,06,05,00,000,41,10,00,000,42,18,00,000,43,19,00,000,44*6C
$BDGSV,2,2,06,22,00,000,43,09,00,000,36*65
$B3CN0,0,0,0,0,0,0,0,0,0,0,0,0,0,0*4C
---00000032--- Acq_st=3 0  2019-4-16 3:0:34 
[00]  02(G03)  f 44  7  0    755.5  2045998.9  0.0  2 0 2241 3341 1466
[01]  07(G08)  f 39  7  0  -4837.7  2046006.2  0.1  2 0 1089 1418  565
[02]  08(G09)  f 43  7  0  -4595.2  2046005.9 -0.0  2 0 1554 1878  706
[03]  15(G16)  f 42  7  0  -1158.9  2046001.5  0.1  2 0  913 2214 1285
[04]  21(G22)  f 42 11  0   1148.0  2045998.4 -0.1  2 0 1302 1764  654
[05]  22(G23)  f 43 10  0  -3881.7  2046005.0  0.0  2 0 1549 2447  992
[17]  41(B05) 1f 40 25  0  -1073.6  4092002.6  0.4  2 0  888 1107  394
[18]  46(B10) 1f 42  8  0   -981.5  4092002.4 -0.0  2 0 1035 1806  675
[19]  54(B18) 1f 43  7  0   -947.7  4092002.4  0.0  2 0 1227 1651  505
[20]  55(B19) 1f 44  7  0    -23.1  4091999.9 -0.1  2 0 2151 2477  872
[21]  58(B22) 1f 43  8  0  -2642.0  4092006.8  0.0  2 0 1700 2143 1073
[22]  45(B09) 1f 36  7  0   -826.0  4092002.1 -0.1  2 0  593  641  506
[32]  75(N-6) 8f 31  7  0   3144.7  1021998.1 -0.1  5 0   463  553  245
[33]  80(N-1)  f 36  7  0    988.9  1021999.3  0.1  2 0   397  766  340
[34]  82(N01) 8f 38  7  0  -1973.2  1022001.2 -0.4  2 0   299 1306  699
[35]  85(N04) 8f 42  7  0  -3654.5  1022002.3  0.0  2 0   565 1161  764
[49]  41(B05)  1 23 24  0   -277.6 20460024.5  0.1  1 0  307  325  519
[50]  46(B10)  1  7  7  0  -1853.9 20460015.4  0.2  1 0  293  128  245
[51]  54(B18)  1  7  8  0  -1033.4 20460014.1  0.1  1 0  998  875  559
[52]  55(B19)  1  7  9  0    347.3 20460001.1 -0.1  1 0  597  439  498
[53]  58(B22)  1  7 11  0  -2758.8 20460042.3 -0.1  1 0   79  523  405
[54]  45(B09)  1  7  7  0   -431.0 20460013.4  0.0  1 0  462  241  178
ls_residual=7.573905
kf_residual=9.066946
Refix G03: 2, 183652.923622, 754
Refix G08: 2, 183652.918114, -4838
Refix G09: 2, 183652.916875, -4595
Refix G22: 2, 183652.921124, 1148
Refix G23: 2, 183652.925462, -3879
$GNGGA,030035.000,2944.9112,N,10633.0634,E,1,05,2.5,291.0,M,,,,0000*1A
$GNRMC,030035.000,A,2944.9112,N,10633.0634,E,0.82,20624.74,,,*15
$GPGSA,A,3,03,08,09,22,23,,,,,,,,3.6,2.5,2.6*37
$BDGSA,A,3,,,,,,,,,,,,,3.6,2.5,2.6*25
$GLGSA,A,3,,,,,,,,,,,,,3.6,2.5,2.6*28
$GPGSV,2,1,06,03,28,247,44,08,10,190,39,09,06,319,43,16,00,000,42*7D
$GPGSV,2,2,06,22,22,225,42,23,39,315,43*77
$BDGSV,2,1,06,05,00,000,40,10,00,000,42,18,00,000,43,19,00,000,44*6D
$BDGSV,2,2,06,22,00,000,43,09,00,000,36*65
$B3CN0,0,0,0,0,0,0,0,0,0,0,0,0,0,0*4C
---00000033--- Acq_st=3 0  2019-4-16 3:0:35 
[00]  02(G03)  f 44  7  0    756.9  2045998.9  0.0  2 0 2143 3280 1057
[01]  07(G08)  f 38  7  0  -4840.5  2046006.2  0.1  2 0 1011 1149  305
[02]  08(G09)  f 43  7  0  -4592.6  2046005.9  0.0  2 0 1735 2703 1241
[03]  15(G16)  f 43  7  0  -1161.8  2046001.4 -0.0  2 0 1176 1939 1083
[04]  21(G22)  f 42  8  0   1151.7  2045998.4  0.1  2 0 1511 2086 1375
[05]  22(G23)  f 43  7  0  -3877.7  2046005.0 -0.0  2 0 1682 2442 1105
[17]  41(B05) 1f 39 27  0  -1074.8  4092002.7  0.5  2 0  903  546  299
[18]  46(B10) 1f 42 11  0   -983.8  4092002.5 -0.0  2 0 1161 1758 1070
[19]  54(B18) 1f 43  7  0   -947.0  4092002.3  0.0  2 0 1526 1959  778
[20]  55(B19) 1f 44  7  0    -22.6  4091999.9  0.0  2 0 1823 2544 1070
[21]  58(B22) 1f 43  7  0  -2638.9  4092006.8  0.0  2 0 1745 1950  576
[22]  45(B09) 1f 35  7  0   -827.4  4092002.1  0.1  2 0  839  990  582
[32]  75(N-6) 8f 32  7  0   3144.5  1021998.0  0.1  5 0    93  637  345
[33]  80(N-1)  f 36  7  0    992.5  1021999.3  0.2  2 0   157  464  561
[34]  82(N01) 8f 39  7  0  -1969.4  1022001.2 -0.3  2 0   851 1257  569
[35]  85(N04) 8f 42  7  0  -3652.7  1022002.3  0.0  2 0   932 1548  974
[49]  41(B05)  1 16 23  1     25.9 20460022.1  0.1  1 0  510  193  386
[50]  46(B10)  1  7  7  0  -2299.2 20460014.3 -0.1  1 0  157   80  491
[51]  54(B18)  1  7  7  0  -1555.1 20460014.5 -0.1  1 0  318  469  581
[54]  45(B09)  1  7  7  0   -262.2 20460012.2 -0.1  1 0  631  813  311
ls_residual=8.636889
kf_residual=11.011209
Refix G03: 2, 183653.923622, 760
Refix G08: 2, 183653.918117, -4834
Refix G09: 2, 183653.916878, -4591
Refix G22: 2, 183653.921123, 1153
Refix G23: 2, 183653.925465, -3875
$GNGGA,030036.000,2944.9115,N,10633.0635,E,1,05,2.5,289.8,M,,,,0000*1E
$GNRMC,030036.000,A,2944.9115,N,10633.0635,E,1.69,20624.74,,,*14
$GPGSA,A,3,03,08,09,22,23,,,,,,,,3.6,2.5,2.6*37
$BDGSA,A,3,,,,,,,,,,,,,3.6,2.5,2.6*25
$GLGSA,A,3,,,,,,,,,,,,,3.6,2.5,2.6*28
$GPGSV,2,1,06,03,28,247,44,08,10,190,38,09,06,319,43,16,00,000,43*7D
$GPGSV,2,2,06,22,22,225,42,23,39,315,43*77
$BDGSV,2,1,06,05,00,000,39,10,00,000,42,18,00,000,43,19,00,000,44*63
$BDGSV,2,2,06,22,00,000,43,09,00,000,35*66
$B3CN0,0,0,0,0,0,0,0,0,0,0,0,0,0,0*4C
---00000034--- Acq_st=3 0  2019-4-16 3:0:36 
[00]  02(G03)  f 45  7  0    761.8  2045998.9  0.0  2 0 2363 3641 1800
[01]  07(G08)  f 38  7  0  -4830.4  2046006.1 -0.0  2 0 1271 1337  517
[02]  08(G09)  f 43  7  0  -4590.6  2046005.9  0.1  2 0 1656 1905  500
[03]  15(G16)  f 43  7  0  -1155.4  2046001.4 -0.0  2 0 1203 2149 1199
[04]  21(G22)  f 43  7  0   1156.2  2045998.5 -0.1  2 0 1370 2030 1302
[05]  22(G23)  f 43  7  0  -3871.5  2046005.0 -0.0  2 0 1449 1971 1150
[17]  41(B05) 1f 40 25  0  -1070.0  4092002.8  0.6  2 0  674  912  537
[18]  46(B10) 1f 42  7  0   -977.2  4092002.4  0.0  2 0 1509 2006  677
[19]  54(B18) 1f 43  7  0   -942.7  4092002.3 -0.0  2 0 1908 2442  837
[20]  55(B19) 1f 44  8  0    -16.2  4091999.9 -0.1  2 0 2314 2723 1307
[21]  58(B22) 1f 43  7  0  -2636.2  4092006.8  0.0  2 0 2037 2214  816
[22]  45(B09) 1f 35  7  0   -819.3  4092002.0 -0.3  2 0  307  562   81
[32]  75(N-6) 8f 32  7  0   3151.0  1021997.9  0.0  5 0   135  566  220
[33]  80(N-1)  f 35  7  0    997.7  1021999.3 -0.0  2 0   320  582  459
[34]  82(N01) 8f 39  7  0  -1964.3  1022001.2  0.6  2 0   716 1010  613
[35]  85(N04) 8f 41  7  0  -3648.8  1022002.3 -0.1  2 0   662 1016  556
[49]  41(B05)  1 19 19  0    200.7 20460016.4 -0.0  1 0  448  423  195
[52]  55(B19)  1  7  9  0    142.1 20460000.9 -0.2  1 0  795  109  350
[53]  58(B22)  1  7  7  0  -2437.5 20460041.5 -0.1  1 0  366  224  195
[54]  45(B09)  1 11  7  0      9.0 20460012.9 -0.0  1 0  316  587  371
ls_residual=8.642818
kf_residual=11.915225
Refix G03: 2, 183654.923621, 760
Refix G08: 2, 183654.918120, -4834
Refix G09: 2, 183654.916881, -4591
Refix G22: 2, 183654.921122, 1153
Refix G23: 2, 183654.925467, -3874
$GNGGA,030037.000,2944.9120,N,10633.0642,E,1,05,2.5,289.6,M,,,,0000*17
$GNRMC,030037.000,A,2944.9120,N,10633.0642,E,1.42,20624.74,,,*1A
$GPGSA,A,3,03,08,09,22,23,,,,,,,,3.6,2.5,2.6*37
$BDGSA,A,3,,,,,,,,,,,,,3.6,2.5,2.6*25
$GLGSA,A,3,,,,,,,,,,,,,3.6,2.5,2.6*28
$GPGSV,2,1,06,03,28,247,45,08,10,190,38,09,06,319,43,16,00,000,43*7C
$GPGSV,2,2,06,22,22,225,43,23,39,315,43*76
$BDGSV,2,1,06,05,00,000,40,10,00,000,42,18,00,000,43,19,00,000,44*6D
$BDGSV,2,2,06,22,00,000,43,09,00,000,35*66
$B3CN0,0,0,0,0,0,0,0,0,0,0,0,0,0,0*4C
---00000035--- Acq_st=3 0  2019-4-16 3:0:37 
[00]  02(G03)  f 44  7  0    750.3  2045999.0 -0.0  2 0 2660 4123 2011
[01]  07(G08)  f 39  7  0  -4844.2  2046006.2  0.1  2 0 1265 1285  727
[02]  08(G09)  f 43  7  0  -4599.1  2046005.9 -0.0  2 0 1075 2282 1152
[03]  15(G16)  f 43  8  0  -1166.7  2046001.4 -0.0  2 0 1684 2343  729
[04]  21(G22)  f 42  8  0   1145.2  2045998.5  0.0  2 0 1371 2159 1008
[05]  22(G23)  f 42  7  0  -3886.0  2046005.0 -0.0  2 0  972 1785  782
[17]  41(B05) 1f 40 25  0  -1083.6  4092002.7 -0.5  2 0  769 1314  713
[18]  46(B10) 1f 42  9  0   -984.5  4092002.5  0.0  2 0 1299 1759  950
[19]  54(B18) 1f 43  7  0   -956.4  4092002.4  0.0  2 0 1652 2163  707
[20]  55(B19) 1f 44  9  0    -25.4  4091999.9 -0.0  2 0 2187 2521  706
[21]  58(B22) 1f 44  7  0  -2645.8  4092006.8 -0.1  2 0 2262 2649 1225
[22]  45(B09) 1f 35  7  0   -834.9  4092002.0  0.1  2 0  704  795  504
[32]  75(N-6) 8f 34  7  0   3138.4  1021998.0  0.1  5 0   173  590  306
[33]  80(N-1)  f 36  7  0    988.0  1021999.3 -0.0  2 0   544  824  307
[34]  82(N01) 8f 39  7  0  -1975.2  1022001.3 -0.1  2 0   190  993  537
[35]  85(N04) 8f 40  7  0  -3658.3  1022002.3  0.3  2 0   520 1090  722
[49]  41(B05)  1 23 23  0   -794.2 20460021.3  0.0  1 0  449  582  344
[50]  46(B10)  1  7  7  0   -461.2 20460013.6 -0.1  1 0  251  625  327
[51]  54(B18)  1  7 10  0   -933.7 20460015.6 -0.2  1 0  924  590  744
[52]  55(B19)  1  7  7  0   -148.0 20460000.3  0.0  1 0  389  235  372
[53]  58(B22)  1  7  7  0  -2675.5 20460043.2 -0.0  1 0  458  281   30
[54]  45(B09)  1  7  9  0    -58.2 20460012.5 -0.1  1 0  353   16  182
ls_residual=2.321765
kf_residual=11.254962
Refix G03: 2, 183655.923621, 753
Refix G08: 2, 183655.918123, -4839
Refix G09: 2, 183655.916884, -4597
Refix G22: 2, 183655.921121, 1147
Refix G23: 2, 183655.925470, -3880
$GNGGA,030038.000,2944.9123,N,10633.0654,E,1,05,2.5,290.3,M,,,,0000*11
$GNRMC,030038.000,A,2944.9123,N,10633.0654,E,0.21,20624.74,,,*15
$GPGSA,A,3,03,08,09,22,23,,,,,,,,3.6,2.5,2.6*37
$BDGSA,A,3,,,,,,,,,,,,,3.6,2.5,2.6*25
$GLGSA,A,3,,,,,,,,,,,,,3.6,2.5,2.6*28
$GPGSV,2,1,06,03,28,247,44,08,10,190,39,09,06,319,43,16,00,000,43*7C
$GPGSV,2,2,06,22,22,225,42,23,39,315,42*76
$BDGSV,2,1,06,05,00,000,40,10,00,000,42,18,00,000,43,19,00,000,44*6D
$BDGSV,2,2,06,22,00,000,44,09,00,000,35*61
$B3CN0,0,0,0,0,0,0,0,0,0,0,0,0,0,0*4C
---00000036--- Acq_st=7 0  2019-4-16 3:0:38 
[00]  02(G03)  f 45  7  0    764.0  2045999.0  0.0  2 0 2516 3575 1768
[01]  07(G08)  f 39 12  0  -4831.2  2046006.2  0.1  2 0  600 1395  906
[02]  08(G09)  f 43  7  0  -4588.9  2046005.9 -0.0  2 0 1913 2639 1301
[03]  15(G16)  f 43  7  0  -1150.6  2046001.4  0.1  2 0 1476 2174  839
[04]  21(G22)  f 42  7  0   1158.3  2045998.5 -0.1  2 0  745 1921  734
[05]  22(G23)  f 42  7  0  -3866.9  2046005.0 -0.0  2 0 1033 2227 1093
[17]  41(B05) 1f 40 28  0  -1070.9  4092002.6  0.1  2 0  619  895  273
[18]  46(B10) 1f 42 12  0   -976.0  4092002.4 -0.0  2 0 1504 1657  381
[19]  54(B18) 1f 43  7  0   -943.2  4092002.3 -0.0  2 0 1709 2085  998
[20]  55(B19) 1f 44  8  0    -11.7  4091999.9  0.0  2 0 2139 2680 1314
