i=1
Rf R0 Config = ff777073
Rf R1 Config = 00dffbfe
Rf R52 Config = 00dfef00
i=2
Rf R0 Config = 007770f3
Rf R1 Config = 00dffbfe
Rf R52 Config = 00da6ef0
i=3
Rf R0 Config = 007772f3
Rf R1 Config = 00dfdbfe
Rf R52 Config = 00deaef0
i=4
Rf R0 Config = 00777273
Rf R1 Config = 00df7bfe
Rf R52 Config = 00de0e60
SD initialized success
Create debug.log Failed! 3
Start Channel by LuYu
$GNGGA,000000.000,,,,,0,00,,,M,,,,0000*2B
$GNRMC,000000.000,A,,,,,,,060180,,*29
$GPGSA,A,1,,,,,,,,,,,,,,,*1E
$BDGSA,A,1,,,,,,,,,,,,,,,*0F
$GLGSA,A,1,,,,,,,,,,,,,,,*02
$B3CN0,0,0,0,0,0,0,0,0,0,0,0,0,0,0*4C
---00000001--- Acq_st=3 0  2019-4-16 2:50:9 
[00]  02(G03)  1 25  7  0    501.0  2046000.9  0.3  1 0 3289 5142 2392
[01]  07(G08)  1  7  7  0  -5000.0  2046007.5  0.0  1 0  192  277  812
[02]  08(G09)  1  7  7  0  -4750.0  2046008.4 -0.1  1 0  518  985 2178
$GNGGA,000000.000,,,,,0,00,,,M,,,,0000*2B
$GNRMC,000000.000,A,,,,,,,060180,,*29
$GPGSA,A,1,,,,,,,,,,,,,,,*1E
$BDGSA,A,1,,,,,,,,,,,,,,,*0F
$GLGSA,A,1,,,,,,,,,,,,,,,*02
$B3CN0,0,0,0,0,0,0,0,0,0,0,0,0,0,0*4C
---00000002--- Acq_st=3 0  2019-4-16 2:50:10 
[00]  02(G03)  7 21  7  0    503.1  2045999.2  0.8 10 0 3575 3769 1674
[01]  07(G08)  1 28 12  0  -4800.6  2046007.1  0.5  1 0  815  816  445
[02]  08(G09)  1 31  7  0  -4623.6  2046006.1  0.7  1 0 1910 2329  684
[03]  15(G16)  1 24  7  0  -1526.0  2046004.3  0.2  1 0  872 1721 1645
[04]  21(G22)  1 16  7  0   1000.0  2045998.9  0.0  1 0  623 1996 1201
[05]  22(G23)  1  7  7  0  -4000.0  2046007.4  0.1  1 0  105  677 2019
$GNGGA,000000.000,,,,,0,00,,,M,,,,0000*2B
$GNRMC,000000.000,A,,,,,,,060180,,*29
$GPGSA,A,1,,,,,,,,,,,,,,,*1E
$BDGSA,A,1,,,,,,,,,,,,,,,*0F
$GLGSA,A,1,,,,,,,,,,,,,,,*02
$GPGSV,1,1,01,03,00,000,21*48
$B3CN0,0,0,0,0,0,0,0,0,0,0,0,0,0,0*4C
---00000003--- Acq_st=3 0  2019-4-16 2:50:11 
[00]  02(G03)  7 46  7  0    504.5  2045999.2  0.0  2 0 3628 3666 1487
[01]  07(G08)  7 31  7  0  -4794.2  2046006.1  0.1  5 0  629  612  375
[02]  08(G09)  7 32  7  0  -4622.4  2046005.8  0.3  5 0 1491 1522 1031
[03]  15(G16)  7 20  7  0  -1519.0  2046001.8  0.8 10 0 2102 2407 1016
[04]  21(G22)  1 30  7  0   1030.8  2045998.4  0.8  1 0  977 1364  327
[05]  22(G23)  1 32  7  0  -4052.7  2046005.4  0.7  1 0 1871 2038  800
[16]  38(B02)  1 18 31  1  -1000.0  4092001.8  0.0  1 0  374   64  596
$GNGGA,000000.000,,,,,0,00,,,M,,,,0000*2B
$GNRMC,000000.000,A,,,,,,,060180,,*29
$GPGSA,A,1,,,,,,,,,,,,,,,*1E
$BDGSA,A,1,,,,,,,,,,,,,,,*0F
$GLGSA,A,1,,,,,,,,,,,,,,,*02
$GPGSV,1,1,04,03,00,000,46,08,00,000,31,09,00,000,32,16,00,000,20*7B
$B3CN0,0,0,0,0,0,0,0,0,0,0,0,0,0,0*4C
---00000004--- Acq_st=3 0  2019-4-16 2:50:12 
[00]  02(G03)  7 45  7  0    508.2  2045999.2 -0.0  2 0 2114 3155 1243
[01]  07(G08)  7 36  7  0  -4806.1  2046006.1  0.3  2 0  806  734  257
[02]  08(G09)  7 43  7  0  -4617.6  2046005.9 -0.0  2 0 1804 2224  917
[03]  15(G16)  7 43  7  0  -1515.8  2046001.9  0.1  2 0 1216 2007  978
[04]  21(G22)  7 33  7  0   1037.2  2045998.6  0.3  5 0  886 1995 1169
[05]  22(G23)  7 32  7  0  -4048.7  2046005.2  0.3  5 0 1004 1619  499
[16]  38(B02)  1 10 25  1   -862.9  4092003.0 -0.2  1 0  130  358  612
[17]  41(B05)  1 20 20  0  -1079.1  4092003.6  0.5  1 0  357 1418  551
kf residual = 0.000000
$GNGGA,025013.983,,,,,0,00,,,M,,,,0000*2C
$GNRMC,025013.983,A,,,,,,,080180,,*20
$GPGSA,A,1,,,,,,,,,,,,,,,*1E
$BDGSA,A,1,,,,,,,,,,,,,,,*0F
$GLGSA,A,1,,,,,,,,,,,,,,,*02
$GPGSV,2,1,06,03,00,000,45,08,00,000,36,09,00,000,43,16,00,000,43*7D
$GPGSV,2,2,06,22,00,000,32,23,00,000,32*7E
$B3CN0,0,0,0,0,0,0,0,0,0,0,0,0,0,0*4C
---00000005--- Acq_st=3 0  2019-4-16 2:50:13 
[00]  02(G03)  f 45  7  0    506.8  2045999.3  0.0  2 0 2618 3138 1294
[01]  07(G08)  f 38  7  0  -4797.1  2046006.2 -0.6  2 0  200  748  229
[02]  08(G09)  f 42  7  0  -4621.0  2046005.9  0.0  2 0 1721 2419  870
[03]  15(G16)  f 43  7  0  -1516.0  2046001.9 -0.0  2 0 1485 2213  676
[04]  21(G22)  7 43  7  0   1038.3  2045998.6 -0.0  2 0 1110 1767 1037
[05]  22(G23)  7 43  8  0  -4049.3  2046005.2 -0.0  2 0  980 1615  672
[16]  38(B02)  7 24 30  1  -1008.4  4092002.3  0.1  2 0  569  398  617
[17]  41(B05)  7 37 10  0  -1077.5  4092002.6 -0.1  2 0 1378  966  445
[18]  46(B10)  1  7  9  0  -1017.3  4092002.3  0.2  1 0 1207 1852  885
kf residual = 0.000000
$GNGGA,025014.983,,,,,0,00,,,M,,,,0000*2B
$GNRMC,025014.983,A,,,,,,,080180,,*27
$GPGSA,A,1,,,,,,,,,,,,,,,*1E
$BDGSA,A,1,,,,,,,,,,,,,,,*0F
$GLGSA,A,1,,,,,,,,,,,,,,,*02
$GPGSV,2,1,06,03,00,000,45,08,00,000,38,09,00,000,42,16,00,000,43*72
$GPGSV,2,2,06,22,00,000,43,23,00,000,43*7E
$BDGSV,1,1,02,02,00,000,23,05,00,000,38*67
$B3CN0,0,0,0,0,0,0,0,0,0,0,0,0,0,0*4C
---00000006--- Acq_st=3 0  2019-4-16 2:50:14 
[00]  02(G03)  f 44  7  0    501.8  2045999.3  0.0  2 0 2235 2910 1451
[01]  07(G08)  f 38  7  0  -4797.5  2046006.2  0.3  2 0  293  996  409
[02]  08(G09)  f 42 11  0  -4624.3  2046005.9 -0.1  2 0 1558 1801  441
[03]  15(G16)  f 43  7  0  -1519.5  2046001.9  0.1  2 0 1426 2152  983
[04]  21(G22)  7 43  7  0   1034.4  2045998.6  0.0  2 0 1105 1584  826
[05]  22(G23)  7 43  7  0  -4053.5  2046005.2  0.0  2 0 1064 1769  795
[16]  38(B02)  7 21 28  1  -1034.9  4092002.6  0.0  2 0  363  234  327
[17]  41(B05) 1f 38 24  0  -1078.2  4092002.6  0.4  2 0 1268  859  272
[18]  46(B10)  7 26  7  0  -1014.3  4092002.6  0.3 10 0 1098 1595  687
[19]  54(B18)  1  7  7  0   -948.6  4092003.3 -0.0  1 0 1137 2719 1332
[20]  55(B19)  1  7  7  0   -341.5  4092001.1  0.1  1 0 2089 3149 1638
[21]  58(B22)  1  7  7  0  -2750.0  4092007.6 -0.0  1 0  314  392  636
kf residual = 0.000000
$GNGGA,025015.983,,,,,0,00,,,M,,,,0000*2A
$GNRMC,025015.983,A,,,,,,,080180,,*26
$GPGSA,A,1,,,,,,,,,,,,,,,*1E
$BDGSA,A,1,,,,,,,,,,,,,,,*0F
$GLGSA,A,1,,,,,,,,,,,,,,,*02
$GPGSV,2,1,06,03,00,000,44,08,00,000,38,09,00,000,42,16,00,000,43*73
$GPGSV,2,2,06,22,00,000,43,23,00,000,43*7E
$BDGSV,1,1,03,02,00,000,22,05,00,000,38,10,00,000,26*52
$B3CN0,0,0,0,0,0,0,0,0,0,0,0,0,0,0*4C
---00000007--- Acq_st=3 0  2019-4-16 2:50:15 
[00]  02(G03)  f 43 10  0    507.4  2045999.4  0.0  2 0 1098 2830 1613
[01]  07(G08)  f 38  7  0  -4804.0  2046006.2  0.1  2 0  452  806  369
[02]  08(G09)  f 42  7  0  -4624.1  2046005.9  0.0  2 0 1492 2269  866
[03]  15(G16)  f 43  7  0  -1519.9  2046001.9 -0.1  2 0 1578 2330 1180
[04]  21(G22)  7 44  7  0   1035.7  2045998.6 -0.0  2 0 1816 2488  693
[05]  22(G23)  7 43  7  0  -4051.2  2046005.2 -0.0  2 0  985 1660  711
[16]  38(B02)  7 27 25  1  -1030.5  4092002.7  0.1  2 0  298   74  360
[17]  41(B05) 1f 40 28  0  -1081.1  4092002.7  0.2  2 0 1373 1563  475
[18]  46(B10)  7 42  7  0  -1016.2  4092002.6 -0.1  2 0  885 1248  615
[19]  54(B18)  7 20  7  0   -947.8  4092002.4  0.4 10 0 1868 2591 1211
[20]  55(B19)  7 10  7  0   -337.5  4092000.8  0.5 10 0 1263 2795 1418
[21]  58(B22)  1  7  7  0  -1931.8  4092007.9 -0.0  1 0  281  303  666
[49]  41(B05)  1 23 24  1   -792.6 20460021.5  0.0  1 0  692  925  567
kf residual = 0.000000
$GNGGA,025016.983,,,,,0,00,,,M,,,,0000*29
$GNRMC,025016.983,A,,,,,,,080180,,*25
$GPGSA,A,1,,,,,,,,,,,,,,,*1E
$BDGSA,A,1,,,,,,,,,,,,,,,*0F
$GLGSA,A,1,,,,,,,,,,,,,,,*02
$GPGSV,2,1,06,03,00,000,43,08,00,000,38,09,00,000,42,16,00,000,43*74
$GPGSV,2,2,06,22,00,000,44,23,00,000,43*79
$BDGSV,1,1,04,02,00,000,27,05,00,000,40,10,00,000,42,18,00,000,19*6C
$B3CN0,0,0,0,0,0,0,0,0,0,0,0,0,0,0*4C
---00000008--- Acq_st=3 0  2019-4-16 2:50:16 
[00]  02(G03)  f 42  7  0    503.5  2045999.6 -0.0  2 0  396 1838 1312
[01]  07(G08)  f 38  7  0  -4798.9  2046006.2 -0.2  2 0  555  667  585
[02]  08(G09)  f 43  7  0  -4618.1  2046005.9  0.0  2 0 1842 1795  578
[03]  15(G16)  f 43  7  0  -1516.7  2046001.9  0.1  2 0 1670 2136  858
[04]  21(G22)  7 43  8  0   1038.6  2045998.6  0.0  2 0 1263 2460 1086
[05]  22(G23)  7 42  7  0  -4050.5  2046005.2  0.1  2 0  887 1598  807
[16]  38(B02)  7 10 25  0   -820.2  4092002.1 -0.1  2 0  305   61  422
[17]  41(B05) 1f 41 20  0  -1078.2  4092002.6 -0.4  2 0 1885 1907  590
[18]  46(B10)  7 42  8  0  -1007.8  4092002.6 -0.0  2 0 1123 1518  697
[19]  54(B18)  7 44  7  0   -944.2  4092002.4  0.1  2 0  931 2094 1291
[20]  55(B19)  7 45  7  0   -334.3  4092000.8 -0.0  2 0 1850 2655 1502
[21]  58(B22)  1  7  7  0  -1988.5  4092007.9  0.0  1 0  428  258  318
[49]  41(B05)  1 21 23  0  -1014.6 20460018.4 -0.1  1 0  243  623  796
kf residual = 0.000000
$GNGGA,025017.983,,,,,0,00,,,M,,,,0000*28
$GNRMC,025017.983,A,,,,,,,080180,,*24
$GPGSA,A,1,,,,,,,,,,,,,,,*1E
$BDGSA,A,1,,,,,,,,,,,,,,,*0F
$GLGSA,A,1,,,,,,,,,,,,,,,*02
$GPGSV,2,1,06,03,00,000,42,08,00,000,38,09,00,000,43,16,00,000,43*74
$GPGSV,2,2,06,22,00,000,44,23,00,000,42*78
$BDGSV,1,1,04,05,00,000,41,10,00,000,42,18,00,000,44,19,00,000,45*6B
$B3CN0,0,0,0,0,0,0,0,0,0,0,0,0,0,0*4C
---00000009--- Acq_st=7 0  2019-4-16 2:50:17 
[00]  02(G03)  f 41 11  0    504.9  2045999.3 -0.0  2 0  559 1697  547
[01]  07(G08)  f 38  7  0  -4797.3  2046006.2  0.0  2 0  924 1516  833
[02]  08(G09)  f 42  7  0  -4620.7  2046005.9  0.0  2 0 1370 1769  659
[03]  15(G16)  f 43  7  0  -1516.9  2046001.9 -0.1  2 0 1564 2421  936
[04]  21(G22)  7 43  7  0   1035.9  2045998.5 -0.0  2 0 1502 2829 1133
[05]  22(G23)  7 42  7  0  -4051.9  2046005.2  0.0  2 0 1467 2213  867
[16]  38(B02)  7 16 10  0  -1291.0  4092003.3  0.1  2 0  544  294  338
[17]  41(B05) 1f 40 24  0  -1077.0  4092002.7 -0.9  2 0 1118 1146  839
[18]  46(B10)  7 41  7  0  -1015.2  4092002.6 -0.1  2 0  795 1416  707
[19]  54(B18)  7 43  7  0   -945.0  4092002.4  0.0  2 0 1262 2209  838
[20]  55(B19)  7 44  7  0   -335.2  4092000.8  0.0  2 0 2007 2754 1356
[21]  58(B22)  1  7  7  0  -2038.3  4092008.6 -0.0  1 0   28  431  292
[32]  80(N-1)  1 27 18  0    497.4  1021999.6  0.6  1 0   205  295  412
[33]  82(N01)  1 23 19  0  -2107.2  1022001.5  0.2  1 0   408  736  735
[34]  85(N04)  1 20 28  1  -4000.0  1022002.6 -0.0  1 0   368  450  824
[49]  41(B05)  1 23 24  0   -768.4 20460022.7 -0.1  1 0  283  224  589
kf residual = 0.000000
$GNGGA,025018.983,,,,,0,00,,,M,,,,0000*27
$GNRMC,025018.983,A,,,,,,,160419,,*21
$GPGSA,A,1,,,,,,,,,,,,,,,*1E
$BDGSA,A,1,,,,,,,,,,,,,,,*0F
$GLGSA,A,1,,,,,,,,,,,,,,,*02
$GPGSV,2,1,06,03,00,000,41,08,00,000,38,09,00,000,42,16,00,000,43*76
$GPGSV,2,2,06,22,00,000,43,23,00,000,42*7F
$BDGSV,1,1,04,05,00,000,40,10,00,000,41,18,00,000,43,19,00,000,44*6F
$B3CN0,0,0,0,0,0,0,0,0,0,0,0,0,0,0*4C
---00000010--- Acq_st=7 0  2019-4-16 2:50:18 
[00]  02(G03)  f 42  7  0    504.3  2045999.2  0.0  2 0 1280 1600  561
[01]  07(G08)  f 38 10  0  -4802.8  2046006.2  0.2  2 0  592 1110  911
[02]  08(G09)  f 42  7  0  -4618.1  2046005.9 -0.0  2 0 1601 2039  974
[03]  15(G16)  f 42  7  0  -1516.2  2046001.9  0.0  2 0 1012 1977 1417
[04]  21(G22)  7 44  9  0   1033.6  2045998.6 -0.0  2 0 1807 2389  975
[05]  22(G23)  7 42  7  0  -4052.9  2046005.2  0.0  2 0 1218 2223  859
[16]  38(B02)  7 10 10  1  -1320.7  4092003.2 -0.0  2 0  276   60 1070
[17]  41(B05) 1f 40 28  0  -1074.8  4092002.7 -0.3  2 0 1030 1502  777
[18]  46(B10)  7 41  7  0  -1016.0  4092002.5  0.0  2 0 1081 1553  640
[19]  54(B18)  7 43  7  0   -944.5  4092002.4  0.0  2 0 2030 2615 1446
[20]  55(B19)  7 44  8  0   -334.1  4092000.8 -0.0  2 0 2472 3210 1619
[21]  58(B22)  1  7  7  0  -1423.1  4092008.8  0.1  1 0   23  561  187
[32]  80(N-1)  7 28 22  0    496.7  1021999.6  0.2 10 0   255  379   75
[33]  82(N01)  7 22  7  0  -2107.0  1022001.3  0.6 10 0   289  985  356
[34]  85(N04)  1 32 18  0  -4064.9  1022003.8  1.0  1 0   824 1198  588
[49]  41(B05)  1 21 21  1   -302.5 20460021.6  0.2  1 0  591  597  656
kf residual = 0.000000
$GNGGA,025019.983,,,,,0,00,,,M,,,,0000*26
$GNRMC,025019.983,A,,,,,,,160419,,*20
$GPGSA,A,1,,,,,,,,,,,,,,,*1E
$BDGSA,A,1,,,,,,,,,,,,,,,*0F
$GLGSA,A,1,,,,,,,,,,,,,,,*02
$GPGSV,2,1,06,03,00,000,42,08,00,000,38,09,00,000,42,16,00,000,42*74
$GPGSV,2,2,06,22,00,000,44,23,00,000,42*78
$BDGSV,1,1,04,05,00,000,40,10,00,000,41,18,00,000,43,19,00,000,44*6F
$B3CN0,0,0,0,0,0,0,0,0,0,0,0,0,0,0*4C
---00000011--- Acq_st=3 0  2019-4-16 2:50:19 
[00]  02(G03)  f 43  7  0    510.4  2045999.2 -0.0  2 0 2101 2105 1020
[01]  07(G08)  f 38  7  0  -4791.9  2046006.2  0.0  2 0  432  946  340
[02]  08(G09)  f 41  7  0  -4621.8  2046005.9  0.0  2 0 1399 1992 1090
[03]  15(G16)  f 43  7  0  -1514.0  2046001.9  0.1  2 0 1522 1955  637
[04]  21(G22)  f 43  7  0   1038.6  2045998.6  0.0  2 0 1879 2311  914
[05]  22(G23)  f 42  7  0  -4046.5  2046005.2 -0.1  2 0 1362 1959  583
[16]  38(B02)  7 10 10  1  -1588.2  4092004.2 -0.0  2 0  281  550  938
[17]  41(B05) 1f 40 10  0  -1074.7  4092002.7  0.4  2 0 1274 1099  510
[18]  46(B10)  7 41  7  0  -1009.0  4092002.6  0.1  2 0 1171 1726  617
[19]  54(B18)  7 43  7  0   -947.5  4092002.4 -0.0  2 0 1782 2535 1183
[20]  55(B19)  7 44  9  0   -327.3  4092000.8 -0.0  2 0 2138 3037 1544
[32]  80(N-1)  7 36 18  0    496.4  1021999.6 -0.1  2 0   325  447  365
[33]  82(N01)  7 38 19  0  -2104.7  1022001.3  0.8  2 0   331  519  494
[34]  85(N04)  1 33 16  0  -4061.8  1022002.3  1.0  1 0   603  848  341
kf residual = 0.000000
$GNGGA,025020.983,,,,,0,00,,,M,,,,0000*2C
$GNRMC,025020.983,A,,,,,,,160419,,*2A
$GPGSA,A,1,,,,,,,,,,,,,,,*1E
$BDGSA,A,1,,,,,,,,,,,,,,,*0F
$GLGSA,A,1,,,,,,,,,,,,,,,*02
$GPGSV,2,1,06,03,00,000,43,08,00,000,38,09,00,000,41,16,00,000,43*77
$GPGSV,2,2,06,22,00,000,43,23,00,000,42*7F
$BDGSV,1,1,04,05,00,000,40,10,00,000,41,18,00,000,43,19,00,000,44*6F
$B3CN0,0,0,0,0,0,0,0,0,0,0,0,0,0,0*4C
---00000012--- Acq_st=3 0  2019-4-16 2:50:20 
[00]  02(G03)  f 44  7  0    503.5  2045999.2 -0.0  2 0 2671 2821  989
[01]  07(G08)  f 37  7  0  -4801.9  2046006.2 -0.0  2 0  868 1391  809
[02]  08(G09)  f 42  7  0  -4621.8  2046005.9  0.0  2 0 1597 2020 1139
[03]  15(G16)  f 43  7  0  -1518.3  2046001.9 -0.1  2 0 1308 2399 1428
[04]  21(G22)  f 44  7  0   1035.1  2045998.6  0.0  2 0 1572 2629 1234
[05]  22(G23)  f 42  7  0  -4045.8  2046005.2 -0.0  2 0 1206 1954  571
[16]  38(B02)  7 10 18  1  -1726.8  4092004.5  0.2  2 0  659  190  157
[17]  41(B05) 1f 41 28  0  -1079.1  4092002.7 -0.1  2 0  970 1215  602
[18]  46(B10)  7 41  8  0  -1013.2  4092002.5 -0.0  2 0 1176 1673  616
[19]  54(B18)  7 43  7  0   -947.8  4092002.4  0.0  2 0 1204 1981  852
[20]  55(B19)  7 44 10  0   -333.4  4092000.8  0.0  2 0 1882 3061 1502
[32]  80(N-1)  7 36 19  0    493.5  1021999.6  0.1  2 0   331  628  289
[33]  82(N01)  7 38 22  0  -2105.7  1022001.3  0.3  2 0   326 1067  878
[34]  85(N04)  7 41 20  0  -4066.0  1022002.5  0.2  2 0   864 1367  790
[49]  41(B05)  1 18 24  1   -780.1 20460016.1  0.1  1 0   86  187  511
kf residual = 0.000000
$GNGGA,025021.983,,,,,0,00,,,M,,,,0000*2D
$GNRMC,025021.983,A,,,,,,,160419,,*2B
$GPGSA,A,1,,,,,,,,,,,,,,,*1E
$BDGSA,A,1,,,,,,,,,,,,,,,*0F
$GLGSA,A,1,,,,,,,,,,,,,,,*02
$GPGSV,2,1,06,03,00,000,44,08,00,000,37,09,00,000,42,16,00,000,43*7C
$GPGSV,2,2,06,22,00,000,44,23,00,000,42*78
$BDGSV,1,1,04,05,00,000,41,10,00,000,41,18,00,000,43,19,00,000,44*6E
$B3CN0,0,0,0,0,0,0,0,0,0,0,0,0,0,0*4C
---00000013--- Acq_st=3 0  2019-4-16 2:50:21 
[00]  02(G03)  f 44  7  0    508.7  2045999.2 -0.0  2 0 3403 3729 1792
[01]  07(G08)  f 37  8  0  -4804.9  2046006.2 -0.4  2 0  346  833  582
[02]  08(G09)  f 41  7  0  -4617.5  2046005.9 -0.1  2 0 1300 2320 1199
[03]  15(G16)  f 44  7  0  -1509.7  2046001.9  0.1  2 0 2064 2602  911
[04]  21(G22)  f 44  7  0   1037.3  2045998.6 -0.0  2 0 1301 2523 1024
[05]  22(G23)  f 43  7  0  -4051.8  2046005.2  0.0  2 0 1140 1564  557
[17]  41(B05) 1f 41 22  0  -1075.8  4092002.6 -0.1  2 0 1355 1408  504
[18]  46(B10) 1f 41  7  0  -1009.2  4092002.5 -0.1  2 0 1252 1802  895
[19]  54(B18) 1f 43  7  0   -945.6  4092002.4  0.0  2 0 1748 2194  968
[20]  55(B19) 1f 43  8  0   -332.2  4092000.8  0.0  2 0 1993 2952 1156
[32]  80(N-1)  7 37 23  0    496.6  1021999.6  0.0  2 0   211  650  158
[33]  82(N01)  7 39 21  0  -2105.5  1022001.3  0.2  2 0   694 1064  621
[34]  85(N04)  7 43 17  0  -4062.8  1022002.5  0.2  2 0   900 1261  688
[49]  41(B05)  1 23 24  0  -1265.3 20460020.3  0.1  1 0  154  623  277
---00000014--- Acq_st=3 0  2019-4-16 2:50:22 
[00]  02(G03)  f 45  8  0    509.2  2045999.2  0.0  2 0 3404 3758 1363
[01]  07(G08)  f 36  7  0  -4800.4  2046006.1 -0.1  2 0  642 1210  588
[02]  08(G09)  f 42  7  0  -4616.9  2046005.9  0.0  2 0 1190 1977 1061
[03]  15(G16)  f 44  7  0  -1513.8  2046001.9 -0.1  2 0 1639 2609 1182
[04]  21(G22)  f 44  8  0   1037.2  2045998.6 -0.0  2 0 1493 2547  811
[05]  22(G23)  f 43  7  0  -4050.7  2046005.2 -0.1  2 0 1532 2219  818
[17]  41(B05) 1f 41 25  0  -1076.8  4092002.7  0.0  2 0 1131 1429  488
[18]  46(B10) 1f 41  7  0  -1014.3  4092002.6  0.0  2 0 1432 1436  426
[19]  54(B18) 1f 43  7  0   -944.1  4092002.3 -0.0  2 0 1680 1924  927
[20]  55(B19) 1f 44 12  0   -331.4  4092000.8  0.0  2 0 1720 2408 1329
[32]  80(N-1)  f 34  7  0    501.7  1021999.6  0.0  5 0   317  641  543
[33]  82(N01)  f 35 18  0  -2101.5  1022001.3  0.1  2 0   854 1089  296
[34]  85(N04)  7 43 21  0  -4059.6  1022002.5 -0.1  2 0  1006 1272  674
[49]  41(B05)  1 23 26  1   -881.3 20460019.2 -0.0  1 0  692  242  661
[50]  46(B10)  1  7  7  0   -815.4 20460014.2  0.0  1 0  214  677  869
[51]  54(B18)  1  7  7  0   -529.5 20460014.3 -0.0  1 0  771  818  149
[52]  55(B19)  1  7  7  0   -319.9 20460004.8  0.1  1 0  196  352  399
kf residual = 0.000000
$GNGGA,025022.983,,,,,0,00,,,M,,,,0000*2E
$GNRMC,025022.983,A,,,,,,,160419,,*28
$GPGSA,A,1,,,,,,,,,,,,,,,*1E
$BDGSA,A,1,,,,,,,,,,,,,,,*0F
$GLGSA,A,1,,,,,,,,,,,,,,,*02
$GPGSV,2,1,06,03,00,000,45,08,00,000,36,09,00,000,42,16,00,000,44*7B
$GPGSV,2,2,06,22,00,000,44,23,00,000,43*79
$BDGSV,1,1,04,05,00,000,40,10,00,000,41,18,00,000,43,19,00,000,44*6F
$B3CN0,0,0,0,0,0,0,0,0,0,0,0,0,0,0*4C
---00000015--- Acq_st=3 0  2019-4-16 2:50:23 
[00]  02(G03)  f 46  7  0    510.8  2045999.2  0.0  2 0 4023 4837 1605
[01]  07(G08)  f 37  7  0  -4802.4  2046006.2 -0.0  2 0  650  943  477
[02]  08(G09)  f 43  7  0  -4617.0  2046005.9 -0.0  2 0 1820 2107  968
[03]  15(G16)  f 43  7  0  -1513.3  2046001.9  0.0  2 0 1591 2231  928
[04]  21(G22)  f 44  7  0   1038.3  2045998.6  0.1  2 0 1035 2291  979
[05]  22(G23)  f 42 10  0  -4049.5  2046005.2 -0.0  2 0 1593 2300 1129
[17]  41(B05) 1f 41 26  0  -1076.6  4092002.6 -0.0  2 0 1519 1307  485
[18]  46(B10) 1f 41  7  0  -1011.3  4092002.5  0.0  2 0  511 1249  822
[19]  54(B18) 1f 43  7  0   -942.5  4092002.4 -0.0  2 0 1801 2206  833
[20]  55(B19) 1f 44  7  0   -330.5  4092000.7 -0.1  2 0 2160 3138 1460
[32]  80(N-1)  f 37  7  0    502.7  1021999.6  0.1  2 0   412  710  605
[33]  82(N01)  f 40 18  0  -2101.2  1022001.3 -0.1  2 0   993 1267  661
[34]  85(N04)  7 43 19  0  -4059.4  1022002.5 -0.0  2 0   826 1346  488
[49]  41(B05)  1 22 20  1  -1197.5 20460019.8 -0.0  1 0  573  702  630
[50]  46(B10)  1  7  7  0   -669.7 20460016.9  0.1  1 0  539  290  874
[51]  54(B18)  1  7  7  0    -89.7 20460014.4 -0.1  1 0  801  588  612
[52]  55(B19)  1  9  7  0    104.8 20460004.9 -0.1  1 0  374  555  415
kf residual = 0.000000
$GNGGA,025023.983,,,,,0,00,,,M,,,,0000*2F
$GNRMC,025023.983,A,,,,,,,160419,,*29
$GPGSA,A,1,,,,,,,,,,,,,,,*1E
$BDGSA,A,1,,,,,,,,,,,,,,,*0F
$GLGSA,A,1,,,,,,,,,,,,,,,*02
$GPGSV,2,1,06,03,00,000,46,08,00,000,37,09,00,000,43,16,00,000,43*7F
$GPGSV,2,2,06,22,00,000,44,23,00,000,42*78
$BDGSV,1,1,04,05,00,000,41,10,00,000,41,18,00,000,43,19,00,000,44*6E
$B3CN0,0,0,0,0,0,0,0,0,0,0,0,0,0,0*4C
---00000016--- Acq_st=3 0  2019-4-16 2:50:24 
[00]  02(G03)  f 46  7  0    510.4  2045999.2  0.0  2 0 3880 5268 2382
[01]  07(G08)  f 36  7  0  -4800.9  2046006.2  0.3  2 0  995  578  352
[02]  08(G09)  f 42  7  0  -4620.3  2046005.9 -0.0  2 0 1235 2188  857
[03]  15(G16)  f 43  8  0  -1511.7  2046001.9  0.1  2 0 1762 2587 1649
[04]  21(G22)  f 43  7  0   1036.5  2045998.6 -0.0  2 0 1419 2314 1076
[05]  22(G23)  f 42  7  0  -4047.6  2046005.2 -0.0  2 0 1829 2325  827
[17]  41(B05) 1f 41 23  0  -1080.0  4092002.7 -0.2  2 0 1273 1334  440
[18]  46(B10) 1f 41  7  0  -1009.3  4092002.5 -0.0  2 0 1219 1806  604
[19]  54(B18) 1f 44  7  0   -944.5  4092002.4 -0.0  2 0 1533 2064  874
[20]  55(B19) 1f 44 12  0   -329.9  4092000.8  0.0  2 0 2354 3123 1470
[32]  80(N-1)  f 38  7  0    503.6  1021999.6  0.2  2 0   343  860  505
[33]  82(N01)  f 40 17  0  -2101.1  1022001.3 -0.0  2 0   398 1029  773
[34]  85(N04)  f 36 17  0  -4057.5  1022002.5  0.1  2 0   765 1478  769
[50]  46(B10)  1  7  7  0   -544.1 20460018.0  0.0  1 0  646  995  256
[51]  54(B18)  1  7  7  0     48.7 20460014.7 -0.1  1 0  396  489  676
[52]  55(B19)  1  7 10  0    986.8 20460005.1  0.1  1 0  358  596  725
kf residual = 0.000000
$GNGGA,025024.983,,,,,0,00,,,M,,,,0000*28
$GNRMC,025024.983,A,,,,,,,160419,,*2E
$GPGSA,A,1,,,,,,,,,,,,,,,*1E
$BDGSA,A,1,,,,,,,,,,,,,,,*0F
$GLGSA,A,1,,,,,,,,,,,,,,,*02
$GPGSV,2,1,06,03,00,000,46,08,00,000,36,09,00,000,42,16,00,000,43*7F
$GPGSV,2,2,06,22,00,000,43,23,00,000,42*7F
$BDGSV,1,1,04,05,00,000,41,10,00,000,41,18,00,000,44,19,00,000,44*69
$B3CN0,0,0,0,0,0,0,0,0,0,0,0,0,0,0*4C
---00000017--- Acq_st=2 0  2019-4-16 2:50:25 
[00]  02(G03)  f 46  7  0    507.4  2045999.2 -0.0  2 0 4036 5809 2736
[01]  07(G08)  f 35 11  0  -4806.2  2046006.2 -0.4  2 0  934 1336 1025
[02]  08(G09)  f 43  8  0  -4621.9  2046005.9 -0.0  2 0 1395 2382 1192
[03]  15(G16)  f 43  7  0  -1511.9  2046001.9 -0.0  2 0 2021 2800 1137
[04]  21(G22)  f 43  7  0   1038.3  2045998.6  0.1  2 0 1042 2120  806
[05]  22(G23)  f 42  7  0  -4051.4  2046005.2 -0.0  2 0 1520 2174  761
[17]  41(B05) 1f 42 26  0  -1074.9  4092002.8 -0.3  2 0 1156 1606  622
[18]  46(B10) 1f 41 11  0  -1012.8  4092002.5  0.0  2 0  823 1392  593
[19]  54(B18) 1f 43  7  0   -946.6  4092002.4 -0.0  2 0 1281 1783  853
[20]  55(B19) 1f 44  7  0   -331.2  4092000.8 -0.0  2 0 2343 2767 1409
[32]  80(N-1)  f 38  7  0    500.9  1021999.7  0.0  2 0   655  641  257
[33]  82(N01)  f 41 17  0  -2103.9  1022001.3  0.0  2 0   890 1314  756
[34]  85(N04)  f 42  9  0  -4058.2  1022002.6 -0.2  2 0  1060 1289  463
[35]  75(N-6)  1  7  7  0   2750.0  1021999.6  0.0  1 0   425  521  377
[49]  41(B05)  1 22 25  1   -809.1 20460013.8 -0.1  1 0  508  508  455
[50]  46(B10)  1  7  7  0  -1111.2 20460017.2 -0.1  1 0  604  225  551
[51]  54(B18)  1  7  7  0    321.7 20460016.3 -0.1  1 0  457  317  453
[52]  55(B19)  1  7  7  0   1411.1 20460005.8  0.1  1 0  346   99   40
kf residual = 0.000000
$GNGGA,025025.983,,,,,0,00,,,M,,,,0000*29
$GNRMC,025025.983,A,,,,,,,160419,,*2F
$GPGSA,A,1,,,,,,,,,,,,,,,*1E
$BDGSA,A,1,,,,,,,,,,,,,,,*0F
$GLGSA,A,1,,,,,,,,,,,,,,,*02
$GPGSV,2,1,06,03,00,000,46,08,00,000,35,09,00,000,43,16,00,000,43*7D
$GPGSV,2,2,06,22,00,000,43,23,00,000,42*7F
$BDGSV,1,1,04,05,00,000,42,10,00,000,41,18,00,000,43,19,00,000,44*6D
$B3CN0,0,0,0,0,0,0,0,0,0,0,0,0,0,0*4C
---00000018--- Acq_st=7 0  2019-4-16 2:50:26 
[00]  02(G03)  f 46  7  0    506.3  2045999.3  0.0  2 0 3881 6084 2866
[01]  07(G08)  f 37  7  0  -4803.6  2046006.1  0.0  2 0  625 1042  575
[02]  08(G09)  f 43  7  0  -4621.4  2046005.9  0.1  2 0 1688 2440 1032
[03]  15(G16)  f 43 10  0  -1514.0  2046001.9  0.0  2 0 1010 1982 1070
[04]  21(G22)  f 42  7  0   1035.6  2045998.7 -0.0  2 0  845 2080 1103
[05]  22(G23)  f 42  7  0  -4049.1  2046005.2  0.0  2 0 1690 2573 1527
[17]  41(B05) 1f 41 24  0  -1077.1  4092002.7 -0.4  2 0  907 1248  537
[18]  46(B10) 1f 41  7  0  -1011.6  4092002.5 -0.1  2 0  757 1183  655
[19]  54(B18) 1f 43  7  0   -946.8  4092002.4  0.0  2 0 1777 2220 1084
[20]  55(B19) 1f 44  7  0   -331.0  4092000.8  0.0  2 0 2103 2547  804
[32]  80(N-1)  f 39  7  0    502.1  1021999.6 -0.1  2 0   450  886  926
[33]  82(N01)  f 41 19  0  -2106.3  1022001.3 -0.0  2 0   957 1342  377
[34]  85(N04)  f 41 17  0  -4061.6  1022002.6 -0.1  2 0   463 1037  663
[35]  75(N-6)  1 24 25  0   3042.4  1021998.6  0.2  1 0   344  495  119
[49]  41(B05)  1 23 25  0  -1508.2 20460014.6 -0.2  1 0 1326 1099  442
kf residual = 0.000000
$GNGGA,025026.983,,,,,0,00,,,M,,,,0000*2A
$GNRMC,025026.983,A,,,,,,,160419,,*2C
$GPGSA,A,1,,,,,,,,,,,,,,,*1E
$BDGSA,A,1,,,,,,,,,,,,,,,*0F
$GLGSA,A,1,,,,,,,,,,,,,,,*02
$GPGSV,2,1,06,03,00,000,46,08,00,000,37,09,00,000,43,16,00,000,43*7F
$GPGSV,2,2,06,22,00,000,42,23,00,000,42*7E
$BDGSV,1,1,04,05,00,000,41,10,00,000,41,18,00,000,43,19,00,000,44*6E
$B3CN0,0,0,0,0,0,0,0,0,0,0,0,0,0,0*4C
---00000019--- Acq_st=7 0  2019-4-16 2:50:27 
[00]  02(G03)  f 46 12  0    506.3  2045999.3 -0.0  2 0 4157 6147 2642
[01]  07(G08)  f 36  8  0  -4801.2  2046006.1 -0.1  2 0  498  797  726
[02]  08(G09)  f 42  7  0  -4625.6  2046005.9 -0.0  2 0 1976 2872 1654
[03]  15(G16)  f 43  7  0  -1518.3  2046001.9  0.0  2 0 1626 2177  877
[04]  21(G22)  f 41  9  0   1030.6  2045998.6 -0.1  2 0 1559 2422 1427
[05]  22(G23)  f 43  7  0  -4053.7  2046005.2  0.0  2 0 2154 3047 1555
[17]  41(B05) 1f 41 10  0  -1075.5  4092002.6 -0.6  2 0 1422 1858 1062
[18]  46(B10) 1f 41  7  0  -1016.8  4092002.5  0.1  2 0 1017 1755  684
[19]  54(B18) 1f 43  7  0   -950.3  4092002.4  0.0  2 0 1941 2298  941
[20]  55(B19) 1f 44  7  0   -333.1  4092000.8 -0.0  2 0 2191 2792  906
[32]  80(N-1)  f 39  7  0    499.5  1021999.6 -0.6  2 0   576 1105  422
[33]  82(N01)  f 41 17  0  -2107.0  1022001.3  0.1  2 0   872 1260  548
[34]  85(N04)  f 40  7  0  -4063.0  1022002.5 -0.4  2 0   311  805  657
[35]  75(N-6)  1 25 27  0   2997.7  1021997.8  0.4  1 0   493  664  296
[49]  41(B05)  1 22 24  1  -1497.2 20460020.7  0.1  1 0  995  855  262
[50]  46(B10)  1  7  7  0   -870.6 20460013.8  0.1  1 0  351  161  462
[51]  54(B18)  1  7  7  0   -561.2 20460014.2 -0.1  1 0  837  394   41
[52]  55(B19)  1 13  7  0   -627.8 20460007.8  0.2  1 0  428  497  176
kf residual = 0.000000
$GNGGA,025027.983,,,,,0,00,,,M,,,,0000*2B
$GNRMC,025027.983,A,,,,,,,160419,,*2D
$GPGSA,A,1,,,,,,,,,,,,,,,*1E
$BDGSA,A,1,,,,,,,,,,,,,,,*0F
$GLGSA,A,1,,,,,,,,,,,,,,,*02
$GPGSV,2,1,06,03,00,000,46,08,00,000,36,09,00,000,42,16,00,000,43*7F
$GPGSV,2,2,06,22,00,000,41,23,00,000,43*7C
$BDGSV,1,1,04,05,00,000,41,10,00,000,41,18,00,000,43,19,00,000,44*6E
$B3CN0,0,0,0,0,0,0,0,0,0,0,0,0,0,0*4C
---00000020--- Acq_st=3 0  2019-4-16 2:50:28 
[00]  02(G03)  f 46  7  0    505.2  2045999.3 -0.0  2 0 4297 6252 3042
[01]  07(G08)  f 37  7  0  -4800.0  2046006.2  0.0  2 0  595 1083  597
[02]  08(G09)  f 43  7  0  -4628.1  2046005.9 -0.0  2 0 1362 1809  511
[03]  15(G16)  f 43  7  0  -1518.4  2046001.9  0.0  2 0 1637 2303  994
[04]  21(G22)  f 41  7  0   1030.7  2045998.6  0.1  2 0 1319 2189 1160
[05]  22(G23)  f 43  7  0  -4053.8  2046005.2 -0.1  2 0 1396 2669 1487
[17]  41(B05) 1f 42 30  0  -1084.5  4092002.7  0.4  2 0 1170 1151  408
[18]  46(B10) 1f 41  7  0  -1018.2  4092002.5 -0.0  2 0  724 1274  433
[19]  54(B18) 1f 43  7  0   -951.1  4092002.4 -0.0  2 0 1382 2011 1100
[20]  55(B19) 1f 44  7  0   -334.3  4092000.7  0.0  2 0 2162 3037 1210
[32]  80(N-1)  f 39  7  0    501.4  1021999.7 -0.6  2 0   365  619  402
[33]  82(N01)  f 41 21  0  -2108.6  1022001.4 -0.0  2 0   868 1497  943
[34]  85(N04)  f 39 12  0  -4065.6  1022002.6 -0.0  2 0   657 1266  583
[35]  75(N-6)  7 38 27  0   2982.8  1021997.9 -0.1  2 0   765  789  361
[49]  41(B05)  1 24 20  1  -1452.8 20460020.9 -0.0  1 0  399  235  410
[50]  46(B10)  1  7 11  0  -1176.9 20460016.9  0.0  1 0  732  435  206
[51]  54(B18)  1  7  7  0   -673.2 20460015.0 -0.0  1 0  447  546  564
[52]  55(B19)  1  7  7  0   -855.7 20460004.5 -0.0  1 0  229  516   48
kf residual = 0.000000
$GNGGA,025028.983,,,,,0,00,,,M,,,,0000*24
$GNRMC,025028.983,A,,,,,,,160419,,*22
$GPGSA,A,1,,,,,,,,,,,,,,,*1E
$BDGSA,A,1,,,,,,,,,,,,,,,*0F
$GLGSA,A,1,,,,,,,,,,,,,,,*02
$GPGSV,2,1,06,03,00,000,46,08,00,000,37,09,00,000,43,16,00,000,43*7F
$GPGSV,2,2,06,22,00,000,41,23,00,000,43*7C
$BDGSV,1,1,04,05,00,000,42,10,00,000,41,18,00,000,43,19,00,000,44*6D
$B3CN0,0,0,0,0,0,0,0,0,0,0,0,0,0,0*4C
---00000021--- Acq_st=3 0  2019-4-16 2:50:29 
[00]  02(G03)  f 46  7  0    507.2  2045999.3  0.0  2 0 3600 5221 2668
[01]  07(G08)  f 37  7  0  -4807.1  2046006.1 -0.0  2 0  261  864  499
[02]  08(G09)  f 43  7  0  -4622.7  2046005.9  0.0  2 0 1553 2316  810
[03]  15(G16)  f 43  7  0  -1515.6  2046001.9 -0.0  2 0 1576 2378 1162
[04]  21(G22)  f 41  7  0   1033.5  2045998.6 -0.0  2 0  994 2009 1183
[05]  22(G23)  f 43  7  0  -4049.1  2046005.2  0.1  2 0 1624 2434 1072
[06]  20(G21)  1  7  7  0  -4190.6  2046004.8  0.0  1 0  278  372  386
[17]  41(B05) 1f 40 19  0  -1081.2  4092002.7  0.2  2 0  947 1354  730
[18]  46(B10) 1f 41  7  0  -1013.0  4092002.5 -0.1  2 0 1483 1516  540
[19]  54(B18) 1f 43  7  0   -949.5  4092002.4  0.0  2 0 1725 2532 1081
[20]  55(B19) 1f 44  8  0   -332.7  4092000.7 -0.0  2 0 1756 2463 1024
[32]  80(N-1)  f 39  7  0    502.7  1021999.7  0.4  2 0   755  918  552
[33]  82(N01)  f 41 20  0  -2106.6  1022001.3 -0.0  2 0   381 1034  660
[34]  85(N04)  f 38  7  0  -4066.3  1022002.6  0.1  2 0   443  864  458
[35]  75(N-6)  7 37 29  0   2989.7  1021998.0  0.0  2 0   295  616  408
[50]  46(B10)  1  7  7  0   -933.5 20460017.3 -0.1  1 0  258  927 1003
[51]  54(B18)  1  7  7  0   -829.8 20460015.5  0.2  1 0  451  298  631
[52]  55(B19)  1  7  7  0  -1020.7 20460003.6  0.0  1 0  572  317  407
kf residual = 0.000000
$GNGGA,025029.983,,,,,0,00,,,M,,,,0000*25
$GNRMC,025029.983,A,,,,,,,160419,,*23
$GPGSA,A,1,,,,,,,,,,,,,,,*1E
$BDGSA,A,1,,,,,,,,,,,,,,,*0F
$GLGSA,A,1,,,,,,,,,,,,,,,*02
$GPGSV,2,1,06,03,00,000,46,08,00,000,37,09,00,000,43,16,00,000,43*7F
$GPGSV,2,2,06,22,00,000,41,23,00,000,43*7C
$BDGSV,1,1,04,05,00,000,40,10,00,000,41,18,00,000,43,19,00,000,44*6F
$B3CN0,0,0,0,0,0,0,0,0,0,0,0,0,0,0*4C
---00000022--- Acq_st=3 0  2019-4-16 2:50:30 
[00]  02(G03)  f 46  7  0    508.4  2045999.3 -0.0  2 0 4501 6285 2470
[01]  07(G08)  f 37  7  0  -4798.1  2046006.2 -0.1  2 0 1019  965  507
[02]  08(G09)  f 43  7  0  -4622.8  2046005.9 -0.0  2 0 1703 2288  967
[03]  15(G16)  f 43  7  0  -1512.5  2046001.9  0.0  2 0 1866 2884 1659
[04]  21(G22)  f 41  8  0   1033.5  2045998.6  0.0  2 0 1426 2067  625
[05]  22(G23)  f 44  7  0  -4051.2  2046005.2 -0.0  2 0 1323 2496 1433
[06]  20(G21)  1 15  7  0  -4552.0  2046005.1 -0.1  1 0   52  177  137
[08]  31(G32)  1 20  7  0   -461.0  2045999.8  0.0  1 0  703  680  735
[16]  38(B02)  1 22 22  0  -1083.9  4092004.7 -0.3  1 0  722 1233 1302
[17]  41(B05) 1f 41 20  0  -1081.7  4092002.8 -0.2  2 0  756 1205  702
[18]  46(B10) 1f 41  7  0  -1018.8  4092002.5  0.1  2 0  910 1531  656
[19]  54(B18) 1f 43  7  0   -948.9  4092002.4 -0.0  2 0 2086 2004  582
[20]  55(B19) 1f 44  7  0   -333.3  4092000.7  0.0  2 0 1931 2426 1079
[32]  80(N-1)  f 38  7  0    505.2  1021999.6 -0.1  2 0   475  754  525
[33]  82(N01)  f 41 18  0  -2105.3  1022001.3 -0.0  2 0   610 1113  539
[34]  85(N04)  f 37 15  0  -4061.4  1022002.6 -0.1  2 0   577  789  518
[35]  75(N-6)  7 38 30  0   2989.1  1021998.1  0.7  2 0   305  481  362
[49]  41(B05)  1 23 24  1   -863.6 20460018.9  0.1  1 0  489  542  455
[50]  46(B10)  1  7  7  0  -1110.6 20460018.3  0.2  1 0  440  306  309
[51]  54(B18)  1  7  7  0  -1668.8 20460014.3  0.1  1 0  972  541  441
[52]  55(B19)  1  7 13  0  -1626.7 20460005.4  0.1  1 0  466  413  577
ls residual = 0.006830
kf residual = 0.006830
$GNGGA,025030.850,2944.9145,N,10633.0949,E,1,04,2.4,315.8,M,,,,0000*14
$GNRMC,025030.850,A,2944.9145,N,10633.0949,E,1.38,0.00,160419,,*14
$GPGSA,A,3,03,08,09,16,,,,,,,,,2.8,2.4,1.4*3E
$BDGSA,A,3,,,,,,,,,,,,,2.8,2.4,1.4*2A
$GLGSA,A,3,,,,,,,,,,,,,2.8,2.4,1.4*27
$GPGSV,2,1,06,03,00,000,46,08,00,000,37,09,00,000,43,16,00,000,43*7F
$GPGSV,2,2,06,22,00,000,41,23,00,000,44*7B
$BDGSV,1,1,04,05,00,000,41,10,00,000,41,18,00,000,43,19,00,000,44*6E
$B3CN0,0,0,0,0,0,0,0,0,0,0,0,0,0,0*4C
---00000023--- Acq_st=3 0  2019-4-16 2:50:31 
[00]  02(G03)  f 46  7  0    508.1  2045999.3 -0.0  2 0 2880 5303 2499
[01]  07(G08)  f 36  9  0  -4803.4  2046006.2 -0.9  2 0  222  887  291
[02]  08(G09)  f 44  7  0  -4624.3  2046005.9  0.0  2 0 2030 2752 1277
[03]  15(G16)  f 44  7  0  -1512.1  2046001.9 -0.0  2 0 1684 2739  942
[04]  21(G22)  f 42  7  0   1031.3  2045998.6 -0.0  2 0 1283 2488  832
[05]  22(G23)  f 43  7  0  -4048.6  2046005.2  0.0  2 0 1279 2533 1172
[06]  20(G21)  1  7  7  0  -4944.5  2046005.8 -0.1  1 0  317  207  224
[08]  31(G32)  7 19  7  0   -500.6  2046000.5  0.1 10 0  861  752  225
[16]  38(B02)  1 14 23  0  -1088.1  4092002.7  0.5  1 0 1644  961  286
[17]  41(B05) 1f 41 28  0  -1082.0  4092002.8  0.1  2 0 1295 1384  921
[18]  46(B10) 1f 41  7  0  -1013.6  4092002.5  0.0  2 0 1096 1488  633
[19]  54(B18) 1f 43  7  0   -952.3  4092002.4  0.0  2 0 1923 2361  703
[20]  55(B19) 1f 44 12  0   -332.7  4092000.7  0.0  2 0 2215 3033 1233
[32]  80(N-1)  f 38  7  0    502.4  1021999.6  0.1  2 0   357  643  424
[33]  82(N01)  f 41 19  0  -2105.9  1022001.3  0.2  2 0   750 1055  550
[34]  85(N04)  f 39  7  0  -4065.5  1022002.6  0.0  2 0   529  949  317
[35]  75(N-6)  7 36 31  0   2988.1  1021998.1  0.1  2 0   441  444  483
[49]  41(B05)  1 23 24  1   -394.5 20460018.6 -0.1  1 0  289  862  615
ls residual = 0.006839
kf residual = 1.181633
Refix G03: 2, 183049.924286, 507
Refix G08: 2, 183049.916689, -4807
Refix G09: 2, 183049.915530, -4623
Refix G16: 2, 183049.933025, -1512
$GNGGA,025032.000,2944.9137,N,10633.0938,E,1,04,2.4,312.7,M,,,,0000*10
$GNRMC,025032.000,A,2944.9137,N,10633.0938,E,1.42,0.00,160419,,*15
$GPGSA,A,3,03,08,09,16,,,,,,,,,2.8,2.4,1.4*3E
$BDGSA,A,3,,,,,,,,,,,,,2.8,2.4,1.4*2A
$GLGSA,A,3,,,,,,,,,,,,,2.8,2.4,1.4*27
$GPGSV,2,1,07,03,00,000,46,08,00,000,36,09,00,000,44,16,00,000,44*7F
$GPGSV,2,2,07,22,00,000,42,23,00,000,43,32,00,000,19*47
$BDGSV,1,1,04,05,00,000,41,10,00,000,41,18,00,000,43,19,00,000,44*6E
$B3CN0,0,0,0,0,0,0,0,0,0,0,0,0,0,0*4C
---00000024--- Acq_st=3 0  2019-4-16 2:50:32 
[00]  02(G03)  f 45 11  0    508.8  2045999.3  0.0  2 0 3076 5223 2712
[01]  07(G08)  f 37  7  0  -4806.1  2046006.2 -0.0  2 0  566 1377  800
[02]  08(G09)  f 43  7  0  -4621.7  2046005.9  0.0  2 0 2086 3082 1935
[03]  15(G16)  f 43  7  0  -1509.2  2046001.9  0.0  2 0 1764 2600 1339
[04]  21(G22)  f 42  7  0   1032.5  2045998.6 -0.0  2 0 1452 2137  500
[05]  22(G23)  f 43 11  0  -4049.0  2046005.2 -0.1  2 0  793 2106 1267
[06]  20(G21)  1  7  7  0  -4983.4  2046005.8  0.1  1 0  629  408  289
[08]  31(G32)  7 28 11  0   -570.4  2046000.5 -0.0  5 0  523  436  523
[16]  38(B02) 1f 38 26  0  -1079.2  4092002.5  0.3  2 0 1065  534  333
[17]  41(B05) 1f 41 23  0  -1078.9  4092002.6  0.4  2 0  617 1204  567
[18]  46(B10) 1f 41  7  0  -1014.0  4092002.6  0.1  2 0  861 1472  623
[19]  54(B18) 1f 43  7  0   -951.1  4092002.4 -0.0  2 0 1623 1911  731
[20]  55(B19) 1f 44  7  0   -330.2  4092000.8 -0.0  2 0 2303 2675 1074
[21]  58(B22)  1  7  7  0  -3000.0  4092009.1 -0.0  1 0  211 1209 2195
[32]  80(N-1) 8f 39  7  0    506.2  1021999.7 -0.5  2 0   570  839  283
[33]  82(N01) 8f 41 18  0  -2105.7  1022001.3  0.0  2 0   651 1219  599
[34]  85(N04) 8f 40 17  0  -4060.6  1022002.5  0.4  2 0   423 1076  578
[35]  75(N-6)  f 31 20  0   2987.7  1021998.0  0.0  5 0   230   61   81
[49]  41(B05)  1 24 26  0   -926.8 20460022.6 -0.1  1 0  268  228  517
[50]  46(B10)  1  7  7  0   -185.0 20460015.6 -0.0  1 0  491  729  802
[51]  54(B18)  1  7  8  0  -1040.2 20460014.7 -0.0  1 0  574  467  531
[52]  55(B19)  1  7  7  0   -207.9 20460005.8  0.1  1 0  635  553   72
ls residual = 0.006847
kf residual = 1.284194
Refix G03: 2, 183050.924285, 508
Refix G08: 2, 183050.916692, -4806
Refix G09: 2, 183050.915533, -4623
Refix G16: 2, 183050.933026, -1511
$GNGGA,025033.000,2944.9129,N,10633.0934,E,1,04,2.4,311.5,M,,,,0000*13
$GNRMC,025033.000,A,2944.9129,N,10633.0934,E,1.31,0.00,160419,,*13
$GPGSA,A,3,03,08,09,16,,,,,,,,,2.8,2.4,1.4*3E
$BDGSA,A,3,,,,,,,,,,,,,2.8,2.4,1.4*2A
$GLGSA,A,3,,,,,,,,,,,,,2.8,2.4,1.4*27
$GPGSV,2,1,07,03,30,251,45,08,06,190,37,09,02,319,43,16,74,267,43*7F
$GPGSV,2,2,07,22,00,000,42,23,00,000,43,32,00,000,28*45
$BDGSV,2,1,05,02,00,000,38,05,00,000,41,10,00,000,41,18,00,000,43*6D
$BDGSV,2,2,05,19,00,000,44*55
$B3CN0,0,0,0,0,0,0,0,0,0,0,0,0,0,0*4C
---00000025--- Acq_st=3 0  2019-4-16 2:50:33 
[00]  02(G03)  f 46  7  0    510.7  2045999.3 -0.0  2 0 2859 4487 2166
[01]  07(G08)  f 36  7  0  -4805.7  2046006.2 -0.1  2 0  354  731  803
[02]  08(G09)  f 43  9  0  -4622.1  2046005.9 -0.0  2 0 1975 2588 1015
[03]  15(G16)  f 43  7  0  -1509.8  2046001.9  0.0  2 0 1969 2605 1082
[04]  21(G22)  f 43  7  0   1035.8  2045998.6  0.1  2 0 1460 2155  855
[05]  22(G23)  f 43  7  0  -4046.2  2046005.2  0.1  2 0 1129 1918 1061
[06]  20(G21)  1  7  7  0  -4640.0  2046005.8  0.1  1 0  226  382  536
[08]  31(G32)  7 12  7  0   -646.1  2046000.6  0.1 10 0  186  319  257
[16]  38(B02) 1f 39 27  0  -1085.0  4092002.5  0.8  2 0 1408 1112  767
[17]  41(B05) 1f 41 28  0  -1079.5  4092002.7 -0.6  2 0  757 1146  642
[18]  46(B10) 1f 41  8  0  -1009.4  4092002.5 -0.0  2 0  829 1200  526
[19]  54(B18) 1f 43  7  0   -946.0  4092002.4  0.0  2 0 1850 2702 1128
[20]  55(B19) 1f 44 12  0   -327.5  4092000.8  0.0  2 0 2160 2600  929
[21]  58(B22)  1  8  7  0  -2917.5  4092007.8  0.2  1 0 1787 2774 1240
[32]  80(N-1) 8f 38  7  0    508.8  1021999.7 -0.0  2 0   495  858  612
[33]  82(N01) 8f 43 18  0  -2102.8  1022001.3 -0.1  2 0   818 1523  644
[34]  85(N04) 8f 40 14  0  -4056.3  1022002.6  0.4  2 0   596 1166  566
[35]  75(N-6)  f 29 17  0   2991.0  1021998.1  0.0  5 0   208  222   60
[48]  38(B02)  1 10 10  0   -824.4 20460022.5  0.2  1 0  356  388  556
[49]  41(B05)  1 24 23  1   -866.6 20460017.7  0.1  1 0  345  561  674
[50]  46(B10)  1  7  7  0     90.9 20460016.7 -0.0  1 0  479  498  892
[51]  54(B18)  1  7  7  0   -864.1 20460013.7 -0.0  1 0  481  546  435
[52]  55(B19)  1  9  7  0     87.0 20460005.1  0.1  1 0  455  531  685
ls residual = 0.006855
kf residual = 2.705787
Refix G03: 2, 183051.924285, 509
Refix G08: 2, 183051.916695, -4805
Refix G09: 2, 183051.915536, -4622
Refix G16: 2, 183051.933027, -1510
$GNGGA,025034.000,2944.9124,N,10633.0928,E,1,04,2.4,310.9,M,,,,0000*19
$GNRMC,025034.000,A,2944.9124,N,10633.0928,E,1.15,0.00,160419,,*12
$GPGSA,A,3,03,08,09,16,,,,,,,,,2.8,2.4,1.4*3E
$BDGSA,A,3,,,,,,,,,,,,,2.8,2.4,1.4*2A
$GLGSA,A,3,,,,,,,,,,,,,2.8,2.4,1.4*27
$GPGSV,2,1,06,03,30,251,46,08,06,190,36,09,02,319,43,16,74,267,43*7C
$GPGSV,2,2,06,22,00,000,43,23,00,000,43*7E
$BDGSV,2,1,06,02,00,000,39,05,00,000,41,10,00,000,41,18,00,000,43*6F
$BDGSV,2,2,06,19,00,000,44,16,62,160,00*62
$B3CN0,0,0,0,0,0,0,0,0,0,0,0,0,0,0*4C
---00000026--- Acq_st=3 0  2019-4-16 2:50:34 
[00]  02(G03)  f 46  7  0    510.7  2045999.3  0.0  2 0 2523 3917 2033
[01]  07(G08)  f 37  7  0  -4795.6  2046006.2  0.2  2 0  859 1151  380
[02]  08(G09)  f 43  7  0  -4624.3  2046006.0 -0.0  2 0 2147 3222 1123
[03]  15(G16)  f 44  7  0  -1506.6  2046001.9  0.0  2 0 1665 2416  882
[04]  21(G22)  f 43  8  0   1037.3  2045998.6  0.0  2 0 1500 2241  927
[05]  22(G23)  f 42  7  0  -4050.9  2046005.2 -0.0  2 0 1586 2233  831
[08]  31(G32)  7  7  8  0   -791.4  2046001.0 -0.0 10 0  576  512  322
[16]  38(B02) 1f 39 22  0  -1080.0  4092002.6  0.2  2 0 1160  866  458
[17]  41(B05) 1f 41 26  0  -1083.3  4092002.8 -0.3  2 0 1156  964  105
[18]  46(B10) 1f 41  7  0  -1013.6  4092002.5  0.0  2 0  782 1314  733
[19]  54(B18) 1f 43  7  0   -947.7  4092002.4  0.0  2 0 1761 1997  894
[20]  55(B19) 1f 44 11  0   -329.2  4092000.7  0.1  2 0 1879 2383  996
[21]  58(B22)  7 27  7  0  -2915.5  4092007.6  0.2 10 0 1679 2266  888
[32]  80(N-1) 8f 39  7  0    508.2  1021999.6 -0.3  2 0   657  876  440
[33]  82(N01) 8f 42 17  0  -2102.9  1022001.3 -0.1  2 0   895 1627 1363
[34]  85(N04) 8f 40 18  0  -4058.9  1022002.6 -0.3  2 0   336  960  492
[35]  75(N-6)  f 24 20  0   2922.6  1021998.1  0.0 10 0   185  218  374
[48]  38(B02)  7 10 14  1  -1247.7 20460018.6 -0.1  2 0  431  341  553
[50]  46(B10)  1  7  7  0     59.5 20460015.1 -0.0  1 0  311  309  340
[51]  54(B18)  1  7  7  0  -1396.5 20460014.9  0.1  1 0  342  149  265
[52]  55(B19)  1  7  7  0   -307.2 20460006.2 -0.1  1 0  371  231  583
ls residual = 0.006863
kf residual = 4.724573
Refix G03: 2, 183052.924285, 509
Refix G08: 2, 183052.916698, -4805
Refix G09: 2, 183052.915539, -4623
Refix G16: 2, 183052.933028, -1510
$GNGGA,025035.000,2944.9117,N,10633.0921,E,1,04,2.4,310.1,M,,,,0000*19
$GNRMC,025035.000,A,2944.9117,N,10633.0921,E,0.96,0.00,160419,,*10
$GPGSA,A,3,03,08,09,16,,,,,,,,,2.8,2.4,1.4*3E
$BDGSA,A,3,,,,,,,,,,,,,2.8,2.4,1.4*2A
$GLGSA,A,3,,,,,,,,,,,,,2.8,2.4,1.4*27
$GPGSV,2,1,06,03,30,251,46,08,06,190,37,09,02,319,43,16,74,267,44*7A
$GPGSV,2,2,06,22,00,000,43,23,00,000,42*7F
$BDGSV,2,1,07,02,00,000,39,05,00,000,41,10,00,000,41,18,00,000,43*6E
$BDGSV,2,2,07,19,00,000,44,22,00,000,27,16,62,160,00*56
$B3CN0,0,0,0,0,0,0,0,0,0,0,0,0,0,0*4C
---00000027--- Acq_st=7 0  2019-4-16 2:50:35 
[00]  02(G03)  f 45  8  0    508.5  2045999.3 -0.0  2 0 2854 4010 2038
[01]  07(G08)  f 37  7  0  -4810.7  2046006.2 -0.5  2 0 1343 1135  526
[02]  08(G09)  f 44  7  0  -4622.2  2046005.9  0.0  2 0 1970 3121 1504
[03]  15(G16)  f 44  7  0  -1512.2  2046001.9  0.0  2 0 1927 2670 1289
[04]  21(G22)  f 43  7  0   1032.0  2045998.6 -0.0  2 0 1201 2033  679
[05]  22(G23)  f 42  7  0  -4050.3  2046005.2  0.1  2 0 1235 2254  806
[08]  31(G32)  7  7  7  0   -857.4  2046001.2 -0.0 10 0  512  231  445
[16]  38(B02) 1f 40 29  0  -1082.1  4092002.5  0.3  2 0 1057  881  252
[17]  41(B05) 1f 41 19  0  -1082.6  4092002.7 -0.2  2 0 1158 1772  806
[18]  46(B10) 1f 41  8  0  -1015.7  4092002.5 -0.0  2 0 1072 1497  582
[19]  54(B18) 1f 43  7  0   -950.4  4092002.4  0.0  2 0 1702 2143  730
[20]  55(B19) 1f 44  7  0   -331.4  4092000.7 -0.1  2 0 2134 2724 1278
[21]  58(B22)  7 44  7  0  -2917.5  4092007.5 -0.0  2 0 1584 2165  763
[32]  80(N-1) 8f 38  7  0    507.1  1021999.6 -0.3  2 0   887  879  215
[33]  82(N01) 8f 42 18  0  -2106.2  1022001.3  0.1  2 0  1079 1678  836
[34]  85(N04) 8f 40 15  0  -4061.0  1022002.5 -0.1  2 0   355  955  514
[35]  75(N-6)  f  7  7  0   2797.2  1021998.4 -0.0 10 0   196  357  467
[48]  38(B02)  7 10 18  0  -2042.2 20460030.2  0.1  2 0  672  219  215
[49]  41(B05)  1 22 22  0   -831.9 20460021.1  0.0  1 0  296  321  249
[50]  46(B10)  1  7  7  0   -224.8 20460016.0 -0.0  1 0  401  627  723
[51]  54(B18)  1  7  7  0  -1533.5 20460014.6 -0.1  1 0  789  878  680
[52]  55(B19)  1  7  7  0   -252.5 20460005.4  0.1  1 0  400  179  461
ls residual = 0.006871
kf residual = 6.473291
Refix G03: 2, 183053.924284, 507
Refix G08: 2, 183053.916701, -4807
Refix G09: 2, 183053.915542, -4624
Refix G16: 2, 183053.933029, -1511
$GNGGA,025036.000,2944.9107,N,10633.0907,E,1,04,2.4,309.7,M,,,,0000*11
$GNRMC,025036.000,A,2944.9107,N,10633.0907,E,0.80,0.00,160419,,*11
$GPGSA,A,3,03,08,09,16,,,,,,,,,2.8,2.4,1.4*3E
$BDGSA,A,3,,,,,,,,,,,,,2.8,2.4,1.4*2A
$GLGSA,A,3,,,,,,,,,,,,,2.8,2.4,1.4*27
$GPGSV,2,1,06,03,30,251,45,08,06,190,37,09,02,319,44,16,74,267,44*7E
$GPGSV,2,2,06,22,00,000,43,23,00,000,42*7F
$BDGSV,2,1,07,02,00,000,40,05,00,000,41,10,00,000,41,18,00,000,43*60
$BDGSV,2,2,07,19,00,000,44,22,00,000,44,16,62,160,00*53
$B3CN0,0,0,0,0,0,0,0,0,0,0,0,0,0,0*4C
---00000028--- Acq_st=7 0  2019-4-16 2:50:36 
[00]  02(G03)  f 45  7  0    507.3  2045999.3 -0.0  2 0 1841 3035 1859
[01]  07(G08)  f 38  7  0  -4804.0  2046006.2 -0.1  2 0  189 1025  770
[02]  08(G09)  f 44  7  0  -4626.5  2046006.0 -0.0  2 0 1667 3071 1333
[03]  15(G16)  f 44  7  0  -1512.9  2046001.9 -0.0  2 0 1718 2576  877
[04]  21(G22)  f 42  7  0   1034.1  2045998.6  0.0  2 0 1264 1973 1032
[05]  22(G23)  f 43  7  0  -4052.6  2046005.2  0.0  2 0 1916 2463  795
[16]  38(B02) 1f 41 28  0  -1085.8  4092002.6 -0.0  2 0 1104 1257  856
[17]  41(B05) 1f 40 27  0  -1079.8  4092002.7  0.4  2 0 1139 1092  536
[18]  46(B10) 1f 41  7  0  -1020.3  4092002.6 -0.0  2 0 1248 1331  360
[19]  54(B18) 1f 43  7  0   -954.2  4092002.3 -0.0  2 0 1720 1946  729
[20]  55(B19) 1f 43 10  0   -331.7  4092000.8 -0.0  2 0 1938 2695 1027
[21]  58(B22)  7 44  7  0  -2918.4  4092007.5 -0.0  2 0 1451 1884  600
[32]  80(N-1) 8f 38  7  0    501.4  1021999.7  0.1  2 0   420  480  285
[33]  82(N01) 8f 42 20  0  -2106.4  1022001.3  0.0  2 0   412 1156  857
[34]  85(N04) 8f 40 16  0  -4062.7  1022002.6 -0.0  2 0   641 1042  739
[35]  75(N-6)  f  7  7  0   2647.5  1021998.2 -0.1 10 0   169  167  319
[48]  38(B02)  7 10 10  1  -2534.8 20460039.7 -0.0  2 0  213  318   43
[49]  41(B05)  1 23 23  1   -943.6 20460015.6 -0.1  1 0  668  539  561
ls residual = 0.006878
kf residual = 8.930991
Refix G03: 2, 183054.924284, 507
Refix G08: 2, 183054.916704, -4807
Refix G09: 2, 183054.915545, -4625
Refix G16: 2, 183054.933030, -1511
$GNGGA,025037.000,2944.9099,N,10633.0889,E,1,04,2.4,309.7,M,,,,0000*11
$GNRMC,025037.000,A,2944.9099,N,10633.0889,E,0.56,0.00,160419,,*1A
$GPGSA,A,3,03,08,09,16,,,,,,,,,2.8,2.4,1.4*3E
$BDGSA,A,3,,,,,,,,,,,,,2.8,2.4,1.4*2A
$GLGSA,A,3,,,,,,,,,,,,,2.8,2.4,1.4*27
$GPGSV,2,1,06,03,30,251,45,08,06,190,38,09,02,319,44,16,74,267,44*71
$GPGSV,2,2,06,22,00,000,42,23,00,000,43*7F
$BDGSV,2,1,07,02,00,000,41,05,00,000,40,10,00,000,41,18,00,000,43*60
$BDGSV,2,2,07,19,00,000,43,22,00,000,44,16,62,160,00*54
$B3CN0,0,0,0,0,0,0,0,0,0,0,0,0,0,0*4C
---00000029--- Acq_st=3 0  2019-4-16 2:50:37 
[00]  02(G03)  f 44  7  0    508.0  2045999.3  0.0  2 0 1245 2669 1598
[01]  07(G08)  f 38  7  0  -4812.6  2046006.2  0.1  2 0  697 1296  251
[02]  08(G09)  f 45  7  0  -4627.0  2046005.9 -0.0  2 0 2186 2864 1401
[03]  15(G16)  f 44  7  0  -1512.5  2046001.9  0.0  2 0 1693 2887 1360
[04]  21(G22)  f 43  7  0   1029.2  2045998.6  0.0  2 0 1199 2344  768
[05]  22(G23)  f 43  7  0  -4051.7  2046005.2 -0.0  2 0 1955 2289 1169
[16]  38(B02) 1f 41 22  0  -1083.3  4092002.7  0.2  2 0 1360 1448  542
[17]  41(B05) 1f 40 18  0  -1080.7  4092002.7  0.5  2 0  751  793  427
[18]  46(B10) 1f 41  7  0  -1017.6  4092002.5 -0.0  2 0 1014 1594  679
[19]  54(B18) 1f 43  7  0   -950.8  4092002.4  0.0  2 0 1959 2322  877
[20]  55(B19) 1f 45  7  0   -332.4  4092000.7  0.0  2 0 1689 2366  888
[21]  58(B22)  7 44  7  0  -2915.5  4092007.5 -0.0  2 0 1652 2351  895
[32]  80(N-1) 8f 38  7  0    503.3  1021999.6  0.1  2 0   388  802  582
[33]  82(N01) 8f 41 20  0  -2108.4  1022001.3 -0.0  2 0   713 1410  964
[34]  85(N04) 8f 40 10  0  -4058.5  1022002.5  0.3  2 0   804 1203  360
[35]  75(N-6)  f  7  7  0   2535.5  1021998.5 -0.2 10 0   377  289  345
[48]  38(B02)  7 10 16  0  -2861.3 20460045.9 -0.2  2 0  687  469  534
[49]  41(B05)  1 26 27  0   -937.5 20460019.4  0.1  1 0  298  140  125
[50]  46(B10)  1  7  7  0  -1113.5 20460015.6  0.1  1 0  475  267  259
[51]  54(B18)  1  9  7  0   -848.4 20460016.1 -0.1  1 0  566  430  140
[52]  55(B19)  1  7  7  0   -109.6 20460007.6 -0.0  1 0  112  564  538
ls residual = 0.006886
kf residual = 17.261326
Refix G03: 2, 183055.924284, 507
Refix G08: 2, 183055.916707, -4807
Refix G09: 2, 183055.915548, -4626
Refix G16: 2, 183055.933031, -1512
$GNGGA,025038.000,2944.9093,N,10633.0868,E,1,04,2.4,310.2,M,,,,0000*16
$GNRMC,025038.000,A,2944.9093,N,10633.0868,E,0.57,0.00,160419,,*11
$GPGSA,A,3,03,08,09,16,,,,,,,,,2.8,2.4,1.4*3E
$BDGSA,A,3,,,,,,,,,,,,,2.8,2.4,1.4*2A
$GLGSA,A,3,,,,,,,,,,,,,2.8,2.4,1.4*27
$GPGSV,2,1,06,03,30,251,44,08,06,190,38,09,02,319,45,16,74,267,44*71
$GPGSV,2,2,06,22,00,000,43,23,00,000,43*7E
$BDGSV,2,1,07,02,00,000,41,05,00,000,40,10,00,000,41,18,00,000,43*60
$BDGSV,2,2,07,19,00,000,45,22,00,000,44,16,62,160,00*52
$B3CN0,0,0,0,0,0,0,0,0,0,0,0,0,0,0*4C
---00000030--- Acq_st=3 0  2019-4-16 2:50:38 
[00]  02(G03)  f 43  7  0    506.0  2045999.5 -0.0  2 0  469 1898 1126
[01]  07(G08)  f 39  7  0  -4808.7  2046006.2 -0.0  2 0  647 1234  438
[02]  08(G09)  f 44  7  0  -4626.0  2046006.0  0.0  2 0 1974 3115 1469
[03]  15(G16)  f 44  7  0  -1510.4  2046001.9  0.0  2 0 2187 2894 1514
[04]  21(G22)  f 43  7  0   1033.0  2045998.6  0.0  2 0 1679 2636  995
[05]  22(G23)  f 44  7  0  -4052.5  2046005.2 -0.0  2 0 1132 2268 1328
[16]  38(B02) 1f 41 27  0  -1080.1  4092002.7 -0.3  2 0 1234 1503  836
[17]  41(B05) 1f 41 28  0  -1080.7  4092002.7 -0.6  2 0  926 1341  545
[18]  46(B10) 1f 41  7  0  -1016.6  4092002.6 -0.1  2 0 1644 1761  879
[19]  54(B18) 1f 43  8  0   -952.8  4092002.4  0.0  2 0 1706 2081  604
[20]  55(B19) 1f 44 11  0   -333.3  4092000.7  0.0  2 0 2176 2774 1145
[21]  58(B22)  7 43  7  0  -2914.5  4092007.5 -0.0  2 0 1702 2044  649
[32]  80(N-1) 8f 38  7  0    505.8  1021999.6  0.5  2 0   435  785  444
[33]  82(N01) 8f 41 19  0  -2107.7  1022001.4  0.0  2 0   431 1015  828
[34]  85(N04) 8f 41 17  0  -4059.8  1022002.5  0.2  2 0   616  937  707
[49]  41(B05)  1 18 26  1  -1455.1 20460017.0 -0.1  1 0  161  126  189
[50]  46(B10)  1  7  7  0  -1153.2 20460015.4  0.0  1 0  456  231  493
[51]  54(B18)  1  7  7  0  -1072.7 20460014.6 -0.0  1 0  311  595  483
[52]  55(B19)  1 10  7  0   -189.0 20460006.0  0.0  1 0  436  848  708
ls residual = 0.006892
kf residual = 34.698826
Refix G03: 2, 183056.924283, 508
Refix G08: 2, 183056.916710, -4806
Refix G09: 2, 183056.915551, -4625
Refix G16: 2, 183056.933032, -1510
$GNGGA,025039.000,2944.9085,N,10633.0834,E,1,04,2.4,311.3,M,,,,0000*19
$GNRMC,025039.000,A,2944.9085,N,10633.0834,E,0.51,0.00,160419,,*18
$GPGSA,A,3,03,08,09,16,,,,,,,,,2.8,2.4,1.4*3E
$BDGSA,A,3,,,,,,,,,,,,,2.8,2.4,1.4*2A
$GLGSA,A,3,,,,,,,,,,,,,2.8,2.4,1.4*27
$GPGSV,2,1,06,03,30,251,43,08,06,190,39,09,02,319,44,16,74,267,44*76
$GPGSV,2,2,06,22,00,000,43,23,00,000,44*79
$BDGSV,2,1,07,02,00,000,40,05,00,000,41,10,00,000,41,18,00,000,43*60
$BDGSV,2,2,07,19,00,000,44,22,00,000,43,16,62,160,00*54
$B3CN0,0,0,0,0,0,0,0,0,0,0,0,0,0,0*4C
$GLGSV,1,1,03,01,00,000,38,12,00,000,41,02,00,000,41*5D
---00000031--- Acq_st=3 0  2019-4-16 2:50:39 
[00]  02(G03)  f 42  7  0    511.7  2045999.5  0.1  2 0  340 1946 1555
[01]  07(G08)  f 38  7  0  -4809.7  2046006.2  0.3  2 0  779 1373  911
[02]  08(G09)  f 44  7  0  -4626.6  2046005.9  0.0  2 0 1287 2603 1181
[03]  15(G16)  f 44  7  0  -1511.6  2046001.9 -0.0  2 0 1890 2878 1417
[04]  21(G22)  f 43  9  0   1030.8  2045998.6 -0.0  2 0 1034 1678  528
[05]  22(G23)  f 43  7  0  -4051.7  2046005.2 -0.0  2 0  949 2078 1382
[16]  38(B02) 1f 41 27  0  -1085.0  4092002.6 -0.5  2 0 1101 1013  365
[17]  41(B05) 1f 41 26  0  -1082.0  4092002.8  0.4  2 0  957 1562  761
[18]  46(B10) 1f 41  7  0  -1018.6  4092002.5 -0.1  2 0 1786 1686  609
[19]  54(B18) 1f 44  7  0   -955.8  4092002.4 -0.0  2 0 1942 2742 1470
[20]  55(B19) 1f 44  8  0   -329.4  4092000.7 -0.0  2 0 2154 2942 1500
[21]  58(B22) 1f 43  7  0  -2917.8  4092007.5  0.1  2 0 1935 2358 1332
[32]  80(N-1) 8f 37  7  0    506.0  1021999.7  0.1  2 0   520  931  687
[33]  82(N01) 8f 40 21  0  -2109.0  1022001.3  0.3  2 0   822  964  197
[34]  85(N04) 8f 40 13  0  -4060.8  1022002.6 -0.0  2 0   584 1269  583
[48]  38(B02)  1 19 10  1   -802.1 20460016.6 -0.1  1 0  506  467  350
[50]  46(B10)  1  7  7  0  -1363.3 20460014.9  0.0  1 0  184  601  639
[51]  54(B18)  1  7  7  0  -1025.4 20460015.5 -0.1  1 0  778  496  626
[52]  55(B19)  1  7  7  0    408.3 20460006.9 -0.0  1 0   87  297  306
ls residual = 0.006898
kf residual = 67.837746
Refix G03: 2, 183057.924283, 508
Refix G08: 2, 183057.916713, -4807
Refix G09: 2, 183057.915554, -4625
Refix G16: 2, 183057.933033, -1510
$GNGGA,025040.000,2944.9072,N,10633.0787,E,1,04,2.4,312.5,M,,,,0000*1D
$GNRMC,025040.000,A,2944.9072,N,10633.0787,E,0.54,0.00,160419,,*1C
$GPGSA,A,3,03,08,09,16,,,,,,,,,2.8,2.4,1.4*3E
$BDGSA,A,3,,,,,,,,,,,,,2.8,2.4,1.4*2A
$GLGSA,A,3,,,,,,,,,,,,,2.8,2.4,1.4*27
$GPGSV,2,1,06,03,30,251,42,08,06,190,39,09,02,319,44,16,74,267,44*77
$GPGSV,2,2,06,22,00,000,43,23,00,000,43*7E
$BDGSV,2,1,07,02,00,000,41,05,00,000,41,10,00,000,41,18,00,000,44*66
$BDGSV,2,2,07,19,00,000,44,22,00,000,43,16,62,160,00*54
$B3CN0,0,0,0,0,0,0,0,0,0,0,0,0,0,0*4C
$GLGSV,1,1,03,01,58,234,37,12,36,295,40,02,28,322,40*58
---00000032--- Acq_st=3 0  2019-4-16 2:50:40 
[00]  02(G03)  f 42  7  0    512.0  2045999.2 -0.0  2 0 1457 1880  904
[01]  07(G08)  f 39  7  0  -4806.7  2046006.2 -0.1  2 0  991 1671  618
[02]  08(G09)  f 44 12  0  -4622.8  2046005.9 -0.0  2 0 1831 2872 1212
[03]  15(G16)  f 44  7  0  -1503.9  2046001.9  0.0  2 0 1510 2425  872
[04]  21(G22)  f 43  7  0   1035.5  2045998.6  0.0  2 0 1023 1625  679
[05]  22(G23)  f 43 10  0  -4047.8  2046005.2  0.0  2 0 1170 2138 1176
[16]  38(B02) 1f 41 24  0  -1080.6  4092002.7  0.4  2 0 1105 1243  805
[17]  41(B05) 1f 42 23  0  -1079.4  4092002.8 -0.1  2 0 1225 1501  827
[18]  46(B10) 1f 41  7  0  -1015.3  4092002.5 -0.0  2 0 1001 1204  472
[19]  54(B18) 1f 44  7  0   -951.2  4092002.4  0.0  2 0 1882 2477  813
[20]  55(B19) 1f 44 12  0   -324.5  4092000.7 -0.0  2 0 1871 2348  860
[21]  58(B22) 1f 43  7  0  -2913.4  4092007.5 -0.0  2 0 1638 2100 1202
[32]  80(N-1) 8f 35  7  0    507.9  1021999.7 -0.1  2 0   293  675  506
[33]  82(N01) 8f 40 19  0  -2104.7  1022001.2 -0.3  2 0   694  909  537
[34]  85(N04) 8f 41 18  0  -4054.1  1022002.5  0.1  2 0   806 1221  515
[48]  38(B02)  1 21 10  0   -514.6 20460013.8  0.1  1 0  144   84  182
[49]  41(B05)  1 26 26  0  -1197.4 20460022.3 -0.1  1 0  662  536  464
[50]  46(B10)  1  7  7  0  -1080.1 20460016.6 -0.1  1 0  342  520  712
[51]  54(B18)  1  7  9  0  -1102.9 20460015.0  0.0  1 0  850  500  397
[52]  55(B19)  1  7  7  0    971.1 20460005.1  0.0  1 0   70  181  366
[53]  58(B22)  1  7  7  0  -2356.5 20460047.5  0.0  1 0  255  750  612
ls residual = 18.712597
kf residual = 74.100754
Refix G03: 2, 183058.924282, 513
Refix G08: 2, 183058.916716, -4805
Refix G09: 2, 183058.915557, -4622
Refix G16: 2, 183058.933034, -1505
$GNGGA,025041.000,2944.9063,N,10633.0730,E,1,07,2.4,314.6,M,,,,0000*16
$GNRMC,025041.000,A,2944.9063,N,10633.0730,E,1.11,0.00,160419,,*11
$GPGSA,A,3,03,08,09,16,,,,,,,,,2.8,2.4,1.4*3E
$BDGSA,A,3,,,,,,,,,,,,,2.8,2.4,1.4*2A
$GLGSA,A,3,01,02,12,,,,,,,,,,2.8,2.4,1.4*27
$GPGSV,2,1,06,03,30,251,42,08,06,190,39,09,02,319,44,16,74,267,44*77
$GPGSV,2,2,06,22,00,000,43,23,00,000,43*7E
$BDGSV,2,1,07,02,00,000,41,05,00,000,42,10,00,000,41,18,00,000,44*65
$BDGSV,2,2,07,19,00,000,44,22,00,000,43,16,62,160,00*54
$B3CN0,0,0,0,0,0,0,0,0,0,0,0,0,0,0*4C
$GLGSV,1,1,03,01,58,234,35,12,36,295,40,02,28,322,41*5B
---00000033--- Acq_st=3 0  2019-4-16 2:50:41 
[00]  02(G03)  f 42  7  0    509.8  2045999.2 -0.0  2 0 1602 2312 1357
[01]  07(G08)  f 39  7  0  -4806.9  2046006.1 -0.1  2 0  488 1214  653
[02]  08(G09)  f 43  7  0  -4626.7  2046006.0  0.0  2 0 1618 2555 1024
[03]  15(G16)  f 44  7  0  -1507.1  2046001.9 -0.0  2 0 1615 2973 1646
[04]  21(G22)  f 42  7  0   1035.0  2045998.6  0.0  2 0 1087 2279  966
[05]  22(G23)  f 44  7  0  -4052.2  2046005.2 -0.0  2 0 1644 2817 1377
[16]  38(B02) 1f 41 27  0  -1082.8  4092002.6 -0.3  2 0 1190 1316  457
[17]  41(B05) 1f 42 27  0  -1082.5  4092002.7  0.3  2 0 1127 1080  277
[18]  46(B10) 1f 41 10  0  -1017.7  4092002.5 -0.0  2 0 1398 1791  632
[19]  54(B18) 1f 44  7  0   -953.6  4092002.4 -0.0  2 0 2367 2738 1222
[20]  55(B19) 1f 44  7  0   -328.0  4092000.8  0.1  2 0 2067 2540  939
[21]  58(B22) 1f 44  7  0  -2914.8  4092007.5  0.0  2 0 1999 2405  990
[32]  80(N-1) 8f 35  7  0    505.5  1021999.7  0.1  2 0   466  473  400
[33]  82(N01) 8f 41 19  0  -2106.7  1022001.3 -0.1  2 0   952 1370  623
[34]  85(N04) 8f 42 16  0  -4056.1  1022002.5 -0.0  2 0   696 1494  702
[48]  38(B02)  f 10 22  0   -343.9 20460006.5 -0.0  2 0   23  496  417
[49]  41(B05)  1 25 23  1   -672.2 20460019.6 -0.0  1 0  217  376  198
[53]  58(B22)  1 11  7  0  -2803.8 20460046.5 -0.0  1 0  211  189  411
ls residual = 18.542210
kf residual = 22.058205
Refix G03: 2, 183059.924282, 516
Refix G08: 2, 183059.916719, -4798
Refix G09: 2, 183059.915560, -4618
Refix G16: 2, 183059.933035, -1502
$GNGGA,025042.000,2944.9011,N,10633.0332,E,1,07,1.6,328.9,M,,,,0000*17
$GNRMC,025042.000,A,2944.9011,N,10633.0332,E,0.29,0.00,160419,,*1B
$GPGSA,A,3,03,08,09,16,,,,,,,,,1.9,1.6,1.0*39
$BDGSA,A,3,,,,,,,,,,,,,1.9,1.6,1.0*2D
$GLGSA,A,3,01,02,12,,,,,,,,,,1.9,1.6,1.0*20
$GPGSV,2,1,06,03,30,251,42,08,06,190,39,09,02,319,43,16,74,267,44*70
$GPGSV,2,2,06,22,00,000,42,23,00,000,44*78
$BDGSV,2,1,07,02,00,000,41,05,00,000,42,10,00,000,41,18,00,000,44*65
$BDGSV,2,2,07,19,00,000,44,22,00,000,44,16,62,160,00*53
$B3CN0,0,0,0,0,0,0,0,0,0,0,0,0,0,0*4C
$GLGSV,1,1,03,01,58,234,35,12,36,295,41,02,28,322,42*59
---00000034--- Acq_st=3 0  2019-4-16 2:50:42 
[00]  02(G03)  f 43  7  0    512.4  2045999.2  0.0  2 0 2267 2735 1224
[01]  07(G08)  f 38  7  0  -4804.3  2046006.2  0.1  2 0  705 1511  615
[02]  08(G09)  f 43  7  0  -4624.1  2046006.0 -0.0  2 0 1221 2259 1133
[03]  15(G16)  f 44  7  0  -1506.2  2046001.9  0.1  2 0 1681 2623 1088
[04]  21(G22)  f 42  7  0   1034.4  2045998.5 -0.1  2 0 1129 1829  735
[05]  22(G23)  f 43  7  0  -4047.9  2046005.2  0.0  2 0 1279 2766 1064
[16]  38(B02) 1f 41 22  0  -1086.2  4092002.7 -0.6  2 0 1099 1360  746
[17]  41(B05) 1f 42 17  0  -1078.9  4092002.7  0.1  2 0 1042 1151  668
[18]  46(B10) 1f 41  7  0  -1016.3  4092002.5  0.1  2 0 1151 1232  504
[19]  54(B18) 1f 43  7  0   -951.0  4092002.4 -0.1  2 0 1006 1838 1108
[20]  55(B19) 1f 44  7  0   -324.2  4092000.7  0.1  2 0 2242 2599  850
[21]  58(B22) 1f 44  7  0  -2910.8  4092007.5 -0.0  2 0 1990 2322 1106
[32]  80(N-1) 8f 35  7  0    508.0  1021999.6 -0.2  2 0   589  783  265
[33]  82(N01) 8f 41 20  0  -2104.2  1022001.3  0.2  2 0  1233 1431  556
[34]  85(N04) 8f 42 18  0  -4054.6  1022002.5 -0.0  2 0   523  972  501
[48]  38(B02)  f 20 14  1   -408.1 20460006.4 -0.0  2 0  135  313  292
[49]  41(B05)  1 26 22  0   -600.5 20460013.8  0.1  1 0  482  705  144
[50]  46(B10)  1  7  7  0  -1331.2 20460017.0  0.0  1 0  523  914  485
[51]  54(B18)  1  7  7  0  -1159.6 20460015.6 -0.2  1 0  719  577  112
[52]  55(B19)  1  7  7  0     32.7 20460006.2 -0.0  1 0  393  395  456
[53]  58(B22)  1  7  7  0  -2917.3 20460046.2  0.1  1 0  774  286  155
ls residual = 17.829693
kf residual = 18.778500
Refix G03: 2, 183060.924282, 514
Refix G08: 2, 183060.916722, -4800
Refix G09: 2, 183060.915562, -4621
Refix G16: 2, 183060.933036, -1504
$GNGGA,025043.000,2944.8999,N,10633.0273,E,1,07,1.6,328.7,M,,,,0000*14
$GNRMC,025043.000,A,2944.8999,N,10633.0273,E,0.38,0.00,160419,,*16
$GPGSA,A,3,03,08,09,16,,,,,,,,,1.9,1.6,1.0*39
$BDGSA,A,3,,,,,,,,,,,,,1.9,1.6,1.0*2D
$GLGSA,A,3,01,02,12,,,,,,,,,,1.9,1.6,1.0*20
$GPGSV,2,1,06,03,30,251,43,08,06,190,38,09,02,319,43,16,74,267,44*70
$GPGSV,2,2,06,22,00,000,42,23,00,000,43*7F
$BDGSV,2,1,07,02,00,000,41,05,00,000,42,10,00,000,41,18,00,000,43*62
$BDGSV,2,2,07,19,01,317,44,22,00,000,44,16,62,160,00*57
$B3CN0,0,20,0,0,0,0,0,0,0,0,0,0,0,0*7E
$GLGSV,1,1,03,01,58,234,35,12,36,295,41,02,28,322,42*59
---00000035--- Acq_st=3 0  2019-4-16 2:50:43 
[00]  02(G03)  f 44  7  0    517.9  2045999.2  0.0  2 0 2846 3304  950
[01]  07(G08)  f 39  7  0  -4803.5  2046006.1 -0.0  2 0  461 1152  416
[02]  08(G09)  f 43  9  0  -4624.7  2046006.0 -0.0  2 0 1290 2172  927
[03]  15(G16)  f 44  7  0  -1504.7  2046001.9 -0.0  2 0 1473 2562 1153
[04]  21(G22)  f 42  7  0   1031.1  2045998.6  0.0  2 0  555 1191  590
[05]  22(G23)  f 43  7  0  -4046.7  2046005.2  0.0  2 0 1538 2444  923
[16]  38(B02) 1f 41 24  0  -1080.2  4092002.7  0.2  2 0 1024 1113  648
[17]  41(B05) 1f 41 24  0  -1081.1  4092002.7  0.1  2 0 1249 1205  560
[18]  46(B10) 1f 41  7  0  -1014.3  4092002.5 -0.1  2 0 1175 1671  994
[19]  54(B18) 1f 43  7  0   -947.7  4092002.4  0.0  2 0 1640 2283 1097
[20]  55(B19) 1f 44  9  0   -322.7  4092000.7 -0.0  2 0 2137 3127 1472
[21]  58(B22) 1f 44  7  0  -2909.0  4092007.5  0.0  2 0 1947 2443  806
[32]  80(N-1) 8f 36  7  0    514.8  1021999.5 -0.1  2 0   521 1020  523
[33]  82(N01) 8f 41 17  0  -2102.4  1022001.3  0.1  2 0   719 1350  945
[34]  85(N04) 8f 43 16  0  -4049.9  1022002.5 -0.3  2 0   899 1342  517
[48]  38(B02)  f 14 36  1   -406.3 20460005.8  0.1  2 0  225  419  170
[49]  41(B05)  1 24 23  0   -528.0 20460017.1 -0.0  1 0  694  214   12
[50]  46(B10)  1  7  7  0  -1430.1 20460016.2  0.1  1 0  869  959  577
[51]  54(B18)  1  7  7  0  -1148.9 20460014.8  0.1  1 0  222  437  560
[52]  55(B19)  1  7  8  0    506.1 20460004.4  0.1  1 0  262  515  788
[53]  58(B22)  1  7  7  0  -2897.1 20460048.6  0.0  1 0  393  120  477
ls residual = 12.712918
kf residual = 13.275525
Refix G03: 2, 183061.924282, 512
Refix G08: 2, 183061.916725, -4802
Refix G09: 2, 183061.915565, -4623
Refix G16: 2, 183061.933037, -1506
$GNGGA,025044.000,2944.9006,N,10633.0285,E,1,07,1.6,327.2,M,,,,0000*1E
$GNRMC,025044.000,A,2944.9006,N,10633.0285,E,0.28,0.00,160419,,*17
$GPGSA,A,3,03,08,09,16,,,,,,,,,1.9,1.6,1.0*39
$BDGSA,A,3,,,,,,,,,,,,,1.9,1.6,1.0*2D
