$GNGGA,000000.000,,,,,0,00,,,M,,,,0000*2B
$GNRMC,000000.000,A,,,,,,,060180,,*29
$GPGSA,A,1,,,,,,,,,,,,,,,*1E
$BDGSA,A,1,,,,,,,,,,,,,,,*0F
$GLGSA,A,1,,,,,,,,,,,,,,,*02
$GPGSV,1,1,02,03,00,000,45,16,00,000,18*77
$B3CN0,0,0,0,0,0,0,0,0,0,0,0,0,0,0*4C
---00000004--- Acq_st=3 0  2019-4-16 2:41:53 
[00]  02(G03)  7 45  8  0    232.8  2045999.6 -0.0  2 0 2221 3299 1527
[01]  15(G16)  7 44  7  0  -1857.5  2046002.3  0.0  2 0 1931 2266  523
[02]  21(G22)  7 32  7  0    869.0  2045998.8  0.3  5 0 1083 1578  837
[03]  22(G23)  7 31  7  0  -4206.2  2046005.4  0.3  5 0 1640 2217 1091
[16]  38(B02)  1 10 26  1  -1034.4  4092003.8 -0.1  1 0  477  114  639
[17]  41(B05)  1 41 24  0  -1120.7  4092003.4  1.0  1 0  935 1067  499
[18]  46(B10)  1  0  0  0   -750.0  4092001.0  0.0  1 0  721  374  516
$GNGGA,000000.000,,,,,0,00,,,M,,,,0000*2B
$GNRMC,000000.000,A,,,,,,,060180,,*29
$GPGSA,A,1,,,,,,,,,,,,,,,*1E
$BDGSA,A,1,,,,,,,,,,,,,,,*0F
$GLGSA,A,1,,,,,,,,,,,,,,,*02
$GPGSV,1,1,04,03,00,000,45,16,00,000,44,22,00,000,32,23,00,000,31*7A
$B3CN0,0,0,0,0,0,0,0,0,0,0,0,0,0,0*4C
---00000005--- Acq_st=3 0  2019-4-16 2:41:54 
[00]  02(G03)  7 45  7  0    234.5  2045999.6  0.0  2 0 2119 3283 1319
[01]  15(G16)  7 43  7  0  -1856.2  2046002.3  0.1  2 0 1152 2376 1232
[02]  21(G22)  7 42  9  0    869.8  2045998.8  0.0  2 0 1660 1856  812
[03]  22(G23)  7 44  7  0  -4201.4  2046005.4  0.1  2 0 1834 2702 1156
[16]  38(B02)  7 23 28  1   -969.7  4092002.5 -0.1  2 0  358  694  985
[17]  41(B05)  f 41 22  0  -1119.8  4092002.9 -0.3  2 0 1359 1292  639
[18]  46(B10)  1  7  9  0   -255.3  4092001.0  0.1  1 0  208  111  174
kf residual = 0.000000
$GNGGA,024155.724,,,,,0,00,,,M,,,,0000*2D
$GNRMC,024155.724,A,,,,,,,080180,,*21
$GPGSA,A,1,,,,,,,,,,,,,,,*1E
$BDGSA,A,1,,,,,,,,,,,,,,,*0F
$GLGSA,A,1,,,,,,,,,,,,,,,*02
$GPGSV,1,1,04,03,00,000,45,16,00,000,43,22,00,000,42,23,00,000,44*78
$BDGSV,1,1,02,02,00,000,24,05,00,000,41*6E
$B3CN0,0,0,0,0,0,0,0,0,0,0,0,0,0,0*4C
---00000006--- Acq_st=3 0  2019-4-16 2:41:55 
[00]  02(G03)  f 45  7  0    240.6  2045999.6 -0.0  2 0 2049 3665 1926
[01]  15(G16)  f 43  8  0  -1850.5  2046002.4 -0.0  2 0 1230 2195 1022
[02]  21(G22)  f 42  7  0    878.8  2045998.8 -0.0  2 0 1084 1869  772
[03]  22(G23)  f 44  9  0  -4198.2  2046005.4  0.1  2 0 1780 2667 1114
[16]  38(B02)  7 22 29  1  -1020.3  4092002.7 -0.1  2 0  125  118  617
[17]  41(B05)  f 40 25  0  -1116.8  4092002.7  0.6  2 0 1191 1311  541
[18]  46(B10)  1  7  7  0    320.1  4092000.9  0.1  1 0  131   89  319
[19]  54(B18)  1  7  7  0   -986.1  4092003.5  0.2  1 0 1451 2562 1356
[20]  55(B19)  1 17  7  0   -638.2  4092002.8 -0.0  1 0 1928 3480 1868
[21]  58(B22)  1  7  7  0  -3000.0  4092007.3 -0.0  1 0  938  709  315
[49]  41(B05)  1 25 23  1   -845.2 20460017.5 -0.1  1 0  769  831  425
kf residual = 0.000000
$GNGGA,024156.724,,,,,0,00,,,M,,,,0000*2E
$GNRMC,024156.724,A,,,,,,,080180,,*22
$GPGSA,A,1,,,,,,,,,,,,,,,*1E
$BDGSA,A,1,,,,,,,,,,,,,,,*0F
$GLGSA,A,1,,,,,,,,,,,,,,,*02
$GPGSV,1,1,04,03,00,000,45,16,00,000,43,22,00,000,42,23,00,000,44*78
$BDGSV,1,1,02,02,00,000,23,05,00,000,40*68
$B3CN0,0,0,0,0,0,0,0,0,0,0,0,0,0,0*4C
---00000007--- Acq_st=3 0  2019-4-16 2:41:56 
[00]  02(G03)  f 45  7  0    242.5  2045999.6 -0.0  2 0 2425 3908 1507
[01]  15(G16)  f 43  7  0  -1847.5  2046002.4 -0.0  2 0 1045 1818  632
[02]  21(G22)  f 42  7  0    878.6  2045998.9  0.0  2 0 1139 2073 1252
[03]  22(G23)  f 44  7  0  -4195.4  2046005.4 -0.0  2 0 1829 2928 1498
[16]  38(B02)  7 25 10  0  -1347.0  4092003.6 -0.1  2 0  441  596 1023
[17]  41(B05)  f 40 21  0  -1116.4  4092002.9 -0.1  2 0 1032 1254  693
[18]  46(B10)  1  7  7  0    157.4  4092001.1 -0.1  1 0  144  339  443
[19]  54(B18)  7 21  7  0   -982.8  4092002.5  0.4 10 0 1787 2419 1091
[20]  55(B19)  7 17  7  0   -633.8  4092001.6  0.1 10 0 1968 3079 1430
[21]  58(B22)  1  7  7  0  -3241.8  4092008.0  0.1  1 0  363  224  312
[49]  41(B05)  1 27 23  0   -454.3 20460017.7  0.0  1 0  464  318  693
kf residual = 0.000000
$GNGGA,024157.724,,,,,0,00,,,M,,,,0000*2F
$GNRMC,024157.724,A,,,,,,,160419,,*29
$GPGSA,A,1,,,,,,,,,,,,,,,*1E
$BDGSA,A,1,,,,,,,,,,,,,,,*0F
$GLGSA,A,1,,,,,,,,,,,,,,,*02
$GPGSV,1,1,04,03,00,000,45,16,00,000,43,22,00,000,42,23,00,000,44*78
$BDGSV,1,1,04,02,00,000,25,05,00,000,40,18,00,000,21,19,00,000,17*6C
$B3CN0,0,0,0,0,0,0,0,0,0,0,0,0,0,0*4C
---00000008--- Acq_st=3 0  2019-4-16 2:41:57 
[00]  02(G03)  f 45  7  0    242.8  2045999.6  0.0  2 0 2601 3820 1425
[01]  15(G16)  f 42  7  0  -1844.7  2046002.4  0.1  2 0  830 1913 1159
[02]  21(G22)  f 42  7  0    876.1  2045998.8  0.0  2 0 1312 1769  934
[03]  22(G23)  f 44  7  0  -4197.6  2046005.4  0.0  2 0 1916 2818 1004
[16]  38(B02)  7 17 17  1  -1386.2  4092003.4 -0.2  2 0  419  848 1078
[17]  41(B05) 1f 40 24  0  -1117.8  4092002.7 -0.5  2 0 1114 1172   80
[18]  46(B10)  1  7  7  0   -276.3  4092001.4  0.0  1 0  114  542  417
[19]  54(B18)  7 44  8  0   -982.7  4092002.5  0.0  2 0 1969 2348  920
[20]  55(B19)  7 45  7  0   -633.3  4092001.6 -0.1  2 0 2235 3048 1225
[21]  58(B22)  7 22  7  0  -3172.8  4092008.5  0.1 10 0  512  174  273
[49]  41(B05)  1 23 27  1   -952.8 20460024.5  0.0  1 0  648  477  504
kf residual = 0.000000
$GNGGA,024158.724,,,,,0,00,,,M,,,,0000*20
$GNRMC,024158.724,A,,,,,,,160419,,*26
$GPGSA,A,1,,,,,,,,,,,,,,,*1E
$BDGSA,A,1,,,,,,,,,,,,,,,*0F
$GLGSA,A,1,,,,,,,,,,,,,,,*02
$GPGSV,1,1,04,03,00,000,45,16,00,000,42,22,00,000,42,23,00,000,44*79
$BDGSV,2,1,05,02,00,000,18,05,00,000,41,18,00,000,44,19,00,000,45*65
$BDGSV,2,2,05,22,00,000,21*5E
$B3CN0,0,0,0,0,0,0,0,0,0,0,0,0,0,0*4C
---00000009--- Acq_st=7 0  2019-4-16 2:41:58 
[00]  02(G03)  f 45  7  0    243.0  2045999.6 -0.0  2 0 3181 4826 2324
[01]  15(G16)  f 42  7  0  -1849.2  2046002.4 -0.0  2 0 1335 2204 1487
[02]  21(G22)  f 42  7  0    876.7  2045998.8  0.0  2 0 1111 1813 1112
[03]  22(G23)  f 44  7  0  -4197.1  2046005.4  0.0  2 0 2336 3778 1840
[16]  38(B02)  7 10 10  1  -1805.6  4092004.5  0.0  2 0  616  607  228
[17]  41(B05) 1f 41 22  0  -1114.4  4092002.8 -0.0  2 0 1592 1589  432
[19]  54(B18)  7 43  7  0   -981.0  4092002.4 -0.0  2 0 1824 2497 1332
[20]  55(B19)  7 44  7  0   -632.9  4092001.6  0.0  2 0 2125 3220 1424
[21]  58(B22)  7 24  7  0  -3231.1  4092008.6 -0.1 10 0  400  501  311
[32]  80(N-1)  1 25  9  0     37.1  1022000.8  0.3  1 0   614  544  215
[33]  81(N00)  1 24 17  0   -301.5  1022002.0  0.2  1 0   114  582  633
[34]  82(N01)  1 23 13  0  -2264.4  1022004.5  0.1  1 0   271  746 1176
[35]  85(N04)  1 14 14  0  -4500.0  1022004.8  0.0  1 0   673 1126 1389
[49]  41(B05)  1 22 21  0   -844.5 20460024.3  0.1  1 0  153  797  506
kf residual = 0.000000
$GNGGA,024159.724,,,,,0,00,,,M,,,,0000*21
$GNRMC,024159.724,A,,,,,,,160419,,*27
$GPGSA,A,1,,,,,,,,,,,,,,,*1E
$BDGSA,A,1,,,,,,,,,,,,,,,*0F
$GLGSA,A,1,,,,,,,,,,,,,,,*02
$GPGSV,1,1,04,03,00,000,45,16,00,000,42,22,00,000,42,23,00,000,44*79
$BDGSV,1,1,04,05,00,000,40,18,00,000,43,19,00,000,44,22,00,000,24*6D
$B3CN0,0,0,0,0,0,0,0,0,0,0,0,0,0,0*4C
---00000010--- Acq_st=7 0  2019-4-16 2:41:59 
[00]  02(G03)  f 46  7  0    243.8  2045999.6  0.0  2 0 3070 4363 2189
[01]  15(G16)  f 42  7  0  -1844.0  2046002.3 -0.1  2 0 1241 1844  969
[02]  21(G22)  f 41  8  0    879.6  2045998.9 -0.0  2 0  946 1096  461
[03]  22(G23)  f 44  7  0  -4197.9  2046005.4 -0.1  2 0 1839 2901 1571
[16]  38(B02)  7 19 20  0  -2065.8  4092005.6 -0.1  2 0  182  134  185
[17]  41(B05) 1f 40 24  0  -1112.8  4092002.8 -0.5  2 0  910 1145  581
[19]  54(B18)  7 43  7  0   -983.9  4092002.5  0.0  2 0 1740 2482 1055
[20]  55(B19)  7 44  7  0   -633.2  4092001.5  0.0  2 0 2400 2928 1170
[21]  58(B22)  7  7 12  0  -3392.3  4092009.0 -0.3 10 0  183  317  809
[32]  80(N-1)  7 30  7  0     36.3  1021999.9  0.7  5 0   932  930  457
[33]  81(N00)  1 23 24  0   -297.0  1021999.7  0.6  1 0   474  591  418
[34]  82(N01)  7 25  7  0  -2262.8  1022001.3  0.6 10 0  1269 1303  520
[35]  85(N04)  1 29 21  0  -4393.8  1022002.7  1.0  1 0   831 1215  612
kf residual = 0.000000
$GNGGA,024200.724,,,,,0,00,,,M,,,,0000*2E
$GNRMC,024200.724,A,,,,,,,160419,,*28
$GPGSA,A,1,,,,,,,,,,,,,,,*1E
$BDGSA,A,1,,,,,,,,,,,,,,,*0F
$GLGSA,A,1,,,,,,,,,,,,,,,*02
$GPGSV,1,1,04,03,00,000,46,16,00,000,42,22,00,000,41,23,00,000,44*79
$BDGSV,1,1,04,02,00,000,18,05,00,000,40,18,00,000,43,19,00,000,44*60
$B3CN0,0,0,0,0,0,0,0,0,0,0,0,0,0,0*4C
---00000011--- Acq_st=3 0  2019-4-16 2:42:0 
[00]  02(G03)  f 46  9  0    245.0  2045999.6 -0.0  2 0 3088 4305 1619
[01]  15(G16)  f 41  7  0  -1843.8  2046002.3 -0.0  2 0  998 1945 1092
[02]  21(G22)  f 41 10  0    883.3  2045998.8  0.0  2 0  594 1547  835
[03]  22(G23)  f 43  7  0  -4193.5  2046005.4  0.1  2 0 1446 2278 1185
[16]  38(B02)  7 36 10  0  -2425.0  4092006.6 -0.0  2 0  275  390  493
[17]  41(B05) 1f 41 27  0  -1109.9  4092002.8 -0.5  2 0  704 1083  610
[19]  54(B18)  7 43  7  0   -982.2  4092002.5  0.0  2 0 1120 1838 1368
[20]  55(B19)  7 44  7  0   -627.4  4092001.6 -0.0  2 0 1970 2702 1382
[21]  58(B22)  7  7  7  0  -3532.7  4092009.3  0.1 10 0  265  516 1685
[32]  80(N-1)  7 38 12  0     39.4  1022000.0 -0.4  2 0   192  757  400
[33]  81(N00)  7 25  8  0   -301.6  1022000.2  0.1 10 0   863  273  239
[34]  82(N01)  7 41  7  0  -2259.6  1022001.3 -0.1  2 0   882 1332  296
[35]  85(N04)  1 28 23  0  -4392.9  1022002.7  1.0  1 0  1199 1474  633
[49]  41(B05)  1 21 22  0  -1223.6 20460021.1  0.1  1 0  271  379  374
kf residual = 0.000000
$GNGGA,024201.724,,,,,0,00,,,M,,,,0000*2F
$GNRMC,024201.724,A,,,,,,,160419,,*29
$GPGSA,A,1,,,,,,,,,,,,,,,*1E
$BDGSA,A,1,,,,,,,,,,,,,,,*0F
$GLGSA,A,1,,,,,,,,,,,,,,,*02
$GPGSV,1,1,04,03,00,000,46,16,00,000,41,22,00,000,41,23,00,000,43*7D
$BDGSV,1,1,03,05,00,000,41,18,00,000,43,19,00,000,44*5D
$B3CN0,0,0,0,0,0,0,0,0,0,0,0,0,0,0*4C
---00000012--- Acq_st=3 0  2019-4-16 2:42:1 
[00]  02(G03)  f 46  7  0    245.8  2045999.6  0.0  2 0 2808 4559 1976
[01]  15(G16)  f 43  7  0  -1843.3  2046002.3 -0.0  2 0 1739 2271  774
[02]  21(G22)  f 41  7  0    881.2  2045998.8 -0.0  2 0 1312 2048  821
[03]  22(G23)  f 44 10  0  -4197.3  2046005.4 -0.1  2 0 1890 2254  978
[17]  41(B05) 1f 41 24  0  -1111.9  4092002.8  0.2  2 0  544  932  157
[19]  54(B18)  7 43  7  0   -981.2  4092002.5 -0.0  2 0 1452 2171  916
[20]  55(B19)  7 44  7  0   -628.8  4092001.5  0.0  2 0 2122 2685 1103
[21]  58(B22)  7  7  7  0  -3408.3  4092008.9 -0.1 10 0 1154 2152 1968
[32]  80(N-1)  7 37  7  0     40.0  1022000.0 -0.3  2 0   662  796  755
[33]  81(N00)  7 33 21  0   -303.6  1022000.0  0.0  5 0    72  462  432
[34]  82(N01)  7 42  7  0  -2256.9  1022001.3 -0.1  2 0   862 1307  424
[35]  85(N04)  7 42 23  0  -4386.2  1022002.7 -0.2  2 0   559 1195  770
[49]  41(B05)  1 22 23  0   -905.4 20460021.2 -0.2  1 0  198  585  548
kf residual = 0.000000
$GNGGA,024202.724,,,,,0,00,,,M,,,,0000*2C
$GNRMC,024202.724,A,,,,,,,160419,,*2A
$GPGSA,A,1,,,,,,,,,,,,,,,*1E
$BDGSA,A,1,,,,,,,,,,,,,,,*0F
$GLGSA,A,1,,,,,,,,,,,,,,,*02
$GPGSV,1,1,04,03,00,000,46,16,00,000,43,22,00,000,41,23,00,000,44*78
$BDGSV,1,1,03,05,00,000,41,18,00,000,43,19,00,000,44*5D
$B3CN0,0,0,0,0,0,0,0,0,0,0,0,0,0,0*4C
---00000013--- Acq_st=3 0  2019-4-16 2:42:2 
[00]  02(G03)  f 46  7  0    243.1  2045999.6 -0.0  2 0 2818 4784 1940
[01]  15(G16)  f 43  7  0  -1846.1  2046002.3 -0.1  2 0 1414 2297 1064
[02]  21(G22)  f 42  7  0    880.0  2045998.8  0.1  2 0 1167 2058  705
[03]  22(G23)  f 44  7  0  -4197.5  2046005.4  0.0  2 0 1215 2456  876
[17]  41(B05) 1f 41 23  0  -1115.8  4092002.7 -0.1  2 0  927 1509  685
[19]  54(B18)  7 43  7  0   -981.9  4092002.5  0.0  2 0 1558 2073  758
[20]  55(B19)  7 44  9  0   -630.6  4092001.5 -0.0  2 0 1977 2624 1118
[32]  80(N-1)  f 32  7  0     36.7  1022000.0 -0.1  5 0   351  696  309
[33]  81(N00)  7 33 23  0   -308.0  1022000.2 -0.0  5 0    47  742  428
[34]  82(N01)  f 33  7  0  -2263.5  1022001.4 -0.0  5 0  1161 1509  204
[35]  85(N04)  7 44 22  0  -4390.4  1022002.8 -0.0  2 0   964 1683  884
[49]  41(B05)  1 23 21  0   -893.0 20460021.6 -0.1  1 0  276  205  439
kf residual = 0.000000
$GNGGA,024203.724,,,,,0,00,,,M,,,,0000*2D
$GNRMC,024203.724,A,,,,,,,160419,,*2B
$GPGSA,A,1,,,,,,,,,,,,,,,*1E
$BDGSA,A,1,,,,,,,,,,,,,,,*0F
$GLGSA,A,1,,,,,,,,,,,,,,,*02
$GPGSV,1,1,04,03,00,000,46,16,00,000,43,22,00,000,42,23,00,000,44*7B
$BDGSV,1,1,03,05,00,000,40,18,00,000,43,19,00,000,44*5C
$B3CN0,0,0,0,0,0,0,0,0,0,0,0,0,0,0*4C
---00000014--- Acq_st=3 0  2019-4-16 2:42:3 
[00]  02(G03)  f 46  8  0    245.3  2045999.6  0.0  2 0 2485 4062 2025
[01]  15(G16)  f 43  7  0  -1845.4  2046002.3  0.0  2 0  948 2093 1023
[02]  21(G22)  f 42 11  0    878.8  2045998.8  0.0  2 0 1365 2133  755
[03]  22(G23)  f 44  7  0  -4196.3  2046005.4 -0.1  2 0 1515 2510 1134
[16]  46(B10)  1  7  7  0  -1250.0  4092002.2  0.1  1 0  825 1208  318
[17]  41(B05) 1f 41 25  0  -1114.1  4092002.8 -0.2  2 0  702 1397  544
[19]  54(B18) 1f 43  7  0   -982.3  4092002.5 -0.0  2 0 1672 2523  918
[20]  55(B19) 1f 44  7  0   -630.5  4092001.5  0.0  2 0 1842 2694 1090
[32]  80(N-1)  f 35  7  0     38.5  1022000.0  0.0  2 0   297  533  455
[33]  81(N00)  7 34 22  0   -305.0  1022000.0 -0.0  5 0   461  906  213
[34]  82(N01)  f 42  7  0  -2258.9  1022001.4 -0.1  2 0  1051 1394  356
[35]  85(N04)  7 44 23  0  -4386.7  1022002.8 -0.0  2 0  1499 1934  853
[49]  41(B05)  1 25 27  1    -94.2 20460020.6  0.1  1 0  623  577  555
---00000015--- Acq_st=3 0  2019-4-16 2:42:4 
[00]  02(G03)  f 45  7  0    248.8  2045999.6 -0.0  2 0 2523 4267 1963
[01]  15(G16)  f 42  7  0  -1841.8  2046002.3 -0.0  2 0 1199 1949 1344
[02]  21(G22)  f 42  7  0    884.0  2045998.8 -0.0  2 0 1179 1927  839
[03]  22(G23)  f 43  7  0  -4194.1  2046005.4  0.0  2 0 1214 2055 1175
[16]  46(B10)  1  7  7  0  -1072.7  4092002.8  0.4  1 0  894 1568  736
[17]  41(B05) 1f 41 22  0  -1115.4  4092002.8  0.4  2 0 1619 1396  335
[19]  54(B18) 1f 43  7  0   -979.8  4092002.4 -0.1  2 0 1923 2265 1024
[20]  55(B19) 1f 45  7  0   -625.6  4092001.5 -0.0  2 0 2204 3054 1512
[32]  80(N-1)  f 35  7  0     42.9  1021999.9  0.0  2 0   784  739  232
[33]  81(N00)  f 30 19  0   -299.3  1022000.2  0.1  5 0   313  491  250
[34]  82(N01)  f 41  7  0  -2255.7  1022001.4 -0.0  2 0   951 1545  535
[35]  85(N04)  f 34 21  0  -4386.5  1022002.8 -0.1  5 0  1549 2111  796
[51]  54(B18)  1  7  7  0   -457.9 20460016.5 -0.0  1 0  227  202  407
[52]  55(B19)  1  7  7  0    307.9 20460008.4  0.1  1 0  588  127  432
kf residual = 0.000000
$GNGGA,024204.724,,,,,0,00,,,M,,,,0000*2A
$GNRMC,024204.724,A,,,,,,,160419,,*2C
$GPGSA,A,1,,,,,,,,,,,,,,,*1E
$BDGSA,A,1,,,,,,,,,,,,,,,*0F
$GLGSA,A,1,,,,,,,,,,,,,,,*02
$GPGSV,1,1,04,03,00,000,45,16,00,000,42,22,00,000,42,23,00,000,43*7E
$BDGSV,1,1,03,05,00,000,41,18,00,000,43,19,00,000,45*5C
$B3CN0,0,0,0,0,0,0,0,0,0,0,0,0,0,0*4C
---00000016--- Acq_st=3 0  2019-4-16 2:42:5 
[00]  02(G03)  f 45  8  0    245.2  2045999.6  0.0  2 0 2130 3754 1719
[01]  15(G16)  f 42  7  0  -1839.6  2046002.3 -0.0  2 0 1072 2021 1011
[02]  21(G22)  f 43  7  0    878.3  2045998.8 -0.0  2 0 1245 1763  499
[03]  22(G23)  f 43  7  0  -4194.6  2046005.4  0.0  2 0 1168 2184  790
[16]  46(B10)  7 34  7  0  -1075.6  4092002.8  0.3  5 0  978 1621  872
[17]  41(B05) 1f 41 24  0  -1113.0  4092002.7  0.2  2 0  896 1189  523
[19]  54(B18) 1f 44  7  0   -981.7  4092002.4  0.1  2 0 1726 2422 1059
[20]  55(B19) 1f 45  7  0   -628.1  4092001.5  0.0  2 0 1906 2746  950
[32]  80(N-1)  f 37  7  0     40.6  1021999.9  0.2  2 0   635  669  554
[33]  81(N00)  f 33 16  0   -303.2  1022000.2 -0.0  5 0   409  605  497
[34]  82(N01)  f 41  7  0  -2259.9  1022001.4 -0.0  2 0   844 1458  847
[35]  85(N04)  f 43 22  0  -4387.4  1022002.8 -0.0  2 0   942 2061  973
[49]  41(B05)  1 27 25  1  -1192.4 20460018.9 -0.2  1 0  507  867  543
[51]  54(B18)  1  7  7  0    173.6 20460015.2  0.2  1 0  327  598  781
[52]  55(B19)  1  7  7  0     60.8 20460011.3  0.0  1 0  249  263  430
kf residual = 0.000000
$GNGGA,024205.724,,,,,0,00,,,M,,,,0000*2B
$GNRMC,024205.724,A,,,,,,,160419,,*2D
$GPGSA,A,1,,,,,,,,,,,,,,,*1E
$BDGSA,A,1,,,,,,,,,,,,,,,*0F
$GLGSA,A,1,,,,,,,,,,,,,,,*02
$GPGSV,1,1,04,03,00,000,45,16,00,000,42,22,00,000,43,23,00,000,43*7F
$BDGSV,1,1,04,10,00,000,34,05,00,000,41,18,00,000,44,19,00,000,45*6A
$B3CN0,0,0,0,0,0,0,0,0,0,0,0,0,0,0*4C
---00000017--- Acq_st=3 0  2019-4-16 2:42:6 
[00]  02(G03)  f 45  7  0    245.0  2045999.7 -0.0  2 0 1589 3318 1337
[01]  15(G16)  f 42  7  0  -1843.1  2046002.3 -0.0  2 0 1150 1699  697
[02]  21(G22)  f 43  7  0    881.3  2045998.8  0.0  2 0 1072 1862  858
[03]  22(G23)  f 43  7  0  -4193.2  2046005.4 -0.0  2 0 1031 1915 1027
[16]  46(B10)  7 41  7  0  -1071.4  4092002.7 -0.1  2 0  821 1415  793
[17]  41(B05) 1f 40 24  0  -1110.8  4092002.9 -0.2  2 0  619 1074  766
[19]  54(B18) 1f 44  7  0   -981.1  4092002.5  0.0  2 0 2007 2477  820
[20]  55(B19) 1f 45  7  0   -629.1  4092001.5 -0.0  2 0 2235 2938 1044
[32]  80(N-1)  f 37  7  0     44.0  1021999.9  0.2  2 0   491  742  315
[33]  81(N00)  f 34 18  0   -301.5  1022000.1  0.2  5 0   610  516  241
[34]  82(N01)  f 41  7  0  -2258.8  1022001.4 -0.1  2 0   299 1242  713
[35]  85(N04)  f 43 22  0  -4386.0  1022002.8 -0.0  2 0  1604 2494 1240
[49]  41(B05)  1 21 23  1  -1396.9 20460022.8 -0.0  1 0  931  764  153
[51]  54(B18)  1  7  7  0     96.6 20460016.6  0.1  1 0 1173  822  318
[52]  55(B19)  1  7  7  0    174.7 20460010.2 -0.1  1 0  456  117  673
kf residual = 0.000000
$GNGGA,024206.724,,,,,0,00,,,M,,,,0000*28
$GNRMC,024206.724,A,,,,,,,160419,,*2E
$GPGSA,A,1,,,,,,,,,,,,,,,*1E
$BDGSA,A,1,,,,,,,,,,,,,,,*0F
$GLGSA,A,1,,,,,,,,,,,,,,,*02
$GPGSV,1,1,04,03,00,000,45,16,00,000,42,22,00,000,43,23,00,000,43*7F
$BDGSV,1,1,04,10,00,000,41,05,00,000,40,18,00,000,44,19,00,000,45*69
$B3CN0,0,0,0,0,0,0,0,0,0,0,0,0,0,0*4C
---00000018--- Acq_st=7 0  2019-4-16 2:42:7 
[00]  02(G03)  f 45  8  0    249.5  2045999.6  0.0  2 0 2016 3509 1931
[01]  15(G16)  f 42  7  0  -1838.3  2046002.3 -0.0  2 0 1128 1849  951
[02]  21(G22)  f 43  7  0    881.6  2045998.8 -0.0  2 0 1663 2602 1354
[03]  22(G23)  f 43  7  0  -4191.1  2046005.4  0.0  2 0 1468 2371 1366
[16]  46(B10)  7 42  7  0  -1069.8  4092002.7 -0.0  2 0 1068 1688  567
[17]  41(B05) 1f 40 27  0  -1110.8  4092002.7  0.3  2 0 1085 1154  489
[19]  54(B18) 1f 44  7  0   -980.5  4092002.5  0.0  2 0 1939 2593 1212
[20]  55(B19) 1f 44  7  0   -625.7  4092001.5 -0.0  2 0 2200 2778 1358
[32]  80(N-1)  f 37  7  0     46.1  1021999.9  0.1  2 0   695  925  504
[33]  81(N00)  f 35 20  0   -298.1  1022000.0 -0.0  2 0   754  349  257
[34]  82(N01)  f 41  7  0  -2256.2  1022001.4 -0.1  2 0   480 1012  530
[35]  85(N04)  f 43 23  0  -4383.3  1022002.8 -0.0  2 0   792 1796  909
[49]  41(B05)  1 24 23  1   -830.5 20460017.8  0.0  1 0  453  331  217
[51]  54(B18)  1  7  7  0   -156.5 20460016.6 -0.1  1 0  244  273  362
[52]  55(B19)  1  7  7  0    -49.4 20460010.4 -0.0  1 0  597  435  304
kf residual = 0.000000
$GNGGA,024207.724,,,,,0,00,,,M,,,,0000*29
$GNRMC,024207.724,A,,,,,,,160419,,*2F
$GPGSA,A,1,,,,,,,,,,,,,,,*1E
$BDGSA,A,1,,,,,,,,,,,,,,,*0F
$GLGSA,A,1,,,,,,,,,,,,,,,*02
$GPGSV,1,1,04,03,00,000,45,16,00,000,42,22,00,000,43,23,00,000,43*7F
$BDGSV,1,1,04,10,00,000,42,05,00,000,40,18,00,000,44,19,00,000,44*6B
$B3CN0,0,0,0,0,0,0,0,0,0,0,0,0,0,0*4C
---00000019--- Acq_st=7 0  2019-4-16 2:42:8 
[00]  02(G03)  f 44  7  0    247.6  2045999.7  0.0  2 0 1176 2845 1602
[01]  15(G16)  f 43  7  0  -1844.0  2046002.3 -0.1  2 0 1180 2183  919
[02]  21(G22)  f 43  7  0    881.1  2045998.8  0.1  2 0 1407 2029  857
[03]  22(G23)  f 44  7  0  -4194.1  2046005.4  0.0  2 0 2319 3014 1538
[16]  46(B10)  7 41  7  0  -1074.3  4092002.7 -0.0  2 0  749 1561  678
[17]  41(B05) 1f 41 17  0  -1113.8  4092002.8 -0.5  2 0  934 1447  402
[19]  54(B18) 1f 44  7  0   -982.5  4092002.4 -0.0  2 0 2052 2507 1170
[20]  55(B19) 1f 44  7  0   -625.2  4092001.5  0.0  2 0 2499 3533 1670
[32]  80(N-1)  f 37  7  0     43.2  1021999.9 -0.1  2 0   424  699  321
[33]  81(N00)  f 37 21  0   -299.8  1022000.0 -0.2  2 0   934  710  273
[34]  82(N01)  f 41  7  0  -2258.1  1022001.4 -0.0  2 0   998 1486  872
[35]  85(N04)  f 42 22  0  -4386.8  1022002.8 -0.0  2 0   921 1591  995
[49]  41(B05)  1 19 18  1   -533.4 20460022.4 -0.2  1 0  253  606  414
kf residual = 0.000000
$GNGGA,024208.724,,,,,0,00,,,M,,,,0000*26
$GNRMC,024208.724,A,,,,,,,160419,,*20
$GPGSA,A,1,,,,,,,,,,,,,,,*1E
$BDGSA,A,1,,,,,,,,,,,,,,,*0F
$GLGSA,A,1,,,,,,,,,,,,,,,*02
$GPGSV,1,1,04,03,00,000,44,16,00,000,43,22,00,000,43,23,00,000,44*78
$BDGSV,1,1,04,10,00,000,41,05,00,000,41,18,00,000,44,19,00,000,44*69
$B3CN0,0,0,0,0,0,0,0,0,0,0,0,0,0,0*4C
---00000020--- Acq_st=3 0  2019-4-16 2:42:9 
[00]  02(G03)  f 44  7  0    250.3  2045999.7  0.0  2 0 1413 2808 1156
[01]  15(G16)  f 42  7  0  -1842.1  2046002.3  0.1  2 0 1168 2046 1071
[02]  21(G22)  f 43  7  0    879.0  2045998.8 -0.0  2 0 1044 2001 1004
[03]  22(G23)  f 44  7  0  -4195.3  2046005.4 -0.0  2 0 2438 3029 1282
[16]  46(B10) 1f 41  7  0  -1074.5  4092002.7 -0.0  2 0  677 1071  541
[17]  41(B05) 1f 41 24  0  -1115.4  4092002.8  0.4  2 0 1146 1321  667
[19]  54(B18) 1f 44  7  0   -981.8  4092002.4  0.0  2 0 1616 2518  972
[20]  55(B19) 1f 44  7  0   -624.9  4092001.5 -0.0  2 0 2812 3060 1510
[32]  80(N-1)  f 37  7  0     43.3  1022000.0  0.0  2 0   474  886  466
[33]  81(N00)  f 38 17  0   -299.6  1022000.1  0.6  2 0   948 1037  440
[34]  82(N01)  f 41  7  0  -2259.0  1022001.4 -0.0  2 0   479 1267  944
[35]  85(N04)  f 42 22  0  -4385.8  1022002.8 -0.1  2 0   657 1396  790
[51]  54(B18)  1  7  7  0  -1025.5 20460015.8 -0.0  1 0  254   72  371
[52]  55(B19)  1  7  9  0   -200.9 20460011.6  0.0  1 0  611   97  466
kf residual = 0.000000
$GNGGA,024209.724,,,,,0,00,,,M,,,,0000*27
$GNRMC,024209.724,A,,,,,,,160419,,*21
$GPGSA,A,1,,,,,,,,,,,,,,,*1E
$BDGSA,A,1,,,,,,,,,,,,,,,*0F
$GLGSA,A,1,,,,,,,,,,,,,,,*02
$GPGSV,1,1,04,03,00,000,44,16,00,000,42,22,00,000,43,23,00,000,44*79
$BDGSV,1,1,04,10,00,000,41,05,00,000,41,18,00,000,44,19,00,000,44*69
$B3CN0,0,0,0,0,0,0,0,0,0,0,0,0,0,0*4C
---00000021--- Acq_st=3 0  2019-4-16 2:42:10 
[00]  02(G03)  f 44  7  0    250.4  2045999.7  0.0  2 0 1579 2893 1554
[01]  15(G16)  f 42  7  0  -1841.0  2046002.3  0.0  2 0 1094 1557  685
[02]  21(G22)  f 43  7  0    884.4  2045998.8  0.1  2 0 1228 2206  979
[03]  22(G23)  f 44 10  0  -4194.8  2046005.4 -0.0  2 0 2370 3025 1022
[16]  46(B10) 1f 41  7  0  -1077.9  4092002.7  0.0  2 0 1434 1523  671
[17]  41(B05) 1f 41 24  0  -1117.0  4092002.8 -0.3  2 0  958 1238  630
[19]  54(B18) 1f 43  7  0   -980.8  4092002.4  0.0  2 0 1526 1993  793
[20]  55(B19) 1f 44  7  0   -625.3  4092001.5  0.0  2 0 2425 3039 1390
[32]  80(N-1)  f 36  7  0     45.7  1022000.0 -0.1  2 0   468  534  393
[33]  81(N00)  f 38 20  0   -298.1  1022000.2  0.3  2 0   687  925  447
[34]  82(N01)  f 41  7  0  -2257.1  1022001.5 -0.1  2 0   289  865  672
[35]  85(N04)  f 40 22  0  -4388.9  1022002.8  0.1  2 0   493  619  278
[48]  46(B10)  1  7  7  0  -1120.5 20460018.4  0.1  1 0  468  830  722
[49]  41(B05)  1 22 23  0   -625.8 20460018.9  0.1  1 0  522  381   48
[51]  54(B18)  1  7  7  0   -949.6 20460014.7 -0.2  1 0  580  765  872
[52]  55(B19)  1  7 11  0     92.5 20460011.0 -0.2  1 0  348  172  181
kf residual = 0.000000
$GNGGA,024210.724,,,,,0,00,,,M,,,,0000*2F
$GNRMC,024210.724,A,,,,,,,160419,,*29
$GPGSA,A,1,,,,,,,,,,,,,,,*1E
$BDGSA,A,1,,,,,,,,,,,,,,,*0F
$GLGSA,A,1,,,,,,,,,,,,,,,*02
$GPGSV,1,1,04,03,00,000,44,16,00,000,42,22,00,000,43,23,00,000,44*79
$BDGSV,1,1,04,10,00,000,41,05,00,000,41,18,00,000,43,19,00,000,44*6E
$B3CN0,0,0,0,0,0,0,0,0,0,0,0,0,0,0*4C
---00000022--- Acq_st=3 0  2019-4-16 2:42:11 
[00]  02(G03)  f 43  7  0    251.1  2045999.6 -0.0  2 0 1340 2578 1076
[01]  15(G16)  f 42  7  0  -1839.4  2046002.4 -0.0  2 0  990 1385  583
[02]  21(G22)  f 42  7  0    884.8  2045998.8 -0.0  2 0 1494 2317  562
[03]  22(G23)  f 44  7  0  -4192.7  2046005.4 -0.0  2 0 1905 3096 1480
[16]  46(B10) 1f 41  7  0  -1073.7  4092002.7  0.1  2 0  992 1548  691
[17]  41(B05) 1f 40 25  0  -1116.7  4092002.9  0.1  2 0  750 1076  426
[18]  38(B02)  1 10 30  1  -1000.0  4092002.1  0.3  1 0  349  419  848
[19]  54(B18) 1f 43  7  0   -980.7  4092002.5 -0.1  2 0 2253 2561 1005
[20]  55(B19) 1f 44  7  0   -624.5  4092001.5 -0.0  2 0 2025 2840 1395
[32]  80(N-1)  f 36  7  0     46.8  1021999.9  0.1  2 0   103  510  282
[33]  81(N00)  f 38 20  0   -298.6  1022000.1  0.8  2 0   626 1117  931
[34]  82(N01)  f 40  7  0  -2256.4  1022001.4  0.1  2 0   267 1090  414
[35]  85(N04)  f 36 22  0  -4388.2  1022002.9  0.1  2 0   332  509  160
[48]  46(B10)  1  7  7  0  -1680.2 20460018.2 -0.1  1 0  250  527  745
[49]  41(B05)  1 24 26  0  -1186.6 20460019.7 -0.0  1 0  213  661  693
[51]  54(B18)  1  7  7  0  -1287.7 20460015.5 -0.1  1 0  368  945  741
[52]  55(B19)  1  7  7  0   -102.9 20460011.6 -0.0  1 0  288  432   31
kf residual = 0.000000
$GNGGA,024211.724,,,,,0,00,,,M,,,,0000*2E
$GNRMC,024211.724,A,,,,,,,160419,,*28
$GPGSA,A,1,,,,,,,,,,,,,,,*1E
$BDGSA,A,1,,,,,,,,,,,,,,,*0F
$GLGSA,A,1,,,,,,,,,,,,,,,*02
$GPGSV,1,1,04,03,00,000,43,16,00,000,42,22,00,000,42,23,00,000,44*7F
$BDGSV,1,1,04,10,00,000,41,05,00,000,40,18,00,000,43,19,00,000,44*6F
$B3CN0,0,0,0,0,0,0,0,0,0,0,0,0,0,0*4C
---00000023--- Acq_st=3 0  2019-4-16 2:42:12 
[00]  02(G03)  f 43 11  0    246.8  2045999.6 -0.0  2 0 1618 2526 1366
[01]  15(G16)  f 42  7  0  -1840.4  2046002.3 -0.1  2 0 1290 2053  929
[02]  21(G22)  f 42  7  0    881.9  2045998.8  0.0  2 0  952 2260 1165
[03]  22(G23)  f 45  7  0  -4194.0  2046005.4 -0.0  2 0 1679 2653 1273
[16]  46(B10) 1f 41  7  0  -1074.0  4092002.7 -0.0  2 0  484  737  330
[17]  41(B05) 1f 41 22  0  -1117.4  4092002.8  0.5  2 0 1170 1356  605
[18]  38(B02)  1 10 10  0   -788.3  4092003.8  0.2  1 0  192  450  203
[19]  54(B18) 1f 44  7  0   -983.0  4092002.4 -0.1  2 0 1666 2478 1191
[20]  55(B19) 1f 44  7  0   -626.3  4092001.5  0.0  2 0 2105 2575 1254
[32]  80(N-1)  f 36  7  0     46.8  1021999.9 -0.1  2 0   148  595  252
[33]  81(N00)  f 38 19  0   -299.6  1022000.2 -0.5  2 0   558 1162  619
[34]  82(N01)  f 40  7  0  -2260.2  1022001.4  0.0  2 0   554  985  577
[35]  85(N04)  f 34 20  0  -4390.0  1022002.8  0.1  2 0    61  516  405
[48]  46(B10)  1  7  7  0  -1664.5 20460017.1 -0.1  1 0  142  139  109
[49]  41(B05)  1 23 25  1  -1194.2 20460014.8 -0.0  1 0  403  376  729
[51]  54(B18)  1  7  7  0  -1880.9 20460016.0 -0.1  1 0  794  800  616
[52]  55(B19)  1  7  7  0   -297.8 20460010.6  0.1  1 0  359  361  190
kf residual = 0.000000
$GNGGA,024212.724,,,,,0,00,,,M,,,,0000*2D
$GNRMC,024212.724,A,,,,,,,160419,,*2B
$GPGSA,A,1,,,,,,,,,,,,,,,*1E
$BDGSA,A,1,,,,,,,,,,,,,,,*0F
$GLGSA,A,1,,,,,,,,,,,,,,,*02
$GPGSV,1,1,04,03,00,000,43,16,00,000,42,22,00,000,42,23,00,000,45*7E
$BDGSV,1,1,04,10,00,000,41,05,00,000,41,18,00,000,44,19,00,000,44*69
$B3CN0,0,0,0,0,0,0,0,0,0,0,0,0,0,0*4C
---00000024--- Acq_st=3 0  2019-4-16 2:42:13 
[00]  02(G03)  f 44  7  0    248.1  2045999.6  0.0  2 0 2084 2996 1136
[01]  15(G16)  f 42  9  0  -1837.4  2046002.3  0.1  2 0 1583 2360 1132
[02]  21(G22)  f 42  7  0    882.1  2045998.8 -0.0  2 0 1353 1656  712
[03]  22(G23)  f 44  7  0  -4191.4  2046005.4 -0.0  2 0 2961 3499 1083
[16]  46(B10) 1f 41  7  0  -1070.6  4092002.7 -0.0  2 0  968 1832  822
[17]  41(B05) 1f 40 22  0  -1117.6  4092002.7  0.5  2 0  933 1131  578
[18]  38(B02)  1 14 27  1  -1045.0  4092004.3  0.1  1 0  216  312  399
[19]  54(B18) 1f 43  7  0   -981.8  4092002.5  0.0  2 0 2223 2561  511
[20]  55(B19) 1f 44  7  0   -623.6  4092001.5 -0.0  2 0 2382 3232 1397
[32]  80(N-1)  f 37  7  0     47.2  1021999.9 -0.1  2 0   573  799  448
[33]  81(N00)  f 37 16  0   -300.3  1022000.2 -0.0  2 0   676  821  437
[34]  82(N01)  f 41  7  0  -2257.8  1022001.4 -0.1  2 0   811 1337  545
[35]  85(N04)  f 35 22  0  -4385.9  1022002.7  0.0  2 0   376  347  331
[48]  46(B10)  1  7  7  0  -2096.2 20460017.3  0.1  1 0  447  764  620
[49]  41(B05)  1 24 21  0  -1248.3 20460023.0  0.2  1 0  462  446  752
kf residual = 0.000000
$GNGGA,024213.724,,,,,0,00,,,M,,,,0000*2C
$GNRMC,024213.724,A,,,,,,,160419,,*2A
$GPGSA,A,1,,,,,,,,,,,,,,,*1E
$BDGSA,A,1,,,,,,,,,,,,,,,*0F
$GLGSA,A,1,,,,,,,,,,,,,,,*02
$GPGSV,1,1,04,03,00,000,44,16,00,000,42,22,00,000,42,23,00,000,44*78
$BDGSV,1,1,04,10,00,000,41,05,00,000,40,18,00,000,43,19,00,000,44*6F
$B3CN0,0,0,0,0,0,0,0,0,0,0,0,0,0,0*4C
---00000025--- Acq_st=3 0  2019-4-16 2:42:14 
[00]  02(G03)  f 44  7  0    254.0  2045999.6  0.0  2 0 2119 3077 1692
[01]  15(G16)  f 42  7  0  -1834.0  2046002.3 -0.0  2 0 1408 2250 1116
[02]  21(G22)  f 43  7  0    890.0  2045998.8  0.0  2 0 1253 1900  917
[03]  22(G23)  f 44  7  0  -4186.9  2046005.4  0.0  2 0 2234 3179 1460
[16]  46(B10) 1f 41  7  0  -1063.3  4092002.7  0.0  2 0 1439 2057 1058
[17]  41(B05) 1f 41 27  0  -1109.6  4092002.8 -0.1  2 0 1476 1833  607
[18]  38(B02)  7 22 25  1  -1028.3  4092002.7  0.0  2 0  335  427  459
[19]  54(B18) 1f 43  7  0   -975.2  4092002.4  0.1  2 0 2330 3024 1290
[20]  55(B19) 1f 44  7  0   -616.8  4092001.5 -0.0  2 0 2800 3466 1419
[21]  58(B22)  1  7  7  0  -3155.2  4092009.2  0.1  1 0 2193 3568 2040
[32]  80(N-1)  f 37  7  0     54.8  1021999.9  0.0  2 0   744  761  485
[33]  81(N00)  f 37 17  0   -295.0  1022000.2  0.0  2 0   308  509  172
[34]  82(N01)  f 41  7  0  -2253.6  1022001.4  0.1  2 0   808 1274  835
[35]  85(N04)  f 39 22  0  -4378.3  1022002.7  0.2  2 0   923 1473  781
[51]  54(B18)  1  7  7  0   -984.6 20460014.6  0.1  1 0  547  187   99
[52]  55(B19)  1  7  7  0   -678.7 20460008.1 -0.1  1 0  354  356  401
kf residual = 0.000000
$GNGGA,024214.724,,,,,0,00,,,M,,,,0000*2B
$GNRMC,024214.724,A,,,,,,,160419,,*2D
$GPGSA,A,1,,,,,,,,,,,,,,,*1E
$BDGSA,A,1,,,,,,,,,,,,,,,*0F
$GLGSA,A,1,,,,,,,,,,,,,,,*02
$GPGSV,1,1,04,03,00,000,44,16,00,000,42,22,00,000,43,23,00,000,44*79
$BDGSV,2,1,05,10,00,000,41,05,00,000,41,02,00,000,22,18,00,000,43*66
$BDGSV,2,2,05,19,00,000,44*55
$B3CN0,0,0,0,0,0,0,0,0,0,0,0,0,0,0*4C
---00000026--- Acq_st=3 0  2019-4-16 2:42:15 
[00]  02(G03)  f 45  7  0    258.9  2045999.6  0.0  2 0 1861 3442 1679
[01]  15(G16)  f 42  7  0  -1829.6  2046002.3  0.0  2 0 1037 2097 1011
[02]  21(G22)  f 43  7  0    892.4  2045998.8 -0.0  2 0 1269 2337  792
[03]  22(G23)  f 44  7  0  -4185.4  2046005.4 -0.0  2 0 1496 2621 1650
[16]  46(B10) 1f 41  7  0  -1064.9  4092002.7 -0.0  2 0 1460 1591  721
[17]  41(B05) 1f 41 24  0  -1109.9  4092002.7  0.2  2 0 1381 1488  795
[18]  38(B02)  7 21 30  1  -1005.9  4092002.6 -0.2  2 0  457  523  845
[19]  54(B18) 1f 43  7  0   -973.6  4092002.4  0.0  2 0 2037 2222  720
[20]  55(B19) 1f 44  7  0   -616.6  4092001.5  0.0  2 0 2598 3197 1327
[21]  58(B22)  7 21  7  0  -3149.0  4092008.1  0.4 10 0 2676 3689 1991
[32]  80(N-1)  f 37  7  0     59.2  1021999.9  0.0  2 0   477  516  268
[33]  81(N00)  f 37 23  0   -289.3  1022000.2  0.2  2 0   441 1082  521
[34]  82(N01)  f 41  7  0  -2249.4  1022001.4 -0.0  2 0   294 1092  790
[35]  85(N04)  f 40 23  0  -4375.6  1022002.8 -0.1  2 0  1340 1805  408
[48]  46(B10)  1  7  7  0   -812.5 20460015.9  0.1  1 0  500  417   64
[49]  41(B05)  1 27 22  0  -1295.3 20460015.7  0.0  1 0  213  429  201
[51]  54(B18)  1  7  7  0   -922.6 20460015.5  0.0  1 0  480  735  121
[52]  55(B19)  1  7  7  0   -995.0 20460009.8  0.1  1 0  508  372   97
kf residual = 0.000000
$GNGGA,024215.724,,,,,0,00,,,M,,,,0000*2A
$GNRMC,024215.724,A,,,,,,,160419,,*2C
$GPGSA,A,1,,,,,,,,,,,,,,,*1E
$BDGSA,A,1,,,,,,,,,,,,,,,*0F
$GLGSA,A,1,,,,,,,,,,,,,,,*02
$GPGSV,1,1,04,03,00,000,45,16,00,000,42,22,00,000,43,23,00,000,44*78
$BDGSV,2,1,06,10,00,000,41,05,00,000,41,02,00,000,21,18,00,000,43*66
$BDGSV,2,2,06,19,00,000,44,22,00,000,21*65
$B3CN0,0,0,0,0,0,0,0,0,0,0,0,0,0,0*4C
---00000027--- Acq_st=7 0  2019-4-16 2:42:16 
[00]  02(G03)  f 45  7  0    254.9  2045999.6 -0.0  2 0 2325 3615 1661
[01]  15(G16)  f 42  7  0  -1833.5  2046002.3  0.1  2 0  842 1802 1031
[02]  21(G22)  f 42  7  0    887.3  2045998.8  0.0  2 0 1233 1871  699
[03]  22(G23)  f 44  7  0  -4185.4  2046005.4 -0.1  2 0 1231 1792 1226
[16]  46(B10) 1f 41  7  0  -1065.6  4092002.7  0.1  2 0 1282 1810  731
[17]  41(B05) 1f 41 25  0  -1108.0  4092002.8 -0.3  2 0 1211 1165  141
[18]  38(B02)  7 20 26  1   -981.9  4092002.5 -0.0  2 0  288  390  409
[19]  54(B18) 1f 43  7  0   -980.7  4092002.4  0.0  2 0 2010 2731 1199
[20]  55(B19) 1f 44  7  0   -616.9  4092001.5 -0.0  2 0 2319 3004 1489
[21]  58(B22)  7 46  7  0  -3151.4  4092008.1 -0.0  2 0 2982 3627 1390
[32]  80(N-1)  f 37  7  0     53.2  1022000.0 -0.2  2 0   525  814  180
[33]  81(N00)  f 38 20  0   -292.2  1022000.1  0.1  2 0   601 1116  420
[34]  82(N01)  f 41  7  0  -2251.9  1022001.4 -0.1  2 0   955 1016  665
[35]  85(N04)  f 40 23  0  -4378.9  1022002.7  0.0  2 0   952 1173  574
[48]  46(B10)  1 11  7  0   -986.8 20460018.3  0.1  1 0  361  649  926
[49]  41(B05)  1 24 26  0  -1388.1 20460022.0 -0.1  1 0  563  112  915
[51]  54(B18)  1  7  7  0  -1032.8 20460013.8 -0.1  1 0 1079  581  313
[52]  55(B19)  1  7  7  0  -1334.1 20460011.0 -0.2  1 0  151  116  585
kf residual = 0.000000
$GNGGA,024216.724,,,,,0,00,,,M,,,,0000*29
$GNRMC,024216.724,A,,,,,,,160419,,*2F
$GPGSA,A,1,,,,,,,,,,,,,,,*1E
$BDGSA,A,1,,,,,,,,,,,,,,,*0F
$GLGSA,A,1,,,,,,,,,,,,,,,*02
$GPGSV,1,1,04,03,00,000,45,16,00,000,42,22,00,000,42,23,00,000,44*79
$BDGSV,2,1,06,10,00,000,41,05,00,000,41,02,00,000,20,18,00,000,43*67
$BDGSV,2,2,06,19,00,000,44,22,00,000,46*64
$B3CN0,0,0,0,0,0,0,0,0,0,0,0,0,0,0*4C
---00000028--- Acq_st=7 0  2019-4-16 2:42:17 
[00]  02(G03)  f 45  7  0    251.4  2045999.6  0.0  2 0 2150 3621 1923
[01]  15(G16)  f 42  7  0  -1829.6  2046002.3 -0.0  2 0 1178 1945  672
[02]  21(G22)  f 43  7  0    883.7  2045998.8 -0.0  2 0 1380 2118  666
[03]  22(G23)  f 44  9  0  -4193.8  2046005.4  0.0  2 0 1259 2443  895
[16]  46(B10) 1f 40  7  0  -1074.0  4092002.7 -0.1  2 0  798 1222  542
[17]  41(B05) 1f 41 25  0  -1112.5  4092002.7 -0.3  2 0  738 1208  619
[18]  38(B02)  7 22 28  1  -1006.9  4092002.6 -0.0  2 0  171  253   49
[19]  54(B18) 1f 43  7  0   -980.9  4092002.4 -0.0  2 0 2326 2393 1002
[20]  55(B19) 1f 44  9  0   -622.5  4092001.5  0.0  2 0 2139 2501 1073
[21]  58(B22)  7 45  7  0  -3156.4  4092008.1  0.0  2 0 2811 3586 1687
[32]  80(N-1)  f 36  7  0     51.0  1021999.9  0.1  2 0   452  937   49
[33]  81(N00)  f 38 19  0   -298.7  1022000.1  0.6  2 0   529  875  360
[34]  82(N01)  f 40  7  0  -2257.4  1022001.4  0.1  2 0   671 1094  607
[35]  85(N04)  f 41 23  0  -4381.5  1022002.7  0.1  2 0  1008 1266  268
[48]  46(B10)  1  7  7  0   -411.1 20460017.2  0.2  1 0  396  259  154
[49]  41(B05)  1 24 25  0  -1223.4 20460023.9 -0.0  1 0  270  194  588
[51]  54(B18)  1  7  7  0   -842.5 20460012.7 -0.1  1 0  966 1074  595
[52]  55(B19)  1 10  7  0  -1246.9 20460007.6 -0.0  1 0  548  540  373
kf residual = 0.000000
$GNGGA,024217.724,,,,,0,00,,,M,,,,0000*28
$GNRMC,024217.724,A,,,,,,,160419,,*2E
$GPGSA,A,1,,,,,,,,,,,,,,,*1E
$BDGSA,A,1,,,,,,,,,,,,,,,*0F
$GLGSA,A,1,,,,,,,,,,,,,,,*02
$GPGSV,1,1,04,03,00,000,45,16,00,000,42,22,00,000,43,23,00,000,44*78
$BDGSV,2,1,06,10,00,000,40,05,00,000,41,02,00,000,22,18,00,000,43*64
$BDGSV,2,2,06,19,00,000,44,22,00,000,45*67
$B3CN0,0,0,0,0,0,0,0,0,0,0,0,0,0,0*4C
---00000029--- Acq_st=3 0  2019-4-16 2:42:18 
[00]  02(G03)  f 45  7  0    255.9  2045999.6 -0.0  2 0 2456 3719 1386
[01]  15(G16)  f 42  7  0  -1837.7  2046002.3 -0.0  2 0 1536 2249 1071
[02]  21(G22)  f 43  7  0    885.8  2045998.8 -0.0  2 0 1801 2080  652
[03]  22(G23)  f 43  7  0  -4189.1  2046005.4  0.0  2 0 1083 2052  694
[16]  46(B10) 1f 40  7  0  -1070.9  4092002.7  0.0  2 0 1129 1518  189
[17]  41(B05) 1f 41 23  0  -1113.5  4092002.9 -0.6  2 0 1268 1442  613
[18]  38(B02)  7 23 28  1  -1001.4  4092002.6  0.1  2 0   99  441  136
[19]  54(B18) 1f 43  7  0   -981.3  4092002.4  0.0  2 0 2195 2525  944
[20]  55(B19) 1f 45  7  0   -618.1  4092001.5  0.1  2 0 2608 3569 2066
[21]  58(B22)  7 45  7  0  -3153.1  4092008.2  0.0  2 0 2797 3280 1329
[32]  80(N-1)  f 37  7  0     57.4  1021999.9  0.3  2 0   400  778  621
[33]  81(N00)  f 37 22  0   -295.8  1022000.2 -0.2  2 0   657  864  468
[34]  82(N01)  f 41  7  0  -2253.9  1022001.4 -0.1  2 0   555  840  585
[35]  85(N04)  f 42 22  0  -4377.1  1022002.8 -0.0  2 0   558  915  587
[48]  46(B10)  1  7  7  0   -933.4 20460018.7 -0.1  1 0  249  321  616
[49]  41(B05)  1 23 20  0  -1366.4 20460019.9 -0.1  1 0  309  277  242
kf residual = 0.000000
$GNGGA,024218.724,,,,,0,00,,,M,,,,0000*27
$GNRMC,024218.724,A,,,,,,,160419,,*21
$GPGSA,A,1,,,,,,,,,,,,,,,*1E
$BDGSA,A,1,,,,,,,,,,,,,,,*0F
$GLGSA,A,1,,,,,,,,,,,,,,,*02
$GPGSV,1,1,04,03,00,000,45,16,00,000,42,22,00,000,43,23,00,000,43*7F
$BDGSV,2,1,06,10,00,000,40,05,00,000,41,02,00,000,23,18,00,000,43*65
$BDGSV,2,2,06,19,00,000,45,22,00,000,45*66
$B3CN0,0,0,0,0,0,0,0,0,0,0,0,0,0,0*4C
---00000030--- Acq_st=3 0  2019-4-16 2:42:19 
[00]  02(G03)  f 45  7  0    253.3  2045999.6  0.1  2 0 2487 3418 1452
[01]  15(G16)  f 43  7  0  -1837.2  2046002.3  0.2  2 0  650 1783  935
[02]  21(G22)  f 43  7  0    886.6  2045998.8  0.0  2 0 1271 2039  752
[03]  22(G23)  f 43  7  0  -4193.9  2046005.4 -0.0  2 0 1502 2363  999
[16]  46(B10) 1f 40  7  0  -1074.5  4092002.7  0.0  2 0 1530 1938  801
[17]  41(B05) 1f 40 24  0  -1110.9  4092002.7  0.1  2 0 1072 1677  826
[18]  38(B02)  7 23 25  1  -1006.3  4092002.6  0.1  2 0  274  360  318
[19]  54(B18) 1f 44  7  0   -981.5  4092002.4 -0.0  2 0 2089 2332  628
[20]  55(B19) 1f 45  7  0   -618.8  4092001.5  0.0  2 0 2308 2832 1020
[21]  58(B22)  7 45  7  0  -3154.3  4092008.2 -0.0  2 0 2141 3260 1708
[32]  80(N-1)  f 37  7  0     51.9  1022000.0  0.2  2 0   267  724  192
[33]  81(N00)  f 36 17  0   -298.4  1022000.2 -0.1  2 0   330  705  360
[34]  82(N01)  f 41  7  0  -2255.4  1022001.4 -0.1  2 0   856 1330  981
[35]  85(N04)  f 41 23  0  -4379.2  1022002.7 -0.0  2 0   650 1008  247
[51]  54(B18)  1  7  7  0   -880.6 20460015.1  0.1  1 0  997 1026  567
[52]  55(B19)  1  7  7  0   -584.8 20460008.0 -0.0  1 0  596  108  313
kf residual = 0.000000
$GNGGA,024219.724,,,,,0,00,,,M,,,,0000*26
$GNRMC,024219.724,A,,,,,,,160419,,*20
$GPGSA,A,1,,,,,,,,,,,,,,,*1E
$BDGSA,A,1,,,,,,,,,,,,,,,*0F
$GLGSA,A,1,,,,,,,,,,,,,,,*02
$GPGSV,1,1,04,03,00,000,45,16,00,000,43,22,00,000,43,23,00,000,43*7E
$BDGSV,2,1,06,10,00,000,40,05,00,000,40,02,00,000,23,18,00,000,44*63
$BDGSV,2,2,06,19,00,000,45,22,00,000,45*66
$B3CN0,0,0,0,0,0,0,0,0,0,0,0,0,0,0*4C
---00000031--- Acq_st=3 0  2019-4-16 2:42:20 
[00]  02(G03)  f 45  7  0    254.8  2045999.6 -0.0  2 0 2351 3621 1894
[01]  15(G16)  f 42  7  0  -1833.1  2046002.3 -0.0  2 0  916 1814  673
[02]  21(G22)  f 44  7  0    886.4  2045998.8  0.0  2 0 1018 2248  810
[03]  22(G23)  f 43  7  0  -4190.1  2046005.4  0.0  2 0 1581 2505 1098
[16]  46(B10) 1f 41  7  0  -1072.7  4092002.7  0.1  2 0  954 1340  692
[17]  41(B05) 1f 40 21  0  -1111.5  4092002.8  0.3  2 0  730 1071  408
[18]  38(B02)  7 10 25  1   -780.0  4092002.0 -0.1  2 0  135  172  117
[19]  54(B18) 1f 44  7  0   -980.4  4092002.4  0.0  2 0 1588 2415 1261
[20]  55(B19) 1f 45  7  0   -619.5  4092001.5 -0.0  2 0 3009 3543 1532
[21]  58(B22)  7 44  7  0  -3150.5  4092008.2  0.0  2 0 2268 3080 1093
[32]  80(N-1)  f 37  7  0     57.3  1021999.9  0.1  2 0    97  443  301
[33]  81(N00)  f 36 13  0   -298.0  1022000.1 -0.1  2 0   359  524  398
[34]  82(N01)  f 40  7  0  -2252.6  1022001.4 -0.1  2 0   571 1152  734
[35]  85(N04)  f 41 23  0  -4377.6  1022002.7 -0.1  2 0   755  897  636
[48]  46(B10)  1  7  7  0   -677.9 20460016.7 -0.1  1 0  482  335  863
[49]  41(B05)  1 25 25  0   -786.2 20460019.4 -0.0  1 0  561  535  532
[51]  54(B18)  1  7  7  0   -967.1 20460016.0  0.1  1 0  608  441  474
[52]  55(B19)  1 10  7  0   -449.6 20460009.4 -0.0  1 0  405  368  717
kf residual = 0.000000
$GNGGA,024220.724,,,,,0,00,,,M,,,,0000*2C
$GNRMC,024220.724,A,,,,,,,160419,,*2A
$GPGSA,A,1,,,,,,,,,,,,,,,*1E
$BDGSA,A,1,,,,,,,,,,,,,,,*0F
$GLGSA,A,1,,,,,,,,,,,,,,,*02
$GPGSV,1,1,04,03,00,000,45,16,00,000,42,22,00,000,44,23,00,000,43*78
$BDGSV,2,1,05,10,00,000,41,05,00,000,40,18,00,000,44,19,00,000,45*6B
$BDGSV,2,2,05,22,00,000,44*5D
$B3CN0,0,0,0,0,0,0,0,0,0,0,0,0,0,0*4C
---00000032--- Acq_st=3 0  2019-4-16 2:42:21 
[00]  02(G03)  f 45  7  0    255.1  2045999.6 -0.0  2 0 2702 4063 2004
[01]  15(G16)  f 42  7  0  -1833.7  2046002.3 -0.0  2 0 1067 1895  876
[02]  21(G22)  f 44  7  0    887.4  2045998.8  0.1  2 0 1796 2599 1045
[03]  22(G23)  f 43  7  0  -4189.0  2046005.4 -0.0  2 0  887 2373 1244
[16]  46(B10) 1f 41  7  0  -1075.4  4092002.7  0.1  2 0 1092 1592  612
[17]  41(B05) 1f 41 23  0  -1110.8  4092002.8  0.5  2 0 1112 1557  775
[18]  38(B02)  7 22 31  1  -1015.8  4092002.4  0.1  2 0  217  645  323
[19]  54(B18) 1f 44  7  0   -980.2  4092002.5  0.0  2 0 2095 2635 1437
[20]  55(B19) 1f 44  7  0   -618.1  4092001.5  0.0  2 0 2750 3404 1324
[21]  58(B22) 1f 44  9  0  -3152.5  4092008.2 -0.0  2 0 1996 2530 1066
[32]  80(N-1)  f 35  7  0     57.8  1022000.0  0.1  2 0   261  221  289
[33]  81(N00)  f 35 22  0   -299.7  1022000.3  0.0  2 0   241  683  391
[34]  82(N01)  f 41  7  0  -2254.1  1022001.4  0.1  2 0   577 1575  914
[35]  85(N04)  f 41 23  0  -4379.3  1022002.7 -0.1  2 0   922 1426  750
[48]  46(B10)  1  7  7  0   -193.5 20460017.1 -0.0  1 0  219  254  531
[49]  41(B05)  1 24 22  1   -623.2 20460020.1  0.1  1 0  548  284  190
[51]  54(B18)  1  7  7  0   -763.4 20460014.5  0.0  1 0  281  474  407
[52]  55(B19)  1 13  7  0   -498.9 20460007.7  0.1  1 0  320  169  289
kf residual = 0.000000
$GNGGA,024221.724,,,,,0,00,,,M,,,,0000*2D
$GNRMC,024221.724,A,,,,,,,160419,,*2B
$GPGSA,A,1,,,,,,,,,,,,,,,*1E
$BDGSA,A,1,,,,,,,,,,,,,,,*0F
$GLGSA,A,1,,,,,,,,,,,,,,,*02
$GPGSV,1,1,04,03,00,000,45,16,00,000,42,22,00,000,44,23,00,000,43*78
$BDGSV,2,1,06,10,00,000,41,05,00,000,41,02,00,000,22,18,00,000,44*62
$BDGSV,2,2,06,19,00,000,44,22,00,000,44*66
$B3CN0,0,0,0,0,0,0,0,0,0,0,0,0,0,0*4C
---00000033--- Acq_st=3 0  2019-4-16 2:42:22 
[00]  02(G03)  f 45 10  0    253.8  2045999.6 -0.0  2 0 3188 4299 1820
[01]  15(G16)  f 42  7  0  -1839.7  2046002.3  0.1  2 0 1258 1927  430
[02]  21(G22)  f 44  7  0    884.8  2045998.8  0.0  2 0 1808 2841 1373
[03]  22(G23)  f 43  7  0  -4191.8  2046005.4  0.0  2 0 1140 2011 1163
[16]  46(B10) 1f 41  7  0  -1069.9  4092002.7  0.0  2 0 1129 1740  997
[17]  41(B05) 1f 40 19  0  -1115.4  4092002.8 -0.2  2 0  783  975  652
[18]  38(B02)  7 36 26  0   -957.6  4092002.5  0.0  2 0  745  201  272
[19]  54(B18) 1f 44  7  0   -985.0  4092002.5 -0.0  2 0 1626 2408 1042
[20]  55(B19) 1f 44  7  0   -620.3  4092001.5  0.0  2 0 2231 3029 1222
[21]  58(B22) 1f 44  7  0  -3154.4  4092008.2  0.1  2 0 1965 2680 1177
[32]  80(N-1)  f 35  7  0     55.4  1022000.0  0.1  2 0   160  569  327
[33]  81(N00)  f 35 19  0   -302.0  1022000.2  0.2  2 0    87  624  448
[34]  82(N01)  f 41  7  0  -2255.3  1022001.4 -0.1  2 0  1060 1151  580
[35]  85(N04)  f 41 23  0  -4381.1  1022002.7 -0.1  2 0   692  981  487
[48]  46(B10)  1  7  7  0   -371.0 20460016.0  0.1  1 0  781  393  548
[49]  41(B05)  1 21 22  1   -356.2 20460023.1  0.1  1 0  187  599  713
[51]  54(B18)  1  7  7  0  -1223.1 20460014.3 -0.1  1 0  147  216  393
[52]  55(B19)  1  7  7  0    -28.7 20460008.6 -0.1  1 0  308  221  230
[53]  58(B22)  1  7  7  0  -1876.8 20460048.9  0.1  1 0  746  579  195
kf residual = 0.000000
$GNGGA,024222.724,,,,,0,00,,,M,,,,0000*2E
$GNRMC,024222.724,A,,,,,,,160419,,*28
$GPGSA,A,1,,,,,,,,,,,,,,,*1E
$BDGSA,A,1,,,,,,,,,,,,,,,*0F
$GLGSA,A,1,,,,,,,,,,,,,,,*02
$GPGSV,1,1,04,03,00,000,45,16,00,000,42,22,00,000,44,23,00,000,43*78
$BDGSV,2,1,05,10,00,000,41,05,00,000,40,18,00,000,44,19,00,000,44*6A
$BDGSV,2,2,05,22,00,000,44*5D
$B3CN0,0,0,0,0,0,0,0,0,0,0,0,0,0,0*4C
---00000034--- Acq_st=3 0  2019-4-16 2:42:23 
[00]  02(G03)  f 45  7  0    258.8  2045999.6  0.0  2 0 3064 4042 2042
[01]  15(G16)  f 42  7  0  -1829.2  2046002.3 -0.1  2 0  971 1848  686
[02]  21(G22)  f 44  7  0    887.8  2045998.8 -0.1  2 0 1789 2732 1334
[03]  22(G23)  f 43  7  0  -4187.8  2046005.4 -0.0  2 0 1498 2343 1044
[16]  46(B10) 1f 41  7  0  -1068.9  4092002.7 -0.1  2 0  925 1491  531
[17]  41(B05) 1f 41 24  0  -1107.7  4092002.8 -0.1  2 0  449 1149  590
[18]  38(B02)  7 25 28  1  -1055.3  4092002.7  0.0  2 0  220  386  494
[19]  54(B18) 1f 44  7  0   -977.0  4092002.4  0.0  2 0 1960 2179  697
[20]  55(B19) 1f 45  7  0   -614.3  4092001.5  0.0  2 0 2383 3295 1573
[21]  58(B22) 1f 44  9  0  -3150.5  4092008.1  0.0  2 0 2169 2676  940
[32]  80(N-1)  f 34  7  0     58.2  1021999.9 -0.1  2 0   398  889  257
[33]  81(N00)  f 35 17  0   -293.6  1022000.1 -0.0  2 0   437  663  232
[34]  82(N01)  f 41  7  0  -2249.8  1022001.4  0.0  2 0   641 1110  687
[35]  85(N04)  f 41 23  0  -4375.6  1022002.7 -0.2  2 0   556 1127  744
[48]  46(B10)  1  7 10  0    364.6 20460016.7 -0.0  1 0  597  648  342
[49]  41(B05)  1 22 22  0      4.2 20460021.8  0.1  1 0  634  584  289
[53]  58(B22)  1 11  7  0  -1819.3 20460050.4 -0.0  1 0   78  372  397
kf residual = 0.000000
$GNGGA,024223.724,,,,,0,00,,,M,,,,0000*2F
$GNRMC,024223.724,A,,,,,,,160419,,*29
$GPGSA,A,1,,,,,,,,,,,,,,,*1E
$BDGSA,A,1,,,,,,,,,,,,,,,*0F
$GLGSA,A,1,,,,,,,,,,,,,,,*02
$GPGSV,1,1,04,03,00,000,45,16,00,000,42,22,00,000,44,23,00,000,43*78
$BDGSV,2,1,06,10,00,000,41,05,00,000,41,02,00,000,25,18,00,000,44*65
$BDGSV,2,2,06,19,00,000,45,22,00,000,44*67
$B3CN0,0,0,0,0,0,0,0,0,0,0,0,0,0,0*4C
---00000035--- Acq_st=3 0  2019-4-16 2:42:24 
[00]  02(G03)  f 45  7  0    256.6  2045999.6 -0.0  2 0 2551 3807 1617
[01]  15(G16)  f 42  7  0  -1831.0  2046002.3 -0.0  2 0 1588 1825 1032
[02]  21(G22)  f 43  7  0    886.0  2045998.8 -0.0  2 0 2082 2904 1165
[03]  22(G23)  f 43  7  0  -4186.8  2046005.4  0.1  2 0 1494 2331 1369
[16]  46(B10) 1f 41  7  0  -1075.2  4092002.7 -0.0  2 0  794 1417  363
[17]  41(B05) 1f 41 25  0  -1113.3  4092002.7 -0.0  2 0 1466 1289  377
[18]  38(B02)  7 21 30  1  -1011.1  4092002.4  0.1  2 0  451  318  348
[19]  54(B18) 1f 43  7  0   -980.2  4092002.4 -0.0  2 0 1754 2540 1195
[20]  55(B19) 1f 44  7  0   -617.1  4092001.5 -0.1  2 0 2120 2761 1007
[21]  58(B22) 1f 44  7  0  -3152.3  4092008.2 -0.1  2 0 1252 1914 1110
[32]  80(N-1)  f 34  7  0     57.0  1022000.0  0.0  2 0   535  799  553
[33]  81(N00)  f 35 20  0   -294.0  1022000.2  0.1  2 0   275  710  743
[34]  82(N01)  f 41  7  0  -2251.5  1022001.4  0.0  2 0  1311 1442  534
[35]  85(N04)  f 42 22  0  -4375.7  1022002.7  0.1  2 0   944 1614  977
[36]  75(N-6)  1 17  7  0   2750.1  1021999.4 -0.0  1 0   432  347  134
[51]  54(B18)  1  7  7  0   -589.9 20460013.8  0.1  1 0  285  244  573
[52]  55(B19)  1  7  7  0   -934.3 20460010.8  0.0  1 0  674  790  287
[53]  58(B22)  1  7  7  0  -1514.8 20460052.6 -0.2  1 0  404  312  553
ls residual = 0.013045
kf residual = 0.013045
$GNGGA,024224.591,2944.9237,N,10633.0836,E,1,05,6.4,325.6,M,,,,0000*15
$GNRMC,024224.591,A,2944.9237,N,10633.0836,E,0.30,0.00,160419,,*14
$GPGSA,A,3,03,16,22,23,,,,,,,,,8.8,6.4,6.1*32
$BDGSA,A,3,05,,,,,,,,,,,,8.8,6.4,6.1*23
$GLGSA,A,3,,,,,,,,,,,,,8.8,6.4,6.1*2B
$GPGSV,1,1,04,03,00,000,45,16,00,000,42,22,00,000,43,23,00,000,43*7F
$BDGSV,2,1,06,10,00,000,41,05,00,000,41,02,00,000,21,18,00,000,43*66
$BDGSV,2,2,06,19,00,000,44,22,00,000,44*66
$B3CN0,0,0,0,0,0,0,0,0,0,0,0,0,0,0*4C
---00000036--- Acq_st=7 0  2019-4-16 2:42:25 
[00]  02(G03)  f 45 12  0    256.9  2045999.6  0.1  2 0 2993 4109 1715
[01]  15(G16)  f 42  7  0  -1830.0  2046002.3 -0.1  2 0 1167 2150 1531
[02]  21(G22)  f 44  7  0    886.7  2045998.8  0.1  2 0 1187 2689 1052
[03]  22(G23)  f 43  7  0  -4189.7  2046005.3  0.0  2 0 2009 2673 1233
[16]  46(B10) 1f 41  7  0  -1071.1  4092002.7 -0.1  2 0 1185 1272  397
[17]  41(B05) 1f 41 24  0  -1113.2  4092002.9 -0.5  2 0 1009 1032  519
[18]  38(B02)  7 19 27  1  -1003.1  4092002.6 -0.2  2 0  136  379  283
[19]  54(B18) 1f 43  7  0   -978.8  4092002.4 -0.0  2 0 1676 2110 1024
[20]  55(B19) 1f 44  7  0   -617.3  4092001.5  0.0  2 0 2016 2622 1233
[21]  58(B22) 1f 43  8  0  -3151.9  4092008.2  0.0  2 0 1499 1774  575
[32]  80(N-1)  f 35  7  0     60.9  1021999.9  0.0  2 0   292  486  279
[33]  81(N00)  f 35 16  0   -296.6  1022000.2  0.0  2 0   421  523  277
[34]  82(N01)  f 41  7  0  -2253.4  1022001.4 -0.1  2 0   503 1364  725
[35]  85(N04)  f 42 24  0  -4374.2  1022002.7  0.0  2 0   801 1594 1067
[36]  75(N-6)  1 25  7  0   2752.4  1021998.6 -0.0  1 0   149  396  486
[48]  46(B10)  1  9  7  0   -759.8 20460018.0 -0.3  1 0  741  252  217
[49]  41(B05)  1 25 25  0  -1026.0 20460018.0 -0.0  1 0  608  276  689
[51]  54(B18)  1  7  7  0    -53.8 20460016.4  0.1  1 0  731  616   62
[52]  55(B19)  1  7  7  0   -773.3 20460009.3  0.0  1 0  590  375  219
[53]  58(B22)  1  7  7  0  -1289.4 20460051.9  0.2  1 0  140  237  264
ls residual = 0.000082
kf residual = 3.980333
Refix G03: 2, 182563.924751, 253
Refix G16: 2, 182563.932857, -1833
Refix G22: 2, 182563.922607, 884
Refix G23: 2, 182563.923440, -4191
Refix G32: 1, 182563.921151, 2173
$GNGGA,024226.000,2944.9223,N,10633.0801,E,1,05,1.8,315.1,M,,,,0000*14
$GNRMC,024226.000,A,2944.9223,N,10633.0801,E,0.49,0.00,160419,,*14
$GPGSA,A,3,03,16,22,23,,,,,,,,,2.6,1.8,1.9*32
$BDGSA,A,3,05,,,,,,,,,,,,2.6,1.8,1.9*23
$GLGSA,A,3,,,,,,,,,,,,,2.6,1.8,1.9*2B
$GPGSV,1,1,04,03,00,000,45,16,00,000,42,22,00,000,44,23,00,000,43*78
$BDGSV,2,1,06,10,00,000,41,05,00,000,41,02,00,000,19,18,00,000,43*6D
$BDGSV,2,2,06,19,00,000,44,22,00,000,43*61
$B3CN0,0,0,0,0,0,0,0,0,0,0,0,0,0,0*4C
---00000037--- Acq_st=7 0  2019-4-16 2:42:26 
[00]  02(G03)  f 45  7  0    253.7  2045999.6 -0.0  2 0 2970 4398 2026
[01]  15(G16)  f 43  7  0  -1836.0  2046002.3  0.0  2 0 1476 1911  989
[02]  21(G22)  f 44  7  0    885.8  2045998.8 -0.1  2 0  885 2176  786
[03]  22(G23)  f 43  7  0  -4192.6  2046005.4  0.0  2 0 1330 2878 1618
[16]  46(B10) 1f 41  7  0  -1076.2  4092002.6  0.0  2 0 1038 1566  710
[17]  41(B05) 1f 40 24  0  -1118.2  4092002.8  0.4  2 0 1307 1668 1026
[18]  38(B02)  7 18 30  1   -971.3  4092002.7  0.0  2 0  273  505  272
[19]  54(B18) 1f 43  7  0   -984.1  4092002.5  0.0  2 0 2048 2477 1025
[20]  55(B19) 1f 44  7  0   -617.8  4092001.5 -0.0  2 0 2402 2727 1270
[21]  58(B22) 1f 43  7  0  -3155.0  4092008.2 -0.0  2 0 1110 1552  599
[32]  80(N-1)  f 36  7  0     55.3  1021999.9 -0.1  2 0   363  647  332
[33]  81(N00)  f 35 20  0   -301.1  1022000.2 -0.0  2 0   113  430  387
[34]  82(N01)  f 40  7  0  -2255.9  1022001.5  0.0  2 0   645 1305  703
[35]  85(N04)  f 43 22  0  -4377.0  1022002.8  0.0  2 0   834 1995  912
[36]  75(N-6)  1 16 20  0   2462.0  1021998.6 -0.0  1 0   540  131  389
[48]  46(B10)  1  7  7  0   -553.6 20460018.0 -0.1  1 0  792  743  538
[49]  41(B05)  1 22 21  0   -997.9 20460018.7  0.0  1 0  408  304  339
[51]  54(B18)  1  7  7  0   -879.3 20460014.6  0.1  1 0  781  410  127
[52]  55(B19)  1  7  7  0   -840.9 20460009.2 -0.0  1 0  370  459  273
ls residual = 0.000153
kf residual = 7.211952
Refix G03: 2, 182564.924751, 250
Refix G16: 2, 182564.932858, -1837
Refix G22: 2, 182564.922606, 881
Refix G23: 2, 182564.923442, -4197
Refix G32: 1, 182564.921150, 2170
$GNGGA,024227.000,2944.9213,N,10633.0803,E,1,05,1.8,308.9,M,,,,0000*10
$GNRMC,024227.000,A,2944.9213,N,10633.0803,E,0.57,0.00,160419,,*1B
$GPGSA,A,3,03,16,22,23,,,,,,,,,2.6,1.8,1.9*32
$BDGSA,A,3,05,,,,,,,,,,,,2.6,1.8,1.9*23
$GLGSA,A,3,,,,,,,,,,,,,2.6,1.8,1.9*2B
$GPGSV,2,1,05,03,32,256,45,16,72,253,43,22,27,232,44,23,31,317,43*7B
$GPGSV,2,2,05,32,19,139,00*4E
$BDGSV,2,1,06,10,00,000,41,05,26,244,40,02,00,000,18,18,00,000,43*6B
$BDGSV,2,2,06,19,00,000,44,22,00,000,43*61
$B3CN0,0,0,0,0,0,0,0,0,0,0,0,0,0,0*4C
---00000038--- Acq_st=3 0  2019-4-16 2:42:27 
[00]  02(G03)  f 45  7  0    254.4  2045999.6  0.1  2 0 2782 4395 1790
[01]  15(G16)  f 43  7  0  -1833.0  2046002.3 -0.0  2 0 1002 1943 1278
[02]  21(G22)  f 43  7  0    882.9  2045998.9  0.0  2 0 1430 2367 1167
[03]  22(G23)  f 43  7  0  -4193.3  2046005.4 -0.0  2 0 1674 2430 1220
[16]  46(B10) 1f 41  7  0  -1075.1  4092002.7  0.0  2 0 1464 1905  651
[17]  41(B05) 1f 41 10  0  -1118.9  4092002.8 -0.4  2 0 1126 1317  317
[18]  38(B02)  7 10 28  1  -1002.9  4092002.7 -0.0  2 0  733  713  337
[19]  54(B18) 1f 44  7  0   -984.4  4092002.5 -0.0  2 0 2014 2267 1056
[20]  55(B19) 1f 44  7  0   -617.9  4092001.5  0.1  2 0 1828 2758 1140
[21]  58(B22) 1f 42  7  0  -3155.6  4092008.2  0.0  2 0 1252 1687 1181
[32]  80(N-1)  f 36  7  0     57.5  1021999.9 -0.1  2 0    73  668  491
[33]  81(N00)  f 35 22  0   -300.4  1022000.1  0.1  2 0   277  386  264
[34]  82(N01)  f 40  7  0  -2256.3  1022001.4 -0.1  2 0   368  904  396
[35]  85(N04)  f 43 24  0  -4377.2  1022002.7 -0.1  2 0  1287 1922  696
[36]  75(N-6)  1 16  7  0   2726.4  1021998.1  0.0  1 0   250  176  389
[48]  46(B10)  1  7  7  0   -733.3 20460018.0  0.2  1 0  409  556  510
[49]  41(B05)  1 21 21  0   -656.0 20460021.4 -0.0  1 0  510  360  454
[51]  54(B18)  1  7  7  0   -770.2 20460014.6 -0.1  1 0  600  268  446
[52]  55(B19)  1  7  7  0   -693.0 20460008.7 -0.1  1 0  395  412  709
[53]  58(B22)  1  7  7  0  -2263.2 20460051.1  0.0  1 0  361  238  214
ls residual = 0.000231
kf residual = 10.946272
Refix G03: 2, 182565.924751, 249
Refix G16: 2, 182565.932859, -1836
Refix G22: 2, 182565.922606, 880
Refix G23: 2, 182565.923445, -4197
Refix G32: 1, 182565.921148, 2171
$GNGGA,024228.000,2944.9205,N,10633.0803,E,1,05,1.8,305.3,M,,,,0000*1F
$GNRMC,024228.000,A,2944.9205,N,10633.0803,E,1.20,0.00,160419,,*12
$GPGSA,A,3,03,16,22,23,,,,,,,,,2.6,1.8,1.9*32
$BDGSA,A,3,05,,,,,,,,,,,,2.6,1.8,1.9*23
$GLGSA,A,3,,,,,,,,,,,,,2.6,1.8,1.9*2B
$GPGSV,2,1,05,03,32,256,45,16,72,253,43,22,27,232,43,23,31,317,43*7C
$GPGSV,2,2,05,32,19,139,00*4E
$BDGSV,2,1,05,10,00,000,41,05,26,244,41,18,00,000,44,19,00,000,44*6D
$BDGSV,2,2,05,22,00,000,42*5B
$B3CN0,0,0,0,0,0,0,0,0,0,0,0,0,0,0*4C
---00000039--- Acq_st=3 0  2019-4-16 2:42:28 
[00]  02(G03)  f 46  7  0    256.2  2045999.6  0.0  2 0 2854 4041 1948
[01]  15(G16)  f 43  7  0  -1830.4  2046002.3 -0.0  2 0 1247 1840  958
[02]  21(G22)  f 42  7  0    885.3  2045998.8  0.0  2 0 1276 1789  937
[03]  22(G23)  f 43  7  0  -4193.5  2046005.4  0.0  2 0 1427 2814 1537
[16]  46(B10) 1f 41  7  0  -1075.2  4092002.7 -0.0  2 0  981 1449  393
[17]  41(B05) 1f 41 24  0  -1117.1  4092002.9  0.1  2 0 1110 1283  462
[18]  38(B02)  7 10 10  0  -1461.4  4092003.7 -0.1  2 0  173  131  245
[19]  54(B18) 1f 43  7  0   -982.8  4092002.5 -0.0  2 0 1944 2308 1430
[20]  55(B19) 1f 44  7  0   -616.9  4092001.5 -0.0  2 0 2573 3098 1521
[21]  58(B22) 1f 42 10  0  -3151.7  4092008.2 -0.1  2 0  801 1236  762
[32]  80(N-1)  f 36  7  0     61.0  1021999.9  0.1  2 0   816  837   74
[33]  81(N00)  f 36 15  0   -298.1  1022000.0 -0.3  2 0   317  315  532
[34]  82(N01)  f 40  7  0  -2252.4  1022001.4  0.1  2 0   312  912  726
[35]  85(N04)  f 43 22  0  -4375.9  1022002.7  0.0  2 0   844 1630 1054
[36]  75(N-6)  1 17 20  0   3619.8  1021998.1  0.1  1 0    52  229  253
[48]  46(B10)  1  7  7  0   -445.4 20460019.2 -0.0  1 0  448  112  365
[49]  41(B05)  1 22 23  0  -1271.4 20460021.4  0.0  1 0  350  297  801
[53]  58(B22)  1  7  7  0  -2496.9 20460047.6 -0.0  1 0  177  215   52
ls residual = 0.000342
kf residual = 15.446396
Refix G03: 2, 182566.924751, 254
Refix G16: 2, 182566.932860, -1832
Refix G22: 2, 182566.922605, 884
Refix G23: 2, 182566.923448, -4192
Refix G32: 1, 182566.921147, 2168
$GNGGA,024229.000,2944.9193,N,10633.0815,E,1,05,1.8,302.5,M,,,,0000*14
$GNRMC,024229.000,A,2944.9193,N,10633.0815,E,0.63,0.00,160419,,*1E
$GPGSA,A,3,03,16,22,23,,,,,,,,,2.6,1.8,1.9*32
$BDGSA,A,3,05,,,,,,,,,,,,2.6,1.8,1.9*23
$GLGSA,A,3,,,,,,,,,,,,,2.6,1.8,1.9*2B
$GPGSV,2,1,05,03,32,256,46,16,72,253,43,22,27,232,42,23,31,317,43*7E
$GPGSV,2,2,05,32,19,139,00*4E
$BDGSV,2,1,05,10,00,000,41,05,26,244,41,18,00,000,43,19,00,000,44*6A
$BDGSV,2,2,05,22,00,000,42*5B
$B3CN0,0,0,0,0,0,0,0,0,0,0,0,0,0,0*4C
---00000040--- Acq_st=3 0  2019-4-16 2:42:29 
[00]  02(G03)  f 46  7  0    260.2  2045999.6 -0.0  2 0 2992 4536 1971
[01]  15(G16)  f 43  7  0  -1822.7  2046002.3  0.1  2 0 1439 2022 1073
[02]  21(G22)  f 42 10  0    891.5  2045998.8 -0.1  2 0  819 1686  790
[03]  22(G23)  f 43  7  0  -4188.1  2046005.4  0.0  2 0 1539 2274 1082
[16]  46(B10) 1f 41  7  0  -1068.5  4092002.7 -0.0  2 0 1197 1589  688
[17]  41(B05) 1f 40 23  0  -1109.8  4092002.9 -0.6  2 0 1123 1630 1034
[18]  38(B02)  7 10 20  1  -1768.7  4092004.5  0.2  2 0  200  364  301
[19]  54(B18) 1f 43  7  0   -978.0  4092002.5 -0.0  2 0 1989 2620 1091
[20]  55(B19) 1f 44  7  0   -613.6  4092001.5  0.0  2 0 2350 3167 1683
[21]  58(B22) 1f 41  7  0  -3148.9  4092008.1  0.1  2 0 1133 1737  667
[32]  80(N-1)  f 35  7  0     64.3  1022000.0  0.1  2 0   234  626  620
[33]  81(N00)  f 37 22  0   -293.1  1022000.1 -0.1  2 0   572  761  220
[34]  82(N01)  f 41  7  0  -2249.9  1022001.4 -0.1  2 0   705 1065  910
[35]  85(N04)  f 43 24  0  -4371.4  1022002.8 -0.0  2 0  1477 1696  741
[51]  54(B18)  1  7  7  0   -948.3 20460015.4  0.0  1 0  677  680  321
[52]  55(B19)  1  7  7  0  -1064.5 20460008.9  0.0  1 0  159  272  341
[53]  58(B22)  1 10  7  0  -2826.1 20460050.2 -0.0  1 0  541  586  471
ls residual = 0.000401
kf residual = 15.466471
Refix G03: 2, 182567.924750, 257
Refix G16: 2, 182567.932861, -1830
Refix G22: 2, 182567.922605, 886
Refix G23: 2, 182567.923450, -4190
Refix G32: 1, 182567.921146, 2166
$GNGGA,024230.000,2944.9180,N,10633.0843,E,1,05,1.8,298.4,M,,,,0000*1E
$GNRMC,024230.000,A,2944.9180,N,10633.0843,E,1.78,0.00,160419,,*1C
$GPGSA,A,3,03,16,22,23,,,,,,,,,2.6,1.8,1.9*32
$BDGSA,A,3,05,,,,,,,,,,,,2.6,1.8,1.9*23
$GLGSA,A,3,,,,,,,,,,,,,2.6,1.8,1.9*2B
$GPGSV,2,1,05,03,32,256,46,16,72,253,43,22,27,232,42,23,31,317,43*7E
$GPGSV,2,2,05,32,19,139,00*4E
$BDGSV,2,1,05,10,00,000,41,05,26,244,40,18,00,000,43,19,00,000,44*6B
$BDGSV,2,2,05,22,00,000,41*58
$B3CN0,0,0,0,0,0,0,0,0,0,0,0,0,0,0*4C
---00000041--- Acq_st=3 0  2019-4-16 2:42:30 
[00]  02(G03)  f 46  7  0    260.2  2045999.6  0.0  2 0 3178 4572 2213
[01]  15(G16)  f 42  7  0  -1828.3  2046002.3 -0.0  2 0  730 1065   96
[02]  21(G22)  f 42  7  0    889.4  2045998.8  0.0  2 0  733 1985  817
[03]  22(G23)  f 44  7  0  -4188.4  2046005.4  0.0  2 0 1671 2746 1945
[16]  46(B10) 1f 41  7  0  -1069.4  4092002.7  0.0  2 0 1012 1269  535
[17]  41(B05) 1f 41 25  0  -1115.0  4092002.9  0.3  2 0 1071 1437  790
[18]  38(B02)  7 10 24  1  -1833.0  4092004.9  0.3  2 0  271  651  889
[19]  54(B18) 1f 43  7  0   -979.6  4092002.4  0.0  2 0 1859 2384 1085
[20]  55(B19) 1f 44  7  0   -613.3  4092001.5  0.0  2 0 2624 2879  775
[21]  58(B22) 1f 41  7  0  -3145.7  4092008.2  0.0  2 0 1423 1542  810
[32]  80(N-1)  f 34  7  0     64.3  1021999.9  0.1  2 0   173  550  181
[33]  81(N00)  f 36 20  0   -295.1  1022000.2 -0.3  2 0   495  867  366
[34]  82(N01)  f 41  7  0  -2250.3  1022001.3 -0.1  2 0  1251 1745 1013
[35]  85(N04)  f 43 22  0  -4371.5  1022002.7 -0.0  2 0   951 1882  950
[48]  46(B10)  1  7  7  0   -839.3 20460017.9  0.0  1 0   87  151  329
[49]  41(B05)  1 27 23  0   -828.5 20460018.2  0.0  1 0  225  403  213
[51]  54(B18)  1  7  7  0  -1384.9 20460014.5 -0.1  1 0  635  509  571
[52]  55(B19)  1  7 11  0  -1104.0 20460009.1  0.0  1 0  513  305  743
[53]  58(B22)  1  9  7  0  -2804.6 20460050.5 -0.0  1 0  644  489  488
ls residual = 0.000545
kf residual = 19.161064
Refix G03: 2, 182568.924750, 255
Refix G16: 2, 182568.932863, -1831
Refix G22: 2, 182568.922604, 884
Refix G23: 2, 182568.923453, -4192
Refix G32: 1, 182568.921144, 2164
$GNGGA,024231.000,2944.9170,N,10633.0880,E,1,05,1.8,293.8,M,,,,0000*18
$GNRMC,024231.000,A,2944.9170,N,10633.0880,E,1.69,0.00,160419,,*1D
$GPGSA,A,3,03,16,22,23,,,,,,,,,2.6,1.8,1.9*32
$BDGSA,A,3,05,,,,,,,,,,,,2.6,1.8,1.9*23
$GLGSA,A,3,,,,,,,,,,,,,2.6,1.8,1.9*2B
$GPGSV,2,1,05,03,32,256,46,16,72,253,42,22,27,232,42,23,31,317,44*78
$GPGSV,2,2,05,32,19,139,00*4E
$BDGSV,2,1,05,10,00,000,41,05,26,244,41,18,00,000,43,19,00,000,44*6A
$BDGSV,2,2,05,22,00,000,41*58
$B3CN0,0,0,0,0,0,0,0,0,0,0,0,0,0,0*4C
---00000042--- Acq_st=3 0  2019-4-16 2:42:31 
[00]  02(G03)  f 46  7  0    260.0  2045999.6 -0.0  2 0 2471 4133 1933
[01]  15(G16)  f 42  7  0  -1828.9  2046002.3  0.0  2 0 1559 1890 1267
[02]  21(G22)  f 42  7  0    892.9  2045998.7  0.0  2 0  894 1808  486
[03]  22(G23)  f 44  7  0  -4186.8  2046005.4 -0.0  2 0 1503 2361 1314
[16]  46(B10) 1f 41  7  0  -1077.9  4092002.6 -0.0  2 0 1176 1088  491
[17]  41(B05) 1f 41 24  0  -1111.6  4092002.8  0.6  2 0 1355 1382  531
