FlashID=0x1 0x20 0x18
BBram_blkflag1: 1247: edb8
FW Ver: 1.30  
GPS00 Init Dop:   5000, 40
GPS01 Init Dop:   5000, 40
GPS02 Init Dop:   5000, 40
GPS03 Init Dop:   5000, 40
GPS04 Init Dop:   5000, 40
GPS05 Init Dop:   5000, 40
GPS06 Init Dop:   5000, 40
GPS07 Init Dop:   5000, 40
GPS08 Init Dop:   5000, 40
GPS09 Init Dop:   5000, 40
GPS10 Init Dop:   5000, 40
GPS11 Init Dop:   5000, 40
GPS12 Init Dop:   5000, 40
GPS13 Init Dop:   5000, 40
GPS14 Init Dop:   5000, 40
GPS15 Init Dop:   5000, 40
GPS16 Init Dop:   5000, 40
GPS17 Init Dop:   5000, 40
GPS18 Init Dop:   5000, 40
GPS19 Init Dop:   5000, 40
GPS20 Init Dop:   5000, 40
GPS21 Init Dop:   5000, 40
GPS22 Init Dop:   5000, 40
GPS23 Init Dop:   5000, 40
GPS24 Init Dop:   5000, 40
GPS25 Init Dop:   5000, 40
GPS26 Init Dop:   5000, 40
GPS27 Init Dop:   5000, 40
GPS28 Init Dop:   5000, 40
GPS29 Init Dop:   5000, 40
GPS30 Init Dop:   5000, 40
GPS31 Init Dop:   5000, 40
BDS00 Init Dop:   5000, 40
BDS01 Init Dop:   5000, 40
BDS02 Init Dop:   5000, 40
BDS03 Init Dop:   5000, 40
BDS04 Init Dop:   5000, 40
BDS05 Init Dop:   5000, 40
BDS06 Init Dop:   5000, 40
BDS07 Init Dop:   5000, 40
BDS08 Init Dop:   5000, 40
BDS09 Init Dop:   5000, 40
BDS10 Init Dop:   5000, 40
BDS11 Init Dop:   5000, 40
BDS12 Init Dop:   5000, 40
BDS13 Init Dop:   5000, 40
BDS14 Init Dop:   5000, 40
BDS15 Init Dop:   5000, 40
BDS16 Init Dop:   5000, 40
BDS17 Init Dop:   5000, 40
BDS18 Init Dop:   5000, 40
BDS19 Init Dop:   5000, 40
BDS20 Init Dop:   5000, 40
BDS21 Init Dop:   5000, 40
BDS22 Init Dop:   5000, 40
BDS23 Init Dop:   5000, 40
BDS24 Init Dop:   5000, 40
BDS25 Init Dop:   5000, 40
BDS26 Init Dop:   5000, 40
BDS27 Init Dop:   5000, 40
BDS28 Init Dop:   5000, 40
BDS29 Init Dop:   5000, 40
BDS30 Init Dop:   5000, 40
BDS31 Init Dop:   5000, 40
sat0 = 89891 177 3422 -2250
ch0 satid=0,max_freq = -2250,max_mean = 3422,max_phase = 177,max_value = 89891,acq ok1!
acq ok1 timeH = 0,timeL = 1402422,freq_stage = 4
sat1 = 15349 626 5537 -500
sat2 = 15419 10 5529 -2750
sat3 = 14519 2000 5528 -3500
sat4 = 14241 303 5599 -3000
sat5 = 14726 1039 5506 -2000
sat6 = 14349 38 5644 -2000
sat7 = 14311 51 5455 -500
---00000001--- Acq_st=3 2019-5-27 07:10:30 
[00]  G01  1 30   2284.8 2045997.4 -0.1  0.0  1  0         0
$GNGGA,000000.000,,,,,0,00,,,M,,,,0000*2B
$GNRMC,000000.000,A,,,,,,,000000,,*26
$GPGSA,A,1,,,,,,,,,,,,,,,*1E
$BDGSA,A,1,,,,,,,,,,,,,,,*0F
$LOGTIM,0,0.000000,0.000000,0.000000,0.000000,0.000*0A
EndT:        0
sat8 = 14763 529 5582 4250
sat9 = 14516 1509 5493 4500
sat10 = 142519 60 5535 -2000
ch1 satid=10,max_freq = -2000,max_mean = 5535,max_phase = 60,max_value = 142519,acq ok1!
acq ok1 timeH = 0,timeL = 22693318,freq_stage = 4
sat11 = 14119 2032 5520 -2000
sat12 = 16112 1265 5515 2500
sat13 = 14224 135 5523 -500
sat14 = 15743 50 5599 3250
sat15 = 15564 421 5496 750
sat16 = 131843 1097 5651 1750
ch2 satid=16,max_freq = 1750,max_mean = 5651,max_phase = 1097,max_value = 131843,acq ok1!
acq ok1 timeH = 0,timeL = 34623917,freq_stage = 2
---00000002--- Acq_st=3 2019-5-27 07:10:31 
[00]  G01  7 30   2288.8 2045996.9  0.3  1.0  5  0         1
[01]  G11  1 27   2041.7 2045997.3 -0.1  0.0  1  0         0
[02]  G17  1  7  -1675.6 2046003.9 -0.0  0.0  1  0         0
sat17 = 80607 165 5480 -2750
ch3 satid=17,max_freq = -2750,max_mean = 5480,max_phase = 165,max_value = 80607,acq ok1!
acq ok1 timeH = 0,timeL = 37596964,freq_stage = 4
$GNGGA,000000.000,,,,,0,00,,,M,,,,0000*2B
$GNRMC,000000.000,A,,,,,,,000000,,*26
$GPGSA,A,1,,,,,,,,,,,,,,,*1E
$BDGSA,A,1,,,,,,,,,,,,,,,*0F
$GPGSV,1,1,01,01,00,000,30*4A
$LOGTIM,0,0.000000,0.000000,0.000000,0.000000,0.000*0A
EndT:        0
sat18 = 75806 555 5496 2750
ch4 satid=18,max_freq = 2750,max_mean = 5496,max_phase = 555,max_value = 75806,acq ok1!
acq ok1 timeH = 0,timeL = 38882100,freq_stage = 2
sat19 = 17304 1600 5575 -1500
sat20 = 14598 1341 5576 4500
sat21 = 111417 501 5499 -500
ch5 satid=21,max_freq = -500,max_mean = 5499,max_phase = 501,max_value = 111417,acq ok1!
acq ok1 timeH = 0,timeL = 45691346,freq_stage = 3
sat22 = 15004 927 5524 -3500
sat23 = 15406 139 5608 -3000
sat24 = 14834 198 5563 -250
sat25 = 13684 1562 5547 1000
---00000003--- Acq_st=3 2019-5-27 07:10:32 
[00]  G01  7 40   2289.5 2045997.0  1.0  1.0  5  0        18
[01]  G11  7 28   2043.3 2045997.3  0.2  0.0 10  0        12
[02]  G17  1 27  -1865.8 2046002.8 -0.1  0.0  1  0         7
[03]  G18  1 25   3008.0 2045996.3 -0.1  0.0  1  0         0
[04]  G19  1 23  -2662.9 2046004.7  0.1  0.0  1  0         0
[05]  G22  1 26    504.1 2046000.4  0.1  0.0  1  0         0
sat26 = 14675 1823 5503 -2500
$GNGGA,000000.000,,,,,0,00,,,M,,,,0000*2B
$GNRMC,000000.000,A,,,,,,,000000,,*26
$GPGSA,A,1,,,,,,,,,,,,,,,*1E
$BDGSA,A,1,,,,,,,,,,,,,,,*0F
$GPGSV,1,1,02,01,00,000,40,11,00,000,28*74
$LOGTIM,0,0.000000,0.000000,0.000000,0.000000,0.000*0A
EndT:        0
sat27 = 111294 1308 5475 1500
ch6 satid=27,max_freq = 1500,max_mean = 5475,max_phase = 1308,max_value = 111294,acq ok1!
acq ok1 timeH = 0,timeL = 58043918,freq_stage = 2
sat28 = 14079 1391 5503 4750
sat29 = 14805 86 5427 4000
sat30 = 15442 824 5460 500
sat31 = 16059 15 5556 -4000
sat37 = 2054 1214 578 -2000
---00000004--- Acq_st=3 2019-5-27 07:10:33 
[00]  G01  7 40   2296.1 2045997.0  1.0  1.0  5  0        18
[01]  G11  7 43   2050.1 2045997.4  0.9  1.0  5  0        16
[02]  G17  7 34  -1857.7 2046002.4  0.3  1.0  5  0         7
[03]  G18  7 32   2999.2 2045996.0  0.1  1.0  5  0        16
[04]  G19  7 30  -2642.9 2046003.4  0.1  1.0  5  0         5
[05]  G22  7 23    506.1 2045999.2  0.6  0.0 20  0        12
[06]  G28  1 27  -1515.7 2046003.3 -0.0  0.0  1  0         0
sat38 = 2673 1378 681 -1000
$GNGGA,000000.000,,,,,0,00,,,M,,,,0000*2B
$GNRMC,000000.000,A,,,,,,,000000,,*26
$GPGSA,A,1,,,,,,,,,,,,,,,*1E
$BDGSA,A,1,,,,,,,,,,,,,,,*0F
$GPGSV,2,1,06,01,00,000,40,11,00,000,43,17,00,000,34,18,00,000,32*77
$GPGSV,2,2,06,19,00,000,30,22,00,000,23*75
$LOGTIM,0,0.000000,0.000000,0.000000,0.000000,0.000*0A
EndT:        0
sat39 = 1950 364 633 -4000
sat40 = 2091 750 593 -2000
sat41 = 3244 243 744 2000
ch16 satid=41,max_freq = 2000,max_mean = 744,max_phase = 243,max_value = 3244,acq ok1!
acq ok1 timeH = 0,timeL = 86920902,freq_stage = 2
sat42 = 2535 322 605 1000
ch17 satid=42,max_freq = 1000,max_mean = 605,max_phase = 322,max_value = 2535,acq ok1!
acq ok1 timeH = 0,timeL = 91687386,freq_stage = 3
---00000005--- Acq_st=3 2019-5-27 07:10:34 
[00]  G01  7 40   2295.8 2045997.0  1.0  1.0  5  0        18
[01]  G11  7 43   2049.7 2045997.3  1.0  1.0  5  0        16
[02]  G17  7 44  -1857.7 2046002.4  1.0  1.0  5  0        15
[03]  G18  7 43   2999.0 2045996.0  1.0  0.9  5  0        12
[04]  G19  7 41  -2644.4 2046003.4  1.0  1.0  5  0        12
[05]  G22  7 43    506.5 2045999.3  1.0  1.0  5  0        16
[06]  G28  7 30  -1507.2 2046001.9  0.5  1.0  5  0         7
[16]  B05  1 28  -2030.0 4092005.0 -0.1  0.0  1  0         0
[17]  B06  1  7   -664.0 4092001.9 -0.0  0.0  1  0         0
$GNGGA,000000.000,,,,,0,00,,,M,,,,0000*2B
$GNRMC,000000.000,A,,,,,,,000000,,*26
$GPGSA,A,1,,,,,,,,,,,,,,,*1E
$BDGSA,A,1,,,,,,,,,,,,,,,*0F
$GPGSV,2,1,07,01,00,000,40,11,00,000,43,17,00,000,44,18,00,000,43*77
$GPGSV,2,2,07,19,00,000,41,22,00,000,43,28,00,000,30*4D
$LOGTIM,0,0.000000,0.000000,0.000000,0.000000,0.000*0A
EndT:        0
sat43 = 1852 1530 541 3000
sat44 = 4909 2722 667 0
ch18 satid=44,max_freq = 0,max_mean = 667,max_phase = 2722,max_value = 4909,acq ok1!
acq ok1 timeH = 0,timeL = 100788772,freq_stage = 3
sat45 = 2791 1247 629 3000
ch19 satid=45,max_freq = 3000,max_mean = 629,max_phase = 1247,max_value = 2791,acq ok1!
acq ok1 timeH = 0,timeL = 103828958,freq_stage = 2
sat46 = 3872 777 581 250
ch20 satid=46,max_freq = 250,max_mean = 581,max_phase = 777,max_value = 3872,acq ok1!
acq ok1 timeH = 0,timeL = 109027017,freq_stage = 3
---00000006--- Acq_st=3 2019-5-27 07:10:35 
[00]  G01  7 40   2297.6 2045997.0  1.0  1.0  5  0        18
[01]  G11  7 43   2050.6 2045997.3  1.0  1.0  5  0        16
[02]  G17  7 44  -1856.9 2046002.4  1.0  1.0  5  0        15
[03]  G18  7 42   2999.8 2045996.1  1.0  1.0  5  0        12
[04]  G19  7 41  -2643.5 2046003.4  1.0  1.0  5  0        12
[05]  G22  7 43    507.9 2045999.3  1.0  1.0  5  0        16
[06]  G28  7 43  -1505.9 2046001.9  1.0  1.0  5  0         1
[16]  B05  1 31  -1978.6 4092005.0  0.3  0.0  1  0       314
[17]  B06  1  7  -1034.3 4092002.0  0.1  0.0  1  0        88
[18]  B08  1  7    -57.2 4092001.8 -0.0  0.0  1  0         0
[19]  B09  1  7  -3068.3 4092006.9 -0.0  0.0  1  0         0
[20]  B10  1  7   -227.9 4092001.8  0.0  0.0  1  0         0
$GNGGA,000000.000,,,,,0,00,,,M,,,,0000*2B
$GNRMC,000000.000,A,,,,,,,000000,,*26
$GPGSA,A,1,,,,,,,,,,,,,,,*1E
$BDGSA,A,1,,,,,,,,,,,,,,,*0F
$GPGSV,2,1,07,01,00,000,40,11,00,000,43,17,00,000,44,18,00,000,42*76
$GPGSV,2,2,07,19,00,000,41,22,00,000,43,28,00,000,43*49
$LOGTIM,0,0.000000,0.000000,0.000000,0.000000,0.000*0A
EndT:        0
sat47 = 2552 1829 592 1000
ch21 satid=47,max_freq = 1000,max_mean = 592,max_phase = 1829,max_value = 2552,acq ok1!
acq ok1 timeH = 0,timeL = 113361920,freq_stage = 3
sat48 = 14197 654 660 500
ch22 satid=48,max_freq = 500,max_mean = 660,max_phase = 654,max_value = 14197,acq ok1!
acq ok1 timeH = 0,timeL = 117696822,freq_stage = 3
sat49 = 5937 2989 766 500
ch23 satid=49,max_freq = 500,max_mean = 766,max_phase = 2989,max_value = 5937,acq ok1!
acq ok1 timeH = 0,timeL = 122031730,freq_stage = 3
sat50 = 2728 1289 710 2000
sat51 = 2447 1902 652 3000
---00000007--- Acq_st=3 2019-5-27 07:10:36 
[00]  G01  7 41   2293.2 2045997.0  1.0  1.0  5  0        18
[01]  G11  7 43   2046.6 2045997.3  1.0  1.0  5  0        16
[02]  G17  7 45  -1860.8 2046002.4  1.0  1.0  5  0        15
[03]  G18  7 42   2996.3 2045996.1  1.0  1.0  5  0        12
[04]  G19  7 40  -2647.9 2046003.4  1.0  1.0  5  0        12
[05]  G22  7 43    503.9 2045999.3  1.0  1.0  5  0        16
[06]  G28  7 43  -1509.8 2046001.9  1.0  1.0  5  0         1
[16]  B05  1 31  -1976.2 4092005.4 -0.1  0.0  1  0      1314
[17]  B06  1  7   -909.2 4092002.0  0.0  0.0  1  0      1088
[18]  B08  7 24    -75.0 4092000.1  0.4  0.0 20  0       636
[19]  B09  1  7  -2949.5 4092007.3 -0.0  0.0  1  0       411
[20]  B10  1  7   -177.1 4092000.9  0.1  0.0  1  0       184
[21]  B11  1  7   -979.0 4092002.1  0.2  0.0  1  0         0
[22]  B12  1  7   -584.4 4092002.9 -0.1  0.0  1  0         0
[23]  B13  1  7   -456.9 4092001.2 -0.0  0.0  1  0         0
$GNGGA,000000.000,,,,,0,00,,,M,,,,0000*2B
$GNRMC,000000.000,A,,,,,,,000000,,*26
$GPGSA,A,1,,,,,,,,,,,,,,,*1E
$BDGSA,A,1,,,,,,,,,,,,,,,*0F
$GPGSV,2,1,07,01,00,000,41,11,00,000,43,17,00,000,45,18,00,000,42*76
$GPGSV,2,2,07,19,00,000,40,22,00,000,43,28,00,000,43*48
$BDGSV,1,1,01,08,00,000,24*57
$LOGTIM,0,0.000000,0.000000,0.000000,0.000000,0.000*0A
EndT:        0
sat52 = 2627 1920 638 4000
ch24 satid=52,max_freq = 4000,max_mean = 638,max_phase = 1920,max_value = 2627,acq ok1!
acq ok1 timeH = 0,timeL = 133741730,freq_stage = 1
sat53 = 2420 1463 637 -1000
sat54 = 2372 35 685 0
sat55 = 8332 2720 644 0
ch25 satid=55,max_freq = 0,max_mean = 644,max_phase = 2720,max_value = 8332,acq ok1!
acq ok1 timeH = 0,timeL = 148472737,freq_stage = 3
---00000008--- Acq_st=3 2019-5-27 07:10:37 
[00]  G01  f 40   2292.2 2045997.0  1.0  1.0  5  0        18
[01]  G11  f 43   2045.3 2045997.4  1.0  1.0  5  0        16
[02]  G17  f 44  -1862.5 2046002.4  1.0  1.0  5  0        15
[03]  G18  f 42   2994.0 2045996.1  1.0  1.0  5  0        12
[04]  G19  f 40  -2648.6 2046003.4  1.0  1.0  5  0        12
[05]  G22  f 42    503.3 2045999.3  1.0  1.0  5  0        16
[06]  G28  f 44  -1510.9 2046001.9  1.0  1.0  5  0         1
[17]  B06  1  8   -958.9 4092002.1  0.0  0.0  1  0      2088
[18]  B08  7 37    -76.9 4092000.1  1.0  1.0  5  0      1629
[19]  B09  1  7  -2970.1 4092006.7  0.0  0.0  1  0      1411
[20]  B10  7 34   -178.6 4092000.4  0.7  1.0  5  0      1184
[21]  B11  1  7   -972.0 4092002.1  0.1  0.0  1  0       959
[22]  B12  7 27   -587.1 4092001.5  0.5  0.0 10  0       733
[23]  B13  7 21   -452.5 4092001.2  0.4  0.0 20  0       507
[24]  B16  1  7  -3935.5 4092010.0  0.2  0.0  1  0         0
[25]  B19  1  7     31.6 4092000.5 -0.0  0.0  1  0         0
src>tow meas_num=16
$GNGGA,000000.000,,,,,0,00,,,M,,,,0000*2B
$GNRMC,000000.000,A,,,,,,,000000,,*26
$GPGSA,A,1,,,,,,,,,,,,,,,*1E
$BDGSA,A,1,,,,,,,,,,,,,,,*0F
$GPGSV,2,1,07,01,00,000,40,11,00,000,43,17,00,000,44,18,00,000,42*76
$GPGSV,2,2,07,19,00,000,40,22,00,000,42,28,00,000,44*4E
$BDGSV,1,1,04,08,00,000,37,10,00,000,34,12,00,000,27,13,00,000,21*61
$LOGTIM,0,0.000000,0.000000,0.000000,0.000000,0.000*0A
EndT:        0
sat56 = 2708 577 638 2000
ch26 satid=56,max_freq = 2000,max_mean = 638,max_phase = 577,max_value = 2708,acq ok1!
acq ok1 timeH = 0,timeL = 151944494,freq_stage = 2
sat57 = 1828 372 538 1000
sat58 = 1892 578 540 3000
sat59 = 2596 1066 682 2000
sat60 = 3385 1208 621 0
ch16 satid=60,max_freq = 0,max_mean = 621,max_phase = 1208,max_value = 3385,acq ok1!
acq ok1 timeH = 0,timeL = 170147257,freq_stage = 3
---00000009--- Acq_st=3 2019-5-27 07:10:38 
[00]  G01  f 40   2292.8 2045997.0  1.0  1.0  5  0 112255238
[01]  G11  f 43   2046.7 2045997.4  1.0  1.0  5  0 112255236
[02]  G17  f 43  -1861.5 2046002.4  1.0  1.0  5  0 112255235
[03]  G18  f 42   2995.9 2045996.1  1.0  1.0  5  0 112255232
[04]  G19  f 41  -2647.8 2046003.4  1.0  1.0  5  0 112255232
[05]  G22  f 42    505.4 2045999.3  1.0  1.0  5  0 112255236
[06]  G28  f 43  -1509.2 2046002.0  1.0  1.0  5  0 112255241
[16]  B24  1 32  -1185.5 4092000.0  0.0  0.0  1  0      2314
[18]  B08  7 37    -75.8 4092000.1  1.0  1.0  5  0      2629
[20]  B10  7 37   -177.1 4092000.4  1.0  0.9  5  0      2169
[21]  B11  1  7   -967.6 4092001.8  0.2  0.0  1  0      1959
[22]  B12  7 44   -586.1 4092001.5  1.0  1.0  5  0      1716
[23]  B13  7 41   -451.5 4092001.2  1.0  1.0  5  0      1504
[24]  B16  1  8  -3997.5 4092010.1  0.1  0.0  1  0       830
[25]  B19  1  7     47.6 4091999.7  0.1  0.0  1  0       152
[26]  B20  1 10  -1957.0 4092005.4  0.2  0.0  1  0         0
src>tow meas_num=16
$GNGGA,000000.000,,,,,0,00,,,M,,,,0000*2B
$GNRMC,000000.000,A,,,,,,,000000,,*26
$GPGSA,A,1,,,,,,,,,,,,,,,*1E
$BDGSA,A,1,,,,,,,,,,,,,,,*0F
$GPGSV,2,1,07,01,00,000,40,11,00,000,43,17,00,000,43,18,00,000,42*71
$GPGSV,2,2,07,19,00,000,41,22,00,000,42,28,00,000,43*48
$BDGSV,1,1,04,08,00,000,37,10,00,000,37,12,00,000,44,13,00,000,41*61
$LOGTIM,0,0.000000,0.000000,0.000000,0.000000,0.000*0A
EndT:        0
sat61 = 7689 1375 557 2250
ch17 satid=61,max_freq = 2250,max_mean = 557,max_phase = 1375,max_value = 7689,acq ok1!
acq ok1 timeH = 0,timeL = 173187466,freq_stage = 2
sat62 = 2203 1318 584 3000
sat63 = 2580 775 622 5000
ch19 satid=63,max_freq = 5000,max_mean = 622,max_phase = 775,max_value = 2580,acq ok1!
acq ok1 timeH = 0,timeL = 180993596,freq_stage = 1
sat64 = 2373 709 752 4000
---00000010--- Acq_st=3 2019-5-27 07:10:39 
[00]  G01  f 40   2294.2 2045997.0  1.0  1.0  5  0 112256238
[01]  G11  f 44   2047.5 2045997.3  1.0  1.0  5  0 112256236
[02]  G17  f 43  -1860.4 2046002.4  1.0  1.0  5  0 112256235
[03]  G18  f 41   2996.7 2045996.1  1.0  1.0  5  0 112256232
[04]  G19  f 41  -2646.2 2046003.4  1.0  1.0  5  0 112256232
[05]  G22  f 43    506.6 2045999.4  1.0  1.0  5  0 112256236
[06]  G28  f 43  -1507.7 2046002.0  1.0  1.0  5  0 112256241
[16]  B24  1  7    237.5 4091999.9  0.1  0.0  1  0        24
[17]  B25  1  7  -2273.1 4092006.0 -0.1  0.0  1  0      3088
[18]  B08  7 37    -74.0 4092000.2  1.0  1.0  5  0      3629
[19]  B27  1  7  -5146.6 4092013.1 -0.0  0.0  1  0      2411
[20]  B10  7 37   -176.7 4092000.4  1.0  1.0  5  0      3169
[22]  B12 1f 44   -585.4 4092001.5  1.0  1.0  5  0      2716
[23]  B13  7 40   -450.2 4092001.3  1.0  1.0  5  0      2504
[24]  B16  1  9  -3982.6 4092010.1 -0.2  0.0  1  0      1830
[25]  B19  7 34     48.6 4091999.8  0.6  1.0  5  0      1152
[26]  B20  1  7  -1986.4 4092005.0 -0.1  0.0  1  0       927
src>tow meas_num=17
$GNGGA,000000.000,,,,,0,00,,,M,,,,0000*2B
$GNRMC,000000.000,A,,,,,,,000000,,*26
$GPGSA,A,1,,,,,,,,,,,,,,,*1E
$BDGSA,A,1,,,,,,,,,,,,,,,*0F
$GPGSV,2,1,07,01,00,000,40,11,00,000,44,17,00,000,43,18,00,000,41*75
$GPGSV,2,2,07,19,00,000,41,22,00,000,43,28,00,000,43*49
$BDGSV,2,1,05,08,00,000,37,10,00,000,37,12,00,000,44,13,00,000,40*62
$BDGSV,2,2,05,19,00,000,34*52
$LOGTIM,0,0.000000,0.000000,0.000000,0.000000,0.000*0A
EndT:        0
sat65 = 3021 1228 691 0
ch21 satid=65,max_freq = 0,max_mean = 691,max_phase = 1228,max_value = 3021,acq ok1!
acq ok1 timeH = 0,timeL = 191821809,freq_stage = 3
sat66 = 1997 398 587 -1000
sat67 = 2031 1743 607 4000
sat68 = 2473 1225 713 2000
---00000011--- Acq_st=7 2019-5-27 07:10:40 
[00]  G01  f 40   2301.0 2045997.0  1.0  1.0  5  0 112257238
[01]  G11  f 44   2053.7 2045997.4  1.0  1.0  5  0 112257236
[02]  G17  f 43  -1854.3 2046002.4  1.0  1.0  5  0 112257235
[03]  G18  f 42   3002.6 2045996.1  1.0  1.0  5  0 112257232
[04]  G19  f 40  -2640.4 2046003.4  1.0  1.0  5  0 112257232
[05]  G22  f 43    513.5 2045999.3  1.0  1.0  5  0 112257236
[06]  G28  f 43  -1501.2 2046001.9  1.0  1.0  5  0 112257241
[16]  B24  7 27    250.5 4091999.2  0.0  0.8 10  0      1024
[17]  B25  7 28  -2266.1 4092006.0  0.3  1.0 10  0       798
[18]  B08 1f 37    -68.6 4092000.1  1.0  0.9  5  0      4629
[19]  B27  1  7  -5461.9 4092013.2  0.0  0.0  1  0       346
[20]  B10 1f 37   -170.8 4092000.4  1.0  1.0  5  0      4169
[21]  B29  1  7     48.8 4092000.3  0.0  0.0  1  0      2959
[22]  B12 1f 44   -579.0 4092001.5  1.0  1.0  5  0 112243236
[23]  B13 1f 40   -444.2 4092001.2  1.0  1.0  5  0      3504
[25]  B19  7 41     55.3 4091999.8  1.0  1.0  5  0      2147
[26]  B20  1  7  -1952.4 4092005.4  0.2  0.0  1  0      1927
src>tow meas_num=17
$GNGGA,000000.000,,,,,0,00,,,M,,,,0000*2B
$GNRMC,000000.000,A,,,,,,,000000,,*26
$GPGSA,A,1,,,,,,,,,,,,,,,*1E
$BDGSA,A,1,,,,,,,,,,,,,,,*0F
$GPGSV,2,1,07,01,00,000,40,11,00,000,44,17,00,000,43,18,00,000,42*76
$GPGSV,2,2,07,19,00,000,40,22,00,000,43,28,00,000,43*48
$BDGSV,2,1,07,24,00,000,27,25,00,000,28,08,00,000,37,10,00,000,37*6B
$BDGSV,2,2,07,12,00,000,44,13,00,000,40,19,00,000,41*57
$LOGTIM,0,0.000000,0.000000,0.000000,0.000000,0.000*0A
EndT:        1
---00000012--- Acq_st=7 2019-5-27 07:10:41 
[00]  G01  f 40   2302.9 2045997.0  1.0  1.0  5  0 112258238
[01]  G11  f 44   2056.0 2045997.3  1.0  1.0  5  0 112258236
[02]  G17  f 44  -1852.2 2046002.4  1.0  1.0  5  0 112258235
[03]  G18  f 43   3004.5 2045996.1  1.0  1.0  5  0 112258232
[04]  G19  f 41  -2638.2 2046003.5  1.0  1.0  5  0 112258232
[05]  G22  f 43    515.8 2045999.3  1.0  1.0  5  0 112258236
[06]  G28  f 43  -1498.9 2046002.0  1.0  1.0  5  0 112258241
[16]  B24  7 33    258.4 4091999.3  0.7  1.0  5  0      2012
[17]  B25  7 40  -2263.8 4092006.0  0.9  1.0  5  0      1783
[18]  B08 1f 37    -66.6 4092000.2  1.0  1.0  5  0 112244189
[19]  B27  1  7  -5472.8 4092013.0  0.1  0.0  1  0      1346
[20]  B10 1f 37   -167.8 4092000.4  1.0  1.0  5  0 112244189
[21]  B29  1  7     19.0 4091999.9  0.1  0.0  1  0       895
[22]  B12 1f 44   -576.6 4092001.5  1.0  1.0  5  0 112244236
[23]  B13 1f 40   -442.4 4092001.2  1.0  1.0  5  0 112244184
[25]  B19  7 40     57.9 4091999.8  1.0  1.0  5  0      3147
src>tow meas_num=16
$GNGGA,000000.000,,,,,0,00,,,M,,,,0000*2B
$GNRMC,000000.000,A,,,,,,,000000,,*26
$GPGSA,A,1,,,,,,,,,,,,,,,*1E
$BDGSA,A,1,,,,,,,,,,,,,,,*0F
$GPGSV,2,1,07,01,00,000,40,11,00,000,44,17,00,000,44,18,00,000,43*70
$GPGSV,2,2,07,19,00,000,41,22,00,000,43,28,00,000,43*49
$BDGSV,2,1,07,24,00,000,33,25,00,000,40,08,00,000,37,10,00,000,37*60
$BDGSV,2,2,07,12,00,000,44,13,00,000,40,19,00,000,40*56
$LOGTIM,0,0.000000,0.000000,0.000000,0.000000,0.000*0A
EndT:        0
---00000013--- Acq_st=7 2019-5-27 07:10:42 
[00]  G01  f 41   2299.8 2045997.0  1.0  1.0  5  0 112259238
[01]  G11  f 44   2052.9 2045997.3  1.0  1.0  5  0 112259236
[02]  G17  f 44  -1855.5 2046002.4  1.0  1.0  5  0 112259235
[03]  G18  f 42   3001.5 2045996.1  1.0  1.0  5  0 112259232
[04]  G19  f 40  -2641.8 2046003.5  1.0  1.0  5  0 112259232
[05]  G22  f 43    513.6 2045999.3  1.0  1.0  5  0 112259236
[06]  G28  f 43  -1501.6 2046002.0  1.0  1.0  5  0 112259241
[16]  B24  7 34    255.8 4091999.2  1.0  1.0  5  0      3012
[17]  B25  7 40  -2266.7 4092005.9  1.0  1.0  5  0      2784
[18]  B08 1f 37    -69.8 4092000.3  1.0  1.0  5  0 112245189
[20]  B10 1f 37   -171.4 4092000.4  1.0  1.0  5  0 112245189
[21]  B29  1  7     43.0 4092000.4 -0.1  0.0  1  0      1895
[22]  B12 1f 44   -580.0 4092001.5  1.0  1.0  5  0 112245236
[23]  B13 1f 40   -445.8 4092001.2  1.0  1.0  5  0 112245184
[25]  B19  7 40     55.5 4091999.8  1.0  1.0  5  0      4147
src>tow meas_num=15
$GNGGA,000000.000,,,,,0,00,,,M,,,,0000*2B
$GNRMC,000000.000,A,,,,,,,000000,,*26
$GPGSA,A,1,,,,,,,,,,,,,,,*1E
$BDGSA,A,1,,,,,,,,,,,,,,,*0F
$GPGSV,2,1,07,01,00,000,41,11,00,000,44,17,00,000,44,18,00,000,42*70
$GPGSV,2,2,07,19,00,000,40,22,00,000,43,28,00,000,43*48
$BDGSV,2,1,07,24,00,000,34,25,00,000,40,08,00,000,37,10,00,000,37*67
$BDGSV,2,2,07,12,00,000,44,13,00,000,40,19,00,000,40*56
$LOGTIM,0,0.000000,0.000000,0.000000,0.000000,0.000*0A
EndT:        0
sat1 = 15270 890 5563 750
sat2 = 14319 1775 5523 1750
sat3 = 15272 498 5518 -500
sat4 = 15880 77 5519 500
sat5 = 15258 422 5478 -2500
sat6 = 15264 1958 5559 750
sat7 = 14288 426 5472 1750
sat8 = 14205 1854 5512 -1750
---00000014--- Acq_st=4 2019-5-27 07:10:43 
[00]  G01  f 41   2299.2 2045997.0  1.0  1.0  5  0 112260238
[01]  G11  f 44   2051.6 2045997.3  1.0  1.0  5  0 112260236
[02]  G17  f 44  -1856.8 2046002.4  1.0  1.0  5  0 112260235
[03]  G18  f 41   3000.1 2045996.1  1.0  1.0  5  0 112260232
[04]  G19  f 41  -2643.5 2046003.4  1.0  1.0  5  0 112260232
[05]  G22  f 42    512.3 2045999.4  1.0  1.0  5  0 112260236
[06]  G28  f 43  -1502.7 2046002.0  1.0  1.0  5  0 112260241
[16]  B24  7 35    256.0 4091999.2  1.0  0.9  5  0      4012
[17]  B25  7 40  -2267.8 4092006.0  1.0  1.0  5  0      3784
[18]  B08 sat9 = 15162 1176 5502 -1500
                                    5  0 112246189
[20]  B10 1f 37   -172.1 4092000.5  1.0  1.0  5  0 112246189
[22]  B12 1f 44   -581.0 4092001.5  1.0  1.0  5  0 112246236
[23]  B13 1f 40   -446.6 4092001.1  1.0  1.0  5  0 112246184
[25]  B19  7 41     54.5 4091999.9  1.0  1.0  5  0      5147
src>tow meas_num=14
$GNGGA,000000.000,,,,,0,00,,,M,,,,0000*2B
$GNRMC,000000.000,A,,,,,,,000000,,*26
$GPGSA,A,1,,,,,,,,,,,,,,,*1E
$BDGSA,A,1,,,,,,,,,,,,,,,*0F
$GPGSV,2,1,07,01,00,000,41,11,00,000,44,17,00,000,44,18,00,000,41*73
$GPGSV,2,2,07,19,00,000,41,22,00,000,42,28,00,000,43*48
$BDGSV,2,1,07,24,00,000,35,25,00,000,40,08,00,000,37,10,00,000,37*66
$BDGSV,2,2,07,12,00,000,44,13,00,000,40,19,00,000,41*57
$LOGTIM,0,0.000000,0.000000,0.000000,0.000000,0.000*0A
EndT:        0
sat11 = 14666 93 5543 2750
sat12 = 14984 1140 5508 -500
sat13 = 15518 934 5575 1500
sat14 = 14569 1478 5600 1000
sat15 = 14781 878 5527 250
sat19 = 15805 1886 5527 0
sat20 = 16451 423 5579 2750
sat22 = 13005 1490 5508 1750
sat23 = 15473 638 5616 -500
---00000015--- Acq_st=5 2019-5-27 07:10:44 
[00]  G01  f 41   2296.0 2045997.0  1.0  1.0  5  0 112261238
[01]  G11  f 44   2048.6 2045997.3  1.0  1.0  5  0 112261236
[02]  G17  f 44  -1860.0 2046002.4  1.0  1.0  5  0 112261235
[03]  G18  f 41   2996.8 2045996.1  1.0  1.0  5  0 112261232
[04]  G19  f 41  -2646.5 2046003.4  1.0  1.0  5  0 112261232
[05]  G22  f 42    509.6 2045999.3  1.0  1.0  5  0 112261236
[06]  G28  f 42  -1505.4 2046002.0  1.0  1.0  5  0 112261241
[16]  B24  7 36    253.6 4091999.2  1.0  1.0  5  0      5012
[17]  B25  7 40  -2270.6 4092005.9  1.0  1.0  5  0      4784
[18]  B08 1f 38    -74.3 4092000.2  1.0  1.0  5  0 112247189
[20]  B10 1f 38   -175.4 4092000.4  1.0  0.9  5  0 112247189
[22]  B12 1f 44   -584.5 4092001.5  1.0  1.0  5  0 112247236
[23]  B13 1f 40   -449.9 4092001.2  1.0  1.0  5  0 112247184
[25]  B19  7 41     51.5 4091999.8  1.0  1.0  5  0      6147
src>tow meas_num=14
$GNGGA,000000.000,,,,,0,00,,,M,,,,0000*2B
$GNRMC,000000.000,A,,,,,,,000000,,*26
$GPGSA,A,1,,,,,,,,,,,,,,,*1E
$BDGSA,A,1,,,,,,,,,,,,,,,*0F
$GPGSV,2,1,07,01,00,000,41,11,00,000,44,17,00,000,44,18,00,000,41*73
$GPGSV,2,2,07,19,00,000,41,22,00,000,42,28,00,000,42*49
$BDGSV,2,1,07,24,00,000,36,25,00,000,40,08,00,000,38,10,00,000,38*65
$BDGSV,2,2,07,12,00,000,44,13,00,000,40,19,00,000,41*57
$LOGTIM,0,0.000000,0.000000,0.000000,0.000000,0.000*0A
EndT:        0
sat24 = 14976 1645 5501 -1250
sat25 = 16229 142 5499 -3750
sat26 = 16400 1305 5490 -2500
sat28 = 15140 1875 5479 -1250
sat29 = 15820 1655 5460 -250
sat30 = 15166 368 5547 4750
sat31 = 15334 1759 5591 -2250
---00000016--- Acq_st=3 2019-5-27 07:10:45 
[00]  G01  f 40   2296.8 2045997.0  1.0  1.0  5  0 112262238
[01]  G11  f 44   2049.5 2045997.3  1.0  1.0  5  0 112262236
[02]  G17  f 43  -1859.0 2046002.4  1.0  1.0  5  0 112262235
[03]  G18  f 42   2997.8 2045996.1  1.0  1.0  5  0 112262232
[04]  G19  f 40  -2645.7 2046003.4  1.0  1.0  5  0 112262232
[05]  G22  f 43    511.1 2045999.3  1.0  1.0  5  0 112262236
[06]  G28  f 42  -1504.2 2046002.0  1.0  1.0  5  0 112262241
[16]  B24 1f 36    254.8 4091999.3  1.0  0.9  5  0      6012
[17]  B25  7 40  -2269.5 4092005.9  1.0  1.0  5  0      5784
[18]  B08 1f 37    -73.8 4092000.2  1.0  1.0  5  0 112248189
[20]  B10 1f 37   -174.5 4092000.4  1.0  0.9  5  0 112248189
[22]  B12 1f 44   -583.9 4092001.5  1.0  1.0  5  0 112248236
[23]  B13 1f 40   -449.1 4092001.2  1.0  1.0  5  0 112248184
[25]  B19 1f 41     52.8 4091999.8  1.0  1.0  5  0      7147
sat37 = 2134 3742 573 3500
src>tow meas_num=14
$GNGGA,000000.000,,,,,0,00,,,M,,,,0000*2B
$GNRMC,000000.000,A,,,,,,,000000,,*26
$GPGSA,A,1,,,,,,,,,,,,,,,*1E
$BDGSA,A,1,,,,,,,,,,,,,,,*0F
$GPGSV,2,1,07,01,00,000,40,11,00,000,44,17,00,000,43,18,00,000,42*76
$GPGSV,2,2,07,19,00,000,40,22,00,000,43,28,00,000,42*49
$BDGSV,2,1,07,24,00,000,36,25,00,000,40,08,00,000,37,10,00,000,37*65
$BDGSV,2,2,07,12,00,000,44,13,00,000,40,19,00,000,41*57
$LOGTIM,0,0.000000,0.000000,0.000000,0.000000,0.000*0A
EndT:        0
sat38 = 2593 336 683 -1000
sat39 = 2100 1990 634 0
sat40 = 2101 294 592 -2000
sat41 = 3155 1026 746 2000
ch19 satid=41,max_freq = 2000,max_mean = 746,max_phase = 1026,max_value = 3155,acq ok1!
acq ok1 timeH = 0,timeL = 321140085,freq_stage = 2
---00000017--- Acq_st=3 2019-5-27 07:10:46 
[00]  G01  f 41   2296.4 2045997.0  1.0  1.0  5  0 112263238
[01]  G11  f 43   2048.7 2045997.3  1.0  1.0  5  0 112263236
[02]  G17  f 44  -1860.1 2046002.4  1.0  1.0  5  0 112263235
[03]  G18  f 41   2996.7 2045996.1  1.0  1.0  5  0 112263232
[04]  G19  f 41  -2646.1 2046003.5  1.0  1.0  5  0 112263232
[05]  G22  f 43    511.0 2045999.3  1.0  1.0  5  0 112263236
[06]  G28  f 43  -1504.3 2046001.9  1.0  1.0  5  0 112263241
[16]  B24 1f 35    255.1 4091999.3  1.0  1.0  5  0 112249232
[17]  B25 1f 40  -2269.8 4092005.9  1.0  1.0  5  0 112249224
[18]  B08 1f 38    -74.1 4092000.2  1.0  1.0  5  0 112249189
[19]  B05  1 29  -2045.1 4092006.4 -0.1  0.0  1  0      2346
[20]  B10 1f 37   -175.2 4092000.5  1.0  0.9  5  0 112249189
[22]  B12 1f 44   -584.2 4092001.5  1.0  1.0  5  0 112249236
[23]  B13 1f 40   -449.9 4092001.2  1.0  1.0  5  0 112249184
[25]  B19 1f 41     52.5 4091999.9  1.0  1.0  5  0 112249227
src>tow meas_num=15
$GNGGA,000000.000,,,,,0,00,,,M,,,,0000*2B
$GNRMC,000000.000,A,,,,,,,000000,,*26
$GPGSA,A,1,,,,,,,,,,,,,,,*1E
$BDGSA,A,1,,,,,,,,,,,,,,,*0F
$GPGSV,2,1,07,01,00,000,41,11,00,000,43,17,00,000,44,18,00,000,41*74
$GPGSV,2,2,07,19,00,000,41,22,00,000,43,28,00,000,43*49
$BDGSV,2,1,07,24,00,000,35,25,00,000,40,08,00,000,38,10,00,000,37*69
$BDGSV,2,2,07,12,00,000,44,13,00,000,40,19,00,000,41*57
$LOGTIM,0,0.000000,0.000000,0.000000,0.000000,0.000*0A
EndT:        0
sat42 = 2523 804 604 1000
ch21 satid=42,max_freq = 1000,max_mean = 604,max_phase = 804,max_value = 2523,acq ok1!
acq ok1 timeH = 0,timeL = 325906568,freq_stage = 3
sat43 = 1899 141 540 5000
sat45 = 2832 1090 627 3000
ch24 satid=45,max_freq = 3000,max_mean = 627,max_phase = 1090,max_value = 2832,acq ok1!
acq ok1 timeH = 0,timeL = 333713232,freq_stage = 2
sat47 = 2288 586 586 1000
---00000018--- Acq_st=3 2019-5-27 07:10:47 
[00]  G01  f 42   2295.3 2045997.0  1.0  1.0  5  0 112264238
[01]  G11  f 44   2047.5 2045997.3  1.0  1.0  5  0 112264236
[02]  G17  f 43  -1861.2 2046002.5  1.0  1.0  5  0 112264235
[03]  G18  f 41   2995.6 2045996.1  1.0  1.0  5  0 112264232
[04]  G19  f 40  -2647.3 2046003.5  1.0  1.0  5  0 112264232
[05]  G22  f 43    510.2 2045999.3  1.0  1.0  5  0 112264236
[06]  G28  f 43  -1505.3 2046001.9  1.0  1.0  5  0 112264241
[16]  B24 1f 36    254.6 4091999.4  1.0  1.0  5  0 112250232
[17]  B25 1f 40  -2270.4 4092005.9  1.0  1.0  5  0 112250224
[18]  B08 1f 37    -75.3 4092000.3  1.0  0.9  5  0 112250189
[19]  B05  1 31  -1960.3 4092004.5 -0.0  0.0  1  0       115
[20]  B10 1f 37   -176.2 4092000.5  1.0  0.9  5  0 112250189
[21]  B06  1  7  -1010.4 4092002.4 -0.0  0.0  1  0      2895
[22]  B12 1f 44   -585.4 4092001.5  1.0  1.0  5  0 112250236
[23]  B13 1f 40   -451.0 4092001.2  1.0  1.0  5  0 112250184
[24]  B09  1  7  -3053.6 4092007.5  0.0  0.0  1  0      2830
[25]  B19 1f 41     51.9 4091999.9  1.0  1.0  5  0 112250227
sat50 = 2992 245 712 2000
ch26 satid=50,max_freq = 2000,max_mean = 712,max_phase = 245,max_value = 2992,acq ok1!
acq ok1 timeH = 0,timeL = 342814622,freq_stage = 2
src>tow meas_num=17
$GNGGA,000000.000,,,,,0,00,,,M,,,,0000*2B
$GNRMC,000000.000,A,,,,,,,000000,,*26
$GPGSA,A,1,,,,,,,,,,,,,,,*1E
$BDGSA,A,1,,,,,,,,,,,,,,,*0F
$GPGSV,2,1,07,01,00,000,42,11,00,000,44,17,00,000,43,18,00,000,41*77
$GPGSV,2,2,07,19,00,000,40,22,00,000,43,28,00,000,43*48
$BDGSV,2,1,07,24,00,000,36,25,00,000,40,08,00,000,37,10,00,000,37*65
$BDGSV,2,2,07,12,00,000,44,13,00,000,40,19,00,000,41*57
$LOGTIM,0,0.000000,0.000000,0.000000,0.000000,0.000*0A
EndT:        0
sat51 = 2649 778 651 3000
ch27 satid=51,max_freq = 3000,max_mean = 651,max_phase = 778,max_value = 2649,acq ok1!
acq ok1 timeH = 0,timeL = 346717954,freq_stage = 2
sat52 = 2364 893 645 0
sat53 = 2415 596 639 -1000
sat54 = 2320 1527 688 -4500
---00000019--- Acq_st=3 2019-5-27 07:10:48 
[00]  G01  f 42   2293.4 2045997.0  1.0  1.0  5  0 112265238
[01]  G11  f 44   2045.2 2045997.3  1.0  1.0  5  0 112265236
[02]  G17  f 44  -1863.5 2046002.4  1.0  1.0  5  0 112265235
[03]  G18  f 41   2993.5 2045996.1  1.0  1.0  5  0 112265232
[04]  G19  f 41  -2649.9 2046003.4  1.0  1.0  5  0 112265232
[05]  G22  f 43    508.2 2045999.3  1.0  1.0  5  0 112265236
[06]  G28  f 43  -1507.4 2046002.0  1.0  1.0  5  0 112265241
[16]  B24 1f 36    252.6 4091999.4  1.0  0.9  5  0 112251232
[17]  B25 1f 40  -2272.3 4092005.9  1.0  1.0  5  0 112251224
[18]  B08 1f 37    -78.0 4092000.2  1.0  1.0  5  0 112251189
[19]  B05  1 31  -1981.6 4092005.6 -0.3  0.0  1  0      1115
[20]  B10 1f 37   -178.4 4092000.5  1.0  1.0  5  0 112251189
[21]  B06  1  7   -965.8 4092001.8  0.1  0.0  1  0       888
[22]  B12 1f 44   -587.7 4092001.5  1.0  1.0  5  0 112251236
[23]  B13 1f 40   -453.1 4092001.2  1.0  1.0  5  0 112251184
[24]  B09  1  7  -2916.1 4092007.2 -0.3  0.0  1  0       438
[25]  B19 1f 41     50.3 4091999.9  1.0  1.0  5  0 112251227
[26]  B14  1  7  -1977.8 4092004.9  0.1  0.0  1  0      2927
[27]  B15  1  7  -2979.3 4092007.0  0.0  0.0  1  0         0
src>tow meas_num=19
$GNGGA,000000.000,,,,,0,00,,,M,,,,0000*2B
$GNRMC,000000.000,A,,,,,,,000000,,*26
$GPGSA,A,1,,,,,,,,,,,,,,,*1E
$BDGSA,A,1,,,,,,,,,,,,,,,*0F
$GPGSV,2,1,07,01,00,000,42,11,00,000,44,17,00,000,44,18,00,000,41*70
$GPGSV,2,2,07,19,00,000,41,22,00,000,43,28,00,000,43*49
$BDGSV,2,1,07,24,00,000,36,25,00,000,40,08,00,000,37,10,00,000,37*65
$BDGSV,2,2,07,12,00,000,44,13,00,000,40,19,00,000,41*57
$LOGTIM,0,0.000000,0.000000,0.000000,0.000000,0.000*0A
EndT:        0
sat56 = 2519 297 646 2000
sat57 = 1944 1330 539 1000
sat58 = 2222 206 539 3000
ch28 satid=58,max_freq = 3000,max_mean = 539,max_phase = 206,max_value = 2222,acq ok1!
acq ok1 timeH = 0,timeL = 372727396,freq_stage = 2
sat59 = 3087 1680 680 -3000
ch29 satid=59,max_freq = -3000,max_mean = 680,max_phase = 1680,max_value = 3087,acq ok1!
acq ok1 timeH = 0,timeL = 379651733,freq_stage = 5
---00000020--- Acq_st=3 2019-5-27 07:10:49 
[00]  G01  f 42   2291.6 2045997.1  1.0  1.0  5  0 112266238
[01]  G11  f 44   2043.3 2045997.3  1.0  1.0  5  0 112266236
[02]  G17  f 43  -1865.6 2046002.4  1.0  1.0  5  0 112266235
[03]  G18  f 42   2990.9 2045996.1  1.0  1.0  5  0 112266232
[04]  G19  f 42  -2651.8 2046003.5  1.0  1.0  5  0 112266232
[05]  G22  f 43    506.8 2045999.3  1.0  1.0  5  0 112266236
[06]  G28  f 43  -1508.9 2046002.0  1.0  1.0  5  0 112266241
[16]  B24 1f 37    250.6 4091999.3  1.0  1.0  5  0 112252232
[17]  B25 1f 40  -2273.7 4092005.9  1.0  1.0  5  0 112252224
[18]  B08 1f 37    -79.6 4092000.2  1.0  1.0  5  0 112252189
[19]  B05  1 33  -1969.5 4092005.2  0.2  0.0  1  0      2115
[20]  B10 1f 37   -179.8 4092000.5  1.0  1.0  5  0 112252189
[21]  B06  1  7   -944.8 4092002.0 -0.1  0.0  1  0      1888
[22]  B12 1f 44   -589.5 4092001.5  1.0  1.0  5  0 112252236
[23]  B13 1f 40   -455.4 4092001.2  1.0  1.0  5  0 112252184
[24]  B09  1  7  -2993.0 4092007.4 -0.1  0.0  1  0      1438
[25]  B19 1f 41     48.8 4091999.9  1.0  1.0  5  0 112252227
[26]  B14  1  7  -1938.6 4092005.0 -0.1  0.0  1  0       986
[27]  B15  1  7  -2989.6 4092007.1  0.0  0.0  1  0       760
[28]  B22  1  7  -3020.7 4092007.2 -0.0  0.0  1  0         0
[29]  B23  1  7   2999.4 4091993.1  0.1  0.0  1  0         0
src>tow meas_num=21
$GNGGA,000000.000,,,,,0,00,,,M,,,,0000*2B
$GNRMC,000000.000,A,,,,,,,000000,,*26
$GPGSA,A,1,,,,,,,,,,,,,,,*1E
$BDGSA,A,1,,,,,,,,,,,,,,,*0F
$GPGSV,2,1,07,01,00,000,42,11,00,000,44,17,00,000,43,18,00,000,42*74
$GPGSV,2,2,07,19,00,000,42,22,00,000,43,28,00,000,43*4A
$BDGSV,2,1,07,24,00,000,37,25,00,000,40,08,00,000,37,10,00,000,37*64
$BDGSV,2,2,07,12,00,000,44,13,00,000,40,19,00,000,41*57
$LOGTIM,0,0.000000,0.000000,0.000000,0.000000,0.000*0A
EndT:        0
sat62 = 2773 993 586 3000
ch30 satid=62,max_freq = 3000,max_mean = 586,max_phase = 993,max_value = 2773,acq ok1!
acq ok1 timeH = 0,timeL = 381397197,freq_stage = 2
sat63 = 2462 142 622 5000
sat64 = 2096 862 752 -1000
sat66 = 2218 136 591 -1000
sat67 = 2327 957 604 4000
---00000021--- Acq_st=3 2019-5-27 07:10:50 
[00]  G01  f 42   2291.8 2045997.1  1.0  1.0  5  0 112267238
[01]  G11  f 44   2043.6 2045997.4  1.0  1.0  5  0 112267236
[02]  G17  f 44  -1864.8 2046002.4  1.0  1.0  5  0 112267235
[03]  G18  f 41   2991.6 2045996.1  1.0  1.0  5  0 112267232
[04]  G19  f 41  -2651.3 2046003.5  1.0  1.0  5  0 112267232
[05]  G22  f 44    508.0 2045999.3  1.0  1.0  5  0 112267236
[06]  G28  f 43  -1508.2 2046001.9  1.0  1.0  5  0 112267241
[16]  B24 1f 36    250.9 4091999.3  1.0  0.9  5  0 112253232
[17]  B25 1f 40  -2273.1 4092006.0  1.0  1.0  5  0 112253224
[18]  B08 1f 37    -79.1 4092000.2  1.0  0.9  5  0 112253189
[20]  B10 1f 37   -180.2 4092000.5  1.0  1.0  5  0 112253189
[22]  B12 1f 44   -589.3 4092001.5  1.0  1.0  5  0 112253236
[23]  B13 1f 40   -454.6 4092001.2  1.0  1.0  5  0 112253184
[25]  B19 1f 41     49.1 4091999.9  1.0  1.0  5  0 112253227
[26]  B14  1 11  -1981.2 4092005.1 -0.0  0.0  1  0      1986
[27]  B15  1 10  -2963.0 4092007.1 -0.1  0.0  1  0      1760
[28]  B22  1  7  -2987.9 4092007.1 -0.1  0.0  1  0       405
[29]  B23  1  7   2972.9 4091993.2  0.1  0.0  1  0       180
[30]  B26  1  7  -2864.9 4092007.1 -0.0  0.0  1  0         0
src>tow meas_num=19
$GNGGA,000000.000,,,,,0,00,,,M,,,,0000*2B
$GNRMC,000000.000,A,,,,,,,000000,,*26
$GPGSA,A,1,,,,,,,,,,,,,,,*1E
$BDGSA,A,1,,,,,,,,,,,,,,,*0F
$GPGSV,2,1,07,01,00,000,42,11,00,000,44,17,00,000,44,18,00,000,41*70
$GPGSV,2,2,07,19,00,000,41,22,00,000,44,28,00,000,43*4E
$BDGSV,2,1,07,24,00,000,36,25,00,000,40,08,00,000,37,10,00,000,37*65
$BDGSV,2,2,07,12,00,000,44,13,00,000,40,19,00,000,41*57
$LOGTIM,0,0.000000,0.000000,0.000000,0.000000,0.000*0A
EndT:        0
sat68 = 2746 677 716 2000
---00000022--- Acq_st=7 2019-5-27 07:10:51 
[00]  G01  f 42   2295.0 2045997.0  1.0  1.0  5  0 112268238
[01]  G11  f 44   2046.8 2045997.4  1.0  1.0  5  0 112268236
[02]  G17  f 44  -1862.5 2046002.4  1.0  1.0  5  0 112268235
[03]  G18  f 40   2994.7 2045996.1  1.0  1.0  5  0 112268232
[04]  G19  f 41  -2648.8 2046003.5  1.0  1.0  5  0 112268232
[05]  G22  f 44    511.2 2045999.3  1.0  1.0  5  0 112268236
[06]  G28  f 43  -1505.1 2046002.0  1.0  1.0  5  0 112268241
[16]  B24 1f 37    255.3 4091999.3  1.0  0.9  5  0 112254232
[17]  B25 1f 40  -2269.6 4092006.0  1.0  1.0  5  0 112254224
[18]  B08 1f 38    -76.2 4092000.2  1.0  1.0  5  0 112254189
[20]  B10 1f 37   -177.5 4092000.4  1.0  1.0  5  0 112254189
[22]  B12 1f 45   -586.1 4092001.5  1.0  1.0  5  0 112254236
[23]  B13 1f 40   -451.8 4092001.2  1.0  1.0  5  0 112254184
[25]  B19 1f 40     53.2 4091999.9  1.0  1.0  5  0 112254227
[28]  B22  1  7  -2953.4 4092007.1  0.1  0.0  1  0      1405
[29]  B23  1  7   3055.1 4091993.3  0.0  0.0  1  0      1180
[30]  B26  1  9  -2986.4 4092007.0 -0.2  0.0  1  0       954
src>tow meas_num=17
$GNGGA,000000.000,,,,,0,00,,,M,,,,0000*2B
$GNRMC,000000.000,A,,,,,,,000000,,*26
$GPGSA,A,1,,,,,,,,,,,,,,,*1E
$BDGSA,A,1,,,,,,,,,,,,,,,*0F
$GPGSV,2,1,07,01,00,000,42,11,00,000,44,17,00,000,44,18,00,000,40*71
$GPGSV,2,2,07,19,00,000,41,22,00,000,44,28,00,000,43*4E
$BDGSV,2,1,07,24,00,000,37,25,00,000,40,08,00,000,38,10,00,000,37*6B
$BDGSV,2,2,07,12,00,000,45,13,00,000,40,19,00,000,40*57
$LOGTIM,0,0.000000,0.000000,0.000000,0.000000,0.000*0A
EndT:        0
sat1 = 15644 809 5567 -2750
sat2 = 15226 138 5573 4500
sat3 = 14789 1343 5488 750
sat4 = 13684 985 5499 5000
sat5 = 14561 1597 5501 -2750
sat6 = 14816 1673 5511 750
sat7 = 14283 840 5433 -3750
sat8 = 14773 1663 5492 -3000
---00000023--- Acq_st=4 2019-5-27 07:10:52 
[00]  G01  f 42   2298.5 2045997.0  1.0  1.0  5  0 112269238
[01]  G11  f 44   2050.1 2045997.3  1.0  1.0  5  0 112269236
[02]  G17  f 43  -1859.5 2046002.4  1.0  1.0  5  0 112269235
[03]  G18  f 41   2997.5 2045996.1  1.0  1.0  5  0 112269232
[04]  G19  f 40  -2645.5 2046003.5  1.0  1.0  5  0 112269232
[05]  G22  f 43    515.0 2045999.3  1.0  1.0  5  0 112269236
[06]  G28  f 43  -1501.3 2046002.0  1.0  1.0  5  0 112269241
[16]  B24 1f 37    258.1 4091999.3  1.0  1.0  5  0 112255232
[17]  B25 1f 40  -2266.7 4092006.0  1.0  1.0  5  0 112255224
sat9 = 14286 452 5530 1750
[18]  B08 1f 38    -73.9 4092000.2  1.0  1.0  5  0 112255189
[20]  B10 1f 37   -174.1 4092000.4  1.0  1.0  5  0 112255189
[22]  B12 1f 45   -583.6 4092001.5  1.0  1.0  5  0 112255236
[23]  B13 1f 40   -448.6 4092001.1  1.0  1.0  5  0 112255184
[25]  B19 1f 40     55.9 4091999.8  1.0  1.1  5  0 112255227
[29]  B23  1  7   3034.6 4091992.7 -0.1  0.0  1  0      2180
[30]  B26  1  7  -2962.0 4092006.8  0.1  0.0  1  0      1954
src>tow meas_num=16
$GNGGA,000000.000,,,,,0,00,,,M,,,,0000*2B
$GNRMC,000000.000,A,,,,,,,000000,,*26
$GPGSA,A,1,,,,,,,,,,,,,,,*1E
$BDGSA,A,1,,,,,,,,,,,,,,,*0F
$GPGSV,2,1,07,01,00,000,42,11,00,000,44,17,00,000,43,18,00,000,41*77
$GPGSV,2,2,07,19,00,000,40,22,00,000,43,28,00,000,43*48
$BDGSV,2,1,07,24,00,000,37,25,00,000,40,08,00,000,38,10,00,000,37*6B
$BDGSV,2,2,07,12,00,000,45,13,00,000,40,19,00,000,40*57
$LOGTIM,0,0.000000,0.000000,0.000000,0.000000,0.000*0A
EndT:        0
sat11 = 15684 153 5548 -4250
sat12 = 15103 880 5548 -500
sat13 = 14478 1019 5564 -1250
sat14 = 15613 1338 5560 -4250
sat15 = 13409 1079 5486 1500
sat19 = 14323 707 5527 -2250
sat20 = 14239 1549 5574 -1000
sat22 = 15561 1491 5536 -1500
sat23 = 16592 207 5621 3250
---00000024--- Acq_st=5 2019-5-27 07:10:53 
[00]  G01  f 42   2296.2 2045997.0  1.0  1.0  5  0 112270238
[01]  G11  f 44   2048.0 2045997.3  1.0  1.0  5  0 112270236
[02]  G17  f 44  -1861.2 2046002.4  1.0  1.0  5  0 112270235
[03]  G18  f 41   2995.8 2045996.1  1.0  1.0  5  0 112270232
[04]  G19  f 41  -2647.7 2046003.4  1.0  1.0  5  0 112270232
[05]  G22  f 44    513.3 2045999.3  1.0  1.0  5  0 112270236
[06]  G28  f 44  -1503.4 2046001.9  1.0  1.0  5  0 112270241
[16]  B24 1f 38    256.4 4091999.3  1.0  1.0  5  0 112256232
[17]  B25 1f 40  -2268.4 4092005.9  1.0  1.0  5  0 112256224
[18]  B08 1f 37    -75.8 4092000.2  1.0  1.0  5  0 112256189
[20]  B10 1f 37   -176.2 4092000.5  1.0  1.0  5  0 112256189
[22]  B12 1f 45   -585.4 4092001.5  1.0  1.0  5  0 112256236
[23]  B13 1f 40   -451.1 4092001.2  1.0  1.0  5  0 112256184
[25]  B19 1f 40     54.8 4091999.9  1.0  1.0  5  0 112256227
src>tow meas_num=14
$GNGGA,000000.000,,,,,0,00,,,M,,,,0000*2B
$GNRMC,000000.000,A,,,,,,,000000,,*26
$GPGSA,A,1,,,,,,,,,,,,,,,*1E
$BDGSA,A,1,,,,,,,,,,,,,,,*0F
$GPGSV,2,1,07,01,00,000,42,11,00,000,44,17,00,000,44,18,00,000,41*70
$GPGSV,2,2,07,19,00,000,41,22,00,000,44,28,00,000,44*49
$BDGSV,2,1,07,24,00,000,38,25,00,000,40,08,00,000,37,10,00,000,37*6B
$BDGSV,2,2,07,12,00,000,45,13,00,000,40,19,00,000,40*57
$LOGTIM,0,0.000000,0.000000,0.000000,0.000000,0.000*0A
EndT:        0
sat24 = 13402 1047 5541 1000
sat25 = 15350 1278 5528 -2500
sat26 = 14577 56 5527 1250
sat28 = 13939 827 5524 -500
sat29 = 14020 778 5487 -1500
sat30 = 14959 856 5513 -750
sat31 = 14742 1311 5501 0
---00000025--- Acq_st=3 2019-5-27 07:10:54 
[00]  G01  f 42   2295.3 2045997.0  1.0  1.0  5  0 112271238
[01]  G11  f 44   2047.3 2045997.3  1.0  1.0  5  0 112271236
[02]  G17  f 44  -1862.2 2046002.4  1.0  1.0  5  0 112271235
[03]  G18  f 41   2994.6 2045996.1  1.0  1.0  5  0 112271232
[04]  G19  f 41  -2648.9 2046003.4  1.0  1.0  5  0 112271232
[05]  G22  f 43    513.0 2045999.3  1.0  1.0  5  0 112271236
[06]  G28  f 43  -1503.4 2046001.9  1.0  1.0  5  0 112271241
[16]  B24 1f 38    255.7 4091999.3  1.0  1.0  5  0 112257232
[17]  B25 1f 40  -2269.4 4092006.0  1.0  1.0  5  0 112257224
[18]  B08 1f 37    -76.7 4092000.2  1.0  1.0  5  0 112257189
[20]  B10 1f 37   -176.5 4092000.5  1.0  1.0  5  0 112257189
[22]  B12 1f 45   -586.5 4092001.5  1.0  1.0  5  0 112257236
[23]  B13 1f 40   -451.9 4092001.2  1.0  1.0  5  0 112257184
[25]  B19 1f 40     54.5 4091999.8  1.0  1.0  5  0 112257227
sat37 = 2057 1569 574 0
src>tow meas_num=14
$GNGGA,000000.000,,,,,0,00,,,M,,,,0000*2B
$GNRMC,000000.000,A,,,,,,,000000,,*26
$GPGSA,A,1,,,,,,,,,,,,,,,*1E
$BDGSA,A,1,,,,,,,,,,,,,,,*0F
$GPGSV,2,1,07,01,00,000,42,11,00,000,44,17,00,000,44,18,00,000,41*70
$GPGSV,2,2,07,19,00,000,41,22,00,000,43,28,00,000,43*49
$BDGSV,2,1,07,24,00,000,38,25,00,000,40,08,00,000,37,10,00,000,37*6B
$BDGSV,2,2,07,12,00,000,45,13,00,000,40,19,00,000,40*57
$LOGTIM,0,0.000000,0.000000,0.000000,0.000000,0.000*0A
EndT:        0
sat38 = 2566 1390 680 -1000
sat39 = 1940 1340 635 0
sat40 = 2121 904 595 -2000
sat41 = 3363 1773 747 2000
ch19 satid=41,max_freq = 2000,max_mean = 747,max_phase = 1773,max_value = 3363,acq ok1!
acq ok1 timeH = 0,timeL = 493682769,freq_stage = 2
---00000026--- Acq_st=3 2019-5-27 07:10:55 
[00]  G01  f 43   2296.5 2045997.0  1.0  1.0  5  0 112272238
[01]  G11  f 44   2048.2 2045997.3  1.0  1.0  5  0 112272236
[02]  G17  f 44  -1861.4 2046002.4  1.0  1.0  5  0 112272235
[03]  G18  f 41   2995.7 2045996.1  1.0  1.0  5  0 112272232
[04]  G19  f 42  -2647.6 2046003.5  1.0  1.0  5  0 112272232
[05]  G22  f 43    514.4 2045999.3  1.0  1.0  5  0 112272236
[06]  G28  f 43  -1502.3 2046001.9  1.0  1.0  5  0 112272241
[16]  B24 1f 38    257.5 4091999.3  1.0  1.0  5  0 112258232
[17]  B25 1f 39  -2267.4 4092005.9  1.0  1.0  5  0 112258224
[18]  B08 1f 38    -75.9 4092000.2  1.0  0.9  5  0 112258189
[19]  B05  1 27  -2010.0 4092005.5 -0.1  0.0  1  0      3115
[20]  B10 1f 37   -175.6 4092000.5  1.0  1.0  5  0 112258189
[22]  B12 1f 45   -585.4 4092001.5  1.0  1.0  5  0 112258236
[23]  B13 1f 40   -450.5 4092001.1  1.0  1.0  5  0 112258184
[25]  B19 1f 40     55.8 4091999.9  1.0  1.0  5  0 112258227
src>tow meas_num=15
$GNGGA,000000.000,,,,,0,00,,,M,,,,0000*2B
$GNRMC,000000.000,A,,,,,,,000000,,*26
$GPGSA,A,1,,,,,,,,,,,,,,,*1E
$BDGSA,A,1,,,,,,,,,,,,,,,*0F
$GPGSV,2,1,07,01,00,000,43,11,00,000,44,17,00,000,44,18,00,000,41*71
$GPGSV,2,2,07,19,00,000,42,22,00,000,43,28,00,000,43*4A
$BDGSV,2,1,07,24,00,000,38,25,00,000,39,08,00,000,38,10,00,000,37*6A
$BDGSV,2,2,07,12,00,000,45,13,00,000,40,19,00,000,40*57
$LOGTIM,0,0.000000,0.000000,0.000000,0.000000,0.000*0A
EndT:        0
sat42 = 2854 889 601 1000
ch21 satid=42,max_freq = 1000,max_mean = 601,max_phase = 889,max_value = 2854,acq ok1!
acq ok1 timeH = 0,timeL = 498449252,freq_stage = 3
sat43 = 1754 1675 541 5000
sat45 = 2736 1583 628 3000
ch24 satid=45,max_freq = 3000,max_mean = 628,max_phase = 1583,max_value = 2736,acq ok1!
acq ok1 timeH = 0,timeL = 506255912,freq_stage = 2
sat47 = 2279 416 587 1000
---00000027--- Acq_st=3 2019-5-27 07:10:56 
[00]  G01  f 43   2295.8 2045997.0  1.0  1.0  5  0 112273238
[01]  G11  f 44   2047.4 2045997.3  1.0  1.0  5  0 112273236
[02]  G17  f 44  -1862.9 2046002.4  1.0  1.0  5  0 112273235
[03]  G18  f 40   2994.0 2045996.2  1.0  1.0  5  0 112273232
[04]  G19  f 41  -2648.8 2046003.4  1.0  1.0  5  0 112273232
[05]  G22  f 43    513.8 2045999.3  1.0  1.0  5  0 112273236
[06]  G28  f 44  -1503.2 2046002.0  1.0  1.0  5  0 112273241
[16]  B24 1f 38    256.9 4091999.4  1.0  1.0  5  0 112259232
[17]  B25 1f 39  -2268.4 4092005.9  1.0  1.0  5  0 112259224
[18]  B08 1f 38    -76.7 4092000.1  1.0  1.0  5  0 112259189
[19]  B05  1 31  -1977.9 4092005.1  0.3  0.0  1  0       128
[20]  B10 1f 37   -176.6 4092000.5  1.0  1.0  5  0 112259189
[21]  B06  1  7   -989.1 4092001.9 -0.1  0.0  1  0      2888
[22]  B12 1f 44   -586.2 4092001.6  1.0  1.0  5  0 112259236
[23]  B13 1f 40   -451.7 4092001.2  1.0  1.0  5  0 112259184
[24]  B09  1  7  -3083.3 4092006.9 -0.1  0.0  1  0      2438
[25]  B19 1f 41     55.1 4091999.8  1.0  1.0  5  0 112259227
sat50 = 2751 762 710 2000
src>tow meas_num=17
$GNGGA,000000.000,,,,,0,00,,,M,,,,0000*2B
$GNRMC,000000.000,A,,,,,,,000000,,*26
$GPGSA,A,1,,,,,,,,,,,,,,,*1E
$BDGSA,A,1,,,,,,,,,,,,,,,*0F
$GPGSV,2,1,07,01,00,000,43,11,00,000,44,17,00,000,44,18,00,000,40*70
$GPGSV,2,2,07,19,00,000,41,22,00,000,43,28,00,000,44*4E
$BDGSV,2,1,07,24,00,000,38,25,00,000,39,08,00,000,38,10,00,000,37*6A
$BDGSV,2,2,07,12,00,000,44,13,00,000,40,19,00,000,41*57
$LOGTIM,0,0.000000,0.000000,0.000000,0.000000,0.000*0A
EndT:        1
sat51 = 2993 1885 653 3000
ch26 satid=51,max_freq = 3000,max_mean = 653,max_phase = 1885,max_value = 2993,acq ok1!
acq ok1 timeH = 0,timeL = 519260644,freq_stage = 2
sat52 = 2168 1907 640 4000
sat53 = 2491 1137 636 2000
sat54 = 2335 555 686 0
---00000028--- Acq_st=3 2019-5-27 07:10:57 
[00]  G01  f 42   2294.9 2045997.0  1.0  1.0  5  0 112274238
[01]  G11  f 44   2046.1 2045997.4  1.0  1.0  5  0 112274236
[02]  G17  f 44  -1863.6 2046002.4  1.0  1.0  5  0 112274235
[03]  G18  f 41   2993.6 2045996.1  1.0  1.0  5  0 112274232
[04]  G19  f 41  -2650.0 2046003.5  1.0  1.0  5  0 112274232
[05]  G22  f 43    513.0 2045999.3  1.0  1.0  5  0 112274236
[06]  G28  f 44  -1503.6 2046002.0  1.0  1.0  5  0 112274241
[16]  B24 1f 39    256.1 4091999.3  1.0  1.0  5  0 112260232
[17]  B25 1f 39  -2269.4 4092005.9  1.0  1.0  5  0 112260224
[18]  B08 1f 38    -77.9 4092000.2  1.0  1.0  5  0 112260189
[19]  B05  1 31  -1982.3 4092005.3 -0.3  0.0  1  0      1128
[20]  B10 1f 37   -177.4 4092000.5  1.0  1.0  5  0 112260189
[21]  B06  1  7   -990.0 4092002.1  0.0  0.0  1  0       902
[22]  B12 1f 44   -587.2 4092001.5  1.0  1.0  5  0 112260236
[23]  B13 1f 40   -452.8 4092001.2  1.0  1.0  5  0 112260184
[24]  B09  1  7  -2995.7 4092007.0  0.0  0.0  1  0       451
[25]  B19 1f 40     54.2 4091999.9  1.0  1.0  5  0 112260227
[26]  B15  1  7  -3004.6 4092006.8  0.0  0.0  1  0      2986
src>tow meas_num=18
$GNGGA,000000.000,,,,,0,00,,,M,,,,0000*2B
$GNRMC,000000.000,A,,,,,,,000000,,*26
$GPGSA,A,1,,,,,,,,,,,,,,,*1E
$BDGSA,A,1,,,,,,,,,,,,,,,*0F
$GPGSV,2,1,07,01,00,000,42,11,00,000,44,17,00,000,44,18,00,000,41*70
$GPGSV,2,2,07,19,00,000,41,22,00,000,43,28,00,000,44*4E
$BDGSV,2,1,07,24,00,000,39,25,00,000,39,08,00,000,38,10,00,000,37*6B
$BDGSV,2,2,07,12,00,000,44,13,00,000,40,19,00,000,40*56
$LOGTIM,0,0.000000,0.000000,0.000000,0.000000,0.000*0A
EndT:        0
sat56 = 2560 832 646 0
sat57 = 2020 1249 540 -1000
sat62 = 2248 3531 584 5000
sat63 = 2726 1998 620 5000
ch27 satid=63,max_freq = 5000,max_mean = 620,max_phase = 1998,max_value = 2726,acq ok1!
acq ok1 timeH = 0,timeL = 548741312,freq_stage = 1
---00000029--- Acq_st=3 2019-5-27 07:10:58 
[00]  G01  f 42   2295.0 2045997.0  1.0  1.0  5  0 112275238
[01]  G11  f 43   2046.1 2045997.3  1.0  1.0  5  0 112275236
[02]  G17  f 44  -1863.9 2046002.4  1.0  1.0  5  0 112275235
[03]  G18  f 41   2993.2 2045996.1  1.0  1.0  5  0 112275232
[04]  G19  f 41  -2650.0 2046003.4  1.0  1.0  5  0 112275232
[05]  G22  f 44    513.7 2045999.3  1.0  1.0  5  0 112275236
[06]  G28  f 43  -1503.2 2046001.9  1.0  1.0  5  0 112275241
[16]  B24 1f 39    256.1 4091999.3  1.0  1.0  5  0 112261232
[17]  B25 1f 39  -2268.8 4092005.9  1.0  1.0  5  0 112261224
[18]  B08 1f 38    -77.7 4092000.2  1.0  1.0  5  0 112261189
[19]  B05  1 30  -1995.0 4092005.7 -0.4  0.0  1  0      2128
[20]  B10 1f 37   -178.2 4092000.4  1.0  1.0  5  0 112261189
[21]  B06  1  7   -969.8 4092001.9 -0.1  0.0  1  0      1902
[22]  B12 1f 44   -587.6 4092001.5  1.0  1.0  5  0 112261236
[23]  B13 1f 40   -452.8 4092001.2  1.0  1.0  5  0 112261184
[24]  B09  1  7  -3008.3 4092007.1  0.2  0.0  1  0      1451
[25]  B19 1f 40     54.5 4091999.9  1.0  1.0  5  0 112261227
[26]  B15  1  7  -3004.4 4092007.3 -0.2  0.0  1  0       774
[27]  B27  1  7  -5073.6 4092013.1  0.1  0.0  1  0      2760
sat64 = 2238 1110 752 4000
src>tow meas_num=19
$GNGGA,000000.000,,,,,0,00,,,M,,,,0000*2B
$GNRMC,000000.000,A,,,,,,,000000,,*26
$GPGSA,A,1,,,,,,,,,,,,,,,*1E
$BDGSA,A,1,,,,,,,,,,,,,,,*0F
$GPGSV,2,1,07,01,00,000,42,11,00,000,43,17,00,000,44,18,00,000,41*77
$GPGSV,2,2,07,19,00,000,41,22,00,000,44,28,00,000,43*4E
$BDGSV,2,1,07,24,00,000,39,25,00,000,39,08,00,000,38,10,00,000,37*6B
$BDGSV,2,2,07,12,00,000,44,13,00,000,40,19,00,000,40*56
$LOGTIM,0,0.000000,0.000000,0.000000,0.000000,0.000*0A
EndT:        0
sat65 = 3225 529 692 0
ch28 satid=65,max_freq = 0,max_mean = 692,max_phase = 529,max_value = 3225,acq ok1!
acq ok1 timeH = 0,timeL = 559569510,freq_stage = 3
sat66 = 2068 2017 592 -1000
sat67 = 2644 1887 607 0
ch19 satid=67,max_freq = 0,max_mean = 607,max_phase = 1887,max_value = 2644,acq ok1!
acq ok1 timeH = 0,timeL = 568239317,freq_stage = 3
sat68 = 2691 1307 716 -2000
---00000030--- Acq_st=7 2019-5-27 07:10:59 
[00]  G01  f 42   2295.8 2045997.0  1.0  1.0  5  0 112276238
[01]  G11  f 43   2047.6 2045997.3  1.0  1.0  5  0 112276236
[02]  G17  f 44  -1862.7 2046002.4  1.0  1.0  5  0 112276235
[03]  G18  f 41   2993.8 2045996.1  1.0  1.0  5  0 112276232
[04]  G19  f 41  -2648.9 2046003.5  1.0  1.0  5  0 112276232
[05]  G22  f 44    515.2 2045999.4  1.0  1.0  5  0 112276236
[06]  G28  f 43  -1501.9 2046001.9  1.0  1.0  5  0 112276241
[16]  B24 1f 39    257.9 4091999.3  1.0  1.0  5  0 112262232
[17]  B25 1f 38  -2267.4 4092005.9  1.0  1.0  5  0 112262224
[18]  B08 1f 38    -76.9 4092000.2  1.0  1.0  5  0 112262189
[19]  B31  1  7     24.4 4092000.5  0.0  0.0  1  0      3128
[20]  B10 1f 37   -177.1 4092000.4  1.0  1.0  5  0 112262189
[22]  B12 1f 44   -586.3 4092001.5  1.0  1.0  5  0 112262236
[23]  B13 1f 40   -452.3 4092001.1  1.0  1.0  5  0 112262184
[25]  B19 1f 40     56.0 4091999.9  1.0  1.0  5  0 112262227
[26]  B15  1 10  -2920.8 4092007.1 -0.1  0.0  1  0      1774
[27]  B27  1  7  -5440.9 4092012.9  0.0  0.0  1  0       193
[28]  B29  1  7     67.4 4092000.3 -0.0  0.0  1  0      2405
src>tow meas_num=18
$GNGGA,000000.000,,,,,0,00,,,M,,,,0000*2B
$GNRMC,000000.000,A,,,,,,,000000,,*26
$GPGSA,A,1,,,,,,,,,,,,,,,*1E
$BDGSA,A,1,,,,,,,,,,,,,,,*0F
$GPGSV,2,1,07,01,00,000,42,11,00,000,43,17,00,000,44,18,00,000,41*77
$GPGSV,2,2,07,19,00,000,41,22,00,000,44,28,00,000,43*4E
$BDGSV,2,1,07,24,00,000,39,25,00,000,38,08,00,000,38,10,00,000,37*6A
$BDGSV,2,2,07,12,00,000,44,13,00,000,40,19,00,000,40*56
$LOGTIM,0,0.000000,0.000000,0.000000,0.000000,0.000*0A
EndT:        0
---00000031--- Acq_st=7 2019-5-27 07:11:0 
[00]  G01  f 42   2299.9 2045997.0  1.0  1.0  5  0 112277238
[01]  G11  f 43   2051.0 2045997.4  1.0  1.0  5  0 112277236
[02]  G17  f 44  -1859.3 2046002.4  1.0  1.0  5  0 112277235
[03]  G18  f 41   2997.7 2045996.1  1.0  1.0  5  0 112277232
[04]  G19  f 41  -2645.4 2046003.4  1.0  1.0  5  0 112277232
[05]  G22  f 43    519.4 2045999.3  1.0  1.0  5  0 112277236
[06]  G28  f 44  -1498.2 2046002.0  1.0  1.0  5  0 112277241
[16]  B24 1f 39    261.9 4091999.3  1.0  1.0  5  0 112263232
[17]  B25 1f 39  -2263.5 4092005.9  1.0  1.0  5  0 112263224
[18]  B08 1f 38    -73.4 4092000.2  1.0  1.0  5  0 112263189
[19]  B31  1 12     36.0 4092000.4  0.1  0.0  1  0       290
[20]  B10 1f 37   -172.6 4092000.5  1.0  1.0  5  0 112263189
[22]  B12 1f 44   -582.8 4092001.5  1.0  1.0  5  0 112263236
[23]  B13 1f 40   -448.4 4092001.1  1.0  1.0  5  0 112263184
[25]  B19 1f 40     60.1 4091999.9  1.0  1.0  5  0 112263227
[27]  B27  1  7  -5438.3 4092012.9  0.1  0.0  1  0      1193
[28]  B29  1  7     43.9 4092000.0  0.0  0.0  1  0       742
src>tow meas_num=17
lsq: nits= 4
$GNGGA,071100.310,3112.7273,N,12136.4361,E,1,07,3.1,44.2,M,,,,0000*24
$GNRMC,071100.310,A,3112.7273,N,12136.4361,E,0.10,0.00,270519,,*16
$GPGSA,A,3,01,11,17,18,19,22,28,,,,,,3.9,3.1,2.4*30
$BDGSA,A,3,,,,,,,,,,,,,3.9,3.1,2.4*2D
$GPGSV,2,1,07,01,00,000,42,11,00,000,43,17,00,000,44,18,00,000,41*77
$GPGSV,2,2,07,19,00,000,41,22,00,000,43,28,00,000,44*4E
$BDGSV,2,1,07,24,00,000,39,25,00,000,39,08,00,000,38,10,00,000,37*6B
$BDGSV,2,2,07,12,00,000,44,13,00,000,40,19,00,000,40*56
$LOGTIM,1,9397430.366524,0.000000,0.000000,0.000000,-64.903*1D
EndT:        1
sat1 = 14591 592 5540 -2000
sat2 = 14666 1073 5594 -250
sat3 = 14203 569 5568 -1000
sat4 = 14376 2036 5567 1000
sat5 = 15431 1949 5523 4500
sat6 = 13706 1290 5596 1500
sat7 = 14293 805 5469 2000
sat8 = 14003 1809 5528 4500
---00000032--- Acq_st=4 2019-5-27 07:11:0 
[00]  G01  f 42   2304.6 2045997.0  1.0  1.0  5  0 112278238
[01]  G11  f 43   2055.6 2045997.4  1.0  1.0  5  0 112278236
[02]  G17  f 44  -1854.7 2046002.4  1.0  1.0  5  0 112278235
[03]  G18  f 41   3002.0 2045996.1  1.0  1.0  5  0 112278232
[04]  G19  f 41  -2640.8 2046003.4  1.0  1.0  5  0 112278232
[05]  G22  f 43    524.5 2045999.3  1.0  1.0  5  0 112278236
[06]  G28  f 43  -1493.2 2046002.0  1.0  1.0  5  0 112278241
[16]  B24 1f 40    266.8 4091999.3  1.0  1.0  5  0 112264232
[17]  B25 sat9 = 16406 486 5534 -1000
   39  -2258.6 4092005.9  1.0  1.0  5  0 112264224
[18]  B08 1f 38    -69.0 4092000.2  1.0  1.0  5  0 112264189
[19]  B31  1  7     28.7 4092000.1 -0.2  0.0  1  0      1290
[20]  B10 1f 37   -168.3 4092000.4  1.0  1.0  5  0 112264189
[22]  B12 1f 44   -578.5 4092001.5  1.0  1.0  5  0 112264236
[23]  B13 1f 40   -444.4 4092001.2  1.0  1.0  5  0 112264184
[25]  B19 1f 40     65.0 4091999.8  1.0  1.0  5  0 112264227
[27]  B27  1  7  -5482.7 4092013.2 -0.1  0.0  1  0      2193
[28]  B29  1  7     47.3 4092000.2  0.0  0.0  1  0      1742
sat11 = 14077 1714 5528 3000
sat12 = 15783 893 5541 1500
sat13 = 15039 518 5634 -3500
sat14 = 14564 84 5648 4750
sat15 = 14859 168 5496 1000
sat19 = 13880 1432 5541 -2750
src>tow meas_num=15
lsq: nits= 2
$GNGGA,071102.000,3112.7255,N,12136.4368,E,1,07,3.1,47.6,M,,,,0000*2E
$GNRMC,071102.000,A,3112.7255,N,12136.4368,E,0.20,0.00,270519,,*18
$GPGSA,A,3,01,11,17,18,19,22,28,,,,,,3.9,3.1,2.4*30
$BDGSA,A,3,,,,,,,,,,,,,3.9,3.1,2.4*2D
$GPGSV,2,1,07,01,00,000,42,11,00,000,43,17,00,000,44,18,00,000,41*77
$GPGSV,2,2,07,19,00,000,41,22,00,000,43,28,00,000,43*49
$BDGSV,2,1,07,24,00,000,40,25,00,000,39,08,00,000,38,10,00,000,37*65
$BDGSV,2,2,07,12,00,000,44,13,00,000,40,19,00,000,40*56
$LOGTIM,1,-108.673048,0.000000,0.000000,0.000000,-64.444*3A
EndT:        0
sat20 = 15488 725 5592 5000
sat22 = 14450 936 5535 1000
sat23 = 13888 794 5612 1750
---00000033--- Acq_st=5 2019-5-27 07:11:2 
[00]  G01  f 42   2302.1 2045997.0  1.0  1.0  5  0 112279927
[01]  G11  f 43   2053.3 2045997.3  1.0  1.0  5  0 112279926
[02]  G17  f 44  -1857.4 2046002.4  1.0  1.0  5  0 112279925
[03]  G18  f 41   2999.8 2045996.1  1.0  1.0  5  0 112279921
[04]  G19  f 41  -2643.6 2046003.5  1.0  1.0  5  0 112279921
[05]  G22  f 43    522.4 2045999.3  1.0  1.0  5  0 112279926
[06]  G28  f 43  -1494.9 2046001.9  1.0  1.0  5  0 112279931
[16]  B24 1f 39    264.7 4091999.3  1.0  1.0  5  0 112265921
[17]  B25 1f 39  -2261.1 4092005.9  1.0  0.9  5  0 112265913
[18]  B08 1f 38    -71.3 4092000.2  1.0  1.0  5  0 112265879
[19]  B31  1  8     15.3 4092000.1  0.0  0.0  1  0      2979
[20]  B10 1f 37   -170.0 4092000.6  1.0  0.9  5  0 112265879
[22]  B12 1f 44   -580.7 4092001.5  1.0  1.0  5  0 112265925
[23]  B13 1f 40   -446.8 4092001.2  1.0  1.0  5  0 112265874
[25]  B19 1f 40     62.9 4091999.8  1.0  1.0  5  0 112265917
sat24 = 16402 2045 5540 1250
sat25 = 15964 1755 5555 -3000
sat26 = 13923 196 5513 -1000
sat28 = 14270 343 5557 -1000
sat29 = 13209 1279 5509 -4750
sat30 = 16154 1808 5534 250
src>tow meas_num=14
lsq: nits= 2
$GNGGA,071103.000,3112.7252,N,12136.4366,E,1,07,3.1,48.2,M,,,,0000*2D
$GNRMC,071103.000,A,3112.7252,N,12136.4366,E,0.03,0.00,270519,,*11
$GPGSA,A,3,01,11,17,18,19,22,28,,,,,,3.9,3.1,2.4*30
$BDGSA,A,3,,,,,,,,,,,,,3.9,3.1,2.4*2D
$GPGSV,2,1,07,01,43,036,42,11,34,051,43,17,39,310,44,18,18,046,41*75
$GPGSV,2,2,07,19,21,294,41,22,42,073,43,28,73,318,43*49
$BDGSV,2,1,08,24,00,000,39,25,00,000,39,08,00,000,38,10,00,000,37*64
$BDGSV,2,2,08,12,00,000,44,13,00,000,40,19,00,000,40,22,33,123,00*69
$LOGTIM,1,-173.169825,0.000000,0.000000,0.000000,-64.455*39
EndT:        0
sat31 = 14583 787 5508 -2250
---00000034--- Acq_st=3 2019-5-27 07:11:3 
[00]  G01  f 41   2302.4 2045997.0  1.0  1.0  5  0 112280927
[01]  G11  f 43   2053.4 2045997.3  1.0  1.0  5  0 112280926
[02]  G17  f 44  -1856.8 2046002.4  1.0  1.0  5  0 112280925
[03]  G18  f 41   2999.8 2045996.1  1.0  1.0  5  0 112280921
[04]  G19  f 41  -2643.1 2046003.5  1.0  1.0  5  0 112280921
[05]  G22  f 43    523.4 2045999.3  1.0  1.0  5  0 112280926
[06]  G28  f 43  -1494.5 2046001.9  1.0  1.0  5  0 112280931
[16]  B24 1f 40    265.5 4091999.3  1.0  1.0  5  0 112266921
[17]  B25 1f 39  -2260.6 4092005.9  1.0  1.0  5  0 112266913
[18]  B08 1f 39    -71.4 4092000.1  1.0  1.0  5  0 112266879
[20]  B10 1f 37   -170.4 4092000.5  1.0  0.9  5  0 112266879
[22]  B12 1f 44   -580.5 4092001.5  1.0  1.0  5  0 112266925
[23]  B13 1f 40   -446.2 4092001.2  1.0  1.0  5  0 112266874
[25]  B19 1f 40     63.9 4091999.9  1.0  1.0  5  0 112266917
sat37 = 1993 1926 576 0
sat38 = 2719 1789 681 -1000
sat39 = 2110 875 637 -4000
sat40 = 2328 1870 603 2000
src>tow meas_num=14
lsq: nits= 2
$GNGGA,071104.000,3112.7249,N,12136.4364,E,1,07,3.1,48.9,M,,,,0000*29
