FlashID=0x1 0x20 0x18
BBram_blkflag1:  762: f89d
FW Ver: 1.30  
GPS00 Init Dop:  -2082,  2
GPS01 Init Dop:   5000, 40
GPS02 Init Dop:   5000, 40
GPS03 Init Dop:   5000, 40
GPS04 Init Dop:   5000, 40
GPS05 Init Dop:   5000, 40
GPS06 Init Dop:   5000, 40
GPS07 Init Dop:   5000, 40
GPS08 Init Dop:   5000, 40
GPS09 Init Dop:   5000, 40
GPS10 Init Dop:  -1822,  2
GPS11 Init Dop:   5000, 40
GPS12 Init Dop:   5000, 40
GPS13 Init Dop:   5000, 40
GPS14 Init Dop:   5000, 40
GPS15 Init Dop:   5000, 40
GPS16 Init Dop:   2101,  2
GPS17 Init Dop:  -2757,  2
GPS18 Init Dop:   2885,  2
GPS19 Init Dop:   5000, 40
GPS20 Init Dop:   5000, 40
GPS21 Init Dop:   -348,  2
GPS22 Init Dop:   5000, 40
GPS23 Init Dop:   5000, 40
GPS24 Init Dop:   5000, 40
GPS25 Init Dop:   5000, 40
GPS26 Init Dop:   5000, 40
GPS27 Init Dop:   1684,  2
GPS28 Init Dop:   5000, 40
GPS29 Init Dop:   5000, 40
GPS30 Init Dop:   5000, 40
GPS31 Init Dop:   5000, 40
BDS00 Init Dop:   5000, 40
BDS01 Init Dop:   5000, 40
BDS02 Init Dop:   5000, 40
BDS03 Init Dop:   5000, 40
BDS04 Init Dop:   5000, 40
BDS05 Init Dop:   5000, 40
BDS06 Init Dop:   5000, 40
BDS07 Init Dop:    307,  2
BDS08 Init Dop:   5000, 40
BDS09 Init Dop:    392,  2
BDS10 Init Dop:   5000, 40
BDS11 Init Dop:    810,  2
BDS12 Init Dop:    678,  2
BDS13 Init Dop:   5000, 40
BDS14 Init Dop:   5000, 40
BDS15 Init Dop:   5000, 40
BDS16 Init Dop:   5000, 40
BDS17 Init Dop:   5000, 40
BDS18 Init Dop:    107,  2
BDS19 Init Dop:   5000, 40
BDS20 Init Dop:   5000, 40
BDS21 Init Dop:   5000, 40
BDS22 Init Dop:   5000, 40
BDS23 Init Dop:    -95,  2
BDS24 Init Dop:   2445,  2
BDS25 Init Dop:   5000, 40
BDS26 Init Dop:   5000, 40
BDS27 Init Dop:   5000, 40
BDS28 Init Dop:   5000, 40
BDS29 Init Dop:   5000, 40
BDS30 Init Dop:   5000, 40
BDS31 Init Dop:   5000, 40
sat0 = 2450 311 1103 -2332
sat0 = 10470 62 4680 -2332
sat1 = 3703 1965 1471 4750
sat1 = 13157 1540 4378 -2500
sat2 = 3895 1214 1464 -2750
sat2 = 17453 811 4759 2750
sat3 = 3742 805 1460 0
sat3 = 11460 850 4133 4250
sat4 = 3530 480 1464 -1250
sat4 = 14320 121 4607 -2250
sat5 = 3603 326 1457 750
sat5 = 13306 543 4452 1250
sat6 = 3733 1581 1472 -2500
sat6 = 12492 701 4245 250
sat7 = 3744 782 1447 4750
sat7 = 13089 876 4467 -3250
sat8 = 3694 187 1456 -2500
sat8 = 13142 163 4489 2000
sat9 = 3601 386 1460 -2000
sat9 = 21758 1346 5192 4000
sat10 = 2291 1143 1144 -1822
sat10 = 10892 97 4642 -2072
sat11 = 3946 274 1457 750
sat11 = 13027 1727 4611 500
sat12 = 3533 1574 1463 -1750
sat12 = 13736 968 4712 5000
---00000001--- Acq_st=3 2019-5-27 07:13:10 
sat13 = 3620 254 1466 500
src<tow snapfix
$GNGGA,000000.000,,,,,0,00,,,M,,,,0000*2B
$GNRMC,000000.000,A,,,,,,,000000,,*26
$GPGSA,A,1,,,,,,,,,,,,,,,*1E
$BDGSA,A,1,,,,,,,,,,,,,,,*0F
$LOGTIM,0,0.000000,0.000000,0.000000,0.000000,0.000*0A
EndT:        0
sat13 = 10725 1456 4067 -2500
sat14 = 3798 1591 1477 3500
sat14 = 13004 767 4592 -500
sat15 = 3870 1342 1458 -3000
sat15 = 15553 1806 4538 -2250
sat16 = 21715 1079 1490 1851
ch0 satid=16,max_freq = 1851,max_mean = 1490,max_phase = 1079,max_value = 21715,acq ok1!
sat17 = 2375 1126 1113 -3007
sat17 = 11697 2023 5458 -2757
sat18 = 19401 1975 1486 2635
ch1 satid=18,max_freq = 2635,max_mean = 1486,max_phase = 1975,max_value = 19401,acq ok1!
sat19 = 3546 1794 1454 -3500
sat19 = 16793 1157 4333 -3750
sat20 = 3390 1106 1468 -1000
sat20 = 14164 1807 4722 -2250
sat21 = 6532 1858 1121 -598
ch2 satid=21,max_freq = -598,max_mean = 1121,max_phase = 1858,max_value = 6532,acq ok1!
sat22 = 3791 336 1454 250
sat22 = 9845 1976 3843 -4750
sat23 = 4147 1726 1473 -500
sat23 = 10899 1292 4071 4000
sat24 = 3434 1474 1457 1000
sat24 = 12928 869 4691 3500
sat25 = 3736 1311 1459 -4250
sat25 = 12543 454 4457 -1250
sat26 = 3762 671 1453 -1500
sat26 = 14369 138 4765 4500
sat27 = 14721 957 1475 1434
ch3 satid=27,max_freq = 1434,max_mean = 1475,max_phase = 957,max_value = 14721,acq ok1!
sat28 = 3675 996 1460 -1250
sat28 = 14259 96 4452 750
sat29 = 3866 44 1464 3750
sat29 = 15006 282 4843 -4000
---00000002--- Acq_st=3 2019-5-27 07:13:11 
[00]  G17  1 20  -1883.5 2046005.2  0.0  0.0  1  0         0
[01]  G19  1 27  -2633.6 2046005.0 -0.0  0.0  1  0         0
[02]  G22  1 28    591.8 2045999.1 -0.2  0.0  1  0         0
[03]  G28  1 17  -1433.1 2046002.7  0.0  0.0  1  0         0
src<tow snapfix
$GNGGA,000000.000,,,,,0,00,,,M,,,,0000*2B
$GNRMC,000000.000,A,,,,,,,000000,,*26
$GPGSA,A,1,,,,,,,,,,,,,,,*1E
$BDGSA,A,1,,,,,,,,,,,,,,,*0F
$LOGTIM,0,0.000000,0.000000,0.000000,0.000000,0.000*0A
EndT:        0
sat30 = 3524 288 1461 -4500
sat30 = 14230 55 4540 4250
sat31 = 3544 613 1458 250
sat31 = 12402 970 4698 1750
sat37 = 1817 2723 522 3500
sat37 = 1745 806 526 3750
sat38 = 2205 3493 617 -1250
sat38 = 2277 965 623 -4250
sat39 = 1637 2765 571 -4750
sat39 = 1609 1645 577 -4000
---00000003--- Acq_st=3 2019-5-27 07:13:12 
[00]  G17  7 28  -1856.1 2046002.4  0.4  1.0 10  0         7
[01]  G19  7 27  -2640.5 2046003.4  0.3  0.0 10  0        16
[02]  G22  7 24    595.5 2045999.2  0.2  0.0 20  0         5
[03]  G28  1 32  -1438.5 2046002.2  0.1  0.0  1  0         3
src<tow snapfix
$GNGGA,000000.000,,,,,0,00,,,M,,,,0000*2B
$GNRMC,000000.000,A,,,,,,,000000,,*26
$GPGSA,A,1,,,,,,,,,,,,,,,*1E
$BDGSA,A,1,,,,,,,,,,,,,,,*0F
$GPGSV,1,1,03,17,00,000,28,19,00,000,27,22,00,000,24*4D
$LOGTIM,0,0.000000,0.000000,0.000000,0.000000,0.000*0A
EndT:        0
sat40 = 1728 1971 543 -4250
sat40 = 1803 632 546 -1750
sat41 = 2678 3024 670 2250
sat41 = 2614 2113 673 2250
sat42 = 1867 3354 544 1250
sat42 = 1836 872 548 1250
sat43 = 1571 3107 488 5000
sat43 = 1569 1203 492 3000
sat44 = 7631 216 585 57
ch16 satid=44,max_freq = 57,max_mean = 585,max_phase = 216,max_value = 7631,acq ok1!
---00000004--- Acq_st=3 2019-5-27 07:13:13 
[00]  G17  7 43  -1856.1 2046002.4  1.0  1.0  5  0         1
[01]  G19  7 40  -2640.6 2046003.4  1.0  1.0  5  0        18
[02]  G22  7 44    596.3 2045999.2  1.0  1.0  5  0         2
[03]  G28  7 35  -1437.7 2046001.8  0.8  1.0  5  0         3
[16]  B08  1  7    100.0 4092001.6  0.0  0.0  1  0         0
src<tow snapfix
$GNGGA,000000.000,,,,,0,00,,,M,,,,0000*2B
$GNRMC,000000.000,A,,,,,,,000000,,*26
$GPGSA,A,1,,,,,,,,,,,,,,,*1E
$BDGSA,A,1,,,,,,,,,,,,,,,*0F
$GPGSV,1,1,04,17,00,000,43,19,00,000,40,22,00,000,44,28,00,000,35*7C
$LOGTIM,0,0.000000,0.000000,0.000000,0.000000,0.000*0A
EndT:        1
sat45 = 1997 2468 560 3250
sat45 = 2227 4032 565 3250
sat46 = 4148 2640 508 142
ch17 satid=46,max_freq = 142,max_mean = 508,max_phase = 2640,max_value = 4148,acq ok1!
sat47 = 1808 2692 533 750
sat47 = 1799 1831 535 1000
sat48 = 15818 527 484 560
ch18 satid=48,max_freq = 560,max_mean = 484,max_phase = 527,max_value = 15818,acq ok1!
sat49 = 4028 2007 445 428
ch19 satid=49,max_freq = 428,max_mean = 445,max_phase = 2007,max_value = 4028,acq ok1!
sat50 = 2013 3835 636 2000
sat50 = 2329 506 641 2000
sat51 = 1936 884 590 3000
sat51 = 1958 3108 595 -3500
---00000005--- Acq_st=3 2019-5-27 07:13:14 
[00]  G17  f 43  -1857.9 2046002.4  1.0  1.0  5  0         1
[01]  G19  f 40  -2642.7 2046003.4  1.0  1.0  5  0        18
[02]  G22  f 45    595.0 2045999.2  1.0  1.0  5  0         2
[03]  G28  7 41  -1439.4 2046001.9  1.0  1.0  5  0         7
[16]  B08  1  7    -69.6 4092000.8  0.2  0.0  1  0       102
[17]  B10  1  7   -155.1 4092000.8  0.0  0.0  1  0         0
[18]  B12  1  7   -570.9 4092002.9  0.1  0.0  1  0         0
[19]  B13  1  7   -449.1 4092001.4  0.2  0.0  1  0         0
src>tow meas_num=8
src>=tow snapfix
$GNGGA,000000.000,,,,,0,00,,,M,,,,0000*2B
$GNRMC,000000.000,A,,,,,,,000000,,*26
$GPGSA,A,1,,,,,,,,,,,,,,,*1E
$BDGSA,A,1,,,,,,,,,,,,,,,*0F
$GPGSV,1,1,04,17,00,000,43,19,00,000,40,22,00,000,45,28,00,000,41*7E
$LOGTIM,0,0.000000,0.000000,0.000000,0.000000,0.000*0A
EndT:        0
sat52 = 1930 1160 580 3750
sat52 = 1888 3349 584 3750
sat53 = 1888 2718 575 2000
sat53 = 1841 2667 578 -1000
sat54 = 2151 249 620 250
sat54 = 2067 313 626 500
sat55 = 4000 2540 501 -143
ch20 satid=55,max_freq = -143,max_mean = 501,max_phase = 2540,max_value = 4000,acq ok1!
sat56 = 2051 2258 580 2000
sat56 = 1841 218 583 2000
---00000006--- Acq_st=3 2019-5-27 07:13:15 
[00]  G17  f 43  -1858.5 2046002.4  1.0  1.0  5  0 112412021
[01]  G19  f 41  -2643.0 2046003.4  1.0  1.0  5  0 112412018
[02]  G22  f 45    594.4 2045999.2  1.0  1.0  5  0 112412022
[03]  G28  7 41  -1439.4 2046001.9  1.0  1.0  5  0         7
[16]  B08  7 33    -70.3 4092000.1  0.7  1.0  5  0      1102
[17]  B10  7 28   -156.3 4092000.4  0.2  1.0 10  0       846
[18]  B12  7 24   -574.4 4092001.5  0.5  0.0 20  0       589
[19]  B13  7 24   -441.6 4092001.1  0.4  0.0 20  0       580
[20]  B19  1  7    140.8 4092000.5 -0.0  0.0  1  0         0
src>tow meas_num=9
src>=tow snapfix
$GNGGA,000000.000,,,,,0,00,,,M,,,,0000*2B
$GNRMC,000000.000,A,,,,,,,000000,,*26
$GPGSA,A,1,,,,,,,,,,,,,,,*1E
$BDGSA,A,1,,,,,,,,,,,,,,,*0F
$GPGSV,1,1,04,17,00,000,43,19,00,000,41,22,00,000,45,28,00,000,41*7F
$BDGSV,1,1,04,08,00,000,33,10,00,000,28,12,00,000,24,13,00,000,24*6E
$LOGTIM,0,0.000000,0.000000,0.000000,0.000000,0.000*0A
EndT:        0
sat57 = 1539 2027 491 -4750
sat57 = 1500 3741 494 -4750
sat58 = 1471 2088 494 250
sat58 = 1480 2152 496 250
sat59 = 1968 64 613 4500
sat59 = 1945 419 616 4250
sat60 = 1596 646 480 -345
sat60 = 1297 710 484 -345
sat61 = 4079 1211 515 2195
ch21 satid=61,max_freq = 2195,max_mean = 515,max_phase = 1211,max_value = 4079,acq ok1!
sat62 = 1829 156 531 5000
sat62 = 1858 2500 533 3000
---00000007--- Acq_st=3 2019-5-27 07:13:16 
[00]  G17  f 44  -1856.8 2046002.4  1.0  1.0  5  0 112413021
[01]  G19  f 40  -2641.2 2046003.4  1.0  1.0  5  0 112413018
[02]  G22  f 45    597.2 2045999.2  1.0  1.0  5  0 112413022
[03]  G28  7 41  -1437.2 2046001.8  1.0  1.0  5  0         7
[16]  B08  7 40    -68.8 4092000.1  1.0  1.0  5  0      2095
[17]  B10  7 38   -154.0 4092000.3  1.0  1.0  5  0      1835
[18]  B12  7 44   -572.3 4092001.4  1.0  1.0  5  0      1581
[19]  B13  7 40   -439.2 4092001.1  1.0  1.0  5  0      1570
[20]  B19  7  7    104.9 4091999.7  0.1  0.0 20  0       341
[21]  B25  1  7  -2206.7 4092005.9  0.0  0.0  1  0         0
src>tow meas_num=10
snap nits = 5
Residual Check:13.314851
src>=tow snapfix
$GNGGA,071316.311,3112.7445,N,12136.4883,E,1,08,0.0,10.0,M,,,,0000*2A
$GNRMC,071316.311,A,3112.7445,N,12136.4883,E,0.00,0.00,270519,,*17
$GPGSA,A,3,17,19,22,28,,,,,,,,,0.0,0.0,0.0*36
$BDGSA,A,3,08,10,12,13,,,,,,,,,0.0,0.0,0.0*2B
$GPGSV,1,1,04,17,00,000,44,19,00,000,40,22,00,000,45,28,00,000,41*79
$BDGSV,1,1,04,08,00,000,40,10,00,000,38,12,00,000,44,13,00,000,40*6F
$LOGTIM,3,56548005.595748,56564140.867077,0.000000,0.000000,0.000*0C
EndT:        1
sat63 = 1899 541 560 5000
sat63 = 1899 541 564 5000
sat64 = 1869 1210 675 500
sat64 = 1928 1130 679 -4750
sat65 = 2142 1083 623 0
sat65 = 2138 1396 626 0
sat66 = 1715 3964 539 -1250
sat66 = 1838 121 540 -1000
---00000008--- Acq_st=3 2019-5-27 07:13:17 
[00]  G17  f 43  -1857.1 2046002.4  1.0  1.0  5  0 112414021
[01]  G19  f 40  -2641.5 2046003.4  1.0  1.0  5  0 112414018
[02]  G22  f 45    597.4 2045999.2  1.0  1.0  5  0 112414022
[03]  G28  7 41  -1437.2 2046001.9  1.0  1.0  5  0         7
[16]  B08  7 40    -69.1 4092000.1  1.0  1.0  5  0      3095
[17]  B10  7 38   -153.9 4092000.4  1.0  1.0  5  0      2835
[18]  B12  7 44   -572.8 4092001.4  1.0  1.0  5  0      2581
[19]  B13  7 39   -439.9 4092001.1  1.0  0.9  5  0      2570
[20]  B19  7 25    103.6 4091999.8  0.3  0.0 20  0      1333
[21]  B25  7  7  -2207.2 4092005.8  0.2  0.0 10  0       330
[22]  B27  1  7  -5043.1 4092013.3 -0.1  0.0  1  0         0
sat67 = 1581 3881 547 -4750
sat67 = 1622 1382 550 4000
sat68 = 2118 3677 643 2500
sat68 = 2104 267 648 -1250
src>tow meas_num=11
snap nits = 14
Residual Check:65340.835938
src>=tow snapfix
$GNGGA,000000.000,,,,,0,00,,,M,,,,0000*2B
$GNRMC,000000.000,A,,,,,,,000000,,*26
$GPGSA,A,1,,,,,,,,,,,,,,,*1E
$BDGSA,A,1,,,,,,,,,,,,,,,*0F
$GPGSV,1,1,04,17,00,000,43,19,00,000,40,22,00,000,45,28,00,000,41*7E
$BDGSV,2,1,05,08,00,000,40,10,00,000,38,12,00,000,44,13,00,000,39*63
$BDGSV,2,2,05,19,00,000,25*52
$LOGTIM,0,0.000000,0.000000,0.000000,0.000000,0.000*0A
EndT:        0
---00000009--- Acq_st=7 2019-5-27 07:13:18 
[00]  G17  f 44  -1857.1 2046002.4  1.0  1.0  5  0 112415710
[01]  G19  f 40  -2641.4 2046003.4  1.0  0.9  5  0 112415707
[02]  G22  f 44    598.2 2045999.2  1.0  1.0  5  0 112415711
[03]  G28  7 41  -1436.7 2046001.9  1.0  1.0  5  0        16
[16]  B08  7 40    -68.5 4092000.2  1.0  1.0  5  0      4784
[17]  B10  7 38   -153.7 4092000.4  1.0  1.0  5  0      4524
[18]  B12  7 44   -572.2 4092001.5  1.0  1.0  5  0      4271
[19]  B13  7 40   -439.6 4092001.1  1.0  1.0  5  0      4259
[20]  B19  7 26    103.6 4091999.6  0.9  0.0 20  0      3022
[21]  B25  7 38  -2207.7 4092005.8  0.5  1.0  5  0      2019
[22]  B27  1 12  -5097.3 4092013.0  0.0  0.0  1  0      1528
src>tow meas_num=11
snap nits = 14
Residual Check:65330.882812
src>=tow snapfix
$GNGGA,000000.000,,,,,0,00,,,M,,,,0000*2B
$GNRMC,000000.000,A,,,,,,,000000,,*26
$GPGSA,A,1,,,,,,,,,,,,,,,*1E
$BDGSA,A,1,,,,,,,,,,,,,,,*0F
$GPGSV,2,1,07,17,39,311,44,19,22,294,40,22,42,071,44,28,74,316,41*79
$GPGSV,2,2,07,01,42,036,00,11,33,052,00,18,17,047,00*47
$BDGSV,2,1,07,08,68,297,40,10,72,260,38,12,56,339,44,13,47,257,40*65
$BDGSV,2,2,07,19,23,063,26,25,13,315,38,24,43,264,00*5F
$LOGTIM,0,0.000000,0.000000,0.000000,0.000000,0.000*0A
EndT:        0
---00000010--- Acq_st=7 2019-5-27 07:13:19 
[00]  G17  f 44  -1855.4 2046002.4  1.0  1.0  5  0 112416710
[01]  G19  f 40  -2640.0 2046003.4  1.0  1.0  5  0 112416707
[02]  G22  f 44    600.4 2045999.2  1.0  1.0  5  0 112416711
[03]  G28  7 41  -1434.7 2046001.9  1.0  1.0  5  0        16
[16]  B08  7 40    -67.1 4092000.2  1.0  1.0  5  0      5784
[17]  B10  7 38   -152.2 4092000.4  1.0  1.0  5  0      5524
[18]  B12  7 44   -570.4 4092001.5  1.0  1.0  5  0      5271
[19]  B13  7 40   -437.6 4092001.2  1.0  1.0  5  0      5259
[20]  B19  7 26    106.1 4091999.6  0.3 -0.0 20  0      4022
[21]  B25  7 38  -2206.1 4092005.8  1.0  1.0  5  0      3019
[22]  B27  1  7  -5019.4 4092012.9 -0.1  0.0  1  0      2528
sat0 = 41455 1126 5641 -2250
ch4 satid=0,max_freq = -2250,max_mean = 5641,max_phase = 1126,max_value = 41455,acq ok1!
sat1 = 17758 1317 5649 -4000
sat1 = 14894 161 4551 -2250
sat2 = 18384 771 5686 -2250
sat2 = 19091 1268 4935 2750
sat3 = 16304 1795 5656 -500
sat3 = 12654 1113 4240 -4750
sat4 = 16799 1530 5654 -1250
sat4 = 16075 645 4777 -4750
sat5 = 14467 1696 5642 2250
sat5 = 15155 404 4626 1500
sat6 = 17568 204 5680 4000
sat6 = 11728 59 4363 -1250
sat7 = 14211 45 5555 250
sat7 = 12981 2023 4610 3250
sat8 = 17225 1194 5643 -3000
src>tow meas_num=11
lsq: nits= 2
$GNGGA,071319.785,3112.7127,N,12136.4303,E,1,04,6.0,45.1,M,,,,0000*25
$GNRMC,071319.785,A,3112.7127,N,12136.4303,E,0.27,0.00,270519,,*16
$GPGSA,A,3,17,19,22,28,,,,,,,,,6.7,6.0,3.0*32
$BDGSA,A,3,,,,,,,,,,,,,6.7,6.0,3.0*27
$GPGSV,2,1,07,17,39,311,44,19,22,294,40,22,42,071,44,28,74,316,41*79
$GPGSV,2,2,07,01,42,036,00,11,33,052,00,18,17,047,00*47
$BDGSV,2,1,07,08,68,297,40,10,72,260,38,12,56,339,44,13,47,257,40*65
$BDGSV,2,2,07,19,23,063,26,25,13,315,38,24,43,264,00*5F
$LOGTIM,1,0.000000,0.000000,0.000000,0.000000,-65.004*11
EndT:        0
sat8 = 12816 1387 4654 -2500
sat9 = 16461 1676 5625 -500
sat9 = 22117 1736 5468 4000
sat10 = 114704 760 5651 -2000
ch5 satid=10,max_freq = -2000,max_mean = 5651,max_phase = 760,max_value = 114704,acq ok1!
sat11 = 17059 688 5650 5000
sat11 = 13502 1950 4783 -4750
sat12 = 15773 1934 5641 3500
---00000011--- Acq_st=3 2019-5-27 07:13:20 
[00]  G17  f 44  -1855.5 2046002.4  1.0  1.0  5  0 112417710
[01]  G19  f 40  -2639.9 2046003.4  1.0  1.0  5  0 112417707
[02]  G22  f 44    600.5 2045999.2  1.0  1.0  5  0 112417711
[03]  G28  f 40  -1434.7 2046001.9  1.0  1.0  5  0 112417716
[04]  G01  1 26   2336.7 2045996.9 -0.2  0.0  1  0         3
[05]  G11  1  7   2035.4 2045998.3  0.0  0.0  1  0         0
[16]  B08  7 40    -67.5 4092000.1  1.0  1.0  5  0      6784
[17]  B10  7 38   -151.9 4092000.4  1.0  1.0  5  0      6524
[18]  B12  7 44   -570.7 4092001.5  1.0  1.0  5  0      6271
[19]  B13  7 40   -438.3 4092001.1  1.0  1.0  5  0      6259
[20]  B19  7 26    105.8 4091999.6  0.8 -0.0 20  0      5022
[21]  B25  7 38  -2206.3 4092005.8  1.0  1.0  5  0      4019
sat12 = 14910 49 4907 5000
sat13 = 15164 1994 5672 -3500
sat13 = 12388 1610 4181 4000
sat14 = 16606 1290 5701 -1250
sat14 = 15299 1878 4766 -500
sat15 = 14835 26 5622 2500
sat15 = 15657 1684 4695 -2250
sat17 = 75435 1550 5636 -3000
ch6 satid=17,max_freq = -3000,max_mean = 5636,max_phase = 1550,max_value = 75435,acq ok1!
sat19 = 16090 987 5600 2750
sat19 = 18930 1235 4450 -3500
sat20 = 16913 113 5688 1000
sat20 = 14926 2033 4902 -2250
sat22 = 15580 227 5634 1000
sat22 = 10600 1839 3920 -2500
sat23 = 15789 412 5699 750
sat23 = 12211 1005 4170 2500
sat24 = 19429 31 5599 -3750
sat24 = 14517 150 4881 3250
sat25 = 18150 559 5642 -750
sat25 = 12790 1138 4626 -1500
sat26 = 15743 1838 5620 -3250
sat26 = 14893 626 4968 1500
src>tow meas_num=13
lsq: nits= 2
$GNGGA,071321.000,3112.7082,N,12136.4306,E,1,04,6.0,47.4,M,,,,0000*28
$GNRMC,071321.000,A,3112.7082,N,12136.4306,E,0.06,0.00,270519,,*1F
$GPGSA,A,3,17,19,22,28,,,,,,,,,6.7,6.0,3.0*32
$BDGSA,A,3,,,,,,,,,,,,,6.7,6.0,3.0*27
$GPGSV,2,1,07,17,39,311,44,19,22,294,40,22,42,071,44,28,74,316,40*78
$GPGSV,2,2,07,01,42,036,00,11,33,052,00,18,17,047,00*47
$BDGSV,2,1,07,08,68,297,40,10,72,260,38,12,56,339,44,13,47,257,40*65
$BDGSV,2,2,07,19,23,063,26,25,13,315,38,24,43,264,00*5F
$LOGTIM,1,-78.279766,0.000000,0.000000,0.000000,-64.440*0D
EndT:        0
sat28 = 16414 1752 5633 4750
sat28 = 15021 240 4624 750
---00000012--- Acq_st=3 2019-5-27 07:13:21 
[00]  G17  f 44  -1852.4 2046002.4  1.0  1.0  5  0 112418925
[01]  G19  f 40  -2637.2 2046003.4  1.0  1.0  5  0 112418921
[02]  G22  f 45    604.2 2045999.2  1.0  1.0  5  0 112418926
[03]  G28  f 40  -1430.7 2046001.9  1.0  1.0  5  0 112418931
[04]  G01  7 30   2335.4 2045996.8  0.3  1.0  5  0         7
[05]  G11  1 33   2071.9 2045997.1 -0.2  0.0  1  0         4
[06]  G18  1 28   3001.6 2045997.1 -0.1  0.0  1  0         5
[16]  B08  7 40    -64.4 4092000.2  1.0  1.0  5  0      7998
[17]  B10  7 38   -149.3 4092000.4  1.0  1.0  5  0      7739
[18]  B12  7 44   -567.6 4092001.5  1.0  1.0  5  0      7485
[19]  B13  7 40   -435.0 4092001.1  1.0  1.0  5  0      7474
[20]  B19  7 25    106.8 4091999.7 -0.0 -0.1 20  0      6237
[21]  B25  7 38  -2202.3 4092005.8  1.0  1.0  5  0      5233
sat29 = 18811 634 5621 -500
sat29 = 14550 1703 5063 1500
sat30 = 16171 92 5634 3500
sat30 = 12986 1740 4721 4250
sat31 = 15237 1382 5629 -3750
sat31 = 14032 1251 4900 4000
sat37 = 1853 3876 526 3500
sat37 = 1739 2311 525 3500
sat38 = 2399 1227 625 -1000
sat38 = 2294 2579 624 -1250
sat39 = 1795 2534 578 -4500
src>tow meas_num=13
lsq: nits= 2
$GNGGA,071322.000,3112.7069,N,12136.4302,E,1,09,6.0,48.8,M,,,,0000*24
$GNRMC,071322.000,A,3112.7069,N,12136.4302,E,0.08,0.00,270519,,*13
$GPGSA,A,3,17,19,22,28,,,,,,,,,6.7,6.0,3.0*32
$BDGSA,A,3,08,10,12,13,25,,,,,,,,6.7,6.0,3.0*28
$GPGSV,2,1,07,17,39,311,44,19,22,294,40,22,42,071,45,28,74,316,40*79
$GPGSV,2,2,07,01,42,036,30,11,33,052,00,18,17,047,00*44
$BDGSV,2,1,07,08,68,297,40,10,72,260,38,12,56,339,44,13,47,257,40*65
$BDGSV,2,2,07,19,23,063,25,25,13,315,38,24,43,264,00*5C
$LOGTIM,3,-141.932023,-346.459218,0.000000,0.000000,-64.469*12
EndT:        0
sat39 = 1578 346 577 4500
---00000013--- Acq_st=3 2019-5-27 07:13:22 
[00]  G17  f 44  -1852.1 2046002.4  1.0  1.0  5  0 112419925
[01]  G19  f 40  -2636.8 2046003.4  1.0  1.0  5  0 112419921
[02]  G22  f 45    605.2 2045999.2  1.0  1.0  5  0 112419926
[03]  G28  f 40  -1430.1 2046001.9  1.0  1.0  5  0 112419931
[04]  G01  7 38   2334.0 2045996.9  1.0  1.0  5  0         7
[05]  G11  7 35   2072.8 2045997.3  0.8  1.0  5  0         5
[06]  G18  7 26   3006.3 2045996.0  0.4  0.0 20  0         1
[16]  B08 1f 39    -64.1 4092000.1  1.0  1.0  5  0 112405878
[17]  B10 1f 38   -149.0 4092000.3  1.0  0.9  5  0 112405879
[18]  B12 1f 44   -567.4 4092001.5  1.0  1.0  5  0 112405925
[19]  B13 1f 40   -435.0 4092001.1  1.0  1.0  5  0 112405874
[20]  B19  7 25    110.7 4091999.6  0.4 -0.1 20  0      7237
[21]  B25 1f 38  -2201.0 4092005.8  1.0  1.0  5  0 112405913
sat40 = 1774 1233 542 -4500
sat40 = 1690 2234 541 -2250
sat41 = 2382 3291 677 2000
sat41 = 2442 3025 675 2250
sat42 = 1977 3754 545 1250
sat42 = 1968 2929 545 1000
sat43 = 1474 3313 492 5000
src>tow meas_num=13
lsq: nits= 2
$GNGGA,071323.000,3112.7053,N,12136.4311,E,1,09,1.5,32.3,M,,,,0000*2A
$GNRMC,071323.000,A,3112.7053,N,12136.4311,E,0.44,0.00,270519,,*11
$GPGSA,A,3,17,19,22,28,,,,,,,,,1.6,1.5,0.6*33
$BDGSA,A,3,08,10,12,13,25,,,,,,,,1.6,1.5,0.6*29
$GPGSV,2,1,07,17,39,311,44,19,22,294,40,22,42,071,45,28,74,316,40*79
$GPGSV,2,2,07,01,42,036,38,11,33,052,35,18,17,047,26*4E
$BDGSV,2,1,07,08,68,297,39,10,72,260,38,12,56,339,44,13,47,257,40*6B
$BDGSV,2,2,07,19,23,063,25,25,13,315,38,24,43,264,00*5C
$LOGTIM,3,-216.770710,-387.772946,0.000000,0.000000,-64.371*15
EndT:        1
sat43 = 1492 4069 490 5000
---00000014--- Acq_st=3 2019-5-27 07:13:23 
[00]  G17  f 44  -1853.8 2046002.4  1.0  1.0  5  0 112420925
[01]  G19  f 40  -2638.3 2046003.4  1.0  1.0  5  0 112420921
[02]  G22  f 45    603.8 2045999.2  1.0  1.0  5  0 112420926
[03]  G28  f 40  -1431.3 2046001.8  1.0  1.0  5  0 112420931
[04]  G01  7 37   2332.8 2045996.9  1.0  1.0  5  0         7
[05]  G11  7 43   2071.7 2045997.3  1.0  1.0  5  0         5
[06]  G18  7 41   3004.6 2045996.0  1.0  1.0  5  0         1
[16]  B08 1f 40    -65.9 4092000.1  1.0  1.0  5  0 112406878
[17]  B10 1f 38   -150.6 4092000.4  1.0  1.0  5  0 112406879
[18]  B12 1f 44   -569.1 4092001.5  1.0  1.0  5  0 112406925
[19]  B13 1f 39   -436.4 4092001.1  1.0  1.0  5  0 112406874
[20]  B19  7 26    109.4 4091999.7  0.8  0.0 20  0      8237
[21]  B25 1f 38  -2203.2 4092005.8  1.0  1.0  5  0 112406913
sat45 = 2051 2322 565 3250
sat45 = 2084 48 565 3250
sat47 = 1749 221 536 1000
sat47 = 1939 1136 534 750
sat50 = 2301 2024 645 2000
sat50 = 2142 265 644 2500
sat51 = 1984 2596 597 3250
src>tow meas_num=13
lsq: nits= 2
$GNGGA,071324.000,3112.7072,N,12136.4317,E,1,09,1.5,27.1,M,,,,0000*2E
$GNRMC,071324.000,A,3112.7072,N,12136.4317,E,0.23,0.00,270519,,*12
$GPGSA,A,3,17,19,22,28,,,,,,,,,1.6,1.5,0.6*33
$BDGSA,A,3,08,10,12,13,25,,,,,,,,1.6,1.5,0.6*29
$GPGSV,2,1,07,17,39,311,44,19,22,294,40,22,42,071,45,28,74,316,40*79
$GPGSV,2,2,07,01,42,036,37,11,33,052,43,18,17,047,41*41
$BDGSV,2,1,07,08,68,297,40,10,72,260,38,12,56,339,44,13,47,257,39*6B
$BDGSV,2,2,07,19,23,063,26,25,13,315,38,24,43,264,00*5F
$LOGTIM,3,-283.030564,-448.906174,0.000000,0.000000,-64.352*1A
EndT:        1
sat51 = 2135 181 595 3000
---00000015--- Acq_st=3 2019-5-27 07:13:24 
[00]  G17  f 44  -1852.9 2046002.4  1.0  1.0  5  0 112421925
[01]  G19  f 40  -2637.5 2046003.4  1.0  1.0  5  0 112421921
[02]  G22  f 45    605.5 2045999.2  1.0  1.0  5  0 112421926
[03]  G28  f 40  -1429.7 2046001.9  1.0  1.0  5  0 112421931
[04]  G01  7 38   2334.2 2045996.9  1.0  0.9  5  0         7
[05]  G11  7 43   2072.5 2045997.3  1.0  1.0  5  0         5
[06]  G18  7 41   3005.9 2045996.0  1.0  1.0  5  0         1
[16]  B08 1f 39    -64.2 4092000.1  1.0  1.0  5  0 112407878
[17]  B10 1f 38   -149.1 4092000.4  1.0  1.0  5  0 112407879
[18]  B12 1f 44   -567.6 4092001.5  1.0  1.0  5  0 112407925
[19]  B13 1f 39   -434.9 4092001.1  1.0  1.0  5  0 112407874
[20]  B19  7 26    111.2 4091999.7  0.7 -0.1 20  0      9237
[21]  B25 1f 38  -2201.5 4092005.8  1.0  0.9  5  0 112407913
sat52 = 2129 2194 587 3750
sat52 = 1920 2123 586 3750
sat53 = 1967 3461 580 2250
sat53 = 1799 2609 579 -1250
sat54 = 2003 451 629 500
sat54 = 2316 451 627 500
sat56 = 1856 54 584 2000
src>tow meas_num=14
lsq: nits= 2
$GNGGA,071325.000,3112.7066,N,12136.4302,E,1,09,1.5,37.9,M,,,,0000*27
$GNRMC,071325.000,A,3112.7066,N,12136.4302,E,0.45,0.00,270519,,*12
$GPGSA,A,3,17,19,22,28,,,,,,,,,1.6,1.5,0.6*33
$BDGSA,A,3,08,10,12,13,25,,,,,,,,1.6,1.5,0.6*29
$GPGSV,2,1,07,17,39,311,44,19,22,294,40,22,42,071,45,28,74,316,40*79
$GPGSV,2,2,07,01,42,036,38,11,33,052,43,18,17,047,41*4E
$BDGSV,2,1,07,08,68,297,39,10,72,260,38,12,56,339,44,13,47,257,39*65
$BDGSV,2,2,07,19,23,063,26,25,13,315,38,24,43,264,00*5F
$LOGTIM,3,-343.428867,-520.428823,0.000000,0.000000,-64.465*12
EndT:        1
sat56 = 2031 1512 585 2000
---00000016--- Acq_st=3 2019-5-27 07:13:25 
[00]  G17  f 44  -1854.2 2046002.4  1.0  1.0  5  0 112422925
[01]  G19  f 39  -2637.8 2046003.4  1.0  1.0  5  0 112422921
[02]  G22  f 45    604.8 2045999.2  1.0  1.0  5  0 112422926
[03]  G28  f 40  -1431.1 2046001.9  1.0  1.0  5  0 112422931
[04]  G01  7 37   2333.0 2045997.0  1.0  1.0  5  0         7
[05]  G11  7 44   2071.9 2045997.3  1.0  1.0  5  0         5
[06]  G18  7 41   3004.9 2045996.1  1.0  1.0  5  0         1
[16]  B08 1f 39    -65.9 4092000.2  1.0  1.0  5  0 112408878
[17]  B10 1f 38   -150.0 4092000.4  1.0  1.0  5  0 112408879
[18]  B12 1f 43   -568.9 4092001.5  1.0  1.0  5  0 112408925
[19]  B13 1f 39   -436.1 4092001.1  1.0  1.0  5  0 112408874
[20]  B19  7 26    110.4 4091999.7  0.9 -0.0 20  0     10237
[21]  B25 1f 37  -2202.7 4092005.8  1.0  1.0  5  0 112408913
[22]  B18  1  7   -457.8 4092000.8  0.1  0.0  1  0       229
sat57 = 1445 640 493 -4500
sat57 = 1560 4078 493 -4500
sat58 = 1440 155 494 3500
sat58 = 1467 3384 493 750
sat59 = 1945 3908 619 4250
sat59 = 2199 1116 617 2000
sat60 = 2954 322 572 -250
ch23 satid=60,max_freq = -250,max_mean = 572,max_phase = 322,max_value = 2954,acq ok1!
sat62 = 1746 1793 533 5000
src>tow meas_num=15
lsq: nits= 2
$GNGGA,071326.000,3112.7166,N,12136.4340,E,1,12,1.2,24.3,M,,,,0000*26
$GNRMC,071326.000,A,3112.7166,N,12136.4340,E,0.33,0.00,270519,,*17
$GPGSA,A,3,01,11,17,18,19,22,28,,,,,,1.3,1.2,0.6*39
$BDGSA,A,3,08,10,12,13,25,,,,,,,,1.3,1.2,0.6*2B
$GPGSV,2,1,07,17,39,311,44,19,22,294,39,22,42,071,45,28,74,316,40*77
$GPGSV,2,2,07,01,42,036,37,11,33,052,44,18,17,047,41*46
$BDGSV,2,1,07,08,68,297,39,10,72,260,38,12,56,339,43,13,47,257,39*62
$BDGSV,2,2,07,19,23,063,26,25,13,315,37,24,43,264,00*50
$LOGTIM,3,-410.104831,-582.552625,0.000000,0.000000,-64.607*11
EndT:        1
---00000017--- Acq_st=3 2019-5-27 07:13:26 
[00]  G17  f 44  -1854.1 2046002.4  1.0  1.0  5  0 112423925
[01]  G19  f 39  -2638.5 2046003.4  1.0  1.0  5  0 112423921
[02]  G22  f 45    605.3 2045999.2  1.0  1.0  5  0 112423926
[03]  G28  f 40  -1430.3 2046001.9  1.0  1.0  5  0 112423931
[04]  G01  f 37   2333.1 2045997.0  1.0  1.0  5  0 112423927
[05]  G11  f 44   2071.5 2045997.3  1.0  1.0  5  0 112423925
[06]  G18  f 41   3004.5 2045996.1  1.0  1.0  5  0 112423921
[16]  B08 1f 39    -66.0 4092000.2  1.0  1.0  5  0 112409878
[17]  B10 1f 38   -150.0 4092000.4  1.0  1.0  5  0 112409879
[18]  B12 1f 43   -568.7 4092001.5  1.0  1.0  5  0 112409925
[19]  B13 1f 39   -436.6 4092001.1  1.0  1.0  5  0 112409874
[20]  B19  7 26    110.9 4091999.7  0.9  0.0 20  0     11237
[21]  B25 1f 37  -2201.9 4092005.8  1.0  1.0  5  0 112409913
[22]  B18  1  7   -588.2 4092001.3  0.1  0.0  1  0      1229
[23]  B24  1  7    271.1 4091999.2 -0.0  0.0  1  0       122
sat62 = 1765 1133 530 4750
sat64 = 1956 2759 685 -4750
sat64 = 1995 3659 683 750
sat65 = 2242 1590 629 0
sat65 = 2449 1481 628 0
sat66 = 1686 1713 542 -3250
sat66 = 1591 2369 542 -1250
sat67 = 1795 2114 550 4000
src>tow meas_num=15
lsq: nits= 2
$GNGGA,071327.000,3112.7185,N,12136.4349,E,1,12,1.2,20.3,M,,,,0000*27
$GNRMC,071327.000,A,3112.7185,N,12136.4349,E,0.24,0.00,270519,,*14
$GPGSA,A,3,01,11,17,18,19,22,28,,,,,,1.3,1.2,0.6*39
$BDGSA,A,3,08,10,12,13,25,,,,,,,,1.3,1.2,0.6*2B
$GPGSV,2,1,07,17,39,311,44,19,22,294,39,22,42,071,45,28,74,316,40*77
$GPGSV,2,2,07,01,42,036,37,11,33,052,44,18,17,047,41*46
$BDGSV,2,1,07,08,68,297,39,10,72,260,38,12,56,339,43,13,47,257,39*62
$BDGSV,2,2,07,19,23,063,26,25,13,315,37,24,43,264,00*50
$LOGTIM,3,-476.201590,-645.936110,0.000000,0.000000,-64.761*17
EndT:        1
---00000018--- Acq_st=3 2019-5-27 07:13:27 
[00]  G17  f 44  -1854.2 2046002.4  1.0  1.0  5  0 112424925
[01]  G19  f 40  -2639.0 2046003.4  1.0  1.0  5  0 112424921
[02]  G22  f 45    605.6 2045999.2  1.0  1.0  5  0 112424926
[03]  G28  f 40  -1430.5 2046001.9  1.0  1.0  5  0 112424931
[04]  G01  f 37   2333.1 2045996.9  1.0  1.0  5  0 112424927
[05]  G11  f 44   2071.0 2045997.3  1.0  1.0  5  0 112424925
[06]  G18  f 41   3004.0 2045996.1  1.0  1.0  5  0 112424921
[16]  B08 1f 39    -65.8 4092000.2  1.0  1.0  5  0 112410878
[17]  B10 1f 38   -150.5 4092000.4  1.0  1.0  5  0 112410879
[18]  B12 1f 44   -569.4 4092001.5  1.0  1.0  5  0 112410925
[19]  B13 1f 39   -436.8 4092001.1  1.0  1.0  5  0 112410874
[20]  B19  7 26    110.6 4091999.6  0.9  0.0 20  0     12237
[21]  B25 1f 37  -2201.8 4092005.8  1.0  1.0  5  0 112410913
[22]  B18  1  7   -484.8 4092000.7  0.1  0.0  1  0      2229
[23]  B24  1  7    353.6 4091997.6  0.0  0.0  1  0      1122
sat67 = 1734 340 550 4000
sat68 = 2198 1098 653 -1500
sat68 = 2343 598 652 2500
src>tow meas_num=15
lsq: nits= 2
$GNGGA,071328.000,3112.7188,N,12136.4351,E,1,12,1.2,17.1,M,,,,0000*2A
$GNRMC,071328.000,A,3112.7188,N,12136.4351,E,0.19,0.00,270519,,*11
$GPGSA,A,3,01,11,17,18,19,22,28,,,,,,1.3,1.2,0.6*39
$BDGSA,A,3,08,10,12,13,25,,,,,,,,1.3,1.2,0.6*2B
$GPGSV,2,1,07,17,39,311,44,19,22,294,40,22,42,071,45,28,74,316,40*79
$GPGSV,2,2,07,01,42,036,37,11,33,052,44,18,17,047,41*46
$BDGSV,2,1,07,08,68,297,39,10,72,260,38,12,56,339,44,13,47,257,39*65
$BDGSV,2,2,07,19,23,063,26,25,13,315,37,24,43,264,00*50
$LOGTIM,3,-543.051021,-711.415460,0.000000,0.000000,-65.130*15
EndT:        1
---00000019--- Acq_st=7 2019-5-27 07:13:28 
[00]  G17  f 44  -1856.4 2046002.4  1.0  1.0  5  0 112425925
[01]  G19  f 40  -2640.6 2046003.4  1.0  1.0  5  0 112425921
[02]  G22  f 44    604.5 2045999.2  1.0  1.0  5  0 112425926
[03]  G28  f 40  -1432.0 2046001.9  1.0  1.0  5  0 112425931
[04]  G01  f 37   2331.3 2045997.0  1.0  1.0  5  0 112425927
[05]  G11  f 44   2069.4 2045997.3  1.0  1.0  5  0 112425925
[06]  G18  f 41   3002.4 2045996.1  1.0  1.0  5  0 112425921
[16]  B08 1f 39    -67.8 4092000.2  1.0  1.0  5  0 112411878
[17]  B10 1f 37   -151.8 4092000.4  1.0  1.0  5  0 112411879
[18]  B12 1f 44   -571.1 4092001.5  1.0  1.0  5  0 112411925
[19]  B13 1f 39   -438.5 4092001.1  1.0  1.0  5  0 112411874
[20]  B19  7 26    109.4 4091999.6  0.7 -0.0 20  0     13237
[21]  B25 1f 37  -2203.8 4092005.8  1.0  1.0  5  0 112411913
[22]  B18  1  7   -498.0 4092000.7 -0.0  0.0  1  0      3229
[23]  B24  1  7    336.9 4091998.2  0.1  0.0  1  0      2122
sat1 = 16557 285 5740 4750
sat1 = 12878 210 4470 -2500
sat2 = 17354 166 5738 3250
sat2 = 18482 987 4890 2750
sat3 = 15021 334 5714 3750
sat3 = 11473 446 4193 4000
sat4 = 19717 953 5741 1500
sat4 = 16409 1053 4710 -2250
sat5 = 16484 307 5701 5000
sat5 = 13489 238 4566 1500
sat6 = 15353 489 5756 2000
sat6 = 11744 871 4303 250
sat7 = 16627 565 5649 1250
sat7 = 13624 1554 4566 3250
sat8 = 15933 1208 5728 -4500
sat8 = 13435 1966 4587 -4000
sat9 = 16590 251 5695 3750
sat9 = 22167 2008 5378 4000
sat11 = 14856 1926 5739 -2500
sat11 = 14852 1099 4724 250
sat12 = 18206 50 5709 0
src>tow meas_num=14
lsq: nits= 2
$GNGGA,071329.000,3112.7224,N,12136.4343,E,1,12,1.2,24.9,M,,,,0000*25
$GNRMC,071329.000,A,3112.7224,N,12136.4343,E,0.71,0.00,270519,,*18
$GPGSA,A,3,01,11,17,18,19,22,28,,,,,,1.3,1.2,0.6*39
$BDGSA,A,3,08,10,12,13,25,,,,,,,,1.3,1.2,0.6*2B
$GPGSV,2,1,07,17,39,311,44,19,22,294,40,22,42,071,44,28,74,316,40*78
$GPGSV,2,2,07,01,42,036,37,11,33,052,44,18,17,047,41*46
$BDGSV,2,1,07,08,68,297,39,10,72,260,37,12,56,339,44,13,47,257,39*6A
$BDGSV,2,2,07,19,23,063,26,25,13,315,37,24,43,264,00*50
$LOGTIM,3,-604.409665,-778.080188,0.000000,0.000000,-65.145*1C
EndT:        1
sat12 = 14033 561 4841 5000
sat13 = 15960 1367 5731 2750
---00000020--- Acq_st=3 2019-5-27 07:13:29 
[00]  G17  f 43  -1857.8 2046002.4  1.0  1.0  5  0 112426925
[01]  G19  f 40  -2641.8 2046003.4  1.0  1.0  5  0 112426921
[02]  G22  f 44    603.7 2045999.2  1.0  1.0  5  0 112426926
[03]  G28  f 40  -1432.6 2046001.9  1.0  1.0  5  0 112426931
[04]  G01  f 38   2330.3 2045997.0  1.0  1.0  5  0 112426927
[05]  G11  f 44   2068.2 2045997.3  1.0  1.0  5  0 112426925
[06]  G18  f 40   3001.0 2045996.1  1.0  1.0  5  0 112426921
[16]  B08 1f 39    -69.1 4092000.2  1.0  1.0  5  0 112412878
[17]  B10 1f 38   -152.9 4092000.4  1.0  1.0  5  0 112412879
[18]  B12 1f 44   -572.4 4092001.5  1.0  1.0  5  0 112412925
[19]  B13 1f 39   -439.3 4092001.2  1.0  1.0  5  0 112412874
[20]  B19  7 26    108.8 4091999.6  0.7 -0.0 20  0     14237
[21]  B25 1f 37  -2204.0 4092005.7  1.0  1.0  5  0 112412913
[23]  B24  7 35    336.2 4091999.2  0.5  1.0  5  0      3121
sat13 = 12307 1872 4096 5000
sat14 = 15806 549 5788 5000
sat14 = 15342 641 4691 -500
sat15 = 15670 926 5675 750
sat15 = 16002 532 4637 -2250
sat19 = 16642 107 5671 -2750
sat19 = 17267 1714 4394 -3500
sat20 = 15826 1477 5737 2250
sat20 = 13649 1936 4853 -3750
sat22 = 14894 379 5706 1750
sat22 = 10685 1418 3879 -2750
sat23 = 16655 382 5788 1500
sat23 = 11131 1415 4114 4000
sat24 = 15702 240 5691 4500
sat24 = 14045 502 4825 3500
sat25 = 16156 1260 5733 750
sat25 = 12781 637 4573 -1500
sat26 = 20229 423 5725 2750
sat26 = 15119 107 4906 1500
sat28 = 18245 1376 5717 250
sat28 = 14068 836 4552 750
sat29 = 15303 228 5684 -750
src>tow meas_num=14
lsq: nits= 2
$GNGGA,071330.000,3112.7212,N,12136.4355,E,1,12,1.2,14.6,M,,,,0000*23
$GNRMC,071330.000,A,3112.7212,N,12136.4355,E,0.17,0.00,270519,,*12
$GPGSA,A,3,01,11,17,18,19,22,28,,,,,,1.3,1.2,0.6*39
$BDGSA,A,3,08,10,12,13,25,,,,,,,,1.3,1.2,0.6*2B
$GPGSV,2,1,07,17,39,311,43,19,22,294,40,22,42,071,44,28,74,316,40*7F
$GPGSV,2,2,07,01,42,036,38,11,33,052,44,18,17,047,40*48
$BDGSV,2,1,07,08,68,297,39,10,72,260,38,12,56,339,44,13,47,257,39*65
$BDGSV,2,2,07,19,23,063,26,25,13,315,37,24,43,264,35*56
$LOGTIM,3,-674.618432,-837.482328,0.000000,0.000000,-65.486*19
EndT:        1
sat29 = 15574 934 4999 1500
sat30 = 17817 57 5705 -4750
---00000021--- Acq_st=3 2019-5-27 07:13:30 
[00]  G17  f 43  -1857.6 2046002.4  1.0  1.0  5  0 112427925
[01]  G19  f 40  -2641.6 2046003.4  1.0  1.0  5  0 112427921
[02]  G22  f 45    604.2 2045999.2  1.0  1.0  5  0 112427926
[03]  G28  f 39  -1432.3 2046001.9  1.0  1.0  5  0 112427931
[04]  G01  f 37   2330.3 2045997.0  1.0  1.0  5  0 112427927
[05]  G11  f 44   2068.4 2045997.3  1.0  1.0  5  0 112427925
[06]  G18  f 41   3001.0 2045996.1  1.0  1.0  5  0 112427921
[16]  B08 1f 39    -68.9 4092000.2  1.0  1.0  5  0 112413878
[17]  B10 1f 38   -152.8 4092000.4  1.0  1.0  5  0 112413879
[18]  B12 1f 44   -572.5 4092001.5  1.0  1.0  5  0 112413925
[19]  B13 1f 39   -439.6 4092001.1  1.0  1.0  5  0 112413874
[20]  B19  7 26    108.9 4091999.5  0.9  0.0 20  0     15237
[21]  B25 1f 38  -2203.9 4092005.8  1.0  1.0  5  0 112413913
[23]  B24  7 38    337.1 4091999.2  1.0  1.0  5  0      4121
sat30 = 14984 777 4664 4250
sat31 = 16753 197 5687 1500
sat31 = 13893 1057 4833 1500
sat37 = 2130 1560 524 3500
ch22 satid=37,max_freq = 3500,max_mean = 524,max_phase = 1560,max_value = 2130,acq ok1!
sat38 = 2271 3164 622 -1500
sat38 = 2142 3465 627 -4250
sat39 = 1677 2873 574 4500
sat39 = 1612 2309 580 -4000
sat40 = 1615 3538 541 -2000
src>tow meas_num=15
lsq: nits= 2
$GNGGA,071331.000,3112.7198,N,12136.4356,E,1,12,1.2,14.6,M,,,,0000*20
$GNRMC,071331.000,A,3112.7198,N,12136.4356,E,0.30,0.00,270519,,*14
$GPGSA,A,3,01,11,17,18,19,22,28,,,,,,1.3,1.2,0.6*39
$BDGSA,A,3,08,10,12,13,25,,,,,,,,1.3,1.2,0.6*2B
$GPGSV,2,1,07,17,39,311,43,19,22,294,40,22,42,071,45,28,74,316,39*70
$GPGSV,2,2,07,01,42,036,37,11,33,052,44,18,17,047,41*46
$BDGSV,2,1,07,08,68,297,39,10,72,260,38,12,56,339,44,13,47,257,39*65
$BDGSV,2,2,07,19,23,063,26,25,13,315,38,24,43,264,38*54
$LOGTIM,3,-740.881132,-903.218820,0.000000,0.000000,-65.209*15
EndT:        1
sat40 = 1753 216 545 -4500
---00000022--- Acq_st=3 2019-5-27 07:13:31 
[00]  G17  f 43  -1854.9 2046002.4  1.0  1.0  5  0 112428925
[01]  G19  f 41  -2638.8 2046003.4  1.0  1.0  5  0 112428921
[02]  G22  f 45    607.5 2045999.2  1.0  1.0  5  0 112428926
[03]  G28  f 39  -1429.3 2046001.9  1.0  1.0  5  0 112428931
[04]  G01  f 36   2333.5 2045996.9  1.0  1.0  5  0 112428927
[05]  G11  f 43   2071.7 2045997.3  1.0  1.0  5  0 112428925
[06]  G18  f 41   3003.8 2045996.1  1.0  1.0  5  0 112428921
[16]  B08 1f 39    -66.7 4092000.2  1.0  1.0  5  0 112414878
[17]  B10 1f 38   -149.9 4092000.4  1.0  1.0  5  0 112414879
[18]  B12 1f 44   -569.2 4092001.5  1.0  1.0  5  0 112414925
[19]  B13 1f 39   -436.2 4092001.1  1.0  1.0  5  0 112414874
[20]  B19  7 26    112.5 4091999.6 -0.2 -0.0 20  0     16237
[21]  B25 1f 38  -2200.5 4092005.8  1.0  1.0  5  0 112414913
[22]  B01  1 10  -3494.5 4092008.7  0.0  0.0  1  0       685
[23]  B24  7 39    340.4 4091999.2  1.0  1.0  5  0      5121
sat41 = 2699 499 672 2250
ch24 satid=41,max_freq = 2250,max_mean = 672,max_phase = 499,max_value = 2699,acq ok1!
sat42 = 2017 310 543 1000
sat42 = 2114 1721 548 1250
sat43 = 1650 2462 488 5000
sat43 = 1739 3721 493 5000
sat45 = 2055 3098 562 3250
sat45 = 2223 2444 567 3000
src>tow meas_num=16
lsq: nits= 2
$GNGGA,071332.000,3112.7199,N,12136.4358,E,1,12,1.2,14.4,M,,,,0000*2E
$GNRMC,071332.000,A,3112.7199,N,12136.4358,E,0.38,0.00,270519,,*10
$GPGSA,A,3,01,11,17,18,19,22,28,,,,,,1.3,1.2,0.6*39
$BDGSA,A,3,08,10,12,13,25,,,,,,,,1.3,1.2,0.6*2B
$GPGSV,2,1,07,17,39,311,43,19,22,294,41,22,42,071,45,28,74,316,39*71
$GPGSV,2,2,07,01,42,036,36,11,33,052,43,18,17,047,41*40
$BDGSV,2,1,07,08,68,297,39,10,72,260,38,12,56,339,44,13,47,257,39*65
$BDGSV,2,2,07,19,23,063,26,25,13,315,38,24,43,264,39*55
$LOGTIM,3,-805.853027,-968.076293,0.000000,0.000000,-65.010*1E
EndT:        1
sat47 = 1785 1517 533 1000
---00000023--- Acq_st=3 2019-5-27 07:13:32 
[00]  G17  f 43  -1853.2 2046002.4  1.0  1.0  5  0 112429925
[01]  G19  f 41  -2637.8 2046003.4  1.0  1.0  5  0 112429921
[02]  G22  f 45    609.9 2045999.3  1.0  1.0  5  0 112429926
[03]  G28  f 39  -1426.7 2046001.9  1.0  1.0  5  0 112429931
[04]  G01  f 38   2335.3 2045997.0  1.0  1.0  5  0 112429927
[05]  G11  f 44   2073.2 2045997.3  1.0  1.0  5  0 112429925
[06]  G18  f 41   3005.2 2045996.1  1.0  1.0  5  0 112429921
[16]  B08 1f 39    -64.9 4092000.2  1.0  1.0  5  0 112415878
[17]  B10 1f 38   -148.2 4092000.4  1.0  1.0  5  0 112415879
[18]  B12 1f 44   -567.6 4092001.5  1.0  1.0  5  0 112415925
[19]  B13 1f 39   -435.1 4092001.1  1.0  1.0  5  0 112415874
[20]  B19  7 26    114.2 4091999.7  0.2  0.0 20  0     17237
[21]  B25 1f 38  -2198.8 4092005.7  1.0  1.0  5  0 112415913
[22]  B01  1 10  -3534.0 4092010.0 -0.0  0.0  1  0      1685
[23]  B24  7 39    342.5 4091999.1  1.0  1.0  5  0      6121
[24]  B05  1 31  -2033.6 4092006.1 -0.1  0.0  1  0       823
sat47 = 1873 300 538 1000
sat50 = 2245 3829 642 2000
sat50 = 2311 1282 647 2000
sat51 = 2114 1222 594 3000
sat51 = 1921 2435 599 3250
sat52 = 1861 2616 582 4000
sat52 = 1879 2479 587 4000
src>tow meas_num=16
lsq: nits= 2
$GNGGA,071333.000,3112.7203,N,12136.4365,E,1,11,1.3,18.4,M,,,,0000*2F
$GNRMC,071333.000,A,3112.7203,N,12136.4365,E,0.38,0.00,270519,,*1F
$GPGSA,A,3,01,11,17,18,19,22,28,,,,,,1.5,1.3,0.7*3F
$BDGSA,A,3,08,10,13,25,,,,,,,,,1.5,1.3,0.7*2E
$GPGSV,2,1,07,17,39,311,43,19,22,295,41,22,42,071,45,28,75,316,39*71
$GPGSV,2,2,07,01,42,036,38,11,33,052,44,18,17,047,41*49
$BDGSV,2,1,07,08,68,297,39,10,72,260,38,12,56,339,44,13,47,257,39*65
$BDGSV,2,2,07,19,23,063,26,25,13,315,38,24,43,264,39*55
$LOGTIM,3,-868.431714,-1029.989090,0.000000,0.000000,-64.662*2D
EndT:        1
sat53 = 1941 3232 576 2000
---00000024--- Acq_st=3 2019-5-27 07:13:34 
[00]  G17  f 42  -1852.3 2046002.4  1.0  1.0  5  0 112430925
[01]  G19  f 41  -2636.4 2046003.5  1.0  1.0  5  0 112430922
[02]  G22  f 44    611.0 2045999.2  1.0  1.0  5  0 112430926
[03]  G28  f 39  -1425.5 2046001.8  1.0  1.0  5  0 112430931
[04]  G01  f 37   2335.9 2045997.0  1.0  1.0  5  0 112430927
[05]  G11  f 43   2074.1 2045997.3  1.0  1.0  5  0 112430925
[06]  G18  f 41   3006.4 2045996.1  1.0  1.0  5  0 112430921
[16]  B08 1f 39    -63.4 4092000.2  1.0  1.0  5  0 112416878
[17]  B10 1f 38   -147.5 4092000.3  1.0  0.9  5  0 112416879
[18]  B12 1f 44   -567.1 4092001.5  1.0  1.0  5  0 112416925
[19]  B13 1f 39   -433.7 4092001.1  1.0  1.0  5  0 112416874
[20]  B19  7 26    116.1 4091999.6 -0.2 -0.0 20  0     18237
[21]  B25 1f 39  -2197.3 4092005.7  1.0  1.0  5  0 112416913
[22]  B01  1 10  -3556.9 4092009.1  0.0  0.0  1  0      2685
[23]  B24  7 39    343.9 4091999.1  1.0  1.0  5  0      7121
[24]  B05  1 31  -2035.6 4092004.9  0.0  0.0  1  0      1823
sat53 = 1974 3880 582 -1250
sat56 = 2069 2258 581 2000
sat56 = 1940 745 587 2000
sat57 = 1506 3203 489 -4750
sat57 = 1439 3756 494 750
sat58 = 1474 3029 490 750
sat58 = 1451 2280 494 3250
src>tow meas_num=15
lsq: nits= 2
sat59 = 2142 2689 617 500
$GNGGA,071334.000,3112.7180,N,12136.4363,E,1,13,1.2,20.5,M,,,,0000*2F
$GNRMC,071334.000,A,3112.7180,N,12136.4363,E,0.29,0.00,270519,,*16
$GPGSA,A,3,01,11,17,18,19,22,28,,,,,,1.3,1.2,0.6*39
$BDGSA,A,3,08,10,12,13,24,25,,,,,,,1.3,1.2,0.6*2D
$GPGSV,2,1,07,17,39,311,42,19,22,295,41,22,42,071,44,28,75,316,39*71
$GPGSV,2,2,07,01,42,036,37,11,33,052,43,18,17,047,41*41
$BDGSV,2,1,07,08,68,297,39,10,72,260,38,12,56,339,44,13,47,257,39*65
$BDGSV,2,2,07,19,23,063,26,25,13,315,39,24,43,264,39*54
$LOGTIM,3,-934.207057,-1095.498116,0.000000,0.000000,-65.013*22
EndT:        1
---00000025--- Acq_st=3 2019-5-27 07:13:34 
[00]  G17  f 43  -1854.8 2046002.4  1.0  1.0  5  0 112431925
[01]  G19  f 41  -2639.4 2046003.4  1.0  0.9  5  0 112431922
[02]  G22  f 44    608.6 2045999.2  1.0  1.0  5  0 112431926
[03]  G28  f 39  -1427.3 2046001.8  1.0  1.0  5  0 112431931
[04]  G01  f 37   2333.1 2045996.9  1.0  1.0  5  0 112431927
[05]  G11  f 44   2071.2 2045997.3  1.0  1.0  5  0 112431925
[06]  G18  f 41   3004.0 2045996.1  1.0  1.0  5  0 112431921
[16]  B08 1f 39    -66.7 4092000.2  1.0  1.0  5  0 112417878
[17]  B10 1f 38   -149.8 4092000.4  1.0  1.0  5  0 112417879
[18]  B12 1f 44   -569.1 4092001.5  1.0  1.0  5  0 112417925
[19]  B13 1f 39   -436.8 4092001.2  1.0  1.0  5  0 112417874
[20]  B19  7 26    113.3 4091999.7  0.3  0.0 20  0     19237
[21]  B25 1f 39  -2199.7 4092005.7  1.0  1.0  5  0 112417913
[23]  B24 1f 39    341.7 4091999.1  1.0  1.0  5  0 112417921
[24]  B05  1 29  -2064.5 4092004.9 -0.1  0.0  1  0      2823
sat59 = 2042 1394 622 4250
sat62 = 1704 3018 529 5000
sat62 = 1851 275 533 3000
sat63 = 1885 3640 560 2250
sat63 = 1857 945 566 5000
sat64 = 2089 1182 679 500
sat64 = 2029 2528 686 -4750
sat65 = 2414 120 625 250
src>tow meas_num=14
lsq: nits= 2
$GNGGA,071335.000,3112.7180,N,12136.4369,E,1,13,1.2,25.4,M,,,,0000*20
$GNRMC,071335.000,A,3112.7180,N,12136.4369,E,0.39,0.00,270519,,*1C
$GPGSA,A,3,01,11,17,18,19,22,28,,,,,,1.3,1.2,0.6*39
$BDGSA,A,3,08,10,12,13,24,25,,,,,,,1.3,1.2,0.6*2D
$GPGSV,2,1,07,17,39,311,43,19,22,295,41,22,42,071,44,28,75,316,39*70
$GPGSV,2,2,07,01,42,036,37,11,33,052,44,18,17,047,41*46
$BDGSV,2,1,07,08,68,297,39,10,72,260,38,12,56,339,44,13,47,257,39*65
$BDGSV,2,2,07,19,23,063,26,25,13,315,39,24,43,264,39*54
$LOGTIM,3,-996.417899,-1155.148556,0.000000,0.000000,-64.616*20
EndT:        1
---00000026--- Acq_st=3 2019-5-27 07:13:35 
[00]  G17  f 43  -1851.9 2046002.4  1.0  1.0  5  0 112432925
[01]  G19  f 41  -2636.2 2046003.4  1.0  1.0  5  0 112432922
[02]  G22  f 44    612.7 2045999.2  1.0  1.0  5  0 112432926
[03]  G28  f 39  -1424.6 2046001.9  1.0  1.0  5  0 112432931
[04]  G01  f 38   2337.1 2045997.0  1.0  1.0  5  0 112432927
[05]  G11  f 43   2074.5 2045997.3  1.0  1.0  5  0 112432925
[06]  G18  f 41   3006.8 2045996.1  1.0  1.0  5  0 112432921
[16]  B08 1f 39    -62.6 4092000.2  1.0  1.0  5  0 112418878
[17]  B10 1f 38   -146.6 4092000.4  1.0  1.0  5  0 112418879
[18]  B12 1f 44   -566.1 4092001.5  1.0  1.0  5  0 112418925
[19]  B13 1f 39   -433.5 4092001.1  1.0  1.0  5  0 112418874
[20]  B19  7 26    116.9 4091999.6  0.2 -0.0 20  0     20237
[21]  B25 1f 39  -2196.0 4092005.8  1.0  1.0  5  0 112418913
[23]  B24 1f 40    344.7 4091999.1  1.0  1.0  5  0 112418921
sat65 = 2306 141 631 250
sat66 = 1654 1175 537 -1000
sat66 = 1599 3464 543 -1000
sat67 = 1850 3485 548 -4500
sat67 = 1803 304 552 -4500
sat68 = 2222 3550 645 -1250
sat68 = 2277 1263 652 -1750
src>tow meas_num=14
lsq: nits= 2
$GNGGA,071336.000,3112.7162,N,12136.4361,E,1,13,1.2,24.2,M,,,,0000*20
$GNRMC,071336.000,A,3112.7162,N,12136.4361,E,0.75,0.00,270519,,*13
$GPGSA,A,3,01,11,17,18,19,22,28,,,,,,1.3,1.2,0.6*39
$BDGSA,A,3,08,10,12,13,24,25,,,,,,,1.3,1.2,0.6*2D
$GPGSV,2,1,07,17,39,311,43,19,22,295,41,22,42,071,44,28,75,316,39*70
$GPGSV,2,2,07,01,42,036,38,11,33,052,43,18,17,047,41*4E
$BDGSV,2,1,07,08,68,297,39,10,72,260,38,12,56,339,44,13,47,257,39*65
$BDGSV,2,2,07,19,23,063,26,25,13,315,39,24,43,264,40*5A
$LOGTIM,3,-1063.755754,-1222.720956,0.000000,0.000000,-64.453*1D
EndT:        1
---00000027--- Acq_st=7 2019-5-27 07:13:37 
[00]  G17  f 43  -1850.3 2046002.4  1.0  1.0  5  0 112433925
[01]  G19  f 41  -2634.6 2046003.4  1.0  1.0  5  0 112433922
[02]  G22  f 44    614.9 2045999.2  1.0  1.0  5  0 112433926
[03]  G28  f 39  -1422.8 2046001.8  1.0  1.0  5  0 112433931
[04]  G01  f 38   2339.2 2045996.9  1.0  1.0  5  0 112433927
[05]  G11  f 44   2076.4 2045997.3  1.0  1.0  5  0 112433925
[06]  G18  f 41   3008.3 2045996.1  1.0  1.0  5  0 112433921
[16]  B08 1f 39    -61.5 4092000.1  1.0  1.0  5  0 112419878
[17]  B10 1f 38   -145.2 4092000.4  1.0  1.0  5  0 112419879
[18]  B12 1f 44   -564.5 4092001.5  1.0  1.0  5  0 112419925
[19]  B13 1f 39   -432.2 4092001.2  1.0  1.0  5  0 112419874
[20]  B19  7 26    119.7 4091999.6 -0.1 -0.0 20  0     21237
[21]  B25 1f 39  -2194.3 4092005.7  1.0  1.0  5  0 112419913
[23]  B24 1f 39    347.5 4091999.1  1.0  1.0  5  0 112419921
src>tow meas_num=14
lsq: nits= 2
$GNGGA,071337.000,3112.7176,N,12136.4355,E,1,13,1.2,29.1,M,,,,0000*2D
$GNRMC,071337.000,A,3112.7176,N,12136.4355,E,0.19,0.00,270519,,*1A
$GPGSA,A,3,01,11,17,18,19,22,28,,,,,,1.3,1.2,0.6*39
$BDGSA,A,3,08,10,12,13,24,25,,,,,,,1.3,1.2,0.6*2D
$GPGSV,2,1,07,17,39,311,43,19,22,295,41,22,42,071,44,28,75,316,39*70
$GPGSV,2,2,07,01,42,036,38,11,33,052,44,18,17,047,41*49
$BDGSV,2,1,07,08,68,297,39,10,72,260,38,12,56,339,44,13,47,257,39*65
$BDGSV,2,2,07,19,23,063,26,25,13,315,39,24,43,264,39*54
$LOGTIM,3,-1126.679443,-1286.341605,0.000000,0.000000,-64.449*18
EndT:        1
---00000028--- Acq_st=7 2019-5-27 07:13:37 
[00]  G17  f 43  -1851.4 2046002.4  1.0  1.0  5  0 112434925
[01]  G19  f 41  -2636.2 2046003.5  1.0  0.9  5  0 112434922
[02]  G22  f 45    614.1 2045999.2  1.0  1.0  5  0 112434926
[03]  G28  f 38  -1423.6 2046001.9  1.0  1.0  5  0 112434931
[04]  G01  f 39   2337.7 2045996.9  1.0  1.0  5  0 112434927
[05]  G11  f 44   2074.9 2045997.3  1.0  1.0  5  0 112434925
[06]  G18  f 41   3006.6 2045996.1  1.0  1.0  5  0 112434921
[16]  B08 1f 39    -63.1 4092000.2  1.0  0.9  5  0 112420878
[17]  B10 1f 38   -146.6 4092000.3  1.0  1.0  5  0 112420879
[18]  B12 1f 44   -565.8 4092001.5  1.0  1.0  5  0 112420925
[19]  B13 1f 39   -433.3 4092001.1  1.0  1.0  5  0 112420874
[20]  B19  7 26    118.1 4091999.6  0.8 -0.0 20  0     22237
[21]  B25 1f 38  -2195.4 4092005.7  1.0  0.9  5  0 112420913
[23]  B24 1f 39    346.1 4091999.1  1.0  1.0  5  0 112420921
sat1 = 15376 1584 5637 -2000
sat1 = 13862 1922 4513 -2500
sat2 = 14883 179 5680 -2500
sat2 = 19386 964 4930 3000
sat3 = 14872 1817 5660 -500
sat3 = 11885 53 4238 4000
sat4 = 13273 890 5662 -4750
sat4 = 14630 614 4751 -4500
sat5 = 14219 942 5598 -3000
sat5 = 14732 725 4592 1250
sat6 = 14393 991 5714 750
sat6 = 13626 1525 4351 -1250
sat7 = 15453 636 5534 500
sat7 = 13253 1243 4607 4750
sat8 = 14705 1954 5639 2750
sat8 = 14538 1983 4622 -2500
sat9 = 14865 40 5688 2250
sat9 = 22332 1855 5443 4000
sat11 = 14549 1087 5664 -4500
sat11 = 13362 1590 4760 -4250
sat12 = 14193 125 5665 3250
sat12 = 14573 1315 4896 5000
src>tow meas_num=14
lsq: nits= 2
$GNGGA,071338.000,3112.7172,N,12136.4357,E,1,13,1.2,28.5,M,,,,0000*21
$GNRMC,071338.000,A,3112.7172,N,12136.4357,E,0.29,0.00,270519,,*10
$GPGSA,A,3,01,11,17,18,19,22,28,,,,,,1.3,1.2,0.6*39
$BDGSA,A,3,08,10,12,13,24,25,,,,,,,1.3,1.2,0.6*2D
$GPGSV,2,1,07,17,39,311,43,19,22,295,41,22,42,071,45,28,75,316,38*70
$GPGSV,2,2,07,01,42,036,39,11,33,052,44,18,17,047,41*48
$BDGSV,2,1,07,08,68,297,39,10,72,260,38,12,56,339,44,13,47,257,39*65
$BDGSV,2,2,07,19,23,063,26,25,13,315,38,24,43,264,39*55
$LOGTIM,3,-1191.011498,-1350.502599,0.000000,0.000000,-64.286*12
EndT:        1
sat13 = 14782 664 5700 -3500
---00000029--- Acq_st=3 2019-5-27 07:13:38 
[00]  G17  f 42  -1850.2 2046002.4  1.0  1.0  5  0 112435925
[01]  G19  f 41  -2634.4 2046003.4  1.0  1.0  5  0 112435922
[02]  G22  f 44    615.9 2045999.2  1.0  1.0  5  0 112435926
[03]  G28  f 39  -1420.9 2046001.8  1.0  1.0  5  0 112435931
[04]  G01  f 39   2339.6 2045997.0  1.0  1.0  5  0 112435927
[05]  G11  f 44   2076.7 2045997.3  1.0  1.0  5  0 112435925
[06]  G18  f 41   3008.3 2045996.1  1.0  1.0  5  0 112435921
[16]  B08 1f 38    -61.7 4092000.1  1.0  1.0  5  0 112421878
[17]  B10 1f 38   -144.7 4092000.3  1.0  1.0  5  0 112421879
[18]  B12 1f 44   -564.1 4092001.4  1.0  1.0  5  0 112421925
[19]  B13 1f 39   -432.4 4092001.1  1.0  1.0  5  0 112421874
[20]  B19  7 26    120.5 4091999.5  0.6  0.0 20  0     23237
[21]  B25 1f 38  -2193.2 4092005.7  1.0  1.0  5  0 112421913
[23]  B24 1f 40    348.5 4091999.1  1.0  1.0  5  0 112421921
sat13 = 13107 1488 4144 4000
sat14 = 15964 1664 5739 -2000
sat14 = 16068 1336 4754 -250
sat15 = 14281 1007 5589 -1000
sat15 = 16636 2009 4665 -2250
sat19 = 14659 990 5641 250
sat19 = 17319 1870 4450 -3750
sat20 = 14935 179 5724 -500
sat20 = 14182 160 4909 -3750
sat22 = 14308 944 5627 -1750
sat22 = 9891 990 3888 -2500
sat23 = 14213 581 5735 4750
sat23 = 11266 1886 4147 3750
sat24 = 14375 1335 5623 500
sat24 = 14381 2038 4850 3500
sat25 = 14300 1744 5645 4500
sat25 = 13753 1490 4602 4750
sat26 = 16299 1681 5639 4000
sat26 = 15331 267 4954 1500
sat28 = 15907 679 5659 1000
sat28 = 13853 479 4597 750
sat29 = 14789 1692 5585 4750
sat29 = 16784 1926 5045 1250
src>tow meas_num=14
lsq: nits= 2
$GNGGA,071339.000,3112.7166,N,12136.4359,E,1,13,1.2,28.4,M,,,,0000*2A
$GNRMC,071339.000,A,3112.7166,N,12136.4359,E,0.27,0.00,270519,,*14
$GPGSA,A,3,01,11,17,18,19,22,28,,,,,,1.3,1.2,0.6*39
$BDGSA,A,3,08,10,12,13,24,25,,,,,,,1.3,1.2,0.6*2D
$GPGSV,2,1,07,17,39,311,42,19,22,295,41,22,42,071,44,28,75,316,39*71
$GPGSV,2,2,07,01,42,036,39,11,33,052,44,18,17,047,41*48
$BDGSV,2,1,07,08,68,297,38,10,72,260,38,12,56,339,44,13,47,257,39*64
$BDGSV,2,2,07,19,23,063,26,25,13,315,38,24,43,264,40*5B
$LOGTIM,3,-1255.411521,-1414.752064,0.000000,0.000000,-64.326*12
EndT:        1
sat30 = 14177 156 5656 1500
---00000030--- Acq_st=3 2019-5-27 07:13:39 
[00]  G17  f 42  -1851.1 2046002.4  1.0  1.0  5  0 112436925
[01]  G19  f 41  -2634.9 2046003.5  1.0  1.0  5  0 112436922
[02]  G22  f 44    615.9 2045999.2  1.0  1.0  5  0 112436926
[03]  G28  f 38  -1421.6 2046001.8  1.0  1.0  5  0 112436931
[04]  G01  f 39   2339.0 2045996.9  1.0  1.0  5  0 112436927
[05]  G11  f 44   2076.0 2045997.3  1.0  1.0  5  0 112436925
[06]  G18  f 41   3007.3 2045996.1  1.0  1.0  5  0 112436921
[16]  B08 1f 38    -62.5 4092000.2  1.0  1.0  5  0 112422878
[17]  B10 1f 39   -145.0 4092000.3  1.0  1.0  5  0 112422879
[18]  B12 1f 44   -564.7 4092001.5  1.0  1.0  5  0 112422925
[19]  B13 1f 39   -432.8 4092001.1  1.0  1.0  5  0 112422874
[20]  B19  7 26    120.0 4091999.6  0.9  0.0 20  0     24237
[21]  B25 1f 38  -2194.2 4092005.8  1.0  1.0  5  0 112422913
[23]  B24 1f 40    348.1 4091999.1  1.0  1.0  5  0 112422921
sat30 = 13823 217 4688 -2500
sat31 = 15166 1727 5654 -2000
sat31 = 15023 109 4874 4000
sat37 = 1689 3588 521 3500
sat37 = 1630 3011 525 3500
sat38 = 2192 1033 621 -1250
sat38 = 2155 1594 625 -4500
