FlashID=0x1 0x20 0x18
BBram_blkflag1:  762: f89d
FW Ver: 1.30  
GPS00 Init Dop:  -2217,  2
GPS01 Init Dop:   5000, 40
GPS02 Init Dop:   5000, 40
GPS03 Init Dop:   5000, 40
GPS04 Init Dop:   5000, 40
GPS05 Init Dop:   5000, 40
GPS06 Init Dop:   5000, 40
GPS07 Init Dop:   5000, 40
GPS08 Init Dop:   5000, 40
GPS09 Init Dop:   5000, 40
GPS10 Init Dop:  -1909,  2
GPS11 Init Dop:   5000, 40
GPS12 Init Dop:   5000, 40
GPS13 Init Dop:   5000, 40
GPS14 Init Dop:   5000, 40
GPS15 Init Dop:   5000, 40
GPS16 Init Dop:   2077,  2
GPS17 Init Dop:  -2767,  2
GPS18 Init Dop:   2853,  2
GPS19 Init Dop:   5000, 40
GPS20 Init Dop:   5000, 40
GPS21 Init Dop:   -761,  2
GPS22 Init Dop:   5000, 40
GPS23 Init Dop:   5000, 40
GPS24 Init Dop:   5000, 40
GPS25 Init Dop:   5000, 40
GPS26 Init Dop:   5000, 40
GPS27 Init Dop:   1332,  2
GPS28 Init Dop:   5000, 40
GPS29 Init Dop:   5000, 40
GPS30 Init Dop:   5000, 40
GPS31 Init Dop:   5000, 40
BDS00 Init Dop:   5000, 40
BDS01 Init Dop:   5000, 40
BDS02 Init Dop:   5000, 40
BDS03 Init Dop:   5000, 40
BDS04 Init Dop:   5000, 40
BDS05 Init Dop:   5000, 40
BDS06 Init Dop:   5000, 40
BDS07 Init Dop:    280,  2
BDS08 Init Dop:   5000, 40
BDS09 Init Dop:    280,  2
BDS10 Init Dop:   5000, 40
BDS11 Init Dop:    749,  2
BDS12 Init Dop:    627,  2
BDS13 Init Dop:   5000, 40
BDS14 Init Dop:   5000, 40
BDS15 Init Dop:   5000, 40
BDS16 Init Dop:   5000, 40
BDS17 Init Dop:   5000, 40
BDS18 Init Dop:   -262,  2
BDS19 Init Dop:   5000, 40
BDS20 Init Dop:   5000, 40
BDS21 Init Dop:   5000, 40
BDS22 Init Dop:   5000, 40
BDS23 Init Dop:   -456,  2
BDS24 Init Dop:   2127,  2
BDS25 Init Dop:   5000, 40
BDS26 Init Dop:   5000, 40
BDS27 Init Dop:   5000, 40
BDS28 Init Dop:   5000, 40
BDS29 Init Dop:   5000, 40
BDS30 Init Dop:   5000, 40
BDS31 Init Dop:   5000, 40
sat0 = 2496 544 1138 -2217
sat0 = 10012 377 4867 -2217
sat1 = 3724 660 1453 4500
sat1 = 14864 61 4178 -2500
sat2 = 4141 2041 1442 -2000
sat2 = 18201 1650 4625 2750
sat3 = 3945 224 1450 -4000
sat3 = 11844 572 3883 750
sat4 = 3892 1860 1446 -4500
sat4 = 14749 1397 4437 -2250
sat5 = 4437 249 1444 2750
sat5 = 12732 928 4266 1250
sat6 = 3604 25 1453 3500
sat6 = 13072 1194 4003 -1000
sat7 = 3772 193 1430 4750
sat7 = 14122 1962 4310 3500
sat8 = 4007 514 1438 -4000
sat8 = 13311 1973 4314 2000
sat9 = 3612 40 1447 750
sat9 = 20842 1049 5169 4000
sat10 = 2916 829 1163 -2159
sat10 = 11323 620 4789 -2159
sat11 = 3835 1641 1445 -2250
sat11 = 12434 949 4454 -4500
sat12 = 3752 1348 1445 -750
sat12 = 14672 807 4579 -250
---00000001--- Acq_st=3 2019-5-27 07:25:14 
sat13 = 3950 1536 1449 -2500
src<tow snapfix
$GNGGA,000000.000,,,,,0,00,,,M,,,,0000*2B
$GNRMC,000000.000,A,,,,,,,000000,,*26
$GPGSA,A,1,,,,,,,,,,,,,,,*1E
$BDGSA,A,1,,,,,,,,,,,,,,,*0F
$LOGTIM,0,0.000000,0.000000,0.000000,0.000000,0.000*0A
EndT:        0
sat13 = 11237 1862 3791 -2500
sat14 = 4062 1580 1456 750
sat14 = 14693 1861 4440 -500
sat15 = 3997 170 1434 3000
sat15 = 15792 996 4356 -2250
sat16 = 9235 759 1485 1827
ch0 satid=16,max_freq = 1827,max_mean = 1485,max_phase = 759,max_value = 9235,acq ok1!
sat17 = 2307 336 1141 -3017
sat17 = 12019 2013 5734 -2767
sat18 = 14183 921 1462 2603
ch1 satid=18,max_freq = 2603,max_mean = 1462,max_phase = 921,max_value = 14183,acq ok1!
sat19 = 4208 2000 1437 4250
sat19 = 17097 408 4121 -3750
sat20 = 4112 1478 1450 1250
sat20 = 12967 1930 4597 -750
sat21 = 2836 1569 1124 -1011
sat21 = 8982 1095 4161 -761
sat22 = 3831 4 1434 -500
sat22 = 9634 1302 3534 3250
sat23 = 4886 732 1460 2500
sat23 = 10247 56 3785 -500
sat24 = 4038 170 1435 -1500
sat24 = 14617 1674 4554 3500
sat25 = 3909 951 1441 -500
sat25 = 12132 956 4282 -1500
sat26 = 3741 2037 1436 -750
sat26 = 15678 190 4662 4750
sat27 = 13259 1182 1411 1082
ch2 satid=27,max_freq = 1082,max_mean = 1411,max_phase = 1182,max_value = 13259,acq ok1!
sat28 = 3889 1652 1439 250
sat28 = 17509 1832 4283 750
sat29 = 4146 141 1433 -3000
sat29 = 16431 998 4738 1250
---00000002--- Acq_st=3 2019-5-27 07:25:15 
[00]  G17  1 27  -1842.9 2046003.9 -0.0  0.0  1  0         0
[01]  G19  1 26  -2614.1 2046004.6 -0.2  0.0  1  0         0
[02]  G28  1  7  -1095.7 2046002.5 -0.0  0.0  1  0         0
src<tow snapfix
$GNGGA,000000.000,,,,,0,00,,,M,,,,0000*2B
$GNRMC,000000.000,A,,,,,,,000000,,*26
$GPGSA,A,1,,,,,,,,,,,,,,,*1E
$BDGSA,A,1,,,,,,,,,,,,,,,*0F
$LOGTIM,0,0.000000,0.000000,0.000000,0.000000,0.000*0A
EndT:        0
sat30 = 3976 381 1440 2000
sat30 = 13841 150 4380 -2250
sat31 = 3632 1412 1442 4500
sat31 = 14182 228 4576 4000
sat37 = 1911 680 525 3500
sat37 = 1615 1399 531 3500
sat38 = 2145 3192 619 -4500
sat38 = 2275 3884 628 -1500
sat39 = 1673 4015 574 -4000
sat39 = 1813 4079 583 -4000
---00000003--- Acq_st=3 2019-5-27 07:25:16 
[00]  G17  7 28  -1829.5 2046002.4  0.3  1.0 10  0         7
[01]  G19  7 27  -2606.2 2046003.3  0.2  0.0 10  0        15
[02]  G28  1 27  -1083.5 2046002.6 -0.1  0.0  1  0         0
src<tow snapfix
$GNGGA,000000.000,,,,,0,00,,,M,,,,0000*2B
$GNRMC,000000.000,A,,,,,,,000000,,*26
$GPGSA,A,1,,,,,,,,,,,,,,,*1E
$BDGSA,A,1,,,,,,,,,,,,,,,*0F
$GPGSV,1,1,02,17,00,000,28,19,00,000,27*7A
$LOGTIM,0,0.000000,0.000000,0.000000,0.000000,0.000*0A
EndT:        0
sat40 = 1750 433 545 -2000
sat40 = 1732 2192 550 -4500
sat41 = 2509 3383 670 2000
sat41 = 2651 276 677 2000
sat42 = 2154 2827 543 1000
sat42 = 2151 2891 549 1000
sat43 = 1609 2935 490 4750
sat43 = 1711 2999 496 4750
sat44 = 4290 924 577 30
ch16 satid=44,max_freq = 30,max_mean = 577,max_phase = 924,max_value = 4290,acq ok1!
---00000004--- Acq_st=3 2019-5-27 07:25:17 
[00]  G17  7 36  -1826.8 2046002.4  1.0  0.9  5  0         7
[01]  G19  7 40  -2602.7 2046003.4  1.0  0.9  5  0         4
[02]  G28  7 35  -1079.9 2046001.4  0.8  1.0  5  0         0
[16]  B08  1  7    167.3 4092001.5  0.0  0.0  1  0         0
src<tow snapfix
$GNGGA,000000.000,,,,,0,00,,,M,,,,0000*2B
$GNRMC,000000.000,A,,,,,,,000000,,*26
$GPGSA,A,1,,,,,,,,,,,,,,,*1E
$BDGSA,A,1,,,,,,,,,,,,,,,*0F
$GPGSV,1,1,03,17,00,000,36,19,00,000,40,28,00,000,35*49
$LOGTIM,0,0.000000,0.000000,0.000000,0.000000,0.000*0A
EndT:        0
sat45 = 2074 3792 564 1000
sat45 = 2104 4040 570 3250
sat46 = 6204 3264 528 30
ch17 satid=46,max_freq = 30,max_mean = 528,max_phase = 3264,max_value = 6204,acq ok1!
sat47 = 1864 3813 533 1000
sat47 = 1977 2246 540 1000
sat48 = 5407 309 493 499
ch18 satid=48,max_freq = 499,max_mean = 493,max_phase = 309,max_value = 5407,acq ok1!
sat49 = 6430 2033 453 377
ch19 satid=49,max_freq = 377,max_mean = 453,max_phase = 2033,max_value = 6430,acq ok1!
sat50 = 2336 1804 638 2000
sat50 = 2330 3576 647 1750
sat51 = 1943 2904 590 3000
sat51 = 2058 76 599 3250
---00000005--- Acq_st=3 2019-5-27 07:25:18 
[00]  G17  7 36  -1823.8 2046002.3  1.0  0.9  5  0         7
[01]  G19  7 42  -2599.7 2046003.3  1.0  1.0  5  0         4
[02]  G28  7 39  -1076.1 2046001.4  1.0  1.0  5  0        13
[16]  B08  1  7    -32.4 4092001.1  0.2  0.0  1  0        98
[17]  B10  1  7    -32.9 4092000.7  0.0  0.0  1  0         0
[18]  B12  1  7   -422.7 4092002.7  0.2  0.0  1  0         0
[19]  B13  1  7   -385.9 4092002.0 -0.1  0.0  1  0         0
src<tow snapfix
$GNGGA,000000.000,,,,,0,00,,,M,,,,0000*2B
$GNRMC,000000.000,A,,,,,,,000000,,*26
$GPGSA,A,1,,,,,,,,,,,,,,,*1E
$BDGSA,A,1,,,,,,,,,,,,,,,*0F
$GPGSV,1,1,03,17,00,000,36,19,00,000,42,28,00,000,39*47
$LOGTIM,0,0.000000,0.000000,0.000000,0.000000,0.000*0A
EndT:        0
sat52 = 2056 3819 585 3750
sat52 = 2301 3883 593 3750
sat53 = 1907 3674 571 2250
sat53 = 2208 2919 579 2000
sat54 = 2044 1190 623 -4500
sat54 = 2186 501 628 -4500
sat55 = 1458 3942 513 -512
sat55 = 1424 4006 525 -512
sat56 = 1948 1255 577 1750
sat56 = 1974 2448 586 1750
---00000006--- Acq_st=3 2019-5-27 07:25:19 
[00]  G17  f 36  -1820.4 2046002.4  1.0  0.9  5  0         7
[01]  G19  f 42  -2596.2 2046003.3  1.0  1.0  5  0         4
[02]  G28  f 39  -1072.3 2046001.4  1.0  1.0  5  0        13
[16]  B08  7 32    -28.1 4092000.0  0.5  1.0  5  0      1098
[17]  B10  7 29    -28.1 4092000.0  0.4  1.0 10  0       842
[18]  B12  1  7   -497.4 4092002.0  0.2  0.0  1  0       586
[19]  B13  7 24   -374.9 4092001.0  0.2  0.0 20  0       577
src>tow meas_num=7
src>=tow snapfix
$GNGGA,000000.000,,,,,0,00,,,M,,,,0000*2B
$GNRMC,000000.000,A,,,,,,,000000,,*26
$GPGSA,A,1,,,,,,,,,,,,,,,*1E
$BDGSA,A,1,,,,,,,,,,,,,,,*0F
$GPGSV,1,1,03,17,00,000,36,19,00,000,42,28,00,000,39*47
$BDGSV,1,1,03,08,00,000,32,10,00,000,29,13,00,000,24*5C
$LOGTIM,0,0.000000,0.000000,0.000000,0.000000,0.000*0A
EndT:        0
sat57 = 1584 2902 491 1000
sat57 = 1494 1004 497 750
sat58 = 1468 3225 493 3250
sat58 = 1514 2002 500 500
sat59 = 2168 1881 614 2000
sat59 = 1903 1863 622 4250
sat60 = 3103 2431 499 -706
ch20 satid=60,max_freq = -706,max_mean = 499,max_phase = 2431,max_value = 3103,acq ok1!
sat61 = 1155 2874 517 1877
sat61 = 1154 3198 519 1877
sat62 = 1833 2966 533 4750
sat62 = 1972 3021 538 5000
---00000007--- Acq_st=3 2019-5-27 07:25:20 
[00]  G17  f 36  -1823.5 2046002.3  1.0  1.0  5  0 113137647
[01]  G19  f 41  -2599.4 2046003.4  1.0  1.0  5  0 113137644
[02]  G28  f 39  -1075.1 2046001.3  1.0  1.0  5  0 113137653
[16]  B08  7 38    -31.9 4092000.0  1.0  1.0  5  0      2080
[17]  B10  7 39    -32.6 4092000.0  1.0  1.0  5  0      1840
[18]  B12  7 23   -501.2 4092001.2  0.4  0.0 20  0      1586
[19]  B13  7 41   -378.9 4092001.0  0.9  1.0  5  0      1576
[20]  B24  1  7    705.2 4091999.8  0.1  0.0  1  0         0
src>tow meas_num=8
snap nits = 5
snap Residual Check:0.004385
src>=tow snapfix
$GNGGA,000000.000,,,,,0,00,,,M,,,,0000*2B
$GNRMC,000000.000,A,,,,,,,000000,,*26
$GPGSA,A,1,,,,,,,,,,,,,,,*1E
$BDGSA,A,1,,,,,,,,,,,,,,,*0F
$GPGSV,1,1,03,17,00,000,36,19,00,000,41,28,00,000,39*44
$BDGSV,1,1,04,08,00,000,38,10,00,000,39,12,00,000,23,13,00,000,41*61
$LOGTIM,0,0.000000,0.000000,0.000000,0.000000,0.000*0A
EndT:        0
sat63 = 2051 1357 560 5000
sat63 = 2051 1357 568 5000
sat64 = 2150 3219 672 500
sat64 = 2173 3283 686 500
sat65 = 2423 896 623 0
sat65 = 2314 2519 632 250
sat66 = 1802 2535 538 -1000
sat66 = 1574 2599 547 -1000
---00000008--- Acq_st=3 2019-5-27 07:25:21 
[00]  G17  f 37  -1826.7 2046002.4  1.0  1.0  5  0 113138647
[01]  G19  f 41  -2601.9 2046003.4  1.0  1.0  5  0 113138644
[02]  G28  f 39  -1077.5 2046001.3  1.0  1.0  5  0 113138653
[16]  B08 1f 38    -34.3 4092000.1  1.0  1.0  5  0      3080
[17]  B10 1f 39    -35.0 4092000.0  1.0  1.0  5  0      2840
[18]  B12  7 38   -503.6 4092001.2  0.9  1.0  5  0      2567
[19]  B13 1f 40   -381.9 4092001.0  1.0  1.0  5  0      2576
[20]  B24  7  7    700.2 4091998.1  0.4  0.0 10  0       337
[21]  B27  1  7  -5131.6 4092013.2  0.1  0.0  1  0         0
src>tow meas_num=9
lsq: nits= 5
lsq residual:48.044144
$GNGGA,072521.722,3112.6722,N,12136.6831,E,1,06,14.4,-444.9,M,,,,0000*09
$GNRMC,072521.722,A,3112.6722,N,12136.6831,E,1.76,0.00,270519,,*1A
$GPGSA,A,3,17,19,28,,,,,,,,,,23.5,14.4,18.6*0C
$BDGSA,A,3,08,10,13,,,,,,,,,,23.5,14.4,18.6*12
$GPGSV,1,1,03,17,00,000,37,19,00,000,41,28,00,000,39*45
$BDGSV,1,1,04,08,00,000,38,10,00,000,39,12,00,000,38,13,00,000,40*6A
$LOGTIM,3,9559269.276894,9559067.533055,0.000000,0.000000,-62.663*1C
EndT:        1
sat67 = 1813 2780 547 4000
sat67 = 1685 3880 555 -4750
sat68 = 2439 3918 644 -1750
sat68 = 2557 2714 654 -1750
---00000009--- Acq_st=7 2019-5-27 07:25:22 
[00]  G17  f 38  -1819.1 2046002.3  1.0  1.0  5  0 113139647
[01]  G19  f 41  -2594.3 2046003.4  1.0  1.0  5  0 113139644
[02]  G28  f 39  -1069.6 2046001.4  1.0  1.0  5  0 113139653
[16]  B08 1f 38    -27.1 4092000.0  1.0  1.0  5  0 113125600
[17]  B10 1f 39    -27.4 4092000.0  1.0  1.0  5  0 113125600
[18]  B12  7 38   -496.5 4092001.3  1.0  1.0  5  0      3567
[19]  B13 1f 40   -373.8 4092001.0  1.0  1.0  5  0 113125596
[20]  B24  7 45    708.3 4091998.1  0.5  1.0  5  0      1323
[21]  B27  1  7  -5030.2 4092012.9 -0.0  0.0  1  0       827
src>tow meas_num=9
lsq: nits= 5
lsq residual:47.231243
$GNGGA,072523.000,3112.6687,N,12136.6848,E,1,06,14.4,-459.7,M,,,,0000*0E
$GNRMC,072523.000,A,3112.6687,N,12136.6848,E,0.46,0.00,270519,,*1D
$GPGSA,A,3,17,19,28,,,,,,,,,,23.5,14.4,18.6*0C
$BDGSA,A,3,08,10,13,,,,,,,,,,23.5,14.4,18.6*12
$GPGSV,1,1,03,17,00,000,38,19,00,000,41,28,00,000,39*4A
$BDGSV,2,1,05,08,00,000,38,10,00,000,39,12,00,000,38,13,00,000,40*68
$BDGSV,2,2,05,24,00,000,45*5A
$LOGTIM,3,-91.773939,-295.298972,0.000000,0.000000,-62.215*2F
EndT:        0
---00000010--- Acq_st=7 2019-5-27 07:25:23 
[00]  G17  f 38  -1820.7 2046002.3  1.0  1.0  5  0 113140926
[01]  G19  f 41  -2596.4 2046003.4  1.0  1.0  5  0 113140923
[02]  G28  f 40  -1071.1 2046001.4  1.0  1.0  5  0 113140931
[16]  B08 1f 38    -29.0 4092000.1  1.0  1.0  5  0 113126878
[17]  B10 1f 39    -28.8 4092000.0  1.0  1.0  5  0 113126879
[18]  B12  7 38   -498.1 4092001.3  1.0  1.0  5  0      4846
[19]  B13 1f 40   -375.8 4092001.0  1.0  1.0  5  0 113126874
[20]  B24  7 45    707.1 4091998.1  1.0  1.0  5  0      2601
[21]  B27  1 12  -5020.6 4092013.0 -0.1  0.0  1  0      2105
sat0 = 21765 708 5566 -2500
sat0 = 16380 527 4810 1500
sat1 = 14588 627 5566 500
sat1 = 13286 1904 4522 -2500
sat2 = 14466 1931 5609 1250
sat2 = 18987 1750 4930 2750
src>tow meas_num=9
lsq: nits= 5
lsq residual:47.261066
$GNGGA,072524.000,3112.6704,N,12136.6731,E,1,06,14.4,-442.2,M,,,,0000*0D
$GNRMC,072524.000,A,3112.6704,N,12136.6731,E,1.55,0.00,270519,,*12
$GPGSA,A,3,17,19,28,,,,,,,,,,23.5,14.4,18.6*0C
$BDGSA,A,3,08,10,13,,,,,,,,,,23.5,14.4,18.6*12
$GPGSV,2,1,07,17,42,317,38,19,25,299,41,28,79,301,40,01,37,039,00*76
$GPGSV,2,2,07,11,29,056,00,18,13,049,00,22,40,065,00*47
$BDGSV,2,1,07,08,67,303,38,10,71,253,39,12,57,348,38,13,47,261,40*62
$BDGSV,2,2,07,24,41,257,45,19,22,058,00,25,15,312,00*5B
$LOGTIM,3,-132.491054,-334.449138,0.000000,0.000000,-64.546*1B
EndT:        1
sat3 = 16572 77 5589 -3500
sat3 = 12440 1731 4222 -4750
sat4 = 15454 1504 5592 4750
sat4 = 14937 1957 4756 -2000
sat5 = 14532 549 5554 1250
sat5 = 13975 730 4610 1250
sat6 = 15126 1261 5622 -4250
sat6 = 13628 464 4347 -1250
sat7 = 15242 1082 5476 -2750
sat7 = 12834 100 4622 4750
sat8 = 16305 67 5566 -1250
sat8 = 13462 1729 4647 2000
sat9 = 16378 1316 5561 1000
sat9 = 23256 1342 5444 4000
sat10 = 221949 72 5590 -2250
ch3 satid=10,max_freq = -2250,max_mean = 5590,max_phase = 72,max_value = 221949,acq ok1!
sat11 = 15618 557 5576 750
sat11 = 13917 1940 4769 250
---00000011--- Acq_st=3 2019-5-27 07:25:24 
[00]  G17  f 37  -1829.8 2046002.4  1.0  1.0  5  0 113141926
[01]  G19  f 42  -2605.1 2046003.3  1.0  1.0  5  0 113141923
[02]  G28  f 40  -1079.4 2046001.4  1.0  1.0  5  0 113141931
[03]  G11  1  7   2327.0 2046000.2  0.1  0.0  1  0         0
[16]  B08 1f 38    -37.4 4092000.1  1.0  1.0  5  0 113127878
[17]  B10 1f 39    -38.2 4092000.0  1.0  1.0  5  0 113127879
[18]  B12  7 39   -507.3 4092001.3  1.0  1.0  5  0      5846
[19]  B13 1f 40   -384.8 4092001.0  1.0  1.0  5  0 113127874
[20]  B24  7 45    698.4 4091998.1  1.0  1.0  5  0      3601
sat12 = 15349 1795 5571 -3250
sat12 = 15047 1175 4888 5000
sat13 = 14925 204 5577 1000
sat13 = 11245 536 4132 -2500
sat14 = 14095 276 5640 -4000
sat14 = 14214 1982 4749 -500
sat15 = 14682 1326 5538 -500
src>tow meas_num=9
lsq: nits= 5
lsq residual:5.408688
$GNGGA,072525.000,3112.7412,N,12136.3181,E,1,06,14.4,285.9,M,,,,0000*2A
$GNRMC,072525.000,A,3112.7412,N,12136.3181,E,3.68,0.00,270519,,*12
$GPGSA,A,3,17,19,28,,,,,,,,,,23.5,14.4,18.6*0C
$BDGSA,A,3,08,10,13,,,,,,,,,,23.5,14.4,18.6*12
$GPGSV,2,1,07,17,42,317,37,19,25,299,42,28,79,301,40,01,37,039,00*7A
$GPGSV,2,2,07,11,29,056,00,18,13,049,00,22,40,065,00*47
$BDGSV,2,1,07,08,67,303,38,10,71,253,39,12,57,348,39,13,47,261,40*63
$BDGSV,2,2,07,24,41,257,45,19,22,058,00,25,15,312,00*5B
$LOGTIM,3,628.279992,503.943871,0.000000,0.000000,-67.534*13
EndT:        1
sat15 = 14917 1232 4683 -2250
sat17 = 24855 1705 5565 -3000
ch4 satid=17,max_freq = -3000,max_mean = 5565,max_phase = 1705,max_value = 24855,acq ok1!
sat19 = 15273 416 5544 -2750
sat19 = 17993 558 4448 -3750
sat20 = 15730 1547 5607 1000
sat20 = 14517 1812 4886 -3500
sat21 = 238577 630 5544 -1000
ch5 satid=21,max_freq = -1000,max_mean = 5544,max_phase = 630,max_value = 238577,acq ok1!
sat22 = 14171 146 5572 -750
sat22 = 11118 1290 3897 3250
sat23 = 15676 857 5638 2500
sat23 = 10616 319 4150 4000
sat24 = 14585 1656 5532 2250
sat24 = 16075 91 4879 -2500
sat25 = 14670 62 5576 5000
sat25 = 13864 2008 4615 4750
sat26 = 17445 238 5555 -2250
sat26 = 14730 177 4952 1250
---00000012--- Acq_st=3 2019-5-27 07:25:25 
[00]  G17  f 39  -1834.4 2046002.3  1.0  1.0  5  0 113142926
[01]  G19  f 41  -2609.8 2046003.4  1.0  1.0  5  0 113142923
[02]  G28  f 40  -1083.2 2046001.4  1.0  1.0  5  0 113142931
[03]  G11  1 30   2154.4 2045997.0  0.2  0.0  1  0        17
[04]  G18  1 26   3008.3 2045998.0  0.0  0.0  1  0         0
[05]  G22  1 25   1017.9 2046000.7 -0.1  0.0  1  0         0
[16]  B08 1f 38    -41.9 4092000.1  1.0  1.0  5  0 113128878
[17]  B10 1f 40    -41.9 4092000.1  1.0  1.0  5  0 113128879
[18]  B12  7 39   -511.7 4092001.3  1.0  1.0  5  0      6846
[19]  B13 1f 40   -388.9 4092001.0  1.0  1.0  5  0 113128874
[20]  B24  7 45    694.6 4091998.2  1.0  1.0  5  0      4601
sat28 = 15712 713 5578 1250
sat28 = 16148 1601 4597 750
sat29 = 15408 289 5538 -1000
sat29 = 15701 1809 5059 1250
sat30 = 15680 1602 5583 -3500
sat30 = 13821 879 4729 -2500
sat31 = 14154 698 5569 -750
src>tow meas_num=11
lsq: nits= 5
lsq residual:3.526019
$GNGGA,072526.000,3112.7343,N,12136.3329,E,1,06,14.4,253.3,M,,,,0000*2B
$GNRMC,072526.000,A,3112.7343,N,12136.3329,E,2.58,0.00,270519,,*10
$GPGSA,A,3,17,19,28,,,,,,,,,,23.5,14.4,18.6*0C
$BDGSA,A,3,08,10,13,,,,,,,,,,23.5,14.4,18.6*12
$GPGSV,2,1,07,17,42,317,39,19,25,299,41,28,79,301,40,01,37,039,00*77
$GPGSV,2,2,07,11,29,056,00,18,13,049,00,22,40,065,00*47
$BDGSV,2,1,07,08,67,303,38,10,71,253,40,12,57,348,39,13,47,261,40*6D
$BDGSV,2,2,07,24,41,257,45,19,22,058,00,25,15,312,00*5B
$LOGTIM,3,524.698842,400.426791,0.000000,0.000000,-63.555*15
EndT:        1
sat31 = 14830 368 4898 4000
sat37 = 1772 1986 512 3500
sat37 = 1609 2498 516 -2000
sat38 = 2148 884 614 -1000
sat38 = 2272 870 618 -1000
sat39 = 1608 1485 566 4500
---00000013--- Acq_st=3 2019-5-27 07:25:26 
[00]  G17  f 38  -1834.4 2046002.4  1.0  1.0  5  0 113143926
[01]  G19  f 41  -2610.6 2046003.4  1.0  1.0  5  0 113143923
[02]  G28  f 40  -1083.6 2046001.4  1.0  1.0  5  0 113143931
[03]  G11  7 34   2153.2 2045997.1  0.9  1.0  5  0         4
[04]  G18  7 23   3021.4 2045995.8 -0.0  0.0 20  0        18
[05]  G22  7 18   1011.7 2045998.5  0.2  0.0 20  0         9
[16]  B08 1f 38    -42.1 4092000.1  1.0  1.0  5  0 113129878
[17]  B10 1f 39    -42.2 4092000.1  1.0  1.0  5  0 113129879
[18]  B12  7 38   -512.4 4092001.3  1.0  1.0  5  0      7846
[19]  B13 1f 40   -389.8 4092001.0  1.0  1.0  5  0 113129874
[20]  B24  7 45    694.5 4091998.2  1.0  1.0  5  0      5601
sat39 = 1542 331 571 4250
sat40 = 1687 475 531 -2000
src>tow meas_num=11
lsq: nits= 5
lsq residual:33.216896
$GNGGA,072527.000,3112.7955,N,12136.3704,E,1,06,14.4,252.9,M,,,,0000*27
$GNRMC,072527.000,A,3112.7955,N,12136.3704,E,0.09,0.00,270519,,*11
$GPGSA,A,3,17,19,28,,,,,,,,,,23.5,14.4,18.6*0C
$BDGSA,A,3,08,10,13,,,,,,,,,,23.5,14.4,18.6*12
$GPGSV,2,1,07,17,42,317,38,19,25,299,41,28,79,301,40,11,29,056,34*76
$GPGSV,2,2,07,18,13,049,23,22,40,065,18,01,37,039,00*48
$BDGSV,2,1,07,08,67,303,38,10,71,253,39,12,57,348,38,13,47,261,40*62
$BDGSV,2,2,07,24,41,257,45,19,22,058,00,25,15,312,00*5B
$LOGTIM,3,471.126025,285.377322,0.000000,0.000000,-65.616*19
EndT:        1
sat40 = 1762 1930 534 -2000
sat41 = 2581 2144 669 2250
sat41 = 2513 3325 672 2000
sat42 = 2155 888 534 1250
ch21 satid=42,max_freq = 1250,max_mean = 534,max_phase = 888,max_value = 2155,acq ok1!
sat43 = 1775 172 477 3000
sat43 = 1664 2085 479 5000
---00000014--- Acq_st=3 2019-5-27 07:25:27 
[00]  G17  f 39  -1834.7 2046002.4  1.0  1.0  5  0 113144926
[01]  G19  f 41  -2610.2 2046003.4  1.0  1.0  5  0 113144923
[02]  G28  f 40  -1083.2 2046001.4  1.0  1.0  5  0 113144931
[03]  G11  7 45   2153.5 2045997.1  1.0  1.0  5  0         4
[04]  G18  7 34   3010.0 2045996.0  0.7  1.0  5  0        19
[05]  G22  7 46   1012.5 2045998.6  1.0  1.0  5  0         5
[16]  B08 1f 38    -42.9 4092000.1  1.0  0.9  5  0 113130878
[17]  B10 1f 39    -42.3 4092000.1  1.0  1.0  5  0 113130879
[18]  B12 1f 38   -512.0 4092001.3  1.0  1.0  5  0      8846
[19]  B13 1f 40   -389.2 4092001.0  1.0  1.0  5  0 113130874
[20]  B24 1f 45    695.0 4091998.2  1.0  1.0  5  0      6601
[21]  B06  1  7  -1190.1 4092003.2  0.1  0.0  1  0      3105
sat45 = 2042 3621 552 3000
sat45 = 2125 3296 554 1000
src>tow meas_num=12
lsq: nits= 5
lsq residual:22.877687
$GNGGA,072528.000,3112.7333,N,12136.3709,E,1,08,6.8,147.1,M,,,,0000*11
$GNRMC,072528.000,A,3112.7333,N,12136.3709,E,0.62,0.00,270519,,*14
$GPGSA,A,3,17,19,28,,,,,,,,,,11.0,6.8,8.7*07
$BDGSA,A,3,08,10,12,13,24,,,,,,,,11.0,6.8,8.7*1C
$GPGSV,2,1,07,17,42,317,39,19,25,299,41,28,79,301,40,11,29,056,45*71
$GPGSV,2,2,07,18,13,049,34,22,40,065,46,01,37,039,00*45
$BDGSV,2,1,07,08,67,303,38,10,71,253,39,12,57,348,38,13,47,261,40*62
$BDGSV,2,2,07,24,41,257,45,19,22,058,00,25,15,312,00*5B
$LOGTIM,3,289.999282,129.619725,0.000000,0.000000,-64.969*16
EndT:        1
sat47 = 1923 2258 520 1000
sat47 = 1958 3256 523 1000
sat50 = 2487 2063 637 2000
sat50 = 2216 1021 641 2000
sat51 = 1974 155 584 3250
sat51 = 1907 155 587 3250
---00000015--- Acq_st=3 2019-5-27 07:25:28 
[00]  G17  f 39  -1831.6 2046002.3  1.0  1.0  5  0 113145926
[01]  G19  f 41  -2607.3 2046003.4  1.0  1.0  5  0 113145923
[02]  G28  f 40  -1079.5 2046001.4  1.0  1.0  5  0 113145931
[03]  G11  7 45   2156.5 2045997.2  1.0  1.0  5  0         4
[04]  G18  7 35   3011.7 2045996.0  1.0  1.0  5  0        19
[05]  G22  7 46   1016.0 2045998.6  1.0  1.0  5  0         5
[16]  B08 1f 38    -39.4 4092000.0  1.0  1.0  5  0 113131878
[17]  B10 1f 39    -39.0 4092000.1  1.0  1.0  5  0 113131879
[18]  B12 1f 38   -509.1 4092001.3  1.0  1.0  5  0 113131926
[19]  B13 1f 40   -387.0 4092001.0  1.0  1.0  5  0 113131874
[20]  B24 1f 45    698.3 4091998.2  1.0  1.0  5  0 113131921
[21]  B06  1  7  -1023.5 4092003.0 -0.0  0.0  1  0       608
[22]  B15  1  7  -2831.4 4092008.4 -0.0  0.0  1  0         0
sat52 = 2188 2234 577 4000
sat52 = 2008 2298 580 4000
sat53 = 2053 3210 566 2250
src>tow meas_num=13
lsq: nits= 2
lsq residual:4.294890
$GNGGA,072529.000,3112.7440,N,12136.3880,E,1,08,1.9,146.4,M,,,,0000*1F
$GNRMC,072529.000,A,3112.7440,N,12136.3880,E,0.77,0.00,270519,,*1C
$GPGSA,A,3,17,19,28,,,,,,,,,,2.0,1.9,0.7*3B
$BDGSA,A,3,08,10,12,13,24,,,,,,,,2.0,1.9,0.7*20
$GPGSV,2,1,07,17,42,317,39,19,25,299,41,28,79,301,40,11,29,056,45*71
$GPGSV,2,2,07,18,13,049,35,22,40,065,46,01,37,039,00*44
$BDGSV,2,1,07,08,67,303,38,10,71,253,39,12,57,348,38,13,47,261,40*62
$BDGSV,2,2,07,24,41,257,45,19,22,058,00,25,15,312,00*5B
$LOGTIM,3,221.618170,66.232214,0.000000,0.000000,-65.524*28
EndT:        1
sat53 = 1948 2312 570 2250
sat54 = 2108 184 616 -4500
sat54 = 2096 3914 618 -4500
sat55 = 8611 3936 576 -500
ch23 satid=55,max_freq = -500,max_mean = 576,max_phase = 3936,max_value = 8611,acq ok1!
sat56 = 1940 2255 571 2000
---00000016--- Acq_st=3 2019-5-27 07:25:29 
[00]  G17  f 40  -1827.5 2046002.4  1.0  1.0  5  0 113146926
[01]  G19  f 41  -2603.1 2046003.4  1.0  1.0  5  0 113146923
[02]  G28  f 40  -1074.4 2046001.4  1.0  1.0  5  0 113146931
[03]  G11  7 45   2160.3 2045997.2  1.0  1.0  5  0         4
[04]  G18  7 35   3016.5 2045996.1  1.0  1.0  5  0        19
[05]  G22  7 46   1020.5 2045998.7  1.0  1.0  5  0         5
[16]  B08 1f 38    -35.4 4092000.1  1.0  1.0  5  0 113132878
[17]  B10 1f 39    -34.7 4092000.1  1.0  1.0  5  0 113132879
[18]  B12 1f 38   -503.5 4092001.3  1.0  1.0  5  0 113132926
[19]  B13 1f 40   -382.1 4092001.0  1.0  1.0  5  0 113132874
[20]  B24 1f 45    703.3 4091998.1  1.0  1.0  5  0 113132921
[21]  B06  1  7   -997.3 4092002.8 -0.1  0.0  1  0      1608
[22]  B15  1  7  -2980.0 4092007.9  0.0  0.0  1  0       380
[23]  B19  1  7    503.5 4091998.2 -0.0  0.0  1  0         0
sat56 = 1948 975 575 2000
sat57 = 1498 3323 480 -2500
sat57 = 1499 3387 481 -2250
src>tow meas_num=14
lsq: nits= 2
lsq residual:3.903585
$GNGGA,072530.000,3112.7433,N,12136.3885,E,1,08,1.9,144.3,M,,,,0000*13
$GNRMC,072530.000,A,3112.7433,N,12136.3885,E,1.79,0.00,270519,,*1A
$GPGSA,A,3,17,19,28,,,,,,,,,,2.0,1.9,0.7*3B
$BDGSA,A,3,08,10,12,13,24,,,,,,,,2.0,1.9,0.7*20
$GPGSV,2,1,07,17,42,317,40,19,25,299,41,28,79,301,40,11,29,056,45*7F
$GPGSV,2,2,07,18,13,049,35,22,40,065,46,01,37,039,00*44
$BDGSV,2,1,07,08,67,303,38,10,71,253,39,12,57,348,38,13,47,261,40*62
$BDGSV,2,2,07,24,41,257,45,19,22,058,00,25,15,312,00*5B
$LOGTIM,3,154.656776,0.246346,0.000000,0.000000,-65.581*19
EndT:        1
sat58 = 1457 723 479 500
sat58 = 1566 3966 482 500
sat59 = 1914 1605 611 4250
sat59 = 1975 3191 616 4250
sat61 = 1645 2504 498 -4750
---00000017--- Acq_st=3 2019-5-27 07:25:30 
[00]  G17  f 38  -1826.4 2046002.3  1.0  1.0  5  0 113147926
[01]  G19  f 42  -2602.3 2046003.4  1.0  1.0  5  0 113147923
[02]  G28  f 40  -1073.4 2046001.4  1.0  1.0  5  0 113147931
[03]  G11  7 45   2161.5 2045997.2  1.0  1.0  5  0         4
[04]  G18  7 36   3018.0 2045996.0  1.0  1.0  5  0        19
[05]  G22  7 46   1022.2 2045998.7  1.0  1.0  5  0         5
[16]  B08 1f 38    -34.7 4092000.1  1.0  1.0  5  0 113133878
[17]  B10 1f 39    -33.7 4092000.1  1.0  1.0  5  0 113133879
[18]  B12 1f 39   -503.7 4092001.3  1.0  1.0  5  0 113133926
[19]  B13 1f 40   -381.3 4092001.0  1.0  1.0  5  0 113133874
[20]  B24 1f 45    704.2 4091998.2  1.0  1.0  5  0 113133921
[22]  B15  1  7  -2967.4 4092008.4 -0.0  0.0  1  0      1380
[23]  B19  1  7    509.5 4091998.4  0.1  0.0  1  0       518
sat61 = 1510 3030 502 -4750
sat62 = 1778 486 522 4750
sat62 = 1936 3429 525 5000
src>tow meas_num=13
lsq: nits= 2
lsq residual:3.572733
$GNGGA,072531.000,3112.7433,N,12136.3892,E,1,08,1.9,141.4,M,,,,0000*16
$GNRMC,072531.000,A,3112.7433,N,12136.3892,E,2.33,342.46,270519,,*17
$GPGSA,A,3,17,19,28,,,,,,,,,,2.0,1.9,0.7*3B
$BDGSA,A,3,08,10,12,13,24,,,,,,,,2.0,1.9,0.7*20
$GPGSV,2,1,07,17,42,317,38,19,25,299,42,28,79,301,40,11,29,056,45*73
$GPGSV,2,2,07,18,13,049,36,22,40,065,46,01,37,039,00*47
$BDGSV,2,1,07,08,67,303,38,10,71,253,39,12,57,348,39,13,47,261,40*63
$BDGSV,2,2,07,24,41,257,45,19,22,058,00,25,15,312,00*5B
$LOGTIM,3,87.660262,-66.734638,0.000000,0.000000,-65.864*34
EndT:        1
sat64 = 2158 343 674 4000
sat64 = 2071 3684 681 750
sat65 = 2367 1896 620 0
sat65 = 2392 1385 624 0
sat66 = 1575 346 528 -1250
sat66 = 1766 726 532 -1250
---00000018--- Acq_st=3 2019-5-27 07:25:31 
[00]  G17  f 39  -1827.6 2046002.4  1.0  1.0  5  0 113148926
[01]  G19  f 41  -2603.4 2046003.4  1.0  1.0  5  0 113148923
[02]  G28  f 40  -1074.5 2046001.4  1.0  1.0  5  0 113148931
[03]  G11  f 45   2160.4 2045997.2  1.0  1.0  5  0         4
[04]  G18  f 36   3016.6 2045996.1  1.0  1.0  5  0        19
[05]  G22  f 46   1021.3 2045998.7  1.0  1.0  5  0         5
[16]  B08 1f 38    -35.7 4092000.1  1.0  1.0  5  0 113134878
[17]  B10 1f 39    -35.1 4092000.1  1.0  1.0  5  0 113134879
[18]  B12 1f 38   -505.2 4092001.3  1.0  1.0  5  0 113134926
[19]  B13 1f 40   -383.1 4092001.0  1.0  1.0  5  0 113134874
[20]  B24 1f 45    703.5 4091998.1  1.0  1.0  5  0 113134921
[22]  B15  1  7  -2996.2 4092008.0  0.0  0.0  1  0      2380
[23]  B19  7 36    509.0 4091998.7  0.4  1.0  5  0      1517
sat67 = 1850 3285 538 4000
sat67 = 1826 2915 541 4000
src>tow meas_num=12
lsq: nits= 2
lsq residual:8.820386
$GNGGA,072532.000,3112.7393,N,12136.4206,E,1,11,1.5,131.9,M,,,,0000*16
$GNRMC,072532.000,A,3112.7393,N,12136.4206,E,2.97,285.64,270519,,*1D
$GPGSA,A,3,11,17,18,19,22,28,,,,,,,1.7,1.5,0.6*3B
$BDGSA,A,3,08,10,12,13,24,,,,,,,,1.7,1.5,0.6*29
$GPGSV,2,1,07,17,42,317,39,19,25,299,41,28,79,301,40,11,29,056,45*71
$GPGSV,2,2,07,18,13,049,36,22,40,065,46,01,37,039,00*47
$BDGSV,2,1,07,08,67,303,38,10,71,253,39,12,57,348,38,13,47,261,40*62
$BDGSV,2,2,07,24,41,257,45,19,22,058,36,25,15,312,00*5E
$LOGTIM,3,-21.811673,-170.304191,0.000000,0.000000,-66.620*21
EndT:        1
sat68 = 2212 2160 644 -1500
sat68 = 2187 989 649 2250
---00000019--- Acq_st=7 2019-5-27 07:25:32 
[00]  G17  f 40  -1824.2 2046002.4  1.0  1.0  5  0 113149926
[01]  G19  f 42  -2600.1 2046003.3  1.0  1.0  5  0 113149923
[02]  G28  f 41  -1070.4 2046001.4  1.0  1.0  5  0 113149931
[03]  G11  f 46   2164.0 2045997.2  1.0  1.0  5  0 113149924
[04]  G18  f 36   3018.9 2045996.1  1.0  1.0  5  0 113149919
[05]  G22  f 46   1025.1 2045998.7  1.0  1.0  5  0 113149925
[16]  B08 1f 38    -32.3 4092000.1  1.0  1.0  5  0 113135878
[17]  B10 1f 39    -32.1 4092000.1  1.0  1.0  5  0 113135879
[18]  B12 1f 38   -501.5 4092001.3  1.0  1.0  5  0 113135926
[19]  B13 1f 40   -379.1 4092001.0  1.0  1.0  5  0 113135874
[20]  B24 1f 45    707.4 4091998.1  1.0  1.0  5  0 113135921
[23]  B19  7 41    512.9 4091998.7  1.0  1.0  5  0      2517
sat0 = 28819 440 5398 -2500
ch6 satid=0,max_freq = -2500,max_mean = 5398,max_phase = 440,max_value = 28819,acq ok1!
sat1 = 20543 1692 5418 -2750
sat1 = 14861 1096 4431 -2500
sat2 = 14881 102 5405 -3000
sat2 = 19701 1646 4875 3000
sat3 = 15269 724 5407 5000
src>tow meas_num=13
lsq: nits= 2
lsq residual:7.467278
$GNGGA,072533.000,3112.7399,N,12136.4253,E,1,10,1.6,128.3,M,,,,0000*1D
$GNRMC,072533.000,A,3112.7399,N,12136.4253,E,2.41,276.68,270519,,*1D
$GPGSA,A,3,11,17,18,19,22,28,,,,,,,1.7,1.6,0.6*38
$BDGSA,A,3,08,10,12,13,,,,,,,,,1.7,1.6,0.6*2C
$GPGSV,2,1,07,17,42,317,40,19,25,299,42,28,79,301,41,11,29,056,46*7E
$GPGSV,2,2,07,18,13,049,36,22,40,065,46,01,37,039,00*47
$BDGSV,2,1,07,08,67,303,38,10,71,253,39,12,57,348,38,13,47,261,40*62
$BDGSV,2,2,07,24,41,257,45,19,22,058,41,25,15,312,00*5E
$LOGTIM,3,-92.101274,-241.552331,0.000000,0.000000,-65.768*20
EndT:        1
sat3 = 13586 768 4142 500
sat4 = 15460 1537 5398 3000
sat4 = 15613 1829 4693 -4750
sat5 = 18107 694 5381 500
sat5 = 13993 1448 4536 1500
sat6 = 15467 1151 5463 0
sat6 = 11687 692 4263 250
sat7 = 14576 827 5338 -2250
sat7 = 13376 741 4536 -4750
sat8 = 14688 1459 5395 4500
sat8 = 15504 1664 4570 -4250
sat9 = 16573 951 5416 3250
sat9 = 22577 1858 5415 4000
sat11 = 16226 456 5423 -4500
sat11 = 14319 704 4699 -4500
sat12 = 15853 355 5433 -2250
sat12 = 14647 662 4840 5000
---00000020--- Acq_st=3 2019-5-27 07:25:33 
[00]  G17  f 40  -1818.2 2046002.3  1.0  1.0  5  0 113150926
[01]  G19  f 42  -2594.5 2046003.4  1.0  1.0  5  0 113150923
[02]  G28  f 41  -1064.5 2046001.4  1.0  1.0  5  0 113150931
[03]  G11  f 45   2169.5 2045997.2  1.0  1.0  5  0 113150924
[04]  G18  f 37   3025.0 2045996.1  1.0  0.9  5  0 113150919
[05]  G22  f 46   1031.2 2045998.7  1.0  1.0  5  0 113150925
[06]  G01  1 26   2489.9 2045997.9  0.0  0.0  1  0         4
[16]  B08 1f 38    -26.7 4092000.1  1.0  1.0  5  0 113136878
[17]  B10 1f 39    -26.2 4092000.0  1.0  1.0  5  0 113136879
[18]  B12 1f 39   -496.0 4092001.3  1.0  1.0  5  0 113136926
[19]  B13 1f 40   -373.5 4092001.0  1.0  1.0  5  0 113136874
[20]  B24 1f 45    713.5 4091998.2  1.0  1.0  5  0 113136921
[23]  B19 1f 40    518.6 4091998.6  1.0  1.0  5  0      3517
sat13 = 16065 1600 5432 -1500
sat13 = 11774 1833 4043 -3000
sat14 = 16300 459 5475 -1000
sat14 = 17628 1734 4662 750
sat15 = 16948 1804 5382 -2250
sat15 = 16027 771 4594 -2250
sat19 = 14636 76 5417 -2000
src>tow meas_num=13
lsq: nits= 2
lsq residual:13.376225
$GNGGA,072534.000,3112.7416,N,12136.4276,E,1,12,1.4,125.8,M,,,,0000*1B
$GNRMC,072534.000,A,3112.7416,N,12136.4276,E,2.76,272.90,270519,,*1A
$GPGSA,A,3,11,17,18,19,22,28,,,,,,,1.5,1.4,0.6*38
$BDGSA,A,3,08,10,12,13,19,24,,,,,,,1.5,1.4,0.6*22
$GPGSV,2,1,07,17,42,317,40,19,25,299,42,28,79,301,41,11,29,056,45*7D
$GPGSV,2,2,07,18,13,049,37,22,40,065,46,01,37,039,00*46
$BDGSV,2,1,07,08,67,303,38,10,71,253,39,12,57,348,39,13,47,261,40*63
$BDGSV,2,2,07,24,41,257,45,19,22,058,40,25,15,312,00*5F
$LOGTIM,3,-157.629463,-309.590598,0.000000,0.000000,-64.386*16
EndT:        1
sat19 = 18086 977 4363 -3500
sat20 = 15808 1844 5449 4250
sat20 = 14327 477 4837 4000
sat22 = 14773 1689 5377 -2750
sat22 = 11742 1391 3789 -2500
sat23 = 15156 1142 5454 -4750
sat23 = 10962 1787 4062 4000
sat24 = 13986 1295 5370 2250
sat24 = 14305 699 4807 3250
sat25 = 15931 2 5399 2500
sat25 = 13472 164 4535 4750
sat26 = 17647 1606 5390 -1500
sat26 = 15240 1736 4896 1000
sat28 = 15032 1440 5404 500
sat28 = 13703 1230 4516 750
sat29 = 15076 218 5361 4000
sat29 = 14737 253 5008 1500
---00000021--- Acq_st=3 2019-5-27 07:25:34 
[00]  G17  f 39  -1811.1 2046002.4  1.0  1.0  5  0 113151926
[01]  G19  f 41  -2586.5 2046003.4  1.0  1.0  5  0 113151923
[02]  G28  f 41  -1055.8 2046001.4  1.0  1.0  5  0 113151931
[03]  G11  f 45   2177.4 2045997.2  1.0  1.0  5  0 113151924
[04]  G18  f 36   3032.7 2045996.1  1.0  1.0  5  0 113151919
[05]  G22  f 46   1039.5 2045998.7  1.0  1.0  5  0 113151925
[06]  G01  7 28   2487.2 2045996.7  0.0  1.0 10  0         4
[16]  B08 1f 38    -19.3 4092000.1  1.0  1.0  5  0 113137878
[17]  B10 1f 39    -18.2 4092000.0  1.0  1.0  5  0 113137879
[18]  B12 1f 39   -487.7 4092001.2  1.0  1.0  5  0 113137926
[19]  B13 1f 40   -365.6 4092001.0  1.0  1.0  5  0 113137874
[20]  B24 1f 45    721.5 4091998.1  1.0  1.0  5  0 113137921
[23]  B19 1f 40    526.4 4091998.6  1.0  1.0  5  0 113137917
sat30 = 14609 896 5396 -3250
sat30 = 14888 1912 4640 4500
sat31 = 16756 1930 5390 3000
sat31 = 14479 119 4844 4000
sat37 = 1756 3303 521 3500
src>tow meas_num=13
lsq: nits= 2
lsq residual:2.567313
$GNGGA,072535.000,3112.7428,N,12136.4297,E,1,12,1.4,120.9,M,,,,0000*1C
$GNRMC,072535.000,A,3112.7428,N,12136.4297,E,2.72,272.17,270519,,*12
$GPGSA,A,3,11,17,18,19,22,28,,,,,,,1.5,1.4,0.6*38
$BDGSA,A,3,08,10,12,13,19,24,,,,,,,1.5,1.4,0.6*22
$GPGSV,2,1,07,17,42,317,39,19,25,299,41,28,79,301,41,11,29,056,45*70
$GPGSV,2,2,07,18,13,049,36,22,40,065,46,01,37,039,28*4D
$BDGSV,2,1,07,08,67,303,38,10,71,253,39,12,57,348,39,13,47,261,40*63
$BDGSV,2,2,07,24,41,257,45,19,22,058,40,25,15,312,00*5F
$LOGTIM,3,-222.494607,-376.758327,0.000000,0.000000,-63.293*1D
EndT:        1
sat37 = 1774 1263 525 3500
sat38 = 2236 2812 619 -1500
sat38 = 2224 1432 623 -1500
sat39 = 1673 1053 573 4500
sat39 = 1529 2651 578 4500
---00000022--- Acq_st=3 2019-5-27 07:25:35 
[00]  G17  f 38  -1816.6 2046002.4  1.0  0.9  5  0 113152926
[01]  G19  f 41  -2591.8 2046003.4  1.0  1.0  5  0 113152923
[02]  G28  f 41  -1061.1 2046001.4  1.0  1.0  5  0 113152931
[03]  G11  f 46   2172.2 2045997.2  1.0  1.0  5  0 113152924
[04]  G18  f 37   3027.6 2045996.1  1.0  0.9  5  0 113152919
[05]  G22  f 46   1034.7 2045998.6  1.0  1.0  5  0 113152925
[06]  G01  7 35   2482.1 2045996.8  0.9  0.9  5  0         6
[16]  B08 1f 39    -24.1 4092000.1  1.0  1.0  5  0 113138878
[17]  B10 1f 39    -23.4 4092000.1  1.0  1.0  5  0 113138879
[18]  B12 1f 40   -493.2 4092001.3  1.0  1.0  5  0 113138926
[19]  B13 1f 40   -371.2 4092001.0  1.0  1.0  5  0 113138874
[20]  B24 1f 45    716.6 4091998.1  1.0  1.0  5  0 113138921
[23]  B19 1f 40    522.1 4091998.7  1.0  1.0  5  0 113138917
sat40 = 1606 2817 544 -2250
sat40 = 1823 2881 549 -2250
sat41 = 2570 2227 675 1750
src>tow meas_num=13
lsq: nits= 2
lsq residual:2.589539
$GNGGA,072536.000,3112.7424,N,12136.4305,E,1,12,1.4,116.6,M,,,,0000*13
$GNRMC,072536.000,A,3112.7424,N,12136.4305,E,1.69,272.17,270519,,*1E
$GPGSA,A,3,11,17,18,19,22,28,,,,,,,1.5,1.4,0.6*38
$BDGSA,A,3,08,10,12,13,19,24,,,,,,,1.5,1.4,0.6*22
$GPGSV,2,1,07,17,42,317,38,19,25,299,41,28,79,301,41,11,29,056,46*72
$GPGSV,2,2,07,18,13,049,37,22,40,065,46,01,37,039,35*40
$BDGSV,2,1,07,08,67,303,39,10,71,253,39,12,57,348,40,13,47,261,40*6C
$BDGSV,2,2,07,24,41,257,45,19,22,058,40,25,15,312,00*5F
$LOGTIM,3,-287.454724,-442.585751,0.000000,0.000000,-63.539*1E
EndT:        1
sat41 = 2671 2267 681 1750
sat42 = 2262 3984 544 1000
ch21 satid=42,max_freq = 1000,max_mean = 544,max_phase = 3984,max_value = 2262,acq ok1!
sat43 = 1496 2323 491 4750
sat43 = 1670 3767 495 3250
sat45 = 2010 2780 564 3000
---00000023--- Acq_st=3 2019-5-27 07:25:36 
[00]  G17  f 37  -1816.0 2046002.4  1.0  1.0  5  0 113153926
[01]  G19  f 41  -2592.5 2046003.4  1.0  1.0  5  0 113153923
[02]  G28  f 41  -1061.1 2046001.4  1.0  1.0  5  0 113153931
[03]  G11  f 46   2171.6 2045997.2  1.0  1.0  5  0 113153924
[04]  G18  f 36   3026.4 2045996.1  1.0  1.0  5  0 113153919
[05]  G22  f 46   1034.9 2045998.6  1.0  1.0  5  0 113153925
[06]  G01  7 35   2481.1 2045996.7  1.0  1.0  5  0         6
[16]  B08 1f 38    -24.5 4092000.0  1.0  1.0  5  0 113139878
[17]  B10 1f 39    -23.9 4092000.1  1.0  1.0  5  0 113139879
[18]  B12 1f 40   -493.7 4092001.2  1.0  1.0  5  0 113139926
[19]  B13 1f 40   -371.9 4092000.9  1.0  1.0  5  0 113139874
[20]  B24 1f 44    716.8 4091998.1  1.0  1.0  5  0 113139921
[21]  B06  1  7   -993.7 4092002.0 -0.1  0.0  1  0      2608
[23]  B19 1f 41    521.9 4091998.6  1.0  1.0  5  0 113139917
sat45 = 2432 2285 567 3000
sat47 = 1975 3416 531 750
sat47 = 1948 1241 535 750
src>tow meas_num=14
lsq: nits= 2
lsq residual:2.503339
$GNGGA,072537.000,3112.7427,N,12136.4314,E,1,12,1.4,111.0,M,,,,0000*10
$GNRMC,072537.000,A,3112.7427,N,12136.4314,E,1.56,272.17,270519,,*10
$GPGSA,A,3,11,17,18,19,22,28,,,,,,,1.5,1.4,0.6*38
$BDGSA,A,3,08,10,12,13,19,24,,,,,,,1.5,1.4,0.6*22
$GPGSV,2,1,07,17,42,317,37,19,25,299,41,28,79,301,41,11,29,056,46*7D
$GPGSV,2,2,07,18,13,049,36,22,40,065,46,01,37,039,35*41
$BDGSV,2,1,07,08,67,303,38,10,71,253,39,12,57,348,40,13,47,261,40*6D
$BDGSV,2,2,07,24,41,257,44,19,22,058,41,25,15,312,00*5F
$LOGTIM,3,-352.637285,-509.286850,0.000000,0.000000,-63.322*16
EndT:        1
sat50 = 2068 4045 643 1750
sat50 = 2205 1791 647 2000
sat51 = 2050 3700 590 -3500
sat51 = 2015 1189 595 3000
sat52 = 2154 3562 589 3750
sat52 = 1907 1965 594 3500
---00000024--- Acq_st=3 2019-5-27 07:25:37 
[00]  G17  f 36  -1812.6 2046002.4  1.0  1.0  5  0 113154926
[01]  G19  f 42  -2588.8 2046003.4  1.0  1.0  5  0 113154923
[02]  G28  f 42  -1056.3 2046001.4  1.0  1.0  5  0 113154931
[03]  G11  f 45   2175.6 2045997.2  1.0  1.0  5  0 113154924
[04]  G18  f 37   3030.9 2045996.1  1.0  1.0  5  0 113154919
[05]  G22  f 46   1039.4 2045998.7  1.0  1.0  5  0 113154925
[06]  G01  f 35   2485.8 2045996.7  1.0  1.0  5  0         6
[16]  B08 1f 38    -20.8 4092000.0  1.0  1.0  5  0 113140878
[17]  B10 1f 38    -19.5 4092000.1  1.0  1.0  5  0 113140879
[18]  B12 1f 40   -490.3 4092001.2  1.0  1.0  5  0 113140926
[19]  B13 1f 40   -367.6 4092001.0  1.0  0.9  5  0 113140874
[20]  B24 1f 44    721.0 4091998.1  1.0  1.0  5  0 113140921
[21]  B06  1  7   -819.4 4092002.2 -0.1  0.0  1  0       788
[23]  B19 1f 41    526.5 4091998.7  1.0  1.0  5  0 113140917
sat53 = 1887 643 576 -1250
sat53 = 1908 3231 581 2000
src>tow meas_num=14
lsq: nits= 2
lsq residual:10.386093
$GNGGA,072538.000,3112.7522,N,12136.4360,E,1,12,1.4,97.9,M,,,,0000*2E
$GNRMC,072538.000,A,3112.7522,N,12136.4360,E,1.62,272.17,270519,,*1F
$GPGSA,A,3,01,11,17,18,19,22,28,,,,,,1.6,1.4,0.6*3A
$BDGSA,A,3,08,10,12,13,19,,,,,,,,1.6,1.4,0.6*27
$GPGSV,2,1,07,17,42,317,36,19,25,299,42,28,79,301,42,11,29,056,45*7F
$GPGSV,2,2,07,18,13,049,37,22,40,065,46,01,37,039,35*40
$BDGSV,2,1,07,08,67,303,38,10,71,253,38,12,57,348,40,13,47,261,40*6C
$BDGSV,2,2,07,24,41,257,44,19,22,058,41,25,15,312,00*5F
$LOGTIM,3,-416.564921,-585.872317,0.000000,0.000000,-62.982*1D
EndT:        1
sat54 = 2205 279 617 250
sat54 = 2001 3240 622 -4500
sat56 = 1989 239 578 -500
sat56 = 1811 3353 582 1500
sat57 = 1376 1361 488 -2500
sat57 = 1318 3884 492 750
---00000025--- Acq_st=3 2019-5-27 07:25:38 
[00]  G17  f 36  -1818.7 2046002.5  1.0  1.0  5  0 113155926
[01]  G19  f 42  -2594.2 2046003.4  1.0  1.0  5  0 113155923
[02]  G28  f 41  -1062.1 2046001.4  1.0  1.0  5  0 113155931
[03]  G11  f 45   2170.0 2045997.2  1.0  1.0  5  0 113155924
[04]  G18  f 36   3024.5 2045996.0  1.0  1.0  5  0 113155919
[05]  G22  f 46   1034.0 2045998.7  1.0  1.0  5  0 113155925
[06]  G01  f 36   2480.0 2045996.7  1.0  1.0  5  0 113155926
[16]  B08 1f 38    -27.0 4092000.1  1.0  1.0  5  0 113141878
[17]  B10 1f 39    -24.9 4092000.0  1.0  1.0  5  0 113141879
[18]  B12 1f 40   -495.3 4092001.3  1.0  1.0  5  0 113141926
[19]  B13 1f 39   -373.8 4092001.0  1.0  1.0  5  0 113141874
[20]  B24 1f 44    715.5 4091998.1  1.0  1.0  5  0 113141921
[21]  B06  1  7   -851.7 4092002.1  0.2  0.0  1  0      1788
[23]  B19 1f 40    520.8 4091998.7  1.0  1.0  5  0 113141917
sat58 = 1490 3577 492 500
sat58 = 1456 3641 496 500
src>tow meas_num=14
lsq: nits= 2
lsq residual:7.516065
$GNGGA,072539.000,3112.7494,N,12136.4348,E,1,13,1.4,92.9,M,,,,0000*2D
$GNRMC,072539.000,A,3112.7494,N,12136.4348,E,1.12,272.17,270519,,*1F
$GPGSA,A,3,01,11,17,18,19,22,28,,,,,,1.5,1.4,0.6*39
$BDGSA,A,3,08,10,12,13,19,24,,,,,,,1.5,1.4,0.6*22
$GPGSV,2,1,07,17,42,317,36,19,25,299,42,28,79,301,41,11,29,056,45*7C
$GPGSV,2,2,07,18,13,049,36,22,40,065,46,01,37,039,36*42
$BDGSV,2,1,07,08,67,303,38,10,71,253,39,12,57,348,40,13,47,261,39*63
$BDGSV,2,2,07,24,41,257,44,19,22,058,40,25,15,312,00*5E
$LOGTIM,3,-483.887169,-653.473044,0.000000,0.000000,-64.104*15
EndT:        1
sat59 = 2076 85 617 4000
sat59 = 2003 2259 622 4000
sat61 = 1625 2879 506 2000
sat61 = 1676 2943 509 2000
sat62 = 1931 153 535 5000
sat62 = 1931 153 538 5000
---00000026--- Acq_st=3 2019-5-27 07:25:39 
[00]  G17  f 35  -1827.6 2046002.4  0.9  1.0  5  0 113156926
[01]  G19  f 41  -2602.8 2046003.4  1.0  1.0  5  0 113156923
[02]  G28  f 41  -1070.3 2046001.4  1.0  1.0  5  0 113156931
[03]  G11  f 46   2161.4 2045997.2  1.0  1.0  5  0 113156924
[04]  G18  f 35   3016.7 2045996.0  1.0  0.9  5  0 113156919
[05]  G22  f 46   1025.9 2045998.7  1.0  1.0  5  0 113156925
[06]  G01  f 36   2471.7 2045996.8  1.0  1.0  5  0 113156926
[16]  B08 1f 38    -35.1 4092000.1  1.0  1.0  5  0 113142878
[17]  B10 1f 38    -33.6 4092000.1  1.0  1.0  5  0 113142879
[18]  B12 1f 40   -504.1 4092001.3  1.0  1.0  5  0 113142926
[19]  B13 1f 39   -381.9 4092001.0  1.0  1.0  5  0 113142874
[20]  B24 1f 44    707.7 4091998.2  1.0  1.0  5  0 113142921
[22]  B26  1  7  -4553.3 4092013.1  0.0  0.0  1  0      2380
[23]  B19 1f 41    513.3 4091998.6  1.0  1.0  5  0 113142917
sat63 = 1974 3415 571 5000
sat63 = 1908 872 574 2000
src>tow meas_num=14
lsq: nits= 2
lsq residual:7.705456
$GNGGA,072540.000,3112.7482,N,12136.4343,E,1,13,1.4,92.4,M,,,,0000*22
$GNRMC,072540.000,A,3112.7482,N,12136.4343,E,0.53,272.17,270519,,*19
$GPGSA,A,3,01,11,17,18,19,22,28,,,,,,1.5,1.4,0.6*39
$BDGSA,A,3,08,10,12,13,19,24,,,,,,,1.5,1.4,0.6*22
$GPGSV,2,1,07,17,42,317,35,19,25,299,41,28,79,301,41,11,29,056,46*7F
$GPGSV,2,2,07,18,13,049,35,22,40,065,46,01,37,039,36*41
$BDGSV,2,1,07,08,67,303,38,10,71,253,38,12,57,348,40,13,47,261,39*62
$BDGSV,2,2,07,24,41,257,44,19,22,058,41,25,15,312,00*5F
$LOGTIM,3,-549.125886,-718.017250,0.000000,0.000000,-64.942*1E
EndT:        1
sat64 = 1996 2667 672 4000
sat64 = 2036 1802 677 -4750
sat65 = 2461 3091 627 -250
sat65 = 2324 3446 633 -250
sat66 = 1613 3950 540 5000
sat66 = 1693 1181 544 -1250
---00000027--- Acq_st=3 2019-5-27 07:25:40 
[00]  G17  f 36  -1826.8 2046002.4  1.0  1.0  5  0 113157926
[01]  G19  f 42  -2602.4 2046003.4  1.0  1.0  5  0 113157923
[02]  G28  f 40  -1069.2 2046001.4  1.0  1.0  5  0 113157931
[03]  G11  f 46   2161.9 2045997.2  1.0  1.0  5  0 113157924
[04]  G18  f 36   3016.7 2045996.1  1.0  1.1  5  0 113157919
[05]  G22  f 46   1026.7 2045998.7  1.0  1.0  5  0 113157925
[06]  G01  f 36   2471.7 2045996.8  1.0  1.0  5  0 113157926
[16]  B08 1f 38    -35.2 4092000.1  1.0  1.0  5  0 113143878
[17]  B10 1f 38    -33.6 4092000.0  1.0  1.0  5  0 113143879
[18]  B12 1f 40   -503.8 4092001.3  1.0  1.0  5  0 113143926
[19]  B13 1f 40   -381.0 4092001.0  1.0  1.0  5  0 113143874
[20]  B24 1f 44    708.1 4091998.1  1.0  1.0  5  0 113143921
[22]  B26  1  7  -4883.2 4092012.9 -0.1  0.0  1  0       348
[23]  B19 1f 40    513.6 4091998.7  1.0  1.0  5  0 113143917
sat67 = 1816 1323 547 -4500
sat67 = 1825 1447 550 -4500
src>tow meas_num=14
lsq: nits= 2
lsq residual:8.841229
$GNGGA,072541.000,3112.7451,N,12136.4338,E,1,13,1.4,90.3,M,,,,0000*24
$GNRMC,072541.000,A,3112.7451,N,12136.4338,E,0.75,272.17,270519,,*1E
$GPGSA,A,3,01,11,17,18,19,22,28,,,,,,1.5,1.4,0.6*39
$BDGSA,A,3,08,10,12,13,19,24,,,,,,,1.5,1.4,0.6*22
$GPGSV,2,1,07,17,42,317,36,19,25,299,42,28,79,301,40,11,29,056,46*7E
$GPGSV,2,2,07,18,13,049,36,22,40,065,46,01,37,039,36*42
$BDGSV,2,1,07,08,67,303,38,10,71,253,38,12,57,348,40,13,47,261,40*6C
$BDGSV,2,2,07,24,41,257,44,19,22,058,40,25,15,312,00*5E
$LOGTIM,3,-617.550273,-785.439548,0.000000,0.000000,-65.065*1F
EndT:        1
sat68 = 2153 2232 647 2000
sat68 = 2134 2296 654 2000
---00000028--- Acq_st=7 2019-5-27 07:25:41 
[00]  G17  f 38  -1829.1 2046002.4  1.0  1.0  5  0 113158926
[01]  G19  f 41  -2605.2 2046003.4  1.0  1.0  5  0 113158923
[02]  G28  f 41  -1071.3 2046001.4  1.0  1.0  5  0 113158931
[03]  G11  f 46   2159.4 2045997.2  1.0  1.0  5  0 113158924
[04]  G18  f 36   3014.2 2045996.1  1.0  0.9  5  0 113158919
[05]  G22  f 46   1024.8 2045998.7  1.0  1.0  5  0 113158925
[06]  G01  f 36   2470.1 2045996.7  1.0  1.0  5  0 113158926
[16]  B08 1f 39    -37.6 4092000.1  1.0  1.0  5  0 113144878
[17]  B10 1f 38    -35.8 4092000.1  1.0  1.0  5  0 113144879
[18]  B12 1f 40   -506.1 4092001.3  1.0  1.0  5  0 113144926
[19]  B13 1f 39   -384.1 4092001.0  1.0  1.0  5  0 113144874
[20]  B24 1f 44    706.0 4091998.1  1.0  1.0  5  0 113144921
[22]  B26  1  7  -4868.1 4092012.9 -0.0  0.0  1  0      1348
[23]  B19 1f 40    511.9 4091998.6  1.0  1.0  5  0 113144917
sat1 = 13898 580 5012 -3000
sat1 = 14436 1229 4460 -2500
sat2 = 13991 252 5010 1500
sat2 = 19401 1563 4895 2750
sat3 = 13544 1545 5009 1500
sat3 = 12329 518 4167 3750
sat4 = 13686 1229 5028 3000
src>tow meas_num=14
lsq: nits= 2
lsq residual:7.053490
$GNGGA,072542.000,3112.7436,N,12136.4331,E,1,13,1.4,91.0,M,,,,0000*2D
$GNRMC,072542.000,A,3112.7436,N,12136.4331,E,0.37,272.17,270519,,*13
$GPGSA,A,3,01,11,17,18,19,22,28,,,,,,1.5,1.4,0.6*39
$BDGSA,A,3,08,10,12,13,19,24,,,,,,,1.5,1.4,0.6*22
$GPGSV,2,1,07,17,42,317,38,19,25,299,41,28,79,301,41,11,29,056,46*72
$GPGSV,2,2,07,18,13,049,36,22,40,065,46,01,37,039,36*42
$BDGSV,2,1,07,08,67,303,39,10,71,253,38,12,57,348,40,13,47,261,39*63
$BDGSV,2,2,07,24,41,257,44,19,22,058,40,25,15,312,00*5E
$LOGTIM,3,-683.512577,-850.192542,0.000000,0.000000,-65.491*11
EndT:        1
sat4 = 15256 1991 4689 -4500
sat5 = 12248 1330 4998 -3500
sat5 = 12907 722 4588 1250
sat6 = 13768 932 5052 -4500
sat6 = 12279 1762 4286 -1500
sat7 = 12389 1247 4939 2750
sat7 = 13141 1894 4566 4750
sat8 = 13346 1655 5000 3500
sat8 = 14745 1063 4600 -4250
sat9 = 13467 969 5011 1000
sat9 = 21800 669 5424 4000
sat11 = 13696 335 4994 3750
sat11 = 14236 814 4708 -4750
sat12 = 14808 186 5001 2250
sat12 = 14623 1202 4849 0
sat13 = 14230 448 5022 5000
---00000029--- Acq_st=3 2019-5-27 07:25:42 
[00]  G17  f 36  -1834.8 2046002.4  1.0  0.9  5  0 113159926
[01]  G19  f 41  -2610.1 2046003.4  1.0  1.0  5  0 113159923
[02]  G28  f 41  -1076.1 2046001.4  1.0  1.0  5  0 113159931
[03]  G11  f 46   2154.5 2045997.2  1.0  1.0  5  0 113159924
[04]  G18  f 36   3009.4 2045996.1  1.0  1.0  5  0 113159919
[05]  G22  f 46   1020.0 2045998.7  1.0  1.0  5  0 113159925
[06]  G01  f 35   2464.9 2045996.8  1.0  1.0  5  0 113159926
[16]  B08 1f 38    -42.5 4092000.1  1.0  1.0  5  0 113145878
[17]  B10 1f 39    -40.4 4092000.1  1.0  1.0  5  0 113145879
[18]  B12 1f 40   -511.1 4092001.3  1.0  1.0  5  0 113145926
[19]  B13 1f 40   -389.1 4092001.0  1.0  1.0  5  0 113145874
[20]  B24 1f 44    701.8 4091998.2  1.0  1.0  5  0 113145921
[22]  B26  1  7  -4922.8 4092013.0  0.1  0.0  1  0      2348
[23]  B19 1f 41    506.8 4091998.6  1.0  1.0  5  0 113145917
sat13 = 15352 1657 4072 -2750
sat14 = 14299 130 5051 5000
sat14 = 14941 1156 4674 -500
sat15 = 13266 705 4981 500
sat15 = 15745 1022 4617 -2250
sat19 = 13050 1680 4996 -2500
sat19 = 17754 1244 4403 -3750
sat20 = 13300 1361 5041 750
src>tow meas_num=13
lsq: nits= 2
lsq residual:9.112281
$GNGGA,072543.000,3112.7414,N,12136.4317,E,1,13,1.4,89.5,M,,,,0000*24
$GNRMC,072543.000,A,3112.7414,N,12136.4317,E,0.83,272.17,270519,,*19
$GPGSA,A,3,01,11,17,18,19,22,28,,,,,,1.5,1.4,0.6*39
$BDGSA,A,3,08,10,12,13,19,24,,,,,,,1.5,1.4,0.6*22
$GPGSV,2,1,07,17,42,317,36,19,25,299,41,28,79,301,41,11,29,056,46*7C
$GPGSV,2,2,07,18,13,049,36,22,40,065,46,01,37,039,35*41
$BDGSV,2,1,07,08,67,303,38,10,71,253,39,12,57,348,40,13,47,261,40*6D
$BDGSV,2,2,07,24,41,257,44,19,22,058,41,25,15,312,00*5F
$LOGTIM,3,-753.526802,-922.462793,0.000000,0.000000,-66.042*1C
EndT:        1
sat20 = 14114 332 4839 -2250
sat22 = 14327 40 5003 -4250
sat22 = 9754 983 3843 -2500
sat23 = 13584 2017 5048 1000
sat23 = 11015 1007 4086 3500
sat24 = 13153 1177 4992 3250
sat24 = 14207 1872 4834 3250
sat25 = 16028 189 4999 -2750
sat25 = 12568 1992 4548 4750
sat26 = 13161 912 4981 4750
sat26 = 14925 1531 4911 1250
sat28 = 13057 1461 5006 -4750
sat28 = 14229 1655 4538 500
sat29 = 12985 65 4994 -4000
sat29 = 16659 202 5027 1500
sat30 = 14066 881 5004 3250
---00000030--- Acq_st=3 2019-5-27 07:25:43 
[00]  G17  f 37  -1824.3 2046002.3  1.0  1.0  5  0 113160926
[01]  G19  f 42  -2600.0 2046003.4  1.0  1.0  5  0 113160923
[02]  G28  f 41  -1065.2 2046001.3  1.0  1.0  5  0 113160931
[03]  G11  f 46   2164.7 2045997.2  1.0  1.0  5  0 113160924
[04]  G18  f 35   3019.7 2045996.0  1.0  0.9  5  0 113160919
[05]  G22  f 46   1030.8 2045998.6  1.0  1.0  5  0 113160925
[06]  G01  f 36   2474.9 2045996.7  1.0  1.0  5  0 113160926
[16]  B08 1f 38    -32.6 4092000.1  1.0  1.0  5  0 113146878
[17]  B10 1f 39    -30.7 4092000.1  1.0  1.0  5  0 113146879
[18]  B12 1f 40   -501.0 4092001.3  1.0  1.0  5  0 113146926
[19]  B13 1f 39   -378.9 4092001.0  1.0  1.0  5  0 113146874
[20]  B24 1f 44    712.2 4091998.1  1.0  1.0  5  0 113146921
[23]  B19 1f 41    517.4 4091998.7  1.0  1.0  5  0 113146917
sat30 = 14013 1555 4682 -2250
sat31 = 14445 1029 5007 -4500
sat31 = 15814 881 4860 4000
sat37 = 1609 1001 505 3500
src>tow meas_num=13
lsq: nits= 2
lsq residual:7.047151
$GNGGA,072544.000,3112.7409,N,12136.4322,E,1,13,1.4,88.8,M,,,,0000*25
$GNRMC,072544.000,A,3112.7409,N,12136.4322,E,1.36,272.17,270519,,*1B
$GPGSA,A,3,01,11,17,18,19,22,28,,,,,,1.5,1.4,0.6*39
$BDGSA,A,3,08,10,12,13,19,24,,,,,,,1.5,1.4,0.6*22
$GPGSV,2,1,07,17,42,317,37,19,25,299,42,28,79,301,41,11,29,056,46*7E
$GPGSV,2,2,07,18,13,049,35,22,40,065,46,01,37,039,36*41
$BDGSV,2,1,07,08,67,303,38,10,71,253,39,12,57,348,40,13,47,261,39*63
$BDGSV,2,2,07,24,41,257,44,19,22,058,41,25,15,312,00*5F
$LOGTIM,3,-817.869296,-985.710714,0.000000,0.000000,-64.452*11
EndT:        1
sat37 = 1624 1553 509 3500
sat38 = 2123 3529 596 -1750
sat38 = 2154 2150 602 -1250
sat39 = 1754 2077 555 -4250
sat39 = 1868 864 560 -4500
sat40 = 1647 160 522 -2250
---00000031--- Acq_st=3 2019-5-27 07:25:44 
[00]  G17  f 37  -1821.6 2046002.4  1.0  1.0  5  0 113161926
[01]  G19  f 41  -2596.9 2046003.4  1.0  1.0  5  0 113161923
[02]  G28  f 40  -1061.7 2046001.4  1.0  1.0  5  0 113161931
[03]  G11  f 46   2167.9 2045997.2  1.0  1.0  5  0 113161924
[04]  G18  f 35   3022.0 2045996.1  1.0  0.9  5  0 113161919
[05]  G22  f 46   1034.5 2045998.7  1.0  1.0  5  0 113161925
[06]  G01  f 35   2478.0 2045996.8  1.0  1.0  5  0 113161926
[16]  B08 1f 38    -29.7 4092000.1  1.0  1.0  5  0 113147878
[17]  B10 1f 39    -27.0 4092000.1  1.0  1.0  5  0 113147879
[18]  B12 1f 40   -497.8 4092001.3  1.0  1.0  5  0 113147926
[19]  B13 1f 40   -375.5 4092001.0  1.0  1.0  5  0 113147874
[20]  B24 1f 43    715.6 4091998.1  1.0  1.0  5  0 113147921
[23]  B19 1f 41    521.3 4091998.6  1.0  1.0  5  0 113147917
sat40 = 1721 160 526 -2250
sat41 = 2349 783 658 2000
src>tow meas_num=14
lsq: nits= 2
lsq residual:7.603083
$GNGGA,072545.000,3112.7384,N,12136.4326,E,1,13,1.4,87.0,M,,,,0000*25
$GNRMC,072545.000,A,3112.7384,N,12136.4326,E,1.50,272.17,270519,,*1C
$GPGSA,A,3,01,11,17,18,19,22,28,,,,,,1.5,1.4,0.6*39
$BDGSA,A,3,08,10,12,13,19,24,,,,,,,1.5,1.4,0.6*22
$GPGSV,2,1,07,17,42,317,37,19,25,299,41,28,79,301,40,11,29,056,46*7C
$GPGSV,2,2,07,18,13,049,35,22,40,065,46,01,37,039,35*42
$BDGSV,2,1,07,08,67,303,38,10,71,253,39,12,57,348,40,13,47,261,40*6D
$BDGSV,2,2,07,24,41,257,43,19,22,058,41,25,15,312,00*58
$LOGTIM,3,-883.492662,-1049.777053,0.000000,0.000000,-63.849*27
EndT:        1
sat41 = 2414 973 661 2250
sat42 = 2269 2426 526 1000
ch22 satid=42,max_freq = 1000,max_mean = 526,max_phase = 2426,max_value = 2269,acq ok1!
sat43 = 1465 1264 475 5000
sat43 = 1482 742 478 4750
sat45 = 2073 77 544 3000
sat45 = 2130 237 549 3000
---00000032--- Acq_st=3 2019-5-27 07:25:45 
[00]  G17  f 38  -1821.5 2046002.3  1.0  1.0  5  0 113162926
[01]  G19  f 41  -2597.0 2046003.4  1.0  1.0  5  0 113162923
[02]  G28  f 40  -1060.6 2046001.4  1.0  1.1  5  0 113162931
[03]  G11  f 46   2167.8 2045997.2  1.0  1.0  5  0 113162924
[04]  G18  f 35   3021.5 2045996.1  1.0  1.0  5  0 113162919
[05]  G22  f 46   1034.9 2045998.7  1.0  1.0  5  0 113162925
[06]  G01  f 34   2478.3 2045996.8  1.0  1.0  5  0 113162926
[16]  B08 1f 38    -29.4 4092000.1  1.0  1.0  5  0 113148878
[17]  B10 1f 38    -26.9 4092000.0  1.0  1.0  5  0 113148879
[18]  B12 1f 40   -497.5 4092001.3  1.0  1.0  5  0 113148926
[19]  B13 1f 39   -375.8 4092001.0  1.0  1.0  5  0 113148874
[20]  B24 1f 43    716.1 4091998.1  1.0  1.0  5  0 113148921
[21]  B04  1 28   2153.9 4091995.0  0.0  0.0  1  0       213
[22]  B06  1  7   -988.2 4092002.2  0.0  0.0  1  0      2348
[23]  B19 1f 41    521.8 4091998.6  1.0  1.0  5  0 113148917
sat47 = 1915 2049 515 750
sat47 = 1756 2644 518 750
src>tow meas_num=15
lsq: nits= 2
lsq residual:9.319889
$GNGGA,072546.000,3112.7382,N,12136.4328,E,1,13,1.4,89.0,M,,,,0000*20
$GNRMC,072546.000,A,3112.7382,N,12136.4328,E,1.18,272.17,270519,,*1B
$GPGSA,A,3,01,11,17,18,19,22,28,,,,,,1.5,1.4,0.6*39
$BDGSA,A,3,08,10,12,13,19,24,,,,,,,1.5,1.4,0.6*22
$GPGSV,2,1,07,17,42,317,38,19,25,299,41,28,79,301,40,11,29,056,46*73
$GPGSV,2,2,07,18,13,049,35,22,40,065,46,01,37,039,34*43
$BDGSV,2,1,07,08,67,303,38,10,71,253,38,12,57,348,40,13,47,261,39*62
$BDGSV,2,2,07,24,41,257,43,19,22,058,41,25,15,312,00*58
$LOGTIM,3,-945.908823,-1111.718479,0.000000,0.000000,-63.654*22
EndT:        1
sat50 = 2162 2527 624 1250
sat50 = 2070 2591 630 1250
sat51 = 1853 856 577 3000
sat51 = 1982 77 582 3000
sat52 = 1929 2248 570 3500
sat52 = 2022 1905 573 3500
---00000033--- Acq_st=3 2019-5-27 07:25:46 
[00]  G17  f 39  -1819.9 2046002.4  1.0  1.0  5  0 113163926
[01]  G19  f 41  -2594.0 2046003.4  1.0  1.0  5  0 113163923
[02]  G28  f 40  -1058.0 2046001.4  1.0  1.0  5  0 113163931
[03]  G11  f 46   2170.6 2045997.2  1.0  1.0  5  0 113163924
[04]  G18  f 35   3024.8 2045996.0  1.0  1.0  5  0 113163919
[05]  G22  f 46   1038.3 2045998.6  1.0  1.0  5  0 113163925
[06]  G01  f 33   2481.6 2045996.8  1.0  0.9  5  0 113163926
[16]  B08 1f 38    -27.2 4092000.1  1.0  1.0  5  0 113149878
[17]  B10 1f 39    -24.5 4092000.0  1.0  1.0  5  0 113149879
[18]  B12 1f 40   -495.6 4092001.3  1.0  1.0  5  0 113149926
[19]  B13 1f 39   -373.1 4092001.0  1.0  1.0  5  0 113149874
[20]  B24 1f 43    719.2 4091998.1  1.0  1.0  5  0 113149921
[21]  B04  1 29   2113.0 4091995.9 -0.1  0.0  1  0      1213
[22]  B06  1  7   -887.6 4092002.2 -0.1  0.0  1  0       843
[23]  B19 1f 40    524.9 4091998.7  1.0  1.0  5  0 113149917
sat53 = 1773 3757 557 2000
sat53 = 1905 95 564 2000
sat54 = 2043 325 601 250
src>tow meas_num=15
lsq: nits= 2
lsq residual:9.267628
$GNGGA,072547.000,3112.7365,N,12136.4333,E,1,13,1.4,87.7,M,,,,0000*2B
$GNRMC,072547.000,A,3112.7365,N,12136.4333,E,1.07,272.17,270519,,*17
$GPGSA,A,3,01,11,17,18,19,22,28,,,,,,1.5,1.4,0.6*39
$BDGSA,A,3,08,10,12,13,19,24,,,,,,,1.5,1.4,0.6*22
$GPGSV,2,1,07,17,42,317,39,19,25,299,41,28,79,301,40,11,29,056,46*72
$GPGSV,2,2,07,18,13,049,35,22,40,065,46,01,37,039,33*44
$BDGSV,2,1,07,08,67,303,38,10,71,253,39,12,57,348,40,13,47,261,39*63
$BDGSV,2,2,07,24,41,257,43,19,22,058,40,25,15,312,00*59
$LOGTIM,3,-1010.987332,-1176.261673,0.000000,0.000000,-63.605*10
EndT:        1
sat54 = 1919 3273 604 250
sat56 = 1916 1999 559 1500
sat56 = 1825 2909 566 1750
sat57 = 1402 3778 476 750
sat57 = 1360 429 479 250
---00000034--- Acq_st=3 2019-5-27 07:25:47 
[00]  G17  f 38  -1818.9 2046002.4  1.0  1.0  5  0 113164926
[01]  G19  f 40  -2594.6 2046003.4  1.0  1.0  5  0 113164923
[02]  G28  f 39  -1058.4 2046001.4  1.0  1.0  5  0 113164931
[03]  G11  f 46   2170.0 2045997.2  1.0  1.0  5  0 113164924
[04]  G18  f 35   3023.3 2045996.0  1.0  0.9  5  0 113164919
[05]  G22  f 46   1038.3 2045998.7  1.0  1.0  5  0 113164925
[06]  G01  f 33   2480.3 2045996.8  1.0  1.0  5  0 113164926
[16]  B08 1f 38    -27.7 4092000.0  1.0  1.0  5  0 113150878
[17]  B10 1f 38    -24.5 4092000.0  1.0  1.0  5  0 113150879
[18]  B12 1f 40   -495.3 4092001.3  1.0  1.0  5  0 113150926
[19]  B13 1f 39   -373.4 4092000.9  1.0  1.0  5  0 113150874
[20]  B24 1f 43    719.4 4091998.1  1.0  1.0  5  0 113150921
[21]  B04  1 26   2121.0 4091995.3 -0.0  0.0  1  0      2213
[22]  B06  1  7   -880.4 4092002.6 -0.2  0.0  1  0      1843
[23]  B19 1f 40    525.0 4091998.6  1.0  1.0  5  0 113150917
sat58 = 1320 972 476 500
sat58 = 1379 1188 479 750
sat59 = 2010 184 599 4250
src>tow meas_num=15
lsq: nits= 2
lsq residual:10.646417
$GNGGA,072548.000,3112.7374,N,12136.4341,E,1,12,1.4,86.8,M,,,,0000*2E
$GNRMC,072548.000,A,3112.7374,N,12136.4341,E,0.77,272.17,270519,,*1B
$GPGSA,A,3,01,11,17,18,19,22,28,,,,,,1.6,1.4,0.6*3A
$BDGSA,A,3,08,10,12,13,19,,,,,,,,1.6,1.4,0.6*27
$GPGSV,2,1,07,17,42,317,38,19,25,299,40,28,79,301,39,11,29,056,46*7C
$GPGSV,2,2,07,18,13,049,35,22,40,065,46,01,37,039,33*44
$BDGSV,2,1,07,08,67,303,38,10,71,253,38,12,57,348,40,13,47,261,39*62
$BDGSV,2,2,07,24,41,257,43,19,22,058,40,25,15,312,00*59
$LOGTIM,3,-1074.380250,-1240.284391,0.000000,0.000000,-63.672*1E
EndT:        1
sat59 = 2059 2673 604 500
sat61 = 1660 648 491 -2500
sat61 = 1368 1739 496 -4750
sat63 = 2185 3817 555 5000
sat63 = 2121 3620 560 5000
---00000035--- Acq_st=3 2019-5-27 07:25:48 
[00]  G17  f 38  -1827.5 2046002.3  1.0  1.0  5  0 113165926
[01]  G19  f 39  -2603.3 2046003.4  1.0  1.0  5  0 113165923
[02]  G28  f 40  -1066.1 2046001.4  1.0  1.0  5  0 113165931
[03]  G11  f 46   2161.6 2045997.2  1.0  1.0  5  0 113165924
[04]  G18  f 35   3015.8 2045996.1  1.0  0.9  5  0 113165919
[05]  G22  f 46   1030.0 2045998.7  1.0  1.0  5  0 113165925
[06]  G01  f 33   2471.4 2045996.7  1.0  0.9  5  0 113165926
[16]  B08 1f 38    -36.3 4092000.0  1.0  1.0  5  0 113151878
[17]  B10 1f 39    -33.2 4092000.1  1.0  1.0  5  0 113151879
[18]  B12 1f 40   -504.3 4092001.4  1.0  1.0  5  0 113151926
[19]  B13 1f 39   -382.3 4092001.0  1.0  1.0  5  0 113151874
[20]  B24 1f 43    711.0 4091998.1  1.0  1.0  5  0 113151921
