FlashID=0x1 0x20 0x18
BBram_blkflag1:  8a9: f756
FW Ver: 1.30  
GPS00 Init Dop:  -2276,  2
GPS01 Init Dop:   5000, 40
GPS02 Init Dop:   5000, 40
GPS03 Init Dop:   5000, 40
GPS04 Init Dop:   5000, 40
GPS05 Init Dop:   5000, 40
GPS06 Init Dop:   5000, 40
GPS07 Init Dop:   5000, 40
GPS08 Init Dop:   5000, 40
GPS09 Init Dop:   5000, 40
GPS10 Init Dop:  -1947,  2
GPS11 Init Dop:   5000, 40
GPS12 Init Dop:   5000, 40
GPS13 Init Dop:   5000, 40
GPS14 Init Dop:   5000, 40
GPS15 Init Dop:   5000, 40
GPS16 Init Dop:   2072,  2
GPS17 Init Dop:  -2735,  2
GPS18 Init Dop:   2841,  2
GPS19 Init Dop:   5000, 40
GPS20 Init Dop:   5000, 40
GPS21 Init Dop:  -1054,  2
GPS22 Init Dop:   5000, 40
GPS23 Init Dop:   5000, 40
GPS24 Init Dop:   5000, 40
GPS25 Init Dop:   5000, 40
GPS26 Init Dop:   5000, 40
GPS27 Init Dop:   1049,  2
GPS28 Init Dop:   5000, 40
GPS29 Init Dop:   5000, 40
GPS30 Init Dop:   5000, 40
GPS31 Init Dop:   5000, 40
BDS00 Init Dop:   5000, 40
BDS01 Init Dop:   5000, 40
BDS02 Init Dop:   5000, 40
BDS03 Init Dop:   5000, 40
BDS04 Init Dop:   5000, 40
BDS05 Init Dop:   5000, 40
BDS06 Init Dop:   5000, 40
BDS07 Init Dop:    283,  2
BDS08 Init Dop:   5000, 40
BDS09 Init Dop:    206,  2
BDS10 Init Dop:   5000, 40
BDS11 Init Dop:    720,  2
BDS12 Init Dop:    609,  2
BDS13 Init Dop:   5000, 40
BDS14 Init Dop:   5000, 40
BDS15 Init Dop:   5000, 40
BDS16 Init Dop:   5000, 40
BDS17 Init Dop:   5000, 40
BDS18 Init Dop:   -531,  2
BDS19 Init Dop:   5000, 40
BDS20 Init Dop:   5000, 40
BDS21 Init Dop:   5000, 40
BDS22 Init Dop:   5000, 40
BDS23 Init Dop:   -706,  2
BDS24 Init Dop:   1876,  2
BDS25 Init Dop:   5000, 40
BDS26 Init Dop:   5000, 40
BDS27 Init Dop:   5000, 40
BDS28 Init Dop:   5000, 40
BDS29 Init Dop:   5000, 40
BDS30 Init Dop:   5000, 40
BDS31 Init Dop:   5000, 40
sat0 = 3365 1791 1612 -2526
sat0 = 9732 1026 5226 -2526
sat1 = 2560 230 1084 -1750
sat1 = 13900 894 4147 -2750
sat2 = 2758 991 1087 250
sat2 = 21240 714 4632 2750
sat3 = 2760 1619 1080 3250
sat3 = 10584 1650 3740 3750
sat4 = 2499 685 1087 250
sat4 = 16921 1854 4448 -2250
sat5 = 3195 447 1078 -3000
sat5 = 13491 1932 4254 1250
sat6 = 2747 1729 1088 -4000
sat6 = 12771 1010 3927 250
sat7 = 2834 904 1074 4500
sat7 = 13283 1236 4293 3250
sat8 = 2630 436 1081 -3250
sat8 = 11953 977 4258 -2750
sat9 = 2624 109 1092 1250
sat9 = 22771 1667 5227 3750
sat10 = 5636 959 3017 -1947
sat10 = 11586 1363 4793 -2197
sat11 = 2725 131 1082 -3500
sat11 = 12719 1198 4442 250
sat12 = 2865 1014 1086 2500
sat12 = 14883 744 4559 -250
---00000001--- Acq_st=3 2019-5-27 07:34:47 
sat13 = 2452 109 1091 -4250
src<tow snapfix
gpmeas_pt.measnum=0
$GNGGA,000000.000,,,,,0,00,,,M,,,,0000*2B
$GNRMC,000000.000,A,,,,,,,000000,,*26
$GPGSA,A,1,,,,,,,,,,,,,,,*1E
$BDGSA,A,1,,,,,,,,,,,,,,,*0F
$LOGTIM,0,0.000000,0.000000,0.000000,0.000000,0.000*0A
EndT:        0
sat13 = 10224 974 3711 5000
sat14 = 2657 907 1090 5000
sat14 = 13853 161 4408 -500
sat15 = 2688 1242 1077 1500
sat15 = 15829 1241 4319 -2250
sat16 = 2144 157 1093 2072
sat16 = 10014 904 4158 1822
sat17 = 3088 1784 1344 -2985
sat17 = 13086 764 6831 -2735
sat18 = 13095 1189 1099 2591
ch0 satid=18,max_freq = 2591,max_mean = 1099,max_phase = 1189,max_value = 13095,acq ok1!
sat19 = 3027 1002 1087 -3000
sat19 = 19307 1718 4039 -3750
sat20 = 2779 367 1088 4250
sat20 = 13113 988 4569 -3750
sat21 = 2071 586 1018 -1304
sat21 = 8718 1553 4296 -1304
sat22 = 2538 563 1087 2750
sat22 = 9261 844 3360 -2750
sat23 = 2817 1169 1085 1750
sat23 = 11516 583 3661 3750
sat24 = 2718 881 1081 5000
sat24 = 14703 235 4564 -2500
sat25 = 2757 1335 1087 5000
sat25 = 12701 1505 4251 4500
sat26 = 2766 1671 1082 -3000
sat26 = 15885 1134 4673 1250
sat27 = 12596 634 1090 799
ch1 satid=27,max_freq = 799,max_mean = 1090,max_phase = 634,max_value = 12596,acq ok1!
sat28 = 2670 215 1089 4250
sat28 = 13782 1117 4216 750
sat29 = 2474 302 1075 2250
sat29 = 16549 1190 4827 1250
---00000002--- Acq_st=3 2019-5-27 07:34:48 
[00]  G19  1 28  -2583.1 2046004.0 -0.0  0.0  1  0         0
[01]  G28  1  7   -825.2 2046002.9  0.1  0.0  1  0         0
src<tow snapfix
gpmeas_pt.measnum=0
$GNGGA,000000.000,,,,,0,00,,,M,,,,0000*2B
$GNRMC,000000.000,A,,,,,,,000000,,*26
$GPGSA,A,1,,,,,,,,,,,,,,,*1E
$BDGSA,A,1,,,,,,,,,,,,,,,*0F
$LOGTIM,0,0.000000,0.000000,0.000000,0.000000,0.000*0A
EndT:        0
sat30 = 2691 443 1086 5000
sat30 = 13006 715 4317 -2500
sat31 = 2538 361 1082 4250
sat31 = 12698 1071 4570 4000
sat37 = 1756 976 510 3500
sat37 = 1865 976 512 3500
sat38 = 2231 3861 623 -1250
sat38 = 2315 920 629 -4500
sat39 = 1620 1069 568 4500
sat39 = 1771 3896 573 4500
---00000003--- Acq_st=3 2019-5-27 07:34:49 
[00]  G19  7 28  -2592.5 2046003.3  0.1  0.0 10  0        12
[01]  G28  1 27   -797.7 2046002.0  0.0  0.0  1  0        16
[16]  B01  1 10  -3556.4 4092009.5  0.1  0.0  1  0         0
src<tow snapfix
gpmeas_pt.measnum=0
$GNGGA,000000.000,,,,,0,00,,,M,,,,0000*2B
$GNRMC,000000.000,A,,,,,,,000000,,*26
$GPGSA,A,1,,,,,,,,,,,,,,,*1E
$BDGSA,A,1,,,,,,,,,,,,,,,*0F
$GPGSV,1,1,01,19,00,000,28*4A
$LOGTIM,0,0.000000,0.000000,0.000000,0.000000,0.000*0A
EndT:        0
sat40 = 1874 2386 526 -4500
sat40 = 1746 3567 527 -4500
sat41 = 2730 1298 679 2000
ch17 satid=41,max_freq = 2000,max_mean = 679,max_phase = 1298,max_value = 2730,acq ok1!
sat42 = 1942 2533 533 1250
sat42 = 2122 2945 536 1250
sat43 = 1532 1873 462 4750
sat43 = 1528 3229 464 5000
sat44 = 1559 3249 561 33
sat44 = 1575 3313 567 33
sat45 = 2226 2462 550 3250
ch18 satid=45,max_freq = 3250,max_mean = 550,max_phase = 2462,max_value = 2226,acq ok1!
sat46 = 2142 1551 435 -44
ch19 satid=46,max_freq = -44,max_mean = 435,max_phase = 1551,max_value = 2142,acq ok1!
---00000004--- Acq_st=3 2019-5-27 07:34:50 
[00]  G19  7 43  -2594.0 2046003.3  0.8  1.0  5  0        15
[01]  G28  7 35   -800.0 2046001.0  0.7  1.0  5  0        16
[16]  B01  1 10  -3587.1 4092008.5  0.1  0.0  1  0       579
[17]  B05  1 33  -2089.5 4092005.5  0.3  0.0  1  0         0
[18]  B09  1  7  -2807.1 4092008.4 -0.0  0.0  1  0         0
[19]  B10  1  7    651.8 4092000.8  0.0  0.0  1  0         0
src<tow snapfix
gpmeas_pt.measnum=2
$GNGGA,000000.000,,,,,0,00,,,M,,,,0000*2B
$GNRMC,000000.000,A,,,,,,,000000,,*26
$GPGSA,A,1,,,,,,,,,,,,,,,*1E
$BDGSA,A,1,,,,,,,,,,,,,,,*0F
$GPGSV,1,1,02,19,00,000,43,28,00,000,35*78
$LOGTIM,0,0.000000,0.000000,0.000000,0.000000,0.000*0A
EndT:        0
sat47 = 1796 3310 518 1000
sat47 = 1770 3482 519 1000
sat48 = 4578 1953 510 470
ch20 satid=48,max_freq = 470,max_mean = 510,max_phase = 1953,max_value = 4578,acq ok1!
sat49 = 1485 3852 406 359
sat49 = 1577 3916 407 359
sat50 = 2590 3828 647 2000
ch21 satid=50,max_freq = 2000,max_mean = 647,max_phase = 3828,max_value = 2590,acq ok1!
sat51 = 2075 3523 588 3000
sat51 = 2239 3587 593 3000
sat52 = 2201 1667 574 4250
sat52 = 1909 569 578 4000
sat53 = 1938 732 567 2250
---00000005--- Acq_st=3 2019-5-27 07:34:51 
[00]  G19  7 43  -2593.6 2046003.3  1.0  1.0  5  0        15
[01]  G28  7 41   -799.2 2046001.0  1.0  1.0  5  0         3
[16]  B01  1 10  -3608.5 4092010.7  0.1  0.0  1  0      1579
[17]  B05  1 33  -2078.1 4092005.7  0.5  0.0  1  0       718
[18]  B09  1  7  -3055.7 4092008.2 -0.0  0.0  1  0        84
[19]  B10  1  7     34.8 4091999.9  0.2  0.0  1  0        74
[20]  B12  1  7   -478.6 4092002.2  0.0  0.0  1  0         0
[21]  B14  1  7  -2006.0 4092005.1  0.1  0.0  1  0         0
src<tow snapfix
gpmeas_pt.measnum=2
$GNGGA,000000.000,,,,,0,00,,,M,,,,0000*2B
$GNRMC,000000.000,A,,,,,,,000000,,*26
$GPGSA,A,1,,,,,,,,,,,,,,,*1E
$BDGSA,A,1,,,,,,,,,,,,,,,*0F
$GPGSV,1,1,02,19,00,000,43,28,00,000,41*7B
$LOGTIM,0,0.000000,0.000000,0.000000,0.000000,0.000*0A
EndT:        0
sat53 = 2303 3682 569 2250
sat54 = 2274 2551 628 -4500
sat54 = 2300 301 632 500
sat55 = 1511 1077 614 -781
sat55 = 1408 3250 614 -781
sat56 = 2040 2454 577 2250
sat56 = 2244 2518 580 2000
sat57 = 1646 1053 468 -4750
sat57 = 1485 410 471 -4750
sat58 = 1410 3988 466 500
---00000006--- Acq_st=3 2019-5-27 07:34:52 
[00]  G19  7 44  -2590.9 2046003.3  1.0  1.0  5  0        15
[01]  G28  7 41   -796.4 2046001.0  1.0  1.0  5  0         3
[17]  B05  1 33  -2089.6 4092005.9  0.1  0.0  1  0      1718
[18]  B09  1  8  -3070.6 4092008.3  0.0  0.0  1  0      1084
[19]  B10  7 31     38.7 4091999.9  0.5  1.0  5  0      1074
[20]  B12  7 28   -475.3 4092001.1  0.4  0.9 10  0       818
[21]  B14  1 11  -2078.2 4092005.2 -0.1  0.0  1  0       677
src<tow snapfix
gpmeas_pt.measnum=3
$GNGGA,000000.000,,,,,0,00,,,M,,,,0000*2B
$GNRMC,000000.000,A,,,,,,,000000,,*26
$GPGSA,A,1,,,,,,,,,,,,,,,*1E
$BDGSA,A,1,,,,,,,,,,,,,,,*0F
$GPGSV,1,1,02,19,00,000,44,28,00,000,41*7C
$BDGSV,1,1,02,10,00,000,31,12,00,000,28*60
$LOGTIM,0,0.000000,0.000000,0.000000,0.000000,0.000*0A
EndT:        0
sat58 = 1629 237 468 3250
sat59 = 1943 3573 617 500
sat59 = 2184 3637 621 500
sat60 = 1140 2822 520 -956
sat60 = 1200 601 524 -956
sat61 = 3641 1948 481 1626
ch16 satid=61,max_freq = 1626,max_mean = 481,max_phase = 1948,max_value = 3641,acq ok1!
sat62 = 1748 1486 510 3000
sat62 = 1676 361 511 5000
sat63 = 2033 1667 548 2500
sat63 = 1861 3411 551 5000
sat64 = 2189 924 696 750
---00000007--- Acq_st=3 2019-5-27 07:34:53 
[00]  G19  7 44  -2586.8 2046003.3  1.0  1.0  5  0        15
[01]  G28  7 41   -791.3 2046001.0  1.0  1.0  5  0         3
[16]  B25  1  7  -1635.5 4092005.5 -0.1  0.0  1  0      2579
[18]  B09  1  8  -3087.8 4092008.1  0.1  0.0  1  0      2084
[19]  B10  7 36     42.6 4091999.9  1.0  1.0  5  0      2070
[20]  B12  7 37   -470.5 4092001.1  1.0  1.0  5  0      1817
[21]  B14  1  7  -2088.2 4092005.2  0.1  0.0  1  0      1677
src<tow snapfix
gpmeas_pt.measnum=4
$GNGGA,000000.000,,,,,0,00,,,M,,,,0000*2B
$GNRMC,000000.000,A,,,,,,,000000,,*26
$GPGSA,A,1,,,,,,,,,,,,,,,*1E
$BDGSA,A,1,,,,,,,,,,,,,,,*0F
$GPGSV,1,1,02,19,00,000,44,28,00,000,41*7C
$BDGSV,1,1,02,10,00,000,36,12,00,000,37*69
$LOGTIM,0,0.000000,0.000000,0.000000,0.000000,0.000*0A
EndT:        0
sat64 = 2103 2758 704 -4750
sat65 = 2471 2332 630 250
sat65 = 2371 2396 635 250
sat66 = 1758 768 524 -1250
sat66 = 1563 832 526 -1250
sat67 = 1822 2807 533 -4500
sat67 = 1824 2585 535 -4500
sat68 = 2139 3143 657 -1500
---00000008--- Acq_st=3 2019-5-27 07:34:54 
[00]  G19  7 44  -2585.7 2046003.3  1.0  1.0  5  0        15
[01]  G28  7 41   -789.6 2046001.0  1.0  1.0  5  0         3
[16]  B25  1  7  -1628.1 4092004.6 -0.1  0.0  1  0       665
[19]  B10  7 36     43.5 4091999.8  1.0  1.0  5  0      3070
[20]  B12  7 38   -469.6 4092001.2  1.0  1.0  5  0      2817
src<tow snapfix
gpmeas_pt.measnum=4
$GNGGA,000000.000,,,,,0,00,,,M,,,,0000*2B
$GNRMC,000000.000,A,,,,,,,000000,,*26
$GPGSA,A,1,,,,,,,,,,,,,,,*1E
$BDGSA,A,1,,,,,,,,,,,,,,,*0F
$GPGSV,1,1,02,19,00,000,44,28,00,000,41*7C
$BDGSV,1,1,02,10,00,000,36,12,00,000,38*66
$LOGTIM,0,0.000000,0.000000,0.000000,0.000000,0.000*0A
EndT:        0
sat68 = 2312 3260 663 2500
---00000009--- Acq_st=7 2019-5-27 07:34:55 
[00]  G19  7 44  -2580.1 2046003.3  1.0  1.0  5  0        15
[01]  G28  7 41   -783.9 2046001.0  1.0  1.0  5  0         3
[16]  B25  1  7  -1620.9 4092004.0 -0.2  0.0  1  0      1665
[19]  B10  7 36     49.0 4091999.9  1.0  1.0  5  0      4070
[20]  B12  7 38   -464.3 4092001.2  1.0  1.0  5  0      3817
src<tow snapfix
gpmeas_pt.measnum=4
$GNGGA,000000.000,,,,,0,00,,,M,,,,0000*2B
$GNRMC,000000.000,A,,,,,,,000000,,*26
$GPGSA,A,1,,,,,,,,,,,,,,,*1E
$BDGSA,A,1,,,,,,,,,,,,,,,*0F
$GPGSV,1,1,02,19,00,000,44,28,00,000,41*7C
$BDGSV,1,1,02,10,00,000,36,12,00,000,38*66
$LOGTIM,0,0.000000,0.000000,0.000000,0.000000,0.000*0A
EndT:        0
---00000010--- Acq_st=7 2019-5-27 07:34:56 
[00]  G19  f 44  -2576.7 2046003.3  1.0  1.0  5  0        15
[01]  G28  f 42   -779.4 2046001.0  1.0  1.0  5  0         3
[19]  B10  7 36     52.9 4091999.9  1.0  1.0  5  0      5070
[20]  B12  7 39   -460.6 4092001.2  1.0  1.0  5  0      4817
src>tow meas_num=4
src>=tow snapfix
gpmeas_pt.measnum=4
$GNGGA,000000.000,,,,,0,00,,,M,,,,0000*2B
$GNRMC,000000.000,A,,,,,,,000000,,*26
$GPGSA,A,1,,,,,,,,,,,,,,,*1E
$BDGSA,A,1,,,,,,,,,,,,,,,*0F
$GPGSV,1,1,02,19,00,000,44,28,00,000,42*7F
$BDGSV,1,1,02,10,00,000,36,12,00,000,39*67
$LOGTIM,0,0.000000,0.000000,0.000000,0.000000,0.000*0A
EndT:        0
sat0 = 18215 692 3965 -2500
ch2 satid=0,max_freq = -2500,max_mean = 3965,max_phase = 692,max_value = 18215,acq ok1!
sat1 = 9750 266 3975 250
sat1 = 14681 1286 4264 -2500
sat2 = 20883 641 3977 250
ch3 satid=2,max_freq = 250,max_mean = 3977,max_phase = 641,max_value = 20883,acq ok1!
sat3 = 10186 860 3991 -250
sat3 = 12792 1210 3926 4000
sat4 = 10119 88 3971 -1000
sat4 = 16658 921 4575 -2000
sat5 = 10860 968 3941 4500
sat5 = 13836 123 4401 1250
sat6 = 10964 870 4013 -250
sat6 = 11865 875 4039 250
sat7 = 9999 1534 3919 4250
sat7 = 13523 1508 4397 4750
sat8 = 9515 1094 3965 -1750
sat8 = 13062 1001 4410 2250
sat9 = 10216 810 3984 -250
sat9 = 24085 1729 5421 4000
sat10 = 65505 1864 3988 -2250
ch4 satid=10,max_freq = -2250,max_mean = 3988,max_phase = 1864,max_value = 65505,acq ok1!
sat11 = 9954 1465 3977 -1000
sat11 = 14591 1192 4602 250
sat12 = 10027 442 3992 250
sat12 = 14908 1151 4758 2250
---00000011--- Acq_st=3 2019-5-27 07:34:57 
[00]  G19  f 44  -2579.3 2046003.4  1.0  1.0  5  0 113713955
[01]  G28  f 42   -781.7 2046001.0  1.0  1.0  5  0 113713963
[02]  G01  1 27   2542.2 2045996.8  0.0  0.0  1  0         0
[03]  G03  1 27   -285.5 2046000.9 -0.0  0.0  1  0         0
[04]  G11  1 12   2236.9 2045999.0 -0.0  0.0  1  0         0
[19]  B10  7 36     50.9 4091999.9  1.0  1.0  5  0      6070
[20]  B12  7 38   -462.6 4092001.3  1.0  1.0  5  0      5817
src>tow meas_num=7
src>=tow snapfix
gpmeas_pt.measnum=4
$GNGGA,000000.000,,,,,0,00,,,M,,,,0000*2B
$GNRMC,000000.000,A,,,,,,,000000,,*26
$GPGSA,A,1,,,,,,,,,,,,,,,*1E
$BDGSA,A,1,,,,,,,,,,,,,,,*0F
$GPGSV,1,1,02,19,00,000,44,28,00,000,42*7F
$BDGSV,1,1,02,10,00,000,36,12,00,000,38*66
$LOGTIM,0,0.000000,0.000000,0.000000,0.000000,0.000*0A
EndT:        0
sat13 = 10097 1803 3995 1000
sat13 = 11418 1645 3780 -2750
sat14 = 11653 1435 4017 -2500
sat14 = 16015 1363 4551 -500
sat15 = 10157 132 3960 2500
sat15 = 16802 1223 4490 -2250
sat16 = 11095 396 3989 -500
sat16 = 17354 1472 5111 4750
sat17 = 32937 16 3963 -3000
ch5 satid=17,max_freq = -3000,max_mean = 3963,max_phase = 16,max_value = 32937,acq ok1!
sat19 = 10301 460 3977 3000
sat19 = 18707 1839 4194 -3500
sat20 = 11373 200 4003 1750
sat20 = 13218 2034 4737 -2250
sat21 = 15719 1666 3965 -1250
sat21 = 18823 1786 4884 -1500
sat22 = 9676 419 3965 -1500
sat22 = 9189 1313 3494 -2500
sat23 = 10731 920 4021 4500
sat23 = 10720 1468 3787 4000
sat24 = 10429 1282 3950 1750
sat24 = 14762 1183 4708 -2250
sat25 = 10288 1307 3958 -3500
sat25 = 13241 2032 4386 4750
sat26 = 11666 536 3962 -1000
---00000012--- Acq_st=3 2019-5-27 07:34:58 
[00]  G19  f 44  -2582.2 2046003.4  1.0  1.0  5  0 113714955
[01]  G28  f 41   -784.8 2046001.0  1.0  1.0  5  0 113714963
[02]  G01  7 28   2536.8 2045996.6  0.2  1.0 10  0        13
[03]  G03  7 27   -289.2 2046000.3  0.5  0.9 10  0         8
[04]  G11  1 30   2207.6 2045996.9  0.2  0.0  1  0         2
[05]  G18  1 26   2991.7 2045997.2  0.1  0.0  1  0         0
[19]  B10 1f 36     47.5 4091999.9  1.0  0.9  5  0      7070
[20]  B12 1f 39   -465.4 4092001.2  1.0  1.0  5  0      6817
src>tow meas_num=8
$GNGGA,000000.000,,,,,0,00,,,M,,,,0000*2B
$GNRMC,000000.000,A,,,,,,,000000,,*26
$GPGSA,A,1,,,,,,,,,,,,,,,*1E
$BDGSA,A,1,,,,,,,,,,,,,,,*0F
$GPGSV,1,1,04,19,00,000,44,28,00,000,41,01,00,000,28,03,00,000,27*77
$BDGSV,1,1,02,10,00,000,36,12,00,000,39*67
$LOGTIM,0,0.000000,0.000000,0.000000,0.000000,0.000*0A
EndT:        0
sat26 = 15763 1824 4823 1250
sat28 = 10131 990 3986 -1750
sat28 = 15326 114 4368 750
sat29 = 10304 608 3925 -750
sat29 = 17400 587 4922 1250
sat30 = 10640 870 3984 -3750
sat30 = 13656 1288 4509 -2500
sat31 = 9958 1993 3969 1000
sat31 = 13810 160 4715 4250
sat37 = 1950 3303 495 3500
sat37 = 1916 3448 500 3500
sat38 = 2538 481 612 -1250
ch16 satid=38,max_freq = -1250,max_mean = 612,max_phase = 481,max_value = 2538,acq ok1!
sat39 = 1714 2744 556 4250
sat39 = 1803 2808 562 4250
---00000013--- Acq_st=3 2019-5-27 07:34:59 
[00]  G19  f 44  -2585.1 2046003.3  1.0  1.0  5  0 113715955
[01]  G28  f 41   -787.0 2046001.0  1.0  1.0  5  0 113715963
[02]  G01  7 35   2534.3 2045996.7  1.0  1.0  5  0        16
[03]  G03  7 35   -291.6 2046000.4  0.9  1.0  5  0         1
[04]  G11  7 36   2205.4 2045997.0  0.6  1.0  5  0         2
[05]  G18  7 24   2991.7 2045996.0  0.3  0.0 20  0        19
[16]  B02  1 10   1282.1 4091996.3  0.0  0.0  1  0      2665
[19]  B10 1f 36     44.4 4091999.8  1.0  0.9  5  0 113701910
[20]  B12 1f 39   -469.4 4092001.2  1.0  1.0  5  0 113701957
src>tow meas_num=9
$GNGGA,000000.000,,,,,0,00,,,M,,,,0000*2B
$GNRMC,000000.000,A,,,,,,,000000,,*26
$GPGSA,A,1,,,,,,,,,,,,,,,*1E
$BDGSA,A,1,,,,,,,,,,,,,,,*0F
$GPGSV,2,1,06,19,00,000,44,28,00,000,41,01,00,000,35,03,00,000,35*79
$GPGSV,2,2,06,11,00,000,36,18,00,000,24*75
$BDGSV,1,1,02,10,00,000,36,12,00,000,39*67
$LOGTIM,0,0.000000,0.000000,0.000000,0.000000,0.000*0A
EndT:        0
sat40 = 1982 2197 517 -4500
sat40 = 1892 2261 520 -4500
sat41 = 2918 3360 677 2000
ch17 satid=41,max_freq = 2000,max_mean = 677,max_phase = 3360,max_value = 2918,acq ok1!
sat42 = 2140 3333 522 1250
ch18 satid=42,max_freq = 1250,max_mean = 522,max_phase = 3333,max_value = 2140,acq ok1!
sat43 = 1518 2058 455 5000
sat43 = 1558 4017 458 5000
sat44 = 2226 2641 588 -1250
sat44 = 2241 4091 594 -1250
---00000014--- Acq_st=3 2019-5-27 07:35:0 
[00]  G19  f 44  -2588.9 2046003.4  1.0  1.0  5  0 113716955
[01]  G28  f 41   -790.1 2046001.1  1.0  1.0  5  0 113716963
[02]  G01  7 35   2530.8 2045996.7  1.0  1.0  5  0        16
[03]  G03  7 35   -295.1 2046000.3  1.0  1.0  5  0         1
[04]  G11  7 42   2201.7 2045997.1  1.0  1.0  5  0        15
[05]  G18  7 38   2987.6 2045996.0  0.8  1.0  5  0        10
[16]  B02  1 10   1442.8 4091997.2 -0.1  0.0  1  0       271
[17]  B05  1 33  -2070.4 4092004.7  0.1  0.0  1  0      2718
[18]  B06  1  7  -1217.8 4092003.1 -0.0  0.0  1  0      3084
[19]  B10 1f 36     41.1 4091999.8  1.0  1.0  5  0 113702910
[20]  B12 1f 38   -472.2 4092001.3  1.0  1.0  5  0 113702957
src>tow meas_num=11
$GNGGA,000000.000,,,,,0,00,,,M,,,,0000*2B
$GNRMC,000000.000,A,,,,,,,000000,,*26
$GPGSA,A,1,,,,,,,,,,,,,,,*1E
$BDGSA,A,1,,,,,,,,,,,,,,,*0F
$GPGSV,2,1,06,19,00,000,44,28,00,000,41,01,00,000,35,03,00,000,35*79
$GPGSV,2,2,06,11,00,000,42,18,00,000,38*7B
$BDGSV,1,1,02,10,00,000,36,12,00,000,38*66
$LOGTIM,0,0.000000,0.000000,0.000000,0.000000,0.000*0A
EndT:        0
sat45 = 2261 3419 542 3250
ch21 satid=45,max_freq = 3250,max_mean = 542,max_phase = 3419,max_value = 2261,acq ok1!
sat47 = 1948 1952 509 750
sat47 = 1861 1952 513 750
sat49 = 3311 2818 703 4000
ch23 satid=49,max_freq = 4000,max_mean = 703,max_phase = 2818,max_value = 3311,acq ok1!
sat50 = 2362 2608 640 2000
sat50 = 2354 1802 647 2000
sat51 = 2020 2565 580 3000
sat51 = 2154 1880 586 3000
---00000015--- Acq_st=3 2019-5-27 07:35:1 
[00]  G19  f 44  -2592.0 2046003.4  1.0  1.0  5  0 113717955
[01]  G28  f 41   -792.6 2046001.0  1.0  1.0  5  0 113717963
[02]  G01  7 36   2528.5 2045996.7  1.0  1.0  5  0        16
[03]  G03  7 35   -296.9 2046000.4  1.0  1.0  5  0         1
[04]  G11  7 42   2198.6 2045997.1  1.0  1.0  5  0        15
[05]  G18  7 38   2984.8 2045996.0  1.0  1.0  5  0        10
[16]  B02  1 10   1442.2 4091998.6 -0.0  0.0  1  0      1271
[17]  B05  1 33  -2053.9 4092006.4  0.0  0.0  1  0       655
[18]  B06  1  7  -1043.1 4092003.4  0.0  0.0  1  0       531
[19]  B10 1f 36     38.5 4091999.8  1.0  1.0  5  0 113703910
[20]  B12 1f 39   -475.6 4092001.2  1.0  1.0  5  0 113703957
[21]  B09  1  7  -3060.5 4092008.5 -0.1  0.0  1  0      2677
[22]  B11  1  7   -834.9 4092000.9  0.0  0.0  1  0         0
[23]  B13  1  7  -4052.8 4092010.1  0.1  0.0  1  0         0
src>tow meas_num=14
$GNGGA,000000.000,,,,,0,00,,,M,,,,0000*2B
$GNRMC,000000.000,A,,,,,,,000000,,*26
$GPGSA,A,1,,,,,,,,,,,,,,,*1E
$BDGSA,A,1,,,,,,,,,,,,,,,*0F
$GPGSV,2,1,06,19,00,000,44,28,00,000,41,01,00,000,36,03,00,000,35*7A
$GPGSV,2,2,06,11,00,000,42,18,00,000,38*7B
$BDGSV,1,1,02,10,00,000,36,12,00,000,39*67
$LOGTIM,0,0.000000,0.000000,0.000000,0.000000,0.000*0A
EndT:        0
sat52 = 1893 3681 567 3250
sat52 = 1916 3888 572 3750
sat53 = 1942 2211 555 2000
sat53 = 2033 3691 559 -1000
sat54 = 2260 1882 620 -4500
sat54 = 2234 3591 624 -4500
sat55 = 3740 1338 572 -750
ch24 satid=55,max_freq = -750,max_mean = 572,max_phase = 1338,max_value = 3740,acq ok1!
sat56 = 2030 1742 563 2000
---00000016--- Acq_st=3 2019-5-27 07:35:2 
[00]  G19  f 44  -2595.4 2046003.4  1.0  1.0  5  0 113718955
[01]  G28  f 41   -795.7 2046001.1  1.0  1.0  5  0 113718963
[02]  G01  f 36   2524.5 2045996.7  1.0  1.0  5  0        16
[03]  G03  f 35   -299.5 2046000.4  1.0  1.0  5  0         1
[04]  G11  f 42   2195.3 2045997.1  1.0  1.0  5  0        15
[05]  G18  f 38   2980.6 2045996.1  1.0  1.0  5  0        10
[16]  B02  1 10   1429.7 4091997.1  0.0  0.0  1  0      2271
[17]  B05  1 33  -2050.9 4092005.4  0.2  0.0  1  0      1655
[18]  B06  1  7  -1100.4 4092003.3 -0.2  0.0  1  0      1531
[19]  B10 1f 36     34.9 4091999.9  1.0  0.9  5  0 113704910
[20]  B12 1f 39   -478.5 4092001.3  1.0  1.0  5  0 113704957
[21]  B09  1  9  -3067.1 4092008.1 -0.0  0.0  1  0       916
[22]  B11  1  7  -1008.1 4092001.0  0.1  0.0  1  0       671
[23]  B13  1  7  -4054.5 4092010.3  0.0  0.0  1  0       546
[24]  B19  1  7    756.1 4091997.7 -0.1  0.0  1  0         0
src>tow meas_num=15
lsq: nits= 4
lsq residual:15.758553
$GNGGA,073502.032,3112.6862,N,12136.4430,E,1,07,2.3,24.1,M,,,,0000*2D
$GNRMC,073502.032,A,3112.6862,N,12136.4430,E,0.09,0.00,270519,,*11
$GPGSA,A,3,01,11,18,19,28,,,,,,,,3.3,2.3,2.5*3E
$BDGSA,A,3,10,12,,,,,,,,,,,3.3,2.3,2.5*27
$GPGSV,2,1,06,19,00,000,44,28,00,000,41,01,00,000,36,03,00,000,35*7A
$GPGSV,2,2,06,11,00,000,42,18,00,000,38*7B
$BDGSV,1,1,02,10,00,000,36,12,00,000,39*67
$LOGTIM,3,9624524.007784,9624343.687644,0.000000,0.000000,-68.255*1C
EndT:        1
sat56 = 2049 1998 570 2000
sat57 = 1328 3317 455 -4750
sat57 = 1776 1917 459 -4750
sat58 = 1497 2976 455 250
sat58 = 1493 3040 459 250
sat59 = 2127 897 613 4250
sat59 = 2146 897 617 4250
sat60 = 2323 111 551 -1000
ch17 satid=60,max_freq = -1000,max_mean = 551,max_phase = 111,max_value = 2323,acq ok1!
---00000017--- Acq_st=3 2019-5-27 07:35:2 
[00]  G19  f 44  -2591.9 2046003.4  1.0  1.0  5  0 113719955
[01]  G28  f 41   -791.6 2046001.0  1.0  1.0  5  0 113719963
[02]  G01  f 36   2528.4 2045996.7  1.0  1.0  5  0 113719956
[03]  G03  f 34   -295.2 2046000.4  1.0  1.0  5  0 113719961
[04]  G11  f 42   2198.8 2045997.2  1.0  1.0  5  0 113719955
[05]  G18  f 38   2984.9 2045996.0  1.0  1.0  5  0 113719950
[16]  B23  1  7  -4285.8 4092011.1 -0.1  0.0  1  0      3271
[17]  B24  1  7    855.1 4091998.8 -0.0  0.0  1  0      2655
[19]  B10 1f 36     38.6 4091999.9  1.0  1.0  5  0 113705910
[20]  B12 1f 39   -475.2 4092001.3  1.0  1.0  5  0 113705957
[21]  B09  1  7  -3063.3 4092008.0 -0.1  0.0  1  0      1916
[22]  B11  1  7  -1043.8 4092000.9 -0.0  0.0  1  0      1671
[23]  B13  1  7  -4034.2 4092009.9  0.2  0.0  1  0      1546
[24]  B19  1  7    777.6 4091997.0  0.0  0.0  1  0       194
sat61 = 2259 37 479 1750
ch18 satid=61,max_freq = 1750,max_mean = 479,max_phase = 37,max_value = 2259,acq ok1!
sat62 = 1809 155 506 3000
sat62 = 1861 988 509 3000
sat63 = 2182 2997 543 5000
ch25 satid=63,max_freq = 5000,max_mean = 543,max_phase = 2997,max_value = 2182,acq ok1!
sat64 = 2020 2971 684 -4750
sat64 = 2096 3603 691 -4750
sat65 = 2403 3694 621 0
sat65 = 2507 247 626 0
src>tow meas_num=13
lsq: nits= 2
lsq residual:3.348298
$GNGGA,073504.000,3112.6916,N,12136.4392,E,1,07,1.7,10.5,M,,,,0000*23
$GNRMC,073504.000,A,3112.6916,N,12136.4392,E,1.72,0.00,270519,,*16
$GPGSA,A,3,01,11,18,19,28,,,,,,,,1.8,1.7,0.8*3F
$BDGSA,A,3,10,12,,,,,,,,,,,1.8,1.7,0.8*26
$GPGSV,2,1,06,19,00,000,44,28,00,000,41,01,00,000,36,03,00,000,34*7B
$GPGSV,2,2,06,11,00,000,42,18,00,000,38*7B
$BDGSV,1,1,02,10,00,000,36,12,00,000,39*67
$LOGTIM,3,-133.132580,-302.818834,0.000000,0.000000,-66.808*17
EndT:        1
---00000018--- Acq_st=3 2019-5-27 07:35:4 
[00]  G19  f 44  -2592.2 2046003.4  1.0  1.0  5  0 113721923
[01]  G28  f 41   -791.5 2046001.0  1.0  1.0  5  0 113721932
[02]  G01  f 37   2528.0 2045996.7  1.0  1.0  5  0 113721925
[03]  G03  f 33   -296.2 2046000.5  1.0  1.0  5  0 113721929
[04]  G11  f 42   2198.4 2045997.1  1.0  1.0  5  0 113721923
[05]  G18  f 37   2984.4 2045996.1  1.0  1.0  5  0 113721918
[16]  B23  1  7  -4566.5 4092011.1 -0.1  0.0  1  0      1179
[17]  B24  1  7    942.3 4091997.5 -0.1  0.0  1  0      1056
[18]  B25  1  7  -1637.3 4092003.9 -0.1  0.0  1  0       932
[19]  B10 1f 36     38.4 4091999.9  1.0  1.0  5  0 113707879
[20]  B12 1f 39   -475.9 4092001.2  1.0  1.1  5  0 113707926
[24]  B19  7 34    777.6 4091997.9  0.5  0.9  5  0      2156
[25]  B27  1  7  -5308.8 4092013.0  0.0  0.0  1  0       562
sat66 = 1803 3170 512 -1250
sat66 = 1812 3161 517 -1250
sat67 = 1882 2347 520 -4500
sat67 = 1833 3828 525 -4500
sat68 = 2437 3189 650 -1500
sat68 = 2279 2421 658 -1750
src>tow meas_num=13
lsq: nits= 2
lsq residual:2.600511
$GNGGA,073505.000,3112.6932,N,12136.4388,E,1,07,1.7,15.1,M,,,,0000*2E
$GNRMC,073505.000,A,3112.6932,N,12136.4388,E,2.18,89.36,270519,,*21
$GPGSA,A,3,01,11,18,19,28,,,,,,,,1.8,1.7,0.8*3F
$BDGSA,A,3,10,12,,,,,,,,,,,1.8,1.7,0.8*26
$GPGSV,2,1,08,19,28,303,44,28,82,275,41,01,33,040,37,03,00,000,34*70
$GPGSV,2,2,08,11,26,059,42,18,10,051,37,17,45,321,00,22,38,060,00*7D
$BDGSV,2,1,07,10,69,249,36,12,57,355,39,19,21,054,34,08,66,308,00*6E
$BDGSV,2,2,07,13,47,265,00,24,39,252,00,25,16,308,00*5D
$LOGTIM,3,-196.718085,-363.225860,0.000000,0.000000,-66.299*16
EndT:        1
---00000019--- Acq_st=7 2019-5-27 07:35:5 
[00]  G19  f 44  -2590.1 2046003.4  1.0  1.0  5  0 113722923
[01]  G28  f 41   -788.3 2046001.0  1.0  1.0  5  0 113722932
[02]  G01  f 37   2529.5 2045996.7  1.0  1.0  5  0 113722925
[03]  G03  f 32   -291.5 2046000.5  1.0  0.9  5  0 113722929
[04]  G11  f 42   2200.5 2045997.2  1.0  1.0  5  0 113722923
[05]  G18  f 37   2986.1 2045996.1  1.0  1.0  5  0 113722918
[16]  B23  1  7  -4545.4 4092011.2 -0.1  0.0  1  0      2179
[17]  B24  7 31    954.7 4091997.4  0.1  0.9  5  0      2041
[18]  B25  7 29  -1628.0 4092004.3  0.2  0.8 10  0      1915
[19]  B10 1f 36     40.4 4091999.9  1.0  0.9  5  0 113708879
[20]  B12 1f 39   -474.2 4092001.2  1.0  1.0  5  0 113708926
[24]  B19  7 37    779.6 4091997.9  1.0  1.0  5  0      3156
[25]  B27  1  7  -5547.8 4092013.0 -0.0  0.0  1  0      1562
sat1 = 10345 733 4115 -1000
sat1 = 14254 1297 4216 -2500
sat3 = 10995 69 4107 2000
sat3 = 12195 341 3855 4500
sat4 = 11102 1371 4120 4250
sat4 = 15693 147 4534 -2250
sat5 = 10457 223 4094 750
sat5 = 14667 1557 4344 1250
sat6 = 10012 1853 4128 -1000
sat6 = 12806 62 4006 -1500
sat7 = 9857 540 4090 750
sat7 = 13877 589 4372 4750
sat8 = 10832 1330 4113 4500
sat8 = 15204 1871 4370 -2500
sat9 = 9586 1358 4111 2000
sat9 = 24233 1561 5402 4000
sat11 = 10226 1924 4119 1250
sat11 = 15039 1374 4557 -4750
sat12 = 10339 1555 4121 250
sat12 = 14518 325 4722 4750
sat13 = 10298 1175 4133 3250
sat13 = 11097 535 3736 -2750
---00000020--- Acq_st=3 2019-5-27 07:35:5 
[00]  G19  f 44  -2587.2 2046003.4  1.0  1.0  5  0 113722923
[01]  G28  f 41   -785.5 2046001.0  1.0  1.0  5  0 113722932
[02]  G01  f 38   2532.5 2045996.7  1.0  1.0  5  0 113722925
[03]  G03  f 32   -288.6 2046000.5  1.0  1.0  5  0 113722929
[04]  G11  f 42   2203.3 2045997.1  1.0  1.0  5  0 113722923
[05]  G18  f 38   2988.6 2045996.1  1.0  1.0  5  0 113722918
[16]  B23  1  7  -4573.9 4092011.1 -0.1  0.0  1  0      2179
[17]  B24  7 35    957.5 4091997.5  1.0  0.9  5  0      2041
[18]  B25  7 36  -1625.0 4092004.3  0.9  1.0  5  0      1915
[19]  B10 1f 36     43.8 4091999.9  1.0  1.0  5  0 113708879
[20]  B12 1f 39   -470.6 4092001.2  1.0  1.0  5  0 113708926
[24]  B19  7 37    783.8 4091998.0  1.0  1.0  5  0      4156
[25]  B27  1 11  -5556.0 4092013.1 -0.0  0.0  1  0      2562
src>tow meas_num=13
lsq: nits= 2
lsq residual:1.749645
$GNGGA,073506.000,3112.6954,N,12136.4381,E,1,07,1.7,20.2,M,,,,0000*21
$GNRMC,073506.000,A,3112.6954,N,12136.4381,E,2.16,89.57,270519,,*22
$GPGSA,A,3,01,11,18,19,28,,,,,,,,1.8,1.7,0.8*3F
$BDGSA,A,3,10,12,,,,,,,,,,,1.8,1.7,0.8*26
$GPGSV,2,1,08,19,28,303,44,28,82,275,41,01,33,040,38,03,00,000,32*79
$GPGSV,2,2,08,11,26,059,42,18,10,051,38,17,45,321,00,22,38,060,00*72
$BDGSV,2,1,07,24,39,252,35,25,16,308,36,10,69,249,36,12,57,355,39*61
$BDGSV,2,2,07,19,21,054,37,08,66,308,00,13,47,265,00*52
$LOGTIM,3,-259.450355,-423.877631,0.000000,0.000000,-65.781*1C
EndT:        1
sat14 = 9990 345 4144 3250
sat14 = 14845 123 4512 -500
sat15 = 9997 354 4110 -250
sat15 = 17189 1598 4449 -2250
sat16 = 15756 2022 4135 1750
sat16 = 16472 1144 5095 4750
sat19 = 9857 1011 4106 -2500
sat19 = 18485 135 4146 -3750
sat20 = 11447 398 4125 2250
sat20 = 15518 1105 4699 -500
sat21 = 21367 1451 4100 -1250
ch6 satid=21,max_freq = -1250,max_mean = 4100,max_phase = 1451,max_value = 21367,acq ok1!
sat22 = 10533 687 4116 -4250
sat22 = 10978 1914 3442 -2500
sat23 = 10983 75 4155 3500
sat23 = 11206 1542 3723 4000
sat24 = 11612 1592 4101 -2250
sat24 = 14005 900 4682 2000
sat25 = 10790 155 4126 -750
sat25 = 12586 1716 4342 4750
sat26 = 10332 1621 4108 2000
sat26 = 15702 1786 4803 1250
sat28 = 10085 227 4133 3500
sat28 = 15544 1828 4340 750
sat29 = 11109 1820 4089 -4250
---00000021--- Acq_st=3 2019-5-27 07:35:6 
[00]  G19  f 43  -2589.5 2046003.4  1.0  1.0  5  0 113723923
[01]  G28  f 41   -787.5 2046001.1  1.0  1.0  5  0 113723932
[02]  G01  f 37   2530.7 2045996.7  1.0  1.0  5  0 113723925
[03]  G03  f 32   -290.8 2046000.3  1.0  0.9  5  0 113723929
[04]  G11  f 42   2201.1 2045997.1  1.0  1.0  5  0 113723923
[05]  G18  f 38   2986.0 2045996.2  1.0  1.0  5  0 113723918
[06]  G22  1 21   1296.2 2045998.6  0.0  0.0  1  0         0
[17]  B24  7 35    956.0 4091997.4  1.0  1.0  5  0      3041
[18]  B25  7 36  -1626.6 4092004.2  1.0  1.0  5  0      2915
[19]  B10 1f 36     41.0 4091999.9  1.0  1.0  5  0 113709879
[20]  B12 1f 39   -473.4 4092001.2  1.0  1.0  5  0 113709926
[24]  B19  7 37    781.1 4091998.0  1.0  1.0  5  0      4156
sat29 = 16131 2023 4898 1250
src>tow meas_num=12
lsq: nits= 2
lsq residual:13.216767
$GNGGA,073507.000,3112.7043,N,12136.4373,E,1,07,1.7,35.2,M,,,,0000*27
$GNRMC,073507.000,A,3112.7043,N,12136.4373,E,3.90,89.83,270519,,*26
$GPGSA,A,3,01,11,18,19,28,,,,,,,,1.8,1.7,0.8*3F
$BDGSA,A,3,10,12,,,,,,,,,,,1.8,1.7,0.8*26
$GPGSV,2,1,08,19,28,303,43,28,82,275,41,01,33,040,37,03,00,000,32*71
$GPGSV,2,2,08,11,26,059,42,18,10,051,38,17,45,321,00,22,38,060,00*72
$BDGSV,2,1,07,24,39,252,35,25,16,308,36,10,69,249,36,12,57,355,39*61
$BDGSV,2,2,07,19,21,054,37,08,66,308,00,13,47,265,00*52
$LOGTIM,3,-312.532594,-484.366075,0.000000,0.000000,-65.182*19
EndT:        1
sat30 = 10658 1 4121 1500
sat30 = 14163 320 4473 4500
sat31 = 10742 1661 4095 2500
sat31 = 13337 1142 4696 1750
sat37 = 1909 676 498 3500
sat37 = 1755 1853 505 3500
sat38 = 2441 3179 609 -1500
ch16 satid=38,max_freq = -1500,max_mean = 609,max_phase = 3179,max_value = 2441,acq ok1!
sat39 = 1549 2691 557 0
sat39 = 1674 70 564 4500
sat40 = 1730 612 516 -2250
---00000022--- Acq_st=3 2019-5-27 07:35:7 
[00]  G19  f 43  -2592.9 2046003.4  1.0  1.0  5  0 113724923
[01]  G28  f 41   -790.4 2046001.0  1.0  1.0  5  0 113724932
[02]  G01  f 38   2527.4 2045996.7  1.0  0.9  5  0 113724925
[03]  G03  f 31   -293.5 2046000.4  1.0  0.9  5  0 113724929
[04]  G11  f 42   2197.3 2045997.1  1.0  1.0  5  0 113724923
[05]  G18  f 38   2982.5 2045996.1  1.0  1.0  5  0 113724918
[06]  G22  7 22   1299.7 2045998.2 -0.0  0.0 20  0        14
[16]  B02  1 10   1374.8 4091997.2 -0.3  0.0  1  0      3179
[17]  B24  7 35    953.0 4091997.4  1.0  0.9  5  0      4041
[18]  B25  7 36  -1629.2 4092004.2  1.0  1.0  5  0      3915
[19]  B10 1f 36     37.5 4091999.9  1.0  1.0  5  0 113710879
[20]  B12 1f 40   -476.4 4092001.2  1.0  1.0  5  0 113710926
[24]  B19  7 37    778.5 4091997.9  1.0  1.0  5  0      5156
src>tow meas_num=13
lsq: nits= 2
lsq residual:2.664281
$GNGGA,073508.000,3112.7052,N,12136.4362,E,1,07,1.7,36.5,M,,,,0000*2C
$GNRMC,073508.000,A,3112.7052,N,12136.4362,E,3.85,89.87,270519,,*29
$GPGSA,A,3,01,11,18,19,28,,,,,,,,1.8,1.7,0.8*3F
$BDGSA,A,3,10,12,,,,,,,,,,,1.8,1.7,0.8*26
$GPGSV,2,1,08,19,28,303,43,28,82,275,41,01,33,040,38,03,00,000,31*7D
$GPGSV,2,2,08,11,26,059,42,18,10,051,38,22,38,060,22,17,45,321,00*72
$BDGSV,2,1,07,24,39,252,35,25,16,308,36,10,69,249,36,12,57,355,40*6F
$BDGSV,2,2,07,19,21,054,37,08,66,308,00,13,47,265,00*52
$LOGTIM,3,-378.976521,-547.551423,0.000000,0.000000,-65.785*1D
EndT:        1
sat40 = 1641 1923 521 -4750
sat41 = 2591 3023 666 2250
sat41 = 2730 547 673 2250
sat42 = 2018 2941 522 1250
sat42 = 2063 2425 529 1000
sat43 = 1708 1879 456 5000
sat43 = 1708 1879 462 5000
sat44 = 2216 1281 584 -1500
---00000023--- Acq_st=3 2019-5-27 07:35:8 
[00]  G19  f 43  -2590.8 2046003.4  1.0  1.0  5  0 113725923
[01]  G28  f 41   -787.8 2046001.1  1.0  1.0  5  0 113725932
[02]  G01  f 38   2529.2 2045996.7  1.0  1.0  5  0 113725925
[03]  G03  f 31   -291.0 2046000.5  1.0  1.0  5  0 113725929
[04]  G11  f 42   2200.0 2045997.1  1.0  1.0  5  0 113725923
[05]  G18  f 38   2985.6 2045996.2  1.0  1.0  5  0 113725918
[06]  G22  7 27   1283.4 2045998.1  0.4  0.0  5  0         4
[16]  B02  1 10   1416.8 4091996.0 -0.0  0.0  1  0       436
[17]  B24  7 35    955.7 4091997.5  1.0  0.9  5  0      5041
[18]  B25  7 36  -1626.4 4092004.2  1.0  1.0  5  0      4915
[19]  B10 1f 36     40.4 4092000.0  1.0  1.0  5  0 113711879
[20]  B12 1f 40   -474.3 4092001.2  1.0  1.0  5  0 113711926
[21]  B07  1  7  -5003.4 4092012.9  0.1  0.0  1  0      1916
[24]  B19  7 37    781.4 4091997.9  1.0  1.0  5  0      6156
src>tow meas_num=14
lsq: nits= 2
lsq residual:2.709918
$GNGGA,073509.000,3112.7061,N,12136.4351,E,1,07,1.7,38.2,M,,,,0000*24
$GNRMC,073509.000,A,3112.7061,N,12136.4351,E,3.16,91.68,270519,,*2A
$GPGSA,A,3,01,11,18,19,28,,,,,,,,1.8,1.7,0.8*3F
$BDGSA,A,3,10,12,,,,,,,,,,,1.8,1.7,0.8*26
$GPGSV,2,1,08,19,28,303,43,28,82,275,41,01,33,040,38,03,00,000,31*7D
$GPGSV,2,2,08,11,26,059,42,18,10,051,38,22,38,060,27,17,45,321,00*77
$BDGSV,2,1,07,24,39,252,35,25,16,308,36,10,69,249,36,12,57,355,40*6F
$BDGSV,2,2,07,19,21,054,37,08,66,308,00,13,47,265,00*52
$LOGTIM,3,-445.344683,-611.610966,0.000000,0.000000,-65.923*1C
EndT:        1
sat44 = 2143 3556 592 -1500
sat45 = 2173 3122 539 3000
ch22 satid=45,max_freq = 3000,max_mean = 539,max_phase = 3122,max_value = 2173,acq ok1!
sat47 = 1772 1999 508 750
