sat6 = 3022 1516 1225 -2750
sat6 = 11852 1933 3859 250
sat7 = 3146 822 1212 -1750
sat7 = 13275 1455 4234 4750
sat8 = 2997 352 1217 -500
sat8 = 12713 882 4179 -4250
sat9 = 3058 1343 1219 -4500
sat9 = 25247 795 5134 4000
sat10 = 4555 239 2293 -1988
sat10 = 11586 220 5169 -2238
sat11 = 2958 1087 1215 -2250
sat11 = 12838 29 4412 -4750
sat12 = 3260 367 1222 1250
sat12 = 14903 1993 4487 1500
sat13 = 3234 1043 1219 -500
---00000001--- Acq_st=3 2019-5-27 07:42:55 
[00]  G03  1 30      7.4 2046001.1 -0.2  0.0  1  0         0
sat13 = 10768 1374 3623 -2750
src<tow snapfix
gpmeas_pt.measnum=0
$GNGGA,000000.000,,,,,0,00,,,M,,,,0000*2B

$GNRMC,000000.000,A,,,,,,,000000,,*26

$GPGSA,A,1,,,,,,,,,,,,,,,*1E

$BDGSA,A,1,,,,,,,,,,,,,,,*0F

$LOGTIM,0,0.000000,0.000000,0.000000,0.000000,0.000*0A

EndT:        0
sat14 = 3232 33 1229 750
sat14 = 18556 1363 4338 -500
sat15 = 2984 642 1215 5000
sat15 = 15083 1663 4260 -2250
sat16 = 33781 201 1257 1797
ch1 satid=16,max_freq = 1797,max_mean = 1257,max_phase = 201,max_value = 33781,acq ok1!
sat17 = 2681 662 1276 -2961
sat17 = 13635 568 6248 -2711
sat18 = 7434 1347 1229 2563
ch2 satid=18,max_freq = 2563,max_mean = 1229,max_phase = 1347,max_value = 7434,acq ok1!
sat19 = 3243 21 1221 -4500
sat19 = 18016 81 3978 -3750
sat20 = 3506 1796 1220 3750
sat20 = 13263 1352 4480 -2250
sat21 = 2334 308 1063 -1552
sat21 = 9483 1853 4194 -1552
sat22 = 3184 1887 1217 -4000
sat22 = 9897 1065 3338 -4750
sat23 = 2959 951 1232 3750
sat23 = 11405 81 3581 -750
sat24 = 3073 1201 1215 -250
sat24 = 14160 901 4505 2000
sat25 = 3439 1880 1224 1000
sat25 = 13167 85 4183 4750
sat26 = 3216 520 1221 -4000
sat26 = 16216 1531 4606 1250
sat27 = 9208 2005 1210 531
ch3 satid=27,max_freq = 531,max_mean = 1210,max_phase = 2005,max_value = 9208,acq ok1!
sat28 = 3332 514 1217 -2250
sat28 = 15052 1857 4164 750
sat29 = 3226 866 1215 -1250
sat29 = 16177 1009 4725 1250
sat30 = 2871 918 1216 -750
---00000002--- Acq_st=3 2019-5-27 07:42:56 
[00]  G03  7 28     17.0 2045999.8  0.2  1.0 10  0         1
[01]  G17  1 28  -1808.8 2046003.5  0.0  0.0  1  0         0
[02]  G19  1 29  -2565.4 2046005.0  0.0  0.0  1  0         0
[03]  G28  1 17   -527.3 2046001.9 -0.0  0.0  1  0         0
src<tow snapfix
gpmeas_pt.measnum=0
$GNGGA,000000.000,,,,,0,00,,,M,,,,0000*2B

$GNRMC,000000.000,A,,,,,,,000000,,*26

$GPGSA,A,1,,,,,,,,,,,,,,,*1E

$BDGSA,A,1,,,,,,,,,,,,,,,*0F

$GPGSV,1,1,01,03,00,000,28*41

$LOGTIM,0,0.000000,0.000000,0.000000,0.000000,0.000*0A

EndT:        0
sat30 = 15336 833 4251 -2250
sat31 = 3229 854 1215 5000
sat31 = 13719 246 4463 4000
sat37 = 1876 3307 521 3500
sat37 = 1815 3371 524 3750
sat38 = 2298 3971 626 -1000
sat38 = 2404 3219 630 -4250
sat39 = 1607 3562 573 3250
sat39 = 1674 3933 577 4500
sat40 = 1737 1857 537 -4250
---00000003--- Acq_st=3 2019-5-27 07:42:57 
[00]  G03  7 39     19.8 2045999.9  0.9  1.0  5  0         3
[01]  G17  7 29  -1800.4 2046002.3  0.5  1.0 10  0         8
[02]  G19  7 28  -2566.6 2046003.2  0.4  1.0 10  0        17
[03]  G28  1 32   -532.9 2046001.1  0.2  0.0  1  0         2
src<tow snapfix
gpmeas_pt.measnum=0
$GNGGA,000000.000,,,,,0,00,,,M,,,,0000*2B

$GNRMC,000000.000,A,,,,,,,000000,,*26

$GPGSA,A,1,,,,,,,,,,,,,,,*1E

$BDGSA,A,1,,,,,,,,,,,,,,,*0F

$GPGSV,1,1,03,03,00,000,39,17,00,000,29,19,00,000,28*4C

$LOGTIM,0,0.000000,0.000000,0.000000,0.000000,0.000*0A

EndT:        0
sat40 = 1969 296 540 -4250
sat41 = 2671 3493 665 2250
ch16 satid=41,max_freq = 2250,max_mean = 665,max_phase = 3493,max_value = 2671,acq ok1!
sat42 = 2170 884 548 1250
sat42 = 2017 3766 551 1250
sat43 = 1450 2082 476 5000
sat43 = 1479 3622 480 5000
sat44 = 3017 2529 564 26
ch17 satid=44,max_freq = 26,max_mean = 564,max_phase = 2529,max_value = 3017,acq ok1!
sat45 = 2083 1783 558 3250
sat45 = 2000 1940 561 3250
sat46 = 912 227 426 127
---00000004--- Acq_st=3 2019-5-27 07:42:58 
[00]  G03  7 39     18.0 2045999.9  1.0  1.0  5  0         3
[01]  G17  7 45  -1803.2 2046002.3  1.0  1.0  5  0         0
[02]  G19  7 40  -2569.1 2046003.2  1.0  1.0  5  0        18
[03]  G28  7 35   -535.4 2046000.7  0.9  1.0  5  0         2
[16]  B05  1 31  -2203.1 4092005.7  0.1  0.0  1  0         0
[17]  B08  1  7    -26.1 4092000.7 -0.0  0.0  1  0         0
sat46 = 912 227 427 127
src<tow snapfix
gpmeas_pt.measnum=3
$GNGGA,000000.000,,,,,0,00,,,M,,,,0000*2B

$GNRMC,000000.000,A,,,,,,,000000,,*26

$GPGSA,A,1,,,,,,,,,,,,,,,*1E

$BDGSA,A,1,,,,,,,,,,,,,,,*0F

$GPGSV,1,1,04,03,00,000,39,17,00,000,45,19,00,000,40,28,00,000,35*73

$LOGTIM,0,0.000000,0.000000,0.000000,0.000000,0.000*0A

EndT:        0
sat47 = 2008 1339 530 1000
sat47 = 1903 3363 533 1000
sat48 = 8346 693 583 430
ch19 satid=48,max_freq = 430,max_mean = 583,max_phase = 693,max_value = 8346,acq ok1!
sat49 = 1912 2725 463 334
ch20 satid=49,max_freq = 334,max_mean = 463,max_phase = 2725,max_value = 1912,acq ok1!
sat50 = 2342 3612 640 2250
sat50 = 2356 3559 645 2000
sat51 = 2317 3704 593 3500
sat51 = 2269 859 596 3250
sat52 = 1903 1963 580 4000
---00000005--- Acq_st=3 2019-5-27 07:42:59 
[00]  G03  7 39     12.2 2046000.0  1.0  1.0  5  0         3
[01]  G17  7 45  -1808.9 2046002.3  1.0  1.0  5  0         0
[02]  G19  7 40  -2574.9 2046003.3  1.0  1.0  5  0        18
[03]  G28  7 39   -539.5 2046000.7  1.0  1.0  5  0         6
[16]  B05  1 32  -2215.1 4092005.5  0.0  0.0  1  0       763
[17]  B08  1  7    -42.6 4091999.8 -0.1  0.0  1  0       261
[18]  B10  1  7   -119.4 4092000.2  0.1  0.0  1  0         0
[19]  B12  1  7   -446.8 4092001.3 -0.1  0.0  1  0         0
[20]  B13  1  7   -352.8 4092002.2  0.2  0.0  1  0         0
sat52 = 2036 2497 583 4250
src<tow snapfix
gpmeas_pt.measnum=3
$GNGGA,000000.000,,,,,0,00,,,M,,,,0000*2B

$GNRMC,000000.000,A,,,,,,,000000,,*26

$GPGSA,A,1,,,,,,,,,,,,,,,*1E

$BDGSA,A,1,,,,,,,,,,,,,,,*0F

$GPGSV,1,1,04,03,00,000,39,17,00,000,45,19,00,000,40,28,00,000,39*7F

$LOGTIM,0,0.000000,0.000000,0.000000,0.000000,0.000*0A

EndT:        0
sat53 = 2138 2299 573 2250
sat53 = 1845 263 577 2250
sat54 = 2256 296 634 -4500
sat54 = 2174 141 636 500
sat55 = 1409 1484 631 -1018
sat55 = 1357 961 628 -1018
sat56 = 1987 2757 580 2000
sat56 = 1803 3798 585 0
sat57 = 1468 3400 486 1000
---00000006--- Acq_st=3 2019-5-27 07:43:0 
[00]  G03  7 39     12.0 2046000.0  1.0  0.9  5  0         3
[01]  G17  7 45  -1810.0 2046002.3  1.0  1.0  5  0         0
[02]  G19  7 40  -2575.4 2046003.3  1.0  1.0  5  0        18
[03]  G28  7 39   -540.6 2046000.7  1.0  1.0  5  0         6
[16]  B05  1 33  -2211.7 4092006.4 -0.0  0.0  1  0      1763
[17]  B08  7 34    -43.3 4092000.1  0.8  1.0  5  0      1261
[18]  B10  1  7   -352.8 4092000.0 -0.1  0.0  1  0       998
[19]  B12  7 27   -448.0 4092001.1  0.2  0.0 10  0       741
[20]  B13  7 25   -348.0 4092001.0 -0.0  0.0 20  0       732
sat57 = 1504 3103 490 -4750
src<tow snapfix
gpmeas_pt.measnum=4
$GNGGA,000000.000,,,,,0,00,,,M,,,,0000*2B

$GNRMC,000000.000,A,,,,,,,000000,,*26

$GPGSA,A,1,,,,,,,,,,,,,,,*1E

$BDGSA,A,1,,,,,,,,,,,,,,,*0F

$GPGSV,1,1,04,03,00,000,39,17,00,000,45,19,00,000,40,28,00,000,39*7F

$BDGSV,1,1,03,08,00,000,34,12,00,000,27,13,00,000,25*57

$LOGTIM,0,0.000000,0.000000,0.000000,0.000000,0.000*0A

EndT:        0
sat58 = 1517 3541 482 3250
sat58 = 1494 1263 485 750
sat59 = 2020 2073 616 4500
sat59 = 2186 177 619 4250
sat60 = 1404 3506 545 -1167
sat60 = 1398 3570 544 -1167
sat61 = 4732 3419 469 1389
ch21 satid=61,max_freq = 1389,max_mean = 469,max_phase = 3419,max_value = 4732,acq ok1!
sat62 = 1635 3480 517 5000
sat62 = 1757 2600 521 3250
sat63 = 2301 198 548 2250
ch16 satid=63,max_freq = 2250,max_mean = 548,max_phase = 198,max_value = 2301,acq ok1!
---00000007--- Acq_st=3 2019-5-27 07:43:1 
[00]  G03  f 39     13.9 2046000.0  1.0  1.0  5  0         3
[01]  G17  f 45  -1808.5 2046002.3  1.0  1.0  5  0         0
[02]  G19  f 39  -2574.0 2046003.3  1.0  1.0  5  0        18
[03]  G28  f 39   -538.5 2046000.7  1.0  1.0  5  0         6
[16]  B27  1  7  -2281.4 4092005.1 -0.0  0.0  1  0      2763
[17]  B08  7 36    -41.9 4092000.1  1.0  1.0  5  0      2252
[18]  B10  1  9    -12.5 4091999.9  0.0  0.0  1  0      1998
[19]  B12  7 40   -446.6 4092001.2  1.0  1.0  5  0      1739
[20]  B13  7 35   -350.4 4092001.0  0.9  1.0  5  0      1728
[21]  B25  1  7  -1406.9 4092004.1  0.1  0.0  1  0         0
src>tow meas_num=10
src>=tow snapfix
gpmeas_pt.measnum=6
snap nits = 20
snap Residual Check:421202.593750
$GNGGA,000000.000,,,,,0,00,,,M,,,,0000*2B

$GNRMC,000000.000,A,,,,,,,000000,,*26

$GPGSA,A,1,,,,,,,,,,,,,,,*1E

$BDGSA,A,1,,,,,,,,,,,,,,,*0F

$GPGSV,1,1,04,03,00,000,39,17,00,000,45,19,00,000,39,28,00,000,39*71

$BDGSV,1,1,03,08,00,000,36,12,00,000,40,13,00,000,35*55

$LOGTIM,0,0.000000,0.000000,0.000000,0.000000,0.000*0A

EndT:        1
sat64 = 2011 2417 694 750
sat64 = 1925 3034 698 750
sat65 = 2568 2291 631 250
ch22 satid=65,max_freq = 250,max_mean = 631,max_phase = 2291,max_value = 2568,acq ok1!
sat66 = 1774 2307 535 -1250
sat66 = 1655 2987 539 -1000
sat67 = 1816 181 544 4250
sat67 = 1724 2233 547 -4500
sat68 = 2304 3959 651 2250
---00000008--- Acq_st=3 2019-5-27 07:43:2 
[00]  G03  f 39     16.2 2046000.0  1.0  1.0  5  0 114199503
[01]  G17  f 45  -1806.8 2046002.3  1.0  1.0  5  0 114199500
[02]  G19  f 40  -2572.3 2046003.3  1.0  1.0  5  0 114199498
[03]  G28  f 39   -536.2 2046000.7  1.0  1.0  5  0 114199506
[16]  B27  1  9  -2215.5 4092004.8  0.0  0.0  1  0       105
[17]  B08  7 36    -40.4 4092000.0  1.0  0.9  5  0      3252
[19]  B12  7 40   -445.1 4092001.1  1.0  1.0  5  0      2739
[20]  B13  7 35   -349.4 4092001.0  1.0  1.0  5  0      2728
[21]  B25  7 19  -1406.6 4092003.7  0.2  0.0 20  0       474
[22]  B29  1  7   -196.8 4092000.0 -0.1  0.0  1  0         0
sat68 = 2281 1218 656 2500
src>tow meas_num=10
src>=tow snapfix
gpmeas_pt.measnum=6
snap nits = 20
snap Residual Check:415553.187500
$GNGGA,000000.000,,,,,0,00,,,M,,,,0000*2B

$GNRMC,000000.000,A,,,,,,,000000,,*26

$GPGSA,A,1,,,,,,,,,,,,,,,*1E

$BDGSA,A,1,,,,,,,,,,,,,,,*0F

$GPGSV,1,1,04,03,00,000,39,17,00,000,45,19,00,000,40,28,00,000,39*7F

$BDGSV,1,1,04,08,00,000,36,12,00,000,40,13,00,000,35,25,00,000,19*6D

$LOGTIM,0,0.000000,0.000000,0.000000,0.000000,0.000*0A

EndT:        1
---00000009--- Acq_st=7 2019-5-27 07:43:3 
[00]  G03  f 39     18.0 2046000.0  1.0  1.0  5  0 114200503
[01]  G17  f 45  -1806.0 2046002.3  1.0  1.0  5  0 114200500
[02]  G19  f 40  -2572.0 2046003.3  1.0  1.0  5  0 114200498
[03]  G28  f 39   -535.3 2046000.8  1.0  1.0  5  0 114200506
[16]  B27  1  7  -2204.9 4092005.0  0.1  0.0  1  0      1105
[17]  B08 1f 36    -39.7 4092000.0  1.0  1.0  5  0      4252
[19]  B12 1f 40   -444.4 4092001.1  1.0  1.0  5  0      3739
[20]  B13 1f 35   -348.4 4092000.9  1.0  1.0  5  0      3728
[21]  B25  7 39  -1405.4 4092003.8  0.4  1.0  5  0      1469
[22]  B29  1  7   -202.5 4091999.8  0.0  0.0  1  0       735
src>tow meas_num=10
lsq: nits= 4
lsq residual:22.410603
$GNGGA,074303.574,3112.7095,N,12136.4730,E,1,06,5.2,-8.6,M,,,,0000*3B

$GNRMC,074303.574,A,3112.7095,N,12136.4730,E,0.29,0.00,270519,,*16

$GPGSA,A,3,17,19,28,,,,,,,,,,9.8,5.2,8.3*3B

$BDGSA,A,3,08,12,13,,,,,,,,,,9.8,5.2,8.3*27

$GPGSV,1,1,04,03,00,000,39,17,00,000,45,19,00,000,40,28,00,000,39*7F

$BDGSV,1,1,04,08,00,000,36,12,00,000,40,13,00,000,35,25,00,000,39*6F

$LOGTIM,3,9653159.174642,9653023.698510,0.000000,0.000000,-69.258*19

EndT:        1
---00000010--- Acq_st=7 2019-5-27 07:43:4 
[00]  G03  f 38     19.0 2046000.0  1.0  1.1  5  0 114201503
[01]  G17  f 45  -1805.6 2046002.3  1.0  1.0  5  0 114201500
[02]  G19  f 41  -2570.8 2046003.3  1.0  1.0  5  0 114201498
[03]  G28  f 40   -534.3 2046000.7  1.0  1.0  5  0 114201506
[16]  B27  1  7  -2199.2 4092005.0 -0.0  0.0  1  0      2105
[17]  B08 1f 36    -39.0 4092000.1  1.0  1.0  5  0 114187452
[19]  B12 1f 41   -443.8 4092001.1  1.0  1.0  5  0 114187499
[20]  B13 1f 34   -348.0 4092000.9  1.0  1.0  5  0 114187448
[21]  B25  7 39  -1403.7 4092003.7  1.0  1.0  5  0      2469
[22]  B29  1  7   -200.6 4092000.5  0.0  0.0  1  0      1735
sat0 = 62663 21 4599 -2500
ch4 satid=0,max_freq = -2500,max_mean = 4599,max_phase = 21,max_value = 62663,acq ok1!
sat1 = 11744 1062 4595 5000
sat1 = 14659 1085 4405 -2500
sat3 = 14395 229 4591 5000
sat3 = 11290 1420 4068 4500
sat4 = 12784 1816 4603 1750
sat4 = 15717 670 4686 -2000
sat5 = 20017 965 4578 2750
ch5 satid=5,max_freq = 2750,max_mean = 4578,max_phase = 965,max_value = 20017,acq ok1!
sat6 = 13385 1139 4634 2500
sat6 = 12942 1950 4210 -1000
src>tow meas_num=11
lsq: nits= 2
lsq residual:16.498508
$GNGGA,074305.000,3112.7137,N,12136.4985,E,1,06,2.0,17.3,M,,,,0000*21

$GNRMC,074305.000,A,3112.7137,N,12136.4985,E,4.18,325.58,270519,,*10

$GPGSA,A,3,17,19,28,,,,,,,,,,2.2,2.0,0.8*3C

$BDGSA,A,3,08,12,13,,,,,,,,,,2.2,2.0,0.8*20

$GPGSV,1,1,04,03,00,000,38,17,00,000,45,19,00,000,41,28,00,000,40*71

$BDGSV,1,1,04,08,00,000,36,12,00,000,41,13,00,000,34,25,00,000,39*6F

$LOGTIM,3,-78.683845,-270.326939,0.000000,0.000000,-72.866*23

EndT:        1
sat7 = 12364 1522 4550 -1500
sat7 = 12198 1744 4531 3500
sat8 = 11750 1601 4606 -3250
sat8 = 12785 1904 4476 -4250
sat9 = 11628 1502 4605 4500
sat9 = 20799 372 5346 4000
sat10 = 19097 981 4605 -2250
ch6 satid=10,max_freq = -2250,max_mean = 4605,max_phase = 981,max_value = 19097,acq ok1!
sat11 = 13128 702 4600 1000
sat11 = 14418 1308 4719 -4750
sat12 = 11913 1789 4611 0
sat12 = 13703 1176 4771 5000
sat13 = 11373 219 4624 2000
sat13 = 11776 1587 3989 -2750
---00000011--- Acq_st=3 2019-5-27 07:43:5 
[00]  G03  f 39     20.5 2046000.0  1.0  1.0  5  0 114202929
[01]  G17  f 44  -1804.6 2046002.3  1.0  1.0  5  0 114202927
[02]  G19  f 40  -2571.0 2046003.3  1.0  1.0  5  0 114202924
[03]  G28  f 40   -532.7 2046000.7  1.0  1.0  5  0 114202932
[04]  G01  1 28   2567.5 2045996.9  0.0  0.0  1  0        19
[05]  G06  1  7  -2692.8 2046004.8 -0.1  0.0  1  0         7
[06]  G11  1 19   2236.3 2045997.8 -0.0  0.0  1  0         0
[17]  B08 1f 36    -37.7 4092000.1  1.0  1.0  5  0 114188878
[19]  B12 1f 40   -442.3 4092001.2  1.0  1.0  5  0 114188926
[20]  B13 1f 35   -346.9 4092000.9  1.0  1.0  5  0 114188874
[21]  B25  7 39  -1402.3 4092003.7  1.0  1.0  5  0      3895
sat14 = 11794 123 4647 750
sat14 = 14415 1292 4663 -250
sat15 = 11894 1415 4587 1000
sat15 = 15152 772 4577 -2250
sat17 = 48937 1658 4619 -3000
ch7 satid=17,max_freq = -3000,max_mean = 4619,max_phase = 1658,max_value = 48937,acq ok1!
sat19 = 12110 1043 4583 750
sat19 = 17310 422 4330 -3750
sat20 = 13503 1239 4628 3250
sat20 = 14323 1659 4782 -3500
sat21 = 112695 287 4581 -1500
ch8 satid=21,max_freq = -1500,max_mean = 4581,max_phase = 287,max_value = 112695,acq ok1!
sat22 = 12845 1133 4606 4250
src>tow meas_num=13
lsq: nits= 2
lsq residual:19.786331
$GNGGA,074306.000,3112.7183,N,12136.5021,E,1,05,2.7,-1.0,M,,,,0000*36

$GNRMC,074306.000,A,3112.7183,N,12136.5021,E,5.47,324.63,270519,,*18

$GPGSA,A,3,17,19,28,,,,,,,,,,2.9,2.7,1.1*38

$BDGSA,A,3,08,13,,,,,,,,,,,2.9,2.7,1.1*27

$GPGSV,2,1,08,03,00,000,39,17,47,325,44,19,30,306,40,28,82,243,40*71

$GPGSV,2,2,08,01,30,042,00,11,24,062,00,18,07,053,00,22,35,057,00*7B

$BDGSV,2,1,07,08,65,311,36,12,57,001,40,13,47,268,35,25,17,306,39*60

$BDGSV,2,2,07,10,68,245,00,19,19,051,00,24,37,248,00*5B

$LOGTIM,3,-157.667859,-347.122378,0.000000,0.000000,-74.227*1D

EndT:        1
sat22 = 9675 1959 3736 500
sat23 = 11311 535 4631 1000
sat23 = 11090 1528 3973 4000
sat24 = 11225 638 4585 -1250
sat24 = 13136 834 4769 750
sat25 = 11713 1395 4615 -3250
sat25 = 12475 457 4505 5000
sat26 = 11399 1327 4611 -3500
sat26 = 15588 1504 4894 1750
sat28 = 11097 585 4628 -3000
sat28 = 14405 1136 4489 750
sat29 = 11230 613 4593 -1250
sat29 = 14491 1632 4972 1500
---00000012--- Acq_st=3 2019-5-27 07:43:6 
[00]  G03  f 39     19.1 2046000.0  1.0  1.0  5  0 114203929
[01]  G17  f 45  -1806.4 2046002.3  1.0  1.0  5  0 114203927
[02]  G19  f 41  -2571.7 2046003.4  1.0  1.0  5  0 114203924
[03]  G28  f 40   -534.0 2046000.7  1.0  1.0  5  0 114203932
[04]  G01  7 30   2564.5 2045996.6  0.5  1.0  5  0         4
[05]  G06  7 24  -2636.4 2046003.5 -0.0  0.0 20  0         7
[06]  G11  1 29   2232.0 2045996.8 -0.0  0.0  1  0        12
[07]  G18  1 27   2939.7 2045996.3  0.1  0.0  1  0        12
[08]  G22  1 26   1544.1 2045998.4 -0.0  0.0  1  0         4
[17]  B08 1f 36    -40.2 4092000.1  1.0  0.9  5  0 114189878
[19]  B12 1f 41   -444.3 4092001.1  1.0  1.0  5  0 114189926
[20]  B13 1f 35   -348.6 4092000.9  1.0  1.0  5  0 114189874
[21]  B25  7 39  -1403.8 4092003.7  1.0  1.0  5  0      4895
sat30 = 12001 1803 4610 -3000
sat30 = 13820 1284 4582 -2250
sat31 = 13428 1639 4595 4500
sat31 = 14275 950 4739 4000
