FlashID=0x1 0x20 0x18
BBram_blkflag1:  8a9: f756
FW Ver: 1.30  
GPS00 Init Dop:  -2366,  2
GPS01 Init Dop:   5000, 40
GPS02 Init Dop:   5000, 40
GPS03 Init Dop:   5000, 40
GPS04 Init Dop:   5000, 40
GPS05 Init Dop:   5000, 40
GPS06 Init Dop:   5000, 40
GPS07 Init Dop:   5000, 40
GPS08 Init Dop:   5000, 40
GPS09 Init Dop:   5000, 40
GPS10 Init Dop:  -2050,  2
GPS11 Init Dop:   5000, 40
GPS12 Init Dop:   5000, 40
GPS13 Init Dop:   5000, 40
GPS14 Init Dop:   5000, 40
GPS15 Init Dop:   5000, 40
GPS16 Init Dop:   1984,  2
GPS17 Init Dop:  -2636,  2
GPS18 Init Dop:   2746,  2
GPS19 Init Dop:   5000, 40
GPS20 Init Dop:   5000, 40
GPS21 Init Dop:  -1730,  2
GPS22 Init Dop:   5000, 40
GPS23 Init Dop:   5000, 40
GPS24 Init Dop:   5000, 40
GPS25 Init Dop:   5000, 40
GPS26 Init Dop:   5000, 40
GPS27 Init Dop:    248,  2
GPS28 Init Dop:   5000, 40
GPS29 Init Dop:   5000, 40
GPS30 Init Dop:   5000, 40
GPS31 Init Dop:   5000, 40
BDS00 Init Dop:   5000, 40
BDS01 Init Dop:   5000, 40
BDS02 Init Dop:   5000, 40
BDS03 Init Dop:   5000, 40
BDS04 Init Dop:   5000, 40
BDS05 Init Dop:   5000, 40
BDS06 Init Dop:   5000, 40
BDS07 Init Dop:    274,  2
BDS08 Init Dop:   5000, 40
BDS09 Init Dop:    -25,  2
BDS10 Init Dop:   5000, 40
BDS11 Init Dop:    600,  2
BDS12 Init Dop:    547,  2
BDS13 Init Dop:   5000, 40
BDS14 Init Dop:   5000, 40
BDS15 Init Dop:   5000, 40
BDS16 Init Dop:   5000, 40
BDS17 Init Dop:   5000, 40
BDS18 Init Dop:  -1194,  2
BDS19 Init Dop:   5000, 40
BDS20 Init Dop:   5000, 40
BDS21 Init Dop:   5000, 40
BDS22 Init Dop:   5000, 40
BDS23 Init Dop:  -1270,  2
BDS24 Init Dop:   1174,  2
BDS25 Init Dop:   5000, 40
BDS26 Init Dop:   5000, 40
BDS27 Init Dop:   5000, 40
BDS28 Init Dop:   5000, 40
BDS29 Init Dop:   5000, 40
BDS30 Init Dop:   5000, 40
BDS31 Init Dop:   5000, 40
sat0 = 3616 722 1661 -2616
sat0 = 9261 780 4822 -2366
sat1 = 2832 275 1049 0
sat1 = 13874 1699 4141 -2500
sat2 = 25793 89 1054 -750
ch0 satid=2,max_freq = -750,max_mean = 1054,max_phase = 89,max_value = 25793,acq ok1!
sat3 = 2577 542 1050 -4500
sat3 = 12207 458 3785 -4750
sat4 = 2524 1615 1052 -4250
sat4 = 15380 713 4422 -2250
sat5 = 6602 1474 1051 2250
ch1 satid=5,max_freq = 2250,max_mean = 1051,max_phase = 1474,max_value = 6602,acq ok1!
sat6 = 2739 1075 1059 -1250
sat6 = 12791 1598 3911 -1500
sat7 = 2754 1460 1042 1750
sat7 = 13233 870 4233 4750
sat8 = 2632 1227 1050 -250
sat8 = 12675 131 4252 2250
sat9 = 2645 1989 1052 0
sat9 = 23106 556 5214 4250
sat10 = 6344 566 3294 -2050
sat10 = 11533 1134 5628 -2300
sat11 = 2739 1755 1054 2500
sat11 = 13103 1511 4455 -4750
sat12 = 2597 1517 1051 1000
sat12 = 15403 1181 4571 0
sat13 = 3293 16 1057 -750
sat13 = 11813 1661 3639 -2500
---00000001--- Acq_st=3 2019-5-27 07:58:25 
[00]  G03  1 25    632.5 2045999.0  0.1  0.0  1  0         0
[01]  G06  1  7  -2303.6 2046003.9  0.0  0.0  1  0         0
sat14 = 2620 1673 1062 3500
src<tow snapfix
gpmeas_pt.measnum=0
$GNGGA,000000.000,,,,,0,00,,,M,,,,0000*2B
$GNRMC,000000.000,A,,,,,,,000000,,*26
$GPGSA,A,1,,,,,,,,,,,,,,,*1E
$BDGSA,A,1,,,,,,,,,,,,,,,*0F
$LOGTIM,0,0.000000,0.000000,0.000000,0.000000,0.000*0A
EndT:        0
sat14 = 15818 1175 4410 -250
sat15 = 2676 1753 1046 4750
sat15 = 16668 619 4336 -2000
sat16 = 45755 199 1087 1734
ch2 satid=16,max_freq = 1734,max_mean = 1087,max_phase = 199,max_value = 45755,acq ok1!
sat17 = 3252 1748 1365 -2886
sat17 = 11432 1075 5540 -2636
sat18 = 16625 424 1064 2496
ch3 satid=18,max_freq = 2496,max_mean = 1064,max_phase = 424,max_value = 16625,acq ok1!
sat19 = 2622 1766 1048 -500
sat19 = 17538 1746 4050 -3500
sat20 = 2567 1691 1057 2750
sat20 = 13794 85 4570 -3750
sat21 = 2151 1708 985 -1980
sat21 = 8517 1292 3994 -1980
sat22 = 2873 1257 1053 -1000
sat22 = 8604 1083 3394 -2500
sat23 = 3150 159 1056 1750
sat23 = 11991 568 3671 4000
sat24 = 2542 877 1046 1500
sat24 = 14823 1101 4540 3500
sat25 = 2614 771 1053 1750
sat25 = 12906 752 4229 4750
sat26 = 2651 1425 1049 1500
sat26 = 18218 940 4655 1500
sat27 = 2359 1771 1031 248
sat27 = 6996 879 3182 -2
sat28 = 2820 287 1052 -3750
sat28 = 15167 502 4244 750
sat29 = 2872 1328 1048 2000
sat29 = 18294 1290 4753 1500
sat30 = 2877 477 1048 -3500
sat30 = 13306 23 4381 -2250
---00000002--- Acq_st=3 2019-5-27 07:58:26 
[00]  G03  7 29    643.8 2045999.1  0.4  1.0  5  0         0
[01]  G06  7 25  -2333.7 2046003.0  0.4  0.0 20  0        12
[02]  G17  1 33  -1729.7 2046002.9  0.0  0.0  1  0         0
[03]  G19  1 27  -2489.6 2046004.0 -0.0  0.0  1  0         0
src<tow snapfix
gpmeas_pt.measnum=0
$GNGGA,000000.000,,,,,0,00,,,M,,,,0000*2B
$GNRMC,000000.000,A,,,,,,,000000,,*26
$GPGSA,A,1,,,,,,,,,,,,,,,*1E
$BDGSA,A,1,,,,,,,,,,,,,,,*0F
$GPGSV,1,1,02,03,00,000,29,06,00,000,25*72
$LOGTIM,0,0.000000,0.000000,0.000000,0.000000,0.000*0A
EndT:        0
sat31 = 2696 1482 1049 2000
sat31 = 13121 1798 4540 -1250
sat37 = 1871 2125 505 3750
sat37 = 1740 1720 508 3750
sat38 = 2419 1843 621 -1000
sat38 = 2346 3723 625 -1000
sat39 = 1650 3724 561 4750
sat39 = 1783 551 565 4750
sat40 = 1853 3911 527 -4250
---00000003--- Acq_st=3 2019-5-27 07:58:27 
[00]  G03  7 46    647.2 2045999.1  1.0  1.0  5  0        11
[01]  G06  7 39  -2330.2 2046003.0  0.8  1.0  5  0         8
[02]  G17  7 30  -1721.1 2046002.2  0.5  1.0  5  0         9
[03]  G19  7 29  -2482.4 2046003.1  0.4  1.0  5  0        18
src<tow snapfix
gpmeas_pt.measnum=0
$GNGGA,000000.000,,,,,0,00,,,M,,,,0000*2B
$GNRMC,000000.000,A,,,,,,,000000,,*26
$GPGSA,A,1,,,,,,,,,,,,,,,*1E
$BDGSA,A,1,,,,,,,,,,,,,,,*0F
$GPGSV,1,1,04,03,00,000,46,06,00,000,39,17,00,000,30,19,00,000,29*76
$LOGTIM,0,0.000000,0.000000,0.000000,0.000000,0.000*0A
EndT:        0
sat40 = 1885 3568 528 -4250
sat41 = 2797 3498 667 2250
ch16 satid=41,max_freq = 2250,max_mean = 667,max_phase = 3498,max_value = 2797,acq ok1!
sat42 = 2219 2121 535 1250
ch17 satid=42,max_freq = 1250,max_mean = 535,max_phase = 2121,max_value = 2219,acq ok1!
sat43 = 1475 1385 451 5000
sat43 = 1552 3523 455 5000
sat44 = 4307 2489 570 24
ch18 satid=44,max_freq = 24,max_mean = 570,max_phase = 2489,max_value = 4307,acq ok1!
sat45 = 2115 2250 544 3500
sat45 = 2100 2314 546 3250
sat46 = 926 3236 402 -275
sat46 = 1031 3300 403 -275
sat47 = 3926 2999 509 2250
ch19 satid=47,max_freq = 2250,max_mean = 509,max_phase = 2999,max_value = 3926,acq ok1!
sat48 = 5067 3849 576 350
ch20 satid=48,max_freq = 350,max_mean = 576,max_phase = 3849,max_value = 5067,acq ok1!
sat49 = 9430 1975 432 297
ch21 satid=49,max_freq = 297,max_mean = 432,max_phase = 1975,max_value = 9430,acq ok1!
---00000004--- Acq_st=3 2019-5-27 07:58:28 
[00]  G03  7 46    653.4 2045999.1  1.0  1.0  5  0        11
[01]  G06  7 39  -2323.3 2046003.0  1.0  1.0  5  0         8
[02]  G17  7 47  -1715.7 2046002.2  1.0  1.0  5  0        10
[03]  G19  7 43  -2477.1 2046003.2  1.0  1.0  5  0         8
[16]  B05  1 33  -2205.1 4092005.0  0.2  0.0  1  0         0
[17]  B06  1  7  -1295.1 4092002.9 -0.0  0.0  1  0         0
[18]  B08  1 25    -11.0 4092001.0  0.0  0.0  1  0         0
[19]  B11  1  7   3320.6 4092006.4 -0.0  0.0  1  0         0
[20]  B12  1  0   8158.7 4092000.0  0.0  0.0  1  0         0
[21]  B13  1  0  13877.2 4092000.0  0.0  0.0  1  0         0
src<tow snapfix
gpmeas_pt.measnum=2
$GNGGA,000000.000,,,,,0,00,,,M,,,,0000*2B
$GNRMC,000000.000,A,,,,,,,000000,,*26
$GPGSA,A,1,,,,,,,,,,,,,,,*1E
$BDGSA,A,1,,,,,,,,,,,,,,,*0F
$GPGSV,1,1,04,03,00,000,46,06,00,000,39,17,00,000,47,19,00,000,43*7A
$LOGTIM,0,0.000000,0.000000,0.000000,0.000000,0.000*0A
EndT:        0
sat50 = 2482 3587 634 2000
sat50 = 2385 3839 639 2000
sat51 = 2078 1962 580 3250
sat51 = 1961 3229 583 3250
sat52 = 2002 3221 575 4250
sat52 = 2163 2495 578 4250
sat53 = 1744 2407 557 2250
sat53 = 1941 3004 561 2250
---00000005--- Acq_st=3 2019-5-27 07:58:29 
[00]  G03  7 46    650.8 2045999.1  1.0  1.0  5  0        11
[01]  G06  7 39  -2326.8 2046003.1  1.0  1.0  5  0         8
[02]  G17  7 47  -1718.7 2046002.2  1.0  1.0  5  0        10
[03]  G19  7 43  -2480.4 2046003.2  1.0  1.0  5  0         8
[16]  B05  1 34  -2227.3 4092005.2  0.1  0.0  1  0       801
[17]  B06  1  7  -1183.3 4092003.0 -0.1  0.0  1  0       677
[18]  B08  7 17    -13.9 4092000.0  0.4  0.0 20  0       421
[19]  B11  1  7  -2268.1 4092006.5  0.1  0.0  1  0        34
[20]  B12  1  7   -339.9 4092002.2  0.1  0.0  1  0        24
[21]  B13  1  7   -287.2 4092001.0  0.2  0.0  1  0        14
src<tow snapfix
gpmeas_pt.measnum=2
$GNGGA,000000.000,,,,,0,00,,,M,,,,0000*2B
$GNRMC,000000.000,A,,,,,,,000000,,*26
$GPGSA,A,1,,,,,,,,,,,,,,,*1E
$BDGSA,A,1,,,,,,,,,,,,,,,*0F
$GPGSV,1,1,04,03,00,000,46,06,00,000,39,17,00,000,47,19,00,000,43*7A
$BDGSV,1,1,01,08,00,000,17*57
$LOGTIM,0,0.000000,0.000000,0.000000,0.000000,0.000*0A
EndT:        1
sat54 = 2172 2560 627 -4500
sat54 = 2358 3017 628 -4500
sat55 = 1535 1095 651 -1444
sat55 = 1536 1095 650 -1444
sat56 = 2229 847 567 2250
sat56 = 1923 652 570 2250
sat57 = 1730 3096 465 -4750
sat57 = 1430 1699 469 -4750
sat58 = 1476 3998 460 750
sat58 = 1400 4062 463 750
---00000006--- Acq_st=3 2019-5-27 07:58:30 
[00]  G03  7 46    646.7 2045999.1  1.0  1.0  5  0        11
[01]  G06  7 39  -2330.7 2046003.0  1.0  1.0  5  0         8
[02]  G17  7 47  -1723.5 2046002.2  1.0  1.0  5  0        10
[03]  G19  7 43  -2484.9 2046003.2  1.0  1.0  5  0         8
[16]  B05  1 33  -2205.1 4092005.9 -0.0  0.0  1  0      1801
[17]  B06  1  7  -1210.4 4092003.3 -0.0  0.0  1  0      1677
[18]  B08  7 37    -18.3 4092000.0  0.8  1.0  5  0      1421
[19]  B11  7 31  -2272.5 4092006.0  0.6  1.0  5  0      1034
[20]  B12  7 31   -344.9 4092000.9  0.3  1.0  5  0      1024
[21]  B13  7 32   -292.1 4092000.7  0.7  1.0  5  0      1014
[22]  B19  1  7   1372.7 4091997.3  0.0  0.0  1  0         0
src<tow snapfix
gpmeas_pt.measnum=5
$GNGGA,000000.000,,,,,0,00,,,M,,,,0000*2B
$GNRMC,000000.000,A,,,,,,,000000,,*26
$GPGSA,A,1,,,,,,,,,,,,,,,*1E
$BDGSA,A,1,,,,,,,,,,,,,,,*0F
$GPGSV,1,1,04,03,00,000,46,06,00,000,39,17,00,000,47,19,00,000,43*7A
$BDGSV,1,1,04,08,00,000,37,11,00,000,31,12,00,000,31,13,00,000,32*60
$LOGTIM,0,0.000000,0.000000,0.000000,0.000000,0.000*0A
EndT:        0
sat59 = 1993 2616 610 4750
sat59 = 1971 949 613 4500
sat60 = 1304 1830 556 -1520
sat60 = 1236 988 554 -1520
sat61 = 5773 603 430 924
ch23 satid=61,max_freq = 924,max_mean = 430,max_phase = 603,max_value = 5773,acq ok1!
sat62 = 1569 2657 499 3000
sat62 = 1556 60 502 3250
sat63 = 2028 1682 533 2500
sat63 = 1922 2093 539 2500
sat64 = 1956 1493 688 4250
sat64 = 1960 2975 693 750
---00000007--- Acq_st=3 2019-5-27 07:58:31 
[00]  G03  7 46    649.5 2045999.2  1.0  1.0  5  0        11
[01]  G06  7 39  -2328.5 2046003.0  1.0  1.0  5  0         8
[02]  G17  7 46  -1721.2 2046002.2  1.0  1.0  5  0        10
[03]  G19  7 43  -2482.7 2046003.2  1.0  1.0  5  0         8
[18]  B08  7 37    -16.9 4092000.0  1.0  1.0  5  0      2421
[19]  B11  7 38  -2271.1 4092005.9  1.0  1.0  5  0      2016
[20]  B12  7 38   -343.1 4092000.8  1.0  1.0  5  0      2009
[21]  B13  7 42   -289.9 4092000.7  1.0  1.0  5  0      1997
[22]  B19  1  7   1491.7 4091997.3  0.0  0.0  1  0       766
[23]  B25  1  7   -920.3 4092002.7  0.0  0.0  1  0         0
src<tow snapfix
gpmeas_pt.measnum=5
$GNGGA,000000.000,,,,,0,00,,,M,,,,0000*2B
$GNRMC,000000.000,A,,,,,,,000000,,*26
$GPGSA,A,1,,,,,,,,,,,,,,,*1E
$BDGSA,A,1,,,,,,,,,,,,,,,*0F
$GPGSV,1,1,04,03,00,000,46,06,00,000,39,17,00,000,46,19,00,000,43*7B
$BDGSV,1,1,04,08,00,000,37,11,00,000,38,12,00,000,38,13,00,000,42*67
$LOGTIM,0,0.000000,0.000000,0.000000,0.000000,0.000*0A
EndT:        1
sat65 = 2491 2318 621 250
ch16 satid=65,max_freq = 250,max_mean = 621,max_phase = 2318,max_value = 2491,acq ok1!
sat66 = 1879 2359 515 -1250
sat66 = 1631 1348 519 -4750
sat67 = 1710 427 532 -4500
sat67 = 1723 2062 535 -4250
sat68 = 2441 2857 645 -1500
sat68 = 2218 3827 650 -1500
---00000008--- Acq_st=7 2019-5-27 07:58:32 
[00]  G03  f 46    651.3 2045999.1  1.0  1.0  5  0        11
[01]  G06  f 38  -2327.4 2046003.0  1.0  1.0  5  0         8
[02]  G17  f 47  -1719.7 2046002.2  1.0  1.0  5  0        10
[03]  G19  f 43  -2481.2 2046003.2  1.0  1.0  5  0         8
[16]  B29  1  7   -190.2 4092000.2 -0.0  0.0  1  0      2801
[18]  B08  7 37    -16.0 4092000.0  1.0  1.0  5  0      3421
[19]  B11  7 38  -2269.7 4092006.0  1.0  1.0  5  0      3016
[20]  B12  7 39   -341.4 4092000.9  1.0  1.0  5  0      3009
[21]  B13  7 42   -288.8 4092000.7  1.0  1.0  5  0      2997
[22]  B19  1  7   1653.8 4091997.0 -0.1  0.0  1  0      1766
[23]  B25  7 27   -918.0 4092002.4  0.5  0.0 10  0       755
src>tow meas_num=11
src>=tow snapfix
gpmeas_pt.measnum=5
$GNGGA,000000.000,,,,,0,00,,,M,,,,0000*2B
$GNRMC,000000.000,A,,,,,,,000000,,*26
$GPGSA,A,1,,,,,,,,,,,,,,,*1E
$BDGSA,A,1,,,,,,,,,,,,,,,*0F
$GPGSV,1,1,04,03,00,000,46,06,00,000,38,17,00,000,47,19,00,000,43*7B
$BDGSV,2,1,05,08,00,000,37,11,00,000,38,12,00,000,39,13,00,000,42*64
$BDGSV,2,2,05,25,00,000,27*5F
$LOGTIM,0,0.000000,0.000000,0.000000,0.000000,0.000*0A
EndT:        0
---00000009--- Acq_st=7 2019-5-27 07:58:33 
[00]  G03  f 45    647.0 2045999.2  1.0  1.0  5  0 115130191
[01]  G06  f 38  -2332.1 2046003.0  1.0  1.0  5  0 115130188
[02]  G17  f 46  -1724.8 2046002.2  1.0  1.0  5  0 115130190
[03]  G19  f 43  -2486.7 2046003.2  1.0  1.0  5  0 115130188
[16]  B29  1  7   -183.0 4091999.9 -0.1  0.0  1  0       895
[18]  B08  7 37    -20.1 4092000.0  1.0  1.0  5  0      4421
[19]  B11  7 38  -2274.7 4092005.9  1.0  1.0  5  0      4016
[20]  B12  7 38   -346.5 4092000.8  1.0  1.0  5  0      4009
[21]  B13  7 42   -294.0 4092000.8  1.0  1.0  5  0      3997
[23]  B25  7 40   -922.6 4092002.4  1.0  1.0  5  0      1738
src>tow meas_num=10
src>=tow snapfix
gpmeas_pt.measnum=6
snap nits = 5
snap Residual Check:0.023247
$GNGGA,000000.000,,,,,0,00,,,M,,,,0000*2B
$GNRMC,000000.000,A,,,,,,,000000,,*26
$GPGSA,A,1,,,,,,,,,,,,,,,*1E
$BDGSA,A,1,,,,,,,,,,,,,,,*0F
$GPGSV,1,1,04,03,00,000,45,06,00,000,38,17,00,000,46,19,00,000,43*79
$BDGSV,2,1,05,08,00,000,37,11,00,000,38,12,00,000,38,13,00,000,42*65
$BDGSV,2,2,05,25,00,000,40*5E
$LOGTIM,0,0.000000,0.000000,0.000000,0.000000,0.000*0A
EndT:        1
---00000010--- Acq_st=7 2019-5-27 07:58:34 
[00]  G03  f 45    645.1 2045999.2  1.0  1.0  5  0 115131191
[01]  G06  f 39  -2334.2 2046003.0  1.0  1.0  5  0 115131188
[02]  G17  f 47  -1727.5 2046002.2  1.0  1.0  5  0 115131190
[03]  G19  f 44  -2489.1 2046003.2  1.0  1.0  5  0 115131188
[16]  B29  1  9   -188.8 4091999.9 -0.0  0.0  1  0      1895
[18]  B08 1f 37    -23.9 4092000.1  1.0  1.0  5  0      5421
[19]  B11 1f 38  -2277.6 4092006.0  1.0  1.0  5  0      5016
[20]  B12 1f 39   -349.7 4092000.8  1.0  1.0  5  0      5009
[21]  B13 1f 42   -295.9 4092000.8  1.0  1.0  5  0      4997
[23]  B25 1f 40   -924.7 4092002.4  1.0  1.0  5  0      2738
src>tow meas_num=10
lsq: nits= 5
lsq residual:17.170746
$GNGGA,075834.263,3112.6504,N,12136.5883,E,1,06,8.8,-209.5,M,,,,0000*39
$GNRMC,075834.263,A,3112.6504,N,12136.5883,E,0.44,0.00,270519,,*18
$GPGSA,A,3,17,19,,,,,,,,,,,11.8,8.8,7.9*0A
$BDGSA,A,3,08,12,13,25,,,,,,,,,11.8,8.8,7.9*1B
$GPGSV,1,1,04,03,00,000,45,06,00,000,39,17,00,000,47,19,00,000,44*7E
$BDGSV,2,1,05,08,00,000,37,11,00,000,38,12,00,000,39,13,00,000,42*64
$BDGSV,2,2,05,25,00,000,40*5E
$LOGTIM,3,8682811.378387,8682668.969396,0.000000,0.000000,-65.854*14
EndT:        1
sat0 = 53133 1194 3824 -2500
ch4 satid=0,max_freq = -2500,max_mean = 3824,max_phase = 1194,max_value = 53133,acq ok1!
sat1 = 10243 1112 3829 -3500
sat1 = 12903 880 4216 -2500
sat3 = 10874 888 3851 -500
sat3 = 12064 1864 3859 -4750
sat4 = 10052 1060 3858 -2500
sat4 = 15912 1693 4480 -2000
sat6 = 9603 633 3877 -500
sat6 = 11354 1420 3960 -750
sat7 = 9628 1466 3772 4750
sat7 = 13809 1986 4315 3750
sat8 = 10351 970 3830 -3500
sat8 = 12783 208 4333 -4000
sat9 = 10719 1322 3838 500
sat9 = 24451 195 5288 4250
sat10 = 68981 1758 3845 -2250
ch5 satid=10,max_freq = -2250,max_mean = 3845,max_phase = 1758,max_value = 68981,acq ok1!
sat11 = 10693 1358 3841 -1250
sat11 = 13188 1890 4512 -4250
sat12 = 10981 10 3840 750
sat12 = 14399 152 4636 5000
sat13 = 10505 1432 3844 1250
sat13 = 12411 1277 3704 -2750
sat14 = 11176 1795 3889 1750
---00000011--- Acq_st=3 2019-5-27 07:58:34 
[00]  G03  f 46    646.6 2045999.2  1.0  1.0  5  0 115132191
[01]  G06  f 39  -2333.0 2046003.0  1.0  1.0  5  0 115132188
[02]  G17  f 47  -1726.7 2046002.3  1.0  1.0  5  0 115132190
[03]  G19  f 44  -2488.0 2046003.2  1.0  1.0  5  0 115132188
[05]  G11  1  7   2285.9 2045998.9  0.0  0.0  1  0         0
[18]  B08 1f 37    -21.4 4092000.0  1.0  1.0  5  0 115118141
[19]  B11 1f 38  -2276.6 4092006.0  1.0  1.0  5  0 115118176
[20]  B12 1f 39   -347.7 4092000.9  1.0  1.0  5  0 115118189
[21]  B13 1f 42   -295.1 4092000.7  1.0  1.0  5  0 115118137
[23]  B25 1f 40   -922.8 4092002.4  1.0  1.0  5  0 115118178
sat14 = 14415 1049 4461 -250
sat15 = 9868 2024 3836 1750
sat15 = 16991 1677 4406 -2250
sat17 = 20039 1179 3823 -3000
ch4 satid=17,max_freq = -3000,max_mean = 3823,max_phase = 1179,max_value = 20039,acq ok1!
sat19 = 10053 244 3818 1000
sat19 = 18175 734 4124 -3500
sat20 = 9507 277 3864 4500
sat20 = 14540 2032 4634 -500
sat21 = 87465 466 3792 -2000
ch6 satid=21,max_freq = -2000,max_mean = 3792,max_phase = 466,max_value = 87465,acq ok1!
sat22 = 9359 1474 3838 -4250
sat22 = 10210 1718 3464 -4750
sat23 = 9647 1424 3890 3250
sat23 = 10694 1990 3736 4000
sat24 = 9608 1992 3823 -4000
sat24 = 14719 70 4608 3500
sat25 = 9327 736 3855 -1750
sat25 = 12371 299 4299 5000
sat26 = 10088 932 3847 -4750
src>tow meas_num=11
lsq: nits= 2
lsq residual:9.701013
$GNGGA,075836.000,3112.6427,N,12136.5605,E,1,06,2.4,-228.2,M,,,,0000*3E
$GNRMC,075836.000,A,3112.6427,N,12136.5605,E,3.32,143.71,270519,,*1F
$GPGSA,A,3,17,19,,,,,,,,,,,2.7,2.4,1.2*3C
$BDGSA,A,3,08,12,13,25,,,,,,,,,2.7,2.4,1.2*2D
$GPGSV,1,1,04,03,00,000,46,06,00,000,39,17,00,000,47,19,00,000,44*7D
$BDGSV,2,1,05,08,00,000,37,11,00,000,38,12,00,000,39,13,00,000,42*64
$BDGSV,2,2,05,25,00,000,40*5E
$LOGTIM,3,-113.123916,-243.969739,0.000000,0.000000,-63.203*13
EndT:        1
sat26 = 15566 485 4700 1750
sat27 = 10755 94 3822 3000
sat27 = 13471 745 3796 1750
sat28 = 10606 1840 3855 -4500
sat28 = 15607 461 4292 750
sat29 = 10110 230 3805 -1500
---00000012--- Acq_st=3 2019-5-27 07:58:36 
[00]  G03  f 45    649.5 2045999.2  1.0  1.0  5  0 115133928
[01]  G06  f 39  -2330.1 2046003.0  1.0  1.0  5  0 115133925
[02]  G17  f 47  -1724.0 2046002.2  1.0  1.0  5  0 115133927
[03]  G19  f 43  -2485.5 2046003.2  1.0  1.0  5  0 115133925
[04]  G18  1 23   2890.6 2045996.9  0.1  0.0  1  0         5
[06]  G22  1 26   2000.0 2045997.7 -0.0  0.0  1  0        17
[18]  B08 1f 37    -19.9 4092000.0  1.0  1.0  5  0 115119878
[19]  B11 1f 37  -2274.0 4092005.9  1.0  1.0  5  0 115119913
[20]  B12 1f 39   -345.4 4092000.8  1.0  1.0  5  0 115119926
[21]  B13 1f 42   -293.1 4092000.8  1.0  1.0  5  0 115119874
[23]  B25 1f 40   -921.1 4092002.4  1.0  1.0  5  0 115119915
sat29 = 15837 242 4829 1500
sat30 = 9954 796 3851 -3250
sat30 = 13349 188 4457 -2000
sat31 = 9792 1022 3833 2000
sat31 = 13388 1093 4618 4500
sat37 = 1994 999 494 3500
ch16 satid=37,max_freq = 3500,max_mean = 494,max_phase = 999,max_value = 1994,acq ok1!
sat38 = 2271 2930 610 -1000
sat38 = 2324 1745 617 -1250
sat39 = 1733 1009 553 -500
src>tow meas_num=12
lsq: nits= 2
lsq residual:10.212810
$GNGGA,075837.000,3112.6434,N,12136.5570,E,1,06,2.4,-222.5,M,,,,0000*31
$GNRMC,075837.000,A,3112.6434,N,12136.5570,E,4.56,143.82,270519,,*14
$GPGSA,A,3,17,19,,,,,,,,,,,2.7,2.4,1.2*3C
$BDGSA,A,3,08,12,13,25,,,,,,,,,2.7,2.4,1.2*2D
$GPGSV,3,1,09,03,00,000,45,06,00,000,39,17,51,333,47,19,35,312,43*77
$GPGSV,3,2,09,01,24,046,00,11,19,067,00,18,02,056,00,22,31,051,00*73
$GPGSV,3,3,09,28,77,206,00*4E
$BDGSV,2,1,08,08,63,318,37,11,00,000,37,12,57,013,39,13,47,273,42*6C
$BDGSV,2,2,08,25,19,300,40,10,65,240,00,19,17,046,00,24,34,241,00*66
$LOGTIM,3,-171.327363,-301.544378,0.000000,0.000000,-61.981*1F
EndT:        1
sat39 = 1566 2129 558 -250
sat40 = 1711 329 514 -4500
---00000013--- Acq_st=3 2019-5-27 07:58:37 
[00]  G03  f 45    650.3 2045999.2  1.0  1.0  5  0 115134928
[01]  G06  f 40  -2329.9 2046003.1  1.0  1.0  5  0 115134925
[02]  G17  f 47  -1723.7 2046002.2  1.0  1.0  5  0 115134927
[03]  G19  f 44  -2485.3 2046003.2  1.0  1.0  5  0 115134925
[04]  G18  7 28   2895.8 2045996.1 -0.0  1.0 10  0        15
[06]  G22  7 25   1996.0 2045997.4  0.3  0.0 20  0         3
[16]  B01  1 10  -3595.5 4092009.2 -0.0  0.0  1  0       420
[18]  B08 1f 37    -19.8 4092000.1  1.0  1.0  5  0 115120878
[19]  B11 1f 38  -2273.8 4092006.0  1.0  1.0  5  0 115120913
[20]  B12 1f 39   -345.3 4092000.9  1.0  0.9  5  0 115120926
[21]  B13 1f 42   -292.5 4092000.8  1.0  1.0  5  0 115120874
[23]  B25 1f 40   -920.0 4092002.4  1.0  1.0  5  0 115120915
sat40 = 1777 1121 519 -1750
sat41 = 2724 3477 659 2250
ch17 satid=41,max_freq = 2250,max_mean = 659,max_phase = 3477,max_value = 2724,acq ok1!
sat42 = 1978 1306 523 1250
sat42 = 2085 3767 528 1250
sat43 = 1515 3525 444 5000
sat43 = 1494 656 448 5000
src>tow meas_num=13
lsq: nits= 2
lsq residual:3.736598
$GNGGA,075838.000,3112.6408,N,12136.5528,E,1,05,4.2,-219.9,M,,,,0000*3B
$GNRMC,075838.000,A,3112.6408,N,12136.5528,E,4.54,144.35,270519,,*10
$GPGSA,A,3,17,19,,,,,,,,,,,4.7,4.2,2.0*3B
$BDGSA,A,3,08,12,25,,,,,,,,,,4.7,4.2,2.0*28
$GPGSV,3,1,09,03,00,000,45,06,00,000,40,17,51,333,47,19,35,312,44*7E
$GPGSV,3,2,09,18,02,056,28,22,31,051,25,01,24,046,00,11,19,067,00*7E
$GPGSV,3,3,09,28,77,206,00*4E
$BDGSV,2,1,08,08,63,318,37,11,00,000,38,12,57,013,39,13,47,273,42*63
$BDGSV,2,2,08,25,19,300,40,10,65,240,00,19,17,046,00,24,34,241,00*66
$LOGTIM,3,-234.598098,-361.302119,0.000000,0.000000,-62.100*1D
EndT:        1
sat45 = 2149 1354 533 3250
ch22 satid=45,max_freq = 3250,max_mean = 533,max_phase = 1354,max_value = 2149,acq ok1!
sat46 = 1774 3838 507 -2000
---00000014--- Acq_st=3 2019-5-27 07:58:38 
[00]  G03  f 45    651.0 2045999.2  1.0  1.0  5  0 115135928
[01]  G06  f 40  -2329.7 2046003.0  1.0  1.0  5  0 115135925
[02]  G17  f 47  -1723.3 2046002.2  1.0  1.0  5  0 115135927
[03]  G19  f 44  -2485.0 2046003.2  1.0  1.0  5  0 115135925
[04]  G18  7 36   2896.3 2045996.2  1.0  0.9  5  0        15
[06]  G22  7 44   1996.5 2045997.4  1.0  1.0  5  0         3
[16]  B01  1 10  -3672.8 4092010.3  0.2  0.0  1  0      1420
[17]  B05  1 33  -2155.2 4092004.8 -0.2  0.0  1  0       559
[18]  B08 1f 36    -19.9 4092000.0  1.0  1.0  5  0 115121878
[19]  B11 1f 37  -2274.3 4092005.9  1.0  1.0  5  0 115121913
[20]  B12 1f 39   -344.6 4092000.9  1.0  1.0  5  0 115121926
[21]  B13 1f 43   -293.0 4092000.8  1.0  1.0  5  0 115121874
[22]  B09  1  7  -3285.3 4092008.3  0.0  0.0  1  0      2766
[23]  B25 1f 39   -919.0 4092002.4  1.0  1.0  5  0 115121915
sat46 = 1744 1107 512 -4750
sat50 = 2183 1771 628 2000
sat50 = 2386 2805 635 2000
sat51 = 1952 2905 572 3250
sat51 = 1961 605 577 3250
sat52 = 1966 2394 564 3750
src>tow meas_num=14
lsq: nits= 2
lsq residual:4.174978
$GNGGA,075839.000,3112.6393,N,12136.5497,E,1,05,4.2,-217.3,M,,,,0000*3E
$GNRMC,075839.000,A,3112.6393,N,12136.5497,E,4.56,145.74,270519,,*17
$GPGSA,A,3,17,19,,,,,,,,,,,4.7,4.2,2.0*3B
$BDGSA,A,3,08,12,25,,,,,,,,,,4.7,4.2,2.0*28
$GPGSV,3,1,09,03,00,000,45,06,00,000,40,17,51,333,47,19,35,312,44*7E
$GPGSV,3,2,09,18,02,056,36,22,31,051,44,01,24,046,00,11,19,067,00*76
$GPGSV,3,3,09,28,77,206,00*4E
$BDGSV,2,1,08,08,63,318,36,11,00,000,37,12,57,013,39,13,47,273,43*6C
$BDGSV,2,2,08,25,19,300,39,10,65,240,00,19,17,046,00,24,34,241,00*68
$LOGTIM,3,-297.032854,-421.980630,0.000000,0.000000,-62.184*1A
EndT:        1
sat52 = 1906 3885 567 4000
sat53 = 1778 720 552 2250
---00000015--- Acq_st=3 2019-5-27 07:58:39 
[00]  G03  f 45    651.2 2045999.2  1.0  1.0  5  0 115136928
[01]  G06  f 40  -2329.5 2046003.0  1.0  1.0  5  0 115136925
[02]  G17  f 47  -1724.0 2046002.2  1.0  1.0  5  0 115136927
[03]  G19  f 44  -2485.2 2046003.2  1.0  1.0  5  0 115136925
[04]  G18  7 36   2895.3 2045996.2  1.0  1.0  5  0        15
[06]  G22  7 44   1996.4 2045997.4  1.0  1.0  5  0         3
[16]  B01  1 10  -3681.3 4092008.3  0.0  0.0  1  0      2420
[17]  B05  1 34  -2180.0 4092005.5  0.2  0.0  1  0      1559
[18]  B08 1f 37    -20.2 4092000.1  1.0  1.0  5  0 115122878
[19]  B11 1f 37  -2274.3 4092005.9  1.0  1.0  5  0 115122913
[20]  B12 1f 39   -345.3 4092000.9  1.0  1.0  5  0 115122926
[21]  B13 1f 42   -293.2 4092000.8  1.0  1.0  5  0 115122874
[22]  B09  1  7  -3188.9 4092008.0 -0.1  0.0  1  0       944
[23]  B25 1f 40   -919.7 4092002.4  1.0  1.0  5  0 115122915
sat53 = 1948 2665 557 -1000
sat54 = 2256 3015 615 -4500
sat54 = 2238 440 618 500
sat55 = 3507 404 562 -1500
ch24 satid=55,max_freq = -1500,max_mean = 562,max_phase = 404,max_value = 3507,acq ok1!
sat56 = 1826 486 557 2000
sat56 = 1936 1305 564 2250
src>tow meas_num=14
lsq: nits= 2
lsq residual:14.028828
$GNGGA,075840.000,3112.6458,N,12136.5479,E,1,06,2.4,-224.4,M,,,,0000*34
$GNRMC,075840.000,A,3112.6458,N,12136.5479,E,4.00,142.93,270519,,*14
$GPGSA,A,3,17,19,,,,,,,,,,,2.7,2.4,1.2*3C
$BDGSA,A,3,08,12,13,25,,,,,,,,,2.7,2.4,1.2*2D
$GPGSV,3,1,09,03,00,000,45,06,00,000,40,17,51,333,47,19,35,312,44*7E
$GPGSV,3,2,09,18,02,056,36,22,31,051,44,01,24,046,00,11,19,067,00*76
$GPGSV,3,3,09,28,77,206,00*4E
$BDGSV,2,1,08,08,63,318,37,11,00,000,37,12,57,013,39,13,47,273,42*6C
$BDGSV,2,2,08,25,19,300,40,10,65,240,00,19,17,046,00,24,34,241,00*66
$LOGTIM,3,-358.948855,-488.936670,0.000000,0.000000,-62.681*15
EndT:        1
sat57 = 1494 627 454 -4750
sat57 = 1336 402 459 -4750
---00000016--- Acq_st=3 2019-5-27 07:58:40 
[00]  G03  f 45    652.8 2045999.2  1.0  1.0  5  0 115137928
[01]  G06  f 40  -2328.1 2046003.0  1.0  1.0  5  0 115137925
[02]  G17  f 47  -1723.0 2046002.2  1.0  1.0  5  0 115137927
[03]  G19  f 44  -2484.4 2046003.2  1.0  1.0  5  0 115137925
[04]  G18  7 36   2896.8 2045996.2  1.0  1.0  5  0        15
[06]  G22  7 44   1997.6 2045997.4  1.0  1.0  5  0         3
[17]  B05  1 33  -2178.0 4092005.9  0.3  0.0  1  0      2559
[18]  B08 1f 37    -19.5 4092000.0  1.0  0.9  5  0 115123878
[19]  B11 1f 37  -2273.5 4092005.9  1.0  1.0  5  0 115123913
[20]  B12 1f 39   -344.4 4092000.9  1.0  1.0  5  0 115123926
[21]  B13 1f 42   -292.5 4092000.7  1.0  1.0  5  0 115123874
[22]  B09  1  9  -3180.8 4092008.3 -0.2  0.0  1  0      1944
[23]  B25 1f 39   -917.9 4092002.5  1.0  1.0  5  0 115123915
[24]  B19  1  7   1445.0 4091996.2  0.1  0.0  1  0       345
sat58 = 1498 1180 451 3250
sat58 = 1414 3378 457 750
sat59 = 1896 1913 602 4500
sat59 = 1950 3908 606 4250
sat60 = 2099 3951 541 4500
sat60 = 1969 3054 545 4500
src>tow meas_num=13
lsq: nits= 2
lsq residual:5.077620
$GNGGA,075841.000,3112.6458,N,12136.5456,E,1,06,2.4,-219.7,M,,,,0000*35
$GNRMC,075841.000,A,3112.6458,N,12136.5456,E,4.46,141.69,270519,,*1C
$GPGSA,A,3,17,19,,,,,,,,,,,2.7,2.4,1.2*3C
$BDGSA,A,3,08,12,13,25,,,,,,,,,2.7,2.4,1.2*2D
$GPGSV,3,1,09,03,00,000,45,06,00,000,40,17,51,333,47,19,35,312,44*7E
$GPGSV,3,2,09,18,02,056,36,22,31,051,44,01,24,046,00,11,19,067,00*76
$GPGSV,3,3,09,28,77,206,00*4E
$BDGSV,2,1,08,08,63,318,37,11,00,000,37,12,57,013,39,13,47,273,42*6C
$BDGSV,2,2,08,25,19,300,39,10,65,240,00,19,17,046,00,24,34,241,00*68
$LOGTIM,3,-419.164572,-547.979025,0.000000,0.000000,-62.420*1F
EndT:        1
sat62 = 1696 3937 492 5000
sat62 = 1552 3629 496 5000
---00000017--- Acq_st=3 2019-5-27 07:58:41 
[00]  G03  f 45    651.9 2045999.1  1.0  1.0  5  0 115138928
[01]  G06  f 40  -2329.8 2046003.1  1.0  1.0  5  0 115138925
[02]  G17  f 48  -1724.3 2046002.2  1.0  1.0  5  0 115138927
[03]  G19  f 44  -2485.9 2046003.2  1.0  1.0  5  0 115138925
[04]  G18  7 36   2894.9 2045996.2  1.0  1.0  5  0        15
[06]  G22  7 44   1996.9 2045997.4  1.0  1.0  5  0         3
[18]  B08 1f 37    -21.0 4092000.1  1.0  1.0  5  0 115124878
[19]  B11 1f 38  -2274.4 4092006.0  1.0  1.0  5  0 115124913
[20]  B12 1f 39   -345.7 4092000.9  1.0  1.0  5  0 115124926
[21]  B13 1f 43   -293.6 4092000.8  1.0  1.0  5  0 115124874
[22]  B09  1  7  -3169.6 4092007.7 -0.1  0.0  1  0      2944
[23]  B25 1f 39   -918.8 4092002.4  1.0  1.0  5  0 115124915
[24]  B19  7 24   1450.1 4091996.2  0.1  0.0 20  0      1335
sat63 = 2193 1677 528 2500
ch16 satid=63,max_freq = 2500,max_mean = 528,max_phase = 1677,max_value = 2193,acq ok1!
sat64 = 1925 1379 678 750
sat64 = 2066 2316 685 750
sat66 = 1815 3578 508 -1250
sat66 = 1634 1132 513 -1250
sat67 = 1691 1349 521 -4000
sat67 = 1746 423 526 4250
src>tow meas_num=13
lsq: nits= 2
lsq residual:5.255485
$GNGGA,075842.000,3112.6463,N,12136.5429,E,1,06,2.4,-213.5,M,,,,0000*3E
$GNRMC,075842.000,A,3112.6463,N,12136.5429,E,4.86,142.36,270519,,*1A
$GPGSA,A,3,17,19,,,,,,,,,,,2.7,2.4,1.2*3C
$BDGSA,A,3,08,12,13,25,,,,,,,,,2.7,2.4,1.2*2D
$GPGSV,3,1,09,03,00,000,45,06,00,000,40,17,51,333,48,19,35,312,44*71
$GPGSV,3,2,09,18,02,056,36,22,31,051,44,01,24,046,00,11,19,067,00*76
$GPGSV,3,3,09,28,77,206,00*4E
$BDGSV,2,1,08,08,63,318,37,11,00,000,38,12,57,013,39,13,47,273,43*62
$BDGSV,2,2,08,25,19,300,39,19,17,046,24,10,65,240,00,24,34,241,00*6E
$LOGTIM,3,-478.663801,-606.437742,0.000000,0.000000,-62.120*13
EndT:        1
sat68 = 2383 3557 636 -1250
sat68 = 2226 3621 644 -1250
---00000018--- Acq_st=7 2019-5-27 07:58:42 
[00]  G03  f 45    652.8 2045999.1  1.0  1.0  5  0 115139928
[01]  G06  f 41  -2328.9 2046003.0  1.0  1.0  5  0 115139925
[02]  G17  f 48  -1723.9 2046002.3  1.0  1.0  5  0 115139927
[03]  G19  f 44  -2485.5 2046003.3  1.0  1.0  5  0 115139925
[04]  G18  7 37   2895.1 2045996.2  1.0  1.0  5  0        15
[06]  G22  7 44   1997.2 2045997.4  1.0  1.0  5  0         3
[16]  B27  1  7  -2187.7 4092005.9  0.0  0.0  1  0       747
[18]  B08 1f 37    -20.7 4092000.1  1.0  1.0  5  0 115125878
[19]  B11 1f 38  -2274.5 4092006.0  1.0  0.9  5  0 115125913
[20]  B12 1f 39   -345.5 4092000.9  1.0  1.0  5  0 115125926
[21]  B13 1f 42   -293.4 4092000.7  1.0  1.0  5  0 115125874
[23]  B25 1f 39   -918.0 4092002.4  1.0  1.0  5  0 115125915
[24]  B19  7 38   1451.0 4091996.2  0.7  0.9  5  0      2335
src>tow meas_num=13
lsq: nits= 2
lsq residual:4.634322
$GNGGA,075843.000,3112.6476,N,12136.5400,E,1,06,2.4,-206.9,M,,,,0000*38
$GNRMC,075843.000,A,3112.6476,N,12136.5400,E,5.08,142.47,270519,,*15
$GPGSA,A,3,17,19,,,,,,,,,,,2.7,2.4,1.2*3C
$BDGSA,A,3,08,12,13,25,,,,,,,,,2.7,2.4,1.2*2D
$GPGSV,3,1,09,03,00,000,45,06,00,000,41,17,51,333,48,19,35,312,44*70
$GPGSV,3,2,09,18,02,056,37,22,31,051,44,01,24,046,00,11,19,067,00*77
$GPGSV,3,3,09,28,77,206,00*4E
$BDGSV,2,1,08,08,63,318,37,11,00,000,38,12,57,013,39,13,47,273,42*63
$BDGSV,2,2,08,25,19,300,39,19,17,046,38,10,65,240,00,24,34,241,00*63
$LOGTIM,3,-536.929264,-664.213362,0.000000,0.000000,-61.689*15
EndT:        1
---00000019--- Acq_st=7 2019-5-27 07:58:43 
[00]  G03  f 45    654.9 2045999.2  1.0  1.0  5  0 115140928
[01]  G06  f 41  -2327.3 2046003.0  1.0  1.0  5  0 115140925
[02]  G17  f 48  -1722.5 2046002.2  1.0  1.0  5  0 115140927
[03]  G19  f 44  -2484.1 2046003.2  1.0  1.0  5  0 115140925
[04]  G18  7 36   2896.2 2045996.2  1.0  1.0  5  0        15
[06]  G22  7 44   1999.5 2045997.4  1.0  1.0  5  0         3
[16]  B27  1 10  -2158.0 4092006.3 -0.2  0.0  1  0      1747
[18]  B08 1f 37    -19.5 4092000.1  1.0  1.0  5  0 115126878
[19]  B11 1f 38  -2273.7 4092006.0  1.0  1.0  5  0 115126913
[20]  B12 1f 39   -344.0 4092000.9  1.0  1.0  5  0 115126926
[21]  B13 1f 43   -291.7 4092000.8  1.0  1.0  5  0 115126874
[23]  B25 1f 39   -916.0 4092002.3  1.0  1.0  5  0 115126915
[24]  B19  7 38   1452.6 4091996.2  1.0  1.0  5  0      3335
sat0 = 42086 943 3979 -2750
ch5 satid=0,max_freq = -2750,max_mean = 3979,max_phase = 943,max_value = 42086,acq ok1!
sat1 = 11049 274 3998 4250
sat1 = 13274 1085 4159 -2500
sat3 = 10763 329 4011 -2000
sat3 = 11229 1005 3806 -4750
sat4 = 10996 160 4016 2000
sat4 = 15503 61 4441 -4500
sat6 = 10889 360 4041 1750
sat6 = 11033 408 3926 -1000
sat7 = 11021 312 3922 2250
sat7 = 12815 1731 4273 4750
sat8 = 12398 528 3993 4000
sat8 = 12151 669 4285 -2500
sat9 = 11086 766 4006 3750
sat9 = 23321 1154 5261 4250
sat10 = 49551 1503 4014 -2250
ch7 satid=10,max_freq = -2250,max_mean = 4014,max_phase = 1503,max_value = 49551,acq ok1!
sat11 = 11341 1394 4002 -1500
src>tow meas_num=15
lsq: nits= 2
lsq residual:4.673735
$GNGGA,075844.000,3112.6452,N,12136.5421,E,1,07,2.2,-212.6,M,,,,0000*37
$GNRMC,075844.000,A,3112.6452,N,12136.5421,E,2.17,102.69,270519,,*16
$GPGSA,A,3,17,18,19,,,,,,,,,,2.4,2.2,1.1*33
$BDGSA,A,3,08,12,13,25,,,,,,,,,2.4,2.2,1.1*2B
$GPGSV,3,1,09,03,00,000,45,06,00,000,41,17,51,333,48,19,35,312,44*70
$GPGSV,3,2,09,18,02,056,36,22,31,051,44,01,24,046,00,11,19,067,00*76
$GPGSV,3,3,09,28,77,206,00*4E
$BDGSV,2,1,08,08,63,318,37,11,00,000,38,12,57,013,39,13,47,273,43*62
$BDGSV,2,2,08,25,19,300,39,19,17,046,38,10,65,240,00,24,34,241,00*63
$LOGTIM,3,-610.254070,-736.629227,0.000000,0.000000,-63.880*1A
EndT:        1
sat11 = 13164 1198 4477 250
sat12 = 11695 1618 4001 -3750
sat12 = 14700 1155 4604 1500
sat13 = 10781 753 4008 -500
sat13 = 11688 231 3664 -2500
sat14 = 10341 616 4054 2000
---00000020--- Acq_st=3 2019-5-27 07:58:44 
[00]  G03  f 45    653.7 2045999.2  1.0  1.0  5  0 115141928
[01]  G06  f 42  -2329.2 2046003.0  1.0  1.0  5  0 115141925
[02]  G17  f 48  -1724.2 2046002.2  1.0  1.0  5  0 115141927
[03]  G19  f 44  -2485.8 2046003.2  1.0  1.0  5  0 115141925
[04]  G18  f 36   2894.5 2045996.2  1.0  1.0  5  0 115141915
[05]  G01  1 24   2632.5 2045997.3  0.1  0.0  1  0         3
[06]  G22  f 45   1997.8 2045997.4  1.0  1.0  5  0 115141923
[07]  G11  1 14   2295.7 2045998.6 -0.1  0.0  1  0        17
[16]  B27  1  7  -2165.4 4092006.1  0.3  0.0  1  0      2747
[18]  B08 1f 37    -20.7 4092000.0  1.0  1.0  5  0 115127878
[19]  B11 1f 38  -2275.1 4092006.0  1.0  1.0  5  0 115127913
[20]  B12 1f 39   -345.2 4092000.9  1.0  1.0  5  0 115127926
[21]  B13 1f 43   -293.7 4092000.8  1.0  1.0  5  0 115127874
[23]  B25 1f 39   -917.5 4092002.4  1.0  1.0  5  0 115127915
[24]  B19  7 38   1450.5 4091996.2  1.0  1.0  5  0      4335
sat14 = 16450 1205 4411 -250
sat15 = 12564 222 3980 -3000
sat15 = 16820 1248 4356 -2000
sat19 = 11391 407 3986 2750
sat19 = 18536 576 4069 -3500
sat20 = 10605 941 4017 3000
sat20 = 13209 536 4598 -500
sat22 = 11358 824 4010 -500
sat22 = 10063 842 3422 3750
sat23 = 10899 1187 4055 -2500
sat23 = 11117 1911 3680 -3500
sat24 = 10601 474 3970 2500
sat24 = 13916 1977 4580 3500
sat25 = 14120 1462 4006 -3250
sat25 = 12924 1053 4255 4750
sat26 = 10685 1435 4002 2750
sat26 = 15662 1822 4675 1250
sat27 = 16205 140 3969 0
ch7 satid=27,max_freq = 0,max_mean = 3969,max_phase = 140,max_value = 16205,acq ok1!
src>tow meas_num=14
lsq: nits= 2
lsq residual:12.564146
$GNGGA,075845.000,3112.6470,N,12136.5392,E,1,07,2.2,-206.6,M,,,,0000*3C
$GNRMC,075845.000,A,3112.6470,N,12136.5392,E,2.67,94.44,270519,,*2E
$GPGSA,A,3,17,18,19,,,,,,,,,,2.4,2.2,1.1*33
$BDGSA,A,3,08,12,13,25,,,,,,,,,2.4,2.2,1.1*2B
$GPGSV,3,1,09,03,00,000,45,06,00,000,42,17,51,333,48,19,35,312,44*73
$GPGSV,3,2,09,18,02,056,36,22,31,051,45,01,24,046,00,11,19,067,00*77
$GPGSV,3,3,09,28,77,206,00*4E
$BDGSV,2,1,08,08,63,318,37,11,00,000,38,12,57,013,39,13,47,273,43*62
$BDGSV,2,2,08,25,19,300,39,19,17,046,38,10,65,240,00,24,34,241,00*63
$LOGTIM,3,-668.302976,-795.082150,0.000000,0.000000,-64.329*1A
EndT:        1
sat28 = 11006 752 4007 -500
sat28 = 15498 1807 4257 750
sat29 = 10342 1412 3966 4000
sat29 = 14835 1965 4793 1500
sat30 = 10708 616 4003 -4500
sat30 = 13574 1426 4397 -2250
---00000021--- Acq_st=3 2019-5-27 07:58:45 
[00]  G03  f 45    651.7 2045999.2  1.0  1.0  5  0 115142928
[01]  G06  f 42  -2331.0 2046003.0  1.0  1.0  5  0 115142925
[02]  G17  f 47  -1726.8 2046002.2  1.0  1.0  5  0 115142927
[03]  G19  f 44  -2488.4 2046003.2  1.0  1.0  5  0 115142925
[04]  G18  f 36   2892.6 2045996.2  1.0  1.0  5  0 115142915
[05]  G01  7 30   2622.5 2045996.4  0.2  1.0  5  0         2
[06]  G22  f 44   1995.6 2045997.4  1.0  1.0  5  0 115142923
[07]  G28  1 17      4.1 2046001.3 -0.0  0.0  1  0        14
[18]  B08 1f 37    -23.8 4092000.0  1.0  1.0  5  0 115128878
[19]  B11 1f 37  -2278.0 4092005.9  1.0  1.0  5  0 115128913
[20]  B12 1f 39   -348.1 4092000.9  1.0  1.0  5  0 115128926
[21]  B13 1f 42   -296.2 4092000.7  1.0  1.0  5  0 115128874
[23]  B25 1f 39   -919.5 4092002.4  1.0  1.0  5  0 115128915
[24]  B19  7 38   1448.7 4091996.2  1.0  1.0  5  0      5335
sat31 = 11784 758 3989 4750
sat31 = 13758 1146 4579 1750
sat37 = 1711 75 503 3750
sat37 = 1830 923 511 3750
sat38 = 2120 3827 614 -1000
sat38 = 2198 3946 624 -1000
sat39 = 1547 2213 555 4500
src>tow meas_num=14
lsq: nits= 2
lsq residual:3.654654
$GNGGA,075846.000,3112.6489,N,12136.5339,E,1,08,1.7,-195.5,M,,,,0000*3B
$GNRMC,075846.000,A,3112.6489,N,12136.5339,E,2.35,91.24,270519,,*2E
$GPGSA,A,3,17,18,19,,,,,,,,,,2.1,1.7,1.1*30
$BDGSA,A,3,08,12,13,19,25,,,,,,,,2.1,1.7,1.1*20
$GPGSV,3,1,09,03,00,000,45,06,00,000,42,17,51,333,47,19,35,312,44*7C
$GPGSV,3,2,09,18,02,056,36,01,24,046,30,22,31,051,44,11,19,067,00*75
$GPGSV,3,3,09,28,77,206,00*4E
$BDGSV,2,1,08,08,63,318,37,11,00,000,37,12,57,013,39,13,47,273,42*6C
$BDGSV,2,2,08,25,19,300,39,19,17,046,38,10,65,240,00,24,34,241,00*63
$LOGTIM,3,-720.994029,-847.549126,0.000000,0.000000,-64.317*1F
EndT:        1
sat39 = 1547 2240 565 4750
sat40 = 1705 2724 522 -1750
---00000022--- Acq_st=3 2019-5-27 07:58:46 
[00]  G03  f 45    655.7 2045999.1  1.0  1.0  5  0 115143928
[01]  G06  f 42  -2327.9 2046003.0  1.0  1.0  5  0 115143925
[02]  G17  f 48  -1723.8 2046002.2  1.0  1.0  5  0 115143927
[03]  G19  f 43  -2485.2 2046003.3  1.0  1.0  5  0 115143925
[04]  G18  f 36   2894.3 2045996.3  1.0  1.0  5  0 115143915
[05]  G01  7 39   2626.0 2045996.5  1.0  1.0  5  0         2
[06]  G22  f 44   1998.9 2045997.4  1.0  1.0  5  0 115143923
[07]  G28  1 31     20.7 2046000.3  0.1  0.0  1  0        14
[18]  B08 1f 37    -20.6 4092000.1  1.0  1.0  5  0 115129878
[19]  B11 1f 37  -2275.0 4092006.0  1.0  0.9  5  0 115129913
[20]  B12 1f 39   -345.2 4092000.9  1.0  1.0  5  0 115129926
[21]  B13 1f 43   -293.2 4092000.8  1.0  1.0  5  0 115129874
[23]  B25 1f 39   -915.8 4092002.4  1.0  1.0  5  0 115129915
[24]  B19 1f 38   1451.6 4091996.1  1.0  1.0  5  0 115129915
sat40 = 1719 1384 527 -4250
sat41 = 2735 2833 657 2000
ch16 satid=41,max_freq = 2000,max_mean = 657,max_phase = 2833,max_value = 2735,acq ok1!
sat42 = 2004 1714 532 1250
sat42 = 1876 3355 539 1250
sat43 = 1426 2038 454 4750
sat43 = 1412 3923 459 5000
src>tow meas_num=15
lsq: nits= 2
lsq residual:8.611426
$GNGGA,075847.000,3112.6487,N,12136.5282,E,1,08,1.7,-184.3,M,,,,0000*33
$GNRMC,075847.000,A,3112.6487,N,12136.5282,E,1.13,91.24,270519,,*27
$GPGSA,A,3,17,18,19,,,,,,,,,,2.1,1.7,1.1*30
$BDGSA,A,3,08,12,13,19,25,,,,,,,,2.1,1.7,1.1*20
$GPGSV,3,1,09,03,00,000,45,06,00,000,42,17,51,333,48,19,35,312,43*74
$GPGSV,3,2,09,18,02,056,36,01,24,046,39,22,31,051,44,11,19,067,00*7C
$GPGSV,3,3,09,28,77,206,00*4E
$BDGSV,2,1,08,08,63,318,37,11,00,000,37,12,57,013,39,13,47,273,43*6D
$BDGSV,2,2,08,25,19,300,39,19,17,046,38,10,65,240,00,24,34,241,00*63
$LOGTIM,3,-777.412007,-903.760004,0.000000,0.000000,-64.274*1F
EndT:        1
sat45 = 1909 485 540 3500
sat45 = 1974 1776 546 3250
---00000023--- Acq_st=3 2019-5-27 07:58:47 
[00]  G03  f 46    656.7 2045999.1  1.0  1.0  5  0 115144928
[01]  G06  f 42  -2326.1 2046003.0  1.0  1.0  5  0 115144925
[02]  G17  f 48  -1722.5 2046002.2  1.0  1.0  5  0 115144927
[03]  G19  f 44  -2484.1 2046003.2  1.0  1.0  5  0 115144925
[04]  G18  f 35   2895.5 2045996.2  1.0  0.9  5  0 115144915
[05]  G01  7 40   2627.1 2045996.5  1.0  1.0  5  0         2
[06]  G22  f 45   2000.5 2045997.4  1.0  1.0  5  0 115144923
[07]  G28  7 34     24.5 2045999.9  0.9  0.9  5  0        12
[16]  B05  1 32  -2177.8 4092005.1  0.2  0.0  1  0       576
[18]  B08 1f 37    -19.3 4092000.0  1.0  1.0  5  0 115130878
[19]  B11 1f 38  -2273.7 4092005.9  1.0  1.0  5  0 115130913
[20]  B12 1f 39   -344.0 4092000.9  1.0  1.0  5  0 115130926
[21]  B13 1f 42   -292.4 4092000.8  1.0  1.0  5  0 115130874
[23]  B25 1f 39   -914.4 4092002.4  1.0  1.0  5  0 115130915
[24]  B19 1f 37   1454.0 4091996.2  1.0  0.9  5  0 115130915
sat46 = 2007 255 517 -250
sat46 = 1740 3304 524 -1750
sat50 = 2261 3077 626 2000
sat50 = 2285 3072 636 2000
sat51 = 1913 1585 575 3250
sat51 = 1908 3844 584 3250
src>tow meas_num=15
lsq: nits= 2
lsq residual:8.850807
$GNGGA,075848.000,3112.6474,N,12136.5218,E,1,08,1.7,-172.5,M,,,,0000*3C
$GNRMC,075848.000,A,3112.6474,N,12136.5218,E,0.81,91.24,270519,,*2D
$GPGSA,A,3,17,18,19,,,,,,,,,,2.1,1.7,1.1*30
$BDGSA,A,3,08,12,13,19,25,,,,,,,,2.1,1.7,1.1*20
$GPGSV,3,1,09,03,00,000,46,06,00,000,42,17,51,334,48,19,35,312,44*77
$GPGSV,3,2,09,18,02,057,35,01,24,046,40,22,31,051,45,28,77,205,34*72
$GPGSV,3,3,09,11,19,067,00*49
$BDGSV,2,1,08,08,63,318,37,11,00,000,38,12,57,013,39,13,47,273,42*63
$BDGSV,2,2,08,25,19,299,39,19,17,046,37,10,65,240,00,24,33,241,00*6A
$LOGTIM,3,-834.787553,-960.983331,0.000000,0.000000,-64.858*1B
EndT:        1
sat52 = 1927 778 570 3500
sat52 = 2108 213 577 4250
---00000024--- Acq_st=3 2019-5-27 07:58:49 
[00]  G03  f 45    654.1 2045999.2  1.0  1.0  5  0 115145928
[01]  G06  f 42  -2330.0 2046003.0  1.0  1.0  5  0 115145925
[02]  G17  f 48  -1726.1 2046002.2  1.0  1.0  5  0 115145927
[03]  G19  f 44  -2487.4 2046003.2  1.0  1.0  5  0 115145925
[04]  G18  f 36   2892.2 2045996.2  1.0  1.0  5  0 115145915
[05]  G01  7 40   2623.5 2045996.6  1.0  1.0  5  0         2
[06]  G22  f 44   1997.3 2045997.4  1.0  1.0  5  0 115145923
[07]  G28  7 34     21.3 2045999.9  1.0  0.9  5  0        12
[16]  B05  1 34  -2200.6 4092005.9 -0.0  0.0  1  0      1576
[18]  B08 1f 37    -23.5 4092000.1  1.0  1.0  5  0 115131878
[19]  B11 1f 37  -2277.2 4092005.9  1.0  1.0  5  0 115131913
[20]  B12 1f 40   -347.4 4092000.9  1.0  1.0  5  0 115131926
[21]  B13 1f 43   -295.9 4092000.8  1.0  1.0  5  0 115131874
[23]  B25 1f 39   -917.7 4092002.4  1.0  1.0  5  0 115131915
[24]  B19 1f 37   1450.4 4091996.1  1.0  1.0  5  0 115131915
sat53 = 1997 2142 552 -1000
sat53 = 1899 3686 561 -1000
sat54 = 2629 964 617 -4500
ch17 satid=54,max_freq = -4500,max_mean = 617,max_phase = 964,max_value = 2629,acq ok1!
sat56 = 2001 1999 561 2000
sat56 = 2094 2262 570 2000
sat57 = 1404 3533 468 -4750
src>tow meas_num=16
lsq: nits= 2
lsq residual:4.262173
$GNGGA,075849.000,3112.6490,N,12136.5177,E,1,08,1.7,-164.4,M,,,,0000*3B
$GNRMC,075849.000,A,3112.6490,N,12136.5177,E,1.30,91.24,270519,,*27
$GPGSA,A,3,17,18,19,,,,,,,,,,2.1,1.7,1.1*30
$BDGSA,A,3,08,12,13,19,25,,,,,,,,2.1,1.7,1.1*20
$GPGSV,3,1,09,03,00,000,45,06,00,000,42,17,51,334,48,19,35,312,44*74
$GPGSV,3,2,09,18,02,057,36,01,24,046,40,22,31,051,44,28,77,205,34*70
$GPGSV,3,3,09,11,19,067,00*49
$BDGSV,2,1,08,08,63,318,37,11,00,000,37,12,57,013,40,13,47,273,43*63
$BDGSV,2,2,08,25,19,299,39,19,17,046,37,10,65,240,00,24,33,241,00*6A
$LOGTIM,3,-889.550638,-1015.712842,0.000000,0.000000,-65.150*28
EndT:        1
sat57 = 1547 1051 473 -4750
sat58 = 1516 551 460 3250
---00000025--- Acq_st=3 2019-5-27 07:58:49 
[00]  G03  f 46    653.6 2045999.1  1.0  1.0  5  0 115146928
[01]  G06  f 43  -2330.4 2046003.1  1.0  1.0  5  0 115146925
[02]  G17  f 48  -1727.2 2046002.2  1.0  1.0  5  0 115146927
[03]  G19  f 44  -2488.8 2046003.3  1.0  1.0  5  0 115146925
[04]  G18  f 36   2890.6 2045996.2  1.0  1.0  5  0 115146915
[05]  G01  7 40   2622.6 2045996.6  1.0  1.0  5  0         2
[06]  G22  f 44   1996.6 2045997.4  1.0  1.0  5  0 115146923
[07]  G28  7 35     21.6 2045999.9  1.0  0.9  5  0        12
[16]  B05  1 31  -2162.6 4092006.3 -0.0  0.0  1  0      2576
[17]  B18  1  7   4337.0 4091989.3  0.0  0.0  1  0       486
[18]  B08 1f 37    -24.4 4092000.1  1.0  1.0  5  0 115132878
[19]  B11 1f 37  -2278.8 4092005.9  1.0  1.0  5  0 115132913
[20]  B12 1f 40   -348.3 4092000.9  1.0  1.0  5  0 115132926
[21]  B13 1f 43   -296.5 4092000.8  1.0  1.0  5  0 115132874
[23]  B25 1f 39   -918.1 4092002.5  1.0  1.0  5  0 115132915
[24]  B19 1f 38   1450.0 4091996.2  1.0  1.0  5  0 115132915
sat58 = 1431 1299 467 750
sat59 = 1944 3966 605 4500
sat59 = 2147 2918 612 750
sat60 = 2134 986 547 4500
sat60 = 2217 2602 553 4500
sat62 = 1496 1013 499 3250
sat62 = 1622 1322 504 3250
src>tow meas_num=15
lsq: nits= 2
lsq residual:10.977225
$GNGGA,075850.000,3112.6611,N,12136.5156,E,1,07,1.7,-172.5,M,,,,0000*32
$GNRMC,075850.000,A,3112.6611,N,12136.5156,E,1.94,91.24,270519,,*29
$GPGSA,A,3,17,19,28,,,,,,,,,,1.8,1.7,0.8*31
$BDGSA,A,3,08,12,13,25,,,,,,,,,1.8,1.7,0.8*2A
$GPGSV,3,1,09,03,00,000,46,06,00,000,43,17,51,334,48,19,35,312,44*76
$GPGSV,3,2,09,18,02,057,36,01,24,046,40,22,31,051,44,28,77,205,35*71
$GPGSV,3,3,09,11,19,067,00*49
$BDGSV,2,1,08,08,63,318,37,11,00,000,37,12,57,013,40,13,47,273,43*63
$BDGSV,2,2,08,25,19,299,39,19,17,046,38,10,65,240,00,24,33,241,00*65
$LOGTIM,3,-945.471846,-1077.477515,0.000000,0.000000,-64.956*28
EndT:        1
sat64 = 1936 2650 679 -4750
---00000026--- Acq_st=3 2019-5-27 07:58:50 
[00]  G03  f 45    656.0 2045999.2  1.0  1.0  5  0 115147928
[01]  G06  f 42  -2327.8 2046003.0  1.0  1.0  5  0 115147925
[02]  G17  f 48  -1725.0 2046002.2  1.0  1.0  5  0 115147927
[03]  G19  f 44  -2486.6 2046003.2  1.0  1.0  5  0 115147925
[04]  G18  f 36   2892.6 2045996.2  1.0  1.0  5  0 115147915
[05]  G01  f 40   2624.5 2045996.6  1.0  1.0  5  0 115147922
[06]  G22  f 44   1999.2 2045997.4  1.0  1.0  5  0 115147923
[07]  G28  f 34     24.3 2046000.0  1.0  1.0  5  0 115147932
[17]  B18  1  7   4316.9 4091989.1  0.1  0.0  1  0      1486
[18]  B08 1f 37    -22.0 4092000.1  1.0  1.0  5  0 115133878
[19]  B11 1f 38  -2276.7 4092006.0  1.0  1.0  5  0 115133913
[20]  B12 1f 40   -346.6 4092000.9  1.0  1.0  5  0 115133926
[21]  B13 1f 42   -294.6 4092000.8  1.0  1.0  5  0 115133874
[23]  B25 1f 39   -915.3 4092002.4  1.0  1.0  5  0 115133915
[24]  B19 1f 38   1452.3 4091996.2  1.0  0.9  5  0 115133915
sat64 = 2063 3616 691 -4750
sat65 = 2345 645 613 250
sat65 = 2250 516 623 250
sat66 = 1660 4080 513 -1250
sat66 = 1677 3028 522 -3000
sat67 = 1754 3827 527 -4500
sat67 = 1622 689 535 250
src>tow meas_num=15
lsq: nits= 2
lsq residual:10.229218
$GNGGA,075851.000,3112.6676,N,12136.5191,E,1,07,1.7,-169.1,M,,,,0000*37
$GNRMC,075851.000,A,3112.6676,N,12136.5191,E,1.80,91.24,270519,,*27
$GPGSA,A,3,17,19,28,,,,,,,,,,1.8,1.7,0.8*31
$BDGSA,A,3,08,12,13,25,,,,,,,,,1.8,1.7,0.8*2A
$GPGSV,3,1,09,03,00,000,45,06,00,000,42,17,51,334,48,19,35,312,44*74
$GPGSV,3,2,09,18,02,057,36,01,24,046,40,22,31,051,44,28,77,205,34*70
$GPGSV,3,3,09,11,19,067,00*49
$BDGSV,2,1,08,08,63,318,37,11,00,000,38,12,57,013,40,13,47,273,42*6D
$BDGSV,2,2,08,25,19,299,39,19,17,046,38,10,65,240,00,24,33,241,00*65
$LOGTIM,3,-1004.850242,-1141.448105,0.000000,0.000000,-65.111*13
EndT:        1
