FlashID=0x1 0x20 0x18
BBram_blkflag1:  8a9: f756
FW Ver: 1.30  
GPS00 Init Dop:   5000, 40
GPS01 Init Dop:   5000, 40
GPS02 Init Dop:   5000, 40
GPS03 Init Dop:   5000, 40
GPS04 Init Dop:   5000, 40
GPS05 Init Dop:   5000, 40
GPS06 Init Dop:   5000, 40
GPS07 Init Dop:   5000, 40
GPS08 Init Dop:   5000, 40
GPS09 Init Dop:   5000, 40
GPS10 Init Dop:   5000, 40
GPS11 Init Dop:   5000, 40
GPS12 Init Dop:   5000, 40
GPS13 Init Dop:   5000, 40
GPS14 Init Dop:   5000, 40
GPS15 Init Dop:   5000, 40
GPS16 Init Dop:   5000, 40
GPS17 Init Dop:   5000, 40
GPS18 Init Dop:   5000, 40
GPS19 Init Dop:   5000, 40
GPS20 Init Dop:   5000, 40
GPS21 Init Dop:   5000, 40
GPS22 Init Dop:   5000, 40
GPS23 Init Dop:   5000, 40
GPS24 Init Dop:   5000, 40
GPS25 Init Dop:   5000, 40
GPS26 Init Dop:   5000, 40
GPS27 Init Dop:   5000, 40
GPS28 Init Dop:   5000, 40
GPS29 Init Dop:   5000, 40
GPS30 Init Dop:   5000, 40
GPS31 Init Dop:   5000, 40
BDS00 Init Dop:   5000, 40
BDS01 Init Dop:   5000, 40
BDS02 Init Dop:   5000, 40
BDS03 Init Dop:   5000, 40
BDS04 Init Dop:   5000, 40
BDS05 Init Dop:   5000, 40
BDS06 Init Dop:   5000, 40
BDS07 Init Dop:   5000, 40
BDS08 Init Dop:   5000, 40
BDS09 Init Dop:   5000, 40
BDS10 Init Dop:   5000, 40
BDS11 Init Dop:   5000, 40
BDS12 Init Dop:   5000, 40
BDS13 Init Dop:   5000, 40
BDS14 Init Dop:   5000, 40
BDS15 Init Dop:   5000, 40
BDS16 Init Dop:   5000, 40
BDS17 Init Dop:   5000, 40
BDS18 Init Dop:   5000, 40
BDS19 Init Dop:   5000, 40
BDS20 Init Dop:   5000, 40
BDS21 Init Dop:   5000, 40
BDS22 Init Dop:   5000, 40
BDS23 Init Dop:   5000, 40
BDS24 Init Dop:   5000, 40
BDS25 Init Dop:   5000, 40
BDS26 Init Dop:   5000, 40
BDS27 Init Dop:   5000, 40
BDS28 Init Dop:   5000, 40
BDS29 Init Dop:   5000, 40
BDS30 Init Dop:   5000, 40
BDS31 Init Dop:   5000, 40
sat0 = 2929 1155 1174 -1000
sat0 = 17140 893 4501 1500
sat1 = 22656 1515 1192 1500
ch0 satid=1,max_freq = 1500,max_mean = 1192,max_phase = 1515,max_value = 22656,acq ok1!
sat2 = 3048 301 1194 -3000
sat2 = 19670 1087 4619 2750
sat3 = 5125 521 1201 0
ch1 satid=3,max_freq = 0,max_mean = 1201,max_phase = 521,max_value = 5125,acq ok1!
sat4 = 52873 919 1199 2000
ch2 satid=4,max_freq = 2000,max_mean = 1199,max_phase = 919,max_value = 52873,acq ok1!
sat5 = 11019 76 1182 -250
ch3 satid=5,max_freq = -250,max_mean = 1182,max_phase = 76,max_value = 11019,acq ok1!
sat6 = 2953 1164 1213 5000
sat6 = 12092 962 3963 250
sat7 = 2870 134 1172 -1000
sat7 = 13009 2040 4308 -3500
sat8 = 15048 1679 1194 -1500
ch4 satid=8,max_freq = -1500,max_mean = 1194,max_phase = 1679,max_value = 15048,acq ok1!
sat9 = 3051 309 1194 -2250
sat9 = 21595 1944 5183 4000
sat10 = 3046 1829 1194 1750
sat10 = 12899 1711 4071 -2250
sat11 = 15171 1382 1191 -1000
ch5 satid=11,max_freq = -1000,max_mean = 1191,max_phase = 1382,max_value = 15171,acq ok1!
sat12 = 3021 1359 1193 1500
sat12 = 14362 318 4588 1750
sat13 = 2940 478 1204 -500
sat13 = 10847 636 3768 -2500
sat14 = 3007 1348 1218 -4000
---00000001--- Acq_st=3 2019-5-27 11:33:54 
[00]  G02  1 22  -1635.3 2046003.9 -0.1  0.0  1  0         0
[01]  G04  1 23     68.2 2046000.8 -0.0  0.0  1  0         0
[02]  G05  1 26  -1954.6 2046003.5  0.1  0.0  1  0         0
[03]  G06  1 23    326.6 2046000.2 -0.0  0.0  1  0         0
[04]  G09  1  7   1403.6 2046001.5  0.0  0.0  1  0         0
[05]  G12  1  7   1027.9 2046000.8  0.0  0.0  1  0         0
src<tow snapfix
$GNGGA,000000.000,,,,,0,00,,,M,,,,0000*2B
$GNRMC,000000.000,A,,,,,,,060180,,*29
$GPGSA,A,1,,,,,,,,,,,,,,,*1E
$BDGSA,A,1,,,,,,,,,,,,,,,*0F
$LOGTIM,0,0.000000,0.000000,0.000000,0.000000,0.000*0A
EndT:        0
sat14 = 15095 1150 4394 -500
sat15 = 3242 1073 1176 1000
sat15 = 15080 80 4348 -2250
sat16 = 2848 917 1207 -3500
sat16 = 15168 1284 4913 5000
sat17 = 2875 1429 1191 5000
sat17 = 12997 411 4514 -4750
sat18 = 2921 279 1200 -4750
sat18 = 14502 91 4361 3500
sat19 = 3323 1702 1199 1500
sat19 = 18442 1852 4105 -3750
sat20 = 3297 976 1209 2250
sat20 = 14330 24 4558 -3750
sat21 = 3115 379 1185 -3750
sat21 = 16414 794 4742 -1500
sat22 = 13603 1308 1191 -2500
ch6 satid=22,max_freq = -2500,max_mean = 1191,max_phase = 1308,max_value = 13603,acq ok1!
sat23 = 3466 1540 1207 -250
sat23 = 11622 1132 3774 3750
sat24 = 4527 172 1184 750
sat24 = 13345 1837 4565 750
sat25 = 3196 881 1190 -3750
sat25 = 11986 1955 4286 2000
sat26 = 2948 890 1194 500
sat26 = 14036 1836 4636 4500
---00000002--- Acq_st=3 2019-5-27 11:33:55 
[00]  G02  7 29  -1645.7 2046002.1  0.5  1.0  5  0         9
[01]  G04  7 26     78.5 2045999.8  0.4  0.0 20  0         3
[02]  G05  7 26  -1956.9 2046002.5  0.5  0.0 20  0         1
[03]  G06  7 25    327.9 2045999.5  0.4  0.0 20  0        19
[04]  G09  7 16   1320.2 2045998.1  0.3  0.0 20  0        10
[05]  G12  1 30   1002.9 2045999.3  0.2  0.0  1  0         1
[06]  G23  1 12   2462.1 2045999.4  0.1  0.0  1  0         0
src<tow snapfix
$GNGGA,000000.000,,,,,0,00,,,M,,,,0000*2B
$GNRMC,000000.000,A,,,,,,,060180,,*29
$GPGSA,A,1,,,,,,,,,,,,,,,*1E
$BDGSA,A,1,,,,,,,,,,,,,,,*0F
$GPGSV,2,1,05,02,00,000,29,04,00,000,26,05,00,000,26,06,00,000,25*76
$GPGSV,2,2,05,09,00,000,16*42
$LOGTIM,0,0.000000,0.000000,0.000000,0.000000,0.000*0A
EndT:        0
sat27 = 3253 569 1174 1000
sat27 = 14134 21 3848 1750
sat28 = 2964 1575 1200 1750
sat28 = 14114 1858 4275 750
sat29 = 2919 108 1182 3000
sat29 = 14750 185 4771 1250
sat30 = 2957 291 1198 2000
sat30 = 13338 175 4419 4250
sat31 = 2948 831 1190 -2250
sat31 = 13049 1576 4620 4000
sat37 = 1705 1881 500 3500
sat37 = 1775 1854 505 3500
sat38 = 2114 2657 606 -1250
sat38 = 2080 2618 612 -4500
---00000003--- Acq_st=3 2019-5-27 11:33:56 
[00]  G02  7 43  -1645.9 2046002.1  1.0  1.0  5  0         5
[01]  G04  7 38     77.9 2045999.8  1.0  1.0  5  0         5
[02]  G05  7 47  -1957.1 2046002.5  1.0  1.0  5  0         6
[03]  G06  7 41    327.6 2045999.5  1.0  1.0  5  0         6
[04]  G09  7 41   1320.2 2045998.2  0.9  1.0  5  0         3
[05]  G12  7 38   1003.4 2045998.6  0.9  1.0  5  0         1
[06]  G23  7  7   2442.2 2045996.7  0.3  0.0 10  0         5
src<tow snapfix
$GNGGA,000000.000,,,,,0,00,,,M,,,,0000*2B
$GNRMC,000000.000,A,,,,,,,060180,,*29
$GPGSA,A,1,,,,,,,,,,,,,,,*1E
$BDGSA,A,1,,,,,,,,,,,,,,,*0F
$GPGSV,2,1,06,02,00,000,43,04,00,000,38,05,00,000,47,06,00,000,41*73
$GPGSV,2,2,06,09,00,000,41,12,00,000,38*7B
$LOGTIM,0,0.000000,0.000000,0.000000,0.000000,0.000*0A
EndT:        0
sat39 = 1626 811 553 4250
sat39 = 1582 2322 559 4250
sat40 = 1755 827 528 -1750
sat40 = 1717 4054 533 -2000
sat41 = 2656 3214 655 2000
ch16 satid=41,max_freq = 2000,max_mean = 655,max_phase = 3214,max_value = 2656,acq ok1!
sat42 = 1922 374 528 1000
sat42 = 1898 1293 532 1250
sat43 = 1446 2436 464 4750
---00000004--- Acq_st=3 2019-5-27 11:33:57 
[00]  G02  7 44  -1643.1 2046002.1  1.0  1.0  5  0         5
[01]  G04  7 38     82.1 2045999.9  1.0  1.0  5  0         5
[02]  G05  7 47  -1953.9 2046002.5  1.0  1.0  5  0         6
[03]  G06  7 41    330.9 2045999.5  1.0  1.0  5  0         6
[04]  G09  7 42   1323.4 2045998.2  1.0  1.0  5  0         3
[05]  G12  7 42   1006.4 2045998.6  1.0  1.0  5  0         0
[06]  G23  7 42   2444.6 2045996.8  0.9  1.0  5  0        12
[16]  B05  1 30  -2064.8 4092005.7 -0.1  0.0  1  0         0
src<tow snapfix
$GNGGA,000000.000,,,,,0,00,,,M,,,,0000*2B
$GNRMC,000000.000,A,,,,,,,060180,,*29
$GPGSA,A,1,,,,,,,,,,,,,,,*1E
$BDGSA,A,1,,,,,,,,,,,,,,,*0F
$GPGSV,2,1,07,02,00,000,44,04,00,000,38,05,00,000,47,06,00,000,41*75
$GPGSV,2,2,07,09,00,000,42,12,00,000,42,23,00,000,42*43
$LOGTIM,0,0.000000,0.000000,0.000000,0.000000,0.000*0A
EndT:        1
sat43 = 1442 3208 468 5000
sat44 = 6375 2841 578 750
ch17 satid=44,max_freq = 750,max_mean = 578,max_phase = 2841,max_value = 6375,acq ok1!
sat45 = 2261 1369 541 3250
ch18 satid=45,max_freq = 3250,max_mean = 541,max_phase = 1369,max_value = 2261,acq ok1!
sat46 = 1606 1282 525 -2000
sat46 = 1776 3783 528 -4750
sat47 = 1892 630 506 750
sat47 = 1692 695 510 750
sat48 = 1888 2376 580 -1250
---00000005--- Acq_st=3 2019-5-27 11:33:58 
[00]  G02  7 44  -1642.3 2046002.1  1.0  1.0  5  0         5
[01]  G04  7 38     83.3 2045999.8  1.0  1.0  5  0         5
[02]  G05  7 47  -1952.5 2046002.5  1.0  1.0  5  0         6
[03]  G06  7 41    331.8 2045999.5  1.0  1.0  5  0         6
[04]  G09  7 42   1325.0 2045998.2  1.0  1.0  5  0         3
[05]  G12  7 42   1008.1 2045998.6  1.0  1.0  5  0         0
[06]  G23  7 43   2446.2 2045996.8  1.0  1.0  5  0        12
[16]  B05  1 31  -2005.0 4092005.2 -0.1  0.0  1  0       470
[17]  B08  1  7   -780.6 4092003.1  0.0  0.0  1  0         0
[18]  B09  1  7  -3164.4 4092007.8  0.0  0.0  1  0         0
sat48 = 2062 3107 586 3750
src<tow snapfix
$GNGGA,000000.000,,,,,0,00,,,M,,,,0000*2B
$GNRMC,000000.000,A,,,,,,,060180,,*29
$GPGSA,A,1,,,,,,,,,,,,,,,*1E
$BDGSA,A,1,,,,,,,,,,,,,,,*0F
$GPGSV,2,1,07,02,00,000,44,04,00,000,38,05,00,000,47,06,00,000,41*75
$GPGSV,2,2,07,09,00,000,42,12,00,000,42,23,00,000,43*42
$LOGTIM,0,0.000000,0.000000,0.000000,0.000000,0.000*0A
EndT:        1
sat49 = 3729 3121 674 1000
ch19 satid=49,max_freq = 1000,max_mean = 674,max_phase = 3121,max_value = 3729,acq ok1!
sat50 = 6818 3647 623 500
ch20 satid=50,max_freq = 500,max_mean = 623,max_phase = 3647,max_value = 6818,acq ok1!
sat51 = 1992 1528 571 3000
sat51 = 1786 3581 576 3000
sat52 = 1890 2248 580 3500
sat52 = 1833 4028 585 4000
sat53 = 1817 2208 553 2000
sat53 = 1862 3686 558 -1000
---00000006--- Acq_st=3 2019-5-27 11:33:59 
[00]  G02  7 43  -1638.6 2046002.2  1.0  1.0  5  0         5
[01]  G04  7 39     87.8 2045999.9  1.0  1.0  5  0         5
[02]  G05  7 47  -1948.8 2046002.5  1.0  1.0  5  0         6
[03]  G06  7 42    335.6 2045999.5  1.0  1.0  5  0         6
[04]  G09  7 42   1328.6 2045998.3  1.0  1.0  5  0         3
[05]  G12  7 42   1012.2 2045998.6  1.0  1.0  5  0         0
[06]  G23  7 42   2449.7 2045996.8  1.0  1.0  5  0        12
[16]  B05  1 31  -1986.8 4092006.0 -0.2  0.0  1  0      1470
[17]  B08  7 29   -776.6 4092002.0  0.5  1.0  5  0       855
[18]  B09  1  7  -3012.2 4092008.4  0.0  0.0  1  0       730
[19]  B13  1  7   -847.2 4092002.4 -0.0  0.0  1  0         0
[20]  B14  1 29   -534.3 4092002.4 -0.2  0.0  1  0         0
src<tow snapfix
$GNGGA,000000.000,,,,,0,00,,,M,,,,0000*2B
$GNRMC,000000.000,A,,,,,,,060180,,*29
$GPGSA,A,1,,,,,,,,,,,,,,,*1E
$BDGSA,A,1,,,,,,,,,,,,,,,*0F
$GPGSV,2,1,07,02,00,000,43,04,00,000,39,05,00,000,47,06,00,000,42*70
$GPGSV,2,2,07,09,00,000,42,12,00,000,42,23,00,000,42*43
$BDGSV,1,1,01,08,00,000,29*5A
$LOGTIM,0,0.000000,0.000000,0.000000,0.000000,0.000*0A
EndT:        0
sat54 = 2022 2646 602 -4500
sat54 = 1990 2555 606 -4500
sat55 = 1655 3042 559 -3000
sat55 = 1642 1880 565 -3000
sat56 = 1800 1491 556 2000
sat56 = 1874 3005 562 1750
sat57 = 7875 867 467 -2000
ch21 satid=57,max_freq = -2000,max_mean = 467,max_phase = 867,max_value = 7875,acq ok1!
sat58 = 1426 4007 471 750
---00000007--- Acq_st=3 2019-5-27 11:34:0 
[00]  G02  7 43  -1642.9 2046002.2  1.0  1.0  5  0         5
[01]  G04  7 39     84.3 2045999.8  1.0  1.0  5  0         5
[02]  G05  7 47  -1952.5 2046002.5  1.0  1.0  5  0         6
[03]  G06  7 42    331.2 2045999.5  1.0  1.0  5  0         6
[04]  G09  7 42   1325.2 2045998.2  1.0  1.0  5  0         3
[05]  G12  7 42   1008.4 2045998.7  1.0  1.0  5  0         0
[06]  G23  7 42   2445.9 2045996.8  1.0  1.0  5  0        12
[17]  B08  7 41   -781.8 4092002.1  1.0  1.0  5  0      1836
[18]  B09  1  9  -2989.1 4092008.0  0.1  0.0  1  0      1730
[19]  B13  7 29   -852.8 4092002.2  0.3  1.0 10  0       870
[20]  B14  7 27   -536.9 4092001.3  0.3  0.0 10  0       745
[21]  B21  1  7   1999.2 4091996.1  0.0  0.0  1  0         0
src<tow snapfix
$GNGGA,000000.000,,,,,0,00,,,M,,,,0000*2B
$GNRMC,000000.000,A,,,,,,,060180,,*29
$GPGSA,A,1,,,,,,,,,,,,,,,*1E
$BDGSA,A,1,,,,,,,,,,,,,,,*0F
$GPGSV,2,1,07,02,00,000,43,04,00,000,39,05,00,000,47,06,00,000,42*70
$GPGSV,2,2,07,09,00,000,42,12,00,000,42,23,00,000,42*43
$BDGSV,1,1,03,08,00,000,41,13,00,000,29,14,00,000,27*5F
$LOGTIM,0,0.000000,0.000000,0.000000,0.000000,0.000*0A
EndT:        0
sat58 = 1397 4071 475 750
sat59 = 2067 3671 598 2000
sat59 = 1902 2702 604 4250
sat60 = 1894 2309 544 4250
sat60 = 2061 2373 548 4500
sat61 = 1434 3790 484 -4750
sat61 = 1460 1532 489 -4750
sat62 = 1656 1174 511 5000
---00000008--- Acq_st=3 2019-5-27 11:34:1 
[00]  G02  f 43  -1647.3 2046002.1  1.0  1.0  5  0         5
[01]  G04  f 39     80.3 2045999.9  1.0  1.0  5  0         5
[02]  G05  f 46  -1956.7 2046002.5  1.0  1.0  5  0         6
[03]  G06  f 41    327.4 2045999.6  1.0  1.0  5  0         6
[04]  G09  f 42   1321.0 2045998.2  1.0  1.0  5  0         3
[05]  G12  f 42   1004.4 2045998.7  1.0  1.0  5  0         0
[06]  G23  f 42   2442.0 2045996.8  1.0  1.0  5  0        12
[17]  B08  7 41   -786.1 4092002.0  1.0  1.0  5  0      2836
[19]  B13  7 37   -857.3 4092002.3  0.9  1.0  5  0      1853
[20]  B14  7 40   -541.1 4092001.4  0.8  1.0  5  0      1745
[21]  B21  1  7   1946.0 4091994.9  0.1  0.0  1  0       147
src>tow meas_num=11
src>=tow snapfix
$GNGGA,113401.387,,,,,0,00,,,M,,,,0000*21
$GNRMC,113401.387,A,,,,,,,270519,,*24
$GPGSA,A,1,,,,,,,,,,,,,,,*1E
$BDGSA,A,1,,,,,,,,,,,,,,,*0F
$GPGSV,2,1,07,02,00,000,43,04,00,000,39,05,00,000,46,06,00,000,41*72
$GPGSV,2,2,07,09,00,000,42,12,00,000,42,23,00,000,42*43
$BDGSV,1,1,03,08,00,000,41,13,00,000,37,14,00,000,40*51
$LOGTIM,0,0.000000,0.000000,0.000000,0.000000,0.000*0A
EndT:        0
sat62 = 1656 1174 514 5000
sat63 = 2293 1566 543 5000
ch18 satid=63,max_freq = 5000,max_mean = 543,max_phase = 1566,max_value = 2293,acq ok1!
sat64 = 3238 1713 655 3500
ch22 satid=64,max_freq = 3500,max_mean = 655,max_phase = 1713,max_value = 3238,acq ok1!
sat65 = 2347 2966 608 0
sat65 = 2350 3030 614 0
sat66 = 1648 2361 518 -1250
sat66 = 1634 2355 524 -1250
sat67 = 1925 1363 528 4000
---00000009--- Acq_st=3 2019-5-27 11:34:2 
[00]  G02  f 43  -1647.7 2046002.1  1.0  1.0  5  0 128059285
[01]  G04  f 39     79.8 2045999.9  1.0  1.0  5  0 128059285
[02]  G05  f 46  -1956.8 2046002.6  1.0  1.0  5  0 128059286
[03]  G06  f 42    327.2 2045999.6  1.0  1.0  5  0 128059286
[04]  G09  f 41   1321.5 2045998.3  1.0  1.0  5  0 128059283
[05]  G12  f 43   1004.0 2045998.6  1.0  1.0  5  0 128059280
[06]  G23  f 42   2441.2 2045996.8  1.0  1.0  5  0 128059272
[16]  B26  1  7  -4961.7 4092012.8  0.0  0.0  1  0      2470
[17]  B08  7 41   -786.4 4092002.1  1.0  1.0  5  0      3836
[18]  B27  1  7  -5210.8 4092013.4 -0.1  0.0  1  0      2730
[19]  B13  7 38   -857.8 4092002.2  1.0  1.0  5  0      2853
[20]  B14  7 40   -541.2 4092001.4  1.0  0.9  5  0      2745
[21]  B21  7 34   1945.2 4091994.9  0.8  1.0  5  0      1147
[22]  B28  1 10  -3404.3 4092007.8 -0.0  0.0  1  0         0
src>tow meas_num=14
src>=tow snapfix
$GNGGA,113402.387,,,,,0,00,,,M,,,,0000*22
$GNRMC,113402.387,A,,,,,,,270519,,*27
$GPGSA,A,1,,,,,,,,,,,,,,,*1E
$BDGSA,A,1,,,,,,,,,,,,,,,*0F
$GPGSV,2,1,07,02,00,000,43,04,00,000,39,05,00,000,46,06,00,000,42*71
$GPGSV,2,2,07,09,00,000,41,12,00,000,43,23,00,000,42*41
$BDGSV,1,1,04,08,00,000,41,13,00,000,38,14,00,000,40,21,00,000,34*6D
$LOGTIM,0,0.000000,0.000000,0.000000,0.000000,0.000*0A
EndT:        0
sat67 = 1667 3493 534 -4500
sat68 = 2149 3209 629 2250
sat68 = 2143 2140 636 -1750
---00000010--- Acq_st=7 2019-5-27 11:34:3 
[00]  G02  f 43  -1646.4 2046002.2  1.0  1.0  5  0 128060285
[01]  G04  f 39     82.1 2045999.9  1.0  1.0  5  0 128060285
[02]  G05  f 46  -1955.1 2046002.5  1.0  1.0  5  0 128060286
[03]  G06  f 41    327.8 2045999.6  1.0  1.0  5  0 128060286
[04]  G09  f 42   1322.9 2045998.3  1.0  1.0  5  0 128060283
[05]  G12  f 42   1005.9 2045998.7  1.0  1.0  5  0 128060280
[06]  G23  f 42   2442.3 2045996.8  1.0  1.0  5  0 128060272
[16]  B26  1  7  -5000.3 4092012.9  0.1  0.0  1  0       918
[17]  B08 1f 40   -785.6 4092002.0  1.0  1.0  5  0      4836
[18]  B27  1  7  -5012.4 4092013.3 -0.2  0.0  1  0       794
[19]  B13 1f 38   -856.9 4092002.3  1.0  1.0  5  0      3853
[20]  B14 1f 40   -539.6 4092001.4  1.0  1.0  5  0      3745
[21]  B21 1f 40   1946.5 4091994.9  1.0  1.0  5  0      2140
[22]  B28  7 25  -3385.5 4092008.9  0.3  0.0 20  0       670
src>tow meas_num=14
src>=tow snapfix
$GNGGA,113403.387,,,,,0,00,,,M,,,,0000*23
$GNRMC,113403.387,A,,,,,,,270519,,*26
$GPGSA,A,1,,,,,,,,,,,,,,,*1E
$BDGSA,A,1,,,,,,,,,,,,,,,*0F
$GPGSV,2,1,07,02,00,000,43,04,00,000,39,05,00,000,46,06,00,000,41*72
$GPGSV,2,2,07,09,00,000,42,12,00,000,42,23,00,000,42*43
$BDGSV,2,1,05,08,00,000,40,13,00,000,38,14,00,000,40,21,00,000,40*6D
$BDGSV,2,2,05,28,00,000,25*50
$LOGTIM,0,0.000000,0.000000,0.000000,0.000000,0.000*0A
EndT:        0
sat0 = 11185 280 4199 4500
sat0 = 15054 1185 4570 1250
sat2 = 11891 1065 4251 4500
sat2 = 18037 891 4663 2750
sat6 = 10962 841 4376 -3500
sat6 = 11242 2026 4057 500
sat7 = 10358 1311 4179 -2000
sat7 = 13093 525 4357 4500
sat9 = 11355 757 4301 -1500
sat9 = 21254 667 5234 4000
sat10 = 9976 1875 4277 -4750
sat10 = 12367 458 4149 -2250
sat12 = 11316 363 4289 -3000
sat12 = 13803 1832 4649 4750
sat13 = 11196 888 4333 4500
sat13 = 11186 1944 3834 -2750
sat14 = 10371 1656 4369 -3750
sat14 = 13440 1674 4457 -500
sat15 = 11364 217 4211 -3750
sat15 = 14065 2037 4403 -2250
sat16 = 11496 2 4308 3250
sat16 = 17171 1902 4965 4750
sat17 = 11023 451 4233 1000
---00000011--- Acq_st=3 2019-5-27 11:34:4 
[00]  G02  f 43  -1648.4 2046002.1  1.0  1.0  5  0 128061285
[01]  G04  f 39     80.7 2045999.9  1.0  1.0  5  0 128061285
[02]  G05  f 46  -1956.7 2046002.5  1.0  1.0  5  0 128061286
[03]  G06  f 41    326.1 2045999.6  1.0  1.0  5  0 128061286
[04]  G09  f 42   1321.6 2045998.3  1.0  1.0  5  0 128061283
[05]  G12  f 42   1004.5 2045998.7  1.0  1.0  5  0 128061280
[06]  G23  f 42   2440.7 2045996.8  1.0  1.0  5  0 128061272
[16]  B26  1  7  -5070.4 4092013.1 -0.0  0.0  1  0      1918
[17]  B08 1f 41   -787.5 4092002.1  1.0  1.0  5  0 128047236
[18]  B27  1  7  -5048.3 4092013.2 -0.1  0.0  1  0      1794
[19]  B13 1f 38   -858.3 4092002.2  1.0  1.0  5  0 128047233
[20]  B14 1f 40   -541.0 4092001.4  1.0  1.0  5  0 128047285
[21]  B21 1f 40   1945.3 4091994.9  1.0  1.0  5  0 128047280
[22]  B28  7 38  -3386.7 4092008.9  0.8  1.0  5  0      1668
sat17 = 12750 1065 4575 -4750
src>tow meas_num=14
src>=tow snapfix
$GNGGA,113404.387,,,,,0,00,,,M,,,,0000*24
$GNRMC,113404.387,A,,,,,,,270519,,*21
$GPGSA,A,1,,,,,,,,,,,,,,,*1E
$BDGSA,A,1,,,,,,,,,,,,,,,*0F
$GPGSV,2,1,07,02,00,000,43,04,00,000,39,05,00,000,46,06,00,000,41*72
$GPGSV,2,2,07,09,00,000,42,12,00,000,42,23,00,000,42*43
$BDGSV,2,1,05,08,00,000,41,13,00,000,38,14,00,000,40,21,00,000,40*6C
$BDGSV,2,2,05,28,00,000,38*5C
$LOGTIM,0,0.000000,0.000000,0.000000,0.000000,0.000*0A
EndT:        0
sat18 = 11363 384 4327 -2250
sat18 = 13943 382 4424 3500
sat19 = 10533 693 4327 4500
sat19 = 16774 1752 4189 -3500
sat20 = 11677 696 4381 4000
sat20 = 12489 445 4623 -2250
sat21 = 11040 345 4252 -500
sat21 = 17649 464 4794 -1500
sat23 = 11540 26 4345 750
sat23 = 11124 1609 3866 -1000
sat24 = 37059 1870 4225 500
ch7 satid=24,max_freq = 500,max_mean = 4225,max_phase = 1870,max_value = 37059,acq ok1!
sat25 = 11772 1735 4264 1000
sat25 = 11823 1795 4336 4750
sat26 = 10946 712 4244 1000
sat26 = 14404 1397 4677 1250
sat27 = 10668 339 4184 2250
sat27 = 14156 605 3906 1500
sat28 = 10565 789 4306 -3500
sat28 = 13035 1102 4338 500
sat29 = 11580 147 4203 750
sat29 = 15039 412 4821 1250
sat30 = 10879 289 4307 -1250
sat30 = 13881 1734 4496 4250
---00000012--- Acq_st=3 2019-5-27 11:34:5 
[00]  G02  f 43  -1648.7 2046002.1  1.0  1.0  5  0 128062285
[01]  G04  f 39     80.9 2045999.9  1.0  1.0  5  0 128062285
[02]  G05  f 46  -1956.7 2046002.5  1.0  1.0  5  0 128062286
[03]  G06  f 41    326.3 2045999.6  1.0  1.0  5  0 128062286
[04]  G09  f 42   1321.6 2045998.3  1.0  1.0  5  0 128062283
[05]  G12  f 42   1004.2 2045998.7  1.0  1.0  5  0 128062280
[06]  G23  f 42   2440.8 2045996.8  1.0  1.0  5  0 128062272
[07]  G25  1  7   -564.5 2046002.4 -0.0  0.0  1  0         0
[17]  B08 1f 40   -787.7 4092002.1  1.0  1.0  5  0 128048236
[19]  B13 1f 38   -859.4 4092002.2  1.0  1.0  5  0 128048233
[20]  B14 1f 40   -541.2 4092001.4  1.0  1.0  5  0 128048285
[21]  B21 1f 40   1944.6 4091994.9  1.0  1.0  5  0 128048280
[22]  B28  7 37  -3387.7 4092008.9  1.0  1.0  5  0      2668
sat31 = 10938 571 4287 1500
src>tow meas_num=13
src>=tow snapfix
$GNGGA,113405.387,,,,,0,00,,,M,,,,0000*25
$GNRMC,113405.387,A,,,,,,,270519,,*20
$GPGSA,A,1,,,,,,,,,,,,,,,*1E
$BDGSA,A,1,,,,,,,,,,,,,,,*0F
$GPGSV,2,1,07,02,00,000,43,04,00,000,39,05,00,000,46,06,00,000,41*72
$GPGSV,2,2,07,09,00,000,42,12,00,000,42,23,00,000,42*43
$BDGSV,2,1,05,08,00,000,40,13,00,000,38,14,00,000,40,21,00,000,40*6D
$BDGSV,2,2,05,28,00,000,37*53
$LOGTIM,0,0.000000,0.000000,0.000000,0.000000,0.000*0A
EndT:        0
sat31 = 13068 457 4684 1250
sat37 = 1702 100 510 3500
sat37 = 1944 2727 515 3500
sat38 = 2203 3333 619 -1250
sat38 = 2269 2056 623 -1250
sat39 = 1601 147 564 4500
sat39 = 1723 3411 569 -4000
sat40 = 1893 3888 540 -4500
---00000013--- Acq_st=3 2019-5-27 11:34:6 
[00]  G02  f 43  -1648.4 2046002.2  1.0  1.0  5  0 128063285
[01]  G04  f 39     81.2 2045999.9  1.0  1.0  5  0 128063285
[02]  G05  f 46  -1956.5 2046002.5  1.0  1.0  5  0 128063286
[03]  G06  f 42    326.8 2045999.6  1.0  1.0  5  0 128063286
[04]  G09  f 42   1322.5 2045998.3  1.0  1.0  5  0 128063283
[05]  G12  f 43   1005.0 2045998.7  1.0  1.0  5  0 128063280
[06]  G23  f 43   2440.8 2045996.8  1.0  1.0  5  0 128063272
[07]  G25  1 30   -615.3 2046001.1  0.1  0.0  1  0        14
[17]  B08 1f 41   -787.6 4092002.0  1.0  1.0  5  0 128049236
[19]  B13 1f 38   -859.1 4092002.3  1.0  1.0  5  0 128049233
[20]  B14 1f 40   -540.4 4092001.4  1.0  1.0  5  0 128049285
[21]  B21 1f 40   1945.0 4091994.9  1.0  1.0  5  0 128049280
[22]  B28  7 37  -3387.7 4092008.9  1.0  1.0  5  0      3668
src>tow meas_num=13
src>=tow snapfix
$GNGGA,113406.387,,,,,0,00,,,M,,,,0000*26
$GNRMC,113406.387,A,,,,,,,270519,,*23
$GPGSA,A,1,,,,,,,,,,,,,,,*1E
$BDGSA,A,1,,,,,,,,,,,,,,,*0F
$GPGSV,2,1,07,02,00,000,43,04,00,000,39,05,00,000,46,06,00,000,42*71
$GPGSV,2,2,07,09,00,000,42,12,00,000,43,23,00,000,43*43
$BDGSV,2,1,05,08,00,000,41,13,00,000,38,14,00,000,40,21,00,000,40*6C
$BDGSV,2,2,05,28,00,000,37*53
$LOGTIM,0,0.000000,0.000000,0.000000,0.000000,0.000*0A
EndT:        0
sat40 = 1802 713 544 -4500
sat41 = 2528 2591 664 2250
sat41 = 2676 220 669 2000
sat42 = 1921 441 540 1000
sat42 = 2142 2436 543 1000
sat43 = 1556 1447 473 5000
sat43 = 1556 1447 476 5000
sat45 = 2024 1429 549 3000
---00000014--- Acq_st=3 2019-5-27 11:34:7 
[00]  G02  f 43  -1650.0 2046002.1  1.0  1.0  5  0 128064285
[01]  G04  f 39     81.2 2045999.9  1.0  1.0  5  0 128064285
[02]  G05  f 46  -1957.6 2046002.5  1.0  1.0  5  0 128064286
[03]  G06  f 42    325.5 2045999.5  1.0  1.0  5  0 128064286
[04]  G09  f 42   1321.6 2045998.3  1.0  1.0  5  0 128064283
[05]  G12  f 43   1004.6 2045998.7  1.0  1.0  5  0 128064280
[06]  G23  f 42   2440.0 2045996.9  1.0  1.0  5  0 128064272
[07]  G25  7 22   -615.4 2046000.8  0.7  0.0 20  0        14
[16]  B07  1  7  -4976.0 4092012.5  0.0  0.0  1  0      2918
[17]  B08 1f 40   -789.0 4092002.0  1.0  1.0  5  0 128050236
[19]  B13 1f 38   -860.4 4092002.2  1.0  1.0  5  0 128050233
[20]  B14 1f 40   -541.3 4092001.4  1.0  1.0  5  0 128050285
[21]  B21 1f 40   1944.1 4091994.9  1.0  1.0  5  0 128050280
[22]  B28  7 37  -3389.2 4092008.9  1.0  0.9  5  0      4668
src>tow meas_num=14
src>=tow snapfix
$GNGGA,113407.387,,,,,0,00,,,M,,,,0000*27
$GNRMC,113407.387,A,,,,,,,270519,,*22
$GPGSA,A,1,,,,,,,,,,,,,,,*1E
$BDGSA,A,1,,,,,,,,,,,,,,,*0F
$GPGSV,2,1,08,02,00,000,43,04,00,000,39,05,00,000,46,06,00,000,42*7E
$GPGSV,2,2,08,09,00,000,42,12,00,000,43,23,00,000,42,25,00,000,22*7A
$BDGSV,2,1,05,08,00,000,40,13,00,000,38,14,00,000,40,21,00,000,40*6D
$BDGSV,2,2,05,28,00,000,37*53
$LOGTIM,0,0.000000,0.000000,0.000000,0.000000,0.000*0A
EndT:        0
sat45 = 2044 3257 552 3250
sat46 = 1875 2837 533 -2000
sat46 = 1821 285 538 -2000
sat47 = 3388 620 516 1000
ch18 satid=47,max_freq = 1000,max_mean = 516,max_phase = 620,max_value = 3388,acq ok1!
sat48 = 2010 1501 589 3250
sat48 = 2055 4083 593 3500
sat51 = 1992 2187 581 3250
sat51 = 1992 3593 586 3000
---00000015--- Acq_st=3 2019-5-27 11:34:8 
[00]  G02  f 43  -1649.2 2046002.1  1.0  1.0  5  0 128065285
[01]  G04  f 38     82.3 2045999.9  1.0  1.0  5  0 128065285
[02]  G05  f 46  -1956.6 2046002.5  1.0  1.0  5  0 128065286
[03]  G06  f 41    325.6 2045999.6  1.0  1.0  5  0 128065286
[04]  G09  f 42   1322.7 2045998.3  1.0  1.0  5  0 128065283
[05]  G12  f 43   1005.2 2045998.7  1.0  1.0  5  0 128065280
[06]  G23  f 42   2440.2 2045996.8  1.0  1.0  5  0 128065272
[07]  G25  7 38   -614.7 2046000.7  0.6  1.0  5  0        14
[16]  B07  1  7  -4994.9 4092013.2 -0.0  0.0  1  0       212
[17]  B08 1f 40   -789.1 4092002.1  1.0  1.0  5  0 128051236
[18]  B11  1  7   -944.8 4092003.2 -0.1  0.0  1  0      2794
[19]  B13 1f 38   -860.4 4092002.2  1.0  1.0  5  0 128051233
[20]  B14 1f 40   -540.7 4092001.4  1.0  1.0  5  0 128051285
[21]  B21 1f 40   1944.7 4091994.9  1.0  1.0  5  0 128051280
[22]  B28  7 37  -3388.5 4092008.8  1.0  1.0  5  0      5668
sat52 = 1974 318 588 4000
src>tow meas_num=15
src>=tow snapfix
$GNGGA,113408.387,,,,,0,00,,,M,,,,0000*28
$GNRMC,113408.387,A,,,,,,,270519,,*2D
$GPGSA,A,1,,,,,,,,,,,,,,,*1E
$BDGSA,A,1,,,,,,,,,,,,,,,*0F
$GPGSV,2,1,08,02,00,000,43,04,00,000,38,05,00,000,46,06,00,000,41*7C
$GPGSV,2,2,08,09,00,000,42,12,00,000,43,23,00,000,42,25,00,000,38*71
$BDGSV,2,1,05,08,00,000,40,13,00,000,38,14,00,000,40,21,00,000,40*6D
$BDGSV,2,2,05,28,00,000,37*53
$LOGTIM,0,0.000000,0.000000,0.000000,0.000000,0.000*0A
EndT:        0
sat52 = 1821 3493 590 4000
sat53 = 1865 595 563 -1000
sat53 = 1802 595 567 -1250
sat54 = 2152 2669 614 -4500
sat54 = 1952 1135 618 500
sat55 = 1640 3727 568 -3000
sat55 = 1702 3424 574 1250
---00000016--- Acq_st=3 2019-5-27 11:34:9 
[00]  G02  f 43  -1643.1 2046002.1  1.0  1.0  5  0 128066285
[01]  G04  f 38     88.5 2045999.9  1.0  1.0  5  0 128066285
[02]  G05  f 45  -1950.2 2046002.5  1.0  1.0  5  0 128066286
[03]  G06  f 41    332.5 2045999.6  1.0  1.0  5  0 128066286
[04]  G09  f 42   1329.3 2045998.3  1.0  1.0  5  0 128066283
[05]  G12  f 43   1011.5 2045998.7  1.0  1.0  5  0 128066280
[06]  G23  f 42   2447.1 2045996.8  1.0  1.0  5  0 128066272
[07]  G25  7 37   -608.2 2046000.7  1.0  1.0  5  0        14
[16]  B07  1  7  -4938.4 4092012.7 -0.0  0.0  1  0      1212
[17]  B08 1f 40   -783.3 4092002.1  1.0  1.0  5  0 128052236
[18]  B11  7 21   -968.6 4092002.7 -0.0  0.0 20  0       597
[19]  B13 1f 38   -854.5 4092002.2  1.0  1.0  5  0 128052233
[20]  B14 1f 39   -534.2 4092001.4  1.0  1.0  5  0 128052285
[21]  B21 1f 41   1950.4 4091994.8  1.0  1.0  5  0 128052280
[22]  B28 1f 37  -3382.6 4092008.8  1.0  1.0  5  0      6668
[23]  B17  1  7   1109.8 4091997.1 -0.2  0.0  1  0         0
sat56 = 2380 2269 566 -250
ch24 satid=56,max_freq = -250,max_mean = 566,max_phase = 2269,max_value = 2380,acq ok1!
src>tow meas_num=16
src>=tow snapfix
$GNGGA,113409.387,,,,,0,00,,,M,,,,0000*29
$GNRMC,113409.387,A,,,,,,,270519,,*2C
$GPGSA,A,1,,,,,,,,,,,,,,,*1E
$BDGSA,A,1,,,,,,,,,,,,,,,*0F
$GPGSV,2,1,08,02,00,000,43,04,00,000,38,05,00,000,45,06,00,000,41*7F
$GPGSV,2,2,08,09,00,000,42,12,00,000,43,23,00,000,42,25,00,000,37*7E
$BDGSV,2,1,06,08,00,000,40,11,00,000,21,13,00,000,38,14,00,000,39*64
$BDGSV,2,2,06,21,00,000,41,28,00,000,37*66
$LOGTIM,0,0.000000,0.000000,0.000000,0.000000,0.000*0A
EndT:        0
sat58 = 1310 1558 480 3000
sat58 = 1625 1488 483 3250
sat59 = 1929 658 611 4250
sat59 = 2047 1582 615 2000
sat60 = 1933 3783 555 4250
sat60 = 1916 2134 559 4500
sat61 = 1772 3031 492 -4750
---00000017--- Acq_st=3 2019-5-27 11:34:10 
[00]  G02  f 43  -1640.9 2046002.1  1.0  1.0  5  0 128067285
[01]  G04  f 38     91.9 2045999.9  1.0  1.0  5  0 128067285
[02]  G05  f 45  -1947.7 2046002.5  1.0  1.0  5  0 128067286
[03]  G06  f 41    334.7 2045999.6  1.0  1.0  5  0 128067286
[04]  G09  f 43   1331.7 2045998.2  1.0  1.0  5  0 128067283
[05]  G12  f 43   1014.4 2045998.7  1.0  1.0  5  0 128067280
[06]  G23  f 42   2449.4 2045996.8  1.0  1.0  5  0 128067272
[07]  G25  7 37   -605.3 2046000.8  1.0  1.0  5  0        14
[16]  B07  1 13  -4941.1 4092013.3 -0.1  0.0  1  0      2212
[17]  B08 1f 40   -780.7 4092002.0  1.0  1.0  5  0 128053236
[18]  B11  7 32   -965.6 4092002.6  0.6  0.9  5  0      1585
[19]  B13 1f 38   -852.1 4092002.2  1.0  1.0  5  0 128053233
[20]  B14 1f 40   -531.7 4092001.4  1.0  1.0  5  0 128053285
[21]  B21 1f 41   1953.3 4091994.8  1.0  1.0  5  0 128053280
[22]  B28 1f 37  -3380.6 4092008.8  1.0  1.0  5  0 128053268
[23]  B17  1  7    993.1 4091997.1 -0.1  0.0  1  0       614
[24]  B20  1 10     26.5 4092000.0 -0.0  0.0  1  0         0
sat61 = 1475 3803 496 -2250
src>tow meas_num=17
src>=tow snapfix
$GNGGA,113410.387,,,,,0,00,,,M,,,,0000*21
$GNRMC,113410.387,A,,,,,,,270519,,*24
$GPGSA,A,1,,,,,,,,,,,,,,,*1E
$BDGSA,A,1,,,,,,,,,,,,,,,*0F
$GPGSV,2,1,08,02,00,000,43,04,00,000,38,05,00,000,45,06,00,000,41*7F
$GPGSV,2,2,08,09,00,000,43,12,00,000,43,23,00,000,42,25,00,000,37*7F
$BDGSV,2,1,06,08,00,000,40,11,00,000,32,13,00,000,38,14,00,000,40*68
$BDGSV,2,2,06,21,00,000,41,28,00,000,37*66
$LOGTIM,0,0.000000,0.000000,0.000000,0.000000,0.000*0A
EndT:        1
sat65 = 2341 2882 618 0
sat65 = 2387 216 623 0
sat66 = 1778 2363 527 -1250
sat66 = 1729 1134 532 -1250
sat67 = 1778 1897 540 -4500
sat67 = 1634 1571 544 -4500
sat68 = 1977 3617 635 -1750
sat68 = 2264 2749 642 2000
---00000018--- Acq_st=7 2019-5-27 11:34:11 
[00]  G02  f 43  -1647.4 2046002.2  1.0  1.0  5  0 128068285
[01]  G04  f 38     85.4 2045999.9  1.0  1.0  5  0 128068285
[02]  G05  f 45  -1953.6 2046002.6  1.0  1.0  5  0 128068286
[03]  G06  f 41    328.4 2045999.5  1.0  1.0  5  0 128068286
[04]  G09  f 43   1325.7 2045998.3  1.0  1.0  5  0 128068283
[05]  G12  f 43   1008.5 2045998.7  1.0  1.0  5  0 128068280
[06]  G23  f 41   2443.4 2045996.8  1.0  1.0  5  0 128068272
[07]  G25  7 38   -610.5 2046000.8  1.0  1.0  5  0        14
[17]  B08 1f 40   -786.9 4092002.1  1.0  1.0  5  0 128054236
[18]  B11  7 32   -972.3 4092002.6  1.0  1.0  5  0      2585
[19]  B13 1f 38   -858.4 4092002.2  1.0  1.0  5  0 128054233
[20]  B14 1f 39   -537.2 4092001.4  1.0  1.0  5  0 128054285
[21]  B21 1f 41   1947.1 4091994.9  1.0  1.0  5  0 128054280
[22]  B28 1f 37  -3386.7 4092008.9  1.0  1.0  5  0 128054268
[23]  B17  1  7    935.7 4091997.3 -0.2  0.0  1  0      1614
[24]  B20  1  7    -54.4 4092000.3  0.0  0.0  1  0       999
src>tow meas_num=16
src>=tow snapfix
$GNGGA,113411.387,,,,,0,00,,,M,,,,0000*20
$GNRMC,113411.387,A,,,,,,,270519,,*25
$GPGSA,A,1,,,,,,,,,,,,,,,*1E
$BDGSA,A,1,,,,,,,,,,,,,,,*0F
$GPGSV,2,1,08,02,00,000,43,04,00,000,38,05,00,000,45,06,00,000,41*7F
$GPGSV,2,2,08,09,00,000,43,12,00,000,43,23,00,000,41,25,00,000,38*73
$BDGSV,2,1,06,08,00,000,40,11,00,000,32,13,00,000,38,14,00,000,39*66
$BDGSV,2,2,06,21,00,000,41,28,00,000,37*66
$LOGTIM,0,0.000000,0.000000,0.000000,0.000000,0.000*0A
EndT:        0
---00000019--- Acq_st=7 2019-5-27 11:34:12 
[00]  G02  f 43  -1651.1 2046002.1  1.0  1.0  5  0 128069285
[01]  G04  f 37     83.0 2045999.9  1.0  1.0  5  0 128069285
[02]  G05  f 45  -1956.5 2046002.6  1.0  1.0  5  0 128069286
[03]  G06  f 41    325.3 2045999.6  1.0  1.0  5  0 128069286
[04]  G09  f 43   1323.7 2045998.3  1.0  1.0  5  0 128069283
[05]  G12  f 42   1005.5 2045998.7  1.0  1.0  5  0 128069280
[06]  G23  f 42   2439.9 2045996.9  1.0  1.0  5  0 128069272
[07]  G25  7 38   -614.1 2046000.8  1.0  1.0  5  0        14
[17]  B08 1f 40   -790.3 4092002.0  1.0  1.0  5  0 128055236
[18]  B11  7 32   -974.5 4092002.5  1.0  0.8  5  0      3585
[19]  B13 1f 38   -861.4 4092002.3  1.0  1.0  5  0 128055233
[20]  B14 1f 39   -539.9 4092001.4  1.0  1.0  5  0 128055285
[21]  B21 1f 41   1943.7 4091994.9  1.0  1.0  5  0 128055280
[22]  B28 1f 37  -3390.2 4092008.8  1.0  1.0  5  0 128055268
[24]  B20  1  7      4.8 4092000.2 -0.0  0.0  1  0      1999
src>tow meas_num=15
src>=tow snapfix
$GNGGA,113412.387,,,,,0,00,,,M,,,,0000*23
$GNRMC,113412.387,A,,,,,,,270519,,*26
$GPGSA,A,1,,,,,,,,,,,,,,,*1E
$BDGSA,A,1,,,,,,,,,,,,,,,*0F
$GPGSV,2,1,08,02,00,000,43,04,00,000,37,05,00,000,45,06,00,000,41*70
$GPGSV,2,2,08,09,00,000,43,12,00,000,42,23,00,000,42,25,00,000,38*71
$BDGSV,2,1,06,08,00,000,40,11,00,000,32,13,00,000,38,14,00,000,39*66
$BDGSV,2,2,06,21,00,000,41,28,00,000,37*66
$LOGTIM,0,0.000000,0.000000,0.000000,0.000000,0.000*0A
EndT:        0
sat0 = 11562 836 4143 4000
sat0 = 16685 360 4661 1500
sat2 = 11683 1604 4201 -1250
sat2 = 20192 1366 4750 2750
sat6 = 10903 1581 4312 -750
sat6 = 11599 1289 4145 3000
sat7 = 10420 251 4113 -2250
sat7 = 12735 443 4456 4750
sat9 = 11530 409 4230 -2750
sat9 = 22014 1792 5325 4000
sat10 = 11978 358 4202 -2250
sat10 = 13013 914 4252 -2250
sat12 = 11013 1539 4217 1500
sat12 = 14240 1281 4748 0
sat13 = 12472 53 4258 -4250
sat13 = 10677 1282 3944 -2750
sat14 = 11891 2010 4309 -2500
sat14 = 14825 1602 4546 -500
sat15 = 10692 883 4178 2750
sat15 = 15658 2026 4515 -2250
sat16 = 10466 1508 4250 1750
sat16 = 16520 1984 5055 -3250
sat17 = 11513 654 4184 1500
---00000020--- Acq_st=3 2019-5-27 11:34:13 
[00]  G02  f 43  -1651.4 2046002.1  1.0  1.0  5  0 128070285
[01]  G04  f 37     83.0 2045999.9  1.0  1.0  5  0 128070285
[02]  G05  f 45  -1956.9 2046002.6  1.0  1.0  5  0 128070286
[03]  G06  f 42    324.5 2045999.6  1.0  1.0  5  0 128070286
[04]  G09  f 43   1323.2 2045998.2  1.0  1.0  5  0 128070283
[05]  G12  f 42   1005.0 2045998.7  1.0  1.0  5  0 128070280
[06]  G23  f 43   2439.7 2045996.8  1.0  1.0  5  0 128070272
[07]  G25  f 37   -614.0 2046000.8  1.0  1.0  5  0        14
[17]  B08 1f 40   -790.6 4092002.1  1.0  1.0  5  0 128056236
[18]  B11  7 32   -975.9 4092002.6  1.0  1.0  5  0      4585
[19]  B13 1f 39   -862.5 4092002.3  1.0  1.0  5  0 128056233
[20]  B14 1f 39   -540.9 4092001.4  1.0  1.0  5  0 128056285
[21]  B21 1f 42   1943.7 4091994.9  1.0  1.0  5  0 128056280
[22]  B28 1f 37  -3390.7 4092008.9  1.0  1.0  5  0 128056268
sat17 = 13953 1121 4688 -4750
src>tow meas_num=14
src>=tow snapfix
$GNGGA,113413.387,,,,,0,00,,,M,,,,0000*22
$GNRMC,113413.387,A,,,,,,,270519,,*27
$GPGSA,A,1,,,,,,,,,,,,,,,*1E
$BDGSA,A,1,,,,,,,,,,,,,,,*0F
$GPGSV,2,1,08,02,00,000,43,04,00,000,37,05,00,000,45,06,00,000,42*73
$GPGSV,2,2,08,09,00,000,43,12,00,000,42,23,00,000,43,25,00,000,37*7F
$BDGSV,2,1,06,08,00,000,40,11,00,000,32,13,00,000,39,14,00,000,39*67
$BDGSV,2,2,06,21,00,000,42,28,00,000,37*65
$LOGTIM,0,0.000000,0.000000,0.000000,0.000000,0.000*0A
EndT:        0
sat18 = 10763 671 4242 1750
sat18 = 14981 1013 4539 3250
sat19 = 11628 695 4240 1750
sat19 = 17866 819 4291 -3750
sat20 = 11980 1211 4306 -4750
sat20 = 12726 1018 4721 -3750
sat21 = 11624 1730 4182 -3750
sat21 = 15572 375 4915 -1000
sat23 = 11331 1480 4285 -3750
sat23 = 11069 1893 3962 3750
sat25 = 10957 2033 4198 0
sat25 = 11952 1880 4442 4750
sat26 = 11564 241 4191 2500
sat26 = 14187 770 4767 1500
sat27 = 10540 223 4145 2250
sat27 = 14162 946 4031 1500
sat28 = 12430 645 4246 -2500
sat28 = 13621 457 4459 500
sat29 = 11287 819 4131 1250
sat29 = 15314 1785 4952 1250
sat30 = 12085 1625 4256 -1500
sat30 = 12637 446 4595 -2000
sat31 = 12160 1308 4201 0
---00000021--- Acq_st=3 2019-5-27 11:34:14 
[00]  G02  f 43  -1648.6 2046002.2  1.0  1.0  5  0 128071285
[01]  G04  f 37     86.1 2045999.9  1.0  1.0  5  0 128071285
[02]  G05  f 45  -1954.0 2046002.5  1.0  1.0  5  0 128071286
[03]  G06  f 41    327.5 2045999.6  1.0  1.0  5  0 128071286
[04]  G09  f 43   1326.1 2045998.3  1.0  1.0  5  0 128071283
[05]  G12  f 42   1007.8 2045998.7  1.0  1.0  5  0 128071280
[06]  G23  f 43   2442.4 2045996.8  1.0  1.0  5  0 128071272
[07]  G25  f 37   -610.7 2046000.8  1.0  1.0  5  0 128071274
[17]  B08 1f 40   -788.7 4092002.1  1.0  1.0  5  0 128057236
[18]  B11  7 33   -971.9 4092002.6  1.0  0.9  5  0      5585
[19]  B13 1f 38   -860.2 4092002.2  1.0  1.0  5  0 128057233
[20]  B14 1f 39   -537.9 4092001.4  1.0  1.0  5  0 128057285
[21]  B21 1f 42   1946.0 4091994.9  1.0  1.0  5  0 128057280
[22]  B28 1f 37  -3388.7 4092008.9  1.0  1.0  5  0 128057268
sat31 = 13636 1853 4786 1250
src>tow meas_num=14
src>=tow snapfix
$GNGGA,113414.387,,,,,0,00,,,M,,,,0000*25
$GNRMC,113414.387,A,,,,,,,270519,,*20
$GPGSA,A,1,,,,,,,,,,,,,,,*1E
$BDGSA,A,1,,,,,,,,,,,,,,,*0F
$GPGSV,2,1,08,02,00,000,43,04,00,000,37,05,00,000,45,06,00,000,41*70
$GPGSV,2,2,08,09,00,000,43,12,00,000,42,23,00,000,43,25,00,000,37*7F
$BDGSV,2,1,06,08,00,000,40,11,00,000,33,13,00,000,38,14,00,000,39*67
$BDGSV,2,2,06,21,00,000,42,28,00,000,37*65
$LOGTIM,0,0.000000,0.000000,0.000000,0.000000,0.000*0A
EndT:        0
sat37 = 1692 3600 508 3500
sat37 = 1608 1330 509 3250
sat38 = 2064 3000 611 -1250
sat38 = 2146 3064 613 -1250
sat39 = 1542 3285 561 4250
sat39 = 1576 2538 562 -4000
sat40 = 1702 1867 538 2000
---00000022--- Acq_st=3 2019-5-27 11:34:15 
[00]  G02  f 43  -1647.5 2046002.2  1.0  1.0  5  0 128072285
[01]  G04  f 38     87.5 2045999.9  1.0  1.0  5  0 128072285
[02]  G05  f 45  -1952.7 2046002.5  1.0  1.0  5  0 128072286
[03]  G06  f 41    328.6 2045999.6  1.0  1.0  5  0 128072286
[04]  G09  f 43   1327.7 2045998.3  1.0  1.0  5  0 128072283
[05]  G12  f 42   1009.6 2045998.7  1.0  1.0  5  0 128072280
[06]  G23  f 43   2443.6 2045996.8  1.0  1.0  5  0 128072272
[07]  G25  f 38   -609.2 2046000.8  1.0  1.0  5  0 128072274
[17]  B08 1f 41   -787.8 4092002.0  1.0  1.0  5  0 128058236
[18]  B11 1f 33   -969.9 4092002.5  1.0  0.9  5  0      6585
[19]  B13 1f 38   -859.1 4092002.2  1.0  0.9  5  0 128058233
[20]  B14 1f 39   -536.0 4092001.4  1.0  1.0  5  0 128058285
[21]  B21 1f 42   1947.2 4091994.9  1.0  1.0  5  0 128058280
[22]  B28 1f 37  -3387.9 4092008.9  1.0  0.9  5  0 128058268
sat40 = 1676 3035 539 -2000
src>tow meas_num=14
src>=tow snapfix
$GNGGA,113415.387,,,,,0,00,,,M,,,,0000*24
$GNRMC,113415.387,A,,,,,,,270519,,*21
$GPGSA,A,1,,,,,,,,,,,,,,,*1E
$BDGSA,A,1,,,,,,,,,,,,,,,*0F
$GPGSV,2,1,08,02,00,000,43,04,00,000,38,05,00,000,45,06,00,000,41*7F
$GPGSV,2,2,08,09,00,000,43,12,00,000,42,23,00,000,43,25,00,000,38*70
$BDGSV,2,1,06,08,00,000,41,11,00,000,33,13,00,000,38,14,00,000,39*66
$BDGSV,2,2,06,21,00,000,42,28,00,000,37*65
$LOGTIM,0,0.000000,0.000000,0.000000,0.000000,0.000*0A
EndT:        0
sat41 = 2550 1773 654 2000
sat41 = 2487 1874 656 2250
sat42 = 1933 3934 533 1000
sat42 = 2005 4051 534 1250
sat43 = 1591 2106 471 4750
sat43 = 1635 2398 472 5000
sat45 = 1998 1439 544 3000
---00000023--- Acq_st=3 2019-5-27 11:34:16 
[00]  G02  f 43  -1643.6 2046002.1  1.0  1.0  5  0 128073285
[01]  G04  f 38     93.1 2046000.0  1.0  1.0  5  0 128073285
[02]  G05  f 45  -1948.3 2046002.5  1.0  1.0  5  0 128073286
[03]  G06  f 41    333.0 2045999.6  1.0  1.0  5  0 128073286
[04]  G09  f 44   1332.2 2045998.3  1.0  1.0  5  0 128073283
[05]  G12  f 42   1013.8 2045998.7  1.0  1.0  5  0 128073280
[06]  G23  f 43   2447.8 2045996.8  1.0  1.0  5  0 128073272
[07]  G25  f 37   -604.7 2046000.8  1.0  1.0  5  0 128073274
[17]  B08 1f 41   -783.7 4092002.1  1.0  1.0  5  0 128059236
[18]  B11 1f 32   -966.4 4092002.5  1.0  0.9  5  0 128059285
[19]  B13 1f 39   -854.7 4092002.2  1.0  1.0  5  0 128059233
[20]  B14 1f 39   -531.7 4092001.4  1.0  1.0  5  0 128059285
[21]  B21 1f 41   1951.4 4091994.9  1.0  1.0  5  0 128059280
[22]  B28 1f 36  -3383.5 4092008.9  1.0  1.0  5  0 128059268
sat45 = 2053 1313 545 3250
src>tow meas_num=14
src>=tow snapfix
$GNGGA,113416.387,,,,,0,00,,,M,,,,0000*27
$GNRMC,113416.387,A,,,,,,,270519,,*22
$GPGSA,A,1,,,,,,,,,,,,,,,*1E
$BDGSA,A,1,,,,,,,,,,,,,,,*0F
$GPGSV,2,1,08,02,00,000,43,04,00,000,38,05,00,000,45,06,00,000,41*7F
$GPGSV,2,2,08,09,00,000,44,12,00,000,42,23,00,000,43,25,00,000,37*78
$BDGSV,2,1,06,08,00,000,41,11,00,000,32,13,00,000,39,14,00,000,39*66
$BDGSV,2,2,06,21,00,000,41,28,00,000,36*67
$LOGTIM,0,0.000000,0.000000,0.000000,0.000000,0.000*0A
EndT:        0
sat46 = 1691 2271 530 -2000
sat46 = 1784 2335 531 -2000
sat48 = 1893 4080 582 3500
sat48 = 2042 1155 584 3500
sat51 = 1879 388 576 3250
sat51 = 1923 3254 579 3000
sat52 = 1783 1361 581 3500
sat52 = 1845 1399 583 3500
---00000024--- Acq_st=3 2019-5-27 11:34:17 
[00]  G02  f 44  -1646.3 2046002.1  1.0  1.0  5  0 128074285
[01]  G04  f 38     90.1 2045999.8  1.0  1.0  5  0 128074285
[02]  G05  f 44  -1950.7 2046002.6  1.0  1.0  5  0 128074286
[03]  G06  f 41    330.3 2045999.6  1.0  1.0  5  0 128074286
[04]  G09  f 44   1329.9 2045998.3  1.0  1.0  5  0 128074283
[05]  G12  f 42   1011.7 2045998.7  1.0  1.0  5  0 128074280
[06]  G23  f 42   2445.5 2045996.8  1.0  1.0  5  0 128074272
[07]  G25  f 37   -606.8 2046000.8  1.0  1.0  5  0 128074274
[17]  B08 1f 40   -786.7 4092002.0  1.0  1.0  5  0 128060236
[18]  B11 1f 32   -969.4 4092002.5  1.0  0.8  5  0 128060285
[19]  B13 1f 39   -857.6 4092002.3  1.0  1.0  5  0 128060233
[20]  B14 1f 39   -534.3 4092001.4  1.0  1.0  5  0 128060285
[21]  B21 1f 41   1948.6 4091994.9  1.0  1.0  5  0 128060280
[22]  B28 1f 35  -3386.6 4092008.8  1.0  1.0  5  0 128060268
src>tow meas_num=14
src>=tow snapfix
$GNGGA,113417.387,,,,,0,00,,,M,,,,0000*26
$GNRMC,113417.387,A,,,,,,,270519,,*23
$GPGSA,A,1,,,,,,,,,,,,,,,*1E
$BDGSA,A,1,,,,,,,,,,,,,,,*0F
$GPGSV,2,1,08,02,00,000,44,04,00,000,38,05,00,000,44,06,00,000,41*79
$GPGSV,2,2,08,09,00,000,44,12,00,000,42,23,00,000,42,25,00,000,37*79
$BDGSV,2,1,06,08,00,000,40,11,00,000,32,13,00,000,39,14,00,000,39*67
$BDGSV,2,2,06,21,00,000,41,28,00,000,35*64
$LOGTIM,0,0.000000,0.000000,0.000000,0.000000,0.000*0A
EndT:        0
sat53 = 1775 2002 557 -1000
sat53 = 1743 2002 560 -1000
sat54 = 2240 302 606 500
sat54 = 1950 70 608 -4500
sat55 = 1680 323 564 -2750
sat55 = 1691 3409 566 -3000
sat58 = 1445 2938 478 250
sat58 = 1365 3002 479 250
---00000025--- Acq_st=3 2019-5-27 11:34:18 
[00]  G02  f 44  -1649.3 2046002.1  1.0  1.0  5  0 128075285
[01]  G04  f 38     88.1 2045999.9  1.0  0.9  5  0 128075285
[02]  G05  f 44  -1953.7 2046002.6  1.0  1.0  5  0 128075286
[03]  G06  f 41    327.1 2045999.6  1.0  1.0  5  0 128075286
[04]  G09  f 43   1327.6 2045998.3  1.0  1.0  5  0 128075283
[05]  G12  f 42   1009.3 2045998.7  1.0  1.0  5  0 128075280
[06]  G23  f 42   2442.4 2045996.8  1.0  1.0  5  0 128075272
[07]  G25  f 38   -609.8 2046000.8  1.0  1.0  5  0 128075274
[16]  B17  1  7    967.2 4091997.9 -0.0  0.0  1  0      3212
[17]  B08 1f 41   -789.6 4092002.0  1.0  1.0  5  0 128061236
[18]  B11 1f 32   -971.4 4092002.6  1.0  0.8  5  0 128061285
[19]  B13 1f 39   -861.3 4092002.2  1.0  1.0  5  0 128061233
[20]  B14 1f 39   -537.0 4092001.4  1.0  1.0  5  0 128061285
[21]  B21 1f 42   1946.0 4091994.9  1.0  1.0  5  0 128061280
[22]  B28 1f 35  -3390.3 4092008.9  1.0  0.9  5  0 128061268
src>tow meas_num=15
src>=tow snapfix
$GNGGA,113418.387,,,,,0,00,,,M,,,,0000*29
$GNRMC,113418.387,A,,,,,,,270519,,*2C
$GPGSA,A,1,,,,,,,,,,,,,,,*1E
$BDGSA,A,1,,,,,,,,,,,,,,,*0F
$GPGSV,2,1,08,02,00,000,44,04,00,000,38,05,00,000,44,06,00,000,41*79
$GPGSV,2,2,08,09,00,000,43,12,00,000,42,23,00,000,42,25,00,000,38*71
$BDGSV,2,1,06,08,00,000,41,11,00,000,32,13,00,000,39,14,00,000,39*66
$BDGSV,2,2,06,21,00,000,42,28,00,000,35*67
$LOGTIM,0,0.000000,0.000000,0.000000,0.000000,0.000*0A
EndT:        0
sat59 = 1933 1141 604 4250
sat59 = 1871 2649 605 500
sat60 = 1707 2597 549 4250
sat60 = 1757 166 551 4250
sat61 = 1468 1319 493 -4750
sat61 = 1660 1097 494 -4750
sat62 = 1703 667 516 5000
sat62 = 1703 667 518 5000
---00000026--- Acq_st=3 2019-5-27 11:34:19 
[00]  G02  f 44  -1646.0 2046002.1  1.0  1.0  5  0 128076285
[01]  G04  f 38     91.7 2045999.9  1.0  1.0  5  0 128076285
[02]  G05  f 45  -1949.5 2046002.6  1.0  1.0  5  0 128076286
[03]  G06  f 41    331.4 2045999.6  1.0  1.0  5  0 128076286
[04]  G09  f 43   1331.6 2045998.3  1.0  1.0  5  0 128076283
[05]  G12  f 42   1013.2 2045998.7  1.0  1.0  5  0 128076280
[06]  G23  f 42   2446.3 2045996.8  1.0  1.0  5  0 128076272
[07]  G25  f 37   -605.9 2046000.8  1.0  1.0  5  0 128076274
[16]  B17  1  8   1059.4 4091997.8 -0.1  0.0  1  0       793
[17]  B08 1f 40   -785.9 4092002.1  1.0  1.0  5  0 128062236
[18]  B11 1f 32   -967.8 4092002.5  1.0  0.9  5  0 128062285
[19]  B13 1f 39   -857.5 4092002.2  1.0  1.0  5  0 128062233
[20]  B14 1f 38   -532.9 4092001.4  1.0  1.0  5  0 128062285
[21]  B21 1f 42   1949.7 4091994.8  1.0  1.0  5  0 128062280
[22]  B28 1f 35  -3386.6 4092008.9  1.0  1.0  5  0 128062268
[23]  B26  1  7  -3957.5 4092013.2 -0.0  0.0  1  0      2614
src>tow meas_num=16
src>=tow snapfix
$GNGGA,113419.387,,,,,0,00,,,M,,,,0000*28
$GNRMC,113419.387,A,,,,,,,270519,,*2D
$GPGSA,A,1,,,,,,,,,,,,,,,*1E
$BDGSA,A,1,,,,,,,,,,,,,,,*0F
$GPGSV,2,1,08,02,00,000,44,04,00,000,38,05,00,000,45,06,00,000,41*78
$GPGSV,2,2,08,09,00,000,43,12,00,000,42,23,00,000,42,25,00,000,37*7E
$BDGSV,2,1,06,08,00,000,40,11,00,000,32,13,00,000,39,14,00,000,38*66
$BDGSV,2,2,06,21,00,000,42,28,00,000,35*67
$LOGTIM,0,0.000000,0.000000,0.000000,0.000000,0.000*0A
EndT:        0
sat63 = 2176 1983 544 5000
ch24 satid=63,max_freq = 5000,max_mean = 544,max_phase = 1983,max_value = 2176,acq ok1!
sat65 = 2364 1883 611 0
sat65 = 2381 2152 613 250
sat66 = 1753 2353 525 -1250
sat66 = 1683 103 526 -1500
sat67 = 1691 2776 536 4000
sat67 = 1626 2786 538 0
sat68 = 2005 1421 630 2500
---00000027--- Acq_st=3 2019-5-27 11:34:20 
[00]  G02  f 44  -1640.4 2046002.1  1.0  1.0  5  0 128077285
[01]  G04  f 38     97.3 2045999.9  1.0  1.0  5  0 128077285
[02]  G05  f 44  -1944.2 2046002.5  1.0  1.0  5  0 128077286
[03]  G06  f 42    336.7 2045999.5  1.0  1.0  5  0 128077286
[04]  G09  f 44   1337.1 2045998.3  1.0  1.0  5  0 128077283
[05]  G12  f 42   1018.8 2045998.7  1.0  1.0  5  0 128077280
[06]  G23  f 42   2451.5 2045996.8  1.0  1.0  5  0 128077272
[07]  G25  f 37   -600.1 2046000.8  1.0  1.0  5  0 128077274
[16]  B17  1  8    966.7 4091998.1 -0.0  0.0  1  0      1793
[17]  B08 1f 40   -781.5 4092002.0  1.0  1.0  5  0 128063236
[18]  B11 1f 32   -961.4 4092002.6  1.0  0.9  5  0 128063285
[19]  B13 1f 38   -852.7 4092002.2  1.0  1.0  5  0 128063233
[20]  B14 1f 38   -527.8 4092001.4  1.0  1.0  5  0 128063285
[21]  B21 1f 42   1955.1 4091994.8  1.0  1.0  5  0 128063280
[22]  B28 1f 36  -3381.5 4092008.9  1.0  1.0  5  0 128063268
[23]  B26  1  7  -5007.1 4092012.8 -0.1  0.0  1  0        73
[24]  B27  1  7  -4998.4 4092013.4 -0.2  0.0  1  0      2999
src>tow meas_num=17
src>=tow snapfix
$GNGGA,113420.387,,,,,0,00,,,M,,,,0000*22
$GNRMC,113420.387,A,,,,,,,270519,,*27
$GPGSA,A,1,,,,,,,,,,,,,,,*1E
$BDGSA,A,1,,,,,,,,,,,,,,,*0F
$GPGSV,2,1,08,02,00,000,44,04,00,000,38,05,00,000,44,06,00,000,42*7A
$GPGSV,2,2,08,09,00,000,44,12,00,000,42,23,00,000,42,25,00,000,37*79
$BDGSV,2,1,06,08,00,000,40,11,00,000,32,13,00,000,38,14,00,000,38*67
$BDGSV,2,2,06,21,00,000,42,28,00,000,36*64
$LOGTIM,0,0.000000,0.000000,0.000000,0.000000,0.000*0A
EndT:        1
sat68 = 2088 1419 632 2500
---00000028--- Acq_st=7 2019-5-27 11:34:21 
[00]  G02  f 44  -1642.4 2046002.1  1.0  1.0  5  0 128078285
[01]  G04  f 38     96.2 2045999.9  1.0  1.0  5  0 128078285
[02]  G05  f 44  -1945.5 2046002.5  1.0  1.0  5  0 128078286
[03]  G06  f 42    334.9 2045999.6  1.0  1.0  5  0 128078286
[04]  G09  f 44   1335.5 2045998.3  1.0  1.0  5  0 128078283
[05]  G12  f 42   1017.1 2045998.7  1.0  1.0  5  0 128078280
[06]  G23  f 42   2449.8 2045996.8  1.0  1.0  5  0 128078272
[07]  G25  f 37   -601.4 2046000.8  1.0  1.0  5  0 128078274
[17]  B08 1f 40   -783.1 4092002.1  1.0  1.0  5  0 128064236
[18]  B11 1f 33   -963.4 4092002.4  1.0  0.9  5  0 128064285
[19]  B13 1f 39   -854.9 4092002.3  1.0  1.0  5  0 128064233
[20]  B14 1f 38   -528.6 4092001.4  1.0  1.0  5  0 128064285
[21]  B21 1f 42   1953.2 4091994.9  1.0  1.0  5  0 128064280
[22]  B28 1f 35  -3382.9 4092008.9  1.0  1.0  5  0 128064268
[23]  B26  1  7  -4993.7 4092012.8 -0.1  0.0  1  0      1073
[24]  B27  1  7  -5003.1 4092012.9  0.0  0.0  1  0       949
src>tow meas_num=16
src>=tow snapfix
$GNGGA,113421.387,,,,,0,00,,,M,,,,0000*23
$GNRMC,113421.387,A,,,,,,,270519,,*26
$GPGSA,A,1,,,,,,,,,,,,,,,*1E
$BDGSA,A,1,,,,,,,,,,,,,,,*0F
$GPGSV,2,1,08,02,00,000,44,04,00,000,38,05,00,000,44,06,00,000,42*7A
$GPGSV,2,2,08,09,00,000,44,12,00,000,42,23,00,000,42,25,00,000,37*79
$BDGSV,2,1,06,08,00,000,40,11,00,000,33,13,00,000,39,14,00,000,38*67
$BDGSV,2,2,06,21,00,000,42,28,00,000,35*67
$LOGTIM,0,0.000000,0.000000,0.000000,0.000000,0.000*0A
EndT:        0
sat0 = 11735 606 4053 1500
sat0 = 15118 1064 4617 1500
sat2 = 10639 250 4098 1750
sat2 = 17153 1981 4711 3000
sat6 = 11210 682 4245 -3500
sat6 = 11579 1774 4129 -1000
sat7 = 11766 1067 4029 1250
sat7 = 13119 1510 4438 -3250
sat9 = 10506 102 4155 -3750
sat9 = 20545 1854 5242 4000
sat10 = 11464 176 4147 3250
sat10 = 12385 62 4218 -2500
sat12 = 11175 1771 4139 1000
sat12 = 13576 90 4694 -250
sat13 = 11003 706 4171 -2000
sat13 = 12028 1253 3916 -2500
sat14 = 12518 723 4216 250
sat14 = 14968 1552 4512 1000
sat15 = 11381 83 4061 1250
sat15 = 15605 443 4472 -2250
sat16 = 11048 49 4166 3000
sat16 = 17413 65 5000 4750
sat17 = 13391 116 4114 2000
---00000029--- Acq_st=3 2019-5-27 11:34:22 
[00]  G02  f 44  -1645.4 2046002.1  1.0  1.0  5  0 128079285
[01]  G04  f 37     93.6 2045999.9  1.0  1.0  5  0 128079285
[02]  G05  f 44  -1948.0 2046002.5  1.0  1.0  5  0 128079286
[03]  G06  f 42    331.8 2045999.6  1.0  1.0  5  0 128079286
[04]  G09  f 44   1333.2 2045998.3  1.0  1.0  5  0 128079283
[05]  G12  f 42   1014.7 2045998.7  1.0  1.0  5  0 128079280
[06]  G23  f 42   2447.1 2045996.8  1.0  1.0  5  0 128079272
[07]  G25  f 37   -604.4 2046000.8  1.0  1.0  5  0 128079274
[17]  B08 1f 40   -786.2 4092002.0  1.0  1.0  5  0 128065236
[18]  B11 1f 33   -965.8 4092002.5  1.0  0.9  5  0 128065285
[19]  B13 1f 38   -858.5 4092002.2  1.0  1.0  5  0 128065233
[20]  B14 1f 38   -531.5 4092001.4  1.0  1.0  5  0 128065285
[21]  B21 1f 42   1950.7 4091994.9  1.0  1.0  5  0 128065280
[22]  B28 1f 36  -3386.6 4092008.9  1.0  1.0  5  0 128065268
[23]  B26  1  7  -5034.5 4092013.1 -0.0  0.0  1  0      2073
[24]  B27  1  7  -4987.4 4092012.9  0.1  0.0  1  0      1949
sat17 = 13526 918 4634 -3750
sat18 = 12152 68 4168 -4750
sat18 = 14306 291 4478 3750
sat19 = 10826 396 4154 2000
sat19 = 16723 903 4256 -3750
src>tow meas_num=16
src>=tow snapfix
$GNGGA,113422.387,,,,,0,00,,,M,,,,0000*20
$GNRMC,113422.387,A,,,,,,,270519,,*25
$GPGSA,A,1,,,,,,,,,,,,,,,*1E
$BDGSA,A,1,,,,,,,,,,,,,,,*0F
$GPGSV,2,1,08,02,00,000,44,04,00,000,37,05,00,000,44,06,00,000,42*75
$GPGSV,2,2,08,09,00,000,44,12,00,000,42,23,00,000,42,25,00,000,37*79
$BDGSV,2,1,06,08,00,000,40,11,00,000,33,13,00,000,38,14,00,000,38*66
$BDGSV,2,2,06,21,00,000,42,28,00,000,36*64
$LOGTIM,0,0.000000,0.000000,0.000000,0.000000,0.000*0A
EndT:        0
sat20 = 11140 467 4224 -250
sat20 = 12942 1519 4684 -4000
sat21 = 11512 1611 4094 -3750
sat21 = 16187 97 4833 -1500
sat23 = 11868 1433 4177 500
sat23 = 11685 1592 3948 4000
sat25 = 10777 219 4113 -1500
sat25 = 14456 1504 4423 4750
sat26 = 11416 1839 4095 3750
sat26 = 13642 327 4726 1250
sat27 = 10312 1341 4046 -1500
sat27 = 12940 1977 3987 1500
sat28 = 10882 187 4152 2250
sat28 = 14140 815 4406 750
sat29 = 11294 461 4057 2500
sat29 = 14674 391 4881 1250
sat30 = 10233 391 4150 -4250
sat30 = 14127 291 4549 4250
sat31 = 11468 405 4111 1250
---00000030--- Acq_st=3 2019-5-27 11:34:23 
[00]  G02  f 44  -1641.2 2046002.1  1.0  1.0  5  0 128080285
[01]  G04  f 38     98.9 2045999.9  1.0  1.0  5  0 128080285
[02]  G05  f 44  -1943.5 2046002.5  1.0  1.0  5  0 128080286
[03]  G06  f 42    336.5 2045999.6  1.0  1.0  5  0 128080286
[04]  G09  f 44   1337.9 2045998.3  1.0  1.0  5  0 128080283
[05]  G12  f 43   1019.3 2045998.7  1.0  1.0  5  0 128080280
[06]  G23  f 42   2451.8 2045996.8  1.0  1.0  5  0 128080272
[07]  G25  f 37   -598.9 2046000.7  1.0  1.0  5  0 128080274
[17]  B08 1f 40   -782.2 4092002.0  1.0  1.0  5  0 128066236
[18]  B11 1f 33   -961.7 4092002.5  1.0  0.9  5  0 128066285
[19]  B13 1f 38   -854.2 4092002.2  1.0  1.0  5  0 128066233
[20]  B14 1f 39   -527.1 4092001.4  1.0  1.0  5  0 128066285
[21]  B21 1f 42   1955.0 4091994.9  1.0  1.0  5  0 128066280
[22]  B28 1f 35  -3381.9 4092008.9  1.0  0.9  5  0 128066268
sat31 = 15073 1641 4725 4000
src>tow meas_num=14
src>=tow snapfix
$GNGGA,113423.387,,,,,0,00,,,M,,,,0000*21
$GNRMC,113423.387,A,,,,,,,270519,,*24
$GPGSA,A,1,,,,,,,,,,,,,,,*1E
$BDGSA,A,1,,,,,,,,,,,,,,,*0F
$GPGSV,2,1,08,02,00,000,44,04,00,000,38,05,00,000,44,06,00,000,42*7A
$GPGSV,2,2,08,09,00,000,44,12,00,000,43,23,00,000,42,25,00,000,37*78
$BDGSV,2,1,06,08,00,000,40,11,00,000,33,13,00,000,38,14,00,000,39*67
$BDGSV,2,2,06,21,00,000,42,28,00,000,35*67
$LOGTIM,0,0.000000,0.000000,0.000000,0.000000,0.000*0A
EndT:        0
sat37 = 1721 1839 517 3500
sat37 = 1768 99 520 3500
sat38 = 2157 1255 613 -4500
sat38 = 2091 2503 618 -1500
sat39 = 1651 3463 565 -4500
sat39 = 1588 1730 570 -250
sat40 = 1623 3152 544 2000
---00000031--- Acq_st=3 2019-5-27 11:34:24 
[00]  G02  f 45  -1640.8 2046002.1  1.0  1.0  5  0 128081285
[01]  G04  f 38     99.8 2045999.9  1.0  1.0  5  0 128081285
[02]  G05  f 44  -1942.9 2046002.5  1.0  1.0  5  0 128081286
[03]  G06  f 42    336.3 2045999.5  1.0  1.0  5  0 128081286
[04]  G09  f 43   1339.0 2045998.3  1.0  1.0  5  0 128081283
[05]  G12  f 43   1020.0 2045998.7  1.0  1.0  5  0 128081280
[06]  G23  f 42   2451.9 2045996.8  1.0  1.0  5  0 128081272
[07]  G25  f 38   -598.8 2046000.8  1.0  1.0  5  0 128081274
[17]  B08 1f 40   -782.1 4092002.1  1.0  1.0  5  0 128067236
[18]  B11 1f 33   -961.3 4092002.4  1.0  0.9  5  0 128067285
[19]  B13 1f 38   -854.1 4092002.2  1.0  1.0  5  0 128067233
[20]  B14 1f 38   -526.4 4092001.4  1.0  1.0  5  0 128067285
[21]  B21 1f 41   1955.6 4091994.9  1.0  1.0  5  0 128067280
[22]  B28 1f 35  -3382.6 4092008.8  1.0  1.0  5  0 128067268
sat40 = 1869 1632 545 -4500
src>tow meas_num=14
src>=tow snapfix
$GNGGA,113424.387,,,,,0,00,,,M,,,,0000*26
$GNRMC,113424.387,A,,,,,,,270519,,*23
$GPGSA,A,1,,,,,,,,,,,,,,,*1E
$BDGSA,A,1,,,,,,,,,,,,,,,*0F
$GPGSV,2,1,08,02,00,000,45,04,00,000,38,05,00,000,44,06,00,000,42*7B
$GPGSV,2,2,08,09,00,000,43,12,00,000,43,23,00,000,42,25,00,000,38*70
$BDGSV,2,1,06,08,00,000,40,11,00,000,33,13,00,000,38,14,00,000,38*66
$BDGSV,2,2,06,21,00,000,41,28,00,000,35*64
$LOGTIM,0,0.000000,0.000000,0.000000,0.000000,0.000*0A
EndT:        0
sat41 = 2391 793 659 2000
sat41 = 2463 2974 663 2000
sat42 = 1871 3745 544 1250
sat42 = 1749 1432 547 1000
sat43 = 1462 1398 482 5000
sat43 = 1500 3313 484 5000
sat45 = 1942 2614 555 3000
---00000032--- Acq_st=3 2019-5-27 11:34:25 
[00]  G02  f 45  -1643.8 2046002.1  1.0  1.0  5  0 128082285
[01]  G04  f 38     96.3 2045999.9  1.0  0.9  5  0 128082285
[02]  G05  f 44  -1945.9 2046002.5  1.0  1.0  5  0 128082286
[03]  G06  f 42    333.1 2045999.6  1.0  1.0  5  0 128082286
[04]  G09  f 44   1336.2 2045998.3  1.0  1.0  5  0 128082283
[05]  G12  f 43   1017.3 2045998.6  1.0  1.0  5  0 128082280
[06]  G23  f 43   2448.8 2045996.8  1.0  1.0  5  0 128082272
[07]  G25  f 38   -600.9 2046000.8  1.0  0.9  5  0 128082274
[17]  B08 1f 40   -785.0 4092002.0  1.0  1.0  5  0 128068236
[18]  B11 1f 33   -963.5 4092002.4  1.0  0.9  5  0 128068285
[19]  B13 1f 38   -856.8 4092002.3  1.0  1.0  5  0 128068233
[20]  B14 1f 38   -528.9 4092001.4  1.0  1.0  5  0 128068285
[21]  B21 1f 41   1953.2 4091994.9  1.0  1.0  5  0 128068280
[22]  B28 1f 35  -3385.5 4092008.9  1.0  0.9  5  0 128068268
sat45 = 1894 278 556 3250
src>tow meas_num=14
src>=tow snapfix
$GNGGA,113425.387,,,,,0,00,,,M,,,,0000*27
$GNRMC,113425.387,A,,,,,,,270519,,*22
$GPGSA,A,1,,,,,,,,,,,,,,,*1E
$BDGSA,A,1,,,,,,,,,,,,,,,*0F
$GPGSV,2,1,08,02,00,000,45,04,00,000,38,05,00,000,44,06,00,000,42*7B
$GPGSV,2,2,08,09,00,000,44,12,00,000,43,23,00,000,43,25,00,000,38*76
$BDGSV,2,1,06,08,00,000,40,11,00,000,33,13,00,000,38,14,00,000,38*66
$BDGSV,2,2,06,21,00,000,41,28,00,000,35*64
$LOGTIM,0,0.000000,0.000000,0.000000,0.000000,0.000*0A
EndT:        0
sat46 = 1772 3852 541 -2000
sat46 = 1741 775 541 -2000
sat48 = 1841 785 594 3750
sat48 = 1954 1765 595 3500
sat51 = 1892 3764 582 3000
sat51 = 1992 3828 585 3000
sat52 = 1804 1291 586 3750
sat52 = 1922 1614 590 3250
---00000033--- Acq_st=3 2019-5-27 11:34:26 
[00]  G02  f 45  -1645.1 2046002.2  1.0  1.0  5  0 128083285
[01]  G04  f 38     97.0 2045999.9  1.0  1.0  5  0 128083285
[02]  G05  f 44  -1946.8 2046002.6  1.0  1.0  5  0 128083286
[03]  G06  f 42    332.8 2045999.6  1.0  1.0  5  0 128083286
[04]  G09  f 43   1335.6 2045998.3  1.0  1.0  5  0 128083283
[05]  G12  f 43   1016.2 2045998.7  1.0  1.0  5  0 128083280
[06]  G23  f 42   2447.7 2045996.8  1.0  1.0  5  0 128083272
[07]  G25  f 38   -601.7 2046000.8  1.0  1.0  5  0 128083274
[17]  B08 1f 40   -787.2 4092002.1  1.0  1.0  5  0 128069236
[18]  B11 1f 33   -965.0 4092002.5  1.0  0.9  5  0 128069285
[19]  B13 1f 39   -858.5 4092002.3  1.0  1.0  5  0 128069233
[20]  B14 1f 38   -530.2 4092001.3  1.0  1.0  5  0 128069285
[21]  B21 1f 41   1951.4 4091994.9  1.0  1.0  5  0 128069280
[22]  B28 1f 35  -3386.8 4092008.9  1.0  1.0  5  0 128069268
src>tow meas_num=14
src>=tow snapfix
$GNGGA,113426.387,,,,,0,00,,,M,,,,0000*24
$GNRMC,113426.387,A,,,,,,,270519,,*21
$GPGSA,A,1,,,,,,,,,,,,,,,*1E
$BDGSA,A,1,,,,,,,,,,,,,,,*0F
$GPGSV,2,1,08,02,00,000,45,04,00,000,38,05,00,000,44,06,00,000,42*7B
$GPGSV,2,2,08,09,00,000,43,12,00,000,43,23,00,000,42,25,00,000,38*70
$BDGSV,2,1,06,08,00,000,40,11,00,000,33,13,00,000,39,14,00,000,38*67
$BDGSV,2,2,06,21,00,000,41,28,00,000,35*64
$LOGTIM,0,0.000000,0.000000,0.000000,0.000000,0.000*0A
EndT:        0
sat53 = 1783 2386 566 2250
sat53 = 1845 2744 570 2000
sat54 = 1970 1867 614 -4500
sat54 = 2044 2204 616 500
sat55 = 1700 4046 570 -2750
sat55 = 1722 1505 575 -3000
sat56 = 1886 1757 569 2000
sat56 = 2019 3276 573 2000
---00000034--- Acq_st=3 2019-5-27 11:34:27 
[00]  G02  f 45  -1645.9 2046002.1  1.0  1.0  5  0 128084285
[01]  G04  f 39     96.6 2045999.8  1.0  1.0  5  0 128084285
[02]  G05  f 44  -1947.0 2046002.5  1.0  1.0  5  0 128084286
[03]  G06  f 43    331.9 2045999.6  1.0  1.0  5  0 128084286
[04]  G09  f 43   1335.6 2045998.3  1.0  1.0  5  0 128084283
[05]  G12  f 43   1016.5 2045998.7  1.0  1.0  5  0 128084280
[06]  G23  f 42   2447.7 2045996.8  1.0  1.0  5  0 128084272
[07]  G25  f 38   -601.5 2046000.8  1.0  1.0  5  0 128084274
[17]  B08 1f 40   -786.9 4092002.1  1.0  1.0  5  0 128070236
[18]  B11 1f 32   -963.8 4092002.6  1.0  0.9  5  0 128070285
[19]  B13 1f 39   -858.9 4092002.3  1.0  1.0  5  0 128070233
[20]  B14 1f 38   -530.5 4092001.4  1.0  1.0  5  0 128070285
[21]  B21 1f 41   1951.6 4091994.9  1.0  1.0  5  0 128070280
[22]  B28 1f 35  -3386.6 4092008.9  1.0  1.0  5  0 128070268
src>tow meas_num=14
src>=tow snapfix
