FlashID=0x1 0x20 0x18
BBram_blkflag1: fc9a: 0365
FW Ver: 1.30  
GPS00 Init Dop:   5000, 40
GPS01 Init Dop:   5000, 40
GPS02 Init Dop:   5000, 40
GPS03 Init Dop:   5000, 40
GPS04 Init Dop:   5000, 40
GPS05 Init Dop:   5000, 40
GPS06 Init Dop:   5000, 40
GPS07 Init Dop:   5000, 40
GPS08 Init Dop:   5000, 40
GPS09 Init Dop:   5000, 40
GPS10 Init Dop:   5000, 40
GPS11 Init Dop:   5000, 40
GPS12 Init Dop:   5000, 40
GPS13 Init Dop:   5000, 40
GPS14 Init Dop:   5000, 40
GPS15 Init Dop:   5000, 40
GPS16 Init Dop:   5000, 40
GPS17 Init Dop:   5000, 40
GPS18 Init Dop:   5000, 40
GPS19 Init Dop:   5000, 40
GPS20 Init Dop:   5000, 40
GPS21 Init Dop:   5000, 40
GPS22 Init Dop:   5000, 40
GPS23 Init Dop:   5000, 40
GPS24 Init Dop:   5000, 40
GPS25 Init Dop:   5000, 40
GPS26 Init Dop:   5000, 40
GPS27 Init Dop:   5000, 40
GPS28 Init Dop:   5000, 40
GPS29 Init Dop:   5000, 40
GPS30 Init Dop:   5000, 40
GPS31 Init Dop:   5000, 40
BDS00 Init Dop:   5000, 40
BDS01 Init Dop:   5000, 40
BDS02 Init Dop:   5000, 40
BDS03 Init Dop:   5000, 40
BDS04 Init Dop:   5000, 40
BDS05 Init Dop:   5000, 40
BDS06 Init Dop:   5000, 40
BDS07 Init Dop:   5000, 40
BDS08 Init Dop:   5000, 40
BDS09 Init Dop:   5000, 40
BDS10 Init Dop:   5000, 40
BDS11 Init Dop:   5000, 40
BDS12 Init Dop:   5000, 40
BDS13 Init Dop:   5000, 40
BDS14 Init Dop:   5000, 40
BDS15 Init Dop:   5000, 40
BDS16 Init Dop:   5000, 40
BDS17 Init Dop:   5000, 40
BDS18 Init Dop:   5000, 40
BDS19 Init Dop:   5000, 40
BDS20 Init Dop:   5000, 40
BDS21 Init Dop:   5000, 40
BDS22 Init Dop:   5000, 40
BDS23 Init Dop:   5000, 40
BDS24 Init Dop:   5000, 40
BDS25 Init Dop:   5000, 40
BDS26 Init Dop:   5000, 40
BDS27 Init Dop:   5000, 40
BDS28 Init Dop:   5000, 40
BDS29 Init Dop:   5000, 40
BDS30 Init Dop:   5000, 40
BDS31 Init Dop:   5000, 40
good luck!
---00000001--- Acq_st=3 2019-5-22 07:32:47 
[00]  G01  1 15   2320.0 2045997.9  0.1  0.0  1  0         0
$GNGGA,000000.000,,,,,0,00,,,M,,,,0000*2B
$GNRMC,000000.000,A,,,,,,,000000,,*26
$GPGSA,A,1,,,,,,,,,,,,,,,*1E
$BDGSA,A,1,,,,,,,,,,,,,,,*0F
$LOGTIM,0,0.000000,0.000000,0.000000,0.000000,0.000*0A
EndT:        0
---00000002--- Acq_st=3 2019-5-22 07:32:48 
[00]  G01  7 16   2331.1 2045996.8  0.3  0.0 20  0         4
$GNGGA,000000.000,,,,,0,00,,,M,,,,0000*2B
$GNRMC,000000.000,A,,,,,,,000000,,*26
$GPGSA,A,1,,,,,,,,,,,,,,,*1E
$BDGSA,A,1,,,,,,,,,,,,,,,*0F
$GPGSV,1,1,01,01,00,000,16*4E
$LOGTIM,0,0.000000,0.000000,0.000000,0.000000,0.000*0A
EndT:        0
---00000003--- Acq_st=3 2019-5-22 07:32:49 
[00]  G01  7 38   2328.9 2045996.9  0.6  0.9  5  0         3
$GNGGA,000000.000,,,,,0,00,,,M,,,,0000*2B
$GNRMC,000000.000,A,,,,,,,000000,,*26
$GPGSA,A,1,,,,,,,,,,,,,,,*1E
$BDGSA,A,1,,,,,,,,,,,,,,,*0F
$GPGSV,1,1,01,01,00,000,38*42
$LOGTIM,0,0.000000,0.000000,0.000000,0.000000,0.000*0A
EndT:        0
---00000004--- Acq_st=3 2019-5-22 07:32:50 
[00]  G01  7 38   2324.4 2045996.9  1.0  1.0  5  0         3
$GNGGA,000000.000,,,,,0,00,,,M,,,,0000*2B
$GNRMC,000000.000,A,,,,,,,000000,,*26
$GPGSA,A,1,,,,,,,,,,,,,,,*1E
$BDGSA,A,1,,,,,,,,,,,,,,,*0F
$GPGSV,1,1,01,01,00,000,38*42
$LOGTIM,0,0.000000,0.000000,0.000000,0.000000,0.000*0A
EndT:        0
---00000005--- Acq_st=3 2019-5-22 07:32:51 
[00]  G01  7 38   2323.4 2045997.0  1.0  1.0  5  0         3
$GNGGA,000000.000,,,,,0,00,,,M,,,,0000*2B
$GNRMC,000000.000,A,,,,,,,000000,,*26
$GPGSA,A,1,,,,,,,,,,,,,,,*1E
$BDGSA,A,1,,,,,,,,,,,,,,,*0F
$GPGSV,1,1,01,01,00,000,38*42
$LOGTIM,0,0.000000,0.000000,0.000000,0.000000,0.000*0A
EndT:        0
---00000006--- Acq_st=3 2019-5-22 07:32:52 
[00]  G01  7 37   2324.3 2045997.0  1.0  1.0  5  0         3
$GNGGA,000000.000,,,,,0,00,,,M,,,,0000*2B
$GNRMC,000000.000,A,,,,,,,000000,,*26
$GPGSA,A,1,,,,,,,,,,,,,,,*1E
$BDGSA,A,1,,,,,,,,,,,,,,,*0F
$GPGSV,1,1,01,01,00,000,37*4D
$LOGTIM,0,0.000000,0.000000,0.000000,0.000000,0.000*0A
EndT:        0
---00000007--- Acq_st=3 2019-5-22 07:32:53 
[00]  G01  7 36   2328.6 2045997.0  1.0  1.0  5  0         3
$GNGGA,000000.000,,,,,0,00,,,M,,,,0000*2B
$GNRMC,000000.000,A,,,,,,,000000,,*26
$GPGSA,A,1,,,,,,,,,,,,,,,*1E
$BDGSA,A,1,,,,,,,,,,,,,,,*0F
$GPGSV,1,1,01,01,00,000,36*4C
$LOGTIM,0,0.000000,0.000000,0.000000,0.000000,0.000*0A
EndT:        0
---00000008--- Acq_st=3 2019-5-22 07:32:54 
[00]  G01  7 35   2330.1 2045997.0  1.0  1.0  5  0         3
$GNGGA,000000.000,,,,,0,00,,,M,,,,0000*2B
$GNRMC,000000.000,A,,,,,,,000000,,*26
$GPGSA,A,1,,,,,,,,,,,,,,,*1E
$BDGSA,A,1,,,,,,,,,,,,,,,*0F
$GPGSV,1,1,01,01,00,000,35*4F
$LOGTIM,0,0.000000,0.000000,0.000000,0.000000,0.000*0A
EndT:        0
---00000009--- Acq_st=3 2019-5-22 07:32:55 
[00]  G01  f 35   2332.3 2045997.0  1.0  1.0  5  0         3
$GNGGA,000000.000,,,,,0,00,,,M,,,,0000*2B
$GNRMC,000000.000,A,,,,,,,000000,,*26
$GPGSA,A,1,,,,,,,,,,,,,,,*1E
$BDGSA,A,1,,,,,,,,,,,,,,,*0F
$GPGSV,1,1,01,01,00,000,35*4F
$LOGTIM,0,0.000000,0.000000,0.000000,0.000000,0.000*0A
EndT:        0
---00000010--- Acq_st=3 2019-5-22 07:32:56 
[00]  G01  f 34   2328.6 2045997.0  1.0  1.0  5  0 286393343
$GNGGA,000000.000,,,,,0,00,,,M,,,,0000*2B
$GNRMC,000000.000,A,,,,,,,000000,,*26
$GPGSA,A,1,,,,,,,,,,,,,,,*1E
$BDGSA,A,1,,,,,,,,,,,,,,,*0F
$GPGSV,1,1,01,01,00,000,34*4E
$LOGTIM,0,0.000000,0.000000,0.000000,0.000000,0.000*0A
EndT:        0
---00000011--- Acq_st=3 2019-5-22 07:32:57 
[00]  G01  f 33   2327.1 2045996.9  1.0  0.9  5  0 286394343
[01]  G17  1 29  -1855.3 2046003.0  0.1  0.0  1  0         0
[02]  G18  1 20   3009.3 2045997.7  0.1  0.0  1  0         0
$GNGGA,000000.000,,,,,0,00,,,M,,,,0000*2B
$GNRMC,000000.000,A,,,,,,,000000,,*26
$GPGSA,A,1,,,,,,,,,,,,,,,*1E
$BDGSA,A,1,,,,,,,,,,,,,,,*0F
$GPGSV,1,1,01,01,00,000,33*49
$LOGTIM,0,0.000000,0.000000,0.000000,0.000000,0.000*0A
EndT:        0
---00000012--- Acq_st=3 2019-5-22 07:32:58 
[00]  G01  f 33   2327.6 2045997.1  1.0  0.9  5  0 286395343
[01]  G17  7 32  -1843.1 2046002.3  0.7  1.0  5  0        17
[02]  G18  7  7   3010.9 2045995.9  0.3  0.0 20  0         9
[03]  G19  1  7  -2717.9 2046005.6  0.0  0.0  1  0         0
$GNGGA,000000.000,,,,,0,00,,,M,,,,0000*2B
$GNRMC,000000.000,A,,,,,,,000000,,*26
$GPGSA,A,1,,,,,,,,,,,,,,,*1E
$BDGSA,A,1,,,,,,,,,,,,,,,*0F
$GPGSV,1,1,02,01,00,000,33,17,00,000,32*7D
$LOGTIM,0,0.000000,0.000000,0.000000,0.000000,0.000*0A
EndT:        0
---00000013--- Acq_st=3 2019-5-22 07:32:59 
[00]  G01  f 33   2327.3 2045997.0  1.0  1.0  5  0 286396343
[01]  G17  7 46  -1844.1 2046002.3  1.0  1.0  5  0         0
[02]  G18  7 38   3010.4 2045996.0  0.8  1.0  5  0        17
[03]  G19  7 28  -2634.5 2046003.4  0.5  1.0 10  0         1
$GNGGA,000000.000,,,,,0,00,,,M,,,,0000*2B
$GNRMC,000000.000,A,,,,,,,000000,,*26
$GPGSA,A,1,,,,,,,,,,,,,,,*1E
$BDGSA,A,1,,,,,,,,,,,,,,,*0F
$GPGSV,1,1,04,01,00,000,33,17,00,000,46,18,00,000,38,19,00,000,28*78
$LOGTIM,0,0.000000,0.000000,0.000000,0.000000,0.000*0A
EndT:        0
---00000014--- Acq_st=3 2019-5-22 07:33:0 
[00]  G01  f 34   2329.0 2045997.1  1.0  0.9  5  0 286397343
[01]  G17  7 46  -1842.3 2046002.4  1.0  1.0  5  0         0
[02]  G18  7 39   3012.6 2045996.0  1.0  1.0  5  0        17
[03]  G19  7 39  -2633.2 2046003.4  1.0  1.0  5  0        17
$GNGGA,000000.000,,,,,0,00,,,M,,,,0000*2B
$GNRMC,000000.000,A,,,,,,,000000,,*26
$GPGSA,A,1,,,,,,,,,,,,,,,*1E
$BDGSA,A,1,,,,,,,,,,,,,,,*0F
$GPGSV,1,1,04,01,00,000,34,17,00,000,46,18,00,000,39,19,00,000,39*7E
$LOGTIM,0,0.000000,0.000000,0.000000,0.000000,0.000*0A
EndT:        0
---00000015--- Acq_st=3 2019-5-22 07:33:1 
[00]  G01  f 34   2333.7 2045997.0  1.0  1.0  5  0 286398343
[01]  G17  f 46  -1838.7 2046002.4  1.0  1.0  5  0         0
[02]  G18  f 39   3016.2 2045996.1  1.0  1.0  5  0        17
[03]  G19  f 39  -2629.5 2046003.4  1.0  1.0  5  0        17
$GNGGA,000000.000,,,,,0,00,,,M,,,,0000*2B
$GNRMC,000000.000,A,,,,,,,000000,,*26
$GPGSA,A,1,,,,,,,,,,,,,,,*1E
$BDGSA,A,1,,,,,,,,,,,,,,,*0F
$GPGSV,1,1,04,01,00,000,34,17,00,000,46,18,00,000,39,19,00,000,39*7E
$LOGTIM,0,0.000000,0.000000,0.000000,0.000000,0.000*0A
EndT:        0
---00000016--- Acq_st=3 2019-5-22 07:33:2 
[00]  G01  f 34   2332.7 2045997.0  1.0  1.0  5  0 286399343
[01]  G17  f 45  -1839.0 2046002.4  1.0  1.0  5  0 286399340
[02]  G18  f 40   3015.4 2045996.0  1.0  1.0  5  0 286399337
[03]  G19  f 40  -2629.8 2046003.4  1.0  1.0  5  0 286399337
$GNGGA,000000.000,,,,,0,00,,,M,,,,0000*2B
$GNRMC,000000.000,A,,,,,,,000000,,*26
$GPGSA,A,1,,,,,,,,,,,,,,,*1E
$BDGSA,A,1,,,,,,,,,,,,,,,*0F
$GPGSV,1,1,04,01,00,000,34,17,00,000,45,18,00,000,40,19,00,000,40*7D
$LOGTIM,0,0.000000,0.000000,0.000000,0.000000,0.000*0A
EndT:        0
---00000017--- Acq_st=3 2019-5-22 07:33:3 
[00]  G01  f 35   2334.1 2045997.0  1.0  0.9  5  0 286400343
[01]  G17  f 46  -1837.9 2046002.4  1.0  1.0  5  0 286400340
[02]  G18  f 40   3016.5 2045996.1  1.0  1.0  5  0 286400337
[03]  G19  f 40  -2628.6 2046003.4  1.0  1.0  5  0 286400337
[04]  G28  1 11  -1439.8 2046003.0 -0.1  0.0  1  0         0
$GNGGA,000000.000,,,,,0,00,,,M,,,,0000*2B
$GNRMC,000000.000,A,,,,,,,000000,,*26
$GPGSA,A,1,,,,,,,,,,,,,,,*1E
$BDGSA,A,1,,,,,,,,,,,,,,,*0F
$GPGSV,1,1,04,01,00,000,35,17,00,000,46,18,00,000,40,19,00,000,40*7F
$LOGTIM,0,0.000000,0.000000,0.000000,0.000000,0.000*0A
EndT:        0
---00000018--- Acq_st=3 2019-5-22 07:33:4 
[00]  G01  f 36   2336.2 2045997.0  1.0  0.9  5  0 286401343
[01]  G17  f 45  -1836.4 2046002.4  1.0  1.0  5  0 286401340
[02]  G18  f 40   3018.4 2045996.1  1.0  1.0  5  0 286401337
[03]  G19  f 40  -2627.2 2046003.3  1.0  1.0  5  0 286401337
[04]  G28  7 20  -1432.3 2046001.9  0.4  0.0 20  0         9
$GNGGA,000000.000,,,,,0,00,,,M,,,,0000*2B
$GNRMC,000000.000,A,,,,,,,000000,,*26
$GPGSA,A,1,,,,,,,,,,,,,,,*1E
$BDGSA,A,1,,,,,,,,,,,,,,,*0F
$GPGSV,2,1,05,01,00,000,36,17,00,000,45,18,00,000,40,19,00,000,40*7D
$GPGSV,2,2,05,28,00,000,20*44
$LOGTIM,0,0.000000,0.000000,0.000000,0.000000,0.000*0A
EndT:        0
---00000019--- Acq_st=3 2019-5-22 07:33:5 
[00]  G01  f 36   2334.1 2045996.9  1.0  1.0  5  0 286402343
[01]  G17  f 45  -1838.1 2046002.4  1.0  1.0  5  0 286402340
[02]  G18  f 40   3017.0 2045996.0  1.0  1.0  5  0 286402337
[03]  G19  f 41  -2628.6 2046003.4  1.0  1.0  5  0 286402337
[04]  G28  7 37  -1434.1 2046001.9  0.8  1.0  5  0         6
$GNGGA,000000.000,,,,,0,00,,,M,,,,0000*2B
$GNRMC,000000.000,A,,,,,,,000000,,*26
$GPGSA,A,1,,,,,,,,,,,,,,,*1E
$BDGSA,A,1,,,,,,,,,,,,,,,*0F
$GPGSV,2,1,05,01,00,000,36,17,00,000,45,18,00,000,40,19,00,000,41*7C
$GPGSV,2,2,05,28,00,000,37*42
$LOGTIM,0,0.000000,0.000000,0.000000,0.000000,0.000*0A
EndT:        0
---00000020--- Acq_st=3 2019-5-22 07:33:6 
[00]  G01  f 36   2335.5 2045997.0  1.0  1.0  5  0 286403343
[01]  G17  f 45  -1836.8 2046002.4  1.0  1.0  5  0 286403340
[02]  G18  f 39   3017.8 2045996.1  1.0  1.0  5  0 286403337
[03]  G19  f 40  -2627.2 2046003.4  1.0  1.0  5  0 286403337
[04]  G28  7 37  -1432.7 2046001.9  1.0  1.0  5  0         6
$GNGGA,000000.000,,,,,0,00,,,M,,,,0000*2B
$GNRMC,000000.000,A,,,,,,,000000,,*26
$GPGSA,A,1,,,,,,,,,,,,,,,*1E
$BDGSA,A,1,,,,,,,,,,,,,,,*0F
$GPGSV,2,1,05,01,00,000,36,17,00,000,45,18,00,000,39,19,00,000,40*73
$GPGSV,2,2,05,28,00,000,37*42
$LOGTIM,0,0.000000,0.000000,0.000000,0.000000,0.000*0A
EndT:        0
---00000021--- Acq_st=3 2019-5-22 07:33:7 
[00]  G01  f 37   2331.8 2045996.9  1.0  1.0  5  0 286404343
[01]  G17  f 45  -1841.2 2046002.4  1.0  1.0  5  0 286404340
[02]  G18  f 39   3013.4 2045996.1  1.0  1.0  5  0 286404337
[03]  G19  f 40  -2632.0 2046003.4  1.0  1.0  5  0 286404337
[04]  G28  f 37  -1436.9 2046001.9  1.0  1.0  5  0         6
$GNGGA,000000.000,,,,,0,00,,,M,,,,0000*2B
$GNRMC,000000.000,A,,,,,,,000000,,*26
$GPGSA,A,1,,,,,,,,,,,,,,,*1E
$BDGSA,A,1,,,,,,,,,,,,,,,*0F
$GPGSV,2,1,05,01,00,000,37,17,00,000,45,18,00,000,39,19,00,000,40*72
$GPGSV,2,2,05,28,00,000,37*42
$LOGTIM,0,0.000000,0.000000,0.000000,0.000000,0.000*0A
EndT:        0
---00000022--- Acq_st=3 2019-5-22 07:33:8 
[00]  G01  f 38   2329.3 2045997.0  1.0  1.0  5  0 286405343
[01]  G17  f 45  -1842.9 2046002.4  1.0  1.0  5  0 286405340
[02]  G18  f 39   3011.8 2045996.1  1.0  1.0  5  0 286405337
[03]  G19  f 40  -2633.4 2046003.4  1.0  1.0  5  0 286405337
[04]  G28  f 37  -1437.4 2046001.9  1.0  1.0  5  0 286405346
$GNGGA,000000.000,,,,,0,00,,,M,,,,0000*2B
$GNRMC,000000.000,A,,,,,,,000000,,*26
$GPGSA,A,1,,,,,,,,,,,,,,,*1E
$BDGSA,A,1,,,,,,,,,,,,,,,*0F
$GPGSV,2,1,05,01,00,000,38,17,00,000,45,18,00,000,39,19,00,000,40*7D
$GPGSV,2,2,05,28,00,000,37*42
$LOGTIM,0,0.000000,0.000000,0.000000,0.000000,0.000*0A
EndT:        0
---00000023--- Acq_st=3 2019-5-22 07:33:9 
[00]  G01  f 38   2337.6 2045996.9  1.0  1.0  5  0 286406343
[01]  G17  f 44  -1835.5 2046002.4  1.0  1.0  5  0 286406340
[02]  G18  f 39   3019.0 2045996.1  1.0  1.0  5  0 286406337
[03]  G19  f 40  -2626.2 2046003.4  1.0  1.0  5  0 286406337
[04]  G28  f 38  -1430.2 2046001.8  1.0  1.0  5  0 286406346
$GNGGA,000000.000,,,,,0,00,,,M,,,,0000*2B
$GNRMC,000000.000,A,,,,,,,000000,,*26
$GPGSA,A,1,,,,,,,,,,,,,,,*1E
$BDGSA,A,1,,,,,,,,,,,,,,,*0F
$GPGSV,2,1,05,01,00,000,38,17,00,000,44,18,00,000,39,19,00,000,40*7C
$GPGSV,2,2,05,28,00,000,38*4D
$LOGTIM,0,0.000000,0.000000,0.000000,0.000000,0.000*0A
EndT:        0
---00000024--- Acq_st=3 2019-5-22 07:33:10 
[00]  G01  f 39   2337.9 2045996.9  1.0  1.0  5  0 286407343
[01]  G17  f 44  -1835.6 2046002.4  1.0  1.0  5  0 286407340
[02]  G18  f 39   3019.2 2045996.1  1.0  1.0  5  0 286407337
[03]  G19  f 39  -2626.5 2046003.4  1.0  1.0  5  0 286407337
[04]  G28  f 38  -1429.6 2046001.8  1.0  0.9  5  0 286407346
$GNGGA,000000.000,,,,,0,00,,,M,,,,0000*2B
$GNRMC,000000.000,A,,,,,,,000000,,*26
$GPGSA,A,1,,,,,,,,,,,,,,,*1E
$BDGSA,A,1,,,,,,,,,,,,,,,*0F
$GPGSV,2,1,05,01,00,000,39,17,00,000,44,18,00,000,39,19,00,000,39*73
$GPGSV,2,2,05,28,00,000,38*4D
$LOGTIM,0,0.000000,0.000000,0.000000,0.000000,0.000*0A
EndT:        0
---00000025--- Acq_st=3 2019-5-22 07:33:11 
[00]  G01  f 39   2335.8 2045997.0  1.0  1.0  5  0 286408343
[01]  G17  f 45  -1837.7 2046002.4  1.0  1.0  5  0 286408340
[02]  G18  f 39   3017.3 2045996.1  1.0  1.0  5  0 286408337
[03]  G19  f 39  -2628.5 2046003.5  1.0  1.0  5  0 286408337
[04]  G28  f 38  -1431.7 2046001.8  1.0  1.0  5  0 286408346
$GNGGA,000000.000,,,,,0,00,,,M,,,,0000*2B
$GNRMC,000000.000,A,,,,,,,000000,,*26
$GPGSA,A,1,,,,,,,,,,,,,,,*1E
$BDGSA,A,1,,,,,,,,,,,,,,,*0F
$GPGSV,2,1,05,01,00,000,39,17,00,000,45,18,00,000,39,19,00,000,39*72
$GPGSV,2,2,05,28,00,000,38*4D
$LOGTIM,0,0.000000,0.000000,0.000000,0.000000,0.000*0A
EndT:        0
---00000026--- Acq_st=3 2019-5-22 07:33:12 
[00]  G01  f 40   2334.0 2045997.0  1.0  1.0  5  0 286409343
[01]  G17  f 45  -1839.6 2046002.4  1.0  1.0  5  0 286409340
[02]  G18  f 39   3014.8 2045996.1  1.0  1.0  5  0 286409337
[03]  G19  f 39  -2629.9 2046003.5  1.0  1.0  5  0 286409337
[04]  G28  f 38  -1433.1 2046001.8  1.0  1.0  5  0 286409346
$GNGGA,000000.000,,,,,0,00,,,M,,,,0000*2B
$GNRMC,000000.000,A,,,,,,,000000,,*26
$GPGSA,A,1,,,,,,,,,,,,,,,*1E
$BDGSA,A,1,,,,,,,,,,,,,,,*0F
$GPGSV,2,1,05,01,00,000,40,17,00,000,45,18,00,000,39,19,00,000,39*7C
$GPGSV,2,2,05,28,00,000,38*4D
$LOGTIM,0,0.000000,0.000000,0.000000,0.000000,0.000*0A
EndT:        0
---00000027--- Acq_st=3 2019-5-22 07:33:13 
[00]  G01  f 40   2335.9 2045997.0  1.0  1.0  5  0 286410343
[01]  G17  f 45  -1837.8 2046002.4  1.0  1.0  5  0 286410340
[02]  G18  f 39   3016.9 2045996.0  1.0  1.0  5  0 286410337
[03]  G19  f 39  -2628.2 2046003.4  1.0  1.0  5  0 286410337
[04]  G28  f 39  -1430.5 2046001.8  1.0  1.0  5  0 286410346
$GNGGA,000000.000,,,,,0,00,,,M,,,,0000*2B
$GNRMC,000000.000,A,,,,,,,000000,,*26
$GPGSA,A,1,,,,,,,,,,,,,,,*1E
$BDGSA,A,1,,,,,,,,,,,,,,,*0F
$GPGSV,2,1,05,01,00,000,40,17,00,000,45,18,00,000,39,19,00,000,39*7C
$GPGSV,2,2,05,28,00,000,39*4C
$LOGTIM,0,0.000000,0.000000,0.000000,0.000000,0.000*0A
EndT:        0
---00000028--- Acq_st=3 2019-5-22 07:33:14 
[00]  G01  f 41   2337.1 2045997.0  1.0  1.0  5  0 286411343
[01]  G17  f 45  -1836.9 2046002.4  1.0  1.0  5  0 286411340
[02]  G18  f 39   3017.4 2045996.1  1.0  1.0  5  0 286411337
[03]  G19  f 39  -2627.5 2046003.4  1.0  1.0  5  0 286411337
[04]  G28  f 39  -1429.2 2046001.9  1.0  1.0  5  0 286411346
$GNGGA,000000.000,,,,,0,00,,,M,,,,0000*2B
$GNRMC,000000.000,A,,,,,,,000000,,*26
$GPGSA,A,1,,,,,,,,,,,,,,,*1E
$BDGSA,A,1,,,,,,,,,,,,,,,*0F
$GPGSV,2,1,05,01,00,000,41,17,00,000,45,18,00,000,39,19,00,000,39*7D
$GPGSV,2,2,05,28,00,000,39*4C
$LOGTIM,0,0.000000,0.000000,0.000000,0.000000,0.000*0A
EndT:        0
---00000029--- Acq_st=3 2019-5-22 07:33:15 
[00]  G01  f 41   2335.1 2045997.0  1.0  1.0  5  0 286412343
[01]  G17  f 45  -1839.0 2046002.4  1.0  1.0  5  0 286412340
[02]  G18  f 39   3015.4 2045996.1  1.0  1.0  5  0 286412337
[03]  G19  f 39  -2629.9 2046003.4  1.0  1.0  5  0 286412337
[04]  G28  f 39  -1430.8 2046001.9  1.0  1.0  5  0 286412346
$GNGGA,000000.000,,,,,0,00,,,M,,,,0000*2B
$GNRMC,000000.000,A,,,,,,,000000,,*26
$GPGSA,A,1,,,,,,,,,,,,,,,*1E
$BDGSA,A,1,,,,,,,,,,,,,,,*0F
$GPGSV,2,1,05,01,00,000,41,17,00,000,45,18,00,000,39,19,00,000,39*7D
$GPGSV,2,2,05,28,00,000,39*4C
$LOGTIM,0,0.000000,0.000000,0.000000,0.000000,0.000*0A
EndT:        1
---00000030--- Acq_st=3 2019-5-22 07:33:16 
[00]  G01  f 42   2332.6 2045997.0  1.0  1.0  5  0 286413343
[01]  G17  f 45  -1842.0 2046002.4  1.0  1.0  5  0 286413340
[02]  G18  f 39   3012.8 2045996.1  1.0  1.0  5  0 286413337
[03]  G19  f 39  -2632.4 2046003.4  1.0  1.0  5  0 286413337
[04]  G28  f 39  -1433.4 2046001.9  1.0  1.0  5  0 286413346
[16]  B08  1  7    -53.5 4092000.4  0.1  0.0  1  0        19
$GNGGA,000000.000,,,,,0,00,,,M,,,,0000*2B
$GNRMC,000000.000,A,,,,,,,000000,,*26
$GPGSA,A,1,,,,,,,,,,,,,,,*1E
$BDGSA,A,1,,,,,,,,,,,,,,,*0F
$GPGSV,2,1,05,01,00,000,42,17,00,000,45,18,00,000,39,19,00,000,39*7E
$GPGSV,2,2,05,28,00,000,39*4C
$LOGTIM,0,0.000000,0.000000,0.000000,0.000000,0.000*0A
EndT:        0
---00000031--- Acq_st=3 2019-5-22 07:33:17 
[00]  G01  f 41   2331.4 2045996.9  1.0  1.0  5  0 286414343
[01]  G17  f 46  -1843.1 2046002.4  1.0  1.0  5  0 286414340
[02]  G18  f 38   3011.8 2045996.1  1.0  1.0  5  0 286414337
[03]  G19  f 38  -2633.1 2046003.5  1.0  1.0  5  0 286414337
[04]  G28  f 39  -1434.2 2046001.9  1.0  1.0  5  0 286414346
[16]  B08  7 30    -54.7 4092000.2  0.2  1.0  5  0      1019
$GNGGA,000000.000,,,,,0,00,,,M,,,,0000*2B
$GNRMC,000000.000,A,,,,,,,000000,,*26
$GPGSA,A,1,,,,,,,,,,,,,,,*1E
$BDGSA,A,1,,,,,,,,,,,,,,,*0F
$GPGSV,2,1,05,01,00,000,41,17,00,000,46,18,00,000,38,19,00,000,38*7E
$GPGSV,2,2,05,28,00,000,39*4C
$BDGSV,1,1,01,08,00,000,30*52
$LOGTIM,0,0.000000,0.000000,0.000000,0.000000,0.000*0A
EndT:        0
---00000032--- Acq_st=3 2019-5-22 07:33:18 
[00]  G01  f 41   2331.4 2045997.0  1.0  1.0  5  0 286415343
[01]  G17  f 46  -1843.5 2046002.4  1.0  1.0  5  0 286415340
[02]  G18  f 38   3010.9 2045996.1  1.0  1.0  5  0 286415337
[03]  G19  f 38  -2634.2 2046003.4  1.0  1.0  5  0 286415337
[04]  G28  f 40  -1433.8 2046001.8  1.0  1.0  5  0 286415346
[16]  B08  7 37    -54.7 4092000.2  1.0  0.9  5  0      2014
[17]  B10  1  7    -33.2 4092000.1  0.1  0.0  1  0         0
$GNGGA,000000.000,,,,,0,00,,,M,,,,0000*2B
$GNRMC,000000.000,A,,,,,,,000000,,*26
$GPGSA,A,1,,,,,,,,,,,,,,,*1E
$BDGSA,A,1,,,,,,,,,,,,,,,*0F
$GPGSV,2,1,05,01,00,000,41,17,00,000,46,18,00,000,38,19,00,000,38*7E
$GPGSV,2,2,05,28,00,000,40*42
$BDGSV,1,1,01,08,00,000,37*55
$LOGTIM,0,0.000000,0.000000,0.000000,0.000000,0.000*0A
EndT:        0
---00000033--- Acq_st=3 2019-5-22 07:33:19 
[00]  G01  f 41   2332.8 2045997.0  1.0  1.0  5  0 286416343
[01]  G17  f 46  -1842.1 2046002.4  1.0  1.0  5  0 286416340
[02]  G18  f 38   3012.7 2045996.2  1.0  1.0  5  0 286416337
[03]  G19  f 38  -2633.3 2046003.4  1.0  0.9  5  0 286416337
[04]  G28  f 40  -1432.1 2046001.8  1.0  1.0  5  0 286416346
[16]  B08  7 37    -54.0 4092000.2  1.0  1.0  5  0      3014
[17]  B10  7 17   -124.1 4092000.3  0.1  0.0 20  0       479
$GNGGA,000000.000,,,,,0,00,,,M,,,,0000*2B
$GNRMC,000000.000,A,,,,,,,000000,,*26
$GPGSA,A,1,,,,,,,,,,,,,,,*1E
$BDGSA,A,1,,,,,,,,,,,,,,,*0F
$GPGSV,2,1,05,01,00,000,41,17,00,000,46,18,00,000,38,19,00,000,38*7E
$GPGSV,2,2,05,28,00,000,40*42
$BDGSV,1,1,02,08,00,000,37,10,00,000,17*61
$LOGTIM,0,0.000000,0.000000,0.000000,0.000000,0.000*0A
EndT:        0
---00000034--- Acq_st=3 2019-5-22 07:33:20 
[00]  G01  f 40   2335.1 2045997.0  1.0  1.0  5  0 286417343
[01]  G17  f 45  -1840.4 2046002.4  1.0  1.0  5  0 286417340
[02]  G18  f 38   3014.8 2045996.1  1.0  1.0  5  0 286417337
[03]  G19  f 37  -2630.7 2046003.4  1.0  1.0  5  0 286417337
[04]  G28  f 40  -1430.4 2046001.8  1.0  1.0  5  0 286417346
[16]  B08  7 37    -52.5 4092000.2  1.0  1.0  5  0      4014
[17]  B10  7 37   -131.0 4092000.4  0.5  1.0  5  0      1474
$GNGGA,000000.000,,,,,0,00,,,M,,,,0000*2B
$GNRMC,000000.000,A,,,,,,,000000,,*26
$GPGSA,A,1,,,,,,,,,,,,,,,*1E
$BDGSA,A,1,,,,,,,,,,,,,,,*0F
$GPGSV,2,1,05,01,00,000,40,17,00,000,45,18,00,000,38,19,00,000,37*73
$GPGSV,2,2,05,28,00,000,40*42
$BDGSV,1,1,02,08,00,000,37,10,00,000,37*63
$LOGTIM,0,0.000000,0.000000,0.000000,0.000000,0.000*0A
EndT:        0
---00000035--- Acq_st=3 2019-5-22 07:33:21 
[00]  G01  f 41   2340.8 2045997.0  1.0  1.0  5  0 286418343
[01]  G17  f 46  -1834.2 2046002.4  1.0  1.0  5  0 286418340
[02]  G18  f 38   3020.8 2045996.1  1.0  1.0  5  0 286418337
[03]  G19  f 37  -2625.3 2046003.5  1.0  1.0  5  0 286418337
[04]  G28  f 40  -1423.4 2046001.8  1.0  1.0  5  0 286418346
[16]  B08 1f 37    -46.0 4092000.2  1.0  1.0  5  0      5014
[17]  B10 1f 38   -125.2 4092000.4  1.0  1.0  5  0      2474
$GNGGA,000000.000,,,,,0,00,,,M,,,,0000*2B
$GNRMC,000000.000,A,,,,,,,000000,,*26
$GPGSA,A,1,,,,,,,,,,,,,,,*1E
$BDGSA,A,1,,,,,,,,,,,,,,,*0F
$GPGSV,2,1,05,01,00,000,41,17,00,000,46,18,00,000,38,19,00,000,37*71
$GPGSV,2,2,05,28,00,000,40*42
$BDGSV,1,1,02,08,00,000,37,10,00,000,38*6C
$LOGTIM,0,0.000000,0.000000,0.000000,0.000000,0.000*0A
EndT:        0
---00000036--- Acq_st=3 2019-5-22 07:33:22 
[00]  G01  f 40   2341.6 2045996.9  1.0  1.0  5  0 286419343
[01]  G17  f 46  -1833.9 2046002.4  1.0  1.0  5  0 286419340
[02]  G18  f 39   3021.0 2045996.0  1.0  1.0  5  0 286419337
[03]  G19  f 37  -2624.5 2046003.4  1.0  1.0  5  0 286419337
[04]  G28  f 40  -1422.8 2046001.9  1.0  1.0  5  0 286419346
[16]  B08 1f 37    -45.4 4092000.2  1.0  1.0  5  0 286405294
[17]  B10 1f 37   -124.8 4092000.4  1.0  1.0  5  0 286405294
[18]  B13  1  7   -438.2 4091999.0 -0.0  0.0  1  0         0
$GNGGA,000000.000,,,,,0,00,,,M,,,,0000*2B
$GNRMC,000000.000,A,,,,,,,000000,,*26
$GPGSA,A,1,,,,,,,,,,,,,,,*1E
$BDGSA,A,1,,,,,,,,,,,,,,,*0F
$GPGSV,2,1,05,01,00,000,40,17,00,000,46,18,00,000,39,19,00,000,37*71
$GPGSV,2,2,05,28,00,000,40*42
$BDGSV,1,1,02,08,00,000,37,10,00,000,37*63
$LOGTIM,0,0.000000,0.000000,0.000000,0.000000,0.000*0A
EndT:        0
---00000037--- Acq_st=3 2019-5-22 07:33:23 
[00]  G01  f 40   2343.2 2045997.0  1.0  1.0  5  0 286420343
[01]  G17  f 45  -1832.6 2046002.4  1.0  1.0  5  0 286420340
[02]  G18  f 39   3022.0 2045996.1  1.0  1.0  5  0 286420337
[03]  G19  f 37  -2622.3 2046003.4  1.0  1.0  5  0 286420337
[04]  G28  f 39  -1420.8 2046001.8  1.0  1.0  5  0 286420346
[16]  B08 1f 36    -44.3 4092000.1  1.0  0.9  5  0 286406294
[17]  B10 1f 37   -123.2 4092000.3  1.0  1.0  5  0 286406294
[18]  B13  1  7   -419.6 4092001.2 -0.1  0.0  1  0       671
$GNGGA,000000.000,,,,,0,00,,,M,,,,0000*2B
$GNRMC,000000.000,A,,,,,,,000000,,*26
$GPGSA,A,1,,,,,,,,,,,,,,,*1E
$BDGSA,A,1,,,,,,,,,,,,,,,*0F
$GPGSV,2,1,05,01,00,000,40,17,00,000,45,18,00,000,39,19,00,000,37*72
$GPGSV,2,2,05,28,00,000,39*4C
$BDGSV,1,1,02,08,00,000,36,10,00,000,37*62
$LOGTIM,0,0.000000,0.000000,0.000000,0.000000,0.000*0A
EndT:        0
---00000038--- Acq_st=3 2019-5-22 07:33:24 
[00]  G01  f 40   2342.6 2045997.0  1.0  1.0  5  0 286421343
[01]  G17  f 45  -1833.1 2046002.4  1.0  1.0  5  0 286421340
[02]  G18  f 38   3021.1 2045996.1  1.0  1.0  5  0 286421337
[03]  G19  f 37  -2623.1 2046003.4  1.0  1.0  5  0 286421337
[04]  G28  f 39  -1421.3 2046001.8  1.0  1.0  5  0 286421346
[16]  B08 1f 36    -44.2 4092000.1  1.0  1.0  5  0 286407294
[17]  B10 1f 37   -123.4 4092000.3  1.0  1.0  5  0 286407294
[18]  B13  1  7   -420.5 4092001.1  0.2  0.0  1  0      1671
$GNGGA,000000.000,,,,,0,00,,,M,,,,0000*2B
$GNRMC,000000.000,A,,,,,,,000000,,*26
$GPGSA,A,1,,,,,,,,,,,,,,,*1E
$BDGSA,A,1,,,,,,,,,,,,,,,*0F
$GPGSV,2,1,05,01,00,000,40,17,00,000,45,18,00,000,38,19,00,000,37*73
$GPGSV,2,2,05,28,00,000,39*4C
$BDGSV,1,1,02,08,00,000,36,10,00,000,37*62
$LOGTIM,0,0.000000,0.000000,0.000000,0.000000,0.000*0A
EndT:        0
---00000039--- Acq_st=3 2019-5-22 07:33:25 
[00]  G01  f 40   2341.8 2045996.9  1.0  1.0  5  0 286422343
[01]  G17  f 44  -1834.8 2046002.4  1.0  1.0  5  0 286422340
[02]  G18  f 38   3020.0 2045996.1  1.0  1.0  5  0 286422337
[03]  G19  f 37  -2625.9 2046003.4  1.0  1.0  5  0 286422337
[04]  G28  f 39  -1421.8 2046001.9  1.0  1.0  5  0 286422346
[16]  B08 1f 36    -46.2 4092000.2  1.0  1.0  5  0 286408294
[17]  B10 1f 37   -125.9 4092000.3  1.0  1.0  5  0 286408294
$GNGGA,000000.000,,,,,0,00,,,M,,,,0000*2B
$GNRMC,000000.000,A,,,,,,,000000,,*26
$GPGSA,A,1,,,,,,,,,,,,,,,*1E
$BDGSA,A,1,,,,,,,,,,,,,,,*0F
$GPGSV,2,1,05,01,00,000,40,17,00,000,44,18,00,000,38,19,00,000,37*72
$GPGSV,2,2,05,28,00,000,39*4C
$BDGSV,1,1,02,08,00,000,36,10,00,000,37*62
$LOGTIM,0,0.000000,0.000000,0.000000,0.000000,0.000*0A
EndT:        0
---00000040--- Acq_st=3 2019-5-22 07:33:26 
[00]  G01  f 40   2339.8 2045997.0  1.0  1.0  5  0 286423343
[01]  G17  f 44  -1836.4 2046002.4  1.0  1.0  5  0 286423340
[02]  G18  f 38   3018.4 2045996.1  1.0  1.0  5  0 286423337
[03]  G19  f 37  -2627.5 2046003.4  1.0  1.0  5  0 286423337
[04]  G28  f 39  -1423.3 2046001.8  1.0  1.0  5  0 286423346
[16]  B08 1f 37    -47.7 4092000.1  1.0  0.9  5  0 286409294
[17]  B10 1f 37   -127.2 4092000.3  1.0  0.9  5  0 286409294
$GNGGA,000000.000,,,,,0,00,,,M,,,,0000*2B
$GNRMC,000000.000,A,,,,,,,000000,,*26
$GPGSA,A,1,,,,,,,,,,,,,,,*1E
$BDGSA,A,1,,,,,,,,,,,,,,,*0F
$GPGSV,2,1,05,01,00,000,40,17,00,000,44,18,00,000,38,19,00,000,37*72
$GPGSV,2,2,05,28,00,000,39*4C
$BDGSV,1,1,02,08,00,000,37,10,00,000,37*63
$LOGTIM,0,0.000000,0.000000,0.000000,0.000000,0.000*0A
EndT:        0
---00000041--- Acq_st=3 2019-5-22 07:33:27 
[00]  G01  f 40   2337.1 2045997.0  1.0  1.0  5  0 286424343
[01]  G17  f 44  -1839.4 2046002.4  1.0  1.0  5  0 286424340
[02]  G18  f 38   3015.7 2045996.1  1.0  1.0  5  0 286424337
[03]  G19  f 38  -2630.0 2046003.5  1.0  1.0  5  0 286424337
[04]  G28  f 39  -1425.6 2046001.8  1.0  1.0  5  0 286424346
[16]  B08 1f 36    -51.0 4092000.1  1.0  0.9  5  0 286410294
[17]  B10 1f 37   -129.7 4092000.3  1.0  1.0  5  0 286410294
$GNGGA,000000.000,,,,,0,00,,,M,,,,0000*2B
$GNRMC,000000.000,A,,,,,,,000000,,*26
$GPGSA,A,1,,,,,,,,,,,,,,,*1E
$BDGSA,A,1,,,,,,,,,,,,,,,*0F
$GPGSV,2,1,05,01,00,000,40,17,00,000,44,18,00,000,38,19,00,000,38*7D
$GPGSV,2,2,05,28,00,000,39*4C
$BDGSV,1,1,02,08,00,000,36,10,00,000,37*62
$LOGTIM,0,0.000000,0.000000,0.000000,0.000000,0.000*0A
EndT:        0
---00000042--- Acq_st=3 2019-5-22 07:33:28 
[00]  G01  f 40   2335.4 2045997.0  1.0  1.0  5  0 286425343
[01]  G17  f 45  -1841.3 2046002.4  1.0  1.0  5  0 286425340
[02]  G18  f 38   3013.0 2045996.1  1.0  0.9  5  0 286425337
[03]  G19  f 37  -2630.9 2046003.4  1.0  0.9  5  0 286425337
[04]  G28  f 38  -1427.1 2046001.8  1.0  1.0  5  0 286425346
[16]  B08 1f 36    -52.6 4092000.2  1.0  1.0  5  0 286411294
[17]  B10 1f 37   -130.9 4092000.3  1.0  1.0  5  0 286411294
$GNGGA,000000.000,,,,,0,00,,,M,,,,0000*2B
$GNRMC,000000.000,A,,,,,,,000000,,*26
$GPGSA,A,1,,,,,,,,,,,,,,,*1E
$BDGSA,A,1,,,,,,,,,,,,,,,*0F
$GPGSV,2,1,05,01,00,000,40,17,00,000,45,18,00,000,38,19,00,000,37*73
$GPGSV,2,2,05,28,00,000,38*4D
$BDGSV,1,1,02,08,00,000,36,10,00,000,37*62
$LOGTIM,0,0.000000,0.000000,0.000000,0.000000,0.000*0A
EndT:        0
---00000043--- Acq_st=3 2019-5-22 07:33:29 
[00]  G01  f 39   2337.9 2045996.9  1.0  1.0  5  0 286426343
[01]  G17  f 45  -1838.5 2046002.4  1.0  1.0  5  0 286426340
[02]  G18  f 38   3015.9 2045996.0  1.0  1.0  5  0 286426337
[03]  G19  f 37  -2628.5 2046003.4  1.0  1.0  5  0 286426337
[04]  G28  f 38  -1424.7 2046001.9  1.0  1.0  5  0 286426346
[16]  B08 1f 36    -50.3 4092000.2  1.0  1.0  5  0 286412294
[17]  B10 1f 37   -128.8 4092000.4  1.0  1.0  5  0 286412294
$GNGGA,000000.000,,,,,0,00,,,M,,,,0000*2B
$GNRMC,000000.000,A,,,,,,,000000,,*26
$GPGSA,A,1,,,,,,,,,,,,,,,*1E
$BDGSA,A,1,,,,,,,,,,,,,,,*0F
$GPGSV,2,1,05,01,00,000,39,17,00,000,45,18,00,000,38,19,00,000,37*7D
$GPGSV,2,2,05,28,00,000,38*4D
$BDGSV,1,1,02,08,00,000,36,10,00,000,37*62
$LOGTIM,0,0.000000,0.000000,0.000000,0.000000,0.000*0A
EndT:        0
---00000044--- Acq_st=3 2019-5-22 07:33:30 
[00]  G01  f 39   2349.8 2045996.9  1.0  1.0  5  0 286427343
[01]  G17  f 45  -1827.7 2046002.4  1.0  1.0  5  0 286427340
[02]  G18  f 38   3027.5 2045996.0  1.0  1.0  5  0 286427337
[03]  G19  f 38  -2617.7 2046003.4  1.0  1.0  5  0 286427337
[04]  G28  f 38  -1412.9 2046001.8  1.0  1.0  5  0 286427346
[16]  B08 1f 36    -39.2 4092000.1  1.0  1.0  5  0 286413294
[17]  B10 1f 37   -117.2 4092000.3  1.0  1.0  5  0 286413294
lsq: nits= 4
$GNGGA,073330.416,3112.7231,N,12136.4332,E,1,05,5.0,27.4,M,,,,0000*20
$GNRMC,073330.416,A,3112.7231,N,12136.4332,E,0.30,0.00,220519,,*13
$GPGSA,A,3,01,17,18,19,28,,,,,,,,5.7,5.0,2.8*33
$BDGSA,A,3,,,,,,,,,,,,,5.7,5.0,2.8*2E
$GPGSV,2,1,05,01,00,000,39,17,00,000,45,18,00,000,38,19,00,000,38*72
$GPGSV,2,2,05,28,00,000,38*4D
$BDGSV,1,1,02,08,00,000,36,10,00,000,37*62
$LOGTIM,1,8333036.012088,0.000000,0.000000,0.000000,-60.187*13
EndT:        1
---00000045--- Acq_st=3 2019-5-22 07:33:30 
[00]  G01  f 40   2353.4 2045996.9  1.0  1.0  5  0 286428343
[01]  G17  f 45  -1823.9 2046002.4  1.0  1.0  5  0 286428340
[02]  G18  f 39   3031.0 2045996.1  1.0  1.0  5  0 286428337
[03]  G19  f 38  -2613.8 2046003.4  1.0  1.0  5  0 286428337
[04]  G28  f 38  -1408.5 2046001.9  1.0  1.0  5  0 286428346
[16]  B08 1f 36    -35.3 4092000.0  1.0  1.0  5  0 286414294
[17]  B10 1f 37   -113.7 4092000.3  1.0  1.0  5  0 286414294
lsq: nits= 2
$GNGGA,073332.000,3112.7233,N,12136.4317,E,1,05,5.0,31.7,M,,,,0000*20
$GNRMC,073332.000,A,3112.7233,N,12136.4317,E,0.44,0.00,220519,,*14
$GPGSA,A,3,01,17,18,19,28,,,,,,,,5.7,5.0,2.8*33
$BDGSA,A,3,,,,,,,,,,,,,5.7,5.0,2.8*2E
$GPGSV,2,1,05,01,00,000,40,17,00,000,45,18,00,000,39,19,00,000,38*7D
$GPGSV,2,2,05,28,00,000,38*4D
$BDGSV,1,1,02,08,00,000,36,10,00,000,37*62
$LOGTIM,1,-93.960512,0.000000,0.000000,0.000000,-59.864*0E
EndT:        2
---00000046--- Acq_st=3 2019-5-22 07:33:32 
[00]  G01  f 39   2351.4 2045996.9  1.0  1.0  5  0 286429927
[01]  G17  f 45  -1825.3 2046002.4  1.0  1.0  5  0 286429925
[02]  G18  f 39   3029.4 2045996.1  1.0  1.0  5  0 286429921
[03]  G19  f 38  -2616.0 2046003.4  1.0  1.0  5  0 286429921
[04]  G28  f 38  -1410.4 2046001.9  1.0  1.0  5  0 286429931
[16]  B08 1f 36    -37.5 4092000.1  1.0  1.0  5  0 286415878
[17]  B10 1f 38   -115.7 4092000.3  1.0  1.0  5  0 286415879
lsq: nits= 2
$GNGGA,073333.000,3112.7233,N,12136.4317,E,1,05,5.0,32.2,M,,,,0000*27
$GNRMC,073333.000,A,3112.7233,N,12136.4317,E,0.06,0.00,220519,,*13
$GPGSA,A,3,01,17,18,19,28,,,,,,,,5.7,5.0,2.8*33
$BDGSA,A,3,,,,,,,,,,,,,5.7,5.0,2.8*2E
$GPGSV,2,1,05,01,42,036,39,17,39,311,45,18,17,047,39,19,21,294,38*70
$GPGSV,2,2,05,28,74,316,38*4A
$BDGSV,1,1,02,08,00,000,36,10,00,000,38*6D
$LOGTIM,1,-153.332933,0.000000,0.000000,0.000000,-59.805*36
EndT:        2
---00000047--- Acq_st=3 2019-5-22 07:33:34 
[00]  G01  f 39   2351.5 2045997.0  1.0  1.0  5  0 286430927
[01]  G17  f 45  -1826.2 2046002.4  1.0  1.0  5  0 286430925
[02]  G18  f 38   3028.4 2045996.1  1.0  1.0  5  0 286430921
[03]  G19  f 38  -2616.6 2046003.4  1.0  1.0  5  0 286430921
[04]  G28  f 38  -1410.4 2046001.9  1.0  1.0  5  0 286430931
[16]  B08 1f 36    -37.6 4092000.1  1.0  0.9  5  0 286416878
[17]  B10 1f 38   -115.6 4092000.3  1.0  1.0  5  0 286416879
lsq: nits= 2
$GNGGA,073334.000,3112.7233,N,12136.4318,E,1,05,5.0,32.9,M,,,,0000*24
$GNRMC,073334.000,A,3112.7233,N,12136.4318,E,0.98,0.00,220519,,*1C
$GPGSA,A,3,01,17,18,19,28,,,,,,,,5.7,5.0,2.8*33
$BDGSA,A,3,,,,,,,,,,,,,5.7,5.0,2.8*2E
$GPGSV,2,1,05,01,42,036,39,17,39,311,45,18,17,047,38,19,21,294,38*71
$GPGSV,2,2,05,28,74,316,38*4A
$BDGSV,1,1,02,08,00,000,36,10,00,000,38*6D
$LOGTIM,1,-213.180479,0.000000,0.000000,0.000000,-60.614*3D
EndT:        2
---00000048--- Acq_st=3 2019-5-22 07:33:34 
[00]  G01  f 38   2342.5 2045997.0  1.0  1.0  5  0 286431927
[01]  G17  f 45  -1834.9 2046002.4  1.0  1.0  5  0 286431925
[02]  G18  f 39   3019.6 2045996.1  1.0  1.0  5  0 286431921
[03]  G19  f 39  -2625.4 2046003.4  1.0  1.0  5  0 286431921
[04]  G28  f 38  -1418.7 2046001.9  1.0  1.0  5  0 286431931
[16]  B08 1f 36    -46.5 4092000.1  1.0  0.9  5  0 286417878
[17]  B10 1f 37   -124.5 4092000.3  1.0  1.0  5  0 286417879
lsq: nits= 2
$GNGGA,073335.000,3112.7233,N,12136.4319,E,1,05,5.0,33.1,M,,,,0000*2D
$GNRMC,073335.000,A,3112.7233,N,12136.4319,E,1.42,0.00,220519,,*1A
$GPGSA,A,3,01,17,18,19,28,,,,,,,,5.7,5.0,2.8*33
$BDGSA,A,3,,,,,,,,,,,,,5.7,5.0,2.8*2E
$GPGSV,2,1,05,01,42,036,38,17,39,311,45,18,17,047,39,19,21,294,39*70
$GPGSV,2,2,05,28,74,316,38*4A
$BDGSV,1,1,02,08,00,000,36,10,00,000,37*62
$LOGTIM,1,-274.776493,0.000000,0.000000,0.000000,-61.415*35
EndT:        2
---00000049--- Acq_st=3 2019-5-22 07:33:36 
[00]  G01  f 37   2339.5 2045997.0  1.0  0.9  5  0 286432927
[01]  G17  f 45  -1838.6 2046002.4  1.0  1.0  5  0 286432925
[02]  G18  f 39   3016.3 2045996.1  1.0  1.0  5  0 286432921
[03]  G19  f 39  -2629.0 2046003.4  1.0  1.0  5  0 286432921
[04]  G28  f 38  -1422.1 2046001.8  1.0  1.0  5  0 286432931
[16]  B08 1f 36    -50.6 4092000.1  1.0  1.0  5  0 286418878
[17]  B10 1f 37   -128.2 4092000.4  1.0  1.0  5  0 286418879
lsq: nits= 2
$GNGGA,073336.000,3112.7236,N,12136.4322,E,1,05,5.0,33.6,M,,,,0000*24
$GNRMC,073336.000,A,3112.7236,N,12136.4322,E,1.94,0.00,220519,,*1F
$GPGSA,A,3,01,17,18,19,28,,,,,,,,5.7,5.0,2.8*33
$BDGSA,A,3,,,,,,,,,,,,,5.7,5.0,2.8*2E
$GPGSV,2,1,05,01,42,036,37,17,39,311,45,18,17,047,39,19,21,294,39*7F
$GPGSV,2,2,05,28,74,316,38*4A
$BDGSV,1,1,02,08,00,000,36,10,00,000,37*62
$LOGTIM,1,-336.833836,0.000000,0.000000,0.000000,-62.078*33
EndT:        2
---00000050--- Acq_st=3 2019-5-22 07:33:36 
[00]  G01  f 36   2335.2 2045997.0  1.0  1.0  5  0 286433927
[01]  G17  f 46  -1843.0 2046002.4  1.0  1.0  5  0 286433925
[02]  G18  f 39   3011.6 2045996.1  1.0  1.0  5  0 286433921
[03]  G19  f 39  -2633.3 2046003.4  1.0  1.0  5  0 286433921
[04]  G28  f 38  -1425.7 2046001.8  1.0  1.0  5  0 286433931
[16]  B08 1f 36    -55.2 4092000.1  1.0  1.0  5  0 286419878
[17]  B10 1f 37   -132.3 4092000.4  1.0  1.0  5  0 286419879
lsq: nits= 2
$GNGGA,073337.000,3112.7240,N,12136.4325,E,1,05,5.0,34.3,M,,,,0000*21
$GNRMC,073337.000,A,3112.7240,N,12136.4325,E,2.22,102.95,220519,,*19
$GPGSA,A,3,01,17,18,19,28,,,,,,,,5.7,5.0,2.8*33
$BDGSA,A,3,,,,,,,,,,,,,5.7,5.0,2.8*2E
$GPGSV,2,1,05,01,42,036,36,17,39,311,46,18,17,047,39,19,21,294,39*7D
$GPGSV,2,2,05,28,74,316,38*4A
$BDGSV,1,1,02,08,00,000,36,10,00,000,37*62
$LOGTIM,1,-399.421238,0.000000,0.000000,0.000000,-62.601*35
EndT:        2
---00000051--- Acq_st=3 2019-5-22 07:33:37 
[00]  G01  f 35   2334.5 2045997.0  1.0  0.9  5  0 286434927
[01]  G17  f 45  -1843.9 2046002.4  1.0  1.0  5  0 286434925
[02]  G18  f 38   3011.3 2045996.1  1.0  1.0  5  0 286434921
[03]  G19  f 39  -2633.7 2046003.4  1.0  1.0  5  0 286434921
[04]  G28  f 38  -1426.1 2046001.8  1.0  1.0  5  0 286434931
[16]  B08 1f 36    -55.1 4092000.1  1.0  1.0  5  0 286420878
[17]  B10 1f 37   -133.1 4092000.4  1.0  1.0  5  0 286420879
lsq: nits= 2
$GNGGA,073338.000,3112.7244,N,12136.4330,E,1,05,5.0,34.8,M,,,,0000*25
$GNRMC,073338.000,A,3112.7244,N,12136.4330,E,1.36,102.95,220519,,*10
$GPGSA,A,3,01,17,18,19,28,,,,,,,,5.7,5.0,2.8*33
$BDGSA,A,3,,,,,,,,,,,,,5.7,5.0,2.8*2E
$GPGSV,2,1,05,01,42,036,35,17,39,311,45,18,17,047,38,19,21,294,39*7C
$GPGSV,2,2,05,28,74,316,38*4A
$BDGSV,1,1,02,08,00,000,36,10,00,000,37*62
$LOGTIM,1,-461.921651,0.000000,0.000000,0.000000,-62.477*30
EndT:        2
---00000052--- Acq_st=3 2019-5-22 07:33:38 
[00]  G01  f 36   2340.0 2045997.0  1.0  1.0  5  0 286435927
[01]  G17  f 46  -1838.2 2046002.4  1.0  1.0  5  0 286435925
[02]  G18  f 38   3016.3 2045996.1  1.0  1.0  5  0 286435921
[03]  G19  f 39  -2628.8 2046003.4  1.0  1.0  5  0 286435921
[04]  G28  f 38  -1420.1 2046001.9  1.0  1.0  5  0 286435931
[16]  B08 1f 36    -50.3 4092000.2  1.0  1.0  5  0 286421878
[17]  B10 1f 37   -127.0 4092000.4  1.0  1.0  5  0 286421879
lsq: nits= 2
$GNGGA,073339.000,3112.7245,N,12136.4337,E,1,05,5.0,35.0,M,,,,0000*2B
$GNRMC,073339.000,A,3112.7245,N,12136.4337,E,0.69,102.95,220519,,*1C
$GPGSA,A,3,01,17,18,19,28,,,,,,,,5.7,5.0,2.8*33
$BDGSA,A,3,,,,,,,,,,,,,5.7,5.0,2.8*2E
$GPGSV,2,1,05,01,42,036,36,17,39,311,46,18,17,047,38,19,21,294,39*7C
$GPGSV,2,2,05,28,74,316,38*4A
$BDGSV,1,1,02,08,00,000,36,10,00,000,37*62
$LOGTIM,1,-524.156537,0.000000,0.000000,0.000000,-62.239*37
EndT:        2
---00000053--- Acq_st=3 2019-5-22 07:33:39 
[00]  G01  f 35   2341.1 2045997.0  1.0  1.0  5  0 286436927
[01]  G17  f 46  -1837.3 2046002.4  1.0  1.0  5  0 286436925
[02]  G18  f 38   3017.5 2045996.1  1.0  1.0  5  0 286436921
[03]  G19  f 40  -2627.7 2046003.4  1.0  1.0  5  0 286436921
[04]  G28  f 38  -1419.3 2046001.9  1.0  1.0  5  0 286436931
[16]  B08 1f 36    -49.0 4092000.0  1.0  1.0  5  0 286422878
[17]  B10 1f 38   -126.1 4092000.3  1.0  1.0  5  0 286422879
lsq: nits= 2
$GNGGA,073340.000,3112.7245,N,12136.4345,E,1,05,5.0,35.3,M,,,,0000*23
$GNRMC,073340.000,A,3112.7245,N,12136.4345,E,0.77,102.95,220519,,*18
$GPGSA,A,3,01,17,18,19,28,,,,,,,,5.7,5.0,2.8*33
$BDGSA,A,3,,,,,,,,,,,,,5.7,5.0,2.8*2E
$GPGSV,2,1,05,01,42,036,35,17,39,311,46,18,17,047,38,19,21,294,40*71
$GPGSV,2,2,05,28,74,316,38*4A
$BDGSV,1,1,02,08,00,000,36,10,00,000,38*6D
$LOGTIM,1,-586.302901,0.000000,0.000000,0.000000,-62.359*32
EndT:        2
---00000054--- Acq_st=3 2019-5-22 07:33:40 
[00]  G01  f 34   2338.2 2045997.1  1.0  1.0  5  0 286437927
[01]  G17  f 46  -1840.5 2046002.4  1.0  1.0  5  0 286437925
[02]  G18  f 38   3014.3 2045996.1  1.0  1.0  5  0 286437921
[03]  G19  f 39  -2631.0 2046003.5  1.0  1.0  5  0 286437921
[04]  G28  f 38  -1421.7 2046001.8  1.0  1.0  5  0 286437931
[16]  B08 1f 36    -52.3 4092000.1  1.0  1.0  5  0 286423878
[17]  B10 1f 37   -129.4 4092000.3  1.0  1.0  5  0 286423879
lsq: nits= 2
$GNGGA,073341.000,3112.7246,N,12136.4353,E,1,05,4.9,35.3,M,,,,0000*2E
$GNRMC,073341.000,A,3112.7246,N,12136.4353,E,1.12,102.95,220519,,*1F
$GPGSA,A,3,01,17,18,19,28,,,,,,,,5.7,4.9,2.8*3B
$BDGSA,A,3,,,,,,,,,,,,,5.7,4.9,2.8*26
$GPGSV,2,1,05,01,42,036,34,17,39,311,46,18,17,047,38,19,21,294,39*7E
$GPGSV,2,2,05,28,74,316,38*4A
$BDGSV,1,1,02,08,00,000,36,10,00,000,37*62
$LOGTIM,1,-649.210627,0.000000,0.000000,0.000000,-62.766*33
EndT:        2
---00000055--- Acq_st=3 2019-5-22 07:33:41 
[00]  G01  f 35   2335.8 2045997.0  1.0  1.0  5  0 286438927
[01]  G17  f 46  -1842.9 2046002.4  1.0  1.0  5  0 286438925
[02]  G18  f 38   3011.9 2045996.1  1.0  1.0  5  0 286438921
[03]  G19  f 40  -2633.3 2046003.4  1.0  1.0  5  0 286438921
[04]  G28  f 38  -1423.1 2046001.9  1.0  1.0  5  0 286438931
[16]  B08 1f 36    -54.2 4092000.1  1.0  1.0  5  0 286424878
[17]  B10 1f 38   -132.1 4092000.3  1.0  1.0  5  0 286424879
lsq: nits= 2
$GNGGA,073342.000,3112.7252,N,12136.4357,E,1,05,4.9,35.7,M,,,,0000*28
$GNRMC,073342.000,A,3112.7252,N,12136.4357,E,1.07,102.95,220519,,*19
$GPGSA,A,3,01,17,18,19,28,,,,,,,,5.7,4.9,2.8*3B
$BDGSA,A,3,,,,,,,,,,,,,5.7,4.9,2.8*26
$GPGSV,2,1,05,01,42,036,35,17,39,311,46,18,17,047,38,19,21,294,40*71
$GPGSV,2,2,05,28,74,316,38*4A
$BDGSV,1,1,02,08,00,000,36,10,00,000,38*6D
$LOGTIM,1,-711.992373,0.000000,0.000000,0.000000,-62.828*3F
EndT:        2
---00000056--- Acq_st=3 2019-5-22 07:33:42 
[00]  G01  f 35   2336.6 2045997.0  1.0  1.0  5  0 286439927
[01]  G17  f 46  -1842.0 2046002.4  1.0  1.0  5  0 286439925
[02]  G18  f 38   3013.0 2045996.1  1.0  1.0  5  0 286439921
[03]  G19  f 40  -2632.0 2046003.4  1.0  1.0  5  0 286439921
[04]  G28  f 38  -1421.6 2046001.8  1.0  1.0  5  0 286439931
[16]  B08 1f 36    -53.1 4092000.1  1.0  1.0  5  0 286425878
[17]  B10 1f 38   -130.6 4092000.3  1.0  1.0  5  0 286425879
[18]  B29  1  7  -1187.9 4092005.4  0.0  0.0  1  0      2671
lsq: nits= 2
$GNGGA,073343.000,3112.7260,N,12136.4362,E,1,05,4.9,36.7,M,,,,0000*2D
$GNRMC,073343.000,A,3112.7260,N,12136.4362,E,1.07,102.95,220519,,*1F
$GPGSA,A,3,01,17,18,19,28,,,,,,,,5.7,4.9,2.8*3B
$BDGSA,A,3,,,,,,,,,,,,,5.7,4.9,2.8*26
$GPGSV,2,1,05,01,42,036,35,17,39,311,46,18,17,047,38,19,21,294,40*71
$GPGSV,2,2,05,28,74,316,38*4A
$BDGSV,1,1,02,08,00,000,36,10,00,000,38*6D
$LOGTIM,1,-774.156232,0.000000,0.000000,0.000000,-62.819*3A
EndT:        2
---00000057--- Acq_st=3 2019-5-22 07:33:43 
[00]  G01  f 35   2337.7 2045996.9  1.0  0.9  5  0 286440927
[01]  G17  f 46  -1841.7 2046002.4  1.0  1.0  5  0 286440925
[02]  G18  f 38   3013.1 2045996.1  1.0  1.0  5  0 286440921
[03]  G19  f 40  -2631.5 2046003.4  1.0  1.0  5  0 286440921
[04]  G28  f 39  -1421.3 2046001.9  1.0  1.0  5  0 286440931
[16]  B08 1f 36    -53.0 4092000.1  1.0  0.9  5  0 286426878
[17]  B10 1f 38   -129.9 4092000.3  1.0  1.0  5  0 286426879
[18]  B29  1  7  -1164.9 4092003.1  0.2  0.0  1  0       939
lsq: nits= 2
$GNGGA,073344.000,3112.7271,N,12136.4364,E,1,05,4.9,38.1,M,,,,0000*24
$GNRMC,073344.000,A,3112.7271,N,12136.4364,E,1.06,102.95,220519,,*1F
$GPGSA,A,3,01,17,18,19,28,,,,,,,,5.7,4.9,2.8*3B
$BDGSA,A,3,,,,,,,,,,,,,5.7,4.9,2.8*26
$GPGSV,2,1,05,01,42,036,35,17,39,311,46,18,17,047,38,19,21,294,40*71
$GPGSV,2,2,05,28,74,316,39*4B
$BDGSV,1,1,02,08,00,000,36,10,00,000,38*6D
$LOGTIM,1,-835.890538,0.000000,0.000000,0.000000,-62.719*31
EndT:        2
---00000058--- Acq_st=3 2019-5-22 07:33:44 
[00]  G01  f 35   2340.2 2045996.9  1.0  1.0  5  0 286441927
[01]  G17  f 46  -1839.9 2046002.4  1.0  1.0  5  0 286441925
[02]  G18  f 38   3014.6 2045996.1  1.0  1.0  5  0 286441921
[03]  G19  f 40  -2630.5 2046003.4  1.0  1.0  5  0 286441921
[04]  G28  f 38  -1419.4 2046001.9  1.0  0.9  5  0 286441931
[16]  B08 1f 35    -51.5 4092000.1  1.0  1.0  5  0 286427878
[17]  B10 1f 38   -128.3 4092000.3  1.0  1.0  5  0 286427879
[18]  B29  7 39  -1163.4 4092003.0  1.0  1.0  5  0      1924
lsq: nits= 2
$GNGGA,073345.000,3112.7287,N,12136.4366,E,1,07,4.9,40.2,M,,,,0000*20
$GNRMC,073345.000,A,3112.7287,N,12136.4366,E,0.93,102.95,220519,,*18
$GPGSA,A,3,01,17,18,19,28,,,,,,,,5.7,4.9,2.8*3B
$BDGSA,A,3,08,10,,,,,,,,,,,5.7,4.9,2.8*2F
$GPGSV,2,1,05,01,42,036,35,17,39,311,46,18,17,047,38,19,21,294,40*71
$GPGSV,2,2,05,28,74,316,38*4A
$BDGSV,1,1,03,08,00,000,35,10,00,000,38,29,00,000,39*5E
$LOGTIM,3,-896.801663,-1033.692519,0.000000,0.000000,-62.408*20
EndT:        2
---00000059--- Acq_st=3 2019-5-22 07:33:45 
[00]  G01  f 37   2340.1 2045996.9  1.0  1.0  5  0 286442927
[01]  G17  f 45  -1839.5 2046002.4  1.0  1.0  5  0 286442925
[02]  G18  f 38   3015.9 2045996.1  1.0  0.9  5  0 286442921
[03]  G19  f 40  -2629.6 2046003.4  1.0  1.0  5  0 286442921
[04]  G28  f 39  -1418.5 2046001.8  1.0  1.0  5  0 286442931
[16]  B08 1f 35    -50.8 4092000.1  1.0  1.0  5  0 286428878
[17]  B10 1f 38   -127.6 4092000.3  1.0  1.0  5  0 286428879
[18]  B29 1f 43  -1162.8 4092003.0  1.0  1.0  5  0      2924
lsq: nits= 2
$GNGGA,073346.000,3112.7285,N,12136.4370,E,1,07,2.8,49.4,M,,,,0000*2E
$GNRMC,073346.000,A,3112.7285,N,12136.4370,E,0.24,102.95,220519,,*12
$GPGSA,A,3,01,17,18,19,28,,,,,,,,2.9,2.8,0.7*38
$BDGSA,A,3,08,10,,,,,,,,,,,2.9,2.8,0.7*2C
$GPGSV,2,1,05,01,42,036,37,17,39,311,45,18,17,047,38,19,21,294,40*70
$GPGSV,2,2,05,28,74,316,39*4B
$BDGSV,1,1,03,08,68,298,35,10,72,259,38,29,00,000,43*55
$LOGTIM,3,-956.286065,-1110.647483,0.000000,0.000000,-62.762*2D
EndT:        3
---00000060--- Acq_st=7 2019-5-22 07:33:46 
[00]  G01  f 37   2339.1 2045996.9  1.0  0.9  5  0 286443927
[01]  G17  f 45  -1840.4 2046002.4  1.0  1.0  5  0 286443925
[02]  G18  f 38   3014.2 2045996.0  1.0  1.0  5  0 286443921
[03]  G19  f 40  -2630.8 2046003.4  1.0  1.0  5  0 286443921
[04]  G28  f 39  -1418.6 2046001.9  1.0  1.0  5  0 286443931
[16]  B08 1f 35    -52.2 4092000.2  1.0  1.0  5  0 286429878
[17]  B10 1f 38   -128.8 4092000.3  1.0  1.0  5  0 286429879
[18]  B29 1f 44  -1163.8 4092003.0  1.0  1.0  5  0 286429924
lsq: nits= 2
$GNGGA,073347.000,3112.7252,N,12136.4372,E,1,07,2.8,54.5,M,,,,0000*2A
$GNRMC,073347.000,A,3112.7252,N,12136.4372,E,0.98,102.95,220519,,*1C
$GPGSA,A,3,01,17,18,19,28,,,,,,,,2.9,2.8,0.7*38
$BDGSA,A,3,08,10,,,,,,,,,,,2.9,2.8,0.7*2C
$GPGSV,2,1,05,01,42,036,37,17,39,311,45,18,17,047,38,19,21,294,40*70
$GPGSV,2,2,05,28,74,316,39*4B
$BDGSV,1,1,03,08,68,298,35,10,72,259,38,29,00,000,44*52
$LOGTIM,3,-1020.467248,-1192.541753,0.000000,0.000000,-63.163*17
EndT:        2
---00000061--- Acq_st=7 2019-5-22 07:33:47 
[00]  G01  f 37   2341.8 2045996.9  1.0  1.0  5  0 286444927
[01]  G17  f 45  -1839.0 2046002.4  1.0  1.0  5  0 286444925
[02]  G18  f 38   3016.3 2045996.1  1.0  0.9  5  0 286444921
[03]  G19  f 40  -2628.7 2046003.4  1.0  1.0  5  0 286444921
[04]  G28  f 39  -1416.5 2046001.8  1.0  1.0  5  0 286444931
[16]  B08 1f 35    -49.8 4092000.2  1.0  0.9  5  0 286430878
[17]  B10 1f 38   -126.7 4092000.3  1.0  1.0  5  0 286430879
[18]  B29 1f 44  -1161.9 4092003.0  1.0  1.0  5  0 286430924
lsq: nits= 2
$GNGGA,073348.000,3112.7302,N,12136.4365,E,1,07,2.8,55.6,M,,,,0000*25
$GNRMC,073348.000,A,3112.7302,N,12136.4365,E,0.53,102.95,220519,,*16
$GPGSA,A,3,01,17,18,19,28,,,,,,,,2.9,2.8,0.7*38
$BDGSA,A,3,08,10,,,,,,,,,,,2.9,2.8,0.7*2C
$GPGSV,2,1,05,01,42,036,37,17,39,311,45,18,17,047,38,19,21,294,40*70
$GPGSV,2,2,05,28,74,316,39*4B
$BDGSV,1,1,03,08,68,298,35,10,72,259,38,29,00,000,44*52
$LOGTIM,3,-1077.344851,-1250.858958,0.000000,0.000000,-62.519*14
EndT:        3
---00000062--- Acq_st=3 2019-5-22 07:33:48 
[00]  G01  f 37   2344.7 2045997.0  1.0  1.0  5  0 286445927
[01]  G17  f 45  -1835.6 2046002.4  1.0  1.0  5  0 286445925
[02]  G18  f 38   3019.4 2045996.1  1.0  1.0  5  0 286445921
[03]  G19  f 40  -2625.9 2046003.5  1.0  1.0  5  0 286445921
[04]  G28  f 39  -1413.2 2046001.8  1.0  1.0  5  0 286445931
[16]  B08 1f 35    -48.0 4092000.1  1.0  1.0  5  0 286431878
[17]  B10 1f 38   -122.9 4092000.4  1.0  1.0  5  0 286431879
[18]  B29 1f 44  -1158.7 4092003.0  1.0  1.0  5  0 286431924
lsq: nits= 2
$GNGGA,073349.000,3112.7358,N,12136.4359,E,1,07,2.8,59.1,M,,,,0000*2F
$GNRMC,073349.000,A,3112.7358,N,12136.4359,E,0.10,102.95,220519,,*10
$GPGSA,A,3,01,17,18,19,28,,,,,,,,2.9,2.8,0.7*38
$BDGSA,A,3,08,10,,,,,,,,,,,2.9,2.8,0.7*2C
$GPGSV,2,1,05,01,42,036,37,17,39,311,45,18,17,047,38,19,21,294,40*70
$GPGSV,2,2,05,28,74,316,39*4B
$BDGSV,1,1,03,08,68,298,35,10,72,259,38,29,00,000,44*52
$LOGTIM,3,-1132.175395,-1313.644946,0.000000,0.000000,-62.208*1A
EndT:        3
---00000063--- Acq_st=3 2019-5-22 07:33:49 
[00]  G01  f 38   2344.3 2045996.9  1.0  0.9  5  0 286446927
[01]  G17  f 45  -1836.6 2046002.4  1.0  1.0  5  0 286446925
[02]  G18  f 38   3018.7 2045996.1  1.0  1.0  5  0 286446921
[03]  G19  f 40  -2626.2 2046003.4  1.0  1.0  5  0 286446921
[04]  G28  f 39  -1413.4 2046001.8  1.0  1.0  5  0 286446931
[16]  B08 1f 35    -47.8 4092000.1  1.0  1.0  5  0 286432878
[17]  B10 1f 38   -123.6 4092000.4  1.0  1.0  5  0 286432879
[18]  B29 1f 44  -1159.3 4092003.0  1.0  1.0  5  0 286432924
lsq: nits= 2
$GNGGA,073350.000,3112.7389,N,12136.4348,E,1,07,2.8,59.2,M,,,,0000*28
$GNRMC,073350.000,A,3112.7389,N,12136.4348,E,0.39,102.95,220519,,*1F
$GPGSA,A,3,01,17,18,19,28,,,,,,,,2.9,2.8,0.7*38
$BDGSA,A,3,08,10,,,,,,,,,,,2.9,2.8,0.7*2C
$GPGSV,2,1,05,01,42,036,38,17,39,311,45,18,17,047,38,19,21,294,40*7F
$GPGSV,2,2,05,28,74,316,39*4B
$BDGSV,1,1,03,08,68,298,35,10,72,259,38,29,00,000,44*52
$LOGTIM,3,-1191.399294,-1373.363193,0.000000,0.000000,-62.101*1F
EndT:        3
---00000064--- Acq_st=3 2019-5-22 07:33:50 
[00]  G01  f 38   2344.1 2045997.0  1.0  1.0  5  0 286447927
[01]  G17  f 44  -1836.2 2046002.4  1.0  1.0  5  0 286447925
[02]  G18  f 38   3018.3 2045996.0  1.0  1.0  5  0 286447921
[03]  G19  f 40  -2626.6 2046003.4  1.0  1.0  5  0 286447921
[04]  G28  f 38  -1413.1 2046001.8  1.0  1.0  5  0 286447931
[16]  B08 1f 35    -47.4 4092000.1  1.0  1.0  5  0 286433878
[17]  B10 1f 38   -124.0 4092000.3  1.0  1.0  5  0 286433879
[18]  B29 1f 44  -1159.2 4092003.0  1.0  1.0  5  0 286433924
lsq: nits= 2
$GNGGA,073351.000,3112.7414,N,12136.4335,E,1,07,2.8,59.7,M,,,,0000*25
$GNRMC,073351.000,A,3112.7414,N,12136.4335,E,0.95,102.95,220519,,*11
$GPGSA,A,3,01,17,18,19,28,,,,,,,,2.9,2.8,0.7*38
$BDGSA,A,3,08,10,,,,,,,,,,,2.9,2.8,0.7*2C
$GPGSV,2,1,05,01,42,036,38,17,39,311,44,18,17,047,38,19,21,294,40*7E
$GPGSV,2,2,05,28,74,316,38*4A
$BDGSV,1,1,03,08,68,298,35,10,72,259,38,29,00,000,44*52
$LOGTIM,3,-1251.466624,-1433.665738,0.000000,0.000000,-62.184*12
EndT:        2
---00000065--- Acq_st=3 2019-5-22 07:33:51 
[00]  G01  f 39   2341.6 2045997.0  1.0  1.0  5  0 286448927
[01]  G17  f 45  -1839.1 2046002.4  1.0  1.0  5  0 286448925
[02]  G18  f 38   3016.1 2045996.1  1.0  1.0  5  0 286448921
[03]  G19  f 39  -2629.5 2046003.5  1.0  1.0  5  0 286448921
[04]  G28  f 38  -1414.8 2046001.9  1.0  1.0  5  0 286448931
[16]  B08 1f 35    -50.8 4092000.2  1.0  1.0  5  0 286434878
[17]  B10 1f 38   -126.8 4092000.3  1.0  1.0  5  0 286434879
[18]  B29 1f 44  -1162.2 4092003.0  1.0  1.0  5  0 286434924
lsq: nits= 2
$GNGGA,073352.000,3112.7392,N,12136.4325,E,1,07,2.8,60.2,M,,,,0000*21
$GNRMC,073352.000,A,3112.7392,N,12136.4325,E,0.26,102.95,220519,,*12
$GPGSA,A,3,01,17,18,19,28,,,,,,,,2.9,2.8,0.7*38
$BDGSA,A,3,08,10,,,,,,,,,,,2.9,2.8,0.7*2C
$GPGSV,2,1,05,01,42,036,39,17,39,312,45,18,17,047,38,19,22,294,39*70
$GPGSV,2,2,05,28,75,316,38*4B
$BDGSV,1,1,04,08,68,298,35,10,72,259,38,29,00,000,44,20,30,140,00*61
$LOGTIM,3,-1316.623095,-1501.822533,0.000000,0.000000,-62.445*13
EndT:        2
---00000066--- Acq_st=3 2019-5-22 07:33:52 
[00]  G01  f 39   2343.8 2045997.0  1.0  1.0  5  0 286449927
[01]  G17  f 44  -1836.8 2046002.4  1.0  1.0  5  0 286449925
[02]  G18  f 38   3018.0 2045996.0  1.0  1.0  5  0 286449921
[03]  G19  f 39  -2626.4 2046003.4  1.0  1.0  5  0 286449921
[04]  G28  f 38  -1412.7 2046001.9  1.0  1.0  5  0 286449931
[16]  B08 1f 35    -48.4 4092000.1  1.0  0.9  5  0 286435878
[17]  B10 1f 37   -124.2 4092000.3  1.0  1.0  5  0 286435879
[18]  B29 1f 44  -1159.7 4092003.0  1.0  1.0  5  0 286435924
lsq: nits= 2
$GNGGA,073353.000,3112.7405,N,12136.4316,E,1,07,2.8,60.2,M,,,,0000*29
$GNRMC,073353.000,A,3112.7405,N,12136.4316,E,0.44,102.95,220519,,*1E
$GPGSA,A,3,01,17,18,19,28,,,,,,,,2.9,2.8,0.7*38
$BDGSA,A,3,08,10,,,,,,,,,,,2.9,2.8,0.7*2C
$GPGSV,2,1,05,01,42,036,39,17,39,312,44,18,17,047,38,19,22,294,39*71
$GPGSV,2,2,05,28,75,316,38*4B
$BDGSV,1,1,04,08,68,298,35,10,72,259,37,29,00,000,44,20,30,140,00*6E
$LOGTIM,3,-1377.383151,-1562.116724,0.000000,0.000000,-62.261*1D
EndT:        2
---00000067--- Acq_st=3 2019-5-22 07:33:53 
[00]  G01  f 39   2343.4 2045997.0  1.0  1.0  5  0 286450927
[01]  G17  f 44  -1837.5 2046002.4  1.0  1.0  5  0 286450925
[02]  G18  f 37   3017.0 2045996.1  1.0  1.0  5  0 286450921
[03]  G19  f 38  -2627.2 2046003.4  1.0  1.0  5  0 286450921
[04]  G28  f 37  -1412.9 2046001.8  1.0  1.0  5  0 286450931
[05]  G11  1  7   2074.2 2045998.9  0.0  0.0  1  0         0
[16]  B08 1f 35    -48.3 4092000.1  1.0  1.0  5  0 286436878
[17]  B10 1f 37   -124.5 4092000.3  1.0  0.9  5  0 286436879
[18]  B29 1f 44  -1160.4 4092003.0  1.0  1.0  5  0 286436924
lsq: nits= 2
$GNGGA,073354.000,3112.7417,N,12136.4311,E,1,07,2.8,60.0,M,,,,0000*28
$GNRMC,073354.000,A,3112.7417,N,12136.4311,E,0.72,102.95,220519,,*18
$GPGSA,A,3,01,17,18,19,28,,,,,,,,2.9,2.8,0.7*38
$BDGSA,A,3,08,10,,,,,,,,,,,2.9,2.8,0.7*2C
$GPGSV,2,1,05,01,42,036,39,17,39,312,44,18,17,047,37,19,22,294,38*7F
$GPGSV,2,2,05,28,75,316,37*44
$BDGSV,1,1,04,08,68,298,35,10,72,259,37,29,00,000,44,20,30,140,00*6E
$LOGTIM,3,-1438.256361,-1622.460269,0.000000,0.000000,-62.208*19
EndT:        2
---00000068--- Acq_st=3 2019-5-22 07:33:54 
[00]  G01  f 39   2344.6 2045997.0  1.0  1.0  5  0 286451927
[01]  G17  f 44  -1836.9 2046002.4  1.0  1.0  5  0 286451925
[02]  G18  f 37   3018.2 2045996.1  1.0  1.0  5  0 286451921
[03]  G19  f 39  -2627.3 2046003.4  1.0  1.0  5  0 286451921
[04]  G28  f 38  -1412.1 2046001.9  1.0  1.0  5  0 286451931
[05]  G11  1 22   2076.6 2045997.5 -0.1  0.0  1  0        14
[16]  B08 1f 35    -48.1 4092000.1  1.0  0.9  5  0 286437878
[17]  B10 1f 38   -123.7 4092000.4  1.0  1.0  5  0 286437879
[18]  B29 1f 44  -1159.5 4092003.0  1.0  1.0  5  0 286437924
lsq: nits= 2
$GNGGA,073355.000,3112.7383,N,12136.4312,E,1,07,2.8,60.7,M,,,,0000*27
$GNRMC,073355.000,A,3112.7383,N,12136.4312,E,0.24,102.95,220519,,*13
$GPGSA,A,3,01,17,18,19,28,,,,,,,,2.9,2.8,0.7*38
$BDGSA,A,3,08,10,,,,,,,,,,,2.9,2.8,0.7*2C
$GPGSV,2,1,05,01,42,036,39,17,39,312,44,18,17,047,37,19,22,294,39*7E
$GPGSV,2,2,05,28,75,316,38*4B
$BDGSV,1,1,04,08,68,298,35,10,72,259,38,29,00,000,44,20,30,140,00*61
$LOGTIM,3,-1503.470912,-1689.567555,0.000000,0.000000,-62.285*16
EndT:        2
---00000069--- Acq_st=3 2019-5-22 07:33:55 
[00]  G01  f 39   2345.3 2045996.9  1.0  1.0  5  0 286452927
[01]  G17  f 45  -1836.2 2046002.4  1.0  1.0  5  0 286452925
[02]  G18  f 37   3018.7 2045996.1  1.0  1.0  5  0 286452921
[03]  G19  f 40  -2626.3 2046003.4  1.0  1.0  5  0 286452921
[04]  G28  f 37  -1410.5 2046001.8  1.0  1.0  5  0 286452931
[05]  G11  7 23   2063.5 2045997.1  0.2 -0.0 20  0         5
[16]  B08 1f 36    -47.2 4092000.1  1.0  0.9  5  0 286438878
[17]  B10 1f 38   -122.9 4092000.3  1.0  1.0  5  0 286438879
[18]  B29 1f 45  -1158.8 4092003.0  1.0  1.0  5  0 286438924
lsq: nits= 2
$GNGGA,073356.000,3112.7398,N,12136.4314,E,1,07,2.8,62.5,M,,,,0000*28
$GNRMC,073356.000,A,3112.7398,N,12136.4314,E,0.30,102.95,220519,,*19
$GPGSA,A,3,01,17,18,19,28,,,,,,,,2.9,2.8,0.7*38
$BDGSA,A,3,08,10,,,,,,,,,,,2.9,2.8,0.7*2C
$GPGSV,2,1,06,01,42,036,40,17,39,312,45,18,17,047,37,19,22,294,40*7C
$GPGSV,2,2,06,28,75,316,37,11,00,000,23*76
$BDGSV,1,1,04,08,68,298,36,10,72,259,38,29,00,000,45,20,30,140,00*63
$LOGTIM,3,-1562.813438,-1751.269837,0.000000,0.000000,-62.132*16
EndT:        2
---00000070--- Acq_st=3 2019-5-22 07:33:56 
[00]  G01  f 40   2347.7 2045997.0  1.0  1.0  5  0 286453927
[01]  G17  f 45  -1834.2 2046002.4  1.0  1.0  5  0 286453925
[02]  G18  f 37   3020.0 2045996.1  1.0  1.0  5  0 286453921
[03]  G19  f 39  -2624.2 2046003.4  1.0  1.0  5  0 286453921
[04]  G28  f 37  -1408.7 2046001.9  1.0  1.0  5  0 286453931
[05]  G11  7 25   2064.9 2045997.2  0.7 -0.0 20  0         5
[16]  B08 1f 35    -45.5 4092000.2  1.0  1.0  5  0 286439878
[17]  B10 1f 37   -121.1 4092000.3  1.0  1.0  5  0 286439879
[18]  B29 1f 45  -1156.6 4092003.0  1.0  1.0  5  0 286439924
lsq: nits= 2
$GNGGA,073357.000,3112.7404,N,12136.4315,E,1,07,2.8,62.1,M,,,,0000*2E
$GNRMC,073357.000,A,3112.7404,N,12136.4315,E,0.16,102.95,220519,,*1F
$GPGSA,A,3,01,17,18,19,28,,,,,,,,2.9,2.8,0.7*38
$BDGSA,A,3,08,10,,,,,,,,,,,2.9,2.8,0.7*2C
$GPGSV,2,1,06,01,42,036,40,17,39,312,45,18,17,047,37,19,22,294,39*72
$GPGSV,2,2,06,28,75,316,37,11,00,000,25*70
$BDGSV,1,1,04,08,68,298,35,10,72,259,37,29,00,000,45,20,30,140,00*6F
$LOGTIM,3,-1623.706992,-1811.218501,0.000000,0.000000,-61.900*19
EndT:        2
---00000071--- Acq_st=3 2019-5-22 07:33:57 
[00]  G01  f 40   2346.7 2045997.0  1.0  1.0  5  0 286454927
[01]  G17  f 45  -1835.2 2046002.4  1.0  1.0  5  0 286454925
[02]  G18  f 37   3019.3 2045996.1  1.0  1.0  5  0 286454921
[03]  G19  f 39  -2625.1 2046003.4  1.0  1.0  5  0 286454921
[04]  G28  f 36  -1408.7 2046001.9  1.0  1.0  5  0 286454931
[05]  G11  7 26   2064.4 2045997.1  0.4 -0.0 20  0         5
[16]  B08 1f 35    -46.6 4092000.1  1.0  1.0  5  0 286440878
[17]  B10 1f 38   -121.8 4092000.4  1.0  1.0  5  0 286440879
[18]  B29 1f 45  -1157.8 4092003.0  1.0  1.0  5  0 286440924
lsq: nits= 2
$GNGGA,073358.000,3112.7415,N,12136.4319,E,1,07,2.8,63.3,M,,,,0000*2E
$GNRMC,073358.000,A,3112.7415,N,12136.4319,E,0.71,102.95,220519,,*1D
$GPGSA,A,3,01,17,18,19,28,,,,,,,,2.9,2.8,0.7*38
$BDGSA,A,3,08,10,,,,,,,,,,,2.9,2.8,0.7*2C
$GPGSV,2,1,06,01,42,036,40,17,39,312,45,18,17,047,37,19,22,294,39*72
$GPGSV,2,2,06,28,75,316,36,11,00,000,26*72
$BDGSV,1,1,04,08,68,298,35,10,72,259,38,29,00,000,45,20,30,140,00*60
$LOGTIM,3,-1684.903257,-1871.516183,0.000000,0.000000,-62.311*15
EndT:        2
---00000072--- Acq_st=3 2019-5-22 07:33:58 
[00]  G01  f 41   2340.7 2045996.9  1.0  1.0  5  0 286455927
[01]  G17  f 45  -1841.2 2046002.4  1.0  1.0  5  0 286455925
[02]  G18  f 37   3013.5 2045996.1  1.0  1.0  5  0 286455921
[03]  G19  f 39  -2631.4 2046003.4  1.0  1.0  5  0 286455921
[04]  G28  f 35  -1414.6 2046001.9  1.0  0.9  5  0 286455931
[05]  G11  7 27   2062.3 2045997.3 -0.2  0.3 10  0         5
[06]  G22  1  7    702.7 2046000.7 -0.1  0.0  1  0        10
[16]  B08 1f 35    -52.3 4092000.1  1.0  1.0  5  0 286441878
[17]  B10 1f 37   -127.7 4092000.3  1.0  1.0  5  0 286441879
[18]  B29 1f 44  -1163.6 4092003.0  1.0  1.0  5  0 286441924
lsq: nits= 2
$GNGGA,073359.000,3112.7420,N,12136.4316,E,1,07,2.8,64.0,M,,,,0000*22
$GNRMC,073359.000,A,3112.7420,N,12136.4316,E,1.36,102.95,220519,,*17
$GPGSA,A,3,01,17,18,19,28,,,,,,,,2.9,2.8,0.7*38
$BDGSA,A,3,08,10,,,,,,,,,,,2.9,2.8,0.7*2C
$GPGSV,2,1,06,01,42,036,41,17,39,312,45,18,17,047,37,19,22,294,39*73
$GPGSV,2,2,06,28,75,316,35,11,00,000,27*70
$BDGSV,1,1,04,08,68,298,35,10,72,259,37,29,00,000,44,20,30,140,00*6E
$LOGTIM,3,-1747.381439,-1932.850802,0.000000,0.000000,-62.797*16
EndT:        2
---00000073--- Acq_st=3 2019-5-22 07:33:59 
[00]  G01  f 41   2338.0 2045997.0  1.0  1.0  5  0 286456927
[01]  G17  f 45  -1844.0 2046002.4  1.0  1.0  5  0 286456925
[02]  G18  f 37   3010.9 2045996.1  1.0  1.0  5  0 286456921
[03]  G19  f 39  -2634.0 2046003.4  1.0  1.0  5  0 286456921
[04]  G28  f 35  -1417.4 2046001.9  1.0  1.0  5  0 286456931
[05]  G11  7 26   2055.2 2045997.2  0.7 -0.0 10  0         5
[06]  G22  7  7    604.9 2045998.9 -0.1  0.0 20  0        10
[16]  B08 1f 35    -55.7 4092000.1  1.0  1.0  5  0 286442878
[17]  B10 1f 38   -130.5 4092000.3  1.0  1.0  5  0 286442879
[18]  B29 1f 45  -1166.4 4092003.0  1.0  1.0  5  0 286442924
lsq: nits= 2
$GNGGA,073400.000,3112.7422,N,12136.4316,E,1,07,2.8,64.6,M,,,,0000*2D
$GNRMC,073400.000,A,3112.7422,N,12136.4316,E,1.36,102.95,220519,,*1E
$GPGSA,A,3,01,17,18,19,28,,,,,,,,2.9,2.8,0.7*38
$BDGSA,A,3,08,10,,,,,,,,,,,2.9,2.8,0.7*2C
$GPGSV,2,1,06,01,42,036,41,17,39,312,45,18,17,047,37,19,22,294,39*73
$GPGSV,2,2,06,28,75,316,35,11,00,000,26*71
