FlashID=0x1 0x20 0x18
BBram_blkflag1: ff41: 00be
FW Ver: 1.30  
GPS00 Init Dop:   5000, 40
GPS01 Init Dop:   5000, 40
GPS02 Init Dop:   5000, 40
GPS03 Init Dop:   5000, 40
GPS04 Init Dop:   5000, 40
GPS05 Init Dop:   5000, 40
GPS06 Init Dop:   5000, 40
GPS07 Init Dop:   5000, 40
GPS08 Init Dop:   5000, 40
GPS09 Init Dop:   5000, 40
GPS10 Init Dop:   5000, 40
GPS11 Init Dop:   5000, 40
GPS12 Init Dop:   5000, 40
GPS13 Init Dop:   5000, 40
GPS14 Init Dop:   5000, 40
GPS15 Init Dop:   5000, 40
GPS16 Init Dop:   5000, 40
GPS17 Init Dop:   5000, 40
GPS18 Init Dop:   5000, 40
GPS19 Init Dop:   5000, 40
GPS20 Init Dop:   5000, 40
GPS21 Init Dop:   5000, 40
GPS22 Init Dop:   5000, 40
GPS23 Init Dop:   5000, 40
GPS24 Init Dop:   5000, 40
GPS25 Init Dop:   5000, 40
GPS26 Init Dop:   5000, 40
GPS27 Init Dop:   5000, 40
GPS28 Init Dop:   5000, 40
GPS29 Init Dop:   5000, 40
GPS30 Init Dop:   5000, 40
GPS31 Init Dop:   5000, 40
BDS00 Init Dop:   5000, 40
BDS01 Init Dop:   5000, 40
BDS02 Init Dop:   5000, 40
BDS03 Init Dop:   5000, 40
BDS04 Init Dop:   5000, 40
BDS05 Init Dop:   5000, 40
BDS06 Init Dop:   5000, 40
BDS07 Init Dop:   5000, 40
BDS08 Init Dop:   5000, 40
BDS09 Init Dop:   5000, 40
BDS10 Init Dop:   5000, 40
BDS11 Init Dop:   5000, 40
BDS12 Init Dop:   5000, 40
BDS13 Init Dop:   5000, 40
BDS14 Init Dop:   5000, 40
BDS15 Init Dop:   5000, 40
BDS16 Init Dop:   5000, 40
BDS17 Init Dop:   5000, 40
BDS18 Init Dop:   5000, 40
BDS19 Init Dop:   5000, 40
BDS20 Init Dop:   5000, 40
BDS21 Init Dop:   5000, 40
BDS22 Init Dop:   5000, 40
BDS23 Init Dop:   5000, 40
BDS24 Init Dop:   5000, 40
BDS25 Init Dop:   5000, 40
BDS26 Init Dop:   5000, 40
BDS27 Init Dop:   5000, 40
BDS28 Init Dop:   5000, 40
BDS29 Init Dop:   5000, 40
BDS30 Init Dop:   5000, 40
BDS31 Init Dop:   5000, 40
good luck!
---00000001--- Acq_st=3 2019-5-22 07:34:51 
[00]  G01  1  7   2319.5 2045998.9 -0.1  0.0  1  0         0
$GNGGA,000000.000,,,,,0,00,,,M,,,,0000*2B
$GNRMC,000000.000,A,,,,,,,000000,,*26
$GPGSA,A,1,,,,,,,,,,,,,,,*1E
$BDGSA,A,1,,,,,,,,,,,,,,,*0F
$LOGTIM,0,0.000000,0.000000,0.000000,0.000000,0.000*0A
EndT:        0
---00000002--- Acq_st=3 2019-5-22 07:34:52 
[00]  G01  7  7   2353.7 2045996.8  0.3  0.0  5  0         9
$GNGGA,000000.000,,,,,0,00,,,M,,,,0000*2B
$GNRMC,000000.000,A,,,,,,,000000,,*26
$GPGSA,A,1,,,,,,,,,,,,,,,*1E
$BDGSA,A,1,,,,,,,,,,,,,,,*0F
$LOGTIM,0,0.000000,0.000000,0.000000,0.000000,0.000*0A
EndT:        0
---00000003--- Acq_st=3 2019-5-22 07:34:53 
[00]  G01  7 40   2354.9 2045996.8  0.9  1.0  5  0         3
$GNGGA,000000.000,,,,,0,00,,,M,,,,0000*2B
$GNRMC,000000.000,A,,,,,,,000000,,*26
$GPGSA,A,1,,,,,,,,,,,,,,,*1E
$BDGSA,A,1,,,,,,,,,,,,,,,*0F
$GPGSV,1,1,01,01,00,000,40*4D
$LOGTIM,0,0.000000,0.000000,0.000000,0.000000,0.000*0A
EndT:        0
---00000004--- Acq_st=3 2019-5-22 07:34:54 
[00]  G01  7 40   2353.9 2045996.9  1.0  1.0  5  0         3
$GNGGA,000000.000,,,,,0,00,,,M,,,,0000*2B
$GNRMC,000000.000,A,,,,,,,000000,,*26
$GPGSA,A,1,,,,,,,,,,,,,,,*1E
$BDGSA,A,1,,,,,,,,,,,,,,,*0F
$GPGSV,1,1,01,01,00,000,40*4D
$LOGTIM,0,0.000000,0.000000,0.000000,0.000000,0.000*0A
EndT:        0
---00000005--- Acq_st=3 2019-5-22 07:34:55 
[00]  G01  f 41   2353.2 2045996.9  1.0  1.0  5  0         3
$GNGGA,000000.000,,,,,0,00,,,M,,,,0000*2B
$GNRMC,000000.000,A,,,,,,,000000,,*26
$GPGSA,A,1,,,,,,,,,,,,,,,*1E
$BDGSA,A,1,,,,,,,,,,,,,,,*0F
$GPGSV,1,1,01,01,00,000,41*4C
$LOGTIM,0,0.000000,0.000000,0.000000,0.000000,0.000*0A
EndT:        0
---00000006--- Acq_st=3 2019-5-22 07:34:56 
[00]  G01  f 40   2354.9 2045996.9  1.0  1.0  5  0 286513643
$GNGGA,000000.000,,,,,0,00,,,M,,,,0000*2B
$GNRMC,000000.000,A,,,,,,,000000,,*26
$GPGSA,A,1,,,,,,,,,,,,,,,*1E
$BDGSA,A,1,,,,,,,,,,,,,,,*0F
$GPGSV,1,1,01,01,00,000,40*4D
$LOGTIM,0,0.000000,0.000000,0.000000,0.000000,0.000*0A
EndT:        0
---00000007--- Acq_st=3 2019-5-22 07:34:57 
[00]  G01  f 41   2356.4 2045996.9  1.0  1.0  5  0 286514643
$GNGGA,000000.000,,,,,0,00,,,M,,,,0000*2B
$GNRMC,000000.000,A,,,,,,,000000,,*26
$GPGSA,A,1,,,,,,,,,,,,,,,*1E
$BDGSA,A,1,,,,,,,,,,,,,,,*0F
$GPGSV,1,1,01,01,00,000,41*4C
$LOGTIM,0,0.000000,0.000000,0.000000,0.000000,0.000*0A
EndT:        0
---00000008--- Acq_st=3 2019-5-22 07:34:58 
[00]  G01  f 41   2361.7 2045996.9  1.0  1.0  5  0 286515643
$GNGGA,000000.000,,,,,0,00,,,M,,,,0000*2B
$GNRMC,000000.000,A,,,,,,,000000,,*26
$GPGSA,A,1,,,,,,,,,,,,,,,*1E
$BDGSA,A,1,,,,,,,,,,,,,,,*0F
$GPGSV,1,1,01,01,00,000,41*4C
$LOGTIM,0,0.000000,0.000000,0.000000,0.000000,0.000*0A
EndT:        0
---00000009--- Acq_st=3 2019-5-22 07:34:59 
[00]  G01  f 40   2362.0 2045996.9  1.0  1.0  5  0 286516643
$GNGGA,000000.000,,,,,0,00,,,M,,,,0000*2B
$GNRMC,000000.000,A,,,,,,,000000,,*26
$GPGSA,A,1,,,,,,,,,,,,,,,*1E
$BDGSA,A,1,,,,,,,,,,,,,,,*0F
$GPGSV,1,1,01,01,00,000,40*4D
$LOGTIM,0,0.000000,0.000000,0.000000,0.000000,0.000*0A
EndT:        0
---00000010--- Acq_st=3 2019-5-22 07:35:0 
[00]  G01  f 40   2361.4 2045996.9  1.0  1.0  5  0 286517643
$GNGGA,000000.000,,,,,0,00,,,M,,,,0000*2B
$GNRMC,000000.000,A,,,,,,,000000,,*26
$GPGSA,A,1,,,,,,,,,,,,,,,*1E
$BDGSA,A,1,,,,,,,,,,,,,,,*0F
$GPGSV,1,1,01,01,00,000,40*4D
$LOGTIM,0,0.000000,0.000000,0.000000,0.000000,0.000*0A
EndT:        0
---00000011--- Acq_st=3 2019-5-22 07:35:1 
[00]  G01  f 40   2363.1 2045996.9  1.0  1.0  5  0 286518643
$GNGGA,000000.000,,,,,0,00,,,M,,,,0000*2B
$GNRMC,000000.000,A,,,,,,,000000,,*26
$GPGSA,A,1,,,,,,,,,,,,,,,*1E
$BDGSA,A,1,,,,,,,,,,,,,,,*0F
$GPGSV,1,1,01,01,00,000,40*4D
$LOGTIM,0,0.000000,0.000000,0.000000,0.000000,0.000*0A
EndT:        0
---00000012--- Acq_st=3 2019-5-22 07:35:2 
[00]  G01  f 40   2364.8 2045996.9  1.0  1.0  5  0 286519643
[01]  G17  1 24  -1822.1 2046004.4  0.1  0.0  1  0         0
[02]  G18  1  7   4975.2 2045998.2 -0.0  0.0  1  0         0
$GNGGA,000000.000,,,,,0,00,,,M,,,,0000*2B
$GNRMC,000000.000,A,,,,,,,000000,,*26
$GPGSA,A,1,,,,,,,,,,,,,,,*1E
$BDGSA,A,1,,,,,,,,,,,,,,,*0F
$GPGSV,1,1,01,01,00,000,40*4D
$LOGTIM,0,0.000000,0.000000,0.000000,0.000000,0.000*0A
EndT:        0
---00000013--- Acq_st=3 2019-5-22 07:35:3 
[00]  G01  f 40   2365.4 2045996.9  1.0  1.0  5  0 286520643
[01]  G17  7 27  -1828.5 2046002.3  0.4  0.0 20  0         3
[02]  G18  1 30   3026.5 2045996.0  0.0  0.0  1  0         1
[03]  G19  1  7  -2731.2 2046004.2 -0.0  0.0  1  0         0
$GNGGA,000000.000,,,,,0,00,,,M,,,,0000*2B
$GNRMC,000000.000,A,,,,,,,000000,,*26
$GPGSA,A,1,,,,,,,,,,,,,,,*1E
$BDGSA,A,1,,,,,,,,,,,,,,,*0F
$GPGSV,1,1,02,01,00,000,40,17,00,000,27*7D
$LOGTIM,0,0.000000,0.000000,0.000000,0.000000,0.000*0A
EndT:        0
---00000014--- Acq_st=3 2019-5-22 07:35:4 
[00]  G01  f 40   2363.1 2045996.9  1.0  1.0  5  0 286521643
[01]  G17  7 44  -1831.2 2046002.3  1.0  1.0  5  0         1
[02]  G18  7 31   3024.0 2045996.0  0.6  1.0  5  0         1
[03]  G19  7 13  -2621.0 2046003.5  0.1  0.0 20  0        17
$GNGGA,000000.000,,,,,0,00,,,M,,,,0000*2B
$GNRMC,000000.000,A,,,,,,,000000,,*26
$GPGSA,A,1,,,,,,,,,,,,,,,*1E
$BDGSA,A,1,,,,,,,,,,,,,,,*0F
$GPGSV,1,1,04,01,00,000,40,17,00,000,44,18,00,000,31,19,00,000,13*7F
$LOGTIM,0,0.000000,0.000000,0.000000,0.000000,0.000*0A
EndT:        0
---00000015--- Acq_st=3 2019-5-22 07:35:5 
[00]  G01  f 40   2362.4 2045996.9  1.0  1.0  5  0 286522643
[01]  G17  7 44  -1832.2 2046002.4  1.0  1.0  5  0         1
[02]  G18  7 38   3023.1 2045996.0  1.0  1.0  5  0        17
[03]  G19  7 39  -2621.2 2046003.5  1.0  1.0  5  0        17
$GNGGA,000000.000,,,,,0,00,,,M,,,,0000*2B
$GNRMC,000000.000,A,,,,,,,000000,,*26
$GPGSA,A,1,,,,,,,,,,,,,,,*1E
$BDGSA,A,1,,,,,,,,,,,,,,,*0F
$GPGSV,1,1,04,01,00,000,40,17,00,000,44,18,00,000,38,19,00,000,39*7E
$LOGTIM,0,0.000000,0.000000,0.000000,0.000000,0.000*0A
EndT:        0
---00000016--- Acq_st=3 2019-5-22 07:35:6 
[00]  G01  f 39   2362.9 2045997.0  1.0  1.0  5  0 286523643
[01]  G17  7 44  -1831.9 2046002.3  1.0  1.0  5  0         1
[02]  G18  7 38   3023.1 2045996.0  1.0  1.0  5  0        17
[03]  G19  7 39  -2621.1 2046003.4  1.0  1.0  5  0        17
$GNGGA,000000.000,,,,,0,00,,,M,,,,0000*2B
$GNRMC,000000.000,A,,,,,,,000000,,*26
$GPGSA,A,1,,,,,,,,,,,,,,,*1E
$BDGSA,A,1,,,,,,,,,,,,,,,*0F
$GPGSV,1,1,04,01,00,000,39,17,00,000,44,18,00,000,38,19,00,000,39*70
$LOGTIM,0,0.000000,0.000000,0.000000,0.000000,0.000*0A
EndT:        0
---00000017--- Acq_st=3 2019-5-22 07:35:7 
[00]  G01  f 39   2361.4 2045996.9  1.0  1.0  5  0 286524643
[01]  G17  f 44  -1833.5 2046002.4  1.0  1.0  5  0         1
[02]  G18  f 38   3021.3 2045996.0  1.0  1.0  5  0        17
[03]  G19  f 39  -2622.5 2046003.5  1.0  1.0  5  0        17
$GNGGA,000000.000,,,,,0,00,,,M,,,,0000*2B
$GNRMC,000000.000,A,,,,,,,000000,,*26
$GPGSA,A,1,,,,,,,,,,,,,,,*1E
$BDGSA,A,1,,,,,,,,,,,,,,,*0F
$GPGSV,1,1,04,01,00,000,39,17,00,000,44,18,00,000,38,19,00,000,39*70
$LOGTIM,0,0.000000,0.000000,0.000000,0.000000,0.000*0A
EndT:        0
---00000018--- Acq_st=3 2019-5-22 07:35:8 
[00]  G01  f 39   2362.0 2045996.9  1.0  1.0  5  0 286525643
[01]  G17  f 45  -1833.1 2046002.3  1.0  1.0  5  0 286525641
[02]  G18  f 38   3021.6 2045996.1  1.0  1.0  5  0 286525637
[03]  G19  f 39  -2621.7 2046003.4  1.0  1.0  5  0 286525637
$GNGGA,000000.000,,,,,0,00,,,M,,,,0000*2B
$GNRMC,000000.000,A,,,,,,,000000,,*26
$GPGSA,A,1,,,,,,,,,,,,,,,*1E
$BDGSA,A,1,,,,,,,,,,,,,,,*0F
$GPGSV,1,1,04,01,00,000,39,17,00,000,45,18,00,000,38,19,00,000,39*71
$LOGTIM,0,0.000000,0.000000,0.000000,0.000000,0.000*0A
EndT:        0
---00000019--- Acq_st=3 2019-5-22 07:35:9 
[00]  G01  f 39   2362.1 2045996.9  1.0  1.0  5  0 286526643
[01]  G17  f 45  -1832.5 2046002.4  1.0  1.0  5  0 286526641
[02]  G18  f 38   3022.2 2045996.1  1.0  1.0  5  0 286526637
[03]  G19  f 40  -2621.9 2046003.4  1.0  1.0  5  0 286526637
[04]  G28  1  7  -1333.3 2046003.2  0.0  0.0  1  0         0
$GNGGA,000000.000,,,,,0,00,,,M,,,,0000*2B
$GNRMC,000000.000,A,,,,,,,000000,,*26
$GPGSA,A,1,,,,,,,,,,,,,,,*1E
$BDGSA,A,1,,,,,,,,,,,,,,,*0F
$GPGSV,1,1,04,01,00,000,39,17,00,000,45,18,00,000,38,19,00,000,40*7F
$LOGTIM,0,0.000000,0.000000,0.000000,0.000000,0.000*0A
EndT:        0
---00000020--- Acq_st=3 2019-5-22 07:35:10 
[00]  G01  f 40   2361.6 2045996.9  1.0  1.0  5  0 286527643
[01]  G17  f 45  -1833.4 2046002.4  1.0  1.0  5  0 286527641
[02]  G18  f 37   3021.7 2045996.0  1.0  1.0  5  0 286527637
[03]  G19  f 40  -2622.3 2046003.4  1.0  1.0  5  0 286527637
[04]  G28  7 15  -1374.6 2046001.8  0.2  0.0 20  0        12
$GNGGA,000000.000,,,,,0,00,,,M,,,,0000*2B
$GNRMC,000000.000,A,,,,,,,000000,,*26
$GPGSA,A,1,,,,,,,,,,,,,,,*1E
$BDGSA,A,1,,,,,,,,,,,,,,,*0F
$GPGSV,2,1,05,01,00,000,40,17,00,000,45,18,00,000,37,19,00,000,40*7C
$GPGSV,2,2,05,28,00,000,15*42
$LOGTIM,0,0.000000,0.000000,0.000000,0.000000,0.000*0A
EndT:        0
---00000021--- Acq_st=3 2019-5-22 07:35:11 
[00]  G01  f 40   2359.8 2045996.9  1.0  1.0  5  0 286528643
[01]  G17  f 44  -1835.8 2046002.4  1.0  1.0  5  0 286528641
[02]  G18  f 38   3019.0 2045996.0  1.0  1.0  5  0 286528637
[03]  G19  f 40  -2625.1 2046003.4  1.0  1.0  5  0 286528637
[04]  G28  7 39  -1377.1 2046001.8  0.7  1.0  5  0         7
$GNGGA,000000.000,,,,,0,00,,,M,,,,0000*2B
$GNRMC,000000.000,A,,,,,,,000000,,*26
$GPGSA,A,1,,,,,,,,,,,,,,,*1E
$BDGSA,A,1,,,,,,,,,,,,,,,*0F
$GPGSV,2,1,05,01,00,000,40,17,00,000,44,18,00,000,38,19,00,000,40*72
$GPGSV,2,2,05,28,00,000,39*4C
$LOGTIM,0,0.000000,0.000000,0.000000,0.000000,0.000*0A
EndT:        0
---00000022--- Acq_st=3 2019-5-22 07:35:12 
[00]  G01  f 40   2361.0 2045996.9  1.0  1.0  5  0 286529643
[01]  G17  f 44  -1834.7 2046002.4  1.0  1.0  5  0 286529641
[02]  G18  f 37   3020.4 2045996.1  1.0  1.0  5  0 286529637
[03]  G19  f 40  -2624.1 2046003.4  1.0  1.0  5  0 286529637
[04]  G28  7 39  -1375.6 2046001.8  1.0  1.0  5  0         7
$GNGGA,000000.000,,,,,0,00,,,M,,,,0000*2B
$GNRMC,000000.000,A,,,,,,,000000,,*26
$GPGSA,A,1,,,,,,,,,,,,,,,*1E
$BDGSA,A,1,,,,,,,,,,,,,,,*0F
$GPGSV,2,1,05,01,00,000,40,17,00,000,44,18,00,000,37,19,00,000,40*7D
$GPGSV,2,2,05,28,00,000,39*4C
$LOGTIM,0,0.000000,0.000000,0.000000,0.000000,0.000*0A
EndT:        0
---00000023--- Acq_st=3 2019-5-22 07:35:13 
[00]  G01  f 39   2362.2 2045996.9  1.0  1.0  5  0 286530643
[01]  G17  f 44  -1834.1 2046002.4  1.0  1.0  5  0 286530641
[02]  G18  f 37   3021.3 2045996.1  1.0  1.0  5  0 286530637
[03]  G19  f 40  -2623.2 2046003.4  1.0  1.0  5  0 286530637
[04]  G28  f 38  -1374.2 2046001.8  1.0  1.0  5  0         7
$GNGGA,000000.000,,,,,0,00,,,M,,,,0000*2B
$GNRMC,000000.000,A,,,,,,,000000,,*26
$GPGSA,A,1,,,,,,,,,,,,,,,*1E
$BDGSA,A,1,,,,,,,,,,,,,,,*0F
$GPGSV,2,1,05,01,00,000,39,17,00,000,44,18,00,000,37,19,00,000,40*73
$GPGSV,2,2,05,28,00,000,38*4D
$LOGTIM,0,0.000000,0.000000,0.000000,0.000000,0.000*0A
EndT:        0
---00000024--- Acq_st=3 2019-5-22 07:35:14 
[00]  G01  f 39   2361.4 2045996.9  1.0  1.0  5  0 286531643
[01]  G17  f 44  -1834.5 2046002.4  1.0  1.0  5  0 286531641
[02]  G18  f 37   3020.8 2045996.0  1.0  1.0  5  0 286531637
[03]  G19  f 39  -2623.7 2046003.4  1.0  1.0  5  0 286531637
[04]  G28  f 38  -1375.1 2046001.8  1.0  1.0  5  0 286531647
$GNGGA,000000.000,,,,,0,00,,,M,,,,0000*2B
$GNRMC,000000.000,A,,,,,,,000000,,*26
$GPGSA,A,1,,,,,,,,,,,,,,,*1E
$BDGSA,A,1,,,,,,,,,,,,,,,*0F
$GPGSV,2,1,05,01,00,000,39,17,00,000,44,18,00,000,37,19,00,000,39*7D
$GPGSV,2,2,05,28,00,000,38*4D
$LOGTIM,0,0.000000,0.000000,0.000000,0.000000,0.000*0A
EndT:        0
---00000025--- Acq_st=3 2019-5-22 07:35:15 
[00]  G01  f 39   2358.5 2045997.0  1.0  1.0  5  0 286532643
[01]  G17  f 44  -1838.3 2046002.4  1.0  1.0  5  0 286532641
[02]  G18  f 38   3017.3 2045996.1  1.0  1.0  5  0 286532637
[03]  G19  f 39  -2627.8 2046003.4  1.0  1.0  5  0 286532637
[04]  G28  f 38  -1377.8 2046001.8  1.0  0.9  5  0 286532647
$GNGGA,000000.000,,,,,0,00,,,M,,,,0000*2B
$GNRMC,000000.000,A,,,,,,,000000,,*26
$GPGSA,A,1,,,,,,,,,,,,,,,*1E
$BDGSA,A,1,,,,,,,,,,,,,,,*0F
$GPGSV,2,1,05,01,00,000,39,17,00,000,44,18,00,000,38,19,00,000,39*72
$GPGSV,2,2,05,28,00,000,38*4D
$LOGTIM,0,0.000000,0.000000,0.000000,0.000000,0.000*0A
EndT:        0
---00000026--- Acq_st=3 2019-5-22 07:35:16 
[00]  G01  f 39   2360.5 2045996.9  1.0  1.0  5  0 286533643
[01]  G17  f 43  -1836.1 2046002.4  1.0  1.0  5  0 286533641
[02]  G18  f 38   3019.2 2045996.1  1.0  1.0  5  0 286533637
[03]  G19  f 39  -2625.2 2046003.4  1.0  1.0  5  0 286533637
[04]  G28  f 38  -1375.3 2046001.8  1.0  1.0  5  0 286533647
$GNGGA,000000.000,,,,,0,00,,,M,,,,0000*2B
$GNRMC,000000.000,A,,,,,,,000000,,*26
$GPGSA,A,1,,,,,,,,,,,,,,,*1E
$BDGSA,A,1,,,,,,,,,,,,,,,*0F
$GPGSV,2,1,05,01,00,000,39,17,00,000,43,18,00,000,38,19,00,000,39*75
$GPGSV,2,2,05,28,00,000,38*4D
$LOGTIM,0,0.000000,0.000000,0.000000,0.000000,0.000*0A
EndT:        0
---00000027--- Acq_st=3 2019-5-22 07:35:17 
[00]  G01  f 39   2364.7 2045996.9  1.0  1.0  5  0 286534643
[01]  G17  f 43  -1832.2 2046002.4  1.0  1.0  5  0 286534641
[02]  G18  f 38   3023.3 2045996.1  1.0  1.0  5  0 286534637
[03]  G19  f 40  -2621.1 2046003.4  1.0  1.0  5  0 286534637
[04]  G28  f 38  -1370.3 2046001.8  1.0  1.0  5  0 286534647
$GNGGA,000000.000,,,,,0,00,,,M,,,,0000*2B
$GNRMC,000000.000,A,,,,,,,000000,,*26
$GPGSA,A,1,,,,,,,,,,,,,,,*1E
$BDGSA,A,1,,,,,,,,,,,,,,,*0F
$GPGSV,2,1,05,01,00,000,39,17,00,000,43,18,00,000,38,19,00,000,40*7B
$GPGSV,2,2,05,28,00,000,38*4D
$LOGTIM,0,0.000000,0.000000,0.000000,0.000000,0.000*0A
EndT:        0
---00000028--- Acq_st=3 2019-5-22 07:35:18 
[00]  G01  f 40   2368.8 2045997.0  1.0  1.0  5  0 286535643
[01]  G17  f 44  -1827.6 2046002.4  1.0  1.0  5  0 286535641
[02]  G18  f 38   3026.8 2045996.1  1.0  0.9  5  0 286535637
[03]  G19  f 40  -2617.4 2046003.4  1.0  1.0  5  0 286535637
[04]  G28  f 39  -1366.2 2046001.8  1.0  1.0  5  0 286535647
$GNGGA,000000.000,,,,,0,00,,,M,,,,0000*2B
$GNRMC,000000.000,A,,,,,,,000000,,*26
$GPGSA,A,1,,,,,,,,,,,,,,,*1E
$BDGSA,A,1,,,,,,,,,,,,,,,*0F
$GPGSV,2,1,05,01,00,000,40,17,00,000,44,18,00,000,38,19,00,000,40*72
$GPGSV,2,2,05,28,00,000,39*4C
$LOGTIM,0,0.000000,0.000000,0.000000,0.000000,0.000*0A
EndT:        0
---00000029--- Acq_st=3 2019-5-22 07:35:19 
[00]  G01  f 39   2367.5 2045997.0  1.0  1.0  5  0 286536643
[01]  G17  f 44  -1829.3 2046002.4  1.0  1.0  5  0 286536641
[02]  G18  f 38   3025.7 2045996.1  1.0  1.0  5  0 286536637
[03]  G19  f 39  -2618.5 2046003.4  1.0  1.0  5  0 286536637
[04]  G28  f 39  -1366.7 2046001.7  1.0  1.0  5  0 286536647
$GNGGA,000000.000,,,,,0,00,,,M,,,,0000*2B
$GNRMC,000000.000,A,,,,,,,000000,,*26
$GPGSA,A,1,,,,,,,,,,,,,,,*1E
$BDGSA,A,1,,,,,,,,,,,,,,,*0F
$GPGSV,2,1,05,01,00,000,39,17,00,000,44,18,00,000,38,19,00,000,39*72
$GPGSV,2,2,05,28,00,000,39*4C
$LOGTIM,0,0.000000,0.000000,0.000000,0.000000,0.000*0A
EndT:        0
---00000030--- Acq_st=3 2019-5-22 07:35:20 
[00]  G01  f 39   2366.8 2045996.9  1.0  1.0  5  0 286537643
[01]  G17  f 44  -1830.5 2046002.4  1.0  1.0  5  0 286537641
[02]  G18  f 38   3025.1 2045996.1  1.0  1.0  5  0 286537637
[03]  G19  f 40  -2619.8 2046003.4  1.0  1.0  5  0 286537637
[04]  G28  f 39  -1367.6 2046001.8  1.0  1.0  5  0 286537647
$GNGGA,000000.000,,,,,0,00,,,M,,,,0000*2B
$GNRMC,000000.000,A,,,,,,,000000,,*26
$GPGSA,A,1,,,,,,,,,,,,,,,*1E
$BDGSA,A,1,,,,,,,,,,,,,,,*0F
$GPGSV,2,1,05,01,00,000,39,17,00,000,44,18,00,000,38,19,00,000,40*7C
$GPGSV,2,2,05,28,00,000,39*4C
$LOGTIM,0,0.000000,0.000000,0.000000,0.000000,0.000*0A
EndT:        0
---00000031--- Acq_st=3 2019-5-22 07:35:21 
[00]  G01  f 40   2366.1 2045996.9  1.0  1.0  5  0 286538643
[01]  G17  f 44  -1831.4 2046002.4  1.0  1.0  5  0 286538641
[02]  G18  f 37   3024.2 2045996.1  1.0  1.0  5  0 286538637
[03]  G19  f 40  -2620.5 2046003.4  1.0  1.0  5  0 286538637
[04]  G28  f 39  -1368.0 2046001.8  1.0  1.0  5  0 286538647
$GNGGA,000000.000,,,,,0,00,,,M,,,,0000*2B
$GNRMC,000000.000,A,,,,,,,000000,,*26
$GPGSA,A,1,,,,,,,,,,,,,,,*1E
$BDGSA,A,1,,,,,,,,,,,,,,,*0F
$GPGSV,2,1,05,01,00,000,40,17,00,000,44,18,00,000,37,19,00,000,40*7D
$GPGSV,2,2,05,28,00,000,39*4C
$LOGTIM,0,0.000000,0.000000,0.000000,0.000000,0.000*0A
EndT:        0
---00000032--- Acq_st=3 2019-5-22 07:35:22 
[00]  G01  f 39   2369.4 2045997.0  1.0  1.0  5  0 286539643
[01]  G17  f 43  -1828.1 2046002.4  1.0  1.0  5  0 286539641
[02]  G18  f 37   3027.3 2045996.1  1.0  0.9  5  0 286539637
[03]  G19  f 39  -2617.5 2046003.4  1.0  1.0  5  0 286539637
[04]  G28  f 39  -1364.3 2046001.8  1.0  1.0  5  0 286539647
$GNGGA,000000.000,,,,,0,00,,,M,,,,0000*2B
$GNRMC,000000.000,A,,,,,,,000000,,*26
$GPGSA,A,1,,,,,,,,,,,,,,,*1E
$BDGSA,A,1,,,,,,,,,,,,,,,*0F
$GPGSV,2,1,05,01,00,000,39,17,00,000,43,18,00,000,37,19,00,000,39*7A
$GPGSV,2,2,05,28,00,000,39*4C
$LOGTIM,0,0.000000,0.000000,0.000000,0.000000,0.000*0A
EndT:        0
---00000033--- Acq_st=3 2019-5-22 07:35:23 
[00]  G01  f 39   2372.5 2045996.9  1.0  1.0  5  0 286540643
[01]  G17  f 43  -1825.2 2046002.4  1.0  1.0  5  0 286540641
[02]  G18  f 38   3030.4 2045996.1  1.0  1.0  5  0 286540637
[03]  G19  f 39  -2614.1 2046003.4  1.0  1.0  5  0 286540637
[04]  G28  f 38  -1361.1 2046001.7  1.0  1.0  5  0 286540647
[16]  B08  1  7     32.9 4092000.2 -0.1  0.0  1  0         0
$GNGGA,000000.000,,,,,0,00,,,M,,,,0000*2B
$GNRMC,000000.000,A,,,,,,,000000,,*26
$GPGSA,A,1,,,,,,,,,,,,,,,*1E
$BDGSA,A,1,,,,,,,,,,,,,,,*0F
$GPGSV,2,1,05,01,00,000,39,17,00,000,43,18,00,000,38,19,00,000,39*75
$GPGSV,2,2,05,28,00,000,38*4D
$LOGTIM,0,0.000000,0.000000,0.000000,0.000000,0.000*0A
EndT:        0
---00000034--- Acq_st=3 2019-5-22 07:35:24 
[00]  G01  f 39   2377.2 2045996.9  1.0  1.0  5  0 286541643
[01]  G17  f 43  -1820.1 2046002.4  1.0  1.0  5  0 286541641
[02]  G18  f 38   3035.0 2045996.1  1.0  1.0  5  0 286541637
[03]  G19  f 39  -2609.2 2046003.4  1.0  1.0  5  0 286541637
[04]  G28  f 39  -1355.8 2046001.8  1.0  1.0  5  0 286541647
[16]  B08  1  8    122.2 4092000.4  0.0  0.0  1  0       383
$GNGGA,000000.000,,,,,0,00,,,M,,,,0000*2B
$GNRMC,000000.000,A,,,,,,,000000,,*26
$GPGSA,A,1,,,,,,,,,,,,,,,*1E
$BDGSA,A,1,,,,,,,,,,,,,,,*0F
$GPGSV,2,1,05,01,00,000,39,17,00,000,43,18,00,000,38,19,00,000,39*75
$GPGSV,2,2,05,28,00,000,39*4C
$LOGTIM,0,0.000000,0.000000,0.000000,0.000000,0.000*0A
EndT:        0
---00000035--- Acq_st=3 2019-5-22 07:35:25 
[00]  G01  f 39   2374.1 2045996.9  1.0  1.0  5  0 286542643
[01]  G17  f 43  -1823.4 2046002.4  1.0  1.0  5  0 286542641
[02]  G18  f 38   3031.4 2045996.1  1.0  1.0  5  0 286542637
[03]  G19  f 38  -2612.3 2046003.4  1.0  1.0  5  0 286542637
[04]  G28  f 39  -1358.8 2046001.7  1.0  1.0  5  0 286542647
[16]  B08  1  7    179.6 4092000.0 -0.2  0.0  1  0      1383
$GNGGA,000000.000,,,,,0,00,,,M,,,,0000*2B
$GNRMC,000000.000,A,,,,,,,000000,,*26
$GPGSA,A,1,,,,,,,,,,,,,,,*1E
$BDGSA,A,1,,,,,,,,,,,,,,,*0F
$GPGSV,2,1,05,01,00,000,39,17,00,000,43,18,00,000,38,19,00,000,38*74
$GPGSV,2,2,05,28,00,000,39*4C
$LOGTIM,0,0.000000,0.000000,0.000000,0.000000,0.000*0A
EndT:        0
---00000036--- Acq_st=3 2019-5-22 07:35:26 
[00]  G01  f 40   2369.0 2045996.9  1.0  1.0  5  0 286543643
[01]  G17  f 43  -1828.5 2046002.4  1.0  1.0  5  0 286543641
[02]  G18  f 38   3026.5 2045996.0  1.0  1.0  5  0 286543637
[03]  G19  f 38  -2617.1 2046003.5  1.0  1.0  5  0 286543637
[04]  G28  f 38  -1363.9 2046001.8  1.0  1.0  5  0 286543647
[17]  B10  1  7    653.2 4091999.0 -0.0  0.0  1  0         0
$GNGGA,000000.000,,,,,0,00,,,M,,,,0000*2B
$GNRMC,000000.000,A,,,,,,,000000,,*26
$GPGSA,A,1,,,,,,,,,,,,,,,*1E
$BDGSA,A,1,,,,,,,,,,,,,,,*0F
$GPGSV,2,1,05,01,00,000,40,17,00,000,43,18,00,000,38,19,00,000,38*7A
$GPGSV,2,2,05,28,00,000,38*4D
$LOGTIM,0,0.000000,0.000000,0.000000,0.000000,0.000*0A
EndT:        0
---00000037--- Acq_st=3 2019-5-22 07:35:27 
[00]  G01  f 40   2372.3 2045996.9  1.0  1.0  5  0 286544643
[01]  G17  f 43  -1826.2 2046002.4  1.0  1.0  5  0 286544641
[02]  G18  f 38   3028.8 2045996.1  1.0  1.0  5  0 286544637
[03]  G19  f 38  -2614.6 2046003.4  1.0  1.0  5  0 286544637
[04]  G28  f 39  -1360.7 2046001.8  1.0  1.0  5  0 286544647
[17]  B10  1  7    594.0 4091999.3  0.0  0.0  1  0       534
$GNGGA,000000.000,,,,,0,00,,,M,,,,0000*2B
$GNRMC,000000.000,A,,,,,,,000000,,*26
$GPGSA,A,1,,,,,,,,,,,,,,,*1E
$BDGSA,A,1,,,,,,,,,,,,,,,*0F
$GPGSV,2,1,05,01,00,000,40,17,00,000,43,18,00,000,38,19,00,000,38*7A
$GPGSV,2,2,05,28,00,000,39*4C
$LOGTIM,0,0.000000,0.000000,0.000000,0.000000,0.000*0A
EndT:        0
---00000038--- Acq_st=3 2019-5-22 07:35:28 
[00]  G01  f 39   2369.6 2045996.9  1.0  1.0  5  0 286545643
[01]  G17  f 44  -1828.3 2046002.3  1.0  1.0  5  0 286545641
[02]  G18  f 38   3026.5 2045996.1  1.0  1.0  5  0 286545637
[03]  G19  f 38  -2617.7 2046003.4  1.0  1.0  5  0 286545638
[04]  G28  f 38  -1362.4 2046001.8  1.0  1.0  5  0 286545647
[17]  B10  1  7    733.8 4091999.3  0.0  0.0  1  0      1534
$GNGGA,000000.000,,,,,0,00,,,M,,,,0000*2B
$GNRMC,000000.000,A,,,,,,,000000,,*26
$GPGSA,A,1,,,,,,,,,,,,,,,*1E
$BDGSA,A,1,,,,,,,,,,,,,,,*0F
$GPGSV,2,1,05,01,00,000,39,17,00,000,44,18,00,000,38,19,00,000,38*73
$GPGSV,2,2,05,28,00,000,38*4D
$LOGTIM,0,0.000000,0.000000,0.000000,0.000000,0.000*0A
EndT:        0
---00000039--- Acq_st=3 2019-5-22 07:35:29 
[00]  G01  f 39   2368.8 2045997.0  1.0  1.0  5  0 286546643
[01]  G17  f 44  -1830.4 2046002.4  1.0  1.0  5  0 286546641
[02]  G18  f 39   3024.4 2045996.1  1.0  1.0  5  0 286546637
[03]  G19  f 38  -2619.5 2046003.4  1.0  1.0  5  0 286546638
[04]  G28  f 39  -1364.3 2046001.7  1.0  1.0  5  0 286546647
$GNGGA,000000.000,,,,,0,00,,,M,,,,0000*2B
$GNRMC,000000.000,A,,,,,,,000000,,*26
$GPGSA,A,1,,,,,,,,,,,,,,,*1E
$BDGSA,A,1,,,,,,,,,,,,,,,*0F
$GPGSV,2,1,05,01,00,000,39,17,00,000,44,18,00,000,39,19,00,000,38*72
$GPGSV,2,2,05,28,00,000,39*4C
$LOGTIM,0,0.000000,0.000000,0.000000,0.000000,0.000*0A
EndT:        0
---00000040--- Acq_st=3 2019-5-22 07:35:30 
[00]  G01  f 39   2368.3 2045997.0  1.0  1.0  5  0 286547643
[01]  G17  f 44  -1830.9 2046002.4  1.0  1.0  5  0 286547641
[02]  G18  f 39   3024.5 2045996.1  1.0  1.0  5  0 286547637
[03]  G19  f 37  -2620.1 2046003.4  1.0  1.0  5  0 286547638
[04]  G28  f 38  -1364.1 2046001.8  1.0  1.0  5  0 286547647
[16]  B13  1  7    705.8 4091998.9  0.0  0.0  1  0      2383
lsq: nits= 4
$GNGGA,073530.716,3112.7562,N,12136.4302,E,1,05,4.7,82.6,M,,,,0000*2C
$GNRMC,073530.716,A,3112.7562,N,12136.4302,E,0.58,0.00,220519,,*1A
$GPGSA,A,3,01,17,18,19,28,,,,,,,,5.5,4.7,2.8*37
$BDGSA,A,3,,,,,,,,,,,,,5.5,4.7,2.8*2A
$GPGSV,2,1,05,01,00,000,39,17,00,000,44,18,00,000,39,19,00,000,37*7D
$GPGSV,2,2,05,28,00,000,38*4D
$LOGTIM,1,8271952.305127,0.000000,0.000000,0.000000,-61.478*1A
EndT:        1
---00000041--- Acq_st=3 2019-5-22 07:35:31 
[00]  G01  f 39   2372.1 2045996.9  1.0  1.0  5  0 286548643
[01]  G17  f 44  -1826.6 2046002.4  1.0  1.0  5  0 286548641
[02]  G18  f 39   3028.5 2045996.1  1.0  1.0  5  0 286548637
[03]  G19  f 37  -2615.7 2046003.4  1.0  0.9  5  0 286548638
[04]  G28  f 38  -1359.2 2046001.8  1.0  0.9  5  0 286548647
[16]  B13  1  7    652.0 4091999.1  0.0  0.0  1  0       260
lsq: nits= 2
$GNGGA,073532.000,3112.7558,N,12136.4314,E,1,05,4.7,85.7,M,,,,0000*26
$GNRMC,073532.000,A,3112.7558,N,12136.4314,E,0.40,0.00,220519,,*1F
$GPGSA,A,3,01,17,18,19,28,,,,,,,,5.5,4.7,2.8*37
$BDGSA,A,3,,,,,,,,,,,,,5.5,4.7,2.8*2A
$GPGSV,2,1,05,01,00,000,39,17,00,000,44,18,00,000,39,19,00,000,37*7D
$GPGSV,2,2,05,28,00,000,38*4D
$LOGTIM,1,-78.286857,0.000000,0.000000,0.000000,-60.945*0C
EndT:        1
---00000042--- Acq_st=3 2019-5-22 07:35:32 
[00]  G01  f 39   2373.1 2045996.9  1.0  1.0  5  0 286549927
[01]  G17  f 44  -1826.5 2046002.4  1.0  1.0  5  0 286549925
[02]  G18  f 39   3028.4 2045996.0  1.0  1.0  5  0 286549921
[03]  G19  f 37  -2614.9 2046003.5  1.0  1.0  5  0 286549922
[04]  G28  f 37  -1358.8 2046001.8  1.0  1.0  5  0 286549931
[16]  B13  1  7    620.2 4091999.2 -0.0  0.0  1  0      1544
lsq: nits= 2
$GNGGA,073533.000,3112.7546,N,12136.4318,E,1,05,4.7,89.0,M,,,,0000*2F
$GNRMC,073533.000,A,3112.7546,N,12136.4318,E,0.12,0.00,220519,,*1A
$GPGSA,A,3,01,17,18,19,28,,,,,,,,5.5,4.7,2.8*37
$BDGSA,A,3,,,,,,,,,,,,,5.5,4.7,2.8*2A
$GPGSV,2,1,05,01,41,037,39,17,40,312,44,18,17,047,39,19,22,295,37*73
$GPGSV,2,2,05,28,75,315,37*47
$LOGTIM,1,-139.658849,0.000000,0.000000,0.000000,-61.149*35
EndT:        1
---00000043--- Acq_st=3 2019-5-22 07:35:33 
[00]  G01  f 39   2369.0 2045996.9  1.0  1.0  5  0 286550927
[01]  G17  f 44  -1830.8 2046002.4  1.0  1.0  5  0 286550925
[02]  G18  f 38   3024.1 2045996.1  1.0  1.0  5  0 286550921
[03]  G19  f 36  -2619.4 2046003.5  1.0  1.0  5  0 286550922
[04]  G28  f 37  -1362.5 2046001.8  1.0  1.0  5  0 286550931
[16]  B13  1  7    873.5 4091999.0  0.1  0.0  1  0      2544
lsq: nits= 2
$GNGGA,073534.000,3112.7544,N,12136.4318,E,1,05,4.7,89.3,M,,,,0000*29
$GNRMC,073534.000,A,3112.7544,N,12136.4318,E,0.45,0.00,220519,,*1D
$GPGSA,A,3,01,17,18,19,28,,,,,,,,5.5,4.7,2.8*37
$BDGSA,A,3,,,,,,,,,,,,,5.5,4.7,2.8*2A
$GPGSV,2,1,05,01,41,037,39,17,40,312,44,18,17,047,38,19,22,295,36*73
$GPGSV,2,2,05,28,75,315,37*47
$LOGTIM,1,-201.526021,0.000000,0.000000,0.000000,-61.649*36
EndT:        1
---00000044--- Acq_st=3 2019-5-22 07:35:34 
[00]  G01  f 39   2363.9 2045996.9  1.0  1.0  5  0 286551927
[01]  G17  f 44  -1835.7 2046002.4  1.0  1.0  5  0 286551925
[02]  G18  f 39   3019.3 2045996.1  1.0  1.0  5  0 286551921
[03]  G19  f 36  -2624.7 2046003.4  1.0  0.9  5  0 286551922
[04]  G28  f 37  -1366.7 2046001.8  1.0  1.0  5  0 286551931
lsq: nits= 2
$GNGGA,073535.000,3112.7545,N,12136.4318,E,1,05,4.7,89.6,M,,,,0000*2C
$GNRMC,073535.000,A,3112.7545,N,12136.4318,E,1.00,0.00,220519,,*1D
$GPGSA,A,3,01,17,18,19,28,,,,,,,,5.5,4.7,2.8*37
$BDGSA,A,3,,,,,,,,,,,,,5.5,4.7,2.8*2A
$GPGSV,2,1,05,01,41,037,39,17,40,312,44,18,17,047,39,19,22,295,36*72
$GPGSV,2,2,05,28,75,315,37*47
$LOGTIM,1,-264.173770,0.000000,0.000000,0.000000,-62.250*3D
EndT:        1
---00000045--- Acq_st=3 2019-5-22 07:35:35 
[00]  G01  f 39   2361.4 2045997.0  1.0  1.0  5  0 286552927
[01]  G17  f 44  -1838.3 2046002.4  1.0  1.0  5  0 286552925
[02]  G18  f 38   3016.8 2045996.1  1.0  1.0  5  0 286552921
[03]  G19  f 36  -2626.7 2046003.4  1.0  1.0  5  0 286552922
[04]  G28  f 36  -1369.2 2046001.8  1.0  1.0  5  0 286552931
lsq: nits= 2
$GNGGA,073536.000,3112.7544,N,12136.4318,E,1,05,4.7,89.7,M,,,,0000*2F
$GNRMC,073536.000,A,3112.7544,N,12136.4318,E,1.23,0.00,220519,,*1E
$GPGSA,A,3,01,17,18,19,28,,,,,,,,5.5,4.7,2.8*37
$BDGSA,A,3,,,,,,,,,,,,,5.5,4.7,2.8*2A
$GPGSV,2,1,05,01,41,037,39,17,40,312,44,18,17,047,38,19,22,295,36*73
$GPGSV,2,2,05,28,75,315,36*46
$LOGTIM,1,-327.591320,0.000000,0.000000,0.000000,-62.731*30
EndT:        1
---00000046--- Acq_st=3 2019-5-22 07:35:36 
[00]  G01  f 39   2363.0 2045996.9  1.0  1.0  5  0 286553927
[01]  G17  f 44  -1837.2 2046002.4  1.0  1.0  5  0 286553925
[02]  G18  f 38   3017.6 2045996.1  1.0  1.0  5  0 286553921
[03]  G19  f 36  -2625.0 2046003.4  1.0  1.0  5  0 286553922
[04]  G28  f 37  -1367.4 2046001.8  1.0  1.0  5  0 286553931
lsq: nits= 2
$GNGGA,073537.000,3112.7545,N,12136.4319,E,1,05,4.7,90.3,M,,,,0000*22
$GNRMC,073537.000,A,3112.7545,N,12136.4319,E,0.93,0.00,220519,,*15
$GPGSA,A,3,01,17,18,19,28,,,,,,,,5.5,4.7,2.8*37
$BDGSA,A,3,,,,,,,,,,,,,5.5,4.7,2.8*2A
$GPGSV,2,1,05,01,41,037,39,17,40,312,44,18,17,047,38,19,22,295,36*73
$GPGSV,2,2,05,28,75,315,37*47
$LOGTIM,1,-390.483647,0.000000,0.000000,0.000000,-62.651*3D
EndT:        1
---00000047--- Acq_st=3 2019-5-22 07:35:37 
[00]  G01  f 39   2364.1 2045996.9  1.0  1.0  5  0 286554927
[01]  G17  f 44  -1835.8 2046002.4  1.0  1.0  5  0 286554925
[02]  G18  f 39   3019.5 2045996.1  1.0  1.0  5  0 286554921
[03]  G19  f 36  -2624.0 2046003.4  1.0  1.0  5  0 286554922
[04]  G28  f 36  -1365.8 2046001.8  1.0  0.9  5  0 286554931
lsq: nits= 2
$GNGGA,073538.000,3112.7537,N,12136.4326,E,1,05,4.7,91.4,M,,,,0000*22
$GNRMC,073538.000,A,3112.7537,N,12136.4326,E,0.49,0.00,220519,,*14
$GPGSA,A,3,01,17,18,19,28,,,,,,,,5.5,4.7,2.8*37
$BDGSA,A,3,,,,,,,,,,,,,5.5,4.7,2.8*2A
$GPGSV,2,1,05,01,41,037,39,17,40,312,44,18,17,047,39,19,22,295,36*72
$GPGSV,2,2,05,28,75,315,36*46
$LOGTIM,1,-455.235594,0.000000,0.000000,0.000000,-62.805*3A
EndT:        1
---00000048--- Acq_st=3 2019-5-22 07:35:38 
[00]  G01  f 39   2363.0 2045996.9  1.0  1.0  5  0 286555927
[01]  G17  f 44  -1837.7 2046002.4  1.0  1.0  5  0 286555925
[02]  G18  f 39   3017.9 2045996.1  1.0  1.0  5  0 286555921
[03]  G19  f 36  -2626.4 2046003.4  1.0  1.0  5  0 286555922
[04]  G28  f 36  -1366.6 2046001.8  1.0  1.0  5  0 286555931
lsq: nits= 2
$GNGGA,073539.000,3112.7521,N,12136.4334,E,1,05,4.7,91.1,M,,,,0000*22
$GNRMC,073539.000,A,3112.7521,N,12136.4334,E,0.28,0.00,220519,,*16
$GPGSA,A,3,01,17,18,19,28,,,,,,,,5.5,4.7,2.8*37
$BDGSA,A,3,,,,,,,,,,,,,5.5,4.7,2.8*2A
$GPGSV,2,1,05,01,41,037,39,17,40,312,44,18,17,047,39,19,22,295,36*72
$GPGSV,2,2,05,28,75,315,36*46
$LOGTIM,1,-520.525954,0.000000,0.000000,0.000000,-63.142*34
EndT:        1
---00000049--- Acq_st=3 2019-5-22 07:35:39 
[00]  G01  f 39   2361.1 2045996.9  1.0  0.9  5  0 286556927
[01]  G17  f 44  -1839.8 2046002.4  1.0  1.0  5  0 286556925
[02]  G18  f 39   3015.6 2045996.1  1.0  1.0  5  0 286556921
[03]  G19  f 37  -2627.8 2046003.4  1.0  1.1  5  0 286556922
[04]  G28  f 36  -1369.0 2046001.8  1.0  1.0  5  0 286556931
lsq: nits= 2
$GNGGA,073540.000,3112.7507,N,12136.4339,E,1,05,4.7,89.8,M,,,,0000*25
$GNRMC,073540.000,A,3112.7507,N,12136.4339,E,0.07,0.00,220519,,*1C
$GPGSA,A,3,01,17,18,19,28,,,,,,,,5.5,4.7,2.8*37
$BDGSA,A,3,,,,,,,,,,,,,5.5,4.7,2.8*2A
$GPGSV,2,1,05,01,41,037,39,17,40,312,44,18,17,047,39,19,22,295,37*73
$GPGSV,2,2,05,28,75,315,36*46
$LOGTIM,1,-586.253179,0.000000,0.000000,0.000000,-63.400*3A
EndT:        1
---00000050--- Acq_st=3 2019-5-22 07:35:40 
[00]  G01  f 39   2361.9 2045996.9  1.0  1.0  5  0 286557927
[01]  G17  f 44  -1838.9 2046002.4  1.0  1.0  5  0 286557925
[02]  G18  f 38   3016.3 2045996.1  1.0  1.0  5  0 286557921
[03]  G19  f 37  -2627.8 2046003.4  1.0  1.0  5  0 286557922
[04]  G28  f 36  -1367.6 2046001.8  1.0  1.0  5  0 286557931
lsq: nits= 2
$GNGGA,073541.000,3112.7491,N,12136.4341,E,1,05,4.7,88.1,M,,,,0000*2D
$GNRMC,073541.000,A,3112.7491,N,12136.4341,E,0.36,0.00,220519,,*1E
$GPGSA,A,3,01,17,18,19,28,,,,,,,,5.5,4.7,2.8*37
$BDGSA,A,3,,,,,,,,,,,,,5.5,4.7,2.8*2A
$GPGSV,2,1,05,01,41,037,39,17,40,312,44,18,17,047,38,19,22,295,37*72
$GPGSV,2,2,05,28,75,315,36*46
$LOGTIM,1,-652.429754,0.000000,0.000000,0.000000,-63.685*3D
EndT:        1
---00000051--- Acq_st=3 2019-5-22 07:35:41 
[00]  G01  f 39   2361.8 2045996.9  1.0  1.0  5  0 286558927
[01]  G17  f 44  -1839.1 2046002.4  1.0  1.0  5  0 286558925
[02]  G18  f 38   3015.8 2045996.1  1.0  0.9  5  0 286558921
[03]  G19  f 37  -2627.8 2046003.4  1.0  1.0  5  0 286558922
[04]  G28  f 36  -1366.4 2046001.8  1.0  1.0  5  0 286558931
lsq: nits= 2
$GNGGA,073542.000,3112.7478,N,12136.4343,E,1,05,4.7,86.6,M,,,,0000*22
$GNRMC,073542.000,A,3112.7478,N,12136.4343,E,0.87,0.00,220519,,*12
$GPGSA,A,3,01,17,18,19,28,,,,,,,,5.5,4.7,2.8*37
$BDGSA,A,3,,,,,,,,,,,,,5.5,4.7,2.8*2A
$GPGSV,2,1,05,01,41,037,39,17,40,312,44,18,17,047,38,19,22,295,37*72
$GPGSV,2,2,05,28,75,315,36*46
$LOGTIM,1,-718.308437,0.000000,0.000000,0.000000,-63.685*30
EndT:        1
---00000052--- Acq_st=3 2019-5-22 07:35:42 
[00]  G01  f 40   2364.4 2045996.9  1.0  1.0  5  0 286559927
[01]  G17  f 44  -1836.9 2046002.4  1.0  1.0  5  0 286559925
[02]  G18  f 38   3018.0 2045996.1  1.0  1.0  5  0 286559921
[03]  G19  f 37  -2625.3 2046003.3  1.0  1.0  5  0 286559922
[04]  G28  f 37  -1365.1 2046001.8  1.0  1.0  5  0 286559931
lsq: nits= 2
$GNGGA,073543.000,3112.7470,N,12136.4342,E,1,05,4.7,85.9,M,,,,0000*26
$GNRMC,073543.000,A,3112.7470,N,12136.4342,E,1.20,0.00,220519,,*16
$GPGSA,A,3,01,17,18,19,28,,,,,,,,5.5,4.7,2.8*37
$BDGSA,A,3,,,,,,,,,,,,,5.5,4.7,2.8*2A
$GPGSV,2,1,05,01,41,037,40,17,40,312,44,18,17,047,38,19,22,295,37*7C
$GPGSV,2,2,05,28,75,315,37*47
$LOGTIM,1,-783.238150,0.000000,0.000000,0.000000,-63.589*3B
EndT:        2
---00000053--- Acq_st=3 2019-5-22 07:35:43 
[00]  G01  f 40   2363.7 2045996.9  1.0  1.0  5  0 286560927
[01]  G17  f 43  -1837.4 2046002.3  1.0  1.0  5  0 286560925
[02]  G18  f 38   3017.3 2045996.1  1.0  0.9  5  0 286560921
[03]  G19  f 37  -2625.7 2046003.5  1.0  1.0  5  0 286560922
[04]  G28  f 36  -1364.4 2046001.8  1.0  1.0  5  0 286560931
lsq: nits= 2
$GNGGA,073544.000,3112.7462,N,12136.4341,E,1,05,4.7,84.7,M,,,,0000*2E
$GNRMC,073544.000,A,3112.7462,N,12136.4341,E,1.05,0.00,220519,,*16
$GPGSA,A,3,01,17,18,19,28,,,,,,,,5.5,4.7,2.8*37
$BDGSA,A,3,,,,,,,,,,,,,5.5,4.7,2.8*2A
$GPGSV,2,1,05,01,41,037,40,17,40,312,43,18,17,047,38,19,22,295,37*7B
$GPGSV,2,2,05,28,75,315,36*46
$LOGTIM,1,-848.143009,0.000000,0.000000,0.000000,-63.723*33
EndT:        2
---00000054--- Acq_st=3 2019-5-22 07:35:44 
[00]  G01  f 40   2364.9 2045996.9  1.0  1.0  5  0 286561927
[01]  G17  f 44  -1836.4 2046002.4  1.0  1.0  5  0 286561925
[02]  G18  f 38   3018.5 2045996.0  1.0  1.0  5  0 286561921
[03]  G19  f 38  -2625.8 2046003.4  1.0  1.0  5  0 286561922
[04]  G28  f 37  -1363.3 2046001.7  1.0  1.0  5  0 286561931
lsq: nits= 2
$GNGGA,073545.000,3112.7453,N,12136.4343,E,1,05,4.7,83.1,M,,,,0000*2E
$GNRMC,073545.000,A,3112.7453,N,12136.4343,E,1.67,0.00,220519,,*13
$GPGSA,A,3,01,17,18,19,28,,,,,,,,5.5,4.7,2.8*37
$BDGSA,A,3,,,,,,,,,,,,,5.5,4.7,2.8*2A
$GPGSV,2,1,05,01,41,037,40,17,40,312,44,18,17,047,38,19,22,295,38*73
$GPGSV,2,2,05,28,75,315,37*47
$LOGTIM,1,-912.467756,0.000000,0.000000,0.000000,-63.348*3A
EndT:        2
---00000055--- Acq_st=3 2019-5-22 07:35:45 
[00]  G01  f 40   2375.2 2045996.9  1.0  1.0  5  0 286562927
[01]  G17  f 43  -1826.8 2046002.4  1.0  1.0  5  0 286562925
[02]  G18  f 39   3028.4 2045996.1  1.0  1.0  5  0 286562921
[03]  G19  f 38  -2615.3 2046003.4  1.0  1.0  5  0 286562922
[04]  G28  f 36  -1352.8 2046001.8  1.0  1.0  5  0 286562931
lsq: nits= 2
$GNGGA,073546.000,3112.7441,N,12136.4344,E,1,05,4.7,81.3,M,,,,0000*29
$GNRMC,073546.000,A,3112.7441,N,12136.4344,E,2.79,276.54,220519,,*1A
$GPGSA,A,3,01,17,18,19,28,,,,,,,,5.5,4.7,2.8*37
$BDGSA,A,3,,,,,,,,,,,,,5.5,4.7,2.8*2A
$GPGSV,2,1,05,01,41,037,40,17,40,312,43,18,17,047,39,19,22,295,38*75
$GPGSV,2,2,05,28,75,315,36*46
$LOGTIM,1,-975.954302,0.000000,0.000000,0.000000,-62.605*3E
EndT:        2
---00000056--- Acq_st=3 2019-5-22 07:35:46 
[00]  G01  f 40   2373.1 2045996.9  1.0  1.0  5  0 286563927
[01]  G17  f 43  -1828.2 2046002.4  1.0  1.0  5  0 286563925
[02]  G18  f 39   3027.0 2045996.1  1.0  1.0  5  0 286563921
[03]  G19  f 38  -2616.6 2046003.4  1.0  1.0  5  0 286563922
[04]  G28  f 37  -1354.1 2046001.8  1.0  1.0  5  0 286563931
lsq: nits= 2
$GNGGA,073547.000,3112.7433,N,12136.4342,E,1,05,4.7,80.2,M,,,,0000*2B
$GNRMC,073547.000,A,3112.7433,N,12136.4342,E,2.26,274.26,220519,,*15
$GPGSA,A,3,01,17,18,19,28,,,,,,,,5.5,4.7,2.8*37
$BDGSA,A,3,,,,,,,,,,,,,5.5,4.7,2.8*2A
$GPGSV,2,1,05,01,41,037,40,17,40,312,43,18,17,047,39,19,22,295,38*75
$GPGSV,2,2,05,28,75,315,37*47
$LOGTIM,1,-1039.259102,0.000000,0.000000,0.000000,-62.750*0B
EndT:        2
---00000057--- Acq_st=3 2019-5-22 07:35:47 
[00]  G01  f 40   2370.9 2045996.9  1.0  1.0  5  0 286564927
[01]  G17  f 43  -1831.0 2046002.4  1.0  1.0  5  0 286564925
[02]  G18  f 39   3023.9 2045996.1  1.0  1.0  5  0 286564921
[03]  G19  f 38  -2619.7 2046003.4  1.0  1.0  5  0 286564922
[04]  G28  f 37  -1355.9 2046001.8  1.0  1.0  5  0 286564931
lsq: nits= 2
$GNGGA,073548.000,3112.7426,N,12136.4340,E,1,05,4.7,79.3,M,,,,0000*25
$GNRMC,073548.000,A,3112.7426,N,12136.4340,E,2.46,275.01,220519,,*1E
$GPGSA,A,3,01,17,18,19,28,,,,,,,,5.5,4.7,2.8*37
$BDGSA,A,3,,,,,,,,,,,,,5.5,4.7,2.8*2A
$GPGSV,2,1,05,01,41,037,40,17,40,312,43,18,17,047,39,19,22,295,38*75
$GPGSV,2,2,05,28,75,315,37*47
$LOGTIM,1,-1102.509270,0.000000,0.000000,0.000000,-62.620*00
EndT:        2
---00000058--- Acq_st=3 2019-5-22 07:35:48 
[00]  G01  f 40   2375.7 2045996.9  1.0  1.0  5  0 286565927
[01]  G17  f 43  -1826.7 2046002.4  1.0  1.0  5  0 286565925
[02]  G18  f 39   3028.5 2045996.0  1.0  1.0  5  0 286565921
[03]  G19  f 38  -2615.9 2046003.4  1.0  1.0  5  0 286565922
[04]  G28  f 37  -1351.9 2046001.8  1.0  0.9  5  0 286565931
lsq: nits= 2
$GNGGA,073549.000,3112.7416,N,12136.4335,E,1,05,4.7,78.8,M,,,,0000*2F
$GNRMC,073549.000,A,3112.7416,N,12136.4335,E,2.44,273.58,220519,,*16
$GPGSA,A,3,01,17,18,19,28,,,,,,,,5.5,4.7,2.8*37
$BDGSA,A,3,,,,,,,,,,,,,5.5,4.7,2.8*2A
$GPGSV,2,1,05,01,41,037,40,17,40,312,43,18,17,047,39,19,22,295,38*75
$GPGSV,2,2,05,28,75,315,37*47
$LOGTIM,1,-1165.850495,0.000000,0.000000,0.000000,-62.603*0C
EndT:        2
---00000059--- Acq_st=3 2019-5-22 07:35:49 
[00]  G01  f 40   2370.2 2045996.9  1.0  1.0  5  0 286566927
[01]  G17  f 43  -1832.0 2046002.4  1.0  1.0  5  0 286566925
[02]  G18  f 39   3023.3 2045996.1  1.0  1.0  5  0 286566921
[03]  G19  f 38  -2620.3 2046003.4  1.0  0.9  5  0 286566922
[04]  G28  f 36  -1356.0 2046001.7  1.0  1.0  5  0 286566931
[16]  B26  1  7  -3000.2 4092007.1 -0.1  0.0  1  0        24
lsq: nits= 2
$GNGGA,073550.000,3112.7404,N,12136.4331,E,1,05,4.7,78.0,M,,,,0000*28
$GNRMC,073550.000,A,3112.7404,N,12136.4331,E,1.79,273.58,220519,,*14
$GPGSA,A,3,01,17,18,19,28,,,,,,,,5.5,4.7,2.8*37
$BDGSA,A,3,,,,,,,,,,,,,5.5,4.7,2.8*2A
$GPGSV,2,1,05,01,41,037,40,17,40,312,43,18,17,047,39,19,22,295,38*75
$GPGSV,2,2,05,28,75,315,36*46
$LOGTIM,1,-1229.755124,0.000000,0.000000,0.000000,-62.837*0B
EndT:        2
---00000060--- Acq_st=3 2019-5-22 07:35:50 
[00]  G01  f 40   2369.3 2045996.9  1.0  1.0  5  0 286567927
[01]  G17  f 44  -1833.2 2046002.4  1.0  1.0  5  0 286567925
[02]  G18  f 39   3022.4 2045996.0  1.0  1.0  5  0 286567921
[03]  G19  f 39  -2621.9 2046003.5  1.0  1.0  5  0 286567922
[04]  G28  f 36  -1357.0 2046001.8  1.0  1.0  5  0 286567931
[16]  B26  1  7  -2686.8 4092007.2  0.1  0.0  1  0      1024
lsq: nits= 2
$GNGGA,073551.000,3112.7391,N,12136.4329,E,1,05,4.7,77.6,M,,,,0000*22
$GNRMC,073551.000,A,3112.7391,N,12136.4329,E,1.80,273.58,220519,,*11
$GPGSA,A,3,01,17,18,19,28,,,,,,,,5.5,4.7,2.8*37
$BDGSA,A,3,,,,,,,,,,,,,5.5,4.7,2.8*2A
$GPGSV,2,1,05,01,41,037,40,17,40,312,44,18,17,047,39,19,22,295,39*73
$GPGSV,2,2,05,28,75,315,36*46
$LOGTIM,1,-1293.387219,0.000000,0.000000,0.000000,-62.866*08
EndT:        2
---00000061--- Acq_st=3 2019-5-22 07:35:51 
[00]  G01  f 40   2374.2 2045996.9  1.0  1.0  5  0 286568927
[01]  G17  f 44  -1828.3 2046002.4  1.0  1.0  5  0 286568925
[02]  G18  f 39   3026.8 2045996.1  1.0  1.0  5  0 286568921
[03]  G19  f 39  -2616.8 2046003.4  1.0  1.0  5  0 286568922
[04]  G28  f 36  -1352.3 2046001.8  1.0  1.0  5  0 286568931
[16]  B26  1  7  -2824.5 4092007.3  0.1  0.0  1  0      2024
lsq: nits= 2
$GNGGA,073552.000,3112.7378,N,12136.4330,E,1,05,4.7,77.1,M,,,,0000*29
$GNRMC,073552.000,A,3112.7378,N,12136.4330,E,2.39,276.44,220519,,*14
$GPGSA,A,3,01,17,18,19,28,,,,,,,,5.5,4.7,2.8*37
$BDGSA,A,3,,,,,,,,,,,,,5.5,4.7,2.8*2A
$GPGSV,2,1,05,01,41,037,40,17,40,313,44,18,16,047,39,19,22,295,39*73
$GPGSV,2,2,05,28,75,315,36*46
$LOGTIM,1,-1356.226502,0.000000,0.000000,0.000000,-62.423*0A
EndT:        2
---00000062--- Acq_st=3 2019-5-22 07:35:52 
[00]  G01  f 40   2377.9 2045997.0  1.0  1.0  5  0 286569927
[01]  G17  f 44  -1824.8 2046002.4  1.0  1.0  5  0 286569925
[02]  G18  f 39   3030.5 2045996.1  1.0  1.0  5  0 286569921
[03]  G19  f 39  -2613.8 2046003.4  1.0  1.0  5  0 286569922
[04]  G28  f 36  -1348.4 2046001.7  1.0  1.0  5  0 286569931
lsq: nits= 2
$GNGGA,073553.000,3112.7367,N,12136.4331,E,1,05,4.7,76.7,M,,,,0000*20
$GNRMC,073553.000,A,3112.7367,N,12136.4331,E,3.30,277.62,220519,,*17
$GPGSA,A,3,01,17,18,19,28,,,,,,,,5.5,4.7,2.8*37
$BDGSA,A,3,,,,,,,,,,,,,5.5,4.7,2.8*2A
$GPGSV,2,1,05,01,41,037,40,17,40,313,44,18,16,047,39,19,22,295,39*73
$GPGSV,2,2,05,28,75,315,36*46
$LOGTIM,1,-1418.378000,0.000000,0.000000,0.000000,-62.010*0E
EndT:        2
---00000063--- Acq_st=3 2019-5-22 07:35:53 
[00]  G01  f 40   2380.6 2045997.0  1.0  1.0  5  0 286570927
[01]  G17  f 44  -1821.9 2046002.4  1.0  1.0  5  0 286570925
[02]  G18  f 39   3032.7 2045996.1  1.0  1.0  5  0 286570921
[03]  G19  f 39  -2610.4 2046003.4  1.0  1.0  5  0 286570922
[04]  G28  f 36  -1344.7 2046001.8  1.0  0.9  5  0 286570931
[17]  B29  1  7   -102.1 4091999.9  0.0  0.0  1  0      2534
lsq: nits= 2
$GNGGA,073554.000,3112.7355,N,12136.4332,E,1,05,4.7,76.1,M,,,,0000*23
$GNRMC,073554.000,A,3112.7355,N,12136.4332,E,3.57,277.77,220519,,*17
$GPGSA,A,3,01,17,18,19,28,,,,,,,,5.5,4.7,2.8*37
$BDGSA,A,3,,,,,,,,,,,,,5.5,4.7,2.8*2A
$GPGSV,2,1,05,01,41,037,40,17,40,313,44,18,16,047,39,19,22,295,39*73
$GPGSV,2,2,05,28,75,315,36*46
$LOGTIM,1,-1480.494074,0.000000,0.000000,0.000000,-61.839*09
EndT:        2
---00000064--- Acq_st=3 2019-5-22 07:35:54 
[00]  G01  f 41   2378.5 2045996.9  1.0  1.0  5  0 286571927
[01]  G17  f 43  -1825.4 2046002.4  1.0  1.0  5  0 286571925
[02]  G18  f 39   3030.0 2045996.0  1.0  1.0  5  0 286571921
[03]  G19  f 39  -2614.3 2046003.4  1.0  1.0  5  0 286571922
[04]  G28  f 36  -1347.4 2046001.8  1.0  0.9  5  0 286571931
[17]  B29  1  7     77.2 4092000.1  0.2  0.0  1  0       750
lsq: nits= 2
$GNGGA,073555.000,3112.7338,N,12136.4319,E,1,05,4.7,73.6,M,,,,0000*22
$GNRMC,073555.000,A,3112.7338,N,12136.4319,E,2.49,275.09,220519,,*11
$GPGSA,A,3,01,17,18,19,28,,,,,,,,5.5,4.7,2.8*37
$BDGSA,A,3,,,,,,,,,,,,,5.5,4.7,2.8*2A
$GPGSV,2,1,05,01,41,037,41,17,40,313,43,18,16,047,39,19,22,295,39*75
$GPGSV,2,2,05,28,75,315,36*46
$LOGTIM,1,-1543.572456,0.000000,0.000000,0.000000,-62.103*09
EndT:        2
---00000065--- Acq_st=3 2019-5-22 07:35:55 
[00]  G01  f 41   2373.1 2045996.9  1.0  1.0  5  0 286572927
[01]  G17  f 44  -1830.5 2046002.4  1.0  1.0  5  0 286572925
[02]  G18  f 39   3024.9 2045996.1  1.0  1.0  5  0 286572921
[03]  G19  f 39  -2618.1 2046003.4  1.0  0.9  5  0 286572922
[04]  G28  f 37  -1351.8 2046001.7  1.0  1.0  5  0 286572931
[17]  B29  1  7     73.5 4092000.0  0.0  0.0  1  0      1750
lsq: nits= 2
$GNGGA,073556.000,3112.7337,N,12136.4314,E,1,05,4.7,73.4,M,,,,0000*21
$GNRMC,073556.000,A,3112.7337,N,12136.4314,E,1.20,275.09,220519,,*1C
$GPGSA,A,3,01,17,18,19,28,,,,,,,,5.5,4.7,2.8*37
$BDGSA,A,3,,,,,,,,,,,,,5.5,4.7,2.8*2A
$GPGSV,2,1,05,01,41,037,41,17,40,313,44,18,16,047,39,19,22,295,39*72
$GPGSV,2,2,05,28,75,315,37*47
$LOGTIM,1,-1606.045694,0.000000,0.000000,0.000000,-62.426*04
EndT:        2
---00000066--- Acq_st=3 2019-5-22 07:35:56 
[00]  G01  f 41   2367.6 2045996.9  1.0  1.0  5  0 286573927
[01]  G17  f 44  -1836.1 2046002.4  1.0  1.0  5  0 286573925
[02]  G18  f 39   3018.9 2045996.1  1.0  1.0  5  0 286573921
[03]  G19  f 39  -2624.7 2046003.4  1.0  1.0  5  0 286573922
[04]  G28  f 36  -1357.7 2046001.8  1.0  0.9  5  0 286573931
lsq: nits= 2
$GNGGA,073557.000,3112.7324,N,12136.4306,E,1,05,4.7,71.0,M,,,,0000*27
$GNRMC,073557.000,A,3112.7324,N,12136.4306,E,0.40,275.09,220519,,*1B
$GPGSA,A,3,01,17,18,19,28,,,,,,,,5.5,4.7,2.8*37
$BDGSA,A,3,,,,,,,,,,,,,5.5,4.7,2.8*2A
$GPGSV,2,1,05,01,41,037,41,17,40,313,44,18,16,047,39,19,22,295,39*72
$GPGSV,2,2,05,28,75,315,36*46
$LOGTIM,1,-1670.302027,0.000000,0.000000,0.000000,-63.005*0F
EndT:        2
---00000067--- Acq_st=7 2019-5-22 07:35:57 
[00]  G01  f 41   2367.2 2045996.9  1.0  1.0  5  0 286574927
[01]  G17  f 44  -1836.7 2046002.4  1.0  1.0  5  0 286574925
[02]  G18  f 39   3018.6 2045996.1  1.0  1.0  5  0 286574921
[03]  G19  f 40  -2624.9 2046003.4  1.0  1.0  5  0 286574922
[04]  G28  f 36  -1357.1 2046001.8  1.0  1.0  5  0 286574931
lsq: nits= 2
$GNGGA,073558.000,3112.7308,N,12136.4307,E,1,05,4.7,68.9,M,,,,0000*26
$GNRMC,073558.000,A,3112.7308,N,12136.4307,E,0.65,275.09,220519,,*1C
$GPGSA,A,3,01,17,18,19,28,,,,,,,,5.5,4.7,2.8*37
$BDGSA,A,3,,,,,,,,,,,,,5.5,4.7,2.8*2A
$GPGSV,2,1,05,01,41,037,41,17,40,313,44,18,16,047,39,19,22,295,40*7C
$GPGSV,2,2,05,28,75,315,36*46
$LOGTIM,1,-1734.979905,0.000000,0.000000,0.000000,-63.092*0F
EndT:        2
---00000068--- Acq_st=3 2019-5-22 07:35:58 
[00]  G01  f 41   2370.0 2045996.9  1.0  1.0  5  0 286575927
[01]  G17  f 44  -1833.6 2046002.4  1.0  1.0  5  0 286575925
[02]  G18  f 38   3021.5 2045996.1  1.0  1.0  5  0 286575921
[03]  G19  f 40  -2622.2 2046003.4  1.0  1.0  5  0 286575922
[04]  G28  f 36  -1354.5 2046001.8  1.0  1.0  5  0 286575931
lsq: nits= 2
$GNGGA,073559.000,3112.7290,N,12136.4311,E,1,05,4.7,67.1,M,,,,0000*27
$GNRMC,073559.000,A,3112.7290,N,12136.4311,E,1.22,275.09,220519,,*18
$GPGSA,A,3,01,17,18,19,28,,,,,,,,5.5,4.7,2.8*37
$BDGSA,A,3,,,,,,,,,,,,,5.5,4.7,2.8*2A
$GPGSV,2,1,05,01,41,037,41,17,40,313,44,18,16,047,38,19,22,295,40*7D
$GPGSV,2,2,05,28,75,315,36*46
$LOGTIM,1,-1799.623081,0.000000,0.000000,0.000000,-62.948*02
EndT:        2
---00000069--- Acq_st=3 2019-5-22 07:35:59 
[00]  G01  f 41   2373.0 2045996.9  1.0  1.0  5  0 286576927
[01]  G17  f 44  -1830.9 2046002.4  1.0  1.0  5  0 286576925
[02]  G18  f 38   3024.0 2045996.1  1.0  1.0  5  0 286576921
[03]  G19  f 40  -2619.7 2046003.4  1.0  1.0  5  0 286576922
[04]  G28  f 35  -1350.9 2046001.8  1.0  1.0  5  0 286576931
lsq: nits= 2
$GNGGA,073600.000,3112.7269,N,12136.4315,E,1,05,4.7,65.3,M,,,,0000*2A
$GNRMC,073600.000,A,3112.7269,N,12136.4315,E,1.90,275.09,220519,,*1C
$GPGSA,A,3,01,17,18,19,28,,,,,,,,5.5,4.7,2.8*37
$BDGSA,A,3,,,,,,,,,,,,,5.5,4.7,2.8*2A
$GPGSV,2,1,05,01,41,037,41,17,40,313,44,18,16,047,38,19,22,295,40*7D
$GPGSV,2,2,05,28,75,315,35*45
$LOGTIM,1,-1864.223339,0.000000,0.000000,0.000000,-62.791*01
EndT:        2
---00000070--- Acq_st=3 2019-5-22 07:36:0 
[00]  G01  f 41   2374.6 2045996.9  1.0  1.0  5  0 286577927
[01]  G17  f 44  -1829.4 2046002.4  1.0  1.0  5  0 286577925
[02]  G18  f 38   3025.9 2045996.1  1.0  1.0  5  0 286577921
[03]  G19  f 40  -2617.8 2046003.4  1.0  1.0  5  0 286577922
[04]  G28  f 36  -1348.4 2046001.8  1.0  1.0  5  0 286577931
lsq: nits= 2
$GNGGA,073601.000,3112.7248,N,12136.4318,E,1,05,4.7,63.3,M,,,,0000*23
$GNRMC,073601.000,A,3112.7248,N,12136.4318,E,2.39,277.62,220519,,*1C
$GPGSA,A,3,01,17,18,19,28,,,,,,,,5.4,4.7,2.8*36
$BDGSA,A,3,,,,,,,,,,,,,5.4,4.7,2.8*2B
$GPGSV,2,1,05,01,41,037,41,17,40,313,44,18,16,047,38,19,22,295,40*7D
$GPGSV,2,2,05,28,75,315,36*46
$LOGTIM,1,-1928.605486,0.000000,0.000000,0.000000,-62.653*04
EndT:        2
---00000071--- Acq_st=3 2019-5-22 07:36:2 
[00]  G01  f 41   2375.8 2045996.9  1.0  1.0  5  0 286578927
[01]  G17  f 44  -1827.9 2046002.4  1.0  1.0  5  0 286578925
[02]  G18  f 38   3026.9 2045996.1  1.0  1.0  5  0 286578921
[03]  G19  f 40  -2617.0 2046003.4  1.0  1.0  5  0 286578922
[04]  G28  f 36  -1347.1 2046001.8  1.0  1.0  5  0 286578931
lsq: nits= 2
$GNGGA,073602.000,3112.7229,N,12136.4320,E,1,05,4.7,61.5,M,,,,0000*28
$GNRMC,073602.000,A,3112.7229,N,12136.4320,E,2.67,277.16,220519,,*1B
$GPGSA,A,3,01,17,18,19,28,,,,,,,,5.4,4.7,2.8*36
$BDGSA,A,3,,,,,,,,,,,,,5.4,4.7,2.8*2B
$GPGSV,2,1,05,01,41,037,41,17,40,313,44,18,16,047,38,19,22,295,40*7D
$GPGSV,2,2,05,28,75,315,36*46
$LOGTIM,1,-1992.660215,0.000000,0.000000,0.000000,-62.603*0F
EndT:        2
---00000072--- Acq_st=3 2019-5-22 07:36:2 
[00]  G01  f 41   2375.5 2045996.9  1.0  1.0  5  0 286579927
[01]  G17  f 44  -1828.8 2046002.4  1.0  1.0  5  0 286579925
[02]  G18  f 38   3026.1 2045996.1  1.0  1.0  5  0 286579921
[03]  G19  f 40  -2617.6 2046003.4  1.0  1.0  5  0 286579922
[04]  G28  f 36  -1347.6 2046001.7  1.0  1.1  5  0 286579931
lsq: nits= 2
$GNGGA,073603.000,3112.7212,N,12136.4315,E,1,05,4.7,60.0,M,,,,0000*23
$GNRMC,073603.000,A,3112.7212,N,12136.4315,E,2.51,273.48,220519,,*1E
$GPGSA,A,3,01,17,18,19,28,,,,,,,,5.4,4.7,2.8*36
$BDGSA,A,3,,,,,,,,,,,,,5.4,4.7,2.8*2B
$GPGSV,2,1,05,01,41,037,41,17,40,313,44,18,16,047,38,19,22,295,40*7D
$GPGSV,2,2,05,28,75,315,36*46
$LOGTIM,1,-2056.755187,0.000000,0.000000,0.000000,-62.700*00
EndT:        2
---00000073--- Acq_st=3 2019-5-22 07:36:3 
[00]  G01  f 41   2372.3 2045996.9  1.0  1.0  5  0 286580927
[01]  G17  f 43  -1832.3 2046002.4  1.0  1.0  5  0 286580925
[02]  G18  f 38   3022.3 2045996.1  1.0  1.0  5  0 286580921
[03]  G19  f 40  -2620.6 2046003.4  1.0  1.0  5  0 286580922
[04]  G28  f 35  -1351.0 2046001.8  1.0  1.0  5  0 286580931
lsq: nits= 2
$GNGGA,073604.000,3112.7207,N,12136.4308,E,1,05,4.7,59.2,M,,,,0000*24
$GNRMC,073604.000,A,3112.7207,N,12136.4308,E,1.48,273.48,220519,,*1A
$GPGSA,A,3,01,17,18,19,28,,,,,,,,5.4,4.7,2.8*36
$BDGSA,A,3,,,,,,,,,,,,,5.4,4.7,2.8*2B
$GPGSV,2,1,05,01,41,037,41,17,40,313,43,18,16,047,38,19,22,295,40*7A
$GPGSV,2,2,05,28,75,315,35*45
$LOGTIM,1,-2120.217254,0.000000,0.000000,0.000000,-62.909*09
EndT:        2
---00000074--- Acq_st=3 2019-5-22 07:36:4 
[00]  G01  f 41   2372.3 2045997.0  1.0  1.0  5  0 286581927
[01]  G17  f 44  -1832.5 2046002.4  1.0  1.0  5  0 286581925
[02]  G18  f 38   3021.8 2045996.0  1.0  1.0  5  0 286581921
[03]  G19  f 40  -2620.9 2046003.4  1.0  1.0  5  0 286581922
[04]  G28  f 35  -1350.6 2046001.8  1.0  1.0  5  0 286581931
[05]  G11  1  7   2083.0 2045998.7  0.0  0.0  1  0         0
lsq: nits= 2
$GNGGA,073605.000,3112.7205,N,12136.4301,E,1,05,4.7,59.3,M,,,,0000*2F
$GNRMC,073605.000,A,3112.7205,N,12136.4301,E,1.45,273.48,220519,,*1D
$GPGSA,A,3,01,17,18,19,28,,,,,,,,5.4,4.7,2.8*36
$BDGSA,A,3,,,,,,,,,,,,,5.4,4.7,2.8*2B
$GPGSV,2,1,05,01,41,037,41,17,40,313,44,18,16,047,38,19,22,295,40*7D
$GPGSV,2,2,05,28,75,315,35*45
$LOGTIM,1,-2183.268573,0.000000,0.000000,0.000000,-62.882*08
EndT:        2
---00000075--- Acq_st=3 2019-5-22 07:36:5 
[00]  G01  f 41   2372.0 2045996.9  1.0  1.0  5  0 286582927
[01]  G17  f 44  -1833.4 2046002.4  1.0  1.0  5  0 286582925
[02]  G18  f 38   3021.3 2045996.0  1.0  1.0  5  0 286582921
[03]  G19  f 41  -2622.1 2046003.4  1.0  1.0  5  0 286582922
[04]  G28  f 35  -1350.6 2046001.8  1.0  1.0  5  0 286582931
[05]  G11  7  7   2102.2 2045997.1  0.1  0.0 20  0        13
lsq: nits= 2
$GNGGA,073606.000,3112.7236,N,12136.4296,E,1,05,4.7,64.5,M,,,,0000*2B
$GNRMC,073606.000,A,3112.7236,N,12136.4296,E,0.43,273.48,220519,,*16
$GPGSA,A,3,01,17,18,19,28,,,,,,,,5.4,4.7,2.8*36
$BDGSA,A,3,,,,,,,,,,,,,5.4,4.7,2.8*2B
$GPGSV,2,1,05,01,41,037,41,17,40,313,44,18,16,047,38,19,22,295,41*7C
$GPGSV,2,2,05,28,75,315,35*45
$LOGTIM,1,-2239.864660,0.000000,0.000000,0.000000,-62.622*09
EndT:        2
---00000076--- Acq_st=3 2019-5-22 07:36:6 
[00]  G01  f 41   2372.4 2045996.9  1.0  1.0  5  0 286583927
[01]  G17  f 44  -1833.0 2046002.4  1.0  1.0  5  0 286583925
[02]  G18  f 38   3022.1 2045996.1  1.0  1.0  5  0 286583921
[03]  G19  f 40  -2621.4 2046003.4  1.0  1.0  5  0 286583922
[04]  G28  f 34  -1350.2 2046001.8  1.0  1.0  5  0 286583931
[05]  G11  7 36   2103.4 2045997.2  0.6  1.0  5  0         5
lsq: nits= 2
$GNGGA,073607.000,3112.7238,N,12136.4286,E,1,05,4.7,66.3,M,,,,0000*21
$GNRMC,073607.000,A,3112.7238,N,12136.4286,E,0.65,273.48,220519,,*1C
$GPGSA,A,3,01,17,18,19,28,,,,,,,,5.4,4.7,2.8*36
$BDGSA,A,3,,,,,,,,,,,,,5.4,4.7,2.8*2B
$GPGSV,2,1,06,01,41,037,41,17,40,313,44,18,16,047,38,19,22,295,40*7E
$GPGSV,2,2,06,28,75,315,34,11,00,000,36*72
$LOGTIM,1,-2301.671988,0.000000,0.000000,0.000000,-62.325*02
EndT:        2
---00000077--- Acq_st=3 2019-5-22 07:36:7 
[00]  G01  f 41   2375.9 2045997.0  1.0  1.0  5  0 286584927
[01]  G17  f 44  -1829.7 2046002.4  1.0  1.0  5  0 286584925
[02]  G18  f 38   3025.0 2045996.0  1.0  1.0  5  0 286584921
[03]  G19  f 40  -2618.4 2046003.4  1.0  1.0  5  0 286584922
[04]  G28  f 35  -1346.7 2046001.8  1.0  1.0  5  0 286584931
[05]  G11  f 36   2107.4 2045997.2  1.0  1.0  5  0         5
lsq: nits= 2
$GNGGA,073608.000,3112.7229,N,12136.4284,E,1,05,4.7,66.9,M,,,,0000*26
$GNRMC,073608.000,A,3112.7229,N,12136.4284,E,0.93,273.48,220519,,*18
$GPGSA,A,3,01,17,18,19,28,,,,,,,,5.4,4.7,2.8*36
$BDGSA,A,3,,,,,,,,,,,,,5.4,4.7,2.8*2B
$GPGSV,2,1,06,01,41,037,41,17,40,313,44,18,16,047,38,19,22,295,40*7E
$GPGSV,2,2,06,28,75,315,35,11,00,000,36*73
$LOGTIM,1,-2364.609930,0.000000,0.000000,0.000000,-62.220*09
EndT:        2
---00000078--- Acq_st=3 2019-5-22 07:36:8 
[00]  G01  f 41   2374.9 2045996.9  1.0  1.0  5  0 286585927
[01]  G17  f 44  -1830.4 2046002.4  1.0  1.0  5  0 286585925
[02]  G18  f 39   3024.1 2045996.0  1.0  1.0  5  0 286585921
[03]  G19  f 40  -2618.9 2046003.4  1.0  1.0  5  0 286585922
[04]  G28  f 34  -1346.8 2046001.9  1.0  1.0  5  0 286585931
[05]  G11  f 36   2106.7 2045997.2  1.0  1.0  5  0 286585925
lsq: nits= 2
$GNGGA,073609.000,3112.7216,N,12136.4287,E,1,05,4.7,67.3,M,,,,0000*23
$GNRMC,073609.000,A,3112.7216,N,12136.4287,E,1.14,273.48,220519,,*18
$GPGSA,A,3,01,17,18,19,28,,,,,,,,5.4,4.7,2.8*36
$BDGSA,A,3,,,,,,,,,,,,,5.4,4.7,2.8*2B
$GPGSV,2,1,06,01,41,037,41,17,40,313,44,18,16,047,39,19,22,295,40*7F
$GPGSV,2,2,06,28,75,315,34,11,00,000,36*72
$LOGTIM,1,-2427.967904,0.000000,0.000000,0.000000,-62.245*0A
EndT:        2
---00000079--- Acq_st=3 2019-5-22 07:36:9 
[00]  G01  f 41   2377.5 2045996.9  1.0  1.0  5  0 286586927
[01]  G17  f 44  -1828.3 2046002.4  1.0  1.0  5  0 286586925
[02]  G18  f 39   3026.3 2045996.1  1.0  1.0  5  0 286586921
[03]  G19  f 39  -2616.2 2046003.4  1.0  1.0  5  0 286586922
[04]  G28  f 34  -1343.7 2046001.8  1.0  1.0  5  0 286586931
[05]  G11  f 36   2109.4 2045997.2  1.0  1.0  5  0 286586925
lsq: nits= 2
$GNGGA,073610.000,3112.7202,N,12136.4293,E,1,05,4.7,67.8,M,,,,0000*20
$GNRMC,073610.000,A,3112.7202,N,12136.4293,E,1.39,273.48,220519,,*1F
$GPGSA,A,3,01,17,18,19,28,,,,,,,,5.4,4.7,2.8*36
$BDGSA,A,3,,,,,,,,,,,,,5.4,4.7,2.8*2B
$GPGSV,2,1,06,01,41,037,41,17,40,313,44,18,16,047,39,19,22,295,39*71
$GPGSV,2,2,06,28,75,315,34,11,00,000,36*72
$LOGTIM,1,-2491.349451,0.000000,0.000000,0.000000,-62.254*0C
EndT:        2
---00000080--- Acq_st=3 2019-5-22 07:36:10 
[00]  G01  f 40   2373.2 2045997.0  1.0  1.0  5  0 286587927
[01]  G17  f 44  -1833.1 2046002.4  1.0  1.0  5  0 286587925
[02]  G18  f 39   3021.3 2045996.0  1.0  1.0  5  0 286587921
[03]  G19  f 39  -2621.9 2046003.4  1.0  1.0  5  0 286587922
[04]  G28  f 34  -1348.8 2046001.8  1.0  0.9  5  0 286587931
[05]  G11  f 36   2104.5 2045997.2  1.0  1.0  5  0 286587925
lsq: nits= 2
$GNGGA,073611.000,3112.7183,N,12136.4304,E,1,05,4.7,67.8,M,,,,0000*24
$GNRMC,073611.000,A,3112.7183,N,12136.4304,E,0.85,273.48,220519,,*1D
$GPGSA,A,3,01,17,18,19,28,,,,,,,,5.4,4.7,2.8*36
$BDGSA,A,3,,,,,,,,,,,,,5.4,4.7,2.8*2B
$GPGSV,2,1,06,01,41,037,40,17,40,313,44,18,16,047,39,19,22,295,39*70
$GPGSV,2,2,06,28,75,315,34,11,00,000,36*72
$LOGTIM,1,-2555.830060,0.000000,0.000000,0.000000,-62.844*0D
EndT:        2
---00000081--- Acq_st=3 2019-5-22 07:36:11 
[00]  G01  f 40   2369.4 2045996.9  1.0  1.0  5  0 286588927
[01]  G17  f 44  -1836.6 2046002.4  1.0  1.0  5  0 286588925
[02]  G18  f 39   3018.0 2045996.1  1.0  1.0  5  0 286588921
[03]  G19  f 38  -2625.3 2046003.4  1.0  1.0  5  0 286588922
[04]  G28  f 34  -1350.6 2046001.7  1.0  0.9  5  0 286588931
[05]  G11  f 36   2100.5 2045997.3  1.0  1.0  5  0 286588925
lsq: nits= 2
$GNGGA,073612.000,3112.7159,N,12136.4315,E,1,05,4.7,68.1,M,,,,0000*26
$GNRMC,073612.000,A,3112.7159,N,12136.4315,E,1.22,273.48,220519,,*15
$GPGSA,A,3,01,17,18,19,28,,,,,,,,5.4,4.7,2.8*36
$BDGSA,A,3,,,,,,,,,,,,,5.4,4.7,2.8*2B
$GPGSV,2,1,06,01,41,037,40,17,40,313,44,18,16,047,39,19,22,295,38*71
$GPGSV,2,2,06,28,76,314,34,11,00,000,36*70
$LOGTIM,1,-2620.868012,0.000000,0.000000,0.000000,-62.990*0C
EndT:        2
---00000082--- Acq_st=3 2019-5-22 07:36:12 
[00]  G01  f 40   2376.4 2045997.0  1.0  1.0  5  0 286589927
[01]  G17  f 44  -1829.9 2046002.4  1.0  1.0  5  0 286589925
[02]  G18  f 38   3025.0 2045996.0  1.0  1.0  5  0 286589921
[03]  G19  f 38  -2618.7 2046003.4  1.0  1.0  5  0 286589922
[04]  G28  f 35  -1344.7 2046001.8  1.0  1.0  5  0 286589931
[05]  G11  f 36   2107.8 2045997.3  1.0  0.9  5  0 286589925
lsq: nits= 2
$GNGGA,073613.000,3112.7140,N,12136.4323,E,1,05,4.7,68.8,M,,,,0000*23
$GNRMC,073613.000,A,3112.7140,N,12136.4323,E,2.09,282.26,220519,,*15
$GPGSA,A,3,01,17,18,19,28,,,,,,,,5.4,4.7,2.8*36
$BDGSA,A,3,,,,,,,,,,,,,5.4,4.7,2.8*2B
$GPGSV,2,1,06,01,41,037,40,17,40,313,44,18,16,047,38,19,22,295,38*70
$GPGSV,2,2,06,28,76,314,35,11,00,000,36*71
$LOGTIM,1,-2684.932732,0.000000,0.000000,0.000000,-62.670*08
EndT:        2
---00000083--- Acq_st=3 2019-5-22 07:36:13 
[00]  G01  f 40   2375.3 2045996.9  1.0  1.0  5  0 286590927
[01]  G17  f 44  -1831.1 2046002.4  1.0  1.0  5  0 286590925
[02]  G18  f 39   3024.2 2045996.0  1.0  1.0  5  0 286590921
[03]  G19  f 38  -2619.8 2046003.4  1.0  0.9  5  0 286590922
[04]  G28  f 34  -1345.4 2046001.7  1.0  1.0  5  0 286590931
[05]  G11  f 36   2106.5 2045997.2  1.0  1.0  5  0 286590925
lsq: nits= 2
$GNGGA,073614.000,3112.7123,N,12136.4329,E,1,05,4.7,69.7,M,,,,0000*25
$GNRMC,073614.000,A,3112.7123,N,12136.4329,E,1.94,282.26,220519,,*1A
$GPGSA,A,3,01,17,18,19,28,,,,,,,,5.4,4.7,2.8*36
$BDGSA,A,3,,,,,,,,,,,,,5.4,4.7,2.8*2B
$GPGSV,2,1,07,01,41,037,40,17,40,313,44,18,16,047,39,19,22,295,38*70
$GPGSV,2,2,07,28,76,314,34,11,00,000,36,03,50,101,00*47
