FlashID=0x1 0x20 0x18
BBram_blkflag1:  345: fcba
FW Ver: 1.30  
GPS00 Init Dop:   5000, 40
GPS01 Init Dop:   5000, 40
GPS02 Init Dop:   5000, 40
GPS03 Init Dop:   5000, 40
GPS04 Init Dop:   5000, 40
GPS05 Init Dop:   5000, 40
GPS06 Init Dop:   5000, 40
GPS07 Init Dop:   5000, 40
GPS08 Init Dop:   5000, 40
GPS09 Init Dop:   5000, 40
GPS10 Init Dop:   5000, 40
GPS11 Init Dop:   5000, 40
GPS12 Init Dop:   5000, 40
GPS13 Init Dop:   5000, 40
GPS14 Init Dop:   5000, 40
GPS15 Init Dop:   5000, 40
GPS16 Init Dop:   5000, 40
GPS17 Init Dop:   5000, 40
GPS18 Init Dop:   5000, 40
GPS19 Init Dop:   5000, 40
GPS20 Init Dop:   5000, 40
GPS21 Init Dop:   5000, 40
GPS22 Init Dop:   5000, 40
GPS23 Init Dop:   5000, 40
GPS24 Init Dop:   5000, 40
GPS25 Init Dop:   5000, 40
GPS26 Init Dop:   5000, 40
GPS27 Init Dop:   5000, 40
GPS28 Init Dop:   5000, 40
GPS29 Init Dop:   5000, 40
GPS30 Init Dop:   5000, 40
GPS31 Init Dop:   5000, 40
BDS00 Init Dop:   5000, 40
BDS01 Init Dop:   5000, 40
BDS02 Init Dop:   5000, 40
BDS03 Init Dop:   5000, 40
BDS04 Init Dop:   5000, 40
BDS05 Init Dop:   5000, 40
BDS06 Init Dop:   5000, 40
BDS07 Init Dop:   5000, 40
BDS08 Init Dop:   5000, 40
BDS09 Init Dop:   5000, 40
BDS10 Init Dop:   5000, 40
BDS11 Init Dop:   5000, 40
BDS12 Init Dop:   5000, 40
BDS13 Init Dop:   5000, 40
BDS14 Init Dop:   5000, 40
BDS15 Init Dop:   5000, 40
BDS16 Init Dop:   5000, 40
BDS17 Init Dop:   5000, 40
BDS18 Init Dop:   5000, 40
BDS19 Init Dop:   5000, 40
BDS20 Init Dop:   5000, 40
BDS21 Init Dop:   5000, 40
BDS22 Init Dop:   5000, 40
BDS23 Init Dop:   5000, 40
BDS24 Init Dop:   5000, 40
BDS25 Init Dop:   5000, 40
BDS26 Init Dop:   5000, 40
BDS27 Init Dop:   5000, 40
BDS28 Init Dop:   5000, 40
BDS29 Init Dop:   5000, 40
BDS30 Init Dop:   5000, 40
BDS31 Init Dop:   5000, 40
good luck!
---00000001--- Acq_st=3 2019-5-22 07:39:17 
[00]  G01  1  7   2455.5 2045998.8 -0.0  0.0  1  0         0
$GNGGA,000000.000,,,,,0,00,,,M,,,,0000*2B
$GNRMC,000000.000,A,,,,,,,000000,,*26
$GPGSA,A,1,,,,,,,,,,,,,,,*1E
$BDGSA,A,1,,,,,,,,,,,,,,,*0F
$LOGTIM,0,0.000000,0.000000,0.000000,0.000000,0.000*0A
EndT:        0
---00000002--- Acq_st=3 2019-5-22 07:39:18 
[00]  G01  1 32   2398.9 2045997.0 -0.0  0.0  1  0        13
$GNGGA,000000.000,,,,,0,00,,,M,,,,0000*2B
$GNRMC,000000.000,A,,,,,,,000000,,*26
$GPGSA,A,1,,,,,,,,,,,,,,,*1E
$BDGSA,A,1,,,,,,,,,,,,,,,*0F
$LOGTIM,0,0.000000,0.000000,0.000000,0.000000,0.000*0A
EndT:        0
---00000003--- Acq_st=3 2019-5-22 07:39:19 
[00]  G01  7 36   2400.7 2045996.8  0.8  1.0  5  0        13
$GNGGA,000000.000,,,,,0,00,,,M,,,,0000*2B
$GNRMC,000000.000,A,,,,,,,000000,,*26
$GPGSA,A,1,,,,,,,,,,,,,,,*1E
$BDGSA,A,1,,,,,,,,,,,,,,,*0F
$GPGSV,1,1,01,01,00,000,36*4C
$LOGTIM,0,0.000000,0.000000,0.000000,0.000000,0.000*0A
EndT:        0
---00000004--- Acq_st=3 2019-5-22 07:39:20 
[00]  G01  7 41   2405.7 2045996.8  1.0  1.0  5  0        15
$GNGGA,000000.000,,,,,0,00,,,M,,,,0000*2B
$GNRMC,000000.000,A,,,,,,,000000,,*26
$GPGSA,A,1,,,,,,,,,,,,,,,*1E
$BDGSA,A,1,,,,,,,,,,,,,,,*0F
$GPGSV,1,1,01,01,00,000,41*4C
$LOGTIM,0,0.000000,0.000000,0.000000,0.000000,0.000*0A
EndT:        0
---00000005--- Acq_st=3 2019-5-22 07:39:21 
[00]  G01  7 42   2407.2 2045996.8  1.0  1.0  5  0        15
$GNGGA,000000.000,,,,,0,00,,,M,,,,0000*2B
$GNRMC,000000.000,A,,,,,,,000000,,*26
$GPGSA,A,1,,,,,,,,,,,,,,,*1E
$BDGSA,A,1,,,,,,,,,,,,,,,*0F
$GPGSV,1,1,01,01,00,000,42*4F
$LOGTIM,0,0.000000,0.000000,0.000000,0.000000,0.000*0A
EndT:        0
---00000006--- Acq_st=3 2019-5-22 07:39:22 
[00]  G01  7 41   2410.2 2045996.9  1.0  1.0  5  0        15
$GNGGA,000000.000,,,,,0,00,,,M,,,,0000*2B
$GNRMC,000000.000,A,,,,,,,000000,,*26
$GPGSA,A,1,,,,,,,,,,,,,,,*1E
$BDGSA,A,1,,,,,,,,,,,,,,,*0F
$GPGSV,1,1,01,01,00,000,41*4C
$LOGTIM,0,0.000000,0.000000,0.000000,0.000000,0.000*0A
EndT:        0
---00000007--- Acq_st=3 2019-5-22 07:39:23 
[00]  G01  7 41   2411.4 2045996.9  1.0  1.0  5  0        15
$GNGGA,000000.000,,,,,0,00,,,M,,,,0000*2B
$GNRMC,000000.000,A,,,,,,,000000,,*26
$GPGSA,A,1,,,,,,,,,,,,,,,*1E
$BDGSA,A,1,,,,,,,,,,,,,,,*0F
$GPGSV,1,1,01,01,00,000,41*4C
$LOGTIM,0,0.000000,0.000000,0.000000,0.000000,0.000*0A
EndT:        0
---00000008--- Acq_st=3 2019-5-22 07:39:24 
[00]  G01  7 41   2415.5 2045996.8  1.0  1.0  5  0        15
$GNGGA,000000.000,,,,,0,00,,,M,,,,0000*2B
$GNRMC,000000.000,A,,,,,,,000000,,*26
$GPGSA,A,1,,,,,,,,,,,,,,,*1E
$BDGSA,A,1,,,,,,,,,,,,,,,*0F
$GPGSV,1,1,01,01,00,000,41*4C
$LOGTIM,0,0.000000,0.000000,0.000000,0.000000,0.000*0A
EndT:        0
---00000009--- Acq_st=3 2019-5-22 07:39:25 
[00]  G01  f 41   2413.8 2045996.9  1.0  1.0  5  0        15
[01]  G11  1  7   2155.4 2045997.8 -0.0  0.0  1  0         0
$GNGGA,000000.000,,,,,0,00,,,M,,,,0000*2B
$GNRMC,000000.000,A,,,,,,,000000,,*26
$GPGSA,A,1,,,,,,,,,,,,,,,*1E
$BDGSA,A,1,,,,,,,,,,,,,,,*0F
$GPGSV,1,1,01,01,00,000,41*4C
$LOGTIM,0,0.000000,0.000000,0.000000,0.000000,0.000*0A
EndT:        0
---00000010--- Acq_st=3 2019-5-22 07:39:26 
[00]  G01  f 42   2413.5 2045996.8  1.0  1.0  5  0 286783755
[01]  G11  7 17   2131.4 2045997.2  0.2  0.0 20  0        17
$GNGGA,000000.000,,,,,0,00,,,M,,,,0000*2B
$GNRMC,000000.000,A,,,,,,,000000,,*26
$GPGSA,A,1,,,,,,,,,,,,,,,*1E
$BDGSA,A,1,,,,,,,,,,,,,,,*0F
$GPGSV,1,1,02,01,00,000,42,11,00,000,17*7A
$LOGTIM,0,0.000000,0.000000,0.000000,0.000000,0.000*0A
EndT:        0
---00000011--- Acq_st=3 2019-5-22 07:39:27 
[00]  G01  f 41   2415.1 2045996.9  1.0  1.0  5  0 286784755
[01]  G11  7 37   2132.3 2045997.1  0.9  1.0  5  0        14
$GNGGA,000000.000,,,,,0,00,,,M,,,,0000*2B
$GNRMC,000000.000,A,,,,,,,000000,,*26
$GPGSA,A,1,,,,,,,,,,,,,,,*1E
$BDGSA,A,1,,,,,,,,,,,,,,,*0F
$GPGSV,1,1,02,01,00,000,41,11,00,000,37*7B
$LOGTIM,0,0.000000,0.000000,0.000000,0.000000,0.000*0A
EndT:        0
---00000012--- Acq_st=3 2019-5-22 07:39:28 
[00]  G01  f 42   2414.7 2045996.9  1.0  1.0  5  0 286785755
[01]  G11  7 36   2132.5 2045997.2  1.0  1.0  5  0        14
$GNGGA,000000.000,,,,,0,00,,,M,,,,0000*2B
$GNRMC,000000.000,A,,,,,,,000000,,*26
$GPGSA,A,1,,,,,,,,,,,,,,,*1E
$BDGSA,A,1,,,,,,,,,,,,,,,*0F
$GPGSV,1,1,02,01,00,000,42,11,00,000,36*79
$LOGTIM,0,0.000000,0.000000,0.000000,0.000000,0.000*0A
EndT:        0
---00000013--- Acq_st=3 2019-5-22 07:39:29 
[00]  G01  f 42   2412.5 2045996.9  1.0  1.0  5  0 286786755
[01]  G11  7 36   2129.9 2045997.2  1.0  1.0  5  0        14
$GNGGA,000000.000,,,,,0,00,,,M,,,,0000*2B
$GNRMC,000000.000,A,,,,,,,000000,,*26
$GPGSA,A,1,,,,,,,,,,,,,,,*1E
$BDGSA,A,1,,,,,,,,,,,,,,,*0F
$GPGSV,1,1,02,01,00,000,42,11,00,000,36*79
$LOGTIM,0,0.000000,0.000000,0.000000,0.000000,0.000*0A
EndT:        0
---00000014--- Acq_st=3 2019-5-22 07:39:30 
[00]  G01  f 42   2414.8 2045996.9  1.0  1.0  5  0 286787755
[01]  G11  7 37   2132.0 2045997.3  1.0  1.0  5  0        14
[02]  G17  1 22  -1812.1 2046003.8 -0.0  0.0  1  0         0
$GNGGA,000000.000,,,,,0,00,,,M,,,,0000*2B
$GNRMC,000000.000,A,,,,,,,000000,,*26
$GPGSA,A,1,,,,,,,,,,,,,,,*1E
$BDGSA,A,1,,,,,,,,,,,,,,,*0F
$GPGSV,1,1,02,01,00,000,42,11,00,000,37*78
$LOGTIM,0,0.000000,0.000000,0.000000,0.000000,0.000*0A
EndT:        0
---00000015--- Acq_st=3 2019-5-22 07:39:31 
[00]  G01  f 42   2411.3 2045996.9  1.0  1.0  5  0 286788755
[01]  G11  f 37   2128.4 2045997.1  1.0  0.9  5  0        14
[02]  G17  7 27  -1827.6 2046002.3  0.2  0.0 10  0        10
[03]  G18  1 31   3035.0 2045995.9 -0.1  0.0  1  0         0
[04]  G19  1  7  -2520.3 2046004.3 -0.1  0.0  1  0         0
$GNGGA,000000.000,,,,,0,00,,,M,,,,0000*2B
$GNRMC,000000.000,A,,,,,,,000000,,*26
$GPGSA,A,1,,,,,,,,,,,,,,,*1E
$BDGSA,A,1,,,,,,,,,,,,,,,*0F
$GPGSV,1,1,03,01,00,000,42,11,00,000,37,17,00,000,27*4A
$LOGTIM,0,0.000000,0.000000,0.000000,0.000000,0.000*0A
EndT:        0
---00000016--- Acq_st=3 2019-5-22 07:39:32 
[00]  G01  f 42   2405.6 2045996.9  1.0  1.0  5  0 286789755
[01]  G11  f 37   2122.3 2045997.2  1.0  1.0  5  0 286789754
[02]  G17  7 43  -1833.3 2046002.3  0.8  1.0  5  0        14
[03]  G18  7 31   3018.5 2045996.0  0.4  0.9  5  0        12
[04]  G19  1 25  -2620.2 2046003.6  0.1  0.0  1  0        15
$GNGGA,000000.000,,,,,0,00,,,M,,,,0000*2B
$GNRMC,000000.000,A,,,,,,,000000,,*26
$GPGSA,A,1,,,,,,,,,,,,,,,*1E
$BDGSA,A,1,,,,,,,,,,,,,,,*0F
$GPGSV,1,1,04,01,00,000,42,11,00,000,37,17,00,000,43,18,00,000,31*74
$LOGTIM,0,0.000000,0.000000,0.000000,0.000000,0.000*0A
EndT:        0
---00000017--- Acq_st=3 2019-5-22 07:39:33 
[00]  G01  f 42   2403.4 2045996.9  1.0  1.0  5  0 286790755
[01]  G11  f 36   2120.0 2045997.2  1.0  1.0  5  0 286790754
[02]  G17  7 43  -1835.7 2046002.3  1.0  1.0  5  0        14
[03]  G18  7 39   3016.4 2045996.1  1.0  1.0  5  0         9
[04]  G19  7 34  -2621.9 2046003.4  0.8  1.0  5  0        15
$GNGGA,000000.000,,,,,0,00,,,M,,,,0000*2B
$GNRMC,000000.000,A,,,,,,,000000,,*26
$GPGSA,A,1,,,,,,,,,,,,,,,*1E
$BDGSA,A,1,,,,,,,,,,,,,,,*0F
$GPGSV,2,1,05,01,00,000,42,11,00,000,36,17,00,000,43,18,00,000,39*7F
$GPGSV,2,2,05,19,00,000,34*43
$LOGTIM,0,0.000000,0.000000,0.000000,0.000000,0.000*0A
EndT:        0
---00000018--- Acq_st=3 2019-5-22 07:39:34 
[00]  G01  f 42   2408.2 2045996.9  1.0  1.0  5  0 286791755
[01]  G11  f 36   2125.4 2045997.2  1.0  1.0  5  0 286791754
[02]  G17  7 43  -1830.8 2046002.3  1.0  1.0  5  0        14
[03]  G18  7 39   3021.4 2045996.1  1.0  1.0  5  0         9
[04]  G19  7 36  -2617.2 2046003.4  1.0  0.9  5  0        11
[05]  G22  1 24    821.3 2045998.7  0.0  0.0  1  0         0
$GNGGA,000000.000,,,,,0,00,,,M,,,,0000*2B
$GNRMC,000000.000,A,,,,,,,000000,,*26
$GPGSA,A,1,,,,,,,,,,,,,,,*1E
$BDGSA,A,1,,,,,,,,,,,,,,,*0F
$GPGSV,2,1,05,01,00,000,42,11,00,000,36,17,00,000,43,18,00,000,39*7F
$GPGSV,2,2,05,19,00,000,36*41
$LOGTIM,0,0.000000,0.000000,0.000000,0.000000,0.000*0A
EndT:        0
---00000019--- Acq_st=3 2019-5-22 07:39:35 
[00]  G01  f 42   2412.7 2045996.9  1.0  1.0  5  0 286792755
[01]  G11  f 37   2129.0 2045997.2  1.0  1.0  5  0 286792754
[02]  G17  7 43  -1826.9 2046002.4  1.0  1.0  5  0        14
[03]  G18  7 39   3025.7 2045996.1  1.0  1.0  5  0         9
[04]  G19  7 36  -2612.6 2046003.4  1.0  1.0  5  0        11
[05]  G22  7 28    831.3 2045998.8  0.5  0.9 10  0         1
$GNGGA,000000.000,,,,,0,00,,,M,,,,0000*2B
$GNRMC,000000.000,A,,,,,,,000000,,*26
$GPGSA,A,1,,,,,,,,,,,,,,,*1E
$BDGSA,A,1,,,,,,,,,,,,,,,*0F
$GPGSV,2,1,06,01,00,000,42,11,00,000,37,17,00,000,43,18,00,000,39*7D
$GPGSV,2,2,06,19,00,000,36,22,00,000,28*78
$LOGTIM,0,0.000000,0.000000,0.000000,0.000000,0.000*0A
EndT:        0
---00000020--- Acq_st=3 2019-5-22 07:39:36 
[00]  G01  f 43   2410.8 2045996.9  1.0  1.0  5  0 286793755
[01]  G11  f 38   2127.1 2045997.2  1.0  1.0  5  0 286793754
[02]  G17  7 43  -1828.8 2046002.4  1.0  1.0  5  0        14
[03]  G18  7 39   3023.6 2045996.1  1.0  1.0  5  0         9
[04]  G19  7 36  -2614.6 2046003.3  1.0  1.0  5  0        11
[05]  G22  7 38    829.6 2045998.9  1.0  0.9  5  0        14
$GNGGA,000000.000,,,,,0,00,,,M,,,,0000*2B
$GNRMC,000000.000,A,,,,,,,000000,,*26
$GPGSA,A,1,,,,,,,,,,,,,,,*1E
$BDGSA,A,1,,,,,,,,,,,,,,,*0F
$GPGSV,2,1,06,01,00,000,43,11,00,000,38,17,00,000,43,18,00,000,39*73
$GPGSV,2,2,06,19,00,000,36,22,00,000,38*79
$LOGTIM,0,0.000000,0.000000,0.000000,0.000000,0.000*0A
EndT:        0
---00000021--- Acq_st=3 2019-5-22 07:39:37 
[00]  G01  f 42   2415.2 2045996.8  1.0  1.0  5  0 286794755
[01]  G11  f 38   2131.6 2045997.2  1.0  1.0  5  0 286794754
[02]  G17  f 43  -1825.1 2046002.4  1.0  1.0  5  0        14
[03]  G18  f 39   3027.7 2045996.1  1.0  1.0  5  0         9
[04]  G19  f 36  -2611.5 2046003.4  1.0  1.0  5  0        11
[05]  G22  f 38    833.5 2045998.9  1.0  1.0  5  0        14
$GNGGA,000000.000,,,,,0,00,,,M,,,,0000*2B
$GNRMC,000000.000,A,,,,,,,000000,,*26
$GPGSA,A,1,,,,,,,,,,,,,,,*1E
$BDGSA,A,1,,,,,,,,,,,,,,,*0F
$GPGSV,2,1,06,01,00,000,42,11,00,000,38,17,00,000,43,18,00,000,39*72
$GPGSV,2,2,06,19,00,000,36,22,00,000,38*79
$LOGTIM,0,0.000000,0.000000,0.000000,0.000000,0.000*0A
EndT:        0
---00000022--- Acq_st=3 2019-5-22 07:39:38 
[00]  G01  f 42   2419.1 2045996.8  1.0  1.0  5  0 286795755
[01]  G11  f 37   2135.1 2045997.2  1.0  1.0  5  0 286795754
[02]  G17  f 43  -1821.1 2046002.4  1.0  1.0  5  0 286795754
[03]  G18  f 38   3031.7 2045996.0  1.0  1.0  5  0 286795749
[04]  G19  f 37  -2606.9 2046003.4  1.0  1.0  5  0 286795751
[05]  G22  f 37    838.3 2045998.9  1.0  1.0  5  0 286795754
[06]  G28  1 10  -1255.3 2046002.5 -0.0  0.0  1  0         0
$GNGGA,000000.000,,,,,0,00,,,M,,,,0000*2B
$GNRMC,000000.000,A,,,,,,,000000,,*26
$GPGSA,A,1,,,,,,,,,,,,,,,*1E
$BDGSA,A,1,,,,,,,,,,,,,,,*0F
$GPGSV,2,1,06,01,00,000,42,11,00,000,37,17,00,000,43,18,00,000,38*7C
$GPGSV,2,2,06,19,00,000,37,22,00,000,37*77
$LOGTIM,0,0.000000,0.000000,0.000000,0.000000,0.000*0A
EndT:        0
---00000023--- Acq_st=3 2019-5-22 07:39:39 
[00]  G01  f 42   2417.3 2045996.8  1.0  1.0  5  0 286796755
[01]  G11  f 37   2133.7 2045997.3  1.0  1.0  5  0 286796754
[02]  G17  f 42  -1823.2 2046002.4  1.0  1.0  5  0 286796754
[03]  G18  f 38   3029.3 2045996.1  1.0  1.0  5  0 286796749
[04]  G19  f 38  -2608.9 2046003.3  1.0  1.0  5  0 286796751
[05]  G22  f 38    836.6 2045998.9  1.0  1.0  5  0 286796754
[06]  G28  1 28  -1245.4 2046002.1 -0.0  0.0  1  0        15
$GNGGA,000000.000,,,,,0,00,,,M,,,,0000*2B
$GNRMC,000000.000,A,,,,,,,000000,,*26
$GPGSA,A,1,,,,,,,,,,,,,,,*1E
$BDGSA,A,1,,,,,,,,,,,,,,,*0F
$GPGSV,2,1,06,01,00,000,42,11,00,000,37,17,00,000,42,18,00,000,38*7D
$GPGSV,2,2,06,19,00,000,38,22,00,000,38*77
$LOGTIM,0,0.000000,0.000000,0.000000,0.000000,0.000*0A
EndT:        0
---00000024--- Acq_st=3 2019-5-22 07:39:40 
[00]  G01  f 42   2421.3 2045996.9  1.0  1.0  5  0 286797755
[01]  G11  f 36   2137.8 2045997.2  1.0  1.0  5  0 286797754
[02]  G17  f 42  -1818.9 2046002.4  1.0  1.0  5  0 286797754
[03]  G18  f 38   3033.1 2045996.1  1.0  1.0  5  0 286797749
[04]  G19  f 38  -2605.2 2046003.4  1.0  1.0  5  0 286797751
[05]  G22  f 38    840.9 2045998.9  1.0  1.0  5  0 286797754
[06]  G28  7 34  -1239.7 2046001.6  0.7  1.0  5  0        15
$GNGGA,000000.000,,,,,0,00,,,M,,,,0000*2B
$GNRMC,000000.000,A,,,,,,,000000,,*26
$GPGSA,A,1,,,,,,,,,,,,,,,*1E
$BDGSA,A,1,,,,,,,,,,,,,,,*0F
$GPGSV,2,1,07,01,00,000,42,11,00,000,36,17,00,000,42,18,00,000,38*7D
$GPGSV,2,2,07,19,00,000,38,22,00,000,38,28,00,000,34*4B
$LOGTIM,0,0.000000,0.000000,0.000000,0.000000,0.000*0A
EndT:        0
---00000025--- Acq_st=3 2019-5-22 07:39:41 
[00]  G01  f 42   2425.3 2045996.8  1.0  1.0  5  0 286798755
[01]  G11  f 36   2141.4 2045997.2  1.0  1.0  5  0 286798754
[02]  G17  f 42  -1814.7 2046002.3  1.0  1.0  5  0 286798754
[03]  G18  f 38   3037.1 2045996.1  1.0  0.9  5  0 286798749
[04]  G19  f 38  -2601.0 2046003.4  1.0  1.0  5  0 286798751
[05]  G22  f 38    846.0 2045998.9  1.0  1.0  5  0 286798754
[06]  G28  7 37  -1235.7 2046001.6  1.0  1.0  5  0         0
$GNGGA,000000.000,,,,,0,00,,,M,,,,0000*2B
$GNRMC,000000.000,A,,,,,,,000000,,*26
$GPGSA,A,1,,,,,,,,,,,,,,,*1E
$BDGSA,A,1,,,,,,,,,,,,,,,*0F
$GPGSV,2,1,07,01,00,000,42,11,00,000,36,17,00,000,42,18,00,000,38*7D
$GPGSV,2,2,07,19,00,000,38,22,00,000,38,28,00,000,37*48
$LOGTIM,0,0.000000,0.000000,0.000000,0.000000,0.000*0A
EndT:        0
---00000026--- Acq_st=3 2019-5-22 07:39:42 
[00]  G01  f 42   2423.9 2045996.8  1.0  1.0  5  0 286799755
[01]  G11  f 36   2138.9 2045997.2  1.0  0.9  5  0 286799754
[02]  G17  f 42  -1816.6 2046002.3  1.0  1.0  5  0 286799754
[03]  G18  f 39   3035.6 2045996.1  1.0  1.0  5  0 286799749
[04]  G19  f 39  -2602.7 2046003.4  1.0  1.0  5  0 286799751
[05]  G22  f 37    844.6 2045998.9  1.0  1.0  5  0 286799754
[06]  G28  7 37  -1237.2 2046001.6  1.0  1.0  5  0         0
$GNGGA,000000.000,,,,,0,00,,,M,,,,0000*2B
$GNRMC,000000.000,A,,,,,,,000000,,*26
$GPGSA,A,1,,,,,,,,,,,,,,,*1E
$BDGSA,A,1,,,,,,,,,,,,,,,*0F
$GPGSV,2,1,07,01,00,000,42,11,00,000,36,17,00,000,42,18,00,000,39*7C
$GPGSV,2,2,07,19,00,000,39,22,00,000,37,28,00,000,37*46
$LOGTIM,0,0.000000,0.000000,0.000000,0.000000,0.000*0A
EndT:        0
---00000027--- Acq_st=3 2019-5-22 07:39:43 
[00]  G01  f 42   2422.1 2045996.9  1.0  1.0  5  0 286800755
[01]  G11  f 37   2138.1 2045997.2  1.0  1.0  5  0 286800754
[02]  G17  f 42  -1818.1 2046002.4  1.0  1.0  5  0 286800754
[03]  G18  f 38   3034.0 2045996.0  1.0  1.0  5  0 286800749
[04]  G19  f 39  -2604.3 2046003.4  1.0  1.0  5  0 286800751
[05]  G22  f 38    843.5 2045998.9  1.0  1.0  5  0 286800754
[06]  G28  f 36  -1238.2 2046001.6  1.0  1.0  5  0         0
$GNGGA,000000.000,,,,,0,00,,,M,,,,0000*2B
$GNRMC,000000.000,A,,,,,,,000000,,*26
$GPGSA,A,1,,,,,,,,,,,,,,,*1E
$BDGSA,A,1,,,,,,,,,,,,,,,*0F
$GPGSV,2,1,07,01,00,000,42,11,00,000,37,17,00,000,42,18,00,000,38*7C
$GPGSV,2,2,07,19,00,000,39,22,00,000,38,28,00,000,36*48
$LOGTIM,0,0.000000,0.000000,0.000000,0.000000,0.000*0A
EndT:        0
---00000028--- Acq_st=3 2019-5-22 07:39:44 
[00]  G01  f 41   2420.1 2045996.9  1.0  1.0  5  0 286801755
[01]  G11  f 36   2136.8 2045997.2  1.0  0.9  5  0 286801754
[02]  G17  f 42  -1820.7 2046002.3  1.0  1.0  5  0 286801754
[03]  G18  f 38   3032.0 2045996.1  1.0  1.0  5  0 286801749
[04]  G19  f 39  -2606.8 2046003.4  1.0  1.0  5  0 286801751
[05]  G22  f 37    842.0 2045999.0  1.0  1.0  5  0 286801754
[06]  G28  f 36  -1240.6 2046001.7  1.0  1.0  5  0 286801760
$GNGGA,000000.000,,,,,0,00,,,M,,,,0000*2B
$GNRMC,000000.000,A,,,,,,,000000,,*26
$GPGSA,A,1,,,,,,,,,,,,,,,*1E
$BDGSA,A,1,,,,,,,,,,,,,,,*0F
$GPGSV,2,1,07,01,00,000,41,11,00,000,36,17,00,000,42,18,00,000,38*7E
$GPGSV,2,2,07,19,00,000,39,22,00,000,37,28,00,000,36*47
$LOGTIM,0,0.000000,0.000000,0.000000,0.000000,0.000*0A
EndT:        0
---00000029--- Acq_st=3 2019-5-22 07:39:45 
[00]  G01  f 42   2420.8 2045996.8  1.0  1.0  5  0 286802755
[01]  G11  f 36   2136.9 2045997.3  1.0  1.0  5  0 286802754
[02]  G17  f 42  -1819.9 2046002.4  1.0  1.0  5  0 286802754
[03]  G18  f 38   3032.3 2045996.0  1.0  1.0  5  0 286802749
[04]  G19  f 39  -2605.4 2046003.4  1.0  1.0  5  0 286802751
[05]  G22  f 36    843.3 2045998.9  1.0  1.0  5  0 286802754
[06]  G28  f 36  -1238.2 2046001.6  1.0  1.0  5  0 286802760
$GNGGA,000000.000,,,,,0,00,,,M,,,,0000*2B
$GNRMC,000000.000,A,,,,,,,000000,,*26
$GPGSA,A,1,,,,,,,,,,,,,,,*1E
$BDGSA,A,1,,,,,,,,,,,,,,,*0F
$GPGSV,2,1,07,01,00,000,42,11,00,000,36,17,00,000,42,18,00,000,38*7D
$GPGSV,2,2,07,19,00,000,39,22,00,000,36,28,00,000,36*46
$LOGTIM,0,0.000000,0.000000,0.000000,0.000000,0.000*0A
EndT:        1
---00000030--- Acq_st=3 2019-5-22 07:39:46 
[00]  G01  f 42   2422.2 2045996.9  1.0  1.0  5  0 286803755
[01]  G11  f 35   2138.1 2045997.2  1.0  0.9  5  0 286803754
[02]  G17  f 42  -1818.9 2046002.4  1.0  1.0  5  0 286803754
[03]  G18  f 38   3033.4 2045996.1  1.0  1.0  5  0 286803749
[04]  G19  f 39  -2604.8 2046003.4  1.0  1.0  5  0 286803751
[05]  G22  f 36    844.0 2045998.8  1.0  1.0  5  0 286803754
[06]  G28  f 36  -1237.3 2046001.6  1.0  0.9  5  0 286803760
$GNGGA,000000.000,,,,,0,00,,,M,,,,0000*2B
$GNRMC,000000.000,A,,,,,,,000000,,*26
$GPGSA,A,1,,,,,,,,,,,,,,,*1E
$BDGSA,A,1,,,,,,,,,,,,,,,*0F
$GPGSV,2,1,07,01,00,000,42,11,00,000,35,17,00,000,42,18,00,000,38*7E
$GPGSV,2,2,07,19,00,000,39,22,00,000,36,28,00,000,36*46
$LOGTIM,0,0.000000,0.000000,0.000000,0.000000,0.000*0A
EndT:        0
---00000031--- Acq_st=3 2019-5-22 07:39:47 
[00]  G01  f 41   2421.8 2045996.9  1.0  1.0  5  0 286804755
[01]  G11  f 35   2137.5 2045997.2  1.0  0.9  5  0 286804754
[02]  G17  f 43  -1819.9 2046002.4  1.0  1.0  5  0 286804754
[03]  G18  f 38   3032.7 2045996.1  1.0  1.0  5  0 286804749
[04]  G19  f 40  -2605.9 2046003.4  1.0  1.0  5  0 286804751
[05]  G22  f 36    844.0 2045998.9  1.0  1.0  5  0 286804754
[06]  G28  f 35  -1238.2 2046001.6  1.0  1.0  5  0 286804760
$GNGGA,000000.000,,,,,0,00,,,M,,,,0000*2B
$GNRMC,000000.000,A,,,,,,,000000,,*26
$GPGSA,A,1,,,,,,,,,,,,,,,*1E
$BDGSA,A,1,,,,,,,,,,,,,,,*0F
$GPGSV,2,1,07,01,00,000,41,11,00,000,35,17,00,000,43,18,00,000,38*7C
$GPGSV,2,2,07,19,00,000,40,22,00,000,36,28,00,000,35*4B
$LOGTIM,0,0.000000,0.000000,0.000000,0.000000,0.000*0A
EndT:        0
---00000032--- Acq_st=3 2019-5-22 07:39:48 
[00]  G01  f 41   2421.4 2045996.8  1.0  1.0  5  0 286805755
[01]  G11  f 35   2137.7 2045997.2  1.0  1.0  5  0 286805754
[02]  G17  f 43  -1819.8 2046002.3  1.0  1.0  5  0 286805754
[03]  G18  f 38   3032.7 2045996.1  1.0  1.0  5  0 286805749
[04]  G19  f 40  -2605.6 2046003.4  1.0  1.0  5  0 286805751
[05]  G22  f 35    844.9 2045999.0  1.0  1.0  5  0 286805754
[06]  G28  f 35  -1237.8 2046001.6  1.0  1.0  5  0 286805760
$GNGGA,000000.000,,,,,0,00,,,M,,,,0000*2B
$GNRMC,000000.000,A,,,,,,,000000,,*26
$GPGSA,A,1,,,,,,,,,,,,,,,*1E
$BDGSA,A,1,,,,,,,,,,,,,,,*0F
$GPGSV,2,1,07,01,00,000,41,11,00,000,35,17,00,000,43,18,00,000,38*7C
$GPGSV,2,2,07,19,00,000,40,22,00,000,35,28,00,000,35*48
$LOGTIM,0,0.000000,0.000000,0.000000,0.000000,0.000*0A
EndT:        0
---00000033--- Acq_st=3 2019-5-22 07:39:49 
[00]  G01  f 41   2417.3 2045996.9  1.0  1.0  5  0 286806755
[01]  G11  f 36   2132.3 2045997.3  1.0  0.9  5  0 286806754
[02]  G17  f 42  -1824.3 2046002.4  1.0  1.0  5  0 286806754
[03]  G18  f 38   3028.0 2045996.1  1.0  0.9  5  0 286806749
[04]  G19  f 41  -2610.4 2046003.4  1.0  1.0  5  0 286806751
[05]  G22  f 34    841.0 2045999.0  1.0  1.0  5  0 286806754
[06]  G28  f 36  -1241.8 2046001.6  1.0  1.0  5  0 286806760
$GNGGA,000000.000,,,,,0,00,,,M,,,,0000*2B
$GNRMC,000000.000,A,,,,,,,000000,,*26
$GPGSA,A,1,,,,,,,,,,,,,,,*1E
$BDGSA,A,1,,,,,,,,,,,,,,,*0F
$GPGSV,2,1,07,01,00,000,41,11,00,000,36,17,00,000,42,18,00,000,38*7E
$GPGSV,2,2,07,19,00,000,41,22,00,000,34,28,00,000,36*4B
$LOGTIM,0,0.000000,0.000000,0.000000,0.000000,0.000*0A
EndT:        0
---00000034--- Acq_st=3 2019-5-22 07:39:50 
[00]  G01  f 41   2420.7 2045996.9  1.0  1.0  5  0 286807755
[01]  G11  f 36   2136.1 2045997.3  1.0  0.9  5  0 286807754
[02]  G17  f 43  -1821.1 2046002.4  1.0  1.0  5  0 286807754
[03]  G18  f 38   3030.9 2045996.1  1.0  1.0  5  0 286807749
[04]  G19  f 41  -2607.2 2046003.4  1.0  1.0  5  0 286807751
[05]  G22  f 35    844.4 2045998.9  1.0  1.0  5  0 286807754
[06]  G28  f 36  -1237.7 2046001.6  1.0  1.0  5  0 286807760
$GNGGA,000000.000,,,,,0,00,,,M,,,,0000*2B
$GNRMC,000000.000,A,,,,,,,000000,,*26
$GPGSA,A,1,,,,,,,,,,,,,,,*1E
$BDGSA,A,1,,,,,,,,,,,,,,,*0F
$GPGSV,2,1,07,01,00,000,41,11,00,000,36,17,00,000,43,18,00,000,38*7F
$GPGSV,2,2,07,19,00,000,41,22,00,000,35,28,00,000,36*4A
$LOGTIM,0,0.000000,0.000000,0.000000,0.000000,0.000*0A
EndT:        0
---00000035--- Acq_st=3 2019-5-22 07:39:51 
[00]  G01  f 40   2422.0 2045996.9  1.0  1.0  5  0 286808755
[01]  G11  f 36   2138.7 2045997.3  1.0  1.0  5  0 286808754
[02]  G17  f 43  -1819.0 2046002.4  1.0  1.0  5  0 286808754
[03]  G18  f 37   3032.3 2045996.1  1.0  1.0  5  0 286808749
[04]  G19  f 41  -2605.1 2046003.4  1.0  1.0  5  0 286808751
[05]  G22  f 35    847.2 2045998.9  1.0  1.0  5  0 286808754
[06]  G28  f 36  -1235.4 2046001.6  1.0  1.0  5  0 286808760
$GNGGA,000000.000,,,,,0,00,,,M,,,,0000*2B
$GNRMC,000000.000,A,,,,,,,000000,,*26
$GPGSA,A,1,,,,,,,,,,,,,,,*1E
$BDGSA,A,1,,,,,,,,,,,,,,,*0F
$GPGSV,2,1,07,01,00,000,40,11,00,000,36,17,00,000,43,18,00,000,37*71
$GPGSV,2,2,07,19,00,000,41,22,00,000,35,28,00,000,36*4A
$LOGTIM,0,0.000000,0.000000,0.000000,0.000000,0.000*0A
EndT:        0
---00000036--- Acq_st=3 2019-5-22 07:39:52 
[00]  G01  f 39   2424.9 2045996.9  1.0  1.0  5  0 286809755
[01]  G11  f 36   2140.4 2045997.2  1.0  1.0  5  0 286809754
[02]  G17  f 43  -1816.8 2046002.4  1.0  1.0  5  0 286809754
[03]  G18  f 37   3035.8 2045996.1  1.0  1.0  5  0 286809749
[04]  G19  f 41  -2602.6 2046003.4  1.0  1.0  5  0 286809751
[05]  G22  f 34    849.3 2045999.0  1.0  0.9  5  0 286809754
[06]  G28  f 36  -1233.0 2046001.6  1.0  1.0  5  0 286809760
$GNGGA,000000.000,,,,,0,00,,,M,,,,0000*2B
$GNRMC,000000.000,A,,,,,,,000000,,*26
$GPGSA,A,1,,,,,,,,,,,,,,,*1E
$BDGSA,A,1,,,,,,,,,,,,,,,*0F
$GPGSV,2,1,07,01,00,000,39,11,00,000,36,17,00,000,43,18,00,000,37*7F
$GPGSV,2,2,07,19,00,000,41,22,00,000,34,28,00,000,36*4B
$LOGTIM,0,0.000000,0.000000,0.000000,0.000000,0.000*0A
EndT:        0
---00000037--- Acq_st=3 2019-5-22 07:39:53 
[00]  G01  f 39   2413.2 2045996.9  1.0  1.0  5  0 286810755
[01]  G11  f 36   2128.8 2045997.2  1.0  1.1  5  0 286810754
[02]  G17  f 43  -1828.9 2046002.4  1.0  1.0  5  0 286810754
[03]  G18  f 36   3023.1 2045996.1  1.0  1.0  5  0 286810749
[04]  G19  f 41  -2614.5 2046003.4  1.0  1.0  5  0 286810751
[05]  G22  f 35    838.2 2045998.9  1.0  1.0  5  0 286810754
[06]  G28  f 36  -1244.2 2046001.6  1.0  1.0  5  0 286810760
$GNGGA,000000.000,,,,,0,00,,,M,,,,0000*2B
$GNRMC,000000.000,A,,,,,,,000000,,*26
$GPGSA,A,1,,,,,,,,,,,,,,,*1E
$BDGSA,A,1,,,,,,,,,,,,,,,*0F
$GPGSV,2,1,07,01,00,000,39,11,00,000,36,17,00,000,43,18,00,000,36*7E
$GPGSV,2,2,07,19,00,000,41,22,00,000,35,28,00,000,36*4A
$LOGTIM,0,0.000000,0.000000,0.000000,0.000000,0.000*0A
EndT:        0
---00000038--- Acq_st=3 2019-5-22 07:39:54 
[00]  G01  f 39   2408.3 2045996.9  1.0  1.0  5  0 286811755
[01]  G11  f 36   2123.6 2045997.3  1.0  1.0  5  0 286811754
[02]  G17  f 43  -1834.0 2046002.4  1.0  1.0  5  0 286811754
[03]  G18  f 36   3017.5 2045996.1  1.0  1.0  5  0 286811749
[04]  G19  f 41  -2619.9 2046003.4  1.0  1.0  5  0 286811751
[05]  G22  f 35    833.7 2045998.9  1.0  1.0  5  0 286811754
[06]  G28  f 36  -1248.7 2046001.7  1.0  1.0  5  0 286811760
[16]  B08  1  7     29.4 4092000.9  0.0  0.0  1  0         0
$GNGGA,000000.000,,,,,0,00,,,M,,,,0000*2B
$GNRMC,000000.000,A,,,,,,,000000,,*26
$GPGSA,A,1,,,,,,,,,,,,,,,*1E
$BDGSA,A,1,,,,,,,,,,,,,,,*0F
$GPGSV,2,1,07,01,00,000,39,11,00,000,36,17,00,000,43,18,00,000,36*7E
$GPGSV,2,2,07,19,00,000,41,22,00,000,35,28,00,000,36*4A
$LOGTIM,0,0.000000,0.000000,0.000000,0.000000,0.000*0A
EndT:        0
---00000039--- Acq_st=3 2019-5-22 07:39:55 
[00]  G01  f 39   2409.8 2045996.9  1.0  1.0  5  0 286812755
[01]  G11  f 36   2124.8 2045997.3  1.0  1.0  5  0 286812754
[02]  G17  f 43  -1832.4 2046002.4  1.0  1.0  5  0 286812754
[03]  G18  f 37   3019.3 2045996.1  1.0  1.0  5  0 286812749
[04]  G19  f 41  -2618.3 2046003.4  1.0  1.0  5  0 286812751
[05]  G22  f 35    835.7 2045998.9  1.0  1.0  5  0 286812754
[06]  G28  f 35  -1247.0 2046001.6  1.0  1.0  5  0 286812760
[16]  B08  7 20    -40.0 4092000.1  0.4  0.0 20  0       507
$GNGGA,000000.000,,,,,0,00,,,M,,,,0000*2B
$GNRMC,000000.000,A,,,,,,,000000,,*26
$GPGSA,A,1,,,,,,,,,,,,,,,*1E
$BDGSA,A,1,,,,,,,,,,,,,,,*0F
$GPGSV,2,1,07,01,00,000,39,11,00,000,36,17,00,000,43,18,00,000,37*7F
$GPGSV,2,2,07,19,00,000,41,22,00,000,35,28,00,000,35*49
$BDGSV,1,1,01,08,00,000,20*53
$LOGTIM,0,0.000000,0.000000,0.000000,0.000000,0.000*0A
EndT:        0
---00000040--- Acq_st=3 2019-5-22 07:39:56 
[00]  G01  f 39   2409.1 2045996.8  1.0  1.0  5  0 286813755
[01]  G11  f 36   2124.0 2045997.3  1.0  1.0  5  0 286813754
[02]  G17  f 44  -1833.1 2046002.4  1.0  1.0  5  0 286813754
[03]  G18  f 37   3018.3 2045996.1  1.0  1.0  5  0 286813749
[04]  G19  f 41  -2619.4 2046003.4  1.0  1.0  5  0 286813751
[05]  G22  f 35    835.6 2045999.0  1.0  1.0  5  0 286813754
[06]  G28  f 35  -1248.2 2046001.7  1.0  1.0  5  0 286813760
[16]  B08  7 37    -41.6 4092000.1  0.6  0.9  5  0      1507
$GNGGA,000000.000,,,,,0,00,,,M,,,,0000*2B
$GNRMC,000000.000,A,,,,,,,000000,,*26
$GPGSA,A,1,,,,,,,,,,,,,,,*1E
$BDGSA,A,1,,,,,,,,,,,,,,,*0F
$GPGSV,2,1,07,01,00,000,39,11,00,000,36,17,00,000,44,18,00,000,37*78
$GPGSV,2,2,07,19,00,000,41,22,00,000,35,28,00,000,35*49
$BDGSV,1,1,01,08,00,000,37*55
$LOGTIM,0,0.000000,0.000000,0.000000,0.000000,0.000*0A
EndT:        0
---00000041--- Acq_st=3 2019-5-22 07:39:57 
[00]  G01  f 40   2404.8 2045996.9  1.0  1.0  5  0 286814755
[01]  G11  f 37   2120.3 2045997.3  1.0  0.9  5  0 286814754
[02]  G17  f 44  -1838.1 2046002.4  1.0  1.0  5  0 286814754
[03]  G18  f 38   3014.4 2045996.1  1.0  1.0  5  0 286814749
[04]  G19  f 41  -2623.5 2046003.4  1.0  1.0  5  0 286814751
[05]  G22  f 36    831.4 2045998.9  1.0  1.0  5  0 286814754
[06]  G28  f 35  -1250.7 2046001.7  1.0  1.0  5  0 286814760
[16]  B08 1f 38    -45.9 4092000.1  1.0  0.9  5  0      2507
[17]  B10  1  7    125.0 4092001.1 -0.0  0.0  1  0         0
$GNGGA,000000.000,,,,,0,00,,,M,,,,0000*2B
$GNRMC,000000.000,A,,,,,,,000000,,*26
$GPGSA,A,1,,,,,,,,,,,,,,,*1E
$BDGSA,A,1,,,,,,,,,,,,,,,*0F
$GPGSV,2,1,07,01,00,000,40,11,00,000,37,17,00,000,44,18,00,000,38*78
$GPGSV,2,2,07,19,00,000,41,22,00,000,36,28,00,000,35*4A
$BDGSV,1,1,01,08,00,000,38*5A
$LOGTIM,0,0.000000,0.000000,0.000000,0.000000,0.000*0A
EndT:        0
---00000042--- Acq_st=3 2019-5-22 07:39:58 
[00]  G01  f 40   2411.8 2045996.9  1.0  1.0  5  0 286815755
[01]  G11  f 36   2127.0 2045997.3  1.0  1.0  5  0 286815754
[02]  G17  f 44  -1830.9 2046002.4  1.0  1.0  5  0 286815754
[03]  G18  f 37   3021.1 2045996.1  1.0  1.0  5  0 286815749
[04]  G19  f 42  -2616.7 2046003.4  1.0  1.0  5  0 286815751
[05]  G22  f 36    838.8 2045998.9  1.0  1.0  5  0 286815754
[06]  G28  f 34  -1244.8 2046001.7  1.0  0.9  5  0 286815760
[16]  B08 1f 37    -39.5 4092000.1  1.0  1.0  5  0 286801707
[17]  B10  1  7    -81.2 4092000.8  0.1  0.0  1  0       359
$GNGGA,000000.000,,,,,0,00,,,M,,,,0000*2B
$GNRMC,000000.000,A,,,,,,,000000,,*26
$GPGSA,A,1,,,,,,,,,,,,,,,*1E
$BDGSA,A,1,,,,,,,,,,,,,,,*0F
$GPGSV,2,1,07,01,00,000,40,11,00,000,36,17,00,000,44,18,00,000,37*76
$GPGSV,2,2,07,19,00,000,42,22,00,000,36,28,00,000,34*48
$BDGSV,1,1,01,08,00,000,37*55
$LOGTIM,0,0.000000,0.000000,0.000000,0.000000,0.000*0A
EndT:        0
---00000043--- Acq_st=3 2019-5-22 07:39:59 
[00]  G01  f 40   2410.5 2045996.9  1.0  1.0  5  0 286816755
[01]  G11  f 37   2125.5 2045997.2  1.0  1.0  5  0 286816754
[02]  G17  f 44  -1832.6 2046002.4  1.0  1.0  5  0 286816754
[03]  G18  f 37   3018.8 2045996.1  1.0  1.0  5  0 286816749
[04]  G19  f 42  -2618.7 2046003.4  1.0  1.0  5  0 286816751
[05]  G22  f 36    838.0 2045998.9  1.0  1.0  5  0 286816754
[06]  G28  f 34  -1245.7 2046001.7  1.0  1.0  5  0 286816760
[16]  B08 1f 37    -40.9 4092000.1  1.0  0.9  5  0 286802707
[17]  B10  7 33    -75.5 4092000.2  0.2  0.9  5  0      1348
$GNGGA,000000.000,,,,,0,00,,,M,,,,0000*2B
$GNRMC,000000.000,A,,,,,,,000000,,*26
$GPGSA,A,1,,,,,,,,,,,,,,,*1E
$BDGSA,A,1,,,,,,,,,,,,,,,*0F
$GPGSV,2,1,07,01,00,000,40,11,00,000,37,17,00,000,44,18,00,000,37*77
$GPGSV,2,2,07,19,00,000,42,22,00,000,36,28,00,000,34*48
$BDGSV,1,1,02,08,00,000,37,10,00,000,33*67
$LOGTIM,0,0.000000,0.000000,0.000000,0.000000,0.000*0A
EndT:        0
---00000044--- Acq_st=3 2019-5-22 07:40:0 
[00]  G01  f 40   2413.1 2045996.8  1.0  1.0  5  0 286817755
[01]  G11  f 37   2128.1 2045997.2  1.0  1.0  5  0 286817754
[02]  G17  f 44  -1829.9 2046002.4  1.0  1.0  5  0 286817754
[03]  G18  f 37   3021.6 2045996.1  1.0  1.0  5  0 286817749
[04]  G19  f 42  -2615.4 2046003.4  1.0  1.0  5  0 286817751
[05]  G22  f 36    841.3 2045998.9  1.0  1.0  5  0 286817754
[06]  G28  f 34  -1242.7 2046001.6  1.0  0.9  5  0 286817760
[16]  B08 1f 37    -38.3 4092000.1  1.0  0.9  5  0 286803707
[17]  B10  7 34    -71.7 4092000.2  1.0  0.9  5  0      2348
lsq: nits= 4
$GNGGA,074000.829,3112.7377,N,12136.4397,E,1,07,3.4,66.9,M,,,,0000*23
$GNRMC,074000.829,A,3112.7377,N,12136.4397,E,0.48,0.00,220519,,*17
$GPGSA,A,3,01,11,17,18,19,22,28,,,,,,4.3,3.4,2.6*3A
$BDGSA,A,3,,,,,,,,,,,,,4.3,3.4,2.6*27
$GPGSV,2,1,07,01,00,000,40,11,00,000,37,17,00,000,44,18,00,000,37*77
$GPGSV,2,2,07,19,00,000,42,22,00,000,36,28,00,000,34*48
$BDGSV,1,1,02,08,00,000,37,10,00,000,34*60
$LOGTIM,1,8132436.153247,0.000000,0.000000,0.000000,-63.532*18
EndT:        1
---00000045--- Acq_st=3 2019-5-22 07:40:1 
[00]  G01  f 40   2412.4 2045996.9  1.0  1.0  5  0 286818755
[01]  G11  f 37   2127.8 2045997.2  1.0  1.0  5  0 286818754
[02]  G17  f 43  -1831.0 2046002.4  1.0  1.0  5  0 286818754
[03]  G18  f 37   3020.7 2045996.1  1.0  1.0  5  0 286818749
[04]  G19  f 42  -2617.0 2046003.4  1.0  1.0  5  0 286818751
[05]  G22  f 37    840.5 2045998.9  1.0  1.0  5  0 286818754
[06]  G28  f 34  -1243.1 2046001.7  1.0  0.9  5  0 286818760
[16]  B08 1f 37    -39.2 4092000.1  1.0  1.0  5  0 286804707
[17]  B10  7 34    -73.8 4092000.2  1.0  0.9  5  0      3348
lsq: nits= 2
$GNGGA,074002.000,3112.7397,N,12136.4398,E,1,07,3.4,49.2,M,,,,0000*25
$GNRMC,074002.000,A,3112.7397,N,12136.4398,E,1.28,0.00,220519,,*10
$GPGSA,A,3,01,11,17,18,19,22,28,,,,,,4.3,3.4,2.6*3A
$BDGSA,A,3,,,,,,,,,,,,,4.3,3.4,2.6*27
$GPGSV,2,1,07,01,00,000,40,11,00,000,37,17,00,000,43,18,00,000,37*70
$GPGSV,2,2,07,19,00,000,42,22,00,000,37,28,00,000,34*49
$BDGSV,1,1,02,08,00,000,37,10,00,000,34*60
$LOGTIM,1,-79.995103,0.000000,0.000000,0.000000,-64.169*0E
EndT:        2
---00000046--- Acq_st=3 2019-5-22 07:40:2 
[00]  G01  f 40   2411.7 2045996.9  1.0  1.0  5  0 286819927
[01]  G11  f 37   2126.3 2045997.3  1.0  1.0  5  0 286819925
[02]  G17  f 43  -1832.1 2046002.4  1.0  1.0  5  0 286819925
[03]  G18  f 38   3019.4 2045996.1  1.0  1.0  5  0 286819920
[04]  G19  f 41  -2617.8 2046003.4  1.0  1.0  5  0 286819922
[05]  G22  f 36    839.4 2045998.9  1.0  1.0  5  0 286819925
[06]  G28  f 34  -1243.6 2046001.7  1.0  1.0  5  0 286819931
[16]  B08 1f 37    -40.1 4092000.2  1.0  0.9  5  0 286805878
[17]  B10  7 34    -74.2 4092000.2  1.0  1.0  5  0      4519
[18]  B13  1  7   -351.3 4092001.7  0.0  0.0  1  0         0
lsq: nits= 2
$GNGGA,074003.000,3112.7358,N,12136.4402,E,1,07,3.4,52.3,M,,,,0000*28
$GNRMC,074003.000,A,3112.7358,N,12136.4402,E,1.11,0.00,220519,,*1C
$GPGSA,A,3,01,11,17,18,19,22,28,,,,,,4.3,3.4,2.6*3A
$BDGSA,A,3,,,,,,,,,,,,,4.3,3.4,2.6*27
$GPGSV,2,1,07,01,39,037,40,11,31,054,37,17,41,314,43,18,15,048,38*79
$GPGSV,2,2,07,19,23,297,41,22,40,068,36,28,77,310,34*4E
$BDGSV,1,1,02,08,00,000,37,10,00,000,34*60
$LOGTIM,1,-146.438790,0.000000,0.000000,0.000000,-64.164*38
EndT:        2
---00000047--- Acq_st=3 2019-5-22 07:40:3 
[00]  G01  f 40   2411.6 2045996.9  1.0  1.0  5  0 286820927
[01]  G11  f 37   2126.5 2045997.3  1.0  1.0  5  0 286820925
[02]  G17  f 43  -1831.7 2046002.4  1.0  1.0  5  0 286820925
[03]  G18  f 37   3020.4 2045996.1  1.0  0.9  5  0 286820920
[04]  G19  f 41  -2617.1 2046003.4  1.0  1.0  5  0 286820922
[05]  G22  f 36    840.7 2045998.9  1.0  1.0  5  0 286820925
[06]  G28  f 33  -1242.4 2046001.7  1.0  1.0  5  0 286820931
[16]  B08 1f 37    -39.2 4092000.0  1.0  1.0  5  0 286806878
[17]  B10 1f 34    -73.8 4092000.2  1.0  0.9  5  0      5519
[18]  B13  7 23   -397.4 4092001.0  0.1  0.0 20  0       806
lsq: nits= 2
$GNGGA,074004.000,3112.7342,N,12136.4405,E,1,07,3.4,55.1,M,,,,0000*26
$GNRMC,074004.000,A,3112.7342,N,12136.4405,E,0.86,0.00,220519,,*18
$GPGSA,A,3,01,11,17,18,19,22,28,,,,,,4.3,3.4,2.6*3A
$BDGSA,A,3,,,,,,,,,,,,,4.3,3.4,2.6*27
$GPGSV,2,1,07,01,39,037,40,11,31,054,37,17,41,314,43,18,15,048,37*76
$GPGSV,2,2,07,19,23,297,41,22,40,068,36,28,77,310,33*49
$BDGSV,1,1,03,08,00,000,37,10,00,000,34,13,00,000,23*52
$LOGTIM,1,-210.835325,0.000000,0.000000,0.000000,-63.966*3E
EndT:        2
---00000048--- Acq_st=3 2019-5-22 07:40:4 
[00]  G01  f 41   2413.7 2045996.8  1.0  1.0  5  0 286821927
[01]  G11  f 37   2128.3 2045997.2  1.0  1.0  5  0 286821925
[02]  G17  f 43  -1829.9 2046002.4  1.0  1.0  5  0 286821925
[03]  G18  f 37   3021.5 2045996.1  1.0  1.0  5  0 286821920
[04]  G19  f 41  -2615.6 2046003.4  1.0  1.0  5  0 286821922
[05]  G22  f 36    843.9 2045998.8  1.0  0.9  5  0 286821925
[06]  G28  f 33  -1239.9 2046001.7  1.0  1.0  5  0 286821931
[16]  B08 1f 37    -38.2 4092000.1  1.0  1.0  5  0 286807878
[17]  B10 1f 33    -71.7 4092000.2  1.0  1.0  5  0 286807879
[18]  B13  7 43   -400.4 4092001.1  0.8  1.0  5  0      1794
lsq: nits= 2
$GNGGA,074005.000,3112.7332,N,12136.4407,E,1,07,3.4,57.5,M,,,,0000*24
$GNRMC,074005.000,A,3112.7332,N,12136.4407,E,0.76,0.00,220519,,*13
$GPGSA,A,3,01,11,17,18,19,22,28,,,,,,4.3,3.4,2.6*3A
$BDGSA,A,3,,,,,,,,,,,,,4.3,3.4,2.6*27
$GPGSV,2,1,07,01,39,037,41,11,31,054,37,17,41,314,43,18,15,048,37*77
$GPGSV,2,2,07,19,23,297,41,22,40,068,36,28,77,310,33*49
$BDGSV,1,1,03,08,00,000,37,10,00,000,33,13,00,000,43*53
$LOGTIM,1,-274.520959,0.000000,0.000000,0.000000,-63.682*31
EndT:        2
---00000049--- Acq_st=3 2019-5-22 07:40:5 
[00]  G01  f 41   2414.4 2045996.8  1.0  1.0  5  0 286822927
[01]  G11  f 37   2129.6 2045997.3  1.0  1.0  5  0 286822925
[02]  G17  f 43  -1829.3 2046002.4  1.0  1.0  5  0 286822925
[03]  G18  f 37   3022.2 2045996.1  1.0  1.0  5  0 286822920
[04]  G19  f 41  -2615.5 2046003.3  1.0  1.0  5  0 286822922
[05]  G22  f 35    844.0 2045998.9  1.0  1.0  5  0 286822925
[06]  G28  f 33  -1239.3 2046001.5  1.0  1.0  5  0 286822931
[16]  B08 1f 37    -37.7 4092000.1  1.0  1.0  5  0 286808878
[17]  B10 1f 33    -71.0 4092000.1  1.0  0.9  5  0 286808879
[18]  B13  7 44   -400.2 4092001.0  1.0  1.0  5  0      2794
lsq: nits= 2
$GNGGA,074006.000,3112.7317,N,12136.4401,E,1,07,3.4,59.9,M,,,,0000*24
$GNRMC,074006.000,A,3112.7317,N,12136.4401,E,0.80,0.00,220519,,*18
$GPGSA,A,3,01,11,17,18,19,22,28,,,,,,4.3,3.4,2.6*3A
$BDGSA,A,3,,,,,,,,,,,,,4.3,3.4,2.6*27
$GPGSV,2,1,07,01,39,037,41,11,31,054,37,17,41,314,43,18,15,048,37*77
$GPGSV,2,2,07,19,23,297,41,22,40,068,35,28,77,310,33*4A
$BDGSV,1,1,03,08,00,000,37,10,00,000,33,13,00,000,44*54
$LOGTIM,1,-337.607196,0.000000,0.000000,0.000000,-63.547*30
EndT:        2
---00000050--- Acq_st=3 2019-5-22 07:40:6 
[00]  G01  f 41   2416.1 2045996.9  1.0  1.0  5  0 286823927
[01]  G11  f 38   2130.7 2045997.2  1.0  1.0  5  0 286823925
[02]  G17  f 44  -1828.1 2046002.4  1.0  1.0  5  0 286823925
[03]  G18  f 37   3023.8 2045996.1  1.0  1.0  5  0 286823920
[04]  G19  f 40  -2613.6 2046003.4  1.0  1.0  5  0 286823922
[05]  G22  f 35    846.1 2045998.8  1.0  1.0  5  0 286823925
[06]  G28  f 33  -1237.4 2046001.6  1.0  0.9  5  0 286823931
[16]  B08 1f 37    -35.9 4092000.1  1.0  0.9  5  0 286809878
[17]  B10 1f 34    -69.4 4092000.2  1.0  0.9  5  0 286809879
[18]  B13  7 44   -398.2 4092001.0  1.0  1.0  5  0      3794
lsq: nits= 2
$GNGGA,074007.000,3112.7303,N,12136.4397,E,1,07,3.4,60.2,M,,,,0000*29
$GNRMC,074007.000,A,3112.7303,N,12136.4397,E,1.02,0.00,220519,,*1F
$GPGSA,A,3,01,11,17,18,19,22,28,,,,,,4.3,3.4,2.6*3A
$BDGSA,A,3,,,,,,,,,,,,,4.3,3.4,2.6*27
$GPGSV,2,1,07,01,39,037,41,11,31,054,38,17,41,314,44,18,15,048,37*7F
$GPGSV,2,2,07,19,23,297,40,22,40,068,35,28,77,310,33*4B
$BDGSV,1,1,03,08,00,000,37,10,00,000,34,13,00,000,44*53
$LOGTIM,1,-401.446666,0.000000,0.000000,0.000000,-63.429*34
EndT:        2
---00000051--- Acq_st=3 2019-5-22 07:40:7 
[00]  G01  f 41   2414.2 2045996.8  1.0  1.0  5  0 286824927
[01]  G11  f 38   2128.7 2045997.2  1.0  0.9  5  0 286824925
[02]  G17  f 44  -1830.1 2046002.4  1.0  1.0  5  0 286824925
[03]  G18  f 37   3022.2 2045996.1  1.0  1.0  5  0 286824920
[04]  G19  f 40  -2615.7 2046003.4  1.0  1.0  5  0 286824922
[05]  G22  f 35    844.5 2045999.0  1.0  1.0  5  0 286824925
[06]  G28  f 33  -1239.2 2046001.7  1.0  1.0  5  0 286824931
[16]  B08 1f 37    -38.6 4092000.0  1.0  0.9  5  0 286810878
[17]  B10 1f 34    -71.5 4092000.2  1.0  0.9  5  0 286810879
[18]  B13  7 44   -400.3 4092001.1  1.0  1.0  5  0      4794
lsq: nits= 2
$GNGGA,074008.000,3112.7285,N,12136.4391,E,1,07,3.4,60.2,M,,,,0000*2F
$GNRMC,074008.000,A,3112.7285,N,12136.4391,E,0.96,0.00,220519,,*15
$GPGSA,A,3,01,11,17,18,19,22,28,,,,,,4.3,3.4,2.6*3A
$BDGSA,A,3,,,,,,,,,,,,,4.3,3.4,2.6*27
$GPGSV,2,1,07,01,39,037,41,11,31,054,38,17,41,314,44,18,15,048,37*7F
$GPGSV,2,2,07,19,23,297,40,22,40,068,35,28,77,310,33*4B
$BDGSV,1,1,03,08,00,000,37,10,00,000,34,13,00,000,44*53
$LOGTIM,1,-465.683703,0.000000,0.000000,0.000000,-63.647*35
EndT:        2
---00000052--- Acq_st=3 2019-5-22 07:40:8 
[00]  G01  f 41   2414.5 2045996.9  1.0  1.0  5  0 286825927
[01]  G11  f 37   2129.1 2045997.2  1.0  1.0  5  0 286825925
[02]  G17  f 43  -1829.6 2046002.4  1.0  1.0  5  0 286825925
[03]  G18  f 37   3022.2 2045996.1  1.0  0.9  5  0 286825920
[04]  G19  f 40  -2615.4 2046003.4  1.0  1.0  5  0 286825922
[05]  G22  f 35    845.3 2045998.8  1.0  1.0  5  0 286825925
[06]  G28  f 33  -1237.8 2046001.6  1.0  1.0  5  0 286825931
[16]  B08 1f 36    -37.7 4092000.1  1.0  1.0  5  0 286811878
[17]  B10 1f 33    -70.5 4092000.2  1.0  1.0  5  0 286811879
[18]  B13  7 44   -399.8 4092001.1  1.0  1.0  5  0      5794
lsq: nits= 2
$GNGGA,074009.000,3112.7266,N,12136.4386,E,1,07,3.4,60.0,M,,,,0000*27
$GNRMC,074009.000,A,3112.7266,N,12136.4386,E,1.21,0.00,220519,,*12
$GPGSA,A,3,01,11,17,18,19,22,28,,,,,,4.3,3.4,2.6*3A
$BDGSA,A,3,,,,,,,,,,,,,4.3,3.4,2.6*27
$GPGSV,2,1,07,01,39,037,41,11,31,054,37,17,41,314,43,18,15,048,37*77
$GPGSV,2,2,07,19,23,297,40,22,40,068,35,28,77,310,33*4B
$BDGSV,1,1,03,08,00,000,36,10,00,000,33,13,00,000,44*55
$LOGTIM,1,-530.170638,0.000000,0.000000,0.000000,-63.682*3F
EndT:        2
---00000053--- Acq_st=3 2019-5-22 07:40:9 
[00]  G01  f 41   2414.0 2045996.8  1.0  1.0  5  0 286826927
[01]  G11  f 37   2128.4 2045997.3  1.0  1.0  5  0 286826925
[02]  G17  f 43  -1830.2 2046002.4  1.0  1.0  5  0 286826925
[03]  G18  f 37   3021.6 2045996.0  1.0  1.0  5  0 286826920
[04]  G19  f 39  -2615.1 2046003.4  1.0  1.0  5  0 286826922
[05]  G22  f 35    845.8 2045998.9  1.0  1.0  5  0 286826925
[06]  G28  f 33  -1238.3 2046001.7  1.0  0.9  5  0 286826931
[16]  B08 1f 37    -37.6 4092000.1  1.0  1.0  5  0 286812878
[17]  B10 1f 34    -69.9 4092000.2  1.0  0.9  5  0 286812879
[18]  B13 1f 44   -400.4 4092001.1  1.0  1.0  5  0      6794
lsq: nits= 2
$GNGGA,074010.000,3112.7250,N,12136.4379,E,1,07,3.4,59.9,M,,,,0000*29
$GNRMC,074010.000,A,3112.7250,N,12136.4379,E,1.25,0.00,220519,,*1B
$GPGSA,A,3,01,11,17,18,19,22,28,,,,,,4.3,3.4,2.6*3A
$BDGSA,A,3,,,,,,,,,,,,,4.3,3.4,2.6*27
$GPGSV,2,1,07,01,39,037,41,11,31,054,37,17,41,314,43,18,15,048,37*77
$GPGSV,2,2,07,19,23,297,39,22,40,068,35,28,77,310,33*45
$BDGSV,1,1,03,08,00,000,37,10,00,000,34,13,00,000,44*53
$LOGTIM,1,-595.035120,0.000000,0.000000,0.000000,-63.872*3F
EndT:        2
---00000054--- Acq_st=3 2019-5-22 07:40:10 
[00]  G01  f 41   2413.1 2045996.9  1.0  1.0  5  0 286827927
[01]  G11  f 37   2128.2 2045997.3  1.0  1.0  5  0 286827925
[02]  G17  f 43  -1831.4 2046002.4  1.0  1.0  5  0 286827925
[03]  G18  f 38   3020.2 2045996.1  1.0  1.0  5  0 286827920
[04]  G19  f 39  -2616.7 2046003.4  1.0  1.0  5  0 286827922
[05]  G22  f 35    844.7 2045998.9  1.0  0.9  5  0 286827925
[06]  G28  f 33  -1239.8 2046001.6  1.0  0.9  5  0 286827931
[16]  B08 1f 37    -40.0 4092000.2  1.0  1.0  5  0 286813878
[17]  B10 1f 34    -71.5 4092000.2  1.0  1.0  5  0 286813879
[18]  B13 1f 44   -401.9 4092001.1  1.0  1.0  5  0 286813874
lsq: nits= 2
$GNGGA,074011.000,3112.7233,N,12136.4371,E,1,07,3.4,60.0,M,,,,0000*26
$GNRMC,074011.000,A,3112.7233,N,12136.4371,E,1.28,0.00,220519,,*1A
$GPGSA,A,3,01,11,17,18,19,22,28,,,,,,4.3,3.4,2.6*3A
$BDGSA,A,3,,,,,,,,,,,,,4.3,3.4,2.6*27
$GPGSV,2,1,07,01,39,037,41,11,31,054,37,17,41,314,43,18,15,048,38*78
$GPGSV,2,2,07,19,23,297,39,22,40,068,35,28,77,310,33*45
$BDGSV,1,1,03,08,00,000,37,10,00,000,34,13,00,000,44*53
$LOGTIM,1,-660.017830,0.000000,0.000000,0.000000,-64.030*37
EndT:        2
---00000055--- Acq_st=3 2019-5-22 07:40:11 
[00]  G01  f 42   2416.8 2045996.8  1.0  1.0  5  0 286828927
[01]  G11  f 38   2131.6 2045997.2  1.0  1.0  5  0 286828925
[02]  G17  f 43  -1828.1 2046002.4  1.0  1.0  5  0 286828925
[03]  G18  f 38   3023.2 2045996.1  1.0  1.0  5  0 286828920
[04]  G19  f 40  -2613.4 2046003.4  1.0  1.0  5  0 286828922
[05]  G22  f 35    848.6 2045998.9  1.0  0.9  5  0 286828925
[06]  G28  f 33  -1234.8 2046001.5  1.0  1.0  5  0 286828931
[16]  B08 1f 36    -35.9 4092000.1  1.0  1.0  5  0 286814878
[17]  B10 1f 34    -68.4 4092000.2  1.0  0.9  5  0 286814879
[18]  B13 1f 44   -398.2 4092001.0  1.0  1.0  5  0 286814874
lsq: nits= 2
$GNGGA,074012.000,3112.7212,N,12136.4362,E,1,07,3.4,59.6,M,,,,0000*28
$GNRMC,074012.000,A,3112.7212,N,12136.4362,E,1.94,0.00,220519,,*1F
$GPGSA,A,3,01,11,17,18,19,22,28,,,,,,4.3,3.4,2.6*3A
$BDGSA,A,3,,,,,,,,,,,,,4.3,3.4,2.6*27
$GPGSV,2,1,07,01,39,037,42,11,31,054,38,17,41,314,43,18,15,048,38*74
$GPGSV,2,2,07,19,23,297,40,22,40,068,35,28,77,310,33*4B
$BDGSV,1,1,03,08,00,000,36,10,00,000,34,13,00,000,44*52
$LOGTIM,1,-725.011957,0.000000,0.000000,0.000000,-63.707*35
EndT:        2
---00000056--- Acq_st=3 2019-5-22 07:40:12 
[00]  G01  f 42   2421.2 2045996.9  1.0  1.0  5  0 286829927
[01]  G11  f 38   2135.9 2045997.2  1.0  1.0  5  0 286829925
[02]  G17  f 43  -1823.9 2046002.4  1.0  1.0  5  0 286829925
[03]  G18  f 39   3027.6 2045996.1  1.0  1.0  5  0 286829920
[04]  G19  f 40  -2609.6 2046003.4  1.0  1.0  5  0 286829922
[05]  G22  f 35    853.4 2045998.9  1.0  1.0  5  0 286829925
[06]  G28  f 34  -1231.6 2046001.5  1.0  1.0  5  0 286829931
[16]  B08 1f 36    -31.7 4092000.1  1.0  0.9  5  0 286815878
[17]  B10 1f 34    -64.8 4092000.1  1.0  0.9  5  0 286815879
[18]  B13 1f 44   -394.2 4092001.0  1.0  1.0  5  0 286815874
lsq: nits= 2
$GNGGA,074013.000,3112.7193,N,12136.4357,E,1,07,3.4,59.0,M,,,,0000*23
$GNRMC,074013.000,A,3112.7193,N,12136.4357,E,2.46,269.23,220519,,*12
$GPGSA,A,3,01,11,17,18,19,22,28,,,,,,4.3,3.4,2.6*3A
$BDGSA,A,3,,,,,,,,,,,,,4.3,3.4,2.6*27
$GPGSV,2,1,07,01,39,037,42,11,31,054,38,17,41,314,43,18,15,048,39*75
$GPGSV,2,2,07,19,23,297,40,22,40,068,35,28,77,310,34*4C
$BDGSV,1,1,03,08,00,000,36,10,00,000,34,13,00,000,44*52
$LOGTIM,1,-789.316983,0.000000,0.000000,0.000000,-63.349*30
EndT:        2
---00000057--- Acq_st=3 2019-5-22 07:40:13 
[00]  G01  f 42   2418.9 2045996.9  1.0  1.0  5  0 286830927
[01]  G11  f 38   2133.3 2045997.2  1.0  1.0  5  0 286830925
[02]  G17  f 43  -1826.0 2046002.4  1.0  1.0  5  0 286830925
[03]  G18  f 39   3025.3 2045996.0  1.0  1.0  5  0 286830920
[04]  G19  f 40  -2611.9 2046003.4  1.0  1.0  5  0 286830922
[05]  G22  f 35    851.9 2045998.9  1.0  0.9  5  0 286830925
[06]  G28  f 35  -1232.3 2046001.6  1.0  0.9  5  0 286830931
[16]  B08 1f 36    -34.2 4092000.1  1.0  1.0  5  0 286816878
[17]  B10 1f 34    -67.1 4092000.1  1.0  0.9  5  0 286816879
[18]  B13 1f 44   -396.3 4092001.0  1.0  1.0  5  0 286816874
lsq: nits= 2
$GNGGA,074014.000,3112.7186,N,12136.4353,E,1,07,3.4,58.6,M,,,,0000*23
$GNRMC,074014.000,A,3112.7186,N,12136.4353,E,1.86,269.23,220519,,*1A
$GPGSA,A,3,01,11,17,18,19,22,28,,,,,,4.3,3.4,2.6*3A
$BDGSA,A,3,,,,,,,,,,,,,4.3,3.4,2.6*27
$GPGSV,2,1,07,01,39,037,42,11,31,054,38,17,41,314,43,18,15,048,39*75
$GPGSV,2,2,07,19,23,297,40,22,40,068,35,28,77,310,35*4D
$BDGSV,1,1,03,08,00,000,36,10,00,000,34,13,00,000,44*52
$LOGTIM,1,-852.667010,0.000000,0.000000,0.000000,-63.407*34
EndT:        2
---00000058--- Acq_st=3 2019-5-22 07:40:14 
[00]  G01  f 42   2419.5 2045996.9  1.0  1.0  5  0 286831927
[01]  G11  f 38   2132.9 2045997.2  1.0  1.0  5  0 286831925
[02]  G17  f 43  -1826.0 2046002.4  1.0  1.0  5  0 286831925
[03]  G18  f 39   3025.1 2045996.0  1.0  1.0  5  0 286831920
[04]  G19  f 40  -2612.0 2046003.4  1.0  1.0  5  0 286831922
[05]  G22  f 34    851.5 2045998.9  1.0  1.0  5  0 286831925
[06]  G28  f 35  -1232.3 2046001.6  1.0  0.9  5  0 286831931
[16]  B08 1f 36    -34.3 4092000.1  1.0  1.0  5  0 286817878
[17]  B10 1f 34    -67.5 4092000.2  1.0  0.9  5  0 286817879
[18]  B13 1f 44   -396.5 4092001.0  1.0  1.0  5  0 286817874
lsq: nits= 2
$GNGGA,074015.000,3112.7173,N,12136.4343,E,1,08,3.4,58.1,M,,,,0000*21
$GNRMC,074015.000,A,3112.7173,N,12136.4343,E,1.92,269.23,220519,,*15
$GPGSA,A,3,01,11,17,18,19,22,28,,,,,,4.3,3.4,2.6*3A
$BDGSA,A,3,08,,,,,,,,,,,,4.3,3.4,2.6*2F
$GPGSV,2,1,07,01,39,037,42,11,31,054,38,17,41,314,43,18,15,048,39*75
$GPGSV,2,2,07,19,23,297,40,22,40,068,34,28,77,310,35*4C
$BDGSV,1,1,03,08,00,000,36,10,00,000,34,13,00,000,44*52
$LOGTIM,3,-916.534493,-1078.840112,0.000000,0.000000,-63.309*29
EndT:        3
---00000059--- Acq_st=3 2019-5-22 07:40:15 
[00]  G01  f 42   2421.3 2045996.8  1.0  1.0  5  0 286832927
[01]  G11  f 38   2135.1 2045997.3  1.0  1.0  5  0 286832925
[02]  G17  f 43  -1823.8 2046002.4  1.0  1.0  5  0 286832925
[03]  G18  f 39   3027.4 2045996.0  1.0  1.0  5  0 286832920
[04]  G19  f 40  -2609.5 2046003.4  1.0  1.0  5  0 286832922
[05]  G22  f 34    855.4 2045999.0  1.0  0.9  5  0 286832925
[06]  G28  f 34  -1229.0 2046001.6  1.0  1.0  5  0 286832931
[16]  B08 1f 36    -32.2 4092000.1  1.0  1.0  5  0 286818878
[17]  B10 1f 34    -64.0 4092000.2  1.0  0.9  5  0 286818879
[18]  B13 1f 44   -394.2 4092001.0  1.0  1.0  5  0 286818874
lsq: nits= 2
$GNGGA,074016.000,3112.7166,N,12136.4331,E,1,08,2.2,58.3,M,,,,0000*26
$GNRMC,074016.000,A,3112.7166,N,12136.4331,E,1.74,269.23,220519,,*1F
$GPGSA,A,3,01,11,17,18,19,22,28,,,,,,2.4,2.2,1.0*39
$BDGSA,A,3,08,,,,,,,,,,,,2.4,2.2,1.0*2C
$GPGSV,2,1,07,01,39,038,42,11,31,054,38,17,41,314,43,18,15,048,39*7A
$GPGSV,2,2,07,19,23,297,40,22,40,068,34,28,77,310,34*4D
$BDGSV,1,1,03,08,67,302,36,10,00,000,34,13,00,000,44*52
$LOGTIM,3,-979.385707,-1139.838451,0.000000,0.000000,-63.145*21
EndT:        3
---00000060--- Acq_st=3 2019-5-22 07:40:16 
[00]  G01  f 42   2417.5 2045996.8  1.0  1.0  5  0 286833927
[01]  G11  f 38   2131.3 2045997.2  1.0  1.1  5  0 286833925
[02]  G17  f 42  -1828.4 2046002.4  1.0  1.0  5  0 286833925
[03]  G18  f 39   3022.9 2045996.0  1.0  1.0  5  0 286833920
[04]  G19  f 39  -2614.3 2046003.4  1.0  1.0  5  0 286833922
[05]  G22  f 34    850.4 2045998.9  1.0  1.0  5  0 286833925
[06]  G28  f 34  -1233.0 2046001.6  1.0  1.0  5  0 286833931
[16]  B08 1f 36    -36.6 4092000.0  1.0  1.0  5  0 286819878
[17]  B10 1f 34    -69.1 4092000.2  1.0  0.9  5  0 286819879
[18]  B13 1f 44   -398.8 4092001.1  1.0  1.0  5  0 286819874
lsq: nits= 2
$GNGGA,074017.000,3112.7161,N,12136.4316,E,1,08,2.2,58.7,M,,,,0000*21
$GNRMC,074017.000,A,3112.7161,N,12136.4316,E,0.94,269.23,220519,,*13
$GPGSA,A,3,01,11,17,18,19,22,28,,,,,,2.4,2.2,1.0*39
$BDGSA,A,3,08,,,,,,,,,,,,2.4,2.2,1.0*2C
$GPGSV,2,1,07,01,39,038,42,11,31,054,38,17,41,314,42,18,15,048,39*7B
$GPGSV,2,2,07,19,23,297,39,22,40,068,34,28,77,310,34*43
$BDGSV,1,1,03,08,67,302,36,10,00,000,34,13,00,000,44*52
$LOGTIM,3,-1042.369737,-1201.173541,0.000000,0.000000,-63.500*1B
EndT:        3
---00000061--- Acq_st=3 2019-5-22 07:40:17 
[00]  G01  f 42   2416.3 2045996.9  1.0  1.0  5  0 286834927
[01]  G11  f 38   2129.8 2045997.2  1.0  1.0  5  0 286834925
[02]  G17  f 42  -1830.1 2046002.4  1.0  1.0  5  0 286834925
[03]  G18  f 39   3021.7 2045996.0  1.0  1.0  5  0 286834920
[04]  G19  f 39  -2614.8 2046003.4  1.0  1.0  5  0 286834922
[05]  G22  f 33    850.3 2045999.0  1.0  0.9  5  0 286834925
[06]  G28  f 35  -1234.3 2046001.6  1.0  1.0  5  0 286834931
[16]  B08 1f 36    -37.7 4092000.1  1.0  1.0  5  0 286820878
[17]  B10 1f 34    -69.7 4092000.1  1.0  1.0  5  0 286820879
[18]  B13 1f 44   -399.9 4092001.0  1.0  1.0  5  0 286820874
lsq: nits= 2
$GNGGA,074018.000,3112.7154,N,12136.4309,E,1,08,2.2,60.0,M,,,,0000*2A
$GNRMC,074018.000,A,3112.7154,N,12136.4309,E,0.88,269.23,220519,,*19
$GPGSA,A,3,01,11,17,18,19,22,28,,,,,,2.4,2.2,1.0*39
$BDGSA,A,3,08,,,,,,,,,,,,2.4,2.2,1.0*2C
$GPGSV,2,1,07,01,39,038,42,11,31,054,38,17,41,314,42,18,15,048,39*7B
$GPGSV,2,2,07,19,23,297,39,22,40,068,33,28,77,310,35*45
$BDGSV,1,1,03,08,67,302,36,10,00,000,34,13,00,000,44*52
$LOGTIM,3,-1105.706587,-1268.157500,0.000000,0.000000,-63.555*11
EndT:        3
---00000062--- Acq_st=3 2019-5-22 07:40:18 
[00]  G01  f 42   2415.2 2045996.9  1.0  1.0  5  0 286835927
[01]  G11  f 37   2128.9 2045997.3  1.0  1.1  5  0 286835925
[02]  G17  f 42  -1830.6 2046002.4  1.0  1.0  5  0 286835925
[03]  G18  f 39   3021.2 2045996.0  1.0  1.0  5  0 286835920
[04]  G19  f 39  -2616.0 2046003.4  1.0  1.0  5  0 286835922
[05]  G22  f 32    849.6 2045999.1  1.0  1.0  5  0 286835925
[06]  G28  f 34  -1234.0 2046001.5  1.0  0.9  5  0 286835931
[16]  B08 1f 36    -38.9 4092000.1  1.0  1.0  5  0 286821878
[17]  B10 1f 34    -70.8 4092000.2  1.0  0.9  5  0 286821879
[18]  B13 1f 44   -400.4 4092001.1  1.0  1.0  5  0 286821874
lsq: nits= 2
$GNGGA,074019.000,3112.7144,N,12136.4301,E,1,08,2.2,61.3,M,,,,0000*20
$GNRMC,074019.000,A,3112.7144,N,12136.4301,E,0.57,269.23,220519,,*13
$GPGSA,A,3,01,11,17,18,19,22,28,,,,,,2.4,2.2,1.0*39
$BDGSA,A,3,08,,,,,,,,,,,,2.4,2.2,1.0*2C
$GPGSV,2,1,07,01,39,038,42,11,31,054,37,17,41,314,42,18,15,048,39*74
$GPGSV,2,2,07,19,23,297,39,22,40,068,32,28,77,310,34*45
$BDGSV,1,1,03,08,67,302,36,10,00,000,34,13,00,000,44*52
$LOGTIM,3,-1169.689173,-1335.776451,0.000000,0.000000,-63.905*12
EndT:        3
---00000063--- Acq_st=3 2019-5-22 07:40:19 
[00]  G01  f 43   2410.6 2045996.8  1.0  1.0  5  0 286836927
[01]  G11  f 38   2124.4 2045997.2  1.0  0.9  5  0 286836925
[02]  G17  f 42  -1835.9 2046002.4  1.0  1.0  5  0 286836925
[03]  G18  f 39   3016.0 2045996.1  1.0  1.0  5  0 286836920
[04]  G19  f 39  -2621.0 2046003.4  1.0  1.0  5  0 286836922
[05]  G22  f 33    845.4 2045999.0  1.0  0.9  5  0 286836925
[06]  G28  f 34  -1238.5 2046001.6  1.0  0.9  5  0 286836931
[16]  B08 1f 37    -43.5 4092000.1  1.0  1.0  5  0 286822878
[17]  B10 1f 34    -75.5 4092000.1  1.0  1.0  5  0 286822879
[18]  B13 1f 44   -405.8 4092001.1  1.0  1.0  5  0 286822874
lsq: nits= 2
$GNGGA,074020.000,3112.7137,N,12136.4294,E,1,08,2.2,61.0,M,,,,0000*20
$GNRMC,074020.000,A,3112.7137,N,12136.4294,E,0.07,269.23,220519,,*15
$GPGSA,A,3,01,11,17,18,19,22,28,,,,,,2.4,2.2,1.0*39
$BDGSA,A,3,08,,,,,,,,,,,,2.4,2.2,1.0*2C
$GPGSV,2,1,07,01,39,038,43,11,31,054,38,17,41,314,42,18,15,048,39*7A
$GPGSV,2,2,07,19,23,297,39,22,40,068,33,28,77,310,34*44
$BDGSV,1,1,03,08,67,302,37,10,00,000,34,13,00,000,44*53
$LOGTIM,3,-1234.099050,-1398.954171,0.000000,0.000000,-64.307*1F
EndT:        3
---00000064--- Acq_st=3 2019-5-22 07:40:20 
[00]  G01  f 43   2413.5 2045996.9  1.0  1.0  5  0 286837927
[01]  G11  f 38   2127.0 2045997.3  1.0  1.0  5  0 286837925
[02]  G17  f 42  -1832.7 2046002.4  1.0  1.0  5  0 286837925
[03]  G18  f 39   3018.0 2045996.1  1.0  1.0  5  0 286837920
[04]  G19  f 38  -2618.3 2046003.3  1.0  1.0  5  0 286837922
[05]  G22  f 33    849.2 2045998.9  1.0  0.9  5  0 286837925
[06]  G28  f 34  -1235.7 2046001.6  1.0  1.0  5  0 286837931
[16]  B08 1f 37    -41.5 4092000.1  1.0  1.0  5  0 286823878
[17]  B10 1f 34    -73.1 4092000.1  1.0  0.9  5  0 286823879
[18]  B13 1f 44   -402.7 4092001.0  1.0  1.0  5  0 286823874
lsq: nits= 2
$GNGGA,074021.000,3112.7129,N,12136.4291,E,1,08,2.2,60.7,M,,,,0000*2D
$GNRMC,074021.000,A,3112.7129,N,12136.4291,E,0.31,269.23,220519,,*1B
$GPGSA,A,3,01,11,17,18,19,22,28,,,,,,2.4,2.2,1.0*39
$BDGSA,A,3,08,,,,,,,,,,,,2.4,2.2,1.0*2C
$GPGSV,2,1,07,01,39,038,43,11,31,054,38,17,41,314,42,18,15,048,39*7A
$GPGSV,2,2,07,19,23,297,38,22,40,068,33,28,77,310,34*45
$BDGSV,1,1,03,08,67,302,37,10,00,000,34,13,00,000,44*53
$LOGTIM,3,-1298.642062,-1462.396402,0.000000,0.000000,-64.149*17
EndT:        3
---00000065--- Acq_st=3 2019-5-22 07:40:21 
[00]  G01  f 43   2413.6 2045996.9  1.0  1.0  5  0 286838927
[01]  G11  f 37   2127.1 2045997.1  1.0  1.0  5  0 286838925
[02]  G17  f 42  -1832.8 2046002.4  1.0  1.0  5  0 286838925
[03]  G18  f 39   3018.6 2045996.1  1.0  1.0  5  0 286838920
[04]  G19  f 38  -2618.3 2046003.4  1.0  1.0  5  0 286838922
[05]  G22  f 33    849.8 2045998.8  1.0  1.0  5  0 286838925
[06]  G28  f 33  -1235.7 2046001.6  1.0  0.9  5  0 286838931
[16]  B08 1f 37    -40.3 4092000.1  1.0  1.0  5  0 286824878
[17]  B10 1f 34    -72.0 4092000.3  1.0  0.9  5  0 286824879
[18]  B13 1f 44   -402.4 4092001.0  1.0  1.0  5  0 286824874
lsq: nits= 2
$GNGGA,074022.000,3112.7105,N,12136.4288,E,1,08,2.2,61.1,M,,,,0000*2F
$GNRMC,074022.000,A,3112.7105,N,12136.4288,E,0.80,269.23,220519,,*14
$GPGSA,A,3,01,11,17,18,19,22,28,,,,,,2.4,2.2,1.0*39
$BDGSA,A,3,08,,,,,,,,,,,,2.4,2.2,1.0*2C
$GPGSV,2,1,07,01,39,038,43,11,31,054,37,17,41,315,42,18,15,048,39*74
$GPGSV,2,2,07,19,23,297,38,22,40,067,33,28,77,310,33*4D
$BDGSV,1,1,03,08,67,302,37,10,00,000,34,13,00,000,44*53
$LOGTIM,3,-1363.974383,-1524.731202,0.000000,0.000000,-63.956*19
EndT:        3
---00000066--- Acq_st=3 2019-5-22 07:40:22 
[00]  G01  f 42   2422.6 2045996.9  1.0  1.0  5  0 286839927
[01]  G11  f 37   2136.6 2045997.2  1.0  0.9  5  0 286839925
[02]  G17  f 43  -1823.6 2046002.3  1.0  1.0  5  0 286839925
[03]  G18  f 39   3028.1 2045996.1  1.0  1.0  5  0 286839920
[04]  G19  f 38  -2609.2 2046003.4  1.0  1.0  5  0 286839922
[05]  G22  f 34    858.4 2045998.9  1.0  1.0  5  0 286839925
[06]  G28  f 33  -1226.1 2046001.5  1.0  0.9  5  0 286839931
[16]  B08 1f 37    -32.0 4092000.1  1.0  1.0  5  0 286825878
[17]  B10 1f 34    -62.8 4092000.2  1.0  1.0  5  0 286825879
[18]  B13 1f 44   -393.8 4092001.0  1.0  1.0  5  0 286825874
lsq: nits= 2
$GNGGA,074023.000,3112.7083,N,12136.4291,E,1,08,2.2,62.0,M,,,,0000*2B
$GNRMC,074023.000,A,3112.7083,N,12136.4291,E,1.90,269.23,220519,,*12
$GPGSA,A,3,01,11,17,18,19,22,28,,,,,,2.4,2.2,1.0*39
$BDGSA,A,3,08,,,,,,,,,,,,2.4,2.2,1.0*2C
$GPGSV,2,1,07,01,39,038,42,11,31,054,37,17,41,315,43,18,15,048,39*74
$GPGSV,2,2,07,19,23,297,38,22,40,067,34,28,77,310,33*4A
$BDGSV,1,1,03,08,67,302,37,10,00,000,34,13,00,000,44*53
$LOGTIM,3,-1428.275776,-1586.021681,0.000000,0.000000,-63.142*19
EndT:        3
---00000067--- Acq_st=3 2019-5-22 07:40:23 
[00]  G01  f 42   2424.4 2045996.8  1.0  1.0  5  0 286840927
[01]  G11  f 38   2138.0 2045997.2  1.0  1.0  5  0 286840925
[02]  G17  f 43  -1822.3 2046002.4  1.0  1.0  5  0 286840925
[03]  G18  f 39   3029.0 2045996.1  1.0  1.0  5  0 286840920
[04]  G19  f 39  -2607.6 2046003.4  1.0  1.0  5  0 286840922
[05]  G22  f 34    861.5 2045998.9  1.0  1.0  5  0 286840925
[06]  G28  f 34  -1223.3 2046001.5  1.0  1.0  5  0 286840931
[16]  B08 1f 37    -30.7 4092000.1  1.0  1.0  5  0 286826878
[17]  B10 1f 34    -61.2 4092000.1  1.0  1.0  5  0 286826879
[18]  B13 1f 44   -392.0 4092001.0  1.0  1.0  5  0 286826874
lsq: nits= 2
$GNGGA,074024.000,3112.7062,N,12136.4296,E,1,08,2.2,63.0,M,,,,0000*25
$GNRMC,074024.000,A,3112.7062,N,12136.4296,E,2.03,272.13,220519,,*1D
$GPGSA,A,3,01,11,17,18,19,22,28,,,,,,2.4,2.2,1.0*39
$BDGSA,A,3,08,,,,,,,,,,,,2.4,2.2,1.0*2C
$GPGSV,2,1,07,01,39,038,42,11,31,054,38,17,41,315,43,18,15,048,39*7B
$GPGSV,2,2,07,19,23,297,39,22,40,067,34,28,77,310,34*4C
$BDGSV,1,1,03,08,67,302,37,10,00,000,34,13,00,000,44*53
$LOGTIM,3,-1492.085596,-1647.307342,0.000000,0.000000,-62.983*1E
EndT:        3
---00000068--- Acq_st=3 2019-5-22 07:40:24 
[00]  G01  f 42   2420.3 2045996.8  1.0  1.0  5  0 286841927
[01]  G11  f 37   2133.8 2045997.3  1.0  1.0  5  0 286841925
[02]  G17  f 43  -1825.8 2046002.4  1.0  1.0  5  0 286841925
[03]  G18  f 38   3024.6 2045996.0  1.0  1.0  5  0 286841920
[04]  G19  f 38  -2611.6 2046003.4  1.0  1.0  5  0 286841922
[05]  G22  f 35    857.4 2045998.8  1.0  1.0  5  0 286841925
[06]  G28  f 34  -1227.4 2046001.6  1.0  0.9  5  0 286841931
[16]  B08 1f 37    -34.6 4092000.1  1.0  0.9  5  0 286827878
[17]  B10 1f 34    -65.3 4092000.3  1.0  1.0  5  0 286827879
