FlashID=0x1 0x20 0x18
BBram_blkflag1: 408d: bf72
FW Ver: 1.30  
GPS00 Init Dop:   5000, 40
GPS01 Init Dop:   5000, 40
GPS02 Init Dop:   5000, 40
GPS03 Init Dop:   5000, 40
GPS04 Init Dop:   5000, 40
GPS05 Init Dop:   5000, 40
GPS06 Init Dop:   5000, 40
GPS07 Init Dop:   5000, 40
GPS08 Init Dop:   5000, 40
GPS09 Init Dop:   5000, 40
GPS10 Init Dop:   5000, 40
GPS11 Init Dop:   5000, 40
GPS12 Init Dop:   5000, 40
GPS13 Init Dop:   5000, 40
GPS14 Init Dop:   5000, 40
GPS15 Init Dop:   5000, 40
GPS16 Init Dop:   5000, 40
GPS17 Init Dop:   5000, 40
GPS18 Init Dop:   5000, 40
GPS19 Init Dop:   5000, 40
GPS20 Init Dop:   5000, 40
GPS21 Init Dop:   5000, 40
GPS22 Init Dop:   5000, 40
GPS23 Init Dop:   5000, 40
GPS24 Init Dop:   5000, 40
GPS25 Init Dop:   5000, 40
GPS26 Init Dop:   5000, 40
GPS27 Init Dop:   5000, 40
GPS28 Init Dop:   5000, 40
GPS29 Init Dop:   5000, 40
GPS30 Init Dop:   5000, 40
GPS31 Init Dop:   5000, 40
BDS00 Init Dop:   5000, 40
BDS01 Init Dop:   5000, 40
BDS02 Init Dop:   5000, 40
BDS03 Init Dop:   5000, 40
BDS04 Init Dop:   5000, 40
BDS05 Init Dop:   5000, 40
BDS06 Init Dop:   5000, 40
BDS07 Init Dop:   5000, 40
BDS08 Init Dop:   5000, 40
BDS09 Init Dop:   5000, 40
BDS10 Init Dop:   5000, 40
BDS11 Init Dop:   5000, 40
BDS12 Init Dop:   5000, 40
BDS13 Init Dop:   5000, 40
BDS14 Init Dop:   5000, 40
BDS15 Init Dop:   5000, 40
BDS16 Init Dop:   5000, 40
BDS17 Init Dop:   5000, 40
BDS18 Init Dop:   5000, 40
BDS19 Init Dop:   5000, 40
BDS20 Init Dop:   5000, 40
BDS21 Init Dop:   5000, 40
BDS22 Init Dop:   5000, 40
BDS23 Init Dop:   5000, 40
BDS24 Init Dop:   5000, 40
BDS25 Init Dop:   5000, 40
BDS26 Init Dop:   5000, 40
BDS27 Init Dop:   5000, 40
BDS28 Init Dop:   5000, 40
BDS29 Init Dop:   5000, 40
BDS30 Init Dop:   5000, 40
BDS31 Init Dop:   5000, 40
---00000001--- Acq_st=3 2019-5-25 07:08:14 
$GNGGA,000000.000,,,,,0,00,,,M,,,,0000*2B
$GNRMC,000000.000,A,,,,,,,000000,,*26
$GPGSA,A,1,,,,,,,,,,,,,,,*1E
$BDGSA,A,1,,,,,,,,,,,,,,,*0F
$LOGTIM,0,0.000000,0.000000,0.000000,0.000000,0.000*0A
EndT:        0
---00000002--- Acq_st=3 2019-5-25 07:08:15 
$GNGGA,000000.000,,,,,0,00,,,M,,,,0000*2B
$GNRMC,000000.000,A,,,,,,,000000,,*26
$GPGSA,A,1,,,,,,,,,,,,,,,*1E
$BDGSA,A,1,,,,,,,,,,,,,,,*0F
$LOGTIM,0,0.000000,0.000000,0.000000,0.000000,0.000*0A
EndT:        0
---00000003--- Acq_st=3 2019-5-25 07:08:16 
$GNGGA,000000.000,,,,,0,00,,,M,,,,0000*2B
$GNRMC,000000.000,A,,,,,,,000000,,*26
$GPGSA,A,1,,,,,,,,,,,,,,,*1E
$BDGSA,A,1,,,,,,,,,,,,,,,*0F
$LOGTIM,0,0.000000,0.000000,0.000000,0.000000,0.000*0A
EndT:        0
---00000004--- Acq_st=3 2019-5-25 07:08:17 
$GNGGA,000000.000,,,,,0,00,,,M,,,,0000*2B
$GNRMC,000000.000,A,,,,,,,000000,,*26
$GPGSA,A,1,,,,,,,,,,,,,,,*1E
$BDGSA,A,1,,,,,,,,,,,,,,,*0F
$LOGTIM,0,0.000000,0.000000,0.000000,0.000000,0.000*0A
EndT:        0
---00000005--- Acq_st=3 2019-5-25 07:08:18 
$GNGGA,000000.000,,,,,0,00,,,M,,,,0000*2B
$GNRMC,000000.000,A,,,,,,,000000,,*26
$GPGSA,A,1,,,,,,,,,,,,,,,*1E
$BDGSA,A,1,,,,,,,,,,,,,,,*0F
$LOGTIM,0,0.000000,0.000000,0.000000,0.000000,0.000*0A
EndT:        0
---00000006--- Acq_st=3 2019-5-25 07:08:19 
$GNGGA,000000.000,,,,,0,00,,,M,,,,0000*2B
$GNRMC,000000.000,A,,,,,,,000000,,*26
$GPGSA,A,1,,,,,,,,,,,,,,,*1E
$BDGSA,A,1,,,,,,,,,,,,,,,*0F
$LOGTIM,0,0.000000,0.000000,0.000000,0.000000,0.000*0A
EndT:        0
---00000007--- Acq_st=3 2019-5-25 07:08:20 
$GNGGA,000000.000,,,,,0,00,,,M,,,,0000*2B
$GNRMC,000000.000,A,,,,,,,000000,,*26
$GPGSA,A,1,,,,,,,,,,,,,,,*1E
$BDGSA,A,1,,,,,,,,,,,,,,,*0F
$LOGTIM,0,0.000000,0.000000,0.000000,0.000000,0.000*0A
EndT:        0
---00000008--- Acq_st=3 2019-5-25 07:08:21 
$GNGGA,000000.000,,,,,0,00,,,M,,,,0000*2B
$GNRMC,000000.000,A,,,,,,,000000,,*26
$GPGSA,A,1,,,,,,,,,,,,,,,*1E
$BDGSA,A,1,,,,,,,,,,,,,,,*0F
$LOGTIM,0,0.000000,0.000000,0.000000,0.000000,0.000*0A
EndT:        0
---00000009--- Acq_st=3 2019-5-25 07:08:22 
$GNGGA,000000.000,,,,,0,00,,,M,,,,0000*2B
$GNRMC,000000.000,A,,,,,,,000000,,*26
$GPGSA,A,1,,,,,,,,,,,,,,,*1E
$BDGSA,A,1,,,,,,,,,,,,,,,*0F
$LOGTIM,0,0.000000,0.000000,0.000000,0.000000,0.000*0A
EndT:        0
---00000010--- Acq_st=3 2019-5-25 07:08:23 
$GNGGA,000000.000,,,,,0,00,,,M,,,,0000*2B
$GNRMC,000000.000,A,,,,,,,000000,,*26
$GPGSA,A,1,,,,,,,,,,,,,,,*1E
$BDGSA,A,1,,,,,,,,,,,,,,,*0F
$LOGTIM,0,0.000000,0.000000,0.000000,0.000000,0.000*0A
EndT:        0
---00000011--- Acq_st=3 2019-5-25 07:08:24 
$GNGGA,000000.000,,,,,0,00,,,M,,,,0000*2B
$GNRMC,000000.000,A,,,,,,,000000,,*26
$GPGSA,A,1,,,,,,,,,,,,,,,*1E
$BDGSA,A,1,,,,,,,,,,,,,,,*0F
$LOGTIM,0,0.000000,0.000000,0.000000,0.000000,0.000*0A
EndT:        0
---00000012--- Acq_st=3 2019-5-25 07:08:25 
$GNGGA,000000.000,,,,,0,00,,,M,,,,0000*2B
$GNRMC,000000.000,A,,,,,,,000000,,*26
$GPGSA,A,1,,,,,,,,,,,,,,,*1E
$BDGSA,A,1,,,,,,,,,,,,,,,*0F
$LOGTIM,0,0.000000,0.000000,0.000000,0.000000,0.000*0A
EndT:        0
---00000013--- Acq_st=3 2019-5-25 07:08:26 
$GNGGA,000000.000,,,,,0,00,,,M,,,,0000*2B
$GNRMC,000000.000,A,,,,,,,000000,,*26
$GPGSA,A,1,,,,,,,,,,,,,,,*1E
$BDGSA,A,1,,,,,,,,,,,,,,,*0F
$LOGTIM,0,0.000000,0.000000,0.000000,0.000000,0.000*0A
EndT:        0
---00000014--- Acq_st=3 2019-5-25 07:08:27 
$GNGGA,000000.000,,,,,0,00,,,M,,,,0000*2B
$GNRMC,000000.000,A,,,,,,,000000,,*26
$GPGSA,A,1,,,,,,,,,,,,,,,*1E
$BDGSA,A,1,,,,,,,,,,,,,,,*0F
$LOGTIM,0,0.000000,0.000000,0.000000,0.000000,0.000*0A
EndT:        0
ch0 satid=17,max_freq = -4750,max_mean = 16325,max_phase = 1011,max_value = 459966,acq ok1!
acq ok1 timeH = 0,timeL = 269332174,freq_stage = 5
---00000015--- Acq_st=3 2019-5-25 07:08:28 
[00]  G18  1  7   4736.6 2045993.8 -0.2  0.0  1  0         0
$GNGGA,000000.000,,,,,0,00,,,M,,,,0000*2B
$GNRMC,000000.000,A,,,,,,,000000,,*26
$GPGSA,A,1,,,,,,,,,,,,,,,*1E
$BDGSA,A,1,,,,,,,,,,,,,,,*0F
$LOGTIM,0,0.000000,0.000000,0.000000,0.000000,0.000*0A
EndT:        0
---00000016--- Acq_st=3 2019-5-25 07:08:29 
[00]  G18  1  7   4671.3 2045994.1 -0.1  0.0  1  0        13
$GNGGA,000000.000,,,,,0,00,,,M,,,,0000*2B
$GNRMC,000000.000,A,,,,,,,000000,,*26
$GPGSA,A,1,,,,,,,,,,,,,,,*1E
$BDGSA,A,1,,,,,,,,,,,,,,,*0F
$LOGTIM,0,0.000000,0.000000,0.000000,0.000000,0.000*0A
EndT:        0
---00000017--- Acq_st=3 2019-5-25 07:08:30 
[00]  G18  1  7   4676.7 2045994.0  0.1  0.0  1  0        13
$GNGGA,000000.000,,,,,0,00,,,M,,,,0000*2B
$GNRMC,000000.000,A,,,,,,,000000,,*26
$GPGSA,A,1,,,,,,,,,,,,,,,*1E
$BDGSA,A,1,,,,,,,,,,,,,,,*0F
$LOGTIM,0,0.000000,0.000000,0.000000,0.000000,0.000*0A
EndT:        0
---00000018--- Acq_st=3 2019-5-25 07:08:31 
$GNGGA,000000.000,,,,,0,00,,,M,,,,0000*2B
$GNRMC,000000.000,A,,,,,,,000000,,*26
$GPGSA,A,1,,,,,,,,,,,,,,,*1E
$BDGSA,A,1,,,,,,,,,,,,,,,*0F
$LOGTIM,0,0.000000,0.000000,0.000000,0.000000,0.000*0A
EndT:        0
---00000019--- Acq_st=3 2019-5-25 07:08:32 
$GNGGA,000000.000,,,,,0,00,,,M,,,,0000*2B
$GNRMC,000000.000,A,,,,,,,000000,,*26
$GPGSA,A,1,,,,,,,,,,,,,,,*1E
$BDGSA,A,1,,,,,,,,,,,,,,,*0F
$LOGTIM,0,0.000000,0.000000,0.000000,0.000000,0.000*0A
EndT:        0
---00000020--- Acq_st=3 2019-5-25 07:08:33 
$GNGGA,000000.000,,,,,0,00,,,M,,,,0000*2B
$GNRMC,000000.000,A,,,,,,,000000,,*26
$GPGSA,A,1,,,,,,,,,,,,,,,*1E
$BDGSA,A,1,,,,,,,,,,,,,,,*0F
$LOGTIM,0,0.000000,0.000000,0.000000,0.000000,0.000*0A
EndT:        0
---00000021--- Acq_st=3 2019-5-25 07:08:34 
$GNGGA,000000.000,,,,,0,00,,,M,,,,0000*2B
$GNRMC,000000.000,A,,,,,,,000000,,*26
$GPGSA,A,1,,,,,,,,,,,,,,,*1E
$BDGSA,A,1,,,,,,,,,,,,,,,*0F
$LOGTIM,0,0.000000,0.000000,0.000000,0.000000,0.000*0A
EndT:        0
---00000022--- Acq_st=3 2019-5-25 07:08:35 
$GNGGA,000000.000,,,,,0,00,,,M,,,,0000*2B
$GNRMC,000000.000,A,,,,,,,000000,,*26
$GPGSA,A,1,,,,,,,,,,,,,,,*1E
$BDGSA,A,1,,,,,,,,,,,,,,,*0F
$LOGTIM,0,0.000000,0.000000,0.000000,0.000000,0.000*0A
EndT:        0
---00000023--- Acq_st=3 2019-5-25 07:08:36 
$GNGGA,000000.000,,,,,0,00,,,M,,,,0000*2B
$GNRMC,000000.000,A,,,,,,,000000,,*26
$GPGSA,A,1,,,,,,,,,,,,,,,*1E
$BDGSA,A,1,,,,,,,,,,,,,,,*0F
$LOGTIM,0,0.000000,0.000000,0.000000,0.000000,0.000*0A
EndT:        0
---00000024--- Acq_st=3 2019-5-25 07:08:37 
$GNGGA,000000.000,,,,,0,00,,,M,,,,0000*2B
$GNRMC,000000.000,A,,,,,,,000000,,*26
$GPGSA,A,1,,,,,,,,,,,,,,,*1E
$BDGSA,A,1,,,,,,,,,,,,,,,*0F
$LOGTIM,0,0.000000,0.000000,0.000000,0.000000,0.000*0A
EndT:        0
---00000025--- Acq_st=3 2019-5-25 07:08:38 
$GNGGA,000000.000,,,,,0,00,,,M,,,,0000*2B
$GNRMC,000000.000,A,,,,,,,000000,,*26
$GPGSA,A,1,,,,,,,,,,,,,,,*1E
$BDGSA,A,1,,,,,,,,,,,,,,,*0F
$LOGTIM,0,0.000000,0.000000,0.000000,0.000000,0.000*0A
EndT:        0
---00000026--- Acq_st=3 2019-5-25 07:08:39 
$GNGGA,000000.000,,,,,0,00,,,M,,,,0000*2B
$GNRMC,000000.000,A,,,,,,,000000,,*26
$GPGSA,A,1,,,,,,,,,,,,,,,*1E
$BDGSA,A,1,,,,,,,,,,,,,,,*0F
$LOGTIM,0,0.000000,0.000000,0.000000,0.000000,0.000*0A
EndT:        0
---00000027--- Acq_st=3 2019-5-25 07:08:40 
$GNGGA,000000.000,,,,,0,00,,,M,,,,0000*2B
$GNRMC,000000.000,A,,,,,,,000000,,*26
$GPGSA,A,1,,,,,,,,,,,,,,,*1E
$BDGSA,A,1,,,,,,,,,,,,,,,*0F
$LOGTIM,0,0.000000,0.000000,0.000000,0.000000,0.000*0A
EndT:        0
---00000028--- Acq_st=3 2019-5-25 07:08:41 
$GNGGA,000000.000,,,,,0,00,,,M,,,,0000*2B
$GNRMC,000000.000,A,,,,,,,000000,,*26
$GPGSA,A,1,,,,,,,,,,,,,,,*1E
$BDGSA,A,1,,,,,,,,,,,,,,,*0F
$LOGTIM,0,0.000000,0.000000,0.000000,0.000000,0.000*0A
EndT:        0
---00000029--- Acq_st=3 2019-5-25 07:08:42 
$GNGGA,000000.000,,,,,0,00,,,M,,,,0000*2B
$GNRMC,000000.000,A,,,,,,,000000,,*26
$GPGSA,A,1,,,,,,,,,,,,,,,*1E
$BDGSA,A,1,,,,,,,,,,,,,,,*0F
$LOGTIM,0,0.000000,0.000000,0.000000,0.000000,0.000*0A
EndT:        0
---00000030--- Acq_st=3 2019-5-25 07:08:43 
$GNGGA,000000.000,,,,,0,00,,,M,,,,0000*2B
$GNRMC,000000.000,A,,,,,,,000000,,*26
$GPGSA,A,1,,,,,,,,,,,,,,,*1E
$BDGSA,A,1,,,,,,,,,,,,,,,*0F
$LOGTIM,0,0.000000,0.000000,0.000000,0.000000,0.000*0A
EndT:        0
---00000031--- Acq_st=3 2019-5-25 07:08:44 
$GNGGA,000000.000,,,,,0,00,,,M,,,,0000*2B
$GNRMC,000000.000,A,,,,,,,000000,,*26
$GPGSA,A,1,,,,,,,,,,,,,,,*1E
$BDGSA,A,1,,,,,,,,,,,,,,,*0F
$LOGTIM,0,0.000000,0.000000,0.000000,0.000000,0.000*0A
EndT:        0
---00000032--- Acq_st=3 2019-5-25 07:08:45 
$GNGGA,000000.000,,,,,0,00,,,M,,,,0000*2B
$GNRMC,000000.000,A,,,,,,,000000,,*26
$GPGSA,A,1,,,,,,,,,,,,,,,*1E
$BDGSA,A,1,,,,,,,,,,,,,,,*0F
$LOGTIM,0,0.000000,0.000000,0.000000,0.000000,0.000*0A
EndT:        0
---00000033--- Acq_st=3 2019-5-25 07:08:46 
$GNGGA,000000.000,,,,,0,00,,,M,,,,0000*2B
$GNRMC,000000.000,A,,,,,,,000000,,*26
$GPGSA,A,1,,,,,,,,,,,,,,,*1E
$BDGSA,A,1,,,,,,,,,,,,,,,*0F
$LOGTIM,0,0.000000,0.000000,0.000000,0.000000,0.000*0A
EndT:        0
---00000034--- Acq_st=3 2019-5-25 07:08:47 
$GNGGA,000000.000,,,,,0,00,,,M,,,,0000*2B
$GNRMC,000000.000,A,,,,,,,000000,,*26
$GPGSA,A,1,,,,,,,,,,,,,,,*1E
$BDGSA,A,1,,,,,,,,,,,,,,,*0F
$LOGTIM,0,0.000000,0.000000,0.000000,0.000000,0.000*0A
EndT:        0
---00000035--- Acq_st=3 2019-5-25 07:08:48 
$GNGGA,000000.000,,,,,0,00,,,M,,,,0000*2B
$GNRMC,000000.000,A,,,,,,,000000,,*26
$GPGSA,A,1,,,,,,,,,,,,,,,*1E
$BDGSA,A,1,,,,,,,,,,,,,,,*0F
$LOGTIM,0,0.000000,0.000000,0.000000,0.000000,0.000*0A
EndT:        0
---00000036--- Acq_st=3 2019-5-25 07:08:49 
$GNGGA,000000.000,,,,,0,00,,,M,,,,0000*2B
$GNRMC,000000.000,A,,,,,,,000000,,*26
$GPGSA,A,1,,,,,,,,,,,,,,,*1E
$BDGSA,A,1,,,,,,,,,,,,,,,*0F
$LOGTIM,0,0.000000,0.000000,0.000000,0.000000,0.000*0A
EndT:        0
---00000037--- Acq_st=3 2019-5-25 07:08:50 
$GNGGA,000000.000,,,,,0,00,,,M,,,,0000*2B
$GNRMC,000000.000,A,,,,,,,000000,,*26
$GPGSA,A,1,,,,,,,,,,,,,,,*1E
$BDGSA,A,1,,,,,,,,,,,,,,,*0F
$LOGTIM,0,0.000000,0.000000,0.000000,0.000000,0.000*0A
EndT:        0
ch16 satid=44,max_freq = -250,max_mean = 6188,max_phase = 3267,max_value = 78628,acq ok1!
acq ok1 timeH = 0,timeL = 712998224,freq_stage = 3
---00000038--- Acq_st=3 2019-5-25 07:08:51 
[16]  B08  1  0  10921.5 4092000.0  0.0  0.0  1  0         0
$GNGGA,000000.000,,,,,0,00,,,M,,,,0000*2B
$GNRMC,000000.000,A,,,,,,,000000,,*26
$GPGSA,A,1,,,,,,,,,,,,,,,*1E
$BDGSA,A,1,,,,,,,,,,,,,,,*0F
$LOGTIM,0,0.000000,0.000000,0.000000,0.000000,0.000*0A
EndT:        0
---00000039--- Acq_st=3 2019-5-25 07:08:52 
[16]  B08  1  7    -88.0 4092000.4  0.1  0.0  1  0        69
$GNGGA,000000.000,,,,,0,00,,,M,,,,0000*2B
$GNRMC,000000.000,A,,,,,,,000000,,*26
$GPGSA,A,1,,,,,,,,,,,,,,,*1E
$BDGSA,A,1,,,,,,,,,,,,,,,*0F
$LOGTIM,0,0.000000,0.000000,0.000000,0.000000,0.000*0A
EndT:        0
---00000040--- Acq_st=3 2019-5-25 07:08:53 
[16]  B08  1  7    -85.0 4092000.4  0.4  0.0  1  0      1069
$GNGGA,000000.000,,,,,0,00,,,M,,,,0000*2B
$GNRMC,000000.000,A,,,,,,,000000,,*26
$GPGSA,A,1,,,,,,,,,,,,,,,*1E
$BDGSA,A,1,,,,,,,,,,,,,,,*0F
$LOGTIM,0,0.000000,0.000000,0.000000,0.000000,0.000*0A
EndT:        0
---00000041--- Acq_st=3 2019-5-25 07:08:54 
[16]  B08  1  7    -92.4 4092000.3  0.6  0.0  1  0      2069
$GNGGA,000000.000,,,,,0,00,,,M,,,,0000*2B
$GNRMC,000000.000,A,,,,,,,000000,,*26
$GPGSA,A,1,,,,,,,,,,,,,,,*1E
$BDGSA,A,1,,,,,,,,,,,,,,,*0F
$LOGTIM,0,0.000000,0.000000,0.000000,0.000000,0.000*0A
EndT:        0
ch17 satid=46,max_freq = -250,max_mean = 6306,max_phase = 2338,max_value = 52880,acq ok1!
acq ok1 timeH = 0,timeL = 774032158,freq_stage = 3
---00000042--- Acq_st=3 2019-5-25 07:08:55 
[17]  B10  1  7   -251.5 4092001.5 -0.1  0.0  1  0         0
$GNGGA,000000.000,,,,,0,00,,,M,,,,0000*2B
$GNRMC,000000.000,A,,,,,,,000000,,*26
$GPGSA,A,1,,,,,,,,,,,,,,,*1E
$BDGSA,A,1,,,,,,,,,,,,,,,*0F
$LOGTIM,0,0.000000,0.000000,0.000000,0.000000,0.000*0A
EndT:        0
ch18 satid=47,max_freq = -1000,max_mean = 6053,max_phase = 3094,max_value = 122591,acq ok1!
acq ok1 timeH = 0,timeL = 807598904,freq_stage = 4
---00000043--- Acq_st=3 2019-5-25 07:08:56 
[17]  B10  1  7   -245.9 4092000.5  0.1  0.0  1  0       890
[18]  B11  1  7   1015.6 4091998.2  0.0  0.0  1  0         0
$GNGGA,000000.000,,,,,0,00,,,M,,,,0000*2B
$GNRMC,000000.000,A,,,,,,,000000,,*26
$GPGSA,A,1,,,,,,,,,,,,,,,*1E
$BDGSA,A,1,,,,,,,,,,,,,,,*0F
$LOGTIM,0,0.000000,0.000000,0.000000,0.000000,0.000*0A
EndT:        0
---00000044--- Acq_st=3 2019-5-25 07:08:57 
[17]  B10  7 28   -249.4 4092000.6  0.0  1.0 10  0      1890
[18]  B11  1  7    964.9 4091998.4 -0.0  0.0  1  0       300
$GNGGA,000000.000,,,,,0,00,,,M,,,,0000*2B
$GNRMC,000000.000,A,,,,,,,000000,,*26
$GPGSA,A,1,,,,,,,,,,,,,,,*1E
$BDGSA,A,1,,,,,,,,,,,,,,,*0F
$BDGSV,1,1,01,10,00,000,28*52
$LOGTIM,0,0.000000,0.000000,0.000000,0.000000,0.000*0A
EndT:        0
---00000045--- Acq_st=3 2019-5-25 07:08:58 
[17]  B10  7 39   -247.0 4092000.6  1.0  1.0  5  0      2879
[18]  B11  1  7    952.8 4091998.2 -0.1  0.0  1  0      1300
$GNGGA,000000.000,,,,,0,00,,,M,,,,0000*2B
$GNRMC,000000.000,A,,,,,,,000000,,*26
$GPGSA,A,1,,,,,,,,,,,,,,,*1E
$BDGSA,A,1,,,,,,,,,,,,,,,*0F
$BDGSV,1,1,01,10,00,000,39*52
$LOGTIM,0,0.000000,0.000000,0.000000,0.000000,0.000*0A
EndT:        0
ch16 satid=49,max_freq = 500,max_mean = 6228,max_phase = 2601,max_value = 34054,acq ok1!
acq ok1 timeH = 0,timeL = 862533276,freq_stage = 3
---00000046--- Acq_st=3 2019-5-25 07:08:59 
[16]  B13  1  7   -478.5 4092000.9  0.0  0.0  1  0      3069
[17]  B10  7 39   -247.5 4092000.6  1.0  1.0  5  0      3879
[18]  B11  1  7    831.3 4091998.5 -0.0  0.0  1  0      2300
$GNGGA,000000.000,,,,,0,00,,,M,,,,0000*2B
$GNRMC,000000.000,A,,,,,,,000000,,*26
$GPGSA,A,1,,,,,,,,,,,,,,,*1E
$BDGSA,A,1,,,,,,,,,,,,,,,*0F
$BDGSV,1,1,01,10,00,000,39*52
$LOGTIM,0,0.000000,0.000000,0.000000,0.000000,0.000*0A
EndT:        0
---00000047--- Acq_st=3 2019-5-25 07:09:0 
[16]  B13  1  7   -512.4 4092001.1  0.1  0.0  1  0       122
[17]  B10  7 39   -244.0 4092000.6  1.0  1.0  5  0      4879
$GNGGA,000000.000,,,,,0,00,,,M,,,,0000*2B
$GNRMC,000000.000,A,,,,,,,000000,,*26
$GPGSA,A,1,,,,,,,,,,,,,,,*1E
$BDGSA,A,1,,,,,,,,,,,,,,,*0F
$BDGSV,1,1,01,10,00,000,39*52
$LOGTIM,0,0.000000,0.000000,0.000000,0.000000,0.000*0A
EndT:        0
---00000048--- Acq_st=3 2019-5-25 07:09:1 
[16]  B13  1  7   -760.1 4092001.1  0.0  0.0  1  0      1122
[17]  B10  7 39   -247.7 4092000.7  1.0  1.0  5  0      5879
$GNGGA,000000.000,,,,,0,00,,,M,,,,0000*2B
$GNRMC,000000.000,A,,,,,,,000000,,*26
$GPGSA,A,1,,,,,,,,,,,,,,,*1E
$BDGSA,A,1,,,,,,,,,,,,,,,*0F
$BDGSV,1,1,01,10,00,000,39*52
$LOGTIM,0,0.000000,0.000000,0.000000,0.000000,0.000*0A
EndT:        0
---00000049--- Acq_st=3 2019-5-25 07:09:2 
[16]  B13  1  7   -398.8 4092001.1  0.2  0.0  1  0      2122
[17]  B10  7 39   -248.6 4092000.6  1.0  1.0  5  0      6879
$GNGGA,000000.000,,,,,0,00,,,M,,,,0000*2B
$GNRMC,000000.000,A,,,,,,,000000,,*26
$GPGSA,A,1,,,,,,,,,,,,,,,*1E
$BDGSA,A,1,,,,,,,,,,,,,,,*0F
$BDGSV,1,1,01,10,00,000,39*52
$LOGTIM,0,0.000000,0.000000,0.000000,0.000000,0.000*0A
EndT:        0
---00000050--- Acq_st=3 2019-5-25 07:09:3 
[17]  B10 1f 39   -249.0 4092000.6  1.0  1.0  5  0      7879
$GNGGA,000000.000,,,,,0,00,,,M,,,,0000*2B
$GNRMC,000000.000,A,,,,,,,000000,,*26
$GPGSA,A,1,,,,,,,,,,,,,,,*1E
$BDGSA,A,1,,,,,,,,,,,,,,,*0F
$BDGSV,1,1,01,10,00,000,39*52
$LOGTIM,0,0.000000,0.000000,0.000000,0.000000,0.000*0A
EndT:        0
---00000051--- Acq_st=3 2019-5-25 07:09:4 
[17]  B10 1f 39   -242.9 4092000.6  1.0  1.0  5  0 544147419
$GNGGA,000000.000,,,,,0,00,,,M,,,,0000*2B
$GNRMC,000000.000,A,,,,,,,000000,,*26
$GPGSA,A,1,,,,,,,,,,,,,,,*1E
$BDGSA,A,1,,,,,,,,,,,,,,,*0F
$BDGSV,1,1,01,10,00,000,39*52
$LOGTIM,0,0.000000,0.000000,0.000000,0.000000,0.000*0A
EndT:        0
---00000052--- Acq_st=3 2019-5-25 07:09:5 
[17]  B10 1f 39   -243.7 4092000.6  1.0  1.0  5  0 544148419
$GNGGA,000000.000,,,,,0,00,,,M,,,,0000*2B
$GNRMC,000000.000,A,,,,,,,000000,,*26
$GPGSA,A,1,,,,,,,,,,,,,,,*1E
$BDGSA,A,1,,,,,,,,,,,,,,,*0F
$BDGSV,1,1,01,10,00,000,39*52
$LOGTIM,0,0.000000,0.000000,0.000000,0.000000,0.000*0A
EndT:        0
---00000053--- Acq_st=3 2019-5-25 07:09:6 
[17]  B10 1f 39   -242.0 4092000.7  1.0  1.0  5  0 544149419
$GNGGA,000000.000,,,,,0,00,,,M,,,,0000*2B
$GNRMC,000000.000,A,,,,,,,000000,,*26
$GPGSA,A,1,,,,,,,,,,,,,,,*1E
$BDGSA,A,1,,,,,,,,,,,,,,,*0F
$BDGSV,1,1,01,10,00,000,39*52
$LOGTIM,0,0.000000,0.000000,0.000000,0.000000,0.000*0A
EndT:        0
---00000054--- Acq_st=3 2019-5-25 07:09:7 
[17]  B10 1f 39   -244.1 4092000.6  1.0  1.0  5  0 544150419
$GNGGA,000000.000,,,,,0,00,,,M,,,,0000*2B
$GNRMC,000000.000,A,,,,,,,000000,,*26
$GPGSA,A,1,,,,,,,,,,,,,,,*1E
$BDGSA,A,1,,,,,,,,,,,,,,,*0F
$BDGSV,1,1,01,10,00,000,39*52
$LOGTIM,0,0.000000,0.000000,0.000000,0.000000,0.000*0A
EndT:        0
---00000055--- Acq_st=3 2019-5-25 07:09:8 
[17]  B10 1f 39   -246.1 4092000.6  1.0  1.0  5  0 544151419
$GNGGA,000000.000,,,,,0,00,,,M,,,,0000*2B
$GNRMC,000000.000,A,,,,,,,000000,,*26
$GPGSA,A,1,,,,,,,,,,,,,,,*1E
$BDGSA,A,1,,,,,,,,,,,,,,,*0F
$BDGSV,1,1,01,10,00,000,39*52
$LOGTIM,0,0.000000,0.000000,0.000000,0.000000,0.000*0A
EndT:        0
---00000056--- Acq_st=3 2019-5-25 07:09:9 
[17]  B10 1f 39   -248.4 4092000.7  1.0  1.0  5  0 544152419
$GNGGA,000000.000,,,,,0,00,,,M,,,,0000*2B
$GNRMC,000000.000,A,,,,,,,000000,,*26
$GPGSA,A,1,,,,,,,,,,,,,,,*1E
$BDGSA,A,1,,,,,,,,,,,,,,,*0F
$BDGSV,1,1,01,10,00,000,39*52
$LOGTIM,0,0.000000,0.000000,0.000000,0.000000,0.000*0A
EndT:        0
---00000057--- Acq_st=3 2019-5-25 07:09:10 
[17]  B10 1f 39   -249.3 4092000.6  1.0  1.0  5  0 544153419
$GNGGA,000000.000,,,,,0,00,,,M,,,,0000*2B
$GNRMC,000000.000,A,,,,,,,000000,,*26
$GPGSA,A,1,,,,,,,,,,,,,,,*1E
$BDGSA,A,1,,,,,,,,,,,,,,,*0F
$BDGSV,1,1,01,10,00,000,39*52
$LOGTIM,0,0.000000,0.000000,0.000000,0.000000,0.000*0A
EndT:        0
---00000058--- Acq_st=3 2019-5-25 07:09:11 
[17]  B10 1f 40   -245.7 4092000.6  1.0  1.0  5  0 544154419
$GNGGA,000000.000,,,,,0,00,,,M,,,,0000*2B
$GNRMC,000000.000,A,,,,,,,000000,,*26
$GPGSA,A,1,,,,,,,,,,,,,,,*1E
$BDGSA,A,1,,,,,,,,,,,,,,,*0F
$BDGSV,1,1,01,10,00,000,40*5C
$LOGTIM,0,0.000000,0.000000,0.000000,0.000000,0.000*0A
EndT:        0
ch16 satid=57,max_freq = -750,max_mean = 6047,max_phase = 2982,max_value = 79289,acq ok1!
acq ok1 timeH = 0,timeL = 1109718798,freq_stage = 3
---00000059--- Acq_st=3 2019-5-25 07:09:12 
[16]  B21  1  7    545.5 4091999.6 -0.0  0.0  1  0      3122
[17]  B10 1f 39   -243.3 4092000.6  1.0  1.0  5  0 544155419
$GNGGA,000000.000,,,,,0,00,,,M,,,,0000*2B
$GNRMC,000000.000,A,,,,,,,000000,,*26
$GPGSA,A,1,,,,,,,,,,,,,,,*1E
$BDGSA,A,1,,,,,,,,,,,,,,,*0F
$BDGSV,1,1,01,10,00,000,39*52
$LOGTIM,0,0.000000,0.000000,0.000000,0.000000,0.000*0A
EndT:        0
---00000060--- Acq_st=3 2019-5-25 07:09:13 
[16]  B21  7  7    450.1 4091998.8 -0.2  0.0 10  0       406
[17]  B10 1f 39   -237.9 4092000.6  1.0  1.0  5  0 544156419
$GNGGA,000000.000,,,,,0,00,,,M,,,,0000*2B
$GNRMC,000000.000,A,,,,,,,000000,,*26
$GPGSA,A,1,,,,,,,,,,,,,,,*1E
$BDGSA,A,1,,,,,,,,,,,,,,,*0F
$BDGSV,1,1,01,10,00,000,39*52
$LOGTIM,0,0.000000,0.000000,0.000000,0.000000,0.000*0A
EndT:        0
---00000061--- Acq_st=3 2019-5-25 07:09:14 
[16]  B21  7 41    457.5 4091998.7  0.5  1.0  5  0      1395
[17]  B10 1f 39   -229.8 4092000.6  1.0  1.0  5  0 544157419
$GNGGA,000000.000,,,,,0,00,,,M,,,,0000*2B
$GNRMC,000000.000,A,,,,,,,000000,,*26
$GPGSA,A,1,,,,,,,,,,,,,,,*1E
$BDGSA,A,1,,,,,,,,,,,,,,,*0F
$BDGSV,1,1,02,21,00,000,41,10,00,000,39*67
$LOGTIM,0,0.000000,0.000000,0.000000,0.000000,0.000*0A
EndT:        0
ch18 satid=59,max_freq = -1250,max_mean = 6203,max_phase = 2323,max_value = 26559,acq ok1!
acq ok1 timeH = 0,timeL = 1173802520,freq_stage = 4
---00000062--- Acq_st=3 2019-5-25 07:09:15 
[16]  B21 1f 41    458.5 4091998.8  1.0  1.0  5  0      2395
[17]  B10 1f 39   -228.9 4092000.6  1.0  1.0  5  0 544158419
[18]  B23  1  7   1239.4 4091997.1  0.0  0.0  1  0      2300
$GNGGA,000000.000,,,,,0,00,,,M,,,,0000*2B
$GNRMC,000000.000,A,,,,,,,000000,,*26
$GPGSA,A,1,,,,,,,,,,,,,,,*1E
$BDGSA,A,1,,,,,,,,,,,,,,,*0F
$BDGSV,1,1,02,21,00,000,41,10,00,000,39*67
$LOGTIM,0,0.000000,0.000000,0.000000,0.000000,0.000*0A
EndT:        0
---00000063--- Acq_st=3 2019-5-25 07:09:16 
[16]  B21 1f 41    452.6 4091998.8  1.0  1.0  5  0 544159455
[17]  B10 1f 39   -235.2 4092000.7  1.0  1.0  5  0 544159419
[18]  B23  1  7   1077.5 4091997.6  0.1  0.0  1  0       227
$GNGGA,000000.000,,,,,0,00,,,M,,,,0000*2B
$GNRMC,000000.000,A,,,,,,,000000,,*26
$GPGSA,A,1,,,,,,,,,,,,,,,*1E
$BDGSA,A,1,,,,,,,,,,,,,,,*0F
$BDGSV,1,1,02,21,00,000,41,10,00,000,39*67
$LOGTIM,0,0.000000,0.000000,0.000000,0.000000,0.000*0A
EndT:        0
---00000064--- Acq_st=3 2019-5-25 07:09:17 
[16]  B21 1f 41    451.6 4091998.8  1.0  1.0  5  0 544160455
[17]  B10 1f 39   -236.4 4092000.6  1.0  1.0  5  0 544160419
[18]  B23  1  7    973.0 4091998.0 -0.0  0.0  1  0      1227
$GNGGA,000000.000,,,,,0,00,,,M,,,,0000*2B
$GNRMC,000000.000,A,,,,,,,000000,,*26
$GPGSA,A,1,,,,,,,,,,,,,,,*1E
$BDGSA,A,1,,,,,,,,,,,,,,,*0F
$BDGSV,1,1,02,21,00,000,41,10,00,000,39*67
$LOGTIM,0,0.000000,0.000000,0.000000,0.000000,0.000*0A
EndT:        0
---00000065--- Acq_st=3 2019-5-25 07:09:18 
[16]  B21 1f 41    449.9 4091998.8  1.0  1.0  5  0 544161455
[17]  B10 1f 39   -238.9 4092000.6  1.0  1.0  5  0 544161419
[18]  B23  1  7   1111.7 4091997.6  0.0  0.0  1  0      2227
$GNGGA,000000.000,,,,,0,00,,,M,,,,0000*2B
$GNRMC,000000.000,A,,,,,,,000000,,*26
$GPGSA,A,1,,,,,,,,,,,,,,,*1E
$BDGSA,A,1,,,,,,,,,,,,,,,*0F
$BDGSV,1,1,02,21,00,000,41,10,00,000,39*67
$LOGTIM,0,0.000000,0.000000,0.000000,0.000000,0.000*0A
EndT:        0
---00000066--- Acq_st=3 2019-5-25 07:09:19 
[16]  B21 1f 41    449.7 4091998.8  1.0  1.0  5  0 544162455
[17]  B10 1f 39   -239.2 4092000.6  1.0  1.0  5  0 544162419
$GNGGA,000000.000,,,,,0,00,,,M,,,,0000*2B
$GNRMC,000000.000,A,,,,,,,000000,,*26
$GPGSA,A,1,,,,,,,,,,,,,,,*1E
$BDGSA,A,1,,,,,,,,,,,,,,,*0F
$BDGSV,1,1,02,21,00,000,41,10,00,000,39*67
$LOGTIM,0,0.000000,0.000000,0.000000,0.000000,0.000*0A
EndT:        0
---00000067--- Acq_st=3 2019-5-25 07:09:20 
[16]  B21 1f 42    447.5 4091998.8  1.0  1.0  5  0 544163455
[17]  B10 1f 39   -241.5 4092000.6  1.0  1.0  5  0 544163419
$GNGGA,000000.000,,,,,0,00,,,M,,,,0000*2B
$GNRMC,000000.000,A,,,,,,,000000,,*26
$GPGSA,A,1,,,,,,,,,,,,,,,*1E
$BDGSA,A,1,,,,,,,,,,,,,,,*0F
$BDGSV,1,1,02,21,00,000,42,10,00,000,39*64
$LOGTIM,0,0.000000,0.000000,0.000000,0.000000,0.000*0A
EndT:        0
---00000068--- Acq_st=3 2019-5-25 07:09:21 
[16]  B21 1f 41    448.7 4091998.8  1.0  1.0  5  0 544164455
[17]  B10 1f 39   -241.0 4092000.6  1.0  1.0  5  0 544164419
$GNGGA,000000.000,,,,,0,00,,,M,,,,0000*2B
$GNRMC,000000.000,A,,,,,,,000000,,*26
$GPGSA,A,1,,,,,,,,,,,,,,,*1E
$BDGSA,A,1,,,,,,,,,,,,,,,*0F
$BDGSV,1,1,02,21,00,000,41,10,00,000,39*67
$LOGTIM,0,0.000000,0.000000,0.000000,0.000000,0.000*0A
EndT:        0
---00000069--- Acq_st=3 2019-5-25 07:09:22 
[16]  B21 1f 41    448.4 4091998.8  1.0  1.0  5  0 544165455
[17]  B10 1f 39   -241.1 4092000.6  1.0  1.0  5  0 544165419
$GNGGA,000000.000,,,,,0,00,,,M,,,,0000*2B
$GNRMC,000000.000,A,,,,,,,000000,,*26
$GPGSA,A,1,,,,,,,,,,,,,,,*1E
$BDGSA,A,1,,,,,,,,,,,,,,,*0F
$BDGSV,1,1,02,21,00,000,41,10,00,000,39*67
$LOGTIM,0,0.000000,0.000000,0.000000,0.000000,0.000*0A
EndT:        0
ch18 satid=64,max_freq = 1250,max_mean = 6269,max_phase = 2620,max_value = 169296,acq ok1!
acq ok1 timeH = 0,timeL = 1317238024,freq_stage = 2
---00000070--- Acq_st=3 2019-5-25 07:09:23 
[16]  B21 1f 41    447.5 4091998.8  1.0  1.0  5  0 544166455
[17]  B10 1f 39   -242.3 4092000.7  1.0  1.0  5  0 544166419
[18]  B28  1  7  -1229.6 4092002.3  0.1  0.0  1  0      3227
$GNGGA,000000.000,,,,,0,00,,,M,,,,0000*2B
$GNRMC,000000.000,A,,,,,,,000000,,*26
$GPGSA,A,1,,,,,,,,,,,,,,,*1E
$BDGSA,A,1,,,,,,,,,,,,,,,*0F
$BDGSV,1,1,02,21,00,000,41,10,00,000,39*67
$LOGTIM,0,0.000000,0.000000,0.000000,0.000000,0.000*0A
EndT:        0
---00000071--- Acq_st=3 2019-5-25 07:09:24 
[16]  B21 1f 41    447.3 4091998.8  1.0  1.0  5  0 544167455
[17]  B10 1f 39   -243.7 4092000.6  1.0  1.0  5  0 544167419
[18]  B28  1 13  -1251.3 4092003.0 -0.1  0.0  1  0       280
$GNGGA,000000.000,,,,,0,00,,,M,,,,0000*2B
$GNRMC,000000.000,A,,,,,,,000000,,*26
$GPGSA,A,1,,,,,,,,,,,,,,,*1E
$BDGSA,A,1,,,,,,,,,,,,,,,*0F
$BDGSV,1,1,02,21,00,000,41,10,00,000,39*67
$LOGTIM,0,0.000000,0.000000,0.000000,0.000000,0.000*0A
EndT:        0
---00000072--- Acq_st=3 2019-5-25 07:09:25 
[16]  B21 1f 41    448.1 4091998.8  1.0  1.0  5  0 544168455
[17]  B10 1f 39   -242.2 4092000.6  1.0  1.0  5  0 544168419
[18]  B28  1  7  -1577.4 4092003.0  0.0  0.0  1  0      1280
$GNGGA,000000.000,,,,,0,00,,,M,,,,0000*2B
$GNRMC,000000.000,A,,,,,,,000000,,*26
$GPGSA,A,1,,,,,,,,,,,,,,,*1E
$BDGSA,A,1,,,,,,,,,,,,,,,*0F
$BDGSV,1,1,02,21,00,000,41,10,00,000,39*67
$LOGTIM,0,0.000000,0.000000,0.000000,0.000000,0.000*0A
EndT:        0
---00000073--- Acq_st=3 2019-5-25 07:09:26 
[16]  B21 1f 41    447.1 4091998.8  1.0  1.0  5  0 544169455
[17]  B10 1f 39   -244.4 4092000.6  1.0  1.0  5  0 544169419
[18]  B28  1 13  -1581.5 4092003.3 -0.0  0.0  1  0      2280
$GNGGA,000000.000,,,,,0,00,,,M,,,,0000*2B
$GNRMC,000000.000,A,,,,,,,000000,,*26
$GPGSA,A,1,,,,,,,,,,,,,,,*1E
$BDGSA,A,1,,,,,,,,,,,,,,,*0F
$BDGSV,1,1,02,21,00,000,41,10,00,000,39*67
$LOGTIM,0,0.000000,0.000000,0.000000,0.000000,0.000*0A
EndT:        0
---00000074--- Acq_st=3 2019-5-25 07:09:27 
[16]  B21 1f 42    444.6 4091998.8  1.0  1.0  5  0 544170455
[17]  B10 1f 39   -247.1 4092000.7  1.0  1.0  5  0 544170419
$GNGGA,000000.000,,,,,0,00,,,M,,,,0000*2B
$GNRMC,000000.000,A,,,,,,,000000,,*26
$GPGSA,A,1,,,,,,,,,,,,,,,*1E
$BDGSA,A,1,,,,,,,,,,,,,,,*0F
$BDGSV,1,1,02,21,00,000,42,10,00,000,39*64
$LOGTIM,0,0.000000,0.000000,0.000000,0.000000,0.000*0A
EndT:        0
---00000075--- Acq_st=3 2019-5-25 07:09:28 
[16]  B21 1f 41    447.3 4091998.8  1.0  1.0  5  0 544171455
[17]  B10 1f 39   -244.7 4092000.6  1.0  1.0  5  0 544171419
$GNGGA,000000.000,,,,,0,00,,,M,,,,0000*2B
$GNRMC,000000.000,A,,,,,,,000000,,*26
$GPGSA,A,1,,,,,,,,,,,,,,,*1E
$BDGSA,A,1,,,,,,,,,,,,,,,*0F
$BDGSV,1,1,02,21,00,000,41,10,00,000,39*67
$LOGTIM,0,0.000000,0.000000,0.000000,0.000000,0.000*0A
EndT:        0
---00000076--- Acq_st=3 2019-5-25 07:09:29 
[16]  B21 1f 42    448.6 4091998.8  1.0  1.0  5  0 544172455
[17]  B10 1f 39   -243.7 4092000.6  1.0  0.9  5  0 544172419
$GNGGA,000000.000,,,,,0,00,,,M,,,,0000*2B
$GNRMC,000000.000,A,,,,,,,000000,,*26
$GPGSA,A,1,,,,,,,,,,,,,,,*1E
$BDGSA,A,1,,,,,,,,,,,,,,,*0F
$BDGSV,1,1,02,21,00,000,42,10,00,000,39*64
$LOGTIM,0,0.000000,0.000000,0.000000,0.000000,0.000*0A
EndT:        0
---00000077--- Acq_st=7 2019-5-25 07:09:30 
[16]  B21 1f 42    453.0 4091998.8  1.0  1.0  5  0 544173455
[17]  B10 1f 39   -239.6 4092000.7  1.0  1.0  5  0 544173419
$GNGGA,000000.000,,,,,0,00,,,M,,,,0000*2B
$GNRMC,000000.000,A,,,,,,,000000,,*26
$GPGSA,A,1,,,,,,,,,,,,,,,*1E
$BDGSA,A,1,,,,,,,,,,,,,,,*0F
$BDGSV,1,1,02,21,00,000,42,10,00,000,39*64
$LOGTIM,0,0.000000,0.000000,0.000000,0.000000,0.000*0A
EndT:        0
---00000078--- Acq_st=7 2019-5-25 07:09:31 
[16]  B21 1f 42    455.5 4091998.8  1.0  1.0  5  0 544174455
[17]  B10 1f 39   -237.7 4092000.7  1.0  1.0  5  0 544174419
$GNGGA,000000.000,,,,,0,00,,,M,,,,0000*2B
$GNRMC,000000.000,A,,,,,,,000000,,*26
$GPGSA,A,1,,,,,,,,,,,,,,,*1E
$BDGSA,A,1,,,,,,,,,,,,,,,*0F
$BDGSV,1,1,02,21,00,000,42,10,00,000,39*64
$LOGTIM,0,0.000000,0.000000,0.000000,0.000000,0.000*0A
EndT:        0
---00000079--- Acq_st=7 2019-5-25 07:09:32 
[16]  B21 1f 41    457.1 4091998.8  1.0  1.0  5  0 544175455
[17]  B10 1f 39   -235.8 4092000.6  1.0  1.0  5  0 544175419
$GNGGA,000000.000,,,,,0,00,,,M,,,,0000*2B
$GNRMC,000000.000,A,,,,,,,000000,,*26
$GPGSA,A,1,,,,,,,,,,,,,,,*1E
$BDGSA,A,1,,,,,,,,,,,,,,,*0F
$BDGSV,1,1,02,21,00,000,41,10,00,000,39*67
$LOGTIM,0,0.000000,0.000000,0.000000,0.000000,0.000*0A
EndT:        0
---00000080--- Acq_st=3 2019-5-25 07:09:33 
[16]  B21 1f 41    458.2 4091998.8  1.0  1.0  5  0 544176455
[17]  B10 1f 39   -235.8 4092000.6  1.0  1.0  5  0 544176419
$GNGGA,000000.000,,,,,0,00,,,M,,,,0000*2B
$GNRMC,000000.000,A,,,,,,,000000,,*26
$GPGSA,A,1,,,,,,,,,,,,,,,*1E
$BDGSA,A,1,,,,,,,,,,,,,,,*0F
$BDGSV,1,1,02,21,00,000,41,10,00,000,39*67
$LOGTIM,0,0.000000,0.000000,0.000000,0.000000,0.000*0A
EndT:        0
---00000081--- Acq_st=3 2019-5-25 07:09:34 
[16]  B21 1f 41    457.7 4091998.8  1.0  1.0  5  0 544177455
[17]  B10 1f 39   -236.3 4092000.6  1.0  1.0  5  0 544177419
$GNGGA,000000.000,,,,,0,00,,,M,,,,0000*2B
$GNRMC,000000.000,A,,,,,,,000000,,*26
$GPGSA,A,1,,,,,,,,,,,,,,,*1E
$BDGSA,A,1,,,,,,,,,,,,,,,*0F
$BDGSV,1,1,02,21,00,000,41,10,00,000,39*67
$LOGTIM,0,0.000000,0.000000,0.000000,0.000000,0.000*0A
EndT:        0
---00000082--- Acq_st=3 2019-5-25 07:09:35 
[16]  B21 1f 41    452.2 4091998.8  1.0  1.0  5  0 544178455
[17]  B10 1f 40   -242.2 4092000.6  1.0  1.0  5  0 544178419
$GNGGA,000000.000,,,,,0,00,,,M,,,,0000*2B
$GNRMC,000000.000,A,,,,,,,000000,,*26
$GPGSA,A,1,,,,,,,,,,,,,,,*1E
$BDGSA,A,1,,,,,,,,,,,,,,,*0F
$BDGSV,1,1,02,21,00,000,41,10,00,000,40*69
$LOGTIM,0,0.000000,0.000000,0.000000,0.000000,0.000*0A
EndT:        0
---00000083--- Acq_st=3 2019-5-25 07:09:36 
[16]  B21 1f 42    456.5 4091998.8  1.0  1.0  5  0 544179455
[17]  B10 1f 40   -238.3 4092000.6  1.0  1.0  5  0 544179419
$GNGGA,000000.000,,,,,0,00,,,M,,,,0000*2B
$GNRMC,000000.000,A,,,,,,,000000,,*26
$GPGSA,A,1,,,,,,,,,,,,,,,*1E
$BDGSA,A,1,,,,,,,,,,,,,,,*0F
$BDGSV,1,1,02,21,00,000,42,10,00,000,40*6A
$LOGTIM,0,0.000000,0.000000,0.000000,0.000000,0.000*0A
EndT:        0
---00000084--- Acq_st=3 2019-5-25 07:09:37 
[16]  B21 1f 41    465.5 4091998.7  1.0  1.0  5  0 544180455
[17]  B10 1f 40   -229.8 4092000.6  1.0  1.0  5  0 544180419
$GNGGA,000000.000,,,,,0,00,,,M,,,,0000*2B
$GNRMC,000000.000,A,,,,,,,000000,,*26
$GPGSA,A,1,,,,,,,,,,,,,,,*1E
$BDGSA,A,1,,,,,,,,,,,,,,,*0F
$BDGSV,1,1,02,21,00,000,41,10,00,000,40*69
$LOGTIM,0,0.000000,0.000000,0.000000,0.000000,0.000*0A
EndT:        0
---00000085--- Acq_st=3 2019-5-25 07:09:38 
[16]  B21 1f 41    465.3 4091998.7  1.0  1.0  5  0 544181455
[17]  B10 1f 40   -230.4 4092000.6  1.0  1.0  5  0 544181419
$GNGGA,000000.000,,,,,0,00,,,M,,,,0000*2B
$GNRMC,000000.000,A,,,,,,,000000,,*26
$GPGSA,A,1,,,,,,,,,,,,,,,*1E
$BDGSA,A,1,,,,,,,,,,,,,,,*0F
$BDGSV,1,1,02,21,00,000,41,10,00,000,40*69
$LOGTIM,0,0.000000,0.000000,0.000000,0.000000,0.000*0A
EndT:        0
---00000086--- Acq_st=3 2019-5-25 07:09:39 
[16]  B21 1f 41    469.4 4091998.7  1.0  1.0  5  0 544182455
[17]  B10 1f 40   -226.6 4092000.6  1.0  1.0  5  0 544182419
$GNGGA,000000.000,,,,,0,00,,,M,,,,0000*2B
$GNRMC,000000.000,A,,,,,,,000000,,*26
$GPGSA,A,1,,,,,,,,,,,,,,,*1E
$BDGSA,A,1,,,,,,,,,,,,,,,*0F
$BDGSV,1,1,02,21,00,000,41,10,00,000,40*69
$LOGTIM,0,0.000000,0.000000,0.000000,0.000000,0.000*0A
EndT:        0
---00000087--- Acq_st=3 2019-5-25 07:09:40 
[16]  B21 1f 42    467.2 4091998.7  1.0  1.0  5  0 544183455
[17]  B10 1f 40   -229.3 4092000.6  1.0  1.0  5  0 544183419
$GNGGA,000000.000,,,,,0,00,,,M,,,,0000*2B
$GNRMC,000000.000,A,,,,,,,000000,,*26
$GPGSA,A,1,,,,,,,,,,,,,,,*1E
$BDGSA,A,1,,,,,,,,,,,,,,,*0F
$BDGSV,1,1,02,21,00,000,42,10,00,000,40*6A
$LOGTIM,0,0.000000,0.000000,0.000000,0.000000,0.000*0A
EndT:        0
---00000088--- Acq_st=3 2019-5-25 07:09:41 
[16]  B21 1f 42    468.9 4091998.7  1.0  1.0  5  0 544184455
[17]  B10 1f 40   -227.8 4092000.6  1.0  1.0  5  0 544184419
$GNGGA,000000.000,,,,,0,00,,,M,,,,0000*2B
$GNRMC,000000.000,A,,,,,,,000000,,*26
$GPGSA,A,1,,,,,,,,,,,,,,,*1E
$BDGSA,A,1,,,,,,,,,,,,,,,*0F
$BDGSV,1,1,02,21,00,000,42,10,00,000,40*6A
$LOGTIM,0,0.000000,0.000000,0.000000,0.000000,0.000*0A
EndT:        0
---00000089--- Acq_st=3 2019-5-25 07:09:42 
[16]  B21 1f 42    465.4 4091998.8  1.0  1.0  5  0 544185455
[17]  B10 1f 40   -230.9 4092000.6  1.0  1.0  5  0 544185419
$GNGGA,000000.000,,,,,0,00,,,M,,,,0000*2B
$GNRMC,000000.000,A,,,,,,,000000,,*26
$GPGSA,A,1,,,,,,,,,,,,,,,*1E
$BDGSA,A,1,,,,,,,,,,,,,,,*0F
$BDGSV,1,1,02,21,00,000,42,10,00,000,40*6A
$LOGTIM,0,0.000000,0.000000,0.000000,0.000000,0.000*0A
EndT:        0
---00000090--- Acq_st=3 2019-5-25 07:09:43 
[16]  B21 1f 43    466.2 4091998.8  1.0  1.0  5  0 544186455
[17]  B10 1f 40   -231.1 4092000.6  1.0  1.0  5  0 544186419
$GNGGA,000000.000,,,,,0,00,,,M,,,,0000*2B
$GNRMC,000000.000,A,,,,,,,000000,,*26
$GPGSA,A,1,,,,,,,,,,,,,,,*1E
$BDGSA,A,1,,,,,,,,,,,,,,,*0F
$BDGSV,1,1,02,21,00,000,43,10,00,000,40*6B
$LOGTIM,0,0.000000,0.000000,0.000000,0.000000,0.000*0A
EndT:        0
---00000091--- Acq_st=3 2019-5-25 07:09:44 
[16]  B21 1f 41    460.9 4091998.8  1.0  1.0  5  0 544187455
[17]  B10 1f 40   -236.8 4092000.6  1.0  1.0  5  0 544187419
$GNGGA,000000.000,,,,,0,00,,,M,,,,0000*2B
$GNRMC,000000.000,A,,,,,,,000000,,*26
$GPGSA,A,1,,,,,,,,,,,,,,,*1E
$BDGSA,A,1,,,,,,,,,,,,,,,*0F
$BDGSV,1,1,02,21,00,000,41,10,00,000,40*69
$LOGTIM,0,0.000000,0.000000,0.000000,0.000000,0.000*0A
EndT:        0
---00000092--- Acq_st=3 2019-5-25 07:09:45 
[16]  B21 1f 41    454.0 4091998.8  1.0  1.0  5  0 544188455
[17]  B10 1f 40   -244.0 4092000.6  1.0  1.0  5  0 544188419
$GNGGA,000000.000,,,,,0,00,,,M,,,,0000*2B
$GNRMC,000000.000,A,,,,,,,000000,,*26
$GPGSA,A,1,,,,,,,,,,,,,,,*1E
$BDGSA,A,1,,,,,,,,,,,,,,,*0F
$BDGSV,1,1,02,21,00,000,41,10,00,000,40*69
$LOGTIM,0,0.000000,0.000000,0.000000,0.000000,0.000*0A
EndT:        0
---00000093--- Acq_st=3 2019-5-25 07:09:46 
[16]  B21 1f 42    450.0 4091998.8  1.0  1.0  5  0 544189455
[17]  B10 1f 40   -248.0 4092000.6  1.0  1.0  5  0 544189419
$GNGGA,000000.000,,,,,0,00,,,M,,,,0000*2B
$GNRMC,000000.000,A,,,,,,,000000,,*26
$GPGSA,A,1,,,,,,,,,,,,,,,*1E
$BDGSA,A,1,,,,,,,,,,,,,,,*0F
$BDGSV,1,1,02,21,00,000,42,10,00,000,40*6A
$LOGTIM,0,0.000000,0.000000,0.000000,0.000000,0.000*0A
EndT:        0
ch0 satid=17,max_freq = -4750,max_mean = 16657,max_phase = 1783,max_value = 427043,acq ok1!
acq ok1 timeH = 0,timeL = 1783758297,freq_stage = 5
---00000094--- Acq_st=3 2019-5-25 07:09:47 
[00]  G18  1  7   4685.4 2045994.0  0.0  0.0  1  0        13
[16]  B21 1f 42    449.1 4091998.8  1.0  1.0  5  0 544190455
[17]  B10 1f 40   -249.4 4092000.7  1.0  1.0  5  0 544190419
$GNGGA,000000.000,,,,,0,00,,,M,,,,0000*2B
$GNRMC,000000.000,A,,,,,,,000000,,*26
$GPGSA,A,1,,,,,,,,,,,,,,,*1E
$BDGSA,A,1,,,,,,,,,,,,,,,*0F
$BDGSV,1,1,02,21,00,000,42,10,00,000,40*6A
$LOGTIM,0,0.000000,0.000000,0.000000,0.000000,0.000*0A
EndT:        0
---00000095--- Acq_st=3 2019-5-25 07:09:48 
[00]  G18  1  7   4644.8 2045994.0  0.2  0.0  1  0        17
[16]  B21 1f 42    450.4 4091998.8  1.0  1.0  5  0 544191455
[17]  B10 1f 40   -248.8 4092000.6  1.0  1.0  5  0 544191419
$GNGGA,000000.000,,,,,0,00,,,M,,,,0000*2B
$GNRMC,000000.000,A,,,,,,,000000,,*26
$GPGSA,A,1,,,,,,,,,,,,,,,*1E
$BDGSA,A,1,,,,,,,,,,,,,,,*0F
$BDGSV,1,1,02,21,00,000,42,10,00,000,40*6A
$LOGTIM,0,0.000000,0.000000,0.000000,0.000000,0.000*0A
EndT:        0
---00000096--- Acq_st=3 2019-5-25 07:09:49 
[00]  G18  1  7   4677.9 2045993.6  0.2  0.0  1  0        17
[16]  B21 1f 41    456.2 4091998.8  1.0  1.0  5  0 544192455
[17]  B10 1f 40   -243.1 4092000.6  1.0  1.0  5  0 544192419
$GNGGA,000000.000,,,,,0,00,,,M,,,,0000*2B
$GNRMC,000000.000,A,,,,,,,000000,,*26
$GPGSA,A,1,,,,,,,,,,,,,,,*1E
$BDGSA,A,1,,,,,,,,,,,,,,,*0F
$BDGSV,1,1,02,21,00,000,41,10,00,000,40*69
$LOGTIM,0,0.000000,0.000000,0.000000,0.000000,0.000*0A
EndT:        0
---00000097--- Acq_st=3 2019-5-25 07:09:50 
[16]  B21 1f 41    459.0 4091998.8  1.0  1.0  5  0 544193455
[17]  B10 1f 40   -240.3 4092000.6  1.0  1.0  5  0 544193419
$GNGGA,000000.000,,,,,0,00,,,M,,,,0000*2B
$GNRMC,000000.000,A,,,,,,,000000,,*26
$GPGSA,A,1,,,,,,,,,,,,,,,*1E
$BDGSA,A,1,,,,,,,,,,,,,,,*0F
$BDGSV,1,1,02,21,00,000,41,10,00,000,40*69
$LOGTIM,0,0.000000,0.000000,0.000000,0.000000,0.000*0A
EndT:        0
---00000098--- Acq_st=3 2019-5-25 07:09:51 
[16]  B21 1f 41    456.5 4091998.8  1.0  1.0  5  0 544194455
[17]  B10 1f 41   -243.9 4092000.6  1.0  1.0  5  0 544194419
$GNGGA,000000.000,,,,,0,00,,,M,,,,0000*2B
$GNRMC,000000.000,A,,,,,,,000000,,*26
$GPGSA,A,1,,,,,,,,,,,,,,,*1E
$BDGSA,A,1,,,,,,,,,,,,,,,*0F
$BDGSV,1,1,02,21,00,000,41,10,00,000,41*68
$LOGTIM,0,0.000000,0.000000,0.000000,0.000000,0.000*0A
EndT:        0
---00000099--- Acq_st=3 2019-5-25 07:09:52 
[16]  B21 1f 41    461.5 4091998.8  1.0  1.0  5  0 544195455
[17]  B10 1f 40   -238.3 4092000.6  1.0  1.0  5  0 544195419
$GNGGA,000000.000,,,,,0,00,,,M,,,,0000*2B
$GNRMC,000000.000,A,,,,,,,000000,,*26
$GPGSA,A,1,,,,,,,,,,,,,,,*1E
$BDGSA,A,1,,,,,,,,,,,,,,,*0F
$BDGSV,1,1,02,21,00,000,41,10,00,000,40*69
$LOGTIM,0,0.000000,0.000000,0.000000,0.000000,0.000*0A
EndT:        0
---00000100--- Acq_st=3 2019-5-25 07:09:53 
[16]  B21 1f 41    467.4 4091998.8  1.0  1.0  5  0 544196455
[17]  B10 1f 40   -233.2 4092000.6  1.0  1.0  5  0 544196419
$GNGGA,000000.000,,,,,0,00,,,M,,,,0000*2B
$GNRMC,000000.000,A,,,,,,,000000,,*26
$GPGSA,A,1,,,,,,,,,,,,,,,*1E
$BDGSA,A,1,,,,,,,,,,,,,,,*0F
$BDGSV,1,1,02,21,00,000,41,10,00,000,40*69
$LOGTIM,0,0.000000,0.000000,0.000000,0.000000,0.000*0A
EndT:        0
---00000101--- Acq_st=3 2019-5-25 07:09:54 
[16]  B21 1f 41    469.1 4091998.7  1.0  1.0  5  0 544197455
[17]  B10 1f 41   -232.2 4092000.5  1.0  1.0  5  0 544197419
$GNGGA,000000.000,,,,,0,00,,,M,,,,0000*2B
$GNRMC,000000.000,A,,,,,,,000000,,*26
$GPGSA,A,1,,,,,,,,,,,,,,,*1E
$BDGSA,A,1,,,,,,,,,,,,,,,*0F
$BDGSV,1,1,02,21,00,000,41,10,00,000,41*68
$LOGTIM,0,0.000000,0.000000,0.000000,0.000000,0.000*0A
EndT:        0
---00000102--- Acq_st=3 2019-5-25 07:09:55 
[16]  B21 1f 41    468.5 4091998.8  1.0  1.0  5  0 544198455
[17]  B10 1f 40   -233.1 4092000.6  1.0  1.0  5  0 544198419
$GNGGA,000000.000,,,,,0,00,,,M,,,,0000*2B
$GNRMC,000000.000,A,,,,,,,000000,,*26
$GPGSA,A,1,,,,,,,,,,,,,,,*1E
$BDGSA,A,1,,,,,,,,,,,,,,,*0F
$BDGSV,1,1,02,21,00,000,41,10,00,000,40*69
$LOGTIM,0,0.000000,0.000000,0.000000,0.000000,0.000*0A
EndT:        0
---00000103--- Acq_st=3 2019-5-25 07:09:56 
[16]  B21 1f 41    465.6 4091998.8  1.0  1.0  5  0 544199455
[17]  B10 1f 41   -236.2 4092000.6  1.0  1.0  5  0 544199419
$GNGGA,000000.000,,,,,0,00,,,M,,,,0000*2B
$GNRMC,000000.000,A,,,,,,,000000,,*26
$GPGSA,A,1,,,,,,,,,,,,,,,*1E
$BDGSA,A,1,,,,,,,,,,,,,,,*0F
$BDGSV,1,1,02,21,00,000,41,10,00,000,41*68
$LOGTIM,0,0.000000,0.000000,0.000000,0.000000,0.000*0A
EndT:        0
---00000104--- Acq_st=3 2019-5-25 07:09:57 
[16]  B21 1f 42    467.2 4091998.8  1.0  1.0  5  0 544200455
[17]  B10 1f 41   -235.0 4092000.5  1.0  1.0  5  0 544200419
$GNGGA,000000.000,,,,,0,00,,,M,,,,0000*2B
$GNRMC,000000.000,A,,,,,,,000000,,*26
$GPGSA,A,1,,,,,,,,,,,,,,,*1E
$BDGSA,A,1,,,,,,,,,,,,,,,*0F
$BDGSV,1,1,02,21,00,000,42,10,00,000,41*6B
$LOGTIM,0,0.000000,0.000000,0.000000,0.000000,0.000*0A
EndT:        0
---00000105--- Acq_st=3 2019-5-25 07:09:58 
[16]  B21 1f 42    465.6 4091998.7  1.0  1.0  5  0 544201455
[17]  B10 1f 40   -236.6 4092000.6  1.0  1.0  5  0 544201419
$GNGGA,000000.000,,,,,0,00,,,M,,,,0000*2B
$GNRMC,000000.000,A,,,,,,,000000,,*26
$GPGSA,A,1,,,,,,,,,,,,,,,*1E
$BDGSA,A,1,,,,,,,,,,,,,,,*0F
$BDGSV,1,1,02,21,00,000,42,10,00,000,40*6A
$LOGTIM,0,0.000000,0.000000,0.000000,0.000000,0.000*0A
EndT:        0
---00000106--- Acq_st=3 2019-5-25 07:09:59 
[16]  B21 1f 42    463.2 4091998.8  1.0  1.0  5  0 544202455
[17]  B10 1f 40   -239.7 4092000.6  1.0  1.0  5  0 544202419
$GNGGA,000000.000,,,,,0,00,,,M,,,,0000*2B
$GNRMC,000000.000,A,,,,,,,000000,,*26
$GPGSA,A,1,,,,,,,,,,,,,,,*1E
$BDGSA,A,1,,,,,,,,,,,,,,,*0F
$BDGSV,1,1,02,21,00,000,42,10,00,000,40*6A
$LOGTIM,0,0.000000,0.000000,0.000000,0.000000,0.000*0A
EndT:        0
---00000107--- Acq_st=3 2019-5-25 07:10:0 
[16]  B21 1f 42    461.2 4091998.8  1.0  1.0  5  0 544203455
[17]  B10 1f 40   -241.9 4092000.6  1.0  0.9  5  0 544203419
$GNGGA,000000.000,,,,,0,00,,,M,,,,0000*2B
$GNRMC,000000.000,A,,,,,,,000000,,*26
$GPGSA,A,1,,,,,,,,,,,,,,,*1E
$BDGSA,A,1,,,,,,,,,,,,,,,*0F
$BDGSV,1,1,02,21,00,000,42,10,00,000,40*6A
$LOGTIM,0,0.000000,0.000000,0.000000,0.000000,0.000*0A
EndT:        0
---00000108--- Acq_st=3 2019-5-25 07:10:1 
[16]  B21 1f 42    463.5 4091998.8  1.0  1.0  5  0 544204455
[17]  B10 1f 40   -239.7 4092000.6  1.0  1.0  5  0 544204419
$GNGGA,000000.000,,,,,0,00,,,M,,,,0000*2B
$GNRMC,000000.000,A,,,,,,,000000,,*26
$GPGSA,A,1,,,,,,,,,,,,,,,*1E
$BDGSA,A,1,,,,,,,,,,,,,,,*0F
$BDGSV,1,1,02,21,00,000,42,10,00,000,40*6A
$LOGTIM,0,0.000000,0.000000,0.000000,0.000000,0.000*0A
EndT:        0
---00000109--- Acq_st=3 2019-5-25 07:10:2 
[16]  B21 1f 42    467.1 4091998.7  1.0  1.0  5  0 544205455
[17]  B10 1f 40   -237.3 4092000.6  1.0  1.0  5  0 544205419
$GNGGA,000000.000,,,,,0,00,,,M,,,,0000*2B
$GNRMC,000000.000,A,,,,,,,000000,,*26
$GPGSA,A,1,,,,,,,,,,,,,,,*1E
$BDGSA,A,1,,,,,,,,,,,,,,,*0F
$BDGSV,1,1,02,21,00,000,42,10,00,000,40*6A
$LOGTIM,0,0.000000,0.000000,0.000000,0.000000,0.000*0A
EndT:        0
---00000110--- Acq_st=3 2019-5-25 07:10:3 
[16]  B21 1f 42    472.1 4091998.7  1.0  1.0  5  0 544206455
[17]  B10 1f 41   -232.1 4092000.6  1.0  1.0  5  0 544206419
$GNGGA,000000.000,,,,,0,00,,,M,,,,0000*2B
$GNRMC,000000.000,A,,,,,,,000000,,*26
$GPGSA,A,1,,,,,,,,,,,,,,,*1E
$BDGSA,A,1,,,,,,,,,,,,,,,*0F
$BDGSV,1,1,02,21,00,000,42,10,00,000,41*6B
$LOGTIM,0,0.000000,0.000000,0.000000,0.000000,0.000*0A
EndT:        0
---00000111--- Acq_st=3 2019-5-25 07:10:4 
[16]  B21 1f 42    473.3 4091998.7  1.0  1.0  5  0 544207455
[17]  B10 1f 40   -231.1 4092000.6  1.0  1.0  5  0 544207419
$GNGGA,000000.000,,,,,0,00,,,M,,,,0000*2B
$GNRMC,000000.000,A,,,,,,,000000,,*26
$GPGSA,A,1,,,,,,,,,,,,,,,*1E
$BDGSA,A,1,,,,,,,,,,,,,,,*0F
$BDGSV,1,1,02,21,00,000,42,10,00,000,40*6A
$LOGTIM,0,0.000000,0.000000,0.000000,0.000000,0.000*0A
EndT:        0
---00000112--- Acq_st=3 2019-5-25 07:10:5 
[16]  B21 1f 41    473.7 4091998.7  1.0  1.0  5  0 544208455
[17]  B10 1f 41   -231.4 4092000.6  1.0  1.0  5  0 544208419
$GNGGA,000000.000,,,,,0,00,,,M,,,,0000*2B
$GNRMC,000000.000,A,,,,,,,000000,,*26
$GPGSA,A,1,,,,,,,,,,,,,,,*1E
$BDGSA,A,1,,,,,,,,,,,,,,,*0F
$BDGSV,1,1,02,21,00,000,41,10,00,000,41*68
$LOGTIM,0,0.000000,0.000000,0.000000,0.000000,0.000*0A
EndT:        0
---00000113--- Acq_st=3 2019-5-25 07:10:6 
[16]  B21 1f 42    475.5 4091998.8  1.0  1.0  5  0 544209455
[17]  B10 1f 40   -230.1 4092000.6  1.0  1.0  5  0 544209419
$GNGGA,000000.000,,,,,0,00,,,M,,,,0000*2B
$GNRMC,000000.000,A,,,,,,,000000,,*26
$GPGSA,A,1,,,,,,,,,,,,,,,*1E
$BDGSA,A,1,,,,,,,,,,,,,,,*0F
$BDGSV,1,1,02,21,00,000,42,10,00,000,40*6A
$LOGTIM,0,0.000000,0.000000,0.000000,0.000000,0.000*0A
EndT:        0
---00000114--- Acq_st=3 2019-5-25 07:10:7 
[16]  B21 1f 42    474.8 4091998.7  1.0  1.0  5  0 544210455
[17]  B10 1f 41   -230.8 4092000.6  1.0  1.0  5  0 544210419
$GNGGA,000000.000,,,,,0,00,,,M,,,,0000*2B
$GNRMC,000000.000,A,,,,,,,000000,,*26
$GPGSA,A,1,,,,,,,,,,,,,,,*1E
$BDGSA,A,1,,,,,,,,,,,,,,,*0F
$BDGSV,1,1,02,21,00,000,42,10,00,000,41*6B
$LOGTIM,0,0.000000,0.000000,0.000000,0.000000,0.000*0A
EndT:        0
---00000115--- Acq_st=3 2019-5-25 07:10:8 
[16]  B21 1f 42    471.0 4091998.7  1.0  1.0  5  0 544211455
[17]  B10 1f 41   -235.0 4092000.6  1.0  1.0  5  0 544211419
$GNGGA,000000.000,,,,,0,00,,,M,,,,0000*2B
$GNRMC,000000.000,A,,,,,,,000000,,*26
$GPGSA,A,1,,,,,,,,,,,,,,,*1E
$BDGSA,A,1,,,,,,,,,,,,,,,*0F
$BDGSV,1,1,02,21,00,000,42,10,00,000,41*6B
$LOGTIM,0,0.000000,0.000000,0.000000,0.000000,0.000*0A
EndT:        0
---00000116--- Acq_st=3 2019-5-25 07:10:9 
[16]  B21 1f 42    474.2 4091998.7  1.0  1.0  5  0 544212455
[17]  B10 1f 40   -232.2 4092000.6  1.0  1.0  5  0 544212419
$GNGGA,000000.000,,,,,0,00,,,M,,,,0000*2B
$GNRMC,000000.000,A,,,,,,,000000,,*26
$GPGSA,A,1,,,,,,,,,,,,,,,*1E
$BDGSA,A,1,,,,,,,,,,,,,,,*0F
$BDGSV,1,1,02,21,00,000,42,10,00,000,40*6A
$LOGTIM,0,0.000000,0.000000,0.000000,0.000000,0.000*0A
EndT:        0
ch18 satid=44,max_freq = 0,max_mean = 6203,max_phase = 2126,max_value = 141449,acq ok1!
acq ok1 timeH = 0,timeL = 2227424408,freq_stage = 3
---00000117--- Acq_st=3 2019-5-25 07:10:10 
[16]  B21 1f 42    480.8 4091998.8  1.0  1.0  5  0 544213455
[17]  B10 1f 40   -225.6 4092000.6  1.0  1.0  5  0 544213419
[18]  B08  1 13   -617.8 4092000.0  0.0  0.0  1  0      3280
$GNGGA,000000.000,,,,,0,00,,,M,,,,0000*2B
$GNRMC,000000.000,A,,,,,,,000000,,*26
$GPGSA,A,1,,,,,,,,,,,,,,,*1E
$BDGSA,A,1,,,,,,,,,,,,,,,*0F
$BDGSV,1,1,02,21,00,000,42,10,00,000,40*6A
$LOGTIM,0,0.000000,0.000000,0.000000,0.000000,0.000*0A
EndT:        0
---00000118--- Acq_st=3 2019-5-25 07:10:11 
[16]  B21 1f 42    481.7 4091998.7  1.0  1.0  5  0 544214455
[17]  B10 1f 41   -225.2 4092000.6  1.0  1.0  5  0 544214419
[18]  B08  1  7     68.5 4091999.8 -0.0  0.0  1  0       192
$GNGGA,000000.000,,,,,0,00,,,M,,,,0000*2B
$GNRMC,000000.000,A,,,,,,,000000,,*26
$GPGSA,A,1,,,,,,,,,,,,,,,*1E
$BDGSA,A,1,,,,,,,,,,,,,,,*0F
$BDGSV,1,1,02,21,00,000,42,10,00,000,41*6B
$LOGTIM,0,0.000000,0.000000,0.000000,0.000000,0.000*0A
EndT:        0
---00000119--- Acq_st=3 2019-5-25 07:10:12 
[16]  B21 1f 41    483.7 4091998.7  1.0  1.0  5  0 544215455
[17]  B10 1f 40   -223.9 4092000.6  1.0  1.0  5  0 544215419
[18]  B08  1  9     27.1 4092000.1 -0.2  0.0  1  0      1192
$GNGGA,000000.000,,,,,0,00,,,M,,,,0000*2B
$GNRMC,000000.000,A,,,,,,,000000,,*26
$GPGSA,A,1,,,,,,,,,,,,,,,*1E
$BDGSA,A,1,,,,,,,,,,,,,,,*0F
$BDGSV,1,1,02,21,00,000,41,10,00,000,40*69
$LOGTIM,0,0.000000,0.000000,0.000000,0.000000,0.000*0A
EndT:        0
---00000120--- Acq_st=3 2019-5-25 07:10:13 
[16]  B21 1f 42    487.4 4091998.7  1.0  1.0  5  0 544216455
[17]  B10 1f 40   -220.4 4092000.6  1.0  1.0  5  0 544216419
[18]  B08  1  7   -292.7 4092000.3  0.0  0.0  1  0      2192
ch19 satid=47,max_freq = -1250,max_mean = 6057,max_phase = 3916,max_value = 86505,acq ok1!
acq ok1 timeH = 0,timeL = 2291508124,freq_stage = 4
$GNGGA,000000.000,,,,,0,00,,,M,,,,0000*2B
$GNRMC,000000.000,A,,,,,,,000000,,*26
$GPGSA,A,1,,,,,,,,,,,,,,,*1E
$BDGSA,A,1,,,,,,,,,,,,,,,*0F
$BDGSV,1,1,02,21,00,000,42,10,00,000,40*6A
$LOGTIM,0,0.000000,0.000000,0.000000,0.000000,0.000*0A
EndT:        0
---00000121--- Acq_st=3 2019-5-25 07:10:14 
[16]  B21 1f 42    487.5 4091998.7  1.0  1.0  5  0 544217455
[17]  B10 1f 40   -220.5 4092000.6  1.0  1.0  5  0 544217419
[19]  B11  1  7    855.6 4091999.7  0.0  0.0  1  0        13
$GNGGA,000000.000,,,,,0,00,,,M,,,,0000*2B
$GNRMC,000000.000,A,,,,,,,000000,,*26
$GPGSA,A,1,,,,,,,,,,,,,,,*1E
$BDGSA,A,1,,,,,,,,,,,,,,,*0F
$BDGSV,1,1,02,21,00,000,42,10,00,000,40*6A
$LOGTIM,0,0.000000,0.000000,0.000000,0.000000,0.000*0A
EndT:        0
---00000122--- Acq_st=3 2019-5-25 07:10:15 
[16]  B21 1f 42    486.8 4091998.7  1.0  1.0  5  0 544218455
[17]  B10 1f 40   -222.1 4092000.6  1.0  1.0  5  0 544218419
[19]  B11  7 29    853.7 4091997.7 -0.0  1.0  5  0      1013
$GNGGA,000000.000,,,,,0,00,,,M,,,,0000*2B
$GNRMC,000000.000,A,,,,,,,000000,,*26
$GPGSA,A,1,,,,,,,,,,,,,,,*1E
$BDGSA,A,1,,,,,,,,,,,,,,,*0F
$BDGSV,1,1,03,21,00,000,42,10,00,000,40,11,00,000,29*50
$LOGTIM,0,0.000000,0.000000,0.000000,0.000000,0.000*0A
EndT:        0
---00000123--- Acq_st=3 2019-5-25 07:10:16 
[16]  B21 1f 42    481.5 4091998.7  1.0  1.0  5  0 544219455
[17]  B10 1f 40   -227.7 4092000.5  1.0  1.0  5  0 544219419
[19]  B11  7 42    848.5 4091997.7  1.0  1.0  5  0      2003
$GNGGA,000000.000,,,,,0,00,,,M,,,,0000*2B
$GNRMC,000000.000,A,,,,,,,000000,,*26
$GPGSA,A,1,,,,,,,,,,,,,,,*1E
$BDGSA,A,1,,,,,,,,,,,,,,,*0F
$BDGSV,1,1,03,21,00,000,42,10,00,000,40,11,00,000,42*5D
$LOGTIM,0,0.000000,0.000000,0.000000,0.000000,0.000*0A
EndT:        0
ch18 satid=49,max_freq = 250,max_mean = 6282,max_phase = 3152,max_value = 37292,acq ok1!
acq ok1 timeH = 0,timeL = 2346442505,freq_stage = 3
---00000124--- Acq_st=3 2019-5-25 07:10:17 
[16]  B21 1f 42    475.7 4091998.8  1.0  1.0  5  0 544220455
[17]  B10 1f 40   -233.6 4092000.6  1.0  1.0  5  0 544220419
[18]  B13  1  7   -450.7 4092002.6 -0.0  0.0  1  0      3192
[19]  B11  7 42    842.5 4091997.7  1.0  1.0  5  0      3003
$GNGGA,000000.000,,,,,0,00,,,M,,,,0000*2B
$GNRMC,000000.000,A,,,,,,,000000,,*26
$GPGSA,A,1,,,,,,,,,,,,,,,*1E
$BDGSA,A,1,,,,,,,,,,,,,,,*0F
$BDGSV,1,1,03,21,00,000,42,10,00,000,40,11,00,000,42*5D
$LOGTIM,0,0.000000,0.000000,0.000000,0.000000,0.000*0A
EndT:        0
---00000125--- Acq_st=3 2019-5-25 07:10:18 
[16]  B21 1f 42    470.3 4091998.7  1.0  1.0  5  0 544221455
[17]  B10 1f 40   -239.1 4092000.7  1.0  1.0  5  0 544221419
[18]  B13  7 25   -488.5 4092001.3  0.2  0.0 20  0       834
[19]  B11  7 42    836.5 4091997.8  1.0  1.0  5  0      4003
$GNGGA,000000.000,,,,,0,00,,,M,,,,0000*2B
$GNRMC,000000.000,A,,,,,,,000000,,*26
$GPGSA,A,1,,,,,,,,,,,,,,,*1E
$BDGSA,A,1,,,,,,,,,,,,,,,*0F
$BDGSV,1,1,04,21,00,000,42,10,00,000,40,13,00,000,25,11,00,000,42*6F
$LOGTIM,0,0.000000,0.000000,0.000000,0.000000,0.000*0A
EndT:        0
---00000126--- Acq_st=3 2019-5-25 07:10:19 
[16]  B21 1f 42    468.6 4091998.8  1.0  1.0  5  0 544222455
[17]  B10 1f 40   -240.9 4092000.6  1.0  1.0  5  0 544222419
[18]  B13  7 38   -490.3 4092001.2  0.8  1.0  5  0      1834
[19]  B11  7 42    834.8 4091997.8  1.0  1.0  5  0      5003
$GNGGA,000000.000,,,,,0,00,,,M,,,,0000*2B
$GNRMC,000000.000,A,,,,,,,000000,,*26
$GPGSA,A,1,,,,,,,,,,,,,,,*1E
$BDGSA,A,1,,,,,,,,,,,,,,,*0F
$BDGSV,1,1,04,21,00,000,42,10,00,000,40,13,00,000,38,11,00,000,42*63
$LOGTIM,0,0.000000,0.000000,0.000000,0.000000,0.000*0A
EndT:        0
---00000127--- Acq_st=3 2019-5-25 07:10:20 
[16]  B21 1f 41    474.3 4091998.8  1.0  1.0  5  0 544223455
[17]  B10 1f 40   -235.6 4092000.6  1.0  1.0  5  0 544223419
[18]  B13  7 38   -485.1 4092001.2  1.0  1.0  5  0      2834
[19]  B11  7 42    840.2 4091997.8  1.0  1.0  5  0      6003
$GNGGA,000000.000,,,,,0,00,,,M,,,,0000*2B
$GNRMC,000000.000,A,,,,,,,000000,,*26
$GPGSA,A,1,,,,,,,,,,,,,,,*1E
$BDGSA,A,1,,,,,,,,,,,,,,,*0F
$BDGSV,1,1,04,21,00,000,41,10,00,000,40,13,00,000,38,11,00,000,42*60
$LOGTIM,0,0.000000,0.000000,0.000000,0.000000,0.000*0A
EndT:        0
---00000128--- Acq_st=3 2019-5-25 07:10:21 
[16]  B21 1f 42    480.8 4091998.7  1.0  1.0  5  0 544224455
[17]  B10 1f 40   -229.2 4092000.6  1.0  1.0  5  0 544224419
[18]  B13 1f 38   -479.3 4092001.3  1.0  1.0  5  0      3834
[19]  B11 1f 41    846.2 4091997.8  1.0  1.0  5  0      7003
$GNGGA,000000.000,,,,,0,00,,,M,,,,0000*2B
$GNRMC,000000.000,A,,,,,,,000000,,*26
$GPGSA,A,1,,,,,,,,,,,,,,,*1E
$BDGSA,A,1,,,,,,,,,,,,,,,*0F
$BDGSV,1,1,04,21,00,000,42,10,00,000,40,13,00,000,38,11,00,000,41*60
$LOGTIM,0,0.000000,0.000000,0.000000,0.000000,0.000*0A
EndT:        0
---00000129--- Acq_st=3 2019-5-25 07:10:22 
[16]  B21 1f 42    481.2 4091998.7  1.0  1.0  5  0 544225455
[17]  B10 1f 40   -229.0 4092000.6  1.0  1.0  5  0 544225419
[18]  B13 1f 38   -478.8 4092001.2  1.0  1.0  5  0 544225414
[19]  B11 1f 41    845.9 4091997.8  1.0  1.0  5  0 544225463
$GNGGA,000000.000,,,,,0,00,,,M,,,,0000*2B
$GNRMC,000000.000,A,,,,,,,000000,,*26
$GPGSA,A,1,,,,,,,,,,,,,,,*1E
$BDGSA,A,1,,,,,,,,,,,,,,,*0F
$BDGSV,1,1,04,21,00,000,42,10,00,000,40,13,00,000,38,11,00,000,41*60
$LOGTIM,0,0.000000,0.000000,0.000000,0.000000,0.000*0A
EndT:        0
---00000130--- Acq_st=3 2019-5-25 07:10:23 
[16]  B21 1f 42    477.5 4091998.7  1.0  0.9  5  0 544226455
[17]  B10 1f 40   -233.8 4092000.6  1.0  1.0  5  0 544226419
[18]  B13 1f 37   -483.6 4092001.3  1.0  0.9  5  0 544226414
[19]  B11 1f 42    841.7 4091997.8  1.0  1.0  5  0 544226463
$GNGGA,000000.000,,,,,0,00,,,M,,,,0000*2B
$GNRMC,000000.000,A,,,,,,,000000,,*26
$GPGSA,A,1,,,,,,,,,,,,,,,*1E
$BDGSA,A,1,,,,,,,,,,,,,,,*0F
$BDGSV,1,1,04,21,00,000,42,10,00,000,40,13,00,000,37,11,00,000,42*6C
$LOGTIM,0,0.000000,0.000000,0.000000,0.000000,0.000*0A
EndT:        0
---00000131--- Acq_st=3 2019-5-25 07:10:24 
[16]  B21 1f 42    473.3 4091998.8  1.0  1.0  5  0 544227455
[17]  B10 1f 40   -238.3 4092000.6  1.0  1.0  5  0 544227419
[18]  B13 1f 37   -487.5 4092001.3  1.0  1.0  5  0 544227414
[19]  B11 1f 42    837.4 4091997.8  1.0  1.0  5  0 544227463
$GNGGA,000000.000,,,,,0,00,,,M,,,,0000*2B
$GNRMC,000000.000,A,,,,,,,000000,,*26
$GPGSA,A,1,,,,,,,,,,,,,,,*1E
$BDGSA,A,1,,,,,,,,,,,,,,,*0F
$BDGSV,1,1,04,21,00,000,42,10,00,000,40,13,00,000,37,11,00,000,42*6C
$LOGTIM,0,0.000000,0.000000,0.000000,0.000000,0.000*0A
EndT:        0
---00000132--- Acq_st=3 2019-5-25 07:10:25 
[16]  B21 1f 42    472.4 4091998.8  1.0  1.0  5  0 544228455
[17]  B10 1f 40   -239.8 4092000.6  1.0  1.0  5  0 544228419
[18]  B13 1f 37   -489.1 4092001.3  1.0  1.0  5  0 544228414
[19]  B11 1f 42    836.4 4091997.8  1.0  1.0  5  0 544228463
$GNGGA,000000.000,,,,,0,00,,,M,,,,0000*2B
$GNRMC,000000.000,A,,,,,,,000000,,*26
$GPGSA,A,1,,,,,,,,,,,,,,,*1E
$BDGSA,A,1,,,,,,,,,,,,,,,*0F
$BDGSV,1,1,04,21,00,000,42,10,00,000,40,13,00,000,37,11,00,000,42*6C
$LOGTIM,0,0.000000,0.000000,0.000000,0.000000,0.000*0A
EndT:        0
---00000133--- Acq_st=3 2019-5-25 07:10:26 
[16]  B21 1f 41    473.4 4091998.8  1.0  1.0  5  0 544229455
[17]  B10 1f 40   -238.9 4092000.6  1.0  1.0  5  0 544229419
[18]  B13 1f 38   -488.3 4092001.3  1.0  1.0  5  0 544229414
[19]  B11 1f 42    836.4 4091997.8  1.0  1.0  5  0 544229463
$GNGGA,000000.000,,,,,0,00,,,M,,,,0000*2B
$GNRMC,000000.000,A,,,,,,,000000,,*26
$GPGSA,A,1,,,,,,,,,,,,,,,*1E
$BDGSA,A,1,,,,,,,,,,,,,,,*0F
$BDGSV,1,1,04,21,00,000,41,10,00,000,40,13,00,000,38,11,00,000,42*60
$LOGTIM,0,0.000000,0.000000,0.000000,0.000000,0.000*0A
EndT:        0
---00000134--- Acq_st=3 2019-5-25 07:10:27 
[16]  B21 1f 41    473.3 4091998.8  1.0  1.0  5  0 544230455
[17]  B10 1f 40   -239.4 4092000.6  1.0  1.0  5  0 544230419
[18]  B13 1f 37   -488.7 4092001.2  1.0  1.0  5  0 544230414
[19]  B11 1f 42    835.9 4091997.8  1.0  1.0  5  0 544230463
$GNGGA,000000.000,,,,,0,00,,,M,,,,0000*2B
$GNRMC,000000.000,A,,,,,,,000000,,*26
$GPGSA,A,1,,,,,,,,,,,,,,,*1E
$BDGSA,A,1,,,,,,,,,,,,,,,*0F
$BDGSV,1,1,04,21,00,000,41,10,00,000,40,13,00,000,37,11,00,000,42*6F
$LOGTIM,0,0.000000,0.000000,0.000000,0.000000,0.000*0A
EndT:        0
---00000135--- Acq_st=3 2019-5-25 07:10:28 
[16]  B21 1f 42    476.0 4091998.8  1.0  1.0  5  0 544231455
[17]  B10 1f 40   -236.8 4092000.6  1.0  1.0  5  0 544231419
[18]  B13 1f 37   -486.5 4092001.3  1.0  1.1  5  0 544231414
[19]  B11 1f 42    838.4 4091997.8  1.0  1.0  5  0 544231463
$GNGGA,000000.000,,,,,0,00,,,M,,,,0000*2B
$GNRMC,000000.000,A,,,,,,,000000,,*26
$GPGSA,A,1,,,,,,,,,,,,,,,*1E
$BDGSA,A,1,,,,,,,,,,,,,,,*0F
$BDGSV,1,1,04,21,00,000,42,10,00,000,40,13,00,000,37,11,00,000,42*6C
$LOGTIM,0,0.000000,0.000000,0.000000,0.000000,0.000*0A
EndT:        0
---00000136--- Acq_st=3 2019-5-25 07:10:29 
[16]  B21 1f 41    475.0 4091998.7  1.0  1.0  5  0 544232455
[17]  B10 1f 40   -238.2 4092000.6  1.0  1.0  5  0 544232419
[18]  B13 1f 37   -487.8 4092001.3  1.0  1.0  5  0 544232414
[19]  B11 1f 42    836.7 4091997.8  1.0  1.0  5  0 544232463
$GNGGA,000000.000,,,,,0,00,,,M,,,,0000*2B
$GNRMC,000000.000,A,,,,,,,000000,,*26
$GPGSA,A,1,,,,,,,,,,,,,,,*1E
$BDGSA,A,1,,,,,,,,,,,,,,,*0F
$BDGSV,1,1,04,21,00,000,41,10,00,000,40,13,00,000,37,11,00,000,42*6F
$LOGTIM,0,0.000000,0.000000,0.000000,0.000000,0.000*0A
EndT:        0
---00000137--- Acq_st=3 2019-5-25 07:10:30 
[16]  B21 1f 41    474.3 4091998.8  1.0  1.0  5  0 544233455
[17]  B10 1f 40   -239.4 4092000.6  1.0  1.0  5  0 544233419
[18]  B13 1f 37   -489.2 4092001.4  1.0  0.9  5  0 544233414
[19]  B11 1f 42    835.4 4091997.8  1.0  1.0  5  0 544233463
$GNGGA,000000.000,,,,,0,00,,,M,,,,0000*2B
$GNRMC,000000.000,A,,,,,,,000000,,*26
$GPGSA,A,1,,,,,,,,,,,,,,,*1E
$BDGSA,A,1,,,,,,,,,,,,,,,*0F
$BDGSV,1,1,04,21,00,000,41,10,00,000,40,13,00,000,37,11,00,000,42*6F
$LOGTIM,0,0.000000,0.000000,0.000000,0.000000,0.000*0A
EndT:        0
ch20 satid=59,max_freq = -1250,max_mean = 6219,max_phase = 2847,max_value = 89969,acq ok1!
acq ok1 timeH = 0,timeL = 2627194812,freq_stage = 4
---00000138--- Acq_st=3 2019-5-25 07:10:31 
[16]  B21 1f 41    477.9 4091998.7  1.0  1.0  5  0 544234455
[17]  B10 1f 40   -236.0 4092000.6  1.0  1.0  5  0 544234419
[18]  B13 1f 37   -485.9 4092001.2  1.0  1.0  5  0 544234414
[19]  B11 1f 42    838.5 4091997.7  1.0  1.0  5  0 544234463
[20]  B23  1  7   1021.0 4091999.2 -0.0  0.0  1  0         0
$GNGGA,000000.000,,,,,0,00,,,M,,,,0000*2B
$GNRMC,000000.000,A,,,,,,,000000,,*26
$GPGSA,A,1,,,,,,,,,,,,,,,*1E
$BDGSA,A,1,,,,,,,,,,,,,,,*0F
$BDGSV,1,1,04,21,00,000,41,10,00,000,40,13,00,000,37,11,00,000,42*6F
$LOGTIM,0,0.000000,0.000000,0.000000,0.000000,0.000*0A
EndT:        0
---00000139--- Acq_st=3 2019-5-25 07:10:32 
[16]  B21 1f 41    484.4 4091998.7  1.0  1.0  5  0 544235455
[17]  B10 1f 40   -230.5 4092000.6  1.0  1.0  5  0 544235419
[18]  B13 1f 37   -480.8 4092001.3  1.0  1.0  5  0 544235414
[19]  B11 1f 42    844.1 4091997.7  1.0  1.0  5  0 544235463
[20]  B23  7  7    795.4 4091997.8  0.1  0.0 10  0       529
$GNGGA,000000.000,,,,,0,00,,,M,,,,0000*2B
$GNRMC,000000.000,A,,,,,,,000000,,*26
