FlashID=0x1 0x20 0x18
BBram_blkflag1: 41bc: be43
FW Ver: 1.30  
GPS00 Init Dop:   5000, 40
GPS01 Init Dop:   5000, 40
GPS02 Init Dop:   5000, 40
GPS03 Init Dop:   5000, 40
GPS04 Init Dop:   5000, 40
GPS05 Init Dop:   5000, 40
GPS06 Init Dop:   5000, 40
GPS07 Init Dop:   5000, 40
GPS08 Init Dop:   5000, 40
GPS09 Init Dop:   5000, 40
GPS10 Init Dop:   5000, 40
GPS11 Init Dop:   5000, 40
GPS12 Init Dop:   5000, 40
GPS13 Init Dop:   5000, 40
GPS14 Init Dop:   5000, 40
GPS15 Init Dop:   5000, 40
GPS16 Init Dop:   5000, 40
GPS17 Init Dop:   5000, 40
GPS18 Init Dop:   5000, 40
GPS19 Init Dop:   5000, 40
GPS20 Init Dop:   5000, 40
GPS21 Init Dop:   5000, 40
GPS22 Init Dop:   5000, 40
GPS23 Init Dop:   5000, 40
GPS24 Init Dop:   5000, 40
GPS25 Init Dop:   5000, 40
GPS26 Init Dop:   5000, 40
GPS27 Init Dop:   5000, 40
GPS28 Init Dop:   5000, 40
GPS29 Init Dop:   5000, 40
GPS30 Init Dop:   5000, 40
GPS31 Init Dop:   5000, 40
BDS00 Init Dop:   5000, 40
BDS01 Init Dop:   5000, 40
BDS02 Init Dop:   5000, 40
BDS03 Init Dop:   5000, 40
BDS04 Init Dop:   5000, 40
BDS05 Init Dop:   5000, 40
BDS06 Init Dop:   5000, 40
BDS07 Init Dop:   5000, 40
BDS08 Init Dop:   5000, 40
BDS09 Init Dop:   5000, 40
BDS10 Init Dop:   5000, 40
BDS11 Init Dop:   5000, 40
BDS12 Init Dop:   5000, 40
BDS13 Init Dop:   5000, 40
BDS14 Init Dop:   5000, 40
BDS15 Init Dop:   5000, 40
BDS16 Init Dop:   5000, 40
BDS17 Init Dop:   5000, 40
BDS18 Init Dop:   5000, 40
BDS19 Init Dop:   5000, 40
BDS20 Init Dop:   5000, 40
BDS21 Init Dop:   5000, 40
BDS22 Init Dop:   5000, 40
BDS23 Init Dop:   5000, 40
BDS24 Init Dop:   5000, 40
BDS25 Init Dop:   5000, 40
BDS26 Init Dop:   5000, 40
BDS27 Init Dop:   5000, 40
BDS28 Init Dop:   5000, 40
BDS29 Init Dop:   5000, 40
BDS30 Init Dop:   5000, 40
BDS31 Init Dop:   5000, 40
---00000001--- Acq_st=3 2019-5-25 03:06:24 
$GNGGA,000000.000,,,,,0,00,,,M,,,,0000*2B
$GNRMC,000000.000,A,,,,,,,000000,,*26
$GPGSA,A,1,,,,,,,,,,,,,,,*1E
$BDGSA,A,1,,,,,,,,,,,,,,,*0F
$LOGTIM,0,0.000000,0.000000,0.000000,0.000000,0.000*0A
EndT:        0
---00000002--- Acq_st=3 2019-5-25 03:06:25 
$GNGGA,000000.000,,,,,0,00,,,M,,,,0000*2B
$GNRMC,000000.000,A,,,,,,,000000,,*26
$GPGSA,A,1,,,,,,,,,,,,,,,*1E
$BDGSA,A,1,,,,,,,,,,,,,,,*0F
$LOGTIM,0,0.000000,0.000000,0.000000,0.000000,0.000*0A
EndT:        0
---00000003--- Acq_st=3 2019-5-25 03:06:26 
$GNGGA,000000.000,,,,,0,00,,,M,,,,0000*2B
$GNRMC,000000.000,A,,,,,,,000000,,*26
$GPGSA,A,1,,,,,,,,,,,,,,,*1E
$BDGSA,A,1,,,,,,,,,,,,,,,*0F
$LOGTIM,0,0.000000,0.000000,0.000000,0.000000,0.000*0A
EndT:        0
---00000004--- Acq_st=3 2019-5-25 03:06:27 
$GNGGA,000000.000,,,,,0,00,,,M,,,,0000*2B
$GNRMC,000000.000,A,,,,,,,000000,,*26
$GPGSA,A,1,,,,,,,,,,,,,,,*1E
$BDGSA,A,1,,,,,,,,,,,,,,,*0F
$LOGTIM,0,0.000000,0.000000,0.000000,0.000000,0.000*0A
EndT:        0
---00000005--- Acq_st=3 2019-5-25 03:06:28 
$GNGGA,000000.000,,,,,0,00,,,M,,,,0000*2B
$GNRMC,000000.000,A,,,,,,,000000,,*26
$GPGSA,A,1,,,,,,,,,,,,,,,*1E
$BDGSA,A,1,,,,,,,,,,,,,,,*0F
$LOGTIM,0,0.000000,0.000000,0.000000,0.000000,0.000*0A
EndT:        0
ch0 satid=6,max_freq = 3250,max_mean = 22225,max_phase = 419,max_value = 935281,acq ok1!
acq ok1 timeH = 0,timeL = 92895248,freq_stage = 1
---00000006--- Acq_st=3 2019-5-25 03:06:29 
[00]  G07  1 15  -3254.9 2046006.5 -0.1  0.0  1  0         0
$GNGGA,000000.000,,,,,0,00,,,M,,,,0000*2B
$GNRMC,000000.000,A,,,,,,,000000,,*26
$GPGSA,A,1,,,,,,,,,,,,,,,*1E
$BDGSA,A,1,,,,,,,,,,,,,,,*0F
$LOGTIM,0,0.000000,0.000000,0.000000,0.000000,0.000*0A
EndT:        0
ch1 satid=7,max_freq = 750,max_mean = 21576,max_phase = 724,max_value = 1099939,acq ok1!
acq ok1 timeH = 0,timeL = 114531940,freq_stage = 3
---00000007--- Acq_st=3 2019-5-25 03:06:30 
[00]  G07  7  7  -3271.3 2046004.1  0.1  0.0 10  0        16
[01]  G08  1 21   -673.1 2046001.9  0.0  0.0  1  0         0
$GNGGA,000000.000,,,,,0,00,,,M,,,,0000*2B
$GNRMC,000000.000,A,,,,,,,000000,,*26
$GPGSA,A,1,,,,,,,,,,,,,,,*1E
$BDGSA,A,1,,,,,,,,,,,,,,,*0F
$LOGTIM,0,0.000000,0.000000,0.000000,0.000000,0.000*0A
EndT:        0
ch2 satid=8,max_freq = -750,max_mean = 21989,max_phase = 18,max_value = 208962,acq ok1!
acq ok1 timeH = 0,timeL = 129991820,freq_stage = 3
---00000008--- Acq_st=3 2019-5-25 03:06:31 
[00]  G07  7 46  -3273.2 2046004.1  0.9  1.0  5  0         7
[01]  G08  7 23   -662.1 2046000.8  0.2  0.0 20  0        10
[02]  G09  1 29    772.3 2045999.8  0.0  0.0  1  0         0
$GNGGA,000000.000,,,,,0,00,,,M,,,,0000*2B
$GNRMC,000000.000,A,,,,,,,000000,,*26
$GPGSA,A,1,,,,,,,,,,,,,,,*1E
$BDGSA,A,1,,,,,,,,,,,,,,,*0F
$GPGSV,1,1,02,07,00,000,46,08,00,000,23*77
$LOGTIM,0,0.000000,0.000000,0.000000,0.000000,0.000*0A
EndT:        0
---00000009--- Acq_st=3 2019-5-25 03:06:32 
[00]  G07  7 46  -3276.5 2046004.2  1.0  1.0  5  0         7
[01]  G08  7 46   -665.4 2046000.8  0.6  1.0  5  0        13
$GNGGA,000000.000,,,,,0,00,,,M,,,,0000*2B
$GNRMC,000000.000,A,,,,,,,000000,,*26
$GPGSA,A,1,,,,,,,,,,,,,,,*1E
$BDGSA,A,1,,,,,,,,,,,,,,,*0F
$GPGSV,1,1,02,07,00,000,46,08,00,000,46*74
$LOGTIM,0,0.000000,0.000000,0.000000,0.000000,0.000*0A
EndT:        0
---00000010--- Acq_st=3 2019-5-25 03:06:33 
[00]  G07  7 46  -3273.8 2046004.2  1.0  1.0  5  0         7
[01]  G08  7 47   -662.7 2046000.9  1.0  1.0  5  0        13
$GNGGA,000000.000,,,,,0,00,,,M,,,,0000*2B
$GNRMC,000000.000,A,,,,,,,000000,,*26
$GPGSA,A,1,,,,,,,,,,,,,,,*1E
$BDGSA,A,1,,,,,,,,,,,,,,,*0F
$GPGSV,1,1,02,07,00,000,46,08,00,000,47*75
$LOGTIM,0,0.000000,0.000000,0.000000,0.000000,0.000*0A
EndT:        0
---00000011--- Acq_st=3 2019-5-25 03:06:34 
[00]  G07  7 46  -3276.6 2046004.2  1.0  1.0  5  0         7
[01]  G08  7 47   -665.2 2046000.9  1.0  1.0  5  0        13
$GNGGA,000000.000,,,,,0,00,,,M,,,,0000*2B
$GNRMC,000000.000,A,,,,,,,000000,,*26
$GPGSA,A,1,,,,,,,,,,,,,,,*1E
$BDGSA,A,1,,,,,,,,,,,,,,,*0F
$GPGSV,1,1,02,07,00,000,46,08,00,000,47*75
$LOGTIM,0,0.000000,0.000000,0.000000,0.000000,0.000*0A
EndT:        0
---00000012--- Acq_st=3 2019-5-25 03:06:35 
[00]  G07  7 46  -3279.3 2046004.2  1.0  1.0  5  0         7
[01]  G08  7 46   -667.3 2046000.9  1.0  1.0  5  0        13
$GNGGA,000000.000,,,,,0,00,,,M,,,,0000*2B
$GNRMC,000000.000,A,,,,,,,000000,,*26
$GPGSA,A,1,,,,,,,,,,,,,,,*1E
$BDGSA,A,1,,,,,,,,,,,,,,,*0F
$GPGSV,1,1,02,07,00,000,46,08,00,000,46*74
$LOGTIM,0,0.000000,0.000000,0.000000,0.000000,0.000*0A
EndT:        0
---00000013--- Acq_st=3 2019-5-25 03:06:36 
[00]  G07  7 46  -3278.8 2046004.3  1.0  1.0  5  0         7
[01]  G08  7 46   -666.6 2046000.9  1.0  1.0  5  0        13
$GNGGA,000000.000,,,,,0,00,,,M,,,,0000*2B
$GNRMC,000000.000,A,,,,,,,000000,,*26
$GPGSA,A,1,,,,,,,,,,,,,,,*1E
$BDGSA,A,1,,,,,,,,,,,,,,,*0F
$GPGSV,1,1,02,07,00,000,46,08,00,000,46*74
$LOGTIM,0,0.000000,0.000000,0.000000,0.000000,0.000*0A
EndT:        0
---00000014--- Acq_st=3 2019-5-25 03:06:37 
[00]  G07  f 46  -3278.8 2046004.3  1.0  1.0  5  0         7
[01]  G08  f 46   -666.5 2046000.9  1.0  1.0  5  0        13
$GNGGA,000000.000,,,,,0,00,,,M,,,,0000*2B
$GNRMC,000000.000,A,,,,,,,000000,,*26
$GPGSA,A,1,,,,,,,,,,,,,,,*1E
$BDGSA,A,1,,,,,,,,,,,,,,,*0F
$GPGSV,1,1,02,07,00,000,46,08,00,000,46*74
$LOGTIM,0,0.000000,0.000000,0.000000,0.000000,0.000*0A
EndT:        0
---00000015--- Acq_st=3 2019-5-25 03:06:38 
[00]  G07  f 46  -3278.5 2046004.3  1.0  1.0  5  0 529615347
[01]  G08  f 47   -666.0 2046000.9  1.0  1.0  5  0 529615353
$GNGGA,000000.000,,,,,0,00,,,M,,,,0000*2B
$GNRMC,000000.000,A,,,,,,,000000,,*26
$GPGSA,A,1,,,,,,,,,,,,,,,*1E
$BDGSA,A,1,,,,,,,,,,,,,,,*0F
$GPGSV,1,1,02,07,00,000,46,08,00,000,47*75
$LOGTIM,0,0.000000,0.000000,0.000000,0.000000,0.000*0A
EndT:        0
---00000016--- Acq_st=3 2019-5-25 03:06:39 
[00]  G07  f 46  -3276.6 2046004.3  1.0  1.0  5  0 529616347
[01]  G08  f 46   -663.6 2046000.9  1.0  1.0  5  0 529616353
$GNGGA,000000.000,,,,,0,00,,,M,,,,0000*2B
$GNRMC,000000.000,A,,,,,,,000000,,*26
$GPGSA,A,1,,,,,,,,,,,,,,,*1E
$BDGSA,A,1,,,,,,,,,,,,,,,*0F
$GPGSV,1,1,02,07,00,000,46,08,00,000,46*74
$LOGTIM,0,0.000000,0.000000,0.000000,0.000000,0.000*0A
EndT:        0
ch2 satid=20,max_freq = -2500,max_mean = 22444,max_phase = 792,max_value = 99029,acq ok1!
acq ok1 timeH = 0,timeL = 318598574,freq_stage = 4
---00000017--- Acq_st=3 2019-5-25 03:06:40 
[00]  G07  f 46  -3276.1 2046004.3  1.0  1.0  5  0 529617347
[01]  G08  f 46   -663.2 2046000.9  1.0  1.0  5  0 529617353
[02]  G21  1  7   2403.9 2045997.8  0.0  0.0  1  0         6
$GNGGA,000000.000,,,,,0,00,,,M,,,,0000*2B
$GNRMC,000000.000,A,,,,,,,000000,,*26
$GPGSA,A,1,,,,,,,,,,,,,,,*1E
$BDGSA,A,1,,,,,,,,,,,,,,,*0F
$GPGSV,1,1,02,07,00,000,46,08,00,000,46*74
$LOGTIM,0,0.000000,0.000000,0.000000,0.000000,0.000*0A
EndT:        0
---00000018--- Acq_st=3 2019-5-25 03:06:41 
[00]  G07  f 46  -3275.1 2046004.3  1.0  1.0  5  0 529618347
[01]  G08  f 46   -661.9 2046000.8  1.0  1.0  5  0 529618353
[02]  G21  1 23   2440.1 2045998.1 -0.0  0.0  1  0         3
$GNGGA,000000.000,,,,,0,00,,,M,,,,0000*2B
$GNRMC,000000.000,A,,,,,,,000000,,*26
$GPGSA,A,1,,,,,,,,,,,,,,,*1E
$BDGSA,A,1,,,,,,,,,,,,,,,*0F
$GPGSV,1,1,02,07,00,000,46,08,00,000,46*74
$LOGTIM,0,0.000000,0.000000,0.000000,0.000000,0.000*0A
EndT:        0
---00000019--- Acq_st=3 2019-5-25 03:06:42 
[00]  G07  f 45  -3273.6 2046004.2  1.0  1.0  5  0 529619347
[01]  G08  f 46   -660.0 2046000.8  1.0  1.0  5  0 529619353
[02]  G21  1 24   2442.1 2045996.8  0.0  0.0  1  0         3
$GNGGA,000000.000,,,,,0,00,,,M,,,,0000*2B
$GNRMC,000000.000,A,,,,,,,000000,,*26
$GPGSA,A,1,,,,,,,,,,,,,,,*1E
$BDGSA,A,1,,,,,,,,,,,,,,,*0F
$GPGSV,1,1,02,07,00,000,45,08,00,000,46*77
$LOGTIM,0,0.000000,0.000000,0.000000,0.000000,0.000*0A
EndT:        0
---00000020--- Acq_st=3 2019-5-25 03:06:43 
[00]  G07  f 46  -3278.7 2046004.3  1.0  1.0  5  0 529620347
[01]  G08  f 46   -665.1 2046000.9  1.0  1.0  5  0 529620353
[02]  G21  7 30   2444.5 2045996.8  0.2  0.9  5  0         3
$GNGGA,000000.000,,,,,0,00,,,M,,,,0000*2B
$GNRMC,000000.000,A,,,,,,,000000,,*26
$GPGSA,A,1,,,,,,,,,,,,,,,*1E
$BDGSA,A,1,,,,,,,,,,,,,,,*0F
$GPGSV,1,1,03,07,00,000,46,08,00,000,46,21,00,000,30*45
$LOGTIM,0,0.000000,0.000000,0.000000,0.000000,0.000*0A
EndT:        0
---00000021--- Acq_st=3 2019-5-25 03:06:44 
[00]  G07  f 46  -3282.7 2046004.3  1.0  1.0  5  0 529621347
[01]  G08  f 47   -668.8 2046000.9  1.0  1.0  5  0 529621353
[02]  G21  7 35   2440.0 2045996.8  1.0  0.9  5  0        14
$GNGGA,000000.000,,,,,0,00,,,M,,,,0000*2B
$GNRMC,000000.000,A,,,,,,,000000,,*26
$GPGSA,A,1,,,,,,,,,,,,,,,*1E
$BDGSA,A,1,,,,,,,,,,,,,,,*0F
$GPGSV,1,1,03,07,00,000,46,08,00,000,47,21,00,000,35*41
$LOGTIM,0,0.000000,0.000000,0.000000,0.000000,0.000*0A
EndT:        0
ch3 satid=26,max_freq = -1500,max_mean = 22703,max_phase = 1689,max_value = 148956,acq ok1!
acq ok1 timeH = 0,timeL = 411357880,freq_stage = 4
---00000022--- Acq_st=3 2019-5-25 03:06:45 
[00]  G07  f 45  -3281.5 2046004.3  1.0  1.0  5  0 529622347
[01]  G08  f 47   -667.5 2046000.9  1.0  1.0  5  0 529622353
[02]  G21  7 35   2441.4 2045996.8  1.0  0.9  5  0        14
[03]  G27  1 10   1526.5 2045999.4 -0.1  0.0  1  0         0
$GNGGA,000000.000,,,,,0,00,,,M,,,,0000*2B
$GNRMC,000000.000,A,,,,,,,000000,,*26
$GPGSA,A,1,,,,,,,,,,,,,,,*1E
$BDGSA,A,1,,,,,,,,,,,,,,,*0F
$GPGSV,1,1,03,07,00,000,45,08,00,000,47,21,00,000,35*42
$LOGTIM,0,0.000000,0.000000,0.000000,0.000000,0.000*0A
EndT:        0
---00000023--- Acq_st=3 2019-5-25 03:06:46 
[00]  G07  f 46  -3277.6 2046004.3  1.0  1.0  5  0 529623347
[01]  G08  f 47   -663.0 2046000.8  1.0  1.0  5  0 529623353
[02]  G21  7 35   2444.4 2045996.8  1.0  1.0  5  0        14
[03]  G27  1 34   1545.9 2045997.8  0.2  0.0  1  0        11
$GNGGA,000000.000,,,,,0,00,,,M,,,,0000*2B
$GNRMC,000000.000,A,,,,,,,000000,,*26
$GPGSA,A,1,,,,,,,,,,,,,,,*1E
$BDGSA,A,1,,,,,,,,,,,,,,,*0F
$GPGSV,1,1,03,07,00,000,46,08,00,000,47,21,00,000,35*41
$LOGTIM,0,0.000000,0.000000,0.000000,0.000000,0.000*0A
EndT:        0
---00000024--- Acq_st=3 2019-5-25 03:06:47 
[00]  G07  f 46  -3273.5 2046004.2  1.0  1.0  5  0 529624347
[01]  G08  f 47   -658.7 2046000.9  1.0  1.0  5  0 529624353
[02]  G21  7 36   2449.2 2045996.8  1.0  1.0  5  0        14
[03]  G27  7 33   1549.6 2045997.9  0.7  1.0  5  0        11
$GNGGA,000000.000,,,,,0,00,,,M,,,,0000*2B
$GNRMC,000000.000,A,,,,,,,000000,,*26
$GPGSA,A,1,,,,,,,,,,,,,,,*1E
$BDGSA,A,1,,,,,,,,,,,,,,,*0F
$GPGSV,1,1,04,07,00,000,46,08,00,000,47,21,00,000,36,27,00,000,33*70
$LOGTIM,0,0.000000,0.000000,0.000000,0.000000,0.000*0A
EndT:        0
---00000025--- Acq_st=3 2019-5-25 03:06:48 
[00]  G07  f 46  -3276.2 2046004.3  1.0  1.0  5  0 529625347
[01]  G08  f 47   -661.2 2046000.9  1.0  1.0  5  0 529625353
[02]  G21  7 35   2445.6 2045996.8  1.0  1.0  5  0        14
[03]  G27  7 36   1546.4 2045997.9  1.0  1.0  5  0        12
$GNGGA,000000.000,,,,,0,00,,,M,,,,0000*2B
$GNRMC,000000.000,A,,,,,,,000000,,*26
$GPGSA,A,1,,,,,,,,,,,,,,,*1E
$BDGSA,A,1,,,,,,,,,,,,,,,*0F
$GPGSV,1,1,04,07,00,000,46,08,00,000,47,21,00,000,35,27,00,000,36*76
$LOGTIM,0,0.000000,0.000000,0.000000,0.000000,0.000*0A
EndT:        0
---00000026--- Acq_st=3 2019-5-25 03:06:49 
[00]  G07  f 46  -3272.8 2046004.2  1.0  1.0  5  0 529626347
[01]  G08  f 47   -657.6 2046000.9  1.0  1.0  5  0 529626353
[02]  G21  f 35   2450.0 2045996.8  1.0  0.9  5  0        14
[03]  G27  f 35   1550.4 2045997.9  1.0  1.0  5  0        12
$GNGGA,000000.000,,,,,0,00,,,M,,,,0000*2B
$GNRMC,000000.000,A,,,,,,,000000,,*26
$GPGSA,A,1,,,,,,,,,,,,,,,*1E
$BDGSA,A,1,,,,,,,,,,,,,,,*0F
$GPGSV,1,1,04,07,00,000,46,08,00,000,47,21,00,000,35,27,00,000,35*75
$LOGTIM,0,0.000000,0.000000,0.000000,0.000000,0.000*0A
EndT:        0
---00000027--- Acq_st=3 2019-5-25 03:06:50 
[00]  G07  f 45  -3269.2 2046004.3  1.0  1.0  5  0 529627347
[01]  G08  f 47   -653.9 2046000.9  1.0  1.0  5  0 529627353
[02]  G21  f 34   2453.2 2045996.8  1.0  0.9  5  0 529627334
[03]  G27  f 35   1553.4 2045998.0  1.0  1.0  5  0 529627352
$GNGGA,000000.000,,,,,0,00,,,M,,,,0000*2B
$GNRMC,000000.000,A,,,,,,,000000,,*26
$GPGSA,A,1,,,,,,,,,,,,,,,*1E
$BDGSA,A,1,,,,,,,,,,,,,,,*0F
$GPGSV,1,1,04,07,00,000,45,08,00,000,47,21,00,000,34,27,00,000,35*77
$LOGTIM,0,0.000000,0.000000,0.000000,0.000000,0.000*0A
EndT:        0
---00000028--- Acq_st=3 2019-5-25 03:06:51 
[00]  G07  f 45  -3266.2 2046004.2  1.0  1.0  5  0 529628347
[01]  G08  f 47   -650.4 2046000.9  1.0  1.0  5  0 529628353
[02]  G21  f 35   2455.0 2045996.8  1.0  1.0  5  0 529628334
[03]  G27  f 36   1557.4 2045997.9  1.0  1.0  5  0 529628352
$GNGGA,000000.000,,,,,0,00,,,M,,,,0000*2B
$GNRMC,000000.000,A,,,,,,,000000,,*26
$GPGSA,A,1,,,,,,,,,,,,,,,*1E
$BDGSA,A,1,,,,,,,,,,,,,,,*0F
$GPGSV,1,1,04,07,00,000,45,08,00,000,47,21,00,000,35,27,00,000,36*75
$LOGTIM,0,0.000000,0.000000,0.000000,0.000000,0.000*0A
EndT:        0
---00000029--- Acq_st=3 2019-5-25 03:06:52 
[00]  G07  f 45  -3272.0 2046004.3  1.0  1.0  5  0 529629347
[01]  G08  f 47   -655.8 2046000.8  1.0  1.0  5  0 529629353
[02]  G21  f 34   2450.5 2045996.8  1.0  1.0  5  0 529629334
[03]  G27  f 36   1551.9 2045997.9  1.0  1.0  5  0 529629352
$GNGGA,000000.000,,,,,0,00,,,M,,,,0000*2B
$GNRMC,000000.000,A,,,,,,,000000,,*26
$GPGSA,A,1,,,,,,,,,,,,,,,*1E
$BDGSA,A,1,,,,,,,,,,,,,,,*0F
$GPGSV,1,1,04,07,00,000,45,08,00,000,47,21,00,000,34,27,00,000,36*74
$LOGTIM,0,0.000000,0.000000,0.000000,0.000000,0.000*0A
EndT:        0
---00000030--- Acq_st=3 2019-5-25 03:06:53 
[00]  G07  f 45  -3268.4 2046004.2  1.0  1.0  5  0 529630347
[01]  G08  f 47   -651.8 2046000.9  1.0  1.0  5  0 529630353
[02]  G21  f 34   2454.2 2045996.8  1.0  1.0  5  0 529630334
[03]  G27  f 36   1555.1 2045998.0  1.0  1.0  5  0 529630352
$GNGGA,000000.000,,,,,0,00,,,M,,,,0000*2B
$GNRMC,000000.000,A,,,,,,,000000,,*26
$GPGSA,A,1,,,,,,,,,,,,,,,*1E
$BDGSA,A,1,,,,,,,,,,,,,,,*0F
$GPGSV,1,1,04,07,00,000,45,08,00,000,47,21,00,000,34,27,00,000,36*74
$LOGTIM,0,0.000000,0.000000,0.000000,0.000000,0.000*0A
EndT:        0
---00000031--- Acq_st=3 2019-5-25 03:06:54 
[00]  G07  f 46  -3270.3 2046004.2  1.0  1.0  5  0 529631347
[01]  G08  f 47   -653.6 2046000.9  1.0  1.0  5  0 529631353
[02]  G21  f 34   2452.5 2045996.9  1.0  1.0  5  0 529631334
[03]  G27  f 35   1554.3 2045997.9  1.0  1.0  5  0 529631352
$GNGGA,000000.000,,,,,0,00,,,M,,,,0000*2B
$GNRMC,000000.000,A,,,,,,,000000,,*26
$GPGSA,A,1,,,,,,,,,,,,,,,*1E
$BDGSA,A,1,,,,,,,,,,,,,,,*0F
$GPGSV,1,1,04,07,00,000,46,08,00,000,47,21,00,000,34,27,00,000,35*74
$LOGTIM,0,0.000000,0.000000,0.000000,0.000000,0.000*0A
EndT:        0
---00000032--- Acq_st=3 2019-5-25 03:06:55 
[00]  G07  f 46  -3271.4 2046004.2  1.0  1.0  5  0 529632347
[01]  G08  f 47   -654.7 2046000.8  1.0  1.0  5  0 529632353
[02]  G21  f 34   2450.8 2045996.8  1.0  1.0  5  0 529632334
[03]  G27  f 34   1551.9 2045998.0  1.0  1.0  5  0 529632352
$GNGGA,000000.000,,,,,0,00,,,M,,,,0000*2B
$GNRMC,000000.000,A,,,,,,,000000,,*26
$GPGSA,A,1,,,,,,,,,,,,,,,*1E
$BDGSA,A,1,,,,,,,,,,,,,,,*0F
$GPGSV,1,1,04,07,00,000,46,08,00,000,47,21,00,000,34,27,00,000,34*75
$LOGTIM,0,0.000000,0.000000,0.000000,0.000000,0.000*0A
EndT:        0
---00000033--- Acq_st=3 2019-5-25 03:06:56 
[00]  G07  f 46  -3278.0 2046004.2  1.0  1.0  5  0 529633347
[01]  G08  f 47   -660.9 2046000.9  1.0  1.0  5  0 529633353
[02]  G21  f 32   2444.3 2045996.8  1.0  1.0  5  0 529633334
[03]  G27  f 34   1547.0 2045998.0  1.0  1.0  5  0 529633352
$GNGGA,000000.000,,,,,0,00,,,M,,,,0000*2B
$GNRMC,000000.000,A,,,,,,,000000,,*26
$GPGSA,A,1,,,,,,,,,,,,,,,*1E
$BDGSA,A,1,,,,,,,,,,,,,,,*0F
$GPGSV,1,1,04,07,00,000,46,08,00,000,47,21,00,000,32,27,00,000,34*73
$LOGTIM,0,0.000000,0.000000,0.000000,0.000000,0.000*0A
EndT:        0
---00000034--- Acq_st=3 2019-5-25 03:06:57 
[00]  G07  f 46  -3276.4 2046004.3  1.0  1.0  5  0 529634347
[01]  G08  f 47   -658.7 2046000.9  1.0  1.0  5  0 529634353
[02]  G21  f 32   2445.3 2045996.8  1.0  0.9  5  0 529634334
[03]  G27  f 35   1548.4 2045998.0  1.0  0.9  5  0 529634352
$GNGGA,000000.000,,,,,0,00,,,M,,,,0000*2B
$GNRMC,000000.000,A,,,,,,,000000,,*26
$GPGSA,A,1,,,,,,,,,,,,,,,*1E
$BDGSA,A,1,,,,,,,,,,,,,,,*0F
$GPGSV,1,1,04,07,00,000,46,08,00,000,47,21,00,000,32,27,00,000,35*72
$LOGTIM,0,0.000000,0.000000,0.000000,0.000000,0.000*0A
EndT:        0
---00000035--- Acq_st=3 2019-5-25 03:06:58 
[00]  G07  f 46  -3271.0 2046004.2  1.0  1.0  5  0 529635347
[01]  G08  f 47   -653.2 2046000.8  1.0  1.0  5  0 529635353
[02]  G21  f 32   2451.5 2045996.8  1.0  1.0  5  0 529635334
[03]  G27  f 34   1553.4 2045998.0  1.0  1.0  5  0 529635352
$GNGGA,000000.000,,,,,0,00,,,M,,,,0000*2B
$GNRMC,000000.000,A,,,,,,,000000,,*26
$GPGSA,A,1,,,,,,,,,,,,,,,*1E
$BDGSA,A,1,,,,,,,,,,,,,,,*0F
$GPGSV,1,1,04,07,00,000,46,08,00,000,47,21,00,000,32,27,00,000,34*73
$LOGTIM,0,0.000000,0.000000,0.000000,0.000000,0.000*0A
EndT:        0
---00000036--- Acq_st=3 2019-5-25 03:06:59 
[00]  G07  f 47  -3267.4 2046004.2  1.0  1.0  5  0 529636347
[01]  G08  f 47   -649.5 2046000.9  1.0  1.0  5  0 529636353
[02]  G21  f 32   2455.9 2045996.8  1.0  0.9  5  0 529636334
[03]  G27  f 35   1557.3 2045998.0  1.0  0.9  5  0 529636352
$GNGGA,000000.000,,,,,0,00,,,M,,,,0000*2B
$GNRMC,000000.000,A,,,,,,,000000,,*26
$GPGSA,A,1,,,,,,,,,,,,,,,*1E
$BDGSA,A,1,,,,,,,,,,,,,,,*0F
$GPGSV,1,1,04,07,00,000,47,08,00,000,47,21,00,000,32,27,00,000,35*73
$LOGTIM,0,0.000000,0.000000,0.000000,0.000000,0.000*0A
EndT:        0
---00000037--- Acq_st=3 2019-5-25 03:07:0 
[00]  G07  f 47  -3272.4 2046004.2  1.0  1.0  5  0 529637347
[01]  G08  f 47   -654.4 2046000.8  1.0  1.0  5  0 529637353
[02]  G21  f 32   2448.9 2045996.9  1.0  0.9  5  0 529637334
[03]  G27  f 35   1551.7 2045998.0  1.0  1.0  5  0 529637352
$GNGGA,000000.000,,,,,0,00,,,M,,,,0000*2B
$GNRMC,000000.000,A,,,,,,,000000,,*26
$GPGSA,A,1,,,,,,,,,,,,,,,*1E
$BDGSA,A,1,,,,,,,,,,,,,,,*0F
$GPGSV,1,1,04,07,00,000,47,08,00,000,47,21,00,000,32,27,00,000,35*73
$LOGTIM,0,0.000000,0.000000,0.000000,0.000000,0.000*0A
EndT:        0
ch16 satid=43,max_freq = 250,max_mean = 5490,max_phase = 2493,max_value = 58361,acq ok1!
acq ok1 timeH = 0,timeL = 695083186,freq_stage = 3
---00000038--- Acq_st=3 2019-5-25 03:07:1 
[00]  G07  f 46  -3270.8 2046004.3  1.0  1.0  5  0 529638347
[01]  G08  f 47   -652.5 2046000.8  1.0  1.0  5  0 529638353
[02]  G21  f 32   2450.8 2045996.8  1.0  0.9  5  0 529638334
[03]  G27  f 35   1553.5 2045998.0  1.0  1.0  5  0 529638352
[16]  B07  1  7   -230.4 4091999.9 -0.1  0.0  1  0         0
$GNGGA,000000.000,,,,,0,00,,,M,,,,0000*2B
$GNRMC,000000.000,A,,,,,,,000000,,*26
$GPGSA,A,1,,,,,,,,,,,,,,,*1E
$BDGSA,A,1,,,,,,,,,,,,,,,*0F
$GPGSV,1,1,04,07,00,000,46,08,00,000,47,21,00,000,32,27,00,000,35*72
$LOGTIM,0,0.000000,0.000000,0.000000,0.000000,0.000*0A
EndT:        0
---00000039--- Acq_st=3 2019-5-25 03:07:2 
[00]  G07  f 46  -3263.8 2046004.2  1.0  1.0  5  0 529639347
[01]  G08  f 47   -645.2 2046000.8  1.0  1.0  5  0 529639353
[02]  G21  f 32   2457.7 2045996.7  1.0  1.0  5  0 529639334
[03]  G27  f 35   1560.7 2045997.9  1.0  1.0  5  0 529639352
[16]  B07  1 10   -375.5 4091999.8 -0.0  0.0  1  0       819
$GNGGA,000000.000,,,,,0,00,,,M,,,,0000*2B
$GNRMC,000000.000,A,,,,,,,000000,,*26
$GPGSA,A,1,,,,,,,,,,,,,,,*1E
$BDGSA,A,1,,,,,,,,,,,,,,,*0F
$GPGSV,1,1,04,07,00,000,46,08,00,000,47,21,00,000,32,27,00,000,35*72
$LOGTIM,0,0.000000,0.000000,0.000000,0.000000,0.000*0A
EndT:        0
---00000040--- Acq_st=3 2019-5-25 03:07:3 
[00]  G07  f 46  -3261.6 2046004.2  1.0  1.0  5  0 529640347
[01]  G08  f 47   -642.8 2046000.8  1.0  1.0  5  0 529640353
[02]  G21  f 31   2460.1 2045996.8  1.0  0.9  5  0 529640334
[03]  G27  f 35   1563.7 2045998.0  1.0  1.0  5  0 529640352
[16]  B07  1  7   -468.9 4092000.2 -0.1  0.0  1  0      1819
$GNGGA,000000.000,,,,,0,00,,,M,,,,0000*2B
$GNRMC,000000.000,A,,,,,,,000000,,*26
$GPGSA,A,1,,,,,,,,,,,,,,,*1E
$BDGSA,A,1,,,,,,,,,,,,,,,*0F
$GPGSV,1,1,04,07,00,000,46,08,00,000,47,21,00,000,31,27,00,000,35*71
$LOGTIM,0,0.000000,0.000000,0.000000,0.000000,0.000*0A
EndT:        0
---00000041--- Acq_st=3 2019-5-25 03:07:4 
[00]  G07  f 47  -3273.4 2046004.2  1.0  1.0  5  0 529641347
[01]  G08  f 47   -654.2 2046000.9  1.0  1.0  5  0 529641353
[02]  G21  f 31   2447.3 2045996.8  0.9  1.0  5  0 529641334
[03]  G27  f 36   1552.0 2045998.0  1.0  1.0  5  0 529641352
$GNGGA,000000.000,,,,,0,00,,,M,,,,0000*2B
$GNRMC,000000.000,A,,,,,,,000000,,*26
$GPGSA,A,1,,,,,,,,,,,,,,,*1E
$BDGSA,A,1,,,,,,,,,,,,,,,*0F
$GPGSV,1,1,04,07,00,000,47,08,00,000,47,21,00,000,31,27,00,000,36*73
$LOGTIM,0,0.000000,0.000000,0.000000,0.000000,0.000*0A
EndT:        0
---00000042--- Acq_st=3 2019-5-25 03:07:5 
[00]  G07  f 46  -3273.7 2046004.2  1.0  1.0  5  0 529642347
[01]  G08  f 47   -654.4 2046000.9  1.0  1.0  5  0 529642353
[02]  G21  f 31   2448.0 2045996.9  1.0  0.9  5  0 529642334
[03]  G27  f 35   1551.7 2045998.0  1.0  1.0  5  0 529642352
$GNGGA,000000.000,,,,,0,00,,,M,,,,0000*2B
$GNRMC,000000.000,A,,,,,,,000000,,*26
$GPGSA,A,1,,,,,,,,,,,,,,,*1E
$BDGSA,A,1,,,,,,,,,,,,,,,*0F
$GPGSV,1,1,04,07,00,000,46,08,00,000,47,21,00,000,31,27,00,000,35*71
$LOGTIM,0,0.000000,0.000000,0.000000,0.000000,0.000*0A
EndT:        0
ch17 satid=46,max_freq = 250,max_mean = 6000,max_phase = 3958,max_value = 54511,acq ok1!
acq ok1 timeH = 0,timeL = 788935816,freq_stage = 3
---00000043--- Acq_st=3 2019-5-25 03:07:6 
[00]  G07  f 47  -3267.7 2046004.2  1.0  1.0  5  0 529643347
[01]  G08  f 47   -648.3 2046000.9  1.0  1.0  5  0 529643353
[02]  G21  f 31   2453.1 2045996.8  1.0  0.9  5  0 529643334
[03]  G27  f 35   1557.5 2045997.9  1.0  1.0  5  0 529643352
[17]  B10  1  7   -106.4 4092000.5  0.1  0.0  1  0         0
$GNGGA,000000.000,,,,,0,00,,,M,,,,0000*2B
$GNRMC,000000.000,A,,,,,,,000000,,*26
$GPGSA,A,1,,,,,,,,,,,,,,,*1E
$BDGSA,A,1,,,,,,,,,,,,,,,*0F
$GPGSV,1,1,04,07,00,000,47,08,00,000,47,21,00,000,31,27,00,000,35*70
$LOGTIM,0,0.000000,0.000000,0.000000,0.000000,0.000*0A
EndT:        0
---00000044--- Acq_st=3 2019-5-25 03:07:7 
[00]  G07  f 46  -3267.3 2046004.2  1.0  1.0  5  0 529644347
[01]  G08  f 47   -647.4 2046000.8  1.0  1.0  5  0 529644353
[02]  G21  f 31   2454.6 2045996.8  1.0  1.0  5  0 529644334
[03]  G27  f 36   1557.8 2045998.0  1.0  1.0  5  0 529644352
[17]  B10  1  7    -26.0 4092000.0 -0.1  0.0  1  0       930
$GNGGA,000000.000,,,,,0,00,,,M,,,,0000*2B
$GNRMC,000000.000,A,,,,,,,000000,,*26
$GPGSA,A,1,,,,,,,,,,,,,,,*1E
$BDGSA,A,1,,,,,,,,,,,,,,,*0F
$GPGSV,1,1,04,07,00,000,46,08,00,000,47,21,00,000,31,27,00,000,36*72
$LOGTIM,0,0.000000,0.000000,0.000000,0.000000,0.000*0A
EndT:        0
---00000045--- Acq_st=3 2019-5-25 03:07:8 
[00]  G07  f 47  -3271.0 2046004.2  1.0  1.0  5  0 529645347
[01]  G08  f 47   -651.0 2046000.8  1.0  1.0  5  0 529645353
[02]  G21  f 31   2450.1 2045996.8  1.0  1.0  5  0 529645334
[03]  G27  f 35   1555.0 2045998.0  1.0  1.0  5  0 529645352
[17]  B10  1  7    -41.8 4092000.4  0.1  0.0  1  0      1930
$GNGGA,000000.000,,,,,0,00,,,M,,,,0000*2B
$GNRMC,000000.000,A,,,,,,,000000,,*26
$GPGSA,A,1,,,,,,,,,,,,,,,*1E
$BDGSA,A,1,,,,,,,,,,,,,,,*0F
$GPGSV,1,1,04,07,00,000,47,08,00,000,47,21,00,000,31,27,00,000,35*70
$LOGTIM,0,0.000000,0.000000,0.000000,0.000000,0.000*0A
EndT:        0
ch16 satid=48,max_freq = -1500,max_mean = 6320,max_phase = 2336,max_value = 299127,acq ok1!
acq ok1 timeH = 0,timeL = 857757224,freq_stage = 4
---00000046--- Acq_st=3 2019-5-25 03:07:9 
[00]  G07  f 47  -3275.9 2046004.2  1.0  1.0  5  0 529646347
[01]  G08  f 47   -655.4 2046000.8  1.0  1.0  5  0 529646353
[02]  G21  f 31   2444.6 2045996.8  1.0  0.9  5  0 529646334
[03]  G27  f 36   1550.1 2045998.0  1.0  1.0  5  0 529646352
[16]  B12  1  7   1330.1 4091997.1  0.0  0.0  1  0      2819
$GNGGA,000000.000,,,,,0,00,,,M,,,,0000*2B
$GNRMC,000000.000,A,,,,,,,000000,,*26
$GPGSA,A,1,,,,,,,,,,,,,,,*1E
$BDGSA,A,1,,,,,,,,,,,,,,,*0F
$GPGSV,1,1,04,07,00,000,47,08,00,000,47,21,00,000,31,27,00,000,36*73
$LOGTIM,0,0.000000,0.000000,0.000000,0.000000,0.000*0A
EndT:        0
---00000047--- Acq_st=3 2019-5-25 03:07:10 
[00]  G07  f 47  -3277.7 2046004.2  1.0  1.0  5  0 529647347
[01]  G08  f 47   -657.1 2046000.9  1.0  1.0  5  0 529647353
[02]  G21  f 31   2443.0 2045996.9  1.0  0.9  5  0 529647334
[03]  G27  f 37   1548.0 2045998.0  1.0  0.9  5  0 529647352
[16]  B12  7 24   1317.2 4091996.5  0.4  0.0 20  0       671
$GNGGA,000000.000,,,,,0,00,,,M,,,,0000*2B
$GNRMC,000000.000,A,,,,,,,000000,,*26
$GPGSA,A,1,,,,,,,,,,,,,,,*1E
$BDGSA,A,1,,,,,,,,,,,,,,,*0F
$GPGSV,1,1,04,07,00,000,47,08,00,000,47,21,00,000,31,27,00,000,37*72
$BDGSV,1,1,01,12,00,000,24*5C
$LOGTIM,0,0.000000,0.000000,0.000000,0.000000,0.000*0A
EndT:        0
---00000048--- Acq_st=3 2019-5-25 03:07:11 
[00]  G07  f 47  -3278.1 2046004.3  1.0  1.0  5  0 529648347
[01]  G08  f 47   -657.2 2046000.8  1.0  1.0  5  0 529648353
[02]  G21  f 31   2442.4 2045996.8  1.0  0.9  5  0 529648334
[03]  G27  f 38   1547.7 2045997.9  1.0  1.0  5  0 529648352
[16]  B12  7 47   1317.3 4091996.5  0.9  1.0  5  0      1667
$GNGGA,000000.000,,,,,0,00,,,M,,,,0000*2B
$GNRMC,000000.000,A,,,,,,,000000,,*26
$GPGSA,A,1,,,,,,,,,,,,,,,*1E
$BDGSA,A,1,,,,,,,,,,,,,,,*0F
$GPGSV,1,1,04,07,00,000,47,08,00,000,47,21,00,000,31,27,00,000,38*7D
$BDGSV,1,1,01,12,00,000,47*59
$LOGTIM,0,0.000000,0.000000,0.000000,0.000000,0.000*0A
EndT:        0
---00000049--- Acq_st=3 2019-5-25 03:07:12 
[00]  G07  f 47  -3279.1 2046004.3  1.0  1.0  5  0 529649347
[01]  G08  f 47   -658.3 2046000.9  1.0  1.0  5  0 529649353
[02]  G21  f 31   2442.2 2045996.9  1.0  0.9  5  0 529649334
[03]  G27  f 38   1546.4 2045998.0  1.0  1.0  5  0 529649352
[16]  B12  7 47   1316.2 4091996.5  1.0  1.0  5  0      2667
$GNGGA,000000.000,,,,,0,00,,,M,,,,0000*2B
$GNRMC,000000.000,A,,,,,,,000000,,*26
$GPGSA,A,1,,,,,,,,,,,,,,,*1E
$BDGSA,A,1,,,,,,,,,,,,,,,*0F
$GPGSV,1,1,04,07,00,000,47,08,00,000,47,21,00,000,31,27,00,000,38*7D
$BDGSV,1,1,01,12,00,000,47*59
$LOGTIM,0,0.000000,0.000000,0.000000,0.000000,0.000*0A
EndT:        0
---00000050--- Acq_st=3 2019-5-25 03:07:13 
[00]  G07  f 47  -3277.3 2046004.3  1.0  1.0  5  0 529650347
[01]  G08  f 47   -656.2 2046000.9  1.0  1.0  5  0 529650353
[02]  G21  f 31   2444.5 2045996.8  1.0  0.9  5  0 529650334
[03]  G27  f 38   1548.8 2045998.0  1.0  1.0  5  0 529650352
[16]  B12  7 47   1317.9 4091996.5  1.0  1.0  5  0      3667
$GNGGA,000000.000,,,,,0,00,,,M,,,,0000*2B
$GNRMC,000000.000,A,,,,,,,000000,,*26
$GPGSA,A,1,,,,,,,,,,,,,,,*1E
$BDGSA,A,1,,,,,,,,,,,,,,,*0F
$GPGSV,1,1,04,07,00,000,47,08,00,000,47,21,00,000,31,27,00,000,38*7D
$BDGSV,1,1,01,12,00,000,47*59
$LOGTIM,0,0.000000,0.000000,0.000000,0.000000,0.000*0A
EndT:        0
---00000051--- Acq_st=3 2019-5-25 03:07:14 
[00]  G07  f 47  -3279.3 2046004.3  1.0  1.0  5  0 529651347
[01]  G08  f 47   -657.8 2046000.9  1.0  1.0  5  0 529651353
[02]  G21  f 30   2442.8 2045996.9  1.0  1.0  5  0 529651334
[03]  G27  f 39   1547.4 2045998.0  1.0  1.0  5  0 529651352
[16]  B12  7 48   1316.2 4091996.5  1.0  1.0  5  0      4667
$GNGGA,000000.000,,,,,0,00,,,M,,,,0000*2B
$GNRMC,000000.000,A,,,,,,,000000,,*26
$GPGSA,A,1,,,,,,,,,,,,,,,*1E
$BDGSA,A,1,,,,,,,,,,,,,,,*0F
$GPGSV,1,1,04,07,00,000,47,08,00,000,47,21,00,000,30,27,00,000,39*7D
$BDGSV,1,1,01,12,00,000,48*56
$LOGTIM,0,0.000000,0.000000,0.000000,0.000000,0.000*0A
EndT:        0
---00000052--- Acq_st=3 2019-5-25 03:07:15 
[00]  G07  f 47  -3282.4 2046004.3  1.0  1.0  5  0 529652347
[01]  G08  f 47   -660.5 2046000.9  1.0  1.0  5  0 529652353
[02]  G21  f 30   2439.9 2045996.8  0.9  0.9  5  0 529652334
[03]  G27  f 40   1544.0 2045998.0  1.0  1.0  5  0 529652352
[16]  B12 1f 47   1313.2 4091996.5  1.0  1.0  5  0      5667
$GNGGA,000000.000,,,,,0,00,,,M,,,,0000*2B
$GNRMC,000000.000,A,,,,,,,000000,,*26
$GPGSA,A,1,,,,,,,,,,,,,,,*1E
$BDGSA,A,1,,,,,,,,,,,,,,,*0F
$GPGSV,1,1,04,07,00,000,47,08,00,000,47,21,00,000,30,27,00,000,40*73
$BDGSV,1,1,01,12,00,000,47*59
$LOGTIM,0,0.000000,0.000000,0.000000,0.000000,0.000*0A
EndT:        0
---00000053--- Acq_st=3 2019-5-25 03:07:16 
[00]  G07  f 46  -3281.4 2046004.3  1.0  1.0  5  0 529653347
[01]  G08  f 47   -659.7 2046000.8  1.0  1.0  5  0 529653353
[02]  G21  f 30   2439.1 2045996.8  1.0  0.9  5  0 529653334
[03]  G27  f 40   1544.7 2045998.0  1.0  1.0  5  0 529653352
[16]  B12 1f 47   1314.3 4091996.5  1.0  1.0  5  0 529639347
$GNGGA,000000.000,,,,,0,00,,,M,,,,0000*2B
$GNRMC,000000.000,A,,,,,,,000000,,*26
$GPGSA,A,1,,,,,,,,,,,,,,,*1E
$BDGSA,A,1,,,,,,,,,,,,,,,*0F
$GPGSV,1,1,04,07,00,000,46,08,00,000,47,21,00,000,30,27,00,000,40*72
$BDGSV,1,1,01,12,00,000,47*59
$LOGTIM,0,0.000000,0.000000,0.000000,0.000000,0.000*0A
EndT:        0
---00000054--- Acq_st=3 2019-5-25 03:07:17 
[00]  G07  f 47  -3281.6 2046004.3  1.0  1.0  5  0 529654347
[01]  G08  f 46   -659.4 2046000.9  1.0  1.0  5  0 529654353
[02]  G21  f 31   2439.5 2045996.7  1.0  1.0  5  0 529654334
[03]  G27  f 39   1544.8 2045998.0  1.0  1.0  5  0 529654352
[16]  B12 1f 48   1314.4 4091996.6  1.0  1.0  5  0 529640347
$GNGGA,000000.000,,,,,0,00,,,M,,,,0000*2B
$GNRMC,000000.000,A,,,,,,,000000,,*26
$GPGSA,A,1,,,,,,,,,,,,,,,*1E
$BDGSA,A,1,,,,,,,,,,,,,,,*0F
$GPGSV,1,1,04,07,00,000,47,08,00,000,46,21,00,000,31,27,00,000,39*7D
$BDGSV,1,1,01,12,00,000,48*56
$LOGTIM,0,0.000000,0.000000,0.000000,0.000000,0.000*0A
EndT:        0
---00000055--- Acq_st=3 2019-5-25 03:07:18 
[00]  G07  f 47  -3275.6 2046004.3  1.0  1.0  5  0 529655347
[01]  G08  f 47   -653.3 2046000.9  1.0  1.0  5  0 529655353
[02]  G21  f 31   2445.8 2045996.8  1.0  1.0  5  0 529655334
[03]  G27  f 39   1551.1 2045998.0  1.0  1.0  5  0 529655352
[16]  B12 1f 48   1320.4 4091996.5  1.0  1.0  5  0 529641347
lsq: nits= 4
$GNGGA,030718.422,3112.7401,N,12136.4273,E,1,04,3.8,102.3,M,,,,0000*11
$GNRMC,030718.422,A,3112.7401,N,12136.4273,E,0.42,0.00,250519,,*1E
$GPGSA,A,3,07,08,21,27,,,,,,,,,4.9,3.8,3.0*3E
$BDGSA,A,3,,,,,,,,,,,,,4.9,3.8,3.0*26
$GPGSV,1,1,04,07,00,000,47,08,00,000,47,21,00,000,31,27,00,000,39*7C
$BDGSV,1,1,01,12,00,000,48*56
$LOGTIM,1,9610789.356075,0.000000,0.000000,0.000000,-62.897*1E
EndT:        0
---00000056--- Acq_st=3 2019-5-25 03:07:19 
[00]  G07  f 47  -3270.8 2046004.3  1.0  1.0  5  0 529656347
[01]  G08  f 47   -648.1 2046000.9  1.0  1.0  5  0 529656353
[02]  G21  f 31   2451.0 2045996.9  0.9  1.0  5  0 529656334
[03]  G27  f 40   1555.9 2045998.0  1.0  1.0  5  0 529656352
[16]  B12 1f 47   1325.4 4091996.5  1.0  1.0  5  0 529642347
lsq: nits= 4
$GNGGA,030720.000,3112.7394,N,12136.4257,E,1,04,3.8,104.7,M,,,,0000*11
$GNRMC,030720.000,A,3112.7394,N,12136.4257,E,0.44,0.00,250519,,*1A
$GPGSA,A,3,07,08,21,27,,,,,,,,,4.9,3.8,3.0*3E
$BDGSA,A,3,,,,,,,,,,,,,4.9,3.8,3.0*26
$GPGSV,1,1,04,07,00,000,47,08,00,000,47,21,00,000,31,27,00,000,40*72
$BDGSV,1,1,01,12,00,000,47*59
$LOGTIM,1,-98.358326,0.000000,0.000000,0.000000,-62.307*03
EndT:        0
---00000057--- Acq_st=3 2019-5-25 03:07:20 
[00]  G07  f 47  -3273.9 2046004.2  1.0  1.0  5  0 529657925
[01]  G08  f 47   -651.0 2046000.8  1.0  1.0  5  0 529657932
[02]  G21  f 31   2446.1 2045996.7  1.0  0.9  5  0 529657912
[03]  G27  f 41   1553.2 2045998.0  1.0  1.0  5  0 529657930
[16]  B12 1f 47   1322.3 4091996.5  1.0  1.0  5  0 529643925
lsq: nits= 4
$GNGGA,030721.000,3112.7385,N,12136.4247,E,1,04,3.8,104.7,M,,,,0000*11
$GNRMC,030721.000,A,3112.7385,N,12136.4247,E,0.88,0.00,250519,,*1A
$GPGSA,A,3,07,08,21,27,,,,,,,,,4.9,3.8,3.0*3E
$BDGSA,A,3,,,,,,,,,,,,,4.9,3.8,3.0*26
$GPGSV,1,1,04,07,36,317,47,08,73,273,47,21,02,035,31,27,59,027,41*7C
$BDGSV,1,1,01,12,00,000,47*59
$LOGTIM,1,-161.669613,0.000000,0.000000,0.000000,-63.020*37
EndT:        0
---00000058--- Acq_st=3 2019-5-25 03:07:21 
[00]  G07  f 47  -3278.3 2046004.3  1.0  1.0  5  0 529658925
[01]  G08  f 46   -655.1 2046000.8  1.0  1.0  5  0 529658932
[02]  G21  f 30   2443.6 2045996.8  0.9  1.0  5  0 529658912
[03]  G27  f 40   1548.9 2045998.0  1.0  1.0  5  0 529658930
[16]  B12 1f 47   1317.9 4091996.5  1.0  1.0  5  0 529644925
lsq: nits= 4
$GNGGA,030722.000,3112.7383,N,12136.4248,E,1,04,3.8,105.0,M,,,,0000*1D
$GNRMC,030722.000,A,3112.7383,N,12136.4248,E,0.88,0.00,250519,,*10
$GPGSA,A,3,07,08,21,27,,,,,,,,,4.9,3.8,3.0*3E
$BDGSA,A,3,,,,,,,,,,,,,4.9,3.8,3.0*26
$GPGSV,1,1,04,07,37,316,47,08,73,274,46,21,02,035,30,27,59,027,40*7A
$BDGSV,1,1,01,12,00,000,47*59
$LOGTIM,1,-225.618470,0.000000,0.000000,0.000000,-63.495*3F
EndT:        0
---00000059--- Acq_st=3 2019-5-25 03:07:22 
[00]  G07  f 46  -3280.1 2046004.3  1.0  1.0  5  0 529659925
[01]  G08  f 46   -656.7 2046000.9  1.0  1.0  5  0 529659932
[02]  G21  f 30   2440.4 2045996.9  1.0  0.9  5  0 529659912
[03]  G27  f 40   1547.5 2045998.0  1.0  1.0  5  0 529659930
[16]  B12 1f 47   1316.4 4091996.6  1.0  1.0  5  0 529645925
lsq: nits= 4
$GNGGA,030723.000,3112.7381,N,12136.4249,E,1,04,3.8,105.2,M,,,,0000*1D
$GNRMC,030723.000,A,3112.7381,N,12136.4249,E,0.84,0.00,250519,,*1E
$GPGSA,A,3,07,08,21,27,,,,,,,,,4.9,3.8,3.0*3E
$BDGSA,A,3,,,,,,,,,,,,,4.9,3.8,3.0*26
$GPGSV,1,1,04,07,37,316,46,08,73,274,46,21,02,035,30,27,59,027,40*7B
$BDGSV,1,1,01,12,00,000,47*59
$LOGTIM,1,-290.266100,0.000000,0.000000,0.000000,-63.991*37
EndT:        0
---00000060--- Acq_st=3 2019-5-25 03:07:23 
[00]  G07  f 46  -3282.0 2046004.3  1.0  1.0  5  0 529660925
[01]  G08  f 46   -658.3 2046000.8  1.0  1.0  5  0 529660932
[02]  G21  f 29   2439.8 2045996.7  0.9  0.8  5  0 529660912
[03]  G27  f 40   1545.5 2045998.0  1.0  1.0  5  0 529660930
[16]  B12 1f 47   1314.8 4091996.6  1.0  1.0  5  0 529646925
lsq: nits= 4
$GNGGA,030724.000,3112.7382,N,12136.4246,E,1,04,3.8,105.3,M,,,,0000*17
$GNRMC,030724.000,A,3112.7382,N,12136.4246,E,0.70,0.00,250519,,*1E
$GPGSA,A,3,07,08,21,27,,,,,,,,,4.9,3.8,3.0*3E
$BDGSA,A,3,,,,,,,,,,,,,4.9,3.8,3.0*26
$GPGSV,1,1,04,07,37,316,46,08,73,274,46,21,02,035,29,27,59,027,40*73
$BDGSV,1,1,01,12,00,000,47*59
$LOGTIM,1,-355.035152,0.000000,0.000000,0.000000,-64.251*3C
EndT:        0
---00000061--- Acq_st=3 2019-5-25 03:07:24 
[00]  G07  f 46  -3281.5 2046004.3  1.0  1.0  5  0 529661925
[01]  G08  f 46   -657.5 2046000.9  1.0  1.0  5  0 529661932
[02]  G21  f 29   2438.9 2045996.7  1.0  0.8  5  0 529661912
[03]  G27  f 40   1546.3 2045998.0  1.0  1.0  5  0 529661930
[16]  B12 1f 47   1315.1 4091996.5  1.0  1.0  5  0 529647925
lsq: nits= 4
$GNGGA,030725.000,3112.7384,N,12136.4242,E,1,04,3.8,105.5,M,,,,0000*12
$GNRMC,030725.000,A,3112.7384,N,12136.4242,E,0.36,0.00,250519,,*1F
$GPGSA,A,3,07,08,21,27,,,,,,,,,4.9,3.8,3.0*3E
$BDGSA,A,3,,,,,,,,,,,,,4.9,3.8,3.0*26
$GPGSV,1,1,04,07,37,316,46,08,73,274,46,21,02,035,29,27,59,027,40*73
$BDGSV,1,1,01,12,00,000,47*59
$LOGTIM,1,-419.559537,0.000000,0.000000,0.000000,-64.133*3C
EndT:        0
---00000062--- Acq_st=3 2019-5-25 03:07:25 
[00]  G07  f 46  -3277.9 2046004.3  1.0  1.0  5  0 529662925
[01]  G08  f 46   -654.1 2046000.8  1.0  1.0  5  0 529662932
[02]  G21  f 29   2443.2 2045996.9  1.0  0.9  5  0 529662912
[03]  G27  f 40   1549.8 2045998.0  1.0  0.9  5  0 529662930
[16]  B12 1f 47   1318.9 4091996.5  1.0  1.0  5  0 529648925
lsq: nits= 4
$GNGGA,030726.000,3112.7382,N,12136.4228,E,1,04,3.8,105.6,M,,,,0000*18
$GNRMC,030726.000,A,3112.7382,N,12136.4228,E,0.25,0.00,250519,,*14
$GPGSA,A,3,07,08,21,27,,,,,,,,,4.9,3.8,3.0*3E
$BDGSA,A,3,,,,,,,,,,,,,4.9,3.8,3.0*26
$GPGSV,1,1,04,07,37,316,46,08,73,274,46,21,02,035,29,27,59,027,41*72
$BDGSV,1,1,01,12,00,000,47*59
$LOGTIM,1,-483.471095,0.000000,0.000000,0.000000,-63.974*35
EndT:        0
---00000063--- Acq_st=3 2019-5-25 03:07:26 
[00]  G07  f 46  -3279.2 2046004.3  1.0  1.0  5  0 529663925
[01]  G08  f 46   -654.8 2046000.9  1.0  1.0  5  0 529663932
[02]  G21  f 29   2441.3 2045996.7  0.9  0.9  5  0 529663912
[03]  G27  f 40   1548.7 2045998.0  1.0  1.0  5  0 529663930
[16]  B12 1f 47   1318.2 4091996.5  1.0  1.0  5  0 529649925
lsq: nits= 4
$GNGGA,030727.000,3112.7382,N,12136.4224,E,1,04,3.8,105.6,M,,,,0000*15
$GNRMC,030727.000,A,3112.7382,N,12136.4224,E,0.29,0.00,250519,,*15
$GPGSA,A,3,07,08,21,27,,,,,,,,,4.9,3.8,3.0*3E
$BDGSA,A,3,,,,,,,,,,,,,4.9,3.8,3.0*26
$GPGSV,1,1,04,07,37,316,46,08,73,274,46,21,02,035,29,27,59,027,40*73
$BDGSV,1,1,01,12,00,000,47*59
$LOGTIM,1,-548.015784,0.000000,0.000000,0.000000,-64.074*3C
EndT:        0
---00000064--- Acq_st=3 2019-5-25 03:07:27 
[00]  G07  f 46  -3279.1 2046004.3  1.0  1.0  5  0 529664925
[01]  G08  f 46   -654.4 2046000.9  1.0  1.0  5  0 529664932
[02]  G21  f 30   2441.3 2045996.9  1.0  1.0  5  0 529664912
[03]  G27  f 40   1548.7 2045998.0  1.0  1.0  5  0 529664930
[16]  B12 1f 47   1318.1 4091996.5  1.0  1.0  5  0 529650925
lsq: nits= 4
$GNGGA,030728.000,3112.7384,N,12136.4221,E,1,04,3.8,105.3,M,,,,0000*1C
$GNRMC,030728.000,A,3112.7384,N,12136.4221,E,0.30,0.00,250519,,*11
$GPGSA,A,3,07,08,21,27,,,,,,,,,4.9,3.8,3.0*3E
$BDGSA,A,3,,,,,,,,,,,,,4.9,3.8,3.0*26
$GPGSV,1,1,04,07,37,316,46,08,73,274,46,21,02,035,30,27,59,027,40*7B
$BDGSV,1,1,01,12,00,000,47*59
$LOGTIM,1,-612.612846,0.000000,0.000000,0.000000,-64.155*32
EndT:        0
ch17 satid=60,max_freq = -500,max_mean = 5980,max_phase = 3538,max_value = 107175,acq ok1!
acq ok1 timeH = 0,timeL = 1230041197,freq_stage = 3
---00000065--- Acq_st=3 2019-5-25 03:07:28 
[00]  G07  f 45  -3278.3 2046004.3  1.0  1.0  5  0 529665925
[01]  G08  f 46   -653.7 2046000.8  1.0  1.0  5  0 529665932
[02]  G21  f 30   2443.1 2045996.8  0.9  0.9  5  0 529665912
[03]  G27  f 41   1549.4 2045998.0  1.0  1.0  5  0 529665930
[16]  B12 1f 47   1318.8 4091996.5  1.0  1.0  5  0 529651925
[17]  B24  1  7    318.9 4091998.9  0.0  0.0  1  0      2930
lsq: nits= 4
$GNGGA,030729.000,3112.7384,N,12136.4211,E,1,04,3.8,105.2,M,,,,0000*1F
$GNRMC,030729.000,A,3112.7384,N,12136.4211,E,0.10,0.00,250519,,*11
$GPGSA,A,3,07,08,21,27,,,,,,,,,4.9,3.8,3.0*3E
$BDGSA,A,3,,,,,,,,,,,,,4.9,3.8,3.0*26
$GPGSV,1,1,04,07,37,316,45,08,73,274,46,21,02,035,30,27,59,027,41*79
$BDGSV,1,1,01,12,00,000,47*59
$LOGTIM,1,-676.676742,0.000000,0.000000,0.000000,-63.969*39
EndT:        0
---00000066--- Acq_st=3 2019-5-25 03:07:29 
[00]  G07  f 45  -3275.5 2046004.3  1.0  1.0  5  0 529666925
[01]  G08  f 46   -650.5 2046000.9  1.0  1.0  5  0 529666932
[02]  G21  f 30   2444.7 2045996.9  0.9  0.9  5  0 529666912
[03]  G27  f 40   1552.4 2045998.0  1.0  1.0  5  0 529666930
[16]  B12 1f 47   1321.7 4091996.5  1.0  1.0  5  0 529652925
[17]  B24  1  7    484.1 4091999.3 -0.0  0.0  1  0       697
ch18 satid=61,max_freq = 2250,max_mean = 5808,max_phase = 3479,max_value = 46041,acq ok1!
acq ok1 timeH = 0,timeL = 1251945894,freq_stage = 2
lsq: nits= 4
$GNGGA,030730.000,3112.7386,N,12136.4204,E,1,04,3.8,105.4,M,,,,0000*17
$GNRMC,030730.000,A,3112.7386,N,12136.4204,E,0.11,0.00,250519,,*1E
$GPGSA,A,3,07,08,21,27,,,,,,,,,4.9,3.8,3.0*3E
$BDGSA,A,3,,,,,,,,,,,,,4.9,3.8,3.0*26
$GPGSV,1,1,04,07,37,316,45,08,73,274,46,21,02,035,30,27,59,027,40*78
$BDGSV,1,1,01,12,00,000,47*59
$LOGTIM,1,-740.659255,0.000000,0.000000,0.000000,-63.736*37
EndT:        0
---00000067--- Acq_st=3 2019-5-25 03:07:30 
[00]  G07  f 45  -3273.5 2046004.3  1.0  1.0  5  0 529667925
[01]  G08  f 45   -648.1 2046000.9  1.0  1.0  5  0 529667932
[02]  G21  f 30   2447.0 2045997.0  0.9  1.0  5  0 529667912
[03]  G27  f 40   1555.0 2045998.0  1.0  1.0  5  0 529667930
[16]  B12 1f 47   1323.9 4091996.5  1.0  1.0  5  0 529653925
[17]  B24  1  7    594.4 4091998.7 -0.1  0.0  1  0      1697
[18]  B25  1  7  -2275.4 4092005.1  0.0  0.0  1  0        67
lsq: nits= 4
$GNGGA,030731.000,3112.7388,N,12136.4199,E,1,04,3.8,105.4,M,,,,0000*1F
$GNRMC,030731.000,A,3112.7388,N,12136.4199,E,0.14,0.00,250519,,*13
$GPGSA,A,3,07,08,21,27,,,,,,,,,4.9,3.8,3.0*3E
$BDGSA,A,3,,,,,,,,,,,,,4.9,3.8,3.0*26
$GPGSV,1,1,04,07,37,316,45,08,73,274,45,21,02,035,30,27,59,027,40*7B
$BDGSV,1,1,01,12,00,000,47*59
$LOGTIM,1,-804.639868,0.000000,0.000000,0.000000,-63.695*32
EndT:        0
---00000068--- Acq_st=3 2019-5-25 03:07:31 
[00]  G07  f 45  -3274.6 2046004.3  1.0  1.0  5  0 529668925
[01]  G08  f 46   -649.1 2046000.8  1.0  1.0  5  0 529668932
[02]  G21  f 29   2446.8 2045996.7  1.0  0.9  5  0 529668912
[03]  G27  f 41   1553.6 2045998.0  1.0  1.0  5  0 529668930
[16]  B12 1f 46   1322.9 4091996.5  1.0  1.0  5  0 529654925
[17]  B24  1  7    831.2 4091999.2  0.1  0.0  1  0      2697
[18]  B25  1  7  -2192.0 4092004.7 -0.1  0.0  1  0      1067
lsq: nits= 4
$GNGGA,030732.000,3112.7381,N,12136.4185,E,1,04,3.8,104.4,M,,,,0000*19
$GNRMC,030732.000,A,3112.7381,N,12136.4185,E,0.16,0.00,250519,,*16
$GPGSA,A,3,07,08,21,27,,,,,,,,,4.9,3.8,3.0*3E
$BDGSA,A,3,,,,,,,,,,,,,4.9,3.8,3.0*26
$GPGSV,1,1,04,07,37,316,45,08,73,274,46,21,02,035,29,27,59,027,41*71
$BDGSV,1,1,01,12,00,000,46*58
$LOGTIM,1,-869.415841,0.000000,0.000000,0.000000,-64.019*3B
EndT:        0
---00000069--- Acq_st=3 2019-5-25 03:07:32 
[00]  G07  f 46  -3275.8 2046004.3  1.0  1.0  5  0 529669925
[01]  G08  f 46   -650.0 2046000.9  1.0  1.0  5  0 529669932
[02]  G21  f 29   2445.5 2045996.9  0.9  0.9  5  0 529669912
[03]  G27  f 41   1552.6 2045998.0  1.0  1.0  5  0 529669930
[16]  B12 1f 46   1321.7 4091996.5  1.0  1.0  5  0 529655925
[18]  B25  1  7  -2375.5 4092005.0 -0.0  0.0  1  0      2067
lsq: nits= 4
$GNGGA,030733.000,3112.7382,N,12136.4182,E,1,04,3.8,104.7,M,,,,0000*1F
$GNRMC,030733.000,A,3112.7382,N,12136.4182,E,0.30,0.00,250519,,*17
$GPGSA,A,3,07,08,21,27,,,,,,,,,4.9,3.8,3.0*3E
$BDGSA,A,3,,,,,,,,,,,,,4.9,3.8,3.0*26
$GPGSV,1,1,04,07,37,316,46,08,73,274,46,21,02,035,29,27,59,027,41*72
$BDGSV,1,1,01,12,00,000,46*58
$LOGTIM,1,-933.009626,0.000000,0.000000,0.000000,-63.612*39
EndT:        0
---00000070--- Acq_st=3 2019-5-25 03:07:33 
[00]  G07  f 46  -3271.5 2046004.2  1.0  1.0  5  0 529670925
[01]  G08  f 46   -645.2 2046000.9  1.0  1.0  5  0 529670932
[02]  G21  f 28   2449.4 2045996.8  0.9  0.9  5  0 529670912
[03]  G27  f 40   1557.1 2045998.0  1.0  1.0  5  0 529670930
[16]  B12 1f 46   1326.5 4091996.5  1.0  1.0  5  0 529656925
lsq: nits= 4
$GNGGA,030734.000,3112.7377,N,12136.4180,E,1,04,3.8,104.9,M,,,,0000*1E
$GNRMC,030734.000,A,3112.7377,N,12136.4180,E,0.28,0.00,250519,,*11
$GPGSA,A,3,07,08,21,27,,,,,,,,,4.9,3.8,3.0*3E
$BDGSA,A,3,,,,,,,,,,,,,4.9,3.8,3.0*26
$GPGSV,1,1,04,07,37,316,46,08,73,274,46,21,02,035,28,27,59,027,40*72
$BDGSV,1,1,01,12,00,000,46*58
$LOGTIM,1,-996.980353,0.000000,0.000000,0.000000,-63.629*31
EndT:        0
---00000071--- Acq_st=3 2019-5-25 03:07:34 
[00]  G07  f 46  -3272.1 2046004.2  1.0  1.0  5  0 529671925
[01]  G08  f 45   -645.7 2046000.8  1.0  1.0  5  0 529671932
[02]  G21  f 28   2448.2 2045996.8  0.9  0.9  5  0 529671912
[03]  G27  f 40   1556.6 2045998.0  1.0  1.0  5  0 529671930
[16]  B12 1f 46   1325.5 4091996.5  1.0  1.0  5  0 529657925
lsq: nits= 4
$GNGGA,030735.000,3112.7373,N,12136.4178,E,1,04,3.8,105.2,M,,,,0000*16
$GNRMC,030735.000,A,3112.7373,N,12136.4178,E,0.62,0.00,250519,,*1D
$GPGSA,A,3,07,08,21,27,,,,,,,,,4.9,3.8,3.0*3E
$BDGSA,A,3,,,,,,,,,,,,,4.9,3.8,3.0*26
$GPGSV,1,1,04,07,37,316,46,08,73,274,45,21,02,035,28,27,59,027,40*71
$BDGSV,1,1,01,12,00,000,46*58
$LOGTIM,1,-1060.413010,0.000000,0.000000,0.000000,-63.282*06
EndT:        0
---00000072--- Acq_st=3 2019-5-25 03:07:35 
[00]  G07  f 46  -3266.9 2046004.2  1.0  1.0  5  0 529672925
[01]  G08  f 46   -640.1 2046000.8  1.0  1.0  5  0 529672932
[02]  G21  f 28   2454.1 2045996.7  0.9  0.8  5  0 529672912
[03]  G27  f 40   1561.9 2045998.0  1.0  1.0  5  0 529672930
[16]  B12 1f 46   1331.2 4091996.5  1.0  1.0  5  0 529658925
lsq: nits= 4
$GNGGA,030736.000,3112.7369,N,12136.4177,E,1,04,3.8,105.1,M,,,,0000*12
$GNRMC,030736.000,A,3112.7369,N,12136.4177,E,0.85,0.00,250519,,*13
$GPGSA,A,3,07,08,21,27,,,,,,,,,4.9,3.8,3.0*3E
$BDGSA,A,3,,,,,,,,,,,,,4.9,3.8,3.0*26
$GPGSV,1,1,04,07,37,316,46,08,73,274,46,21,02,035,28,27,59,027,40*72
$BDGSV,1,1,01,12,00,000,46*58
$LOGTIM,1,-1123.546733,0.000000,0.000000,0.000000,-62.944*07
EndT:        0
---00000073--- Acq_st=3 2019-5-25 03:07:36 
[00]  G07  f 45  -3266.2 2046004.3  1.0  1.0  5  0 529673925
[01]  G08  f 45   -639.7 2046000.8  1.0  1.0  5  0 529673932
[02]  G21  f 29   2453.8 2045996.8  0.9  0.9  5  0 529673912
[03]  G27  f 40   1562.7 2045997.9  1.0  1.0  5  0 529673930
[16]  B12 1f 46   1332.0 4091996.5  1.0  1.0  5  0 529659925
lsq: nits= 4
$GNGGA,030737.000,3112.7364,N,12136.4177,E,1,04,3.8,104.8,M,,,,0000*16
$GNRMC,030737.000,A,3112.7364,N,12136.4177,E,0.62,0.00,250519,,*16
$GPGSA,A,3,07,08,21,27,,,,,,,,,4.9,3.8,3.0*3E
$BDGSA,A,3,,,,,,,,,,,,,4.9,3.8,3.0*26
$GPGSV,1,1,04,07,37,316,45,08,73,274,45,21,02,035,29,27,59,027,40*73
$BDGSV,1,1,01,12,00,000,46*58
$LOGTIM,1,-1186.967073,0.000000,0.000000,0.000000,-63.014*09
EndT:        0
---00000074--- Acq_st=3 2019-5-25 03:07:37 
[00]  G07  f 46  -3266.1 2046004.3  1.0  1.0  5  0 529674925
[01]  G08  f 45   -638.9 2046000.8  1.0  1.0  5  0 529674932
[02]  G21  f 27   2454.8 2045996.8  0.9  0.8  5  0 529674912
[03]  G27  f 40   1562.9 2045998.0  1.0  1.0  5  0 529674930
[16]  B12 1f 46   1332.1 4091996.5  1.0  1.0  5  0 529660925
lsq: nits= 4
$GNGGA,030738.000,3112.7363,N,12136.4177,E,1,04,3.8,105.1,M,,,,0000*16
$GNRMC,030738.000,A,3112.7363,N,12136.4177,E,0.76,0.00,250519,,*1B
$GPGSA,A,3,07,08,21,27,,,,,,,,,4.9,3.8,3.0*3E
$BDGSA,A,3,,,,,,,,,,,,,4.9,3.8,3.0*26
$GPGSV,1,1,04,07,37,316,46,08,73,274,45,21,02,035,27,27,59,027,40*7E
$BDGSV,1,1,01,12,00,000,46*58
$LOGTIM,1,-1249.218047,0.000000,0.000000,0.000000,-62.717*08
EndT:        0
---00000075--- Acq_st=3 2019-5-25 03:07:38 
[00]  G07  f 46  -3264.9 2046004.2  1.0  1.0  5  0 529675925
[01]  G08  f 46   -637.4 2046000.8  1.0  1.0  5  0 529675932
[02]  G21  f 29   2456.0 2045996.8  0.9  0.8  5  0 529675912
[03]  G27  f 39   1564.1 2045998.0  1.0  1.0  5  0 529675930
[16]  B12 1f 45   1333.5 4091996.5  1.0  1.0  5  0 529661925
lsq: nits= 4
$GNGGA,030739.000,3112.7361,N,12136.4177,E,1,04,3.8,104.8,M,,,,0000*1D
$GNRMC,030739.000,A,3112.7361,N,12136.4177,E,0.50,0.00,250519,,*1C
$GPGSA,A,3,07,08,21,27,,,,,,,,,4.9,3.8,3.0*3E
$BDGSA,A,3,,,,,,,,,,,,,4.9,3.8,3.0*26
$GPGSV,1,1,04,07,37,316,46,08,73,274,46,21,02,035,29,27,59,027,39*7D
$BDGSV,1,1,01,12,00,000,45*5B
$LOGTIM,1,-1312.338851,0.000000,0.000000,0.000000,-62.987*0C
EndT:        0
---00000076--- Acq_st=3 2019-5-25 03:07:39 
[00]  G07  f 45  -3269.0 2046004.2  1.0  1.0  5  0 529676925
[01]  G08  f 46   -641.3 2046000.8  1.0  1.0  5  0 529676932
[02]  G21  f 29   2452.6 2045996.9  0.9  1.0  5  0 529676912
[03]  G27  f 38   1560.1 2045998.0  1.0  1.0  5  0 529676930
[16]  B12 1f 45   1329.7 4091996.5  1.0  1.0  5  0 529662925
lsq: nits= 4
$GNGGA,030740.000,3112.7359,N,12136.4178,E,1,04,3.8,104.0,M,,,,0000*1F
$GNRMC,030740.000,A,3112.7359,N,12136.4178,E,0.27,0.00,250519,,*16
$GPGSA,A,3,07,08,21,27,,,,,,,,,4.9,3.8,3.0*3E
$BDGSA,A,3,,,,,,,,,,,,,4.9,3.8,3.0*26
$GPGSV,1,1,04,07,37,316,45,08,73,274,46,21,02,035,29,27,59,027,38*7F
$BDGSV,1,1,01,12,00,000,45*5B
$LOGTIM,1,-1376.377573,0.000000,0.000000,0.000000,-63.434*0C
EndT:        0
---00000077--- Acq_st=3 2019-5-25 03:07:40 
[00]  G07  f 45  -3271.5 2046004.3  1.0  1.0  5  0 529677925
[01]  G08  f 46   -643.5 2046000.8  1.0  1.0  5  0 529677932
[02]  G21  f 29   2449.3 2045996.7  0.9  0.9  5  0 529677912
[03]  G27  f 38   1558.0 2045998.0  1.0  1.1  5  0 529677930
[16]  B12 1f 45   1327.3 4091996.5  1.0  1.0  5  0 529663925
lsq: nits= 4
$GNGGA,030741.000,3112.7359,N,12136.4180,E,1,04,3.8,103.9,M,,,,0000*17
$GNRMC,030741.000,A,3112.7359,N,12136.4180,E,0.24,0.00,250519,,*13
$GPGSA,A,3,07,08,21,27,,,,,,,,,4.9,3.8,3.0*3E
$BDGSA,A,3,,,,,,,,,,,,,4.9,3.8,3.0*26
$GPGSV,1,1,04,07,37,316,45,08,73,274,46,21,02,035,29,27,59,027,38*7F
$BDGSV,1,1,01,12,00,000,45*5B
$LOGTIM,1,-1439.976267,0.000000,0.000000,0.000000,-63.600*0C
EndT:        0
---00000078--- Acq_st=3 2019-5-25 03:07:41 
[00]  G07  f 46  -3272.0 2046004.2  1.0  1.0  5  0 529678925
[01]  G08  f 45   -643.6 2046000.9  1.0  1.0  5  0 529678932
[02]  G21  f 29   2450.1 2045996.9  0.9  0.9  5  0 529678912
[03]  G27  f 38   1557.2 2045997.9  1.0  1.0  5  0 529678930
[16]  B12 1f 46   1326.7 4091996.5  1.0  1.0  5  0 529664925
lsq: nits= 4
$GNGGA,030742.000,3112.7358,N,12136.4181,E,1,04,3.8,103.4,M,,,,0000*19
$GNRMC,030742.000,A,3112.7358,N,12136.4181,E,0.14,0.00,250519,,*13
$GPGSA,A,3,07,08,21,27,,,,,,,,,4.9,3.8,3.0*3E
$BDGSA,A,3,,,,,,,,,,,,,4.9,3.8,3.0*26
$GPGSV,1,1,04,07,37,316,46,08,73,275,45,21,02,035,29,27,59,027,38*7E
$BDGSV,1,1,01,12,00,000,46*58
$LOGTIM,1,-1503.999168,0.000000,0.000000,0.000000,-63.666*09
EndT:        0
---00000079--- Acq_st=7 2019-5-25 03:07:42 
[00]  G07  f 46  -3269.5 2046004.2  1.0  1.0  5  0 529679925
[01]  G08  f 45   -641.2 2046000.9  1.0  1.0  5  0 529679932
[02]  G21  f 29   2451.8 2045996.8  0.9  0.9  5  0 529679912
[03]  G27  f 38   1559.8 2045998.0  1.0  1.0  5  0 529679930
[16]  B12 1f 45   1329.5 4091996.5  1.0  1.0  5  0 529665925
lsq: nits= 4
$GNGGA,030743.000,3112.7358,N,12136.4182,E,1,04,3.8,103.4,M,,,,0000*1B
$GNRMC,030743.000,A,3112.7358,N,12136.4182,E,0.24,0.00,250519,,*12
$GPGSA,A,3,07,08,21,27,,,,,,,,,4.9,3.8,3.0*3E
$BDGSA,A,3,,,,,,,,,,,,,4.9,3.8,3.0*26
$GPGSV,1,1,04,07,37,316,46,08,73,275,45,21,02,035,29,27,59,027,38*7E
$BDGSV,1,1,01,12,00,000,45*5B
$LOGTIM,1,-1567.368733,0.000000,0.000000,0.000000,-63.450*00
EndT:        0
---00000080--- Acq_st=3 2019-5-25 03:07:43 
[00]  G07  f 45  -3268.1 2046004.2  1.0  1.0  5  0 529680925
[01]  G08  f 45   -639.6 2046000.8  1.0  1.0  5  0 529680932
[02]  G21  f 30   2452.4 2045996.8  1.0  0.9  5  0 529680912
[03]  G27  f 37   1562.1 2045998.0  1.0  1.0  5  0 529680930
[16]  B12 1f 45   1330.6 4091996.5  1.0  1.0  5  0 529666925
lsq: nits= 4
$GNGGA,030744.000,3112.7358,N,12136.4184,E,1,04,3.8,103.1,M,,,,0000*1F
$GNRMC,030744.000,A,3112.7358,N,12136.4184,E,0.42,0.00,250519,,*13
$GPGSA,A,3,07,08,21,27,,,,,,,,,4.9,3.8,3.0*3E
$BDGSA,A,3,,,,,,,,,,,,,4.9,3.8,3.0*26
$GPGSV,1,1,04,07,37,316,45,08,73,275,45,21,02,035,30,27,59,027,37*7A
$BDGSV,1,1,01,12,00,000,45*5B
$LOGTIM,1,-1630.611194,0.000000,0.000000,0.000000,-63.272*07
EndT:        0
---00000081--- Acq_st=3 2019-5-25 03:07:44 
[00]  G07  f 46  -3264.9 2046004.2  1.0  1.0  5  0 529681925
[01]  G08  f 45   -636.0 2046000.8  1.0  1.0  5  0 529681932
[02]  G21  f 30   2455.4 2045996.9  1.0  0.9  5  0 529681912
[03]  G27  f 36   1565.2 2045997.9  1.0  1.0  5  0 529681930
[16]  B12 1f 45   1334.1 4091996.5  1.0  1.0  5  0 529667925
lsq: nits= 4
$GNGGA,030745.000,3112.7367,N,12136.4199,E,1,05,3.8,104.7,M,,,,0000*1E
$GNRMC,030745.000,A,3112.7367,N,12136.4199,E,1.02,0.00,250519,,*17
$GPGSA,A,3,07,08,21,27,,,,,,,,,4.9,3.8,3.0*3E
$BDGSA,A,3,12,,,,,,,,,,,,4.9,3.8,3.0*25
$GPGSV,1,1,04,07,37,316,46,08,73,275,45,21,02,035,30,27,59,027,36*78
$BDGSV,1,1,01,12,00,000,45*5B
$LOGTIM,3,-1692.530179,-1867.032603,0.000000,0.000000,-62.655*1F
EndT:        1
---00000082--- Acq_st=3 2019-5-25 03:07:45 
[00]  G07  f 46  -3259.3 2046004.2  1.0  1.0  5  0 529682925
[01]  G08  f 45   -630.0 2046000.8  1.0  1.0  5  0 529682932
[02]  G21  f 29   2462.0 2045996.8  0.9  0.9  5  0 529682912
[03]  G27  f 37   1570.6 2045998.0  1.0  1.0  5  0 529682930
[16]  B12 1f 44   1339.8 4091996.5  1.0  1.0  5  0 529668925
lsq: nits= 2
$GNGGA,030746.000,3112.7362,N,12136.4198,E,1,05,2.2,104.5,M,,,,0000*10
$GNRMC,030746.000,A,3112.7362,N,12136.4198,E,1.64,0.00,250519,,*10
$GPGSA,A,3,07,08,21,27,,,,,,,,,2.4,2.2,0.9*34
$BDGSA,A,3,12,,,,,,,,,,,,2.4,2.2,0.9*2F
$GPGSV,1,1,04,07,37,316,46,08,73,275,45,21,02,035,29,27,59,027,37*71
$BDGSV,1,1,01,12,56,042,44*5F
$LOGTIM,3,-1754.374941,-1928.497258,0.000000,0.000000,-61.785*15
EndT:        1
---00000083--- Acq_st=3 2019-5-25 03:07:46 
[00]  G07  f 46  -3253.0 2046004.3  1.0  1.0  5  0 529683925
[01]  G08  f 45   -623.8 2046000.8  1.0  1.0  5  0 529683932
[02]  G21  f 29   2466.6 2045996.7  0.9  1.0  5  0 529683912
[03]  G27  f 36   1577.1 2045997.9  1.0  1.0  5  0 529683930
[16]  B12 1f 45   1346.3 4091996.5  1.0  1.0  5  0 529669925
lsq: nits= 2
$GNGGA,030747.000,3112.7357,N,12136.4198,E,1,05,2.2,104.4,M,,,,0000*16
$GNRMC,030747.000,A,3112.7357,N,12136.4198,E,1.74,0.00,250519,,*16
$GPGSA,A,3,07,08,21,27,,,,,,,,,2.4,2.2,0.9*34
$BDGSA,A,3,12,,,,,,,,,,,,2.4,2.2,0.9*2F
$GPGSV,1,1,04,07,37,316,46,08,73,275,45,21,02,035,29,27,59,027,36*70
$BDGSV,1,1,01,12,56,042,45*5E
$LOGTIM,3,-1815.663404,-1989.755709,0.000000,0.000000,-61.390*17
EndT:        1
---00000084--- Acq_st=3 2019-5-25 03:07:47 
[00]  G07  f 46  -3253.2 2046004.2  1.0  1.0  5  0 529684925
[01]  G08  f 45   -623.5 2046000.8  1.0  1.0  5  0 529684932
[02]  G21  f 29   2467.6 2045996.8  0.9  0.8  5  0 529684912
[03]  G27  f 35   1577.8 2045998.0  1.0  1.0  5  0 529684930
[16]  B12 1f 45   1346.3 4091996.5  1.0  1.0  5  0 529670925
ch4 satid=8,max_freq = -1000,max_mean = 22569,max_phase = 1743,max_value = 155577,acq ok1!
acq ok1 timeH = 0,timeL = 1616586230,freq_stage = 4
lsq: nits= 2
$GNGGA,030748.000,3112.7354,N,12136.4198,E,1,05,2.2,104.6,M,,,,0000*18
$GNRMC,030748.000,A,3112.7354,N,12136.4198,E,1.33,0.00,250519,,*19
$GPGSA,A,3,07,08,21,27,,,,,,,,,2.4,2.2,0.9*34
$BDGSA,A,3,12,,,,,,,,,,,,2.4,2.2,0.9*2F
$GPGSV,1,1,04,07,37,316,46,08,73,275,45,21,02,035,29,27,59,027,35*73
$BDGSV,1,1,01,12,56,042,45*5E
$LOGTIM,3,-1876.747785,-2050.732080,0.000000,0.000000,-61.564*1B
EndT:        1
---00000085--- Acq_st=3 2019-5-25 03:07:48 
[00]  G07  f 46  -3255.6 2046004.2  1.0  1.0  5  0 529685925
[01]  G08  f 45   -626.1 2046000.8  1.0  1.0  5  0 529685932
[02]  G21  f 29   2463.6 2045996.8  0.9  0.8  5  0 529685912
[03]  G27  f 34   1574.8 2045998.1  1.0  1.0  5  0 529685930
[04]  G09  1  7    878.3 2046000.0  0.2  0.0  1  0        17
[16]  B12 1f 45   1343.9 4091996.4  1.0  1.0  5  0 529671925
lsq: nits= 2
$GNGGA,030749.000,3112.7351,N,12136.4199,E,1,05,2.2,104.7,M,,,,0000*1C
$GNRMC,030749.000,A,3112.7351,N,12136.4199,E,1.10,0.00,250519,,*1D
$GPGSA,A,3,07,08,21,27,,,,,,,,,2.4,2.2,0.9*34
$BDGSA,A,3,12,,,,,,,,,,,,2.4,2.2,0.9*2F
$GPGSV,1,1,04,07,37,316,46,08,73,275,45,21,02,035,29,27,59,027,34*72
$BDGSV,1,1,01,12,56,042,45*5E
$LOGTIM,3,-1937.952888,-2111.786603,0.000000,0.000000,-61.593*19
EndT:        1
---00000086--- Acq_st=3 2019-5-25 03:07:49 
[00]  G07  f 46  -3254.2 2046004.2  1.0  1.0  5  0 529686925
[01]  G08  f 45   -624.4 2046000.8  1.0  1.0  5  0 529686932
[02]  G21  f 28   2465.7 2045996.8  0.9  0.8  5  0 529686912
[03]  G27  f 34   1575.7 2045998.0  1.0  1.0  5  0 529686930
[04]  G09  7  7    813.2 2045998.9  0.2  0.0 20  0        17
[16]  B12 1f 44   1344.8 4091996.5  1.0  1.0  5  0 529672925
lsq: nits= 2
$GNGGA,030750.000,3112.7379,N,12136.4230,E,1,05,2.2,112.7,M,,,,0000*19
$GNRMC,030750.000,A,3112.7379,N,12136.4230,E,0.58,0.00,250519,,*12
$GPGSA,A,3,07,08,21,27,,,,,,,,,2.4,2.2,0.9*34
$BDGSA,A,3,12,,,,,,,,,,,,2.4,2.2,0.9*2F
$GPGSV,1,1,04,07,37,316,46,08,73,275,45,21,02,035,28,27,59,027,34*73
$BDGSV,1,1,01,12,56,042,44*5F
$LOGTIM,3,-1995.455615,-2176.986945,0.000000,0.000000,-61.872*11
EndT:        1
---00000087--- Acq_st=3 2019-5-25 03:07:50 
[00]  G07  f 46  -3259.7 2046004.2  1.0  1.0  5  0 529687925
[01]  G08  f 44   -629.6 2046000.8  1.0  1.0  5  0 529687932
[02]  G21  f 29   2461.0 2045996.8  0.9  0.9  5  0 529687912
[03]  G27  f 34   1570.9 2045997.9  1.0  1.0  5  0 529687930
[04]  G09  7 38    807.3 2045998.9  0.4  1.0  5  0         4
[16]  B12 1f 44   1340.2 4091996.5  1.0  1.0  5  0 529673925
lsq: nits= 2
$GNGGA,030751.000,3112.7401,N,12136.4257,E,1,05,2.2,119.1,M,,,,0000*1C
$GNRMC,030751.000,A,3112.7401,N,12136.4257,E,0.26,0.00,250519,,*13
$GPGSA,A,3,07,08,21,27,,,,,,,,,2.4,2.2,0.9*34
$BDGSA,A,3,12,,,,,,,,,,,,2.4,2.2,0.9*2F
$GPGSV,2,1,05,07,37,316,46,08,73,275,44,21,02,035,29,27,59,027,34*71
$GPGSV,2,2,05,09,00,000,38*4E
$BDGSV,1,1,01,12,56,042,44*5F
$LOGTIM,3,-2055.048909,-2241.665718,0.000000,0.000000,-62.663*13
EndT:        1
---00000088--- Acq_st=3 2019-5-25 03:07:51 
[00]  G07  f 46  -3265.0 2046004.2  1.0  1.0  5  0 529688925
[01]  G08  f 45   -634.3 2046000.8  1.0  1.0  5  0 529688932
[02]  G21  f 29   2455.6 2045996.8  0.9  0.9  5  0 529688912
[03]  G27  f 33   1566.1 2045998.0  1.0  1.0  5  0 529688930
[04]  G09  7 39    802.6 2045998.9  1.0  1.0  5  0         4
[16]  B12 1f 44   1335.0 4091996.5  1.0  1.0  5  0 529674925
lsq: nits= 2
$GNGGA,030752.000,3112.7385,N,12136.4244,E,1,05,2.2,115.3,M,,,,0000*18
$GNRMC,030752.000,A,3112.7385,N,12136.4244,E,0.07,0.00,250519,,*1A
$GPGSA,A,3,07,08,21,27,,,,,,,,,2.4,2.2,0.9*34
$BDGSA,A,3,12,,,,,,,,,,,,2.4,2.2,0.9*2F
$GPGSV,2,1,05,07,37,316,46,08,73,275,45,21,02,035,29,27,59,027,33*77
$GPGSV,2,2,05,09,00,000,39*4F
$BDGSV,1,1,02,12,56,042,44,16,17,201,00*6E
$LOGTIM,3,-2119.661584,-2303.625667,0.000000,0.000000,-62.780*18
EndT:        1
---00000089--- Acq_st=3 2019-5-25 03:07:52 
[00]  G07  f 46  -3264.4 2046004.3  1.0  1.0  5  0 529689925
[01]  G08  f 45   -633.7 2046000.8  1.0  1.0  5  0 529689932
[02]  G21  f 29   2455.1 2045996.8  1.0  0.9  5  0 529689912
[03]  G27  f 34   1566.0 2045998.0  1.0  1.0  5  0 529689930
