FlashID=0x1 0x20 0x18
BBram_blkflag1:  42d: fbd2
FW Ver: 1.30  
GPS00 Init Dop:   5000, 40
GPS01 Init Dop:   5000, 40
GPS02 Init Dop:   5000, 40
GPS03 Init Dop:   5000, 40
GPS04 Init Dop:   5000, 40
GPS05 Init Dop:   5000, 40
GPS06 Init Dop:   5000, 40
GPS07 Init Dop:   5000, 40
GPS08 Init Dop:   5000, 40
GPS09 Init Dop:   5000, 40
GPS10 Init Dop:   5000, 40
GPS11 Init Dop:   5000, 40
GPS12 Init Dop:   5000, 40
GPS13 Init Dop:   5000, 40
GPS14 Init Dop:   5000, 40
GPS15 Init Dop:   5000, 40
GPS16 Init Dop:   5000, 40
GPS17 Init Dop:   5000, 40
GPS18 Init Dop:   5000, 40
GPS19 Init Dop:   5000, 40
GPS20 Init Dop:   5000, 40
GPS21 Init Dop:   5000, 40
GPS22 Init Dop:   5000, 40
GPS23 Init Dop:   5000, 40
GPS24 Init Dop:   5000, 40
GPS25 Init Dop:   5000, 40
GPS26 Init Dop:   5000, 40
GPS27 Init Dop:   5000, 40
GPS28 Init Dop:   5000, 40
GPS29 Init Dop:   5000, 40
GPS30 Init Dop:   5000, 40
GPS31 Init Dop:   5000, 40
BDS00 Init Dop:   5000, 40
BDS01 Init Dop:   5000, 40
BDS02 Init Dop:   5000, 40
BDS03 Init Dop:   5000, 40
BDS04 Init Dop:   5000, 40
BDS05 Init Dop:   5000, 40
BDS06 Init Dop:   5000, 40
BDS07 Init Dop:   5000, 40
BDS08 Init Dop:   5000, 40
BDS09 Init Dop:   5000, 40
BDS10 Init Dop:   5000, 40
BDS11 Init Dop:   5000, 40
BDS12 Init Dop:   5000, 40
BDS13 Init Dop:   5000, 40
BDS14 Init Dop:   5000, 40
BDS15 Init Dop:   5000, 40
BDS16 Init Dop:   5000, 40
BDS17 Init Dop:   5000, 40
BDS18 Init Dop:   5000, 40
BDS19 Init Dop:   5000, 40
BDS20 Init Dop:   5000, 40
BDS21 Init Dop:   5000, 40
BDS22 Init Dop:   5000, 40
BDS23 Init Dop:   5000, 40
BDS24 Init Dop:   5000, 40
BDS25 Init Dop:   5000, 40
BDS26 Init Dop:   5000, 40
BDS27 Init Dop:   5000, 40
BDS28 Init Dop:   5000, 40
BDS29 Init Dop:   5000, 40
BDS30 Init Dop:   5000, 40
BDS31 Init Dop:   5000, 40
good luck!
---00000001--- Acq_st=3 2019-5-22 07:43:34 
[00]  G01  1  7   2497.7 2045998.5  0.0  0.0  1  0         0
$GNGGA,000000.000,,,,,0,00,,,M,,,,0000*2B
$GNRMC,000000.000,A,,,,,,,000000,,*26
$GPGSA,A,1,,,,,,,,,,,,,,,*1E
$BDGSA,A,1,,,,,,,,,,,,,,,*0F
$LOGTIM,0,0.000000,0.000000,0.000000,0.000000,0.000*0A
EndT:        0
---00000002--- Acq_st=3 2019-5-22 07:43:35 
[00]  G01  1 29   2456.4 2045996.8 -0.3  0.0  1  0         7
$GNGGA,000000.000,,,,,0,00,,,M,,,,0000*2B
$GNRMC,000000.000,A,,,,,,,000000,,*26
$GPGSA,A,1,,,,,,,,,,,,,,,*1E
$BDGSA,A,1,,,,,,,,,,,,,,,*0F
$LOGTIM,0,0.000000,0.000000,0.000000,0.000000,0.000*0A
EndT:        0
---00000003--- Acq_st=3 2019-5-22 07:43:36 
[00]  G01  7 35   2461.3 2045996.8  0.6  1.0  5  0         7
$GNGGA,000000.000,,,,,0,00,,,M,,,,0000*2B
$GNRMC,000000.000,A,,,,,,,000000,,*26
$GPGSA,A,1,,,,,,,,,,,,,,,*1E
$BDGSA,A,1,,,,,,,,,,,,,,,*0F
$GPGSV,1,1,01,01,00,000,35*4F
$LOGTIM,0,0.000000,0.000000,0.000000,0.000000,0.000*0A
EndT:        0
---00000004--- Acq_st=3 2019-5-22 07:43:37 
[00]  G01  7 41   2460.0 2045996.7  1.0  1.0  5  0        19
$GNGGA,000000.000,,,,,0,00,,,M,,,,0000*2B
$GNRMC,000000.000,A,,,,,,,000000,,*26
$GPGSA,A,1,,,,,,,,,,,,,,,*1E
$BDGSA,A,1,,,,,,,,,,,,,,,*0F
$GPGSV,1,1,01,01,00,000,41*4C
$LOGTIM,0,0.000000,0.000000,0.000000,0.000000,0.000*0A
EndT:        0
---00000005--- Acq_st=3 2019-5-22 07:43:38 
[00]  G01  f 41   2458.9 2045996.7  1.0  1.0  5  0        19
$GNGGA,000000.000,,,,,0,00,,,M,,,,0000*2B
$GNRMC,000000.000,A,,,,,,,000000,,*26
$GPGSA,A,1,,,,,,,,,,,,,,,*1E
$BDGSA,A,1,,,,,,,,,,,,,,,*0F
$GPGSV,1,1,01,01,00,000,41*4C
$LOGTIM,0,0.000000,0.000000,0.000000,0.000000,0.000*0A
EndT:        0
---00000006--- Acq_st=3 2019-5-22 07:43:39 
[00]  G01  f 41   2455.5 2045996.8  1.0  1.0  5  0 287036079
$GNGGA,000000.000,,,,,0,00,,,M,,,,0000*2B
$GNRMC,000000.000,A,,,,,,,000000,,*26
$GPGSA,A,1,,,,,,,,,,,,,,,*1E
$BDGSA,A,1,,,,,,,,,,,,,,,*0F
$GPGSV,1,1,01,01,00,000,41*4C
$LOGTIM,0,0.000000,0.000000,0.000000,0.000000,0.000*0A
EndT:        0
---00000007--- Acq_st=3 2019-5-22 07:43:40 
[00]  G01  f 41   2451.9 2045996.8  1.0  1.0  5  0 287037079
$GNGGA,000000.000,,,,,0,00,,,M,,,,0000*2B
$GNRMC,000000.000,A,,,,,,,000000,,*26
$GPGSA,A,1,,,,,,,,,,,,,,,*1E
$BDGSA,A,1,,,,,,,,,,,,,,,*0F
$GPGSV,1,1,01,01,00,000,41*4C
$LOGTIM,0,0.000000,0.000000,0.000000,0.000000,0.000*0A
EndT:        0
---00000008--- Acq_st=3 2019-5-22 07:43:41 
[00]  G01  f 41   2457.2 2045996.8  1.0  1.0  5  0 287038079
$GNGGA,000000.000,,,,,0,00,,,M,,,,0000*2B
$GNRMC,000000.000,A,,,,,,,000000,,*26
$GPGSA,A,1,,,,,,,,,,,,,,,*1E
$BDGSA,A,1,,,,,,,,,,,,,,,*0F
$GPGSV,1,1,01,01,00,000,41*4C
$LOGTIM,0,0.000000,0.000000,0.000000,0.000000,0.000*0A
EndT:        0
---00000009--- Acq_st=3 2019-5-22 07:43:42 
[00]  G01  f 41   2456.5 2045996.8  1.0  1.0  5  0 287039079
$GNGGA,000000.000,,,,,0,00,,,M,,,,0000*2B
$GNRMC,000000.000,A,,,,,,,000000,,*26
$GPGSA,A,1,,,,,,,,,,,,,,,*1E
$BDGSA,A,1,,,,,,,,,,,,,,,*0F
$GPGSV,1,1,01,01,00,000,41*4C
$LOGTIM,0,0.000000,0.000000,0.000000,0.000000,0.000*0A
EndT:        0
---00000010--- Acq_st=3 2019-5-22 07:43:43 
[00]  G01  f 41   2451.9 2045996.8  1.0  1.0  5  0 287040079
[01]  G11  1 13   2173.5 2045998.5 -0.1  0.0  1  0         0
$GNGGA,000000.000,,,,,0,00,,,M,,,,0000*2B
$GNRMC,000000.000,A,,,,,,,000000,,*26
$GPGSA,A,1,,,,,,,,,,,,,,,*1E
$BDGSA,A,1,,,,,,,,,,,,,,,*0F
$GPGSV,1,1,01,01,00,000,41*4C
$LOGTIM,0,0.000000,0.000000,0.000000,0.000000,0.000*0A
EndT:        0
---00000011--- Acq_st=3 2019-5-22 07:43:44 
[00]  G01  f 41   2451.6 2045996.8  1.0  1.0  5  0 287041079
[01]  G11  7 22   2138.7 2045997.0 -0.1  0.0 20  0        15
$GNGGA,000000.000,,,,,0,00,,,M,,,,0000*2B
$GNRMC,000000.000,A,,,,,,,000000,,*26
$GPGSA,A,1,,,,,,,,,,,,,,,*1E
$BDGSA,A,1,,,,,,,,,,,,,,,*0F
$GPGSV,1,1,02,01,00,000,41,11,00,000,22*7F
$LOGTIM,0,0.000000,0.000000,0.000000,0.000000,0.000*0A
EndT:        0
---00000012--- Acq_st=3 2019-5-22 07:43:45 
[00]  G01  f 41   2449.5 2045996.9  1.0  1.0  5  0 287042079
[01]  G11  7 26   2125.1 2045997.1  0.6  0.0 10  0        17
$GNGGA,000000.000,,,,,0,00,,,M,,,,0000*2B
$GNRMC,000000.000,A,,,,,,,000000,,*26
$GPGSA,A,1,,,,,,,,,,,,,,,*1E
$BDGSA,A,1,,,,,,,,,,,,,,,*0F
$GPGSV,1,1,02,01,00,000,41,11,00,000,26*7B
$LOGTIM,0,0.000000,0.000000,0.000000,0.000000,0.000*0A
EndT:        0
---00000013--- Acq_st=3 2019-5-22 07:43:46 
[00]  G01  f 41   2449.6 2045996.8  1.0  1.0  5  0 287043079
[01]  G11  7 26   2125.5 2045997.1  1.0 -0.1 10  0        17
$GNGGA,000000.000,,,,,0,00,,,M,,,,0000*2B
$GNRMC,000000.000,A,,,,,,,000000,,*26
$GPGSA,A,1,,,,,,,,,,,,,,,*1E
$BDGSA,A,1,,,,,,,,,,,,,,,*0F
$GPGSV,1,1,02,01,00,000,41,11,00,000,26*7B
$LOGTIM,0,0.000000,0.000000,0.000000,0.000000,0.000*0A
EndT:        0
---00000014--- Acq_st=3 2019-5-22 07:43:47 
[00]  G01  f 41   2446.2 2045996.8  1.0  1.0  5  0 287044079
[01]  G11  7 26   2121.6 2045997.2  0.9 -0.0 10  0        17
$GNGGA,000000.000,,,,,0,00,,,M,,,,0000*2B
$GNRMC,000000.000,A,,,,,,,000000,,*26
$GPGSA,A,1,,,,,,,,,,,,,,,*1E
$BDGSA,A,1,,,,,,,,,,,,,,,*0F
$GPGSV,1,1,02,01,00,000,41,11,00,000,26*7B
$LOGTIM,0,0.000000,0.000000,0.000000,0.000000,0.000*0A
EndT:        0
---00000015--- Acq_st=3 2019-5-22 07:43:48 
[00]  G01  f 41   2445.2 2045996.8  1.0  1.0  5  0 287045079
[01]  G11  7 26   2120.3 2045997.2  0.9 -0.0 10  0        17
[02]  G17  1 23  -1828.9 2046003.5  0.1  0.0  1  0         0
$GNGGA,000000.000,,,,,0,00,,,M,,,,0000*2B
$GNRMC,000000.000,A,,,,,,,000000,,*26
$GPGSA,A,1,,,,,,,,,,,,,,,*1E
$BDGSA,A,1,,,,,,,,,,,,,,,*0F
$GPGSV,1,1,02,01,00,000,41,11,00,000,26*7B
$LOGTIM,0,0.000000,0.000000,0.000000,0.000000,0.000*0A
EndT:        0
---00000016--- Acq_st=3 2019-5-22 07:43:49 
[00]  G01  f 41   2443.7 2045996.8  1.0  1.0  5  0 287046079
[01]  G11  7 26   2119.5 2045997.1  0.9  0.1 10  0        17
[02]  G17  7 25  -1831.6 2046002.3  0.4  0.0 20  0         4
[03]  G18  1 25   3015.8 2045995.1 -0.2  0.0  1  0         0
$GNGGA,000000.000,,,,,0,00,,,M,,,,0000*2B
$GNRMC,000000.000,A,,,,,,,000000,,*26
$GPGSA,A,1,,,,,,,,,,,,,,,*1E
$BDGSA,A,1,,,,,,,,,,,,,,,*0F
$GPGSV,1,1,03,01,00,000,41,11,00,000,26,17,00,000,25*4B
$LOGTIM,0,0.000000,0.000000,0.000000,0.000000,0.000*0A
EndT:        0
---00000017--- Acq_st=3 2019-5-22 07:43:50 
[00]  G01  f 40   2445.9 2045996.9  1.0  1.0  5  0 287047079
[01]  G11  7 26   2122.0 2045997.2  0.9 -0.1 10  0        17
[02]  G17  7 44  -1829.3 2046002.3  1.0  1.0  5  0        18
[03]  G18  7 27   3015.2 2045996.1  0.3  0.0 20  0        18
[04]  G19  1 27  -2615.0 2046003.7 -0.1  0.0  1  0         0
$GNGGA,000000.000,,,,,0,00,,,M,,,,0000*2B
$GNRMC,000000.000,A,,,,,,,000000,,*26
$GPGSA,A,1,,,,,,,,,,,,,,,*1E
$BDGSA,A,1,,,,,,,,,,,,,,,*0F
$GPGSV,1,1,04,01,00,000,40,11,00,000,26,17,00,000,44,18,00,000,27*76
$LOGTIM,0,0.000000,0.000000,0.000000,0.000000,0.000*0A
EndT:        0
---00000018--- Acq_st=3 2019-5-22 07:43:51 
[00]  G01  f 41   2449.2 2045996.9  1.0  1.0  5  0 287048079
[01]  G11  7 26   2125.2 2045997.2  0.8  0.0 10  0        17
[02]  G17  7 44  -1826.6 2046002.3  1.0  1.0  5  0        18
[03]  G18  7 37   3018.5 2045996.1  0.9  1.0  5  0        12
[04]  G19  7 30  -2608.8 2046003.3  0.4  1.0  5  0        14
$GNGGA,000000.000,,,,,0,00,,,M,,,,0000*2B
$GNRMC,000000.000,A,,,,,,,000000,,*26
$GPGSA,A,1,,,,,,,,,,,,,,,*1E
$BDGSA,A,1,,,,,,,,,,,,,,,*0F
$GPGSV,2,1,05,01,00,000,41,11,00,000,26,17,00,000,44,18,00,000,37*74
$GPGSV,2,2,05,19,00,000,30*47
$LOGTIM,0,0.000000,0.000000,0.000000,0.000000,0.000*0A
EndT:        0
---00000019--- Acq_st=3 2019-5-22 07:43:52 
[00]  G01  f 40   2451.8 2045996.8  1.0  1.0  5  0 287049079
[01]  G11  7 26   2128.4 2045997.2  0.9 -0.1 10  0        17
[02]  G17  7 44  -1824.3 2046002.4  1.0  1.0  5  0        18
[03]  G18  7 37   3020.4 2045996.1  1.0  1.0  5  0        12
[04]  G19  7 42  -2607.4 2046003.3  1.0  1.0  5  0        15
[05]  G22  1 19    989.6 2046000.3 -0.0  0.0  1  0         0
$GNGGA,000000.000,,,,,0,00,,,M,,,,0000*2B
$GNRMC,000000.000,A,,,,,,,000000,,*26
$GPGSA,A,1,,,,,,,,,,,,,,,*1E
$BDGSA,A,1,,,,,,,,,,,,,,,*0F
$GPGSV,2,1,05,01,00,000,40,11,00,000,26,17,00,000,44,18,00,000,37*75
$GPGSV,2,2,05,19,00,000,42*42
$LOGTIM,0,0.000000,0.000000,0.000000,0.000000,0.000*0A
EndT:        0
---00000020--- Acq_st=3 2019-5-22 07:43:53 
[00]  G01  f 40   2455.6 2045996.8  1.0  1.0  5  0 287050079
[01]  G11  7 26   2131.5 2045997.3  0.9 -0.0 10  0        17
[02]  G17  7 44  -1820.5 2046002.3  1.0  1.0  5  0        18
[03]  G18  7 36   3023.8 2045996.1  1.0  1.0  5  0        12
[04]  G19  7 42  -2603.9 2046003.4  1.0  1.0  5  0        15
[05]  G22  7 13    972.8 2045998.6  0.3  0.0 20  0        18
$GNGGA,000000.000,,,,,0,00,,,M,,,,0000*2B
$GNRMC,000000.000,A,,,,,,,000000,,*26
$GPGSA,A,1,,,,,,,,,,,,,,,*1E
$BDGSA,A,1,,,,,,,,,,,,,,,*0F
$GPGSV,2,1,06,01,00,000,40,11,00,000,26,17,00,000,44,18,00,000,36*77
$GPGSV,2,2,06,19,00,000,42,22,00,000,13*73
$LOGTIM,0,0.000000,0.000000,0.000000,0.000000,0.000*0A
EndT:        0
---00000021--- Acq_st=3 2019-5-22 07:43:54 
[00]  G01  f 41   2459.7 2045996.8  1.0  1.0  5  0 287051079
[01]  G11  7 26   2136.5 2045997.2  0.8  0.0 10  0        17
[02]  G17  7 44  -1816.1 2046002.4  1.0  1.0  5  0        18
[03]  G18  7 36   3028.6 2045996.1  1.0  1.0  5  0        12
[04]  G19  7 42  -2599.6 2046003.4  1.0  1.0  5  0        15
[05]  G22  7 39    978.8 2045998.7  0.3  1.0  5  0        18
$GNGGA,000000.000,,,,,0,00,,,M,,,,0000*2B
$GNRMC,000000.000,A,,,,,,,000000,,*26
$GPGSA,A,1,,,,,,,,,,,,,,,*1E
$BDGSA,A,1,,,,,,,,,,,,,,,*0F
$GPGSV,2,1,06,01,00,000,41,11,00,000,26,17,00,000,44,18,00,000,36*76
$GPGSV,2,2,06,19,00,000,42,22,00,000,39*7B
$LOGTIM,0,0.000000,0.000000,0.000000,0.000000,0.000*0A
EndT:        0
---00000022--- Acq_st=3 2019-5-22 07:43:55 
[00]  G01  f 40   2459.8 2045996.8  1.0  1.0  5  0 287052079
[01]  G11  7 26   2136.5 2045997.2  0.9 -0.0 10  0        17
[02]  G17  7 44  -1816.4 2046002.4  1.0  1.0  5  0        18
[03]  G18  7 36   3028.4 2045996.1  1.0  1.0  5  0        12
[04]  G19  7 41  -2599.2 2046003.4  1.0  1.0  5  0        15
[05]  G22  7 39    978.9 2045998.7  1.0  1.0  5  0        18
$GNGGA,000000.000,,,,,0,00,,,M,,,,0000*2B
$GNRMC,000000.000,A,,,,,,,000000,,*26
$GPGSA,A,1,,,,,,,,,,,,,,,*1E
$BDGSA,A,1,,,,,,,,,,,,,,,*0F
$GPGSV,2,1,06,01,00,000,40,11,00,000,26,17,00,000,44,18,00,000,36*77
$GPGSV,2,2,06,19,00,000,41,22,00,000,39*78
$LOGTIM,0,0.000000,0.000000,0.000000,0.000000,0.000*0A
EndT:        0
---00000023--- Acq_st=3 2019-5-22 07:43:56 
[00]  G01  f 41   2456.4 2045996.8  1.0  1.0  5  0 287053079
[01]  G11  7 26   2132.8 2045997.2  0.9  0.0 10  0        17
[02]  G17  f 43  -1819.5 2046002.4  1.0  1.0  5  0        18
[03]  G18  f 36   3024.9 2045996.0  1.0  1.0  5  0        12
[04]  G19  f 40  -2602.4 2046003.4  1.0  1.0  5  0        15
[05]  G22  f 39    975.8 2045998.7  1.0  1.0  5  0        18
$GNGGA,000000.000,,,,,0,00,,,M,,,,0000*2B
$GNRMC,000000.000,A,,,,,,,000000,,*26
$GPGSA,A,1,,,,,,,,,,,,,,,*1E
$BDGSA,A,1,,,,,,,,,,,,,,,*0F
$GPGSV,2,1,06,01,00,000,41,11,00,000,26,17,00,000,43,18,00,000,36*71
$GPGSV,2,2,06,19,00,000,40,22,00,000,39*79
$LOGTIM,0,0.000000,0.000000,0.000000,0.000000,0.000*0A
EndT:        0
---00000024--- Acq_st=3 2019-5-22 07:43:57 
[00]  G01  f 41   2457.3 2045996.8  1.0  1.0  5  0 287054079
[01]  G11  7 26   2133.4 2045997.3  0.9  0.0 10  0        17
[02]  G17  f 43  -1819.4 2046002.3  1.0  1.0  5  0 287054078
[03]  G18  f 36   3024.9 2045996.2  1.0  1.0  5  0 287054072
[04]  G19  f 40  -2602.3 2046003.4  1.0  1.0  5  0 287054075
[05]  G22  f 39    977.1 2045998.7  1.0  1.0  5  0 287054078
[06]  G28  1  7  -1047.1 2046002.7  0.0  0.0  1  0         0
$GNGGA,000000.000,,,,,0,00,,,M,,,,0000*2B
$GNRMC,000000.000,A,,,,,,,000000,,*26
$GPGSA,A,1,,,,,,,,,,,,,,,*1E
$BDGSA,A,1,,,,,,,,,,,,,,,*0F
$GPGSV,2,1,06,01,00,000,41,11,00,000,26,17,00,000,43,18,00,000,36*71
$GPGSV,2,2,06,19,00,000,40,22,00,000,39*79
$LOGTIM,0,0.000000,0.000000,0.000000,0.000000,0.000*0A
EndT:        0
---00000025--- Acq_st=3 2019-5-22 07:43:58 
[00]  G01  f 41   2457.2 2045996.8  1.0  1.0  5  0 287055079
[01]  G11  7 26   2132.5 2045997.0  0.9  0.0 10  0        17
[02]  G17  f 43  -1819.6 2046002.4  1.0  1.0  5  0 287055078
[03]  G18  f 36   3025.0 2045996.1  1.0  1.0  5  0 287055072
[04]  G19  f 39  -2601.9 2046003.4  1.0  1.0  5  0 287055075
[05]  G22  f 39    977.2 2045998.7  1.0  1.0  5  0 287055078
[06]  G28  1 26  -1121.9 2046002.1  0.1  0.0  1  0         7
$GNGGA,000000.000,,,,,0,00,,,M,,,,0000*2B
$GNRMC,000000.000,A,,,,,,,000000,,*26
$GPGSA,A,1,,,,,,,,,,,,,,,*1E
$BDGSA,A,1,,,,,,,,,,,,,,,*0F
$GPGSV,2,1,06,01,00,000,41,11,00,000,26,17,00,000,43,18,00,000,36*71
$GPGSV,2,2,06,19,00,000,39,22,00,000,39*77
$LOGTIM,0,0.000000,0.000000,0.000000,0.000000,0.000*0A
EndT:        0
---00000026--- Acq_st=3 2019-5-22 07:43:59 
[00]  G01  f 41   2456.1 2045996.8  1.0  1.0  5  0 287056079
[01]  G11  7 26   2130.8 2045997.3  0.9  0.0 10  0        17
[02]  G17  f 43  -1820.6 2046002.4  1.0  1.0  5  0 287056078
[03]  G18  f 35   3023.5 2045996.1  1.0  1.0  5  0 287056072
[04]  G19  f 40  -2603.7 2046003.4  1.0  1.0  5  0 287056075
[05]  G22  f 39    976.1 2045998.7  1.0  1.0  5  0 287056078
[06]  G28  7 37  -1122.6 2046001.4  0.9  1.0  5  0         4
$GNGGA,000000.000,,,,,0,00,,,M,,,,0000*2B
$GNRMC,000000.000,A,,,,,,,000000,,*26
$GPGSA,A,1,,,,,,,,,,,,,,,*1E
$BDGSA,A,1,,,,,,,,,,,,,,,*0F
$GPGSV,2,1,07,01,00,000,41,11,00,000,26,17,00,000,43,18,00,000,35*73
$GPGSV,2,2,07,19,00,000,40,22,00,000,39,28,00,000,37*46
$LOGTIM,0,0.000000,0.000000,0.000000,0.000000,0.000*0A
EndT:        0
---00000027--- Acq_st=3 2019-5-22 07:44:0 
[00]  G01  f 41   2460.1 2045996.8  1.0  1.0  5  0 287057079
[01]  G11  7 25   2134.6 2045997.3  0.8 -0.1 10  0        17
[02]  G17  f 43  -1817.0 2046002.3  1.0  1.0  5  0 287057078
[03]  G18  f 36   3027.5 2045996.0  1.0  1.0  5  0 287057072
[04]  G19  f 40  -2599.9 2046003.4  1.0  1.0  5  0 287057075
[05]  G22  f 39    981.1 2045998.8  1.0  1.0  5  0 287057078
[06]  G28  7 37  -1118.6 2046001.4  1.0  1.0  5  0         4
$GNGGA,000000.000,,,,,0,00,,,M,,,,0000*2B
$GNRMC,000000.000,A,,,,,,,000000,,*26
$GPGSA,A,1,,,,,,,,,,,,,,,*1E
$BDGSA,A,1,,,,,,,,,,,,,,,*0F
$GPGSV,2,1,07,01,00,000,41,11,00,000,25,17,00,000,43,18,00,000,36*73
$GPGSV,2,2,07,19,00,000,40,22,00,000,39,28,00,000,37*46
$LOGTIM,0,0.000000,0.000000,0.000000,0.000000,0.000*0A
EndT:        0
---00000028--- Acq_st=3 2019-5-22 07:44:1 
[00]  G01  f 41   2458.2 2045996.8  1.0  1.0  5  0 287058079
[01]  G11  7 26   2133.9 2045997.1  1.0 -0.0 10  0        17
[02]  G17  f 43  -1817.8 2046002.3  1.0  1.0  5  0 287058078
[03]  G18  f 36   3026.6 2045996.1  1.0  1.0  5  0 287058072
[04]  G19  f 40  -2601.2 2046003.4  1.0  1.0  5  0 287058075
[05]  G22  f 39    980.0 2045998.7  1.0  1.0  5  0 287058078
[06]  G28  7 37  -1119.3 2046001.4  1.0  1.0  5  0         4
$GNGGA,000000.000,,,,,0,00,,,M,,,,0000*2B
$GNRMC,000000.000,A,,,,,,,000000,,*26
$GPGSA,A,1,,,,,,,,,,,,,,,*1E
$BDGSA,A,1,,,,,,,,,,,,,,,*0F
$GPGSV,2,1,07,01,00,000,41,11,00,000,26,17,00,000,43,18,00,000,36*70
$GPGSV,2,2,07,19,00,000,40,22,00,000,39,28,00,000,37*46
$LOGTIM,0,0.000000,0.000000,0.000000,0.000000,0.000*0A
EndT:        0
---00000029--- Acq_st=3 2019-5-22 07:44:2 
[00]  G01  f 41   2456.1 2045996.8  1.0  1.0  5  0 287059079
[01]  G11  7 26   2131.2 2045997.2  0.9  0.0 10  0        17
[02]  G17  f 43  -1820.8 2046002.4  1.0  1.0  5  0 287059078
[03]  G18  f 36   3023.2 2045996.1  1.0  1.0  5  0 287059072
[04]  G19  f 40  -2603.7 2046003.3  1.0  1.0  5  0 287059075
[05]  G22  f 39    978.1 2045998.7  1.0  1.0  5  0 287059078
[06]  G28  f 37  -1121.5 2046001.5  1.0  1.0  5  0         4
$GNGGA,000000.000,,,,,0,00,,,M,,,,0000*2B
$GNRMC,000000.000,A,,,,,,,000000,,*26
$GPGSA,A,1,,,,,,,,,,,,,,,*1E
$BDGSA,A,1,,,,,,,,,,,,,,,*0F
$GPGSV,2,1,07,01,00,000,41,11,00,000,26,17,00,000,43,18,00,000,36*70
$GPGSV,2,2,07,19,00,000,40,22,00,000,39,28,00,000,37*46
$LOGTIM,0,0.000000,0.000000,0.000000,0.000000,0.000*0A
EndT:        0
---00000030--- Acq_st=3 2019-5-22 07:44:3 
[00]  G01  f 41   2457.0 2045996.8  1.0  1.0  5  0 287060079
[01]  G11  7 26   2132.0 2045997.2  0.9 -0.0 10  0        17
[02]  G17  f 43  -1820.3 2046002.4  1.0  1.0  5  0 287060078
[03]  G18  f 36   3024.8 2045996.1  1.0  1.0  5  0 287060072
[04]  G19  f 40  -2603.0 2046003.3  1.0  1.0  5  0 287060075
[05]  G22  f 39    978.8 2045998.7  1.0  1.0  5  0 287060078
[06]  G28  f 37  -1120.2 2046001.5  1.0  1.0  5  0 287060084
$GNGGA,000000.000,,,,,0,00,,,M,,,,0000*2B
$GNRMC,000000.000,A,,,,,,,000000,,*26
$GPGSA,A,1,,,,,,,,,,,,,,,*1E
$BDGSA,A,1,,,,,,,,,,,,,,,*0F
$GPGSV,2,1,07,01,00,000,41,11,00,000,26,17,00,000,43,18,00,000,36*70
$GPGSV,2,2,07,19,00,000,40,22,00,000,39,28,00,000,37*46
$LOGTIM,0,0.000000,0.000000,0.000000,0.000000,0.000*0A
EndT:        0
---00000031--- Acq_st=3 2019-5-22 07:44:4 
[00]  G01  f 41   2460.1 2045996.8  1.0  1.0  5  0 287061079
[01]  G11  7 26   2134.5 2045997.3  0.9 -0.0 10  0        17
[02]  G17  f 43  -1817.1 2046002.4  1.0  1.0  5  0 287061078
[03]  G18  f 36   3027.8 2045996.1  1.0  1.0  5  0 287061072
[04]  G19  f 40  -2600.3 2046003.3  1.0  1.0  5  0 287061075
[05]  G22  f 39    982.6 2045998.7  1.0  1.0  5  0 287061078
[06]  G28  f 37  -1117.0 2046001.4  1.0  1.0  5  0 287061084
$GNGGA,000000.000,,,,,0,00,,,M,,,,0000*2B
$GNRMC,000000.000,A,,,,,,,000000,,*26
$GPGSA,A,1,,,,,,,,,,,,,,,*1E
$BDGSA,A,1,,,,,,,,,,,,,,,*0F
$GPGSV,2,1,07,01,00,000,41,11,00,000,26,17,00,000,43,18,00,000,36*70
$GPGSV,2,2,07,19,00,000,40,22,00,000,39,28,00,000,37*46
$LOGTIM,0,0.000000,0.000000,0.000000,0.000000,0.000*0A
EndT:        0
---00000032--- Acq_st=3 2019-5-22 07:44:5 
[00]  G01  f 41   2459.2 2045996.8  1.0  1.0  5  0 287062079
[01]  G11  7 26   2135.4 2045997.1  0.9  0.0 10  0        17
[02]  G17  f 42  -1818.0 2046002.4  1.0  1.0  5  0 287062078
[03]  G18  f 36   3026.2 2045996.1  1.0  1.0  5  0 287062072
[04]  G19  f 39  -2600.8 2046003.4  1.0  1.0  5  0 287062075
[05]  G22  f 38    982.5 2045998.7  1.0  1.0  5  0 287062078
[06]  G28  f 37  -1117.0 2046001.5  1.0  0.9  5  0 287062084
$GNGGA,000000.000,,,,,0,00,,,M,,,,0000*2B
$GNRMC,000000.000,A,,,,,,,000000,,*26
$GPGSA,A,1,,,,,,,,,,,,,,,*1E
$BDGSA,A,1,,,,,,,,,,,,,,,*0F
$GPGSV,2,1,07,01,00,000,41,11,00,000,26,17,00,000,42,18,00,000,36*71
$GPGSV,2,2,07,19,00,000,39,22,00,000,38,28,00,000,37*49
$LOGTIM,0,0.000000,0.000000,0.000000,0.000000,0.000*0A
EndT:        0
---00000033--- Acq_st=3 2019-5-22 07:44:6 
[00]  G01  f 41   2461.4 2045996.8  1.0  1.0  5  0 287063079
[01]  G11  7 26   2136.9 2045997.2  0.9  0.0 10  0        17
[02]  G17  f 42  -1816.0 2046002.4  1.0  1.0  5  0 287063078
[03]  G18  f 36   3028.1 2045996.1  1.0  1.0  5  0 287063072
[04]  G19  f 40  -2599.8 2046003.4  1.0  0.9  5  0 287063075
[05]  G22  f 38    984.7 2045998.7  1.0  1.0  5  0 287063078
[06]  G28  f 36  -1114.6 2046001.4  1.0  1.0  5  0 287063084
$GNGGA,000000.000,,,,,0,00,,,M,,,,0000*2B
$GNRMC,000000.000,A,,,,,,,000000,,*26
$GPGSA,A,1,,,,,,,,,,,,,,,*1E
$BDGSA,A,1,,,,,,,,,,,,,,,*0F
$GPGSV,2,1,07,01,00,000,41,11,00,000,26,17,00,000,42,18,00,000,36*71
$GPGSV,2,2,07,19,00,000,40,22,00,000,38,28,00,000,36*46
$LOGTIM,0,0.000000,0.000000,0.000000,0.000000,0.000*0A
EndT:        0
---00000034--- Acq_st=3 2019-5-22 07:44:7 
[00]  G01  f 41   2465.5 2045996.8  1.0  1.0  5  0 287064079
[01]  G11  7 26   2141.3 2045997.1  0.7 -0.0 10  0        17
[02]  G17  f 42  -1812.2 2046002.4  1.0  1.0  5  0 287064078
[03]  G18  f 36   3032.9 2045996.1  1.0  0.9  5  0 287064072
[04]  G19  f 40  -2595.0 2046003.4  1.0  1.0  5  0 287064075
[05]  G22  f 38    988.9 2045998.8  1.0  1.0  5  0 287064078
[06]  G28  f 37  -1110.6 2046001.4  1.0  0.9  5  0 287064084
$GNGGA,000000.000,,,,,0,00,,,M,,,,0000*2B
$GNRMC,000000.000,A,,,,,,,000000,,*26
$GPGSA,A,1,,,,,,,,,,,,,,,*1E
$BDGSA,A,1,,,,,,,,,,,,,,,*0F
$GPGSV,2,1,07,01,00,000,41,11,00,000,26,17,00,000,42,18,00,000,36*71
$GPGSV,2,2,07,19,00,000,40,22,00,000,38,28,00,000,37*47
$LOGTIM,0,0.000000,0.000000,0.000000,0.000000,0.000*0A
EndT:        0
---00000035--- Acq_st=3 2019-5-22 07:44:8 
[00]  G01  f 41   2464.8 2045996.8  1.0  1.0  5  0 287065079
[01]  G11  7 26   2140.3 2045997.2  0.9  0.0 10  0        17
[02]  G17  f 42  -1812.9 2046002.4  1.0  1.0  5  0 287065078
[03]  G18  f 36   3031.3 2045996.1  1.0  0.9  5  0 287065072
[04]  G19  f 41  -2596.3 2046003.4  1.0  1.0  5  0 287065075
[05]  G22  f 38    989.2 2045998.7  1.0  1.0  5  0 287065078
[06]  G28  f 37  -1110.6 2046001.5  1.0  1.0  5  0 287065084
$GNGGA,000000.000,,,,,0,00,,,M,,,,0000*2B
$GNRMC,000000.000,A,,,,,,,000000,,*26
$GPGSA,A,1,,,,,,,,,,,,,,,*1E
$BDGSA,A,1,,,,,,,,,,,,,,,*0F
$GPGSV,2,1,07,01,00,000,41,11,00,000,26,17,00,000,42,18,00,000,36*71
$GPGSV,2,2,07,19,00,000,41,22,00,000,38,28,00,000,37*46
$LOGTIM,0,0.000000,0.000000,0.000000,0.000000,0.000*0A
EndT:        0
---00000036--- Acq_st=3 2019-5-22 07:44:9 
[00]  G01  f 41   2464.0 2045996.8  1.0  1.0  5  0 287066079
[01]  G11  7 26   2139.2 2045997.3  0.9  0.0 10  0        17
[02]  G17  f 42  -1814.3 2046002.4  1.0  1.0  5  0 287066078
[03]  G18  f 36   3029.8 2045996.1  1.0  1.0  5  0 287066072
[04]  G19  f 41  -2597.1 2046003.4  1.0  1.0  5  0 287066075
[05]  G22  f 37    989.2 2045998.8  1.0  1.0  5  0 287066078
[06]  G28  f 37  -1111.4 2046001.4  1.0  1.0  5  0 287066084
$GNGGA,000000.000,,,,,0,00,,,M,,,,0000*2B
$GNRMC,000000.000,A,,,,,,,000000,,*26
$GPGSA,A,1,,,,,,,,,,,,,,,*1E
$BDGSA,A,1,,,,,,,,,,,,,,,*0F
$GPGSV,2,1,07,01,00,000,41,11,00,000,26,17,00,000,42,18,00,000,36*71
$GPGSV,2,2,07,19,00,000,41,22,00,000,37,28,00,000,37*49
$LOGTIM,0,0.000000,0.000000,0.000000,0.000000,0.000*0A
EndT:        0
---00000037--- Acq_st=3 2019-5-22 07:44:10 
[00]  G01  f 41   2460.5 2045996.8  1.0  1.0  5  0 287067079
[01]  G11  7 26   2136.1 2045997.2  0.9 -0.0 10  0        17
[02]  G17  f 42  -1817.8 2046002.4  1.0  1.0  5  0 287067078
[03]  G18  f 36   3026.7 2045996.1  1.0  0.9  5  0 287067072
[04]  G19  f 41  -2600.2 2046003.3  1.0  1.0  5  0 287067075
[05]  G22  f 37    985.7 2045998.8  1.0  0.9  5  0 287067078
[06]  G28  f 38  -1114.2 2046001.5  1.0  1.0  5  0 287067084
$GNGGA,000000.000,,,,,0,00,,,M,,,,0000*2B
$GNRMC,000000.000,A,,,,,,,000000,,*26
$GPGSA,A,1,,,,,,,,,,,,,,,*1E
$BDGSA,A,1,,,,,,,,,,,,,,,*0F
$GPGSV,2,1,07,01,00,000,41,11,00,000,26,17,00,000,42,18,00,000,36*71
$GPGSV,2,2,07,19,00,000,41,22,00,000,37,28,00,000,38*46
$LOGTIM,0,0.000000,0.000000,0.000000,0.000000,0.000*0A
EndT:        0
---00000038--- Acq_st=3 2019-5-22 07:44:11 
[00]  G01  f 41   2458.1 2045996.8  1.0  1.0  5  0 287068079
[01]  G11  7 26   2133.9 2045997.2  0.9 -0.0 10  0        17
[02]  G17  f 43  -1819.9 2046002.4  1.0  1.0  5  0 287068078
[03]  G18  f 36   3024.2 2045996.0  1.0  0.9  5  0 287068072
[04]  G19  f 41  -2602.8 2046003.4  1.0  1.0  5  0 287068075
[05]  G22  f 36    982.7 2045998.8  1.0  1.0  5  0 287068078
[06]  G28  f 38  -1116.3 2046001.5  1.0  1.0  5  0 287068084
$GNGGA,000000.000,,,,,0,00,,,M,,,,0000*2B
$GNRMC,000000.000,A,,,,,,,000000,,*26
$GPGSA,A,1,,,,,,,,,,,,,,,*1E
$BDGSA,A,1,,,,,,,,,,,,,,,*0F
$GPGSV,2,1,07,01,00,000,41,11,00,000,26,17,00,000,43,18,00,000,36*70
$GPGSV,2,2,07,19,00,000,41,22,00,000,36,28,00,000,38*47
$LOGTIM,0,0.000000,0.000000,0.000000,0.000000,0.000*0A
EndT:        0
---00000039--- Acq_st=3 2019-5-22 07:44:12 
[00]  G01  f 41   2463.8 2045996.8  1.0  1.0  5  0 287069079
[01]  G11  7 26   2138.7 2045997.2  0.7 -0.1 10  0        17
[02]  G17  f 42  -1814.0 2046002.4  1.0  1.0  5  0 287069078
[03]  G18  f 36   3030.3 2045996.1  1.0  0.9  5  0 287069072
[04]  G19  f 41  -2596.8 2046003.4  1.0  1.0  5  0 287069075
[05]  G22  f 35    990.5 2045998.8  1.0  0.9  5  0 287069078
[06]  G28  f 38  -1109.8 2046001.4  1.0  1.0  5  0 287069084
$GNGGA,000000.000,,,,,0,00,,,M,,,,0000*2B
$GNRMC,000000.000,A,,,,,,,000000,,*26
$GPGSA,A,1,,,,,,,,,,,,,,,*1E
$BDGSA,A,1,,,,,,,,,,,,,,,*0F
$GPGSV,2,1,07,01,00,000,41,11,00,000,26,17,00,000,42,18,00,000,36*71
$GPGSV,2,2,07,19,00,000,41,22,00,000,35,28,00,000,38*44
$LOGTIM,0,0.000000,0.000000,0.000000,0.000000,0.000*0A
EndT:        0
---00000040--- Acq_st=3 2019-5-22 07:44:13 
[00]  G01  f 41   2460.0 2045996.8  1.0  1.0  5  0 287070079
[01]  G11  7 26   2134.2 2045997.1  0.8  0.0 10  0        17
[02]  G17  f 43  -1818.5 2046002.4  1.0  1.0  5  0 287070078
[03]  G18  f 36   3024.7 2045996.1  1.0  1.0  5  0 287070072
[04]  G19  f 41  -2601.5 2046003.4  1.0  1.0  5  0 287070075
[05]  G22  f 36    986.1 2045998.7  1.0  1.0  5  0 287070078
[06]  G28  f 37  -1114.1 2046001.5  1.0  1.0  5  0 287070084
$GNGGA,000000.000,,,,,0,00,,,M,,,,0000*2B
$GNRMC,000000.000,A,,,,,,,000000,,*26
$GPGSA,A,1,,,,,,,,,,,,,,,*1E
$BDGSA,A,1,,,,,,,,,,,,,,,*0F
$GPGSV,2,1,07,01,00,000,41,11,00,000,26,17,00,000,43,18,00,000,36*70
$GPGSV,2,2,07,19,00,000,41,22,00,000,36,28,00,000,37*48
$LOGTIM,0,0.000000,0.000000,0.000000,0.000000,0.000*0A
EndT:        0
---00000041--- Acq_st=3 2019-5-22 07:44:14 
[00]  G01  f 41   2455.4 2045996.8  1.0  1.0  5  0 287071079
[01]  G11  7 27   2130.2 2045997.2 -0.2  0.1 10  0        17
[02]  G17  f 42  -1823.5 2046002.4  1.0  1.0  5  0 287071078
[03]  G18  f 36   3020.6 2045996.1  1.0  1.0  5  0 287071072
[04]  G19  f 41  -2606.1 2046003.4  1.0  1.0  5  0 287071075
[05]  G22  f 35    981.5 2045998.7  1.0  1.0  5  0 287071078
[06]  G28  f 37  -1118.2 2046001.4  1.0  0.9  5  0 287071084
[16]  B08  1  7    960.2 4091999.1 -0.0  0.0  1  0         0
$GNGGA,000000.000,,,,,0,00,,,M,,,,0000*2B
$GNRMC,000000.000,A,,,,,,,000000,,*26
$GPGSA,A,1,,,,,,,,,,,,,,,*1E
$BDGSA,A,1,,,,,,,,,,,,,,,*0F
$GPGSV,2,1,07,01,00,000,41,11,00,000,27,17,00,000,42,18,00,000,36*70
$GPGSV,2,2,07,19,00,000,41,22,00,000,35,28,00,000,37*4B
$LOGTIM,0,0.000000,0.000000,0.000000,0.000000,0.000*0A
EndT:        0
---00000042--- Acq_st=3 2019-5-22 07:44:15 
[00]  G01  f 41   2455.8 2045996.8  1.0  1.0  5  0 287072079
[01]  G11  7 26   2131.0 2045997.2 -0.9  0.0 10  0        17
[02]  G17  f 42  -1823.1 2046002.4  1.0  1.0  5  0 287072078
[03]  G18  f 36   3020.9 2045996.1  1.0  0.9  5  0 287072072
[04]  G19  f 41  -2605.8 2046003.4  1.0  1.0  5  0 287072075
[05]  G22  f 36    982.5 2045998.7  1.0  0.9  5  0 287072078
[06]  G28  f 37  -1117.8 2046001.5  1.0  0.9  5  0 287072084
[16]  B08  1  7   1035.1 4091999.3 -0.0  0.0  1  0       590
$GNGGA,000000.000,,,,,0,00,,,M,,,,0000*2B
$GNRMC,000000.000,A,,,,,,,000000,,*26
$GPGSA,A,1,,,,,,,,,,,,,,,*1E
$BDGSA,A,1,,,,,,,,,,,,,,,*0F
$GPGSV,2,1,07,01,00,000,41,11,00,000,26,17,00,000,42,18,00,000,36*71
$GPGSV,2,2,07,19,00,000,41,22,00,000,36,28,00,000,37*48
$LOGTIM,0,0.000000,0.000000,0.000000,0.000000,0.000*0A
EndT:        0
---00000043--- Acq_st=3 2019-5-22 07:44:16 
[00]  G01  f 41   2459.3 2045996.8  1.0  1.0  5  0 287073079
[01]  G11  7 26   2134.5 2045997.1 -0.8 -0.0 10  0        17
[02]  G17  f 42  -1819.8 2046002.4  1.0  1.0  5  0 287073078
[03]  G18  f 36   3024.3 2045996.1  1.0  1.0  5  0 287073072
[04]  G19  f 42  -2602.4 2046003.4  1.0  1.0  5  0 287073075
[05]  G22  f 36    986.1 2045998.7  1.0  1.0  5  0 287073078
[06]  G28  f 37  -1113.9 2046001.5  1.0  1.0  5  0 287073084
[16]  B08  1  7   1003.5 4091999.2 -0.1  0.0  1  0      1590
$GNGGA,000000.000,,,,,0,00,,,M,,,,0000*2B
$GNRMC,000000.000,A,,,,,,,000000,,*26
$GPGSA,A,1,,,,,,,,,,,,,,,*1E
$BDGSA,A,1,,,,,,,,,,,,,,,*0F
$GPGSV,2,1,07,01,00,000,41,11,00,000,26,17,00,000,42,18,00,000,36*71
$GPGSV,2,2,07,19,00,000,42,22,00,000,36,28,00,000,37*4B
$LOGTIM,0,0.000000,0.000000,0.000000,0.000000,0.000*0A
EndT:        0
---00000044--- Acq_st=3 2019-5-22 07:44:17 
[00]  G01  f 42   2466.7 2045996.8  1.0  1.0  5  0 287074079
[01]  G11  7 25   2138.4 2045997.3 -0.1 -0.1 10  0        17
[02]  G17  f 43  -1811.7 2046002.3  1.0  1.0  5  0 287074078
[03]  G18  f 36   3031.5 2045996.0  1.0  0.9  5  0 287074072
[04]  G19  f 42  -2595.1 2046003.4  1.0  1.0  5  0 287074075
[05]  G22  f 36    994.4 2045998.7  1.0  1.0  5  0 287074078
[06]  G28  f 37  -1105.6 2046001.4  1.0  1.0  5  0 287074084
[17]  B10  1  7    703.4 4091999.0  0.0  0.0  1  0         0
$GNGGA,000000.000,,,,,0,00,,,M,,,,0000*2B
$GNRMC,000000.000,A,,,,,,,000000,,*26
$GPGSA,A,1,,,,,,,,,,,,,,,*1E
$BDGSA,A,1,,,,,,,,,,,,,,,*0F
$GPGSV,2,1,07,01,00,000,42,11,00,000,25,17,00,000,43,18,00,000,36*70
$GPGSV,2,2,07,19,00,000,42,22,00,000,36,28,00,000,37*4B
$LOGTIM,0,0.000000,0.000000,0.000000,0.000000,0.000*0A
EndT:        0
---00000045--- Acq_st=3 2019-5-22 07:44:18 
[00]  G01  f 42   2468.4 2045996.8  1.0  1.0  5  0 287075079
[01]  G11  7 25   2143.7 2045997.4  0.8 -0.0 10  0        17
[02]  G17  f 42  -1810.2 2046002.3  1.0  1.0  5  0 287075078
[03]  G18  f 36   3033.0 2045996.1  1.0  0.9  5  0 287075072
[04]  G19  f 42  -2593.2 2046003.4  1.0  1.0  5  0 287075075
[05]  G22  f 36    996.5 2045998.7  1.0  1.0  5  0 287075078
[06]  G28  f 38  -1103.8 2046001.5  1.0  1.0  5  0 287075084
[17]  B10  1  7    572.6 4091999.2 -0.0  0.0  1  0       251
$GNGGA,000000.000,,,,,0,00,,,M,,,,0000*2B
$GNRMC,000000.000,A,,,,,,,000000,,*26
$GPGSA,A,1,,,,,,,,,,,,,,,*1E
$BDGSA,A,1,,,,,,,,,,,,,,,*0F
$GPGSV,2,1,07,01,00,000,42,11,00,000,25,17,00,000,42,18,00,000,36*71
$GPGSV,2,2,07,19,00,000,42,22,00,000,36,28,00,000,38*44
$LOGTIM,0,0.000000,0.000000,0.000000,0.000000,0.000*0A
EndT:        0
---00000046--- Acq_st=3 2019-5-22 07:44:19 
[00]  G01  f 42   2466.4 2045996.8  1.0  1.0  5  0 287076079
[01]  G11  7 26   2141.6 2045997.2  0.9  0.0 10  0        17
[02]  G17  f 42  -1812.8 2046002.3  1.0  1.0  5  0 287076078
[03]  G18  f 35   3031.5 2045996.1  1.0  0.9  5  0 287076072
[04]  G19  f 41  -2596.2 2046003.4  1.0  1.0  5  0 287076075
[05]  G22  f 37    994.8 2045998.7  1.0  1.0  5  0 287076078
[06]  G28  f 38  -1105.6 2046001.4  1.0  1.0  5  0 287076084
[17]  B10  1  7    545.4 4091999.1 -0.1  0.0  1  0      1251
$GNGGA,000000.000,,,,,0,00,,,M,,,,0000*2B
$GNRMC,000000.000,A,,,,,,,000000,,*26
$GPGSA,A,1,,,,,,,,,,,,,,,*1E
$BDGSA,A,1,,,,,,,,,,,,,,,*0F
$GPGSV,2,1,07,01,00,000,42,11,00,000,26,17,00,000,42,18,00,000,35*71
$GPGSV,2,2,07,19,00,000,41,22,00,000,37,28,00,000,38*46
$LOGTIM,0,0.000000,0.000000,0.000000,0.000000,0.000*0A
EndT:        0
---00000047--- Acq_st=3 2019-5-22 07:44:20 
[00]  G01  f 42   2466.2 2045996.8  1.0  1.0  5  0 287077079
[01]  G11  7 26   2141.1 2045997.2  0.9  0.0 10  0        17
[02]  G17  f 42  -1813.0 2046002.3  1.0  1.0  5  0 287077078
[03]  G18  f 36   3030.5 2045996.0  1.0  0.9  5  0 287077072
[04]  G19  f 42  -2595.6 2046003.4  1.0  1.0  5  0 287077075
[05]  G22  f 36    995.4 2045998.7  1.0  1.0  5  0 287077078
[06]  G28  f 38  -1105.2 2046001.4  1.0  1.0  5  0 287077084
[17]  B10  1  7    626.8 4091999.1  0.0  0.0  1  0      2251
$GNGGA,000000.000,,,,,0,00,,,M,,,,0000*2B
$GNRMC,000000.000,A,,,,,,,000000,,*26
$GPGSA,A,1,,,,,,,,,,,,,,,*1E
$BDGSA,A,1,,,,,,,,,,,,,,,*0F
$GPGSV,2,1,07,01,00,000,42,11,00,000,26,17,00,000,42,18,00,000,36*72
$GPGSV,2,2,07,19,00,000,42,22,00,000,36,28,00,000,38*44
$LOGTIM,0,0.000000,0.000000,0.000000,0.000000,0.000*0A
EndT:        0
---00000048--- Acq_st=3 2019-5-22 07:44:21 
[00]  G01  f 42   2468.9 2045996.8  1.0  1.0  5  0 287078079
[01]  G11  7 26   2143.8 2045997.1  0.8  0.0 10  0        17
[02]  G17  f 43  -1810.0 2046002.3  1.0  1.0  5  0 287078078
[03]  G18  f 36   3034.0 2045996.1  1.0  0.9  5  0 287078072
[04]  G19  f 42  -2592.8 2046003.3  1.0  1.0  5  0 287078075
[05]  G22  f 37    998.2 2045998.7  1.0  1.0  5  0 287078078
[06]  G28  f 37  -1101.8 2046001.4  1.0  1.0  5  0 287078084
$GNGGA,000000.000,,,,,0,00,,,M,,,,0000*2B
$GNRMC,000000.000,A,,,,,,,000000,,*26
$GPGSA,A,1,,,,,,,,,,,,,,,*1E
$BDGSA,A,1,,,,,,,,,,,,,,,*0F
$GPGSV,2,1,07,01,00,000,42,11,00,000,26,17,00,000,43,18,00,000,36*73
$GPGSV,2,2,07,19,00,000,42,22,00,000,37,28,00,000,37*4A
$LOGTIM,0,0.000000,0.000000,0.000000,0.000000,0.000*0A
EndT:        0
---00000049--- Acq_st=3 2019-5-22 07:44:22 
[00]  G01  f 41   2472.3 2045996.8  1.0  1.0  5  0 287079079
[01]  G11  7 26   2147.0 2045997.1  0.9  0.0 10  0        17
[02]  G17  f 43  -1807.5 2046002.3  1.0  1.0  5  0 287079078
[03]  G18  f 35   3036.8 2045996.0  1.0  1.0  5  0 287079072
[04]  G19  f 42  -2590.3 2046003.4  1.0  1.0  5  0 287079075
[05]  G22  f 37   1001.8 2045998.7  1.0  1.0  5  0 287079078
[06]  G28  f 38  -1098.4 2046001.5  1.0  1.0  5  0 287079084
[16]  B13  1  7    750.8 4091998.8 -0.0  0.0  1  0      2590
$GNGGA,000000.000,,,,,0,00,,,M,,,,0000*2B
$GNRMC,000000.000,A,,,,,,,000000,,*26
$GPGSA,A,1,,,,,,,,,,,,,,,*1E
$BDGSA,A,1,,,,,,,,,,,,,,,*0F
$GPGSV,2,1,07,01,00,000,41,11,00,000,26,17,00,000,43,18,00,000,35*73
$GPGSV,2,2,07,19,00,000,42,22,00,000,37,28,00,000,38*45
$LOGTIM,0,0.000000,0.000000,0.000000,0.000000,0.000*0A
EndT:        0
---00000050--- Acq_st=3 2019-5-22 07:44:23 
[00]  G01  f 42   2468.2 2045996.8  1.0  1.0  5  0 287080079
[01]  G11  7 26   2143.5 2045997.3  0.9  0.0 10  0        17
[02]  G17  f 42  -1811.5 2046002.3  1.0  1.0  5  0 287080078
[03]  G18  f 35   3032.1 2045996.1  1.0  0.9  5  0 287080072
[04]  G19  f 43  -2594.3 2046003.4  1.0  1.0  5  0 287080075
[05]  G22  f 38    998.7 2045998.7  1.0  1.0  5  0 287080078
[06]  G28  f 38  -1102.5 2046001.4  1.0  1.0  5  0 287080084
[16]  B13  1  7    738.4 4091999.5  0.1  0.0  1  0       244
$GNGGA,000000.000,,,,,0,00,,,M,,,,0000*2B
$GNRMC,000000.000,A,,,,,,,000000,,*26
$GPGSA,A,1,,,,,,,,,,,,,,,*1E
$BDGSA,A,1,,,,,,,,,,,,,,,*0F
$GPGSV,2,1,07,01,00,000,42,11,00,000,26,17,00,000,42,18,00,000,35*71
$GPGSV,2,2,07,19,00,000,43,22,00,000,38,28,00,000,38*4B
$LOGTIM,0,0.000000,0.000000,0.000000,0.000000,0.000*0A
EndT:        0
---00000051--- Acq_st=3 2019-5-22 07:44:24 
[00]  G01  f 42   2458.2 2045996.8  1.0  1.0  5  0 287081079
[01]  G11  7 27   2136.1 2045997.2  0.0  0.2 10  0        17
[02]  G17  f 42  -1821.2 2046002.4  1.0  1.0  5  0 287081078
[03]  G18  f 35   3022.0 2045996.1  1.0  1.0  5  0 287081072
[04]  G19  f 43  -2604.3 2046003.4  1.0  1.0  5  0 287081075
[05]  G22  f 38    988.4 2045998.7  1.0  1.0  5  0 287081078
[06]  G28  f 37  -1112.6 2046001.5  1.0  1.0  5  0 287081084
[16]  B13  1  7    412.1 4091999.2  0.0  0.0  1  0      1244
lsq: nits= 4
$GNGGA,074424.153,3112.7146,N,12136.4356,E,1,05,4.1,59.2,M,,,,0000*2F
$GNRMC,074424.153,A,3112.7146,N,12136.4356,E,0.39,0.00,220519,,*1A
$GPGSA,A,3,01,17,18,19,22,,,,,,,,5.1,4.1,2.9*3E
$BDGSA,A,3,,,,,,,,,,,,,5.1,4.1,2.9*29
$GPGSV,2,1,07,01,00,000,42,11,00,000,27,17,00,000,42,18,00,000,35*70
$GPGSV,2,2,07,19,00,000,43,22,00,000,38,28,00,000,37*44
$LOGTIM,1,7999100.956184,0.000000,0.000000,0.000000,-63.308*10
EndT:        1
---00000052--- Acq_st=3 2019-5-22 07:44:24 
[00]  G01  f 42   2457.1 2045996.8  1.0  1.0  5  0 287082079
[01]  G11  7 27   2130.9 2045997.2  0.2  0.2 10  0        17
[02]  G17  f 42  -1822.7 2046002.4  1.0  1.0  5  0 287082078
[03]  G18  f 36   3020.8 2045996.1  1.0  1.0  5  0 287082072
[04]  G19  f 43  -2605.5 2046003.4  1.0  1.0  5  0 287082075
[05]  G22  f 38    987.6 2045998.7  1.0  1.0  5  0 287082078
[06]  G28  f 37  -1113.2 2046001.4  1.0  1.0  5  0 287082084
[16]  B13  1  7    326.8 4091999.2 -0.1  0.0  1  0      2244
lsq: nits= 2
$GNGGA,074426.000,3112.7042,N,12136.4317,E,1,05,4.1,75.9,M,,,,0000*2F
$GNRMC,074426.000,A,3112.7042,N,12136.4317,E,0.25,0.00,220519,,*12
$GPGSA,A,3,01,17,18,19,22,,,,,,,,5.1,4.1,2.9*3E
$BDGSA,A,3,,,,,,,,,,,,,5.1,4.1,2.9*29
$GPGSV,2,1,07,01,00,000,42,11,00,000,27,17,00,000,42,18,00,000,36*73
$GPGSV,2,2,07,19,00,000,43,22,00,000,38,28,00,000,37*44
$LOGTIM,1,-116.216684,0.000000,0.000000,0.000000,-63.262*31
EndT:        2
---00000053--- Acq_st=3 2019-5-22 07:44:26 
[00]  G01  f 42   2458.4 2045996.8  1.0  1.0  5  0 287083926
[01]  G11  7 25   2133.2 2045997.1 -0.3 -0.1 10  0         4
[02]  G17  f 42  -1821.8 2046002.4  1.0  1.0  5  0 287083926
[03]  G18  f 36   3021.4 2045996.0  1.0  1.0  5  0 287083920
[04]  G19  f 42  -2604.0 2046003.4  1.0  1.0  5  0 287083922
[05]  G22  f 38    990.1 2045998.7  1.0  1.0  5  0 287083925
[06]  G28  f 37  -1111.0 2046001.5  1.0  1.0  5  0 287083931
lsq: nits= 2
$GNGGA,074427.000,3112.6995,N,12136.4315,E,1,05,4.1,83.1,M,,,,0000*2F
$GNRMC,074427.000,A,3112.6995,N,12136.4315,E,0.12,0.00,220519,,*17
$GPGSA,A,3,01,17,18,19,22,,,,,,,,5.1,4.1,2.9*3E
$BDGSA,A,3,,,,,,,,,,,,,5.1,4.1,2.9*29
$GPGSV,2,1,07,01,38,038,42,11,00,000,25,17,42,316,42,18,13,049,36*7C
$GPGSV,2,2,07,19,24,299,42,22,40,065,38,28,00,000,37*46
$LOGTIM,1,-179.026571,0.000000,0.000000,0.000000,-63.338*3E
EndT:        2
---00000054--- Acq_st=3 2019-5-22 07:44:27 
[00]  G01  f 43   2458.0 2045996.8  1.0  1.0  5  0 287084926
[01]  G11  7 26   2133.1 2045997.2 -0.9  0.0 10  0         4
[02]  G17  f 43  -1821.9 2046002.3  1.0  1.0  5  0 287084926
[03]  G18  f 36   3021.2 2045996.0  1.0  1.0  5  0 287084920
[04]  G19  f 43  -2604.4 2046003.4  1.0  1.0  5  0 287084922
[05]  G22  f 39    989.9 2045998.7  1.0  1.0  5  0 287084925
[06]  G28  f 37  -1110.9 2046001.4  1.0  1.0  5  0 287084931
lsq: nits= 2
$GNGGA,074428.000,3112.6998,N,12136.4313,E,1,05,4.1,82.9,M,,,,0000*22
$GNRMC,074428.000,A,3112.6998,N,12136.4313,E,0.37,0.00,220519,,*14
$GPGSA,A,3,01,17,18,19,22,,,,,,,,5.1,4.1,2.9*3E
$BDGSA,A,3,,,,,,,,,,,,,5.1,4.1,2.9*29
$GPGSV,2,1,07,01,38,038,43,11,00,000,26,17,42,316,43,18,13,049,36*7F
$GPGSV,2,2,07,19,24,299,43,22,40,065,39,28,00,000,37*46
$LOGTIM,1,-242.091060,0.000000,0.000000,0.000000,-63.419*38
EndT:        2
---00000055--- Acq_st=3 2019-5-22 07:44:28 
[00]  G01  f 42   2457.9 2045996.8  1.0  1.0  5  0 287085926
[01]  G11  7 26   2132.6 2045997.2 -0.9 -0.0 10  0         4
[02]  G17  f 43  -1823.2 2046002.4  1.0  1.0  5  0 287085926
[03]  G18  f 36   3020.2 2045996.0  1.0  1.0  5  0 287085920
[04]  G19  f 42  -2605.4 2046003.4  1.0  1.0  5  0 287085922
[05]  G22  f 40    989.1 2045998.7  1.0  1.0  5  0 287085925
[06]  G28  f 37  -1111.0 2046001.4  1.0  1.0  5  0 287085931
lsq: nits= 2
$GNGGA,074429.000,3112.7009,N,12136.4311,E,1,05,4.1,81.4,M,,,,0000*2F
$GNRMC,074429.000,A,3112.7009,N,12136.4311,E,0.42,0.00,220519,,*15
$GPGSA,A,3,01,17,18,19,22,,,,,,,,5.1,4.1,2.9*3E
$BDGSA,A,3,,,,,,,,,,,,,5.1,4.1,2.9*29
$GPGSV,2,1,07,01,38,038,42,11,00,000,26,17,42,316,43,18,13,049,36*7E
$GPGSV,2,2,07,19,24,299,42,22,40,065,40,28,00,000,37*49
$LOGTIM,1,-305.297727,0.000000,0.000000,0.000000,-63.429*39
EndT:        2
---00000056--- Acq_st=3 2019-5-22 07:44:29 
[00]  G01  f 42   2457.9 2045996.8  1.0  1.0  5  0 287086926
[01]  G11  7 26   2132.0 2045997.1 -0.9  0.0 10  0         4
[02]  G17  f 43  -1822.7 2046002.4  1.0  1.0  5  0 287086926
[03]  G18  f 36   3020.8 2045996.0  1.0  1.0  5  0 287086920
[04]  G19  f 42  -2605.4 2046003.4  1.0  1.0  5  0 287086922
[05]  G22  f 39    990.2 2045998.7  1.0  1.0  5  0 287086925
[06]  G28  f 38  -1111.1 2046001.4  1.0  1.0  5  0 287086931
lsq: nits= 2
$GNGGA,074430.000,3112.7015,N,12136.4312,E,1,05,4.2,80.5,M,,,,0000*2A
$GNRMC,074430.000,A,3112.7015,N,12136.4312,E,0.53,0.00,220519,,*13
$GPGSA,A,3,01,17,18,19,22,,,,,,,,5.1,4.2,2.9*3D
$BDGSA,A,3,,,,,,,,,,,,,5.1,4.2,2.9*2A
$GPGSV,2,1,07,01,38,038,42,11,00,000,26,17,42,316,43,18,13,049,36*7E
$GPGSV,2,2,07,19,24,299,42,22,40,065,39,28,00,000,38*48
$LOGTIM,1,-368.929035,0.000000,0.000000,0.000000,-63.696*3E
EndT:        2
---00000057--- Acq_st=3 2019-5-22 07:44:30 
[00]  G01  f 42   2456.5 2045996.8  1.0  1.0  5  0 287087926
[01]  G11  7 26   2130.9 2045997.3 -0.9 -0.0 10  0         4
[02]  G17  f 43  -1824.0 2046002.4  1.0  1.0  5  0 287087926
[03]  G18  f 36   3018.8 2045996.1  1.0  1.0  5  0 287087920
[04]  G19  f 42  -2606.5 2046003.4  1.0  1.0  5  0 287087922
[05]  G22  f 39    988.9 2045998.7  1.0  1.0  5  0 287087925
[06]  G28  f 38  -1111.3 2046001.4  1.0  1.0  5  0 287087931
lsq: nits= 2
$GNGGA,074431.000,3112.7055,N,12136.4312,E,1,06,3.5,76.0,M,,,,0000*20
$GNRMC,074431.000,A,3112.7055,N,12136.4312,E,0.39,0.00,220519,,*1A
$GPGSA,A,3,01,17,18,19,22,28,,,,,,,4.4,3.5,2.7*3D
$BDGSA,A,3,,,,,,,,,,,,,4.4,3.5,2.7*20
$GPGSV,2,1,07,01,38,038,42,11,00,000,26,17,42,316,43,18,13,049,36*7E
$GPGSV,2,2,07,19,24,299,42,22,40,065,39,28,00,000,38*48
$LOGTIM,1,-431.006630,0.000000,0.000000,0.000000,-63.303*3B
EndT:        2
---00000058--- Acq_st=3 2019-5-22 07:44:31 
[00]  G01  f 42   2460.0 2045996.8  1.0  1.0  5  0 287088926
[01]  G11  7 26   2134.9 2045997.2 -0.8  0.0 10  0         4
[02]  G17  f 43  -1820.2 2046002.4  1.0  1.0  5  0 287088926
[03]  G18  f 36   3022.3 2045996.0  1.0  1.0  5  0 287088920
[04]  G19  f 43  -2603.3 2046003.4  1.0  1.0  5  0 287088922
[05]  G22  f 39    993.2 2045998.7  1.0  1.0  5  0 287088925
[06]  G28  f 38  -1107.8 2046001.4  1.0  1.0  5  0 287088931
lsq: nits= 2
$GNGGA,074432.000,3112.7082,N,12136.4313,E,1,06,3.5,74.3,M,,,,0000*29
$GNRMC,074432.000,A,3112.7082,N,12136.4313,E,0.15,0.00,220519,,*1C
$GPGSA,A,3,01,17,18,19,22,28,,,,,,,4.4,3.5,2.7*3D
$BDGSA,A,3,,,,,,,,,,,,,4.4,3.5,2.7*20
$GPGSV,2,1,07,01,38,038,42,11,00,000,26,17,42,316,43,18,13,049,36*7E
$GPGSV,2,2,07,19,24,299,43,22,40,065,39,28,79,303,38*47
$LOGTIM,1,-492.515677,0.000000,0.000000,0.000000,-62.854*3E
EndT:        2
---00000059--- Acq_st=3 2019-5-22 07:44:32 
[00]  G01  f 42   2463.6 2045996.8  1.0  1.0  5  0 287089926
[01]  G11  7 26   2136.9 2045997.2 -0.8  0.0 10  0         4
[02]  G17  f 43  -1817.2 2046002.4  1.0  1.0  5  0 287089926
[03]  G18  f 36   3026.0 2045996.1  1.0  1.0  5  0 287089920
[04]  G19  f 43  -2599.9 2046003.4  1.0  1.0  5  0 287089922
[05]  G22  f 39    997.3 2045998.8  1.0  1.0  5  0 287089925
[06]  G28  f 38  -1103.4 2046001.4  1.0  1.0  5  0 287089931
lsq: nits= 2
$GNGGA,074433.000,3112.7104,N,12136.4313,E,1,06,3.5,73.5,M,,,,0000*26
$GNRMC,074433.000,A,3112.7104,N,12136.4313,E,0.11,0.00,220519,,*16
$GPGSA,A,3,01,17,18,19,22,28,,,,,,,4.4,3.5,2.7*3D
$BDGSA,A,3,,,,,,,,,,,,,4.4,3.5,2.7*20
$GPGSV,2,1,07,01,38,038,42,11,00,000,26,17,42,316,43,18,13,049,36*7E
$GPGSV,2,2,07,19,24,299,43,22,40,065,39,28,79,303,38*47
$LOGTIM,1,-553.377750,0.000000,0.000000,0.000000,-62.360*38
EndT:        2
---00000060--- Acq_st=3 2019-5-22 07:44:33 
[00]  G01  f 42   2466.6 2045996.8  1.0  1.0  5  0 287090926
[01]  G11  7 26   2139.6 2045997.1 -0.8  0.0 10  0         4
[02]  G17  f 43  -1814.3 2046002.4  1.0  1.0  5  0 287090926
[03]  G18  f 36   3028.7 2045996.1  1.0  1.0  5  0 287090920
[04]  G19  f 43  -2597.0 2046003.3  1.0  1.0  5  0 287090922
[05]  G22  f 39   1000.7 2045998.7  1.0  1.0  5  0 287090925
[06]  G28  f 38  -1100.6 2046001.5  1.0  1.0  5  0 287090931
lsq: nits= 2
$GNGGA,074434.000,3112.7121,N,12136.4312,E,1,06,3.5,72.2,M,,,,0000*21
$GNRMC,074434.000,A,3112.7121,N,12136.4312,E,0.38,0.00,220519,,*1C
$GPGSA,A,3,01,17,18,19,22,28,,,,,,,4.4,3.5,2.7*3D
$BDGSA,A,3,,,,,,,,,,,,,4.4,3.5,2.7*20
$GPGSV,2,1,07,01,38,038,42,11,00,000,26,17,42,316,43,18,13,049,36*7E
$GPGSV,2,2,07,19,24,299,43,22,40,065,39,28,79,303,38*47
$LOGTIM,1,-615.122092,0.000000,0.000000,0.000000,-62.630*32
EndT:        2
---00000061--- Acq_st=3 2019-5-22 07:44:34 
[00]  G01  f 42   2461.9 2045996.8  1.0  1.0  5  0 287091926
[01]  G11  7 26   2134.9 2045997.3 -0.8 -0.0 10  0         4
[02]  G17  f 43  -1819.4 2046002.3  1.0  1.0  5  0 287091926
[03]  G18  f 37   3023.9 2045996.1  1.0  1.0  5  0 287091920
[04]  G19  f 42  -2602.2 2046003.4  1.0  1.0  5  0 287091922
[05]  G22  f 39    996.3 2045998.7  1.0  1.0  5  0 287091925
[06]  G28  f 38  -1104.9 2046001.4  1.0  1.0  5  0 287091931
lsq: nits= 2
$GNGGA,074435.000,3112.7138,N,12136.4312,E,1,06,3.5,70.8,M,,,,0000*20
$GNRMC,074435.000,A,3112.7138,N,12136.4312,E,0.92,0.00,220519,,*15
$GPGSA,A,3,01,17,18,19,22,28,,,,,,,4.4,3.5,2.7*3D
$BDGSA,A,3,,,,,,,,,,,,,4.4,3.5,2.7*20
$GPGSV,2,1,07,01,38,038,42,11,00,000,26,17,42,316,43,18,13,049,37*7F
$GPGSV,2,2,07,19,24,299,42,22,40,065,39,28,79,303,38*46
$LOGTIM,1,-677.728894,0.000000,0.000000,0.000000,-63.127*34
EndT:        2
---00000062--- Acq_st=3 2019-5-22 07:44:35 
[00]  G01  f 42   2458.2 2045996.8  1.0  1.0  5  0 287092926
[01]  G11  7 26   2131.0 2045997.3 -0.9  0.0 10  0         4
[02]  G17  f 43  -1823.4 2046002.4  1.0  1.0  5  0 287092926
[03]  G18  f 37   3019.8 2045996.1  1.0  1.0  5  0 287092920
[04]  G19  f 42  -2605.8 2046003.4  1.0  1.0  5  0 287092922
[05]  G22  f 38    992.5 2045998.8  1.0  1.0  5  0 287092925
[06]  G28  f 39  -1108.3 2046001.4  1.0  1.0  5  0 287092931
lsq: nits= 2
$GNGGA,074436.000,3112.7176,N,12136.4309,E,1,06,3.5,68.2,M,,,,0000*20
$GNRMC,074436.000,A,3112.7176,N,12136.4309,E,1.05,0.00,220519,,*19
$GPGSA,A,3,01,17,18,19,22,28,,,,,,,4.4,3.5,2.7*3D
$BDGSA,A,3,,,,,,,,,,,,,4.4,3.5,2.7*20
$GPGSV,2,1,07,01,38,038,42,11,00,000,26,17,42,316,43,18,13,049,37*7F
$GPGSV,2,2,07,19,24,299,42,22,40,065,38,28,79,303,39*46
$LOGTIM,1,-739.221853,0.000000,0.000000,0.000000,-63.117*3B
EndT:        2
---00000063--- Acq_st=3 2019-5-22 07:44:36 
[00]  G01  f 42   2459.2 2045996.8  1.0  1.0  5  0 287093926
[01]  G11  7 26   2132.7 2045997.4 -0.9 -0.0 10  0         4
[02]  G17  f 43  -1821.8 2046002.3  1.0  1.0  5  0 287093926
[03]  G18  f 37   3021.8 2045996.1  1.0  1.0  5  0 287093920
[04]  G19  f 42  -2604.5 2046003.4  1.0  1.0  5  0 287093922
[05]  G22  f 37    995.2 2045998.7  1.0  1.1  5  0 287093925
[06]  G28  f 39  -1106.4 2046001.5  1.0  1.0  5  0 287093931
lsq: nits= 2
$GNGGA,074437.000,3112.7199,N,12136.4309,E,1,06,3.5,68.2,M,,,,0000*20
$GNRMC,074437.000,A,3112.7199,N,12136.4309,E,0.19,0.00,220519,,*15
$GPGSA,A,3,01,17,18,19,22,28,,,,,,,4.4,3.5,2.7*3D
$BDGSA,A,3,,,,,,,,,,,,,4.4,3.5,2.7*20
$GPGSV,2,1,07,01,38,038,42,11,00,000,26,17,42,316,43,18,13,049,37*7F
$GPGSV,2,2,07,19,24,299,42,22,40,065,37,28,79,303,39*49
$LOGTIM,1,-799.960303,0.000000,0.000000,0.000000,-62.212*36
EndT:        2
---00000064--- Acq_st=3 2019-5-22 07:44:37 
[00]  G01  f 41   2469.6 2045996.8  1.0  1.0  5  0 287094926
[01]  G11  7 24   2136.7 2045997.4 -0.2 -0.1 10  0         4
[02]  G17  f 43  -1812.3 2046002.4  1.0  1.0  5  0 287094926
[03]  G18  f 37   3030.7 2045996.1  1.0  1.0  5  0 287094920
[04]  G19  f 42  -2594.9 2046003.3  1.0  1.0  5  0 287094922
[05]  G22  f 37   1005.0 2045998.7  1.0  1.0  5  0 287094925
[06]  G28  f 39  -1096.7 2046001.4  1.0  1.0  5  0 287094931
lsq: nits= 2
$GNGGA,074438.000,3112.7204,N,12136.4310,E,1,06,3.5,68.4,M,,,,0000*26
$GNRMC,074438.000,A,3112.7204,N,12136.4310,E,0.25,0.00,220519,,*1A
$GPGSA,A,3,01,17,18,19,22,28,,,,,,,4.4,3.5,2.7*3D
$BDGSA,A,3,,,,,,,,,,,,,4.4,3.5,2.7*20
$GPGSV,2,1,07,01,38,038,41,11,00,000,24,17,42,316,43,18,13,049,37*7E
$GPGSV,2,2,07,19,24,299,42,22,40,065,37,28,79,303,39*49
$LOGTIM,1,-861.410437,0.000000,0.000000,0.000000,-61.808*36
EndT:        2
---00000065--- Acq_st=3 2019-5-22 07:44:38 
[00]  G01  f 41   2470.4 2045996.8  1.0  1.0  5  0 287095926
[01]  G11  7 24   2142.7 2045997.2 -0.3 -0.2 10  0         4
[02]  G17  f 43  -1811.5 2046002.3  1.0  1.0  5  0 287095926
[03]  G18  f 37   3031.6 2045996.1  1.0  1.0  5  0 287095920
[04]  G19  f 42  -2594.5 2046003.4  1.0  1.0  5  0 287095922
[05]  G22  f 38   1005.7 2045998.7  1.0  1.0  5  0 287095925
[06]  G28  f 39  -1095.3 2046001.4  1.0  1.0  5  0 287095931
lsq: nits= 2
$GNGGA,074439.000,3112.7207,N,12136.4311,E,1,06,3.5,67.8,M,,,,0000*26
$GNRMC,074439.000,A,3112.7207,N,12136.4311,E,0.21,0.00,220519,,*1D
$GPGSA,A,3,01,17,18,19,22,28,,,,,,,4.4,3.5,2.7*3D
$BDGSA,A,3,,,,,,,,,,,,,4.4,3.5,2.7*20
$GPGSV,2,1,07,01,38,038,41,11,00,000,24,17,42,316,43,18,13,049,37*7E
$GPGSV,2,2,07,19,24,299,42,22,40,065,38,28,79,303,39*46
$LOGTIM,1,-923.626071,0.000000,0.000000,0.000000,-62.123*33
EndT:        2
---00000066--- Acq_st=3 2019-5-22 07:44:39 
[00]  G01  f 40   2465.7 2045996.8  1.0  1.0  5  0 287096926
[01]  G11  7 25   2139.2 2045997.2 -0.8 -0.1 10  0         4
[02]  G17  f 43  -1815.9 2046002.4  1.0  1.0  5  0 287096926
[03]  G18  f 37   3026.9 2045996.1  1.0  0.9  5  0 287096920
[04]  G19  f 41  -2598.6 2046003.4  1.0  1.0  5  0 287096922
[05]  G22  f 38   1001.5 2045998.7  1.0  0.9  5  0 287096925
[06]  G28  f 40  -1100.0 2046001.4  1.0  1.0  5  0 287096931
lsq: nits= 2
$GNGGA,074440.000,3112.7207,N,12136.4313,E,1,06,3.5,67.1,M,,,,0000*23
$GNRMC,074440.000,A,3112.7207,N,12136.4313,E,0.64,0.00,220519,,*10
$GPGSA,A,3,01,17,18,19,22,28,,,,,,,4.4,3.5,2.7*3D
$BDGSA,A,3,,,,,,,,,,,,,4.4,3.5,2.7*20
$GPGSV,2,1,07,01,38,038,40,11,00,000,25,17,42,316,43,18,13,049,37*7E
$GPGSV,2,2,07,19,24,299,41,22,40,065,38,28,79,303,40*4B
$LOGTIM,1,-986.831157,0.000000,0.000000,0.000000,-62.651*33
EndT:        2
---00000067--- Acq_st=3 2019-5-22 07:44:40 
[00]  G01  f 40   2461.9 2045996.8  1.0  1.0  5  0 287097926
[01]  G11  7 26   2134.7 2045997.2  0.2  0.1 10  0         4
[02]  G17  f 43  -1820.0 2046002.4  1.0  1.0  5  0 287097926
[03]  G18  f 38   3022.8 2045996.1  1.0  0.9  5  0 287097920
[04]  G19  f 41  -2602.7 2046003.4  1.0  1.0  5  0 287097922
[05]  G22  f 38    998.5 2045998.8  1.0  1.0  5  0 287097925
[06]  G28  f 40  -1103.3 2046001.4  1.0  1.0  5  0 287097931
lsq: nits= 2
$GNGGA,074441.000,3112.7212,N,12136.4319,E,1,06,3.5,65.1,M,,,,0000*2E
$GNRMC,074441.000,A,3112.7212,N,12136.4319,E,0.96,0.00,220519,,*12
$GPGSA,A,3,01,17,18,19,22,28,,,,,,,4.4,3.5,2.7*3D
$BDGSA,A,3,,,,,,,,,,,,,4.4,3.5,2.7*20
$GPGSV,2,1,07,01,38,038,40,11,00,000,26,17,42,316,43,18,13,049,38*72
$GPGSV,2,2,07,19,24,299,41,22,40,065,38,28,79,303,40*4B
$LOGTIM,1,-1050.696432,0.000000,0.000000,0.000000,-63.114*02
EndT:        2
---00000068--- Acq_st=3 2019-5-22 07:44:41 
[00]  G01  f 40   2459.1 2045996.8  1.0  1.0  5  0 287098926
[01]  G11  7 25   2131.7 2045997.2  0.9 -0.0 10  0         4
[02]  G17  f 43  -1823.1 2046002.4  1.0  1.0  5  0 287098926
[03]  G18  f 38   3019.4 2045996.1  1.0  1.0  5  0 287098920
[04]  G19  f 40  -2605.8 2046003.4  1.0  1.0  5  0 287098922
[05]  G22  f 37    995.8 2045998.7  1.0  1.0  5  0 287098925
[06]  G28  f 40  -1105.5 2046001.4  1.0  1.0  5  0 287098931
lsq: nits= 2
$GNGGA,074442.000,3112.7218,N,12136.4320,E,1,06,3.5,63.3,M,,,,0000*29
$GNRMC,074442.000,A,3112.7218,N,12136.4320,E,1.31,0.00,220519,,*1D
$GPGSA,A,3,01,17,18,19,22,28,,,,,,,4.4,3.5,2.7*3D
$BDGSA,A,3,,,,,,,,,,,,,4.4,3.5,2.7*20
$GPGSV,2,1,07,01,38,038,40,11,00,000,25,17,42,316,43,18,13,049,38*71
$GPGSV,2,2,07,19,24,299,40,22,40,065,37,28,79,303,40*45
$LOGTIM,1,-1115.565521,0.000000,0.000000,0.000000,-63.655*0C
EndT:        2
---00000069--- Acq_st=3 2019-5-22 07:44:42 
[00]  G01  f 40   2455.2 2045996.8  1.0  1.0  5  0 287099926
[01]  G11  7 26   2128.2 2045997.1  0.8  0.0 10  0         4
[02]  G17  f 43  -1826.9 2046002.4  1.0  1.0  5  0 287099926
[03]  G18  f 38   3015.9 2045996.1  1.0  1.0  5  0 287099920
[04]  G19  f 41  -2609.7 2046003.4  1.0  1.0  5  0 287099922
[05]  G22  f 38    992.4 2045998.7  1.0  1.0  5  0 287099925
[06]  G28  f 40  -1108.6 2046001.4  1.0  1.0  5  0 287099931
lsq: nits= 2
$GNGGA,074443.000,3112.7224,N,12136.4323,E,1,06,3.5,62.4,M,,,,0000*22
$GNRMC,074443.000,A,3112.7224,N,12136.4323,E,1.28,0.00,220519,,*18
$GPGSA,A,3,01,17,18,19,22,28,,,,,,,4.4,3.5,2.7*3D
$BDGSA,A,3,,,,,,,,,,,,,4.4,3.5,2.7*20
$GPGSV,2,1,07,01,38,038,40,11,00,000,26,17,42,316,43,18,13,049,38*72
$GPGSV,2,2,07,19,24,299,41,22,40,065,38,28,79,303,40*4B
$LOGTIM,1,-1179.971892,0.000000,0.000000,0.000000,-63.839*0E
EndT:        2
---00000070--- Acq_st=3 2019-5-22 07:44:43 
[00]  G01  f 40   2456.3 2045996.8  1.0  1.0  5  0 287100926
[01]  G11  7 25   2128.5 2045997.4  0.9 -0.1 10  0         4
[02]  G17  f 44  -1826.1 2046002.4  1.0  1.0  5  0 287100926
[03]  G18  f 38   3017.0 2045996.1  1.0  1.0  5  0 287100920
[04]  G19  f 40  -2608.8 2046003.4  1.0  1.0  5  0 287100922
[05]  G22  f 37    993.6 2045998.7  1.0  1.0  5  0 287100925
[06]  G28  f 40  -1107.9 2046001.4  1.0  1.0  5  0 287100931
lsq: nits= 2
$GNGGA,074444.000,3112.7229,N,12136.4325,E,1,06,3.5,62.2,M,,,,0000*28
$GNRMC,074444.000,A,3112.7229,N,12136.4325,E,0.98,0.00,220519,,*1E
$GPGSA,A,3,01,17,18,19,22,28,,,,,,,4.4,3.5,2.7*3D
$BDGSA,A,3,,,,,,,,,,,,,4.4,3.5,2.7*20
$GPGSV,2,1,07,01,38,038,40,11,00,000,25,17,42,316,44,18,13,049,38*76
$GPGSV,2,2,07,19,24,299,40,22,40,065,37,28,79,303,40*45
$LOGTIM,1,-1244.232393,0.000000,0.000000,0.000000,-63.770*07
EndT:        2
---00000071--- Acq_st=3 2019-5-22 07:44:44 
[00]  G01  f 40   2457.3 2045996.8  1.0  1.0  5  0 287101926
[01]  G11  7 26   2130.3 2045997.1  0.9  0.0 10  0         4
[02]  G17  f 43  -1824.8 2046002.4  1.0  1.0  5  0 287101926
[03]  G18  f 38   3017.9 2045996.1  1.0  1.0  5  0 287101920
[04]  G19  f 40  -2607.2 2046003.4  1.0  1.0  5  0 287101922
[05]  G22  f 37    995.9 2045998.7  1.0  1.0  5  0 287101925
[06]  G28  f 39  -1105.7 2046001.4  1.0  1.0  5  0 287101931
lsq: nits= 2
$GNGGA,074445.000,3112.7231,N,12136.4327,E,1,06,3.5,62.0,M,,,,0000*20
$GNRMC,074445.000,A,3112.7231,N,12136.4327,E,0.75,0.00,220519,,*17
$GPGSA,A,3,01,17,18,19,22,28,,,,,,,4.4,3.5,2.7*3D
$BDGSA,A,3,,,,,,,,,,,,,4.4,3.5,2.7*20
$GPGSV,2,1,07,01,38,038,40,11,00,000,26,17,42,316,43,18,13,049,38*72
$GPGSV,2,2,07,19,24,299,40,22,40,065,37,28,79,303,39*4B
$LOGTIM,1,-1308.637265,0.000000,0.000000,0.000000,-63.764*02
EndT:        2
---00000072--- Acq_st=3 2019-5-22 07:44:45 
[00]  G01  f 40   2458.6 2045996.8  1.0  1.0  5  0 287102926
[01]  G11  7 25   2131.9 2045997.2  0.9  0.0 10  0         4
[02]  G17  f 43  -1824.4 2046002.4  1.0  1.0  5  0 287102926
[03]  G18  f 38   3018.2 2045996.1  1.0  1.0  5  0 287102920
[04]  G19  f 40  -2606.1 2046003.3  1.0  1.0  5  0 287102922
[05]  G22  f 37    996.9 2045998.7  1.0  1.0  5  0 287102925
[06]  G28  f 39  -1104.8 2046001.4  1.0  1.0  5  0 287102931
lsq: nits= 2
$GNGGA,074446.000,3112.7236,N,12136.4327,E,1,06,3.5,62.7,M,,,,0000*23
$GNRMC,074446.000,A,3112.7236,N,12136.4327,E,0.36,0.00,220519,,*14
$GPGSA,A,3,01,17,18,19,22,28,,,,,,,4.4,3.5,2.7*3D
$BDGSA,A,3,,,,,,,,,,,,,4.4,3.5,2.7*20
$GPGSV,2,1,07,01,38,038,40,11,00,000,25,17,42,317,43,18,13,049,38*70
$GPGSV,2,2,07,19,25,299,40,22,40,065,37,28,79,303,39*4A
$LOGTIM,1,-1372.339683,0.000000,0.000000,0.000000,-63.487*06
EndT:        2
---00000073--- Acq_st=3 2019-5-22 07:44:46 
[00]  G01  f 40   2461.8 2045996.8  1.0  1.0  5  0 287103926
[01]  G11  7 26   2135.2 2045997.2  0.9  0.0 10  0         4
[02]  G17  f 43  -1820.7 2046002.4  1.0  1.0  5  0 287103926
[03]  G18  f 38   3022.0 2045996.0  1.0  1.0  5  0 287103920
[04]  G19  f 40  -2603.3 2046003.4  1.0  1.0  5  0 287103922
[05]  G22  f 37   1000.6 2045998.7  1.0  0.9  5  0 287103925
[06]  G28  f 39  -1100.8 2046001.4  1.0  1.0  5  0 287103931
lsq: nits= 2
$GNGGA,074447.000,3112.7241,N,12136.4326,E,1,06,3.5,63.4,M,,,,0000*21
$GNRMC,074447.000,A,3112.7241,N,12136.4326,E,0.48,0.00,220519,,*1D
$GPGSA,A,3,01,17,18,19,22,28,,,,,,,4.4,3.5,2.7*3D
$BDGSA,A,3,,,,,,,,,,,,,4.4,3.5,2.7*20
$GPGSV,2,1,07,01,38,038,40,11,00,000,26,17,42,317,43,18,13,049,38*73
$GPGSV,2,2,07,19,25,299,40,22,40,065,37,28,79,303,39*4A
$LOGTIM,1,-1436.030458,0.000000,0.000000,0.000000,-63.572*04
EndT:        2
---00000074--- Acq_st=3 2019-5-22 07:44:47 
[00]  G01  f 40   2459.8 2045996.8  1.0  1.0  5  0 287104926
[01]  G11  7 26   2133.6 2045997.3  0.9 -0.0 10  0         4
[02]  G17  f 43  -1822.9 2046002.4  1.0  1.0  5  0 287104926
[03]  G18  f 38   3019.7 2045996.1  1.0  1.0  5  0 287104920
[04]  G19  f 40  -2605.7 2046003.4  1.0  1.0  5  0 287104922
[05]  G22  f 37    999.2 2045998.6  1.0  1.0  5  0 287104925
[06]  G28  f 39  -1103.1 2046001.5  1.0  1.0  5  0 287104931
lsq: nits= 2
$GNGGA,074448.000,3112.7243,N,12136.4326,E,1,06,3.5,63.8,M,,,,0000*20
$GNRMC,074448.000,A,3112.7243,N,12136.4326,E,0.75,0.00,220519,,*1E
$GPGSA,A,3,01,17,18,19,22,28,,,,,,,4.4,3.5,2.7*3D
$BDGSA,A,3,,,,,,,,,,,,,4.4,3.5,2.7*20
$GPGSV,2,1,07,01,38,038,40,11,00,000,26,17,42,317,43,18,13,049,38*73
$GPGSV,2,2,07,19,25,299,40,22,40,065,37,28,79,303,39*4A
$LOGTIM,1,-1500.227512,0.000000,0.000000,0.000000,-63.840*07
EndT:        2
---00000075--- Acq_st=3 2019-5-22 07:44:48 
[00]  G01  f 40   2457.6 2045996.8  1.0  1.0  5  0 287105926
[01]  G11  7 26   2131.1 2045997.2  0.9  0.0 10  0         4
[02]  G17  f 43  -1825.6 2046002.4  1.0  1.0  5  0 287105926
[03]  G18  f 38   3017.3 2045996.1  1.0  1.0  5  0 287105920
[04]  G19  f 40  -2607.4 2046003.4  1.0  1.0  5  0 287105922
[05]  G22  f 37    997.0 2045998.7  1.0  1.0  5  0 287105925
[06]  G28  f 39  -1104.6 2046001.4  1.0  1.0  5  0 287105931
lsq: nits= 2
$GNGGA,074449.000,3112.7243,N,12136.4324,E,1,06,3.5,64.4,M,,,,0000*28
$GNRMC,074449.000,A,3112.7243,N,12136.4324,E,0.50,0.00,220519,,*1A
$GPGSA,A,3,01,17,18,19,22,28,,,,,,,4.4,3.5,2.7*3D
$BDGSA,A,3,,,,,,,,,,,,,4.4,3.5,2.7*20
$GPGSV,2,1,07,01,38,038,40,11,00,000,26,17,42,317,43,18,13,049,38*73
$GPGSV,2,2,07,19,25,299,40,22,40,065,37,28,79,303,39*4A
$LOGTIM,1,-1564.467025,0.000000,0.000000,0.000000,-63.739*07
EndT:        2
---00000076--- Acq_st=3 2019-5-22 07:44:49 
[00]  G01  f 40   2460.2 2045996.8  1.0  1.0  5  0 287106926
[01]  G11  7 26   2133.3 2045997.1  0.9 -0.1 10  0         4
[02]  G17  f 43  -1823.3 2046002.3  1.0  1.0  5  0 287106926
[03]  G18  f 38   3019.3 2045996.1  1.0  1.0  5  0 287106920
[04]  G19  f 40  -2605.6 2046003.4  1.0  1.0  5  0 287106922
