FlashID=0x1 0x20 0x18
BBram_blkflag1: 445c: bba3
FW Ver: 1.30  
GPS00 Init Dop:   5000, 40
GPS01 Init Dop:   5000, 40
GPS02 Init Dop:   5000, 40
GPS03 Init Dop:   5000, 40
GPS04 Init Dop:   5000, 40
GPS05 Init Dop:   5000, 40
GPS06 Init Dop:   5000, 40
GPS07 Init Dop:   5000, 40
GPS08 Init Dop:   5000, 40
GPS09 Init Dop:   5000, 40
GPS10 Init Dop:   5000, 40
GPS11 Init Dop:   5000, 40
GPS12 Init Dop:   5000, 40
GPS13 Init Dop:   5000, 40
GPS14 Init Dop:   5000, 40
GPS15 Init Dop:   5000, 40
GPS16 Init Dop:   5000, 40
GPS17 Init Dop:   5000, 40
GPS18 Init Dop:   5000, 40
GPS19 Init Dop:   5000, 40
GPS20 Init Dop:   5000, 40
GPS21 Init Dop:   5000, 40
GPS22 Init Dop:   5000, 40
GPS23 Init Dop:   5000, 40
GPS24 Init Dop:   5000, 40
GPS25 Init Dop:   5000, 40
GPS26 Init Dop:   5000, 40
GPS27 Init Dop:   5000, 40
GPS28 Init Dop:   5000, 40
GPS29 Init Dop:   5000, 40
GPS30 Init Dop:   5000, 40
GPS31 Init Dop:   5000, 40
BDS00 Init Dop:   5000, 40
BDS01 Init Dop:   5000, 40
BDS02 Init Dop:   5000, 40
BDS03 Init Dop:   5000, 40
BDS04 Init Dop:   5000, 40
BDS05 Init Dop:   5000, 40
BDS06 Init Dop:   5000, 40
BDS07 Init Dop:   5000, 40
BDS08 Init Dop:   5000, 40
BDS09 Init Dop:   5000, 40
BDS10 Init Dop:   5000, 40
BDS11 Init Dop:   5000, 40
BDS12 Init Dop:   5000, 40
BDS13 Init Dop:   5000, 40
BDS14 Init Dop:   5000, 40
BDS15 Init Dop:   5000, 40
BDS16 Init Dop:   5000, 40
BDS17 Init Dop:   5000, 40
BDS18 Init Dop:   5000, 40
BDS19 Init Dop:   5000, 40
BDS20 Init Dop:   5000, 40
BDS21 Init Dop:   5000, 40
BDS22 Init Dop:   5000, 40
BDS23 Init Dop:   5000, 40
BDS24 Init Dop:   5000, 40
BDS25 Init Dop:   5000, 40
BDS26 Init Dop:   5000, 40
BDS27 Init Dop:   5000, 40
BDS28 Init Dop:   5000, 40
BDS29 Init Dop:   5000, 40
BDS30 Init Dop:   5000, 40
BDS31 Init Dop:   5000, 40
ch0 satid=0,max_freq = -750,max_mean = 12686,max_phase = 1443,max_value = 617046,acq ok1!
acq ok1 timeH = 0,timeL = 5219434,freq_stage = 3
---00000001--- Acq_st=3 2019-5-24 06:21:38 
[00]  G01  1 15    803.2 2046000.0 -0.1  0.0  1  0         0
$GNGGA,000000.000,,,,,0,00,,,M,,,,0000*2B
$GNRMC,000000.000,A,,,,,,,000000,,*26
$GPGSA,A,1,,,,,,,,,,,,,,,*1E
$BDGSA,A,1,,,,,,,,,,,,,,,*0F
$LOGTIM,0,0.000000,0.000000,0.000000,0.000000,0.000*0A
EndT:        0
---00000002--- Acq_st=3 2019-5-24 06:21:39 
[00]  G01  7  7    821.0 2045998.8  0.3  0.0 10  0        10
$GNGGA,000000.000,,,,,0,00,,,M,,,,0000*2B
$GNRMC,000000.000,A,,,,,,,000000,,*26
$GPGSA,A,1,,,,,,,,,,,,,,,*1E
$BDGSA,A,1,,,,,,,,,,,,,,,*0F
$LOGTIM,0,0.000000,0.000000,0.000000,0.000000,0.000*0A
EndT:        0
---00000003--- Acq_st=3 2019-5-24 06:21:40 
[00]  G01  7 45    815.6 2045998.9  0.6  1.0  5  0         4
$GNGGA,000000.000,,,,,0,00,,,M,,,,0000*2B
$GNRMC,000000.000,A,,,,,,,000000,,*26
$GPGSA,A,1,,,,,,,,,,,,,,,*1E
$BDGSA,A,1,,,,,,,,,,,,,,,*0F
$GPGSV,1,1,01,01,00,000,45*48
$LOGTIM,0,0.000000,0.000000,0.000000,0.000000,0.000*0A
EndT:        0
---00000004--- Acq_st=3 2019-5-24 06:21:41 
[00]  G01  7 45    817.1 2045998.9  1.0  1.0  5  0         4
$GNGGA,000000.000,,,,,0,00,,,M,,,,0000*2B
$GNRMC,000000.000,A,,,,,,,000000,,*26
$GPGSA,A,1,,,,,,,,,,,,,,,*1E
$BDGSA,A,1,,,,,,,,,,,,,,,*0F
$GPGSV,1,1,01,01,00,000,45*48
$LOGTIM,0,0.000000,0.000000,0.000000,0.000000,0.000*0A
EndT:        0
---00000005--- Acq_st=3 2019-5-24 06:21:42 
[00]  G01  7 45    815.9 2045998.9  1.0  1.0  5  0         4
$GNGGA,000000.000,,,,,0,00,,,M,,,,0000*2B
$GNRMC,000000.000,A,,,,,,,000000,,*26
$GPGSA,A,1,,,,,,,,,,,,,,,*1E
$BDGSA,A,1,,,,,,,,,,,,,,,*0F
$GPGSV,1,1,01,01,00,000,45*48
$LOGTIM,0,0.000000,0.000000,0.000000,0.000000,0.000*0A
EndT:        0
ch1 satid=7,max_freq = -1750,max_mean = 13302,max_phase = 1518,max_value = 224353,acq ok1!
acq ok1 timeH = 0,timeL = 96847109,freq_stage = 4
---00000006--- Acq_st=3 2019-5-24 06:21:43 
[00]  G01  f 45    816.1 2045998.9  1.0  1.0  5  0         4
[01]  G08  1 24   1691.2 2045998.5 -0.0  0.0  1  0         0
$GNGGA,000000.000,,,,,0,00,,,M,,,,0000*2B
$GNRMC,000000.000,A,,,,,,,000000,,*26
$GPGSA,A,1,,,,,,,,,,,,,,,*1E
$BDGSA,A,1,,,,,,,,,,,,,,,*0F
$GPGSV,1,1,01,01,00,000,45*48
$LOGTIM,0,0.000000,0.000000,0.000000,0.000000,0.000*0A
EndT:        0
---00000007--- Acq_st=3 2019-5-24 06:21:44 
[00]  G01  f 44    819.2 2045998.9  1.0  1.0  5  0 454921724
[01]  G08  7 26   1690.3 2045997.7  0.4  0.0 20  0         9
$GNGGA,000000.000,,,,,0,00,,,M,,,,0000*2B
$GNRMC,000000.000,A,,,,,,,000000,,*26
$GPGSA,A,1,,,,,,,,,,,,,,,*1E
$BDGSA,A,1,,,,,,,,,,,,,,,*0F
$GPGSV,1,1,02,01,00,000,44,08,00,000,26*76
$LOGTIM,0,0.000000,0.000000,0.000000,0.000000,0.000*0A
EndT:        0
---00000008--- Acq_st=3 2019-5-24 06:21:45 
[00]  G01  f 45    819.8 2045998.9  1.0  1.0  5  0 454922724
[01]  G08  7 40   1690.3 2045997.7  0.7  1.0  5  0        13
$GNGGA,000000.000,,,,,0,00,,,M,,,,0000*2B
$GNRMC,000000.000,A,,,,,,,000000,,*26
$GPGSA,A,1,,,,,,,,,,,,,,,*1E
$BDGSA,A,1,,,,,,,,,,,,,,,*0F
$GPGSV,1,1,02,01,00,000,45,08,00,000,40*77
$LOGTIM,0,0.000000,0.000000,0.000000,0.000000,0.000*0A
EndT:        0
---00000009--- Acq_st=3 2019-5-24 06:21:46 
[00]  G01  f 44    817.1 2045998.9  1.0  1.0  5  0 454923724
[01]  G08  7 40   1687.1 2045997.8  1.0  1.0  5  0        13
$GNGGA,000000.000,,,,,0,00,,,M,,,,0000*2B
$GNRMC,000000.000,A,,,,,,,000000,,*26
$GPGSA,A,1,,,,,,,,,,,,,,,*1E
$BDGSA,A,1,,,,,,,,,,,,,,,*0F
$GPGSV,1,1,02,01,00,000,44,08,00,000,40*76
$LOGTIM,0,0.000000,0.000000,0.000000,0.000000,0.000*0A
EndT:        0
---00000010--- Acq_st=3 2019-5-24 06:21:47 
[00]  G01  f 44    817.0 2045998.9  1.0  1.0  5  0 454924724
[01]  G08  7 40   1687.3 2045997.8  1.0  1.0  5  0        13
$GNGGA,000000.000,,,,,0,00,,,M,,,,0000*2B
$GNRMC,000000.000,A,,,,,,,000000,,*26
$GPGSA,A,1,,,,,,,,,,,,,,,*1E
$BDGSA,A,1,,,,,,,,,,,,,,,*0F
$GPGSV,1,1,02,01,00,000,44,08,00,000,40*76
$LOGTIM,0,0.000000,0.000000,0.000000,0.000000,0.000*0A
EndT:        0
---00000011--- Acq_st=3 2019-5-24 06:21:48 
[00]  G01  f 44    818.7 2045998.9  1.0  1.0  5  0 454925724
[01]  G08  7 40   1687.6 2045997.8  1.0  1.0  5  0        13
$GNGGA,000000.000,,,,,0,00,,,M,,,,0000*2B
$GNRMC,000000.000,A,,,,,,,000000,,*26
$GPGSA,A,1,,,,,,,,,,,,,,,*1E
$BDGSA,A,1,,,,,,,,,,,,,,,*0F
$GPGSV,1,1,02,01,00,000,44,08,00,000,40*76
$LOGTIM,0,0.000000,0.000000,0.000000,0.000000,0.000*0A
EndT:        0
ch2 satid=17,max_freq = -2250,max_mean = 13475,max_phase = 1244,max_value = 243385,acq ok1!
acq ok1 timeH = 0,timeL = 224113074,freq_stage = 4
---00000012--- Acq_st=3 2019-5-24 06:21:49 
[00]  G01  f 44    814.3 2045998.9  1.0  1.0  5  0 454926724
[01]  G08  f 40   1683.1 2045997.8  1.0  1.0  5  0        13
[02]  G18  1  7   4308.5 2045996.4  0.0  0.0  1  0         0
$GNGGA,000000.000,,,,,0,00,,,M,,,,0000*2B
$GNRMC,000000.000,A,,,,,,,000000,,*26
$GPGSA,A,1,,,,,,,,,,,,,,,*1E
$BDGSA,A,1,,,,,,,,,,,,,,,*0F
$GPGSV,1,1,02,01,00,000,44,08,00,000,40*76
$LOGTIM,0,0.000000,0.000000,0.000000,0.000000,0.000*0A
EndT:        0
---00000013--- Acq_st=3 2019-5-24 06:21:50 
[00]  G01  f 44    812.1 2045999.0  1.0  1.0  5  0 454927724
[01]  G08  f 40   1680.2 2045997.8  1.0  1.0  5  0 454927713
[02]  G18  1 36   2258.1 2045996.6 -0.1  0.0  1  0         1
$GNGGA,000000.000,,,,,0,00,,,M,,,,0000*2B
$GNRMC,000000.000,A,,,,,,,000000,,*26
$GPGSA,A,1,,,,,,,,,,,,,,,*1E
$BDGSA,A,1,,,,,,,,,,,,,,,*0F
$GPGSV,1,1,02,01,00,000,44,08,00,000,40*76
$LOGTIM,0,0.000000,0.000000,0.000000,0.000000,0.000*0A
EndT:        0
---00000014--- Acq_st=3 2019-5-24 06:21:51 
[00]  G01  f 44    816.8 2045998.9  1.0  1.0  5  0 454928724
[01]  G08  f 40   1684.4 2045997.8  1.0  1.0  5  0 454928713
[02]  G18  7 33   2260.7 2045997.1  0.6  1.0  5  0         1
$GNGGA,000000.000,,,,,0,00,,,M,,,,0000*2B
$GNRMC,000000.000,A,,,,,,,000000,,*26
$GPGSA,A,1,,,,,,,,,,,,,,,*1E
$BDGSA,A,1,,,,,,,,,,,,,,,*0F
$GPGSV,1,1,03,01,00,000,44,08,00,000,40,18,00,000,33*4E
$LOGTIM,0,0.000000,0.000000,0.000000,0.000000,0.000*0A
EndT:        0
---00000015--- Acq_st=3 2019-5-24 06:21:52 
[00]  G01  f 44    817.9 2045998.9  1.0  1.0  5  0 454929724
[01]  G08  f 40   1684.5 2045997.8  1.0  1.0  5  0 454929713
[02]  G18  7 41   2260.8 2045997.1  1.0  1.0  5  0         0
$GNGGA,000000.000,,,,,0,00,,,M,,,,0000*2B
$GNRMC,000000.000,A,,,,,,,000000,,*26
$GPGSA,A,1,,,,,,,,,,,,,,,*1E
$BDGSA,A,1,,,,,,,,,,,,,,,*0F
$GPGSV,1,1,03,01,00,000,44,08,00,000,40,18,00,000,41*4B
$LOGTIM,0,0.000000,0.000000,0.000000,0.000000,0.000*0A
EndT:        0
---00000016--- Acq_st=3 2019-5-24 06:21:53 
[00]  G01  f 44    820.7 2045999.0  1.0  1.0  5  0 454930724
[01]  G08  f 40   1687.6 2045997.8  1.0  1.0  5  0 454930713
[02]  G18  7 41   2264.1 2045997.1  1.0  1.0  5  0         0
$GNGGA,000000.000,,,,,0,00,,,M,,,,0000*2B
$GNRMC,000000.000,A,,,,,,,000000,,*26
$GPGSA,A,1,,,,,,,,,,,,,,,*1E
$BDGSA,A,1,,,,,,,,,,,,,,,*0F
$GPGSV,1,1,03,01,00,000,44,08,00,000,40,18,00,000,41*4B
$LOGTIM,0,0.000000,0.000000,0.000000,0.000000,0.000*0A
EndT:        0
---00000017--- Acq_st=3 2019-5-24 06:21:54 
[00]  G01  f 44    818.7 2045998.9  1.0  1.0  5  0 454931723
[01]  G08  f 40   1684.9 2045997.8  1.0  1.0  5  0 454931713
[02]  G18  7 41   2261.8 2045997.1  1.0  1.0  5  0         0
$GNGGA,000000.000,,,,,0,00,,,M,,,,0000*2B
$GNRMC,000000.000,A,,,,,,,000000,,*26
$GPGSA,A,1,,,,,,,,,,,,,,,*1E
$BDGSA,A,1,,,,,,,,,,,,,,,*0F
$GPGSV,1,1,03,01,00,000,44,08,00,000,40,18,00,000,41*4B
$LOGTIM,0,0.000000,0.000000,0.000000,0.000000,0.000*0A
EndT:        0
---00000018--- Acq_st=3 2019-5-24 06:21:55 
[00]  G01  f 44    817.5 2045998.9  1.0  1.0  5  0 454932723
[01]  G08  f 41   1683.1 2045997.8  1.0  1.0  5  0 454932713
[02]  G18  f 41   2260.1 2045997.1  1.0  1.0  5  0         0
$GNGGA,000000.000,,,,,0,00,,,M,,,,0000*2B
$GNRMC,000000.000,A,,,,,,,000000,,*26
$GPGSA,A,1,,,,,,,,,,,,,,,*1E
$BDGSA,A,1,,,,,,,,,,,,,,,*0F
$GPGSV,1,1,03,01,00,000,44,08,00,000,41,18,00,000,41*4A
$LOGTIM,0,0.000000,0.000000,0.000000,0.000000,0.000*0A
EndT:        0
ch3 satid=27,max_freq = 2500,max_mean = 13573,max_phase = 1452,max_value = 109354,acq ok1!
acq ok1 timeH = 0,timeL = 346296094,freq_stage = 2
---00000019--- Acq_st=3 2019-5-24 06:21:56 
[00]  G01  f 44    818.5 2045998.9  1.0  1.0  5  0 454933723
[01]  G08  f 41   1683.7 2045997.8  1.0  1.0  5  0 454933713
[02]  G18  f 41   2260.8 2045997.1  1.0  1.0  5  0 454933720
[03]  G28  1  7  -2601.7 2046004.7 -0.1  0.0  1  0         0
$GNGGA,000000.000,,,,,0,00,,,M,,,,0000*2B
$GNRMC,000000.000,A,,,,,,,000000,,*26
$GPGSA,A,1,,,,,,,,,,,,,,,*1E
$BDGSA,A,1,,,,,,,,,,,,,,,*0F
$GPGSV,1,1,03,01,00,000,44,08,00,000,41,18,00,000,41*4A
$LOGTIM,0,0.000000,0.000000,0.000000,0.000000,0.000*0A
EndT:        0
---00000020--- Acq_st=3 2019-5-24 06:21:57 
[00]  G01  f 44    821.4 2045998.9  1.0  1.0  5  0 454934723
[01]  G08  f 41   1685.9 2045997.8  1.0  1.0  5  0 454934713
[02]  G18  f 41   2264.1 2045997.1  1.0  1.0  5  0 454934720
[03]  G28  7 13  -2632.1 2046003.4  0.3  0.0 20  0        12
$GNGGA,000000.000,,,,,0,00,,,M,,,,0000*2B
$GNRMC,000000.000,A,,,,,,,000000,,*26
$GPGSA,A,1,,,,,,,,,,,,,,,*1E
$BDGSA,A,1,,,,,,,,,,,,,,,*0F
$GPGSV,1,1,04,01,00,000,44,08,00,000,41,18,00,000,41,28,00,000,13*75
$LOGTIM,0,0.000000,0.000000,0.000000,0.000000,0.000*0A
EndT:        0
---00000021--- Acq_st=3 2019-5-24 06:21:58 
[00]  G01  f 44    823.0 2045998.9  1.0  1.0  5  0 454935723
[01]  G08  f 41   1686.9 2045997.8  1.0  1.0  5  0 454935713
[02]  G18  f 41   2265.5 2045997.1  1.0  1.0  5  0 454935720
[03]  G28  7 38  -2630.4 2046003.4  0.7  1.0  5  0        18
$GNGGA,000000.000,,,,,0,00,,,M,,,,0000*2B
$GNRMC,000000.000,A,,,,,,,000000,,*26
$GPGSA,A,1,,,,,,,,,,,,,,,*1E
$BDGSA,A,1,,,,,,,,,,,,,,,*0F
$GPGSV,1,1,04,01,00,000,44,08,00,000,41,18,00,000,41,28,00,000,38*7C
$LOGTIM,0,0.000000,0.000000,0.000000,0.000000,0.000*0A
EndT:        0
---00000022--- Acq_st=3 2019-5-24 06:21:59 
[00]  G01  f 43    823.3 2045998.9  1.0  1.0  5  0 454936723
[01]  G08  f 41   1686.4 2045997.8  1.0  1.0  5  0 454936713
[02]  G18  f 40   2265.3 2045997.1  1.0  1.0  5  0 454936720
[03]  G28  7 38  -2631.0 2046003.4  1.0  1.0  5  0        18
$GNGGA,000000.000,,,,,0,00,,,M,,,,0000*2B
$GNRMC,000000.000,A,,,,,,,000000,,*26
$GPGSA,A,1,,,,,,,,,,,,,,,*1E
$BDGSA,A,1,,,,,,,,,,,,,,,*0F
$GPGSV,1,1,04,01,00,000,43,08,00,000,41,18,00,000,40,28,00,000,38*7A
$LOGTIM,0,0.000000,0.000000,0.000000,0.000000,0.000*0A
EndT:        0
---00000023--- Acq_st=3 2019-5-24 06:22:0 
[00]  G01  f 43    822.6 2045998.9  1.0  1.0  5  0 454937723
[01]  G08  f 41   1685.4 2045997.8  1.0  1.0  5  0 454937713
[02]  G18  f 40   2263.7 2045997.1  1.0  1.0  5  0 454937720
[03]  G28  7 38  -2632.2 2046003.4  1.0  1.0  5  0        18
$GNGGA,000000.000,,,,,0,00,,,M,,,,0000*2B
$GNRMC,000000.000,A,,,,,,,000000,,*26
$GPGSA,A,1,,,,,,,,,,,,,,,*1E
$BDGSA,A,1,,,,,,,,,,,,,,,*0F
$GPGSV,1,1,04,01,00,000,43,08,00,000,41,18,00,000,40,28,00,000,38*7A
$LOGTIM,0,0.000000,0.000000,0.000000,0.000000,0.000*0A
EndT:        0
---00000024--- Acq_st=3 2019-5-24 06:22:1 
[00]  G01  f 43    818.6 2045999.0  1.0  1.0  5  0 454938723
[01]  G08  f 41   1680.6 2045997.8  1.0  1.0  5  0 454938713
[02]  G18  f 41   2260.0 2045997.1  1.0  1.0  5  0 454938720
[03]  G28  f 39  -2636.6 2046003.4  1.0  1.0  5  0        18
$GNGGA,000000.000,,,,,0,00,,,M,,,,0000*2B
$GNRMC,000000.000,A,,,,,,,000000,,*26
$GPGSA,A,1,,,,,,,,,,,,,,,*1E
$BDGSA,A,1,,,,,,,,,,,,,,,*0F
$GPGSV,1,1,04,01,00,000,43,08,00,000,41,18,00,000,41,28,00,000,39*7A
$LOGTIM,0,0.000000,0.000000,0.000000,0.000000,0.000*0A
EndT:        0
---00000025--- Acq_st=3 2019-5-24 06:22:2 
[00]  G01  f 42    816.8 2045998.9  1.0  1.0  5  0 454939723
[01]  G08  f 41   1678.6 2045997.9  1.0  1.0  5  0 454939713
[02]  G18  f 41   2257.9 2045997.1  1.0  1.0  5  0 454939720
[03]  G28  f 39  -2638.4 2046003.4  1.0  1.0  5  0 454939718
$GNGGA,000000.000,,,,,0,00,,,M,,,,0000*2B
$GNRMC,000000.000,A,,,,,,,000000,,*26
$GPGSA,A,1,,,,,,,,,,,,,,,*1E
$BDGSA,A,1,,,,,,,,,,,,,,,*0F
$GPGSV,1,1,04,01,00,000,42,08,00,000,41,18,00,000,41,28,00,000,39*7B
$LOGTIM,0,0.000000,0.000000,0.000000,0.000000,0.000*0A
EndT:        0
---00000026--- Acq_st=3 2019-5-24 06:22:3 
[00]  G01  f 42    815.7 2045998.9  1.0  1.0  5  0 454940723
[01]  G08  f 41   1677.2 2045997.8  1.0  1.0  5  0 454940713
[02]  G18  f 41   2257.3 2045997.1  1.0  1.0  5  0 454940720
[03]  G28  f 39  -2639.7 2046003.4  1.0  1.0  5  0 454940718
$GNGGA,000000.000,,,,,0,00,,,M,,,,0000*2B
$GNRMC,000000.000,A,,,,,,,000000,,*26
$GPGSA,A,1,,,,,,,,,,,,,,,*1E
$BDGSA,A,1,,,,,,,,,,,,,,,*0F
$GPGSV,1,1,04,01,00,000,42,08,00,000,41,18,00,000,41,28,00,000,39*7B
$LOGTIM,0,0.000000,0.000000,0.000000,0.000000,0.000*0A
EndT:        0
---00000027--- Acq_st=3 2019-5-24 06:22:4 
[00]  G01  f 42    816.1 2045999.0  1.0  1.0  5  0 454941723
[01]  G08  f 40   1677.0 2045997.8  1.0  1.0  5  0 454941713
[02]  G18  f 41   2257.4 2045997.1  1.0  1.0  5  0 454941720
[03]  G28  f 39  -2639.9 2046003.4  1.0  1.0  5  0 454941718
$GNGGA,000000.000,,,,,0,00,,,M,,,,0000*2B
$GNRMC,000000.000,A,,,,,,,000000,,*26
$GPGSA,A,1,,,,,,,,,,,,,,,*1E
$BDGSA,A,1,,,,,,,,,,,,,,,*0F
$GPGSV,1,1,04,01,00,000,42,08,00,000,40,18,00,000,41,28,00,000,39*7A
$LOGTIM,0,0.000000,0.000000,0.000000,0.000000,0.000*0A
EndT:        0
---00000028--- Acq_st=3 2019-5-24 06:22:5 
[00]  G01  f 42    818.4 2045999.0  1.0  1.0  5  0 454942723
[01]  G08  f 40   1678.7 2045997.9  1.0  1.0  5  0 454942713
[02]  G18  f 41   2259.0 2045997.1  1.0  1.0  5  0 454942720
[03]  G28  f 39  -2638.1 2046003.4  1.0  1.0  5  0 454942718
$GNGGA,000000.000,,,,,0,00,,,M,,,,0000*2B
$GNRMC,000000.000,A,,,,,,,000000,,*26
$GPGSA,A,1,,,,,,,,,,,,,,,*1E
$BDGSA,A,1,,,,,,,,,,,,,,,*0F
$GPGSV,1,1,04,01,00,000,42,08,00,000,40,18,00,000,41,28,00,000,39*7A
$LOGTIM,0,0.000000,0.000000,0.000000,0.000000,0.000*0A
EndT:        0
---00000029--- Acq_st=3 2019-5-24 06:22:6 
[00]  G01  f 41    822.6 2045999.0  1.0  1.0  5  0 454943723
[01]  G08  f 41   1682.1 2045997.8  1.0  1.0  5  0 454943713
[02]  G18  f 40   2263.4 2045997.1  1.0  1.0  5  0 454943720
[03]  G28  f 39  -2634.4 2046003.4  1.0  1.0  5  0 454943718
$GNGGA,000000.000,,,,,0,00,,,M,,,,0000*2B
$GNRMC,000000.000,A,,,,,,,000000,,*26
$GPGSA,A,1,,,,,,,,,,,,,,,*1E
$BDGSA,A,1,,,,,,,,,,,,,,,*0F
$GPGSV,1,1,04,01,00,000,41,08,00,000,41,18,00,000,40,28,00,000,39*79
$LOGTIM,0,0.000000,0.000000,0.000000,0.000000,0.000*0A
EndT:        0
---00000030--- Acq_st=3 2019-5-24 06:22:7 
[00]  G01  f 41    826.9 2045998.9  1.0  1.0  5  0 454944723
[01]  G08  f 41   1686.0 2045997.8  1.0  1.0  5  0 454944713
[02]  G18  f 40   2266.9 2045997.1  1.0  1.0  5  0 454944720
[03]  G28  f 38  -2630.7 2046003.4  1.0  1.0  5  0 454944718
$GNGGA,000000.000,,,,,0,00,,,M,,,,0000*2B
$GNRMC,000000.000,A,,,,,,,000000,,*26
$GPGSA,A,1,,,,,,,,,,,,,,,*1E
$BDGSA,A,1,,,,,,,,,,,,,,,*0F
$GPGSV,1,1,04,01,00,000,41,08,00,000,41,18,00,000,40,28,00,000,38*78
$LOGTIM,0,0.000000,0.000000,0.000000,0.000000,0.000*0A
EndT:        0
---00000031--- Acq_st=3 2019-5-24 06:22:8 
[00]  G01  f 41    826.0 2045998.9  1.0  1.0  5  0 454945723
[01]  G08  f 41   1684.7 2045997.8  1.0  1.0  5  0 454945713
[02]  G18  f 40   2266.0 2045997.1  1.0  1.0  5  0 454945720
[03]  G28  f 38  -2631.6 2046003.4  1.0  0.9  5  0 454945718
$GNGGA,000000.000,,,,,0,00,,,M,,,,0000*2B
$GNRMC,000000.000,A,,,,,,,000000,,*26
$GPGSA,A,1,,,,,,,,,,,,,,,*1E
$BDGSA,A,1,,,,,,,,,,,,,,,*0F
$GPGSV,1,1,04,01,00,000,41,08,00,000,41,18,00,000,40,28,00,000,38*78
$LOGTIM,0,0.000000,0.000000,0.000000,0.000000,0.000*0A
EndT:        0
---00000032--- Acq_st=3 2019-5-24 06:22:9 
[00]  G01  f 41    824.1 2045998.9  1.0  1.0  5  0 454946723
[01]  G08  f 40   1682.5 2045997.8  1.0  1.0  5  0 454946713
[02]  G18  f 40   2264.1 2045997.1  1.0  1.0  5  0 454946720
[03]  G28  f 38  -2633.8 2046003.4  1.0  1.0  5  0 454946718
$GNGGA,000000.000,,,,,0,00,,,M,,,,0000*2B
$GNRMC,000000.000,A,,,,,,,000000,,*26
$GPGSA,A,1,,,,,,,,,,,,,,,*1E
$BDGSA,A,1,,,,,,,,,,,,,,,*0F
$GPGSV,1,1,04,01,00,000,41,08,00,000,40,18,00,000,40,28,00,000,38*79
$LOGTIM,0,0.000000,0.000000,0.000000,0.000000,0.000*0A
EndT:        0
---00000033--- Acq_st=3 2019-5-24 06:22:10 
[00]  G01  f 40    825.9 2045998.9  1.0  0.9  5  0 454947723
[01]  G08  f 40   1683.6 2045997.8  1.0  1.0  5  0 454947713
[02]  G18  f 39   2266.3 2045997.1  1.0  1.0  5  0 454947720
[03]  G28  f 39  -2631.7 2046003.4  1.0  1.0  5  0 454947718
$GNGGA,000000.000,,,,,0,00,,,M,,,,0000*2B
$GNRMC,000000.000,A,,,,,,,000000,,*26
$GPGSA,A,1,,,,,,,,,,,,,,,*1E
$BDGSA,A,1,,,,,,,,,,,,,,,*0F
$GPGSV,1,1,04,01,00,000,40,08,00,000,40,18,00,000,39,28,00,000,39*77
$LOGTIM,0,0.000000,0.000000,0.000000,0.000000,0.000*0A
EndT:        0
---00000034--- Acq_st=3 2019-5-24 06:22:11 
[00]  G01  f 41    830.2 2045999.0  1.0  1.0  5  0 454948723
[01]  G08  f 40   1687.0 2045997.8  1.0  1.0  5  0 454948713
[02]  G18  f 40   2269.7 2045997.1  1.0  1.0  5  0 454948720
[03]  G28  f 38  -2629.0 2046003.4  1.0  1.0  5  0 454948718
$GNGGA,000000.000,,,,,0,00,,,M,,,,0000*2B
$GNRMC,000000.000,A,,,,,,,000000,,*26
$GPGSA,A,1,,,,,,,,,,,,,,,*1E
$BDGSA,A,1,,,,,,,,,,,,,,,*0F
$GPGSV,1,1,04,01,00,000,41,08,00,000,40,18,00,000,40,28,00,000,38*79
$LOGTIM,0,0.000000,0.000000,0.000000,0.000000,0.000*0A
EndT:        0
---00000035--- Acq_st=3 2019-5-24 06:22:12 
[00]  G01  f 41    829.6 2045998.9  1.0  1.0  5  0 454949723
[01]  G08  f 40   1686.2 2045997.8  1.0  1.0  5  0 454949713
[02]  G18  f 41   2268.8 2045997.0  1.0  1.0  5  0 454949720
[03]  G28  f 38  -2629.3 2046003.5  1.0  1.0  5  0 454949718
$GNGGA,000000.000,,,,,0,00,,,M,,,,0000*2B
$GNRMC,000000.000,A,,,,,,,000000,,*26
$GPGSA,A,1,,,,,,,,,,,,,,,*1E
$BDGSA,A,1,,,,,,,,,,,,,,,*0F
$GPGSV,1,1,04,01,00,000,41,08,00,000,40,18,00,000,41,28,00,000,38*78
$LOGTIM,0,0.000000,0.000000,0.000000,0.000000,0.000*0A
EndT:        0
ch16 satid=46,max_freq = 1000,max_mean = 5655,max_phase = 1692,max_value = 55457,acq ok1!
acq ok1 timeH = 0,timeL = 664508958,freq_stage = 3
---00000036--- Acq_st=3 2019-5-24 06:22:13 
[00]  G01  f 42    830.4 2045998.9  1.0  1.0  5  0 454950723
[01]  G08  f 40   1686.1 2045997.8  1.0  1.0  5  0 454950713
[02]  G18  f 41   2269.7 2045997.0  1.0  1.0  5  0 454950720
[03]  G28  f 38  -2628.9 2046003.4  1.0  1.0  5  0 454950718
[16]  B10  1  7  -1024.3 4092002.2 -0.1  0.0  1  0         0
$GNGGA,000000.000,,,,,0,00,,,M,,,,0000*2B
$GNRMC,000000.000,A,,,,,,,000000,,*26
$GPGSA,A,1,,,,,,,,,,,,,,,*1E
$BDGSA,A,1,,,,,,,,,,,,,,,*0F
$GPGSV,1,1,04,01,00,000,42,08,00,000,40,18,00,000,41,28,00,000,38*7B
$LOGTIM,0,0.000000,0.000000,0.000000,0.000000,0.000*0A
EndT:        0
ch17 satid=47,max_freq = -2750,max_mean = 4918,max_phase = 783,max_value = 27685,acq ok1!
acq ok1 timeH = 0,timeL = 700060956,freq_stage = 4
---00000037--- Acq_st=3 2019-5-24 06:22:14 
[00]  G01  f 41    829.1 2045999.0  1.0  1.0  5  0 454951723
[01]  G08  f 40   1684.5 2045997.8  1.0  1.0  5  0 454951713
[02]  G18  f 41   2268.5 2045997.0  1.0  1.0  5  0 454951720
[03]  G28  f 38  -2630.9 2046003.4  1.0  1.0  5  0 454951718
[16]  B10  1 11  -1106.8 4092001.9  0.0  0.0  1  0       534
[17]  B11  1  7   3834.6 4091992.6  0.0  0.0  1  0         0
$GNGGA,000000.000,,,,,0,00,,,M,,,,0000*2B
$GNRMC,000000.000,A,,,,,,,000000,,*26
$GPGSA,A,1,,,,,,,,,,,,,,,*1E
$BDGSA,A,1,,,,,,,,,,,,,,,*0F
$GPGSV,1,1,04,01,00,000,41,08,00,000,40,18,00,000,41,28,00,000,38*78
$LOGTIM,0,0.000000,0.000000,0.000000,0.000000,0.000*0A
EndT:        0
---00000038--- Acq_st=3 2019-5-24 06:22:15 
[00]  G01  f 42    828.6 2045998.9  1.0  1.0  5  0 454952723
[01]  G08  f 40   1683.4 2045997.8  1.0  1.0  5  0 454952713
[02]  G18  f 40   2267.2 2045997.0  1.0  1.0  5  0 454952720
[03]  G28  f 38  -2632.2 2046003.4  1.0  1.0  5  0 454952718
[16]  B10  1  7  -1077.3 4092002.3  0.1  0.0  1  0      1534
[17]  B11  1  7   2703.2 4091992.9 -0.2  0.0  1  0       109
$GNGGA,000000.000,,,,,0,00,,,M,,,,0000*2B
$GNRMC,000000.000,A,,,,,,,000000,,*26
$GPGSA,A,1,,,,,,,,,,,,,,,*1E
$BDGSA,A,1,,,,,,,,,,,,,,,*0F
$GPGSV,1,1,04,01,00,000,42,08,00,000,40,18,00,000,40,28,00,000,38*7A
$LOGTIM,0,0.000000,0.000000,0.000000,0.000000,0.000*0A
EndT:        0
---00000039--- Acq_st=3 2019-5-24 06:22:16 
[00]  G01  f 42    837.2 2045998.9  1.0  1.0  5  0 454953723
[01]  G08  f 40   1691.8 2045997.8  1.0  1.0  5  0 454953713
[02]  G18  f 40   2275.8 2045997.1  1.0  1.0  5  0 454953720
[03]  G28  f 38  -2623.6 2046003.4  1.0  1.0  5  0 454953718
[17]  B11  1  7   2908.3 4091993.1 -0.1  0.0  1  0      1109
$GNGGA,000000.000,,,,,0,00,,,M,,,,0000*2B
$GNRMC,000000.000,A,,,,,,,000000,,*26
$GPGSA,A,1,,,,,,,,,,,,,,,*1E
$BDGSA,A,1,,,,,,,,,,,,,,,*0F
$GPGSV,1,1,04,01,00,000,42,08,00,000,40,18,00,000,40,28,00,000,38*7A
$LOGTIM,0,0.000000,0.000000,0.000000,0.000000,0.000*0A
EndT:        0
---00000040--- Acq_st=3 2019-5-24 06:22:17 
[00]  G01  f 42    832.1 2045998.9  1.0  1.0  5  0 454954723
[01]  G08  f 40   1685.7 2045997.8  1.0  1.0  5  0 454954713
[02]  G18  f 40   2270.2 2045997.0  1.0  1.0  5  0 454954720
[03]  G28  f 38  -2629.8 2046003.4  1.0  1.0  5  0 454954718
[17]  B11  1 13   3077.5 4091992.9 -0.0  0.0  1  0      2109
$GNGGA,000000.000,,,,,0,00,,,M,,,,0000*2B
$GNRMC,000000.000,A,,,,,,,000000,,*26
$GPGSA,A,1,,,,,,,,,,,,,,,*1E
$BDGSA,A,1,,,,,,,,,,,,,,,*0F
$GPGSV,1,1,04,01,00,000,42,08,00,000,40,18,00,000,40,28,00,000,38*7A
$LOGTIM,0,0.000000,0.000000,0.000000,0.000000,0.000*0A
EndT:        0
---00000041--- Acq_st=3 2019-5-24 06:22:18 
[00]  G01  f 43    831.0 2045998.9  1.0  1.0  5  0 454955723
[01]  G08  f 40   1684.3 2045997.8  1.0  1.0  5  0 454955713
[02]  G18  f 41   2269.7 2045997.0  1.0  1.0  5  0 454955720
[03]  G28  f 38  -2630.7 2046003.4  1.0  1.0  5  0 454955718
$GNGGA,000000.000,,,,,0,00,,,M,,,,0000*2B
$GNRMC,000000.000,A,,,,,,,000000,,*26
$GPGSA,A,1,,,,,,,,,,,,,,,*1E
$BDGSA,A,1,,,,,,,,,,,,,,,*0F
$GPGSV,1,1,04,01,00,000,43,08,00,000,40,18,00,000,41,28,00,000,38*7A
$LOGTIM,0,0.000000,0.000000,0.000000,0.000000,0.000*0A
EndT:        0
ch16 satid=50,max_freq = 250,max_mean = 5214,max_phase = 1294,max_value = 22499,acq ok1!
acq ok1 timeH = 0,timeL = 773917416,freq_stage = 3
---00000042--- Acq_st=3 2019-5-24 06:22:19 
[00]  G01  f 43    830.5 2045998.9  1.0  1.0  5  0 454956723
[01]  G08  f 40   1683.1 2045997.8  1.0  1.0  5  0 454956713
[02]  G18  f 41   2268.4 2045997.1  1.0  1.0  5  0 454956720
[03]  G28  f 37  -2632.1 2046003.4  1.0  1.0  5  0 454956718
[16]  B14  1  7   -551.4 4092002.6  0.1  0.0  1  0      2534
$GNGGA,000000.000,,,,,0,00,,,M,,,,0000*2B
$GNRMC,000000.000,A,,,,,,,000000,,*26
$GPGSA,A,1,,,,,,,,,,,,,,,*1E
$BDGSA,A,1,,,,,,,,,,,,,,,*0F
$GPGSV,1,1,04,01,00,000,43,08,00,000,40,18,00,000,41,28,00,000,37*75
$LOGTIM,0,0.000000,0.000000,0.000000,0.000000,0.000*0A
EndT:        0
---00000043--- Acq_st=3 2019-5-24 06:22:20 
[00]  G01  f 43    831.2 2045998.9  1.0  1.0  5  0 454957723
[01]  G08  f 39   1683.8 2045997.8  1.0  1.0  5  0 454957713
[02]  G18  f 41   2269.3 2045997.0  1.0  1.0  5  0 454957720
[03]  G28  f 37  -2631.1 2046003.4  1.0  1.0  5  0 454957718
[16]  B14  7 27   -603.1 4092001.6 -0.1  1.0 10  0       835
$GNGGA,000000.000,,,,,0,00,,,M,,,,0000*2B
$GNRMC,000000.000,A,,,,,,,000000,,*26
$GPGSA,A,1,,,,,,,,,,,,,,,*1E
$BDGSA,A,1,,,,,,,,,,,,,,,*0F
$GPGSV,1,1,04,01,00,000,43,08,00,000,39,18,00,000,41,28,00,000,37*7B
$BDGSV,1,1,01,14,00,000,27*59
$LOGTIM,0,0.000000,0.000000,0.000000,0.000000,0.000*0A
EndT:        0
---00000044--- Acq_st=3 2019-5-24 06:22:21 
[00]  G01  f 43    834.0 2045998.9  1.0  1.0  5  0 454958723
[01]  G08  f 40   1686.0 2045997.8  1.0  1.0  5  0 454958713
[02]  G18  f 41   2271.8 2045997.1  1.0  1.0  5  0 454958720
[03]  G28  f 37  -2629.3 2046003.4  1.0  1.0  5  0 454958718
[16]  B14  7 37   -598.6 4092001.6  0.9  1.0  5  0      1825
$GNGGA,000000.000,,,,,0,00,,,M,,,,0000*2B
$GNRMC,000000.000,A,,,,,,,000000,,*26
$GPGSA,A,1,,,,,,,,,,,,,,,*1E
$BDGSA,A,1,,,,,,,,,,,,,,,*0F
$GPGSV,1,1,04,01,00,000,43,08,00,000,40,18,00,000,41,28,00,000,37*75
$BDGSV,1,1,01,14,00,000,37*58
$LOGTIM,0,0.000000,0.000000,0.000000,0.000000,0.000*0A
EndT:        0
---00000045--- Acq_st=3 2019-5-24 06:22:22 
[00]  G01  f 43    838.5 2045998.9  1.0  1.0  5  0 454959723
[01]  G08  f 40   1689.7 2045997.8  1.0  1.0  5  0 454959713
[02]  G18  f 41   2276.1 2045997.0  1.0  1.0  5  0 454959720
[03]  G28  f 37  -2625.0 2046003.4  1.0  1.0  5  0 454959718
[16]  B14  7 37   -594.6 4092001.6  1.0  1.0  5  0      2825
$GNGGA,000000.000,,,,,0,00,,,M,,,,0000*2B
$GNRMC,000000.000,A,,,,,,,000000,,*26
$GPGSA,A,1,,,,,,,,,,,,,,,*1E
$BDGSA,A,1,,,,,,,,,,,,,,,*0F
$GPGSV,1,1,04,01,00,000,43,08,00,000,40,18,00,000,41,28,00,000,37*75
$BDGSV,1,1,01,14,00,000,37*58
$LOGTIM,0,0.000000,0.000000,0.000000,0.000000,0.000*0A
EndT:        0
---00000046--- Acq_st=3 2019-5-24 06:22:23 
[00]  G01  f 43    840.8 2045998.9  1.0  1.0  5  0 454960723
[01]  G08  f 40   1691.5 2045997.8  1.0  1.0  5  0 454960713
[02]  G18  f 41   2277.9 2045997.0  1.0  1.0  5  0 454960720
[03]  G28  f 37  -2622.7 2046003.4  1.0  1.0  5  0 454960718
[16]  B14  7 38   -591.5 4092001.6  1.0  1.0  5  0      3825
$GNGGA,000000.000,,,,,0,00,,,M,,,,0000*2B
$GNRMC,000000.000,A,,,,,,,000000,,*26
$GPGSA,A,1,,,,,,,,,,,,,,,*1E
$BDGSA,A,1,,,,,,,,,,,,,,,*0F
$GPGSV,1,1,04,01,00,000,43,08,00,000,40,18,00,000,41,28,00,000,37*75
$BDGSV,1,1,01,14,00,000,38*57
$LOGTIM,0,0.000000,0.000000,0.000000,0.000000,0.000*0A
EndT:        0
---00000047--- Acq_st=3 2019-5-24 06:22:24 
[00]  G01  f 43    842.6 2045998.9  1.0  1.0  5  0 454961723
[01]  G08  f 40   1692.6 2045997.8  1.0  1.0  5  0 454961713
[02]  G18  f 41   2280.2 2045997.0  1.0  1.0  5  0 454961720
[03]  G28  f 37  -2621.5 2046003.4  1.0  1.0  5  0 454961718
[16]  B14  7 38   -590.6 4092001.5  1.0  1.0  5  0      4825
$GNGGA,000000.000,,,,,0,00,,,M,,,,0000*2B
$GNRMC,000000.000,A,,,,,,,000000,,*26
$GPGSA,A,1,,,,,,,,,,,,,,,*1E
$BDGSA,A,1,,,,,,,,,,,,,,,*0F
$GPGSV,1,1,04,01,00,000,43,08,00,000,40,18,00,000,41,28,00,000,37*75
$BDGSV,1,1,01,14,00,000,38*57
$LOGTIM,0,0.000000,0.000000,0.000000,0.000000,0.000*0A
EndT:        0
---00000048--- Acq_st=3 2019-5-24 06:22:25 
[00]  G01  f 43    842.4 2045998.9  1.0  1.0  5  0 454962723
[01]  G08  f 40   1692.1 2045997.8  1.0  1.0  5  0 454962713
[02]  G18  f 40   2279.5 2045997.1  1.0  1.0  5  0 454962720
[03]  G28  f 37  -2621.6 2046003.4  1.0  0.9  5  0 454962718
[16]  B14  7 38   -590.7 4092001.5  1.0  0.9  5  0      5825
$GNGGA,000000.000,,,,,0,00,,,M,,,,0000*2B
$GNRMC,000000.000,A,,,,,,,000000,,*26
$GPGSA,A,1,,,,,,,,,,,,,,,*1E
$BDGSA,A,1,,,,,,,,,,,,,,,*0F
$GPGSV,1,1,04,01,00,000,43,08,00,000,40,18,00,000,40,28,00,000,37*74
$BDGSV,1,1,01,14,00,000,38*57
$LOGTIM,0,0.000000,0.000000,0.000000,0.000000,0.000*0A
EndT:        0
---00000049--- Acq_st=3 2019-5-24 06:22:26 
[00]  G01  f 43    845.1 2045998.9  1.0  1.0  5  0 454963723
[01]  G08  f 40   1694.1 2045997.8  1.0  1.0  5  0 454963713
[02]  G18  f 41   2281.6 2045997.1  1.0  1.0  5  0 454963720
[03]  G28  f 38  -2619.9 2046003.4  1.0  1.0  5  0 454963718
[16]  B14  7 37   -588.6 4092001.6  1.0  1.0  5  0      6825
$GNGGA,000000.000,,,,,0,00,,,M,,,,0000*2B
$GNRMC,000000.000,A,,,,,,,000000,,*26
$GPGSA,A,1,,,,,,,,,,,,,,,*1E
$BDGSA,A,1,,,,,,,,,,,,,,,*0F
$GPGSV,1,1,04,01,00,000,43,08,00,000,40,18,00,000,41,28,00,000,38*7A
$BDGSV,1,1,01,14,00,000,37*58
$LOGTIM,0,0.000000,0.000000,0.000000,0.000000,0.000*0A
EndT:        0
---00000050--- Acq_st=3 2019-5-24 06:22:27 
[00]  G01  f 43    843.6 2045998.9  1.0  1.0  5  0 454964723
[01]  G08  f 40   1691.9 2045997.8  1.0  1.0  5  0 454964713
[02]  G18  f 41   2280.4 2045997.0  1.0  1.0  5  0 454964720
[03]  G28  f 37  -2621.3 2046003.4  1.0  1.0  5  0 454964718
[16]  B14 1f 37   -589.7 4092001.5  1.0  1.0  5  0      7825
$GNGGA,000000.000,,,,,0,00,,,M,,,,0000*2B
$GNRMC,000000.000,A,,,,,,,000000,,*26
$GPGSA,A,1,,,,,,,,,,,,,,,*1E
$BDGSA,A,1,,,,,,,,,,,,,,,*0F
$GPGSV,1,1,04,01,00,000,43,08,00,000,40,18,00,000,41,28,00,000,37*75
$BDGSV,1,1,01,14,00,000,37*58
$LOGTIM,0,0.000000,0.000000,0.000000,0.000000,0.000*0A
EndT:        0
---00000051--- Acq_st=3 2019-5-24 06:22:28 
[00]  G01  f 43    842.4 2045998.9  1.0  1.0  5  0 454965723
[01]  G08  f 40   1690.0 2045997.8  1.0  1.0  5  0 454965713
[02]  G18  f 40   2278.4 2045997.1  1.0  1.0  5  0 454965720
[03]  G28  f 37  -2623.9 2046003.4  1.0  0.9  5  0 454965718
[16]  B14 1f 38   -591.5 4092001.5  1.0  1.0  5  0 454951705
$GNGGA,000000.000,,,,,0,00,,,M,,,,0000*2B
$GNRMC,000000.000,A,,,,,,,000000,,*26
$GPGSA,A,1,,,,,,,,,,,,,,,*1E
$BDGSA,A,1,,,,,,,,,,,,,,,*0F
$GPGSV,1,1,04,01,00,000,43,08,00,000,40,18,00,000,40,28,00,000,37*74
$BDGSV,1,1,01,14,00,000,38*57
$LOGTIM,0,0.000000,0.000000,0.000000,0.000000,0.000*0A
EndT:        0
---00000052--- Acq_st=3 2019-5-24 06:22:29 
[00]  G01  f 43    846.0 2045998.9  1.0  1.0  5  0 454966723
[01]  G08  f 40   1693.6 2045997.8  1.0  1.0  5  0 454966713
[02]  G18  f 41   2282.5 2045997.0  1.0  1.0  5  0 454966720
[03]  G28  f 36  -2619.7 2046003.4  1.0  1.0  5  0 454966718
[16]  B14 1f 37   -587.8 4092001.6  1.0  1.0  5  0 454952705
$GNGGA,000000.000,,,,,0,00,,,M,,,,0000*2B
$GNRMC,000000.000,A,,,,,,,000000,,*26
$GPGSA,A,1,,,,,,,,,,,,,,,*1E
$BDGSA,A,1,,,,,,,,,,,,,,,*0F
$GPGSV,1,1,04,01,00,000,43,08,00,000,40,18,00,000,41,28,00,000,36*74
$BDGSV,1,1,01,14,00,000,37*58
$LOGTIM,0,0.000000,0.000000,0.000000,0.000000,0.000*0A
EndT:        0
---00000053--- Acq_st=3 2019-5-24 06:22:30 
[00]  G01  f 43    847.2 2045998.9  1.0  1.0  5  0 454967723
[01]  G08  f 40   1694.6 2045997.8  1.0  1.0  5  0 454967713
[02]  G18  f 41   2283.4 2045997.0  1.0  1.0  5  0 454967720
[03]  G28  f 37  -2619.0 2046003.5  1.0  1.0  5  0 454967718
[16]  B14 1f 37   -586.0 4092001.6  1.0  1.0  5  0 454953705
lsq: nits= 4
$GNGGA,062230.791,3112.7228,N,12136.4318,E,1,04,5.6,29.5,M,,,,0000*25
$GNRMC,062230.791,A,3112.7228,N,12136.4318,E,0.61,0.00,240519,,*1C
$GPGSA,A,3,01,08,18,28,,,,,,,,,7.0,5.6,4.3*3B
$BDGSA,A,3,,,,,,,,,,,,,7.0,5.6,4.3*20
$GPGSV,1,1,04,01,00,000,43,08,00,000,40,18,00,000,41,28,00,000,37*75
$BDGSV,1,1,01,14,00,000,37*58
$LOGTIM,1,9783827.674959,0.000000,0.000000,0.000000,-63.544*1E
EndT:        0
---00000054--- Acq_st=3 2019-5-24 06:22:31 
[00]  G01  f 43    846.7 2045998.9  1.0  1.0  5  0 454968723
[01]  G08  f 40   1693.2 2045997.8  1.0  1.0  5  0 454968713
[02]  G18  f 41   2282.7 2045997.0  1.0  1.0  5  0 454968720
[03]  G28  f 37  -2619.4 2046003.4  1.0  0.9  5  0 454968718
[16]  B14 1f 38   -587.0 4092001.6  1.0  1.0  5  0 454954705
lsq: nits= 4
$GNGGA,062232.000,3112.7201,N,12136.4316,E,1,04,5.6,31.5,M,,,,0000*24
$GNRMC,062232.000,A,3112.7201,N,12136.4316,E,0.67,0.00,240519,,*12
$GPGSA,A,3,01,08,18,28,,,,,,,,,7.0,5.6,4.3*3B
$BDGSA,A,3,,,,,,,,,,,,,7.0,5.6,4.3*20
$GPGSV,1,1,04,01,00,000,43,08,00,000,40,18,00,000,41,28,00,000,37*75
$BDGSV,1,1,01,14,00,000,38*57
$LOGTIM,1,-76.686792,0.000000,0.000000,0.000000,-63.360*0E
EndT:        0
---00000055--- Acq_st=3 2019-5-24 06:22:32 
[00]  G01  f 43    845.8 2045998.9  1.0  1.0  5  0 454969932
[01]  G08  f 40   1692.0 2045997.8  1.0  1.0  5  0 454969922
[02]  G18  f 41   2281.4 2045997.0  1.0  1.0  5  0 454969928
[03]  G28  f 37  -2621.1 2046003.4  1.0  0.9  5  0 454969927
[16]  B14 1f 37   -588.1 4092001.5  1.0  1.0  5  0 454955914
lsq: nits= 4
$GNGGA,062233.000,3112.7191,N,12136.4316,E,1,04,5.6,33.0,M,,,,0000*28
$GNRMC,062233.000,A,3112.7191,N,12136.4316,E,0.18,0.00,240519,,*11
$GPGSA,A,3,01,08,18,28,,,,,,,,,7.0,5.6,4.3*3B
$BDGSA,A,3,,,,,,,,,,,,,7.0,5.6,4.3*20
$GPGSV,1,1,04,01,72,036,43,08,25,066,40,18,43,041,41,28,47,324,37*76
$BDGSV,1,1,01,14,00,000,37*58
$LOGTIM,1,-141.032418,0.000000,0.000000,0.000000,-63.957*3D
EndT:        0
---00000056--- Acq_st=3 2019-5-24 06:22:33 
[00]  G01  f 43    847.6 2045998.9  1.0  1.0  5  0 454970932
[01]  G08  f 39   1692.9 2045997.8  1.0  1.0  5  0 454970922
[02]  G18  f 41   2282.1 2045997.0  1.0  1.0  5  0 454970928
[03]  G28  f 37  -2620.3 2046003.3  1.0  1.0  5  0 454970927
[16]  B14 1f 38   -587.0 4092001.6  1.0  1.0  5  0 454956914
lsq: nits= 4
$GNGGA,062234.000,3112.7185,N,12136.4320,E,1,04,5.6,34.3,M,,,,0000*2B
$GNRMC,062234.000,A,3112.7185,N,12136.4320,E,0.14,0.00,240519,,*1A
$GPGSA,A,3,01,08,18,28,,,,,,,,,7.0,5.6,4.3*3B
$BDGSA,A,3,,,,,,,,,,,,,7.0,5.6,4.3*20
$GPGSV,1,1,04,01,72,036,43,08,25,066,39,18,43,041,41,28,47,324,37*78
$BDGSV,1,1,01,14,00,000,38*57
$LOGTIM,1,-204.628787,0.000000,0.000000,0.000000,-63.807*33
EndT:        0
---00000057--- Acq_st=3 2019-5-24 06:22:34 
[00]  G01  f 43    851.4 2045998.8  1.0  1.0  5  0 454971932
[01]  G08  f 40   1696.3 2045997.8  1.0  1.0  5  0 454971922
[02]  G18  f 41   2286.3 2045997.1  1.0  1.0  5  0 454971928
[03]  G28  f 38  -2617.1 2046003.4  1.0  1.0  5  0 454971927
[16]  B14 1f 37   -582.6 4092001.5  1.0  1.0  5  0 454957914
lsq: nits= 4
$GNGGA,062235.000,3112.7193,N,12136.4323,E,1,04,5.6,35.4,M,,,,0000*28
$GNRMC,062235.000,A,3112.7193,N,12136.4323,E,0.17,0.00,240519,,*1C
$GPGSA,A,3,01,08,18,28,,,,,,,,,7.0,5.6,4.3*3B
$BDGSA,A,3,,,,,,,,,,,,,7.0,5.6,4.3*20
$GPGSV,1,1,04,01,72,036,43,08,25,066,40,18,43,041,41,28,47,324,38*79
$BDGSV,1,1,01,14,00,000,37*58
$LOGTIM,1,-266.884700,0.000000,0.000000,0.000000,-63.397*32
EndT:        0
---00000058--- Acq_st=3 2019-5-24 06:22:35 
[00]  G01  f 43    849.5 2045998.9  1.0  1.0  5  0 454972932
[01]  G08  f 40   1694.2 2045997.8  1.0  1.0  5  0 454972922
[02]  G18  f 41   2284.7 2045997.0  1.0  0.9  5  0 454972928
[03]  G28  f 38  -2618.8 2046003.4  1.0  1.0  5  0 454972927
[16]  B14 1f 37   -584.0 4092001.6  1.0  1.0  5  0 454958914
lsq: nits= 4
$GNGGA,062236.000,3112.7192,N,12136.4323,E,1,04,5.6,36.8,M,,,,0000*25
$GNRMC,062236.000,A,3112.7192,N,12136.4323,E,0.13,0.00,240519,,*1A
$GPGSA,A,3,01,08,18,28,,,,,,,,,7.0,5.6,4.3*3B
$BDGSA,A,3,,,,,,,,,,,,,7.0,5.6,4.3*20
$GPGSV,1,1,04,01,72,036,43,08,25,066,40,18,43,041,41,28,47,324,38*79
$BDGSV,1,1,01,14,00,000,37*58
$LOGTIM,1,-329.648486,0.000000,0.000000,0.000000,-63.351*31
EndT:        0
---00000059--- Acq_st=3 2019-5-24 06:22:36 
[00]  G01  f 43    853.6 2045998.9  1.0  1.0  5  0 454973932
[01]  G08  f 40   1697.5 2045997.8  1.0  1.0  5  0 454973922
[02]  G18  f 41   2288.7 2045997.0  1.0  1.0  5  0 454973928
[03]  G28  f 37  -2615.1 2046003.4  1.0  1.0  5  0 454973927
[16]  B14 1f 37   -580.4 4092001.5  1.0  1.0  5  0 454959914
lsq: nits= 4
$GNGGA,062237.000,3112.7194,N,12136.4325,E,1,04,5.6,38.0,M,,,,0000*22
$GNRMC,062237.000,A,3112.7194,N,12136.4325,E,0.03,0.00,240519,,*1A
$GPGSA,A,3,01,08,18,28,,,,,,,,,7.0,5.6,4.3*3B
$BDGSA,A,3,,,,,,,,,,,,,7.0,5.6,4.3*20
$GPGSV,1,1,04,01,72,036,43,08,25,066,40,18,43,041,41,28,47,324,37*76
$BDGSV,1,1,01,14,00,000,37*58
$LOGTIM,1,-391.830018,0.000000,0.000000,0.000000,-63.018*3E
EndT:        0
ch17 satid=63,max_freq = 1250,max_mean = 5109,max_phase = 1386,max_value = 83133,acq ok1!
acq ok1 timeH = 0,timeL = 1126761589,freq_stage = 2
---00000060--- Acq_st=3 2019-5-24 06:22:37 
[00]  G01  f 43    853.1 2045998.9  1.0  1.0  5  0 454974932
[01]  G08  f 40   1696.4 2045997.8  1.0  1.0  5  0 454974922
[02]  G18  f 41   2287.7 2045997.0  1.0  1.0  5  0 454974928
[03]  G28  f 38  -2616.5 2046003.4  1.0  0.9  5  0 454974927
[16]  B14 1f 38   -581.1 4092001.5  1.0  1.0  5  0 454960914
[17]  B27  1  7  -1236.1 4092002.8 -0.0  0.0  1  0      3109
lsq: nits= 4
$GNGGA,062238.000,3112.7194,N,12136.4326,E,1,04,5.6,39.1,M,,,,0000*2E
$GNRMC,062238.000,A,3112.7194,N,12136.4326,E,0.19,0.00,240519,,*1D
$GPGSA,A,3,01,08,18,28,,,,,,,,,7.0,5.6,4.3*3B
$BDGSA,A,3,,,,,,,,,,,,,7.0,5.6,4.3*20
$GPGSV,1,1,04,01,72,036,43,08,25,066,40,18,43,041,41,28,47,324,38*79
$BDGSV,1,1,01,14,00,000,38*57
$LOGTIM,1,-454.045198,0.000000,0.000000,0.000000,-63.025*3D
EndT:        0
---00000061--- Acq_st=3 2019-5-24 06:22:38 
[00]  G01  f 43    855.8 2045998.8  1.0  1.0  5  0 454975932
[01]  G08  f 40   1698.5 2045997.8  1.0  1.0  5  0 454975922
[02]  G18  f 41   2290.4 2045997.0  1.0  1.0  5  0 454975928
[03]  G28  f 37  -2613.6 2046003.4  1.0  0.9  5  0 454975927
[16]  B14 1f 38   -579.3 4092001.5  1.0  1.0  5  0 454961914
[17]  B27  1  7  -1343.0 4092003.2  0.0  0.0  1  0       525
ch18 satid=64,max_freq = 0,max_mean = 5095,max_phase = 384,max_value = 36292,acq ok1!
acq ok1 timeH = 0,timeL = 1159580298,freq_stage = 3
lsq: nits= 4
$GNGGA,062239.000,3112.7199,N,12136.4329,E,1,04,5.6,41.1,M,,,,0000*22
$GNRMC,062239.000,A,3112.7199,N,12136.4329,E,0.03,0.00,240519,,*15
$GPGSA,A,3,01,08,18,28,,,,,,,,,7.0,5.6,4.3*3B
$BDGSA,A,3,,,,,,,,,,,,,7.0,5.6,4.3*20
$GPGSV,1,1,04,01,72,036,43,08,25,066,40,18,43,041,41,28,47,324,37*76
$BDGSV,1,1,01,14,00,000,38*57
$LOGTIM,1,-515.269860,0.000000,0.000000,0.000000,-62.599*38
EndT:        0
---00000062--- Acq_st=3 2019-5-24 06:22:39 
[00]  G01  f 43    861.1 2045998.9  1.0  1.0  5  0 454976932
[01]  G08  f 40   1703.7 2045997.8  1.0  0.9  5  0 454976922
[02]  G18  f 41   2295.6 2045997.1  1.0  1.0  5  0 454976928
[03]  G28  f 38  -2608.4 2046003.3  1.0  1.0  5  0 454976927
[16]  B14 1f 38   -573.7 4092001.5  1.0  1.0  5  0 454962914
[17]  B27  1  7  -1201.2 4092003.0  0.0  0.0  1  0      1525
[18]  B28  1  7     25.0 4091999.8 -0.0  0.0  1  0        99
lsq: nits= 4
$GNGGA,062240.000,3112.7203,N,12136.4337,E,1,04,5.6,44.0,M,,,,0000*27
$GNRMC,062240.000,A,3112.7203,N,12136.4337,E,0.34,0.00,240519,,*10
$GPGSA,A,3,01,08,18,28,,,,,,,,,7.0,5.6,4.3*3B
$BDGSA,A,3,,,,,,,,,,,,,7.0,5.6,4.3*20
$GPGSV,1,1,04,01,72,036,43,08,25,066,40,18,43,041,41,28,47,324,38*79
$BDGSV,1,1,01,14,00,000,38*57
$LOGTIM,1,-575.134901,0.000000,0.000000,0.000000,-61.940*38
EndT:        0
---00000063--- Acq_st=3 2019-5-24 06:22:40 
[00]  G01  f 42    861.9 2045998.9  1.0  1.0  5  0 454977932
[01]  G08  f 40   1703.8 2045997.8  1.0  1.0  5  0 454977922
[02]  G18  f 41   2295.8 2045997.0  1.0  1.0  5  0 454977928
[03]  G28  f 38  -2608.9 2046003.4  1.0  1.0  5  0 454977927
[16]  B14 1f 37   -573.3 4092001.5  1.0  1.0  5  0 454963914
[17]  B27  1  7  -1060.3 4092003.4  0.0  0.0  1  0      2525
[18]  B28  1  7    -65.6 4092000.2 -0.1  0.0  1  0      1099
lsq: nits= 4
$GNGGA,062241.000,3112.7200,N,12136.4339,E,1,04,5.6,46.6,M,,,,0000*2F
$GNRMC,062241.000,A,3112.7200,N,12136.4339,E,0.45,0.00,240519,,*1A
$GPGSA,A,3,01,08,18,28,,,,,,,,,7.0,5.6,4.3*3B
$BDGSA,A,3,,,,,,,,,,,,,7.0,5.6,4.3*20
$GPGSV,1,1,04,01,72,036,42,08,25,066,40,18,43,041,41,28,47,324,38*78
$BDGSV,1,1,01,14,00,000,37*58
$LOGTIM,1,-635.926200,0.000000,0.000000,0.000000,-61.819*33
EndT:        0
---00000064--- Acq_st=3 2019-5-24 06:22:41 
[00]  G01  f 43    858.8 2045998.9  1.0  1.0  5  0 454978932
[01]  G08  f 40   1699.9 2045997.8  1.0  1.0  5  0 454978922
[02]  G18  f 41   2292.5 2045997.0  1.0  1.0  5  0 454978928
[03]  G28  f 38  -2612.2 2046003.4  1.0  1.0  5  0 454978927
[16]  B14 1f 38   -576.2 4092001.5  1.0  1.0  5  0 454964914
[18]  B28  1  7    104.3 4091999.7 -0.2  0.0  1  0      2099
lsq: nits= 4
$GNGGA,062242.000,3112.7202,N,12136.4338,E,1,04,5.6,50.8,M,,,,0000*26
$GNRMC,062242.000,A,3112.7202,N,12136.4338,E,0.33,0.00,240519,,*1B
$GPGSA,A,3,01,08,18,28,,,,,,,,,7.0,5.6,4.3*3B
$BDGSA,A,3,,,,,,,,,,,,,7.0,5.6,4.3*20
$GPGSV,1,1,04,01,71,036,43,08,25,066,40,18,43,041,41,28,47,324,38*7A
$BDGSV,1,1,01,14,00,000,38*57
$LOGTIM,1,-695.634050,0.000000,0.000000,0.000000,-61.995*37
EndT:        0
---00000065--- Acq_st=3 2019-5-24 06:22:42 
[00]  G01  f 43    860.7 2045998.9  1.0  1.0  5  0 454979932
[01]  G08  f 40   1700.7 2045997.8  1.0  1.0  5  0 454979922
[02]  G18  f 41   2294.4 2045997.0  1.0  1.0  5  0 454979928
[03]  G28  f 38  -2609.9 2046003.4  1.0  1.0  5  0 454979927
[16]  B14 1f 38   -574.4 4092001.5  1.0  1.0  5  0 454965914
lsq: nits= 4
$GNGGA,062243.000,3112.7186,N,12136.4337,E,1,04,5.6,52.7,M,,,,0000*2A
$GNRMC,062243.000,A,3112.7186,N,12136.4337,E,0.55,0.00,240519,,*1A
$GPGSA,A,3,01,08,18,28,,,,,,,,,7.0,5.6,4.3*3B
$BDGSA,A,3,,,,,,,,,,,,,7.0,5.6,4.3*20
$GPGSV,1,1,04,01,71,036,43,08,25,066,40,18,43,041,41,28,47,324,38*7A
$BDGSV,1,1,01,14,00,000,38*57
$LOGTIM,1,-758.849130,0.000000,0.000000,0.000000,-62.081*3B
EndT:        0
---00000066--- Acq_st=3 2019-5-24 06:22:43 
[00]  G01  f 42    858.2 2045998.9  1.0  1.0  5  0 454980932
[01]  G08  f 40   1698.2 2045997.8  1.0  1.0  5  0 454980922
[02]  G18  f 41   2291.6 2045997.0  1.0  1.0  5  0 454980928
[03]  G28  f 38  -2613.1 2046003.4  1.0  1.0  5  0 454980927
[16]  B14 1f 38   -577.1 4092001.5  1.0  1.0  5  0 454966914
lsq: nits= 4
$GNGGA,062244.000,3112.7169,N,12136.4335,E,1,04,5.6,53.5,M,,,,0000*2D
$GNRMC,062244.000,A,3112.7169,N,12136.4335,E,0.67,0.00,240519,,*1F
$GPGSA,A,3,01,08,18,28,,,,,,,,,7.0,5.6,4.3*3B
$BDGSA,A,3,,,,,,,,,,,,,7.0,5.6,4.3*20
$GPGSV,1,1,04,01,71,036,42,08,25,066,40,18,43,041,41,28,47,324,38*7B
$BDGSV,1,1,01,14,00,000,38*57
$LOGTIM,1,-822.942480,0.000000,0.000000,0.000000,-62.567*30
EndT:        0
---00000067--- Acq_st=7 2019-5-24 06:22:44 
[00]  G01  f 43    857.5 2045998.9  1.0  1.0  5  0 454981932
[01]  G08  f 40   1697.2 2045997.8  1.0  1.0  5  0 454981922
[02]  G18  f 42   2290.9 2045997.0  1.0  1.0  5  0 454981928
[03]  G28  f 38  -2614.2 2046003.3  1.0  1.0  5  0 454981927
[16]  B14 1f 38   -578.1 4092001.5  1.0  1.0  5  0 454967914
lsq: nits= 4
$GNGGA,062245.000,3112.7142,N,12136.4330,E,1,05,5.6,53.3,M,,,,0000*27
$GNRMC,062245.000,A,3112.7142,N,12136.4330,E,1.26,0.00,240519,,*16
$GPGSA,A,3,01,08,18,28,,,,,,,,,7.0,5.6,4.3*3B
$BDGSA,A,3,14,,,,,,,,,,,,7.0,5.6,4.3*25
$GPGSV,1,1,04,01,71,036,43,08,25,066,40,18,43,041,42,28,47,324,38*79
$BDGSV,1,1,01,14,00,000,38*57
$LOGTIM,3,-888.502261,-1039.268743,0.000000,0.000000,-62.782*20
EndT:        0
---00000068--- Acq_st=3 2019-5-24 06:22:45 
[00]  G01  f 43    860.7 2045998.9  1.0  1.0  5  0 454982932
[01]  G08  f 40   1699.7 2045997.8  1.0  1.0  5  0 454982922
[02]  G18  f 42   2294.0 2045997.0  1.0  1.0  5  0 454982928
[03]  G28  f 39  -2611.9 2046003.3  1.0  1.0  5  0 454982927
[16]  B14 1f 38   -574.4 4092001.5  1.0  1.0  5  0 454968914
lsq: nits= 2
$GNGGA,062246.000,3112.7137,N,12136.4330,E,1,05,2.7,53.3,M,,,,0000*20
$GNRMC,062246.000,A,3112.7137,N,12136.4330,E,1.27,0.00,240519,,*16
$GPGSA,A,3,01,08,18,28,,,,,,,,,3.7,2.7,2.5*3E
$BDGSA,A,3,14,,,,,,,,,,,,3.7,2.7,2.5*20
$GPGSV,1,1,04,01,71,036,43,08,25,066,40,18,43,041,42,28,47,324,39*78
$BDGSV,1,1,01,14,13,065,38*56
$LOGTIM,3,-951.650340,-1102.172845,0.000000,0.000000,-62.667*21
EndT:        0
---00000069--- Acq_st=3 2019-5-24 06:22:46 
[00]  G01  f 43    863.2 2045998.9  1.0  1.0  5  0 454983932
[01]  G08  f 40   1701.9 2045997.8  1.0  1.0  5  0 454983922
[02]  G18  f 42   2296.5 2045997.0  1.0  1.0  5  0 454983928
[03]  G28  f 38  -2609.1 2046003.4  1.0  1.0  5  0 454983927
[16]  B14 1f 38   -571.5 4092001.5  1.0  1.0  5  0 454969914
lsq: nits= 2
$GNGGA,062247.000,3112.7133,N,12136.4329,E,1,05,2.7,53.2,M,,,,0000*2C
$GNRMC,062247.000,A,3112.7133,N,12136.4329,E,1.19,0.00,240519,,*16
$GPGSA,A,3,01,08,18,28,,,,,,,,,3.7,2.7,2.5*3E
$BDGSA,A,3,14,,,,,,,,,,,,3.7,2.7,2.5*20
$GPGSV,1,1,04,01,71,036,43,08,25,066,40,18,43,041,42,28,47,324,38*79
$BDGSV,1,1,01,14,13,065,38*56
$LOGTIM,3,-1014.428690,-1164.617824,0.000000,0.000000,-62.545*1D
EndT:        0
---00000070--- Acq_st=3 2019-5-24 06:22:47 
[00]  G01  f 43    860.1 2045998.9  1.0  1.0  5  0 454984932
[01]  G08  f 40   1698.1 2045997.8  1.0  1.0  5  0 454984922
[02]  G18  f 41   2292.5 2045997.0  1.0  1.0  5  0 454984928
[03]  G28  f 38  -2613.2 2046003.4  1.0  1.0  5  0 454984927
[16]  B14 1f 38   -575.3 4092001.5  1.0  1.0  5  0 454970914
lsq: nits= 2
$GNGGA,062248.000,3112.7124,N,12136.4330,E,1,05,2.7,52.2,M,,,,0000*2C
$GNRMC,062248.000,A,3112.7124,N,12136.4330,E,1.08,0.00,240519,,*17
$GPGSA,A,3,01,08,18,28,,,,,,,,,3.7,2.7,2.5*3E
$BDGSA,A,3,14,,,,,,,,,,,,3.7,2.7,2.5*20
$GPGSV,1,1,04,01,71,036,43,08,25,066,40,18,43,041,41,28,47,324,38*7A
$BDGSV,1,1,01,14,13,065,38*56
$LOGTIM,3,-1078.863439,-1232.193730,0.000000,0.000000,-62.986*17
EndT:        0
---00000071--- Acq_st=3 2019-5-24 06:22:48 
[00]  G01  f 43    858.3 2045998.9  1.0  1.0  5  0 454985932
[01]  G08  f 40   1695.7 2045997.8  1.0  1.0  5  0 454985922
[02]  G18  f 42   2291.0 2045997.0  1.0  1.0  5  0 454985928
[03]  G28  f 39  -2615.2 2046003.4  1.0  1.0  5  0 454985927
[16]  B14 1f 37   -577.6 4092001.5  1.0  1.0  5  0 454971914
lsq: nits= 2
$GNGGA,062249.000,3112.7121,N,12136.4328,E,1,05,2.7,52.1,M,,,,0000*22
$GNRMC,062249.000,A,3112.7121,N,12136.4328,E,0.69,0.00,240519,,*1C
$GPGSA,A,3,01,08,18,28,,,,,,,,,3.7,2.7,2.5*3E
$BDGSA,A,3,14,,,,,,,,,,,,3.7,2.7,2.5*20
$GPGSV,1,1,04,01,71,036,43,08,25,066,40,18,43,041,42,28,47,324,39*78
$BDGSV,1,1,01,14,13,065,37*59
$LOGTIM,3,-1142.710134,-1295.684792,0.000000,0.000000,-63.420*18
EndT:        0
---00000072--- Acq_st=3 2019-5-24 06:22:49 
[00]  G01  f 43    854.0 2045998.9  1.0  1.0  5  0 454986932
[01]  G08  f 40   1690.6 2045997.8  1.0  1.0  5  0 454986922
[02]  G18  f 42   2286.2 2045997.0  1.0  1.0  5  0 454986928
[03]  G28  f 38  -2620.3 2046003.4  1.0  1.0  5  0 454986927
[16]  B14 1f 37   -582.1 4092001.6  1.0  1.0  5  0 454972914
lsq: nits= 2
$GNGGA,062250.000,3112.7116,N,12136.4326,E,1,05,2.7,52.0,M,,,,0000*21
$GNRMC,062250.000,A,3112.7116,N,12136.4326,E,0.55,0.00,240519,,*11
$GPGSA,A,3,01,08,18,28,,,,,,,,,3.7,2.7,2.5*3E
$BDGSA,A,3,14,,,,,,,,,,,,3.7,2.7,2.5*20
$GPGSV,1,1,04,01,71,036,43,08,25,066,40,18,43,041,42,28,47,324,38*79
$BDGSV,1,1,01,14,13,065,37*59
$LOGTIM,3,-1207.376206,-1360.098024,0.000000,0.000000,-63.885*15
EndT:        0
ch4 satid=10,max_freq = -1250,max_mean = 12999,max_phase = 1658,max_value = 70921,acq ok1!
acq ok1 timeH = 0,timeL = 1393943389,freq_stage = 4
---00000073--- Acq_st=3 2019-5-24 06:22:50 
[00]  G01  f 43    852.3 2045998.9  1.0  1.0  5  0 454987932
[01]  G08  f 40   1688.6 2045997.8  1.0  1.0  5  0 454987922
[02]  G18  f 42   2284.3 2045997.0  1.0  1.0  5  0 454987928
[03]  G28  f 39  -2621.8 2046003.4  1.0  1.0  5  0 454987927
[04]  G11  1  7   7012.9 2045999.1  0.0  0.0  1  0         0
[16]  B14 1f 38   -583.7 4092001.5  1.0  1.0  5  0 454973914
lsq: nits= 2
$GNGGA,062251.000,3112.7112,N,12136.4324,E,1,05,2.7,52.1,M,,,,0000*27
$GNRMC,062251.000,A,3112.7112,N,12136.4324,E,0.76,0.00,240519,,*17
$GPGSA,A,3,01,08,18,28,,,,,,,,,3.7,2.7,2.5*3E
$BDGSA,A,3,14,,,,,,,,,,,,3.7,2.7,2.5*20
$GPGSV,1,1,04,01,71,036,43,08,25,066,40,18,43,041,42,28,47,324,39*78
$BDGSV,1,1,01,14,13,065,38*56
$LOGTIM,3,-1272.285533,-1424.706307,0.000000,0.000000,-64.287*11
EndT:        0
---00000074--- Acq_st=3 2019-5-24 06:22:51 
[00]  G01  f 43    850.7 2045998.9  1.0  1.0  5  0 454988932
[01]  G08  f 40   1687.0 2045997.8  1.0  1.0  5  0 454988922
[02]  G18  f 42   2283.2 2045997.0  1.0  1.0  5  0 454988928
[03]  G28  f 38  -2624.0 2046003.4  1.0  1.0  5  0 454988927
[04]  G11  1 25   1246.5 2045998.2  0.0  0.0  1  0         0
[16]  B14 1f 38   -584.7 4092001.5  1.0  1.0  5  0 454974914
lsq: nits= 2
$GNGGA,062252.000,3112.7100,N,12136.4324,E,1,05,2.7,50.5,M,,,,0000*21
$GNRMC,062252.000,A,3112.7100,N,12136.4324,E,0.57,0.00,240519,,*14
$GPGSA,A,3,01,08,18,28,,,,,,,,,3.7,2.7,2.5*3E
$BDGSA,A,3,14,,,,,,,,,,,,3.7,2.7,2.5*20
$GPGSV,1,1,04,01,71,036,43,08,25,066,40,18,43,041,42,28,47,324,38*79
$BDGSV,1,1,01,14,13,065,38*56
$LOGTIM,3,-1339.352748,-1494.322862,0.000000,0.000000,-64.564*11
EndT:        0
---00000075--- Acq_st=3 2019-5-24 06:22:52 
[00]  G01  f 43    855.1 2045998.9  1.0  1.0  5  0 454989932
[01]  G08  f 41   1690.1 2045997.8  1.0  1.0  5  0 454989922
[02]  G18  f 42   2286.7 2045997.0  1.0  1.0  5  0 454989928
[03]  G28  f 38  -2620.3 2046003.4  1.0  1.0  5  0 454989927
[04]  G11  7 29   1226.8 2045998.3  0.2  0.8  5  0        10
[16]  B14 1f 38   -581.1 4092001.4  1.0  1.0  5  0 454975914
lsq: nits= 2
$GNGGA,062253.000,3112.7093,N,12136.4324,E,1,05,2.7,50.0,M,,,,0000*2E
$GNRMC,062253.000,A,3112.7093,N,12136.4324,E,0.36,0.00,240519,,*19
$GPGSA,A,3,01,08,18,28,,,,,,,,,3.7,2.7,2.5*3E
$BDGSA,A,3,14,,,,,,,,,,,,3.7,2.7,2.5*20
$GPGSV,2,1,05,01,71,036,43,08,25,066,41,18,43,041,42,28,47,324,38*7A
$GPGSV,2,2,05,11,00,000,29*47
$BDGSV,1,1,01,14,13,065,38*56
$LOGTIM,3,-1404.768508,-1559.293668,0.000000,0.000000,-64.399*18
EndT:        0
---00000076--- Acq_st=3 2019-5-24 06:22:53 
[00]  G01  f 44    853.2 2045998.9  1.0  1.0  5  0 454990932
[01]  G08  f 41   1687.9 2045997.8  1.0  1.0  5  0 454990922
[02]  G18  f 41   2284.7 2045997.0  1.0  1.0  5  0 454990928
[03]  G28  f 38  -2622.5 2046003.4  1.0  1.0  5  0 454990927
[04]  G11  7 33   1223.7 2045998.4  0.9  0.9  5  0        10
[16]  B14 1f 38   -583.1 4092001.5  1.0  1.0  5  0 454976914
lsq: nits= 2
$GNGGA,062254.000,3112.7085,N,12136.4322,E,1,05,2.7,49.3,M,,,,0000*23
$GNRMC,062254.000,A,3112.7085,N,12136.4322,E,0.51,0.00,240519,,*1E
$GPGSA,A,3,01,08,18,28,,,,,,,,,3.7,2.7,2.5*3E
$BDGSA,A,3,14,,,,,,,,,,,,3.7,2.7,2.5*20
$GPGSV,2,1,05,01,71,036,44,08,25,066,41,18,43,041,41,28,47,324,38*7E
$GPGSV,2,2,05,11,00,000,33*4C
$BDGSV,1,1,01,14,13,065,38*56
$LOGTIM,3,-1470.707501,-1624.829927,0.000000,0.000000,-64.814*13
EndT:        0
---00000077--- Acq_st=3 2019-5-24 06:22:54 
[00]  G01  f 43    852.5 2045998.9  1.0  1.0  5  0 454991932
[01]  G08  f 40   1686.6 2045997.8  1.0  1.0  5  0 454991922
[02]  G18  f 42   2283.8 2045997.0  1.0  1.0  5  0 454991928
[03]  G28  f 38  -2623.2 2046003.4  1.0  1.0  5  0 454991927
[04]  G11  7 34   1222.8 2045998.4  1.0  0.9  5  0        10
[16]  B14 1f 38   -584.2 4092001.6  1.0  1.0  5  0 454977914
lsq: nits= 2
$GNGGA,062255.000,3112.7084,N,12136.4321,E,1,05,2.7,49.1,M,,,,0000*22
$GNRMC,062255.000,A,3112.7084,N,12136.4321,E,0.31,0.00,240519,,*1B
$GPGSA,A,3,01,08,18,28,,,,,,,,,3.7,2.7,2.5*3E
$BDGSA,A,3,14,,,,,,,,,,,,3.7,2.7,2.5*20
$GPGSV,2,1,05,01,71,036,43,08,25,066,40,18,43,041,42,28,47,324,38*7B
$GPGSV,2,2,05,11,00,000,34*4B
$BDGSV,1,1,01,14,13,065,38*56
$LOGTIM,3,-1535.740905,-1689.572226,0.000000,0.000000,-64.730*1F
EndT:        0
---00000078--- Acq_st=3 2019-5-24 06:22:55 
[00]  G01  f 43    853.3 2045998.9  1.0  1.0  5  0 454992932
[01]  G08  f 40   1687.4 2045997.8  1.0  1.0  5  0 454992922
[02]  G18  f 41   2284.7 2045997.0  1.0  1.0  5  0 454992928
[03]  G28  f 39  -2622.0 2046003.4  1.0  1.0  5  0 454992927
[04]  G11  f 34   1223.7 2045998.3  1.0  0.9  5  0        10
[16]  B14 1f 38   -582.9 4092001.6  1.0  1.0  5  0 454978914
lsq: nits= 2
$GNGGA,062256.000,3112.7083,N,12136.4322,E,1,05,2.7,48.8,M,,,,0000*2D
$GNRMC,062256.000,A,3112.7083,N,12136.4322,E,0.34,0.00,240519,,*19
$GPGSA,A,3,01,08,18,28,,,,,,,,,3.7,2.7,2.5*3E
$BDGSA,A,3,14,,,,,,,,,,,,3.7,2.7,2.5*20
$GPGSV,2,1,05,01,71,036,43,08,25,066,40,18,43,041,41,28,47,324,39*79
$GPGSV,2,2,05,11,00,000,34*4B
$BDGSV,1,1,01,14,13,065,38*56
$LOGTIM,3,-1600.895158,-1754.417255,0.000000,0.000000,-64.806*10
EndT:        0
---00000079--- Acq_st=3 2019-5-24 06:22:56 
[00]  G01  f 44    857.0 2045998.9  1.0  1.0  5  0 454993932
[01]  G08  f 41   1690.7 2045997.8  1.0  1.0  5  0 454993922
[02]  G18  f 41   2287.9 2045997.0  1.0  1.0  5  0 454993928
[03]  G28  f 39  -2619.0 2046003.4  1.0  1.0  5  0 454993927
[04]  G11  f 33   1227.3 2045998.6  1.0  1.0  5  0 454993930
[16]  B14 1f 38   -578.4 4092001.6  1.0  1.0  5  0 454979914
lsq: nits= 2
$GNGGA,062257.000,3112.7080,N,12136.4326,E,1,05,2.7,47.6,M,,,,0000*2A
$GNRMC,062257.000,A,3112.7080,N,12136.4326,E,0.27,0.00,240519,,*1D
$GPGSA,A,3,01,08,18,28,,,,,,,,,3.7,2.7,2.5*3E
$BDGSA,A,3,14,,,,,,,,,,,,3.7,2.7,2.5*20
$GPGSV,2,1,05,01,71,036,44,08,25,066,41,18,43,041,41,28,47,324,39*7F
$GPGSV,2,2,05,11,00,000,33*4C
$BDGSV,1,1,01,14,13,065,38*56
$LOGTIM,3,-1666.454433,-1822.003002,0.000000,0.000000,-64.554*1C
EndT:        0
---00000080--- Acq_st=3 2019-5-24 06:22:57 
[00]  G01  f 44    859.2 2045998.9  1.0  1.0  5  0 454994932
[01]  G08  f 40   1691.9 2045997.8  1.0  1.0  5  0 454994922
[02]  G18  f 41   2289.7 2045997.0  1.0  1.0  5  0 454994928
[03]  G28  f 39  -2618.1 2046003.4  1.0  1.0  5  0 454994927
[04]  G11  f 33   1228.8 2045998.6  1.0  1.0  5  0 454994930
[16]  B14 1f 38   -577.6 4092001.5  1.0  1.0  5  0 454980914
lsq: nits= 2
$GNGGA,062258.000,3112.7079,N,12136.4328,E,1,05,2.7,47.2,M,,,,0000*29
$GNRMC,062258.000,A,3112.7079,N,12136.4328,E,0.48,0.00,240519,,*13
$GPGSA,A,3,01,08,18,28,,,,,,,,,3.7,2.7,2.5*3E
$BDGSA,A,3,14,,,,,,,,,,,,3.7,2.7,2.5*20
$GPGSV,2,1,05,01,71,036,44,08,25,066,40,18,43,041,41,28,47,324,39*7E
$GPGSV,2,2,05,11,00,000,33*4C
$BDGSV,1,1,01,14,13,065,38*56
$LOGTIM,3,-1730.744688,-1885.997446,0.000000,0.000000,-64.310*15
EndT:        0
---00000081--- Acq_st=3 2019-5-24 06:22:58 
[00]  G01  f 44    862.5 2045998.8  1.0  1.0  5  0 454995932
[01]  G08  f 40   1694.9 2045997.8  1.0  1.0  5  0 454995922
[02]  G18  f 41   2293.1 2045997.0  1.0  1.0  5  0 454995928
[03]  G28  f 39  -2615.1 2046003.3  1.0  1.0  5  0 454995927
[04]  G11  f 33   1233.4 2045998.4  0.9  0.9  5  0 454995930
[16]  B14 1f 37   -573.6 4092001.5  1.0  1.0  5  0 454981914
lsq: nits= 2
$GNGGA,062259.000,3112.7082,N,12136.4329,E,1,05,2.7,46.9,M,,,,0000*27
$GNRMC,062259.000,A,3112.7082,N,12136.4329,E,0.61,0.00,240519,,*1C
$GPGSA,A,3,01,08,18,28,,,,,,,,,3.7,2.7,2.5*3E
$BDGSA,A,3,14,,,,,,,,,,,,3.7,2.7,2.5*20
$GPGSV,2,1,05,01,71,036,44,08,25,066,40,18,43,041,41,28,47,324,39*7E
$GPGSV,2,2,05,11,00,000,33*4C
$BDGSV,1,1,01,14,13,065,37*59
$LOGTIM,3,-1794.163560,-1949.155961,0.000000,0.000000,-64.017*16
EndT:        0
---00000082--- Acq_st=3 2019-5-24 06:22:59 
[00]  G01  f 44    861.6 2045998.9  1.0  1.0  5  0 454996932
[01]  G08  f 40   1693.7 2045997.8  1.0  1.0  5  0 454996922
[02]  G18  f 41   2291.9 2045997.0  1.0  1.0  5  0 454996928
[03]  G28  f 39  -2615.8 2046003.4  1.0  1.0  5  0 454996927
[04]  G11  f 34   1230.8 2045998.5  1.0  1.0  5  0 454996930
[16]  B14 1f 37   -575.5 4092001.5  1.0  1.0  5  0 454982914
lsq: nits= 2
$GNGGA,062300.000,3112.7084,N,12136.4329,E,1,05,2.7,46.3,M,,,,0000*26
$GNRMC,062300.000,A,3112.7084,N,12136.4329,E,0.18,0.00,240519,,*19
$GPGSA,A,3,01,08,18,28,,,,,,,,,3.7,2.7,2.5*3E
$BDGSA,A,3,14,,,,,,,,,,,,3.7,2.7,2.5*20
$GPGSV,2,1,05,01,71,036,44,08,25,066,40,18,43,041,41,28,47,324,39*7E
$GPGSV,2,2,05,11,00,000,34*4B
$BDGSV,1,1,01,14,13,065,37*59
$LOGTIM,3,-1858.134784,-2012.842803,0.000000,0.000000,-64.264*1B
EndT:        1
---00000083--- Acq_st=3 2019-5-24 06:23:0 
[00]  G01  f 44    862.3 2045998.9  1.0  1.0  5  0 454997932
[01]  G08  f 40   1693.2 2045997.9  1.0  1.0  5  0 454997922
[02]  G18  f 40   2292.6 2045997.0  1.0  1.0  5  0 454997928
[03]  G28  f 39  -2616.6 2046003.4  1.0  1.0  5  0 454997927
[04]  G11  f 33   1230.8 2045998.4  0.9  1.0  5  0 454997930
[16]  B14 1f 38   -574.5 4092001.5  1.0  1.0  5  0 454983914
lsq: nits= 2
$GNGGA,062301.000,3112.7083,N,12136.4332,E,1,05,2.7,45.0,M,,,,0000*2A
$GNRMC,062301.000,A,3112.7083,N,12136.4332,E,0.67,0.00,240519,,*1D
$GPGSA,A,3,01,08,18,28,,,,,,,,,3.7,2.7,2.5*3E
$BDGSA,A,3,14,,,,,,,,,,,,3.7,2.7,2.5*20
$GPGSV,2,1,05,01,71,036,44,08,25,066,40,18,43,041,40,28,47,324,39*7F
$GPGSV,2,2,05,11,00,000,33*4C
$BDGSV,1,1,01,14,13,065,38*56
$LOGTIM,3,-1922.498702,-2079.015652,0.000000,0.000000,-63.866*18
EndT:        1
---00000084--- Acq_st=3 2019-5-24 06:23:1 
[00]  G01  f 45    869.3 2045998.8  1.0  1.0  5  0 454998932
[01]  G08  f 40   1699.5 2045997.8  1.0  1.0  5  0 454998922
[02]  G18  f 41   2299.3 2045997.0  1.0  1.0  5  0 454998928
[03]  G28  f 39  -2609.4 2046003.4  1.0  1.0  5  0 454998927
[04]  G11  f 34   1238.4 2045998.3  1.0  0.9  5  0 454998930
[16]  B14 1f 38   -568.5 4092001.5  1.0  1.0  5  0 454984914
lsq: nits= 2
$GNGGA,062302.000,3112.7089,N,12136.4333,E,1,05,2.7,44.4,M,,,,0000*27
$GNRMC,062302.000,A,3112.7089,N,12136.4333,E,0.86,0.00,240519,,*1A
$GPGSA,A,3,01,08,18,28,,,,,,,,,3.7,2.7,2.5*3E
$BDGSA,A,3,14,,,,,,,,,,,,3.7,2.7,2.5*20
$GPGSV,2,1,05,01,71,036,45,08,25,066,40,18,43,041,41,28,47,324,39*7F
$GPGSV,2,2,05,11,00,000,34*4B
$BDGSV,1,1,01,14,13,065,38*56
$LOGTIM,3,-1985.157444,-2141.363561,0.000000,0.000000,-63.505*11
EndT:        1
---00000085--- Acq_st=3 2019-5-24 06:23:2 
[00]  G01  f 45    867.0 2045998.9  1.0  1.0  5  0 454999932
[01]  G08  f 40   1696.9 2045997.8  1.0  1.0  5  0 454999922
[02]  G18  f 41   2296.9 2045997.0  1.0  1.0  5  0 454999928
[03]  G28  f 39  -2612.0 2046003.4  1.0  1.0  5  0 454999927
[04]  G11  f 32   1234.1 2045998.2  0.9  0.9  5  0 454999930
[16]  B14 1f 38   -570.0 4092001.5  1.0  1.0  5  0 454985914
lsq: nits= 2
$GNGGA,062303.000,3112.7095,N,12136.4335,E,1,05,2.7,44.1,M,,,,0000*28
$GNRMC,062303.000,A,3112.7095,N,12136.4335,E,0.49,0.00,240519,,*13
$GPGSA,A,3,01,08,18,28,,,,,,,,,3.7,2.7,2.5*3E
$BDGSA,A,3,14,,,,,,,,,,,,3.7,2.7,2.5*20
$GPGSV,2,1,05,01,71,036,45,08,25,066,40,18,43,041,41,28,47,324,39*7F
$GPGSV,2,2,05,11,00,000,32*4D
$BDGSV,1,1,01,14,13,065,38*56
$LOGTIM,3,-2047.559241,-2203.473387,0.000000,0.000000,-63.552*13
EndT:        1
---00000086--- Acq_st=3 2019-5-24 06:23:3 
[00]  G01  f 45    870.0 2045998.9  1.0  1.0  5  0 455000932
[01]  G08  f 40   1699.4 2045997.9  1.0  1.0  5  0 455000922
