FlashID=0x1 0x20 0x18
BBram_blkflag1: 4381: bc7e
FW Ver: 1.30  
GPS00 Init Dop:   5000, 40
GPS01 Init Dop:   5000, 40
GPS02 Init Dop:   5000, 40
GPS03 Init Dop:   5000, 40
GPS04 Init Dop:   5000, 40
GPS05 Init Dop:   5000, 40
GPS06 Init Dop:   5000, 40
GPS07 Init Dop:   5000, 40
GPS08 Init Dop:   5000, 40
GPS09 Init Dop:   5000, 40
GPS10 Init Dop:   5000, 40
GPS11 Init Dop:   5000, 40
GPS12 Init Dop:   5000, 40
GPS13 Init Dop:   5000, 40
GPS14 Init Dop:   5000, 40
GPS15 Init Dop:   5000, 40
GPS16 Init Dop:   5000, 40
GPS17 Init Dop:   5000, 40
GPS18 Init Dop:   5000, 40
GPS19 Init Dop:   5000, 40
GPS20 Init Dop:   5000, 40
GPS21 Init Dop:   5000, 40
GPS22 Init Dop:   5000, 40
GPS23 Init Dop:   5000, 40
GPS24 Init Dop:   5000, 40
GPS25 Init Dop:   5000, 40
GPS26 Init Dop:   5000, 40
GPS27 Init Dop:   5000, 40
GPS28 Init Dop:   5000, 40
GPS29 Init Dop:   5000, 40
GPS30 Init Dop:   5000, 40
GPS31 Init Dop:   5000, 40
BDS00 Init Dop:   5000, 40
BDS01 Init Dop:   5000, 40
BDS02 Init Dop:   5000, 40
BDS03 Init Dop:   5000, 40
BDS04 Init Dop:   5000, 40
BDS05 Init Dop:   5000, 40
BDS06 Init Dop:   5000, 40
BDS07 Init Dop:   5000, 40
BDS08 Init Dop:   5000, 40
BDS09 Init Dop:   5000, 40
BDS10 Init Dop:   5000, 40
BDS11 Init Dop:   5000, 40
BDS12 Init Dop:   5000, 40
BDS13 Init Dop:   5000, 40
BDS14 Init Dop:   5000, 40
BDS15 Init Dop:   5000, 40
BDS16 Init Dop:   5000, 40
BDS17 Init Dop:   5000, 40
BDS18 Init Dop:   5000, 40
BDS19 Init Dop:   5000, 40
BDS20 Init Dop:   5000, 40
BDS21 Init Dop:   5000, 40
BDS22 Init Dop:   5000, 40
BDS23 Init Dop:   5000, 40
BDS24 Init Dop:   5000, 40
BDS25 Init Dop:   5000, 40
BDS26 Init Dop:   5000, 40
BDS27 Init Dop:   5000, 40
BDS28 Init Dop:   5000, 40
BDS29 Init Dop:   5000, 40
BDS30 Init Dop:   5000, 40
BDS31 Init Dop:   5000, 40
---00000001--- Acq_st=3 2019-5-25 07:13:11 
$GNGGA,000000.000,,,,,0,00,,,M,,,,0000*2B
$GNRMC,000000.000,A,,,,,,,000000,,*26
$GPGSA,A,1,,,,,,,,,,,,,,,*1E
$BDGSA,A,1,,,,,,,,,,,,,,,*0F
$LOGTIM,0,0.000000,0.000000,0.000000,0.000000,0.000*0A
EndT:        0
---00000002--- Acq_st=3 2019-5-25 07:13:12 
$GNGGA,000000.000,,,,,0,00,,,M,,,,0000*2B
$GNRMC,000000.000,A,,,,,,,000000,,*26
$GPGSA,A,1,,,,,,,,,,,,,,,*1E
$BDGSA,A,1,,,,,,,,,,,,,,,*0F
$LOGTIM,0,0.000000,0.000000,0.000000,0.000000,0.000*0A
EndT:        0
---00000003--- Acq_st=3 2019-5-25 07:13:13 
$GNGGA,000000.000,,,,,0,00,,,M,,,,0000*2B
$GNRMC,000000.000,A,,,,,,,000000,,*26
$GPGSA,A,1,,,,,,,,,,,,,,,*1E
$BDGSA,A,1,,,,,,,,,,,,,,,*0F
$LOGTIM,0,0.000000,0.000000,0.000000,0.000000,0.000*0A
EndT:        0
---00000004--- Acq_st=3 2019-5-25 07:13:14 
$GNGGA,000000.000,,,,,0,00,,,M,,,,0000*2B
$GNRMC,000000.000,A,,,,,,,000000,,*26
$GPGSA,A,1,,,,,,,,,,,,,,,*1E
$BDGSA,A,1,,,,,,,,,,,,,,,*0F
$LOGTIM,0,0.000000,0.000000,0.000000,0.000000,0.000*0A
EndT:        0
---00000005--- Acq_st=3 2019-5-25 07:13:15 
$GNGGA,000000.000,,,,,0,00,,,M,,,,0000*2B
$GNRMC,000000.000,A,,,,,,,000000,,*26
$GPGSA,A,1,,,,,,,,,,,,,,,*1E
$BDGSA,A,1,,,,,,,,,,,,,,,*0F
$LOGTIM,0,0.000000,0.000000,0.000000,0.000000,0.000*0A
EndT:        0
---00000006--- Acq_st=3 2019-5-25 07:13:16 
$GNGGA,000000.000,,,,,0,00,,,M,,,,0000*2B
$GNRMC,000000.000,A,,,,,,,000000,,*26
$GPGSA,A,1,,,,,,,,,,,,,,,*1E
$BDGSA,A,1,,,,,,,,,,,,,,,*0F
$LOGTIM,0,0.000000,0.000000,0.000000,0.000000,0.000*0A
EndT:        0
---00000007--- Acq_st=3 2019-5-25 07:13:17 
$GNGGA,000000.000,,,,,0,00,,,M,,,,0000*2B
$GNRMC,000000.000,A,,,,,,,000000,,*26
$GPGSA,A,1,,,,,,,,,,,,,,,*1E
$BDGSA,A,1,,,,,,,,,,,,,,,*0F
$LOGTIM,0,0.000000,0.000000,0.000000,0.000000,0.000*0A
EndT:        0
---00000008--- Acq_st=3 2019-5-25 07:13:18 
$GNGGA,000000.000,,,,,0,00,,,M,,,,0000*2B
$GNRMC,000000.000,A,,,,,,,000000,,*26
$GPGSA,A,1,,,,,,,,,,,,,,,*1E
$BDGSA,A,1,,,,,,,,,,,,,,,*0F
$LOGTIM,0,0.000000,0.000000,0.000000,0.000000,0.000*0A
EndT:        0
---00000009--- Acq_st=3 2019-5-25 07:13:19 
$GNGGA,000000.000,,,,,0,00,,,M,,,,0000*2B
$GNRMC,000000.000,A,,,,,,,000000,,*26
$GPGSA,A,1,,,,,,,,,,,,,,,*1E
$BDGSA,A,1,,,,,,,,,,,,,,,*0F
$LOGTIM,0,0.000000,0.000000,0.000000,0.000000,0.000*0A
EndT:        0
---00000010--- Acq_st=3 2019-5-25 07:13:20 
$GNGGA,000000.000,,,,,0,00,,,M,,,,0000*2B
$GNRMC,000000.000,A,,,,,,,000000,,*26
$GPGSA,A,1,,,,,,,,,,,,,,,*1E
$BDGSA,A,1,,,,,,,,,,,,,,,*0F
$LOGTIM,0,0.000000,0.000000,0.000000,0.000000,0.000*0A
EndT:        0
---00000011--- Acq_st=3 2019-5-25 07:13:21 
$GNGGA,000000.000,,,,,0,00,,,M,,,,0000*2B
$GNRMC,000000.000,A,,,,,,,000000,,*26
$GPGSA,A,1,,,,,,,,,,,,,,,*1E
$BDGSA,A,1,,,,,,,,,,,,,,,*0F
$LOGTIM,0,0.000000,0.000000,0.000000,0.000000,0.000*0A
EndT:        0
---00000012--- Acq_st=3 2019-5-25 07:13:22 
$GNGGA,000000.000,,,,,0,00,,,M,,,,0000*2B
$GNRMC,000000.000,A,,,,,,,000000,,*26
$GPGSA,A,1,,,,,,,,,,,,,,,*1E
$BDGSA,A,1,,,,,,,,,,,,,,,*0F
$LOGTIM,0,0.000000,0.000000,0.000000,0.000000,0.000*0A
EndT:        0
---00000013--- Acq_st=3 2019-5-25 07:13:23 
$GNGGA,000000.000,,,,,0,00,,,M,,,,0000*2B
$GNRMC,000000.000,A,,,,,,,000000,,*26
$GPGSA,A,1,,,,,,,,,,,,,,,*1E
$BDGSA,A,1,,,,,,,,,,,,,,,*0F
$LOGTIM,0,0.000000,0.000000,0.000000,0.000000,0.000*0A
EndT:        0
---00000014--- Acq_st=3 2019-5-25 07:13:24 
$GNGGA,000000.000,,,,,0,00,,,M,,,,0000*2B
$GNRMC,000000.000,A,,,,,,,000000,,*26
$GPGSA,A,1,,,,,,,,,,,,,,,*1E
$BDGSA,A,1,,,,,,,,,,,,,,,*0F
$LOGTIM,0,0.000000,0.000000,0.000000,0.000000,0.000*0A
EndT:        0
---00000015--- Acq_st=3 2019-5-25 07:13:25 
$GNGGA,000000.000,,,,,0,00,,,M,,,,0000*2B
$GNRMC,000000.000,A,,,,,,,000000,,*26
$GPGSA,A,1,,,,,,,,,,,,,,,*1E
$BDGSA,A,1,,,,,,,,,,,,,,,*0F
$LOGTIM,0,0.000000,0.000000,0.000000,0.000000,0.000*0A
EndT:        0
ch0 satid=17,max_freq = -4500,max_mean = 17592,max_phase = 1969,max_value = 243269,acq ok1!
acq ok1 timeH = 0,timeL = 294938890,freq_stage = 5
---00000016--- Acq_st=3 2019-5-25 07:13:26 
[00]  G18  1  7   4542.0 2045995.1  0.0  0.0  1  0         0
$GNGGA,000000.000,,,,,0,00,,,M,,,,0000*2B
$GNRMC,000000.000,A,,,,,,,000000,,*26
$GPGSA,A,1,,,,,,,,,,,,,,,*1E
$BDGSA,A,1,,,,,,,,,,,,,,,*0F
$LOGTIM,0,0.000000,0.000000,0.000000,0.000000,0.000*0A
EndT:        0
ch1 satid=18,max_freq = 1500,max_mean = 17873,max_phase = 1140,max_value = 88092,acq ok1!
acq ok1 timeH = 0,timeL = 301575516,freq_stage = 2
---00000017--- Acq_st=3 2019-5-25 07:13:27 
[00]  G18  1  7   4611.6 2045995.1 -0.0  0.0  1  0         5
[01]  G19  1  7  -1556.3 2046001.3  0.0  0.0  1  0         0
$GNGGA,000000.000,,,,,0,00,,,M,,,,0000*2B
$GNRMC,000000.000,A,,,,,,,000000,,*26
$GPGSA,A,1,,,,,,,,,,,,,,,*1E
$BDGSA,A,1,,,,,,,,,,,,,,,*0F
$LOGTIM,0,0.000000,0.000000,0.000000,0.000000,0.000*0A
EndT:        0
---00000018--- Acq_st=3 2019-5-25 07:13:28 
[00]  G18  1  7   4401.9 2045994.8  0.0  0.0  1  0         5
[01]  G19  1  8  -1746.6 2046001.1  0.0  0.0  1  0         1
$GNGGA,000000.000,,,,,0,00,,,M,,,,0000*2B
$GNRMC,000000.000,A,,,,,,,000000,,*26
$GPGSA,A,1,,,,,,,,,,,,,,,*1E
$BDGSA,A,1,,,,,,,,,,,,,,,*0F
$LOGTIM,0,0.000000,0.000000,0.000000,0.000000,0.000*0A
EndT:        0
---00000019--- Acq_st=3 2019-5-25 07:13:29 
[01]  G19  1 18  -1834.8 2046000.8 -0.2  0.0  1  0         1
ch2 satid=21,max_freq = -750,max_mean = 17395,max_phase = 620,max_value = 86779,acq ok1!
acq ok1 timeH = 0,timeL = 354572626,freq_stage = 3
$GNGGA,000000.000,,,,,0,00,,,M,,,,0000*2B
$GNRMC,000000.000,A,,,,,,,000000,,*26
$GPGSA,A,1,,,,,,,,,,,,,,,*1E
$BDGSA,A,1,,,,,,,,,,,,,,,*0F
$LOGTIM,0,0.000000,0.000000,0.000000,0.000000,0.000*0A
EndT:        0
---00000020--- Acq_st=3 2019-5-25 07:13:30 
[02]  G22  1  7    382.9 2046000.1  0.0  0.0  1  0        13
$GNGGA,000000.000,,,,,0,00,,,M,,,,0000*2B
$GNRMC,000000.000,A,,,,,,,000000,,*26
$GPGSA,A,1,,,,,,,,,,,,,,,*1E
$BDGSA,A,1,,,,,,,,,,,,,,,*0F
$LOGTIM,0,0.000000,0.000000,0.000000,0.000000,0.000*0A
EndT:        0
---00000021--- Acq_st=3 2019-5-25 07:13:31 
[02]  G22  7 30    333.4 2045999.4 -0.0  1.0  5  0        13
$GNGGA,000000.000,,,,,0,00,,,M,,,,0000*2B
$GNRMC,000000.000,A,,,,,,,000000,,*26
$GPGSA,A,1,,,,,,,,,,,,,,,*1E
$BDGSA,A,1,,,,,,,,,,,,,,,*0F
$GPGSV,1,1,01,22,00,000,30*4B
$LOGTIM,0,0.000000,0.000000,0.000000,0.000000,0.000*0A
EndT:        0
---00000022--- Acq_st=3 2019-5-25 07:13:32 
[02]  G22  7 38    334.6 2045999.5  1.0  1.0  5  0        17
$GNGGA,000000.000,,,,,0,00,,,M,,,,0000*2B
$GNRMC,000000.000,A,,,,,,,000000,,*26
$GPGSA,A,1,,,,,,,,,,,,,,,*1E
$BDGSA,A,1,,,,,,,,,,,,,,,*0F
$GPGSV,1,1,01,22,00,000,38*43
$LOGTIM,0,0.000000,0.000000,0.000000,0.000000,0.000*0A
EndT:        0
---00000023--- Acq_st=3 2019-5-25 07:13:33 
[02]  G22  7 38    338.4 2045999.5  1.0  1.0  5  0        17
$GNGGA,000000.000,,,,,0,00,,,M,,,,0000*2B
$GNRMC,000000.000,A,,,,,,,000000,,*26
$GPGSA,A,1,,,,,,,,,,,,,,,*1E
$BDGSA,A,1,,,,,,,,,,,,,,,*0F
$GPGSV,1,1,01,22,00,000,38*43
$LOGTIM,0,0.000000,0.000000,0.000000,0.000000,0.000*0A
EndT:        0
---00000024--- Acq_st=3 2019-5-25 07:13:34 
[02]  G22  7 38    342.5 2045999.5  1.0  1.0  5  0        17
$GNGGA,000000.000,,,,,0,00,,,M,,,,0000*2B
$GNRMC,000000.000,A,,,,,,,000000,,*26
$GPGSA,A,1,,,,,,,,,,,,,,,*1E
$BDGSA,A,1,,,,,,,,,,,,,,,*0F
$GPGSV,1,1,01,22,00,000,38*43
$LOGTIM,0,0.000000,0.000000,0.000000,0.000000,0.000*0A
EndT:        0
ch0 satid=27,max_freq = 1250,max_mean = 17727,max_phase = 1768,max_value = 129171,acq ok1!
acq ok1 timeH = 0,timeL = 450640677,freq_stage = 2
---00000025--- Acq_st=3 2019-5-25 07:13:35 
[00]  G28  1  7  -1412.0 2046003.1  0.0  0.0  1  0         5
[02]  G22  7 38    349.2 2045999.5  1.0  1.0  5  0        17
$GNGGA,000000.000,,,,,0,00,,,M,,,,0000*2B
$GNRMC,000000.000,A,,,,,,,000000,,*26
$GPGSA,A,1,,,,,,,,,,,,,,,*1E
$BDGSA,A,1,,,,,,,,,,,,,,,*0F
$GPGSV,1,1,01,22,00,000,38*43
$LOGTIM,0,0.000000,0.000000,0.000000,0.000000,0.000*0A
EndT:        0
---00000026--- Acq_st=3 2019-5-25 07:13:36 
[00]  G28  1 28  -1618.6 2046003.0  0.3  0.0  1  0        18
[02]  G22  7 38    353.6 2045999.5  1.0  1.0  5  0        17
$GNGGA,000000.000,,,,,0,00,,,M,,,,0000*2B
$GNRMC,000000.000,A,,,,,,,000000,,*26
$GPGSA,A,1,,,,,,,,,,,,,,,*1E
$BDGSA,A,1,,,,,,,,,,,,,,,*0F
$GPGSV,1,1,01,22,00,000,38*43
$LOGTIM,0,0.000000,0.000000,0.000000,0.000000,0.000*0A
EndT:        0
---00000027--- Acq_st=3 2019-5-25 07:13:37 
[00]  G28  7 28  -1617.3 2046002.0  0.6  1.0 10  0        18
[02]  G22  f 38    355.7 2045999.5  1.0  0.9  5  0        17
$GNGGA,000000.000,,,,,0,00,,,M,,,,0000*2B
$GNRMC,000000.000,A,,,,,,,000000,,*26
$GPGSA,A,1,,,,,,,,,,,,,,,*1E
$BDGSA,A,1,,,,,,,,,,,,,,,*0F
$GPGSV,1,1,02,28,00,000,28,22,00,000,38*70
$LOGTIM,0,0.000000,0.000000,0.000000,0.000000,0.000*0A
EndT:        0
---00000028--- Acq_st=3 2019-5-25 07:13:38 
[00]  G28  7 38  -1618.5 2046002.0  1.0  1.0  5  0         2
[02]  G22  f 38    354.1 2045999.5  1.0  1.0  5  0 544435757
$GNGGA,000000.000,,,,,0,00,,,M,,,,0000*2B
$GNRMC,000000.000,A,,,,,,,000000,,*26
$GPGSA,A,1,,,,,,,,,,,,,,,*1E
$BDGSA,A,1,,,,,,,,,,,,,,,*0F
$GPGSV,1,1,02,28,00,000,38,22,00,000,38*71
$LOGTIM,0,0.000000,0.000000,0.000000,0.000000,0.000*0A
EndT:        0
---00000029--- Acq_st=3 2019-5-25 07:13:39 
[00]  G28  7 39  -1621.5 2046002.0  1.0  1.0  5  0         2
[02]  G22  f 38    350.6 2045999.5  1.0  1.0  5  0 544436757
$GNGGA,000000.000,,,,,0,00,,,M,,,,0000*2B
$GNRMC,000000.000,A,,,,,,,000000,,*26
$GPGSA,A,1,,,,,,,,,,,,,,,*1E
$BDGSA,A,1,,,,,,,,,,,,,,,*0F
$GPGSV,1,1,02,28,00,000,39,22,00,000,38*70
$LOGTIM,0,0.000000,0.000000,0.000000,0.000000,0.000*0A
EndT:        0
---00000030--- Acq_st=3 2019-5-25 07:13:40 
[00]  G28  7 39  -1624.3 2046002.1  1.0  1.0  5  0         2
[02]  G22  f 38    348.6 2045999.6  1.0  1.0  5  0 544437757
$GNGGA,000000.000,,,,,0,00,,,M,,,,0000*2B
$GNRMC,000000.000,A,,,,,,,000000,,*26
$GPGSA,A,1,,,,,,,,,,,,,,,*1E
$BDGSA,A,1,,,,,,,,,,,,,,,*0F
$GPGSV,1,1,02,28,00,000,39,22,00,000,38*70
$LOGTIM,0,0.000000,0.000000,0.000000,0.000000,0.000*0A
EndT:        0
---00000031--- Acq_st=3 2019-5-25 07:13:41 
[00]  G28  7 39  -1618.3 2046002.1  1.0  0.9  5  0         2
[02]  G22  f 38    354.5 2045999.6  1.0  1.0  5  0 544438757
$GNGGA,000000.000,,,,,0,00,,,M,,,,0000*2B
$GNRMC,000000.000,A,,,,,,,000000,,*26
$GPGSA,A,1,,,,,,,,,,,,,,,*1E
$BDGSA,A,1,,,,,,,,,,,,,,,*0F
$GPGSV,1,1,02,28,00,000,39,22,00,000,38*70
$LOGTIM,0,0.000000,0.000000,0.000000,0.000000,0.000*0A
EndT:        0
---00000032--- Acq_st=3 2019-5-25 07:13:42 
[00]  G28  7 38  -1619.6 2046002.1  1.0  1.0  5  0         2
[02]  G22  f 38    353.7 2045999.6  1.0  1.0  5  0 544439757
$GNGGA,000000.000,,,,,0,00,,,M,,,,0000*2B
$GNRMC,000000.000,A,,,,,,,000000,,*26
$GPGSA,A,1,,,,,,,,,,,,,,,*1E
$BDGSA,A,1,,,,,,,,,,,,,,,*0F
$GPGSV,1,1,02,28,00,000,38,22,00,000,38*71
$LOGTIM,0,0.000000,0.000000,0.000000,0.000000,0.000*0A
EndT:        0
---00000033--- Acq_st=3 2019-5-25 07:13:43 
[00]  G28  f 39  -1625.4 2046002.1  1.0  1.0  5  0         2
[02]  G22  f 38    348.1 2045999.6  1.0  1.0  5  0 544440757
$GNGGA,000000.000,,,,,0,00,,,M,,,,0000*2B
$GNRMC,000000.000,A,,,,,,,000000,,*26
$GPGSA,A,1,,,,,,,,,,,,,,,*1E
$BDGSA,A,1,,,,,,,,,,,,,,,*0F
$GPGSV,1,1,02,28,00,000,39,22,00,000,38*70
$LOGTIM,0,0.000000,0.000000,0.000000,0.000000,0.000*0A
EndT:        0
---00000034--- Acq_st=3 2019-5-25 07:13:44 
[00]  G28  f 39  -1621.3 2046002.1  1.0  1.0  5  0 544441762
[02]  G22  f 37    352.7 2045999.6  1.0  1.0  5  0 544441757
$GNGGA,000000.000,,,,,0,00,,,M,,,,0000*2B
$GNRMC,000000.000,A,,,,,,,000000,,*26
$GPGSA,A,1,,,,,,,,,,,,,,,*1E
$BDGSA,A,1,,,,,,,,,,,,,,,*0F
$GPGSV,1,1,02,28,00,000,39,22,00,000,37*7F
$LOGTIM,0,0.000000,0.000000,0.000000,0.000000,0.000*0A
EndT:        0
---00000035--- Acq_st=3 2019-5-25 07:13:45 
[00]  G28  f 38  -1620.5 2046002.1  1.0  1.0  5  0 544442762
[02]  G22  f 38    353.4 2045999.5  1.0  1.0  5  0 544442757
$GNGGA,000000.000,,,,,0,00,,,M,,,,0000*2B
$GNRMC,000000.000,A,,,,,,,000000,,*26
$GPGSA,A,1,,,,,,,,,,,,,,,*1E
$BDGSA,A,1,,,,,,,,,,,,,,,*0F
$GPGSV,1,1,02,28,00,000,38,22,00,000,38*71
$LOGTIM,0,0.000000,0.000000,0.000000,0.000000,0.000*0A
EndT:        0
---00000036--- Acq_st=3 2019-5-25 07:13:46 
[00]  G28  f 39  -1630.4 2046002.1  1.0  1.0  5  0 544443762
[02]  G22  f 38    342.8 2045999.6  1.0  1.0  5  0 544443757
$GNGGA,000000.000,,,,,0,00,,,M,,,,0000*2B
$GNRMC,000000.000,A,,,,,,,000000,,*26
$GPGSA,A,1,,,,,,,,,,,,,,,*1E
$BDGSA,A,1,,,,,,,,,,,,,,,*0F
$GPGSV,1,1,02,28,00,000,39,22,00,000,38*70
$LOGTIM,0,0.000000,0.000000,0.000000,0.000000,0.000*0A
EndT:        0
---00000037--- Acq_st=3 2019-5-25 07:13:47 
[00]  G28  f 38  -1634.3 2046002.1  1.0  1.0  5  0 544444762
[02]  G22  f 38    340.0 2045999.6  1.0  1.0  5  0 544444757
$GNGGA,000000.000,,,,,0,00,,,M,,,,0000*2B
$GNRMC,000000.000,A,,,,,,,000000,,*26
$GPGSA,A,1,,,,,,,,,,,,,,,*1E
$BDGSA,A,1,,,,,,,,,,,,,,,*0F
$GPGSV,1,1,02,28,00,000,38,22,00,000,38*71
$LOGTIM,0,0.000000,0.000000,0.000000,0.000000,0.000*0A
EndT:        0
---00000038--- Acq_st=3 2019-5-25 07:13:48 
[00]  G28  f 39  -1634.4 2046002.2  1.0  1.0  5  0 544445762
[02]  G22  f 37    339.9 2045999.6  1.0  1.0  5  0 544445757
$GNGGA,000000.000,,,,,0,00,,,M,,,,0000*2B
$GNRMC,000000.000,A,,,,,,,000000,,*26
$GPGSA,A,1,,,,,,,,,,,,,,,*1E
$BDGSA,A,1,,,,,,,,,,,,,,,*0F
$GPGSV,1,1,02,28,00,000,39,22,00,000,37*7F
$LOGTIM,0,0.000000,0.000000,0.000000,0.000000,0.000*0A
EndT:        0
---00000039--- Acq_st=3 2019-5-25 07:13:49 
[00]  G28  f 39  -1633.8 2046002.1  1.0  1.0  5  0 544446762
[02]  G22  f 38    340.8 2045999.6  1.0  1.0  5  0 544446757
$GNGGA,000000.000,,,,,0,00,,,M,,,,0000*2B
$GNRMC,000000.000,A,,,,,,,000000,,*26
$GPGSA,A,1,,,,,,,,,,,,,,,*1E
$BDGSA,A,1,,,,,,,,,,,,,,,*0F
$GPGSV,1,1,02,28,00,000,39,22,00,000,38*70
$LOGTIM,0,0.000000,0.000000,0.000000,0.000000,0.000*0A
EndT:        0
---00000040--- Acq_st=3 2019-5-25 07:13:50 
[00]  G28  f 39  -1630.0 2046002.1  1.0  1.0  5  0 544447762
[02]  G22  f 38    344.5 2045999.6  1.0  1.0  5  0 544447757
$GNGGA,000000.000,,,,,0,00,,,M,,,,0000*2B
$GNRMC,000000.000,A,,,,,,,000000,,*26
$GPGSA,A,1,,,,,,,,,,,,,,,*1E
$BDGSA,A,1,,,,,,,,,,,,,,,*0F
$GPGSV,1,1,02,28,00,000,39,22,00,000,38*70
$LOGTIM,0,0.000000,0.000000,0.000000,0.000000,0.000*0A
EndT:        0
---00000041--- Acq_st=3 2019-5-25 07:13:51 
[00]  G28  f 39  -1629.1 2046002.1  1.0  1.0  5  0 544448762
[02]  G22  f 38    345.3 2045999.5  1.0  1.0  5  0 544448757
$GNGGA,000000.000,,,,,0,00,,,M,,,,0000*2B
$GNRMC,000000.000,A,,,,,,,000000,,*26
$GPGSA,A,1,,,,,,,,,,,,,,,*1E
$BDGSA,A,1,,,,,,,,,,,,,,,*0F
$GPGSV,1,1,02,28,00,000,39,22,00,000,38*70
$LOGTIM,0,0.000000,0.000000,0.000000,0.000000,0.000*0A
EndT:        0
ch16 satid=44,max_freq = 0,max_mean = 6710,max_phase = 2508,max_value = 122860,acq ok1!
acq ok1 timeH = 0,timeL = 776295742,freq_stage = 3
---00000042--- Acq_st=3 2019-5-25 07:13:52 
[00]  G28  f 39  -1626.8 2046002.1  1.0  1.0  5  0 544449762
[02]  G22  f 38    347.8 2045999.6  1.0  1.0  5  0 544449757
[16]  B08  1  7    -75.5 4091999.2 -0.3  0.0  1  0         0
$GNGGA,000000.000,,,,,0,00,,,M,,,,0000*2B
$GNRMC,000000.000,A,,,,,,,000000,,*26
$GPGSA,A,1,,,,,,,,,,,,,,,*1E
$BDGSA,A,1,,,,,,,,,,,,,,,*0F
$GPGSV,1,1,02,28,00,000,39,22,00,000,38*70
$LOGTIM,0,0.000000,0.000000,0.000000,0.000000,0.000*0A
EndT:        0
---00000043--- Acq_st=3 2019-5-25 07:13:53 
[00]  G28  f 39  -1626.1 2046002.1  1.0  1.0  5  0 544450762
[02]  G22  f 38    349.2 2045999.6  1.0  1.0  5  0 544450757
[16]  B08  7 25    -77.1 4092000.3 -0.2  0.0 20  0       712
$GNGGA,000000.000,,,,,0,00,,,M,,,,0000*2B
$GNRMC,000000.000,A,,,,,,,000000,,*26
$GPGSA,A,1,,,,,,,,,,,,,,,*1E
$BDGSA,A,1,,,,,,,,,,,,,,,*0F
$GPGSV,1,1,02,28,00,000,39,22,00,000,38*70
$BDGSV,1,1,01,08,00,000,25*56
$LOGTIM,0,0.000000,0.000000,0.000000,0.000000,0.000*0A
EndT:        0
---00000044--- Acq_st=3 2019-5-25 07:13:54 
[00]  G28  f 39  -1623.1 2046002.1  1.0  1.0  5  0 544451762
[02]  G22  f 38    352.2 2045999.5  1.0  1.0  5  0 544451757
[16]  B08  7 41    -74.8 4092000.3  0.7  1.0  5  0      1710
$GNGGA,000000.000,,,,,0,00,,,M,,,,0000*2B
$GNRMC,000000.000,A,,,,,,,000000,,*26
$GPGSA,A,1,,,,,,,,,,,,,,,*1E
$BDGSA,A,1,,,,,,,,,,,,,,,*0F
$GPGSV,1,1,02,28,00,000,39,22,00,000,38*70
$BDGSV,1,1,01,08,00,000,41*54
$LOGTIM,0,0.000000,0.000000,0.000000,0.000000,0.000*0A
EndT:        0
ch17 satid=46,max_freq = 250,max_mean = 6896,max_phase = 1745,max_value = 63923,acq ok1!
acq ok1 timeH = 0,timeL = 838653174,freq_stage = 3
---00000045--- Acq_st=3 2019-5-25 07:13:55 
[00]  G28  f 39  -1615.8 2046002.1  1.0  1.0  5  0 544452762
[02]  G22  f 38    359.2 2045999.5  1.0  1.0  5  0 544452757
[16]  B08  7 41    -67.7 4092000.2  1.0  1.0  5  0      2710
[17]  B10  1  7   -226.5 4092000.8  0.1  0.0  1  0         0
$GNGGA,000000.000,,,,,0,00,,,M,,,,0000*2B
$GNRMC,000000.000,A,,,,,,,000000,,*26
$GPGSA,A,1,,,,,,,,,,,,,,,*1E
$BDGSA,A,1,,,,,,,,,,,,,,,*0F
$GPGSV,1,1,02,28,00,000,39,22,00,000,38*70
$BDGSV,1,1,01,08,00,000,41*54
$LOGTIM,0,0.000000,0.000000,0.000000,0.000000,0.000*0A
EndT:        0
---00000046--- Acq_st=3 2019-5-25 07:13:56 
[00]  G28  f 38  -1613.4 2046002.1  1.0  1.0  5  0 544453762
[02]  G22  f 39    362.2 2045999.5  1.0  0.9  5  0 544453757
[16]  B08  7 41    -66.7 4092000.2  1.0  1.0  5  0      3710
[17]  B10  1  7   -193.5 4092000.5  0.2  0.0  1  0       294
$GNGGA,000000.000,,,,,0,00,,,M,,,,0000*2B
$GNRMC,000000.000,A,,,,,,,000000,,*26
$GPGSA,A,1,,,,,,,,,,,,,,,*1E
$BDGSA,A,1,,,,,,,,,,,,,,,*0F
$GPGSV,1,1,02,28,00,000,38,22,00,000,39*70
$BDGSV,1,1,01,08,00,000,41*54
$LOGTIM,0,0.000000,0.000000,0.000000,0.000000,0.000*0A
EndT:        0
ch18 satid=47,max_freq = -750,max_mean = 6514,max_phase = 1827,max_value = 114613,acq ok1!
acq ok1 timeH = 0,timeL = 874751826,freq_stage = 3
---00000047--- Acq_st=3 2019-5-25 07:13:57 
[00]  G28  f 39  -1621.4 2046002.1  1.0  1.0  5  0 544454762
[02]  G22  f 39    353.8 2045999.5  1.0  1.0  5  0 544454757
[16]  B08 1f 41    -75.0 4092000.2  1.0  1.0  5  0      4710
[17]  B10  7 36   -201.7 4092000.5  0.5  1.0  5  0      1294
[18]  B11  1  7    839.1 4091997.7  0.0  0.0  1  0         0
$GNGGA,000000.000,,,,,0,00,,,M,,,,0000*2B
$GNRMC,000000.000,A,,,,,,,000000,,*26
$GPGSA,A,1,,,,,,,,,,,,,,,*1E
$BDGSA,A,1,,,,,,,,,,,,,,,*0F
$GPGSV,1,1,02,28,00,000,39,22,00,000,39*71
$BDGSV,1,1,02,08,00,000,41,10,00,000,36*63
$LOGTIM,0,0.000000,0.000000,0.000000,0.000000,0.000*0A
EndT:        0
---00000048--- Acq_st=3 2019-5-25 07:13:58 
[00]  G28  f 39  -1629.6 2046002.1  1.0  1.0  5  0 544455762
[02]  G22  f 39    346.1 2045999.5  1.0  1.0  5  0 544455757
[16]  B08 1f 41    -83.1 4092000.2  1.0  1.0  5  0 544441710
[17]  B10  7 38   -210.3 4092000.5  1.0  1.0  5  0      2291
[18]  B11  7 22    844.4 4091997.8  0.3  0.0 20  0       583
$GNGGA,000000.000,,,,,0,00,,,M,,,,0000*2B
$GNRMC,000000.000,A,,,,,,,000000,,*26
$GPGSA,A,1,,,,,,,,,,,,,,,*1E
$BDGSA,A,1,,,,,,,,,,,,,,,*0F
$GPGSV,1,1,02,28,00,000,39,22,00,000,39*71
$BDGSV,1,1,03,08,00,000,41,10,00,000,38,11,00,000,22*5C
$LOGTIM,0,0.000000,0.000000,0.000000,0.000000,0.000*0A
EndT:        0
---00000049--- Acq_st=3 2019-5-25 07:13:59 
[00]  G28  f 39  -1628.6 2046002.1  1.0  1.0  5  0 544456762
[02]  G22  f 39    347.4 2045999.5  1.0  1.0  5  0 544456757
[16]  B08 1f 41    -82.4 4092000.2  1.0  1.0  5  0 544442710
[17]  B10  7 38   -209.3 4092000.6  1.0  1.0  5  0      3291
[18]  B11  7 41    844.8 4091997.8  0.9  1.0  5  0      1574
$GNGGA,000000.000,,,,,0,00,,,M,,,,0000*2B
$GNRMC,000000.000,A,,,,,,,000000,,*26
$GPGSA,A,1,,,,,,,,,,,,,,,*1E
$BDGSA,A,1,,,,,,,,,,,,,,,*0F
$GPGSV,1,1,02,28,00,000,39,22,00,000,39*71
$BDGSV,1,1,03,08,00,000,41,10,00,000,38,11,00,000,41*59
$LOGTIM,0,0.000000,0.000000,0.000000,0.000000,0.000*0A
EndT:        0
ch19 satid=49,max_freq = 500,max_mean = 6779,max_phase = 1846,max_value = 42143,acq ok1!
acq ok1 timeH = 0,timeL = 937109262,freq_stage = 3
---00000050--- Acq_st=3 2019-5-25 07:14:0 
[00]  G28  f 38  -1627.7 2046002.1  1.0  1.0  5  0 544457762
[02]  G22  f 38    348.0 2045999.6  1.0  1.0  5  0 544457757
[16]  B08 1f 41    -81.8 4092000.2  1.0  1.0  5  0 544443710
[17]  B10  7 38   -208.6 4092000.5  1.0  1.0  5  0      4291
[18]  B11  7 41    845.2 4091997.8  1.0  1.0  5  0      2574
[19]  B13  1  7   -304.9 4092002.2  0.1  0.0  1  0         0
$GNGGA,000000.000,,,,,0,00,,,M,,,,0000*2B
$GNRMC,000000.000,A,,,,,,,000000,,*26
$GPGSA,A,1,,,,,,,,,,,,,,,*1E
$BDGSA,A,1,,,,,,,,,,,,,,,*0F
$GPGSV,1,1,02,28,00,000,38,22,00,000,38*71
$BDGSV,1,1,03,08,00,000,41,10,00,000,38,11,00,000,41*59
$LOGTIM,0,0.000000,0.000000,0.000000,0.000000,0.000*0A
EndT:        0
---00000051--- Acq_st=3 2019-5-25 07:14:1 
[00]  G28  f 38  -1630.6 2046002.2  1.0  1.0  5  0 544458762
[02]  G22  f 38    345.7 2045999.6  1.0  1.0  5  0 544458757
[16]  B08 1f 42    -84.4 4092000.2  1.0  1.0  5  0 544444710
[17]  B10  7 38   -211.5 4092000.5  1.0  1.0  5  0      5291
[18]  B11  7 41    842.4 4091997.8  1.0  1.0  5  0      3574
[19]  B13  1 33   -474.7 4092001.4  0.3  0.0  1  0       166
$GNGGA,000000.000,,,,,0,00,,,M,,,,0000*2B
$GNRMC,000000.000,A,,,,,,,000000,,*26
$GPGSA,A,1,,,,,,,,,,,,,,,*1E
$BDGSA,A,1,,,,,,,,,,,,,,,*0F
$GPGSV,1,1,02,28,00,000,38,22,00,000,38*71
$BDGSV,1,1,03,08,00,000,42,10,00,000,38,11,00,000,41*5A
$LOGTIM,0,0.000000,0.000000,0.000000,0.000000,0.000*0A
EndT:        0
---00000052--- Acq_st=3 2019-5-25 07:14:2 
[00]  G28  f 38  -1625.1 2046002.2  1.0  1.0  5  0 544459762
[02]  G22  f 39    351.3 2045999.5  1.0  1.0  5  0 544459757
[16]  B08 1f 42    -79.8 4092000.2  1.0  1.0  5  0 544445710
[17]  B10  7 38   -206.5 4092000.5  1.0  1.0  5  0      6291
[18]  B11  7 42    847.7 4091997.8  1.0  1.0  5  0      4574
[19]  B13  7 33   -469.4 4092001.2  0.7  1.0  5  0      1166
$GNGGA,000000.000,,,,,0,00,,,M,,,,0000*2B
$GNRMC,000000.000,A,,,,,,,000000,,*26
$GPGSA,A,1,,,,,,,,,,,,,,,*1E
$BDGSA,A,1,,,,,,,,,,,,,,,*0F
$GPGSV,1,1,02,28,00,000,38,22,00,000,39*70
$BDGSV,1,1,04,08,00,000,42,10,00,000,38,11,00,000,42,13,00,000,33*6C
$LOGTIM,0,0.000000,0.000000,0.000000,0.000000,0.000*0A
EndT:        0
---00000053--- Acq_st=3 2019-5-25 07:14:3 
[00]  G28  f 38  -1624.8 2046002.2  1.0  1.0  5  0 544460762
[02]  G22  f 39    351.6 2045999.6  1.0  1.0  5  0 544460757
[16]  B08 1f 41    -80.3 4092000.2  1.0  1.0  5  0 544446710
[17]  B10 1f 38   -207.4 4092000.5  1.0  1.0  5  0      7291
[18]  B11 1f 41    846.9 4091997.8  1.0  1.0  5  0      5574
[19]  B13 1f 37   -470.7 4092001.2  1.0  1.0  5  0      2166
$GNGGA,000000.000,,,,,0,00,,,M,,,,0000*2B
$GNRMC,000000.000,A,,,,,,,000000,,*26
$GPGSA,A,1,,,,,,,,,,,,,,,*1E
$BDGSA,A,1,,,,,,,,,,,,,,,*0F
$GPGSV,1,1,02,28,00,000,38,22,00,000,39*70
$BDGSV,1,1,04,08,00,000,41,10,00,000,38,11,00,000,41,13,00,000,37*68
$LOGTIM,0,0.000000,0.000000,0.000000,0.000000,0.000*0A
EndT:        0
---00000054--- Acq_st=3 2019-5-25 07:14:4 
[00]  G28  f 38  -1626.8 2046002.1  1.0  1.0  5  0 544461762
[02]  G22  f 38    350.1 2045999.6  1.0  1.0  5  0 544461757
[16]  B08 1f 42    -81.5 4092000.2  1.0  1.0  5  0 544447710
[17]  B10 1f 38   -208.1 4092000.6  1.0  1.0  5  0 544447711
[18]  B11 1f 41    845.1 4091997.8  1.0  1.0  5  0 544447754
[19]  B13 1f 37   -471.4 4092001.2  1.0  1.0  5  0 544447706
$GNGGA,000000.000,,,,,0,00,,,M,,,,0000*2B
$GNRMC,000000.000,A,,,,,,,000000,,*26
$GPGSA,A,1,,,,,,,,,,,,,,,*1E
$BDGSA,A,1,,,,,,,,,,,,,,,*0F
$GPGSV,1,1,02,28,00,000,38,22,00,000,38*71
$BDGSV,1,1,04,08,00,000,42,10,00,000,38,11,00,000,41,13,00,000,37*6B
$LOGTIM,0,0.000000,0.000000,0.000000,0.000000,0.000*0A
EndT:        0
---00000055--- Acq_st=3 2019-5-25 07:14:5 
[00]  G28  f 38  -1620.0 2046002.1  1.0  1.0  5  0 544462762
[02]  G22  f 38    355.9 2045999.6  1.0  1.0  5  0 544462757
[16]  B08 1f 41    -76.4 4092000.2  1.0  1.0  5  0 544448710
[17]  B10 1f 38   -203.2 4092000.5  1.0  1.0  5  0 544448711
[18]  B11 1f 41    850.6 4091997.8  1.0  1.0  5  0 544448754
[19]  B13 1f 36   -467.0 4092001.2  1.0  1.0  5  0 544448706
$GNGGA,000000.000,,,,,0,00,,,M,,,,0000*2B
$GNRMC,000000.000,A,,,,,,,000000,,*26
$GPGSA,A,1,,,,,,,,,,,,,,,*1E
$BDGSA,A,1,,,,,,,,,,,,,,,*0F
$GPGSV,1,1,02,28,00,000,38,22,00,000,38*71
$BDGSV,1,1,04,08,00,000,41,10,00,000,38,11,00,000,41,13,00,000,36*69
$LOGTIM,0,0.000000,0.000000,0.000000,0.000000,0.000*0A
EndT:        0
---00000056--- Acq_st=3 2019-5-25 07:14:6 
[00]  G28  f 38  -1619.4 2046002.1  1.0  1.0  5  0 544463762
[02]  G22  f 38    357.1 2045999.5  1.0  1.0  5  0 544463757
[16]  B08 1f 41    -75.9 4092000.2  1.0  1.0  5  0 544449710
[17]  B10 1f 38   -202.6 4092000.5  1.0  1.0  5  0 544449711
[18]  B11 1f 42    850.9 4091997.7  1.0  1.0  5  0 544449754
[19]  B13 1f 37   -465.7 4092001.2  1.0  0.9  5  0 544449706
$GNGGA,000000.000,,,,,0,00,,,M,,,,0000*2B
$GNRMC,000000.000,A,,,,,,,000000,,*26
$GPGSA,A,1,,,,,,,,,,,,,,,*1E
$BDGSA,A,1,,,,,,,,,,,,,,,*0F
$GPGSV,1,1,02,28,00,000,38,22,00,000,38*71
$BDGSV,1,1,04,08,00,000,41,10,00,000,38,11,00,000,42,13,00,000,37*6B
$LOGTIM,0,0.000000,0.000000,0.000000,0.000000,0.000*0A
EndT:        0
---00000057--- Acq_st=3 2019-5-25 07:14:7 
[00]  G28  f 38  -1619.8 2046002.1  1.0  1.0  5  0 544464762
[02]  G22  f 37    357.6 2045999.6  1.0  1.0  5  0 544464757
[16]  B08 1f 41    -76.2 4092000.2  1.0  1.0  5  0 544450710
[17]  B10 1f 38   -203.1 4092000.6  1.0  1.0  5  0 544450711
[18]  B11 1f 41    851.2 4091997.8  1.0  1.0  5  0 544450754
[19]  B13 1f 37   -465.6 4092001.2  1.0  1.0  5  0 544450706
$GNGGA,000000.000,,,,,0,00,,,M,,,,0000*2B
$GNRMC,000000.000,A,,,,,,,000000,,*26
$GPGSA,A,1,,,,,,,,,,,,,,,*1E
$BDGSA,A,1,,,,,,,,,,,,,,,*0F
$GPGSV,1,1,02,28,00,000,38,22,00,000,37*7E
$BDGSV,1,1,04,08,00,000,41,10,00,000,38,11,00,000,41,13,00,000,37*68
$LOGTIM,0,0.000000,0.000000,0.000000,0.000000,0.000*0A
EndT:        0
---00000058--- Acq_st=3 2019-5-25 07:14:8 
[00]  G28  f 38  -1612.4 2046002.1  1.0  1.0  5  0 544465762
[02]  G22  f 38    364.9 2045999.5  1.0  1.0  5  0 544465757
[16]  B08 1f 41    -69.5 4092000.2  1.0  1.0  5  0 544451710
[17]  B10 1f 38   -195.7 4092000.5  1.0  1.0  5  0 544451711
[18]  B11 1f 41    857.8 4091997.7  1.0  1.0  5  0 544451754
[19]  B13 1f 36   -459.2 4092001.2  1.0  1.0  5  0 544451706
$GNGGA,000000.000,,,,,0,00,,,M,,,,0000*2B
$GNRMC,000000.000,A,,,,,,,000000,,*26
$GPGSA,A,1,,,,,,,,,,,,,,,*1E
$BDGSA,A,1,,,,,,,,,,,,,,,*0F
$GPGSV,1,1,02,28,00,000,38,22,00,000,38*71
$BDGSV,1,1,04,08,00,000,41,10,00,000,38,11,00,000,41,13,00,000,36*69
$LOGTIM,0,0.000000,0.000000,0.000000,0.000000,0.000*0A
EndT:        0
---00000059--- Acq_st=3 2019-5-25 07:14:9 
[00]  G28  f 39  -1612.8 2046002.1  1.0  1.0  5  0 544466762
[02]  G22  f 38    365.7 2045999.5  1.0  1.0  5  0 544466757
[16]  B08 1f 42    -69.6 4092000.1  1.0  1.0  5  0 544452710
[17]  B10 1f 38   -195.5 4092000.5  1.0  0.9  5  0 544452711
[18]  B11 1f 41    857.8 4091997.7  1.0  1.0  5  0 544452754
[19]  B13 1f 37   -459.5 4092001.2  1.0  1.0  5  0 544452706
$GNGGA,000000.000,,,,,0,00,,,M,,,,0000*2B
$GNRMC,000000.000,A,,,,,,,000000,,*26
$GPGSA,A,1,,,,,,,,,,,,,,,*1E
$BDGSA,A,1,,,,,,,,,,,,,,,*0F
$GPGSV,1,1,02,28,00,000,39,22,00,000,38*70
$BDGSV,1,1,04,08,00,000,42,10,00,000,38,11,00,000,41,13,00,000,37*6B
$LOGTIM,0,0.000000,0.000000,0.000000,0.000000,0.000*0A
EndT:        0
---00000060--- Acq_st=3 2019-5-25 07:14:10 
[00]  G28  f 38  -1617.1 2046002.1  1.0  1.0  5  0 544467762
[02]  G22  f 38    360.4 2045999.5  1.0  1.0  5  0 544467757
[16]  B08 1f 42    -74.9 4092000.2  1.0  1.0  5  0 544453710
[17]  B10 1f 38   -200.8 4092000.5  1.0  1.0  5  0 544453711
[18]  B11 1f 42    852.2 4091997.8  1.0  1.0  5  0 544453754
[19]  B13 1f 37   -464.2 4092001.2  1.0  1.0  5  0 544453706
$GNGGA,000000.000,,,,,0,00,,,M,,,,0000*2B
$GNRMC,000000.000,A,,,,,,,000000,,*26
$GPGSA,A,1,,,,,,,,,,,,,,,*1E
$BDGSA,A,1,,,,,,,,,,,,,,,*0F
$GPGSV,1,1,02,28,00,000,38,22,00,000,38*71
$BDGSV,1,1,04,08,00,000,42,10,00,000,38,11,00,000,42,13,00,000,37*68
$LOGTIM,0,0.000000,0.000000,0.000000,0.000000,0.000*0A
EndT:        0
---00000061--- Acq_st=3 2019-5-25 07:14:11 
[00]  G28  f 38  -1615.3 2046002.1  1.0  1.0  5  0 544468762
[02]  G22  f 38    362.1 2045999.5  1.0  1.0  5  0 544468757
[16]  B08 1f 42    -73.9 4092000.2  1.0  1.0  5  0 544454710
[17]  B10 1f 39   -199.1 4092000.5  1.0  1.0  5  0 544454711
[18]  B11 1f 42    853.5 4091997.8  1.0  1.0  5  0 544454754
[19]  B13 1f 37   -463.1 4092001.2  1.0  1.0  5  0 544454706
$GNGGA,000000.000,,,,,0,00,,,M,,,,0000*2B
$GNRMC,000000.000,A,,,,,,,000000,,*26
$GPGSA,A,1,,,,,,,,,,,,,,,*1E
$BDGSA,A,1,,,,,,,,,,,,,,,*0F
$GPGSV,1,1,02,28,00,000,38,22,00,000,38*71
$BDGSV,1,1,04,08,00,000,42,10,00,000,39,11,00,000,42,13,00,000,37*69
$LOGTIM,0,0.000000,0.000000,0.000000,0.000000,0.000*0A
EndT:        0
---00000062--- Acq_st=3 2019-5-25 07:14:12 
[00]  G28  f 38  -1615.0 2046002.1  1.0  1.0  5  0 544469762
[02]  G22  f 38    362.9 2045999.6  1.0  1.0  5  0 544469757
[16]  B08 1f 42    -73.5 4092000.2  1.0  1.0  5  0 544455710
[17]  B10 1f 38   -199.2 4092000.6  1.0  1.0  5  0 544455711
[18]  B11 1f 41    853.5 4091997.7  1.0  1.0  5  0 544455754
[19]  B13 1f 37   -463.5 4092001.2  1.0  1.0  5  0 544455706
$GNGGA,000000.000,,,,,0,00,,,M,,,,0000*2B
$GNRMC,000000.000,A,,,,,,,000000,,*26
$GPGSA,A,1,,,,,,,,,,,,,,,*1E
$BDGSA,A,1,,,,,,,,,,,,,,,*0F
$GPGSV,1,1,02,28,00,000,38,22,00,000,38*71
$BDGSV,1,1,04,08,00,000,42,10,00,000,38,11,00,000,41,13,00,000,37*6B
$LOGTIM,0,0.000000,0.000000,0.000000,0.000000,0.000*0A
EndT:        0
---00000063--- Acq_st=3 2019-5-25 07:14:13 
[00]  G28  f 38  -1612.9 2046002.1  1.0  1.0  5  0 544470762
[02]  G22  f 38    365.2 2045999.5  1.0  1.0  5  0 544470757
[16]  B08 1f 41    -71.6 4092000.2  1.0  1.0  5  0 544456710
[17]  B10 1f 39   -197.4 4092000.4  1.0  1.0  5  0 544456711
[18]  B11 1f 41    855.4 4091997.8  1.0  1.0  5  0 544456754
[19]  B13 1f 36   -461.0 4092001.2  1.0  1.0  5  0 544456706
$GNGGA,000000.000,,,,,0,00,,,M,,,,0000*2B
$GNRMC,000000.000,A,,,,,,,000000,,*26
$GPGSA,A,1,,,,,,,,,,,,,,,*1E
$BDGSA,A,1,,,,,,,,,,,,,,,*0F
$GPGSV,1,1,02,28,00,000,38,22,00,000,38*71
$BDGSV,1,1,04,08,00,000,41,10,00,000,39,11,00,000,41,13,00,000,36*68
$LOGTIM,0,0.000000,0.000000,0.000000,0.000000,0.000*0A
EndT:        0
ch20 satid=57,max_freq = -500,max_mean = 6571,max_phase = 778,max_value = 185434,acq ok1!
acq ok1 timeH = 0,timeL = 1202938776,freq_stage = 3
---00000064--- Acq_st=3 2019-5-25 07:14:14 
[00]  G28  f 38  -1614.2 2046002.1  1.0  1.0  5  0 544471762
[02]  G22  f 38    364.3 2045999.5  1.0  1.0  5  0 544471757
[16]  B08 1f 42    -73.2 4092000.1  1.0  1.0  5  0 544457710
[17]  B10 1f 39   -199.7 4092000.5  1.0  0.9  5  0 544457711
[18]  B11 1f 41    853.6 4091997.7  1.0  1.0  5  0 544457754
[19]  B13 1f 36   -462.9 4092001.2  1.0  1.0  5  0 544457706
[20]  B21  1  7    574.1 4091998.6 -0.2  0.0  1  0         0
$GNGGA,000000.000,,,,,0,00,,,M,,,,0000*2B
$GNRMC,000000.000,A,,,,,,,000000,,*26
$GPGSA,A,1,,,,,,,,,,,,,,,*1E
$BDGSA,A,1,,,,,,,,,,,,,,,*0F
$GPGSV,1,1,02,28,00,000,38,22,00,000,38*71
$BDGSV,1,1,04,08,00,000,42,10,00,000,39,11,00,000,41,13,00,000,36*6B
$LOGTIM,0,0.000000,0.000000,0.000000,0.000000,0.000*0A
EndT:        0
---00000065--- Acq_st=3 2019-5-25 07:14:15 
[00]  G28  f 38  -1616.1 2046002.1  1.0  1.0  5  0 544472762
[02]  G22  f 38    361.9 2045999.5  1.0  1.0  5  0 544472757
[16]  B08 1f 42    -75.5 4092000.2  1.0  1.0  5  0 544458710
[17]  B10 1f 38   -201.5 4092000.5  1.0  0.9  5  0 544458711
[18]  B11 1f 42    851.1 4091997.8  1.0  1.0  5  0 544458754
[19]  B13 1f 37   -464.6 4092001.2  1.0  1.0  5  0 544458706
[20]  B21  7 14    590.0 4091998.4  0.3  0.0 20  0       490
$GNGGA,000000.000,,,,,0,00,,,M,,,,0000*2B
$GNRMC,000000.000,A,,,,,,,000000,,*26
$GPGSA,A,1,,,,,,,,,,,,,,,*1E
$BDGSA,A,1,,,,,,,,,,,,,,,*0F
$GPGSV,1,1,02,28,00,000,38,22,00,000,38*71
$BDGSV,2,1,05,08,00,000,42,10,00,000,38,11,00,000,42,13,00,000,37*6A
$BDGSV,2,2,05,21,00,000,14*5B
$LOGTIM,0,0.000000,0.000000,0.000000,0.000000,0.000*0A
EndT:        0
---00000066--- Acq_st=3 2019-5-25 07:14:16 
[00]  G28  f 38  -1615.2 2046002.1  1.0  1.0  5  0 544473762
[02]  G22  f 38    363.5 2045999.5  1.0  1.0  5  0 544473757
[16]  B08 1f 42    -75.3 4092000.2  1.0  1.0  5  0 544459710
[17]  B10 1f 39   -200.5 4092000.5  1.0  1.0  5  0 544459711
[18]  B11 1f 42    851.9 4091997.8  1.0  1.0  5  0 544459754
[19]  B13 1f 37   -464.8 4092001.2  1.0  1.0  5  0 544459706
[20]  B21  7 44    591.2 4091998.4  0.8  1.0  5  0      1486
$GNGGA,000000.000,,,,,0,00,,,M,,,,0000*2B
$GNRMC,000000.000,A,,,,,,,000000,,*26
$GPGSA,A,1,,,,,,,,,,,,,,,*1E
$BDGSA,A,1,,,,,,,,,,,,,,,*0F
$GPGSV,1,1,02,28,00,000,38,22,00,000,38*71
$BDGSV,2,1,05,08,00,000,42,10,00,000,39,11,00,000,42,13,00,000,37*6B
$BDGSV,2,2,05,21,00,000,44*5E
$LOGTIM,0,0.000000,0.000000,0.000000,0.000000,0.000*0A
EndT:        0
---00000067--- Acq_st=3 2019-5-25 07:14:17 
[00]  G28  f 39  -1610.0 2046002.1  1.0  1.0  5  0 544474762
[02]  G22  f 38    368.5 2045999.5  1.0  1.0  5  0 544474757
[16]  B08 1f 42    -70.8 4092000.2  1.0  1.0  5  0 544460710
[17]  B10 1f 39   -196.6 4092000.5  1.0  1.0  5  0 544460711
[18]  B11 1f 41    855.8 4091997.7  1.0  1.0  5  0 544460754
[19]  B13 1f 36   -460.1 4092001.1  1.0  0.9  5  0 544460706
[20]  B21  7 44    595.8 4091998.4  1.0  1.0  5  0      2486
$GNGGA,000000.000,,,,,0,00,,,M,,,,0000*2B
$GNRMC,000000.000,A,,,,,,,000000,,*26
$GPGSA,A,1,,,,,,,,,,,,,,,*1E
$BDGSA,A,1,,,,,,,,,,,,,,,*0F
$GPGSV,1,1,02,28,00,000,39,22,00,000,38*70
$BDGSV,2,1,05,08,00,000,42,10,00,000,39,11,00,000,41,13,00,000,36*69
$BDGSV,2,2,05,21,00,000,44*5E
$LOGTIM,0,0.000000,0.000000,0.000000,0.000000,0.000*0A
EndT:        0
---00000068--- Acq_st=3 2019-5-25 07:14:18 
[00]  G28  f 38  -1604.8 2046002.0  1.0  0.9  5  0 544475762
[02]  G22  f 38    374.3 2045999.5  1.0  1.0  5  0 544475757
[16]  B08 1f 42    -65.4 4092000.2  1.0  1.0  5  0 544461710
[17]  B10 1f 39   -190.9 4092000.4  1.0  1.0  5  0 544461711
[18]  B11 1f 41    861.4 4091997.7  1.0  1.0  5  0 544461754
[19]  B13 1f 36   -455.0 4092001.2  1.0  1.0  5  0 544461706
[20]  B21  7 44    602.1 4091998.4  1.0  1.0  5  0      3486
$GNGGA,000000.000,,,,,0,00,,,M,,,,0000*2B
$GNRMC,000000.000,A,,,,,,,000000,,*26
$GPGSA,A,1,,,,,,,,,,,,,,,*1E
$BDGSA,A,1,,,,,,,,,,,,,,,*0F
$GPGSV,1,1,02,28,00,000,38,22,00,000,38*71
$BDGSV,2,1,05,08,00,000,42,10,00,000,39,11,00,000,41,13,00,000,36*69
$BDGSV,2,2,05,21,00,000,44*5E
$LOGTIM,0,0.000000,0.000000,0.000000,0.000000,0.000*0A
EndT:        0
---00000069--- Acq_st=3 2019-5-25 07:14:19 
[00]  G28  f 38  -1609.3 2046002.1  1.0  1.0  5  0 544476762
[02]  G22  f 38    370.2 2045999.5  1.0  1.0  5  0 544476757
[16]  B08 1f 42    -70.3 4092000.2  1.0  1.0  5  0 544462710
[17]  B10 1f 39   -195.4 4092000.5  1.0  1.0  5  0 544462711
[18]  B11 1f 42    856.5 4091997.8  1.0  1.0  5  0 544462754
[19]  B13 1f 36   -459.9 4092001.2  1.0  1.0  5  0 544462706
[20]  B21  7 44    597.5 4091998.4  1.0  1.0  5  0      4486
$GNGGA,000000.000,,,,,0,00,,,M,,,,0000*2B
$GNRMC,000000.000,A,,,,,,,000000,,*26
$GPGSA,A,1,,,,,,,,,,,,,,,*1E
$BDGSA,A,1,,,,,,,,,,,,,,,*0F
$GPGSV,1,1,02,28,00,000,38,22,00,000,38*71
$BDGSV,2,1,05,08,00,000,42,10,00,000,39,11,00,000,42,13,00,000,36*6A
$BDGSV,2,2,05,21,00,000,44*5E
$LOGTIM,0,0.000000,0.000000,0.000000,0.000000,0.000*0A
EndT:        0
---00000070--- Acq_st=3 2019-5-25 07:14:20 
[00]  G28  f 38  -1608.3 2046002.1  1.0  1.0  5  0 544477762
[02]  G22  f 38    370.8 2045999.6  1.0  1.0  5  0 544477757
[16]  B08 1f 42    -70.2 4092000.2  1.0  1.0  5  0 544463710
[17]  B10 1f 39   -195.4 4092000.5  1.0  1.0  5  0 544463711
[18]  B11 1f 41    857.0 4091997.7  1.0  1.0  5  0 544463754
[19]  B13 1f 36   -459.6 4092001.3  1.0  1.0  5  0 544463706
[20]  B21  7 44    598.0 4091998.4  1.0  1.0  5  0      5486
$GNGGA,000000.000,,,,,0,00,,,M,,,,0000*2B
$GNRMC,000000.000,A,,,,,,,000000,,*26
$GPGSA,A,1,,,,,,,,,,,,,,,*1E
$BDGSA,A,1,,,,,,,,,,,,,,,*0F
$GPGSV,1,1,02,28,00,000,38,22,00,000,38*71
$BDGSV,2,1,05,08,00,000,42,10,00,000,39,11,00,000,41,13,00,000,36*69
$BDGSV,2,2,05,21,00,000,44*5E
$LOGTIM,0,0.000000,0.000000,0.000000,0.000000,0.000*0A
EndT:        0
---00000071--- Acq_st=3 2019-5-25 07:14:21 
[00]  G28  f 39  -1608.0 2046002.1  1.0  1.0  5  0 544478762
[02]  G22  f 39    371.2 2045999.6  1.0  1.0  5  0 544478757
[16]  B08 1f 42    -69.7 4092000.2  1.0  1.0  5  0 544464710
[17]  B10 1f 39   -195.1 4092000.5  1.0  1.0  5  0 544464711
[18]  B11 1f 42    856.9 4091997.7  1.0  1.0  5  0 544464754
[19]  B13 1f 36   -459.3 4092001.2  1.0  1.0  5  0 544464706
[20]  B21 1f 44    598.5 4091998.4  1.0  1.0  5  0      6486
$GNGGA,000000.000,,,,,0,00,,,M,,,,0000*2B
$GNRMC,000000.000,A,,,,,,,000000,,*26
$GPGSA,A,1,,,,,,,,,,,,,,,*1E
$BDGSA,A,1,,,,,,,,,,,,,,,*0F
$GPGSV,1,1,02,28,00,000,39,22,00,000,39*71
$BDGSV,2,1,05,08,00,000,42,10,00,000,39,11,00,000,42,13,00,000,36*6A
$BDGSV,2,2,05,21,00,000,44*5E
$LOGTIM,0,0.000000,0.000000,0.000000,0.000000,0.000*0A
EndT:        0
---00000072--- Acq_st=3 2019-5-25 07:14:22 
[00]  G28  f 38  -1607.8 2046002.1  1.0  0.9  5  0 544479762
[02]  G22  f 39    372.3 2045999.5  1.0  1.0  5  0 544479757
[16]  B08 1f 42    -69.8 4092000.2  1.0  1.0  5  0 544465710
[17]  B10 1f 39   -195.2 4092000.5  1.0  1.0  5  0 544465711
[18]  B11 1f 41    857.0 4091997.8  1.0  1.0  5  0 544465754
[19]  B13 1f 36   -459.0 4092001.2  1.0  1.0  5  0 544465706
[20]  B21 1f 44    599.2 4091998.4  1.0  1.0  5  0 544465746
$GNGGA,000000.000,,,,,0,00,,,M,,,,0000*2B
$GNRMC,000000.000,A,,,,,,,000000,,*26
$GPGSA,A,1,,,,,,,,,,,,,,,*1E
$BDGSA,A,1,,,,,,,,,,,,,,,*0F
$GPGSV,1,1,02,28,00,000,38,22,00,000,39*70
$BDGSV,2,1,05,08,00,000,42,10,00,000,39,11,00,000,41,13,00,000,36*69
$BDGSV,2,2,05,21,00,000,44*5E
$LOGTIM,0,0.000000,0.000000,0.000000,0.000000,0.000*0A
EndT:        0
---00000073--- Acq_st=3 2019-5-25 07:14:23 
[00]  G28  f 38  -1611.9 2046002.1  1.0  1.0  5  0 544480762
[02]  G22  f 38    368.4 2045999.5  1.0  1.0  5  0 544480757
[16]  B08 1f 43    -74.4 4092000.2  1.0  1.0  5  0 544466710
[17]  B10 1f 39   -198.9 4092000.5  1.0  1.0  5  0 544466711
[18]  B11 1f 42    853.2 4091997.8  1.0  1.0  5  0 544466754
[19]  B13 1f 36   -464.5 4092001.2  1.0  0.9  5  0 544466706
[20]  B21 1f 43    595.6 4091998.4  1.0  1.0  5  0 544466746
$GNGGA,000000.000,,,,,0,00,,,M,,,,0000*2B
$GNRMC,000000.000,A,,,,,,,000000,,*26
$GPGSA,A,1,,,,,,,,,,,,,,,*1E
$BDGSA,A,1,,,,,,,,,,,,,,,*0F
$GPGSV,1,1,02,28,00,000,38,22,00,000,38*71
$BDGSV,2,1,05,08,00,000,43,10,00,000,39,11,00,000,42,13,00,000,36*6B
$BDGSV,2,2,05,21,00,000,43*59
$LOGTIM,0,0.000000,0.000000,0.000000,0.000000,0.000*0A
EndT:        0
---00000074--- Acq_st=3 2019-5-25 07:14:24 
[00]  G28  f 38  -1612.2 2046002.0  1.0  1.0  5  0 544481762
[02]  G22  f 38    367.3 2045999.5  1.0  1.0  5  0 544481757
[16]  B08 1f 42    -75.3 4092000.2  1.0  1.0  5  0 544467710
[17]  B10 1f 39   -200.5 4092000.5  1.0  1.0  5  0 544467711
[18]  B11 1f 41    852.0 4091997.8  1.0  1.0  5  0 544467754
[19]  B13 1f 36   -463.6 4092001.3  1.0  0.9  5  0 544467706
[20]  B21 1f 43    595.0 4091998.4  1.0  1.0  5  0 544467746
$GNGGA,000000.000,,,,,0,00,,,M,,,,0000*2B
$GNRMC,000000.000,A,,,,,,,000000,,*26
$GPGSA,A,1,,,,,,,,,,,,,,,*1E
$BDGSA,A,1,,,,,,,,,,,,,,,*0F
$GPGSV,1,1,02,28,00,000,38,22,00,000,38*71
$BDGSV,2,1,05,08,00,000,42,10,00,000,39,11,00,000,41,13,00,000,36*69
$BDGSV,2,2,05,21,00,000,43*59
$LOGTIM,0,0.000000,0.000000,0.000000,0.000000,0.000*0A
EndT:        0
---00000075--- Acq_st=3 2019-5-25 07:14:25 
[00]  G28  f 39  -1611.2 2046002.1  1.0  1.0  5  0 544482762
[02]  G22  f 38    368.7 2045999.5  1.0  1.0  5  0 544482757
[16]  B08 1f 43    -75.3 4092000.2  1.0  1.0  5  0 544468710
[17]  B10 1f 39   -199.6 4092000.5  1.0  1.0  5  0 544468711
[18]  B11 1f 41    851.7 4091997.7  1.0  1.0  5  0 544468754
[19]  B13 1f 36   -464.3 4092001.2  1.0  1.0  5  0 544468706
[20]  B21 1f 43    595.3 4091998.5  1.0  1.0  5  0 544468746
$GNGGA,000000.000,,,,,0,00,,,M,,,,0000*2B
$GNRMC,000000.000,A,,,,,,,000000,,*26
$GPGSA,A,1,,,,,,,,,,,,,,,*1E
$BDGSA,A,1,,,,,,,,,,,,,,,*0F
$GPGSV,1,1,02,28,00,000,39,22,00,000,38*70
$BDGSV,2,1,05,08,00,000,43,10,00,000,39,11,00,000,41,13,00,000,36*68
$BDGSV,2,2,05,21,00,000,43*59
$LOGTIM,0,0.000000,0.000000,0.000000,0.000000,0.000*0A
EndT:        0
ch21 satid=64,max_freq = 1750,max_mean = 6795,max_phase = 1864,max_value = 66003,acq ok1!
acq ok1 timeH = 0,timeL = 1426109748,freq_stage = 2
---00000076--- Acq_st=3 2019-5-25 07:14:26 
[00]  G28  f 39  -1616.3 2046002.1  1.0  1.0  5  0 544483762
[02]  G22  f 39    364.2 2045999.5  1.0  1.0  5  0 544483757
[16]  B08 1f 42    -79.7 4092000.2  1.0  1.0  5  0 544469710
[17]  B10 1f 39   -204.1 4092000.5  1.0  1.0  5  0 544469711
[18]  B11 1f 41    847.9 4091997.8  1.0  1.0  5  0 544469754
[19]  B13 1f 36   -469.3 4092001.2  1.0  1.0  5  0 544469706
[20]  B21 1f 43    591.4 4091998.4  1.0  1.0  5  0 544469746
[21]  B28  1  7  -1774.0 4092005.4  0.0  0.0  1  0         0
$GNGGA,000000.000,,,,,0,00,,,M,,,,0000*2B
$GNRMC,000000.000,A,,,,,,,000000,,*26
$GPGSA,A,1,,,,,,,,,,,,,,,*1E
$BDGSA,A,1,,,,,,,,,,,,,,,*0F
$GPGSV,1,1,02,28,00,000,39,22,00,000,39*71
$BDGSV,2,1,05,08,00,000,42,10,00,000,39,11,00,000,41,13,00,000,36*69
$BDGSV,2,2,05,21,00,000,43*59
$LOGTIM,0,0.000000,0.000000,0.000000,0.000000,0.000*0A
EndT:        0
---00000077--- Acq_st=3 2019-5-25 07:14:27 
[00]  G28  f 39  -1618.4 2046002.2  1.0  1.0  5  0 544484762
[02]  G22  f 38    361.9 2045999.5  1.0  1.0  5  0 544484757
[16]  B08 1f 43    -82.3 4092000.2  1.0  1.0  5  0 544470710
[17]  B10 1f 39   -207.0 4092000.5  1.0  1.0  5  0 544470711
[18]  B11 1f 42    844.4 4091997.8  1.0  1.0  5  0 544470754
[19]  B13 1f 36   -471.3 4092001.2  1.0  1.0  5  0 544470706
[20]  B21 1f 43    589.3 4091998.4  1.0  1.0  5  0 544470746
[21]  B28  7 14  -1781.2 4092004.6  0.1  0.0 20  0       526
$GNGGA,000000.000,,,,,0,00,,,M,,,,0000*2B
$GNRMC,000000.000,A,,,,,,,000000,,*26
$GPGSA,A,1,,,,,,,,,,,,,,,*1E
$BDGSA,A,1,,,,,,,,,,,,,,,*0F
$GPGSV,1,1,02,28,00,000,39,22,00,000,38*70
$BDGSV,2,1,06,08,00,000,43,10,00,000,39,11,00,000,42,13,00,000,36*68
$BDGSV,2,2,06,21,00,000,43,28,00,000,14*65
$LOGTIM,0,0.000000,0.000000,0.000000,0.000000,0.000*0A
EndT:        0
---00000078--- Acq_st=3 2019-5-25 07:14:28 
[00]  G28  f 38  -1617.7 2046002.1  1.0  1.0  5  0 544485762
[02]  G22  f 38    363.2 2045999.5  1.0  1.0  5  0 544485757
[16]  B08 1f 42    -82.2 4092000.2  1.0  1.0  5  0 544471710
[17]  B10 1f 39   -206.7 4092000.5  1.0  1.0  5  0 544471711
[18]  B11 1f 42    844.7 4091997.8  1.0  1.0  5  0 544471754
[19]  B13 1f 36   -471.0 4092001.3  1.0  1.0  5  0 544471706
[20]  B21 1f 43    589.7 4091998.4  1.0  1.0  5  0 544471746
[21]  B28  7 38  -1780.7 4092004.7  0.9  1.0  5  0      1512
$GNGGA,000000.000,,,,,0,00,,,M,,,,0000*2B
$GNRMC,000000.000,A,,,,,,,000000,,*26
$GPGSA,A,1,,,,,,,,,,,,,,,*1E
$BDGSA,A,1,,,,,,,,,,,,,,,*0F
$GPGSV,1,1,02,28,00,000,38,22,00,000,38*71
$BDGSV,2,1,06,08,00,000,42,10,00,000,39,11,00,000,42,13,00,000,36*69
$BDGSV,2,2,06,21,00,000,43,28,00,000,38*6B
$LOGTIM,0,0.000000,0.000000,0.000000,0.000000,0.000*0A
EndT:        0
---00000079--- Acq_st=3 2019-5-25 07:14:29 
[00]  G28  f 38  -1617.5 2046002.1  1.0  1.0  5  0 544486762
[02]  G22  f 38    363.2 2045999.6  1.0  1.0  5  0 544486757
[16]  B08 1f 42    -82.2 4092000.2  1.0  1.0  5  0 544472710
[17]  B10 1f 39   -206.8 4092000.5  1.0  0.9  5  0 544472711
[18]  B11 1f 41    844.7 4091997.8  1.0  1.0  5  0 544472754
[19]  B13 1f 36   -471.5 4092001.3  1.0  1.0  5  0 544472706
[20]  B21 1f 43    590.0 4091998.5  1.0  1.0  5  0 544472746
[21]  B28  7 38  -1781.1 4092004.6  1.0  1.0  5  0      2512
$GNGGA,000000.000,,,,,0,00,,,M,,,,0000*2B
$GNRMC,000000.000,A,,,,,,,000000,,*26
$GPGSA,A,1,,,,,,,,,,,,,,,*1E
$BDGSA,A,1,,,,,,,,,,,,,,,*0F
$GPGSV,1,1,02,28,00,000,38,22,00,000,38*71
$BDGSV,2,1,06,08,00,000,42,10,00,000,39,11,00,000,41,13,00,000,36*6A
$BDGSV,2,2,06,21,00,000,43,28,00,000,38*6B
$LOGTIM,0,0.000000,0.000000,0.000000,0.000000,0.000*0A
EndT:        0
---00000080--- Acq_st=3 2019-5-25 07:14:30 
[00]  G28  f 38  -1612.8 2046002.1  1.0  1.0  5  0 544487762
[02]  G22  f 38    367.9 2045999.5  1.0  1.0  5  0 544487757
[16]  B08 1f 43    -77.9 4092000.2  1.0  1.0  5  0 544473710
[17]  B10 1f 39   -202.0 4092000.5  1.0  1.0  5  0 544473711
[18]  B11 1f 42    848.9 4091997.7  1.0  1.0  5  0 544473754
[19]  B13 1f 36   -467.4 4092001.1  1.0  1.0  5  0 544473706
[20]  B21 1f 43    594.7 4091998.4  1.0  1.0  5  0 544473746
[21]  B28  7 38  -1776.5 4092004.6  1.0  1.0  5  0      3512
$GNGGA,000000.000,,,,,0,00,,,M,,,,0000*2B
$GNRMC,000000.000,A,,,,,,,000000,,*26
$GPGSA,A,1,,,,,,,,,,,,,,,*1E
$BDGSA,A,1,,,,,,,,,,,,,,,*0F
$GPGSV,1,1,02,28,00,000,38,22,00,000,38*71
$BDGSV,2,1,06,08,00,000,43,10,00,000,39,11,00,000,42,13,00,000,36*68
$BDGSV,2,2,06,21,00,000,43,28,00,000,38*6B
$LOGTIM,0,0.000000,0.000000,0.000000,0.000000,0.000*0A
EndT:        0
---00000081--- Acq_st=3 2019-5-25 07:14:31 
[00]  G28  f 38  -1612.7 2046002.1  1.0  1.0  5  0 544488762
[02]  G22  f 39    368.6 2045999.5  1.0  1.0  5  0 544488757
[16]  B08 1f 43    -78.3 4092000.2  1.0  1.0  5  0 544474710
[17]  B10 1f 39   -202.3 4092000.5  1.0  1.0  5  0 544474711
[18]  B11 1f 42    848.9 4091997.8  1.0  1.0  5  0 544474754
[19]  B13 1f 37   -467.4 4092001.2  1.0  0.9  5  0 544474706
[20]  B21 1f 43    595.2 4091998.4  1.0  1.0  5  0 544474746
[21]  B28  7 39  -1776.7 4092004.7  1.0  1.0  5  0      4512
$GNGGA,000000.000,,,,,0,00,,,M,,,,0000*2B
$GNRMC,000000.000,A,,,,,,,000000,,*26
$GPGSA,A,1,,,,,,,,,,,,,,,*1E
$BDGSA,A,1,,,,,,,,,,,,,,,*0F
$GPGSV,1,1,02,28,00,000,38,22,00,000,39*70
$BDGSV,2,1,06,08,00,000,43,10,00,000,39,11,00,000,42,13,00,000,37*69
$BDGSV,2,2,06,21,00,000,43,28,00,000,39*6A
$LOGTIM,0,0.000000,0.000000,0.000000,0.000000,0.000*0A
EndT:        0
---00000082--- Acq_st=3 2019-5-25 07:14:32 
[00]  G28  f 38  -1609.6 2046002.1  1.0  1.0  5  0 544489762
[02]  G22  f 39    372.2 2045999.5  1.0  1.0  5  0 544489757
[16]  B08 1f 43    -75.5 4092000.2  1.0  1.0  5  0 544475710
[17]  B10 1f 39   -198.6 4092000.5  1.0  1.0  5  0 544475711
[18]  B11 1f 41    851.9 4091997.8  1.0  1.0  5  0 544475754
[19]  B13 1f 36   -463.8 4092001.3  1.0  1.0  5  0 544475706
[20]  B21 1f 43    598.6 4091998.4  1.0  1.0  5  0 544475746
[21]  B28  7 38  -1773.1 4092004.6  1.0  1.0  5  0      5512
$GNGGA,000000.000,,,,,0,00,,,M,,,,0000*2B
$GNRMC,000000.000,A,,,,,,,000000,,*26
$GPGSA,A,1,,,,,,,,,,,,,,,*1E
$BDGSA,A,1,,,,,,,,,,,,,,,*0F
$GPGSV,1,1,02,28,00,000,38,22,00,000,39*70
$BDGSV,2,1,06,08,00,000,43,10,00,000,39,11,00,000,41,13,00,000,36*6B
$BDGSV,2,2,06,21,00,000,43,28,00,000,38*6B
$LOGTIM,0,0.000000,0.000000,0.000000,0.000000,0.000*0A
EndT:        0
---00000083--- Acq_st=7 2019-5-25 07:14:33 
[00]  G28  f 38  -1605.1 2046002.1  1.0  0.9  5  0 544490762
[02]  G22  f 39    375.9 2045999.5  1.0  1.0  5  0 544490757
[16]  B08 1f 43    -71.9 4092000.2  1.0  1.0  5  0 544476710
[17]  B10 1f 39   -195.6 4092000.5  1.0  1.0  5  0 544476711
[18]  B11 1f 42    854.9 4091997.7  1.0  1.0  5  0 544476754
[19]  B13 1f 36   -460.4 4092001.2  1.0  1.0  5  0 544476706
[20]  B21 1f 43    602.1 4091998.4  1.0  1.0  5  0 544476746
[21]  B28 1f 39  -1770.2 4092004.6  1.0  1.0  5  0      6512
$GNGGA,000000.000,,,,,0,00,,,M,,,,0000*2B
$GNRMC,000000.000,A,,,,,,,000000,,*26
$GPGSA,A,1,,,,,,,,,,,,,,,*1E
$BDGSA,A,1,,,,,,,,,,,,,,,*0F
$GPGSV,1,1,02,28,00,000,38,22,00,000,39*70
$BDGSV,2,1,06,08,00,000,43,10,00,000,39,11,00,000,42,13,00,000,36*68
$BDGSV,2,2,06,21,00,000,43,28,00,000,39*6A
$LOGTIM,0,0.000000,0.000000,0.000000,0.000000,0.000*0A
EndT:        0
---00000084--- Acq_st=7 2019-5-25 07:14:34 
[00]  G28  f 38  -1604.5 2046002.1  1.0  0.9  5  0 544491762
[02]  G22  f 39    377.0 2045999.5  1.0  1.0  5  0 544491757
[16]  B08 1f 43    -70.9 4092000.2  1.0  1.0  5  0 544477710
[17]  B10 1f 39   -195.2 4092000.5  1.0  1.0  5  0 544477711
[18]  B11 1f 42    855.8 4091997.7  1.0  1.0  5  0 544477754
[19]  B13 1f 36   -460.1 4092001.2  1.0  1.0  5  0 544477706
[20]  B21 1f 43    603.4 4091998.4  1.0  1.0  5  0 544477746
[21]  B28 1f 39  -1769.3 4092004.6  1.0  1.0  5  0 544477752
$GNGGA,000000.000,,,,,0,00,,,M,,,,0000*2B
$GNRMC,000000.000,A,,,,,,,000000,,*26
$GPGSA,A,1,,,,,,,,,,,,,,,*1E
$BDGSA,A,1,,,,,,,,,,,,,,,*0F
$GPGSV,1,1,02,28,00,000,38,22,00,000,39*70
$BDGSV,2,1,06,08,00,000,43,10,00,000,39,11,00,000,42,13,00,000,36*68
$BDGSV,2,2,06,21,00,000,43,28,00,000,39*6A
$LOGTIM,0,0.000000,0.000000,0.000000,0.000000,0.000*0A
EndT:        0
---00000085--- Acq_st=7 2019-5-25 07:14:35 
[00]  G28  f 38  -1604.4 2046002.1  1.0  0.9  5  0 544492762
[02]  G22  f 39    377.0 2045999.5  1.0  1.0  5  0 544492757
[16]  B08 1f 43    -71.9 4092000.2  1.0  1.0  5  0 544478710
[17]  B10 1f 39   -195.7 4092000.5  1.0  0.9  5  0 544478711
[18]  B11 1f 42    854.8 4091997.7  1.0  1.0  5  0 544478754
[19]  B13 1f 36   -461.3 4092001.3  1.0  1.0  5  0 544478706
[20]  B21 1f 43    603.1 4091998.4  1.0  1.0  5  0 544478746
[21]  B28 1f 39  -1769.7 4092004.6  1.0  1.0  5  0 544478752
$GNGGA,000000.000,,,,,0,00,,,M,,,,0000*2B
$GNRMC,000000.000,A,,,,,,,000000,,*26
$GPGSA,A,1,,,,,,,,,,,,,,,*1E
$BDGSA,A,1,,,,,,,,,,,,,,,*0F
$GPGSV,1,1,02,28,00,000,38,22,00,000,39*70
$BDGSV,2,1,06,08,00,000,43,10,00,000,39,11,00,000,42,13,00,000,36*68
$BDGSV,2,2,06,21,00,000,43,28,00,000,39*6A
$LOGTIM,0,0.000000,0.000000,0.000000,0.000000,0.000*0A
EndT:        0
---00000086--- Acq_st=3 2019-5-25 07:14:36 
[00]  G28  f 38  -1607.9 2046002.0  1.0  1.0  5  0 544493762
[02]  G22  f 39    373.9 2045999.5  1.0  1.0  5  0 544493757
[16]  B08 1f 43    -75.2 4092000.2  1.0  1.0  5  0 544479710
[17]  B10 1f 39   -199.0 4092000.5  1.0  1.0  5  0 544479711
[18]  B11 1f 42    852.0 4091997.8  1.0  1.0  5  0 544479754
[19]  B13 1f 35   -464.7 4092001.2  1.0  1.0  5  0 544479706
[20]  B21 1f 44    600.1 4091998.4  1.0  1.0  5  0 544479746
[21]  B28 1f 39  -1773.5 4092004.6  1.0  1.0  5  0 544479752
$GNGGA,000000.000,,,,,0,00,,,M,,,,0000*2B
$GNRMC,000000.000,A,,,,,,,000000,,*26
$GPGSA,A,1,,,,,,,,,,,,,,,*1E
$BDGSA,A,1,,,,,,,,,,,,,,,*0F
$GPGSV,1,1,02,28,00,000,38,22,00,000,39*70
$BDGSV,2,1,06,08,00,000,43,10,00,000,39,11,00,000,42,13,00,000,35*6B
$BDGSV,2,2,06,21,00,000,44,28,00,000,39*6D
$LOGTIM,0,0.000000,0.000000,0.000000,0.000000,0.000*0A
EndT:        0
---00000087--- Acq_st=3 2019-5-25 07:14:37 
[00]  G28  f 38  -1605.5 2046002.0  1.0  1.0  5  0 544494762
[02]  G22  f 39    376.3 2045999.5  1.0  1.0  5  0 544494757
[16]  B08 1f 43    -73.6 4092000.2  1.0  1.0  5  0 544480710
[17]  B10 1f 39   -197.2 4092000.5  1.0  1.0  5  0 544480711
[18]  B11 1f 42    853.5 4091997.7  1.0  1.0  5  0 544480754
[19]  B13 1f 35   -462.1 4092001.2  1.0  1.0  5  0 544480706
[20]  B21 1f 44    602.1 4091998.4  1.0  1.0  5  0 544480746
[21]  B28 1f 39  -1771.2 4092004.6  1.0  1.0  5  0 544480752
$GNGGA,000000.000,,,,,0,00,,,M,,,,0000*2B
$GNRMC,000000.000,A,,,,,,,000000,,*26
$GPGSA,A,1,,,,,,,,,,,,,,,*1E
$BDGSA,A,1,,,,,,,,,,,,,,,*0F
$GPGSV,1,1,02,28,00,000,38,22,00,000,39*70
$BDGSV,2,1,06,08,00,000,43,10,00,000,39,11,00,000,42,13,00,000,35*6B
$BDGSV,2,2,06,21,00,000,44,28,00,000,39*6D
$LOGTIM,0,0.000000,0.000000,0.000000,0.000000,0.000*0A
EndT:        0
---00000088--- Acq_st=3 2019-5-25 07:14:38 
[00]  G28  f 38  -1610.1 2046002.1  1.0  0.9  5  0 544495762
[02]  G22  f 39    371.7 2045999.5  1.0  1.0  5  0 544495757
[16]  B08 1f 43    -79.2 4092000.2  1.0  1.0  5  0 544481710
[17]  B10 1f 39   -202.0 4092000.5  1.0  1.0  5  0 544481711
[18]  B11 1f 42    847.9 4091997.8  1.0  1.0  5  0 544481754
[19]  B13 1f 35   -467.8 4092001.2  1.0  1.0  5  0 544481706
[20]  B21 1f 43    597.5 4091998.4  1.0  1.0  5  0 544481746
[21]  B28 1f 40  -1777.0 4092004.6  1.0  1.0  5  0 544481752
$GNGGA,000000.000,,,,,0,00,,,M,,,,0000*2B
$GNRMC,000000.000,A,,,,,,,000000,,*26
$GPGSA,A,1,,,,,,,,,,,,,,,*1E
$BDGSA,A,1,,,,,,,,,,,,,,,*0F
$GPGSV,1,1,02,28,00,000,38,22,00,000,39*70
$BDGSV,2,1,06,08,00,000,43,10,00,000,39,11,00,000,42,13,00,000,35*6B
$BDGSV,2,2,06,21,00,000,43,28,00,000,40*64
$LOGTIM,0,0.000000,0.000000,0.000000,0.000000,0.000*0A
EndT:        0
---00000089--- Acq_st=3 2019-5-25 07:14:39 
[00]  G28  f 38  -1610.3 2046002.1  1.0  1.0  5  0 544496762
[02]  G22  f 39    371.6 2045999.5  1.0  1.0  5  0 544496757
[16]  B08 1f 43    -79.1 4092000.2  1.0  1.0  5  0 544482710
[17]  B10 1f 39   -202.5 4092000.5  1.0  1.0  5  0 544482711
[18]  B11 1f 42    848.0 4091997.8  1.0  1.0  5  0 544482754
[19]  B13 1f 36   -467.7 4092001.2  1.0  1.0  5  0 544482706
[20]  B21 1f 43    597.8 4091998.4  1.0  1.0  5  0 544482746
[21]  B28 1f 40  -1776.8 4092004.7  1.0  1.0  5  0 544482752
$GNGGA,000000.000,,,,,0,00,,,M,,,,0000*2B
$GNRMC,000000.000,A,,,,,,,000000,,*26
$GPGSA,A,1,,,,,,,,,,,,,,,*1E
$BDGSA,A,1,,,,,,,,,,,,,,,*0F
$GPGSV,1,1,02,28,00,000,38,22,00,000,39*70
$BDGSV,2,1,06,08,00,000,43,10,00,000,39,11,00,000,42,13,00,000,36*68
$BDGSV,2,2,06,21,00,000,43,28,00,000,40*64
$LOGTIM,0,0.000000,0.000000,0.000000,0.000000,0.000*0A
EndT:        0
---00000090--- Acq_st=3 2019-5-25 07:14:40 
[00]  G28  f 39  -1606.8 2046002.1  1.0  1.0  5  0 544497762
[02]  G22  f 39    375.8 2045999.5  1.0  1.0  5  0 544497757
[16]  B08 1f 43    -76.2 4092000.2  1.0  1.0  5  0 544483710
[17]  B10 1f 39   -199.0 4092000.5  1.0  1.0  5  0 544483711
[18]  B11 1f 42    850.9 4091997.8  1.0  1.0  5  0 544483754
[19]  B13 1f 35   -464.7 4092001.3  1.0  1.0  5  0 544483706
[20]  B21 1f 43    600.7 4091998.4  1.0  1.0  5  0 544483746
[21]  B28 1f 40  -1774.0 4092004.6  1.0  1.0  5  0 544483752
$GNGGA,000000.000,,,,,0,00,,,M,,,,0000*2B
$GNRMC,000000.000,A,,,,,,,000000,,*26
$GPGSA,A,1,,,,,,,,,,,,,,,*1E
$BDGSA,A,1,,,,,,,,,,,,,,,*0F
$GPGSV,1,1,02,28,00,000,39,22,00,000,39*71
$BDGSV,2,1,06,08,00,000,43,10,00,000,39,11,00,000,42,13,00,000,35*6B
$BDGSV,2,2,06,21,00,000,43,28,00,000,40*64
$LOGTIM,0,0.000000,0.000000,0.000000,0.000000,0.000*0A
EndT:        0
---00000091--- Acq_st=3 2019-5-25 07:14:41 
[00]  G28  f 39  -1609.8 2046002.1  1.0  1.0  5  0 544498762
[02]  G22  f 39    372.9 2045999.6  1.0  1.0  5  0 544498757
[16]  B08 1f 43    -79.6 4092000.2  1.0  1.0  5  0 544484710
[17]  B10 1f 39   -202.4 4092000.5  1.0  1.0  5  0 544484711
[18]  B11 1f 42    847.4 4091997.8  1.0  1.0  5  0 544484754
[19]  B13 1f 35   -468.5 4092001.2  1.0  1.0  5  0 544484706
[20]  B21 1f 44    598.0 4091998.4  1.0  1.0  5  0 544484746
[21]  B28 1f 41  -1777.2 4092004.6  1.0  1.0  5  0 544484752
$GNGGA,000000.000,,,,,0,00,,,M,,,,0000*2B
$GNRMC,000000.000,A,,,,,,,000000,,*26
$GPGSA,A,1,,,,,,,,,,,,,,,*1E
$BDGSA,A,1,,,,,,,,,,,,,,,*0F
$GPGSV,1,1,02,28,00,000,39,22,00,000,39*71
$BDGSV,2,1,06,08,00,000,43,10,00,000,39,11,00,000,42,13,00,000,35*6B
$BDGSV,2,2,06,21,00,000,44,28,00,000,41*62
$LOGTIM,0,0.000000,0.000000,0.000000,0.000000,0.000*0A
EndT:        0
---00000092--- Acq_st=3 2019-5-25 07:14:42 
[00]  G28  f 38  -1605.8 2046002.1  1.0  1.0  5  0 544499762
[02]  G22  f 39    377.0 2045999.5  1.0  1.0  5  0 544499757
[16]  B08 1f 43    -75.1 4092000.2  1.0  1.0  5  0 544485710
[17]  B10 1f 39   -198.6 4092000.5  1.0  1.0  5  0 544485711
[18]  B11 1f 42    851.7 4091997.8  1.0  1.0  5  0 544485754
[19]  B13 1f 35   -464.0 4092001.3  1.0  1.0  5  0 544485706
[20]  B21 1f 44    602.8 4091998.4  1.0  1.0  5  0 544485746
[21]  B28 1f 41  -1772.9 4092004.7  1.0  1.0  5  0 544485752
$GNGGA,000000.000,,,,,0,00,,,M,,,,0000*2B
$GNRMC,000000.000,A,,,,,,,000000,,*26
$GPGSA,A,1,,,,,,,,,,,,,,,*1E
$BDGSA,A,1,,,,,,,,,,,,,,,*0F
$GPGSV,1,1,02,28,00,000,38,22,00,000,39*70
$BDGSV,2,1,06,08,00,000,43,10,00,000,39,11,00,000,42,13,00,000,35*6B
$BDGSV,2,2,06,21,00,000,44,28,00,000,41*62
$LOGTIM,0,0.000000,0.000000,0.000000,0.000000,0.000*0A
EndT:        0
---00000093--- Acq_st=3 2019-5-25 07:14:43 
[00]  G28  f 39  -1607.0 2046002.1  1.0  1.0  5  0 544500762
[02]  G22  f 39    376.0 2045999.5  1.0  1.0  5  0 544500757
[16]  B08 1f 43    -77.5 4092000.2  1.0  1.0  5  0 544486710
[17]  B10 1f 39   -200.4 4092000.5  1.0  1.0  5  0 544486711
[18]  B11 1f 42    849.5 4091997.8  1.0  1.0  5  0 544486754
[19]  B13 1f 35   -465.5 4092001.2  1.0  1.0  5  0 544486706
[20]  B21 1f 43    601.1 4091998.4  1.0  1.0  5  0 544486746
[21]  B28 1f 41  -1775.4 4092004.6  1.0  1.0  5  0 544486752
$GNGGA,000000.000,,,,,0,00,,,M,,,,0000*2B
$GNRMC,000000.000,A,,,,,,,000000,,*26
$GPGSA,A,1,,,,,,,,,,,,,,,*1E
$BDGSA,A,1,,,,,,,,,,,,,,,*0F
$GPGSV,1,1,02,28,00,000,39,22,00,000,39*71
$BDGSV,2,1,06,08,00,000,43,10,00,000,39,11,00,000,42,13,00,000,35*6B
$BDGSV,2,2,06,21,00,000,43,28,00,000,41*65
$LOGTIM,0,0.000000,0.000000,0.000000,0.000000,0.000*0A
EndT:        0
---00000094--- Acq_st=3 2019-5-25 07:14:44 
[00]  G28  f 39  -1607.5 2046002.0  1.0  1.0  5  0 544501762
[02]  G22  f 39    375.1 2045999.5  1.0  1.0  5  0 544501757
[16]  B08 1f 43    -78.5 4092000.2  1.0  1.0  5  0 544487710
[17]  B10 1f 39   -201.3 4092000.5  1.0  1.0  5  0 544487711
