FlashID=0x1 0x20 0x18
BBram_blkflag1: 41f4: be0b
FW Ver: 1.30  
GPS00 Init Dop:   5000, 40
GPS01 Init Dop:   5000, 40
GPS02 Init Dop:   5000, 40
GPS03 Init Dop:   5000, 40
GPS04 Init Dop:   5000, 40
GPS05 Init Dop:   5000, 40
GPS06 Init Dop:   5000, 40
GPS07 Init Dop:   5000, 40
GPS08 Init Dop:   5000, 40
GPS09 Init Dop:   5000, 40
GPS10 Init Dop:   5000, 40
GPS11 Init Dop:   5000, 40
GPS12 Init Dop:   5000, 40
GPS13 Init Dop:   5000, 40
GPS14 Init Dop:   5000, 40
GPS15 Init Dop:   5000, 40
GPS16 Init Dop:   5000, 40
GPS17 Init Dop:   5000, 40
GPS18 Init Dop:   5000, 40
GPS19 Init Dop:   5000, 40
GPS20 Init Dop:   5000, 40
GPS21 Init Dop:   5000, 40
GPS22 Init Dop:   5000, 40
GPS23 Init Dop:   5000, 40
GPS24 Init Dop:   5000, 40
GPS25 Init Dop:   5000, 40
GPS26 Init Dop:   5000, 40
GPS27 Init Dop:   5000, 40
GPS28 Init Dop:   5000, 40
GPS29 Init Dop:   5000, 40
GPS30 Init Dop:   5000, 40
GPS31 Init Dop:   5000, 40
BDS00 Init Dop:   5000, 40
BDS01 Init Dop:   5000, 40
BDS02 Init Dop:   5000, 40
BDS03 Init Dop:   5000, 40
BDS04 Init Dop:   5000, 40
BDS05 Init Dop:   5000, 40
BDS06 Init Dop:   5000, 40
BDS07 Init Dop:   5000, 40
BDS08 Init Dop:   5000, 40
BDS09 Init Dop:   5000, 40
BDS10 Init Dop:   5000, 40
BDS11 Init Dop:   5000, 40
BDS12 Init Dop:   5000, 40
BDS13 Init Dop:   5000, 40
BDS14 Init Dop:   5000, 40
BDS15 Init Dop:   5000, 40
BDS16 Init Dop:   5000, 40
BDS17 Init Dop:   5000, 40
BDS18 Init Dop:   5000, 40
BDS19 Init Dop:   5000, 40
BDS20 Init Dop:   5000, 40
BDS21 Init Dop:   5000, 40
BDS22 Init Dop:   5000, 40
BDS23 Init Dop:   5000, 40
BDS24 Init Dop:   5000, 40
BDS25 Init Dop:   5000, 40
BDS26 Init Dop:   5000, 40
BDS27 Init Dop:   5000, 40
BDS28 Init Dop:   5000, 40
BDS29 Init Dop:   5000, 40
BDS30 Init Dop:   5000, 40
BDS31 Init Dop:   5000, 40
---00000001--- Acq_st=3 2019-5-25 03:13:16 
$GNGGA,000000.000,,,,,0,00,,,M,,,,0000*2B
$GNRMC,000000.000,A,,,,,,,000000,,*26
$GPGSA,A,1,,,,,,,,,,,,,,,*1E
$BDGSA,A,1,,,,,,,,,,,,,,,*0F
$LOGTIM,0,0.000000,0.000000,0.000000,0.000000,0.000*0A
EndT:        0
---00000002--- Acq_st=3 2019-5-25 03:13:17 
$GNGGA,000000.000,,,,,0,00,,,M,,,,0000*2B
$GNRMC,000000.000,A,,,,,,,000000,,*26
$GPGSA,A,1,,,,,,,,,,,,,,,*1E
$BDGSA,A,1,,,,,,,,,,,,,,,*0F
$LOGTIM,0,0.000000,0.000000,0.000000,0.000000,0.000*0A
EndT:        0
---00000003--- Acq_st=3 2019-5-25 03:13:18 
$GNGGA,000000.000,,,,,0,00,,,M,,,,0000*2B
$GNRMC,000000.000,A,,,,,,,000000,,*26
$GPGSA,A,1,,,,,,,,,,,,,,,*1E
$BDGSA,A,1,,,,,,,,,,,,,,,*0F
$LOGTIM,0,0.000000,0.000000,0.000000,0.000000,0.000*0A
EndT:        0
ch0 satid=3,max_freq = 0,max_mean = 32680,max_phase = 513,max_value = 205045,acq ok1!
acq ok1 timeH = 0,timeL = 58072668,freq_stage = 3
---00000004--- Acq_st=3 2019-5-25 03:13:19 
[00]  G04  1  7    -83.9 2046001.5  0.0  0.0  1  0         0
$GNGGA,000000.000,,,,,0,00,,,M,,,,0000*2B
$GNRMC,000000.000,A,,,,,,,000000,,*26
$GPGSA,A,1,,,,,,,,,,,,,,,*1E
$BDGSA,A,1,,,,,,,,,,,,,,,*0F
$LOGTIM,0,0.000000,0.000000,0.000000,0.000000,0.000*0A
EndT:        0
---00000005--- Acq_st=3 2019-5-25 03:13:20 
[00]  G04  7 15   -133.8 2046000.1  0.2  0.0 20  0         1
$GNGGA,000000.000,,,,,0,00,,,M,,,,0000*2B
$GNRMC,000000.000,A,,,,,,,000000,,*26
$GPGSA,A,1,,,,,,,,,,,,,,,*1E
$BDGSA,A,1,,,,,,,,,,,,,,,*0F
$GPGSV,1,1,01,04,00,000,15*48
$LOGTIM,0,0.000000,0.000000,0.000000,0.000000,0.000*0A
EndT:        0
---00000006--- Acq_st=3 2019-5-25 03:13:21 
[00]  G04  7 37   -132.3 2046000.2  0.9  1.0  5  0         2
$GNGGA,000000.000,,,,,0,00,,,M,,,,0000*2B
$GNRMC,000000.000,A,,,,,,,000000,,*26
$GPGSA,A,1,,,,,,,,,,,,,,,*1E
$BDGSA,A,1,,,,,,,,,,,,,,,*0F
$GPGSV,1,1,01,04,00,000,37*48
$LOGTIM,0,0.000000,0.000000,0.000000,0.000000,0.000*0A
EndT:        0
ch1 satid=6,max_freq = 3000,max_mean = 32985,max_phase = 1353,max_value = 857108,acq ok1!
acq ok1 timeH = 0,timeL = 105794977,freq_stage = 2
---00000007--- Acq_st=3 2019-5-25 03:13:22 
[00]  G04  7 36   -129.2 2046000.2  1.0  1.0  5  0         2
[01]  G07  1 19  -3163.9 2046005.8  0.0  0.0  1  0         0
$GNGGA,000000.000,,,,,0,00,,,M,,,,0000*2B
$GNRMC,000000.000,A,,,,,,,000000,,*26
$GPGSA,A,1,,,,,,,,,,,,,,,*1E
$BDGSA,A,1,,,,,,,,,,,,,,,*0F
$GPGSV,1,1,01,04,00,000,36*49
$LOGTIM,0,0.000000,0.000000,0.000000,0.000000,0.000*0A
EndT:        0
ch2 satid=7,max_freq = 500,max_mean = 32237,max_phase = 968,max_value = 787100,acq ok1!
acq ok1 timeH = 0,timeL = 126241932,freq_stage = 3
---00000008--- Acq_st=3 2019-5-25 03:13:23 
[00]  G04  7 37   -135.9 2046000.2  1.0  0.9  5  0         2
[01]  G07  7 28  -3183.3 2046004.1  0.2  0.0 10  0        18
[02]  G08  1 32   -482.3 2046001.5 -0.3  0.0  1  0         0
$GNGGA,000000.000,,,,,0,00,,,M,,,,0000*2B
$GNRMC,000000.000,A,,,,,,,000000,,*26
$GPGSA,A,1,,,,,,,,,,,,,,,*1E
$BDGSA,A,1,,,,,,,,,,,,,,,*0F
$GPGSV,1,1,02,04,00,000,37,07,00,000,28*76
$LOGTIM,0,0.000000,0.000000,0.000000,0.000000,0.000*0A
EndT:        0
---00000009--- Acq_st=3 2019-5-25 03:13:24 
[00]  G04  7 37   -137.6 2046000.2  1.0  1.0  5  0         2
[01]  G07  7 43  -3187.0 2046004.2  0.9  1.0  5  0         5
[02]  G08  7 30   -484.0 2046000.6  0.2  1.0  5  0        11
$GNGGA,000000.000,,,,,0,00,,,M,,,,0000*2B
$GNRMC,000000.000,A,,,,,,,000000,,*26
$GPGSA,A,1,,,,,,,,,,,,,,,*1E
$BDGSA,A,1,,,,,,,,,,,,,,,*0F
$GPGSV,1,1,03,04,00,000,37,07,00,000,43,08,00,000,30*41
$LOGTIM,0,0.000000,0.000000,0.000000,0.000000,0.000*0A
EndT:        0
---00000010--- Acq_st=3 2019-5-25 03:13:25 
[00]  G04  f 37   -133.6 2046000.2  1.0  1.0  5  0         2
[01]  G07  f 43  -3183.5 2046004.1  1.0  1.0  5  0         5
[02]  G08  f 42   -480.3 2046000.6  1.0  1.0  5  0        11
$GNGGA,000000.000,,,,,0,00,,,M,,,,0000*2B
$GNRMC,000000.000,A,,,,,,,000000,,*26
$GPGSA,A,1,,,,,,,,,,,,,,,*1E
$BDGSA,A,1,,,,,,,,,,,,,,,*0F
$GPGSV,1,1,03,04,00,000,37,07,00,000,43,08,00,000,42*44
$LOGTIM,0,0.000000,0.000000,0.000000,0.000000,0.000*0A
EndT:        0
---00000011--- Acq_st=3 2019-5-25 03:13:26 
[00]  G04  f 37   -127.9 2046000.1  1.0  1.0  5  0 530023462
[01]  G07  f 43  -3178.5 2046004.1  1.0  1.0  5  0 530023465
[02]  G08  f 43   -475.0 2046000.6  1.0  1.0  5  0 530023471
$GNGGA,000000.000,,,,,0,00,,,M,,,,0000*2B
$GNRMC,000000.000,A,,,,,,,000000,,*26
$GPGSA,A,1,,,,,,,,,,,,,,,*1E
$BDGSA,A,1,,,,,,,,,,,,,,,*0F
$GPGSV,1,1,03,04,00,000,37,07,00,000,43,08,00,000,43*45
$LOGTIM,0,0.000000,0.000000,0.000000,0.000000,0.000*0A
EndT:        0
---00000012--- Acq_st=3 2019-5-25 03:13:27 
[00]  G04  f 37   -127.6 2046000.1  1.0  1.0  5  0 530024462
[01]  G07  f 44  -3178.2 2046004.1  1.0  1.0  5  0 530024465
[02]  G08  f 43   -474.3 2046000.6  1.0  1.0  5  0 530024471
$GNGGA,000000.000,,,,,0,00,,,M,,,,0000*2B
$GNRMC,000000.000,A,,,,,,,000000,,*26
$GPGSA,A,1,,,,,,,,,,,,,,,*1E
$BDGSA,A,1,,,,,,,,,,,,,,,*0F
$GPGSV,1,1,03,04,00,000,37,07,00,000,44,08,00,000,43*42
$LOGTIM,0,0.000000,0.000000,0.000000,0.000000,0.000*0A
EndT:        0
---00000013--- Acq_st=3 2019-5-25 03:13:28 
[00]  G04  f 37   -120.4 2046000.2  1.0  1.0  5  0 530025462
[01]  G07  f 44  -3171.3 2046004.1  1.0  1.0  5  0 530025465
[02]  G08  f 42   -467.6 2046000.6  1.0  1.0  5  0 530025471
$GNGGA,000000.000,,,,,0,00,,,M,,,,0000*2B
$GNRMC,000000.000,A,,,,,,,000000,,*26
$GPGSA,A,1,,,,,,,,,,,,,,,*1E
$BDGSA,A,1,,,,,,,,,,,,,,,*0F
$GPGSV,1,1,03,04,00,000,37,07,00,000,44,08,00,000,42*43
$LOGTIM,0,0.000000,0.000000,0.000000,0.000000,0.000*0A
EndT:        0
---00000014--- Acq_st=3 2019-5-25 03:13:29 
[00]  G04  f 37   -117.1 2046000.2  1.0  1.0  5  0 530026462
[01]  G07  f 44  -3168.4 2046004.1  1.0  1.0  5  0 530026465
[02]  G08  f 42   -464.4 2046000.5  1.0  1.0  5  0 530026471
$GNGGA,000000.000,,,,,0,00,,,M,,,,0000*2B
$GNRMC,000000.000,A,,,,,,,000000,,*26
$GPGSA,A,1,,,,,,,,,,,,,,,*1E
$BDGSA,A,1,,,,,,,,,,,,,,,*0F
$GPGSV,1,1,03,04,00,000,37,07,00,000,44,08,00,000,42*43
$LOGTIM,0,0.000000,0.000000,0.000000,0.000000,0.000*0A
EndT:        0
ch3 satid=15,max_freq = -1500,max_mean = 30419,max_phase = 985,max_value = 493180,acq ok1!
acq ok1 timeH = 0,timeL = 265985064,freq_stage = 4
---00000015--- Acq_st=3 2019-5-25 03:13:30 
[00]  G04  f 37   -122.1 2046000.2  1.0  1.0  5  0 530027462
[01]  G07  f 44  -3173.8 2046004.1  1.0  1.0  5  0 530027465
[02]  G08  f 43   -469.7 2046000.6  1.0  1.0  5  0 530027471
[03]  G16  1 25   1384.6 2045998.1  0.0  0.0  1  0         0
$GNGGA,000000.000,,,,,0,00,,,M,,,,0000*2B
$GNRMC,000000.000,A,,,,,,,000000,,*26
$GPGSA,A,1,,,,,,,,,,,,,,,*1E
$BDGSA,A,1,,,,,,,,,,,,,,,*0F
$GPGSV,1,1,03,04,00,000,37,07,00,000,44,08,00,000,43*42
$LOGTIM,0,0.000000,0.000000,0.000000,0.000000,0.000*0A
EndT:        0
---00000016--- Acq_st=3 2019-5-25 03:13:31 
[00]  G04  f 36   -118.4 2046000.2  1.0  1.0  5  0 530028462
[01]  G07  f 44  -3170.2 2046004.1  1.0  1.0  5  0 530028465
[02]  G08  f 42   -465.5 2046000.6  1.0  1.0  5  0 530028471
[03]  G16  7 28   1388.5 2045998.2  0.3  1.0 10  0        10
$GNGGA,000000.000,,,,,0,00,,,M,,,,0000*2B
$GNRMC,000000.000,A,,,,,,,000000,,*26
$GPGSA,A,1,,,,,,,,,,,,,,,*1E
$BDGSA,A,1,,,,,,,,,,,,,,,*0F
$GPGSV,1,1,04,04,00,000,36,07,00,000,44,08,00,000,42,16,00,000,28*78
$LOGTIM,0,0.000000,0.000000,0.000000,0.000000,0.000*0A
EndT:        0
---00000017--- Acq_st=3 2019-5-25 03:13:32 
[00]  G04  f 36   -119.8 2046000.2  1.0  0.9  5  0 530029462
[01]  G07  f 43  -3172.1 2046004.1  1.0  1.0  5  0 530029465
[02]  G08  f 43   -467.5 2046000.6  1.0  1.0  5  0 530029471
[03]  G16  7 43   1386.2 2045998.2  0.9  1.0  5  0         5
$GNGGA,000000.000,,,,,0,00,,,M,,,,0000*2B
$GNRMC,000000.000,A,,,,,,,000000,,*26
$GPGSA,A,1,,,,,,,,,,,,,,,*1E
$BDGSA,A,1,,,,,,,,,,,,,,,*0F
$GPGSV,1,1,04,04,00,000,36,07,00,000,43,08,00,000,43,16,00,000,43*73
$LOGTIM,0,0.000000,0.000000,0.000000,0.000000,0.000*0A
EndT:        0
---00000018--- Acq_st=3 2019-5-25 03:13:33 
[00]  G04  f 36   -126.8 2046000.2  1.0  1.0  5  0 530030462
[01]  G07  f 43  -3178.5 2046004.1  1.0  1.0  5  0 530030465
[02]  G08  f 43   -473.6 2046000.6  1.0  1.0  5  0 530030471
[03]  G16  7 43   1379.7 2045998.2  1.0  1.0  5  0         5
$GNGGA,000000.000,,,,,0,00,,,M,,,,0000*2B
$GNRMC,000000.000,A,,,,,,,000000,,*26
$GPGSA,A,1,,,,,,,,,,,,,,,*1E
$BDGSA,A,1,,,,,,,,,,,,,,,*0F
$GPGSV,1,1,04,04,00,000,36,07,00,000,43,08,00,000,43,16,00,000,43*73
$LOGTIM,0,0.000000,0.000000,0.000000,0.000000,0.000*0A
EndT:        0
---00000019--- Acq_st=3 2019-5-25 03:13:34 
[00]  G04  f 36   -123.6 2046000.1  1.0  1.0  5  0 530031462
[01]  G07  f 43  -3176.0 2046004.1  1.0  1.0  5  0 530031465
[02]  G08  f 42   -471.0 2046000.6  1.0  1.0  5  0 530031471
[03]  G16  7 43   1381.8 2045998.2  1.0  1.0  5  0         5
$GNGGA,000000.000,,,,,0,00,,,M,,,,0000*2B
$GNRMC,000000.000,A,,,,,,,000000,,*26
$GPGSA,A,1,,,,,,,,,,,,,,,*1E
$BDGSA,A,1,,,,,,,,,,,,,,,*0F
$GPGSV,1,1,04,04,00,000,36,07,00,000,43,08,00,000,42,16,00,000,43*72
$LOGTIM,0,0.000000,0.000000,0.000000,0.000000,0.000*0A
EndT:        0
---00000020--- Acq_st=3 2019-5-25 03:13:35 
[00]  G04  f 36   -117.9 2046000.1  1.0  1.1  5  0 530032462
[01]  G07  f 44  -3170.4 2046004.1  1.0  1.0  5  0 530032465
[02]  G08  f 43   -465.2 2046000.6  1.0  1.0  5  0 530032471
[03]  G16  7 42   1387.4 2045998.2  1.0  1.0  5  0         5
$GNGGA,000000.000,,,,,0,00,,,M,,,,0000*2B
$GNRMC,000000.000,A,,,,,,,000000,,*26
$GPGSA,A,1,,,,,,,,,,,,,,,*1E
$BDGSA,A,1,,,,,,,,,,,,,,,*0F
$GPGSV,1,1,04,04,00,000,36,07,00,000,44,08,00,000,43,16,00,000,42*75
$LOGTIM,0,0.000000,0.000000,0.000000,0.000000,0.000*0A
EndT:        0
---00000021--- Acq_st=3 2019-5-25 03:13:36 
[00]  G04  f 36   -110.5 2046000.2  1.0  1.0  5  0 530033462
[01]  G07  f 44  -3164.1 2046004.1  1.0  1.0  5  0 530033465
[02]  G08  f 43   -458.0 2046000.6  1.0  1.0  5  0 530033471
[03]  G16  7 42   1393.3 2045998.2  1.0  1.0  5  0         5
$GNGGA,000000.000,,,,,0,00,,,M,,,,0000*2B
$GNRMC,000000.000,A,,,,,,,000000,,*26
$GPGSA,A,1,,,,,,,,,,,,,,,*1E
$BDGSA,A,1,,,,,,,,,,,,,,,*0F
$GPGSV,1,1,04,04,00,000,36,07,00,000,44,08,00,000,43,16,00,000,42*75
$LOGTIM,0,0.000000,0.000000,0.000000,0.000000,0.000*0A
EndT:        0
---00000022--- Acq_st=3 2019-5-25 03:13:37 
[00]  G04  f 35   -109.7 2046000.1  1.0  1.0  5  0 530034462
[01]  G07  f 44  -3163.8 2046004.1  1.0  1.0  5  0 530034465
[02]  G08  f 42   -458.2 2046000.6  1.0  1.0  5  0 530034471
[03]  G16  f 42   1393.7 2045998.2  1.0  1.0  5  0         5
$GNGGA,000000.000,,,,,0,00,,,M,,,,0000*2B
$GNRMC,000000.000,A,,,,,,,000000,,*26
$GPGSA,A,1,,,,,,,,,,,,,,,*1E
$BDGSA,A,1,,,,,,,,,,,,,,,*0F
$GPGSV,1,1,04,04,00,000,35,07,00,000,44,08,00,000,42,16,00,000,42*77
$LOGTIM,0,0.000000,0.000000,0.000000,0.000000,0.000*0A
EndT:        0
---00000023--- Acq_st=3 2019-5-25 03:13:38 
[00]  G04  f 35   -113.5 2046000.1  1.0  1.0  5  0 530035462
[01]  G07  f 44  -3167.1 2046004.1  1.0  1.0  5  0 530035465
[02]  G08  f 42   -461.0 2046000.6  1.0  1.0  5  0 530035471
[03]  G16  f 42   1390.2 2045998.2  1.0  1.0  5  0 530035465
$GNGGA,000000.000,,,,,0,00,,,M,,,,0000*2B
$GNRMC,000000.000,A,,,,,,,000000,,*26
$GPGSA,A,1,,,,,,,,,,,,,,,*1E
$BDGSA,A,1,,,,,,,,,,,,,,,*0F
$GPGSV,1,1,04,04,00,000,35,07,00,000,44,08,00,000,42,16,00,000,42*77
$LOGTIM,0,0.000000,0.000000,0.000000,0.000000,0.000*0A
EndT:        0
---00000024--- Acq_st=3 2019-5-25 03:13:39 
[00]  G04  f 35   -112.3 2046000.2  1.0  0.9  5  0 530036462
[01]  G07  f 43  -3166.3 2046004.1  1.0  1.0  5  0 530036465
[02]  G08  f 43   -460.2 2046000.6  1.0  1.0  5  0 530036471
[03]  G16  f 42   1390.8 2045998.2  1.0  1.0  5  0 530036465
ch4 satid=26,max_freq = -1750,max_mean = 30831,max_phase = 167,max_value = 934343,acq ok1!
acq ok1 timeH = 0,timeL = 453450532,freq_stage = 4
$GNGGA,000000.000,,,,,0,00,,,M,,,,0000*2B
$GNRMC,000000.000,A,,,,,,,000000,,*26
$GPGSA,A,1,,,,,,,,,,,,,,,*1E
$BDGSA,A,1,,,,,,,,,,,,,,,*0F
$GPGSV,1,1,04,04,00,000,35,07,00,000,43,08,00,000,43,16,00,000,42*71
$LOGTIM,0,0.000000,0.000000,0.000000,0.000000,0.000*0A
EndT:        0
---00000025--- Acq_st=3 2019-5-25 03:13:40 
[00]  G04  f 34   -110.6 2046000.1  1.0  0.9  5  0 530037462
[01]  G07  f 43  -3164.8 2046004.1  1.0  1.0  5  0 530037465
[02]  G08  f 43   -458.6 2046000.6  1.0  1.0  5  0 530037471
[03]  G16  f 43   1392.2 2045998.2  1.0  1.0  5  0 530037465
[04]  G27  1 30   1690.4 2045997.9 -0.1  0.0  1  0         7
$GNGGA,000000.000,,,,,0,00,,,M,,,,0000*2B
$GNRMC,000000.000,A,,,,,,,000000,,*26
$GPGSA,A,1,,,,,,,,,,,,,,,*1E
$BDGSA,A,1,,,,,,,,,,,,,,,*0F
$GPGSV,1,1,04,04,00,000,34,07,00,000,43,08,00,000,43,16,00,000,43*71
$LOGTIM,0,0.000000,0.000000,0.000000,0.000000,0.000*0A
EndT:        0
---00000026--- Acq_st=3 2019-5-25 03:13:41 
[00]  G04  f 35   -115.8 2046000.1  1.0  1.0  5  0 530038462
[01]  G07  f 43  -3170.4 2046004.1  1.0  1.0  5  0 530038465
[02]  G08  f 43   -463.9 2046000.6  1.0  1.0  5  0 530038471
[03]  G16  f 43   1386.4 2045998.2  1.0  1.0  5  0 530038465
[04]  G27  7 32   1688.9 2045997.8  0.2  1.0  5  0         7
$GNGGA,000000.000,,,,,0,00,,,M,,,,0000*2B
$GNRMC,000000.000,A,,,,,,,000000,,*26
$GPGSA,A,1,,,,,,,,,,,,,,,*1E
$BDGSA,A,1,,,,,,,,,,,,,,,*0F
$GPGSV,2,1,05,04,00,000,35,07,00,000,43,08,00,000,43,16,00,000,43*72
$GPGSV,2,2,05,27,00,000,32*48
$LOGTIM,0,0.000000,0.000000,0.000000,0.000000,0.000*0A
EndT:        0
ch5 satid=29,max_freq = 3750,max_mean = 31494,max_phase = 1038,max_value = 230717,acq ok1!
acq ok1 timeH = 0,timeL = 494363078,freq_stage = 1
---00000027--- Acq_st=3 2019-5-25 03:13:42 
[00]  G04  f 35   -120.5 2046000.2  1.0  0.9  5  0 530039462
[01]  G07  f 42  -3176.3 2046004.1  1.0  1.0  5  0 530039465
[02]  G08  f 43   -469.6 2046000.6  1.0  1.0  5  0 530039471
[03]  G16  f 43   1380.4 2045998.2  1.0  1.0  5  0 530039465
[04]  G27  7 45   1682.9 2045997.8  1.0  1.0  5  0        10
[05]  G30  1  7  -3771.3 2046005.8  0.0  0.0  1  0         0
$GNGGA,000000.000,,,,,0,00,,,M,,,,0000*2B
$GNRMC,000000.000,A,,,,,,,000000,,*26
$GPGSA,A,1,,,,,,,,,,,,,,,*1E
$BDGSA,A,1,,,,,,,,,,,,,,,*0F
$GPGSV,2,1,05,04,00,000,35,07,00,000,42,08,00,000,43,16,00,000,43*73
$GPGSV,2,2,05,27,00,000,45*48
$LOGTIM,0,0.000000,0.000000,0.000000,0.000000,0.000*0A
EndT:        0
---00000028--- Acq_st=3 2019-5-25 03:13:43 
[00]  G04  f 35   -119.9 2046000.2  1.0  1.0  5  0 530040462
[01]  G07  f 42  -3175.6 2046004.2  1.0  1.0  5  0 530040465
[02]  G08  f 43   -468.7 2046000.6  1.0  1.0  5  0 530040471
[03]  G16  f 43   1380.9 2045998.2  1.0  1.0  5  0 530040465
[04]  G27  f 45   1683.6 2045997.8  1.0  1.0  5  0        10
[05]  G30  7  7  -3816.3 2046005.1  0.2  0.0  5  0         3
$GNGGA,000000.000,,,,,0,00,,,M,,,,0000*2B
$GNRMC,000000.000,A,,,,,,,000000,,*26
$GPGSA,A,1,,,,,,,,,,,,,,,*1E
$BDGSA,A,1,,,,,,,,,,,,,,,*0F
$GPGSV,2,1,05,04,00,000,35,07,00,000,42,08,00,000,43,16,00,000,43*73
$GPGSV,2,2,05,27,00,000,45*48
$LOGTIM,0,0.000000,0.000000,0.000000,0.000000,0.000*0A
EndT:        0
---00000029--- Acq_st=3 2019-5-25 03:13:44 
[00]  G04  f 36   -113.4 2046000.1  1.0  1.0  5  0 530041462
[01]  G07  f 42  -3168.2 2046004.1  1.0  1.0  5  0 530041465
[02]  G08  f 42   -461.5 2046000.6  1.0  1.0  5  0 530041471
[03]  G16  f 43   1387.7 2045998.2  1.0  1.0  5  0 530041465
[04]  G27  f 45   1690.7 2045997.8  1.0  1.0  5  0 530041470
[05]  G30  7 37  -3809.7 2046005.0  0.3  0.9  5  0        16
$GNGGA,000000.000,,,,,0,00,,,M,,,,0000*2B
$GNRMC,000000.000,A,,,,,,,000000,,*26
$GPGSA,A,1,,,,,,,,,,,,,,,*1E
$BDGSA,A,1,,,,,,,,,,,,,,,*0F
$GPGSV,2,1,06,04,00,000,36,07,00,000,42,08,00,000,42,16,00,000,43*72
$GPGSV,2,2,06,27,00,000,45,30,00,000,37*7C
$LOGTIM,0,0.000000,0.000000,0.000000,0.000000,0.000*0A
EndT:        0
---00000030--- Acq_st=3 2019-5-25 03:13:45 
[00]  G04  f 37   -109.2 2046000.1  1.0  1.0  5  0 530042462
[01]  G07  f 43  -3164.9 2046004.2  1.0  1.0  5  0 530042465
[02]  G08  f 43   -458.0 2046000.6  1.0  1.0  5  0 530042471
[03]  G16  f 43   1391.1 2045998.2  1.0  1.0  5  0 530042465
[04]  G27  f 45   1694.2 2045997.8  1.0  1.0  5  0 530042470
[05]  G30  7 38  -3806.8 2046004.9  1.0  0.9  5  0        16
$GNGGA,000000.000,,,,,0,00,,,M,,,,0000*2B
$GNRMC,000000.000,A,,,,,,,000000,,*26
$GPGSA,A,1,,,,,,,,,,,,,,,*1E
$BDGSA,A,1,,,,,,,,,,,,,,,*0F
$GPGSV,2,1,06,04,00,000,37,07,00,000,43,08,00,000,43,16,00,000,43*73
$GPGSV,2,2,06,27,00,000,45,30,00,000,38*73
$LOGTIM,0,0.000000,0.000000,0.000000,0.000000,0.000*0A
EndT:        0
---00000031--- Acq_st=3 2019-5-25 03:13:46 
[00]  G04  f 36   -111.4 2046000.1  1.0  1.0  5  0 530043462
[01]  G07  f 43  -3167.3 2046004.1  1.0  1.0  5  0 530043465
[02]  G08  f 42   -460.0 2046000.6  1.0  1.0  5  0 530043471
[03]  G16  f 43   1388.1 2045998.2  1.0  1.0  5  0 530043465
[04]  G27  f 45   1692.0 2045997.8  1.0  1.0  5  0 530043470
[05]  G30  7 37  -3808.8 2046005.0  1.0  1.0  5  0        16
$GNGGA,000000.000,,,,,0,00,,,M,,,,0000*2B
$GNRMC,000000.000,A,,,,,,,000000,,*26
$GPGSA,A,1,,,,,,,,,,,,,,,*1E
$BDGSA,A,1,,,,,,,,,,,,,,,*0F
$GPGSV,2,1,06,04,00,000,36,07,00,000,43,08,00,000,42,16,00,000,43*73
$GPGSV,2,2,06,27,00,000,45,30,00,000,37*7C
$LOGTIM,0,0.000000,0.000000,0.000000,0.000000,0.000*0A
EndT:        0
---00000032--- Acq_st=3 2019-5-25 03:13:47 
[00]  G04  f 37   -112.3 2046000.1  1.0  1.0  5  0 530044462
[01]  G07  f 43  -3167.8 2046004.1  1.0  1.0  5  0 530044465
[02]  G08  f 43   -460.9 2046000.6  1.0  1.0  5  0 530044471
[03]  G16  f 43   1387.3 2045998.2  1.0  1.0  5  0 530044465
[04]  G27  f 44   1691.2 2045997.8  1.0  1.0  5  0 530044470
[05]  G30  7 37  -3810.2 2046004.9  1.0  1.0  5  0        16
$GNGGA,000000.000,,,,,0,00,,,M,,,,0000*2B
$GNRMC,000000.000,A,,,,,,,000000,,*26
$GPGSA,A,1,,,,,,,,,,,,,,,*1E
$BDGSA,A,1,,,,,,,,,,,,,,,*0F
$GPGSV,2,1,06,04,00,000,37,07,00,000,43,08,00,000,43,16,00,000,43*73
$GPGSV,2,2,06,27,00,000,44,30,00,000,37*7D
$LOGTIM,0,0.000000,0.000000,0.000000,0.000000,0.000*0A
EndT:        0
---00000033--- Acq_st=3 2019-5-25 03:13:48 
[00]  G04  f 37   -116.2 2046000.1  1.0  1.0  5  0 530045462
[01]  G07  f 43  -3172.4 2046004.1  1.0  1.0  5  0 530045465
[02]  G08  f 42   -464.4 2046000.6  1.0  1.0  5  0 530045471
[03]  G16  f 42   1383.0 2045998.2  1.0  1.0  5  0 530045465
[04]  G27  f 45   1687.0 2045997.8  1.0  1.0  5  0 530045470
[05]  G30  7 37  -3815.1 2046005.0  1.0  1.0  5  0        16
$GNGGA,000000.000,,,,,0,00,,,M,,,,0000*2B
$GNRMC,000000.000,A,,,,,,,000000,,*26
$GPGSA,A,1,,,,,,,,,,,,,,,*1E
$BDGSA,A,1,,,,,,,,,,,,,,,*0F
$GPGSV,2,1,06,04,00,000,37,07,00,000,43,08,00,000,42,16,00,000,42*73
$GPGSV,2,2,06,27,00,000,45,30,00,000,37*7C
$LOGTIM,0,0.000000,0.000000,0.000000,0.000000,0.000*0A
EndT:        0
---00000034--- Acq_st=3 2019-5-25 03:13:49 
[00]  G04  f 37   -117.1 2046000.1  1.0  0.9  5  0 530046462
[01]  G07  f 43  -3173.2 2046004.1  1.0  1.0  5  0 530046465
[02]  G08  f 42   -465.7 2046000.6  1.0  1.0  5  0 530046471
[03]  G16  f 43   1381.6 2045998.2  1.0  1.0  5  0 530046465
[04]  G27  f 44   1685.9 2045997.8  1.0  1.0  5  0 530046470
[05]  G30  f 38  -3816.1 2046005.0  1.0  1.0  5  0        16
$GNGGA,000000.000,,,,,0,00,,,M,,,,0000*2B
$GNRMC,000000.000,A,,,,,,,000000,,*26
$GPGSA,A,1,,,,,,,,,,,,,,,*1E
$BDGSA,A,1,,,,,,,,,,,,,,,*0F
$GPGSV,2,1,06,04,00,000,37,07,00,000,43,08,00,000,42,16,00,000,43*72
$GPGSV,2,2,06,27,00,000,44,30,00,000,38*72
$LOGTIM,0,0.000000,0.000000,0.000000,0.000000,0.000*0A
EndT:        0
---00000035--- Acq_st=3 2019-5-25 03:13:50 
[00]  G04  f 37   -111.4 2046000.1  1.0  1.0  5  0 530047462
[01]  G07  f 44  -3168.9 2046004.1  1.0  1.0  5  0 530047465
[02]  G08  f 43   -460.7 2046000.6  1.0  1.0  5  0 530047471
[03]  G16  f 42   1386.3 2045998.2  1.0  1.0  5  0 530047465
[04]  G27  f 44   1690.6 2045997.8  1.0  1.0  5  0 530047470
[05]  G30  f 37  -3811.2 2046005.0  1.0  1.0  5  0 530047456
$GNGGA,000000.000,,,,,0,00,,,M,,,,0000*2B
$GNRMC,000000.000,A,,,,,,,000000,,*26
$GPGSA,A,1,,,,,,,,,,,,,,,*1E
$BDGSA,A,1,,,,,,,,,,,,,,,*0F
$GPGSV,2,1,06,04,00,000,37,07,00,000,44,08,00,000,43,16,00,000,42*75
$GPGSV,2,2,06,27,00,000,44,30,00,000,37*7D
$LOGTIM,0,0.000000,0.000000,0.000000,0.000000,0.000*0A
EndT:        0
---00000036--- Acq_st=3 2019-5-25 03:13:51 
[00]  G04  f 37   -108.5 2046000.1  1.0  0.9  5  0 530048462
[01]  G07  f 44  -3165.7 2046004.1  1.0  1.0  5  0 530048465
[02]  G08  f 43   -457.4 2046000.6  1.0  1.0  5  0 530048471
[03]  G16  f 43   1389.0 2045998.2  1.0  1.0  5  0 530048465
[04]  G27  f 45   1693.8 2045997.8  1.0  1.0  5  0 530048470
[05]  G30  f 38  -3808.9 2046004.9  1.0  1.0  5  0 530048456
$GNGGA,000000.000,,,,,0,00,,,M,,,,0000*2B
$GNRMC,000000.000,A,,,,,,,000000,,*26
$GPGSA,A,1,,,,,,,,,,,,,,,*1E
$BDGSA,A,1,,,,,,,,,,,,,,,*0F
$GPGSV,2,1,06,04,00,000,37,07,00,000,44,08,00,000,43,16,00,000,43*74
$GPGSV,2,2,06,27,00,000,45,30,00,000,38*73
$LOGTIM,0,0.000000,0.000000,0.000000,0.000000,0.000*0A
EndT:        0
---00000037--- Acq_st=3 2019-5-25 03:13:52 
[00]  G04  f 37   -111.6 2046000.2  1.0  1.0  5  0 530049462
[01]  G07  f 43  -3169.4 2046004.1  1.0  1.0  5  0 530049465
[02]  G08  f 42   -461.0 2046000.6  1.0  1.0  5  0 530049471
[03]  G16  f 43   1384.9 2045998.2  1.0  1.0  5  0 530049465
[04]  G27  f 45   1690.1 2045997.8  1.0  1.0  5  0 530049470
[05]  G30  f 38  -3812.7 2046004.9  1.0  1.0  5  0 530049456
$GNGGA,000000.000,,,,,0,00,,,M,,,,0000*2B
$GNRMC,000000.000,A,,,,,,,000000,,*26
$GPGSA,A,1,,,,,,,,,,,,,,,*1E
$BDGSA,A,1,,,,,,,,,,,,,,,*0F
$GPGSV,2,1,06,04,00,000,37,07,00,000,43,08,00,000,42,16,00,000,43*72
$GPGSV,2,2,06,27,00,000,45,30,00,000,38*73
$LOGTIM,0,0.000000,0.000000,0.000000,0.000000,0.000*0A
EndT:        0
---00000038--- Acq_st=3 2019-5-25 03:13:53 
[00]  G04  f 37   -114.4 2046000.2  1.0  1.0  5  0 530050462
[01]  G07  f 43  -3172.4 2046004.1  1.0  1.0  5  0 530050465
[02]  G08  f 42   -464.1 2046000.6  1.0  1.0  5  0 530050471
[03]  G16  f 43   1381.9 2045998.2  1.0  1.0  5  0 530050465
[04]  G27  f 45   1686.8 2045997.8  1.0  1.0  5  0 530050470
[05]  G30  f 38  -3815.7 2046004.9  1.0  1.0  5  0 530050456
$GNGGA,000000.000,,,,,0,00,,,M,,,,0000*2B
$GNRMC,000000.000,A,,,,,,,000000,,*26
$GPGSA,A,1,,,,,,,,,,,,,,,*1E
$BDGSA,A,1,,,,,,,,,,,,,,,*0F
$GPGSV,2,1,06,04,00,000,37,07,00,000,43,08,00,000,42,16,00,000,43*72
$GPGSV,2,2,06,27,00,000,45,30,00,000,38*73
$LOGTIM,0,0.000000,0.000000,0.000000,0.000000,0.000*0A
EndT:        0
---00000039--- Acq_st=3 2019-5-25 03:13:54 
[00]  G04  f 37   -112.5 2046000.1  1.0  0.9  5 3f 530051462
[01]  G07  f 43  -3171.1 2046004.1  1.0  1.0  5  0 530051465
[02]  G08  f 42   -462.0 2046000.6  1.0  1.0  5  0 530051471
[03]  G16  f 43   1383.3 2045998.2  1.0  1.0  5  0 530051465
[04]  G27  f 45   1689.0 2045997.8  1.0  1.0  5  0 530051470
[05]  G30  f 38  -3814.7 2046005.0  1.0  1.0  5  0 530051456
$GNGGA,000000.000,,,,,0,00,,,M,,,,0000*2B
$GNRMC,000000.000,A,,,,,,,000000,,*26
$GPGSA,A,1,,,,,,,,,,,,,,,*1E
$BDGSA,A,1,,,,,,,,,,,,,,,*0F
$GPGSV,2,1,06,04,00,000,37,07,00,000,43,08,00,000,42,16,00,000,43*72
$GPGSV,2,2,06,27,00,000,45,30,00,000,38*73
$LOGTIM,0,0.000000,0.000000,0.000000,0.000000,0.000*0A
EndT:        0
---00000040--- Acq_st=3 2019-5-25 03:13:55 
[00]  G04  f 37   -110.9 2046000.1  1.0  0.9  5 3f 530052462
[01]  G07  f 43  -3169.7 2046004.1  1.0  1.0  5  0 530052465
[02]  G08  f 41   -460.2 2046000.6  1.0  1.0  5  0 530052471
[03]  G16  f 43   1384.6 2045998.2  1.0  1.0  5  0 530052465
[04]  G27  f 44   1690.3 2045997.8  1.0  1.0  5  0 530052470
[05]  G30  f 39  -3812.9 2046005.0  1.0  1.0  5  0 530052456
$GNGGA,000000.000,,,,,0,00,,,M,,,,0000*2B
$GNRMC,000000.000,A,,,,,,,000000,,*26
$GPGSA,A,1,,,,,,,,,,,,,,,*1E
$BDGSA,A,1,,,,,,,,,,,,,,,*0F
$GPGSV,2,1,06,04,00,000,37,07,00,000,43,08,00,000,41,16,00,000,43*71
$GPGSV,2,2,06,27,00,000,44,30,00,000,39*73
$LOGTIM,0,0.000000,0.000000,0.000000,0.000000,0.000*0A
EndT:        0
ch16 satid=43,max_freq = 750,max_mean = 5780,max_phase = 2154,max_value = 53407,acq ok1!
acq ok1 timeH = 0,timeL = 761679538,freq_stage = 3
---00000041--- Acq_st=3 2019-5-25 03:13:56 
[00]  G04  f 37   -110.9 2046000.2  1.0  0.9  5 3f 530053462
[01]  G07  f 43  -3169.4 2046004.1  1.0  1.0  5  0 530053465
[02]  G08  f 42   -459.9 2046000.6  1.0  1.0  5  0 530053471
[03]  G16  f 43   1384.6 2045998.2  1.0  1.0  5  0 530053465
[04]  G27  f 44   1690.4 2045997.8  1.0  1.0  5  0 530053470
[05]  G30  f 38  -3813.1 2046004.9  1.0  0.9  5  0 530053456
[16]  B07  1  7   -709.8 4092000.4 -0.0  0.0  1  0         0
$GNGGA,000000.000,,,,,0,00,,,M,,,,0000*2B
$GNRMC,000000.000,A,,,,,,,000000,,*26
$GPGSA,A,1,,,,,,,,,,,,,,,*1E
$BDGSA,A,1,,,,,,,,,,,,,,,*0F
$GPGSV,2,1,06,04,00,000,37,07,00,000,43,08,00,000,42,16,00,000,43*72
$GPGSV,2,2,06,27,00,000,44,30,00,000,38*72
$LOGTIM,0,0.000000,0.000000,0.000000,0.000000,0.000*0A
EndT:        0
---00000042--- Acq_st=3 2019-5-25 03:13:57 
[00]  G04  f 37   -109.7 2046000.1  1.0  1.0  5 3f 530054462
[01]  G07  f 43  -3169.3 2046004.1  1.0  1.0  5  0 530054465
[02]  G08  f 41   -459.7 2046000.6  1.0  1.0  5  0 530054471
[03]  G16  f 43   1384.5 2045998.2  1.0  1.0  5  0 530054465
[04]  G27  f 44   1690.7 2045997.8  1.0  1.0  5  0 530054470
[05]  G30  f 39  -3813.1 2046005.0  1.0  1.0  5  0 530054456
[16]  B07  1  7   -662.9 4092001.8  0.1  0.0  1  0       273
$GNGGA,000000.000,,,,,0,00,,,M,,,,0000*2B
$GNRMC,000000.000,A,,,,,,,000000,,*26
$GPGSA,A,1,,,,,,,,,,,,,,,*1E
$BDGSA,A,1,,,,,,,,,,,,,,,*0F
$GPGSV,2,1,06,04,00,000,37,07,00,000,43,08,00,000,41,16,00,000,43*71
$GPGSV,2,2,06,27,00,000,44,30,00,000,39*73
$LOGTIM,0,0.000000,0.000000,0.000000,0.000000,0.000*0A
EndT:        0
---00000043--- Acq_st=3 2019-5-25 03:13:58 
[00]  G04  f 37   -111.3 2046000.1  1.0  1.0  5 3f 530055462
[01]  G07  f 43  -3169.9 2046004.1  1.0  1.0  5  0 530055465
[02]  G08  f 40   -460.3 2046000.6  1.0  1.0  5  0 530055471
[03]  G16  f 43   1383.6 2045998.2  1.0  1.0  5  0 530055465
[04]  G27  f 44   1690.0 2045997.8  1.0  1.0  5  0 530055470
[05]  G30  f 39  -3814.3 2046005.0  1.0  1.0  5  0 530055456
[16]  B07  7 35   -664.3 4092001.8  0.5  1.0  5  0      1273
$GNGGA,000000.000,,,,,0,00,,,M,,,,0000*2B
$GNRMC,000000.000,A,,,,,,,000000,,*26
$GPGSA,A,1,,,,,,,,,,,,,,,*1E
$BDGSA,A,1,,,,,,,,,,,,,,,*0F
$GPGSV,2,1,06,04,00,000,37,07,00,000,43,08,00,000,40,16,00,000,43*70
$GPGSV,2,2,06,27,00,000,44,30,00,000,39*73
$BDGSV,1,1,01,07,00,000,35*58
$LOGTIM,0,0.000000,0.000000,0.000000,0.000000,0.000*0A
EndT:        0
---00000044--- Acq_st=3 2019-5-25 03:13:59 
[00]  G04  f 38   -113.0 2046000.2  1.0  1.0  5 3f 530056462
[01]  G07  f 43  -3172.4 2046004.1  1.0  1.0  5  0 530056465
[02]  G08  f 41   -462.5 2046000.6  1.0  1.0  5  0 530056471
[03]  G16  f 43   1380.9 2045998.2  1.0  1.0  5  0 530056465
[04]  G27  f 44   1687.2 2045997.8  1.0  1.0  5  0 530056470
[05]  G30  f 39  -3817.1 2046004.9  1.0  1.0  5  0 530056456
[16]  B07  7 39   -666.8 4092001.8  1.0  1.0  5  0      2259
$GNGGA,000000.000,,,,,0,00,,,M,,,,0000*2B
$GNRMC,000000.000,A,,,,,,,000000,,*26
$GPGSA,A,1,,,,,,,,,,,,,,,*1E
$BDGSA,A,1,,,,,,,,,,,,,,,*0F
$GPGSV,2,1,06,04,00,000,38,07,00,000,43,08,00,000,41,16,00,000,43*7E
$GPGSV,2,2,06,27,00,000,44,30,00,000,39*73
$BDGSV,1,1,01,07,00,000,39*54
$LOGTIM,0,0.000000,0.000000,0.000000,0.000000,0.000*0A
EndT:        0
---00000045--- Acq_st=3 2019-5-25 03:14:0 
[00]  G04  f 37   -112.8 2046000.1  1.0  1.0  5 3f 530057462
[01]  G07  f 43  -3173.1 2046004.1  1.0  1.0  5  0 530057465
[02]  G08  f 41   -463.6 2046000.6  1.0  1.0  5  0 530057471
[03]  G16  f 43   1379.7 2045998.2  1.0  1.0  5  0 530057465
[04]  G27  f 43   1686.7 2045997.9  1.0  1.0  5  0 530057470
[05]  G30  f 39  -3818.4 2046005.0  1.0  1.0  5  0 530057456
[16]  B07  7 39   -667.8 4092001.8  1.0  1.0  5  0      3259
lsq: nits= 4
$GNGGA,031400.540,3112.7117,N,12136.4326,E,1,04,4.0,33.5,M,,,,0000*26
$GNRMC,031400.540,A,3112.7117,N,12136.4326,E,0.14,0.00,250519,,*10
$GPGSA,A,3,07,08,16,27,,,,,,,,,6.4,4.0,5.0*3C
$BDGSA,A,3,,,,,,,,,,,,,6.4,4.0,5.0*20
$GPGSV,2,1,06,04,00,000,37,07,00,000,43,08,00,000,41,16,00,000,43*71
$GPGSV,2,2,06,27,00,000,43,30,00,000,39*74
$BDGSV,1,1,01,07,00,000,39*54
$LOGTIM,1,9629679.682720,0.000000,0.000000,0.000000,-64.711*16
EndT:        0
---00000046--- Acq_st=3 2019-5-25 03:14:1 
[00]  G04  f 38   -108.8 2046000.3  1.0  1.0  5 3f 530058462
[01]  G07  f 43  -3168.9 2046004.1  1.0  1.0  5  0 530058465
[02]  G08  f 41   -459.3 2046000.6  1.0  1.0  5  0 530058471
[03]  G16  f 43   1383.7 2045998.2  1.0  1.0  5  0 530058465
[04]  G27  f 43   1690.5 2045997.8  1.0  1.0  5  0 530058470
[05]  G30  f 38  -3814.4 2046004.9  1.0  1.0  5  0 530058456
[16]  B07  7 39   -664.2 4092001.7  1.0  1.0  5  0      4259
ch17 satid=46,max_freq = 750,max_mean = 6457,max_phase = 1002,max_value = 87600,acq ok1!
acq ok1 timeH = 0,timeL = 863012762,freq_stage = 3
lsq: nits= 4
$GNGGA,031402.000,3112.7092,N,12136.4324,E,1,04,4.0,44.6,M,,,,0000*28
$GNRMC,031402.000,A,3112.7092,N,12136.4324,E,0.25,0.00,250519,,*1F
$GPGSA,A,3,07,08,16,27,,,,,,,,,6.4,4.0,5.0*3C
$BDGSA,A,3,,,,,,,,,,,,,6.4,4.0,5.0*20
$GPGSV,2,1,06,04,00,000,38,07,00,000,43,08,00,000,41,16,00,000,43*7E
$GPGSV,2,2,06,27,00,000,43,30,00,000,38*75
$BDGSV,1,1,01,07,00,000,39*54
$LOGTIM,1,-89.163396,0.000000,0.000000,0.000000,-63.294*08
EndT:        0
---00000047--- Acq_st=3 2019-5-25 03:14:2 
[00]  G04  f 37   -107.2 2046000.2  1.0  1.0  5 3f 530059922
[01]  G07  f 44  -3167.4 2046004.1  1.0  1.0  5  0 530059925
[02]  G08  f 40   -457.2 2046000.6  1.0  1.0  5  0 530059932
[03]  G16  f 43   1385.2 2045998.2  1.0  1.0  5  0 530059925
[04]  G27  f 43   1692.3 2045997.8  1.0  1.0  5  0 530059930
[05]  G30  f 38  -3812.8 2046004.9  1.0  1.0  5  0 530059917
[16]  B07  7 40   -663.2 4092001.7  1.0  1.0  5  0      5719
[17]  B10  1  7   -754.3 4092002.4  0.0  0.0  1  0       454
lsq: nits= 4
$GNGGA,031403.000,3112.7097,N,12136.4334,E,1,04,4.0,51.8,M,,,,0000*27
$GNRMC,031403.000,A,3112.7097,N,12136.4334,E,1.13,0.00,250519,,*1E
$GPGSA,A,3,07,08,16,27,,,,,,,,,6.4,4.0,5.0*3C
$BDGSA,A,3,,,,,,,,,,,,,6.4,4.0,5.0*20
$GPGSV,2,1,06,04,00,000,37,07,39,316,44,08,74,286,40,16,37,063,43*77
$GPGSV,2,2,06,27,56,028,43,30,00,000,38*7C
$BDGSV,1,1,01,07,00,000,40*5A
$LOGTIM,1,-146.938707,0.000000,0.000000,0.000000,-62.148*33
EndT:        0
---00000048--- Acq_st=3 2019-5-25 03:14:3 
[00]  G04  f 37   -102.6 2046000.1  1.0  1.0  5 3f 530060922
[01]  G07  f 44  -3163.1 2046004.1  1.0  1.0  5  0 530060925
[02]  G08  f 41   -452.8 2046000.6  1.0  1.0  5  0 530060932
[03]  G16  f 43   1389.3 2045998.2  1.0  1.0  5  0 530060925
[04]  G27  f 43   1697.0 2045997.8  1.0  1.0  5  0 530060930
[05]  G30  f 39  -3809.0 2046005.0  1.0  1.0  5  0 530060917
[16]  B07 1f 40   -658.7 4092001.7  1.0  1.0  5  0      6719
[17]  B10  7 30   -749.8 4092002.0  0.1  1.0  5  0      1435
lsq: nits= 4
$GNGGA,031404.000,3112.7132,N,12136.4341,E,1,04,4.0,55.6,M,,,,0000*26
$GNRMC,031404.000,A,3112.7132,N,12136.4341,E,1.70,0.00,250519,,*10
$GPGSA,A,3,07,08,16,27,,,,,,,,,6.4,4.0,5.0*3C
$BDGSA,A,3,,,,,,,,,,,,,6.4,4.0,5.0*20
$GPGSV,2,1,06,04,00,000,37,07,39,316,44,08,74,286,41,16,37,063,43*76
$GPGSV,2,2,06,27,56,028,43,30,00,000,39*7D
$BDGSV,1,1,02,07,00,000,40,10,00,000,30*6B
$LOGTIM,1,-203.991868,0.000000,0.000000,0.000000,-61.361*3E
EndT:        0
---00000049--- Acq_st=3 2019-5-25 03:14:4 
[00]  G04  f 37    -99.5 2046000.1  1.0  1.0  5 3f 530061922
[01]  G07  f 43  -3160.3 2046004.1  1.0  1.0  5  0 530061925
[02]  G08  f 41   -449.4 2046000.6  1.0  1.0  5  0 530061932
[03]  G16  f 43   1392.0 2045998.2  1.0  1.0  5  0 530061925
[04]  G27  f 42   1699.7 2045997.8  1.0  1.0  5  0 530061930
[05]  G30  f 38  -3806.0 2046004.9  1.0  1.0  5  0 530061917
[16]  B07 1f 39   -656.0 4092001.7  1.0  1.0  5  0 530047879
[17]  B10  7 41   -748.1 4092002.0  1.0  1.0  5  0      2435
lsq: nits= 4
$GNGGA,031405.000,3112.7147,N,12136.4346,E,1,04,4.0,60.8,M,,,,0000*2A
$GNRMC,031405.000,A,3112.7147,N,12136.4346,E,1.93,0.00,250519,,*19
$GPGSA,A,3,07,08,16,27,,,,,,,,,6.4,4.0,5.0*3C
$BDGSA,A,3,,,,,,,,,,,,,6.4,4.0,5.0*20
$GPGSV,2,1,06,04,00,000,37,07,39,316,43,08,74,286,41,16,37,063,43*71
$GPGSV,2,2,06,27,56,028,42,30,00,000,38*7D
$BDGSV,1,1,02,07,00,000,39,10,00,000,41*63
$LOGTIM,1,-262.124815,0.000000,0.000000,0.000000,-60.786*39
EndT:        0
ch18 satid=48,max_freq = -1500,max_mean = 6703,max_phase = 818,max_value = 149345,acq ok1!
acq ok1 timeH = 0,timeL = 937319918,freq_stage = 4
---00000050--- Acq_st=3 2019-5-25 03:14:5 
[00]  G04  f 37    -97.8 2046000.2  1.0  1.0  5 3f 530062922
[01]  G07  f 43  -3158.8 2046004.1  1.0  1.0  5  0 530062925
[02]  G08  f 40   -448.0 2046000.6  1.0  1.0  5  0 530062932
[03]  G16  f 43   1392.8 2045998.2  1.0  1.0  5  0 530062925
[04]  G27  f 42   1701.1 2045997.8  1.0  1.0  5  0 530062930
[05]  G30  f 38  -3805.4 2046005.0  1.0  1.0  5  0 530062917
[16]  B07 1f 40   -655.9 4092001.7  1.0  1.0  5  0 530048879
[17]  B10  7 41   -747.8 4092001.9  1.0  1.0  5  0      3435
[18]  B12  1  7   1473.2 4091996.5 -0.1  0.0  1  0         0
lsq: nits= 4
$GNGGA,031406.000,3112.7176,N,12136.4353,E,1,04,4.0,67.5,M,,,,0000*25
$GNRMC,031406.000,A,3112.7176,N,12136.4353,E,2.77,80.32,250519,,*2C
$GPGSA,A,3,07,08,16,27,,,,,,,,,6.4,4.0,5.0*3C
$BDGSA,A,3,,,,,,,,,,,,,6.4,4.0,5.0*20
$GPGSV,2,1,06,04,00,000,37,07,39,316,43,08,74,286,40,16,37,063,43*70
$GPGSV,2,2,06,27,56,028,42,30,00,000,38*7D
$BDGSV,1,1,02,07,00,000,40,10,00,000,41*6D
$LOGTIM,1,-318.080886,0.000000,0.000000,0.000000,-60.199*38
EndT:        0
---00000051--- Acq_st=3 2019-5-25 03:14:6 
[00]  G04  f 37    -98.6 2046000.1  1.0  0.9  5 3f 530063922
[01]  G07  f 43  -3159.3 2046004.1  1.0  1.0  5  0 530063925
[02]  G08  f 40   -448.2 2046000.6  1.0  1.0  5  0 530063932
[03]  G16  f 43   1392.4 2045998.2  1.0  1.0  5  0 530063925
[04]  G27  f 42   1700.6 2045997.8  1.0  1.0  5  0 530063930
[05]  G30  f 39  -3806.3 2046004.9  1.0  0.9  5  0 530063917
[16]  B07 1f 39   -656.4 4092001.7  1.0  1.0  5  0 530049879
[17]  B10  7 41   -748.2 4092001.9  1.0  1.0  5  0      4435
[18]  B12  7 14   1472.6 4091996.1  0.3  0.0 20  0       936
lsq: nits= 4
$GNGGA,031407.000,3112.7203,N,12136.4358,E,1,04,4.0,75.2,M,,,,0000*2A
$GNRMC,031407.000,A,3112.7203,N,12136.4358,E,3.45,79.90,250519,,*29
$GPGSA,A,3,07,08,16,27,,,,,,,,,6.4,4.0,5.0*3C
$BDGSA,A,3,,,,,,,,,,,,,6.4,4.0,5.0*20
$GPGSV,2,1,06,04,00,000,37,07,39,316,43,08,74,286,40,16,37,063,43*70
$GPGSV,2,2,06,27,56,028,42,30,00,000,39*7C
$BDGSV,1,1,03,07,00,000,39,10,00,000,41,12,00,000,14*54
$LOGTIM,1,-373.645170,0.000000,0.000000,0.000000,-59.766*36
EndT:        0
---00000052--- Acq_st=3 2019-5-25 03:14:7 
[00]  G04  f 37    -96.9 2046000.2  1.0  1.0  5 3f 530064922
[01]  G07  f 43  -3158.2 2046004.1  1.0  1.0  5  0 530064925
[02]  G08  f 40   -447.4 2046000.5  1.0  1.0  5  0 530064932
[03]  G16  f 43   1393.6 2045998.2  1.0  1.0  5  0 530064925
[04]  G27  f 42   1701.8 2045997.8  1.0  1.0  5  0 530064930
[05]  G30  f 39  -3805.4 2046004.9  1.0  1.0  5  0 530064917
[16]  B07 1f 39   -655.8 4092001.7  1.0  1.0  5  0 530050879
[17]  B10  7 41   -747.4 4092002.0  1.0  1.0  5  0      5435
[18]  B12  7 43   1473.9 4091996.1  1.0  1.0  5  0      1925
lsq: nits= 4
$GNGGA,031408.000,3112.7235,N,12136.4364,E,1,04,4.0,82.0,M,,,,0000*25
$GNRMC,031408.000,A,3112.7235,N,12136.4364,E,3.58,79.93,250519,,*23
$GPGSA,A,3,07,08,16,27,,,,,,,,,6.4,4.0,5.0*3C
$BDGSA,A,3,,,,,,,,,,,,,6.4,4.0,5.0*20
$GPGSV,2,1,06,04,00,000,37,07,39,316,43,08,74,286,40,16,37,063,43*70
$GPGSV,2,2,06,27,56,028,42,30,00,000,39*7C
$BDGSV,1,1,03,07,00,000,39,10,00,000,41,12,00,000,43*56
$LOGTIM,1,-428.781505,0.000000,0.000000,0.000000,-59.106*30
EndT:        0
---00000053--- Acq_st=3 2019-5-25 03:14:8 
[00]  G04  f 37    -92.9 2046000.2  1.0  0.9  5 3f 530065922
[01]  G07  f 43  -3154.9 2046004.1  1.0  1.0  5  0 530065925
[02]  G08  f 41   -443.2 2046000.6  1.0  1.0  5  0 530065932
[03]  G16  f 43   1396.8 2045998.2  1.0  1.0  5  0 530065925
[04]  G27  f 42   1705.4 2045997.8  1.0  1.0  5  0 530065930
[05]  G30  f 38  -3802.0 2046004.9  1.0  1.0  5  0 530065917
[16]  B07 1f 39   -652.6 4092001.7  1.0  1.0  5  0 530051879
[17]  B10  7 41   -744.2 4092001.9  1.0  1.0  5  0      6435
[18]  B12  7 43   1477.7 4091996.1  1.0  1.0  5  0      2925
lsq: nits= 4
$GNGGA,031409.000,3112.7264,N,12136.4366,E,1,04,4.0,89.7,M,,,,0000*2E
$GNRMC,031409.000,A,3112.7264,N,12136.4366,E,4.14,82.40,250519,,*21
$GPGSA,A,3,07,08,16,27,,,,,,,,,6.4,4.0,5.0*3C
$BDGSA,A,3,,,,,,,,,,,,,6.4,4.0,5.0*20
$GPGSV,2,1,06,04,00,000,37,07,39,316,43,08,74,286,41,16,37,063,43*71
$GPGSV,2,2,06,27,56,028,42,30,00,000,38*7D
$BDGSV,1,1,03,07,00,000,39,10,00,000,41,12,00,000,43*56
$LOGTIM,1,-484.119269,0.000000,0.000000,0.000000,-58.818*3B
EndT:        0
---00000054--- Acq_st=3 2019-5-25 03:14:9 
[00]  G04  f 37    -95.5 2046000.2  1.0  1.0  5 3f 530066922
[01]  G07  f 42  -3158.2 2046004.1  1.0  1.0  5  0 530066925
[02]  G08  f 40   -446.9 2046000.6  1.0  1.0  5  0 530066932
[03]  G16  f 43   1393.4 2045998.2  1.0  1.0  5  0 530066925
[04]  G27  f 42   1702.2 2045997.8  1.0  1.0  5  0 530066930
[05]  G30  f 38  -3806.1 2046005.0  1.0  0.9  5  0 530066917
[16]  B07 1f 39   -655.8 4092001.7  1.0  1.0  5  0 530052879
[17]  B10 1f 40   -747.7 4092001.9  1.0  1.0  5  0      7435
[18]  B12 1f 43   1474.3 4091996.1  1.0  1.0  5  0      3925
lsq: nits= 4
$GNGGA,031410.000,3112.7287,N,12136.4362,E,1,04,4.0,94.8,M,,,,0000*2C
$GNRMC,031410.000,A,3112.7287,N,12136.4362,E,4.70,82.91,250519,,*2E
$GPGSA,A,3,07,08,16,27,,,,,,,,,6.4,4.0,5.0*3C
$BDGSA,A,3,,,,,,,,,,,,,6.4,4.0,5.0*20
$GPGSV,2,1,06,04,00,000,37,07,39,316,42,08,74,286,40,16,37,063,43*71
$GPGSV,2,2,06,27,56,028,42,30,00,000,38*7D
$BDGSV,1,1,03,07,00,000,39,10,00,000,40,12,00,000,43*57
$LOGTIM,1,-542.082005,0.000000,0.000000,0.000000,-59.033*3B
EndT:        0
---00000055--- Acq_st=3 2019-5-25 03:14:10 
[00]  G04  f 36    -96.2 2046000.1  1.0  1.0  5 3f 530067922
[01]  G07  f 42  -3159.7 2046004.1  1.0  1.0  5  0 530067925
[02]  G08  f 39   -447.9 2046000.6  1.0  1.0  5  0 530067932
[03]  G16  f 43   1391.9 2045998.2  1.0  1.0  5  0 530067925
[04]  G27  f 42   1700.7 2045997.8  1.0  1.0  5  0 530067930
[05]  G30  f 38  -3807.5 2046005.0  1.0  0.9  5  0 530067917
[16]  B07 1f 39   -657.9 4092001.7  1.0  1.0  5  0 530053879
[17]  B10 1f 41   -749.7 4092001.9  1.0  1.0  5  0 530053875
[18]  B12 1f 43   1472.7 4091996.1  1.0  1.0  5  0 530053925
lsq: nits= 4
$GNGGA,031411.000,3112.7304,N,12136.4359,E,1,04,4.0,98.0,M,,,,0000*2B
$GNRMC,031411.000,A,3112.7304,N,12136.4359,E,4.57,83.56,250519,,*22
$GPGSA,A,3,07,08,16,27,,,,,,,,,6.4,4.0,5.0*3C
$BDGSA,A,3,,,,,,,,,,,,,6.4,4.0,5.0*20
$GPGSV,2,1,06,04,00,000,36,07,39,316,42,08,74,286,39,16,37,063,43*7E
$GPGSV,2,2,06,27,56,028,42,30,00,000,38*7D
$BDGSV,1,1,03,07,00,000,39,10,00,000,41,12,00,000,43*56
$LOGTIM,1,-602.057688,0.000000,0.000000,0.000000,-59.276*34
EndT:        0
---00000056--- Acq_st=3 2019-5-25 03:14:11 
[00]  G04  f 36    -92.8 2046000.1  1.0  1.0  5 3f 530068922
[01]  G07  f 42  -3155.8 2046004.1  1.0  1.0  5  0 530068925
[02]  G08  f 40   -443.9 2046000.6  1.0  1.0  5  0 530068932
[03]  G16  f 43   1395.4 2045998.2  1.0  1.0  5  0 530068925
[04]  G27  f 42   1704.8 2045997.8  1.0  1.0  5  0 530068930
[05]  G30  f 38  -3803.7 2046004.9  1.0  0.9  5  0 530068917
[16]  B07 1f 40   -653.9 4092001.7  1.0  1.0  5  0 530054879
[17]  B10 1f 41   -745.9 4092002.0  1.0  1.0  5  0 530054875
[18]  B12 1f 43   1477.2 4091996.1  1.0  1.0  5  0 530054925
lsq: nits= 4
$GNGGA,031412.000,3112.7321,N,12136.4357,E,1,04,4.0,101.0,M,,,,0000*10
$GNRMC,031412.000,A,3112.7321,N,12136.4357,E,3.70,83.18,250519,,*20
$GPGSA,A,3,07,08,16,27,,,,,,,,,6.4,4.0,5.0*3C
$BDGSA,A,3,,,,,,,,,,,,,6.4,4.0,5.0*20
$GPGSV,2,1,06,04,00,000,36,07,39,316,42,08,74,286,40,16,37,063,43*70
$GPGSV,2,2,06,27,56,028,42,30,00,000,38*7D
$BDGSV,1,1,03,07,00,000,40,10,00,000,41,12,00,000,43*58
$LOGTIM,1,-662.088852,0.000000,0.000000,0.000000,-59.201*39
EndT:        0
---00000057--- Acq_st=3 2019-5-25 03:14:12 
[00]  G04  f 37    -90.5 2046000.1  1.0  1.0  5 3f 530069922
[01]  G07  f 42  -3154.7 2046004.1  1.0  1.0  5  0 530069925
[02]  G08  f 39   -442.7 2046000.5  1.0  1.0  5  0 530069932
[03]  G16  f 43   1396.2 2045998.2  1.0  1.0  5  0 530069925
[04]  G27  f 42   1705.5 2045997.8  1.0  1.0  5  0 530069930
[05]  G30  f 38  -3802.8 2046004.9  1.0  1.0  5  0 530069917
[16]  B07 1f 40   -653.8 4092001.7  1.0  1.0  5  0 530055879
[17]  B10 1f 41   -745.8 4092001.9  1.0  1.0  5  0 530055875
[18]  B12 1f 43   1477.6 4091996.1  1.0  1.0  5  0 530055925
lsq: nits= 4
$GNGGA,031413.000,3112.7334,N,12136.4354,E,1,04,4.0,102.6,M,,,,0000*13
$GNRMC,031413.000,A,3112.7334,N,12136.4354,E,3.83,82.96,250519,,*2D
$GPGSA,A,3,07,08,16,27,,,,,,,,,6.4,4.0,5.0*3C
$BDGSA,A,3,,,,,,,,,,,,,6.4,4.0,5.0*20
$GPGSV,2,1,06,04,00,000,37,07,39,316,42,08,74,286,39,16,37,063,43*7F
$GPGSV,2,2,06,27,56,028,42,30,00,000,38*7D
$BDGSV,1,1,03,07,00,000,40,10,00,000,41,12,00,000,43*58
$LOGTIM,1,-723.120529,0.000000,0.000000,0.000000,-59.613*38
EndT:        0
---00000058--- Acq_st=3 2019-5-25 03:14:13 
[00]  G04  f 37    -96.7 2046000.1  1.0  1.0  5 3f 530070922
[01]  G07  f 41  -3159.8 2046004.1  1.0  1.0  5  0 530070925
[02]  G08  f 40   -447.6 2046000.6  1.0  1.0  5  0 530070932
[03]  G16  f 43   1390.7 2045998.2  1.0  1.0  5  0 530070925
[04]  G27  f 42   1700.4 2045997.8  1.0  1.0  5  0 530070930
[05]  G30  f 38  -3808.6 2046005.0  1.0  1.0  5  0 530070917
[16]  B07 1f 39   -659.3 4092001.8  1.0  1.0  5  0 530056879
[17]  B10 1f 41   -750.8 4092002.0  1.0  1.0  5  0 530056875
[18]  B12 1f 42   1472.7 4091996.1  1.0  1.0  5  0 530056925
lsq: nits= 4
$GNGGA,031414.000,3112.7344,N,12136.4349,E,1,04,4.0,102.7,M,,,,0000*1E
$GNRMC,031414.000,A,3112.7344,N,12136.4349,E,4.40,82.50,250519,,*23
$GPGSA,A,3,07,08,16,27,,,,,,,,,6.4,4.0,5.0*3C
$BDGSA,A,3,,,,,,,,,,,,,6.4,4.0,5.0*20
$GPGSV,2,1,06,04,00,000,37,07,39,316,41,08,74,286,40,16,37,063,43*72
$GPGSV,2,2,06,27,56,028,42,30,00,000,38*7D
$BDGSV,1,1,03,07,00,000,39,10,00,000,41,12,00,000,42*57
$LOGTIM,1,-785.714369,0.000000,0.000000,0.000000,-60.366*3A
EndT:        0
---00000059--- Acq_st=3 2019-5-25 03:14:14 
[00]  G04  f 37   -100.2 2046000.1  1.0  1.0  5 3f 530071922
[01]  G07  f 41  -3163.7 2046004.1  1.0  1.0  5  0 530071925
[02]  G08  f 40   -451.3 2046000.5  1.0  1.0  5  0 530071932
[03]  G16  f 43   1386.8 2045998.2  1.0  1.0  5  0 530071925
[04]  G27  f 42   1696.6 2045997.8  1.0  1.0  5  0 530071930
[05]  G30  f 37  -3812.3 2046005.0  1.0  1.0  5  0 530071917
[16]  B07 1f 39   -662.9 4092001.7  1.0  1.0  5  0 530057879
[17]  B10 1f 41   -755.2 4092002.0  1.0  1.0  5  0 530057875
[18]  B12 1f 42   1468.9 4091996.1  1.0  1.0  5  0 530057925
lsq: nits= 4
$GNGGA,031415.000,3112.7353,N,12136.4354,E,1,04,4.0,103.0,M,,,,0000*13
$GNRMC,031415.000,A,3112.7353,N,12136.4354,E,4.08,80.27,250519,,*26
$GPGSA,A,3,07,08,16,27,,,,,,,,,6.4,4.0,5.0*3C
$BDGSA,A,3,,,,,,,,,,,,,6.4,4.0,5.0*20
$GPGSV,2,1,06,04,00,000,37,07,39,316,41,08,74,286,40,16,37,063,43*72
$GPGSV,2,2,06,27,56,028,42,30,00,000,37*72
$BDGSV,1,1,03,07,00,000,39,10,00,000,41,12,00,000,42*57
$LOGTIM,1,-848.279575,0.000000,0.000000,0.000000,-60.767*34
EndT:        0
---00000060--- Acq_st=3 2019-5-25 03:14:15 
[00]  G04  f 37    -96.7 2046000.1  1.0  1.0  5 3f 530072922
[01]  G07  f 40  -3159.7 2046004.1  1.0  1.0  5  0 530072925
[02]  G08  f 39   -447.3 2046000.6  1.0  1.0  5  0 530072932
[03]  G16  f 43   1390.2 2045998.2  1.0  1.0  5  0 530072925
[04]  G27  f 43   1700.2 2045997.8  1.0  1.0  5  0 530072930
[05]  G30  f 37  -3808.7 2046005.0  1.0  1.0  5  0 530072917
[16]  B07 1f 39   -660.2 4092001.7  1.0  1.0  5  0 530058879
[17]  B10 1f 41   -752.2 4092001.9  1.0  1.0  5  0 530058875
[18]  B12 1f 42   1472.7 4091996.1  1.0  1.0  5  0 530058925
lsq: nits= 4
$GNGGA,031416.000,3112.7353,N,12136.4355,E,1,04,4.0,101.5,M,,,,0000*16
$GNRMC,031416.000,A,3112.7353,N,12136.4355,E,2.71,81.30,250519,,*2B
$GPGSA,A,3,07,08,16,27,,,,,,,,,6.4,4.0,5.0*3C
$BDGSA,A,3,,,,,,,,,,,,,6.4,4.0,5.0*20
$GPGSV,2,1,06,04,00,000,37,07,39,316,40,08,74,286,39,16,37,063,43*7D
$GPGSV,2,2,06,27,56,028,43,30,00,000,37*73
$BDGSV,1,1,03,07,00,000,39,10,00,000,41,12,00,000,42*57
$LOGTIM,1,-911.936802,0.000000,0.000000,0.000000,-60.850*3F
EndT:        0
---00000061--- Acq_st=3 2019-5-25 03:14:16 
[00]  G04  f 37    -90.7 2046000.1  1.0  1.0  5 3f 530073922
[01]  G07  f 40  -3155.0 2046004.1  1.0  1.0  5  0 530073925
[02]  G08  f 39   -442.3 2046000.6  1.0  1.0  5  0 530073932
[03]  G16  f 43   1394.9 2045998.2  1.0  1.0  5  0 530073925
[04]  G27  f 43   1705.3 2045997.8  1.0  1.0  5  0 530073930
[05]  G30  f 37  -3803.7 2046005.0  1.0  1.0  5  0 530073917
[16]  B07 1f 39   -654.9 4092001.7  1.0  1.0  5  0 530059879
[17]  B10 1f 41   -747.5 4092001.9  1.0  1.0  5  0 530059875
[18]  B12 1f 42   1477.3 4091996.1  1.0  1.0  5  0 530059925
lsq: nits= 4
$GNGGA,031417.000,3112.7363,N,12136.4342,E,1,04,4.0,98.8,M,,,,0000*2E
$GNRMC,031417.000,A,3112.7363,N,12136.4342,E,1.56,81.30,250519,,*29
$GPGSA,A,3,07,08,16,27,,,,,,,,,6.4,4.0,5.0*3C
$BDGSA,A,3,,,,,,,,,,,,,6.4,4.0,5.0*20
$GPGSV,2,1,06,04,00,000,37,07,39,316,40,08,74,286,39,16,37,063,43*7D
$GPGSV,2,2,06,27,56,028,43,30,00,000,37*73
$BDGSV,1,1,03,07,00,000,39,10,00,000,41,12,00,000,42*57
$LOGTIM,1,-976.245189,0.000000,0.000000,0.000000,-60.834*39
EndT:        0
---00000062--- Acq_st=3 2019-5-25 03:14:17 
[00]  G04  f 37    -84.4 2046000.1  1.0  1.0  5 3f 530074922
[01]  G07  f 41  -3149.2 2046004.1  1.0  1.0  5  0 530074925
[02]  G08  f 40   -435.7 2046000.6  1.0  1.0  5  0 530074932
[03]  G16  f 42   1400.5 2045998.2  1.0  1.0  5  0 530074925
[04]  G27  f 43   1711.3 2045997.8  1.0  1.0  5  0 530074930
[05]  G30  f 36  -3799.0 2046005.0  1.0  0.9  5  0 530074917
[16]  B07 1f 40   -649.7 4092001.7  1.0  1.0  5  0 530060879
[17]  B10 1f 41   -741.4 4092001.9  1.0  1.0  5  0 530060875
[18]  B12 1f 41   1484.1 4091996.1  1.0  1.0  5  0 530060925
lsq: nits= 4
$GNGGA,031418.000,3112.7367,N,12136.4339,E,1,04,4.0,96.3,M,,,,0000*2C
$GNRMC,031418.000,A,3112.7367,N,12136.4339,E,0.94,81.30,250519,,*21
$GPGSA,A,3,07,08,16,27,,,,,,,,,6.4,4.0,5.0*3C
$BDGSA,A,3,,,,,,,,,,,,,6.4,4.0,5.0*20
$GPGSV,2,1,06,04,00,000,37,07,39,316,41,08,74,286,40,16,37,063,42*73
$GPGSV,2,2,06,27,56,028,43,30,00,000,36*72
$BDGSV,1,1,03,07,00,000,40,10,00,000,41,12,00,000,41*5A
$LOGTIM,1,-1038.998773,0.000000,0.000000,0.000000,-60.737*0F
EndT:        0
---00000063--- Acq_st=3 2019-5-25 03:14:18 
[00]  G04  f 38    -82.9 2046000.1  1.0  1.0  5 3f 530075922
[01]  G07  f 41  -3148.1 2046004.1  1.0  1.0  5  0 530075925
[02]  G08  f 40   -434.5 2046000.6  1.0  1.0  5  0 530075932
[03]  G16  f 43   1402.0 2045998.2  1.0  1.0  5  0 530075925
[04]  G27  f 43   1712.7 2045997.8  1.0  1.0  5  0 530075930
[05]  G30  f 36  -3797.5 2046005.0  1.0  0.9  5  0 530075917
[16]  B07 1f 40   -648.8 4092001.7  1.0  1.0  5  0 530061879
[17]  B10 1f 41   -740.6 4092001.9  1.0  1.0  5  0 530061875
[18]  B12 1f 41   1485.0 4091996.1  1.0  1.0  5  0 530061925
lsq: nits= 4
$GNGGA,031419.000,3112.7368,N,12136.4339,E,1,05,3.8,96.3,M,,,,0000*2C
$GNRMC,031419.000,A,3112.7368,N,12136.4339,E,0.44,81.30,250519,,*22
$GPGSA,A,3,07,08,16,27,30,,,,,,,,4.7,3.8,2.9*3F
$BDGSA,A,3,,,,,,,,,,,,,4.7,3.8,2.9*20
$GPGSV,2,1,06,04,00,000,38,07,39,316,41,08,74,286,40,16,37,063,43*7D
$GPGSV,2,2,06,27,56,028,43,30,00,000,36*72
$BDGSV,1,1,03,07,00,000,40,10,00,000,41,12,00,000,41*5A
$LOGTIM,1,-1099.727432,0.000000,0.000000,0.000000,-60.458*02
EndT:        0
---00000064--- Acq_st=3 2019-5-25 03:14:19 
[00]  G04  f 37    -78.9 2046000.1  1.0  1.0  5 3f 530076922
[01]  G07  f 41  -3144.5 2046004.1  1.0  1.0  5  0 530076925
[02]  G08  f 40   -430.7 2046000.6  1.0  1.0  5  0 530076932
[03]  G16  f 43   1405.3 2045998.2  1.0  1.0  5  0 530076925
[04]  G27  f 43   1716.5 2045997.7  1.0  1.0  5  0 530076930
[05]  G30  f 36  -3794.4 2046005.0  1.0  1.1  5  0 530076917
[16]  B07 1f 40   -645.7 4092001.7  1.0  1.0  5  0 530062879
[17]  B10 1f 41   -737.5 4092002.0  1.0  1.0  5  0 530062875
[18]  B12 1f 41   1488.6 4091996.1  1.0  1.0  5  0 530062925
lsq: nits= 2
$GNGGA,031420.000,3112.7369,N,12136.4341,E,1,05,3.8,96.1,M,,,,0000*2A
$GNRMC,031420.000,A,3112.7369,N,12136.4341,E,0.31,81.30,250519,,*24
$GPGSA,A,3,07,08,16,27,30,,,,,,,,4.7,3.8,2.9*3F
$BDGSA,A,3,,,,,,,,,,,,,4.7,3.8,2.9*20
$GPGSV,2,1,06,04,00,000,37,07,39,316,41,08,74,286,40,16,37,063,43*72
$GPGSV,2,2,06,27,56,028,43,30,09,317,36*7E
$BDGSV,1,1,03,07,00,000,40,10,00,000,41,12,00,000,41*5A
$LOGTIM,1,-1160.911889,0.000000,0.000000,0.000000,-60.518*07
EndT:        0
---00000065--- Acq_st=3 2019-5-25 03:14:20 
[00]  G04  f 37    -85.7 2046000.2  1.0  1.0  5 3f 530077922
[01]  G07  f 41  -3150.8 2046004.1  1.0  1.0  5  0 530077926
[02]  G08  f 40   -437.4 2046000.6  1.0  1.0  5  0 530077932
[03]  G16  f 44   1398.5 2045998.2  1.0  1.0  5  0 530077925
[04]  G27  f 44   1709.9 2045997.8  1.0  1.0  5  0 530077930
[05]  G30  f 37  -3801.1 2046004.9  1.0  1.0  5  0 530077917
[16]  B07 1f 40   -652.2 4092001.7  1.0  1.0  5  0 530063879
[17]  B10 1f 41   -744.5 4092001.9  1.0  1.0  5  0 530063875
[18]  B12 1f 41   1481.9 4091996.1  1.0  1.0  5  0 530063925
lsq: nits= 2
$GNGGA,031421.000,3112.7366,N,12136.4340,E,1,05,3.8,95.0,M,,,,0000*27
$GNRMC,031421.000,A,3112.7366,N,12136.4340,E,0.95,81.30,250519,,*25
$GPGSA,A,3,07,08,16,27,30,,,,,,,,4.7,3.8,2.9*3F
$BDGSA,A,3,,,,,,,,,,,,,4.7,3.8,2.9*20
$GPGSV,2,1,06,04,00,000,37,07,39,316,41,08,74,286,40,16,37,063,44*75
$GPGSV,2,2,06,27,56,028,44,30,09,317,37*78
$BDGSV,1,1,03,07,00,000,40,10,00,000,41,12,00,000,41*5A
$LOGTIM,1,-1223.378005,0.000000,0.000000,0.000000,-61.326*00
EndT:        0
---00000066--- Acq_st=3 2019-5-25 03:14:21 
[00]  G04  f 38    -90.0 2046000.1  1.0  1.0  5 3f 530078922
[01]  G07  f 42  -3155.3 2046004.1  1.0  1.0  5  0 530078926
[02]  G08  f 39   -441.8 2046000.6  1.0  1.0  5  0 530078932
[03]  G16  f 44   1393.7 2045998.2  1.0  1.0  5  0 530078925
[04]  G27  f 45   1705.2 2045997.8  1.0  1.0  5  0 530078930
[05]  G30  f 37  -3805.8 2046004.9  1.0  0.9  5  0 530078917
[16]  B07 1f 39   -657.3 4092001.7  1.0  1.0  5  0 530064879
[17]  B10 1f 41   -749.2 4092001.9  1.0  1.0  5  0 530064875
[18]  B12 1f 41   1478.0 4091996.1  1.0  1.0  5  0 530064925
lsq: nits= 2
$GNGGA,031422.000,3112.7364,N,12136.4340,E,1,05,3.8,93.6,M,,,,0000*26
$GNRMC,031422.000,A,3112.7364,N,12136.4340,E,1.46,81.30,250519,,*2B
$GPGSA,A,3,07,08,16,27,30,,,,,,,,4.7,3.8,2.9*3F
$BDGSA,A,3,,,,,,,,,,,,,4.7,3.8,2.9*20
$GPGSV,2,1,06,04,00,000,38,07,39,316,42,08,74,286,39,16,37,063,44*77
$GPGSV,2,2,06,27,56,028,45,30,09,317,37*79
$BDGSV,1,1,04,07,00,000,39,10,00,000,41,12,00,000,41,05,13,253,00*60
$LOGTIM,1,-1287.058535,0.000000,0.000000,0.000000,-62.160*0A
EndT:        0
---00000067--- Acq_st=3 2019-5-25 03:14:22 
[00]  G04  f 37    -94.4 2046000.1  1.0  0.9  5 3f 530079922
[01]  G07  f 42  -3160.2 2046004.1  1.0  1.0  5  0 530079926
[02]  G08  f 40   -446.0 2046000.6  1.0  1.0  5  0 530079932
[03]  G16  f 44   1388.7 2045998.2  1.0  1.0  5  0 530079925
[04]  G27  f 45   1700.4 2045997.8  1.0  1.0  5  0 530079930
[05]  G30  f 37  -3811.2 2046005.0  1.0  1.0  5  0 530079917
[16]  B07 1f 39   -662.3 4092001.7  1.0  1.0  5  0 530065879
[17]  B10 1f 41   -754.7 4092002.0  1.0  1.0  5  0 530065875
[18]  B12 1f 40   1473.0 4091996.1  1.0  1.0  5  0 530065925
lsq: nits= 2
$GNGGA,031423.000,3112.7356,N,12136.4341,E,1,05,3.8,91.3,M,,,,0000*20
$GNRMC,031423.000,A,3112.7356,N,12136.4341,E,1.75,81.30,250519,,*2A
$GPGSA,A,3,07,08,16,27,30,,,,,,,,4.7,3.8,2.9*3F
$BDGSA,A,3,,,,,,,,,,,,,4.7,3.8,2.9*20
$GPGSV,2,1,06,04,00,000,37,07,39,316,42,08,74,286,40,16,37,063,44*76
$GPGSV,2,2,06,27,56,028,45,30,09,317,37*79
$BDGSV,1,1,04,07,00,000,39,10,00,000,41,12,00,000,40,05,13,253,00*61
$LOGTIM,1,-1352.249786,0.000000,0.000000,0.000000,-63.053*0B
EndT:        0
---00000068--- Acq_st=3 2019-5-25 03:14:23 
[00]  G04  f 37    -98.5 2046000.1  1.0  0.9  5 3f 530080922
[01]  G07  f 41  -3164.8 2046004.1  1.0  1.0  5  0 530080926
[02]  G08  f 40   -450.0 2046000.6  1.0  1.0  5  0 530080932
[03]  G16  f 44   1384.5 2045998.2  1.0  1.0  5  0 530080925
[04]  G27  f 44   1696.3 2045997.8  1.0  1.0  5  0 530080930
[05]  G30  f 38  -3816.2 2046005.0  1.0  1.0  5  0 530080917
[16]  B07 1f 39   -666.8 4092001.7  1.0  1.0  5  0 530066879
[17]  B10 1f 41   -758.5 4092002.0  1.0  1.0  5  0 530066875
[18]  B12 1f 40   1468.9 4091996.1  1.0  1.0  5  0 530066925
lsq: nits= 2
$GNGGA,031424.000,3112.7351,N,12136.4340,E,1,05,3.8,89.5,M,,,,0000*2E
$GNRMC,031424.000,A,3112.7351,N,12136.4340,E,1.61,81.30,250519,,*2E
$GPGSA,A,3,07,08,16,27,30,,,,,,,,4.7,3.8,2.9*3F
$BDGSA,A,3,,,,,,,,,,,,,4.7,3.8,2.9*20
$GPGSV,2,1,06,04,00,000,37,07,39,316,41,08,74,286,40,16,37,063,44*75
$GPGSV,2,2,06,27,56,028,44,30,09,317,38*77
$BDGSV,1,1,04,07,00,000,39,10,00,000,41,12,00,000,40,05,13,253,00*61
$LOGTIM,1,-1417.628553,0.000000,0.000000,0.000000,-63.511*07
EndT:        0
---00000069--- Acq_st=3 2019-5-25 03:14:24 
[00]  G04  f 37    -97.4 2046000.1  1.0  1.0  5 3f 530081922
[01]  G07  f 41  -3163.6 2046004.1  1.0  1.0  5  0 530081926
[02]  G08  f 40   -448.9 2046000.6  1.0  1.0  5  0 530081932
[03]  G16  f 43   1385.0 2045998.2  1.0  1.0  5  0 530081925
[04]  G27  f 44   1697.1 2045997.8  1.0  1.0  5  0 530081930
[05]  G30  f 37  -3815.0 2046005.0  1.0  1.0  5  0 530081917
[16]  B07 1f 39   -666.2 4092001.7  1.0  1.0  5  0 530067879
[17]  B10 1f 41   -758.5 4092002.0  1.0  1.0  5  0 530067875
[18]  B12 1f 39   1469.5 4091996.1  1.0  1.0  5  0 530067925
lsq: nits= 2
$GNGGA,031425.000,3112.7346,N,12136.4341,E,1,05,3.8,87.3,M,,,,0000*20
$GNRMC,031425.000,A,3112.7346,N,12136.4341,E,1.03,81.30,250519,,*2C
$GPGSA,A,3,07,08,16,27,30,,,,,,,,4.7,3.8,2.9*3F
$BDGSA,A,3,,,,,,,,,,,,,4.7,3.8,2.9*20
$GPGSV,2,1,06,04,00,000,37,07,39,316,41,08,74,286,40,16,37,063,43*72
$GPGSV,2,2,06,27,56,028,44,30,09,317,37*78
$BDGSV,1,1,04,07,00,000,39,10,00,000,41,12,00,000,39,05,13,253,00*6F
$LOGTIM,1,-1483.171691,0.000000,0.000000,0.000000,-63.505*09
EndT:        0
---00000070--- Acq_st=3 2019-5-25 03:14:25 
[00]  G04  f 38    -92.4 2046000.1  1.0  1.0  5 3f 530082922
[01]  G07  f 41  -3159.1 2046004.1  1.0  1.0  5  0 530082926
[02]  G08  f 40   -444.7 2046000.5  1.0  1.0  5  0 530082932
[03]  G16  f 43   1389.3 2045998.2  1.0  1.0  5  0 530082925
[04]  G27  f 44   1701.8 2045997.8  1.0  1.0  5  0 530082930
[05]  G30  f 38  -3810.5 2046004.9  1.0  1.0  5  0 530082917
[16]  B07 1f 39   -661.9 4092001.7  1.0  1.0  5  0 530068879
[17]  B10 1f 41   -753.7 4092001.9  1.0  1.0  5  0 530068875
[18]  B12 1f 39   1474.7 4091996.2  1.0  1.0  5  0 530068925
lsq: nits= 2
$GNGGA,031426.000,3112.7340,N,12136.4342,E,1,05,3.8,85.1,M,,,,0000*26
$GNRMC,031426.000,A,3112.7340,N,12136.4342,E,0.11,81.30,250519,,*28
$GPGSA,A,3,07,08,16,27,30,,,,,,,,4.7,3.8,2.9*3F
$BDGSA,A,3,,,,,,,,,,,,,4.7,3.8,2.9*20
$GPGSV,2,1,06,04,00,000,38,07,39,316,41,08,74,286,40,16,37,063,43*7D
$GPGSV,2,2,06,27,56,028,44,30,09,317,38*77
$BDGSV,1,1,04,07,00,000,39,10,00,000,41,12,00,000,39,05,13,253,00*6F
$LOGTIM,1,-1548.313670,0.000000,0.000000,0.000000,-63.139*0D
EndT:        1
ch19 satid=60,max_freq = 0,max_mean = 6250,max_phase = 2530,max_value = 82603,acq ok1!
acq ok1 timeH = 0,timeL = 1339276868,freq_stage = 3
---00000071--- Acq_st=3 2019-5-25 03:14:26 
[00]  G04  f 38    -86.7 2046000.1  1.0  1.0  5 3f 530083922
[01]  G07  f 42  -3153.6 2046004.1  1.0  1.0  5  0 530083926
[02]  G08  f 40   -438.4 2046000.5  1.0  1.0  5  0 530083932
[03]  G16  f 43   1394.6 2045998.2  1.0  1.0  5  0 530083925
[04]  G27  f 45   1707.6 2045997.8  1.0  1.0  5  0 530083930
[05]  G30  f 39  -3804.6 2046004.9  1.0  1.0  5  0 530083917
[16]  B07 1f 39   -657.2 4092001.7  1.0  1.0  5  0 530069879
[17]  B10 1f 41   -748.7 4092002.0  1.0  1.0  5  0 530069875
[18]  B12 1f 38   1480.7 4091996.1  1.0  1.0  5  0 530069925
[19]  B24  1  7    -13.6 4092001.2 -0.0  0.0  1  0         0
lsq: nits= 2
$GNGGA,031427.000,3112.7332,N,12136.4344,E,1,05,3.8,81.7,M,,,,0000*26
$GNRMC,031427.000,A,3112.7332,N,12136.4344,E,0.94,81.30,250519,,*27
$GPGSA,A,3,07,08,16,27,30,,,,,,,,4.7,3.8,2.9*3F
$BDGSA,A,3,,,,,,,,,,,,,4.7,3.8,2.9*20
$GPGSV,2,1,06,04,00,000,38,07,39,316,42,08,74,286,40,16,37,063,43*7E
$GPGSV,2,2,06,27,56,028,45,30,09,317,39*77
$BDGSV,1,1,04,07,00,000,39,10,00,000,41,12,00,000,38,05,13,253,00*6E
$LOGTIM,1,-1613.054612,0.000000,0.000000,0.000000,-62.562*0F
EndT:        1
---00000072--- Acq_st=3 2019-5-25 03:14:27 
[00]  G04  f 38    -80.5 2046000.1  1.0  1.0  5 3f 530084922
[01]  G07  f 42  -3148.0 2046004.1  1.0  1.0  5  0 530084926
[02]  G08  f 41   -433.2 2046000.5  1.0  1.0  5  0 530084932
[03]  G16  f 43   1399.8 2045998.2  1.0  1.0  5  0 530084925
[04]  G27  f 45   1712.9 2045997.8  1.0  1.0  5  0 530084930
[05]  G30  f 39  -3799.8 2046004.9  1.0  1.0  5  0 530084917
[16]  B07 1f 39   -652.3 4092001.7  1.0  1.0  5  0 530070879
[17]  B10 1f 41   -744.2 4092002.0  1.0  1.0  5  0 530070875
[18]  B12 1f 38   1485.1 4091996.2  1.0  1.0  5  0 530070925
[19]  B24  1  7    -13.0 4092000.3  0.2  0.0  1  0       825
