FlashID=0x1 0x20 0x18
BBram_blkflag1: 4424: bbdb
FW Ver: 1.30  
GPS00 Init Dop:   5000, 40
GPS01 Init Dop:   5000, 40
GPS02 Init Dop:   5000, 40
GPS03 Init Dop:   5000, 40
GPS04 Init Dop:   5000, 40
GPS05 Init Dop:   5000, 40
GPS06 Init Dop:   5000, 40
GPS07 Init Dop:   5000, 40
GPS08 Init Dop:   5000, 40
GPS09 Init Dop:   5000, 40
GPS10 Init Dop:   5000, 40
GPS11 Init Dop:   5000, 40
GPS12 Init Dop:   5000, 40
GPS13 Init Dop:   5000, 40
GPS14 Init Dop:   5000, 40
GPS15 Init Dop:   5000, 40
GPS16 Init Dop:   5000, 40
GPS17 Init Dop:   5000, 40
GPS18 Init Dop:   5000, 40
GPS19 Init Dop:   5000, 40
GPS20 Init Dop:   5000, 40
GPS21 Init Dop:   5000, 40
GPS22 Init Dop:   5000, 40
GPS23 Init Dop:   5000, 40
GPS24 Init Dop:   5000, 40
GPS25 Init Dop:   5000, 40
GPS26 Init Dop:   5000, 40
GPS27 Init Dop:   5000, 40
GPS28 Init Dop:   5000, 40
GPS29 Init Dop:   5000, 40
GPS30 Init Dop:   5000, 40
GPS31 Init Dop:   5000, 40
BDS00 Init Dop:   5000, 40
BDS01 Init Dop:   5000, 40
BDS02 Init Dop:   5000, 40
BDS03 Init Dop:   5000, 40
BDS04 Init Dop:   5000, 40
BDS05 Init Dop:   5000, 40
BDS06 Init Dop:   5000, 40
BDS07 Init Dop:   5000, 40
BDS08 Init Dop:   5000, 40
BDS09 Init Dop:   5000, 40
BDS10 Init Dop:   5000, 40
BDS11 Init Dop:   5000, 40
BDS12 Init Dop:   5000, 40
BDS13 Init Dop:   5000, 40
BDS14 Init Dop:   5000, 40
BDS15 Init Dop:   5000, 40
BDS16 Init Dop:   5000, 40
BDS17 Init Dop:   5000, 40
BDS18 Init Dop:   5000, 40
BDS19 Init Dop:   5000, 40
BDS20 Init Dop:   5000, 40
BDS21 Init Dop:   5000, 40
BDS22 Init Dop:   5000, 40
BDS23 Init Dop:   5000, 40
BDS24 Init Dop:   5000, 40
BDS25 Init Dop:   5000, 40
BDS26 Init Dop:   5000, 40
BDS27 Init Dop:   5000, 40
BDS28 Init Dop:   5000, 40
BDS29 Init Dop:   5000, 40
BDS30 Init Dop:   5000, 40
BDS31 Init Dop:   5000, 40
---00000001--- Acq_st=3 2019-5-25 03:15:58 
$GNGGA,000000.000,,,,,0,00,,,M,,,,0000*2B
$GNRMC,000000.000,A,,,,,,,000000,,*26
$GPGSA,A,1,,,,,,,,,,,,,,,*1E
$BDGSA,A,1,,,,,,,,,,,,,,,*0F
$LOGTIM,0,0.000000,0.000000,0.000000,0.000000,0.000*0A
EndT:        0
---00000002--- Acq_st=3 2019-5-25 03:15:59 
$GNGGA,000000.000,,,,,0,00,,,M,,,,0000*2B
$GNRMC,000000.000,A,,,,,,,000000,,*26
$GPGSA,A,1,,,,,,,,,,,,,,,*1E
$BDGSA,A,1,,,,,,,,,,,,,,,*0F
$LOGTIM,0,0.000000,0.000000,0.000000,0.000000,0.000*0A
EndT:        0
---00000003--- Acq_st=3 2019-5-25 03:16:0 
$GNGGA,000000.000,,,,,0,00,,,M,,,,0000*2B
$GNRMC,000000.000,A,,,,,,,000000,,*26
$GPGSA,A,1,,,,,,,,,,,,,,,*1E
$BDGSA,A,1,,,,,,,,,,,,,,,*0F
$LOGTIM,0,0.000000,0.000000,0.000000,0.000000,0.000*0A
EndT:        0
ch0 satid=3,max_freq = 0,max_mean = 22972,max_phase = 7,max_value = 199653,acq ok1!
acq ok1 timeH = 0,timeL = 58523433,freq_stage = 3
---00000004--- Acq_st=3 2019-5-25 03:16:1 
[00]  G04  1 20     -9.6 2046000.7 -0.1  0.0  1  0         0
$GNGGA,000000.000,,,,,0,00,,,M,,,,0000*2B
$GNRMC,000000.000,A,,,,,,,000000,,*26
$GPGSA,A,1,,,,,,,,,,,,,,,*1E
$BDGSA,A,1,,,,,,,,,,,,,,,*0F
$LOGTIM,0,0.000000,0.000000,0.000000,0.000000,0.000*0A
EndT:        0
---00000005--- Acq_st=3 2019-5-25 03:16:2 
[00]  G04  7 13    -31.9 2046000.0  0.1  0.0 20  0        14
$GNGGA,000000.000,,,,,0,00,,,M,,,,0000*2B
$GNRMC,000000.000,A,,,,,,,000000,,*26
$GPGSA,A,1,,,,,,,,,,,,,,,*1E
$BDGSA,A,1,,,,,,,,,,,,,,,*0F
$GPGSV,1,1,01,04,00,000,13*4E
$LOGTIM,0,0.000000,0.000000,0.000000,0.000000,0.000*0A
EndT:        0
---00000006--- Acq_st=3 2019-5-25 03:16:3 
[00]  G04  7 38    -38.9 2046000.0  0.5  0.9  5  0         4
$GNGGA,000000.000,,,,,0,00,,,M,,,,0000*2B
$GNRMC,000000.000,A,,,,,,,000000,,*26
$GPGSA,A,1,,,,,,,,,,,,,,,*1E
$BDGSA,A,1,,,,,,,,,,,,,,,*0F
$GPGSV,1,1,01,04,00,000,38*47
$LOGTIM,0,0.000000,0.000000,0.000000,0.000000,0.000*0A
EndT:        0
ch1 satid=6,max_freq = 3250,max_mean = 23649,max_phase = 1983,max_value = 222771,acq ok1!
acq ok1 timeH = 0,timeL = 103195444,freq_stage = 1
---00000007--- Acq_st=3 2019-5-25 03:16:4 
[00]  G04  7 38    -39.7 2046000.0  1.0  1.0  5  0         4
[01]  G07  1  7  -3166.9 2046006.1 -0.0  0.0  1  0         0
$GNGGA,000000.000,,,,,0,00,,,M,,,,0000*2B
$GNRMC,000000.000,A,,,,,,,000000,,*26
$GPGSA,A,1,,,,,,,,,,,,,,,*1E
$BDGSA,A,1,,,,,,,,,,,,,,,*0F
$GPGSV,1,1,01,04,00,000,38*47
$LOGTIM,0,0.000000,0.000000,0.000000,0.000000,0.000*0A
EndT:        0
ch2 satid=7,max_freq = 500,max_mean = 23151,max_phase = 445,max_value = 229919,acq ok1!
acq ok1 timeH = 0,timeL = 127229758,freq_stage = 3
---00000008--- Acq_st=3 2019-5-25 03:16:5 
[00]  G04  7 39    -36.3 2046000.0  1.0  1.0  5  0         4
[01]  G07  7 26  -3125.7 2046004.0 -0.1  0.0 20  0         9
[02]  G08  1 17   -419.4 2046001.5 -0.1  0.0  1  0         0
$GNGGA,000000.000,,,,,0,00,,,M,,,,0000*2B
$GNRMC,000000.000,A,,,,,,,000000,,*26
$GPGSA,A,1,,,,,,,,,,,,,,,*1E
$BDGSA,A,1,,,,,,,,,,,,,,,*0F
$GPGSV,1,1,02,04,00,000,39,07,00,000,26*76
$LOGTIM,0,0.000000,0.000000,0.000000,0.000000,0.000*0A
EndT:        0
ch3 satid=8,max_freq = -750,max_mean = 23704,max_phase = 2013,max_value = 115722,acq ok1!
acq ok1 timeH = 0,timeL = 144406341,freq_stage = 3
---00000009--- Acq_st=3 2019-5-25 03:16:6 
[00]  G04  7 38    -29.4 2046000.0  1.0  1.0  5  0         4
[01]  G07  7 37  -3123.5 2046004.0  0.7  1.0  5  0         7
[02]  G08  7 28   -390.4 2046000.5 -0.0  1.0 10  0        15
[03]  G09  1 23   1051.5 2045999.0  0.1  0.0  1  0         0
$GNGGA,000000.000,,,,,0,00,,,M,,,,0000*2B
$GNRMC,000000.000,A,,,,,,,000000,,*26
$GPGSA,A,1,,,,,,,,,,,,,,,*1E
$BDGSA,A,1,,,,,,,,,,,,,,,*0F
$GPGSV,1,1,03,04,00,000,38,07,00,000,37,08,00,000,28*44
$LOGTIM,0,0.000000,0.000000,0.000000,0.000000,0.000*0A
EndT:        0
---00000010--- Acq_st=3 2019-5-25 03:16:7 
[00]  G04  f 39    -27.2 2046000.0  1.0  1.0  5  0         4
[01]  G07  f 39  -3120.3 2046004.0  1.0  1.0  5  0         7
[02]  G08  f 37   -387.9 2046000.5  1.0  1.0  5  0        13
[03]  G09  7 29   1044.6 2045998.5  0.1  1.0  5  0         1
$GNGGA,000000.000,,,,,0,00,,,M,,,,0000*2B
$GNRMC,000000.000,A,,,,,,,000000,,*26
$GPGSA,A,1,,,,,,,,,,,,,,,*1E
$BDGSA,A,1,,,,,,,,,,,,,,,*0F
$GPGSV,1,1,04,04,00,000,39,07,00,000,39,08,00,000,37,09,00,000,29*70
$LOGTIM,0,0.000000,0.000000,0.000000,0.000000,0.000*0A
EndT:        0
---00000011--- Acq_st=3 2019-5-25 03:16:8 
[00]  G04  f 38    -22.5 2046000.0  1.0  1.0  5  0 530185304
[01]  G07  f 38  -3116.7 2046004.0  1.0  1.0  5  0 530185307
[02]  G08  f 37   -383.8 2046000.6  1.0  1.0  5  0 530185313
[03]  G09  7 36   1048.4 2045998.7  1.0  0.9  5  0         5
$GNGGA,000000.000,,,,,0,00,,,M,,,,0000*2B
$GNRMC,000000.000,A,,,,,,,000000,,*26
$GPGSA,A,1,,,,,,,,,,,,,,,*1E
$BDGSA,A,1,,,,,,,,,,,,,,,*0F
$GPGSV,1,1,04,04,00,000,38,07,00,000,38,08,00,000,37,09,00,000,36*7E
$LOGTIM,0,0.000000,0.000000,0.000000,0.000000,0.000*0A
EndT:        0
---00000012--- Acq_st=3 2019-5-25 03:16:9 
[00]  G04  f 39    -22.8 2046000.0  1.0  1.0  5  0 530186304
[01]  G07  f 38  -3117.9 2046004.0  1.0  1.0  5  0 530186307
[02]  G08  f 37   -384.1 2046000.5  1.0  0.9  5  0 530186313
[03]  G09  7 36   1047.1 2045998.6  1.0  1.0  5  0         5
$GNGGA,000000.000,,,,,0,00,,,M,,,,0000*2B
$GNRMC,000000.000,A,,,,,,,000000,,*26
$GPGSA,A,1,,,,,,,,,,,,,,,*1E
$BDGSA,A,1,,,,,,,,,,,,,,,*0F
$GPGSV,1,1,04,04,00,000,39,07,00,000,38,08,00,000,37,09,00,000,36*7F
$LOGTIM,0,0.000000,0.000000,0.000000,0.000000,0.000*0A
EndT:        0
---00000013--- Acq_st=3 2019-5-25 03:16:10 
[00]  G04  f 38    -18.9 2046000.0  1.0  1.0  5  0 530187304
[01]  G07  f 38  -3113.2 2046004.0  1.0  1.0  5  0 530187307
[02]  G08  f 36   -380.6 2046000.5  1.0  1.0  5  0 530187313
[03]  G09  7 36   1052.5 2045998.6  1.0  1.0  5  0         5
$GNGGA,000000.000,,,,,0,00,,,M,,,,0000*2B
$GNRMC,000000.000,A,,,,,,,000000,,*26
$GPGSA,A,1,,,,,,,,,,,,,,,*1E
$BDGSA,A,1,,,,,,,,,,,,,,,*0F
$GPGSV,1,1,04,04,00,000,38,07,00,000,38,08,00,000,36,09,00,000,36*7F
$LOGTIM,0,0.000000,0.000000,0.000000,0.000000,0.000*0A
EndT:        0
---00000014--- Acq_st=3 2019-5-25 03:16:11 
[00]  G04  f 38    -17.3 2046000.1  1.0  1.0  5  0 530188304
[01]  G07  f 38  -3112.1 2046004.1  1.0  1.0  5  0 530188307
[02]  G08  f 37   -378.3 2046000.4  1.0  1.0  5  0 530188313
[03]  G09  7 35   1053.0 2045998.7  1.0  1.0  5  0         5
$GNGGA,000000.000,,,,,0,00,,,M,,,,0000*2B
$GNRMC,000000.000,A,,,,,,,000000,,*26
$GPGSA,A,1,,,,,,,,,,,,,,,*1E
$BDGSA,A,1,,,,,,,,,,,,,,,*0F
$GPGSV,1,1,04,04,00,000,38,07,00,000,38,08,00,000,37,09,00,000,35*7D
$LOGTIM,0,0.000000,0.000000,0.000000,0.000000,0.000*0A
EndT:        0
ch4 satid=15,max_freq = -1500,max_mean = 24137,max_phase = 1983,max_value = 730093,acq ok1!
acq ok1 timeH = 0,timeL = 268075824,freq_stage = 4
---00000015--- Acq_st=3 2019-5-25 03:16:12 
[00]  G04  f 38    -15.5 2046000.0  1.0  1.0  5  0 530189304
[01]  G07  f 38  -3110.6 2046004.0  1.0  1.0  5  0 530189307
[02]  G08  f 37   -377.2 2046000.5  1.0  1.0  5  0 530189313
[03]  G09  7 35   1054.8 2045998.6  1.0  0.9  5  0         5
[04]  G16  1 23   1419.6 2045998.2 -0.0  0.0  1  0         0
$GNGGA,000000.000,,,,,0,00,,,M,,,,0000*2B
$GNRMC,000000.000,A,,,,,,,000000,,*26
$GPGSA,A,1,,,,,,,,,,,,,,,*1E
$BDGSA,A,1,,,,,,,,,,,,,,,*0F
$GPGSV,1,1,04,04,00,000,38,07,00,000,38,08,00,000,37,09,00,000,35*7D
$LOGTIM,0,0.000000,0.000000,0.000000,0.000000,0.000*0A
EndT:        0
---00000016--- Acq_st=3 2019-5-25 03:16:13 
[00]  G04  f 38    -18.2 2046000.0  1.0  1.0  5  0 530190304
[01]  G07  f 38  -3112.9 2046004.0  1.0  1.0  5  0 530190307
[02]  G08  f 38   -379.0 2046000.4  1.0  1.0  5  0 530190313
[03]  G09  f 36   1052.4 2045998.6  1.0  1.0  5  0         5
[04]  G16  7 26   1414.5 2045998.1  0.5  0.0 20  0        19
$GNGGA,000000.000,,,,,0,00,,,M,,,,0000*2B
$GNRMC,000000.000,A,,,,,,,000000,,*26
$GPGSA,A,1,,,,,,,,,,,,,,,*1E
$BDGSA,A,1,,,,,,,,,,,,,,,*0F
$GPGSV,2,1,05,04,00,000,38,07,00,000,38,08,00,000,38,09,00,000,36*73
$GPGSV,2,2,05,16,00,000,26*4F
$LOGTIM,0,0.000000,0.000000,0.000000,0.000000,0.000*0A
EndT:        0
---00000017--- Acq_st=3 2019-5-25 03:16:14 
[00]  G04  f 38    -20.1 2046000.0  1.0  1.0  5  0 530191304
[01]  G07  f 38  -3116.1 2046004.0  1.0  0.9  5  0 530191307
[02]  G08  f 36   -381.6 2046000.5  1.0  1.0  5  0 530191313
[03]  G09  f 36   1050.5 2045998.5  1.0  1.0  5  0 530191305
[04]  G16  7 44   1411.6 2045998.1  0.9  1.0  5  0         7
$GNGGA,000000.000,,,,,0,00,,,M,,,,0000*2B
$GNRMC,000000.000,A,,,,,,,000000,,*26
$GPGSA,A,1,,,,,,,,,,,,,,,*1E
$BDGSA,A,1,,,,,,,,,,,,,,,*0F
$GPGSV,2,1,05,04,00,000,38,07,00,000,38,08,00,000,36,09,00,000,36*7D
$GPGSV,2,2,05,16,00,000,44*4B
$LOGTIM,0,0.000000,0.000000,0.000000,0.000000,0.000*0A
EndT:        0
---00000018--- Acq_st=3 2019-5-25 03:16:15 
[00]  G04  f 38    -25.7 2046000.0  1.0  1.0  5  0 530192304
[01]  G07  f 38  -3121.4 2046004.1  1.0  1.0  5  0 530192307
[02]  G08  f 36   -387.8 2046000.6  1.0  1.0  5  0 530192313
[03]  G09  f 37   1043.8 2045998.6  1.0  1.0  5  0 530192305
[04]  G16  7 44   1405.2 2045998.1  1.0  1.0  5  0         7
$GNGGA,000000.000,,,,,0,00,,,M,,,,0000*2B
$GNRMC,000000.000,A,,,,,,,000000,,*26
$GPGSA,A,1,,,,,,,,,,,,,,,*1E
$BDGSA,A,1,,,,,,,,,,,,,,,*0F
$GPGSV,2,1,05,04,00,000,38,07,00,000,38,08,00,000,36,09,00,000,37*7C
$GPGSV,2,2,05,16,00,000,44*4B
$LOGTIM,0,0.000000,0.000000,0.000000,0.000000,0.000*0A
EndT:        0
---00000019--- Acq_st=3 2019-5-25 03:16:16 
[00]  G04  f 37    -19.7 2046000.0  1.0  0.9  5  0 530193304
[01]  G07  f 38  -3115.8 2046004.1  1.0  1.0  5  0 530193307
[02]  G08  f 37   -381.3 2046000.5  1.0  1.0  5  0 530193313
[03]  G09  f 37   1050.1 2045998.7  1.0  1.0  5  0 530193305
[04]  G16  7 44   1411.2 2045998.1  1.0  1.0  5  0         7
$GNGGA,000000.000,,,,,0,00,,,M,,,,0000*2B
$GNRMC,000000.000,A,,,,,,,000000,,*26
$GPGSA,A,1,,,,,,,,,,,,,,,*1E
$BDGSA,A,1,,,,,,,,,,,,,,,*0F
$GPGSV,2,1,05,04,00,000,37,07,00,000,38,08,00,000,37,09,00,000,37*72
$GPGSV,2,2,05,16,00,000,44*4B
$LOGTIM,0,0.000000,0.000000,0.000000,0.000000,0.000*0A
EndT:        0
---00000020--- Acq_st=3 2019-5-25 03:16:17 
[00]  G04  f 38    -20.4 2046000.1  1.0  1.0  5  0 530194304
[01]  G07  f 38  -3116.6 2046004.0  1.0  1.0  5  0 530194307
[02]  G08  f 37   -382.3 2046000.4  1.0  1.0  5  0 530194313
[03]  G09  f 37   1049.3 2045998.6  1.0  1.0  5  0 530194305
[04]  G16  7 44   1409.8 2045998.1  1.0  1.0  5  0         7
$GNGGA,000000.000,,,,,0,00,,,M,,,,0000*2B
$GNRMC,000000.000,A,,,,,,,000000,,*26
$GPGSA,A,1,,,,,,,,,,,,,,,*1E
$BDGSA,A,1,,,,,,,,,,,,,,,*0F
$GPGSV,2,1,05,04,00,000,38,07,00,000,38,08,00,000,37,09,00,000,37*7D
$GPGSV,2,2,05,16,00,000,44*4B
$LOGTIM,0,0.000000,0.000000,0.000000,0.000000,0.000*0A
EndT:        0
---00000021--- Acq_st=3 2019-5-25 03:16:18 
[00]  G04  f 38    -20.9 2046000.0  1.0  1.0  5  0 530195304
[01]  G07  f 39  -3117.2 2046004.0  1.0  1.0  5  0 530195307
[02]  G08  f 37   -382.4 2046000.5  1.0  1.0  5  0 530195313
[03]  G09  f 36   1048.8 2045998.6  1.0  1.0  5  0 530195305
[04]  G16  7 44   1409.0 2045998.2  1.0  1.0  5  0         7
$GNGGA,000000.000,,,,,0,00,,,M,,,,0000*2B
$GNRMC,000000.000,A,,,,,,,000000,,*26
$GPGSA,A,1,,,,,,,,,,,,,,,*1E
$BDGSA,A,1,,,,,,,,,,,,,,,*0F
$GPGSV,2,1,05,04,00,000,38,07,00,000,39,08,00,000,37,09,00,000,36*7D
$GPGSV,2,2,05,16,00,000,44*4B
$LOGTIM,0,0.000000,0.000000,0.000000,0.000000,0.000*0A
EndT:        0
---00000022--- Acq_st=3 2019-5-25 03:16:19 
[00]  G04  f 38    -24.3 2046000.0  1.0  1.0  5  0 530196304
[01]  G07  f 39  -3121.4 2046004.0  1.0  1.0  5  0 530196307
[02]  G08  f 37   -386.4 2046000.5  1.0  1.0  5  0 530196313
[03]  G09  f 35   1044.9 2045998.7  1.0  1.0  5  0 530196305
[04]  G16  f 44   1404.7 2045998.2  1.0  1.0  5  0         7
$GNGGA,000000.000,,,,,0,00,,,M,,,,0000*2B
$GNRMC,000000.000,A,,,,,,,000000,,*26
$GPGSA,A,1,,,,,,,,,,,,,,,*1E
$BDGSA,A,1,,,,,,,,,,,,,,,*0F
$GPGSV,2,1,05,04,00,000,38,07,00,000,39,08,00,000,37,09,00,000,35*7E
$GPGSV,2,2,05,16,00,000,44*4B
$LOGTIM,0,0.000000,0.000000,0.000000,0.000000,0.000*0A
EndT:        0
---00000023--- Acq_st=3 2019-5-25 03:16:20 
[00]  G04  f 38    -23.4 2046000.0  1.0  1.0  5  0 530197304
[01]  G07  f 39  -3120.2 2046004.1  1.0  1.0  5  0 530197307
[02]  G08  f 37   -384.9 2046000.5  1.0  1.0  5  0 530197313
[03]  G09  f 35   1046.9 2045998.6  1.0  0.9  5  0 530197305
[04]  G16  f 44   1406.0 2045998.2  1.0  1.0  5  0 530197307
$GNGGA,000000.000,,,,,0,00,,,M,,,,0000*2B
$GNRMC,000000.000,A,,,,,,,000000,,*26
$GPGSA,A,1,,,,,,,,,,,,,,,*1E
$BDGSA,A,1,,,,,,,,,,,,,,,*0F
$GPGSV,2,1,05,04,00,000,38,07,00,000,39,08,00,000,37,09,00,000,35*7E
$GPGSV,2,2,05,16,00,000,44*4B
$LOGTIM,0,0.000000,0.000000,0.000000,0.000000,0.000*0A
EndT:        0
---00000024--- Acq_st=3 2019-5-25 03:16:21 
[00]  G04  f 38    -23.3 2046000.0  1.0  0.9  5  0 530198304
[01]  G07  f 39  -3120.4 2046004.1  1.0  1.0  5  0 530198307
[02]  G08  f 37   -384.8 2046000.5  1.0  1.0  5  0 530198313
[03]  G09  f 35   1045.3 2045998.6  1.0  0.9  5  0 530198305
[04]  G16  f 44   1405.3 2045998.2  1.0  1.0  5  0 530198307
$GNGGA,000000.000,,,,,0,00,,,M,,,,0000*2B
$GNRMC,000000.000,A,,,,,,,000000,,*26
$GPGSA,A,1,,,,,,,,,,,,,,,*1E
$BDGSA,A,1,,,,,,,,,,,,,,,*0F
$GPGSV,2,1,05,04,00,000,38,07,00,000,39,08,00,000,37,09,00,000,35*7E
$GPGSV,2,2,05,16,00,000,44*4B
$LOGTIM,0,0.000000,0.000000,0.000000,0.000000,0.000*0A
EndT:        0
ch5 satid=26,max_freq = -1750,max_mean = 25383,max_phase = 1387,max_value = 1063097,acq ok1!
acq ok1 timeH = 0,timeL = 457018230,freq_stage = 4
---00000025--- Acq_st=3 2019-5-25 03:16:22 
[00]  G04  f 38    -27.7 2046000.0  1.0  1.0  5  0 530199304
[01]  G07  f 39  -3125.0 2046004.1  1.0  1.0  5  0 530199307
[02]  G08  f 37   -389.8 2046000.5  1.0  0.9  5  0 530199313
[03]  G09  f 36   1041.7 2045998.7  1.0  1.0  5  0 530199305
[04]  G16  f 44   1400.5 2045998.2  1.0  1.0  5  0 530199307
[05]  G27  1 29   1741.4 2045997.7  0.1  0.0  1  0         0
$GNGGA,000000.000,,,,,0,00,,,M,,,,0000*2B
$GNRMC,000000.000,A,,,,,,,000000,,*26
$GPGSA,A,1,,,,,,,,,,,,,,,*1E
$BDGSA,A,1,,,,,,,,,,,,,,,*0F
$GPGSV,2,1,05,04,00,000,38,07,00,000,39,08,00,000,37,09,00,000,36*7D
$GPGSV,2,2,05,16,00,000,44*4B
$LOGTIM,0,0.000000,0.000000,0.000000,0.000000,0.000*0A
EndT:        0
---00000026--- Acq_st=3 2019-5-25 03:16:23 
[00]  G04  f 39    -27.0 2046000.0  1.0  1.0  5  0 530200304
[01]  G07  f 39  -3124.7 2046004.1  1.0  1.0  5  0 530200307
[02]  G08  f 37   -388.9 2046000.5  1.0  1.0  5  0 530200313
[03]  G09  f 36   1042.3 2045998.7  1.0  1.0  5  0 530200305
[04]  G16  f 44   1400.3 2045998.2  1.0  1.0  5  0 530200307
[05]  G27  7 28   1739.6 2045997.7  0.5  1.0 10  0        17
$GNGGA,000000.000,,,,,0,00,,,M,,,,0000*2B
$GNRMC,000000.000,A,,,,,,,000000,,*26
$GPGSA,A,1,,,,,,,,,,,,,,,*1E
$BDGSA,A,1,,,,,,,,,,,,,,,*0F
$GPGSV,2,1,06,04,00,000,39,07,00,000,39,08,00,000,37,09,00,000,36*7F
$GPGSV,2,2,06,16,00,000,44,27,00,000,28*77
$LOGTIM,0,0.000000,0.000000,0.000000,0.000000,0.000*0A
EndT:        0
ch6 satid=29,max_freq = 3750,max_mean = 25243,max_phase = 1131,max_value = 274471,acq ok1!
acq ok1 timeH = 0,timeL = 498256857,freq_stage = 1
---00000027--- Acq_st=3 2019-5-25 03:16:24 
[00]  G04  f 38    -26.2 2046000.0  1.0  1.0  5  0 530201304
[01]  G07  f 39  -3123.9 2046004.1  1.0  1.0  5  0 530201307
[02]  G08  f 37   -388.0 2046000.5  1.0  1.0  5  0 530201313
[03]  G09  f 36   1042.5 2045998.7  1.0  0.9  5  0 530201305
[04]  G16  f 44   1400.7 2045998.2  1.0  1.0  5  0 530201307
[05]  G27  7 45   1740.1 2045997.7  1.0  1.0  5  0        11
[06]  G30  1  7  -3684.0 2046005.6  0.0  0.0  1  0         0
$GNGGA,000000.000,,,,,0,00,,,M,,,,0000*2B
$GNRMC,000000.000,A,,,,,,,000000,,*26
$GPGSA,A,1,,,,,,,,,,,,,,,*1E
$BDGSA,A,1,,,,,,,,,,,,,,,*0F
$GPGSV,2,1,06,04,00,000,38,07,00,000,39,08,00,000,37,09,00,000,36*7E
$GPGSV,2,2,06,16,00,000,44,27,00,000,45*7C
$LOGTIM,0,0.000000,0.000000,0.000000,0.000000,0.000*0A
EndT:        0
---00000028--- Acq_st=3 2019-5-25 03:16:25 
[00]  G04  f 38    -19.9 2046000.0  1.0  1.0  5  0 530202304
[01]  G07  f 38  -3118.1 2046004.0  1.0  1.0  5  0 530202307
[02]  G08  f 37   -382.4 2046000.4  1.0  0.9  5  0 530202313
[03]  G09  f 36   1049.0 2045998.6  1.0  1.0  5  0 530202305
[04]  G16  f 44   1406.5 2045998.2  1.0  1.0  5  0 530202307
[05]  G27  f 44   1745.8 2045997.7  1.0  1.0  5  0        11
[06]  G30  1 27  -3798.9 2046005.7  0.0  0.0  1  0        13
$GNGGA,000000.000,,,,,0,00,,,M,,,,0000*2B
$GNRMC,000000.000,A,,,,,,,000000,,*26
$GPGSA,A,1,,,,,,,,,,,,,,,*1E
$BDGSA,A,1,,,,,,,,,,,,,,,*0F
$GPGSV,2,1,06,04,00,000,38,07,00,000,38,08,00,000,37,09,00,000,36*7F
$GPGSV,2,2,06,16,00,000,44,27,00,000,44*7D
$LOGTIM,0,0.000000,0.000000,0.000000,0.000000,0.000*0A
EndT:        0
---00000029--- Acq_st=3 2019-5-25 03:16:26 
[00]  G04  f 39    -17.2 2046000.0  1.0  1.0  5  0 530203304
[01]  G07  f 39  -3116.1 2046004.1  1.0  1.0  5  0 530203307
[02]  G08  f 38   -380.2 2046000.5  1.0  1.0  5  0 530203313
[03]  G09  f 35   1050.5 2045998.7  1.0  1.0  5  0 530203305
[04]  G16  f 44   1408.6 2045998.2  1.0  1.0  5  0 530203307
[05]  G27  f 44   1748.0 2045997.7  1.0  1.0  5  0 530203311
[06]  G30  7 33  -3797.6 2046004.9  0.4  1.0  5  0        13
$GNGGA,000000.000,,,,,0,00,,,M,,,,0000*2B
$GNRMC,000000.000,A,,,,,,,000000,,*26
$GPGSA,A,1,,,,,,,,,,,,,,,*1E
$BDGSA,A,1,,,,,,,,,,,,,,,*0F
$GPGSV,2,1,07,04,00,000,39,07,00,000,39,08,00,000,38,09,00,000,35*72
$GPGSV,2,2,07,16,00,000,44,27,00,000,44,30,00,000,33*4F
$LOGTIM,0,0.000000,0.000000,0.000000,0.000000,0.000*0A
EndT:        0
---00000030--- Acq_st=3 2019-5-25 03:16:27 
[00]  G04  f 39    -14.1 2046000.0  1.0  1.0  5  0 530204304
[01]  G07  f 40  -3112.7 2046004.0  1.0  1.0  5  0 530204307
[02]  G08  f 38   -376.6 2046000.4  1.0  1.0  5  0 530204313
[03]  G09  f 35   1054.0 2045998.6  1.0  1.0  5  0 530204305
[04]  G16  f 45   1411.5 2045998.1  1.0  1.0  5  0 530204307
[05]  G27  f 44   1751.5 2045997.7  1.0  1.0  5  0 530204311
[06]  G30  7 40  -3794.9 2046004.9  1.0  1.0  5  0        19
$GNGGA,000000.000,,,,,0,00,,,M,,,,0000*2B
$GNRMC,000000.000,A,,,,,,,000000,,*26
$GPGSA,A,1,,,,,,,,,,,,,,,*1E
$BDGSA,A,1,,,,,,,,,,,,,,,*0F
$GPGSV,2,1,07,04,00,000,39,07,00,000,40,08,00,000,38,09,00,000,35*7C
$GPGSV,2,2,07,16,00,000,45,27,00,000,44,30,00,000,40*4A
$LOGTIM,0,0.000000,0.000000,0.000000,0.000000,0.000*0A
EndT:        0
---00000031--- Acq_st=3 2019-5-25 03:16:28 
[00]  G04  f 39    -13.6 2046000.0  1.0  1.0  5  0 530205304
[01]  G07  f 40  -3113.1 2046004.0  1.0  1.0  5  0 530205307
[02]  G08  f 38   -376.6 2046000.4  1.0  1.0  5  0 530205313
[03]  G09  f 35   1055.3 2045998.6  1.0  1.0  5  0 530205305
[04]  G16  f 45   1411.3 2045998.2  1.0  1.0  5  0 530205307
[05]  G27  f 44   1751.4 2045997.7  1.0  1.0  5  0 530205311
[06]  G30  7 40  -3795.3 2046005.0  1.0  1.0  5  0        19
$GNGGA,000000.000,,,,,0,00,,,M,,,,0000*2B
$GNRMC,000000.000,A,,,,,,,000000,,*26
$GPGSA,A,1,,,,,,,,,,,,,,,*1E
$BDGSA,A,1,,,,,,,,,,,,,,,*0F
$GPGSV,2,1,07,04,00,000,39,07,00,000,40,08,00,000,38,09,00,000,35*7C
$GPGSV,2,2,07,16,00,000,45,27,00,000,44,30,00,000,40*4A
$LOGTIM,0,0.000000,0.000000,0.000000,0.000000,0.000*0A
EndT:        0
---00000032--- Acq_st=3 2019-5-25 03:16:29 
[00]  G04  f 39    -15.7 2046000.0  1.0  1.0  5  0 530206304
[01]  G07  f 41  -3115.2 2046004.1  1.0  1.0  5  0 530206307
[02]  G08  f 37   -379.0 2046000.6  1.0  1.0  5  0 530206313
[03]  G09  f 35   1052.4 2045998.6  1.0  1.0  5  0 530206305
[04]  G16  f 44   1408.6 2045998.2  1.0  1.0  5  0 530206307
[05]  G27  f 44   1748.9 2045997.8  1.0  1.0  5  0 530206311
[06]  G30  7 39  -3797.5 2046005.0  1.0  0.9  5  0        19
$GNGGA,000000.000,,,,,0,00,,,M,,,,0000*2B
$GNRMC,000000.000,A,,,,,,,000000,,*26
$GPGSA,A,1,,,,,,,,,,,,,,,*1E
$BDGSA,A,1,,,,,,,,,,,,,,,*0F
$GPGSV,2,1,07,04,00,000,39,07,00,000,41,08,00,000,37,09,00,000,35*72
$GPGSV,2,2,07,16,00,000,44,27,00,000,44,30,00,000,39*45
$LOGTIM,0,0.000000,0.000000,0.000000,0.000000,0.000*0A
EndT:        0
---00000033--- Acq_st=3 2019-5-25 03:16:30 
[00]  G04  f 39    -19.3 2046000.0  1.0  1.0  5 3f 530207304
[01]  G07  f 40  -3119.2 2046004.0  1.0  1.0  5  0 530207307
[02]  G08  f 36   -383.0 2046000.6  1.0  1.0  5  0 530207313
[03]  G09  f 35   1049.7 2045998.6  1.0  1.0  5  0 530207305
[04]  G16  f 44   1405.1 2045998.2  1.0  1.0  5  0 530207307
[05]  G27  f 43   1745.7 2045997.8  1.0  1.0  5  0 530207311
[06]  G30  7 39  -3801.4 2046004.9  1.0  1.0  5  0        19
$GNGGA,000000.000,,,,,0,00,,,M,,,,0000*2B
$GNRMC,000000.000,A,,,,,,,000000,,*26
$GPGSA,A,1,,,,,,,,,,,,,,,*1E
$BDGSA,A,1,,,,,,,,,,,,,,,*0F
$GPGSV,2,1,07,04,00,000,39,07,00,000,40,08,00,000,36,09,00,000,35*72
$GPGSV,2,2,07,16,00,000,44,27,00,000,43,30,00,000,39*42
$LOGTIM,0,0.000000,0.000000,0.000000,0.000000,0.000*0A
EndT:        0
---00000034--- Acq_st=3 2019-5-25 03:16:31 
[00]  G04  f 39    -20.2 2046000.0  1.0  1.0  5 3f 530208304
[01]  G07  f 41  -3120.6 2046004.1  1.0  1.0  5  0 530208307
[02]  G08  f 36   -383.4 2046000.5  1.0  1.0  5  0 530208313
[03]  G09  f 36   1047.2 2045998.7  1.0  1.0  5  0 530208305
[04]  G16  f 44   1403.4 2045998.2  1.0  1.0  5  0 530208307
[05]  G27  f 42   1744.0 2045997.8  1.0  1.0  5  0 530208311
[06]  G30  f 39  -3803.2 2046004.9  1.0  1.0  5  0        19
$GNGGA,000000.000,,,,,0,00,,,M,,,,0000*2B
$GNRMC,000000.000,A,,,,,,,000000,,*26
$GPGSA,A,1,,,,,,,,,,,,,,,*1E
$BDGSA,A,1,,,,,,,,,,,,,,,*0F
$GPGSV,2,1,07,04,00,000,39,07,00,000,41,08,00,000,36,09,00,000,36*70
$GPGSV,2,2,07,16,00,000,44,27,00,000,42,30,00,000,39*43
$LOGTIM,0,0.000000,0.000000,0.000000,0.000000,0.000*0A
EndT:        0
---00000035--- Acq_st=3 2019-5-25 03:16:32 
[00]  G04  f 39    -21.3 2046000.0  1.0  1.0  5 3f 530209304
[01]  G07  f 41  -3121.8 2046004.1  1.0  1.0  5  0 530209307
[02]  G08  f 37   -385.1 2046000.5  1.0  1.0  5  0 530209313
[03]  G09  f 35   1046.1 2045998.6  1.0  1.0  5  0 530209305
[04]  G16  f 45   1401.7 2045998.2  1.0  1.0  5  0 530209307
[05]  G27  f 43   1742.8 2045997.8  1.0  1.0  5  0 530209311
[06]  G30  f 40  -3805.0 2046005.0  1.0  0.9  5  0 530209299
$GNGGA,000000.000,,,,,0,00,,,M,,,,0000*2B
$GNRMC,000000.000,A,,,,,,,000000,,*26
$GPGSA,A,1,,,,,,,,,,,,,,,*1E
$BDGSA,A,1,,,,,,,,,,,,,,,*0F
$GPGSV,2,1,07,04,00,000,39,07,00,000,41,08,00,000,37,09,00,000,35*72
$GPGSV,2,2,07,16,00,000,45,27,00,000,43,30,00,000,40*4D
$LOGTIM,0,0.000000,0.000000,0.000000,0.000000,0.000*0A
EndT:        0
---00000036--- Acq_st=3 2019-5-25 03:16:33 
[00]  G04  f 39    -13.3 2046000.0  1.0  1.0  5 3f 530210304
[01]  G07  f 41  -3114.1 2046004.0  1.0  1.0  5  0 530210307
[02]  G08  f 36   -377.3 2046000.4  1.0  1.0  5  0 530210313
[03]  G09  f 34   1054.8 2045998.7  1.0  1.0  5  0 530210305
[04]  G16  f 45   1409.2 2045998.2  1.0  1.0  5  0 530210307
[05]  G27  f 42   1750.4 2045997.7  1.0  1.0  5  0 530210311
[06]  G30  f 40  -3797.5 2046004.9  1.0  1.0  5  0 530210299
$GNGGA,000000.000,,,,,0,00,,,M,,,,0000*2B
$GNRMC,000000.000,A,,,,,,,000000,,*26
$GPGSA,A,1,,,,,,,,,,,,,,,*1E
$BDGSA,A,1,,,,,,,,,,,,,,,*0F
$GPGSV,2,1,07,04,00,000,39,07,00,000,41,08,00,000,36,09,00,000,34*72
$GPGSV,2,2,07,16,00,000,45,27,00,000,42,30,00,000,40*4C
$LOGTIM,0,0.000000,0.000000,0.000000,0.000000,0.000*0A
EndT:        0
---00000037--- Acq_st=3 2019-5-25 03:16:34 
[00]  G04  f 39    -10.6 2046000.0  1.0  1.0  5 3f 530211304
[01]  G07  f 41  -3111.5 2046004.1  1.0  1.0  5  0 530211307
[02]  G08  f 37   -373.8 2046000.5  1.0  1.0  5  0 530211313
[03]  G09  f 34   1056.4 2045998.7  1.0  0.9  5  0 530211305
[04]  G16  f 45   1411.7 2045998.2  1.0  1.0  5  0 530211307
[05]  G27  f 42   1752.7 2045997.7  1.0  1.0  5  0 530211311
[06]  G30  f 40  -3794.6 2046005.0  1.0  1.0  5  0 530211299
$GNGGA,000000.000,,,,,0,00,,,M,,,,0000*2B
$GNRMC,000000.000,A,,,,,,,000000,,*26
$GPGSA,A,1,,,,,,,,,,,,,,,*1E
$BDGSA,A,1,,,,,,,,,,,,,,,*0F
$GPGSV,2,1,07,04,00,000,39,07,00,000,41,08,00,000,37,09,00,000,34*73
$GPGSV,2,2,07,16,00,000,45,27,00,000,42,30,00,000,40*4C
$LOGTIM,0,0.000000,0.000000,0.000000,0.000000,0.000*0A
EndT:        0
---00000038--- Acq_st=3 2019-5-25 03:16:35 
[00]  G04  f 40     -9.9 2046000.0  1.0  1.0  5 3f 530212304
[01]  G07  f 41  -3110.7 2046004.1  1.0  1.0  5  0 530212307
[02]  G08  f 37   -373.1 2046000.5  1.0  1.0  5  0 530212313
[03]  G09  f 34   1057.6 2045998.6  1.0  0.9  5  0 530212305
[04]  G16  f 45   1412.0 2045998.2  1.0  1.0  5  0 530212307
[05]  G27  f 42   1753.7 2045997.7  1.0  1.0  5  0 530212311
[06]  G30  f 39  -3794.6 2046004.9  1.0  1.0  5  0 530212299
$GNGGA,000000.000,,,,,0,00,,,M,,,,0000*2B
$GNRMC,000000.000,A,,,,,,,000000,,*26
$GPGSA,A,1,,,,,,,,,,,,,,,*1E
$BDGSA,A,1,,,,,,,,,,,,,,,*0F
$GPGSV,2,1,07,04,00,000,40,07,00,000,41,08,00,000,37,09,00,000,34*7D
$GPGSV,2,2,07,16,00,000,45,27,00,000,42,30,00,000,39*42
$LOGTIM,0,0.000000,0.000000,0.000000,0.000000,0.000*0A
EndT:        0
---00000039--- Acq_st=3 2019-5-25 03:16:36 
[00]  G04  f 40     -3.3 2046000.0  1.0  1.0  5 3f 530213304
[01]  G07  f 42  -3104.9 2046004.0  1.0  1.0  5  0 530213307
[02]  G08  f 36   -366.9 2046000.5  1.0  1.0  5  0 530213313
[03]  G09  f 34   1064.4 2045998.6  1.0  1.0  5  0 530213305
[04]  G16  f 45   1417.8 2045998.2  1.0  1.0  5  0 530213307
[05]  G27  f 42   1759.6 2045997.7  1.0  1.0  5  0 530213311
[06]  G30  f 39  -3789.1 2046004.9  1.0  1.0  5  0 530213299
$GNGGA,000000.000,,,,,0,00,,,M,,,,0000*2B
$GNRMC,000000.000,A,,,,,,,000000,,*26
$GPGSA,A,1,,,,,,,,,,,,,,,*1E
$BDGSA,A,1,,,,,,,,,,,,,,,*0F
$GPGSV,2,1,07,04,00,000,40,07,00,000,42,08,00,000,36,09,00,000,34*7F
$GPGSV,2,2,07,16,00,000,45,27,00,000,42,30,00,000,39*42
$LOGTIM,0,0.000000,0.000000,0.000000,0.000000,0.000*0A
EndT:        0
---00000040--- Acq_st=3 2019-5-25 03:16:37 
[00]  G04  f 40     -1.9 2046000.0  1.0  1.0  5 3f 530214304
[01]  G07  f 41  -3103.5 2046004.0  1.0  1.0  5  0 530214307
[02]  G08  f 36   -365.7 2046000.5  1.0  1.0  5  0 530214313
[03]  G09  f 33   1066.0 2045998.9  1.0  0.9  5  0 530214305
[04]  G16  f 45   1419.3 2045998.1  1.0  1.0  5  0 530214307
[05]  G27  f 42   1761.1 2045997.7  1.0  1.0  5  0 530214311
[06]  G30  f 39  -3787.6 2046004.9  1.0  1.0  5  0 530214299
$GNGGA,000000.000,,,,,0,00,,,M,,,,0000*2B
$GNRMC,000000.000,A,,,,,,,000000,,*26
$GPGSA,A,1,,,,,,,,,,,,,,,*1E
$BDGSA,A,1,,,,,,,,,,,,,,,*0F
$GPGSV,2,1,07,04,00,000,40,07,00,000,41,08,00,000,36,09,00,000,33*7B
$GPGSV,2,2,07,16,00,000,45,27,00,000,42,30,00,000,39*42
$LOGTIM,0,0.000000,0.000000,0.000000,0.000000,0.000*0A
EndT:        0
---00000041--- Acq_st=3 2019-5-25 03:16:38 
[00]  G04  f 40     -7.8 2046000.0  1.0  1.0  5 3f 530215304
[01]  G07  f 40  -3109.7 2046004.1  1.0  1.0  5  0 530215307
[02]  G08  f 35   -371.7 2046000.4  1.0  1.0  5  0 530215313
[03]  G09  f 32   1059.9 2045998.7  1.0  0.9  5  0 530215305
[04]  G16  f 44   1412.4 2045998.2  1.0  1.0  5  0 530215307
[05]  G27  f 43   1755.0 2045997.7  1.0  1.0  5  0 530215311
[06]  G30  f 38  -3794.4 2046005.0  1.0  1.0  5  0 530215299
ch16 satid=43,max_freq = 500,max_mean = 5942,max_phase = 3744,max_value = 36364,acq ok1!
acq ok1 timeH = 0,timeL = 765976130,freq_stage = 3
$GNGGA,000000.000,,,,,0,00,,,M,,,,0000*2B
$GNRMC,000000.000,A,,,,,,,000000,,*26
$GPGSA,A,1,,,,,,,,,,,,,,,*1E
$BDGSA,A,1,,,,,,,,,,,,,,,*0F
$GPGSV,2,1,07,04,00,000,40,07,00,000,40,08,00,000,35,09,00,000,32*78
$GPGSV,2,2,07,16,00,000,44,27,00,000,43,30,00,000,38*43
$LOGTIM,0,0.000000,0.000000,0.000000,0.000000,0.000*0A
EndT:        0
---00000042--- Acq_st=3 2019-5-25 03:16:39 
[00]  G04  f 40    -10.2 2046000.0  1.0  1.0  5 3f 530216304
[01]  G07  f 40  -3112.6 2046004.0  1.0  1.0  5  0 530216307
[02]  G08  f 37   -374.4 2046000.5  1.0  1.0  5  0 530216313
[03]  G09  f 31   1056.4 2045998.7  1.0  0.9  5  0 530216305
[04]  G16  f 45   1409.8 2045998.2  1.0  1.0  5  0 530216307
[05]  G27  f 43   1752.1 2045997.7  1.0  1.0  5  0 530216311
[06]  G30  f 38  -3797.5 2046005.0  1.0  1.0  5  0 530216299
[16]  B07  1  7   -659.9 4092002.7  0.1  0.0  1  0        48
$GNGGA,000000.000,,,,,0,00,,,M,,,,0000*2B
$GNRMC,000000.000,A,,,,,,,000000,,*26
$GPGSA,A,1,,,,,,,,,,,,,,,*1E
$BDGSA,A,1,,,,,,,,,,,,,,,*0F
$GPGSV,2,1,07,04,00,000,40,07,00,000,40,08,00,000,37,09,00,000,31*79
$GPGSV,2,2,07,16,00,000,45,27,00,000,43,30,00,000,38*42
$LOGTIM,0,0.000000,0.000000,0.000000,0.000000,0.000*0A
EndT:        0
---00000043--- Acq_st=3 2019-5-25 03:16:40 
[00]  G04  f 40    -14.7 2046000.1  1.0  1.0  5 3f 530217304
[01]  G07  f 41  -3116.8 2046004.1  1.0  1.0  5  0 530217307
[02]  G08  f 36   -378.9 2046000.5  1.0  1.0  5  0 530217313
[03]  G09  f 31   1052.7 2045998.7  1.0  0.9  5  0 530217305
[04]  G16  f 45   1404.9 2045998.2  1.0  1.0  5  0 530217307
[05]  G27  f 43   1747.4 2045997.7  1.0  1.0  5  0 530217311
[06]  G30  f 39  -3802.6 2046004.9  1.0  1.0  5  0 530217299
[16]  B07  7 30   -665.2 4092001.7  0.4  1.0  5  0      1048
$GNGGA,000000.000,,,,,0,00,,,M,,,,0000*2B
$GNRMC,000000.000,A,,,,,,,000000,,*26
$GPGSA,A,1,,,,,,,,,,,,,,,*1E
$BDGSA,A,1,,,,,,,,,,,,,,,*0F
$GPGSV,2,1,07,04,00,000,40,07,00,000,41,08,00,000,36,09,00,000,31*79
$GPGSV,2,2,07,16,00,000,45,27,00,000,43,30,00,000,39*43
$BDGSV,1,1,01,07,00,000,30*5D
$LOGTIM,0,0.000000,0.000000,0.000000,0.000000,0.000*0A
EndT:        0
---00000044--- Acq_st=3 2019-5-25 03:16:41 
[00]  G04  f 40    -15.3 2046000.0  1.0  1.0  5 3f 530218304
[01]  G07  f 40  -3118.6 2046004.1  1.0  1.0  5  0 530218307
[02]  G08  f 36   -379.8 2046000.5  1.0  1.0  5  0 530218313
[03]  G09  f 31   1051.5 2045998.7  1.0  1.0  5  0 530218305
[04]  G16  f 45   1403.5 2045998.2  1.0  1.0  5  0 530218307
[05]  G27  f 43   1746.3 2045997.7  1.0  1.0  5  0 530218311
[06]  G30  f 38  -3803.5 2046005.0  1.0  1.0  5  0 530218299
[16]  B07  7 37   -666.1 4092001.7  1.0  1.0  5  0      2040
$GNGGA,000000.000,,,,,0,00,,,M,,,,0000*2B
$GNRMC,000000.000,A,,,,,,,000000,,*26
$GPGSA,A,1,,,,,,,,,,,,,,,*1E
$BDGSA,A,1,,,,,,,,,,,,,,,*0F
$GPGSV,2,1,07,04,00,000,40,07,00,000,40,08,00,000,36,09,00,000,31*78
$GPGSV,2,2,07,16,00,000,45,27,00,000,43,30,00,000,38*42
$BDGSV,1,1,01,07,00,000,37*5A
$LOGTIM,0,0.000000,0.000000,0.000000,0.000000,0.000*0A
EndT:        0
---00000045--- Acq_st=3 2019-5-25 03:16:42 
[00]  G04  f 39    -14.8 2046000.1  1.0  1.0  5 3f 530219304
[01]  G07  f 40  -3117.4 2046004.1  1.0  1.0  5  0 530219307
[02]  G08  f 36   -378.5 2046000.5  1.0  1.0  5  0 530219313
[03]  G09  f 31   1052.7 2045998.6  1.0  1.0  5  0 530219305
[04]  G16  f 44   1404.0 2045998.2  1.0  1.0  5  0 530219307
[05]  G27  f 44   1746.9 2045997.7  1.0  1.0  5  0 530219311
[06]  G30  f 39  -3803.1 2046004.9  1.0  1.0  5  0 530219299
[16]  B07  7 37   -665.8 4092001.7  1.0  1.0  5  0      3040
$GNGGA,000000.000,,,,,0,00,,,M,,,,0000*2B
$GNRMC,000000.000,A,,,,,,,000000,,*26
$GPGSA,A,1,,,,,,,,,,,,,,,*1E
$BDGSA,A,1,,,,,,,,,,,,,,,*0F
$GPGSV,2,1,07,04,00,000,39,07,00,000,40,08,00,000,36,09,00,000,31*76
$GPGSV,2,2,07,16,00,000,44,27,00,000,44,30,00,000,39*45
$BDGSV,1,1,01,07,00,000,37*5A
$LOGTIM,0,0.000000,0.000000,0.000000,0.000000,0.000*0A
EndT:        0
---00000046--- Acq_st=3 2019-5-25 03:16:43 
[00]  G04  f 39    -13.0 2046000.0  1.0  1.0  5 3f 530220304
[01]  G07  f 40  -3116.4 2046004.1  1.0  1.0  5  0 530220307
[02]  G08  f 37   -377.3 2046000.5  1.0  1.0  5  0 530220313
[03]  G09  f 31   1053.5 2045998.7  1.0  0.9  5  0 530220305
[04]  G16  f 44   1404.8 2045998.2  1.0  1.0  5  0 530220307
[05]  G27  f 43   1748.2 2045997.7  1.0  1.0  5  0 530220311
[06]  G30  f 39  -3802.4 2046005.0  1.0  1.0  5  0 530220299
[16]  B07  7 38   -665.2 4092001.7  1.0  1.0  5  0      4040
$GNGGA,000000.000,,,,,0,00,,,M,,,,0000*2B
$GNRMC,000000.000,A,,,,,,,000000,,*26
$GPGSA,A,1,,,,,,,,,,,,,,,*1E
$BDGSA,A,1,,,,,,,,,,,,,,,*0F
$GPGSV,2,1,07,04,00,000,39,07,00,000,40,08,00,000,37,09,00,000,31*77
$GPGSV,2,2,07,16,00,000,44,27,00,000,43,30,00,000,39*42
$BDGSV,1,1,01,07,00,000,38*55
$LOGTIM,0,0.000000,0.000000,0.000000,0.000000,0.000*0A
EndT:        0
ch17 satid=46,max_freq = 750,max_mean = 6512,max_phase = 2555,max_value = 104832,acq ok1!
acq ok1 timeH = 0,timeL = 867309341,freq_stage = 3
---00000047--- Acq_st=3 2019-5-25 03:16:44 
[00]  G04  f 40    -10.3 2046000.0  1.0  1.0  5 3f 530221304
[01]  G07  f 39  -3113.2 2046004.0  1.0  1.0  5  0 530221307
[02]  G08  f 37   -374.5 2046000.5  1.0  1.0  5  0 530221313
[03]  G09  f 32   1056.3 2045998.6  1.0  0.9  5  0 530221305
[04]  G16  f 44   1407.7 2045998.2  1.0  1.0  5  0 530221307
[05]  G27  f 44   1750.8 2045997.7  1.0  1.0  5  0 530221311
[06]  G30  f 40  -3800.0 2046005.0  1.0  1.0  5  0 530221299
[16]  B07  7 37   -662.0 4092001.7  1.0  1.0  5  0      5040
[17]  B10  1  7   -758.7 4092002.3  0.0  0.0  1  0         0
$GNGGA,000000.000,,,,,0,00,,,M,,,,0000*2B
$GNRMC,000000.000,A,,,,,,,000000,,*26
$GPGSA,A,1,,,,,,,,,,,,,,,*1E
$BDGSA,A,1,,,,,,,,,,,,,,,*0F
$GPGSV,2,1,07,04,00,000,40,07,00,000,39,08,00,000,37,09,00,000,32*74
$GPGSV,2,2,07,16,00,000,44,27,00,000,44,30,00,000,40*4B
$BDGSV,1,1,01,07,00,000,37*5A
$LOGTIM,0,0.000000,0.000000,0.000000,0.000000,0.000*0A
EndT:        0
---00000048--- Acq_st=3 2019-5-25 03:16:45 
[00]  G04  f 40     -5.9 2046000.0  1.0  1.0  5 3f 530222304
[01]  G07  f 39  -3109.5 2046004.0  1.0  1.0  5  0 530222307
[02]  G08  f 36   -369.5 2046000.5  1.0  1.0  5  0 530222313
[03]  G09  f 33   1061.0 2045998.6  1.0  0.9  5  0 530222305
[04]  G16  f 44   1411.4 2045998.2  1.0  1.0  5  0 530222307
[05]  G27  f 44   1755.2 2045997.7  1.0  1.0  5  0 530222311
[06]  G30  f 39  -3796.1 2046004.9  1.0  1.0  5  0 530222299
[16]  B07  7 38   -659.5 4092001.7  1.0  1.0  5  0      6040
[17]  B10  7 26   -754.6 4092002.0  0.4  0.0 20  0       771
$GNGGA,000000.000,,,,,0,00,,,M,,,,0000*2B
$GNRMC,000000.000,A,,,,,,,000000,,*26
$GPGSA,A,1,,,,,,,,,,,,,,,*1E
$BDGSA,A,1,,,,,,,,,,,,,,,*0F
$GPGSV,2,1,07,04,00,000,40,07,00,000,39,08,00,000,36,09,00,000,33*74
$GPGSV,2,2,07,16,00,000,44,27,00,000,44,30,00,000,39*45
$BDGSV,1,1,02,07,00,000,38,10,00,000,26*63
$LOGTIM,0,0.000000,0.000000,0.000000,0.000000,0.000*0A
EndT:        0
---00000049--- Acq_st=3 2019-5-25 03:16:46 
[00]  G04  f 40     -9.8 2046000.0  1.0  1.0  5 3f 530223304
[01]  G07  f 39  -3113.0 2046004.1  1.0  0.9  5  0 530223307
[02]  G08  f 37   -374.0 2046000.4  1.0  1.0  5  0 530223313
[03]  G09  f 32   1057.4 2045998.6  1.0  1.0  5  0 530223305
[04]  G16  f 44   1407.3 2045998.2  1.0  1.0  5  0 530223307
[05]  G27  f 45   1751.2 2045997.7  1.0  1.0  5  0 530223311
[06]  G30  f 40  -3799.8 2046004.9  1.0  1.0  5  0 530223299
[16]  B07 1f 37   -662.9 4092001.7  1.0  1.0  5  0 530209260
[17]  B10  7 41   -758.8 4092002.0  0.8  1.0  5  0      1757
$GNGGA,000000.000,,,,,0,00,,,M,,,,0000*2B
$GNRMC,000000.000,A,,,,,,,000000,,*26
$GPGSA,A,1,,,,,,,,,,,,,,,*1E
$BDGSA,A,1,,,,,,,,,,,,,,,*0F
$GPGSV,2,1,07,04,00,000,40,07,00,000,39,08,00,000,37,09,00,000,32*74
$GPGSV,2,2,07,16,00,000,44,27,00,000,45,30,00,000,40*4A
$BDGSV,1,1,02,07,00,000,37,10,00,000,41*6D
$LOGTIM,0,0.000000,0.000000,0.000000,0.000000,0.000*0A
EndT:        0
ch18 satid=48,max_freq = -1500,max_mean = 6719,max_phase = 3323,max_value = 70595,acq ok1!
acq ok1 timeH = 0,timeL = 941616520,freq_stage = 4
---00000050--- Acq_st=3 2019-5-25 03:16:47 
[00]  G04  f 39    -13.0 2046000.0  1.0  1.0  5 3f 530224304
[01]  G07  f 38  -3117.2 2046004.1  1.0  1.0  5  0 530224307
[02]  G08  f 38   -377.5 2046000.5  1.0  1.0  5  0 530224313
[03]  G09  f 32   1053.2 2045998.6  1.0  0.9  5  0 530224305
[04]  G16  f 44   1403.6 2045998.2  1.0  1.0  5  0 530224307
[05]  G27  f 45   1747.5 2045997.7  1.0  1.0  5  0 530224311
[06]  G30  f 39  -3804.0 2046005.0  1.0  1.0  5  0 530224299
[16]  B07 1f 38   -667.0 4092001.8  1.0  0.9  5  0 530210260
[17]  B10  7 41   -762.7 4092002.0  1.0  1.0  5  0      2757
[18]  B12  1  7   1508.5 4091996.1 -0.0  0.0  1  0         0
$GNGGA,000000.000,,,,,0,00,,,M,,,,0000*2B
$GNRMC,000000.000,A,,,,,,,000000,,*26
$GPGSA,A,1,,,,,,,,,,,,,,,*1E
$BDGSA,A,1,,,,,,,,,,,,,,,*0F
$GPGSV,2,1,07,04,00,000,39,07,00,000,38,08,00,000,38,09,00,000,32*74
$GPGSV,2,2,07,16,00,000,44,27,00,000,45,30,00,000,39*44
$BDGSV,1,1,02,07,00,000,38,10,00,000,41*62
$LOGTIM,0,0.000000,0.000000,0.000000,0.000000,0.000*0A
EndT:        0
---00000051--- Acq_st=3 2019-5-25 03:16:48 
[00]  G04  f 39    -17.2 2046000.0  1.0  1.0  5 3f 530225304
[01]  G07  f 38  -3121.4 2046004.1  1.0  1.0  5  0 530225307
[02]  G08  f 38   -381.1 2046000.5  1.0  1.0  5  0 530225313
[03]  G09  f 31   1050.0 2045998.7  1.0  0.9  5  0 530225305
[04]  G16  f 44   1399.3 2045998.2  1.0  1.0  5  0 530225307
[05]  G27  f 45   1743.6 2045997.7  1.0  1.0  5  0 530225311
[06]  G30  f 38  -3808.6 2046004.9  1.0  1.0  5  0 530225299
[16]  B07 1f 38   -671.7 4092001.7  1.0  1.0  5  0 530211260
[17]  B10  7 41   -767.1 4092002.0  1.0  1.0  5  0      3757
[18]  B12  1  7   1517.6 4091995.8  0.3  0.0  1  0       252
lsq: nits= 4
$GNGGA,031648.382,3112.7289,N,12136.4319,E,1,04,2.3,20.9,M,,,,0000*23
$GNRMC,031648.382,A,3112.7289,N,12136.4319,E,0.40,0.00,250519,,*1F
$GPGSA,A,3,07,08,09,16,,,,,,,,,3.6,2.3,2.8*3D
$BDGSA,A,3,,,,,,,,,,,,,3.6,2.3,2.8*2D
$GPGSV,2,1,07,04,00,000,39,07,00,000,38,08,00,000,38,09,00,000,31*77
$GPGSV,2,2,07,16,00,000,44,27,00,000,45,30,00,000,38*45
$BDGSV,1,1,02,07,00,000,38,10,00,000,41*62
$LOGTIM,1,9632451.122880,0.000000,0.000000,0.000000,-64.402*1D
EndT:        0
---00000052--- Acq_st=3 2019-5-25 03:16:49 
[00]  G04  f 40    -12.0 2046000.0  1.0  1.0  5 3f 530226304
[01]  G07  f 38  -3116.2 2046004.0  1.0  1.0  5  0 530226307
[02]  G08  f 38   -376.4 2046000.5  1.0  1.0  5  0 530226313
[03]  G09  f 31   1054.5 2045998.6  1.0  0.9  5  0 530226305
[04]  G16  f 44   1403.8 2045998.2  1.0  1.0  5  0 530226307
[05]  G27  f 45   1748.0 2045997.7  1.0  1.0  5  0 530226311
[06]  G30  f 39  -3803.6 2046004.9  1.0  1.0  5  0 530226299
[16]  B07 1f 38   -667.6 4092001.8  1.0  1.0  5  0 530212260
[17]  B10  7 41   -763.3 4092002.0  1.0  1.0  5  0      4757
[18]  B12  7 35   1522.3 4091996.0  0.4  1.0  5  0      1252
lsq: nits= 4
$GNGGA,031650.000,3112.7345,N,12136.4327,E,1,04,2.3,19.4,M,,,,0000*28
$GNRMC,031650.000,A,3112.7345,N,12136.4327,E,0.24,0.00,250519,,*11
$GPGSA,A,3,07,08,09,16,,,,,,,,,3.6,2.3,2.8*3D
$BDGSA,A,3,,,,,,,,,,,,,3.6,2.3,2.8*2D
$GPGSV,2,1,07,04,00,000,40,07,00,000,38,08,00,000,38,09,00,000,31*79
$GPGSV,2,2,07,16,00,000,44,27,00,000,45,30,00,000,39*44
$BDGSV,1,1,03,07,00,000,38,10,00,000,41,12,00,000,35*56
$LOGTIM,1,-101.412528,0.000000,0.000000,0.000000,-62.605*34
EndT:        0
---00000053--- Acq_st=3 2019-5-25 03:16:50 
[00]  G04  f 40     -3.2 2046000.0  1.0  1.0  5 3f 530227922
[01]  G07  f 38  -3108.1 2046004.0  1.0  1.0  5  0 530227926
[02]  G08  f 39   -367.9 2046000.5  1.0  0.9  5  0 530227932
[03]  G09  f 30   1062.2 2045998.6  0.9  0.8  5  0 530227923
[04]  G16  f 44   1412.0 2045998.2  1.0  1.0  5  0 530227925
[05]  G27  f 46   1756.8 2045997.7  1.0  1.0  5  0 530227930
[06]  G30  f 39  -3795.3 2046004.9  1.0  1.0  5  0 530227917
[16]  B07 1f 37   -659.5 4092001.7  1.0  1.0  5  0 530213879
[17]  B10  7 41   -755.1 4092002.0  1.0  1.0  5  0      6375
[18]  B12  7 40   1530.6 4091995.9  1.0  1.0  5  0      2865
lsq: nits= 4
$GNGGA,031651.000,3112.7358,N,12136.4331,E,1,04,2.3,18.6,M,,,,0000*21
$GNRMC,031651.000,A,3112.7358,N,12136.4331,E,0.29,0.00,250519,,*16
$GPGSA,A,3,07,08,09,16,,,,,,,,,3.6,2.3,2.8*3D
$BDGSA,A,3,,,,,,,,,,,,,3.6,2.3,2.8*2D
$GPGSV,2,1,07,04,00,000,40,07,40,315,38,08,74,291,39,09,27,259,30*78
$GPGSV,2,2,07,16,36,064,44,27,00,000,46,30,00,000,39*40
$BDGSV,1,1,03,07,00,000,37,10,00,000,41,12,00,000,40*5B
$LOGTIM,1,-163.408606,0.000000,0.000000,0.000000,-62.273*31
EndT:        0
---00000054--- Acq_st=3 2019-5-25 03:16:51 
[00]  G04  f 40     -3.0 2046000.0  1.0  1.0  5 3f 530228922
[01]  G07  f 39  -3108.0 2046004.0  1.0  1.0  5  0 530228926
[02]  G08  f 38   -368.3 2046000.5  1.0  1.0  5  0 530228932
[03]  G09  f 31   1062.4 2045998.6  1.0  1.0  5  0 530228923
[04]  G16  f 44   1411.2 2045998.2  1.0  1.0  5  0 530228925
[05]  G27  f 46   1756.2 2045997.7  1.0  1.0  5  0 530228930
[06]  G30  f 39  -3796.5 2046004.9  1.0  1.0  5  0 530228917
[16]  B07 1f 38   -659.8 4092001.7  1.0  0.9  5  0 530214879
[17]  B10  7 41   -755.8 4092002.0  1.0  1.0  5  0      7375
[18]  B12 1f 39   1530.3 4091996.0  1.0  1.0  5  0      3865
lsq: nits= 4
$GNGGA,031652.000,3112.7343,N,12136.4339,E,1,04,2.3,18.7,M,,,,0000*21
$GNRMC,031652.000,A,3112.7343,N,12136.4339,E,0.11,0.00,250519,,*1C
$GPGSA,A,3,07,08,09,16,,,,,,,,,3.6,2.3,2.8*3D
$BDGSA,A,3,,,,,,,,,,,,,3.6,2.3,2.8*2D
$GPGSV,2,1,07,04,00,000,40,07,40,315,39,08,74,291,38,09,27,259,31*79
$GPGSV,2,2,07,16,36,064,44,27,00,000,46,30,00,000,39*40
$BDGSV,1,1,04,07,00,000,38,10,00,000,41,12,00,000,39,14,53,319,00*65
$LOGTIM,1,-226.444693,0.000000,0.000000,0.000000,-62.723*37
EndT:        0
---00000055--- Acq_st=3 2019-5-25 03:16:52 
[00]  G04  f 39     -7.6 2046000.0  1.0  1.0  5 3f 530229922
[01]  G07  f 40  -3113.0 2046004.0  1.0  1.0  5  0 530229926
[02]  G08  f 37   -372.6 2046000.5  1.0  0.9  5  0 530229932
[03]  G09  f 31   1058.4 2045998.8  1.0  1.0  5  0 530229923
[04]  G16  f 44   1406.5 2045998.2  1.0  1.0  5  0 530229925
[05]  G27  f 46   1751.5 2045997.7  1.0  1.0  5  0 530229930
[06]  G30  f 39  -3801.3 2046004.9  1.0  1.0  5  0 530229917
[16]  B07 1f 37   -664.1 4092001.7  1.0  1.0  5  0 530215879
[17]  B10 1f 41   -760.1 4092002.0  1.0  1.0  5  0 530215875
[18]  B12 1f 40   1526.1 4091996.0  1.0  1.0  5  0 530215925
lsq: nits= 4
$GNGGA,031653.000,3112.7330,N,12136.4346,E,1,04,2.3,19.3,M,,,,0000*29
$GNRMC,031653.000,A,3112.7330,N,12136.4346,E,0.08,0.00,250519,,*19
$GPGSA,A,3,07,08,09,16,,,,,,,,,3.6,2.3,2.8*3D
$BDGSA,A,3,,,,,,,,,,,,,3.6,2.3,2.8*2D
$GPGSV,2,1,07,04,00,000,39,07,40,315,40,08,74,291,37,09,27,259,31*76
$GPGSV,2,2,07,16,36,064,44,27,00,000,46,30,00,000,39*40
$BDGSV,1,1,04,07,00,000,37,10,00,000,41,12,00,000,40,14,53,319,00*64
$LOGTIM,1,-289.659762,0.000000,0.000000,0.000000,-63.069*3B
EndT:        0
---00000056--- Acq_st=3 2019-5-25 03:16:53 
[00]  G04  f 40     -7.3 2046000.1  1.0  1.0  5 3f 530230922
[01]  G07  f 39  -3112.7 2046004.1  1.0  1.0  5  0 530230926
[02]  G08  f 37   -372.3 2046000.5  1.0  1.0  5  0 530230932
[03]  G09  f 31   1057.7 2045998.7  1.0  1.0  5  0 530230923
[04]  G16  f 44   1406.3 2045998.2  1.0  1.0  5  0 530230925
[05]  G27  f 46   1751.6 2045997.7  1.0  1.0  5  0 530230930
[06]  G30  f 38  -3801.4 2046005.0  1.0  1.0  5  0 530230917
[16]  B07 1f 38   -664.9 4092001.7  1.0  1.0  5  0 530216879
[17]  B10 1f 41   -760.7 4092001.9  1.0  1.0  5  0 530216875
[18]  B12 1f 40   1525.7 4091996.0  1.0  1.0  5  0 530216925
lsq: nits= 4
$GNGGA,031654.000,3112.7317,N,12136.4351,E,1,04,2.3,20.2,M,,,,0000*26
$GNRMC,031654.000,A,3112.7317,N,12136.4351,E,0.04,0.00,250519,,*11
$GPGSA,A,3,07,08,09,16,,,,,,,,,3.6,2.3,2.8*3D
$BDGSA,A,3,,,,,,,,,,,,,3.6,2.3,2.8*2D
$GPGSV,2,1,07,04,00,000,40,07,40,315,39,08,74,291,37,09,27,259,31*76
$GPGSV,2,2,07,16,36,064,44,27,00,000,46,30,00,000,38*41
$BDGSV,1,1,04,07,00,000,38,10,00,000,41,12,00,000,40,14,53,319,00*6B
$LOGTIM,1,-352.673265,0.000000,0.000000,0.000000,-63.000*39
EndT:        0
---00000057--- Acq_st=3 2019-5-25 03:16:54 
[00]  G04  f 40     -4.6 2046000.0  1.0  1.0  5 3f 530231922
[01]  G07  f 39  -3110.4 2046004.0  1.0  1.0  5  0 530231926
[02]  G08  f 38   -369.6 2046000.5  1.0  1.0  5  0 530231932
[03]  G09  f 31   1061.4 2045998.8  1.0  0.8  5  0 530231923
[04]  G16  f 44   1408.7 2045998.2  1.0  1.0  5  0 530231925
[05]  G27  f 46   1754.4 2045997.7  1.0  1.0  5  0 530231930
[06]  G30  f 38  -3799.5 2046004.9  1.0  0.9  5  0 530231917
[16]  B07 1f 38   -662.8 4092001.7  1.0  1.0  5  0 530217879
[17]  B10 1f 41   -758.7 4092002.0  1.0  1.0  5  0 530217875
[18]  B12 1f 40   1528.1 4091996.0  1.0  1.0  5  0 530217925
lsq: nits= 4
$GNGGA,031655.000,3112.7244,N,12136.4376,E,1,05,2.2,15.0,M,,,,0000*21
$GNRMC,031655.000,A,3112.7244,N,12136.4376,E,0.32,0.00,250519,,*17
$GPGSA,A,3,07,08,09,16,27,,,,,,,,3.5,2.2,2.7*35
$BDGSA,A,3,,,,,,,,,,,,,3.5,2.2,2.7*20
$GPGSV,2,1,07,04,00,000,40,07,40,315,39,08,74,291,38,09,27,259,31*79
$GPGSV,2,2,07,16,36,064,44,27,00,000,46,30,00,000,38*41
$BDGSV,1,1,04,07,00,000,38,10,00,000,41,12,00,000,40,14,53,319,00*6B
$LOGTIM,1,-419.735564,0.000000,0.000000,0.000000,-63.190*3C
EndT:        1
---00000058--- Acq_st=3 2019-5-25 03:16:55 
[00]  G04  f 40     -3.9 2046000.1  1.0  1.0  5 3f 530232922
[01]  G07  f 40  -3110.0 2046004.0  1.0  1.0  5  0 530232926
[02]  G08  f 37   -369.0 2046000.5  1.0  1.0  5  0 530232932
[03]  G09  f 30   1061.3 2045998.8  0.9  0.9  5  0 530232923
[04]  G16  f 44   1408.9 2045998.2  1.0  1.0  5  0 530232925
[05]  G27  f 47   1754.7 2045997.7  1.0  1.0  5  0 530232930
[06]  G30  f 38  -3798.6 2046005.0  1.0  0.9  5  0 530232917
[16]  B07 1f 38   -662.5 4092001.7  1.0  1.0  5  0 530218879
[17]  B10 1f 41   -758.8 4092002.0  1.0  1.0  5  0 530218875
[18]  B12 1f 40   1528.9 4091996.0  1.0  1.0  5  0 530218925
lsq: nits= 2
$GNGGA,031656.000,3112.7213,N,12136.4380,E,1,05,2.2,14.2,M,,,,0000*2A
$GNRMC,031656.000,A,3112.7213,N,12136.4380,E,0.18,0.00,250519,,*17
$GPGSA,A,3,07,08,09,16,27,,,,,,,,3.5,2.2,2.7*35
$BDGSA,A,3,,,,,,,,,,,,,3.5,2.2,2.7*20
$GPGSV,2,1,07,04,00,000,40,07,40,315,40,08,74,291,37,09,27,259,30*79
$GPGSV,2,2,07,16,36,064,44,27,55,029,47,30,00,000,38*4B
$BDGSV,1,1,04,07,00,000,38,10,00,000,41,12,00,000,40,14,53,319,00*6B
$LOGTIM,1,-484.364658,0.000000,0.000000,0.000000,-63.293*34
EndT:        1
---00000059--- Acq_st=3 2019-5-25 03:16:56 
[00]  G04  f 39     -4.5 2046000.0  1.0  1.0  5 3f 530233922
[01]  G07  f 40  -3110.5 2046004.1  1.0  1.0  5  0 530233926
[02]  G08  f 37   -369.6 2046000.5  1.0  1.0  5  0 530233932
[03]  G09  f 29   1060.1 2045998.8  1.0  0.9  5  0 530233923
[04]  G16  f 44   1407.9 2045998.2  1.0  1.0  5  0 530233925
[05]  G27  f 47   1754.0 2045997.7  1.0  1.0  5  0 530233930
[06]  G30  f 38  -3800.2 2046005.0  1.0  1.0  5  0 530233917
[16]  B07 1f 38   -664.3 4092001.7  1.0  0.9  5  0 530219879
[17]  B10 1f 41   -759.8 4092001.9  1.0  1.0  5  0 530219875
[18]  B12 1f 40   1528.0 4091996.0  1.0  1.0  5  0 530219925
lsq: nits= 2
$GNGGA,031657.000,3112.7190,N,12136.4378,E,1,05,2.2,14.1,M,,,,0000*27
$GNRMC,031657.000,A,3112.7190,N,12136.4378,E,0.13,0.00,250519,,*12
$GPGSA,A,3,07,08,09,16,27,,,,,,,,3.5,2.2,2.7*35
$BDGSA,A,3,,,,,,,,,,,,,3.5,2.2,2.7*20
$GPGSV,2,1,07,04,00,000,39,07,40,315,40,08,74,291,37,09,27,259,29*7F
$GPGSV,2,2,07,16,36,064,44,27,55,029,47,30,00,000,38*4B
$BDGSV,1,1,04,07,00,000,38,10,00,000,41,12,00,000,40,14,53,319,00*6B
$LOGTIM,1,-548.764313,0.000000,0.000000,0.000000,-63.335*36
EndT:        1
---00000060--- Acq_st=3 2019-5-25 03:16:57 
[00]  G04  f 39     -4.6 2046000.0  1.0  1.0  5 3f 530234922
[01]  G07  f 40  -3111.8 2046004.1  1.0  1.0  5  0 530234926
[02]  G08  f 38   -370.5 2046000.6  1.0  1.0  5  0 530234932
[03]  G09  f 31   1060.8 2045998.7  1.0  1.0  5  0 530234923
[04]  G16  f 45   1406.9 2045998.1  1.0  1.0  5  0 530234925
[05]  G27  f 46   1753.1 2045997.7  1.0  1.0  5  0 530234930
[06]  G30  f 38  -3800.6 2046005.0  1.0  1.0  5  0 530234917
[16]  B07 1f 38   -665.0 4092001.8  1.0  1.0  5  0 530220879
[17]  B10 1f 41   -761.2 4092001.9  1.0  1.0  5  0 530220875
[18]  B12 1f 39   1527.6 4091996.0  1.0  1.0  5  0 530220925
lsq: nits= 2
$GNGGA,031658.000,3112.7176,N,12136.4374,E,1,05,2.2,13.8,M,,,,0000*22
$GNRMC,031658.000,A,3112.7176,N,12136.4374,E,0.05,0.00,250519,,*1E
$GPGSA,A,3,07,08,09,16,27,,,,,,,,3.5,2.2,2.7*35
$BDGSA,A,3,,,,,,,,,,,,,3.5,2.2,2.7*20
$GPGSV,2,1,07,04,00,000,39,07,40,315,40,08,74,291,38,09,27,259,31*79
$GPGSV,2,2,07,16,36,064,45,27,55,029,46,30,00,000,38*4B
$BDGSV,1,1,04,07,00,000,38,10,00,000,41,12,00,000,39,14,53,319,00*65
$LOGTIM,1,-613.161989,0.000000,0.000000,0.000000,-63.595*3D
EndT:        0
---00000061--- Acq_st=3 2019-5-25 03:16:58 
[00]  G04  f 40     -6.4 2046000.0  1.0  1.0  5 3f 530235922
[01]  G07  f 40  -3113.1 2046004.0  1.0  1.0  5  0 530235926
[02]  G08  f 37   -371.8 2046000.5  1.0  1.0  5  0 530235932
[03]  G09  f 31   1058.4 2045998.7  0.9  1.0  5  0 530235923
[04]  G16  f 44   1405.1 2045998.2  1.0  1.0  5  0 530235925
[05]  G27  f 47   1751.2 2045997.7  1.0  1.0  5  0 530235930
[06]  G30  f 39  -3802.5 2046004.9  1.0  1.0  5  0 530235917
[16]  B07 1f 38   -667.6 4092001.8  1.0  1.0  5  0 530221879
[17]  B10 1f 41   -763.0 4092002.0  1.0  1.0  5  0 530221875
[18]  B12 1f 39   1526.0 4091996.0  1.0  1.0  5  0 530221925
lsq: nits= 2
$GNGGA,031659.000,3112.7164,N,12136.4370,E,1,05,2.2,13.6,M,,,,0000*2A
$GNRMC,031659.000,A,3112.7164,N,12136.4370,E,0.11,0.00,250519,,*1D
$GPGSA,A,3,07,08,09,16,27,,,,,,,,3.5,2.2,2.7*35
$BDGSA,A,3,,,,,,,,,,,,,3.5,2.2,2.7*20
$GPGSV,2,1,07,04,00,000,40,07,40,315,40,08,74,291,37,09,27,259,31*78
$GPGSV,2,2,07,16,36,064,44,27,55,029,47,30,00,000,39*4A
$BDGSV,1,1,04,07,00,000,38,10,00,000,41,12,00,000,39,14,53,319,00*65
$LOGTIM,1,-677.795871,0.000000,0.000000,0.000000,-63.750*3F
EndT:        0
---00000062--- Acq_st=3 2019-5-25 03:16:59 
[00]  G04  f 40     -5.5 2046000.0  1.0  1.0  5 3f 530236922
[01]  G07  f 39  -3112.7 2046004.1  1.0  1.0  5  0 530236926
[02]  G08  f 38   -370.8 2046000.4  1.0  1.0  5  0 530236932
[03]  G09  f 32   1059.7 2045998.5  1.0  0.9  5  0 530236923
[04]  G16  f 44   1405.5 2045998.2  1.0  1.0  5  0 530236925
[05]  G27  f 47   1751.9 2045997.7  1.0  1.0  5  0 530236930
[06]  G30  f 40  -3802.4 2046005.0  1.0  1.0  5  0 530236917
[16]  B07 1f 38   -667.0 4092001.8  1.0  1.0  5  0 530222879
[17]  B10 1f 41   -762.7 4092002.0  1.0  1.0  5  0 530222875
[18]  B12 1f 38   1526.7 4091996.0  1.0  1.0  5  0 530222925
lsq: nits= 2
$GNGGA,031700.000,3112.7155,N,12136.4367,E,1,05,2.2,13.4,M,,,,0000*21
$GNRMC,031700.000,A,3112.7155,N,12136.4367,E,0.07,0.00,250519,,*13
$GPGSA,A,3,07,08,09,16,27,,,,,,,,3.5,2.2,2.7*35
$BDGSA,A,3,,,,,,,,,,,,,3.5,2.2,2.7*20
$GPGSV,2,1,07,04,00,000,40,07,40,315,39,08,74,291,38,09,27,259,32*7A
$GPGSV,2,2,07,16,36,064,44,27,55,029,47,30,00,000,40*44
$BDGSV,1,1,04,07,00,000,38,10,00,000,41,12,00,000,38,14,53,319,00*64
$LOGTIM,1,-742.120183,0.000000,0.000000,0.000000,-63.695*3C
EndT:        0
---00000063--- Acq_st=3 2019-5-25 03:17:0 
[00]  G04  f 39     -4.7 2046000.0  1.0  1.0  5 3f 530237922
[01]  G07  f 39  -3111.8 2046004.1  1.0  1.0  5  0 530237926
[02]  G08  f 37   -370.6 2046000.4  1.0  1.0  5  0 530237932
[03]  G09  f 32   1059.9 2045998.6  1.0  0.9  5  0 530237923
[04]  G16  f 44   1406.1 2045998.2  1.0  1.0  5  0 530237925
[05]  G27  f 47   1752.7 2045997.7  1.0  1.0  5  0 530237930
[06]  G30  f 40  -3801.5 2046004.9  1.0  1.0  5  0 530237917
[16]  B07 1f 37   -666.2 4092001.7  1.0  1.0  5  0 530223879
[17]  B10 1f 41   -761.9 4092002.0  1.0  1.0  5  0 530223875
[18]  B12 1f 38   1527.4 4091996.0  1.0  1.0  5  0 530223925
lsq: nits= 2
$GNGGA,031701.000,3112.7119,N,12136.4375,E,1,06,1.8,18.5,M,,,,0000*2B
$GNRMC,031701.000,A,3112.7119,N,12136.4375,E,0.43,0.00,250519,,*19
$GPGSA,A,3,07,08,09,16,27,30,,,,,,,2.7,1.8,2.0*3B
$BDGSA,A,3,,,,,,,,,,,,,2.7,1.8,2.0*2D
$GPGSV,2,1,07,04,00,000,39,07,40,315,39,08,74,291,37,09,27,259,32*7B
$GPGSV,2,2,07,16,36,064,44,27,55,029,47,30,00,000,40*44
$BDGSV,1,1,04,07,00,000,37,10,00,000,41,12,00,000,38,14,53,319,00*6B
$LOGTIM,1,-803.780281,0.000000,0.000000,0.000000,-63.340*36
EndT:        0
---00000064--- Acq_st=3 2019-5-25 03:17:1 
[00]  G04  f 39     -2.4 2046000.0  1.0  1.0  5 3f 530238922
[01]  G07  f 39  -3109.8 2046004.0  1.0  1.0  5  0 530238926
[02]  G08  f 37   -367.7 2046000.5  1.0  1.0  5  0 530238932
[03]  G09  f 33   1063.1 2045998.6  1.0  0.9  5  0 530238923
[04]  G16  f 44   1407.9 2045998.2  1.0  1.0  5  0 530238925
[05]  G27  f 47   1754.7 2045997.7  1.0  1.0  5  0 530238930
[06]  G30  f 40  -3800.3 2046005.0  1.0  1.0  5  0 530238917
[16]  B07 1f 37   -664.9 4092001.7  1.0  0.9  5  0 530224879
[17]  B10 1f 41   -760.9 4092002.0  1.0  1.0  5  0 530224875
[18]  B12 1f 39   1529.3 4091996.0  1.0  1.0  5  0 530224925
lsq: nits= 2
$GNGGA,031702.000,3112.7095,N,12136.4379,E,1,06,1.8,20.4,M,,,,0000*2B
$GNRMC,031702.000,A,3112.7095,N,12136.4379,E,0.13,0.00,250519,,*16
$GPGSA,A,3,07,08,09,16,27,30,,,,,,,2.7,1.8,2.0*3B
$BDGSA,A,3,,,,,,,,,,,,,2.7,1.8,2.0*2D
$GPGSV,2,1,07,04,00,000,39,07,40,315,39,08,74,291,37,09,27,259,33*7A
$GPGSV,2,2,07,16,36,064,44,27,55,029,47,30,10,317,40*40
$BDGSV,1,1,04,07,00,000,37,10,00,000,41,12,00,000,39,14,53,319,00*6A
$LOGTIM,1,-867.359919,0.000000,0.000000,0.000000,-63.720*3C
EndT:        0
---00000065--- Acq_st=3 2019-5-25 03:17:2 
[00]  G04  f 39     -7.5 2046000.0  1.0  1.0  5 3f 530239922
[01]  G07  f 39  -3114.5 2046004.0  1.0  1.0  5  0 530239926
[02]  G08  f 37   -372.3 2046000.5  1.0  1.0  5  0 530239932
[03]  G09  f 33   1058.8 2045998.6  1.0  0.9  5  0 530239923
[04]  G16  f 44   1402.7 2045998.2  1.0  1.0  5  0 530239925
[05]  G27  f 47   1750.1 2045997.7  1.0  1.0  5  0 530239930
[06]  G30  f 40  -3805.4 2046004.9  1.0  1.0  5  0 530239917
[16]  B07 1f 37   -670.1 4092001.7  1.0  1.0  5  0 530225879
[17]  B10 1f 41   -765.7 4092002.0  1.0  1.0  5  0 530225875
[18]  B12 1f 38   1524.4 4091995.9  1.0  1.0  5  0 530225925
lsq: nits= 2
$GNGGA,031703.000,3112.7048,N,12136.4393,E,1,06,1.8,27.1,M,,,,0000*2C
$GNRMC,031703.000,A,3112.7048,N,12136.4393,E,0.16,0.00,250519,,*16
$GPGSA,A,3,07,08,09,16,27,30,,,,,,,2.7,1.8,2.0*3B
$BDGSA,A,3,,,,,,,,,,,,,2.7,1.8,2.0*2D
$GPGSV,2,1,07,04,00,000,39,07,40,315,39,08,74,291,37,09,27,259,33*7A
$GPGSV,2,2,07,16,36,064,44,27,55,029,47,30,10,317,40*40
$BDGSV,1,1,04,07,00,000,37,10,00,000,41,12,00,000,38,14,53,319,00*6B
$LOGTIM,1,-929.008398,0.000000,0.000000,0.000000,-63.675*32
EndT:        0
---00000066--- Acq_st=3 2019-5-25 03:17:3 
[00]  G04  f 39     -2.3 2046000.0  1.0  1.0  5 3f 530240922
[01]  G07  f 39  -3110.8 2046004.0  1.0  1.0  5  0 530240926
[02]  G08  f 37   -368.2 2046000.5  1.0  1.0  5  0 530240932
[03]  G09  f 33   1062.0 2045998.6  1.0  0.9  5  0 530240923
[04]  G16  f 44   1406.6 2045998.2  1.0  1.0  5  0 530240925
[05]  G27  f 47   1754.4 2045997.7  1.0  1.0  5  0 530240930
[06]  G30  f 40  -3801.0 2046005.0  1.0  1.0  5  0 530240917
[16]  B07 1f 37   -666.3 4092001.7  1.0  1.0  5  0 530226879
[17]  B10 1f 41   -761.9 4092002.0  1.0  1.0  5  0 530226875
[18]  B12 1f 38   1528.9 4091996.0  1.0  1.0  5  0 530226925
lsq: nits= 2
$GNGGA,031704.000,3112.7044,N,12136.4395,E,1,06,1.8,26.7,M,,,,0000*26
$GNRMC,031704.000,A,3112.7044,N,12136.4395,E,0.65,0.00,250519,,*1F
$GPGSA,A,3,07,08,09,16,27,30,,,,,,,2.7,1.8,2.0*3B
$BDGSA,A,3,,,,,,,,,,,,,2.7,1.8,2.0*2D
$GPGSV,2,1,07,04,00,000,39,07,40,315,39,08,74,291,37,09,27,259,33*7A
$GPGSV,2,2,07,16,36,064,44,27,55,029,47,30,10,317,40*40
$BDGSV,1,1,04,07,00,000,37,10,00,000,41,12,00,000,38,14,53,319,00*6B
$LOGTIM,1,-992.609268,0.000000,0.000000,0.000000,-63.053*39
EndT:        0
---00000067--- Acq_st=3 2019-5-25 03:17:4 
[00]  G04  f 40      3.6 2046000.0  1.0  1.0  5 3f 530241922
[01]  G07  f 38  -3105.2 2046004.0  1.0  1.0  5  0 530241926
[02]  G08  f 38   -362.6 2046000.4  1.0  1.0  5  0 530241932
[03]  G09  f 34   1067.6 2045998.7  1.0  1.0  5  0 530241923
[04]  G16  f 44   1411.8 2045998.1  1.0  1.0  5  0 530241925
[05]  G27  f 47   1759.7 2045997.7  1.0  1.0  5  0 530241930
[06]  G30  f 40  -3796.4 2046004.9  1.0  1.0  5  0 530241917
[16]  B07 1f 37   -661.1 4092001.8  1.0  1.0  5  0 530227879
[17]  B10 1f 41   -756.7 4092002.0  1.0  1.0  5  0 530227875
[18]  B12 1f 38   1534.5 4091996.0  1.0  1.0  5  0 530227925
lsq: nits= 2
$GNGGA,031705.000,3112.7041,N,12136.4396,E,1,06,1.8,26.4,M,,,,0000*22
$GNRMC,031705.000,A,3112.7041,N,12136.4396,E,1.00,0.00,250519,,*1A
$GPGSA,A,3,07,08,09,16,27,30,,,,,,,2.7,1.8,2.0*3B
$BDGSA,A,3,,,,,,,,,,,,,2.7,1.8,2.0*2D
$GPGSV,2,1,07,04,00,000,40,07,40,315,38,08,74,291,38,09,27,259,34*7D
$GPGSV,2,2,07,16,36,064,44,27,55,029,47,30,10,317,40*40
$BDGSV,1,1,04,07,00,000,37,10,00,000,41,12,00,000,38,14,53,319,00*6B
$LOGTIM,1,-1055.298943,0.000000,0.000000,0.000000,-62.456*04
EndT:        0
---00000068--- Acq_st=3 2019-5-25 03:17:5 
[00]  G04  f 40      6.6 2046000.0  1.0  1.0  5 3f 530242922
[01]  G07  f 38  -3102.1 2046004.0  1.0  1.0  5  0 530242926
[02]  G08  f 38   -359.4 2046000.4  1.0  0.9  5  0 530242932
[03]  G09  f 34   1071.0 2045998.6  1.0  1.0  5  0 530242923
[04]  G16  f 44   1415.0 2045998.1  1.0  1.0  5  0 530242925
[05]  G27  f 47   1762.6 2045997.7  1.0  1.0  5  0 530242930
[06]  G30  f 40  -3793.2 2046004.9  1.0  1.0  5  0 530242917
[16]  B07 1f 37   -658.1 4092001.7  1.0  1.0  5  0 530228879
[17]  B10 1f 41   -754.3 4092001.9  1.0  1.0  5  0 530228875
[18]  B12 1f 38   1537.8 4091996.0  1.0  1.0  5  0 530228925
lsq: nits= 2
$GNGGA,031706.000,3112.7035,N,12136.4397,E,1,06,1.8,25.9,M,,,,0000*2D
$GNRMC,031706.000,A,3112.7035,N,12136.4397,E,0.35,0.00,250519,,*1C
$GPGSA,A,3,07,08,09,16,27,30,,,,,,,2.7,1.8,2.0*3B
$BDGSA,A,3,,,,,,,,,,,,,2.7,1.8,2.0*2D
$GPGSV,2,1,07,04,00,000,40,07,40,315,38,08,74,291,38,09,27,259,34*7D
$GPGSV,2,2,07,16,36,064,44,27,55,029,47,30,10,317,40*40
$BDGSV,1,1,04,07,00,000,37,10,00,000,41,12,00,000,38,14,53,319,00*6B
