FlashID=0x1 0x20 0x18
BBram_blkflag1: 42e2: bd1d
FW Ver: 1.30  
GPS00 Init Dop:   5000, 40
GPS01 Init Dop:   5000, 40
GPS02 Init Dop:   5000, 40
GPS03 Init Dop:   5000, 40
GPS04 Init Dop:   5000, 40
GPS05 Init Dop:   5000, 40
GPS06 Init Dop:   5000, 40
GPS07 Init Dop:   5000, 40
GPS08 Init Dop:   5000, 40
GPS09 Init Dop:   5000, 40
GPS10 Init Dop:   5000, 40
GPS11 Init Dop:   5000, 40
GPS12 Init Dop:   5000, 40
GPS13 Init Dop:   5000, 40
GPS14 Init Dop:   5000, 40
GPS15 Init Dop:   5000, 40
GPS16 Init Dop:   5000, 40
GPS17 Init Dop:   5000, 40
GPS18 Init Dop:   5000, 40
GPS19 Init Dop:   5000, 40
GPS20 Init Dop:   5000, 40
GPS21 Init Dop:   5000, 40
GPS22 Init Dop:   5000, 40
GPS23 Init Dop:   5000, 40
GPS24 Init Dop:   5000, 40
GPS25 Init Dop:   5000, 40
GPS26 Init Dop:   5000, 40
GPS27 Init Dop:   5000, 40
GPS28 Init Dop:   5000, 40
GPS29 Init Dop:   5000, 40
GPS30 Init Dop:   5000, 40
GPS31 Init Dop:   5000, 40
BDS00 Init Dop:   5000, 40
BDS01 Init Dop:   5000, 40
BDS02 Init Dop:   5000, 40
BDS03 Init Dop:   5000, 40
BDS04 Init Dop:   5000, 40
BDS05 Init Dop:   5000, 40
BDS06 Init Dop:   5000, 40
BDS07 Init Dop:   5000, 40
BDS08 Init Dop:   5000, 40
BDS09 Init Dop:   5000, 40
BDS10 Init Dop:   5000, 40
BDS11 Init Dop:   5000, 40
BDS12 Init Dop:   5000, 40
BDS13 Init Dop:   5000, 40
BDS14 Init Dop:   5000, 40
BDS15 Init Dop:   5000, 40
BDS16 Init Dop:   5000, 40
BDS17 Init Dop:   5000, 40
BDS18 Init Dop:   5000, 40
BDS19 Init Dop:   5000, 40
BDS20 Init Dop:   5000, 40
BDS21 Init Dop:   5000, 40
BDS22 Init Dop:   5000, 40
BDS23 Init Dop:   5000, 40
BDS24 Init Dop:   5000, 40
BDS25 Init Dop:   5000, 40
BDS26 Init Dop:   5000, 40
BDS27 Init Dop:   5000, 40
BDS28 Init Dop:   5000, 40
BDS29 Init Dop:   5000, 40
BDS30 Init Dop:   5000, 40
BDS31 Init Dop:   5000, 40
ch0 satid=0,max_freq = -2750,max_mean = 18929,max_phase = 1015,max_value = 87111,acq ok1!
acq ok1 timeH = 0,timeL = 10925800,freq_stage = 4
---00000001--- Acq_st=3 2019-5-25 07:16:3 
[00]  G01  1  7   3950.2 2045997.4 -0.0  0.0  1  0         0
$GNGGA,000000.000,,,,,0,00,,,M,,,,0000*2B
$GNRMC,000000.000,A,,,,,,,000000,,*26
$GPGSA,A,1,,,,,,,,,,,,,,,*1E
$BDGSA,A,1,,,,,,,,,,,,,,,*0F
$LOGTIM,0,0.000000,0.000000,0.000000,0.000000,0.000*0A
EndT:        0
---00000002--- Acq_st=3 2019-5-25 07:16:4 
[00]  G01  1  7   2660.2 2045998.8  0.1  0.0  1  0        15
$GNGGA,000000.000,,,,,0,00,,,M,,,,0000*2B
$GNRMC,000000.000,A,,,,,,,000000,,*26
$GPGSA,A,1,,,,,,,,,,,,,,,*1E
$BDGSA,A,1,,,,,,,,,,,,,,,*0F
$LOGTIM,0,0.000000,0.000000,0.000000,0.000000,0.000*0A
EndT:        0
---00000003--- Acq_st=3 2019-5-25 07:16:5 
[00]  G01  1  7   2740.3 2045997.3 -0.0  0.0  1  0        15
$GNGGA,000000.000,,,,,0,00,,,M,,,,0000*2B
$GNRMC,000000.000,A,,,,,,,000000,,*26
$GPGSA,A,1,,,,,,,,,,,,,,,*1E
$BDGSA,A,1,,,,,,,,,,,,,,,*0F
$LOGTIM,0,0.000000,0.000000,0.000000,0.000000,0.000*0A
EndT:        0
---00000004--- Acq_st=3 2019-5-25 07:16:6 
[00]  G01  1  7   2752.6 2045996.8 -0.0  0.0  1  0        15
$GNGGA,000000.000,,,,,0,00,,,M,,,,0000*2B
$GNRMC,000000.000,A,,,,,,,000000,,*26
$GPGSA,A,1,,,,,,,,,,,,,,,*1E
$BDGSA,A,1,,,,,,,,,,,,,,,*0F
$LOGTIM,0,0.000000,0.000000,0.000000,0.000000,0.000*0A
EndT:        0
---00000005--- Acq_st=3 2019-5-25 07:16:7 
$GNGGA,000000.000,,,,,0,00,,,M,,,,0000*2B
$GNRMC,000000.000,A,,,,,,,000000,,*26
$GPGSA,A,1,,,,,,,,,,,,,,,*1E
$BDGSA,A,1,,,,,,,,,,,,,,,*0F
$LOGTIM,0,0.000000,0.000000,0.000000,0.000000,0.000*0A
EndT:        0
---00000006--- Acq_st=3 2019-5-25 07:16:8 
$GNGGA,000000.000,,,,,0,00,,,M,,,,0000*2B
$GNRMC,000000.000,A,,,,,,,000000,,*26
$GPGSA,A,1,,,,,,,,,,,,,,,*1E
$BDGSA,A,1,,,,,,,,,,,,,,,*0F
$LOGTIM,0,0.000000,0.000000,0.000000,0.000000,0.000*0A
EndT:        0
---00000007--- Acq_st=3 2019-5-25 07:16:9 
$GNGGA,000000.000,,,,,0,00,,,M,,,,0000*2B
$GNRMC,000000.000,A,,,,,,,000000,,*26
$GPGSA,A,1,,,,,,,,,,,,,,,*1E
$BDGSA,A,1,,,,,,,,,,,,,,,*0F
$LOGTIM,0,0.000000,0.000000,0.000000,0.000000,0.000*0A
EndT:        0
---00000008--- Acq_st=3 2019-5-25 07:16:10 
$GNGGA,000000.000,,,,,0,00,,,M,,,,0000*2B
$GNRMC,000000.000,A,,,,,,,000000,,*26
$GPGSA,A,1,,,,,,,,,,,,,,,*1E
$BDGSA,A,1,,,,,,,,,,,,,,,*0F
$LOGTIM,0,0.000000,0.000000,0.000000,0.000000,0.000*0A
EndT:        0
---00000009--- Acq_st=3 2019-5-25 07:16:11 
$GNGGA,000000.000,,,,,0,00,,,M,,,,0000*2B
$GNRMC,000000.000,A,,,,,,,000000,,*26
$GPGSA,A,1,,,,,,,,,,,,,,,*1E
$BDGSA,A,1,,,,,,,,,,,,,,,*0F
$LOGTIM,0,0.000000,0.000000,0.000000,0.000000,0.000*0A
EndT:        0
---00000010--- Acq_st=3 2019-5-25 07:16:12 
$GNGGA,000000.000,,,,,0,00,,,M,,,,0000*2B
$GNRMC,000000.000,A,,,,,,,000000,,*26
$GPGSA,A,1,,,,,,,,,,,,,,,*1E
$BDGSA,A,1,,,,,,,,,,,,,,,*0F
$LOGTIM,0,0.000000,0.000000,0.000000,0.000000,0.000*0A
EndT:        0
---00000011--- Acq_st=3 2019-5-25 07:16:13 
$GNGGA,000000.000,,,,,0,00,,,M,,,,0000*2B
$GNRMC,000000.000,A,,,,,,,000000,,*26
$GPGSA,A,1,,,,,,,,,,,,,,,*1E
$BDGSA,A,1,,,,,,,,,,,,,,,*0F
$LOGTIM,0,0.000000,0.000000,0.000000,0.000000,0.000*0A
EndT:        0
---00000012--- Acq_st=3 2019-5-25 07:16:14 
$GNGGA,000000.000,,,,,0,00,,,M,,,,0000*2B
$GNRMC,000000.000,A,,,,,,,000000,,*26
$GPGSA,A,1,,,,,,,,,,,,,,,*1E
$BDGSA,A,1,,,,,,,,,,,,,,,*0F
$LOGTIM,0,0.000000,0.000000,0.000000,0.000000,0.000*0A
EndT:        0
---00000013--- Acq_st=3 2019-5-25 07:16:15 
$GNGGA,000000.000,,,,,0,00,,,M,,,,0000*2B
$GNRMC,000000.000,A,,,,,,,000000,,*26
$GPGSA,A,1,,,,,,,,,,,,,,,*1E
$BDGSA,A,1,,,,,,,,,,,,,,,*0F
$LOGTIM,0,0.000000,0.000000,0.000000,0.000000,0.000*0A
EndT:        0
---00000014--- Acq_st=3 2019-5-25 07:16:16 
$GNGGA,000000.000,,,,,0,00,,,M,,,,0000*2B
$GNRMC,000000.000,A,,,,,,,000000,,*26
$GPGSA,A,1,,,,,,,,,,,,,,,*1E
$BDGSA,A,1,,,,,,,,,,,,,,,*0F
$LOGTIM,0,0.000000,0.000000,0.000000,0.000000,0.000*0A
EndT:        0
---00000015--- Acq_st=3 2019-5-25 07:16:17 
$GNGGA,000000.000,,,,,0,00,,,M,,,,0000*2B
$GNRMC,000000.000,A,,,,,,,000000,,*26
$GPGSA,A,1,,,,,,,,,,,,,,,*1E
$BDGSA,A,1,,,,,,,,,,,,,,,*0F
$LOGTIM,0,0.000000,0.000000,0.000000,0.000000,0.000*0A
EndT:        0
---00000016--- Acq_st=3 2019-5-25 07:16:18 
$GNGGA,000000.000,,,,,0,00,,,M,,,,0000*2B
$GNRMC,000000.000,A,,,,,,,000000,,*26
$GPGSA,A,1,,,,,,,,,,,,,,,*1E
$BDGSA,A,1,,,,,,,,,,,,,,,*0F
$LOGTIM,0,0.000000,0.000000,0.000000,0.000000,0.000*0A
EndT:        0
ch0 satid=17,max_freq = -4500,max_mean = 19392,max_phase = 987,max_value = 321209,acq ok1!
acq ok1 timeH = 0,timeL = 320545546,freq_stage = 5
---00000017--- Acq_st=3 2019-5-25 07:16:19 
[00]  G18  1  7   4479.4 2045995.1 -0.0  0.0  1  0        15
$GNGGA,000000.000,,,,,0,00,,,M,,,,0000*2B
$GNRMC,000000.000,A,,,,,,,000000,,*26
$GPGSA,A,1,,,,,,,,,,,,,,,*1E
$BDGSA,A,1,,,,,,,,,,,,,,,*0F
$LOGTIM,0,0.000000,0.000000,0.000000,0.000000,0.000*0A
EndT:        0
ch1 satid=18,max_freq = 1500,max_mean = 19420,max_phase = 994,max_value = 109278,acq ok1!
acq ok1 timeH = 0,timeL = 327757614,freq_stage = 2
---00000018--- Acq_st=3 2019-5-25 07:16:20 
[00]  G18  1  7   4542.1 2045995.4 -0.0  0.0  1  0        15
[01]  G19  1  7  -1490.9 2046001.1  0.0  0.0  1  0         0
$GNGGA,000000.000,,,,,0,00,,,M,,,,0000*2B
$GNRMC,000000.000,A,,,,,,,000000,,*26
$GPGSA,A,1,,,,,,,,,,,,,,,*1E
$BDGSA,A,1,,,,,,,,,,,,,,,*0F
$LOGTIM,0,0.000000,0.000000,0.000000,0.000000,0.000*0A
EndT:        0
---00000019--- Acq_st=3 2019-5-25 07:16:21 
[00]  G18  1  7   4696.1 2045995.1  0.1  0.0  1  0        15
[01]  G19  1 12  -1574.8 2046001.4  0.0  0.0  1  0        18
$GNGGA,000000.000,,,,,0,00,,,M,,,,0000*2B
$GNRMC,000000.000,A,,,,,,,000000,,*26
$GPGSA,A,1,,,,,,,,,,,,,,,*1E
$BDGSA,A,1,,,,,,,,,,,,,,,*0F
$LOGTIM,0,0.000000,0.000000,0.000000,0.000000,0.000*0A
EndT:        0
---00000020--- Acq_st=3 2019-5-25 07:16:22 
[00]  G18  1  7   4470.6 2045995.0  0.2  0.0  1  0        15
[01]  G19  1  7  -1554.5 2046000.7  0.1  0.0  1  0        18
$GNGGA,000000.000,,,,,0,00,,,M,,,,0000*2B
$GNRMC,000000.000,A,,,,,,,000000,,*26
$GPGSA,A,1,,,,,,,,,,,,,,,*1E
$BDGSA,A,1,,,,,,,,,,,,,,,*0F
$LOGTIM,0,0.000000,0.000000,0.000000,0.000000,0.000*0A
EndT:        0
ch2 satid=21,max_freq = -750,max_mean = 18935,max_phase = 1639,max_value = 169712,acq ok1!
acq ok1 timeH = 0,timeL = 385358168,freq_stage = 3
---00000021--- Acq_st=3 2019-5-25 07:16:23 
[01]  G19  1  9  -1667.5 2046001.0 -0.0  0.0  1  0        18
[02]  G22  1  7    591.3 2046001.9  0.1  0.0  1  0         0
$GNGGA,000000.000,,,,,0,00,,,M,,,,0000*2B
$GNRMC,000000.000,A,,,,,,,000000,,*26
$GPGSA,A,1,,,,,,,,,,,,,,,*1E
$BDGSA,A,1,,,,,,,,,,,,,,,*0F
$LOGTIM,0,0.000000,0.000000,0.000000,0.000000,0.000*0A
EndT:        0
---00000022--- Acq_st=3 2019-5-25 07:16:24 
[02]  G22  7  7    440.5 2045999.2  0.2  0.0 20  0         5
$GNGGA,000000.000,,,,,0,00,,,M,,,,0000*2B
$GNRMC,000000.000,A,,,,,,,000000,,*26
$GPGSA,A,1,,,,,,,,,,,,,,,*1E
$BDGSA,A,1,,,,,,,,,,,,,,,*0F
$LOGTIM,0,0.000000,0.000000,0.000000,0.000000,0.000*0A
EndT:        0
---00000023--- Acq_st=3 2019-5-25 07:16:25 
[02]  G22  7 38    436.8 2045999.3  0.4  1.0  5  0         3
$GNGGA,000000.000,,,,,0,00,,,M,,,,0000*2B
$GNRMC,000000.000,A,,,,,,,000000,,*26
$GPGSA,A,1,,,,,,,,,,,,,,,*1E
$BDGSA,A,1,,,,,,,,,,,,,,,*0F
$GPGSV,1,1,01,22,00,000,38*43
$LOGTIM,0,0.000000,0.000000,0.000000,0.000000,0.000*0A
EndT:        0
---00000024--- Acq_st=3 2019-5-25 07:16:26 
[02]  G22  7 39    438.1 2045999.4  1.0  1.0  5  0         3
$GNGGA,000000.000,,,,,0,00,,,M,,,,0000*2B
$GNRMC,000000.000,A,,,,,,,000000,,*26
$GPGSA,A,1,,,,,,,,,,,,,,,*1E
$BDGSA,A,1,,,,,,,,,,,,,,,*0F
$GPGSV,1,1,01,22,00,000,39*42
$LOGTIM,0,0.000000,0.000000,0.000000,0.000000,0.000*0A
EndT:        0
---00000025--- Acq_st=3 2019-5-25 07:16:27 
[02]  G22  7 39    440.6 2045999.4  1.0  1.0  5  0         3
$GNGGA,000000.000,,,,,0,00,,,M,,,,0000*2B
$GNRMC,000000.000,A,,,,,,,000000,,*26
$GPGSA,A,1,,,,,,,,,,,,,,,*1E
$BDGSA,A,1,,,,,,,,,,,,,,,*0F
$GPGSV,1,1,01,22,00,000,39*42
$LOGTIM,0,0.000000,0.000000,0.000000,0.000000,0.000*0A
EndT:        0
---00000026--- Acq_st=3 2019-5-25 07:16:28 
[02]  G22  7 39    440.5 2045999.4  1.0  1.0  5  0         3
$GNGGA,000000.000,,,,,0,00,,,M,,,,0000*2B
$GNRMC,000000.000,A,,,,,,,000000,,*26
$GPGSA,A,1,,,,,,,,,,,,,,,*1E
$BDGSA,A,1,,,,,,,,,,,,,,,*0F
$GPGSV,1,1,01,22,00,000,39*42
$LOGTIM,0,0.000000,0.000000,0.000000,0.000000,0.000*0A
EndT:        0
ch0 satid=27,max_freq = 1250,max_mean = 18814,max_phase = 1171,max_value = 91526,acq ok1!
acq ok1 timeH = 0,timeL = 489769946,freq_stage = 2
---00000027--- Acq_st=3 2019-5-25 07:16:29 
[00]  G28  1  7  -1371.5 2046003.1  0.0  0.0  1  0        15
[02]  G22  7 39    439.6 2045999.4  1.0  1.0  5  0         3
$GNGGA,000000.000,,,,,0,00,,,M,,,,0000*2B
$GNRMC,000000.000,A,,,,,,,000000,,*26
$GPGSA,A,1,,,,,,,,,,,,,,,*1E
$BDGSA,A,1,,,,,,,,,,,,,,,*0F
$GPGSV,1,1,01,22,00,000,39*42
$LOGTIM,0,0.000000,0.000000,0.000000,0.000000,0.000*0A
EndT:        0
---00000028--- Acq_st=3 2019-5-25 07:16:30 
[00]  G28  1 24  -1559.8 2046004.0  0.2  0.0  1  0         0
[02]  G22  7 40    439.5 2045999.4  1.0  1.0  5  0         3
$GNGGA,000000.000,,,,,0,00,,,M,,,,0000*2B
$GNRMC,000000.000,A,,,,,,,000000,,*26
$GPGSA,A,1,,,,,,,,,,,,,,,*1E
$BDGSA,A,1,,,,,,,,,,,,,,,*0F
$GPGSV,1,1,01,22,00,000,40*4C
$LOGTIM,0,0.000000,0.000000,0.000000,0.000000,0.000*0A
EndT:        0
---00000029--- Acq_st=3 2019-5-25 07:16:31 
[00]  G28  7 25  -1559.1 2046001.9  0.7  0.0 20  0         0
[02]  G22  f 39    440.7 2045999.4  1.0  1.0  5  0         3
$GNGGA,000000.000,,,,,0,00,,,M,,,,0000*2B
$GNRMC,000000.000,A,,,,,,,000000,,*26
$GPGSA,A,1,,,,,,,,,,,,,,,*1E
$BDGSA,A,1,,,,,,,,,,,,,,,*0F
$GPGSV,1,1,02,28,00,000,25,22,00,000,39*7C
$LOGTIM,0,0.000000,0.000000,0.000000,0.000000,0.000*0A
EndT:        0
---00000030--- Acq_st=3 2019-5-25 07:16:32 
[00]  G28  7 37  -1553.5 2046001.9  0.8  1.0  5  0         9
[02]  G22  f 39    445.8 2045999.4  1.0  1.0  5  0 544609543
$GNGGA,000000.000,,,,,0,00,,,M,,,,0000*2B
$GNRMC,000000.000,A,,,,,,,000000,,*26
$GPGSA,A,1,,,,,,,,,,,,,,,*1E
$BDGSA,A,1,,,,,,,,,,,,,,,*0F
$GPGSV,1,1,02,28,00,000,37,22,00,000,39*7F
$LOGTIM,0,0.000000,0.000000,0.000000,0.000000,0.000*0A
EndT:        0
---00000031--- Acq_st=3 2019-5-25 07:16:33 
[00]  G28  7 37  -1555.8 2046001.9  1.0  1.0  5  0         9
[02]  G22  f 40    444.2 2045999.4  1.0  1.0  5  0 544610543
$GNGGA,000000.000,,,,,0,00,,,M,,,,0000*2B
$GNRMC,000000.000,A,,,,,,,000000,,*26
$GPGSA,A,1,,,,,,,,,,,,,,,*1E
$BDGSA,A,1,,,,,,,,,,,,,,,*0F
$GPGSV,1,1,02,28,00,000,37,22,00,000,40*71
$LOGTIM,0,0.000000,0.000000,0.000000,0.000000,0.000*0A
EndT:        0
---00000032--- Acq_st=3 2019-5-25 07:16:34 
[00]  G28  7 37  -1553.1 2046001.9  1.0  1.0  5  0         9
[02]  G22  f 40    447.7 2045999.4  1.0  1.0  5  0 544611543
$GNGGA,000000.000,,,,,0,00,,,M,,,,0000*2B
$GNRMC,000000.000,A,,,,,,,000000,,*26
$GPGSA,A,1,,,,,,,,,,,,,,,*1E
$BDGSA,A,1,,,,,,,,,,,,,,,*0F
$GPGSV,1,1,02,28,00,000,37,22,00,000,40*71
$LOGTIM,0,0.000000,0.000000,0.000000,0.000000,0.000*0A
EndT:        0
---00000033--- Acq_st=3 2019-5-25 07:16:35 
[00]  G28  7 37  -1549.7 2046001.9  1.0  1.0  5  0         9
[02]  G22  f 40    449.7 2045999.4  1.0  1.0  5  0 544612543
$GNGGA,000000.000,,,,,0,00,,,M,,,,0000*2B
$GNRMC,000000.000,A,,,,,,,000000,,*26
$GPGSA,A,1,,,,,,,,,,,,,,,*1E
$BDGSA,A,1,,,,,,,,,,,,,,,*0F
$GPGSV,1,1,02,28,00,000,37,22,00,000,40*71
$LOGTIM,0,0.000000,0.000000,0.000000,0.000000,0.000*0A
EndT:        0
---00000034--- Acq_st=3 2019-5-25 07:16:36 
[00]  G28  7 37  -1551.3 2046002.0  1.0  1.0  5  0         9
[02]  G22  f 40    448.8 2045999.4  1.0  1.0  5  0 544613543
$GNGGA,000000.000,,,,,0,00,,,M,,,,0000*2B
$GNRMC,000000.000,A,,,,,,,000000,,*26
$GPGSA,A,1,,,,,,,,,,,,,,,*1E
$BDGSA,A,1,,,,,,,,,,,,,,,*0F
$GPGSV,1,1,02,28,00,000,37,22,00,000,40*71
$LOGTIM,0,0.000000,0.000000,0.000000,0.000000,0.000*0A
EndT:        0
---00000035--- Acq_st=3 2019-5-25 07:16:37 
[00]  G28  f 37  -1554.6 2046002.0  1.0  1.0  5  0         9
[02]  G22  f 40    446.1 2045999.4  1.0  1.0  5  0 544614543
$GNGGA,000000.000,,,,,0,00,,,M,,,,0000*2B
$GNRMC,000000.000,A,,,,,,,000000,,*26
$GPGSA,A,1,,,,,,,,,,,,,,,*1E
$BDGSA,A,1,,,,,,,,,,,,,,,*0F
$GPGSV,1,1,02,28,00,000,37,22,00,000,40*71
$LOGTIM,0,0.000000,0.000000,0.000000,0.000000,0.000*0A
EndT:        0
---00000036--- Acq_st=3 2019-5-25 07:16:38 
[00]  G28  f 37  -1554.7 2046002.1  1.0  0.9  5  0 544615549
[02]  G22  f 40    445.9 2045999.4  1.0  1.0  5  0 544615543
$GNGGA,000000.000,,,,,0,00,,,M,,,,0000*2B
$GNRMC,000000.000,A,,,,,,,000000,,*26
$GPGSA,A,1,,,,,,,,,,,,,,,*1E
$BDGSA,A,1,,,,,,,,,,,,,,,*0F
$GPGSV,1,1,02,28,00,000,37,22,00,000,40*71
$LOGTIM,0,0.000000,0.000000,0.000000,0.000000,0.000*0A
EndT:        0
---00000037--- Acq_st=3 2019-5-25 07:16:39 
[00]  G28  f 36  -1551.6 2046002.0  1.0  1.0  5  0 544616549
[02]  G22  f 40    448.7 2045999.4  1.0  1.0  5  0 544616543
$GNGGA,000000.000,,,,,0,00,,,M,,,,0000*2B
$GNRMC,000000.000,A,,,,,,,000000,,*26
$GPGSA,A,1,,,,,,,,,,,,,,,*1E
$BDGSA,A,1,,,,,,,,,,,,,,,*0F
$GPGSV,1,1,02,28,00,000,36,22,00,000,40*70
$LOGTIM,0,0.000000,0.000000,0.000000,0.000000,0.000*0A
EndT:        0
---00000038--- Acq_st=3 2019-5-25 07:16:40 
[00]  G28  f 36  -1547.3 2046002.0  1.0  0.9  5  0 544617549
[02]  G22  f 40    453.9 2045999.5  1.0  1.0  5  0 544617543
$GNGGA,000000.000,,,,,0,00,,,M,,,,0000*2B
$GNRMC,000000.000,A,,,,,,,000000,,*26
$GPGSA,A,1,,,,,,,,,,,,,,,*1E
$BDGSA,A,1,,,,,,,,,,,,,,,*0F
$GPGSV,1,1,02,28,00,000,36,22,00,000,40*70
$LOGTIM,0,0.000000,0.000000,0.000000,0.000000,0.000*0A
EndT:        0
---00000039--- Acq_st=3 2019-5-25 07:16:41 
[00]  G28  f 36  -1544.6 2046001.9  1.0  1.0  5  0 544618549
[02]  G22  f 40    456.2 2045999.4  1.0  1.0  5  0 544618543
$GNGGA,000000.000,,,,,0,00,,,M,,,,0000*2B
$GNRMC,000000.000,A,,,,,,,000000,,*26
$GPGSA,A,1,,,,,,,,,,,,,,,*1E
$BDGSA,A,1,,,,,,,,,,,,,,,*0F
$GPGSV,1,1,02,28,00,000,36,22,00,000,40*70
$LOGTIM,0,0.000000,0.000000,0.000000,0.000000,0.000*0A
EndT:        0
---00000040--- Acq_st=3 2019-5-25 07:16:42 
[00]  G28  f 36  -1546.1 2046001.9  1.0  1.0  5  0 544619549
[02]  G22  f 40    454.7 2045999.4  1.0  1.0  5  0 544619543
$GNGGA,000000.000,,,,,0,00,,,M,,,,0000*2B
$GNRMC,000000.000,A,,,,,,,000000,,*26
$GPGSA,A,1,,,,,,,,,,,,,,,*1E
$BDGSA,A,1,,,,,,,,,,,,,,,*0F
$GPGSV,1,1,02,28,00,000,36,22,00,000,40*70
$LOGTIM,0,0.000000,0.000000,0.000000,0.000000,0.000*0A
EndT:        0
---00000041--- Acq_st=3 2019-5-25 07:16:43 
[00]  G28  f 36  -1548.0 2046002.0  1.0  1.0  5  0 544620549
[02]  G22  f 40    452.6 2045999.4  1.0  1.0  5  0 544620543
$GNGGA,000000.000,,,,,0,00,,,M,,,,0000*2B
$GNRMC,000000.000,A,,,,,,,000000,,*26
$GPGSA,A,1,,,,,,,,,,,,,,,*1E
$BDGSA,A,1,,,,,,,,,,,,,,,*0F
$GPGSV,1,1,02,28,00,000,36,22,00,000,40*70
$LOGTIM,0,0.000000,0.000000,0.000000,0.000000,0.000*0A
EndT:        0
---00000042--- Acq_st=3 2019-5-25 07:16:44 
[00]  G28  f 36  -1550.3 2046002.0  1.0  1.0  5  0 544621549
[02]  G22  f 39    451.4 2045999.5  1.0  1.0  5  0 544621543
$GNGGA,000000.000,,,,,0,00,,,M,,,,0000*2B
$GNRMC,000000.000,A,,,,,,,000000,,*26
$GPGSA,A,1,,,,,,,,,,,,,,,*1E
$BDGSA,A,1,,,,,,,,,,,,,,,*0F
$GPGSV,1,1,02,28,00,000,36,22,00,000,39*7E
$LOGTIM,0,0.000000,0.000000,0.000000,0.000000,0.000*0A
EndT:        0
---00000043--- Acq_st=3 2019-5-25 07:16:45 
[00]  G28  f 35  -1545.7 2046002.1  1.0  1.0  5  0 544622549
[02]  G22  f 39    455.1 2045999.4  1.0  1.0  5  0 544622543
$GNGGA,000000.000,,,,,0,00,,,M,,,,0000*2B
$GNRMC,000000.000,A,,,,,,,000000,,*26
$GPGSA,A,1,,,,,,,,,,,,,,,*1E
$BDGSA,A,1,,,,,,,,,,,,,,,*0F
$GPGSV,1,1,02,28,00,000,35,22,00,000,39*7D
$LOGTIM,0,0.000000,0.000000,0.000000,0.000000,0.000*0A
EndT:        0
---00000044--- Acq_st=3 2019-5-25 07:16:46 
[00]  G28  f 35  -1547.0 2046002.0  1.0  1.0  5  0 544623549
[02]  G22  f 39    454.1 2045999.4  1.0  1.0  5  0 544623543
$GNGGA,000000.000,,,,,0,00,,,M,,,,0000*2B
$GNRMC,000000.000,A,,,,,,,000000,,*26
$GPGSA,A,1,,,,,,,,,,,,,,,*1E
$BDGSA,A,1,,,,,,,,,,,,,,,*0F
$GPGSV,1,1,02,28,00,000,35,22,00,000,39*7D
$LOGTIM,0,0.000000,0.000000,0.000000,0.000000,0.000*0A
EndT:        0
ch16 satid=44,max_freq = 0,max_mean = 7395,max_phase = 2379,max_value = 112589,acq ok1!
acq ok1 timeH = 0,timeL = 836715942,freq_stage = 3
---00000045--- Acq_st=3 2019-5-25 07:16:47 
[00]  G28  f 35  -1541.8 2046001.9  1.0  1.0  5  0 544624549
[02]  G22  f 38    458.7 2045999.5  1.0  1.0  5  0 544624543
[16]  B08  1  7    -50.0 4092000.9 -0.0  0.0  1  0         0
$GNGGA,000000.000,,,,,0,00,,,M,,,,0000*2B
$GNRMC,000000.000,A,,,,,,,000000,,*26
$GPGSA,A,1,,,,,,,,,,,,,,,*1E
$BDGSA,A,1,,,,,,,,,,,,,,,*0F
$GPGSV,1,1,02,28,00,000,35,22,00,000,38*7C
$LOGTIM,0,0.000000,0.000000,0.000000,0.000000,0.000*0A
EndT:        0
---00000046--- Acq_st=3 2019-5-25 07:16:48 
[00]  G28  f 34  -1538.9 2046001.9  1.0  1.0  5  0 544625549
[02]  G22  f 39    463.3 2045999.4  1.0  1.0  5  0 544625543
[16]  B08  7 18    -57.7 4092000.1  0.3  0.0 20  0       515
$GNGGA,000000.000,,,,,0,00,,,M,,,,0000*2B
$GNRMC,000000.000,A,,,,,,,000000,,*26
$GPGSA,A,1,,,,,,,,,,,,,,,*1E
$BDGSA,A,1,,,,,,,,,,,,,,,*0F
$GPGSV,1,1,02,28,00,000,34,22,00,000,39*7C
$BDGSV,1,1,01,08,00,000,18*58
$LOGTIM,0,0.000000,0.000000,0.000000,0.000000,0.000*0A
EndT:        0
---00000047--- Acq_st=3 2019-5-25 07:16:49 
[00]  G28  f 35  -1540.1 2046002.0  1.0  1.0  5  0 544626549
[02]  G22  f 39    462.2 2045999.4  1.0  1.0  5  0 544626543
[16]  B08  7 40    -59.2 4092000.1  0.9  1.0  5  0      1496
$GNGGA,000000.000,,,,,0,00,,,M,,,,0000*2B
$GNRMC,000000.000,A,,,,,,,000000,,*26
$GPGSA,A,1,,,,,,,,,,,,,,,*1E
$BDGSA,A,1,,,,,,,,,,,,,,,*0F
$GPGSV,1,1,02,28,00,000,35,22,00,000,39*7D
$BDGSV,1,1,01,08,00,000,40*55
$LOGTIM,0,0.000000,0.000000,0.000000,0.000000,0.000*0A
EndT:        0
---00000048--- Acq_st=3 2019-5-25 07:16:50 
[00]  G28  f 35  -1537.1 2046002.0  1.0  1.0  5  0 544627549
[02]  G22  f 39    464.1 2045999.4  1.0  1.0  5  0 544627543
[16]  B08  7 40    -57.4 4092000.1  1.0  1.0  5  0      2496
$GNGGA,000000.000,,,,,0,00,,,M,,,,0000*2B
$GNRMC,000000.000,A,,,,,,,000000,,*26
$GPGSA,A,1,,,,,,,,,,,,,,,*1E
$BDGSA,A,1,,,,,,,,,,,,,,,*0F
$GPGSV,1,1,02,28,00,000,35,22,00,000,39*7D
$BDGSV,1,1,01,08,00,000,40*55
$LOGTIM,0,0.000000,0.000000,0.000000,0.000000,0.000*0A
EndT:        0
ch17 satid=46,max_freq = 250,max_mean = 7530,max_phase = 2322,max_value = 101806,acq ok1!
acq ok1 timeH = 0,timeL = 902717781,freq_stage = 3
---00000049--- Acq_st=3 2019-5-25 07:16:51 
[00]  G28  f 35  -1537.6 2046002.1  1.0  0.9  5  0 544628549
[02]  G22  f 39    464.9 2045999.5  1.0  1.0  5  0 544628543
[16]  B08 1f 40    -57.4 4092000.1  1.0  1.0  5  0      3496
[17]  B10  1 27   -167.1 4092000.4  0.2  0.0  1  0         0
$GNGGA,000000.000,,,,,0,00,,,M,,,,0000*2B
$GNRMC,000000.000,A,,,,,,,000000,,*26
$GPGSA,A,1,,,,,,,,,,,,,,,*1E
$BDGSA,A,1,,,,,,,,,,,,,,,*0F
$GPGSV,1,1,02,28,00,000,35,22,00,000,39*7D
$BDGSV,1,1,01,08,00,000,40*55
$LOGTIM,0,0.000000,0.000000,0.000000,0.000000,0.000*0A
EndT:        0
ch18 satid=47,max_freq = -750,max_mean = 7303,max_phase = 3326,max_value = 120002,acq ok1!
acq ok1 timeH = 0,timeL = 940926352,freq_stage = 3
---00000050--- Acq_st=3 2019-5-25 07:16:52 
[00]  G28  f 35  -1541.1 2046002.1  1.0  1.0  5  0 544629549
[02]  G22  f 39    461.5 2045999.4  1.0  1.0  5  0 544629543
[16]  B08 1f 40    -61.8 4092000.1  1.0  1.0  5  0 544615496
[17]  B10  7 29   -172.2 4092000.5  0.8  1.0  5  0       897
[18]  B11  1  0  10632.4 4091999.0  0.0  0.0  1  0         0
$GNGGA,000000.000,,,,,0,00,,,M,,,,0000*2B
$GNRMC,000000.000,A,,,,,,,000000,,*26
$GPGSA,A,1,,,,,,,,,,,,,,,*1E
$BDGSA,A,1,,,,,,,,,,,,,,,*0F
$GPGSV,1,1,02,28,00,000,35,22,00,000,39*7D
$BDGSV,1,1,02,08,00,000,40,10,00,000,29*6C
$LOGTIM,0,0.000000,0.000000,0.000000,0.000000,0.000*0A
EndT:        0
---00000051--- Acq_st=3 2019-5-25 07:16:53 
[00]  G28  f 35  -1544.6 2046001.9  1.0  0.9  5  0 544630549
[02]  G22  f 40    458.0 2045999.4  1.0  1.0  5  0 544630543
[16]  B08 1f 40    -64.4 4092000.2  1.0  1.0  5  0 544616496
[17]  B10  7 40   -175.3 4092000.5  1.0  1.0  5  0      1897
[18]  B11  1  7    861.2 4091997.1  0.1  0.0  1  0        87
$GNGGA,000000.000,,,,,0,00,,,M,,,,0000*2B
$GNRMC,000000.000,A,,,,,,,000000,,*26
$GPGSA,A,1,,,,,,,,,,,,,,,*1E
$BDGSA,A,1,,,,,,,,,,,,,,,*0F
$GPGSV,1,1,02,28,00,000,35,22,00,000,40*73
$BDGSV,1,1,02,08,00,000,40,10,00,000,40*63
$LOGTIM,0,0.000000,0.000000,0.000000,0.000000,0.000*0A
EndT:        0
---00000052--- Acq_st=3 2019-5-25 07:16:54 
[00]  G28  f 35  -1547.7 2046002.0  1.0  1.0  5  0 544631549
[02]  G22  f 39    454.0 2045999.4  1.0  1.0  5  0 544631543
[16]  B08 1f 40    -69.2 4092000.2  1.0  1.0  5  0 544617496
[17]  B10  7 40   -179.4 4092000.5  1.0  1.0  5  0      2897
[18]  B11  7 32    857.1 4091997.7  0.7  1.0  5  0      1087
$GNGGA,000000.000,,,,,0,00,,,M,,,,0000*2B
$GNRMC,000000.000,A,,,,,,,000000,,*26
$GPGSA,A,1,,,,,,,,,,,,,,,*1E
$BDGSA,A,1,,,,,,,,,,,,,,,*0F
$GPGSV,1,1,02,28,00,000,35,22,00,000,39*7D
$BDGSV,1,1,03,08,00,000,40,10,00,000,40,11,00,000,32*53
$LOGTIM,0,0.000000,0.000000,0.000000,0.000000,0.000*0A
EndT:        0
---00000053--- Acq_st=3 2019-5-25 07:16:55 
[00]  G28  f 35  -1547.6 2046002.0  1.0  1.0  5  0 544632549
[02]  G22  f 39    454.5 2045999.4  1.0  1.0  5  0 544632543
[16]  B08 1f 40    -69.2 4092000.1  1.0  1.0  5  0 544618496
[17]  B10  7 40   -179.3 4092000.4  1.0  1.0  5  0      3897
[18]  B11  7 41    857.7 4091997.7  1.0  1.0  5  0      2080
$GNGGA,000000.000,,,,,0,00,,,M,,,,0000*2B
$GNRMC,000000.000,A,,,,,,,000000,,*26
$GPGSA,A,1,,,,,,,,,,,,,,,*1E
$BDGSA,A,1,,,,,,,,,,,,,,,*0F
$GPGSV,1,1,02,28,00,000,35,22,00,000,39*7D
$BDGSV,1,1,03,08,00,000,40,10,00,000,40,11,00,000,41*57
$LOGTIM,0,0.000000,0.000000,0.000000,0.000000,0.000*0A
EndT:        0
ch19 satid=49,max_freq = 500,max_mean = 7487,max_phase = 3510,max_value = 82249,acq ok1!
acq ok1 timeH = 0,timeL = 1006928162,freq_stage = 3
---00000054--- Acq_st=3 2019-5-25 07:16:56 
[00]  G28  f 35  -1548.1 2046002.0  1.0  1.0  5  0 544633549
[02]  G22  f 40    454.6 2045999.3  1.0  1.0  5  0 544633543
[16]  B08 1f 39    -70.0 4092000.2  1.0  1.0  5  0 544619496
[17]  B10  7 40   -179.8 4092000.5  1.0  1.0  5  0      4897
[18]  B11  7 41    856.4 4091997.8  1.0  1.0  5  0      3080
[19]  B13  1  7   -455.1 4092002.5  0.0  0.0  1  0         0
$GNGGA,000000.000,,,,,0,00,,,M,,,,0000*2B
$GNRMC,000000.000,A,,,,,,,000000,,*26
$GPGSA,A,1,,,,,,,,,,,,,,,*1E
$BDGSA,A,1,,,,,,,,,,,,,,,*0F
$GPGSV,1,1,02,28,00,000,35,22,00,000,40*73
$BDGSV,1,1,03,08,00,000,39,10,00,000,40,11,00,000,41*59
$LOGTIM,0,0.000000,0.000000,0.000000,0.000000,0.000*0A
EndT:        0
---00000055--- Acq_st=3 2019-5-25 07:16:57 
[00]  G28  f 36  -1546.8 2046002.0  1.0  1.0  5  0 544634549
[02]  G22  f 40    456.3 2045999.4  1.0  1.0  5  0 544634543
[16]  B08 1f 39    -69.6 4092000.2  1.0  1.0  5  0 544620496
[17]  B10 1f 40   -179.4 4092000.5  1.0  1.0  5  0      5897
[18]  B11 1f 41    856.6 4091997.7  1.0  1.0  5  0      4080
[19]  B13  7  9   -454.4 4092001.2  0.2  0.0 20  0       469
$GNGGA,000000.000,,,,,0,00,,,M,,,,0000*2B
$GNRMC,000000.000,A,,,,,,,000000,,*26
$GPGSA,A,1,,,,,,,,,,,,,,,*1E
$BDGSA,A,1,,,,,,,,,,,,,,,*0F
$GPGSV,1,1,02,28,00,000,36,22,00,000,40*70
$BDGSV,1,1,03,08,00,000,39,10,00,000,40,11,00,000,41*59
$LOGTIM,0,0.000000,0.000000,0.000000,0.000000,0.000*0A
EndT:        0
---00000056--- Acq_st=3 2019-5-25 07:16:58 
[00]  G28  f 36  -1547.4 2046002.0  1.0  0.9  5  0 544635549
[02]  G22  f 40    456.4 2045999.4  1.0  1.0  5  0 544635543
[16]  B08 1f 39    -69.4 4092000.1  1.0  1.0  5  0 544621496
[17]  B10 1f 40   -179.0 4092000.5  1.0  1.0  5  0 544621497
[18]  B11 1f 41    857.2 4091997.7  1.0  1.0  5  0 544621540
[19]  B13  7 40   -453.6 4092001.1  0.9  1.0  5  0      1452
$GNGGA,000000.000,,,,,0,00,,,M,,,,0000*2B
$GNRMC,000000.000,A,,,,,,,000000,,*26
$GPGSA,A,1,,,,,,,,,,,,,,,*1E
$BDGSA,A,1,,,,,,,,,,,,,,,*0F
$GPGSV,1,1,02,28,00,000,36,22,00,000,40*70
$BDGSV,1,1,04,08,00,000,39,10,00,000,40,11,00,000,41,13,00,000,40*68
$LOGTIM,0,0.000000,0.000000,0.000000,0.000000,0.000*0A
EndT:        0
---00000057--- Acq_st=3 2019-5-25 07:16:59 
[00]  G28  f 36  -1545.0 2046002.0  1.0  1.0  5  0 544636549
[02]  G22  f 40    457.6 2045999.4  1.0  1.0  5  0 544636543
[16]  B08 1f 39    -68.7 4092000.2  1.0  1.0  5  0 544622496
[17]  B10 1f 40   -178.5 4092000.5  1.0  1.0  5  0 544622497
[18]  B11 1f 41    857.4 4091997.7  1.0  1.0  5  0 544622540
[19]  B13  7 40   -453.3 4092001.2  1.0  1.0  5  0      2452
$GNGGA,000000.000,,,,,0,00,,,M,,,,0000*2B
$GNRMC,000000.000,A,,,,,,,000000,,*26
$GPGSA,A,1,,,,,,,,,,,,,,,*1E
$BDGSA,A,1,,,,,,,,,,,,,,,*0F
$GPGSV,1,1,02,28,00,000,36,22,00,000,40*70
$BDGSV,1,1,04,08,00,000,39,10,00,000,40,11,00,000,41,13,00,000,40*68
$LOGTIM,0,0.000000,0.000000,0.000000,0.000000,0.000*0A
EndT:        0
---00000058--- Acq_st=3 2019-5-25 07:17:0 
[00]  G28  f 36  -1545.5 2046001.9  1.0  1.0  5  0 544637549
[02]  G22  f 40    458.2 2045999.4  1.0  1.0  5  0 544637543
[16]  B08 1f 39    -67.8 4092000.2  1.0  1.0  5  0 544623496
[17]  B10 1f 40   -178.2 4092000.4  1.0  1.0  5  0 544623497
[18]  B11 1f 41    857.6 4091997.7  1.0  1.0  5  0 544623540
[19]  B13  7 40   -453.1 4092001.1  1.0  1.0  5  0      3452
$GNGGA,000000.000,,,,,0,00,,,M,,,,0000*2B
$GNRMC,000000.000,A,,,,,,,000000,,*26
$GPGSA,A,1,,,,,,,,,,,,,,,*1E
$BDGSA,A,1,,,,,,,,,,,,,,,*0F
$GPGSV,1,1,02,28,00,000,36,22,00,000,40*70
$BDGSV,1,1,04,08,00,000,39,10,00,000,40,11,00,000,41,13,00,000,40*68
$LOGTIM,0,0.000000,0.000000,0.000000,0.000000,0.000*0A
EndT:        0
---00000059--- Acq_st=3 2019-5-25 07:17:1 
[00]  G28  f 37  -1542.2 2046002.0  1.0  1.0  5  0 544638549
[02]  G22  f 40    462.3 2045999.4  1.0  1.0  5  0 544638543
[16]  B08 1f 39    -65.5 4092000.1  1.0  1.0  5  0 544624496
[17]  B10 1f 40   -175.3 4092000.5  1.0  1.0  5  0 544624497
[18]  B11 1f 41    860.7 4091997.8  1.0  1.0  5  0 544624540
[19]  B13  7 40   -450.2 4092001.1  1.0  1.0  5  0      4452
$GNGGA,000000.000,,,,,0,00,,,M,,,,0000*2B
$GNRMC,000000.000,A,,,,,,,000000,,*26
$GPGSA,A,1,,,,,,,,,,,,,,,*1E
$BDGSA,A,1,,,,,,,,,,,,,,,*0F
$GPGSV,1,1,02,28,00,000,37,22,00,000,40*71
$BDGSV,1,1,04,08,00,000,39,10,00,000,40,11,00,000,41,13,00,000,40*68
$LOGTIM,0,0.000000,0.000000,0.000000,0.000000,0.000*0A
EndT:        0
---00000060--- Acq_st=3 2019-5-25 07:17:2 
[00]  G28  f 37  -1540.7 2046002.0  1.0  1.0  5  0 544639549
[02]  G22  f 40    463.7 2045999.4  1.0  1.0  5  0 544639543
[16]  B08 1f 39    -64.3 4092000.2  1.0  1.0  5  0 544625496
[17]  B10 1f 40   -173.8 4092000.5  1.0  1.0  5  0 544625497
[18]  B11 1f 41    861.8 4091997.7  1.0  1.0  5  0 544625540
[19]  B13  7 39   -448.8 4092001.2  1.0  1.0  5  0      5452
$GNGGA,000000.000,,,,,0,00,,,M,,,,0000*2B
$GNRMC,000000.000,A,,,,,,,000000,,*26
$GPGSA,A,1,,,,,,,,,,,,,,,*1E
$BDGSA,A,1,,,,,,,,,,,,,,,*0F
$GPGSV,1,1,02,28,00,000,37,22,00,000,40*71
$BDGSV,1,1,04,08,00,000,39,10,00,000,40,11,00,000,41,13,00,000,39*66
$LOGTIM,0,0.000000,0.000000,0.000000,0.000000,0.000*0A
EndT:        0
---00000061--- Acq_st=3 2019-5-25 07:17:3 
[00]  G28  f 37  -1542.0 2046002.0  1.0  1.0  5  0 544640549
[02]  G22  f 40    461.7 2045999.4  1.0  1.0  5  0 544640543
[16]  B08 1f 39    -67.3 4092000.1  1.0  1.0  5  0 544626496
[17]  B10 1f 41   -176.4 4092000.4  1.0  1.0  5  0 544626497
[18]  B11 1f 41    859.6 4091997.7  1.0  1.0  5  0 544626540
[19]  B13 1f 40   -451.2 4092001.2  1.0  1.0  5  0      6452
$GNGGA,000000.000,,,,,0,00,,,M,,,,0000*2B
$GNRMC,000000.000,A,,,,,,,000000,,*26
$GPGSA,A,1,,,,,,,,,,,,,,,*1E
$BDGSA,A,1,,,,,,,,,,,,,,,*0F
$GPGSV,1,1,02,28,00,000,37,22,00,000,40*71
$BDGSV,1,1,04,08,00,000,39,10,00,000,41,11,00,000,41,13,00,000,40*69
$LOGTIM,0,0.000000,0.000000,0.000000,0.000000,0.000*0A
EndT:        0
---00000062--- Acq_st=3 2019-5-25 07:17:4 
[00]  G28  f 37  -1542.8 2046002.0  1.0  1.0  5  0 544641549
[02]  G22  f 40    461.6 2045999.4  1.0  1.0  5  0 544641543
[16]  B08 1f 39    -67.7 4092000.1  1.0  1.0  5  0 544627496
[17]  B10 1f 40   -176.8 4092000.4  1.0  1.0  5  0 544627497
[18]  B11 1f 41    858.5 4091997.7  1.0  1.0  5  0 544627540
[19]  B13 1f 40   -452.1 4092001.2  1.0  1.0  5  0 544627492
$GNGGA,000000.000,,,,,0,00,,,M,,,,0000*2B
$GNRMC,000000.000,A,,,,,,,000000,,*26
$GPGSA,A,1,,,,,,,,,,,,,,,*1E
$BDGSA,A,1,,,,,,,,,,,,,,,*0F
$GPGSV,1,1,02,28,00,000,37,22,00,000,40*71
$BDGSV,1,1,04,08,00,000,39,10,00,000,40,11,00,000,41,13,00,000,40*68
$LOGTIM,0,0.000000,0.000000,0.000000,0.000000,0.000*0A
EndT:        0
---00000063--- Acq_st=3 2019-5-25 07:17:5 
[00]  G28  f 37  -1541.1 2046002.0  1.0  1.0  5  0 544642549
[02]  G22  f 40    462.9 2045999.4  1.0  1.0  5  0 544642543
[16]  B08 1f 39    -67.0 4092000.2  1.0  1.0  5  0 544628496
[17]  B10 1f 40   -175.9 4092000.5  1.0  1.0  5  0 544628497
[18]  B11 1f 41    859.3 4091997.7  1.0  1.0  5  0 544628540
[19]  B13 1f 40   -451.1 4092001.1  1.0  1.0  5  0 544628492
$GNGGA,000000.000,,,,,0,00,,,M,,,,0000*2B
$GNRMC,000000.000,A,,,,,,,000000,,*26
$GPGSA,A,1,,,,,,,,,,,,,,,*1E
$BDGSA,A,1,,,,,,,,,,,,,,,*0F
$GPGSV,1,1,02,28,00,000,37,22,00,000,40*71
$BDGSV,1,1,04,08,00,000,39,10,00,000,40,11,00,000,41,13,00,000,40*68
$LOGTIM,0,0.000000,0.000000,0.000000,0.000000,0.000*0A
EndT:        0
---00000064--- Acq_st=3 2019-5-25 07:17:6 
[00]  G28  f 37  -1537.9 2046002.0  1.0  1.0  5  0 544643549
[02]  G22  f 40    466.4 2045999.4  1.0  1.0  5  0 544643543
[16]  B08 1f 39    -63.5 4092000.2  1.0  1.0  5  0 544629496
[17]  B10 1f 40   -173.0 4092000.4  1.0  1.0  5  0 544629497
[18]  B11 1f 41    862.4 4091997.7  1.0  1.0  5  0 544629540
[19]  B13 1f 40   -448.1 4092001.1  1.0  1.0  5  0 544629492
$GNGGA,000000.000,,,,,0,00,,,M,,,,0000*2B
$GNRMC,000000.000,A,,,,,,,000000,,*26
$GPGSA,A,1,,,,,,,,,,,,,,,*1E
$BDGSA,A,1,,,,,,,,,,,,,,,*0F
$GPGSV,1,1,02,28,00,000,37,22,00,000,40*71
$BDGSV,1,1,04,08,00,000,39,10,00,000,40,11,00,000,41,13,00,000,40*68
$LOGTIM,0,0.000000,0.000000,0.000000,0.000000,0.000*0A
EndT:        0
---00000065--- Acq_st=3 2019-5-25 07:17:7 
[00]  G28  f 38  -1530.7 2046002.0  1.0  1.0  5  0 544644549
[02]  G22  f 40    474.3 2045999.4  1.0  1.0  5  0 544644543
[16]  B08 1f 39    -56.7 4092000.2  1.0  1.0  5  0 544630496
[17]  B10 1f 41   -165.8 4092000.4  1.0  1.0  5  0 544630497
[18]  B11 1f 41    869.4 4091997.7  1.0  1.0  5  0 544630540
[19]  B13 1f 40   -441.0 4092001.1  1.0  1.0  5  0 544630492
$GNGGA,000000.000,,,,,0,00,,,M,,,,0000*2B
$GNRMC,000000.000,A,,,,,,,000000,,*26
$GPGSA,A,1,,,,,,,,,,,,,,,*1E
$BDGSA,A,1,,,,,,,,,,,,,,,*0F
$GPGSV,1,1,02,28,00,000,38,22,00,000,40*7E
$BDGSV,1,1,04,08,00,000,39,10,00,000,41,11,00,000,41,13,00,000,40*69
$LOGTIM,0,0.000000,0.000000,0.000000,0.000000,0.000*0A
EndT:        0
---00000066--- Acq_st=3 2019-5-25 07:17:8 
[00]  G28  f 38  -1531.7 2046001.9  1.0  1.0  5  0 544645549
[02]  G22  f 40    473.6 2045999.4  1.0  1.0  5  0 544645543
[16]  B08 1f 39    -58.0 4092000.2  1.0  1.0  5  0 544631496
[17]  B10 1f 40   -167.2 4092000.4  1.0  1.0  5  0 544631497
[18]  B11 1f 41    868.5 4091997.7  1.0  1.0  5  0 544631540
[19]  B13 1f 40   -442.2 4092001.2  1.0  1.0  5  0 544631492
$GNGGA,000000.000,,,,,0,00,,,M,,,,0000*2B
$GNRMC,000000.000,A,,,,,,,000000,,*26
$GPGSA,A,1,,,,,,,,,,,,,,,*1E
$BDGSA,A,1,,,,,,,,,,,,,,,*0F
$GPGSV,1,1,02,28,00,000,38,22,00,000,40*7E
$BDGSV,1,1,04,08,00,000,39,10,00,000,40,11,00,000,41,13,00,000,40*68
$LOGTIM,0,0.000000,0.000000,0.000000,0.000000,0.000*0A
EndT:        0
---00000067--- Acq_st=3 2019-5-25 07:17:9 
[00]  G28  f 38  -1524.7 2046002.0  1.0  1.0  5  0 544646549
[02]  G22  f 39    480.6 2045999.4  1.0  1.0  5  0 544646543
[16]  B08 1f 39    -51.8 4092000.1  1.0  1.0  5  0 544632496
[17]  B10 1f 41   -160.8 4092000.4  1.0  1.0  5  0 544632497
[18]  B11 1f 41    874.9 4091997.7  1.0  1.0  5  0 544632540
[19]  B13 1f 40   -435.6 4092001.2  1.0  1.0  5  0 544632492
$GNGGA,000000.000,,,,,0,00,,,M,,,,0000*2B
$GNRMC,000000.000,A,,,,,,,000000,,*26
$GPGSA,A,1,,,,,,,,,,,,,,,*1E
$BDGSA,A,1,,,,,,,,,,,,,,,*0F
$GPGSV,1,1,02,28,00,000,38,22,00,000,39*70
$BDGSV,1,1,04,08,00,000,39,10,00,000,41,11,00,000,41,13,00,000,40*69
$LOGTIM,0,0.000000,0.000000,0.000000,0.000000,0.000*0A
EndT:        0
---00000068--- Acq_st=3 2019-5-25 07:17:10 
[00]  G28  f 38  -1522.2 2046001.9  1.0  1.0  5  0 544647549
[02]  G22  f 40    482.6 2045999.3  1.0  1.0  5  0 544647543
[16]  B08 1f 40    -49.7 4092000.1  1.0  1.0  5  0 544633496
[17]  B10 1f 40   -158.3 4092000.4  1.0  1.0  5  0 544633497
[18]  B11 1f 41    876.2 4091997.7  1.0  1.0  5  0 544633540
[19]  B13 1f 40   -433.8 4092001.1  1.0  1.0  5  0 544633492
$GNGGA,000000.000,,,,,0,00,,,M,,,,0000*2B
$GNRMC,000000.000,A,,,,,,,000000,,*26
$GPGSA,A,1,,,,,,,,,,,,,,,*1E
$BDGSA,A,1,,,,,,,,,,,,,,,*0F
$GPGSV,1,1,02,28,00,000,38,22,00,000,40*7E
$BDGSV,1,1,04,08,00,000,40,10,00,000,40,11,00,000,41,13,00,000,40*66
$LOGTIM,0,0.000000,0.000000,0.000000,0.000000,0.000*0A
EndT:        0
ch20 satid=57,max_freq = -750,max_mean = 7275,max_phase = 2110,max_value = 187599,acq ok1!
acq ok1 timeH = 0,timeL = 1288294312,freq_stage = 3
---00000069--- Acq_st=3 2019-5-25 07:17:11 
[00]  G28  f 38  -1524.5 2046002.0  1.0  1.0  5  0 544648549
[02]  G22  f 40    481.6 2045999.4  1.0  1.0  5  0 544648543
[16]  B08 1f 40    -51.7 4092000.2  1.0  1.0  5  0 544634496
[17]  B10 1f 40   -160.6 4092000.4  1.0  1.0  5  0 544634497
[18]  B11 1f 41    874.4 4091997.7  1.0  1.0  5  0 544634540
[19]  B13 1f 40   -435.8 4092001.2  1.0  1.0  5  0 544634492
[20]  B21  1  7    691.6 4091997.9  0.2  0.0  1  0         0
$GNGGA,000000.000,,,,,0,00,,,M,,,,0000*2B
$GNRMC,000000.000,A,,,,,,,000000,,*26
$GPGSA,A,1,,,,,,,,,,,,,,,*1E
$BDGSA,A,1,,,,,,,,,,,,,,,*0F
$GPGSV,1,1,02,28,00,000,38,22,00,000,40*7E
$BDGSV,1,1,04,08,00,000,40,10,00,000,40,11,00,000,41,13,00,000,40*66
$LOGTIM,0,0.000000,0.000000,0.000000,0.000000,0.000*0A
EndT:        0
---00000070--- Acq_st=3 2019-5-25 07:17:12 
[00]  G28  f 38  -1525.4 2046002.0  1.0  1.0  5  0 544649549
[02]  G22  f 40    479.5 2045999.4  1.0  1.0  5  0 544649543
[16]  B08 1f 39    -54.3 4092000.1  1.0  1.0  5  0 544635496
[17]  B10 1f 41   -162.7 4092000.4  1.0  1.0  5  0 544635497
[18]  B11 1f 42    872.1 4091997.7  1.0  1.0  5  0 544635540
[19]  B13 1f 40   -438.5 4092001.1  1.0  1.0  5  0 544635492
[20]  B21  7 30    689.2 4091998.2  0.7  1.0  5  0       996
$GNGGA,000000.000,,,,,0,00,,,M,,,,0000*2B
$GNRMC,000000.000,A,,,,,,,000000,,*26
$GPGSA,A,1,,,,,,,,,,,,,,,*1E
$BDGSA,A,1,,,,,,,,,,,,,,,*0F
$GPGSV,1,1,02,28,00,000,38,22,00,000,40*7E
$BDGSV,2,1,05,08,00,000,39,10,00,000,41,11,00,000,42,13,00,000,40*68
$BDGSV,2,2,05,21,00,000,30*5D
$LOGTIM,0,0.000000,0.000000,0.000000,0.000000,0.000*0A
EndT:        0
---00000071--- Acq_st=3 2019-5-25 07:17:13 
[00]  G28  f 38  -1526.0 2046002.0  1.0  1.0  5  0 544650549
[02]  G22  f 40    479.4 2045999.4  1.0  1.0  5  0 544650543
[16]  B08 1f 39    -55.0 4092000.2  1.0  1.0  5  0 544636496
[17]  B10 1f 41   -163.7 4092000.4  1.0  1.0  5  0 544636497
[18]  B11 1f 41    871.3 4091997.7  1.0  1.0  5  0 544636540
[19]  B13 1f 41   -438.8 4092001.1  1.0  1.0  5  0 544636492
[20]  B21  7 43    689.2 4091998.2  1.0  1.0  5  0      1993
$GNGGA,000000.000,,,,,0,00,,,M,,,,0000*2B
$GNRMC,000000.000,A,,,,,,,000000,,*26
$GPGSA,A,1,,,,,,,,,,,,,,,*1E
$BDGSA,A,1,,,,,,,,,,,,,,,*0F
$GPGSV,1,1,02,28,00,000,38,22,00,000,40*7E
$BDGSV,2,1,05,08,00,000,39,10,00,000,41,11,00,000,41,13,00,000,41*6A
$BDGSV,2,2,05,21,00,000,43*59
$LOGTIM,0,0.000000,0.000000,0.000000,0.000000,0.000*0A
EndT:        0
---00000072--- Acq_st=3 2019-5-25 07:17:14 
[00]  G28  f 38  -1526.6 2046002.0  1.0  1.0  5  0 544651549
[02]  G22  f 40    479.1 2045999.4  1.0  0.9  5  0 544651543
[16]  B08 1f 39    -55.8 4092000.1  1.0  1.0  5  0 544637496
[17]  B10 1f 40   -164.1 4092000.5  1.0  1.0  5  0 544637497
[18]  B11 1f 41    870.5 4091997.7  1.0  1.0  5  0 544637540
[19]  B13 1f 40   -440.0 4092001.2  1.0  1.0  5  0 544637492
[20]  B21  7 43    688.9 4091998.2  1.0  1.0  5  0      2993
lsq: nits= 4
$GNGGA,071714.618,3112.7924,N,12136.4439,E,1,05,13.5,76.0,M,,,,0000*1D
$GNRMC,071714.618,A,3112.7924,N,12136.4439,E,0.30,0.00,250519,,*1B
$GPGSA,A,3,22,28,,,,,,,,,,,45.3,13.5,43.2*08
$BDGSA,A,3,08,10,11,,,,,,,,,,45.3,13.5,43.2*1A
$GPGSV,1,1,02,28,00,000,38,22,00,000,40*7E
$BDGSV,2,1,05,08,00,000,39,10,00,000,40,11,00,000,41,13,00,000,40*6A
$BDGSV,2,2,05,21,00,000,43*59
$LOGTIM,3,7839474.162214,7839286.341582,0.000000,0.000000,-61.307*17
EndT:        0
---00000073--- Acq_st=3 2019-5-25 07:17:15 
[00]  G28  f 38  -1530.9 2046002.0  1.0  1.0  5  0 544652549
[02]  G22  f 40    475.0 2045999.4  1.0  1.0  5  0 544652543
[16]  B08 1f 39    -59.8 4092000.1  1.0  1.0  5  0 544638496
[17]  B10 1f 40   -168.4 4092000.5  1.0  1.0  5  0 544638497
[18]  B11 1f 42    866.2 4091997.7  1.0  1.0  5  0 544638540
[19]  B13 1f 40   -444.0 4092001.1  1.0  1.0  5  0 544638492
[20]  B21 1f 44    684.8 4091998.2  1.0  1.0  5  0      3993
lsq: nits= 4
$GNGGA,071716.000,3112.7078,N,12136.2868,E,1,05,13.5,-712.9,M,,,,0000*0F
$GNRMC,071716.000,A,3112.7078,N,12136.2868,E,1.12,0.00,250519,,*19
$GPGSA,A,3,22,28,,,,,,,,,,,45.2,13.5,43.2*09
$BDGSA,A,3,08,10,11,,,,,,,,,,45.2,13.5,43.2*1B
$GPGSV,1,1,02,28,00,000,38,22,00,000,40*7E
$BDGSV,2,1,05,08,00,000,39,10,00,000,40,11,00,000,42,13,00,000,40*69
$BDGSV,2,2,05,21,00,000,44*5E
$LOGTIM,3,-827.405912,-952.974127,0.000000,0.000000,-63.596*1D
EndT:        0
---00000074--- Acq_st=3 2019-5-25 07:17:16 
[00]  G28  f 39  -1535.6 2046002.0  1.0  1.0  5  0 544653931
[02]  G22  f 40    470.0 2045999.4  1.0  1.0  5  0 544653926
[16]  B08 1f 39    -65.8 4092000.1  1.0  1.0  5  0 544639879
[17]  B10 1f 41   -173.6 4092000.5  1.0  1.0  5  0 544639879
[18]  B11 1f 42    860.6 4091997.7  1.0  1.0  5  0 544639923
[19]  B13 1f 40   -449.4 4092001.2  1.0  1.0  5  0 544639874
[20]  B21 1f 44    679.7 4091998.2  1.0  1.0  5  0 544639915
lsq: nits= 4
$GNGGA,071717.000,3112.7053,N,12136.2855,E,1,05,13.5,-722.5,M,,,,0000*06
$GNRMC,071717.000,A,3112.7053,N,12136.2855,E,0.86,0.00,250519,,*13
$GPGSA,A,3,22,28,,,,,,,,,,,45.2,13.5,43.2*09
$BDGSA,A,3,08,10,11,,,,,,,,,,45.2,13.5,43.2*1B
$GPGSV,1,1,02,28,73,319,39,22,42,074,40*75
$BDGSV,2,1,05,08,68,295,39,10,73,263,41,11,43,044,42,13,00,000,40*6C
$BDGSV,2,2,05,21,00,000,44*5E
$LOGTIM,3,-900.625452,-1024.565860,0.000000,0.000000,-63.537*24
EndT:        0
---00000075--- Acq_st=3 2019-5-25 07:17:17 
[00]  G28  f 38  -1535.4 2046002.0  1.0  0.9  5  0 544654931
[02]  G22  f 40    470.7 2045999.4  1.0  1.0  5  0 544654926
[16]  B08 1f 39    -65.0 4092000.2  1.0  1.0  5  0 544640879
[17]  B10 1f 41   -173.4 4092000.4  1.0  1.0  5  0 544640879
[18]  B11 1f 42    860.9 4091997.7  1.0  1.0  5  0 544640923
[19]  B13 1f 40   -448.8 4092001.2  1.0  1.0  5  0 544640874
[20]  B21 1f 44    680.8 4091998.2  1.0  1.0  5  0 544640915
lsq: nits= 4
$GNGGA,000000.000,,,,,0,00,,,M,,,,0000*2B
$GNRMC,000000.000,A,,,,,,,000000,,*26
$GPGSA,A,1,,,,,,,,,,,,,,,*1E
$BDGSA,A,1,,,,,,,,,,,,,,,*0F
$GPGSV,1,1,02,28,73,319,38,22,42,074,40*74
$BDGSV,2,1,05,08,68,295,39,10,73,263,41,11,43,044,42,13,00,000,40*6C
$BDGSV,2,2,05,21,00,000,44*5E
$LOGTIM,0,0.000000,0.000000,0.000000,0.000000,-61.520*17
EndT:        0
---00000076--- Acq_st=3 2019-5-25 07:17:18 
[00]  G28  f 38  -1533.5 2046002.0  1.0  1.0  5  0 544655931
[02]  G22  f 40    473.2 2045999.4  1.0  1.0  5  0 544655926
[16]  B08 1f 39    -63.1 4092000.2  1.0  1.0  5  0 544641879
[17]  B10 1f 41   -171.6 4092000.5  1.0  1.0  5  0 544641879
[18]  B11 1f 42    862.9 4091997.7  1.0  1.0  5  0 544641923
[19]  B13 1f 40   -447.7 4092001.2  1.0  1.0  5  0 544641874
[20]  B21 1f 43    682.7 4091998.2  1.0  1.0  5  0 544641915
lsq: nits= 4
$GNGGA,071719.000,3112.6994,N,12136.2779,E,1,05,13.5,-773.8,M,,,,0000*03
$GNRMC,071719.000,A,3112.6994,N,12136.2779,E,0.83,0.00,250519,,*1A
$GPGSA,A,3,22,28,,,,,,,,,,,45.2,13.5,43.1*0A
$BDGSA,A,3,08,10,11,,,,,,,,,,45.2,13.5,43.1*18
$GPGSV,1,1,02,28,73,319,38,22,42,074,40*74
$BDGSV,2,1,05,08,68,295,39,10,73,263,41,11,43,044,42,13,00,000,40*6C
$BDGSV,2,2,05,21,00,000,43*59
$LOGTIM,3,-1073.646857,-1195.526027,0.000000,0.000000,-61.286*1C
EndT:        0
---00000077--- Acq_st=3 2019-5-25 07:17:19 
[00]  G28  f 38  -1535.7 2046002.0  1.0  1.0  5  0 544656931
[02]  G22  f 39    471.1 2045999.4  1.0  1.0  5  0 544656926
[16]  B08 1f 39    -66.4 4092000.1  1.0  1.0  5  0 544642879
[17]  B10 1f 40   -172.9 4092000.4  1.0  1.0  5  0 544642879
[18]  B11 1f 42    860.5 4091997.7  1.0  1.0  5  0 544642923
[19]  B13 1f 40   -449.8 4092001.2  1.0  1.0  5  0 544642874
[20]  B21 1f 43    681.0 4091998.2  1.0  1.0  5  0 544642915
lsq: nits= 4
$GNGGA,071720.000,3112.7000,N,12136.2737,E,1,05,13.5,-788.8,M,,,,0000*02
$GNRMC,071720.000,A,3112.7000,N,12136.2737,E,0.19,0.00,250519,,*1C
$GPGSA,A,3,22,28,,,,,,,,,,,45.2,13.5,43.1*0A
$BDGSA,A,3,08,10,11,,,,,,,,,,45.2,13.5,43.1*18
$GPGSV,1,1,02,28,73,319,38,22,42,074,39*7A
$BDGSV,2,1,05,08,68,295,39,10,73,263,40,11,43,044,42,13,00,000,40*6D
$BDGSV,2,2,05,21,00,000,43*59
$LOGTIM,3,-1151.317599,-1270.535519,0.000000,0.000000,-63.330*1F
EndT:        0
---00000078--- Acq_st=3 2019-5-25 07:17:20 
[00]  G28  f 38  -1537.3 2046002.0  1.0  1.0  5  0 544657931
[02]  G22  f 40    469.8 2045999.4  1.0  1.0  5  0 544657926
[16]  B08 1f 39    -68.0 4092000.2  1.0  1.0  5  0 544643879
[17]  B10 1f 40   -175.8 4092000.4  1.0  1.0  5  0 544643879
[18]  B11 1f 42    858.1 4091997.7  1.0  1.0  5  0 544643923
[19]  B13 1f 40   -452.2 4092001.2  1.0  1.0  5  0 544643874
[20]  B21 1f 44    678.9 4091998.2  1.0  1.0  5  0 544643915
lsq: nits= 4
$GNGGA,071721.000,3112.7008,N,12136.2710,E,1,05,13.5,-797.2,M,,,,0000*0A
$GNRMC,071721.000,A,3112.7008,N,12136.2710,E,1.75,0.00,250519,,*1B
$GPGSA,A,3,22,28,,,,,,,,,,,45.2,13.5,43.1*0A
$BDGSA,A,3,08,10,11,,,,,,,,,,45.2,13.5,43.1*18
$GPGSV,1,1,02,28,73,319,38,22,42,074,40*74
$BDGSV,2,1,05,08,68,295,39,10,73,263,40,11,43,044,42,13,00,000,40*6D
$BDGSV,2,2,05,21,00,000,44*5E
$LOGTIM,3,-1222.857299,-1340.350921,0.000000,0.000000,-60.307*17
EndT:        0
---00000079--- Acq_st=3 2019-5-25 07:17:21 
[00]  G28  f 38  -1535.4 2046002.0  1.0  1.0  5  0 544658931
[02]  G22  f 40    471.6 2045999.4  1.0  1.0  5  0 544658926
[16]  B08 1f 39    -67.1 4092000.2  1.0  1.0  5  0 544644879
[17]  B10 1f 41   -174.1 4092000.4  1.0  1.0  5  0 544644879
[18]  B11 1f 42    859.7 4091997.7  1.0  1.0  5  0 544644923
[19]  B13 1f 40   -450.7 4092001.2  1.0  1.0  5  0 544644874
[20]  B21 1f 44    680.6 4091998.2  1.0  1.0  5  0 544644915
lsq: nits= 4
$GNGGA,071722.000,3112.7009,N,12136.2701,E,1,05,13.5,-798.6,M,,,,0000*03
$GNRMC,071722.000,A,3112.7009,N,12136.2701,E,1.17,0.00,250519,,*1D
$GPGSA,A,3,22,28,,,,,,,,,,,45.1,13.5,43.1*09
$BDGSA,A,3,08,10,11,,,,,,,,,,45.1,13.5,43.1*1B
$GPGSV,1,1,02,28,73,319,38,22,42,074,40*74
$BDGSV,2,1,05,08,68,295,39,10,73,263,41,11,43,044,42,13,00,000,40*6C
$BDGSV,2,2,05,21,00,000,44*5E
$LOGTIM,3,-1288.150370,-1404.822387,0.000000,0.000000,-64.476*15
EndT:        0
---00000080--- Acq_st=3 2019-5-25 07:17:22 
[00]  G28  f 38  -1534.0 2046002.0  1.0  1.0  5  0 544659931
[02]  G22  f 40    472.8 2045999.4  1.0  1.0  5  0 544659926
[16]  B08 1f 39    -65.9 4092000.1  1.0  1.0  5  0 544645879
[17]  B10 1f 40   -173.2 4092000.4  1.0  1.0  5  0 544645879
[18]  B11 1f 42    860.5 4091997.7  1.0  1.0  5  0 544645923
[19]  B13 1f 40   -449.5 4092001.1  1.0  1.0  5  0 544645874
[20]  B21 1f 43    682.3 4091998.2  1.0  1.0  5  0 544645915
lsq: nits= 4
$GNGGA,000000.000,,,,,0,00,,,M,,,,0000*2B
$GNRMC,000000.000,A,,,,,,,000000,,*26
$GPGSA,A,1,,,,,,,,,,,,,,,*1E
$BDGSA,A,1,,,,,,,,,,,,,,,*0F
$GPGSV,1,1,02,28,73,319,38,22,42,074,40*74
$BDGSV,2,1,05,08,68,295,39,10,73,263,40,11,43,044,42,13,00,000,40*6D
$BDGSV,2,2,05,21,00,000,43*59
$LOGTIM,0,0.000000,0.000000,0.000000,0.000000,-61.735*11
EndT:        0
ch21 satid=64,max_freq = 1750,max_mean = 7505,max_phase = 729,max_value = 101430,acq ok1!
acq ok1 timeH = 0,timeL = 1524508382,freq_stage = 2
---00000081--- Acq_st=3 2019-5-25 07:17:23 
[00]  G28  f 37  -1536.8 2046002.0  1.0  1.0  5  0 544660931
[02]  G22  f 40    470.5 2045999.3  1.0  1.0  5  0 544660926
[16]  B08 1f 39    -69.1 4092000.1  1.0  1.0  5  0 544646879
[17]  B10 1f 41   -176.3 4092000.5  1.0  1.0  5  0 544646879
[18]  B11 1f 42    857.6 4091997.7  1.0  1.0  5  0 544646923
[19]  B13 1f 40   -452.5 4092001.3  1.0  1.0  5  0 544646874
[20]  B21 1f 45    679.5 4091998.2  1.0  1.0  5  0 544646915
[21]  B28  1  7  -1768.1 4092005.9  0.0  0.0  1  0         0
lsq: nits= 4
$GNGGA,071724.000,3112.7031,N,12136.2687,E,1,05,13.5,-794.1,M,,,,0000*0A
$GNRMC,071724.000,A,3112.7031,N,12136.2687,E,2.60,0.00,250519,,*1C
$GPGSA,A,3,22,28,,,,,,,,,,,45.1,13.5,43.0*08
$BDGSA,A,3,08,10,11,,,,,,,,,,45.1,13.5,43.0*1A
$GPGSV,1,1,02,28,73,319,37,22,42,074,40*7B
$BDGSV,2,1,05,08,68,295,39,10,73,263,41,11,43,044,42,13,00,000,40*6C
$BDGSV,2,2,05,21,00,000,45*5F
$LOGTIM,3,-1411.860702,-1526.618695,0.000000,0.000000,-67.395*11
EndT:        0
---00000082--- Acq_st=3 2019-5-25 07:17:24 
[00]  G28  f 38  -1537.6 2046002.0  1.0  1.0  5  0 544661931
[02]  G22  f 40    469.5 2045999.3  1.0  1.0  5  0 544661926
[16]  B08 1f 39    -70.4 4092000.2  1.0  1.0  5  0 544647879
[17]  B10 1f 41   -177.5 4092000.5  1.0  1.0  5  0 544647879
[18]  B11 1f 42    855.9 4091997.8  1.0  1.0  5  0 544647923
[19]  B13 1f 40   -454.4 4092001.2  1.0  1.0  5  0 544647874
[20]  B21 1f 44    678.6 4091998.2  1.0  1.0  5  0 544647915
[21]  B28  1  7  -1761.9 4092005.5  0.1  0.0  1  0       712
lsq: nits= 4
$GNGGA,071725.000,3112.7023,N,12136.2680,E,1,05,13.5,-799.8,M,,,,0000*0B
$GNRMC,071725.000,A,3112.7023,N,12136.2680,E,1.48,0.00,250519,,*10
$GPGSA,A,3,22,28,,,,,,,,,,,45.1,13.5,43.0*08
$BDGSA,A,3,08,10,11,,,,,,,,,,45.1,13.5,43.0*1A
$GPGSV,1,1,02,28,73,319,38,22,42,074,40*74
$BDGSV,2,1,05,08,68,295,39,10,73,263,41,11,43,044,42,13,00,000,40*6C
$BDGSV,2,2,05,21,00,000,44*5E
$LOGTIM,3,-1481.596104,-1595.408842,0.000000,0.000000,-65.900*17
EndT:        0
---00000083--- Acq_st=3 2019-5-25 07:17:25 
[00]  G28  f 38  -1535.4 2046002.0  1.0  1.0  5  0 544662931
[02]  G22  f 40    471.3 2045999.4  1.0  1.0  5  0 544662926
[16]  B08 1f 39    -68.8 4092000.2  1.0  1.0  5  0 544648879
[17]  B10 1f 40   -176.5 4092000.4  1.0  1.0  5  0 544648879
[18]  B11 1f 42    857.3 4091997.7  1.0  1.0  5  0 544648923
[19]  B13 1f 40   -452.5 4092001.2  1.0  1.0  5  0 544648874
[20]  B21 1f 44    680.4 4091998.2  1.0  1.0  5  0 544648915
[21]  B28  7 35  -1760.8 4092004.5  1.0  1.0  5  0      1700
lsq: nits= 4
$GNGGA,071726.000,3112.7010,N,12136.2673,E,1,05,13.5,-808.8,M,,,,0000*03
$GNRMC,071726.000,A,3112.7010,N,12136.2673,E,0.31,0.00,250519,,*10
$GPGSA,A,3,22,28,,,,,,,,,,,45.1,13.5,43.0*08
$BDGSA,A,3,08,10,11,,,,,,,,,,45.1,13.5,43.0*1A
$GPGSV,1,1,02,28,73,319,38,22,42,074,40*74
$BDGSV,2,1,06,08,68,295,39,10,73,263,40,11,43,044,42,13,00,000,40*6E
$BDGSV,2,2,06,21,00,000,44,28,00,000,35*61
$LOGTIM,3,-1552.876048,-1667.155414,0.000000,0.000000,-62.402*16
EndT:        0
---00000084--- Acq_st=3 2019-5-25 07:17:26 
[00]  G28  f 38  -1532.4 2046001.9  1.0  1.0  5  0 544663931
[02]  G22  f 40    475.4 2045999.4  1.0  1.0  5  0 544663926
[16]  B08 1f 39    -65.5 4092000.2  1.0  1.0  5  0 544649879
[17]  B10 1f 40   -172.6 4092000.4  1.0  1.0  5  0 544649879
[18]  B11 1f 42    860.5 4091997.8  1.0  1.0  5  0 544649923
[19]  B13 1f 40   -449.9 4092001.2  1.0  1.0  5  0 544649874
[20]  B21 1f 44    683.9 4091998.2  1.0  1.0  5  0 544649915
[21]  B28  7 40  -1757.2 4092004.6  1.0  1.0  5  0      2700
lsq: nits= 4
$GNGGA,071727.000,3112.7029,N,12136.2678,E,1,05,13.5,-803.5,M,,,,0000*05
$GNRMC,071727.000,A,3112.7029,N,12136.2678,E,0.96,0.00,250519,,*1D
$GPGSA,A,3,22,28,,,,,,,,,,,45.0,13.5,43.0*09
$BDGSA,A,3,08,10,11,,,,,,,,,,45.0,13.5,43.0*1B
$GPGSV,1,1,02,28,73,319,38,22,42,074,40*74
$BDGSV,2,1,06,08,68,295,39,10,73,263,40,11,43,044,42,13,00,000,40*6E
$BDGSV,2,2,06,21,00,000,44,28,00,000,40*63
$LOGTIM,3,-1609.987913,-1724.908632,0.000000,0.000000,-64.158*1F
EndT:        0
---00000085--- Acq_st=3 2019-5-25 07:17:27 
[00]  G28  f 38  -1530.6 2046002.0  1.0  1.0  5  0 544664931
[02]  G22  f 40    476.6 2045999.4  1.0  1.0  5  0 544664926
[16]  B08 1f 40    -64.9 4092000.2  1.0  1.0  5  0 544650879
[17]  B10 1f 41   -172.0 4092000.4  1.0  1.0  5  0 544650879
[18]  B11 1f 42    861.7 4091997.7  1.0  1.0  5  0 544650923
[19]  B13 1f 40   -448.4 4092001.2  1.0  1.0  5  0 544650874
[20]  B21 1f 44    685.4 4091998.2  1.0  1.0  5  0 544650915
[21]  B28 1f 40  -1756.3 4092004.6  1.0  1.0  5  0      3700
lsq: nits= 4
$GNGGA,000000.000,,,,,0,00,,,M,,,,0000*2B
$GNRMC,000000.000,A,,,,,,,000000,,*26
$GPGSA,A,1,,,,,,,,,,,,,,,*1E
$BDGSA,A,1,,,,,,,,,,,,,,,*0F
$GPGSV,1,1,02,28,73,319,38,22,42,074,40*74
$BDGSV,2,1,06,08,68,295,40,10,73,263,41,11,43,044,42,13,00,000,40*61
$BDGSV,2,2,06,21,00,000,44,28,00,000,40*63
$LOGTIM,0,0.000000,0.000000,0.000000,0.000000,-63.644*14
EndT:        0
---00000086--- Acq_st=3 2019-5-25 07:17:28 
[00]  G28  f 38  -1527.2 2046002.1  1.0  1.0  5  0 544665931
[02]  G22  f 40    480.8 2045999.3  1.0  1.0  5  0 544665926
[16]  B08 1f 39    -61.9 4092000.2  1.0  1.0  5  0 544651879
[17]  B10 1f 41   -168.5 4092000.4  1.0  1.0  5  0 544651879
[18]  B11 1f 42    864.4 4091997.7  1.0  1.0  5  0 544651923
[19]  B13 1f 40   -445.4 4092001.1  1.0  1.0  5  0 544651874
[20]  B21 1f 44    688.9 4091998.2  1.0  1.0  5  0 544651915
[21]  B28 1f 40  -1753.3 4092004.6  1.0  1.0  5  0 544651920
lsq: nits= 4
$GNGGA,000000.000,,,,,0,00,,,M,,,,0000*2B
$GNRMC,000000.000,A,,,,,,,000000,,*26
$GPGSA,A,1,,,,,,,,,,,,,,,*1E
$BDGSA,A,1,,,,,,,,,,,,,,,*0F
$GPGSV,1,1,02,28,73,319,38,22,42,074,40*74
$BDGSV,2,1,06,08,68,295,39,10,73,263,41,11,43,044,42,13,00,000,40*6F
$BDGSV,2,2,06,21,00,000,44,28,00,000,40*63
$LOGTIM,0,0.000000,0.000000,0.000000,0.000000,-58.697*12
EndT:        0
---00000087--- Acq_st=3 2019-5-25 07:17:29 
[00]  G28  f 38  -1524.8 2046002.0  1.0  1.0  5  0 544666931
[02]  G22  f 40    482.9 2045999.4  1.0  1.0  5  0 544666926
[16]  B08 1f 39    -60.3 4092000.2  1.0  1.0  5  0 544652879
[17]  B10 1f 40   -166.6 4092000.4  1.0  1.0  5  0 544652879
[18]  B11 1f 42    866.7 4091997.7  1.0  1.0  5  0 544652923
[19]  B13 1f 40   -443.4 4092001.1  1.0  1.0  5  0 544652874
[20]  B21 1f 44    691.3 4091998.2  1.0  1.0  5  0 544652915
[21]  B28 1f 40  -1751.2 4092004.6  1.0  1.0  5  0 544652920
lsq: nits= 4
$GNGGA,071730.000,3112.7054,N,12136.2722,E,1,05,13.5,-778.5,M,,,,0000*04
$GNRMC,071730.000,A,3112.7054,N,12136.2722,E,0.32,0.00,250519,,*11
$GPGSA,A,3,22,28,,,,,,,,,,,45.0,13.5,42.9*01
$BDGSA,A,3,08,10,11,,,,,,,,,,45.0,13.5,42.9*13
$GPGSV,1,1,02,28,73,319,38,22,42,074,40*74
$BDGSV,2,1,06,08,68,295,39,10,73,263,40,11,43,044,42,13,00,000,40*6E
$BDGSV,2,2,06,21,00,000,44,28,00,000,40*63
$LOGTIM,3,-1771.284832,-1889.569143,0.000000,0.000000,-61.506*13
EndT:        0
---00000088--- Acq_st=3 2019-5-25 07:17:30 
[00]  G28  f 38  -1524.3 2046002.0  1.0  1.0  5  0 544667931
[02]  G22  f 40    483.3 2045999.3  1.0  1.0  5  0 544667926
[16]  B08 1f 40    -59.9 4092000.1  1.0  1.0  5  0 544653879
[17]  B10 1f 41   -166.7 4092000.4  1.0  1.0  5  0 544653879
[18]  B11 1f 42    866.1 4091997.7  1.0  1.0  5  0 544653923
[19]  B13 1f 40   -443.2 4092001.2  1.0  1.0  5  0 544653874
[20]  B21 1f 44    691.5 4091998.2  1.0  1.0  5  0 544653915
[21]  B28 1f 40  -1751.7 4092004.6  1.0  1.0  5  0 544653920
lsq: nits= 4
$GNGGA,071731.000,3112.7063,N,12136.2718,E,1,05,13.5,-778.7,M,,,,0000*0A
$GNRMC,071731.000,A,3112.7063,N,12136.2718,E,1.17,0.00,250519,,*1B
$GPGSA,A,3,22,28,,,,,,,,,,,45.0,13.5,42.9*01
$BDGSA,A,3,08,10,11,,,,,,,,,,45.0,13.5,42.9*13
$GPGSV,1,1,02,28,73,319,38,22,42,074,40*74
$BDGSV,2,1,06,08,68,295,40,10,73,263,41,11,43,044,42,13,00,000,40*61
$BDGSV,2,2,06,21,00,000,44,28,00,000,40*63
$LOGTIM,3,-1832.655607,-1950.984061,0.000000,0.000000,-62.724*11
EndT:        0
---00000089--- Acq_st=7 2019-5-25 07:17:31 
[00]  G28  f 38  -1519.2 2046002.0  1.0  1.0  5  0 544668931
[02]  G22  f 40    488.8 2045999.4  1.0  1.0  5  0 544668926
[16]  B08 1f 40    -54.9 4092000.1  1.0  1.0  5  0 544654879
[17]  B10 1f 41   -161.5 4092000.4  1.0  1.0  5  0 544654879
[18]  B11 1f 42    871.5 4091997.7  1.0  1.0  5  0 544654923
[19]  B13 1f 40   -438.4 4092001.1  1.0  1.0  5  0 544654874
[20]  B21 1f 44    697.2 4091998.2  1.0  1.0  5  0 544654915
[21]  B28 1f 40  -1746.5 4092004.5  1.0  1.0  5  0 544654920
lsq: nits= 4
$GNGGA,071732.000,3112.7076,N,12136.2744,E,1,05,13.5,-761.4,M,,,,0000*0F
$GNRMC,071732.000,A,3112.7076,N,12136.2744,E,0.36,0.00,250519,,*17
$GPGSA,A,3,22,28,,,,,,,,,,,45.0,13.5,42.9*01
$BDGSA,A,3,08,10,11,,,,,,,,,,45.0,13.5,42.9*13
$GPGSV,1,1,02,28,73,319,38,22,42,074,40*74
$BDGSV,2,1,06,08,68,295,40,10,73,263,41,11,43,044,42,13,00,000,40*61
$BDGSV,2,2,06,21,00,000,44,28,00,000,40*63
$LOGTIM,3,-1878.317393,-1996.947568,0.000000,0.000000,-60.274*1F
EndT:        0
---00000090--- Acq_st=7 2019-5-25 07:17:32 
[00]  G28  f 38  -1517.9 2046002.0  1.0  1.0  5  0 544669931
[02]  G22  f 41    489.7 2045999.4  1.0  1.0  5  0 544669926
[16]  B08 1f 40    -54.0 4092000.1  1.0  1.0  5  0 544655879
[17]  B10 1f 41   -160.7 4092000.4  1.0  1.0  5  0 544655879
[18]  B11 1f 42    872.0 4091997.7  1.0  1.0  5  0 544655923
[19]  B13 1f 40   -438.1 4092001.1  1.0  1.0  5  0 544655874
[20]  B21 1f 45    698.1 4091998.1  1.0  1.0  5  0 544655915
[21]  B28 1f 40  -1745.7 4092004.6  1.0  1.0  5  0 544655920
lsq: nits= 4
$GNGGA,071733.000,3112.7074,N,12136.2722,E,1,05,13.5,-773.0,M,,,,0000*0B
$GNRMC,071733.000,A,3112.7074,N,12136.2722,E,0.20,0.00,250519,,*13
$GPGSA,A,3,22,28,,,,,,,,,,,44.9,13.5,42.9*09
$BDGSA,A,3,08,10,11,,,,,,,,,,44.9,13.5,42.9*1B
$GPGSV,1,1,02,28,73,319,38,22,42,074,41*75
$BDGSV,2,1,06,08,68,295,40,10,73,263,41,11,43,044,42,13,00,000,40*61
$BDGSV,2,2,06,21,00,000,45,28,00,000,40*62
$LOGTIM,3,-1948.934466,-2068.305071,0.000000,0.000000,-61.040*15
EndT:        0
---00000091--- Acq_st=7 2019-5-25 07:17:33 
[00]  G28  f 38  -1524.1 2046001.9  1.0  1.0  5  0 544670931
[02]  G22  f 41    483.8 2045999.4  1.0  1.0  5  0 544670926
[16]  B08 1f 40    -61.4 4092000.1  1.0  1.0  5  0 544656879
[17]  B10 1f 40   -167.3 4092000.4  1.0  1.0  5  0 544656879
[18]  B11 1f 42    864.9 4091997.7  1.0  1.0  5  0 544656923
[19]  B13 1f 40   -444.7 4092001.2  1.0  1.0  5  0 544656874
[20]  B21 1f 45    691.9 4091998.2  1.0  1.0  5  0 544656915
[21]  B28 1f 40  -1752.3 4092004.6  1.0  1.0  5  0 544656920
lsq: nits= 4
$GNGGA,000000.000,,,,,0,00,,,M,,,,0000*2B
$GNRMC,000000.000,A,,,,,,,000000,,*26
$GPGSA,A,1,,,,,,,,,,,,,,,*1E
$BDGSA,A,1,,,,,,,,,,,,,,,*0F
$GPGSV,1,1,02,28,73,319,38,22,42,074,41*75
$BDGSV,2,1,06,08,68,295,40,10,73,263,40,11,43,044,42,13,00,000,40*60
$BDGSV,2,2,06,21,00,000,45,28,00,000,40*62
$LOGTIM,0,0.000000,0.000000,0.000000,0.000000,-62.530*15
EndT:        0
---00000092--- Acq_st=3 2019-5-25 07:17:34 
[00]  G28  f 37  -1521.9 2046002.0  1.0  1.0  5  0 544671931
[02]  G22  f 40    486.7 2045999.4  1.0  1.0  5  0 544671926
[16]  B08 1f 40    -58.8 4092000.1  1.0  1.0  5  0 544657879
[17]  B10 1f 40   -165.6 4092000.5  1.0  1.0  5  0 544657879
[18]  B11 1f 42    867.4 4091997.7  1.0  1.0  5  0 544657923
[19]  B13 1f 40   -442.6 4092001.1  1.0  1.0  5  0 544657874
[20]  B21 1f 44    694.5 4091998.2  1.0  1.0  5  0 544657915
[21]  B28 1f 40  -1750.1 4092004.6  1.0  0.9  5  0 544657920
lsq: nits= 4
$GNGGA,071735.000,3112.7095,N,12136.2771,E,1,05,13.5,-739.3,M,,,,0000*09
$GNRMC,071735.000,A,3112.7095,N,12136.2771,E,0.72,0.00,250519,,*1B
$GPGSA,A,3,22,28,,,,,,,,,,,44.9,13.5,42.8*08
$BDGSA,A,3,08,10,11,,,,,,,,,,44.9,13.5,42.8*1A
$GPGSV,1,1,02,28,73,319,37,22,42,074,40*7B
$BDGSV,2,1,06,08,68,295,40,10,73,263,40,11,43,044,42,13,00,000,40*60
$BDGSV,2,2,06,21,00,000,44,28,00,000,40*63
$LOGTIM,3,-2042.311822,-2162.148579,0.000000,0.000000,-61.737*1E
EndT:        0
---00000093--- Acq_st=3 2019-5-25 07:17:35 
[00]  G28  f 37  -1517.8 2046002.0  1.0  1.0  5  0 544672931
[02]  G22  f 40    491.0 2045999.4  1.0  1.0  5  0 544672926
[16]  B08 1f 40    -55.1 4092000.1  1.0  1.0  5  0 544658879
[17]  B10 1f 40   -161.1 4092000.4  1.0  1.0  5  0 544658879
[18]  B11 1f 43    871.1 4091997.7  1.0  1.0  5  0 544658923
[19]  B13 1f 40   -438.0 4092001.1  1.0  1.0  5  0 544658874
[20]  B21 1f 44    698.6 4091998.2  1.0  1.0  5  0 544658915
[21]  B28 1f 41  -1746.1 4092004.6  1.0  1.0  5  0 544658920
lsq: nits= 4
$GNGGA,071736.000,3112.7100,N,12136.2806,E,1,05,13.5,-721.5,M,,,,0000*07
$GNRMC,071736.000,A,3112.7100,N,12136.2806,E,0.56,0.00,250519,,*1C
$GPGSA,A,3,22,28,,,,,,,,,,,44.9,13.5,42.8*08
$BDGSA,A,3,08,10,11,,,,,,,,,,44.9,13.5,42.8*1A
$GPGSV,1,1,02,28,73,319,37,22,42,074,40*7B
$BDGSV,2,1,06,08,68,295,40,10,73,263,40,11,43,044,43,13,00,000,40*61
$BDGSV,2,2,06,21,00,000,44,28,00,000,41*62
