FlashID=0x1 0x20 0x18
BBram_blkflag1: 461d: b9e2
FW Ver: 1.30  
GPS00 Init Dop:   5000, 40
GPS01 Init Dop:   5000, 40
GPS02 Init Dop:   5000, 40
GPS03 Init Dop:   5000, 40
GPS04 Init Dop:   5000, 40
GPS05 Init Dop:   5000, 40
GPS06 Init Dop:   5000, 40
GPS07 Init Dop:   5000, 40
GPS08 Init Dop:   5000, 40
GPS09 Init Dop:   5000, 40
GPS10 Init Dop:   5000, 40
GPS11 Init Dop:   5000, 40
GPS12 Init Dop:   5000, 40
GPS13 Init Dop:   5000, 40
GPS14 Init Dop:   5000, 40
GPS15 Init Dop:   5000, 40
GPS16 Init Dop:   5000, 40
GPS17 Init Dop:   5000, 40
GPS18 Init Dop:   5000, 40
GPS19 Init Dop:   5000, 40
GPS20 Init Dop:   5000, 40
GPS21 Init Dop:   5000, 40
GPS22 Init Dop:   5000, 40
GPS23 Init Dop:   5000, 40
GPS24 Init Dop:   5000, 40
GPS25 Init Dop:   5000, 40
GPS26 Init Dop:   5000, 40
GPS27 Init Dop:   5000, 40
GPS28 Init Dop:   5000, 40
GPS29 Init Dop:   5000, 40
GPS30 Init Dop:   5000, 40
GPS31 Init Dop:   5000, 40
BDS00 Init Dop:   5000, 40
BDS01 Init Dop:   5000, 40
BDS02 Init Dop:   5000, 40
BDS03 Init Dop:   5000, 40
BDS04 Init Dop:   5000, 40
BDS05 Init Dop:   5000, 40
BDS06 Init Dop:   5000, 40
BDS07 Init Dop:   5000, 40
BDS08 Init Dop:   5000, 40
BDS09 Init Dop:   5000, 40
BDS10 Init Dop:   5000, 40
BDS11 Init Dop:   5000, 40
BDS12 Init Dop:   5000, 40
BDS13 Init Dop:   5000, 40
BDS14 Init Dop:   5000, 40
BDS15 Init Dop:   5000, 40
BDS16 Init Dop:   5000, 40
BDS17 Init Dop:   5000, 40
BDS18 Init Dop:   5000, 40
BDS19 Init Dop:   5000, 40
BDS20 Init Dop:   5000, 40
BDS21 Init Dop:   5000, 40
BDS22 Init Dop:   5000, 40
BDS23 Init Dop:   5000, 40
BDS24 Init Dop:   5000, 40
BDS25 Init Dop:   5000, 40
BDS26 Init Dop:   5000, 40
BDS27 Init Dop:   5000, 40
BDS28 Init Dop:   5000, 40
BDS29 Init Dop:   5000, 40
BDS30 Init Dop:   5000, 40
BDS31 Init Dop:   5000, 40
---00000001--- Acq_st=3 2019-5-25 03:18:35 
$GNGGA,000000.000,,,,,0,00,,,M,,,,0000*2B
$GNRMC,000000.000,A,,,,,,,000000,,*26
$GPGSA,A,1,,,,,,,,,,,,,,,*1E
$BDGSA,A,1,,,,,,,,,,,,,,,*0F
$LOGTIM,0,0.000000,0.000000,0.000000,0.000000,0.000*0A
EndT:        0
---00000002--- Acq_st=3 2019-5-25 03:18:36 
$GNGGA,000000.000,,,,,0,00,,,M,,,,0000*2B
$GNRMC,000000.000,A,,,,,,,000000,,*26
$GPGSA,A,1,,,,,,,,,,,,,,,*1E
$BDGSA,A,1,,,,,,,,,,,,,,,*0F
$LOGTIM,0,0.000000,0.000000,0.000000,0.000000,0.000*0A
EndT:        0
---00000003--- Acq_st=3 2019-5-25 03:18:37 
$GNGGA,000000.000,,,,,0,00,,,M,,,,0000*2B
$GNRMC,000000.000,A,,,,,,,000000,,*26
$GPGSA,A,1,,,,,,,,,,,,,,,*1E
$BDGSA,A,1,,,,,,,,,,,,,,,*0F
$LOGTIM,0,0.000000,0.000000,0.000000,0.000000,0.000*0A
EndT:        0
ch0 satid=3,max_freq = 0,max_mean = 23393,max_phase = 1659,max_value = 297855,acq ok1!
acq ok1 timeH = 0,timeL = 62963834,freq_stage = 3
---00000004--- Acq_st=3 2019-5-25 03:18:38 
[00]  G04  1  7     42.2 2046001.1  0.0  0.0  1  0         0
$GNGGA,000000.000,,,,,0,00,,,M,,,,0000*2B
$GNRMC,000000.000,A,,,,,,,000000,,*26
$GPGSA,A,1,,,,,,,,,,,,,,,*1E
$BDGSA,A,1,,,,,,,,,,,,,,,*0F
$LOGTIM,0,0.000000,0.000000,0.000000,0.000000,0.000*0A
EndT:        0
---00000005--- Acq_st=3 2019-5-25 03:18:39 
[00]  G04  1 30     63.9 2045999.8  0.1  0.0  1  0         2
$GNGGA,000000.000,,,,,0,00,,,M,,,,0000*2B
$GNRMC,000000.000,A,,,,,,,000000,,*26
$GPGSA,A,1,,,,,,,,,,,,,,,*1E
$BDGSA,A,1,,,,,,,,,,,,,,,*0F
$LOGTIM,0,0.000000,0.000000,0.000000,0.000000,0.000*0A
EndT:        0
---00000006--- Acq_st=3 2019-5-25 03:18:40 
[00]  G04  7 33     59.3 2045999.9  0.6  1.0  5  0         2
$GNGGA,000000.000,,,,,0,00,,,M,,,,0000*2B
$GNRMC,000000.000,A,,,,,,,000000,,*26
$GPGSA,A,1,,,,,,,,,,,,,,,*1E
$BDGSA,A,1,,,,,,,,,,,,,,,*0F
$GPGSV,1,1,01,04,00,000,33*4C
$LOGTIM,0,0.000000,0.000000,0.000000,0.000000,0.000*0A
EndT:        0
ch1 satid=6,max_freq = 3000,max_mean = 22802,max_phase = 1638,max_value = 154065,acq ok1!
acq ok1 timeH = 0,timeL = 114714172,freq_stage = 2
---00000007--- Acq_st=3 2019-5-25 03:18:41 
[00]  G04  7 39     57.1 2045999.9  1.0  1.0  5  0         7
[01]  G07  1  7  -2998.2 2046004.4  0.0  0.0  1  0         0
$GNGGA,000000.000,,,,,0,00,,,M,,,,0000*2B
$GNRMC,000000.000,A,,,,,,,000000,,*26
$GPGSA,A,1,,,,,,,,,,,,,,,*1E
$BDGSA,A,1,,,,,,,,,,,,,,,*0F
$GPGSV,1,1,01,04,00,000,39*46
$LOGTIM,0,0.000000,0.000000,0.000000,0.000000,0.000*0A
EndT:        0
ch2 satid=7,max_freq = 250,max_mean = 22738,max_phase = 522,max_value = 178651,acq ok1!
acq ok1 timeH = 0,timeL = 136887410,freq_stage = 3
---00000008--- Acq_st=3 2019-5-25 03:18:42 
[00]  G04  7 40     64.1 2045999.9  1.0  1.0  5  0         7
[01]  G07  1 24  -3069.0 2046005.0 -0.1  0.0  1  0        15
[02]  G08  1  7   -248.3 2046001.2  0.0  0.0  1  0         0
$GNGGA,000000.000,,,,,0,00,,,M,,,,0000*2B
$GNRMC,000000.000,A,,,,,,,000000,,*26
$GPGSA,A,1,,,,,,,,,,,,,,,*1E
$BDGSA,A,1,,,,,,,,,,,,,,,*0F
$GPGSV,1,1,01,04,00,000,40*48
$LOGTIM,0,0.000000,0.000000,0.000000,0.000000,0.000*0A
EndT:        0
ch3 satid=8,max_freq = -1000,max_mean = 23049,max_phase = 1884,max_value = 258257,acq ok1!
acq ok1 timeH = 0,timeL = 159060648,freq_stage = 4
---00000009--- Acq_st=3 2019-5-25 03:18:43 
[00]  G04  f 39     66.5 2045999.9  1.0  1.0  5  0         7
[01]  G07  7 34  -3065.5 2046004.0  0.4  0.9  5  0        15
[02]  G08  1 23   -308.1 2046002.4 -0.0  0.0  1  0        11
[03]  G09  1  7   1081.7 2045999.2 -0.1  0.0  1  0         0
$GNGGA,000000.000,,,,,0,00,,,M,,,,0000*2B
$GNRMC,000000.000,A,,,,,,,000000,,*26
$GPGSA,A,1,,,,,,,,,,,,,,,*1E
$BDGSA,A,1,,,,,,,,,,,,,,,*0F
$GPGSV,1,1,02,04,00,000,39,07,00,000,34*75
$LOGTIM,0,0.000000,0.000000,0.000000,0.000000,0.000*0A
EndT:        0
---00000010--- Acq_st=3 2019-5-25 03:18:44 
[00]  G04  f 39     66.7 2045999.9  1.0  1.0  5  0 530341287
[01]  G07  7 36  -3065.7 2046004.0  1.0  1.0  5  0        11
[02]  G08  7 36   -308.1 2046000.4  0.7  1.0  5  0        11
[03]  G09  7  7   1119.5 2045998.5  0.2  0.0  5  0         9
$GNGGA,000000.000,,,,,0,00,,,M,,,,0000*2B
$GNRMC,000000.000,A,,,,,,,000000,,*26
$GPGSA,A,1,,,,,,,,,,,,,,,*1E
$BDGSA,A,1,,,,,,,,,,,,,,,*0F
$GPGSV,1,1,03,04,00,000,39,07,00,000,36,08,00,000,36*4B
$LOGTIM,0,0.000000,0.000000,0.000000,0.000000,0.000*0A
EndT:        0
---00000011--- Acq_st=3 2019-5-25 03:18:45 
[00]  G04  f 39     69.5 2045999.9  1.0  1.0  5  0 530342287
[01]  G07  7 37  -3063.4 2046004.0  1.0  1.0  5  0        11
[02]  G08  7 36   -305.7 2046000.4  1.0  1.0  5  0        16
[03]  G09  7 39   1122.8 2045998.5  0.5  1.0  5  0         8
$GNGGA,000000.000,,,,,0,00,,,M,,,,0000*2B
$GNRMC,000000.000,A,,,,,,,000000,,*26
$GPGSA,A,1,,,,,,,,,,,,,,,*1E
$BDGSA,A,1,,,,,,,,,,,,,,,*0F
$GPGSV,1,1,04,04,00,000,39,07,00,000,37,08,00,000,36,09,00,000,39*7E
$LOGTIM,0,0.000000,0.000000,0.000000,0.000000,0.000*0A
EndT:        0
---00000012--- Acq_st=3 2019-5-25 03:18:46 
[00]  G04  f 39     69.5 2045999.9  1.0  1.0  5  0 530343287
[01]  G07  7 37  -3063.2 2046003.9  1.0  1.0  5  0        11
[02]  G08  7 37   -305.3 2046000.4  1.0  1.0  5  0        16
[03]  G09  7 38   1122.8 2045998.5  1.0  1.0  5  0         8
$GNGGA,000000.000,,,,,0,00,,,M,,,,0000*2B
$GNRMC,000000.000,A,,,,,,,000000,,*26
$GPGSA,A,1,,,,,,,,,,,,,,,*1E
$BDGSA,A,1,,,,,,,,,,,,,,,*0F
$GPGSV,1,1,04,04,00,000,39,07,00,000,37,08,00,000,37,09,00,000,38*7E
$LOGTIM,0,0.000000,0.000000,0.000000,0.000000,0.000*0A
EndT:        0
---00000013--- Acq_st=3 2019-5-25 03:18:47 
[00]  G04  f 39     67.4 2045999.9  1.0  1.0  5  0 530344287
[01]  G07  7 36  -3065.6 2046004.1  1.0  1.0  5  0        11
[02]  G08  7 36   -307.0 2046000.5  1.0  1.0  5  0        16
[03]  G09  7 38   1120.5 2045998.5  1.0  1.0  5  0         8
$GNGGA,000000.000,,,,,0,00,,,M,,,,0000*2B
$GNRMC,000000.000,A,,,,,,,000000,,*26
$GPGSA,A,1,,,,,,,,,,,,,,,*1E
$BDGSA,A,1,,,,,,,,,,,,,,,*0F
$GPGSV,1,1,04,04,00,000,39,07,00,000,36,08,00,000,36,09,00,000,38*7E
$LOGTIM,0,0.000000,0.000000,0.000000,0.000000,0.000*0A
EndT:        0
---00000014--- Acq_st=3 2019-5-25 03:18:48 
[00]  G04  f 39     62.4 2045999.9  1.0  1.0  5  0 530345287
[01]  G07  7 36  -3071.3 2046004.1  1.0  1.0  5  0        11
[02]  G08  7 36   -312.6 2046000.4  1.0  1.0  5  0        16
[03]  G09  7 37   1115.5 2045998.6  1.0  1.0  5  0         8
$GNGGA,000000.000,,,,,0,00,,,M,,,,0000*2B
$GNRMC,000000.000,A,,,,,,,000000,,*26
$GPGSA,A,1,,,,,,,,,,,,,,,*1E
$BDGSA,A,1,,,,,,,,,,,,,,,*0F
$GPGSV,1,1,04,04,00,000,39,07,00,000,36,08,00,000,36,09,00,000,37*71
$LOGTIM,0,0.000000,0.000000,0.000000,0.000000,0.000*0A
EndT:        0
---00000015--- Acq_st=3 2019-5-25 03:18:49 
[00]  G04  f 39     66.1 2045999.9  1.0  0.9  5  0 530346287
[01]  G07  f 36  -3067.8 2046004.0  1.0  1.0  5  0        11
[02]  G08  f 35   -309.6 2046000.5  1.0  0.9  5  0        16
[03]  G09  f 37   1118.7 2045998.5  1.0  1.0  5  0         8
$GNGGA,000000.000,,,,,0,00,,,M,,,,0000*2B
$GNRMC,000000.000,A,,,,,,,000000,,*26
$GPGSA,A,1,,,,,,,,,,,,,,,*1E
$BDGSA,A,1,,,,,,,,,,,,,,,*0F
$GPGSV,1,1,04,04,00,000,39,07,00,000,36,08,00,000,35,09,00,000,37*72
$LOGTIM,0,0.000000,0.000000,0.000000,0.000000,0.000*0A
EndT:        0
ch4 satid=15,max_freq = -1500,max_mean = 22789,max_phase = 476,max_value = 800256,acq ok1!
acq ok1 timeH = 0,timeL = 288426890,freq_stage = 4
---00000016--- Acq_st=3 2019-5-25 03:18:50 
[00]  G04  f 39     68.0 2045999.9  1.0  1.0  5  0 530347287
[01]  G07  f 37  -3065.5 2046003.9  1.0  1.0  5  0 530347291
[02]  G08  f 36   -307.1 2046000.4  1.0  0.9  5  0 530347296
[03]  G09  f 38   1120.3 2045998.6  1.0  1.0  5  0 530347288
[04]  G16  1 22   1435.7 2045998.5  0.1  0.0  1  0         0
$GNGGA,000000.000,,,,,0,00,,,M,,,,0000*2B
$GNRMC,000000.000,A,,,,,,,000000,,*26
$GPGSA,A,1,,,,,,,,,,,,,,,*1E
$BDGSA,A,1,,,,,,,,,,,,,,,*0F
$GPGSV,1,1,04,04,00,000,39,07,00,000,37,08,00,000,36,09,00,000,38*7F
$LOGTIM,0,0.000000,0.000000,0.000000,0.000000,0.000*0A
EndT:        0
---00000017--- Acq_st=3 2019-5-25 03:18:51 
[00]  G04  f 39     67.3 2045999.9  1.0  1.0  5  0 530348287
[01]  G07  f 36  -3067.3 2046004.0  1.0  1.0  5  0 530348291
[02]  G08  f 37   -307.9 2046000.4  1.0  0.9  5  0 530348296
[03]  G09  f 38   1119.4 2045998.5  1.0  1.0  5  0 530348288
[04]  G16  7 24   1427.7 2045998.1  0.4  0.0 20  0        12
$GNGGA,000000.000,,,,,0,00,,,M,,,,0000*2B
$GNRMC,000000.000,A,,,,,,,000000,,*26
$GPGSA,A,1,,,,,,,,,,,,,,,*1E
$BDGSA,A,1,,,,,,,,,,,,,,,*0F
$GPGSV,2,1,05,04,00,000,39,07,00,000,36,08,00,000,37,09,00,000,38*7D
$GPGSV,2,2,05,16,00,000,24*4D
$LOGTIM,0,0.000000,0.000000,0.000000,0.000000,0.000*0A
EndT:        0
---00000018--- Acq_st=3 2019-5-25 03:18:52 
[00]  G04  f 38     68.3 2045999.9  1.0  1.0  5  0 530349287
[01]  G07  f 36  -3066.5 2046004.0  1.0  1.0  5  0 530349291
[02]  G08  f 35   -307.6 2046000.3  1.0  1.0  5  0 530349296
[03]  G09  f 38   1120.3 2045998.6  1.0  1.0  5  0 530349288
[04]  G16  7 44   1428.0 2045998.1  0.9  1.0  5  0        10
$GNGGA,000000.000,,,,,0,00,,,M,,,,0000*2B
$GNRMC,000000.000,A,,,,,,,000000,,*26
$GPGSA,A,1,,,,,,,,,,,,,,,*1E
$BDGSA,A,1,,,,,,,,,,,,,,,*0F
$GPGSV,2,1,05,04,00,000,38,07,00,000,36,08,00,000,35,09,00,000,38*7E
$GPGSV,2,2,05,16,00,000,44*4B
$LOGTIM,0,0.000000,0.000000,0.000000,0.000000,0.000*0A
EndT:        0
---00000019--- Acq_st=3 2019-5-25 03:18:53 
[00]  G04  f 38     70.6 2045999.8  1.0  1.0  5  0 530350287
[01]  G07  f 36  -3064.0 2046004.1  1.0  1.0  5  0 530350291
[02]  G08  f 37   -304.8 2046000.4  1.0  0.9  5  0 530350296
[03]  G09  f 37   1121.9 2045998.6  1.0  1.0  5  0 530350288
[04]  G16  7 44   1429.8 2045998.1  1.0  1.0  5  0        10
$GNGGA,000000.000,,,,,0,00,,,M,,,,0000*2B
$GNRMC,000000.000,A,,,,,,,000000,,*26
$GPGSA,A,1,,,,,,,,,,,,,,,*1E
$BDGSA,A,1,,,,,,,,,,,,,,,*0F
$GPGSV,2,1,05,04,00,000,38,07,00,000,36,08,00,000,37,09,00,000,37*73
$GPGSV,2,2,05,16,00,000,44*4B
$LOGTIM,0,0.000000,0.000000,0.000000,0.000000,0.000*0A
EndT:        0
---00000020--- Acq_st=3 2019-5-25 03:18:54 
[00]  G04  f 38     69.9 2046000.0  1.0  1.0  5  0 530351287
[01]  G07  f 35  -3064.9 2046004.0  1.0  1.0  5  0 530351291
[02]  G08  f 37   -306.6 2046000.4  1.0  1.0  5  0 530351296
[03]  G09  f 36   1121.3 2045998.6  1.0  1.0  5  0 530351288
[04]  G16  7 44   1428.4 2045998.1  1.0  1.0  5  0        10
$GNGGA,000000.000,,,,,0,00,,,M,,,,0000*2B
$GNRMC,000000.000,A,,,,,,,000000,,*26
$GPGSA,A,1,,,,,,,,,,,,,,,*1E
$BDGSA,A,1,,,,,,,,,,,,,,,*0F
$GPGSV,2,1,05,04,00,000,38,07,00,000,35,08,00,000,37,09,00,000,36*71
$GPGSV,2,2,05,16,00,000,44*4B
$LOGTIM,0,0.000000,0.000000,0.000000,0.000000,0.000*0A
EndT:        0
---00000021--- Acq_st=3 2019-5-25 03:18:55 
[00]  G04  f 38     69.8 2045999.9  1.0  1.0  5  0 530352287
[01]  G07  f 35  -3066.4 2046003.9  1.0  1.0  5  0 530352291
[02]  G08  f 37   -306.7 2046000.4  1.0  1.0  5  0 530352296
[03]  G09  f 36   1121.4 2045998.6  1.0  1.0  5  0 530352288
[04]  G16  f 45   1427.8 2045998.1  1.0  1.0  5  0        10
$GNGGA,000000.000,,,,,0,00,,,M,,,,0000*2B
$GNRMC,000000.000,A,,,,,,,000000,,*26
$GPGSA,A,1,,,,,,,,,,,,,,,*1E
$BDGSA,A,1,,,,,,,,,,,,,,,*0F
$GPGSV,2,1,05,04,00,000,38,07,00,000,35,08,00,000,37,09,00,000,36*71
$GPGSV,2,2,05,16,00,000,45*4A
$LOGTIM,0,0.000000,0.000000,0.000000,0.000000,0.000*0A
EndT:        0
---00000022--- Acq_st=3 2019-5-25 03:18:56 
[00]  G04  f 38     68.4 2045999.8  1.0  1.0  5  0 530353287
[01]  G07  f 34  -3066.7 2046004.1  1.0  0.9  5  0 530353291
[02]  G08  f 36   -308.1 2046000.4  1.0  1.0  5  0 530353296
[03]  G09  f 36   1119.9 2045998.5  1.0  1.0  5  0 530353288
[04]  G16  f 45   1426.5 2045998.1  1.0  1.0  5  0 530353290
$GNGGA,000000.000,,,,,0,00,,,M,,,,0000*2B
$GNRMC,000000.000,A,,,,,,,000000,,*26
$GPGSA,A,1,,,,,,,,,,,,,,,*1E
$BDGSA,A,1,,,,,,,,,,,,,,,*0F
$GPGSV,2,1,05,04,00,000,38,07,00,000,34,08,00,000,36,09,00,000,36*71
$GPGSV,2,2,05,16,00,000,45*4A
$LOGTIM,0,0.000000,0.000000,0.000000,0.000000,0.000*0A
EndT:        0
---00000023--- Acq_st=3 2019-5-25 03:18:57 
[00]  G04  f 38     69.6 2045999.9  1.0  1.0  5  0 530354287
[01]  G07  f 34  -3065.1 2046004.0  1.0  1.0  5  0 530354291
[02]  G08  f 37   -305.6 2046000.4  1.0  0.9  5  0 530354296
[03]  G09  f 36   1121.9 2045998.5  1.0  1.0  5  0 530354288
[04]  G16  f 44   1427.7 2045998.1  1.0  1.0  5  0 530354290
$GNGGA,000000.000,,,,,0,00,,,M,,,,0000*2B
$GNRMC,000000.000,A,,,,,,,000000,,*26
$GPGSA,A,1,,,,,,,,,,,,,,,*1E
$BDGSA,A,1,,,,,,,,,,,,,,,*0F
$GPGSV,2,1,05,04,00,000,38,07,00,000,34,08,00,000,37,09,00,000,36*70
$GPGSV,2,2,05,16,00,000,44*4B
$LOGTIM,0,0.000000,0.000000,0.000000,0.000000,0.000*0A
EndT:        0
---00000024--- Acq_st=3 2019-5-25 03:18:58 
[00]  G04  f 38     66.3 2045999.9  1.0  1.0  5  0 530355287
[01]  G07  f 34  -3069.5 2046004.0  1.0  1.0  5  0 530355291
[02]  G08  f 37   -309.4 2046000.4  1.0  0.9  5  0 530355296
[03]  G09  f 36   1118.3 2045998.6  1.0  1.0  5  0 530355288
[04]  G16  f 45   1423.5 2045998.2  1.0  1.0  5  0 530355290
$GNGGA,000000.000,,,,,0,00,,,M,,,,0000*2B
$GNRMC,000000.000,A,,,,,,,000000,,*26
$GPGSA,A,1,,,,,,,,,,,,,,,*1E
$BDGSA,A,1,,,,,,,,,,,,,,,*0F
$GPGSV,2,1,05,04,00,000,38,07,00,000,34,08,00,000,37,09,00,000,36*70
$GPGSV,2,2,05,16,00,000,45*4A
$LOGTIM,0,0.000000,0.000000,0.000000,0.000000,0.000*0A
EndT:        0
---00000025--- Acq_st=3 2019-5-25 03:18:59 
[00]  G04  f 39     66.2 2045999.9  1.0  1.1  5  0 530356287
[01]  G07  f 34  -3070.1 2046004.0  1.0  1.0  5  0 530356291
[02]  G08  f 36   -309.6 2046000.4  1.0  1.0  5  0 530356296
[03]  G09  f 36   1117.1 2045998.6  1.0  1.0  5  0 530356288
[04]  G16  f 44   1422.9 2045998.2  1.0  1.0  5  0 530356290
$GNGGA,000000.000,,,,,0,00,,,M,,,,0000*2B
$GNRMC,000000.000,A,,,,,,,000000,,*26
$GPGSA,A,1,,,,,,,,,,,,,,,*1E
$BDGSA,A,1,,,,,,,,,,,,,,,*0F
$GPGSV,2,1,05,04,00,000,39,07,00,000,34,08,00,000,36,09,00,000,36*70
$GPGSV,2,2,05,16,00,000,44*4B
$LOGTIM,0,0.000000,0.000000,0.000000,0.000000,0.000*0A
EndT:        0
---00000026--- Acq_st=3 2019-5-25 03:19:0 
[00]  G04  f 39     69.5 2045999.9  1.0  1.0  5 3f 530357287
[01]  G07  f 33  -3066.6 2046004.0  1.0  1.0  5  0 530357291
[02]  G08  f 36   -306.5 2046000.4  1.0  1.0  5  0 530357296
[03]  G09  f 35   1120.8 2045998.6  1.0  1.0  5  0 530357288
[04]  G16  f 44   1425.9 2045998.1  1.0  1.0  5  0 530357290
ch5 satid=26,max_freq = -1750,max_mean = 21853,max_phase = 1460,max_value = 548543,acq ok1!
acq ok1 timeH = 0,timeL = 491716689,freq_stage = 4
$GNGGA,000000.000,,,,,0,00,,,M,,,,0000*2B
$GNRMC,000000.000,A,,,,,,,000000,,*26
$GPGSA,A,1,,,,,,,,,,,,,,,*1E
$BDGSA,A,1,,,,,,,,,,,,,,,*0F
$GPGSV,2,1,05,04,00,000,39,07,00,000,33,08,00,000,36,09,00,000,35*74
$GPGSV,2,2,05,16,00,000,44*4B
$LOGTIM,0,0.000000,0.000000,0.000000,0.000000,0.000*0A
EndT:        0
---00000027--- Acq_st=3 2019-5-25 03:19:1 
[00]  G04  f 39     73.5 2045999.9  1.0  1.0  5 3f 530358287
[01]  G07  f 33  -3063.0 2046004.0  1.0  0.9  5  0 530358291
[02]  G08  f 35   -302.7 2046000.4  1.0  1.0  5  0 530358296
[03]  G09  f 36   1124.8 2045998.6  1.0  1.0  5  0 530358288
[04]  G16  f 45   1429.3 2045998.1  1.0  1.0  5  0 530358290
[05]  G27  1 25   1805.8 2045997.9  0.0  0.0  1  0         3
$GNGGA,000000.000,,,,,0,00,,,M,,,,0000*2B
$GNRMC,000000.000,A,,,,,,,000000,,*26
$GPGSA,A,1,,,,,,,,,,,,,,,*1E
$BDGSA,A,1,,,,,,,,,,,,,,,*0F
$GPGSV,2,1,05,04,00,000,39,07,00,000,33,08,00,000,35,09,00,000,36*74
$GPGSV,2,2,05,16,00,000,45*4A
$LOGTIM,0,0.000000,0.000000,0.000000,0.000000,0.000*0A
EndT:        0
---00000028--- Acq_st=3 2019-5-25 03:19:2 
[00]  G04  f 38     76.9 2045999.9  1.0  1.0  5 3f 530359287
[01]  G07  f 33  -3059.9 2046003.9  1.0  0.9  5  0 530359291
[02]  G08  f 35   -299.2 2046000.4  1.0  0.9  5  0 530359296
[03]  G09  f 36   1127.8 2045998.5  1.0  1.0  5  0 530359288
[04]  G16  f 45   1432.3 2045998.1  1.0  1.0  5  0 530359290
[05]  G27  7 31   1804.8 2045997.6  0.3  1.0  5  0         3
$GNGGA,000000.000,,,,,0,00,,,M,,,,0000*2B
$GNRMC,000000.000,A,,,,,,,000000,,*26
$GPGSA,A,1,,,,,,,,,,,,,,,*1E
$BDGSA,A,1,,,,,,,,,,,,,,,*0F
$GPGSV,2,1,06,04,00,000,38,07,00,000,33,08,00,000,35,09,00,000,36*76
$GPGSV,2,2,06,16,00,000,45,27,00,000,31*7E
$LOGTIM,0,0.000000,0.000000,0.000000,0.000000,0.000*0A
EndT:        0
ch6 satid=29,max_freq = 3750,max_mean = 21203,max_phase = 383,max_value = 162874,acq ok1!
acq ok1 timeH = 0,timeL = 536081830,freq_stage = 1
---00000029--- Acq_st=3 2019-5-25 03:19:3 
[00]  G04  f 39     75.7 2045999.9  1.0  1.0  5 3f 530360287
[01]  G07  f 33  -3061.4 2046004.0  1.0  0.9  5  0 530360291
[02]  G08  f 36   -301.7 2046000.4  1.0  1.0  5  0 530360296
[03]  G09  f 35   1126.9 2045998.5  1.0  0.9  5  0 530360288
[04]  G16  f 45   1430.3 2045998.1  1.0  1.0  5  0 530360290
[05]  G27  7 42   1802.3 2045997.7  1.0  1.0  5  0        14
[06]  G30  1  7  -3165.6 2046004.4  0.0  0.0  1  0         0
$GNGGA,000000.000,,,,,0,00,,,M,,,,0000*2B
$GNRMC,000000.000,A,,,,,,,000000,,*26
$GPGSA,A,1,,,,,,,,,,,,,,,*1E
$BDGSA,A,1,,,,,,,,,,,,,,,*0F
$GPGSV,2,1,06,04,00,000,39,07,00,000,33,08,00,000,36,09,00,000,35*77
$GPGSV,2,2,06,16,00,000,45,27,00,000,42*7A
$LOGTIM,0,0.000000,0.000000,0.000000,0.000000,0.000*0A
EndT:        0
---00000030--- Acq_st=3 2019-5-25 03:19:4 
[00]  G04  f 39     76.9 2045999.8  1.0  1.0  5 3f 530361287
[01]  G07  f 31  -3061.3 2046003.9  1.0  0.9  5  0 530361291
[02]  G08  f 36   -300.1 2046000.4  1.0  1.0  5  0 530361296
[03]  G09  f 36   1127.2 2045998.5  1.0  0.9  5  0 530361288
[04]  G16  f 45   1431.5 2045998.2  1.0  1.0  5  0 530361290
[05]  G27  7 42   1803.9 2045997.7  1.0  1.0  5  0        14
[06]  G30  1 18  -3763.4 2046006.2 -0.0  0.0  1  0        16
$GNGGA,000000.000,,,,,0,00,,,M,,,,0000*2B
$GNRMC,000000.000,A,,,,,,,000000,,*26
$GPGSA,A,1,,,,,,,,,,,,,,,*1E
$BDGSA,A,1,,,,,,,,,,,,,,,*0F
$GPGSV,2,1,06,04,00,000,39,07,00,000,31,08,00,000,36,09,00,000,36*76
$GPGSV,2,2,06,16,00,000,45,27,00,000,42*7A
$LOGTIM,0,0.000000,0.000000,0.000000,0.000000,0.000*0A
EndT:        0
---00000031--- Acq_st=3 2019-5-25 03:19:5 
[00]  G04  f 39     73.7 2045999.9  1.0  1.0  5 3f 530362287
[01]  G07  f 32  -3063.2 2046004.0  1.0  1.0  5  0 530362291
[02]  G08  f 35   -302.7 2046000.4  1.0  1.0  5  0 530362296
[03]  G09  f 37   1124.1 2045998.5  1.0  1.0  5  0 530362288
[04]  G16  f 45   1427.9 2045998.1  1.0  1.0  5  0 530362290
[05]  G27  7 41   1800.8 2045997.7  1.0  1.0  5  0        14
[06]  G30  1 26  -3785.8 2046005.9  0.3  0.0  1  0        16
$GNGGA,000000.000,,,,,0,00,,,M,,,,0000*2B
$GNRMC,000000.000,A,,,,,,,000000,,*26
$GPGSA,A,1,,,,,,,,,,,,,,,*1E
$BDGSA,A,1,,,,,,,,,,,,,,,*0F
$GPGSV,2,1,06,04,00,000,39,07,00,000,32,08,00,000,35,09,00,000,37*77
$GPGSV,2,2,06,16,00,000,45,27,00,000,41*79
$LOGTIM,0,0.000000,0.000000,0.000000,0.000000,0.000*0A
EndT:        0
---00000032--- Acq_st=3 2019-5-25 03:19:6 
[00]  G04  f 39     72.0 2045999.9  1.0  1.0  5 3f 530363287
[01]  G07  f 31  -3065.7 2046004.0  1.0  1.0  5  0 530363291
[02]  G08  f 35   -305.4 2046000.4  1.0  0.9  5  0 530363296
[03]  G09  f 36   1121.5 2045998.7  1.0  1.0  5  0 530363288
[04]  G16  f 45   1425.0 2045998.1  1.0  1.0  5  0 530363290
[05]  G27  7 41   1798.2 2045997.7  1.0  1.0  5  0        14
[06]  G30  7 32  -3788.9 2046004.8  0.3  1.0  5  0        16
$GNGGA,000000.000,,,,,0,00,,,M,,,,0000*2B
$GNRMC,000000.000,A,,,,,,,000000,,*26
$GPGSA,A,1,,,,,,,,,,,,,,,*1E
$BDGSA,A,1,,,,,,,,,,,,,,,*0F
$GPGSV,2,1,07,04,00,000,39,07,00,000,31,08,00,000,35,09,00,000,36*74
$GPGSV,2,2,07,16,00,000,45,27,00,000,41,30,00,000,32*4A
$LOGTIM,0,0.000000,0.000000,0.000000,0.000000,0.000*0A
EndT:        0
---00000033--- Acq_st=3 2019-5-25 03:19:7 
[00]  G04  f 38     73.4 2045999.9  1.0  1.0  5 3f 530364287
[01]  G07  f 31  -3064.8 2046003.9  1.0  0.8  5  0 530364291
[02]  G08  f 35   -304.1 2046000.4  1.0  1.0  5  0 530364296
[03]  G09  f 37   1123.5 2045998.5  1.0  0.9  5  0 530364288
[04]  G16  f 45   1426.3 2045998.1  1.0  1.0  5  0 530364290
[05]  G27  f 41   1799.6 2045997.6  1.0  1.0  5  0        14
[06]  G30  f 38  -3787.0 2046004.8  1.0  1.0  5  0         2
$GNGGA,000000.000,,,,,0,00,,,M,,,,0000*2B
$GNRMC,000000.000,A,,,,,,,000000,,*26
$GPGSA,A,1,,,,,,,,,,,,,,,*1E
$BDGSA,A,1,,,,,,,,,,,,,,,*0F
$GPGSV,2,1,07,04,00,000,38,07,00,000,31,08,00,000,35,09,00,000,37*74
$GPGSV,2,2,07,16,00,000,45,27,00,000,41,30,00,000,38*40
$LOGTIM,0,0.000000,0.000000,0.000000,0.000000,0.000*0A
EndT:        0
---00000034--- Acq_st=3 2019-5-25 03:19:8 
[00]  G04  f 39     73.3 2045999.9  1.0  1.0  5 3f 530365287
[01]  G07  f 31  -3064.5 2046004.0  1.0  1.0  5  0 530365291
[02]  G08  f 36   -303.8 2046000.5  1.0  0.9  5  0 530365296
[03]  G09  f 36   1123.7 2045998.6  1.0  1.0  5  0 530365288
[04]  G16  f 44   1426.4 2045998.2  1.0  1.0  5  0 530365289
[05]  G27  f 41   1799.5 2045997.7  1.0  1.0  5  0 530365294
[06]  G30  f 38  -3787.4 2046004.9  1.0  1.0  5  0 530365282
$GNGGA,000000.000,,,,,0,00,,,M,,,,0000*2B
$GNRMC,000000.000,A,,,,,,,000000,,*26
$GPGSA,A,1,,,,,,,,,,,,,,,*1E
$BDGSA,A,1,,,,,,,,,,,,,,,*0F
$GPGSV,2,1,07,04,00,000,39,07,00,000,31,08,00,000,36,09,00,000,36*77
$GPGSV,2,2,07,16,00,000,44,27,00,000,41,30,00,000,38*41
$LOGTIM,0,0.000000,0.000000,0.000000,0.000000,0.000*0A
EndT:        0
---00000035--- Acq_st=3 2019-5-25 03:19:9 
[00]  G04  f 38     74.5 2045999.9  1.0  1.0  5 3f 530366287
[01]  G07  f 29  -3063.6 2046004.0  1.0  0.9  5  0 530366291
[02]  G08  f 35   -302.4 2046000.3  1.0  1.0  5  0 530366296
[03]  G09  f 36   1124.1 2045998.5  1.0  1.0  5  0 530366288
[04]  G16  f 45   1426.5 2045998.2  1.0  1.0  5  0 530366289
[05]  G27  f 41   1799.9 2045997.7  1.0  1.0  5  0 530366294
[06]  G30  f 39  -3787.2 2046004.8  1.0  1.0  5  0 530366282
$GNGGA,000000.000,,,,,0,00,,,M,,,,0000*2B
$GNRMC,000000.000,A,,,,,,,000000,,*26
$GPGSA,A,1,,,,,,,,,,,,,,,*1E
$BDGSA,A,1,,,,,,,,,,,,,,,*0F
$GPGSV,2,1,07,04,00,000,38,07,00,000,29,08,00,000,35,09,00,000,36*7C
$GPGSV,2,2,07,16,00,000,45,27,00,000,41,30,00,000,39*41
$LOGTIM,0,0.000000,0.000000,0.000000,0.000000,0.000*0A
EndT:        0
---00000036--- Acq_st=3 2019-5-25 03:19:10 
[00]  G04  f 39     73.6 2045999.9  1.0  1.0  5 3f 530367287
[01]  G07  f 28  -3065.8 2046004.1  0.9  0.9  5  0 530367291
[02]  G08  f 36   -303.0 2046000.4  1.0  1.0  5  0 530367296
[03]  G09  f 36   1123.7 2045998.6  1.0  1.0  5  0 530367288
[04]  G16  f 45   1425.4 2045998.2  1.0  1.0  5  0 530367289
[05]  G27  f 41   1799.0 2045997.7  1.0  1.0  5  0 530367294
[06]  G30  f 38  -3788.2 2046005.0  1.0  1.0  5  0 530367282
$GNGGA,000000.000,,,,,0,00,,,M,,,,0000*2B
$GNRMC,000000.000,A,,,,,,,000000,,*26
$GPGSA,A,1,,,,,,,,,,,,,,,*1E
$BDGSA,A,1,,,,,,,,,,,,,,,*0F
$GPGSV,2,1,07,04,00,000,39,07,00,000,28,08,00,000,36,09,00,000,36*7F
$GPGSV,2,2,07,16,00,000,45,27,00,000,41,30,00,000,38*40
$LOGTIM,0,0.000000,0.000000,0.000000,0.000000,0.000*0A
EndT:        0
---00000037--- Acq_st=3 2019-5-25 03:19:11 
[00]  G04  f 39     75.5 2045999.9  1.0  1.0  5 3f 530368287
[01]  G07  f 29  -3062.7 2046003.9  0.9  0.8  5  0 530368291
[02]  G08  f 37   -302.4 2046000.4  1.0  1.0  5  0 530368296
[03]  G09  f 37   1125.0 2045998.6  1.0  1.0  5  0 530368288
[04]  G16  f 44   1426.2 2045998.2  1.0  1.0  5  0 530368289
[05]  G27  f 41   1800.0 2045997.6  1.0  1.0  5  0 530368294
[06]  G30  f 38  -3787.6 2046004.9  1.0  1.0  5  0 530368282
$GNGGA,000000.000,,,,,0,00,,,M,,,,0000*2B
$GNRMC,000000.000,A,,,,,,,000000,,*26
$GPGSA,A,1,,,,,,,,,,,,,,,*1E
$BDGSA,A,1,,,,,,,,,,,,,,,*0F
$GPGSV,2,1,07,04,00,000,39,07,00,000,29,08,00,000,37,09,00,000,37*7E
$GPGSV,2,2,07,16,00,000,44,27,00,000,41,30,00,000,38*41
$LOGTIM,0,0.000000,0.000000,0.000000,0.000000,0.000*0A
EndT:        0
---00000038--- Acq_st=3 2019-5-25 03:19:12 
[00]  G04  f 38     83.0 2045999.9  1.0  1.0  5 3f 530369287
[01]  G07  f 30  -3056.9 2046003.9  1.0  0.9  5  0 530369291
[02]  G08  f 36   -294.5 2046000.4  1.0  0.9  5  0 530369296
[03]  G09  f 36   1132.8 2045998.5  1.0  1.0  5  0 530369288
[04]  G16  f 44   1433.4 2045998.1  1.0  1.0  5  0 530369289
[05]  G27  f 41   1808.1 2045997.6  1.0  1.0  5  0 530369294
[06]  G30  f 38  -3780.6 2046004.9  1.0  1.0  5  0 530369282
$GNGGA,000000.000,,,,,0,00,,,M,,,,0000*2B
$GNRMC,000000.000,A,,,,,,,000000,,*26
$GPGSA,A,1,,,,,,,,,,,,,,,*1E
$BDGSA,A,1,,,,,,,,,,,,,,,*0F
$GPGSV,2,1,07,04,00,000,38,07,00,000,30,08,00,000,36,09,00,000,36*77
$GPGSV,2,2,07,16,00,000,44,27,00,000,41,30,00,000,38*41
$LOGTIM,0,0.000000,0.000000,0.000000,0.000000,0.000*0A
EndT:        0
---00000039--- Acq_st=3 2019-5-25 03:19:13 
[00]  G04  f 38     83.2 2045999.9  1.0  1.0  5 3f 530370287
[01]  G07  f 31  -3055.8 2046003.8  0.9  0.9  5  0 530370291
[02]  G08  f 36   -294.8 2046000.4  1.0  1.0  5  0 530370296
[03]  G09  f 37   1132.9 2045998.5  1.0  1.0  5  0 530370288
[04]  G16  f 44   1433.2 2045998.2  1.0  1.0  5  0 530370289
[05]  G27  f 42   1807.7 2045997.6  1.0  1.0  5  0 530370294
[06]  G30  f 38  -3780.4 2046004.9  1.0  1.0  5  0 530370282
$GNGGA,000000.000,,,,,0,00,,,M,,,,0000*2B
$GNRMC,000000.000,A,,,,,,,000000,,*26
$GPGSA,A,1,,,,,,,,,,,,,,,*1E
$BDGSA,A,1,,,,,,,,,,,,,,,*0F
$GPGSV,2,1,07,04,00,000,38,07,00,000,31,08,00,000,36,09,00,000,37*77
$GPGSV,2,2,07,16,00,000,44,27,00,000,42,30,00,000,38*42
$LOGTIM,0,0.000000,0.000000,0.000000,0.000000,0.000*0A
EndT:        0
---00000040--- Acq_st=3 2019-5-25 03:19:14 
[00]  G04  f 38     82.1 2045999.9  1.0  1.0  5 3f 530371287
[01]  G07  f 30  -3057.2 2046004.1  1.0  1.0  5  0 530371291
[02]  G08  f 36   -295.9 2046000.4  1.0  1.0  5  0 530371296
[03]  G09  f 36   1131.6 2045998.6  1.0  0.9  5  0 530371288
[04]  G16  f 44   1431.8 2045998.2  1.0  1.0  5  0 530371289
[05]  G27  f 42   1806.4 2045997.6  1.0  1.0  5  0 530371294
[06]  G30  f 38  -3782.3 2046004.9  1.0  0.9  5  0 530371282
$GNGGA,000000.000,,,,,0,00,,,M,,,,0000*2B
$GNRMC,000000.000,A,,,,,,,000000,,*26
$GPGSA,A,1,,,,,,,,,,,,,,,*1E
$BDGSA,A,1,,,,,,,,,,,,,,,*0F
$GPGSV,2,1,07,04,00,000,38,07,00,000,30,08,00,000,36,09,00,000,36*77
$GPGSV,2,2,07,16,00,000,44,27,00,000,42,30,00,000,38*42
$LOGTIM,0,0.000000,0.000000,0.000000,0.000000,0.000*0A
EndT:        0
---00000041--- Acq_st=3 2019-5-25 03:19:15 
[00]  G04  f 38     81.9 2045999.9  1.0  0.9  5 3f 530372287
[01]  G07  f 30  -3057.9 2046003.9  1.0  1.0  5  0 530372291
[02]  G08  f 36   -295.4 2046000.3  1.0  0.9  5  0 530372296
[03]  G09  f 37   1132.8 2045998.6  1.0  0.9  5  0 530372288
[04]  G16  f 44   1431.6 2045998.1  1.0  1.0  5  0 530372289
[05]  G27  f 43   1806.6 2045997.6  1.0  1.0  5  0 530372294
[06]  G30  f 38  -3782.1 2046004.9  1.0  0.9  5  0 530372282
$GNGGA,000000.000,,,,,0,00,,,M,,,,0000*2B
$GNRMC,000000.000,A,,,,,,,000000,,*26
$GPGSA,A,1,,,,,,,,,,,,,,,*1E
$BDGSA,A,1,,,,,,,,,,,,,,,*0F
$GPGSV,2,1,07,04,00,000,38,07,00,000,30,08,00,000,36,09,00,000,37*76
$GPGSV,2,2,07,16,00,000,44,27,00,000,43,30,00,000,38*43
$LOGTIM,0,0.000000,0.000000,0.000000,0.000000,0.000*0A
EndT:        0
---00000042--- Acq_st=3 2019-5-25 03:19:16 
[00]  G04  f 39     78.3 2045999.9  1.0  1.0  5 3f 530373287
[01]  G07  f 31  -3062.4 2046003.9  1.0  1.0  5  0 530373291
[02]  G08  f 35   -299.7 2046000.4  1.0  0.9  5  0 530373296
[03]  G09  f 37   1127.2 2045998.6  1.0  0.9  5  0 530373288
[04]  G16  f 44   1427.2 2045998.1  1.0  1.0  5  0 530373289
[05]  G27  f 43   1802.7 2045997.6  1.0  1.0  5  0 530373294
[06]  G30  f 37  -3786.2 2046004.9  1.0  1.0  5  0 530373282
$GNGGA,000000.000,,,,,0,00,,,M,,,,0000*2B
$GNRMC,000000.000,A,,,,,,,000000,,*26
$GPGSA,A,1,,,,,,,,,,,,,,,*1E
$BDGSA,A,1,,,,,,,,,,,,,,,*0F
$GPGSV,2,1,07,04,00,000,39,07,00,000,31,08,00,000,35,09,00,000,37*75
$GPGSV,2,2,07,16,00,000,44,27,00,000,43,30,00,000,37*4C
$LOGTIM,0,0.000000,0.000000,0.000000,0.000000,0.000*0A
EndT:        0
---00000043--- Acq_st=3 2019-5-25 03:19:17 
[00]  G04  f 38     77.8 2045999.9  1.0  1.0  5 3f 530374287
[01]  G07  f 31  -3063.1 2046004.0  1.0  0.9  5  0 530374291
[02]  G08  f 35   -300.5 2046000.4  1.0  1.0  5  0 530374296
[03]  G09  f 37   1126.4 2045998.6  1.0  0.9  5  0 530374288
[04]  G16  f 44   1426.6 2045998.1  1.0  1.0  5  0 530374289
[05]  G27  f 43   1801.4 2045997.6  1.0  1.0  5  0 530374294
[06]  G30  f 37  -3787.7 2046004.9  1.0  1.0  5  0 530374282
$GNGGA,000000.000,,,,,0,00,,,M,,,,0000*2B
$GNRMC,000000.000,A,,,,,,,000000,,*26
$GPGSA,A,1,,,,,,,,,,,,,,,*1E
$BDGSA,A,1,,,,,,,,,,,,,,,*0F
$GPGSV,2,1,07,04,00,000,38,07,00,000,31,08,00,000,35,09,00,000,37*74
$GPGSV,2,2,07,16,00,000,44,27,00,000,43,30,00,000,37*4C
$LOGTIM,0,0.000000,0.000000,0.000000,0.000000,0.000*0A
EndT:        0
ch16 satid=43,max_freq = 750,max_mean = 6311,max_phase = 2842,max_value = 91363,acq ok1!
acq ok1 timeH = 0,timeL = 819989894,freq_stage = 3
---00000044--- Acq_st=3 2019-5-25 03:19:18 
[00]  G04  f 38     75.8 2045999.9  1.0  1.0  5 3f 530375287
[01]  G07  f 31  -3066.1 2046004.0  1.0  0.9  5  0 530375291
[02]  G08  f 34   -301.7 2046000.3  1.0  1.0  5  0 530375296
[03]  G09  f 37   1125.6 2045998.6  1.0  0.9  5  0 530375288
[04]  G16  f 44   1424.2 2045998.2  1.0  1.0  5  0 530375289
[05]  G27  f 44   1799.3 2045997.6  1.0  1.0  5  0 530375294
[06]  G30  f 37  -3789.6 2046004.9  1.0  0.9  5  0 530375282
[16]  B07  1  7   -655.9 4092001.3 -0.0  0.0  1  0         0
$GNGGA,000000.000,,,,,0,00,,,M,,,,0000*2B
$GNRMC,000000.000,A,,,,,,,000000,,*26
$GPGSA,A,1,,,,,,,,,,,,,,,*1E
$BDGSA,A,1,,,,,,,,,,,,,,,*0F
$GPGSV,2,1,07,04,00,000,38,07,00,000,31,08,00,000,34,09,00,000,37*75
$GPGSV,2,2,07,16,00,000,44,27,00,000,44,30,00,000,37*4B
$LOGTIM,0,0.000000,0.000000,0.000000,0.000000,0.000*0A
EndT:        0
---00000045--- Acq_st=3 2019-5-25 03:19:19 
[00]  G04  f 38     75.1 2045999.9  1.0  1.0  5 3f 530376287
[01]  G07  f 32  -3066.1 2046003.9  1.0  0.9  5  0 530376291
[02]  G08  f 35   -302.8 2046000.4  1.0  1.0  5  0 530376296
[03]  G09  f 37   1124.5 2045998.6  1.0  1.0  5  0 530376288
[04]  G16  f 44   1423.0 2045998.1  1.0  1.0  5  0 530376289
[05]  G27  f 44   1798.5 2045997.7  1.0  1.0  5  0 530376294
[06]  G30  f 38  -3791.2 2046004.9  1.0  1.0  5  0 530376282
[16]  B07  1  7   -668.4 4092002.3  0.4  0.0  1  0       175
$GNGGA,000000.000,,,,,0,00,,,M,,,,0000*2B
$GNRMC,000000.000,A,,,,,,,000000,,*26
$GPGSA,A,1,,,,,,,,,,,,,,,*1E
$BDGSA,A,1,,,,,,,,,,,,,,,*0F
$GPGSV,2,1,07,04,00,000,38,07,00,000,32,08,00,000,35,09,00,000,37*77
$GPGSV,2,2,07,16,00,000,44,27,00,000,44,30,00,000,38*44
$LOGTIM,0,0.000000,0.000000,0.000000,0.000000,0.000*0A
EndT:        0
---00000046--- Acq_st=3 2019-5-25 03:19:20 
[00]  G04  f 38     79.1 2045999.9  1.0  1.0  5 3f 530377287
[01]  G07  f 32  -3062.1 2046004.0  1.0  0.9  5  0 530377291
[02]  G08  f 35   -299.6 2046000.4  1.0  1.1  5  0 530377296
[03]  G09  f 36   1127.1 2045998.5  1.0  1.0  5  0 530377288
[04]  G16  f 44   1426.0 2045998.2  1.0  1.0  5  0 530377289
[05]  G27  f 44   1801.7 2045997.6  1.0  1.0  5  0 530377294
[06]  G30  f 38  -3788.3 2046004.9  1.0  1.0  5  0 530377282
[16]  B07  1  7   -665.2 4092001.9  0.8  0.0  1  0      1175
$GNGGA,000000.000,,,,,0,00,,,M,,,,0000*2B
$GNRMC,000000.000,A,,,,,,,000000,,*26
$GPGSA,A,1,,,,,,,,,,,,,,,*1E
$BDGSA,A,1,,,,,,,,,,,,,,,*0F
$GPGSV,2,1,07,04,00,000,38,07,00,000,32,08,00,000,35,09,00,000,36*76
$GPGSV,2,2,07,16,00,000,44,27,00,000,44,30,00,000,38*44
$LOGTIM,0,0.000000,0.000000,0.000000,0.000000,0.000*0A
EndT:        0
---00000047--- Acq_st=3 2019-5-25 03:19:21 
[00]  G04  f 38     82.6 2045999.9  1.0  1.0  5 3f 530378287
[01]  G07  f 32  -3059.3 2046004.0  1.0  1.0  5  0 530378291
[02]  G08  f 35   -295.8 2046000.4  1.0  1.0  5  0 530378296
[03]  G09  f 37   1131.1 2045998.5  1.0  1.0  5  0 530378288
[04]  G16  f 44   1428.9 2045998.1  1.0  1.0  5  0 530378289
[05]  G27  f 44   1805.0 2045997.7  1.0  1.0  5  0 530378294
[06]  G30  f 38  -3785.0 2046004.9  1.0  0.9  5  0 530378282
[16]  B07  1  7   -662.1 4092001.5  0.5  0.0  1  0      2175
$GNGGA,000000.000,,,,,0,00,,,M,,,,0000*2B
$GNRMC,000000.000,A,,,,,,,000000,,*26
$GPGSA,A,1,,,,,,,,,,,,,,,*1E
$BDGSA,A,1,,,,,,,,,,,,,,,*0F
$GPGSV,2,1,07,04,00,000,38,07,00,000,32,08,00,000,35,09,00,000,37*77
$GPGSV,2,2,07,16,00,000,44,27,00,000,44,30,00,000,38*44
$LOGTIM,0,0.000000,0.000000,0.000000,0.000000,0.000*0A
EndT:        0
---00000048--- Acq_st=3 2019-5-25 03:19:22 
[00]  G04  f 38     85.4 2045999.9  1.0  1.0  5 3f 530379287
[01]  G07  f 33  -3056.0 2046003.9  1.0  1.0  5  0 530379291
[02]  G08  f 35   -292.7 2046000.4  1.0  1.0  5  0 530379296
[03]  G09  f 37   1133.9 2045998.5  1.0  1.0  5  0 530379288
[04]  G16  f 44   1431.3 2045998.1  1.0  1.0  5  0 530379289
[05]  G27  f 45   1807.9 2045997.6  1.0  1.0  5  0 530379294
[06]  G30  f 38  -3782.4 2046004.9  1.0  1.0  5  0 530379282
[16]  B07  7 33   -659.7 4092001.7  0.5  1.0  5  0      3175
$GNGGA,000000.000,,,,,0,00,,,M,,,,0000*2B
$GNRMC,000000.000,A,,,,,,,000000,,*26
$GPGSA,A,1,,,,,,,,,,,,,,,*1E
$BDGSA,A,1,,,,,,,,,,,,,,,*0F
$GPGSV,2,1,07,04,00,000,38,07,00,000,33,08,00,000,35,09,00,000,37*76
$GPGSV,2,2,07,16,00,000,44,27,00,000,45,30,00,000,38*45
$BDGSV,1,1,01,07,00,000,33*5E
$LOGTIM,0,0.000000,0.000000,0.000000,0.000000,0.000*0A
EndT:        0
---00000049--- Acq_st=3 2019-5-25 03:19:23 
[00]  G04  f 39     88.0 2045999.9  1.0  1.0  5 3f 530380287
[01]  G07  f 33  -3053.6 2046003.9  1.0  1.0  5  0 530380291
[02]  G08  f 36   -290.6 2046000.4  1.0  1.0  5  0 530380296
[03]  G09  f 36   1135.9 2045998.6  1.0  0.9  5  0 530380288
[04]  G16  f 44   1433.7 2045998.2  1.0  1.0  5  0 530380289
[05]  G27  f 45   1810.2 2045997.6  1.0  1.0  5  0 530380294
[06]  G30  f 39  -3780.8 2046004.9  1.0  1.0  5  0 530380282
[16]  B07  7 40   -657.6 4092001.7  1.0  1.0  5  0      4163
$GNGGA,000000.000,,,,,0,00,,,M,,,,0000*2B
$GNRMC,000000.000,A,,,,,,,000000,,*26
$GPGSA,A,1,,,,,,,,,,,,,,,*1E
$BDGSA,A,1,,,,,,,,,,,,,,,*0F
$GPGSV,2,1,07,04,00,000,39,07,00,000,33,08,00,000,36,09,00,000,36*75
$GPGSV,2,2,07,16,00,000,44,27,00,000,45,30,00,000,39*44
$BDGSV,1,1,01,07,00,000,40*5A
$LOGTIM,0,0.000000,0.000000,0.000000,0.000000,0.000*0A
EndT:        0
ch17 satid=46,max_freq = 750,max_mean = 6984,max_phase = 2819,max_value = 141654,acq ok1!
acq ok1 timeH = 0,timeL = 927077406,freq_stage = 3
---00000050--- Acq_st=3 2019-5-25 03:19:24 
[00]  G04  f 39     87.5 2045999.9  1.0  1.0  5 3f 530381287
[01]  G07  f 33  -3054.3 2046003.9  1.0  0.9  5  0 530381291
[02]  G08  f 36   -290.8 2046000.3  1.0  1.0  5  0 530381296
[03]  G09  f 37   1136.3 2045998.6  1.0  1.0  5  0 530381288
[04]  G16  f 44   1432.7 2045998.1  1.0  1.0  5  0 530381289
[05]  G27  f 45   1809.7 2045997.6  1.0  1.0  5  0 530381294
[06]  G30  f 39  -3780.6 2046004.9  1.0  1.0  5  0 530381282
[16]  B07  7 40   -658.5 4092001.7  1.0  1.0  5  0      5163
[17]  B10  1  7   -757.2 4092002.1  0.0  0.0  1  0         0
lsq: nits= 4
$GNGGA,031924.365,3112.7213,N,12136.4344,E,1,04,2.3,12.7,M,,,,0000*2B
$GNRMC,031924.365,A,3112.7213,N,12136.4344,E,0.07,0.00,250519,,*1B
$GPGSA,A,3,07,08,09,16,,,,,,,,,3.6,2.3,2.8*3D
$BDGSA,A,3,,,,,,,,,,,,,3.6,2.3,2.8*2D
$GPGSV,2,1,07,04,00,000,39,07,00,000,33,08,00,000,36,09,00,000,37*74
$GPGSV,2,2,07,16,00,000,44,27,00,000,45,30,00,000,39*44
$BDGSV,1,1,01,07,00,000,40*5A
$LOGTIM,1,6830131.188751,0.000000,0.000000,0.000000,-61.357*1C
EndT:        0
---00000051--- Acq_st=3 2019-5-25 03:19:25 
[00]  G04  f 40     86.1 2045999.9  1.0  1.0  5 3f 530382287
[01]  G07  f 33  -3057.0 2046004.0  1.0  1.0  5  0 530382291
[02]  G08  f 36   -293.0 2046000.3  1.0  1.0  5  0 530382296
[03]  G09  f 37   1134.3 2045998.6  1.0  0.9  5  0 530382288
[04]  G16  f 44   1430.5 2045998.1  1.0  1.0  5  0 530382289
[05]  G27  f 46   1807.1 2045997.6  1.0  1.0  5  0 530382294
[06]  G30  f 38  -3783.8 2046004.9  1.0  1.0  5  0 530382282
[16]  B07  7 40   -661.3 4092001.7  1.0  1.0  5  0      6163
[17]  B10  1  7   -760.9 4092002.1 -0.1  0.0  1  0       598
lsq: nits= 4
$GNGGA,031926.000,3112.7189,N,12136.4361,E,1,04,2.3,9.5,M,,,,0000*16
$GNRMC,031926.000,A,3112.7189,N,12136.4361,E,0.29,0.00,250519,,*12
$GPGSA,A,3,07,08,09,16,,,,,,,,,3.6,2.3,2.8*3D
$BDGSA,A,3,,,,,,,,,,,,,3.6,2.3,2.8*2D
$GPGSV,2,1,07,04,00,000,40,07,00,000,33,08,00,000,36,09,00,000,37*7A
$GPGSV,2,2,07,16,00,000,44,27,00,000,46,30,00,000,38*46
$BDGSV,1,1,01,07,00,000,40*5A
$LOGTIM,1,-101.604520,0.000000,0.000000,0.000000,-61.846*33
EndT:        0
---00000052--- Acq_st=3 2019-5-25 03:19:26 
[00]  G04  f 39     85.5 2045999.9  1.0  1.0  5 3f 530383922
[01]  G07  f 34  -3056.7 2046004.0  1.0  0.9  5  0 530383926
[02]  G08  f 36   -292.9 2046000.4  1.0  1.0  5  0 530383932
[03]  G09  f 37   1134.3 2045998.6  1.0  0.9  5  0 530383923
[04]  G16  f 44   1430.2 2045998.1  1.0  1.0  5  0 530383925
[05]  G27  f 45   1807.4 2045997.6  1.0  1.0  5  0 530383929
[06]  G30  f 39  -3783.5 2046004.9  1.0  1.0  5  0 530383917
[16]  B07  7 40   -661.8 4092001.7  1.0  1.0  5  0      7799
[17]  B10  1  7   -761.7 4092001.8  0.0  0.0  1  0      2233
lsq: nits= 4
$GNGGA,031927.000,3112.7201,N,12136.4357,E,1,04,2.3,7.7,M,,,,0000*1D
$GNRMC,031927.000,A,3112.7201,N,12136.4357,E,0.47,0.00,250519,,*1D
$GPGSA,A,3,07,08,09,16,,,,,,,,,3.6,2.3,2.8*3D
$BDGSA,A,3,,,,,,,,,,,,,3.6,2.3,2.8*2D
$GPGSV,2,1,07,04,25,279,39,07,41,315,34,08,74,296,36,09,26,258,37*7F
$GPGSV,2,2,07,16,35,066,44,27,54,029,45,30,00,000,39*48
$BDGSV,1,1,01,07,00,000,40*5A
$LOGTIM,1,-164.045930,0.000000,0.000000,0.000000,-61.783*38
EndT:        0
---00000053--- Acq_st=3 2019-5-25 03:19:27 
[00]  G04  f 38     87.5 2045999.9  1.0  1.0  5 3f 530384922
[01]  G07  f 31  -3056.2 2046004.0  1.0  1.0  5  0 530384926
[02]  G08  f 37   -290.7 2046000.4  1.0  1.0  5  0 530384932
[03]  G09  f 37   1135.7 2045998.5  1.0  1.0  5  0 530384923
[04]  G16  f 44   1431.4 2045998.2  1.0  1.0  5  0 530384925
[05]  G27  f 45   1809.0 2045997.6  1.0  1.0  5  0 530384929
[06]  G30  f 39  -3782.8 2046004.9  1.0  0.9  5  0 530384917
[16]  B07  7 40   -660.6 4092001.7  1.0  1.0  5  0      8799
[17]  B10  7 22   -760.7 4092002.0  0.2  0.0 20  0      3233
lsq: nits= 4
$GNGGA,031928.000,3112.7221,N,12136.4355,E,1,04,2.3,6.5,M,,,,0000*11
$GNRMC,031928.000,A,3112.7221,N,12136.4355,E,0.29,0.00,250519,,*1A
$GPGSA,A,3,07,08,09,16,,,,,,,,,3.6,2.3,2.8*3D
$BDGSA,A,3,,,,,,,,,,,,,3.6,2.3,2.8*2D
$GPGSV,2,1,07,04,25,279,38,07,41,315,31,08,74,296,37,09,26,258,37*7A
$GPGSV,2,2,07,16,35,066,44,27,54,029,45,30,00,000,39*48
$BDGSV,1,1,02,07,00,000,40,10,00,000,22*68
$LOGTIM,1,-225.765859,0.000000,0.000000,0.000000,-61.385*37
EndT:        0
---00000054--- Acq_st=3 2019-5-25 03:19:28 
[00]  G04  f 38     91.0 2045999.9  1.0  1.0  5 3f 530385922
[01]  G07  f 31  -3052.9 2046003.9  1.0  0.8  5  0 530385926
[02]  G08  f 37   -288.0 2046000.4  1.0  1.0  5  0 530385932
[03]  G09  f 38   1138.1 2045998.5  1.0  1.0  5  0 530385923
[04]  G16  f 44   1434.1 2045998.2  1.0  1.0  5  0 530385925
[05]  G27  f 46   1811.7 2045997.7  1.0  1.0  5  0 530385929
[06]  G30  f 39  -3780.2 2046004.9  1.0  1.0  5  0 530385917
[16]  B07 1f 40   -658.3 4092001.7  1.0  1.0  5  0 530371879
[17]  B10  7 43   -758.0 4092002.0  0.7  1.0  5  0      4215
lsq: nits= 4
$GNGGA,031929.000,3112.7235,N,12136.4357,E,1,04,2.3,3.8,M,,,,0000*1F
$GNRMC,031929.000,A,3112.7235,N,12136.4357,E,0.15,0.00,250519,,*13
$GPGSA,A,3,07,08,09,16,,,,,,,,,3.6,2.3,2.8*3D
$BDGSA,A,3,,,,,,,,,,,,,3.6,2.3,2.8*2D
$GPGSV,2,1,07,04,25,279,38,07,41,315,31,08,74,296,37,09,26,258,38*75
$GPGSV,2,2,07,16,35,066,44,27,54,029,46,30,00,000,39*4B
$BDGSV,1,1,02,07,00,000,40,10,00,000,43*6F
$LOGTIM,1,-288.261159,0.000000,0.000000,0.000000,-61.556*30
EndT:        0
---00000055--- Acq_st=3 2019-5-25 03:19:29 
[00]  G04  f 39     88.4 2045999.9  1.0  1.0  5 3f 530386922
[01]  G07  f 33  -3054.6 2046003.9  1.0  1.0  5  0 530386926
[02]  G08  f 37   -290.4 2046000.4  1.0  1.0  5  0 530386932
[03]  G09  f 37   1135.2 2045998.5  1.0  1.0  5  0 530386923
[04]  G16  f 44   1431.4 2045998.2  1.0  1.0  5  0 530386925
[05]  G27  f 46   1808.9 2045997.7  1.0  1.0  5  0 530386929
[06]  G30  f 39  -3783.3 2046004.9  1.0  1.0  5  0 530386917
[16]  B07 1f 39   -661.3 4092001.7  1.0  1.0  5  0 530372879
[17]  B10  7 43   -761.5 4092002.0  1.0  1.0  5  0      5215
lsq: nits= 4
$GNGGA,031930.000,3112.7239,N,12136.4360,E,1,04,2.3,1.9,M,,,,0000*1C
$GNRMC,031930.000,A,3112.7239,N,12136.4360,E,0.13,0.00,250519,,*15
$GPGSA,A,3,07,08,09,16,,,,,,,,,3.6,2.3,2.8*3D
$BDGSA,A,3,,,,,,,,,,,,,3.6,2.3,2.8*2D
$GPGSV,2,1,07,04,25,279,39,07,41,315,33,08,74,296,37,09,26,258,37*79
$GPGSV,2,2,07,16,35,066,44,27,54,029,46,30,00,000,39*4B
$BDGSV,1,1,02,07,00,000,39,10,00,000,43*61
$LOGTIM,1,-351.150612,0.000000,0.000000,0.000000,-61.970*34
EndT:        0
---00000056--- Acq_st=3 2019-5-25 03:19:30 
[00]  G04  f 39     84.5 2045999.8  1.0  1.0  5 3f 530387922
[01]  G07  f 32  -3058.7 2046003.9  1.0  1.0  5  0 530387926
[02]  G08  f 37   -294.1 2046000.4  1.0  1.0  5  0 530387932
[03]  G09  f 37   1132.1 2045998.5  1.0  1.0  5  0 530387923
[04]  G16  f 44   1427.6 2045998.1  1.0  1.0  5  0 530387925
[05]  G27  f 45   1805.4 2045997.6  1.0  1.0  5  0 530387929
[06]  G30  f 39  -3786.5 2046004.9  1.0  1.0  5  0 530387917
[16]  B07 1f 40   -665.0 4092001.7  1.0  1.0  5  0 530373879
[17]  B10  7 43   -764.8 4092002.0  1.0  1.0  5  0      6215
lsq: nits= 4
$GNGGA,031931.000,3112.7165,N,12136.4385,E,1,06,1.7,10.6,M,,,,0000*26
$GNRMC,031931.000,A,3112.7165,N,12136.4385,E,1.05,0.00,250519,,*13
$GPGSA,A,3,07,08,09,16,27,30,,,,,,,2.6,1.7,2.0*35
$BDGSA,A,3,,,,,,,,,,,,,2.6,1.7,2.0*23
$GPGSV,2,1,07,04,25,279,39,07,41,315,32,08,74,296,37,09,26,258,37*78
$GPGSV,2,2,07,16,35,066,44,27,54,029,45,30,00,000,39*48
$BDGSV,1,1,02,07,00,000,40,10,00,000,43*6F
$LOGTIM,1,-410.524090,0.000000,0.000000,0.000000,-62.413*36
EndT:        1
---00000057--- Acq_st=3 2019-5-25 03:19:31 
[00]  G04  f 39     81.1 2045999.9  1.0  1.0  5 3f 530388922
[01]  G07  f 33  -3062.8 2046004.0  1.0  1.0  5  0 530388926
[02]  G08  f 38   -298.4 2046000.4  1.0  1.0  5  0 530388932
[03]  G09  f 37   1128.3 2045998.5  1.0  0.9  5  0 530388923
[04]  G16  f 44   1422.8 2045998.1  1.0  1.0  5  0 530388925
[05]  G27  f 46   1801.1 2045997.7  1.0  1.0  5  0 530388929
[06]  G30  f 39  -3791.8 2046004.9  1.0  1.0  5  0 530388917
[16]  B07 1f 40   -668.9 4092001.7  1.0  1.0  5  0 530374879
[17]  B10  7 42   -769.4 4092002.0  1.0  1.0  5  0      7215
lsq: nits= 2
$GNGGA,031932.000,3112.7161,N,12136.4390,E,1,06,1.7,13.6,M,,,,0000*26
$GNRMC,031932.000,A,3112.7161,N,12136.4390,E,1.07,0.00,250519,,*12
$GPGSA,A,3,07,08,09,16,27,30,,,,,,,2.6,1.7,2.0*35
$BDGSA,A,3,,,,,,,,,,,,,2.6,1.7,2.0*23
$GPGSV,2,1,07,04,25,279,39,07,41,315,33,08,74,296,38,09,26,258,37*76
$GPGSV,2,2,07,16,35,066,44,27,54,029,46,30,11,317,39*4E
$BDGSV,1,1,02,07,00,000,40,10,00,000,42*6E
$LOGTIM,1,-471.857353,0.000000,0.000000,0.000000,-62.788*35
EndT:        1
---00000058--- Acq_st=3 2019-5-25 03:19:32 
[00]  G04  f 39     79.6 2045999.9  1.0  1.0  5 3f 530389922
[01]  G07  f 31  -3063.4 2046004.0  1.0  0.9  5  0 530389926
[02]  G08  f 38   -299.3 2046000.4  1.0  1.0  5  0 530389932
[03]  G09  f 37   1127.6 2045998.6  1.0  1.0  5  0 530389923
[04]  G16  f 44   1422.1 2045998.2  1.0  1.0  5  0 530389925
[05]  G27  f 46   1800.2 2045997.7  1.0  1.0  5  0 530389929
[06]  G30  f 39  -3792.9 2046005.0  1.0  0.9  5  0 530389917
[16]  B07 1f 40   -670.3 4092001.7  1.0  1.0  5  0 530375879
[17]  B10  7 43   -770.8 4092002.0  1.0  1.0  5  0      8215
lsq: nits= 2
$GNGGA,031933.000,3112.7164,N,12136.4393,E,1,06,1.7,15.2,M,,,,0000*23
$GNRMC,031933.000,A,3112.7164,N,12136.4393,E,0.74,0.00,250519,,*10
$GPGSA,A,3,07,08,09,16,27,30,,,,,,,2.6,1.7,2.0*35
$BDGSA,A,3,,,,,,,,,,,,,2.6,1.7,2.0*23
$GPGSV,2,1,07,04,25,279,39,07,41,315,31,08,74,296,38,09,26,258,37*74
$GPGSV,2,2,07,16,35,066,44,27,54,029,46,30,11,317,39*4E
$BDGSV,1,1,02,07,00,000,40,10,00,000,43*6F
$LOGTIM,1,-534.023398,0.000000,0.000000,0.000000,-62.850*33
EndT:        1
---00000059--- Acq_st=3 2019-5-25 03:19:33 
[00]  G04  f 39     82.9 2045999.9  1.0  1.0  5 3f 530390922
[01]  G07  f 31  -3060.7 2046004.1  1.0  0.9  5  0 530390926
[02]  G08  f 37   -296.2 2046000.3  1.0  1.0  5  0 530390932
[03]  G09  f 37   1130.5 2045998.5  1.0  1.0  5  0 530390923
[04]  G16  f 43   1424.5 2045998.2  1.0  1.0  5  0 530390925
[05]  G27  f 46   1802.8 2045997.7  1.0  1.0  5  0 530390929
[06]  G30  f 39  -3789.3 2046004.9  1.0  1.0  5  0 530390917
[16]  B07 1f 40   -668.7 4092001.7  1.0  1.0  5  0 530376879
[17]  B10  7 42   -768.5 4092002.0  1.0  1.0  5  0      9215
lsq: nits= 2
$GNGGA,031934.000,3112.7172,N,12136.4398,E,1,06,1.7,15.4,M,,,,0000*2E
$GNRMC,031934.000,A,3112.7172,N,12136.4398,E,0.25,0.00,250519,,*1F
$GPGSA,A,3,07,08,09,16,27,30,,,,,,,2.6,1.7,2.0*35
$BDGSA,A,3,,,,,,,,,,,,,2.6,1.7,2.0*23
$GPGSV,2,1,07,04,25,279,39,07,41,315,31,08,74,296,37,09,26,258,37*7B
$GPGSV,2,2,07,16,35,066,43,27,54,029,46,30,11,317,39*49
$BDGSV,1,1,02,07,00,000,40,10,00,000,42*6E
$LOGTIM,1,-596.429991,0.000000,0.000000,0.000000,-62.538*35
EndT:        1
---00000060--- Acq_st=3 2019-5-25 03:19:34 
[00]  G04  f 39     86.0 2045999.9  1.0  0.9  5 3f 530391922
[01]  G07  f 32  -3057.3 2046004.0  1.0  0.9  5  0 530391926
[02]  G08  f 38   -292.9 2046000.4  1.0  1.0  5  0 530391932
[03]  G09  f 37   1133.3 2045998.6  1.0  0.9  5  0 530391923
[04]  G16  f 43   1427.1 2045998.1  1.0  1.0  5  0 530391925
[05]  G27  f 46   1805.8 2045997.7  1.0  1.0  5  0 530391929
[06]  G30  f 38  -3787.4 2046004.9  1.0  0.9  5  0 530391917
[16]  B07 1f 40   -665.8 4092001.7  1.0  1.0  5  0 530377879
[17]  B10 1f 43   -766.0 4092002.0  1.0  1.0  5  0 530377875
lsq: nits= 2
$GNGGA,031935.000,3112.7178,N,12136.4401,E,1,06,1.7,15.7,M,,,,0000*21
$GNRMC,031935.000,A,3112.7178,N,12136.4401,E,0.17,0.00,250519,,*12
$GPGSA,A,3,07,08,09,16,27,30,,,,,,,2.6,1.7,2.0*35
$BDGSA,A,3,,,,,,,,,,,,,2.6,1.7,2.0*23
$GPGSV,2,1,07,04,25,279,39,07,41,315,32,08,74,296,38,09,26,258,37*77
$GPGSV,2,2,07,16,35,066,43,27,54,029,46,30,11,317,38*48
$BDGSV,1,1,02,07,00,000,40,10,00,000,43*6F
$LOGTIM,1,-659.050095,0.000000,0.000000,0.000000,-62.570*3E
EndT:        1
---00000061--- Acq_st=3 2019-5-25 03:19:35 
[00]  G04  f 39     85.1 2045999.9  1.0  1.0  5 3f 530392922
[01]  G07  f 31  -3059.2 2046004.0  1.0  1.0  5  0 530392926
[02]  G08  f 37   -294.4 2046000.4  1.0  1.0  5  0 530392932
[03]  G09  f 38   1131.7 2045998.6  1.0  0.9  5  0 530392923
[04]  G16  f 43   1426.0 2045998.2  1.0  1.0  5  0 530392925
[05]  G27  f 46   1804.6 2045997.6  1.0  1.0  5  0 530392929
[06]  G30  f 38  -3789.0 2046004.9  1.0  1.0  5  0 530392917
[16]  B07 1f 40   -667.6 4092001.7  1.0  1.0  5  0 530378879
[17]  B10 1f 43   -767.6 4092002.0  1.0  1.0  5  0 530378875
lsq: nits= 2
$GNGGA,031936.000,3112.7179,N,12136.4402,E,1,06,1.7,15.9,M,,,,0000*2E
$GNRMC,031936.000,A,3112.7179,N,12136.4402,E,0.26,0.00,250519,,*11
$GPGSA,A,3,07,08,09,16,27,30,,,,,,,2.6,1.7,2.0*35
$BDGSA,A,3,,,,,,,,,,,,,2.6,1.7,2.0*23
$GPGSV,2,1,07,04,25,279,39,07,41,315,31,08,74,296,37,09,26,258,38*74
$GPGSV,2,2,07,16,35,066,43,27,54,029,46,30,11,317,38*48
$BDGSV,1,1,02,07,00,000,40,10,00,000,43*6F
$LOGTIM,1,-721.882591,0.000000,0.000000,0.000000,-62.702*31
EndT:        1
---00000062--- Acq_st=3 2019-5-25 03:19:36 
[00]  G04  f 38     84.9 2045999.9  1.0  1.0  5 3f 530393922
[01]  G07  f 30  -3060.2 2046003.9  1.0  1.1  5  0 530393926
[02]  G08  f 36   -294.6 2046000.4  1.0  1.0  5  0 530393932
[03]  G09  f 37   1132.4 2045998.5  1.0  1.0  5  0 530393923
[04]  G16  f 43   1425.3 2045998.1  1.0  1.0  5  0 530393925
[05]  G27  f 46   1804.5 2045997.7  1.0  1.0  5  0 530393929
[06]  G30  f 39  -3789.9 2046004.9  1.0  1.0  5  0 530393917
[16]  B07 1f 40   -667.6 4092001.8  1.0  1.0  5  0 530379879
[17]  B10 1f 43   -767.9 4092002.0  1.0  1.0  5  0 530379875
lsq: nits= 2
$GNGGA,031937.000,3112.7179,N,12136.4401,E,1,06,1.7,16.7,M,,,,0000*21
$GNRMC,031937.000,A,3112.7179,N,12136.4401,E,0.09,0.00,250519,,*1E
$GPGSA,A,3,07,08,09,16,27,30,,,,,,,2.6,1.7,2.0*35
$BDGSA,A,3,,,,,,,,,,,,,2.6,1.7,2.0*23
$GPGSV,2,1,07,04,25,279,38,07,41,315,30,08,74,296,36,09,26,258,37*7A
$GPGSV,2,2,07,16,35,066,43,27,54,029,46,30,11,317,39*49
$BDGSV,1,1,02,07,00,000,40,10,00,000,43*6F
$LOGTIM,1,-784.526780,0.000000,0.000000,0.000000,-62.605*39
EndT:        1
---00000063--- Acq_st=3 2019-5-25 03:19:37 
[00]  G04  f 38     87.3 2045999.9  1.0  1.0  5 3f 530394922
[01]  G07  f 32  -3058.4 2046004.0  1.0  0.9  5  0 530394926
[02]  G08  f 35   -292.2 2046000.4  1.0  1.0  5  0 530394932
[03]  G09  f 37   1133.9 2045998.5  1.0  1.0  5  0 530394923
[04]  G16  f 44   1426.5 2045998.1  1.0  1.0  5  0 530394925
[05]  G27  f 46   1805.8 2045997.7  1.0  1.0  5  0 530394929
[06]  G30  f 39  -3788.2 2046004.9  1.0  1.0  5  0 530394917
[16]  B07 1f 40   -666.9 4092001.7  1.0  1.0  5  0 530380879
[17]  B10 1f 43   -766.9 4092002.0  1.0  1.0  5  0 530380875
lsq: nits= 2
$GNGGA,031938.000,3112.7179,N,12136.4400,E,1,06,1.7,16.9,M,,,,0000*21
$GNRMC,031938.000,A,3112.7179,N,12136.4400,E,0.19,0.00,250519,,*11
$GPGSA,A,3,07,08,09,16,27,30,,,,,,,2.6,1.7,2.0*35
$BDGSA,A,3,,,,,,,,,,,,,2.6,1.7,2.0*23
$GPGSV,2,1,07,04,25,279,38,07,41,315,32,08,74,296,35,09,26,258,37*7B
$GPGSV,2,2,07,16,35,066,44,27,54,029,46,30,11,317,39*4E
$BDGSV,1,1,02,07,00,000,40,10,00,000,43*6F
$LOGTIM,1,-847.053120,0.000000,0.000000,0.000000,-62.318*3B
EndT:        1
---00000064--- Acq_st=3 2019-5-25 03:19:38 
[00]  G04  f 39     90.4 2045999.9  1.0  1.0  5 3f 530395922
[01]  G07  f 33  -3054.6 2046003.9  1.0  1.0  5  0 530395926
[02]  G08  f 36   -289.5 2046000.4  1.0  1.0  5  0 530395932
[03]  G09  f 38   1137.0 2045998.6  1.0  1.0  5  0 530395923
[04]  G16  f 44   1429.5 2045998.1  1.0  1.0  5  0 530395925
[05]  G27  f 46   1809.2 2045997.7  1.0  1.0  5  0 530395929
[06]  G30  f 39  -3785.0 2046005.0  1.0  1.0  5  0 530395917
[16]  B07 1f 40   -663.7 4092001.8  1.0  1.0  5  0 530381879
[17]  B10 1f 43   -763.7 4092002.0  1.0  1.0  5  0 530381875
lsq: nits= 2
$GNGGA,031939.000,3112.7178,N,12136.4399,E,1,06,1.7,17.0,M,,,,0000*2E
$GNRMC,031939.000,A,3112.7178,N,12136.4399,E,0.46,0.00,250519,,*1C
$GPGSA,A,3,07,08,09,16,27,30,,,,,,,2.6,1.7,2.0*35
$BDGSA,A,3,,,,,,,,,,,,,2.6,1.7,2.0*23
$GPGSV,2,1,07,04,25,279,39,07,41,315,33,08,74,296,36,09,26,258,38*77
$GPGSV,2,2,07,16,35,066,44,27,54,029,46,30,11,317,39*4E
$BDGSV,1,1,02,07,00,000,40,10,00,000,43*6F
$LOGTIM,1,-909.063890,0.000000,0.000000,0.000000,-61.869*3F
EndT:        0
---00000065--- Acq_st=3 2019-5-25 03:19:39 
[00]  G04  f 39     94.0 2045999.9  1.0  1.0  5 3f 530396922
[01]  G07  f 33  -3051.7 2046003.9  1.0  1.0  5  0 530396926
[02]  G08  f 36   -285.3 2046000.3  1.0  0.9  5  0 530396932
[03]  G09  f 38   1140.6 2045998.5  1.0  0.9  5  0 530396923
[04]  G16  f 44   1433.0 2045998.1  1.0  1.0  5  0 530396925
[05]  G27  f 46   1812.5 2045997.6  1.0  1.0  5  0 530396929
[06]  G30  f 38  -3782.0 2046004.9  1.0  0.9  5  0 530396917
[16]  B07 1f 40   -661.0 4092001.7  1.0  1.0  5  0 530382879
[17]  B10 1f 43   -761.4 4092002.0  1.0  1.0  5  0 530382875
lsq: nits= 2
$GNGGA,031940.000,3112.7177,N,12136.4397,E,1,06,1.7,16.7,M,,,,0000*27
$GNRMC,031940.000,A,3112.7177,N,12136.4397,E,0.42,0.00,250519,,*17
$GPGSA,A,3,07,08,09,16,27,30,,,,,,,2.6,1.7,2.0*35
$BDGSA,A,3,,,,,,,,,,,,,2.6,1.7,2.0*23
$GPGSV,2,1,07,04,25,279,39,07,42,315,33,08,74,297,36,09,26,258,38*75
$GPGSV,2,2,07,16,35,066,44,27,54,029,46,30,11,317,38*4F
$BDGSV,1,1,02,07,00,000,40,10,00,000,43*6F
$LOGTIM,1,-970.973304,0.000000,0.000000,0.000000,-61.743*38
EndT:        0
---00000066--- Acq_st=3 2019-5-25 03:19:40 
[00]  G04  f 40     93.9 2045999.9  1.0  1.0  5 3f 530397922
[01]  G07  f 32  -3052.0 2046004.0  1.0  0.9  5  0 530397926
[02]  G08  f 36   -285.6 2046000.4  1.0  1.0  5  0 530397932
[03]  G09  f 38   1140.6 2045998.5  1.0  1.0  5  0 530397923
[04]  G16  f 44   1432.2 2045998.1  1.0  1.0  5  0 530397925
[05]  G27  f 46   1812.2 2045997.6  1.0  1.0  5  0 530397929
[06]  G30  f 39  -3782.1 2046004.9  1.0  1.0  5  0 530397917
[16]  B07 1f 40   -661.5 4092001.7  1.0  1.0  5  0 530383879
[17]  B10 1f 43   -761.6 4092002.0  1.0  1.0  5  0 530383875
lsq: nits= 2
$GNGGA,031941.000,3112.7178,N,12136.4395,E,1,06,1.7,16.3,M,,,,0000*2F
$GNRMC,031941.000,A,3112.7178,N,12136.4395,E,0.28,0.00,250519,,*17
$GPGSA,A,3,07,08,09,16,27,30,,,,,,,2.6,1.7,2.0*35
$BDGSA,A,3,,,,,,,,,,,,,2.6,1.7,2.0*23
$GPGSV,2,1,07,04,25,279,40,07,42,315,32,08,74,297,36,09,26,258,38*7A
$GPGSV,2,2,07,16,35,066,44,27,54,029,46,30,11,317,39*4E
$BDGSV,1,1,02,07,00,000,40,10,00,000,43*6F
$LOGTIM,1,-1032.710370,0.000000,0.000000,0.000000,-61.694*05
EndT:        0
---00000067--- Acq_st=3 2019-5-25 03:19:41 
[00]  G04  f 39     96.1 2045999.9  1.0  1.0  5 3f 530398922
[01]  G07  f 33  -3049.6 2046004.0  1.0  1.0  5  0 530398926
[02]  G08  f 36   -283.7 2046000.3  1.0  1.0  5  0 530398932
[03]  G09  f 38   1142.0 2045998.5  1.0  1.0  5  0 530398923
[04]  G16  f 44   1433.8 2045998.1  1.0  1.0  5  0 530398925
[05]  G27  f 46   1813.8 2045997.6  1.0  1.0  5  0 530398929
[06]  G30  f 38  -3780.9 2046004.9  1.0  1.0  5  0 530398917
[16]  B07 1f 40   -659.9 4092001.7  1.0  1.0  5  0 530384879
[17]  B10 1f 43   -760.1 4092002.0  1.0  1.0  5  0 530384875
lsq: nits= 2
$GNGGA,031942.000,3112.7177,N,12136.4395,E,1,06,1.7,16.2,M,,,,0000*22
$GNRMC,031942.000,A,3112.7177,N,12136.4395,E,1.00,0.00,250519,,*10
$GPGSA,A,3,07,08,09,16,27,30,,,,,,,2.6,1.7,2.0*35
$BDGSA,A,3,,,,,,,,,,,,,2.6,1.7,2.0*23
$GPGSV,2,1,07,04,25,279,39,07,42,315,33,08,74,297,36,09,26,258,38*75
$GPGSV,2,2,07,16,35,066,44,27,54,029,46,30,11,317,38*4F
$BDGSV,1,1,02,07,00,000,40,10,00,000,43*6F
$LOGTIM,1,-1093.604567,0.000000,0.000000,0.000000,-60.839*02
EndT:        0
---00000068--- Acq_st=3 2019-5-25 03:19:42 
[00]  G04  f 40    105.3 2045999.8  1.0  1.0  5 3f 530399922
[01]  G07  f 33  -3040.5 2046004.0  1.0  0.9  5  0 530399926
[02]  G08  f 35   -274.7 2046000.3  1.0  1.0  5  0 530399932
[03]  G09  f 37   1151.6 2045998.5  1.0  1.0  5  0 530399923
[04]  G16  f 44   1442.3 2045998.1  1.0  1.0  5  0 530399925
[05]  G27  f 46   1822.6 2045997.6  1.0  1.0  5  0 530399929
[06]  G30  f 38  -3772.5 2046004.9  1.0  1.0  5  0 530399917
[16]  B07 1f 40   -651.7 4092001.7  1.0  1.0  5  0 530385879
[17]  B10 1f 43   -752.1 4092001.9  1.0  1.0  5  0 530385875
lsq: nits= 2
$GNGGA,031943.000,3112.7174,N,12136.4394,E,1,06,1.7,15.8,M,,,,0000*28
$GNRMC,031943.000,A,3112.7174,N,12136.4394,E,1.11,0.00,250519,,*13
$GPGSA,A,3,07,08,09,16,27,30,,,,,,,2.6,1.7,2.0*35
$BDGSA,A,3,,,,,,,,,,,,,2.6,1.7,2.0*23
$GPGSV,2,1,07,04,25,279,40,07,42,315,33,08,74,297,35,09,26,258,37*77
$GPGSV,2,2,07,16,35,066,44,27,54,029,46,30,11,317,38*4F
$BDGSV,1,1,02,07,00,000,40,10,00,000,43*6F
$LOGTIM,1,-1153.989080,0.000000,0.000000,0.000000,-60.351*0C
EndT:        0
---00000069--- Acq_st=3 2019-5-25 03:19:43 
[00]  G04  f 40    105.1 2045999.9  1.0  1.0  5 3f 530400922
[01]  G07  f 33  -3040.2 2046004.0  1.0  1.0  5  0 530400926
[02]  G08  f 34   -275.2 2046000.4  1.0  0.9  5  0 530400932
[03]  G09  f 38   1151.6 2045998.5  1.0  0.9  5  0 530400923
[04]  G16  f 44   1442.3 2045998.1  1.0  1.0  5  0 530400925
[05]  G27  f 46   1822.6 2045997.6  1.0  1.0  5  0 530400929
[06]  G30  f 39  -3772.6 2046004.9  1.0  1.0  5  0 530400917
[16]  B07 1f 40   -652.4 4092001.7  1.0  1.0  5  0 530386879
[17]  B10 1f 43   -752.6 4092001.9  1.0  1.0  5  0 530386875
lsq: nits= 2
$GNGGA,031944.000,3112.7168,N,12136.4394,E,1,06,1.7,15.6,M,,,,0000*2C
$GNRMC,031944.000,A,3112.7168,N,12136.4394,E,0.71,0.00,250519,,*1E
$GPGSA,A,3,07,08,09,16,27,30,,,,,,,2.6,1.7,2.0*35
$BDGSA,A,3,,,,,,,,,,,,,2.6,1.7,2.0*23
$GPGSV,2,1,07,04,25,279,40,07,42,315,33,08,74,297,34,09,26,258,38*79
$GPGSV,2,2,07,16,35,066,44,27,54,029,46,30,11,317,39*4E
$BDGSV,1,1,02,07,00,000,40,10,00,000,43*6F
$LOGTIM,1,-1214.630029,0.000000,0.000000,0.000000,-60.589*01
EndT:        0
---00000070--- Acq_st=3 2019-5-25 03:19:44 
[00]  G04  f 40    101.7 2045999.9  1.0  1.0  5 3f 530401922
[01]  G07  f 33  -3044.6 2046003.9  1.0  1.0  5  0 530401926
[02]  G08  f 34   -278.6 2046000.4  1.0  0.9  5  0 530401932
[03]  G09  f 38   1147.9 2045998.6  1.0  1.0  5  0 530401923
[04]  G16  f 44   1438.2 2045998.1  1.0  1.0  5  0 530401925
[05]  G27  f 46   1818.7 2045997.7  1.0  1.0  5  0 530401929
[06]  G30  f 38  -3777.2 2046004.9  1.0  1.0  5  0 530401917
[16]  B07 1f 41   -656.4 4092001.7  1.0  1.0  5  0 530387879
[17]  B10 1f 43   -756.6 4092002.0  1.0  1.0  5  0 530387875
lsq: nits= 2
$GNGGA,031945.000,3112.7133,N,12136.4375,E,1,07,1.7,16.2,M,,,,0000*2A
$GNRMC,031945.000,A,3112.7133,N,12136.4375,E,0.76,0.00,250519,,*19
$GPGSA,A,3,07,08,09,16,27,30,,,,,,,2.6,1.7,2.0*35
$BDGSA,A,3,07,,,,,,,,,,,,2.6,1.7,2.0*24
$GPGSV,2,1,07,04,25,279,40,07,42,315,33,08,74,297,34,09,26,258,38*79
$GPGSV,2,2,07,16,35,066,44,27,54,029,46,30,11,317,38*4F
$BDGSV,1,1,02,07,00,000,41,10,00,000,43*6E
$LOGTIM,3,-1278.848237,-1511.861755,0.000000,0.000000,-60.764*15
EndT:        0
---00000071--- Acq_st=3 2019-5-25 03:19:45 
[00]  G04  f 39    103.1 2045999.9  1.0  1.0  5 3f 530402922
[01]  G07  f 33  -3043.4 2046004.0  1.0  1.0  5  0 530402926
[02]  G08  f 33   -277.1 2046000.4  1.0  1.0  5  0 530402932
[03]  G09  f 38   1149.5 2045998.5  1.0  1.0  5  0 530402923
[04]  G16  f 44   1439.6 2045998.1  1.0  1.0  5  0 530402925
