FlashID=0x1 0x20 0x18
BBram_blkflag1: 25ef: da10
FW Ver: 1.30  
GPS00 Init Dop:   5000, 40
GPS01 Init Dop:   5000, 40
GPS02 Init Dop:   5000, 40
GPS03 Init Dop:   5000, 40
GPS04 Init Dop:   5000, 40
GPS05 Init Dop:   5000, 40
GPS06 Init Dop:   5000, 40
GPS07 Init Dop:   5000, 40
GPS08 Init Dop:   5000, 40
GPS09 Init Dop:   5000, 40
GPS10 Init Dop:   5000, 40
GPS11 Init Dop:   5000, 40
GPS12 Init Dop:   5000, 40
GPS13 Init Dop:   5000, 40
GPS14 Init Dop:   5000, 40
GPS15 Init Dop:   5000, 40
GPS16 Init Dop:   5000, 40
GPS17 Init Dop:   5000, 40
GPS18 Init Dop:   5000, 40
GPS19 Init Dop:   5000, 40
GPS20 Init Dop:   5000, 40
GPS21 Init Dop:   5000, 40
GPS22 Init Dop:   5000, 40
GPS23 Init Dop:   5000, 40
GPS24 Init Dop:   5000, 40
GPS25 Init Dop:   5000, 40
GPS26 Init Dop:   5000, 40
GPS27 Init Dop:   5000, 40
GPS28 Init Dop:   5000, 40
GPS29 Init Dop:   5000, 40
GPS30 Init Dop:   5000, 40
GPS31 Init Dop:   5000, 40
BDS00 Init Dop:   5000, 40
BDS01 Init Dop:   5000, 40
BDS02 Init Dop:   5000, 40
BDS03 Init Dop:   5000, 40
BDS04 Init Dop:   5000, 40
BDS05 Init Dop:   5000, 40
BDS06 Init Dop:   5000, 40
BDS07 Init Dop:   5000, 40
BDS08 Init Dop:   5000, 40
BDS09 Init Dop:   5000, 40
BDS10 Init Dop:   5000, 40
BDS11 Init Dop:   5000, 40
BDS12 Init Dop:   5000, 40
BDS13 Init Dop:   5000, 40
BDS14 Init Dop:   5000, 40
BDS15 Init Dop:   5000, 40
BDS16 Init Dop:   5000, 40
BDS17 Init Dop:   5000, 40
BDS18 Init Dop:   5000, 40
BDS19 Init Dop:   5000, 40
BDS20 Init Dop:   5000, 40
BDS21 Init Dop:   5000, 40
BDS22 Init Dop:   5000, 40
BDS23 Init Dop:   5000, 40
BDS24 Init Dop:   5000, 40
BDS25 Init Dop:   5000, 40
BDS26 Init Dop:   5000, 40
BDS27 Init Dop:   5000, 40
BDS28 Init Dop:   5000, 40
BDS29 Init Dop:   5000, 40
BDS30 Init Dop:   5000, 40
BDS31 Init Dop:   5000, 40
good luck!
---00000001--- Acq_st=3 2019-5-22 02:08:21 
[00]  G04  1 17  -2733.2 2046006.1  0.1  0.0  1  0         0
[01]  G07  1  7  -3516.3 2046006.2 -0.0  0.0  1  0         0
$GNGGA,000000.000,,,,,0,00,,,M,,,,0000*2B
$GNRMC,000000.000,A,,,,,,,000000,,*26
$GPGSA,A,1,,,,,,,,,,,,,,,*1E
$BDGSA,A,1,,,,,,,,,,,,,,,*0F
$LOGTIM,0,0.000000,0.000000,0.000000,0.000000,0.000*0A
EndT:        0
---00000002--- Acq_st=3 2019-5-22 02:08:22 
[00]  G04  7 22  -2711.7 2046003.4  0.3  0.0 20  0         7
[01]  G07  1 31  -3580.1 2046005.4 -0.1  0.0  1  0         1
[02]  G09  1 29  -1718.3 2046002.6 -0.2  0.0  1  0         0
[03]  G16  1  7    790.6 2046000.2 -0.0  0.0  1  0         0
$GNGGA,000000.000,,,,,0,00,,,M,,,,0000*2B
$GNRMC,000000.000,A,,,,,,,000000,,*26
$GPGSA,A,1,,,,,,,,,,,,,,,*1E
$BDGSA,A,1,,,,,,,,,,,,,,,*0F
$GPGSV,1,1,01,04,00,000,22*4C
$LOGTIM,0,0.000000,0.000000,0.000000,0.000000,0.000*0A
EndT:        0
---00000003--- Acq_st=3 2019-5-22 02:08:23 
[00]  G04  7 44  -2710.4 2046003.4  1.0  1.0  5  0         1
[01]  G07  7 37  -3580.3 2046004.6  0.8  1.0  5  0         1
[02]  G09  7 31  -1721.8 2046002.2  0.5  1.0  5  0         9
[03]  G16  1 30    809.8 2045998.9  0.0  0.0  1  0        17
[04]  G21  1  7    941.5 2045999.3 -0.1  0.0  1  0         0
[05]  G23  1  7     59.3 2046002.8 -0.0  0.0  1  0         0
$GNGGA,000000.000,,,,,0,00,,,M,,,,0000*2B
$GNRMC,000000.000,A,,,,,,,000000,,*26
$GPGSA,A,1,,,,,,,,,,,,,,,*1E
$BDGSA,A,1,,,,,,,,,,,,,,,*0F
$GPGSV,1,1,03,04,00,000,44,07,00,000,37,09,00,000,31*46
$LOGTIM,0,0.000000,0.000000,0.000000,0.000000,0.000*0A
EndT:        0
---00000004--- Acq_st=3 2019-5-22 02:08:24 
[00]  G04  7 44  -2709.9 2046003.5  1.0  1.0  5  0         1
[01]  G07  7 46  -3579.9 2046004.6  1.0  1.0  5  0        19
[02]  G09  7 41  -1721.3 2046002.2  1.0  1.0  5  0         6
[03]  G16  7 35    810.5 2045998.9  0.8  1.0  5  0        17
[04]  G21  7 21    913.3 2045998.8  0.2  0.0 20  0        18
[05]  G23  7  7     92.2 2045999.7  0.1  0.0  5  0         6
[06]  G26  1 25   1502.6 2045998.8  0.1  0.0  1  0         0
[07]  G27  1 22   -724.7 2046003.1  0.2  0.0  1  0         0
$GNGGA,000000.000,,,,,0,00,,,M,,,,0000*2B
$GNRMC,000000.000,A,,,,,,,000000,,*26
$GPGSA,A,1,,,,,,,,,,,,,,,*1E
$BDGSA,A,1,,,,,,,,,,,,,,,*0F
$GPGSV,2,1,05,04,00,000,44,07,00,000,46,09,00,000,41,16,00,000,35*73
$GPGSV,2,2,05,21,00,000,21*4C
$LOGTIM,0,0.000000,0.000000,0.000000,0.000000,0.000*0A
EndT:        0
---00000005--- Acq_st=3 2019-5-22 02:08:25 
[00]  G04  7 44  -2708.7 2046003.5  1.0  1.0  5  0         2
[01]  G07  7 46  -3579.2 2046004.6  1.0  1.0  5  0        19
[02]  G09  7 41  -1719.7 2046002.2  1.0  1.0  5  0         6
[03]  G16  7 44    811.2 2045998.9  1.0  1.0  5  0        12
[04]  G21  7 35    914.7 2045998.8  1.0  1.0  5  0         0
[05]  G23  7 47     93.8 2045999.8  1.0  1.0  5  0        10
[06]  G26  7 31   1516.8 2045997.9  0.7  1.0  5  0        19
[07]  G27  7 29   -745.1 2046001.0  0.7  1.0  5  0         3
$GNGGA,000000.000,,,,,0,00,,,M,,,,0000*2B
$GNRMC,000000.000,A,,,,,,,000000,,*26
$GPGSA,A,1,,,,,,,,,,,,,,,*1E
$BDGSA,A,1,,,,,,,,,,,,,,,*0F
$GPGSV,2,1,08,04,00,000,44,07,00,000,46,09,00,000,41,16,00,000,44*78
$GPGSV,2,2,08,21,00,000,35,23,00,000,47,26,00,000,31,27,00,000,29*7E
$LOGTIM,0,0.000000,0.000000,0.000000,0.000000,0.000*0A
EndT:        0
---00000006--- Acq_st=3 2019-5-22 02:08:26 
[00]  G04  f 44  -2705.9 2046003.5  1.0  1.0  5  0         2
[01]  G07  f 46  -3576.9 2046004.6  1.0  1.0  5  0        19
[02]  G09  f 41  -1716.7 2046002.2  1.0  1.0  5  0         6
[03]  G16  f 45    813.7 2045998.9  1.0  1.0  5  0        12
[04]  G21  f 35    917.4 2045998.9  1.0  0.9  5  0         0
[05]  G23  f 47     96.6 2045999.8  1.0  1.0  5  0        10
[06]  G26  7 42   1519.5 2045997.9  1.0  1.0  5  0         8
[07]  G27  7 43   -742.3 2046000.9  1.0  1.0  5  0        15
[16]  B07  1  7   -456.0 4092002.1  0.0  0.0  1  0         0
$GNGGA,000000.000,,,,,0,00,,,M,,,,0000*2B
$GNRMC,000000.000,A,,,,,,,000000,,*26
$GPGSA,A,1,,,,,,,,,,,,,,,*1E
$BDGSA,A,1,,,,,,,,,,,,,,,*0F
$GPGSV,2,1,08,04,00,000,44,07,00,000,46,09,00,000,41,16,00,000,45*79
$GPGSV,2,2,08,21,00,000,35,23,00,000,47,26,00,000,42,27,00,000,43*76
$LOGTIM,0,0.000000,0.000000,0.000000,0.000000,0.000*0A
EndT:        0
---00000007--- Acq_st=3 2019-5-22 02:08:27 
[00]  G04  f 43  -2704.6 2046003.5  1.0  1.0  5  0 266924002
[01]  G07  f 46  -3576.8 2046004.7  1.0  1.0  5  0 266923999
[02]  G09  f 41  -1715.4 2046002.3  1.0  1.0  5  0 266924006
[03]  G16  f 46    814.2 2045998.9  1.0  1.0  5  0 266924012
[04]  G21  f 35    918.1 2045998.8  1.0  1.0  5  0 266924000
[05]  G23  f 47     97.7 2045999.8  1.0  1.0  5  0 266924010
[06]  G26  7 42   1519.8 2045997.9  1.0  1.0  5  0         8
[07]  G27  7 43   -741.3 2046001.0  1.0  1.0  5  0        15
[16]  B07  7 22   -442.7 4092001.1  0.4  0.0 20  0       526
[17]  B10  1  7   -483.5 4092001.4  0.0  0.0  1  0         0
$GNGGA,000000.000,,,,,0,00,,,M,,,,0000*2B
$GNRMC,000000.000,A,,,,,,,000000,,*26
$GPGSA,A,1,,,,,,,,,,,,,,,*1E
$BDGSA,A,1,,,,,,,,,,,,,,,*0F
$GPGSV,2,1,08,04,00,000,43,07,00,000,46,09,00,000,41,16,00,000,46*7D
$GPGSV,2,2,08,21,00,000,35,23,00,000,47,26,00,000,42,27,00,000,43*76
$BDGSV,1,1,01,07,00,000,22*5E
$LOGTIM,0,0.000000,0.000000,0.000000,0.000000,0.000*0A
EndT:        0
---00000008--- Acq_st=3 2019-5-22 02:08:28 
[00]  G04  f 43  -2704.1 2046003.5  1.0  1.0  5  0 266925002
[01]  G07  f 46  -3576.4 2046004.6  1.0  1.0  5  0 266924999
[02]  G09  f 41  -1714.5 2046002.2  1.0  1.0  5  0 266925006
[03]  G16  f 46    815.0 2045998.9  1.0  1.0  5  0 266925012
[04]  G21  f 35    918.6 2045998.8  1.0  0.9  5  0 266925000
[05]  G23  f 46     98.7 2045999.8  1.0  1.0  5  0 266925010
[06]  G26  7 42   1520.4 2045998.0  1.0  1.0  5  0         8
[07]  G27  7 43   -739.9 2046001.0  1.0  1.0  5  0        15
[16]  B07  7 43   -442.4 4092001.1  0.9  1.0  5  0      1520
[17]  B10  7 28   -483.5 4092001.2  0.6  0.0 10  0       775
$GNGGA,000000.000,,,,,0,00,,,M,,,,0000*2B
$GNRMC,000000.000,A,,,,,,,000000,,*26
$GPGSA,A,1,,,,,,,,,,,,,,,*1E
$BDGSA,A,1,,,,,,,,,,,,,,,*0F
$GPGSV,2,1,08,04,00,000,43,07,00,000,46,09,00,000,41,16,00,000,46*7D
$GPGSV,2,2,08,21,00,000,35,23,00,000,46,26,00,000,42,27,00,000,43*77
$BDGSV,1,1,02,07,00,000,43,10,00,000,28*61
$LOGTIM,0,0.000000,0.000000,0.000000,0.000000,0.000*0A
EndT:        0
---00000009--- Acq_st=3 2019-5-22 02:08:29 
[00]  G04  f 44  -2701.7 2046003.5  1.0  1.0  5  0 266926002
[01]  G07  f 45  -3574.7 2046004.6  1.0  1.0  5  0 266925999
[02]  G09  f 40  -1712.2 2046002.2  1.0  1.0  5  0 266926006
[03]  G16  f 46    816.9 2045998.9  1.0  1.0  5  0 266926012
[04]  G21  f 36    920.8 2045998.8  1.0  1.0  5  0 266926000
[05]  G23  f 47    101.2 2045999.9  1.0  1.0  5  0 266926010
[06]  G26  7 43   1522.0 2045998.0  1.0  1.0  5  0         8
[07]  G27  7 43   -737.8 2046000.9  1.0  1.0  5  0        15
[16]  B07  7 43   -440.4 4092001.1  1.0  1.0  5  0      2520
[17]  B10  7 45   -482.0 4092001.2  1.0  1.0  5  0      1757
[18]  B19  1  7    784.6 4091997.6  0.0  0.0  1  0         0
$GNGGA,000000.000,,,,,0,00,,,M,,,,0000*2B
$GNRMC,000000.000,A,,,,,,,000000,,*26
$GPGSA,A,1,,,,,,,,,,,,,,,*1E
$BDGSA,A,1,,,,,,,,,,,,,,,*0F
$GPGSV,2,1,08,04,00,000,44,07,00,000,45,09,00,000,40,16,00,000,46*78
$GPGSV,2,2,08,21,00,000,36,23,00,000,47,26,00,000,43,27,00,000,43*74
$BDGSV,1,1,02,07,00,000,43,10,00,000,45*6A
$LOGTIM,0,0.000000,0.000000,0.000000,0.000000,0.000*0A
EndT:        0
---00000010--- Acq_st=3 2019-5-22 02:08:30 
[00]  G04  f 44  -2701.6 2046003.5  1.0  1.0  5  0 266927002
[01]  G07  f 45  -3575.0 2046004.6  1.0  1.0  5  0 266926999
[02]  G09  f 40  -1712.5 2046002.3  1.0  1.0  5  0 266927006
[03]  G16  f 45    816.8 2045998.9  1.0  1.0  5  0 266927012
[04]  G21  f 37    921.7 2045998.8  1.0  1.0  5  0 266927000
[05]  G23  f 47    101.4 2045999.8  1.0  1.0  5  0 266927010
[06]  G26  7 43   1521.8 2045998.0  1.0  1.0  5  0         8
[07]  G27  7 43   -737.1 2046000.9  1.0  1.0  5  0        15
[16]  B07  7 44   -440.6 4092001.1  1.0  1.0  5  0      3520
[17]  B10  7 45   -481.8 4092001.3  1.0  1.0  5  0      2757
[18]  B19  7 21    787.2 4091997.9  0.3  0.0 20  0       518
$GNGGA,000000.000,,,,,0,00,,,M,,,,0000*2B
$GNRMC,000000.000,A,,,,,,,000000,,*26
$GPGSA,A,1,,,,,,,,,,,,,,,*1E
$BDGSA,A,1,,,,,,,,,,,,,,,*0F
$GPGSV,2,1,08,04,00,000,44,07,00,000,45,09,00,000,40,16,00,000,45*7B
$GPGSV,2,2,08,21,00,000,37,23,00,000,47,26,00,000,43,27,00,000,43*75
$BDGSV,1,1,03,07,00,000,44,10,00,000,45,19,00,000,21*57
$LOGTIM,0,0.000000,0.000000,0.000000,0.000000,0.000*0A
EndT:        0
---00000011--- Acq_st=3 2019-5-22 02:08:31 
[00]  G04  f 44  -2703.8 2046003.5  1.0  1.0  5  0 266928002
[01]  G07  f 45  -3577.9 2046004.6  1.0  1.0  5  0 266927999
[02]  G09  f 42  -1714.5 2046002.2  1.0  1.0  5  0 266928006
[03]  G16  f 45    813.9 2045998.9  1.0  1.0  5  0 266928012
[04]  G21  f 37    919.4 2045998.8  1.0  1.0  5  0 266928000
[05]  G23  f 46     99.2 2045999.9  1.0  1.0  5  0 266928010
[06]  G26  7 43   1519.0 2045998.0  1.0  1.0  5  0         8
[07]  G27  7 42   -739.4 2046001.0  1.0  1.0  5  0        15
[16]  B07  7 43   -443.9 4092001.1  1.0  1.0  5  0      4520
[17]  B10  7 44   -484.8 4092001.3  1.0  1.0  5  0      3757
[18]  B19  7 39    785.0 4091997.9  0.9  0.9  5  0      1514
[19]  B28  1  7    664.6 4091999.1 -0.0  0.0  1  0         0
$GNGGA,000000.000,,,,,0,00,,,M,,,,0000*2B
$GNRMC,000000.000,A,,,,,,,000000,,*26
$GPGSA,A,1,,,,,,,,,,,,,,,*1E
$BDGSA,A,1,,,,,,,,,,,,,,,*0F
$GPGSV,2,1,08,04,00,000,44,07,00,000,45,09,00,000,42,16,00,000,45*79
$GPGSV,2,2,08,21,00,000,37,23,00,000,46,26,00,000,43,27,00,000,42*75
$BDGSV,1,1,03,07,00,000,43,10,00,000,44,19,00,000,39*58
$LOGTIM,0,0.000000,0.000000,0.000000,0.000000,0.000*0A
EndT:        0
---00000012--- Acq_st=7 2019-5-22 02:08:32 
[00]  G04  f 44  -2704.8 2046003.5  1.0  1.0  5  0 266929002
[01]  G07  f 45  -3579.0 2046004.6  1.0  1.0  5  0 266928999
[02]  G09  f 42  -1714.9 2046002.2  1.0  1.0  5  0 266929006
[03]  G16  f 45    813.2 2045998.9  1.0  1.0  5  0 266929012
[04]  G21  f 36    918.6 2045998.8  1.0  1.0  5  0 266929000
[05]  G23  f 46     98.7 2045999.9  1.0  1.0  5  0 266929010
[06]  G26  f 42   1518.0 2045998.0  1.0  1.0  5  0         8
[07]  G27  f 42   -740.0 2046001.0  1.0  1.0  5  0        15
[16]  B07  7 44   -444.8 4092001.2  1.0  1.0  5  0      5520
[17]  B10  7 44   -486.0 4092001.2  1.0  1.0  5  0      4757
[18]  B19  7 39    784.5 4091997.9  1.0  1.0  5  0      2514
[19]  B28  1  7    605.7 4091998.4  0.1  0.0  1  0       261
$GNGGA,000000.000,,,,,0,00,,,M,,,,0000*2B
$GNRMC,000000.000,A,,,,,,,000000,,*26
$GPGSA,A,1,,,,,,,,,,,,,,,*1E
$BDGSA,A,1,,,,,,,,,,,,,,,*0F
$GPGSV,2,1,08,04,00,000,44,07,00,000,45,09,00,000,42,16,00,000,45*79
$GPGSV,2,2,08,21,00,000,36,23,00,000,46,26,00,000,42,27,00,000,42*75
$BDGSV,1,1,03,07,00,000,44,10,00,000,44,19,00,000,39*5F
$LOGTIM,0,0.000000,0.000000,0.000000,0.000000,0.000*0A
EndT:        1
---00000013--- Acq_st=7 2019-5-22 02:08:33 
[00]  G04  f 44  -2703.0 2046003.5  1.0  1.0  5  0 266930002
[01]  G07  f 45  -3578.0 2046004.7  1.0  1.0  5  0 266929999
[02]  G09  f 42  -1713.3 2046002.2  1.0  1.0  5  0 266930006
[03]  G16  f 45    814.5 2045998.9  1.0  1.0  5  0 266930012
[04]  G21  f 37    920.4 2045998.8  1.0  1.0  5  0 266930000
[05]  G23  f 46    100.5 2045999.9  1.0  1.0  5  0 266930010
[06]  G26  f 42   1519.7 2045998.0  1.0  1.0  5  0 266930008
[07]  G27  f 42   -738.1 2046001.0  1.0  1.0  5  0 266930015
[16]  B07  7 44   -443.8 4092001.2  1.0  1.0  5  0      6520
[17]  B10  7 45   -484.7 4092001.2  1.0  1.0  5  0      5757
[18]  B19  7 39    785.7 4091997.9  1.0  1.0  5  0      3514
[19]  B28  7 39    607.8 4091998.4  0.8  1.0  5  0      1261
$GNGGA,000000.000,,,,,0,00,,,M,,,,0000*2B
$GNRMC,000000.000,A,,,,,,,000000,,*26
$GPGSA,A,1,,,,,,,,,,,,,,,*1E
$BDGSA,A,1,,,,,,,,,,,,,,,*0F
$GPGSV,2,1,08,04,00,000,44,07,00,000,45,09,00,000,42,16,00,000,45*79
$GPGSV,2,2,08,21,00,000,37,23,00,000,46,26,00,000,42,27,00,000,42*74
$BDGSV,1,1,04,07,00,000,44,10,00,000,45,19,00,000,39,28,00,000,39*69
$LOGTIM,0,0.000000,0.000000,0.000000,0.000000,0.000*0A
EndT:        0
---00000014--- Acq_st=3 2019-5-22 02:08:34 
[00]  G04  f 44  -2703.3 2046003.5  1.0  1.0  5  0 266931002
[01]  G07  f 45  -3578.9 2046004.6  1.0  1.0  5  0 266930999
[02]  G09  f 41  -1713.3 2046002.2  1.0  1.0  5  0 266931006
[03]  G16  f 46    814.0 2045998.9  1.0  1.0  5  0 266931012
[04]  G21  f 36    919.6 2045998.8  1.0  1.0  5  0 266931000
[05]  G23  f 46    100.2 2045999.9  1.0  1.0  5  0 266931010
[06]  G26  f 42   1518.8 2045998.0  1.0  1.0  5  0 266931008
[07]  G27  f 42   -738.2 2046001.0  1.0  1.0  5  0 266931015
[16]  B07 1f 44   -444.6 4092001.1  1.0  1.0  5  0      7520
[17]  B10 1f 45   -485.6 4092001.3  1.0  1.0  5  0      6757
[18]  B19 1f 38    785.2 4091997.9  1.0  1.0  5  0      4514
[19]  B28  7 44    607.6 4091998.4  1.0  1.0  5  0      2247
$GNGGA,000000.000,,,,,0,00,,,M,,,,0000*2B
$GNRMC,000000.000,A,,,,,,,000000,,*26
$GPGSA,A,1,,,,,,,,,,,,,,,*1E
$BDGSA,A,1,,,,,,,,,,,,,,,*0F
$GPGSV,2,1,08,04,00,000,44,07,00,000,45,09,00,000,41,16,00,000,46*79
$GPGSV,2,2,08,21,00,000,36,23,00,000,46,26,00,000,42,27,00,000,42*75
$BDGSV,1,1,04,07,00,000,44,10,00,000,45,19,00,000,38,28,00,000,44*62
$LOGTIM,0,0.000000,0.000000,0.000000,0.000000,0.000*0A
EndT:        0
---00000015--- Acq_st=3 2019-5-22 02:08:35 
[00]  G04  f 45  -2703.1 2046003.5  1.0  1.0  5  0 266932002
[01]  G07  f 46  -3579.0 2046004.7  1.0  1.0  5  0 266931999
[02]  G09  f 42  -1712.6 2046002.2  1.0  1.0  5  0 266932006
[03]  G16  f 46    813.9 2045998.9  1.0  1.0  5  0 266932012
[04]  G21  f 36    920.6 2045998.8  1.0  1.0  5  0 266932000
[05]  G23  f 46    100.9 2045999.9  1.0  1.0  5  0 266932010
[06]  G26  f 43   1518.5 2045998.0  1.0  1.0  5  0 266932008
[07]  G27  f 42   -737.8 2046001.0  1.0  1.0  5  0 266932015
[16]  B07 1f 44   -445.0 4092001.2  1.0  1.0  5  0 266917960
[17]  B10 1f 44   -486.0 4092001.3  1.0  1.0  5  0 266917957
[18]  B19 1f 38    785.3 4091997.9  1.0  1.0  5  0 266917994
[19]  B28  7 44    607.4 4091998.4  1.0  1.0  5  0      3247
$GNGGA,000000.000,,,,,0,00,,,M,,,,0000*2B
$GNRMC,000000.000,A,,,,,,,000000,,*26
$GPGSA,A,1,,,,,,,,,,,,,,,*1E
$BDGSA,A,1,,,,,,,,,,,,,,,*0F
$GPGSV,2,1,08,04,00,000,45,07,00,000,46,09,00,000,42,16,00,000,46*78
$GPGSV,2,2,08,21,00,000,36,23,00,000,46,26,00,000,43,27,00,000,42*74
$BDGSV,1,1,04,07,00,000,44,10,00,000,44,19,00,000,38,28,00,000,44*63
$LOGTIM,0,0.000000,0.000000,0.000000,0.000000,0.000*0A
EndT:        0
---00000016--- Acq_st=3 2019-5-22 02:08:36 
[00]  G04  f 44  -2702.7 2046003.5  1.0  1.0  5  0 266933002
[01]  G07  f 45  -3579.3 2046004.7  1.0  1.0  5  0 266932999
[02]  G09  f 42  -1712.3 2046002.2  1.0  1.0  5  0 266933006
[03]  G16  f 46    814.0 2045999.0  1.0  1.0  5  0 266933012
[04]  G21  f 36    920.5 2045998.8  1.0  1.0  5  0 266933000
[05]  G23  f 46    101.5 2045999.9  1.0  1.0  5  0 266933010
[06]  G26  f 42   1518.6 2045998.0  1.0  1.0  5  0 266933008
[07]  G27  f 42   -737.5 2046000.9  1.0  1.0  5  0 266933015
[16]  B07 1f 44   -444.8 4092001.2  1.0  1.0  5  0 266918960
[17]  B10 1f 45   -486.1 4092001.3  1.0  1.0  5  0 266918957
[18]  B19 1f 37    785.8 4091997.9  1.0  1.0  5  0 266918994
[19]  B28  7 45    607.8 4091998.4  1.0  1.0  5  0      4247
$GNGGA,000000.000,,,,,0,00,,,M,,,,0000*2B
$GNRMC,000000.000,A,,,,,,,000000,,*26
$GPGSA,A,1,,,,,,,,,,,,,,,*1E
$BDGSA,A,1,,,,,,,,,,,,,,,*0F
$GPGSV,2,1,08,04,00,000,44,07,00,000,45,09,00,000,42,16,00,000,46*7A
$GPGSV,2,2,08,21,00,000,36,23,00,000,46,26,00,000,42,27,00,000,42*75
$BDGSV,1,1,04,07,00,000,44,10,00,000,45,19,00,000,37,28,00,000,45*6C
$LOGTIM,0,0.000000,0.000000,0.000000,0.000000,0.000*0A
EndT:        0
---00000017--- Acq_st=3 2019-5-22 02:08:37 
[00]  G04  f 44  -2700.0 2046003.5  1.0  1.0  5  0 266934002
[01]  G07  f 46  -3576.8 2046004.6  1.0  1.0  5  0 266933999
[02]  G09  f 42  -1709.0 2046002.2  1.0  1.0  5  0 266934006
[03]  G16  f 46    816.7 2045998.9  1.0  1.0  5  0 266934012
[04]  G21  f 37    923.5 2045998.8  1.0  1.0  5  0 266934000
[05]  G23  f 46    104.3 2045999.9  1.0  1.0  5  0 266934010
[06]  G26  f 42   1520.9 2045998.0  1.0  1.0  5  0 266934008
[07]  G27  f 42   -734.3 2046001.0  1.0  1.0  5  0 266934015
[16]  B07 1f 44   -442.8 4092001.2  1.0  1.0  5  0 266919960
[17]  B10 1f 45   -483.9 4092001.3  1.0  1.0  5  0 266919957
[18]  B19 1f 37    788.0 4091997.9  1.0  0.9  5  0 266919994
[19]  B28  7 45    610.7 4091998.4  1.0  1.0  5  0      5247
$GNGGA,000000.000,,,,,0,00,,,M,,,,0000*2B
$GNRMC,000000.000,A,,,,,,,000000,,*26
$GPGSA,A,1,,,,,,,,,,,,,,,*1E
$BDGSA,A,1,,,,,,,,,,,,,,,*0F
$GPGSV,2,1,08,04,00,000,44,07,00,000,46,09,00,000,42,16,00,000,46*79
$GPGSV,2,2,08,21,00,000,37,23,00,000,46,26,00,000,42,27,00,000,42*74
$BDGSV,1,1,04,07,00,000,44,10,00,000,45,19,00,000,37,28,00,000,45*6C
$LOGTIM,0,0.000000,0.000000,0.000000,0.000000,0.000*0A
EndT:        0
---00000018--- Acq_st=3 2019-5-22 02:08:38 
[00]  G04  f 44  -2695.1 2046003.5  1.0  1.0  5  0 266935002
[01]  G07  f 46  -3572.5 2046004.6  1.0  1.0  5  0 266934999
[02]  G09  f 41  -1704.2 2046002.2  1.0  1.0  5  0 266935006
[03]  G16  f 45    821.1 2045999.0  1.0  1.0  5  0 266935012
[04]  G21  f 37    928.2 2045998.8  1.0  1.0  5  0 266935000
[05]  G23  f 46    109.1 2045999.8  1.0  1.0  5  0 266935010
[06]  G26  f 42   1525.7 2045998.0  1.0  1.0  5  0 266935008
[07]  G27  f 43   -729.1 2046001.0  1.0  1.0  5  0 266935015
[16]  B07 1f 44   -437.9 4092001.1  1.0  1.0  5  0 266920960
[17]  B10 1f 45   -479.5 4092001.2  1.0  1.0  5  0 266920957
[18]  B19 1f 37    792.8 4091997.9  1.0  1.0  5  0 266920994
[19]  B28  7 45    615.7 4091998.4  1.0  1.0  5  0      6247
$GNGGA,000000.000,,,,,0,00,,,M,,,,0000*2B
$GNRMC,000000.000,A,,,,,,,000000,,*26
$GPGSA,A,1,,,,,,,,,,,,,,,*1E
$BDGSA,A,1,,,,,,,,,,,,,,,*0F
$GPGSV,2,1,08,04,00,000,44,07,00,000,46,09,00,000,41,16,00,000,45*79
$GPGSV,2,2,08,21,00,000,37,23,00,000,46,26,00,000,42,27,00,000,43*75
$BDGSV,1,1,04,07,00,000,44,10,00,000,45,19,00,000,37,28,00,000,45*6C
$LOGTIM,0,0.000000,0.000000,0.000000,0.000000,0.000*0A
EndT:        1
---00000019--- Acq_st=3 2019-5-22 02:08:39 
[00]  G04  f 44  -2698.7 2046003.5  1.0  1.0  5  0 266936002
[01]  G07  f 45  -3576.5 2046004.7  1.0  1.0  5  0 266935999
[02]  G09  f 41  -1707.9 2046002.2  1.0  1.0  5  0 266936006
[03]  G16  f 46    817.2 2045999.0  1.0  1.0  5  0 266936012
[04]  G21  f 36    925.1 2045998.8  1.0  1.0  5  0 266936000
[05]  G23  f 46    106.1 2045999.9  1.0  1.0  5  0 266936010
[06]  G26  f 41   1521.3 2045998.0  1.0  1.0  5  0 266936008
[07]  G27  f 43   -732.7 2046000.9  1.0  1.0  5  0 266936015
[16]  B07 1f 44   -442.1 4092001.1  1.0  1.0  5  0 266921960
[17]  B10 1f 45   -483.4 4092001.2  1.0  1.0  5  0 266921957
[18]  B19 1f 37    788.8 4091997.9  1.0  1.0  5  0 266921994
[19]  B28  7 45    612.0 4091998.4  1.0  1.0  5  0      7247
$GNGGA,000000.000,,,,,0,00,,,M,,,,0000*2B
$GNRMC,000000.000,A,,,,,,,000000,,*26
$GPGSA,A,1,,,,,,,,,,,,,,,*1E
$BDGSA,A,1,,,,,,,,,,,,,,,*0F
$GPGSV,2,1,08,04,00,000,44,07,00,000,45,09,00,000,41,16,00,000,46*79
$GPGSV,2,2,08,21,00,000,36,23,00,000,46,26,00,000,41,27,00,000,43*77
$BDGSV,1,1,04,07,00,000,44,10,00,000,45,19,00,000,37,28,00,000,45*6C
$LOGTIM,0,0.000000,0.000000,0.000000,0.000000,0.000*0A
EndT:        0
---00000020--- Acq_st=3 2019-5-22 02:08:40 
[00]  G04  f 43  -2700.2 2046003.5  1.0  1.0  5  0 266937002
[01]  G07  f 45  -3579.1 2046004.7  1.0  1.0  5  0 266936999
[02]  G09  f 41  -1709.7 2046002.2  1.0  1.0  5  0 266937006
[03]  G16  f 46    815.4 2045999.0  1.0  1.0  5  0 266937012
[04]  G21  f 36    922.6 2045998.7  1.0  1.0  5  0 266937000
[05]  G23  f 46    104.5 2045999.9  1.0  1.0  5  0 266937010
[06]  G26  f 42   1519.6 2045998.0  1.0  1.0  5  0 266937008
[07]  G27  f 42   -734.4 2046000.9  1.0  1.0  5  0 266937015
[16]  B07 1f 44   -444.4 4092001.2  1.0  1.0  5  0 266922960
[17]  B10 1f 45   -485.7 4092001.2  1.0  1.0  5  0 266922957
[18]  B19 1f 38    787.8 4091997.9  1.0  1.0  5  0 266922994
[19]  B28 1f 45    610.7 4091998.4  1.0  1.0  5  0      8247
$GNGGA,000000.000,,,,,0,00,,,M,,,,0000*2B
$GNRMC,000000.000,A,,,,,,,000000,,*26
$GPGSA,A,1,,,,,,,,,,,,,,,*1E
$BDGSA,A,1,,,,,,,,,,,,,,,*0F
$GPGSV,2,1,08,04,00,000,43,07,00,000,45,09,00,000,41,16,00,000,46*7E
$GPGSV,2,2,08,21,00,000,36,23,00,000,46,26,00,000,42,27,00,000,42*75
$BDGSV,1,1,04,07,00,000,44,10,00,000,45,19,00,000,38,28,00,000,45*63
$LOGTIM,0,0.000000,0.000000,0.000000,0.000000,0.000*0A
EndT:        1
---00000021--- Acq_st=3 2019-5-22 02:08:41 
[00]  G04  f 44  -2702.0 2046003.5  1.0  1.0  5  0 266938002
[01]  G07  f 44  -3580.9 2046004.7  1.0  1.0  5  0 266937999
[02]  G09  f 42  -1710.7 2046002.2  1.0  1.0  5  0 266938006
[03]  G16  f 45    813.7 2045998.9  1.0  1.0  5  0 266938012
[04]  G21  f 36    921.1 2045998.8  1.0  1.0  5  0 266938000
[05]  G23  f 46    103.3 2045999.9  1.0  1.0  5  0 266938010
[06]  G26  f 41   1517.5 2045998.1  1.0  1.0  5  0 266938008
[07]  G27  f 43   -735.3 2046001.0  1.0  1.0  5  0 266938015
[16]  B07 1f 44   -446.5 4092001.2  1.0  1.0  5  0 266923960
[17]  B10 1f 45   -487.7 4092001.3  1.0  1.0  5  0 266923957
[18]  B19 1f 39    785.3 4091997.9  1.0  1.0  5  0 266923994
[19]  B28 1f 45    609.0 4091998.4  1.0  1.0  5  0 266924007
$GNGGA,000000.000,,,,,0,00,,,M,,,,0000*2B
$GNRMC,000000.000,A,,,,,,,000000,,*26
$GPGSA,A,1,,,,,,,,,,,,,,,*1E
$BDGSA,A,1,,,,,,,,,,,,,,,*0F
$GPGSV,2,1,08,04,00,000,44,07,00,000,44,09,00,000,42,16,00,000,45*78
$GPGSV,2,2,08,21,00,000,36,23,00,000,46,26,00,000,41,27,00,000,43*77
$BDGSV,1,1,04,07,00,000,44,10,00,000,45,19,00,000,39,28,00,000,45*62
$LOGTIM,0,0.000000,0.000000,0.000000,0.000000,0.000*0A
EndT:        0
---00000022--- Acq_st=3 2019-5-22 02:08:42 
[00]  G04  f 43  -2701.5 2046003.5  1.0  1.0  5  0 266939002
[01]  G07  f 45  -3581.5 2046004.7  1.0  1.0  5  0 266938999
[02]  G09  f 42  -1710.2 2046002.2  1.0  1.0  5  0 266939006
[03]  G16  f 45    813.4 2045999.0  1.0  1.0  5  0 266939012
[04]  G21  f 36    921.6 2045998.7  1.0  1.0  5  0 266939000
[05]  G23  f 46    103.4 2045999.9  1.0  1.0  5  0 266939010
[06]  G26  f 42   1517.3 2045998.0  1.0  1.0  5  0 266939008
[07]  G27  f 43   -734.7 2046000.9  1.0  1.0  5  0 266939015
[16]  B07 1f 44   -447.0 4092001.2  1.0  1.0  5  0 266924960
[17]  B10 1f 45   -488.2 4092001.3  1.0  1.0  5  0 266924957
[18]  B19 1f 39    785.6 4091997.9  1.0  1.0  5  0 266924994
[19]  B28 1f 45    609.3 4091998.4  1.0  1.0  5  0 266925007
$GNGGA,000000.000,,,,,0,00,,,M,,,,0000*2B
$GNRMC,000000.000,A,,,,,,,000000,,*26
$GPGSA,A,1,,,,,,,,,,,,,,,*1E
$BDGSA,A,1,,,,,,,,,,,,,,,*0F
$GPGSV,2,1,08,04,00,000,43,07,00,000,45,09,00,000,42,16,00,000,45*7E
$GPGSV,2,2,08,21,00,000,36,23,00,000,46,26,00,000,42,27,00,000,43*74
$BDGSV,1,1,04,07,00,000,44,10,00,000,45,19,00,000,39,28,00,000,45*62
$LOGTIM,0,0.000000,0.000000,0.000000,0.000000,0.000*0A
EndT:        0
---00000023--- Acq_st=7 2019-5-22 02:08:43 
[00]  G04  f 43  -2702.7 2046003.5  1.0  1.0  5  0 266940002
[01]  G07  f 45  -3582.6 2046004.7  1.0  1.0  5  0 266939999
[02]  G09  f 42  -1711.3 2046002.2  1.0  1.0  5  0 266940006
[03]  G16  f 46    812.2 2045998.9  1.0  1.0  5  0 266940012
[04]  G21  f 36    921.2 2045998.8  1.0  1.0  5  0 266940000
[05]  G23  f 46    102.8 2045999.9  1.0  1.0  5  0 266940010
[06]  G26  f 42   1516.2 2045998.1  1.0  1.0  5  0 266940008
[07]  G27  f 44   -735.7 2046001.0  1.0  1.0  5  0 266940015
[16]  B07 1f 44   -448.3 4092001.2  1.0  1.0  5  0 266925960
[17]  B10 1f 45   -489.5 4092001.2  1.0  1.0  5  0 266925957
[18]  B19 1f 39    784.9 4091997.9  1.0  1.0  5  0 266925994
[19]  B28 1f 45    608.6 4091998.4  1.0  1.0  5  0 266926007
$GNGGA,000000.000,,,,,0,00,,,M,,,,0000*2B
$GNRMC,000000.000,A,,,,,,,000000,,*26
$GPGSA,A,1,,,,,,,,,,,,,,,*1E
$BDGSA,A,1,,,,,,,,,,,,,,,*0F
$GPGSV,2,1,08,04,00,000,43,07,00,000,45,09,00,000,42,16,00,000,46*7D
$GPGSV,2,2,08,21,00,000,36,23,00,000,46,26,00,000,42,27,00,000,44*73
$BDGSV,1,1,04,07,00,000,44,10,00,000,45,19,00,000,39,28,00,000,45*62
$LOGTIM,0,0.000000,0.000000,0.000000,0.000000,0.000*0A
EndT:        0
---00000024--- Acq_st=7 2019-5-22 02:08:44 
[00]  G04  f 43  -2699.5 2046003.5  1.0  1.0  5  0 266941002
[01]  G07  f 44  -3580.3 2046004.6  1.0  1.0  5  0 266940999
[02]  G09  f 42  -1708.0 2046002.2  1.0  1.0  5  0 266941006
[03]  G16  f 45    814.9 2045999.0  1.0  1.0  5  0 266941012
[04]  G21  f 36    924.6 2045998.8  1.0  1.0  5  0 266941000
[05]  G23  f 46    105.8 2045999.9  1.0  1.0  5  0 266941010
[06]  G26  f 42   1518.4 2045998.0  1.0  1.0  5  0 266941008
[07]  G27  f 43   -732.3 2046000.9  1.0  1.0  5  0 266941015
[16]  B07 1f 44   -445.9 4092001.2  1.0  1.0  5  0 266926960
[17]  B10 1f 45   -486.9 4092001.3  1.0  1.0  5  0 266926957
[18]  B19 1f 39    787.8 4091997.9  1.0  1.0  5  0 266926994
[19]  B28 1f 45    611.7 4091998.4  1.0  1.0  5  0 266927007
$GNGGA,000000.000,,,,,0,00,,,M,,,,0000*2B
$GNRMC,000000.000,A,,,,,,,000000,,*26
$GPGSA,A,1,,,,,,,,,,,,,,,*1E
$BDGSA,A,1,,,,,,,,,,,,,,,*0F
$GPGSV,2,1,08,04,00,000,43,07,00,000,44,09,00,000,42,16,00,000,45*7F
$GPGSV,2,2,08,21,00,000,36,23,00,000,46,26,00,000,42,27,00,000,43*74
$BDGSV,1,1,04,07,00,000,44,10,00,000,45,19,00,000,39,28,00,000,45*62
$LOGTIM,0,0.000000,0.000000,0.000000,0.000000,0.000*0A
EndT:        0
---00000025--- Acq_st=7 2019-5-22 02:08:45 
[00]  G04  f 43  -2698.9 2046003.5  1.0  1.0  5  0 266942002
[01]  G07  f 44  -3579.9 2046004.6  1.0  1.0  5  0 266941999
[02]  G09  f 42  -1707.2 2046002.3  1.0  1.0  5  0 266942006
[03]  G16  f 46    815.3 2045998.9  1.0  1.0  5  0 266942012
[04]  G21  f 37    923.8 2045998.8  1.0  0.9  5  0 266942000
[05]  G23  f 46    106.9 2045999.8  1.0  1.0  5  0 266942010
[06]  G26  f 43   1519.0 2045998.0  1.0  1.0  5  0 266942008
[07]  G27  f 43   -731.6 2046001.0  1.0  1.0  5  0 266942015
[16]  B07 1f 44   -445.2 4092001.2  1.0  1.0  5  0 266927960
[17]  B10 1f 45   -486.6 4092001.2  1.0  1.0  5  0 266927957
[18]  B19 1f 38    788.6 4091997.9  1.0  1.0  5  0 266927994
[19]  B28 1f 45    612.6 4091998.4  1.0  1.0  5  0 266928007
$GNGGA,000000.000,,,,,0,00,,,M,,,,0000*2B
$GNRMC,000000.000,A,,,,,,,000000,,*26
$GPGSA,A,1,,,,,,,,,,,,,,,*1E
$BDGSA,A,1,,,,,,,,,,,,,,,*0F
$GPGSV,2,1,08,04,00,000,43,07,00,000,44,09,00,000,42,16,00,000,46*7C
$GPGSV,2,2,08,21,00,000,37,23,00,000,46,26,00,000,43,27,00,000,43*74
$BDGSV,1,1,04,07,00,000,44,10,00,000,45,19,00,000,38,28,00,000,45*63
$LOGTIM,0,0.000000,0.000000,0.000000,0.000000,0.000*0A
EndT:        0
---00000026--- Acq_st=3 2019-5-22 02:08:46 
[00]  G04  f 43  -2698.1 2046003.5  1.0  1.0  5  0 266943002
[01]  G07  f 44  -3579.5 2046004.6  1.0  1.0  5  0 266942999
[02]  G09  f 42  -1705.8 2046002.2  1.0  1.0  5  0 266943006
[03]  G16  f 46    815.9 2045998.9  1.0  1.0  5  0 266943012
[04]  G21  f 36    925.7 2045998.8  1.0  1.0  5  0 266943000
[05]  G23  f 46    107.8 2045999.9  1.0  1.0  5  0 266943010
[06]  G26  f 42   1519.7 2045998.0  1.0  1.0  5  0 266943008
[07]  G27  f 43   -730.9 2046001.0  1.0  1.0  5  0 266943015
[16]  B07 1f 44   -445.6 4092001.1  1.0  1.0  5  0 266928960
[17]  B10 1f 45   -486.8 4092001.3  1.0  1.0  5  0 266928957
[18]  B19 1f 38    788.5 4091997.9  1.0  1.0  5  0 266928994
[19]  B28 1f 45    613.3 4091998.4  1.0  1.0  5  0 266929007
$GNGGA,000000.000,,,,,0,00,,,M,,,,0000*2B
$GNRMC,000000.000,A,,,,,,,000000,,*26
$GPGSA,A,1,,,,,,,,,,,,,,,*1E
$BDGSA,A,1,,,,,,,,,,,,,,,*0F
$GPGSV,2,1,08,04,00,000,43,07,00,000,44,09,00,000,42,16,00,000,46*7C
$GPGSV,2,2,08,21,00,000,36,23,00,000,46,26,00,000,42,27,00,000,43*74
$BDGSV,1,1,04,07,00,000,44,10,00,000,45,19,00,000,38,28,00,000,45*63
$LOGTIM,0,0.000000,0.000000,0.000000,0.000000,0.000*0A
EndT:        0
---00000027--- Acq_st=3 2019-5-22 02:08:47 
[00]  G04  f 44  -2695.2 2046003.5  1.0  1.0  5  0 266944002
[01]  G07  f 44  -3577.7 2046004.6  1.0  1.0  5  0 266943999
[02]  G09  f 43  -1703.5 2046002.2  1.0  1.0  5  0 266944006
[03]  G16  f 46    818.4 2045998.9  1.0  1.0  5  0 266944012
[04]  G21  f 36    927.4 2045998.7  1.0  1.0  5  0 266944000
[05]  G23  f 46    110.5 2045999.9  1.0  1.0  5  0 266944010
[06]  G26  f 43   1521.7 2045998.0  1.0  1.0  5  0 266944008
[07]  G27  f 43   -728.1 2046001.0  1.0  1.0  5  0 266944015
[16]  B07 1f 44   -443.6 4092001.1  1.0  1.0  5  0 266929960
[17]  B10 1f 45   -484.6 4092001.3  1.0  1.0  5  0 266929957
[18]  B19 1f 38    791.4 4091997.9  1.0  1.0  5  0 266929994
[19]  B28 1f 45    615.6 4091998.4  1.0  1.0  5  0 266930007
$GNGGA,000000.000,,,,,0,00,,,M,,,,0000*2B
$GNRMC,000000.000,A,,,,,,,000000,,*26
$GPGSA,A,1,,,,,,,,,,,,,,,*1E
$BDGSA,A,1,,,,,,,,,,,,,,,*0F
$GPGSV,2,1,08,04,00,000,44,07,00,000,44,09,00,000,43,16,00,000,46*7A
$GPGSV,2,2,08,21,00,000,36,23,00,000,46,26,00,000,43,27,00,000,43*75
$BDGSV,1,1,04,07,00,000,44,10,00,000,45,19,00,000,38,28,00,000,45*63
$LOGTIM,0,0.000000,0.000000,0.000000,0.000000,0.000*0A
EndT:        0
---00000028--- Acq_st=3 2019-5-22 02:08:48 
[00]  G04  f 43  -2694.7 2046003.5  1.0  1.0  5  0 266945002
[01]  G07  f 44  -3577.7 2046004.6  1.0  1.0  5  0 266944999
[02]  G09  f 43  -1703.0 2046002.2  1.0  1.0  5  0 266945006
[03]  G16  f 46    818.5 2045998.9  1.0  1.0  5  0 266945012
[04]  G21  f 36    928.5 2045998.8  1.0  1.0  5  0 266945000
[05]  G23  f 45    111.1 2045999.9  1.0  1.0  5  0 266945010
[06]  G26  f 42   1522.0 2045998.0  1.0  1.0  5  0 266945008
[07]  G27  f 44   -727.2 2046000.9  1.0  1.0  5  0 266945015
[16]  B07 1f 44   -443.4 4092001.1  1.0  1.0  5  0 266930960
[17]  B10 1f 45   -484.2 4092001.3  1.0  1.0  5  0 266930957
[18]  B19 1f 38    791.9 4091997.9  1.0  1.0  5  0 266930994
[19]  B28 1f 45    616.5 4091998.4  1.0  1.0  5  0 266931007
$GNGGA,000000.000,,,,,0,00,,,M,,,,0000*2B
$GNRMC,000000.000,A,,,,,,,000000,,*26
$GPGSA,A,1,,,,,,,,,,,,,,,*1E
$BDGSA,A,1,,,,,,,,,,,,,,,*0F
$GPGSV,2,1,08,04,00,000,43,07,00,000,44,09,00,000,43,16,00,000,46*7D
$GPGSV,2,2,08,21,00,000,36,23,00,000,45,26,00,000,42,27,00,000,44*70
$BDGSV,1,1,04,07,00,000,44,10,00,000,45,19,00,000,38,28,00,000,45*63
$LOGTIM,0,0.000000,0.000000,0.000000,0.000000,0.000*0A
EndT:        0
$GNGGA,000000.000,,,,,0,00,,,M,,,,0000*2B
$GNRMC,000000.000,A,,,,,,,000000,,*26
$GPGSA,A,1,,,,,,,,,,,,,,,*1E
$BDGSA,A,1,,,,,,,,,,,,,,,*0F
$GPGSV,2,1,08,04,00,000,43,07,00,000,45,09,00,000,43,16,00,000,47*7D
$GPGSV,2,2,08,21,00,000,36,23,00,000,45,26,00,000,43,27,00,000,43*76
$BDGSV,1,1,04,07,00,000,44,10,00,000,45,19,00,000,38,28,00,000,45*63
$LOGTIM,0,0.000000,0.000000,0.000000,0.000000,0.000*0A
EndT:        0
---00000029--- Acq_st=3 2019-5-22 02:08:49 
[00]  G04  f 43  -2692.4 2046003.5  1.0  1.0  5  0 266947002
[01]  G07  f 45  -3575.9 2046004.6  1.0  1.0  5  0 266946999
[02]  G09  f 43  -1700.1 2046002.2  1.0  1.0  5  0 266947006
[03]  G16  f 47    820.7 2045998.9  1.0  1.0  5  0 266947012
[04]  G21  f 36    930.4 2045998.8  1.0  1.0  5  0 266947000
[05]  G23  f 45    113.7 2045999.9  1.0  1.0  5  0 266947010
[06]  G26  f 43   1523.6 2045998.0  1.0  1.0  5  0 266947008
[07]  G27  f 43   -724.7 2046000.9  1.0  1.0  5  0 266947015
[16]  B07 1f 44   -441.5 4092001.1  1.0  1.0  5  0 266932960
[17]  B10 1f 45   -482.7 4092001.2  1.0  1.0  5  0 266932957
[18]  B19 1f 38    793.8 4091997.8  1.0  1.0  5  0 266932994
[19]  B28 1f 45    619.0 4091998.4  1.0  1.0  5  0 266933007
---00000030--- Acq_st=3 2019-5-22 02:08:50 
[00]  G04  f 43  -2693.6 2046003.5  1.0  1.0  5  0 266947002
[01]  G07  f 44  -3577.3 2046004.6  1.0  1.0  5  0 266946999
[02]  G09  f 43  -1700.8 2046002.2  1.0  1.0  5  0 266947006
[03]  G16  f 47    819.4 2045998.9  1.0  1.0  5  0 266947012
[04]  G21  f 36    930.4 2045998.7  1.0  1.0  5  0 266947000
[05]  G23  f 45    113.2 2045999.9  1.0  1.0  5  0 266947010
[06]  G26  f 42   1522.7 2045998.0  1.0  1.0  5  0 266947008
[07]  G27  f 44   -725.8 2046000.9  1.0  1.0  5  0 266947015
[16]  B07 1f 44   -442.8 4092001.2  1.0  1.0  5  0 266932960
[17]  B10 1f 45   -484.0 4092001.2  1.0  1.0  5  0 266932957
[18]  B19 1f 37    793.6 4091997.9  1.0  1.0  5  0 266932994
[19]  B28 1f 45    618.1 4091998.4  1.0  1.0  5  0 266933007
$GNGGA,000000.000,,,,,0,00,,,M,,,,0000*2B
$GNRMC,000000.000,A,,,,,,,000000,,*26
$GPGSA,A,1,,,,,,,,,,,,,,,*1E
$BDGSA,A,1,,,,,,,,,,,,,,,*0F
$GPGSV,2,1,08,04,00,000,43,07,00,000,44,09,00,000,43,16,00,000,47*7C
$GPGSV,2,2,08,21,00,000,36,23,00,000,45,26,00,000,42,27,00,000,44*70
$BDGSV,1,1,04,07,00,000,44,10,00,000,45,19,00,000,37,28,00,000,45*6C
$LOGTIM,0,0.000000,0.000000,0.000000,0.000000,0.000*0A
EndT:        0
---00000031--- Acq_st=3 2019-5-22 02:08:51 
[00]  G04  f 43  -2692.6 2046003.5  1.0  1.0  5  0 266948002
[01]  G07  f 45  -3577.2 2046004.6  1.0  1.0  5  0 266947999
[02]  G09  f 43  -1700.8 2046002.2  1.0  1.0  5  0 266948006
[03]  G16  f 47    819.7 2045998.9  1.0  1.0  5  0 266948012
[04]  G21  f 37    930.6 2045998.8  1.0  0.9  5  0 266948000
[05]  G23  f 45    113.7 2045999.9  1.0  1.0  5  0 266948010
[06]  G26  f 42   1522.7 2045998.0  1.0  1.0  5  0 266948008
[07]  G27  f 43   -724.5 2046000.9  1.0  1.0  5  0 266948015
[16]  B07 1f 45   -442.7 4092001.2  1.0  1.0  5  0 266933960
[17]  B10 1f 45   -483.6 4092001.3  1.0  1.0  5  0 266933957
[18]  B19 1f 38    793.7 4091997.9  1.0  1.0  5  0 266933994
[19]  B28 1f 45    618.7 4091998.4  1.0  1.0  5  0 266934007
$GNGGA,000000.000,,,,,0,00,,,M,,,,0000*2B
$GNRMC,000000.000,A,,,,,,,000000,,*26
$GPGSA,A,1,,,,,,,,,,,,,,,*1E
$BDGSA,A,1,,,,,,,,,,,,,,,*0F
$GPGSV,2,1,08,04,00,000,43,07,00,000,45,09,00,000,43,16,00,000,47*7D
$GPGSV,2,2,08,21,00,000,37,23,00,000,45,26,00,000,42,27,00,000,43*76
$BDGSV,1,1,04,07,00,000,45,10,00,000,45,19,00,000,38,28,00,000,45*62
$LOGTIM,0,0.000000,0.000000,0.000000,0.000000,0.000*0A
EndT:        0
---00000032--- Acq_st=3 2019-5-22 02:08:52 
[00]  G04  f 43  -2688.7 2046003.5  1.0  1.0  5  0 266949002
[01]  G07  f 46  -3573.7 2046004.6  1.0  1.0  5  0 266948999
[02]  G09  f 43  -1696.5 2046002.2  1.0  1.0  5  0 266949006
[03]  G16  f 47    823.5 2045998.9  1.0  1.0  5  0 266949012
[04]  G21  f 36    934.9 2045998.8  1.0  0.9  5  0 266949000
[05]  G23  f 45    117.8 2045999.8  1.0  1.0  5  0 266949010
[06]  G26  f 42   1526.3 2045998.0  1.0  1.0  5  0 266949008
[07]  G27  f 44   -720.6 2046001.0  1.0  1.0  5  0 266949015
[16]  B07 1f 44   -439.3 4092001.1  1.0  1.0  5  0 266934960
[17]  B10 1f 44   -480.2 4092001.2  1.0  1.0  5  0 266934957
[18]  B19 1f 39    797.3 4091997.9  1.0  1.0  5  0 266934994
[19]  B28 1f 45    622.9 4091998.4  1.0  1.0  5  0 266935007
$GNGGA,000000.000,,,,,0,00,,,M,,,,0000*2B
$GNRMC,000000.000,A,,,,,,,000000,,*26
$GPGSA,A,1,,,,,,,,,,,,,,,*1E
$BDGSA,A,1,,,,,,,,,,,,,,,*0F
$GPGSV,2,1,08,04,00,000,43,07,00,000,46,09,00,000,43,16,00,000,47*7E
$GPGSV,2,2,08,21,00,000,36,23,00,000,45,26,00,000,42,27,00,000,44*70
$BDGSV,1,1,04,07,00,000,44,10,00,000,44,19,00,000,39,28,00,000,45*63
$LOGTIM,0,0.000000,0.000000,0.000000,0.000000,0.000*0A
EndT:        0
---00000033--- Acq_st=3 2019-5-22 02:08:53 
[00]  G04  f 44  -2691.0 2046003.5  1.0  1.0  5  0 266950002
[01]  G07  f 45  -3576.5 2046004.6  1.0  1.0  5  0 266949999
[02]  G09  f 43  -1698.7 2046002.2  1.0  1.0  5  0 266950006
[03]  G16  f 47    820.8 2045998.9  1.0  1.0  5  0 266950012
[04]  G21  f 36    932.4 2045998.8  1.0  1.0  5  0 266950000
[05]  G23  f 44    115.5 2045999.8  1.0  1.0  5  0 266950010
[06]  G26  f 42   1523.8 2045998.0  1.0  1.0  5  0 266950008
[07]  G27  f 43   -722.4 2046001.0  1.0  1.0  5  0 266950015
[16]  B07 1f 44   -441.7 4092001.2  1.0  1.0  5  0 266935960
[17]  B10 1f 45   -482.9 4092001.2  1.0  1.0  5  0 266935957
[18]  B19 1f 39    794.8 4091997.9  1.0  1.0  5  0 266935994
[19]  B28 1f 45    620.9 4091998.4  1.0  1.0  5  0 266936007
$GNGGA,000000.000,,,,,0,00,,,M,,,,0000*2B
$GNRMC,000000.000,A,,,,,,,000000,,*26
$GPGSA,A,1,,,,,,,,,,,,,,,*1E
$BDGSA,A,1,,,,,,,,,,,,,,,*0F
$GPGSV,2,1,08,04,00,000,44,07,00,000,45,09,00,000,43,16,00,000,47*7A
$GPGSV,2,2,08,21,00,000,36,23,00,000,44,26,00,000,42,27,00,000,43*76
$BDGSV,1,1,04,07,00,000,44,10,00,000,45,19,00,000,39,28,00,000,45*62
$LOGTIM,0,0.000000,0.000000,0.000000,0.000000,0.000*0A
EndT:        0
---00000034--- Acq_st=3 2019-5-22 02:08:54 
[00]  G04  f 43  -2694.2 2046003.5  1.0  1.0  5  0 266951002
[01]  G07  f 45  -3580.1 2046004.6  1.0  1.0  5  0 266950999
[02]  G09  f 43  -1701.3 2046002.2  1.0  1.0  5  0 266951006
[03]  G16  f 46    817.5 2045998.9  1.0  1.0  5  0 266951012
[04]  G21  f 36    930.2 2045998.8  1.0  1.0  5  0 266951000
[05]  G23  f 44    113.2 2045999.8  1.0  1.0  5  0 266951010
[06]  G26  f 43   1520.7 2045998.0  1.0  1.0  5  0 266951008
[07]  G27  f 43   -725.0 2046000.9  1.0  1.0  5  0 266951015
[16]  B07 1f 44   -445.5 4092001.1  1.0  1.0  5  0 266936960
[17]  B10 1f 45   -486.6 4092001.3  1.0  1.0  5  0 266936957
[18]  B19 1f 39    792.1 4091997.9  1.0  1.0  5  0 266936994
[19]  B28 1f 45    617.8 4091998.4  1.0  1.0  5  0 266937007
lsq: nits= 4
$GNGGA,020854.082,3112.7100,N,12136.4331,E,1,05,2.2,58.6,M,,,,0000*2B
$GNRMC,020854.082,A,3112.7100,N,12136.4331,E,0.12,0.00,220519,,*17
$GPGSA,A,3,07,09,16,21,23,,,,,,,,3.1,2.2,2.2*3B
$BDGSA,A,3,,,,,,,,,,,,,3.1,2.2,2.2*21
$GPGSV,2,1,08,04,00,000,43,07,00,000,45,09,00,000,43,16,00,000,46*7C
$GPGSV,2,2,08,21,00,000,36,23,00,000,44,26,00,000,43,27,00,000,43*77
$BDGSV,1,1,04,07,00,000,44,10,00,000,45,19,00,000,39,28,00,000,45*62
$LOGTIM,1,9023505.538027,0.000000,0.000000,0.000000,-63.602*14
EndT:        1
---00000035--- Acq_st=7 2019-5-22 02:08:54 
[00]  G04  f 44  -2692.9 2046003.5  1.0  1.0  5 3f 266952002
[01]  G07  f 46  -3579.3 2046004.6  1.0  1.0  5  0 266951999
[02]  G09  f 43  -1700.0 2046002.2  1.0  1.0  5  0 266952006
[03]  G16  f 46    818.7 2045998.9  1.0  1.0  5  0 266952012
[04]  G21  f 35    930.6 2045998.8  1.0  1.0  5  0 266952000
[05]  G23  f 44    114.6 2045999.9  1.0  1.0  5  0 266952010
[06]  G26  f 43   1521.3 2045998.0  1.0  1.0  5  0 266952008
[07]  G27  f 44   -723.8 2046000.9  1.0  1.0  5  0 266952015
[16]  B07 1f 44   -444.6 4092001.2  1.0  1.0  5  0 266937960
[17]  B10 1f 44   -485.5 4092001.2  1.0  1.0  5  0 266937957
[18]  B19 1f 39    793.4 4091997.9  1.0  1.0  5  0 266937994
[19]  B28 1f 45    619.1 4091998.4  1.0  1.0  5  0 266938007
lsq: nits= 2
$GNGGA,020856.000,3112.7089,N,12136.4334,E,1,05,2.2,61.4,M,,,,0000*2E
$GNRMC,020856.000,A,3112.7089,N,12136.4334,E,0.19,0.00,220519,,*11
$GPGSA,A,3,07,09,16,21,23,,,,,,,,3.1,2.2,2.2*3B
$BDGSA,A,3,,,,,,,,,,,,,3.1,2.2,2.2*21
$GPGSV,2,1,08,04,00,000,44,07,00,000,46,09,00,000,43,16,00,000,46*78
$GPGSV,2,2,08,21,00,000,35,23,00,000,44,26,00,000,43,27,00,000,44*73
$BDGSV,1,1,04,07,00,000,44,10,00,000,44,19,00,000,39,28,00,000,45*63
$LOGTIM,1,-120.817998,0.000000,0.000000,0.000000,-62.712*3E
EndT:        2
---00000036--- Acq_st=7 2019-5-22 02:08:56 
[00]  G04  f 43  -2688.4 2046003.5  1.0  1.0  5 3f 266953919
[01]  G07  f 45  -3575.1 2046004.6  1.0  1.0  5  0 266953916
[02]  G09  f 43  -1695.4 2046002.2  1.0  1.0  5  0 266953923
[03]  G16  f 46    822.9 2045998.9  1.0  1.0  5  0 266953930
[04]  G21  f 35    934.7 2045998.8  1.0  0.9  5  0 266953918
[05]  G23  f 44    119.2 2045999.8  1.0  1.0  5  0 266953927
[06]  G26  f 43   1525.4 2045998.0  1.0  1.0  5  0 266953925
[07]  G27  f 44   -718.8 2046001.0  1.0  1.0  5  0 266953933
[16]  B07 1f 44   -440.7 4092001.1  1.0  1.0  5  0 266939878
[17]  B10 1f 44   -481.6 4092001.3  1.0  1.0  5  0 266939874
[18]  B19 1f 39    797.6 4091997.9  1.0  1.0  5  0 266939911
[19]  B28 1f 45    623.6 4091998.3  1.0  1.0  5  0 266939925
lsq: nits= 2
$GNGGA,020857.000,3112.7085,N,12136.4337,E,1,05,2.2,61.6,M,,,,0000*22
$GNRMC,020857.000,A,3112.7085,N,12136.4337,E,0.06,0.00,220519,,*11
$GPGSA,A,3,07,09,16,21,23,,,,,,,,3.1,2.2,2.2*3B
$BDGSA,A,3,,,,,,,,,,,,,3.1,2.2,2.2*21
$GPGSV,2,1,08,04,00,000,43,07,10,313,45,09,28,300,43,16,54,018,46*7D
$GPGSV,2,2,08,21,16,056,35,23,45,259,44,26,00,000,43,27,00,000,44*78
$BDGSV,1,1,04,07,00,000,44,10,00,000,44,19,00,000,39,28,00,000,45*63
$LOGTIM,1,-184.216602,0.000000,0.000000,0.000000,-62.866*3B
EndT:        2
---00000037--- Acq_st=7 2019-5-22 02:08:57 
[00]  G04  f 44  -2689.0 2046003.5  1.0  1.0  5 3f 266954919
[01]  G07  f 46  -3576.5 2046004.6  1.0  1.0  5  0 266954916
[02]  G09  f 42  -1695.6 2046002.2  1.0  1.0  5  0 266954923
[03]  G16  f 46    822.1 2045998.9  1.0  1.0  5  0 266954930
[04]  G21  f 36    934.1 2045998.7  1.0  1.0  5  0 266954918
[05]  G23  f 43    118.8 2045999.9  1.0  1.0  5  0 266954927
[06]  G26  f 43   1524.3 2045998.0  1.0  1.0  5  0 266954925
[07]  G27  f 44   -719.5 2046001.0  1.0  1.0  5  0 266954933
[16]  B07 1f 44   -441.6 4092001.2  1.0  1.0  5  0 266940878
[17]  B10 1f 45   -483.0 4092001.2  1.0  1.0  5  0 266940874
[18]  B19 1f 39    796.5 4091997.9  1.0  1.0  5  0 266940911
[19]  B28 1f 45    623.0 4091998.3  1.0  1.0  5  0 266940925
lsq: nits= 2
$GNGGA,020858.000,3112.7084,N,12136.4337,E,1,05,2.2,61.8,M,,,,0000*22
$GNRMC,020858.000,A,3112.7084,N,12136.4337,E,0.08,0.00,220519,,*11
$GPGSA,A,3,07,09,16,21,23,,,,,,,,3.1,2.2,2.2*3B
$BDGSA,A,3,,,,,,,,,,,,,3.1,2.2,2.2*21
$GPGSV,2,1,08,04,00,000,44,07,10,313,46,09,28,300,42,16,54,018,46*78
$GPGSV,2,2,08,21,16,056,36,23,45,259,43,26,00,000,43,27,00,000,44*7C
$BDGSV,1,1,04,07,00,000,44,10,00,000,45,19,00,000,39,28,00,000,45*62
$LOGTIM,1,-247.411154,0.000000,0.000000,0.000000,-62.877*32
EndT:        2
---00000038--- Acq_st=3 2019-5-22 02:08:58 
[00]  G04  f 44  -2688.5 2046003.5  1.0  1.0  5 3f 266955919
[01]  G07  f 45  -3576.2 2046004.7  1.0  1.0  5  0 266955916
[02]  G09  f 41  -1694.8 2046002.2  1.0  1.0  5  0 266955923
[03]  G16  f 46    822.5 2045998.9  1.0  1.0  5  0 266955930
[04]  G21  f 36    935.5 2045998.8  1.0  1.0  5  0 266955918
[05]  G23  f 43    119.5 2045999.9  1.0  1.0  5  0 266955927
[06]  G26  f 43   1524.6 2045998.0  1.0  1.0  5  0 266955925
[07]  G27  f 43   -718.4 2046000.9  1.0  1.0  5  0 266955933
[16]  B07 1f 44   -441.7 4092001.1  1.0  1.0  5  0 266941878
[17]  B10 1f 44   -482.7 4092001.2  1.0  1.0  5  0 266941874
[18]  B19 1f 39    796.8 4091997.9  1.0  0.9  5  0 266941911
[19]  B28 1f 45    623.7 4091998.3  1.0  1.0  5  0 266941925
lsq: nits= 2
$GNGGA,020859.000,3112.7084,N,12136.4335,E,1,05,2.2,62.6,M,,,,0000*2C
$GNRMC,020859.000,A,3112.7084,N,12136.4335,E,0.24,0.00,220519,,*1C
$GPGSA,A,3,07,09,16,21,23,,,,,,,,3.1,2.2,2.2*3B
$BDGSA,A,3,,,,,,,,,,,,,3.1,2.2,2.2*21
$GPGSV,2,1,08,04,00,000,44,07,10,313,45,09,28,300,41,16,54,018,46*78
$GPGSV,2,2,08,21,16,056,36,23,45,259,43,26,00,000,43,27,00,000,43*7B
$BDGSV,1,1,04,07,00,000,44,10,00,000,44,19,00,000,39,28,00,000,45*63
$LOGTIM,1,-310.761219,0.000000,0.000000,0.000000,-63.289*35
EndT:        2
---00000039--- Acq_st=3 2019-5-22 02:08:0 
[00]  G04  f 43  -2691.6 2046003.5  1.0  1.0  5 3f 266956919
[01]  G07  f 45  -3579.9 2046004.7  1.0  1.0  5  0 266956916
[02]  G09  f 42  -1697.7 2046002.2  1.0  1.0  5  0 266956923
[03]  G16  f 47    819.0 2045998.9  1.0  1.0  5  0 266956930
[04]  G21  f 36    932.0 2045998.8  1.0  1.0  5  0 266956918
[05]  G23  f 44    116.6 2045999.9  1.0  1.0  5  0 266956927
[06]  G26  f 44   1521.2 2045998.0  1.0  1.0  5  0 266956925
[07]  G27  f 43   -721.3 2046000.9  1.0  1.0  5  0 266956933
[16]  B07 1f 44   -445.1 4092001.2  1.0  1.0  5  0 266942878
[17]  B10 1f 44   -486.1 4092001.3  1.0  1.0  5  0 266942874
[18]  B19 1f 39    794.0 4091998.0  1.0  1.0  5  0 266942911
[19]  B28 1f 46    620.7 4091998.4  1.0  1.0  5  0 266942925
lsq: nits= 2
$GNGGA,020900.000,3112.7084,N,12136.4331,E,1,05,2.2,63.8,M,,,,0000*2A
$GNRMC,020900.000,A,3112.7084,N,12136.4331,E,0.31,0.00,220519,,*11
$GPGSA,A,3,07,09,16,21,23,,,,,,,,3.1,2.2,2.2*3B
$BDGSA,A,3,,,,,,,,,,,,,3.1,2.2,2.2*21
$GPGSV,2,1,08,04,00,000,43,07,10,313,45,09,28,300,42,16,54,018,47*7D
$GPGSV,2,2,08,21,16,056,36,23,45,259,44,26,00,000,44,27,00,000,43*7B
$BDGSV,1,1,04,07,00,000,44,10,00,000,44,19,00,000,39,28,00,000,46*60
$LOGTIM,1,-374.123270,0.000000,0.000000,0.000000,-63.467*3E
EndT:        2
---00000040--- Acq_st=3 2019-5-22 02:09:0 
[00]  G04  f 44  -2691.8 2046003.5  1.0  1.0  5 3f 266957919
[01]  G07  f 45  -3580.7 2046004.6  1.0  1.0  5  0 266957916
[02]  G09  f 42  -1698.1 2046002.1  1.0  1.0  5  0 266957923
[03]  G16  f 46    818.3 2045999.0  1.0  1.0  5  0 266957930
[04]  G21  f 36    932.0 2045998.8  1.0  1.0  5  0 266957918
[05]  G23  f 44    116.3 2045999.9  1.0  1.0  5  0 266957927
[06]  G26  f 44   1520.4 2045998.0  1.0  1.0  5  0 266957925
[07]  G27  f 43   -721.3 2046001.0  1.0  1.0  5  0 266957933
[16]  B07 1f 45   -446.0 4092001.1  1.0  1.0  5  0 266943878
[17]  B10 1f 44   -487.0 4092001.2  1.0  1.0  5  0 266943874
[18]  B19 1f 38    793.8 4091998.0  1.0  1.0  5  0 266943911
[19]  B28 1f 46    620.6 4091998.3  1.0  1.0  5  0 266943925
lsq: nits= 2
$GNGGA,020901.000,3112.7098,N,12136.4322,E,1,07,2.0,61.8,M,,,,0000*26
$GNRMC,020901.000,A,3112.7098,N,12136.4322,E,0.27,0.00,220519,,*18
$GPGSA,A,3,07,09,16,21,23,26,27,,,,,,2.9,2.0,2.1*32
$BDGSA,A,3,,,,,,,,,,,,,2.9,2.0,2.1*29
$GPGSV,2,1,08,04,00,000,44,07,10,313,45,09,28,300,42,16,54,018,46*7B
$GPGSV,2,2,08,21,16,056,36,23,45,259,44,26,00,000,44,27,00,000,43*7B
$BDGSV,1,1,04,07,00,000,45,10,00,000,44,19,00,000,38,28,00,000,46*60
$LOGTIM,1,-436.723066,0.000000,0.000000,0.000000,-63.539*36
EndT:        3
---00000041--- Acq_st=3 2019-5-22 02:09:1 
[00]  G04  f 43  -2691.1 2046003.5  1.0  1.0  5 3f 266958919
[01]  G07  f 45  -3580.8 2046004.6  1.0  1.0  5  0 266958916
[02]  G09  f 42  -1697.5 2046002.2  1.0  1.0  5  0 266958923
[03]  G16  f 46    818.5 2045998.9  1.0  1.0  5  0 266958930
[04]  G21  f 36    932.9 2045998.8  1.0  1.0  5  0 266958918
[05]  G23  f 44    117.3 2045999.9  1.0  1.0  5  0 266958927
[06]  G26  f 43   1520.7 2045998.0  1.0  1.0  5  0 266958925
[07]  G27  f 43   -720.6 2046001.0  1.0  1.0  5  0 266958933
[16]  B07 1f 44   -446.0 4092001.1  1.0  1.0  5  0 266944878
[17]  B10 1f 45   -486.9 4092001.3  1.0  1.0  5  0 266944874
[18]  B19 1f 38    794.1 4091997.9  1.0  1.0  5  0 266944911
[19]  B28 1f 46    621.3 4091998.3  1.0  1.0  5  0 266944925
lsq: nits= 2
$GNGGA,020902.000,3112.7104,N,12136.4318,E,1,07,2.0,60.9,M,,,,0000*28
$GNRMC,020902.000,A,3112.7104,N,12136.4318,E,0.03,0.00,220519,,*10
$GPGSA,A,3,07,09,16,21,23,26,27,,,,,,2.9,2.0,2.1*32
$BDGSA,A,3,,,,,,,,,,,,,2.9,2.0,2.1*29
$GPGSV,2,1,08,04,00,000,43,07,10,313,45,09,28,300,42,16,54,018,46*7C
$GPGSV,2,2,08,21,16,056,36,23,45,259,44,26,37,055,43,27,84,192,43*7E
$BDGSV,1,1,04,07,00,000,44,10,00,000,45,19,00,000,38,28,00,000,46*60
$LOGTIM,1,-499.639170,0.000000,0.000000,0.000000,-63.160*37
EndT:        3
---00000042--- Acq_st=3 2019-5-22 02:09:2 
[00]  G04  f 44  -2687.6 2046003.5  1.0  1.0  5 3f 266959919
[01]  G07  f 45  -3577.7 2046004.6  1.0  1.0  5  0 266959916
[02]  G09  f 43  -1693.5 2046002.2  1.0  1.0  5  0 266959923
[03]  G16  f 46    821.9 2045998.9  1.0  1.0  5  0 266959930
[04]  G21  f 36    935.6 2045998.8  1.0  1.0  5  0 266959918
[05]  G23  f 44    121.0 2045999.9  1.0  1.0  5  0 266959927
[06]  G26  f 43   1524.1 2045998.0  1.0  1.0  5  0 266959925
[07]  G27  f 43   -716.8 2046000.9  1.0  1.0  5  0 266959933
[16]  B07 1f 44   -442.7 4092001.2  1.0  1.0  5  0 266945878
[17]  B10 1f 44   -483.8 4092001.3  1.0  1.0  5  0 266945874
[18]  B19 1f 38    797.4 4091997.8  1.0  1.0  5  0 266945911
[19]  B28 1f 46    624.7 4091998.3  1.0  1.0  5  0 266945925
lsq: nits= 2
$GNGGA,020903.000,3112.7107,N,12136.4318,E,1,07,2.0,59.8,M,,,,0000*21
$GNRMC,020903.000,A,3112.7107,N,12136.4318,E,0.19,0.00,220519,,*19
$GPGSA,A,3,07,09,16,21,23,26,27,,,,,,2.9,2.0,2.1*32
$BDGSA,A,3,,,,,,,,,,,,,2.9,2.0,2.1*29
$GPGSV,2,1,08,04,00,000,44,07,10,313,45,09,28,300,43,16,54,018,46*7A
$GPGSV,2,2,08,21,16,056,36,23,45,259,44,26,37,055,43,27,84,192,43*7E
$BDGSV,1,1,04,07,00,000,44,10,00,000,44,19,00,000,38,28,00,000,46*61
$LOGTIM,1,-563.040533,0.000000,0.000000,0.000000,-63.369*33
EndT:        3
---00000043--- Acq_st=3 2019-5-22 02:09:3 
[00]  G04  f 44  -2689.0 2046003.5  1.0  1.0  5 3f 266960919
[01]  G07  f 46  -3579.8 2046004.6  1.0  1.0  5  0 266960916
[02]  G09  f 43  -1694.9 2046002.2  1.0  1.0  5  0 266960923
[03]  G16  f 46    820.0 2045998.9  1.0  1.0  5  0 266960930
[04]  G21  f 35    934.3 2045998.8  1.0  1.0  5  0 266960918
[05]  G23  f 43    119.3 2045999.8  1.0  1.0  5  0 266960927
[06]  G26  f 43   1521.7 2045998.0  1.0  1.0  5  0 266960925
[07]  G27  f 43   -718.7 2046000.9  1.0  1.0  5  0 266960933
[16]  B07 1f 44   -444.8 4092001.1  1.0  1.0  5  0 266946878
[17]  B10 1f 44   -486.2 4092001.3  1.0  1.0  5  0 266946874
[18]  B19 1f 37    796.0 4091997.9  1.0  1.0  5  0 266946911
[19]  B28 1f 46    623.4 4091998.3  1.0  1.0  5  0 266946925
lsq: nits= 2
$GNGGA,020904.000,3112.7103,N,12136.4317,E,1,07,2.0,59.1,M,,,,0000*24
$GNRMC,020904.000,A,3112.7103,N,12136.4317,E,0.10,0.00,220519,,*1C
$GPGSA,A,3,07,09,16,21,23,26,27,,,,,,2.9,2.0,2.1*32
$BDGSA,A,3,,,,,,,,,,,,,2.9,2.0,2.1*29
$GPGSV,2,1,08,04,00,000,44,07,10,313,46,09,28,300,43,16,54,018,46*79
$GPGSV,2,2,08,21,16,056,36,23,45,259,43,26,37,055,43,27,84,192,43*79
$BDGSV,1,1,04,07,00,000,44,10,00,000,44,19,00,000,37,28,00,000,46*6E
$LOGTIM,1,-627.039553,0.000000,0.000000,0.000000,-63.545*30
EndT:        3
---00000044--- Acq_st=3 2019-5-22 02:09:4 
[00]  G04  f 44  -2689.8 2046003.5  1.0  1.0  5 3f 266961919
[01]  G07  f 45  -3580.8 2046004.7  1.0  1.0  5  0 266961916
[02]  G09  f 42  -1695.6 2046002.2  1.0  1.0  5  0 266961923
[03]  G16  f 46    819.4 2045998.9  1.0  1.0  5  0 266961930
[04]  G21  f 36    934.4 2045998.8  1.0  1.0  5  0 266961918
[05]  G23  f 44    119.2 2045999.9  1.0  1.0  5  0 266961927
[06]  G26  f 44   1520.9 2045998.0  1.0  1.0  5  0 266961925
[07]  G27  f 43   -718.6 2046000.9  1.0  1.0  5  0 266961933
[16]  B07 1f 44   -445.9 4092001.2  1.0  1.0  5  0 266947878
[17]  B10 1f 44   -486.9 4092001.3  1.0  1.0  5  0 266947874
[18]  B19 1f 37    795.4 4091997.9  1.0  1.0  5  0 266947911
[19]  B28 1f 46    623.1 4091998.4  1.0  1.0  5  0 266947925
lsq: nits= 2
$GNGGA,020905.000,3112.7105,N,12136.4317,E,1,07,2.0,57.3,M,,,,0000*2F
$GNRMC,020905.000,A,3112.7105,N,12136.4317,E,0.16,0.00,220519,,*1D
$GPGSA,A,3,07,09,16,21,23,26,27,,,,,,2.9,2.0,2.1*32
$BDGSA,A,3,,,,,,,,,,,,,2.9,2.0,2.1*29
$GPGSV,2,1,08,04,00,000,44,07,10,313,45,09,28,300,42,16,54,018,46*7B
$GPGSV,2,2,08,21,16,056,36,23,45,259,44,26,37,055,44,27,84,192,43*79
$BDGSV,1,1,04,07,00,000,44,10,00,000,44,19,00,000,37,28,00,000,46*6E
$LOGTIM,1,-691.319570,0.000000,0.000000,0.000000,-63.750*3B
EndT:        3
---00000045--- Acq_st=3 2019-5-22 02:09:5 
[00]  G04  f 44  -2690.0 2046003.5  1.0  1.0  5 3f 266962919
[01]  G07  f 46  -3582.1 2046004.7  1.0  1.0  5  0 266962916
[02]  G09  f 42  -1696.3 2046002.2  1.0  1.0  5  0 266962923
[03]  G16  f 46    818.1 2045998.9  1.0  1.0  5  0 266962930
[04]  G21  f 35    933.1 2045998.8  1.0  1.0  5  0 266962918
[05]  G23  f 43    118.5 2045999.9  1.0  1.0  5  0 266962927
[06]  G26  f 43   1520.2 2045998.0  1.0  1.0  5  0 266962925
[07]  G27  f 44   -718.9 2046000.9  1.0  1.0  5  0 266962933
[16]  B07 1f 44   -447.0 4092001.2  1.0  1.0  5  0 266948878
[17]  B10 1f 45   -488.1 4092001.3  1.0  1.0  5  0 266948874
[18]  B19 1f 37    795.1 4091998.0  1.0  1.0  5  0 266948911
[19]  B28 1f 46    622.4 4091998.3  1.0  1.0  5  0 266948925
lsq: nits= 2
$GNGGA,020906.000,3112.7098,N,12136.4315,E,1,07,2.0,57.2,M,,,,0000*2A
$GNRMC,020906.000,A,3112.7098,N,12136.4315,E,0.24,0.00,220519,,*18
$GPGSA,A,3,07,09,16,21,23,26,27,,,,,,2.9,2.0,2.1*32
$BDGSA,A,3,,,,,,,,,,,,,2.9,2.0,2.1*29
$GPGSV,2,1,08,04,00,000,44,07,10,313,46,09,28,300,42,16,54,018,46*78
$GPGSV,2,2,08,21,16,056,35,23,45,259,43,26,37,055,43,27,84,192,44*7D
$BDGSV,1,1,04,07,00,000,44,10,00,000,45,19,00,000,37,28,00,000,46*6F
$LOGTIM,1,-755.720602,0.000000,0.000000,0.000000,-63.493*36
EndT:        3
---00000046--- Acq_st=3 2019-5-22 02:09:6 
[00]  G04  f 44  -2686.8 2046003.5  1.0  1.0  5 3f 266963919
[01]  G07  f 46  -3579.0 2046004.7  1.0  1.0  5  0 266963916
[02]  G09  f 42  -1692.7 2046002.2  1.0  1.0  5  0 266963923
[03]  G16  f 46    821.7 2045998.9  1.0  1.0  5  0 266963930
[04]  G21  f 36    936.3 2045998.8  1.0  1.0  5  0 266963918
[05]  G23  f 44    122.2 2045999.8  1.0  1.0  5  0 266963927
[06]  G26  f 43   1523.1 2045998.0  1.0  1.0  5  0 266963925
[07]  G27  f 43   -715.6 2046000.9  1.0  1.0  5  0 266963933
[16]  B07 1f 44   -444.1 4092001.1  1.0  1.0  5  0 266949878
[17]  B10 1f 44   -485.3 4092001.3  1.0  1.0  5  0 266949874
[18]  B19 1f 36    797.8 4091997.9  1.0  1.0  5  0 266949911
[19]  B28 1f 47    626.0 4091998.3  1.0  1.0  5  0 266949925
lsq: nits= 2
$GNGGA,020907.000,3112.7097,N,12136.4316,E,1,07,2.0,56.2,M,,,,0000*26
$GNRMC,020907.000,A,3112.7097,N,12136.4316,E,0.67,0.00,220519,,*12
$GPGSA,A,3,07,09,16,21,23,26,27,,,,,,2.9,2.0,2.1*32
$BDGSA,A,3,,,,,,,,,,,,,2.9,2.0,2.1*29
$GPGSV,2,1,08,04,00,000,44,07,10,313,46,09,28,300,42,16,54,018,46*78
$GPGSV,2,2,08,21,16,056,36,23,45,259,44,26,37,055,43,27,84,192,43*7E
$BDGSV,1,1,04,07,00,000,44,10,00,000,44,19,00,000,36,28,00,000,47*6E
$LOGTIM,1,-819.213730,0.000000,0.000000,0.000000,-62.836*36
EndT:        3
---00000047--- Acq_st=7 2019-5-22 02:09:7 
[00]  G04  f 44  -2681.6 2046003.5  1.0  1.0  5 3f 266964919
[01]  G07  f 45  -3574.5 2046004.7  1.0  1.0  5  0 266964916
[02]  G09  f 42  -1687.2 2046002.2  1.0  1.0  5  0 266964923
[03]  G16  f 46    826.5 2045998.9  1.0  1.0  5  0 266964930
[04]  G21  f 35    942.1 2045998.8  1.0  0.9  5  0 266964918
[05]  G23  f 43    127.5 2045999.9  1.0  1.0  5  0 266964927
[06]  G26  f 43   1527.9 2045998.1  1.0  1.0  5  0 266964925
[07]  G27  f 44   -710.0 2046000.9  1.0  1.0  5  0 266964933
[16]  B07 1f 44   -439.3 4092001.1  1.0  1.0  5  0 266950878
[17]  B10 1f 44   -480.3 4092001.3  1.0  1.0  5  0 266950874
[18]  B19 1f 36    803.5 4091997.9  1.0  1.0  5  0 266950911
[19]  B28 1f 46    631.5 4091998.3  1.0  1.0  5  0 266950925
lsq: nits= 2
$GNGGA,020908.000,3112.7094,N,12136.4317,E,1,07,2.0,55.5,M,,,,0000*2F
$GNRMC,020908.000,A,3112.7094,N,12136.4317,E,0.74,0.00,220519,,*1D
$GPGSA,A,3,07,09,16,21,23,26,27,,,,,,2.9,2.0,2.1*32
$BDGSA,A,3,,,,,,,,,,,,,2.9,2.0,2.1*29
$GPGSV,2,1,08,04,00,000,44,07,10,313,45,09,28,300,42,16,54,018,46*7B
$GPGSV,2,2,08,21,16,056,35,23,45,259,43,26,37,055,43,27,84,192,44*7D
$BDGSV,1,1,04,07,00,000,44,10,00,000,44,19,00,000,36,28,00,000,46*6F
$LOGTIM,1,-882.392948,0.000000,0.000000,0.000000,-62.490*3D
EndT:        3
---00000048--- Acq_st=7 2019-5-22 02:09:8 
[00]  G04  f 43  -2679.2 2046003.5  1.0  1.0  5 3f 266965919
[01]  G07  f 45  -3572.7 2046004.6  1.0  1.0  5  0 266965916
[02]  G09  f 42  -1684.9 2046002.2  1.0  1.0  5  0 266965923
[03]  G16  f 46    828.3 2045998.9  1.0  1.0  5  0 266965930
[04]  G21  f 35    943.4 2045998.8  1.0  0.9  5  0 266965918
[05]  G23  f 43    129.7 2045999.8  1.0  1.0  5  0 266965927
[06]  G26  f 43   1529.7 2045998.0  1.0  1.0  5  0 266965925
[07]  G27  f 44   -707.8 2046000.9  1.0  1.0  5  0 266965933
[16]  B07 1f 45   -437.7 4092001.1  1.0  1.0  5  0 266951878
[17]  B10 1f 45   -478.9 4092001.2  1.0  1.0  5  0 266951874
[18]  B19 1f 36    804.5 4091997.9  1.0  1.0  5  0 266951911
[19]  B28 1f 47    633.3 4091998.3  1.0  1.0  5  0 266951925
lsq: nits= 2
$GNGGA,020909.000,3112.7090,N,12136.4319,E,1,07,2.0,54.2,M,,,,0000*22
$GNRMC,020909.000,A,3112.7090,N,12136.4319,E,0.45,0.00,220519,,*14
$GPGSA,A,3,07,09,16,21,23,26,27,,,,,,2.9,2.0,2.1*32
$BDGSA,A,3,,,,,,,,,,,,,2.9,2.0,2.1*29
$GPGSV,2,1,08,04,00,000,43,07,10,313,45,09,28,300,42,16,54,018,46*7C
$GPGSV,2,2,08,21,16,056,35,23,45,259,43,26,37,055,43,27,84,192,44*7D
$BDGSV,1,1,04,07,00,000,45,10,00,000,45,19,00,000,36,28,00,000,47*6E
$LOGTIM,1,-946.385921,0.000000,0.000000,0.000000,-62.768*39
EndT:        3
---00000049--- Acq_st=7 2019-5-22 02:09:9 
[00]  G04  f 43  -2681.9 2046003.5  1.0  1.0  5 3f 266966919
[01]  G07  f 46  -3576.0 2046004.7  1.0  1.0  5  0 266966916
[02]  G09  f 43  -1687.0 2046002.2  1.0  1.0  5  0 266966923
[03]  G16  f 46    825.7 2045998.9  1.0  1.0  5  0 266966930
[04]  G21  f 36    941.7 2045998.8  1.0  1.0  5  0 266966918
[05]  G23  f 43    127.6 2045999.8  1.0  1.0  5  0 266966927
[06]  G26  f 44   1527.0 2045998.0  1.0  1.0  5  0 266966925
[07]  G27  f 44   -710.0 2046000.9  1.0  1.0  5  0 266966933
[16]  B07 1f 44   -440.9 4092001.2  1.0  1.0  5  0 266952878
[17]  B10 1f 45   -482.0 4092001.3  1.0  1.0  5  0 266952874
[18]  B19 1f 36    801.5 4091997.9  1.0  1.0  5  0 266952911
[19]  B28 1f 47    630.6 4091998.3  1.0  1.0  5  0 266952925
lsq: nits= 2
$GNGGA,020910.000,3112.7087,N,12136.4321,E,1,07,2.0,52.8,M,,,,0000*2B
$GNRMC,020910.000,A,3112.7087,N,12136.4321,E,0.04,0.00,220519,,*14
$GPGSA,A,3,07,09,16,21,23,26,27,,,,,,2.9,2.0,2.1*32
$BDGSA,A,3,,,,,,,,,,,,,2.9,2.0,2.1*29
$GPGSV,2,1,08,04,00,000,43,07,10,313,46,09,28,300,43,16,54,018,46*7E
$GPGSV,2,2,08,21,16,056,36,23,45,259,43,26,37,055,44,27,84,192,44*79
$BDGSV,1,1,04,07,00,000,44,10,00,000,45,19,00,000,36,28,00,000,47*6F
$LOGTIM,1,-1011.011145,0.000000,0.000000,0.000000,-63.416*0C
EndT:        3
---00000050--- Acq_st=3 2019-5-22 02:09:10 
