FlashID=0x1 0x20 0x18
BBram_blkflag1: 44c0: bb3f
FW Ver: 1.30  
GPS00 Init Dop:   5000, 40
GPS01 Init Dop:   5000, 40
GPS02 Init Dop:   5000, 40
GPS03 Init Dop:   5000, 40
GPS04 Init Dop:   5000, 40
GPS05 Init Dop:   5000, 40
GPS06 Init Dop:   5000, 40
GPS07 Init Dop:   5000, 40
GPS08 Init Dop:   5000, 40
GPS09 Init Dop:   5000, 40
GPS10 Init Dop:   5000, 40
GPS11 Init Dop:   5000, 40
GPS12 Init Dop:   5000, 40
GPS13 Init Dop:   5000, 40
GPS14 Init Dop:   5000, 40
GPS15 Init Dop:   5000, 40
GPS16 Init Dop:   5000, 40
GPS17 Init Dop:   5000, 40
GPS18 Init Dop:   5000, 40
GPS19 Init Dop:   5000, 40
GPS20 Init Dop:   5000, 40
GPS21 Init Dop:   5000, 40
GPS22 Init Dop:   5000, 40
GPS23 Init Dop:   5000, 40
GPS24 Init Dop:   5000, 40
GPS25 Init Dop:   5000, 40
GPS26 Init Dop:   5000, 40
GPS27 Init Dop:   5000, 40
GPS28 Init Dop:   5000, 40
GPS29 Init Dop:   5000, 40
GPS30 Init Dop:   5000, 40
GPS31 Init Dop:   5000, 40
BDS00 Init Dop:   5000, 40
BDS01 Init Dop:   5000, 40
BDS02 Init Dop:   5000, 40
BDS03 Init Dop:   5000, 40
BDS04 Init Dop:   5000, 40
BDS05 Init Dop:   5000, 40
BDS06 Init Dop:   5000, 40
BDS07 Init Dop:   5000, 40
BDS08 Init Dop:   5000, 40
BDS09 Init Dop:   5000, 40
BDS10 Init Dop:   5000, 40
BDS11 Init Dop:   5000, 40
BDS12 Init Dop:   5000, 40
BDS13 Init Dop:   5000, 40
BDS14 Init Dop:   5000, 40
BDS15 Init Dop:   5000, 40
BDS16 Init Dop:   5000, 40
BDS17 Init Dop:   5000, 40
BDS18 Init Dop:   5000, 40
BDS19 Init Dop:   5000, 40
BDS20 Init Dop:   5000, 40
BDS21 Init Dop:   5000, 40
BDS22 Init Dop:   5000, 40
BDS23 Init Dop:   5000, 40
BDS24 Init Dop:   5000, 40
BDS25 Init Dop:   5000, 40
BDS26 Init Dop:   5000, 40
BDS27 Init Dop:   5000, 40
BDS28 Init Dop:   5000, 40
BDS29 Init Dop:   5000, 40
BDS30 Init Dop:   5000, 40
BDS31 Init Dop:   5000, 40
---00000001--- Acq_st=3 2019-5-25 07:21:15 
$GNGGA,000000.000,,,,,0,00,,,M,,,,0000*2B
$GNRMC,000000.000,A,,,,,,,000000,,*26
$GPGSA,A,1,,,,,,,,,,,,,,,*1E
$BDGSA,A,1,,,,,,,,,,,,,,,*0F
$LOGTIM,0,0.000000,0.000000,0.000000,0.000000,0.000*0A
EndT:        0
ch0 satid=0,max_freq = -2750,max_mean = 19490,max_phase = 1399,max_value = 129222,acq ok1!
acq ok1 timeH = 0,timeL = 11788934,freq_stage = 4
---00000002--- Acq_st=3 2019-5-25 07:21:16 
[00]  G01  1 18   2362.8 2045997.6  0.1  0.0  1  0         0
$GNGGA,000000.000,,,,,0,00,,,M,,,,0000*2B
$GNRMC,000000.000,A,,,,,,,000000,,*26
$GPGSA,A,1,,,,,,,,,,,,,,,*1E
$BDGSA,A,1,,,,,,,,,,,,,,,*0F
$LOGTIM,0,0.000000,0.000000,0.000000,0.000000,0.000*0A
EndT:        0
---00000003--- Acq_st=3 2019-5-25 07:21:17 
[00]  G01  7 31   2350.2 2045996.8 -0.1  1.0  5  0        19
$GNGGA,000000.000,,,,,0,00,,,M,,,,0000*2B
$GNRMC,000000.000,A,,,,,,,000000,,*26
$GPGSA,A,1,,,,,,,,,,,,,,,*1E
$BDGSA,A,1,,,,,,,,,,,,,,,*0F
$GPGSV,1,1,01,01,00,000,31*4B
$LOGTIM,0,0.000000,0.000000,0.000000,0.000000,0.000*0A
EndT:        0
---00000004--- Acq_st=3 2019-5-25 07:21:18 
[00]  G01  7 38   2349.9 2045996.9  1.0  1.0  5  0         5
$GNGGA,000000.000,,,,,0,00,,,M,,,,0000*2B
$GNRMC,000000.000,A,,,,,,,000000,,*26
$GPGSA,A,1,,,,,,,,,,,,,,,*1E
$BDGSA,A,1,,,,,,,,,,,,,,,*0F
$GPGSV,1,1,01,01,00,000,38*42
$LOGTIM,0,0.000000,0.000000,0.000000,0.000000,0.000*0A
EndT:        0
---00000005--- Acq_st=3 2019-5-25 07:21:19 
[00]  G01  f 38   2351.3 2045996.9  1.0  1.0  5  0         5
$GNGGA,000000.000,,,,,0,00,,,M,,,,0000*2B
$GNRMC,000000.000,A,,,,,,,000000,,*26
$GPGSA,A,1,,,,,,,,,,,,,,,*1E
$BDGSA,A,1,,,,,,,,,,,,,,,*0F
$GPGSV,1,1,01,01,00,000,38*42
$LOGTIM,0,0.000000,0.000000,0.000000,0.000000,0.000*0A
EndT:        0
---00000006--- Acq_st=3 2019-5-25 07:21:20 
[00]  G01  f 38   2348.6 2045997.0  1.0  1.0  5  0 544897685
$GNGGA,000000.000,,,,,0,00,,,M,,,,0000*2B
$GNRMC,000000.000,A,,,,,,,000000,,*26
$GPGSA,A,1,,,,,,,,,,,,,,,*1E
$BDGSA,A,1,,,,,,,,,,,,,,,*0F
$GPGSV,1,1,01,01,00,000,38*42
$LOGTIM,0,0.000000,0.000000,0.000000,0.000000,0.000*0A
EndT:        0
---00000007--- Acq_st=3 2019-5-25 07:21:21 
[00]  G01  f 38   2346.3 2045996.9  1.0  1.0  5  0 544898685
$GNGGA,000000.000,,,,,0,00,,,M,,,,0000*2B
$GNRMC,000000.000,A,,,,,,,000000,,*26
$GPGSA,A,1,,,,,,,,,,,,,,,*1E
$BDGSA,A,1,,,,,,,,,,,,,,,*0F
$GPGSV,1,1,01,01,00,000,38*42
$LOGTIM,0,0.000000,0.000000,0.000000,0.000000,0.000*0A
EndT:        0
---00000008--- Acq_st=3 2019-5-25 07:21:22 
[00]  G01  f 38   2338.9 2045996.9  1.0  1.0  5  0 544899685
$GNGGA,000000.000,,,,,0,00,,,M,,,,0000*2B
$GNRMC,000000.000,A,,,,,,,000000,,*26
$GPGSA,A,1,,,,,,,,,,,,,,,*1E
$BDGSA,A,1,,,,,,,,,,,,,,,*0F
$GPGSV,1,1,01,01,00,000,38*42
$LOGTIM,0,0.000000,0.000000,0.000000,0.000000,0.000*0A
EndT:        0
---00000009--- Acq_st=3 2019-5-25 07:21:23 
[00]  G01  f 38   2335.3 2045996.9  1.0  1.0  5  0 544900685
$GNGGA,000000.000,,,,,0,00,,,M,,,,0000*2B
$GNRMC,000000.000,A,,,,,,,000000,,*26
$GPGSA,A,1,,,,,,,,,,,,,,,*1E
$BDGSA,A,1,,,,,,,,,,,,,,,*0F
$GPGSV,1,1,01,01,00,000,38*42
$LOGTIM,0,0.000000,0.000000,0.000000,0.000000,0.000*0A
EndT:        0
---00000010--- Acq_st=3 2019-5-25 07:21:24 
[00]  G01  f 38   2338.5 2045996.9  1.0  1.0  5  0 544901685
$GNGGA,000000.000,,,,,0,00,,,M,,,,0000*2B
$GNRMC,000000.000,A,,,,,,,000000,,*26
$GPGSA,A,1,,,,,,,,,,,,,,,*1E
$BDGSA,A,1,,,,,,,,,,,,,,,*0F
$GPGSV,1,1,01,01,00,000,38*42
$LOGTIM,0,0.000000,0.000000,0.000000,0.000000,0.000*0A
EndT:        0
---00000011--- Acq_st=3 2019-5-25 07:21:25 
[00]  G01  f 38   2341.0 2045997.0  1.0  1.0  5  0 544902685
$GNGGA,000000.000,,,,,0,00,,,M,,,,0000*2B
$GNRMC,000000.000,A,,,,,,,000000,,*26
$GPGSA,A,1,,,,,,,,,,,,,,,*1E
$BDGSA,A,1,,,,,,,,,,,,,,,*0F
$GPGSV,1,1,01,01,00,000,38*42
$LOGTIM,0,0.000000,0.000000,0.000000,0.000000,0.000*0A
EndT:        0
---00000012--- Acq_st=3 2019-5-25 07:21:26 
[00]  G01  f 38   2335.9 2045997.0  1.0  1.0  5  0 544903685
$GNGGA,000000.000,,,,,0,00,,,M,,,,0000*2B
$GNRMC,000000.000,A,,,,,,,000000,,*26
$GPGSA,A,1,,,,,,,,,,,,,,,*1E
$BDGSA,A,1,,,,,,,,,,,,,,,*0F
$GPGSV,1,1,01,01,00,000,38*42
$LOGTIM,0,0.000000,0.000000,0.000000,0.000000,0.000*0A
EndT:        0
---00000013--- Acq_st=3 2019-5-25 07:21:27 
[00]  G01  f 37   2333.8 2045997.0  1.0  1.0  5  0 544904685
$GNGGA,000000.000,,,,,0,00,,,M,,,,0000*2B
$GNRMC,000000.000,A,,,,,,,000000,,*26
$GPGSA,A,1,,,,,,,,,,,,,,,*1E
$BDGSA,A,1,,,,,,,,,,,,,,,*0F
$GPGSV,1,1,01,01,00,000,37*4D
$LOGTIM,0,0.000000,0.000000,0.000000,0.000000,0.000*0A
EndT:        0
---00000014--- Acq_st=3 2019-5-25 07:21:28 
[00]  G01  f 37   2333.4 2045996.9  1.0  0.9  5  0 544905685
$GNGGA,000000.000,,,,,0,00,,,M,,,,0000*2B
$GNRMC,000000.000,A,,,,,,,000000,,*26
$GPGSA,A,1,,,,,,,,,,,,,,,*1E
$BDGSA,A,1,,,,,,,,,,,,,,,*0F
$GPGSV,1,1,01,01,00,000,37*4D
$LOGTIM,0,0.000000,0.000000,0.000000,0.000000,0.000*0A
EndT:        0
---00000015--- Acq_st=3 2019-5-25 07:21:29 
[00]  G01  f 37   2334.6 2045997.0  1.0  1.0  5  0 544906685
$GNGGA,000000.000,,,,,0,00,,,M,,,,0000*2B
$GNRMC,000000.000,A,,,,,,,000000,,*26
$GPGSA,A,1,,,,,,,,,,,,,,,*1E
$BDGSA,A,1,,,,,,,,,,,,,,,*0F
$GPGSV,1,1,01,01,00,000,37*4D
$LOGTIM,0,0.000000,0.000000,0.000000,0.000000,0.000*0A
EndT:        0
---00000016--- Acq_st=3 2019-5-25 07:21:30 
[00]  G01  f 37   2336.0 2045996.9  1.0  1.0  5  0 544907685
$GNGGA,000000.000,,,,,0,00,,,M,,,,0000*2B
$GNRMC,000000.000,A,,,,,,,000000,,*26
$GPGSA,A,1,,,,,,,,,,,,,,,*1E
$BDGSA,A,1,,,,,,,,,,,,,,,*0F
$GPGSV,1,1,01,01,00,000,37*4D
$LOGTIM,0,0.000000,0.000000,0.000000,0.000000,0.000*0A
EndT:        0
---00000017--- Acq_st=3 2019-5-25 07:21:31 
[00]  G01  f 37   2337.7 2045997.0  1.0  0.9  5  0 544908685
$GNGGA,000000.000,,,,,0,00,,,M,,,,0000*2B
$GNRMC,000000.000,A,,,,,,,000000,,*26
$GPGSA,A,1,,,,,,,,,,,,,,,*1E
$BDGSA,A,1,,,,,,,,,,,,,,,*0F
$GPGSV,1,1,01,01,00,000,37*4D
$LOGTIM,0,0.000000,0.000000,0.000000,0.000000,0.000*0A
EndT:        0
---00000018--- Acq_st=3 2019-5-25 07:21:32 
[00]  G01  f 37   2342.6 2045997.0  1.0  0.9  5  0 544909685
$GNGGA,000000.000,,,,,0,00,,,M,,,,0000*2B
$GNRMC,000000.000,A,,,,,,,000000,,*26
$GPGSA,A,1,,,,,,,,,,,,,,,*1E
$BDGSA,A,1,,,,,,,,,,,,,,,*0F
$GPGSV,1,1,01,01,00,000,37*4D
$LOGTIM,0,0.000000,0.000000,0.000000,0.000000,0.000*0A
EndT:        0
ch1 satid=17,max_freq = -4500,max_mean = 20283,max_phase = 165,max_value = 342632,acq ok1!
acq ok1 timeH = 0,timeL = 346152208,freq_stage = 5
---00000019--- Acq_st=3 2019-5-25 07:21:33 
[00]  G01  f 37   2342.2 2045996.9  1.0  0.9  5  0 544910685
[01]  G18  1  7   4493.2 2045995.3  0.0  0.0  1  0         0
$GNGGA,000000.000,,,,,0,00,,,M,,,,0000*2B
$GNRMC,000000.000,A,,,,,,,000000,,*26
$GPGSA,A,1,,,,,,,,,,,,,,,*1E
$BDGSA,A,1,,,,,,,,,,,,,,,*0F
$GPGSV,1,1,01,01,00,000,37*4D
$LOGTIM,0,0.000000,0.000000,0.000000,0.000000,0.000*0A
EndT:        0
ch2 satid=18,max_freq = 1500,max_mean = 20441,max_phase = 2027,max_value = 88621,acq ok1!
acq ok1 timeH = 0,timeL = 353939701,freq_stage = 2
---00000020--- Acq_st=3 2019-5-25 07:21:34 
[00]  G01  f 36   2341.1 2045997.0  1.0  1.0  5  0 544911685
[01]  G18  1  7   4346.4 2045995.1 -0.2  0.0  1  0         7
[02]  G19  1  7  -1555.1 2046000.9 -0.1  0.0  1  0         0
$GNGGA,000000.000,,,,,0,00,,,M,,,,0000*2B
$GNRMC,000000.000,A,,,,,,,000000,,*26
$GPGSA,A,1,,,,,,,,,,,,,,,*1E
$BDGSA,A,1,,,,,,,,,,,,,,,*0F
$GPGSV,1,1,01,01,00,000,36*4C
$LOGTIM,0,0.000000,0.000000,0.000000,0.000000,0.000*0A
EndT:        0
---00000021--- Acq_st=3 2019-5-25 07:21:35 
[00]  G01  f 36   2343.6 2045997.0  1.0  1.0  5  0 544912685
[01]  G18  1 13   4226.8 2045994.8  0.2  0.0  1  0         7
[02]  G19  1  7  -1588.2 2046000.9  0.1  0.0  1  0        15
$GNGGA,000000.000,,,,,0,00,,,M,,,,0000*2B
$GNRMC,000000.000,A,,,,,,,000000,,*26
$GPGSA,A,1,,,,,,,,,,,,,,,*1E
$BDGSA,A,1,,,,,,,,,,,,,,,*0F
$GPGSV,1,1,01,01,00,000,36*4C
$LOGTIM,0,0.000000,0.000000,0.000000,0.000000,0.000*0A
EndT:        0
---00000022--- Acq_st=3 2019-5-25 07:21:36 
[00]  G01  f 36   2347.5 2045997.0  1.0  0.9  5  0 544913685
[02]  G19  1 12  -1803.3 2046000.7 -0.1  0.0  1  0        15
$GNGGA,000000.000,,,,,0,00,,,M,,,,0000*2B
$GNRMC,000000.000,A,,,,,,,000000,,*26
$GPGSA,A,1,,,,,,,,,,,,,,,*1E
$BDGSA,A,1,,,,,,,,,,,,,,,*0F
$GPGSV,1,1,01,01,00,000,36*4C
$LOGTIM,0,0.000000,0.000000,0.000000,0.000000,0.000*0A
EndT:        0
ch3 satid=21,max_freq = -750,max_mean = 19929,max_phase = 352,max_value = 469630,acq ok1!
acq ok1 timeH = 0,timeL = 416143698,freq_stage = 3
---00000023--- Acq_st=3 2019-5-25 07:21:37 
[00]  G01  f 36   2345.8 2045997.0  1.0  0.9  5  0 544914685
[03]  G22  1 20    625.5 2045999.1  0.1  0.0  1  0         0
$GNGGA,000000.000,,,,,0,00,,,M,,,,0000*2B
$GNRMC,000000.000,A,,,,,,,000000,,*26
$GPGSA,A,1,,,,,,,,,,,,,,,*1E
$BDGSA,A,1,,,,,,,,,,,,,,,*0F
$GPGSV,1,1,01,01,00,000,36*4C
$LOGTIM,0,0.000000,0.000000,0.000000,0.000000,0.000*0A
EndT:        0
---00000024--- Acq_st=3 2019-5-25 07:21:38 
[00]  G01  f 36   2347.9 2045997.0  1.0  0.9  5  0 544915685
[03]  G22  7 26    627.5 2045999.1  0.5  0.0 20  0        17
$GNGGA,000000.000,,,,,0,00,,,M,,,,0000*2B
$GNRMC,000000.000,A,,,,,,,000000,,*26
$GPGSA,A,1,,,,,,,,,,,,,,,*1E
$BDGSA,A,1,,,,,,,,,,,,,,,*0F
$GPGSV,1,1,02,01,00,000,36,22,00,000,26*7B
$LOGTIM,0,0.000000,0.000000,0.000000,0.000000,0.000*0A
EndT:        0
---00000025--- Acq_st=3 2019-5-25 07:21:39 
[00]  G01  f 38   2348.7 2045996.9  1.0  1.1  5  0 544916685
[03]  G22  7 42    629.0 2045999.2  1.0  1.0  5  0         4
$GNGGA,000000.000,,,,,0,00,,,M,,,,0000*2B
$GNRMC,000000.000,A,,,,,,,000000,,*26
$GPGSA,A,1,,,,,,,,,,,,,,,*1E
$BDGSA,A,1,,,,,,,,,,,,,,,*0F
$GPGSV,1,1,02,01,00,000,38,22,00,000,42*77
$LOGTIM,0,0.000000,0.000000,0.000000,0.000000,0.000*0A
EndT:        0
---00000026--- Acq_st=3 2019-5-25 07:21:40 
[00]  G01  f 37   2345.3 2045997.0  1.0  0.9  5  0 544917685
[03]  G22  7 42    627.0 2045999.2  1.0  1.0  5  0         4
$GNGGA,000000.000,,,,,0,00,,,M,,,,0000*2B
$GNRMC,000000.000,A,,,,,,,000000,,*26
$GPGSA,A,1,,,,,,,,,,,,,,,*1E
$BDGSA,A,1,,,,,,,,,,,,,,,*0F
$GPGSV,1,1,02,01,00,000,37,22,00,000,42*78
$LOGTIM,0,0.000000,0.000000,0.000000,0.000000,0.000*0A
EndT:        0
---00000027--- Acq_st=3 2019-5-25 07:21:41 
[00]  G01  f 37   2348.0 2045997.0  1.0  1.0  5  0 544918685
[03]  G22  7 42    629.0 2045999.2  1.0  1.0  5  0         4
$GNGGA,000000.000,,,,,0,00,,,M,,,,0000*2B
$GNRMC,000000.000,A,,,,,,,000000,,*26
$GPGSA,A,1,,,,,,,,,,,,,,,*1E
$BDGSA,A,1,,,,,,,,,,,,,,,*0F
$GPGSV,1,1,02,01,00,000,37,22,00,000,42*78
$LOGTIM,0,0.000000,0.000000,0.000000,0.000000,0.000*0A
EndT:        0
---00000028--- Acq_st=3 2019-5-25 07:21:42 
[00]  G01  f 37   2350.7 2045997.0  1.0  1.0  5  0 544919685
[03]  G22  7 42    632.3 2045999.2  1.0  1.0  5  0         4
$GNGGA,000000.000,,,,,0,00,,,M,,,,0000*2B
$GNRMC,000000.000,A,,,,,,,000000,,*26
$GPGSA,A,1,,,,,,,,,,,,,,,*1E
$BDGSA,A,1,,,,,,,,,,,,,,,*0F
$GPGSV,1,1,02,01,00,000,37,22,00,000,42*78
$LOGTIM,0,0.000000,0.000000,0.000000,0.000000,0.000*0A
EndT:        0
---00000029--- Acq_st=3 2019-5-25 07:21:43 
[00]  G01  f 38   2347.8 2045996.9  1.0  1.0  5  0 544920685
[03]  G22  f 42    629.6 2045999.2  1.0  1.0  5  0         4
$GNGGA,000000.000,,,,,0,00,,,M,,,,0000*2B
$GNRMC,000000.000,A,,,,,,,000000,,*26
$GPGSA,A,1,,,,,,,,,,,,,,,*1E
$BDGSA,A,1,,,,,,,,,,,,,,,*0F
$GPGSV,1,1,02,01,00,000,38,22,00,000,42*77
$LOGTIM,0,0.000000,0.000000,0.000000,0.000000,0.000*0A
EndT:        0
---00000030--- Acq_st=3 2019-5-25 07:21:44 
[00]  G01  f 38   2346.6 2045996.9  1.0  1.0  5  0 544921685
[03]  G22  f 42    629.3 2045999.2  1.0  1.0  5  0 544921684
$GNGGA,000000.000,,,,,0,00,,,M,,,,0000*2B
$GNRMC,000000.000,A,,,,,,,000000,,*26
$GPGSA,A,1,,,,,,,,,,,,,,,*1E
$BDGSA,A,1,,,,,,,,,,,,,,,*0F
$GPGSV,1,1,02,01,00,000,38,22,00,000,42*77
$LOGTIM,0,0.000000,0.000000,0.000000,0.000000,0.000*0A
EndT:        0
---00000031--- Acq_st=3 2019-5-25 07:21:45 
[00]  G01  f 38   2352.2 2045997.0  1.0  1.0  5  0 544922685
[03]  G22  f 42    634.1 2045999.2  1.0  1.0  5  0 544922684
$GNGGA,000000.000,,,,,0,00,,,M,,,,0000*2B
$GNRMC,000000.000,A,,,,,,,000000,,*26
$GPGSA,A,1,,,,,,,,,,,,,,,*1E
$BDGSA,A,1,,,,,,,,,,,,,,,*0F
$GPGSV,1,1,02,01,00,000,38,22,00,000,42*77
$LOGTIM,0,0.000000,0.000000,0.000000,0.000000,0.000*0A
EndT:        0
---00000032--- Acq_st=3 2019-5-25 07:21:46 
[00]  G01  f 38   2350.6 2045996.9  1.0  1.0  5  0 544923685
[03]  G22  f 42    634.1 2045999.2  1.0  1.0  5  0 544923684
$GNGGA,000000.000,,,,,0,00,,,M,,,,0000*2B
$GNRMC,000000.000,A,,,,,,,000000,,*26
$GPGSA,A,1,,,,,,,,,,,,,,,*1E
$BDGSA,A,1,,,,,,,,,,,,,,,*0F
$GPGSV,1,1,02,01,00,000,38,22,00,000,42*77
$LOGTIM,0,0.000000,0.000000,0.000000,0.000000,0.000*0A
EndT:        0
---00000033--- Acq_st=3 2019-5-25 07:21:47 
[00]  G01  f 38   2353.9 2045996.9  1.0  1.0  5  0 544924685
[03]  G22  f 42    637.2 2045999.2  1.0  1.0  5  0 544924684
$GNGGA,000000.000,,,,,0,00,,,M,,,,0000*2B
$GNRMC,000000.000,A,,,,,,,000000,,*26
$GPGSA,A,1,,,,,,,,,,,,,,,*1E
$BDGSA,A,1,,,,,,,,,,,,,,,*0F
$GPGSV,1,1,02,01,00,000,38,22,00,000,42*77
$LOGTIM,0,0.000000,0.000000,0.000000,0.000000,0.000*0A
EndT:        0
---00000034--- Acq_st=3 2019-5-25 07:21:48 
[00]  G01  f 38   2352.6 2045997.0  1.0  1.0  5  0 544925685
[03]  G22  f 42    636.4 2045999.2  1.0  1.0  5  0 544925684
$GNGGA,000000.000,,,,,0,00,,,M,,,,0000*2B
$GNRMC,000000.000,A,,,,,,,000000,,*26
$GPGSA,A,1,,,,,,,,,,,,,,,*1E
$BDGSA,A,1,,,,,,,,,,,,,,,*0F
$GPGSV,1,1,02,01,00,000,38,22,00,000,42*77
$LOGTIM,0,0.000000,0.000000,0.000000,0.000000,0.000*0A
EndT:        0
---00000035--- Acq_st=3 2019-5-25 07:21:49 
[00]  G01  f 39   2352.6 2045997.0  1.0  1.0  5  0 544926685
[03]  G22  f 42    636.4 2045999.2  1.0  1.0  5  0 544926684
$GNGGA,000000.000,,,,,0,00,,,M,,,,0000*2B
$GNRMC,000000.000,A,,,,,,,000000,,*26
$GPGSA,A,1,,,,,,,,,,,,,,,*1E
$BDGSA,A,1,,,,,,,,,,,,,,,*0F
$GPGSV,1,1,02,01,00,000,39,22,00,000,42*76
$LOGTIM,0,0.000000,0.000000,0.000000,0.000000,0.000*0A
EndT:        0
---00000036--- Acq_st=3 2019-5-25 07:21:50 
[00]  G01  f 39   2350.8 2045996.9  1.0  1.0  5  0 544927685
[03]  G22  f 42    635.0 2045999.1  1.0  1.0  5  0 544927684
$GNGGA,000000.000,,,,,0,00,,,M,,,,0000*2B
$GNRMC,000000.000,A,,,,,,,000000,,*26
$GPGSA,A,1,,,,,,,,,,,,,,,*1E
$BDGSA,A,1,,,,,,,,,,,,,,,*0F
$GPGSV,1,1,02,01,00,000,39,22,00,000,42*76
$LOGTIM,0,0.000000,0.000000,0.000000,0.000000,0.000*0A
EndT:        0
---00000037--- Acq_st=3 2019-5-25 07:21:51 
[00]  G01  f 39   2350.5 2045997.0  1.0  1.0  5  0 544928685
[03]  G22  f 42    635.1 2045999.2  1.0  1.0  5  0 544928684
$GNGGA,000000.000,,,,,0,00,,,M,,,,0000*2B
$GNRMC,000000.000,A,,,,,,,000000,,*26
$GPGSA,A,1,,,,,,,,,,,,,,,*1E
$BDGSA,A,1,,,,,,,,,,,,,,,*0F
$GPGSV,1,1,02,01,00,000,39,22,00,000,42*76
$LOGTIM,0,0.000000,0.000000,0.000000,0.000000,0.000*0A
EndT:        0
---00000038--- Acq_st=3 2019-5-25 07:21:52 
[00]  G01  f 39   2350.5 2045997.0  1.0  1.0  5  0 544929685
[03]  G22  f 42    635.8 2045999.2  1.0  1.0  5  0 544929684
$GNGGA,000000.000,,,,,0,00,,,M,,,,0000*2B
$GNRMC,000000.000,A,,,,,,,000000,,*26
$GPGSA,A,1,,,,,,,,,,,,,,,*1E
$BDGSA,A,1,,,,,,,,,,,,,,,*0F
$GPGSV,1,1,02,01,00,000,39,22,00,000,42*76
$LOGTIM,0,0.000000,0.000000,0.000000,0.000000,0.000*0A
EndT:        0
---00000039--- Acq_st=3 2019-5-25 07:21:53 
[00]  G01  f 39   2349.3 2045996.9  1.0  1.0  5  0 544930685
[03]  G22  f 42    634.9 2045999.2  1.0  1.0  5  0 544930684
$GNGGA,000000.000,,,,,0,00,,,M,,,,0000*2B
$GNRMC,000000.000,A,,,,,,,000000,,*26
$GPGSA,A,1,,,,,,,,,,,,,,,*1E
$BDGSA,A,1,,,,,,,,,,,,,,,*0F
$GPGSV,1,1,02,01,00,000,39,22,00,000,42*76
$LOGTIM,0,0.000000,0.000000,0.000000,0.000000,0.000*0A
EndT:        0
---00000040--- Acq_st=3 2019-5-25 07:21:54 
[00]  G01  f 39   2352.5 2045996.9  1.0  1.0  5  0 544931685
[03]  G22  f 41    637.7 2045999.1  1.0  1.0  5  0 544931684
$GNGGA,000000.000,,,,,0,00,,,M,,,,0000*2B
$GNRMC,000000.000,A,,,,,,,000000,,*26
$GPGSA,A,1,,,,,,,,,,,,,,,*1E
$BDGSA,A,1,,,,,,,,,,,,,,,*0F
$GPGSV,1,1,02,01,00,000,39,22,00,000,41*75
$LOGTIM,0,0.000000,0.000000,0.000000,0.000000,0.000*0A
EndT:        0
---00000041--- Acq_st=3 2019-5-25 07:21:55 
[00]  G01  f 39   2354.0 2045997.0  1.0  1.0  5  0 544932685
[03]  G22  f 42    640.6 2045999.2  1.0  1.0  5  0 544932684
$GNGGA,000000.000,,,,,0,00,,,M,,,,0000*2B
$GNRMC,000000.000,A,,,,,,,000000,,*26
$GPGSA,A,1,,,,,,,,,,,,,,,*1E
$BDGSA,A,1,,,,,,,,,,,,,,,*0F
$GPGSV,1,1,02,01,00,000,39,22,00,000,42*76
$LOGTIM,0,0.000000,0.000000,0.000000,0.000000,0.000*0A
EndT:        0
---00000042--- Acq_st=3 2019-5-25 07:21:56 
[00]  G01  f 39   2354.9 2045997.0  1.0  1.0  5  0 544933685
[03]  G22  f 42    641.3 2045999.2  1.0  1.0  5  0 544933684
$GNGGA,000000.000,,,,,0,00,,,M,,,,0000*2B
$GNRMC,000000.000,A,,,,,,,000000,,*26
$GPGSA,A,1,,,,,,,,,,,,,,,*1E
$BDGSA,A,1,,,,,,,,,,,,,,,*0F
$GPGSV,1,1,02,01,00,000,39,22,00,000,42*76
$LOGTIM,0,0.000000,0.000000,0.000000,0.000000,0.000*0A
EndT:        0
---00000043--- Acq_st=3 2019-5-25 07:21:57 
[00]  G01  f 40   2355.1 2045996.9  1.0  1.0  5  0 544934685
[03]  G22  f 41    641.9 2045999.1  1.0  1.0  5  0 544934684
$GNGGA,000000.000,,,,,0,00,,,M,,,,0000*2B
$GNRMC,000000.000,A,,,,,,,000000,,*26
$GPGSA,A,1,,,,,,,,,,,,,,,*1E
$BDGSA,A,1,,,,,,,,,,,,,,,*0F
$GPGSV,1,1,02,01,00,000,40,22,00,000,41*7B
$LOGTIM,0,0.000000,0.000000,0.000000,0.000000,0.000*0A
EndT:        0
---00000044--- Acq_st=3 2019-5-25 07:21:58 
[00]  G01  f 39   2355.0 2045996.9  1.0  1.0  5  0 544935685
[03]  G22  f 41    642.5 2045999.1  1.0  1.0  5  0 544935684
$GNGGA,000000.000,,,,,0,00,,,M,,,,0000*2B
$GNRMC,000000.000,A,,,,,,,000000,,*26
$GPGSA,A,1,,,,,,,,,,,,,,,*1E
$BDGSA,A,1,,,,,,,,,,,,,,,*0F
$GPGSV,1,1,02,01,00,000,39,22,00,000,41*75
$LOGTIM,0,0.000000,0.000000,0.000000,0.000000,0.000*0A
EndT:        0
---00000045--- Acq_st=3 2019-5-25 07:21:59 
[00]  G01  f 39   2358.9 2045997.0  1.0  1.0  5  0 544936685
[03]  G22  f 41    646.5 2045999.2  1.0  1.0  5  0 544936684
$GNGGA,000000.000,,,,,0,00,,,M,,,,0000*2B
$GNRMC,000000.000,A,,,,,,,000000,,*26
$GPGSA,A,1,,,,,,,,,,,,,,,*1E
$BDGSA,A,1,,,,,,,,,,,,,,,*0F
$GPGSV,1,1,02,01,00,000,39,22,00,000,41*75
$LOGTIM,0,0.000000,0.000000,0.000000,0.000000,0.000*0A
EndT:        0
---00000046--- Acq_st=3 2019-5-25 07:22:0 
[00]  G01  f 38   2357.9 2045997.0  1.0  1.0  5  0 544937685
[03]  G22  f 41    646.1 2045999.2  1.0  1.0  5  0 544937684
$GNGGA,000000.000,,,,,0,00,,,M,,,,0000*2B
$GNRMC,000000.000,A,,,,,,,000000,,*26
$GPGSA,A,1,,,,,,,,,,,,,,,*1E
$BDGSA,A,1,,,,,,,,,,,,,,,*0F
$GPGSV,1,1,02,01,00,000,38,22,00,000,41*74
$LOGTIM,0,0.000000,0.000000,0.000000,0.000000,0.000*0A
EndT:        0
---00000047--- Acq_st=3 2019-5-25 07:22:1 
[00]  G01  f 39   2355.2 2045996.9  1.0  1.0  5  0 544938685
[03]  G22  f 41    643.8 2045999.2  1.0  1.0  5  0 544938684
$GNGGA,000000.000,,,,,0,00,,,M,,,,0000*2B
$GNRMC,000000.000,A,,,,,,,000000,,*26
$GPGSA,A,1,,,,,,,,,,,,,,,*1E
$BDGSA,A,1,,,,,,,,,,,,,,,*0F
$GPGSV,1,1,02,01,00,000,39,22,00,000,41*75
$LOGTIM,0,0.000000,0.000000,0.000000,0.000000,0.000*0A
EndT:        0
ch16 satid=44,max_freq = 0,max_mean = 8124,max_phase = 1451,max_value = 100689,acq ok1!
acq ok1 timeH = 0,timeL = 897136160,freq_stage = 3
---00000048--- Acq_st=3 2019-5-25 07:22:2 
[00]  G01  f 39   2352.7 2045996.9  1.0  1.0  5  0 544939685
[03]  G22  f 41    641.4 2045999.2  1.0  1.0  5  0 544939684
[16]  B08  1  7    -25.1 4092001.0  0.1  0.0  1  0         0
$GNGGA,000000.000,,,,,0,00,,,M,,,,0000*2B
$GNRMC,000000.000,A,,,,,,,000000,,*26
$GPGSA,A,1,,,,,,,,,,,,,,,*1E
$BDGSA,A,1,,,,,,,,,,,,,,,*0F
$GPGSV,1,1,02,01,00,000,39,22,00,000,41*75
$LOGTIM,0,0.000000,0.000000,0.000000,0.000000,0.000*0A
EndT:        0
---00000049--- Acq_st=3 2019-5-25 07:22:3 
[00]  G01  f 38   2353.0 2045996.9  1.0  1.0  5  0 544940685
[03]  G22  f 42    642.0 2045999.2  1.0  1.0  5  0 544940684
[16]  B08  1  7    -48.8 4092000.2  0.0  0.0  1  0       319
$GNGGA,000000.000,,,,,0,00,,,M,,,,0000*2B
$GNRMC,000000.000,A,,,,,,,000000,,*26
$GPGSA,A,1,,,,,,,,,,,,,,,*1E
$BDGSA,A,1,,,,,,,,,,,,,,,*0F
$GPGSV,1,1,02,01,00,000,38,22,00,000,42*77
$LOGTIM,0,0.000000,0.000000,0.000000,0.000000,0.000*0A
EndT:        0
---00000050--- Acq_st=3 2019-5-25 07:22:4 
[00]  G01  f 38   2353.4 2045997.0  1.0  1.0  5  0 544941685
[03]  G22  f 42    643.0 2045999.2  1.0  1.0  5  0 544941684
[16]  B08  7 37    -47.6 4092000.1  0.8  1.0  5  0      1317
$GNGGA,000000.000,,,,,0,00,,,M,,,,0000*2B
$GNRMC,000000.000,A,,,,,,,000000,,*26
$GPGSA,A,1,,,,,,,,,,,,,,,*1E
$BDGSA,A,1,,,,,,,,,,,,,,,*0F
$GPGSV,1,1,02,01,00,000,38,22,00,000,42*77
$BDGSV,1,1,01,08,00,000,37*55
$LOGTIM,0,0.000000,0.000000,0.000000,0.000000,0.000*0A
EndT:        0
---00000051--- Acq_st=3 2019-5-25 07:22:5 
[00]  G01  f 38   2358.6 2045996.9  1.0  1.0  5  0 544942685
[03]  G22  f 42    648.7 2045999.1  1.0  1.0  5  0 544942684
[16]  B08  7 40    -42.9 4092000.1  1.0  1.0  5  0      2317
$GNGGA,000000.000,,,,,0,00,,,M,,,,0000*2B
$GNRMC,000000.000,A,,,,,,,000000,,*26
$GPGSA,A,1,,,,,,,,,,,,,,,*1E
$BDGSA,A,1,,,,,,,,,,,,,,,*0F
$GPGSV,1,1,02,01,00,000,38,22,00,000,42*77
$BDGSV,1,1,01,08,00,000,40*55
$LOGTIM,0,0.000000,0.000000,0.000000,0.000000,0.000*0A
EndT:        0
ch17 satid=46,max_freq = 0,max_mean = 8162,max_phase = 2852,max_value = 132664,acq ok1!
acq ok1 timeH = 0,timeL = 970445949,freq_stage = 3
---00000052--- Acq_st=3 2019-5-25 07:22:6 
[00]  G01  f 37   2367.6 2045996.9  1.0  1.0  5  0 544943685
[03]  G22  f 42    657.7 2045999.1  1.0  1.0  5  0 544943684
[16]  B08  7 40    -34.4 4092000.1  1.0  1.0  5  0      3317
[17]  B10  1  7    -82.8 4092000.2  0.0  0.0  1  0         0
$GNGGA,000000.000,,,,,0,00,,,M,,,,0000*2B
$GNRMC,000000.000,A,,,,,,,000000,,*26
$GPGSA,A,1,,,,,,,,,,,,,,,*1E
$BDGSA,A,1,,,,,,,,,,,,,,,*0F
$GPGSV,1,1,02,01,00,000,37,22,00,000,42*78
$BDGSV,1,1,01,08,00,000,40*55
$LOGTIM,0,0.000000,0.000000,0.000000,0.000000,0.000*0A
EndT:        0
---00000053--- Acq_st=3 2019-5-25 07:22:7 
[00]  G01  f 38   2363.8 2045996.9  1.0  1.0  5  0 544944685
[03]  G22  f 42    654.6 2045999.1  1.0  1.0  5  0 544944684
[16]  B08  7 40    -38.2 4092000.1  1.0  1.0  5  0      4317
[17]  B10  7 16   -116.1 4092000.3  0.2  0.0 20  0       500
$GNGGA,000000.000,,,,,0,00,,,M,,,,0000*2B
$GNRMC,000000.000,A,,,,,,,000000,,*26
$GPGSA,A,1,,,,,,,,,,,,,,,*1E
$BDGSA,A,1,,,,,,,,,,,,,,,*0F
$GPGSV,1,1,02,01,00,000,38,22,00,000,42*77
$BDGSV,1,1,02,08,00,000,40,10,00,000,16*60
$LOGTIM,0,0.000000,0.000000,0.000000,0.000000,0.000*0A
EndT:        0
ch18 satid=47,max_freq = -1000,max_mean = 7998,max_phase = 1053,max_value = 119158,acq ok1!
acq ok1 timeH = 0,timeL = 1010764425,freq_stage = 4
---00000054--- Acq_st=3 2019-5-25 07:22:8 
[00]  G01  f 38   2364.0 2045997.0  1.0  1.0  5  0 544945685
[03]  G22  f 42    655.5 2045999.1  1.0  1.0  5  0 544945684
[16]  B08  7 40    -37.9 4092000.1  1.0  1.0  5  0      5317
[17]  B10  7 41   -115.1 4092000.3  1.0  1.0  5  0      1497
[18]  B11  1  7    903.1 4091998.1 -0.0  0.0  1  0         0
$GNGGA,000000.000,,,,,0,00,,,M,,,,0000*2B
$GNRMC,000000.000,A,,,,,,,000000,,*26
$GPGSA,A,1,,,,,,,,,,,,,,,*1E
$BDGSA,A,1,,,,,,,,,,,,,,,*0F
$GPGSV,1,1,02,01,00,000,38,22,00,000,42*77
$BDGSV,1,1,02,08,00,000,40,10,00,000,41*62
$LOGTIM,0,0.000000,0.000000,0.000000,0.000000,0.000*0A
EndT:        0
---00000055--- Acq_st=3 2019-5-25 07:22:9 
[00]  G01  f 38   2362.0 2045997.0  1.0  1.0  5  0 544946685
[03]  G22  f 42    653.4 2045999.1  1.0  1.0  5  0 544946684
[16]  B08 1f 40    -40.5 4092000.1  1.0  1.0  5  0      6317
[17]  B10 1f 40   -118.2 4092000.3  1.0  0.9  5  0      2497
[18]  B11  7 21    886.5 4091997.6  0.2  0.0 20  0       591
$GNGGA,000000.000,,,,,0,00,,,M,,,,0000*2B
$GNRMC,000000.000,A,,,,,,,000000,,*26
$GPGSA,A,1,,,,,,,,,,,,,,,*1E
$BDGSA,A,1,,,,,,,,,,,,,,,*0F
$GPGSV,1,1,02,01,00,000,38,22,00,000,42*77
$BDGSV,1,1,03,08,00,000,40,10,00,000,40,11,00,000,21*51
$LOGTIM,0,0.000000,0.000000,0.000000,0.000000,0.000*0A
EndT:        0
---00000056--- Acq_st=3 2019-5-25 07:22:10 
[00]  G01  f 38   2355.7 2045996.9  1.0  1.0  5  0 544947685
[03]  G22  f 42    647.3 2045999.2  1.0  1.0  5  0 544947684
[16]  B08 1f 40    -46.6 4092000.1  1.0  1.0  5  0 544933637
[17]  B10 1f 40   -124.3 4092000.3  1.0  1.0  5  0 544933637
[18]  B11  7 41    879.5 4091997.6  0.5  1.0  5  0      1581
$GNGGA,000000.000,,,,,0,00,,,M,,,,0000*2B
$GNRMC,000000.000,A,,,,,,,000000,,*26
$GPGSA,A,1,,,,,,,,,,,,,,,*1E
$BDGSA,A,1,,,,,,,,,,,,,,,*0F
$GPGSV,1,1,02,01,00,000,38,22,00,000,42*77
$BDGSV,1,1,03,08,00,000,40,10,00,000,40,11,00,000,41*57
$LOGTIM,0,0.000000,0.000000,0.000000,0.000000,0.000*0A
EndT:        0
---00000057--- Acq_st=3 2019-5-25 07:22:11 
[00]  G01  f 38   2353.3 2045996.9  1.0  1.0  5  0 544948685
[03]  G22  f 43    645.8 2045999.2  1.0  1.0  5  0 544948684
[16]  B08 1f 40    -49.0 4092000.1  1.0  1.0  5  0 544934637
[17]  B10 1f 40   -126.1 4092000.3  1.0  1.0  5  0 544934637
[18]  B11  7 41    877.3 4091997.7  1.0  1.0  5  0      2581
$GNGGA,000000.000,,,,,0,00,,,M,,,,0000*2B
$GNRMC,000000.000,A,,,,,,,000000,,*26
$GPGSA,A,1,,,,,,,,,,,,,,,*1E
$BDGSA,A,1,,,,,,,,,,,,,,,*0F
$GPGSV,1,1,02,01,00,000,38,22,00,000,43*76
$BDGSV,1,1,03,08,00,000,40,10,00,000,40,11,00,000,41*57
$LOGTIM,0,0.000000,0.000000,0.000000,0.000000,0.000*0A
EndT:        0
ch19 satid=49,max_freq = 500,max_mean = 8180,max_phase = 144,max_value = 227343,acq ok1!
acq ok1 timeH = 0,timeL = 1076747096,freq_stage = 3
---00000058--- Acq_st=3 2019-5-25 07:22:12 
[00]  G01  f 37   2350.4 2045997.0  1.0  1.0  5  0 544949685
[03]  G22  f 42    643.3 2045999.2  1.0  1.0  5  0 544949684
[16]  B08 1f 40    -52.3 4092000.1  1.0  1.0  5  0 544935637
[17]  B10 1f 40   -129.3 4092000.3  1.0  1.0  5  0 544935637
[18]  B11  7 41    874.2 4091997.7  1.0  1.0  5  0      3581
[19]  B13  1 26   -427.4 4092001.7 -0.0  0.0  1  0         0
$GNGGA,000000.000,,,,,0,00,,,M,,,,0000*2B
$GNRMC,000000.000,A,,,,,,,000000,,*26
$GPGSA,A,1,,,,,,,,,,,,,,,*1E
$BDGSA,A,1,,,,,,,,,,,,,,,*0F
$GPGSV,1,1,02,01,00,000,37,22,00,000,42*78
$BDGSV,1,1,03,08,00,000,40,10,00,000,40,11,00,000,41*57
$LOGTIM,0,0.000000,0.000000,0.000000,0.000000,0.000*0A
EndT:        0
---00000059--- Acq_st=3 2019-5-25 07:22:13 
[00]  G01  f 37   2349.4 2045996.9  1.0  1.0  5  0 544950685
[03]  G22  f 43    642.5 2045999.2  1.0  1.0  5  0 544950684
[16]  B08 1f 40    -53.1 4092000.1  1.0  1.0  5  0 544936637
[17]  B10 1f 40   -130.7 4092000.3  1.0  1.0  5  0 544936637
[18]  B11  7 41    872.9 4091997.7  1.0  1.0  5  0      4581
[19]  B13  7 27   -427.7 4092001.1  0.6  0.0 20  0       772
$GNGGA,000000.000,,,,,0,00,,,M,,,,0000*2B
$GNRMC,000000.000,A,,,,,,,000000,,*26
$GPGSA,A,1,,,,,,,,,,,,,,,*1E
$BDGSA,A,1,,,,,,,,,,,,,,,*0F
$GPGSV,1,1,02,01,00,000,37,22,00,000,43*79
$BDGSV,1,1,04,08,00,000,40,10,00,000,40,11,00,000,41,13,00,000,27*67
$LOGTIM,0,0.000000,0.000000,0.000000,0.000000,0.000*0A
EndT:        0
---00000060--- Acq_st=3 2019-5-25 07:22:14 
[00]  G01  f 38   2349.3 2045997.0  1.0  1.0  5  0 544951685
[03]  G22  f 42    642.6 2045999.2  1.0  1.0  5  0 544951684
[16]  B08 1f 40    -53.6 4092000.1  1.0  1.0  5  0 544937637
[17]  B10 1f 40   -130.8 4092000.3  1.0  1.0  5  0 544937637
[18]  B11  7 41    872.9 4091997.7  1.0  1.0  5  0      5581
[19]  B13  7 43   -428.1 4092001.1  1.0  1.0  5  0      1772
$GNGGA,000000.000,,,,,0,00,,,M,,,,0000*2B
$GNRMC,000000.000,A,,,,,,,000000,,*26
$GPGSA,A,1,,,,,,,,,,,,,,,*1E
$BDGSA,A,1,,,,,,,,,,,,,,,*0F
$GPGSV,1,1,02,01,00,000,38,22,00,000,42*77
$BDGSV,1,1,04,08,00,000,40,10,00,000,40,11,00,000,41,13,00,000,43*65
$LOGTIM,0,0.000000,0.000000,0.000000,0.000000,0.000*0A
EndT:        0
---00000061--- Acq_st=3 2019-5-25 07:22:15 
[00]  G01  f 37   2348.3 2045997.0  1.0  1.0  5  0 544952685
[03]  G22  f 42    641.9 2045999.1  1.0  1.0  5  0 544952684
[16]  B08 1f 40    -54.9 4092000.1  1.0  1.0  5  0 544938637
[17]  B10 1f 41   -131.2 4092000.4  1.0  1.0  5  0 544938637
[18]  B11 1f 41    871.8 4091997.7  1.0  1.0  5  0      6581
[19]  B13 1f 44   -429.1 4092001.1  1.0  1.0  5  0      2772
$GNGGA,000000.000,,,,,0,00,,,M,,,,0000*2B
$GNRMC,000000.000,A,,,,,,,000000,,*26
$GPGSA,A,1,,,,,,,,,,,,,,,*1E
$BDGSA,A,1,,,,,,,,,,,,,,,*0F
$GPGSV,1,1,02,01,00,000,37,22,00,000,42*78
$BDGSV,1,1,04,08,00,000,40,10,00,000,41,11,00,000,41,13,00,000,44*63
$LOGTIM,0,0.000000,0.000000,0.000000,0.000000,0.000*0A
EndT:        0
---00000062--- Acq_st=3 2019-5-25 07:22:16 
[00]  G01  f 36   2350.9 2045997.0  1.0  1.0  5  0 544953685
[03]  G22  f 43    644.3 2045999.2  1.0  1.0  5  0 544953684
[16]  B08 1f 40    -53.1 4092000.1  1.0  1.0  5  0 544939637
[17]  B10 1f 41   -129.2 4092000.3  1.0  1.0  5  0 544939637
[18]  B11 1f 41    873.1 4091997.7  1.0  0.9  5  0 544939681
[19]  B13 1f 44   -427.3 4092001.1  1.0  1.0  5  0 544939632
$GNGGA,000000.000,,,,,0,00,,,M,,,,0000*2B
$GNRMC,000000.000,A,,,,,,,000000,,*26
$GPGSA,A,1,,,,,,,,,,,,,,,*1E
$BDGSA,A,1,,,,,,,,,,,,,,,*0F
$GPGSV,1,1,02,01,00,000,36,22,00,000,43*78
$BDGSV,1,1,04,08,00,000,40,10,00,000,41,11,00,000,41,13,00,000,43*64
$LOGTIM,0,0.000000,0.000000,0.000000,0.000000,0.000*0A
EndT:        0
---00000063--- Acq_st=3 2019-5-25 07:22:17 
[00]  G01  f 37   2360.2 2045996.9  1.0  1.0  5  0 544954685
[03]  G22  f 43    653.8 2045999.2  1.0  1.0  5  0 544954684
[16]  B08 1f 40    -43.5 4092000.1  1.0  1.0  5  0 544940637
[17]  B10 1f 41   -120.6 4092000.3  1.0  1.0  5  0 544940637
[18]  B11 1f 41    882.2 4091997.7  1.0  1.0  5  0 544940681
[19]  B13 1f 44   -418.8 4092001.1  1.0  1.0  5  0 544940632
$GNGGA,000000.000,,,,,0,00,,,M,,,,0000*2B
$GNRMC,000000.000,A,,,,,,,000000,,*26
$GPGSA,A,1,,,,,,,,,,,,,,,*1E
$BDGSA,A,1,,,,,,,,,,,,,,,*0F
$GPGSV,1,1,02,01,00,000,37,22,00,000,43*79
$BDGSV,1,1,04,08,00,000,40,10,00,000,41,11,00,000,41,13,00,000,44*63
$LOGTIM,0,0.000000,0.000000,0.000000,0.000000,0.000*0A
EndT:        0
---00000064--- Acq_st=3 2019-5-25 07:22:18 
[00]  G01  f 37   2362.2 2045997.0  1.0  1.0  5  0 544955685
[03]  G22  f 42    656.1 2045999.2  1.0  1.0  5  0 544955684
[16]  B08 1f 40    -42.6 4092000.1  1.0  1.0  5  0 544941637
[17]  B10 1f 41   -119.2 4092000.3  1.0  1.0  5  0 544941637
[18]  B11 1f 41    883.6 4091997.6  1.0  1.0  5  0 544941681
[19]  B13 1f 43   -417.2 4092001.1  1.0  1.0  5  0 544941632
$GNGGA,000000.000,,,,,0,00,,,M,,,,0000*2B
$GNRMC,000000.000,A,,,,,,,000000,,*26
$GPGSA,A,1,,,,,,,,,,,,,,,*1E
$BDGSA,A,1,,,,,,,,,,,,,,,*0F
$GPGSV,1,1,02,01,00,000,37,22,00,000,42*78
$BDGSV,1,1,04,08,00,000,40,10,00,000,41,11,00,000,41,13,00,000,43*64
$LOGTIM,0,0.000000,0.000000,0.000000,0.000000,0.000*0A
EndT:        0
---00000065--- Acq_st=3 2019-5-25 07:22:19 
[00]  G01  f 37   2359.1 2045996.9  1.0  1.0  5  0 544956685
[03]  G22  f 42    654.4 2045999.2  1.0  1.0  5  0 544956684
[16]  B08 1f 40    -44.3 4092000.1  1.0  1.0  5  0 544942637
[17]  B10 1f 41   -120.7 4092000.3  1.0  1.0  5  0 544942637
[18]  B11 1f 41    881.6 4091997.7  1.0  1.0  5  0 544942681
[19]  B13 1f 43   -419.4 4092001.1  1.0  1.0  5  0 544942632
$GNGGA,000000.000,,,,,0,00,,,M,,,,0000*2B
$GNRMC,000000.000,A,,,,,,,000000,,*26
$GPGSA,A,1,,,,,,,,,,,,,,,*1E
$BDGSA,A,1,,,,,,,,,,,,,,,*0F
$GPGSV,1,1,02,01,00,000,37,22,00,000,42*78
$BDGSV,1,1,04,08,00,000,40,10,00,000,41,11,00,000,41,13,00,000,43*64
$LOGTIM,0,0.000000,0.000000,0.000000,0.000000,0.000*0A
EndT:        0
---00000066--- Acq_st=3 2019-5-25 07:22:20 
[00]  G01  f 36   2359.9 2045997.0  1.0  1.0  5  0 544957685
[03]  G22  f 42    655.6 2045999.2  1.0  1.0  5  0 544957684
[16]  B08 1f 40    -43.9 4092000.1  1.0  1.0  5  0 544943637
[17]  B10 1f 41   -120.3 4092000.3  1.0  1.0  5  0 544943637
[18]  B11 1f 42    882.4 4091997.7  1.0  1.0  5  0 544943681
[19]  B13 1f 44   -418.2 4092001.1  1.0  1.0  5  0 544943632
$GNGGA,000000.000,,,,,0,00,,,M,,,,0000*2B
$GNRMC,000000.000,A,,,,,,,000000,,*26
$GPGSA,A,1,,,,,,,,,,,,,,,*1E
$BDGSA,A,1,,,,,,,,,,,,,,,*0F
$GPGSV,1,1,02,01,00,000,36,22,00,000,42*79
$BDGSV,1,1,04,08,00,000,40,10,00,000,41,11,00,000,42,13,00,000,44*60
$LOGTIM,0,0.000000,0.000000,0.000000,0.000000,0.000*0A
EndT:        0
---00000067--- Acq_st=3 2019-5-25 07:22:21 
[00]  G01  f 36   2355.0 2045997.0  1.0  1.0  5  0 544958685
[03]  G22  f 42    652.0 2045999.1  1.0  1.0  5  0 544958684
[16]  B08 1f 40    -48.1 4092000.1  1.0  1.0  5  0 544944637
[17]  B10 1f 41   -124.3 4092000.4  1.0  1.0  5  0 544944637
[18]  B11 1f 42    878.1 4091997.7  1.0  1.0  5  0 544944681
[19]  B13 1f 44   -422.6 4092001.1  1.0  1.0  5  0 544944632
$GNGGA,000000.000,,,,,0,00,,,M,,,,0000*2B
$GNRMC,000000.000,A,,,,,,,000000,,*26
$GPGSA,A,1,,,,,,,,,,,,,,,*1E
$BDGSA,A,1,,,,,,,,,,,,,,,*0F
$GPGSV,1,1,02,01,00,000,36,22,00,000,42*79
$BDGSV,1,1,04,08,00,000,40,10,00,000,41,11,00,000,42,13,00,000,44*60
$LOGTIM,0,0.000000,0.000000,0.000000,0.000000,0.000*0A
EndT:        0
---00000068--- Acq_st=3 2019-5-25 07:22:22 
[00]  G01  f 36   2353.0 2045996.9  1.0  1.0  5  0 544959685
[03]  G22  f 42    648.6 2045999.2  1.0  1.0  5  0 544959684
[16]  B08 1f 40    -52.0 4092000.1  1.0  1.0  5  0 544945637
[17]  B10 1f 40   -127.9 4092000.3  1.0  1.0  5  0 544945637
[18]  B11 1f 42    874.7 4091997.7  1.0  1.0  5  0 544945681
[19]  B13 1f 44   -426.2 4092001.1  1.0  1.0  5  0 544945632
$GNGGA,000000.000,,,,,0,00,,,M,,,,0000*2B
$GNRMC,000000.000,A,,,,,,,000000,,*26
$GPGSA,A,1,,,,,,,,,,,,,,,*1E
$BDGSA,A,1,,,,,,,,,,,,,,,*0F
$GPGSV,1,1,02,01,00,000,36,22,00,000,42*79
$BDGSV,1,1,04,08,00,000,40,10,00,000,40,11,00,000,42,13,00,000,44*61
$LOGTIM,0,0.000000,0.000000,0.000000,0.000000,0.000*0A
EndT:        0
---00000069--- Acq_st=3 2019-5-25 07:22:23 
[00]  G01  f 36   2350.8 2045996.9  1.0  0.9  5  0 544960685
[03]  G22  f 42    647.5 2045999.2  1.0  1.0  5  0 544960684
[16]  B08 1f 40    -54.0 4092000.1  1.0  1.0  5  0 544946637
[17]  B10 1f 40   -129.7 4092000.3  1.0  1.0  5  0 544946637
[18]  B11 1f 42    872.7 4091997.7  1.0  1.0  5  0 544946681
[19]  B13 1f 43   -428.2 4092001.1  1.0  1.0  5  0 544946632
$GNGGA,000000.000,,,,,0,00,,,M,,,,0000*2B
$GNRMC,000000.000,A,,,,,,,000000,,*26
$GPGSA,A,1,,,,,,,,,,,,,,,*1E
$BDGSA,A,1,,,,,,,,,,,,,,,*0F
$GPGSV,1,1,02,01,00,000,36,22,00,000,42*79
$BDGSV,1,1,04,08,00,000,40,10,00,000,40,11,00,000,42,13,00,000,43*66
$LOGTIM,0,0.000000,0.000000,0.000000,0.000000,0.000*0A
EndT:        0
---00000070--- Acq_st=3 2019-5-25 07:22:24 
[00]  G01  f 37   2350.3 2045997.0  1.0  1.1  5  0 544961685
[03]  G22  f 42    647.5 2045999.2  1.0  1.0  5  0 544961684
[16]  B08 1f 40    -54.5 4092000.1  1.0  1.0  5  0 544947637
[17]  B10 1f 41   -130.0 4092000.3  1.0  1.0  5  0 544947637
[18]  B11 1f 42    872.3 4091997.7  1.0  1.0  5  0 544947681
[19]  B13 1f 44   -428.7 4092001.1  1.0  1.0  5  0 544947632
$GNGGA,000000.000,,,,,0,00,,,M,,,,0000*2B
$GNRMC,000000.000,A,,,,,,,000000,,*26
$GPGSA,A,1,,,,,,,,,,,,,,,*1E
$BDGSA,A,1,,,,,,,,,,,,,,,*0F
$GPGSV,1,1,02,01,00,000,37,22,00,000,42*78
$BDGSV,1,1,04,08,00,000,40,10,00,000,41,11,00,000,42,13,00,000,44*60
$LOGTIM,0,0.000000,0.000000,0.000000,0.000000,0.000*0A
EndT:        0
---00000071--- Acq_st=3 2019-5-25 07:22:25 
[00]  G01  f 37   2352.3 2045997.0  1.0  1.0  5  0 544962685
[03]  G22  f 42    649.6 2045999.2  1.0  1.0  5  0 544962684
[16]  B08 1f 40    -52.6 4092000.1  1.0  1.0  5  0 544948637
[17]  B10 1f 40   -127.9 4092000.4  1.0  1.0  5  0 544948637
[18]  B11 1f 42    873.6 4091997.7  1.0  1.0  5  0 544948681
[19]  B13 1f 44   -427.0 4092001.1  1.0  1.0  5  0 544948632
$GNGGA,000000.000,,,,,0,00,,,M,,,,0000*2B
$GNRMC,000000.000,A,,,,,,,000000,,*26
$GPGSA,A,1,,,,,,,,,,,,,,,*1E
$BDGSA,A,1,,,,,,,,,,,,,,,*0F
$GPGSV,1,1,02,01,00,000,37,22,00,000,42*78
$BDGSV,1,1,04,08,00,000,40,10,00,000,40,11,00,000,42,13,00,000,44*61
$LOGTIM,0,0.000000,0.000000,0.000000,0.000000,0.000*0A
EndT:        0
