FlashID=0x1 0x20 0x18
BBram_blkflag1: 3a51: c5ae
FW Ver: 1.30  
GPS00 Init Dop:   5000, 40
GPS01 Init Dop:   5000, 40
GPS02 Init Dop:   5000, 40
GPS03 Init Dop:   5000, 40
GPS04 Init Dop:   5000, 40
GPS05 Init Dop:   5000, 40
GPS06 Init Dop:   5000, 40
GPS07 Init Dop:   5000, 40
GPS08 Init Dop:   5000, 40
GPS09 Init Dop:   5000, 40
GPS10 Init Dop:   5000, 40
GPS11 Init Dop:   5000, 40
GPS12 Init Dop:   5000, 40
GPS13 Init Dop:   5000, 40
GPS14 Init Dop:   5000, 40
GPS15 Init Dop:   5000, 40
GPS16 Init Dop:   5000, 40
GPS17 Init Dop:   5000, 40
GPS18 Init Dop:   5000, 40
GPS19 Init Dop:   5000, 40
GPS20 Init Dop:   5000, 40
GPS21 Init Dop:   5000, 40
GPS22 Init Dop:   5000, 40
GPS23 Init Dop:   5000, 40
GPS24 Init Dop:   5000, 40
GPS25 Init Dop:   5000, 40
GPS26 Init Dop:   5000, 40
GPS27 Init Dop:   5000, 40
GPS28 Init Dop:   5000, 40
GPS29 Init Dop:   5000, 40
GPS30 Init Dop:   5000, 40
GPS31 Init Dop:   5000, 40
BDS00 Init Dop:   5000, 40
BDS01 Init Dop:   5000, 40
BDS02 Init Dop:   5000, 40
BDS03 Init Dop:   5000, 40
BDS04 Init Dop:   5000, 40
BDS05 Init Dop:   5000, 40
BDS06 Init Dop:   5000, 40
BDS07 Init Dop:   5000, 40
BDS08 Init Dop:   5000, 40
BDS09 Init Dop:   5000, 40
BDS10 Init Dop:   5000, 40
BDS11 Init Dop:   5000, 40
BDS12 Init Dop:   5000, 40
BDS13 Init Dop:   5000, 40
BDS14 Init Dop:   5000, 40
BDS15 Init Dop:   5000, 40
BDS16 Init Dop:   5000, 40
BDS17 Init Dop:   5000, 40
BDS18 Init Dop:   5000, 40
BDS19 Init Dop:   5000, 40
BDS20 Init Dop:   5000, 40
BDS21 Init Dop:   5000, 40
BDS22 Init Dop:   5000, 40
BDS23 Init Dop:   5000, 40
BDS24 Init Dop:   5000, 40
BDS25 Init Dop:   5000, 40
BDS26 Init Dop:   5000, 40
BDS27 Init Dop:   5000, 40
BDS28 Init Dop:   5000, 40
BDS29 Init Dop:   5000, 40
BDS30 Init Dop:   5000, 40
BDS31 Init Dop:   5000, 40
---00000001--- Acq_st=3 2019-5-25 07:19:9 
$GNGGA,000000.000,,,,,0,00,,,M,,,,0000*2B
$GNRMC,000000.000,A,,,,,,,000000,,*26
$GPGSA,A,1,,,,,,,,,,,,,,,*1E
$BDGSA,A,1,,,,,,,,,,,,,,,*0F
$LOGTIM,0,0.000000,0.000000,0.000000,0.000000,0.000*0A
EndT:        0
ch0 satid=0,max_freq = -2250,max_mean = 18647,max_phase = 1190,max_value = 263282,acq ok1!
acq ok1 timeH = 0,timeL = 11788930,freq_stage = 4
---00000002--- Acq_st=3 2019-5-25 07:19:10 
[00]  G01  1 26   2324.3 2045997.3  0.0  0.0  1  0         0
$GNGGA,000000.000,,,,,0,00,,,M,,,,0000*2B
$GNRMC,000000.000,A,,,,,,,000000,,*26
$GPGSA,A,1,,,,,,,,,,,,,,,*1E
$BDGSA,A,1,,,,,,,,,,,,,,,*0F
$LOGTIM,0,0.000000,0.000000,0.000000,0.000000,0.000*0A
EndT:        0
---00000003--- Acq_st=3 2019-5-25 07:19:11 
[00]  G01  7 31   2316.5 2045996.8  0.3  1.0  5  0        19
$GNGGA,000000.000,,,,,0,00,,,M,,,,0000*2B
$GNRMC,000000.000,A,,,,,,,000000,,*26
$GPGSA,A,1,,,,,,,,,,,,,,,*1E
$BDGSA,A,1,,,,,,,,,,,,,,,*0F
$GPGSV,1,1,01,01,00,000,31*4B
$LOGTIM,0,0.000000,0.000000,0.000000,0.000000,0.000*0A
EndT:        0
---00000004--- Acq_st=3 2019-5-25 07:19:12 
[00]  G01  7 39   2315.9 2045996.9  1.0  0.9  5  0        11
$GNGGA,000000.000,,,,,0,00,,,M,,,,0000*2B
$GNRMC,000000.000,A,,,,,,,000000,,*26
$GPGSA,A,1,,,,,,,,,,,,,,,*1E
$BDGSA,A,1,,,,,,,,,,,,,,,*0F
$GPGSV,1,1,01,01,00,000,39*43
$LOGTIM,0,0.000000,0.000000,0.000000,0.000000,0.000*0A
EndT:        0
---00000005--- Acq_st=3 2019-5-25 07:19:13 
[00]  G01  7 39   2319.6 2045997.0  1.0  1.0  5  0        11
$GNGGA,000000.000,,,,,0,00,,,M,,,,0000*2B
$GNRMC,000000.000,A,,,,,,,000000,,*26
$GPGSA,A,1,,,,,,,,,,,,,,,*1E
$BDGSA,A,1,,,,,,,,,,,,,,,*0F
$GPGSV,1,1,01,01,00,000,39*43
$LOGTIM,0,0.000000,0.000000,0.000000,0.000000,0.000*0A
EndT:        0
---00000006--- Acq_st=3 2019-5-25 07:19:14 
[00]  G01  f 40   2323.5 2045997.0  1.0  1.0  5  0        11
$GNGGA,000000.000,,,,,0,00,,,M,,,,0000*2B
$GNRMC,000000.000,A,,,,,,,000000,,*26
$GPGSA,A,1,,,,,,,,,,,,,,,*1E
$BDGSA,A,1,,,,,,,,,,,,,,,*0F
$GPGSV,1,1,01,01,00,000,40*4D
$LOGTIM,0,0.000000,0.000000,0.000000,0.000000,0.000*0A
EndT:        0
---00000007--- Acq_st=3 2019-5-25 07:19:15 
[00]  G01  f 40   2323.5 2045997.0  1.0  1.0  5  0 544772031
$GNGGA,000000.000,,,,,0,00,,,M,,,,0000*2B
$GNRMC,000000.000,A,,,,,,,000000,,*26
$GPGSA,A,1,,,,,,,,,,,,,,,*1E
$BDGSA,A,1,,,,,,,,,,,,,,,*0F
$GPGSV,1,1,01,01,00,000,40*4D
$LOGTIM,0,0.000000,0.000000,0.000000,0.000000,0.000*0A
EndT:        0
---00000008--- Acq_st=3 2019-5-25 07:19:16 
[00]  G01  f 40   2312.4 2045997.0  1.0  1.0  5  0 544773031
$GNGGA,000000.000,,,,,0,00,,,M,,,,0000*2B
$GNRMC,000000.000,A,,,,,,,000000,,*26
$GPGSA,A,1,,,,,,,,,,,,,,,*1E
$BDGSA,A,1,,,,,,,,,,,,,,,*0F
$GPGSV,1,1,01,01,00,000,40*4D
$LOGTIM,0,0.000000,0.000000,0.000000,0.000000,0.000*0A
EndT:        0
---00000009--- Acq_st=3 2019-5-25 07:19:17 
[00]  G01  f 39   2309.1 2045997.0  1.0  1.0  5  0 544774031
$GNGGA,000000.000,,,,,0,00,,,M,,,,0000*2B
$GNRMC,000000.000,A,,,,,,,000000,,*26
$GPGSA,A,1,,,,,,,,,,,,,,,*1E
$BDGSA,A,1,,,,,,,,,,,,,,,*0F
$GPGSV,1,1,01,01,00,000,39*43
$LOGTIM,0,0.000000,0.000000,0.000000,0.000000,0.000*0A
EndT:        0
---00000010--- Acq_st=3 2019-5-25 07:19:18 
[00]  G01  f 40   2313.2 2045997.0  1.0  1.0  5  0 544775031
$GNGGA,000000.000,,,,,0,00,,,M,,,,0000*2B
$GNRMC,000000.000,A,,,,,,,000000,,*26
$GPGSA,A,1,,,,,,,,,,,,,,,*1E
$BDGSA,A,1,,,,,,,,,,,,,,,*0F
$GPGSV,1,1,01,01,00,000,40*4D
$LOGTIM,0,0.000000,0.000000,0.000000,0.000000,0.000*0A
EndT:        0
---00000011--- Acq_st=3 2019-5-25 07:19:19 
[00]  G01  f 39   2316.1 2045997.0  1.0  1.0  5  0 544776031
$GNGGA,000000.000,,,,,0,00,,,M,,,,0000*2B
$GNRMC,000000.000,A,,,,,,,000000,,*26
$GPGSA,A,1,,,,,,,,,,,,,,,*1E
$BDGSA,A,1,,,,,,,,,,,,,,,*0F
$GPGSV,1,1,01,01,00,000,39*43
$LOGTIM,0,0.000000,0.000000,0.000000,0.000000,0.000*0A
EndT:        0
ch1 satid=10,max_freq = -2000,max_mean = 19797,max_phase = 870,max_value = 321322,acq ok1!
acq ok1 timeH = 0,timeL = 206188414,freq_stage = 4
---00000012--- Acq_st=3 2019-5-25 07:19:20 
[00]  G01  f 39   2316.4 2045997.0  1.0  1.0  5  0 544777031
[01]  G11  1 25   2064.5 2045998.5 -0.0  0.0  1  0         0
$GNGGA,000000.000,,,,,0,00,,,M,,,,0000*2B
$GNRMC,000000.000,A,,,,,,,000000,,*26
$GPGSA,A,1,,,,,,,,,,,,,,,*1E
$BDGSA,A,1,,,,,,,,,,,,,,,*0F
$GPGSV,1,1,01,01,00,000,39*43
$LOGTIM,0,0.000000,0.000000,0.000000,0.000000,0.000*0A
EndT:        0
---00000013--- Acq_st=3 2019-5-25 07:19:21 
[00]  G01  f 39   2314.6 2045997.0  1.0  1.0  5  0 544778031
[01]  G11  7 29   2066.3 2045997.2  0.4  1.0 10  0        15
$GNGGA,000000.000,,,,,0,00,,,M,,,,0000*2B
$GNRMC,000000.000,A,,,,,,,000000,,*26
$GPGSA,A,1,,,,,,,,,,,,,,,*1E
$BDGSA,A,1,,,,,,,,,,,,,,,*0F
$GPGSV,1,1,02,01,00,000,39,11,00,000,29*7B
$LOGTIM,0,0.000000,0.000000,0.000000,0.000000,0.000*0A
EndT:        0
---00000014--- Acq_st=3 2019-5-25 07:19:22 
[00]  G01  f 39   2311.7 2045997.0  1.0  1.0  5  0 544779031
[01]  G11  7 40   2063.3 2045997.2  1.0  1.0  5  0        10
$GNGGA,000000.000,,,,,0,00,,,M,,,,0000*2B
$GNRMC,000000.000,A,,,,,,,000000,,*26
$GPGSA,A,1,,,,,,,,,,,,,,,*1E
$BDGSA,A,1,,,,,,,,,,,,,,,*0F
$GPGSV,1,1,02,01,00,000,39,11,00,000,40*74
$LOGTIM,0,0.000000,0.000000,0.000000,0.000000,0.000*0A
EndT:        0
---00000015--- Acq_st=3 2019-5-25 07:19:23 
[00]  G01  f 39   2311.3 2045997.0  1.0  1.0  5  0 544780031
[01]  G11  7 40   2063.4 2045997.3  1.0  1.0  5  0        10
$GNGGA,000000.000,,,,,0,00,,,M,,,,0000*2B
$GNRMC,000000.000,A,,,,,,,000000,,*26
$GPGSA,A,1,,,,,,,,,,,,,,,*1E
$BDGSA,A,1,,,,,,,,,,,,,,,*0F
$GPGSV,1,1,02,01,00,000,39,11,00,000,40*74
$LOGTIM,0,0.000000,0.000000,0.000000,0.000000,0.000*0A
EndT:        0
---00000016--- Acq_st=3 2019-5-25 07:19:24 
[00]  G01  f 39   2311.9 2045997.0  1.0  1.0  5  0 544781031
[01]  G11  7 40   2063.9 2045997.3  1.0  1.0  5  0        10
$GNGGA,000000.000,,,,,0,00,,,M,,,,0000*2B
$GNRMC,000000.000,A,,,,,,,000000,,*26
$GPGSA,A,1,,,,,,,,,,,,,,,*1E
$BDGSA,A,1,,,,,,,,,,,,,,,*0F
$GPGSV,1,1,02,01,00,000,39,11,00,000,40*74
$LOGTIM,0,0.000000,0.000000,0.000000,0.000000,0.000*0A
EndT:        0
---00000017--- Acq_st=3 2019-5-25 07:19:25 
[00]  G01  f 38   2317.6 2045997.0  1.0  1.0  5  0 544782031
[01]  G11  7 40   2069.0 2045997.3  1.0  1.0  5  0        10
$GNGGA,000000.000,,,,,0,00,,,M,,,,0000*2B
$GNRMC,000000.000,A,,,,,,,000000,,*26
$GPGSA,A,1,,,,,,,,,,,,,,,*1E
$BDGSA,A,1,,,,,,,,,,,,,,,*0F
$GPGSV,1,1,02,01,00,000,38,11,00,000,40*75
$LOGTIM,0,0.000000,0.000000,0.000000,0.000000,0.000*0A
EndT:        0
ch2 satid=16,max_freq = 1750,max_mean = 20174,max_phase = 1610,max_value = 207888,acq ok1!
acq ok1 timeH = 0,timeL = 315059786,freq_stage = 2
---00000018--- Acq_st=3 2019-5-25 07:19:26 
[00]  G01  f 38   2319.9 2045997.0  1.0  1.0  5  0 544783031
[01]  G11  f 40   2071.9 2045997.3  1.0  1.0  5  0        10
[02]  G17  1 19  -1811.1 2046004.5 -0.0  0.0  1  0         0
$GNGGA,000000.000,,,,,0,00,,,M,,,,0000*2B
$GNRMC,000000.000,A,,,,,,,000000,,*26
$GPGSA,A,1,,,,,,,,,,,,,,,*1E
$BDGSA,A,1,,,,,,,,,,,,,,,*0F
$GPGSV,1,1,02,01,00,000,38,11,00,000,40*75
$LOGTIM,0,0.000000,0.000000,0.000000,0.000000,0.000*0A
EndT:        0
ch3 satid=17,max_freq = -3000,max_mean = 19901,max_phase = 1901,max_value = 378609,acq ok1!
acq ok1 timeH = 0,timeL = 346152204,freq_stage = 5
---00000019--- Acq_st=3 2019-5-25 07:19:27 
[00]  G01  f 39   2317.2 2045997.0  1.0  1.0  5  0 544784031
[01]  G11  f 40   2068.8 2045997.3  1.0  1.0  5  0 544784030
[02]  G17  7 27  -1842.1 2046002.4  0.3  0.0 10  0         0
[03]  G18  1 30   3014.9 2045995.4  0.2  0.0  1  0         0
$GNGGA,000000.000,,,,,0,00,,,M,,,,0000*2B
$GNRMC,000000.000,A,,,,,,,000000,,*26
$GPGSA,A,1,,,,,,,,,,,,,,,*1E
$BDGSA,A,1,,,,,,,,,,,,,,,*0F
$GPGSV,1,1,03,01,00,000,39,11,00,000,40,17,00,000,27*46
$LOGTIM,0,0.000000,0.000000,0.000000,0.000000,0.000*0A
EndT:        0
ch4 satid=18,max_freq = 2500,max_mean = 20063,max_phase = 602,max_value = 131459,acq ok1!
acq ok1 timeH = 0,timeL = 353939688,freq_stage = 2
---00000020--- Acq_st=3 2019-5-25 07:19:28 
[00]  G01  f 39   2311.4 2045997.0  1.0  1.0  5  0 544785031
[01]  G11  f 39   2062.8 2045997.3  1.0  1.0  5  0 544785030
[02]  G17  7 38  -1849.1 2046002.4  0.8  1.0  5  0         9
[03]  G18  7 27   3007.2 2045996.1  0.5  0.0 10  0         7
[04]  G19  1  7  -2565.9 2046005.3  0.1  0.0  1  0         0
$GNGGA,000000.000,,,,,0,00,,,M,,,,0000*2B
$GNRMC,000000.000,A,,,,,,,000000,,*26
$GPGSA,A,1,,,,,,,,,,,,,,,*1E
$BDGSA,A,1,,,,,,,,,,,,,,,*0F
$GPGSV,1,1,04,01,00,000,39,11,00,000,39,17,00,000,38,18,00,000,27*7D
$LOGTIM,0,0.000000,0.000000,0.000000,0.000000,0.000*0A
EndT:        0
---00000021--- Acq_st=3 2019-5-25 07:19:29 
[00]  G01  f 39   2309.0 2045997.0  1.0  1.0  5  0 544786031
[01]  G11  f 40   2060.7 2045997.3  1.0  1.0  5  0 544786030
[02]  G17  7 38  -1851.4 2046002.4  1.0  1.0  5  0         9
[03]  G18  7 41   3004.9 2045996.1  0.9  1.0  5  0         5
[04]  G19  7 26  -2640.4 2046003.5  0.0  0.0 20  0        14
$GNGGA,000000.000,,,,,0,00,,,M,,,,0000*2B
$GNRMC,000000.000,A,,,,,,,000000,,*26
$GPGSA,A,1,,,,,,,,,,,,,,,*1E
$BDGSA,A,1,,,,,,,,,,,,,,,*0F
$GPGSV,2,1,05,01,00,000,39,11,00,000,40,17,00,000,38,18,00,000,41*71
$GPGSV,2,2,05,19,00,000,26*40
$LOGTIM,0,0.000000,0.000000,0.000000,0.000000,0.000*0A
EndT:        0
---00000022--- Acq_st=3 2019-5-25 07:19:30 
[00]  G01  f 40   2311.2 2045997.0  1.0  1.0  5  0 544787031
[01]  G11  f 39   2063.2 2045997.3  1.0  1.0  5  0 544787030
[02]  G17  7 39  -1849.5 2046002.4  1.0  1.0  5  0         9
[03]  G18  7 41   3006.6 2045996.1  1.0  1.0  5  0         5
[04]  G19  7 36  -2637.7 2046003.4  0.8  0.9  5  0         5
$GNGGA,000000.000,,,,,0,00,,,M,,,,0000*2B
$GNRMC,000000.000,A,,,,,,,000000,,*26
$GPGSA,A,1,,,,,,,,,,,,,,,*1E
$BDGSA,A,1,,,,,,,,,,,,,,,*0F
$GPGSV,2,1,05,01,00,000,40,11,00,000,39,17,00,000,39,18,00,000,41*70
$GPGSV,2,2,05,19,00,000,36*41
$LOGTIM,0,0.000000,0.000000,0.000000,0.000000,0.000*0A
EndT:        0
ch5 satid=21,max_freq = -500,max_mean = 19755,max_phase = 431,max_value = 375198,acq ok1!
acq ok1 timeH = 0,timeL = 416143676,freq_stage = 3
---00000023--- Acq_st=3 2019-5-25 07:19:31 
[00]  G01  f 39   2315.2 2045997.0  1.0  1.0  5  0 544788031
[01]  G11  f 39   2066.4 2045997.2  1.0  1.0  5  0 544788030
[02]  G17  7 39  -1844.7 2046002.3  1.0  1.0  5  0         9
[03]  G18  7 41   3011.0 2045996.1  1.0  1.0  5  0         5
[04]  G19  7 37  -2633.2 2046003.4  1.0  1.0  5  0         5
[05]  G22  1 24    559.9 2046000.4  0.1  0.0  1  0         0
$GNGGA,000000.000,,,,,0,00,,,M,,,,0000*2B
$GNRMC,000000.000,A,,,,,,,000000,,*26
$GPGSA,A,1,,,,,,,,,,,,,,,*1E
$BDGSA,A,1,,,,,,,,,,,,,,,*0F
$GPGSV,2,1,05,01,00,000,39,11,00,000,39,17,00,000,39,18,00,000,41*7E
$GPGSV,2,2,05,19,00,000,37*40
$LOGTIM,0,0.000000,0.000000,0.000000,0.000000,0.000*0A
EndT:        0
---00000024--- Acq_st=3 2019-5-25 07:19:32 
[00]  G01  f 39   2317.6 2045997.0  1.0  0.9  5  0 544789031
[01]  G11  f 40   2068.2 2045997.3  1.0  1.0  5  0 544789030
[02]  G17  f 39  -1843.8 2046002.4  1.0  1.0  5  0         9
[03]  G18  f 42   3012.4 2045996.1  1.0  1.0  5  0         5
[04]  G19  f 37  -2632.1 2046003.4  1.0  0.9  5  0         5
[05]  G22  7 26    551.0 2045999.1  0.4  0.0 20  0        17
$GNGGA,000000.000,,,,,0,00,,,M,,,,0000*2B
$GNRMC,000000.000,A,,,,,,,000000,,*26
$GPGSA,A,1,,,,,,,,,,,,,,,*1E
$BDGSA,A,1,,,,,,,,,,,,,,,*0F
$GPGSV,2,1,06,01,00,000,39,11,00,000,40,17,00,000,39,18,00,000,42*70
$GPGSV,2,2,06,19,00,000,37,22,00,000,26*77
$LOGTIM,0,0.000000,0.000000,0.000000,0.000000,0.000*0A
EndT:        0
---00000025--- Acq_st=3 2019-5-25 07:19:33 
[00]  G01  f 39   2316.6 2045996.9  1.0  1.0  5  0 544790031
[01]  G11  f 39   2067.6 2045997.3  1.0  1.0  5  0 544790030
[02]  G17  f 38  -1845.1 2046002.4  1.0  1.0  5  0 544790029
[03]  G18  f 41   3011.1 2045996.1  1.0  1.0  5  0 544790025
[04]  G19  f 36  -2633.3 2046003.4  1.0  0.9  5  0 544790025
[05]  G22  7 41    550.7 2045999.2  1.0  1.0  5  0        10
$GNGGA,000000.000,,,,,0,00,,,M,,,,0000*2B
$GNRMC,000000.000,A,,,,,,,000000,,*26
$GPGSA,A,1,,,,,,,,,,,,,,,*1E
$BDGSA,A,1,,,,,,,,,,,,,,,*0F
$GPGSV,2,1,06,01,00,000,39,11,00,000,39,17,00,000,38,18,00,000,41*7C
$GPGSV,2,2,06,19,00,000,36,22,00,000,41*77
$LOGTIM,0,0.000000,0.000000,0.000000,0.000000,0.000*0A
EndT:        0
---00000026--- Acq_st=3 2019-5-25 07:19:34 
[00]  G01  f 39   2312.6 2045997.0  1.0  1.0  5  0 544791031
[01]  G11  f 39   2064.1 2045997.3  1.0  1.0  5  0 544791030
[02]  G17  f 39  -1848.2 2046002.4  1.0  1.0  5  0 544791029
[03]  G18  f 41   3008.0 2045996.1  1.0  1.0  5  0 544791025
[04]  G19  f 36  -2636.8 2046003.4  1.0  0.9  5  0 544791025
[05]  G22  7 41    547.8 2045999.2  1.0  1.0  5  0        10
$GNGGA,000000.000,,,,,0,00,,,M,,,,0000*2B
$GNRMC,000000.000,A,,,,,,,000000,,*26
$GPGSA,A,1,,,,,,,,,,,,,,,*1E
$BDGSA,A,1,,,,,,,,,,,,,,,*0F
$GPGSV,2,1,06,01,00,000,39,11,00,000,39,17,00,000,39,18,00,000,41*7D
$GPGSV,2,2,06,19,00,000,36,22,00,000,41*77
$LOGTIM,0,0.000000,0.000000,0.000000,0.000000,0.000*0A
EndT:        0
---00000027--- Acq_st=3 2019-5-25 07:19:35 
[00]  G01  f 39   2312.2 2045997.0  1.0  1.0  5  0 544792031
[01]  G11  f 39   2062.7 2045997.3  1.0  1.0  5  0 544792030
[02]  G17  f 39  -1849.3 2046002.4  1.0  1.0  5  0 544792029
[03]  G18  f 41   3006.2 2045996.1  1.0  1.0  5  0 544792025
[04]  G19  f 36  -2638.0 2046003.5  1.0  1.0  5  0 544792025
[05]  G22  7 41    547.0 2045999.2  1.0  1.0  5  0        10
$GNGGA,000000.000,,,,,0,00,,,M,,,,0000*2B
$GNRMC,000000.000,A,,,,,,,000000,,*26
$GPGSA,A,1,,,,,,,,,,,,,,,*1E
$BDGSA,A,1,,,,,,,,,,,,,,,*0F
$GPGSV,2,1,06,01,00,000,39,11,00,000,39,17,00,000,39,18,00,000,41*7D
$GPGSV,2,2,06,19,00,000,36,22,00,000,41*77
$LOGTIM,0,0.000000,0.000000,0.000000,0.000000,0.000*0A
EndT:        0
---00000028--- Acq_st=3 2019-5-25 07:19:36 
[00]  G01  f 39   2313.0 2045997.0  1.0  1.0  5  0 544793031
[01]  G11  f 39   2063.7 2045997.3  1.0  1.0  5  0 544793030
[02]  G17  f 39  -1848.2 2046002.4  1.0  1.0  5  0 544793029
[03]  G18  f 41   3007.7 2045996.1  1.0  1.0  5  0 544793025
[04]  G19  f 36  -2636.8 2046003.5  1.0  1.0  5  0 544793025
[05]  G22  7 41    548.9 2045999.2  1.0  1.0  5  0        10
$GNGGA,000000.000,,,,,0,00,,,M,,,,0000*2B
$GNRMC,000000.000,A,,,,,,,000000,,*26
$GPGSA,A,1,,,,,,,,,,,,,,,*1E
$BDGSA,A,1,,,,,,,,,,,,,,,*0F
$GPGSV,2,1,06,01,00,000,39,11,00,000,39,17,00,000,39,18,00,000,41*7D
$GPGSV,2,2,06,19,00,000,36,22,00,000,41*77
$LOGTIM,0,0.000000,0.000000,0.000000,0.000000,0.000*0A
EndT:        0
ch6 satid=27,max_freq = 1500,max_mean = 19987,max_phase = 347,max_value = 124692,acq ok1!
acq ok1 timeH = 0,timeL = 528899208,freq_stage = 2
---00000029--- Acq_st=3 2019-5-25 07:19:37 
[00]  G01  f 39   2315.4 2045997.0  1.0  1.0  5  0 544794031
[01]  G11  f 39   2066.7 2045997.4  1.0  1.0  5  0 544794030
[02]  G17  f 38  -1846.0 2046002.4  1.0  1.0  5  0 544794029
[03]  G18  f 42   3010.3 2045996.1  1.0  1.0  5  0 544794025
[04]  G19  f 36  -2634.6 2046003.4  1.0  0.9  5  0 544794025
[05]  G22  7 41    551.9 2045999.3  1.0  1.0  5  0        10
[06]  G28  1 21  -1466.2 2046002.8 -0.1  0.0  1  0         0
$GNGGA,000000.000,,,,,0,00,,,M,,,,0000*2B
$GNRMC,000000.000,A,,,,,,,000000,,*26
$GPGSA,A,1,,,,,,,,,,,,,,,*1E
$BDGSA,A,1,,,,,,,,,,,,,,,*0F
$GPGSV,2,1,06,01,00,000,39,11,00,000,39,17,00,000,38,18,00,000,42*7F
$GPGSV,2,2,06,19,00,000,36,22,00,000,41*77
$LOGTIM,0,0.000000,0.000000,0.000000,0.000000,0.000*0A
EndT:        0
---00000030--- Acq_st=3 2019-5-25 07:19:38 
[00]  G01  f 39   2316.5 2045997.0  1.0  1.0  5  0 544795031
[01]  G11  f 39   2067.9 2045997.3  1.0  1.0  5  0 544795030
[02]  G17  f 37  -1844.9 2046002.4  1.0  1.0  5  0 544795029
[03]  G18  f 41   3011.5 2045996.1  1.0  1.0  5  0 544795025
[04]  G19  f 37  -2632.5 2046003.4  1.0  0.9  5  0 544795025
[05]  G22  f 41    553.7 2045999.3  1.0  1.0  5  0        10
[06]  G28  7 23  -1473.8 2046002.0 -0.1  0.0 20  0         2
$GNGGA,000000.000,,,,,0,00,,,M,,,,0000*2B
$GNRMC,000000.000,A,,,,,,,000000,,*26
$GPGSA,A,1,,,,,,,,,,,,,,,*1E
$BDGSA,A,1,,,,,,,,,,,,,,,*0F
$GPGSV,2,1,07,01,00,000,39,11,00,000,39,17,00,000,37,18,00,000,41*72
$GPGSV,2,2,07,19,00,000,37,22,00,000,41,28,00,000,23*4C
$LOGTIM,0,0.000000,0.000000,0.000000,0.000000,0.000*0A
EndT:        0
---00000031--- Acq_st=3 2019-5-25 07:19:39 
[00]  G01  f 39   2315.3 2045997.0  1.0  1.0  5  0 544796031
[01]  G11  f 39   2066.0 2045997.3  1.0  1.0  5  0 544796030
[02]  G17  f 37  -1846.6 2046002.4  1.0  1.0  5  0 544796029
[03]  G18  f 41   3009.7 2045996.1  1.0  1.0  5  0 544796025
[04]  G19  f 37  -2634.8 2046003.4  1.0  1.0  5  0 544796025
[05]  G22  f 41    552.6 2045999.3  1.0  1.0  5  0 544796030
[06]  G28  7 35  -1473.0 2046002.0  0.6  1.0  5  0        15
$GNGGA,000000.000,,,,,0,00,,,M,,,,0000*2B
$GNRMC,000000.000,A,,,,,,,000000,,*26
$GPGSA,A,1,,,,,,,,,,,,,,,*1E
$BDGSA,A,1,,,,,,,,,,,,,,,*0F
$GPGSV,2,1,07,01,00,000,39,11,00,000,39,17,00,000,37,18,00,000,41*72
$GPGSV,2,2,07,19,00,000,37,22,00,000,41,28,00,000,35*4B
$LOGTIM,0,0.000000,0.000000,0.000000,0.000000,0.000*0A
EndT:        0
---00000032--- Acq_st=3 2019-5-25 07:19:40 
[00]  G01  f 39   2316.0 2045997.0  1.0  1.0  5  0 544797031
[01]  G11  f 39   2066.0 2045997.3  1.0  1.0  5  0 544797030
[02]  G17  f 36  -1846.4 2046002.4  1.0  1.0  5  0 544797029
[03]  G18  f 41   3009.4 2045996.1  1.0  1.0  5  0 544797025
[04]  G19  f 36  -2634.6 2046003.4  1.0  1.0  5  0 544797025
[05]  G22  f 41    552.7 2045999.3  1.0  1.0  5  0 544797030
[06]  G28  7 35  -1472.3 2046001.9  1.0  1.0  5  0        15
$GNGGA,000000.000,,,,,0,00,,,M,,,,0000*2B
$GNRMC,000000.000,A,,,,,,,000000,,*26
$GPGSA,A,1,,,,,,,,,,,,,,,*1E
$BDGSA,A,1,,,,,,,,,,,,,,,*0F
$GPGSV,2,1,07,01,00,000,39,11,00,000,39,17,00,000,36,18,00,000,41*73
$GPGSV,2,2,07,19,00,000,36,22,00,000,41,28,00,000,35*4A
$LOGTIM,0,0.000000,0.000000,0.000000,0.000000,0.000*0A
EndT:        0
---00000033--- Acq_st=3 2019-5-25 07:19:41 
[00]  G01  f 39   2317.4 2045997.0  1.0  1.0  5  0 544798031
[01]  G11  f 39   2068.0 2045997.4  1.0  1.0  5  0 544798030
[02]  G17  f 38  -1845.4 2046002.4  1.0  1.0  5  0 544798029
[03]  G18  f 41   3011.1 2045996.1  1.0  1.0  5  0 544798025
[04]  G19  f 36  -2633.1 2046003.4  1.0  1.0  5  0 544798025
[05]  G22  f 41    554.7 2045999.3  1.0  1.0  5  0 544798030
[06]  G28  7 35  -1471.1 2046001.9  1.0  0.9  5  0        15
$GNGGA,000000.000,,,,,0,00,,,M,,,,0000*2B
$GNRMC,000000.000,A,,,,,,,000000,,*26
$GPGSA,A,1,,,,,,,,,,,,,,,*1E
$BDGSA,A,1,,,,,,,,,,,,,,,*0F
$GPGSV,2,1,07,01,00,000,39,11,00,000,39,17,00,000,38,18,00,000,41*7D
$GPGSV,2,2,07,19,00,000,36,22,00,000,41,28,00,000,35*4A
$LOGTIM,0,0.000000,0.000000,0.000000,0.000000,0.000*0A
EndT:        0
---00000034--- Acq_st=3 2019-5-25 07:19:42 
[00]  G01  f 39   2318.9 2045997.0  1.0  1.0  5  0 544799031
[01]  G11  f 39   2068.6 2045997.3  1.0  1.0  5  0 544799030
[02]  G17  f 38  -1844.0 2046002.4  1.0  1.0  5  0 544799029
[03]  G18  f 42   3011.8 2045996.1  1.0  1.0  5  0 544799025
[04]  G19  f 37  -2632.2 2046003.4  1.0  1.0  5  0 544799025
[05]  G22  f 41    556.3 2045999.3  1.0  1.0  5  0 544799030
[06]  G28  7 35  -1469.4 2046001.9  1.0  0.9  5  0        15
$GNGGA,000000.000,,,,,0,00,,,M,,,,0000*2B
$GNRMC,000000.000,A,,,,,,,000000,,*26
$GPGSA,A,1,,,,,,,,,,,,,,,*1E
$BDGSA,A,1,,,,,,,,,,,,,,,*0F
$GPGSV,2,1,07,01,00,000,39,11,00,000,39,17,00,000,38,18,00,000,42*7E
$GPGSV,2,2,07,19,00,000,37,22,00,000,41,28,00,000,35*4B
$LOGTIM,0,0.000000,0.000000,0.000000,0.000000,0.000*0A
EndT:        0
---00000035--- Acq_st=3 2019-5-25 07:19:43 
[00]  G01  f 39   2319.7 2045997.0  1.0  1.0  5  0 544800031
[01]  G11  f 40   2070.0 2045997.3  1.0  1.0  5  0 544800030
[02]  G17  f 37  -1843.2 2046002.4  1.0  1.0  5  0 544800029
[03]  G18  f 42   3013.1 2045996.1  1.0  1.0  5  0 544800025
[04]  G19  f 37  -2630.8 2046003.4  1.0  0.9  5  0 544800025
[05]  G22  f 41    557.6 2045999.3  1.0  1.0  5  0 544800030
[06]  G28  7 35  -1468.1 2046001.9  1.0  0.9  5  0        15
$GNGGA,000000.000,,,,,0,00,,,M,,,,0000*2B
$GNRMC,000000.000,A,,,,,,,000000,,*26
$GPGSA,A,1,,,,,,,,,,,,,,,*1E
$BDGSA,A,1,,,,,,,,,,,,,,,*0F
$GPGSV,2,1,07,01,00,000,39,11,00,000,40,17,00,000,37,18,00,000,42*7F
$GPGSV,2,2,07,19,00,000,37,22,00,000,41,28,00,000,35*4B
$LOGTIM,0,0.000000,0.000000,0.000000,0.000000,0.000*0A
EndT:        0
---00000036--- Acq_st=3 2019-5-25 07:19:44 
[00]  G01  f 39   2317.4 2045996.9  1.0  1.0  5  0 544801031
[01]  G11  f 40   2067.7 2045997.3  1.0  1.0  5  0 544801030
[02]  G17  f 37  -1845.8 2046002.4  1.0  1.0  5  0 544801029
[03]  G18  f 41   3010.8 2045996.1  1.0  1.0  5  0 544801025
[04]  G19  f 37  -2633.7 2046003.4  1.0  1.0  5  0 544801025
[05]  G22  f 41    556.0 2045999.3  1.0  1.0  5  0 544801030
[06]  G28  f 35  -1470.1 2046001.9  1.0  1.0  5  0        15
$GNGGA,000000.000,,,,,0,00,,,M,,,,0000*2B
$GNRMC,000000.000,A,,,,,,,000000,,*26
$GPGSA,A,1,,,,,,,,,,,,,,,*1E
$BDGSA,A,1,,,,,,,,,,,,,,,*0F
$GPGSV,2,1,07,01,00,000,39,11,00,000,40,17,00,000,37,18,00,000,41*7C
$GPGSV,2,2,07,19,00,000,37,22,00,000,41,28,00,000,35*4B
$LOGTIM,0,0.000000,0.000000,0.000000,0.000000,0.000*0A
EndT:        0
---00000037--- Acq_st=3 2019-5-25 07:19:45 
[00]  G01  f 39   2318.0 2045997.0  1.0  1.0  5  0 544802031
[01]  G11  f 40   2068.2 2045997.3  1.0  1.0  5  0 544802030
[02]  G17  f 37  -1845.5 2046002.4  1.0  1.0  5  0 544802029
[03]  G18  f 42   3010.9 2045996.1  1.0  1.0  5  0 544802025
[04]  G19  f 36  -2633.4 2046003.5  1.0  0.9  5  0 544802025
[05]  G22  f 41    557.0 2045999.3  1.0  1.0  5  0 544802030
[06]  G28  f 35  -1469.0 2046001.9  1.0  0.9  5  0 544802035
$GNGGA,000000.000,,,,,0,00,,,M,,,,0000*2B
$GNRMC,000000.000,A,,,,,,,000000,,*26
$GPGSA,A,1,,,,,,,,,,,,,,,*1E
$BDGSA,A,1,,,,,,,,,,,,,,,*0F
$GPGSV,2,1,07,01,00,000,39,11,00,000,40,17,00,000,37,18,00,000,42*7F
$GPGSV,2,2,07,19,00,000,36,22,00,000,41,28,00,000,35*4A
$LOGTIM,0,0.000000,0.000000,0.000000,0.000000,0.000*0A
EndT:        0
---00000038--- Acq_st=3 2019-5-25 07:19:46 
[00]  G01  f 39   2321.8 2045997.0  1.0  1.0  5  0 544803031
[01]  G11  f 40   2071.7 2045997.3  1.0  1.0  5  0 544803030
[02]  G17  f 38  -1841.8 2046002.3  1.0  1.0  5  0 544803029
[03]  G18  f 41   3014.3 2045996.1  1.0  1.0  5  0 544803025
[04]  G19  f 36  -2629.9 2046003.4  1.0  0.9  5  0 544803025
[05]  G22  f 41    561.1 2045999.3  1.0  1.0  5  0 544803030
[06]  G28  f 35  -1466.0 2046001.9  1.0  0.9  5  0 544803035
$GNGGA,000000.000,,,,,0,00,,,M,,,,0000*2B
$GNRMC,000000.000,A,,,,,,,000000,,*26
$GPGSA,A,1,,,,,,,,,,,,,,,*1E
$BDGSA,A,1,,,,,,,,,,,,,,,*0F
$GPGSV,2,1,07,01,00,000,39,11,00,000,40,17,00,000,38,18,00,000,41*73
$GPGSV,2,2,07,19,00,000,36,22,00,000,41,28,00,000,35*4A
$LOGTIM,0,0.000000,0.000000,0.000000,0.000000,0.000*0A
EndT:        0
---00000039--- Acq_st=3 2019-5-25 07:19:47 
[00]  G01  f 39   2323.6 2045997.0  1.0  1.0  5  0 544804031
[01]  G11  f 40   2073.6 2045997.3  1.0  1.0  5  0 544804030
[02]  G17  f 38  -1840.0 2046002.4  1.0  1.0  5  0 544804029
[03]  G18  f 41   3016.4 2045996.0  1.0  1.0  5  0 544804025
[04]  G19  f 36  -2627.5 2046003.4  1.0  0.9  5  0 544804025
[05]  G22  f 40    563.5 2045999.3  1.0  1.0  5  0 544804030
[06]  G28  f 34  -1463.1 2046001.9  1.0  1.0  5  0 544804035
$GNGGA,000000.000,,,,,0,00,,,M,,,,0000*2B
$GNRMC,000000.000,A,,,,,,,000000,,*26
$GPGSA,A,1,,,,,,,,,,,,,,,*1E
$BDGSA,A,1,,,,,,,,,,,,,,,*0F
$GPGSV,2,1,07,01,00,000,39,11,00,000,40,17,00,000,38,18,00,000,41*73
$GPGSV,2,2,07,19,00,000,36,22,00,000,40,28,00,000,34*4A
$LOGTIM,0,0.000000,0.000000,0.000000,0.000000,0.000*0A
EndT:        0
---00000040--- Acq_st=3 2019-5-25 07:19:48 
[00]  G01  f 39   2323.6 2045997.0  1.0  0.9  5  0 544805031
[01]  G11  f 40   2072.8 2045997.3  1.0  1.0  5  0 544805030
[02]  G17  f 38  -1840.7 2046002.4  1.0  1.0  5  0 544805029
[03]  G18  f 41   3015.6 2045996.1  1.0  1.0  5  0 544805025
[04]  G19  f 36  -2629.3 2046003.4  1.0  1.0  5  0 544805025
[05]  G22  f 40    563.0 2045999.3  1.0  1.0  5  0 544805030
[06]  G28  f 34  -1463.9 2046001.9  1.0  0.9  5  0 544805035
$GNGGA,000000.000,,,,,0,00,,,M,,,,0000*2B
$GNRMC,000000.000,A,,,,,,,000000,,*26
$GPGSA,A,1,,,,,,,,,,,,,,,*1E
$BDGSA,A,1,,,,,,,,,,,,,,,*0F
$GPGSV,2,1,07,01,00,000,39,11,00,000,40,17,00,000,38,18,00,000,41*73
$GPGSV,2,2,07,19,00,000,36,22,00,000,40,28,00,000,34*4A
$LOGTIM,0,0.000000,0.000000,0.000000,0.000000,0.000*0A
EndT:        0
---00000041--- Acq_st=3 2019-5-25 07:19:49 
[00]  G01  f 39   2324.7 2045997.0  1.0  1.0  5  0 544806031
[01]  G11  f 40   2074.0 2045997.3  1.0  1.0  5  0 544806030
[02]  G17  f 37  -1839.8 2046002.4  1.0  1.0  5  0 544806029
[03]  G18  f 41   3016.5 2045996.1  1.0  1.0  5  0 544806025
[04]  G19  f 35  -2627.5 2046003.4  1.0  1.0  5  0 544806025
[05]  G22  f 41    565.3 2045999.3  1.0  1.0  5  0 544806030
[06]  G28  f 35  -1461.8 2046001.9  1.0  0.9  5  0 544806035
$GNGGA,000000.000,,,,,0,00,,,M,,,,0000*2B
$GNRMC,000000.000,A,,,,,,,000000,,*26
$GPGSA,A,1,,,,,,,,,,,,,,,*1E
$BDGSA,A,1,,,,,,,,,,,,,,,*0F
$GPGSV,2,1,07,01,00,000,39,11,00,000,40,17,00,000,37,18,00,000,41*7C
$GPGSV,2,2,07,19,00,000,35,22,00,000,41,28,00,000,35*49
$LOGTIM,0,0.000000,0.000000,0.000000,0.000000,0.000*0A
EndT:        0
---00000042--- Acq_st=3 2019-5-25 07:19:50 
[00]  G01  f 39   2323.4 2045997.0  1.0  1.0  5  0 544807031
[01]  G11  f 39   2072.7 2045997.3  1.0  1.0  5  0 544807030
[02]  G17  f 38  -1841.0 2046002.4  1.0  1.0  5  0 544807029
[03]  G18  f 41   3015.2 2045996.1  1.0  1.0  5  0 544807025
[04]  G19  f 36  -2628.8 2046003.5  1.0  0.9  5  0 544807025
[05]  G22  f 41    563.9 2045999.3  1.0  1.0  5  0 544807030
[06]  G28  f 34  -1462.7 2046001.9  1.0  0.9  5  0 544807035
$GNGGA,000000.000,,,,,0,00,,,M,,,,0000*2B
$GNRMC,000000.000,A,,,,,,,000000,,*26
$GPGSA,A,1,,,,,,,,,,,,,,,*1E
$BDGSA,A,1,,,,,,,,,,,,,,,*0F
$GPGSV,2,1,07,01,00,000,39,11,00,000,39,17,00,000,38,18,00,000,41*7D
$GPGSV,2,2,07,19,00,000,36,22,00,000,41,28,00,000,34*4B
$LOGTIM,0,0.000000,0.000000,0.000000,0.000000,0.000*0A
EndT:        0
---00000043--- Acq_st=3 2019-5-25 07:19:51 
[00]  G01  f 38   2325.9 2045997.0  1.0  1.0  5  0 544808031
[01]  G11  f 40   2075.5 2045997.3  1.0  1.0  5  0 544808030
[02]  G17  f 38  -1838.3 2046002.3  1.0  1.0  5  0 544808029
[03]  G18  f 41   3018.1 2045996.1  1.0  1.0  5  0 544808025
[04]  G19  f 36  -2626.2 2046003.4  1.0  1.0  5  0 544808025
[05]  G22  f 41    567.0 2045999.3  1.0  1.0  5  0 544808030
[06]  G28  f 35  -1459.9 2046001.9  1.0  1.0  5  0 544808035
$GNGGA,000000.000,,,,,0,00,,,M,,,,0000*2B
$GNRMC,000000.000,A,,,,,,,000000,,*26
$GPGSA,A,1,,,,,,,,,,,,,,,*1E
$BDGSA,A,1,,,,,,,,,,,,,,,*0F
$GPGSV,2,1,07,01,00,000,38,11,00,000,40,17,00,000,38,18,00,000,41*72
$GPGSV,2,2,07,19,00,000,36,22,00,000,41,28,00,000,35*4A
$LOGTIM,0,0.000000,0.000000,0.000000,0.000000,0.000*0A
EndT:        0
---00000044--- Acq_st=3 2019-5-25 07:19:52 
[00]  G01  f 39   2328.9 2045997.0  1.0  1.0  5  0 544809031
[01]  G11  f 40   2077.9 2045997.3  1.0  1.0  5  0 544809030
[02]  G17  f 39  -1835.9 2046002.4  1.0  1.0  5  0 544809029
[03]  G18  f 42   3020.5 2045996.1  1.0  1.0  5  0 544809025
[04]  G19  f 35  -2623.2 2046003.4  1.0  1.0  5  0 544809025
[05]  G22  f 41    570.3 2045999.2  1.0  1.0  5  0 544809030
[06]  G28  f 34  -1456.1 2046001.9  1.0  1.0  5  0 544809035
$GNGGA,000000.000,,,,,0,00,,,M,,,,0000*2B
$GNRMC,000000.000,A,,,,,,,000000,,*26
$GPGSA,A,1,,,,,,,,,,,,,,,*1E
$BDGSA,A,1,,,,,,,,,,,,,,,*0F
$GPGSV,2,1,07,01,00,000,39,11,00,000,40,17,00,000,39,18,00,000,42*71
$GPGSV,2,2,07,19,00,000,35,22,00,000,41,28,00,000,34*48
$LOGTIM,0,0.000000,0.000000,0.000000,0.000000,0.000*0A
EndT:        0
---00000045--- Acq_st=3 2019-5-25 07:19:53 
[00]  G01  f 38   2323.2 2045996.9  1.0  0.9  5  0 544810031
[01]  G11  f 40   2073.0 2045997.3  1.0  1.0  5  0 544810030
[02]  G17  f 39  -1841.5 2046002.3  1.0  1.0  5  0 544810029
[03]  G18  f 41   3014.4 2045996.1  1.0  1.0  5  0 544810025
[04]  G19  f 36  -2629.4 2046003.4  1.0  1.0  5  0 544810025
[05]  G22  f 41    565.2 2045999.3  1.0  1.0  5  0 544810030
[06]  G28  f 34  -1463.0 2046002.0  1.0  1.0  5  0 544810035
$GNGGA,000000.000,,,,,0,00,,,M,,,,0000*2B
$GNRMC,000000.000,A,,,,,,,000000,,*26
$GPGSA,A,1,,,,,,,,,,,,,,,*1E
$BDGSA,A,1,,,,,,,,,,,,,,,*0F
$GPGSV,2,1,07,01,00,000,38,11,00,000,40,17,00,000,39,18,00,000,41*73
$GPGSV,2,2,07,19,00,000,36,22,00,000,41,28,00,000,34*4B
$LOGTIM,0,0.000000,0.000000,0.000000,0.000000,0.000*0A
EndT:        0
---00000046--- Acq_st=3 2019-5-25 07:19:54 
[00]  G01  f 38   2320.2 2045997.0  1.0  1.0  5  0 544811031
[01]  G11  f 40   2068.9 2045997.3  1.0  1.0  5  0 544811030
[02]  G17  f 39  -1844.9 2046002.4  1.0  1.0  5  0 544811029
[03]  G18  f 42   3011.1 2045996.1  1.0  1.0  5  0 544811025
[04]  G19  f 35  -2633.3 2046003.4  1.0  1.0  5  0 544811025
[05]  G22  f 42    562.0 2045999.3  1.0  1.0  5  0 544811030
[06]  G28  f 34  -1465.2 2046001.9  1.0  1.0  5  0 544811035
$GNGGA,000000.000,,,,,0,00,,,M,,,,0000*2B
$GNRMC,000000.000,A,,,,,,,000000,,*26
$GPGSA,A,1,,,,,,,,,,,,,,,*1E
$BDGSA,A,1,,,,,,,,,,,,,,,*0F
$GPGSV,2,1,07,01,00,000,38,11,00,000,40,17,00,000,39,18,00,000,42*70
$GPGSV,2,2,07,19,00,000,35,22,00,000,42,28,00,000,34*4B
$LOGTIM,0,0.000000,0.000000,0.000000,0.000000,0.000*0A
EndT:        0
---00000047--- Acq_st=3 2019-5-25 07:19:55 
[00]  G01  f 38   2322.7 2045997.0  1.0  1.0  5  0 544812031
[01]  G11  f 40   2071.5 2045997.3  1.0  1.0  5  0 544812030
[02]  G17  f 39  -1842.5 2046002.4  1.0  0.9  5  0 544812029
[03]  G18  f 41   3013.5 2045996.1  1.0  1.0  5  0 544812025
[04]  G19  f 35  -2630.2 2046003.4  1.0  0.9  5  0 544812025
[05]  G22  f 41    565.0 2045999.3  1.0  1.0  5  0 544812030
[06]  G28  f 33  -1461.8 2046001.8  1.0  0.9  5  0 544812035
$GNGGA,000000.000,,,,,0,00,,,M,,,,0000*2B
$GNRMC,000000.000,A,,,,,,,000000,,*26
$GPGSA,A,1,,,,,,,,,,,,,,,*1E
$BDGSA,A,1,,,,,,,,,,,,,,,*0F
$GPGSV,2,1,07,01,00,000,38,11,00,000,40,17,00,000,39,18,00,000,41*73
$GPGSV,2,2,07,19,00,000,35,22,00,000,41,28,00,000,33*4F
$LOGTIM,0,0.000000,0.000000,0.000000,0.000000,0.000*0A
EndT:        0
ch16 satid=44,max_freq = 0,max_mean = 8141,max_phase = 1821,max_value = 221622,acq ok1!
acq ok1 timeH = 0,timeL = 897136117,freq_stage = 3
---00000048--- Acq_st=3 2019-5-25 07:19:56 
[00]  G01  f 38   2330.8 2045997.0  1.0  1.0  5  0 544813031
[01]  G11  f 40   2080.2 2045997.3  1.0  1.0  5  0 544813030
[02]  G17  f 39  -1834.4 2046002.4  1.0  1.0  5  0 544813029
[03]  G18  f 41   3021.7 2045996.1  1.0  1.0  5  0 544813025
[04]  G19  f 35  -2622.9 2046003.5  1.0  0.9  5  0 544813025
[05]  G22  f 41    573.7 2045999.3  1.0  1.0  5  0 544813030
[06]  G28  f 33  -1454.5 2046001.9  1.0  0.9  5  0 544813035
[16]  B08  1  7    -29.2 4092000.5 -0.1  0.0  1  0         0
$GNGGA,000000.000,,,,,0,00,,,M,,,,0000*2B
$GNRMC,000000.000,A,,,,,,,000000,,*26
$GPGSA,A,1,,,,,,,,,,,,,,,*1E
$BDGSA,A,1,,,,,,,,,,,,,,,*0F
$GPGSV,2,1,07,01,00,000,38,11,00,000,40,17,00,000,39,18,00,000,41*73
$GPGSV,2,2,07,19,00,000,35,22,00,000,41,28,00,000,33*4F
$LOGTIM,0,0.000000,0.000000,0.000000,0.000000,0.000*0A
EndT:        0
---00000049--- Acq_st=3 2019-5-25 07:19:57 
[00]  G01  f 39   2334.3 2045997.0  1.0  1.0  5  0 544814031
[01]  G11  f 40   2083.0 2045997.2  1.0  1.0  5  0 544814030
[02]  G17  f 39  -1831.8 2046002.4  1.0  1.0  5  0 544814029
[03]  G18  f 41   3024.7 2045996.1  1.0  1.0  5  0 544814025
[04]  G19  f 35  -2619.4 2046003.3  1.0  0.9  5  0 544814025
[05]  G22  f 41    577.3 2045999.3  1.0  1.0  5  0 544814030
[06]  G28  f 34  -1450.6 2046001.9  1.0  1.0  5  0 544814035
[16]  B08  1  7    -44.8 4092000.1 -0.1  0.0  1  0       319
$GNGGA,000000.000,,,,,0,00,,,M,,,,0000*2B
$GNRMC,000000.000,A,,,,,,,000000,,*26
$GPGSA,A,1,,,,,,,,,,,,,,,*1E
$BDGSA,A,1,,,,,,,,,,,,,,,*0F
$GPGSV,2,1,07,01,00,000,39,11,00,000,40,17,00,000,39,18,00,000,41*72
$GPGSV,2,2,07,19,00,000,35,22,00,000,41,28,00,000,34*48
$LOGTIM,0,0.000000,0.000000,0.000000,0.000000,0.000*0A
EndT:        0
---00000050--- Acq_st=3 2019-5-25 07:19:58 
[00]  G01  f 39   2329.3 2045997.0  1.0  1.0  5  0 544815031
[01]  G11  f 39   2078.0 2045997.4  1.0  1.0  5  0 544815030
[02]  G17  f 38  -1836.5 2046002.4  1.0  0.9  5  0 544815029
[03]  G18  f 41   3019.6 2045996.1  1.0  1.0  5  0 544815025
[04]  G19  f 35  -2624.1 2046003.4  1.0  1.0  5  0 544815025
[05]  G22  f 41    573.1 2045999.3  1.0  1.0  5  0 544815030
[06]  G28  f 34  -1454.8 2046001.9  1.0  0.9  5  0 544815035
[16]  B08  7 39    -49.8 4092000.1  0.7  1.0  5  0      1303
$GNGGA,000000.000,,,,,0,00,,,M,,,,0000*2B
$GNRMC,000000.000,A,,,,,,,000000,,*26
$GPGSA,A,1,,,,,,,,,,,,,,,*1E
$BDGSA,A,1,,,,,,,,,,,,,,,*0F
$GPGSV,2,1,07,01,00,000,39,11,00,000,39,17,00,000,38,18,00,000,41*7D
$GPGSV,2,2,07,19,00,000,35,22,00,000,41,28,00,000,34*48
$BDGSV,1,1,01,08,00,000,39*5B
$LOGTIM,0,0.000000,0.000000,0.000000,0.000000,0.000*0A
EndT:        0
---00000051--- Acq_st=3 2019-5-25 07:19:59 
[00]  G01  f 39   2324.2 2045996.9  1.0  1.0  5  0 544816031
[01]  G11  f 40   2073.0 2045997.3  1.0  1.0  5  0 544816030
[02]  G17  f 38  -1841.5 2046002.4  1.0  1.0  5  0 544816029
[03]  G18  f 41   3014.6 2045996.1  1.0  1.0  5  0 544816025
[04]  G19  f 35  -2629.9 2046003.4  1.0  0.9  5  0 544816025
[05]  G22  f 41    568.3 2045999.2  1.0  1.0  5  0 544816030
[06]  G28  f 34  -1460.2 2046001.9  1.0  0.9  5  0 544816035
[16]  B08  7 43    -55.2 4092000.1  1.0  1.0  5  0      2303
$GNGGA,000000.000,,,,,0,00,,,M,,,,0000*2B
$GNRMC,000000.000,A,,,,,,,000000,,*26
$GPGSA,A,1,,,,,,,,,,,,,,,*1E
$BDGSA,A,1,,,,,,,,,,,,,,,*0F
$GPGSV,2,1,07,01,00,000,39,11,00,000,40,17,00,000,38,18,00,000,41*73
$GPGSV,2,2,07,19,00,000,35,22,00,000,41,28,00,000,34*48
$BDGSV,1,1,01,08,00,000,43*56
$LOGTIM,0,0.000000,0.000000,0.000000,0.000000,0.000*0A
EndT:        0
ch17 satid=46,max_freq = 0,max_mean = 8213,max_phase = 3247,max_value = 84523,acq ok1!
acq ok1 timeH = 0,timeL = 970445924,freq_stage = 3
---00000052--- Acq_st=3 2019-5-25 07:20:0 
[00]  G01  f 39   2322.6 2045997.0  1.0  1.0  5  0 544817031
[01]  G11  f 40   2071.7 2045997.3  1.0  1.0  5  0 544817030
[02]  G17  f 38  -1843.2 2046002.4  1.0  0.9  5  0 544817029
[03]  G18  f 41   3012.7 2045996.1  1.0  1.0  5  0 544817025
[04]  G19  f 35  -2631.7 2046003.4  1.0  1.0  5  0 544817025
[05]  G22  f 40    567.3 2045999.3  1.0  1.0  5  0 544817030
[06]  G28  f 33  -1461.1 2046001.9  1.0  1.0  5  0 544817035
[16]  B08  7 44    -56.9 4092000.1  1.0  1.0  5  0      3303
[17]  B10  1  7   -104.9 4091999.9  0.0  0.0  1  0         0
lsq: nits= 4
$GNGGA,072000.104,3112.7141,N,12136.4309,E,1,07,3.1,67.5,M,,,,0000*2B
$GNRMC,072000.104,A,3112.7141,N,12136.4309,E,0.04,0.00,250519,,*18
$GPGSA,A,3,01,11,17,18,19,22,28,,,,,,3.9,3.1,2.4*30
$BDGSA,A,3,,,,,,,,,,,,,3.9,3.1,2.4*2D
$GPGSV,2,1,07,01,00,000,39,11,00,000,40,17,00,000,38,18,00,000,41*73
$GPGSV,2,2,07,19,00,000,35,22,00,000,40,28,00,000,33*4E
$BDGSV,1,1,01,08,00,000,44*51
$LOGTIM,1,8373988.862861,0.000000,0.000000,0.000000,-62.462*17
EndT:        1
---00000053--- Acq_st=3 2019-5-25 07:20:0 
[00]  G01  f 39   2326.9 2045997.0  1.0  1.0  5  0 544818031
[01]  G11  f 40   2074.6 2045997.3  1.0  1.0  5  0 544818030
[02]  G17  f 38  -1840.2 2046002.4  1.0  1.0  5  0 544818029
[03]  G18  f 41   3016.3 2045996.1  1.0  1.0  5  0 544818025
[04]  G19  f 35  -2628.2 2046003.4  1.0  1.0  5  0 544818025
[05]  G22  f 40    571.0 2045999.3  1.0  1.0  5  0 544818030
[06]  G28  f 34  -1457.8 2046001.9  1.0  1.0  5  0 544818035
[16]  B08  7 44    -53.3 4092000.1  1.0  1.0  5  0      4303
[17]  B10  7 17   -145.0 4092000.4  0.3  0.0 20  0       500
ch18 satid=47,max_freq = -1000,max_mean = 7982,max_phase = 1114,max_value = 137676,acq ok1!
acq ok1 timeH = 0,timeL = 1010764390,freq_stage = 4
lsq: nits= 2
$GNGGA,072002.000,3112.7157,N,12136.4315,E,1,07,3.1,66.1,M,,,,0000*23
$GNRMC,072002.000,A,3112.7157,N,12136.4315,E,0.44,0.00,250519,,*11
$GPGSA,A,3,01,11,17,18,19,22,28,,,,,,3.9,3.1,2.4*30
$BDGSA,A,3,,,,,,,,,,,,,3.9,3.1,2.4*2D
$GPGSV,2,1,07,01,00,000,39,11,00,000,40,17,00,000,38,18,00,000,41*73
$GPGSV,2,2,07,19,00,000,35,22,00,000,40,28,00,000,34*49
$BDGSV,1,1,02,08,00,000,44,10,00,000,17*65
$LOGTIM,1,-117.048378,0.000000,0.000000,0.000000,-61.564*3C
EndT:        0
---00000054--- Acq_st=3 2019-5-25 07:20:2 
[00]  G01  f 38   2330.3 2045997.0  1.0  1.0  5  0 544819927
[01]  G11  f 39   2078.3 2045997.3  1.0  1.0  5  0 544819926
[02]  G17  f 37  -1836.8 2046002.4  1.0  1.0  5  0 544819925
[03]  G18  f 41   3019.8 2045996.1  1.0  1.0  5  0 544819921
[04]  G19  f 35  -2625.2 2046003.5  1.0  0.9  5  0 544819921
[05]  G22  f 40    575.3 2045999.3  1.0  1.0  5  0 544819926
[06]  G28  f 34  -1454.1 2046001.9  1.0  1.0  5  0 544819931
[16]  B08  7 44    -50.0 4092000.1  1.0  1.0  5  0      6199
[17]  B10  7 40   -141.1 4092000.4  0.2  1.0  5  0      2379
[18]  B11  1  7    895.8 4091999.3  0.1  0.0  1  0       487
lsq: nits= 2
$GNGGA,072003.000,3112.7160,N,12136.4313,E,1,07,3.1,65.2,M,,,,0000*20
$GNRMC,072003.000,A,3112.7160,N,12136.4313,E,0.22,0.00,250519,,*12
$GPGSA,A,3,01,11,17,18,19,22,28,,,,,,3.9,3.1,2.4*30
$BDGSA,A,3,,,,,,,,,,,,,3.9,3.1,2.4*2D
$GPGSV,2,1,07,01,43,036,38,11,34,052,39,17,39,311,37,18,18,046,41*73
$GPGSV,2,2,07,19,21,294,35,22,42,072,40,28,74,317,34*40
$BDGSV,1,1,02,08,00,000,44,10,00,000,40*67
$LOGTIM,1,-178.961751,0.000000,0.000000,0.000000,-61.562*3E
EndT:        0
---00000055--- Acq_st=3 2019-5-25 07:20:3 
[00]  G01  f 39   2330.1 2045997.0  1.0  0.9  5  0 544820927
[01]  G11  f 40   2078.0 2045997.3  1.0  1.0  5  0 544820926
[02]  G17  f 37  -1837.3 2046002.4  1.0  1.0  5  0 544820925
[03]  G18  f 41   3019.3 2045996.1  1.0  0.9  5  0 544820921
[04]  G19  f 35  -2625.3 2046003.4  1.0  0.9  5  0 544820921
[05]  G22  f 40    575.4 2045999.3  1.0  1.0  5  0 544820926
[06]  G28  f 34  -1453.7 2046001.9  1.0  1.0  5  0 544820931
[16]  B08  7 44    -50.6 4092000.1  1.0  1.0  5  0      7199
[17]  B10  7 40   -141.4 4092000.4  1.0  1.0  5  0      3379
[18]  B11  7 22    875.7 4091997.6  0.3  0.0 20  0      1483
lsq: nits= 2
$GNGGA,072004.000,3112.7163,N,12136.4315,E,1,07,3.1,64.6,M,,,,0000*27
$GNRMC,072004.000,A,3112.7163,N,12136.4315,E,0.17,0.00,250519,,*16
$GPGSA,A,3,01,11,17,18,19,22,28,,,,,,3.9,3.1,2.4*30
$BDGSA,A,3,,,,,,,,,,,,,3.9,3.1,2.4*2D
$GPGSV,2,1,07,01,43,036,39,11,34,052,40,17,39,311,37,18,18,046,41*7C
$GPGSV,2,2,07,19,21,294,35,22,42,072,40,28,74,317,34*40
$BDGSV,1,1,03,08,00,000,44,10,00,000,40,11,00,000,22*56
$LOGTIM,1,-240.816401,0.000000,0.000000,0.000000,-61.524*33
EndT:        0
---00000056--- Acq_st=3 2019-5-25 07:20:4 
[00]  G01  f 39   2330.0 2045997.0  1.0  1.0  5  0 544821927
[01]  G11  f 40   2078.3 2045997.3  1.0  1.0  5  0 544821926
[02]  G17  f 37  -1837.2 2046002.4  1.0  1.0  5  0 544821925
[03]  G18  f 42   3018.7 2045996.1  1.0  1.0  5  0 544821921
[04]  G19  f 36  -2625.4 2046003.4  1.0  0.9  5  0 544821921
[05]  G22  f 39    575.3 2045999.3  1.0  1.0  5  0 544821926
[06]  G28  f 34  -1453.3 2046001.9  1.0  1.0  5  0 544821931
[16]  B08 1f 44    -50.8 4092000.1  1.0  1.0  5  0 544807879
[17]  B10 1f 40   -141.1 4092000.4  1.0  1.0  5  0 544807879
[18]  B11  7 41    875.6 4091997.6  0.6  1.0  5  0      2483
lsq: nits= 2
$GNGGA,072005.000,3112.7159,N,12136.4318,E,1,07,3.1,64.2,M,,,,0000*26
$GNRMC,072005.000,A,3112.7159,N,12136.4318,E,0.18,0.00,250519,,*1C
$GPGSA,A,3,01,11,17,18,19,22,28,,,,,,3.9,3.1,2.4*30
$BDGSA,A,3,,,,,,,,,,,,,3.9,3.1,2.4*2D
$GPGSV,2,1,07,01,43,036,39,11,34,052,40,17,39,311,37,18,18,046,42*7F
$GPGSV,2,2,07,19,21,294,36,22,42,072,39,28,74,317,34*4D
$BDGSV,1,1,03,08,00,000,44,10,00,000,40,11,00,000,41*53
$LOGTIM,1,-303.021500,0.000000,0.000000,0.000000,-61.666*3C
EndT:        0
---00000057--- Acq_st=3 2019-5-25 07:20:5 
[00]  G01  f 38   2329.0 2045997.0  1.0  0.9  5  0 544822927
[01]  G11  f 40   2076.9 2045997.3  1.0  1.0  5  0 544822926
[02]  G17  f 37  -1838.4 2046002.4  1.0  1.0  5  0 544822925
[03]  G18  f 41   3017.8 2045996.1  1.0  1.0  5  0 544822921
[04]  G19  f 36  -2626.3 2046003.5  1.0  1.0  5  0 544822921
[05]  G22  f 40    574.7 2045999.2  1.0  1.0  5  0 544822926
[06]  G28  f 34  -1454.5 2046001.9  1.0  0.9  5  0 544822931
[16]  B08 1f 44    -52.0 4092000.1  1.0  1.0  5  0 544808879
[17]  B10 1f 40   -142.9 4092000.3  1.0  1.0  5  0 544808879
[18]  B11  7 41    874.3 4091997.7  1.0  1.0  5  0      3483
ch19 satid=49,max_freq = 500,max_mean = 8223,max_phase = 640,max_value = 132502,acq ok1!
acq ok1 timeH = 0,timeL = 1076747052,freq_stage = 3
lsq: nits= 2
$GNGGA,072006.000,3112.7152,N,12136.4321,E,1,07,3.1,63.9,M,,,,0000*28
$GNRMC,072006.000,A,3112.7152,N,12136.4321,E,0.51,0.00,250519,,*13
$GPGSA,A,3,01,11,17,18,19,22,28,,,,,,3.9,3.1,2.4*30
$BDGSA,A,3,,,,,,,,,,,,,3.9,3.1,2.4*2D
$GPGSV,2,1,07,01,43,036,38,11,34,052,40,17,39,311,37,18,18,046,41*7D
$GPGSV,2,2,07,19,21,294,36,22,42,072,40,28,74,317,34*43
$BDGSV,1,1,03,08,00,000,44,10,00,000,40,11,00,000,41*53
$LOGTIM,1,-366.432224,0.000000,0.000000,0.000000,-62.436*3C
EndT:        0
---00000058--- Acq_st=3 2019-5-25 07:20:6 
[00]  G01  f 38   2322.1 2045997.0  1.0  1.0  5  0 544823927
[01]  G11  f 40   2069.7 2045997.3  1.0  1.0  5  0 544823926
[02]  G17  f 38  -1845.7 2046002.4  1.0  1.0  5  0 544823925
[03]  G18  f 41   3010.9 2045996.1  1.0  1.0  5  0 544823921
[04]  G19  f 35  -2633.5 2046003.4  1.0  0.9  5  0 544823921
[05]  G22  f 39    568.2 2045999.3  1.0  1.0  5  0 544823926
[06]  G28  f 34  -1461.2 2046001.9  1.0  0.9  5  0 544823931
[16]  B08 1f 44    -58.5 4092000.1  1.0  1.0  5  0 544809879
[17]  B10 1f 40   -149.4 4092000.4  1.0  1.0  5  0 544809879
[18]  B11  7 41    867.6 4091997.7  1.0  1.0  5  0      4483
[19]  B13  1  7   -436.6 4092001.6 -0.2  0.0  1  0       668
lsq: nits= 2
$GNGGA,072007.000,3112.7140,N,12136.4326,E,1,07,3.1,63.3,M,,,,0000*27
$GNRMC,072007.000,A,3112.7140,N,12136.4326,E,0.61,0.00,250519,,*15
$GPGSA,A,3,01,11,17,18,19,22,28,,,,,,3.9,3.1,2.4*30
$BDGSA,A,3,,,,,,,,,,,,,3.9,3.1,2.4*2D
$GPGSV,2,1,07,01,43,036,38,11,34,052,40,17,39,311,38,18,18,046,41*72
$GPGSV,2,2,07,19,21,294,35,22,42,072,39,28,74,317,34*4E
$BDGSV,1,1,03,08,00,000,44,10,00,000,40,11,00,000,41*53
$LOGTIM,1,-430.982482,0.000000,0.000000,0.000000,-63.010*35
EndT:        0
---00000059--- Acq_st=3 2019-5-25 07:20:7 
[00]  G01  f 38   2319.9 2045997.0  1.0  1.0  5  0 544824927
[01]  G11  f 40   2067.7 2045997.3  1.0  1.0  5  0 544824926
[02]  G17  f 38  -1847.5 2046002.4  1.0  1.0  5  0 544824925
[03]  G18  f 41   3008.7 2045996.1  1.0  1.0  5  0 544824921
[04]  G19  f 35  -2636.2 2046003.4  1.0  1.0  5  0 544824921
[05]  G22  f 39    567.0 2045999.3  1.0  1.0  5  0 544824926
[06]  G28  f 34  -1462.4 2046001.8  1.0  0.9  5  0 544824931
[16]  B08 1f 44    -60.7 4092000.1  1.0  1.0  5  0 544810879
[17]  B10 1f 40   -151.5 4092000.4  1.0  1.0  5  0 544810879
[18]  B11  7 41    864.8 4091997.7  1.0  1.0  5  0      5483
[19]  B13  7 26   -439.4 4092001.1  0.3  0.0 20  0      1654
lsq: nits= 2
$GNGGA,072008.000,3112.7128,N,12136.4330,E,1,07,3.1,61.7,M,,,,0000*27
$GNRMC,072008.000,A,3112.7128,N,12136.4330,E,0.39,0.00,250519,,*1E
$GPGSA,A,3,01,11,17,18,19,22,28,,,,,,3.9,3.1,2.4*30
$BDGSA,A,3,,,,,,,,,,,,,3.9,3.1,2.4*2D
$GPGSV,2,1,07,01,43,036,38,11,34,052,40,17,39,311,38,18,18,046,41*72
$GPGSV,2,2,07,19,21,294,35,22,42,072,39,28,74,317,34*4E
$BDGSV,1,1,04,08,00,000,44,10,00,000,40,11,00,000,41,13,00,000,26*62
$LOGTIM,1,-496.490821,0.000000,0.000000,0.000000,-63.384*3C
EndT:        0
---00000060--- Acq_st=3 2019-5-25 07:20:8 
[00]  G01  f 38   2319.7 2045997.0  1.0  1.0  5  0 544825927
[01]  G11  f 39   2067.8 2045997.3  1.0  1.0  5  0 544825926
[02]  G17  f 37  -1848.4 2046002.4  1.0  1.0  5  0 544825925
[03]  G18  f 41   3008.4 2045996.1  1.0  1.0  5  0 544825921
[04]  G19  f 36  -2634.9 2046003.4  1.0  1.0  5  0 544825921
[05]  G22  f 40    566.9 2045999.3  1.0  1.0  5  0 544825926
[06]  G28  f 34  -1463.0 2046001.9  1.0  0.9  5  0 544825931
[16]  B08 1f 44    -61.6 4092000.1  1.0  1.0  5  0 544811879
[17]  B10 1f 40   -151.2 4092000.4  1.0  1.0  5  0 544811879
[18]  B11  7 41    864.7 4091997.7  1.0  1.0  5  0      6483
[19]  B13  7 42   -439.9 4092001.1  1.0  1.0  5  0      2654
lsq: nits= 2
$GNGGA,072009.000,3112.7117,N,12136.4335,E,1,07,3.1,60.3,M,,,,0000*2A
$GNRMC,072009.000,A,3112.7117,N,12136.4335,E,0.23,0.00,250519,,*1D
$GPGSA,A,3,01,11,17,18,19,22,28,,,,,,3.9,3.1,2.4*30
$BDGSA,A,3,,,,,,,,,,,,,3.9,3.1,2.4*2D
$GPGSV,2,1,07,01,43,036,38,11,34,052,39,17,39,311,37,18,18,046,41*73
$GPGSV,2,2,07,19,21,294,36,22,42,072,40,28,74,317,34*43
$BDGSV,1,1,04,08,00,000,44,10,00,000,40,11,00,000,41,13,00,000,42*60
$LOGTIM,1,-561.557232,0.000000,0.000000,0.000000,-63.584*31
EndT:        0
---00000061--- Acq_st=3 2019-5-25 07:20:9 
[00]  G01  f 38   2319.2 2045997.0  1.0  1.0  5  0 544826927
[01]  G11  f 40   2067.1 2045997.3  1.0  1.0  5  0 544826926
[02]  G17  f 38  -1848.2 2046002.4  1.0  1.0  5  0 544826925
[03]  G18  f 41   3007.8 2045996.1  1.0  1.0  5  0 544826921
[04]  G19  f 36  -2635.8 2046003.4  1.0  1.0  5  0 544826921
[05]  G22  f 40    566.4 2045999.3  1.0  1.0  5  0 544826926
[06]  G28  f 35  -1462.6 2046001.9  1.0  1.0  5  0 544826931
[16]  B08 1f 44    -61.8 4092000.2  1.0  1.0  5  0 544812879
[17]  B10 1f 40   -152.2 4092000.4  1.0  1.0  5  0 544812879
[18]  B11  7 41    864.3 4091997.7  1.0  1.0  5  0      7483
[19]  B13  7 43   -440.1 4092001.1  1.0  1.0  5  0      3654
lsq: nits= 2
$GNGGA,072010.000,3112.7101,N,12136.4339,E,1,07,3.1,59.3,M,,,,0000*23
$GNRMC,072010.000,A,3112.7101,N,12136.4339,E,0.19,0.00,250519,,*17
$GPGSA,A,3,01,11,17,18,19,22,28,,,,,,3.9,3.1,2.4*30
$BDGSA,A,3,,,,,,,,,,,,,3.9,3.1,2.4*2D
$GPGSV,2,1,07,01,43,036,38,11,34,052,40,17,39,311,38,18,18,046,41*72
$GPGSV,2,2,07,19,21,294,36,22,42,072,39,28,74,317,35*4C
$BDGSV,1,1,04,08,00,000,44,10,00,000,40,11,00,000,41,13,00,000,43*61
$LOGTIM,1,-626.973638,0.000000,0.000000,0.000000,-63.844*34
EndT:        0
---00000062--- Acq_st=3 2019-5-25 07:20:10 
[00]  G01  f 38   2317.9 2045997.0  1.0  1.0  5  0 544827927
[01]  G11  f 40   2066.1 2045997.3  1.0  1.0  5  0 544827926
[02]  G17  f 38  -1850.1 2046002.4  1.0  1.0  5  0 544827925
[03]  G18  f 41   3006.1 2045996.1  1.0  1.0  5  0 544827921
[04]  G19  f 36  -2637.7 2046003.4  1.0  1.0  5  0 544827921
[05]  G22  f 40    566.2 2045999.3  1.0  1.0  5  0 544827926
[06]  G28  f 34  -1464.0 2046001.9  1.0  0.9  5  0 544827931
[16]  B08 1f 44    -63.0 4092000.2  1.0  1.0  5  0 544813879
[17]  B10 1f 40   -153.4 4092000.4  1.0  1.0  5  0 544813879
[18]  B11 1f 42    863.2 4091997.7  1.0  1.0  5  0 544813923
[19]  B13 1f 42   -441.7 4092001.1  1.0  1.0  5  0 544813874
lsq: nits= 2
$GNGGA,072011.000,3112.7092,N,12136.4344,E,1,07,3.1,58.6,M,,,,0000*27
$GNRMC,072011.000,A,3112.7092,N,12136.4344,E,0.31,0.00,250519,,*1D
$GPGSA,A,3,01,11,17,18,19,22,28,,,,,,3.9,3.1,2.4*30
$BDGSA,A,3,,,,,,,,,,,,,3.9,3.1,2.4*2D
$GPGSV,2,1,07,01,43,036,38,11,34,052,40,17,39,311,38,18,18,046,41*72
$GPGSV,2,2,07,19,21,294,35,22,42,072,40,28,74,317,34*40
$BDGSV,1,1,04,08,00,000,44,10,00,000,40,11,00,000,42,13,00,000,42*63
$LOGTIM,1,-691.997615,0.000000,0.000000,0.000000,-63.972*39
EndT:        0
---00000063--- Acq_st=3 2019-5-25 07:20:11 
[00]  G01  f 39   2318.6 2045997.0  1.0  1.0  5  0 544828927
[01]  G11  f 40   2066.4 2045997.3  1.0  1.0  5  0 544828926
[02]  G17  f 38  -1849.0 2046002.4  1.0  0.9  5  0 544828925
[03]  G18  f 41   3006.9 2045996.1  1.0  1.0  5  0 544828921
[04]  G19  f 35  -2637.7 2046003.4  1.0  1.0  5  0 544828921
[05]  G22  f 40    567.0 2045999.2  1.0  1.0  5  0 544828926
[06]  G28  f 35  -1462.8 2046001.8  1.0  1.0  5  0 544828931
[16]  B08 1f 44    -62.8 4092000.2  1.0  1.0  5  0 544814879
[17]  B10 1f 40   -152.9 4092000.3  1.0  1.0  5  0 544814879
[18]  B11 1f 41    863.5 4091997.7  1.0  1.0  5  0 544814923
[19]  B13 1f 42   -441.3 4092001.1  1.0  1.0  5  0 544814874
lsq: nits= 2
$GNGGA,072012.000,3112.7062,N,12136.4353,E,1,07,3.1,58.7,M,,,,0000*2C
$GNRMC,072012.000,A,3112.7062,N,12136.4353,E,0.94,0.00,250519,,*18
$GPGSA,A,3,01,11,17,18,19,22,28,,,,,,3.9,3.1,2.4*30
$BDGSA,A,3,,,,,,,,,,,,,3.9,3.1,2.4*2D
$GPGSV,2,1,07,01,43,036,38,11,34,052,40,17,39,311,38,18,18,046,41*72
$GPGSV,2,2,07,19,21,294,35,22,42,072,40,28,74,317,35*41
$BDGSV,1,1,04,08,00,000,44,10,00,000,40,11,00,000,41,13,00,000,42*60
$LOGTIM,1,-758.609872,0.000000,0.000000,0.000000,-64.008*39
EndT:        0
---00000064--- Acq_st=3 2019-5-25 07:20:12 
[00]  G01  f 38   2320.0 2045997.0  1.0  1.0  5  0 544829927
[01]  G11  f 40   2067.8 2045997.3  1.0  1.0  5  0 544829926
[02]  G17  f 37  -1848.7 2046002.4  1.0  1.0  5  0 544829925
[03]  G18  f 42   3007.9 2045996.1  1.0  1.0  5  0 544829921
[04]  G19  f 35  -2636.6 2046003.4  1.0  0.9  5  0 544829921
[05]  G22  f 41    568.6 2045999.3  1.0  1.0  5  0 544829926
[06]  G28  f 35  -1461.2 2046001.8  1.0  1.0  5  0 544829931
[16]  B08 1f 43    -61.3 4092000.1  1.0  1.0  5  0 544815879
[17]  B10 1f 40   -151.5 4092000.4  1.0  1.0  5  0 544815879
[18]  B11 1f 42    864.8 4091997.7  1.0  1.0  5  0 544815923
[19]  B13 1f 42   -439.7 4092001.1  1.0  1.0  5  0 544815874
lsq: nits= 2
$GNGGA,072013.000,3112.7054,N,12136.4356,E,1,07,3.1,58.5,M,,,,0000*2F
$GNRMC,072013.000,A,3112.7054,N,12136.4356,E,1.32,0.00,250519,,*14
$GPGSA,A,3,01,11,17,18,19,22,28,,,,,,3.9,3.1,2.4*30
$BDGSA,A,3,,,,,,,,,,,,,3.9,3.1,2.4*2D
$GPGSV,2,1,07,01,43,036,38,11,34,052,40,17,39,311,37,18,18,046,42*7E
$GPGSV,2,2,07,19,21,294,35,22,42,072,41,28,74,317,35*40
$BDGSV,1,1,04,08,00,000,43,10,00,000,40,11,00,000,42,13,00,000,42*64
$LOGTIM,1,-822.677320,0.000000,0.000000,0.000000,-63.691*3F
EndT:        0
---00000065--- Acq_st=3 2019-5-25 07:20:13 
[00]  G01  f 38   2323.9 2045996.9  1.0  1.0  5  0 544830927
[01]  G11  f 39   2071.1 2045997.3  1.0  1.0  5  0 544830925
[02]  G17  f 38  -1845.2 2046002.4  1.0  1.0  5  0 544830925
[03]  G18  f 41   3011.3 2045996.1  1.0  1.0  5  0 544830921
[04]  G19  f 35  -2632.8 2046003.3  1.0  1.0  5  0 544830921
[05]  G22  f 41    572.2 2045999.2  1.0  1.0  5  0 544830926
[06]  G28  f 35  -1457.6 2046001.9  1.0  1.0  5  0 544830931
[16]  B08 1f 44    -58.1 4092000.1  1.0  1.0  5  0 544816879
[17]  B10 1f 40   -148.3 4092000.4  1.0  1.0  5  0 544816879
[18]  B11 1f 42    867.6 4091997.7  1.0  1.0  5  0 544816922
[19]  B13 1f 43   -436.8 4092001.2  1.0  1.0  5  0 544816874
lsq: nits= 2
$GNGGA,072014.000,3112.7056,N,12136.4353,E,1,07,3.1,58.5,M,,,,0000*2F
$GNRMC,072014.000,A,3112.7056,N,12136.4353,E,1.34,0.00,250519,,*12
$GPGSA,A,3,01,11,17,18,19,22,28,,,,,,3.9,3.1,2.4*30
$BDGSA,A,3,,,,,,,,,,,,,3.9,3.1,2.4*2D
$GPGSV,2,1,07,01,43,036,38,11,34,052,39,17,39,311,38,18,18,046,41*7C
$GPGSV,2,2,07,19,21,294,35,22,42,072,41,28,74,317,35*40
$BDGSV,1,1,04,08,00,000,44,10,00,000,40,11,00,000,42,13,00,000,43*62
$LOGTIM,1,-885.174541,0.000000,0.000000,0.000000,-63.332*3B
EndT:        0
---00000066--- Acq_st=3 2019-5-25 07:20:14 
[00]  G01  f 39   2325.2 2045997.0  1.0  1.0  5  0 544831927
[01]  G11  f 40   2072.9 2045997.3  1.0  1.0  5  0 544831925
[02]  G17  f 38  -1842.9 2046002.4  1.0  1.0  5  0 544831925
[03]  G18  f 41   3013.2 2045996.1  1.0  1.0  5  0 544831921
[04]  G19  f 36  -2631.0 2046003.4  1.0  1.0  5  0 544831921
[05]  G22  f 41    574.9 2045999.2  1.0  1.0  5  0 544831926
[06]  G28  f 35  -1454.7 2046002.0  1.0  1.0  5  0 544831931
[16]  B08 1f 44    -56.2 4092000.1  1.0  1.0  5  0 544817879
[17]  B10 1f 40   -146.1 4092000.4  1.0  1.0  5  0 544817879
[18]  B11 1f 42    869.5 4091997.7  1.0  1.0  5  0 544817922
[19]  B13 1f 43   -434.9 4092001.1  1.0  1.0  5  0 544817874
lsq: nits= 2
$GNGGA,072015.000,3112.7062,N,12136.4350,E,1,07,3.1,57.9,M,,,,0000*29
$GNRMC,072015.000,A,3112.7062,N,12136.4350,E,0.80,0.00,250519,,*19
$GPGSA,A,3,01,11,17,18,19,22,28,,,,,,3.9,3.1,2.4*30
$BDGSA,A,3,,,,,,,,,,,,,3.9,3.1,2.4*2D
$GPGSV,2,1,07,01,43,036,39,11,34,052,40,17,39,311,38,18,18,046,41*73
$GPGSV,2,2,07,19,21,294,36,22,42,072,41,28,74,317,35*43
$BDGSV,1,1,04,08,00,000,44,10,00,000,40,11,00,000,42,13,00,000,43*62
$LOGTIM,1,-947.659855,0.000000,0.000000,0.000000,-63.420*30
EndT:        0
---00000067--- Acq_st=3 2019-5-25 07:20:15 
[00]  G01  f 39   2322.8 2045996.9  1.0  1.0  5  0 544832927
[01]  G11  f 39   2070.5 2045997.3  1.0  1.0  5  0 544832925
[02]  G17  f 38  -1846.4 2046002.4  1.0  1.0  5  0 544832925
[03]  G18  f 41   3010.2 2045996.1  1.0  1.0  5  0 544832921
[04]  G19  f 36  -2634.4 2046003.5  1.0  1.0  5  0 544832921
[05]  G22  f 41    572.4 2045999.3  1.0  1.0  5  0 544832926
[06]  G28  f 35  -1457.9 2046001.9  1.0  1.0  5  0 544832931
[16]  B08 1f 44    -59.6 4092000.1  1.0  1.0  5  0 544818879
[17]  B10 1f 39   -149.1 4092000.4  1.0  1.0  5  0 544818879
[18]  B11 1f 42    866.8 4091997.7  1.0  1.0  5  0 544818922
[19]  B13 1f 42   -438.1 4092001.1  1.0  1.0  5  0 544818874
lsq: nits= 2
$GNGGA,072016.000,3112.7067,N,12136.4348,E,1,07,3.1,57.5,M,,,,0000*2A
$GNRMC,072016.000,A,3112.7067,N,12136.4348,E,0.64,0.00,250519,,*1C
$GPGSA,A,3,01,11,17,18,19,22,28,,,,,,3.9,3.1,2.4*30
$BDGSA,A,3,,,,,,,,,,,,,3.9,3.1,2.4*2D
$GPGSV,2,1,07,01,43,036,39,11,34,052,39,17,39,311,38,18,18,046,41*7D
$GPGSV,2,2,07,19,21,294,36,22,42,072,41,28,74,317,35*43
$BDGSV,1,1,04,08,00,000,44,10,00,000,39,11,00,000,42,13,00,000,42*6D
$LOGTIM,1,-1009.945484,0.000000,0.000000,0.000000,-63.213*06
EndT:        0
---00000068--- Acq_st=3 2019-5-25 07:20:16 
[00]  G01  f 40   2325.7 2045997.0  1.0  1.0  5  0 544833927
[01]  G11  f 40   2072.4 2045997.3  1.0  1.0  5  0 544833925
[02]  G17  f 39  -1844.2 2046002.4  1.0  1.0  5  0 544833925
[03]  G18  f 41   3012.6 2045996.1  1.0  1.0  5  0 544833921
[04]  G19  f 37  -2631.8 2046003.4  1.0  1.0  5  0 544833921
[05]  G22  f 41    575.5 2045999.3  1.0  1.0  5  0 544833926
[06]  G28  f 35  -1454.4 2046001.9  1.0  0.9  5  0 544833931
[16]  B08 1f 44    -57.2 4092000.1  1.0  1.0  5  0 544819879
[17]  B10 1f 40   -146.9 4092000.3  1.0  1.0  5  0 544819879
[18]  B11 1f 41    868.8 4091997.7  1.0  1.0  5  0 544819922
[19]  B13 1f 43   -435.6 4092001.2  1.0  1.0  5  0 544819874
---00000069--- Acq_st=3 2019-5-25 07:20:16 
[00]  G01  f 39   2326.9 2045997.0  1.0  1.0  5  0 544833927
[01]  G11  f 40   2074.6 2045997.3  1.0  1.0  5  0 544833925
[02]  G17  f 38  -1842.3 2046002.4  1.0  1.0  5  0 544833925
[03]  G18  f 41   3014.2 2045996.1  1.0  1.0  5  0 544833921
[04]  G19  f 36  -2630.1 2046003.4  1.0  0.9  5  0 544833921
[05]  G22  f 42    577.7 2045999.3  1.0  1.0  5  0 544833926
[06]  G28  f 35  -1453.1 2046001.9  1.0  1.0  5  0 544833931
[16]  B08 1f 44    -55.8 4092000.1  1.0  1.0  5  0 544819879
[17]  B10 1f 40   -145.2 4092000.4  1.0  1.0  5  0 544819879
[18]  B11 1f 41    870.6 4091997.7  1.0  1.0  5  0 544819922
[19]  B13 1f 43   -434.1 4092001.1  1.0  1.0  5  0 544819874
lsq: nits= 2
$GNGGA,072017.000,3112.7076,N,12136.4344,E,1,07,3.1,57.2,M,,,,0000*20
$GNRMC,072017.000,A,3112.7076,N,12136.4344,E,0.54,0.00,250519,,*12
$GPGSA,A,3,01,11,17,18,19,22,28,,,,,,3.9,3.1,2.4*30
$BDGSA,A,3,,,,,,,,,,,,,3.9,3.1,2.4*2D
$GPGSV,2,1,07,01,43,036,39,11,34,052,40,17,39,311,38,18,18,046,41*73
$GPGSV,2,2,07,19,21,294,36,22,42,072,42,28,74,317,35*40
$BDGSV,1,1,04,08,00,000,44,10,00,000,40,11,00,000,41,13,00,000,43*61
$LOGTIM,1,-1071.637633,0.000000,0.000000,0.000000,-62.888*04
EndT:        0
---00000070--- Acq_st=3 2019-5-25 07:20:17 
[00]  G01  f 40   2326.6 2045996.9  1.0  1.0  5  0 544834927
[01]  G11  f 40   2073.5 2045997.4  1.0  1.0  5  0 544834925
[02]  G17  f 38  -1842.9 2046002.4  1.0  1.0  5  0 544834925
[03]  G18  f 42   3013.4 2045996.1  1.0  1.0  5  0 544834921
[04]  G19  f 37  -2631.0 2046003.5  1.0  1.0  5  0 544834921
[05]  G22  f 41    577.4 2045999.3  1.0  1.0  5  0 544834926
[06]  G28  f 35  -1453.2 2046001.9  1.0  1.0  5  0 544834931
[16]  B08 1f 44    -56.1 4092000.1  1.0  1.0  5  0 544820879
[17]  B10 1f 40   -145.3 4092000.4  1.0  1.0  5  0 544820879
[18]  B11 1f 42    870.1 4091997.7  1.0  1.0  5  0 544820922
[19]  B13 1f 43   -434.4 4092001.1  1.0  1.0  5  0 544820874
lsq: nits= 2
$GNGGA,072018.000,3112.7086,N,12136.4342,E,1,07,3.1,57.1,M,,,,0000*25
$GNRMC,072018.000,A,3112.7086,N,12136.4342,E,0.20,0.00,250519,,*17
$GPGSA,A,3,01,11,17,18,19,22,28,,,,,,3.9,3.1,2.4*30
$BDGSA,A,3,,,,,,,,,,,,,3.9,3.1,2.4*2D
$GPGSV,2,1,07,01,43,036,40,11,34,052,40,17,39,311,38,18,18,046,42*7E
$GPGSV,2,2,07,19,21,294,37,22,42,072,41,28,74,317,35*42
$BDGSV,1,1,04,08,00,000,44,10,00,000,40,11,00,000,42,13,00,000,43*62
$LOGTIM,1,-1133.277174,0.000000,0.000000,0.000000,-62.806*01
EndT:        0
---00000071--- Acq_st=3 2019-5-25 07:20:18 
[00]  G01  f 39   2325.5 2045996.9  1.0  1.0  5  0 544835927
[01]  G11  f 39   2071.7 2045997.3  1.0  1.0  5  0 544835925
[02]  G17  f 37  -1845.2 2046002.4  1.0  1.0  5  0 544835925
[03]  G18  f 42   3011.5 2045996.1  1.0  1.0  5  0 544835921
[04]  G19  f 36  -2633.6 2046003.4  1.0  0.9  5  0 544835921
[05]  G22  f 41    576.3 2045999.2  1.0  1.0  5  0 544835926
[06]  G28  f 35  -1454.9 2046001.9  1.0  0.9  5  0 544835931
[16]  B08 1f 44    -57.8 4092000.2  1.0  1.0  5  0 544821879
[17]  B10 1f 40   -146.9 4092000.4  1.0  1.0  5  0 544821879
