FlashID=0x1 0x20 0x18
BBram_blkflag1: 438a: bc75
FW Ver: 1.30  
GPS00 Init Dop:   5000, 40
GPS01 Init Dop:   5000, 40
GPS02 Init Dop:   5000, 40
GPS03 Init Dop:   5000, 40
GPS04 Init Dop:   5000, 40
GPS05 Init Dop:   5000, 40
GPS06 Init Dop:   5000, 40
GPS07 Init Dop:   5000, 40
GPS08 Init Dop:   5000, 40
GPS09 Init Dop:   5000, 40
GPS10 Init Dop:   5000, 40
GPS11 Init Dop:   5000, 40
GPS12 Init Dop:   5000, 40
GPS13 Init Dop:   5000, 40
GPS14 Init Dop:   5000, 40
GPS15 Init Dop:   5000, 40
GPS16 Init Dop:   5000, 40
GPS17 Init Dop:   5000, 40
GPS18 Init Dop:   5000, 40
GPS19 Init Dop:   5000, 40
GPS20 Init Dop:   5000, 40
GPS21 Init Dop:   5000, 40
GPS22 Init Dop:   5000, 40
GPS23 Init Dop:   5000, 40
GPS24 Init Dop:   5000, 40
GPS25 Init Dop:   5000, 40
GPS26 Init Dop:   5000, 40
GPS27 Init Dop:   5000, 40
GPS28 Init Dop:   5000, 40
GPS29 Init Dop:   5000, 40
GPS30 Init Dop:   5000, 40
GPS31 Init Dop:   5000, 40
BDS00 Init Dop:   5000, 40
BDS01 Init Dop:   5000, 40
BDS02 Init Dop:   5000, 40
BDS03 Init Dop:   5000, 40
BDS04 Init Dop:   5000, 40
BDS05 Init Dop:   5000, 40
BDS06 Init Dop:   5000, 40
BDS07 Init Dop:   5000, 40
BDS08 Init Dop:   5000, 40
BDS09 Init Dop:   5000, 40
BDS10 Init Dop:   5000, 40
BDS11 Init Dop:   5000, 40
BDS12 Init Dop:   5000, 40
BDS13 Init Dop:   5000, 40
BDS14 Init Dop:   5000, 40
BDS15 Init Dop:   5000, 40
BDS16 Init Dop:   5000, 40
BDS17 Init Dop:   5000, 40
BDS18 Init Dop:   5000, 40
BDS19 Init Dop:   5000, 40
BDS20 Init Dop:   5000, 40
BDS21 Init Dop:   5000, 40
BDS22 Init Dop:   5000, 40
BDS23 Init Dop:   5000, 40
BDS24 Init Dop:   5000, 40
BDS25 Init Dop:   5000, 40
BDS26 Init Dop:   5000, 40
BDS27 Init Dop:   5000, 40
BDS28 Init Dop:   5000, 40
BDS29 Init Dop:   5000, 40
BDS30 Init Dop:   5000, 40
BDS31 Init Dop:   5000, 40
---00000001--- Acq_st=3 2019-5-25 03:24:49 
$GNGGA,000000.000,,,,,0,00,,,M,,,,0000*2B
$GNRMC,000000.000,A,,,,,,,000000,,*26
$GPGSA,A,1,,,,,,,,,,,,,,,*1E
$BDGSA,A,1,,,,,,,,,,,,,,,*0F
$LOGTIM,0,0.000000,0.000000,0.000000,0.000000,0.000*0A
EndT:        0
---00000002--- Acq_st=3 2019-5-25 03:24:50 
$GNGGA,000000.000,,,,,0,00,,,M,,,,0000*2B
$GNRMC,000000.000,A,,,,,,,000000,,*26
$GPGSA,A,1,,,,,,,,,,,,,,,*1E
$BDGSA,A,1,,,,,,,,,,,,,,,*0F
$LOGTIM,0,0.000000,0.000000,0.000000,0.000000,0.000*0A
EndT:        0
---00000003--- Acq_st=3 2019-5-25 03:24:51 
$GNGGA,000000.000,,,,,0,00,,,M,,,,0000*2B
$GNRMC,000000.000,A,,,,,,,000000,,*26
$GPGSA,A,1,,,,,,,,,,,,,,,*1E
$BDGSA,A,1,,,,,,,,,,,,,,,*0F
$LOGTIM,0,0.000000,0.000000,0.000000,0.000000,0.000*0A
EndT:        0
---00000004--- Acq_st=3 2019-5-25 03:24:52 
$GNGGA,000000.000,,,,,0,00,,,M,,,,0000*2B
$GNRMC,000000.000,A,,,,,,,000000,,*26
$GPGSA,A,1,,,,,,,,,,,,,,,*1E
$BDGSA,A,1,,,,,,,,,,,,,,,*0F
$LOGTIM,0,0.000000,0.000000,0.000000,0.000000,0.000*0A
EndT:        0
ch0 satid=3,max_freq = -250,max_mean = 20449,max_phase = 372,max_value = 146694,acq ok1!
acq ok1 timeH = 0,timeL = 67365870,freq_stage = 3
---00000005--- Acq_st=3 2019-5-25 03:24:53 
[00]  G04  1 29    271.5 2045999.7  0.0  0.0  1  0         0
$GNGGA,000000.000,,,,,0,00,,,M,,,,0000*2B
$GNRMC,000000.000,A,,,,,,,000000,,*26
$GPGSA,A,1,,,,,,,,,,,,,,,*1E
$BDGSA,A,1,,,,,,,,,,,,,,,*0F
$LOGTIM,0,0.000000,0.000000,0.000000,0.000000,0.000*0A
EndT:        0
---00000006--- Acq_st=3 2019-5-25 03:24:54 
[00]  G04  7 28    260.8 2045999.6  0.1  1.0 10  0        12
$GNGGA,000000.000,,,,,0,00,,,M,,,,0000*2B
$GNRMC,000000.000,A,,,,,,,000000,,*26
$GPGSA,A,1,,,,,,,,,,,,,,,*1E
$BDGSA,A,1,,,,,,,,,,,,,,,*0F
$GPGSV,1,1,01,04,00,000,28*46
$LOGTIM,0,0.000000,0.000000,0.000000,0.000000,0.000*0A
EndT:        0
---00000007--- Acq_st=3 2019-5-25 03:24:55 
[00]  G04  f 37    263.9 2045999.6  1.0  1.0  5  0        15
$GNGGA,000000.000,,,,,0,00,,,M,,,,0000*2B
$GNRMC,000000.000,A,,,,,,,000000,,*26
$GPGSA,A,1,,,,,,,,,,,,,,,*1E
$BDGSA,A,1,,,,,,,,,,,,,,,*0F
$GPGSV,1,1,01,04,00,000,37*48
$LOGTIM,0,0.000000,0.000000,0.000000,0.000000,0.000*0A
EndT:        0
ch1 satid=6,max_freq = 3000,max_mean = 20564,max_phase = 1235,max_value = 233354,acq ok1!
acq ok1 timeH = 0,timeL = 122741422,freq_stage = 2
---00000008--- Acq_st=3 2019-5-25 03:24:56 
[00]  G04  f 37    268.9 2045999.5  1.0  1.0  5  0 530713295
[01]  G07  1 24  -2948.1 2046004.4  0.1  0.0  1  0         0
$GNGGA,000000.000,,,,,0,00,,,M,,,,0000*2B
$GNRMC,000000.000,A,,,,,,,000000,,*26
$GPGSA,A,1,,,,,,,,,,,,,,,*1E
$BDGSA,A,1,,,,,,,,,,,,,,,*0F
$GPGSV,1,1,01,04,00,000,37*48
$LOGTIM,0,0.000000,0.000000,0.000000,0.000000,0.000*0A
EndT:        0
ch2 satid=7,max_freq = 0,max_mean = 19871,max_phase = 1634,max_value = 131835,acq ok1!
acq ok1 timeH = 0,timeL = 146468332,freq_stage = 3
---00000009--- Acq_st=3 2019-5-25 03:24:57 
[00]  G04  f 37    272.4 2045999.5  1.0  1.0  5  0 530714295
[01]  G07  7 27  -2937.9 2046003.8 -0.1  1.0 10  0         3
[02]  G08  1  7   -103.7 2046001.6 -0.0  0.0  1  0         0
$GNGGA,000000.000,,,,,0,00,,,M,,,,0000*2B
$GNRMC,000000.000,A,,,,,,,000000,,*26
$GPGSA,A,1,,,,,,,,,,,,,,,*1E
$BDGSA,A,1,,,,,,,,,,,,,,,*0F
$GPGSV,1,1,02,04,00,000,37,07,00,000,27*79
$LOGTIM,0,0.000000,0.000000,0.000000,0.000000,0.000*0A
EndT:        0
ch3 satid=8,max_freq = -1250,max_mean = 20381,max_phase = 1806,max_value = 122794,acq ok1!
acq ok1 timeH = 0,timeL = 170195222,freq_stage = 4
---00000010--- Acq_st=3 2019-5-25 03:24:58 
[00]  G04  f 37    273.0 2045999.6  1.0  1.0  5  0 530715295
[01]  G07  7 40  -2936.7 2046003.8  0.8  1.0  5  0         0
[02]  G08  7 26   -134.2 2046000.1  0.2  0.0 20  0        12
[03]  G09  1 24   1286.2 2045998.1  0.0  0.0  1  0         0
$GNGGA,000000.000,,,,,0,00,,,M,,,,0000*2B
$GNRMC,000000.000,A,,,,,,,000000,,*26
$GPGSA,A,1,,,,,,,,,,,,,,,*1E
$BDGSA,A,1,,,,,,,,,,,,,,,*0F
$GPGSV,1,1,03,04,00,000,37,07,00,000,40,08,00,000,26*45
$LOGTIM,0,0.000000,0.000000,0.000000,0.000000,0.000*0A
EndT:        0
---00000011--- Acq_st=3 2019-5-25 03:24:59 
[00]  G04  f 37    271.7 2045999.7  1.0  1.0  5  0 530716295
[01]  G07  7 39  -2938.6 2046003.8  1.0  1.0  5  0         0
[02]  G08  7 37   -135.9 2046000.1  0.9  1.0  5  0         5
[03]  G09  7 25   1279.6 2045998.3  0.0  0.0 20  0         2
$GNGGA,000000.000,,,,,0,00,,,M,,,,0000*2B
$GNRMC,000000.000,A,,,,,,,000000,,*26
$GPGSA,A,1,,,,,,,,,,,,,,,*1E
$BDGSA,A,1,,,,,,,,,,,,,,,*0F
$GPGSV,1,1,04,04,00,000,37,07,00,000,39,08,00,000,37,09,00,000,25*72
$LOGTIM,0,0.000000,0.000000,0.000000,0.000000,0.000*0A
EndT:        0
---00000012--- Acq_st=3 2019-5-25 03:25:0 
[00]  G04  f 37    270.2 2045999.6  1.0  1.0  5  0 530717295
[01]  G07  7 39  -2940.9 2046003.8  1.0  1.0  5  0         0
[02]  G08  7 37   -138.1 2046000.2  1.0  1.0  5  0         5
[03]  G09  7 36   1276.8 2045998.4  1.0  1.0  5  0        16
$GNGGA,000000.000,,,,,0,00,,,M,,,,0000*2B
$GNRMC,000000.000,A,,,,,,,000000,,*26
$GPGSA,A,1,,,,,,,,,,,,,,,*1E
$BDGSA,A,1,,,,,,,,,,,,,,,*0F
$GPGSV,1,1,04,04,00,000,37,07,00,000,39,08,00,000,37,09,00,000,36*70
$LOGTIM,0,0.000000,0.000000,0.000000,0.000000,0.000*0A
EndT:        0
---00000013--- Acq_st=3 2019-5-25 03:25:1 
[00]  G04  f 37    268.8 2045999.7  1.0  0.9  5  0 530718295
[01]  G07  f 39  -2942.1 2046003.8  1.0  1.0  5  0         0
[02]  G08  f 38   -138.5 2046000.2  1.0  1.0  5  0         5
[03]  G09  f 35   1274.5 2045998.4  1.0  1.0  5  0        16
$GNGGA,000000.000,,,,,0,00,,,M,,,,0000*2B
$GNRMC,000000.000,A,,,,,,,000000,,*26
$GPGSA,A,1,,,,,,,,,,,,,,,*1E
$BDGSA,A,1,,,,,,,,,,,,,,,*0F
$GPGSV,1,1,04,04,00,000,37,07,00,000,39,08,00,000,38,09,00,000,35*7C
$LOGTIM,0,0.000000,0.000000,0.000000,0.000000,0.000*0A
EndT:        0
---00000014--- Acq_st=3 2019-5-25 03:25:2 
[00]  G04  f 37    268.9 2045999.7  1.0  1.0  5  0 530719295
[01]  G07  f 39  -2942.6 2046003.8  1.0  1.0  5  0 530719300
[02]  G08  f 37   -138.7 2046000.2  1.0  1.0  5  0 530719305
[03]  G09  f 35   1275.2 2045998.3  1.0  0.9  5  0 530719296
$GNGGA,000000.000,,,,,0,00,,,M,,,,0000*2B
$GNRMC,000000.000,A,,,,,,,000000,,*26
$GPGSA,A,1,,,,,,,,,,,,,,,*1E
$BDGSA,A,1,,,,,,,,,,,,,,,*0F
$GPGSV,1,1,04,04,00,000,37,07,00,000,39,08,00,000,37,09,00,000,35*73
$LOGTIM,0,0.000000,0.000000,0.000000,0.000000,0.000*0A
EndT:        0
---00000015--- Acq_st=3 2019-5-25 03:25:3 
[00]  G04  f 37    271.2 2045999.6  1.0  1.0  5  0 530720295
[01]  G07  f 40  -2941.2 2046003.8  1.0  1.0  5  0 530720300
[02]  G08  f 38   -137.8 2046000.1  1.0  1.0  5  0 530720305
[03]  G09  f 36   1277.1 2045998.3  1.0  1.0  5  0 530720296
$GNGGA,000000.000,,,,,0,00,,,M,,,,0000*2B
$GNRMC,000000.000,A,,,,,,,000000,,*26
$GPGSA,A,1,,,,,,,,,,,,,,,*1E
$BDGSA,A,1,,,,,,,,,,,,,,,*0F
$GPGSV,1,1,04,04,00,000,37,07,00,000,40,08,00,000,38,09,00,000,36*71
$LOGTIM,0,0.000000,0.000000,0.000000,0.000000,0.000*0A
EndT:        0
---00000016--- Acq_st=3 2019-5-25 03:25:4 
[00]  G04  f 36    269.4 2045999.7  1.0  0.9  5  0 530721295
[01]  G07  f 40  -2942.9 2046003.8  1.0  1.0  5  0 530721300
[02]  G08  f 37   -138.9 2046000.1  1.0  1.0  5  0 530721305
[03]  G09  f 35   1275.3 2045998.3  1.0  1.0  5  0 530721296
$GNGGA,000000.000,,,,,0,00,,,M,,,,0000*2B
$GNRMC,000000.000,A,,,,,,,000000,,*26
$GPGSA,A,1,,,,,,,,,,,,,,,*1E
$BDGSA,A,1,,,,,,,,,,,,,,,*0F
$GPGSV,1,1,04,04,00,000,36,07,00,000,40,08,00,000,37,09,00,000,35*7C
$LOGTIM,0,0.000000,0.000000,0.000000,0.000000,0.000*0A
EndT:        0
ch4 satid=15,max_freq = -1500,max_mean = 20891,max_phase = 447,max_value = 624639,acq ok1!
acq ok1 timeH = 0,timeL = 308624513,freq_stage = 4
---00000017--- Acq_st=3 2019-5-25 03:25:5 
[00]  G04  f 37    267.3 2045999.6  1.0  1.0  5  0 530722295
[01]  G07  f 40  -2944.2 2046003.8  1.0  1.0  5  0 530722300
[02]  G08  f 38   -141.1 2046000.1  1.0  0.9  5  0 530722305
[03]  G09  f 34   1273.5 2045998.3  1.0  1.0  5  0 530722296
[04]  G16  1 22   1465.0 2045999.2 -0.0  0.0  1  0         0
$GNGGA,000000.000,,,,,0,00,,,M,,,,0000*2B
$GNRMC,000000.000,A,,,,,,,000000,,*26
$GPGSA,A,1,,,,,,,,,,,,,,,*1E
$BDGSA,A,1,,,,,,,,,,,,,,,*0F
$GPGSV,1,1,04,04,00,000,37,07,00,000,40,08,00,000,38,09,00,000,34*73
$LOGTIM,0,0.000000,0.000000,0.000000,0.000000,0.000*0A
EndT:        0
---00000018--- Acq_st=3 2019-5-25 03:25:6 
[00]  G04  f 38    268.2 2045999.7  1.0  0.9  5  0 530723295
[01]  G07  f 41  -2943.9 2046003.8  1.0  1.0  5  0 530723300
[02]  G08  f 38   -140.7 2046000.2  1.0  1.0  5  0 530723305
[03]  G09  f 35   1273.5 2045998.4  1.0  1.0  5  0 530723296
[04]  G16  7 20   1463.4 2045998.0  0.2  0.0 20  0        13
$GNGGA,000000.000,,,,,0,00,,,M,,,,0000*2B
$GNRMC,000000.000,A,,,,,,,000000,,*26
$GPGSA,A,1,,,,,,,,,,,,,,,*1E
$BDGSA,A,1,,,,,,,,,,,,,,,*0F
$GPGSV,2,1,05,04,00,000,38,07,00,000,41,08,00,000,38,09,00,000,35*7E
$GPGSV,2,2,05,16,00,000,20*49
$LOGTIM,0,0.000000,0.000000,0.000000,0.000000,0.000*0A
EndT:        0
---00000019--- Acq_st=3 2019-5-25 03:25:7 
[00]  G04  f 37    269.3 2045999.6  1.0  0.9  5  0 530724295
[01]  G07  f 41  -2942.4 2046003.8  1.0  1.0  5  0 530724300
[02]  G08  f 38   -139.0 2046000.2  1.0  1.0  5  0 530724305
[03]  G09  f 35   1275.5 2045998.4  1.0  1.0  5  0 530724296
[04]  G16  7 43   1465.0 2045998.0  1.0  1.0  5  0        18
$GNGGA,000000.000,,,,,0,00,,,M,,,,0000*2B
$GNRMC,000000.000,A,,,,,,,000000,,*26
$GPGSA,A,1,,,,,,,,,,,,,,,*1E
$BDGSA,A,1,,,,,,,,,,,,,,,*0F
$GPGSV,2,1,05,04,00,000,37,07,00,000,41,08,00,000,38,09,00,000,35*71
$GPGSV,2,2,05,16,00,000,43*4C
$LOGTIM,0,0.000000,0.000000,0.000000,0.000000,0.000*0A
EndT:        0
---00000020--- Acq_st=3 2019-5-25 03:25:8 
[00]  G04  f 37    272.8 2045999.7  1.0  1.0  5  0 530725295
[01]  G07  f 41  -2939.6 2046003.8  1.0  1.0  5  0 530725300
[02]  G08  f 37   -135.8 2046000.2  1.0  1.0  5  0 530725305
[03]  G09  f 35   1278.8 2045998.4  1.0  1.0  5  0 530725296
[04]  G16  7 43   1467.6 2045998.0  1.0  1.0  5  0        18
$GNGGA,000000.000,,,,,0,00,,,M,,,,0000*2B
$GNRMC,000000.000,A,,,,,,,000000,,*26
$GPGSA,A,1,,,,,,,,,,,,,,,*1E
$BDGSA,A,1,,,,,,,,,,,,,,,*0F
$GPGSV,2,1,05,04,00,000,37,07,00,000,41,08,00,000,37,09,00,000,35*7E
$GPGSV,2,2,05,16,00,000,43*4C
$LOGTIM,0,0.000000,0.000000,0.000000,0.000000,0.000*0A
EndT:        0
---00000021--- Acq_st=3 2019-5-25 03:25:9 
[00]  G04  f 37    277.9 2045999.5  1.0  1.0  5  0 530726295
[01]  G07  f 41  -2935.1 2046003.8  1.0  1.0  5  0 530726300
[02]  G08  f 38   -131.4 2046000.2  1.0  1.0  5  0 530726305
[03]  G09  f 35   1282.8 2045998.3  1.0  0.9  5  0 530726296
[04]  G16  7 43   1471.7 2045998.1  1.0  1.0  5  0        18
$GNGGA,000000.000,,,,,0,00,,,M,,,,0000*2B
$GNRMC,000000.000,A,,,,,,,000000,,*26
$GPGSA,A,1,,,,,,,,,,,,,,,*1E
$BDGSA,A,1,,,,,,,,,,,,,,,*0F
$GPGSV,2,1,05,04,00,000,37,07,00,000,41,08,00,000,38,09,00,000,35*71
$GPGSV,2,2,05,16,00,000,43*4C
$LOGTIM,0,0.000000,0.000000,0.000000,0.000000,0.000*0A
EndT:        0
---00000022--- Acq_st=3 2019-5-25 03:25:10 
[00]  G04  f 38    277.8 2045999.6  1.0  0.9  5  0 530727295
[01]  G07  f 41  -2935.0 2046003.8  1.0  1.0  5  0 530727300
[02]  G08  f 38   -130.9 2046000.2  1.0  1.0  5  0 530727305
[03]  G09  f 35   1282.9 2045998.3  1.0  0.9  5  0 530727296
[04]  G16  7 43   1471.4 2045998.1  1.0  1.0  5  0        18
$GNGGA,000000.000,,,,,0,00,,,M,,,,0000*2B
$GNRMC,000000.000,A,,,,,,,000000,,*26
$GPGSA,A,1,,,,,,,,,,,,,,,*1E
$BDGSA,A,1,,,,,,,,,,,,,,,*0F
$GPGSV,2,1,05,04,00,000,38,07,00,000,41,08,00,000,38,09,00,000,35*7E
$GPGSV,2,2,05,16,00,000,43*4C
$LOGTIM,0,0.000000,0.000000,0.000000,0.000000,0.000*0A
EndT:        0
---00000023--- Acq_st=3 2019-5-25 03:25:11 
[00]  G04  f 38    276.0 2045999.6  1.0  1.0  5  0 530728295
[01]  G07  f 42  -2936.6 2046003.8  1.0  1.0  5  0 530728300
[02]  G08  f 38   -133.2 2046000.2  1.0  1.0  5  0 530728305
[03]  G09  f 35   1281.5 2045998.4  1.0  1.0  5  0 530728296
[04]  G16  7 43   1469.2 2045998.1  1.0  1.0  5  0        18
$GNGGA,000000.000,,,,,0,00,,,M,,,,0000*2B
$GNRMC,000000.000,A,,,,,,,000000,,*26
$GPGSA,A,1,,,,,,,,,,,,,,,*1E
$BDGSA,A,1,,,,,,,,,,,,,,,*0F
$GPGSV,2,1,05,04,00,000,38,07,00,000,42,08,00,000,38,09,00,000,35*7D
$GPGSV,2,2,05,16,00,000,43*4C
$LOGTIM,0,0.000000,0.000000,0.000000,0.000000,0.000*0A
EndT:        0
---00000024--- Acq_st=3 2019-5-25 03:25:12 
[00]  G04  f 38    275.3 2045999.7  1.0  1.0  5  0 530729295
[01]  G07  f 42  -2937.7 2046003.8  1.0  1.0  5  0 530729300
[02]  G08  f 39   -133.9 2046000.1  1.0  1.0  5  0 530729305
[03]  G09  f 35   1280.3 2045998.4  1.0  1.0  5  0 530729296
[04]  G16  7 42   1468.2 2045998.1  1.0  1.0  5  0        18
$GNGGA,000000.000,,,,,0,00,,,M,,,,0000*2B
$GNRMC,000000.000,A,,,,,,,000000,,*26
$GPGSA,A,1,,,,,,,,,,,,,,,*1E
$BDGSA,A,1,,,,,,,,,,,,,,,*0F
$GPGSV,2,1,05,04,00,000,38,07,00,000,42,08,00,000,39,09,00,000,35*7C
$GPGSV,2,2,05,16,00,000,42*4D
$LOGTIM,0,0.000000,0.000000,0.000000,0.000000,0.000*0A
EndT:        0
---00000025--- Acq_st=3 2019-5-25 03:25:13 
[00]  G04  f 37    273.8 2045999.6  1.0  1.0  5  0 530730295
[01]  G07  f 42  -2939.5 2046003.8  1.0  1.0  5  0 530730300
[02]  G08  f 38   -135.3 2046000.2  1.0  0.9  5  0 530730305
[03]  G09  f 35   1278.7 2045998.4  1.0  0.9  5  0 530730296
[04]  G16  f 42   1466.3 2045998.1  1.0  1.0  5  0        18
$GNGGA,000000.000,,,,,0,00,,,M,,,,0000*2B
$GNRMC,000000.000,A,,,,,,,000000,,*26
$GPGSA,A,1,,,,,,,,,,,,,,,*1E
$BDGSA,A,1,,,,,,,,,,,,,,,*0F
$GPGSV,2,1,05,04,00,000,37,07,00,000,42,08,00,000,38,09,00,000,35*72
$GPGSV,2,2,05,16,00,000,42*4D
$LOGTIM,0,0.000000,0.000000,0.000000,0.000000,0.000*0A
EndT:        0
---00000026--- Acq_st=3 2019-5-25 03:25:14 
[00]  G04  f 38    277.9 2045999.6  1.0  1.0  5  0 530731295
[01]  G07  f 42  -2935.6 2046003.8  1.0  1.0  5  0 530731300
[02]  G08  f 39   -131.4 2046000.2  1.0  1.0  5  0 530731305
[03]  G09  f 34   1282.1 2045998.3  1.0  1.0  5  0 530731296
[04]  G16  f 42   1469.9 2045998.1  1.0  1.0  5  0 530731298
$GNGGA,000000.000,,,,,0,00,,,M,,,,0000*2B
$GNRMC,000000.000,A,,,,,,,000000,,*26
$GPGSA,A,1,,,,,,,,,,,,,,,*1E
$BDGSA,A,1,,,,,,,,,,,,,,,*0F
$GPGSV,2,1,05,04,00,000,38,07,00,000,42,08,00,000,39,09,00,000,34*7D
$GPGSV,2,2,05,16,00,000,42*4D
$LOGTIM,0,0.000000,0.000000,0.000000,0.000000,0.000*0A
EndT:        0
---00000027--- Acq_st=3 2019-5-25 03:25:15 
[00]  G04  f 38    279.9 2045999.7  1.0  0.9  5  0 530732295
[01]  G07  f 42  -2933.7 2046003.8  1.0  1.0  5  0 530732300
[02]  G08  f 38   -129.6 2046000.2  1.0  1.0  5  0 530732305
[03]  G09  f 34   1285.1 2045998.3  1.0  0.9  5  0 530732296
[04]  G16  f 42   1471.6 2045998.1  1.0  1.0  5  0 530732298
$GNGGA,000000.000,,,,,0,00,,,M,,,,0000*2B
$GNRMC,000000.000,A,,,,,,,000000,,*26
$GPGSA,A,1,,,,,,,,,,,,,,,*1E
$BDGSA,A,1,,,,,,,,,,,,,,,*0F
$GPGSV,2,1,05,04,00,000,38,07,00,000,42,08,00,000,38,09,00,000,34*7C
$GPGSV,2,2,05,16,00,000,42*4D
$LOGTIM,0,0.000000,0.000000,0.000000,0.000000,0.000*0A
EndT:        0
ch5 satid=26,max_freq = -2000,max_mean = 21850,max_phase = 56,max_value = 1325749,acq ok1!
acq ok1 timeH = 0,timeL = 526156237,freq_stage = 4
---00000028--- Acq_st=3 2019-5-25 03:25:16 
[00]  G04  f 38    285.6 2045999.6  1.0  1.0  5  0 530733295
[01]  G07  f 42  -2928.7 2046003.8  1.0  1.0  5  0 530733300
[02]  G08  f 39   -124.0 2046000.2  1.0  1.0  5  0 530733305
[03]  G09  f 35   1289.5 2045998.3  1.0  1.0  5  0 530733296
[04]  G16  f 42   1476.3 2045998.0  1.0  1.0  5  0 530733298
[05]  G27  1  7   1988.7 2046000.3 -0.0  0.0  1  0         0
$GNGGA,000000.000,,,,,0,00,,,M,,,,0000*2B
$GNRMC,000000.000,A,,,,,,,000000,,*26
$GPGSA,A,1,,,,,,,,,,,,,,,*1E
$BDGSA,A,1,,,,,,,,,,,,,,,*0F
$GPGSV,2,1,05,04,00,000,38,07,00,000,42,08,00,000,39,09,00,000,35*7C
$GPGSV,2,2,05,16,00,000,42*4D
$LOGTIM,0,0.000000,0.000000,0.000000,0.000000,0.000*0A
EndT:        0
---00000029--- Acq_st=3 2019-5-25 03:25:17 
[00]  G04  f 38    289.4 2045999.6  1.0  1.0  5  0 530734295
[01]  G07  f 42  -2925.3 2046003.8  1.0  1.0  5  0 530734300
[02]  G08  f 39   -120.0 2046000.2  1.0  1.0  5  0 530734305
[03]  G09  f 35   1292.9 2045998.3  1.0  1.0  5  0 530734296
[04]  G16  f 42   1479.7 2045998.1  1.0  1.0  5  0 530734298
[05]  G27  1 33   1920.6 2045997.6  0.1  0.0  1  0         3
$GNGGA,000000.000,,,,,0,00,,,M,,,,0000*2B
$GNRMC,000000.000,A,,,,,,,000000,,*26
$GPGSA,A,1,,,,,,,,,,,,,,,*1E
$BDGSA,A,1,,,,,,,,,,,,,,,*0F
$GPGSV,2,1,05,04,00,000,38,07,00,000,42,08,00,000,39,09,00,000,35*7C
$GPGSV,2,2,05,16,00,000,42*4D
$LOGTIM,0,0.000000,0.000000,0.000000,0.000000,0.000*0A
EndT:        0
---00000030--- Acq_st=3 2019-5-25 03:25:18 
[00]  G04  f 38    285.2 2045999.7  1.0  1.0  5  0 530735295
[01]  G07  f 42  -2929.2 2046003.8  1.0  1.0  5  0 530735300
[02]  G08  f 39   -125.0 2046000.2  1.0  1.0  5  0 530735305
[03]  G09  f 35   1288.4 2045998.4  1.0  0.9  5  0 530735296
[04]  G16  f 43   1475.3 2045998.1  1.0  1.0  5  0 530735298
[05]  G27  7 36   1917.2 2045997.4  0.7  1.0  5  0         3
$GNGGA,000000.000,,,,,0,00,,,M,,,,0000*2B
$GNRMC,000000.000,A,,,,,,,000000,,*26
$GPGSA,A,1,,,,,,,,,,,,,,,*1E
$BDGSA,A,1,,,,,,,,,,,,,,,*0F
$GPGSV,2,1,06,04,00,000,38,07,00,000,42,08,00,000,39,09,00,000,35*7F
$GPGSV,2,2,06,16,00,000,43,27,00,000,36*7F
$LOGTIM,0,0.000000,0.000000,0.000000,0.000000,0.000*0A
EndT:        0
ch6 satid=29,max_freq = 3750,max_mean = 21313,max_phase = 649,max_value = 447370,acq ok1!
acq ok1 timeH = 0,timeL = 573628702,freq_stage = 1
---00000031--- Acq_st=3 2019-5-25 03:25:19 
[00]  G04  f 38    283.3 2045999.7  1.0  1.0  5  0 530736295
[01]  G07  f 43  -2931.2 2046003.8  1.0  1.0  5  0 530736300
[02]  G08  f 40   -126.3 2046000.2  1.0  1.0  5  0 530736305
[03]  G09  f 35   1287.0 2045998.4  1.0  1.0  5  0 530736296
[04]  G16  f 42   1472.5 2045998.1  1.0  1.0  5  0 530736298
[05]  G27  f 45   1914.7 2045997.4  1.0  1.0  5  0         2
[06]  G30  1  7  -1387.9 2046005.0  0.0  0.0  1  0         0
$GNGGA,000000.000,,,,,0,00,,,M,,,,0000*2B
$GNRMC,000000.000,A,,,,,,,000000,,*26
$GPGSA,A,1,,,,,,,,,,,,,,,*1E
$BDGSA,A,1,,,,,,,,,,,,,,,*0F
$GPGSV,2,1,06,04,00,000,38,07,00,000,43,08,00,000,40,09,00,000,35*70
$GPGSV,2,2,06,16,00,000,42,27,00,000,45*7A
$LOGTIM,0,0.000000,0.000000,0.000000,0.000000,0.000*0A
EndT:        0
---00000032--- Acq_st=3 2019-5-25 03:25:20 
[00]  G04  f 38    286.6 2045999.6  1.0  1.0  5  0 530737295
[01]  G07  f 43  -2928.1 2046003.8  1.0  1.0  5  0 530737300
[02]  G08  f 40   -123.5 2046000.2  1.0  1.0  5  0 530737305
[03]  G09  f 34   1290.2 2045998.4  1.0  0.9  5  0 530737296
[04]  G16  f 42   1476.1 2045998.1  1.0  1.0  5  0 530737298
[05]  G27  f 46   1917.9 2045997.5  1.0  1.0  5  0 530737302
[06]  G30  1 36  -3749.7 2046005.1 -0.1  0.0  1  0        12
$GNGGA,000000.000,,,,,0,00,,,M,,,,0000*2B
$GNRMC,000000.000,A,,,,,,,000000,,*26
$GPGSA,A,1,,,,,,,,,,,,,,,*1E
$BDGSA,A,1,,,,,,,,,,,,,,,*0F
$GPGSV,2,1,06,04,00,000,38,07,00,000,43,08,00,000,40,09,00,000,34*71
$GPGSV,2,2,06,16,00,000,42,27,00,000,46*79
$LOGTIM,0,0.000000,0.000000,0.000000,0.000000,0.000*0A
EndT:        0
---00000033--- Acq_st=3 2019-5-25 03:25:21 
[00]  G04  f 38    288.0 2045999.6  1.0  1.0  5  0 530738295
[01]  G07  f 42  -2927.0 2046003.8  1.0  1.0  5  0 530738300
[02]  G08  f 39   -122.2 2046000.1  1.0  1.0  5  0 530738305
[03]  G09  f 34   1290.7 2045998.3  1.0  1.0  5  0 530738296
[04]  G16  f 42   1476.9 2045998.1  1.0  1.0  5  0 530738298
[05]  G27  f 46   1918.8 2045997.5  1.0  1.0  5  0 530738302
[06]  G30  7 33  -3746.1 2046004.9  0.4  1.0  5  0        12
$GNGGA,000000.000,,,,,0,00,,,M,,,,0000*2B
$GNRMC,000000.000,A,,,,,,,000000,,*26
$GPGSA,A,1,,,,,,,,,,,,,,,*1E
$BDGSA,A,1,,,,,,,,,,,,,,,*0F
$GPGSV,2,1,07,04,00,000,38,07,00,000,42,08,00,000,39,09,00,000,34*7F
$GPGSV,2,2,07,16,00,000,42,27,00,000,46,30,00,000,33*4B
$LOGTIM,0,0.000000,0.000000,0.000000,0.000000,0.000*0A
EndT:        0
---00000034--- Acq_st=3 2019-5-25 03:25:22 
[00]  G04  f 38    283.7 2045999.6  1.0  1.0  5  0 530739295
[01]  G07  f 42  -2930.9 2046003.8  1.0  1.0  5  0 530739300
[02]  G08  f 40   -126.0 2046000.2  1.0  1.0  5  0 530739305
[03]  G09  f 35   1287.6 2045998.3  1.0  1.0  5  0 530739296
[04]  G16  f 43   1472.9 2045998.1  1.0  1.0  5  0 530739298
[05]  G27  f 45   1914.8 2045997.5  1.0  1.0  5  0 530739302
[06]  G30  7 41  -3750.5 2046004.9  1.0  1.0  5  0        11
$GNGGA,000000.000,,,,,0,00,,,M,,,,0000*2B
$GNRMC,000000.000,A,,,,,,,000000,,*26
$GPGSA,A,1,,,,,,,,,,,,,,,*1E
$BDGSA,A,1,,,,,,,,,,,,,,,*0F
$GPGSV,2,1,07,04,00,000,38,07,00,000,42,08,00,000,40,09,00,000,35*70
$GPGSV,2,2,07,16,00,000,43,27,00,000,45,30,00,000,41*4C
$LOGTIM,0,0.000000,0.000000,0.000000,0.000000,0.000*0A
EndT:        0
---00000035--- Acq_st=3 2019-5-25 03:25:23 
[00]  G04  f 37    281.7 2045999.6  1.0  0.9  5  0 530740295
[01]  G07  f 43  -2933.8 2046003.8  1.0  1.0  5  0 530740300
[02]  G08  f 39   -128.2 2046000.1  1.0  1.0  5  0 530740305
[03]  G09  f 36   1285.3 2045998.3  1.0  1.0  5  0 530740296
[04]  G16  f 43   1470.0 2045998.1  1.0  1.0  5  0 530740298
[05]  G27  f 45   1912.6 2045997.5  1.0  1.0  5  0 530740302
[06]  G30  7 41  -3753.5 2046004.9  1.0  1.0  5  0        11
$GNGGA,000000.000,,,,,0,00,,,M,,,,0000*2B
$GNRMC,000000.000,A,,,,,,,000000,,*26
$GPGSA,A,1,,,,,,,,,,,,,,,*1E
$BDGSA,A,1,,,,,,,,,,,,,,,*0F
$GPGSV,2,1,07,04,00,000,37,07,00,000,43,08,00,000,39,09,00,000,36*73
$GPGSV,2,2,07,16,00,000,43,27,00,000,45,30,00,000,41*4C
$LOGTIM,0,0.000000,0.000000,0.000000,0.000000,0.000*0A
EndT:        0
---00000036--- Acq_st=3 2019-5-25 03:25:24 
[00]  G04  f 37    284.4 2045999.6  1.0  0.9  5 3f 530741295
[01]  G07  f 43  -2931.2 2046003.8  1.0  1.0  5  0 530741300
[02]  G08  f 40   -125.7 2046000.2  1.0  1.0  5  0 530741305
[03]  G09  f 36   1287.3 2045998.3  1.0  1.0  5  0 530741296
[04]  G16  f 43   1471.8 2045998.1  1.0  1.0  5  0 530741298
[05]  G27  f 45   1914.5 2045997.5  1.0  1.0  5  0 530741302
[06]  G30  7 41  -3751.0 2046004.8  1.0  1.0  5  0        11
$GNGGA,000000.000,,,,,0,00,,,M,,,,0000*2B
$GNRMC,000000.000,A,,,,,,,000000,,*26
$GPGSA,A,1,,,,,,,,,,,,,,,*1E
$BDGSA,A,1,,,,,,,,,,,,,,,*0F
$GPGSV,2,1,07,04,00,000,37,07,00,000,43,08,00,000,40,09,00,000,36*7D
$GPGSV,2,2,07,16,00,000,43,27,00,000,45,30,00,000,41*4C
$LOGTIM,0,0.000000,0.000000,0.000000,0.000000,0.000*0A
EndT:        0
---00000037--- Acq_st=3 2019-5-25 03:25:25 
[00]  G04  f 37    282.4 2045999.7  1.0  1.0  5 3f 530742295
[01]  G07  f 42  -2933.5 2046003.8  1.0  1.0  5  0 530742300
[02]  G08  f 40   -127.7 2046000.2  1.0  1.0  5  0 530742305
[03]  G09  f 36   1286.0 2045998.3  1.0  1.0  5  0 530742296
[04]  G16  f 42   1469.8 2045998.1  1.0  1.0  5  0 530742298
[05]  G27  f 44   1912.2 2045997.5  1.0  1.0  5  0 530742302
[06]  G30  f 42  -3753.3 2046004.9  1.0  1.0  5  0        11
$GNGGA,000000.000,,,,,0,00,,,M,,,,0000*2B
$GNRMC,000000.000,A,,,,,,,000000,,*26
$GPGSA,A,1,,,,,,,,,,,,,,,*1E
$BDGSA,A,1,,,,,,,,,,,,,,,*0F
$GPGSV,2,1,07,04,00,000,37,07,00,000,42,08,00,000,40,09,00,000,36*7C
$GPGSV,2,2,07,16,00,000,42,27,00,000,44,30,00,000,42*4F
$LOGTIM,0,0.000000,0.000000,0.000000,0.000000,0.000*0A
EndT:        0
---00000038--- Acq_st=3 2019-5-25 03:25:26 
[00]  G04  f 38    283.2 2045999.7  1.0  0.9  5 3f 530743295
[01]  G07  f 43  -2933.1 2046003.8  1.0  1.0  5  0 530743300
[02]  G08  f 40   -127.3 2046000.1  1.0  1.0  5  0 530743305
[03]  G09  f 36   1285.7 2045998.3  1.0  0.9  5  0 530743296
[04]  G16  f 43   1469.6 2045998.1  1.0  1.0  5  0 530743298
[05]  G27  f 44   1912.8 2045997.5  1.0  1.0  5  0 530743302
[06]  G30  f 42  -3753.1 2046004.9  1.0  1.0  5  0 530743291
$GNGGA,000000.000,,,,,0,00,,,M,,,,0000*2B
$GNRMC,000000.000,A,,,,,,,000000,,*26
$GPGSA,A,1,,,,,,,,,,,,,,,*1E
$BDGSA,A,1,,,,,,,,,,,,,,,*0F
$GPGSV,2,1,07,04,00,000,38,07,00,000,43,08,00,000,40,09,00,000,36*72
$GPGSV,2,2,07,16,00,000,43,27,00,000,44,30,00,000,42*4E
$LOGTIM,0,0.000000,0.000000,0.000000,0.000000,0.000*0A
EndT:        0
---00000039--- Acq_st=3 2019-5-25 03:25:27 
[00]  G04  f 38    282.3 2045999.6  1.0  0.9  5 3f 530744295
[01]  G07  f 42  -2932.7 2046003.8  1.0  1.0  5  0 530744300
[02]  G08  f 40   -127.5 2046000.1  1.0  1.0  5  0 530744305
[03]  G09  f 37   1285.2 2045998.3  1.0  1.0  5  0 530744296
[04]  G16  f 43   1469.3 2045998.1  1.0  1.0  5  0 530744298
[05]  G27  f 43   1912.5 2045997.5  1.0  1.0  5  0 530744302
[06]  G30  f 42  -3753.2 2046004.8  1.0  1.0  5  0 530744291
$GNGGA,000000.000,,,,,0,00,,,M,,,,0000*2B
$GNRMC,000000.000,A,,,,,,,000000,,*26
$GPGSA,A,1,,,,,,,,,,,,,,,*1E
$BDGSA,A,1,,,,,,,,,,,,,,,*0F
$GPGSV,2,1,07,04,00,000,38,07,00,000,42,08,00,000,40,09,00,000,37*72
$GPGSV,2,2,07,16,00,000,43,27,00,000,43,30,00,000,42*49
$LOGTIM,0,0.000000,0.000000,0.000000,0.000000,0.000*0A
EndT:        0
---00000040--- Acq_st=3 2019-5-25 03:25:28 
[00]  G04  f 37    281.4 2045999.7  1.0  0.9  5 3f 530745295
[01]  G07  f 42  -2934.0 2046003.8  1.0  1.0  5  0 530745300
[02]  G08  f 40   -129.1 2046000.2  1.0  1.0  5  0 530745305
[03]  G09  f 37   1284.0 2045998.4  1.0  1.0  5  0 530745296
[04]  G16  f 43   1467.6 2045998.1  1.0  1.0  5  0 530745298
[05]  G27  f 43   1911.1 2045997.5  1.0  1.0  5  0 530745302
[06]  G30  f 42  -3754.6 2046004.9  1.0  1.0  5  0 530745291
$GNGGA,000000.000,,,,,0,00,,,M,,,,0000*2B
$GNRMC,000000.000,A,,,,,,,000000,,*26
$GPGSA,A,1,,,,,,,,,,,,,,,*1E
$BDGSA,A,1,,,,,,,,,,,,,,,*0F
$GPGSV,2,1,07,04,00,000,37,07,00,000,42,08,00,000,40,09,00,000,37*7D
$GPGSV,2,2,07,16,00,000,43,27,00,000,43,30,00,000,42*49
$LOGTIM,0,0.000000,0.000000,0.000000,0.000000,0.000*0A
EndT:        0
---00000041--- Acq_st=3 2019-5-25 03:25:29 
[00]  G04  f 37    283.0 2045999.7  1.0  1.0  5 3f 530746295
[01]  G07  f 42  -2933.7 2046003.8  1.0  1.0  5  0 530746300
[02]  G08  f 40   -128.1 2046000.2  1.0  1.0  5  0 530746305
[03]  G09  f 37   1284.8 2045998.3  1.0  1.0  5  0 530746296
[04]  G16  f 43   1468.3 2045998.1  1.0  1.0  5  0 530746298
[05]  G27  f 43   1911.7 2045997.5  1.0  1.0  5  0 530746302
[06]  G30  f 42  -3754.4 2046004.8  1.0  1.0  5  0 530746291
$GNGGA,000000.000,,,,,0,00,,,M,,,,0000*2B
$GNRMC,000000.000,A,,,,,,,000000,,*26
$GPGSA,A,1,,,,,,,,,,,,,,,*1E
$BDGSA,A,1,,,,,,,,,,,,,,,*0F
$GPGSV,2,1,07,04,00,000,37,07,00,000,42,08,00,000,40,09,00,000,37*7D
$GPGSV,2,2,07,16,00,000,43,27,00,000,43,30,00,000,42*49
$LOGTIM,0,0.000000,0.000000,0.000000,0.000000,0.000*0A
EndT:        0
---00000042--- Acq_st=3 2019-5-25 03:25:30 
[00]  G04  f 38    282.9 2045999.6  1.0  1.0  5 3f 530747295
[01]  G07  f 41  -2933.4 2046003.8  1.0  1.0  5  0 530747300
[02]  G08  f 39   -127.9 2046000.2  1.0  1.0  5  0 530747305
[03]  G09  f 36   1285.1 2045998.3  1.0  1.0  5  0 530747296
[04]  G16  f 43   1468.4 2045998.1  1.0  1.0  5  0 530747298
[05]  G27  f 42   1911.8 2045997.5  1.0  1.0  5  0 530747302
[06]  G30  f 43  -3754.7 2046004.9  1.0  1.0  5  0 530747291
lsq: nits= 4
$GNGGA,032530.373,3112.7147,N,12136.4402,E,1,04,2.5,82.2,M,,,,0000*2B
$GNRMC,032530.373,A,3112.7147,N,12136.4402,E,0.14,0.00,250519,,*13
$GPGSA,A,3,07,08,09,16,,,,,,,,,3.8,2.5,2.8*35
$BDGSA,A,3,,,,,,,,,,,,,3.8,2.5,2.8*25
$GPGSV,2,1,07,04,00,000,38,07,00,000,41,08,00,000,39,09,00,000,36*7E
$GPGSV,2,2,07,16,00,000,43,27,00,000,42,30,00,000,43*49
$LOGTIM,1,6795992.382637,0.000000,0.000000,0.000000,-61.898*1C
EndT:        0
---00000043--- Acq_st=3 2019-5-25 03:25:31 
[00]  G04  f 38    286.3 2045999.6  1.0  1.0  5 3f 530748295
[01]  G07  f 41  -2930.2 2046003.9  1.0  1.0  5  0 530748300
[02]  G08  f 40   -124.7 2046000.2  1.0  1.0  5  0 530748305
[03]  G09  f 37   1289.0 2045998.3  1.0  1.0  5  0 530748296
[04]  G16  f 43   1471.4 2045998.1  1.0  1.0  5  0 530748298
[05]  G27  f 41   1915.0 2045997.5  1.0  1.0  5  0 530748302
[06]  G30  f 42  -3751.5 2046004.9  1.0  1.0  5  0 530748291
lsq: nits= 4
$GNGGA,032532.000,3112.7181,N,12136.4389,E,1,04,2.5,81.9,M,,,,0000*28
$GNRMC,032532.000,A,3112.7181,N,12136.4389,E,0.20,0.00,250519,,*1F
$GPGSA,A,3,07,08,09,16,,,,,,,,,3.8,2.5,2.8*35
$BDGSA,A,3,,,,,,,,,,,,,3.8,2.5,2.8*25
$GPGSV,2,1,07,04,00,000,38,07,00,000,41,08,00,000,40,09,00,000,37*71
$GPGSV,2,2,07,16,00,000,43,27,00,000,41,30,00,000,42*4B
$LOGTIM,1,-98.937302,0.000000,0.000000,0.000000,-60.760*01
EndT:        0
---00000044--- Acq_st=3 2019-5-25 03:25:32 
[00]  G04  f 38    294.1 2045999.6  1.0  0.9  5 3f 530749922
[01]  G07  f 41  -2922.7 2046003.8  1.0  1.0  5  0 530749927
[02]  G08  f 40   -116.6 2046000.1  1.0  1.0  5  0 530749932
[03]  G09  f 36   1295.3 2045998.3  1.0  1.0  5  0 530749923
[04]  G16  f 44   1478.8 2045998.1  1.0  1.0  5  0 530749924
[05]  G27  f 41   1923.0 2045997.5  1.0  1.0  5  0 530749929
[06]  G30  f 42  -3744.1 2046004.8  1.0  1.0  5  0 530749918
lsq: nits= 4
$GNGGA,032533.000,3112.7182,N,12136.4389,E,1,04,2.5,82.7,M,,,,0000*27
$GNRMC,032533.000,A,3112.7182,N,12136.4389,E,0.17,0.00,250519,,*19
$GPGSA,A,3,07,08,09,16,,,,,,,,,3.8,2.5,2.8*35
$BDGSA,A,3,,,,,,,,,,,,,3.8,2.5,2.8*25
$GPGSV,2,1,07,04,00,000,38,07,44,314,41,08,74,308,40,09,25,255,36*7B
$GPGSV,2,2,07,16,34,069,44,27,00,000,41,30,00,000,42*44
$LOGTIM,1,-158.365237,0.000000,0.000000,0.000000,-59.840*31
EndT:        0
---00000045--- Acq_st=3 2019-5-25 03:25:33 
[00]  G04  f 39    298.7 2045999.6  1.0  1.0  5 3f 530750922
[01]  G07  f 40  -2917.9 2046003.8  1.0  1.0  5  0 530750927
[02]  G08  f 40   -112.0 2046000.1  1.0  1.0  5  0 530750932
[03]  G09  f 35   1300.9 2045998.4  1.0  1.0  5  0 530750923
[04]  G16  f 44   1482.7 2045998.1  1.0  1.0  5  0 530750924
[05]  G27  f 41   1926.4 2045997.5  1.0  1.0  5  0 530750929
[06]  G30  f 42  -3739.8 2046004.9  1.0  1.0  5  0 530750918
lsq: nits= 4
$GNGGA,032534.000,3112.7174,N,12136.4386,E,1,04,2.5,82.9,M,,,,0000*28
$GNRMC,032534.000,A,3112.7174,N,12136.4386,E,0.08,0.00,250519,,*16
$GPGSA,A,3,07,08,09,16,,,,,,,,,3.8,2.5,2.8*35
$BDGSA,A,3,,,,,,,,,,,,,3.8,2.5,2.8*25
$GPGSV,2,1,07,04,00,000,39,07,44,314,40,08,74,308,40,09,25,255,35*78
$GPGSV,2,2,07,16,34,069,44,27,00,000,41,30,00,000,42*44
$LOGTIM,1,-218.640254,0.000000,0.000000,0.000000,-59.977*34
EndT:        0
---00000046--- Acq_st=3 2019-5-25 03:25:34 
[00]  G04  f 39    292.5 2045999.6  1.0  1.0  5 3f 530751922
[01]  G07  f 40  -2924.1 2046003.8  1.0  1.0  5  0 530751927
[02]  G08  f 40   -118.3 2046000.2  1.0  1.0  5  0 530751932
[03]  G09  f 35   1294.7 2045998.4  1.0  1.0  5  0 530751923
[04]  G16  f 43   1476.3 2045998.1  1.0  1.0  5  0 530751924
[05]  G27  f 40   1920.7 2045997.5  1.0  1.0  5  0 530751929
[06]  G30  f 42  -3746.7 2046004.9  1.0  1.0  5  0 530751918
lsq: nits= 4
$GNGGA,032535.000,3112.7167,N,12136.4383,E,1,04,2.5,82.6,M,,,,0000*21
$GNRMC,032535.000,A,3112.7167,N,12136.4383,E,0.13,0.00,250519,,*1A
$GPGSA,A,3,07,08,09,16,,,,,,,,,3.8,2.5,2.8*35
$BDGSA,A,3,,,,,,,,,,,,,3.8,2.5,2.8*25
$GPGSV,2,1,07,04,00,000,39,07,44,314,40,08,74,308,40,09,25,255,35*78
$GPGSV,2,2,07,16,34,069,43,27,00,000,40,30,00,000,42*42
$LOGTIM,1,-280.342770,0.000000,0.000000,0.000000,-60.836*3F
EndT:        0
ch16 satid=43,max_freq = 750,max_mean = 6960,max_phase = 3655,max_value = 75326,acq ok1!
acq ok1 timeH = 0,timeL = 873696780,freq_stage = 3
---00000047--- Acq_st=3 2019-5-25 03:25:35 
[00]  G04  f 39    288.4 2045999.7  1.0  0.9  5 3f 530752922
[01]  G07  f 40  -2929.2 2046003.9  1.0  1.0  5  0 530752927
[02]  G08  f 40   -123.2 2046000.1  1.0  1.0  5  0 530752932
[03]  G09  f 36   1289.7 2045998.3  1.0  1.0  5  0 530752923
[04]  G16  f 44   1470.6 2045998.1  1.0  1.0  5  0 530752924
[05]  G27  f 40   1915.2 2045997.6  1.0  1.0  5  0 530752929
[06]  G30  f 42  -3752.3 2046004.8  1.0  1.0  5  0 530752918
[16]  B07  1  7   -705.8 4092001.2  0.0  0.0  1  0         0
lsq: nits= 4
$GNGGA,032536.000,3112.7164,N,12136.4380,E,1,04,2.5,82.5,M,,,,0000*21
$GNRMC,032536.000,A,3112.7164,N,12136.4380,E,0.21,0.00,250519,,*18
$GPGSA,A,3,07,08,09,16,,,,,,,,,3.8,2.5,2.8*35
$BDGSA,A,3,,,,,,,,,,,,,3.8,2.5,2.8*25
$GPGSV,2,1,07,04,00,000,39,07,44,314,40,08,74,308,40,09,25,255,36*7B
$GPGSV,2,2,07,16,34,069,44,27,00,000,40,30,00,000,42*45
$LOGTIM,1,-342.061822,0.000000,0.000000,0.000000,-61.164*35
EndT:        0
---00000048--- Acq_st=3 2019-5-25 03:25:36 
[00]  G04  f 39    288.4 2045999.6  1.0  1.0  5 3f 530753922
[01]  G07  f 40  -2928.1 2046003.9  1.0  1.0  5  0 530753927
[02]  G08  f 39   -122.0 2046000.1  1.0  1.0  5  0 530753932
[03]  G09  f 36   1291.3 2045998.3  1.0  0.9  5  0 530753923
[04]  G16  f 43   1472.1 2045998.1  1.0  1.0  5  0 530753924
[05]  G27  f 39   1916.8 2045997.6  1.0  1.0  5  0 530753929
[06]  G30  f 42  -3751.0 2046004.9  1.0  1.0  5  0 530753918
[16]  B07  1  7   -669.1 4092001.9  0.2  0.0  1  0       945
lsq: nits= 4
$GNGGA,032537.000,3112.7166,N,12136.4377,E,1,04,2.5,82.0,M,,,,0000*2F
$GNRMC,032537.000,A,3112.7166,N,12136.4377,E,0.26,0.00,250519,,*14
$GPGSA,A,3,07,08,09,16,,,,,,,,,3.8,2.5,2.8*35
$BDGSA,A,3,,,,,,,,,,,,,3.8,2.5,2.8*25
$GPGSV,2,1,07,04,00,000,39,07,44,314,40,08,74,308,39,09,25,255,36*75
$GPGSV,2,2,07,16,34,069,43,27,00,000,39,30,00,000,42*4C
$LOGTIM,1,-403.732153,0.000000,0.000000,0.000000,-61.200*38
EndT:        0
---00000049--- Acq_st=3 2019-5-25 03:25:37 
[00]  G04  f 39    290.5 2045999.6  1.0  1.0  5 3f 530754922
[01]  G07  f 40  -2927.3 2046003.8  1.0  1.0  5  0 530754927
[02]  G08  f 40   -121.5 2046000.2  1.0  1.0  5  0 530754932
[03]  G09  f 36   1291.3 2045998.3  1.0  1.0  5  0 530754923
[04]  G16  f 44   1472.6 2045998.1  1.0  1.0  5  0 530754924
[05]  G27  f 40   1917.7 2045997.5  1.0  1.0  5  0 530754929
[06]  G30  f 42  -3749.7 2046004.9  1.0  1.0  5  0 530754918
[16]  B07  7 36   -668.6 4092001.8  0.4  1.0  5  0      1939
lsq: nits= 4
$GNGGA,032538.000,3112.7168,N,12136.4375,E,1,04,2.5,81.7,M,,,,0000*28
$GNRMC,032538.000,A,3112.7168,N,12136.4375,E,0.30,0.00,250519,,*10
$GPGSA,A,3,07,08,09,16,,,,,,,,,3.8,2.5,2.8*35
$BDGSA,A,3,,,,,,,,,,,,,3.8,2.5,2.8*25
$GPGSV,2,1,07,04,00,000,39,07,44,314,40,08,74,308,40,09,25,255,36*7B
$GPGSV,2,2,07,16,34,069,44,27,00,000,40,30,00,000,42*45
$BDGSV,1,1,01,07,00,000,36*5B
$LOGTIM,1,-465.395234,0.000000,0.000000,0.000000,-61.253*35
EndT:        0
---00000050--- Acq_st=3 2019-5-25 03:25:38 
[00]  G04  f 39    291.6 2045999.6  1.0  1.0  5 3f 530755922
[01]  G07  f 40  -2926.2 2046003.8  1.0  1.0  5  0 530755927
[02]  G08  f 40   -119.5 2046000.1  1.0  1.0  5  0 530755932
[03]  G09  f 36   1292.8 2045998.4  1.0  0.9  5  0 530755923
[04]  G16  f 44   1473.1 2045998.0  1.0  1.0  5  0 530755924
[05]  G27  f 39   1918.4 2045997.5  1.0  1.0  5  0 530755929
[06]  G30  f 42  -3749.2 2046004.8  1.0  1.0  5  0 530755918
[16]  B07  7 40   -668.3 4092001.8  1.0  1.0  5  0      2939
lsq: nits= 4
$GNGGA,032539.000,3112.7170,N,12136.4373,E,1,04,2.5,81.4,M,,,,0000*25
$GNRMC,032539.000,A,3112.7170,N,12136.4373,E,0.07,0.00,250519,,*1A
$GPGSA,A,3,07,08,09,16,,,,,,,,,3.8,2.5,2.8*35
$BDGSA,A,3,,,,,,,,,,,,,3.8,2.5,2.8*25
$GPGSV,2,1,07,04,00,000,39,07,44,314,40,08,74,308,40,09,25,255,36*7B
$GPGSV,2,2,07,16,34,069,44,27,00,000,39,30,00,000,42*4B
$BDGSV,1,1,01,07,00,000,40*5A
$LOGTIM,1,-526.839283,0.000000,0.000000,0.000000,-60.963*3B
EndT:        0
---00000051--- Acq_st=3 2019-5-25 03:25:39 
[00]  G04  f 39    295.0 2045999.6  1.0  1.0  5 3f 530756922
[01]  G07  f 39  -2922.9 2046003.8  1.0  1.0  5  0 530756927
[02]  G08  f 39   -116.4 2046000.1  1.0  1.0  5  0 530756932
[03]  G09  f 36   1296.9 2045998.3  1.0  1.0  5  0 530756923
[04]  G16  f 43   1476.2 2045998.1  1.0  1.0  5  0 530756924
[05]  G27  f 39   1921.4 2045997.5  1.0  1.0  5  0 530756929
[06]  G30  f 42  -3746.3 2046004.9  1.0  1.0  5  0 530756918
[16]  B07  7 40   -665.3 4092001.7  1.0  1.0  5  0      3939
lsq: nits= 4
$GNGGA,032540.000,3112.7172,N,12136.4370,E,1,04,2.5,80.8,M,,,,0000*27
$GNRMC,032540.000,A,3112.7172,N,12136.4370,E,0.08,0.00,250519,,*1A
$GPGSA,A,3,07,08,09,16,,,,,,,,,3.8,2.5,2.8*35
$BDGSA,A,3,,,,,,,,,,,,,3.8,2.5,2.8*25
$GPGSV,2,1,07,04,00,000,39,07,44,314,39,08,74,308,39,09,25,255,36*7B
$GPGSV,2,2,07,16,34,069,43,27,00,000,39,30,00,000,42*4C
$BDGSV,1,1,01,07,00,000,40*5A
$LOGTIM,1,-588.270216,0.000000,0.000000,0.000000,-60.902*33
EndT:        0
---00000052--- Acq_st=3 2019-5-25 03:25:40 
[00]  G04  f 39    293.0 2045999.6  1.0  1.0  5 3f 530757922
[01]  G07  f 39  -2924.7 2046003.8  1.0  1.0  5  0 530757927
[02]  G08  f 40   -118.6 2046000.2  1.0  1.0  5  0 530757932
[03]  G09  f 36   1294.2 2045998.3  1.0  1.0  5  0 530757923
[04]  G16  f 43   1474.3 2045998.1  1.0  1.0  5  0 530757924
[05]  G27  f 39   1919.4 2045997.5  1.0  1.0  5  0 530757929
[06]  G30  f 42  -3748.8 2046004.9  1.0  1.0  5  0 530757918
[16]  B07 1f 40   -667.9 4092001.8  1.0  1.0  5  0 530743879
ch17 satid=46,max_freq = 750,max_mean = 7663,max_phase = 640,max_value = 155517,acq ok1!
acq ok1 timeH = 0,timeL = 986538613,freq_stage = 3
lsq: nits= 4
$GNGGA,032541.000,3112.7175,N,12136.4368,E,1,04,2.5,80.1,M,,,,0000*21
$GNRMC,032541.000,A,3112.7175,N,12136.4368,E,0.29,0.00,250519,,*16
$GPGSA,A,3,07,08,09,16,,,,,,,,,3.8,2.5,2.8*35
$BDGSA,A,3,,,,,,,,,,,,,3.8,2.5,2.8*25
$GPGSV,2,1,07,04,00,000,39,07,44,314,39,08,74,308,40,09,25,255,36*75
$GPGSV,2,2,07,16,34,069,43,27,00,000,39,30,00,000,42*4C
$BDGSV,1,1,01,07,00,000,40*5A
$LOGTIM,1,-650.327968,0.000000,0.000000,0.000000,-61.308*35
EndT:        0
---00000053--- Acq_st=3 2019-5-25 03:25:41 
[00]  G04  f 39    290.3 2045999.6  1.0  1.0  5 3f 530758922
[01]  G07  f 40  -2928.1 2046003.8  1.0  1.0  5  0 530758927
[02]  G08  f 39   -121.5 2046000.2  1.0  1.0  5  0 530758932
[03]  G09  f 36   1291.0 2045998.3  1.0  1.0  5  0 530758923
[04]  G16  f 43   1470.8 2045998.1  1.0  1.0  5  0 530758924
[05]  G27  f 40   1915.6 2045997.5  1.0  1.0  5  0 530758929
[06]  G30  f 42  -3752.5 2046004.9  1.0  1.0  5  0 530758918
[16]  B07 1f 40   -671.0 4092001.7  1.0  1.0  5  0 530744879
[17]  B10  1  7   -770.8 4092002.6  0.0  0.0  1  0        67
lsq: nits= 4
$GNGGA,032542.000,3112.7177,N,12136.4366,E,1,04,2.5,79.5,M,,,,0000*2C
$GNRMC,032542.000,A,3112.7177,N,12136.4366,E,0.51,0.00,250519,,*16
$GPGSA,A,3,07,08,09,16,,,,,,,,,3.8,2.5,2.8*35
$BDGSA,A,3,,,,,,,,,,,,,3.8,2.5,2.8*25
$GPGSV,2,1,07,04,00,000,39,07,44,314,40,08,74,308,39,09,25,255,36*75
$GPGSV,2,2,07,16,34,069,43,27,00,000,40,30,00,000,42*42
$BDGSV,1,1,01,07,00,000,40*5A
$LOGTIM,1,-713.109752,0.000000,0.000000,0.000000,-61.869*36
EndT:        0
---00000054--- Acq_st=3 2019-5-25 03:25:42 
[00]  G04  f 39    287.2 2045999.6  1.0  0.9  5 3f 530759922
[01]  G07  f 39  -2931.7 2046003.8  1.0  1.0  5  0 530759927
[02]  G08  f 39   -124.9 2046000.2  1.0  1.0  5  0 530759932
[03]  G09  f 37   1288.1 2045998.4  1.0  1.0  5  0 530759923
[04]  G16  f 43   1466.9 2045998.1  1.0  1.0  5  0 530759924
[05]  G27  f 41   1912.6 2045997.5  1.0  1.0  5  0 530759929
[06]  G30  f 42  -3755.7 2046004.9  1.0  1.0  5  0 530759918
[16]  B07 1f 40   -675.0 4092001.8  1.0  1.0  5  0 530745879
[17]  B10  7  7   -785.8 4092002.0  0.1  0.0 20  0      1067
lsq: nits= 4
$GNGGA,032543.000,3112.7179,N,12136.4364,E,1,04,2.5,79.3,M,,,,0000*27
$GNRMC,032543.000,A,3112.7179,N,12136.4364,E,0.65,0.00,250519,,*1C
$GPGSA,A,3,07,08,09,16,,,,,,,,,3.8,2.5,2.8*35
$BDGSA,A,3,,,,,,,,,,,,,3.8,2.5,2.8*25
$GPGSV,2,1,07,04,00,000,39,07,44,314,39,08,74,308,39,09,25,255,37*7A
$GPGSV,2,2,07,16,34,069,43,27,00,000,41,30,00,000,42*43
$BDGSV,1,1,01,07,00,000,40*5A
$LOGTIM,1,-776.113820,0.000000,0.000000,0.000000,-62.267*33
EndT:        0
---00000055--- Acq_st=3 2019-5-25 03:25:43 
[00]  G04  f 39    285.3 2045999.6  1.0  1.0  5 3f 530760922
[01]  G07  f 40  -2933.3 2046003.8  1.0  1.0  5  0 530760927
[02]  G08  f 39   -125.8 2046000.1  1.0  1.0  5  0 530760932
[03]  G09  f 37   1286.1 2045998.3  1.0  1.0  5  0 530760923
[04]  G16  f 43   1465.3 2045998.1  1.0  1.0  5  0 530760924
[05]  G27  f 42   1911.2 2045997.5  1.0  1.0  5  0 530760929
[06]  G30  f 42  -3757.6 2046004.9  1.0  1.0  5  0 530760918
[16]  B07 1f 40   -676.7 4092001.8  1.0  1.0  5  0 530746879
[17]  B10  7 42   -787.1 4092002.1  0.8  1.0  5  0      2055
lsq: nits= 4
$GNGGA,032544.000,3112.7182,N,12136.4364,E,1,04,2.5,78.7,M,,,,0000*21
$GNRMC,032544.000,A,3112.7182,N,12136.4364,E,0.65,0.00,250519,,*1F
$GPGSA,A,3,07,08,09,16,,,,,,,,,3.8,2.5,2.9*34
$BDGSA,A,3,,,,,,,,,,,,,3.8,2.5,2.9*24
$GPGSV,2,1,07,04,00,000,39,07,44,314,40,08,74,308,39,09,25,255,37*74
$GPGSV,2,2,07,16,34,069,43,27,00,000,42,30,00,000,42*40
$BDGSV,1,1,02,07,00,000,40,10,00,000,42*6E
$LOGTIM,1,-839.519339,0.000000,0.000000,0.000000,-62.587*33
EndT:        0
---00000056--- Acq_st=3 2019-5-25 03:25:44 
[00]  G04  f 38    286.9 2045999.7  1.0  1.0  5 3f 530761922
[01]  G07  f 40  -2931.9 2046003.8  1.0  1.0  5  0 530761927
[02]  G08  f 40   -124.6 2046000.2  1.0  1.0  5  0 530761932
[03]  G09  f 36   1288.0 2045998.3  1.0  1.0  5  0 530761923
[04]  G16  f 44   1466.4 2045998.1  1.0  1.0  5  0 530761924
[05]  G27  f 42   1912.6 2045997.5  1.0  1.0  5  0 530761929
[06]  G30  f 42  -3756.4 2046004.9  1.0  0.9  5  0 530761918
[16]  B07 1f 40   -675.5 4092001.8  1.0  1.0  5  0 530747879
[17]  B10  7 42   -785.9 4092002.1  1.0  1.0  5  0      3055
ch18 satid=48,max_freq = -1750,max_mean = 7941,max_phase = 2442,max_value = 129276,acq ok1!
acq ok1 timeH = 0,timeL = 1069285462,freq_stage = 4
lsq: nits= 4
$GNGGA,032545.000,3112.7182,N,12136.4365,E,1,04,2.5,78.2,M,,,,0000*24
$GNRMC,032545.000,A,3112.7182,N,12136.4365,E,0.27,0.00,250519,,*19
$GPGSA,A,3,07,08,09,16,,,,,,,,,3.8,2.5,2.9*34
$BDGSA,A,3,,,,,,,,,,,,,3.8,2.5,2.9*24
$GPGSV,2,1,07,04,00,000,38,07,44,314,40,08,74,308,40,09,25,255,36*7A
$GPGSV,2,2,07,16,34,069,44,27,00,000,42,30,00,000,42*47
$BDGSV,1,1,02,07,00,000,40,10,00,000,42*6E
$LOGTIM,1,-902.510921,0.000000,0.000000,0.000000,-62.235*3E
EndT:        0
---00000057--- Acq_st=3 2019-5-25 03:25:45 
[00]  G04  f 39    291.7 2045999.6  1.0  1.0  5 3f 530762922
[01]  G07  f 40  -2926.6 2046003.8  1.0  1.0  5  0 530762927
[02]  G08  f 40   -120.1 2046000.1  1.0  1.0  5  0 530762932
[03]  G09  f 36   1292.7 2045998.3  1.0  0.9  5  0 530762923
[04]  G16  f 44   1471.2 2045998.1  1.0  1.0  5  0 530762924
[05]  G27  f 42   1917.2 2045997.5  1.0  1.0  5  0 530762929
[06]  G30  f 41  -3752.0 2046004.9  1.0  1.0  5  0 530762918
[16]  B07 1f 40   -671.4 4092001.7  1.0  1.0  5  0 530748879
[17]  B10  7 42   -782.1 4092002.1  1.0  1.0  5  0      4055
[18]  B12  1  7   1710.5 4091995.4  0.0  0.0  1  0       149
lsq: nits= 4
$GNGGA,032546.000,3112.7181,N,12136.4364,E,1,04,2.5,77.2,M,,,,0000*2A
$GNRMC,032546.000,A,3112.7181,N,12136.4364,E,0.15,0.00,250519,,*19
$GPGSA,A,3,07,08,09,16,,,,,,,,,3.8,2.5,2.9*34
$BDGSA,A,3,,,,,,,,,,,,,3.8,2.5,2.9*24
$GPGSV,2,1,07,04,00,000,39,07,44,314,40,08,74,308,40,09,25,255,36*7B
$GPGSV,2,2,07,16,34,069,44,27,00,000,42,30,00,000,41*44
$BDGSV,1,1,02,07,00,000,40,10,00,000,42*6E
$LOGTIM,1,-965.566329,0.000000,0.000000,0.000000,-62.174*3A
EndT:        0
---00000058--- Acq_st=3 2019-5-25 03:25:46 
[00]  G04  f 39    291.0 2045999.7  1.0  1.0  5 3f 530763922
[01]  G07  f 40  -2928.7 2046003.8  1.0  1.0  5  0 530763927
[02]  G08  f 40   -121.8 2046000.1  1.0  1.0  5  0 530763932
[03]  G09  f 36   1290.8 2045998.3  1.0  1.0  5  0 530763923
[04]  G16  f 43   1468.6 2045998.1  1.0  1.0  5  0 530763924
[05]  G27  f 42   1915.2 2045997.5  1.0  1.0  5  0 530763929
[06]  G30  f 41  -3753.9 2046004.8  1.0  1.0  5  0 530763918
[16]  B07 1f 40   -673.2 4092001.7  1.0  1.0  5  0 530749879
[17]  B10 1f 42   -783.7 4092002.0  1.0  1.0  5  0 530749875
[18]  B12  7 18   1699.7 4091995.5  0.1  0.0 20  0      1149
lsq: nits= 4
$GNGGA,032547.000,3112.7180,N,12136.4363,E,1,04,2.5,75.9,M,,,,0000*24
$GNRMC,032547.000,A,3112.7180,N,12136.4363,E,0.25,0.00,250519,,*1D
$GPGSA,A,3,07,08,09,16,,,,,,,,,3.8,2.5,2.9*34
$BDGSA,A,3,,,,,,,,,,,,,3.8,2.5,2.9*24
$GPGSV,2,1,07,04,00,000,39,07,44,314,40,08,74,308,40,09,25,255,36*7B
$GPGSV,2,2,07,16,34,069,43,27,00,000,42,30,00,000,41*43
$BDGSV,1,1,03,07,00,000,40,10,00,000,42,12,00,000,18*55
$LOGTIM,1,-1029.030832,0.000000,0.000000,0.000000,-62.375*0E
EndT:        0
---00000059--- Acq_st=3 2019-5-25 03:25:47 
[00]  G04  f 37    290.3 2045999.6  1.0  1.0  5 3f 530764922
[01]  G07  f 40  -2929.1 2046003.8  1.0  1.0  5  0 530764927
[02]  G08  f 40   -122.2 2046000.1  1.0  1.0  5  0 530764932
[03]  G09  f 36   1290.4 2045998.3  1.0  1.0  5  0 530764923
[04]  G16  f 43   1468.5 2045998.1  1.0  1.0  5  0 530764924
[05]  G27  f 43   1914.5 2045997.5  1.0  1.0  5  0 530764929
[06]  G30  f 41  -3755.1 2046004.9  1.0  1.0  5  0 530764918
[16]  B07 1f 40   -674.5 4092001.7  1.0  1.0  5  0 530750879
[17]  B10 1f 42   -785.1 4092002.0  1.0  1.0  5  0 530750875
[18]  B12  7 41   1698.1 4091995.6  0.4  1.0  5  0      2144
lsq: nits= 4
$GNGGA,032548.000,3112.7181,N,12136.4363,E,1,04,2.5,74.6,M,,,,0000*24
$GNRMC,032548.000,A,3112.7181,N,12136.4363,E,0.19,0.00,250519,,*1C
$GPGSA,A,3,07,08,09,16,,,,,,,,,3.8,2.5,2.9*34
$BDGSA,A,3,,,,,,,,,,,,,3.8,2.5,2.9*24
$GPGSV,2,1,07,04,00,000,37,07,44,314,40,08,74,308,40,09,25,255,36*75
$GPGSV,2,2,07,16,34,069,43,27,00,000,43,30,00,000,41*42
$BDGSV,1,1,03,07,00,000,40,10,00,000,42,12,00,000,41*59
$LOGTIM,1,-1092.430257,0.000000,0.000000,0.000000,-62.331*03
EndT:        0
---00000060--- Acq_st=3 2019-5-25 03:25:48 
[00]  G04  f 38    293.0 2045999.7  1.0  1.0  5 3f 530765922
[01]  G07  f 41  -2926.9 2046003.8  1.0  1.0  5  0 530765927
[02]  G08  f 40   -119.7 2046000.2  1.0  1.0  5  0 530765932
[03]  G09  f 35   1292.6 2045998.3  1.0  1.0  5  0 530765923
[04]  G16  f 43   1470.4 2045998.0  1.0  1.0  5  0 530765924
[05]  G27  f 43   1917.0 2045997.5  1.0  1.0  5  0 530765929
[06]  G30  f 41  -3752.3 2046004.9  1.0  1.0  5  0 530765918
[16]  B07 1f 40   -672.7 4092001.8  1.0  1.0  5  0 530751879
[17]  B10 1f 42   -783.1 4092002.1  1.0  1.0  5  0 530751875
[18]  B12  7 41   1700.6 4091995.5  1.0  1.0  5  0      3144
lsq: nits= 4
$GNGGA,032549.000,3112.7205,N,12136.4365,E,1,05,2.4,68.3,M,,,,0000*24
$GNRMC,032549.000,A,3112.7205,N,12136.4365,E,0.07,0.00,250519,,*1B
$GPGSA,A,3,07,08,09,16,27,,,,,,,,3.7,2.4,2.9*3F
$BDGSA,A,3,,,,,,,,,,,,,3.7,2.4,2.9*2A
$GPGSV,2,1,07,04,00,000,38,07,44,314,41,08,74,308,40,09,25,255,35*78
$GPGSV,2,2,07,16,34,069,43,27,00,000,43,30,00,000,41*42
$BDGSV,1,1,03,07,00,000,40,10,00,000,42,12,00,000,41*59
$LOGTIM,1,-1156.788936,0.000000,0.000000,0.000000,-62.164*04
EndT:        0
---00000061--- Acq_st=3 2019-5-25 03:25:49 
[00]  G04  f 37    294.5 2045999.6  1.0  1.0  5 3f 530766922
[01]  G07  f 41  -2925.2 2046003.8  1.0  1.0  5  0 530766927
[02]  G08  f 41   -117.9 2046000.1  1.0  1.0  5  0 530766932
[03]  G09  f 35   1294.9 2045998.3  1.0  1.0  5  0 530766923
[04]  G16  f 43   1471.6 2045998.1  1.0  1.0  5  0 530766924
[05]  G27  f 44   1918.3 2045997.4  1.0  1.0  5  0 530766929
[06]  G30  f 41  -3751.2 2046004.9  1.0  1.0  5  0 530766918
[16]  B07 1f 40   -671.8 4092001.7  1.0  1.0  5  0 530752879
[17]  B10 1f 42   -781.3 4092002.0  1.0  1.0  5  0 530752875
[18]  B12  7 41   1702.5 4091995.5  1.0  1.0  5  0      4144
lsq: nits= 2
$GNGGA,032550.000,3112.7212,N,12136.4366,E,1,05,2.4,62.9,M,,,,0000*29
$GNRMC,032550.000,A,3112.7212,N,12136.4366,E,0.04,0.00,250519,,*15
$GPGSA,A,3,07,08,09,16,27,,,,,,,,3.7,2.4,2.9*3F
$BDGSA,A,3,,,,,,,,,,,,,3.7,2.4,2.9*2A
$GPGSV,2,1,07,04,00,000,37,07,44,314,41,08,74,308,41,09,25,255,35*76
$GPGSV,2,2,07,16,34,069,43,27,51,031,44,30,00,000,41*43
$BDGSV,1,1,03,07,00,000,40,10,00,000,42,12,00,000,41*59
$LOGTIM,1,-1221.544900,0.000000,0.000000,0.000000,-62.321*03
EndT:        0
---00000062--- Acq_st=3 2019-5-25 03:25:50 
[00]  G04  f 38    292.6 2045999.6  1.0  1.0  5 3f 530767922
[01]  G07  f 41  -2927.5 2046003.8  1.0  1.0  5  0 530767927
[02]  G08  f 41   -120.0 2046000.1  1.0  1.0  5  0 530767932
[03]  G09  f 36   1292.3 2045998.4  1.0  1.0  5  0 530767923
[04]  G16  f 43   1469.2 2045998.1  1.0  1.0  5  0 530767924
[05]  G27  f 44   1916.4 2045997.5  1.0  1.0  5  0 530767929
[06]  G30  f 41  -3752.8 2046004.9  1.0  1.0  5  0 530767918
[16]  B07 1f 40   -673.5 4092001.7  1.0  1.0  5  0 530753879
[17]  B10 1f 42   -783.7 4092002.1  1.0  1.0  5  0 530753875
[18]  B12  7 41   1700.3 4091995.6  1.0  1.0  5  0      5144
lsq: nits= 2
$GNGGA,032551.000,3112.7213,N,12136.4365,E,1,05,2.4,58.0,M,,,,0000*2A
$GNRMC,032551.000,A,3112.7213,N,12136.4365,E,0.08,0.00,250519,,*1A
$GPGSA,A,3,07,08,09,16,27,,,,,,,,3.7,2.4,2.9*3F
$BDGSA,A,3,,,,,,,,,,,,,3.7,2.4,2.9*2A
$GPGSV,2,1,07,04,00,000,38,07,44,314,41,08,74,308,41,09,25,255,36*7A
$GPGSV,2,2,07,16,34,069,43,27,51,031,44,30,00,000,41*43
$BDGSV,1,1,03,07,00,000,40,10,00,000,42,12,00,000,41*59
$LOGTIM,1,-1286.139277,0.000000,0.000000,0.000000,-62.381*01
EndT:        0
---00000063--- Acq_st=3 2019-5-25 03:25:51 
[00]  G04  f 38    294.7 2045999.6  1.0  1.0  5 3f 530768922
[01]  G07  f 42  -2924.9 2046003.8  1.0  1.0  5  0 530768927
[02]  G08  f 41   -117.2 2046000.1  1.0  1.0  5  0 530768932
[03]  G09  f 35   1294.1 2045998.3  1.0  1.0  5  0 530768923
[04]  G16  f 43   1471.0 2045998.1  1.0  1.0  5  0 530768924
[05]  G27  f 45   1918.5 2045997.5  1.0  1.0  5  0 530768929
[06]  G30  f 41  -3751.9 2046004.9  1.0  1.0  5  0 530768918
[16]  B07 1f 40   -671.9 4092001.8  1.0  1.0  5  0 530754879
[17]  B10 1f 42   -782.2 4092002.0  1.0  1.0  5  0 530754875
[18]  B12 1f 41   1702.1 4091995.5  1.0  1.0  5  0      6144
lsq: nits= 2
$GNGGA,032552.000,3112.7212,N,12136.4363,E,1,05,2.4,54.0,M,,,,0000*22
$GNRMC,032552.000,A,3112.7212,N,12136.4363,E,0.37,0.00,250519,,*12
$GPGSA,A,3,07,08,09,16,27,,,,,,,,3.7,2.4,2.9*3F
$BDGSA,A,3,,,,,,,,,,,,,3.7,2.4,2.9*2A
$GPGSV,2,1,07,04,00,000,38,07,44,314,42,08,74,309,41,09,25,255,35*7B
$GPGSV,2,2,07,16,34,069,43,27,51,031,45,30,00,000,41*42
$BDGSV,2,1,05,07,00,000,40,10,00,000,42,12,00,000,41,04,35,122,00*6F
$BDGSV,2,2,05,22,66,058,00*50
$LOGTIM,1,-1349.877673,0.000000,0.000000,0.000000,-61.724*08
EndT:        0
---00000064--- Acq_st=3 2019-5-25 03:25:52 
[00]  G04  f 38    303.3 2045999.6  1.0  1.0  5 3f 530769922
[01]  G07  f 42  -2917.4 2046003.8  1.0  1.0  5  0 530769927
[02]  G08  f 41   -109.7 2046000.2  1.0  1.0  5  0 530769932
[03]  G09  f 36   1302.1 2045998.3  1.0  1.0  5  0 530769923
[04]  G16  f 43   1478.6 2045998.1  1.0  1.0  5  0 530769924
[05]  G27  f 45   1926.1 2045997.5  1.0  1.0  5  0 530769929
[06]  G30  f 41  -3743.9 2046004.9  1.0  1.0  5  0 530769918
[16]  B07 1f 40   -663.5 4092001.7  1.0  1.0  5  0 530755879
[17]  B10 1f 42   -774.9 4092002.0  1.0  1.0  5  0 530755875
[18]  B12 1f 41   1710.5 4091995.5  1.0  1.0  5  0 530755924
lsq: nits= 2
$GNGGA,032553.000,3112.7203,N,12136.4363,E,1,05,2.4,51.1,M,,,,0000*27
$GNRMC,032553.000,A,3112.7203,N,12136.4363,E,0.91,0.00,250519,,*1F
$GPGSA,A,3,07,08,09,16,27,,,,,,,,3.7,2.4,2.9*3F
$BDGSA,A,3,,,,,,,,,,,,,3.7,2.4,2.9*2A
$GPGSV,2,1,07,04,00,000,38,07,44,314,42,08,74,309,41,09,25,255,36*78
$GPGSV,2,2,07,16,34,069,43,27,51,031,45,30,00,000,41*42
$BDGSV,2,1,05,07,00,000,40,10,00,000,42,12,00,000,41,04,35,122,00*6F
$BDGSV,2,2,05,22,66,058,00*50
$LOGTIM,1,-1412.467193,0.000000,0.000000,0.000000,-60.860*0B
EndT:        0
---00000065--- Acq_st=3 2019-5-25 03:25:53 
[00]  G04  f 38    308.9 2045999.6  1.0  1.0  5 3f 530770922
[01]  G07  f 42  -2911.6 2046003.7  1.0  1.0  5  0 530770927
[02]  G08  f 41   -103.7 2046000.2  1.0  1.0  5  0 530770932
[03]  G09  f 35   1308.9 2045998.4  1.0  0.9  5  0 530770923
[04]  G16  f 44   1484.1 2045998.1  1.0  1.0  5  0 530770924
[05]  G27  f 45   1932.0 2045997.5  1.0  1.0  5  0 530770929
[06]  G30  f 41  -3738.6 2046004.9  1.0  1.0  5  0 530770918
[16]  B07 1f 40   -659.0 4092001.7  1.0  1.0  5  0 530756879
[17]  B10 1f 42   -769.8 4092002.0  1.0  1.0  5  0 530756875
[18]  B12 1f 40   1716.1 4091995.5  1.0  1.0  5  0 530756924
lsq: nits= 2
$GNGGA,032554.000,3112.7192,N,12136.4361,E,1,05,2.4,49.1,M,,,,0000*20
$GNRMC,032554.000,A,3112.7192,N,12136.4361,E,0.92,0.00,250519,,*12
$GPGSA,A,3,07,08,09,16,27,,,,,,,,3.7,2.4,2.9*3F
$BDGSA,A,3,,,,,,,,,,,,,3.7,2.4,2.9*2A
$GPGSV,2,1,07,04,00,000,38,07,44,314,42,08,74,309,41,09,25,255,35*7B
$GPGSV,2,2,07,16,34,069,44,27,51,031,45,30,00,000,41*45
$BDGSV,2,1,05,07,00,000,40,10,00,000,42,12,00,000,40,04,35,122,00*6E
$BDGSV,2,2,05,22,66,058,00*50
$LOGTIM,1,-1474.003241,0.000000,0.000000,0.000000,-60.388*0C
EndT:        1
---00000066--- Acq_st=3 2019-5-25 03:25:54 
[00]  G04  f 38    309.9 2045999.6  1.0  1.0  5 3f 530771922
[01]  G07  f 42  -2910.6 2046003.8  1.0  1.0  5  0 530771927
[02]  G08  f 41   -103.3 2046000.1  1.0  1.0  5  0 530771932
[03]  G09  f 36   1309.2 2045998.3  1.0  1.0  5  0 530771923
[04]  G16  f 43   1484.9 2045998.1  1.0  1.0  5  0 530771924
[05]  G27  f 45   1932.6 2045997.5  1.0  1.0  5  0 530771929
[06]  G30  f 41  -3738.4 2046004.9  1.0  1.0  5  0 530771918
[16]  B07 1f 41   -658.6 4092001.7  1.0  1.0  5  0 530757879
[17]  B10 1f 42   -769.6 4092002.0  1.0  1.0  5  0 530757875
[18]  B12 1f 40   1716.3 4091995.5  1.0  1.0  5  0 530757924
lsq: nits= 2
$GNGGA,032555.000,3112.7177,N,12136.4358,E,1,06,1.6,47.8,M,,,,0000*25
$GNRMC,032555.000,A,3112.7177,N,12136.4358,E,0.89,0.00,250519,,*18
$GPGSA,A,3,07,08,09,16,27,30,,,,,,,2.5,1.6,1.9*3D
$BDGSA,A,3,,,,,,,,,,,,,2.5,1.6,1.9*2B
$GPGSV,2,1,07,04,00,000,38,07,44,314,42,08,74,309,41,09,25,255,36*78
$GPGSV,2,2,07,16,34,069,43,27,51,031,45,30,00,000,41*42
$BDGSV,2,1,05,07,00,000,41,10,00,000,42,12,00,000,40,04,35,122,00*6F
$BDGSV,2,2,05,22,66,058,00*50
$LOGTIM,1,-1535.359666,0.000000,0.000000,0.000000,-60.362*01
EndT:        1
---00000067--- Acq_st=3 2019-5-25 03:25:55 
[00]  G04  f 37    308.1 2045999.5  1.0  1.0  5 3f 530772922
[01]  G07  f 42  -2911.9 2046003.8  1.0  1.0  5  0 530772927
[02]  G08  f 41   -104.1 2046000.1  1.0  1.0  5  0 530772932
[03]  G09  f 36   1308.2 2045998.3  1.0  1.0  5  0 530772923
[04]  G16  f 43   1483.2 2045998.1  1.0  1.0  5  0 530772924
[05]  G27  f 45   1930.9 2045997.5  1.0  1.0  5  0 530772929
[06]  G30  f 41  -3739.5 2046004.8  1.0  0.9  5  0 530772918
[16]  B07 1f 40   -660.4 4092001.7  1.0  1.0  5  0 530758879
[17]  B10 1f 42   -771.1 4092002.0  1.0  1.0  5  0 530758875
[18]  B12 1f 40   1714.8 4091995.5  1.0  1.0  5  0 530758924
lsq: nits= 2
$GNGGA,032556.000,3112.7167,N,12136.4355,E,1,06,1.6,45.8,M,,,,0000*28
$GNRMC,032556.000,A,3112.7167,N,12136.4355,E,0.85,0.00,250519,,*1B
$GPGSA,A,3,07,08,09,16,27,30,,,,,,,2.5,1.6,1.9*3D
$BDGSA,A,3,,,,,,,,,,,,,2.5,1.6,1.9*2B
$GPGSV,2,1,07,04,00,000,37,07,44,314,42,08,74,309,41,09,25,255,36*77
$GPGSV,2,2,07,16,34,069,43,27,51,031,45,30,13,317,41*45
$BDGSV,2,1,05,07,00,000,40,10,00,000,42,12,00,000,40,04,35,122,00*6E
$BDGSV,2,2,05,22,66,058,00*50
$LOGTIM,1,-1597.123172,0.000000,0.000000,0.000000,-60.262*05
EndT:        1
---00000068--- Acq_st=3 2019-5-25 03:25:56 
[00]  G04  f 38    310.2 2045999.6  1.0  1.0  5 3f 530773922
[01]  G07  f 42  -2910.3 2046003.8  1.0  1.0  5  0 530773927
[02]  G08  f 41   -103.1 2046000.2  1.0  1.0  5  0 530773932
[03]  G09  f 35   1310.1 2045998.2  1.0  1.0  5  0 530773923
[04]  G16  f 43   1484.6 2045998.1  1.0  1.0  5  0 530773924
[05]  G27  f 45   1932.6 2045997.5  1.0  1.0  5  0 530773929
[06]  G30  f 41  -3738.8 2046004.9  1.0  1.0  5  0 530773918
[16]  B07 1f 40   -659.2 4092001.7  1.0  1.0  5  0 530759879
[17]  B10 1f 42   -770.0 4092002.0  1.0  1.0  5  0 530759875
[18]  B12 1f 40   1716.9 4091995.5  1.0  1.0  5  0 530759924
lsq: nits= 2
$GNGGA,032557.000,3112.7157,N,12136.4354,E,1,06,1.6,45.2,M,,,,0000*21
$GNRMC,032557.000,A,3112.7157,N,12136.4354,E,0.90,0.00,250519,,*1C
$GPGSA,A,3,07,08,09,16,27,30,,,,,,,2.5,1.6,1.9*3D
$BDGSA,A,3,,,,,,,,,,,,,2.5,1.6,1.9*2B
$GPGSV,2,1,07,04,00,000,38,07,44,314,42,08,74,309,41,09,25,255,35*7B
$GPGSV,2,2,07,16,34,069,43,27,51,031,45,30,13,317,41*45
$BDGSV,2,1,05,07,00,000,40,10,00,000,42,12,00,000,40,04,35,122,00*6E
$BDGSV,2,2,05,22,66,058,00*50
$LOGTIM,1,-1657.886901,0.000000,0.000000,0.000000,-60.117*01
EndT:        1
---00000069--- Acq_st=3 2019-5-25 03:25:57 
[00]  G04  f 38    309.7 2045999.6  1.0  1.0  5 3f 530774922
[01]  G07  f 42  -2911.0 2046003.8  1.0  1.0  5  0 530774927
[02]  G08  f 41   -103.1 2046000.2  1.0  1.0  5  0 530774932
[03]  G09  f 36   1309.2 2045998.3  1.0  0.9  5  0 530774923
[04]  G16  f 43   1483.6 2045998.1  1.0  1.0  5  0 530774924
[05]  G27  f 46   1931.7 2045997.5  1.0  1.0  5  0 530774929
[06]  G30  f 41  -3739.8 2046004.9  1.0  1.0  5  0 530774918
[16]  B07 1f 40   -660.4 4092001.7  1.0  1.0  5  0 530760879
[17]  B10 1f 42   -770.9 4092002.0  1.0  1.0  5  0 530760875
[18]  B12 1f 40   1715.8 4091995.5  1.0  1.0  5  0 530760924
lsq: nits= 2
$GNGGA,032558.000,3112.7146,N,12136.4353,E,1,06,1.6,44.3,M,,,,0000*29
$GNRMC,032558.000,A,3112.7146,N,12136.4353,E,0.50,0.00,250519,,*18
$GPGSA,A,3,07,08,09,16,27,30,,,,,,,2.5,1.6,1.9*3D
$BDGSA,A,3,,,,,,,,,,,,,2.5,1.6,1.9*2B
$GPGSV,2,1,07,04,00,000,38,07,44,314,42,08,74,309,41,09,25,255,36*78
$GPGSV,2,2,07,16,34,069,43,27,51,031,46,30,13,317,41*46
$BDGSV,2,1,05,07,00,000,40,10,00,000,42,12,00,000,40,04,35,122,00*6E
$BDGSV,2,2,05,22,66,058,00*50
$LOGTIM,1,-1719.080884,0.000000,0.000000,0.000000,-60.598*0B
EndT:        1
---00000070--- Acq_st=3 2019-5-25 03:25:58 
[00]  G04  f 38    305.0 2045999.6  1.0  1.0  5 3f 530775922
[01]  G07  f 42  -2916.3 2046003.8  1.0  1.0  5  0 530775927
[02]  G08  f 41   -108.1 2046000.1  1.0  1.0  5  0 530775932
