FlashID=0x1 0x20 0x18
BBram_blkflag1: 2fe0: d01f
FW Ver: 1.30  
GPS00 Init Dop:   5000, 40
GPS01 Init Dop:   5000, 40
GPS02 Init Dop:   5000, 40
GPS03 Init Dop:   5000, 40
GPS04 Init Dop:   5000, 40
GPS05 Init Dop:   5000, 40
GPS06 Init Dop:   5000, 40
GPS07 Init Dop:   5000, 40
GPS08 Init Dop:   5000, 40
GPS09 Init Dop:   5000, 40
GPS10 Init Dop:   5000, 40
GPS11 Init Dop:   5000, 40
GPS12 Init Dop:   5000, 40
GPS13 Init Dop:   5000, 40
GPS14 Init Dop:   5000, 40
GPS15 Init Dop:   5000, 40
GPS16 Init Dop:   5000, 40
GPS17 Init Dop:   5000, 40
GPS18 Init Dop:   5000, 40
GPS19 Init Dop:   5000, 40
GPS20 Init Dop:   5000, 40
GPS21 Init Dop:   5000, 40
GPS22 Init Dop:   5000, 40
GPS23 Init Dop:   5000, 40
GPS24 Init Dop:   5000, 40
GPS25 Init Dop:   5000, 40
GPS26 Init Dop:   5000, 40
GPS27 Init Dop:   5000, 40
GPS28 Init Dop:   5000, 40
GPS29 Init Dop:   5000, 40
GPS30 Init Dop:   5000, 40
GPS31 Init Dop:   5000, 40
BDS00 Init Dop:   5000, 40
BDS01 Init Dop:   5000, 40
BDS02 Init Dop:   5000, 40
BDS03 Init Dop:   5000, 40
BDS04 Init Dop:   5000, 40
BDS05 Init Dop:   5000, 40
BDS06 Init Dop:   5000, 40
BDS07 Init Dop:   5000, 40
BDS08 Init Dop:   5000, 40
BDS09 Init Dop:   5000, 40
BDS10 Init Dop:   5000, 40
BDS11 Init Dop:   5000, 40
BDS12 Init Dop:   5000, 40
BDS13 Init Dop:   5000, 40
BDS14 Init Dop:   5000, 40
BDS15 Init Dop:   5000, 40
BDS16 Init Dop:   5000, 40
BDS17 Init Dop:   5000, 40
BDS18 Init Dop:   5000, 40
BDS19 Init Dop:   5000, 40
BDS20 Init Dop:   5000, 40
BDS21 Init Dop:   5000, 40
BDS22 Init Dop:   5000, 40
BDS23 Init Dop:   5000, 40
BDS24 Init Dop:   5000, 40
BDS25 Init Dop:   5000, 40
BDS26 Init Dop:   5000, 40
BDS27 Init Dop:   5000, 40
BDS28 Init Dop:   5000, 40
BDS29 Init Dop:   5000, 40
BDS30 Init Dop:   5000, 40
BDS31 Init Dop:   5000, 40
good luck!
---00000001--- Acq_st=3 2019-5-22 02:12:21 
[00]  G02  1  7   3024.4 2045997.2  0.1  0.0  1  0         0
[01]  G04  1  7  -2722.4 2046005.5 -0.1  0.0  1  0         0
[02]  G07  1  7  -3519.7 2046006.3 -0.0  0.0  1  0         0
$GNGGA,000000.000,,,,,0,00,,,M,,,,0000*2B
$GNRMC,000000.000,A,,,,,,,000000,,*26
$GPGSA,A,1,,,,,,,,,,,,,,,*1E
$BDGSA,A,1,,,,,,,,,,,,,,,*0F
$LOGTIM,0,0.000000,0.000000,0.000000,0.000000,0.000*0A
EndT:        0
---00000002--- Acq_st=3 2019-5-22 02:12:22 
[00]  G02  1  8   3086.0 2045997.0  0.1  0.0  1  0        15
[01]  G04  7 22  -2600.7 2046003.3  0.1  0.0 20  0        18
[02]  G07  1 28  -3597.1 2046005.3  0.0  0.0  1  0         3
[03]  G09  1 24  -1575.2 2046003.7  0.2  0.0  1  0         0
[04]  G16  1  7    928.1 2046000.9  0.0  0.0  1  0         0
$GNGGA,000000.000,,,,,0,00,,,M,,,,0000*2B
$GNRMC,000000.000,A,,,,,,,000000,,*26
$GPGSA,A,1,,,,,,,,,,,,,,,*1E
$BDGSA,A,1,,,,,,,,,,,,,,,*0F
$GPGSV,1,1,01,04,00,000,22*4C
$LOGTIM,0,0.000000,0.000000,0.000000,0.000000,0.000*0A
EndT:        1
---00000003--- Acq_st=3 2019-5-22 02:12:23 
[00]  G02  1  7   3317.1 2045997.4 -0.0  0.0  1  0        15
[01]  G04  7 42  -2601.8 2046003.3  0.8  1.0  5  0        17
[02]  G07  7 36  -3599.0 2046004.6  0.5  1.0  5  0         3
[03]  G09  7 30  -1582.8 2046002.0  0.6  1.0  5  0         6
[04]  G16  1 27    847.1 2045998.9 -0.1  0.0  1  0        18
[05]  G23  1 20    247.1 2046001.8 -0.0  0.0  1  0         0
$GNGGA,000000.000,,,,,0,00,,,M,,,,0000*2B
$GNRMC,000000.000,A,,,,,,,000000,,*26
$GPGSA,A,1,,,,,,,,,,,,,,,*1E
$BDGSA,A,1,,,,,,,,,,,,,,,*0F
$GPGSV,1,1,03,04,00,000,42,07,00,000,36,09,00,000,30*40
$LOGTIM,0,0.000000,0.000000,0.000000,0.000000,0.000*0A
EndT:        0
---00000004--- Acq_st=3 2019-5-22 02:12:24 
[01]  G04  7 41  -2602.3 2046003.4  1.0  1.0  5  0        17
[02]  G07  7 45  -3599.6 2046004.6  1.0  1.0  5  0        14
[03]  G09  7 44  -1582.1 2046002.0  1.0  1.0  5  0         1
[04]  G16  7 34    847.6 2045998.8  0.7  1.0  5  0        18
[05]  G23  1 33    236.0 2045999.7  0.1  0.0  1  0         9
[06]  G26  1 27   1522.7 2045998.1 -0.1  0.0  1  0         0
[07]  G27  1 26   -597.0 2046001.0 -0.0  0.0  1  0         0
$GNGGA,000000.000,,,,,0,00,,,M,,,,0000*2B
$GNRMC,000000.000,A,,,,,,,000000,,*26
$GPGSA,A,1,,,,,,,,,,,,,,,*1E
$BDGSA,A,1,,,,,,,,,,,,,,,*0F
$GPGSV,1,1,04,04,00,000,41,07,00,000,45,09,00,000,44,16,00,000,34*73
$LOGTIM,0,0.000000,0.000000,0.000000,0.000000,0.000*0A
EndT:        0
---00000005--- Acq_st=3 2019-5-22 02:12:25 
[01]  G04  f 42  -2599.2 2046003.3  1.0  1.0  5  0        17
[02]  G07  f 44  -3597.6 2046004.7  1.0  1.0  5  0        14
[03]  G09  f 44  -1579.9 2046002.0  1.0  1.0  5  0         1
[04]  G16  f 44    850.3 2045998.8  1.0  1.0  5  0         7
[05]  G23  7 40    239.0 2045999.6  0.9  1.0  5  0         9
[06]  G26  7 30   1533.1 2045997.9  0.5  1.0  5  0        13
[07]  G27  7 29   -591.2 2046000.8  0.3  1.0 10  0        15
$GNGGA,000000.000,,,,,0,00,,,M,,,,0000*2B
$GNRMC,000000.000,A,,,,,,,000000,,*26
$GPGSA,A,1,,,,,,,,,,,,,,,*1E
$BDGSA,A,1,,,,,,,,,,,,,,,*0F
$GPGSV,2,1,07,04,00,000,42,07,00,000,44,09,00,000,44,16,00,000,44*76
$GPGSV,2,2,07,23,00,000,40,26,00,000,30,27,00,000,29*42
$LOGTIM,0,0.000000,0.000000,0.000000,0.000000,0.000*0A
EndT:        1
---00000006--- Acq_st=3 2019-5-22 02:12:26 
[01]  G04  f 42  -2595.0 2046003.3  1.0  1.0  5  0 267163257
[02]  G07  f 44  -3593.8 2046004.7  1.0  1.0  5  0 267163254
[03]  G09  f 43  -1575.0 2046002.0  1.0  1.0  5  0 267163261
[04]  G16  f 43    854.0 2045998.8  1.0  1.0  5  0 267163267
[05]  G23  7 48    243.4 2045999.6  1.0  1.0  5  0         5
[06]  G26  7 42   1536.7 2045997.9  1.0  1.0  5  0         2
[07]  G27  7 44   -587.1 2046000.8  0.9  1.0  5  0        10
[16]  B07  1  7   -468.4 4092001.1  0.1  0.0  1  0         0
$GNGGA,000000.000,,,,,0,00,,,M,,,,0000*2B
$GNRMC,000000.000,A,,,,,,,000000,,*26
$GPGSA,A,1,,,,,,,,,,,,,,,*1E
$BDGSA,A,1,,,,,,,,,,,,,,,*0F
$GPGSV,2,1,07,04,00,000,42,07,00,000,44,09,00,000,43,16,00,000,43*76
$GPGSV,2,2,07,23,00,000,48,26,00,000,42,27,00,000,44*44
$LOGTIM,0,0.000000,0.000000,0.000000,0.000000,0.000*0A
EndT:        0
---00000007--- Acq_st=3 2019-5-22 02:12:27 
[01]  G04  f 42  -2595.6 2046003.4  1.0  1.0  5  0 267164257
[02]  G07  f 44  -3595.2 2046004.7  1.0  1.0  5  0 267164254
[03]  G09  f 43  -1575.8 2046002.1  1.0  1.0  5  0 267164261
[04]  G16  f 43    853.1 2045998.9  1.0  1.0  5  0 267164267
[05]  G23  7 47    242.9 2045999.6  1.0  1.0  5  0         5
[06]  G26  7 42   1535.3 2045998.0  1.0  1.0  5  0         2
[07]  G27  7 44   -587.9 2046000.8  1.0  1.0  5  0        10
[16]  B07  7  7   -457.7 4092001.2  0.4  0.0 20  0       342
[17]  B10  1  7   -495.5 4092002.4 -0.0  0.0  1  0         0
$GNGGA,000000.000,,,,,0,00,,,M,,,,0000*2B
$GNRMC,000000.000,A,,,,,,,000000,,*26
$GPGSA,A,1,,,,,,,,,,,,,,,*1E
$BDGSA,A,1,,,,,,,,,,,,,,,*0F
$GPGSV,2,1,07,04,00,000,42,07,00,000,44,09,00,000,43,16,00,000,43*76
$GPGSV,2,2,07,23,00,000,47,26,00,000,42,27,00,000,44*4B
$LOGTIM,0,0.000000,0.000000,0.000000,0.000000,0.000*0A
EndT:        0
---00000008--- Acq_st=3 2019-5-22 02:12:28 
[01]  G04  f 42  -2593.4 2046003.4  1.0  1.0  5  0 267165257
[02]  G07  f 44  -3593.4 2046004.6  1.0  1.0  5  0 267165254
[03]  G09  f 43  -1573.8 2046002.1  1.0  1.0  5  0 267165261
[04]  G16  f 43    854.8 2045998.9  1.0  1.0  5  0 267165267
[05]  G23  7 48    245.3 2045999.6  1.0  1.0  5  0         5
[06]  G26  7 42   1537.2 2045998.0  1.0  1.0  5  0         2
[07]  G27  7 43   -585.5 2046000.8  1.0  1.0  5  0        10
[16]  B07  7 45   -455.6 4092001.2  0.9  1.0  5  0      1335
[17]  B10  7 22   -496.6 4092001.2  0.4  0.0 20  0       545
$GNGGA,000000.000,,,,,0,00,,,M,,,,0000*2B
$GNRMC,000000.000,A,,,,,,,000000,,*26
$GPGSA,A,1,,,,,,,,,,,,,,,*1E
$BDGSA,A,1,,,,,,,,,,,,,,,*0F
$GPGSV,2,1,07,04,00,000,42,07,00,000,44,09,00,000,43,16,00,000,43*76
$GPGSV,2,2,07,23,00,000,48,26,00,000,42,27,00,000,43*43
$BDGSV,1,1,02,07,00,000,45,10,00,000,22*6D
$LOGTIM,0,0.000000,0.000000,0.000000,0.000000,0.000*0A
EndT:        0
---00000009--- Acq_st=3 2019-5-22 02:12:29 
[01]  G04  f 42  -2594.1 2046003.4  1.0  1.0  5  0 267166257
[02]  G07  f 44  -3595.0 2046004.7  1.0  1.0  5  0 267166254
[03]  G09  f 42  -1574.1 2046002.0  1.0  1.0  5  0 267166261
[04]  G16  f 42    853.4 2045998.9  1.0  1.0  5  0 267166267
[05]  G23  7 47    244.3 2045999.7  1.0  1.0  5  0         5
[06]  G26  7 42   1535.6 2045998.0  1.0  1.0  5  0         2
[07]  G27  7 44   -586.5 2046000.7  1.0  1.0  5  0        10
[16]  B07  7 45   -457.3 4092001.2  1.0  1.0  5  0      2335
[17]  B10  7 44   -498.1 4092001.3  1.0  1.0  5  0      1532
$GNGGA,000000.000,,,,,0,00,,,M,,,,0000*2B
$GNRMC,000000.000,A,,,,,,,000000,,*26
$GPGSA,A,1,,,,,,,,,,,,,,,*1E
$BDGSA,A,1,,,,,,,,,,,,,,,*0F
$GPGSV,2,1,07,04,00,000,42,07,00,000,44,09,00,000,42,16,00,000,42*76
$GPGSV,2,2,07,23,00,000,47,26,00,000,42,27,00,000,44*4B
$BDGSV,1,1,02,07,00,000,45,10,00,000,44*6D
$LOGTIM,0,0.000000,0.000000,0.000000,0.000000,0.000*0A
EndT:        0
---00000010--- Acq_st=3 2019-5-22 02:12:30 
[01]  G04  f 42  -2594.4 2046003.3  1.0  1.0  5  0 267167257
[02]  G07  f 44  -3595.7 2046004.6  1.0  1.0  5  0 267167254
[03]  G09  f 43  -1574.6 2046002.0  1.0  1.0  5  0 267167261
[04]  G16  f 43    853.4 2045998.9  1.0  1.0  5  0 267167267
[05]  G23  7 47    244.8 2045999.7  1.0  1.0  5  0         5
[06]  G26  7 42   1535.8 2045998.0  1.0  1.0  5  0         2
[07]  G27  7 43   -585.5 2046000.7  1.0  1.0  5  0        10
[16]  B07  7 45   -457.4 4092001.2  1.0  1.0  5  0      3335
[17]  B10  7 45   -498.2 4092001.3  1.0  1.0  5  0      2532
$GNGGA,000000.000,,,,,0,00,,,M,,,,0000*2B
$GNRMC,000000.000,A,,,,,,,000000,,*26
$GPGSA,A,1,,,,,,,,,,,,,,,*1E
$BDGSA,A,1,,,,,,,,,,,,,,,*0F
$GPGSV,2,1,07,04,00,000,42,07,00,000,44,09,00,000,43,16,00,000,43*76
$GPGSV,2,2,07,23,00,000,47,26,00,000,42,27,00,000,43*4C
$BDGSV,1,1,02,07,00,000,45,10,00,000,45*6C
$LOGTIM,0,0.000000,0.000000,0.000000,0.000000,0.000*0A
EndT:        0
---00000011--- Acq_st=3 2019-5-22 02:12:31 
[01]  G04  f 41  -2593.5 2046003.4  1.0  1.0  5  0 267168257
[02]  G07  f 44  -3594.8 2046004.6  1.0  1.0  5  0 267168254
[03]  G09  f 43  -1573.0 2046002.0  1.0  1.0  5  0 267168261
[04]  G16  f 43    854.2 2045998.9  1.0  1.0  5  0 267168267
[05]  G23  f 47    245.6 2045999.7  1.0  1.0  5  0         5
[06]  G26  f 43   1535.7 2045998.0  1.0  1.0  5  0         2
[07]  G27  f 43   -585.4 2046000.8  1.0  1.0  5  0        10
[16]  B07  7 45   -457.3 4092001.2  1.0  1.0  5  0      4335
[17]  B10  7 45   -498.0 4092001.3  1.0  1.0  5  0      3532
$GNGGA,000000.000,,,,,0,00,,,M,,,,0000*2B
$GNRMC,000000.000,A,,,,,,,000000,,*26
$GPGSA,A,1,,,,,,,,,,,,,,,*1E
$BDGSA,A,1,,,,,,,,,,,,,,,*0F
$GPGSV,2,1,07,04,00,000,41,07,00,000,44,09,00,000,43,16,00,000,43*75
$GPGSV,2,2,07,23,00,000,47,26,00,000,43,27,00,000,43*4D
$BDGSV,1,1,02,07,00,000,45,10,00,000,45*6C
$LOGTIM,0,0.000000,0.000000,0.000000,0.000000,0.000*0A
EndT:        0
---00000012--- Acq_st=3 2019-5-22 02:12:32 
[01]  G04  f 42  -2591.7 2046003.4  1.0  1.0  5  0 267169257
[02]  G07  f 44  -3593.7 2046004.7  1.0  1.0  5  0 267169254
[03]  G09  f 43  -1571.5 2046002.1  1.0  1.0  5  0 267169261
[04]  G16  f 43    855.6 2045998.9  1.0  1.0  5  0 267169267
[05]  G23  f 47    247.7 2045999.7  1.0  1.0  5  0 267169265
[06]  G26  f 43   1537.7 2045998.0  1.0  1.0  5  0 267169262
[07]  G27  f 43   -582.8 2046000.8  1.0  1.0  5  0 267169270
[16]  B07  7 45   -455.7 4092001.2  1.0  1.0  5  0      5335
[17]  B10  7 45   -496.4 4092001.3  1.0  1.0  5  0      4532
[18]  B28  1 32    732.3 4091998.3 -0.0  0.0  1  0         0
$GNGGA,000000.000,,,,,0,00,,,M,,,,0000*2B
$GNRMC,000000.000,A,,,,,,,000000,,*26
$GPGSA,A,1,,,,,,,,,,,,,,,*1E
$BDGSA,A,1,,,,,,,,,,,,,,,*0F
$GPGSV,2,1,07,04,00,000,42,07,00,000,44,09,00,000,43,16,00,000,43*76
$GPGSV,2,2,07,23,00,000,47,26,00,000,43,27,00,000,43*4D
$BDGSV,1,1,02,07,00,000,45,10,00,000,45*6C
$LOGTIM,0,0.000000,0.000000,0.000000,0.000000,0.000*0A
EndT:        0
---00000013--- Acq_st=7 2019-5-22 02:12:33 
[01]  G04  f 41  -2591.4 2046003.4  1.0  1.0  5  0 267170257
[02]  G07  f 44  -3594.4 2046004.7  1.0  1.0  5  0 267170254
[03]  G09  f 43  -1570.9 2046002.0  1.0  1.0  5  0 267170261
[04]  G16  f 43    855.5 2045998.9  1.0  1.0  5  0 267170267
[05]  G23  f 47    248.0 2045999.7  1.0  1.0  5  0 267170265
[06]  G26  f 43   1537.6 2045998.0  1.0  1.0  5  0 267170262
[07]  G27  f 43   -582.3 2046000.7  1.0  1.0  5  0 267170270
[16]  B07  7 45   -456.3 4092001.2  1.0  1.0  5  0      6335
[17]  B10  7 45   -497.0 4092001.3  1.0  1.0  5  0      5532
[18]  B28  7 28    731.0 4091998.0  0.7  0.0 10  0       762
$GNGGA,000000.000,,,,,0,00,,,M,,,,0000*2B
$GNRMC,000000.000,A,,,,,,,000000,,*26
$GPGSA,A,1,,,,,,,,,,,,,,,*1E
$BDGSA,A,1,,,,,,,,,,,,,,,*0F
$GPGSV,2,1,07,04,00,000,41,07,00,000,44,09,00,000,43,16,00,000,43*75
$GPGSV,2,2,07,23,00,000,47,26,00,000,43,27,00,000,43*4D
$BDGSV,1,1,03,07,00,000,45,10,00,000,45,28,00,000,28*5D
$LOGTIM,0,0.000000,0.000000,0.000000,0.000000,0.000*0A
EndT:        0
---00000014--- Acq_st=3 2019-5-22 02:12:34 
[01]  G04  f 42  -2590.3 2046003.4  1.0  1.0  5  0 267171257
[02]  G07  f 45  -3593.6 2046004.7  1.0  1.0  5  0 267171254
[03]  G09  f 43  -1569.8 2046002.0  1.0  1.0  5  0 267171261
[04]  G16  f 43    856.3 2045998.9  1.0  1.0  5  0 267171267
[05]  G23  f 47    249.1 2045999.7  1.0  1.0  5  0 267171265
[06]  G26  f 42   1538.0 2045998.0  1.0  1.0  5  0 267171262
[07]  G27  f 43   -581.3 2046000.7  1.0  1.0  5  0 267171270
[16]  B07 1f 45   -456.1 4092001.2  1.0  1.0  5  0 267157215
[17]  B10 1f 45   -496.5 4092001.3  1.0  1.0  5  0 267157212
[18]  B28  7 45    732.2 4091998.0  1.0  1.0  5  0      1762
$GNGGA,000000.000,,,,,0,00,,,M,,,,0000*2B
$GNRMC,000000.000,A,,,,,,,000000,,*26
$GPGSA,A,1,,,,,,,,,,,,,,,*1E
$BDGSA,A,1,,,,,,,,,,,,,,,*0F
$GPGSV,2,1,07,04,00,000,42,07,00,000,45,09,00,000,43,16,00,000,43*77
$GPGSV,2,2,07,23,00,000,47,26,00,000,42,27,00,000,43*4C
$BDGSV,1,1,03,07,00,000,45,10,00,000,45,28,00,000,45*56
$LOGTIM,0,0.000000,0.000000,0.000000,0.000000,0.000*0A
EndT:        0
---00000015--- Acq_st=3 2019-5-22 02:12:35 
[01]  G04  f 42  -2592.5 2046003.4  1.0  1.0  5  0 267172257
[02]  G07  f 45  -3596.5 2046004.7  1.0  1.0  5  0 267172254
[03]  G09  f 44  -1571.9 2046002.0  1.0  1.0  5  0 267172261
[04]  G16  f 43    854.0 2045998.9  1.0  1.0  5  0 267172267
[05]  G23  f 47    247.2 2045999.7  1.0  1.0  5  0 267172265
[06]  G26  f 42   1535.3 2045998.0  1.0  1.0  5  0 267172262
[07]  G27  f 43   -583.3 2046000.7  1.0  1.0  5  0 267172270
[16]  B07 1f 45   -458.5 4092001.2  1.0  1.0  5  0 267158215
[17]  B10 1f 44   -499.2 4092001.3  1.0  1.0  5  0 267158212
[18]  B28  7 45    729.8 4091998.1  1.0  1.0  5  0      2762
$GNGGA,000000.000,,,,,0,00,,,M,,,,0000*2B
$GNRMC,000000.000,A,,,,,,,000000,,*26
$GPGSA,A,1,,,,,,,,,,,,,,,*1E
$BDGSA,A,1,,,,,,,,,,,,,,,*0F
$GPGSV,2,1,07,04,00,000,42,07,00,000,45,09,00,000,44,16,00,000,43*70
$GPGSV,2,2,07,23,00,000,47,26,00,000,42,27,00,000,43*4C
$BDGSV,1,1,03,07,00,000,45,10,00,000,44,28,00,000,45*57
$LOGTIM,0,0.000000,0.000000,0.000000,0.000000,0.000*0A
EndT:        0
---00000016--- Acq_st=3 2019-5-22 02:12:36 
[01]  G04  f 42  -2593.2 2046003.4  1.0  1.0  5  0 267173257
[02]  G07  f 45  -3597.1 2046004.7  1.0  1.0  5  0 267173254
[03]  G09  f 44  -1572.3 2046002.0  1.0  1.0  5  0 267173261
[04]  G16  f 43    852.9 2045998.9  1.0  1.0  5  0 267173267
[05]  G23  f 47    247.0 2045999.7  1.0  1.0  5  0 267173265
[06]  G26  f 42   1534.6 2045998.0  1.0  1.0  5  0 267173262
[07]  G27  f 43   -583.3 2046000.8  1.0  1.0  5  0 267173270
[16]  B07 1f 45   -459.3 4092001.2  1.0  1.0  5  0 267159215
[17]  B10 1f 45   -499.9 4092001.3  1.0  1.0  5  0 267159212
[18]  B28  7 46    729.7 4091998.1  1.0  1.0  5  0      3762
$GNGGA,000000.000,,,,,0,00,,,M,,,,0000*2B
$GNRMC,000000.000,A,,,,,,,000000,,*26
$GPGSA,A,1,,,,,,,,,,,,,,,*1E
$BDGSA,A,1,,,,,,,,,,,,,,,*0F
$GPGSV,2,1,07,04,00,000,42,07,00,000,45,09,00,000,44,16,00,000,43*70
$GPGSV,2,2,07,23,00,000,47,26,00,000,42,27,00,000,43*4C
$BDGSV,1,1,03,07,00,000,45,10,00,000,45,28,00,000,46*55
$LOGTIM,0,0.000000,0.000000,0.000000,0.000000,0.000*0A
EndT:        0
---00000017--- Acq_st=3 2019-5-22 02:12:37 
[01]  G04  f 42  -2592.9 2046003.3  1.0  1.0  5  0 267174257
[02]  G07  f 45  -3597.5 2046004.7  1.0  1.0  5  0 267174254
[03]  G09  f 44  -1571.6 2046002.0  1.0  1.0  5  0 267174261
[04]  G16  f 42    853.0 2045998.9  1.0  0.9  5  0 267174267
[05]  G23  f 47    247.1 2045999.7  1.0  1.0  5  0 267174265
[06]  G26  f 42   1534.4 2045998.0  1.0  1.0  5  0 267174262
[07]  G27  f 42   -583.2 2046000.8  1.0  1.0  5  0 267174270
[16]  B07 1f 46   -459.5 4092001.2  1.0  1.0  5  0 267160215
[17]  B10 1f 45   -500.5 4092001.3  1.0  1.0  5  0 267160212
[18]  B28  7 46    729.7 4091998.1  1.0  1.0  5  0      4762
$GNGGA,000000.000,,,,,0,00,,,M,,,,0000*2B
$GNRMC,000000.000,A,,,,,,,000000,,*26
$GPGSA,A,1,,,,,,,,,,,,,,,*1E
$BDGSA,A,1,,,,,,,,,,,,,,,*0F
$GPGSV,2,1,07,04,00,000,42,07,00,000,45,09,00,000,44,16,00,000,42*71
$GPGSV,2,2,07,23,00,000,47,26,00,000,42,27,00,000,42*4D
$BDGSV,1,1,03,07,00,000,46,10,00,000,45,28,00,000,46*56
$LOGTIM,0,0.000000,0.000000,0.000000,0.000000,0.000*0A
EndT:        0
---00000018--- Acq_st=3 2019-5-22 02:12:38 
[01]  G04  f 42  -2589.5 2046003.4  1.0  1.0  5  0 267175257
[02]  G07  f 44  -3595.0 2046004.7  1.0  1.0  5  0 267175254
[03]  G09  f 44  -1568.8 2046002.1  1.0  1.0  5  0 267175261
[04]  G16  f 43    855.6 2045998.9  1.0  1.0  5  0 267175267
[05]  G23  f 47    250.2 2045999.7  1.0  1.0  5  0 267175265
[06]  G26  f 42   1537.0 2045998.0  1.0  1.0  5  0 267175262
[07]  G27  f 43   -579.9 2046000.8  1.0  1.0  5  0 267175270
[16]  B07 1f 45   -457.2 4092001.2  1.0  1.0  5  0 267161215
[17]  B10 1f 45   -497.7 4092001.3  1.0  1.0  5  0 267161212
[18]  B28  7 46    733.2 4091998.1  1.0  1.0  5  0      5762
[19]  B05  1 10   -344.8 4092000.5 -0.0  0.0  1  0         0
$GNGGA,000000.000,,,,,0,00,,,M,,,,0000*2B
$GNRMC,000000.000,A,,,,,,,000000,,*26
$GPGSA,A,1,,,,,,,,,,,,,,,*1E
$BDGSA,A,1,,,,,,,,,,,,,,,*0F
$GPGSV,2,1,07,04,00,000,42,07,00,000,44,09,00,000,44,16,00,000,43*71
$GPGSV,2,2,07,23,00,000,47,26,00,000,42,27,00,000,43*4C
$BDGSV,1,1,03,07,00,000,45,10,00,000,45,28,00,000,46*55
$LOGTIM,0,0.000000,0.000000,0.000000,0.000000,0.000*0A
EndT:        0
---00000019--- Acq_st=3 2019-5-22 02:12:39 
[01]  G04  f 42  -2588.1 2046003.4  1.0  1.0  5  0 267176257
[02]  G07  f 44  -3594.0 2046004.7  1.0  1.0  5  0 267176254
[03]  G09  f 43  -1566.6 2046002.0  1.0  1.0  5  0 267176261
[04]  G16  f 43    856.9 2045998.9  1.0  1.0  5  0 267176267
[05]  G23  f 46    252.0 2045999.7  1.0  1.0  5  0 267176265
[06]  G26  f 42   1537.9 2045998.0  1.0  1.0  5  0 267176262
[07]  G27  f 42   -578.2 2046000.8  1.0  1.0  5  0 267176270
[16]  B07 1f 45   -456.1 4092001.2  1.0  1.0  5  0 267162215
[17]  B10 1f 45   -496.6 4092001.3  1.0  1.0  5  0 267162212
[18]  B28 1f 46    734.8 4091998.0  1.0  1.0  5  0      6762
[19]  B05  7 31   -344.3 4092001.0  0.7  0.0  2  0       728
$GNGGA,000000.000,,,,,0,00,,,M,,,,0000*2B
$GNRMC,000000.000,A,,,,,,,000000,,*26
$GPGSA,A,1,,,,,,,,,,,,,,,*1E
$BDGSA,A,1,,,,,,,,,,,,,,,*0F
$GPGSV,2,1,07,04,00,000,42,07,00,000,44,09,00,000,43,16,00,000,43*76
$GPGSV,2,2,07,23,00,000,46,26,00,000,42,27,00,000,42*4C
$BDGSV,1,1,04,07,00,000,45,10,00,000,45,28,00,000,46,05,00,000,31*65
$LOGTIM,0,0.000000,0.000000,0.000000,0.000000,0.000*0A
EndT:        0
---00000020--- Acq_st=3 2019-5-22 02:12:40 
[01]  G04  f 42  -2587.9 2046003.4  1.0  1.0  5  0 267177257
[02]  G07  f 45  -3593.5 2046004.7  1.0  1.0  5  0 267177254
[03]  G09  f 43  -1565.8 2046002.1  1.0  1.0  5  0 267177261
[04]  G16  f 42    857.3 2045998.9  1.0  1.0  5  0 267177267
[05]  G23  f 46    252.9 2045999.7  1.0  1.0  5  0 267177265
[06]  G26  f 42   1538.4 2045998.0  1.0  1.0  5  0 267177262
[07]  G27  f 42   -577.3 2046000.8  1.0  1.0  5  0 267177270
[16]  B07 1f 45   -456.1 4092001.2  1.0  1.0  5  0 267163215
[17]  B10 1f 45   -496.6 4092001.3  1.0  1.0  5  0 267163212
[18]  B28 1f 46    735.4 4091998.1  1.0  1.0  5  0 267163262
[19]  B05  f 30   -344.8 4092001.0  0.7  0.0  2  0      1727
$GNGGA,000000.000,,,,,0,00,,,M,,,,0000*2B
$GNRMC,000000.000,A,,,,,,,000000,,*26
$GPGSA,A,1,,,,,,,,,,,,,,,*1E
$BDGSA,A,1,,,,,,,,,,,,,,,*0F
$GPGSV,2,1,07,04,00,000,42,07,00,000,45,09,00,000,43,16,00,000,42*76
$GPGSV,2,2,07,23,00,000,46,26,00,000,42,27,00,000,42*4C
$BDGSV,1,1,04,07,00,000,45,10,00,000,45,28,00,000,46,05,00,000,30*64
$LOGTIM,0,0.000000,0.000000,0.000000,0.000000,0.000*0A
EndT:        0
---00000021--- Acq_st=3 2019-5-22 02:12:41 
[01]  G04  f 43  -2586.4 2046003.4  1.0  1.0  5  0 267178257
[02]  G07  f 45  -3592.9 2046004.7  1.0  1.0  5  0 267178254
[03]  G09  f 42  -1564.8 2046002.0  1.0  1.0  5  0 267178261
[04]  G16  f 41    858.1 2045998.9  1.0  1.0  5  0 267178267
[05]  G23  f 46    254.1 2045999.7  1.0  1.0  5  0 267178265
[06]  G26  f 41   1539.5 2045998.0  1.0  1.0  5  0 267178262
[07]  G27  f 42   -576.1 2046000.8  1.0  1.0  5  0 267178270
[16]  B07 1f 45   -455.5 4092001.2  1.0  1.0  5  0 267164215
[17]  B10 1f 45   -495.9 4092001.3  1.0  1.0  5  0 267164212
[18]  B28 1f 46    736.5 4091998.1  1.0  1.0  5  0 267164262
[19]  B05  f 31   -344.0 4092001.0  0.8  0.0  2  0 267164803
$GNGGA,000000.000,,,,,0,00,,,M,,,,0000*2B
$GNRMC,000000.000,A,,,,,,,000000,,*26
$GPGSA,A,1,,,,,,,,,,,,,,,*1E
$BDGSA,A,1,,,,,,,,,,,,,,,*0F
$GPGSV,2,1,07,04,00,000,43,07,00,000,45,09,00,000,42,16,00,000,41*75
$GPGSV,2,2,07,23,00,000,46,26,00,000,41,27,00,000,42*4F
$BDGSV,1,1,04,07,00,000,45,10,00,000,45,28,00,000,46,05,00,000,31*65
$LOGTIM,0,0.000000,0.000000,0.000000,0.000000,0.000*0A
EndT:        0
---00000022--- Acq_st=3 2019-5-22 02:12:42 
[01]  G04  f 42  -2586.3 2046003.3  1.0  1.0  5  0 267179257
[02]  G07  f 45  -3593.8 2046004.7  1.0  1.0  5  0 267179254
[03]  G09  f 43  -1564.8 2046002.0  1.0  1.0  5  0 267179261
[04]  G16  f 42    857.6 2045998.9  1.0  1.0  5  0 267179267
[05]  G23  f 47    254.1 2045999.7  1.0  1.0  5  0 267179265
[06]  G26  f 41   1538.6 2045998.0  1.0  1.0  5  0 267179262
[07]  G27  f 42   -576.1 2046000.8  1.0  1.0  5  0 267179270
[16]  B07 1f 45   -456.0 4092001.2  1.0  1.0  5  0 267165215
[17]  B10 1f 45   -496.7 4092001.3  1.0  1.0  5  0 267165212
[18]  B28 1f 46    736.3 4091998.0  1.0  1.0  5  0 267165262
[19]  B05  f 31   -343.4 4092001.0  0.8  0.0  2  0 267165803
$GNGGA,000000.000,,,,,0,00,,,M,,,,0000*2B
$GNRMC,000000.000,A,,,,,,,000000,,*26
$GPGSA,A,1,,,,,,,,,,,,,,,*1E
$BDGSA,A,1,,,,,,,,,,,,,,,*0F
$GPGSV,2,1,07,04,00,000,42,07,00,000,45,09,00,000,43,16,00,000,42*76
$GPGSV,2,2,07,23,00,000,47,26,00,000,41,27,00,000,42*4E
$BDGSV,1,1,04,07,00,000,45,10,00,000,45,28,00,000,46,05,00,000,31*65
$LOGTIM,0,0.000000,0.000000,0.000000,0.000000,0.000*0A
EndT:        0
---00000023--- Acq_st=3 2019-5-22 02:12:43 
[01]  G04  f 42  -2587.7 2046003.3  1.0  1.0  5  0 267180257
[02]  G07  f 45  -3595.2 2046004.7  1.0  1.0  5  0 267180254
[03]  G09  f 43  -1565.9 2046002.0  1.0  1.0  5  0 267180261
[04]  G16  f 42    856.6 2045998.9  1.0  1.0  5  0 267180267
[05]  G23  f 47    253.5 2045999.7  1.0  1.0  5  0 267180265
[06]  G26  f 41   1537.3 2045998.0  1.0  1.0  5  0 267180262
[07]  G27  f 42   -576.6 2046000.8  1.0  1.0  5  0 267180270
[16]  B07 1f 45   -457.5 4092001.2  1.0  1.0  5  0 267166215
[17]  B10 1f 45   -498.0 4092001.3  1.0  1.0  5  0 267166212
[18]  B28 1f 47    735.6 4091998.0  1.0  1.0  5  0 267166262
[19]  B05  f 32   -345.5 4092000.9  0.8  0.0  2  0 267166803
$GNGGA,000000.000,,,,,0,00,,,M,,,,0000*2B
$GNRMC,000000.000,A,,,,,,,000000,,*26
$GPGSA,A,1,,,,,,,,,,,,,,,*1E
$BDGSA,A,1,,,,,,,,,,,,,,,*0F
$GPGSV,2,1,07,04,00,000,42,07,00,000,45,09,00,000,43,16,00,000,42*76
$GPGSV,2,2,07,23,00,000,47,26,00,000,41,27,00,000,42*4E
$BDGSV,1,1,04,07,00,000,45,10,00,000,45,28,00,000,47,05,00,000,32*67
$LOGTIM,0,0.000000,0.000000,0.000000,0.000000,0.000*0A
EndT:        0
---00000024--- Acq_st=7 2019-5-22 02:12:44 
[01]  G04  f 42  -2587.8 2046003.4  1.0  1.0  5  0 267181257
[02]  G07  f 44  -3596.5 2046004.6  1.0  1.0  5  0 267181254
[03]  G09  f 43  -1566.2 2046002.0  1.0  1.0  5  0 267181261
[04]  G16  f 42    855.5 2045998.9  1.0  1.0  5  0 267181267
[05]  G23  f 46    253.0 2045999.7  1.0  1.0  5  0 267181265
[06]  G26  f 41   1536.5 2045998.0  1.0  1.0  5  0 267181262
[07]  G27  f 42   -576.9 2046000.8  1.0  1.0  5  0 267181270
[16]  B07 1f 45   -458.5 4092001.2  1.0  1.0  5  0 267167215
[17]  B10 1f 45   -499.1 4092001.3  1.0  1.0  5  0 267167212
[18]  B28 1f 47    735.2 4091998.0  1.0  1.0  5  0 267167262
[19]  B05  f 33   -346.4 4092000.9  0.8  0.0  2  0 267167803
$GNGGA,000000.000,,,,,0,00,,,M,,,,0000*2B
$GNRMC,000000.000,A,,,,,,,000000,,*26
$GPGSA,A,1,,,,,,,,,,,,,,,*1E
$BDGSA,A,1,,,,,,,,,,,,,,,*0F
$GPGSV,2,1,07,04,00,000,42,07,00,000,44,09,00,000,43,16,00,000,42*77
$GPGSV,2,2,07,23,00,000,46,26,00,000,41,27,00,000,42*4F
$BDGSV,1,1,04,07,00,000,45,10,00,000,45,28,00,000,47,05,00,000,33*66
$LOGTIM,0,0.000000,0.000000,0.000000,0.000000,0.000*0A
EndT:        0
---00000025--- Acq_st=7 2019-5-22 02:12:45 
[01]  G04  f 42  -2589.1 2046003.4  1.0  1.0  5  0 267182257
[02]  G07  f 44  -3597.7 2046004.7  1.0  1.0  5  0 267182254
[03]  G09  f 44  -1567.0 2046002.0  1.0  1.0  5  0 267182261
[04]  G16  f 41    854.1 2045998.9  1.0  1.0  5  0 267182267
[05]  G23  f 46    252.3 2045999.7  1.0  1.0  5  0 267182265
[06]  G26  f 41   1535.2 2045998.0  1.0  1.0  5  0 267182262
[07]  G27  f 42   -577.4 2046000.8  1.0  1.0  5  0 267182270
[16]  B07 1f 45   -459.9 4092001.2  1.0  1.0  5  0 267168215
[17]  B10 1f 45   -500.7 4092001.3  1.0  1.0  5  0 267168212
[18]  B28 1f 47    734.1 4091998.0  1.0  1.0  5  0 267168262
[19]  B05  f 30   -347.6 4092000.9  0.8  0.0  2  0 267168803
$GNGGA,000000.000,,,,,0,00,,,M,,,,0000*2B
$GNRMC,000000.000,A,,,,,,,000000,,*26
$GPGSA,A,1,,,,,,,,,,,,,,,*1E
$BDGSA,A,1,,,,,,,,,,,,,,,*0F
$GPGSV,2,1,07,04,00,000,42,07,00,000,44,09,00,000,44,16,00,000,41*73
$GPGSV,2,2,07,23,00,000,46,26,00,000,41,27,00,000,42*4F
$BDGSV,1,1,04,07,00,000,45,10,00,000,45,28,00,000,47,05,00,000,30*65
$LOGTIM,0,0.000000,0.000000,0.000000,0.000000,0.000*0A
EndT:        0
---00000026--- Acq_st=3 2019-5-22 02:12:46 
[01]  G04  f 42  -2587.6 2046003.4  1.0  1.0  5  0 267183257
[02]  G07  f 45  -3597.0 2046004.7  1.0  1.0  5  0 267183254
[03]  G09  f 44  -1565.5 2046002.0  1.0  1.0  5  0 267183261
[04]  G16  f 42    854.9 2045998.9  1.0  1.0  5  0 267183267
[05]  G23  f 46    253.5 2045999.7  1.0  1.0  5  0 267183265
[06]  G26  f 42   1535.9 2045998.0  1.0  1.0  5  0 267183262
[07]  G27  f 42   -576.2 2046000.8  1.0  1.0  5  0 267183270
[16]  B07 1f 45   -459.3 4092001.2  1.0  1.0  5  0 267169215
[17]  B10 1f 44   -499.9 4092001.3  1.0  1.0  5  0 267169212
[18]  B28 1f 47    735.2 4091998.0  1.0  1.0  5  0 267169262
[19]  B05  f 32   -347.5 4092000.8  0.8  0.0  2  0 267169803
$GNGGA,000000.000,,,,,0,00,,,M,,,,0000*2B
$GNRMC,000000.000,A,,,,,,,000000,,*26
$GPGSA,A,1,,,,,,,,,,,,,,,*1E
$BDGSA,A,1,,,,,,,,,,,,,,,*0F
$GPGSV,2,1,07,04,00,000,42,07,00,000,45,09,00,000,44,16,00,000,42*71
$GPGSV,2,2,07,23,00,000,46,26,00,000,42,27,00,000,42*4C
$BDGSV,1,1,04,07,00,000,45,10,00,000,44,28,00,000,47,05,00,000,32*66
$LOGTIM,0,0.000000,0.000000,0.000000,0.000000,0.000*0A
EndT:        0
---00000027--- Acq_st=3 2019-5-22 02:12:47 
[01]  G04  f 42  -2587.9 2046003.4  1.0  1.0  5  0 267184257
[02]  G07  f 45  -3598.1 2046004.7  1.0  1.0  5  0 267184254
[03]  G09  f 43  -1566.0 2046002.0  1.0  1.0  5  0 267184261
[04]  G16  f 41    854.1 2045998.9  1.0  1.0  5  0 267184267
[05]  G23  f 46    253.0 2045999.7  1.0  1.0  5  0 267184265
[06]  G26  f 42   1535.0 2045998.0  1.0  1.0  5  0 267184262
[07]  G27  f 42   -576.8 2046000.8  1.0  1.0  5  0 267184270
[16]  B07 1f 45   -460.4 4092001.2  1.0  1.0  5  0 267170215
[17]  B10 1f 45   -500.8 4092001.3  1.0  1.0  5  0 267170212
[18]  B28 1f 47    734.8 4091998.0  1.0  1.0  5  0 267170262
[19]  B05  f 33   -349.1 4092001.1  0.8  0.0  2  0 267170803
$GNGGA,000000.000,,,,,0,00,,,M,,,,0000*2B
$GNRMC,000000.000,A,,,,,,,000000,,*26
$GPGSA,A,1,,,,,,,,,,,,,,,*1E
$BDGSA,A,1,,,,,,,,,,,,,,,*0F
$GPGSV,2,1,07,04,00,000,42,07,00,000,45,09,00,000,43,16,00,000,41*75
$GPGSV,2,2,07,23,00,000,46,26,00,000,42,27,00,000,42*4C
$BDGSV,1,1,04,07,00,000,45,10,00,000,45,28,00,000,47,05,00,000,33*66
$LOGTIM,0,0.000000,0.000000,0.000000,0.000000,0.000*0A
EndT:        0
---00000028--- Acq_st=3 2019-5-22 02:12:48 
[01]  G04  f 42  -2588.9 2046003.4  1.0  1.0  5  0 267185257
[02]  G07  f 45  -3599.7 2046004.6  1.0  1.0  5  0 267185254
[03]  G09  f 43  -1566.7 2046002.0  1.0  1.0  5  0 267185261
[04]  G16  f 42    853.1 2045998.9  1.0  1.0  5  0 267185267
[05]  G23  f 46    252.3 2045999.7  1.0  1.0  5  0 267185265
[06]  G26  f 42   1533.7 2045998.0  1.0  1.0  5  0 267185262
[07]  G27  f 42   -577.6 2046000.8  1.0  1.0  5  0 267185270
[16]  B07 1f 45   -461.6 4092001.2  1.0  1.0  5  0 267171215
[17]  B10 1f 45   -502.3 4092001.3  1.0  1.0  5  0 267171212
[18]  B28 1f 47    734.2 4091998.0  1.0  1.0  5  0 267171262
[19]  B05  f 31   -349.1 4092000.9  0.7  0.0  2  0 267171803
$GNGGA,000000.000,,,,,0,00,,,M,,,,0000*2B
$GNRMC,000000.000,A,,,,,,,000000,,*26
$GPGSA,A,1,,,,,,,,,,,,,,,*1E
$BDGSA,A,1,,,,,,,,,,,,,,,*0F
$GPGSV,2,1,07,04,00,000,42,07,00,000,45,09,00,000,43,16,00,000,42*76
$GPGSV,2,2,07,23,00,000,46,26,00,000,42,27,00,000,42*4C
$BDGSV,1,1,04,07,00,000,45,10,00,000,45,28,00,000,47,05,00,000,31*64
$LOGTIM,0,0.000000,0.000000,0.000000,0.000000,0.000*0A
EndT:        0
---00000029--- Acq_st=3 2019-5-22 02:12:49 
[01]  G04  f 42  -2585.7 2046003.4  1.0  1.0  5  0 267186257
[02]  G07  f 45  -3596.6 2046004.7  1.0  1.0  5  0 267186254
[03]  G09  f 44  -1562.8 2046002.0  1.0  1.0  5  0 267186261
[04]  G16  f 41    856.5 2045998.9  1.0  1.0  5  0 267186267
[05]  G23  f 46    255.9 2045999.6  1.0  1.0  5  0 267186265
[06]  G26  f 42   1536.5 2045998.0  1.0  1.0  5  0 267186262
[07]  G27  f 42   -573.8 2046000.7  1.0  1.0  5  0 267186270
[16]  B07 1f 45   -458.7 4092001.2  1.0  1.0  5  0 267172215
[17]  B10 1f 44   -499.2 4092001.3  1.0  1.0  5  0 267172212
[18]  B28 1f 47    737.7 4091998.0  1.0  1.0  5  0 267172262
[19]  B05  f 33   -346.6 4092000.7  0.7  0.0  2  0 267172803
$GNGGA,000000.000,,,,,0,00,,,M,,,,0000*2B
$GNRMC,000000.000,A,,,,,,,000000,,*26
$GPGSA,A,1,,,,,,,,,,,,,,,*1E
$BDGSA,A,1,,,,,,,,,,,,,,,*0F
$GPGSV,2,1,07,04,00,000,42,07,00,000,45,09,00,000,44,16,00,000,41*72
$GPGSV,2,2,07,23,00,000,46,26,00,000,42,27,00,000,42*4C
$BDGSV,1,1,04,07,00,000,45,10,00,000,44,28,00,000,47,05,00,000,33*67
$LOGTIM,0,0.000000,0.000000,0.000000,0.000000,0.000*0A
EndT:        0
---00000030--- Acq_st=3 2019-5-22 02:12:50 
[01]  G04  f 42  -2584.0 2046003.4  1.0  1.0  5  0 267187257
[02]  G07  f 45  -3595.1 2046004.7  1.0  1.0  5  0 267187254
[03]  G09  f 44  -1561.1 2046002.0  1.0  1.0  5  0 267187261
[04]  G16  f 41    857.5 2045998.9  1.0  1.0  5  0 267187267
[05]  G23  f 46    258.0 2045999.7  1.0  1.0  5  0 267187265
[06]  G26  f 42   1538.4 2045998.0  1.0  1.0  5  0 267187262
[07]  G27  f 43   -572.1 2046000.7  1.0  1.0  5  0 267187270
[16]  B07 1f 45   -457.4 4092001.2  1.0  1.0  5  0 267173215
[17]  B10 1f 45   -498.1 4092001.3  1.0  1.0  5  0 267173212
[18]  B28 1f 47    739.4 4091998.0  1.0  1.0  5  0 267173262
[19]  B05  f 30   -344.8 4092000.7  0.7  0.0  2  0 267173803
$GNGGA,000000.000,,,,,0,00,,,M,,,,0000*2B
$GNRMC,000000.000,A,,,,,,,000000,,*26
$GPGSA,A,1,,,,,,,,,,,,,,,*1E
$BDGSA,A,1,,,,,,,,,,,,,,,*0F
$GPGSV,2,1,07,04,00,000,42,07,00,000,45,09,00,000,44,16,00,000,41*72
$GPGSV,2,2,07,23,00,000,46,26,00,000,42,27,00,000,43*4D
$BDGSV,1,1,04,07,00,000,45,10,00,000,45,28,00,000,47,05,00,000,30*65
$LOGTIM,0,0.000000,0.000000,0.000000,0.000000,0.000*0A
EndT:        0
---00000031--- Acq_st=3 2019-5-22 02:12:51 
[01]  G04  f 42  -2586.4 2046003.4  1.0  1.0  5  0 267188257
[02]  G07  f 45  -3598.4 2046004.7  1.0  1.0  5  0 267188254
[03]  G09  f 44  -1563.7 2046002.0  1.0  1.0  5  0 267188261
[04]  G16  f 42    854.8 2045998.9  1.0  1.0  5  0 267188267
[05]  G23  f 46    255.2 2045999.7  1.0  1.0  5  0 267188265
[06]  G26  f 42   1535.1 2045998.0  1.0  1.0  5  0 267188262
[07]  G27  f 43   -574.8 2046000.8  1.0  1.0  5  0 267188270
[16]  B07 1f 45   -460.7 4092001.2  1.0  1.0  5  0 267174215
[17]  B10 1f 45   -501.1 4092001.3  1.0  1.0  5  0 267174212
[18]  B28 1f 47    736.8 4091998.0  1.0  1.0  5  0 267174262
[19]  B05  f 30   -348.2 4092001.1  0.7  0.0  2  0 267174803
$GNGGA,000000.000,,,,,0,00,,,M,,,,0000*2B
$GNRMC,000000.000,A,,,,,,,000000,,*26
$GPGSA,A,1,,,,,,,,,,,,,,,*1E
$BDGSA,A,1,,,,,,,,,,,,,,,*0F
$GPGSV,2,1,07,04,00,000,42,07,00,000,45,09,00,000,44,16,00,000,42*71
$GPGSV,2,2,07,23,00,000,46,26,00,000,42,27,00,000,43*4D
$BDGSV,1,1,04,07,00,000,45,10,00,000,45,28,00,000,47,05,00,000,30*65
$LOGTIM,0,0.000000,0.000000,0.000000,0.000000,0.000*0A
EndT:        0
---00000032--- Acq_st=3 2019-5-22 02:12:52 
[01]  G04  f 41  -2587.4 2046003.4  1.0  1.0  5  0 267189257
[02]  G07  f 45  -3599.8 2046004.7  1.0  1.0  5  0 267189254
[03]  G09  f 44  -1564.2 2046002.0  1.0  1.0  5  0 267189261
[04]  G16  f 41    854.2 2045998.9  1.0  1.0  5  0 267189267
[05]  G23  f 46    254.7 2045999.7  1.0  1.0  5  0 267189265
[06]  G26  f 42   1533.9 2045998.0  1.0  1.0  5  0 267189262
[07]  G27  f 43   -575.4 2046000.7  1.0  1.0  5  0 267189270
[16]  B07 1f 45   -461.9 4092001.2  1.0  1.0  5  0 267175215
[17]  B10 1f 45   -502.4 4092001.3  1.0  1.0  5  0 267175212
[18]  B28 1f 48    736.2 4091998.1  1.0  1.0  5  0 267175262
[19]  B05  f 33   -349.9 4092000.8  0.8  0.0  2  0 267175803
$GNGGA,000000.000,,,,,0,00,,,M,,,,0000*2B
$GNRMC,000000.000,A,,,,,,,000000,,*26
$GPGSA,A,1,,,,,,,,,,,,,,,*1E
$BDGSA,A,1,,,,,,,,,,,,,,,*0F
$GPGSV,2,1,07,04,00,000,41,07,00,000,45,09,00,000,44,16,00,000,41*71
$GPGSV,2,2,07,23,00,000,46,26,00,000,42,27,00,000,43*4D
$BDGSV,1,1,04,07,00,000,45,10,00,000,45,28,00,000,48,05,00,000,33*69
$LOGTIM,0,0.000000,0.000000,0.000000,0.000000,0.000*0A
EndT:        0
---00000033--- Acq_st=3 2019-5-22 02:12:53 
[01]  G04  f 41  -2586.0 2046003.4  1.0  1.0  5  0 267190257
[02]  G07  f 45  -3598.9 2046004.7  1.0  1.0  5  0 267190254
[03]  G09  f 45  -1563.2 2046002.0  1.0  1.0  5  0 267190261
[04]  G16  f 41    854.9 2045998.9  1.0  1.0  5  0 267190267
[05]  G23  f 46    256.1 2045999.7  1.0  1.0  5  0 267190265
[06]  G26  f 42   1534.5 2045998.0  1.0  1.0  5  0 267190262
[07]  G27  f 43   -573.4 2046000.7  1.0  1.0  5  0 267190270
[16]  B07 1f 45   -461.1 4092001.2  1.0  1.0  5  0 267176215
[17]  B10 1f 45   -501.9 4092001.3  1.0  1.0  5  0 267176212
[18]  B28 1f 48    737.4 4091998.0  1.0  1.0  5  0 267176262
[19]  B05  f 31   -349.5 4092001.0  0.8  0.0  2  0 267176803
$GNGGA,000000.000,,,,,0,00,,,M,,,,0000*2B
$GNRMC,000000.000,A,,,,,,,000000,,*26
$GPGSA,A,1,,,,,,,,,,,,,,,*1E
$BDGSA,A,1,,,,,,,,,,,,,,,*0F
$GPGSV,2,1,07,04,00,000,41,07,00,000,45,09,00,000,45,16,00,000,41*70
$GPGSV,2,2,07,23,00,000,46,26,00,000,42,27,00,000,43*4D
$BDGSV,1,1,04,07,00,000,45,10,00,000,45,28,00,000,48,05,00,000,31*6B
$LOGTIM,0,0.000000,0.000000,0.000000,0.000000,0.000*0A
EndT:        0
---00000034--- Acq_st=3 2019-5-22 02:12:54 
[01]  G04  f 41  -2586.1 2046003.4  1.0  1.0  5 3f 267191257
[02]  G07  f 46  -3599.9 2046004.7  1.0  1.0  5  0 267191254
[03]  G09  f 44  -1563.1 2046002.0  1.0  1.0  5  0 267191261
[04]  G16  f 41    854.5 2045998.8  1.0  1.0  5  0 267191267
[05]  G23  f 46    256.4 2045999.7  1.0  1.0  5  0 267191265
[06]  G26  f 42   1534.4 2045998.0  1.0  1.0  5  0 267191262
[07]  G27  f 43   -574.0 2046000.7  1.0  1.0  5  0 267191270
[16]  B07 1f 45   -461.8 4092001.2  1.0  1.0  5  0 267177215
[17]  B10 1f 45   -502.2 4092001.3  1.0  1.0  5  0 267177212
[18]  B28 1f 48    737.4 4091998.1  1.0  1.0  5  0 267177262
[19]  B05  f 32   -349.4 4092000.9  0.8  0.0  2  0 267177803
$GNGGA,000000.000,,,,,0,00,,,M,,,,0000*2B
$GNRMC,000000.000,A,,,,,,,000000,,*26
$GPGSA,A,1,,,,,,,,,,,,,,,*1E
$BDGSA,A,1,,,,,,,,,,,,,,,*0F
$GPGSV,2,1,07,04,00,000,41,07,00,000,46,09,00,000,44,16,00,000,41*72
$GPGSV,2,2,07,23,00,000,46,26,00,000,42,27,00,000,43*4D
$BDGSV,1,1,04,07,00,000,45,10,00,000,45,28,00,000,48,05,00,000,32*68
$LOGTIM,0,0.000000,0.000000,0.000000,0.000000,0.000*0A
EndT:        0
---00000035--- Acq_st=3 2019-5-22 02:12:55 
[01]  G04  f 41  -2587.0 2046003.3  1.0  1.0  5 3f 267192257
[02]  G07  f 46  -3601.3 2046004.7  1.0  1.0  5  0 267192254
[03]  G09  f 44  -1563.9 2046002.0  1.0  1.0  5  0 267192261
[04]  G16  f 41    853.1 2045998.9  1.0  1.0  5  0 267192267
[05]  G23  f 45    255.2 2045999.7  1.0  1.0  5  0 267192265
[06]  G26  f 42   1533.0 2045998.0  1.0  1.0  5  0 267192262
[07]  G27  f 43   -574.1 2046000.7  1.0  1.0  5  0 267192270
[16]  B07 1f 45   -463.1 4092001.2  1.0  1.0  5  0 267178215
[17]  B10 1f 45   -504.0 4092001.3  1.0  1.0  5  0 267178212
[18]  B28 1f 48    736.3 4091998.1  1.0  1.0  5  0 267178262
[19]  B05  f 30   -350.8 4092001.2  0.7  0.0  2  0 267178803
$GNGGA,000000.000,,,,,0,00,,,M,,,,0000*2B
$GNRMC,000000.000,A,,,,,,,000000,,*26
$GPGSA,A,1,,,,,,,,,,,,,,,*1E
$BDGSA,A,1,,,,,,,,,,,,,,,*0F
$GPGSV,2,1,07,04,00,000,41,07,00,000,46,09,00,000,44,16,00,000,41*72
$GPGSV,2,2,07,23,00,000,45,26,00,000,42,27,00,000,43*4E
$BDGSV,1,1,04,07,00,000,45,10,00,000,45,28,00,000,48,05,00,000,30*6A
$LOGTIM,0,0.000000,0.000000,0.000000,0.000000,0.000*0A
EndT:        0
---00000036--- Acq_st=7 2019-5-22 02:12:56 
[01]  G04  f 41  -2586.5 2046003.4  1.0  1.0  5 3f 267193257
[02]  G07  f 46  -3601.6 2046004.7  1.0  1.0  5  0 267193254
[03]  G09  f 45  -1563.3 2046002.0  1.0  1.0  5  0 267193261
[04]  G16  f 41    852.9 2045998.9  1.0  1.0  5  0 267193267
[05]  G23  f 45    255.8 2045999.7  1.0  1.0  5  0 267193265
[06]  G26  f 43   1533.0 2045998.0  1.0  1.0  5  0 267193262
[07]  G27  f 43   -574.1 2046000.7  1.0  1.0  5  0 267193270
[16]  B07 1f 45   -463.6 4092001.2  1.0  1.0  5  0 267179215
[17]  B10 1f 44   -504.3 4092001.3  1.0  1.0  5  0 267179212
[18]  B28 1f 48    736.5 4091998.1  1.0  1.0  5  0 267179262
[19]  B05  f 33   -351.0 4092000.9  0.9  0.0  2  0 267179803
$GNGGA,000000.000,,,,,0,00,,,M,,,,0000*2B
$GNRMC,000000.000,A,,,,,,,000000,,*26
$GPGSA,A,1,,,,,,,,,,,,,,,*1E
$BDGSA,A,1,,,,,,,,,,,,,,,*0F
$GPGSV,2,1,07,04,00,000,41,07,00,000,46,09,00,000,45,16,00,000,41*73
$GPGSV,2,2,07,23,00,000,45,26,00,000,43,27,00,000,43*4F
$BDGSV,1,1,04,07,00,000,45,10,00,000,44,28,00,000,48,05,00,000,33*68
$LOGTIM,0,0.000000,0.000000,0.000000,0.000000,0.000*0A
EndT:        0
---00000037--- Acq_st=7 2019-5-22 02:12:57 
[01]  G04  f 41  -2585.4 2046003.4  1.0  1.0  5 3f 267194257
[02]  G07  f 45  -3600.6 2046004.7  1.0  1.0  5  0 267194254
[03]  G09  f 44  -1561.7 2046002.0  1.0  1.0  5  0 267194261
[04]  G16  f 41    854.4 2045998.9  1.0  1.0  5  0 267194267
[05]  G23  f 44    257.2 2045999.7  1.0  1.0  5  0 267194265
[06]  G26  f 42   1533.6 2045998.0  1.0  1.0  5  0 267194262
[07]  G27  f 43   -572.5 2046000.7  1.0  1.0  5  0 267194270
[16]  B07 1f 46   -462.5 4092001.2  1.0  1.0  5  0 267180215
[17]  B10 1f 44   -503.2 4092001.3  1.0  1.0  5  0 267180212
[18]  B28 1f 48    738.2 4091998.0  1.0  1.0  5  0 267180262
[19]  B05  f 31   -350.3 4092001.1  0.8  0.0  2  0 267180803
$GNGGA,000000.000,,,,,0,00,,,M,,,,0000*2B
$GNRMC,000000.000,A,,,,,,,000000,,*26
$GPGSA,A,1,,,,,,,,,,,,,,,*1E
$BDGSA,A,1,,,,,,,,,,,,,,,*0F
$GPGSV,2,1,07,04,00,000,41,07,00,000,45,09,00,000,44,16,00,000,41*71
$GPGSV,2,2,07,23,00,000,44,26,00,000,42,27,00,000,43*4F
$BDGSV,1,1,04,07,00,000,46,10,00,000,44,28,00,000,48,05,00,000,31*69
$LOGTIM,0,0.000000,0.000000,0.000000,0.000000,0.000*0A
EndT:        0
---00000038--- Acq_st=3 2019-5-22 02:12:58 
[01]  G04  f 41  -2579.0 2046003.4  1.0  1.0  5 3f 267195257
[02]  G07  f 45  -3594.4 2046004.7  1.0  1.0  5  0 267195254
[03]  G09  f 43  -1555.4 2046002.0  1.0  1.0  5  0 267195261
[04]  G16  f 42    860.5 2045998.9  1.0  1.0  5  0 267195267
[05]  G23  f 45    264.3 2045999.7  1.0  1.0  5  0 267195265
[06]  G26  f 42   1540.1 2045998.0  1.0  1.0  5  0 267195262
[07]  G27  f 43   -565.6 2046000.7  1.0  1.0  5  0 267195270
[16]  B07 1f 45   -456.2 4092001.2  1.0  1.0  5  0 267181215
[17]  B10 1f 44   -497.1 4092001.3  1.0  1.0  5  0 267181212
[18]  B28 1f 48    745.0 4091998.0  1.0  1.0  5  0 267181262
[19]  B05  f 31   -344.4 4092000.9  0.7  0.0  2  0 267181803
$GNGGA,000000.000,,,,,0,00,,,M,,,,0000*2B
$GNRMC,000000.000,A,,,,,,,000000,,*26
$GPGSA,A,1,,,,,,,,,,,,,,,*1E
$BDGSA,A,1,,,,,,,,,,,,,,,*0F
$GPGSV,2,1,07,04,00,000,41,07,00,000,45,09,00,000,43,16,00,000,42*75
$GPGSV,2,2,07,23,00,000,45,26,00,000,42,27,00,000,43*4E
$BDGSV,1,1,04,07,00,000,45,10,00,000,44,28,00,000,48,05,00,000,32*69
$LOGTIM,0,0.000000,0.000000,0.000000,0.000000,0.000*0A
EndT:        0
---00000039--- Acq_st=3 2019-5-22 02:12:59 
[01]  G04  f 41  -2575.9 2046003.3  1.0  1.0  5 3f 267196257
[02]  G07  f 45  -3592.6 2046004.7  1.0  1.0  5  0 267196254
[03]  G09  f 44  -1552.4 2046002.0  1.0  1.0  5  0 267196261
[04]  G16  f 41    862.8 2045998.8  1.0  1.0  5  0 267196267
[05]  G23  f 45    266.7 2045999.7  1.0  1.0  5  0 267196265
[06]  G26  f 42   1542.3 2045998.0  1.0  1.0  5  0 267196262
[07]  G27  f 43   -562.6 2046000.7  1.0  1.0  5  0 267196270
[16]  B07 1f 45   -454.4 4092001.2  1.0  1.0  5  0 267182215
[17]  B10 1f 44   -495.3 4092001.3  1.0  1.0  5  0 267182212
[18]  B28 1f 49    747.4 4091998.0  1.0  1.0  5  0 267182262
[19]  B05  f 33   -342.2 4092000.9  0.7  0.0  2  0 267182803
$GNGGA,000000.000,,,,,0,00,,,M,,,,0000*2B
$GNRMC,000000.000,A,,,,,,,000000,,*26
$GPGSA,A,1,,,,,,,,,,,,,,,*1E
$BDGSA,A,1,,,,,,,,,,,,,,,*0F
$GPGSV,2,1,07,04,00,000,41,07,00,000,45,09,00,000,44,16,00,000,41*71
$GPGSV,2,2,07,23,00,000,45,26,00,000,42,27,00,000,43*4E
$BDGSV,1,1,04,07,00,000,45,10,00,000,44,28,00,000,49,05,00,000,33*69
$LOGTIM,0,0.000000,0.000000,0.000000,0.000000,0.000*0A
EndT:        0
---00000040--- Acq_st=3 2019-5-22 02:13:0 
[00]  G21  1  7    977.6 2046000.2  0.0  0.0  1  0         0
[01]  G04  f 41  -2577.8 2046003.3  1.0  1.0  5 3f 267197257
[02]  G07  f 46  -3594.5 2046004.7  1.0  1.0  5  0 267197254
[03]  G09  f 44  -1553.8 2046002.0  1.0  1.0  5  0 267197261
[04]  G16  f 41    861.0 2045998.9  1.0  1.0  5  0 267197267
[05]  G23  f 45    265.3 2045999.6  1.0  1.0  5  0 267197265
[06]  G26  f 42   1540.3 2045998.0  1.0  1.0  5  0 267197262
[07]  G27  f 43   -564.3 2046000.7  1.0  1.0  5  0 267197270
[16]  B07 1f 45   -456.3 4092001.2  1.0  1.0  5  0 267183215
[17]  B10 1f 45   -497.0 4092001.3  1.0  1.0  5  0 267183212
[18]  B28 1f 49    746.2 4091998.0  1.0  1.0  5  0 267183262
[19]  B05  f 33   -344.7 4092000.7  0.7  0.0  2  0 267183803
lsq: nits= 4
$GNGGA,021300.337,3112.7232,N,12136.4359,E,1,06,2.5,73.5,M,,,,0000*2F
$GNRMC,021300.337,A,3112.7232,N,12136.4359,E,0.21,0.00,220519,,*1D
$GPGSA,A,3,07,09,16,23,26,27,,,,,,,3.9,2.5,3.1*34
$BDGSA,A,3,,,,,,,,,,,,,3.9,2.5,3.1*2C
$GPGSV,2,1,07,04,00,000,41,07,00,000,46,09,00,000,44,16,00,000,41*72
$GPGSV,2,2,07,23,00,000,45,26,00,000,42,27,00,000,43*4E
$BDGSV,1,1,04,07,00,000,45,10,00,000,45,28,00,000,49,05,00,000,33*68
$LOGTIM,1,8969942.419908,0.000000,0.000000,0.000000,-63.295*11
EndT:        1
---00000041--- Acq_st=3 2019-5-22 02:13:0 
[00]  G21  7 27   1043.3 2045998.6  0.2  0.8 10  0         0
[01]  G04  f 41  -2579.8 2046003.4  1.0  1.0  5 3f 267198257
[02]  G07  f 46  -3596.9 2046004.7  1.0  1.0  5  0 267198254
[03]  G09  f 44  -1555.4 2046002.0  1.0  1.0  5  0 267198261
[04]  G16  f 42    858.9 2045998.9  1.0  1.0  5  0 267198267
[05]  G23  f 45    263.9 2045999.6  1.0  1.0  5  0 267198265
[06]  G26  f 42   1538.2 2045998.0  1.0  1.0  5  0 267198262
[07]  G27  f 43   -565.6 2046000.7  1.0  1.0  5  0 267198270
[16]  B07 1f 45   -458.6 4092001.2  1.0  1.0  5  0 267184215
[17]  B10 1f 44   -499.4 4092001.3  1.0  1.0  5  0 267184212
[18]  B28 1f 49    744.4 4091998.0  1.0  1.0  5  0 267184262
[19]  B05  f 33   -346.4 4092000.9  0.7  0.0  2  0 267184803
lsq: nits= 2
$GNGGA,021302.000,3112.7200,N,12136.4349,E,1,06,2.5,70.3,M,,,,0000*2F
$GNRMC,021302.000,A,3112.7200,N,12136.4349,E,0.57,0.00,220519,,*19
$GPGSA,A,3,07,09,16,23,26,27,,,,,,,3.9,2.5,3.1*34
$BDGSA,A,3,,,,,,,,,,,,,3.9,2.5,3.1*2C
$GPGSV,2,1,08,21,00,000,27,04,00,000,41,07,00,000,46,09,00,000,44*79
$GPGSV,2,2,08,16,00,000,42,23,00,000,45,26,00,000,42,27,00,000,43*70
$BDGSV,1,1,04,07,00,000,45,10,00,000,44,28,00,000,49,05,00,000,33*69
$LOGTIM,1,-109.950474,0.000000,0.000000,0.000000,-63.813*37
EndT:        2
---00000042--- Acq_st=3 2019-5-22 02:13:2 
[00]  G21  7 32   1043.3 2045998.6  0.9  0.9  5  0        17
[01]  G04  f 41  -2578.7 2046003.3  1.0  1.0  5 3f 267199919
[02]  G07  f 46  -3596.6 2046004.7  1.0  1.0  5  0 267199917
[03]  G09  f 44  -1554.3 2046002.0  1.0  1.0  5  0 267199924
[04]  G16  f 42    859.1 2045998.9  1.0  1.0  5  0 267199929
[05]  G23  f 45    264.4 2045999.7  1.0  1.0  5  0 267199927
[06]  G26  f 43   1538.5 2045998.0  1.0  1.0  5  0 267199925
[07]  G27  f 43   -564.7 2046000.7  1.0  1.0  5  0 267199933
[16]  B07 1f 45   -458.9 4092001.2  1.0  1.0  5  0 267185878
[17]  B10 1f 44   -499.2 4092001.3  1.0  1.0  5  0 267185874
[18]  B28 1f 48    744.9 4091998.0  1.0  1.0  5  0 267185925
[19]  B05  f 32   -345.5 4092000.7  0.7  0.0  2  0 267186465
lsq: nits= 2
$GNGGA,021303.000,3112.7189,N,12136.4345,E,1,06,2.5,68.7,M,,,,0000*2D
$GNRMC,021303.000,A,3112.7189,N,12136.4345,E,0.61,0.00,220519,,*13
$GPGSA,A,3,07,09,16,23,26,27,,,,,,,3.9,2.5,3.1*34
$BDGSA,A,3,,,,,,,,,,,,,3.9,2.5,3.1*2C
$GPGSV,2,1,08,21,00,000,32,04,00,000,41,07,11,313,46,09,28,299,44*74
$GPGSV,2,2,08,16,53,021,42,23,44,257,45,26,35,056,43,27,86,191,43*76
$BDGSV,2,1,05,07,00,000,45,10,00,000,44,28,00,000,48,05,00,000,32*6B
$BDGSV,2,2,05,02,34,234,00*5D
$LOGTIM,1,-175.737950,0.000000,0.000000,0.000000,-63.818*33
EndT:        2
---00000043--- Acq_st=3 2019-5-22 02:13:4 
[00]  G21  7 32   1043.8 2045998.5  1.0  1.0  5  0        17
[01]  G04  f 41  -2579.1 2046003.3  1.0  1.0  5 3f 267200919
[02]  G07  f 45  -3597.3 2046004.7  1.0  1.0  5  0 267200917
[03]  G09  f 44  -1554.4 2046002.0  1.0  1.0  5  0 267200924
[04]  G16  f 42    858.9 2045998.9  1.0  1.0  5  0 267200929
[05]  G23  f 44    264.5 2045999.7  1.0  1.0  5  0 267200927
[06]  G26  f 43   1538.1 2045998.0  1.0  1.0  5  0 267200925
[07]  G27  f 43   -564.9 2046000.7  1.0  1.0  5  0 267200933
[16]  B07 1f 45   -459.5 4092001.2  1.0  1.0  5  0 267186878
[17]  B10 1f 44   -500.1 4092001.3  1.0  1.0  5  0 267186874
[18]  B28 1f 49    744.8 4091998.0  1.0  1.0  5  0 267186925
[19]  B05  f 31   -347.1 4092001.0  0.7  0.0  2  0 267187465
lsq: nits= 2
$GNGGA,021304.000,3112.7188,N,12136.4343,E,1,06,2.5,68.8,M,,,,0000*22
$GNRMC,021304.000,A,3112.7188,N,12136.4343,E,0.34,0.00,220519,,*13
$GPGSA,A,3,07,09,16,23,26,27,,,,,,,3.9,2.5,3.1*34
$BDGSA,A,3,,,,,,,,,,,,,3.9,2.5,3.1*2C
$GPGSV,2,1,08,21,00,000,32,04,00,000,41,07,11,313,45,09,28,299,44*77
$GPGSV,2,2,08,16,53,021,42,23,44,257,44,26,35,056,43,27,86,191,43*77
$BDGSV,2,1,05,07,00,000,45,10,00,000,44,28,00,000,49,05,00,000,31*69
$BDGSV,2,2,05,02,34,234,00*5D
$LOGTIM,1,-239.652970,0.000000,0.000000,0.000000,-64.001*3F
EndT:        2
---00000044--- Acq_st=3 2019-5-22 02:13:4 
[00]  G21  7 32   1042.6 2045998.6  1.0  1.0  5  0        17
[01]  G04  f 41  -2579.8 2046003.4  1.0  1.0  5 3f 267201919
[02]  G07  f 46  -3598.6 2046004.7  1.0  1.0  5  0 267201917
[03]  G09  f 43  -1555.6 2046002.0  1.0  1.0  5  0 267201924
[04]  G16  f 42    857.5 2045998.9  1.0  1.0  5  0 267201929
[05]  G23  f 45    263.9 2045999.6  1.0  1.0  5  0 267201927
[06]  G26  f 42   1536.8 2045998.0  1.0  1.0  5  0 267201925
[07]  G27  f 43   -565.4 2046000.7  1.0  1.0  5  0 267201933
[16]  B07 1f 45   -460.8 4092001.2  1.0  1.0  5  0 267187878
[17]  B10 1f 44   -501.4 4092001.3  1.0  1.0  5  0 267187874
[18]  B28 1f 49    743.8 4091998.0  1.0  1.0  5  0 267187925
[19]  B05  f 32   -348.4 4092000.8  0.8  0.0  2  0 267188465
lsq: nits= 2
$GNGGA,021305.000,3112.7195,N,12136.4339,E,1,06,2.5,72.0,M,,,,0000*21
$GNRMC,021305.000,A,3112.7195,N,12136.4339,E,0.13,0.00,220519,,*16
$GPGSA,A,3,07,09,16,23,26,27,,,,,,,3.9,2.5,3.1*34
$BDGSA,A,3,,,,,,,,,,,,,3.9,2.5,3.1*2C
$GPGSV,2,1,08,21,00,000,32,04,00,000,41,07,11,313,46,09,28,299,43*73
$GPGSV,2,2,08,16,53,021,42,23,44,257,45,26,35,056,42,27,86,191,43*77
$BDGSV,2,1,05,07,00,000,45,10,00,000,44,28,00,000,49,05,00,000,32*6A
$BDGSV,2,2,05,02,34,234,00*5D
$LOGTIM,1,-301.551635,0.000000,0.000000,0.000000,-63.845*34
EndT:        2
---00000045--- Acq_st=3 2019-5-22 02:13:5 
[00]  G21  7 31   1043.1 2045998.7  1.0  0.9  5  0        17
[01]  G04  f 41  -2579.4 2046003.4  1.0  1.0  5 3f 267202919
[02]  G07  f 46  -3598.7 2046004.7  1.0  1.0  5  0 267202917
[03]  G09  f 43  -1554.8 2046002.0  1.0  1.0  5  0 267202924
[04]  G16  f 42    858.0 2045998.9  1.0  1.0  5  0 267202929
[05]  G23  f 45    264.6 2045999.7  1.0  1.0  5  0 267202927
[06]  G26  f 43   1536.8 2045998.0  1.0  1.0  5  0 267202925
[07]  G27  f 43   -564.7 2046000.7  1.0  1.0  5  0 267202933
[16]  B07 1f 45   -460.8 4092001.2  1.0  1.0  5  0 267188878
[17]  B10 1f 44   -501.7 4092001.3  1.0  1.0  5  0 267188874
[18]  B28 1f 49    744.4 4091998.0  1.0  1.0  5  0 267188925
[19]  B05  f 31   -347.7 4092000.9  0.8  0.0  2  0 267189465
lsq: nits= 2
$GNGGA,021306.000,3112.7192,N,12136.4335,E,1,06,2.5,73.1,M,,,,0000*29
$GNRMC,021306.000,A,3112.7192,N,12136.4335,E,0.13,0.00,220519,,*1E
$GPGSA,A,3,07,09,16,23,26,27,,,,,,,3.9,2.5,3.1*34
$BDGSA,A,3,,,,,,,,,,,,,3.9,2.5,3.1*2C
$GPGSV,2,1,08,21,00,000,31,04,00,000,41,07,11,313,46,09,28,299,43*70
$GPGSV,2,2,08,16,53,021,42,23,44,257,45,26,35,056,43,27,86,191,43*76
$BDGSV,2,1,05,07,00,000,45,10,00,000,44,28,00,000,49,05,00,000,31*69
$BDGSV,2,2,05,02,34,234,00*5D
$LOGTIM,1,-364.547570,0.000000,0.000000,0.000000,-63.721*3F
EndT:        2
---00000046--- Acq_st=3 2019-5-22 02:13:6 
[00]  G21  7 30   1043.4 2045998.7  1.0  1.0  5  0        17
[01]  G04  f 41  -2579.3 2046003.3  1.0  1.0  5 3f 267203919
[02]  G07  f 46  -3599.0 2046004.7  1.0  1.0  5  0 267203917
[03]  G09  f 43  -1554.6 2046002.0  1.0  1.0  5  0 267203924
[04]  G16  f 41    857.7 2045998.9  1.0  1.0  5  0 267203929
[05]  G23  f 45    264.7 2045999.7  1.0  1.0  5  0 267203927
[06]  G26  f 42   1536.4 2045998.0  1.0  1.0  5  0 267203925
[07]  G27  f 43   -565.0 2046000.8  1.0  1.0  5  0 267203933
[16]  B07 1f 45   -461.1 4092001.2  1.0  1.0  5  0 267189878
[17]  B10 1f 44   -501.8 4092001.3  1.0  1.0  5  0 267189874
[18]  B28 1f 49    744.7 4091998.0  1.0  1.0  5  0 267189925
[19]  B05  f 31   -349.0 4092001.0  0.8  0.0  2  0 267190465
lsq: nits= 2
$GNGGA,021307.000,3112.7196,N,12136.4335,E,1,06,2.5,74.2,M,,,,0000*28
$GNRMC,021307.000,A,3112.7196,N,12136.4335,E,0.50,0.00,220519,,*1C
$GPGSA,A,3,07,09,16,23,26,27,,,,,,,3.9,2.5,3.1*34
$BDGSA,A,3,,,,,,,,,,,,,3.9,2.5,3.1*2C
$GPGSV,2,1,08,21,00,000,30,04,00,000,41,07,11,313,46,09,28,299,43*71
$GPGSV,2,2,08,16,53,021,41,23,44,257,45,26,35,056,42,27,86,191,43*74
$BDGSV,2,1,05,07,00,000,45,10,00,000,44,28,00,000,49,05,00,000,31*69
$BDGSV,2,2,05,02,34,234,00*5D
$LOGTIM,1,-427.713333,0.000000,0.000000,0.000000,-63.920*32
EndT:        2
---00000047--- Acq_st=3 2019-5-22 02:13:7 
[00]  G21  7 30   1042.1 2045998.7  1.0  0.9  5  0        17
[01]  G04  f 42  -2580.7 2046003.3  1.0  1.0  5 3f 267204919
[02]  G07  f 46  -3601.2 2046004.7  1.0  1.0  5  0 267204917
[03]  G09  f 44  -1555.5 2046002.0  1.0  1.0  5  0 267204924
[04]  G16  f 42    856.1 2045998.9  1.0  1.0  5  0 267204929
[05]  G23  f 44    263.4 2045999.7  1.0  1.0  5  0 267204927
[06]  G26  f 42   1534.5 2045998.0  1.0  1.0  5  0 267204925
[07]  G27  f 43   -565.8 2046000.7  1.0  1.0  5  0 267204933
[16]  B07 1f 45   -463.1 4092001.2  1.0  1.0  5  0 267190878
[17]  B10 1f 44   -503.7 4092001.3  1.0  1.0  5  0 267190874
[18]  B28 1f 49    743.2 4091998.0  1.0  1.0  5  0 267190925
[19]  B05  f 31   -350.2 4092000.9  0.8  0.0  2  0 267191465
lsq: nits= 2
$GNGGA,021308.000,3112.7202,N,12136.4330,E,1,06,2.5,74.8,M,,,,0000*26
$GNRMC,021308.000,A,3112.7202,N,12136.4330,E,0.79,0.00,220519,,*13
$GPGSA,A,3,07,09,16,23,26,27,,,,,,,3.9,2.5,3.1*34
$BDGSA,A,3,,,,,,,,,,,,,3.9,2.5,3.1*2C
$GPGSV,2,1,08,21,00,000,30,04,00,000,42,07,11,313,46,09,28,299,44*75
$GPGSV,2,2,08,16,53,021,42,23,44,257,44,26,35,056,42,27,86,191,43*76
$BDGSV,2,1,06,07,00,000,45,10,00,000,44,28,00,000,49,05,00,000,31*6A
$BDGSV,2,2,06,02,34,234,00,13,05,142,00*6E
$LOGTIM,1,-490.649283,0.000000,0.000000,0.000000,-63.991*30
EndT:        2
---00000048--- Acq_st=7 2019-5-22 02:13:8 
[00]  G21  f 31   1043.5 2045998.7  1.0  1.0  5  0 267205917
[01]  G04  f 42  -2581.0 2046003.3  1.0  1.0  5 3f 267205919
[02]  G07  f 46  -3601.9 2046004.7  1.0  1.0  5  0 267205917
[03]  G09  f 44  -1555.9 2046002.0  1.0  1.0  5  0 267205924
[04]  G16  f 41    855.6 2045998.9  1.0  1.0  5  0 267205929
[05]  G23  f 44    263.6 2045999.7  1.0  1.0  5  0 267205927
[06]  G26  f 42   1534.2 2045998.0  1.0  1.0  5  0 267205925
[07]  G27  f 43   -565.5 2046000.7  1.0  1.0  5  0 267205933
[16]  B07 1f 45   -463.9 4092001.2  1.0  1.0  5  0 267191878
[17]  B10 1f 44   -504.3 4092001.3  1.0  1.0  5  0 267191874
[18]  B28 1f 49    743.2 4091998.0  1.0  1.0  5  0 267191925
[19]  B05  f 33   -350.6 4092000.6  0.7  0.0  2  0 267192465
lsq: nits= 2
$GNGGA,021309.000,3112.7206,N,12136.4327,E,1,06,2.5,75.9,M,,,,0000*25
$GNRMC,021309.000,A,3112.7206,N,12136.4327,E,0.73,0.00,220519,,*1A
$GPGSA,A,3,07,09,16,23,26,27,,,,,,,3.9,2.5,3.1*34
$BDGSA,A,3,,,,,,,,,,,,,3.9,2.5,3.1*2C
$GPGSV,2,1,08,21,00,000,31,04,00,000,42,07,11,313,46,09,28,299,44*74
$GPGSV,2,2,08,16,53,021,41,23,44,257,44,26,35,056,42,27,86,191,43*75
$BDGSV,2,1,06,07,00,000,45,10,00,000,44,28,00,000,49,05,00,000,33*68
$BDGSV,2,2,06,02,34,234,00,13,05,142,00*6E
$LOGTIM,1,-554.358138,0.000000,0.000000,0.000000,-64.008*31
EndT:        2
---00000049--- Acq_st=7 2019-5-22 02:13:9 
[00]  G21  f 31   1042.7 2045998.6  1.0  0.9  5  0 267206917
[01]  G04  f 43  -2579.9 2046003.3  1.0  1.0  5 3f 267206919
[02]  G07  f 46  -3601.7 2046004.7  1.0  1.0  5  0 267206917
[03]  G09  f 44  -1555.3 2046002.0  1.0  1.0  5  0 267206924
[04]  G16  f 42    855.9 2045998.9  1.0  1.0  5  0 267206929
[05]  G23  f 45    264.2 2045999.7  1.0  1.0  5  0 267206927
[06]  G26  f 42   1534.4 2045998.0  1.0  1.0  5  0 267206925
[07]  G27  f 42   -564.9 2046000.7  1.0  1.0  5  0 267206933
[16]  B07 1f 45   -464.1 4092001.2  1.0  1.0  5  0 267192878
[17]  B10 1f 44   -504.5 4092001.3  1.0  1.0  5  0 267192874
[18]  B28 1f 48    743.7 4091998.0  1.0  1.0  5  0 267192925
[19]  B05  f 33   -350.4 4092000.9  0.8  0.0  2  0 267193465
lsq: nits= 2
$GNGGA,021310.000,3112.7213,N,12136.4320,E,1,06,2.5,80.8,M,,,,0000*25
$GNRMC,021310.000,A,3112.7213,N,12136.4320,E,0.90,0.00,220519,,*1C
$GPGSA,A,3,07,09,16,23,26,27,,,,,,,3.9,2.5,3.1*34
$BDGSA,A,3,,,,,,,,,,,,,3.9,2.5,3.1*2C
$GPGSV,2,1,08,21,00,000,31,04,00,000,43,07,11,313,46,09,28,299,44*75
$GPGSV,2,2,08,16,53,021,42,23,44,257,45,26,35,056,42,27,86,191,42*76
$BDGSV,2,1,07,07,00,000,45,10,00,000,44,28,00,000,48,05,00,000,33*68
$BDGSV,2,2,07,02,34,234,00,03,11,245,00,13,05,142,00*5F
$LOGTIM,1,-615.953767,0.000000,0.000000,0.000000,-63.762*36
EndT:        2
---00000050--- Acq_st=3 2019-5-22 02:13:10 
[00]  G21  f 31   1044.1 2045998.6  1.0  1.0  5  0 267207917
[01]  G04  f 42  -2578.8 2046003.4  1.0  1.0  5 3f 267207919
[02]  G07  f 46  -3600.7 2046004.7  1.0  1.0  5  0 267207917
[03]  G09  f 43  -1553.7 2046002.0  1.0  1.0  5  0 267207924
[04]  G16  f 42    856.8 2045998.9  1.0  1.0  5  0 267207929
[05]  G23  f 45    265.9 2045999.7  1.0  1.0  5  0 267207927
[06]  G26  f 42   1535.1 2045998.0  1.0  1.0  5  0 267207925
[07]  G27  f 42   -563.6 2046000.8  1.0  1.0  5  0 267207933
[16]  B07 1f 45   -462.8 4092001.2  1.0  1.0  5  0 267193878
[17]  B10 1f 44   -503.5 4092001.3  1.0  1.0  5  0 267193874
[18]  B28 1f 49    745.3 4091998.0  1.0  1.0  5  0 267193925
[19]  B05  f 33   -349.1 4092000.8  0.7  0.0  2  0 267194465
lsq: nits= 2
$GNGGA,021311.000,3112.7219,N,12136.4316,E,1,06,2.5,84.4,M,,,,0000*23
$GNRMC,021311.000,A,3112.7219,N,12136.4316,E,0.89,0.00,220519,,*1A
$GPGSA,A,3,07,09,16,23,26,27,,,,,,,3.9,2.5,3.1*34
$BDGSA,A,3,,,,,,,,,,,,,3.9,2.5,3.1*2C
$GPGSV,2,1,08,21,00,000,31,04,00,000,42,07,11,313,46,09,28,299,43*73
$GPGSV,2,2,08,16,53,021,42,23,44,257,45,26,35,056,42,27,86,191,42*76
$BDGSV,2,1,07,07,00,000,45,10,00,000,44,28,00,000,49,05,00,000,33*69
$BDGSV,2,2,07,02,34,234,00,03,11,245,00,13,05,142,00*5F
$LOGTIM,1,-677.622041,0.000000,0.000000,0.000000,-63.320*3A
EndT:        2
---00000051--- Acq_st=3 2019-5-22 02:13:11 
[00]  G21  f 31   1046.3 2045998.6  1.0  0.9  5  0 267208917
[01]  G04  f 43  -2575.9 2046003.3  1.0  1.0  5 3f 267208919
[02]  G07  f 45  -3598.5 2046004.7  1.0  1.0  5  0 267208917
[03]  G09  f 43  -1550.8 2046002.0  1.0  1.0  5  0 267208924
[04]  G16  f 42    859.1 2045998.9  1.0  1.0  5  0 267208929
[05]  G23  f 44    268.6 2045999.7  1.0  1.0  5  0 267208927
[06]  G26  f 42   1538.0 2045998.0  1.0  1.0  5  0 267208925
[07]  G27  f 42   -560.3 2046000.7  1.0  1.0  5  0 267208933
[16]  B07 1f 45   -460.7 4092001.2  1.0  1.0  5  0 267194878
[17]  B10 1f 44   -501.2 4092001.3  1.0  1.0  5  0 267194874
[18]  B28 1f 49    748.0 4091998.0  1.0  1.0  5  0 267194925
[19]  B05  f 31   -347.4 4092000.9  0.8  0.0  2  0 267195465
lsq: nits= 2
$GNGGA,021312.000,3112.7221,N,12136.4312,E,1,06,2.5,87.1,M,,,,0000*29
$GNRMC,021312.000,A,3112.7221,N,12136.4312,E,0.79,0.00,220519,,*19
$GPGSA,A,3,07,09,16,23,26,27,,,,,,,3.9,2.5,3.1*34
$BDGSA,A,3,,,,,,,,,,,,,3.9,2.5,3.1*2C
$GPGSV,2,1,08,21,00,000,31,04,00,000,43,07,11,313,45,09,28,299,43*71
$GPGSV,2,2,08,16,53,021,42,23,44,257,44,26,35,056,42,27,86,191,42*77
$BDGSV,2,1,07,07,00,000,45,10,00,000,44,28,00,000,49,05,00,000,31*6B
$BDGSV,2,2,07,02,34,234,00,03,11,245,00,13,05,142,00*5F
$LOGTIM,1,-739.850463,0.000000,0.000000,0.000000,-63.063*3A
EndT:        2
---00000052--- Acq_st=3 2019-5-22 02:13:12 
[00]  G21  f 31   1048.1 2045998.6  1.0  1.0  5  0 267209917
[01]  G04  f 42  -2574.9 2046003.4  1.0  1.0  5 3f 267209919
[02]  G07  f 46  -3598.0 2046004.7  1.0  1.0  5  0 267209917
[03]  G09  f 44  -1549.5 2046002.0  1.0  1.0  5  0 267209924
[04]  G16  f 43    859.7 2045998.9  1.0  1.0  5  0 267209929
[05]  G23  f 45    269.8 2045999.6  1.0  1.0  5  0 267209927
[06]  G26  f 42   1538.3 2045998.0  1.0  1.0  5  0 267209925
[07]  G27  f 42   -559.6 2046000.7  1.0  1.0  5  0 267209933
[16]  B07 1f 45   -460.2 4092001.2  1.0  1.0  5  0 267195878
[17]  B10 1f 43   -500.7 4092001.3  1.0  1.0  5  0 267195874
[18]  B28 1f 49    749.0 4091998.0  1.0  1.0  5  0 267195925
[19]  B05  f 32   -346.8 4092001.1  0.7  0.0  2  0 267196465
lsq: nits= 2
$GNGGA,021313.000,3112.7225,N,12136.4307,E,1,06,2.5,88.6,M,,,,0000*20
$GNRMC,021313.000,A,3112.7225,N,12136.4307,E,0.85,0.00,220519,,*1B
$GPGSA,A,3,07,09,16,23,26,27,,,,,,,3.9,2.5,3.1*34
