FlashID=0x1 0x20 0x18
BBram_blkflag1: 235e: dca1
FW Ver: 1.30  
GPS00 Init Dop:   5000, 40
GPS01 Init Dop:   5000, 40
GPS02 Init Dop:   5000, 40
GPS03 Init Dop:   5000, 40
GPS04 Init Dop:   5000, 40
GPS05 Init Dop:   5000, 40
GPS06 Init Dop:   5000, 40
GPS07 Init Dop:   5000, 40
GPS08 Init Dop:   5000, 40
GPS09 Init Dop:   5000, 40
GPS10 Init Dop:   5000, 40
GPS11 Init Dop:   5000, 40
GPS12 Init Dop:   5000, 40
GPS13 Init Dop:   5000, 40
GPS14 Init Dop:   5000, 40
GPS15 Init Dop:   5000, 40
GPS16 Init Dop:   5000, 40
GPS17 Init Dop:   5000, 40
GPS18 Init Dop:   5000, 40
GPS19 Init Dop:   5000, 40
GPS20 Init Dop:   5000, 40
GPS21 Init Dop:   5000, 40
GPS22 Init Dop:   5000, 40
GPS23 Init Dop:   5000, 40
GPS24 Init Dop:   5000, 40
GPS25 Init Dop:   5000, 40
GPS26 Init Dop:   5000, 40
GPS27 Init Dop:   5000, 40
GPS28 Init Dop:   5000, 40
GPS29 Init Dop:   5000, 40
GPS30 Init Dop:   5000, 40
GPS31 Init Dop:   5000, 40
BDS00 Init Dop:   5000, 40
BDS01 Init Dop:   5000, 40
BDS02 Init Dop:   5000, 40
BDS03 Init Dop:   5000, 40
BDS04 Init Dop:   5000, 40
BDS05 Init Dop:   5000, 40
BDS06 Init Dop:   5000, 40
BDS07 Init Dop:   5000, 40
BDS08 Init Dop:   5000, 40
BDS09 Init Dop:   5000, 40
BDS10 Init Dop:   5000, 40
BDS11 Init Dop:   5000, 40
BDS12 Init Dop:   5000, 40
BDS13 Init Dop:   5000, 40
BDS14 Init Dop:   5000, 40
BDS15 Init Dop:   5000, 40
BDS16 Init Dop:   5000, 40
BDS17 Init Dop:   5000, 40
BDS18 Init Dop:   5000, 40
BDS19 Init Dop:   5000, 40
BDS20 Init Dop:   5000, 40
BDS21 Init Dop:   5000, 40
BDS22 Init Dop:   5000, 40
BDS23 Init Dop:   5000, 40
BDS24 Init Dop:   5000, 40
BDS25 Init Dop:   5000, 40
BDS26 Init Dop:   5000, 40
BDS27 Init Dop:   5000, 40
BDS28 Init Dop:   5000, 40
BDS29 Init Dop:   5000, 40
BDS30 Init Dop:   5000, 40
BDS31 Init Dop:   5000, 40
good luck!
---00000001--- Acq_st=3 2019-5-22 02:17:38 
[00]  G04  1 18  -2447.0 2046004.0 -0.0  0.0  1  0         0
[01]  G07  1  7  -3678.5 2046006.1  0.0  0.0  1  0         0
$GNGGA,000000.000,,,,,0,00,,,M,,,,0000*2B
$GNRMC,000000.000,A,,,,,,,000000,,*26
$GPGSA,A,1,,,,,,,,,,,,,,,*1E
$BDGSA,A,1,,,,,,,,,,,,,,,*0F
$LOGTIM,0,0.000000,0.000000,0.000000,0.000000,0.000*0A
EndT:        0
---00000002--- Acq_st=3 2019-5-22 02:17:39 
[00]  G04  7 20  -2445.0 2046003.2  0.2  0.0 20  0        18
[01]  G07  1 26  -3612.3 2046005.5  0.1  0.0  1  0         8
[02]  G09  1 25  -1390.8 2046002.3  0.0  0.0  1  0         0
[03]  G16  1  0  10265.3 2045999.0  0.0  0.0  1  0         0
$GNGGA,000000.000,,,,,0,00,,,M,,,,0000*2B
$GNRMC,000000.000,A,,,,,,,000000,,*26
$GPGSA,A,1,,,,,,,,,,,,,,,*1E
$BDGSA,A,1,,,,,,,,,,,,,,,*0F
$GPGSV,1,1,01,04,00,000,20*4E
$LOGTIM,0,0.000000,0.000000,0.000000,0.000000,0.000*0A
EndT:        0
---00000003--- Acq_st=3 2019-5-22 02:17:40 
[00]  G04  7 39  -2443.2 2046003.2  1.0  1.0  5  0         2
[01]  G07  7 35  -3610.5 2046004.6  0.7  1.0  5  0         8
[02]  G09  7 30  -1386.3 2046001.8  0.5  1.0  5  0         1
[03]  G16  1 26    903.5 2045999.6  0.1  0.0  1  0        18
[04]  G23  1  7    486.3 2046001.6  0.0  0.0  1  0         0
$GNGGA,000000.000,,,,,0,00,,,M,,,,0000*2B
$GNRMC,000000.000,A,,,,,,,000000,,*26
$GPGSA,A,1,,,,,,,,,,,,,,,*1E
$BDGSA,A,1,,,,,,,,,,,,,,,*0F
$GPGSV,1,1,03,04,00,000,39,07,00,000,35,09,00,000,30*4F
$LOGTIM,0,0.000000,0.000000,0.000000,0.000000,0.000*0A
EndT:        0
---00000004--- Acq_st=3 2019-5-22 02:17:41 
[00]  G04  7 38  -2442.9 2046003.2  1.0  1.0  5  0         2
[01]  G07  7 47  -3610.3 2046004.7  1.0  1.0  5  0         0
[02]  G09  7 44  -1385.9 2046001.8  1.0  1.0  5  0         6
[03]  G16  7 32    904.5 2045998.7  0.8  1.0  5  0        18
[05]  G26  1 24   1551.0 2045998.4  0.0  0.0  1  0         0
[06]  G27  1 23   -383.9 2046001.0  0.1  0.0  1  0         0
$GNGGA,000000.000,,,,,0,00,,,M,,,,0000*2B
$GNRMC,000000.000,A,,,,,,,000000,,*26
$GPGSA,A,1,,,,,,,,,,,,,,,*1E
$BDGSA,A,1,,,,,,,,,,,,,,,*0F
$GPGSV,1,1,04,04,00,000,38,07,00,000,47,09,00,000,44,16,00,000,32*79
$LOGTIM,0,0.000000,0.000000,0.000000,0.000000,0.000*0A
EndT:        0
---00000005--- Acq_st=3 2019-5-22 02:17:42 
[00]  G04  7 37  -2444.1 2046003.2  1.0  1.0  5  0         2
[01]  G07  7 46  -3612.4 2046004.6  1.0  1.0  5  0         0
[02]  G09  7 45  -1387.5 2046001.8  1.0  1.0  5  0         6
[03]  G16  7 42    902.7 2045998.8  1.0  1.0  5  0        12
[05]  G26  7 27   1557.0 2045997.9  0.4  0.0 10  0         3
[06]  G27  7 26   -386.6 2046000.5  0.5  0.0 20  0         0
$GNGGA,000000.000,,,,,0,00,,,M,,,,0000*2B
$GNRMC,000000.000,A,,,,,,,000000,,*26
$GPGSA,A,1,,,,,,,,,,,,,,,*1E
$BDGSA,A,1,,,,,,,,,,,,,,,*0F
$GPGSV,2,1,06,04,00,000,37,07,00,000,46,09,00,000,45,16,00,000,42*70
$GPGSV,2,2,06,26,00,000,27,27,00,000,26*7F
$LOGTIM,0,0.000000,0.000000,0.000000,0.000000,0.000*0A
EndT:        0
---00000006--- Acq_st=3 2019-5-22 02:17:43 
[00]  G04  f 38  -2444.1 2046003.2  1.0  1.0  5  0         2
[01]  G07  f 47  -3612.5 2046004.7  1.0  1.0  5  0         0
[02]  G09  f 44  -1387.3 2046001.8  1.0  1.0  5  0         6
[03]  G16  f 43    902.6 2045998.8  1.0  1.0  5  0        12
[05]  G26  7 41   1556.9 2045997.9  1.0  1.0  5  0         7
[06]  G27  7 45   -386.1 2046000.5  1.0  1.0  5  0        15
[16]  B07  1  7    134.0 4091999.1  0.0  0.0  1  0         0
$GNGGA,000000.000,,,,,0,00,,,M,,,,0000*2B
$GNRMC,000000.000,A,,,,,,,000000,,*26
$GPGSA,A,1,,,,,,,,,,,,,,,*1E
$BDGSA,A,1,,,,,,,,,,,,,,,*0F
$GPGSV,2,1,06,04,00,000,38,07,00,000,47,09,00,000,44,16,00,000,43*7E
$GPGSV,2,2,06,26,00,000,41,27,00,000,45*7A
$LOGTIM,0,0.000000,0.000000,0.000000,0.000000,0.000*0A
EndT:        0
---00000007--- Acq_st=3 2019-5-22 02:17:44 
[00]  G04  f 37  -2443.3 2046003.2  1.0  1.0  5  0 267481602
[01]  G07  f 46  -3612.9 2046004.7  1.0  1.0  5  0 267481600
[02]  G09  f 44  -1386.4 2046001.8  1.0  1.0  5  0 267481606
[03]  G16  f 42    902.5 2045998.8  1.0  1.0  5  0 267481612
[05]  G26  7 42   1557.0 2045997.9  1.0  1.0  5  0         7
[06]  G27  7 45   -385.7 2046000.5  1.0  1.0  5  0        15
[16]  B07  1  7   -475.2 4092001.1 -0.0  0.0  1  0        78
[17]  B10  1  7   -500.4 4092003.4 -0.1  0.0  1  0         0
$GNGGA,000000.000,,,,,0,00,,,M,,,,0000*2B
$GNRMC,000000.000,A,,,,,,,000000,,*26
$GPGSA,A,1,,,,,,,,,,,,,,,*1E
$BDGSA,A,1,,,,,,,,,,,,,,,*0F
$GPGSV,2,1,06,04,00,000,37,07,00,000,46,09,00,000,44,16,00,000,42*71
$GPGSV,2,2,06,26,00,000,42,27,00,000,45*79
$LOGTIM,0,0.000000,0.000000,0.000000,0.000000,0.000*0A
EndT:        0
---00000008--- Acq_st=3 2019-5-22 02:17:45 
[00]  G04  f 36  -2444.4 2046003.2  1.0  1.0  5  0 267482602
[01]  G07  f 46  -3614.4 2046004.7  1.0  1.0  5  0 267482600
[02]  G09  f 44  -1387.4 2046001.8  1.0  1.0  5  0 267482606
[03]  G16  f 42    901.3 2045998.8  1.0  1.0  5  0 267482612
[05]  G26  7 41   1555.5 2045997.9  1.0  1.0  5  0         7
[06]  G27  7 45   -386.5 2046000.5  1.0  1.0  5  0        15
[16]  B07  7 33   -476.7 4092001.3  0.6  1.0  5  0      1078
[17]  B10  1  7   -517.6 4092001.3 -0.1  0.0  1  0       235
$GNGGA,000000.000,,,,,0,00,,,M,,,,0000*2B
$GNRMC,000000.000,A,,,,,,,000000,,*26
$GPGSA,A,1,,,,,,,,,,,,,,,*1E
$BDGSA,A,1,,,,,,,,,,,,,,,*0F
$GPGSV,2,1,06,04,00,000,36,07,00,000,46,09,00,000,44,16,00,000,42*70
$GPGSV,2,2,06,26,00,000,41,27,00,000,45*7A
$BDGSV,1,1,01,07,00,000,33*5E
$LOGTIM,0,0.000000,0.000000,0.000000,0.000000,0.000*0A
EndT:        0
---00000009--- Acq_st=3 2019-5-22 02:17:46 
[00]  G04  f 37  -2443.6 2046003.1  1.0  1.0  5  0 267483602
[01]  G07  f 47  -3613.9 2046004.7  1.0  1.0  5  0 267483600
[02]  G09  f 43  -1386.7 2046001.8  1.0  1.0  5  0 267483606
[03]  G16  f 42    902.1 2045998.8  1.0  1.0  5  0 267483612
[05]  G26  7 42   1556.2 2045998.0  1.0  1.0  5  0         7
[06]  G27  7 45   -385.2 2046000.5  1.0  1.0  5  0        15
[16]  B07  7 44   -476.5 4092001.3  1.0  1.0  5  0      2061
[17]  B10  7 38   -516.8 4092001.3  0.9  1.0  5  0      1235
$GNGGA,000000.000,,,,,0,00,,,M,,,,0000*2B
$GNRMC,000000.000,A,,,,,,,000000,,*26
$GPGSA,A,1,,,,,,,,,,,,,,,*1E
$BDGSA,A,1,,,,,,,,,,,,,,,*0F
$GPGSV,2,1,06,04,00,000,37,07,00,000,47,09,00,000,43,16,00,000,42*77
$GPGSV,2,2,06,26,00,000,42,27,00,000,45*79
$BDGSV,1,1,02,07,00,000,44,10,00,000,38*67
$LOGTIM,0,0.000000,0.000000,0.000000,0.000000,0.000*0A
EndT:        0
---00000010--- Acq_st=3 2019-5-22 02:17:47 
[00]  G04  f 38  -2439.7 2046003.2  1.0  1.0  5  0 267484602
[01]  G07  f 47  -3610.3 2046004.7  1.0  1.0  5  0 267484600
[02]  G09  f 43  -1382.4 2046001.8  1.0  1.0  5  0 267484606
[03]  G16  f 43    905.6 2045998.8  1.0  1.0  5  0 267484612
[05]  G26  7 42   1559.7 2045997.9  1.0  1.0  5  0         7
[06]  G27  7 45   -381.5 2046000.5  1.0  1.0  5  0        15
[16]  B07  7 44   -473.0 4092001.3  1.0  1.0  5  0      3061
[17]  B10  7 43   -513.4 4092001.3  1.0  1.0  5  0      2217
$GNGGA,000000.000,,,,,0,00,,,M,,,,0000*2B
$GNRMC,000000.000,A,,,,,,,000000,,*26
$GPGSA,A,1,,,,,,,,,,,,,,,*1E
$BDGSA,A,1,,,,,,,,,,,,,,,*0F
$GPGSV,2,1,06,04,00,000,38,07,00,000,47,09,00,000,43,16,00,000,43*79
$GPGSV,2,2,06,26,00,000,42,27,00,000,45*79
$BDGSV,1,1,02,07,00,000,44,10,00,000,43*6B
$LOGTIM,0,0.000000,0.000000,0.000000,0.000000,0.000*0A
EndT:        0
---00000011--- Acq_st=3 2019-5-22 02:17:48 
[00]  G04  f 38  -2440.0 2046003.2  1.0  1.0  5  0 267485602
[01]  G07  f 47  -3611.3 2046004.7  1.0  1.0  5  0 267485600
[02]  G09  f 43  -1382.6 2046001.8  1.0  1.0  5  0 267485606
[03]  G16  f 43    904.6 2045998.8  1.0  1.0  5  0 267485612
[05]  G26  7 41   1558.5 2045998.0  1.0  1.0  5  0         7
[06]  G27  7 45   -381.2 2046000.5  1.0  1.0  5  0        15
[16]  B07  7 44   -474.0 4092001.2  1.0  1.0  5  0      4061
[17]  B10  7 44   -513.9 4092001.3  1.0  1.0  5  0      3217
$GNGGA,000000.000,,,,,0,00,,,M,,,,0000*2B
$GNRMC,000000.000,A,,,,,,,000000,,*26
$GPGSA,A,1,,,,,,,,,,,,,,,*1E
$BDGSA,A,1,,,,,,,,,,,,,,,*0F
$GPGSV,2,1,06,04,00,000,38,07,00,000,47,09,00,000,43,16,00,000,43*79
$GPGSV,2,2,06,26,00,000,41,27,00,000,45*7A
$BDGSV,1,1,02,07,00,000,44,10,00,000,44*6C
$LOGTIM,0,0.000000,0.000000,0.000000,0.000000,0.000*0A
EndT:        0
---00000012--- Acq_st=3 2019-5-22 02:17:49 
[00]  G04  f 38  -2439.4 2046003.1  1.0  1.0  5  0 267486602
[01]  G07  f 47  -3611.3 2046004.7  1.0  1.0  5  0 267486600
[02]  G09  f 43  -1381.8 2046001.8  1.0  1.0  5  0 267486606
[03]  G16  f 43    905.0 2045998.8  1.0  1.0  5  0 267486612
[05]  G26  f 41   1558.9 2045998.0  1.0  1.0  5  0         7
[06]  G27  f 45   -380.8 2046000.5  1.0  1.0  5  0        15
[16]  B07  7 44   -473.6 4092001.2  1.0  1.0  5  0      5061
[17]  B10  7 44   -514.3 4092001.3  1.0  1.0  5  0      4217
[18]  B28  1  7    811.8 4091997.0  0.1  0.0  1  0         0
$GNGGA,000000.000,,,,,0,00,,,M,,,,0000*2B
$GNRMC,000000.000,A,,,,,,,000000,,*26
$GPGSA,A,1,,,,,,,,,,,,,,,*1E
$BDGSA,A,1,,,,,,,,,,,,,,,*0F
$GPGSV,2,1,06,04,00,000,38,07,00,000,47,09,00,000,43,16,00,000,43*79
$GPGSV,2,2,06,26,00,000,41,27,00,000,45*7A
$BDGSV,1,1,02,07,00,000,44,10,00,000,44*6C
$LOGTIM,0,0.000000,0.000000,0.000000,0.000000,0.000*0A
EndT:        0
---00000013--- Acq_st=7 2019-5-22 02:17:50 
[00]  G04  f 38  -2436.9 2046003.2  1.0  1.0  5  0 267487602
[01]  G07  f 47  -3610.0 2046004.7  1.0  1.0  5  0 267487600
[02]  G09  f 43  -1379.7 2046001.8  1.0  1.0  5  0 267487606
[03]  G16  f 43    906.6 2045998.8  1.0  1.0  5  0 267487612
[05]  G26  f 41   1560.5 2045998.0  1.0  1.0  5  0 267487607
[06]  G27  f 45   -378.7 2046000.5  1.0  1.0  5  0 267487615
[16]  B07  7 44   -472.5 4092001.2  1.0  1.0  5  0      6061
[17]  B10  7 44   -512.9 4092001.3  1.0  1.0  5  0      5217
[18]  B28  1  7    890.7 4091997.5  0.3  0.0  1  0       182
$GNGGA,000000.000,,,,,0,00,,,M,,,,0000*2B
$GNRMC,000000.000,A,,,,,,,000000,,*26
$GPGSA,A,1,,,,,,,,,,,,,,,*1E
$BDGSA,A,1,,,,,,,,,,,,,,,*0F
$GPGSV,2,1,06,04,00,000,38,07,00,000,47,09,00,000,43,16,00,000,43*79
$GPGSV,2,2,06,26,00,000,41,27,00,000,45*7A
$BDGSV,1,1,02,07,00,000,44,10,00,000,44*6C
$LOGTIM,0,0.000000,0.000000,0.000000,0.000000,0.000*0A
EndT:        0
---00000014--- Acq_st=3 2019-5-22 02:17:51 
[00]  G04  f 38  -2438.2 2046003.2  1.0  1.0  5  0 267488602
[01]  G07  f 47  -3611.2 2046004.7  1.0  1.0  5  0 267488600
[02]  G09  f 43  -1380.2 2046001.8  1.0  1.0  5  0 267488606
[03]  G16  f 43    905.5 2045998.8  1.0  1.0  5  0 267488612
[05]  G26  f 41   1559.4 2045998.0  1.0  1.0  5  0 267488607
[06]  G27  f 45   -379.1 2046000.5  1.0  1.0  5  0 267488615
[16]  B07 1f 44   -473.3 4092001.2  1.0  1.0  5  0      7061
[17]  B10 1f 44   -514.0 4092001.3  1.0  1.0  5  0      6217
[18]  B28  7 36    890.3 4091997.7  0.5  1.0  5  0      1182
$GNGGA,000000.000,,,,,0,00,,,M,,,,0000*2B
$GNRMC,000000.000,A,,,,,,,000000,,*26
$GPGSA,A,1,,,,,,,,,,,,,,,*1E
$BDGSA,A,1,,,,,,,,,,,,,,,*0F
$GPGSV,2,1,06,04,00,000,38,07,00,000,47,09,00,000,43,16,00,000,43*79
$GPGSV,2,2,06,26,00,000,41,27,00,000,45*7A
$BDGSV,1,1,03,07,00,000,44,10,00,000,44,28,00,000,36*52
$LOGTIM,0,0.000000,0.000000,0.000000,0.000000,0.000*0A
EndT:        1
---00000015--- Acq_st=3 2019-5-22 02:17:52 
[00]  G04  f 37  -2437.5 2046003.1  1.0  1.0  5  0 267489602
[01]  G07  f 47  -3610.7 2046004.7  1.0  1.0  5  0 267489600
[02]  G09  f 43  -1379.3 2046001.8  1.0  1.0  5  0 267489606
[03]  G16  f 43    906.1 2045998.8  1.0  1.0  5  0 267489612
[05]  G26  f 42   1560.0 2045998.0  1.0  1.0  5  0 267489607
[06]  G27  f 45   -378.3 2046000.5  1.0  1.0  5  0 267489615
[16]  B07 1f 44   -473.3 4092001.2  1.0  1.0  5  0 267475561
[17]  B10 1f 44   -513.7 4092001.3  1.0  1.0  5  0 267475557
[18]  B28  7 45    890.7 4091997.7  1.0  1.0  5  0      2167
$GNGGA,000000.000,,,,,0,00,,,M,,,,0000*2B
$GNRMC,000000.000,A,,,,,,,000000,,*26
$GPGSA,A,1,,,,,,,,,,,,,,,*1E
$BDGSA,A,1,,,,,,,,,,,,,,,*0F
$GPGSV,2,1,06,04,00,000,37,07,00,000,47,09,00,000,43,16,00,000,43*76
$GPGSV,2,2,06,26,00,000,42,27,00,000,45*79
$BDGSV,1,1,03,07,00,000,44,10,00,000,44,28,00,000,45*56
$LOGTIM,0,0.000000,0.000000,0.000000,0.000000,0.000*0A
EndT:        0
---00000016--- Acq_st=3 2019-5-22 02:17:53 
[00]  G04  f 37  -2437.8 2046003.1  1.0  0.9  5  0 267490602
[01]  G07  f 47  -3611.9 2046004.7  1.0  1.0  5  0 267490600
[02]  G09  f 43  -1380.1 2046001.8  1.0  1.0  5  0 267490606
[03]  G16  f 43    905.2 2045998.8  1.0  1.0  5  0 267490612
[04]  G23  1 24    440.7 2046000.3 -0.0  0.0  1  0        14
[05]  G26  f 42   1558.8 2045998.0  1.0  1.0  5  0 267490607
[06]  G27  f 45   -378.8 2046000.5  1.0  1.0  5  0 267490615
[16]  B07 1f 44   -474.5 4092001.3  1.0  1.0  5  0 267476561
[17]  B10 1f 44   -515.1 4092001.4  1.0  1.0  5  0 267476557
[18]  B28  7 45    890.4 4091997.7  1.0  1.0  5  0      3167
$GNGGA,000000.000,,,,,0,00,,,M,,,,0000*2B
$GNRMC,000000.000,A,,,,,,,000000,,*26
$GPGSA,A,1,,,,,,,,,,,,,,,*1E
$BDGSA,A,1,,,,,,,,,,,,,,,*0F
$GPGSV,2,1,06,04,00,000,37,07,00,000,47,09,00,000,43,16,00,000,43*76
$GPGSV,2,2,06,26,00,000,42,27,00,000,45*79
$BDGSV,1,1,03,07,00,000,44,10,00,000,44,28,00,000,45*56
$LOGTIM,0,0.000000,0.000000,0.000000,0.000000,0.000*0A
EndT:        0
---00000017--- Acq_st=3 2019-5-22 02:17:54 
[00]  G04  f 36  -2438.0 2046003.2  1.0  1.0  5  0 267491602
[01]  G07  f 47  -3612.7 2046004.7  1.0  1.0  5  0 267491600
[02]  G09  f 43  -1380.0 2046001.8  1.0  1.0  5  0 267491606
[03]  G16  f 43    904.8 2045998.9  1.0  1.0  5  0 267491612
[05]  G26  f 42   1558.2 2045998.0  1.0  1.0  5  0 267491607
[06]  G27  f 45   -378.8 2046000.5  1.0  1.0  5  0 267491615
[16]  B07 1f 44   -475.2 4092001.3  1.0  1.0  5  0 267477561
[17]  B10 1f 44   -515.3 4092001.3  1.0  1.0  5  0 267477557
[18]  B28  7 44    890.0 4091997.6  1.0  1.0  5  0      4167
$GNGGA,000000.000,,,,,0,00,,,M,,,,0000*2B
$GNRMC,000000.000,A,,,,,,,000000,,*26
$GPGSA,A,1,,,,,,,,,,,,,,,*1E
$BDGSA,A,1,,,,,,,,,,,,,,,*0F
$GPGSV,2,1,06,04,00,000,36,07,00,000,47,09,00,000,43,16,00,000,43*77
$GPGSV,2,2,06,26,00,000,42,27,00,000,45*79
$BDGSV,1,1,03,07,00,000,44,10,00,000,44,28,00,000,44*57
$LOGTIM,0,0.000000,0.000000,0.000000,0.000000,0.000*0A
EndT:        0
---00000018--- Acq_st=3 2019-5-22 02:17:55 
[00]  G04  f 37  -2438.7 2046003.2  1.0  1.0  5  0 267492602
[01]  G07  f 47  -3613.8 2046004.7  1.0  1.0  5  0 267492600
[02]  G09  f 43  -1380.7 2046001.8  1.0  1.0  5  0 267492606
[03]  G16  f 43    904.2 2045998.8  1.0  1.0  5  0 267492612
[05]  G26  f 41   1557.2 2045997.9  1.0  1.0  5  0 267492607
[06]  G27  f 45   -379.3 2046000.5  1.0  1.0  5  0 267492615
[16]  B07 1f 44   -476.6 4092001.3  1.0  1.0  5  0 267478561
[17]  B10 1f 44   -516.7 4092001.3  1.0  1.0  5  0 267478557
[18]  B28  7 44    889.5 4091997.6  1.0  1.0  5  0      5167
$GNGGA,000000.000,,,,,0,00,,,M,,,,0000*2B
$GNRMC,000000.000,A,,,,,,,000000,,*26
$GPGSA,A,1,,,,,,,,,,,,,,,*1E
$BDGSA,A,1,,,,,,,,,,,,,,,*0F
$GPGSV,2,1,06,04,00,000,37,07,00,000,47,09,00,000,43,16,00,000,43*76
$GPGSV,2,2,06,26,00,000,41,27,00,000,45*7A
$BDGSV,1,1,03,07,00,000,44,10,00,000,44,28,00,000,44*57
$LOGTIM,0,0.000000,0.000000,0.000000,0.000000,0.000*0A
EndT:        0
---00000019--- Acq_st=3 2019-5-22 02:17:56 
[00]  G04  f 36  -2438.9 2046003.2  1.0  1.0  5  0 267493602
[01]  G07  f 47  -3614.4 2046004.7  1.0  1.0  5  0 267493600
[02]  G09  f 42  -1380.2 2046001.8  1.0  1.0  5  0 267493606
[03]  G16  f 43    903.7 2045998.8  1.0  1.0  5  0 267493612
[05]  G26  f 41   1556.6 2045998.0  1.0  1.0  5  0 267493607
[06]  G27  f 46   -379.1 2046000.5  1.0  1.0  5  0 267493615
[16]  B07 1f 44   -477.1 4092001.2  1.0  1.0  5  0 267479561
[17]  B10 1f 44   -517.3 4092001.3  1.0  1.0  5  0 267479557
[18]  B28  7 44    889.4 4091997.7  1.0  1.0  5  0      6167
$GNGGA,000000.000,,,,,0,00,,,M,,,,0000*2B
$GNRMC,000000.000,A,,,,,,,000000,,*26
$GPGSA,A,1,,,,,,,,,,,,,,,*1E
$BDGSA,A,1,,,,,,,,,,,,,,,*0F
$GPGSV,2,1,06,04,00,000,36,07,00,000,47,09,00,000,42,16,00,000,43*76
$GPGSV,2,2,06,26,00,000,41,27,00,000,46*79
$BDGSV,1,1,03,07,00,000,44,10,00,000,44,28,00,000,44*57
$LOGTIM,0,0.000000,0.000000,0.000000,0.000000,0.000*0A
EndT:        0
---00000020--- Acq_st=3 2019-5-22 02:17:57 
[00]  G04  f 36  -2434.7 2046003.2  1.0  1.0  5  0 267494602
[01]  G07  f 47  -3611.4 2046004.7  1.0  1.0  5  0 267494600
[02]  G09  f 41  -1376.7 2046001.8  1.0  1.0  5  0 267494606
[03]  G16  f 43    906.9 2045998.8  1.0  1.0  5  0 267494612
[05]  G26  f 41   1559.9 2045998.0  1.0  1.0  5  0 267494607
[06]  G27  f 46   -375.3 2046000.5  1.0  1.0  5  0 267494615
[16]  B07 1f 44   -474.0 4092001.2  1.0  1.0  5  0 267480561
[17]  B10 1f 45   -514.3 4092001.4  1.0  1.0  5  0 267480557
[18]  B28 1f 44    893.1 4091997.7  1.0  1.0  5  0      7167
$GNGGA,000000.000,,,,,0,00,,,M,,,,0000*2B
$GNRMC,000000.000,A,,,,,,,000000,,*26
$GPGSA,A,1,,,,,,,,,,,,,,,*1E
$BDGSA,A,1,,,,,,,,,,,,,,,*0F
$GPGSV,2,1,06,04,00,000,36,07,00,000,47,09,00,000,41,16,00,000,43*75
$GPGSV,2,2,06,26,00,000,41,27,00,000,46*79
$BDGSV,1,1,03,07,00,000,44,10,00,000,45,28,00,000,44*56
$LOGTIM,0,0.000000,0.000000,0.000000,0.000000,0.000*0A
EndT:        0
---00000021--- Acq_st=3 2019-5-22 02:17:58 
[00]  G04  f 36  -2432.9 2046003.2  1.0  0.9  5  0 267495602
[01]  G07  f 47  -3609.1 2046004.7  1.0  1.0  5  0 267495600
[02]  G09  f 41  -1374.3 2046001.8  1.0  1.0  5  0 267495606
[03]  G16  f 43    909.2 2045998.8  1.0  1.0  5  0 267495612
[05]  G26  f 41   1562.1 2045998.0  1.0  1.0  5  0 267495607
[06]  G27  f 46   -372.5 2046000.5  1.0  1.0  5  0 267495615
[16]  B07 1f 44   -471.7 4092001.2  1.0  1.0  5  0 267481561
[17]  B10 1f 44   -512.4 4092001.3  1.0  1.0  5  0 267481557
[18]  B28 1f 44    895.5 4091997.7  1.0  1.0  5  0 267481607
[19]  B19  1  0  15701.8 4091998.0  0.0  0.0  1  0         0
$GNGGA,000000.000,,,,,0,00,,,M,,,,0000*2B
$GNRMC,000000.000,A,,,,,,,000000,,*26
$GPGSA,A,1,,,,,,,,,,,,,,,*1E
$BDGSA,A,1,,,,,,,,,,,,,,,*0F
$GPGSV,2,1,06,04,00,000,36,07,00,000,47,09,00,000,41,16,00,000,43*75
$GPGSV,2,2,06,26,00,000,41,27,00,000,46*79
$BDGSV,1,1,03,07,00,000,44,10,00,000,44,28,00,000,44*57
$LOGTIM,0,0.000000,0.000000,0.000000,0.000000,0.000*0A
EndT:        0
---00000022--- Acq_st=3 2019-5-22 02:17:59 
[00]  G04  f 36  -2432.8 2046003.2  1.0  1.0  5  0 267496602
[01]  G07  f 47  -3609.7 2046004.7  1.0  1.0  5  0 267496600
[02]  G09  f 40  -1373.9 2046001.8  1.0  1.0  5  0 267496606
[03]  G16  f 43    908.4 2045998.8  1.0  1.0  5  0 267496612
[05]  G26  f 41   1561.3 2045998.0  1.0  1.0  5  0 267496607
[06]  G27  f 46   -372.5 2046000.5  1.0  1.0  5  0 267496615
[16]  B07 1f 44   -472.4 4092001.2  1.0  1.0  5  0 267482561
[17]  B10 1f 44   -512.8 4092001.4  1.0  1.0  5  0 267482557
[18]  B28 1f 44    895.3 4091997.7  1.0  1.0  5  0 267482607
[19]  B19  1  7    952.6 4091997.5 -0.1  0.0  1  0        36
$GNGGA,000000.000,,,,,0,00,,,M,,,,0000*2B
$GNRMC,000000.000,A,,,,,,,000000,,*26
$GPGSA,A,1,,,,,,,,,,,,,,,*1E
$BDGSA,A,1,,,,,,,,,,,,,,,*0F
$GPGSV,2,1,06,04,00,000,36,07,00,000,47,09,00,000,40,16,00,000,43*74
$GPGSV,2,2,06,26,00,000,41,27,00,000,46*79
$BDGSV,1,1,03,07,00,000,44,10,00,000,44,28,00,000,44*57
$LOGTIM,0,0.000000,0.000000,0.000000,0.000000,0.000*0A
EndT:        0
---00000023--- Acq_st=3 2019-5-22 02:18:0 
[00]  G04  f 37  -2433.1 2046003.1  1.0  1.0  5 3f 267497602
[01]  G07  f 47  -3611.2 2046004.7  1.0  1.0  5  0 267497600
[02]  G09  f 41  -1374.6 2046001.8  1.0  1.0  5  0 267497606
[03]  G16  f 43    907.6 2045998.8  1.0  1.0  5  0 267497612
[05]  G26  f 41   1560.3 2045998.0  1.0  1.0  5  0 267497607
[06]  G27  f 46   -373.2 2046000.5  1.0  1.0  5  0 267497615
[16]  B07 1f 44   -473.9 4092001.3  1.0  1.0  5  0 267483561
[17]  B10 1f 45   -514.1 4092001.3  1.0  1.0  5  0 267483557
[18]  B28 1f 44    894.4 4091997.6  1.0  1.0  5  0 267483607
[19]  B19  7 30    961.1 4091997.4 -0.1  1.0  5  0      1036
$GNGGA,000000.000,,,,,0,00,,,M,,,,0000*2B
$GNRMC,000000.000,A,,,,,,,000000,,*26
$GPGSA,A,1,,,,,,,,,,,,,,,*1E
$BDGSA,A,1,,,,,,,,,,,,,,,*0F
$GPGSV,2,1,06,04,00,000,37,07,00,000,47,09,00,000,41,16,00,000,43*74
$GPGSV,2,2,06,26,00,000,41,27,00,000,46*79
$BDGSV,1,1,04,07,00,000,44,10,00,000,45,28,00,000,44,19,00,000,30*6A
$LOGTIM,0,0.000000,0.000000,0.000000,0.000000,0.000*0A
EndT:        0
---00000024--- Acq_st=3 2019-5-22 02:18:1 
[00]  G04  f 37  -2433.4 2046003.2  1.0  0.9  5 3f 267498602
[01]  G07  f 47  -3611.7 2046004.7  1.0  1.0  5  0 267498600
[02]  G09  f 40  -1374.3 2046001.8  1.0  1.0  5  0 267498606
[03]  G16  f 43    907.3 2045998.8  1.0  1.0  5  0 267498612
[05]  G26  f 41   1559.6 2045998.0  1.0  1.0  5  0 267498607
[06]  G27  f 46   -372.8 2046000.5  1.0  1.0  5  0 267498615
[16]  B07 1f 44   -474.1 4092001.3  1.0  1.0  5  0 267484561
[17]  B10 1f 45   -514.6 4092001.3  1.0  1.0  5  0 267484557
[18]  B28 1f 43    894.6 4091997.6  1.0  1.0  5  0 267484607
[19]  B19  7 34    961.0 4091997.4  1.0  0.9  5  0      2033
$GNGGA,000000.000,,,,,0,00,,,M,,,,0000*2B
$GNRMC,000000.000,A,,,,,,,000000,,*26
$GPGSA,A,1,,,,,,,,,,,,,,,*1E
$BDGSA,A,1,,,,,,,,,,,,,,,*0F
$GPGSV,2,1,06,04,00,000,37,07,00,000,47,09,00,000,40,16,00,000,43*75
$GPGSV,2,2,06,26,00,000,41,27,00,000,46*79
$BDGSV,1,1,04,07,00,000,44,10,00,000,45,28,00,000,43,19,00,000,34*69
$LOGTIM,0,0.000000,0.000000,0.000000,0.000000,0.000*0A
EndT:        0
---00000025--- Acq_st=7 2019-5-22 02:18:2 
[00]  G04  f 36  -2435.5 2046003.1  1.0  0.9  5 3f 267499602
[01]  G07  f 47  -3614.0 2046004.7  1.0  1.0  5  0 267499600
[02]  G09  f 40  -1376.7 2046001.8  1.0  1.0  5  0 267499606
[03]  G16  f 43    904.6 2045998.8  1.0  1.0  5  0 267499612
[05]  G26  f 41   1557.7 2045998.0  1.0  1.0  5  0 267499607
[06]  G27  f 46   -374.7 2046000.5  1.0  1.0  5  0 267499615
[16]  B07 1f 45   -476.5 4092001.2  1.0  1.0  5  0 267485561
[17]  B10 1f 45   -517.2 4092001.4  1.0  1.0  5  0 267485557
[18]  B28 1f 43    893.3 4091997.7  1.0  1.0  5  0 267485607
[19]  B19  7 34    959.9 4091997.4  1.0  0.9  5  0      3033
$GNGGA,000000.000,,,,,0,00,,,M,,,,0000*2B
$GNRMC,000000.000,A,,,,,,,000000,,*26
$GPGSA,A,1,,,,,,,,,,,,,,,*1E
$BDGSA,A,1,,,,,,,,,,,,,,,*0F
$GPGSV,2,1,06,04,00,000,36,07,00,000,47,09,00,000,40,16,00,000,43*74
$GPGSV,2,2,06,26,00,000,41,27,00,000,46*79
$BDGSV,1,1,04,07,00,000,45,10,00,000,45,28,00,000,43,19,00,000,34*68
$LOGTIM,0,0.000000,0.000000,0.000000,0.000000,0.000*0A
EndT:        0
---00000026--- Acq_st=3 2019-5-22 02:18:3 
[00]  G04  f 37  -2434.1 2046003.2  1.0  1.0  5 3f 267500602
[01]  G07  f 47  -3613.3 2046004.7  1.0  1.0  5  0 267500600
[02]  G09  f 41  -1374.9 2046001.7  1.0  1.0  5  0 267500606
[03]  G16  f 43    905.9 2045998.8  1.0  1.0  5  0 267500612
[05]  G26  f 41   1558.5 2045997.9  1.0  1.0  5  0 267500607
[06]  G27  f 45   -373.2 2046000.5  1.0  1.0  5  0 267500615
[16]  B07 1f 44   -475.9 4092001.2  1.0  1.0  5  0 267486561
[17]  B10 1f 45   -516.5 4092001.4  1.0  1.0  5  0 267486557
[18]  B28 1f 43    894.4 4091997.7  1.0  1.0  5  0 267486607
[19]  B19 1f 33    960.4 4091997.4  1.0  0.9  5  0      4033
$GNGGA,000000.000,,,,,0,00,,,M,,,,0000*2B
$GNRMC,000000.000,A,,,,,,,000000,,*26
$GPGSA,A,1,,,,,,,,,,,,,,,*1E
$BDGSA,A,1,,,,,,,,,,,,,,,*0F
$GPGSV,2,1,06,04,00,000,37,07,00,000,47,09,00,000,41,16,00,000,43*74
$GPGSV,2,2,06,26,00,000,41,27,00,000,45*7A
$BDGSV,1,1,04,07,00,000,44,10,00,000,45,28,00,000,43,19,00,000,33*6E
$LOGTIM,0,0.000000,0.000000,0.000000,0.000000,0.000*0A
EndT:        0
---00000027--- Acq_st=3 2019-5-22 02:18:4 
[00]  G04  f 36  -2431.2 2046003.2  1.0  1.0  5 3f 267501602
[01]  G07  f 48  -3610.9 2046004.7  1.0  1.0  5  0 267501600
[02]  G09  f 41  -1371.4 2046001.8  1.0  1.0  5  0 267501606
[03]  G16  f 42    908.7 2045998.8  1.0  1.0  5  0 267501612
[05]  G26  f 41   1561.5 2045998.0  1.0  1.0  5  0 267501607
[06]  G27  f 45   -370.2 2046000.5  1.0  1.0  5  0 267501615
[16]  B07 1f 44   -473.6 4092001.2  1.0  1.0  5  0 267487561
[17]  B10 1f 44   -514.1 4092001.3  1.0  1.0  5  0 267487557
[18]  B28 1f 43    897.3 4091997.7  1.0  1.0  5  0 267487607
[19]  B19 1f 33    963.4 4091997.4  1.0  0.9  5  0 267487593
$GNGGA,000000.000,,,,,0,00,,,M,,,,0000*2B
$GNRMC,000000.000,A,,,,,,,000000,,*26
$GPGSA,A,1,,,,,,,,,,,,,,,*1E
$BDGSA,A,1,,,,,,,,,,,,,,,*0F
$GPGSV,2,1,06,04,00,000,36,07,00,000,48,09,00,000,41,16,00,000,42*7B
$GPGSV,2,2,06,26,00,000,41,27,00,000,45*7A
$BDGSV,1,1,04,07,00,000,44,10,00,000,44,28,00,000,43,19,00,000,33*6F
$LOGTIM,0,0.000000,0.000000,0.000000,0.000000,0.000*0A
EndT:        0
---00000028--- Acq_st=3 2019-5-22 02:18:5 
[00]  G04  f 36  -2430.5 2046003.2  1.0  1.0  5 3f 267502602
[01]  G07  f 48  -3611.6 2046004.7  1.0  1.0  5  0 267502600
[02]  G09  f 41  -1371.9 2046001.8  1.0  1.0  5  0 267502606
[03]  G16  f 43    908.4 2045998.9  1.0  1.0  5  0 267502612
[04]  G23  1 26    450.4 2046000.2  0.1  0.0  1  0        14
[05]  G26  f 41   1560.6 2045998.0  1.0  1.0  5  0 267502607
[06]  G27  f 45   -370.1 2046000.5  1.0  1.0  5  0 267502615
[16]  B07 1f 44   -474.1 4092001.2  1.0  1.0  5  0 267488561
[17]  B10 1f 44   -514.4 4092001.3  1.0  1.0  5  0 267488557
[18]  B28 1f 43    897.1 4091997.7  1.0  1.0  5  0 267488607
[19]  B19 1f 32    962.3 4091997.5  1.0  1.0  5  0 267488593
$GNGGA,000000.000,,,,,0,00,,,M,,,,0000*2B
$GNRMC,000000.000,A,,,,,,,000000,,*26
$GPGSA,A,1,,,,,,,,,,,,,,,*1E
$BDGSA,A,1,,,,,,,,,,,,,,,*0F
$GPGSV,2,1,06,04,00,000,36,07,00,000,48,09,00,000,41,16,00,000,43*7A
$GPGSV,2,2,06,26,00,000,41,27,00,000,45*7A
$BDGSV,1,1,04,07,00,000,44,10,00,000,44,28,00,000,43,19,00,000,32*6E
$LOGTIM,0,0.000000,0.000000,0.000000,0.000000,0.000*0A
EndT:        0
---00000029--- Acq_st=3 2019-5-22 02:18:6 
[00]  G04  f 36  -2427.3 2046003.2  1.0  1.0  5 3f 267503602
[01]  G07  f 48  -3608.2 2046004.7  1.0  1.0  5  0 267503600
[02]  G09  f 41  -1368.0 2046001.8  1.0  1.0  5  0 267503606
[03]  G16  f 43    911.5 2045998.8  1.0  1.0  5  0 267503612
[05]  G26  f 41   1564.1 2045998.0  1.0  1.0  5  0 267503607
[06]  G27  f 45   -366.1 2046000.5  1.0  1.0  5  0 267503615
[16]  B07 1f 44   -471.1 4092001.2  1.0  1.0  5  0 267489561
[17]  B10 1f 44   -511.2 4092001.3  1.0  1.0  5  0 267489557
[18]  B28 1f 43    900.9 4091997.6  1.0  1.0  5  0 267489607
[19]  B19 1f 32    967.0 4091997.4  1.0  0.9  5  0 267489593
$GNGGA,000000.000,,,,,0,00,,,M,,,,0000*2B
$GNRMC,000000.000,A,,,,,,,000000,,*26
$GPGSA,A,1,,,,,,,,,,,,,,,*1E
$BDGSA,A,1,,,,,,,,,,,,,,,*0F
$GPGSV,2,1,06,04,00,000,36,07,00,000,48,09,00,000,41,16,00,000,43*7A
$GPGSV,2,2,06,26,00,000,41,27,00,000,45*7A
$BDGSV,1,1,04,07,00,000,44,10,00,000,44,28,00,000,43,19,00,000,32*6E
$LOGTIM,0,0.000000,0.000000,0.000000,0.000000,0.000*0A
EndT:        0
---00000030--- Acq_st=3 2019-5-22 02:18:7 
[00]  G04  f 36  -2424.9 2046003.2  1.0  1.0  5 3f 267504602
[01]  G07  f 48  -3606.0 2046004.7  1.0  1.0  5  0 267504600
[02]  G09  f 41  -1364.8 2046001.8  1.0  1.0  5  0 267504606
[03]  G16  f 42    914.1 2045998.8  1.0  1.0  5  0 267504612
[05]  G26  f 41   1566.2 2045998.0  1.0  1.0  5  0 267504607
[06]  G27  f 45   -363.4 2046000.5  1.0  1.0  5  0 267504615
[16]  B07 1f 44   -468.9 4092001.2  1.0  1.0  5  0 267490561
[17]  B10 1f 44   -509.5 4092001.3  1.0  1.0  5  0 267490557
[18]  B28 1f 43    903.5 4091997.7  1.0  1.0  5  0 267490607
[19]  B19 1f 32    969.1 4091997.4  1.0  0.9  5  0 267490593
$GNGGA,000000.000,,,,,0,00,,,M,,,,0000*2B
$GNRMC,000000.000,A,,,,,,,000000,,*26
$GPGSA,A,1,,,,,,,,,,,,,,,*1E
$BDGSA,A,1,,,,,,,,,,,,,,,*0F
$GPGSV,2,1,06,04,00,000,36,07,00,000,48,09,00,000,41,16,00,000,42*7B
$GPGSV,2,2,06,26,00,000,41,27,00,000,45*7A
$BDGSV,1,1,04,07,00,000,44,10,00,000,44,28,00,000,43,19,00,000,32*6E
$LOGTIM,0,0.000000,0.000000,0.000000,0.000000,0.000*0A
EndT:        0
---00000031--- Acq_st=3 2019-5-22 02:18:8 
[00]  G04  f 36  -2427.5 2046003.2  1.0  0.9  5 3f 267505602
[01]  G07  f 47  -3609.4 2046004.7  1.0  1.0  5  0 267505600
[02]  G09  f 41  -1367.7 2046001.8  1.0  1.0  5  0 267505606
[03]  G16  f 43    911.1 2045998.8  1.0  1.0  5  0 267505612
[05]  G26  f 41   1563.2 2045998.0  1.0  1.0  5  0 267505607
[06]  G27  f 45   -366.0 2046000.5  1.0  1.0  5  0 267505615
[16]  B07 1f 44   -472.2 4092001.2  1.0  1.0  5  0 267491561
[17]  B10 1f 44   -512.5 4092001.3  1.0  1.0  5  0 267491557
[18]  B28 1f 43    900.7 4091997.6  1.0  1.0  5  0 267491607
[19]  B19 1f 32    964.2 4091997.5  1.0  0.9  5  0 267491593
$GNGGA,000000.000,,,,,0,00,,,M,,,,0000*2B
$GNRMC,000000.000,A,,,,,,,000000,,*26
$GPGSA,A,1,,,,,,,,,,,,,,,*1E
$BDGSA,A,1,,,,,,,,,,,,,,,*0F
$GPGSV,2,1,06,04,00,000,36,07,00,000,47,09,00,000,41,16,00,000,43*75
$GPGSV,2,2,06,26,00,000,41,27,00,000,45*7A
$BDGSV,1,1,04,07,00,000,44,10,00,000,44,28,00,000,43,19,00,000,32*6E
$LOGTIM,0,0.000000,0.000000,0.000000,0.000000,0.000*0A
EndT:        0
---00000032--- Acq_st=3 2019-5-22 02:18:9 
[00]  G04  f 37  -2424.1 2046003.2  1.0  1.0  5 3f 267506602
[01]  G07  f 47  -3606.8 2046004.7  1.0  1.0  5  0 267506600
[02]  G09  f 41  -1364.5 2046001.8  1.0  1.0  5  0 267506606
[03]  G16  f 43    913.7 2045998.8  1.0  1.0  5  0 267506612
[05]  G26  f 41   1565.5 2045998.0  1.0  1.0  5  0 267506607
[06]  G27  f 46   -362.8 2046000.5  1.0  1.0  5  0 267506615
[16]  B07 1f 44   -469.6 4092001.2  1.0  1.0  5  0 267492561
[17]  B10 1f 44   -510.1 4092001.3  1.0  1.0  5  0 267492557
[18]  B28 1f 43    904.0 4091997.6  1.0  1.0  5  0 267492607
[19]  B19 1f 32    969.2 4091997.4  1.0  1.0  5  0 267492593
$GNGGA,000000.000,,,,,0,00,,,M,,,,0000*2B
$GNRMC,000000.000,A,,,,,,,000000,,*26
$GPGSA,A,1,,,,,,,,,,,,,,,*1E
$BDGSA,A,1,,,,,,,,,,,,,,,*0F
$GPGSV,2,1,06,04,00,000,37,07,00,000,47,09,00,000,41,16,00,000,43*74
$GPGSV,2,2,06,26,00,000,41,27,00,000,46*79
$BDGSV,1,1,04,07,00,000,44,10,00,000,44,28,00,000,43,19,00,000,32*6E
$LOGTIM,0,0.000000,0.000000,0.000000,0.000000,0.000*0A
EndT:        0
---00000033--- Acq_st=3 2019-5-22 02:18:10 
[00]  G04  f 37  -2422.1 2046003.2  1.0  1.0  5 3f 267507602
[01]  G07  f 47  -3605.6 2046004.7  1.0  1.0  5  0 267507600
[02]  G09  f 42  -1362.4 2046001.8  1.0  1.0  5  0 267507606
[03]  G16  f 43    915.2 2045998.8  1.0  1.0  5  0 267507612
[05]  G26  f 41   1567.3 2045998.0  1.0  1.0  5  0 267507607
[06]  G27  f 46   -360.7 2046000.5  1.0  1.0  5  0 267507615
[16]  B07 1f 44   -468.1 4092001.2  1.0  1.0  5  0 267493561
[17]  B10 1f 44   -508.7 4092001.3  1.0  1.0  5  0 267493557
[18]  B28 1f 43    905.6 4091997.6  1.0  1.0  5  0 267493607
[19]  B19 1f 32    971.2 4091997.5  1.0  1.0  5  0 267493593
$GNGGA,000000.000,,,,,0,00,,,M,,,,0000*2B
$GNRMC,000000.000,A,,,,,,,000000,,*26
$GPGSA,A,1,,,,,,,,,,,,,,,*1E
$BDGSA,A,1,,,,,,,,,,,,,,,*0F
$GPGSV,2,1,06,04,00,000,37,07,00,000,47,09,00,000,42,16,00,000,43*77
$GPGSV,2,2,06,26,00,000,41,27,00,000,46*79
$BDGSV,1,1,04,07,00,000,44,10,00,000,44,28,00,000,43,19,00,000,32*6E
$LOGTIM,0,0.000000,0.000000,0.000000,0.000000,0.000*0A
EndT:        0
---00000034--- Acq_st=3 2019-5-22 02:18:11 
[00]  G04  f 37  -2424.9 2046003.1  1.0  1.0  5 3f 267508602
[01]  G07  f 47  -3608.7 2046004.7  1.0  1.0  5  0 267508600
[02]  G09  f 43  -1365.0 2046001.8  1.0  1.0  5  0 267508606
[03]  G16  f 43    912.3 2045998.8  1.0  1.0  5  0 267508612
[05]  G26  f 41   1564.4 2045998.0  1.0  1.0  5  0 267508607
[06]  G27  f 46   -363.3 2046000.5  1.0  1.0  5  0 267508615
[16]  B07 1f 44   -471.4 4092001.2  1.0  1.0  5  0 267494561
[17]  B10 1f 44   -511.6 4092001.3  1.0  1.0  5  0 267494557
[18]  B28 1f 43    903.4 4091997.6  1.0  1.0  5  0 267494607
[19]  B19 1f 32    967.5 4091997.5  1.0  1.1  5  0 267494593
$GNGGA,000000.000,,,,,0,00,,,M,,,,0000*2B
$GNRMC,000000.000,A,,,,,,,000000,,*26
$GPGSA,A,1,,,,,,,,,,,,,,,*1E
$BDGSA,A,1,,,,,,,,,,,,,,,*0F
$GPGSV,2,1,06,04,00,000,37,07,00,000,47,09,00,000,43,16,00,000,43*76
$GPGSV,2,2,06,26,00,000,41,27,00,000,46*79
$BDGSV,1,1,04,07,00,000,44,10,00,000,44,28,00,000,43,19,00,000,32*6E
$LOGTIM,0,0.000000,0.000000,0.000000,0.000000,0.000*0A
EndT:        0
---00000035--- Acq_st=3 2019-5-22 02:18:12 
[00]  G04  f 37  -2423.2 2046003.2  1.0  0.9  5 3f 267509602
[01]  G07  f 46  -3607.1 2046004.7  1.0  1.0  5  0 267509600
[02]  G09  f 43  -1363.1 2046001.8  1.0  1.0  5  0 267509606
[03]  G16  f 43    913.9 2045998.8  1.0  1.0  5  0 267509612
[05]  G26  f 41   1565.7 2045998.0  1.0  1.0  5  0 267509607
[06]  G27  f 46   -361.1 2046000.5  1.0  1.0  5  0 267509615
[16]  B07 1f 44   -470.3 4092001.2  1.0  1.0  5  0 267495561
[17]  B10 1f 44   -510.4 4092001.3  1.0  1.0  5  0 267495557
[18]  B28 1f 43    905.3 4091997.6  1.0  1.0  5  0 267495607
[19]  B19 1f 33    969.6 4091997.4  1.0  1.0  5  0 267495593
$GNGGA,000000.000,,,,,0,00,,,M,,,,0000*2B
$GNRMC,000000.000,A,,,,,,,000000,,*26
$GPGSA,A,1,,,,,,,,,,,,,,,*1E
$BDGSA,A,1,,,,,,,,,,,,,,,*0F
$GPGSV,2,1,06,04,00,000,37,07,00,000,46,09,00,000,43,16,00,000,43*77
$GPGSV,2,2,06,26,00,000,41,27,00,000,46*79
$BDGSV,1,1,04,07,00,000,44,10,00,000,44,28,00,000,43,19,00,000,33*6F
$LOGTIM,0,0.000000,0.000000,0.000000,0.000000,0.000*0A
EndT:        0
---00000036--- Acq_st=3 2019-5-22 02:18:13 
[00]  G04  f 38  -2423.8 2046003.2  1.0  1.0  5 3f 267510602
[01]  G07  f 46  -3608.8 2046004.7  1.0  1.0  5  0 267510600
[02]  G09  f 42  -1363.5 2046001.8  1.0  1.0  5  0 267510606
[03]  G16  f 43    912.6 2045998.8  1.0  1.0  5  0 267510612
[05]  G26  f 41   1564.4 2045998.0  1.0  1.0  5  0 267510607
[06]  G27  f 46   -362.0 2046000.5  1.0  1.0  5  0 267510615
[16]  B07 1f 44   -471.7 4092001.2  1.0  1.0  5  0 267496561
[17]  B10 1f 44   -512.1 4092001.3  1.0  1.0  5  0 267496557
[18]  B28 1f 43    903.9 4091997.6  1.0  1.0  5  0 267496607
[19]  B19 1f 34    968.6 4091997.4  1.0  0.9  5  0 267496593
$GNGGA,000000.000,,,,,0,00,,,M,,,,0000*2B
$GNRMC,000000.000,A,,,,,,,000000,,*26
$GPGSA,A,1,,,,,,,,,,,,,,,*1E
$BDGSA,A,1,,,,,,,,,,,,,,,*0F
$GPGSV,2,1,06,04,00,000,38,07,00,000,46,09,00,000,42,16,00,000,43*79
$GPGSV,2,2,06,26,00,000,41,27,00,000,46*79
$BDGSV,1,1,04,07,00,000,44,10,00,000,44,28,00,000,43,19,00,000,34*68
$LOGTIM,0,0.000000,0.000000,0.000000,0.000000,0.000*0A
EndT:        0
---00000037--- Acq_st=7 2019-5-22 02:18:14 
[00]  G04  f 38  -2425.9 2046003.2  1.0  1.0  5 3f 267511602
[01]  G07  f 47  -3610.9 2046004.7  1.0  1.0  5  0 267511600
[02]  G09  f 42  -1365.7 2046001.8  1.0  1.0  5  0 267511606
[03]  G16  f 43    910.5 2045998.8  1.0  1.0  5  0 267511612
[05]  G26  f 41   1562.4 2045998.0  1.0  1.0  5  0 267511607
[06]  G27  f 46   -363.7 2046000.5  1.0  1.0  5  0 267511615
[16]  B07 1f 44   -473.9 4092001.2  1.0  1.0  5  0 267497561
[17]  B10 1f 44   -514.4 4092001.3  1.0  1.0  5  0 267497557
[18]  B28 1f 43    902.4 4091997.7  1.0  1.0  5  0 267497607
[19]  B19 1f 33    966.1 4091997.4  1.0  1.0  5  0 267497593
lsq: nits= 4
$GNGGA,021814.682,3112.7441,N,12136.4242,E,1,06,4.9,126.6,M,,,,0000*1B
$GNRMC,021814.682,A,3112.7441,N,12136.4242,E,0.21,0.00,220519,,*11
$GPGSA,A,3,07,09,16,,,,,,,,,,6.0,4.9,3.4*37
$BDGSA,A,3,07,10,28,,,,,,,,,,6.0,4.9,3.4*23
$GPGSV,2,1,06,04,00,000,38,07,00,000,47,09,00,000,42,16,00,000,43*78
$GPGSV,2,2,06,26,00,000,41,27,00,000,46*79
$BDGSV,1,1,04,07,00,000,44,10,00,000,44,28,00,000,43,19,00,000,33*6F
$LOGTIM,3,8896816.946033,8896646.878275,0.000000,0.000000,-63.238*1F
EndT:        1
---00000038--- Acq_st=3 2019-5-22 02:18:15 
[00]  G04  f 38  -2426.8 2046003.1  1.0  1.0  5 3f 267512602
[01]  G07  f 47  -3612.6 2046004.7  1.0  1.0  5  0 267512600
[02]  G09  f 42  -1366.2 2046001.8  1.0  1.0  5  0 267512606
[03]  G16  f 43    908.9 2045998.8  1.0  1.0  5  0 267512612
[05]  G26  f 41   1560.5 2045998.0  1.0  1.0  5  0 267512607
[06]  G27  f 46   -364.6 2046000.5  1.0  1.0  5  0 267512615
[16]  B07 1f 44   -475.3 4092001.2  1.0  1.0  5  0 267498561
[17]  B10 1f 44   -516.0 4092001.3  1.0  1.0  5  0 267498557
[18]  B28 1f 43    901.1 4091997.6  1.0  1.0  5  0 267498607
[19]  B19 1f 33    965.9 4091997.3  1.0  1.0  5  0 267498593
lsq: nits= 2
$GNGGA,021816.000,3112.7348,N,12136.4162,E,1,05,3.6,108.1,M,,,,0000*1A
$GNRMC,021816.000,A,3112.7348,N,12136.4162,E,0.27,0.00,220519,,*16
$GPGSA,A,3,07,09,16,,,,,,,,,,4.0,3.6,1.6*3D
$BDGSA,A,3,07,10,,,,,,,,,,,4.0,3.6,1.6*23
$GPGSV,2,1,06,04,00,000,38,07,00,000,47,09,00,000,42,16,00,000,43*78
$GPGSV,2,2,06,26,00,000,41,27,00,000,46*79
$BDGSV,1,1,04,07,00,000,44,10,00,000,44,28,00,000,43,19,00,000,33*6F
$LOGTIM,3,-95.964416,-241.886152,0.000000,0.000000,-63.441*23
EndT:        2
---00000039--- Acq_st=3 2019-5-22 02:18:16 
[00]  G04  f 38  -2428.0 2046003.2  1.0  1.0  5 3f 267513920
[01]  G07  f 47  -3614.5 2046004.7  1.0  1.0  5  0 267513917
[02]  G09  f 41  -1368.1 2046001.8  1.0  1.0  5  0 267513924
[03]  G16  f 44    907.5 2045998.8  1.0  1.0  5  0 267513929
[05]  G26  f 41   1559.3 2045998.0  1.0  1.0  5  0 267513925
[06]  G27  f 46   -365.6 2046000.5  1.0  1.0  5  0 267513933
[16]  B07 1f 44   -477.6 4092001.2  1.0  1.0  5  0 267499878
[17]  B10 1f 44   -518.1 4092001.4  1.0  1.0  5  0 267499874
[18]  B28 1f 43    899.7 4091997.6  1.0  1.0  5  0 267499925
[19]  B19 1f 32    962.7 4091997.5  1.0  0.9  5  0 267499911
lsq: nits= 2
$GNGGA,021817.000,3112.7332,N,12136.4241,E,1,05,3.6,101.4,M,,,,0000*18
$GNRMC,021817.000,A,3112.7332,N,12136.4241,E,2.77,281.77,220519,,*14
$GPGSA,A,3,07,09,16,,,,,,,,,,4.0,3.6,1.7*3C
$BDGSA,A,3,07,28,,,,,,,,,,,4.0,3.6,1.7*29
$GPGSV,2,1,06,04,00,000,38,07,13,314,47,09,29,296,41,16,52,024,44*7F
$GPGSV,2,2,06,26,00,000,41,27,00,000,46*79
$BDGSV,1,1,04,07,65,355,44,10,50,307,44,28,53,059,43,19,00,000,32*65
$LOGTIM,3,-169.605447,-317.629611,0.000000,0.000000,-65.230*12
EndT:        2
---00000040--- Acq_st=3 2019-5-22 02:18:17 
[00]  G04  f 39  -2428.5 2046003.1  1.0  1.0  5 3f 267514920
[01]  G07  f 47  -3614.9 2046004.7  1.0  1.0  5  0 267514917
[02]  G09  f 41  -1367.4 2046001.8  1.0  1.0  5  0 267514924
[03]  G16  f 43    907.1 2045998.8  1.0  1.0  5  0 267514929
[04]  G21  1 22   1195.3 2045999.6  0.0  0.0  1  0        12
[05]  G26  f 40   1558.4 2045998.0  1.0  1.0  5  0 267514925
[06]  G27  f 46   -365.4 2046000.5  1.0  1.0  5  0 267514933
[07]  G23  1 25    460.1 2045999.9  0.1  0.0  1  0         6
[16]  B07 1f 44   -477.6 4092001.3  1.0  1.0  5  0 267500878
[17]  B10 1f 44   -518.0 4092001.4  1.0  1.0  5  0 267500874
[18]  B28 1f 44    900.1 4091997.6  1.0  1.0  5  0 267500925
[19]  B19 1f 32    963.8 4091997.5  1.0  0.9  5  0 267500911
lsq: nits= 2
$GNGGA,021818.000,3112.7280,N,12136.4268,E,1,06,3.6,94.8,M,,,,0000*26
$GNRMC,021818.000,A,3112.7280,N,12136.4268,E,4.79,279.77,220519,,*17
$GPGSA,A,3,07,09,16,,,,,,,,,,3.9,3.6,1.5*30
$BDGSA,A,3,07,10,28,,,,,,,,,,3.9,3.6,1.5*24
$GPGSV,2,1,06,04,00,000,39,07,13,314,47,09,29,296,41,16,52,024,43*79
$GPGSV,2,2,06,26,00,000,40,27,00,000,46*78
$BDGSV,1,1,04,07,65,355,44,10,50,307,44,28,53,059,44,19,00,000,32*62
$LOGTIM,3,-244.144369,-392.115570,0.000000,0.000000,-66.102*17
EndT:        2
---00000041--- Acq_st=3 2019-5-22 02:18:18 
[00]  G04  f 38  -2424.0 2046003.2  1.0  1.0  5 3f 267515920
[01]  G07  f 47  -3612.2 2046004.7  1.0  1.0  5  0 267515917
[02]  G09  f 41  -1363.9 2046001.8  1.0  1.0  5  0 267515924
[03]  G16  f 44    909.9 2045998.8  1.0  1.0  5  0 267515929
[04]  G21  7 27   1187.8 2045998.3 -0.0  0.9 10  0        12
[05]  G26  f 41   1561.5 2045998.0  1.0  1.0  5  0 267515925
[06]  G27  f 46   -362.1 2046000.5  1.0  1.0  5  0 267515933
[07]  G23  7 25    454.3 2045999.3  0.3  0.0 20  0         6
[16]  B07 1f 44   -475.0 4092001.2  1.0  1.0  5  0 267501878
[17]  B10 1f 44   -515.3 4092001.4  1.0  1.0  5  0 267501874
[18]  B28 1f 44    903.3 4091997.6  1.0  1.0  5  0 267501925
[19]  B19 1f 32    966.2 4091997.5  1.0  0.9  5  0 267501911
lsq: nits= 2
$GNGGA,021819.000,3112.7306,N,12136.4296,E,1,08,1.7,85.2,M,,,,0000*2E
$GNRMC,021819.000,A,3112.7306,N,12136.4296,E,3.72,280.31,220519,,*10
$GPGSA,A,3,07,09,16,26,27,,,,,,,,1.8,1.7,0.8*3D
$BDGSA,A,3,07,10,28,,,,,,,,,,1.8,1.7,0.8*28
$GPGSV,2,1,08,04,00,000,38,07,13,314,47,09,29,296,41,16,52,024,44*71
$GPGSV,2,2,08,21,00,000,27,26,00,000,41,27,00,000,46,23,00,000,25*77
$BDGSV,1,1,04,07,65,355,44,10,50,307,44,28,53,059,44,19,00,000,32*62
$LOGTIM,3,-311.692780,-462.345713,0.000000,0.000000,-65.132*11
EndT:        3
---00000042--- Acq_st=3 2019-5-22 02:18:19 
[00]  G04  f 38  -2420.8 2046003.1  1.0  1.0  5 3f 267516920
[01]  G07  f 47  -3609.2 2046004.7  1.0  1.0  5  0 267516917
[02]  G09  f 42  -1360.4 2046001.8  1.0  1.0  5  0 267516924
[03]  G16  f 44    912.9 2045998.8  1.0  1.0  5  0 267516929
[04]  G21  f 34   1191.3 2045998.4  0.8  0.9  5  0        17
[05]  G26  f 41   1564.6 2045998.0  1.0  1.0  5  0 267516925
[06]  G27  f 45   -358.5 2046000.5  1.0  1.0  5  0 267516933
[07]  G23  7 44    458.1 2045999.4  0.7  1.0  5  0         7
[16]  B07 1f 44   -472.1 4092001.2  1.0  1.0  5  0 267502878
[17]  B10 1f 44   -512.5 4092001.3  1.0  1.0  5  0 267502874
[18]  B28 1f 44    906.7 4091997.6  1.0  1.0  5  0 267502925
[19]  B19 1f 32    970.0 4091997.4  1.0  0.9  5  0 267502911
lsq: nits= 2
$GNGGA,021820.000,3112.7284,N,12136.4304,E,1,08,1.7,77.2,M,,,,0000*28
$GNRMC,021820.000,A,3112.7284,N,12136.4304,E,3.83,280.48,220519,,*1B
$GPGSA,A,3,07,09,16,26,27,,,,,,,,1.8,1.7,0.8*3D
$BDGSA,A,3,07,10,28,,,,,,,,,,1.8,1.7,0.8*28
$GPGSV,2,1,08,04,00,000,38,07,13,314,47,09,29,296,42,16,52,024,44*72
$GPGSV,2,2,08,21,00,000,34,26,34,059,41,27,89,177,45,23,00,000,44*7A
$BDGSV,1,1,04,07,65,355,44,10,50,307,44,28,53,059,44,19,00,000,32*62
$LOGTIM,3,-382.030389,-534.025504,0.000000,0.000000,-65.103*19
EndT:        3
---00000043--- Acq_st=3 2019-5-22 02:18:20 
[00]  G04  f 38  -2423.7 2046003.2  1.0  0.9  5 3f 267517920
[01]  G07  f 47  -3612.8 2046004.7  1.0  1.0  5  0 267517917
[02]  G09  f 43  -1363.2 2046001.8  1.0  1.0  5  0 267517924
[03]  G16  f 45    909.8 2045998.8  1.0  1.0  5  0 267517929
[04]  G21  f 34   1188.6 2045998.3  1.0  1.0  5  0 267517917
[05]  G26  f 41   1561.0 2045998.0  1.0  1.0  5  0 267517925
[06]  G27  f 46   -361.1 2046000.5  1.0  1.0  5  0 267517933
[07]  G23  7 44    455.2 2045999.4  1.0  1.0  5  0         7
[16]  B07 1f 44   -475.6 4092001.2  1.0  1.0  5  0 267503878
[17]  B10 1f 44   -516.0 4092001.3  1.0  1.0  5  0 267503874
[18]  B28 1f 44    903.8 4091997.6  1.0  1.0  5  0 267503925
[19]  B19 1f 33    966.6 4091997.4  1.0  0.9  5  0 267503911
lsq: nits= 2
$GNGGA,021821.000,3112.7269,N,12136.4299,E,1,06,1.8,74.4,M,,,,0000*2B
$GNRMC,021821.000,A,3112.7269,N,12136.4299,E,2.60,280.42,220519,,*1A
$GPGSA,A,3,07,09,16,26,27,,,,,,,,2.1,1.8,1.0*31
$BDGSA,A,3,10,,,,,,,,,,,,2.1,1.8,1.0*29
$GPGSV,2,1,08,04,00,000,38,07,13,314,47,09,29,296,43,16,52,024,45*72
$GPGSV,2,2,08,21,00,000,34,26,34,059,41,27,89,177,46,23,00,000,44*79
$BDGSV,1,1,04,07,65,355,44,10,50,307,44,28,53,059,44,19,00,000,33*63
$LOGTIM,3,-448.269989,-600.948035,0.000000,0.000000,-65.178*11
EndT:        3
---00000044--- Acq_st=3 2019-5-22 02:18:21 
[00]  G04  f 38  -2427.2 2046003.1  1.0  1.0  5 3f 267518920
[01]  G07  f 47  -3616.3 2046004.7  1.0  1.0  5  0 267518917
[02]  G09  f 43  -1366.1 2046001.7  1.0  1.0  5  0 267518924
[03]  G16  f 45    906.6 2045998.8  1.0  1.0  5  0 267518929
[04]  G21  f 34   1185.5 2045998.4  1.0  1.0  5  0 267518917
[05]  G26  f 41   1557.7 2045998.0  1.0  1.0  5  0 267518925
[06]  G27  f 46   -364.2 2046000.5  1.0  1.0  5  0 267518933
[07]  G23  7 44    452.2 2045999.4  1.0  1.0  5  0         7
[16]  B07 1f 44   -479.1 4092001.3  1.0  1.0  5  0 267504878
[17]  B10 1f 44   -519.3 4092001.4  1.0  1.0  5  0 267504874
[18]  B28 1f 44    900.9 4091997.6  1.0  1.0  5  0 267504925
[19]  B19 1f 33    963.3 4091997.4  1.0  1.0  5  0 267504911
lsq: nits= 2
$GNGGA,021822.000,3112.7238,N,12136.4312,E,1,08,1.7,67.4,M,,,,0000*2D
$GNRMC,021822.000,A,3112.7238,N,12136.4312,E,2.52,279.98,220519,,*1F
$GPGSA,A,3,07,09,16,26,27,,,,,,,,1.8,1.7,0.8*3D
$BDGSA,A,3,07,10,28,,,,,,,,,,1.8,1.7,0.8*28
$GPGSV,2,1,08,04,00,000,38,07,13,314,47,09,29,296,43,16,52,024,45*72
$GPGSV,2,2,08,21,00,000,34,26,34,059,41,27,89,177,46,23,00,000,44*79
$BDGSV,2,1,05,07,65,355,44,10,50,307,44,28,53,059,44,19,00,000,33*61
$BDGSV,2,2,05,13,04,188,00*5A
$LOGTIM,3,-518.984520,-672.471073,0.000000,0.000000,-65.563*1C
EndT:        3
---00000045--- Acq_st=3 2019-5-22 02:18:22 
[00]  G04  f 37  -2426.5 2046003.2  1.0  1.0  5 3f 267519920
[01]  G07  f 47  -3616.4 2046004.7  1.0  1.0  5  0 267519917
[02]  G09  f 43  -1365.5 2046001.8  1.0  1.0  5  0 267519924
[03]  G16  f 45    906.7 2045998.8  1.0  1.0  5  0 267519929
[04]  G21  f 34   1184.6 2045998.4  1.0  1.0  5  0 267519917
[05]  G26  f 41   1558.0 2045998.0  1.0  1.0  5  0 267519925
[06]  G27  f 46   -363.4 2046000.5  1.0  1.0  5  0 267519933
[07]  G23  7 44    453.1 2045999.4  1.0  1.0  5  0         7
[16]  B07 1f 44   -479.3 4092001.2  1.0  1.0  5  0 267505878
[17]  B10 1f 44   -519.8 4092001.4  1.0  1.0  5  0 267505874
[18]  B28 1f 44    901.2 4091997.6  1.0  1.0  5  0 267505925
[19]  B19 1f 34    963.3 4091997.4  1.0  1.0  5  0 267505911
lsq: nits= 2
$GNGGA,021823.000,3112.7218,N,12136.4316,E,1,07,1.7,64.7,M,,,,0000*25
$GNRMC,021823.000,A,3112.7218,N,12136.4316,E,2.55,281.03,220519,,*1A
$GPGSA,A,3,07,09,16,26,27,,,,,,,,1.9,1.7,0.9*3D
$BDGSA,A,3,10,28,,,,,,,,,,,1.9,1.7,0.9*2F
$GPGSV,2,1,08,04,00,000,37,07,13,314,47,09,29,296,43,16,52,024,45*7D
$GPGSV,2,2,08,21,00,000,34,26,34,059,41,27,89,177,46,23,00,000,44*79
$BDGSV,2,1,05,07,65,355,44,10,50,307,44,28,53,059,44,19,00,000,34*66
$BDGSV,2,2,05,13,04,188,00*5A
$LOGTIM,3,-586.700820,-741.172569,0.000000,0.000000,-65.467*18
EndT:        3
---00000046--- Acq_st=3 2019-5-22 02:18:23 
[00]  G04  f 38  -2425.3 2046003.1  1.0  1.0  5 3f 267520920
[01]  G07  f 47  -3615.9 2046004.7  1.0  1.0  5  0 267520917
[02]  G09  f 43  -1364.3 2046001.8  1.0  1.0  5  0 267520924
[03]  G16  f 45    907.3 2045998.8  1.0  1.0  5  0 267520929
[04]  G21  f 34   1185.9 2045998.5  1.0  1.0  5  0 267520917
[05]  G26  f 41   1558.2 2045998.0  1.0  1.0  5  0 267520925
[06]  G27  f 45   -362.4 2046000.5  1.0  1.0  5  0 267520933
[07]  G23  7 43    453.5 2045999.4  1.0  1.0  5  0         7
[16]  B07 1f 44   -478.8 4092001.2  1.0  1.0  5  0 267506878
[17]  B10 1f 44   -519.3 4092001.4  1.0  1.0  5  0 267506874
[18]  B28 1f 45    902.3 4091997.6  1.0  1.0  5  0 267506925
[19]  B19 1f 34    964.8 4091997.4  1.0  0.9  5  0 267506911
lsq: nits= 2
$GNGGA,021824.000,3112.7185,N,12136.4325,E,1,07,1.7,59.2,M,,,,0000*2E
$GNRMC,021824.000,A,3112.7185,N,12136.4325,E,3.01,281.27,220519,,*1C
$GPGSA,A,3,07,09,16,26,27,,,,,,,,1.9,1.7,0.9*3D
$BDGSA,A,3,07,28,,,,,,,,,,,1.9,1.7,0.9*29
$GPGSV,2,1,08,04,00,000,38,07,13,314,47,09,29,296,43,16,52,024,45*72
$GPGSV,2,2,08,21,00,000,34,26,34,059,41,27,89,177,45,23,00,000,43*7D
$BDGSV,2,1,05,07,65,355,44,10,50,307,44,28,53,059,45,19,00,000,34*67
$BDGSV,2,2,05,13,04,188,00*5A
$LOGTIM,3,-655.774163,-810.314367,0.000000,0.000000,-65.360*19
EndT:        3
---00000047--- Acq_st=3 2019-5-22 02:18:24 
[00]  G04  f 38  -2420.7 2046003.2  1.0  1.0  5 3f 267521920
[01]  G07  f 47  -3611.4 2046004.7  1.0  1.0  5  0 267521917
[02]  G09  f 43  -1359.5 2046001.7  1.0  0.9  5  0 267521924
[03]  G16  f 45    911.9 2045998.8  1.0  1.0  5  0 267521929
[04]  G21  f 33   1190.6 2045998.4  1.0  1.0  5  0 267521917
[05]  G26  f 41   1563.1 2045998.0  1.0  1.0  5  0 267521925
[06]  G27  f 46   -357.0 2046000.5  1.0  1.0  5  0 267521933
[07]  G23  7 44    459.4 2045999.4  1.0  1.0  5  0         7
[16]  B07 1f 44   -474.3 4092001.2  1.0  1.0  5  0 267507878
[17]  B10 1f 44   -514.9 4092001.3  1.0  1.0  5  0 267507874
[18]  B28 1f 44    907.3 4091997.6  1.0  1.0  5  0 267507925
[19]  B19 1f 35    969.6 4091997.4  1.0  0.9  5  0 267507911
lsq: nits= 2
$GNGGA,021825.000,3112.7162,N,12136.4325,E,1,08,1.7,56.4,M,,,,0000*20
$GNRMC,021825.000,A,3112.7162,N,12136.4325,E,3.28,280.10,220519,,*1A
$GPGSA,A,3,07,09,16,26,27,,,,,,,,1.8,1.7,0.8*3D
$BDGSA,A,3,07,10,28,,,,,,,,,,1.8,1.7,0.8*28
$GPGSV,2,1,08,04,00,000,38,07,13,314,47,09,29,296,43,16,52,024,45*72
$GPGSV,2,2,08,21,00,000,33,26,34,059,41,27,89,177,46,23,00,000,44*7E
$BDGSV,2,1,05,07,65,355,44,10,50,307,44,28,53,059,44,19,00,000,35*67
$BDGSV,2,2,05,13,04,188,00*5A
$LOGTIM,3,-722.891866,-877.822563,0.000000,0.000000,-65.045*19
EndT:        2
---00000048--- Acq_st=3 2019-5-22 02:18:25 
[00]  G04  f 37  -2423.4 2046003.2  1.0  1.0  5 3f 267522920
[01]  G07  f 47  -3614.7 2046004.7  1.0  1.0  5  0 267522917
[02]  G09  f 44  -1361.9 2046001.8  1.0  1.0  5  0 267522924
[03]  G16  f 46    908.7 2045998.8  1.0  1.0  5  0 267522929
[04]  G21  f 33   1188.5 2045998.4  1.0  1.0  5  0 267522917
[05]  G26  f 42   1559.5 2045998.0  1.0  1.0  5  0 267522925
[06]  G27  f 45   -359.9 2046000.5  1.0  1.0  5  0 267522933
[07]  G23  f 43    456.7 2045999.4  1.0  1.0  5  0         7
[16]  B07 1f 44   -477.9 4092001.2  1.0  1.0  5  0 267508878
[17]  B10 1f 44   -518.1 4092001.4  1.0  1.0  5  0 267508874
[18]  B28 1f 44    904.5 4091997.6  1.0  1.0  5  0 267508925
[19]  B19 1f 34    966.9 4091997.5  1.0  0.9  5  0 267508911
lsq: nits= 2
$GNGGA,021826.000,3112.7145,N,12136.4327,E,1,07,1.7,54.7,M,,,,0000*2A
$GNRMC,021826.000,A,3112.7145,N,12136.4327,E,2.16,281.11,220519,,*12
$GPGSA,A,3,07,09,16,26,27,,,,,,,,1.9,1.7,0.8*3C
$BDGSA,A,3,07,10,,,,,,,,,,,1.9,1.7,0.8*23
$GPGSV,2,1,08,04,00,000,37,07,13,314,47,09,29,296,44,16,52,024,46*79
$GPGSV,2,2,08,21,00,000,33,26,34,059,42,27,89,177,45,23,00,000,43*79
$BDGSV,2,1,05,07,65,355,44,10,50,307,44,28,53,059,44,19,00,000,34*66
$BDGSV,2,2,05,13,04,188,00*5A
$LOGTIM,3,-789.038413,-944.071407,0.000000,0.000000,-65.223*13
EndT:        2
---00000049--- Acq_st=7 2019-5-22 02:18:26 
[00]  G04  f 36  -2427.4 2046003.1  1.0  1.0  5 3f 267523920
[01]  G07  f 47  -3618.7 2046004.7  1.0  1.0  5  0 267523917
[02]  G09  f 44  -1365.4 2046001.7  1.0  1.0  5  0 267523924
[03]  G16  f 45    905.1 2045998.8  1.0  1.0  5  0 267523929
[04]  G21  f 33   1185.1 2045998.4  1.0  0.9  5  0 267523917
[05]  G26  f 42   1555.9 2045998.0  1.0  1.0  5  0 267523925
[06]  G27  f 46   -363.1 2046000.5  1.0  1.0  5  0 267523933
[07]  G23  f 43    453.4 2045999.4  1.0  1.0  5  0 267523927
[16]  B07 1f 44   -481.2 4092001.2  1.0  1.0  5  0 267509878
[17]  B10 1f 44   -522.1 4092001.4  1.0  1.0  5  0 267509874
[18]  B28 1f 45    901.0 4091997.6  1.0  1.0  5  0 267509925
[19]  B19 1f 35    963.1 4091997.5  1.0  1.0  5  0 267509911
lsq: nits= 2
$GNGGA,021827.000,3112.7127,N,12136.4331,E,1,08,1.7,53.4,M,,,,0000*23
$GNRMC,021827.000,A,3112.7127,N,12136.4331,E,1.78,281.11,220519,,*1B
$GPGSA,A,3,07,09,16,26,27,,,,,,,,1.8,1.7,0.8*3D
$BDGSA,A,3,07,10,28,,,,,,,,,,1.8,1.7,0.8*28
$GPGSV,2,1,08,04,00,000,36,07,13,314,47,09,29,296,44,16,52,024,45*7B
$GPGSV,2,2,08,21,00,000,33,26,34,059,42,27,89,177,46,23,00,000,43*7A
$BDGSV,2,1,05,07,65,355,44,10,50,307,44,28,53,059,45,19,00,000,34*67
$BDGSV,2,2,05,13,04,188,00*5A
$LOGTIM,3,-855.539955,-1010.925222,0.000000,0.000000,-65.319*2E
EndT:        2
---00000050--- Acq_st=3 2019-5-22 02:18:27 
[00]  G04  f 38  -2423.9 2046003.1  1.0  1.0  5 3f 267524920
[01]  G07  f 47  -3616.1 2046004.7  1.0  1.0  5  0 267524917
[02]  G09  f 44  -1362.0 2046001.8  1.0  1.0  5  0 267524924
[03]  G16  f 46    907.9 2045998.8  1.0  1.0  5  0 267524929
[04]  G21  f 34   1188.6 2045998.5  1.0  0.9  5  0 267524917
[05]  G26  f 41   1558.6 2045998.0  1.0  1.0  5  0 267524925
[06]  G27  f 45   -359.9 2046000.5  1.0  1.0  5  0 267524933
[07]  G23  f 43    456.4 2045999.4  1.0  1.0  5  0 267524927
[16]  B07 1f 44   -479.0 4092001.2  1.0  1.0  5  0 267510878
[17]  B10 1f 44   -519.6 4092001.3  1.0  1.0  5  0 267510874
[18]  B28 1f 44    904.2 4091997.6  1.0  1.0  5  0 267510925
[19]  B19 1f 35    965.2 4091997.4  1.0  1.0  5  0 267510911
lsq: nits= 2
$GNGGA,021828.000,3112.7114,N,12136.4333,E,1,08,1.7,52.6,M,,,,0000*2D
$GNRMC,021828.000,A,3112.7114,N,12136.4333,E,1.89,281.11,220519,,*18
$GPGSA,A,3,07,09,16,26,27,,,,,,,,1.8,1.7,0.8*3D
$BDGSA,A,3,07,10,28,,,,,,,,,,1.8,1.7,0.8*28
$GPGSV,2,1,08,04,00,000,38,07,13,314,47,09,29,296,44,16,52,024,46*76
$GPGSV,2,2,08,21,00,000,34,26,34,059,41,27,89,177,45,23,00,000,43*7D
$BDGSV,2,1,05,07,65,355,44,10,50,307,44,28,53,059,44,19,00,000,35*67
$BDGSV,2,2,05,13,04,188,00*5A
$LOGTIM,3,-921.144921,-1076.737064,0.000000,0.000000,-64.960*29
EndT:        2
---00000051--- Acq_st=3 2019-5-22 02:18:28 
[00]  G04  f 37  -2423.2 2046003.2  1.0  0.9  5 3f 267525920
[01]  G07  f 47  -3616.4 2046004.7  1.0  1.0  5  0 267525917
[02]  G09  f 44  -1362.0 2046001.8  1.0  1.0  5  0 267525924
[03]  G16  f 45    907.7 2045998.8  1.0  1.0  5  0 267525929
[04]  G21  f 33   1188.6 2045998.5  1.0  1.0  5  0 267525917
[05]  G26  f 41   1558.1 2045998.0  1.0  1.0  5  0 267525925
[06]  G27  f 45   -359.5 2046000.5  1.0  1.0  5  0 267525933
[07]  G23  f 43    456.9 2045999.4  1.0  1.0  5  0 267525927
[16]  B07 1f 44   -478.8 4092001.3  1.0  1.0  5  0 267511878
[17]  B10 1f 44   -519.2 4092001.3  1.0  1.0  5  0 267511874
[18]  B28 1f 45    904.7 4091997.6  1.0  1.0  5  0 267511925
[19]  B19 1f 35    965.4 4091997.5  1.0  1.0  5  0 267511911
lsq: nits= 2
$GNGGA,021829.000,3112.7097,N,12136.4341,E,1,07,1.7,50.7,M,,,,0000*2F
$GNRMC,021829.000,A,3112.7097,N,12136.4341,E,1.85,281.11,220519,,*1A
$GPGSA,A,3,07,09,16,26,27,,,,,,,,1.9,1.7,0.9*3D
$BDGSA,A,3,07,28,,,,,,,,,,,1.9,1.7,0.9*29
$GPGSV,2,1,08,04,00,000,37,07,13,314,47,09,29,296,44,16,52,024,45*7A
$GPGSV,2,2,08,21,00,000,33,26,34,059,41,27,89,177,45,23,00,000,43*7A
$BDGSV,2,1,05,07,65,355,44,10,50,307,44,28,53,059,45,19,00,000,35*66
$BDGSV,2,2,05,13,04,188,00*5A
$LOGTIM,3,-987.217494,-1142.750913,0.000000,0.000000,-64.939*21
EndT:        2
---00000052--- Acq_st=3 2019-5-22 02:18:29 
[00]  G04  f 36  -2423.2 2046003.2  1.0  1.0  5 3f 267526920
[01]  G07  f 46  -3616.5 2046004.7  1.0  1.0  5  0 267526917
[02]  G09  f 44  -1360.7 2046001.8  1.0  1.0  5  0 267526924
[03]  G16  f 46    908.2 2045998.8  1.0  1.0  5  0 267526929
[04]  G21  f 33   1188.3 2045998.5  1.0  1.0  5  0 267526917
[05]  G26  f 41   1558.6 2045998.0  1.0  1.0  5  0 267526925
[06]  G27  f 46   -358.5 2046000.5  1.0  1.0  5  0 267526933
[07]  G23  f 43    457.3 2045999.4  1.0  1.0  5  0 267526927
[16]  B07 1f 44   -479.1 4092001.2  1.0  1.0  5  0 267512878
[17]  B10 1f 44   -520.1 4092001.3  1.0  1.0  5  0 267512874
[18]  B28 1f 45    904.9 4091997.6  1.0  1.0  5  0 267512925
[19]  B19 1f 36    966.7 4091997.4  1.0  1.0  5  0 267512911
lsq: nits= 2
$GNGGA,021830.000,3112.7088,N,12136.4339,E,1,08,1.7,51.0,M,,,,0000*2F
$GNRMC,021830.000,A,3112.7088,N,12136.4339,E,1.74,281.11,220519,,*1D
$GPGSA,A,3,07,09,16,26,27,,,,,,,,1.8,1.7,0.8*3D
$BDGSA,A,3,07,10,28,,,,,,,,,,1.8,1.7,0.8*28
$GPGSV,2,1,08,04,00,000,36,07,13,314,46,09,29,296,44,16,52,024,46*79
$GPGSV,2,2,08,21,00,000,33,26,34,059,41,27,89,177,46,23,00,000,43*79
$BDGSV,2,1,05,07,65,355,44,10,50,307,44,28,53,059,45,19,00,000,36*65
$BDGSV,2,2,05,13,04,188,00*5A
$LOGTIM,3,-1052.048803,-1207.740250,0.000000,0.000000,-64.752*17
EndT:        2
---00000053--- Acq_st=3 2019-5-22 02:18:30 
[00]  G04  f 37  -2421.3 2046003.2  1.0  1.0  5 3f 267527920
[01]  G07  f 47  -3614.8 2046004.7  1.0  1.0  5  0 267527917
[02]  G09  f 45  -1358.9 2046001.8  1.0  1.0  5  0 267527924
[03]  G16  f 46    909.6 2045998.8  1.0  1.0  5  0 267527929
[04]  G21  f 33   1191.0 2045998.5  1.0  1.0  5  0 267527917
[05]  G26  f 42   1560.2 2045998.0  1.0  1.0  5  0 267527925
[06]  G27  f 46   -356.5 2046000.5  1.0  1.0  5  0 267527933
[07]  G23  f 43    459.4 2045999.4  1.0  1.0  5  0 267527927
[16]  B07 1f 44   -477.6 4092001.3  1.0  1.0  5  0 267513878
[17]  B10 1f 44   -517.8 4092001.3  1.0  1.0  5  0 267513874
[18]  B28 1f 45    907.3 4091997.6  1.0  1.0  5  0 267513925
[19]  B19 1f 36    967.9 4091997.4  1.0  1.0  5  0 267513911
lsq: nits= 2
$GNGGA,021831.000,3112.7078,N,12136.4340,E,1,07,1.7,50.9,M,,,,0000*28
$GNRMC,021831.000,A,3112.7078,N,12136.4340,E,1.64,281.11,220519,,*1C
$GPGSA,A,3,07,09,16,26,27,,,,,,,,1.9,1.7,0.8*3C
$BDGSA,A,3,07,10,,,,,,,,,,,1.9,1.7,0.8*23
$GPGSV,2,1,08,04,00,000,37,07,13,314,47,09,29,296,45,16,52,024,46*78
$GPGSV,2,2,08,21,00,000,33,26,34,059,42,27,89,177,46,23,00,000,43*7A
$BDGSV,2,1,05,07,65,355,44,10,50,307,44,28,53,059,45,19,00,000,36*65
$BDGSV,2,2,05,13,04,188,00*5A
$LOGTIM,3,-1116.800621,-1272.640770,0.000000,0.000000,-64.522*1D
EndT:        2
---00000054--- Acq_st=3 2019-5-22 02:18:31 
[00]  G04  f 36  -2420.4 2046003.2  1.0  1.0  5 3f 267528920
[01]  G07  f 47  -3615.2 2046004.7  1.0  1.0  5  0 267528917
[02]  G09  f 45  -1358.6 2046001.8  1.0  1.0  5  0 267528924
[03]  G16  f 46    909.6 2045998.8  1.0  1.0  5  0 267528929
[04]  G21  f 33   1191.6 2045998.5  1.0  1.0  5  0 267528917
[05]  G26  f 42   1559.9 2045998.0  1.0  1.0  5  0 267528925
[06]  G27  f 46   -356.3 2046000.4  1.0  1.0  5  0 267528933
[07]  G23  f 43    460.0 2045999.4  1.0  1.0  5  0 267528927
[16]  B07 1f 44   -477.7 4092001.2  1.0  1.0  5  0 267514878
[17]  B10 1f 44   -518.4 4092001.4  1.0  1.0  5  0 267514874
[18]  B28 1f 45    907.1 4091997.6  1.0  1.0  5  0 267514925
[19]  B19 1f 36    967.7 4091997.4  1.0  1.0  5  0 267514911
lsq: nits= 2
$GNGGA,021832.000,3112.7072,N,12136.4339,E,1,08,1.7,50.7,M,,,,0000*2E
$GNRMC,021832.000,A,3112.7072,N,12136.4339,E,1.39,281.11,220519,,*13
$GPGSA,A,3,07,09,16,26,27,,,,,,,,1.8,1.7,0.8*3D
$BDGSA,A,3,07,10,28,,,,,,,,,,1.8,1.7,0.8*28
