FlashID=0x1 0x20 0x18
BBram_blkflag1: 456a: ba95
FW Ver: 1.30  
GPS00 Init Dop:   5000, 40
GPS01 Init Dop:   5000, 40
GPS02 Init Dop:   5000, 40
GPS03 Init Dop:   5000, 40
GPS04 Init Dop:   5000, 40
GPS05 Init Dop:   5000, 40
GPS06 Init Dop:   5000, 40
GPS07 Init Dop:   5000, 40
GPS08 Init Dop:   5000, 40
GPS09 Init Dop:   5000, 40
GPS10 Init Dop:   5000, 40
GPS11 Init Dop:   5000, 40
GPS12 Init Dop:   5000, 40
GPS13 Init Dop:   5000, 40
GPS14 Init Dop:   5000, 40
GPS15 Init Dop:   5000, 40
GPS16 Init Dop:   5000, 40
GPS17 Init Dop:   5000, 40
GPS18 Init Dop:   5000, 40
GPS19 Init Dop:   5000, 40
GPS20 Init Dop:   5000, 40
GPS21 Init Dop:   5000, 40
GPS22 Init Dop:   5000, 40
GPS23 Init Dop:   5000, 40
GPS24 Init Dop:   5000, 40
GPS25 Init Dop:   5000, 40
GPS26 Init Dop:   5000, 40
GPS27 Init Dop:   5000, 40
GPS28 Init Dop:   5000, 40
GPS29 Init Dop:   5000, 40
GPS30 Init Dop:   5000, 40
GPS31 Init Dop:   5000, 40
BDS00 Init Dop:   5000, 40
BDS01 Init Dop:   5000, 40
BDS02 Init Dop:   5000, 40
BDS03 Init Dop:   5000, 40
BDS04 Init Dop:   5000, 40
BDS05 Init Dop:   5000, 40
BDS06 Init Dop:   5000, 40
BDS07 Init Dop:   5000, 40
BDS08 Init Dop:   5000, 40
BDS09 Init Dop:   5000, 40
BDS10 Init Dop:   5000, 40
BDS11 Init Dop:   5000, 40
BDS12 Init Dop:   5000, 40
BDS13 Init Dop:   5000, 40
BDS14 Init Dop:   5000, 40
BDS15 Init Dop:   5000, 40
BDS16 Init Dop:   5000, 40
BDS17 Init Dop:   5000, 40
BDS18 Init Dop:   5000, 40
BDS19 Init Dop:   5000, 40
BDS20 Init Dop:   5000, 40
BDS21 Init Dop:   5000, 40
BDS22 Init Dop:   5000, 40
BDS23 Init Dop:   5000, 40
BDS24 Init Dop:   5000, 40
BDS25 Init Dop:   5000, 40
BDS26 Init Dop:   5000, 40
BDS27 Init Dop:   5000, 40
BDS28 Init Dop:   5000, 40
BDS29 Init Dop:   5000, 40
BDS30 Init Dop:   5000, 40
BDS31 Init Dop:   5000, 40
---00000001--- Acq_st=3 2019-5-25 07:22:55 
$GNGGA,000000.000,,,,,0,00,,,M,,,,0000*2B
$GNRMC,000000.000,A,,,,,,,000000,,*26
$GPGSA,A,1,,,,,,,,,,,,,,,*1E
$BDGSA,A,1,,,,,,,,,,,,,,,*0F
$LOGTIM,0,0.000000,0.000000,0.000000,0.000000,0.000*0A
EndT:        0
ch0 satid=0,max_freq = -2500,max_mean = 20652,max_phase = 1687,max_value = 180343,acq ok1!
acq ok1 timeH = 0,timeL = 12652062,freq_stage = 4
---00000002--- Acq_st=3 2019-5-25 07:22:56 
[00]  G01  1 20   2375.5 2045997.4  0.1  0.0  1  0         0
$GNGGA,000000.000,,,,,0,00,,,M,,,,0000*2B
$GNRMC,000000.000,A,,,,,,,000000,,*26
$GPGSA,A,1,,,,,,,,,,,,,,,*1E
$BDGSA,A,1,,,,,,,,,,,,,,,*0F
$LOGTIM,0,0.000000,0.000000,0.000000,0.000000,0.000*0A
EndT:        0
---00000003--- Acq_st=3 2019-5-25 07:22:57 
[00]  G01  7 29   2365.3 2045996.8 -0.2  1.0  5  0         4
$GNGGA,000000.000,,,,,0,00,,,M,,,,0000*2B
$GNRMC,000000.000,A,,,,,,,000000,,*26
$GPGSA,A,1,,,,,,,,,,,,,,,*1E
$BDGSA,A,1,,,,,,,,,,,,,,,*0F
$GPGSV,1,1,01,01,00,000,29*42
$LOGTIM,0,0.000000,0.000000,0.000000,0.000000,0.000*0A
EndT:        0
---00000004--- Acq_st=3 2019-5-25 07:22:58 
[00]  G01  7 37   2367.1 2045996.9  0.9  1.0  5  0         5
$GNGGA,000000.000,,,,,0,00,,,M,,,,0000*2B
$GNRMC,000000.000,A,,,,,,,000000,,*26
$GPGSA,A,1,,,,,,,,,,,,,,,*1E
$BDGSA,A,1,,,,,,,,,,,,,,,*0F
$GPGSV,1,1,01,01,00,000,37*4D
$LOGTIM,0,0.000000,0.000000,0.000000,0.000000,0.000*0A
EndT:        0
---00000005--- Acq_st=3 2019-5-25 07:22:59 
[00]  G01  7 37   2368.2 2045996.9  1.0  1.0  5  0         5
$GNGGA,000000.000,,,,,0,00,,,M,,,,0000*2B
$GNRMC,000000.000,A,,,,,,,000000,,*26
$GPGSA,A,1,,,,,,,,,,,,,,,*1E
$BDGSA,A,1,,,,,,,,,,,,,,,*0F
$GPGSV,1,1,01,01,00,000,37*4D
$LOGTIM,0,0.000000,0.000000,0.000000,0.000000,0.000*0A
EndT:        0
---00000006--- Acq_st=3 2019-5-25 07:23:0 
[00]  G01  7 37   2368.3 2045996.9  1.0  1.0  5  0         5
$GNGGA,000000.000,,,,,0,00,,,M,,,,0000*2B
$GNRMC,000000.000,A,,,,,,,000000,,*26
$GPGSA,A,1,,,,,,,,,,,,,,,*1E
$BDGSA,A,1,,,,,,,,,,,,,,,*0F
$GPGSV,1,1,01,01,00,000,37*4D
$LOGTIM,0,0.000000,0.000000,0.000000,0.000000,0.000*0A
EndT:        0
---00000007--- Acq_st=3 2019-5-25 07:23:1 
[00]  G01  f 37   2362.2 2045996.9  1.0  1.0  5  0         5
$GNGGA,000000.000,,,,,0,00,,,M,,,,0000*2B
$GNRMC,000000.000,A,,,,,,,000000,,*26
$GPGSA,A,1,,,,,,,,,,,,,,,*1E
$BDGSA,A,1,,,,,,,,,,,,,,,*0F
$GPGSV,1,1,01,01,00,000,37*4D
$LOGTIM,0,0.000000,0.000000,0.000000,0.000000,0.000*0A
EndT:        0
---00000008--- Acq_st=3 2019-5-25 07:23:2 
[00]  G01  f 37   2357.3 2045996.9  1.0  0.9  5  0 544999925
$GNGGA,000000.000,,,,,0,00,,,M,,,,0000*2B
$GNRMC,000000.000,A,,,,,,,000000,,*26
$GPGSA,A,1,,,,,,,,,,,,,,,*1E
$BDGSA,A,1,,,,,,,,,,,,,,,*0F
$GPGSV,1,1,01,01,00,000,37*4D
$LOGTIM,0,0.000000,0.000000,0.000000,0.000000,0.000*0A
EndT:        0
---00000009--- Acq_st=3 2019-5-25 07:23:3 
[00]  G01  f 36   2358.2 2045996.9  1.0  1.0  5  0 545000925
$GNGGA,000000.000,,,,,0,00,,,M,,,,0000*2B
$GNRMC,000000.000,A,,,,,,,000000,,*26
$GPGSA,A,1,,,,,,,,,,,,,,,*1E
$BDGSA,A,1,,,,,,,,,,,,,,,*0F
$GPGSV,1,1,01,01,00,000,36*4C
$LOGTIM,0,0.000000,0.000000,0.000000,0.000000,0.000*0A
EndT:        0
---00000010--- Acq_st=3 2019-5-25 07:23:4 
[00]  G01  f 36   2364.2 2045996.9  1.0  1.0  5  0 545001925
$GNGGA,000000.000,,,,,0,00,,,M,,,,0000*2B
$GNRMC,000000.000,A,,,,,,,000000,,*26
$GPGSA,A,1,,,,,,,,,,,,,,,*1E
$BDGSA,A,1,,,,,,,,,,,,,,,*0F
$GPGSV,1,1,01,01,00,000,36*4C
$LOGTIM,0,0.000000,0.000000,0.000000,0.000000,0.000*0A
EndT:        0
---00000011--- Acq_st=3 2019-5-25 07:23:5 
[00]  G01  f 36   2365.3 2045996.9  1.0  1.0  5  0 545002925
$GNGGA,000000.000,,,,,0,00,,,M,,,,0000*2B
$GNRMC,000000.000,A,,,,,,,000000,,*26
$GPGSA,A,1,,,,,,,,,,,,,,,*1E
$BDGSA,A,1,,,,,,,,,,,,,,,*0F
$GPGSV,1,1,01,01,00,000,36*4C
$LOGTIM,0,0.000000,0.000000,0.000000,0.000000,0.000*0A
EndT:        0
ch1 satid=10,max_freq = -2500,max_mean = 21054,max_phase = 758,max_value = 142221,acq ok1!
acq ok1 timeH = 0,timeL = 221437302,freq_stage = 4
---00000012--- Acq_st=3 2019-5-25 07:23:6 
[00]  G01  f 36   2362.6 2045996.9  1.0  1.0  5  0 545003925
[01]  G11  1  0  11956.2 2045997.0  0.0  0.0  1  0         0
$GNGGA,000000.000,,,,,0,00,,,M,,,,0000*2B
$GNRMC,000000.000,A,,,,,,,000000,,*26
$GPGSA,A,1,,,,,,,,,,,,,,,*1E
$BDGSA,A,1,,,,,,,,,,,,,,,*0F
$GPGSV,1,1,01,01,00,000,36*4C
$LOGTIM,0,0.000000,0.000000,0.000000,0.000000,0.000*0A
EndT:        0
---00000013--- Acq_st=3 2019-5-25 07:23:7 
[00]  G01  f 36   2364.0 2045996.9  1.0  1.0  5  0 545004925
[01]  G11  1  7   2145.8 2045998.4 -0.0  0.0  1  0        10
$GNGGA,000000.000,,,,,0,00,,,M,,,,0000*2B
$GNRMC,000000.000,A,,,,,,,000000,,*26
$GPGSA,A,1,,,,,,,,,,,,,,,*1E
$BDGSA,A,1,,,,,,,,,,,,,,,*0F
$GPGSV,1,1,01,01,00,000,36*4C
$LOGTIM,0,0.000000,0.000000,0.000000,0.000000,0.000*0A
EndT:        0
---00000014--- Acq_st=3 2019-5-25 07:23:8 
[00]  G01  f 36   2368.4 2045996.9  1.0  1.0  5  0 545005925
[01]  G11  7 31   2101.2 2045997.2  0.5  1.0  5  0        10
$GNGGA,000000.000,,,,,0,00,,,M,,,,0000*2B
$GNRMC,000000.000,A,,,,,,,000000,,*26
$GPGSA,A,1,,,,,,,,,,,,,,,*1E
$BDGSA,A,1,,,,,,,,,,,,,,,*0F
$GPGSV,1,1,02,01,00,000,36,11,00,000,31*7D
$LOGTIM,0,0.000000,0.000000,0.000000,0.000000,0.000*0A
EndT:        0
---00000015--- Acq_st=3 2019-5-25 07:23:9 
[00]  G01  f 35   2368.4 2045997.0  1.0  0.9  5  0 545006925
[01]  G11  7 39   2100.4 2045997.3  1.0  1.0  5  0         3
$GNGGA,000000.000,,,,,0,00,,,M,,,,0000*2B
$GNRMC,000000.000,A,,,,,,,000000,,*26
$GPGSA,A,1,,,,,,,,,,,,,,,*1E
$BDGSA,A,1,,,,,,,,,,,,,,,*0F
$GPGSV,1,1,02,01,00,000,35,11,00,000,39*76
$LOGTIM,0,0.000000,0.000000,0.000000,0.000000,0.000*0A
EndT:        0
---00000016--- Acq_st=3 2019-5-25 07:23:10 
[00]  G01  f 35   2369.1 2045996.9  1.0  0.9  5  0 545007925
[01]  G11  7 39   2101.5 2045997.2  1.0  1.0  5  0         3
$GNGGA,000000.000,,,,,0,00,,,M,,,,0000*2B
$GNRMC,000000.000,A,,,,,,,000000,,*26
$GPGSA,A,1,,,,,,,,,,,,,,,*1E
$BDGSA,A,1,,,,,,,,,,,,,,,*0F
$GPGSV,1,1,02,01,00,000,35,11,00,000,39*76
$LOGTIM,0,0.000000,0.000000,0.000000,0.000000,0.000*0A
EndT:        0
---00000017--- Acq_st=3 2019-5-25 07:23:11 
[00]  G01  f 35   2368.6 2045996.9  1.0  1.0  5  0 545008925
[01]  G11  7 39   2099.9 2045997.3  1.0  1.0  5  0         3
$GNGGA,000000.000,,,,,0,00,,,M,,,,0000*2B
$GNRMC,000000.000,A,,,,,,,000000,,*26
$GPGSA,A,1,,,,,,,,,,,,,,,*1E
$BDGSA,A,1,,,,,,,,,,,,,,,*0F
$GPGSV,1,1,02,01,00,000,35,11,00,000,39*76
$LOGTIM,0,0.000000,0.000000,0.000000,0.000000,0.000*0A
EndT:        0
---00000018--- Acq_st=3 2019-5-25 07:23:12 
[00]  G01  f 35   2367.2 2045997.0  1.0  0.9  5  0 545009925
[01]  G11  7 40   2099.3 2045997.3  1.0  1.0  5  0         3
$GNGGA,000000.000,,,,,0,00,,,M,,,,0000*2B
$GNRMC,000000.000,A,,,,,,,000000,,*26
$GPGSA,A,1,,,,,,,,,,,,,,,*1E
$BDGSA,A,1,,,,,,,,,,,,,,,*0F
$GPGSV,1,1,02,01,00,000,35,11,00,000,40*78
$LOGTIM,0,0.000000,0.000000,0.000000,0.000000,0.000*0A
EndT:        0
---00000019--- Acq_st=3 2019-5-25 07:23:13 
[00]  G01  f 35   2367.3 2045996.9  1.0  1.0  5  0 545010925
[01]  G11  f 39   2099.7 2045997.3  1.0  1.0  5  0         3
$GNGGA,000000.000,,,,,0,00,,,M,,,,0000*2B
$GNRMC,000000.000,A,,,,,,,000000,,*26
$GPGSA,A,1,,,,,,,,,,,,,,,*1E
$BDGSA,A,1,,,,,,,,,,,,,,,*0F
$GPGSV,1,1,02,01,00,000,35,11,00,000,39*76
$LOGTIM,0,0.000000,0.000000,0.000000,0.000000,0.000*0A
EndT:        0
ch2 satid=17,max_freq = -4250,max_mean = 21371,max_phase = 1097,max_value = 239003,acq ok1!
acq ok1 timeH = 0,timeL = 371758848,freq_stage = 5
---00000020--- Acq_st=3 2019-5-25 07:23:14 
[00]  G01  f 35   2369.0 2045996.9  1.0  1.0  5  0 545011925
[01]  G11  f 39   2101.2 2045997.3  1.0  1.0  5  0 545011923
[02]  G18  1  7   4229.0 2045995.3  0.0  0.0  1  0         0
$GNGGA,000000.000,,,,,0,00,,,M,,,,0000*2B
$GNRMC,000000.000,A,,,,,,,000000,,*26
$GPGSA,A,1,,,,,,,,,,,,,,,*1E
$BDGSA,A,1,,,,,,,,,,,,,,,*0F
$GPGSV,1,1,02,01,00,000,35,11,00,000,39*76
$LOGTIM,0,0.000000,0.000000,0.000000,0.000000,0.000*0A
EndT:        0
ch3 satid=18,max_freq = 1750,max_mean = 21725,max_phase = 229,max_value = 103640,acq ok1!
acq ok1 timeH = 0,timeL = 380121765,freq_stage = 2
---00000021--- Acq_st=3 2019-5-25 07:23:15 
[00]  G01  f 35   2370.2 2045997.0  1.0  1.0  5  0 545012925
[01]  G11  f 39   2102.2 2045997.3  1.0  1.0  5  0 545012923
[02]  G18  1 15   4174.9 2045995.3  0.2  0.0  1  0        18
[03]  G19  1  7  -1774.1 2046001.6  0.0  0.0  1  0         0
$GNGGA,000000.000,,,,,0,00,,,M,,,,0000*2B
$GNRMC,000000.000,A,,,,,,,000000,,*26
$GPGSA,A,1,,,,,,,,,,,,,,,*1E
$BDGSA,A,1,,,,,,,,,,,,,,,*0F
$GPGSV,1,1,02,01,00,000,35,11,00,000,39*76
$LOGTIM,0,0.000000,0.000000,0.000000,0.000000,0.000*0A
EndT:        0
---00000022--- Acq_st=3 2019-5-25 07:23:16 
[00]  G01  f 36   2367.6 2045996.9  1.0  1.0  5  0 545013925
[01]  G11  f 38   2099.7 2045997.3  1.0  1.0  5  0 545013923
[02]  G18  1 17   4318.8 2045995.3  0.1  0.0  1  0        18
[03]  G19  1 12  -1985.8 2046001.9  0.1  0.0  1  0        11
$GNGGA,000000.000,,,,,0,00,,,M,,,,0000*2B
$GNRMC,000000.000,A,,,,,,,000000,,*26
$GPGSA,A,1,,,,,,,,,,,,,,,*1E
$BDGSA,A,1,,,,,,,,,,,,,,,*0F
$GPGSV,1,1,02,01,00,000,36,11,00,000,38*74
$LOGTIM,0,0.000000,0.000000,0.000000,0.000000,0.000*0A
EndT:        0
---00000023--- Acq_st=3 2019-5-25 07:23:17 
[00]  G01  f 37   2366.4 2045996.9  1.0  1.0  5  0 545014925
[01]  G11  f 39   2098.3 2045997.2  1.0  1.0  5  0 545014923
[03]  G19  1 12  -1816.8 2046002.1 -0.3  0.0  1  0        11
$GNGGA,000000.000,,,,,0,00,,,M,,,,0000*2B
$GNRMC,000000.000,A,,,,,,,000000,,*26
$GPGSA,A,1,,,,,,,,,,,,,,,*1E
$BDGSA,A,1,,,,,,,,,,,,,,,*0F
$GPGSV,1,1,02,01,00,000,37,11,00,000,39*74
$LOGTIM,0,0.000000,0.000000,0.000000,0.000000,0.000*0A
EndT:        0
ch4 satid=21,max_freq = -750,max_mean = 21221,max_phase = 1514,max_value = 598862,acq ok1!
acq ok1 timeH = 0,timeL = 446929206,freq_stage = 3
---00000024--- Acq_st=3 2019-5-25 07:23:18 
[00]  G01  f 36   2366.7 2045997.0  1.0  1.0  5  0 545015925
[01]  G11  f 40   2098.3 2045997.3  1.0  1.0  5  0 545015923
[03]  G19  1  7  -1907.9 2046002.0 -0.1  0.0  1  0        11
[04]  G22  1  7   4478.3 2046000.0  0.0  0.0  1  0         0
$GNGGA,000000.000,,,,,0,00,,,M,,,,0000*2B
$GNRMC,000000.000,A,,,,,,,000000,,*26
$GPGSA,A,1,,,,,,,,,,,,,,,*1E
$BDGSA,A,1,,,,,,,,,,,,,,,*0F
$GPGSV,1,1,02,01,00,000,36,11,00,000,40*7B
$LOGTIM,0,0.000000,0.000000,0.000000,0.000000,0.000*0A
EndT:        0
---00000025--- Acq_st=3 2019-5-25 07:23:19 
[00]  G01  f 37   2366.1 2045996.9  1.0  1.0  5  0 545016925
[01]  G11  f 39   2098.5 2045997.3  1.0  1.0  5  0 545016923
[04]  G22  1 29    682.7 2045998.9 -0.1  0.0  1  0         9
$GNGGA,000000.000,,,,,0,00,,,M,,,,0000*2B
$GNRMC,000000.000,A,,,,,,,000000,,*26
$GPGSA,A,1,,,,,,,,,,,,,,,*1E
$BDGSA,A,1,,,,,,,,,,,,,,,*0F
$GPGSV,1,1,02,01,00,000,37,11,00,000,39*74
$LOGTIM,0,0.000000,0.000000,0.000000,0.000000,0.000*0A
EndT:        0
---00000026--- Acq_st=3 2019-5-25 07:23:20 
[00]  G01  f 37   2365.9 2045997.0  1.0  1.0  5  0 545017925
[01]  G11  f 39   2098.2 2045997.2  1.0  1.0  5  0 545017923
[04]  G22  7 33    683.8 2045999.1  0.7  1.0  5  0         9
$GNGGA,000000.000,,,,,0,00,,,M,,,,0000*2B
$GNRMC,000000.000,A,,,,,,,000000,,*26
$GPGSA,A,1,,,,,,,,,,,,,,,*1E
$BDGSA,A,1,,,,,,,,,,,,,,,*0F
$GPGSV,1,1,03,01,00,000,37,11,00,000,39,22,00,000,33*45
$LOGTIM,0,0.000000,0.000000,0.000000,0.000000,0.000*0A
EndT:        0
---00000027--- Acq_st=3 2019-5-25 07:23:21 
[00]  G01  f 37   2367.1 2045996.9  1.0  1.0  5  0 545018925
[01]  G11  f 39   2099.2 2045997.3  1.0  1.0  5  0 545018923
[04]  G22  7 43    685.1 2045999.1  1.0  1.0  5  0         4
$GNGGA,000000.000,,,,,0,00,,,M,,,,0000*2B
$GNRMC,000000.000,A,,,,,,,000000,,*26
$GPGSA,A,1,,,,,,,,,,,,,,,*1E
$BDGSA,A,1,,,,,,,,,,,,,,,*0F
$GPGSV,1,1,03,01,00,000,37,11,00,000,39,22,00,000,43*42
$LOGTIM,0,0.000000,0.000000,0.000000,0.000000,0.000*0A
EndT:        0
---00000028--- Acq_st=3 2019-5-25 07:23:22 
[00]  G01  f 37   2363.5 2045996.9  1.0  1.0  5  0 545019925
[01]  G11  f 39   2095.2 2045997.3  1.0  1.0  5  0 545019923
[04]  G22  7 42    682.5 2045999.1  1.0  1.0  5  0         4
$GNGGA,000000.000,,,,,0,00,,,M,,,,0000*2B
$GNRMC,000000.000,A,,,,,,,000000,,*26
$GPGSA,A,1,,,,,,,,,,,,,,,*1E
$BDGSA,A,1,,,,,,,,,,,,,,,*0F
$GPGSV,1,1,03,01,00,000,37,11,00,000,39,22,00,000,42*43
$LOGTIM,0,0.000000,0.000000,0.000000,0.000000,0.000*0A
EndT:        0
---00000029--- Acq_st=3 2019-5-25 07:23:23 
[00]  G01  f 38   2364.5 2045996.9  1.0  1.0  5  0 545020925
[01]  G11  f 39   2095.4 2045997.3  1.0  1.0  5  0 545020923
[04]  G22  7 42    683.4 2045999.1  1.0  1.0  5  0         4
$GNGGA,000000.000,,,,,0,00,,,M,,,,0000*2B
$GNRMC,000000.000,A,,,,,,,000000,,*26
$GPGSA,A,1,,,,,,,,,,,,,,,*1E
$BDGSA,A,1,,,,,,,,,,,,,,,*0F
$GPGSV,1,1,03,01,00,000,38,11,00,000,39,22,00,000,42*4C
$LOGTIM,0,0.000000,0.000000,0.000000,0.000000,0.000*0A
EndT:        0
---00000030--- Acq_st=3 2019-5-25 07:23:24 
[00]  G01  f 38   2367.2 2045996.9  1.0  1.0  5  0 545021925
[01]  G11  f 39   2098.8 2045997.3  1.0  1.0  5  0 545021923
[04]  G22  7 42    686.4 2045999.1  1.0  1.0  5  0         4
$GNGGA,000000.000,,,,,0,00,,,M,,,,0000*2B
$GNRMC,000000.000,A,,,,,,,000000,,*26
$GPGSA,A,1,,,,,,,,,,,,,,,*1E
$BDGSA,A,1,,,,,,,,,,,,,,,*0F
$GPGSV,1,1,03,01,00,000,38,11,00,000,39,22,00,000,42*4C
$LOGTIM,0,0.000000,0.000000,0.000000,0.000000,0.000*0A
EndT:        0
ch2 satid=27,max_freq = 1500,max_mean = 21493,max_phase = 1702,max_value = 97531,acq ok1!
acq ok1 timeH = 0,timeL = 568028474,freq_stage = 2
---00000031--- Acq_st=3 2019-5-25 07:23:25 
[00]  G01  f 38   2365.3 2045996.9  1.0  1.0  5  0 545022925
[01]  G11  f 39   2096.3 2045997.3  1.0  1.0  5  0 545022923
[02]  G28  1  7  -1463.3 2046002.5 -0.1  0.0  1  0        18
[04]  G22  f 42    684.5 2045999.1  1.0  1.0  5  0         4
$GNGGA,000000.000,,,,,0,00,,,M,,,,0000*2B
$GNRMC,000000.000,A,,,,,,,000000,,*26
$GPGSA,A,1,,,,,,,,,,,,,,,*1E
$BDGSA,A,1,,,,,,,,,,,,,,,*0F
$GPGSV,1,1,03,01,00,000,38,11,00,000,39,22,00,000,42*4C
$LOGTIM,0,0.000000,0.000000,0.000000,0.000000,0.000*0A
EndT:        0
---00000032--- Acq_st=3 2019-5-25 07:23:26 
[00]  G01  f 38   2361.9 2045997.0  1.0  1.0  5  0 545023925
[01]  G11  f 38   2094.2 2045997.3  1.0  1.0  5  0 545023923
[02]  G28  7 13  -1391.8 2046002.0 -0.1  0.0 20  0         4
[04]  G22  f 42    682.5 2045999.1  1.0  1.0  5  0 545023924
$GNGGA,000000.000,,,,,0,00,,,M,,,,0000*2B
$GNRMC,000000.000,A,,,,,,,000000,,*26
$GPGSA,A,1,,,,,,,,,,,,,,,*1E
$BDGSA,A,1,,,,,,,,,,,,,,,*0F
$GPGSV,1,1,04,01,00,000,38,11,00,000,38,28,00,000,13,22,00,000,42*72
$LOGTIM,0,0.000000,0.000000,0.000000,0.000000,0.000*0A
EndT:        0
---00000033--- Acq_st=3 2019-5-25 07:23:27 
[00]  G01  f 38   2365.5 2045996.9  1.0  1.0  5  0 545024925
[01]  G11  f 39   2096.7 2045997.3  1.0  1.0  5  0 545024923
[02]  G28  7 25  -1392.6 2046001.8 -0.1 -0.1 20  0         9
[04]  G22  f 42    686.2 2045999.1  1.0  1.0  5  0 545024924
$GNGGA,000000.000,,,,,0,00,,,M,,,,0000*2B
$GNRMC,000000.000,A,,,,,,,000000,,*26
$GPGSA,A,1,,,,,,,,,,,,,,,*1E
$BDGSA,A,1,,,,,,,,,,,,,,,*0F
$GPGSV,1,1,04,01,00,000,38,11,00,000,39,28,00,000,25,22,00,000,42*76
$LOGTIM,0,0.000000,0.000000,0.000000,0.000000,0.000*0A
EndT:        0
---00000034--- Acq_st=3 2019-5-25 07:23:28 
[00]  G01  f 38   2369.2 2045996.9  1.0  1.0  5  0 545025925
[01]  G11  f 38   2100.6 2045997.3  1.0  1.0  5  0 545025923
[02]  G28  7 24  -1388.4 2046002.0 -0.2 -0.1 20  0         9
[04]  G22  f 42    690.1 2045999.1  1.0  1.0  5  0 545025924
$GNGGA,000000.000,,,,,0,00,,,M,,,,0000*2B
$GNRMC,000000.000,A,,,,,,,000000,,*26
$GPGSA,A,1,,,,,,,,,,,,,,,*1E
$BDGSA,A,1,,,,,,,,,,,,,,,*0F
$GPGSV,1,1,04,01,00,000,38,11,00,000,38,28,00,000,24,22,00,000,42*76
$LOGTIM,0,0.000000,0.000000,0.000000,0.000000,0.000*0A
EndT:        0
---00000035--- Acq_st=3 2019-5-25 07:23:29 
[00]  G01  f 39   2371.3 2045996.9  1.0  1.0  5  0 545026925
[01]  G11  f 38   2102.1 2045997.3  1.0  0.9  5  0 545026923
[02]  G28  7 24  -1385.2 2046001.8 -0.0 -0.1 20  0         9
[04]  G22  f 42    692.1 2045999.1  1.0  1.0  5  0 545026924
$GNGGA,000000.000,,,,,0,00,,,M,,,,0000*2B
$GNRMC,000000.000,A,,,,,,,000000,,*26
$GPGSA,A,1,,,,,,,,,,,,,,,*1E
$BDGSA,A,1,,,,,,,,,,,,,,,*0F
$GPGSV,1,1,04,01,00,000,39,11,00,000,38,28,00,000,24,22,00,000,42*77
$LOGTIM,0,0.000000,0.000000,0.000000,0.000000,0.000*0A
EndT:        0
---00000036--- Acq_st=3 2019-5-25 07:23:30 
[00]  G01  f 39   2372.0 2045996.9  1.0  1.0  5  0 545027925
[01]  G11  f 38   2103.4 2045997.3  1.0  1.0  5  0 545027923
[02]  G28  7 25  -1384.3 2046001.8  0.7  0.0 20  0         9
[04]  G22  f 42    693.9 2045999.1  1.0  1.0  5  0 545027924
$GNGGA,000000.000,,,,,0,00,,,M,,,,0000*2B
$GNRMC,000000.000,A,,,,,,,000000,,*26
$GPGSA,A,1,,,,,,,,,,,,,,,*1E
$BDGSA,A,1,,,,,,,,,,,,,,,*0F
$GPGSV,1,1,04,01,00,000,39,11,00,000,38,28,00,000,25,22,00,000,42*76
$LOGTIM,0,0.000000,0.000000,0.000000,0.000000,0.000*0A
EndT:        0
---00000037--- Acq_st=3 2019-5-25 07:23:31 
[00]  G01  f 38   2372.5 2045996.9  1.0  1.0  5  0 545028925
[01]  G11  f 38   2103.3 2045997.3  1.0  1.0  5  0 545028923
[02]  G28  7 25  -1383.9 2046001.9  0.9  0.0 20  0         9
[04]  G22  f 42    693.8 2045999.1  1.0  1.0  5  0 545028924
$GNGGA,000000.000,,,,,0,00,,,M,,,,0000*2B
$GNRMC,000000.000,A,,,,,,,000000,,*26
$GPGSA,A,1,,,,,,,,,,,,,,,*1E
$BDGSA,A,1,,,,,,,,,,,,,,,*0F
$GPGSV,1,1,04,01,00,000,38,11,00,000,38,28,00,000,25,22,00,000,42*77
$LOGTIM,0,0.000000,0.000000,0.000000,0.000000,0.000*0A
EndT:        0
---00000038--- Acq_st=3 2019-5-25 07:23:32 
[00]  G01  f 39   2372.9 2045996.9  1.0  0.9  5  0 545029925
[01]  G11  f 38   2103.7 2045997.3  1.0  1.0  5  0 545029923
[02]  G28  7 24  -1383.4 2046001.8  0.9  0.0 20  0         9
[04]  G22  f 42    695.0 2045999.1  1.0  1.0  5  0 545029924
$GNGGA,000000.000,,,,,0,00,,,M,,,,0000*2B
$GNRMC,000000.000,A,,,,,,,000000,,*26
$GPGSA,A,1,,,,,,,,,,,,,,,*1E
$BDGSA,A,1,,,,,,,,,,,,,,,*0F
$GPGSV,1,1,04,01,00,000,39,11,00,000,38,28,00,000,24,22,00,000,42*77
$LOGTIM,0,0.000000,0.000000,0.000000,0.000000,0.000*0A
EndT:        0
---00000039--- Acq_st=3 2019-5-25 07:23:33 
[00]  G01  f 38   2371.0 2045997.0  1.0  1.0  5  0 545030925
[01]  G11  f 38   2101.9 2045997.2  1.0  1.0  5  0 545030923
[02]  G28  7 24  -1384.6 2046002.0  0.8 -0.1 20  0         9
[04]  G22  f 42    693.7 2045999.1  1.0  1.0  5  0 545030924
$GNGGA,000000.000,,,,,0,00,,,M,,,,0000*2B
$GNRMC,000000.000,A,,,,,,,000000,,*26
$GPGSA,A,1,,,,,,,,,,,,,,,*1E
$BDGSA,A,1,,,,,,,,,,,,,,,*0F
$GPGSV,1,1,04,01,00,000,38,11,00,000,38,28,00,000,24,22,00,000,42*76
$LOGTIM,0,0.000000,0.000000,0.000000,0.000000,0.000*0A
EndT:        0
---00000040--- Acq_st=3 2019-5-25 07:23:34 
[00]  G01  f 38   2367.1 2045997.0  1.0  1.0  5  0 545031925
[01]  G11  f 38   2097.5 2045997.3  1.0  1.0  5  0 545031923
[02]  G28  7 25  -1385.3 2046001.9  0.1  0.0 20  0         9
[04]  G22  f 42    689.6 2045999.1  1.0  1.0  5  0 545031924
$GNGGA,000000.000,,,,,0,00,,,M,,,,0000*2B
$GNRMC,000000.000,A,,,,,,,000000,,*26
$GPGSA,A,1,,,,,,,,,,,,,,,*1E
$BDGSA,A,1,,,,,,,,,,,,,,,*0F
$GPGSV,1,1,04,01,00,000,38,11,00,000,38,28,00,000,25,22,00,000,42*77
$LOGTIM,0,0.000000,0.000000,0.000000,0.000000,0.000*0A
EndT:        0
---00000041--- Acq_st=3 2019-5-25 07:23:35 
[00]  G01  f 38   2364.6 2045996.9  1.0  1.0  5  0 545032925
[01]  G11  f 39   2095.5 2045997.3  1.0  1.0  5  0 545032923
[02]  G28  7 24  -1391.0 2046001.8 -0.0  0.1 20  0         9
[04]  G22  f 42    688.2 2045999.1  1.0  1.0  5  0 545032924
$GNGGA,000000.000,,,,,0,00,,,M,,,,0000*2B
$GNRMC,000000.000,A,,,,,,,000000,,*26
$GPGSA,A,1,,,,,,,,,,,,,,,*1E
$BDGSA,A,1,,,,,,,,,,,,,,,*0F
$GPGSV,1,1,04,01,00,000,38,11,00,000,39,28,00,000,24,22,00,000,42*77
$LOGTIM,0,0.000000,0.000000,0.000000,0.000000,0.000*0A
EndT:        0
---00000042--- Acq_st=3 2019-5-25 07:23:36 
[00]  G01  f 38   2365.4 2045996.9  1.0  1.0  5  0 545033925
[01]  G11  f 39   2095.8 2045997.3  1.0  1.0  5  0 545033923
[02]  G28  7 24  -1389.7 2046001.8  0.8  0.0 20  0         9
[04]  G22  f 42    689.3 2045999.1  1.0  1.0  5  0 545033924
$GNGGA,000000.000,,,,,0,00,,,M,,,,0000*2B
$GNRMC,000000.000,A,,,,,,,000000,,*26
$GPGSA,A,1,,,,,,,,,,,,,,,*1E
$BDGSA,A,1,,,,,,,,,,,,,,,*0F
$GPGSV,1,1,04,01,00,000,38,11,00,000,39,28,00,000,24,22,00,000,42*77
$LOGTIM,0,0.000000,0.000000,0.000000,0.000000,0.000*0A
EndT:        0
---00000043--- Acq_st=3 2019-5-25 07:23:37 
[00]  G01  f 38   2364.9 2045996.9  1.0  0.9  5  0 545034925
[01]  G11  f 39   2095.1 2045997.3  1.0  1.0  5  0 545034923
[02]  G28  7 23  -1390.3 2046001.7  0.7 -0.1 20  0         9
[04]  G22  f 42    689.2 2045999.1  1.0  1.0  5  0 545034924
$GNGGA,000000.000,,,,,0,00,,,M,,,,0000*2B
$GNRMC,000000.000,A,,,,,,,000000,,*26
$GPGSA,A,1,,,,,,,,,,,,,,,*1E
$BDGSA,A,1,,,,,,,,,,,,,,,*0F
$GPGSV,1,1,04,01,00,000,38,11,00,000,39,28,00,000,23,22,00,000,42*70
$LOGTIM,0,0.000000,0.000000,0.000000,0.000000,0.000*0A
EndT:        0
---00000044--- Acq_st=3 2019-5-25 07:23:38 
[00]  G01  f 38   2364.0 2045996.9  1.0  1.0  5  0 545035925
[01]  G11  f 39   2094.5 2045997.2  1.0  1.0  5  0 545035923
[02]  G28  7 24  -1390.4 2046001.7  0.9 -0.1 20  0         9
[04]  G22  f 42    688.4 2045999.1  1.0  1.0  5  0 545035924
$GNGGA,000000.000,,,,,0,00,,,M,,,,0000*2B
$GNRMC,000000.000,A,,,,,,,000000,,*26
$GPGSA,A,1,,,,,,,,,,,,,,,*1E
$BDGSA,A,1,,,,,,,,,,,,,,,*0F
$GPGSV,1,1,04,01,00,000,38,11,00,000,39,28,00,000,24,22,00,000,42*77
$LOGTIM,0,0.000000,0.000000,0.000000,0.000000,0.000*0A
EndT:        0
---00000045--- Acq_st=3 2019-5-25 07:23:39 
[00]  G01  f 38   2370.1 2045996.9  1.0  1.0  5  0 545036925
[01]  G11  f 39   2100.7 2045997.3  1.0  1.0  5  0 545036923
[02]  G28  7 23  -1387.4 2046001.8  0.2 -0.1 20  0         9
[04]  G22  f 42    694.9 2045999.1  1.0  1.0  5  0 545036924
$GNGGA,000000.000,,,,,0,00,,,M,,,,0000*2B
$GNRMC,000000.000,A,,,,,,,000000,,*26
$GPGSA,A,1,,,,,,,,,,,,,,,*1E
$BDGSA,A,1,,,,,,,,,,,,,,,*0F
$GPGSV,1,1,04,01,00,000,38,11,00,000,39,28,00,000,23,22,00,000,42*70
$LOGTIM,0,0.000000,0.000000,0.000000,0.000000,0.000*0A
EndT:        0
---00000046--- Acq_st=3 2019-5-25 07:23:40 
[00]  G01  f 37   2371.8 2045997.0  1.0  1.0  5  0 545037925
[01]  G11  f 39   2101.5 2045997.2  1.0  1.0  5  0 545037923
[02]  G28  7 23  -1381.9 2046001.7  0.0 -0.1 20  0         9
[04]  G22  f 42    696.8 2045999.1  1.0  1.0  5  0 545037924
$GNGGA,000000.000,,,,,0,00,,,M,,,,0000*2B
$GNRMC,000000.000,A,,,,,,,000000,,*26
$GPGSA,A,1,,,,,,,,,,,,,,,*1E
$BDGSA,A,1,,,,,,,,,,,,,,,*0F
$GPGSV,1,1,04,01,00,000,37,11,00,000,39,28,00,000,23,22,00,000,42*7F
$LOGTIM,0,0.000000,0.000000,0.000000,0.000000,0.000*0A
EndT:        0
---00000047--- Acq_st=3 2019-5-25 07:23:41 
[00]  G01  f 38   2372.1 2045996.9  1.0  1.0  5  0 545038925
[01]  G11  f 39   2102.6 2045997.3  1.0  1.0  5  0 545038923
[02]  G28  7 24  -1381.4 2046001.8  0.9 -0.1 20  0         9
[04]  G22  f 42    697.6 2045999.1  1.0  1.0  5  0 545038924
$GNGGA,000000.000,,,,,0,00,,,M,,,,0000*2B
$GNRMC,000000.000,A,,,,,,,000000,,*26
$GPGSA,A,1,,,,,,,,,,,,,,,*1E
$BDGSA,A,1,,,,,,,,,,,,,,,*0F
$GPGSV,1,1,04,01,00,000,38,11,00,000,39,28,00,000,24,22,00,000,42*77
$LOGTIM,0,0.000000,0.000000,0.000000,0.000000,0.000*0A
EndT:        0
---00000048--- Acq_st=3 2019-5-25 07:23:42 
[00]  G01  f 37   2373.4 2045997.0  1.0  1.0  5  0 545039925
[01]  G11  f 38   2104.0 2045997.3  1.0  1.0  5  0 545039923
[02]  G28  7 24  -1380.2 2046001.6  0.7  0.1 20  0         9
[04]  G22  f 43    699.3 2045999.1  1.0  1.0  5  0 545039924
$GNGGA,000000.000,,,,,0,00,,,M,,,,0000*2B
$GNRMC,000000.000,A,,,,,,,000000,,*26
$GPGSA,A,1,,,,,,,,,,,,,,,*1E
$BDGSA,A,1,,,,,,,,,,,,,,,*0F
$GPGSV,1,1,04,01,00,000,37,11,00,000,38,28,00,000,24,22,00,000,43*78
$LOGTIM,0,0.000000,0.000000,0.000000,0.000000,0.000*0A
EndT:        0
---00000049--- Acq_st=3 2019-5-25 07:23:43 
[00]  G01  f 37   2370.9 2045996.9  1.0  1.0  5  0 545040925
[01]  G11  f 39   2100.6 2045997.3  1.0  1.0  5  0 545040923
[02]  G28  7 24  -1382.2 2046001.8  0.3 -0.1 20  0         9
[04]  G22  f 43    696.8 2045999.1  1.0  1.0  5  0 545040924
$GNGGA,000000.000,,,,,0,00,,,M,,,,0000*2B
$GNRMC,000000.000,A,,,,,,,000000,,*26
$GPGSA,A,1,,,,,,,,,,,,,,,*1E
$BDGSA,A,1,,,,,,,,,,,,,,,*0F
$GPGSV,1,1,04,01,00,000,37,11,00,000,39,28,00,000,24,22,00,000,43*79
$LOGTIM,0,0.000000,0.000000,0.000000,0.000000,0.000*0A
EndT:        0
---00000050--- Acq_st=3 2019-5-25 07:23:44 
[00]  G01  f 37   2367.6 2045997.0  1.0  1.0  5  0 545041925
[01]  G11  f 39   2097.4 2045997.3  1.0  0.9  5  0 545041923
[02]  G28  7 25  -1384.9 2046001.7 -0.2  0.1 20  0         9
[04]  G22  f 43    694.7 2045999.1  1.0  1.0  5  0 545041924
$GNGGA,000000.000,,,,,0,00,,,M,,,,0000*2B
$GNRMC,000000.000,A,,,,,,,000000,,*26
$GPGSA,A,1,,,,,,,,,,,,,,,*1E
$BDGSA,A,1,,,,,,,,,,,,,,,*0F
$GPGSV,1,1,04,01,00,000,37,11,00,000,39,28,00,000,25,22,00,000,43*78
$LOGTIM,0,0.000000,0.000000,0.000000,0.000000,0.000*0A
EndT:        0
ch16 satid=44,max_freq = 0,max_mean = 8655,max_phase = 1629,max_value = 141068,acq ok1!
acq ok1 timeH = 0,timeL = 957556310,freq_stage = 3
---00000051--- Acq_st=3 2019-5-25 07:23:45 
[00]  G01  f 36   2370.1 2045996.9  1.0  1.0  5  0 545042925
[01]  G11  f 39   2099.6 2045997.3  1.0  1.0  5  0 545042923
[02]  G28  7 24  -1383.3 2046001.8  0.7  0.0 20  0         9
[04]  G22  f 43    696.7 2045999.1  1.0  1.0  5  0 545042924
[16]  B08  1  7   1984.1 4091999.2  0.0  0.0  1  0         0
$GNGGA,000000.000,,,,,0,00,,,M,,,,0000*2B
$GNRMC,000000.000,A,,,,,,,000000,,*26
$GPGSA,A,1,,,,,,,,,,,,,,,*1E
$BDGSA,A,1,,,,,,,,,,,,,,,*0F
$GPGSV,1,1,04,01,00,000,36,11,00,000,39,28,00,000,24,22,00,000,43*78
$LOGTIM,0,0.000000,0.000000,0.000000,0.000000,0.000*0A
EndT:        0
---00000052--- Acq_st=3 2019-5-25 07:23:46 
[00]  G01  f 36   2368.7 2045996.9  1.0  1.0  5  0 545043925
[01]  G11  f 39   2098.7 2045997.2  1.0  1.0  5  0 545043923
[02]  G28  7 25  -1382.7 2046001.7  0.5  0.1 20  0         9
[04]  G22  f 43    696.6 2045999.1  1.0  1.0  5  0 545043924
[16]  B08  1  7    -49.0 4092000.0  0.3  0.0  1  0       122
$GNGGA,000000.000,,,,,0,00,,,M,,,,0000*2B
$GNRMC,000000.000,A,,,,,,,000000,,*26
$GPGSA,A,1,,,,,,,,,,,,,,,*1E
$BDGSA,A,1,,,,,,,,,,,,,,,*0F
$GPGSV,1,1,04,01,00,000,36,11,00,000,39,28,00,000,25,22,00,000,43*79
$LOGTIM,0,0.000000,0.000000,0.000000,0.000000,0.000*0A
EndT:        0
---00000053--- Acq_st=3 2019-5-25 07:23:47 
[00]  G01  f 36   2366.7 2045996.9  1.0  1.0  5  0 545044925
[01]  G11  f 39   2096.2 2045997.3  1.0  1.0  5  0 545044923
[02]  G28  7 25  -1385.3 2046001.7  0.4  0.0 20  0         9
[04]  G22  f 43    694.5 2045999.1  1.0  1.0  5  0 545044924
[16]  B08  7 33    -51.6 4092000.2  0.6  1.0  5  0      1122
$GNGGA,000000.000,,,,,0,00,,,M,,,,0000*2B
$GNRMC,000000.000,A,,,,,,,000000,,*26
$GPGSA,A,1,,,,,,,,,,,,,,,*1E
$BDGSA,A,1,,,,,,,,,,,,,,,*0F
$GPGSV,1,1,04,01,00,000,36,11,00,000,39,28,00,000,25,22,00,000,43*79
$BDGSV,1,1,01,08,00,000,33*51
$LOGTIM,0,0.000000,0.000000,0.000000,0.000000,0.000*0A
EndT:        0
---00000054--- Acq_st=3 2019-5-25 07:23:48 
[00]  G01  f 36   2368.3 2045996.9  1.0  1.0  5  0 545045925
[01]  G11  f 38   2097.6 2045997.2  1.0  1.0  5  0 545045923
[02]  G28  7 25  -1383.5 2046001.7  0.3 -0.1 20  0         9
[04]  G22  f 43    696.6 2045999.1  1.0  1.0  5  0 545045924
[16]  B08  7 42    -50.3 4092000.2  1.0  1.0  5  0      2117
$GNGGA,000000.000,,,,,0,00,,,M,,,,0000*2B
$GNRMC,000000.000,A,,,,,,,000000,,*26
$GPGSA,A,1,,,,,,,,,,,,,,,*1E
$BDGSA,A,1,,,,,,,,,,,,,,,*0F
$GPGSV,1,1,04,01,00,000,36,11,00,000,38,28,00,000,25,22,00,000,43*78
$BDGSV,1,1,01,08,00,000,42*57
$LOGTIM,0,0.000000,0.000000,0.000000,0.000000,0.000*0A
EndT:        0
ch17 satid=46,max_freq = 0,max_mean = 8941,max_phase = 3816,max_value = 113515,acq ok1!
acq ok1 timeH = 0,timeL = 1034702306,freq_stage = 3
---00000055--- Acq_st=3 2019-5-25 07:23:49 
[00]  G01  f 36   2370.0 2045996.9  1.0  1.0  5  0 545046925
[01]  G11  f 38   2099.0 2045997.3  1.0  1.0  5  0 545046923
[02]  G28  7 25  -1382.2 2046001.8  0.8  0.1 20  0         9
[04]  G22  f 43    698.4 2045999.1  1.0  1.0  5  0 545046924
[16]  B08  7 42    -49.2 4092000.1  1.0  1.0  5  0      3117
[17]  B10  1  7   6810.0 4092001.4  0.0  0.0  1  0         0
$GNGGA,000000.000,,,,,0,00,,,M,,,,0000*2B
$GNRMC,000000.000,A,,,,,,,000000,,*26
$GPGSA,A,1,,,,,,,,,,,,,,,*1E
$BDGSA,A,1,,,,,,,,,,,,,,,*0F
$GPGSV,1,1,04,01,00,000,36,11,00,000,38,28,00,000,25,22,00,000,43*78
$BDGSV,1,1,01,08,00,000,42*57
$LOGTIM,0,0.000000,0.000000,0.000000,0.000000,0.000*0A
EndT:        0
---00000056--- Acq_st=3 2019-5-25 07:23:50 
[00]  G01  f 36   2371.7 2045997.0  1.0  0.9  5  0 545047925
[01]  G11  f 39   2101.1 2045997.3  1.0  1.0  5  0 545047923
[02]  G28  7 25  -1379.2 2046001.8  0.3 -0.1 20  0         9
[04]  G22  f 43    700.7 2045999.1  1.0  1.0  5  0 545047924
[16]  B08  7 42    -47.1 4092000.1  1.0  1.0  5  0      4117
[17]  B10  1  7   -113.3 4092000.6  0.2  0.0  1  0       103
$GNGGA,000000.000,,,,,0,00,,,M,,,,0000*2B
$GNRMC,000000.000,A,,,,,,,000000,,*26
$GPGSA,A,1,,,,,,,,,,,,,,,*1E
$BDGSA,A,1,,,,,,,,,,,,,,,*0F
$GPGSV,1,1,04,01,00,000,36,11,00,000,38,28,00,000,25,22,00,000,43*78
$BDGSV,1,1,01,08,00,000,42*57
$LOGTIM,0,0.000000,0.000000,0.000000,0.000000,0.000*0A
EndT:        0
ch18 satid=47,max_freq = -750,max_mean = 8325,max_phase = 1920,max_value = 129330,acq ok1!
acq ok1 timeH = 0,timeL = 1073275313,freq_stage = 3
---00000057--- Acq_st=3 2019-5-25 07:23:51 
[00]  G01  f 36   2377.9 2045996.8  1.0  1.0  5  0 545048925
[01]  G11  f 38   2106.7 2045997.2  1.0  1.0  5  0 545048923
[02]  G28  7 25  -1379.0 2046001.7 -0.2 -0.0 20  0         9
[04]  G22  f 43    706.4 2045999.1  1.0  1.0  5  0 545048924
[16]  B08 1f 42    -42.0 4092000.1  1.0  1.0  5  0      5117
[17]  B10  7 32   -108.0 4092000.2  0.6  1.0  5  0      1103
[18]  B11  1  0  12882.3 4091999.0  0.0  0.0  1  0         0
$GNGGA,000000.000,,,,,0,00,,,M,,,,0000*2B
$GNRMC,000000.000,A,,,,,,,000000,,*26
$GPGSA,A,1,,,,,,,,,,,,,,,*1E
$BDGSA,A,1,,,,,,,,,,,,,,,*0F
$GPGSV,1,1,04,01,00,000,36,11,00,000,38,28,00,000,25,22,00,000,43*78
$BDGSV,1,1,02,08,00,000,42,10,00,000,32*64
$LOGTIM,0,0.000000,0.000000,0.000000,0.000000,0.000*0A
EndT:        0
---00000058--- Acq_st=3 2019-5-25 07:23:52 
[00]  G01  f 36   2381.2 2045996.9  1.0  1.0  5  0 545049925
[01]  G11  f 38   2110.5 2045997.2  1.0  1.0  5  0 545049923
[02]  G28  7 24  -1370.3 2046001.8 -0.1 -0.2 20  0         9
[04]  G22  f 43    710.7 2045999.1  1.0  1.0  5  0 545049924
[16]  B08 1f 42    -38.5 4092000.1  1.0  1.0  5  0 545035877
[17]  B10  7 40   -105.2 4092000.2  1.0  1.0  5  0      2097
[18]  B11  1  7    888.2 4091996.9  0.1  0.0  1  0        95
$GNGGA,000000.000,,,,,0,00,,,M,,,,0000*2B
$GNRMC,000000.000,A,,,,,,,000000,,*26
$GPGSA,A,1,,,,,,,,,,,,,,,*1E
$BDGSA,A,1,,,,,,,,,,,,,,,*0F
$GPGSV,1,1,04,01,00,000,36,11,00,000,38,28,00,000,24,22,00,000,43*79
$BDGSV,1,1,02,08,00,000,42,10,00,000,40*61
$LOGTIM,0,0.000000,0.000000,0.000000,0.000000,0.000*0A
EndT:        0
---00000059--- Acq_st=3 2019-5-25 07:23:53 
[00]  G01  f 36   2378.1 2045996.9  1.0  1.0  5  0 545050925
[01]  G11  f 38   2106.7 2045997.2  1.0  1.0  5  0 545050923
[02]  G28  7 26  -1372.9 2046001.7  0.2  0.0 20  0         9
[04]  G22  f 43    707.7 2045999.1  1.0  1.0  5  0 545050924
[16]  B08 1f 42    -41.9 4092000.1  1.0  1.0  5  0 545036877
[17]  B10  7 39   -108.0 4092000.3  1.0  1.0  5  0      3097
[18]  B11  1  7    884.6 4091997.7  0.8  0.0  1  0      1095
$GNGGA,000000.000,,,,,0,00,,,M,,,,0000*2B
$GNRMC,000000.000,A,,,,,,,000000,,*26
$GPGSA,A,1,,,,,,,,,,,,,,,*1E
$BDGSA,A,1,,,,,,,,,,,,,,,*0F
$GPGSV,1,1,04,01,00,000,36,11,00,000,38,28,00,000,26,22,00,000,43*7B
$BDGSV,1,1,02,08,00,000,42,10,00,000,39*6F
$LOGTIM,0,0.000000,0.000000,0.000000,0.000000,0.000*0A
EndT:        0
---00000060--- Acq_st=3 2019-5-25 07:23:54 
[00]  G01  f 36   2380.1 2045996.8  1.0  0.9  5  0 545051925
[01]  G11  f 38   2108.7 2045997.2  1.0  1.0  5  0 545051923
[02]  G28  7 25  -1370.5 2046001.8  0.2 -0.1 20  0         9
[04]  G22  f 43    710.1 2045999.1  1.0  1.0  5  0 545051924
[16]  B08 1f 42    -39.7 4092000.1  1.0  1.0  5  0 545037877
[17]  B10  7 40   -105.9 4092000.3  1.0  1.0  5  0      4097
[18]  B11  1  7    886.9 4091997.7  0.9  0.0  1  0      2095
$GNGGA,000000.000,,,,,0,00,,,M,,,,0000*2B
$GNRMC,000000.000,A,,,,,,,000000,,*26
$GPGSA,A,1,,,,,,,,,,,,,,,*1E
$BDGSA,A,1,,,,,,,,,,,,,,,*0F
$GPGSV,1,1,04,01,00,000,36,11,00,000,38,28,00,000,25,22,00,000,43*78
$BDGSV,1,1,02,08,00,000,42,10,00,000,40*61
$LOGTIM,0,0.000000,0.000000,0.000000,0.000000,0.000*0A
EndT:        0
---00000061--- Acq_st=3 2019-5-25 07:23:55 
[00]  G01  f 36   2379.5 2045996.9  1.0  1.0  5  0 545052925
[01]  G11  f 38   2108.0 2045997.2  1.0  0.9  5  0 545052923
[02]  G28  7 25  -1370.8 2046001.8  0.4  0.0 20  0         9
[04]  G22  f 43    709.8 2045999.1  1.0  1.0  5  0 545052924
[16]  B08 1f 42    -40.6 4092000.1  1.0  1.0  5  0 545038877
[17]  B10  7 40   -106.5 4092000.2  1.0  1.0  5  0      5097
ch19 satid=49,max_freq = 500,max_mean = 8650,max_phase = 2195,max_value = 201170,acq ok1!
acq ok1 timeH = 0,timeL = 1146565934,freq_stage = 3
$GNGGA,000000.000,,,,,0,00,,,M,,,,0000*2B
$GNRMC,000000.000,A,,,,,,,000000,,*26
$GPGSA,A,1,,,,,,,,,,,,,,,*1E
$BDGSA,A,1,,,,,,,,,,,,,,,*0F
$GPGSV,1,1,04,01,00,000,36,11,00,000,38,28,00,000,25,22,00,000,43*78
$BDGSV,1,1,02,08,00,000,42,10,00,000,40*61
$LOGTIM,0,0.000000,0.000000,0.000000,0.000000,0.000*0A
EndT:        0
---00000062--- Acq_st=3 2019-5-25 07:23:56 
[00]  G01  f 36   2377.5 2045996.9  1.0  1.0  5  0 545053925
[01]  G11  f 39   2106.1 2045997.3  1.0  1.0  5  0 545053923
[02]  G28  7 25  -1372.9 2046001.8  0.3  0.0 20  0         9
[04]  G22  f 43    708.4 2045999.1  1.0  1.0  5  0 545053924
[16]  B08 1f 42    -42.5 4092000.1  1.0  1.0  5  0 545039877
[17]  B10  7 39   -108.7 4092000.2  1.0  1.0  5  0      6097
[19]  B13  1  7   -414.0 4092001.2  0.1  0.0  1  0        76
$GNGGA,000000.000,,,,,0,00,,,M,,,,0000*2B
$GNRMC,000000.000,A,,,,,,,000000,,*26
$GPGSA,A,1,,,,,,,,,,,,,,,*1E
$BDGSA,A,1,,,,,,,,,,,,,,,*0F
$GPGSV,1,1,04,01,00,000,36,11,00,000,39,28,00,000,25,22,00,000,43*79
$BDGSV,1,1,02,08,00,000,42,10,00,000,39*6F
$LOGTIM,0,0.000000,0.000000,0.000000,0.000000,0.000*0A
EndT:        0
---00000063--- Acq_st=3 2019-5-25 07:23:57 
[00]  G01  f 36   2380.7 2045996.9  1.0  1.0  5  0 545054925
[01]  G11  f 39   2109.7 2045997.2  1.0  1.0  5  0 545054923
[02]  G28  7 25  -1368.3 2046001.8  0.3 -0.1 20  0         9
[04]  G22  f 42    712.5 2045999.1  1.0  1.0  5  0 545054924
[16]  B08 1f 42    -39.5 4092000.1  1.0  1.0  5  0 545040877
[17]  B10 1f 39   -105.1 4092000.3  1.0  1.0  5  0      7097
[19]  B13  7 32   -410.4 4092001.0  0.1  1.0  5  0      1076
$GNGGA,000000.000,,,,,0,00,,,M,,,,0000*2B
$GNRMC,000000.000,A,,,,,,,000000,,*26
$GPGSA,A,1,,,,,,,,,,,,,,,*1E
$BDGSA,A,1,,,,,,,,,,,,,,,*0F
$GPGSV,1,1,04,01,00,000,36,11,00,000,39,28,00,000,25,22,00,000,42*78
$BDGSV,1,1,03,08,00,000,42,10,00,000,39,13,00,000,32*5D
$LOGTIM,0,0.000000,0.000000,0.000000,0.000000,0.000*0A
EndT:        0
---00000064--- Acq_st=3 2019-5-25 07:23:58 
[00]  G01  f 36   2379.1 2045996.9  1.0  1.0  5  0 545055925
[01]  G11  f 38   2108.0 2045997.2  1.0  1.0  5  0 545055923
[02]  G28  7 25  -1370.2 2046001.7  0.4 -0.0 20  0         9
[04]  G22  f 42    710.8 2045999.1  1.0  1.0  5  0 545055924
[16]  B08 1f 42    -41.0 4092000.1  1.0  1.0  5  0 545041877
[17]  B10 1f 39   -106.5 4092000.2  1.0  1.0  5  0 545041877
[19]  B13  7 43   -412.2 4092001.0  1.0  1.0  5  0      2072
$GNGGA,000000.000,,,,,0,00,,,M,,,,0000*2B
$GNRMC,000000.000,A,,,,,,,000000,,*26
$GPGSA,A,1,,,,,,,,,,,,,,,*1E
$BDGSA,A,1,,,,,,,,,,,,,,,*0F
$GPGSV,1,1,04,01,00,000,36,11,00,000,38,28,00,000,25,22,00,000,42*79
$BDGSV,1,1,03,08,00,000,42,10,00,000,39,13,00,000,43*5B
$LOGTIM,0,0.000000,0.000000,0.000000,0.000000,0.000*0A
EndT:        0
---00000065--- Acq_st=3 2019-5-25 07:23:59 
[00]  G01  f 36   2382.7 2045996.9  1.0  1.0  5  0 545056925
[01]  G11  f 39   2112.2 2045997.3  1.0  1.0  5  0 545056923
[02]  G28  7 25  -1366.1 2046001.6  0.1 -0.1 20  0         9
[04]  G22  f 42    715.6 2045999.1  1.0  1.0  5  0 545056924
[16]  B08 1f 42    -37.5 4092000.1  1.0  1.0  5  0 545042877
[17]  B10 1f 39   -102.9 4092000.3  1.0  1.0  5  0 545042877
[19]  B13  7 43   -408.8 4092001.0  1.0  1.0  5  0      3072
$GNGGA,000000.000,,,,,0,00,,,M,,,,0000*2B
$GNRMC,000000.000,A,,,,,,,000000,,*26
$GPGSA,A,1,,,,,,,,,,,,,,,*1E
$BDGSA,A,1,,,,,,,,,,,,,,,*0F
$GPGSV,1,1,04,01,00,000,36,11,00,000,39,28,00,000,25,22,00,000,42*78
$BDGSV,1,1,03,08,00,000,42,10,00,000,39,13,00,000,43*5B
$LOGTIM,0,0.000000,0.000000,0.000000,0.000000,0.000*0A
EndT:        0
---00000066--- Acq_st=3 2019-5-25 07:24:0 
[00]  G01  f 36   2380.6 2045996.9  1.0  1.0  5  0 545057925
[01]  G11  f 39   2108.9 2045997.2  1.0  1.0  5  0 545057923
[02]  G28  7 25  -1367.9 2046001.7  0.1  0.0 20  0         9
[04]  G22  f 42    712.8 2045999.0  1.0  1.0  5  0 545057924
[16]  B08 1f 42    -40.3 4092000.1  1.0  1.0  5  0 545043877
[17]  B10 1f 40   -105.8 4092000.3  1.0  1.0  5  0 545043877
[19]  B13  7 43   -411.6 4092001.0  1.0  1.0  5  0      4072
$GNGGA,000000.000,,,,,0,00,,,M,,,,0000*2B
$GNRMC,000000.000,A,,,,,,,000000,,*26
$GPGSA,A,1,,,,,,,,,,,,,,,*1E
$BDGSA,A,1,,,,,,,,,,,,,,,*0F
$GPGSV,1,1,04,01,00,000,36,11,00,000,39,28,00,000,25,22,00,000,42*78
$BDGSV,1,1,03,08,00,000,42,10,00,000,40,13,00,000,43*55
$LOGTIM,0,0.000000,0.000000,0.000000,0.000000,0.000*0A
EndT:        0
---00000067--- Acq_st=3 2019-5-25 07:24:1 
[00]  G01  f 36   2379.1 2045996.9  1.0  1.0  5  0 545058925
[01]  G11  f 39   2107.1 2045997.2  1.0  1.0  5  0 545058923
[02]  G28  7 25  -1370.1 2046001.6 -0.0 -0.0 20  0         9
[04]  G22  f 43    711.7 2045999.1  1.0  1.0  5  0 545058924
[16]  B08 1f 42    -42.3 4092000.1  1.0  1.0  5  0 545044877
[17]  B10 1f 39   -107.2 4092000.3  1.0  1.0  5  0 545044877
[19]  B13  7 43   -413.2 4092001.1  1.0  1.0  5  0      5072
$GNGGA,000000.000,,,,,0,00,,,M,,,,0000*2B
$GNRMC,000000.000,A,,,,,,,000000,,*26
$GPGSA,A,1,,,,,,,,,,,,,,,*1E
$BDGSA,A,1,,,,,,,,,,,,,,,*0F
$GPGSV,1,1,04,01,00,000,36,11,00,000,39,28,00,000,25,22,00,000,43*79
$BDGSV,1,1,03,08,00,000,42,10,00,000,39,13,00,000,43*5B
$LOGTIM,0,0.000000,0.000000,0.000000,0.000000,0.000*0A
EndT:        0
---00000068--- Acq_st=3 2019-5-25 07:24:2 
[00]  G01  f 36   2376.6 2045997.0  1.0  1.0  5  0 545059925
[01]  G11  f 39   2105.2 2045997.3  1.0  1.0  5  0 545059923
[02]  G28  7 25  -1372.1 2046001.8  0.1 -0.0 20  0         9
[04]  G22  f 43    709.9 2045999.1  1.0  1.0  5  0 545059924
[16]  B08 1f 42    -44.5 4092000.1  1.0  1.0  5  0 545045877
[17]  B10 1f 40   -109.9 4092000.2  1.0  1.0  5  0 545045877
[19]  B13  7 43   -416.0 4092001.1  1.0  1.0  5  0      6072
$GNGGA,000000.000,,,,,0,00,,,M,,,,0000*2B
$GNRMC,000000.000,A,,,,,,,000000,,*26
$GPGSA,A,1,,,,,,,,,,,,,,,*1E
$BDGSA,A,1,,,,,,,,,,,,,,,*0F
$GPGSV,1,1,04,01,00,000,36,11,00,000,39,28,00,000,25,22,00,000,43*79
$BDGSV,1,1,03,08,00,000,42,10,00,000,40,13,00,000,43*55
$LOGTIM,0,0.000000,0.000000,0.000000,0.000000,0.000*0A
EndT:        0
---00000069--- Acq_st=3 2019-5-25 07:24:3 
[00]  G01  f 36   2375.8 2045996.9  1.0  1.0  5  0 545060925
[01]  G11  f 38   2103.9 2045997.2  1.0  1.0  5  0 545060923
[02]  G28  7 25  -1371.9 2046001.8  0.9 -0.0 20  0         9
[04]  G22  f 43    709.6 2045999.0  1.0  1.0  5  0 545060924
[16]  B08 1f 42    -45.1 4092000.1  1.0  1.0  5  0 545046877
[17]  B10 1f 40   -109.8 4092000.3  1.0  1.0  5  0 545046877
[19]  B13 1f 42   -416.2 4092001.1  1.0  1.0  5  0      7072
$GNGGA,000000.000,,,,,0,00,,,M,,,,0000*2B
$GNRMC,000000.000,A,,,,,,,000000,,*26
$GPGSA,A,1,,,,,,,,,,,,,,,*1E
$BDGSA,A,1,,,,,,,,,,,,,,,*0F
$GPGSV,1,1,04,01,00,000,36,11,00,000,38,28,00,000,25,22,00,000,43*78
$BDGSV,1,1,03,08,00,000,42,10,00,000,40,13,00,000,42*54
$LOGTIM,0,0.000000,0.000000,0.000000,0.000000,0.000*0A
EndT:        0
---00000070--- Acq_st=3 2019-5-25 07:24:4 
[00]  G01  f 36   2380.0 2045996.9  1.0  1.0  5  0 545061925
[01]  G11  f 38   2107.9 2045997.2  1.0  0.9  5  0 545061923
[02]  G28  7 25  -1368.5 2046001.9  0.2 -0.1 20  0         9
[04]  G22  f 43    713.7 2045999.1  1.0  1.0  5  0 545061924
[16]  B08 1f 42    -41.9 4092000.1  1.0  1.0  5  0 545047877
[17]  B10 1f 39   -106.6 4092000.3  1.0  1.0  5  0 545047877
[19]  B13 1f 42   -413.5 4092001.1  1.0  1.0  5  0 545047872
$GNGGA,000000.000,,,,,0,00,,,M,,,,0000*2B
$GNRMC,000000.000,A,,,,,,,000000,,*26
$GPGSA,A,1,,,,,,,,,,,,,,,*1E
$BDGSA,A,1,,,,,,,,,,,,,,,*0F
$GPGSV,1,1,04,01,00,000,36,11,00,000,38,28,00,000,25,22,00,000,43*78
$BDGSV,1,1,03,08,00,000,42,10,00,000,39,13,00,000,42*5A
$LOGTIM,0,0.000000,0.000000,0.000000,0.000000,0.000*0A
EndT:        0
---00000071--- Acq_st=3 2019-5-25 07:24:5 
[00]  G01  f 37   2377.1 2045996.9  1.0  1.0  5  0 545062925
[01]  G11  f 38   2105.4 2045997.3  1.0  1.0  5  0 545062923
[02]  G28  7 25  -1369.9 2046001.7  0.3 -0.1 20  0         9
[04]  G22  f 42    711.9 2045999.1  1.0  1.0  5  0 545062924
[16]  B08 1f 42    -44.4 4092000.1  1.0  1.0  5  0 545048877
[17]  B10 1f 39   -108.9 4092000.2  1.0  1.0  5  0 545048877
[19]  B13 1f 43   -415.2 4092001.1  1.0  1.0  5  0 545048872
$GNGGA,000000.000,,,,,0,00,,,M,,,,0000*2B
$GNRMC,000000.000,A,,,,,,,000000,,*26
$GPGSA,A,1,,,,,,,,,,,,,,,*1E
$BDGSA,A,1,,,,,,,,,,,,,,,*0F
$GPGSV,1,1,04,01,00,000,37,11,00,000,38,28,00,000,25,22,00,000,42*78
$BDGSV,1,1,03,08,00,000,42,10,00,000,39,13,00,000,43*5B
$LOGTIM,0,0.000000,0.000000,0.000000,0.000000,0.000*0A
EndT:        0
---00000072--- Acq_st=3 2019-5-25 07:24:6 
[00]  G01  f 37   2376.9 2045996.9  1.0  1.0  5  0 545063925
[01]  G11  f 39   2105.6 2045997.3  1.0  1.0  5  0 545063923
[02]  G28  7 25  -1369.9 2046001.8  0.3 -0.0 20  0         9
[04]  G22  f 43    712.3 2045999.1  1.0  1.0  5  0 545063924
[16]  B08 1f 42    -43.9 4092000.1  1.0  1.0  5  0 545049877
[17]  B10 1f 39   -108.7 4092000.3  1.0  1.0  5  0 545049877
[19]  B13 1f 42   -415.1 4092001.1  1.0  1.0  5  0 545049872
$GNGGA,000000.000,,,,,0,00,,,M,,,,0000*2B
$GNRMC,000000.000,A,,,,,,,000000,,*26
$GPGSA,A,1,,,,,,,,,,,,,,,*1E
$BDGSA,A,1,,,,,,,,,,,,,,,*0F
$GPGSV,1,1,04,01,00,000,37,11,00,000,39,28,00,000,25,22,00,000,43*78
$BDGSV,1,1,03,08,00,000,42,10,00,000,39,13,00,000,42*5A
$LOGTIM,0,0.000000,0.000000,0.000000,0.000000,0.000*0A
EndT:        0
---00000073--- Acq_st=3 2019-5-25 07:24:7 
[00]  G01  f 37   2376.5 2045996.9  1.0  0.9  5  0 545064925
[01]  G11  f 39   2103.8 2045997.3  1.0  1.0  5  0 545064923
[02]  G28  7 25  -1370.5 2046001.6  0.8  0.0 20  0         9
[04]  G22  f 42    711.0 2045999.1  1.0  1.0  5  0 545064924
[16]  B08 1f 42    -45.7 4092000.1  1.0  1.0  5  0 545050877
[17]  B10 1f 39   -110.2 4092000.3  1.0  1.0  5  0 545050877
[19]  B13 1f 43   -416.7 4092001.1  1.0  1.0  5  0 545050872
$GNGGA,000000.000,,,,,0,00,,,M,,,,0000*2B
$GNRMC,000000.000,A,,,,,,,000000,,*26
$GPGSA,A,1,,,,,,,,,,,,,,,*1E
$BDGSA,A,1,,,,,,,,,,,,,,,*0F
$GPGSV,1,1,04,01,00,000,37,11,00,000,39,28,00,000,25,22,00,000,42*79
$BDGSV,1,1,03,08,00,000,42,10,00,000,39,13,00,000,43*5B
$LOGTIM,0,0.000000,0.000000,0.000000,0.000000,0.000*0A
EndT:        0
---00000074--- Acq_st=3 2019-5-25 07:24:8 
[00]  G01  f 38   2375.0 2045996.9  1.0  1.0  5  0 545065925
[01]  G11  f 39   2103.0 2045997.3  1.0  1.0  5  0 545065923
[02]  G28  7 24  -1371.6 2046001.8  0.3 -0.1 20  0         9
[04]  G22  f 42    710.7 2045999.1  1.0  1.0  5  0 545065924
[16]  B08 1f 42    -46.8 4092000.1  1.0  1.0  5  0 545051877
[17]  B10 1f 39   -111.5 4092000.3  1.0  1.0  5  0 545051877
[19]  B13 1f 43   -418.0 4092001.1  1.0  1.0  5  0 545051872
$GNGGA,000000.000,,,,,0,00,,,M,,,,0000*2B
$GNRMC,000000.000,A,,,,,,,000000,,*26
$GPGSA,A,1,,,,,,,,,,,,,,,*1E
$BDGSA,A,1,,,,,,,,,,,,,,,*0F
$GPGSV,1,1,04,01,00,000,38,11,00,000,39,28,00,000,24,22,00,000,42*77
$BDGSV,1,1,03,08,00,000,42,10,00,000,39,13,00,000,43*5B
$LOGTIM,0,0.000000,0.000000,0.000000,0.000000,0.000*0A
EndT:        0
---00000075--- Acq_st=3 2019-5-25 07:24:9 
[00]  G01  f 38   2377.6 2045997.0  1.0  0.9  5  0 545066925
[01]  G11  f 39   2105.0 2045997.2  1.0  1.0  5  0 545066923
[02]  G28  7 24  -1369.2 2046001.7  0.5  0.0 20  0         9
[04]  G22  f 43    712.8 2045999.1  1.0  1.0  5  0 545066924
[16]  B08 1f 42    -45.1 4092000.1  1.0  1.0  5  0 545052877
[17]  B10 1f 39   -109.1 4092000.3  1.0  1.0  5  0 545052877
[19]  B13 1f 43   -415.9 4092001.1  1.0  1.0  5  0 545052872
$GNGGA,000000.000,,,,,0,00,,,M,,,,0000*2B
$GNRMC,000000.000,A,,,,,,,000000,,*26
$GPGSA,A,1,,,,,,,,,,,,,,,*1E
$BDGSA,A,1,,,,,,,,,,,,,,,*0F
$GPGSV,1,1,04,01,00,000,38,11,00,000,39,28,00,000,24,22,00,000,43*76
$BDGSV,1,1,03,08,00,000,42,10,00,000,39,13,00,000,43*5B
$LOGTIM,0,0.000000,0.000000,0.000000,0.000000,0.000*0A
EndT:        0
---00000076--- Acq_st=3 2019-5-25 07:24:10 
[00]  G01  f 37   2380.8 2045996.9  1.0  1.0  5  0 545067925
[01]  G11  f 39   2108.6 2045997.3  1.0  0.9  5  0 545067923
[02]  G28  7 24  -1366.5 2046001.8 -0.2 -0.1 20  0         9
[04]  G22  f 43    717.0 2045999.1  1.0  1.0  5  0 545067924
[16]  B08 1f 42    -41.3 4092000.1  1.0  1.0  5  0 545053877
[17]  B10 1f 39   -105.8 4092000.3  1.0  1.0  5  0 545053877
[19]  B13 1f 43   -412.4 4092001.1  1.0  1.0  5  0 545053872
$GNGGA,000000.000,,,,,0,00,,,M,,,,0000*2B
$GNRMC,000000.000,A,,,,,,,000000,,*26
$GPGSA,A,1,,,,,,,,,,,,,,,*1E
$BDGSA,A,1,,,,,,,,,,,,,,,*0F
$GPGSV,1,1,04,01,00,000,37,11,00,000,39,28,00,000,24,22,00,000,43*79
$BDGSV,1,1,03,08,00,000,42,10,00,000,39,13,00,000,43*5B
$LOGTIM,0,0.000000,0.000000,0.000000,0.000000,0.000*0A
EndT:        0
---00000077--- Acq_st=3 2019-5-25 07:24:11 
[00]  G01  f 38   2380.2 2045996.9  1.0  1.0  5  0 545068925
[01]  G11  f 39   2108.2 2045997.2  1.0  1.0  5  0 545068923
[02]  G28  7 23  -1364.4 2046001.8 -0.1 -0.1 20  0         9
[04]  G22  f 43    717.3 2045999.0  1.0  1.0  5  0 545068924
[16]  B08 1f 42    -41.7 4092000.1  1.0  1.0  5  0 545054877
[17]  B10 1f 39   -105.9 4092000.2  1.0  0.9  5  0 545054877
[19]  B13 1f 42   -413.1 4092001.0  1.0  1.0  5  0 545054872
ch18 satid=57,max_freq = -1000,max_mean = 8529,max_phase = 1282,max_value = 167374,acq ok1!
acq ok1 timeH = 0,timeL = 1462860700,freq_stage = 4
$GNGGA,000000.000,,,,,0,00,,,M,,,,0000*2B
$GNRMC,000000.000,A,,,,,,,000000,,*26
$GPGSA,A,1,,,,,,,,,,,,,,,*1E
$BDGSA,A,1,,,,,,,,,,,,,,,*0F
$GPGSV,1,1,04,01,00,000,38,11,00,000,39,28,00,000,23,22,00,000,43*71
$BDGSV,1,1,03,08,00,000,42,10,00,000,39,13,00,000,42*5A
$LOGTIM,0,0.000000,0.000000,0.000000,0.000000,0.000*0A
EndT:        0
---00000078--- Acq_st=3 2019-5-25 07:24:12 
[00]  G01  f 38   2380.1 2045996.9  1.0  1.0  5  0 545069925
[01]  G11  f 39   2108.7 2045997.3  1.0  1.0  5  0 545069923
[02]  G28  7 25  -1364.3 2046001.7  0.2  0.0 20  0         9
[04]  G22  f 43    718.0 2045999.0  1.0  1.0  5  0 545069924
[16]  B08 1f 42    -41.6 4092000.1  1.0  1.0  5  0 545055877
[17]  B10 1f 39   -105.4 4092000.3  1.0  1.0  5  0 545055877
[18]  B21  1  7    885.7 4091998.1  0.1  0.0  1  0         4
[19]  B13 1f 43   -412.8 4092001.1  1.0  1.0  5  0 545055872
$GNGGA,000000.000,,,,,0,00,,,M,,,,0000*2B
$GNRMC,000000.000,A,,,,,,,000000,,*26
$GPGSA,A,1,,,,,,,,,,,,,,,*1E
$BDGSA,A,1,,,,,,,,,,,,,,,*0F
$GPGSV,1,1,04,01,00,000,38,11,00,000,39,28,00,000,25,22,00,000,43*77
$BDGSV,1,1,03,08,00,000,42,10,00,000,39,13,00,000,43*5B
$LOGTIM,0,0.000000,0.000000,0.000000,0.000000,0.000*0A
EndT:        0
---00000079--- Acq_st=3 2019-5-25 07:24:13 
[00]  G01  f 37   2381.7 2045996.9  1.0  1.0  5  0 545070925
[01]  G11  f 38   2109.5 2045997.3  1.0  1.0  5  0 545070923
[02]  G28  7 24  -1363.9 2046001.7  0.9  0.0 20  0         9
[04]  G22  f 43    719.1 2045999.1  1.0  1.0  5  0 545070924
[16]  B08 1f 42    -40.9 4092000.1  1.0  1.0  5  0 545056877
[17]  B10 1f 39   -105.1 4092000.3  1.0  1.0  5  0 545056877
[18]  B21  7 30    887.1 4091997.6  0.8  1.0  5  0      1004
[19]  B13 1f 42   -412.1 4092001.1  1.0  1.0  5  0 545056872
$GNGGA,000000.000,,,,,0,00,,,M,,,,0000*2B
$GNRMC,000000.000,A,,,,,,,000000,,*26
$GPGSA,A,1,,,,,,,,,,,,,,,*1E
$BDGSA,A,1,,,,,,,,,,,,,,,*0F
$GPGSV,1,1,04,01,00,000,37,11,00,000,38,28,00,000,24,22,00,000,43*78
$BDGSV,1,1,04,08,00,000,42,10,00,000,39,21,00,000,30,13,00,000,42*6D
$LOGTIM,0,0.000000,0.000000,0.000000,0.000000,0.000*0A
EndT:        0
---00000080--- Acq_st=3 2019-5-25 07:24:14 
[00]  G01  f 38   2382.6 2045996.9  1.0  1.0  5  0 545071925
[01]  G11  f 38   2109.9 2045997.3  1.0  1.0  5  0 545071923
[02]  G28  7 23  -1362.6 2046001.7  0.6 -0.1 20  0         9
[04]  G22  f 43    719.9 2045999.0  1.0  1.0  5  0 545071924
[16]  B08 1f 42    -40.8 4092000.1  1.0  1.0  5  0 545057877
[17]  B10 1f 39   -104.3 4092000.3  1.0  1.0  5  0 545057877
[18]  B21  7 41    887.1 4091997.6  1.0  1.0  5  0      1993
[19]  B13 1f 42   -411.6 4092001.0  1.0  1.0  5  0 545057872
lsq: nits= 5
$GNGGA,072414.998,3112.4622,N,12136.0408,E,1,05,17.5,-789.2,M,,,,0000*0A
$GNRMC,072414.998,A,3112.4622,N,12136.0408,E,0.79,0.00,250519,,*1D
$GPGSA,A,3,01,11,22,,,,,,,,,,27.6,17.5,21.3*03
$BDGSA,A,3,08,10,,,,,,,,,,,27.6,17.5,21.3*1A
$GPGSV,1,1,04,01,00,000,38,11,00,000,38,28,00,000,23,22,00,000,43*70
$BDGSV,1,1,04,08,00,000,42,10,00,000,39,21,00,000,41,13,00,000,42*6B
$LOGTIM,3,8255542.345128,8255846.135019,0.000000,0.000000,-61.613*18
EndT:        0
---00000081--- Acq_st=3 2019-5-25 07:24:15 
[00]  G01  f 38   2381.5 2045996.9  1.0  1.0  5  0 545072925
[01]  G11  f 38   2109.7 2045997.3  1.0  1.0  5  0 545072923
[02]  G28  7 24  -1362.9 2046001.7  0.8 -0.1 20  0         9
[04]  G22  f 43    719.8 2045999.1  1.0  1.0  5  0 545072924
[16]  B08 1f 42    -41.0 4092000.1  1.0  1.0  5  0 545058877
[17]  B10 1f 39   -104.8 4092000.3  1.0  1.0  5  0 545058877
[18]  B21 1f 42    887.7 4091997.6  1.0  1.0  5  0      2993
[19]  B13 1f 43   -412.1 4092001.0  1.0  1.0  5  0 545058872
lsq: nits= 5
$GNGGA,072416.000,3112.7121,N,12136.4330,E,1,05,17.5,-16.0,M,,,,0000*3C
$GNRMC,072416.000,A,3112.7121,N,12136.4330,E,1.70,0.00,250519,,*10
$GPGSA,A,3,01,11,22,,,,,,,,,,27.6,17.5,21.3*03
$BDGSA,A,3,08,10,,,,,,,,,,,27.6,17.5,21.3*1A
$GPGSV,1,1,04,01,00,000,38,11,00,000,38,28,00,000,24,22,00,000,43*77
$BDGSV,1,1,04,08,00,000,42,10,00,000,39,21,00,000,42,13,00,000,43*69
$LOGTIM,3,1006.337215,842.490642,0.000000,0.000000,-60.930*2D
EndT:        0
---00000082--- Acq_st=3 2019-5-25 07:24:16 
[00]  G01  f 38   2384.4 2045996.9  1.0  1.0  5  0 545073927
[01]  G11  f 38   2111.2 2045997.2  1.0  1.0  5  0 545073925
[02]  G28  7 24  -1360.2 2046001.7  0.2  0.0 20  0        11
[04]  G22  f 43    722.9 2045999.1  1.0  1.0  5  0 545073925
[16]  B08 1f 42    -39.1 4092000.1  1.0  1.0  5  0 545059878
[17]  B10 1f 38   -102.7 4092000.3  1.0  1.0  5  0 545059879
[18]  B21 1f 42    890.1 4091997.6  1.0  1.0  5  0 545059914
[19]  B13 1f 43   -409.9 4092001.1  1.0  1.0  5  0 545059874
lsq: nits= 5
$GNGGA,072417.000,3112.7089,N,12136.4288,E,1,05,17.5,-37.5,M,,,,0000*3A
$GNRMC,072417.000,A,3112.7089,N,12136.4288,E,0.60,0.00,250519,,*10
$GPGSA,A,3,01,11,22,,,,,,,,,,27.5,17.5,21.3*00
$BDGSA,A,3,08,10,,,,,,,,,,,27.5,17.5,21.3*19
$GPGSV,2,1,06,01,41,037,38,11,32,053,38,28,00,000,24,22,41,070,43*72
$GPGSV,2,2,06,18,16,047,00,19,22,296,00*77
$BDGSV,1,1,04,08,68,299,42,10,72,258,38,21,00,000,42,13,00,000,43*6E
$LOGTIM,3,924.118538,761.771742,0.000000,0.000000,-60.919*1A
EndT:        0
---00000083--- Acq_st=3 2019-5-25 07:24:17 
[00]  G01  f 38   2384.7 2045996.9  1.0  1.0  5  0 545074927
[01]  G11  f 38   2111.7 2045997.3  1.0  0.9  5  0 545074925
[02]  G28  7 24  -1359.9 2046001.7  0.6  0.0 20  0        11
[04]  G22  f 43    723.0 2045999.1  1.0  1.0  5  0 545074925
[16]  B08 1f 42    -38.8 4092000.1  1.0  1.0  5  0 545060878
[17]  B10 1f 38   -102.5 4092000.3  1.0  1.0  5  0 545060879
[18]  B21 1f 41    890.7 4091997.6  1.0  1.0  5  0 545060914
[19]  B13 1f 42   -409.7 4092001.1  1.0  1.0  5  0 545060874
lsq: nits= 5
$GNGGA,072418.000,3112.4575,N,12136.0322,E,1,05,17.4,-835.8,M,,,,0000*03
$GNRMC,072418.000,A,3112.4575,N,12136.0322,E,0.74,0.00,250519,,*1A
$GPGSA,A,3,01,11,22,,,,,,,,,,27.5,17.4,21.3*01
$BDGSA,A,3,08,10,,,,,,,,,,,27.5,17.4,21.3*18
$GPGSV,2,1,06,01,41,037,38,11,32,053,38,28,00,000,24,22,41,070,43*72
$GPGSV,2,2,06,18,16,047,00,19,22,296,00*77
$BDGSV,1,1,04,08,68,299,42,10,72,258,38,21,00,000,41,13,00,000,42*6C
$LOGTIM,3,-229.049016,77.502213,0.000000,0.000000,-60.618*04
EndT:        0
---00000084--- Acq_st=3 2019-5-25 07:24:18 
[00]  G01  f 38   2384.0 2045996.9  1.0  1.0  5  0 545075927
[01]  G11  f 39   2111.2 2045997.3  1.0  1.0  5  0 545075925
[02]  G28  7 24  -1360.0 2046001.8  0.7  0.0 20  0        11
[04]  G22  f 42    723.2 2045999.1  1.0  1.0  5  0 545075925
[16]  B08 1f 42    -39.8 4092000.1  1.0  1.0  5  0 545061878
[17]  B10 1f 38   -102.5 4092000.3  1.0  1.0  5  0 545061879
[18]  B21 1f 41    890.7 4091997.6  1.0  1.0  5  0 545061914
[19]  B13 1f 43   -410.3 4092001.1  1.0  1.0  5  0 545061874
lsq: nits= 5
$GNGGA,072419.000,3112.7062,N,12136.4280,E,1,05,17.4,-46.4,M,,,,0000*3F
$GNRMC,072419.000,A,3112.7062,N,12136.4280,E,1.48,0.00,250519,,*18
$GPGSA,A,3,01,11,22,,,,,,,,,,27.5,17.4,21.2*00
$BDGSA,A,3,08,10,,,,,,,,,,,27.5,17.4,21.2*19
$GPGSV,2,1,06,01,41,037,38,11,32,053,39,28,00,000,24,22,41,070,42*72
$GPGSV,2,2,06,18,16,047,00,19,22,296,00*77
$BDGSV,1,1,04,08,68,299,42,10,72,258,38,21,00,000,41,13,00,000,43*6D
$LOGTIM,3,790.975973,631.005067,0.000000,0.000000,-62.371*1D
EndT:        0
---00000085--- Acq_st=3 2019-5-25 07:24:19 
[00]  G01  f 38   2386.5 2045996.9  1.0  1.0  5  0 545076927
[01]  G11  f 38   2113.3 2045997.3  1.0  1.0  5  0 545076925
[02]  G28  7 24  -1359.4 2046001.6 -0.1 -0.1 20  0        11
[04]  G22  f 43    726.3 2045999.1  1.0  1.0  5  0 545076925
[16]  B08 1f 42    -37.4 4092000.1  1.0  1.0  5  0 545062878
[17]  B10 1f 38   -100.6 4092000.2  1.0  1.0  5  0 545062879
[18]  B21 1f 42    893.2 4091997.6  1.0  1.0  5  0 545062914
[19]  B13 1f 43   -407.7 4092001.1  1.0  1.0  5  0 545062874
lsq: nits= 5
$GNGGA,072420.000,3112.9519,N,12136.8177,E,1,05,17.4,710.5,M,,,,0000*2D
$GNRMC,072420.000,A,3112.9519,N,12136.8177,E,0.60,0.00,250519,,*19
$GPGSA,A,3,01,11,22,,,,,,,,,,27.4,17.4,21.2*01
$BDGSA,A,3,08,10,,,,,,,,,,,27.4,17.4,21.2*18
$GPGSV,2,1,06,01,41,037,38,11,32,053,38,28,00,000,24,22,41,070,43*72
$GPGSV,2,2,06,18,16,047,00,19,22,296,00*77
$BDGSV,1,1,04,08,68,299,42,10,72,258,38,21,00,000,42,13,00,000,43*6E
$LOGTIM,3,1783.179299,1083.218300,0.000000,0.000000,-60.927*1C
EndT:        0
---00000086--- Acq_st=3 2019-5-25 07:24:20 
[00]  G01  f 38   2380.8 2045996.9  1.0  1.0  5  0 545077927
[01]  G11  f 38   2108.1 2045997.2  1.0  1.0  5  0 545077925
[02]  G28  7 26  -1358.9 2046001.6 -0.0  0.2 20  0        11
[04]  G22  f 43    721.3 2045999.0  1.0  1.0  5  0 545077925
[16]  B08 1f 42    -42.7 4092000.1  1.0  1.0  5  0 545063878
[17]  B10 1f 38   -105.9 4092000.3  1.0  1.0  5  0 545063879
[18]  B21 1f 42    888.3 4091997.7  1.0  1.0  5  0 545063914
[19]  B13 1f 42   -413.3 4092001.1  1.0  1.0  5  0 545063874
lsq: nits= 5
$GNGGA,072421.000,3112.6985,N,12136.4080,E,1,05,17.4,-99.7,M,,,,0000*36
$GNRMC,072421.000,A,3112.6985,N,12136.4080,E,0.31,0.00,250519,,*1F
$GPGSA,A,3,01,11,22,,,,,,,,,,27.4,17.4,21.2*01
$BDGSA,A,3,08,10,,,,,,,,,,,27.4,17.4,21.2*18
$GPGSV,2,1,06,01,41,037,38,11,32,053,38,28,00,000,26,22,41,070,43*70
$GPGSV,2,2,06,18,16,047,00,19,22,296,00*77
$BDGSV,1,1,04,08,68,299,42,10,72,258,38,21,00,000,42,13,00,000,42*6F
$LOGTIM,3,607.268474,393.156994,0.000000,0.000000,-61.964*1D
EndT:        0
---00000087--- Acq_st=3 2019-5-25 07:24:21 
[00]  G01  f 37   2377.1 2045996.9  1.0  0.9  5  0 545078927
[01]  G11  f 39   2104.3 2045997.2  1.0  1.0  5  0 545078925
[02]  G28  7 26  -1365.5 2046001.8 -0.1  0.0 20  0        11
[04]  G22  f 42    717.6 2045999.1  1.0  1.0  5  0 545078925
[16]  B08 1f 42    -46.5 4092000.1  1.0  1.0  5  0 545064878
[17]  B10 1f 39   -109.0 4092000.3  1.0  1.0  5  0 545064879
[18]  B21 1f 41    884.8 4091997.7  1.0  1.0  5  0 545064914
[19]  B13 1f 43   -416.9 4092001.1  1.0  1.0  5  0 545064874
lsq: nits= 5
$GNGGA,072422.000,3112.6982,N,12136.4013,E,1,05,17.4,-108.7,M,,,,0000*01
$GNRMC,072422.000,A,3112.6982,N,12136.4013,E,0.89,0.00,250519,,*12
$GPGSA,A,3,01,11,22,,,,,,,,,,27.4,17.4,21.2*01
$BDGSA,A,3,08,10,,,,,,,,,,,27.4,17.4,21.2*18
$GPGSV,2,1,06,01,41,037,37,11,32,053,39,28,00,000,26,22,41,070,42*7F
$GPGSV,2,2,06,18,16,047,00,19,22,296,00*77
$BDGSV,2,1,06,08,68,299,42,10,72,258,39,21,00,000,41,13,00,000,43*6D
$BDGSV,2,2,06,01,49,146,00,03,49,146,00*6C
$LOGTIM,3,531.574949,398.478539,0.000000,0.000000,-62.446*15
EndT:        0
---00000088--- Acq_st=3 2019-5-25 07:24:22 
[00]  G01  f 37   2372.6 2045996.9  1.0  1.0  5  0 545079927
[01]  G11  f 39   2099.1 2045997.3  1.0  1.0  5  0 545079925
[02]  G28  7 26  -1367.5 2046001.8 -0.5  0.1 20  0        11
[04]  G22  f 42    713.1 2045999.1  1.0  1.0  5  0 545079925
[16]  B08 1f 42    -52.2 4092000.1  1.0  1.0  5  0 545065878
