FlashID=0x1 0x20 0x18
BBram_blkflag1: 5164: ae9b
FW Ver: 1.30  
GPS00 Init Dop:   5000, 40
GPS01 Init Dop:   5000, 40
GPS02 Init Dop:   5000, 40
GPS03 Init Dop:   5000, 40
GPS04 Init Dop:   5000, 40
GPS05 Init Dop:   5000, 40
GPS06 Init Dop:   5000, 40
GPS07 Init Dop:   5000, 40
GPS08 Init Dop:   5000, 40
GPS09 Init Dop:   5000, 40
GPS10 Init Dop:   5000, 40
GPS11 Init Dop:   5000, 40
GPS12 Init Dop:   5000, 40
GPS13 Init Dop:   5000, 40
GPS14 Init Dop:   5000, 40
GPS15 Init Dop:   5000, 40
GPS16 Init Dop:   5000, 40
GPS17 Init Dop:   5000, 40
GPS18 Init Dop:   5000, 40
GPS19 Init Dop:   5000, 40
GPS20 Init Dop:   5000, 40
GPS21 Init Dop:   5000, 40
GPS22 Init Dop:   5000, 40
GPS23 Init Dop:   5000, 40
GPS24 Init Dop:   5000, 40
GPS25 Init Dop:   5000, 40
GPS26 Init Dop:   5000, 40
GPS27 Init Dop:   5000, 40
GPS28 Init Dop:   5000, 40
GPS29 Init Dop:   5000, 40
GPS30 Init Dop:   5000, 40
GPS31 Init Dop:   5000, 40
BDS00 Init Dop:   5000, 40
BDS01 Init Dop:   5000, 40
BDS02 Init Dop:   5000, 40
BDS03 Init Dop:   5000, 40
BDS04 Init Dop:   5000, 40
BDS05 Init Dop:   5000, 40
BDS06 Init Dop:   5000, 40
BDS07 Init Dop:   5000, 40
BDS08 Init Dop:   5000, 40
BDS09 Init Dop:   5000, 40
BDS10 Init Dop:   5000, 40
BDS11 Init Dop:   5000, 40
BDS12 Init Dop:   5000, 40
BDS13 Init Dop:   5000, 40
BDS14 Init Dop:   5000, 40
BDS15 Init Dop:   5000, 40
BDS16 Init Dop:   5000, 40
BDS17 Init Dop:   5000, 40
BDS18 Init Dop:   5000, 40
BDS19 Init Dop:   5000, 40
BDS20 Init Dop:   5000, 40
BDS21 Init Dop:   5000, 40
BDS22 Init Dop:   5000, 40
BDS23 Init Dop:   5000, 40
BDS24 Init Dop:   5000, 40
BDS25 Init Dop:   5000, 40
BDS26 Init Dop:   5000, 40
BDS27 Init Dop:   5000, 40
BDS28 Init Dop:   5000, 40
BDS29 Init Dop:   5000, 40
BDS30 Init Dop:   5000, 40
BDS31 Init Dop:   5000, 40
---00000001--- Acq_st=3 2019-5-25 03:31:19 
$GNGGA,000000.000,,,,,0,00,,,M,,,,0000*2B
$GNRMC,000000.000,A,,,,,,,000000,,*26
$GPGSA,A,1,,,,,,,,,,,,,,,*1E
$BDGSA,A,1,,,,,,,,,,,,,,,*0F
$LOGTIM,0,0.000000,0.000000,0.000000,0.000000,0.000*0A
EndT:        0
---00000002--- Acq_st=3 2019-5-25 03:31:20 
$GNGGA,000000.000,,,,,0,00,,,M,,,,0000*2B
$GNRMC,000000.000,A,,,,,,,000000,,*26
$GPGSA,A,1,,,,,,,,,,,,,,,*1E
$BDGSA,A,1,,,,,,,,,,,,,,,*0F
$LOGTIM,0,0.000000,0.000000,0.000000,0.000000,0.000*0A
EndT:        0
---00000003--- Acq_st=3 2019-5-25 03:31:21 
$GNGGA,000000.000,,,,,0,00,,,M,,,,0000*2B
$GNRMC,000000.000,A,,,,,,,000000,,*26
$GPGSA,A,1,,,,,,,,,,,,,,,*1E
$BDGSA,A,1,,,,,,,,,,,,,,,*0F
$LOGTIM,0,0.000000,0.000000,0.000000,0.000000,0.000*0A
EndT:        0
---00000004--- Acq_st=3 2019-5-25 03:31:22 
$GNGGA,000000.000,,,,,0,00,,,M,,,,0000*2B
$GNRMC,000000.000,A,,,,,,,000000,,*26
$GPGSA,A,1,,,,,,,,,,,,,,,*1E
$BDGSA,A,1,,,,,,,,,,,,,,,*0F
$LOGTIM,0,0.000000,0.000000,0.000000,0.000000,0.000*0A
EndT:        0
ch0 satid=3,max_freq = -500,max_mean = 24120,max_phase = 1259,max_value = 178922,acq ok1!
acq ok1 timeH = 0,timeL = 72257026,freq_stage = 3
---00000005--- Acq_st=3 2019-5-25 03:31:23 
[00]  G04  1 24    461.0 2045999.0  0.1  0.0  1  0         0
$GNGGA,000000.000,,,,,0,00,,,M,,,,0000*2B
$GNRMC,000000.000,A,,,,,,,000000,,*26
$GPGSA,A,1,,,,,,,,,,,,,,,*1E
$BDGSA,A,1,,,,,,,,,,,,,,,*0F
$LOGTIM,0,0.000000,0.000000,0.000000,0.000000,0.000*0A
EndT:        0
---00000006--- Acq_st=3 2019-5-25 03:31:24 
[00]  G04  7 22    464.9 2045999.4  0.3  0.0 20  0        12
$GNGGA,000000.000,,,,,0,00,,,M,,,,0000*2B
$GNRMC,000000.000,A,,,,,,,000000,,*26
$GPGSA,A,1,,,,,,,,,,,,,,,*1E
$BDGSA,A,1,,,,,,,,,,,,,,,*0F
$GPGSV,1,1,01,04,00,000,22*4C
$LOGTIM,0,0.000000,0.000000,0.000000,0.000000,0.000*0A
EndT:        0
---00000007--- Acq_st=3 2019-5-25 03:31:25 
[00]  G04  7 37    467.8 2045999.4  0.7  1.0  5  0        17
$GNGGA,000000.000,,,,,0,00,,,M,,,,0000*2B
$GNRMC,000000.000,A,,,,,,,000000,,*26
$GPGSA,A,1,,,,,,,,,,,,,,,*1E
$BDGSA,A,1,,,,,,,,,,,,,,,*0F
$GPGSV,1,1,01,04,00,000,37*48
$LOGTIM,0,0.000000,0.000000,0.000000,0.000000,0.000*0A
EndT:        0
ch1 satid=6,max_freq = 2750,max_mean = 23714,max_phase = 901,max_value = 959108,acq ok1!
acq ok1 timeH = 0,timeL = 131660588,freq_stage = 2
---00000008--- Acq_st=3 2019-5-25 03:31:26 
[00]  G04  7 36    470.6 2045999.4  1.0  1.0  5  0        17
[01]  G07  1  7  -2772.7 2046004.3 -0.0  0.0  1  0         0
$GNGGA,000000.000,,,,,0,00,,,M,,,,0000*2B
$GNRMC,000000.000,A,,,,,,,000000,,*26
$GPGSA,A,1,,,,,,,,,,,,,,,*1E
$BDGSA,A,1,,,,,,,,,,,,,,,*0F
$GPGSV,1,1,01,04,00,000,36*49
$LOGTIM,0,0.000000,0.000000,0.000000,0.000000,0.000*0A
EndT:        0
ch2 satid=7,max_freq = 0,max_mean = 23142,max_phase = 865,max_value = 443909,acq ok1!
acq ok1 timeH = 0,timeL = 157113800,freq_stage = 3
---00000009--- Acq_st=3 2019-5-25 03:31:27 
[00]  G04  7 37    475.7 2045999.3  1.0  1.0  5  0        17
[01]  G07  1 30  -2792.8 2046003.7  0.1  0.0  1  0        17
[02]  G08  1  7     16.0 2046001.7  0.1  0.0  1  0         0
$GNGGA,000000.000,,,,,0,00,,,M,,,,0000*2B
$GNRMC,000000.000,A,,,,,,,000000,,*26
$GPGSA,A,1,,,,,,,,,,,,,,,*1E
$BDGSA,A,1,,,,,,,,,,,,,,,*0F
$GPGSV,1,1,01,04,00,000,37*48
$LOGTIM,0,0.000000,0.000000,0.000000,0.000000,0.000*0A
EndT:        0
---00000010--- Acq_st=3 2019-5-25 03:31:28 
[00]  G04  7 36    472.3 2045999.4  1.0  1.0  5  0        17
[01]  G07  7 39  -2796.1 2046003.6  0.9  1.0  5  0        17
[02]  G08  1 28     30.7 2046000.8  0.2  0.0  1  0        13
$GNGGA,000000.000,,,,,0,00,,,M,,,,0000*2B
$GNRMC,000000.000,A,,,,,,,000000,,*26
$GPGSA,A,1,,,,,,,,,,,,,,,*1E
$BDGSA,A,1,,,,,,,,,,,,,,,*0F
$GPGSV,1,1,02,04,00,000,36,07,00,000,39*77
$LOGTIM,0,0.000000,0.000000,0.000000,0.000000,0.000*0A
EndT:        0
---00000011--- Acq_st=3 2019-5-25 03:31:29 
[00]  G04  7 37    466.1 2045999.4  1.0  1.0  5  0        17
[01]  G07  7 45  -2802.3 2046003.6  1.0  1.0  5  0         2
[02]  G08  7 35     24.3 2045999.9  0.4  1.0  5  0        13
$GNGGA,000000.000,,,,,0,00,,,M,,,,0000*2B
$GNRMC,000000.000,A,,,,,,,000000,,*26
$GPGSA,A,1,,,,,,,,,,,,,,,*1E
$BDGSA,A,1,,,,,,,,,,,,,,,*0F
$GPGSV,1,1,03,04,00,000,37,07,00,000,45,08,00,000,35*42
$LOGTIM,0,0.000000,0.000000,0.000000,0.000000,0.000*0A
EndT:        0
---00000012--- Acq_st=3 2019-5-25 03:31:30 
[00]  G04  7 37    467.0 2045999.4  1.0  1.0  5  0        17
[01]  G07  7 45  -2801.5 2046003.6  1.0  1.0  5  0         2
[02]  G08  7 42     25.4 2045999.9  1.0  1.0  5  0         7
$GNGGA,000000.000,,,,,0,00,,,M,,,,0000*2B
$GNRMC,000000.000,A,,,,,,,000000,,*26
$GPGSA,A,1,,,,,,,,,,,,,,,*1E
$BDGSA,A,1,,,,,,,,,,,,,,,*0F
$GPGSV,1,1,03,04,00,000,37,07,00,000,45,08,00,000,42*42
$LOGTIM,0,0.000000,0.000000,0.000000,0.000000,0.000*0A
EndT:        0
---00000013--- Acq_st=3 2019-5-25 03:31:31 
[00]  G04  f 36    472.7 2045999.4  1.0  1.0  5  0        17
[01]  G07  f 45  -2795.9 2046003.6  1.0  1.0  5  0         2
[02]  G08  f 43     30.5 2045999.9  1.0  1.0  5  0         7
$GNGGA,000000.000,,,,,0,00,,,M,,,,0000*2B
$GNRMC,000000.000,A,,,,,,,000000,,*26
$GPGSA,A,1,,,,,,,,,,,,,,,*1E
$BDGSA,A,1,,,,,,,,,,,,,,,*0F
$GPGSV,1,1,03,04,00,000,36,07,00,000,45,08,00,000,43*42
$LOGTIM,0,0.000000,0.000000,0.000000,0.000000,0.000*0A
EndT:        0
---00000014--- Acq_st=3 2019-5-25 03:31:32 
[00]  G04  f 37    469.5 2045999.4  1.0  1.0  5  0 531109917
[01]  G07  f 46  -2798.9 2046003.6  1.0  1.0  5  0 531109922
[02]  G08  f 43     28.1 2046000.0  1.0  1.0  5  0 531109927
$GNGGA,000000.000,,,,,0,00,,,M,,,,0000*2B
$GNRMC,000000.000,A,,,,,,,000000,,*26
$GPGSA,A,1,,,,,,,,,,,,,,,*1E
$BDGSA,A,1,,,,,,,,,,,,,,,*0F
$GPGSV,1,1,03,04,00,000,37,07,00,000,46,08,00,000,43*40
$LOGTIM,0,0.000000,0.000000,0.000000,0.000000,0.000*0A
EndT:        0
---00000015--- Acq_st=3 2019-5-25 03:31:33 
[00]  G04  f 37    467.7 2045999.4  1.0  1.0  5  0 531110917
[01]  G07  f 46  -2802.1 2046003.6  1.0  1.0  5  0 531110922
[02]  G08  f 43     24.9 2046000.0  1.0  1.0  5  0 531110927
$GNGGA,000000.000,,,,,0,00,,,M,,,,0000*2B
$GNRMC,000000.000,A,,,,,,,000000,,*26
$GPGSA,A,1,,,,,,,,,,,,,,,*1E
$BDGSA,A,1,,,,,,,,,,,,,,,*0F
$GPGSV,1,1,03,04,00,000,37,07,00,000,46,08,00,000,43*40
$LOGTIM,0,0.000000,0.000000,0.000000,0.000000,0.000*0A
EndT:        0
---00000016--- Acq_st=3 2019-5-25 03:31:34 
[00]  G04  f 37    466.6 2045999.4  1.0  1.0  5  0 531111917
[01]  G07  f 45  -2801.8 2046003.6  1.0  1.0  5  0 531111922
[02]  G08  f 43     25.2 2045999.9  1.0  1.0  5  0 531111927
$GNGGA,000000.000,,,,,0,00,,,M,,,,0000*2B
$GNRMC,000000.000,A,,,,,,,000000,,*26
$GPGSA,A,1,,,,,,,,,,,,,,,*1E
$BDGSA,A,1,,,,,,,,,,,,,,,*0F
$GPGSV,1,1,03,04,00,000,37,07,00,000,45,08,00,000,43*43
$LOGTIM,0,0.000000,0.000000,0.000000,0.000000,0.000*0A
EndT:        0
---00000017--- Acq_st=3 2019-5-25 03:31:35 
[00]  G04  f 36    467.3 2045999.4  1.0  1.0  5  0 531112917
[01]  G07  f 45  -2802.2 2046003.6  1.0  1.0  5  0 531112922
[02]  G08  f 43     24.9 2046000.0  1.0  1.0  5  0 531112927
$GNGGA,000000.000,,,,,0,00,,,M,,,,0000*2B
$GNRMC,000000.000,A,,,,,,,000000,,*26
$GPGSA,A,1,,,,,,,,,,,,,,,*1E
$BDGSA,A,1,,,,,,,,,,,,,,,*0F
$GPGSV,1,1,03,04,00,000,36,07,00,000,45,08,00,000,43*42
$LOGTIM,0,0.000000,0.000000,0.000000,0.000000,0.000*0A
EndT:        0
ch3 satid=15,max_freq = -1500,max_mean = 23075,max_phase = 1702,max_value = 362299,acq ok1!
acq ok1 timeH = 0,timeL = 331066292,freq_stage = 4
---00000018--- Acq_st=3 2019-5-25 03:31:36 
[00]  G04  f 37    469.3 2045999.4  1.0  1.0  5  0 531113917
[01]  G07  f 46  -2800.4 2046003.6  1.0  1.0  5  0 531113922
[02]  G08  f 43     26.7 2046000.0  1.0  1.0  5  0 531113927
[03]  G16  1 18   1506.7 2045999.2  0.1  0.0  1  0         0
$GNGGA,000000.000,,,,,0,00,,,M,,,,0000*2B
$GNRMC,000000.000,A,,,,,,,000000,,*26
$GPGSA,A,1,,,,,,,,,,,,,,,*1E
$BDGSA,A,1,,,,,,,,,,,,,,,*0F
$GPGSV,1,1,03,04,00,000,37,07,00,000,46,08,00,000,43*40
$LOGTIM,0,0.000000,0.000000,0.000000,0.000000,0.000*0A
EndT:        0
---00000019--- Acq_st=3 2019-5-25 03:31:37 
[00]  G04  f 37    470.6 2045999.4  1.0  1.0  5  0 531114917
[01]  G07  f 46  -2799.0 2046003.6  1.0  1.0  5  0 531114922
[02]  G08  f 43     28.3 2045999.9  1.0  1.0  5  0 531114927
[03]  G16  1 27   1503.9 2045997.8  0.5  0.0  1  0        13
$GNGGA,000000.000,,,,,0,00,,,M,,,,0000*2B
$GNRMC,000000.000,A,,,,,,,000000,,*26
$GPGSA,A,1,,,,,,,,,,,,,,,*1E
$BDGSA,A,1,,,,,,,,,,,,,,,*0F
$GPGSV,1,1,03,04,00,000,37,07,00,000,46,08,00,000,43*40
$LOGTIM,0,0.000000,0.000000,0.000000,0.000000,0.000*0A
EndT:        0
---00000020--- Acq_st=3 2019-5-25 03:31:38 
[00]  G04  f 37    473.3 2045999.4  1.0  1.0  5  0 531115917
[01]  G07  f 46  -2796.0 2046003.6  1.0  1.0  5  0 531115922
[02]  G08  f 42     31.1 2046000.0  1.0  1.0  5  0 531115927
[03]  G16  7 38   1506.5 2045998.0  0.9  1.0  5  0        19
$GNGGA,000000.000,,,,,0,00,,,M,,,,0000*2B
$GNRMC,000000.000,A,,,,,,,000000,,*26
$GPGSA,A,1,,,,,,,,,,,,,,,*1E
$BDGSA,A,1,,,,,,,,,,,,,,,*0F
$GPGSV,1,1,04,04,00,000,37,07,00,000,46,08,00,000,42,16,00,000,38*7A
$LOGTIM,0,0.000000,0.000000,0.000000,0.000000,0.000*0A
EndT:        0
---00000021--- Acq_st=3 2019-5-25 03:31:39 
[00]  G04  f 37    480.5 2045999.5  1.0  1.0  5  0 531116917
[01]  G07  f 46  -2789.4 2046003.6  1.0  1.0  5  0 531116922
[02]  G08  f 42     37.9 2045999.9  1.0  1.0  5  0 531116927
[03]  G16  7 39   1512.9 2045998.0  1.0  1.0  5  0        19
$GNGGA,000000.000,,,,,0,00,,,M,,,,0000*2B
$GNRMC,000000.000,A,,,,,,,000000,,*26
$GPGSA,A,1,,,,,,,,,,,,,,,*1E
$BDGSA,A,1,,,,,,,,,,,,,,,*0F
$GPGSV,1,1,04,04,00,000,37,07,00,000,46,08,00,000,42,16,00,000,39*7B
$LOGTIM,0,0.000000,0.000000,0.000000,0.000000,0.000*0A
EndT:        0
---00000022--- Acq_st=3 2019-5-25 03:31:40 
[00]  G04  f 37    483.0 2045999.4  1.0  1.0  5  0 531117917
[01]  G07  f 46  -2786.0 2046003.6  1.0  1.0  5  0 531117922
[02]  G08  f 43     41.1 2045999.9  1.0  1.0  5  0 531117927
[03]  G16  7 40   1515.6 2045998.0  1.0  1.0  5  0        19
$GNGGA,000000.000,,,,,0,00,,,M,,,,0000*2B
$GNRMC,000000.000,A,,,,,,,000000,,*26
$GPGSA,A,1,,,,,,,,,,,,,,,*1E
$BDGSA,A,1,,,,,,,,,,,,,,,*0F
$GPGSV,1,1,04,04,00,000,37,07,00,000,46,08,00,000,43,16,00,000,40*74
$LOGTIM,0,0.000000,0.000000,0.000000,0.000000,0.000*0A
EndT:        0
---00000023--- Acq_st=3 2019-5-25 03:31:41 
[00]  G04  f 37    481.9 2045999.4  1.0  1.0  5  0 531118917
[01]  G07  f 47  -2788.5 2046003.6  1.0  1.0  5  0 531118922
[02]  G08  f 43     38.9 2046000.0  1.0  1.0  5  0 531118927
[03]  G16  7 40   1513.2 2045998.0  1.0  1.0  5  0        19
$GNGGA,000000.000,,,,,0,00,,,M,,,,0000*2B
$GNRMC,000000.000,A,,,,,,,000000,,*26
$GPGSA,A,1,,,,,,,,,,,,,,,*1E
$BDGSA,A,1,,,,,,,,,,,,,,,*0F
$GPGSV,1,1,04,04,00,000,37,07,00,000,47,08,00,000,43,16,00,000,40*75
$LOGTIM,0,0.000000,0.000000,0.000000,0.000000,0.000*0A
EndT:        0
---00000024--- Acq_st=3 2019-5-25 03:31:42 
[00]  G04  f 36    478.3 2045999.3  1.0  1.0  5  0 531119917
[01]  G07  f 46  -2791.9 2046003.6  1.0  1.0  5  0 531119922
[02]  G08  f 43     35.7 2046000.0  1.0  1.0  5  0 531119927
[03]  G16  7 40   1509.4 2045998.0  1.0  1.0  5  0        19
$GNGGA,000000.000,,,,,0,00,,,M,,,,0000*2B
$GNRMC,000000.000,A,,,,,,,000000,,*26
$GPGSA,A,1,,,,,,,,,,,,,,,*1E
$BDGSA,A,1,,,,,,,,,,,,,,,*0F
$GPGSV,1,1,04,04,00,000,36,07,00,000,46,08,00,000,43,16,00,000,40*75
$LOGTIM,0,0.000000,0.000000,0.000000,0.000000,0.000*0A
EndT:        0
---00000025--- Acq_st=3 2019-5-25 03:31:43 
[00]  G04  f 36    477.2 2045999.4  1.0  1.0  5  0 531120917
[01]  G07  f 46  -2792.6 2046003.6  1.0  1.0  5  0 531120922
[02]  G08  f 42     34.7 2046000.0  1.0  1.0  5  0 531120927
[03]  G16  f 40   1508.6 2045998.1  1.0  1.0  5  0        19
$GNGGA,000000.000,,,,,0,00,,,M,,,,0000*2B
$GNRMC,000000.000,A,,,,,,,000000,,*26
$GPGSA,A,1,,,,,,,,,,,,,,,*1E
$BDGSA,A,1,,,,,,,,,,,,,,,*0F
$GPGSV,1,1,04,04,00,000,36,07,00,000,46,08,00,000,42,16,00,000,40*74
$LOGTIM,0,0.000000,0.000000,0.000000,0.000000,0.000*0A
EndT:        0
---00000026--- Acq_st=3 2019-5-25 03:31:44 
[00]  G04  f 36    478.7 2045999.4  1.0  1.0  5  0 531121917
[01]  G07  f 46  -2791.5 2046003.6  1.0  1.0  5  0 531121922
[02]  G08  f 43     35.9 2045999.9  1.0  1.0  5  0 531121927
[03]  G16  f 39   1509.7 2045998.0  1.0  1.0  5  0 531121919
$GNGGA,000000.000,,,,,0,00,,,M,,,,0000*2B
$GNRMC,000000.000,A,,,,,,,000000,,*26
$GPGSA,A,1,,,,,,,,,,,,,,,*1E
$BDGSA,A,1,,,,,,,,,,,,,,,*0F
$GPGSV,1,1,04,04,00,000,36,07,00,000,46,08,00,000,43,16,00,000,39*7B
$LOGTIM,0,0.000000,0.000000,0.000000,0.000000,0.000*0A
EndT:        0
---00000027--- Acq_st=3 2019-5-25 03:31:45 
[00]  G04  f 36    481.6 2045999.4  1.0  1.0  5  0 531122917
[01]  G07  f 46  -2788.9 2046003.7  1.0  1.0  5  0 531122922
[02]  G08  f 42     38.7 2046000.0  1.0  1.0  5  0 531122927
[03]  G16  f 39   1511.9 2045998.0  1.0  1.0  5  0 531122919
$GNGGA,000000.000,,,,,0,00,,,M,,,,0000*2B
$GNRMC,000000.000,A,,,,,,,000000,,*26
$GPGSA,A,1,,,,,,,,,,,,,,,*1E
$BDGSA,A,1,,,,,,,,,,,,,,,*0F
$GPGSV,1,1,04,04,00,000,36,07,00,000,46,08,00,000,42,16,00,000,39*7A
$LOGTIM,0,0.000000,0.000000,0.000000,0.000000,0.000*0A
EndT:        0
---00000028--- Acq_st=3 2019-5-25 03:31:46 
[00]  G04  f 35    482.9 2045999.4  1.0  1.0  5  0 531123917
[01]  G07  f 46  -2788.0 2046003.6  1.0  1.0  5  0 531123922
[02]  G08  f 43     39.7 2045999.9  1.0  1.0  5  0 531123927
[03]  G16  f 38   1512.9 2045998.0  1.0  1.0  5  0 531123919
$GNGGA,000000.000,,,,,0,00,,,M,,,,0000*2B
$GNRMC,000000.000,A,,,,,,,000000,,*26
$GPGSA,A,1,,,,,,,,,,,,,,,*1E
$BDGSA,A,1,,,,,,,,,,,,,,,*0F
$GPGSV,1,1,04,04,00,000,35,07,00,000,46,08,00,000,43,16,00,000,38*79
$LOGTIM,0,0.000000,0.000000,0.000000,0.000000,0.000*0A
EndT:        0
---00000029--- Acq_st=3 2019-5-25 03:31:47 
[00]  G04  f 35    482.7 2045999.4  1.0  0.9  5  0 531124917
[01]  G07  f 46  -2788.2 2046003.7  1.0  1.0  5  0 531124922
[02]  G08  f 43     39.5 2045999.9  1.0  1.0  5  0 531124927
[03]  G16  f 39   1512.1 2045998.1  1.0  1.0  5  0 531124919
$GNGGA,000000.000,,,,,0,00,,,M,,,,0000*2B
$GNRMC,000000.000,A,,,,,,,000000,,*26
$GPGSA,A,1,,,,,,,,,,,,,,,*1E
$BDGSA,A,1,,,,,,,,,,,,,,,*0F
$GPGSV,1,1,04,04,00,000,35,07,00,000,46,08,00,000,43,16,00,000,39*78
$LOGTIM,0,0.000000,0.000000,0.000000,0.000000,0.000*0A
EndT:        0
ch4 satid=26,max_freq = -2000,max_mean = 22064,max_phase = 1167,max_value = 123647,acq ok1!
acq ok1 timeH = 0,timeL = 564422356,freq_stage = 4
---00000030--- Acq_st=3 2019-5-25 03:31:48 
[00]  G04  f 35    481.9 2045999.4  1.0  1.0  5  0 531125917
[01]  G07  f 45  -2789.2 2046003.6  1.0  1.0  5  0 531125922
[02]  G08  f 43     38.5 2045999.9  1.0  1.0  5  0 531125927
[03]  G16  f 39   1510.9 2045998.0  1.0  1.0  5  0 531125919
[04]  G27  1  7   2070.7 2045999.1 -0.0  0.0  1  0         0
$GNGGA,000000.000,,,,,0,00,,,M,,,,0000*2B
$GNRMC,000000.000,A,,,,,,,000000,,*26
$GPGSA,A,1,,,,,,,,,,,,,,,*1E
$BDGSA,A,1,,,,,,,,,,,,,,,*0F
$GPGSV,1,1,04,04,00,000,35,07,00,000,45,08,00,000,43,16,00,000,39*7B
$LOGTIM,0,0.000000,0.000000,0.000000,0.000000,0.000*0A
EndT:        0
---00000031--- Acq_st=3 2019-5-25 03:31:49 
[00]  G04  f 35    485.8 2045999.4  1.0  1.0  5  0 531126917
[01]  G07  f 45  -2784.5 2046003.6  1.0  1.0  5  0 531126922
[02]  G08  f 43     42.7 2045999.9  1.0  1.0  5  0 531126927
[03]  G16  f 39   1515.0 2045998.0  1.0  1.0  5  0 531126919
[04]  G27  1 31   2015.2 2045998.0  0.2  0.0  1  0        19
$GNGGA,000000.000,,,,,0,00,,,M,,,,0000*2B
$GNRMC,000000.000,A,,,,,,,000000,,*26
$GPGSA,A,1,,,,,,,,,,,,,,,*1E
$BDGSA,A,1,,,,,,,,,,,,,,,*0F
$GPGSV,1,1,04,04,00,000,35,07,00,000,45,08,00,000,43,16,00,000,39*7B
$LOGTIM,0,0.000000,0.000000,0.000000,0.000000,0.000*0A
EndT:        0
---00000032--- Acq_st=3 2019-5-25 03:31:50 
[00]  G04  f 35    486.2 2045999.3  1.0  1.0  5  0 531127917
[01]  G07  f 45  -2784.4 2046003.7  1.0  1.0  5  0 531127922
[02]  G08  f 43     42.9 2045999.9  1.0  1.0  5  0 531127927
[03]  G16  f 39   1514.7 2045998.0  1.0  1.0  5  0 531127919
[04]  G27  7 31   2013.4 2045997.4  0.4  1.0  5  0        19
$GNGGA,000000.000,,,,,0,00,,,M,,,,0000*2B
$GNRMC,000000.000,A,,,,,,,000000,,*26
$GPGSA,A,1,,,,,,,,,,,,,,,*1E
$BDGSA,A,1,,,,,,,,,,,,,,,*0F
$GPGSV,2,1,05,04,00,000,35,07,00,000,45,08,00,000,43,16,00,000,39*79
$GPGSV,2,2,05,27,00,000,31*4B
$LOGTIM,0,0.000000,0.000000,0.000000,0.000000,0.000*0A
EndT:        0
---00000033--- Acq_st=3 2019-5-25 03:31:51 
[00]  G04  f 35    488.4 2045999.4  1.0  1.0  5  0 531128917
[01]  G07  f 45  -2782.6 2046003.6  1.0  1.0  5  0 531128922
[02]  G08  f 43     44.8 2045999.9  1.0  1.0  5  0 531128927
[03]  G16  f 40   1515.9 2045998.0  1.0  1.0  5  0 531128919
[04]  G27  7 35   2015.7 2045997.3  1.0  1.0  5  0         3
$GNGGA,000000.000,,,,,0,00,,,M,,,,0000*2B
$GNRMC,000000.000,A,,,,,,,000000,,*26
$GPGSA,A,1,,,,,,,,,,,,,,,*1E
$BDGSA,A,1,,,,,,,,,,,,,,,*0F
$GPGSV,2,1,05,04,00,000,35,07,00,000,45,08,00,000,43,16,00,000,40*77
$GPGSV,2,2,05,27,00,000,35*4F
$LOGTIM,0,0.000000,0.000000,0.000000,0.000000,0.000*0A
EndT:        0
ch5 satid=29,max_freq = 3750,max_mean = 21807,max_phase = 1264,max_value = 240419,acq ok1!
acq ok1 timeH = 0,timeL = 615347406,freq_stage = 1
---00000034--- Acq_st=3 2019-5-25 03:31:52 
[00]  G04  f 35    488.8 2045999.3  1.0  0.9  5  0 531129917
[01]  G07  f 45  -2782.1 2046003.6  1.0  1.0  5  0 531129922
[02]  G08  f 43     45.1 2045999.9  1.0  1.0  5  0 531129927
[03]  G16  f 40   1516.5 2045998.0  1.0  1.0  5  0 531129919
[04]  G27  7 36   2016.6 2045997.3  1.0  1.0  5  0         3
[05]  G30  1 25  -3713.0 2046005.0  0.0  0.0  1  0         0
$GNGGA,000000.000,,,,,0,00,,,M,,,,0000*2B
$GNRMC,000000.000,A,,,,,,,000000,,*26
$GPGSA,A,1,,,,,,,,,,,,,,,*1E
$BDGSA,A,1,,,,,,,,,,,,,,,*0F
$GPGSV,2,1,05,04,00,000,35,07,00,000,45,08,00,000,43,16,00,000,40*77
$GPGSV,2,2,05,27,00,000,36*4C
$LOGTIM,0,0.000000,0.000000,0.000000,0.000000,0.000*0A
EndT:        0
---00000035--- Acq_st=3 2019-5-25 03:31:53 
[00]  G04  f 35    490.2 2045999.4  1.0  0.9  5  0 531130917
[01]  G07  f 45  -2781.1 2046003.6  1.0  1.0  5  0 531130922
[02]  G08  f 43     46.5 2045999.9  1.0  1.0  5  0 531130927
[03]  G16  f 39   1517.2 2045998.0  1.0  1.0  5  0 531130919
[04]  G27  7 37   2017.1 2045997.3  1.0  0.9  5  0         3
[05]  G30  7 28  -3703.2 2046004.8  0.3  1.0 10  0         5
$GNGGA,000000.000,,,,,0,00,,,M,,,,0000*2B
$GNRMC,000000.000,A,,,,,,,000000,,*26
$GPGSA,A,1,,,,,,,,,,,,,,,*1E
$BDGSA,A,1,,,,,,,,,,,,,,,*0F
$GPGSV,2,1,06,04,00,000,35,07,00,000,45,08,00,000,43,16,00,000,39*7A
$GPGSV,2,2,06,27,00,000,37,30,00,000,28*77
$LOGTIM,0,0.000000,0.000000,0.000000,0.000000,0.000*0A
EndT:        0
---00000036--- Acq_st=3 2019-5-25 03:31:54 
[00]  G04  f 35    491.1 2045999.3  1.0  1.0  5  0 531131917
[01]  G07  f 45  -2779.6 2046003.6  1.0  1.0  5  0 531131922
[02]  G08  f 43     47.8 2045999.9  1.0  1.0  5  0 531131927
[03]  G16  f 40   1518.8 2045998.0  1.0  1.0  5  0 531131919
[04]  G27  7 38   2018.5 2045997.3  1.0  1.0  5  0         3
[05]  G30  7 39  -3701.6 2046004.8  1.0  1.0  5  0        14
$GNGGA,000000.000,,,,,0,00,,,M,,,,0000*2B
$GNRMC,000000.000,A,,,,,,,000000,,*26
$GPGSA,A,1,,,,,,,,,,,,,,,*1E
$BDGSA,A,1,,,,,,,,,,,,,,,*0F
$GPGSV,2,1,06,04,00,000,35,07,00,000,45,08,00,000,43,16,00,000,40*74
$GPGSV,2,2,06,27,00,000,38,30,00,000,39*78
$LOGTIM,0,0.000000,0.000000,0.000000,0.000000,0.000*0A
EndT:        0
---00000037--- Acq_st=3 2019-5-25 03:31:55 
[00]  G04  f 35    489.6 2045999.3  1.0  1.0  5  0 531132917
[01]  G07  f 45  -2781.9 2046003.6  1.0  1.0  5  0 531132922
[02]  G08  f 44     45.2 2045999.9  1.0  1.0  5  0 531132927
[03]  G16  f 39   1515.4 2045998.0  1.0  1.0  5  0 531132919
[04]  G27  f 39   2015.1 2045997.4  1.0  1.0  5  0         3
[05]  G30  f 40  -3705.1 2046004.8  1.0  1.0  5  0        14
$GNGGA,000000.000,,,,,0,00,,,M,,,,0000*2B
$GNRMC,000000.000,A,,,,,,,000000,,*26
$GPGSA,A,1,,,,,,,,,,,,,,,*1E
$BDGSA,A,1,,,,,,,,,,,,,,,*0F
$GPGSV,2,1,06,04,00,000,35,07,00,000,45,08,00,000,44,16,00,000,39*7D
$GPGSV,2,2,06,27,00,000,39,30,00,000,40*77
$LOGTIM,0,0.000000,0.000000,0.000000,0.000000,0.000*0A
EndT:        0
---00000038--- Acq_st=3 2019-5-25 03:31:56 
[00]  G04  f 35    491.2 2045999.4  1.0  1.0  5  0 531133917
[01]  G07  f 44  -2781.0 2046003.6  1.0  1.0  5  0 531133922
[02]  G08  f 43     46.2 2045999.9  1.0  1.0  5  0 531133927
[03]  G16  f 40   1516.2 2045998.0  1.0  1.0  5  0 531133919
[04]  G27  f 39   2016.9 2045997.3  1.0  1.0  5  0 531133923
[05]  G30  f 40  -3704.2 2046004.8  1.0  1.0  5  0 531133914
$GNGGA,000000.000,,,,,0,00,,,M,,,,0000*2B
$GNRMC,000000.000,A,,,,,,,000000,,*26
$GPGSA,A,1,,,,,,,,,,,,,,,*1E
$BDGSA,A,1,,,,,,,,,,,,,,,*0F
$GPGSV,2,1,06,04,00,000,35,07,00,000,44,08,00,000,43,16,00,000,40*75
$GPGSV,2,2,06,27,00,000,39,30,00,000,40*77
$LOGTIM,0,0.000000,0.000000,0.000000,0.000000,0.000*0A
EndT:        0
---00000039--- Acq_st=3 2019-5-25 03:31:57 
[00]  G04  f 35    493.3 2045999.4  1.0  0.9  5  0 531134917
[01]  G07  f 45  -2779.1 2046003.6  1.0  1.0  5  0 531134922
[02]  G08  f 44     49.0 2045999.9  1.0  1.0  5  0 531134927
[03]  G16  f 40   1518.3 2045998.1  1.0  1.0  5  0 531134919
[04]  G27  f 40   2018.8 2045997.3  1.0  1.0  5  0 531134923
[05]  G30  f 40  -3702.2 2046004.8  1.0  1.0  5  0 531134914
$GNGGA,000000.000,,,,,0,00,,,M,,,,0000*2B
$GNRMC,000000.000,A,,,,,,,000000,,*26
$GPGSA,A,1,,,,,,,,,,,,,,,*1E
$BDGSA,A,1,,,,,,,,,,,,,,,*0F
$GPGSV,2,1,06,04,00,000,35,07,00,000,45,08,00,000,44,16,00,000,40*73
$GPGSV,2,2,06,27,00,000,40,30,00,000,40*79
$LOGTIM,0,0.000000,0.000000,0.000000,0.000000,0.000*0A
EndT:        0
---00000040--- Acq_st=3 2019-5-25 03:31:58 
[00]  G04  f 35    494.8 2045999.4  1.0  0.9  5  0 531135917
[01]  G07  f 45  -2777.6 2046003.6  1.0  1.0  5  0 531135922
[02]  G08  f 43     50.3 2045999.9  1.0  1.0  5  0 531135927
[03]  G16  f 40   1519.4 2045998.0  1.0  1.0  5  0 531135919
[04]  G27  f 40   2020.3 2045997.4  1.0  1.0  5  0 531135923
[05]  G30  f 40  -3700.8 2046004.8  1.0  1.0  5  0 531135914
$GNGGA,000000.000,,,,,0,00,,,M,,,,0000*2B
$GNRMC,000000.000,A,,,,,,,000000,,*26
$GPGSA,A,1,,,,,,,,,,,,,,,*1E
$BDGSA,A,1,,,,,,,,,,,,,,,*0F
$GPGSV,2,1,06,04,00,000,35,07,00,000,45,08,00,000,43,16,00,000,40*74
$GPGSV,2,2,06,27,00,000,40,30,00,000,40*79
$LOGTIM,0,0.000000,0.000000,0.000000,0.000000,0.000*0A
EndT:        0
---00000041--- Acq_st=3 2019-5-25 03:31:59 
[00]  G04  f 35    492.1 2045999.4  1.0  1.0  5  0 531136917
[01]  G07  f 44  -2779.7 2046003.6  1.0  1.0  5  0 531136922
[02]  G08  f 44     48.4 2045999.9  1.0  1.0  5  0 531136927
[03]  G16  f 40   1516.9 2045998.0  1.0  1.0  5  0 531136919
[04]  G27  f 40   2017.8 2045997.3  1.0  1.0  5  0 531136923
[05]  G30  f 40  -3703.8 2046004.8  1.0  1.0  5  0 531136914
$GNGGA,000000.000,,,,,0,00,,,M,,,,0000*2B
$GNRMC,000000.000,A,,,,,,,000000,,*26
$GPGSA,A,1,,,,,,,,,,,,,,,*1E
$BDGSA,A,1,,,,,,,,,,,,,,,*0F
$GPGSV,2,1,06,04,00,000,35,07,00,000,44,08,00,000,44,16,00,000,40*72
$GPGSV,2,2,06,27,00,000,40,30,00,000,40*79
$LOGTIM,0,0.000000,0.000000,0.000000,0.000000,0.000*0A
EndT:        0
---00000042--- Acq_st=3 2019-5-25 03:32:0 
[00]  G04  f 34    492.1 2045999.3  1.0  1.0  5 3f 531137917
[01]  G07  f 45  -2780.9 2046003.6  1.0  1.0  5  0 531137922
[02]  G08  f 44     47.4 2045999.9  1.0  1.0  5  0 531137927
[03]  G16  f 40   1515.8 2045998.0  1.0  1.0  5  0 531137919
[04]  G27  f 41   2016.8 2045997.4  1.0  1.0  5  0 531137923
[05]  G30  f 40  -3704.3 2046004.8  1.0  1.0  5  0 531137914
$GNGGA,000000.000,,,,,0,00,,,M,,,,0000*2B
$GNRMC,000000.000,A,,,,,,,000000,,*26
$GPGSA,A,1,,,,,,,,,,,,,,,*1E
$BDGSA,A,1,,,,,,,,,,,,,,,*0F
$GPGSV,2,1,06,04,00,000,34,07,00,000,45,08,00,000,44,16,00,000,40*72
$GPGSV,2,2,06,27,00,000,41,30,00,000,40*78
$LOGTIM,0,0.000000,0.000000,0.000000,0.000000,0.000*0A
EndT:        0
---00000043--- Acq_st=3 2019-5-25 03:32:1 
[00]  G04  f 35    490.0 2045999.3  1.0  1.0  5 3f 531138917
[01]  G07  f 45  -2781.6 2046003.6  1.0  1.0  5  0 531138922
[02]  G08  f 44     45.9 2046000.0  1.0  1.0  5  0 531138927
[03]  G16  f 40   1514.0 2045998.0  1.0  1.0  5  0 531138919
[04]  G27  f 42   2015.5 2045997.4  1.0  1.0  5  0 531138923
[05]  G30  f 40  -3706.2 2046004.8  1.0  1.0  5  0 531138914
$GNGGA,000000.000,,,,,0,00,,,M,,,,0000*2B
$GNRMC,000000.000,A,,,,,,,000000,,*26
$GPGSA,A,1,,,,,,,,,,,,,,,*1E
$BDGSA,A,1,,,,,,,,,,,,,,,*0F
$GPGSV,2,1,06,04,00,000,35,07,00,000,45,08,00,000,44,16,00,000,40*73
$GPGSV,2,2,06,27,00,000,42,30,00,000,40*7B
$LOGTIM,0,0.000000,0.000000,0.000000,0.000000,0.000*0A
EndT:        0
---00000044--- Acq_st=3 2019-5-25 03:32:2 
[00]  G04  f 34    490.5 2045999.4  1.0  1.0  5 3f 531139917
[01]  G07  f 45  -2781.9 2046003.6  1.0  1.0  5  0 531139922
[02]  G08  f 44     45.8 2046000.0  1.0  1.0  5  0 531139927
[03]  G16  f 40   1513.6 2045998.1  1.0  1.0  5  0 531139919
[04]  G27  f 42   2015.0 2045997.4  1.0  1.0  5  0 531139923
[05]  G30  f 40  -3706.8 2046004.8  1.0  0.9  5  0 531139914
$GNGGA,000000.000,,,,,0,00,,,M,,,,0000*2B
$GNRMC,000000.000,A,,,,,,,000000,,*26
$GPGSA,A,1,,,,,,,,,,,,,,,*1E
$BDGSA,A,1,,,,,,,,,,,,,,,*0F
$GPGSV,2,1,06,04,00,000,34,07,00,000,45,08,00,000,44,16,00,000,40*72
$GPGSV,2,2,06,27,00,000,42,30,00,000,40*7B
$LOGTIM,0,0.000000,0.000000,0.000000,0.000000,0.000*0A
EndT:        0
---00000045--- Acq_st=3 2019-5-25 03:32:3 
[00]  G04  f 34    494.5 2045999.4  1.0  1.0  5 3f 531140917
[01]  G07  f 45  -2777.7 2046003.6  1.0  1.0  5  0 531140922
[02]  G08  f 43     50.4 2046000.0  1.0  1.0  5  0 531140927
[03]  G16  f 40   1517.9 2045998.0  1.0  1.0  5  0 531140919
[04]  G27  f 41   2019.5 2045997.4  1.0  1.0  5  0 531140923
[05]  G30  f 40  -3702.4 2046004.8  1.0  1.0  5  0 531140914
$GNGGA,000000.000,,,,,0,00,,,M,,,,0000*2B
$GNRMC,000000.000,A,,,,,,,000000,,*26
$GPGSA,A,1,,,,,,,,,,,,,,,*1E
$BDGSA,A,1,,,,,,,,,,,,,,,*0F
$GPGSV,2,1,06,04,00,000,34,07,00,000,45,08,00,000,43,16,00,000,40*75
$GPGSV,2,2,06,27,00,000,41,30,00,000,40*78
$LOGTIM,0,0.000000,0.000000,0.000000,0.000000,0.000*0A
EndT:        0
---00000046--- Acq_st=3 2019-5-25 03:32:4 
[00]  G04  f 36    500.9 2045999.3  1.0  1.0  5 3f 531141917
[01]  G07  f 45  -2771.6 2046003.6  1.0  1.0  5  0 531141922
[02]  G08  f 43     55.9 2045999.9  1.0  1.0  5  0 531141927
[03]  G16  f 40   1523.7 2045998.0  1.0  1.0  5  0 531141919
[04]  G27  f 42   2024.7 2045997.4  1.0  1.0  5  0 531141923
[05]  G30  f 40  -3697.6 2046004.8  1.0  1.0  5  0 531141914
$GNGGA,000000.000,,,,,0,00,,,M,,,,0000*2B
$GNRMC,000000.000,A,,,,,,,000000,,*26
$GPGSA,A,1,,,,,,,,,,,,,,,*1E
$BDGSA,A,1,,,,,,,,,,,,,,,*0F
$GPGSV,2,1,06,04,00,000,36,07,00,000,45,08,00,000,43,16,00,000,40*77
$GPGSV,2,2,06,27,00,000,42,30,00,000,40*7B
$LOGTIM,0,0.000000,0.000000,0.000000,0.000000,0.000*0A
EndT:        0
---00000047--- Acq_st=3 2019-5-25 03:32:5 
[00]  G04  f 36    497.9 2045999.4  1.0  1.0  5 3f 531142917
[01]  G07  f 45  -2775.3 2046003.6  1.0  1.0  5  0 531142922
[02]  G08  f 43     52.8 2045999.9  1.0  1.0  5  0 531142927
[03]  G16  f 40   1519.8 2045998.0  1.0  1.0  5  0 531142919
[04]  G27  f 41   2021.6 2045997.4  1.0  1.0  5  0 531142923
[05]  G30  f 40  -3700.4 2046004.8  1.0  1.0  5  0 531142914
$GNGGA,000000.000,,,,,0,00,,,M,,,,0000*2B
$GNRMC,000000.000,A,,,,,,,000000,,*26
$GPGSA,A,1,,,,,,,,,,,,,,,*1E
$BDGSA,A,1,,,,,,,,,,,,,,,*0F
$GPGSV,2,1,06,04,00,000,36,07,00,000,45,08,00,000,43,16,00,000,40*77
$GPGSV,2,2,06,27,00,000,41,30,00,000,40*78
$LOGTIM,0,0.000000,0.000000,0.000000,0.000000,0.000*0A
EndT:        0
---00000048--- Acq_st=3 2019-5-25 03:32:6 
[00]  G04  f 36    494.2 2045999.3  1.0  0.9  5 3f 531143917
[01]  G07  f 45  -2778.7 2046003.6  1.0  1.0  5  0 531143922
[02]  G08  f 43     48.9 2045999.9  1.0  1.0  5  0 531143927
[03]  G16  f 40   1516.0 2045998.0  1.0  1.0  5  0 531143919
[04]  G27  f 42   2017.9 2045997.3  1.0  1.0  5  0 531143923
[05]  G30  f 40  -3704.1 2046004.8  1.0  1.0  5  0 531143914
$GNGGA,000000.000,,,,,0,00,,,M,,,,0000*2B
$GNRMC,000000.000,A,,,,,,,000000,,*26
$GPGSA,A,1,,,,,,,,,,,,,,,*1E
$BDGSA,A,1,,,,,,,,,,,,,,,*0F
$GPGSV,2,1,06,04,00,000,36,07,00,000,45,08,00,000,43,16,00,000,40*77
$GPGSV,2,2,06,27,00,000,42,30,00,000,40*7B
$LOGTIM,0,0.000000,0.000000,0.000000,0.000000,0.000*0A
EndT:        0
---00000049--- Acq_st=3 2019-5-25 03:32:7 
[00]  G04  f 35    492.4 2045999.4  1.0  1.0  5 3f 531144917
[01]  G07  f 45  -2780.7 2046003.6  1.0  1.0  5  0 531144922
[02]  G08  f 43     47.6 2045999.9  1.0  1.0  5  0 531144927
[03]  G16  f 40   1513.7 2045998.1  1.0  1.0  5  0 531144919
[04]  G27  f 42   2015.7 2045997.4  1.0  1.0  5  0 531144923
[05]  G30  f 40  -3706.3 2046004.8  1.0  1.0  5  0 531144914
$GNGGA,000000.000,,,,,0,00,,,M,,,,0000*2B
$GNRMC,000000.000,A,,,,,,,000000,,*26
$GPGSA,A,1,,,,,,,,,,,,,,,*1E
$BDGSA,A,1,,,,,,,,,,,,,,,*0F
$GPGSV,2,1,06,04,00,000,35,07,00,000,45,08,00,000,43,16,00,000,40*74
$GPGSV,2,2,06,27,00,000,42,30,00,000,40*7B
$LOGTIM,0,0.000000,0.000000,0.000000,0.000000,0.000*0A
EndT:        0
ch16 satid=43,max_freq = 750,max_mean = 7680,max_phase = 1239,max_value = 152368,acq ok1!
acq ok1 timeH = 0,timeL = 931939933,freq_stage = 3
---00000050--- Acq_st=3 2019-5-25 03:32:8 
[00]  G04  f 35    501.4 2045999.3  1.0  0.9  5 3f 531145917
[01]  G07  f 46  -2770.9 2046003.6  1.0  1.0  5  0 531145922
[02]  G08  f 43     57.0 2046000.0  1.0  1.0  5  0 531145927
[03]  G16  f 40   1523.5 2045998.1  1.0  1.0  5  0 531145919
[04]  G27  f 42   2025.0 2045997.3  1.0  1.0  5  0 531145923
[05]  G30  f 39  -3697.1 2046004.8  1.0  1.0  5  0 531145914
[16]  B07  1  7   -714.0 4092001.2  0.0  0.0  1  0         0
$GNGGA,000000.000,,,,,0,00,,,M,,,,0000*2B
$GNRMC,000000.000,A,,,,,,,000000,,*26
$GPGSA,A,1,,,,,,,,,,,,,,,*1E
$BDGSA,A,1,,,,,,,,,,,,,,,*0F
$GPGSV,2,1,06,04,00,000,35,07,00,000,46,08,00,000,43,16,00,000,40*77
$GPGSV,2,2,06,27,00,000,42,30,00,000,39*75
$LOGTIM,0,0.000000,0.000000,0.000000,0.000000,0.000*0A
EndT:        0
---00000051--- Acq_st=3 2019-5-25 03:32:9 
[00]  G04  f 36    506.5 2045999.4  1.0  1.0  5 3f 531146917
[01]  G07  f 46  -2765.9 2046003.6  1.0  1.0  5  0 531146922
[02]  G08  f 43     61.8 2045999.9  1.0  1.0  5  0 531146927
[03]  G16  f 40   1527.6 2045998.0  1.0  1.0  5  0 531146919
[04]  G27  f 42   2030.0 2045997.4  1.0  1.0  5  0 531146923
[05]  G30  f 39  -3692.8 2046004.9  1.0  1.0  5  0 531146914
[16]  B07  1  7   -665.4 4092001.8  0.2  0.0  1  0       225
$GNGGA,000000.000,,,,,0,00,,,M,,,,0000*2B
$GNRMC,000000.000,A,,,,,,,000000,,*26
$GPGSA,A,1,,,,,,,,,,,,,,,*1E
$BDGSA,A,1,,,,,,,,,,,,,,,*0F
$GPGSV,2,1,06,04,00,000,36,07,00,000,46,08,00,000,43,16,00,000,40*74
$GPGSV,2,2,06,27,00,000,42,30,00,000,39*75
$LOGTIM,0,0.000000,0.000000,0.000000,0.000000,0.000*0A
EndT:        0
---00000052--- Acq_st=3 2019-5-25 03:32:10 
[00]  G04  f 36    506.9 2045999.3  1.0  1.0  5 3f 531147917
[01]  G07  f 45  -2767.0 2046003.6  1.0  1.0  5  0 531147922
[02]  G08  f 43     61.5 2045999.9  1.0  1.0  5  0 531147927
[03]  G16  f 40   1526.8 2045998.0  1.0  1.0  5  0 531147919
[04]  G27  f 43   2028.8 2045997.3  1.0  1.0  5  0 531147923
[05]  G30  f 39  -3693.0 2046004.8  1.0  1.0  5  0 531147914
[16]  B07  7 35   -666.5 4092001.8  0.9  1.0  5  0      1225
$GNGGA,000000.000,,,,,0,00,,,M,,,,0000*2B
$GNRMC,000000.000,A,,,,,,,000000,,*26
$GPGSA,A,1,,,,,,,,,,,,,,,*1E
$BDGSA,A,1,,,,,,,,,,,,,,,*0F
$GPGSV,2,1,06,04,00,000,36,07,00,000,45,08,00,000,43,16,00,000,40*77
$GPGSV,2,2,06,27,00,000,43,30,00,000,39*74
$BDGSV,1,1,01,07,00,000,35*58
$LOGTIM,0,0.000000,0.000000,0.000000,0.000000,0.000*0A
EndT:        0
---00000053--- Acq_st=3 2019-5-25 03:32:11 
[00]  G04  f 36    501.2 2045999.3  1.0  1.0  5 3f 531148917
[01]  G07  f 45  -2771.9 2046003.6  1.0  1.0  5  0 531148922
[02]  G08  f 42     56.1 2045999.9  1.0  1.0  5  0 531148927
[03]  G16  f 41   1521.5 2045998.0  1.0  1.0  5  0 531148919
[04]  G27  f 43   2023.9 2045997.4  1.0  1.0  5  0 531148923
[05]  G30  f 38  -3699.0 2046004.8  1.0  1.0  5  0 531148914
[16]  B07  7 42   -672.1 4092001.8  1.0  1.0  5  0      2214
$GNGGA,000000.000,,,,,0,00,,,M,,,,0000*2B
$GNRMC,000000.000,A,,,,,,,000000,,*26
$GPGSA,A,1,,,,,,,,,,,,,,,*1E
$BDGSA,A,1,,,,,,,,,,,,,,,*0F
$GPGSV,2,1,06,04,00,000,36,07,00,000,45,08,00,000,42,16,00,000,41*77
$GPGSV,2,2,06,27,00,000,43,30,00,000,38*75
$BDGSV,1,1,01,07,00,000,42*58
$LOGTIM,0,0.000000,0.000000,0.000000,0.000000,0.000*0A
EndT:        0
---00000054--- Acq_st=3 2019-5-25 03:32:12 
[00]  G04  f 35    495.7 2045999.4  1.0  1.0  5 3f 531149917
[01]  G07  f 45  -2777.3 2046003.6  1.0  1.0  5  0 531149922
[02]  G08  f 42     50.7 2045999.9  1.0  1.0  5  0 531149927
[03]  G16  f 40   1515.3 2045998.0  1.0  1.0  5  0 531149919
[04]  G27  f 43   2017.9 2045997.3  1.0  1.0  5  0 531149923
[05]  G30  f 38  -3704.7 2046004.8  1.0  1.0  5  0 531149914
[16]  B07  7 42   -677.9 4092001.8  1.0  1.0  5  0      3214
$GNGGA,000000.000,,,,,0,00,,,M,,,,0000*2B
$GNRMC,000000.000,A,,,,,,,000000,,*26
$GPGSA,A,1,,,,,,,,,,,,,,,*1E
$BDGSA,A,1,,,,,,,,,,,,,,,*0F
$GPGSV,2,1,06,04,00,000,35,07,00,000,45,08,00,000,42,16,00,000,40*75
$GPGSV,2,2,06,27,00,000,43,30,00,000,38*75
$BDGSV,1,1,01,07,00,000,42*58
$LOGTIM,0,0.000000,0.000000,0.000000,0.000000,0.000*0A
EndT:        0
---00000055--- Acq_st=3 2019-5-25 03:32:13 
[00]  G04  f 36    492.7 2045999.4  1.0  1.0  5 3f 531150917
[01]  G07  f 46  -2779.9 2046003.6  1.0  1.0  5  0 531150922
[02]  G08  f 42     48.0 2045999.9  1.0  1.0  5  0 531150927
[03]  G16  f 40   1512.4 2045998.0  1.0  1.0  5  0 531150919
[04]  G27  f 43   2014.8 2045997.4  1.0  1.0  5  0 531150923
[05]  G30  f 39  -3707.3 2046004.8  1.0  1.0  5  0 531150914
[16]  B07  7 42   -680.7 4092001.8  1.0  1.0  5  0      4214
$GNGGA,000000.000,,,,,0,00,,,M,,,,0000*2B
$GNRMC,000000.000,A,,,,,,,000000,,*26
$GPGSA,A,1,,,,,,,,,,,,,,,*1E
$BDGSA,A,1,,,,,,,,,,,,,,,*0F
$GPGSV,2,1,06,04,00,000,36,07,00,000,46,08,00,000,42,16,00,000,40*75
$GPGSV,2,2,06,27,00,000,43,30,00,000,39*74
$BDGSV,1,1,01,07,00,000,42*58
$LOGTIM,0,0.000000,0.000000,0.000000,0.000000,0.000*0A
EndT:        0
---00000056--- Acq_st=3 2019-5-25 03:32:14 
[00]  G04  f 36    495.7 2045999.3  1.0  1.0  5 3f 531151917
[01]  G07  f 46  -2777.6 2046003.6  1.0  1.0  5  0 531151922
[02]  G08  f 43     49.9 2046000.0  1.0  1.0  5  0 531151927
[03]  G16  f 41   1513.9 2045998.0  1.0  1.0  5  0 531151919
[04]  G27  f 43   2017.1 2045997.4  1.0  1.0  5  0 531151923
[05]  G30  f 39  -3705.8 2046004.8  1.0  1.0  5  0 531151914
[16]  B07  7 42   -679.1 4092001.8  1.0  1.0  5  0      5214
ch17 satid=46,max_freq = 750,max_mean = 8330,max_phase = 1352,max_value = 148712,acq ok1!
acq ok1 timeH = 0,timeL = 1050507296,freq_stage = 3
$GNGGA,000000.000,,,,,0,00,,,M,,,,0000*2B
$GNRMC,000000.000,A,,,,,,,000000,,*26
$GPGSA,A,1,,,,,,,,,,,,,,,*1E
$BDGSA,A,1,,,,,,,,,,,,,,,*0F
$GPGSV,2,1,06,04,00,000,36,07,00,000,46,08,00,000,43,16,00,000,41*75
$GPGSV,2,2,06,27,00,000,43,30,00,000,39*74
$BDGSV,1,1,01,07,00,000,42*58
$LOGTIM,0,0.000000,0.000000,0.000000,0.000000,0.000*0A
EndT:        0
---00000057--- Acq_st=3 2019-5-25 03:32:15 
[00]  G04  f 36    495.1 2045999.4  1.0  0.9  5 3f 531152917
[01]  G07  f 46  -2778.3 2046003.6  1.0  1.0  5  0 531152922
[02]  G08  f 43     49.8 2046000.0  1.0  1.0  5  0 531152927
[03]  G16  f 41   1513.4 2045998.0  1.0  1.0  5  0 531152919
[04]  G27  f 43   2016.4 2045997.4  1.0  1.0  5  0 531152923
[05]  G30  f 39  -3707.1 2046004.8  1.0  1.0  5  0 531152914
[16]  B07 1f 42   -679.9 4092001.8  1.0  1.0  5  0      6214
[17]  B10  1  7   -802.0 4092002.3 -0.0  0.0  1  0        50
$GNGGA,000000.000,,,,,0,00,,,M,,,,0000*2B
$GNRMC,000000.000,A,,,,,,,000000,,*26
$GPGSA,A,1,,,,,,,,,,,,,,,*1E
$BDGSA,A,1,,,,,,,,,,,,,,,*0F
$GPGSV,2,1,06,04,00,000,36,07,00,000,46,08,00,000,43,16,00,000,41*75
$GPGSV,2,2,06,27,00,000,43,30,00,000,39*74
$BDGSV,1,1,01,07,00,000,42*58
$LOGTIM,0,0.000000,0.000000,0.000000,0.000000,0.000*0A
EndT:        0
---00000058--- Acq_st=3 2019-5-25 03:32:16 
[00]  G04  f 36    493.3 2045999.3  1.0  1.0  5 3f 531153917
[01]  G07  f 46  -2780.3 2046003.6  1.0  1.0  5  0 531153922
[02]  G08  f 43     48.0 2045999.9  1.0  1.0  5  0 531153927
[03]  G16  f 40   1511.8 2045998.0  1.0  1.0  5  0 531153919
[04]  G27  f 43   2014.9 2045997.4  1.0  1.0  5  0 531153923
[05]  G30  f 39  -3708.3 2046004.8  1.0  1.0  5  0 531153914
[16]  B07 1f 42   -682.2 4092001.8  1.0  1.0  5  0 531139874
[17]  B10  7 31   -804.1 4092002.1  0.7  1.0  5  0      1050
$GNGGA,000000.000,,,,,0,00,,,M,,,,0000*2B
$GNRMC,000000.000,A,,,,,,,000000,,*26
$GPGSA,A,1,,,,,,,,,,,,,,,*1E
$BDGSA,A,1,,,,,,,,,,,,,,,*0F
$GPGSV,2,1,06,04,00,000,36,07,00,000,46,08,00,000,43,16,00,000,40*74
$GPGSV,2,2,06,27,00,000,43,30,00,000,39*74
$BDGSV,1,1,02,07,00,000,42,10,00,000,31*68
$LOGTIM,0,0.000000,0.000000,0.000000,0.000000,0.000*0A
EndT:        0
---00000059--- Acq_st=3 2019-5-25 03:32:17 
[00]  G04  f 36    494.4 2045999.4  1.0  0.9  5 3f 531154917
[01]  G07  f 45  -2780.0 2046003.6  1.0  1.0  5  0 531154922
[02]  G08  f 43     48.1 2045999.9  1.0  1.0  5  0 531154927
[03]  G16  f 40   1511.4 2045998.0  1.0  1.0  5  0 531154919
[04]  G27  f 43   2014.0 2045997.4  1.0  1.0  5  0 531154923
[05]  G30  f 39  -3708.8 2046004.8  1.0  1.0  5  0 531154914
[16]  B07 1f 42   -683.1 4092001.8  1.0  1.0  5  0 531140874
[17]  B10  7 41   -804.8 4092002.1  1.0  1.0  5  0      2031
$GNGGA,000000.000,,,,,0,00,,,M,,,,0000*2B
$GNRMC,000000.000,A,,,,,,,000000,,*26
$GPGSA,A,1,,,,,,,,,,,,,,,*1E
$BDGSA,A,1,,,,,,,,,,,,,,,*0F
$GPGSV,2,1,06,04,00,000,36,07,00,000,45,08,00,000,43,16,00,000,40*77
$GPGSV,2,2,06,27,00,000,43,30,00,000,39*74
$BDGSV,1,1,02,07,00,000,42,10,00,000,41*6F
$LOGTIM,0,0.000000,0.000000,0.000000,0.000000,0.000*0A
EndT:        0
---00000060--- Acq_st=3 2019-5-25 03:32:18 
[00]  G04  f 35    494.1 2045999.4  1.0  1.0  5 3f 531155917
[01]  G07  f 46  -2779.9 2046003.6  1.0  1.0  5  0 531155922
[02]  G08  f 42     48.5 2046000.0  1.0  1.0  5  0 531155927
[03]  G16  f 41   1511.6 2045998.0  1.0  1.0  5  0 531155919
[04]  G27  f 43   2015.2 2045997.3  1.0  1.0  5  0 531155923
[05]  G30  f 40  -3708.5 2046004.9  1.0  1.0  5  0 531155914
[16]  B07 1f 42   -682.4 4092001.8  1.0  1.0  5  0 531141874
[17]  B10  7 42   -804.6 4092002.1  1.0  1.0  5  0      3031
$GNGGA,000000.000,,,,,0,00,,,M,,,,0000*2B
$GNRMC,000000.000,A,,,,,,,000000,,*26
$GPGSA,A,1,,,,,,,,,,,,,,,*1E
$BDGSA,A,1,,,,,,,,,,,,,,,*0F
$GPGSV,2,1,06,04,00,000,35,07,00,000,46,08,00,000,42,16,00,000,41*77
$GPGSV,2,2,06,27,00,000,43,30,00,000,40*7A
$BDGSV,1,1,02,07,00,000,42,10,00,000,42*6C
$LOGTIM,0,0.000000,0.000000,0.000000,0.000000,0.000*0A
EndT:        0
ch18 satid=48,max_freq = -1750,max_mean = 8562,max_phase = 2574,max_value = 116415,acq ok1!
acq ok1 timeH = 0,timeL = 1137454794,freq_stage = 4
---00000061--- Acq_st=3 2019-5-25 03:32:19 
[00]  G04  f 36    493.8 2045999.4  1.0  0.9  5 3f 531156917
[01]  G07  f 46  -2780.0 2046003.6  1.0  1.0  5  0 531156922
[02]  G08  f 42     48.3 2046000.0  1.0  1.0  5  0 531156927
[03]  G16  f 40   1511.1 2045998.1  1.0  1.0  5  0 531156919
[04]  G27  f 42   2014.2 2045997.4  1.0  1.0  5  0 531156923
[05]  G30  f 40  -3709.0 2046004.8  1.0  1.0  5  0 531156914
[16]  B07 1f 42   -683.1 4092001.8  1.0  1.0  5  0 531142874
[17]  B10  7 42   -805.0 4092002.1  1.0  1.0  5  0      4031
[18]  B12  1  7   1807.9 4091994.8  0.1  0.0  1  0         0
$GNGGA,000000.000,,,,,0,00,,,M,,,,0000*2B
$GNRMC,000000.000,A,,,,,,,000000,,*26
$GPGSA,A,1,,,,,,,,,,,,,,,*1E
$BDGSA,A,1,,,,,,,,,,,,,,,*0F
$GPGSV,2,1,06,04,00,000,36,07,00,000,46,08,00,000,42,16,00,000,40*75
$GPGSV,2,2,06,27,00,000,42,30,00,000,40*7B
$BDGSV,1,1,02,07,00,000,42,10,00,000,42*6C
$LOGTIM,0,0.000000,0.000000,0.000000,0.000000,0.000*0A
EndT:        0
---00000062--- Acq_st=3 2019-5-25 03:32:20 
[00]  G04  f 36    495.0 2045999.4  1.0  0.9  5 3f 531157917
[01]  G07  f 45  -2779.6 2046003.6  1.0  1.0  5  0 531157922
[02]  G08  f 43     48.6 2045999.9  1.0  1.0  5  0 531157927
[03]  G16  f 40   1510.5 2045998.1  1.0  1.0  5  0 531157919
[04]  G27  f 42   2014.4 2045997.4  1.0  1.0  5  0 531157923
[05]  G30  f 40  -3708.8 2046004.8  1.0  1.0  5  0 531157914
[16]  B07 1f 42   -683.8 4092001.8  1.0  1.0  5  0 531143874
[17]  B10  7 42   -805.7 4092002.1  1.0  1.0  5  0      5031
[18]  B12  7 29   1807.8 4091995.2  0.6  1.0 10  0       933
$GNGGA,000000.000,,,,,0,00,,,M,,,,0000*2B
$GNRMC,000000.000,A,,,,,,,000000,,*26
$GPGSA,A,1,,,,,,,,,,,,,,,*1E
$BDGSA,A,1,,,,,,,,,,,,,,,*0F
$GPGSV,2,1,06,04,00,000,36,07,00,000,45,08,00,000,43,16,00,000,40*77
$GPGSV,2,2,06,27,00,000,42,30,00,000,40*7B
$BDGSV,1,1,03,07,00,000,42,10,00,000,42,12,00,000,29*55
$LOGTIM,0,0.000000,0.000000,0.000000,0.000000,0.000*0A
EndT:        0
---00000063--- Acq_st=3 2019-5-25 03:32:21 
[00]  G04  f 36    493.6 2045999.3  1.0  1.0  5 3f 531158917
[01]  G07  f 45  -2780.7 2046003.7  1.0  1.0  5  0 531158922
[02]  G08  f 42     47.7 2045999.9  1.0  1.0  5  0 531158927
[03]  G16  f 40   1509.7 2045998.0  1.0  1.0  5  0 531158919
[04]  G27  f 42   2013.2 2045997.4  1.0  1.0  5  0 531158923
[05]  G30  f 41  -3710.2 2046004.8  1.0  1.0  5  0 531158914
[16]  B07 1f 41   -684.8 4092001.8  1.0  1.0  5  0 531144874
[17]  B10 1f 42   -806.8 4092002.1  1.0  1.0  5  0      6031
[18]  B12  7 40   1806.3 4091995.2  1.0  1.0  5  0      1919
$GNGGA,000000.000,,,,,0,00,,,M,,,,0000*2B
$GNRMC,000000.000,A,,,,,,,000000,,*26
$GPGSA,A,1,,,,,,,,,,,,,,,*1E
$BDGSA,A,1,,,,,,,,,,,,,,,*0F
$GPGSV,2,1,06,04,00,000,36,07,00,000,45,08,00,000,42,16,00,000,40*76
$GPGSV,2,2,06,27,00,000,42,30,00,000,41*7A
$BDGSV,1,1,03,07,00,000,42,10,00,000,42,12,00,000,40*5A
$LOGTIM,0,0.000000,0.000000,0.000000,0.000000,0.000*0A
EndT:        0
---00000064--- Acq_st=3 2019-5-25 03:32:22 
[00]  G04  f 36    496.6 2045999.4  1.0  1.0  5 3f 531159917
[01]  G07  f 45  -2777.5 2046003.6  1.0  1.0  5  0 531159922
[02]  G08  f 42     50.7 2045999.9  1.0  1.0  5  0 531159927
[03]  G16  f 40   1512.2 2045998.1  1.0  1.0  5  0 531159919
[04]  G27  f 41   2016.6 2045997.4  1.0  1.0  5  0 531159923
[05]  G30  f 40  -3707.2 2046004.8  1.0  1.0  5  0 531159914
[16]  B07 1f 42   -682.4 4092001.8  1.0  1.0  5  0 531145874
[17]  B10 1f 42   -804.3 4092002.1  1.0  1.0  5  0 531145871
[18]  B12  7 40   1809.2 4091995.3  1.0  1.0  5  0      2919
$GNGGA,000000.000,,,,,0,00,,,M,,,,0000*2B
$GNRMC,000000.000,A,,,,,,,000000,,*26
$GPGSA,A,1,,,,,,,,,,,,,,,*1E
$BDGSA,A,1,,,,,,,,,,,,,,,*0F
$GPGSV,2,1,06,04,00,000,36,07,00,000,45,08,00,000,42,16,00,000,40*76
$GPGSV,2,2,06,27,00,000,41,30,00,000,40*78
$BDGSV,1,1,03,07,00,000,42,10,00,000,42,12,00,000,40*5A
$LOGTIM,0,0.000000,0.000000,0.000000,0.000000,0.000*0A
EndT:        0
---00000065--- Acq_st=3 2019-5-25 03:32:23 
[00]  G04  f 36    498.4 2045999.4  1.0  1.0  5 3f 531160917
[01]  G07  f 45  -2776.3 2046003.6  1.0  1.0  5  0 531160922
[02]  G08  f 41     51.8 2046000.0  1.0  1.0  5  0 531160927
[03]  G16  f 40   1513.1 2045998.0  1.0  1.0  5  0 531160919
[04]  G27  f 41   2017.5 2045997.4  1.0  1.0  5  0 531160923
[05]  G30  f 41  -3706.1 2046004.8  1.0  1.0  5  0 531160914
[16]  B07 1f 42   -680.9 4092001.8  1.0  1.0  5  0 531146874
[17]  B10 1f 42   -802.8 4092002.1  1.0  1.0  5  0 531146871
[18]  B12  7 39   1811.1 4091995.3  1.0  1.0  5  0      3919
$GNGGA,000000.000,,,,,0,00,,,M,,,,0000*2B
$GNRMC,000000.000,A,,,,,,,000000,,*26
$GPGSA,A,1,,,,,,,,,,,,,,,*1E
$BDGSA,A,1,,,,,,,,,,,,,,,*0F
$GPGSV,2,1,06,04,00,000,36,07,00,000,45,08,00,000,41,16,00,000,40*75
$GPGSV,2,2,06,27,00,000,41,30,00,000,41*79
$BDGSV,1,1,03,07,00,000,42,10,00,000,42,12,00,000,39*54
$LOGTIM,0,0.000000,0.000000,0.000000,0.000000,0.000*0A
EndT:        0
---00000066--- Acq_st=3 2019-5-25 03:32:24 
[00]  G04  f 36    495.3 2045999.4  1.0  1.0  5 3f 531161917
[01]  G07  f 45  -2779.2 2046003.6  1.0  1.0  5  0 531161922
[02]  G08  f 42     48.9 2046000.0  1.0  1.0  5  0 531161927
[03]  G16  f 39   1509.9 2045998.0  1.0  1.0  5  0 531161919
[04]  G27  f 40   2014.1 2045997.4  1.0  1.0  5  0 531161923
[05]  G30  f 41  -3709.4 2046004.8  1.0  1.0  5  0 531161914
[16]  B07 1f 42   -684.7 4092001.8  1.0  1.0  5  0 531147874
[17]  B10 1f 42   -806.9 4092002.1  1.0  1.0  5  0 531147871
[18]  B12  7 40   1807.8 4091995.3  1.0  1.0  5  0      4919
lsq: nits= 4
$GNGGA,033224.995,3112.6911,N,12136.4282,E,1,05,3.9,31.5,M,,,,0000*2D
$GNRMC,033224.995,A,3112.6911,N,12136.4282,E,0.24,0.00,250519,,*15
$GPGSA,A,3,07,08,16,27,30,,,,,,,,4.7,3.9,2.6*31
$BDGSA,A,3,,,,,,,,,,,,,4.7,3.9,2.6*2E
$GPGSV,2,1,06,04,00,000,36,07,00,000,45,08,00,000,42,16,00,000,39*78
$GPGSV,2,2,06,27,00,000,40,30,00,000,41*78
$BDGSV,1,1,03,07,00,000,42,10,00,000,42,12,00,000,40*5A
$LOGTIM,1,9605192.242960,0.000000,0.000000,0.000000,-62.941*15
EndT:        0
---00000067--- Acq_st=3 2019-5-25 03:32:25 
[00]  G04  f 36    495.3 2045999.4  1.0  1.0  5 3f 531162917
[01]  G07  f 45  -2778.9 2046003.6  1.0  1.0  5  0 531162922
[02]  G08  f 42     49.1 2045999.9  1.0  1.0  5  0 531162927
[03]  G16  f 40   1510.2 2045998.0  1.0  1.0  5  0 531162919
[04]  G27  f 39   2013.8 2045997.4  1.0  1.0  5  0 531162923
[05]  G30  f 40  -3709.8 2046004.8  1.0  1.0  5  0 531162914
[16]  B07 1f 42   -685.0 4092001.8  1.0  1.0  5  0 531148874
[17]  B10 1f 41   -807.0 4092002.1  1.0  1.0  5  0 531148871
[18]  B12  7 39   1808.1 4091995.3  1.0  0.9  5  0      5919
lsq: nits= 2
$GNGGA,033226.000,3112.6903,N,12136.4303,E,1,05,3.9,34.0,M,,,,0000*21
$GNRMC,033226.000,A,3112.6903,N,12136.4303,E,0.69,0.00,250519,,*10
$GPGSA,A,3,07,08,16,27,30,,,,,,,,4.7,3.9,2.6*31
$BDGSA,A,3,,,,,,,,,,,,,4.7,3.9,2.6*2E
$GPGSV,2,1,06,04,00,000,36,07,00,000,45,08,00,000,42,16,00,000,40*76
$GPGSV,2,2,06,27,00,000,39,30,00,000,40*77
$BDGSV,1,1,03,07,00,000,42,10,00,000,41,12,00,000,39*57
$LOGTIM,1,-62.625801,0.000000,0.000000,0.000000,-62.593*0C
EndT:        0
---00000068--- Acq_st=3 2019-5-25 03:32:26 
[00]  G04  f 36    495.2 2045999.3  1.0  1.0  5 3f 531163922
[01]  G07  f 45  -2779.1 2046003.6  1.0  1.0  5  0 531163927
[02]  G08  f 42     49.7 2046000.0  1.0  1.0  5  0 531163932
[03]  G16  f 39   1510.3 2045998.1  1.0  1.0  5  0 531163924
[04]  G27  f 39   2014.4 2045997.4  1.0  1.0  5  0 531163928
[05]  G30  f 40  -3709.9 2046004.8  1.0  1.0  5  0 531163919
[16]  B07 1f 42   -685.0 4092001.8  1.0  1.0  5  0 531149879
[17]  B10 1f 42   -807.2 4092002.1  1.0  1.0  5  0 531149875
[18]  B12  7 39   1807.4 4091995.3  1.0  1.0  5  0      6924
lsq: nits= 2
$GNGGA,033227.000,3112.6921,N,12136.4312,E,1,05,3.9,33.4,M,,,,0000*23
$GNRMC,033227.000,A,3112.6921,N,12136.4312,E,0.65,0.00,250519,,*1D
$GPGSA,A,3,07,08,16,27,30,,,,,,,,4.7,3.9,2.6*31
$BDGSA,A,3,,,,,,,,,,,,,4.7,3.9,2.6*2E
$GPGSV,2,1,06,04,00,000,36,07,47,312,45,08,73,320,42,16,33,072,39*7B
$GPGSV,2,2,06,27,48,032,39,30,16,317,40*78
$BDGSV,1,1,04,07,00,000,42,10,00,000,42,12,00,000,39,21,03,152,00*65
$LOGTIM,1,-124.653456,0.000000,0.000000,0.000000,-62.609*30
EndT:        0
---00000069--- Acq_st=3 2019-5-25 03:32:27 
[00]  G04  f 36    496.6 2045999.3  1.0  1.0  5 3f 531164922
[01]  G07  f 46  -2779.5 2046003.6  1.0  1.0  5  0 531164927
[02]  G08  f 42     48.7 2045999.9  1.0  1.0  5  0 531164932
[03]  G16  f 40   1508.9 2045998.0  1.0  1.0  5  0 531164924
[04]  G27  f 38   2013.1 2045997.4  1.0  1.0  5  0 531164928
[05]  G30  f 40  -3711.0 2046004.8  1.0  1.0  5  0 531164919
[16]  B07 1f 41   -686.5 4092001.8  1.0  1.0  5  0 531150879
[17]  B10 1f 42   -808.4 4092002.1  1.0  1.0  5  0 531150875
[18]  B12 1f 39   1807.1 4091995.3  1.0  1.0  5  0      7924
lsq: nits= 2
$GNGGA,033228.000,3112.6941,N,12136.4319,E,1,05,3.9,33.1,M,,,,0000*24
$GNRMC,033228.000,A,3112.6941,N,12136.4319,E,1.03,0.00,250519,,*1E
$GPGSA,A,3,07,08,16,27,30,,,,,,,,4.7,3.9,2.6*31
$BDGSA,A,3,,,,,,,,,,,,,4.7,3.9,2.6*2E
$GPGSV,2,1,06,04,00,000,36,07,47,312,46,08,73,320,42,16,33,072,40*76
$GPGSV,2,2,06,27,48,032,38,30,16,317,40*79
$BDGSV,1,1,04,07,00,000,41,10,00,000,42,12,00,000,39,21,03,152,00*66
$LOGTIM,1,-186.297638,0.000000,0.000000,0.000000,-62.640*33
EndT:        0
---00000070--- Acq_st=3 2019-5-25 03:32:28 
[00]  G04  f 36    495.0 2045999.4  1.0  0.9  5 3f 531165922
[01]  G07  f 45  -2780.4 2046003.6  1.0  1.0  5  0 531165927
[02]  G08  f 42     48.0 2045999.9  1.0  1.0  5  0 531165932
[03]  G16  f 40   1508.2 2045998.1  1.0  1.0  5  0 531165924
[04]  G27  f 38   2012.4 2045997.5  1.0  1.0  5  0 531165928
[05]  G30  f 40  -3711.8 2046004.8  1.0  1.0  5  0 531165919
[16]  B07 1f 42   -687.2 4092001.8  1.0  1.0  5  0 531151879
[17]  B10 1f 42   -809.6 4092002.1  1.0  1.0  5  0 531151875
[18]  B12 1f 39   1806.2 4091995.3  1.0  1.0  5  0 531151924
lsq: nits= 2
$GNGGA,033229.000,3112.6966,N,12136.4328,E,1,05,3.9,33.1,M,,,,0000*22
$GNRMC,033229.000,A,3112.6966,N,12136.4328,E,1.39,0.00,250519,,*11
$GPGSA,A,3,07,08,16,27,30,,,,,,,,4.7,3.9,2.6*31
$BDGSA,A,3,,,,,,,,,,,,,4.7,3.9,2.6*2E
$GPGSV,2,1,06,04,00,000,36,07,47,312,45,08,73,320,42,16,33,072,40*75
$GPGSV,2,2,06,27,48,032,38,30,16,317,40*79
$BDGSV,1,1,04,07,00,000,42,10,00,000,42,12,00,000,39,21,03,152,00*65
$LOGTIM,1,-247.729213,0.000000,0.000000,0.000000,-62.779*3B
EndT:        0
---00000071--- Acq_st=3 2019-5-25 03:32:29 
[00]  G04  f 37    499.7 2045999.3  1.0  1.0  5 3f 531166922
[01]  G07  f 45  -2776.2 2046003.6  1.0  1.0  5  0 531166927
[02]  G08  f 42     52.1 2045999.9  1.0  1.0  5  0 531166932
[03]  G16  f 39   1511.8 2045998.1  1.0  1.0  5  0 531166924
[04]  G27  f 37   2016.8 2045997.4  1.0  0.9  5  0 531166928
[05]  G30  f 39  -3707.8 2046004.8  1.0  1.0  5  0 531166919
[16]  B07 1f 42   -684.0 4092001.8  1.0  1.0  5  0 531152879
[17]  B10 1f 42   -805.9 4092002.1  1.0  1.0  5  0 531152875
[18]  B12 1f 38   1809.7 4091995.2  1.0  1.0  5  0 531152924
lsq: nits= 2
$GNGGA,033230.000,3112.6994,N,12136.4333,E,1,05,3.9,34.3,M,,,,0000*28
$GNRMC,033230.000,A,3112.6994,N,12136.4333,E,1.55,0.00,250519,,*14
$GPGSA,A,3,07,08,16,27,30,,,,,,,,4.7,3.9,2.6*31
$BDGSA,A,3,,,,,,,,,,,,,4.7,3.9,2.6*2E
$GPGSV,2,1,06,04,00,000,37,07,47,312,45,08,73,320,42,16,33,072,39*7A
$GPGSV,2,2,06,27,48,032,37,30,16,317,39*78
$BDGSV,1,1,04,07,00,000,42,10,00,000,42,12,00,000,38,21,03,152,00*64
$LOGTIM,1,-308.112643,0.000000,0.000000,0.000000,-62.280*3D
EndT:        0
---00000072--- Acq_st=3 2019-5-25 03:32:30 
[00]  G04  f 37    499.7 2045999.4  1.0  1.0  5 3f 531167922
[01]  G07  f 45  -2775.5 2046003.6  1.0  1.0  5  0 531167927
[02]  G08  f 43     53.4 2045999.9  1.0  1.0  5  0 531167932
[03]  G16  f 39   1512.3 2045998.0  1.0  1.0  5  0 531167924
[04]  G27  f 37   2016.8 2045997.4  1.0  1.0  5  0 531167928
[05]  G30  f 40  -3707.2 2046004.8  1.0  1.0  5  0 531167919
[16]  B07 1f 42   -683.0 4092001.8  1.0  1.0  5  0 531153879
[17]  B10 1f 42   -805.1 4092002.1  1.0  1.0  5  0 531153875
[18]  B12 1f 39   1810.9 4091995.2  1.0  1.0  5  0 531153924
lsq: nits= 2
$GNGGA,033231.000,3112.7015,N,12136.4336,E,1,05,3.9,36.2,M,,,,0000*2E
$GNRMC,033231.000,A,3112.7015,N,12136.4336,E,1.74,0.00,250519,,*12
$GPGSA,A,3,07,08,16,27,30,,,,,,,,4.7,3.9,2.6*31
$BDGSA,A,3,,,,,,,,,,,,,4.7,3.9,2.6*2E
$GPGSV,2,1,06,04,00,000,37,07,47,312,45,08,73,320,43,16,33,072,39*7B
$GPGSV,2,2,06,27,48,032,37,30,16,317,40*76
$BDGSV,1,1,04,07,00,000,42,10,00,000,42,12,00,000,39,21,03,152,00*65
$LOGTIM,1,-368.682030,0.000000,0.000000,0.000000,-62.048*31
EndT:        0
---00000073--- Acq_st=3 2019-5-25 03:32:31 
[00]  G04  f 37    498.3 2045999.3  1.0  1.0  5 3f 531168922
[01]  G07  f 45  -2777.8 2046003.6  1.0  1.0  5  0 531168927
[02]  G08  f 42     51.3 2045999.9  1.0  1.0  5  0 531168932
[03]  G16  f 39   1510.0 2045998.0  1.0  1.0  5  0 531168924
[04]  G27  f 35   2014.4 2045997.4  1.0  1.0  5  0 531168928
[05]  G30  f 40  -3709.5 2046004.9  1.0  1.0  5  0 531168919
[16]  B07 1f 42   -685.4 4092001.8  1.0  1.0  5  0 531154879
[17]  B10 1f 42   -807.6 4092002.1  1.0  1.0  5  0 531154875
[18]  B12 1f 39   1808.9 4091995.2  1.0  1.0  5  0 531154924
lsq: nits= 2
$GNGGA,033232.000,3112.7034,N,12136.4338,E,1,05,3.9,38.4,M,,,,0000*28
$GNRMC,033232.000,A,3112.7034,N,12136.4338,E,2.10,80.08,250519,,*2D
$GPGSA,A,3,07,08,16,27,30,,,,,,,,4.7,3.9,2.6*31
$BDGSA,A,3,,,,,,,,,,,,,4.7,3.9,2.6*2E
$GPGSV,2,1,06,04,00,000,37,07,47,312,45,08,73,320,42,16,33,072,39*7A
$GPGSV,2,2,06,27,48,032,35,30,16,317,40*74
$BDGSV,1,1,04,07,00,000,42,10,00,000,42,12,00,000,39,21,03,152,00*65
$LOGTIM,1,-429.341813,0.000000,0.000000,0.000000,-62.090*35
EndT:        0
---00000074--- Acq_st=3 2019-5-25 03:32:32 
[00]  G04  f 37    499.3 2045999.4  1.0  1.0  5 3f 531169922
[01]  G07  f 45  -2776.3 2046003.6  1.0  1.0  5  0 531169927
[02]  G08  f 42     52.2 2045999.9  1.0  1.0  5  0 531169932
[03]  G16  f 39   1510.7 2045998.0  1.0  1.0  5  0 531169924
[04]  G27  f 36   2015.8 2045997.5  1.0  1.0  5  0 531169928
[05]  G30  f 39  -3708.9 2046004.8  1.0  1.0  5  0 531169919
[16]  B07 1f 42   -685.2 4092001.8  1.0  1.0  5  0 531155879
[17]  B10 1f 42   -807.2 4092002.1  1.0  1.0  5  0 531155875
[18]  B12 1f 39   1809.4 4091995.2  1.0  1.0  5  0 531155924
lsq: nits= 2
$GNGGA,033233.000,3112.7055,N,12136.4343,E,1,05,3.9,40.5,M,,,,0000*2C
$GNRMC,033233.000,A,3112.7055,N,12136.4343,E,2.21,82.12,250519,,*2C
$GPGSA,A,3,07,08,16,27,30,,,,,,,,4.7,3.9,2.6*31
$BDGSA,A,3,,,,,,,,,,,,,4.7,3.9,2.6*2E
$GPGSV,2,1,06,04,00,000,37,07,47,312,45,08,73,320,42,16,33,072,39*7A
$GPGSV,2,2,06,27,48,032,36,30,16,317,39*79
$BDGSV,1,1,04,07,00,000,42,10,00,000,42,12,00,000,39,21,03,152,00*65
$LOGTIM,1,-489.590849,0.000000,0.000000,0.000000,-61.948*35
EndT:        0
---00000075--- Acq_st=3 2019-5-25 03:32:33 
[00]  G04  f 37    505.0 2045999.3  1.0  1.0  5 3f 531170922
[01]  G07  f 45  -2770.8 2046003.6  1.0  1.0  5  0 531170927
[02]  G08  f 42     57.7 2045999.9  1.0  1.0  5  0 531170932
[03]  G16  f 39   1516.1 2045998.0  1.0  1.0  5  0 531170924
[04]  G27  f 35   2021.3 2045997.4  1.0  0.9  5  0 531170928
[05]  G30  f 39  -3703.9 2046004.8  1.0  1.0  5  0 531170919
[16]  B07 1f 42   -680.3 4092001.8  1.0  1.0  5  0 531156879
[17]  B10 1f 42   -802.4 4092002.1  1.0  1.0  5  0 531156875
[18]  B12 1f 40   1814.8 4091995.2  1.0  1.0  5  0 531156924
lsq: nits= 2
$GNGGA,033234.000,3112.7084,N,12136.4345,E,1,05,3.9,42.5,M,,,,0000*23
$GNRMC,033234.000,A,3112.7084,N,12136.4345,E,1.86,82.12,250519,,*2F
$GPGSA,A,3,07,08,16,27,30,,,,,,,,4.7,3.9,2.6*31
$BDGSA,A,3,,,,,,,,,,,,,4.7,3.9,2.6*2E
$GPGSV,2,1,06,04,00,000,37,07,47,312,45,08,73,320,42,16,33,072,39*7A
$GPGSV,2,2,06,27,48,032,35,30,16,317,39*7A
$BDGSV,1,1,04,07,00,000,42,10,00,000,42,12,00,000,40,21,03,152,00*6B
$LOGTIM,1,-548.660993,0.000000,0.000000,0.000000,-61.380*3D
EndT:        0
---00000076--- Acq_st=3 2019-5-25 03:32:34 
[00]  G04  f 37    506.4 2045999.3  1.0  1.0  5 3f 531171922
[01]  G07  f 45  -2769.5 2046003.6  1.0  1.0  5  0 531171927
[02]  G08  f 42     58.8 2045999.9  1.0  1.0  5  0 531171932
[03]  G16  f 39   1516.2 2045998.0  1.0  1.0  5  0 531171924
[04]  G27  f 34   2021.7 2045997.4  1.0  0.9  5  0 531171928
[05]  G30  f 39  -3703.4 2046004.8  1.0  1.0  5  0 531171919
[16]  B07 1f 42   -679.4 4092001.8  1.0  1.0  5  0 531157879
[17]  B10 1f 42   -802.0 4092002.1  1.0  1.0  5  0 531157875
[18]  B12 1f 40   1815.8 4091995.3  1.0  1.0  5  0 531157924
lsq: nits= 2
$GNGGA,033235.000,3112.7115,N,12136.4350,E,1,05,3.9,46.0,M,,,,0000*2E
$GNRMC,033235.000,A,3112.7115,N,12136.4350,E,2.30,79.73,250519,,*2E
$GPGSA,A,3,07,08,16,27,30,,,,,,,,4.7,3.9,2.6*31
$BDGSA,A,3,,,,,,,,,,,,,4.7,3.9,2.6*2E
$GPGSV,2,1,06,04,00,000,37,07,47,312,45,08,73,320,42,16,33,072,39*7A
$GPGSV,2,2,06,27,48,032,34,30,16,317,39*7B
$BDGSV,1,1,04,07,00,000,42,10,00,000,42,12,00,000,40,21,03,152,00*6B
$LOGTIM,1,-606.651531,0.000000,0.000000,0.000000,-61.078*36
EndT:        0
---00000077--- Acq_st=3 2019-5-25 03:32:35 
[00]  G04  f 36    504.0 2045999.4  1.0  1.0  5 3f 531172922
[01]  G07  f 45  -2771.6 2046003.6  1.0  1.0  5  0 531172927
[02]  G08  f 42     56.6 2045999.9  1.0  1.0  5  0 531172932
[03]  G16  f 39   1513.9 2045998.0  1.0  1.0  5  0 531172924
[04]  G27  f 34   2020.4 2045997.4  1.0  0.9  5  0 531172928
[05]  G30  f 38  -3704.6 2046004.8  1.0  1.0  5  0 531172919
[16]  B07 1f 42   -682.2 4092001.8  1.0  1.0  5  0 531158879
[17]  B10 1f 42   -804.4 4092002.1  1.0  1.0  5  0 531158875
[18]  B12 1f 40   1813.4 4091995.2  1.0  1.0  5  0 531158924
lsq: nits= 2
$GNGGA,033236.000,3112.7145,N,12136.4359,E,1,05,3.9,49.2,M,,,,0000*2C
$GNRMC,033236.000,A,3112.7145,N,12136.4359,E,3.03,81.28,250519,,*29
$GPGSA,A,3,07,08,16,27,30,,,,,,,,4.7,3.9,2.6*31
$BDGSA,A,3,,,,,,,,,,,,,4.7,3.9,2.6*2E
$GPGSV,2,1,06,04,00,000,36,07,47,312,45,08,73,320,42,16,33,072,39*7B
$GPGSV,2,2,06,27,48,032,34,30,16,317,38*7A
$BDGSV,1,1,04,07,00,000,42,10,00,000,42,12,00,000,40,21,03,152,00*6B
$LOGTIM,1,-664.841598,0.000000,0.000000,0.000000,-61.065*32
EndT:        0
---00000078--- Acq_st=3 2019-5-25 03:32:36 
[00]  G04  f 36    502.8 2045999.3  1.0  1.0  5 3f 531173922
[01]  G07  f 45  -2773.4 2046003.6  1.0  1.0  5  0 531173927
[02]  G08  f 42     55.9 2045999.9  1.0  1.0  5  0 531173932
[03]  G16  f 39   1512.8 2045998.0  1.0  1.0  5  0 531173924
