FlashID=0x1 0x20 0x18
BBram_blkflag1: 1a3e: e5c1
FW Ver: 1.30  
GPS00 Init Dop:   5000, 40
GPS01 Init Dop:   5000, 40
GPS02 Init Dop:   5000, 40
GPS03 Init Dop:   5000, 40
GPS04 Init Dop:   5000, 40
GPS05 Init Dop:   5000, 40
GPS06 Init Dop:   5000, 40
GPS07 Init Dop:   5000, 40
GPS08 Init Dop:   5000, 40
GPS09 Init Dop:   5000, 40
GPS10 Init Dop:   5000, 40
GPS11 Init Dop:   5000, 40
GPS12 Init Dop:   5000, 40
GPS13 Init Dop:   5000, 40
GPS14 Init Dop:   5000, 40
GPS15 Init Dop:   5000, 40
GPS16 Init Dop:   5000, 40
GPS17 Init Dop:   5000, 40
GPS18 Init Dop:   5000, 40
GPS19 Init Dop:   5000, 40
GPS20 Init Dop:   5000, 40
GPS21 Init Dop:   5000, 40
GPS22 Init Dop:   5000, 40
GPS23 Init Dop:   5000, 40
GPS24 Init Dop:   5000, 40
GPS25 Init Dop:   5000, 40
GPS26 Init Dop:   5000, 40
GPS27 Init Dop:   5000, 40
GPS28 Init Dop:   5000, 40
GPS29 Init Dop:   5000, 40
GPS30 Init Dop:   5000, 40
GPS31 Init Dop:   5000, 40
BDS00 Init Dop:   5000, 40
BDS01 Init Dop:   5000, 40
BDS02 Init Dop:   5000, 40
BDS03 Init Dop:   5000, 40
BDS04 Init Dop:   5000, 40
BDS05 Init Dop:   5000, 40
BDS06 Init Dop:   5000, 40
BDS07 Init Dop:   5000, 40
BDS08 Init Dop:   5000, 40
BDS09 Init Dop:   5000, 40
BDS10 Init Dop:   5000, 40
BDS11 Init Dop:   5000, 40
BDS12 Init Dop:   5000, 40
BDS13 Init Dop:   5000, 40
BDS14 Init Dop:   5000, 40
BDS15 Init Dop:   5000, 40
BDS16 Init Dop:   5000, 40
BDS17 Init Dop:   5000, 40
BDS18 Init Dop:   5000, 40
BDS19 Init Dop:   5000, 40
BDS20 Init Dop:   5000, 40
BDS21 Init Dop:   5000, 40
BDS22 Init Dop:   5000, 40
BDS23 Init Dop:   5000, 40
BDS24 Init Dop:   5000, 40
BDS25 Init Dop:   5000, 40
BDS26 Init Dop:   5000, 40
BDS27 Init Dop:   5000, 40
BDS28 Init Dop:   5000, 40
BDS29 Init Dop:   5000, 40
BDS30 Init Dop:   5000, 40
BDS31 Init Dop:   5000, 40
good luck!
FlashID=0x1 0x20 0x18
BBram_blkflag1: 1a3e: e5c1
FW Ver: 1.30  
GPS00 Init Dop:   5000, 40
GPS01 Init Dop:   5000, 40
GPS02 Init Dop:   5000, 40
GPS03 Init Dop:   5000, 40
GPS04 Init Dop:   5000, 40
GPS05 Init Dop:   5000, 40
GPS06 Init Dop:   5000, 40
GPS07 Init Dop:   5000, 40
GPS08 Init Dop:   5000, 40
GPS09 Init Dop:   5000, 40
GPS10 Init Dop:   5000, 40
GPS11 Init Dop:   5000, 40
GPS12 Init Dop:   5000, 40
GPS13 Init Dop:   5000, 40
GPS14 Init Dop:   5000, 40
GPS15 Init Dop:   5000, 40
GPS16 Init Dop:   5000, 40
GPS17 Init Dop:   5000, 40
GPS18 Init Dop:   5000, 40
GPS19 Init Dop:   5000, 40
GPS20 Init Dop:   5000, 40
GPS21 Init Dop:   5000, 40
GPS22 Init Dop:   5000, 40
GPS23 Init Dop:   5000, 40
GPS24 Init Dop:   5000, 40
GPS25 Init Dop:   5000, 40
GPS26 Init Dop:   5000, 40
GPS27 Init Dop:   5000, 40
GPS28 Init Dop:   5000, 40
GPS29 Init Dop:   5000, 40
GPS30 Init Dop:   5000, 40
GPS31 Init Dop:   5000, 40
BDS00 Init Dop:   5000, 40
BDS01 Init Dop:   5000, 40
BDS02 Init Dop:   5000, 40
BDS03 Init Dop:   5000, 40
BDS04 Init Dop:   5000, 40
BDS05 Init Dop:   5000, 40
BDS06 Init Dop:   5000, 40
BDS07 Init Dop:   5000, 40
BDS08 Init Dop:   5000, 40
BDS09 Init Dop:   5000, 40
BDS10 Init Dop:   5000, 40
BDS11 Init Dop:   5000, 40
BDS12 Init Dop:   5000, 40
BDS13 Init Dop:   5000, 40
BDS14 Init Dop:   5000, 40
BDS15 Init Dop:   5000, 40
BDS16 Init Dop:   5000, 40
BDS17 Init Dop:   5000, 40
BDS18 Init Dop:   5000, 40
BDS19 Init Dop:   5000, 40
BDS20 Init Dop:   5000, 40
BDS21 Init Dop:   5000, 40
BDS22 Init Dop:   5000, 40
BDS23 Init Dop:   5000, 40
BDS24 Init Dop:   5000, 40
BDS25 Init Dop:   5000, 40
BDS26 Init Dop:   5000, 40
BDS27 Init Dop:   5000, 40
BDS28 Init Dop:   5000, 40
BDS29 Init Dop:   5000, 40
BDS30 Init Dop:   5000, 40
BDS31 Init Dop:   5000, 40
good luck!
---00000001--- Acq_st=3 2019-5-22 02:40:18 
[00]  G04  1 21  -1722.6 2046003.6  0.0  0.0  1  0         0
[01]  G07  1  7  -3682.9 2046005.7  0.1  0.0  1  0         0
$GNGGA,000000.000,,,,,0,00,,,M,,,,0000*2B
$GNRMC,000000.000,A,,,,,,,000000,,*26
$GPGSA,A,1,,,,,,,,,,,,,,,*1E
$BDGSA,A,1,,,,,,,,,,,,,,,*0F
$LOGTIM,0,0.000000,0.000000,0.000000,0.000000,0.000*0A
EndT:        0
---00000002--- Acq_st=3 2019-5-22 02:40:19 
[00]  G04  7 21  -1720.6 2046002.2  0.3  0.0 20  0        17
[01]  G07  1 28  -3614.1 2046006.2 -0.1  0.0  1  0         8
[02]  G09  1 26   -554.1 2046001.6 -0.1  0.0  1  0         0
[03]  G16  1  0  10266.1 2045999.0  0.0  0.0  1  0         0
$GNGGA,000000.000,,,,,0,00,,,M,,,,0000*2B
$GNRMC,000000.000,A,,,,,,,000000,,*26
$GPGSA,A,1,,,,,,,,,,,,,,,*1E
$BDGSA,A,1,,,,,,,,,,,,,,,*0F
$GPGSV,1,1,01,04,00,000,21*4F
$LOGTIM,0,0.000000,0.000000,0.000000,0.000000,0.000*0A
EndT:        0
---00000003--- Acq_st=3 2019-5-22 02:40:20 
[00]  G04  7 42  -1717.6 2046002.2  1.0  1.0  5  0         6
[01]  G07  7 36  -3612.5 2046004.6  0.5  1.0  5  0         8
[02]  G09  7 30   -553.6 2046000.7  0.6  1.0  5  0         2
[03]  G16  1 28   1095.1 2045998.7  0.0  0.0  1  0        17
[04]  G21  1 25   1748.4 2045999.1  0.0  0.0  1  0         0
$GNGGA,000000.000,,,,,0,00,,,M,,,,0000*2B
$GNRMC,000000.000,A,,,,,,,000000,,*26
$GPGSA,A,1,,,,,,,,,,,,,,,*1E
$BDGSA,A,1,,,,,,,,,,,,,,,*0F
$GPGSV,1,1,03,04,00,000,42,07,00,000,36,09,00,000,30*40
$LOGTIM,0,0.000000,0.000000,0.000000,0.000000,0.000*0A
EndT:        0
---00000004--- Acq_st=3 2019-5-22 02:40:21 
[00]  G04  7 42  -1711.5 2046002.2  1.0  1.0  5  0         6
[01]  G07  7 46  -3607.5 2046004.6  1.0  1.0  5  0         5
[02]  G09  7 42   -548.5 2046000.7  1.0  1.0  5  0        10
[03]  G16  7 32   1093.9 2045998.5  0.3  1.0  5  0        17
[04]  G21  7 16   1743.3 2045997.6  0.3  0.0 20  0         1
[05]  G26  1 22   1647.4 2045998.3  0.1  0.0  1  0         0
[06]  G27  1 25    445.0 2046000.0  0.1  0.0  1  0         0
$GNGGA,000000.000,,,,,0,00,,,M,,,,0000*2B
$GNRMC,000000.000,A,,,,,,,000000,,*26
$GPGSA,A,1,,,,,,,,,,,,,,,*1E
$BDGSA,A,1,,,,,,,,,,,,,,,*0F
$GPGSV,2,1,05,04,00,000,42,07,00,000,46,09,00,000,42,16,00,000,32*71
$GPGSV,2,2,05,21,00,000,16*48
$LOGTIM,0,0.000000,0.000000,0.000000,0.000000,0.000*0A
EndT:        0
---00000005--- Acq_st=3 2019-5-22 02:40:22 
[00]  G04  7 42  -1711.3 2046002.2  1.0  1.0  5  0         6
[01]  G07  7 46  -3607.2 2046004.7  1.0  1.0  5  0         5
[02]  G09  7 42   -547.6 2046000.7  1.0  1.0  5  0        10
[03]  G16  7 44   1093.7 2045998.5  1.0  1.0  5  0        13
[04]  G21  7 41   1743.3 2045997.6  1.0  1.0  5  0         1
[05]  G26  7 28   1655.9 2045997.7  0.5  1.0 10  0         3
$GNGGA,000000.000,,,,,0,00,,,M,,,,0000*2B
$GNRMC,000000.000,A,,,,,,,000000,,*26
$GPGSA,A,1,,,,,,,,,,,,,,,*1E
$BDGSA,A,1,,,,,,,,,,,,,,,*0F
$GPGSV,2,1,06,04,00,000,42,07,00,000,46,09,00,000,42,16,00,000,44*73
$GPGSV,2,2,06,21,00,000,41,26,00,000,28*77
$LOGTIM,0,0.000000,0.000000,0.000000,0.000000,0.000*0A
EndT:        0
---00000006--- Acq_st=3 2019-5-22 02:40:23 
[00]  G04  7 43  -1714.4 2046002.2  1.0  1.0  5  0         6
[01]  G07  7 46  -3611.1 2046004.7  1.0  1.0  5  0         5
[02]  G09  7 42   -551.3 2046000.7  1.0  1.0  5  0        10
[03]  G16  7 43   1089.9 2045998.6  1.0  1.0  5  0        13
[04]  G21  7 41   1740.4 2045997.7  1.0  1.0  5  0         1
[05]  G26  7 41   1652.0 2045997.8  1.0  1.0  5  0         8
[16]  B07  1  7    118.2 4092002.9 -0.0  0.0  1  0         0
$GNGGA,000000.000,,,,,0,00,,,M,,,,0000*2B
$GNRMC,000000.000,A,,,,,,,000000,,*26
$GPGSA,A,1,,,,,,,,,,,,,,,*1E
$BDGSA,A,1,,,,,,,,,,,,,,,*0F
$GPGSV,2,1,06,04,00,000,43,07,00,000,46,09,00,000,42,16,00,000,43*75
$GPGSV,2,2,06,21,00,000,41,26,00,000,41*78
$LOGTIM,0,0.000000,0.000000,0.000000,0.000000,0.000*0A
EndT:        0
---00000007--- Acq_st=3 2019-5-22 02:40:24 
[00]  G04  7 42  -1715.7 2046002.2  1.0  1.0  5  0         6
[01]  G07  7 46  -3612.9 2046004.7  1.0  1.0  5  0         5
[02]  G09  7 41   -552.6 2046000.7  1.0  1.0  5  0        10
[03]  G16  7 44   1088.3 2045998.6  1.0  1.0  5  0        13
[04]  G21  7 41   1738.3 2045997.7  1.0  1.0  5  0         1
[05]  G26  7 41   1649.7 2045997.8  1.0  1.0  5  0         8
[16]  B07  1  7   -545.7 4092001.6  0.4  0.0  1  0        77
[17]  B10  1  7   -669.3 4092002.6 -0.0  0.0  1  0         0
$GNGGA,000000.000,,,,,0,00,,,M,,,,0000*2B
$GNRMC,000000.000,A,,,,,,,000000,,*26
$GPGSA,A,1,,,,,,,,,,,,,,,*1E
$BDGSA,A,1,,,,,,,,,,,,,,,*0F
$GPGSV,2,1,06,04,00,000,42,07,00,000,46,09,00,000,41,16,00,000,44*70
$GPGSV,2,2,06,21,00,000,41,26,00,000,41*78
$LOGTIM,0,0.000000,0.000000,0.000000,0.000000,0.000*0A
EndT:        0
---00000008--- Acq_st=3 2019-5-22 02:40:25 
[00]  G04  7 43  -1716.2 2046002.2  1.0  1.0  5  0         6
[01]  G07  7 45  -3613.5 2046004.7  1.0  1.0  5  0         5
[02]  G09  7 41   -552.6 2046000.7  1.0  1.0  5  0        10
[03]  G16  7 43   1087.9 2045998.6  1.0  1.0  5  0        13
[04]  G21  7 41   1738.1 2045997.7  1.0  1.0  5  0         1
[05]  G26  7 41   1649.6 2045997.8  1.0  1.0  5  0         8
[16]  B07  1  7   -546.3 4092001.4  0.4  0.0  1  0      1077
[17]  B10  1  7   -592.7 4092001.6  0.1  0.0  1  0       235
$GNGGA,000000.000,,,,,0,00,,,M,,,,0000*2B
$GNRMC,000000.000,A,,,,,,,000000,,*26
$GPGSA,A,1,,,,,,,,,,,,,,,*1E
$BDGSA,A,1,,,,,,,,,,,,,,,*0F
$GPGSV,2,1,06,04,00,000,43,07,00,000,45,09,00,000,41,16,00,000,43*75
$GPGSV,2,2,06,21,00,000,41,26,00,000,41*78
$LOGTIM,0,0.000000,0.000000,0.000000,0.000000,0.000*0A
EndT:        0
---00000009--- Acq_st=3 2019-5-22 02:40:26 
[00]  G04  f 42  -1715.8 2046002.2  1.0  1.0  5  0         6
[01]  G07  f 46  -3613.9 2046004.7  1.0  1.0  5  0         5
[02]  G09  f 42   -552.3 2046000.7  1.0  1.0  5  0        10
[03]  G16  f 43   1087.2 2045998.6  1.0  1.0  5  0        13
[04]  G21  f 41   1737.9 2045997.7  1.0  1.0  5  0         1
[05]  G26  f 41   1649.3 2045997.8  1.0  1.0  5  0         8
[16]  B07  7 33   -546.6 4092001.5  0.7  1.0  5  0      2077
[17]  B10  7 37   -593.0 4092001.5  0.7  1.0  5  0      1235
$GNGGA,000000.000,,,,,0,00,,,M,,,,0000*2B
$GNRMC,000000.000,A,,,,,,,000000,,*26
$GPGSA,A,1,,,,,,,,,,,,,,,*1E
$BDGSA,A,1,,,,,,,,,,,,,,,*0F
$GPGSV,2,1,06,04,00,000,42,07,00,000,46,09,00,000,42,16,00,000,43*74
$GPGSV,2,2,06,21,00,000,41,26,00,000,41*78
$BDGSV,1,1,02,07,00,000,33,10,00,000,37*68
$LOGTIM,0,0.000000,0.000000,0.000000,0.000000,0.000*0A
EndT:        0
---00000010--- Acq_st=3 2019-5-22 02:40:27 
[00]  G04  f 43  -1716.5 2046002.2  1.0  1.0  5  0 268844166
[01]  G07  f 46  -3615.4 2046004.7  1.0  1.0  5  0 268844165
[02]  G09  f 42   -553.0 2046000.7  1.0  1.0  5  0 268844170
[03]  G16  f 43   1086.1 2045998.6  1.0  1.0  5  0 268844173
[04]  G21  f 42   1736.4 2045997.7  1.0  1.0  5  0 268844161
[05]  G26  f 41   1647.7 2045997.8  1.0  1.0  5  0 268844168
[16]  B07  7 43   -548.0 4092001.4  1.0  1.0  5  0      3063
[17]  B10  7 43   -594.4 4092001.6  1.0  1.0  5  0      2220
$GNGGA,000000.000,,,,,0,00,,,M,,,,0000*2B
$GNRMC,000000.000,A,,,,,,,000000,,*26
$GPGSA,A,1,,,,,,,,,,,,,,,*1E
$BDGSA,A,1,,,,,,,,,,,,,,,*0F
$GPGSV,2,1,06,04,00,000,43,07,00,000,46,09,00,000,42,16,00,000,43*75
$GPGSV,2,2,06,21,00,000,42,26,00,000,41*7B
$BDGSV,1,1,02,07,00,000,43,10,00,000,43*6C
$LOGTIM,0,0.000000,0.000000,0.000000,0.000000,0.000*0A
EndT:        0
---00000011--- Acq_st=3 2019-5-22 02:40:28 
[00]  G04  f 42  -1715.8 2046002.2  1.0  1.0  5  0 268845166
[01]  G07  f 46  -3615.1 2046004.7  1.0  1.0  5  0 268845165
[02]  G09  f 42   -552.7 2046000.8  1.0  1.0  5  0 268845170
[03]  G16  f 43   1086.4 2045998.6  1.0  1.0  5  0 268845173
[04]  G21  f 42   1737.3 2045997.7  1.0  1.0  5  0 268845161
[05]  G26  f 41   1647.8 2045997.9  1.0  1.0  5  0 268845168
[16]  B07 1f 44   -547.8 4092001.4  1.0  1.0  5  0      4063
[17]  B10 1f 43   -594.5 4092001.6  1.0  1.0  5  0      3220
$GNGGA,000000.000,,,,,0,00,,,M,,,,0000*2B
$GNRMC,000000.000,A,,,,,,,000000,,*26
$GPGSA,A,1,,,,,,,,,,,,,,,*1E
$BDGSA,A,1,,,,,,,,,,,,,,,*0F
$GPGSV,2,1,06,04,00,000,42,07,00,000,46,09,00,000,42,16,00,000,43*74
$GPGSV,2,2,06,21,00,000,42,26,00,000,41*7B
$BDGSV,1,1,02,07,00,000,44,10,00,000,43*6B
$LOGTIM,0,0.000000,0.000000,0.000000,0.000000,0.000*0A
EndT:        0
---00000012--- Acq_st=3 2019-5-22 02:40:29 
[00]  G04  f 42  -1714.5 2046002.2  1.0  1.0  5  0 268846166
[01]  G07  f 46  -3614.2 2046004.7  1.0  1.0  5  0 268846165
[02]  G09  f 42   -550.7 2046000.8  1.0  1.0  5  0 268846170
[03]  G16  f 43   1087.4 2045998.6  1.0  1.0  5  0 268846173
[04]  G21  f 42   1738.3 2045997.7  1.0  1.0  5  0 268846161
[05]  G26  f 41   1648.6 2045997.9  1.0  1.0  5  0 268846168
[16]  B07 1f 43   -547.1 4092001.4  1.0  1.0  5  0 268832123
[17]  B10 1f 43   -593.5 4092001.5  1.0  1.0  5  0 268832120
[18]  B28  1  7   1504.3 4091997.7 -0.0  0.0  1  0         0
$GNGGA,000000.000,,,,,0,00,,,M,,,,0000*2B
$GNRMC,000000.000,A,,,,,,,000000,,*26
$GPGSA,A,1,,,,,,,,,,,,,,,*1E
$BDGSA,A,1,,,,,,,,,,,,,,,*0F
$GPGSV,2,1,06,04,00,000,42,07,00,000,46,09,00,000,42,16,00,000,43*74
$GPGSV,2,2,06,21,00,000,42,26,00,000,41*7B
$BDGSV,1,1,02,07,00,000,43,10,00,000,43*6C
$LOGTIM,0,0.000000,0.000000,0.000000,0.000000,0.000*0A
EndT:        1
---00000013--- Acq_st=7 2019-5-22 02:40:30 
[00]  G04  f 42  -1713.4 2046002.2  1.0  1.0  5  0 268847166
[01]  G07  f 46  -3613.9 2046004.7  1.0  1.0  5  0 268847165
[02]  G09  f 43   -550.0 2046000.7  1.0  1.0  5  0 268847170
[03]  G16  f 43   1087.8 2045998.6  1.0  1.0  5  0 268847173
[04]  G21  f 42   1739.8 2045997.8  1.0  1.0  5  0 268847161
[05]  G26  f 41   1649.0 2045997.9  1.0  1.0  5  0 268847168
[16]  B07 1f 44   -546.9 4092001.4  1.0  1.0  5  0 268833123
[17]  B10 1f 43   -593.5 4092001.5  1.0  1.0  5  0 268833120
[18]  B28  1  7   1500.9 4091995.8  0.3  0.0  1  0       182
$GNGGA,000000.000,,,,,0,00,,,M,,,,0000*2B
$GNRMC,000000.000,A,,,,,,,000000,,*26
$GPGSA,A,1,,,,,,,,,,,,,,,*1E
$BDGSA,A,1,,,,,,,,,,,,,,,*0F
$GPGSV,2,1,06,04,00,000,42,07,00,000,46,09,00,000,43,16,00,000,43*75
$GPGSV,2,2,06,21,00,000,42,26,00,000,41*7B
$BDGSV,1,1,02,07,00,000,44,10,00,000,43*6B
$LOGTIM,0,0.000000,0.000000,0.000000,0.000000,0.000*0A
EndT:        0
---00000014--- Acq_st=3 2019-5-22 02:40:31 
[00]  G04  f 42  -1712.8 2046002.2  1.0  1.0  5  0 268848167
[01]  G07  f 46  -3613.9 2046004.7  1.0  1.0  5  0 268848165
[02]  G09  f 43   -549.0 2046000.7  1.0  1.0  5  0 268848170
[03]  G16  f 43   1087.9 2045998.6  1.0  1.0  5  0 268848173
[04]  G21  f 42   1740.0 2045997.7  1.0  1.0  5  0 268848161
[05]  G26  f 41   1649.0 2045997.9  1.0  1.0  5  0 268848168
[16]  B07 1f 44   -547.1 4092001.4  1.0  1.0  5  0 268834123
[17]  B10 1f 43   -593.5 4092001.5  1.0  1.0  5  0 268834120
[18]  B28  7 36   1501.0 4091996.0  1.0  1.0  5  0      1182
$GNGGA,000000.000,,,,,0,00,,,M,,,,0000*2B
$GNRMC,000000.000,A,,,,,,,000000,,*26
$GPGSA,A,1,,,,,,,,,,,,,,,*1E
$BDGSA,A,1,,,,,,,,,,,,,,,*0F
$GPGSV,2,1,06,04,00,000,42,07,00,000,46,09,00,000,43,16,00,000,43*75
$GPGSV,2,2,06,21,00,000,42,26,00,000,41*7B
$BDGSV,1,1,03,07,00,000,44,10,00,000,43,28,00,000,36*55
$LOGTIM,0,0.000000,0.000000,0.000000,0.000000,0.000*0A
EndT:        1
---00000015--- Acq_st=3 2019-5-22 02:40:32 
[00]  G04  f 41  -1711.8 2046002.2  1.0  1.0  5  0 268849167
[01]  G07  f 46  -3613.9 2046004.7  1.0  1.0  5  0 268849165
[02]  G09  f 44   -548.6 2046000.7  1.0  1.0  5  0 268849170
[03]  G16  f 43   1088.1 2045998.6  1.0  1.0  5  0 268849173
[04]  G21  f 42   1740.4 2045997.8  1.0  1.0  5  0 268849161
[05]  G26  f 41   1649.7 2045997.8  1.0  1.0  5  0 268849168
[16]  B07 1f 44   -546.9 4092001.4  1.0  1.0  5  0 268835123
[17]  B10 1f 43   -593.1 4092001.6  1.0  1.0  5  0 268835120
[18]  B28  7 46   1501.7 4091996.0  1.0  1.0  5  0      2168
$GNGGA,000000.000,,,,,0,00,,,M,,,,0000*2B
$GNRMC,000000.000,A,,,,,,,000000,,*26
$GPGSA,A,1,,,,,,,,,,,,,,,*1E
$BDGSA,A,1,,,,,,,,,,,,,,,*0F
$GPGSV,2,1,06,04,00,000,41,07,00,000,46,09,00,000,44,16,00,000,43*71
$GPGSV,2,2,06,21,00,000,42,26,00,000,41*7B
$BDGSV,1,1,03,07,00,000,44,10,00,000,43,28,00,000,46*52
$LOGTIM,0,0.000000,0.000000,0.000000,0.000000,0.000*0A
EndT:        0
---00000016--- Acq_st=3 2019-5-22 02:40:33 
[00]  G04  f 41  -1712.1 2046002.2  1.0  1.0  5  0 268850167
[01]  G07  f 46  -3614.2 2046004.7  1.0  1.0  5  0 268850165
[02]  G09  f 44   -548.5 2046000.7  1.0  1.0  5  0 268850170
[03]  G16  f 44   1088.0 2045998.6  1.0  1.0  5  0 268850173
[04]  G21  f 41   1740.5 2045997.8  1.0  1.0  5  0 268850161
[05]  G26  f 41   1649.4 2045997.9  1.0  1.0  5  0 268850168
[06]  G27  1 12    468.9 2046001.9 -0.1  0.0  1  0         0
[16]  B07 1f 44   -547.1 4092001.4  1.0  1.0  5  0 268836123
[17]  B10 1f 43   -593.5 4092001.6  1.0  1.0  5  0 268836120
[18]  B28  7 46   1501.8 4091996.0  1.0  1.0  5  0      3168
$GNGGA,000000.000,,,,,0,00,,,M,,,,0000*2B
$GNRMC,000000.000,A,,,,,,,000000,,*26
$GPGSA,A,1,,,,,,,,,,,,,,,*1E
$BDGSA,A,1,,,,,,,,,,,,,,,*0F
$GPGSV,2,1,06,04,00,000,41,07,00,000,46,09,00,000,44,16,00,000,44*76
$GPGSV,2,2,06,21,00,000,41,26,00,000,41*78
$BDGSV,1,1,03,07,00,000,44,10,00,000,43,28,00,000,46*52
$LOGTIM,0,0.000000,0.000000,0.000000,0.000000,0.000*0A
EndT:        0
---00000017--- Acq_st=3 2019-5-22 02:40:34 
[00]  G04  f 42  -1711.4 2046002.2  1.0  1.0  5  0 268851167
[01]  G07  f 46  -3614.3 2046004.7  1.0  1.0  5  0 268851165
[02]  G09  f 43   -548.0 2046000.7  1.0  1.0  5  0 268851170
[03]  G16  f 43   1088.0 2045998.6  1.0  1.0  5  0 268851173
[04]  G21  f 41   1740.3 2045997.8  1.0  1.0  5  0 268851161
[05]  G26  f 41   1648.9 2045997.9  1.0  1.0  5  0 268851168
[16]  B07 1f 43   -547.6 4092001.4  1.0  1.0  5  0 268837123
[17]  B10 1f 43   -594.0 4092001.5  1.0  1.0  5  0 268837120
[18]  B28 1f 46   1501.8 4091996.0  1.0  1.0  5  0      4168
$GNGGA,000000.000,,,,,0,00,,,M,,,,0000*2B
$GNRMC,000000.000,A,,,,,,,000000,,*26
$GPGSA,A,1,,,,,,,,,,,,,,,*1E
$BDGSA,A,1,,,,,,,,,,,,,,,*0F
$GPGSV,2,1,06,04,00,000,42,07,00,000,46,09,00,000,43,16,00,000,43*75
$GPGSV,2,2,06,21,00,000,41,26,00,000,41*78
$BDGSV,1,1,03,07,00,000,43,10,00,000,43,28,00,000,46*55
$LOGTIM,0,0.000000,0.000000,0.000000,0.000000,0.000*0A
EndT:        0
---00000018--- Acq_st=3 2019-5-22 02:40:35 
[00]  G04  f 42  -1712.3 2046002.2  1.0  1.0  5  0 268852167
[01]  G07  f 46  -3615.2 2046004.7  1.0  1.0  5  0 268852165
[02]  G09  f 43   -548.6 2046000.7  1.0  1.0  5  0 268852170
[03]  G16  f 44   1086.9 2045998.5  1.0  1.0  5  0 268852173
[04]  G21  f 41   1739.7 2045997.8  1.0  1.0  5  0 268852161
[05]  G26  f 40   1647.9 2045997.9  1.0  1.0  5  0 268852168
[16]  B07 1f 44   -548.6 4092001.4  1.0  1.0  5  0 268838123
[17]  B10 1f 43   -595.0 4092001.6  1.0  1.0  5  0 268838120
[18]  B28 1f 46   1501.1 4091996.0  1.0  1.0  5  0 268838168
$GNGGA,000000.000,,,,,0,00,,,M,,,,0000*2B
$GNRMC,000000.000,A,,,,,,,000000,,*26
$GPGSA,A,1,,,,,,,,,,,,,,,*1E
$BDGSA,A,1,,,,,,,,,,,,,,,*0F
$GPGSV,2,1,06,04,00,000,42,07,00,000,46,09,00,000,43,16,00,000,44*72
$GPGSV,2,2,06,21,00,000,41,26,00,000,40*79
$BDGSV,1,1,03,07,00,000,44,10,00,000,43,28,00,000,46*52
$LOGTIM,0,0.000000,0.000000,0.000000,0.000000,0.000*0A
EndT:        0
---00000019--- Acq_st=3 2019-5-22 02:40:36 
[00]  G04  f 42  -1709.6 2046002.2  1.0  1.0  5  0 268853167
[01]  G07  f 46  -3613.0 2046004.7  1.0  1.0  5  0 268853165
[02]  G09  f 43   -545.5 2046000.8  1.0  1.0  5  0 268853170
[03]  G16  f 44   1089.3 2045998.6  1.0  1.0  5  0 268853173
[04]  G21  f 41   1742.4 2045997.7  1.0  1.0  5  0 268853161
[05]  G26  f 41   1649.9 2045997.9  1.0  1.0  5  0 268853168
[16]  B07 1f 43   -546.5 4092001.4  1.0  1.0  5  0 268839123
[17]  B10 1f 43   -592.8 4092001.6  1.0  1.0  5  0 268839120
[18]  B28 1f 46   1503.8 4091996.1  1.0  1.0  5  0 268839168
$GNGGA,000000.000,,,,,0,00,,,M,,,,0000*2B
$GNRMC,000000.000,A,,,,,,,000000,,*26
$GPGSA,A,1,,,,,,,,,,,,,,,*1E
$BDGSA,A,1,,,,,,,,,,,,,,,*0F
$GPGSV,2,1,06,04,00,000,42,07,00,000,46,09,00,000,43,16,00,000,44*72
$GPGSV,2,2,06,21,00,000,41,26,00,000,41*78
$BDGSV,1,1,03,07,00,000,43,10,00,000,43,28,00,000,46*55
$LOGTIM,0,0.000000,0.000000,0.000000,0.000000,0.000*0A
EndT:        0
---00000020--- Acq_st=3 2019-5-22 02:40:37 
[00]  G04  f 42  -1707.8 2046002.2  1.0  1.0  5  0 268854167
[01]  G07  f 46  -3611.8 2046004.7  1.0  1.0  5  0 268854165
[02]  G09  f 43   -543.9 2046000.7  1.0  1.0  5  0 268854170
[03]  G16  f 44   1090.4 2045998.6  1.0  1.0  5  0 268854173
[04]  G21  f 41   1744.0 2045997.8  1.0  1.0  5  0 268854161
[05]  G26  f 41   1651.3 2045997.9  1.0  1.0  5  0 268854168
[16]  B07 1f 44   -545.3 4092001.4  1.0  1.0  5  0 268840123
[17]  B10 1f 43   -591.9 4092001.5  1.0  1.0  5  0 268840120
[18]  B28 1f 45   1505.4 4091996.0  1.0  1.0  5  0 268840168
$GNGGA,000000.000,,,,,0,00,,,M,,,,0000*2B
$GNRMC,000000.000,A,,,,,,,000000,,*26
$GPGSA,A,1,,,,,,,,,,,,,,,*1E
$BDGSA,A,1,,,,,,,,,,,,,,,*0F
$GPGSV,2,1,06,04,00,000,42,07,00,000,46,09,00,000,42,16,00,000,44*73
$GPGSV,2,2,06,21,00,000,41,26,00,000,41*78
$BDGSV,1,1,03,07,00,000,44,10,00,000,43,28,00,000,45*51
$LOGTIM,0,0.000000,0.000000,0.000000,0.000000,0.000*0A
EndT:        0
---00000021--- Acq_st=3 2019-5-22 02:40:38 
[00]  G04  f 42  -1707.7 2046002.2  1.0  1.0  5  0 268855167
[01]  G07  f 45  -3612.4 2046004.7  1.0  1.0  5  0 268855165
[02]  G09  f 42   -544.0 2046000.7  1.0  1.0  5  0 268855170
[03]  G16  f 44   1089.8 2045998.6  1.0  1.0  5  0 268855173
[04]  G21  f 41   1743.3 2045997.7  1.0  1.0  5  0 268855161
[05]  G26  f 41   1650.6 2045997.9  1.0  1.0  5  0 268855168
[16]  B07 1f 44   -546.3 4092001.4  1.0  1.0  5  0 268841123
[17]  B10 1f 43   -592.5 4092001.5  1.0  1.0  5  0 268841120
[18]  B28 1f 46   1505.1 4091996.0  1.0  1.0  5  0 268841168
[19]  B19  1  0  15758.4 4091997.0  0.0  0.0  1  0         0
$GNGGA,000000.000,,,,,0,00,,,M,,,,0000*2B
$GNRMC,000000.000,A,,,,,,,000000,,*26
$GPGSA,A,1,,,,,,,,,,,,,,,*1E
$BDGSA,A,1,,,,,,,,,,,,,,,*0F
$GPGSV,2,1,06,04,00,000,42,07,00,000,45,09,00,000,42,16,00,000,44*70
$GPGSV,2,2,06,21,00,000,41,26,00,000,41*78
$BDGSV,1,1,03,07,00,000,44,10,00,000,43,28,00,000,46*52
$LOGTIM,0,0.000000,0.000000,0.000000,0.000000,0.000*0A
EndT:        0
---00000022--- Acq_st=3 2019-5-22 02:40:39 
[00]  G04  f 43  -1708.9 2046002.2  1.0  1.0  5  0 268856167
[01]  G07  f 45  -3614.1 2046004.7  1.0  1.0  5  0 268856165
[02]  G09  f 43   -544.9 2046000.7  1.0  1.0  5  0 268856170
[03]  G16  f 44   1088.2 2045998.6  1.0  1.0  5  0 268856173
[04]  G21  f 41   1742.2 2045997.8  1.0  1.0  5  0 268856161
[05]  G26  f 41   1648.8 2045997.8  1.0  1.0  5  0 268856168
[16]  B07 1f 44   -548.1 4092001.4  1.0  1.0  5  0 268842123
[17]  B10 1f 43   -594.6 4092001.6  1.0  1.0  5  0 268842120
[18]  B28 1f 46   1503.7 4091996.0  1.0  1.0  5  0 268842168
[19]  B19  1  7   1276.8 4091996.8  0.0  0.0  1  0        36
$GNGGA,000000.000,,,,,0,00,,,M,,,,0000*2B
$GNRMC,000000.000,A,,,,,,,000000,,*26
$GPGSA,A,1,,,,,,,,,,,,,,,*1E
$BDGSA,A,1,,,,,,,,,,,,,,,*0F
$GPGSV,2,1,06,04,00,000,43,07,00,000,45,09,00,000,43,16,00,000,44*70
$GPGSV,2,2,06,21,00,000,41,26,00,000,41*78
$BDGSV,1,1,03,07,00,000,44,10,00,000,43,28,00,000,46*52
$LOGTIM,0,0.000000,0.000000,0.000000,0.000000,0.000*0A
EndT:        0
---00000023--- Acq_st=3 2019-5-22 02:40:40 
[00]  G04  f 42  -1709.2 2046002.2  1.0  1.0  5  0 268857167
[01]  G07  f 45  -3614.9 2046004.7  1.0  1.0  5  0 268857165
[02]  G09  f 43   -545.1 2046000.7  1.0  1.0  5  0 268857170
[03]  G16  f 44   1087.4 2045998.6  1.0  1.0  5  0 268857173
[04]  G21  f 41   1741.8 2045997.8  1.0  1.0  5  0 268857161
[05]  G26  f 41   1648.2 2045997.9  1.0  1.0  5  0 268857168
[16]  B07 1f 44   -549.1 4092001.4  1.0  1.0  5  0 268843123
[17]  B10 1f 43   -595.5 4092001.6  1.0  1.0  5  0 268843120
[18]  B28 1f 46   1503.2 4091996.1  1.0  1.0  5  0 268843168
[19]  B19  7 29   1276.4 4091996.6  0.2  0.9  5  0      1036
$GNGGA,000000.000,,,,,0,00,,,M,,,,0000*2B
$GNRMC,000000.000,A,,,,,,,000000,,*26
$GPGSA,A,1,,,,,,,,,,,,,,,*1E
$BDGSA,A,1,,,,,,,,,,,,,,,*0F
$GPGSV,2,1,06,04,00,000,42,07,00,000,45,09,00,000,43,16,00,000,44*71
$GPGSV,2,2,06,21,00,000,41,26,00,000,41*78
$BDGSV,1,1,04,07,00,000,44,10,00,000,43,28,00,000,46,19,00,000,29*66
$LOGTIM,0,0.000000,0.000000,0.000000,0.000000,0.000*0A
EndT:        0
---00000024--- Acq_st=3 2019-5-22 02:40:41 
[00]  G04  f 43  -1708.9 2046002.2  1.0  1.0  5  0 268858167
[01]  G07  f 45  -3614.9 2046004.7  1.0  1.0  5  0 268858165
[02]  G09  f 43   -544.7 2046000.7  1.0  1.0  5  0 268858170
[03]  G16  f 44   1087.4 2045998.6  1.0  1.0  5  0 268858173
[04]  G21  f 40   1741.9 2045997.7  1.0  1.0  5  0 268858161
[05]  G26  f 41   1648.5 2045997.9  1.0  1.0  5  0 268858168
[16]  B07 1f 44   -548.9 4092001.4  1.0  1.0  5  0 268844123
[17]  B10 1f 43   -595.6 4092001.5  1.0  1.0  5  0 268844120
[18]  B28 1f 46   1503.6 4091996.0  1.0  1.0  5  0 268844168
[19]  B19  7 33   1275.5 4091996.6  1.0  1.0  5  0      2035
$GNGGA,000000.000,,,,,0,00,,,M,,,,0000*2B
$GNRMC,000000.000,A,,,,,,,000000,,*26
$GPGSA,A,1,,,,,,,,,,,,,,,*1E
$BDGSA,A,1,,,,,,,,,,,,,,,*0F
$GPGSV,2,1,06,04,00,000,43,07,00,000,45,09,00,000,43,16,00,000,44*70
$GPGSV,2,2,06,21,00,000,40,26,00,000,41*79
$BDGSV,1,1,04,07,00,000,44,10,00,000,43,28,00,000,46,19,00,000,33*6D
$LOGTIM,0,0.000000,0.000000,0.000000,0.000000,0.000*0A
EndT:        0
---00000025--- Acq_st=7 2019-5-22 02:40:42 
[00]  G04  f 43  -1705.0 2046002.2  1.0  1.0  5  0 268859167
[01]  G07  f 44  -3612.1 2046004.7  1.0  1.0  5  0 268859165
[02]  G09  f 43   -541.2 2046000.7  1.0  1.0  5  0 268859170
[03]  G16  f 44   1091.0 2045998.6  1.0  1.0  5  0 268859173
[04]  G21  f 40   1745.5 2045997.7  1.0  1.0  5  0 268859161
[05]  G26  f 41   1651.8 2045997.9  1.0  1.0  5  0 268859168
[16]  B07 1f 43   -546.0 4092001.4  1.0  1.0  5  0 268845123
[17]  B10 1f 43   -592.4 4092001.5  1.0  1.0  5  0 268845120
[18]  B28 1f 45   1507.0 4091996.1  1.0  1.0  5  0 268845168
[19]  B19  7 33   1279.2 4091996.6  1.0  0.9  5  0      3035
$GNGGA,000000.000,,,,,0,00,,,M,,,,0000*2B
$GNRMC,000000.000,A,,,,,,,000000,,*26
$GPGSA,A,1,,,,,,,,,,,,,,,*1E
$BDGSA,A,1,,,,,,,,,,,,,,,*0F
$GPGSV,2,1,06,04,00,000,43,07,00,000,44,09,00,000,43,16,00,000,44*71
$GPGSV,2,2,06,21,00,000,40,26,00,000,41*79
$BDGSV,1,1,04,07,00,000,43,10,00,000,43,28,00,000,45,19,00,000,33*69
$LOGTIM,0,0.000000,0.000000,0.000000,0.000000,0.000*0A
EndT:        0
---00000026--- Acq_st=3 2019-5-22 02:40:43 
[00]  G04  f 43  -1702.7 2046002.2  1.0  1.0  5  0 268860167
[01]  G07  f 45  -3609.7 2046004.7  1.0  1.0  5  0 268860165
[02]  G09  f 43   -538.6 2046000.7  1.0  1.0  5  0 268860170
[03]  G16  f 43   1092.9 2045998.6  1.0  1.0  5  0 268860173
[04]  G21  f 40   1747.7 2045997.7  1.0  1.0  5  0 268860161
[05]  G26  f 41   1653.5 2045997.8  1.0  1.0  5  0 268860168
[06]  G08  1  7  -1787.1 2046003.4  0.0  0.0  1  0         5
[16]  B07 1f 44   -544.0 4092001.4  1.0  1.0  5  0 268846123
[17]  B10 1f 43   -590.6 4092001.6  1.0  1.0  5  0 268846120
[18]  B28 1f 45   1509.4 4091996.0  1.0  1.0  5  0 268846168
[19]  B19  7 33   1281.0 4091996.7  1.0  0.9  5  0      4035
$GNGGA,000000.000,,,,,0,00,,,M,,,,0000*2B
$GNRMC,000000.000,A,,,,,,,000000,,*26
$GPGSA,A,1,,,,,,,,,,,,,,,*1E
$BDGSA,A,1,,,,,,,,,,,,,,,*0F
$GPGSV,2,1,06,04,00,000,43,07,00,000,45,09,00,000,43,16,00,000,43*77
$GPGSV,2,2,06,21,00,000,40,26,00,000,41*79
$BDGSV,1,1,04,07,00,000,44,10,00,000,43,28,00,000,45,19,00,000,33*6E
$LOGTIM,0,0.000000,0.000000,0.000000,0.000000,0.000*0A
EndT:        0
---00000027--- Acq_st=3 2019-5-22 02:40:44 
[00]  G04  f 43  -1702.6 2046002.2  1.0  1.0  5  0 268861167
[01]  G07  f 45  -3610.6 2046004.7  1.0  1.0  5  0 268861165
[02]  G09  f 43   -538.4 2046000.7  1.0  1.0  5  0 268861170
[03]  G16  f 44   1092.4 2045998.6  1.0  1.0  5  0 268861173
[04]  G21  f 40   1747.8 2045997.7  1.0  1.0  5  0 268861161
[05]  G26  f 41   1652.9 2045997.8  1.0  1.0  5  0 268861168
[06]  G08  1 26  -1862.3 2046002.9  0.1  0.0  1  0        14
[16]  B07 1f 44   -544.6 4092001.4  1.0  1.0  5  0 268847123
[17]  B10 1f 43   -591.4 4092001.5  1.0  1.0  5  0 268847120
[18]  B28 1f 45   1509.3 4091996.0  1.0  1.0  5  0 268847168
[19]  B19  7 33   1280.1 4091996.6  1.0  0.9  5  0      5035
$GNGGA,000000.000,,,,,0,00,,,M,,,,0000*2B
$GNRMC,000000.000,A,,,,,,,000000,,*26
$GPGSA,A,1,,,,,,,,,,,,,,,*1E
$BDGSA,A,1,,,,,,,,,,,,,,,*0F
$GPGSV,2,1,06,04,00,000,43,07,00,000,45,09,00,000,43,16,00,000,44*70
$GPGSV,2,2,06,21,00,000,40,26,00,000,41*79
$BDGSV,1,1,04,07,00,000,44,10,00,000,43,28,00,000,45,19,00,000,33*6E
$LOGTIM,0,0.000000,0.000000,0.000000,0.000000,0.000*0A
EndT:        0
---00000028--- Acq_st=3 2019-5-22 02:40:45 
[00]  G04  f 43  -1703.7 2046002.2  1.0  1.0  5  0 268862167
[01]  G07  f 44  -3612.3 2046004.7  1.0  1.0  5  0 268862165
[02]  G09  f 43   -539.9 2046000.7  1.0  1.0  5  0 268862170
[03]  G16  f 44   1090.7 2045998.6  1.0  1.0  5  0 268862173
[04]  G21  f 40   1746.5 2045997.7  1.0  1.0  5  0 268862161
[05]  G26  f 41   1651.6 2045997.9  1.0  1.0  5  0 268862168
[06]  G08  7 35  -1862.6 2046002.3  0.8  0.9  5  0        14
[07]  G27  1 13    470.0 2046002.5  0.0  0.0  1  0         0
[16]  B07 1f 43   -546.7 4092001.4  1.0  1.0  5  0 268848123
[17]  B10 1f 43   -593.3 4092001.5  1.0  1.0  5  0 268848120
[18]  B28 1f 45   1507.9 4091996.0  1.0  1.0  5  0 268848168
[19]  B19  7 33   1279.7 4091996.5  1.0  1.0  5  0      6035
$GNGGA,000000.000,,,,,0,00,,,M,,,,0000*2B
$GNRMC,000000.000,A,,,,,,,000000,,*26
$GPGSA,A,1,,,,,,,,,,,,,,,*1E
$BDGSA,A,1,,,,,,,,,,,,,,,*0F
$GPGSV,2,1,07,04,00,000,43,07,00,000,44,09,00,000,43,16,00,000,44*70
$GPGSV,2,2,07,21,00,000,40,26,00,000,41,08,00,000,35*46
$BDGSV,1,1,04,07,00,000,43,10,00,000,43,28,00,000,45,19,00,000,33*69
$LOGTIM,0,0.000000,0.000000,0.000000,0.000000,0.000*0A
EndT:        0
---00000029--- Acq_st=3 2019-5-22 02:40:46 
[00]  G04  f 43  -1704.0 2046002.2  1.0  1.0  5  0 268863167
[01]  G07  f 44  -3612.8 2046004.7  1.0  1.0  5  0 268863165
[02]  G09  f 43   -539.9 2046000.7  1.0  1.0  5  0 268863170
[03]  G16  f 43   1090.2 2045998.6  1.0  1.0  5  0 268863173
[04]  G21  f 40   1746.3 2045997.7  1.0  1.0  5  0 268863161
[05]  G26  f 41   1650.6 2045997.9  1.0  1.0  5  0 268863168
[06]  G08  7 37  -1863.3 2046002.4  1.0  1.0  5  0        15
[07]  G27  7 14    447.6 2045999.3  0.4  0.0 20  0         3
[16]  B07 1f 44   -547.3 4092001.4  1.0  1.0  5  0 268849123
[17]  B10 1f 43   -593.8 4092001.5  1.0  1.0  5  0 268849120
[18]  B28 1f 45   1507.5 4091996.0  1.0  1.0  5  0 268849168
[19]  B19 1f 33   1278.9 4091996.7  1.0  1.0  5  0      7035
$GNGGA,000000.000,,,,,0,00,,,M,,,,0000*2B
$GNRMC,000000.000,A,,,,,,,000000,,*26
$GPGSA,A,1,,,,,,,,,,,,,,,*1E
$BDGSA,A,1,,,,,,,,,,,,,,,*0F
$GPGSV,2,1,08,04,00,000,43,07,00,000,44,09,00,000,43,16,00,000,43*78
$GPGSV,2,2,08,21,00,000,40,26,00,000,41,08,00,000,37,27,00,000,14*7B
$BDGSV,1,1,04,07,00,000,44,10,00,000,43,28,00,000,45,19,00,000,33*6E
$LOGTIM,0,0.000000,0.000000,0.000000,0.000000,0.000*0A
EndT:        0
---00000030--- Acq_st=3 2019-5-22 02:40:47 
[00]  G04  f 43  -1704.0 2046002.2  1.0  1.0  5  0 268864167
[01]  G07  f 45  -3613.0 2046004.7  1.0  1.0  5  0 268864165
[02]  G09  f 43   -539.6 2046000.7  1.0  1.0  5  0 268864170
[03]  G16  f 43   1090.1 2045998.6  1.0  1.0  5  0 268864173
[04]  G21  f 41   1746.0 2045997.7  1.0  1.0  5  0 268864161
[05]  G26  f 41   1650.3 2045997.8  1.0  1.0  5  0 268864168
[06]  G08  7 37  -1863.2 2046002.4  1.0  1.0  5  0        15
[07]  G27  7 44    448.5 2045999.3  0.7  1.0  5  0        17
[16]  B07 1f 44   -547.9 4092001.4  1.0  1.0  5  0 268850123
[17]  B10 1f 44   -594.4 4092001.5  1.0  1.0  5  0 268850120
[18]  B28 1f 45   1507.5 4091996.0  1.0  1.0  5  0 268850168
[19]  B19 1f 33   1278.7 4091996.6  1.0  1.0  5  0 268850155
$GNGGA,000000.000,,,,,0,00,,,M,,,,0000*2B
$GNRMC,000000.000,A,,,,,,,000000,,*26
$GPGSA,A,1,,,,,,,,,,,,,,,*1E
$BDGSA,A,1,,,,,,,,,,,,,,,*0F
$GPGSV,2,1,08,04,00,000,43,07,00,000,45,09,00,000,43,16,00,000,43*79
$GPGSV,2,2,08,21,00,000,41,26,00,000,41,08,00,000,37,27,00,000,44*7F
$BDGSV,1,1,04,07,00,000,44,10,00,000,44,28,00,000,45,19,00,000,33*69
$LOGTIM,0,0.000000,0.000000,0.000000,0.000000,0.000*0A
EndT:        0
---00000031--- Acq_st=3 2019-5-22 02:40:48 
[00]  G04  f 43  -1704.4 2046002.2  1.0  1.0  5  0 268865167
[01]  G07  f 45  -3613.9 2046004.7  1.0  1.0  5  0 268865165
[02]  G09  f 43   -539.9 2046000.7  1.0  1.0  5  0 268865170
[03]  G16  f 43   1088.8 2045998.6  1.0  1.0  5  0 268865173
[04]  G21  f 41   1745.2 2045997.7  1.0  1.0  5  0 268865161
[05]  G26  f 42   1649.2 2045997.8  1.0  1.0  5  0 268865168
[06]  G08  7 37  -1863.6 2046002.4  1.0  1.0  5  0        15
[07]  G27  7 45    447.7 2045999.3  1.0  1.0  5  0        17
[16]  B07 1f 43   -549.0 4092001.4  1.0  1.0  5  0 268851123
[17]  B10 1f 43   -595.7 4092001.6  1.0  1.0  5  0 268851120
[18]  B28 1f 45   1506.7 4091996.0  1.0  1.0  5  0 268851168
[19]  B19 1f 33   1277.6 4091996.6  1.0  1.0  5  0 268851155
$GNGGA,000000.000,,,,,0,00,,,M,,,,0000*2B
$GNRMC,000000.000,A,,,,,,,000000,,*26
$GPGSA,A,1,,,,,,,,,,,,,,,*1E
$BDGSA,A,1,,,,,,,,,,,,,,,*0F
$GPGSV,2,1,08,04,00,000,43,07,00,000,45,09,00,000,43,16,00,000,43*79
$GPGSV,2,2,08,21,00,000,41,26,00,000,42,08,00,000,37,27,00,000,45*7D
$BDGSV,1,1,04,07,00,000,43,10,00,000,43,28,00,000,45,19,00,000,33*69
$LOGTIM,0,0.000000,0.000000,0.000000,0.000000,0.000*0A
EndT:        0
---00000032--- Acq_st=3 2019-5-22 02:40:49 
[00]  G04  f 43  -1702.5 2046002.2  1.0  1.0  5  0 268866167
[01]  G07  f 45  -3613.0 2046004.7  1.0  1.0  5  0 268866165
[02]  G09  f 43   -538.2 2046000.7  1.0  1.0  5  0 268866170
[03]  G16  f 43   1090.0 2045998.6  1.0  1.0  5  0 268866173
[04]  G21  f 42   1746.6 2045997.7  1.0  1.0  5  0 268866161
[05]  G26  f 42   1650.2 2045997.9  1.0  1.0  5  0 268866168
[06]  G08  7 37  -1862.3 2046002.4  1.0  1.0  5  0        15
[07]  G27  7 45    449.2 2045999.4  1.0  1.0  5  0        17
[16]  B07 1f 44   -548.3 4092001.4  1.0  1.0  5  0 268852123
[17]  B10 1f 43   -594.5 4092001.6  1.0  1.0  5  0 268852120
[18]  B28 1f 46   1508.0 4091996.0  1.0  1.0  5  0 268852168
[19]  B19 1f 32   1279.2 4091996.7  1.0  0.9  5  0 268852155
$GNGGA,000000.000,,,,,0,00,,,M,,,,0000*2B
$GNRMC,000000.000,A,,,,,,,000000,,*26
$GPGSA,A,1,,,,,,,,,,,,,,,*1E
$BDGSA,A,1,,,,,,,,,,,,,,,*0F
$GPGSV,2,1,08,04,00,000,43,07,00,000,45,09,00,000,43,16,00,000,43*79
$GPGSV,2,2,08,21,00,000,42,26,00,000,42,08,00,000,37,27,00,000,45*7E
$BDGSV,1,1,04,07,00,000,44,10,00,000,43,28,00,000,46,19,00,000,32*6C
$LOGTIM,0,0.000000,0.000000,0.000000,0.000000,0.000*0A
EndT:        0
---00000033--- Acq_st=3 2019-5-22 02:40:50 
[00]  G04  f 43  -1702.6 2046002.2  1.0  1.0  5  0 268867167
[01]  G07  f 45  -3613.5 2046004.7  1.0  1.0  5  0 268867165
[02]  G09  f 43   -538.3 2046000.7  1.0  1.0  5  0 268867170
[03]  G16  f 44   1089.7 2045998.6  1.0  1.0  5  0 268867173
[04]  G21  f 42   1746.3 2045997.7  1.0  1.0  5  0 268867161
[05]  G26  f 42   1650.2 2045997.9  1.0  1.0  5  0 268867168
[06]  G08  f 38  -1862.1 2046002.4  1.0  1.0  5  0        15
[07]  G27  f 45    450.1 2045999.4  1.0  1.0  5  0        17
[16]  B07 1f 43   -548.5 4092001.4  1.0  1.0  5  0 268853123
[17]  B10 1f 43   -595.1 4092001.5  1.0  1.0  5  0 268853120
[18]  B28 1f 45   1507.9 4091996.0  1.0  1.0  5  0 268853168
[19]  B19 1f 32   1278.8 4091996.6  1.0  1.0  5  0 268853155
$GNGGA,000000.000,,,,,0,00,,,M,,,,0000*2B
$GNRMC,000000.000,A,,,,,,,000000,,*26
$GPGSA,A,1,,,,,,,,,,,,,,,*1E
$BDGSA,A,1,,,,,,,,,,,,,,,*0F
$GPGSV,2,1,08,04,00,000,43,07,00,000,45,09,00,000,43,16,00,000,44*7E
$GPGSV,2,2,08,21,00,000,42,26,00,000,42,08,00,000,38,27,00,000,45*71
$BDGSV,1,1,04,07,00,000,43,10,00,000,43,28,00,000,45,19,00,000,32*68
$LOGTIM,0,0.000000,0.000000,0.000000,0.000000,0.000*0A
EndT:        0
---00000034--- Acq_st=3 2019-5-22 02:40:51 
[00]  G04  f 43  -1702.6 2046002.2  1.0  1.0  5  0 268868167
[01]  G07  f 46  -3613.9 2046004.7  1.0  1.0  5  0 268868165
[02]  G09  f 43   -538.1 2046000.7  1.0  1.0  5  0 268868170
[03]  G16  f 44   1089.2 2045998.6  1.0  1.0  5  0 268868173
[04]  G21  f 41   1746.3 2045997.8  1.0  1.0  5  0 268868161
[05]  G26  f 42   1649.4 2045997.9  1.0  1.0  5  0 268868168
[06]  G08  f 37  -1862.1 2046002.4  1.0  0.9  5  0 268868175
[07]  G27  f 45    449.3 2045999.4  1.0  1.0  5  0 268868177
[16]  B07 1f 43   -549.2 4092001.4  1.0  1.0  5  0 268854123
[17]  B10 1f 44   -595.8 4092001.6  1.0  1.0  5  0 268854120
[18]  B28 1f 45   1508.0 4091996.0  1.0  1.0  5  0 268854168
[19]  B19 1f 32   1277.7 4091996.5  1.0  1.0  5  0 268854155
$GNGGA,000000.000,,,,,0,00,,,M,,,,0000*2B
$GNRMC,000000.000,A,,,,,,,000000,,*26
$GPGSA,A,1,,,,,,,,,,,,,,,*1E
$BDGSA,A,1,,,,,,,,,,,,,,,*0F
$GPGSV,2,1,08,04,00,000,43,07,00,000,46,09,00,000,43,16,00,000,44*7D
$GPGSV,2,2,08,21,00,000,41,26,00,000,42,08,00,000,37,27,00,000,45*7D
$BDGSV,1,1,04,07,00,000,43,10,00,000,44,28,00,000,45,19,00,000,32*6F
$LOGTIM,0,0.000000,0.000000,0.000000,0.000000,0.000*0A
EndT:        0
---00000035--- Acq_st=3 2019-5-22 02:40:52 
[00]  G04  f 41  -1702.9 2046002.2  1.0  1.0  5  0 268869167
[01]  G07  f 46  -3614.9 2046004.7  1.0  1.0  5  0 268869165
[02]  G09  f 43   -538.6 2046000.7  1.0  1.0  5  0 268869170
[03]  G16  f 44   1088.6 2045998.6  1.0  1.0  5  0 268869173
[04]  G21  f 42   1745.9 2045997.8  1.0  1.0  5  0 268869161
[05]  G26  f 42   1648.5 2045997.9  1.0  1.0  5  0 268869168
[06]  G08  f 37  -1862.5 2046002.4  1.0  1.0  5  0 268869175
[07]  G27  f 45    449.3 2045999.4  1.0  1.0  5  0 268869177
[16]  B07 1f 43   -549.8 4092001.4  1.0  1.0  5  0 268855123
[17]  B10 1f 43   -596.5 4092001.6  1.0  1.0  5  0 268855120
[18]  B28 1f 45   1507.5 4091996.0  1.0  1.0  5  0 268855168
[19]  B19 1f 31   1277.5 4091996.7  1.0  0.8  5  0 268855155
$GNGGA,000000.000,,,,,0,00,,,M,,,,0000*2B
$GNRMC,000000.000,A,,,,,,,000000,,*26
$GPGSA,A,1,,,,,,,,,,,,,,,*1E
$BDGSA,A,1,,,,,,,,,,,,,,,*0F
$GPGSV,2,1,08,04,00,000,41,07,00,000,46,09,00,000,43,16,00,000,44*7F
$GPGSV,2,2,08,21,00,000,42,26,00,000,42,08,00,000,37,27,00,000,45*7E
$BDGSV,1,1,04,07,00,000,43,10,00,000,43,28,00,000,45,19,00,000,31*6B
$LOGTIM,0,0.000000,0.000000,0.000000,0.000000,0.000*0A
EndT:        0
---00000036--- Acq_st=3 2019-5-22 02:40:53 
[00]  G04  f 42  -1703.6 2046002.2  1.0  1.0  5  0 268870167
[01]  G07  f 46  -3615.8 2046004.7  1.0  1.0  5  0 268870165
[02]  G09  f 43   -539.4 2046000.7  1.0  1.0  5  0 268870170
[03]  G16  f 43   1087.5 2045998.6  1.0  1.0  5  0 268870173
[04]  G21  f 41   1745.3 2045997.7  1.0  1.0  5  0 268870161
[05]  G26  f 41   1647.2 2045997.8  1.0  1.0  5  0 268870168
[06]  G08  f 38  -1863.0 2046002.4  1.0  1.0  5  0 268870175
[07]  G27  f 46    448.6 2045999.4  1.0  1.0  5  0 268870177
[16]  B07 1f 43   -551.2 4092001.4  1.0  1.0  5  0 268856123
[17]  B10 1f 43   -597.9 4092001.5  1.0  1.0  5  0 268856120
[18]  B28 1f 45   1506.7 4091996.1  1.0  1.0  5  0 268856168
[19]  B19 1f 30   1277.0 4091996.7  1.0  0.9  5  0 268856155
$GNGGA,000000.000,,,,,0,00,,,M,,,,0000*2B
$GNRMC,000000.000,A,,,,,,,000000,,*26
$GPGSA,A,1,,,,,,,,,,,,,,,*1E
$BDGSA,A,1,,,,,,,,,,,,,,,*0F
$GPGSV,2,1,08,04,00,000,42,07,00,000,46,09,00,000,43,16,00,000,43*7B
$GPGSV,2,2,08,21,00,000,41,26,00,000,41,08,00,000,38,27,00,000,46*72
$BDGSV,1,1,04,07,00,000,43,10,00,000,43,28,00,000,45,19,00,000,30*6A
$LOGTIM,0,0.000000,0.000000,0.000000,0.000000,0.000*0A
EndT:        0
---00000037--- Acq_st=7 2019-5-22 02:40:54 
[00]  G04  f 42  -1703.7 2046002.2  1.0  1.0  5 3f 268871167
[01]  G07  f 46  -3617.1 2046004.7  1.0  1.0  5  0 268871165
[02]  G09  f 43   -539.4 2046000.7  1.0  1.0  5  0 268871170
[03]  G16  f 43   1086.6 2045998.6  1.0  1.0  5  0 268871173
[04]  G21  f 42   1744.3 2045997.7  1.0  1.0  5  0 268871161
[05]  G26  f 42   1646.3 2045997.9  1.0  1.0  5  0 268871168
[06]  G08  f 38  -1863.7 2046002.5  1.0  1.0  5  0 268871175
[07]  G27  f 45    447.9 2045999.4  1.0  1.0  5  0 268871177
[16]  B07 1f 43   -552.3 4092001.5  1.0  1.0  5  0 268857123
[17]  B10 1f 43   -598.8 4092001.5  1.0  1.0  5  0 268857120
[18]  B28 1f 45   1506.2 4091996.0  1.0  1.0  5  0 268857168
[19]  B19 1f 30   1275.7 4091996.6  1.0  0.9  5  0 268857155
lsq: nits= 4
$GNGGA,024054.245,3112.6992,N,12136.4293,E,1,07,2.8,9.5,M,,,,0000*1A
$GNRMC,024054.245,A,3112.6992,N,12136.4293,E,0.09,0.00,220519,,*13
$GPGSA,A,3,07,09,16,21,26,,,,,,,,4.0,2.8,2.8*38
$BDGSA,A,3,07,10,,,,,,,,,,,4.0,2.8,2.8*21
$GPGSV,2,1,08,04,00,000,42,07,00,000,46,09,00,000,43,16,00,000,43*7B
$GPGSV,2,2,08,21,00,000,42,26,00,000,42,08,00,000,38,27,00,000,45*71
$BDGSV,1,1,04,07,00,000,43,10,00,000,43,28,00,000,45,19,00,000,30*6A
$LOGTIM,3,8551307.800761,8551106.710417,0.000000,0.000000,-64.225*1C
EndT:        1
---00000038--- Acq_st=3 2019-5-22 02:40:54 
[00]  G04  f 42  -1702.2 2046002.2  1.0  1.0  5 3f 268872167
[01]  G07  f 46  -3615.5 2046004.7  1.0  1.0  5  0 268872165
[02]  G09  f 43   -537.2 2046000.7  1.0  1.0  5  0 268872170
[03]  G16  f 43   1088.4 2045998.6  1.0  1.0  5  0 268872173
[04]  G21  f 42   1746.2 2045997.7  1.0  1.0  5  0 268872161
[05]  G26  f 42   1648.2 2045997.9  1.0  1.0  5  0 268872168
[06]  G08  f 38  -1861.8 2046002.4  1.0  1.0  5  0 268872175
[07]  G27  f 45    450.1 2045999.4  1.0  1.0  5  0 268872177
[16]  B07 1f 43   -551.1 4092001.4  1.0  1.0  5  0 268858123
[17]  B10 1f 43   -597.6 4092001.5  1.0  1.0  5  0 268858120
[18]  B28 1f 45   1507.8 4091996.1  1.0  1.0  5  0 268858168
[19]  B19 1f 32   1277.5 4091996.6  1.0  0.9  5  0 268858155
lsq: nits= 2
$GNGGA,024056.000,3112.6938,N,12136.4359,E,1,07,2.0,0.5,M,,,,0000*1D
$GNRMC,024056.000,A,3112.6938,N,12136.4359,E,0.42,0.00,220519,,*1A
$GPGSA,A,3,07,09,16,21,26,,,,,,,,2.3,2.0,1.1*3F
$BDGSA,A,3,07,10,,,,,,,,,,,2.3,2.0,1.1*26
$GPGSV,2,1,08,04,00,000,42,07,00,000,46,09,00,000,43,16,00,000,43*7B
$GPGSV,2,2,08,21,00,000,42,26,00,000,42,08,00,000,38,27,00,000,45*71
$BDGSV,1,1,04,07,00,000,43,10,00,000,43,28,00,000,45,19,00,000,32*68
$LOGTIM,3,-120.595977,-296.283120,0.000000,0.000000,-62.834*1B
EndT:        3
---00000039--- Acq_st=3 2019-5-22 02:40:56 
[00]  G04  f 41  -1695.6 2046002.2  1.0  1.0  5 3f 268873921
[01]  G07  f 46  -3609.8 2046004.7  1.0  1.0  5  0 268873920
[02]  G09  f 43   -530.8 2046000.7  1.0  1.0  5  0 268873924
[03]  G16  f 43   1094.1 2045998.6  1.0  1.0  5  0 268873928
[04]  G21  f 41   1752.6 2045997.7  1.0  1.0  5  0 268873916
[05]  G26  f 42   1653.9 2045997.8  1.0  1.0  5  0 268873923
[06]  G08  f 38  -1855.4 2046002.4  1.0  1.0  5  0 268873930
[07]  G27  f 46    456.6 2045999.4  1.0  1.0  5  0 268873932
[16]  B07 1f 43   -545.2 4092001.4  1.0  1.0  5  0 268859878
[17]  B10 1f 44   -591.5 4092001.5  1.0  1.0  5  0 268859875
[18]  B28 1f 45   1514.4 4091996.0  1.0  1.0  5  0 268859923
[19]  B19 1f 32   1283.3 4091996.6  1.0  1.0  5  0 268859909
lsq: nits= 2
$GNGGA,024057.000,3112.6983,N,12136.4327,E,1,07,2.0,8.2,M,,,,0000*1A
$GNRMC,024057.000,A,3112.6983,N,12136.4327,E,0.40,0.00,220519,,*10
$GPGSA,A,3,07,09,16,21,26,,,,,,,,2.3,2.0,1.1*3F
$BDGSA,A,3,07,10,,,,,,,,,,,2.3,2.0,1.1*26
$GPGSV,2,1,08,04,00,000,41,07,21,316,46,09,31,284,43,16,47,038,43*7B
$GPGSV,2,2,08,21,11,044,41,26,28,068,42,08,00,000,38,27,00,000,46*75
$BDGSV,1,1,04,07,65,001,43,10,50,311,44,28,00,000,45,19,00,000,32*6B
$LOGTIM,3,-177.635984,-363.615351,0.000000,0.000000,-62.645*10
EndT:        3
---00000040--- Acq_st=3 2019-5-22 02:40:57 
[00]  G04  f 42  -1695.4 2046002.2  1.0  1.0  5 3f 268874921
[01]  G07  f 45  -3610.5 2046004.7  1.0  1.0  5  0 268874920
[02]  G09  f 43   -531.3 2046000.7  1.0  1.0  5  0 268874924
[03]  G16  f 43   1093.6 2045998.6  1.0  1.0  5  0 268874928
[04]  G21  f 41   1752.1 2045997.7  1.0  1.0  5  0 268874916
[05]  G26  f 41   1653.1 2045997.9  1.0  1.0  5  0 268874923
[06]  G08  f 38  -1855.6 2046002.4  1.0  1.0  5  0 268874930
[07]  G27  f 45    456.2 2045999.4  1.0  1.0  5  0 268874932
[16]  B07 1f 43   -546.0 4092001.4  1.0  1.0  5  0 268860878
[17]  B10 1f 43   -592.6 4092001.5  1.0  1.0  5  0 268860875
[18]  B28 1f 45   1514.1 4091996.1  1.0  1.0  5  0 268860923
[19]  B19 1f 33   1282.8 4091996.6  1.0  0.9  5  0 268860909
lsq: nits= 2
$GNGGA,024058.000,3112.6977,N,12136.4337,E,1,07,2.0,8.3,M,,,,0000*1E
$GNRMC,024058.000,A,3112.6977,N,12136.4337,E,0.84,0.00,220519,,*1D
$GPGSA,A,3,07,09,16,21,26,,,,,,,,2.3,2.0,1.1*3F
$BDGSA,A,3,07,10,,,,,,,,,,,2.3,2.0,1.1*26
$GPGSV,2,1,08,04,00,000,42,07,21,316,45,09,31,284,43,16,47,038,43*7B
$GPGSV,2,2,08,21,11,044,41,26,28,068,41,08,00,000,38,27,00,000,45*75
$BDGSV,1,1,04,07,65,001,43,10,50,311,43,28,00,000,45,19,00,000,33*6D
$LOGTIM,3,-241.404043,-423.551225,0.000000,0.000000,-63.235*14
EndT:        3
---00000041--- Acq_st=3 2019-5-22 02:40:58 
[00]  G04  f 42  -1699.6 2046002.2  1.0  1.0  5 3f 268875921
[01]  G07  f 46  -3614.5 2046004.7  1.0  1.0  5  0 268875920
[02]  G09  f 43   -534.5 2046000.7  1.0  1.0  5  0 268875924
[03]  G16  f 44   1089.4 2045998.6  1.0  1.0  5  0 268875928
[04]  G21  f 41   1748.3 2045997.7  1.0  1.0  5  0 268875916
[05]  G26  f 42   1649.1 2045997.9  1.0  1.0  5  0 268875923
[06]  G08  f 38  -1859.5 2046002.4  1.0  1.0  5  0 268875930
[07]  G27  f 46    452.5 2045999.4  1.0  1.0  5  0 268875932
[16]  B07 1f 43   -550.1 4092001.4  1.0  1.0  5  0 268861878
[17]  B10 1f 44   -596.6 4092001.6  1.0  1.0  5  0 268861875
[18]  B28 1f 45   1510.2 4091996.0  1.0  1.0  5  0 268861923
[19]  B19 1f 34   1278.7 4091996.7  1.0  1.0  5  0 268861909
lsq: nits= 2
$GNGGA,024059.000,3112.6979,N,12136.4345,E,1,07,2.0,7.5,M,,,,0000*1D
$GNRMC,024059.000,A,3112.6979,N,12136.4345,E,1.03,0.00,220519,,*19
$GPGSA,A,3,07,09,16,21,26,,,,,,,,2.3,2.0,1.1*3F
$BDGSA,A,3,07,10,,,,,,,,,,,2.3,2.0,1.1*26
$GPGSV,2,1,08,04,00,000,42,07,21,316,46,09,31,284,43,16,47,038,44*7F
$GPGSV,2,2,08,21,11,044,41,26,28,068,42,08,00,000,38,27,00,000,46*75
$BDGSV,1,1,04,07,65,001,43,10,50,311,44,28,00,000,45,19,00,000,34*6D
$LOGTIM,3,-305.448480,-485.174050,0.000000,0.000000,-63.698*1A
EndT:        3
---00000042--- Acq_st=3 2019-5-22 02:40:59 
[00]  G04  f 41  -1701.2 2046002.2  1.0  1.0  5 3f 268876921
[01]  G07  f 45  -3617.0 2046004.7  1.0  1.0  5  0 268876920
[02]  G09  f 43   -536.5 2046000.7  1.0  1.0  5  0 268876924
[03]  G16  f 43   1087.0 2045998.6  1.0  1.0  5  0 268876928
[04]  G21  f 40   1746.1 2045997.7  1.0  1.0  5  0 268876916
[05]  G26  f 42   1646.8 2045997.9  1.0  1.0  5  0 268876923
[06]  G08  f 38  -1861.5 2046002.4  1.0  1.0  5  0 268876930
[07]  G27  f 46    450.6 2045999.4  1.0  1.0  5  0 268876932
[16]  B07 1f 43   -552.6 4092001.4  1.0  1.0  5  0 268862878
[17]  B10 1f 43   -599.4 4092001.6  1.0  1.0  5  0 268862875
[18]  B28 1f 45   1508.0 4091996.1  1.0  1.0  5  0 268862923
[19]  B19 1f 34   1276.2 4091996.7  1.0  1.0  5  0 268862909
lsq: nits= 2
$GNGGA,024100.000,3112.6981,N,12136.4348,E,1,07,2.0,7.3,M,,,,0000*1C
$GNRMC,024100.000,A,3112.6981,N,12136.4348,E,1.15,0.00,220519,,*19
$GPGSA,A,3,07,09,16,21,26,,,,,,,,2.3,2.0,1.1*3F
$BDGSA,A,3,07,10,,,,,,,,,,,2.3,2.0,1.1*26
$GPGSV,2,1,08,04,00,000,41,07,21,316,45,09,31,284,43,16,47,038,43*78
$GPGSV,2,2,08,21,11,044,40,26,28,068,42,08,00,000,38,27,00,000,46*74
$BDGSV,1,1,04,07,65,001,43,10,50,311,43,28,00,000,45,19,00,000,34*6A
$LOGTIM,3,-369.453453,-547.035500,0.000000,0.000000,-63.967*10
EndT:        3
---00000043--- Acq_st=3 2019-5-22 02:41:0 
[00]  G04  f 41  -1700.9 2046002.2  1.0  1.0  5 3f 268877921
[01]  G07  f 45  -3616.9 2046004.7  1.0  1.0  5  0 268877920
[02]  G09  f 43   -536.0 2046000.7  1.0  1.0  5  0 268877924
[03]  G16  f 43   1086.9 2045998.6  1.0  1.0  5  0 268877928
[04]  G21  f 41   1746.2 2045997.7  1.0  1.0  5  0 268877916
[05]  G26  f 42   1646.8 2045997.8  1.0  1.0  5  0 268877923
[06]  G08  f 38  -1860.9 2046002.4  1.0  1.0  5  0 268877930
[07]  G27  f 46    451.3 2045999.4  1.0  1.0  5  0 268877932
[16]  B07 1f 44   -552.7 4092001.4  1.0  1.0  5  0 268863878
[17]  B10 1f 44   -599.8 4092001.5  1.0  1.0  5  0 268863875
[18]  B28 1f 45   1508.5 4091996.0  1.0  1.0  5  0 268863923
[19]  B19 1f 35   1276.8 4091996.6  1.0  1.0  5  0 268863909
lsq: nits= 2
$GNGGA,024101.000,3112.6988,N,12136.4353,E,1,07,2.0,7.3,M,,,,0000*1E
$GNRMC,024101.000,A,3112.6988,N,12136.4353,E,0.45,0.00,220519,,*1F
$GPGSA,A,3,07,09,16,21,26,,,,,,,,2.3,2.0,1.1*3F
$BDGSA,A,3,07,10,,,,,,,,,,,2.3,2.0,1.1*26
$GPGSV,2,1,08,04,00,000,41,07,21,316,45,09,31,284,43,16,47,038,43*78
$GPGSV,2,2,08,21,11,044,41,26,28,068,42,08,00,000,38,27,00,000,46*75
$BDGSV,1,1,04,07,65,001,44,10,50,311,44,28,00,000,45,19,00,000,35*6B
$LOGTIM,3,-432.656193,-608.683611,0.000000,0.000000,-63.349*11
EndT:        3
---00000044--- Acq_st=3 2019-5-22 02:41:1 
[00]  G04  f 42  -1693.7 2046002.2  1.0  1.0  5 3f 268878921
[01]  G07  f 45  -3610.2 2046004.7  1.0  1.0  5  0 268878920
[02]  G09  f 43   -528.8 2046000.7  1.0  1.0  5  0 268878924
[03]  G16  f 43   1093.8 2045998.6  1.0  1.0  5  0 268878928
[04]  G21  f 40   1753.5 2045997.7  1.0  1.0  5  0 268878916
[05]  G26  f 42   1653.5 2045997.9  1.0  1.0  5  0 268878923
[06]  G08  f 38  -1853.6 2046002.4  1.0  1.0  5  0 268878930
[07]  G27  f 46    458.3 2045999.4  1.0  1.0  5  0 268878932
[16]  B07 1f 44   -546.7 4092001.4  1.0  1.0  5  0 268864878
[17]  B10 1f 44   -593.2 4092001.5  1.0  1.0  5  0 268864875
[18]  B28 1f 44   1514.8 4091996.0  1.0  1.0  5  0 268864923
[19]  B19 1f 35   1283.1 4091996.6  1.0  1.0  5  0 268864909
lsq: nits= 2
$GNGGA,024102.000,3112.7006,N,12136.4335,E,1,07,2.0,11.5,M,,,,0000*22
$GNRMC,024102.000,A,3112.7006,N,12136.4335,E,0.35,0.00,220519,,*15
$GPGSA,A,3,07,09,16,21,26,,,,,,,,2.3,2.0,1.1*3F
$BDGSA,A,3,07,10,,,,,,,,,,,2.3,2.0,1.1*26
$GPGSV,2,1,08,04,00,000,42,07,21,316,45,09,31,284,43,16,47,038,43*7B
$GPGSV,2,2,08,21,11,044,40,26,28,068,42,08,00,000,38,27,00,000,46*74
$BDGSV,1,1,04,07,65,001,44,10,50,311,44,28,00,000,44,19,00,000,35*6A
$LOGTIM,3,-494.233424,-673.202487,0.000000,0.000000,-62.589*14
EndT:        3
---00000045--- Acq_st=3 2019-5-22 02:41:2 
[00]  G04  f 42  -1688.5 2046002.2  1.0  1.0  5 3f 268879921
[01]  G07  f 45  -3605.7 2046004.7  1.0  1.0  5  0 268879920
[02]  G09  f 43   -523.8 2046000.7  1.0  1.0  5  0 268879924
[03]  G16  f 43   1098.4 2045998.6  1.0  1.0  5  0 268879928
[04]  G21  f 40   1758.1 2045997.7  1.0  1.0  5  0 268879916
[05]  G26  f 42   1658.0 2045997.9  1.0  1.0  5  0 268879923
[06]  G08  f 38  -1848.4 2046002.4  1.0  1.0  5  0 268879930
[07]  G27  f 46    463.5 2045999.4  1.0  1.0  5  0 268879932
[16]  B07 1f 43   -541.9 4092001.4  1.0  1.0  5  0 268865878
[17]  B10 1f 44   -588.3 4092001.5  1.0  1.0  5  0 268865875
[18]  B28 1f 44   1520.6 4091996.0  1.0  1.0  5  0 268865923
[19]  B19 1f 34   1288.0 4091996.5  1.0  0.9  5  0 268865909
lsq: nits= 2
$GNGGA,024103.000,3112.7004,N,12136.4342,E,1,07,2.0,9.6,M,,,,0000*1B
$GNRMC,024103.000,A,3112.7004,N,12136.4342,E,0.15,0.00,220519,,*14
$GPGSA,A,3,07,09,16,21,26,,,,,,,,2.3,2.0,1.1*3F
$BDGSA,A,3,07,10,,,,,,,,,,,2.3,2.0,1.1*26
$GPGSV,2,1,08,04,00,000,42,07,21,316,45,09,31,284,43,16,47,038,43*7B
$GPGSV,2,2,08,21,11,044,40,26,28,068,42,08,00,000,38,27,00,000,46*74
$BDGSV,1,1,04,07,65,001,43,10,50,311,44,28,00,000,44,19,00,000,34*6C
$LOGTIM,3,-556.759621,-734.349618,0.000000,0.000000,-62.596*13
EndT:        3
---00000046--- Acq_st=3 2019-5-22 02:41:3 
[00]  G04  f 42  -1691.3 2046002.2  1.0  1.0  5 3f 268880921
[01]  G07  f 45  -3609.0 2046004.7  1.0  1.0  5  0 268880920
[02]  G09  f 43   -526.1 2046000.7  1.0  1.0  5  0 268880924
[03]  G16  f 42   1095.3 2045998.6  1.0  1.0  5  0 268880928
[04]  G21  f 40   1755.5 2045997.7  1.0  1.0  5  0 268880916
[05]  G26  f 42   1654.6 2045997.9  1.0  1.0  5  0 268880923
[06]  G08  f 38  -1850.8 2046002.4  1.0  1.0  5  0 268880930
[07]  G27  f 47    460.9 2045999.4  1.0  1.0  5  0 268880932
[16]  B07 1f 44   -545.2 4092001.4  1.0  1.0  5  0 268866878
[17]  B10 1f 44   -591.5 4092001.6  1.0  1.0  5  0 268866875
[18]  B28 1f 44   1517.6 4091996.1  1.0  1.0  5  0 268866923
[19]  B19 1f 34   1285.4 4091996.7  1.0  1.0  5  0 268866909
lsq: nits= 2
$GNGGA,024104.000,3112.7005,N,12136.4344,E,1,07,2.0,8.3,M,,,,0000*1F
$GNRMC,024104.000,A,3112.7005,N,12136.4344,E,0.49,0.00,220519,,*1D
$GPGSA,A,3,07,09,16,21,26,,,,,,,,2.3,2.0,1.1*3F
$BDGSA,A,3,07,10,,,,,,,,,,,2.3,2.0,1.1*26
$GPGSV,2,1,08,04,00,000,42,07,21,316,45,09,31,284,43,16,47,038,42*7A
$GPGSV,2,2,08,21,11,044,40,26,28,068,42,08,00,000,38,27,00,000,47*75
$BDGSV,1,1,04,07,65,001,44,10,50,311,44,28,00,000,44,19,00,000,34*6B
$LOGTIM,3,-619.785538,-796.238350,0.000000,0.000000,-63.088*1C
EndT:        3
---00000047--- Acq_st=3 2019-5-22 02:41:4 
[00]  G04  f 42  -1693.7 2046002.2  1.0  1.0  5 3f 268881921
[01]  G07  f 45  -3612.3 2046004.7  1.0  1.0  5  0 268881920
[02]  G09  f 43   -529.4 2046000.7  1.0  1.0  5  0 268881924
[03]  G16  f 42   1092.2 2045998.6  1.0  1.0  5  0 268881928
[04]  G21  f 40   1752.7 2045997.7  1.0  1.0  5  0 268881916
[05]  G26  f 42   1651.3 2045997.8  1.0  1.0  5  0 268881923
[06]  G08  f 38  -1854.6 2046002.4  1.0  1.0  5  0 268881930
[07]  G27  f 47    457.8 2045999.4  1.0  1.0  5  0 268881932
[16]  B07 1f 44   -548.5 4092001.4  1.0  1.0  5  0 268867878
[17]  B10 1f 44   -595.0 4092001.6  1.0  1.0  5  0 268867875
[18]  B28 1f 44   1514.6 4091996.0  1.0  1.0  5  0 268867923
[19]  B19 1f 33   1281.8 4091996.6  1.0  0.9  5  0 268867909
lsq: nits= 2
$GNGGA,024105.000,3112.7008,N,12136.4346,E,1,07,2.0,8.0,M,,,,0000*12
$GNRMC,024105.000,A,3112.7008,N,12136.4346,E,0.50,0.00,220519,,*1B
$GPGSA,A,3,07,09,16,21,26,,,,,,,,2.3,2.0,1.1*3F
$BDGSA,A,3,07,10,,,,,,,,,,,2.3,2.0,1.1*26
$GPGSV,2,1,08,04,00,000,42,07,21,316,45,09,31,284,43,16,47,038,42*7A
$GPGSV,2,2,08,21,11,044,40,26,28,068,42,08,00,000,38,27,00,000,47*75
$BDGSV,1,1,04,07,65,001,44,10,50,311,44,28,00,000,44,19,00,000,33*6C
$LOGTIM,3,-682.642580,-858.154542,0.000000,0.000000,-63.104*13
EndT:        3
---00000048--- Acq_st=7 2019-5-22 02:41:5 
[00]  G04  f 42  -1692.6 2046002.2  1.0  1.0  5 3f 268882921
[01]  G07  f 46  -3611.5 2046004.7  1.0  1.0  5  0 268882920
[02]  G09  f 42   -527.6 2046000.7  1.0  1.0  5  0 268882924
[03]  G16  f 42   1092.9 2045998.6  1.0  1.0  5  0 268882928
[04]  G21  f 40   1753.8 2045997.7  1.0  1.0  5  0 268882916
[05]  G26  f 42   1652.5 2045997.9  1.0  1.0  5  0 268882923
[06]  G08  f 39  -1852.9 2046002.4  1.0  1.0  5  0 268882930
[07]  G27  f 47    459.4 2045999.4  1.0  1.0  5  0 268882932
[16]  B07 1f 43   -547.9 4092001.5  1.0  1.0  5  0 268868878
[17]  B10 1f 44   -594.6 4092001.5  1.0  1.0  5  0 268868875
[18]  B28 1f 44   1515.7 4091996.0  1.0  1.0  5  0 268868923
[19]  B19 1f 34   1283.7 4091996.7  1.0  0.9  5  0 268868909
lsq: nits= 2
$GNGGA,024106.000,3112.7011,N,12136.4349,E,1,07,2.0,8.2,M,,,,0000*14
$GNRMC,024106.000,A,3112.7011,N,12136.4349,E,0.54,0.00,220519,,*1B
$GPGSA,A,3,07,09,16,21,26,,,,,,,,2.3,2.0,1.1*3F
$BDGSA,A,3,07,10,,,,,,,,,,,2.3,2.0,1.1*26
$GPGSV,2,1,08,04,00,000,42,07,21,316,46,09,31,284,42,16,47,038,42*78
$GPGSV,2,2,08,21,11,044,40,26,28,068,42,08,00,000,39,27,00,000,47*74
$BDGSV,1,1,04,07,65,001,43,10,50,311,44,28,00,000,44,19,00,000,34*6C
$LOGTIM,3,-745.671365,-920.232580,0.000000,0.000000,-63.229*1B
EndT:        3
---00000049--- Acq_st=7 2019-5-22 02:41:6 
[00]  G04  f 42  -1693.4 2046002.2  1.0  1.0  5 3f 268883921
[01]  G07  f 46  -3612.7 2046004.7  1.0  1.0  5  0 268883920
[02]  G09  f 42   -528.1 2046000.7  1.0  1.0  5  0 268883924
[03]  G16  f 43   1092.0 2045998.6  1.0  1.0  5  0 268883928
[04]  G21  f 41   1753.0 2045997.7  1.0  1.0  5  0 268883916
[05]  G26  f 41   1651.0 2045997.9  1.0  1.0  5  0 268883923
[06]  G08  f 39  -1853.4 2046002.4  1.0  0.9  5  0 268883930
[07]  G27  f 46    458.9 2045999.4  1.0  1.0  5  0 268883932
[16]  B07 1f 43   -549.1 4092001.4  1.0  1.0  5  0 268869878
[17]  B10 1f 44   -595.9 4092001.6  1.0  1.0  5  0 268869875
[18]  B28 1f 43   1514.6 4091996.0  1.0  1.0  5  0 268869923
[19]  B19 1f 34   1281.1 4091996.7  1.0  0.9  5  0 268869909
lsq: nits= 2
$GNGGA,024107.000,3112.7022,N,12136.4323,E,1,07,2.0,13.4,M,,,,0000*25
$GNRMC,024107.000,A,3112.7022,N,12136.4323,E,0.65,0.00,220519,,*14
$GPGSA,A,3,07,09,16,21,26,,,,,,,,2.3,2.0,1.1*3F
$BDGSA,A,3,07,10,,,,,,,,,,,2.3,2.0,1.1*26
$GPGSV,2,1,08,04,00,000,42,07,21,316,46,09,31,284,42,16,47,038,43*79
$GPGSV,2,2,08,21,11,044,41,26,28,068,41,08,00,000,39,27,00,000,46*77
$BDGSV,1,1,04,07,65,001,43,10,50,311,44,28,00,000,43,19,00,000,34*6B
$LOGTIM,3,-808.607788,-985.006205,0.000000,0.000000,-63.434*11
EndT:        3
---00000050--- Acq_st=3 2019-5-22 02:41:7 
[00]  G04  f 42  -1694.2 2046002.2  1.0  1.0  5 3f 268884921
[01]  G07  f 45  -3614.2 2046004.7  1.0  1.0  5  0 268884920
[02]  G09  f 42   -529.7 2046000.7  1.0  1.0  5  0 268884924
[03]  G16  f 43   1090.3 2045998.6  1.0  1.0  5  0 268884928
[04]  G21  f 41   1751.6 2045997.8  1.0  1.0  5  0 268884916
[05]  G26  f 42   1649.4 2045997.9  1.0  1.0  5  0 268884923
[06]  G08  f 39  -1854.9 2046002.4  1.0  1.0  5  0 268884930
[07]  G27  f 46    457.7 2045999.4  1.0  1.0  5  0 268884932
[16]  B07 1f 43   -550.8 4092001.4  1.0  1.0  5  0 268870878
[17]  B10 1f 44   -597.5 4092001.6  1.0  1.0  5  0 268870875
[18]  B28 1f 44   1513.5 4091996.0  1.0  1.0  5  0 268870923
[19]  B19 1f 34   1280.2 4091996.6  1.0  1.0  5  0 268870909
lsq: nits= 2
$GNGGA,024108.000,3112.7015,N,12136.4331,E,1,07,2.0,11.0,M,,,,0000*2B
$GNRMC,024108.000,A,3112.7015,N,12136.4331,E,0.60,0.00,220519,,*19
$GPGSA,A,3,07,09,16,21,26,,,,,,,,2.3,2.0,1.1*3F
$BDGSA,A,3,07,10,,,,,,,,,,,2.3,2.0,1.1*26
$GPGSV,2,1,08,04,00,000,42,07,21,316,45,09,31,284,42,16,47,038,43*7A
$GPGSV,2,2,08,21,11,044,41,26,28,068,42,08,00,000,39,27,00,000,46*74
$BDGSV,1,1,04,07,65,001,43,10,50,311,44,28,00,000,44,19,00,000,34*6C
$LOGTIM,3,-872.080654,-1046.663880,0.000000,0.000000,-63.440*23
EndT:        3
---00000051--- Acq_st=3 2019-5-22 02:41:8 
[00]  G04  f 42  -1692.8 2046002.2  1.0  1.0  5 3f 268885921
[01]  G07  f 45  -3613.3 2046004.7  1.0  1.0  5  0 268885920
[02]  G09  f 41   -528.2 2046000.7  1.0  1.0  5  0 268885924
[03]  G16  f 43   1091.4 2045998.6  1.0  1.0  5  0 268885928
[04]  G21  f 40   1752.7 2045997.7  1.0  1.0  5  0 268885916
[05]  G26  f 41   1650.3 2045997.9  1.0  1.0  5  0 268885923
[06]  G08  f 39  -1853.1 2046002.3  1.0  1.0  5  0 268885930
[07]  G27  f 46    458.9 2045999.4  1.0  1.0  5  0 268885932
[16]  B07 1f 43   -550.3 4092001.4  1.0  1.0  5  0 268871878
[17]  B10 1f 44   -596.4 4092001.5  1.0  1.0  5  0 268871875
[18]  B28 1f 44   1514.8 4091996.0  1.0  1.0  5  0 268871923
[19]  B19 1f 34   1281.8 4091996.7  1.0  1.0  5  0 268871909
lsq: nits= 2
$GNGGA,024109.000,3112.7014,N,12136.4333,E,1,07,2.0,10.8,M,,,,0000*20
$GNRMC,024109.000,A,3112.7014,N,12136.4333,E,0.65,0.00,220519,,*1E
$GPGSA,A,3,07,09,16,21,26,,,,,,,,2.3,2.0,1.1*3F
$BDGSA,A,3,07,10,,,,,,,,,,,2.3,2.0,1.1*26
$GPGSV,2,1,08,04,00,000,42,07,21,316,45,09,31,284,41,16,47,038,43*79
$GPGSV,2,2,08,21,11,044,40,26,28,068,41,08,00,000,39,27,00,000,46*76
$BDGSV,1,1,04,07,65,001,43,10,50,311,44,28,00,000,44,19,00,000,34*6C
$LOGTIM,3,-935.632706,-1109.466588,0.000000,0.000000,-63.520*27
EndT:        3
---00000052--- Acq_st=3 2019-5-22 02:41:9 
[00]  G04  f 42  -1692.7 2046002.2  1.0  1.0  5 3f 268886921
[01]  G07  f 46  -3613.7 2046004.7  1.0  1.0  5  0 268886920
[02]  G09  f 41   -527.8 2046000.7  1.0  1.0  5  0 268886924
