FlashID=0x1 0x20 0x18
BBram_blkflag1: 2294: dd6b
FW Ver: 1.30  
GPS00 Init Dop:   5000, 40
GPS01 Init Dop:   5000, 40
GPS02 Init Dop:   5000, 40
GPS03 Init Dop:   5000, 40
GPS04 Init Dop:   5000, 40
GPS05 Init Dop:   5000, 40
GPS06 Init Dop:   5000, 40
GPS07 Init Dop:   5000, 40
GPS08 Init Dop:   5000, 40
GPS09 Init Dop:   5000, 40
GPS10 Init Dop:   5000, 40
GPS11 Init Dop:   5000, 40
GPS12 Init Dop:   5000, 40
GPS13 Init Dop:   5000, 40
GPS14 Init Dop:   5000, 40
GPS15 Init Dop:   5000, 40
GPS16 Init Dop:   5000, 40
GPS17 Init Dop:   5000, 40
GPS18 Init Dop:   5000, 40
GPS19 Init Dop:   5000, 40
GPS20 Init Dop:   5000, 40
GPS21 Init Dop:   5000, 40
GPS22 Init Dop:   5000, 40
GPS23 Init Dop:   5000, 40
GPS24 Init Dop:   5000, 40
GPS25 Init Dop:   5000, 40
GPS26 Init Dop:   5000, 40
GPS27 Init Dop:   5000, 40
GPS28 Init Dop:   5000, 40
GPS29 Init Dop:   5000, 40
GPS30 Init Dop:   5000, 40
GPS31 Init Dop:   5000, 40
BDS00 Init Dop:   5000, 40
BDS01 Init Dop:   5000, 40
BDS02 Init Dop:   5000, 40
BDS03 Init Dop:   5000, 40
BDS04 Init Dop:   5000, 40
BDS05 Init Dop:   5000, 40
BDS06 Init Dop:   5000, 40
BDS07 Init Dop:   5000, 40
BDS08 Init Dop:   5000, 40
BDS09 Init Dop:   5000, 40
BDS10 Init Dop:   5000, 40
BDS11 Init Dop:   5000, 40
BDS12 Init Dop:   5000, 40
BDS13 Init Dop:   5000, 40
BDS14 Init Dop:   5000, 40
BDS15 Init Dop:   5000, 40
BDS16 Init Dop:   5000, 40
BDS17 Init Dop:   5000, 40
BDS18 Init Dop:   5000, 40
BDS19 Init Dop:   5000, 40
BDS20 Init Dop:   5000, 40
BDS21 Init Dop:   5000, 40
BDS22 Init Dop:   5000, 40
BDS23 Init Dop:   5000, 40
BDS24 Init Dop:   5000, 40
BDS25 Init Dop:   5000, 40
BDS26 Init Dop:   5000, 40
BDS27 Init Dop:   5000, 40
BDS28 Init Dop:   5000, 40
BDS29 Init Dop:   5000, 40
BDS30 Init Dop:   5000, 40
BDS31 Init Dop:   5000, 40
good luck!
---00000001--- Acq_st=3 2019-5-22 02:44:0 
[00]  G04  1  7  -1566.6 2046003.3 -0.0  0.0  1  0         0
[01]  G07  1  7  -2954.1 2046006.0 -0.0  0.0  1  0         0
$GNGGA,000000.000,,,,,0,00,,,M,,,,0000*2B
$GNRMC,000000.000,A,,,,,,,000000,,*26
$GPGSA,A,1,,,,,,,,,,,,,,,*1E
$BDGSA,A,1,,,,,,,,,,,,,,,*0F
$LOGTIM,0,0.000000,0.000000,0.000000,0.000000,0.000*0A
EndT:        0
---00000002--- Acq_st=3 2019-5-22 02:44:1 
[00]  G04  7 19  -1590.4 2046002.1  0.4  0.0 20  0         8
[01]  G07  1 29  -3600.8 2046004.9  0.0  0.0  1  0        15
[02]  G08  1 28  -1745.1 2046003.3 -0.2  0.0  1  0         0
[03]  G09  1 25   -427.1 2046001.1  0.1  0.0  1  0         0
$GNGGA,000000.000,,,,,0,00,,,M,,,,0000*2B
$GNRMC,000000.000,A,,,,,,,000000,,*26
$GPGSA,A,1,,,,,,,,,,,,,,,*1E
$BDGSA,A,1,,,,,,,,,,,,,,,*0F
$GPGSV,1,1,01,04,00,000,19*44
$LOGTIM,0,0.000000,0.000000,0.000000,0.000000,0.000*0A
EndT:        0
---00000003--- Acq_st=3 2019-5-22 02:44:2 
[00]  G04  7 39  -1591.0 2046002.1  0.8  1.0  5  0        16
[01]  G07  7 34  -3601.7 2046004.6  0.7  1.0  5  0        15
[02]  G08  7 30  -1759.1 2046002.3  0.6  1.0  5  0         4
[03]  G09  7 28   -419.8 2046000.5  0.4  1.0 10  0        13
[04]  G16  1 20   1100.2 2046000.0  0.1  0.0  1  0         0
[05]  G21  1  7   1790.9 2046000.0  0.0  0.0  1  0         0
$GNGGA,000000.000,,,,,0,00,,,M,,,,0000*2B
$GNRMC,000000.000,A,,,,,,,000000,,*26
$GPGSA,A,1,,,,,,,,,,,,,,,*1E
$BDGSA,A,1,,,,,,,,,,,,,,,*0F
$GPGSV,1,1,04,04,00,000,39,07,00,000,34,08,00,000,30,09,00,000,28*7B
$LOGTIM,0,0.000000,0.000000,0.000000,0.000000,0.000*0A
EndT:        0
---00000004--- Acq_st=3 2019-5-22 02:44:3 
[00]  G04  7 39  -1589.7 2046002.1  1.0  1.0  5  0        16
[01]  G07  7 44  -3600.7 2046004.6  1.0  1.0  5  0        15
[02]  G08  7 37  -1757.6 2046002.2  1.0  1.0  5  0         5
[03]  G09  7 40   -418.2 2046000.5  1.0  1.0  5  0        19
[04]  G16  7 29   1115.1 2045998.4  0.5  1.0  5  0        18
[05]  G21  1 30   1820.9 2045997.9  0.1  0.0  1  0         3
[06]  G26  1 20   1674.9 2045999.5 -0.2  0.0  1  0         0
[07]  G27  1 20    548.8 2046001.2 -0.1  0.0  1  0         0
$GNGGA,000000.000,,,,,0,00,,,M,,,,0000*2B
$GNRMC,000000.000,A,,,,,,,000000,,*26
$GPGSA,A,1,,,,,,,,,,,,,,,*1E
$BDGSA,A,1,,,,,,,,,,,,,,,*0F
$GPGSV,2,1,05,04,00,000,39,07,00,000,44,08,00,000,37,09,00,000,40*77
$GPGSV,2,2,05,16,00,000,29*40
$LOGTIM,0,0.000000,0.000000,0.000000,0.000000,0.000*0A
EndT:        0
---00000005--- Acq_st=3 2019-5-22 02:44:4 
[00]  G04  7 40  -1587.1 2046002.0  1.0  1.0  5  0        16
[01]  G07  7 45  -3598.8 2046004.6  1.0  1.0  5  0        15
[02]  G08  7 38  -1755.3 2046002.2  1.0  1.0  5  0         5
[03]  G09  7 40   -415.4 2046000.5  1.0  1.0  5  0        19
[04]  G16  7 39   1116.7 2045998.5  1.0  1.0  5  0         3
[05]  G21  7 37   1822.8 2045997.5  0.8  1.0  5  0         3
[06]  G26  7 24   1667.3 2045997.7  0.2  0.0 20  0         9
[07]  G27  7 18    561.5 2045999.1  0.1  0.0 20  0        18
$GNGGA,000000.000,,,,,0,00,,,M,,,,0000*2B
$GNRMC,000000.000,A,,,,,,,000000,,*26
$GPGSA,A,1,,,,,,,,,,,,,,,*1E
$BDGSA,A,1,,,,,,,,,,,,,,,*0F
$GPGSV,2,1,08,04,00,000,40,07,00,000,45,08,00,000,38,09,00,000,40*7A
$GPGSV,2,2,08,16,00,000,39,21,00,000,37,26,00,000,24,27,00,000,18*75
$LOGTIM,0,0.000000,0.000000,0.000000,0.000000,0.000*0A
EndT:        0
---00000006--- Acq_st=3 2019-5-22 02:44:5 
[00]  G04  7 40  -1586.7 2046002.1  1.0  1.0  5  0        16
[01]  G07  7 44  -3598.9 2046004.6  1.0  1.0  5  0        15
[02]  G08  7 38  -1754.5 2046002.2  1.0  1.0  5  0         5
[03]  G09  7 41   -415.7 2046000.5  1.0  1.0  5  0        19
[04]  G16  7 40   1116.6 2045998.5  1.0  1.0  5  0         3
[05]  G21  7 41   1823.4 2045997.6  1.0  1.0  5  0        10
[06]  G26  7 41   1667.0 2045997.8  1.0  1.0  5  0        18
[07]  G27  7 45    561.9 2045999.2  1.0  1.0  5  0         7
$GNGGA,000000.000,,,,,0,00,,,M,,,,0000*2B
$GNRMC,000000.000,A,,,,,,,000000,,*26
$GPGSA,A,1,,,,,,,,,,,,,,,*1E
$BDGSA,A,1,,,,,,,,,,,,,,,*0F
$GPGSV,2,1,08,04,00,000,40,07,00,000,44,08,00,000,38,09,00,000,41*7A
$GPGSV,2,2,08,16,00,000,40,21,00,000,41,26,00,000,41,27,00,000,45*71
$LOGTIM,0,0.000000,0.000000,0.000000,0.000000,0.000*0A
EndT:        0
---00000007--- Acq_st=3 2019-5-22 02:44:6 
[00]  G04  7 40  -1588.1 2046002.0  1.0  1.0  5  0        16
[01]  G07  7 44  -3600.1 2046004.7  1.0  1.0  5  0        15
[02]  G08  7 37  -1756.3 2046002.3  1.0  1.0  5  0         5
[03]  G09  7 40   -416.2 2046000.5  1.0  1.0  5  0        19
[04]  G16  7 39   1115.4 2045998.5  1.0  1.0  5  0         3
[05]  G21  7 40   1822.1 2045997.6  1.0  1.0  5  0        10
[06]  G26  7 41   1665.6 2045997.8  1.0  1.0  5  0        18
[07]  G27  7 46    560.9 2045999.2  1.0  1.0  5  0         7
[16]  B07  1  7   -556.3 4092002.6  0.1  0.0  1  0         0
$GNGGA,000000.000,,,,,0,00,,,M,,,,0000*2B
$GNRMC,000000.000,A,,,,,,,000000,,*26
$GPGSA,A,1,,,,,,,,,,,,,,,*1E
$BDGSA,A,1,,,,,,,,,,,,,,,*0F
$GPGSV,2,1,08,04,00,000,40,07,00,000,44,08,00,000,37,09,00,000,40*74
$GPGSV,2,2,08,16,00,000,39,21,00,000,40,26,00,000,41,27,00,000,46*7D
$LOGTIM,0,0.000000,0.000000,0.000000,0.000000,0.000*0A
EndT:        0
---00000008--- Acq_st=3 2019-5-22 02:44:7 
[00]  G04  f 40  -1589.1 2046002.0  1.0  1.0  5  0        16
[01]  G07  f 44  -3602.3 2046004.7  1.0  1.0  5  0        15
[02]  G08  f 37  -1757.7 2046002.2  1.0  1.0  5  0         5
[03]  G09  f 40   -417.8 2046000.6  1.0  1.0  5  0        19
[04]  G16  f 40   1113.5 2045998.5  1.0  1.0  5  0         3
[05]  G21  f 40   1820.5 2045997.6  1.0  1.0  5  0        10
[06]  G26  f 41   1663.9 2045997.8  1.0  1.0  5  0        18
[07]  G27  f 46    559.6 2045999.2  1.0  1.0  5  0         7
[16]  B07  7 28   -558.2 4092001.4  0.5  0.0 10  0       768
[17]  B10  1  7   -606.3 4092001.7  0.0  0.0  1  0         0
$GNGGA,000000.000,,,,,0,00,,,M,,,,0000*2B
$GNRMC,000000.000,A,,,,,,,000000,,*26
$GPGSA,A,1,,,,,,,,,,,,,,,*1E
$BDGSA,A,1,,,,,,,,,,,,,,,*0F
$GPGSV,2,1,08,04,00,000,40,07,00,000,44,08,00,000,37,09,00,000,40*74
$GPGSV,2,2,08,16,00,000,40,21,00,000,40,26,00,000,41,27,00,000,46*73
$BDGSV,1,1,01,07,00,000,28*54
$LOGTIM,0,0.000000,0.000000,0.000000,0.000000,0.000*0A
EndT:        0
---00000009--- Acq_st=3 2019-5-22 02:44:8 
[00]  G04  f 40  -1589.2 2046002.1  1.0  1.0  5  0 269065296
[01]  G07  f 44  -3602.9 2046004.7  1.0  1.0  5  0 269065295
[02]  G08  f 37  -1758.0 2046002.3  1.0  0.9  5  0 269065305
[03]  G09  f 40   -418.2 2046000.6  1.0  1.0  5  0 269065299
[04]  G16  f 40   1112.6 2045998.5  1.0  1.0  5  0 269065303
[05]  G21  f 40   1820.2 2045997.6  1.0  1.0  5  0 269065290
[06]  G26  f 41   1662.8 2045997.8  1.0  1.0  5  0 269065298
[07]  G27  f 46    559.3 2045999.2  1.0  1.0  5  0 269065307
[16]  B07  7 41   -558.6 4092001.4  0.9  1.0  5  0      1753
[17]  B10  7 30   -606.8 4092001.6  0.2  1.0  5  0       896
$GNGGA,000000.000,,,,,0,00,,,M,,,,0000*2B
$GNRMC,000000.000,A,,,,,,,000000,,*26
$GPGSA,A,1,,,,,,,,,,,,,,,*1E
$BDGSA,A,1,,,,,,,,,,,,,,,*0F
$GPGSV,2,1,08,04,00,000,40,07,00,000,44,08,00,000,37,09,00,000,40*74
$GPGSV,2,2,08,16,00,000,40,21,00,000,40,26,00,000,41,27,00,000,46*73
$BDGSV,1,1,02,07,00,000,41,10,00,000,30*6A
$LOGTIM,0,0.000000,0.000000,0.000000,0.000000,0.000*0A
EndT:        0
---00000010--- Acq_st=3 2019-5-22 02:44:9 
[00]  G04  f 39  -1590.4 2046002.1  1.0  1.0  5  0 269066296
[01]  G07  f 45  -3604.5 2046004.7  1.0  1.0  5  0 269066295
[02]  G08  f 37  -1758.7 2046002.2  1.0  1.0  5  0 269066305
[03]  G09  f 40   -418.7 2046000.5  1.0  1.0  5  0 269066299
[04]  G16  f 40   1111.8 2045998.5  1.0  1.0  5  0 269066303
[05]  G21  f 40   1818.8 2045997.6  1.0  1.0  5  0 269066290
[06]  G26  f 41   1661.7 2045997.8  1.0  1.0  5  0 269066298
[07]  G27  f 46    558.7 2045999.2  1.0  1.0  5  0 269066307
[16]  B07 1f 42   -560.4 4092001.4  1.0  1.0  5  0      2753
[17]  B10 1f 44   -608.9 4092001.6  1.0  1.0  5  0      1890
[18]  B19  1  7   1283.6 4091995.3  0.1  0.0  1  0         0
$GNGGA,000000.000,,,,,0,00,,,M,,,,0000*2B
$GNRMC,000000.000,A,,,,,,,000000,,*26
$GPGSA,A,1,,,,,,,,,,,,,,,*1E
$BDGSA,A,1,,,,,,,,,,,,,,,*0F
$GPGSV,2,1,08,04,00,000,39,07,00,000,45,08,00,000,37,09,00,000,40*7B
$GPGSV,2,2,08,16,00,000,40,21,00,000,40,26,00,000,41,27,00,000,46*73
$BDGSV,1,1,02,07,00,000,42,10,00,000,44*6A
$LOGTIM,0,0.000000,0.000000,0.000000,0.000000,0.000*0A
EndT:        0
---00000011--- Acq_st=3 2019-5-22 02:44:10 
[00]  G04  f 39  -1591.8 2046002.1  1.0  1.0  5  0 269067296
[01]  G07  f 45  -3606.2 2046004.7  1.0  1.0  5  0 269067295
[02]  G08  f 37  -1760.7 2046002.3  1.0  1.0  5  0 269067305
[03]  G09  f 40   -420.0 2046000.5  1.0  1.0  5  0 269067299
[04]  G16  f 40   1109.3 2045998.5  1.0  1.0  5  0 269067303
[05]  G21  f 40   1817.2 2045997.7  1.0  1.0  5  0 269067290
[06]  G26  f 40   1659.8 2045997.8  1.0  1.0  5  0 269067298
[07]  G27  f 46    556.8 2045999.3  1.0  1.0  5  0 269067307
[16]  B07 1f 42   -562.7 4092001.5  1.0  1.0  5  0 269053253
[17]  B10 1f 44   -611.2 4092001.6  1.0  1.0  5  0 269053250
[18]  B19  1  7   1302.5 4091996.2 -0.1  0.0  1  0       279
$GNGGA,000000.000,,,,,0,00,,,M,,,,0000*2B
$GNRMC,000000.000,A,,,,,,,000000,,*26
$GPGSA,A,1,,,,,,,,,,,,,,,*1E
$BDGSA,A,1,,,,,,,,,,,,,,,*0F
$GPGSV,2,1,08,04,00,000,39,07,00,000,45,08,00,000,37,09,00,000,40*7B
$GPGSV,2,2,08,16,00,000,40,21,00,000,40,26,00,000,40,27,00,000,46*72
$BDGSV,1,1,02,07,00,000,42,10,00,000,44*6A
$LOGTIM,0,0.000000,0.000000,0.000000,0.000000,0.000*0A
EndT:        0
---00000012--- Acq_st=3 2019-5-22 02:44:11 
[00]  G04  f 39  -1592.6 2046002.1  1.0  1.0  5  0 269068296
[01]  G07  f 45  -3607.5 2046004.6  1.0  1.0  5  0 269068295
[02]  G08  f 38  -1760.7 2046002.2  1.0  1.0  5  0 269068305
[03]  G09  f 40   -420.6 2046000.5  1.0  1.0  5  0 269068299
[04]  G16  f 40   1108.2 2045998.5  1.0  1.0  5  0 269068303
[05]  G21  f 40   1816.7 2045997.7  1.0  1.0  5  0 269068290
[06]  G26  f 40   1658.5 2045997.8  1.0  1.0  5  0 269068298
[07]  G27  f 46    556.4 2045999.3  1.0  1.0  5  0 269068307
[16]  B07 1f 42   -564.1 4092001.5  1.0  1.0  5  0 269054253
[17]  B10 1f 44   -612.4 4092001.6  1.0  1.0  5  0 269054250
[18]  B19  7 35   1307.2 4091996.7  0.2  1.0  5  0      1279
$GNGGA,000000.000,,,,,0,00,,,M,,,,0000*2B
$GNRMC,000000.000,A,,,,,,,000000,,*26
$GPGSA,A,1,,,,,,,,,,,,,,,*1E
$BDGSA,A,1,,,,,,,,,,,,,,,*0F
$GPGSV,2,1,08,04,00,000,39,07,00,000,45,08,00,000,38,09,00,000,40*74
$GPGSV,2,2,08,16,00,000,40,21,00,000,40,26,00,000,40,27,00,000,46*72
$BDGSV,1,1,03,07,00,000,42,10,00,000,44,19,00,000,35*55
$LOGTIM,0,0.000000,0.000000,0.000000,0.000000,0.000*0A
EndT:        0
---00000013--- Acq_st=3 2019-5-22 02:44:12 
[00]  G04  f 39  -1592.1 2046002.1  1.0  1.0  5  0 269069296
[01]  G07  f 44  -3607.5 2046004.7  1.0  1.0  5  0 269069295
[02]  G08  f 38  -1760.7 2046002.2  1.0  1.0  5  0 269069305
[03]  G09  f 41   -420.6 2046000.5  1.0  1.0  5  0 269069299
[04]  G16  f 40   1108.3 2045998.5  1.0  1.0  5  0 269069303
[05]  G21  f 40   1816.3 2045997.7  1.0  1.0  5  0 269069290
[06]  G26  f 40   1658.3 2045997.9  1.0  1.0  5  0 269069298
[07]  G27  f 47    556.4 2045999.2  1.0  1.0  5  0 269069307
[16]  B07 1f 42   -563.8 4092001.5  1.0  1.0  5  0 269055253
[17]  B10 1f 44   -612.7 4092001.6  1.0  1.0  5  0 269055250
[18]  B19  7 36   1307.3 4091996.6  1.0  1.0  5  0      2264
[19]  B27  1  7  -1598.6 4092004.5  0.0  0.0  1  0         0
[20]  B28  1  7   1580.8 4091995.0  0.1  0.0  1  0         0
$GNGGA,000000.000,,,,,0,00,,,M,,,,0000*2B
$GNRMC,000000.000,A,,,,,,,000000,,*26
$GPGSA,A,1,,,,,,,,,,,,,,,*1E
$BDGSA,A,1,,,,,,,,,,,,,,,*0F
$GPGSV,2,1,08,04,00,000,39,07,00,000,44,08,00,000,38,09,00,000,41*74
$GPGSV,2,2,08,16,00,000,40,21,00,000,40,26,00,000,40,27,00,000,47*73
$BDGSV,1,1,03,07,00,000,42,10,00,000,44,19,00,000,36*56
$LOGTIM,0,0.000000,0.000000,0.000000,0.000000,0.000*0A
EndT:        0
---00000014--- Acq_st=7 2019-5-22 02:44:13 
[00]  G04  f 39  -1590.5 2046002.1  1.0  1.0  5  0 269070296
[01]  G07  f 43  -3606.2 2046004.7  1.0  1.0  5  0 269070295
[02]  G08  f 38  -1759.3 2046002.2  1.0  1.0  5  0 269070305
[03]  G09  f 41   -419.1 2046000.6  1.0  1.0  5  0 269070299
[04]  G16  f 39   1109.5 2045998.6  1.0  1.0  5  0 269070303
[05]  G21  f 41   1818.3 2045997.7  1.0  1.0  5  0 269070290
[06]  G26  f 41   1659.4 2045997.9  1.0  1.0  5  0 269070298
[07]  G27  f 47    558.3 2045999.3  1.0  1.0  5  0 269070307
[16]  B07 1f 41   -562.9 4092001.5  1.0  1.0  5  0 269056253
[17]  B10 1f 44   -611.3 4092001.6  1.0  1.0  5  0 269056250
[18]  B19  7 36   1308.5 4091996.6  1.0  1.0  5  0      3264
[19]  B27  7 26  -1486.7 4092004.1  0.0  1.0 20  0       954
[20]  B28  7 25   1584.6 4091995.8  0.2  0.0 20  0       663
$GNGGA,000000.000,,,,,0,00,,,M,,,,0000*2B
$GNRMC,000000.000,A,,,,,,,000000,,*26
$GPGSA,A,1,,,,,,,,,,,,,,,*1E
$BDGSA,A,1,,,,,,,,,,,,,,,*0F
$GPGSV,2,1,08,04,00,000,39,07,00,000,43,08,00,000,38,09,00,000,41*73
$GPGSV,2,2,08,16,00,000,39,21,00,000,41,26,00,000,41,27,00,000,47*7D
$BDGSV,2,1,05,07,00,000,41,10,00,000,44,19,00,000,36,27,00,000,26*61
$BDGSV,2,2,05,28,00,000,25*50
$LOGTIM,0,0.000000,0.000000,0.000000,0.000000,0.000*0A
EndT:        0
---00000015--- Acq_st=7 2019-5-22 02:44:14 
[00]  G04  f 39  -1588.5 2046002.1  1.0  1.0  5  0 269071296
[01]  G07  f 43  -3604.2 2046004.7  1.0  1.0  5  0 269071295
[02]  G08  f 38  -1756.6 2046002.2  1.0  1.0  5  0 269071305
[03]  G09  f 41   -416.3 2046000.5  1.0  1.0  5  0 269071299
[04]  G16  f 39   1111.0 2045998.6  1.0  1.0  5  0 269071303
[05]  G21  f 41   1820.0 2045997.6  1.0  1.0  5  0 269071290
[06]  G26  f 41   1661.3 2045997.8  1.0  1.0  5  0 269071298
[07]  G27  f 47    560.5 2045999.3  1.0  1.0  5  0 269071307
[16]  B07 1f 42   -561.2 4092001.5  1.0  1.0  5  0 269057253
[17]  B10 1f 44   -609.5 4092001.6  1.0  1.0  5  0 269057250
[18]  B19  7 37   1310.9 4091996.6  1.0  1.0  5  0      4264
[19]  B27  7 31  -1484.1 4092004.0  0.9  1.0  5  0      1942
[20]  B28  7 44   1586.9 4091995.8  0.8  1.0  5  0      1658
$GNGGA,000000.000,,,,,0,00,,,M,,,,0000*2B
$GNRMC,000000.000,A,,,,,,,000000,,*26
$GPGSA,A,1,,,,,,,,,,,,,,,*1E
$BDGSA,A,1,,,,,,,,,,,,,,,*0F
$GPGSV,2,1,08,04,00,000,39,07,00,000,43,08,00,000,38,09,00,000,41*73
$GPGSV,2,2,08,16,00,000,39,21,00,000,41,26,00,000,41,27,00,000,47*7D
$BDGSV,2,1,05,07,00,000,42,10,00,000,44,19,00,000,37,27,00,000,31*65
$BDGSV,2,2,05,28,00,000,44*57
$LOGTIM,0,0.000000,0.000000,0.000000,0.000000,0.000*0A
EndT:        0
---00000016--- Acq_st=7 2019-5-22 02:44:15 
[00]  G04  f 39  -1585.2 2046002.1  1.0  1.0  5  0 269072296
[01]  G07  f 44  -3602.3 2046004.7  1.0  1.0  5  0 269072295
[02]  G08  f 39  -1753.9 2046002.3  1.0  1.0  5  0 269072305
[03]  G09  f 42   -413.4 2046000.5  1.0  1.0  5  0 269072299
[04]  G16  f 39   1113.7 2045998.6  1.0  1.0  5  0 269072303
[05]  G21  f 40   1822.9 2045997.6  1.0  1.0  5  0 269072290
[06]  G26  f 41   1664.1 2045997.8  1.0  1.0  5  0 269072298
[07]  G27  f 47    563.4 2045999.3  1.0  1.0  5  0 269072307
[16]  B07 1f 42   -559.0 4092001.4  1.0  1.0  5  0 269058253
[17]  B10 1f 44   -607.3 4092001.6  1.0  1.0  5  0 269058250
[18]  B19 1f 36   1313.1 4091996.6  1.0  1.0  5  0      5264
[19]  B27 1f 31  -1479.8 4092003.9  1.0  1.1  5  0      2942
[20]  B28 1f 44   1589.4 4091995.8  1.0  1.0  5  0      2658
$GNGGA,000000.000,,,,,0,00,,,M,,,,0000*2B
$GNRMC,000000.000,A,,,,,,,000000,,*26
$GPGSA,A,1,,,,,,,,,,,,,,,*1E
$BDGSA,A,1,,,,,,,,,,,,,,,*0F
$GPGSV,2,1,08,04,00,000,39,07,00,000,44,08,00,000,39,09,00,000,42*76
$GPGSV,2,2,08,16,00,000,39,21,00,000,40,26,00,000,41,27,00,000,47*7C
$BDGSV,2,1,05,07,00,000,42,10,00,000,44,19,00,000,36,27,00,000,31*64
$BDGSV,2,2,05,28,00,000,44*57
$LOGTIM,0,0.000000,0.000000,0.000000,0.000000,0.000*0A
EndT:        0
---00000017--- Acq_st=3 2019-5-22 02:44:16 
[00]  G04  f 38  -1582.5 2046002.0  1.0  1.0  5  0 269073296
[01]  G07  f 44  -3600.4 2046004.7  1.0  1.0  5  0 269073295
[02]  G08  f 39  -1751.4 2046002.2  1.0  1.0  5  0 269073305
[03]  G09  f 42   -411.0 2046000.5  1.0  1.0  5  0 269073299
[04]  G16  f 38   1115.9 2045998.6  1.0  1.0  5  0 269073303
[05]  G21  f 41   1825.4 2045997.6  1.0  1.0  5  0 269073290
[06]  G26  f 40   1665.5 2045997.9  1.0  1.0  5  0 269073298
[07]  G27  f 47    565.8 2045999.3  1.0  1.0  5  0 269073307
[16]  B07 1f 42   -557.6 4092001.5  1.0  1.0  5  0 269059253
[17]  B10 1f 43   -605.9 4092001.6  1.0  1.0  5  0 269059250
[18]  B19 1f 35   1314.6 4091996.5  1.0  1.0  5  0 269059284
[19]  B27 1f 30  -1478.3 4092004.0  1.0  0.9  5  0 269059302
[20]  B28 1f 44   1591.5 4091995.8  1.0  1.0  5  0 269059298
$GNGGA,000000.000,,,,,0,00,,,M,,,,0000*2B
$GNRMC,000000.000,A,,,,,,,000000,,*26
$GPGSA,A,1,,,,,,,,,,,,,,,*1E
$BDGSA,A,1,,,,,,,,,,,,,,,*0F
$GPGSV,2,1,08,04,00,000,38,07,00,000,44,08,00,000,39,09,00,000,42*77
$GPGSV,2,2,08,16,00,000,38,21,00,000,41,26,00,000,40,27,00,000,47*7D
$BDGSV,2,1,05,07,00,000,42,10,00,000,43,19,00,000,35,27,00,000,30*61
$BDGSV,2,2,05,28,00,000,44*57
$LOGTIM,0,0.000000,0.000000,0.000000,0.000000,0.000*0A
EndT:        0
---00000018--- Acq_st=3 2019-5-22 02:44:17 
[00]  G04  f 39  -1581.8 2046002.1  1.0  1.0  5  0 269074296
[01]  G07  f 44  -3599.7 2046004.7  1.0  1.0  5  0 269074295
[02]  G08  f 38  -1750.5 2046002.2  1.0  1.0  5  0 269074305
[03]  G09  f 42   -410.0 2046000.5  1.0  1.0  5  0 269074299
[04]  G16  f 39   1115.9 2045998.5  1.0  1.0  5  0 269074303
[05]  G21  f 42   1825.9 2045997.6  1.0  1.0  5  0 269074290
[06]  G26  f 40   1666.3 2045997.8  1.0  1.0  5  0 269074298
[07]  G27  f 47    566.9 2045999.3  1.0  1.0  5  0 269074307
[16]  B07 1f 41   -556.7 4092001.4  1.0  1.0  5  0 269060253
[17]  B10 1f 44   -605.1 4092001.6  1.0  1.0  5  0 269060250
[18]  B19 1f 35   1315.7 4091996.6  1.0  0.9  5  0 269060284
[19]  B27 1f 30  -1477.2 4092004.0  1.0  0.9  5  0 269060302
[20]  B28 1f 44   1592.7 4091995.8  1.0  1.0  5  0 269060298
$GNGGA,000000.000,,,,,0,00,,,M,,,,0000*2B
$GNRMC,000000.000,A,,,,,,,000000,,*26
$GPGSA,A,1,,,,,,,,,,,,,,,*1E
$BDGSA,A,1,,,,,,,,,,,,,,,*0F
$GPGSV,2,1,08,04,00,000,39,07,00,000,44,08,00,000,38,09,00,000,42*77
$GPGSV,2,2,08,16,00,000,39,21,00,000,42,26,00,000,40,27,00,000,47*7F
$BDGSV,2,1,05,07,00,000,41,10,00,000,44,19,00,000,35,27,00,000,30*65
$BDGSV,2,2,05,28,00,000,44*57
$LOGTIM,0,0.000000,0.000000,0.000000,0.000000,0.000*0A
EndT:        0
---00000019--- Acq_st=3 2019-5-22 02:44:18 
[00]  G04  f 38  -1584.0 2046002.1  1.0  1.0  5  0 269075296
[01]  G07  f 44  -3602.5 2046004.7  1.0  1.0  5  0 269075295
[02]  G08  f 38  -1752.5 2046002.2  1.0  1.0  5  0 269075305
[03]  G09  f 41   -411.7 2046000.5  1.0  1.0  5  0 269075299
[04]  G16  f 38   1113.7 2045998.5  1.0  1.0  5  0 269075303
[05]  G21  f 42   1823.9 2045997.6  1.0  1.0  5  0 269075290
[06]  G26  f 40   1663.8 2045997.8  1.0  1.0  5  0 269075298
[07]  G27  f 47    564.8 2045999.3  1.0  1.0  5  0 269075307
[16]  B07 1f 41   -559.5 4092001.5  1.0  1.0  5  0 269061253
[17]  B10 1f 44   -607.7 4092001.6  1.0  1.0  5  0 269061250
[18]  B19 1f 34   1313.1 4091996.6  1.0  1.0  5  0 269061284
[19]  B27 1f 31  -1478.8 4092003.9  0.9  0.9  5  0 269061302
[20]  B28 1f 44   1590.1 4091995.8  1.0  1.0  5  0 269061298
$GNGGA,000000.000,,,,,0,00,,,M,,,,0000*2B
$GNRMC,000000.000,A,,,,,,,000000,,*26
$GPGSA,A,1,,,,,,,,,,,,,,,*1E
$BDGSA,A,1,,,,,,,,,,,,,,,*0F
$GPGSV,2,1,08,04,00,000,38,07,00,000,44,08,00,000,38,09,00,000,41*75
$GPGSV,2,2,08,16,00,000,38,21,00,000,42,26,00,000,40,27,00,000,47*7E
$BDGSV,2,1,05,07,00,000,41,10,00,000,44,19,00,000,34,27,00,000,31*65
$BDGSV,2,2,05,28,00,000,44*57
$LOGTIM,0,0.000000,0.000000,0.000000,0.000000,0.000*0A
EndT:        0
---00000020--- Acq_st=3 2019-5-22 02:44:19 
[00]  G04  f 38  -1586.1 2046002.1  1.0  1.0  5  0 269076296
[01]  G07  f 43  -3604.9 2046004.7  1.0  1.0  5  0 269076295
[02]  G08  f 39  -1754.8 2046002.2  1.0  0.9  5  0 269076305
[03]  G09  f 42   -413.5 2046000.5  1.0  1.0  5  0 269076299
[04]  G16  f 39   1111.4 2045998.5  1.0  1.0  5  0 269076303
[05]  G21  f 41   1821.4 2045997.6  1.0  1.0  5  0 269076290
[06]  G26  f 40   1660.7 2045997.8  1.0  1.0  5  0 269076298
[07]  G27  f 47    562.9 2045999.3  1.0  1.0  5  0 269076307
[16]  B07 1f 42   -562.1 4092001.5  1.0  1.0  5  0 269062253
[17]  B10 1f 44   -610.4 4092001.6  1.0  1.0  5  0 269062250
[18]  B19 1f 34   1311.7 4091996.6  1.0  1.0  5  0 269062284
[19]  B27 1f 31  -1481.1 4092004.0  1.0  1.0  5  0 269062302
[20]  B28 1f 44   1588.7 4091995.8  1.0  1.0  5  0 269062298
$GNGGA,000000.000,,,,,0,00,,,M,,,,0000*2B
$GNRMC,000000.000,A,,,,,,,000000,,*26
$GPGSA,A,1,,,,,,,,,,,,,,,*1E
$BDGSA,A,1,,,,,,,,,,,,,,,*0F
$GPGSV,2,1,08,04,00,000,38,07,00,000,43,08,00,000,39,09,00,000,42*70
$GPGSV,2,2,08,16,00,000,39,21,00,000,41,26,00,000,40,27,00,000,47*7C
$BDGSV,2,1,05,07,00,000,42,10,00,000,44,19,00,000,34,27,00,000,31*66
$BDGSV,2,2,05,28,00,000,44*57
$LOGTIM,0,0.000000,0.000000,0.000000,0.000000,0.000*0A
EndT:        0
---00000021--- Acq_st=3 2019-5-22 02:44:20 
[00]  G04  f 39  -1586.5 2046002.0  1.0  1.0  5  0 269077296
[01]  G07  f 44  -3605.9 2046004.7  1.0  1.0  5  0 269077295
[02]  G08  f 39  -1754.8 2046002.3  1.0  1.0  5  0 269077305
[03]  G09  f 43   -414.2 2046000.5  1.0  1.0  5  0 269077299
[04]  G16  f 39   1110.5 2045998.6  1.0  1.0  5  0 269077303
[05]  G21  f 41   1820.4 2045997.6  1.0  1.0  5  0 269077290
[06]  G26  f 40   1659.7 2045997.8  1.0  1.0  5  0 269077298
[07]  G27  f 47    562.2 2045999.3  1.0  1.0  5  0 269077307
[16]  B07 1f 42   -562.9 4092001.5  1.0  1.0  5  0 269063253
[17]  B10 1f 44   -611.2 4092001.5  1.0  1.0  5  0 269063250
[18]  B19 1f 33   1309.4 4091996.6  1.0  1.0  5  0 269063284
[19]  B27 1f 31  -1482.4 4092003.9  1.0  1.0  5  0 269063302
[20]  B28 1f 44   1587.6 4091995.8  1.0  1.0  5  0 269063298
$GNGGA,000000.000,,,,,0,00,,,M,,,,0000*2B
$GNRMC,000000.000,A,,,,,,,000000,,*26
$GPGSA,A,1,,,,,,,,,,,,,,,*1E
$BDGSA,A,1,,,,,,,,,,,,,,,*0F
$GPGSV,2,1,08,04,00,000,39,07,00,000,44,08,00,000,39,09,00,000,43*77
$GPGSV,2,2,08,16,00,000,39,21,00,000,41,26,00,000,40,27,00,000,47*7C
$BDGSV,2,1,05,07,00,000,42,10,00,000,44,19,00,000,33,27,00,000,31*61
$BDGSV,2,2,05,28,00,000,44*57
$LOGTIM,0,0.000000,0.000000,0.000000,0.000000,0.000*0A
EndT:        0
---00000022--- Acq_st=3 2019-5-22 02:44:21 
[00]  G04  f 39  -1585.7 2046002.1  1.0  1.0  5  0 269078296
[01]  G07  f 44  -3605.6 2046004.7  1.0  1.0  5  0 269078295
[02]  G08  f 38  -1754.3 2046002.3  1.0  0.9  5  0 269078305
[03]  G09  f 43   -413.7 2046000.5  1.0  1.0  5  0 269078299
[04]  G16  f 39   1110.5 2045998.5  1.0  1.0  5  0 269078303
[05]  G21  f 41   1821.0 2045997.6  1.0  1.0  5  0 269078290
[06]  G26  f 39   1659.8 2045997.8  1.0  1.0  5  0 269078298
[07]  G27  f 47    562.7 2045999.3  1.0  1.0  5  0 269078307
[16]  B07 1f 42   -563.3 4092001.5  1.0  1.0  5  0 269064253
[17]  B10 1f 44   -611.7 4092001.6  1.0  1.0  5  0 269064250
[18]  B19 1f 33   1308.9 4091996.6  1.0  1.0  5  0 269064284
[19]  B27 1f 29  -1481.4 4092003.9  0.9  0.9  5  0 269064302
[20]  B28 1f 44   1587.6 4091995.8  1.0  1.0  5  0 269064298
$GNGGA,000000.000,,,,,0,00,,,M,,,,0000*2B
$GNRMC,000000.000,A,,,,,,,000000,,*26
$GPGSA,A,1,,,,,,,,,,,,,,,*1E
$BDGSA,A,1,,,,,,,,,,,,,,,*0F
$GPGSV,2,1,08,04,00,000,39,07,00,000,44,08,00,000,38,09,00,000,43*76
$GPGSV,2,2,08,16,00,000,39,21,00,000,41,26,00,000,39,27,00,000,47*72
$BDGSV,2,1,05,07,00,000,42,10,00,000,44,19,00,000,33,27,00,000,29*68
$BDGSV,2,2,05,28,00,000,44*57
$LOGTIM,0,0.000000,0.000000,0.000000,0.000000,0.000*0A
EndT:        0
---00000023--- Acq_st=3 2019-5-22 02:44:22 
[00]  G04  f 39  -1584.8 2046002.1  1.0  1.0  5  0 269079296
[01]  G07  f 45  -3605.6 2046004.7  1.0  1.0  5  0 269079295
[02]  G08  f 38  -1753.6 2046002.3  1.0  1.0  5  0 269079305
[03]  G09  f 43   -412.9 2046000.5  1.0  1.0  5  0 269079299
[04]  G16  f 40   1110.6 2045998.5  1.0  1.0  5  0 269079303
[05]  G21  f 41   1821.9 2045997.6  1.0  0.9  5  0 269079290
[06]  G26  f 40   1660.4 2045997.8  1.0  1.0  5  0 269079298
[07]  G27  f 47    563.5 2045999.3  1.0  1.0  5  0 269079307
[16]  B07 1f 42   -563.3 4092001.5  1.0  1.0  5  0 269065253
[17]  B10 1f 44   -611.4 4092001.6  1.0  1.0  5  0 269065250
[18]  B19 1f 32   1310.8 4091996.5  1.0  0.9  5  0 269065284
[19]  B27 1f 28  -1479.2 4092003.9  0.9  0.9  5  0 269065302
[20]  B28 1f 45   1588.4 4091995.8  1.0  1.0  5  0 269065298
$GNGGA,000000.000,,,,,0,00,,,M,,,,0000*2B
$GNRMC,000000.000,A,,,,,,,000000,,*26
$GPGSA,A,1,,,,,,,,,,,,,,,*1E
$BDGSA,A,1,,,,,,,,,,,,,,,*0F
$GPGSV,2,1,08,04,00,000,39,07,00,000,45,08,00,000,38,09,00,000,43*77
$GPGSV,2,2,08,16,00,000,40,21,00,000,41,26,00,000,40,27,00,000,47*72
$BDGSV,2,1,05,07,00,000,42,10,00,000,44,19,00,000,32,27,00,000,28*68
$BDGSV,2,2,05,28,00,000,45*56
$LOGTIM,0,0.000000,0.000000,0.000000,0.000000,0.000*0A
EndT:        0
---00000024--- Acq_st=3 2019-5-22 02:44:23 
[00]  G04  f 39  -1580.2 2046002.0  1.0  1.0  5  0 269080296
[01]  G07  f 45  -3601.7 2046004.7  1.0  1.0  5  0 269080295
[02]  G08  f 38  -1749.2 2046002.3  1.0  1.0  5  0 269080305
[03]  G09  f 43   -408.2 2046000.5  1.0  1.0  5  0 269080299
[04]  G16  f 40   1115.0 2045998.5  1.0  1.0  5  0 269080303
[05]  G21  f 41   1826.0 2045997.6  1.0  1.0  5  0 269080290
[06]  G26  f 40   1664.4 2045997.8  1.0  1.0  5  0 269080298
[07]  G27  f 47    567.9 2045999.3  1.0  1.0  5  0 269080307
[16]  B07 1f 41   -559.1 4092001.4  1.0  1.0  5  0 269066253
[17]  B10 1f 44   -607.7 4092001.6  1.0  1.0  5  0 269066250
[18]  B19 1f 32   1313.9 4091996.5  1.0  0.9  5  0 269066284
[19]  B27 1f 27  -1475.9 4092004.0  0.9  0.7  5  0 269066302
[20]  B28 1f 45   1593.0 4091995.8  1.0  1.0  5  0 269066298
$GNGGA,000000.000,,,,,0,00,,,M,,,,0000*2B
$GNRMC,000000.000,A,,,,,,,000000,,*26
$GPGSA,A,1,,,,,,,,,,,,,,,*1E
$BDGSA,A,1,,,,,,,,,,,,,,,*0F
$GPGSV,2,1,08,04,00,000,39,07,00,000,45,08,00,000,38,09,00,000,43*77
$GPGSV,2,2,08,16,00,000,40,21,00,000,41,26,00,000,40,27,00,000,47*72
$BDGSV,2,1,05,07,00,000,41,10,00,000,44,19,00,000,32,27,00,000,27*64
$BDGSV,2,2,05,28,00,000,45*56
$LOGTIM,0,0.000000,0.000000,0.000000,0.000000,0.000*0A
EndT:        0
---00000025--- Acq_st=3 2019-5-22 02:44:24 
[00]  G04  f 39  -1577.2 2046002.1  1.0  1.0  5  0 269081296
[01]  G07  f 44  -3599.1 2046004.7  1.0  1.0  5  0 269081295
[02]  G08  f 38  -1745.8 2046002.3  1.0  1.0  5  0 269081305
[03]  G09  f 43   -405.6 2046000.5  1.0  1.0  5  0 269081299
[04]  G16  f 39   1117.1 2045998.6  1.0  1.0  5  0 269081303
[05]  G21  f 41   1828.4 2045997.6  1.0  1.0  5  0 269081290
[06]  G26  f 41   1667.5 2045997.8  1.0  1.0  5  0 269081298
[07]  G27  f 48    570.9 2045999.3  1.0  1.0  5  0 269081307
[16]  B07 1f 42   -557.1 4092001.4  1.0  1.0  5  0 269067253
[17]  B10 1f 44   -605.5 4092001.6  1.0  1.0  5  0 269067250
[18]  B19 1f 32   1318.4 4091996.5  1.0  0.9  5  0 269067284
[19]  B27 1f 28  -1472.6 4092003.9  0.9  0.9  5  0 269067302
[20]  B28 1f 45   1595.3 4091995.8  1.0  1.0  5  0 269067298
$GNGGA,000000.000,,,,,0,00,,,M,,,,0000*2B
$GNRMC,000000.000,A,,,,,,,000000,,*26
$GPGSA,A,1,,,,,,,,,,,,,,,*1E
$BDGSA,A,1,,,,,,,,,,,,,,,*0F
$GPGSV,2,1,08,04,00,000,39,07,00,000,44,08,00,000,38,09,00,000,43*76
$GPGSV,2,2,08,16,00,000,39,21,00,000,41,26,00,000,41,27,00,000,48*72
$BDGSV,2,1,05,07,00,000,42,10,00,000,44,19,00,000,32,27,00,000,28*68
$BDGSV,2,2,05,28,00,000,45*56
$LOGTIM,0,0.000000,0.000000,0.000000,0.000000,0.000*0A
EndT:        0
---00000026--- Acq_st=3 2019-5-22 02:44:25 
[00]  G04  f 39  -1579.5 2046002.1  1.0  1.0  5  0 269082296
[01]  G07  f 44  -3600.8 2046004.7  1.0  1.0  5  0 269082295
[02]  G08  f 38  -1747.5 2046002.2  1.0  1.0  5  0 269082305
[03]  G09  f 43   -406.3 2046000.6  1.0  1.0  5  0 269082299
[04]  G16  f 40   1115.3 2045998.6  1.0  1.0  5  0 269082303
[05]  G21  f 40   1827.2 2045997.6  1.0  1.0  5  0 269082290
[06]  G26  f 41   1665.1 2045997.9  1.0  1.0  5  0 269082298
[07]  G27  f 48    569.5 2045999.2  1.0  1.0  5  0 269082307
[16]  B07 1f 42   -559.0 4092001.5  1.0  1.0  5  0 269068253
[17]  B10 1f 44   -607.4 4092001.6  1.0  1.0  5  0 269068250
[18]  B19 1f 31   1314.5 4091996.5  1.0  1.0  5  0 269068284
[19]  B27 1f 28  -1474.6 4092004.0  0.9  0.8  5  0 269068302
[20]  B28 1f 45   1594.0 4091995.8  1.0  1.0  5  0 269068298
$GNGGA,000000.000,,,,,0,00,,,M,,,,0000*2B
$GNRMC,000000.000,A,,,,,,,000000,,*26
$GPGSA,A,1,,,,,,,,,,,,,,,*1E
$BDGSA,A,1,,,,,,,,,,,,,,,*0F
$GPGSV,2,1,08,04,00,000,39,07,00,000,44,08,00,000,38,09,00,000,43*76
$GPGSV,2,2,08,16,00,000,40,21,00,000,40,26,00,000,41,27,00,000,48*7D
$BDGSV,2,1,05,07,00,000,42,10,00,000,44,19,00,000,31,27,00,000,28*6B
$BDGSV,2,2,05,28,00,000,45*56
$LOGTIM,0,0.000000,0.000000,0.000000,0.000000,0.000*0A
EndT:        0
---00000027--- Acq_st=3 2019-5-22 02:44:26 
[00]  G04  f 39  -1578.6 2046002.1  1.0  1.0  5  0 269083296
[01]  G07  f 44  -3601.2 2046004.7  1.0  1.0  5  0 269083295
[02]  G08  f 39  -1747.9 2046002.3  1.0  1.0  5  0 269083305
[03]  G09  f 44   -406.5 2046000.5  1.0  1.0  5  0 269083299
[04]  G16  f 39   1115.1 2045998.6  1.0  1.0  5  0 269083303
[05]  G21  f 41   1827.0 2045997.6  1.0  1.0  5  0 269083290
[06]  G26  f 40   1664.8 2045997.9  1.0  1.0  5  0 269083298
[07]  G27  f 48    569.8 2045999.3  1.0  1.0  5  0 269083307
[16]  B07 1f 42   -559.0 4092001.4  1.0  1.0  5  0 269069253
[17]  B10 1f 44   -607.6 4092001.6  1.0  1.0  5  0 269069250
[18]  B19 1f 29   1316.0 4091996.6  0.9  0.9  5  0 269069284
[19]  B27 1f 28  -1476.2 4092003.8  0.9  1.0  5  0 269069302
[20]  B28 1f 45   1594.2 4091995.8  1.0  1.0  5  0 269069298
$GNGGA,000000.000,,,,,0,00,,,M,,,,0000*2B
$GNRMC,000000.000,A,,,,,,,000000,,*26
$GPGSA,A,1,,,,,,,,,,,,,,,*1E
$BDGSA,A,1,,,,,,,,,,,,,,,*0F
$GPGSV,2,1,08,04,00,000,39,07,00,000,44,08,00,000,39,09,00,000,44*70
$GPGSV,2,2,08,16,00,000,39,21,00,000,41,26,00,000,40,27,00,000,48*73
$BDGSV,2,1,05,07,00,000,42,10,00,000,44,19,00,000,29,27,00,000,28*62
$BDGSV,2,2,05,28,00,000,45*56
$LOGTIM,0,0.000000,0.000000,0.000000,0.000000,0.000*0A
EndT:        0
---00000028--- Acq_st=7 2019-5-22 02:44:27 
[00]  G04  f 39  -1578.5 2046002.1  1.0  1.0  5  0 269084296
[01]  G07  f 44  -3601.5 2046004.7  1.0  1.0  5  0 269084295
[02]  G08  f 39  -1747.5 2046002.2  1.0  1.0  5  0 269084305
[03]  G09  f 44   -406.1 2046000.6  1.0  1.0  5  0 269084299
[04]  G16  f 39   1115.1 2045998.5  1.0  1.0  5  0 269084303
[05]  G21  f 41   1827.2 2045997.6  1.0  1.0  5  0 269084290
[06]  G26  f 41   1664.7 2045997.9  1.0  1.0  5  0 269084298
[07]  G27  f 48    570.1 2045999.3  1.0  1.0  5  0 269084307
[16]  B07 1f 42   -559.6 4092001.5  1.0  1.0  5  0 269070253
[17]  B10 1f 44   -608.1 4092001.6  1.0  1.0  5  0 269070250
[18]  B19 1f 28   1314.7 4091996.6  0.9  0.9  5  0 269070284
[19]  B27 1f 29  -1475.2 4092003.8  0.9  0.9  5  0 269070302
[20]  B28 1f 45   1594.3 4091995.8  1.0  1.0  5  0 269070298
$GNGGA,000000.000,,,,,0,00,,,M,,,,0000*2B
$GNRMC,000000.000,A,,,,,,,000000,,*26
$GPGSA,A,1,,,,,,,,,,,,,,,*1E
$BDGSA,A,1,,,,,,,,,,,,,,,*0F
$GPGSV,2,1,08,04,00,000,39,07,00,000,44,08,00,000,39,09,00,000,44*70
$GPGSV,2,2,08,16,00,000,39,21,00,000,41,26,00,000,41,27,00,000,48*72
$BDGSV,2,1,05,07,00,000,42,10,00,000,44,19,00,000,28,27,00,000,29*62
$BDGSV,2,2,05,28,00,000,45*56
$LOGTIM,0,0.000000,0.000000,0.000000,0.000000,0.000*0A
EndT:        0
---00000029--- Acq_st=3 2019-5-22 02:44:28 
[00]  G04  f 38  -1576.9 2046002.1  1.0  1.0  5  0 269085296
[01]  G07  f 45  -3600.1 2046004.7  1.0  1.0  5  0 269085295
[02]  G08  f 39  -1745.1 2046002.3  1.0  1.0  5  0 269085305
[03]  G09  f 43   -403.5 2046000.5  1.0  1.0  5  0 269085299
[04]  G16  f 39   1117.1 2045998.6  1.0  1.0  5  0 269085303
[05]  G21  f 41   1829.0 2045997.6  1.0  1.0  5  0 269085290
[06]  G26  f 40   1665.9 2045997.8  1.0  1.0  5  0 269085298
[07]  G27  f 48    571.9 2045999.3  1.0  1.0  5  0 269085307
[16]  B07 1f 42   -558.1 4092001.5  1.0  1.0  5  0 269071253
[17]  B10 1f 43   -606.8 4092001.6  1.0  1.0  5  0 269071250
[18]  B19 1f 29   1315.7 4091996.3  0.9  0.8  5  0 269071284
[19]  B27 1f 30  -1472.3 4092003.9  0.9  0.8  5  0 269071302
[20]  B28 1f 45   1595.9 4091995.8  1.0  1.0  5  0 269071298
$GNGGA,000000.000,,,,,0,00,,,M,,,,0000*2B
$GNRMC,000000.000,A,,,,,,,000000,,*26
$GPGSA,A,1,,,,,,,,,,,,,,,*1E
$BDGSA,A,1,,,,,,,,,,,,,,,*0F
$GPGSV,2,1,08,04,00,000,38,07,00,000,45,08,00,000,39,09,00,000,43*77
$GPGSV,2,2,08,16,00,000,39,21,00,000,41,26,00,000,40,27,00,000,48*73
$BDGSV,2,1,05,07,00,000,42,10,00,000,43,19,00,000,29,27,00,000,30*6C
$BDGSV,2,2,05,28,00,000,45*56
$LOGTIM,0,0.000000,0.000000,0.000000,0.000000,0.000*0A
EndT:        0
---00000030--- Acq_st=3 2019-5-22 02:44:29 
[00]  G04  f 38  -1576.0 2046002.0  1.0  1.0  5  0 269086296
[01]  G07  f 45  -3599.9 2046004.7  1.0  1.0  5  0 269086295
[02]  G08  f 39  -1745.1 2046002.3  1.0  1.0  5  0 269086305
[03]  G09  f 43   -403.1 2046000.6  1.0  1.0  5  0 269086299
[04]  G16  f 39   1116.7 2045998.5  1.0  1.0  5  0 269086303
[05]  G21  f 40   1829.1 2045997.6  1.0  1.0  5  0 269086290
[06]  G26  f 41   1666.2 2045997.8  1.0  1.0  5  0 269086298
[07]  G27  f 48    572.6 2045999.2  1.0  1.0  5  0 269086307
[16]  B07 1f 42   -558.0 4092001.4  1.0  1.0  5  0 269072253
[17]  B10 1f 44   -606.9 4092001.6  1.0  1.0  5  0 269072250
[18]  B19 1f 29   1316.8 4091996.4  0.9  0.8  5  0 269072284
[19]  B27 1f 30  -1471.8 4092003.9  0.9  0.8  5  0 269072302
[20]  B28 1f 46   1596.1 4091995.8  1.0  1.0  5  0 269072298
$GNGGA,000000.000,,,,,0,00,,,M,,,,0000*2B
$GNRMC,000000.000,A,,,,,,,000000,,*26
$GPGSA,A,1,,,,,,,,,,,,,,,*1E
$BDGSA,A,1,,,,,,,,,,,,,,,*0F
$GPGSV,2,1,08,04,00,000,38,07,00,000,45,08,00,000,39,09,00,000,43*77
$GPGSV,2,2,08,16,00,000,39,21,00,000,40,26,00,000,41,27,00,000,48*73
$BDGSV,2,1,05,07,00,000,42,10,00,000,44,19,00,000,29,27,00,000,30*6B
$BDGSV,2,2,05,28,00,000,46*55
$LOGTIM,0,0.000000,0.000000,0.000000,0.000000,0.000*0A
EndT:        0
---00000031--- Acq_st=3 2019-5-22 02:44:30 
[00]  G04  f 39  -1576.2 2046002.0  1.0  1.0  5 3f 269087296
[01]  G07  f 44  -3601.4 2046004.7  1.0  1.0  5  0 269087295
[02]  G08  f 38  -1746.4 2046002.2  1.0  1.0  5  0 269087305
[03]  G09  f 43   -404.5 2046000.5  1.0  1.0  5  0 269087299
[04]  G16  f 39   1115.7 2045998.5  1.0  1.0  5  0 269087303
[05]  G21  f 40   1828.1 2045997.7  1.0  1.0  5  0 269087290
[06]  G26  f 40   1664.6 2045997.8  1.0  1.0  5  0 269087298
[07]  G27  f 49    571.7 2045999.2  1.0  1.0  5  0 269087307
[16]  B07 1f 42   -559.7 4092001.4  1.0  1.0  5  0 269073253
[17]  B10 1f 44   -608.5 4092001.6  1.0  1.0  5  0 269073250
[18]  B19 1f 30   1316.3 4091996.5  1.0  1.0  5  0 269073284
[19]  B27 1f 29  -1472.2 4092003.9  0.9  0.9  5  0 269073302
[20]  B28 1f 45   1595.6 4091995.8  1.0  1.0  5  0 269073298
lsq: nits= 4
$GNGGA,024430.375,3112.7222,N,12136.4355,E,1,07,1.9,66.1,M,,,,0000*2B
$GNRMC,024430.375,A,3112.7222,N,12136.4355,E,0.26,0.00,220519,,*10
$GPGSA,A,3,07,08,09,16,21,26,27,,,,,,2.8,1.9,2.1*30
$BDGSA,A,3,,,,,,,,,,,,,2.8,1.9,2.1*22
$GPGSV,2,1,08,04,00,000,39,07,00,000,44,08,00,000,38,09,00,000,43*76
$GPGSV,2,2,08,16,00,000,39,21,00,000,40,26,00,000,40,27,00,000,49*73
$BDGSV,2,1,05,07,00,000,42,10,00,000,44,19,00,000,30,27,00,000,29*6B
$BDGSV,2,2,05,28,00,000,45*56
$LOGTIM,1,9804565.391149,0.000000,0.000000,0.000000,-63.451*17
EndT:        1
---00000032--- Acq_st=3 2019-5-22 02:44:30 
[00]  G04  f 39  -1575.4 2046002.0  1.0  1.0  5 3f 269088296
[01]  G07  f 44  -3600.8 2046004.7  1.0  1.0  5  0 269088295
[02]  G08  f 39  -1744.8 2046002.3  1.0  1.0  5  0 269088305
[03]  G09  f 42   -403.1 2046000.5  1.0  1.0  5  0 269088299
[04]  G16  f 39   1115.9 2045998.5  1.0  1.0  5  0 269088303
[05]  G21  f 40   1829.0 2045997.6  1.0  1.0  5  0 269088290
[06]  G26  f 40   1665.0 2045997.9  1.0  1.0  5  0 269088298
[07]  G27  f 49    572.3 2045999.3  1.0  1.0  5  0 269088307
[16]  B07 1f 42   -559.4 4092001.4  1.0  1.0  5  0 269074253
[17]  B10 1f 43   -607.9 4092001.6  1.0  1.0  5  0 269074250
[18]  B19 1f 29   1315.0 4091996.6  0.9  1.0  5  0 269074284
[19]  B27 1f 29  -1472.1 4092003.9  0.9  0.9  5  0 269074302
[20]  B28 1f 46   1596.2 4091995.8  1.0  1.0  5  0 269074298
lsq: nits= 2
$GNGGA,024432.000,3112.7233,N,12136.4296,E,1,07,1.9,53.1,M,,,,0000*20
$GNRMC,024432.000,A,3112.7233,N,12136.4296,E,0.02,0.00,220519,,*1B
$GPGSA,A,3,07,08,09,16,21,26,27,,,,,,2.8,1.9,2.1*30
$BDGSA,A,3,,,,,,,,,,,,,2.8,1.9,2.1*22
$GPGSV,2,1,08,04,00,000,39,07,00,000,44,08,00,000,39,09,00,000,42*76
$GPGSV,2,2,08,16,00,000,39,21,00,000,40,26,00,000,40,27,00,000,49*73
$BDGSV,2,1,05,07,00,000,42,10,00,000,43,19,00,000,29,27,00,000,29*64
$BDGSV,2,2,05,28,00,000,46*55
$LOGTIM,1,-103.995157,0.000000,0.000000,0.000000,-63.435*38
EndT:        3
---00000033--- Acq_st=3 2019-5-22 02:44:32 
[00]  G04  f 38  -1574.6 2046002.1  1.0  1.0  5 3f 269089922
[01]  G07  f 44  -3600.4 2046004.7  1.0  1.0  5  0 269089921
[02]  G08  f 39  -1744.2 2046002.2  1.0  1.0  5  0 269089930
[03]  G09  f 42   -402.1 2046000.6  1.0  1.0  5  0 269089924
[04]  G16  f 39   1116.1 2045998.6  1.0  1.0  5  0 269089928
[05]  G21  f 39   1829.1 2045997.7  1.0  1.0  5  0 269089915
[06]  G26  f 40   1665.4 2045997.9  1.0  1.0  5  0 269089923
[07]  G27  f 48    573.1 2045999.3  1.0  1.0  5  0 269089932
[16]  B07 1f 41   -559.1 4092001.5  1.0  1.0  5  0 269075878
[17]  B10 1f 44   -607.7 4092001.6  1.0  1.0  5  0 269075875
[18]  B19 1f 30   1316.2 4091996.5  0.9  0.8  5  0 269075909
[19]  B27 1f 29  -1471.1 4092004.0  0.9  0.8  5  0 269075927
[20]  B28 1f 46   1596.8 4091995.8  1.0  1.0  5  0 269075923
lsq: nits= 2
$GNGGA,024433.000,3112.7219,N,12136.4292,E,1,07,1.9,52.6,M,,,,0000*2B
$GNRMC,024433.000,A,3112.7219,N,12136.4292,E,0.13,0.00,220519,,*16
$GPGSA,A,3,07,08,09,16,21,26,27,,,,,,2.8,1.9,2.1*30
$BDGSA,A,3,,,,,,,,,,,,,2.8,1.9,2.1*22
$GPGSV,2,1,08,04,00,000,38,07,23,317,44,08,62,234,39,09,31,283,42*79
$GPGSV,2,2,08,16,46,041,39,21,11,043,39,26,27,069,40,27,77,021,48*75
$BDGSV,2,1,06,07,00,000,41,10,00,000,44,19,00,000,30,27,00,000,29*6B
$BDGSV,2,2,06,28,00,000,46,17,78,182,00*64
$LOGTIM,1,-168.929621,0.000000,0.000000,0.000000,-63.579*3D
EndT:        3
---00000034--- Acq_st=3 2019-5-22 02:44:33 
[00]  G04  f 38  -1574.0 2046002.0  1.0  1.0  5 3f 269090922
[01]  G07  f 45  -3600.4 2046004.7  1.0  1.0  5  0 269090921
[02]  G08  f 39  -1743.1 2046002.2  1.0  1.0  5  0 269090930
[03]  G09  f 43   -401.7 2046000.5  1.0  1.0  5  0 269090924
[04]  G16  f 40   1116.9 2045998.5  1.0  1.0  5  0 269090928
[05]  G21  f 39   1829.6 2045997.6  1.0  1.0  5  0 269090915
[06]  G26  f 40   1665.5 2045997.9  1.0  1.0  5  0 269090923
[07]  G27  f 48    574.1 2045999.2  1.0  1.0  5  0 269090932
[16]  B07 1f 41   -559.4 4092001.4  1.0  1.0  5  0 269076878
[17]  B10 1f 44   -607.6 4092001.6  1.0  1.0  5  0 269076875
[18]  B19 1f 29   1316.9 4091996.6  0.9  0.9  5  0 269076909
[19]  B27 1f 30  -1471.2 4092003.9  0.9  0.8  5  0 269076927
[20]  B28 1f 46   1597.4 4091995.8  1.0  1.0  5  0 269076923
lsq: nits= 2
$GNGGA,024434.000,3112.7212,N,12136.4293,E,1,07,1.9,51.7,M,,,,0000*24
$GNRMC,024434.000,A,3112.7212,N,12136.4293,E,0.31,0.00,220519,,*1B
$GPGSA,A,3,07,08,09,16,21,26,27,,,,,,2.8,1.9,2.1*30
$BDGSA,A,3,,,,,,,,,,,,,2.8,1.9,2.1*22
$GPGSV,2,1,08,04,00,000,38,07,23,317,45,08,62,234,39,09,31,283,43*79
$GPGSV,2,2,08,16,46,041,40,21,11,043,39,26,27,069,40,27,77,021,48*7B
$BDGSV,2,1,06,07,00,000,41,10,00,000,44,19,00,000,29,27,00,000,30*6B
$BDGSV,2,2,06,28,00,000,46,17,78,182,00*64
$LOGTIM,1,-233.403300,0.000000,0.000000,0.000000,-63.184*35
EndT:        3
---00000035--- Acq_st=3 2019-5-22 02:44:34 
[00]  G04  f 39  -1570.0 2046002.1  1.0  1.0  5 3f 269091922
[01]  G07  f 45  -3597.4 2046004.7  1.0  1.0  5  0 269091921
[02]  G08  f 39  -1740.1 2046002.2  1.0  1.0  5  0 269091930
[03]  G09  f 43   -398.1 2046000.5  1.0  1.0  5  0 269091924
[04]  G16  f 40   1119.8 2045998.6  1.0  1.0  5  0 269091928
[05]  G21  f 40   1833.2 2045997.7  1.0  1.0  5  0 269091915
[06]  G26  f 40   1668.9 2045997.9  1.0  1.0  5  0 269091923
[07]  G27  f 48    577.7 2045999.2  1.0  1.0  5  0 269091932
[16]  B07 1f 42   -556.2 4092001.4  1.0  1.0  5  0 269077878
[17]  B10 1f 44   -604.6 4092001.6  1.0  1.0  5  0 269077875
[18]  B19 1f 30   1319.3 4091996.5  1.0  0.8  5  0 269077909
[19]  B27 1f 29  -1467.0 4092003.8  0.9  0.8  5  0 269077927
[20]  B28 1f 46   1600.8 4091995.8  1.0  1.0  5  0 269077923
lsq: nits= 2
$GNGGA,024435.000,3112.7168,N,12136.4317,E,1,07,1.9,38.4,M,,,,0000*2A
$GNRMC,024435.000,A,3112.7168,N,12136.4317,E,0.78,0.00,220519,,*14
$GPGSA,A,3,07,08,09,16,21,26,27,,,,,,2.8,1.9,2.1*30
$BDGSA,A,3,,,,,,,,,,,,,2.8,1.9,2.1*22
$GPGSV,2,1,08,04,00,000,39,07,23,317,45,08,62,234,39,09,31,283,43*78
$GPGSV,2,2,08,16,46,041,40,21,11,043,40,26,27,069,40,27,77,021,48*75
$BDGSV,2,1,06,07,00,000,42,10,00,000,44,19,00,000,30,27,00,000,29*68
$BDGSV,2,2,06,28,00,000,46,17,78,182,00*64
$LOGTIM,1,-309.942485,0.000000,0.000000,0.000000,-63.681*3D
EndT:        3
---00000036--- Acq_st=3 2019-5-22 02:44:35 
[00]  G04  f 39  -1573.3 2046002.0  1.0  1.0  5 3f 269092922
[01]  G07  f 44  -3600.9 2046004.7  1.0  1.0  5  0 269092921
[02]  G08  f 40  -1743.1 2046002.2  1.0  1.0  5  0 269092930
[03]  G09  f 43   -401.0 2046000.6  1.0  1.0  5  0 269092924
[04]  G16  f 40   1116.4 2045998.5  1.0  1.0  5  0 269092928
[05]  G21  f 40   1830.2 2045997.7  1.0  1.0  5  0 269092915
[06]  G26  f 40   1665.3 2045997.8  1.0  1.0  5  0 269092923
[07]  G27  f 48    574.5 2045999.2  1.0  1.0  5  0 269092932
[16]  B07 1f 41   -559.7 4092001.5  1.0  1.0  5  0 269078878
[17]  B10 1f 44   -608.6 4092001.6  1.0  1.0  5  0 269078875
[18]  B19 1f 30   1315.7 4091996.5  0.9  0.9  5  0 269078909
[19]  B27 1f 30  -1469.5 4092003.7  1.0  0.9  5  0 269078927
[20]  B28 1f 46   1597.4 4091995.8  1.0  1.0  5  0 269078923
lsq: nits= 2
$GNGGA,024436.000,3112.7166,N,12136.4320,E,1,07,1.9,36.9,M,,,,0000*20
$GNRMC,024436.000,A,3112.7166,N,12136.4320,E,0.39,0.00,220519,,*18
$GPGSA,A,3,07,08,09,16,21,26,27,,,,,,2.8,1.9,2.1*30
$BDGSA,A,3,,,,,,,,,,,,,2.8,1.9,2.1*22
$GPGSV,2,1,08,04,00,000,39,07,23,317,44,08,62,234,40,09,31,283,43*77
$GPGSV,2,2,08,16,46,041,40,21,11,043,40,26,27,069,40,27,77,021,48*75
$BDGSV,2,1,06,07,00,000,41,10,00,000,44,19,00,000,30,27,00,000,30*63
$BDGSV,2,2,06,28,00,000,46,17,78,182,00*64
$LOGTIM,1,-374.846081,0.000000,0.000000,0.000000,-63.985*39
EndT:        3
---00000037--- Acq_st=3 2019-5-22 02:44:36 
[00]  G04  f 40  -1574.9 2046002.1  1.0  1.0  5 3f 269093922
[01]  G07  f 43  -3602.3 2046004.7  1.0  1.0  5  0 269093921
[02]  G08  f 40  -1743.9 2046002.2  1.0  1.0  5  0 269093930
[03]  G09  f 42   -401.8 2046000.6  1.0  1.0  5  0 269093924
[04]  G16  f 40   1114.7 2045998.5  1.0  1.0  5  0 269093928
[05]  G21  f 40   1829.1 2045997.6  1.0  1.0  5  0 269093915
[06]  G26  f 40   1663.8 2045997.8  1.0  1.0  5  0 269093923
[07]  G27  f 49    573.3 2045999.3  1.0  1.0  5  0 269093932
[16]  B07 1f 42   -561.4 4092001.5  1.0  1.0  5  0 269079878
[17]  B10 1f 44   -610.2 4092001.6  1.0  1.0  5  0 269079875
[18]  B19 1f 30   1314.5 4091996.6  1.0  1.0  5  0 269079909
[19]  B27 1f 30  -1470.7 4092003.8  0.9  1.0  5  0 269079927
[20]  B28 1f 46   1596.2 4091995.8  1.0  1.0  5  0 269079923
lsq: nits= 2
$GNGGA,024437.000,3112.7171,N,12136.4331,E,1,07,1.9,35.7,M,,,,0000*2A
$GNRMC,024437.000,A,3112.7171,N,12136.4331,E,0.43,0.00,220519,,*12
$GPGSA,A,3,07,08,09,16,21,26,27,,,,,,2.8,1.9,2.1*30
$BDGSA,A,3,,,,,,,,,,,,,2.8,1.9,2.1*22
$GPGSV,2,1,08,04,00,000,40,07,23,317,43,08,62,234,40,09,31,283,42*7F
$GPGSV,2,2,08,16,46,041,40,21,11,043,40,26,27,069,40,27,77,021,49*74
$BDGSV,2,1,06,07,00,000,42,10,00,000,44,19,00,000,30,27,00,000,30*60
$BDGSV,2,2,06,28,00,000,46,17,78,182,00*64
$LOGTIM,1,-440.356508,0.000000,0.000000,0.000000,-63.858*36
EndT:        3
---00000038--- Acq_st=3 2019-5-22 02:44:37 
[00]  G04  f 40  -1570.9 2046002.0  1.0  1.0  5 3f 269094922
[01]  G07  f 43  -3599.3 2046004.7  1.0  1.0  5  0 269094921
[02]  G08  f 40  -1740.8 2046002.3  1.0  1.0  5  0 269094930
[03]  G09  f 42   -398.7 2046000.5  1.0  1.0  5  0 269094924
[04]  G16  f 40   1117.7 2045998.5  1.0  1.0  5  0 269094928
[05]  G21  f 40   1832.1 2045997.6  1.0  1.0  5  0 269094915
[06]  G26  f 40   1666.9 2045997.9  1.0  1.0  5  0 269094923
[07]  G27  f 48    577.0 2045999.2  1.0  1.0  5  0 269094932
[16]  B07 1f 42   -558.2 4092001.5  1.0  1.0  5  0 269080878
[17]  B10 1f 44   -607.0 4092001.6  1.0  1.0  5  0 269080875
[18]  B19 1f 30   1318.8 4091996.5  0.9  1.0  5  0 269080909
[19]  B27 1f 30  -1468.7 4092003.8  0.9  0.9  5  0 269080927
[20]  B28 1f 46   1599.6 4091995.8  1.0  1.0  5  0 269080923
lsq: nits= 2
$GNGGA,024438.000,3112.7174,N,12136.4339,E,1,07,1.9,34.1,M,,,,0000*2F
$GNRMC,024438.000,A,3112.7174,N,12136.4339,E,0.65,0.00,220519,,*14
$GPGSA,A,3,07,08,09,16,21,26,27,,,,,,2.8,1.9,2.1*30
$BDGSA,A,3,,,,,,,,,,,,,2.8,1.9,2.1*22
$GPGSV,2,1,08,04,00,000,40,07,23,317,43,08,62,234,40,09,31,283,42*7F
$GPGSV,2,2,08,16,46,041,40,21,11,043,40,26,27,069,40,27,77,021,48*75
$BDGSV,2,1,06,07,00,000,42,10,00,000,44,19,00,000,30,27,00,000,30*60
$BDGSV,2,2,06,28,00,000,46,17,78,182,00*64
$LOGTIM,1,-505.210112,0.000000,0.000000,0.000000,-63.448*37
EndT:        3
---00000039--- Acq_st=3 2019-5-22 02:44:38 
[00]  G04  f 40  -1568.7 2046002.0  1.0  1.0  5 3f 269095922
[01]  G07  f 44  -3597.1 2046004.7  1.0  1.0  5  0 269095921
[02]  G08  f 40  -1738.1 2046002.3  1.0  1.0  5  0 269095930
[03]  G09  f 41   -395.4 2046000.5  1.0  1.0  5  0 269095924
[04]  G16  f 40   1119.9 2045998.5  1.0  1.0  5  0 269095928
[05]  G21  f 41   1834.5 2045997.6  1.0  1.0  5  0 269095915
[06]  G26  f 40   1668.8 2045997.8  1.0  1.0  5  0 269095923
[07]  G27  f 48    579.7 2045999.3  1.0  1.0  5  0 269095932
[16]  B07 1f 42   -556.6 4092001.5  1.0  1.0  5  0 269081878
[17]  B10 1f 44   -605.3 4092001.6  1.0  1.0  5  0 269081875
[18]  B19 1f 29   1320.1 4091996.5  1.0  0.9  5  0 269081909
[19]  B27 1f 30  -1464.7 4092003.8  0.9  0.9  5  0 269081927
[20]  B28 1f 46   1601.8 4091995.8  1.0  1.0  5  0 269081923
lsq: nits= 2
$GNGGA,024439.000,3112.7180,N,12136.4343,E,1,07,1.9,33.5,M,,,,0000*2B
$GNRMC,024439.000,A,3112.7180,N,12136.4343,E,0.64,0.00,220519,,*12
$GPGSA,A,3,07,08,09,16,21,26,27,,,,,,2.8,1.9,2.1*30
$BDGSA,A,3,,,,,,,,,,,,,2.8,1.9,2.1*22
$GPGSV,2,1,08,04,00,000,40,07,23,317,44,08,62,234,40,09,31,283,41*7B
$GPGSV,2,2,08,16,46,041,40,21,11,043,41,26,27,069,40,27,77,021,48*74
$BDGSV,2,1,06,07,00,000,42,10,00,000,44,19,00,000,29,27,00,000,30*68
$BDGSV,2,2,06,28,00,000,46,17,78,182,00*64
$LOGTIM,1,-567.980084,0.000000,0.000000,0.000000,-63.124*30
EndT:        3
---00000040--- Acq_st=7 2019-5-22 02:44:39 
[00]  G04  f 40  -1567.4 2046002.0  1.0  1.0  5 3f 269096922
[01]  G07  f 45  -3596.8 2046004.7  1.0  1.0  5  0 269096921
[02]  G08  f 41  -1736.8 2046002.3  1.0  1.0  5  0 269096930
[03]  G09  f 40   -395.1 2046000.5  1.0  1.0  5  0 269096924
[04]  G16  f 41   1120.6 2045998.5  1.0  1.0  5  0 269096928
[05]  G21  f 41   1835.4 2045997.6  1.0  1.0  5  0 269096915
[06]  G26  f 40   1669.3 2045997.8  1.0  1.0  5  0 269096923
[07]  G27  f 48    580.6 2045999.2  1.0  1.0  5  0 269096932
[16]  B07 1f 42   -556.1 4092001.4  1.0  1.0  5  0 269082878
[17]  B10 1f 44   -604.4 4092001.6  1.0  1.0  5  0 269082875
[18]  B19 1f 29   1319.9 4091996.6  1.0  0.9  5  0 269082909
[19]  B27 1f 30  -1465.1 4092003.8  0.9  0.9  5  0 269082927
[20]  B28 1f 46   1603.2 4091995.8  1.0  1.0  5  0 269082923
lsq: nits= 2
$GNGGA,024440.000,3112.7179,N,12136.4340,E,1,07,1.9,32.9,M,,,,0000*2D
$GNRMC,024440.000,A,3112.7179,N,12136.4340,E,0.38,0.00,220519,,*10
$GPGSA,A,3,07,08,09,16,21,26,27,,,,,,2.8,1.9,2.1*30
$BDGSA,A,3,,,,,,,,,,,,,2.8,1.9,2.1*22
$GPGSV,2,1,08,04,00,000,40,07,23,317,45,08,62,234,41,09,31,283,40*7A
$GPGSV,2,2,08,16,46,041,41,21,11,043,41,26,27,069,40,27,77,021,48*75
$BDGSV,2,1,06,07,00,000,42,10,00,000,44,19,00,000,29,27,00,000,30*68
$BDGSV,2,2,06,28,00,000,46,17,78,182,00*64
$LOGTIM,1,-631.309970,0.000000,0.000000,0.000000,-63.256*3F
EndT:        2
---00000041--- Acq_st=3 2019-5-22 02:44:40 
[00]  G04  f 40  -1569.4 2046002.1  1.0  1.0  5 3f 269097922
[01]  G07  f 44  -3599.0 2046004.6  1.0  1.0  5  0 269097921
[02]  G08  f 40  -1739.0 2046002.3  1.0  1.0  5  0 269097930
[03]  G09  f 41   -396.6 2046000.5  1.0  1.0  5  0 269097924
[04]  G16  f 41   1118.2 2045998.5  1.0  1.0  5  0 269097928
[05]  G21  f 41   1833.8 2045997.6  1.0  1.0  5  0 269097915
[06]  G26  f 40   1666.8 2045997.8  1.0  1.0  5  0 269097923
[07]  G27  f 48    578.6 2045999.2  1.0  1.0  5  0 269097932
[16]  B07 1f 42   -558.6 4092001.4  1.0  1.0  5  0 269083878
[17]  B10 1f 44   -607.5 4092001.6  1.0  1.0  5  0 269083875
[18]  B19 1f 29   1318.2 4091996.5  0.9  0.9  5  0 269083909
[19]  B27 1f 30  -1467.7 4092003.9  0.9  0.9  5  0 269083927
[20]  B28 1f 46   1600.7 4091995.8  1.0  1.0  5  0 269083923
lsq: nits= 2
$GNGGA,024441.000,3112.7172,N,12136.4332,E,1,07,1.9,32.1,M,,,,0000*2A
$GNRMC,024441.000,A,3112.7172,N,12136.4332,E,0.14,0.00,220519,,*11
$GPGSA,A,3,07,08,09,16,21,26,27,,,,,,2.8,1.9,2.1*30
$BDGSA,A,3,,,,,,,,,,,,,2.8,1.9,2.1*22
$GPGSV,2,1,08,04,00,000,40,07,23,317,44,08,62,234,40,09,31,283,41*7B
$GPGSV,2,2,08,16,46,041,41,21,11,043,41,26,27,069,40,27,77,021,48*75
$BDGSV,2,1,06,07,00,000,42,10,00,000,44,19,00,000,29,27,00,000,30*68
$BDGSV,2,2,06,28,00,000,46,17,78,182,00*64
$LOGTIM,1,-695.683001,0.000000,0.000000,0.000000,-63.676*3F
EndT:        2
---00000042--- Acq_st=3 2019-5-22 02:44:41 
[00]  G04  f 40  -1571.6 2046002.1  1.0  0.9  5 3f 269098922
[01]  G07  f 44  -3601.8 2046004.7  1.0  1.0  5  0 269098921
[02]  G08  f 41  -1741.3 2046002.3  1.0  1.0  5  0 269098930
[03]  G09  f 42   -399.1 2046000.5  1.0  1.0  5  0 269098924
[04]  G16  f 41   1115.5 2045998.6  1.0  1.0  5  0 269098928
[05]  G21  f 41   1831.4 2045997.6  1.0  1.0  5  0 269098915
[06]  G26  f 41   1664.1 2045997.8  1.0  1.0  5  0 269098923
[07]  G27  f 47    576.6 2045999.3  1.0  1.0  5  0 269098932
[16]  B07 1f 42   -561.3 4092001.4  1.0  1.0  5  0 269084878
[17]  B10 1f 44   -610.1 4092001.6  1.0  1.0  5  0 269084875
[18]  B19 1f 28   1315.1 4091996.7  0.9  0.8  5  0 269084909
[19]  B27 1f 31  -1470.1 4092003.8  1.0  0.8  5  0 269084927
[20]  B28 1f 46   1598.7 4091995.8  1.0  1.0  5  0 269084923
lsq: nits= 2
$GNGGA,024442.000,3112.7172,N,12136.4327,E,1,07,1.9,31.8,M,,,,0000*27
$GNRMC,024442.000,A,3112.7172,N,12136.4327,E,0.09,0.00,220519,,*1A
$GPGSA,A,3,07,08,09,16,21,26,27,,,,,,2.8,1.9,2.1*30
$BDGSA,A,3,,,,,,,,,,,,,2.8,1.9,2.1*22
$GPGSV,2,1,08,04,00,000,40,07,23,317,44,08,62,234,41,09,31,283,42*79
$GPGSV,2,2,08,16,46,041,41,21,11,043,41,26,27,069,41,27,77,021,47*7B
$BDGSV,2,1,06,07,00,000,42,10,00,000,44,19,00,000,28,27,00,000,31*68
$BDGSV,2,2,06,28,00,000,46,17,78,182,00*64
$LOGTIM,1,-759.535130,0.000000,0.000000,0.000000,-63.911*3D
EndT:        2
---00000043--- Acq_st=3 2019-5-22 02:44:42 
[00]  G04  f 40  -1571.0 2046002.0  1.0  1.0  5 3f 269099922
[01]  G07  f 44  -3601.8 2046004.7  1.0  1.0  5  0 269099921
[02]  G08  f 40  -1741.0 2046002.3  1.0  1.0  5  0 269099930
[03]  G09  f 42   -398.5 2046000.5  1.0  1.0  5  0 269099924
[04]  G16  f 41   1115.1 2045998.6  1.0  1.0  5  0 269099928
[05]  G21  f 42   1831.4 2045997.6  1.0  1.0  5  0 269099915
[06]  G26  f 40   1664.1 2045997.8  1.0  1.0  5  0 269099923
[07]  G27  f 47    576.9 2045999.3  1.0  1.0  5  0 269099932
[16]  B07 1f 42   -562.0 4092001.4  1.0  1.0  5  0 269085878
[17]  B10 1f 44   -610.5 4092001.6  1.0  1.0  5  0 269085875
[18]  B19 1f 28   1314.9 4091996.5  0.9  1.0  5  0 269085909
[19]  B27 1f 31  -1468.2 4092003.9  1.0  0.9  5  0 269085927
[20]  B28 1f 46   1598.7 4091995.8  1.0  1.0  5  0 269085923
lsq: nits= 2
$GNGGA,024443.000,3112.7161,N,12136.4320,E,1,07,1.9,32.0,M,,,,0000*28
$GNRMC,024443.000,A,3112.7161,N,12136.4320,E,0.36,0.00,220519,,*12
$GPGSA,A,3,07,08,09,16,21,26,27,,,,,,2.8,1.9,2.1*30
$BDGSA,A,3,,,,,,,,,,,,,2.8,1.9,2.1*22
$GPGSV,2,1,08,04,00,000,40,07,23,317,44,08,62,234,40,09,31,283,42*78
$GPGSV,2,2,08,16,46,041,41,21,11,043,42,26,27,069,40,27,77,021,47*79
$BDGSV,2,1,06,07,00,000,42,10,00,000,44,19,00,000,28,27,00,000,31*68
$BDGSV,2,2,06,28,00,000,46,17,78,182,00*64
$LOGTIM,1,-824.703423,0.000000,0.000000,0.000000,-63.800*39
EndT:        2
---00000044--- Acq_st=3 2019-5-22 02:44:43 
[00]  G04  f 39  -1569.4 2046002.0  1.0  1.0  5 3f 269100922
[01]  G07  f 44  -3600.5 2046004.7  1.0  1.0  5  0 269100921
[02]  G08  f 40  -1738.8 2046002.2  1.0  1.0  5  0 269100930
[03]  G09  f 42   -396.4 2046000.5  1.0  1.0  5  0 269100924
[04]  G16  f 41   1117.3 2045998.5  1.0  1.0  5  0 269100928
[05]  G21  f 41   1833.1 2045997.6  1.0  1.0  5  0 269100915
[06]  G26  f 41   1665.8 2045997.8  1.0  1.0  5  0 269100923
[07]  G27  f 46    578.7 2045999.3  1.0  1.0  5  0 269100932
[16]  B07 1f 42   -560.0 4092001.5  1.0  1.0  5  0 269086878
[17]  B10 1f 43   -609.0 4092001.6  1.0  1.0  5  0 269086875
[18]  B19 1f 28   1316.7 4091996.7  0.9  0.8  5  0 269086909
[19]  B27 1f 31  -1465.8 4092003.8  1.0  0.9  5  0 269086927
[20]  B28 1f 46   1600.4 4091995.8  1.0  1.0  5  0 269086923
lsq: nits= 2
$GNGGA,024444.000,3112.7153,N,12136.4320,E,1,07,1.9,33.4,M,,,,0000*2B
$GNRMC,024444.000,A,3112.7153,N,12136.4320,E,0.39,0.00,220519,,*1B
$GPGSA,A,3,07,08,09,16,21,26,27,,,,,,2.8,1.9,2.1*30
$BDGSA,A,3,,,,,,,,,,,,,2.8,1.9,2.1*22
$GPGSV,2,1,08,04,00,000,39,07,23,317,44,08,62,234,40,09,31,283,42*76
$GPGSV,2,2,08,16,46,041,41,21,11,043,41,26,27,069,41,27,77,021,46*7A
$BDGSV,2,1,06,07,00,000,42,10,00,000,43,19,00,000,28,27,00,000,31*6F
$BDGSV,2,2,06,28,00,000,46,17,78,182,00*64
$LOGTIM,1,-888.373897,0.000000,0.000000,0.000000,-63.806*39
EndT:        2
---00000045--- Acq_st=3 2019-5-22 02:44:44 
[00]  G04  f 40  -1569.7 2046002.1  1.0  1.0  5 3f 269101922
[01]  G07  f 45  -3601.2 2046004.7  1.0  1.0  5  0 269101921
[02]  G08  f 41  -1739.2 2046002.2  1.0  1.0  5  0 269101930
[03]  G09  f 42   -396.5 2046000.5  1.0  1.0  5  0 269101924
[04]  G16  f 41   1116.0 2045998.6  1.0  1.0  5  0 269101928
[05]  G21  f 41   1832.4 2045997.6  1.0  1.0  5  0 269101915
[06]  G26  f 41   1664.9 2045997.8  1.0  1.0  5  0 269101923
[07]  G27  f 47    578.6 2045999.3  1.0  1.0  5  0 269101932
[16]  B07 1f 42   -561.1 4092001.5  1.0  1.0  5  0 269087878
[17]  B10 1f 44   -610.3 4092001.6  1.0  1.0  5  0 269087875
[18]  B19 1f 30   1316.8 4091996.4  0.9  0.9  5  0 269087909
[19]  B27 1f 31  -1466.0 4092003.8  1.0  0.9  5  0 269087927
[20]  B28 1f 46   1599.7 4091995.8  1.0  1.0  5  0 269087923
lsq: nits= 2
$GNGGA,024445.000,3112.7155,N,12136.4318,E,1,12,1.9,34.5,M,,,,0000*25
$GNRMC,024445.000,A,3112.7155,N,12136.4318,E,0.09,0.00,220519,,*14
$GPGSA,A,3,07,08,09,16,21,26,27,,,,,,2.8,1.9,2.1*30
$BDGSA,A,3,07,10,19,27,28,,,,,,,,2.8,1.9,2.1*23
$GPGSV,2,1,08,04,00,000,40,07,23,317,45,08,62,234,41,09,31,283,42*78
$GPGSV,2,2,08,16,46,041,41,21,11,043,41,26,27,069,41,27,77,021,47*7B
$BDGSV,2,1,06,07,00,000,42,10,00,000,44,19,00,000,30,27,00,000,31*61
$BDGSV,2,2,06,28,00,000,46,17,78,182,00*64
$LOGTIM,3,-951.280559,-1053.991997,0.000000,0.000000,-63.866*26
EndT:        3
---00000046--- Acq_st=3 2019-5-22 02:44:45 
[00]  G04  f 40  -1570.1 2046002.0  1.0  1.0  5 3f 269102922
[01]  G07  f 44  -3602.4 2046004.7  1.0  1.0  5  0 269102921
[02]  G08  f 41  -1740.1 2046002.3  1.0  1.0  5  0 269102930
[03]  G09  f 42   -397.1 2046000.5  1.0  1.0  5  0 269102924
[04]  G16  f 41   1115.4 2045998.6  1.0  1.0  5  0 269102928
[05]  G21  f 42   1831.4 2045997.6  1.0  1.0  5  0 269102915
[06]  G26  f 41   1663.8 2045997.8  1.0  1.0  5  0 269102923
[07]  G27  f 46    577.7 2045999.3  1.0  1.0  5  0 269102932
[16]  B07 1f 42   -562.4 4092001.5  1.0  1.0  5  0 269088878
[17]  B10 1f 44   -611.1 4092001.6  1.0  1.0  5  0 269088875
[18]  B19 1f 31   1315.4 4091996.6  1.0  0.8  5  0 269088909
[19]  B27 1f 31  -1467.1 4092003.8  1.0  1.0  5  0 269088927
[20]  B28 1f 46   1599.0 4091995.8  1.0  1.0  5  0 269088923
lsq: nits= 2
$GNGGA,024446.000,3112.7191,N,12136.4318,E,1,12,1.0,46.4,M,,,,0000*23
$GNRMC,024446.000,A,3112.7191,N,12136.4318,E,0.08,0.00,220519,,*1E
$GPGSA,A,3,07,08,09,16,21,26,27,,,,,,1.2,1.0,0.6*35
$BDGSA,A,3,07,10,19,27,28,,,,,,,,1.2,1.0,0.6*26
$GPGSV,2,1,08,04,00,000,40,07,23,317,44,08,62,234,41,09,31,283,42*79
$GPGSV,2,2,08,16,46,041,41,21,11,043,42,26,27,069,41,27,77,021,46*79
$BDGSV,2,1,06,07,66,002,42,10,51,312,44,19,00,270,31,27,71,176,31*65
$BDGSV,2,2,06,28,45,048,46,17,78,182,00*69
$LOGTIM,3,-1005.949570,-1162.206732,0.000000,0.000000,-63.937*18
EndT:        3
---00000047--- Acq_st=3 2019-5-22 02:44:46 
[00]  G04  f 39  -1568.9 2046002.0  1.0  1.0  5 3f 269103922
[01]  G07  f 45  -3601.4 2046004.7  1.0  1.0  5  0 269103921
[02]  G08  f 41  -1738.6 2046002.2  1.0  1.0  5  0 269103930
[03]  G09  f 43   -395.6 2046000.5  1.0  1.0  5  0 269103924
[04]  G16  f 42   1115.8 2045998.6  1.0  1.0  5  0 269103928
[05]  G21  f 41   1832.8 2045997.6  1.0  1.0  5  0 269103915
[06]  G26  f 41   1664.5 2045997.8  1.0  1.0  5  0 269103923
[07]  G27  f 46    579.2 2045999.2  1.0  1.0  5  0 269103932
[16]  B07 1f 42   -561.7 4092001.4  1.0  1.0  5  0 269089878
[17]  B10 1f 44   -610.0 4092001.6  1.0  1.0  5  0 269089875
