FlashID=0x1 0x20 0x18
BBram_blkflag1: 4d69: b296
FW Ver: 1.30  
GPS00 Init Dop:   5000, 40
GPS01 Init Dop:   5000, 40
GPS02 Init Dop:   5000, 40
GPS03 Init Dop:   5000, 40
GPS04 Init Dop:   5000, 40
GPS05 Init Dop:   5000, 40
GPS06 Init Dop:   5000, 40
GPS07 Init Dop:   5000, 40
GPS08 Init Dop:   5000, 40
GPS09 Init Dop:   5000, 40
GPS10 Init Dop:   5000, 40
GPS11 Init Dop:   5000, 40
GPS12 Init Dop:   5000, 40
GPS13 Init Dop:   5000, 40
GPS14 Init Dop:   5000, 40
GPS15 Init Dop:   5000, 40
GPS16 Init Dop:   5000, 40
GPS17 Init Dop:   5000, 40
GPS18 Init Dop:   5000, 40
GPS19 Init Dop:   5000, 40
GPS20 Init Dop:   5000, 40
GPS21 Init Dop:   5000, 40
GPS22 Init Dop:   5000, 40
GPS23 Init Dop:   5000, 40
GPS24 Init Dop:   5000, 40
GPS25 Init Dop:   5000, 40
GPS26 Init Dop:   5000, 40
GPS27 Init Dop:   5000, 40
GPS28 Init Dop:   5000, 40
GPS29 Init Dop:   5000, 40
GPS30 Init Dop:   5000, 40
GPS31 Init Dop:   5000, 40
BDS00 Init Dop:   5000, 40
BDS01 Init Dop:   5000, 40
BDS02 Init Dop:   5000, 40
BDS03 Init Dop:   5000, 40
BDS04 Init Dop:   5000, 40
BDS05 Init Dop:   5000, 40
BDS06 Init Dop:   5000, 40
BDS07 Init Dop:   5000, 40
BDS08 Init Dop:   5000, 40
BDS09 Init Dop:   5000, 40
BDS10 Init Dop:   5000, 40
BDS11 Init Dop:   5000, 40
BDS12 Init Dop:   5000, 40
BDS13 Init Dop:   5000, 40
BDS14 Init Dop:   5000, 40
BDS15 Init Dop:   5000, 40
BDS16 Init Dop:   5000, 40
BDS17 Init Dop:   5000, 40
BDS18 Init Dop:   5000, 40
BDS19 Init Dop:   5000, 40
BDS20 Init Dop:   5000, 40
BDS21 Init Dop:   5000, 40
BDS22 Init Dop:   5000, 40
BDS23 Init Dop:   5000, 40
BDS24 Init Dop:   5000, 40
BDS25 Init Dop:   5000, 40
BDS26 Init Dop:   5000, 40
BDS27 Init Dop:   5000, 40
BDS28 Init Dop:   5000, 40
BDS29 Init Dop:   5000, 40
BDS30 Init Dop:   5000, 40
BDS31 Init Dop:   5000, 40
---00000001--- Acq_st=3 2019-5-25 03:35:16 
$GNGGA,000000.000,,,,,0,00,,,M,,,,0000*2B
$GNRMC,000000.000,A,,,,,,,000000,,*26
$GPGSA,A,1,,,,,,,,,,,,,,,*1E
$BDGSA,A,1,,,,,,,,,,,,,,,*0F
$LOGTIM,0,0.000000,0.000000,0.000000,0.000000,0.000*0A
EndT:        0
---00000002--- Acq_st=3 2019-5-25 03:35:17 
$GNGGA,000000.000,,,,,0,00,,,M,,,,0000*2B
$GNRMC,000000.000,A,,,,,,,000000,,*26
$GPGSA,A,1,,,,,,,,,,,,,,,*1E
$BDGSA,A,1,,,,,,,,,,,,,,,*0F
$LOGTIM,0,0.000000,0.000000,0.000000,0.000000,0.000*0A
EndT:        0
---00000003--- Acq_st=3 2019-5-25 03:35:18 
$GNGGA,000000.000,,,,,0,00,,,M,,,,0000*2B
$GNRMC,000000.000,A,,,,,,,000000,,*26
$GPGSA,A,1,,,,,,,,,,,,,,,*1E
$BDGSA,A,1,,,,,,,,,,,,,,,*0F
$LOGTIM,0,0.000000,0.000000,0.000000,0.000000,0.000*0A
EndT:        0
---00000004--- Acq_st=3 2019-5-25 03:35:19 
$GNGGA,000000.000,,,,,0,00,,,M,,,,0000*2B
$GNRMC,000000.000,A,,,,,,,000000,,*26
$GPGSA,A,1,,,,,,,,,,,,,,,*1E
$BDGSA,A,1,,,,,,,,,,,,,,,*0F
$LOGTIM,0,0.000000,0.000000,0.000000,0.000000,0.000*0A
EndT:        0
ch0 satid=3,max_freq = -500,max_mean = 22013,max_phase = 768,max_value = 105795,acq ok1!
acq ok1 timeH = 0,timeL = 73561350,freq_stage = 3
---00000005--- Acq_st=3 2019-5-25 03:35:20 
[00]  G04  1 20    585.4 2045999.7 -0.1  0.0  1  0         0
$GNGGA,000000.000,,,,,0,00,,,M,,,,0000*2B
$GNRMC,000000.000,A,,,,,,,000000,,*26
$GPGSA,A,1,,,,,,,,,,,,,,,*1E
$BDGSA,A,1,,,,,,,,,,,,,,,*0F
$LOGTIM,0,0.000000,0.000000,0.000000,0.000000,0.000*0A
EndT:        0
---00000006--- Acq_st=3 2019-5-25 03:35:21 
[00]  G04  7 18    590.1 2045999.1 -0.1  0.0 20  0        12
$GNGGA,000000.000,,,,,0,00,,,M,,,,0000*2B
$GNRMC,000000.000,A,,,,,,,000000,,*26
$GPGSA,A,1,,,,,,,,,,,,,,,*1E
$BDGSA,A,1,,,,,,,,,,,,,,,*0F
$GPGSV,1,1,01,04,00,000,18*45
$LOGTIM,0,0.000000,0.000000,0.000000,0.000000,0.000*0A
EndT:        0
---00000007--- Acq_st=3 2019-5-25 03:35:22 
[00]  G04  7 34    589.6 2045999.2  0.4  0.9  5  0         4
$GNGGA,000000.000,,,,,0,00,,,M,,,,0000*2B
$GNRMC,000000.000,A,,,,,,,000000,,*26
$GPGSA,A,1,,,,,,,,,,,,,,,*1E
$BDGSA,A,1,,,,,,,,,,,,,,,*0F
$GPGSV,1,1,01,04,00,000,34*4B
$LOGTIM,0,0.000000,0.000000,0.000000,0.000000,0.000*0A
EndT:        0
ch1 satid=6,max_freq = 2750,max_mean = 22259,max_phase = 1558,max_value = 905169,acq ok1!
acq ok1 timeH = 0,timeL = 134039054,freq_stage = 2
---00000008--- Acq_st=3 2019-5-25 03:35:23 
[00]  G04  7 34    592.4 2045999.1  1.0  0.9  5  0         4
[01]  G07  1  7  -2638.1 2046001.7  0.0  0.0  1  0         0
$GNGGA,000000.000,,,,,0,00,,,M,,,,0000*2B
$GNRMC,000000.000,A,,,,,,,000000,,*26
$GPGSA,A,1,,,,,,,,,,,,,,,*1E
$BDGSA,A,1,,,,,,,,,,,,,,,*0F
$GPGSV,1,1,01,04,00,000,34*4B
$LOGTIM,0,0.000000,0.000000,0.000000,0.000000,0.000*0A
EndT:        0
---00000009--- Acq_st=3 2019-5-25 03:35:24 
[00]  G04  7 35    599.5 2045999.2  1.0  1.0  5  0         4
[01]  G07  1 29  -2693.5 2046003.3 -0.2  0.0  1  0        18
$GNGGA,000000.000,,,,,0,00,,,M,,,,0000*2B
$GNRMC,000000.000,A,,,,,,,000000,,*26
$GPGSA,A,1,,,,,,,,,,,,,,,*1E
$BDGSA,A,1,,,,,,,,,,,,,,,*0F
$GPGSV,1,1,01,04,00,000,35*4A
$LOGTIM,0,0.000000,0.000000,0.000000,0.000000,0.000*0A
EndT:        0
ch2 satid=7,max_freq = 0,max_mean = 21849,max_phase = 397,max_value = 394584,acq ok1!
acq ok1 timeH = 0,timeL = 159952596,freq_stage = 3
---00000010--- Acq_st=3 2019-5-25 03:35:25 
[00]  G04  f 35    599.7 2045999.2  1.0  0.9  5  0         4
[01]  G07  7 34  -2692.2 2046003.6  0.8  1.0  5  0        18
[02]  G08  1 22    126.8 2046001.2 -0.0  0.0  1  0         0
$GNGGA,000000.000,,,,,0,00,,,M,,,,0000*2B
$GNRMC,000000.000,A,,,,,,,000000,,*26
$GPGSA,A,1,,,,,,,,,,,,,,,*1E
$BDGSA,A,1,,,,,,,,,,,,,,,*0F
$GPGSV,1,1,02,04,00,000,35,07,00,000,34*79
$LOGTIM,0,0.000000,0.000000,0.000000,0.000000,0.000*0A
EndT:        0
ch3 satid=8,max_freq = -1500,max_mean = 22074,max_phase = 1938,max_value = 93448,acq ok1!
acq ok1 timeH = 0,timeL = 185866136,freq_stage = 4
---00000011--- Acq_st=3 2019-5-25 03:35:26 
[00]  G04  f 35    599.4 2045999.2  1.0  1.0  5  0 531343564
[01]  G07  7 44  -2691.3 2046003.5  1.0  1.0  5  0        10
[02]  G08  7 31    138.6 2045999.7  0.5  1.0  5  0        13
[03]  G09  1 29   1516.4 2045997.8 -0.0  0.0  1  0         0
$GNGGA,000000.000,,,,,0,00,,,M,,,,0000*2B
$GNRMC,000000.000,A,,,,,,,000000,,*26
$GPGSA,A,1,,,,,,,,,,,,,,,*1E
$BDGSA,A,1,,,,,,,,,,,,,,,*0F
$GPGSV,1,1,03,04,00,000,35,07,00,000,44,08,00,000,31*45
$LOGTIM,0,0.000000,0.000000,0.000000,0.000000,0.000*0A
EndT:        0
---00000012--- Acq_st=3 2019-5-25 03:35:27 
[00]  G04  f 35    600.3 2045999.2  1.0  1.0  5  0 531344564
[01]  G07  7 45  -2691.9 2046003.5  1.0  1.0  5  0        10
[02]  G08  7 42    138.3 2045999.8  1.0  1.0  5  0        14
[03]  G09  7 26   1518.1 2045997.9 -0.2  0.7 20  0         8
$GNGGA,000000.000,,,,,0,00,,,M,,,,0000*2B
$GNRMC,000000.000,A,,,,,,,000000,,*26
$GPGSA,A,1,,,,,,,,,,,,,,,*1E
$BDGSA,A,1,,,,,,,,,,,,,,,*0F
$GPGSV,1,1,04,04,00,000,35,07,00,000,45,08,00,000,42,09,00,000,26*7A
$LOGTIM,0,0.000000,0.000000,0.000000,0.000000,0.000*0A
EndT:        0
---00000013--- Acq_st=3 2019-5-25 03:35:28 
[00]  G04  f 36    596.4 2045999.3  1.0  1.0  5  0 531345564
[01]  G07  7 45  -2695.1 2046003.5  1.0  1.0  5  0        10
[02]  G08  7 42    134.9 2045999.8  1.0  1.0  5  0        14
[03]  G09  7 33   1512.7 2045997.9  0.9  1.0  5  0         5
$GNGGA,000000.000,,,,,0,00,,,M,,,,0000*2B
$GNRMC,000000.000,A,,,,,,,000000,,*26
$GPGSA,A,1,,,,,,,,,,,,,,,*1E
$BDGSA,A,1,,,,,,,,,,,,,,,*0F
$GPGSV,1,1,04,04,00,000,36,07,00,000,45,08,00,000,42,09,00,000,33*7D
$LOGTIM,0,0.000000,0.000000,0.000000,0.000000,0.000*0A
EndT:        0
---00000014--- Acq_st=3 2019-5-25 03:35:29 
[00]  G04  f 35    597.0 2045999.2  1.0  1.0  5  0 531346564
[01]  G07  7 45  -2694.9 2046003.5  1.0  1.0  5  0        10
[02]  G08  7 42    134.9 2045999.8  1.0  1.0  5  0        14
[03]  G09  7 33   1513.7 2045998.0  1.0  1.0  5  0         5
$GNGGA,000000.000,,,,,0,00,,,M,,,,0000*2B
$GNRMC,000000.000,A,,,,,,,000000,,*26
$GPGSA,A,1,,,,,,,,,,,,,,,*1E
$BDGSA,A,1,,,,,,,,,,,,,,,*0F
$GPGSV,1,1,04,04,00,000,35,07,00,000,45,08,00,000,42,09,00,000,33*7E
$LOGTIM,0,0.000000,0.000000,0.000000,0.000000,0.000*0A
EndT:        0
---00000015--- Acq_st=3 2019-5-25 03:35:30 
[00]  G04  f 35    594.6 2045999.3  1.0  1.0  5  0 531347564
[01]  G07  7 45  -2697.2 2046003.5  1.0  1.0  5  0        10
[02]  G08  7 42    132.9 2045999.8  1.0  1.0  5  0        14
[03]  G09  7 33   1510.6 2045998.1  1.0  1.0  5  0         5
$GNGGA,000000.000,,,,,0,00,,,M,,,,0000*2B
$GNRMC,000000.000,A,,,,,,,000000,,*26
$GPGSA,A,1,,,,,,,,,,,,,,,*1E
$BDGSA,A,1,,,,,,,,,,,,,,,*0F
$GPGSV,1,1,04,04,00,000,35,07,00,000,45,08,00,000,42,09,00,000,33*7E
$LOGTIM,0,0.000000,0.000000,0.000000,0.000000,0.000*0A
EndT:        0
---00000016--- Acq_st=3 2019-5-25 03:35:31 
[00]  G04  f 35    594.6 2045999.2  1.0  1.0  5  0 531348564
[01]  G07  f 45  -2697.2 2046003.5  1.0  1.0  5  0        10
[02]  G08  f 42    132.7 2045999.8  1.0  1.0  5  0        14
[03]  G09  f 31   1509.5 2045998.0  0.9  0.9  5  0         5
$GNGGA,000000.000,,,,,0,00,,,M,,,,0000*2B
$GNRMC,000000.000,A,,,,,,,000000,,*26
$GPGSA,A,1,,,,,,,,,,,,,,,*1E
$BDGSA,A,1,,,,,,,,,,,,,,,*0F
$GPGSV,1,1,04,04,00,000,35,07,00,000,45,08,00,000,42,09,00,000,31*7C
$LOGTIM,0,0.000000,0.000000,0.000000,0.000000,0.000*0A
EndT:        0
---00000017--- Acq_st=3 2019-5-25 03:35:32 
[00]  G04  f 35    595.2 2045999.2  1.0  0.9  5  0 531349564
[01]  G07  f 44  -2696.6 2046003.5  1.0  1.0  5  0 531349570
[02]  G08  f 42    133.1 2045999.8  1.0  1.0  5  0 531349574
[03]  G09  f 33   1512.4 2045998.0  1.0  1.0  5  0 531349565
$GNGGA,000000.000,,,,,0,00,,,M,,,,0000*2B
$GNRMC,000000.000,A,,,,,,,000000,,*26
$GPGSA,A,1,,,,,,,,,,,,,,,*1E
$BDGSA,A,1,,,,,,,,,,,,,,,*0F
$GPGSV,1,1,04,04,00,000,35,07,00,000,44,08,00,000,42,09,00,000,33*7F
$LOGTIM,0,0.000000,0.000000,0.000000,0.000000,0.000*0A
EndT:        0
---00000018--- Acq_st=3 2019-5-25 03:35:33 
[00]  G04  f 36    592.9 2045999.2  1.0  1.0  5  0 531350564
[01]  G07  f 44  -2699.1 2046003.5  1.0  1.0  5  0 531350570
[02]  G08  f 42    130.7 2045999.8  1.0  1.0  5  0 531350574
[03]  G09  f 33   1507.9 2045998.0  1.0  1.0  5  0 531350565
$GNGGA,000000.000,,,,,0,00,,,M,,,,0000*2B
$GNRMC,000000.000,A,,,,,,,000000,,*26
$GPGSA,A,1,,,,,,,,,,,,,,,*1E
$BDGSA,A,1,,,,,,,,,,,,,,,*0F
$GPGSV,1,1,04,04,00,000,36,07,00,000,44,08,00,000,42,09,00,000,33*7C
$LOGTIM,0,0.000000,0.000000,0.000000,0.000000,0.000*0A
EndT:        0
ch4 satid=15,max_freq = -1500,max_mean = 22406,max_phase = 2006,max_value = 211935,acq ok1!
acq ok1 timeH = 0,timeL = 337050793,freq_stage = 4
---00000019--- Acq_st=3 2019-5-25 03:35:34 
[00]  G04  f 35    590.8 2045999.3  1.0  1.0  5  0 531351564
[01]  G07  f 45  -2700.7 2046003.5  1.0  1.0  5  0 531351570
[02]  G08  f 42    129.4 2045999.8  1.0  1.0  5  0 531351574
[03]  G09  f 33   1507.0 2045998.1  1.0  0.9  5  0 531351565
[04]  G16  1 28   1541.6 2045997.9  0.1  0.0  1  0         0
$GNGGA,000000.000,,,,,0,00,,,M,,,,0000*2B
$GNRMC,000000.000,A,,,,,,,000000,,*26
$GPGSA,A,1,,,,,,,,,,,,,,,*1E
$BDGSA,A,1,,,,,,,,,,,,,,,*0F
$GPGSV,1,1,04,04,00,000,35,07,00,000,45,08,00,000,42,09,00,000,33*7E
$LOGTIM,0,0.000000,0.000000,0.000000,0.000000,0.000*0A
EndT:        0
---00000020--- Acq_st=3 2019-5-25 03:35:35 
[00]  G04  f 34    592.2 2045999.2  1.0  1.0  5  0 531352564
[01]  G07  f 44  -2700.4 2046003.5  1.0  1.0  5  0 531352570
[02]  G08  f 42    129.0 2045999.9  1.0  1.0  5  0 531352574
[03]  G09  f 33   1506.5 2045998.0  1.0  0.9  5  0 531352565
[04]  G16  7 30   1531.7 2045997.9  0.5  1.0  5  0        14
$GNGGA,000000.000,,,,,0,00,,,M,,,,0000*2B
$GNRMC,000000.000,A,,,,,,,000000,,*26
$GPGSA,A,1,,,,,,,,,,,,,,,*1E
$BDGSA,A,1,,,,,,,,,,,,,,,*0F
$GPGSV,2,1,05,04,00,000,34,07,00,000,44,08,00,000,42,09,00,000,33*7C
$GPGSV,2,2,05,16,00,000,30*48
$LOGTIM,0,0.000000,0.000000,0.000000,0.000000,0.000*0A
EndT:        0
---00000021--- Acq_st=3 2019-5-25 03:35:36 
[00]  G04  f 34    592.2 2045999.2  1.0  1.0  5  0 531353564
[01]  G07  f 45  -2700.6 2046003.5  1.0  1.0  5  0 531353570
[02]  G08  f 42    129.2 2045999.9  1.0  1.0  5  0 531353574
[03]  G09  f 33   1506.7 2045998.1  1.0  1.0  5  0 531353565
[04]  G16  7 39   1532.5 2045998.0  1.0  1.0  5  0         6
$GNGGA,000000.000,,,,,0,00,,,M,,,,0000*2B
$GNRMC,000000.000,A,,,,,,,000000,,*26
$GPGSA,A,1,,,,,,,,,,,,,,,*1E
$BDGSA,A,1,,,,,,,,,,,,,,,*0F
$GPGSV,2,1,05,04,00,000,34,07,00,000,45,08,00,000,42,09,00,000,33*7D
$GPGSV,2,2,05,16,00,000,39*41
$LOGTIM,0,0.000000,0.000000,0.000000,0.000000,0.000*0A
EndT:        0
---00000022--- Acq_st=3 2019-5-25 03:35:37 
[00]  G04  f 35    592.7 2045999.2  1.0  1.0  5  0 531354564
[01]  G07  f 45  -2699.6 2046003.5  1.0  1.0  5  0 531354570
[02]  G08  f 42    130.5 2045999.8  1.0  1.0  5  0 531354574
[03]  G09  f 33   1508.4 2045998.0  1.0  0.9  5  0 531354565
[04]  G16  f 39   1531.9 2045998.0  1.0  1.0  5  0         6
$GNGGA,000000.000,,,,,0,00,,,M,,,,0000*2B
$GNRMC,000000.000,A,,,,,,,000000,,*26
$GPGSA,A,1,,,,,,,,,,,,,,,*1E
$BDGSA,A,1,,,,,,,,,,,,,,,*0F
$GPGSV,2,1,05,04,00,000,35,07,00,000,45,08,00,000,42,09,00,000,33*7C
$GPGSV,2,2,05,16,00,000,39*41
$LOGTIM,0,0.000000,0.000000,0.000000,0.000000,0.000*0A
EndT:        0
---00000023--- Acq_st=3 2019-5-25 03:35:38 
[00]  G04  f 35    591.8 2045999.2  1.0  0.9  5  0 531355564
[01]  G07  f 45  -2701.0 2046003.5  1.0  1.0  5  0 531355570
[02]  G08  f 42    128.8 2045999.8  1.0  1.0  5  0 531355574
[03]  G09  f 31   1507.6 2045998.1  0.9  0.8  5  0 531355565
[04]  G16  f 38   1530.3 2045998.0  1.0  1.0  5  0 531355566
$GNGGA,000000.000,,,,,0,00,,,M,,,,0000*2B
$GNRMC,000000.000,A,,,,,,,000000,,*26
$GPGSA,A,1,,,,,,,,,,,,,,,*1E
$BDGSA,A,1,,,,,,,,,,,,,,,*0F
$GPGSV,2,1,05,04,00,000,35,07,00,000,45,08,00,000,42,09,00,000,31*7E
$GPGSV,2,2,05,16,00,000,38*40
$LOGTIM,0,0.000000,0.000000,0.000000,0.000000,0.000*0A
EndT:        0
---00000024--- Acq_st=3 2019-5-25 03:35:39 
[00]  G04  f 35    592.5 2045999.3  1.0  0.9  5  0 531356564
[01]  G07  f 45  -2698.8 2046003.5  1.0  1.0  5  0 531356570
[02]  G08  f 42    130.5 2045999.9  1.0  1.0  5  0 531356574
[03]  G09  f 31   1508.0 2045998.1  1.0  0.9  5  0 531356565
[04]  G16  f 37   1532.6 2045998.0  1.0  1.0  5  0 531356566
$GNGGA,000000.000,,,,,0,00,,,M,,,,0000*2B
$GNRMC,000000.000,A,,,,,,,000000,,*26
$GPGSA,A,1,,,,,,,,,,,,,,,*1E
$BDGSA,A,1,,,,,,,,,,,,,,,*0F
$GPGSV,2,1,05,04,00,000,35,07,00,000,45,08,00,000,42,09,00,000,31*7E
$GPGSV,2,2,05,16,00,000,37*4F
$LOGTIM,0,0.000000,0.000000,0.000000,0.000000,0.000*0A
EndT:        0
---00000025--- Acq_st=3 2019-5-25 03:35:40 
[00]  G04  f 35    591.1 2045999.3  1.0  1.0  5  0 531357564
[01]  G07  f 45  -2700.6 2046003.5  1.0  1.0  5  0 531357570
[02]  G08  f 42    129.4 2045999.8  1.0  1.0  5  0 531357574
[03]  G09  f 31   1505.8 2045998.1  0.9  0.9  5  0 531357565
[04]  G16  f 38   1530.8 2045998.0  1.0  1.0  5  0 531357566
$GNGGA,000000.000,,,,,0,00,,,M,,,,0000*2B
$GNRMC,000000.000,A,,,,,,,000000,,*26
$GPGSA,A,1,,,,,,,,,,,,,,,*1E
$BDGSA,A,1,,,,,,,,,,,,,,,*0F
$GPGSV,2,1,05,04,00,000,35,07,00,000,45,08,00,000,42,09,00,000,31*7E
$GPGSV,2,2,05,16,00,000,38*40
$LOGTIM,0,0.000000,0.000000,0.000000,0.000000,0.000*0A
EndT:        0
---00000026--- Acq_st=3 2019-5-25 03:35:41 
[00]  G04  f 34    596.1 2045999.2  1.0  1.0  5  0 531358564
[01]  G07  f 45  -2697.3 2046003.5  1.0  1.0  5  0 531358570
[02]  G08  f 42    132.6 2045999.8  1.0  1.0  5  0 531358574
[03]  G09  f 31   1510.0 2045998.1  1.0  0.9  5  0 531358565
[04]  G16  f 37   1533.5 2045998.0  1.0  1.0  5  0 531358566
$GNGGA,000000.000,,,,,0,00,,,M,,,,0000*2B
$GNRMC,000000.000,A,,,,,,,000000,,*26
$GPGSA,A,1,,,,,,,,,,,,,,,*1E
$BDGSA,A,1,,,,,,,,,,,,,,,*0F
$GPGSV,2,1,05,04,00,000,34,07,00,000,45,08,00,000,42,09,00,000,31*7F
$GPGSV,2,2,05,16,00,000,37*4F
$LOGTIM,0,0.000000,0.000000,0.000000,0.000000,0.000*0A
EndT:        0
---00000027--- Acq_st=3 2019-5-25 03:35:42 
[00]  G04  f 34    600.9 2045999.2  1.0  1.0  5  0 531359564
[01]  G07  f 45  -2691.6 2046003.5  1.0  1.0  5  0 531359570
[02]  G08  f 42    138.1 2045999.8  1.0  1.0  5  0 531359574
[03]  G09  f 30   1515.3 2045998.0  0.9  0.9  5  0 531359565
[04]  G16  f 37   1538.1 2045998.0  1.0  1.0  5  0 531359566
$GNGGA,000000.000,,,,,0,00,,,M,,,,0000*2B
$GNRMC,000000.000,A,,,,,,,000000,,*26
$GPGSA,A,1,,,,,,,,,,,,,,,*1E
$BDGSA,A,1,,,,,,,,,,,,,,,*0F
$GPGSV,2,1,05,04,00,000,34,07,00,000,45,08,00,000,42,09,00,000,30*7E
$GPGSV,2,2,05,16,00,000,37*4F
$LOGTIM,0,0.000000,0.000000,0.000000,0.000000,0.000*0A
EndT:        0
---00000028--- Acq_st=3 2019-5-25 03:35:43 
[00]  G04  f 34    602.5 2045999.2  1.0  1.0  5  0 531360564
[01]  G07  f 44  -2690.3 2046003.5  1.0  1.0  5  0 531360570
[02]  G08  f 42    139.6 2045999.8  1.0  1.0  5  0 531360574
[03]  G09  f 30   1516.9 2045998.1  0.9  0.9  5  0 531360565
[04]  G16  f 37   1539.6 2045998.0  1.0  1.0  5  0 531360566
$GNGGA,000000.000,,,,,0,00,,,M,,,,0000*2B
$GNRMC,000000.000,A,,,,,,,000000,,*26
$GPGSA,A,1,,,,,,,,,,,,,,,*1E
$BDGSA,A,1,,,,,,,,,,,,,,,*0F
$GPGSV,2,1,05,04,00,000,34,07,00,000,44,08,00,000,42,09,00,000,30*7F
$GPGSV,2,2,05,16,00,000,37*4F
$LOGTIM,0,0.000000,0.000000,0.000000,0.000000,0.000*0A
EndT:        0
---00000029--- Acq_st=3 2019-5-25 03:35:44 
[00]  G04  f 34    605.9 2045999.2  1.0  0.9  5  0 531361564
[01]  G07  f 44  -2686.9 2046003.5  1.0  1.0  5  0 531361570
[02]  G08  f 42    142.7 2045999.8  1.0  1.0  5  0 531361574
[03]  G09  f 30   1519.9 2045998.1  1.0  0.9  5  0 531361565
[04]  G16  f 38   1542.6 2045998.0  1.0  1.0  5  0 531361566
$GNGGA,000000.000,,,,,0,00,,,M,,,,0000*2B
$GNRMC,000000.000,A,,,,,,,000000,,*26
$GPGSA,A,1,,,,,,,,,,,,,,,*1E
$BDGSA,A,1,,,,,,,,,,,,,,,*0F
$GPGSV,2,1,05,04,00,000,34,07,00,000,44,08,00,000,42,09,00,000,30*7F
$GPGSV,2,2,05,16,00,000,38*40
$LOGTIM,0,0.000000,0.000000,0.000000,0.000000,0.000*0A
EndT:        0
---00000030--- Acq_st=3 2019-5-25 03:35:45 
[00]  G04  f 34    605.0 2045999.2  1.0  1.0  5  0 531362564
[01]  G07  f 44  -2687.3 2046003.5  1.0  1.0  5  0 531362570
[02]  G08  f 42    142.2 2045999.8  1.0  1.0  5  0 531362574
[03]  G09  f 31   1520.4 2045998.0  1.0  0.9  5  0 531362565
[04]  G16  f 38   1542.2 2045998.0  1.0  1.0  5  0 531362566
$GNGGA,000000.000,,,,,0,00,,,M,,,,0000*2B
$GNRMC,000000.000,A,,,,,,,000000,,*26
$GPGSA,A,1,,,,,,,,,,,,,,,*1E
$BDGSA,A,1,,,,,,,,,,,,,,,*0F
$GPGSV,2,1,05,04,00,000,34,07,00,000,44,08,00,000,42,09,00,000,31*7E
$GPGSV,2,2,05,16,00,000,38*40
$LOGTIM,0,0.000000,0.000000,0.000000,0.000000,0.000*0A
EndT:        0
ch5 satid=26,max_freq = -2000,max_mean = 22169,max_phase = 26,max_value = 193514,acq ok1!
acq ok1 timeH = 0,timeL = 574626696,freq_stage = 4
---00000031--- Acq_st=3 2019-5-25 03:35:46 
[00]  G04  f 34    607.0 2045999.1  1.0  1.0  5  0 531363564
[01]  G07  f 44  -2686.4 2046003.5  1.0  1.0  5  0 531363570
[02]  G08  f 42    143.1 2045999.8  1.0  1.0  5  0 531363574
[03]  G09  f 30   1521.4 2045998.0  1.0  0.9  5  0 531363565
[04]  G16  f 37   1542.4 2045998.0  1.0  1.0  5  0 531363566
[05]  G27  1 16   2049.2 2045999.3  0.0  0.0  1  0         0
$GNGGA,000000.000,,,,,0,00,,,M,,,,0000*2B
$GNRMC,000000.000,A,,,,,,,000000,,*26
$GPGSA,A,1,,,,,,,,,,,,,,,*1E
$BDGSA,A,1,,,,,,,,,,,,,,,*0F
$GPGSV,2,1,05,04,00,000,34,07,00,000,44,08,00,000,42,09,00,000,30*7F
$GPGSV,2,2,05,16,00,000,37*4F
$LOGTIM,0,0.000000,0.000000,0.000000,0.000000,0.000*0A
EndT:        0
---00000032--- Acq_st=3 2019-5-25 03:35:47 
[00]  G04  f 34    610.1 2045999.2  1.0  1.0  5  0 531364564
[01]  G07  f 44  -2683.5 2046003.5  1.0  1.0  5  0 531364570
[02]  G08  f 42    146.4 2045999.8  1.0  1.0  5  0 531364574
[03]  G09  f 30   1524.7 2045998.1  1.0  0.9  5  0 531364565
[04]  G16  f 38   1545.3 2045998.0  1.0  1.0  5  0 531364566
[05]  G27  7 23   2073.4 2045997.2  0.3  0.0 20  0         0
$GNGGA,000000.000,,,,,0,00,,,M,,,,0000*2B
$GNRMC,000000.000,A,,,,,,,000000,,*26
$GPGSA,A,1,,,,,,,,,,,,,,,*1E
$BDGSA,A,1,,,,,,,,,,,,,,,*0F
$GPGSV,2,1,06,04,00,000,34,07,00,000,44,08,00,000,42,09,00,000,30*7C
$GPGSV,2,2,06,16,00,000,38,27,00,000,23*77
$LOGTIM,0,0.000000,0.000000,0.000000,0.000000,0.000*0A
EndT:        0
---00000033--- Acq_st=3 2019-5-25 03:35:48 
[00]  G04  f 34    611.1 2045999.2  1.0  0.9  5  0 531365564
[01]  G07  f 44  -2682.1 2046003.5  1.0  1.0  5  0 531365570
[02]  G08  f 43    147.4 2045999.8  1.0  1.0  5  0 531365574
[03]  G09  f 30   1524.9 2045998.2  0.9  0.8  5  0 531365565
[04]  G16  f 37   1546.9 2045998.0  1.0  1.0  5  0 531365566
[05]  G27  7 37   2074.1 2045997.2  0.9  1.0  5  0        10
$GNGGA,000000.000,,,,,0,00,,,M,,,,0000*2B
$GNRMC,000000.000,A,,,,,,,000000,,*26
$GPGSA,A,1,,,,,,,,,,,,,,,*1E
$BDGSA,A,1,,,,,,,,,,,,,,,*0F
$GPGSV,2,1,06,04,00,000,34,07,00,000,44,08,00,000,43,09,00,000,30*7D
$GPGSV,2,2,06,16,00,000,37,27,00,000,37*7D
$LOGTIM,0,0.000000,0.000000,0.000000,0.000000,0.000*0A
EndT:        0
ch6 satid=29,max_freq = 3750,max_mean = 22460,max_phase = 500,max_value = 171449,acq ok1!
acq ok1 timeH = 0,timeL = 626472432,freq_stage = 1
---00000034--- Acq_st=3 2019-5-25 03:35:49 
[00]  G04  f 34    612.9 2045999.2  1.0  0.9  5  0 531366564
[01]  G07  f 44  -2680.4 2046003.5  1.0  1.0  5  0 531366570
[02]  G08  f 43    149.4 2045999.9  1.0  1.0  5  0 531366574
[03]  G09  f 29   1527.3 2045997.9  0.9  0.9  5  0 531366565
[04]  G16  f 38   1547.7 2045998.0  1.0  1.0  5  0 531366566
[05]  G27  f 37   2076.0 2045997.3  1.0  1.0  5  0        10
[06]  G30  1  7  -3712.1 2046005.4  0.0  0.0  1  0         0
$GNGGA,000000.000,,,,,0,00,,,M,,,,0000*2B
$GNRMC,000000.000,A,,,,,,,000000,,*26
$GPGSA,A,1,,,,,,,,,,,,,,,*1E
$BDGSA,A,1,,,,,,,,,,,,,,,*0F
$GPGSV,2,1,06,04,00,000,34,07,00,000,44,08,00,000,43,09,00,000,29*75
$GPGSV,2,2,06,16,00,000,38,27,00,000,37*72
$LOGTIM,0,0.000000,0.000000,0.000000,0.000000,0.000*0A
EndT:        0
---00000035--- Acq_st=3 2019-5-25 03:35:50 
[00]  G04  f 34    616.4 2045999.2  1.0  1.0  5  0 531367564
[01]  G07  f 44  -2677.0 2046003.5  1.0  1.0  5  0 531367570
[02]  G08  f 43    152.7 2045999.8  1.0  1.0  5  0 531367574
[03]  G09  f 29   1530.0 2045998.0  0.9  1.1  5  0 531367565
[04]  G16  f 37   1550.5 2045998.0  1.0  1.0  5  0 531367566
[05]  G27  f 38   2078.9 2045997.2  1.0  1.0  5  0 531367570
[06]  G30  1 30  -3662.9 2046005.2  0.1  0.0  1  0         5
$GNGGA,000000.000,,,,,0,00,,,M,,,,0000*2B
$GNRMC,000000.000,A,,,,,,,000000,,*26
$GPGSA,A,1,,,,,,,,,,,,,,,*1E
$BDGSA,A,1,,,,,,,,,,,,,,,*0F
$GPGSV,2,1,06,04,00,000,34,07,00,000,44,08,00,000,43,09,00,000,29*75
$GPGSV,2,2,06,16,00,000,37,27,00,000,38*72
$LOGTIM,0,0.000000,0.000000,0.000000,0.000000,0.000*0A
EndT:        0
---00000036--- Acq_st=3 2019-5-25 03:35:51 
[00]  G04  f 34    613.7 2045999.2  1.0  0.9  5  0 531368564
[01]  G07  f 44  -2679.0 2046003.5  1.0  1.0  5  0 531368570
[02]  G08  f 42    150.4 2045999.8  1.0  1.0  5  0 531368574
[03]  G09  f 29   1527.7 2045998.0  0.9  0.8  5  0 531368565
[04]  G16  f 37   1548.8 2045998.0  1.0  1.0  5  0 531368566
[05]  G27  f 38   2076.9 2045997.2  1.0  1.0  5  0 531368570
[06]  G30  7 36  -3664.3 2046004.8  0.8  1.0  5  0         5
$GNGGA,000000.000,,,,,0,00,,,M,,,,0000*2B
$GNRMC,000000.000,A,,,,,,,000000,,*26
$GPGSA,A,1,,,,,,,,,,,,,,,*1E
$BDGSA,A,1,,,,,,,,,,,,,,,*0F
$GPGSV,2,1,07,04,00,000,34,07,00,000,44,08,00,000,42,09,00,000,29*75
$GPGSV,2,2,07,16,00,000,37,27,00,000,38,30,00,000,36*45
$LOGTIM,0,0.000000,0.000000,0.000000,0.000000,0.000*0A
EndT:        0
---00000037--- Acq_st=3 2019-5-25 03:35:52 
[00]  G04  f 35    612.8 2045999.2  1.0  0.9  5  0 531369564
[01]  G07  f 44  -2681.5 2046003.5  1.0  1.0  5  0 531369570
[02]  G08  f 42    148.6 2045999.8  1.0  1.0  5  0 531369574
[03]  G09  f 29   1525.1 2045998.0  0.9  0.8  5  0 531369565
[04]  G16  f 37   1546.5 2045998.0  1.0  1.0  5  0 531369566
[05]  G27  f 39   2074.1 2045997.2  1.0  1.0  5  0 531369570
[06]  G30  7 40  -3667.0 2046004.8  1.0  1.0  5  0         2
$GNGGA,000000.000,,,,,0,00,,,M,,,,0000*2B
$GNRMC,000000.000,A,,,,,,,000000,,*26
$GPGSA,A,1,,,,,,,,,,,,,,,*1E
$BDGSA,A,1,,,,,,,,,,,,,,,*0F
$GPGSV,2,1,07,04,00,000,35,07,00,000,44,08,00,000,42,09,00,000,29*74
$GPGSV,2,2,07,16,00,000,37,27,00,000,39,30,00,000,40*45
$LOGTIM,0,0.000000,0.000000,0.000000,0.000000,0.000*0A
EndT:        0
---00000038--- Acq_st=3 2019-5-25 03:35:53 
[00]  G04  f 34    615.8 2045999.2  1.0  0.9  5  0 531370564
[01]  G07  f 44  -2678.2 2046003.5  1.0  1.0  5  0 531370570
[02]  G08  f 42    151.9 2045999.8  1.0  1.0  5  0 531370574
[03]  G09  f 30   1528.6 2045998.1  0.9  0.9  5  0 531370565
[04]  G16  f 37   1549.5 2045998.0  1.0  1.1  5  0 531370566
[05]  G27  f 39   2077.5 2045997.3  1.0  1.0  5  0 531370570
[06]  G30  7 40  -3663.7 2046004.8  1.0  1.0  5  0         2
$GNGGA,000000.000,,,,,0,00,,,M,,,,0000*2B
$GNRMC,000000.000,A,,,,,,,000000,,*26
$GPGSA,A,1,,,,,,,,,,,,,,,*1E
$BDGSA,A,1,,,,,,,,,,,,,,,*0F
$GPGSV,2,1,07,04,00,000,34,07,00,000,44,08,00,000,42,09,00,000,30*7D
$GPGSV,2,2,07,16,00,000,37,27,00,000,39,30,00,000,40*45
$LOGTIM,0,0.000000,0.000000,0.000000,0.000000,0.000*0A
EndT:        0
---00000039--- Acq_st=3 2019-5-25 03:35:54 
[00]  G04  f 34    611.3 2045999.2  1.0  1.0  5 3f 531371564
[01]  G07  f 44  -2682.4 2046003.5  1.0  1.0  5  0 531371570
[02]  G08  f 42    147.9 2045999.8  1.0  1.0  5  0 531371574
[03]  G09  f 30   1523.7 2045998.0  1.0  0.8  5  0 531371565
[04]  G16  f 37   1545.0 2045998.0  1.0  1.0  5  0 531371566
[05]  G27  f 39   2073.1 2045997.3  1.0  1.0  5  0 531371570
[06]  G30  7 40  -3668.7 2046004.8  1.0  1.0  5  0         2
$GNGGA,000000.000,,,,,0,00,,,M,,,,0000*2B
$GNRMC,000000.000,A,,,,,,,000000,,*26
$GPGSA,A,1,,,,,,,,,,,,,,,*1E
$BDGSA,A,1,,,,,,,,,,,,,,,*0F
$GPGSV,2,1,07,04,00,000,34,07,00,000,44,08,00,000,42,09,00,000,30*7D
$GPGSV,2,2,07,16,00,000,37,27,00,000,39,30,00,000,40*45
$LOGTIM,0,0.000000,0.000000,0.000000,0.000000,0.000*0A
EndT:        0
---00000040--- Acq_st=3 2019-5-25 03:35:55 
[00]  G04  f 35    610.3 2045999.2  1.0  0.9  5 3f 531372564
[01]  G07  f 44  -2683.5 2046003.5  1.0  1.0  5  0 531372570
[02]  G08  f 42    146.4 2045999.8  1.0  1.0  5  0 531372574
[03]  G09  f 29   1523.0 2045998.0  0.9  0.9  5  0 531372565
[04]  G16  f 37   1543.9 2045998.1  1.0  1.0  5  0 531372566
[05]  G27  f 39   2072.1 2045997.3  1.0  1.0  5  0 531372570
[06]  G30  f 40  -3669.5 2046004.7  1.0  1.0  5  0         2
$GNGGA,000000.000,,,,,0,00,,,M,,,,0000*2B
$GNRMC,000000.000,A,,,,,,,000000,,*26
$GPGSA,A,1,,,,,,,,,,,,,,,*1E
$BDGSA,A,1,,,,,,,,,,,,,,,*0F
$GPGSV,2,1,07,04,00,000,35,07,00,000,44,08,00,000,42,09,00,000,29*74
$GPGSV,2,2,07,16,00,000,37,27,00,000,39,30,00,000,40*45
$LOGTIM,0,0.000000,0.000000,0.000000,0.000000,0.000*0A
EndT:        0
---00000041--- Acq_st=3 2019-5-25 03:35:56 
[00]  G04  f 34    609.1 2045999.3  1.0  0.9  5 3f 531373564
[01]  G07  f 44  -2685.3 2046003.5  1.0  1.0  5  0 531373570
[02]  G08  f 42    144.0 2045999.8  1.0  1.0  5  0 531373574
[03]  G09  f 30   1519.8 2045998.0  1.0  1.0  5  0 531373565
[04]  G16  f 37   1540.9 2045998.1  1.0  1.0  5  0 531373566
[05]  G27  f 39   2069.2 2045997.3  1.0  1.0  5  0 531373570
[06]  G30  f 39  -3672.9 2046004.8  1.0  1.0  5  0 531373562
$GNGGA,000000.000,,,,,0,00,,,M,,,,0000*2B
$GNRMC,000000.000,A,,,,,,,000000,,*26
$GPGSA,A,1,,,,,,,,,,,,,,,*1E
$BDGSA,A,1,,,,,,,,,,,,,,,*0F
$GPGSV,2,1,07,04,00,000,34,07,00,000,44,08,00,000,42,09,00,000,30*7D
$GPGSV,2,2,07,16,00,000,37,27,00,000,39,30,00,000,39*4B
$LOGTIM,0,0.000000,0.000000,0.000000,0.000000,0.000*0A
EndT:        0
---00000042--- Acq_st=3 2019-5-25 03:35:57 
[00]  G04  f 35    605.0 2045999.2  1.0  1.0  5 3f 531374564
[01]  G07  f 44  -2688.9 2046003.5  1.0  1.0  5  0 531374570
[02]  G08  f 42    140.8 2045999.9  1.0  1.0  5  0 531374574
[03]  G09  f 29   1516.8 2045998.1  0.9  0.9  5  0 531374565
[04]  G16  f 37   1536.8 2045998.0  1.0  1.0  5  0 531374566
[05]  G27  f 39   2065.4 2045997.3  1.0  1.0  5  0 531374570
[06]  G30  f 40  -3675.8 2046004.7  1.0  1.0  5  0 531374562
$GNGGA,000000.000,,,,,0,00,,,M,,,,0000*2B
$GNRMC,000000.000,A,,,,,,,000000,,*26
$GPGSA,A,1,,,,,,,,,,,,,,,*1E
$BDGSA,A,1,,,,,,,,,,,,,,,*0F
$GPGSV,2,1,07,04,00,000,35,07,00,000,44,08,00,000,42,09,00,000,29*74
$GPGSV,2,2,07,16,00,000,37,27,00,000,39,30,00,000,40*45
$LOGTIM,0,0.000000,0.000000,0.000000,0.000000,0.000*0A
EndT:        0
---00000043--- Acq_st=3 2019-5-25 03:35:58 
[00]  G04  f 35    611.8 2045999.2  1.0  1.0  5 3f 531375564
[01]  G07  f 43  -2683.0 2046003.5  1.0  1.0  5  0 531375570
[02]  G08  f 41    146.4 2045999.8  1.0  1.0  5  0 531375574
[03]  G09  f 29   1524.1 2045998.0  0.9  0.9  5  0 531375565
[04]  G16  f 37   1542.6 2045998.1  1.0  1.0  5  0 531375566
[05]  G27  f 39   2070.8 2045997.3  1.0  1.0  5  0 531375570
[06]  G30  f 40  -3670.2 2046004.8  1.0  1.0  5  0 531375562
$GNGGA,000000.000,,,,,0,00,,,M,,,,0000*2B
$GNRMC,000000.000,A,,,,,,,000000,,*26
$GPGSA,A,1,,,,,,,,,,,,,,,*1E
$BDGSA,A,1,,,,,,,,,,,,,,,*0F
$GPGSV,2,1,07,04,00,000,35,07,00,000,43,08,00,000,41,09,00,000,29*70
$GPGSV,2,2,07,16,00,000,37,27,00,000,39,30,00,000,40*45
$LOGTIM,0,0.000000,0.000000,0.000000,0.000000,0.000*0A
EndT:        0
---00000044--- Acq_st=3 2019-5-25 03:35:59 
[00]  G04  f 35    615.8 2045999.2  1.0  0.9  5 3f 531376564
[01]  G07  f 44  -2678.0 2046003.5  1.0  1.0  5  0 531376570
[02]  G08  f 42    152.1 2045999.8  1.0  1.0  5  0 531376574
[03]  G09  f 29   1527.8 2045998.1  0.9  1.0  5  0 531376565
[04]  G16  f 38   1547.6 2045998.0  1.0  0.9  5  0 531376566
[05]  G27  f 39   2076.3 2045997.3  1.0  1.0  5  0 531376570
[06]  G30  f 40  -3665.7 2046004.8  1.0  1.0  5  0 531376562
$GNGGA,000000.000,,,,,0,00,,,M,,,,0000*2B
$GNRMC,000000.000,A,,,,,,,000000,,*26
$GPGSA,A,1,,,,,,,,,,,,,,,*1E
$BDGSA,A,1,,,,,,,,,,,,,,,*0F
$GPGSV,2,1,07,04,00,000,35,07,00,000,44,08,00,000,42,09,00,000,29*74
$GPGSV,2,2,07,16,00,000,38,27,00,000,39,30,00,000,40*4A
$LOGTIM,0,0.000000,0.000000,0.000000,0.000000,0.000*0A
EndT:        0
---00000045--- Acq_st=3 2019-5-25 03:36:0 
[00]  G04  f 35    620.4 2045999.2  1.0  1.0  5 3f 531377564
[01]  G07  f 43  -2673.7 2046003.5  1.0  1.0  5  0 531377570
[02]  G08  f 42    156.1 2045999.8  1.0  1.0  5  0 531377574
[03]  G09  f 29   1531.8 2045998.1  0.9  0.9  5  0 531377565
[04]  G16  f 38   1551.0 2045998.0  1.0  1.0  5  0 531377566
[05]  G27  f 39   2080.0 2045997.3  1.0  1.1  5  0 531377570
[06]  G30  f 40  -3662.0 2046004.7  1.0  1.0  5  0 531377562
lsq: nits= 4
$GNGGA,033600.642,3112.7134,N,12136.4364,E,1,04,3.1,47.9,M,,,,0000*29
$GNRMC,033600.642,A,3112.7134,N,12136.4364,E,0.22,0.00,250519,,*13
$GPGSA,A,3,07,08,09,16,,,,,,,,,4.7,3.1,3.5*34
$BDGSA,A,3,,,,,,,,,,,,,4.7,3.1,3.5*24
$GPGSV,2,1,07,04,00,000,35,07,00,000,43,08,00,000,42,09,00,000,29*73
$GPGSV,2,2,07,16,00,000,38,27,00,000,39,30,00,000,40*4A
$LOGTIM,1,6705347.005084,0.000000,0.000000,0.000000,-59.566*12
EndT:        0
---00000046--- Acq_st=3 2019-5-25 03:36:1 
[00]  G04  f 36    616.0 2045999.2  1.0  1.0  5 3f 531378564
[01]  G07  f 44  -2678.0 2046003.5  1.0  1.0  5  0 531378570
[02]  G08  f 42    151.8 2045999.8  1.0  1.0  5  0 531378574
[03]  G09  f 29   1528.1 2045997.9  0.9  0.8  5  0 531378565
[04]  G16  f 37   1546.5 2045997.9  1.0  1.0  5  0 531378566
[05]  G27  f 40   2075.8 2045997.3  1.0  1.0  5  0 531378570
[06]  G30  f 40  -3665.7 2046004.8  1.0  1.0  5  0 531378562
lsq: nits= 4
$GNGGA,033602.000,3112.7123,N,12136.4363,E,1,04,3.1,47.6,M,,,,0000*25
$GNRMC,033602.000,A,3112.7123,N,12136.4363,E,0.41,0.00,250519,,*15
$GPGSA,A,3,07,08,09,16,,,,,,,,,4.7,3.1,3.5*34
$BDGSA,A,3,,,,,,,,,,,,,4.7,3.1,3.5*24
$GPGSV,2,1,07,04,00,000,36,07,00,000,44,08,00,000,42,09,00,000,29*77
$GPGSV,2,2,07,16,00,000,37,27,00,000,40,30,00,000,40*4B
$LOGTIM,1,-82.750559,0.000000,0.000000,0.000000,-60.984*09
EndT:        0
---00000047--- Acq_st=3 2019-5-25 03:36:2 
[00]  G04  f 35    609.0 2045999.2  1.0  0.9  5 3f 531379922
[01]  G07  f 44  -2685.5 2046003.5  1.0  1.0  5  0 531379928
[02]  G08  f 42    143.7 2045999.8  1.0  1.0  5  0 531379931
[03]  G09  f 30   1520.7 2045998.0  0.9  0.9  5  0 531379922
[04]  G16  f 37   1539.3 2045998.0  1.0  1.0  5  0 531379924
[05]  G27  f 39   2067.8 2045997.3  1.0  1.0  5  0 531379928
[06]  G30  f 40  -3673.9 2046004.8  1.0  1.0  5  0 531379919
lsq: nits= 4
$GNGGA,033603.000,3112.7122,N,12136.4362,E,1,04,3.1,45.9,M,,,,0000*29
$GNRMC,033603.000,A,3112.7122,N,12136.4362,E,0.10,0.00,250519,,*10
$GPGSA,A,3,07,08,09,16,,,,,,,,,4.7,3.1,3.5*34
$BDGSA,A,3,,,,,,,,,,,,,4.7,3.1,3.5*24
$GPGSV,2,1,07,04,00,000,35,07,48,311,44,08,73,326,42,09,23,250,30*76
$GPGSV,2,2,07,16,32,074,37,27,00,000,39,30,00,000,40*47
$LOGTIM,1,-145.370996,0.000000,0.000000,0.000000,-61.986*39
EndT:        0
---00000048--- Acq_st=3 2019-5-25 03:36:3 
[00]  G04  f 36    604.4 2045999.2  1.0  1.0  5 3f 531380922
[01]  G07  f 45  -2689.8 2046003.5  1.0  1.0  5  0 531380928
[02]  G08  f 42    139.8 2045999.8  1.0  1.0  5  0 531380931
[03]  G09  f 30   1515.9 2045998.0  0.9  0.9  5  0 531380922
[04]  G16  f 37   1534.9 2045998.0  1.0  1.0  5  0 531380924
[05]  G27  f 38   2064.5 2045997.3  1.0  1.0  5  0 531380928
[06]  G30  f 40  -3678.4 2046004.8  1.0  1.0  5  0 531380919
lsq: nits= 4
$GNGGA,033604.000,3112.7121,N,12136.4358,E,1,04,3.1,44.9,M,,,,0000*25
$GNRMC,033604.000,A,3112.7121,N,12136.4358,E,0.43,0.00,250519,,*1B
$GPGSA,A,3,07,08,09,16,,,,,,,,,4.7,3.1,3.5*34
$BDGSA,A,3,,,,,,,,,,,,,4.7,3.1,3.5*24
$GPGSV,2,1,07,04,00,000,36,07,48,311,45,08,73,326,42,09,23,250,30*74
$GPGSV,2,2,07,16,32,074,37,27,00,000,38,30,00,000,40*46
$LOGTIM,1,-208.234477,0.000000,0.000000,0.000000,-62.572*34
EndT:        0
---00000049--- Acq_st=3 2019-5-25 03:36:4 
[00]  G04  f 35    602.5 2045999.2  1.0  1.0  5 3f 531381922
[01]  G07  f 44  -2691.8 2046003.5  1.0  1.0  5  0 531381928
[02]  G08  f 42    138.0 2045999.8  1.0  1.0  5  0 531381931
[03]  G09  f 28   1512.5 2045998.0  0.9  1.0  5  0 531381922
[04]  G16  f 37   1532.0 2045998.0  1.0  0.9  5  0 531381924
[05]  G27  f 39   2061.3 2045997.3  1.0  1.0  5  0 531381928
[06]  G30  f 40  -3680.8 2046004.8  1.0  1.0  5  0 531381919
lsq: nits= 4
$GNGGA,033605.000,3112.7124,N,12136.4353,E,1,04,3.1,44.2,M,,,,0000*21
$GNRMC,033605.000,A,3112.7124,N,12136.4353,E,0.56,0.00,250519,,*10
$GPGSA,A,3,07,08,09,16,,,,,,,,,4.7,3.1,3.5*34
$BDGSA,A,3,,,,,,,,,,,,,4.7,3.1,3.5*24
$GPGSV,2,1,07,04,00,000,35,07,48,311,44,08,73,326,42,09,23,250,28*7F
$GPGSV,2,2,07,16,32,074,37,27,00,000,39,30,00,000,40*47
$LOGTIM,1,-271.363376,0.000000,0.000000,0.000000,-62.860*31
EndT:        0
---00000050--- Acq_st=3 2019-5-25 03:36:5 
[00]  G04  f 35    608.3 2045999.3  1.0  1.0  5 3f 531382922
[01]  G07  f 44  -2686.4 2046003.5  1.0  1.0  5  0 531382928
[02]  G08  f 41    142.9 2045999.8  1.0  1.0  5  0 531382931
[03]  G09  f 29   1517.4 2045998.1  0.9  0.9  5  0 531382922
[04]  G16  f 38   1537.3 2045998.0  1.0  1.0  5  0 531382924
[05]  G27  f 39   2066.7 2045997.3  1.0  1.0  5  0 531382928
[06]  G30  f 40  -3675.8 2046004.8  1.0  0.9  5  0 531382919
lsq: nits= 4
$GNGGA,033606.000,3112.7119,N,12136.4347,E,1,04,3.1,44.7,M,,,,0000*2C
$GNRMC,033606.000,A,3112.7119,N,12136.4347,E,0.13,0.00,250519,,*19
$GPGSA,A,3,07,08,09,16,,,,,,,,,4.7,3.1,3.5*34
$BDGSA,A,3,,,,,,,,,,,,,4.7,3.1,3.5*24
$GPGSV,2,1,07,04,00,000,35,07,48,311,44,08,73,326,41,09,23,250,29*7D
$GPGSV,2,2,07,16,32,074,38,27,00,000,39,30,00,000,40*48
$LOGTIM,1,-333.572514,0.000000,0.000000,0.000000,-62.395*33
EndT:        0
ch16 satid=43,max_freq = 1000,max_mean = 7992,max_phase = 3105,max_value = 112102,acq ok1!
acq ok1 timeH = 0,timeL = 950420894,freq_stage = 3
---00000051--- Acq_st=3 2019-5-25 03:36:6 
[00]  G04  f 35    609.9 2045999.2  1.0  1.0  5 3f 531383922
[01]  G07  f 44  -2684.0 2046003.5  1.0  1.0  5  0 531383928
[02]  G08  f 41    145.5 2045999.8  1.0  1.0  5  0 531383931
[03]  G09  f 29   1520.2 2045998.0  0.9  0.9  5  0 531383922
[04]  G16  f 38   1538.4 2045998.0  1.0  1.0  5  0 531383924
[05]  G27  f 39   2068.7 2045997.3  1.0  1.0  5  0 531383928
[06]  G30  f 41  -3673.9 2046004.8  1.0  1.0  5  0 531383919
[16]  B07  1  7   -970.4 4092002.3 -0.0  0.0  1  0         0
lsq: nits= 4
$GNGGA,033607.000,3112.7112,N,12136.4344,E,1,04,3.1,45.8,M,,,,0000*2B
$GNRMC,033607.000,A,3112.7112,N,12136.4344,E,0.06,0.00,250519,,*14
$GPGSA,A,3,07,08,09,16,,,,,,,,,4.7,3.1,3.5*34
$BDGSA,A,3,,,,,,,,,,,,,4.7,3.1,3.5*24
$GPGSV,2,1,07,04,00,000,35,07,48,311,44,08,73,326,41,09,23,250,29*7D
$GPGSV,2,2,07,16,32,074,38,27,00,000,39,30,00,000,41*49
$LOGTIM,1,-395.637529,0.000000,0.000000,0.000000,-62.336*3A
EndT:        0
---00000052--- Acq_st=3 2019-5-25 03:36:7 
[00]  G04  f 35    612.2 2045999.2  1.0  1.0  5 3f 531384922
[01]  G07  f 43  -2682.7 2046003.5  1.0  1.0  5  0 531384928
[02]  G08  f 42    146.9 2045999.9  1.0  1.0  5  0 531384931
[03]  G09  f 29   1523.6 2045998.0  0.9  0.8  5  0 531384922
[04]  G16  f 37   1540.3 2045998.0  1.0  1.0  5  0 531384924
[05]  G27  f 38   2070.1 2045997.3  1.0  1.0  5  0 531384928
[06]  G30  f 41  -3672.6 2046004.8  1.0  1.0  5  0 531384919
[16]  B07  1  7  -1062.1 4092001.9  0.1  0.0  1  0       589
lsq: nits= 4
$GNGGA,033608.000,3112.7099,N,12136.4341,E,1,04,3.1,48.1,M,,,,0000*27
$GNRMC,033608.000,A,3112.7099,N,12136.4341,E,0.39,0.00,250519,,*10
$GPGSA,A,3,07,08,09,16,,,,,,,,,4.7,3.1,3.5*34
$BDGSA,A,3,,,,,,,,,,,,,4.7,3.1,3.5*24
$GPGSV,2,1,07,04,00,000,35,07,48,311,43,08,73,326,42,09,23,250,29*79
$GPGSV,2,2,07,16,32,074,37,27,00,000,38,30,00,000,41*47
$LOGTIM,1,-456.641883,0.000000,0.000000,0.000000,-61.848*3F
EndT:        0
---00000053--- Acq_st=3 2019-5-25 03:36:8 
[00]  G04  f 36    616.3 2045999.2  1.0  1.0  5 3f 531385922
[01]  G07  f 44  -2678.5 2046003.5  1.0  1.0  5  0 531385928
[02]  G08  f 41    151.1 2045999.8  1.0  1.0  5  0 531385931
[03]  G09  f 29   1526.8 2045998.1  0.9  0.8  5  0 531385922
[04]  G16  f 38   1544.0 2045998.0  1.0  1.0  5  0 531385924
[05]  G27  f 38   2074.0 2045997.3  1.0  1.0  5  0 531385928
[06]  G30  f 41  -3668.7 2046004.8  1.0  1.0  5  0 531385919
[16]  B07  1  7   -999.1 4092002.3  0.0  0.0  1  0      1589
lsq: nits= 4
$GNGGA,033609.000,3112.7091,N,12136.4338,E,1,04,3.1,49.6,M,,,,0000*26
$GNRMC,033609.000,A,3112.7091,N,12136.4338,E,0.51,0.00,250519,,*19
$GPGSA,A,3,07,08,09,16,,,,,,,,,4.7,3.1,3.5*34
$BDGSA,A,3,,,,,,,,,,,,,4.7,3.1,3.5*24
$GPGSV,2,1,07,04,00,000,36,07,48,311,44,08,73,326,41,09,23,250,29*7E
$GPGSV,2,2,07,16,32,074,38,27,00,000,38,30,00,000,41*48
$LOGTIM,1,-517.386127,0.000000,0.000000,0.000000,-61.491*3A
EndT:        0
---00000054--- Acq_st=3 2019-5-25 03:36:9 
[00]  G04  f 35    615.4 2045999.2  1.0  1.0  5 3f 531386922
[01]  G07  f 44  -2678.5 2046003.5  1.0  1.0  5  0 531386928
[02]  G08  f 42    150.5 2045999.8  1.0  1.0  5  0 531386931
[03]  G09  f 29   1525.3 2045997.9  1.0  0.9  5  0 531386922
[04]  G16  f 38   1543.4 2045998.0  1.0  1.0  5  0 531386924
[05]  G27  f 38   2073.1 2045997.3  1.0  1.0  5  0 531386928
[06]  G30  f 41  -3668.7 2046004.8  1.0  0.9  5  0 531386919
[16]  B07  1  7  -1029.4 4092001.5  0.1  0.0  1  0      2589
lsq: nits= 4
$GNGGA,033610.000,3112.7083,N,12136.4335,E,1,04,3.1,50.7,M,,,,0000*29
$GNRMC,033610.000,A,3112.7083,N,12136.4335,E,0.52,0.00,250519,,*1C
$GPGSA,A,3,07,08,09,16,,,,,,,,,4.7,3.1,3.5*34
$BDGSA,A,3,,,,,,,,,,,,,4.7,3.1,3.5*24
$GPGSV,2,1,07,04,00,000,35,07,48,311,44,08,73,326,42,09,23,250,29*7E
$GPGSV,2,2,07,16,32,074,38,27,00,000,38,30,00,000,41*48
$LOGTIM,1,-578.283412,0.000000,0.000000,0.000000,-61.468*32
EndT:        0
---00000055--- Acq_st=3 2019-5-25 03:36:10 
[00]  G04  f 35    616.6 2045999.2  1.0  1.0  5 3f 531387922
[01]  G07  f 44  -2677.7 2046003.5  1.0  1.0  5  0 531387928
[02]  G08  f 42    151.8 2045999.8  1.0  1.0  5  0 531387931
[03]  G09  f 30   1526.4 2045998.0  0.9  0.9  5  0 531387922
[04]  G16  f 38   1544.5 2045998.0  1.0  1.0  5  0 531387924
[05]  G27  f 38   2074.7 2045997.3  1.0  1.0  5  0 531387928
[06]  G30  f 40  -3668.4 2046004.8  1.0  1.0  5  0 531387919
lsq: nits= 4
$GNGGA,033611.000,3112.7080,N,12136.4334,E,1,04,3.1,52.5,M,,,,0000*2A
$GNRMC,033611.000,A,3112.7080,N,12136.4334,E,0.70,0.00,250519,,*1F
$GPGSA,A,3,07,08,09,16,,,,,,,,,4.7,3.1,3.5*34
$BDGSA,A,3,,,,,,,,,,,,,4.7,3.1,3.5*24
$GPGSV,2,1,07,04,00,000,35,07,48,311,44,08,73,326,42,09,23,250,30*76
$GPGSV,2,2,07,16,32,074,38,27,00,000,38,30,00,000,41*48
$LOGTIM,1,-638.094381,0.000000,0.000000,0.000000,-60.917*38
EndT:        0
---00000056--- Acq_st=3 2019-5-25 03:36:11 
[00]  G04  f 35    625.3 2045999.2  1.0  1.0  5 3f 531388922
[01]  G07  f 45  -2669.9 2046003.4  1.0  1.0  5  0 531388928
[02]  G08  f 42    159.9 2045999.8  1.0  1.0  5  0 531388931
[03]  G09  f 30   1533.8 2045997.9  0.9  0.9  5  0 531388922
[04]  G16  f 38   1552.1 2045998.0  1.0  1.0  5  0 531388924
[05]  G27  f 38   2082.2 2045997.3  1.0  1.0  5  0 531388928
[06]  G30  f 41  -3660.4 2046004.7  1.0  1.0  5  0 531388919
lsq: nits= 4
$GNGGA,033612.000,3112.7067,N,12136.4336,E,1,04,3.1,55.1,M,,,,0000*21
$GNRMC,033612.000,A,3112.7067,N,12136.4336,E,0.99,0.00,250519,,*10
$GPGSA,A,3,07,08,09,16,,,,,,,,,4.7,3.1,3.5*34
$BDGSA,A,3,,,,,,,,,,,,,4.7,3.1,3.5*24
$GPGSV,2,1,07,04,00,000,35,07,48,311,45,08,73,326,42,09,23,250,30*77
$GPGSV,2,2,07,16,32,074,38,27,00,000,38,30,00,000,41*48
$LOGTIM,1,-697.053063,0.000000,0.000000,0.000000,-60.394*38
EndT:        0
---00000057--- Acq_st=3 2019-5-25 03:36:12 
[00]  G04  f 35    619.0 2045999.2  1.0  1.0  5 3f 531389922
[01]  G07  f 44  -2676.4 2046003.5  1.0  1.0  5  0 531389928
[02]  G08  f 42    153.8 2045999.8  1.0  1.0  5  0 531389931
[03]  G09  f 31   1528.9 2045998.0  0.9  0.9  5  0 531389922
[04]  G16  f 38   1545.0 2045998.0  1.0  1.0  5  0 531389924
[05]  G27  f 39   2075.5 2045997.3  1.0  1.0  5  0 531389928
[06]  G30  f 41  -3666.9 2046004.8  1.0  1.0  5  0 531389919
ch16 satid=46,max_freq = 1500,max_mean = 8570,max_phase = 2900,max_value = 74256,acq ok1!
acq ok1 timeH = 0,timeL = 1067846986,freq_stage = 2
lsq: nits= 4
$GNGGA,033613.000,3112.7057,N,12136.4337,E,1,04,3.1,57.9,M,,,,0000*28
$GNRMC,033613.000,A,3112.7057,N,12136.4337,E,0.42,0.00,250519,,*15
$GPGSA,A,3,07,08,09,16,,,,,,,,,4.7,3.1,3.5*34
$BDGSA,A,3,,,,,,,,,,,,,4.7,3.1,3.5*24
$GPGSV,2,1,07,04,00,000,35,07,48,311,44,08,73,326,42,09,23,250,31*77
$GPGSV,2,2,07,16,32,074,38,27,00,000,39,30,00,000,41*49
$LOGTIM,1,-756.834407,0.000000,0.000000,0.000000,-60.991*34
EndT:        0
---00000058--- Acq_st=3 2019-5-25 03:36:13 
[00]  G04  f 35    617.9 2045999.2  1.0  1.0  5 3f 531390922
[01]  G07  f 44  -2677.3 2046003.5  1.0  1.0  5  0 531390928
[02]  G08  f 42    152.4 2045999.8  1.0  1.0  5  0 531390931
[03]  G09  f 31   1527.6 2045998.0  0.9  0.9  5  0 531390922
[04]  G16  f 38   1542.9 2045998.0  1.0  1.0  5  0 531390924
[05]  G27  f 38   2074.1 2045997.3  1.0  1.0  5  0 531390928
[06]  G30  f 40  -3669.5 2046004.8  1.0  1.0  5  0 531390919
[16]  B10  1  7  -1488.2 4092003.2 -0.1  0.0  1  0       263
lsq: nits= 4
$GNGGA,033614.000,3112.7052,N,12136.4338,E,1,04,3.1,60.9,M,,,,0000*21
$GNRMC,033614.000,A,3112.7052,N,12136.4338,E,0.42,0.00,250519,,*18
$GPGSA,A,3,07,08,09,16,,,,,,,,,4.7,3.1,3.5*34
$BDGSA,A,3,,,,,,,,,,,,,4.7,3.1,3.5*24
$GPGSV,2,1,07,04,00,000,35,07,48,311,44,08,73,326,42,09,23,250,31*77
$GPGSV,2,2,07,16,32,074,38,27,00,000,38,30,00,000,40*49
$LOGTIM,1,-816.300742,0.000000,0.000000,0.000000,-60.828*32
EndT:        0
---00000059--- Acq_st=3 2019-5-25 03:36:14 
[00]  G04  f 36    619.6 2045999.2  1.0  0.9  5 3f 531391922
[01]  G07  f 44  -2675.4 2046003.5  1.0  1.0  5  0 531391928
[02]  G08  f 42    154.6 2045999.8  1.0  1.0  5  0 531391931
[03]  G09  f 32   1528.8 2045998.0  1.0  0.9  5  0 531391922
[04]  G16  f 38   1545.6 2045998.0  1.0  1.0  5  0 531391924
[05]  G27  f 38   2076.2 2045997.4  1.0  1.0  5  0 531391928
[06]  G30  f 41  -3666.9 2046004.8  1.0  1.0  5  0 531391919
[16]  B10  1  7  -1485.4 4092003.2  0.2  0.0  1  0      1263
lsq: nits= 4
$GNGGA,033615.000,3112.7056,N,12136.4340,E,1,04,3.1,63.2,M,,,,0000*23
$GNRMC,033615.000,A,3112.7056,N,12136.4340,E,0.10,0.00,250519,,*15
$GPGSA,A,3,07,08,09,16,,,,,,,,,4.7,3.1,3.5*34
$BDGSA,A,3,,,,,,,,,,,,,4.7,3.1,3.5*24
$GPGSV,2,1,07,04,00,000,36,07,48,311,44,08,73,326,42,09,23,250,32*77
$GPGSV,2,2,07,16,32,074,38,27,00,000,38,30,00,000,41*48
$LOGTIM,1,-876.235413,0.000000,0.000000,0.000000,-61.034*30
EndT:        0
---00000060--- Acq_st=3 2019-5-25 03:36:15 
[00]  G04  f 36    614.1 2045999.2  1.0  1.0  5 3f 531392922
[01]  G07  f 44  -2681.4 2046003.5  1.0  1.0  5  0 531392928
[02]  G08  f 42    147.9 2045999.8  1.0  1.0  5  0 531392931
[03]  G09  f 31   1522.1 2045998.0  1.0  0.8  5  0 531392922
[04]  G16  f 38   1538.4 2045998.0  1.0  0.9  5  0 531392924
[05]  G27  f 37   2069.5 2045997.3  1.0  0.9  5  0 531392928
[06]  G30  f 42  -3673.5 2046004.7  1.0  1.0  5  0 531392919
[16]  B10  1  7  -1264.7 4092003.2  0.0  0.0  1  0      2263
lsq: nits= 4
$GNGGA,033616.000,3112.7055,N,12136.4340,E,1,04,3.1,65.7,M,,,,0000*20
$GNRMC,033616.000,A,3112.7055,N,12136.4340,E,0.29,0.00,250519,,*1F
$GPGSA,A,3,07,08,09,16,,,,,,,,,4.7,3.1,3.5*34
$BDGSA,A,3,,,,,,,,,,,,,4.7,3.1,3.5*24
$GPGSV,2,1,07,04,00,000,36,07,48,311,44,08,73,326,42,09,23,250,31*74
$GPGSV,2,2,07,16,32,074,38,27,00,000,37,30,00,000,42*44
$LOGTIM,1,-937.328066,0.000000,0.000000,0.000000,-61.634*39
EndT:        0
---00000061--- Acq_st=3 2019-5-25 03:36:16 
[00]  G04  f 36    610.0 2045999.2  1.0  1.0  5 3f 531393922
[01]  G07  f 44  -2684.8 2046003.5  1.0  1.0  5  0 531393928
[02]  G08  f 42    144.2 2045999.8  1.0  1.0  5  0 531393931
[03]  G09  f 30   1519.5 2045998.1  0.9  0.9  5  0 531393922
[04]  G16  f 37   1534.6 2045998.1  1.0  1.0  5  0 531393924
[05]  G27  f 37   2065.8 2045997.3  1.0  1.0  5  0 531393928
[06]  G30  f 42  -3677.7 2046004.8  1.0  1.0  5  0 531393919
ch17 satid=48,max_freq = -1500,max_mean = 8935,max_phase = 2980,max_value = 127560,acq ok1!
acq ok1 timeH = 0,timeL = 1160970762,freq_stage = 4
lsq: nits= 4
$GNGGA,033617.000,3112.7056,N,12136.4340,E,1,04,3.1,68.2,M,,,,0000*2A
$GNRMC,033617.000,A,3112.7056,N,12136.4340,E,0.52,0.00,250519,,*11
$GPGSA,A,3,07,08,09,16,,,,,,,,,4.7,3.1,3.5*34
$BDGSA,A,3,,,,,,,,,,,,,4.7,3.1,3.5*24
$GPGSV,2,1,07,04,00,000,36,07,48,311,44,08,73,326,42,09,23,250,30*75
$GPGSV,2,2,07,16,32,074,37,27,00,000,37,30,00,000,42*4B
$LOGTIM,1,-999.232127,0.000000,0.000000,0.000000,-62.204*37
EndT:        0
---00000062--- Acq_st=3 2019-5-25 03:36:17 
[00]  G04  f 36    608.2 2045999.2  1.0  1.0  5 3f 531394922
[01]  G07  f 44  -2687.9 2046003.5  1.0  1.0  5  0 531394928
[02]  G08  f 42    141.8 2045999.8  1.0  1.0  5  0 531394931
[03]  G09  f 30   1516.8 2045998.1  1.0  0.9  5  0 531394922
[04]  G16  f 38   1531.6 2045998.0  1.0  1.0  5  0 531394924
[05]  G27  f 37   2063.2 2045997.3  1.0  1.0  5  0 531394928
[06]  G30  f 42  -3679.9 2046004.8  1.0  1.0  5  0 531394919
[17]  B12  1  7   1845.9 4091995.4  0.0  0.0  1  0        45
lsq: nits= 4
$GNGGA,033618.000,3112.7061,N,12136.4340,E,1,04,3.1,70.1,M,,,,0000*2B
$GNRMC,033618.000,A,3112.7061,N,12136.4340,E,0.70,0.00,250519,,*1A
$GPGSA,A,3,07,08,09,16,,,,,,,,,4.7,3.1,3.5*34
$BDGSA,A,3,,,,,,,,,,,,,4.7,3.1,3.5*24
$GPGSV,2,1,07,04,00,000,36,07,48,311,44,08,73,326,42,09,23,250,30*75
$GPGSV,2,2,07,16,32,074,38,27,00,000,37,30,00,000,42*44
$LOGTIM,1,-1061.557852,0.000000,0.000000,0.000000,-62.583*0F
EndT:        0
---00000063--- Acq_st=3 2019-5-25 03:36:18 
[00]  G04  f 35    608.5 2045999.2  1.0  1.0  5 3f 531395922
[01]  G07  f 45  -2686.8 2046003.5  1.0  1.0  5  0 531395928
[02]  G08  f 42    142.4 2045999.8  1.0  1.0  5  0 531395931
[03]  G09  f 31   1516.8 2045997.9  0.9  0.9  5  0 531395922
[04]  G16  f 38   1532.3 2045998.1  1.0  1.0  5  0 531395924
[05]  G27  f 37   2063.4 2045997.3  1.0  1.0  5  0 531395928
[06]  G30  f 42  -3679.9 2046004.8  1.0  1.0  5  0 531395919
[17]  B12  7 24   1863.2 4091995.0  0.2  0.0 20  0      1045
lsq: nits= 4
$GNGGA,033619.000,3112.7068,N,12136.4342,E,1,05,2.7,70.9,M,,,,0000*2F
$GNRMC,033619.000,A,3112.7068,N,12136.4342,E,0.65,0.00,250519,,*14
$GPGSA,A,3,07,08,09,16,27,,,,,,,,4.3,2.7,3.3*34
$BDGSA,A,3,,,,,,,,,,,,,4.3,2.7,3.3*21
$GPGSV,2,1,07,04,00,000,35,07,48,311,45,08,73,326,42,09,23,250,31*76
$GPGSV,2,2,07,16,32,074,38,27,00,000,37,30,00,000,42*44
$BDGSV,1,1,01,12,00,000,24*5C
$LOGTIM,1,-1124.407069,0.000000,0.000000,0.000000,-62.731*00
EndT:        0
---00000064--- Acq_st=3 2019-5-25 03:36:19 
[00]  G04  f 35    608.0 2045999.2  1.0  1.0  5 3f 531396922
[01]  G07  f 45  -2687.2 2046003.5  1.0  1.0  5  0 531396928
[02]  G08  f 42    141.8 2045999.8  1.0  1.0  5  0 531396931
[03]  G09  f 31   1517.0 2045998.0  1.0  0.9  5  0 531396922
[04]  G16  f 37   1532.1 2045998.1  1.0  1.0  5  0 531396924
[05]  G27  f 36   2062.7 2045997.4  1.0  1.0  5  0 531396928
[06]  G30  f 41  -3680.7 2046004.8  1.0  1.0  5  0 531396919
[17]  B12  7 41   1863.1 4091995.0  0.7  1.0  5  0      2043
lsq: nits= 2
$GNGGA,033620.000,3112.7074,N,12136.4346,E,1,05,2.7,71.3,M,,,,0000*27
$GNRMC,033620.000,A,3112.7074,N,12136.4346,E,0.60,0.00,250519,,*12
$GPGSA,A,3,07,08,09,16,27,,,,,,,,4.3,2.7,3.3*34
$BDGSA,A,3,,,,,,,,,,,,,4.3,2.7,3.3*21
$GPGSV,2,1,07,04,00,000,35,07,48,311,45,08,73,326,42,09,23,250,31*76
$GPGSV,2,2,07,16,32,074,37,27,47,033,36,30,00,000,41*4A
$BDGSV,1,1,01,12,00,000,41*5F
$LOGTIM,1,-1187.535667,0.000000,0.000000,0.000000,-63.013*07
EndT:        0
---00000065--- Acq_st=3 2019-5-25 03:36:20 
[00]  G04  f 35    607.6 2045999.1  1.0  0.9  5 3f 531397922
[01]  G07  f 45  -2687.6 2046003.5  1.0  1.0  5  0 531397928
[02]  G08  f 42    141.6 2045999.8  1.0  1.0  5  0 531397931
[03]  G09  f 31   1516.0 2045998.1  1.0  0.9  5  0 531397922
[04]  G16  f 37   1530.8 2045998.0  1.0  1.0  5  0 531397924
[05]  G27  f 37   2062.1 2045997.3  1.0  1.0  5  0 531397928
[06]  G30  f 41  -3681.3 2046004.8  1.0  1.0  5  0 531397919
[17]  B12  7 41   1862.4 4091995.1  1.0  1.0  5  0      3043
lsq: nits= 2
$GNGGA,033621.000,3112.7079,N,12136.4350,E,1,05,2.7,71.4,M,,,,0000*2B
$GNRMC,033621.000,A,3112.7079,N,12136.4350,E,0.55,0.00,250519,,*1F
$GPGSA,A,3,07,08,09,16,27,,,,,,,,4.3,2.7,3.3*34
$BDGSA,A,3,,,,,,,,,,,,,4.3,2.7,3.3*21
$GPGSV,2,1,07,04,00,000,35,07,48,311,45,08,73,326,42,09,23,250,31*76
$GPGSV,2,2,07,16,32,074,37,27,47,033,37,30,00,000,41*4B
$BDGSV,1,1,01,12,00,000,41*5F
$LOGTIM,1,-1251.049238,0.000000,0.000000,0.000000,-63.180*04
EndT:        0
---00000066--- Acq_st=3 2019-5-25 03:36:21 
[00]  G04  f 35    606.9 2045999.1  1.0  1.0  5 3f 531398922
[01]  G07  f 45  -2688.1 2046003.5  1.0  1.0  5  0 531398928
[02]  G08  f 42    141.4 2045999.8  1.0  1.0  5  0 531398931
[03]  G09  f 30   1515.2 2045998.1  1.0  1.0  5  0 531398922
[04]  G16  f 37   1530.6 2045998.1  1.0  0.9  5  0 531398924
[05]  G27  f 37   2061.8 2045997.4  1.0  1.0  5  0 531398928
[06]  G30  f 41  -3681.5 2046004.8  1.0  1.0  5  0 531398919
[17]  B12 1f 41   1861.6 4091995.0  1.0  1.0  5  0      4043
lsq: nits= 2
$GNGGA,033622.000,3112.7084,N,12136.4355,E,1,05,2.7,72.1,M,,,,0000*29
$GNRMC,033622.000,A,3112.7084,N,12136.4355,E,0.42,0.00,250519,,*1D
$GPGSA,A,3,07,08,09,16,27,,,,,,,,4.3,2.7,3.3*34
$BDGSA,A,3,,,,,,,,,,,,,4.3,2.7,3.3*21
$GPGSV,2,1,07,04,00,000,35,07,48,311,45,08,73,327,42,09,23,250,30*76
$GPGSV,2,2,07,16,32,074,37,27,47,033,37,30,00,000,41*4B
$BDGSV,1,1,01,12,00,000,41*5F
$LOGTIM,1,-1314.237907,0.000000,0.000000,0.000000,-63.267*02
EndT:        0
---00000067--- Acq_st=3 2019-5-25 03:36:22 
[00]  G04  f 35    611.2 2045999.3  1.0  1.0  5 3f 531399922
[01]  G07  f 45  -2684.4 2046003.5  1.0  1.0  5  0 531399928
[02]  G08  f 42    144.9 2045999.8  1.0  1.0  5  0 531399931
[03]  G09  f 30   1519.5 2045998.2  1.0  0.9  5  0 531399922
[04]  G16  f 37   1533.8 2045998.0  1.0  1.0  5  0 531399924
[05]  G27  f 37   2064.9 2045997.4  1.0  1.0  5  0 531399928
[06]  G30  f 40  -3678.6 2046004.8  1.0  1.0  5  0 531399919
[17]  B12 1f 41   1865.1 4091995.1  1.0  1.0  5  0 531385923
lsq: nits= 2
$GNGGA,033623.000,3112.7089,N,12136.4361,E,1,05,2.7,72.7,M,,,,0000*24
$GNRMC,033623.000,A,3112.7089,N,12136.4361,E,0.20,0.00,250519,,*12
$GPGSA,A,3,07,08,09,16,27,,,,,,,,4.3,2.7,3.3*34
$BDGSA,A,3,,,,,,,,,,,,,4.3,2.7,3.3*21
$GPGSV,2,1,07,04,00,000,35,07,48,311,45,08,73,327,42,09,23,250,30*76
$GPGSV,2,2,07,16,32,074,37,27,47,033,37,30,00,000,40*4A
$BDGSV,1,1,01,12,00,000,41*5F
$LOGTIM,1,-1376.700489,0.000000,0.000000,0.000000,-62.829*0D
EndT:        0
---00000068--- Acq_st=3 2019-5-25 03:36:23 
[00]  G04  f 35    615.2 2045999.2  1.0  0.9  5 3f 531400922
[01]  G07  f 45  -2680.0 2046003.5  1.0  1.0  5  0 531400928
[02]  G08  f 43    149.0 2045999.8  1.0  1.0  5  0 531400931
[03]  G09  f 31   1523.1 2045998.1  1.0  0.8  5  0 531400922
[04]  G16  f 37   1537.7 2045998.0  1.0  1.0  5  0 531400924
[05]  G27  f 37   2068.9 2045997.3  1.0  1.0  5  0 531400928
[06]  G30  f 40  -3674.7 2046004.7  1.0  1.0  5  0 531400919
[17]  B12 1f 41   1868.8 4091995.1  1.0  1.0  5  0 531386923
lsq: nits= 2
$GNGGA,033624.000,3112.7096,N,12136.4367,E,1,05,2.7,72.4,M,,,,0000*28
$GNRMC,033624.000,A,3112.7096,N,12136.4367,E,0.29,0.00,250519,,*14
$GPGSA,A,3,07,08,09,16,27,,,,,,,,4.3,2.7,3.3*34
$BDGSA,A,3,,,,,,,,,,,,,4.3,2.7,3.3*21
$GPGSV,2,1,07,04,00,000,35,07,48,311,45,08,73,327,43,09,23,250,31*76
$GPGSV,2,2,07,16,32,074,37,27,47,033,37,30,00,000,40*4A
$BDGSV,1,1,01,12,00,000,41*5F
$LOGTIM,1,-1439.043654,0.000000,0.000000,0.000000,-62.575*07
EndT:        0
---00000069--- Acq_st=3 2019-5-25 03:36:24 
[00]  G04  f 35    615.3 2045999.2  1.0  1.0  5 3f 531401922
[01]  G07  f 45  -2680.7 2046003.5  1.0  1.0  5  0 531401928
[02]  G08  f 43    148.9 2045999.8  1.0  1.0  5  0 531401931
[03]  G09  f 32   1523.9 2045998.0  1.0  0.9  5  0 531401922
[04]  G16  f 36   1537.0 2045998.0  1.0  1.0  5  0 531401924
[05]  G27  f 36   2068.9 2045997.3  1.0  1.0  5  0 531401928
[06]  G30  f 40  -3674.7 2046004.7  1.0  1.0  5  0 531401919
[17]  B12 1f 41   1868.4 4091995.1  1.0  1.0  5  0 531387923
lsq: nits= 2
$GNGGA,033625.000,3112.7107,N,12136.4372,E,1,06,1.5,70.3,M,,,,0000*23
$GNRMC,033625.000,A,3112.7107,N,12136.4372,E,0.19,0.00,250519,,*1B
$GPGSA,A,3,07,08,09,16,27,30,,,,,,,2.4,1.5,1.9*3F
$BDGSA,A,3,,,,,,,,,,,,,2.4,1.5,1.9*29
$GPGSV,2,1,07,04,00,000,35,07,48,311,45,08,73,327,43,09,23,250,32*75
$GPGSV,2,2,07,16,32,074,36,27,47,033,36,30,00,000,40*4A
$BDGSV,1,1,01,12,00,000,41*5F
$LOGTIM,1,-1502.570696,0.000000,0.000000,0.000000,-62.734*02
EndT:        0
---00000070--- Acq_st=3 2019-5-25 03:36:25 
[00]  G04  f 35    615.1 2045999.2  1.0  1.0  5 3f 531402922
[01]  G07  f 45  -2680.8 2046003.5  1.0  1.0  5  0 531402928
[02]  G08  f 43    148.1 2045999.8  1.0  1.0  5  0 531402931
[03]  G09  f 32   1522.9 2045998.0  1.0  0.8  5  0 531402922
[04]  G16  f 36   1536.2 2045998.1  1.0  1.0  5  0 531402924
[05]  G27  f 36   2067.5 2045997.3  1.0  1.0  5  0 531402928
[06]  G30  f 40  -3675.6 2046004.8  1.0  1.0  5  0 531402919
[17]  B12 1f 41   1868.0 4091995.1  1.0  1.0  5  0 531388923
lsq: nits= 2
$GNGGA,033626.000,3112.7119,N,12136.4375,E,1,06,1.5,68.4,M,,,,0000*26
$GNRMC,033626.000,A,3112.7119,N,12136.4375,E,0.29,0.00,250519,,*13
$GPGSA,A,3,07,08,09,16,27,30,,,,,,,2.4,1.5,1.9*3F
$BDGSA,A,3,,,,,,,,,,,,,2.4,1.5,1.9*29
$GPGSV,2,1,07,04,00,000,35,07,48,311,45,08,73,327,43,09,23,250,31*76
$GPGSV,2,2,07,16,32,074,36,27,47,033,36,30,17,317,40*49
$BDGSV,1,1,01,12,00,000,41*5F
$LOGTIM,1,-1565.923147,0.000000,0.000000,0.000000,-62.792*0E
EndT:        0
---00000071--- Acq_st=3 2019-5-25 03:36:26 
[00]  G04  f 34    614.8 2045999.1  1.0  0.9  5 3f 531403922
[01]  G07  f 45  -2681.9 2046003.5  1.0  1.0  5  0 531403928
[02]  G08  f 43    147.9 2045999.8  1.0  1.0  5  0 531403931
[03]  G09  f 32   1522.4 2045998.0  1.0  0.8  5  0 531403922
[04]  G16  f 37   1535.9 2045998.0  1.0  0.9  5  0 531403924
[05]  G27  f 36   2067.5 2045997.3  1.0  1.0  5  0 531403928
[06]  G30  f 40  -3676.1 2046004.8  1.0  1.0  5  0 531403919
[17]  B12 1f 41   1867.1 4091995.1  1.0  1.0  5  0 531389923
lsq: nits= 2
$GNGGA,033627.000,3112.7132,N,12136.4378,E,1,06,1.5,66.8,M,,,,0000*21
$GNRMC,033627.000,A,3112.7132,N,12136.4378,E,0.46,0.00,250519,,*1F
$GPGSA,A,3,07,08,09,16,27,30,,,,,,,2.4,1.5,1.9*3F
$BDGSA,A,3,,,,,,,,,,,,,2.4,1.5,1.9*29
$GPGSV,2,1,07,04,00,000,34,07,48,311,45,08,73,327,43,09,23,250,32*74
$GPGSV,2,2,07,16,32,074,37,27,47,033,36,30,17,317,40*48
$BDGSV,1,1,01,12,00,000,41*5F
$LOGTIM,1,-1629.300354,0.000000,0.000000,0.000000,-62.897*04
EndT:        0
---00000072--- Acq_st=3 2019-5-25 03:36:27 
[00]  G04  f 34    615.5 2045999.2  1.0  1.0  5 3f 531404922
[01]  G07  f 45  -2680.5 2046003.5  1.0  1.0  5  0 531404928
[02]  G08  f 43    149.0 2045999.8  1.0  1.0  5  0 531404931
[03]  G09  f 31   1522.2 2045998.1  1.0  1.0  5  0 531404922
[04]  G16  f 36   1535.5 2045998.0  1.0  1.0  5  0 531404924
[05]  G27  f 36   2067.9 2045997.4  1.0  1.0  5  0 531404928
[06]  G30  f 40  -3675.7 2046004.8  1.0  1.0  5  0 531404919
[17]  B12 1f 40   1867.9 4091995.1  1.0  1.0  5  0 531390923
lsq: nits= 2
$GNGGA,033628.000,3112.7141,N,12136.4379,E,1,06,1.5,65.6,M,,,,0000*26
$GNRMC,033628.000,A,3112.7141,N,12136.4379,E,0.27,0.00,250519,,*12
$GPGSA,A,3,07,08,09,16,27,30,,,,,,,2.4,1.5,1.9*3F
$BDGSA,A,3,,,,,,,,,,,,,2.4,1.5,1.9*29
$GPGSV,2,1,07,04,00,000,34,07,48,311,45,08,73,327,43,09,23,250,31*77
$GPGSV,2,2,07,16,32,074,36,27,47,033,36,30,17,317,40*49
$BDGSV,1,1,01,12,00,000,40*5E
$LOGTIM,1,-1692.530637,0.000000,0.000000,0.000000,-62.747*03
EndT:        0
---00000073--- Acq_st=3 2019-5-25 03:36:28 
[00]  G04  f 34    622.3 2045999.3  1.0  0.9  5 3f 531405922
[01]  G07  f 45  -2673.4 2046003.5  1.0  1.0  5  0 531405928
[02]  G08  f 43    155.7 2045999.8  1.0  1.0  5  0 531405931
[03]  G09  f 30   1529.1 2045998.0  1.0  0.8  5  0 531405922
[04]  G16  f 36   1542.7 2045997.9  1.0  1.0  5  0 531405924
[05]  G27  f 35   2074.6 2045997.3  1.0  1.0  5  0 531405928
[06]  G30  f 40  -3669.3 2046004.7  1.0  1.0  5  0 531405919
[17]  B12 1f 40   1874.8 4091995.1  1.0  1.0  5  0 531391923
lsq: nits= 2
$GNGGA,033629.000,3112.7154,N,12136.4380,E,1,06,1.5,63.5,M,,,,0000*20
$GNRMC,033629.000,A,3112.7154,N,12136.4380,E,0.50,0.00,250519,,*11
$GPGSA,A,3,07,08,09,16,27,30,,,,,,,2.4,1.5,1.9*3F
$BDGSA,A,3,,,,,,,,,,,,,2.4,1.5,1.9*29
$GPGSV,2,1,07,04,00,000,34,07,48,311,45,08,73,327,43,09,23,250,30*76
$GPGSV,2,2,07,16,32,074,36,27,47,033,35,30,17,317,40*4A
$BDGSV,1,1,01,12,00,000,40*5E
$LOGTIM,1,-1755.765381,0.000000,0.000000,0.000000,-62.124*00
EndT:        0
---00000074--- Acq_st=3 2019-5-25 03:36:29 
[00]  G04  f 34    625.1 2045999.2  1.0  1.0  5 3f 531406922
[01]  G07  f 45  -2670.6 2046003.5  1.0  1.0  5  0 531406928
[02]  G08  f 43    158.6 2045999.8  1.0  1.0  5  0 531406931
[03]  G09  f 30   1532.3 2045997.9  1.0  1.0  5  0 531406922
[04]  G16  f 36   1544.8 2045998.0  1.0  1.0  5  0 531406924
[05]  G27  f 35   2077.7 2045997.3  1.0  0.9  5  0 531406928
[06]  G30  f 41  -3666.0 2046004.7  1.0  1.0  5  0 531406919
[17]  B12 1f 40   1877.6 4091995.1  1.0  1.0  5  0 531392923
lsq: nits= 2
$GNGGA,033630.000,3112.7164,N,12136.4382,E,1,06,1.5,62.1,M,,,,0000*2C
$GNRMC,033630.000,A,3112.7164,N,12136.4382,E,0.66,0.00,250519,,*1D
