FlashID=0x1 0x20 0x18
BBram_blkflag1: 452a: bad5
FW Ver: 1.30  
GPS00 Init Dop:   5000, 40
GPS01 Init Dop:   5000, 40
GPS02 Init Dop:   5000, 40
GPS03 Init Dop:   5000, 40
GPS04 Init Dop:   5000, 40
GPS05 Init Dop:   5000, 40
GPS06 Init Dop:   5000, 40
GPS07 Init Dop:   5000, 40
GPS08 Init Dop:   5000, 40
GPS09 Init Dop:   5000, 40
GPS10 Init Dop:   5000, 40
GPS11 Init Dop:   5000, 40
GPS12 Init Dop:   5000, 40
GPS13 Init Dop:   5000, 40
GPS14 Init Dop:   5000, 40
GPS15 Init Dop:   5000, 40
GPS16 Init Dop:   5000, 40
GPS17 Init Dop:   5000, 40
GPS18 Init Dop:   5000, 40
GPS19 Init Dop:   5000, 40
GPS20 Init Dop:   5000, 40
GPS21 Init Dop:   5000, 40
GPS22 Init Dop:   5000, 40
GPS23 Init Dop:   5000, 40
GPS24 Init Dop:   5000, 40
GPS25 Init Dop:   5000, 40
GPS26 Init Dop:   5000, 40
GPS27 Init Dop:   5000, 40
GPS28 Init Dop:   5000, 40
GPS29 Init Dop:   5000, 40
GPS30 Init Dop:   5000, 40
GPS31 Init Dop:   5000, 40
BDS00 Init Dop:   5000, 40
BDS01 Init Dop:   5000, 40
BDS02 Init Dop:   5000, 40
BDS03 Init Dop:   5000, 40
BDS04 Init Dop:   5000, 40
BDS05 Init Dop:   5000, 40
BDS06 Init Dop:   5000, 40
BDS07 Init Dop:   5000, 40
BDS08 Init Dop:   5000, 40
BDS09 Init Dop:   5000, 40
BDS10 Init Dop:   5000, 40
BDS11 Init Dop:   5000, 40
BDS12 Init Dop:   5000, 40
BDS13 Init Dop:   5000, 40
BDS14 Init Dop:   5000, 40
BDS15 Init Dop:   5000, 40
BDS16 Init Dop:   5000, 40
BDS17 Init Dop:   5000, 40
BDS18 Init Dop:   5000, 40
BDS19 Init Dop:   5000, 40
BDS20 Init Dop:   5000, 40
BDS21 Init Dop:   5000, 40
BDS22 Init Dop:   5000, 40
BDS23 Init Dop:   5000, 40
BDS24 Init Dop:   5000, 40
BDS25 Init Dop:   5000, 40
BDS26 Init Dop:   5000, 40
BDS27 Init Dop:   5000, 40
BDS28 Init Dop:   5000, 40
BDS29 Init Dop:   5000, 40
BDS30 Init Dop:   5000, 40
BDS31 Init Dop:   5000, 40
---00000001--- Acq_st=3 2019-5-25 07:24:51 
$GNGGA,000000.000,,,,,0,00,,,M,,,,0000*2B
$GNRMC,000000.000,A,,,,,,,000000,,*26
$GPGSA,A,1,,,,,,,,,,,,,,,*1E
$BDGSA,A,1,,,,,,,,,,,,,,,*0F
$LOGTIM,0,0.000000,0.000000,0.000000,0.000000,0.000*0A
EndT:        0
ch0 satid=0,max_freq = -2500,max_mean = 22145,max_phase = 2000,max_value = 153561,acq ok1!
acq ok1 timeH = 0,timeL = 13515230,freq_stage = 4
---00000002--- Acq_st=3 2019-5-25 07:24:52 
[00]  G01  1 25   2394.7 2045997.3  0.1  0.0  1  0         0
$GNGGA,000000.000,,,,,0,00,,,M,,,,0000*2B
$GNRMC,000000.000,A,,,,,,,000000,,*26
$GPGSA,A,1,,,,,,,,,,,,,,,*1E
$BDGSA,A,1,,,,,,,,,,,,,,,*0F
$LOGTIM,0,0.000000,0.000000,0.000000,0.000000,0.000*0A
EndT:        0
---00000003--- Acq_st=3 2019-5-25 07:24:53 
[00]  G01  7 28   2386.4 2045996.9  0.1  1.0 10  0        10
$GNGGA,000000.000,,,,,0,00,,,M,,,,0000*2B
$GNRMC,000000.000,A,,,,,,,000000,,*26
$GPGSA,A,1,,,,,,,,,,,,,,,*1E
$BDGSA,A,1,,,,,,,,,,,,,,,*0F
$GPGSV,1,1,01,01,00,000,28*43
$LOGTIM,0,0.000000,0.000000,0.000000,0.000000,0.000*0A
EndT:        0
---00000004--- Acq_st=3 2019-5-25 07:24:54 
[00]  G01  7 37   2381.1 2045996.9  0.9  1.0  5  0         9
$GNGGA,000000.000,,,,,0,00,,,M,,,,0000*2B
$GNRMC,000000.000,A,,,,,,,000000,,*26
$GPGSA,A,1,,,,,,,,,,,,,,,*1E
$BDGSA,A,1,,,,,,,,,,,,,,,*0F
$GPGSV,1,1,01,01,00,000,37*4D
$LOGTIM,0,0.000000,0.000000,0.000000,0.000000,0.000*0A
EndT:        0
---00000005--- Acq_st=3 2019-5-25 07:24:55 
[00]  G01  7 36   2380.1 2045996.8  1.0  1.0  5  0         9
$GNGGA,000000.000,,,,,0,00,,,M,,,,0000*2B
$GNRMC,000000.000,A,,,,,,,000000,,*26
$GPGSA,A,1,,,,,,,,,,,,,,,*1E
$BDGSA,A,1,,,,,,,,,,,,,,,*0F
$GPGSV,1,1,01,01,00,000,36*4C
$LOGTIM,0,0.000000,0.000000,0.000000,0.000000,0.000*0A
EndT:        0
---00000006--- Acq_st=3 2019-5-25 07:24:56 
[00]  G01  f 37   2380.8 2045996.9  1.0  1.0  5  0         9
$GNGGA,000000.000,,,,,0,00,,,M,,,,0000*2B
$GNRMC,000000.000,A,,,,,,,000000,,*26
$GPGSA,A,1,,,,,,,,,,,,,,,*1E
$BDGSA,A,1,,,,,,,,,,,,,,,*0F
$GPGSV,1,1,01,01,00,000,37*4D
$LOGTIM,0,0.000000,0.000000,0.000000,0.000000,0.000*0A
EndT:        0
---00000007--- Acq_st=3 2019-5-25 07:24:57 
[00]  G01  f 37   2383.1 2045997.0  1.0  1.0  5  0 545114089
$GNGGA,000000.000,,,,,0,00,,,M,,,,0000*2B
$GNRMC,000000.000,A,,,,,,,000000,,*26
$GPGSA,A,1,,,,,,,,,,,,,,,*1E
$BDGSA,A,1,,,,,,,,,,,,,,,*0F
$GPGSV,1,1,01,01,00,000,37*4D
$LOGTIM,0,0.000000,0.000000,0.000000,0.000000,0.000*0A
EndT:        0
---00000008--- Acq_st=3 2019-5-25 07:24:58 
[00]  G01  f 36   2384.7 2045996.8  1.0  1.0  5  0 545115089
$GNGGA,000000.000,,,,,0,00,,,M,,,,0000*2B
$GNRMC,000000.000,A,,,,,,,000000,,*26
$GPGSA,A,1,,,,,,,,,,,,,,,*1E
$BDGSA,A,1,,,,,,,,,,,,,,,*0F
$GPGSV,1,1,01,01,00,000,36*4C
$LOGTIM,0,0.000000,0.000000,0.000000,0.000000,0.000*0A
EndT:        0
---00000009--- Acq_st=3 2019-5-25 07:24:59 
[00]  G01  f 36   2382.9 2045996.9  1.0  1.0  5  0 545116089
$GNGGA,000000.000,,,,,0,00,,,M,,,,0000*2B
$GNRMC,000000.000,A,,,,,,,000000,,*26
$GPGSA,A,1,,,,,,,,,,,,,,,*1E
$BDGSA,A,1,,,,,,,,,,,,,,,*0F
$GPGSV,1,1,01,01,00,000,36*4C
$LOGTIM,0,0.000000,0.000000,0.000000,0.000000,0.000*0A
EndT:        0
---00000010--- Acq_st=3 2019-5-25 07:25:0 
[00]  G01  f 37   2385.8 2045996.9  1.0  1.0  5  0 545117089
$GNGGA,000000.000,,,,,0,00,,,M,,,,0000*2B
$GNRMC,000000.000,A,,,,,,,000000,,*26
$GPGSA,A,1,,,,,,,,,,,,,,,*1E
$BDGSA,A,1,,,,,,,,,,,,,,,*0F
$GPGSV,1,1,01,01,00,000,37*4D
$LOGTIM,0,0.000000,0.000000,0.000000,0.000000,0.000*0A
EndT:        0
---00000011--- Acq_st=3 2019-5-25 07:25:1 
[00]  G01  f 37   2393.0 2045996.9  1.0  0.9  5  0 545118089
$GNGGA,000000.000,,,,,0,00,,,M,,,,0000*2B
$GNRMC,000000.000,A,,,,,,,000000,,*26
$GPGSA,A,1,,,,,,,,,,,,,,,*1E
$BDGSA,A,1,,,,,,,,,,,,,,,*0F
$GPGSV,1,1,01,01,00,000,37*4D
$LOGTIM,0,0.000000,0.000000,0.000000,0.000000,0.000*0A
EndT:        0
---00000012--- Acq_st=3 2019-5-25 07:25:2 
[00]  G01  f 36   2389.9 2045996.9  1.0  1.0  5  0 545119089
$GNGGA,000000.000,,,,,0,00,,,M,,,,0000*2B
$GNRMC,000000.000,A,,,,,,,000000,,*26
$GPGSA,A,1,,,,,,,,,,,,,,,*1E
$BDGSA,A,1,,,,,,,,,,,,,,,*0F
$GPGSV,1,1,01,01,00,000,36*4C
$LOGTIM,0,0.000000,0.000000,0.000000,0.000000,0.000*0A
EndT:        0
ch1 satid=10,max_freq = -2500,max_mean = 23104,max_phase = 498,max_value = 185101,acq ok1!
acq ok1 timeH = 0,timeL = 236686216,freq_stage = 4
---00000013--- Acq_st=3 2019-5-25 07:25:3 
[00]  G01  f 36   2384.3 2045996.9  1.0  1.0  5  0 545120089
[01]  G11  1  7   2383.0 2045998.8 -0.1  0.0  1  0         0
$GNGGA,000000.000,,,,,0,00,,,M,,,,0000*2B
$GNRMC,000000.000,A,,,,,,,000000,,*26
$GPGSA,A,1,,,,,,,,,,,,,,,*1E
$BDGSA,A,1,,,,,,,,,,,,,,,*0F
$GPGSV,1,1,01,01,00,000,36*4C
$LOGTIM,0,0.000000,0.000000,0.000000,0.000000,0.000*0A
EndT:        0
---00000014--- Acq_st=3 2019-5-25 07:25:4 
[00]  G01  f 36   2381.6 2045996.9  1.0  1.0  5  0 545121089
[01]  G11  1 25   2105.4 2045997.9  0.1  0.0  1  0         6
$GNGGA,000000.000,,,,,0,00,,,M,,,,0000*2B
$GNRMC,000000.000,A,,,,,,,000000,,*26
$GPGSA,A,1,,,,,,,,,,,,,,,*1E
$BDGSA,A,1,,,,,,,,,,,,,,,*0F
$GPGSV,1,1,01,01,00,000,36*4C
$LOGTIM,0,0.000000,0.000000,0.000000,0.000000,0.000*0A
EndT:        0
---00000015--- Acq_st=3 2019-5-25 07:25:5 
[00]  G01  f 36   2386.2 2045996.9  1.0  0.9  5  0 545122089
[01]  G11  7 35   2110.7 2045997.2  0.5  1.0  5  0         6
$GNGGA,000000.000,,,,,0,00,,,M,,,,0000*2B
$GNRMC,000000.000,A,,,,,,,000000,,*26
$GPGSA,A,1,,,,,,,,,,,,,,,*1E
$BDGSA,A,1,,,,,,,,,,,,,,,*0F
$GPGSV,1,1,02,01,00,000,36,11,00,000,35*79
$LOGTIM,0,0.000000,0.000000,0.000000,0.000000,0.000*0A
EndT:        0
---00000016--- Acq_st=3 2019-5-25 07:25:6 
[00]  G01  f 36   2386.7 2045996.8  1.0  1.0  5  0 545123089
[01]  G11  7 39   2110.3 2045997.2  1.0  1.0  5  0         7
$GNGGA,000000.000,,,,,0,00,,,M,,,,0000*2B
$GNRMC,000000.000,A,,,,,,,000000,,*26
$GPGSA,A,1,,,,,,,,,,,,,,,*1E
$BDGSA,A,1,,,,,,,,,,,,,,,*0F
$GPGSV,1,1,02,01,00,000,36,11,00,000,39*75
$LOGTIM,0,0.000000,0.000000,0.000000,0.000000,0.000*0A
EndT:        0
---00000017--- Acq_st=3 2019-5-25 07:25:7 
[00]  G01  f 36   2386.9 2045996.9  1.0  0.9  5  0 545124089
[01]  G11  7 40   2110.3 2045997.2  1.0  1.0  5  0         7
$GNGGA,000000.000,,,,,0,00,,,M,,,,0000*2B
$GNRMC,000000.000,A,,,,,,,000000,,*26
$GPGSA,A,1,,,,,,,,,,,,,,,*1E
$BDGSA,A,1,,,,,,,,,,,,,,,*0F
$GPGSV,1,1,02,01,00,000,36,11,00,000,40*7B
$LOGTIM,0,0.000000,0.000000,0.000000,0.000000,0.000*0A
EndT:        0
---00000018--- Acq_st=3 2019-5-25 07:25:8 
[00]  G01  f 37   2386.2 2045996.9  1.0  1.0  5  0 545125089
[01]  G11  f 39   2109.6 2045997.3  1.0  1.0  5  0         7
$GNGGA,000000.000,,,,,0,00,,,M,,,,0000*2B
$GNRMC,000000.000,A,,,,,,,000000,,*26
$GPGSA,A,1,,,,,,,,,,,,,,,*1E
$BDGSA,A,1,,,,,,,,,,,,,,,*0F
$GPGSV,1,1,02,01,00,000,37,11,00,000,39*74
$LOGTIM,0,0.000000,0.000000,0.000000,0.000000,0.000*0A
EndT:        0
---00000019--- Acq_st=3 2019-5-25 07:25:9 
[00]  G01  f 37   2389.0 2045996.9  1.0  1.0  5  0 545126089
[01]  G11  f 39   2112.4 2045997.2  1.0  1.0  5  0 545126087
$GNGGA,000000.000,,,,,0,00,,,M,,,,0000*2B
$GNRMC,000000.000,A,,,,,,,000000,,*26
$GPGSA,A,1,,,,,,,,,,,,,,,*1E
$BDGSA,A,1,,,,,,,,,,,,,,,*0F
$GPGSV,1,1,02,01,00,000,37,11,00,000,39*74
$LOGTIM,0,0.000000,0.000000,0.000000,0.000000,0.000*0A
EndT:        0
---00000020--- Acq_st=3 2019-5-25 07:25:10 
[00]  G01  f 36   2389.6 2045996.8  1.0  1.0  5  0 545127089
[01]  G11  f 38   2113.6 2045997.3  1.0  1.0  5  0 545127087
$GNGGA,000000.000,,,,,0,00,,,M,,,,0000*2B
$GNRMC,000000.000,A,,,,,,,000000,,*26
$GPGSA,A,1,,,,,,,,,,,,,,,*1E
$BDGSA,A,1,,,,,,,,,,,,,,,*0F
$GPGSV,1,1,02,01,00,000,36,11,00,000,38*74
$LOGTIM,0,0.000000,0.000000,0.000000,0.000000,0.000*0A
EndT:        0
ch2 satid=17,max_freq = -4250,max_mean = 22867,max_phase = 19,max_value = 230926,acq ok1!
acq ok1 timeH = 0,timeL = 397365496,freq_stage = 5
---00000021--- Acq_st=3 2019-5-25 07:25:11 
[00]  G01  f 36   2388.2 2045996.8  1.0  1.0  5  0 545128089
[01]  G11  f 39   2112.1 2045997.2  1.0  1.0  5  0 545128087
[02]  G18  1  7   6489.5 2045994.7 -0.0  0.0  1  0         0
$GNGGA,000000.000,,,,,0,00,,,M,,,,0000*2B
$GNRMC,000000.000,A,,,,,,,000000,,*26
$GPGSA,A,1,,,,,,,,,,,,,,,*1E
$BDGSA,A,1,,,,,,,,,,,,,,,*0F
$GPGSV,1,1,02,01,00,000,36,11,00,000,39*75
$LOGTIM,0,0.000000,0.000000,0.000000,0.000000,0.000*0A
EndT:        0
---00000022--- Acq_st=3 2019-5-25 07:25:12 
[00]  G01  f 36   2388.2 2045996.8  1.0  1.0  5  0 545129089
[01]  G11  f 39   2112.2 2045997.3  1.0  1.0  5  0 545129087
[02]  G18  1 17   4183.2 2045995.3 -0.1  0.0  1  0        10
$GNGGA,000000.000,,,,,0,00,,,M,,,,0000*2B
$GNRMC,000000.000,A,,,,,,,000000,,*26
$GPGSA,A,1,,,,,,,,,,,,,,,*1E
$BDGSA,A,1,,,,,,,,,,,,,,,*0F
$GPGSV,1,1,02,01,00,000,36,11,00,000,39*75
$LOGTIM,0,0.000000,0.000000,0.000000,0.000000,0.000*0A
EndT:        0
ch3 satid=18,max_freq = 1750,max_mean = 22943,max_phase = 403,max_value = 178408,acq ok1!
acq ok1 timeH = 0,timeL = 406303857,freq_stage = 2
---00000023--- Acq_st=3 2019-5-25 07:25:13 
[00]  G01  f 36   2388.2 2045996.9  1.0  1.0  5  0 545130089
[01]  G11  f 39   2111.5 2045997.3  1.0  1.0  5  0 545130087
[02]  G18  1 10   4239.9 2045995.7  0.0  0.0  1  0        10
[03]  G19  1 17  -1817.1 2046002.3 -0.0  0.0  1  0         0
$GNGGA,000000.000,,,,,0,00,,,M,,,,0000*2B
$GNRMC,000000.000,A,,,,,,,000000,,*26
$GPGSA,A,1,,,,,,,,,,,,,,,*1E
$BDGSA,A,1,,,,,,,,,,,,,,,*0F
$GPGSV,1,1,02,01,00,000,36,11,00,000,39*75
$LOGTIM,0,0.000000,0.000000,0.000000,0.000000,0.000*0A
EndT:        0
---00000024--- Acq_st=3 2019-5-25 07:25:14 
[00]  G01  f 35   2386.8 2045996.9  1.0  0.9  5  0 545131089
[01]  G11  f 38   2109.8 2045997.3  1.0  1.0  5  0 545131087
[02]  G18  1 13   4343.4 2045995.4  0.1  0.0  1  0        10
[03]  G19  7  7  -1823.6 2046002.2  0.1 -1.0 20  0         7
$GNGGA,000000.000,,,,,0,00,,,M,,,,0000*2B
$GNRMC,000000.000,A,,,,,,,000000,,*26
$GPGSA,A,1,,,,,,,,,,,,,,,*1E
$BDGSA,A,1,,,,,,,,,,,,,,,*0F
$GPGSV,1,1,02,01,00,000,35,11,00,000,38*77
$LOGTIM,0,0.000000,0.000000,0.000000,0.000000,0.000*0A
EndT:        0
---00000025--- Acq_st=3 2019-5-25 07:25:15 
[00]  G01  f 36   2391.5 2045996.9  1.0  1.0  5  0 545132089
[01]  G11  f 38   2114.0 2045997.3  1.0  1.0  5  0 545132087
[03]  G19  7 11  -1804.4 2046002.5 -0.1 -1.0 20  0         7
$GNGGA,000000.000,,,,,0,00,,,M,,,,0000*2B
$GNRMC,000000.000,A,,,,,,,000000,,*26
$GPGSA,A,1,,,,,,,,,,,,,,,*1E
$BDGSA,A,1,,,,,,,,,,,,,,,*0F
$GPGSV,1,1,02,01,00,000,36,11,00,000,38*74
$LOGTIM,0,0.000000,0.000000,0.000000,0.000000,0.000*0A
EndT:        0
ch2 satid=21,max_freq = -750,max_mean = 22889,max_phase = 633,max_value = 804890,acq ok1!
acq ok1 timeH = 0,timeL = 477714713,freq_stage = 3
---00000026--- Acq_st=3 2019-5-25 07:25:16 
[00]  G01  f 36   2393.7 2045996.9  1.0  0.9  5  0 545133089
[01]  G11  f 38   2116.0 2045997.2  1.0  1.0  5  0 545133087
[02]  G22  1 23    758.5 2045999.2  0.0  0.0  1  0        10
[03]  G19  7 15  -1807.4 2046002.5 -0.1 -0.5 20  0         7
$GNGGA,000000.000,,,,,0,00,,,M,,,,0000*2B
$GNRMC,000000.000,A,,,,,,,000000,,*26
$GPGSA,A,1,,,,,,,,,,,,,,,*1E
$BDGSA,A,1,,,,,,,,,,,,,,,*0F
$GPGSV,1,1,03,01,00,000,36,11,00,000,38,19,00,000,15*49
$LOGTIM,0,0.000000,0.000000,0.000000,0.000000,0.000*0A
EndT:        0
---00000027--- Acq_st=3 2019-5-25 07:25:17 
[00]  G01  f 37   2390.4 2045996.8  1.0  1.0  5  0 545134089
[01]  G11  f 39   2112.7 2045997.2  1.0  0.9  5  0 545134087
[02]  G22  7  9    751.3 2045999.0  0.2  0.0 20  0         1
[03]  G19  7 14  -1820.9 2046002.4 -0.0 -1.0 20  0         7
$GNGGA,000000.000,,,,,0,00,,,M,,,,0000*2B
$GNRMC,000000.000,A,,,,,,,000000,,*26
$GPGSA,A,1,,,,,,,,,,,,,,,*1E
$BDGSA,A,1,,,,,,,,,,,,,,,*0F
$GPGSV,1,1,03,01,00,000,37,11,00,000,39,19,00,000,14*48
$LOGTIM,0,0.000000,0.000000,0.000000,0.000000,0.000*0A
EndT:        0
---00000028--- Acq_st=3 2019-5-25 07:25:18 
[00]  G01  f 37   2388.3 2045996.9  1.0  1.0  5  0 545135089
[01]  G11  f 39   2110.9 2045997.2  1.0  1.0  5  0 545135087
[02]  G22  7 43    750.0 2045999.0  1.0  1.0  5  0         8
[03]  G19  7 14  -1830.2 2046002.3 -0.0 -0.5 20  0         7
$GNGGA,000000.000,,,,,0,00,,,M,,,,0000*2B
$GNRMC,000000.000,A,,,,,,,000000,,*26
$GPGSA,A,1,,,,,,,,,,,,,,,*1E
$BDGSA,A,1,,,,,,,,,,,,,,,*0F
$GPGSV,1,1,04,01,00,000,37,11,00,000,39,22,00,000,43,19,00,000,14*78
$LOGTIM,0,0.000000,0.000000,0.000000,0.000000,0.000*0A
EndT:        0
---00000029--- Acq_st=3 2019-5-25 07:25:19 
[00]  G01  f 36   2387.3 2045996.9  1.0  1.0  5  0 545136089
[01]  G11  f 39   2110.6 2045997.3  1.0  1.0  5  0 545136087
[02]  G22  7 43    749.2 2045999.0  1.0  1.0  5  0         8
[03]  G19  7 13  -1831.0 2046002.5 -0.0  0.0 20  0         7
$GNGGA,000000.000,,,,,0,00,,,M,,,,0000*2B
$GNRMC,000000.000,A,,,,,,,000000,,*26
$GPGSA,A,1,,,,,,,,,,,,,,,*1E
$BDGSA,A,1,,,,,,,,,,,,,,,*0F
$GPGSV,1,1,04,01,00,000,36,11,00,000,39,22,00,000,43,19,00,000,13*7E
$LOGTIM,0,0.000000,0.000000,0.000000,0.000000,0.000*0A
EndT:        0
---00000030--- Acq_st=3 2019-5-25 07:25:20 
[00]  G01  f 36   2392.3 2045996.8  1.0  1.0  5  0 545137089
[01]  G11  f 39   2115.4 2045997.2  1.0  1.0  5  0 545137087
[02]  G22  f 43    754.5 2045999.0  1.0  1.0  5  0         8
[03]  G19  7  7  -1826.1 2046002.4  0.1 -1.0 20  0         7
$GNGGA,000000.000,,,,,0,00,,,M,,,,0000*2B
$GNRMC,000000.000,A,,,,,,,000000,,*26
$GPGSA,A,1,,,,,,,,,,,,,,,*1E
$BDGSA,A,1,,,,,,,,,,,,,,,*0F
$GPGSV,1,1,03,01,00,000,36,11,00,000,39,22,00,000,43*43
$LOGTIM,0,0.000000,0.000000,0.000000,0.000000,0.000*0A
EndT:        0
---00000031--- Acq_st=3 2019-5-25 07:25:21 
[00]  G01  f 37   2395.7 2045996.9  1.0  1.0  5  0 545138089
[01]  G11  f 39   2118.3 2045997.2  1.0  1.0  5  0 545138087
[02]  G22  f 43    758.1 2045999.0  1.0  1.0  5  0 545138088
[03]  G19  7  7  -1819.5 2046002.6  0.1 -2.0 20  0         7
$GNGGA,000000.000,,,,,0,00,,,M,,,,0000*2B
$GNRMC,000000.000,A,,,,,,,000000,,*26
$GPGSA,A,1,,,,,,,,,,,,,,,*1E
$BDGSA,A,1,,,,,,,,,,,,,,,*0F
$GPGSV,1,1,03,01,00,000,37,11,00,000,39,22,00,000,43*42
$LOGTIM,0,0.000000,0.000000,0.000000,0.000000,0.000*0A
EndT:        0
---00000032--- Acq_st=3 2019-5-25 07:25:22 
[00]  G01  f 36   2401.0 2045996.8  1.0  0.9  5  0 545139089
[01]  G11  f 38   2123.6 2045997.3  1.0  1.0  5  0 545139087
[02]  G22  f 44    764.0 2045999.0  1.0  1.0  5  0 545139088
[03]  G19  7  7  -1821.1 2046002.4  0.0 -1.0 20  0         7
$GNGGA,000000.000,,,,,0,00,,,M,,,,0000*2B
$GNRMC,000000.000,A,,,,,,,000000,,*26
$GPGSA,A,1,,,,,,,,,,,,,,,*1E
$BDGSA,A,1,,,,,,,,,,,,,,,*0F
$GPGSV,1,1,03,01,00,000,36,11,00,000,38,22,00,000,44*45
$LOGTIM,0,0.000000,0.000000,0.000000,0.000000,0.000*0A
EndT:        0
ch4 satid=27,max_freq = 1250,max_mean = 23087,max_phase = 1383,max_value = 139267,acq ok1!
acq ok1 timeH = 0,timeL = 607157726,freq_stage = 2
---00000033--- Acq_st=3 2019-5-25 07:25:23 
[00]  G01  f 36   2395.9 2045996.8  1.0  1.0  5  0 545140089
[01]  G11  f 38   2118.1 2045997.3  1.0  1.0  5  0 545140087
[02]  G22  f 43    759.4 2045999.0  1.0  1.0  5  0 545140088
[03]  G19  7  8  -1833.9 2046002.4 -0.0 -1.0 20  0         7
[04]  G28  1 15  -1287.9 2046002.1  0.0  0.0  1  0         0
$GNGGA,000000.000,,,,,0,00,,,M,,,,0000*2B
$GNRMC,000000.000,A,,,,,,,000000,,*26
$GPGSA,A,1,,,,,,,,,,,,,,,*1E
$BDGSA,A,1,,,,,,,,,,,,,,,*0F
$GPGSV,1,1,03,01,00,000,36,11,00,000,38,22,00,000,43*42
$LOGTIM,0,0.000000,0.000000,0.000000,0.000000,0.000*0A
EndT:        0
---00000034--- Acq_st=3 2019-5-25 07:25:24 
[00]  G01  f 36   2389.1 2045996.9  1.0  1.0  5  0 545141089
[01]  G11  f 39   2112.6 2045997.3  1.0  1.0  5  0 545141087
[02]  G22  f 43    753.7 2045999.0  1.0  1.0  5  0 545141088
[03]  G19  7 13  -1835.6 2046002.3  0.1 -0.5 20  0         7
[04]  G28  7 12  -1310.9 2046001.7  0.1  0.0 20  0         6
$GNGGA,000000.000,,,,,0,00,,,M,,,,0000*2B
$GNRMC,000000.000,A,,,,,,,000000,,*26
$GPGSA,A,1,,,,,,,,,,,,,,,*1E
$BDGSA,A,1,,,,,,,,,,,,,,,*0F
$GPGSV,1,1,04,01,00,000,36,11,00,000,39,22,00,000,43,19,00,000,13*7E
$LOGTIM,0,0.000000,0.000000,0.000000,0.000000,0.000*0A
EndT:        0
---00000035--- Acq_st=3 2019-5-25 07:25:25 
[00]  G01  f 36   2394.3 2045996.9  1.0  1.0  5  0 545142089
[01]  G11  f 39   2116.8 2045997.2  1.0  1.0  5  0 545142087
[02]  G22  f 43    759.0 2045999.0  1.0  1.0  5  0 545142088
[03]  G19  7  7  -1835.6 2046002.5  0.1  0.0 20  0         7
[04]  G28  7 36  -1306.1 2046001.7  0.5  0.9  5  0        13
$GNGGA,000000.000,,,,,0,00,,,M,,,,0000*2B
$GNRMC,000000.000,A,,,,,,,000000,,*26
$GPGSA,A,1,,,,,,,,,,,,,,,*1E
$BDGSA,A,1,,,,,,,,,,,,,,,*0F
$GPGSV,1,1,04,01,00,000,36,11,00,000,39,22,00,000,43,28,00,000,36*7B
$LOGTIM,0,0.000000,0.000000,0.000000,0.000000,0.000*0A
EndT:        0
---00000036--- Acq_st=3 2019-5-25 07:25:26 
[00]  G01  f 36   2399.7 2045996.9  1.0  1.0  5  0 545143089
[01]  G11  f 38   2121.1 2045997.3  1.0  0.9  5  0 545143087
[02]  G22  f 43    764.4 2045999.0  1.0  1.0  5  0 545143088
[03]  G19  7  7  -1825.6 2046002.5  0.0 -1.0 20  0         7
[04]  G28  f 35  -1300.4 2046001.7  1.0  1.0  5  0        13
$GNGGA,000000.000,,,,,0,00,,,M,,,,0000*2B
$GNRMC,000000.000,A,,,,,,,000000,,*26
$GPGSA,A,1,,,,,,,,,,,,,,,*1E
$BDGSA,A,1,,,,,,,,,,,,,,,*0F
$GPGSV,1,1,04,01,00,000,36,11,00,000,38,22,00,000,43,28,00,000,35*79
$LOGTIM,0,0.000000,0.000000,0.000000,0.000000,0.000*0A
EndT:        0
---00000037--- Acq_st=3 2019-5-25 07:25:27 
[00]  G01  f 36   2397.2 2045996.9  1.0  1.0  5  0 545144089
[01]  G11  f 38   2119.9 2045997.2  1.0  1.0  5  0 545144087
[02]  G22  f 43    762.7 2045999.0  1.0  1.0  5  0 545144088
[03]  G19  7 12  -1819.6 2046002.4  0.1 -0.5 20  0         7
[04]  G28  f 35  -1302.9 2046001.7  1.0  1.0  5  0 545144093
$GNGGA,000000.000,,,,,0,00,,,M,,,,0000*2B
$GNRMC,000000.000,A,,,,,,,000000,,*26
$GPGSA,A,1,,,,,,,,,,,,,,,*1E
$BDGSA,A,1,,,,,,,,,,,,,,,*0F
$GPGSV,1,1,04,01,00,000,36,11,00,000,38,22,00,000,43,28,00,000,35*79
$LOGTIM,0,0.000000,0.000000,0.000000,0.000000,0.000*0A
EndT:        0
---00000038--- Acq_st=3 2019-5-25 07:25:28 
[00]  G01  f 36   2391.9 2045996.8  1.0  1.0  5  0 545145089
[01]  G11  f 39   2114.0 2045997.2  1.0  1.0  5  0 545145087
[02]  G22  f 43    757.1 2045999.0  1.0  1.0  5  0 545145088
[03]  G19  7  7  -1819.6 2046002.2 -0.1 -2.0 20  0         7
[04]  G28  f 35  -1307.7 2046001.7  1.0  1.0  5  0 545145093
$GNGGA,000000.000,,,,,0,00,,,M,,,,0000*2B
$GNRMC,000000.000,A,,,,,,,000000,,*26
$GPGSA,A,1,,,,,,,,,,,,,,,*1E
$BDGSA,A,1,,,,,,,,,,,,,,,*0F
$GPGSV,1,1,04,01,00,000,36,11,00,000,39,22,00,000,43,28,00,000,35*78
$LOGTIM,0,0.000000,0.000000,0.000000,0.000000,0.000*0A
EndT:        0
---00000039--- Acq_st=3 2019-5-25 07:25:29 
[00]  G01  f 36   2395.1 2045996.9  1.0  1.0  5  0 545146089
[01]  G11  f 39   2117.5 2045997.2  1.0  1.0  5  0 545146087
[02]  G22  f 43    761.2 2045999.0  1.0  1.0  5  0 545146088
[04]  G28  f 34  -1304.6 2046001.7  1.0  0.9  5  0 545146093
$GNGGA,000000.000,,,,,0,00,,,M,,,,0000*2B
$GNRMC,000000.000,A,,,,,,,000000,,*26
$GPGSA,A,1,,,,,,,,,,,,,,,*1E
$BDGSA,A,1,,,,,,,,,,,,,,,*0F
$GPGSV,1,1,04,01,00,000,36,11,00,000,39,22,00,000,43,28,00,000,34*79
$LOGTIM,0,0.000000,0.000000,0.000000,0.000000,0.000*0A
EndT:        0
---00000040--- Acq_st=3 2019-5-25 07:25:30 
[00]  G01  f 36   2392.6 2045996.9  1.0  1.0  5  0 545147089
[01]  G11  f 39   2115.2 2045997.3  1.0  1.0  5  0 545147087
[02]  G22  f 43    759.3 2045999.0  1.0  1.0  5  0 545147088
[04]  G28  f 35  -1305.7 2046001.7  1.0  0.9  5  0 545147093
$GNGGA,000000.000,,,,,0,00,,,M,,,,0000*2B
$GNRMC,000000.000,A,,,,,,,000000,,*26
$GPGSA,A,1,,,,,,,,,,,,,,,*1E
$BDGSA,A,1,,,,,,,,,,,,,,,*0F
$GPGSV,1,1,04,01,00,000,36,11,00,000,39,22,00,000,43,28,00,000,35*78
$LOGTIM,0,0.000000,0.000000,0.000000,0.000000,0.000*0A
EndT:        0
---00000041--- Acq_st=3 2019-5-25 07:25:31 
[00]  G01  f 35   2392.1 2045996.9  1.0  1.0  5  0 545148089
[01]  G11  f 39   2113.7 2045997.2  1.0  1.0  5  0 545148087
[02]  G22  f 43    758.6 2045999.0  1.0  1.0  5  0 545148088
[04]  G28  f 34  -1305.8 2046001.8  1.0  1.0  5  0 545148093
$GNGGA,000000.000,,,,,0,00,,,M,,,,0000*2B
$GNRMC,000000.000,A,,,,,,,000000,,*26
$GPGSA,A,1,,,,,,,,,,,,,,,*1E
$BDGSA,A,1,,,,,,,,,,,,,,,*0F
$GPGSV,1,1,04,01,00,000,35,11,00,000,39,22,00,000,43,28,00,000,34*7A
$LOGTIM,0,0.000000,0.000000,0.000000,0.000000,0.000*0A
EndT:        0
---00000042--- Acq_st=3 2019-5-25 07:25:32 
[00]  G01  f 36   2393.7 2045996.9  1.0  1.0  5  0 545149089
[01]  G11  f 39   2115.3 2045997.2  1.0  1.0  5  0 545149087
[02]  G22  f 43    760.1 2045999.0  1.0  1.0  5  0 545149088
[04]  G28  f 34  -1305.5 2046001.7  1.0  0.9  5  0 545149093
$GNGGA,000000.000,,,,,0,00,,,M,,,,0000*2B
$GNRMC,000000.000,A,,,,,,,000000,,*26
$GPGSA,A,1,,,,,,,,,,,,,,,*1E
$BDGSA,A,1,,,,,,,,,,,,,,,*0F
$GPGSV,1,1,04,01,00,000,36,11,00,000,39,22,00,000,43,28,00,000,34*79
$LOGTIM,0,0.000000,0.000000,0.000000,0.000000,0.000*0A
EndT:        0
---00000043--- Acq_st=3 2019-5-25 07:25:33 
[00]  G01  f 36   2396.2 2045996.9  1.0  1.0  5  0 545150089
[01]  G11  f 39   2118.0 2045997.2  1.0  1.0  5  0 545150087
[02]  G22  f 43    763.9 2045999.0  1.0  1.0  5  0 545150088
[04]  G28  f 34  -1301.7 2046001.7  1.0  1.0  5  0 545150093
$GNGGA,000000.000,,,,,0,00,,,M,,,,0000*2B
$GNRMC,000000.000,A,,,,,,,000000,,*26
$GPGSA,A,1,,,,,,,,,,,,,,,*1E
$BDGSA,A,1,,,,,,,,,,,,,,,*0F
$GPGSV,1,1,04,01,00,000,36,11,00,000,39,22,00,000,43,28,00,000,34*79
$LOGTIM,0,0.000000,0.000000,0.000000,0.000000,0.000*0A
EndT:        0
---00000044--- Acq_st=3 2019-5-25 07:25:34 
[00]  G01  f 36   2394.4 2045996.7  1.0  1.0  5  0 545151089
[01]  G11  f 39   2116.2 2045997.2  1.0  1.0  5  0 545151087
[02]  G22  f 43    762.1 2045999.0  1.0  1.0  5  0 545151088
[04]  G28  f 34  -1302.7 2046001.8  1.0  1.0  5  0 545151093
$GNGGA,000000.000,,,,,0,00,,,M,,,,0000*2B
$GNRMC,000000.000,A,,,,,,,000000,,*26
$GPGSA,A,1,,,,,,,,,,,,,,,*1E
$BDGSA,A,1,,,,,,,,,,,,,,,*0F
$GPGSV,1,1,04,01,00,000,36,11,00,000,39,22,00,000,43,28,00,000,34*79
$LOGTIM,0,0.000000,0.000000,0.000000,0.000000,0.000*0A
EndT:        0
---00000045--- Acq_st=3 2019-5-25 07:25:35 
[00]  G01  f 36   2391.2 2045996.9  1.0  1.0  5  0 545152089
[01]  G11  f 39   2113.2 2045997.3  1.0  1.0  5  0 545152087
[02]  G22  f 43    759.8 2045999.0  1.0  1.0  5  0 545152088
[04]  G28  f 34  -1305.8 2046001.8  1.0  1.0  5  0 545152093
$GNGGA,000000.000,,,,,0,00,,,M,,,,0000*2B
$GNRMC,000000.000,A,,,,,,,000000,,*26
$GPGSA,A,1,,,,,,,,,,,,,,,*1E
$BDGSA,A,1,,,,,,,,,,,,,,,*0F
$GPGSV,1,1,04,01,00,000,36,11,00,000,39,22,00,000,43,28,00,000,34*79
$LOGTIM,0,0.000000,0.000000,0.000000,0.000000,0.000*0A
EndT:        0
---00000046--- Acq_st=3 2019-5-25 07:25:36 
[00]  G01  f 36   2393.4 2045996.9  1.0  1.0  5  0 545153089
[01]  G11  f 39   2115.3 2045997.2  1.0  1.0  5  0 545153087
[02]  G22  f 43    761.9 2045999.0  1.0  1.0  5  0 545153088
[04]  G28  f 33  -1303.9 2046001.7  1.0  0.9  5  0 545153093
$GNGGA,000000.000,,,,,0,00,,,M,,,,0000*2B
$GNRMC,000000.000,A,,,,,,,000000,,*26
$GPGSA,A,1,,,,,,,,,,,,,,,*1E
$BDGSA,A,1,,,,,,,,,,,,,,,*0F
$GPGSV,1,1,04,01,00,000,36,11,00,000,39,22,00,000,43,28,00,000,33*7E
$LOGTIM,0,0.000000,0.000000,0.000000,0.000000,0.000*0A
EndT:        0
---00000047--- Acq_st=3 2019-5-25 07:25:37 
[00]  G01  f 36   2398.8 2045996.8  1.0  0.9  5  0 545154089
[01]  G11  f 39   2120.8 2045997.2  1.0  1.0  5  0 545154087
[02]  G22  f 43    767.4 2045999.0  1.0  1.0  5  0 545154088
[04]  G28  f 33  -1297.6 2046001.6  1.0  1.0  5  0 545154093
$GNGGA,000000.000,,,,,0,00,,,M,,,,0000*2B
$GNRMC,000000.000,A,,,,,,,000000,,*26
$GPGSA,A,1,,,,,,,,,,,,,,,*1E
$BDGSA,A,1,,,,,,,,,,,,,,,*0F
$GPGSV,1,1,04,01,00,000,36,11,00,000,39,22,00,000,43,28,00,000,33*7E
$LOGTIM,0,0.000000,0.000000,0.000000,0.000000,0.000*0A
EndT:        0
---00000048--- Acq_st=3 2019-5-25 07:25:38 
[00]  G01  f 36   2396.1 2045996.8  1.0  1.0  5  0 545155089
[01]  G11  f 39   2117.6 2045997.2  1.0  1.0  5  0 545155087
[02]  G22  f 43    765.4 2045999.0  1.0  1.0  5  0 545155088
[04]  G28  f 33  -1299.8 2046001.6  1.0  1.0  5  0 545155093
$GNGGA,000000.000,,,,,0,00,,,M,,,,0000*2B
$GNRMC,000000.000,A,,,,,,,000000,,*26
$GPGSA,A,1,,,,,,,,,,,,,,,*1E
$BDGSA,A,1,,,,,,,,,,,,,,,*0F
$GPGSV,1,1,04,01,00,000,36,11,00,000,39,22,00,000,43,28,00,000,33*7E
$LOGTIM,0,0.000000,0.000000,0.000000,0.000000,0.000*0A
EndT:        0
---00000049--- Acq_st=3 2019-5-25 07:25:39 
[00]  G01  f 36   2392.8 2045996.9  1.0  1.0  5  0 545156089
[01]  G11  f 40   2113.8 2045997.2  1.0  1.0  5  0 545156087
[02]  G22  f 43    762.6 2045999.0  1.0  1.0  5  0 545156088
[04]  G28  f 33  -1304.2 2046001.6  1.0  1.0  5  0 545156093
$GNGGA,000000.000,,,,,0,00,,,M,,,,0000*2B
$GNRMC,000000.000,A,,,,,,,000000,,*26
$GPGSA,A,1,,,,,,,,,,,,,,,*1E
$BDGSA,A,1,,,,,,,,,,,,,,,*0F
$GPGSV,1,1,04,01,00,000,36,11,00,000,40,22,00,000,43,28,00,000,33*70
$LOGTIM,0,0.000000,0.000000,0.000000,0.000000,0.000*0A
EndT:        0
---00000050--- Acq_st=3 2019-5-25 07:25:40 
[00]  G01  f 36   2391.1 2045996.9  1.0  1.0  5  0 545157089
[01]  G11  f 39   2112.5 2045997.2  1.0  1.0  5  0 545157087
[02]  G22  f 43    760.5 2045999.0  1.0  1.0  5  0 545157088
[04]  G28  f 33  -1304.9 2046001.7  1.0  1.0  5  0 545157093
$GNGGA,000000.000,,,,,0,00,,,M,,,,0000*2B
$GNRMC,000000.000,A,,,,,,,000000,,*26
$GPGSA,A,1,,,,,,,,,,,,,,,*1E
$BDGSA,A,1,,,,,,,,,,,,,,,*0F
$GPGSV,1,1,04,01,00,000,36,11,00,000,39,22,00,000,43,28,00,000,33*7E
$LOGTIM,0,0.000000,0.000000,0.000000,0.000000,0.000*0A
EndT:        0
---00000051--- Acq_st=3 2019-5-25 07:25:41 
[00]  G01  f 36   2389.4 2045996.8  1.0  1.0  5  0 545158089
[01]  G11  f 39   2109.8 2045997.3  1.0  1.0  5  0 545158087
[02]  G22  f 43    759.2 2045999.0  1.0  1.0  5  0 545158088
[04]  G28  f 33  -1307.0 2046001.7  1.0  1.0  5  0 545158093
$GNGGA,000000.000,,,,,0,00,,,M,,,,0000*2B
$GNRMC,000000.000,A,,,,,,,000000,,*26
$GPGSA,A,1,,,,,,,,,,,,,,,*1E
$BDGSA,A,1,,,,,,,,,,,,,,,*0F
$GPGSV,1,1,04,01,00,000,36,11,00,000,39,22,00,000,43,28,00,000,33*7E
$LOGTIM,0,0.000000,0.000000,0.000000,0.000000,0.000*0A
EndT:        0
---00000052--- Acq_st=3 2019-5-25 07:25:42 
[00]  G01  f 36   2393.5 2045996.8  1.0  0.9  5  0 545159089
[01]  G11  f 40   2114.4 2045997.2  1.0  1.0  5  0 545159087
[02]  G22  f 43    764.3 2045999.0  1.0  1.0  5  0 545159088
[04]  G28  f 33  -1302.9 2046001.7  1.0  1.0  5  0 545159093
$GNGGA,000000.000,,,,,0,00,,,M,,,,0000*2B
$GNRMC,000000.000,A,,,,,,,000000,,*26
$GPGSA,A,1,,,,,,,,,,,,,,,*1E
$BDGSA,A,1,,,,,,,,,,,,,,,*0F
$GPGSV,1,1,04,01,00,000,36,11,00,000,40,22,00,000,43,28,00,000,33*70
$LOGTIM,0,0.000000,0.000000,0.000000,0.000000,0.000*0A
EndT:        0
---00000053--- Acq_st=3 2019-5-25 07:25:43 
[00]  G01  f 36   2400.7 2045996.9  1.0  1.0  5  0 545160089
[01]  G11  f 40   2121.7 2045997.3  1.0  1.0  5  0 545160087
[02]  G22  f 43    771.6 2045999.0  1.0  1.0  5  0 545160088
[04]  G28  f 33  -1294.6 2046001.6  1.0  1.0  5  0 545160093
$GNGGA,000000.000,,,,,0,00,,,M,,,,0000*2B
$GNRMC,000000.000,A,,,,,,,000000,,*26
$GPGSA,A,1,,,,,,,,,,,,,,,*1E
$BDGSA,A,1,,,,,,,,,,,,,,,*0F
$GPGSV,1,1,04,01,00,000,36,11,00,000,40,22,00,000,43,28,00,000,33*70
$LOGTIM,0,0.000000,0.000000,0.000000,0.000000,0.000*0A
EndT:        0
---00000054--- Acq_st=3 2019-5-25 07:25:44 
[00]  G01  f 36   2402.4 2045996.9  1.0  1.0  5  0 545161089
[01]  G11  f 40   2123.8 2045997.2  1.0  1.0  5  0 545161087
[02]  G22  f 43    773.6 2045999.0  1.0  1.0  5  0 545161088
[04]  G28  f 33  -1291.9 2046001.6  1.0  0.9  5  0 545161093
$GNGGA,000000.000,,,,,0,00,,,M,,,,0000*2B
$GNRMC,000000.000,A,,,,,,,000000,,*26
$GPGSA,A,1,,,,,,,,,,,,,,,*1E
$BDGSA,A,1,,,,,,,,,,,,,,,*0F
$GPGSV,1,1,04,01,00,000,36,11,00,000,40,22,00,000,43,28,00,000,33*70
$LOGTIM,0,0.000000,0.000000,0.000000,0.000000,0.000*0A
EndT:        0
ch16 satid=44,max_freq = 0,max_mean = 9383,max_phase = 3959,max_value = 177167,acq ok1!
acq ok1 timeH = 0,timeL = 1018695781,freq_stage = 3
---00000055--- Acq_st=3 2019-5-25 07:25:45 
[00]  G01  f 36   2400.2 2045996.9  1.0  1.0  5  0 545162089
[01]  G11  f 40   2120.7 2045997.3  1.0  1.0  5  0 545162087
[02]  G22  f 43    772.6 2045999.0  1.0  1.0  5  0 545162088
[04]  G28  f 33  -1294.4 2046001.7  1.0  0.9  5  0 545162093
[16]  B08  1  7    -36.6 4092000.1  0.1  0.0  1  0         0
$GNGGA,000000.000,,,,,0,00,,,M,,,,0000*2B
$GNRMC,000000.000,A,,,,,,,000000,,*26
$GPGSA,A,1,,,,,,,,,,,,,,,*1E
$BDGSA,A,1,,,,,,,,,,,,,,,*0F
$GPGSV,1,1,04,01,00,000,36,11,00,000,40,22,00,000,43,28,00,000,33*70
$LOGTIM,0,0.000000,0.000000,0.000000,0.000000,0.000*0A
EndT:        0
---00000056--- Acq_st=3 2019-5-25 07:25:46 
[00]  G01  f 36   2400.9 2045996.9  1.0  0.9  5  0 545163089
[01]  G11  f 40   2121.9 2045997.3  1.0  1.0  5  0 545163087
[02]  G22  f 44    773.6 2045999.0  1.0  1.0  5  0 545163088
[04]  G28  f 33  -1293.5 2046001.6  1.0  1.0  5  0 545163093
[16]  B08  7 28    -36.1 4092000.1  0.7  1.0 10  0       885
$GNGGA,000000.000,,,,,0,00,,,M,,,,0000*2B
$GNRMC,000000.000,A,,,,,,,000000,,*26
$GPGSA,A,1,,,,,,,,,,,,,,,*1E
$BDGSA,A,1,,,,,,,,,,,,,,,*0F
$GPGSV,1,1,04,01,00,000,36,11,00,000,40,22,00,000,44,28,00,000,33*77
$BDGSV,1,1,01,08,00,000,28*5B
$LOGTIM,0,0.000000,0.000000,0.000000,0.000000,0.000*0A
EndT:        0
---00000057--- Acq_st=3 2019-5-25 07:25:47 
[00]  G01  f 36   2402.2 2045996.9  1.0  1.0  5  0 545164089
[01]  G11  f 40   2123.7 2045997.2  1.0  1.0  5  0 545164087
[02]  G22  f 43    774.7 2045999.0  1.0  1.0  5  0 545164088
[04]  G28  f 34  -1292.2 2046001.7  1.0  1.0  5  0 545164093
[16]  B08  7 42    -35.2 4092000.1  1.0  1.0  5  0      1881
$GNGGA,000000.000,,,,,0,00,,,M,,,,0000*2B
$GNRMC,000000.000,A,,,,,,,000000,,*26
$GPGSA,A,1,,,,,,,,,,,,,,,*1E
$BDGSA,A,1,,,,,,,,,,,,,,,*0F
$GPGSV,1,1,04,01,00,000,36,11,00,000,40,22,00,000,43,28,00,000,34*77
$BDGSV,1,1,01,08,00,000,42*57
$LOGTIM,0,0.000000,0.000000,0.000000,0.000000,0.000*0A
EndT:        0
---00000058--- Acq_st=3 2019-5-25 07:25:48 
[00]  G01  f 36   2400.0 2045996.9  1.0  1.0  5  0 545165089
[01]  G11  f 40   2120.3 2045997.2  1.0  1.0  5  0 545165087
[02]  G22  f 43    772.8 2045999.0  1.0  1.0  5  0 545165088
[04]  G28  f 34  -1294.5 2046001.7  1.0  1.0  5  0 545165093
[16]  B08  7 42    -37.8 4092000.1  1.0  1.0  5  0      2881
$GNGGA,000000.000,,,,,0,00,,,M,,,,0000*2B
$GNRMC,000000.000,A,,,,,,,000000,,*26
$GPGSA,A,1,,,,,,,,,,,,,,,*1E
$BDGSA,A,1,,,,,,,,,,,,,,,*0F
$GPGSV,1,1,04,01,00,000,36,11,00,000,40,22,00,000,43,28,00,000,34*77
$BDGSV,1,1,01,08,00,000,42*57
$LOGTIM,0,0.000000,0.000000,0.000000,0.000000,0.000*0A
EndT:        0
ch17 satid=46,max_freq = 0,max_mean = 9576,max_phase = 2881,max_value = 64308,acq ok1!
acq ok1 timeH = 0,timeL = 1099869786,freq_stage = 3
---00000059--- Acq_st=3 2019-5-25 07:25:49 
[00]  G01  f 37   2400.3 2045996.8  1.0  1.0  5  0 545166089
[01]  G11  f 40   2120.7 2045997.3  1.0  0.9  5  0 545166087
[02]  G22  f 43    773.1 2045999.0  1.0  1.0  5  0 545166088
[04]  G28  f 34  -1293.5 2046001.7  1.0  1.0  5  0 545166093
[16]  B08  7 42    -37.7 4092000.1  1.0  1.0  5  0      3881
[17]  B10  1  7    -73.9 4092001.2  0.1  0.0  1  0         0
$GNGGA,000000.000,,,,,0,00,,,M,,,,0000*2B
$GNRMC,000000.000,A,,,,,,,000000,,*26
$GPGSA,A,1,,,,,,,,,,,,,,,*1E
$BDGSA,A,1,,,,,,,,,,,,,,,*0F
$GPGSV,1,1,04,01,00,000,37,11,00,000,40,22,00,000,43,28,00,000,34*76
$BDGSV,1,1,01,08,00,000,42*57
$LOGTIM,0,0.000000,0.000000,0.000000,0.000000,0.000*0A
EndT:        0
---00000060--- Acq_st=3 2019-5-25 07:25:50 
[00]  G01  f 37   2401.3 2045996.9  1.0  1.0  5  0 545167089
[01]  G11  f 39   2121.5 2045997.2  1.0  1.0  5  0 545167087
[02]  G22  f 43    775.2 2045999.0  1.0  1.0  5  0 545167088
[04]  G28  f 34  -1291.5 2046001.6  1.0  1.0  5  0 545167093
[16]  B08  7 42    -36.7 4092000.1  1.0  1.0  5  0      4881
[17]  B10  7 22    -88.9 4092000.1  0.1  0.0 20  0       656
$GNGGA,000000.000,,,,,0,00,,,M,,,,0000*2B
$GNRMC,000000.000,A,,,,,,,000000,,*26
$GPGSA,A,1,,,,,,,,,,,,,,,*1E
$BDGSA,A,1,,,,,,,,,,,,,,,*0F
$GPGSV,1,1,04,01,00,000,37,11,00,000,39,22,00,000,43,28,00,000,34*78
$BDGSV,1,1,02,08,00,000,42,10,00,000,22*65
$LOGTIM,0,0.000000,0.000000,0.000000,0.000000,0.000*0A
EndT:        0
ch18 satid=47,max_freq = -1750,max_mean = 9241,max_phase = 525,max_value = 166650,acq ok1!
acq ok1 timeH = 0,timeL = 1144513566,freq_stage = 4
---00000061--- Acq_st=3 2019-5-25 07:25:51 
[00]  G01  f 36   2404.7 2045996.8  1.0  1.0  5  0 545168089
[01]  G11  f 40   2125.3 2045997.2  1.0  1.0  5  0 545168087
[02]  G22  f 43    778.8 2045999.0  1.0  1.0  5  0 545168088
[04]  G28  f 34  -1288.0 2046001.6  1.0  1.0  5  0 545168093
[16]  B08  7 42    -33.3 4092000.1  1.0  1.0  5  0      5881
[17]  B10  7 36    -86.0 4092000.1  0.7  1.0  5  0      1641
[18]  B11  1  7   1407.5 4091997.5 -0.0  0.0  1  0         0
$GNGGA,000000.000,,,,,0,00,,,M,,,,0000*2B
$GNRMC,000000.000,A,,,,,,,000000,,*26
$GPGSA,A,1,,,,,,,,,,,,,,,*1E
$BDGSA,A,1,,,,,,,,,,,,,,,*0F
$GPGSV,1,1,04,01,00,000,36,11,00,000,40,22,00,000,43,28,00,000,34*77
$BDGSV,1,1,02,08,00,000,42,10,00,000,36*60
$LOGTIM,0,0.000000,0.000000,0.000000,0.000000,0.000*0A
EndT:        0
---00000062--- Acq_st=3 2019-5-25 07:25:52 
[00]  G01  f 36   2405.7 2045996.9  1.0  1.0  5  0 545169089
[01]  G11  f 39   2125.7 2045997.3  1.0  1.0  5  0 545169087
[02]  G22  f 44    780.3 2045999.0  1.0  1.0  5  0 545169088
[04]  G28  f 34  -1287.2 2046001.7  1.0  1.0  5  0 545169093
[16]  B08 1f 42    -32.5 4092000.1  1.0  1.0  5  0      6881
[17]  B10 1f 37    -85.5 4092000.2  1.0  0.9  5  0      2641
[18]  B11  1  8   1408.3 4091999.2 -0.2  0.0  1  0       543
$GNGGA,000000.000,,,,,0,00,,,M,,,,0000*2B
$GNRMC,000000.000,A,,,,,,,000000,,*26
$GPGSA,A,1,,,,,,,,,,,,,,,*1E
$BDGSA,A,1,,,,,,,,,,,,,,,*0F
$GPGSV,1,1,04,01,00,000,36,11,00,000,39,22,00,000,44,28,00,000,34*7E
$BDGSV,1,1,02,08,00,000,42,10,00,000,37*61
$LOGTIM,0,0.000000,0.000000,0.000000,0.000000,0.000*0A
EndT:        0
---00000063--- Acq_st=3 2019-5-25 07:25:53 
[00]  G01  f 36   2404.3 2045996.9  1.0  0.9  5  0 545170089
[01]  G11  f 39   2125.3 2045997.3  1.0  1.0  5  0 545170087
[02]  G22  f 43    779.6 2045999.0  1.0  1.0  5  0 545170088
[04]  G28  f 34  -1287.3 2046001.6  1.0  0.9  5  0 545170093
[16]  B08 1f 42    -33.7 4092000.1  1.0  1.0  5  0 545156041
[17]  B10 1f 37    -85.9 4092000.3  1.0  1.0  5  0 545156041
[18]  B11  1 16   1386.9 4091998.0 -0.0  0.0  1  0      1543
$GNGGA,000000.000,,,,,0,00,,,M,,,,0000*2B
$GNRMC,000000.000,A,,,,,,,000000,,*26
$GPGSA,A,1,,,,,,,,,,,,,,,*1E
$BDGSA,A,1,,,,,,,,,,,,,,,*0F
$GPGSV,1,1,04,01,00,000,36,11,00,000,39,22,00,000,43,28,00,000,34*79
$BDGSV,1,1,02,08,00,000,42,10,00,000,37*61
$LOGTIM,0,0.000000,0.000000,0.000000,0.000000,0.000*0A
EndT:        0
---00000064--- Acq_st=3 2019-5-25 07:25:54 
[00]  G01  f 37   2401.9 2045996.8  1.0  1.0  5  0 545171089
[01]  G11  f 40   2121.7 2045997.2  1.0  1.0  5  0 545171087
[02]  G22  f 43    776.7 2045999.0  1.0  1.0  5  0 545171088
[04]  G28  f 34  -1290.8 2046001.6  1.0  0.9  5  0 545171093
[16]  B08 1f 42    -36.9 4092000.1  1.0  1.0  5  0 545157041
[17]  B10 1f 37    -89.4 4092000.3  1.0  0.9  5  0 545157041
lsq: nits= 5
$GNGGA,072554.162,3112.7274,N,12136.4523,E,1,04,9.1,97.8,M,,,,0000*2F
$GNRMC,072554.162,A,3112.7274,N,12136.4523,E,0.24,0.00,250519,,*15
$GPGSA,A,3,01,11,22,28,,,,,,,,,20.0,9.1,17.8*3D
$BDGSA,A,3,,,,,,,,,,,,,20.0,9.1,17.8*27
$GPGSV,1,1,04,01,00,000,37,11,00,000,40,22,00,000,43,28,00,000,34*76
$BDGSV,1,1,02,08,00,000,42,10,00,000,37*61
$LOGTIM,1,8198938.349222,0.000000,0.000000,0.000000,-61.802*1D
EndT:        0
ch19 satid=49,max_freq = 0,max_mean = 9571,max_phase = 3245,max_value = 87940,acq ok1!
acq ok1 timeH = 0,timeL = 1221630800,freq_stage = 3
---00000065--- Acq_st=3 2019-5-25 07:25:55 
[00]  G01  f 37   2402.1 2045996.8  1.0  1.0  5  0 545172089
[01]  G11  f 40   2123.0 2045997.2  1.0  1.0  5  0 545172087
[02]  G22  f 43    778.0 2045999.0  1.0  1.0  5  0 545172088
[04]  G28  f 33  -1288.7 2046001.7  1.0  1.0  5  0 545172093
[16]  B08 1f 42    -36.3 4092000.1  1.0  1.0  5  0 545158041
[17]  B10 1f 37    -88.4 4092000.3  1.0  0.9  5  0 545158041
[19]  B13  1  7    -25.1 4092001.6  0.1  0.0  1  0         0
lsq: nits= 5
$GNGGA,072556.000,3112.7283,N,12136.4553,E,1,04,9.1,108.7,M,,,,0000*1F
$GNRMC,072556.000,A,3112.7283,N,12136.4553,E,1.35,0.00,250519,,*1C
$GPGSA,A,3,01,11,22,28,,,,,,,,,20.0,9.1,17.8*3D
$BDGSA,A,3,,,,,,,,,,,,,20.0,9.1,17.8*27
$GPGSV,1,1,04,01,00,000,37,11,00,000,40,22,00,000,43,28,00,000,33*71
$BDGSV,1,1,02,08,00,000,42,10,00,000,37*61
$LOGTIM,1,-103.344808,0.000000,0.000000,0.000000,-60.941*30
EndT:        0
---00000066--- Acq_st=3 2019-5-25 07:25:56 
[00]  G01  f 37   2398.8 2045996.9  1.0  1.0  5  0 545173927
[01]  G11  f 40   2118.4 2045997.3  1.0  1.0  5  0 545173925
[02]  G22  f 43    775.1 2045999.0  1.0  1.0  5  0 545173925
[04]  G28  f 34  -1292.8 2046001.7  1.0  0.9  5  0 545173931
[16]  B08 1f 42    -40.0 4092000.1  1.0  1.0  5  0 545159878
[17]  B10 1f 37    -92.3 4092000.3  1.0  1.0  5  0 545159879
[19]  B13  1  7     91.0 4092002.8 -0.0  0.0  1  0      1152
lsq: nits= 5
$GNGGA,072557.000,3112.7251,N,12136.4520,E,1,04,9.1,92.7,M,,,,0000*27
$GNRMC,072557.000,A,3112.7251,N,12136.4520,E,0.37,0.00,250519,,*15
$GPGSA,A,3,01,11,22,28,,,,,,,,,20.0,9.1,17.8*3D
$BDGSA,A,3,,,,,,,,,,,,,20.0,9.1,17.8*27
$GPGSV,1,1,04,01,40,037,37,11,32,054,40,22,41,069,43,28,76,312,34*7D
$BDGSV,1,1,02,08,00,000,42,10,00,000,37*61
$LOGTIM,1,-181.088006,0.000000,0.000000,0.000000,-62.940*3C
EndT:        0
---00000067--- Acq_st=3 2019-5-25 07:25:57 
[00]  G01  f 38   2397.9 2045996.9  1.0  1.0  5  0 545174927
[01]  G11  f 39   2117.6 2045997.2  1.0  1.0  5  0 545174925
[02]  G22  f 43    774.0 2045999.0  1.0  1.0  5  0 545174925
[04]  G28  f 33  -1293.5 2046001.6  1.0  1.0  5  0 545174931
[16]  B08 1f 42    -41.2 4092000.1  1.0  1.0  5  0 545160878
[17]  B10 1f 37    -93.7 4092000.2  1.0  1.0  5  0 545160879
[19]  B13  1 15     84.1 4092001.1 -0.1  0.0  1  0      2152
lsq: nits= 5
$GNGGA,072558.000,3112.7207,N,12136.4429,E,1,04,9.1,69.9,M,,,,0000*29
$GNRMC,072558.000,A,3112.7207,N,12136.4429,E,1.73,0.00,250519,,*10
$GPGSA,A,3,01,11,22,28,,,,,,,,,20.0,9.1,17.8*3D
$BDGSA,A,3,,,,,,,,,,,,,20.0,9.1,17.8*27
$GPGSV,1,1,04,01,40,037,38,11,32,054,39,22,41,069,43,28,76,312,33*7B
$BDGSV,1,1,02,08,00,000,42,10,00,000,37*61
$LOGTIM,1,-270.253792,0.000000,0.000000,0.000000,-64.029*3F
EndT:        0
---00000068--- Acq_st=3 2019-5-25 07:25:58 
[00]  G01  f 37   2396.4 2045996.9  1.0  1.0  5  0 545175927
[01]  G11  f 39   2116.3 2045997.3  1.0  0.9  5  0 545175925
[02]  G22  f 43    773.7 2045999.0  1.0  1.0  5  0 545175925
[04]  G28  f 32  -1293.9 2046001.7  1.0  0.9  5  0 545175931
[16]  B08 1f 42    -42.6 4092000.1  1.0  1.0  5  0 545161878
[17]  B10 1f 37    -94.3 4092000.3  1.0  0.9  5  0 545161879
[19]  B13  1 15     83.0 4092000.7  0.1  0.0  1  0      3152
lsq: nits= 5
$GNGGA,072559.000,3112.7197,N,12136.4434,E,1,04,9.1,74.3,M,,,,0000*28
$GNRMC,072559.000,A,3112.7197,N,12136.4434,E,0.52,0.00,250519,,*15
$GPGSA,A,3,01,11,22,28,,,,,,,,,20.0,9.1,17.8*3D
$BDGSA,A,3,,,,,,,,,,,,,20.0,9.1,17.8*27
$GPGSV,1,1,04,01,40,037,37,11,32,054,39,22,41,069,43,28,76,312,32*75
$BDGSV,1,1,02,08,00,000,42,10,00,000,37*61
$LOGTIM,1,-331.108657,0.000000,0.000000,0.000000,-63.618*3D
EndT:        0
---00000069--- Acq_st=3 2019-5-25 07:25:59 
[00]  G01  f 38   2394.0 2045996.9  1.0  1.0  5  0 545176927
[01]  G11  f 40   2114.3 2045997.3  1.0  1.0  5  0 545176925
[02]  G22  f 43    771.6 2045999.0  1.0  1.0  5  0 545176925
[04]  G28  f 32  -1295.8 2046001.7  1.0  0.9  5  0 545176931
[16]  B08 1f 42    -45.0 4092000.1  1.0  1.0  5  0 545162878
[17]  B10 1f 37    -97.2 4092000.3  1.0  1.0  5  0 545162879
lsq: nits= 5
$GNGGA,072600.000,3112.7245,N,12136.4496,E,1,04,9.1,100.2,M,,,,0000*10
$GNRMC,072600.000,A,3112.7245,N,12136.4496,E,0.51,0.00,250519,,*1D
$GPGSA,A,3,01,11,22,28,,,,,,,,,19.9,9.1,17.8*3E
$BDGSA,A,3,,,,,,,,,,,,,19.9,9.1,17.8*24
$GPGSV,1,1,04,01,40,037,38,11,32,054,40,22,41,069,43,28,76,312,32*74
$BDGSV,1,1,02,08,00,000,42,10,00,000,37*61
$LOGTIM,1,-369.398102,0.000000,0.000000,0.000000,-63.283*3A
EndT:        0
---00000070--- Acq_st=3 2019-5-25 07:26:0 
[00]  G01  f 38   2396.4 2045996.9  1.0  1.0  5  0 545177927
[01]  G11  f 39   2115.4 2045997.3  1.0  1.0  5  0 545177925
[02]  G22  f 43    773.1 2045999.0  1.0  1.0  5  0 545177925
[04]  G28  f 32  -1294.3 2046001.7  1.0  0.9  5  0 545177931
[16]  B08 1f 42    -43.6 4092000.1  1.0  1.0  5  0 545163878
[17]  B10 1f 36    -95.1 4092000.3  1.0  1.0  5  0 545163879
lsq: nits= 5
$GNGGA,072601.000,3112.7303,N,12136.4546,E,1,04,9.1,125.4,M,,,,0000*1F
$GNRMC,072601.000,A,3112.7303,N,12136.4546,E,1.27,0.00,250519,,*13
$GPGSA,A,3,01,11,22,28,,,,,,,,,19.9,9.1,17.8*3E
$BDGSA,A,3,,,,,,,,,,,,,19.9,9.1,17.8*24
$GPGSV,1,1,04,01,40,037,38,11,32,054,39,22,41,069,43,28,76,312,32*7A
$BDGSV,1,1,02,08,00,000,42,10,00,000,36*60
$LOGTIM,1,-408.269747,0.000000,0.000000,0.000000,-64.375*3D
EndT:        0
---00000071--- Acq_st=3 2019-5-25 07:26:1 
[00]  G01  f 37   2395.2 2045996.9  1.0  1.0  5  0 545178927
[01]  G11  f 40   2116.0 2045997.2  1.0  1.0  5  0 545178925
[02]  G22  f 43    773.6 2045999.0  1.0  1.0  5  0 545178925
[04]  G28  f 32  -1294.5 2046001.7  1.0  0.9  5  0 545178931
[16]  B08 1f 42    -43.9 4092000.1  1.0  1.0  5  0 545164878
[17]  B10 1f 37    -96.1 4092000.2  1.0  1.0  5  0 545164879
lsq: nits= 5
$GNGGA,072602.000,3112.7305,N,12136.4556,E,1,04,9.1,129.2,M,,,,0000*11
$GNRMC,072602.000,A,3112.7305,N,12136.4556,E,2.06,0.00,250519,,*17
$GPGSA,A,3,01,11,22,28,,,,,,,,,19.9,9.1,17.8*3E
$BDGSA,A,3,,,,,,,,,,,,,19.9,9.1,17.8*24
$GPGSV,1,1,04,01,40,037,37,11,32,054,40,22,41,069,43,28,76,312,32*7B
$BDGSV,1,1,02,08,00,000,42,10,00,000,37*61
$LOGTIM,1,-468.851100,0.000000,0.000000,0.000000,-65.651*3D
EndT:        0
---00000072--- Acq_st=3 2019-5-25 07:26:2 
[00]  G01  f 38   2392.7 2045996.9  1.0  1.0  5  0 545179927
[01]  G11  f 39   2112.8 2045997.3  1.0  0.9  5  0 545179925
[02]  G22  f 43    771.4 2045999.0  1.0  1.0  5  0 545179925
[04]  G28  f 31  -1297.0 2046001.7  1.0  0.9  5  0 545179931
[16]  B08 1f 42    -47.0 4092000.1  1.0  1.0  5  0 545165878
[17]  B10 1f 37    -98.1 4092000.2  1.0  0.9  5  0 545165879
lsq: nits= 5
$GNGGA,072603.000,3112.7269,N,12136.4513,E,1,04,9.1,114.6,M,,,,0000*10
$GNRMC,072603.000,A,3112.7269,N,12136.4513,E,0.37,0.00,250519,,*1C
$GPGSA,A,3,01,11,22,28,,,,,,,,,19.9,9.1,17.7*31
$BDGSA,A,3,,,,,,,,,,,,,19.9,9.1,17.7*2B
$GPGSV,1,1,04,01,40,037,38,11,32,054,39,22,41,069,43,28,76,312,31*79
$BDGSV,1,1,02,08,00,000,42,10,00,000,37*61
$LOGTIM,1,-549.690450,0.000000,0.000000,0.000000,-63.847*33
EndT:        0
---00000073--- Acq_st=3 2019-5-25 07:26:3 
[00]  G01  f 37   2394.6 2045996.8  1.0  1.0  5  0 545180927
[01]  G11  f 39   2115.2 2045997.3  1.0  1.0  5  0 545180925
[02]  G22  f 42    774.1 2045999.0  1.0  1.0  5  0 545180925
[04]  G28  f 31  -1294.4 2046001.6  1.0  0.9  5  0 545180931
[16]  B08 1f 42    -45.1 4092000.1  1.0  1.0  5  0 545166878
[17]  B10 1f 37    -96.4 4092000.2  1.0  1.0  5  0 545166879
lsq: nits= 5
$GNGGA,072604.000,3112.7259,N,12136.4509,E,1,04,9.1,120.3,M,,,,0000*1D
$GNRMC,072604.000,A,3112.7259,N,12136.4509,E,0.91,0.00,250519,,*1F
$GPGSA,A,3,01,11,22,28,,,,,,,,,19.9,9.1,17.7*31
$BDGSA,A,3,,,,,,,,,,,,,19.9,9.1,17.7*2B
$GPGSV,1,1,04,01,40,037,37,11,32,054,39,22,41,069,42,28,76,312,31*77
$BDGSV,1,1,02,08,00,000,42,10,00,000,37*61
$LOGTIM,1,-611.733628,0.000000,0.000000,0.000000,-63.504*32
EndT:        0
---00000074--- Acq_st=3 2019-5-25 07:26:4 
[00]  G01  f 37   2399.7 2045996.9  1.0  1.0  5  0 545181927
[01]  G11  f 39   2119.0 2045997.2  1.0  1.0  5  0 545181925
[02]  G22  f 42    778.5 2045999.0  1.0  1.0  5  0 545181925
[04]  G28  f 31  -1290.0 2046001.7  1.0  0.9  5  0 545181931
[16]  B08 1f 42    -40.0 4092000.1  1.0  1.0  5  0 545167878
[17]  B10 1f 37    -92.4 4092000.3  1.0  0.9  5  0 545167879
lsq: nits= 5
$GNGGA,072605.000,3112.7224,N,12136.4466,E,1,04,9.1,109.8,M,,,,0000*1E
$GNRMC,072605.000,A,3112.7224,N,12136.4466,E,1.27,0.00,250519,,*10
$GPGSA,A,3,01,11,22,28,,,,,,,,,19.9,9.1,17.7*31
$BDGSA,A,3,,,,,,,,,,,,,19.9,9.1,17.7*2B
$GPGSV,1,1,04,01,40,037,37,11,32,054,39,22,41,069,42,28,76,312,31*77
$BDGSV,1,1,02,08,00,000,42,10,00,000,37*61
$LOGTIM,1,-687.952244,0.000000,0.000000,0.000000,-63.710*3D
EndT:        0
---00000075--- Acq_st=3 2019-5-25 07:26:5 
[00]  G01  f 38   2398.1 2045996.9  1.0  1.0  5  0 545182927
[01]  G11  f 39   2117.9 2045997.2  1.0  0.9  5  0 545182925
[02]  G22  f 43    777.9 2045999.0  1.0  1.0  5  0 545182925
[04]  G28  f 31  -1289.7 2046001.7  1.0  0.9  5  0 545182931
[16]  B08 1f 42    -41.5 4092000.1  1.0  1.0  5  0 545168878
[17]  B10 1f 37    -93.2 4092000.2  1.0  0.9  5  0 545168879
lsq: nits= 5
$GNGGA,072606.000,3112.7166,N,12136.4413,E,1,04,9.1,87.0,M,,,,0000*25
$GNRMC,072606.000,A,3112.7166,N,12136.4413,E,0.43,0.00,250519,,*17
$GPGSA,A,3,01,11,22,28,,,,,,,,,19.9,9.1,17.7*31
$BDGSA,A,3,,,,,,,,,,,,,19.9,9.1,17.7*2B
$GPGSV,1,1,04,01,40,037,38,11,32,054,39,22,41,069,43,28,76,312,31*79
$BDGSV,1,1,02,08,00,000,42,10,00,000,37*61
$LOGTIM,1,-774.826237,0.000000,0.000000,0.000000,-62.051*35
EndT:        0
---00000076--- Acq_st=3 2019-5-25 07:26:6 
[00]  G01  f 38   2401.1 2045996.9  1.0  1.0  5  0 545183927
[01]  G11  f 39   2120.1 2045997.3  1.0  1.0  5  0 545183925
[02]  G22  f 43    780.8 2045999.0  1.0  1.0  5  0 545183925
[04]  G28  f 31  -1287.1 2046001.7  1.0  0.9  5  0 545183931
[16]  B08 1f 42    -39.7 4092000.1  1.0  1.0  5  0 545169878
[17]  B10 1f 37    -90.8 4092000.2  1.0  0.9  5  0 545169879
lsq: nits= 5
$GNGGA,072607.000,3112.7153,N,12136.4402,E,1,04,9.0,86.1,M,,,,0000*23
$GNRMC,072607.000,A,3112.7153,N,12136.4402,E,1.57,0.00,250519,,*14
$GPGSA,A,3,01,11,22,28,,,,,,,,,19.9,9.0,17.7*30
$BDGSA,A,3,,,,,,,,,,,,,19.9,9.0,17.7*2A
$GPGSV,1,1,04,01,40,037,38,11,32,054,39,22,41,069,43,28,76,312,31*79
$BDGSV,1,1,02,08,00,000,42,10,00,000,37*61
$LOGTIM,1,-839.500208,0.000000,0.000000,0.000000,-63.003*30
EndT:        0
---00000077--- Acq_st=3 2019-5-25 07:26:7 
[00]  G01  f 37   2405.2 2045996.9  1.0  0.9  5  0 545184927
[01]  G11  f 39   2124.9 2045997.3  1.0  0.9  5  0 545184925
[02]  G22  f 43    786.0 2045999.0  1.0  1.0  5  0 545184925
[04]  G28  f 30  -1284.4 2046001.7  0.9  0.9  5  0 545184931
[16]  B08 1f 42    -35.0 4092000.1  1.0  1.0  5  0 545170878
[17]  B10 1f 37    -85.6 4092000.3  1.0  1.0  5  0 545170879
lsq: nits= 5
$GNGGA,072608.000,3112.7144,N,12136.4386,E,1,04,9.0,87.9,M,,,,0000*28
$GNRMC,072608.000,A,3112.7144,N,12136.4386,E,1.33,0.00,250519,,*14
$GPGSA,A,3,01,11,22,28,,,,,,,,,19.9,9.0,17.7*30
$BDGSA,A,3,,,,,,,,,,,,,19.9,9.0,17.7*2A
$GPGSV,1,1,04,01,40,037,37,11,32,054,39,22,41,069,43,28,76,312,30*77
$BDGSV,1,1,02,08,00,000,42,10,00,000,37*61
$LOGTIM,1,-901.375410,0.000000,0.000000,0.000000,-59.664*3F
EndT:        0
---00000078--- Acq_st=3 2019-5-25 07:26:8 
[00]  G01  f 37   2410.5 2045996.9  1.0  1.0  5  0 545185927
[01]  G11  f 40   2129.5 2045997.2  1.0  1.0  5  0 545185925
[02]  G22  f 43    790.7 2045999.0  1.0  1.0  5  0 545185925
[04]  G28  f 29  -1276.0 2046001.6  0.9  0.9  5  0 545185931
[16]  B08 1f 41    -30.6 4092000.1  1.0  1.0  5  0 545171878
[17]  B10 1f 37    -81.4 4092000.2  1.0  1.0  5  0 545171879
lsq: nits= 5
$GNGGA,072609.000,3112.7156,N,12136.4318,E,1,04,9.0,72.9,M,,,,0000*27
$GNRMC,072609.000,A,3112.7156,N,12136.4318,E,1.62,0.00,250519,,*15
$GPGSA,A,3,01,11,22,28,,,,,,,,,19.9,9.0,17.7*30
$BDGSA,A,3,,,,,,,,,,,,,19.9,9.0,17.7*2A
$GPGSV,1,1,04,01,40,037,37,11,32,054,40,22,41,069,43,28,76,312,29*71
$BDGSV,1,1,02,08,00,000,41,10,00,000,37*62
$LOGTIM,1,-977.272241,0.000000,0.000000,0.000000,-60.146*37
EndT:        0
---00000079--- Acq_st=3 2019-5-25 07:26:9 
[00]  G01  f 37   2406.3 2045997.0  1.0  0.9  5  0 545186927
[01]  G11  f 39   2125.5 2045997.2  1.0  1.0  5  0 545186925
[02]  G22  f 43    787.2 2045999.0  1.0  1.0  5  0 545186925
[04]  G28  f 29  -1282.7 2046001.7  1.0  1.0  5  0 545186931
[16]  B08 1f 41    -34.5 4092000.1  1.0  1.0  5  0 545172878
[17]  B10 1f 37    -86.0 4092000.2  1.0  0.9  5  0 545172879
lsq: nits= 5
$GNGGA,072610.000,3112.7207,N,12136.4349,E,1,04,9.0,89.3,M,,,,0000*22
$GNRMC,072610.000,A,3112.7207,N,12136.4349,E,2.05,0.00,250519,,*1C
$GPGSA,A,3,01,11,22,28,,,,,,,,,19.9,9.0,17.7*30
$BDGSA,A,3,,,,,,,,,,,,,19.9,9.0,17.7*2A
$GPGSV,1,1,04,01,40,037,37,11,32,054,39,22,41,069,43,28,76,312,29*7F
$BDGSV,1,1,02,08,00,000,41,10,00,000,37*62
$LOGTIM,1,-1021.426101,0.000000,0.000000,0.000000,-62.588*08
EndT:        0
---00000080--- Acq_st=3 2019-5-25 07:26:10 
[00]  G01  f 37   2409.2 2045996.9  1.0  1.0  5  0 545187927
[01]  G11  f 39   2128.8 2045997.2  1.0  1.0  5  0 545187925
[02]  G22  f 43    790.9 2045999.0  1.0  1.0  5  0 545187925
[04]  G28  f 29  -1277.6 2046001.8  0.9  0.9  5  0 545187931
[16]  B08 1f 41    -31.1 4092000.1  1.0  1.0  5  0 545173878
[17]  B10 1f 37    -82.4 4092000.2  1.0  1.0  5  0 545173879
lsq: nits= 5
$GNGGA,072611.000,3112.7229,N,12136.4318,E,1,04,9.0,87.0,M,,,,0000*26
$GNRMC,072611.000,A,3112.7229,N,12136.4318,E,1.32,0.00,250519,,*12
$GPGSA,A,3,01,11,22,28,,,,,,,,,19.9,9.0,17.7*30
$BDGSA,A,3,,,,,,,,,,,,,19.9,9.0,17.7*2A
$GPGSV,1,1,04,01,40,037,37,11,32,054,39,22,41,069,43,28,76,312,29*7F
$BDGSV,1,1,02,08,00,000,41,10,00,000,37*62
$LOGTIM,1,-1084.974762,0.000000,0.000000,0.000000,-62.558*03
EndT:        0
---00000081--- Acq_st=3 2019-5-25 07:26:11 
[00]  G01  f 36   2406.5 2045996.9  1.0  0.9  5  0 545188927
[01]  G11  f 39   2125.8 2045997.3  1.0  1.0  5  0 545188925
[02]  G22  f 43    788.2 2045998.9  1.0  1.0  5  0 545188925
[04]  G28  f 28  -1282.3 2046001.8  0.9  0.8  5  0 545188931
[16]  B08 1f 41    -34.8 4092000.1  1.0  1.0  5  0 545174878
[17]  B10 1f 37    -85.3 4092000.2  1.0  1.0  5  0 545174879
ch18 satid=57,max_freq = -1000,max_mean = 9301,max_phase = 3317,max_value = 117605,acq ok1!
acq ok1 timeH = 0,timeL = 1550383616,freq_stage = 4
lsq: nits= 5
$GNGGA,072612.000,3112.7226,N,12136.4245,E,1,04,9.0,79.3,M,,,,0000*21
$GNRMC,072612.000,A,3112.7226,N,12136.4245,E,1.66,0.00,250519,,*16
$GPGSA,A,3,01,11,22,28,,,,,,,,,19.9,9.0,17.7*30
$BDGSA,A,3,,,,,,,,,,,,,19.9,9.0,17.7*2A
$GPGSV,1,1,04,01,40,037,36,11,32,054,39,22,41,069,43,28,76,312,28*7F
$BDGSV,1,1,02,08,00,000,41,10,00,000,37*62
$LOGTIM,1,-1159.044113,0.000000,0.000000,0.000000,-63.207*04
EndT:        0
---00000082--- Acq_st=3 2019-5-25 07:26:12 
[00]  G01  f 36   2404.4 2045996.9  1.0  1.0  5  0 545189927
[01]  G11  f 40   2123.4 2045997.2  1.0  1.0  5  0 545189925
[02]  G22  f 43    786.5 2045999.0  1.0  1.0  5  0 545189925
[04]  G28  f 28  -1281.7 2046001.7  1.0  1.0  5  0 545189931
[16]  B08 1f 41    -37.1 4092000.1  1.0  1.0  5  0 545175878
[17]  B10 1f 37    -87.3 4092000.2  1.0  1.0  5  0 545175879
[18]  B21  1  7    977.7 4091996.2  0.0  0.0  1  0       241
lsq: nits= 5
$GNGGA,072613.000,3112.7230,N,12136.4176,E,1,04,9.0,67.3,M,,,,0000*2B
$GNRMC,072613.000,A,3112.7230,N,12136.4176,E,0.25,0.00,250519,,*15
$GPGSA,A,3,01,11,22,28,,,,,,,,,19.9,9.0,17.7*30
$BDGSA,A,3,,,,,,,,,,,,,19.9,9.0,17.7*2A
$GPGSV,1,1,04,01,40,037,36,11,32,054,40,22,41,069,43,28,76,312,28*71
$BDGSV,1,1,02,08,00,000,41,10,00,000,37*62
$LOGTIM,1,-1234.414594,0.000000,0.000000,0.000000,-61.324*04
EndT:        0
---00000083--- Acq_st=3 2019-5-25 07:26:13 
[00]  G01  f 36   2406.1 2045996.8  1.0  0.9  5  0 545190927
[01]  G11  f 40   2125.0 2045997.3  1.0  0.9  5  0 545190925
[02]  G22  f 44    788.6 2045999.0  1.0  1.0  5  0 545190925
[04]  G28  f 28  -1280.6 2046001.8  0.9  0.8  5  0 545190931
[16]  B08 1f 41    -35.3 4092000.1  1.0  1.0  5  0 545176878
[17]  B10 1f 37    -85.7 4092000.2  1.0  1.0  5  0 545176879
[18]  B21  1  7    944.9 4091997.4  0.2  0.0  1  0      1241
lsq: nits= 5
$GNGGA,072614.000,3112.7209,N,12136.4124,E,1,04,9.0,54.1,M,,,,0000*23
$GNRMC,072614.000,A,3112.7209,N,12136.4124,E,0.10,0.00,250519,,*19
$GPGSA,A,3,01,11,22,28,,,,,,,,,19.9,9.0,17.7*30
$BDGSA,A,3,,,,,,,,,,,,,19.9,9.0,17.7*2A
$GPGSV,1,1,04,01,40,037,36,11,32,054,40,22,41,069,44,28,76,312,28*76
$BDGSV,1,1,02,08,00,000,41,10,00,000,37*62
$LOGTIM,1,-1310.766410,0.000000,0.000000,0.000000,-61.787*05
EndT:        0
---00000084--- Acq_st=3 2019-5-25 07:26:14 
[00]  G01  f 36   2405.5 2045996.9  1.0  1.0  5  0 545191927
[01]  G11  f 39   2124.7 2045997.2  1.0  1.0  5  0 545191925
[02]  G22  f 44    788.5 2045999.0  1.0  1.0  5  0 545191925
[04]  G28  f 28  -1280.2 2046001.7  0.9  1.0  5  0 545191931
[16]  B08 1f 41    -36.0 4092000.1  1.0  1.0  5  0 545177878
[17]  B10 1f 37    -86.3 4092000.2  1.0  1.0  5  0 545177879
[18]  B21  7 38    944.2 4091997.5  0.6  1.0  5  0      2234
lsq: nits= 4
$GNGGA,072615.000,3112.7009,N,12136.3923,E,1,06,8.0,-28.9,M,,,,0000*05
$GNRMC,072615.000,A,3112.7009,N,12136.3923,E,0.78,0.00,250519,,*1C
$GPGSA,A,3,01,11,22,28,,,,,,,,,18.0,8.0,16.2*3D
$BDGSA,A,3,08,10,,,,,,,,,,,18.0,8.0,16.2*2E
$GPGSV,1,1,04,01,40,037,36,11,32,054,39,22,41,069,44,28,76,312,28*78
$BDGSV,1,1,03,08,00,000,41,10,00,000,37,21,00,000,38*5B
$LOGTIM,3,-1460.140546,-1569.557270,0.000000,0.000000,-62.449*11
EndT:        0
---00000085--- Acq_st=3 2019-5-25 07:26:15 
[00]  G01  f 37   2406.1 2045996.8  1.0  1.0  5  0 545192927
[01]  G11  f 40   2124.7 2045997.3  1.0  1.0  5  0 545192925
[02]  G22  f 44    789.2 2045999.0  1.0  1.0  5  0 545192925
[04]  G28  f 28  -1280.0 2046001.6  0.9  0.9  5  0 545192931
[16]  B08 1f 41    -36.3 4092000.1  1.0  1.0  5  0 545178878
[17]  B10 1f 37    -85.8 4092000.2  1.0  0.9  5  0 545178879
[18]  B21  7 39    944.6 4091997.6  1.0  1.0  5  0      3234
lsq: nits= 4
$GNGGA,072616.000,3112.7007,N,12136.3896,E,1,06,8.0,-32.0,M,,,,0000*05
$GNRMC,072616.000,A,3112.7007,N,12136.3896,E,0.13,0.00,250519,,*13
$GPGSA,A,3,01,11,22,28,,,,,,,,,18.0,8.0,16.2*3D
$BDGSA,A,3,08,10,,,,,,,,,,,18.0,8.0,16.2*2E
$GPGSV,1,1,04,01,40,037,37,11,32,054,40,22,41,069,44,28,77,312,28*76
$BDGSV,1,1,03,08,68,300,41,10,72,257,37,21,00,000,39*52
$LOGTIM,3,-1525.849580,-1631.852735,0.000000,0.000000,-60.919*13
EndT:        0
---00000086--- Acq_st=3 2019-5-25 07:26:16 
[00]  G01  f 37   2410.2 2045996.9  1.0  1.0  5  0 545193927
[01]  G11  f 40   2128.9 2045997.2  1.0  1.0  5  0 545193925
[02]  G22  f 44    793.9 2045999.0  1.0  1.0  5  0 545193925
[04]  G28  f 28  -1276.9 2046001.8  0.9  0.9  5  0 545193931
[16]  B08 1f 41    -31.5 4092000.1  1.0  1.0  5  0 545179878
[17]  B10 1f 37    -81.6 4092000.2  1.0  0.9  5  0 545179879
[18]  B21 1f 38    949.1 4091997.5  1.0  1.0  5  0 545179914
lsq: nits= 4
$GNGGA,072617.000,3112.7012,N,12136.3904,E,1,06,8.0,-30.4,M,,,,0000*0C
$GNRMC,072617.000,A,3112.7012,N,12136.3904,E,1.39,0.00,250519,,*15
$GPGSA,A,3,01,11,22,28,,,,,,,,,18.0,8.0,16.2*3D
$BDGSA,A,3,08,10,,,,,,,,,,,18.0,8.0,16.2*2E
$GPGSV,1,1,04,01,40,037,37,11,32,054,40,22,41,069,44,28,77,312,28*76
$BDGSV,1,1,03,08,68,300,41,10,72,257,37,21,00,000,38*53
$LOGTIM,3,-1584.825013,-1691.364018,0.000000,0.000000,-59.479*10
EndT:        0
---00000087--- Acq_st=3 2019-5-25 07:26:17 
[00]  G01  f 37   2408.8 2045996.9  1.0  1.0  5  0 545194927
[01]  G11  f 40   2127.7 2045997.2  1.0  1.0  5  0 545194925
[02]  G22  f 44    793.0 2045999.0  1.0  1.0  5  0 545194925
[04]  G28  f 28  -1276.4 2046001.7  0.9  1.1  5  0 545194931
[16]  B08 1f 41    -32.6 4092000.1  1.0  1.0  5  0 545180878
[17]  B10 1f 37    -83.0 4092000.2  1.0  0.9  5  0 545180879
[18]  B21 1f 38    948.5 4091997.5  1.0  1.0  5  0 545180914
lsq: nits= 4
$GNGGA,072618.000,3112.6196,N,12136.3370,E,1,06,8.0,-323.3,M,,,,0000*30
$GNRMC,072618.000,A,3112.6196,N,12136.3370,E,1.12,0.00,250519,,*16
$GPGSA,A,3,01,11,22,28,,,,,,,,,18.0,8.0,16.2*3D
$BDGSA,A,3,08,10,,,,,,,,,,,18.0,8.0,16.2*2E
$GPGSV,1,1,04,01,40,037,37,11,32,054,40,22,41,069,44,28,77,312,28*76
$BDGSV,1,1,03,08,68,300,41,10,72,257,37,21,00,000,38*53
$LOGTIM,3,-1946.184101,-2048.293726,0.000000,0.000000,-60.118*18
EndT:        0
---00000088--- Acq_st=3 2019-5-25 07:26:18 
[00]  G01  f 37   2409.3 2045996.9  1.0  1.0  5  0 545195927
[01]  G11  f 40   2127.8 2045997.2  1.0  1.0  5  0 545195925
[02]  G22  f 44    793.7 2045999.0  1.0  1.0  5  0 545195925
[04]  G28  f 29  -1275.4 2046001.4  0.9  0.8  5  0 545195931
[16]  B08 1f 41    -32.6 4092000.1  1.0  1.0  5  0 545181878
[17]  B10 1f 37    -82.4 4092000.2  1.0  1.0  5  0 545181879
[18]  B21 1f 39    949.0 4091997.5  1.0  1.0  5  0 545181914
lsq: nits= 4
$GNGGA,072619.000,3112.6947,N,12136.3844,E,1,06,8.0,-64.1,M,,,,0000*0B
$GNRMC,072619.000,A,3112.6947,N,12136.3844,E,1.70,0.00,250519,,*1B
$GPGSA,A,3,01,11,22,28,,,,,,,,,18.0,8.0,16.2*3D
$BDGSA,A,3,08,10,,,,,,,,,,,18.0,8.0,16.2*2E
$GPGSV,1,1,04,01,40,037,37,11,32,054,40,22,41,069,44,28,77,312,29*77
$BDGSV,1,1,03,08,68,300,41,10,72,257,37,21,00,000,39*52
$LOGTIM,3,-1739.582733,-1844.520411,0.000000,0.000000,-63.652*1E
EndT:        0
---00000089--- Acq_st=3 2019-5-25 07:26:19 
[00]  G01  f 37   2404.0 2045996.8  1.0  1.0  5  0 545196927
[01]  G11  f 39   2123.4 2045997.2  1.0  1.0  5  0 545196925
[02]  G22  f 43    789.3 2045999.0  1.0  1.0  5  0 545196925
[04]  G28  f 29  -1279.7 2046001.8  0.9  1.0  5  0 545196931
