FlashID=0x1 0x20 0x18
BBram_blkflag1: 28c5: d73a
FW Ver: 1.30  
GPS00 Init Dop:   5000, 40
GPS01 Init Dop:   5000, 40
GPS02 Init Dop:   5000, 40
GPS03 Init Dop:   5000, 40
GPS04 Init Dop:   5000, 40
GPS05 Init Dop:   5000, 40
GPS06 Init Dop:   5000, 40
GPS07 Init Dop:   5000, 40
GPS08 Init Dop:   5000, 40
GPS09 Init Dop:   5000, 40
GPS10 Init Dop:   5000, 40
GPS11 Init Dop:   5000, 40
GPS12 Init Dop:   5000, 40
GPS13 Init Dop:   5000, 40
GPS14 Init Dop:   5000, 40
GPS15 Init Dop:   5000, 40
GPS16 Init Dop:   5000, 40
GPS17 Init Dop:   5000, 40
GPS18 Init Dop:   5000, 40
GPS19 Init Dop:   5000, 40
GPS20 Init Dop:   5000, 40
GPS21 Init Dop:   5000, 40
GPS22 Init Dop:   5000, 40
GPS23 Init Dop:   5000, 40
GPS24 Init Dop:   5000, 40
GPS25 Init Dop:   5000, 40
GPS26 Init Dop:   5000, 40
GPS27 Init Dop:   5000, 40
GPS28 Init Dop:   5000, 40
GPS29 Init Dop:   5000, 40
GPS30 Init Dop:   5000, 40
GPS31 Init Dop:   5000, 40
BDS00 Init Dop:   5000, 40
BDS01 Init Dop:   5000, 40
BDS02 Init Dop:   5000, 40
BDS03 Init Dop:   5000, 40
BDS04 Init Dop:   5000, 40
BDS05 Init Dop:   5000, 40
BDS06 Init Dop:   5000, 40
BDS07 Init Dop:   5000, 40
BDS08 Init Dop:   5000, 40
BDS09 Init Dop:   5000, 40
BDS10 Init Dop:   5000, 40
BDS11 Init Dop:   5000, 40
BDS12 Init Dop:   5000, 40
BDS13 Init Dop:   5000, 40
BDS14 Init Dop:   5000, 40
BDS15 Init Dop:   5000, 40
BDS16 Init Dop:   5000, 40
BDS17 Init Dop:   5000, 40
BDS18 Init Dop:   5000, 40
BDS19 Init Dop:   5000, 40
BDS20 Init Dop:   5000, 40
BDS21 Init Dop:   5000, 40
BDS22 Init Dop:   5000, 40
BDS23 Init Dop:   5000, 40
BDS24 Init Dop:   5000, 40
BDS25 Init Dop:   5000, 40
BDS26 Init Dop:   5000, 40
BDS27 Init Dop:   5000, 40
BDS28 Init Dop:   5000, 40
BDS29 Init Dop:   5000, 40
BDS30 Init Dop:   5000, 40
BDS31 Init Dop:   5000, 40
good luck!
---00000001--- Acq_st=3 2019-5-22 02:45:40 
[00]  G04  1 16  -1495.0 2046003.0  0.1  0.0  1  0         0
[01]  G07  1  7   4501.9 2046006.0 -0.0  0.0  1  0         0
$GNGGA,000000.000,,,,,0,00,,,M,,,,0000*2B
$GNRMC,000000.000,A,,,,,,,000000,,*26
$GPGSA,A,1,,,,,,,,,,,,,,,*1E
$BDGSA,A,1,,,,,,,,,,,,,,,*0F
$LOGTIM,0,0.000000,0.000000,0.000000,0.000000,0.000*0A
EndT:        0
---00000002--- Acq_st=3 2019-5-22 02:45:41 
[00]  G04  7 17  -1537.7 2046002.0  0.2  0.0 20  0        18
[01]  G07  1 28  -3599.3 2046005.8  0.0  0.0  1  0         3
[02]  G08  1 30  -1707.0 2046003.0  0.0  0.0  1  0         0
[03]  G09  1 24   -362.5 2046000.8  0.1  0.0  1  0         0
$GNGGA,000000.000,,,,,0,00,,,M,,,,0000*2B
$GNRMC,000000.000,A,,,,,,,000000,,*26
$GPGSA,A,1,,,,,,,,,,,,,,,*1E
$BDGSA,A,1,,,,,,,,,,,,,,,*0F
$GPGSV,1,1,01,04,00,000,17*4A
$LOGTIM,0,0.000000,0.000000,0.000000,0.000000,0.000*0A
EndT:        0
---00000003--- Acq_st=3 2019-5-22 02:45:42 
[00]  G04  7 37  -1537.3 2046002.0  0.9  1.0  5  0        14
[01]  G07  7 32  -3598.7 2046004.6  0.7  1.0  5  0         3
[02]  G08  7 30  -1709.5 2046002.1  0.5  1.0  5  0         5
[03]  G09  7 27   -362.9 2046000.4  0.4  0.0 10  0         6
[04]  G16  1 22   1133.0 2045999.1  0.0  0.0  1  0         0
[05]  G21  1  7   2056.1 2045998.7 -0.0  0.0  1  0         0
$GNGGA,000000.000,,,,,0,00,,,M,,,,0000*2B
$GNRMC,000000.000,A,,,,,,,000000,,*26
$GPGSA,A,1,,,,,,,,,,,,,,,*1E
$BDGSA,A,1,,,,,,,,,,,,,,,*0F
$GPGSV,1,1,04,04,00,000,37,07,00,000,32,08,00,000,30,09,00,000,27*7C
$LOGTIM,0,0.000000,0.000000,0.000000,0.000000,0.000*0A
EndT:        0
---00000004--- Acq_st=3 2019-5-22 02:45:43 
[00]  G04  7 36  -1537.6 2046002.0  1.0  0.9  5  0        14
[01]  G07  7 43  -3598.7 2046004.6  1.0  1.0  5  0        13
[02]  G08  7 41  -1709.9 2046002.2  1.0  1.0  5  0         3
[03]  G09  7 44   -362.5 2046000.5  1.0  1.0  5  0        16
[04]  G16  7 27   1121.1 2045998.4  0.4  0.0 10  0        18
[05]  G21  1 30   1854.2 2045997.6 -0.1  0.0  1  0         6
[06]  G26  1 11   1682.3 2045998.8  0.0  0.0  1  0         0
[07]  G27  1  7    564.1 2046001.3  0.0  0.0  1  0         0
$GNGGA,000000.000,,,,,0,00,,,M,,,,0000*2B
$GNRMC,000000.000,A,,,,,,,000000,,*26
$GPGSA,A,1,,,,,,,,,,,,,,,*1E
$BDGSA,A,1,,,,,,,,,,,,,,,*0F
$GPGSV,2,1,05,04,00,000,36,07,00,000,43,08,00,000,41,09,00,000,44*7A
$GPGSV,2,2,05,16,00,000,27*4E
$LOGTIM,0,0.000000,0.000000,0.000000,0.000000,0.000*0A
EndT:        0
---00000005--- Acq_st=3 2019-5-22 02:45:44 
[00]  G04  f 36  -1535.8 2046002.0  1.0  0.9  5  0        14
[01]  G07  f 44  -3597.9 2046004.6  1.0  1.0  5  0        13
[02]  G08  f 41  -1708.4 2046002.2  1.0  1.0  5  0         3
[03]  G09  f 44   -361.1 2046000.5  1.0  1.0  5  0        16
[04]  G16  7 41   1122.2 2045998.5  1.0  1.0  5  0         0
[05]  G21  7 33   1853.3 2045997.5  0.7  1.0  5  0         6
[06]  G26  7  7   1668.7 2045997.8  0.4  0.0 20  0        14
[07]  G27  1 31    610.2 2045999.1  0.2  0.0  1  0        15
$GNGGA,000000.000,,,,,0,00,,,M,,,,0000*2B
$GNRMC,000000.000,A,,,,,,,000000,,*26
$GPGSA,A,1,,,,,,,,,,,,,,,*1E
$BDGSA,A,1,,,,,,,,,,,,,,,*0F
$GPGSV,2,1,06,04,00,000,36,07,00,000,44,08,00,000,41,09,00,000,44*7E
$GPGSV,2,2,06,16,00,000,41,21,00,000,33*7E
$LOGTIM,0,0.000000,0.000000,0.000000,0.000000,0.000*0A
EndT:        0
---00000006--- Acq_st=3 2019-5-22 02:45:45 
[00]  G04  f 36  -1535.6 2046002.0  1.0  1.0  5  0 269161954
[01]  G07  f 44  -3598.7 2046004.6  1.0  1.0  5  0 269161953
[02]  G08  f 41  -1709.0 2046002.2  1.0  1.0  5  0 269161963
[03]  G09  f 44   -361.4 2046000.5  1.0  1.0  5  0 269161956
[04]  G16  7 41   1121.5 2045998.5  1.0  1.0  5  0         0
[05]  G21  7 42   1852.9 2045997.6  1.0  1.0  5  0         7
[06]  G26  7 39   1667.2 2045997.8  0.8  1.0  5  0        15
[07]  G27  7 39    610.0 2045999.1  1.0  1.0  5  0        15
$GNGGA,000000.000,,,,,0,00,,,M,,,,0000*2B
$GNRMC,000000.000,A,,,,,,,000000,,*26
$GPGSA,A,1,,,,,,,,,,,,,,,*1E
$BDGSA,A,1,,,,,,,,,,,,,,,*0F
$GPGSV,2,1,08,04,00,000,36,07,00,000,44,08,00,000,41,09,00,000,44*70
$GPGSV,2,2,08,16,00,000,41,21,00,000,42,26,00,000,39,27,00,000,39*77
$LOGTIM,0,0.000000,0.000000,0.000000,0.000000,0.000*0A
EndT:        0
---00000007--- Acq_st=3 2019-5-22 02:45:46 
[00]  G04  f 37  -1535.7 2046002.1  1.0  1.0  5  0 269162954
[01]  G07  f 44  -3599.1 2046004.7  1.0  1.0  5  0 269162953
[02]  G08  f 41  -1708.4 2046002.2  1.0  1.0  5  0 269162963
[03]  G09  f 44   -360.9 2046000.5  1.0  1.0  5  0 269162956
[04]  G16  7 41   1121.7 2045998.5  1.0  1.0  5  0         0
[05]  G21  7 42   1853.1 2045997.6  1.0  1.0  5  0         7
[06]  G26  7 39   1667.1 2045997.8  1.0  1.0  5  0        15
[07]  G27  7 48    610.2 2045999.2  1.0  1.0  5  0         4
[16]  B07  1  7   -552.1 4092002.4 -0.0  0.0  1  0         0
$GNGGA,000000.000,,,,,0,00,,,M,,,,0000*2B
$GNRMC,000000.000,A,,,,,,,000000,,*26
$GPGSA,A,1,,,,,,,,,,,,,,,*1E
$BDGSA,A,1,,,,,,,,,,,,,,,*0F
$GPGSV,2,1,08,04,00,000,37,07,00,000,44,08,00,000,41,09,00,000,44*71
$GPGSV,2,2,08,16,00,000,41,21,00,000,42,26,00,000,39,27,00,000,48*71
$LOGTIM,0,0.000000,0.000000,0.000000,0.000000,0.000*0A
EndT:        0
---00000008--- Acq_st=3 2019-5-22 02:45:47 
[00]  G04  f 37  -1534.6 2046002.0  1.0  1.0  5  0 269163954
[01]  G07  f 43  -3598.8 2046004.7  1.0  1.0  5  0 269163953
[02]  G08  f 42  -1707.9 2046002.2  1.0  1.0  5  0 269163963
[03]  G09  f 44   -360.6 2046000.5  1.0  1.0  5  0 269163956
[04]  G16  7 42   1121.6 2045998.5  1.0  1.0  5  0         0
[05]  G21  7 42   1853.5 2045997.6  1.0  1.0  5  0         7
[06]  G26  7 39   1667.4 2045997.8  1.0  1.0  5  0        15
[07]  G27  7 47    611.1 2045999.2  1.0  1.0  5  0         4
[16]  B07  7 19   -566.2 4092001.5  0.3  0.0 20  0       458
[17]  B10  1  7   -636.5 4092002.3  0.1  0.0  1  0         0
$GNGGA,000000.000,,,,,0,00,,,M,,,,0000*2B
$GNRMC,000000.000,A,,,,,,,000000,,*26
$GPGSA,A,1,,,,,,,,,,,,,,,*1E
$BDGSA,A,1,,,,,,,,,,,,,,,*0F
$GPGSV,2,1,08,04,00,000,37,07,00,000,43,08,00,000,42,09,00,000,44*75
$GPGSV,2,2,08,16,00,000,42,21,00,000,42,26,00,000,39,27,00,000,47*7D
$BDGSV,1,1,01,07,00,000,19*56
$LOGTIM,0,0.000000,0.000000,0.000000,0.000000,0.000*0A
EndT:        0
---00000009--- Acq_st=3 2019-5-22 02:45:48 
[00]  G04  f 37  -1532.8 2046002.0  1.0  1.0  5  0 269164954
[01]  G07  f 42  -3597.3 2046004.7  1.0  1.0  5  0 269164953
[02]  G08  f 41  -1705.8 2046002.2  1.0  1.0  5  0 269164963
[03]  G09  f 44   -358.2 2046000.5  1.0  1.0  5  0 269164956
[04]  G16  7 42   1122.8 2045998.5  1.0  1.0  5  0         0
[05]  G21  7 41   1855.2 2045997.6  1.0  1.0  5  0         7
[06]  G26  7 40   1668.8 2045997.8  1.0  1.0  5  0        15
[07]  G27  7 48    612.9 2045999.2  1.0  1.0  5  0         4
[16]  B07  7 43   -564.8 4092001.4  0.9  1.0  5  0      1450
[17]  B10  7 23   -614.4 4092001.6  0.3  0.0 20  0       556
$GNGGA,000000.000,,,,,0,00,,,M,,,,0000*2B
$GNRMC,000000.000,A,,,,,,,000000,,*26
$GPGSA,A,1,,,,,,,,,,,,,,,*1E
$BDGSA,A,1,,,,,,,,,,,,,,,*0F
$GPGSV,2,1,08,04,00,000,37,07,00,000,42,08,00,000,41,09,00,000,44*77
$GPGSV,2,2,08,16,00,000,42,21,00,000,41,26,00,000,40,27,00,000,48*7F
$BDGSV,1,1,02,07,00,000,43,10,00,000,23*6A
$LOGTIM,0,0.000000,0.000000,0.000000,0.000000,0.000*0A
EndT:        0
---00000010--- Acq_st=3 2019-5-22 02:45:49 
[00]  G04  f 38  -1532.9 2046002.0  1.0  1.0  5  0 269165954
[01]  G07  f 43  -3597.1 2046004.7  1.0  1.0  5  0 269165953
[02]  G08  f 41  -1705.4 2046002.2  1.0  1.0  5  0 269165963
[03]  G09  f 44   -357.5 2046000.5  1.0  1.0  5  0 269165956
[04]  G16  7 42   1123.2 2045998.5  1.0  1.0  5  0         0
[05]  G21  7 41   1855.5 2045997.6  1.0  1.0  5  0         7
[06]  G26  7 40   1669.0 2045997.8  1.0  1.0  5  0        15
[07]  G27  7 48    613.1 2045999.2  1.0  1.0  5  0         4
[16]  B07  7 43   -564.9 4092001.5  1.0  1.0  5  0      2450
[17]  B10  7 44   -614.4 4092001.6  0.9  1.0  5  0      1547
$GNGGA,000000.000,,,,,0,00,,,M,,,,0000*2B
$GNRMC,000000.000,A,,,,,,,000000,,*26
$GPGSA,A,1,,,,,,,,,,,,,,,*1E
$BDGSA,A,1,,,,,,,,,,,,,,,*0F
$GPGSV,2,1,08,04,00,000,38,07,00,000,43,08,00,000,41,09,00,000,44*79
$GPGSV,2,2,08,16,00,000,42,21,00,000,41,26,00,000,40,27,00,000,48*7F
$BDGSV,1,1,02,07,00,000,43,10,00,000,44*6B
$LOGTIM,0,0.000000,0.000000,0.000000,0.000000,0.000*0A
EndT:        0
---00000011--- Acq_st=3 2019-5-22 02:45:50 
[00]  G04  f 37  -1530.1 2046002.0  1.0  1.0  5  0 269166954
[01]  G07  f 43  -3595.4 2046004.6  1.0  1.0  5  0 269166953
[02]  G08  f 41  -1702.8 2046002.2  1.0  1.0  5  0 269166963
[03]  G09  f 44   -355.3 2046000.5  1.0  1.0  5  0 269166956
[04]  G16  f 42   1125.4 2045998.5  1.0  1.0  5  0         0
[05]  G21  f 41   1857.6 2045997.6  1.0  1.0  5  0         7
[06]  G26  f 40   1670.7 2045997.8  1.0  1.0  5  0        15
[07]  G27  f 48    615.4 2045999.2  1.0  1.0  5  0         4
[16]  B07  7 43   -563.1 4092001.5  1.0  1.0  5  0      3450
[17]  B10  7 44   -612.4 4092001.6  1.0  1.0  5  0      2547
$GNGGA,000000.000,,,,,0,00,,,M,,,,0000*2B
$GNRMC,000000.000,A,,,,,,,000000,,*26
$GPGSA,A,1,,,,,,,,,,,,,,,*1E
$BDGSA,A,1,,,,,,,,,,,,,,,*0F
$GPGSV,2,1,08,04,00,000,37,07,00,000,43,08,00,000,41,09,00,000,44*76
$GPGSV,2,2,08,16,00,000,42,21,00,000,41,26,00,000,40,27,00,000,48*7F
$BDGSV,1,1,02,07,00,000,43,10,00,000,44*6B
$LOGTIM,0,0.000000,0.000000,0.000000,0.000000,0.000*0A
EndT:        0
---00000012--- Acq_st=3 2019-5-22 02:45:51 
[00]  G04  f 37  -1530.7 2046002.1  1.0  1.0  5  0 269167954
[01]  G07  f 44  -3595.7 2046004.7  1.0  1.0  5  0 269167953
[02]  G08  f 40  -1702.9 2046002.3  1.0  1.0  5  0 269167963
[03]  G09  f 44   -355.6 2046000.5  1.0  1.0  5  0 269167956
[04]  G16  f 42   1124.6 2045998.5  1.0  1.0  5  0 269167960
[05]  G21  f 41   1857.4 2045997.6  1.0  1.0  5  0 269167947
[06]  G26  f 40   1670.3 2045997.9  1.0  1.0  5  0 269167955
[07]  G27  f 48    615.5 2045999.2  1.0  1.0  5  0 269167964
[16]  B07  7 43   -564.0 4092001.5  1.0  1.0  5  0      4450
[17]  B10  7 44   -613.2 4092001.6  1.0  1.0  5  0      3547
$GNGGA,000000.000,,,,,0,00,,,M,,,,0000*2B
$GNRMC,000000.000,A,,,,,,,000000,,*26
$GPGSA,A,1,,,,,,,,,,,,,,,*1E
$BDGSA,A,1,,,,,,,,,,,,,,,*0F
$GPGSV,2,1,08,04,00,000,37,07,00,000,44,08,00,000,40,09,00,000,44*70
$GPGSV,2,2,08,16,00,000,42,21,00,000,41,26,00,000,40,27,00,000,48*7F
$BDGSV,1,1,02,07,00,000,43,10,00,000,44*6B
$LOGTIM,0,0.000000,0.000000,0.000000,0.000000,0.000*0A
EndT:        0
---00000013--- Acq_st=3 2019-5-22 02:45:52 
[00]  G04  f 37  -1526.8 2046002.0  1.0  1.0  5  0 269168954
[01]  G07  f 44  -3592.9 2046004.7  1.0  1.0  5  0 269168953
[02]  G08  f 41  -1699.4 2046002.2  1.0  1.0  5  0 269168963
[03]  G09  f 44   -351.7 2046000.5  1.0  1.0  5  0 269168956
[04]  G16  f 42   1127.5 2045998.5  1.0  1.0  5  0 269168960
[05]  G21  f 40   1860.7 2045997.6  1.0  1.0  5  0 269168947
[06]  G26  f 40   1673.2 2045997.8  1.0  1.0  5  0 269168955
[07]  G27  f 48    619.0 2045999.2  1.0  1.0  5  0 269168964
[16]  B07 1f 44   -561.2 4092001.5  1.0  1.0  5  0      5450
[17]  B10 1f 45   -610.0 4092001.6  1.0  1.0  5  0      4547
[18]  B28  1  7   1747.2 4091995.6 -0.0  0.0  1  0         0
$GNGGA,000000.000,,,,,0,00,,,M,,,,0000*2B
$GNRMC,000000.000,A,,,,,,,000000,,*26
$GPGSA,A,1,,,,,,,,,,,,,,,*1E
$BDGSA,A,1,,,,,,,,,,,,,,,*0F
$GPGSV,2,1,08,04,00,000,37,07,00,000,44,08,00,000,41,09,00,000,44*71
$GPGSV,2,2,08,16,00,000,42,21,00,000,40,26,00,000,40,27,00,000,48*7E
$BDGSV,1,1,02,07,00,000,44,10,00,000,45*6D
$LOGTIM,0,0.000000,0.000000,0.000000,0.000000,0.000*0A
EndT:        0
---00000014--- Acq_st=3 2019-5-22 02:45:53 
[00]  G04  f 37  -1523.8 2046002.0  1.0  1.0  5  0 269169954
[01]  G07  f 43  -3591.0 2046004.7  1.0  1.0  5  0 269169953
[02]  G08  f 40  -1696.7 2046002.2  1.0  1.0  5  0 269169963
[03]  G09  f 43   -349.0 2046000.5  1.0  1.0  5  0 269169956
[04]  G16  f 42   1130.0 2045998.5  1.0  1.0  5  0 269169960
[05]  G21  f 40   1863.0 2045997.6  1.0  1.0  5  0 269169947
[06]  G26  f 39   1675.5 2045997.8  1.0  1.0  5  0 269169955
[07]  G27  f 48    621.6 2045999.2  1.0  1.0  5  0 269169964
[16]  B07 1f 44   -559.3 4092001.4  1.0  1.0  5  0 269155910
[17]  B10 1f 45   -608.6 4092001.6  1.0  1.0  5  0 269155907
[18]  B28  1  7   1632.2 4091995.6  0.3  0.0  1  0       143
$GNGGA,000000.000,,,,,0,00,,,M,,,,0000*2B
$GNRMC,000000.000,A,,,,,,,000000,,*26
$GPGSA,A,1,,,,,,,,,,,,,,,*1E
$BDGSA,A,1,,,,,,,,,,,,,,,*0F
$GPGSV,2,1,08,04,00,000,37,07,00,000,43,08,00,000,40,09,00,000,43*70
$GPGSV,2,2,08,16,00,000,42,21,00,000,40,26,00,000,39,27,00,000,48*70
$BDGSV,1,1,02,07,00,000,44,10,00,000,45*6D
$LOGTIM,0,0.000000,0.000000,0.000000,0.000000,0.000*0A
EndT:        0
---00000015--- Acq_st=7 2019-5-22 02:45:54 
[00]  G04  f 37  -1524.1 2046002.0  1.0  1.0  5  0 269170954
[01]  G07  f 42  -3591.3 2046004.7  1.0  1.0  5  0 269170953
[02]  G08  f 40  -1696.9 2046002.2  1.0  1.0  5  0 269170963
[03]  G09  f 44   -349.1 2046000.5  1.0  1.0  5  0 269170956
[04]  G16  f 42   1129.3 2045998.5  1.0  1.0  5  0 269170960
[05]  G21  f 40   1862.9 2045997.6  1.0  1.0  5  0 269170947
[06]  G26  f 39   1674.8 2045997.9  1.0  1.0  5  0 269170955
[07]  G27  f 48    621.8 2045999.2  1.0  1.0  5  0 269170964
[16]  B07 1f 44   -559.4 4092001.5  1.0  1.0  5  0 269156910
[17]  B10 1f 44   -609.0 4092001.6  1.0  1.0  5  0 269156907
[18]  B28  1  7   1632.0 4091995.9  0.9  0.0  1  0      1143
$GNGGA,000000.000,,,,,0,00,,,M,,,,0000*2B
$GNRMC,000000.000,A,,,,,,,000000,,*26
$GPGSA,A,1,,,,,,,,,,,,,,,*1E
$BDGSA,A,1,,,,,,,,,,,,,,,*0F
$GPGSV,2,1,08,04,00,000,37,07,00,000,42,08,00,000,40,09,00,000,44*76
$GPGSV,2,2,08,16,00,000,42,21,00,000,40,26,00,000,39,27,00,000,48*70
$BDGSV,1,1,02,07,00,000,44,10,00,000,44*6C
$LOGTIM,0,0.000000,0.000000,0.000000,0.000000,0.000*0A
EndT:        0
---00000016--- Acq_st=7 2019-5-22 02:45:55 
[00]  G04  f 36  -1525.9 2046002.0  1.0  1.0  5  0 269171954
[01]  G07  f 43  -3593.8 2046004.7  1.0  1.0  5  0 269171953
[02]  G08  f 40  -1699.2 2046002.2  1.0  1.0  5  0 269171963
[03]  G09  f 44   -351.2 2046000.5  1.0  1.0  5  0 269171956
[04]  G16  f 42   1127.2 2045998.5  1.0  1.0  5  0 269171960
[05]  G21  f 40   1860.6 2045997.6  1.0  1.0  5  0 269171947
[06]  G26  f 39   1672.5 2045997.8  1.0  1.0  5  0 269171955
[07]  G27  f 48    619.7 2045999.2  1.0  1.0  5  0 269171964
[16]  B07 1f 44   -562.4 4092001.5  1.0  1.0  5  0 269157910
[17]  B10 1f 44   -611.6 4092001.6  1.0  1.0  5  0 269157907
[18]  B28  1  7   1629.8 4091995.5  0.9  0.0  1  0      2143
$GNGGA,000000.000,,,,,0,00,,,M,,,,0000*2B
$GNRMC,000000.000,A,,,,,,,000000,,*26
$GPGSA,A,1,,,,,,,,,,,,,,,*1E
$BDGSA,A,1,,,,,,,,,,,,,,,*0F
$GPGSV,2,1,08,04,00,000,36,07,00,000,43,08,00,000,40,09,00,000,44*76
$GPGSV,2,2,08,16,00,000,42,21,00,000,40,26,00,000,39,27,00,000,48*70
$BDGSV,1,1,02,07,00,000,44,10,00,000,44*6C
$LOGTIM,0,0.000000,0.000000,0.000000,0.000000,0.000*0A
EndT:        0
---00000017--- Acq_st=3 2019-5-22 02:45:56 
[00]  G04  f 37  -1528.2 2046001.9  1.0  1.0  5  0 269172954
[01]  G07  f 43  -3596.6 2046004.7  1.0  1.0  5  0 269172953
[02]  G08  f 40  -1701.8 2046002.2  1.0  1.0  5  0 269172963
[03]  G09  f 43   -353.4 2046000.5  1.0  1.0  5  0 269172956
[04]  G16  f 42   1123.8 2045998.5  1.0  1.0  5  0 269172960
[05]  G21  f 40   1857.9 2045997.6  1.0  1.0  5  0 269172947
[06]  G26  f 39   1669.5 2045997.8  1.0  1.0  5  0 269172955
[07]  G27  f 48    617.1 2045999.2  1.0  1.0  5  0 269172964
[16]  B07 1f 44   -565.4 4092001.5  1.0  1.0  5  0 269158910
[17]  B10 1f 45   -614.7 4092001.6  1.0  1.0  5  0 269158907
$GNGGA,000000.000,,,,,0,00,,,M,,,,0000*2B
$GNRMC,000000.000,A,,,,,,,000000,,*26
$GPGSA,A,1,,,,,,,,,,,,,,,*1E
$BDGSA,A,1,,,,,,,,,,,,,,,*0F
$GPGSV,2,1,08,04,00,000,37,07,00,000,43,08,00,000,40,09,00,000,43*70
$GPGSV,2,2,08,16,00,000,42,21,00,000,40,26,00,000,39,27,00,000,48*70
$BDGSV,1,1,02,07,00,000,44,10,00,000,45*6D
$LOGTIM,0,0.000000,0.000000,0.000000,0.000000,0.000*0A
EndT:        0
---00000018--- Acq_st=3 2019-5-22 02:45:57 
[00]  G04  f 36  -1527.1 2046002.0  1.0  1.0  5  0 269173954
[01]  G07  f 44  -3595.5 2046004.7  1.0  1.0  5  0 269173953
[02]  G08  f 39  -1699.9 2046002.2  1.0  1.0  5  0 269173963
[03]  G09  f 43   -351.4 2046000.5  1.0  1.0  5  0 269173956
[04]  G16  f 42   1125.4 2045998.5  1.0  1.0  5  0 269173960
[05]  G21  f 40   1859.6 2045997.6  1.0  1.0  5  0 269173947
[06]  G26  f 39   1670.0 2045997.8  1.0  1.0  5  0 269173955
[07]  G27  f 48    618.7 2045999.2  1.0  1.0  5  0 269173964
[16]  B07 1f 43   -564.4 4092001.5  1.0  1.0  5  0 269159910
[17]  B10 1f 44   -613.7 4092001.6  1.0  1.0  5  0 269159907
$GNGGA,000000.000,,,,,0,00,,,M,,,,0000*2B
$GNRMC,000000.000,A,,,,,,,000000,,*26
$GPGSA,A,1,,,,,,,,,,,,,,,*1E
$BDGSA,A,1,,,,,,,,,,,,,,,*0F
$GPGSV,2,1,08,04,00,000,36,07,00,000,44,08,00,000,39,09,00,000,43*78
$GPGSV,2,2,08,16,00,000,42,21,00,000,40,26,00,000,39,27,00,000,48*70
$BDGSV,1,1,02,07,00,000,43,10,00,000,44*6B
$LOGTIM,0,0.000000,0.000000,0.000000,0.000000,0.000*0A
EndT:        0
---00000019--- Acq_st=3 2019-5-22 02:45:57 
[00]  G04  f 37  -1527.6 2046002.0  1.0  1.0  5  0 269174954
[01]  G07  f 44  -3596.8 2046004.7  1.0  1.0  5  0 269174953
[02]  G08  f 39  -1700.9 2046002.2  1.0  1.0  5  0 269174963
[03]  G09  f 43   -352.5 2046000.4  1.0  1.0  5  0 269174956
[04]  G16  f 42   1123.8 2045998.5  1.0  1.0  5  0 269174960
[05]  G21  f 40   1858.3 2045997.6  1.0  1.0  5  0 269174947
[06]  G26  f 39   1669.3 2045997.8  1.0  1.0  5  0 269174955
[07]  G27  f 48    617.8 2045999.2  1.0  1.0  5  0 269174964
[16]  B07 1f 43   -565.7 4092001.5  1.0  1.0  5  0 269160910
[17]  B10 1f 45   -615.2 4092001.6  1.0  1.0  5  0 269160907
$GNGGA,000000.000,,,,,0,00,,,M,,,,0000*2B
$GNRMC,000000.000,A,,,,,,,000000,,*26
$GPGSA,A,1,,,,,,,,,,,,,,,*1E
$BDGSA,A,1,,,,,,,,,,,,,,,*0F
$GPGSV,2,1,08,04,00,000,37,07,00,000,44,08,00,000,39,09,00,000,43*79
$GPGSV,2,2,08,16,00,000,42,21,00,000,40,26,00,000,39,27,00,000,48*70
$BDGSV,1,1,02,07,00,000,43,10,00,000,45*6A
$LOGTIM,0,0.000000,0.000000,0.000000,0.000000,0.000*0A
EndT:        0
---00000020--- Acq_st=3 2019-5-22 02:45:58 
[00]  G04  f 36  -1528.9 2046002.0  1.0  0.9  5  0 269175954
[01]  G07  f 43  -3598.7 2046004.7  1.0  1.0  5  0 269175953
[02]  G08  f 39  -1702.5 2046002.3  1.0  1.0  5  0 269175963
[03]  G09  f 43   -354.3 2046000.4  1.0  1.0  5  0 269175956
[04]  G16  f 42   1121.8 2045998.5  1.0  1.0  5  0 269175960
[05]  G21  f 40   1856.6 2045997.6  1.0  1.0  5  0 269175947
[06]  G26  f 39   1667.3 2045997.9  1.0  1.0  5  0 269175955
[07]  G27  f 48    616.2 2045999.2  1.0  1.0  5  0 269175964
[16]  B07 1f 44   -567.7 4092001.5  1.0  1.0  5  0 269161910
[17]  B10 1f 45   -617.4 4092001.6  1.0  1.0  5  0 269161907
$GNGGA,000000.000,,,,,0,00,,,M,,,,0000*2B
$GNRMC,000000.000,A,,,,,,,000000,,*26
$GPGSA,A,1,,,,,,,,,,,,,,,*1E
$BDGSA,A,1,,,,,,,,,,,,,,,*0F
$GPGSV,2,1,08,04,00,000,36,07,00,000,43,08,00,000,39,09,00,000,43*7F
$GPGSV,2,2,08,16,00,000,42,21,00,000,40,26,00,000,39,27,00,000,48*70
$BDGSV,1,1,02,07,00,000,44,10,00,000,45*6D
$LOGTIM,0,0.000000,0.000000,0.000000,0.000000,0.000*0A
EndT:        0
---00000021--- Acq_st=3 2019-5-22 02:45:59 
[00]  G04  f 36  -1528.9 2046002.0  1.0  0.9  5  0 269176954
[01]  G07  f 43  -3598.6 2046004.7  1.0  1.0  5  0 269176953
[02]  G08  f 39  -1702.2 2046002.2  1.0  1.0  5  0 269176963
[03]  G09  f 43   -353.6 2046000.5  1.0  1.0  5  0 269176956
[04]  G16  f 42   1122.0 2045998.6  1.0  1.0  5  0 269176960
[05]  G21  f 40   1856.9 2045997.6  1.0  1.0  5  0 269176947
[06]  G26  f 39   1667.4 2045997.8  1.0  1.0  5  0 269176955
[07]  G27  f 48    616.8 2045999.2  1.0  1.0  5  0 269176964
[16]  B07 1f 44   -568.1 4092001.5  1.0  1.0  5  0 269162910
[17]  B10 1f 44   -617.9 4092001.6  1.0  1.0  5  0 269162907
$GNGGA,000000.000,,,,,0,00,,,M,,,,0000*2B
$GNRMC,000000.000,A,,,,,,,000000,,*26
$GPGSA,A,1,,,,,,,,,,,,,,,*1E
$BDGSA,A,1,,,,,,,,,,,,,,,*0F
$GPGSV,2,1,08,04,00,000,36,07,00,000,43,08,00,000,39,09,00,000,43*7F
$GPGSV,2,2,08,16,00,000,42,21,00,000,40,26,00,000,39,27,00,000,48*70
$BDGSV,1,1,02,07,00,000,44,10,00,000,44*6C
$LOGTIM,0,0.000000,0.000000,0.000000,0.000000,0.000*0A
EndT:        0
---00000022--- Acq_st=3 2019-5-22 02:46:0 
[00]  G04  f 37  -1526.4 2046002.0  1.0  1.0  5 3f 269177954
[01]  G07  f 44  -3597.0 2046004.7  1.0  1.0  5  0 269177953
[02]  G08  f 39  -1700.0 2046002.2  1.0  1.0  5  0 269177963
[03]  G09  f 43   -350.9 2046000.4  1.0  1.0  5  0 269177956
[04]  G16  f 42   1123.8 2045998.5  1.0  1.0  5  0 269177960
[05]  G21  f 40   1858.9 2045997.6  1.0  1.0  5  0 269177947
[06]  G26  f 39   1668.4 2045997.8  1.0  1.0  5  0 269177955
[07]  G27  f 48    619.0 2045999.2  1.0  1.0  5  0 269177964
[16]  B07 1f 44   -566.4 4092001.5  1.0  1.0  5  0 269163910
[17]  B10 1f 45   -615.8 4092001.6  1.0  1.0  5  0 269163907
$GNGGA,000000.000,,,,,0,00,,,M,,,,0000*2B
$GNRMC,000000.000,A,,,,,,,000000,,*26
$GPGSA,A,1,,,,,,,,,,,,,,,*1E
$BDGSA,A,1,,,,,,,,,,,,,,,*0F
$GPGSV,2,1,08,04,00,000,37,07,00,000,44,08,00,000,39,09,00,000,43*79
$GPGSV,2,2,08,16,00,000,42,21,00,000,40,26,00,000,39,27,00,000,48*70
$BDGSV,1,1,02,07,00,000,44,10,00,000,45*6D
$LOGTIM,0,0.000000,0.000000,0.000000,0.000000,0.000*0A
EndT:        0
---00000023--- Acq_st=3 2019-5-22 02:46:1 
[00]  G04  f 37  -1524.3 2046002.0  1.0  1.0  5 3f 269178954
[01]  G07  f 44  -3595.2 2046004.7  1.0  1.0  5  0 269178953
[02]  G08  f 39  -1697.6 2046002.2  1.0  1.0  5  0 269178963
[03]  G09  f 43   -348.6 2046000.5  1.0  1.0  5  0 269178956
[04]  G16  f 42   1125.7 2045998.5  1.0  1.0  5  0 269178960
[05]  G21  f 41   1861.2 2045997.6  1.0  1.0  5  0 269178947
[06]  G26  f 39   1670.8 2045997.9  1.0  1.0  5  0 269178955
[07]  G27  f 48    621.4 2045999.2  1.0  1.0  5  0 269178964
[16]  B07 1f 44   -564.6 4092001.5  1.0  1.0  5  0 269164910
[17]  B10 1f 45   -613.8 4092001.6  1.0  1.0  5  0 269164907
$GNGGA,000000.000,,,,,0,00,,,M,,,,0000*2B
$GNRMC,000000.000,A,,,,,,,000000,,*26
$GPGSA,A,1,,,,,,,,,,,,,,,*1E
$BDGSA,A,1,,,,,,,,,,,,,,,*0F
$GPGSV,2,1,08,04,00,000,37,07,00,000,44,08,00,000,39,09,00,000,43*79
$GPGSV,2,2,08,16,00,000,42,21,00,000,41,26,00,000,39,27,00,000,48*71
$BDGSV,1,1,02,07,00,000,44,10,00,000,45*6D
$LOGTIM,0,0.000000,0.000000,0.000000,0.000000,0.000*0A
EndT:        0
---00000024--- Acq_st=3 2019-5-22 02:46:2 
[00]  G04  f 36  -1523.4 2046002.1  1.0  1.0  5 3f 269179954
[01]  G07  f 44  -3595.7 2046004.7  1.0  1.0  5  0 269179953
[02]  G08  f 39  -1697.2 2046002.3  1.0  1.0  5  0 269179963
[03]  G09  f 43   -349.1 2046000.5  1.0  1.0  5  0 269179956
[04]  G16  f 42   1124.8 2045998.6  1.0  1.0  5  0 269179960
[05]  G21  f 40   1860.8 2045997.6  1.0  1.0  5  0 269179947
[06]  G26  f 39   1670.3 2045997.8  1.0  0.9  5  0 269179955
[07]  G27  f 48    621.2 2045999.2  1.0  1.0  5  0 269179964
[16]  B07 1f 44   -565.0 4092001.5  1.0  1.0  5  0 269165910
[17]  B10 1f 44   -614.7 4092001.6  1.0  1.0  5  0 269165907
$GNGGA,000000.000,,,,,0,00,,,M,,,,0000*2B
$GNRMC,000000.000,A,,,,,,,000000,,*26
$GPGSA,A,1,,,,,,,,,,,,,,,*1E
$BDGSA,A,1,,,,,,,,,,,,,,,*0F
$GPGSV,2,1,08,04,00,000,36,07,00,000,44,08,00,000,39,09,00,000,43*78
$GPGSV,2,2,08,16,00,000,42,21,00,000,40,26,00,000,39,27,00,000,48*70
$BDGSV,1,1,02,07,00,000,44,10,00,000,44*6C
$LOGTIM,0,0.000000,0.000000,0.000000,0.000000,0.000*0A
EndT:        0
---00000025--- Acq_st=3 2019-5-22 02:46:3 
[00]  G04  f 35  -1519.5 2046002.0  1.0  1.0  5 3f 269180954
[01]  G07  f 43  -3592.1 2046004.7  1.0  1.0  5  0 269180953
[02]  G08  f 39  -1693.3 2046002.2  1.0  1.0  5  0 269180963
[03]  G09  f 43   -344.7 2046000.4  1.0  1.0  5  0 269180956
[04]  G16  f 42   1129.2 2045998.6  1.0  1.0  5  0 269180960
[05]  G21  f 40   1864.8 2045997.5  1.0  1.0  5  0 269180947
[06]  G26  f 39   1674.4 2045997.8  1.0  1.0  5  0 269180955
[07]  G27  f 48    625.4 2045999.2  1.0  1.0  5  0 269180964
[16]  B07 1f 44   -561.7 4092001.5  1.0  1.0  5  0 269166910
[17]  B10 1f 45   -611.2 4092001.6  1.0  1.0  5  0 269166907
$GNGGA,000000.000,,,,,0,00,,,M,,,,0000*2B
$GNRMC,000000.000,A,,,,,,,000000,,*26
$GPGSA,A,1,,,,,,,,,,,,,,,*1E
$BDGSA,A,1,,,,,,,,,,,,,,,*0F
$GPGSV,2,1,08,04,00,000,35,07,00,000,43,08,00,000,39,09,00,000,43*7C
$GPGSV,2,2,08,16,00,000,42,21,00,000,40,26,00,000,39,27,00,000,48*70
$BDGSV,1,1,02,07,00,000,44,10,00,000,45*6D
$LOGTIM,0,0.000000,0.000000,0.000000,0.000000,0.000*0A
EndT:        0
---00000026--- Acq_st=3 2019-5-22 02:46:4 
[00]  G04  f 35  -1518.9 2046002.0  1.0  1.0  5 3f 269181954
[01]  G07  f 42  -3591.7 2046004.6  1.0  1.0  5  0 269181953
[02]  G08  f 38  -1693.0 2046002.2  1.0  1.0  5  0 269181963
[03]  G09  f 43   -344.3 2046000.4  1.0  1.0  5  0 269181956
[04]  G16  f 43   1129.1 2045998.6  1.0  1.0  5  0 269181960
[05]  G21  f 40   1865.2 2045997.5  1.0  1.0  5  0 269181947
[06]  G26  f 39   1673.8 2045997.8  1.0  1.0  5  0 269181955
[07]  G27  f 48    625.9 2045999.2  1.0  1.0  5  0 269181964
[16]  B07 1f 43   -561.7 4092001.4  1.0  1.0  5  0 269167910
[17]  B10 1f 44   -611.5 4092001.6  1.0  1.0  5  0 269167907
$GNGGA,000000.000,,,,,0,00,,,M,,,,0000*2B
$GNRMC,000000.000,A,,,,,,,000000,,*26
$GPGSA,A,1,,,,,,,,,,,,,,,*1E
$BDGSA,A,1,,,,,,,,,,,,,,,*0F
$GPGSV,2,1,08,04,00,000,35,07,00,000,42,08,00,000,38,09,00,000,43*7C
$GPGSV,2,2,08,16,00,000,43,21,00,000,40,26,00,000,39,27,00,000,48*71
$BDGSV,1,1,02,07,00,000,43,10,00,000,44*6B
$LOGTIM,0,0.000000,0.000000,0.000000,0.000000,0.000*0A
EndT:        0
---00000027--- Acq_st=3 2019-5-22 02:46:5 
[00]  G04  f 36  -1520.1 2046001.9  1.0  1.0  5 3f 269182954
[01]  G07  f 41  -3593.7 2046004.7  1.0  1.0  5  0 269182953
[02]  G08  f 39  -1694.7 2046002.2  1.0  1.0  5  0 269182963
[03]  G09  f 42   -345.5 2046000.4  1.0  1.0  5  0 269182956
[04]  G16  f 42   1127.2 2045998.5  1.0  1.0  5  0 269182960
[05]  G21  f 40   1863.6 2045997.6  1.0  1.0  5  0 269182947
[06]  G26  f 39   1671.9 2045997.9  1.0  1.0  5  0 269182955
[07]  G27  f 48    624.6 2045999.2  1.0  1.0  5  0 269182964
[16]  B07 1f 44   -563.5 4092001.5  1.0  1.0  5  0 269168910
[17]  B10 1f 44   -613.2 4092001.6  1.0  1.0  5  0 269168907
$GNGGA,000000.000,,,,,0,00,,,M,,,,0000*2B
$GNRMC,000000.000,A,,,,,,,000000,,*26
$GPGSA,A,1,,,,,,,,,,,,,,,*1E
$BDGSA,A,1,,,,,,,,,,,,,,,*0F
$GPGSV,2,1,08,04,00,000,36,07,00,000,41,08,00,000,39,09,00,000,42*7C
$GPGSV,2,2,08,16,00,000,42,21,00,000,40,26,00,000,39,27,00,000,48*70
$BDGSV,1,1,02,07,00,000,44,10,00,000,44*6C
$LOGTIM,0,0.000000,0.000000,0.000000,0.000000,0.000*0A
EndT:        0
---00000028--- Acq_st=3 2019-5-22 02:46:6 
[00]  G04  f 37  -1518.5 2046002.0  1.0  1.0  5 3f 269183954
[01]  G07  f 42  -3592.8 2046004.7  1.0  1.0  5  0 269183953
[02]  G08  f 38  -1692.6 2046002.2  1.0  1.0  5  0 269183963
[03]  G09  f 42   -344.1 2046000.4  1.0  1.0  5  0 269183956
[04]  G16  f 42   1128.6 2045998.5  1.0  1.0  5  0 269183960
[05]  G21  f 41   1865.1 2045997.6  1.0  1.0  5  0 269183947
[06]  G26  f 39   1673.5 2045997.8  1.0  0.9  5  0 269183955
[07]  G27  f 48    626.1 2045999.2  1.0  1.0  5  0 269183964
[16]  B07 1f 43   -562.5 4092001.5  1.0  1.0  5  0 269169910
[17]  B10 1f 44   -612.0 4092001.6  1.0  1.0  5  0 269169907
$GNGGA,000000.000,,,,,0,00,,,M,,,,0000*2B
$GNRMC,000000.000,A,,,,,,,000000,,*26
$GPGSA,A,1,,,,,,,,,,,,,,,*1E
$BDGSA,A,1,,,,,,,,,,,,,,,*0F
$GPGSV,2,1,08,04,00,000,37,07,00,000,42,08,00,000,38,09,00,000,42*7F
$GPGSV,2,2,08,16,00,000,42,21,00,000,41,26,00,000,39,27,00,000,48*71
$BDGSV,1,1,02,07,00,000,43,10,00,000,44*6B
$LOGTIM,0,0.000000,0.000000,0.000000,0.000000,0.000*0A
EndT:        0
---00000029--- Acq_st=7 2019-5-22 02:46:7 
[00]  G04  f 37  -1519.8 2046002.0  1.0  1.0  5 3f 269184954
[01]  G07  f 42  -3594.5 2046004.7  1.0  1.0  5  0 269184953
[02]  G08  f 39  -1694.0 2046002.2  1.0  1.0  5  0 269184963
[03]  G09  f 42   -344.7 2046000.4  1.0  1.0  5  0 269184956
[04]  G16  f 43   1126.7 2045998.5  1.0  1.0  5  0 269184960
[05]  G21  f 41   1864.0 2045997.5  1.0  1.0  5  0 269184947
[06]  G26  f 39   1671.3 2045997.8  1.0  1.0  5  0 269184955
[07]  G27  f 48    625.1 2045999.2  1.0  1.0  5  0 269184964
[16]  B07 1f 43   -564.2 4092001.4  1.0  1.0  5  0 269170910
[17]  B10 1f 44   -614.0 4092001.6  1.0  1.0  5  0 269170907
$GNGGA,000000.000,,,,,0,00,,,M,,,,0000*2B
$GNRMC,000000.000,A,,,,,,,000000,,*26
$GPGSA,A,1,,,,,,,,,,,,,,,*1E
$BDGSA,A,1,,,,,,,,,,,,,,,*0F
$GPGSV,2,1,08,04,00,000,37,07,00,000,42,08,00,000,39,09,00,000,42*7E
$GPGSV,2,2,08,16,00,000,43,21,00,000,41,26,00,000,39,27,00,000,48*70
$BDGSV,1,1,02,07,00,000,43,10,00,000,44*6B
$LOGTIM,0,0.000000,0.000000,0.000000,0.000000,0.000*0A
EndT:        0
---00000030--- Acq_st=7 2019-5-22 02:46:8 
[00]  G04  f 37  -1519.8 2046002.0  1.0  1.0  5 3f 269185954
[01]  G07  f 42  -3594.6 2046004.7  1.0  1.0  5  0 269185953
[02]  G08  f 38  -1693.6 2046002.2  1.0  1.0  5  0 269185963
[03]  G09  f 42   -344.5 2046000.5  1.0  1.0  5  0 269185956
[04]  G16  f 43   1126.6 2045998.5  1.0  1.0  5  0 269185960
[05]  G21  f 42   1864.1 2045997.6  1.0  1.0  5  0 269185947
[06]  G26  f 39   1671.4 2045997.8  1.0  1.0  5  0 269185955
[07]  G27  f 49    625.2 2045999.2  1.0  1.0  5  0 269185964
[16]  B07 1f 43   -564.6 4092001.5  1.0  1.0  5  0 269171910
[17]  B10 1f 44   -614.1 4092001.6  1.0  1.0  5  0 269171907
$GNGGA,000000.000,,,,,0,00,,,M,,,,0000*2B
$GNRMC,000000.000,A,,,,,,,000000,,*26
$GPGSA,A,1,,,,,,,,,,,,,,,*1E
$BDGSA,A,1,,,,,,,,,,,,,,,*0F
$GPGSV,2,1,08,04,00,000,37,07,00,000,42,08,00,000,38,09,00,000,42*7F
$GPGSV,2,2,08,16,00,000,43,21,00,000,42,26,00,000,39,27,00,000,49*72
$BDGSV,1,1,02,07,00,000,43,10,00,000,44*6B
$LOGTIM,0,0.000000,0.000000,0.000000,0.000000,0.000*0A
EndT:        0
---00000031--- Acq_st=7 2019-5-22 02:46:9 
[00]  G04  f 36  -1517.4 2046002.0  1.0  1.0  5 3f 269186954
[01]  G07  f 42  -3593.1 2046004.7  1.0  1.0  5  0 269186953
[02]  G08  f 39  -1691.6 2046002.1  1.0  1.0  5  0 269186963
[03]  G09  f 42   -342.6 2046000.4  1.0  1.0  5  0 269186956
[04]  G16  f 43   1127.7 2045998.5  1.0  1.0  5  0 269186960
[05]  G21  f 41   1865.1 2045997.6  1.0  1.0  5  0 269186947
[06]  G26  f 39   1672.6 2045997.8  1.0  1.0  5  0 269186955
[07]  G27  f 49    626.9 2045999.2  1.0  1.0  5  0 269186964
[16]  B07 1f 44   -563.8 4092001.5  1.0  1.0  5  0 269172910
[17]  B10 1f 44   -613.3 4092001.6  1.0  1.0  5  0 269172907
$GNGGA,000000.000,,,,,0,00,,,M,,,,0000*2B
$GNRMC,000000.000,A,,,,,,,000000,,*26
$GPGSA,A,1,,,,,,,,,,,,,,,*1E
$BDGSA,A,1,,,,,,,,,,,,,,,*0F
$GPGSV,2,1,08,04,00,000,36,07,00,000,42,08,00,000,39,09,00,000,42*7F
$GPGSV,2,2,08,16,00,000,43,21,00,000,41,26,00,000,39,27,00,000,49*71
$BDGSV,1,1,02,07,00,000,44,10,00,000,44*6C
$LOGTIM,0,0.000000,0.000000,0.000000,0.000000,0.000*0A
EndT:        0
---00000032--- Acq_st=3 2019-5-22 02:46:10 
[00]  G04  f 37  -1514.5 2046002.0  1.0  1.0  5 3f 269187954
[01]  G07  f 42  -3590.2 2046004.7  1.0  1.0  5  0 269187953
[02]  G08  f 39  -1687.9 2046002.1  1.0  1.0  5  0 269187963
[03]  G09  f 43   -339.4 2046000.4  1.0  1.0  5  0 269187956
[04]  G16  f 43   1131.1 2045998.5  1.0  1.0  5  0 269187960
[05]  G21  f 40   1869.0 2045997.6  1.0  1.0  5  0 269187947
[06]  G26  f 39   1675.8 2045997.8  1.0  1.0  5  0 269187955
[07]  G27  f 48    630.8 2045999.2  1.0  1.0  5  0 269187964
[16]  B07 1f 43   -560.7 4092001.5  1.0  1.0  5  0 269173910
[17]  B10 1f 44   -610.5 4092001.6  1.0  1.0  5  0 269173907
$GNGGA,000000.000,,,,,0,00,,,M,,,,0000*2B
$GNRMC,000000.000,A,,,,,,,000000,,*26
$GPGSA,A,1,,,,,,,,,,,,,,,*1E
$BDGSA,A,1,,,,,,,,,,,,,,,*0F
$GPGSV,2,1,08,04,00,000,37,07,00,000,42,08,00,000,39,09,00,000,43*7F
$GPGSV,2,2,08,16,00,000,43,21,00,000,40,26,00,000,39,27,00,000,48*71
$BDGSV,1,1,02,07,00,000,43,10,00,000,44*6B
$LOGTIM,0,0.000000,0.000000,0.000000,0.000000,0.000*0A
EndT:        0
---00000033--- Acq_st=3 2019-5-22 02:46:11 
[00]  G04  f 38  -1516.3 2046002.0  1.0  1.0  5 3f 269188954
[01]  G07  f 43  -3592.8 2046004.6  1.0  1.0  5  0 269188953
[02]  G08  f 39  -1690.5 2046002.2  1.0  1.0  5  0 269188963
[03]  G09  f 42   -340.9 2046000.5  1.0  1.0  5  0 269188956
[04]  G16  f 43   1128.4 2045998.5  1.0  1.0  5  0 269188960
[05]  G21  f 41   1866.5 2045997.6  1.0  1.0  5  0 269188947
[06]  G26  f 39   1673.2 2045997.8  1.0  1.0  5  0 269188955
[07]  G27  f 49    628.5 2045999.2  1.0  1.0  5  0 269188964
[16]  B07 1f 44   -563.6 4092001.5  1.0  1.0  5  0 269174910
[17]  B10 1f 44   -613.0 4092001.6  1.0  1.0  5  0 269174907
$GNGGA,000000.000,,,,,0,00,,,M,,,,0000*2B
$GNRMC,000000.000,A,,,,,,,000000,,*26
$GPGSA,A,1,,,,,,,,,,,,,,,*1E
$BDGSA,A,1,,,,,,,,,,,,,,,*0F
$GPGSV,2,1,08,04,00,000,38,07,00,000,43,08,00,000,39,09,00,000,42*70
$GPGSV,2,2,08,16,00,000,43,21,00,000,41,26,00,000,39,27,00,000,49*71
$BDGSV,1,1,02,07,00,000,44,10,00,000,44*6C
$LOGTIM,0,0.000000,0.000000,0.000000,0.000000,0.000*0A
EndT:        0
---00000034--- Acq_st=3 2019-5-22 02:46:12 
[00]  G04  f 38  -1519.5 2046002.0  1.0  1.0  5 3f 269189954
[01]  G07  f 44  -3596.4 2046004.7  1.0  1.0  5  0 269189953
[02]  G08  f 38  -1693.3 2046002.2  1.0  1.0  5  0 269189963
[03]  G09  f 42   -344.5 2046000.4  1.0  1.0  5  0 269189956
[04]  G16  f 42   1125.2 2045998.5  1.0  1.0  5  0 269189960
[05]  G21  f 42   1862.8 2045997.6  1.0  1.0  5  0 269189947
[06]  G26  f 39   1669.9 2045997.8  1.0  1.0  5  0 269189955
[07]  G27  f 48    625.3 2045999.2  1.0  1.0  5  0 269189964
[16]  B07 1f 44   -566.9 4092001.5  1.0  1.0  5  0 269175910
[17]  B10 1f 44   -616.7 4092001.6  1.0  1.0  5  0 269175907
$GNGGA,000000.000,,,,,0,00,,,M,,,,0000*2B
$GNRMC,000000.000,A,,,,,,,000000,,*26
$GPGSA,A,1,,,,,,,,,,,,,,,*1E
$BDGSA,A,1,,,,,,,,,,,,,,,*0F
$GPGSV,2,1,08,04,00,000,38,07,00,000,44,08,00,000,38,09,00,000,42*76
$GPGSV,2,2,08,16,00,000,42,21,00,000,42,26,00,000,39,27,00,000,48*72
$BDGSV,1,1,02,07,00,000,44,10,00,000,44*6C
$LOGTIM,0,0.000000,0.000000,0.000000,0.000000,0.000*0A
EndT:        0
---00000035--- Acq_st=3 2019-5-22 02:46:13 
[00]  G04  f 38  -1516.4 2046002.0  1.0  1.0  5 3f 269190954
[01]  G07  f 44  -3593.7 2046004.7  1.0  1.0  5  0 269190953
[02]  G08  f 38  -1690.5 2046002.2  1.0  1.0  5  0 269190963
[03]  G09  f 43   -341.1 2046000.4  1.0  1.0  5  0 269190956
[04]  G16  f 42   1127.8 2045998.5  1.0  1.0  5  0 269190960
[05]  G21  f 42   1866.2 2045997.6  1.0  1.0  5  0 269190947
[06]  G26  f 39   1672.0 2045997.8  1.0  0.9  5  0 269190955
[07]  G27  f 48    628.7 2045999.2  1.0  1.0  5  0 269190964
[16]  B07 1f 44   -564.5 4092001.5  1.0  1.0  5  0 269176910
[17]  B10 1f 44   -614.2 4092001.6  1.0  1.0  5  0 269176907
$GNGGA,000000.000,,,,,0,00,,,M,,,,0000*2B
$GNRMC,000000.000,A,,,,,,,000000,,*26
$GPGSA,A,1,,,,,,,,,,,,,,,*1E
$BDGSA,A,1,,,,,,,,,,,,,,,*0F
$GPGSV,2,1,08,04,00,000,38,07,00,000,44,08,00,000,38,09,00,000,43*77
$GPGSV,2,2,08,16,00,000,42,21,00,000,42,26,00,000,39,27,00,000,48*72
$BDGSV,1,1,02,07,00,000,44,10,00,000,44*6C
$LOGTIM,0,0.000000,0.000000,0.000000,0.000000,0.000*0A
EndT:        0
---00000036--- Acq_st=3 2019-5-22 02:46:14 
[00]  G04  f 38  -1512.9 2046002.0  1.0  1.0  5 3f 269191954
[01]  G07  f 44  -3591.0 2046004.6  1.0  1.0  5  0 269191953
[02]  G08  f 38  -1687.3 2046002.2  1.0  1.0  5  0 269191963
[03]  G09  f 43   -337.6 2046000.4  1.0  1.0  5  0 269191956
[04]  G16  f 42   1130.7 2045998.5  1.0  1.0  5  0 269191960
[05]  G21  f 41   1869.3 2045997.6  1.0  1.0  5  0 269191947
[06]  G26  f 40   1674.6 2045997.9  1.0  1.0  5  0 269191955
[07]  G27  f 48    631.7 2045999.2  1.0  1.0  5  0 269191964
[16]  B07 1f 44   -561.7 4092001.5  1.0  1.0  5  0 269177910
[17]  B10 1f 44   -611.8 4092001.6  1.0  1.0  5  0 269177907
lsq: nits= 4
$GNGGA,024615.032,3112.7006,N,12136.4367,E,1,05,18.4,14.8,M,,,,0000*10
$GNRMC,024615.032,A,3112.7006,N,12136.4367,E,0.39,0.00,220519,,*1E
$GPGSA,A,3,07,08,09,,,,,,,,,,38.4,18.4,33.7*01
$BDGSA,A,3,07,10,,,,,,,,,,,38.4,18.4,33.7*10
$GPGSV,2,1,08,04,00,000,38,07,00,000,44,08,00,000,38,09,00,000,43*77
$GPGSV,2,2,08,16,00,000,42,21,00,000,41,26,00,000,40,27,00,000,48*7F
$BDGSV,1,1,02,07,00,000,44,10,00,000,44*6C
$LOGTIM,3,9292114.489007,9291951.571645,0.000000,0.000000,-62.889*15
EndT:        1
---00000037--- Acq_st=3 2019-5-22 02:46:15 
[00]  G04  f 39  -1513.2 2046002.0  1.0  1.0  5 3f 269192954
[01]  G07  f 43  -3591.7 2046004.7  1.0  1.0  5  0 269192953
[02]  G08  f 39  -1687.2 2046002.2  1.0  1.0  5  0 269192963
[03]  G09  f 43   -338.0 2046000.4  1.0  1.0  5  0 269192956
[04]  G16  f 42   1130.0 2045998.5  1.0  1.0  5  0 269192960
[05]  G21  f 41   1868.9 2045997.6  1.0  1.0  5  0 269192947
[06]  G26  f 40   1674.1 2045997.8  1.0  1.0  5  0 269192955
[07]  G27  f 48    631.6 2045999.2  1.0  1.0  5  0 269192964
[16]  B07 1f 43   -562.5 4092001.5  1.0  1.0  5  0 269178910
[17]  B10 1f 44   -612.0 4092001.6  1.0  1.0  5  0 269178907
---00000038--- Acq_st=3 2019-5-22 02:46:16 
[00]  G04  f 39  -1510.1 2046002.0  1.0  1.0  5 3f 269192954
[01]  G07  f 43  -3589.0 2046004.7  1.0  1.0  5  0 269192953
[02]  G08  f 37  -1684.3 2046002.2  1.0  1.0  5  0 269192963
[03]  G09  f 43   -334.9 2046000.4  1.0  1.0  5  0 269192956
[04]  G16  f 42   1132.2 2045998.5  1.0  1.0  5  0 269192960
[05]  G21  f 41   1871.8 2045997.6  1.0  1.0  5  0 269192947
[06]  G26  f 40   1676.8 2045997.8  1.0  1.0  5  0 269192955
[07]  G27  f 48    634.4 2045999.2  1.0  1.0  5  0 269192964
[16]  B07 1f 44   -560.5 4092001.5  1.0  1.0  5  0 269178910
[17]  B10 1f 44   -609.9 4092001.6  1.0  1.0  5  0 269178907
lsq: nits= 4
$GNGGA,024617.000,3112.7205,N,12136.4243,E,1,05,18.3,98.4,M,,,,0000*1A
$GNRMC,024617.000,A,3112.7205,N,12136.4243,E,2.12,0.00,220519,,*10
$GPGSA,A,3,07,08,09,,,,,,,,,,38.2,18.3,33.5*02
$BDGSA,A,3,07,10,,,,,,,,,,,38.2,18.3,33.5*13
$GPGSV,2,1,08,04,00,000,39,07,00,000,43,08,00,000,37,09,00,000,43*7E
$GPGSV,2,2,08,16,00,000,42,21,00,000,41,26,00,000,40,27,00,000,48*7F
$BDGSV,1,1,02,07,00,000,44,10,00,000,44*6C
$LOGTIM,3,-54.639915,-270.631118,0.000000,0.000000,-64.446*29
EndT:        1
---00000039--- Acq_st=3 2019-5-22 02:46:17 
[00]  G04  f 39  -1510.6 2046002.0  1.0  1.0  5 3f 269194922
[01]  G07  f 43  -3589.9 2046004.7  1.0  1.0  5  0 269194921
[02]  G08  f 37  -1684.6 2046002.2  1.0  1.0  5  0 269194931
[03]  G09  f 44   -335.2 2046000.4  1.0  1.0  5  0 269194924
[04]  G16  f 41   1131.5 2045998.6  1.0  1.0  5  0 269194928
[05]  G21  f 41   1871.0 2045997.6  1.0  1.0  5  0 269194915
[06]  G26  f 40   1676.1 2045997.8  1.0  1.0  5  0 269194923
[07]  G27  f 48    634.2 2045999.2  1.0  1.0  5  0 269194932
[16]  B07 1f 43   -561.5 4092001.5  1.0  1.0  5  0 269180878
[17]  B10 1f 44   -610.9 4092001.6  1.0  1.0  5  0 269180875
lsq: nits= 4
$GNGGA,024618.000,3112.9897,N,12136.1298,E,1,05,18.2,1295.5,M,,,,0000*17
$GNRMC,024618.000,A,3112.9897,N,12136.1298,E,4.05,0.00,220519,,*13
$GPGSA,A,3,07,08,09,,,,,,,,,,38.1,18.2,33.4*01
$BDGSA,A,3,07,10,,,,,,,,,,,38.1,18.2,33.4*10
$GPGSV,3,1,09,04,00,000,39,07,23,317,43,08,62,235,37,09,31,282,44*77
$GPGSV,3,2,09,16,00,000,41,21,00,000,41,26,00,000,40,27,00,000,48*7C
$GPGSV,3,3,09,23,36,237,00*42
$BDGSV,1,1,02,07,66,003,43,10,51,312,44*6C
$LOGTIM,3,992.202812,1025.711998,0.000000,0.000000,-66.223*27
EndT:        1
---00000040--- Acq_st=3 2019-5-22 02:46:18 
[00]  G04  f 39  -1509.7 2046002.0  1.0  1.0  5 3f 269195922
[01]  G07  f 44  -3589.2 2046004.6  1.0  1.0  5  0 269195921
[02]  G08  f 38  -1683.9 2046002.2  1.0  1.0  5  0 269195931
[03]  G09  f 43   -334.3 2046000.4  1.0  1.0  5  0 269195924
[04]  G16  f 42   1132.2 2045998.6  1.0  1.0  5  0 269195928
[05]  G21  f 40   1871.7 2045997.6  1.0  1.0  5  0 269195915
[06]  G26  f 39   1675.9 2045997.8  1.0  1.0  5  0 269195923
[07]  G27  f 48    635.0 2045999.2  1.0  1.0  5  0 269195932
[16]  B07 1f 44   -560.6 4092001.4  1.0  1.0  5  0 269181878
[17]  B10 1f 44   -610.6 4092001.6  1.0  1.0  5  0 269181875
lsq: nits= 4
$GNGGA,024619.000,3112.7029,N,12136.4332,E,1,09,1.9,42.4,M,,,,0000*26
$GNRMC,024619.000,A,3112.7029,N,12136.4332,E,0.09,0.00,220519,,*1D
$GPGSA,A,3,07,08,09,16,21,26,27,,,,,,2.8,1.9,2.0*31
$BDGSA,A,3,07,10,,,,,,,,,,,2.8,1.9,2.0*25
$GPGSV,3,1,09,04,00,000,39,07,23,317,44,08,62,235,38,09,31,282,43*78
$GPGSV,3,2,09,16,00,000,42,21,00,000,40,26,00,000,39,27,00,000,48*70
$GPGSV,3,3,09,23,36,237,00*42
$BDGSV,1,1,02,07,66,003,44,10,51,312,44*6B
$LOGTIM,3,-227.928772,-387.100488,0.000000,0.000000,-62.820*15
EndT:        2
---00000041--- Acq_st=3 2019-5-22 02:46:19 
[00]  G04  f 39  -1512.7 2046002.0  1.0  1.0  5 3f 269196922
[01]  G07  f 43  -3593.0 2046004.7  1.0  1.0  5  0 269196921
[02]  G08  f 38  -1687.1 2046002.2  1.0  0.9  5  0 269196931
[03]  G09  f 43   -337.4 2046000.4  1.0  1.0  5  0 269196924
[04]  G16  f 42   1128.8 2045998.6  1.0  1.0  5  0 269196928
[05]  G21  f 40   1868.4 2045997.6  1.0  1.0  5  0 269196915
[06]  G26  f 39   1673.5 2045997.8  1.0  1.0  5  0 269196923
[07]  G27  f 48    632.0 2045999.2  1.0  1.0  5  0 269196932
[16]  B07 1f 44   -564.4 4092001.5  1.0  1.0  5  0 269182878
[17]  B10 1f 44   -614.1 4092001.6  1.0  1.0  5  0 269182875
lsq: nits= 2
$GNGGA,024620.000,3112.7117,N,12136.4361,E,1,09,1.2,34.7,M,,,,0000*2F
$GNRMC,024620.000,A,3112.7117,N,12136.4361,E,0.12,0.00,220519,,*17
$GPGSA,A,3,07,08,09,16,21,26,27,,,,,,1.4,1.2,0.8*3F
$BDGSA,A,3,07,10,,,,,,,,,,,1.4,1.2,0.8*2B
$GPGSV,3,1,09,04,00,000,39,07,23,317,43,08,62,235,38,09,31,282,43*7F
$GPGSV,3,2,09,16,46,042,42,21,10,043,40,26,27,070,39,27,76,021,48*72
$GPGSV,3,3,09,23,36,237,00*42
$BDGSV,1,1,02,07,66,003,44,10,51,312,44*6B
$LOGTIM,3,-289.530645,-452.557921,0.000000,0.000000,-63.282*15
EndT:        3
---00000042--- Acq_st=3 2019-5-22 02:46:20 
[00]  G04  f 39  -1517.5 2046001.9  1.0  1.0  5 3f 269197922
[01]  G07  f 43  -3598.3 2046004.7  1.0  1.0  5  0 269197921
[02]  G08  f 38  -1691.3 2046002.2  1.0  1.0  5  0 269197931
[03]  G09  f 44   -341.6 2046000.4  1.0  1.0  5  0 269197924
[04]  G16  f 41   1123.5 2045998.5  1.0  1.0  5  0 269197928
[05]  G21  f 40   1863.8 2045997.6  1.0  1.0  5  0 269197915
[06]  G26  f 40   1667.8 2045997.9  1.0  1.0  5  0 269197923
[07]  G27  f 48    627.1 2045999.2  1.0  1.0  5  0 269197932
[16]  B07 1f 44   -569.8 4092001.5  1.0  1.0  5  0 269183878
[17]  B10 1f 44   -619.6 4092001.6  1.0  1.0  5  0 269183875
lsq: nits= 2
$GNGGA,024621.000,3112.7121,N,12136.4360,E,1,09,1.2,35.0,M,,,,0000*2C
$GNRMC,024621.000,A,3112.7121,N,12136.4360,E,0.18,0.00,220519,,*18
$GPGSA,A,3,07,08,09,16,21,26,27,,,,,,1.4,1.2,0.8*3F
$BDGSA,A,3,07,10,,,,,,,,,,,1.4,1.2,0.8*2B
$GPGSV,3,1,09,04,00,000,39,07,23,317,43,08,62,235,38,09,31,282,44*78
$GPGSV,3,2,09,16,46,042,41,21,10,043,40,26,27,070,40,27,76,021,48*7F
$GPGSV,3,3,09,23,36,237,00*42
$BDGSV,1,1,02,07,66,003,44,10,51,312,44*6B
$LOGTIM,3,-353.234434,-516.404208,0.000000,0.000000,-64.159*10
EndT:        3
---00000043--- Acq_st=3 2019-5-22 02:46:21 
[00]  G04  f 39  -1518.9 2046002.0  1.0  1.0  5 3f 269198922
[01]  G07  f 42  -3600.6 2046004.7  1.0  1.0  5  0 269198921
[02]  G08  f 38  -1692.9 2046002.2  1.0  1.0  5  0 269198931
[03]  G09  f 45   -343.0 2046000.4  1.0  1.0  5  0 269198924
[04]  G16  f 42   1121.6 2045998.5  1.0  1.0  5  0 269198928
[05]  G21  f 40   1862.0 2045997.6  1.0  1.0  5  0 269198915
[06]  G26  f 40   1665.4 2045997.8  1.0  1.0  5  0 269198923
[07]  G27  f 48    626.0 2045999.2  1.0  1.0  5  0 269198932
[16]  B07 1f 44   -571.7 4092001.5  1.0  1.0  5  0 269184878
[17]  B10 1f 43   -621.6 4092001.6  1.0  1.0  5  0 269184875
[18]  B28  1  7   1632.2 4091994.9 -0.2  0.0  1  0      3143
lsq: nits= 2
$GNGGA,024622.000,3112.7132,N,12136.4359,E,1,09,1.2,36.1,M,,,,0000*25
$GNRMC,024622.000,A,3112.7132,N,12136.4359,E,0.43,0.00,220519,,*1D
$GPGSA,A,3,07,08,09,16,21,26,27,,,,,,1.4,1.2,0.8*3F
$BDGSA,A,3,07,10,,,,,,,,,,,1.4,1.2,0.8*2B
$GPGSV,3,1,09,04,00,000,39,07,23,317,42,08,62,235,38,09,31,282,45*78
$GPGSV,3,2,09,16,46,042,42,21,10,043,40,26,27,070,40,27,76,021,48*7C
$GPGSV,3,3,09,23,36,237,00*42
$BDGSV,1,1,02,07,66,003,44,10,51,312,43*6C
$LOGTIM,3,-416.757425,-579.807019,0.000000,0.000000,-64.516*1D
EndT:        3
---00000044--- Acq_st=7 2019-5-22 02:46:22 
[00]  G04  f 38  -1518.2 2046002.0  1.0  1.0  5 3f 269199922
[01]  G07  f 43  -3600.0 2046004.7  1.0  1.0  5  0 269199921
[02]  G08  f 38  -1692.9 2046002.2  1.0  1.0  5  0 269199931
[03]  G09  f 44   -342.6 2046000.5  1.0  1.0  5  0 269199924
[04]  G16  f 42   1121.6 2045998.5  1.0  1.0  5  0 269199928
[05]  G21  f 40   1862.0 2045997.6  1.0  1.0  5  0 269199915
[06]  G26  f 39   1666.0 2045997.8  1.0  1.0  5  0 269199923
[07]  G27  f 48    626.2 2045999.2  1.0  1.0  5  0 269199932
[16]  B07 1f 44   -571.8 4092001.5  1.0  1.0  5  0 269185878
[17]  B10 1f 43   -621.7 4092001.6  1.0  1.0  5  0 269185875
[18]  B28  1  7   1631.9 4091995.9 -0.0  0.0  1  0       872
lsq: nits= 2
$GNGGA,024623.000,3112.7142,N,12136.4350,E,1,09,1.2,37.1,M,,,,0000*2B
$GNRMC,024623.000,A,3112.7142,N,12136.4350,E,0.48,0.00,220519,,*19
$GPGSA,A,3,07,08,09,16,21,26,27,,,,,,1.4,1.2,0.8*3F
$BDGSA,A,3,07,10,,,,,,,,,,,1.4,1.2,0.8*2B
$GPGSV,3,1,09,04,00,000,38,07,24,317,43,08,62,235,38,09,31,282,44*7E
$GPGSV,3,2,09,16,46,042,42,21,10,043,40,26,27,070,39,27,76,021,48*72
$GPGSV,3,3,09,23,36,237,00*42
$BDGSV,1,1,02,07,66,003,44,10,51,312,43*6C
$LOGTIM,3,-480.616033,-643.448469,0.000000,0.000000,-64.593*16
EndT:        3
---00000045--- Acq_st=7 2019-5-22 02:46:23 
[00]  G04  f 38  -1515.9 2046001.9  1.0  1.0  5 3f 269200922
[01]  G07  f 43  -3598.3 2046004.7  1.0  1.0  5  0 269200921
[02]  G08  f 37  -1690.4 2046002.3  1.0  0.9  5  0 269200931
[03]  G09  f 44   -340.5 2046000.5  1.0  1.0  5  0 269200924
[04]  G16  f 41   1123.3 2045998.5  1.0  1.0  5  0 269200928
[05]  G21  f 40   1864.3 2045997.6  1.0  1.0  5  0 269200915
[06]  G26  f 39   1667.6 2045997.8  1.0  1.0  5  0 269200923
[07]  G27  f 48    628.3 2045999.2  1.0  1.0  5  0 269200932
[16]  B07 1f 43   -570.6 4092001.5  1.0  1.0  5  0 269186878
[17]  B10 1f 44   -620.6 4092001.6  1.0  1.0  5  0 269186875
[18]  B28  1  7   1633.6 4091995.7  0.1  0.0  1  0      1872
lsq: nits= 2
$GNGGA,024624.000,3112.7144,N,12136.4341,E,1,09,1.2,37.6,M,,,,0000*2D
$GNRMC,024624.000,A,3112.7144,N,12136.4341,E,0.28,0.00,220519,,*1E
$GPGSA,A,3,07,08,09,16,21,26,27,,,,,,1.4,1.2,0.8*3F
$BDGSA,A,3,07,10,,,,,,,,,,,1.4,1.2,0.8*2B
$GPGSV,3,1,09,04,00,000,38,07,24,317,43,08,62,235,37,09,31,282,44*71
$GPGSV,3,2,09,16,46,042,41,21,10,043,40,26,27,070,39,27,76,021,48*71
$GPGSV,3,3,09,23,36,237,00*42
$BDGSV,1,1,02,07,66,003,43,10,51,312,44*6C
$LOGTIM,3,-544.972020,-707.749546,0.000000,0.000000,-64.500*15
EndT:        3
---00000046--- Acq_st=7 2019-5-22 02:46:24 
[00]  G04  f 39  -1514.0 2046002.0  1.0  1.0  5 3f 269201922
[01]  G07  f 44  -3596.7 2046004.7  1.0  1.0  5  0 269201921
[02]  G08  f 38  -1688.4 2046002.2  1.0  1.0  5  0 269201931
[03]  G09  f 44   -338.3 2046000.4  1.0  1.0  5  0 269201924
[04]  G16  f 41   1125.3 2045998.5  1.0  1.0  5  0 269201928
[05]  G21  f 40   1866.4 2045997.6  1.0  1.0  5  0 269201915
[06]  G26  f 39   1669.1 2045997.9  1.0  1.0  5  0 269201923
[07]  G27  f 48    630.6 2045999.2  1.0  1.0  5  0 269201932
[16]  B07 1f 43   -568.6 4092001.5  1.0  1.0  5  0 269187878
[17]  B10 1f 44   -618.3 4092001.6  1.0  1.0  5  0 269187875
lsq: nits= 2
$GNGGA,024625.000,3112.7143,N,12136.4337,E,1,09,1.2,38.2,M,,,,0000*21
$GNRMC,024625.000,A,3112.7143,N,12136.4337,E,0.09,0.00,220519,,*1A
$GPGSA,A,3,07,08,09,16,21,26,27,,,,,,1.4,1.2,0.8*3F
$BDGSA,A,3,07,10,,,,,,,,,,,1.4,1.2,0.8*2B
$GPGSV,3,1,09,04,00,000,39,07,24,317,44,08,62,235,38,09,31,282,44*78
$GPGSV,3,2,09,16,46,042,41,21,10,043,40,26,27,070,39,27,76,021,48*71
$GPGSV,3,3,09,23,36,237,00*42
$BDGSV,1,1,02,07,66,003,43,10,51,312,44*6C
$LOGTIM,3,-609.049685,-771.789757,0.000000,0.000000,-64.232*1E
EndT:        3
---00000047--- Acq_st=3 2019-5-22 02:46:25 
[00]  G04  f 39  -1512.0 2046002.0  1.0  0.9  5 3f 269202922
[01]  G07  f 43  -3595.3 2046004.7  1.0  1.0  5  0 269202921
[02]  G08  f 38  -1687.1 2046002.2  1.0  1.0  5  0 269202931
[03]  G09  f 44   -336.0 2046000.4  1.0  1.0  5  0 269202924
[04]  G16  f 41   1126.6 2045998.5  1.0  1.0  5  0 269202928
[05]  G21  f 40   1867.9 2045997.6  1.0  1.0  5  0 269202915
[06]  G26  f 39   1670.2 2045997.8  1.0  1.0  5  0 269202923
[07]  G27  f 47    632.1 2045999.2  1.0  1.0  5  0 269202932
[16]  B07 1f 43   -567.9 4092001.5  1.0  1.0  5  0 269188878
[17]  B10 1f 44   -617.2 4092001.6  1.0  1.0  5  0 269188875
lsq: nits= 2
$GNGGA,024626.000,3112.7142,N,12136.4336,E,1,08,1.3,38.9,M,,,,0000*29
$GNRMC,024626.000,A,3112.7142,N,12136.4336,E,0.14,0.00,220519,,*15
$GPGSA,A,3,07,08,09,16,21,26,27,,,,,,1.6,1.3,0.9*3D
$BDGSA,A,3,07,,,,,,,,,,,,1.6,1.3,0.9*28
$GPGSV,3,1,09,04,00,000,39,07,24,317,43,08,62,235,38,09,31,282,44*7F
$GPGSV,3,2,09,16,46,042,41,21,10,043,40,26,27,070,39,27,76,021,47*7E
$GPGSV,3,3,09,23,36,237,00*42
$BDGSV,1,1,02,07,66,003,43,10,51,312,44*6C
$LOGTIM,3,-672.575178,-835.237094,0.000000,0.000000,-64.028*13
EndT:        3
---00000048--- Acq_st=3 2019-5-22 02:46:26 
[00]  G04  f 39  -1512.7 2046002.0  1.0  1.0  5 3f 269203922
[01]  G07  f 43  -3596.6 2046004.6  1.0  1.0  5  0 269203921
[02]  G08  f 37  -1687.4 2046002.2  1.0  1.0  5  0 269203931
[03]  G09  f 44   -337.0 2046000.4  1.0  1.0  5  0 269203924
[04]  G16  f 41   1125.6 2045998.5  1.0  1.0  5  0 269203928
[05]  G21  f 40   1866.6 2045997.6  1.0  1.0  5  0 269203915
[06]  G26  f 39   1668.9 2045997.8  1.0  1.0  5  0 269203923
[07]  G27  f 47    631.4 2045999.2  1.0  1.0  5  0 269203932
[16]  B07 1f 43   -568.9 4092001.5  1.0  1.0  5  0 269189878
[17]  B10 1f 44   -618.9 4092001.6  1.0  1.0  5  0 269189875
lsq: nits= 2
$GNGGA,024627.000,3112.7144,N,12136.4336,E,1,08,1.3,39.6,M,,,,0000*20
$GNRMC,024627.000,A,3112.7144,N,12136.4336,E,0.03,0.00,220519,,*14
$GPGSA,A,3,07,08,09,16,21,26,27,,,,,,1.6,1.3,0.9*3D
$BDGSA,A,3,07,,,,,,,,,,,,1.6,1.3,0.9*28
$GPGSV,3,1,09,04,00,000,39,07,24,317,43,08,62,235,37,09,31,282,44*70
$GPGSV,3,2,09,16,46,042,41,21,10,043,40,26,27,070,39,27,76,021,47*7E
$GPGSV,3,3,09,23,36,237,00*42
$BDGSV,1,1,02,07,66,003,43,10,51,312,44*6C
$LOGTIM,3,-736.211627,-898.775540,0.000000,0.000000,-64.149*14
EndT:        3
---00000049--- Acq_st=3 2019-5-22 02:46:27 
[00]  G04  f 38  -1509.4 2046002.0  1.0  1.0  5 3f 269204922
[01]  G07  f 43  -3594.0 2046004.7  1.0  1.0  5  0 269204921
[02]  G08  f 38  -1684.8 2046002.1  1.0  1.0  5  0 269204931
[03]  G09  f 44   -334.1 2046000.5  1.0  1.0  5  0 269204924
[04]  G16  f 42   1128.1 2045998.6  1.0  1.0  5  0 269204928
[05]  G21  f 41   1869.9 2045997.5  1.0  1.0  5  0 269204915
[06]  G26  f 39   1671.0 2045997.8  1.0  1.0  5  0 269204923
[07]  G27  f 47    634.5 2045999.2  1.0  1.0  5  0 269204932
[16]  B07 1f 43   -566.9 4092001.5  1.0  1.0  5  0 269190878
[17]  B10 1f 44   -616.6 4092001.6  1.0  1.0  5  0 269190875
lsq: nits= 2
$GNGGA,024628.000,3112.7153,N,12136.4337,E,1,08,1.3,39.8,M,,,,0000*26
$GNRMC,024628.000,A,3112.7153,N,12136.4337,E,0.05,0.00,220519,,*1A
$GPGSA,A,3,07,08,09,16,21,26,27,,,,,,1.6,1.3,1.0*35
$BDGSA,A,3,10,,,,,,,,,,,,1.6,1.3,1.0*26
$GPGSV,3,1,09,04,00,000,38,07,24,317,43,08,62,235,38,09,31,282,44*7E
$GPGSV,3,2,09,16,46,042,42,21,10,043,41,26,27,070,39,27,76,021,47*7C
$GPGSV,3,3,09,23,36,237,00*42
$BDGSV,1,1,02,07,66,003,43,10,51,312,44*6C
$LOGTIM,3,-800.384697,-963.086894,0.000000,0.000000,-63.822*11
EndT:        3
---00000050--- Acq_st=3 2019-5-22 02:46:28 
[00]  G04  f 38  -1508.1 2046002.0  1.0  1.0  5 3f 269205922
[01]  G07  f 42  -3592.3 2046004.7  1.0  1.0  5  0 269205921
[02]  G08  f 38  -1682.8 2046002.2  1.0  1.0  5  0 269205931
[03]  G09  f 44   -331.9 2046000.4  1.0  1.0  5  0 269205924
[04]  G16  f 42   1129.3 2045998.5  1.0  1.0  5  0 269205928
[05]  G21  f 41   1871.2 2045997.6  1.0  1.0  5  0 269205915
[06]  G26  f 39   1673.3 2045997.8  1.0  1.0  5  0 269205923
[07]  G27  f 47    636.5 2045999.2  1.0  1.0  5  0 269205932
[16]  B07 1f 44   -565.3 4092001.5  1.0  1.0  5  0 269191878
[17]  B10 1f 44   -615.1 4092001.6  1.0  1.0  5  0 269191875
lsq: nits= 2
$GNGGA,024629.000,3112.7156,N,12136.4335,E,1,09,1.2,39.7,M,,,,0000*2F
$GNRMC,024629.000,A,3112.7156,N,12136.4335,E,0.22,0.00,220519,,*19
$GPGSA,A,3,07,08,09,16,21,26,27,,,,,,1.4,1.2,0.8*3F
$BDGSA,A,3,07,10,,,,,,,,,,,1.4,1.2,0.8*2B
$GPGSV,3,1,09,04,00,000,38,07,24,317,42,08,62,235,38,09,31,282,44*7F
$GPGSV,3,2,09,16,46,042,42,21,10,043,41,26,27,070,39,27,76,021,47*7C
$GPGSV,3,3,09,23,36,237,00*42
$BDGSV,1,1,02,07,66,003,44,10,51,312,44*6B
$LOGTIM,3,-864.539527,-1027.200114,0.000000,0.000000,-63.695*2C
EndT:        3
---00000051--- Acq_st=3 2019-5-22 02:46:29 
[00]  G04  f 38  -1511.0 2046002.0  1.0  1.0  5 3f 269206922
[01]  G07  f 42  -3596.6 2046004.7  1.0  1.0  5  0 269206921
[02]  G08  f 38  -1686.1 2046002.2  1.0  1.0  5  0 269206931
[03]  G09  f 44   -335.3 2046000.5  1.0  1.0  5  0 269206924
[04]  G16  f 42   1125.7 2045998.6  1.0  1.0  5  0 269206928
[05]  G21  f 41   1868.2 2045997.6  1.0  1.0  5  0 269206915
[06]  G26  f 38   1669.2 2045997.9  1.0  1.0  5  0 269206923
[07]  G27  f 47    633.2 2045999.2  1.0  1.0  5  0 269206932
[16]  B07 1f 44   -569.3 4092001.5  1.0  1.0  5  0 269192878
[17]  B10 1f 44   -618.9 4092001.6  1.0  1.0  5  0 269192875
lsq: nits= 2
$GNGGA,024630.000,3112.7156,N,12136.4334,E,1,09,1.2,39.7,M,,,,0000*26
$GNRMC,024630.000,A,3112.7156,N,12136.4334,E,0.16,0.00,220519,,*17
$GPGSA,A,3,07,08,09,16,21,26,27,,,,,,1.4,1.2,0.8*3F
$BDGSA,A,3,07,10,,,,,,,,,,,1.4,1.2,0.8*2B
$GPGSV,3,1,09,04,00,000,38,07,24,317,42,08,62,235,38,09,31,282,44*7F
$GPGSV,3,2,09,16,46,042,42,21,10,043,41,26,27,070,38,27,76,021,47*7D
$GPGSV,3,3,09,23,36,237,00*42
$BDGSV,1,1,02,07,66,003,44,10,51,312,44*6B
$LOGTIM,3,-928.660356,-1091.294505,0.000000,0.000000,-64.137*26
EndT:        3
---00000052--- Acq_st=3 2019-5-22 02:46:30 
[00]  G04  f 39  -1512.0 2046002.0  1.0  1.0  5 3f 269207922
[01]  G07  f 42  -3598.2 2046004.7  1.0  1.0  5  0 269207921
[02]  G08  f 38  -1686.6 2046002.2  1.0  1.0  5  0 269207931
[03]  G09  f 44   -336.5 2046000.4  1.0  1.0  5  0 269207924
[04]  G16  f 41   1124.0 2045998.5  1.0  1.0  5  0 269207928
[05]  G21  f 41   1867.1 2045997.6  1.0  1.0  5  0 269207915
[06]  G26  f 38   1667.8 2045997.8  1.0  1.0  5  0 269207923
[07]  G27  f 47    632.3 2045999.2  1.0  1.0  5  0 269207932
[16]  B07 1f 43   -570.7 4092001.5  1.0  1.0  5  0 269193878
[17]  B10 1f 44   -620.5 4092001.6  1.0  1.0  5  0 269193875
lsq: nits= 2
$GNGGA,024631.000,3112.7156,N,12136.4330,E,1,09,1.2,41.0,M,,,,0000*2B
$GNRMC,024631.000,A,3112.7156,N,12136.4330,E,0.10,0.00,220519,,*14
$GPGSA,A,3,07,08,09,16,21,26,27,,,,,,1.4,1.2,0.8*3F
$BDGSA,A,3,07,10,,,,,,,,,,,1.4,1.2,0.8*2B
$GPGSV,3,1,09,04,00,000,39,07,24,317,42,08,62,235,38,09,31,282,44*7E
$GPGSV,3,2,09,16,46,042,41,21,10,043,41,26,27,070,38,27,76,021,47*7E
$GPGSV,3,3,09,23,36,237,00*42
$BDGSV,1,1,02,07,66,003,43,10,51,312,44*6C
$LOGTIM,3,-993.495783,-1155.868746,0.000000,0.000000,-64.451*22
EndT:        3
---00000053--- Acq_st=3 2019-5-22 02:46:31 
[00]  G04  f 39  -1510.0 2046001.9  1.0  1.0  5 3f 269208922
[01]  G07  f 42  -3596.6 2046004.7  1.0  1.0  5  0 269208921
[02]  G08  f 37  -1685.0 2046002.2  1.0  1.0  5  0 269208931
[03]  G09  f 44   -334.0 2046000.4  1.0  1.0  5  0 269208924
[04]  G16  f 41   1125.5 2045998.5  1.0  1.0  5  0 269208928
[05]  G21  f 41   1868.3 2045997.5  1.0  1.0  5  0 269208915
[06]  G26  f 38   1668.9 2045997.8  1.0  1.0  5  0 269208923
[07]  G27  f 46    633.9 2045999.2  1.0  1.0  5  0 269208932
[16]  B07 1f 44   -569.5 4092001.5  1.0  1.0  5  0 269194878
[17]  B10 1f 44   -619.2 4092001.6  1.0  1.0  5  0 269194875
lsq: nits= 2
$GNGGA,024632.000,3112.7158,N,12136.4332,E,1,08,1.3,43.4,M,,,,0000*22
$GNRMC,024632.000,A,3112.7158,N,12136.4332,E,0.08,0.00,220519,,*12
$GPGSA,A,3,07,08,09,16,21,26,27,,,,,,1.6,1.3,1.0*35
$BDGSA,A,3,10,,,,,,,,,,,,1.6,1.3,1.0*26
$GPGSV,3,1,09,04,00,000,39,07,24,317,42,08,62,235,37,09,31,282,44*71
$GPGSV,3,2,09,16,46,042,41,21,10,043,41,26,27,070,38,27,76,021,46*7F
$GPGSV,3,3,09,23,36,237,00*42
$BDGSV,1,1,02,07,66,003,44,10,51,312,44*6B
$LOGTIM,3,-1057.478634,-1219.623727,0.000000,0.000000,-64.328*18
EndT:        2
---00000054--- Acq_st=3 2019-5-22 02:46:32 
[00]  G04  f 39  -1511.1 2046002.0  1.0  1.0  5 3f 269209922
[01]  G07  f 42  -3597.8 2046004.7  1.0  1.0  5  0 269209921
[02]  G08  f 38  -1685.6 2046002.2  1.0  1.0  5  0 269209931
[03]  G09  f 44   -335.3 2046000.4  1.0  1.0  5  0 269209924
[04]  G16  f 41   1124.7 2045998.5  1.0  1.0  5  0 269209928
[05]  G21  f 41   1867.4 2045997.6  1.0  1.0  5  0 269209915
[06]  G26  f 39   1668.1 2045997.8  1.0  1.0  5  0 269209923
[07]  G27  f 46    633.2 2045999.2  1.0  1.0  5  0 269209932
[16]  B07 1f 44   -570.8 4092001.5  1.0  1.0  5  0 269195878
[17]  B10 1f 44   -620.7 4092001.6  1.0  1.0  5  0 269195875
lsq: nits= 2
$GNGGA,024633.000,3112.7154,N,12136.4331,E,1,09,1.2,44.1,M,,,,0000*2E
$GNRMC,024633.000,A,3112.7154,N,12136.4331,E,0.17,0.00,220519,,*12
$GPGSA,A,3,07,08,09,16,21,26,27,,,,,,1.4,1.2,0.8*3F
$BDGSA,A,3,07,10,,,,,,,,,,,1.4,1.2,0.8*2B
$GPGSV,3,1,09,04,00,000,39,07,24,317,42,08,62,235,38,09,31,282,44*7E
$GPGSV,3,2,09,16,46,042,41,21,10,043,41,26,27,070,39,27,76,021,46*7E
$GPGSV,3,3,09,23,36,237,00*42
$BDGSV,1,1,02,07,66,003,44,10,51,312,44*6B
