FlashID=0x1 0x20 0x18
BBram_blkflag1: 4d8e: b271
FW Ver: 1.30  
GPS00 Init Dop:   5000, 40
GPS01 Init Dop:   5000, 40
GPS02 Init Dop:   5000, 40
GPS03 Init Dop:   5000, 40
GPS04 Init Dop:   5000, 40
GPS05 Init Dop:   5000, 40
GPS06 Init Dop:   5000, 40
GPS07 Init Dop:   5000, 40
GPS08 Init Dop:   5000, 40
GPS09 Init Dop:   5000, 40
GPS10 Init Dop:   5000, 40
GPS11 Init Dop:   5000, 40
GPS12 Init Dop:   5000, 40
GPS13 Init Dop:   5000, 40
GPS14 Init Dop:   5000, 40
GPS15 Init Dop:   5000, 40
GPS16 Init Dop:   5000, 40
GPS17 Init Dop:   5000, 40
GPS18 Init Dop:   5000, 40
GPS19 Init Dop:   5000, 40
GPS20 Init Dop:   5000, 40
GPS21 Init Dop:   5000, 40
GPS22 Init Dop:   5000, 40
GPS23 Init Dop:   5000, 40
GPS24 Init Dop:   5000, 40
GPS25 Init Dop:   5000, 40
GPS26 Init Dop:   5000, 40
GPS27 Init Dop:   5000, 40
GPS28 Init Dop:   5000, 40
GPS29 Init Dop:   5000, 40
GPS30 Init Dop:   5000, 40
GPS31 Init Dop:   5000, 40
BDS00 Init Dop:   5000, 40
BDS01 Init Dop:   5000, 40
BDS02 Init Dop:   5000, 40
BDS03 Init Dop:   5000, 40
BDS04 Init Dop:   5000, 40
BDS05 Init Dop:   5000, 40
BDS06 Init Dop:   5000, 40
BDS07 Init Dop:   5000, 40
BDS08 Init Dop:   5000, 40
BDS09 Init Dop:   5000, 40
BDS10 Init Dop:   5000, 40
BDS11 Init Dop:   5000, 40
BDS12 Init Dop:   5000, 40
BDS13 Init Dop:   5000, 40
BDS14 Init Dop:   5000, 40
BDS15 Init Dop:   5000, 40
BDS16 Init Dop:   5000, 40
BDS17 Init Dop:   5000, 40
BDS18 Init Dop:   5000, 40
BDS19 Init Dop:   5000, 40
BDS20 Init Dop:   5000, 40
BDS21 Init Dop:   5000, 40
BDS22 Init Dop:   5000, 40
BDS23 Init Dop:   5000, 40
BDS24 Init Dop:   5000, 40
BDS25 Init Dop:   5000, 40
BDS26 Init Dop:   5000, 40
BDS27 Init Dop:   5000, 40
BDS28 Init Dop:   5000, 40
BDS29 Init Dop:   5000, 40
BDS30 Init Dop:   5000, 40
BDS31 Init Dop:   5000, 40
---00000001--- Acq_st=3 2019-5-25 03:42:45 
$GNGGA,000000.000,,,,,0,00,,,M,,,,0000*2B
$GNRMC,000000.000,A,,,,,,,000000,,*26
$GPGSA,A,1,,,,,,,,,,,,,,,*1E
$BDGSA,A,1,,,,,,,,,,,,,,,*0F
$LOGTIM,0,0.000000,0.000000,0.000000,0.000000,0.000*0A
EndT:        0
---00000002--- Acq_st=3 2019-5-25 03:42:46 
$GNGGA,000000.000,,,,,0,00,,,M,,,,0000*2B
$GNRMC,000000.000,A,,,,,,,000000,,*26
$GPGSA,A,1,,,,,,,,,,,,,,,*1E
$BDGSA,A,1,,,,,,,,,,,,,,,*0F
$LOGTIM,0,0.000000,0.000000,0.000000,0.000000,0.000*0A
EndT:        0
---00000003--- Acq_st=3 2019-5-25 03:42:47 
$GNGGA,000000.000,,,,,0,00,,,M,,,,0000*2B
$GNRMC,000000.000,A,,,,,,,000000,,*26
$GPGSA,A,1,,,,,,,,,,,,,,,*1E
$BDGSA,A,1,,,,,,,,,,,,,,,*0F
$LOGTIM,0,0.000000,0.000000,0.000000,0.000000,0.000*0A
EndT:        0
---00000004--- Acq_st=3 2019-5-25 03:42:48 
$GNGGA,000000.000,,,,,0,00,,,M,,,,0000*2B
$GNRMC,000000.000,A,,,,,,,000000,,*26
$GPGSA,A,1,,,,,,,,,,,,,,,*1E
$BDGSA,A,1,,,,,,,,,,,,,,,*0F
$LOGTIM,0,0.000000,0.000000,0.000000,0.000000,0.000*0A
EndT:        0
---00000005--- Acq_st=3 2019-5-25 03:42:49 
$GNGGA,000000.000,,,,,0,00,,,M,,,,0000*2B
$GNRMC,000000.000,A,,,,,,,000000,,*26
$GPGSA,A,1,,,,,,,,,,,,,,,*1E
$BDGSA,A,1,,,,,,,,,,,,,,,*0F
$LOGTIM,0,0.000000,0.000000,0.000000,0.000000,0.000*0A
EndT:        0
---00000006--- Acq_st=3 2019-5-25 03:42:50 
$GNGGA,000000.000,,,,,0,00,,,M,,,,0000*2B
$GNRMC,000000.000,A,,,,,,,000000,,*26
$GPGSA,A,1,,,,,,,,,,,,,,,*1E
$BDGSA,A,1,,,,,,,,,,,,,,,*0F
$LOGTIM,0,0.000000,0.000000,0.000000,0.000000,0.000*0A
EndT:        0
---00000007--- Acq_st=3 2019-5-25 03:42:51 
$GNGGA,000000.000,,,,,0,00,,,M,,,,0000*2B
$GNRMC,000000.000,A,,,,,,,000000,,*26
$GPGSA,A,1,,,,,,,,,,,,,,,*1E
$BDGSA,A,1,,,,,,,,,,,,,,,*0F
$LOGTIM,0,0.000000,0.000000,0.000000,0.000000,0.000*0A
EndT:        0
---00000008--- Acq_st=3 2019-5-25 03:42:52 
$GNGGA,000000.000,,,,,0,00,,,M,,,,0000*2B
$GNRMC,000000.000,A,,,,,,,000000,,*26
$GPGSA,A,1,,,,,,,,,,,,,,,*1E
$BDGSA,A,1,,,,,,,,,,,,,,,*0F
$LOGTIM,0,0.000000,0.000000,0.000000,0.000000,0.000*0A
EndT:        0
ch0 satid=6,max_freq = 2500,max_mean = 24834,max_phase = 15,max_value = 767911,acq ok1!
acq ok1 timeH = 0,timeL = 140579777,freq_stage = 2
---00000009--- Acq_st=3 2019-5-25 03:42:53 
[00]  G07  1 30  -2495.1 2046003.9  0.0  0.0  1  0         0
$GNGGA,000000.000,,,,,0,00,,,M,,,,0000*2B
$GNRMC,000000.000,A,,,,,,,000000,,*26
$GPGSA,A,1,,,,,,,,,,,,,,,*1E
$BDGSA,A,1,,,,,,,,,,,,,,,*0F
$LOGTIM,0,0.000000,0.000000,0.000000,0.000000,0.000*0A
EndT:        0
ch1 satid=7,max_freq = -250,max_mean = 24512,max_phase = 633,max_value = 814545,acq ok1!
acq ok1 timeH = 0,timeL = 167759262,freq_stage = 3
---00000010--- Acq_st=3 2019-5-25 03:42:54 
[00]  G07  7 27  -2504.7 2046003.2  0.4  0.0 10  0        13
[01]  G08  1 24    301.0 2045999.7 -0.1  0.0  1  0         0
$GNGGA,000000.000,,,,,0,00,,,M,,,,0000*2B
$GNRMC,000000.000,A,,,,,,,000000,,*26
$GPGSA,A,1,,,,,,,,,,,,,,,*1E
$BDGSA,A,1,,,,,,,,,,,,,,,*0F
$GPGSV,1,1,01,07,00,000,27*4A
$LOGTIM,0,0.000000,0.000000,0.000000,0.000000,0.000*0A
EndT:        0
---00000011--- Acq_st=3 2019-5-25 03:42:55 
[00]  G07  7 43  -2506.5 2046003.2  1.0  1.0  5  0        11
[01]  G08  7 22    305.2 2045999.6  0.1  0.0 20  0        13
$GNGGA,000000.000,,,,,0,00,,,M,,,,0000*2B
$GNRMC,000000.000,A,,,,,,,000000,,*26
$GPGSA,A,1,,,,,,,,,,,,,,,*1E
$BDGSA,A,1,,,,,,,,,,,,,,,*0F
$GPGSV,1,1,02,07,00,000,43,08,00,000,22*73
$LOGTIM,0,0.000000,0.000000,0.000000,0.000000,0.000*0A
EndT:        0
---00000012--- Acq_st=3 2019-5-25 03:42:56 
[00]  G07  7 43  -2507.0 2046003.3  1.0  1.0  5  0        11
[01]  G08  7 45    304.3 2045999.6  0.8  1.0  5  0        14
$GNGGA,000000.000,,,,,0,00,,,M,,,,0000*2B
$GNRMC,000000.000,A,,,,,,,000000,,*26
$GPGSA,A,1,,,,,,,,,,,,,,,*1E
$BDGSA,A,1,,,,,,,,,,,,,,,*0F
$GPGSV,1,1,02,07,00,000,43,08,00,000,45*72
$LOGTIM,0,0.000000,0.000000,0.000000,0.000000,0.000*0A
EndT:        0
---00000013--- Acq_st=3 2019-5-25 03:42:57 
[00]  G07  7 43  -2501.3 2046003.2  1.0  1.0  5  0        11
[01]  G08  7 45    310.0 2045999.6  1.0  1.0  5  0        14
$GNGGA,000000.000,,,,,0,00,,,M,,,,0000*2B
$GNRMC,000000.000,A,,,,,,,000000,,*26
$GPGSA,A,1,,,,,,,,,,,,,,,*1E
$BDGSA,A,1,,,,,,,,,,,,,,,*0F
$GPGSV,1,1,02,07,00,000,43,08,00,000,45*72
$LOGTIM,0,0.000000,0.000000,0.000000,0.000000,0.000*0A
EndT:        0
---00000014--- Acq_st=3 2019-5-25 03:42:58 
[00]  G07  7 43  -2500.4 2046003.3  1.0  1.0  5  0        11
[01]  G08  7 45    310.9 2045999.6  1.0  1.0  5  0        14
$GNGGA,000000.000,,,,,0,00,,,M,,,,0000*2B
$GNRMC,000000.000,A,,,,,,,000000,,*26
$GPGSA,A,1,,,,,,,,,,,,,,,*1E
$BDGSA,A,1,,,,,,,,,,,,,,,*0F
$GPGSV,1,1,02,07,00,000,43,08,00,000,45*72
$LOGTIM,0,0.000000,0.000000,0.000000,0.000000,0.000*0A
EndT:        0
---00000015--- Acq_st=3 2019-5-25 03:42:59 
[00]  G07  7 43  -2505.1 2046003.3  1.0  1.0  5  0        11
[01]  G08  7 45    305.8 2045999.6  1.0  1.0  5  0        14
$GNGGA,000000.000,,,,,0,00,,,M,,,,0000*2B
$GNRMC,000000.000,A,,,,,,,000000,,*26
$GPGSA,A,1,,,,,,,,,,,,,,,*1E
$BDGSA,A,1,,,,,,,,,,,,,,,*0F
$GPGSV,1,1,02,07,00,000,43,08,00,000,45*72
$LOGTIM,0,0.000000,0.000000,0.000000,0.000000,0.000*0A
EndT:        0
---00000016--- Acq_st=3 2019-5-25 03:43:0 
[00]  G07  7 44  -2509.0 2046003.3  1.0  1.0  5  0        11
[01]  G08  7 45    301.8 2045999.6  1.0  1.0  5  0        14
$GNGGA,000000.000,,,,,0,00,,,M,,,,0000*2B
$GNRMC,000000.000,A,,,,,,,000000,,*26
$GPGSA,A,1,,,,,,,,,,,,,,,*1E
$BDGSA,A,1,,,,,,,,,,,,,,,*0F
$GPGSV,1,1,02,07,00,000,44,08,00,000,45*75
$LOGTIM,0,0.000000,0.000000,0.000000,0.000000,0.000*0A
EndT:        0
---00000017--- Acq_st=3 2019-5-25 03:43:1 
[00]  G07  f 44  -2508.7 2046003.2  1.0  1.0  5  0        11
[01]  G08  f 45    302.1 2045999.6  1.0  1.0  5  0        14
$GNGGA,000000.000,,,,,0,00,,,M,,,,0000*2B
$GNRMC,000000.000,A,,,,,,,000000,,*26
$GPGSA,A,1,,,,,,,,,,,,,,,*1E
$BDGSA,A,1,,,,,,,,,,,,,,,*0F
$GPGSV,1,1,02,07,00,000,44,08,00,000,45*75
$LOGTIM,0,0.000000,0.000000,0.000000,0.000000,0.000*0A
EndT:        0
---00000018--- Acq_st=3 2019-5-25 03:43:2 
[00]  G07  f 44  -2506.4 2046003.2  1.0  1.0  5  0 531799471
[01]  G08  f 44    304.6 2045999.6  1.0  1.0  5  0 531799474
$GNGGA,000000.000,,,,,0,00,,,M,,,,0000*2B
$GNRMC,000000.000,A,,,,,,,000000,,*26
$GPGSA,A,1,,,,,,,,,,,,,,,*1E
$BDGSA,A,1,,,,,,,,,,,,,,,*0F
$GPGSV,1,1,02,07,00,000,44,08,00,000,44*74
$LOGTIM,0,0.000000,0.000000,0.000000,0.000000,0.000*0A
EndT:        0
---00000019--- Acq_st=3 2019-5-25 03:43:3 
[00]  G07  f 44  -2505.1 2046003.2  1.0  1.0  5  0 531800471
[01]  G08  f 44    305.7 2045999.6  1.0  1.0  5  0 531800474
$GNGGA,000000.000,,,,,0,00,,,M,,,,0000*2B
$GNRMC,000000.000,A,,,,,,,000000,,*26
$GPGSA,A,1,,,,,,,,,,,,,,,*1E
$BDGSA,A,1,,,,,,,,,,,,,,,*0F
$GPGSV,1,1,02,07,00,000,44,08,00,000,44*74
$LOGTIM,0,0.000000,0.000000,0.000000,0.000000,0.000*0A
EndT:        0
---00000020--- Acq_st=3 2019-5-25 03:43:4 
[00]  G07  f 44  -2503.4 2046003.2  1.0  1.0  5  0 531801471
[01]  G08  f 44    307.1 2045999.6  1.0  1.0  5  0 531801474
$GNGGA,000000.000,,,,,0,00,,,M,,,,0000*2B
$GNRMC,000000.000,A,,,,,,,000000,,*26
$GPGSA,A,1,,,,,,,,,,,,,,,*1E
$BDGSA,A,1,,,,,,,,,,,,,,,*0F
$GPGSV,1,1,02,07,00,000,44,08,00,000,44*74
$LOGTIM,0,0.000000,0.000000,0.000000,0.000000,0.000*0A
EndT:        0
---00000021--- Acq_st=3 2019-5-25 03:43:5 
[00]  G07  f 44  -2502.3 2046003.2  1.0  1.0  5  0 531802471
[01]  G08  f 44    308.1 2045999.6  1.0  1.0  5  0 531802474
$GNGGA,000000.000,,,,,0,00,,,M,,,,0000*2B
$GNRMC,000000.000,A,,,,,,,000000,,*26
$GPGSA,A,1,,,,,,,,,,,,,,,*1E
$BDGSA,A,1,,,,,,,,,,,,,,,*0F
$GPGSV,1,1,02,07,00,000,44,08,00,000,44*74
$LOGTIM,0,0.000000,0.000000,0.000000,0.000000,0.000*0A
EndT:        0
---00000022--- Acq_st=3 2019-5-25 03:43:6 
[00]  G07  f 45  -2500.0 2046003.2  1.0  1.0  5  0 531803471
[01]  G08  f 44    310.5 2045999.6  1.0  1.0  5  0 531803474
$GNGGA,000000.000,,,,,0,00,,,M,,,,0000*2B
$GNRMC,000000.000,A,,,,,,,000000,,*26
$GPGSA,A,1,,,,,,,,,,,,,,,*1E
$BDGSA,A,1,,,,,,,,,,,,,,,*0F
$GPGSV,1,1,02,07,00,000,45,08,00,000,44*75
$LOGTIM,0,0.000000,0.000000,0.000000,0.000000,0.000*0A
EndT:        0
---00000023--- Acq_st=3 2019-5-25 03:43:7 
[00]  G07  f 45  -2495.9 2046003.2  1.0  1.0  5  0 531804471
[01]  G08  f 44    314.5 2045999.6  1.0  1.0  5  0 531804474
$GNGGA,000000.000,,,,,0,00,,,M,,,,0000*2B
$GNRMC,000000.000,A,,,,,,,000000,,*26
$GPGSA,A,1,,,,,,,,,,,,,,,*1E
$BDGSA,A,1,,,,,,,,,,,,,,,*0F
$GPGSV,1,1,02,07,00,000,45,08,00,000,44*75
$LOGTIM,0,0.000000,0.000000,0.000000,0.000000,0.000*0A
EndT:        0
---00000024--- Acq_st=3 2019-5-25 03:43:8 
[00]  G07  f 45  -2493.4 2046003.2  1.0  1.0  5  0 531805471
[01]  G08  f 44    317.0 2045999.6  1.0  1.0  5  0 531805474
$GNGGA,000000.000,,,,,0,00,,,M,,,,0000*2B
$GNRMC,000000.000,A,,,,,,,000000,,*26
$GPGSA,A,1,,,,,,,,,,,,,,,*1E
$BDGSA,A,1,,,,,,,,,,,,,,,*0F
$GPGSV,1,1,02,07,00,000,45,08,00,000,44*75
$LOGTIM,0,0.000000,0.000000,0.000000,0.000000,0.000*0A
EndT:        0
---00000025--- Acq_st=3 2019-5-25 03:43:9 
[00]  G07  f 45  -2492.5 2046003.2  1.0  1.0  5  0 531806471
[01]  G08  f 44    317.7 2045999.6  1.0  1.0  5  0 531806474
$GNGGA,000000.000,,,,,0,00,,,M,,,,0000*2B
$GNRMC,000000.000,A,,,,,,,000000,,*26
$GPGSA,A,1,,,,,,,,,,,,,,,*1E
$BDGSA,A,1,,,,,,,,,,,,,,,*0F
$GPGSV,1,1,02,07,00,000,45,08,00,000,44*75
$LOGTIM,0,0.000000,0.000000,0.000000,0.000000,0.000*0A
EndT:        0
---00000026--- Acq_st=3 2019-5-25 03:43:10 
[00]  G07  f 45  -2498.6 2046003.2  1.0  1.0  5  0 531807471
[01]  G08  f 44    311.5 2045999.6  1.0  1.0  5  0 531807474
$GNGGA,000000.000,,,,,0,00,,,M,,,,0000*2B
$GNRMC,000000.000,A,,,,,,,000000,,*26
$GPGSA,A,1,,,,,,,,,,,,,,,*1E
$BDGSA,A,1,,,,,,,,,,,,,,,*0F
$GPGSV,1,1,02,07,00,000,45,08,00,000,44*75
$LOGTIM,0,0.000000,0.000000,0.000000,0.000000,0.000*0A
EndT:        0
---00000027--- Acq_st=3 2019-5-25 03:43:11 
[00]  G07  f 45  -2495.0 2046003.2  1.0  1.0  5  0 531808471
[01]  G08  f 44    315.0 2045999.6  1.0  1.0  5  0 531808474
$GNGGA,000000.000,,,,,0,00,,,M,,,,0000*2B
$GNRMC,000000.000,A,,,,,,,000000,,*26
$GPGSA,A,1,,,,,,,,,,,,,,,*1E
$BDGSA,A,1,,,,,,,,,,,,,,,*0F
$GPGSV,1,1,02,07,00,000,45,08,00,000,44*75
$LOGTIM,0,0.000000,0.000000,0.000000,0.000000,0.000*0A
EndT:        0
---00000028--- Acq_st=3 2019-5-25 03:43:12 
[00]  G07  f 45  -2495.3 2046003.3  1.0  1.0  5  0 531809471
[01]  G08  f 44    314.9 2045999.6  1.0  1.0  5  0 531809474
$GNGGA,000000.000,,,,,0,00,,,M,,,,0000*2B
$GNRMC,000000.000,A,,,,,,,000000,,*26
$GPGSA,A,1,,,,,,,,,,,,,,,*1E
$BDGSA,A,1,,,,,,,,,,,,,,,*0F
$GPGSV,1,1,02,07,00,000,45,08,00,000,44*75
$LOGTIM,0,0.000000,0.000000,0.000000,0.000000,0.000*0A
EndT:        0
---00000029--- Acq_st=3 2019-5-25 03:43:13 
[00]  G07  f 45  -2494.9 2046003.2  1.0  1.0  5  0 531810471
[01]  G08  f 43    314.9 2045999.6  1.0  1.0  5  0 531810474
$GNGGA,000000.000,,,,,0,00,,,M,,,,0000*2B
$GNRMC,000000.000,A,,,,,,,000000,,*26
$GPGSA,A,1,,,,,,,,,,,,,,,*1E
$BDGSA,A,1,,,,,,,,,,,,,,,*0F
$GPGSV,1,1,02,07,00,000,45,08,00,000,43*72
$LOGTIM,0,0.000000,0.000000,0.000000,0.000000,0.000*0A
EndT:        0
---00000030--- Acq_st=3 2019-5-25 03:43:14 
[00]  G07  f 46  -2491.2 2046003.2  1.0  1.0  5  0 531811471
[01]  G08  f 44    318.7 2045999.6  1.0  1.0  5  0 531811474
$GNGGA,000000.000,,,,,0,00,,,M,,,,0000*2B
$GNRMC,000000.000,A,,,,,,,000000,,*26
$GPGSA,A,1,,,,,,,,,,,,,,,*1E
$BDGSA,A,1,,,,,,,,,,,,,,,*0F
$GPGSV,1,1,02,07,00,000,46,08,00,000,44*76
$LOGTIM,0,0.000000,0.000000,0.000000,0.000000,0.000*0A
EndT:        0
---00000031--- Acq_st=3 2019-5-25 03:43:15 
[00]  G07  f 46  -2495.9 2046003.2  1.0  1.0  5  0 531812471
[01]  G08  f 44    314.1 2045999.6  1.0  1.0  5  0 531812474
$GNGGA,000000.000,,,,,0,00,,,M,,,,0000*2B
$GNRMC,000000.000,A,,,,,,,000000,,*26
$GPGSA,A,1,,,,,,,,,,,,,,,*1E
$BDGSA,A,1,,,,,,,,,,,,,,,*0F
$GPGSV,1,1,02,07,00,000,46,08,00,000,44*76
$LOGTIM,0,0.000000,0.000000,0.000000,0.000000,0.000*0A
EndT:        0
ch2 satid=26,max_freq = -2250,max_mean = 24388,max_phase = 1446,max_value = 255626,acq ok1!
acq ok1 timeH = 0,timeL = 602688534,freq_stage = 4
---00000032--- Acq_st=3 2019-5-25 03:43:16 
[00]  G07  f 45  -2493.7 2046003.2  1.0  1.0  5  0 531813471
[01]  G08  f 43    316.1 2045999.6  1.0  1.0  5  0 531813474
[02]  G27  1  7   2428.5 2045999.5  0.0  0.0  1  0         0
$GNGGA,000000.000,,,,,0,00,,,M,,,,0000*2B
$GNRMC,000000.000,A,,,,,,,000000,,*26
$GPGSA,A,1,,,,,,,,,,,,,,,*1E
$BDGSA,A,1,,,,,,,,,,,,,,,*0F
$GPGSV,1,1,02,07,00,000,45,08,00,000,43*72
$LOGTIM,0,0.000000,0.000000,0.000000,0.000000,0.000*0A
EndT:        0
---00000033--- Acq_st=3 2019-5-25 03:43:17 
[00]  G07  f 45  -2488.8 2046003.2  1.0  1.0  5  0 531814471
[01]  G08  f 43    320.7 2045999.5  1.0  1.0  5  0 531814474
[02]  G27  1 28   2160.2 2045997.1 -0.1  0.0  1  0        16
$GNGGA,000000.000,,,,,0,00,,,M,,,,0000*2B
$GNRMC,000000.000,A,,,,,,,000000,,*26
$GPGSA,A,1,,,,,,,,,,,,,,,*1E
$BDGSA,A,1,,,,,,,,,,,,,,,*0F
$GPGSV,1,1,02,07,00,000,45,08,00,000,43*72
$LOGTIM,0,0.000000,0.000000,0.000000,0.000000,0.000*0A
EndT:        0
---00000034--- Acq_st=3 2019-5-25 03:43:18 
[00]  G07  f 45  -2489.2 2046003.2  1.0  1.0  5  0 531815471
[01]  G08  f 42    320.3 2045999.6  1.0  1.0  5  0 531815474
[02]  G27  7 32   2158.6 2045997.1  0.1  1.0  5  0        16
$GNGGA,000000.000,,,,,0,00,,,M,,,,0000*2B
$GNRMC,000000.000,A,,,,,,,000000,,*26
$GPGSA,A,1,,,,,,,,,,,,,,,*1E
$BDGSA,A,1,,,,,,,,,,,,,,,*0F
$GPGSV,1,1,03,07,00,000,45,08,00,000,42,27,00,000,32*46
$LOGTIM,0,0.000000,0.000000,0.000000,0.000000,0.000*0A
EndT:        0
---00000035--- Acq_st=3 2019-5-25 03:43:19 
[00]  G07  f 45  -2495.4 2046003.2  1.0  1.0  5  0 531816471
[01]  G08  f 43    314.4 2045999.6  1.0  1.0  5  0 531816474
[02]  G27  f 38   2152.1 2045997.2  1.0  1.0  5  0        10
$GNGGA,000000.000,,,,,0,00,,,M,,,,0000*2B
$GNRMC,000000.000,A,,,,,,,000000,,*26
$GPGSA,A,1,,,,,,,,,,,,,,,*1E
$BDGSA,A,1,,,,,,,,,,,,,,,*0F
$GPGSV,1,1,03,07,00,000,45,08,00,000,43,27,00,000,38*4D
$LOGTIM,0,0.000000,0.000000,0.000000,0.000000,0.000*0A
EndT:        0
ch3 satid=29,max_freq = 3500,max_mean = 24105,max_phase = 869,max_value = 710854,acq ok1!
acq ok1 timeH = 0,timeL = 657066162,freq_stage = 1
---00000036--- Acq_st=3 2019-5-25 03:43:20 
[00]  G07  f 45  -2499.0 2046003.2  1.0  1.0  5  0 531817471
[01]  G08  f 43    310.6 2045999.6  1.0  1.0  5  0 531817474
[02]  G27  f 38   2149.0 2045997.2  1.0  1.0  5  0 531817470
[03]  G30  1 21  -3599.6 2046004.9 -0.1  0.0  1  0         0
$GNGGA,000000.000,,,,,0,00,,,M,,,,0000*2B
$GNRMC,000000.000,A,,,,,,,000000,,*26
$GPGSA,A,1,,,,,,,,,,,,,,,*1E
$BDGSA,A,1,,,,,,,,,,,,,,,*0F
$GPGSV,1,1,03,07,00,000,45,08,00,000,43,27,00,000,38*4D
$LOGTIM,0,0.000000,0.000000,0.000000,0.000000,0.000*0A
EndT:        0
---00000037--- Acq_st=3 2019-5-25 03:43:21 
[00]  G07  f 45  -2499.9 2046003.3  1.0  1.0  5  0 531818471
[01]  G08  f 43    309.3 2045999.6  1.0  1.0  5  0 531818474
[02]  G27  f 38   2147.5 2045997.2  1.0  1.0  5  0 531818470
[03]  G30  7 23  -3606.3 2046004.7  0.1  0.0 20  0        17
$GNGGA,000000.000,,,,,0,00,,,M,,,,0000*2B
$GNRMC,000000.000,A,,,,,,,000000,,*26
$GPGSA,A,1,,,,,,,,,,,,,,,*1E
$BDGSA,A,1,,,,,,,,,,,,,,,*0F
$GPGSV,1,1,04,07,00,000,45,08,00,000,43,27,00,000,38,30,00,000,23*78
$LOGTIM,0,0.000000,0.000000,0.000000,0.000000,0.000*0A
EndT:        0
---00000038--- Acq_st=3 2019-5-25 03:43:22 
[00]  G07  f 44  -2499.5 2046003.3  1.0  1.0  5  0 531819471
[01]  G08  f 43    309.8 2045999.6  1.0  1.0  5  0 531819474
[02]  G27  f 38   2147.0 2045997.2  1.0  1.0  5  0 531819470
[03]  G30  7 44  -3606.4 2046004.7  1.0  1.0  5  0         3
$GNGGA,000000.000,,,,,0,00,,,M,,,,0000*2B
$GNRMC,000000.000,A,,,,,,,000000,,*26
$GPGSA,A,1,,,,,,,,,,,,,,,*1E
$BDGSA,A,1,,,,,,,,,,,,,,,*0F
$GPGSV,1,1,04,07,00,000,44,08,00,000,43,27,00,000,38,30,00,000,44*78
$LOGTIM,0,0.000000,0.000000,0.000000,0.000000,0.000*0A
EndT:        0
---00000039--- Acq_st=3 2019-5-25 03:43:23 
[00]  G07  f 44  -2498.1 2046003.2  1.0  1.0  5  0 531820471
[01]  G08  f 42    310.8 2045999.6  1.0  1.0  5  0 531820474
[02]  G27  f 37   2148.8 2045997.2  1.0  1.0  5  0 531820470
[03]  G30  7 44  -3605.2 2046004.7  1.0  1.0  5  0         3
$GNGGA,000000.000,,,,,0,00,,,M,,,,0000*2B
$GNRMC,000000.000,A,,,,,,,000000,,*26
$GPGSA,A,1,,,,,,,,,,,,,,,*1E
$BDGSA,A,1,,,,,,,,,,,,,,,*0F
$GPGSV,1,1,04,07,00,000,44,08,00,000,42,27,00,000,37,30,00,000,44*76
$LOGTIM,0,0.000000,0.000000,0.000000,0.000000,0.000*0A
EndT:        0
---00000040--- Acq_st=3 2019-5-25 03:43:24 
[00]  G07  f 45  -2492.7 2046003.2  1.0  1.0  5  0 531821471
[01]  G08  f 42    316.2 2045999.6  1.0  1.0  5  0 531821474
[02]  G27  f 37   2153.4 2045997.2  1.0  1.0  5  0 531821470
[03]  G30  7 44  -3599.8 2046004.7  1.0  1.0  5  0         3
$GNGGA,000000.000,,,,,0,00,,,M,,,,0000*2B
$GNRMC,000000.000,A,,,,,,,000000,,*26
$GPGSA,A,1,,,,,,,,,,,,,,,*1E
$BDGSA,A,1,,,,,,,,,,,,,,,*0F
$GPGSV,1,1,04,07,00,000,45,08,00,000,42,27,00,000,37,30,00,000,44*77
$LOGTIM,0,0.000000,0.000000,0.000000,0.000000,0.000*0A
EndT:        0
---00000041--- Acq_st=3 2019-5-25 03:43:25 
[00]  G07  f 44  -2489.2 2046003.3  1.0  1.0  5  0 531822471
[01]  G08  f 42    320.1 2045999.6  1.0  1.0  5  0 531822474
[02]  G27  f 37   2157.2 2045997.2  1.0  1.0  5  0 531822470
[03]  G30  f 44  -3596.4 2046004.7  1.0  1.0  5  0         3
$GNGGA,000000.000,,,,,0,00,,,M,,,,0000*2B
$GNRMC,000000.000,A,,,,,,,000000,,*26
$GPGSA,A,1,,,,,,,,,,,,,,,*1E
$BDGSA,A,1,,,,,,,,,,,,,,,*0F
$GPGSV,1,1,04,07,00,000,44,08,00,000,42,27,00,000,37,30,00,000,44*76
$LOGTIM,0,0.000000,0.000000,0.000000,0.000000,0.000*0A
EndT:        0
---00000042--- Acq_st=3 2019-5-25 03:43:26 
[00]  G07  f 44  -2487.5 2046003.2  1.0  1.0  5  0 531823471
[01]  G08  f 42    321.7 2045999.6  1.0  1.0  5  0 531823474
[02]  G27  f 37   2158.8 2045997.2  1.0  1.0  5  0 531823470
[03]  G30  f 44  -3595.0 2046004.7  1.0  1.0  5  0 531823463
$GNGGA,000000.000,,,,,0,00,,,M,,,,0000*2B
$GNRMC,000000.000,A,,,,,,,000000,,*26
$GPGSA,A,1,,,,,,,,,,,,,,,*1E
$BDGSA,A,1,,,,,,,,,,,,,,,*0F
$GPGSV,1,1,04,07,00,000,44,08,00,000,42,27,00,000,37,30,00,000,44*76
$LOGTIM,0,0.000000,0.000000,0.000000,0.000000,0.000*0A
EndT:        0
---00000043--- Acq_st=3 2019-5-25 03:43:27 
[00]  G07  f 44  -2489.4 2046003.3  1.0  1.0  5  0 531824471
[01]  G08  f 42    319.4 2045999.6  1.0  1.0  5  0 531824474
[02]  G27  f 37   2156.6 2045997.2  1.0  1.0  5  0 531824470
[03]  G30  f 44  -3597.2 2046004.7  1.0  1.0  5  0 531824463
$GNGGA,000000.000,,,,,0,00,,,M,,,,0000*2B
$GNRMC,000000.000,A,,,,,,,000000,,*26
$GPGSA,A,1,,,,,,,,,,,,,,,*1E
$BDGSA,A,1,,,,,,,,,,,,,,,*0F
$GPGSV,1,1,04,07,00,000,44,08,00,000,42,27,00,000,37,30,00,000,44*76
$LOGTIM,0,0.000000,0.000000,0.000000,0.000000,0.000*0A
EndT:        0
---00000044--- Acq_st=3 2019-5-25 03:43:28 
[00]  G07  f 44  -2487.6 2046003.2  1.0  1.0  5  0 531825471
[01]  G08  f 42    321.3 2045999.6  1.0  0.9  5  0 531825474
[02]  G27  f 37   2157.9 2045997.2  1.0  1.0  5  0 531825470
[03]  G30  f 44  -3595.5 2046004.7  1.0  1.0  5  0 531825463
$GNGGA,000000.000,,,,,0,00,,,M,,,,0000*2B
$GNRMC,000000.000,A,,,,,,,000000,,*26
$GPGSA,A,1,,,,,,,,,,,,,,,*1E
$BDGSA,A,1,,,,,,,,,,,,,,,*0F
$GPGSV,1,1,04,07,00,000,44,08,00,000,42,27,00,000,37,30,00,000,44*76
$LOGTIM,0,0.000000,0.000000,0.000000,0.000000,0.000*0A
EndT:        0
---00000045--- Acq_st=3 2019-5-25 03:43:29 
[00]  G07  f 44  -2489.7 2046003.2  1.0  1.0  5  0 531826471
[01]  G08  f 42    318.9 2045999.6  1.0  1.0  5  0 531826474
[02]  G27  f 38   2155.5 2045997.2  1.0  1.0  5  0 531826470
[03]  G30  f 44  -3598.4 2046004.7  1.0  1.0  5  0 531826463
$GNGGA,000000.000,,,,,0,00,,,M,,,,0000*2B
$GNRMC,000000.000,A,,,,,,,000000,,*26
$GPGSA,A,1,,,,,,,,,,,,,,,*1E
$BDGSA,A,1,,,,,,,,,,,,,,,*0F
$GPGSV,1,1,04,07,00,000,44,08,00,000,42,27,00,000,38,30,00,000,44*79
$LOGTIM,0,0.000000,0.000000,0.000000,0.000000,0.000*0A
EndT:        0
---00000046--- Acq_st=3 2019-5-25 03:43:30 
[00]  G07  f 44  -2489.4 2046003.2  1.0  1.0  5  0 531827471
[01]  G08  f 42    319.0 2045999.6  1.0  1.0  5  0 531827474
[02]  G27  f 37   2154.8 2045997.2  1.0  1.0  5  0 531827470
[03]  G30  f 45  -3598.5 2046004.7  1.0  1.0  5  0 531827463
$GNGGA,000000.000,,,,,0,00,,,M,,,,0000*2B
$GNRMC,000000.000,A,,,,,,,000000,,*26
$GPGSA,A,1,,,,,,,,,,,,,,,*1E
$BDGSA,A,1,,,,,,,,,,,,,,,*0F
$GPGSV,1,1,04,07,00,000,44,08,00,000,42,27,00,000,37,30,00,000,45*77
$LOGTIM,0,0.000000,0.000000,0.000000,0.000000,0.000*0A
EndT:        0
---00000047--- Acq_st=3 2019-5-25 03:43:31 
[00]  G07  f 43  -2482.6 2046003.2  1.0  1.0  5  0 531828471
[01]  G08  f 41    325.6 2045999.6  1.0  1.0  5  0 531828474
[02]  G27  f 38   2161.5 2045997.2  1.0  1.0  5  0 531828470
[03]  G30  f 45  -3591.9 2046004.7  1.0  1.0  5  0 531828463
$GNGGA,000000.000,,,,,0,00,,,M,,,,0000*2B
$GNRMC,000000.000,A,,,,,,,000000,,*26
$GPGSA,A,1,,,,,,,,,,,,,,,*1E
$BDGSA,A,1,,,,,,,,,,,,,,,*0F
$GPGSV,1,1,04,07,00,000,43,08,00,000,41,27,00,000,38,30,00,000,45*7C
$LOGTIM,0,0.000000,0.000000,0.000000,0.000000,0.000*0A
EndT:        0
---00000048--- Acq_st=3 2019-5-25 03:43:32 
[00]  G07  f 43  -2476.6 2046003.2  1.0  1.0  5  0 531829471
[01]  G08  f 42    331.8 2045999.6  1.0  1.0  5  0 531829474
[02]  G27  f 38   2167.6 2045997.2  1.0  1.0  5  0 531829470
[03]  G30  f 45  -3585.5 2046004.7  1.0  1.0  5  0 531829463
$GNGGA,000000.000,,,,,0,00,,,M,,,,0000*2B
$GNRMC,000000.000,A,,,,,,,000000,,*26
$GPGSA,A,1,,,,,,,,,,,,,,,*1E
$BDGSA,A,1,,,,,,,,,,,,,,,*0F
$GPGSV,1,1,04,07,00,000,43,08,00,000,42,27,00,000,38,30,00,000,45*7F
$LOGTIM,0,0.000000,0.000000,0.000000,0.000000,0.000*0A
EndT:        0
---00000049--- Acq_st=3 2019-5-25 03:43:33 
[00]  G07  f 43  -2474.5 2046003.2  1.0  1.0  5  0 531830471
[01]  G08  f 42    333.5 2045999.6  1.0  1.0  5  0 531830474
[02]  G27  f 38   2169.5 2045997.2  1.0  1.0  5  0 531830470
[03]  G30  f 45  -3584.0 2046004.7  1.0  1.0  5  0 531830463
$GNGGA,000000.000,,,,,0,00,,,M,,,,0000*2B
$GNRMC,000000.000,A,,,,,,,000000,,*26
$GPGSA,A,1,,,,,,,,,,,,,,,*1E
$BDGSA,A,1,,,,,,,,,,,,,,,*0F
$GPGSV,1,1,04,07,00,000,43,08,00,000,42,27,00,000,38,30,00,000,45*7F
$LOGTIM,0,0.000000,0.000000,0.000000,0.000000,0.000*0A
EndT:        0
---00000050--- Acq_st=3 2019-5-25 03:43:34 
[00]  G07  f 43  -2479.5 2046003.2  1.0  1.0  5  0 531831471
[01]  G08  f 42    328.5 2045999.6  1.0  1.0  5  0 531831474
[02]  G27  f 38   2164.0 2045997.2  1.0  1.0  5  0 531831470
[03]  G30  f 45  -3589.3 2046004.7  1.0  1.0  5  0 531831463
$GNGGA,000000.000,,,,,0,00,,,M,,,,0000*2B
$GNRMC,000000.000,A,,,,,,,000000,,*26
$GPGSA,A,1,,,,,,,,,,,,,,,*1E
$BDGSA,A,1,,,,,,,,,,,,,,,*0F
$GPGSV,1,1,04,07,00,000,43,08,00,000,42,27,00,000,38,30,00,000,45*7F
$LOGTIM,0,0.000000,0.000000,0.000000,0.000000,0.000*0A
EndT:        0
---00000051--- Acq_st=3 2019-5-25 03:43:35 
[00]  G07  f 43  -2484.6 2046003.2  1.0  1.0  5  0 531832471
[01]  G08  f 42    323.8 2045999.6  1.0  1.0  5  0 531832474
[02]  G27  f 38   2158.6 2045997.2  1.0  1.0  5  0 531832470
[03]  G30  f 45  -3594.5 2046004.7  1.0  1.0  5  0 531832463
$GNGGA,000000.000,,,,,0,00,,,M,,,,0000*2B
$GNRMC,000000.000,A,,,,,,,000000,,*26
$GPGSA,A,1,,,,,,,,,,,,,,,*1E
$BDGSA,A,1,,,,,,,,,,,,,,,*0F
$GPGSV,1,1,04,07,00,000,43,08,00,000,42,27,00,000,38,30,00,000,45*7F
$LOGTIM,0,0.000000,0.000000,0.000000,0.000000,0.000*0A
EndT:        0
---00000052--- Acq_st=3 2019-5-25 03:43:36 
[00]  G07  f 43  -2485.8 2046003.2  1.0  1.0  5  0 531833471
[01]  G08  f 42    322.5 2045999.6  1.0  1.0  5  0 531833474
[02]  G27  f 38   2156.6 2045997.2  1.0  1.0  5  0 531833470
[03]  G30  f 45  -3596.1 2046004.7  1.0  1.0  5  0 531833463
$GNGGA,000000.000,,,,,0,00,,,M,,,,0000*2B
$GNRMC,000000.000,A,,,,,,,000000,,*26
$GPGSA,A,1,,,,,,,,,,,,,,,*1E
$BDGSA,A,1,,,,,,,,,,,,,,,*0F
$GPGSV,1,1,04,07,00,000,43,08,00,000,42,27,00,000,38,30,00,000,45*7F
$LOGTIM,0,0.000000,0.000000,0.000000,0.000000,0.000*0A
EndT:        0
ch16 satid=43,max_freq = 750,max_mean = 8266,max_phase = 2974,max_value = 128040,acq ok1!
acq ok1 timeH = 0,timeL = 989703642,freq_stage = 3
---00000053--- Acq_st=3 2019-5-25 03:43:37 
[00]  G07  f 43  -2484.8 2046003.2  1.0  1.0  5  0 531834471
[01]  G08  f 42    323.4 2045999.6  1.0  1.0  5  0 531834474
[02]  G27  f 39   2158.3 2045997.2  1.0  1.0  5  0 531834470
[03]  G30  f 45  -3595.2 2046004.7  1.0  1.0  5  0 531834463
[16]  B07  1  7   -398.1 4092002.2  0.0  0.0  1  0         0
$GNGGA,000000.000,,,,,0,00,,,M,,,,0000*2B
$GNRMC,000000.000,A,,,,,,,000000,,*26
$GPGSA,A,1,,,,,,,,,,,,,,,*1E
$BDGSA,A,1,,,,,,,,,,,,,,,*0F
$GPGSV,1,1,04,07,00,000,43,08,00,000,42,27,00,000,39,30,00,000,45*7E
$LOGTIM,0,0.000000,0.000000,0.000000,0.000000,0.000*0A
EndT:        0
---00000054--- Acq_st=3 2019-5-25 03:43:38 
[00]  G07  f 44  -2481.2 2046003.2  1.0  1.0  5  0 531835471
[01]  G08  f 42    327.1 2045999.6  1.0  1.0  5  0 531835474
[02]  G27  f 39   2161.5 2045997.2  1.0  1.0  5  0 531835470
[03]  G30  f 45  -3592.0 2046004.7  1.0  1.0  5  0 531835463
[16]  B07  1  7   -688.7 4092002.0  0.1  0.0  1  0       159
$GNGGA,000000.000,,,,,0,00,,,M,,,,0000*2B
$GNRMC,000000.000,A,,,,,,,000000,,*26
$GPGSA,A,1,,,,,,,,,,,,,,,*1E
$BDGSA,A,1,,,,,,,,,,,,,,,*0F
$GPGSV,1,1,04,07,00,000,44,08,00,000,42,27,00,000,39,30,00,000,45*79
$LOGTIM,0,0.000000,0.000000,0.000000,0.000000,0.000*0A
EndT:        0
---00000055--- Acq_st=3 2019-5-25 03:43:39 
[00]  G07  f 43  -2479.5 2046003.2  1.0  1.0  5  0 531836471
[01]  G08  f 42    328.4 2045999.6  1.0  1.0  5  0 531836474
[02]  G27  f 40   2162.8 2045997.2  1.0  1.0  5  0 531836470
[03]  G30  f 45  -3590.8 2046004.6  1.0  1.0  5  0 531836463
[16]  B07  1  7   -687.7 4092002.0  0.2  0.0  1  0      1159
$GNGGA,000000.000,,,,,0,00,,,M,,,,0000*2B
$GNRMC,000000.000,A,,,,,,,000000,,*26
$GPGSA,A,1,,,,,,,,,,,,,,,*1E
$BDGSA,A,1,,,,,,,,,,,,,,,*0F
$GPGSV,1,1,04,07,00,000,43,08,00,000,42,27,00,000,40,30,00,000,45*70
$LOGTIM,0,0.000000,0.000000,0.000000,0.000000,0.000*0A
EndT:        0
---00000056--- Acq_st=3 2019-5-25 03:43:40 
[00]  G07  f 44  -2477.6 2046003.2  1.0  1.0  5  0 531837471
[01]  G08  f 42    330.4 2045999.6  1.0  1.0  5  0 531837474
[02]  G27  f 39   2164.8 2045997.2  1.0  1.0  5  0 531837470
[03]  G30  f 45  -3588.7 2046004.7  1.0  1.0  5  0 531837463
[16]  B07  7 33   -685.8 4092001.8  0.4  1.0  5  0      2159
$GNGGA,000000.000,,,,,0,00,,,M,,,,0000*2B
$GNRMC,000000.000,A,,,,,,,000000,,*26
$GPGSA,A,1,,,,,,,,,,,,,,,*1E
$BDGSA,A,1,,,,,,,,,,,,,,,*0F
$GPGSV,1,1,04,07,00,000,44,08,00,000,42,27,00,000,39,30,00,000,45*79
$BDGSV,1,1,01,07,00,000,33*5E
$LOGTIM,0,0.000000,0.000000,0.000000,0.000000,0.000*0A
EndT:        0
---00000057--- Acq_st=3 2019-5-25 03:43:41 
[00]  G07  f 44  -2477.9 2046003.2  1.0  1.0  5  0 531838471
[01]  G08  f 42    329.7 2045999.6  1.0  1.0  5  0 531838474
[02]  G27  f 39   2164.0 2045997.1  1.0  1.0  5  0 531838470
[03]  G30  f 45  -3589.9 2046004.7  1.0  1.0  5  0 531838463
[16]  B07  7 42   -687.2 4092001.8  1.0  1.0  5  0      3142
$GNGGA,000000.000,,,,,0,00,,,M,,,,0000*2B
$GNRMC,000000.000,A,,,,,,,000000,,*26
$GPGSA,A,1,,,,,,,,,,,,,,,*1E
$BDGSA,A,1,,,,,,,,,,,,,,,*0F
$GPGSV,1,1,04,07,00,000,44,08,00,000,42,27,00,000,39,30,00,000,45*79
$BDGSV,1,1,01,07,00,000,42*58
$LOGTIM,0,0.000000,0.000000,0.000000,0.000000,0.000*0A
EndT:        0
---00000058--- Acq_st=3 2019-5-25 03:43:42 
[00]  G07  f 44  -2476.1 2046003.2  1.0  1.0  5  0 531839471
[01]  G08  f 42    331.7 2045999.5  1.0  1.0  5  0 531839474
[02]  G27  f 39   2165.5 2045997.1  1.0  1.0  5  0 531839470
[03]  G30  f 44  -3587.8 2046004.7  1.0  1.0  5  0 531839463
[16]  B07  7 42   -685.7 4092001.8  1.0  1.0  5  0      4142
$GNGGA,000000.000,,,,,0,00,,,M,,,,0000*2B
$GNRMC,000000.000,A,,,,,,,000000,,*26
$GPGSA,A,1,,,,,,,,,,,,,,,*1E
$BDGSA,A,1,,,,,,,,,,,,,,,*0F
$GPGSV,1,1,04,07,00,000,44,08,00,000,42,27,00,000,39,30,00,000,44*78
$BDGSV,1,1,01,07,00,000,42*58
$LOGTIM,0,0.000000,0.000000,0.000000,0.000000,0.000*0A
EndT:        0
---00000059--- Acq_st=3 2019-5-25 03:43:43 
[00]  G07  f 43  -2475.3 2046003.2  1.0  1.0  5  0 531840471
[01]  G08  f 42    332.2 2045999.5  1.0  1.0  5  0 531840474
[02]  G27  f 39   2165.8 2045997.2  1.0  1.0  5  0 531840470
[03]  G30  f 44  -3587.5 2046004.7  1.0  1.0  5  0 531840463
[16]  B07  7 42   -684.9 4092001.8  1.0  1.0  5  0      5142
$GNGGA,000000.000,,,,,0,00,,,M,,,,0000*2B
$GNRMC,000000.000,A,,,,,,,000000,,*26
$GPGSA,A,1,,,,,,,,,,,,,,,*1E
$BDGSA,A,1,,,,,,,,,,,,,,,*0F
$GPGSV,1,1,04,07,00,000,43,08,00,000,42,27,00,000,39,30,00,000,44*7F
$BDGSV,1,1,01,07,00,000,42*58
$LOGTIM,0,0.000000,0.000000,0.000000,0.000000,0.000*0A
EndT:        0
ch17 satid=46,max_freq = 750,max_mean = 9000,max_phase = 1948,max_value = 223920,acq ok1!
acq ok1 timeH = 0,timeL = 1113766397,freq_stage = 3
---00000060--- Acq_st=3 2019-5-25 03:43:44 
[00]  G07  f 44  -2472.1 2046003.2  1.0  1.0  5  0 531841471
[01]  G08  f 42    335.2 2045999.6  1.0  1.0  5  0 531841474
[02]  G27  f 39   2168.6 2045997.1  1.0  1.0  5  0 531841470
[03]  G30  f 44  -3584.7 2046004.6  1.0  1.0  5  0 531841463
[16]  B07  7 42   -682.4 4092001.8  1.0  1.0  5  0      6142
[17]  B10  1  7   -819.3 4092004.4  0.0  0.0  1  0         0
$GNGGA,000000.000,,,,,0,00,,,M,,,,0000*2B
$GNRMC,000000.000,A,,,,,,,000000,,*26
$GPGSA,A,1,,,,,,,,,,,,,,,*1E
$BDGSA,A,1,,,,,,,,,,,,,,,*0F
$GPGSV,1,1,04,07,00,000,44,08,00,000,42,27,00,000,39,30,00,000,44*78
$BDGSV,1,1,01,07,00,000,42*58
$LOGTIM,0,0.000000,0.000000,0.000000,0.000000,0.000*0A
EndT:        0
---00000061--- Acq_st=3 2019-5-25 03:43:45 
[00]  G07  f 44  -2469.7 2046003.2  1.0  1.0  5  0 531842471
[01]  G08  f 42    337.7 2045999.6  1.0  1.0  5  0 531842474
[02]  G27  f 39   2171.2 2045997.2  1.0  1.0  5  0 531842470
[03]  G30  f 44  -3582.5 2046004.6  1.0  1.0  5  0 531842463
[16]  B07 1f 41   -680.6 4092001.8  1.0  1.0  5  0      7142
[17]  B10  7 25   -824.9 4092002.1  0.5  0.0 20  0       698
$GNGGA,000000.000,,,,,0,00,,,M,,,,0000*2B
$GNRMC,000000.000,A,,,,,,,000000,,*26
$GPGSA,A,1,,,,,,,,,,,,,,,*1E
$BDGSA,A,1,,,,,,,,,,,,,,,*0F
$GPGSV,1,1,04,07,00,000,44,08,00,000,42,27,00,000,39,30,00,000,44*78
$BDGSV,1,1,02,07,00,000,41,10,00,000,25*6E
$LOGTIM,0,0.000000,0.000000,0.000000,0.000000,0.000*0A
EndT:        0
---00000062--- Acq_st=3 2019-5-25 03:43:46 
[00]  G07  f 44  -2469.5 2046003.2  1.0  1.0  5  0 531843471
[01]  G08  f 43    337.8 2045999.6  1.0  1.0  5  0 531843474
[02]  G27  f 40   2170.9 2045997.2  1.0  1.0  5  0 531843470
[03]  G30  f 44  -3582.7 2046004.7  1.0  1.0  5  0 531843463
[16]  B07 1f 41   -681.1 4092001.8  1.0  1.0  5  0 531829422
[17]  B10  7 43   -825.2 4092002.1  1.0  1.0  5  0      1679
$GNGGA,000000.000,,,,,0,00,,,M,,,,0000*2B
$GNRMC,000000.000,A,,,,,,,000000,,*26
$GPGSA,A,1,,,,,,,,,,,,,,,*1E
$BDGSA,A,1,,,,,,,,,,,,,,,*0F
$GPGSV,1,1,04,07,00,000,44,08,00,000,43,27,00,000,40,30,00,000,44*77
$BDGSV,1,1,02,07,00,000,41,10,00,000,43*6E
$LOGTIM,0,0.000000,0.000000,0.000000,0.000000,0.000*0A
EndT:        0
---00000063--- Acq_st=3 2019-5-25 03:43:47 
[00]  G07  f 44  -2470.9 2046003.2  1.0  1.0  5  0 531844471
[01]  G08  f 43    335.9 2045999.6  1.0  1.0  5  0 531844474
[02]  G27  f 40   2168.5 2045997.2  1.0  1.0  5  0 531844470
[03]  G30  f 44  -3584.3 2046004.7  1.0  1.0  5  0 531844463
[16]  B07 1f 41   -683.2 4092001.8  1.0  1.0  5  0 531830422
[17]  B10  7 44   -827.4 4092002.1  1.0  1.0  5  0      2679
$GNGGA,000000.000,,,,,0,00,,,M,,,,0000*2B
$GNRMC,000000.000,A,,,,,,,000000,,*26
$GPGSA,A,1,,,,,,,,,,,,,,,*1E
$BDGSA,A,1,,,,,,,,,,,,,,,*0F
$GPGSV,1,1,04,07,00,000,44,08,00,000,43,27,00,000,40,30,00,000,44*77
$BDGSV,1,1,02,07,00,000,41,10,00,000,44*69
$LOGTIM,0,0.000000,0.000000,0.000000,0.000000,0.000*0A
EndT:        0
ch18 satid=48,max_freq = -2000,max_mean = 9314,max_phase = 3651,max_value = 136307,acq ok1!
acq ok1 timeH = 0,timeL = 1208875396,freq_stage = 4
---00000064--- Acq_st=3 2019-5-25 03:43:48 
[00]  G07  f 43  -2467.0 2046003.2  1.0  1.0  5  0 531845471
[01]  G08  f 43    340.2 2045999.6  1.0  1.0  5  0 531845474
[02]  G27  f 40   2172.6 2045997.2  1.0  1.0  5  0 531845470
[03]  G30  f 44  -3580.7 2046004.6  1.0  1.0  5  0 531845463
[16]  B07 1f 41   -679.4 4092001.8  1.0  1.0  5  0 531831422
[17]  B10  7 43   -823.7 4092002.1  1.0  1.0  5  0      3679
[18]  B12  1  7   1990.9 4091996.5  0.0  0.0  1  0         0
$GNGGA,000000.000,,,,,0,00,,,M,,,,0000*2B
$GNRMC,000000.000,A,,,,,,,000000,,*26
$GPGSA,A,1,,,,,,,,,,,,,,,*1E
$BDGSA,A,1,,,,,,,,,,,,,,,*0F
$GPGSV,1,1,04,07,00,000,43,08,00,000,43,27,00,000,40,30,00,000,44*70
$BDGSV,1,1,02,07,00,000,41,10,00,000,43*6E
$LOGTIM,0,0.000000,0.000000,0.000000,0.000000,0.000*0A
EndT:        0
---00000065--- Acq_st=3 2019-5-25 03:43:49 
[00]  G07  f 43  -2467.4 2046003.2  1.0  1.0  5  0 531846471
[01]  G08  f 43    339.9 2045999.6  1.0  1.0  5  0 531846474
[02]  G27  f 39   2172.7 2045997.2  1.0  1.0  5  0 531846470
[03]  G30  f 44  -3581.0 2046004.7  1.0  1.0  5  0 531846463
[16]  B07 1f 42   -680.6 4092001.8  1.0  1.0  5  0 531832422
[17]  B10  7 43   -824.2 4092002.2  1.0  1.0  5  0      4679
[18]  B12  1  7   1984.8 4091994.4  0.2  0.0  1  0       390
$GNGGA,000000.000,,,,,0,00,,,M,,,,0000*2B
$GNRMC,000000.000,A,,,,,,,000000,,*26
$GPGSA,A,1,,,,,,,,,,,,,,,*1E
$BDGSA,A,1,,,,,,,,,,,,,,,*0F
$GPGSV,1,1,04,07,00,000,43,08,00,000,43,27,00,000,39,30,00,000,44*7E
$BDGSV,1,1,02,07,00,000,42,10,00,000,43*6D
$LOGTIM,0,0.000000,0.000000,0.000000,0.000000,0.000*0A
EndT:        0
---00000066--- Acq_st=3 2019-5-25 03:43:50 
[00]  G07  f 44  -2467.7 2046003.2  1.0  1.0  5  0 531847471
[01]  G08  f 43    339.4 2045999.5  1.0  1.0  5  0 531847474
[02]  G27  f 40   2172.1 2045997.2  1.0  1.0  5  0 531847470
[03]  G30  f 45  -3581.6 2046004.7  1.0  1.0  5  0 531847463
[16]  B07 1f 41   -680.6 4092001.8  1.0  1.0  5  0 531833422
[17]  B10  7 43   -824.9 4092002.1  1.0  1.0  5  0      5679
[18]  B12  7 40   1984.6 4091994.7  0.8  1.0  5  0      1386
$GNGGA,000000.000,,,,,0,00,,,M,,,,0000*2B
$GNRMC,000000.000,A,,,,,,,000000,,*26
$GPGSA,A,1,,,,,,,,,,,,,,,*1E
$BDGSA,A,1,,,,,,,,,,,,,,,*0F
$GPGSV,1,1,04,07,00,000,44,08,00,000,43,27,00,000,40,30,00,000,45*76
$BDGSV,1,1,03,07,00,000,41,10,00,000,43,12,00,000,40*58
$LOGTIM,0,0.000000,0.000000,0.000000,0.000000,0.000*0A
EndT:        0
---00000067--- Acq_st=3 2019-5-25 03:43:51 
[00]  G07  f 43  -2459.7 2046003.2  1.0  1.0  5  0 531848471
[01]  G08  f 44    347.3 2045999.5  1.0  1.0  5  0 531848474
[02]  G27  f 40   2179.2 2045997.2  1.0  1.0  5  0 531848470
[03]  G30  f 44  -3574.2 2046004.6  1.0  1.0  5  0 531848463
[16]  B07 1f 41   -673.1 4092001.7  1.0  1.0  5  0 531834422
[17]  B10 1f 43   -817.8 4092002.1  1.0  1.0  5  0      6679
[18]  B12 1f 41   1991.8 4091994.7  1.0  1.0  5  0      2386
$GNGGA,000000.000,,,,,0,00,,,M,,,,0000*2B
$GNRMC,000000.000,A,,,,,,,000000,,*26
$GPGSA,A,1,,,,,,,,,,,,,,,*1E
$BDGSA,A,1,,,,,,,,,,,,,,,*0F
$GPGSV,1,1,04,07,00,000,43,08,00,000,44,27,00,000,40,30,00,000,44*77
$BDGSV,1,1,03,07,00,000,41,10,00,000,43,12,00,000,41*59
$LOGTIM,0,0.000000,0.000000,0.000000,0.000000,0.000*0A
EndT:        0
---00000068--- Acq_st=3 2019-5-25 03:43:52 
[00]  G07  f 44  -2454.4 2046003.2  1.0  1.0  5  0 531849471
[01]  G08  f 44    352.3 2045999.5  1.0  1.0  5  0 531849474
[02]  G27  f 40   2184.1 2045997.1  1.0  1.0  5  0 531849470
[03]  G30  f 44  -3568.8 2046004.6  1.0  1.0  5  0 531849463
[16]  B07 1f 41   -669.1 4092001.8  1.0  1.0  5  0 531835422
[17]  B10 1f 43   -812.7 4092002.1  1.0  1.0  5  0 531835419
[18]  B12 1f 41   1997.2 4091994.7  1.0  1.0  5  0 531835466
$GNGGA,000000.000,,,,,0,00,,,M,,,,0000*2B
$GNRMC,000000.000,A,,,,,,,000000,,*26
$GPGSA,A,1,,,,,,,,,,,,,,,*1E
$BDGSA,A,1,,,,,,,,,,,,,,,*0F
$GPGSV,1,1,04,07,00,000,44,08,00,000,44,27,00,000,40,30,00,000,44*70
$BDGSV,1,1,03,07,00,000,41,10,00,000,43,12,00,000,41*59
$LOGTIM,0,0.000000,0.000000,0.000000,0.000000,0.000*0A
EndT:        0
---00000069--- Acq_st=3 2019-5-25 03:43:53 
[00]  G07  f 44  -2454.2 2046003.2  1.0  1.0  5  0 531850471
[01]  G08  f 44    352.3 2045999.6  1.0  1.0  5  0 531850474
[02]  G27  f 40   2184.2 2045997.1  1.0  1.0  5  0 531850470
[03]  G30  f 45  -3569.1 2046004.6  1.0  1.0  5  0 531850463
[16]  B07 1f 42   -668.9 4092001.7  1.0  1.0  5  0 531836422
[17]  B10 1f 43   -813.3 4092002.1  1.0  1.0  5  0 531836419
[18]  B12 1f 41   1997.0 4091994.8  1.0  1.0  5  0 531836466
$GNGGA,000000.000,,,,,0,00,,,M,,,,0000*2B
$GNRMC,000000.000,A,,,,,,,000000,,*26
$GPGSA,A,1,,,,,,,,,,,,,,,*1E
$BDGSA,A,1,,,,,,,,,,,,,,,*0F
$GPGSV,1,1,04,07,00,000,44,08,00,000,44,27,00,000,40,30,00,000,45*71
$BDGSV,1,1,03,07,00,000,42,10,00,000,43,12,00,000,41*5A
$LOGTIM,0,0.000000,0.000000,0.000000,0.000000,0.000*0A
EndT:        0
---00000070--- Acq_st=3 2019-5-25 03:43:54 
[00]  G07  f 44  -2453.8 2046003.2  1.0  1.0  5  0 531851471
[01]  G08  f 43    352.7 2045999.6  1.0  1.0  5  0 531851474
[02]  G27  f 40   2184.3 2045997.2  1.0  1.0  5  0 531851470
[03]  G30  f 45  -3569.0 2046004.6  1.0  1.0  5  0 531851463
[16]  B07 1f 41   -668.9 4092001.8  1.0  1.0  5  0 531837422
[17]  B10 1f 44   -813.2 4092002.1  1.0  1.0  5  0 531837419
[18]  B12 1f 41   1997.2 4091994.7  1.0  1.0  5  0 531837466
lsq: nits= 5
$GNGGA,034354.543,3112.9107,N,12136.3944,E,1,04,50.6,338.1,M,,,,0000*2B
$GNRMC,034354.543,A,3112.9107,N,12136.3944,E,4.63,0.00,250519,,*12
$GPGSA,A,3,07,08,27,30,,,,,,,,,63.9,50.6,39.1*0F
$BDGSA,A,3,,,,,,,,,,,,,63.9,50.6,39.1*17
$GPGSV,1,1,04,07,00,000,44,08,00,000,43,27,00,000,40,30,00,000,45*76
$BDGSV,1,1,03,07,00,000,41,10,00,000,44,12,00,000,41*5E
$LOGTIM,1,9540020.389435,0.000000,0.000000,0.000000,-55.785*16
EndT:        0
---00000071--- Acq_st=3 2019-5-25 03:43:55 
[00]  G07  f 44  -2462.1 2046003.2  1.0  1.0  5  0 531852471
[01]  G08  f 43    344.7 2045999.6  1.0  1.0  5  0 531852474
[02]  G27  f 40   2175.9 2045997.2  1.0  1.0  5  0 531852470
[03]  G30  f 45  -3577.3 2046004.6  1.0  1.0  5  0 531852463
[16]  B07 1f 41   -677.6 4092001.8  1.0  1.0  5  0 531838422
[17]  B10 1f 43   -821.8 4092002.1  1.0  1.0  5  0 531838419
[18]  B12 1f 41   1989.2 4091994.8  1.0  1.0  5  0 531838466
lsq: nits= 5
$GNGGA,034356.000,3112.9409,N,12136.3895,E,1,04,51.0,380.7,M,,,,0000*2F
$GNRMC,034356.000,A,3112.9409,N,12136.3895,E,3.12,0.00,250519,,*15
$GPGSA,A,3,07,08,27,30,,,,,,,,,64.5,51.0,39.4*06
$BDGSA,A,3,,,,,,,,,,,,,64.5,51.0,39.4*1E
$GPGSV,1,1,04,07,00,000,44,08,00,000,43,27,00,000,40,30,00,000,45*76
$BDGSV,1,1,03,07,00,000,41,10,00,000,43,12,00,000,41*59
$LOGTIM,1,-28.723341,0.000000,0.000000,0.000000,-59.297*01
EndT:        0
---00000072--- Acq_st=3 2019-5-25 03:43:56 
[00]  G07  f 44  -2469.9 2046003.2  1.0  1.0  5  0 531853928
[01]  G08  f 44    336.4 2045999.6  1.0  1.0  5  0 531853931
[02]  G27  f 40   2167.4 2045997.2  1.0  1.0  5  0 531853927
[03]  G30  f 45  -3585.7 2046004.7  1.0  1.0  5  0 531853920
[16]  B07 1f 42   -686.4 4092001.8  1.0  1.0  5  0 531839879
[17]  B10 1f 43   -830.9 4092002.2  1.0  1.0  5  0 531839876
[18]  B12 1f 41   1980.5 4091994.8  1.0  1.0  5  0 531839923
lsq: nits= 5
$GNGGA,034357.000,3112.9364,N,12136.3901,E,1,04,51.3,373.6,M,,,,0000*20
$GNRMC,034357.000,A,3112.9364,N,12136.3901,E,4.28,0.00,250519,,*1A
$GPGSA,A,3,07,08,27,30,,,,,,,,,64.8,51.3,39.6*0A
$BDGSA,A,3,,,,,,,,,,,,,64.8,51.3,39.6*12
$GPGSV,2,1,05,07,51,309,44,08,71,338,44,27,44,035,40,30,20,317,45*72
$GPGSV,2,2,05,26,09,097,00*4F
$BDGSV,1,1,03,07,00,000,42,10,00,000,43,12,00,000,41*5A
$LOGTIM,1,-99.409944,0.000000,0.000000,0.000000,-59.212*02
EndT:        0
---00000073--- Acq_st=3 2019-5-25 03:43:57 
[00]  G07  f 44  -2470.7 2046003.2  1.0  1.0  5  0 531854928
[01]  G08  f 44    335.3 2045999.6  1.0  1.0  5  0 531854931
[02]  G27  f 40   2166.6 2045997.2  1.0  1.0  5  0 531854927
[03]  G30  f 45  -3586.8 2046004.7  1.0  1.0  5  0 531854920
[16]  B07 1f 42   -687.2 4092001.8  1.0  1.0  5  0 531840879
[17]  B10 1f 43   -831.7 4092002.2  1.0  1.0  5  0 531840876
[18]  B12 1f 41   1979.4 4091994.8  1.0  1.0  5  0 531840923
lsq: nits= 5
$GNGGA,034358.000,3112.9378,N,12136.3902,E,1,04,51.6,373.9,M,,,,0000*2B
$GNRMC,034358.000,A,3112.9378,N,12136.3902,E,0.31,0.00,250519,,*17
$GPGSA,A,3,07,08,27,30,,,,,,,,,65.2,51.6,39.8*0A
$BDGSA,A,3,,,,,,,,,,,,,65.2,51.6,39.8*12
$GPGSV,2,1,05,07,51,309,44,08,71,338,44,27,44,035,40,30,20,317,45*72
$GPGSV,2,2,05,26,09,097,00*4F
$BDGSV,1,1,03,07,00,000,42,10,00,000,43,12,00,000,41*5A
$LOGTIM,1,-159.952225,0.000000,0.000000,0.000000,-61.420*3C
EndT:        0
---00000074--- Acq_st=3 2019-5-25 03:43:58 
[00]  G07  f 44  -2470.0 2046003.2  1.0  1.0  5  0 531855928
[01]  G08  f 44    336.0 2045999.6  1.0  1.0  5  0 531855931
[02]  G27  f 40   2166.8 2045997.2  1.0  1.0  5  0 531855927
[03]  G30  f 45  -3586.3 2046004.7  1.0  1.0  5  0 531855920
[16]  B07 1f 41   -687.2 4092001.8  1.0  1.0  5  0 531841879
[17]  B10 1f 43   -831.7 4092002.2  1.0  1.0  5  0 531841876
[18]  B12 1f 41   1980.0 4091994.8  1.0  1.0  5  0 531841923
lsq: nits= 5
$GNGGA,034359.000,3112.9056,N,12136.3966,E,1,04,51.9,326.9,M,,,,0000*28
$GNRMC,034359.000,A,3112.9056,N,12136.3966,E,3.17,0.00,250519,,*1C
$GPGSA,A,3,07,08,27,30,,,,,,,,,65.5,51.9,40.0*04
$BDGSA,A,3,,,,,,,,,,,,,65.5,51.9,40.0*1C
$GPGSV,2,1,05,07,51,309,44,08,71,338,44,27,44,035,40,30,20,317,45*72
$GPGSV,2,2,05,26,09,097,00*4F
$BDGSV,1,1,03,07,00,000,41,10,00,000,43,12,00,000,41*59
$LOGTIM,1,-285.439826,0.000000,0.000000,0.000000,-60.029*3B
EndT:        0
---00000075--- Acq_st=3 2019-5-25 03:43:59 
[00]  G07  f 44  -2470.5 2046003.2  1.0  1.0  5  0 531856928
[01]  G08  f 44    335.6 2045999.6  1.0  1.0  5  0 531856931
[02]  G27  f 39   2166.8 2045997.2  1.0  1.0  5  0 531856927
[03]  G30  f 45  -3587.1 2046004.7  1.0  1.0  5  0 531856920
[16]  B07 1f 42   -688.7 4092001.8  1.0  1.0  5  0 531842879
[17]  B10 1f 43   -832.6 4092002.1  1.0  1.0  5  0 531842876
[18]  B12 1f 41   1979.2 4091994.8  1.0  1.0  5  0 531842923
lsq: nits= 5
$GNGGA,034400.000,3112.8845,N,12136.4006,E,1,04,52.2,296.5,M,,,,0000*2E
$GNRMC,034400.000,A,3112.8845,N,12136.4006,E,1.58,0.00,250519,,*1D
$GPGSA,A,3,07,08,27,30,,,,,,,,,65.9,52.2,40.2*02
$BDGSA,A,3,,,,,,,,,,,,,65.9,52.2,40.2*1A
$GPGSV,2,1,05,07,51,309,44,08,71,338,44,27,44,035,39,30,20,317,45*7C
$GPGSV,2,2,05,26,09,097,00*4F
$BDGSV,1,1,03,07,00,000,42,10,00,000,43,12,00,000,41*5A
$LOGTIM,1,-389.028741,0.000000,0.000000,0.000000,-60.383*3F
EndT:        0
---00000076--- Acq_st=3 2019-5-25 03:44:0 
[00]  G07  f 44  -2467.3 2046003.2  1.0  1.0  5  0 531857928
[01]  G08  f 43    338.8 2045999.6  1.0  1.0  5  0 531857931
[02]  G27  f 39   2169.1 2045997.2  1.0  0.9  5  0 531857927
[03]  G30  f 45  -3584.3 2046004.6  1.0  1.0  5  0 531857920
[16]  B07 1f 42   -685.3 4092001.8  1.0  1.0  5  0 531843879
[17]  B10 1f 43   -830.2 4092002.2  1.0  1.0  5  0 531843876
[18]  B12 1f 41   1982.0 4091994.8  1.0  1.0  5  0 531843923
lsq: nits= 5
$GNGGA,034401.000,3112.8570,N,12136.4062,E,1,04,52.5,259.2,M,,,,0000*25
$GNRMC,034401.000,A,3112.8570,N,12136.4062,E,2.45,0.00,250519,,*1A
$GPGSA,A,3,07,08,27,30,,,,,,,,,66.3,52.5,40.5*0B
$BDGSA,A,3,,,,,,,,,,,,,66.3,52.5,40.5*13
$GPGSV,2,1,05,07,51,309,44,08,71,338,43,27,44,035,39,30,20,317,45*7B
$GPGSV,2,2,05,26,09,097,00*4F
$BDGSV,1,1,03,07,00,000,42,10,00,000,43,12,00,000,41*5A
$LOGTIM,1,-503.165475,0.000000,0.000000,0.000000,-62.832*34
EndT:        0
---00000077--- Acq_st=3 2019-5-25 03:44:1 
[00]  G07  f 44  -2470.7 2046003.2  1.0  1.0  5  0 531858928
[01]  G08  f 44    335.0 2045999.6  1.0  1.0  5  0 531858931
[02]  G27  f 39   2165.3 2045997.2  1.0  1.0  5  0 531858927
[03]  G30  f 45  -3587.9 2046004.7  1.0  1.0  5  0 531858920
[16]  B07 1f 42   -689.4 4092001.8  1.0  1.0  5  0 531844879
[17]  B10 1f 43   -833.8 4092002.2  1.0  1.0  5  0 531844876
[18]  B12 1f 40   1978.4 4091994.8  1.0  1.0  5  0 531844923
lsq: nits= 5
$GNGGA,034402.000,3112.8276,N,12136.4127,E,1,04,52.8,214.0,M,,,,0000*21
$GNRMC,034402.000,A,3112.8276,N,12136.4127,E,3.03,0.00,250519,,*1B
$GPGSA,A,3,07,08,27,30,,,,,,,,,66.6,52.8,40.7*01
$BDGSA,A,3,,,,,,,,,,,,,66.6,52.8,40.7*19
$GPGSV,2,1,05,07,51,309,44,08,71,338,44,27,44,035,39,30,20,317,45*7C
$GPGSV,2,2,05,26,09,097,00*4F
$BDGSV,1,1,03,07,00,000,42,10,00,000,43,12,00,000,40*5B
$LOGTIM,1,-625.305091,0.000000,0.000000,0.000000,-60.493*3C
EndT:        0
---00000078--- Acq_st=3 2019-5-25 03:44:2 
[00]  G07  f 45  -2468.2 2046003.2  1.0  1.0  5  0 531859928
[01]  G08  f 44    338.0 2045999.6  1.0  1.0  5  0 531859931
[02]  G27  f 38   2168.0 2045997.2  1.0  1.0  5  0 531859927
[03]  G30  f 44  -3585.7 2046004.6  1.0  1.0  5  0 531859920
[16]  B07 1f 41   -687.3 4092001.8  1.0  1.0  5  0 531845879
[17]  B10 1f 43   -832.0 4092002.2  1.0  1.0  5  0 531845876
[18]  B12 1f 41   1981.2 4091994.8  1.0  1.0  5  0 531845923
lsq: nits= 5
$GNGGA,034403.000,3112.7929,N,12136.4183,E,1,04,53.1,166.1,M,,,,0000*2F
$GNRMC,034403.000,A,3112.7929,N,12136.4183,E,0.37,0.00,250519,,*1E
$GPGSA,A,3,07,08,27,30,,,,,,,,,67.0,53.1,40.9*00
$BDGSA,A,3,,,,,,,,,,,,,67.0,53.1,40.9*18
$GPGSV,2,1,05,07,51,309,45,08,71,338,44,27,44,035,38,30,20,317,44*7D
$GPGSV,2,2,05,26,09,097,00*4F
$BDGSV,1,1,03,07,00,000,41,10,00,000,43,12,00,000,41*59
$LOGTIM,1,-753.758909,0.000000,0.000000,0.000000,-61.625*36
EndT:        0
---00000079--- Acq_st=3 2019-5-25 03:44:3 
[00]  G07  f 45  -2470.1 2046003.2  1.0  1.0  5  0 531860928
[01]  G08  f 43    335.4 2045999.6  1.0  1.0  5  0 531860931
[02]  G27  f 39   2164.8 2045997.2  1.0  1.0  5  0 531860927
[03]  G30  f 45  -3588.0 2046004.7  1.0  1.0  5  0 531860920
[16]  B07 1f 41   -690.1 4092001.8  1.0  1.0  5  0 531846879
[17]  B10 1f 43   -834.5 4092002.2  1.0  1.0  5  0 531846876
[18]  B12 1f 40   1978.2 4091994.8  1.0  1.0  5  0 531846923
lsq: nits= 5
$GNGGA,034404.000,3112.8058,N,12136.4168,E,1,04,53.4,182.8,M,,,,0000*2B
$GNRMC,034404.000,A,3112.8058,N,12136.4168,E,4.65,0.00,250519,,*1F
$GPGSA,A,3,07,08,27,30,,,,,,,,,67.4,53.4,41.2*0B
$BDGSA,A,3,,,,,,,,,,,,,67.4,53.4,41.2*13
$GPGSV,2,1,05,07,51,309,45,08,71,338,43,27,44,035,39,30,20,317,45*7A
$GPGSV,2,2,05,26,09,097,00*4F
$BDGSV,1,1,03,07,00,000,41,10,00,000,43,12,00,000,40*58
$LOGTIM,1,-792.789499,0.000000,0.000000,0.000000,-60.253*37
EndT:        0
---00000080--- Acq_st=3 2019-5-25 03:44:4 
[00]  G07  f 45  -2475.7 2046003.2  1.0  1.0  5  0 531861928
[01]  G08  f 44    330.1 2045999.6  1.0  1.0  5  0 531861931
[02]  G27  f 39   2159.3 2045997.2  1.0  1.0  5  0 531861927
[03]  G30  f 44  -3593.5 2046004.7  1.0  1.0  5  0 531861920
[16]  B07 1f 42   -695.4 4092001.8  1.0  1.0  5  0 531847879
[17]  B10 1f 43   -840.1 4092002.2  1.0  1.0  5  0 531847876
[18]  B12 1f 40   1973.0 4091994.9  1.0  1.0  5  0 531847923
lsq: nits= 5
$GNGGA,034405.000,3112.8117,N,12136.4169,E,1,04,53.7,191.7,M,,,,0000*2F
$GNRMC,034405.000,A,3112.8117,N,12136.4169,E,0.71,0.00,250519,,*14
$GPGSA,A,3,07,08,27,30,,,,,,,,,67.8,53.7,41.4*02
$BDGSA,A,3,,,,,,,,,,,,,67.8,53.7,41.4*1A
$GPGSV,2,1,05,07,51,309,45,08,71,338,44,27,44,035,39,30,20,317,44*7C
$GPGSV,2,2,05,26,09,097,00*4F
$BDGSV,1,1,03,07,00,000,42,10,00,000,43,12,00,000,40*5B
$LOGTIM,1,-844.861006,0.000000,0.000000,0.000000,-63.240*39
EndT:        0
---00000081--- Acq_st=3 2019-5-25 03:44:5 
[00]  G07  f 44  -2472.1 2046003.2  1.0  1.0  5  0 531862928
[01]  G08  f 44    333.7 2045999.6  1.0  1.0  5  0 531862931
[02]  G27  f 39   2162.8 2045997.2  1.0  1.0  5  0 531862927
[03]  G30  f 44  -3590.2 2046004.7  1.0  1.0  5  0 531862920
[16]  B07 1f 41   -692.1 4092001.8  1.0  1.0  5  0 531848879
[17]  B10 1f 43   -837.1 4092002.2  1.0  1.0  5  0 531848876
[18]  B12 1f 41   1976.6 4091994.8  1.0  1.0  5  0 531848923
lsq: nits= 5
$GNGGA,034406.000,3112.7678,N,12136.4231,E,1,04,54.0,131.1,M,,,,0000*2F
$GNRMC,034406.000,A,3112.7678,N,12136.4231,E,2.50,0.00,250519,,*19
$GPGSA,A,3,07,08,27,30,,,,,,,,,68.2,54.0,41.6*05
$BDGSA,A,3,,,,,,,,,,,,,68.2,54.0,41.6*1D
$GPGSV,2,1,05,07,51,309,44,08,71,338,44,27,44,035,39,30,20,317,44*7D
$GPGSV,2,2,05,26,09,097,00*4F
$BDGSV,1,1,03,07,00,000,41,10,00,000,43,12,00,000,41*59
$LOGTIM,1,-991.650846,0.000000,0.000000,0.000000,-61.069*3B
EndT:        0
---00000082--- Acq_st=3 2019-5-25 03:44:6 
[00]  G07  f 45  -2472.4 2046003.2  1.0  1.0  5  0 531863928
[01]  G08  f 43    333.2 2045999.6  1.0  1.0  5  0 531863931
[02]  G27  f 39   2162.4 2045997.2  1.0  1.0  5  0 531863927
[03]  G30  f 44  -3590.8 2046004.7  1.0  1.0  5  0 531863920
[16]  B07 1f 41   -693.2 4092001.8  1.0  1.0  5  0 531849879
[17]  B10 1f 44   -838.0 4092002.2  1.0  1.0  5  0 531849876
[18]  B12 1f 41   1976.2 4091994.8  1.0  1.0  5  0 531849923
lsq: nits= 5
$GNGGA,034407.000,3112.7294,N,12136.4296,E,1,04,54.3,75.0,M,,,,0000*16
$GNRMC,034407.000,A,3112.7294,N,12136.4296,E,1.48,0.00,250519,,*19
$GPGSA,A,3,07,08,27,30,,,,,,,,,68.6,54.3,41.9*0D
$BDGSA,A,3,,,,,,,,,,,,,68.6,54.3,41.9*15
$GPGSV,2,1,05,07,51,309,45,08,71,338,43,27,44,035,39,30,20,317,44*7B
$GPGSV,2,2,05,26,09,097,00*4F
$BDGSV,1,1,03,07,00,000,41,10,00,000,44,12,00,000,41*5E
$LOGTIM,1,-1130.066939,0.000000,0.000000,0.000000,-62.693*03
EndT:        0
---00000083--- Acq_st=3 2019-5-25 03:44:7 
[00]  G07  f 45  -2478.6 2046003.2  1.0  1.0  5  0 531864928
[01]  G08  f 43    327.1 2045999.6  1.0  1.0  5  0 531864931
[02]  G27  f 38   2155.2 2045997.2  1.0  1.0  5  0 531864927
[03]  G30  f 45  -3597.5 2046004.7  1.0  1.0  5  0 531864920
[16]  B07 1f 41   -699.9 4092001.8  1.0  1.0  5  0 531850879
[17]  B10 1f 43   -844.8 4092002.2  1.0  1.0  5  0 531850876
[18]  B12 1f 41   1969.4 4091994.9  1.0  1.0  5  0 531850923
lsq: nits= 5
$GNGGA,034408.000,3112.7234,N,12136.4328,E,1,04,54.6,62.8,M,,,,0000*1C
$GNRMC,034408.000,A,3112.7234,N,12136.4328,E,0.36,0.00,250519,,*10
$GPGSA,A,3,07,08,27,30,,,,,,,,,69.0,54.6,42.1*04
$BDGSA,A,3,,,,,,,,,,,,,69.0,54.6,42.1*1C
$GPGSV,2,1,05,07,51,309,45,08,71,338,43,27,44,035,38,30,20,317,45*7B
$GPGSV,2,2,05,26,09,097,00*4F
$BDGSV,1,1,03,07,00,000,41,10,00,000,43,12,00,000,41*59
$LOGTIM,1,-1209.512484,0.000000,0.000000,0.000000,-64.189*0D
EndT:        0
---00000084--- Acq_st=3 2019-5-25 03:44:8 
[00]  G07  f 45  -2480.3 2046003.2  1.0  1.0  5  0 531865928
[01]  G08  f 43    324.9 2045999.6  1.0  1.0  5  0 531865931
[02]  G27  f 38   2153.8 2045997.2  1.0  1.0  5  0 531865927
[03]  G30  f 45  -3599.3 2046004.7  1.0  1.0  5  0 531865920
[16]  B07 1f 41   -702.0 4092001.9  1.0  1.0  5  0 531851879
[17]  B10 1f 44   -846.8 4092002.2  1.0  1.0  5  0 531851876
[18]  B12 1f 41   1967.6 4091994.9  1.0  1.0  5  0 531851923
lsq: nits= 5
$GNGGA,034409.000,3112.7014,N,12136.4384,E,1,04,55.0,30.1,M,,,,0000*12
$GNRMC,034409.000,A,3112.7014,N,12136.4384,E,3.04,0.00,250519,,*15
$GPGSA,A,3,07,08,27,30,,,,,,,,,69.4,55.0,42.4*02
$BDGSA,A,3,,,,,,,,,,,,,69.4,55.0,42.4*1A
$GPGSV,2,1,05,07,51,309,45,08,71,338,43,27,44,035,38,30,20,317,45*7B
$GPGSV,2,2,05,26,09,097,00*4F
$BDGSV,1,1,03,07,00,000,41,10,00,000,44,12,00,000,41*5E
$LOGTIM,1,-1318.723515,0.000000,0.000000,0.000000,-62.794*09
EndT:        0
---00000085--- Acq_st=3 2019-5-25 03:44:9 
[00]  G07  f 45  -2479.0 2046003.2  1.0  1.0  5  0 531866928
[01]  G08  f 44    326.5 2045999.6  1.0  1.0  5  0 531866931
[02]  G27  f 38   2154.5 2045997.2  1.0  1.0  5  0 531866927
[03]  G30  f 44  -3597.9 2046004.7  1.0  1.0  5  0 531866920
[16]  B07 1f 41   -701.3 4092001.8  1.0  1.0  5  0 531852879
[17]  B10 1f 44   -846.4 4092002.2  1.0  1.0  5  0 531852876
[18]  B12 1f 41   1968.1 4091994.8  1.0  1.0  5  0 531852923
lsq: nits= 5
$GNGGA,034410.000,3112.6661,N,12136.4444,E,1,04,55.3,-21.3,M,,,,0000*38
$GNRMC,034410.000,A,3112.6661,N,12136.4444,E,1.31,0.00,250519,,*17
$GPGSA,A,3,07,08,27,30,,,,,,,,,69.8,55.3,42.6*0F
$BDGSA,A,3,,,,,,,,,,,,,69.8,55.3,42.6*17
$GPGSV,2,1,05,07,51,309,45,08,71,338,44,27,43,035,38,30,20,317,44*7A
$GPGSV,2,2,05,26,09,097,00*4F
$BDGSV,1,1,03,07,00,000,41,10,00,000,44,12,00,000,41*5E
$LOGTIM,1,-1452.126212,0.000000,0.000000,0.000000,-63.843*07
EndT:        0
---00000086--- Acq_st=3 2019-5-25 03:44:10 
[00]  G07  f 45  -2468.5 2046003.2  1.0  1.0  5  0 531867928
[01]  G08  f 44    336.4 2045999.6  1.0  1.0  5  0 531867931
[02]  G27  f 39   2164.8 2045997.2  1.0  1.0  5  0 531867927
[03]  G30  f 45  -3588.0 2046004.7  1.0  1.0  5  0 531867920
[16]  B07 1f 41   -691.2 4092001.8  1.0  1.0  5  0 531853879
[17]  B10 1f 43   -836.4 4092002.2  1.0  1.0  5  0 531853876
[18]  B12 1f 41   1978.6 4091994.8  1.0  1.0  5  0 531853923
lsq: nits= 5
$GNGGA,034411.000,3112.6748,N,12136.4442,E,1,04,55.6,-13.6,M,,,,0000*34
$GNRMC,034411.000,A,3112.6748,N,12136.4442,E,5.47,0.00,250519,,*1F
$GPGSA,A,3,07,08,27,30,,,,,,,,,70.2,55.6,42.9*07
$BDGSA,A,3,,,,,,,,,,,,,70.2,55.6,42.9*1F
$GPGSV,2,1,05,07,51,309,45,08,71,338,44,27,43,035,39,30,20,317,45*7A
$GPGSV,2,2,05,26,09,097,00*4F
$BDGSV,1,1,03,07,00,000,41,10,00,000,43,12,00,000,41*59
$LOGTIM,1,-1501.982981,0.000000,0.000000,0.000000,-64.971*00
EndT:        0
---00000087--- Acq_st=3 2019-5-25 03:44:11 
[00]  G07  f 45  -2466.0 2046003.2  1.0  1.0  5  0 531868928
[01]  G08  f 43    338.9 2045999.6  1.0  1.0  5  0 531868931
[02]  G27  f 38   2167.0 2045997.2  1.0  0.9  5  0 531868927
[03]  G30  f 44  -3585.9 2046004.7  1.0  1.0  5  0 531868920
[16]  B07 1f 41   -689.3 4092001.8  1.0  1.0  5  0 531854879
[17]  B10 1f 44   -834.4 4092002.2  1.0  1.0  5  0 531854876
[18]  B12 1f 41   1981.1 4091994.8  1.0  1.0  5  0 531854923
ch19 satid=59,max_freq = 3250,max_mean = 9108,max_phase = 790,max_value = 90546,acq ok1!
acq ok1 timeH = 0,timeL = 1638971033,freq_stage = 1
lsq: nits= 5
$GNGGA,034412.000,3112.6643,N,12136.4451,E,1,04,55.9,-27.5,M,,,,0000*34
$GNRMC,034412.000,A,3112.6643,N,12136.4451,E,5.28,0.00,250519,,*1D
$GPGSA,A,3,07,08,27,30,,,,,,,,,70.6,55.9,43.1*05
$BDGSA,A,3,,,,,,,,,,,,,70.6,55.9,43.1*1D
$GPGSV,2,1,05,07,51,308,45,08,71,339,43,27,43,035,38,30,20,317,44*7D
$GPGSV,2,2,05,26,09,097,00*4F
$BDGSV,1,1,03,07,00,000,41,10,00,000,44,12,00,000,41*5E
$LOGTIM,1,-1583.182406,0.000000,0.000000,0.000000,-64.105*0B
EndT:        0
---00000088--- Acq_st=3 2019-5-25 03:44:12 
[00]  G07  f 46  -2458.9 2046003.2  1.0  1.0  5  0 531869928
[01]  G08  f 43    346.2 2045999.6  1.0  1.0  5  0 531869931
[02]  G27  f 39   2174.2 2045997.1  1.0  1.0  5  0 531869927
[03]  G30  f 44  -3578.8 2046004.6  1.0  1.0  5  0 531869920
[16]  B07 1f 41   -682.7 4092001.8  1.0  1.0  5  0 531855879
[17]  B10 1f 44   -827.3 4092002.2  1.0  1.0  5  0 531855876
[18]  B12 1f 41   1987.8 4091994.8  1.0  1.0  5  0 531855923
[19]  B23  1  7  -3342.2 4092009.3 -0.1  0.0  1  0       154
lsq: nits= 5
$GNGGA,034413.000,3112.6353,N,12136.4501,E,1,04,56.3,-70.7,M,,,,0000*3C
$GNRMC,034413.000,A,3112.6353,N,12136.4501,E,6.21,0.00,250519,,*16
$GPGSA,A,3,07,08,27,30,,,,,,,,,71.1,56.3,43.4*0F
$BDGSA,A,3,,,,,,,,,,,,,71.1,56.3,43.4*17
$GPGSV,2,1,05,07,51,308,46,08,71,339,43,27,43,035,39,30,20,317,44*7F
$GPGSV,2,2,05,26,09,097,00*4F
$BDGSV,1,1,03,07,00,000,41,10,00,000,44,12,00,000,41*5E
$LOGTIM,1,-1701.960345,0.000000,0.000000,0.000000,-63.475*02
EndT:        0
---00000089--- Acq_st=3 2019-5-25 03:44:13 
[00]  G07  f 46  -2454.4 2046003.2  1.0  1.0  5  0 531870928
[01]  G08  f 43    350.6 2045999.5  1.0  1.0  5  0 531870931
[02]  G27  f 38   2178.6 2045997.2  1.0  1.0  5  0 531870927
[03]  G30  f 44  -3574.4 2046004.6  1.0  1.0  5  0 531870920
[16]  B07 1f 41   -678.4 4092001.8  1.0  1.0  5  0 531856879
[17]  B10 1f 43   -823.7 4092002.2  1.0  1.0  5  0 531856876
[18]  B12 1f 41   1991.7 4091994.8  1.0  1.0  5  0 531856923
[19]  B23  7 23  -3356.6 4092008.9  0.3  0.0 20  0      1154
lsq: nits= 5
$GNGGA,034414.000,3112.5685,N,12136.4612,E,1,04,56.6,-166.4,M,,,,0000*07
$GNRMC,034414.000,A,3112.5685,N,12136.4612,E,1.96,0.00,250519,,*16
$GPGSA,A,3,07,08,27,30,,,,,,,,,71.5,56.6,43.6*0C
$BDGSA,A,3,,,,,,,,,,,,,71.5,56.6,43.6*14
$GPGSV,2,1,05,07,51,308,46,08,71,339,43,27,43,035,38,30,20,317,44*7E
$GPGSV,2,2,05,26,09,097,00*4F
$BDGSV,1,1,04,07,00,000,41,10,00,000,43,12,00,000,41,23,00,000,23*6E
$LOGTIM,1,-1893.410693,0.000000,0.000000,0.000000,-60.896*00
EndT:        0
---00000090--- Acq_st=3 2019-5-25 03:44:14 
[00]  G07  f 46  -2453.7 2046003.2  1.0  1.0  5  0 531871928
[01]  G08  f 43    351.1 2045999.5  1.0  1.0  5  0 531871931
[02]  G27  f 38   2178.8 2045997.2  1.0  1.0  5  0 531871927
[03]  G30  f 43  -3574.4 2046004.7  1.0  1.0  5  0 531871920
[16]  B07 1f 41   -678.5 4092001.7  1.0  1.0  5  0 531857879
[17]  B10 1f 43   -823.6 4092002.1  1.0  1.0  5  0 531857876
[18]  B12 1f 41   1992.2 4091994.8  1.0  1.0  5  0 531857923
[19]  B23  7 39  -3356.1 4092008.8  1.0  1.0  5  0      2149
lsq: nits= 4
$GNGGA,034415.000,3112.9935,N,12136.3810,E,1,07,11.4,453.7,M,,,,0000*2A
$GNRMC,034415.000,A,3112.9935,N,12136.3810,E,1.40,0.00,250519,,*1F
$GPGSA,A,3,07,08,27,30,,,,,,,,,14.4,11.4,8.9*3F
$BDGSA,A,3,07,10,12,,,,,,,,,,14.4,11.4,8.9*22
$GPGSV,2,1,05,07,51,308,46,08,71,339,43,27,43,035,38,30,20,317,43*79
$GPGSV,2,2,05,26,09,097,00*4F
$BDGSV,1,1,04,07,00,000,41,10,00,000,43,12,00,000,41,23,00,000,39*65
$LOGTIM,3,-1111.956292,-1280.416177,0.000000,0.000000,-59.112*10
EndT:        1
---00000091--- Acq_st=3 2019-5-25 03:44:16 
