FlashID=0x1 0x20 0x18
BBram_blkflag1:  7a3: f85c
FW Ver: 1.30  
GPS00 Init Dop:   5000, 40
GPS01 Init Dop:   5000, 40
GPS02 Init Dop:   5000, 40
GPS03 Init Dop:   5000, 40
GPS04 Init Dop:   5000, 40
GPS05 Init Dop:   5000, 40
GPS06 Init Dop:   5000, 40
GPS07 Init Dop:   5000, 40
GPS08 Init Dop:   5000, 40
GPS09 Init Dop:   5000, 40
GPS10 Init Dop:   5000, 40
GPS11 Init Dop:   5000, 40
GPS12 Init Dop:   5000, 40
GPS13 Init Dop:   5000, 40
GPS14 Init Dop:   5000, 40
GPS15 Init Dop:   5000, 40
GPS16 Init Dop:   5000, 40
GPS17 Init Dop:   5000, 40
GPS18 Init Dop:   5000, 40
GPS19 Init Dop:   5000, 40
GPS20 Init Dop:   5000, 40
GPS21 Init Dop:   5000, 40
GPS22 Init Dop:   5000, 40
GPS23 Init Dop:   5000, 40
GPS24 Init Dop:   5000, 40
GPS25 Init Dop:   5000, 40
GPS26 Init Dop:   5000, 40
GPS27 Init Dop:   5000, 40
GPS28 Init Dop:   5000, 40
GPS29 Init Dop:   5000, 40
GPS30 Init Dop:   5000, 40
GPS31 Init Dop:   5000, 40
BDS00 Init Dop:   5000, 40
BDS01 Init Dop:   5000, 40
BDS02 Init Dop:   5000, 40
BDS03 Init Dop:   5000, 40
BDS04 Init Dop:   5000, 40
BDS05 Init Dop:   5000, 40
BDS06 Init Dop:   5000, 40
BDS07 Init Dop:   5000, 40
BDS08 Init Dop:   5000, 40
BDS09 Init Dop:   5000, 40
BDS10 Init Dop:   5000, 40
BDS11 Init Dop:   5000, 40
BDS12 Init Dop:   5000, 40
BDS13 Init Dop:   5000, 40
BDS14 Init Dop:   5000, 40
BDS15 Init Dop:   5000, 40
BDS16 Init Dop:   5000, 40
BDS17 Init Dop:   5000, 40
BDS18 Init Dop:   5000, 40
BDS19 Init Dop:   5000, 40
BDS20 Init Dop:   5000, 40
BDS21 Init Dop:   5000, 40
BDS22 Init Dop:   5000, 40
BDS23 Init Dop:   5000, 40
BDS24 Init Dop:   5000, 40
BDS25 Init Dop:   5000, 40
BDS26 Init Dop:   5000, 40
BDS27 Init Dop:   5000, 40
BDS28 Init Dop:   5000, 40
BDS29 Init Dop:   5000, 40
BDS30 Init Dop:   5000, 40
BDS31 Init Dop:   5000, 40
good luck!
---00000001--- Acq_st=3 2019-5-22 07:52:54 
$GNGGA,000000.000,,,,,0,00,,,M,,,,0000*2B
$GNRMC,000000.000,A,,,,,,,000000,,*26
$GPGSA,A,1,,,,,,,,,,,,,,,*1E
$BDGSA,A,1,,,,,,,,,,,,,,,*0F
$LOGTIM,0,0.000000,0.000000,0.000000,0.000000,0.000*0A
EndT:        0
---00000002--- Acq_st=3 2019-5-22 07:52:55 
[00]  G01  1 27   2531.7 2045997.3  0.1  0.0  1  0         0
$GNGGA,000000.000,,,,,0,00,,,M,,,,0000*2B
$GNRMC,000000.000,A,,,,,,,000000,,*26
$GPGSA,A,1,,,,,,,,,,,,,,,*1E
$BDGSA,A,1,,,,,,,,,,,,,,,*0F
$LOGTIM,0,0.000000,0.000000,0.000000,0.000000,0.000*0A
EndT:        0
---00000003--- Acq_st=3 2019-5-22 07:52:56 
[00]  G01  7 28   2532.6 2045996.6  0.2  1.0 10  0         4
$GNGGA,000000.000,,,,,0,00,,,M,,,,0000*2B
$GNRMC,000000.000,A,,,,,,,000000,,*26
$GPGSA,A,1,,,,,,,,,,,,,,,*1E
$BDGSA,A,1,,,,,,,,,,,,,,,*0F
$GPGSV,1,1,01,01,00,000,28*43
$LOGTIM,0,0.000000,0.000000,0.000000,0.000000,0.000*0A
EndT:        0
---00000004--- Acq_st=3 2019-5-22 07:52:57 
[00]  G01  7 40   2534.2 2045996.7  0.9  1.0  5  0        19
$GNGGA,000000.000,,,,,0,00,,,M,,,,0000*2B
$GNRMC,000000.000,A,,,,,,,000000,,*26
$GPGSA,A,1,,,,,,,,,,,,,,,*1E
$BDGSA,A,1,,,,,,,,,,,,,,,*0F
$GPGSV,1,1,01,01,00,000,40*4D
$LOGTIM,0,0.000000,0.000000,0.000000,0.000000,0.000*0A
EndT:        0
---00000005--- Acq_st=3 2019-5-22 07:52:58 
[00]  G01  7 40   2535.6 2045996.6  1.0  1.0  5  0        19
$GNGGA,000000.000,,,,,0,00,,,M,,,,0000*2B
$GNRMC,000000.000,A,,,,,,,000000,,*26
$GPGSA,A,1,,,,,,,,,,,,,,,*1E
$BDGSA,A,1,,,,,,,,,,,,,,,*0F
$GPGSV,1,1,01,01,00,000,40*4D
$LOGTIM,0,0.000000,0.000000,0.000000,0.000000,0.000*0A
EndT:        0
---00000006--- Acq_st=3 2019-5-22 07:52:59 
[00]  G01  7 40   2539.7 2045996.7  1.0  1.0  5  0        19
$GNGGA,000000.000,,,,,0,00,,,M,,,,0000*2B
$GNRMC,000000.000,A,,,,,,,000000,,*26
$GPGSA,A,1,,,,,,,,,,,,,,,*1E
$BDGSA,A,1,,,,,,,,,,,,,,,*0F
$GPGSV,1,1,01,01,00,000,40*4D
$LOGTIM,0,0.000000,0.000000,0.000000,0.000000,0.000*0A
EndT:        0
---00000007--- Acq_st=3 2019-5-22 07:53:0 
[00]  G01  7 40   2541.4 2045996.7  1.0  1.0  5  0        19
$GNGGA,000000.000,,,,,0,00,,,M,,,,0000*2B
$GNRMC,000000.000,A,,,,,,,000000,,*26
$GPGSA,A,1,,,,,,,,,,,,,,,*1E
$BDGSA,A,1,,,,,,,,,,,,,,,*0F
$GPGSV,1,1,01,01,00,000,40*4D
$LOGTIM,0,0.000000,0.000000,0.000000,0.000000,0.000*0A
EndT:        0
---00000008--- Acq_st=3 2019-5-22 07:53:1 
[00]  G01  7 40   2541.9 2045996.7  1.0  1.0  5  0        19
$GNGGA,000000.000,,,,,0,00,,,M,,,,0000*2B
$GNRMC,000000.000,A,,,,,,,000000,,*26
$GPGSA,A,1,,,,,,,,,,,,,,,*1E
$BDGSA,A,1,,,,,,,,,,,,,,,*0F
$GPGSV,1,1,01,01,00,000,40*4D
$LOGTIM,0,0.000000,0.000000,0.000000,0.000000,0.000*0A
EndT:        0
---00000009--- Acq_st=3 2019-5-22 07:53:2 
[00]  G01  f 40   2542.3 2045996.7  1.0  1.0  5  0        19
$GNGGA,000000.000,,,,,0,00,,,M,,,,0000*2B
$GNRMC,000000.000,A,,,,,,,000000,,*26
$GPGSA,A,1,,,,,,,,,,,,,,,*1E
$BDGSA,A,1,,,,,,,,,,,,,,,*0F
$GPGSV,1,1,01,01,00,000,40*4D
$LOGTIM,0,0.000000,0.000000,0.000000,0.000000,0.000*0A
EndT:        0
---00000010--- Acq_st=3 2019-5-22 07:53:3 
[00]  G01  f 40   2537.0 2045996.7  1.0  1.0  5  0 287600199
$GNGGA,000000.000,,,,,0,00,,,M,,,,0000*2B
$GNRMC,000000.000,A,,,,,,,000000,,*26
$GPGSA,A,1,,,,,,,,,,,,,,,*1E
$BDGSA,A,1,,,,,,,,,,,,,,,*0F
$GPGSV,1,1,01,01,00,000,40*4D
$LOGTIM,0,0.000000,0.000000,0.000000,0.000000,0.000*0A
EndT:        0
---00000011--- Acq_st=3 2019-5-22 07:53:4 
[00]  G01  f 40   2538.3 2045996.7  1.0  1.0  5  0 287601199
$GNGGA,000000.000,,,,,0,00,,,M,,,,0000*2B
$GNRMC,000000.000,A,,,,,,,000000,,*26
$GPGSA,A,1,,,,,,,,,,,,,,,*1E
$BDGSA,A,1,,,,,,,,,,,,,,,*0F
$GPGSV,1,1,01,01,00,000,40*4D
$LOGTIM,0,0.000000,0.000000,0.000000,0.000000,0.000*0A
EndT:        0
---00000012--- Acq_st=3 2019-5-22 07:53:5 
[00]  G01  f 41   2541.2 2045996.7  1.0  0.9  5  0 287602199
$GNGGA,000000.000,,,,,0,00,,,M,,,,0000*2B
$GNRMC,000000.000,A,,,,,,,000000,,*26
$GPGSA,A,1,,,,,,,,,,,,,,,*1E
$BDGSA,A,1,,,,,,,,,,,,,,,*0F
$GPGSV,1,1,01,01,00,000,41*4C
$LOGTIM,0,0.000000,0.000000,0.000000,0.000000,0.000*0A
EndT:        0
---00000013--- Acq_st=3 2019-5-22 07:53:6 
[00]  G01  f 41   2535.3 2045996.7  1.0  1.0  5  0 287603199
$GNGGA,000000.000,,,,,0,00,,,M,,,,0000*2B
$GNRMC,000000.000,A,,,,,,,000000,,*26
$GPGSA,A,1,,,,,,,,,,,,,,,*1E
$BDGSA,A,1,,,,,,,,,,,,,,,*0F
$GPGSV,1,1,01,01,00,000,41*4C
$LOGTIM,0,0.000000,0.000000,0.000000,0.000000,0.000*0A
EndT:        0
---00000014--- Acq_st=3 2019-5-22 07:53:7 
[00]  G01  f 41   2534.2 2045996.7  1.0  1.0  5  0 287604199
[01]  G11  1 25   2217.1 2045997.5  0.0  0.0  1  0         0
$GNGGA,000000.000,,,,,0,00,,,M,,,,0000*2B
$GNRMC,000000.000,A,,,,,,,000000,,*26
$GPGSA,A,1,,,,,,,,,,,,,,,*1E
$BDGSA,A,1,,,,,,,,,,,,,,,*0F
$GPGSV,1,1,01,01,00,000,41*4C
$LOGTIM,0,0.000000,0.000000,0.000000,0.000000,0.000*0A
EndT:        0
---00000015--- Acq_st=3 2019-5-22 07:53:8 
[00]  G01  f 41   2534.0 2045996.7  1.0  1.0  5  0 287605199
[01]  G11  7 28   2211.5 2045996.9 -0.0  0.9 10  0        10
$GNGGA,000000.000,,,,,0,00,,,M,,,,0000*2B
$GNRMC,000000.000,A,,,,,,,000000,,*26
$GPGSA,A,1,,,,,,,,,,,,,,,*1E
$BDGSA,A,1,,,,,,,,,,,,,,,*0F
$GPGSV,1,1,02,01,00,000,41,11,00,000,28*75
$LOGTIM,0,0.000000,0.000000,0.000000,0.000000,0.000*0A
EndT:        0
---00000016--- Acq_st=3 2019-5-22 07:53:9 
[00]  G01  f 41   2535.6 2045996.7  1.0  1.0  5  0 287606199
[01]  G11  7 34   2213.1 2045997.0  1.0  1.0  5  0        17
$GNGGA,000000.000,,,,,0,00,,,M,,,,0000*2B
$GNRMC,000000.000,A,,,,,,,000000,,*26
$GPGSA,A,1,,,,,,,,,,,,,,,*1E
$BDGSA,A,1,,,,,,,,,,,,,,,*0F
$GPGSV,1,1,02,01,00,000,41,11,00,000,34*78
$LOGTIM,0,0.000000,0.000000,0.000000,0.000000,0.000*0A
EndT:        0
---00000017--- Acq_st=3 2019-5-22 07:53:10 
[00]  G01  f 42   2538.3 2045996.7  1.0  1.0  5  0 287607199
[01]  G11  7 35   2216.4 2045997.0  1.0  1.0  5  0        17
$GNGGA,000000.000,,,,,0,00,,,M,,,,0000*2B
$GNRMC,000000.000,A,,,,,,,000000,,*26
$GPGSA,A,1,,,,,,,,,,,,,,,*1E
$BDGSA,A,1,,,,,,,,,,,,,,,*0F
$GPGSV,1,1,02,01,00,000,42,11,00,000,35*7A
$LOGTIM,0,0.000000,0.000000,0.000000,0.000000,0.000*0A
EndT:        0
---00000018--- Acq_st=3 2019-5-22 07:53:11 
[00]  G01  f 41   2533.5 2045996.7  1.0  1.0  5  0 287608199
[01]  G11  7 35   2211.6 2045997.1  1.0  1.0  5  0        17
$GNGGA,000000.000,,,,,0,00,,,M,,,,0000*2B
$GNRMC,000000.000,A,,,,,,,000000,,*26
$GPGSA,A,1,,,,,,,,,,,,,,,*1E
$BDGSA,A,1,,,,,,,,,,,,,,,*0F
$GPGSV,1,1,02,01,00,000,41,11,00,000,35*79
$LOGTIM,0,0.000000,0.000000,0.000000,0.000000,0.000*0A
EndT:        0
---00000019--- Acq_st=3 2019-5-22 07:53:12 
[00]  G01  f 41   2535.4 2045996.7  1.0  1.0  5  0 287609199
[01]  G11  7 35   2213.0 2045997.0  1.0  1.0  5  0        17
$GNGGA,000000.000,,,,,0,00,,,M,,,,0000*2B
$GNRMC,000000.000,A,,,,,,,000000,,*26
$GPGSA,A,1,,,,,,,,,,,,,,,*1E
$BDGSA,A,1,,,,,,,,,,,,,,,*0F
$GPGSV,1,1,02,01,00,000,41,11,00,000,35*79
$LOGTIM,0,0.000000,0.000000,0.000000,0.000000,0.000*0A
EndT:        0
---00000020--- Acq_st=3 2019-5-22 07:53:13 
[00]  G01  f 41   2541.6 2045996.7  1.0  1.0  5  0 287610199
[01]  G11  7 35   2218.7 2045997.1  1.0  0.9  5  0        17
$GNGGA,000000.000,,,,,0,00,,,M,,,,0000*2B
$GNRMC,000000.000,A,,,,,,,000000,,*26
$GPGSA,A,1,,,,,,,,,,,,,,,*1E
$BDGSA,A,1,,,,,,,,,,,,,,,*0F
$GPGSV,1,1,02,01,00,000,41,11,00,000,35*79
$LOGTIM,0,0.000000,0.000000,0.000000,0.000000,0.000*0A
EndT:        0
---00000021--- Acq_st=3 2019-5-22 07:53:14 
[00]  G01  f 41   2548.0 2045996.7  1.0  1.0  5  0 287611199
[01]  G11  f 35   2226.8 2045997.1  1.0  0.9  5  0        17
[02]  G17  1 26  -1786.1 2046003.5  0.0  0.0  1  0         0
$GNGGA,000000.000,,,,,0,00,,,M,,,,0000*2B
$GNRMC,000000.000,A,,,,,,,000000,,*26
$GPGSA,A,1,,,,,,,,,,,,,,,*1E
$BDGSA,A,1,,,,,,,,,,,,,,,*0F
$GPGSV,1,1,02,01,00,000,41,11,00,000,35*79
$LOGTIM,0,0.000000,0.000000,0.000000,0.000000,0.000*0A
EndT:        0
---00000022--- Acq_st=3 2019-5-22 07:53:15 
[00]  G01  f 41   2546.8 2045996.7  1.0  1.0  5  0 287612199
[01]  G11  f 35   2224.6 2045997.1  1.0  1.0  5  0 287612197
[02]  G17  7 28  -1787.6 2046002.3  0.5  1.0 10  0         7
$GNGGA,000000.000,,,,,0,00,,,M,,,,0000*2B
$GNRMC,000000.000,A,,,,,,,000000,,*26
$GPGSA,A,1,,,,,,,,,,,,,,,*1E
$BDGSA,A,1,,,,,,,,,,,,,,,*0F
$GPGSV,1,1,03,01,00,000,41,11,00,000,35,17,00,000,28*44
$LOGTIM,0,0.000000,0.000000,0.000000,0.000000,0.000*0A
EndT:        0
---00000023--- Acq_st=3 2019-5-22 07:53:16 
[00]  G01  f 41   2544.2 2045996.7  1.0  1.0  5  0 287613199
[01]  G11  f 35   2222.7 2045997.0  1.0  0.9  5  0 287613197
[02]  G17  7 45  -1789.6 2046002.3  0.9  1.0  5  0         0
[03]  G19  1  7  -2504.4 2046005.2 -0.0  0.0  1  0         0
$GNGGA,000000.000,,,,,0,00,,,M,,,,0000*2B
$GNRMC,000000.000,A,,,,,,,000000,,*26
$GPGSA,A,1,,,,,,,,,,,,,,,*1E
$BDGSA,A,1,,,,,,,,,,,,,,,*0F
$GPGSV,1,1,03,01,00,000,41,11,00,000,35,17,00,000,45*4F
$LOGTIM,0,0.000000,0.000000,0.000000,0.000000,0.000*0A
EndT:        0
---00000024--- Acq_st=3 2019-5-22 07:53:17 
[00]  G01  f 41   2544.6 2045996.7  1.0  1.0  5  0 287614199
[01]  G11  f 35   2222.6 2045997.1  1.0  0.9  5  0 287614197
[02]  G17  7 45  -1789.2 2046002.3  1.0  1.0  5  0         0
[03]  G19  7 13  -2565.8 2046003.2  0.3  0.0 20  0        12
$GNGGA,000000.000,,,,,0,00,,,M,,,,0000*2B
$GNRMC,000000.000,A,,,,,,,000000,,*26
$GPGSA,A,1,,,,,,,,,,,,,,,*1E
$BDGSA,A,1,,,,,,,,,,,,,,,*0F
$GPGSV,1,1,04,01,00,000,41,11,00,000,35,17,00,000,45,19,00,000,13*72
$LOGTIM,0,0.000000,0.000000,0.000000,0.000000,0.000*0A
EndT:        0
---00000025--- Acq_st=3 2019-5-22 07:53:18 
[00]  G01  f 41   2538.3 2045996.7  1.0  1.0  5  0 287615199
[01]  G11  f 36   2215.6 2045997.2  1.0  1.0  5  0 287615197
[02]  G17  7 45  -1796.0 2046002.3  1.0  1.0  5  0         0
[03]  G19  7 39  -2573.1 2046003.3  0.4  1.0  5  0        17
$GNGGA,000000.000,,,,,0,00,,,M,,,,0000*2B
$GNRMC,000000.000,A,,,,,,,000000,,*26
$GPGSA,A,1,,,,,,,,,,,,,,,*1E
$BDGSA,A,1,,,,,,,,,,,,,,,*0F
$GPGSV,1,1,04,01,00,000,41,11,00,000,36,17,00,000,45,19,00,000,39*79
$LOGTIM,0,0.000000,0.000000,0.000000,0.000000,0.000*0A
EndT:        0
---00000026--- Acq_st=3 2019-5-22 07:53:19 
[00]  G01  f 40   2533.8 2045996.7  1.0  1.0  5  0 287616199
[01]  G11  f 35   2210.9 2045997.0  1.0  0.9  5  0 287616197
[02]  G17  7 45  -1800.5 2046002.3  1.0  1.0  5  0         0
[03]  G19  7 39  -2577.2 2046003.3  1.0  1.0  5  0        17
$GNGGA,000000.000,,,,,0,00,,,M,,,,0000*2B
$GNRMC,000000.000,A,,,,,,,000000,,*26
$GPGSA,A,1,,,,,,,,,,,,,,,*1E
$BDGSA,A,1,,,,,,,,,,,,,,,*0F
$GPGSV,1,1,04,01,00,000,40,11,00,000,35,17,00,000,45,19,00,000,39*7B
$LOGTIM,0,0.000000,0.000000,0.000000,0.000000,0.000*0A
EndT:        0
---00000027--- Acq_st=3 2019-5-22 07:53:20 
[00]  G01  f 40   2535.5 2045996.7  1.0  1.0  5  0 287617199
[01]  G11  f 35   2211.9 2045997.1  1.0  0.9  5  0 287617197
[02]  G17  f 45  -1799.2 2046002.3  1.0  1.0  5  0 287617200
[03]  G19  f 40  -2576.3 2046003.3  1.0  1.0  5  0        17
[04]  G22  1 24   1283.8 2045998.5  0.1  0.0  1  0         0
$GNGGA,000000.000,,,,,0,00,,,M,,,,0000*2B
$GNRMC,000000.000,A,,,,,,,000000,,*26
$GPGSA,A,1,,,,,,,,,,,,,,,*1E
$BDGSA,A,1,,,,,,,,,,,,,,,*0F
$GPGSV,1,1,04,01,00,000,40,11,00,000,35,17,00,000,45,19,00,000,40*75
$LOGTIM,0,0.000000,0.000000,0.000000,0.000000,0.000*0A
EndT:        0
---00000028--- Acq_st=3 2019-5-22 07:53:21 
[00]  G01  f 40   2536.7 2045996.8  1.0  1.0  5  0 287618199
[01]  G11  f 35   2213.2 2045997.1  1.0  1.0  5  0 287618197
[02]  G17  f 44  -1798.5 2046002.3  1.0  1.0  5  0 287618200
[03]  G19  f 39  -2575.5 2046003.4  1.0  1.0  5  0 287618197
[04]  G22  7 28   1282.8 2045998.2  0.5  1.0 10  0        10
$GNGGA,000000.000,,,,,0,00,,,M,,,,0000*2B
$GNRMC,000000.000,A,,,,,,,000000,,*26
$GPGSA,A,1,,,,,,,,,,,,,,,*1E
$BDGSA,A,1,,,,,,,,,,,,,,,*0F
$GPGSV,2,1,05,01,00,000,40,11,00,000,35,17,00,000,44,19,00,000,39*78
$GPGSV,2,2,05,22,00,000,28*46
$LOGTIM,0,0.000000,0.000000,0.000000,0.000000,0.000*0A
EndT:        0
---00000029--- Acq_st=3 2019-5-22 07:53:22 
[00]  G01  f 41   2532.9 2045996.7  1.0  1.0  5  0 287619199
[01]  G11  f 35   2209.4 2045997.1  1.0  1.0  5  0 287619197
[02]  G17  f 44  -1802.3 2046002.4  1.0  1.0  5  0 287619200
[03]  G19  f 39  -2579.4 2046003.3  1.0  1.0  5  0 287619197
[04]  G22  7 37   1279.8 2045998.3  1.0  1.0  5  0        18
$GNGGA,000000.000,,,,,0,00,,,M,,,,0000*2B
$GNRMC,000000.000,A,,,,,,,000000,,*26
$GPGSA,A,1,,,,,,,,,,,,,,,*1E
$BDGSA,A,1,,,,,,,,,,,,,,,*0F
$GPGSV,2,1,05,01,00,000,41,11,00,000,35,17,00,000,44,19,00,000,39*79
$GPGSV,2,2,05,22,00,000,37*48
$LOGTIM,0,0.000000,0.000000,0.000000,0.000000,0.000*0A
EndT:        1
---00000030--- Acq_st=3 2019-5-22 07:53:23 
[00]  G01  f 40   2533.4 2045996.7  1.0  1.0  5  0 287620199
[01]  G11  f 35   2211.1 2045997.0  1.0  0.9  5  0 287620197
[02]  G17  f 44  -1801.2 2046002.4  1.0  1.0  5  0 287620200
[03]  G19  f 39  -2578.5 2046003.4  1.0  1.0  5  0 287620197
[04]  G22  7 38   1281.5 2045998.3  1.0  1.0  5  0        18
$GNGGA,000000.000,,,,,0,00,,,M,,,,0000*2B
$GNRMC,000000.000,A,,,,,,,000000,,*26
$GPGSA,A,1,,,,,,,,,,,,,,,*1E
$BDGSA,A,1,,,,,,,,,,,,,,,*0F
$GPGSV,2,1,05,01,00,000,40,11,00,000,35,17,00,000,44,19,00,000,39*78
$GPGSV,2,2,05,22,00,000,38*47
$LOGTIM,0,0.000000,0.000000,0.000000,0.000000,0.000*0A
EndT:        0
---00000031--- Acq_st=3 2019-5-22 07:53:24 
[00]  G01  f 41   2535.4 2045996.7  1.0  1.0  5  0 287621199
[01]  G11  f 35   2212.8 2045997.2  1.0  0.9  5  0 287621197
[02]  G17  f 44  -1799.4 2046002.4  1.0  1.0  5  0 287621200
[03]  G19  f 39  -2576.0 2046003.4  1.0  1.0  5  0 287621197
[04]  G22  7 38   1283.2 2045998.3  1.0  1.0  5  0        18
$GNGGA,000000.000,,,,,0,00,,,M,,,,0000*2B
$GNRMC,000000.000,A,,,,,,,000000,,*26
$GPGSA,A,1,,,,,,,,,,,,,,,*1E
$BDGSA,A,1,,,,,,,,,,,,,,,*0F
$GPGSV,2,1,05,01,00,000,41,11,00,000,35,17,00,000,44,19,00,000,39*79
$GPGSV,2,2,05,22,00,000,38*47
$LOGTIM,0,0.000000,0.000000,0.000000,0.000000,0.000*0A
EndT:        0
---00000032--- Acq_st=3 2019-5-22 07:53:25 
[00]  G01  f 40   2535.5 2045996.7  1.0  1.0  5  0 287622199
[01]  G11  f 35   2213.0 2045997.1  1.0  1.0  5  0 287622197
[02]  G17  f 44  -1799.0 2046002.4  1.0  1.0  5  0 287622200
[03]  G19  f 39  -2576.2 2046003.3  1.0  1.0  5  0 287622197
[04]  G22  7 38   1284.2 2045998.3  1.0  1.0  5  0        18
$GNGGA,000000.000,,,,,0,00,,,M,,,,0000*2B
$GNRMC,000000.000,A,,,,,,,000000,,*26
$GPGSA,A,1,,,,,,,,,,,,,,,*1E
$BDGSA,A,1,,,,,,,,,,,,,,,*0F
$GPGSV,2,1,05,01,00,000,40,11,00,000,35,17,00,000,44,19,00,000,39*78
$GPGSV,2,2,05,22,00,000,38*47
$LOGTIM,0,0.000000,0.000000,0.000000,0.000000,0.000*0A
EndT:        0
---00000033--- Acq_st=3 2019-5-22 07:53:26 
[00]  G01  f 40   2537.2 2045996.7  1.0  1.0  5  0 287623199
[01]  G11  f 34   2214.6 2045997.2  1.0  1.0  5  0 287623197
[02]  G17  f 43  -1797.7 2046002.3  1.0  1.0  5  0 287623200
[03]  G19  f 38  -2575.3 2046003.4  1.0  1.0  5  0 287623197
[04]  G22  f 38   1286.1 2045998.3  1.0  1.0  5  0        18
$GNGGA,000000.000,,,,,0,00,,,M,,,,0000*2B
$GNRMC,000000.000,A,,,,,,,000000,,*26
$GPGSA,A,1,,,,,,,,,,,,,,,*1E
$BDGSA,A,1,,,,,,,,,,,,,,,*0F
$GPGSV,2,1,05,01,00,000,40,11,00,000,34,17,00,000,43,19,00,000,38*7F
$GPGSV,2,2,05,22,00,000,38*47
$LOGTIM,0,0.000000,0.000000,0.000000,0.000000,0.000*0A
EndT:        0
---00000034--- Acq_st=3 2019-5-22 07:53:27 
[00]  G01  f 41   2539.2 2045996.7  1.0  1.0  5  0 287624199
[01]  G11  f 34   2217.3 2045997.1  1.0  0.9  5  0 287624197
[02]  G17  f 43  -1795.7 2046002.3  1.0  1.0  5  0 287624200
[03]  G19  f 39  -2573.4 2046003.3  1.0  1.0  5  0 287624197
[04]  G22  f 37   1288.3 2045998.3  1.0  1.0  5  0 287624198
[05]  G28  1 20   -829.5 2046002.6 -0.0  0.0  1  0         0
$GNGGA,000000.000,,,,,0,00,,,M,,,,0000*2B
$GNRMC,000000.000,A,,,,,,,000000,,*26
$GPGSA,A,1,,,,,,,,,,,,,,,*1E
$BDGSA,A,1,,,,,,,,,,,,,,,*0F
$GPGSV,2,1,05,01,00,000,41,11,00,000,34,17,00,000,43,19,00,000,39*7F
$GPGSV,2,2,05,22,00,000,37*48
$LOGTIM,0,0.000000,0.000000,0.000000,0.000000,0.000*0A
EndT:        0
---00000035--- Acq_st=3 2019-5-22 07:53:28 
[00]  G01  f 40   2536.4 2045996.7  1.0  1.0  5  0 287625199
[01]  G11  f 34   2213.3 2045997.2  1.0  0.9  5  0 287625197
[02]  G17  f 44  -1798.8 2046002.3  1.0  1.0  5  0 287625200
[03]  G19  f 40  -2576.5 2046003.3  1.0  1.0  5  0 287625197
[04]  G22  f 38   1286.0 2045998.3  1.0  1.0  5  0 287625198
[05]  G28  7 26   -827.6 2046001.1  0.4  0.0 20  0         6
$GNGGA,000000.000,,,,,0,00,,,M,,,,0000*2B
$GNRMC,000000.000,A,,,,,,,000000,,*26
$GPGSA,A,1,,,,,,,,,,,,,,,*1E
$BDGSA,A,1,,,,,,,,,,,,,,,*0F
$GPGSV,2,1,06,01,00,000,40,11,00,000,34,17,00,000,44,19,00,000,40*74
$GPGSV,2,2,06,22,00,000,38,28,00,000,26*7A
$LOGTIM,0,0.000000,0.000000,0.000000,0.000000,0.000*0A
EndT:        0
---00000036--- Acq_st=3 2019-5-22 07:53:29 
[00]  G01  f 40   2535.7 2045996.7  1.0  1.0  5  0 287626199
[01]  G11  f 33   2211.6 2045997.2  1.0  0.9  5  0 287626197
[02]  G17  f 44  -1799.6 2046002.3  1.0  1.0  5  0 287626200
[03]  G19  f 40  -2577.3 2046003.4  1.0  1.0  5  0 287626197
[04]  G22  f 37   1285.7 2045998.3  1.0  1.0  5  0 287626198
[05]  G28  7 39   -828.5 2046001.0  1.0  1.0  5  0         5
$GNGGA,000000.000,,,,,0,00,,,M,,,,0000*2B
$GNRMC,000000.000,A,,,,,,,000000,,*26
$GPGSA,A,1,,,,,,,,,,,,,,,*1E
$BDGSA,A,1,,,,,,,,,,,,,,,*0F
$GPGSV,2,1,06,01,00,000,40,11,00,000,33,17,00,000,44,19,00,000,40*73
$GPGSV,2,2,06,22,00,000,37,28,00,000,39*7B
$LOGTIM,0,0.000000,0.000000,0.000000,0.000000,0.000*0A
EndT:        0
---00000037--- Acq_st=3 2019-5-22 07:53:30 
[00]  G01  f 40   2535.7 2045996.7  1.0  1.0  5  0 287627199
[01]  G11  f 33   2213.3 2045997.2  1.0  0.9  5  0 287627197
[02]  G17  f 45  -1799.3 2046002.3  1.0  1.0  5  0 287627200
[03]  G19  f 41  -2576.3 2046003.3  1.0  1.0  5  0 287627197
[04]  G22  f 37   1286.2 2045998.4  1.0  1.0  5  0 287627198
[05]  G28  7 38   -827.2 2046001.0  1.0  1.0  5  0         5
$GNGGA,000000.000,,,,,0,00,,,M,,,,0000*2B
$GNRMC,000000.000,A,,,,,,,000000,,*26
$GPGSA,A,1,,,,,,,,,,,,,,,*1E
$BDGSA,A,1,,,,,,,,,,,,,,,*0F
$GPGSV,2,1,06,01,00,000,40,11,00,000,33,17,00,000,45,19,00,000,41*73
$GPGSV,2,2,06,22,00,000,37,28,00,000,38*7A
$LOGTIM,0,0.000000,0.000000,0.000000,0.000000,0.000*0A
EndT:        0
---00000038--- Acq_st=3 2019-5-22 07:53:31 
[00]  G01  f 41   2539.0 2045996.7  1.0  1.0  5  0 287628199
[01]  G11  f 32   2216.3 2045997.2  0.9  0.9  5  0 287628197
[02]  G17  f 45  -1796.0 2046002.3  1.0  1.0  5  0 287628200
[03]  G19  f 42  -2573.1 2046003.3  1.0  0.9  5  0 287628197
[04]  G22  f 38   1290.3 2045998.3  1.0  1.0  5  0 287628198
[05]  G28  7 39   -822.9 2046001.0  1.0  0.9  5  0         5
$GNGGA,000000.000,,,,,0,00,,,M,,,,0000*2B
$GNRMC,000000.000,A,,,,,,,000000,,*26
$GPGSA,A,1,,,,,,,,,,,,,,,*1E
$BDGSA,A,1,,,,,,,,,,,,,,,*0F
$GPGSV,2,1,06,01,00,000,41,11,00,000,32,17,00,000,45,19,00,000,42*70
$GPGSV,2,2,06,22,00,000,38,28,00,000,39*74
$LOGTIM,0,0.000000,0.000000,0.000000,0.000000,0.000*0A
EndT:        0
---00000039--- Acq_st=3 2019-5-22 07:53:32 
[00]  G01  f 41   2545.3 2045996.7  1.0  1.0  5  0 287629199
[01]  G11  f 33   2223.3 2045997.0  0.9  0.9  5  0 287629197
[02]  G17  f 45  -1790.2 2046002.3  1.0  1.0  5  0 287629200
[03]  G19  f 41  -2567.4 2046003.3  1.0  1.0  5  0 287629197
[04]  G22  f 38   1296.5 2045998.4  1.0  1.0  5  0 287629198
[05]  G28  f 39   -817.3 2046001.1  1.0  1.0  5  0 287629205
$GNGGA,000000.000,,,,,0,00,,,M,,,,0000*2B
$GNRMC,000000.000,A,,,,,,,000000,,*26
$GPGSA,A,1,,,,,,,,,,,,,,,*1E
$BDGSA,A,1,,,,,,,,,,,,,,,*0F
$GPGSV,2,1,06,01,00,000,41,11,00,000,33,17,00,000,45,19,00,000,41*72
$GPGSV,2,2,06,22,00,000,38,28,00,000,39*74
$LOGTIM,0,0.000000,0.000000,0.000000,0.000000,0.000*0A
EndT:        0
---00000040--- Acq_st=3 2019-5-22 07:53:33 
[00]  G01  f 40   2547.6 2045996.7  1.0  1.0  5  0 287630199
[01]  G11  f 33   2225.5 2045997.1  1.0  0.8  5  0 287630197
[02]  G17  f 45  -1787.5 2046002.3  1.0  1.0  5  0 287630200
[03]  G19  f 42  -2565.1 2046003.3  1.0  1.0  5  0 287630197
[04]  G22  f 37   1299.6 2045998.3  1.0  0.9  5  0 287630198
[05]  G28  f 38   -814.3 2046001.1  1.0  1.0  5  0 287630205
$GNGGA,000000.000,,,,,0,00,,,M,,,,0000*2B
$GNRMC,000000.000,A,,,,,,,000000,,*26
$GPGSA,A,1,,,,,,,,,,,,,,,*1E
$BDGSA,A,1,,,,,,,,,,,,,,,*0F
$GPGSV,2,1,06,01,00,000,40,11,00,000,33,17,00,000,45,19,00,000,42*70
$GPGSV,2,2,06,22,00,000,37,28,00,000,38*7A
$LOGTIM,0,0.000000,0.000000,0.000000,0.000000,0.000*0A
EndT:        0
---00000041--- Acq_st=3 2019-5-22 07:53:34 
[00]  G01  f 41   2544.1 2045996.7  1.0  1.0  5  0 287631199
[01]  G11  f 33   2222.1 2045997.2  1.0  0.9  5  0 287631197
[02]  G17  f 45  -1791.2 2046002.3  1.0  1.0  5  0 287631200
[03]  G19  f 42  -2568.3 2046003.3  1.0  1.0  5  0 287631197
[04]  G22  f 37   1296.7 2045998.3  1.0  1.0  5  0 287631198
[05]  G28  f 38   -816.9 2046001.1  1.0  1.0  5  0 287631205
$GNGGA,000000.000,,,,,0,00,,,M,,,,0000*2B
$GNRMC,000000.000,A,,,,,,,000000,,*26
$GPGSA,A,1,,,,,,,,,,,,,,,*1E
$BDGSA,A,1,,,,,,,,,,,,,,,*0F
$GPGSV,2,1,06,01,00,000,41,11,00,000,33,17,00,000,45,19,00,000,42*71
$GPGSV,2,2,06,22,00,000,37,28,00,000,38*7A
$LOGTIM,0,0.000000,0.000000,0.000000,0.000000,0.000*0A
EndT:        0
---00000042--- Acq_st=3 2019-5-22 07:53:35 
[00]  G01  f 41   2542.1 2045996.7  1.0  1.0  5  0 287632199
[01]  G11  f 33   2219.9 2045997.1  1.0  1.0  5  0 287632197
[02]  G17  f 45  -1793.5 2046002.4  1.0  1.0  5  0 287632200
[03]  G19  f 42  -2570.8 2046003.3  1.0  1.0  5  0 287632197
[04]  G22  f 38   1295.3 2045998.3  1.0  1.0  5  0 287632198
[05]  G28  f 38   -819.4 2046001.1  1.0  1.0  5  0 287632205
$GNGGA,000000.000,,,,,0,00,,,M,,,,0000*2B
$GNRMC,000000.000,A,,,,,,,000000,,*26
$GPGSA,A,1,,,,,,,,,,,,,,,*1E
$BDGSA,A,1,,,,,,,,,,,,,,,*0F
$GPGSV,2,1,06,01,00,000,41,11,00,000,33,17,00,000,45,19,00,000,42*71
$GPGSV,2,2,06,22,00,000,38,28,00,000,38*75
$LOGTIM,0,0.000000,0.000000,0.000000,0.000000,0.000*0A
EndT:        0
---00000043--- Acq_st=3 2019-5-22 07:53:36 
[00]  G01  f 40   2542.0 2045996.7  1.0  1.0  5  0 287633199
[01]  G11  f 33   2219.6 2045997.0  1.0  0.9  5  0 287633197
[02]  G17  f 44  -1793.9 2046002.3  1.0  1.0  5  0 287633200
[03]  G19  f 42  -2571.2 2046003.3  1.0  1.0  5  0 287633197
[04]  G22  f 37   1295.3 2045998.4  1.0  1.0  5  0 287633198
[05]  G28  f 39   -818.4 2046001.1  1.0  1.0  5  0 287633205
$GNGGA,000000.000,,,,,0,00,,,M,,,,0000*2B
$GNRMC,000000.000,A,,,,,,,000000,,*26
$GPGSA,A,1,,,,,,,,,,,,,,,*1E
$BDGSA,A,1,,,,,,,,,,,,,,,*0F
$GPGSV,2,1,06,01,00,000,40,11,00,000,33,17,00,000,44,19,00,000,42*71
$GPGSV,2,2,06,22,00,000,37,28,00,000,39*7B
$LOGTIM,0,0.000000,0.000000,0.000000,0.000000,0.000*0A
EndT:        0
---00000044--- Acq_st=3 2019-5-22 07:53:37 
[00]  G01  f 41   2537.1 2045996.7  1.0  1.0  5  0 287634199
[01]  G11  f 32   2215.8 2045997.0  0.9  1.0  5  0 287634197
[02]  G17  f 45  -1798.3 2046002.3  1.0  1.0  5  0 287634200
[03]  G19  f 42  -2575.2 2046003.3  1.0  1.0  5  0 287634197
[04]  G22  f 37   1291.2 2045998.4  1.0  1.0  5  0 287634198
[05]  G28  f 38   -821.8 2046001.0  1.0  1.0  5  0 287634205
$GNGGA,000000.000,,,,,0,00,,,M,,,,0000*2B
$GNRMC,000000.000,A,,,,,,,000000,,*26
$GPGSA,A,1,,,,,,,,,,,,,,,*1E
$BDGSA,A,1,,,,,,,,,,,,,,,*0F
$GPGSV,2,1,06,01,00,000,41,11,00,000,32,17,00,000,45,19,00,000,42*70
$GPGSV,2,2,06,22,00,000,37,28,00,000,38*7A
$LOGTIM,0,0.000000,0.000000,0.000000,0.000000,0.000*0A
EndT:        0
---00000045--- Acq_st=3 2019-5-22 07:53:38 
[00]  G01  f 41   2535.7 2045996.7  1.0  1.0  5  0 287635199
[01]  G11  f 31   2212.8 2045997.1  0.9  0.9  5  0 287635197
[02]  G17  f 45  -1800.1 2046002.3  1.0  1.0  5  0 287635200
[03]  G19  f 42  -2577.1 2046003.4  1.0  1.0  5  0 287635197
[04]  G22  f 37   1290.0 2045998.3  1.0  0.9  5  0 287635198
[05]  G28  f 38   -824.1 2046001.1  1.0  1.0  5  0 287635205
$GNGGA,000000.000,,,,,0,00,,,M,,,,0000*2B
$GNRMC,000000.000,A,,,,,,,000000,,*26
$GPGSA,A,1,,,,,,,,,,,,,,,*1E
$BDGSA,A,1,,,,,,,,,,,,,,,*0F
$GPGSV,2,1,06,01,00,000,41,11,00,000,31,17,00,000,45,19,00,000,42*73
$GPGSV,2,2,06,22,00,000,37,28,00,000,38*7A
$LOGTIM,0,0.000000,0.000000,0.000000,0.000000,0.000*0A
EndT:        0
---00000046--- Acq_st=3 2019-5-22 07:53:39 
[00]  G01  f 40   2534.0 2045996.7  1.0  1.0  5  0 287636199
[01]  G11  f 33   2209.9 2045997.1  1.0  1.0  5  0 287636197
[02]  G17  f 45  -1801.6 2046002.3  1.0  1.0  5  0 287636200
[03]  G19  f 43  -2578.9 2046003.4  1.0  1.0  5  0 287636197
[04]  G22  f 38   1288.5 2045998.3  1.0  1.0  5  0 287636198
[05]  G28  f 38   -824.7 2046001.1  1.0  1.0  5  0 287636205
$GNGGA,000000.000,,,,,0,00,,,M,,,,0000*2B
$GNRMC,000000.000,A,,,,,,,000000,,*26
$GPGSA,A,1,,,,,,,,,,,,,,,*1E
$BDGSA,A,1,,,,,,,,,,,,,,,*0F
$GPGSV,2,1,06,01,00,000,40,11,00,000,33,17,00,000,45,19,00,000,43*71
$GPGSV,2,2,06,22,00,000,38,28,00,000,38*75
$LOGTIM,0,0.000000,0.000000,0.000000,0.000000,0.000*0A
EndT:        0
---00000047--- Acq_st=3 2019-5-22 07:53:40 
[00]  G01  f 40   2535.5 2045996.7  1.0  1.0  5  0 287637199
[01]  G11  f 32   2213.7 2045997.2  0.9  0.9  5  0 287637197
[02]  G17  f 45  -1800.3 2046002.3  1.0  1.0  5  0 287637200
[03]  G19  f 42  -2577.5 2046003.3  1.0  1.0  5  0 287637197
[04]  G22  f 38   1290.6 2045998.3  1.0  1.0  5  0 287637198
[05]  G28  f 38   -823.6 2046001.1  1.0  1.0  5  0 287637205
$GNGGA,000000.000,,,,,0,00,,,M,,,,0000*2B
$GNRMC,000000.000,A,,,,,,,000000,,*26
$GPGSA,A,1,,,,,,,,,,,,,,,*1E
$BDGSA,A,1,,,,,,,,,,,,,,,*0F
$GPGSV,2,1,06,01,00,000,40,11,00,000,32,17,00,000,45,19,00,000,42*71
$GPGSV,2,2,06,22,00,000,38,28,00,000,38*75
$LOGTIM,0,0.000000,0.000000,0.000000,0.000000,0.000*0A
EndT:        0
---00000048--- Acq_st=3 2019-5-22 07:53:41 
[00]  G01  f 41   2534.6 2045996.7  1.0  1.0  5  0 287638199
[01]  G11  f 32   2212.9 2045997.0  1.0  1.0  5  0 287638197
[02]  G17  f 44  -1801.5 2046002.3  1.0  1.0  5  0 287638200
[03]  G19  f 42  -2578.7 2046003.4  1.0  1.0  5  0 287638197
[04]  G22  f 38   1289.6 2045998.3  1.0  0.9  5  0 287638198
[05]  G28  f 38   -823.5 2046001.0  1.0  1.0  5  0 287638205
$GNGGA,000000.000,,,,,0,00,,,M,,,,0000*2B
$GNRMC,000000.000,A,,,,,,,000000,,*26
$GPGSA,A,1,,,,,,,,,,,,,,,*1E
$BDGSA,A,1,,,,,,,,,,,,,,,*0F
$GPGSV,2,1,06,01,00,000,41,11,00,000,32,17,00,000,44,19,00,000,42*71
$GPGSV,2,2,06,22,00,000,38,28,00,000,38*75
$LOGTIM,0,0.000000,0.000000,0.000000,0.000000,0.000*0A
EndT:        0
---00000049--- Acq_st=3 2019-5-22 07:53:42 
[00]  G01  f 41   2531.8 2045996.7  1.0  1.0  5  0 287639199
[01]  G11  f 32   2207.2 2045997.1  0.9  0.9  5  0 287639197
[02]  G17  f 44  -1804.5 2046002.4  1.0  1.0  5  0 287639200
[03]  G19  f 41  -2581.6 2046003.4  1.0  1.0  5  0 287639197
[04]  G22  f 39   1287.0 2045998.3  1.0  1.0  5  0 287639198
[05]  G28  f 38   -825.8 2046001.1  1.0  1.0  5  0 287639205
$GNGGA,000000.000,,,,,0,00,,,M,,,,0000*2B
$GNRMC,000000.000,A,,,,,,,000000,,*26
$GPGSA,A,1,,,,,,,,,,,,,,,*1E
$BDGSA,A,1,,,,,,,,,,,,,,,*0F
$GPGSV,2,1,06,01,00,000,41,11,00,000,32,17,00,000,44,19,00,000,41*72
$GPGSV,2,2,06,22,00,000,39,28,00,000,38*74
$LOGTIM,0,0.000000,0.000000,0.000000,0.000000,0.000*0A
EndT:        0
---00000050--- Acq_st=3 2019-5-22 07:53:43 
[00]  G01  f 41   2536.9 2045996.7  1.0  1.0  5  0 287640199
[01]  G11  f 34   2214.0 2045997.0  1.0  0.9  5  0 287640197
[02]  G17  f 44  -1798.7 2046002.4  1.0  1.0  5  0 287640200
[03]  G19  f 41  -2576.1 2046003.3  1.0  1.0  5  0 287640197
[04]  G22  f 38   1293.6 2045998.3  1.0  0.9  5  0 287640198
[05]  G28  f 38   -819.9 2046001.0  1.0  1.0  5  0 287640205
$GNGGA,000000.000,,,,,0,00,,,M,,,,0000*2B
$GNRMC,000000.000,A,,,,,,,000000,,*26
$GPGSA,A,1,,,,,,,,,,,,,,,*1E
$BDGSA,A,1,,,,,,,,,,,,,,,*0F
$GPGSV,2,1,06,01,00,000,41,11,00,000,34,17,00,000,44,19,00,000,41*74
$GPGSV,2,2,06,22,00,000,38,28,00,000,38*75
$LOGTIM,0,0.000000,0.000000,0.000000,0.000000,0.000*0A
EndT:        0
---00000051--- Acq_st=3 2019-5-22 07:53:44 
[00]  G01  f 42   2545.7 2045996.7  1.0  1.0  5  0 287641199
[01]  G11  f 34   2223.8 2045997.1  1.0  1.0  5  0 287641197
[02]  G17  f 44  -1790.4 2046002.3  1.0  1.0  5  0 287641200
[03]  G19  f 41  -2567.1 2046003.4  1.0  1.0  5  0 287641197
[04]  G22  f 39   1302.0 2045998.3  1.0  1.0  5  0 287641198
[05]  G28  f 38   -810.8 2046001.0  1.0  1.0  5  0 287641205
$GNGGA,000000.000,,,,,0,00,,,M,,,,0000*2B
$GNRMC,000000.000,A,,,,,,,000000,,*26
$GPGSA,A,1,,,,,,,,,,,,,,,*1E
$BDGSA,A,1,,,,,,,,,,,,,,,*0F
$GPGSV,2,1,06,01,00,000,42,11,00,000,34,17,00,000,44,19,00,000,41*77
$GPGSV,2,2,06,22,00,000,39,28,00,000,38*74
$LOGTIM,0,0.000000,0.000000,0.000000,0.000000,0.000*0A
EndT:        0
---00000052--- Acq_st=3 2019-5-22 07:53:45 
[00]  G01  f 42   2544.3 2045996.7  1.0  1.0  5  0 287642199
[01]  G11  f 34   2220.4 2045997.1  1.0  0.9  5  0 287642197
[02]  G17  f 43  -1792.4 2046002.3  1.0  1.0  5  0 287642200
[03]  G19  f 40  -2569.5 2046003.4  1.0  1.0  5  0 287642197
[04]  G22  f 38   1300.7 2045998.3  1.0  1.0  5  0 287642198
[05]  G28  f 38   -812.2 2046001.0  1.0  1.0  5  0 287642205
$GNGGA,000000.000,,,,,0,00,,,M,,,,0000*2B
$GNRMC,000000.000,A,,,,,,,000000,,*26
$GPGSA,A,1,,,,,,,,,,,,,,,*1E
$BDGSA,A,1,,,,,,,,,,,,,,,*0F
$GPGSV,2,1,06,01,00,000,42,11,00,000,34,17,00,000,43,19,00,000,40*71
$GPGSV,2,2,06,22,00,000,38,28,00,000,38*75
$LOGTIM,0,0.000000,0.000000,0.000000,0.000000,0.000*0A
EndT:        0
---00000053--- Acq_st=3 2019-5-22 07:53:46 
[00]  G01  f 41   2540.4 2045996.7  1.0  1.0  5  0 287643199
[01]  G11  f 34   2216.9 2045997.1  1.0  1.0  5  0 287643197
[02]  G17  f 43  -1795.6 2046002.3  1.0  1.0  5  0 287643200
[03]  G19  f 40  -2572.7 2046003.4  1.0  1.0  5  0 287643197
[04]  G22  f 39   1297.5 2045998.3  1.0  1.0  5  0 287643198
[05]  G28  f 39   -815.4 2046001.1  1.0  1.0  5  0 287643205
$GNGGA,000000.000,,,,,0,00,,,M,,,,0000*2B
$GNRMC,000000.000,A,,,,,,,000000,,*26
$GPGSA,A,1,,,,,,,,,,,,,,,*1E
$BDGSA,A,1,,,,,,,,,,,,,,,*0F
$GPGSV,2,1,06,01,00,000,41,11,00,000,34,17,00,000,43,19,00,000,40*72
$GPGSV,2,2,06,22,00,000,39,28,00,000,39*75
$LOGTIM,0,0.000000,0.000000,0.000000,0.000000,0.000*0A
EndT:        0
---00000054--- Acq_st=3 2019-5-22 07:53:47 
[00]  G01  f 42   2538.1 2045996.7  1.0  1.0  5  0 287644199
[01]  G11  f 34   2215.1 2045997.1  1.0  0.9  5  0 287644197
[02]  G17  f 43  -1798.8 2046002.4  1.0  1.0  5  0 287644200
[03]  G19  f 39  -2576.0 2046003.3  1.0  1.0  5  0 287644197
[04]  G22  f 40   1295.0 2045998.3  1.0  1.0  5  0 287644198
[05]  G28  f 38   -818.0 2046001.1  1.0  1.0  5  0 287644205
$GNGGA,000000.000,,,,,0,00,,,M,,,,0000*2B
$GNRMC,000000.000,A,,,,,,,000000,,*26
$GPGSA,A,1,,,,,,,,,,,,,,,*1E
$BDGSA,A,1,,,,,,,,,,,,,,,*0F
$GPGSV,2,1,06,01,00,000,42,11,00,000,34,17,00,000,43,19,00,000,39*7F
$GPGSV,2,2,06,22,00,000,40,28,00,000,38*7A
$LOGTIM,0,0.000000,0.000000,0.000000,0.000000,0.000*0A
EndT:        0
---00000055--- Acq_st=3 2019-5-22 07:53:48 
[00]  G01  f 41   2534.9 2045996.7  1.0  1.0  5  0 287645199
[01]  G11  f 33   2211.4 2045997.1  0.9  0.9  5  0 287645197
[02]  G17  f 44  -1801.7 2046002.3  1.0  1.0  5  0 287645200
[03]  G19  f 39  -2578.8 2046003.4  1.0  1.0  5  0 287645197
[04]  G22  f 39   1292.8 2045998.3  1.0  1.0  5  0 287645198
[05]  G28  f 39   -820.5 2046001.0  1.0  1.0  5  0 287645205
$GNGGA,000000.000,,,,,0,00,,,M,,,,0000*2B
$GNRMC,000000.000,A,,,,,,,000000,,*26
$GPGSA,A,1,,,,,,,,,,,,,,,*1E
$BDGSA,A,1,,,,,,,,,,,,,,,*0F
$GPGSV,2,1,06,01,00,000,41,11,00,000,33,17,00,000,44,19,00,000,39*7C
$GPGSV,2,2,06,22,00,000,39,28,00,000,39*75
$LOGTIM,0,0.000000,0.000000,0.000000,0.000000,0.000*0A
EndT:        0
---00000056--- Acq_st=3 2019-5-22 07:53:49 
[00]  G01  f 41   2542.9 2045996.7  1.0  1.0  5  0 287646199
[01]  G11  f 34   2219.0 2045997.1  1.0  0.9  5  0 287646197
[02]  G17  f 44  -1793.9 2046002.3  1.0  1.0  5  0 287646200
[03]  G19  f 39  -2571.1 2046003.4  1.0  1.0  5  0 287646197
[04]  G22  f 40   1300.9 2045998.3  1.0  1.0  5  0 287646198
[05]  G28  f 39   -812.9 2046001.1  1.0  1.0  5  0 287646205
$GNGGA,000000.000,,,,,0,00,,,M,,,,0000*2B
$GNRMC,000000.000,A,,,,,,,000000,,*26
$GPGSA,A,1,,,,,,,,,,,,,,,*1E
$BDGSA,A,1,,,,,,,,,,,,,,,*0F
$GPGSV,2,1,06,01,00,000,41,11,00,000,34,17,00,000,44,19,00,000,39*7B
$GPGSV,2,2,06,22,00,000,40,28,00,000,39*7B
$LOGTIM,0,0.000000,0.000000,0.000000,0.000000,0.000*0A
EndT:        0
---00000057--- Acq_st=3 2019-5-22 07:53:50 
[00]  G01  f 41   2545.5 2045996.7  1.0  1.0  5  0 287647199
[01]  G11  f 33   2221.0 2045997.1  1.0  0.9  5  0 287647197
[02]  G17  f 44  -1791.3 2046002.3  1.0  1.0  5  0 287647200
[03]  G19  f 39  -2568.4 2046003.3  1.0  1.0  5  0 287647197
[04]  G22  f 39   1304.2 2045998.3  1.0  1.0  5  0 287647198
[05]  G28  f 39   -809.4 2046001.0  1.0  1.0  5  0 287647205
$GNGGA,000000.000,,,,,0,00,,,M,,,,0000*2B
$GNRMC,000000.000,A,,,,,,,000000,,*26
$GPGSA,A,1,,,,,,,,,,,,,,,*1E
$BDGSA,A,1,,,,,,,,,,,,,,,*0F
$GPGSV,2,1,06,01,00,000,41,11,00,000,33,17,00,000,44,19,00,000,39*7C
$GPGSV,2,2,06,22,00,000,39,28,00,000,39*75
$LOGTIM,0,0.000000,0.000000,0.000000,0.000000,0.000*0A
EndT:        0
---00000058--- Acq_st=3 2019-5-22 07:53:51 
[00]  G01  f 41   2542.7 2045996.7  1.0  1.0  5  0 287648199
[01]  G11  f 32   2220.3 2045997.3  0.9  1.0  5  0 287648197
[02]  G17  f 44  -1794.3 2046002.3  1.0  1.0  5  0 287648200
[03]  G19  f 39  -2571.4 2046003.3  1.0  1.0  5  0 287648197
[04]  G22  f 39   1301.7 2045998.3  1.0  1.0  5  0 287648198
[05]  G28  f 39   -811.3 2046001.0  1.0  1.0  5  0 287648205
$GNGGA,000000.000,,,,,0,00,,,M,,,,0000*2B
$GNRMC,000000.000,A,,,,,,,000000,,*26
$GPGSA,A,1,,,,,,,,,,,,,,,*1E
$BDGSA,A,1,,,,,,,,,,,,,,,*0F
$GPGSV,2,1,06,01,00,000,41,11,00,000,32,17,00,000,44,19,00,000,39*7D
$GPGSV,2,2,06,22,00,000,39,28,00,000,39*75
$LOGTIM,0,0.000000,0.000000,0.000000,0.000000,0.000*0A
EndT:        0
---00000059--- Acq_st=3 2019-5-22 07:53:52 
[00]  G01  f 41   2537.8 2045996.7  1.0  1.0  5  0 287649199
[01]  G11  f 33   2214.8 2045997.3  0.9  0.9  5  0 287649197
[02]  G17  f 44  -1799.0 2046002.4  1.0  1.0  5  0 287649200
[03]  G19  f 39  -2576.1 2046003.3  1.0  1.0  5  0 287649197
[04]  G22  f 39   1297.1 2045998.3  1.0  1.0  5  0 287649198
[05]  G28  f 38   -816.4 2046001.0  1.0  1.0  5  0 287649205
$GNGGA,000000.000,,,,,0,00,,,M,,,,0000*2B
$GNRMC,000000.000,A,,,,,,,000000,,*26
$GPGSA,A,1,,,,,,,,,,,,,,,*1E
$BDGSA,A,1,,,,,,,,,,,,,,,*0F
$GPGSV,2,1,06,01,00,000,41,11,00,000,33,17,00,000,44,19,00,000,39*7C
$GPGSV,2,2,06,22,00,000,39,28,00,000,38*74
$LOGTIM,0,0.000000,0.000000,0.000000,0.000000,0.000*0A
EndT:        0
---00000060--- Acq_st=3 2019-5-22 07:53:53 
[00]  G01  f 41   2539.5 2045996.7  1.0  1.0  5  0 287650199
[01]  G11  f 32   2215.1 2045997.3  1.0  0.9  5  0 287650197
[02]  G17  f 44  -1797.2 2046002.4  1.0  1.0  5  0 287650200
[03]  G19  f 38  -2574.2 2046003.4  1.0  1.0  5  0 287650197
[04]  G22  f 40   1299.1 2045998.3  1.0  1.0  5  0 287650198
[05]  G28  f 38   -813.0 2046001.1  1.0  1.0  5  0 287650205
[16]  B10  1  7    727.1 4091999.5 -0.0  0.0  1  0         0
$GNGGA,000000.000,,,,,0,00,,,M,,,,0000*2B
$GNRMC,000000.000,A,,,,,,,000000,,*26
$GPGSA,A,1,,,,,,,,,,,,,,,*1E
$BDGSA,A,1,,,,,,,,,,,,,,,*0F
$GPGSV,2,1,06,01,00,000,41,11,00,000,32,17,00,000,44,19,00,000,38*7C
$GPGSV,2,2,06,22,00,000,40,28,00,000,38*7A
$LOGTIM,0,0.000000,0.000000,0.000000,0.000000,0.000*0A
EndT:        0
---00000061--- Acq_st=3 2019-5-22 07:53:54 
[00]  G01  f 41   2542.6 2045996.7  1.0  1.0  5  0 287651199
[01]  G11  f 32   2218.9 2045997.1  0.9  1.0  5  0 287651197
[02]  G17  f 44  -1794.3 2046002.3  1.0  1.0  5  0 287651200
[03]  G19  f 38  -2571.8 2046003.3  1.0  1.0  5  0 287651197
[04]  G22  f 39   1303.0 2045998.3  1.0  1.0  5  0 287651198
[05]  G28  f 38   -810.8 2046001.1  1.0  1.0  5  0 287651205
[16]  B10  1  8    626.6 4091999.4 -0.1  0.0  1  0       358
$GNGGA,000000.000,,,,,0,00,,,M,,,,0000*2B
$GNRMC,000000.000,A,,,,,,,000000,,*26
$GPGSA,A,1,,,,,,,,,,,,,,,*1E
$BDGSA,A,1,,,,,,,,,,,,,,,*0F
$GPGSV,2,1,06,01,00,000,41,11,00,000,32,17,00,000,44,19,00,000,38*7C
$GPGSV,2,2,06,22,00,000,39,28,00,000,38*74
$LOGTIM,0,0.000000,0.000000,0.000000,0.000000,0.000*0A
EndT:        0
---00000062--- Acq_st=3 2019-5-22 07:53:55 
[00]  G01  f 41   2539.8 2045996.7  1.0  1.0  5  0 287652199
[01]  G11  f 33   2215.7 2045997.2  0.9  0.8  5  0 287652197
[02]  G17  f 44  -1797.6 2046002.3  1.0  1.0  5  0 287652200
[03]  G19  f 37  -2574.5 2046003.3  1.0  1.0  5  0 287652197
[04]  G22  f 40   1300.0 2045998.3  1.0  1.0  5  0 287652198
[05]  G28  f 38   -813.4 2046001.0  1.0  1.0  5  0 287652205
[16]  B10  1  7    562.6 4091999.5 -0.0  0.0  1  0      1358
$GNGGA,000000.000,,,,,0,00,,,M,,,,0000*2B
$GNRMC,000000.000,A,,,,,,,000000,,*26
$GPGSA,A,1,,,,,,,,,,,,,,,*1E
$BDGSA,A,1,,,,,,,,,,,,,,,*0F
$GPGSV,2,1,06,01,00,000,41,11,00,000,33,17,00,000,44,19,00,000,37*72
$GPGSV,2,2,06,22,00,000,40,28,00,000,38*7A
$LOGTIM,0,0.000000,0.000000,0.000000,0.000000,0.000*0A
EndT:        0
---00000063--- Acq_st=3 2019-5-22 07:53:56 
[00]  G01  f 41   2538.5 2045996.7  1.0  1.0  5  0 287653199
[01]  G11  f 32   2215.1 2045997.1  0.9  0.9  5  0 287653197
[02]  G17  f 44  -1798.4 2046002.3  1.0  1.0  5  0 287653200
[03]  G19  f 36  -2575.2 2046003.3  1.0  1.0  5  0 287653197
[04]  G22  f 39   1299.7 2045998.3  1.0  1.0  5  0 287653198
[05]  G28  f 39   -812.8 2046001.1  1.0  1.0  5  0 287653205
[16]  B10  1  7    581.4 4091999.1 -0.0  0.0  1  0      2358
$GNGGA,000000.000,,,,,0,00,,,M,,,,0000*2B
$GNRMC,000000.000,A,,,,,,,000000,,*26
$GPGSA,A,1,,,,,,,,,,,,,,,*1E
$BDGSA,A,1,,,,,,,,,,,,,,,*0F
$GPGSV,2,1,06,01,00,000,41,11,00,000,32,17,00,000,44,19,00,000,36*72
$GPGSV,2,2,06,22,00,000,39,28,00,000,39*75
$LOGTIM,0,0.000000,0.000000,0.000000,0.000000,0.000*0A
EndT:        0
---00000064--- Acq_st=3 2019-5-22 07:53:57 
[00]  G01  f 41   2540.1 2045996.7  1.0  1.0  5  0 287654199
[01]  G11  f 31   2217.0 2045997.1  0.9  0.9  5  0 287654197
[02]  G17  f 44  -1796.8 2046002.3  1.0  1.0  5  0 287654200
[03]  G19  f 36  -2573.6 2046003.4  1.0  1.0  5  0 287654197
[04]  G22  f 39   1302.3 2045998.3  1.0  1.0  5  0 287654198
[05]  G28  f 38   -811.2 2046001.0  1.0  1.0  5  0 287654205
$GNGGA,000000.000,,,,,0,00,,,M,,,,0000*2B
$GNRMC,000000.000,A,,,,,,,000000,,*26
$GPGSA,A,1,,,,,,,,,,,,,,,*1E
$BDGSA,A,1,,,,,,,,,,,,,,,*0F
$GPGSV,2,1,06,01,00,000,41,11,00,000,31,17,00,000,44,19,00,000,36*71
$GPGSV,2,2,06,22,00,000,39,28,00,000,38*74
$LOGTIM,0,0.000000,0.000000,0.000000,0.000000,0.000*0A
EndT:        0
---00000065--- Acq_st=3 2019-5-22 07:53:58 
[00]  G01  f 41   2539.2 2045996.7  1.0  1.0  5  0 287655199
[01]  G11  f 32   2215.6 2045997.2  0.9  0.9  5  0 287655197
[02]  G17  f 44  -1797.7 2046002.3  1.0  1.0  5  0 287655200
[03]  G19  f 37  -2575.2 2046003.3  1.0  1.0  5  0 287655197
[04]  G22  f 39   1301.4 2045998.3  1.0  1.0  5  0 287655198
[05]  G28  f 39   -810.4 2046001.0  1.0  1.0  5  0 287655205
$GNGGA,000000.000,,,,,0,00,,,M,,,,0000*2B
$GNRMC,000000.000,A,,,,,,,000000,,*26
$GPGSA,A,1,,,,,,,,,,,,,,,*1E
$BDGSA,A,1,,,,,,,,,,,,,,,*0F
$GPGSV,2,1,06,01,00,000,41,11,00,000,32,17,00,000,44,19,00,000,37*73
$GPGSV,2,2,06,22,00,000,39,28,00,000,39*75
$LOGTIM,0,0.000000,0.000000,0.000000,0.000000,0.000*0A
EndT:        0
---00000066--- Acq_st=3 2019-5-22 07:53:59 
[00]  G01  f 41   2538.5 2045996.7  1.0  1.0  5  0 287656199
[01]  G11  f 31   2215.1 2045997.1  0.9  0.9  5  0 287656197
[02]  G17  f 44  -1798.8 2046002.3  1.0  1.0  5  0 287656200
[03]  G19  f 38  -2575.6 2046003.3  1.0  1.0  5  0 287656197
[04]  G22  f 39   1300.8 2045998.3  1.0  1.0  5  0 287656198
[05]  G28  f 38   -812.8 2046001.0  1.0  1.0  5  0 287656205
$GNGGA,000000.000,,,,,0,00,,,M,,,,0000*2B
$GNRMC,000000.000,A,,,,,,,000000,,*26
$GPGSA,A,1,,,,,,,,,,,,,,,*1E
$BDGSA,A,1,,,,,,,,,,,,,,,*0F
$GPGSV,2,1,06,01,00,000,41,11,00,000,31,17,00,000,44,19,00,000,38*7F
$GPGSV,2,2,06,22,00,000,38,28,00,000,38*75
$LOGTIM,0,0.000000,0.000000,0.000000,0.000000,0.000*0A
EndT:        0
---00000067--- Acq_st=3 2019-5-22 07:54:0 
[00]  G01  f 41   2536.7 2045996.7  1.0  1.0  5  0 287657199
[01]  G11  f 32   2213.9 2045997.1  0.9  0.9  5  0 287657197
[02]  G17  f 44  -1800.3 2046002.3  1.0  1.0  5  0 287657200
[03]  G19  f 39  -2577.4 2046003.3  1.0  1.0  5  0 287657197
[04]  G22  f 39   1300.0 2045998.4  1.0  1.0  5  0 287657198
[05]  G28  f 38   -813.1 2046001.1  1.0  0.9  5  0 287657205
$GNGGA,000000.000,,,,,0,00,,,M,,,,0000*2B
$GNRMC,000000.000,A,,,,,,,000000,,*26
$GPGSA,A,1,,,,,,,,,,,,,,,*1E
$BDGSA,A,1,,,,,,,,,,,,,,,*0F
$GPGSV,2,1,06,01,00,000,41,11,00,000,32,17,00,000,44,19,00,000,39*7D
$GPGSV,2,2,06,22,00,000,39,28,00,000,38*74
$LOGTIM,0,0.000000,0.000000,0.000000,0.000000,0.000*0A
EndT:        0
---00000068--- Acq_st=3 2019-5-22 07:54:1 
[00]  G01  f 41   2535.8 2045996.7  1.0  1.0  5  0 287658199
[01]  G11  f 33   2211.9 2045997.1  1.0  0.9  5  0 287658197
[02]  G17  f 43  -1801.8 2046002.3  1.0  1.0  5  0 287658200
[03]  G19  f 39  -2578.5 2046003.4  1.0  1.0  5  0 287658197
[04]  G22  f 38   1299.2 2045998.4  1.0  1.0  5  0 287658198
[05]  G28  f 38   -814.0 2046001.0  1.0  1.0  5  0 287658205
$GNGGA,000000.000,,,,,0,00,,,M,,,,0000*2B
$GNRMC,000000.000,A,,,,,,,000000,,*26
$GPGSA,A,1,,,,,,,,,,,,,,,*1E
$BDGSA,A,1,,,,,,,,,,,,,,,*0F
$GPGSV,2,1,06,01,00,000,41,11,00,000,33,17,00,000,43,19,00,000,39*7B
$GPGSV,2,2,06,22,00,000,38,28,00,000,38*75
$LOGTIM,0,0.000000,0.000000,0.000000,0.000000,0.000*0A
EndT:        0
---00000069--- Acq_st=3 2019-5-22 07:54:2 
[00]  G01  f 41   2536.8 2045996.7  1.0  1.0  5  0 287659199
[01]  G11  f 32   2213.5 2045997.2  0.9  0.9  5  0 287659197
[02]  G17  f 44  -1801.1 2046002.3  1.0  1.0  5  0 287659200
[03]  G19  f 39  -2577.7 2046003.3  1.0  1.0  5  0 287659197
[04]  G22  f 38   1299.8 2045998.3  1.0  1.0  5  0 287659198
[05]  G28  f 38   -812.7 2046001.1  1.0  1.0  5  0 287659205
$GNGGA,000000.000,,,,,0,00,,,M,,,,0000*2B
$GNRMC,000000.000,A,,,,,,,000000,,*26
$GPGSA,A,1,,,,,,,,,,,,,,,*1E
$BDGSA,A,1,,,,,,,,,,,,,,,*0F
$GPGSV,2,1,06,01,00,000,41,11,00,000,32,17,00,000,44,19,00,000,39*7D
$GPGSV,2,2,06,22,00,000,38,28,00,000,38*75
$LOGTIM,0,0.000000,0.000000,0.000000,0.000000,0.000*0A
EndT:        0
---00000070--- Acq_st=3 2019-5-22 07:54:3 
[00]  G01  f 41   2542.1 2045996.7  1.0  1.0  5  0 287660199
[01]  G11  f 32   2217.6 2045997.1  0.9  0.9  5  0 287660197
[02]  G17  f 45  -1795.3 2046002.3  1.0  1.0  5  0 287660200
[03]  G19  f 39  -2572.0 2046003.3  1.0  1.0  5  0 287660197
[04]  G22  f 37   1306.6 2045998.3  1.0  1.0  5  0 287660198
[05]  G28  f 38   -806.4 2046001.1  1.0  1.0  5  0 287660205
$GNGGA,000000.000,,,,,0,00,,,M,,,,0000*2B
$GNRMC,000000.000,A,,,,,,,000000,,*26
$GPGSA,A,1,,,,,,,,,,,,,,,*1E
$BDGSA,A,1,,,,,,,,,,,,,,,*0F
$GPGSV,2,1,06,01,00,000,41,11,00,000,32,17,00,000,45,19,00,000,39*7C
$GPGSV,2,2,06,22,00,000,37,28,00,000,38*7A
$LOGTIM,0,0.000000,0.000000,0.000000,0.000000,0.000*0A
EndT:        0
---00000071--- Acq_st=3 2019-5-22 07:54:4 
[00]  G01  f 41   2547.8 2045996.7  1.0  1.0  5  0 287661199
[01]  G11  f 33   2223.8 2045997.1  0.9  1.0  5  0 287661197
[02]  G17  f 44  -1789.9 2046002.3  1.0  1.0  5  0 287661200
[03]  G19  f 39  -2567.0 2046003.3  1.0  1.0  5  0 287661197
[04]  G22  f 38   1312.4 2045998.3  1.0  1.0  5  0 287661198
[05]  G28  f 39   -801.3 2046001.1  1.0  1.0  5  0 287661205
$GNGGA,000000.000,,,,,0,00,,,M,,,,0000*2B
$GNRMC,000000.000,A,,,,,,,000000,,*26
$GPGSA,A,1,,,,,,,,,,,,,,,*1E
$BDGSA,A,1,,,,,,,,,,,,,,,*0F
$GPGSV,2,1,06,01,00,000,41,11,00,000,33,17,00,000,44,19,00,000,39*7C
$GPGSV,2,2,06,22,00,000,38,28,00,000,39*74
$LOGTIM,0,0.000000,0.000000,0.000000,0.000000,0.000*0A
EndT:        0
---00000072--- Acq_st=3 2019-5-22 07:54:5 
[00]  G01  f 41   2550.8 2045996.7  1.0  1.0  5  0 287662199
[01]  G11  f 34   2227.4 2045997.1  0.9  1.0  5  0 287662197
[02]  G17  f 45  -1786.8 2046002.3  1.0  1.0  5  0 287662200
[03]  G19  f 40  -2563.8 2046003.3  1.0  1.0  5  0 287662197
[04]  G22  f 39   1315.9 2045998.3  1.0  1.0  5  0 287662198
[05]  G28  f 38   -797.6 2046001.0  1.0  1.0  5  0 287662205
$GNGGA,000000.000,,,,,0,00,,,M,,,,0000*2B
$GNRMC,000000.000,A,,,,,,,000000,,*26
$GPGSA,A,1,,,,,,,,,,,,,,,*1E
$BDGSA,A,1,,,,,,,,,,,,,,,*0F
$GPGSV,2,1,06,01,00,000,41,11,00,000,34,17,00,000,45,19,00,000,40*74
$GPGSV,2,2,06,22,00,000,39,28,00,000,38*74
$LOGTIM,0,0.000000,0.000000,0.000000,0.000000,0.000*0A
EndT:        0
---00000073--- Acq_st=3 2019-5-22 07:54:6 
[00]  G01  f 41   2555.2 2045996.6  1.0  1.0  5  0 287663199
[01]  G11  f 33   2231.6 2045997.1  1.0  1.0  5  0 287663197
[02]  G17  f 45  -1782.4 2046002.3  1.0  1.0  5  0 287663200
[03]  G19  f 39  -2559.5 2046003.3  1.0  1.0  5  0 287663197
[04]  G22  f 38   1320.1 2045998.2  1.0  1.0  5  0 287663198
[05]  G28  f 39   -792.6 2046001.1  1.0  1.0  5  0 287663205
$GNGGA,000000.000,,,,,0,00,,,M,,,,0000*2B
$GNRMC,000000.000,A,,,,,,,000000,,*26
$GPGSA,A,1,,,,,,,,,,,,,,,*1E
$BDGSA,A,1,,,,,,,,,,,,,,,*0F
$GPGSV,2,1,06,01,00,000,41,11,00,000,33,17,00,000,45,19,00,000,39*7D
$GPGSV,2,2,06,22,00,000,38,28,00,000,39*74
$LOGTIM,0,0.000000,0.000000,0.000000,0.000000,0.000*0A
EndT:        0
---00000074--- Acq_st=3 2019-5-22 07:54:7 
[00]  G01  f 41   2553.8 2045996.7  1.0  1.0  5  0 287664199
[01]  G11  f 33   2229.4 2045997.1  0.9  1.0  5  0 287664197
[02]  G17  f 45  -1784.2 2046002.3  1.0  1.0  5  0 287664200
[03]  G19  f 40  -2560.8 2046003.3  1.0  1.0  5  0 287664197
[04]  G22  f 38   1319.4 2045998.3  1.0  1.0  5  0 287664198
[05]  G28  f 39   -793.9 2046001.0  1.0  1.0  5  0 287664205
$GNGGA,000000.000,,,,,0,00,,,M,,,,0000*2B
$GNRMC,000000.000,A,,,,,,,000000,,*26
$GPGSA,A,1,,,,,,,,,,,,,,,*1E
$BDGSA,A,1,,,,,,,,,,,,,,,*0F
$GPGSV,2,1,06,01,00,000,41,11,00,000,33,17,00,000,45,19,00,000,40*73
$GPGSV,2,2,06,22,00,000,38,28,00,000,39*74
$LOGTIM,0,0.000000,0.000000,0.000000,0.000000,0.000*0A
EndT:        0
---00000075--- Acq_st=3 2019-5-22 07:54:8 
[00]  G01  f 41   2547.4 2045996.7  1.0  1.0  5  0 287665199
[01]  G11  f 33   2223.2 2045997.0  0.9  0.9  5  0 287665197
[02]  G17  f 45  -1790.5 2046002.3  1.0  1.0  5  0 287665200
[03]  G19  f 41  -2567.4 2046003.3  1.0  1.0  5  0 287665197
[04]  G22  f 37   1313.4 2045998.3  1.0  1.0  5  0 287665198
[05]  G28  f 39   -799.5 2046001.0  1.0  1.0  5  0 287665205
$GNGGA,000000.000,,,,,0,00,,,M,,,,0000*2B
$GNRMC,000000.000,A,,,,,,,000000,,*26
$GPGSA,A,1,,,,,,,,,,,,,,,*1E
$BDGSA,A,1,,,,,,,,,,,,,,,*0F
$GPGSV,2,1,06,01,00,000,41,11,00,000,33,17,00,000,45,19,00,000,41*72
$GPGSV,2,2,06,22,00,000,37,28,00,000,39*7B
$LOGTIM,0,0.000000,0.000000,0.000000,0.000000,0.000*0A
EndT:        0
---00000076--- Acq_st=3 2019-5-22 07:54:9 
[00]  G01  f 41   2546.0 2045996.6  1.0  1.0  5  0 287666199
[01]  G11  f 33   2223.1 2045997.1  0.9  1.0  5  0 287666197
[02]  G17  f 45  -1792.2 2046002.3  1.0  1.0  5  0 287666200
[03]  G19  f 41  -2568.5 2046003.3  1.0  1.0  5  0 287666197
[04]  G22  f 37   1311.8 2045998.3  1.0  1.0  5  0 287666198
[05]  G28  f 39   -800.9 2046001.1  1.0  1.0  5  0 287666205
$GNGGA,000000.000,,,,,0,00,,,M,,,,0000*2B
$GNRMC,000000.000,A,,,,,,,000000,,*26
$GPGSA,A,1,,,,,,,,,,,,,,,*1E
$BDGSA,A,1,,,,,,,,,,,,,,,*0F
$GPGSV,2,1,06,01,00,000,41,11,00,000,33,17,00,000,45,19,00,000,41*72
$GPGSV,2,2,06,22,00,000,37,28,00,000,39*7B
$LOGTIM,0,0.000000,0.000000,0.000000,0.000000,0.000*0A
EndT:        0
---00000077--- Acq_st=3 2019-5-22 07:54:10 
[00]  G01  f 41   2547.6 2045996.7  1.0  1.0  5  0 287667199
[01]  G11  f 34   2223.9 2045997.1  1.0  0.9  5  0 287667197
[02]  G17  f 45  -1790.6 2046002.3  1.0  1.0  5  0 287667200
[03]  G19  f 41  -2567.3 2046003.3  1.0  1.0  5  0 287667197
[04]  G22  f 38   1314.9 2045998.3  1.0  1.0  5  0 287667198
[05]  G28  f 38   -798.7 2046001.1  1.0  1.0  5  0 287667205
$GNGGA,000000.000,,,,,0,00,,,M,,,,0000*2B
$GNRMC,000000.000,A,,,,,,,000000,,*26
$GPGSA,A,1,,,,,,,,,,,,,,,*1E
$BDGSA,A,1,,,,,,,,,,,,,,,*0F
$GPGSV,2,1,06,01,00,000,41,11,00,000,34,17,00,000,45,19,00,000,41*75
$GPGSV,2,2,06,22,00,000,38,28,00,000,38*75
$LOGTIM,0,0.000000,0.000000,0.000000,0.000000,0.000*0A
EndT:        0
---00000078--- Acq_st=3 2019-5-22 07:54:11 
[00]  G01  f 41   2541.8 2045996.7  1.0  1.0  5  0 287668199
[01]  G11  f 35   2216.7 2045997.2  1.0  1.0  5  0 287668197
[02]  G17  f 44  -1796.3 2046002.3  1.0  1.0  5  0 287668200
[03]  G19  f 41  -2573.0 2046003.3  1.0  1.0  5  0 287668197
[04]  G22  f 38   1309.2 2045998.3  1.0  1.0  5  0 287668198
[05]  G28  f 38   -804.0 2046001.1  1.0  0.9  5  0 287668205
$GNGGA,000000.000,,,,,0,00,,,M,,,,0000*2B
$GNRMC,000000.000,A,,,,,,,000000,,*26
$GPGSA,A,1,,,,,,,,,,,,,,,*1E
$BDGSA,A,1,,,,,,,,,,,,,,,*0F
$GPGSV,2,1,06,01,00,000,41,11,00,000,35,17,00,000,44,19,00,000,41*75
$GPGSV,2,2,06,22,00,000,38,28,00,000,38*75
$LOGTIM,0,0.000000,0.000000,0.000000,0.000000,0.000*0A
EndT:        0
---00000079--- Acq_st=3 2019-5-22 07:54:12 
[00]  G01  f 41   2540.7 2045996.7  1.0  1.0  5  0 287669199
[01]  G11  f 35   2216.8 2045997.2  1.0  1.0  5  0 287669197
[02]  G17  f 45  -1797.4 2046002.3  1.0  1.0  5  0 287669200
[03]  G19  f 41  -2574.2 2046003.4  1.0  1.0  5  0 287669197
[04]  G22  f 38   1308.9 2045998.3  1.0  1.0  5  0 287669198
[05]  G28  f 38   -804.2 2046001.0  1.0  1.0  5  0 287669205
$GNGGA,000000.000,,,,,0,00,,,M,,,,0000*2B
$GNRMC,000000.000,A,,,,,,,000000,,*26
$GPGSA,A,1,,,,,,,,,,,,,,,*1E
$BDGSA,A,1,,,,,,,,,,,,,,,*0F
$GPGSV,2,1,06,01,00,000,41,11,00,000,35,17,00,000,45,19,00,000,41*74
$GPGSV,2,2,06,22,00,000,38,28,00,000,38*75
$LOGTIM,0,0.000000,0.000000,0.000000,0.000000,0.000*0A
EndT:        0
---00000080--- Acq_st=3 2019-5-22 07:54:13 
[00]  G01  f 42   2536.9 2045996.7  1.0  1.0  5  0 287670199
[01]  G11  f 35   2212.3 2045997.1  0.9  0.9  5  0 287670197
[02]  G17  f 44  -1801.5 2046002.4  1.0  1.0  5  0 287670200
[03]  G19  f 41  -2578.0 2046003.4  1.0  1.0  5  0 287670197
[04]  G22  f 38   1304.9 2045998.3  1.0  0.9  5  0 287670198
[05]  G28  f 39   -808.0 2046001.0  1.0  1.0  5  0 287670205
$GNGGA,000000.000,,,,,0,00,,,M,,,,0000*2B
$GNRMC,000000.000,A,,,,,,,000000,,*26
$GPGSA,A,1,,,,,,,,,,,,,,,*1E
$BDGSA,A,1,,,,,,,,,,,,,,,*0F
$GPGSV,2,1,06,01,00,000,42,11,00,000,35,17,00,000,44,19,00,000,41*76
$GPGSV,2,2,06,22,00,000,38,28,00,000,39*74
$LOGTIM,0,0.000000,0.000000,0.000000,0.000000,0.000*0A
EndT:        0
---00000081--- Acq_st=3 2019-5-22 07:54:14 
[00]  G01  f 42   2532.4 2045996.7  1.0  1.0  5  0 287671199
[01]  G11  f 34   2207.1 2045997.2  1.0  1.0  5  0 287671197
[02]  G17  f 44  -1806.0 2046002.4  1.0  1.0  5  0 287671200
[03]  G19  f 41  -2582.7 2046003.4  1.0  1.0  5  0 287671197
[04]  G22  f 38   1301.4 2045998.3  1.0  1.0  5  0 287671198
[05]  G28  f 39   -812.2 2046001.1  1.0  1.0  5  0 287671205
$GNGGA,000000.000,,,,,0,00,,,M,,,,0000*2B
$GNRMC,000000.000,A,,,,,,,000000,,*26
$GPGSA,A,1,,,,,,,,,,,,,,,*1E
$BDGSA,A,1,,,,,,,,,,,,,,,*0F
$GPGSV,2,1,06,01,00,000,42,11,00,000,34,17,00,000,44,19,00,000,41*77
$GPGSV,2,2,06,22,00,000,38,28,00,000,39*74
$LOGTIM,0,0.000000,0.000000,0.000000,0.000000,0.000*0A
EndT:        0
---00000082--- Acq_st=3 2019-5-22 07:54:15 
[00]  G01  f 42   2531.6 2045996.7  1.0  1.0  5  0 287672199
[01]  G11  f 35   2208.6 2045997.1  1.0  0.9  5  0 287672197
[02]  G17  f 44  -1806.6 2046002.4  1.0  1.0  5  0 287672200
[03]  G19  f 40  -2583.7 2046003.4  1.0  1.0  5  0 287672197
[04]  G22  f 38   1300.5 2045998.3  1.0  1.0  5  0 287672198
[05]  G28  f 38   -811.9 2046001.0  1.0  1.0  5  0 287672205
$GNGGA,000000.000,,,,,0,00,,,M,,,,0000*2B
$GNRMC,000000.000,A,,,,,,,000000,,*26
$GPGSA,A,1,,,,,,,,,,,,,,,*1E
$BDGSA,A,1,,,,,,,,,,,,,,,*0F
$GPGSV,2,1,06,01,00,000,42,11,00,000,35,17,00,000,44,19,00,000,40*77
$GPGSV,2,2,06,22,00,000,38,28,00,000,38*75
$LOGTIM,0,0.000000,0.000000,0.000000,0.000000,0.000*0A
EndT:        0
---00000083--- Acq_st=3 2019-5-22 07:54:16 
[00]  G01  f 42   2534.2 2045996.7  1.0  1.0  5  0 287673199
[01]  G11  f 35   2209.7 2045997.1  1.0  0.9  5  0 287673197
[02]  G17  f 44  -1803.9 2046002.4  1.0  1.0  5  0 287673200
[03]  G19  f 41  -2580.9 2046003.4  1.0  1.0  5  0 287673197
[04]  G22  f 38   1303.6 2045998.2  1.0  1.0  5  0 287673198
[05]  G28  f 39   -809.7 2046001.0  1.0  0.9  5  0 287673205
$GNGGA,000000.000,,,,,0,00,,,M,,,,0000*2B
$GNRMC,000000.000,A,,,,,,,000000,,*26
$GPGSA,A,1,,,,,,,,,,,,,,,*1E
$BDGSA,A,1,,,,,,,,,,,,,,,*0F
$GPGSV,2,1,06,01,00,000,42,11,00,000,35,17,00,000,44,19,00,000,41*76
$GPGSV,2,2,06,22,00,000,38,28,00,000,39*74
$LOGTIM,0,0.000000,0.000000,0.000000,0.000000,0.000*0A
EndT:        0
---00000084--- Acq_st=3 2019-5-22 07:54:17 
[00]  G01  f 42   2536.8 2045996.7  1.0  1.0  5  0 287674199
[01]  G11  f 34   2213.0 2045997.2  1.0  1.0  5  0 287674197
[02]  G17  f 44  -1802.1 2046002.3  1.0  1.0  5  0 287674200
[03]  G19  f 40  -2578.6 2046003.3  1.0  1.0  5  0 287674197
[04]  G22  f 39   1306.5 2045998.3  1.0  1.0  5  0 287674198
[05]  G28  f 38   -806.8 2046001.0  1.0  1.0  5  0 287674205
$GNGGA,000000.000,,,,,0,00,,,M,,,,0000*2B
$GNRMC,000000.000,A,,,,,,,000000,,*26
$GPGSA,A,1,,,,,,,,,,,,,,,*1E
$BDGSA,A,1,,,,,,,,,,,,,,,*0F
$GPGSV,2,1,06,01,00,000,42,11,00,000,34,17,00,000,44,19,00,000,40*76
$GPGSV,2,2,06,22,00,000,39,28,00,000,38*74
$LOGTIM,0,0.000000,0.000000,0.000000,0.000000,0.000*0A
EndT:        0
---00000085--- Acq_st=3 2019-5-22 07:54:18 
[00]  G01  f 42   2534.8 2045996.7  1.0  1.0  5  0 287675199
[01]  G11  f 33   2211.3 2045997.2  1.0  0.9  5  0 287675197
[02]  G17  f 45  -1803.7 2046002.3  1.0  1.0  5  0 287675200
[03]  G19  f 41  -2580.6 2046003.3  1.0  1.0  5  0 287675197
[04]  G22  f 38   1304.7 2045998.3  1.0  1.0  5  0 287675198
[05]  G28  f 39   -807.6 2046001.1  1.0  1.0  5  0 287675205
$GNGGA,000000.000,,,,,0,00,,,M,,,,0000*2B
$GNRMC,000000.000,A,,,,,,,000000,,*26
$GPGSA,A,1,,,,,,,,,,,,,,,*1E
$BDGSA,A,1,,,,,,,,,,,,,,,*0F
$GPGSV,2,1,06,01,00,000,42,11,00,000,33,17,00,000,45,19,00,000,41*71
$GPGSV,2,2,06,22,00,000,38,28,00,000,39*74
$LOGTIM,0,0.000000,0.000000,0.000000,0.000000,0.000*0A
EndT:        0
---00000086--- Acq_st=3 2019-5-22 07:54:19 
[00]  G01  f 42   2534.1 2045996.7  1.0  1.0  5  0 287676199
[01]  G11  f 33   2210.2 2045997.1  0.9  0.9  5  0 287676197
[02]  G17  f 45  -1804.9 2046002.3  1.0  1.0  5  0 287676200
[03]  G19  f 41  -2581.9 2046003.4  1.0  1.0  5  0 287676197
[04]  G22  f 38   1304.3 2045998.3  1.0  1.0  5  0 287676198
[05]  G28  f 39   -809.0 2046001.1  1.0  1.0  5  0 287676205
$GNGGA,000000.000,,,,,0,00,,,M,,,,0000*2B
$GNRMC,000000.000,A,,,,,,,000000,,*26
$GPGSA,A,1,,,,,,,,,,,,,,,*1E
$BDGSA,A,1,,,,,,,,,,,,,,,*0F
$GPGSV,2,1,06,01,00,000,42,11,00,000,33,17,00,000,45,19,00,000,41*71
$GPGSV,2,2,06,22,00,000,38,28,00,000,39*74
$LOGTIM,0,0.000000,0.000000,0.000000,0.000000,0.000*0A
EndT:        0
---00000087--- Acq_st=3 2019-5-22 07:54:20 
[00]  G01  f 42   2537.5 2045996.7  1.0  1.0  5  0 287677199
[01]  G11  f 34   2213.6 2045997.1  1.0  0.9  5  0 287677197
[02]  G17  f 44  -1801.3 2046002.3  1.0  1.0  5  0 287677200
[03]  G19  f 41  -2577.7 2046003.3  1.0  1.0  5  0 287677197
[04]  G22  f 38   1308.7 2045998.3  1.0  1.0  5  0 287677198
[05]  G28  f 39   -804.5 2046001.0  1.0  1.0  5  0 287677205
$GNGGA,000000.000,,,,,0,00,,,M,,,,0000*2B
$GNRMC,000000.000,A,,,,,,,000000,,*26
$GPGSA,A,1,,,,,,,,,,,,,,,*1E
$BDGSA,A,1,,,,,,,,,,,,,,,*0F
$GPGSV,2,1,06,01,00,000,42,11,00,000,34,17,00,000,44,19,00,000,41*77
$GPGSV,2,2,06,22,00,000,38,28,00,000,39*74
$LOGTIM,0,0.000000,0.000000,0.000000,0.000000,0.000*0A
EndT:        0
---00000088--- Acq_st=3 2019-5-22 07:54:21 
[00]  G01  f 42   2540.3 2045996.8  1.0  1.0  5  0 287678199
[01]  G11  f 34   2215.1 2045997.2  1.0  0.9  5  0 287678197
[02]  G17  f 44  -1798.6 2046002.3  1.0  1.0  5  0 287678200
[03]  G19  f 40  -2575.2 2046003.3  1.0  1.0  5  0 287678197
[04]  G22  f 38   1311.7 2045998.3  1.0  1.0  5  0 287678198
[05]  G28  f 39   -800.9 2046001.0  1.0  1.0  5  0 287678205
$GNGGA,000000.000,,,,,0,00,,,M,,,,0000*2B
$GNRMC,000000.000,A,,,,,,,000000,,*26
$GPGSA,A,1,,,,,,,,,,,,,,,*1E
$BDGSA,A,1,,,,,,,,,,,,,,,*0F
$GPGSV,2,1,06,01,00,000,42,11,00,000,34,17,00,000,44,19,00,000,40*76
$GPGSV,2,2,06,22,00,000,38,28,00,000,39*74
$LOGTIM,0,0.000000,0.000000,0.000000,0.000000,0.000*0A
EndT:        0
---00000089--- Acq_st=3 2019-5-22 07:54:22 
[00]  G01  f 41   2538.6 2045996.7  1.0  1.0  5  0 287679199
[01]  G11  f 34   2214.4 2045997.2  1.0  1.0  5  0 287679197
[02]  G17  f 44  -1800.3 2046002.3  1.0  1.0  5  0 287679200
[03]  G19  f 40  -2576.8 2046003.4  1.0  1.0  5  0 287679197
[04]  G22  f 39   1310.4 2045998.3  1.0  1.0  5  0 287679198
[05]  G28  f 39   -802.8 2046001.0  1.0  1.0  5  0 287679205
$GNGGA,000000.000,,,,,0,00,,,M,,,,0000*2B
$GNRMC,000000.000,A,,,,,,,000000,,*26
$GPGSA,A,1,,,,,,,,,,,,,,,*1E
$BDGSA,A,1,,,,,,,,,,,,,,,*0F
$GPGSV,2,1,06,01,00,000,41,11,00,000,34,17,00,000,44,19,00,000,40*75
$GPGSV,2,2,06,22,00,000,39,28,00,000,39*75
$LOGTIM,0,0.000000,0.000000,0.000000,0.000000,0.000*0A
EndT:        0
---00000090--- Acq_st=3 2019-5-22 07:54:23 
[00]  G01  f 41   2539.7 2045996.7  1.0  1.0  5  0 287680199
[01]  G11  f 34   2216.6 2045997.1  1.0  0.9  5  0 287680197
