FlashID=0x1 0x20 0x18
BBram_blkflag1: 3b48: c4b7
FW Ver: 1.30  
GPS00 Init Dop:   5000, 40
GPS01 Init Dop:   5000, 40
GPS02 Init Dop:   5000, 40
GPS03 Init Dop:   5000, 40
GPS04 Init Dop:   5000, 40
GPS05 Init Dop:   5000, 40
GPS06 Init Dop:   5000, 40
GPS07 Init Dop:   5000, 40
GPS08 Init Dop:   5000, 40
GPS09 Init Dop:   5000, 40
GPS10 Init Dop:   5000, 40
GPS11 Init Dop:   5000, 40
GPS12 Init Dop:   5000, 40
GPS13 Init Dop:   5000, 40
GPS14 Init Dop:   5000, 40
GPS15 Init Dop:   5000, 40
GPS16 Init Dop:   5000, 40
GPS17 Init Dop:   5000, 40
GPS18 Init Dop:   5000, 40
GPS19 Init Dop:   5000, 40
GPS20 Init Dop:   5000, 40
GPS21 Init Dop:   5000, 40
GPS22 Init Dop:   5000, 40
GPS23 Init Dop:   5000, 40
GPS24 Init Dop:   5000, 40
GPS25 Init Dop:   5000, 40
GPS26 Init Dop:   5000, 40
GPS27 Init Dop:   5000, 40
GPS28 Init Dop:   5000, 40
GPS29 Init Dop:   5000, 40
GPS30 Init Dop:   5000, 40
GPS31 Init Dop:   5000, 40
BDS00 Init Dop:   5000, 40
BDS01 Init Dop:   5000, 40
BDS02 Init Dop:   5000, 40
BDS03 Init Dop:   5000, 40
BDS04 Init Dop:   5000, 40
BDS05 Init Dop:   5000, 40
BDS06 Init Dop:   5000, 40
BDS07 Init Dop:   5000, 40
BDS08 Init Dop:   5000, 40
BDS09 Init Dop:   5000, 40
BDS10 Init Dop:   5000, 40
BDS11 Init Dop:   5000, 40
BDS12 Init Dop:   5000, 40
BDS13 Init Dop:   5000, 40
BDS14 Init Dop:   5000, 40
BDS15 Init Dop:   5000, 40
BDS16 Init Dop:   5000, 40
BDS17 Init Dop:   5000, 40
BDS18 Init Dop:   5000, 40
BDS19 Init Dop:   5000, 40
BDS20 Init Dop:   5000, 40
BDS21 Init Dop:   5000, 40
BDS22 Init Dop:   5000, 40
BDS23 Init Dop:   5000, 40
BDS24 Init Dop:   5000, 40
BDS25 Init Dop:   5000, 40
BDS26 Init Dop:   5000, 40
BDS27 Init Dop:   5000, 40
BDS28 Init Dop:   5000, 40
BDS29 Init Dop:   5000, 40
BDS30 Init Dop:   5000, 40
BDS31 Init Dop:   5000, 40
---00000001--- Acq_st=3 2019-5-24 08:05:41 
$GNGGA,000000.000,,,,,0,00,,,M,,,,0000*2B
$GNRMC,000000.000,A,,,,,,,000000,,*26
$GPGSA,A,1,,,,,,,,,,,,,,,*1E
$BDGSA,A,1,,,,,,,,,,,,,,,*0F
$LOGTIM,0,0.000000,0.000000,0.000000,0.000000,0.000*0A
EndT:        0
ch0 satid=0,max_freq = -2500,max_mean = 23812,max_phase = 824,max_value = 359391,acq ok1!
acq ok1 timeH = 0,timeL = 13802946,freq_stage = 4
---00000002--- Acq_st=3 2019-5-24 08:05:42 
[00]  G01  1 24   2612.6 2045996.5  0.0  0.0  1  0         0
$GNGGA,000000.000,,,,,0,00,,,M,,,,0000*2B
$GNRMC,000000.000,A,,,,,,,000000,,*26
$GPGSA,A,1,,,,,,,,,,,,,,,*1E
$BDGSA,A,1,,,,,,,,,,,,,,,*0F
$LOGTIM,0,0.000000,0.000000,0.000000,0.000000,0.000*0A
EndT:        0
---00000003--- Acq_st=3 2019-5-24 08:05:43 
[00]  G01  7 28   2617.5 2045996.6  0.3  1.0 10  0         5
$GNGGA,000000.000,,,,,0,00,,,M,,,,0000*2B
$GNRMC,000000.000,A,,,,,,,000000,,*26
$GPGSA,A,1,,,,,,,,,,,,,,,*1E
$BDGSA,A,1,,,,,,,,,,,,,,,*0F
$GPGSV,1,1,01,01,00,000,28*43
$LOGTIM,0,0.000000,0.000000,0.000000,0.000000,0.000*0A
EndT:        0
ch1 satid=2,max_freq = -500,max_mean = 24803,max_phase = 517,max_value = 411494,acq ok1!
acq ok1 timeH = 0,timeL = 54840705,freq_stage = 3
---00000004--- Acq_st=3 2019-5-24 08:05:44 
[00]  G01  7 40   2617.9 2045996.6  0.8  1.0  5  0        17
[01]  G03  1 21    465.1 2046000.0  0.0  0.0  1  0         0
$GNGGA,000000.000,,,,,0,00,,,M,,,,0000*2B
$GNRMC,000000.000,A,,,,,,,000000,,*26
$GPGSA,A,1,,,,,,,,,,,,,,,*1E
$BDGSA,A,1,,,,,,,,,,,,,,,*0F
$GPGSV,1,1,01,01,00,000,40*4D
$LOGTIM,0,0.000000,0.000000,0.000000,0.000000,0.000*0A
EndT:        0
---00000005--- Acq_st=3 2019-5-24 08:05:45 
[00]  G01  7 41   2619.6 2045996.6  1.0  1.0  5  0        17
[01]  G03  7 17    463.8 2045999.3  0.3  0.0 20  0        10
$GNGGA,000000.000,,,,,0,00,,,M,,,,0000*2B
$GNRMC,000000.000,A,,,,,,,000000,,*26
$GPGSA,A,1,,,,,,,,,,,,,,,*1E
$BDGSA,A,1,,,,,,,,,,,,,,,*0F
$GPGSV,1,1,02,01,00,000,41,03,00,000,17*7A
$LOGTIM,0,0.000000,0.000000,0.000000,0.000000,0.000*0A
EndT:        0
---00000006--- Acq_st=3 2019-5-24 08:05:46 
[00]  G01  7 40   2620.9 2045996.6  1.0  1.0  5  0        17
[01]  G03  7 41    465.5 2045999.3  1.0  1.0  5  0         3
$GNGGA,000000.000,,,,,0,00,,,M,,,,0000*2B
$GNRMC,000000.000,A,,,,,,,000000,,*26
$GPGSA,A,1,,,,,,,,,,,,,,,*1E
$BDGSA,A,1,,,,,,,,,,,,,,,*0F
$GPGSV,1,1,02,01,00,000,40,03,00,000,41*78
$LOGTIM,0,0.000000,0.000000,0.000000,0.000000,0.000*0A
EndT:        0
---00000007--- Acq_st=3 2019-5-24 08:05:47 
[00]  G01  7 40   2620.0 2045996.6  1.0  1.0  5  0        17
[01]  G03  7 42    465.1 2045999.3  1.0  1.0  5  0         3
$GNGGA,000000.000,,,,,0,00,,,M,,,,0000*2B
$GNRMC,000000.000,A,,,,,,,000000,,*26
$GPGSA,A,1,,,,,,,,,,,,,,,*1E
$BDGSA,A,1,,,,,,,,,,,,,,,*0F
$GPGSV,1,1,02,01,00,000,40,03,00,000,42*7B
$LOGTIM,0,0.000000,0.000000,0.000000,0.000000,0.000*0A
EndT:        0
ch2 satid=5,max_freq = 2500,max_mean = 24822,max_phase = 1548,max_value = 237084,acq ok1!
acq ok1 timeH = 0,timeL = 118675089,freq_stage = 2
---00000008--- Acq_st=3 2019-5-24 08:05:48 
[00]  G01  7 40   2620.1 2045996.6  1.0  1.0  5  0        17
[01]  G03  7 42    465.8 2045999.3  1.0  1.0  5  0         3
[02]  G06  1 24  -2435.5 2046003.8 -0.0  0.0  1  0         0
$GNGGA,000000.000,,,,,0,00,,,M,,,,0000*2B
$GNRMC,000000.000,A,,,,,,,000000,,*26
$GPGSA,A,1,,,,,,,,,,,,,,,*1E
$BDGSA,A,1,,,,,,,,,,,,,,,*0F
$GPGSV,1,1,02,01,00,000,40,03,00,000,42*7B
$LOGTIM,0,0.000000,0.000000,0.000000,0.000000,0.000*0A
EndT:        0
---00000009--- Acq_st=3 2019-5-24 08:05:49 
[00]  G01  7 41   2623.8 2045996.6  1.0  1.0  5  0        17
[01]  G03  7 42    470.0 2045999.4  1.0  1.0  5  0         3
[02]  G06  7 29  -2418.5 2046003.1 -0.0  1.0 10  0         8
$GNGGA,000000.000,,,,,0,00,,,M,,,,0000*2B
$GNRMC,000000.000,A,,,,,,,000000,,*26
$GPGSA,A,1,,,,,,,,,,,,,,,*1E
$BDGSA,A,1,,,,,,,,,,,,,,,*0F
$GPGSV,1,1,03,01,00,000,41,03,00,000,42,06,00,000,29*46
$LOGTIM,0,0.000000,0.000000,0.000000,0.000000,0.000*0A
EndT:        0
---00000010--- Acq_st=3 2019-5-24 08:05:50 
[00]  G01  f 40   2622.5 2045996.6  1.0  1.0  5  0        17
[01]  G03  f 43    469.3 2045999.4  1.0  1.0  5  0         3
[02]  G06  7 38  -2421.3 2046003.1  1.0  1.0  5  0        18
$GNGGA,000000.000,,,,,0,00,,,M,,,,0000*2B
$GNRMC,000000.000,A,,,,,,,000000,,*26
$GPGSA,A,1,,,,,,,,,,,,,,,*1E
$BDGSA,A,1,,,,,,,,,,,,,,,*0F
$GPGSV,1,1,03,01,00,000,40,03,00,000,43,06,00,000,38*46
$LOGTIM,0,0.000000,0.000000,0.000000,0.000000,0.000*0A
EndT:        0
---00000011--- Acq_st=3 2019-5-24 08:05:51 
[00]  G01  f 40   2623.0 2045996.6  1.0  1.0  5  0 461167997
[01]  G03  f 43    470.5 2045999.4  1.0  1.0  5  0 461168003
[02]  G06  7 38  -2420.4 2046003.1  1.0  0.9  5  0        18
$GNGGA,000000.000,,,,,0,00,,,M,,,,0000*2B
$GNRMC,000000.000,A,,,,,,,000000,,*26
$GPGSA,A,1,,,,,,,,,,,,,,,*1E
$BDGSA,A,1,,,,,,,,,,,,,,,*0F
$GPGSV,1,1,03,01,00,000,40,03,00,000,43,06,00,000,38*46
$LOGTIM,0,0.000000,0.000000,0.000000,0.000000,0.000*0A
EndT:        0
---00000012--- Acq_st=3 2019-5-24 08:05:52 
[00]  G01  f 41   2622.4 2045996.6  1.0  1.0  5  0 461168997
[01]  G03  f 43    470.2 2045999.4  1.0  1.0  5  0 461169003
[02]  G06  7 39  -2421.1 2046003.1  1.0  1.0  5  0        18
$GNGGA,000000.000,,,,,0,00,,,M,,,,0000*2B
$GNRMC,000000.000,A,,,,,,,000000,,*26
$GPGSA,A,1,,,,,,,,,,,,,,,*1E
$BDGSA,A,1,,,,,,,,,,,,,,,*0F
$GPGSV,1,1,03,01,00,000,41,03,00,000,43,06,00,000,39*46
$LOGTIM,0,0.000000,0.000000,0.000000,0.000000,0.000*0A
EndT:        0
---00000013--- Acq_st=3 2019-5-24 08:05:53 
[00]  G01  f 41   2622.6 2045996.6  1.0  1.0  5  0 461169997
[01]  G03  f 43    471.4 2045999.4  1.0  1.0  5  0 461170003
[02]  G06  7 39  -2420.2 2046003.1  1.0  1.0  5  0        18
$GNGGA,000000.000,,,,,0,00,,,M,,,,0000*2B
$GNRMC,000000.000,A,,,,,,,000000,,*26
$GPGSA,A,1,,,,,,,,,,,,,,,*1E
$BDGSA,A,1,,,,,,,,,,,,,,,*0F
$GPGSV,1,1,03,01,00,000,41,03,00,000,43,06,00,000,39*46
$LOGTIM,0,0.000000,0.000000,0.000000,0.000000,0.000*0A
EndT:        0
ch3 satid=10,max_freq = -2250,max_mean = 24841,max_phase = 980,max_value = 274645,acq ok1!
acq ok1 timeH = 0,timeL = 241769158,freq_stage = 4
---00000014--- Acq_st=3 2019-5-24 08:05:54 
[00]  G01  f 40   2627.4 2045996.6  1.0  1.0  5  0 461170997
[01]  G03  f 43    476.9 2045999.3  1.0  1.0  5  0 461171003
[02]  G06  7 38  -2415.1 2046003.1  1.0  1.0  5  0        18
[03]  G11  1 29   2306.3 2045996.8 -0.0  0.0  1  0         0
$GNGGA,000000.000,,,,,0,00,,,M,,,,0000*2B
$GNRMC,000000.000,A,,,,,,,000000,,*26
$GPGSA,A,1,,,,,,,,,,,,,,,*1E
$BDGSA,A,1,,,,,,,,,,,,,,,*0F
$GPGSV,1,1,03,01,00,000,40,03,00,000,43,06,00,000,38*46
$LOGTIM,0,0.000000,0.000000,0.000000,0.000000,0.000*0A
EndT:        0
---00000015--- Acq_st=3 2019-5-24 08:05:55 
[00]  G01  f 40   2630.0 2045996.6  1.0  1.0  5  0 461171997
[01]  G03  f 43    480.3 2045999.3  1.0  1.0  5  0 461172003
[02]  G06  7 38  -2412.4 2046003.1  1.0  1.0  5  0        18
[03]  G11  7 29   2306.7 2045996.8  0.5  1.0  5  0        11
$GNGGA,000000.000,,,,,0,00,,,M,,,,0000*2B
$GNRMC,000000.000,A,,,,,,,000000,,*26
$GPGSA,A,1,,,,,,,,,,,,,,,*1E
$BDGSA,A,1,,,,,,,,,,,,,,,*0F
$GPGSV,1,1,04,01,00,000,40,03,00,000,43,06,00,000,38,11,00,000,29*7A
$LOGTIM,0,0.000000,0.000000,0.000000,0.000000,0.000*0A
EndT:        0
---00000016--- Acq_st=3 2019-5-24 08:05:56 
[00]  G01  f 41   2629.5 2045996.6  1.0  1.0  5  0 461172997
[01]  G03  f 43    480.3 2045999.4  1.0  1.0  5  0 461173003
[02]  G06  f 38  -2412.5 2046003.1  1.0  1.0  5  0        18
[03]  G11  7 39   2306.6 2045997.0  1.0  1.0  5  0        15
$GNGGA,000000.000,,,,,0,00,,,M,,,,0000*2B
$GNRMC,000000.000,A,,,,,,,000000,,*26
$GPGSA,A,1,,,,,,,,,,,,,,,*1E
$BDGSA,A,1,,,,,,,,,,,,,,,*0F
$GPGSV,1,1,04,01,00,000,41,03,00,000,43,06,00,000,38,11,00,000,39*7A
$LOGTIM,0,0.000000,0.000000,0.000000,0.000000,0.000*0A
EndT:        0
---00000017--- Acq_st=3 2019-5-24 08:05:57 
[00]  G01  f 40   2627.4 2045996.6  1.0  1.0  5  0 461173997
[01]  G03  f 43    478.1 2045999.4  1.0  1.0  5  0 461174003
[02]  G06  f 38  -2414.4 2046003.1  1.0  1.0  5  0 461173998
[03]  G11  7 39   2303.7 2045997.0  1.0  1.0  5  0        15
$GNGGA,000000.000,,,,,0,00,,,M,,,,0000*2B
$GNRMC,000000.000,A,,,,,,,000000,,*26
$GPGSA,A,1,,,,,,,,,,,,,,,*1E
$BDGSA,A,1,,,,,,,,,,,,,,,*0F
$GPGSV,1,1,04,01,00,000,40,03,00,000,43,06,00,000,38,11,00,000,39*7B
$LOGTIM,0,0.000000,0.000000,0.000000,0.000000,0.000*0A
EndT:        0
---00000018--- Acq_st=3 2019-5-24 08:05:58 
[00]  G01  f 40   2626.0 2045996.5  1.0  1.0  5  0 461174997
[01]  G03  f 43    478.0 2045999.4  1.0  1.0  5  0 461175003
[02]  G06  f 37  -2415.3 2046003.1  1.0  1.0  5  0 461174998
[03]  G11  7 38   2302.9 2045996.9  1.0  1.0  5  0        15
$GNGGA,000000.000,,,,,0,00,,,M,,,,0000*2B
$GNRMC,000000.000,A,,,,,,,000000,,*26
$GPGSA,A,1,,,,,,,,,,,,,,,*1E
$BDGSA,A,1,,,,,,,,,,,,,,,*0F
$GPGSV,1,1,04,01,00,000,40,03,00,000,43,06,00,000,37,11,00,000,38*75
$LOGTIM,0,0.000000,0.000000,0.000000,0.000000,0.000*0A
EndT:        0
---00000019--- Acq_st=3 2019-5-24 08:05:59 
[00]  G01  f 40   2624.9 2045996.6  1.0  1.0  5  0 461175997
[01]  G03  f 43    477.3 2045999.4  1.0  1.0  5  0 461176003
[02]  G06  f 37  -2416.5 2046003.2  1.0  0.9  5  0 461175998
[03]  G11  7 38   2302.0 2045997.0  1.0  0.9  5  0        15
$GNGGA,000000.000,,,,,0,00,,,M,,,,0000*2B
$GNRMC,000000.000,A,,,,,,,000000,,*26
$GPGSA,A,1,,,,,,,,,,,,,,,*1E
$BDGSA,A,1,,,,,,,,,,,,,,,*0F
$GPGSV,1,1,04,01,00,000,40,03,00,000,43,06,00,000,37,11,00,000,38*75
$LOGTIM,0,0.000000,0.000000,0.000000,0.000000,0.000*0A
EndT:        0
---00000020--- Acq_st=3 2019-5-24 08:06:0 
[00]  G01  f 41   2630.3 2045996.6  1.0  1.0  5  0 461176997
[01]  G03  f 43    483.7 2045999.4  1.0  1.0  5  0 461177003
[02]  G06  f 38  -2410.1 2046003.1  1.0  1.0  5  0 461176998
[03]  G11  7 39   2307.7 2045997.0  1.0  1.0  5  0        15
$GNGGA,000000.000,,,,,0,00,,,M,,,,0000*2B
$GNRMC,000000.000,A,,,,,,,000000,,*26
$GPGSA,A,1,,,,,,,,,,,,,,,*1E
$BDGSA,A,1,,,,,,,,,,,,,,,*0F
$GPGSV,1,1,04,01,00,000,41,03,00,000,43,06,00,000,38,11,00,000,39*7A
$LOGTIM,0,0.000000,0.000000,0.000000,0.000000,0.000*0A
EndT:        0
ch4 satid=16,max_freq = 1750,max_mean = 24926,max_phase = 666,max_value = 754313,acq ok1!
acq ok1 timeH = 0,timeL = 369437908,freq_stage = 2
---00000021--- Acq_st=3 2019-5-24 08:06:1 
[00]  G01  f 41   2636.1 2045996.6  1.0  1.0  5  0 461177997
[01]  G03  f 43    489.9 2045999.4  1.0  1.0  5  0 461178003
[02]  G06  f 37  -2404.4 2046003.1  1.0  1.0  5  0 461177998
[03]  G11  7 39   2313.4 2045997.0  1.0  1.0  5  0        15
[04]  G17  1 28  -1725.2 2046002.5 -0.1  0.0  1  0         0
$GNGGA,000000.000,,,,,0,00,,,M,,,,0000*2B
$GNRMC,000000.000,A,,,,,,,000000,,*26
$GPGSA,A,1,,,,,,,,,,,,,,,*1E
$BDGSA,A,1,,,,,,,,,,,,,,,*0F
$GPGSV,1,1,04,01,00,000,41,03,00,000,43,06,00,000,37,11,00,000,39*75
$LOGTIM,0,0.000000,0.000000,0.000000,0.000000,0.000*0A
EndT:        0
---00000022--- Acq_st=3 2019-5-24 08:06:2 
[00]  G01  f 40   2635.4 2045996.6  1.0  1.0  5  0 461178997
[01]  G03  f 43    489.7 2045999.4  1.0  1.0  5  0 461179003
[02]  G06  f 36  -2405.5 2046003.2  1.0  0.9  5  0 461178998
[03]  G11  f 39   2312.5 2045997.0  1.0  1.0  5  0        15
[04]  G17  7 28  -1725.8 2046002.2  0.6  1.0 10  0         7
$GNGGA,000000.000,,,,,0,00,,,M,,,,0000*2B
$GNRMC,000000.000,A,,,,,,,000000,,*26
$GPGSA,A,1,,,,,,,,,,,,,,,*1E
$BDGSA,A,1,,,,,,,,,,,,,,,*0F
$GPGSV,2,1,05,01,00,000,40,03,00,000,43,06,00,000,36,11,00,000,39*77
$GPGSV,2,2,05,17,00,000,28*40
$LOGTIM,0,0.000000,0.000000,0.000000,0.000000,0.000*0A
EndT:        0
ch5 satid=18,max_freq = 2500,max_mean = 24915,max_phase = 1907,max_value = 270284,acq ok1!
acq ok1 timeH = 0,timeL = 415031138,freq_stage = 2
---00000023--- Acq_st=3 2019-5-24 08:06:3 
[00]  G01  f 40   2628.7 2045996.6  1.0  1.0  5  0 461179997
[01]  G03  f 43    483.6 2045999.4  1.0  1.0  5  0 461180003
[02]  G06  f 36  -2412.1 2046003.2  1.0  1.0  5  0 461179998
[03]  G11  f 39   2305.6 2045997.0  1.0  1.0  5  0 461179995
[04]  G17  7 45  -1732.3 2046002.2  1.0  1.0  5  0         1
[05]  G19  1 22  -2498.0 2046004.3  0.0  0.0  1  0         0
$GNGGA,000000.000,,,,,0,00,,,M,,,,0000*2B
$GNRMC,000000.000,A,,,,,,,000000,,*26
$GPGSA,A,1,,,,,,,,,,,,,,,*1E
$BDGSA,A,1,,,,,,,,,,,,,,,*0F
$GPGSV,2,1,05,01,00,000,40,03,00,000,43,06,00,000,36,11,00,000,39*77
$GPGSV,2,2,05,17,00,000,45*4B
$LOGTIM,0,0.000000,0.000000,0.000000,0.000000,0.000*0A
EndT:        0
---00000024--- Acq_st=3 2019-5-24 08:06:4 
[00]  G01  f 40   2623.4 2045996.6  1.0  1.0  5  0 461180997
[01]  G03  f 42    478.9 2045999.4  1.0  1.0  5  0 461181003
[02]  G06  f 36  -2416.4 2046003.2  1.0  1.0  5  0 461180998
[03]  G11  f 39   2300.5 2045997.1  1.0  1.0  5  0 461180995
[04]  G17  7 45  -1737.0 2046002.3  1.0  1.0  5  0         1
[05]  G19  7 13  -2504.3 2046003.2  0.2  0.0 20  0        13
$GNGGA,000000.000,,,,,0,00,,,M,,,,0000*2B
$GNRMC,000000.000,A,,,,,,,000000,,*26
$GPGSA,A,1,,,,,,,,,,,,,,,*1E
$BDGSA,A,1,,,,,,,,,,,,,,,*0F
$GPGSV,2,1,06,01,00,000,40,03,00,000,42,06,00,000,36,11,00,000,39*75
$GPGSV,2,2,06,17,00,000,45,19,00,000,13*72
$LOGTIM,0,0.000000,0.000000,0.000000,0.000000,0.000*0A
EndT:        0
---00000025--- Acq_st=3 2019-5-24 08:06:5 
[00]  G01  f 40   2615.6 2045996.6  1.0  1.0  5  0 461181997
[01]  G03  f 43    471.8 2045999.4  1.0  1.0  5  0 461182002
[02]  G06  f 36  -2424.3 2046003.0  1.0  1.0  5  0 461181998
[03]  G11  f 39   2292.2 2045997.0  1.0  1.0  5  0 461181995
[04]  G17  7 45  -1745.7 2046002.2  1.0  1.0  5  0         1
[05]  G19  7 39  -2512.3 2046003.2  0.6  1.0  5  0        19
$GNGGA,000000.000,,,,,0,00,,,M,,,,0000*2B
$GNRMC,000000.000,A,,,,,,,000000,,*26
$GPGSA,A,1,,,,,,,,,,,,,,,*1E
$BDGSA,A,1,,,,,,,,,,,,,,,*0F
$GPGSV,2,1,06,01,00,000,40,03,00,000,43,06,00,000,36,11,00,000,39*74
$GPGSV,2,2,06,17,00,000,45,19,00,000,39*7A
$LOGTIM,0,0.000000,0.000000,0.000000,0.000000,0.000*0A
EndT:        0
---00000026--- Acq_st=3 2019-5-24 08:06:6 
[00]  G01  f 41   2618.3 2045996.6  1.0  1.0  5  0 461182997
[01]  G03  f 42    475.2 2045999.4  1.0  1.0  5  0 461183002
[02]  G06  f 36  -2421.1 2046003.1  1.0  1.0  5  0 461182998
[03]  G11  f 39   2296.0 2045997.0  1.0  1.0  5  0 461182995
[04]  G17  7 45  -1742.3 2046002.3  1.0  1.0  5  0         1
[05]  G19  7 39  -2509.5 2046003.2  1.0  1.0  5  0        19
$GNGGA,000000.000,,,,,0,00,,,M,,,,0000*2B
$GNRMC,000000.000,A,,,,,,,000000,,*26
$GPGSA,A,1,,,,,,,,,,,,,,,*1E
$BDGSA,A,1,,,,,,,,,,,,,,,*0F
$GPGSV,2,1,06,01,00,000,41,03,00,000,42,06,00,000,36,11,00,000,39*74
$GPGSV,2,2,06,17,00,000,45,19,00,000,39*7A
$LOGTIM,0,0.000000,0.000000,0.000000,0.000000,0.000*0A
EndT:        0
ch6 satid=21,max_freq = -2000,max_mean = 24758,max_phase = 674,max_value = 305757,acq ok1!
acq ok1 timeH = 0,timeL = 492531976,freq_stage = 4
---00000027--- Acq_st=3 2019-5-24 08:06:7 
[00]  G01  f 40   2621.1 2045996.6  1.0  1.0  5  0 461183997
[01]  G03  f 42    478.9 2045999.4  1.0  1.0  5  0 461184002
[02]  G06  f 35  -2417.5 2046003.2  1.0  1.0  5  0 461183998
[03]  G11  f 40   2298.5 2045997.0  1.0  1.0  5  0 461183995
[04]  G17  7 45  -1739.3 2046002.3  1.0  1.0  5  0         1
[05]  G19  7 39  -2506.7 2046003.3  1.0  1.0  5  0        19
[06]  G22  1 21   1891.1 2045998.1  0.0  0.0  1  0         0
$GNGGA,000000.000,,,,,0,00,,,M,,,,0000*2B
$GNRMC,000000.000,A,,,,,,,000000,,*26
$GPGSA,A,1,,,,,,,,,,,,,,,*1E
$BDGSA,A,1,,,,,,,,,,,,,,,*0F
$GPGSV,2,1,06,01,00,000,40,03,00,000,42,06,00,000,35,11,00,000,40*78
$GPGSV,2,2,06,17,00,000,45,19,00,000,39*7A
$LOGTIM,0,0.000000,0.000000,0.000000,0.000000,0.000*0A
EndT:        0
---00000028--- Acq_st=3 2019-5-24 08:06:8 
[00]  G01  f 40   2627.9 2045996.6  1.0  1.0  5  0 461184997
[01]  G03  f 42    485.9 2045999.4  1.0  1.0  5  0 461185002
[02]  G06  f 34  -2411.2 2046003.1  1.0  0.9  5  0 461184998
[03]  G11  f 39   2304.6 2045997.0  1.0  1.0  5  0 461184995
[04]  G17  f 44  -1733.1 2046002.2  1.0  1.0  5  0         1
[05]  G19  f 39  -2499.7 2046003.3  1.0  1.0  5  0        19
[06]  G22  7 28   1885.5 2045997.4  0.1  1.0 10  0        11
$GNGGA,000000.000,,,,,0,00,,,M,,,,0000*2B
$GNRMC,000000.000,A,,,,,,,000000,,*26
$GPGSA,A,1,,,,,,,,,,,,,,,*1E
$BDGSA,A,1,,,,,,,,,,,,,,,*0F
$GPGSV,2,1,07,01,00,000,40,03,00,000,42,06,00,000,34,11,00,000,39*76
$GPGSV,2,2,07,17,00,000,44,19,00,000,39,22,00,000,28*40
$LOGTIM,0,0.000000,0.000000,0.000000,0.000000,0.000*0A
EndT:        0
---00000029--- Acq_st=3 2019-5-24 08:06:9 
[00]  G01  f 40   2628.1 2045996.6  1.0  1.0  5  0 461185997
[01]  G03  f 42    486.7 2045999.3  1.0  1.0  5  0 461186002
[02]  G06  f 34  -2410.1 2046003.2  1.0  1.0  5  0 461185998
[03]  G11  f 39   2305.0 2045997.0  1.0  1.0  5  0 461185995
[04]  G17  f 45  -1732.5 2046002.3  1.0  1.0  5  0 461186001
[05]  G19  f 39  -2499.1 2046003.2  1.0  1.0  5  0 461185999
[06]  G22  7 39   1888.9 2045997.5  0.9  1.0  5  0        17
$GNGGA,000000.000,,,,,0,00,,,M,,,,0000*2B
$GNRMC,000000.000,A,,,,,,,000000,,*26
$GPGSA,A,1,,,,,,,,,,,,,,,*1E
$BDGSA,A,1,,,,,,,,,,,,,,,*0F
$GPGSV,2,1,07,01,00,000,40,03,00,000,42,06,00,000,34,11,00,000,39*76
$GPGSV,2,2,07,17,00,000,45,19,00,000,39,22,00,000,39*41
$LOGTIM,0,0.000000,0.000000,0.000000,0.000000,0.000*0A
EndT:        1
---00000030--- Acq_st=3 2019-5-24 08:06:10 
[00]  G01  f 40   2628.1 2045996.6  1.0  1.0  5  0 461186997
[01]  G03  f 42    487.4 2045999.4  1.0  1.0  5  0 461187002
[02]  G06  f 34  -2409.7 2046003.1  1.0  1.0  5  0 461186998
[03]  G11  f 39   2305.5 2045997.1  1.0  1.0  5  0 461186995
[04]  G17  f 44  -1732.5 2046002.2  1.0  1.0  5  0 461187001
[05]  G19  f 40  -2499.1 2046003.3  1.0  1.0  5  0 461186999
[06]  G22  7 39   1889.8 2045997.5  1.0  1.0  5  0        17
$GNGGA,000000.000,,,,,0,00,,,M,,,,0000*2B
$GNRMC,000000.000,A,,,,,,,000000,,*26
$GPGSA,A,1,,,,,,,,,,,,,,,*1E
$BDGSA,A,1,,,,,,,,,,,,,,,*0F
$GPGSV,2,1,07,01,00,000,40,03,00,000,42,06,00,000,34,11,00,000,39*76
$GPGSV,2,2,07,17,00,000,44,19,00,000,40,22,00,000,39*4E
$LOGTIM,0,0.000000,0.000000,0.000000,0.000000,0.000*0A
EndT:        0
---00000031--- Acq_st=3 2019-5-24 08:06:11 
[00]  G01  f 40   2629.0 2045996.7  1.0  1.0  5  0 461187997
[01]  G03  f 42    488.9 2045999.4  1.0  1.0  5  0 461188002
[02]  G06  f 34  -2409.5 2046003.1  1.0  1.0  5  0 461187998
[03]  G11  f 39   2305.9 2045997.0  1.0  1.0  5  0 461187995
[04]  G17  f 44  -1731.6 2046002.2  1.0  1.0  5  0 461188001
[05]  G19  f 39  -2498.5 2046003.3  1.0  1.0  5  0 461187999
[06]  G22  7 39   1890.9 2045997.5  1.0  1.0  5  0        17
$GNGGA,000000.000,,,,,0,00,,,M,,,,0000*2B
$GNRMC,000000.000,A,,,,,,,000000,,*26
$GPGSA,A,1,,,,,,,,,,,,,,,*1E
$BDGSA,A,1,,,,,,,,,,,,,,,*0F
$GPGSV,2,1,07,01,00,000,40,03,00,000,42,06,00,000,34,11,00,000,39*76
$GPGSV,2,2,07,17,00,000,44,19,00,000,39,22,00,000,39*40
$LOGTIM,0,0.000000,0.000000,0.000000,0.000000,0.000*0A
EndT:        0
---00000032--- Acq_st=3 2019-5-24 08:06:12 
[00]  G01  f 40   2630.8 2045996.6  1.0  1.0  5  0 461188997
[01]  G03  f 42    491.1 2045999.4  1.0  1.0  5  0 461189002
[02]  G06  f 33  -2407.2 2046003.2  1.0  1.0  5  0 461188998
[03]  G11  f 39   2307.9 2045997.0  1.0  1.0  5  0 461188995
[04]  G17  f 44  -1729.5 2046002.3  1.0  1.0  5  0 461189001
[05]  G19  f 39  -2496.4 2046003.2  1.0  1.0  5  0 461188999
[06]  G22  7 39   1893.5 2045997.5  1.0  1.0  5  0        17
$GNGGA,000000.000,,,,,0,00,,,M,,,,0000*2B
$GNRMC,000000.000,A,,,,,,,000000,,*26
$GPGSA,A,1,,,,,,,,,,,,,,,*1E
$BDGSA,A,1,,,,,,,,,,,,,,,*0F
$GPGSV,2,1,07,01,00,000,40,03,00,000,42,06,00,000,33,11,00,000,39*71
$GPGSV,2,2,07,17,00,000,44,19,00,000,39,22,00,000,39*40
$LOGTIM,0,0.000000,0.000000,0.000000,0.000000,0.000*0A
EndT:        0
---00000033--- Acq_st=3 2019-5-24 08:06:13 
[00]  G01  f 40   2635.2 2045996.6  1.0  0.9  5  0 461189997
[01]  G03  f 42    496.3 2045999.4  1.0  1.0  5  0 461190002
[02]  G06  f 33  -2402.9 2046003.1  1.0  1.0  5  0 461189998
[03]  G11  f 39   2311.8 2045997.0  1.0  1.0  5  0 461189995
[04]  G17  f 44  -1725.3 2046002.3  1.0  1.0  5  0 461190001
[05]  G19  f 40  -2492.6 2046003.2  1.0  1.0  5  0 461189999
[06]  G22  7 39   1897.7 2045997.5  1.0  1.0  5  0        17
$GNGGA,000000.000,,,,,0,00,,,M,,,,0000*2B
$GNRMC,000000.000,A,,,,,,,000000,,*26
$GPGSA,A,1,,,,,,,,,,,,,,,*1E
$BDGSA,A,1,,,,,,,,,,,,,,,*0F
$GPGSV,2,1,07,01,00,000,40,03,00,000,42,06,00,000,33,11,00,000,39*71
$GPGSV,2,2,07,17,00,000,44,19,00,000,40,22,00,000,39*4E
$LOGTIM,0,0.000000,0.000000,0.000000,0.000000,0.000*0A
EndT:        0
---00000034--- Acq_st=3 2019-5-24 08:06:14 
[00]  G01  f 39   2631.7 2045996.6  1.0  1.0  5  0 461190997
[01]  G03  f 42    493.2 2045999.4  1.0  1.0  5  0 461191002
[02]  G06  f 34  -2405.6 2046003.1  1.0  0.9  5  0 461190998
[03]  G11  f 39   2308.8 2045997.0  1.0  1.0  5  0 461190995
[04]  G17  f 44  -1729.0 2046002.2  1.0  1.0  5  0 461191001
[05]  G19  f 40  -2496.0 2046003.2  1.0  1.0  5  0 461190999
[06]  G22  f 40   1894.7 2045997.6  1.0  1.0  5  0        17
$GNGGA,000000.000,,,,,0,00,,,M,,,,0000*2B
$GNRMC,000000.000,A,,,,,,,000000,,*26
$GPGSA,A,1,,,,,,,,,,,,,,,*1E
$BDGSA,A,1,,,,,,,,,,,,,,,*0F
$GPGSV,2,1,07,01,00,000,39,03,00,000,42,06,00,000,34,11,00,000,39*78
$GPGSV,2,2,07,17,00,000,44,19,00,000,40,22,00,000,40*40
$LOGTIM,0,0.000000,0.000000,0.000000,0.000000,0.000*0A
EndT:        0
---00000035--- Acq_st=3 2019-5-24 08:06:15 
[00]  G01  f 40   2625.0 2045996.6  1.0  1.0  5  0 461191997
[01]  G03  f 43    487.8 2045999.4  1.0  1.0  5  0 461192002
[02]  G06  f 33  -2410.8 2046003.2  1.0  0.9  5  0 461191998
[03]  G11  f 39   2303.3 2045997.0  1.0  1.0  5  0 461191995
[04]  G17  f 44  -1734.9 2046002.2  1.0  1.0  5  0 461192001
[05]  G19  f 40  -2502.0 2046003.2  1.0  1.0  5  0 461191999
[06]  G22  f 40   1889.2 2045997.5  1.0  1.0  5  0 461191997
$GNGGA,000000.000,,,,,0,00,,,M,,,,0000*2B
$GNRMC,000000.000,A,,,,,,,000000,,*26
$GPGSA,A,1,,,,,,,,,,,,,,,*1E
$BDGSA,A,1,,,,,,,,,,,,,,,*0F
$GPGSV,2,1,07,01,00,000,40,03,00,000,43,06,00,000,33,11,00,000,39*70
$GPGSV,2,2,07,17,00,000,44,19,00,000,40,22,00,000,40*40
$LOGTIM,0,0.000000,0.000000,0.000000,0.000000,0.000*0A
EndT:        0
---00000036--- Acq_st=3 2019-5-24 08:06:16 
[00]  G01  f 40   2620.8 2045996.6  1.0  1.0  5  0 461192997
[01]  G03  f 43    483.6 2045999.4  1.0  1.0  5  0 461193002
[02]  G06  f 34  -2416.1 2046003.1  1.0  1.0  5  0 461192998
[03]  G11  f 39   2297.8 2045997.0  1.0  1.0  5  0 461192995
[04]  G17  f 44  -1739.5 2046002.3  1.0  1.0  5  0 461193001
[05]  G19  f 40  -2506.9 2046003.2  1.0  0.9  5  0 461192999
[06]  G22  f 39   1885.0 2045997.6  1.0  1.0  5  0 461192997
$GNGGA,000000.000,,,,,0,00,,,M,,,,0000*2B
$GNRMC,000000.000,A,,,,,,,000000,,*26
$GPGSA,A,1,,,,,,,,,,,,,,,*1E
$BDGSA,A,1,,,,,,,,,,,,,,,*0F
$GPGSV,2,1,07,01,00,000,40,03,00,000,43,06,00,000,34,11,00,000,39*77
$GPGSV,2,2,07,17,00,000,44,19,00,000,40,22,00,000,39*4E
$LOGTIM,0,0.000000,0.000000,0.000000,0.000000,0.000*0A
EndT:        0
---00000037--- Acq_st=3 2019-5-24 08:06:17 
[00]  G01  f 40   2619.8 2045996.6  1.0  1.0  5  0 461193997
[01]  G03  f 43    483.3 2045999.4  1.0  1.0  5  0 461194002
[02]  G06  f 34  -2416.5 2046003.1  1.0  1.0  5  0 461193998
[03]  G11  f 39   2297.5 2045997.0  1.0  1.0  5  0 461193995
[04]  G17  f 45  -1740.8 2046002.2  1.0  1.0  5  0 461194001
[05]  G19  f 40  -2507.7 2046003.3  1.0  1.0  5  0 461193999
[06]  G22  f 39   1884.0 2045997.6  1.0  1.0  5  0 461193997
$GNGGA,000000.000,,,,,0,00,,,M,,,,0000*2B
$GNRMC,000000.000,A,,,,,,,000000,,*26
$GPGSA,A,1,,,,,,,,,,,,,,,*1E
$BDGSA,A,1,,,,,,,,,,,,,,,*0F
$GPGSV,2,1,07,01,00,000,40,03,00,000,43,06,00,000,34,11,00,000,39*77
$GPGSV,2,2,07,17,00,000,45,19,00,000,40,22,00,000,39*4F
$LOGTIM,0,0.000000,0.000000,0.000000,0.000000,0.000*0A
EndT:        0
---00000038--- Acq_st=3 2019-5-24 08:06:18 
[00]  G01  f 40   2617.4 2045996.6  1.0  1.0  5  0 461194997
[01]  G03  f 43    481.8 2045999.4  1.0  1.0  5  0 461195002
[02]  G06  f 34  -2418.9 2046003.1  1.0  0.9  5  0 461194998
[03]  G11  f 40   2294.5 2045997.1  1.0  1.0  5  0 461194995
[04]  G17  f 45  -1742.9 2046002.3  1.0  1.0  5  0 461195001
[05]  G19  f 40  -2510.1 2046003.3  1.0  1.0  5  0 461194999
[06]  G22  f 39   1881.8 2045997.5  1.0  1.0  5  0 461194997
$GNGGA,000000.000,,,,,0,00,,,M,,,,0000*2B
$GNRMC,000000.000,A,,,,,,,000000,,*26
$GPGSA,A,1,,,,,,,,,,,,,,,*1E
$BDGSA,A,1,,,,,,,,,,,,,,,*0F
$GPGSV,2,1,07,01,00,000,40,03,00,000,43,06,00,000,34,11,00,000,40*79
$GPGSV,2,2,07,17,00,000,45,19,00,000,40,22,00,000,39*4F
$LOGTIM,0,0.000000,0.000000,0.000000,0.000000,0.000*0A
EndT:        0
---00000039--- Acq_st=3 2019-5-24 08:06:19 
[00]  G01  f 40   2618.9 2045996.6  1.0  1.0  5  0 461195997
[01]  G03  f 43    483.8 2045999.4  1.0  1.0  5  0 461196002
[02]  G06  f 35  -2417.3 2046003.1  1.0  1.0  5  0 461195998
[03]  G11  f 40   2296.6 2045997.0  1.0  1.0  5  0 461195995
[04]  G17  f 45  -1741.4 2046002.2  1.0  1.0  5  0 461196001
[05]  G19  f 40  -2507.9 2046003.2  1.0  1.0  5  0 461195999
[06]  G22  f 40   1884.4 2045997.5  1.0  1.0  5  0 461195997
$GNGGA,000000.000,,,,,0,00,,,M,,,,0000*2B
$GNRMC,000000.000,A,,,,,,,000000,,*26
$GPGSA,A,1,,,,,,,,,,,,,,,*1E
$BDGSA,A,1,,,,,,,,,,,,,,,*0F
$GPGSV,2,1,07,01,00,000,40,03,00,000,43,06,00,000,35,11,00,000,40*78
$GPGSV,2,2,07,17,00,000,45,19,00,000,40,22,00,000,40*41
$LOGTIM,0,0.000000,0.000000,0.000000,0.000000,0.000*0A
EndT:        0
---00000040--- Acq_st=3 2019-5-24 08:06:20 
[00]  G01  f 41   2622.2 2045996.6  1.0  1.0  5  0 461196997
[01]  G03  f 43    487.7 2045999.4  1.0  1.0  5  0 461197002
[02]  G06  f 35  -2413.3 2046003.1  1.0  0.9  5  0 461196998
[03]  G11  f 39   2300.8 2045997.1  1.0  1.0  5  0 461196995
[04]  G17  f 45  -1737.8 2046002.2  1.0  1.0  5  0 461197001
[05]  G19  f 40  -2504.9 2046003.3  1.0  1.0  5  0 461196999
[06]  G22  f 39   1888.0 2045997.6  1.0  1.0  5  0 461196997
$GNGGA,000000.000,,,,,0,00,,,M,,,,0000*2B
$GNRMC,000000.000,A,,,,,,,000000,,*26
$GPGSA,A,1,,,,,,,,,,,,,,,*1E
$BDGSA,A,1,,,,,,,,,,,,,,,*0F
$GPGSV,2,1,07,01,00,000,41,03,00,000,43,06,00,000,35,11,00,000,39*77
$GPGSV,2,2,07,17,00,000,45,19,00,000,40,22,00,000,39*4F
$LOGTIM,0,0.000000,0.000000,0.000000,0.000000,0.000*0A
EndT:        0
---00000041--- Acq_st=3 2019-5-24 08:06:21 
[00]  G01  f 40   2622.5 2045996.6  1.0  1.0  5  0 461197997
[01]  G03  f 43    488.7 2045999.4  1.0  1.0  5  0 461198002
[02]  G06  f 36  -2413.0 2046003.1  1.0  1.0  5  0 461197998
[03]  G11  f 40   2299.7 2045997.0  1.0  1.0  5  0 461197995
[04]  G17  f 45  -1737.6 2046002.3  1.0  1.0  5  0 461198001
[05]  G19  f 40  -2505.1 2046003.2  1.0  0.9  5  0 461197999
[06]  G22  f 40   1888.6 2045997.5  1.0  1.0  5  0 461197997
$GNGGA,000000.000,,,,,0,00,,,M,,,,0000*2B
$GNRMC,000000.000,A,,,,,,,000000,,*26
$GPGSA,A,1,,,,,,,,,,,,,,,*1E
$BDGSA,A,1,,,,,,,,,,,,,,,*0F
$GPGSV,2,1,07,01,00,000,40,03,00,000,43,06,00,000,36,11,00,000,40*7B
$GPGSV,2,2,07,17,00,000,45,19,00,000,40,22,00,000,40*41
$LOGTIM,0,0.000000,0.000000,0.000000,0.000000,0.000*0A
EndT:        0
---00000042--- Acq_st=3 2019-5-24 08:06:22 
[00]  G01  f 40   2617.5 2045996.6  1.0  1.0  5  0 461198997
[01]  G03  f 43    484.3 2045999.4  1.0  1.0  5  0 461199002
[02]  G06  f 36  -2418.4 2046003.1  1.0  1.0  5  0 461198998
[03]  G11  f 40   2294.9 2045997.1  1.0  1.0  5  0 461198995
[04]  G17  f 46  -1743.1 2046002.3  1.0  1.0  5  0 461199001
[05]  G19  f 40  -2509.9 2046003.3  1.0  1.0  5  0 461198999
[06]  G22  f 39   1884.2 2045997.5  1.0  1.0  5  0 461198997
$GNGGA,000000.000,,,,,0,00,,,M,,,,0000*2B
$GNRMC,000000.000,A,,,,,,,000000,,*26
$GPGSA,A,1,,,,,,,,,,,,,,,*1E
$BDGSA,A,1,,,,,,,,,,,,,,,*0F
$GPGSV,2,1,07,01,00,000,40,03,00,000,43,06,00,000,36,11,00,000,40*7B
$GPGSV,2,2,07,17,00,000,46,19,00,000,40,22,00,000,39*4C
$LOGTIM,0,0.000000,0.000000,0.000000,0.000000,0.000*0A
EndT:        0
---00000043--- Acq_st=3 2019-5-24 08:06:23 
[00]  G01  f 40   2616.8 2045996.6  1.0  1.0  5  0 461199997
[01]  G03  f 43    484.3 2045999.4  1.0  1.0  5  0 461200002
[02]  G06  f 36  -2417.8 2046003.2  1.0  0.9  5  0 461199998
[03]  G11  f 40   2294.1 2045996.9  1.0  1.0  5  0 461199995
[04]  G17  f 45  -1743.3 2046002.3  1.0  1.0  5  0 461200001
[05]  G19  f 40  -2510.1 2046003.3  1.0  1.0  5  0 461199999
[06]  G22  f 39   1884.2 2045997.5  1.0  1.0  5  0 461199997
$GNGGA,000000.000,,,,,0,00,,,M,,,,0000*2B
$GNRMC,000000.000,A,,,,,,,000000,,*26
$GPGSA,A,1,,,,,,,,,,,,,,,*1E
$BDGSA,A,1,,,,,,,,,,,,,,,*0F
$GPGSV,2,1,07,01,00,000,40,03,00,000,43,06,00,000,36,11,00,000,40*7B
$GPGSV,2,2,07,17,00,000,45,19,00,000,40,22,00,000,39*4F
$LOGTIM,0,0.000000,0.000000,0.000000,0.000000,0.000*0A
EndT:        0
---00000044--- Acq_st=3 2019-5-24 08:06:24 
[00]  G01  f 40   2620.4 2045996.6  1.0  1.0  5  0 461200997
[01]  G03  f 43    488.9 2045999.4  1.0  1.0  5  0 461201002
[02]  G06  f 36  -2413.8 2046003.1  1.0  1.0  5  0 461200998
[03]  G11  f 40   2298.1 2045997.0  1.0  1.0  5  0 461200995
[04]  G17  f 45  -1739.2 2046002.3  1.0  1.0  5  0 461201001
[05]  G19  f 40  -2506.2 2046003.2  1.0  1.0  5  0 461200999
[06]  G22  f 39   1888.6 2045997.6  1.0  1.0  5  0 461200997
$GNGGA,000000.000,,,,,0,00,,,M,,,,0000*2B
$GNRMC,000000.000,A,,,,,,,000000,,*26
$GPGSA,A,1,,,,,,,,,,,,,,,*1E
$BDGSA,A,1,,,,,,,,,,,,,,,*0F
$GPGSV,2,1,07,01,00,000,40,03,00,000,43,06,00,000,36,11,00,000,40*7B
$GPGSV,2,2,07,17,00,000,45,19,00,000,40,22,00,000,39*4F
$LOGTIM,0,0.000000,0.000000,0.000000,0.000000,0.000*0A
EndT:        0
---00000045--- Acq_st=3 2019-5-24 08:06:25 
[00]  G01  f 40   2622.2 2045996.6  1.0  1.0  5  0 461201997
[01]  G03  f 43    490.7 2045999.4  1.0  1.0  5  0 461202002
[02]  G06  f 37  -2411.6 2046003.1  1.0  1.0  5  0 461201998
[03]  G11  f 39   2300.1 2045997.0  1.0  1.0  5  0 461201995
[04]  G17  f 45  -1737.5 2046002.2  1.0  1.0  5  0 461202001
[05]  G19  f 40  -2505.1 2046003.3  1.0  1.0  5  0 461201999
[06]  G22  f 40   1890.1 2045997.6  1.0  1.0  5  0 461201997
$GNGGA,000000.000,,,,,0,00,,,M,,,,0000*2B
$GNRMC,000000.000,A,,,,,,,000000,,*26
$GPGSA,A,1,,,,,,,,,,,,,,,*1E
$BDGSA,A,1,,,,,,,,,,,,,,,*0F
$GPGSV,2,1,07,01,00,000,40,03,00,000,43,06,00,000,37,11,00,000,39*74
$GPGSV,2,2,07,17,00,000,45,19,00,000,40,22,00,000,40*41
$LOGTIM,0,0.000000,0.000000,0.000000,0.000000,0.000*0A
EndT:        0
---00000046--- Acq_st=3 2019-5-24 08:06:26 
[00]  G01  f 40   2619.5 2045996.6  1.0  1.0  5  0 461202997
[01]  G03  f 43    489.0 2045999.4  1.0  1.0  5  0 461203002
[02]  G06  f 37  -2414.5 2046003.2  1.0  1.0  5  0 461202998
[03]  G11  f 39   2297.4 2045997.0  1.0  0.9  5  0 461202995
[04]  G17  f 45  -1740.5 2046002.3  1.0  1.0  5  0 461203001
[05]  G19  f 40  -2507.3 2046003.3  1.0  1.0  5  0 461202999
[06]  G22  f 40   1888.2 2045997.5  1.0  1.0  5  0 461202997
$GNGGA,000000.000,,,,,0,00,,,M,,,,0000*2B
$GNRMC,000000.000,A,,,,,,,000000,,*26
$GPGSA,A,1,,,,,,,,,,,,,,,*1E
$BDGSA,A,1,,,,,,,,,,,,,,,*0F
$GPGSV,2,1,07,01,00,000,40,03,00,000,43,06,00,000,37,11,00,000,39*74
$GPGSV,2,2,07,17,00,000,45,19,00,000,40,22,00,000,40*41
$LOGTIM,0,0.000000,0.000000,0.000000,0.000000,0.000*0A
EndT:        0
---00000047--- Acq_st=3 2019-5-24 08:06:27 
[00]  G01  f 39   2622.1 2045996.6  1.0  1.0  5  0 461203997
[01]  G03  f 43    491.6 2045999.4  1.0  1.0  5  0 461204002
[02]  G06  f 37  -2411.9 2046003.2  1.0  1.0  5  0 461203998
[03]  G11  f 39   2299.2 2045997.0  1.0  1.0  5  0 461203995
[04]  G17  f 46  -1738.1 2046002.3  1.0  1.0  5  0 461204001
[05]  G19  f 39  -2504.4 2046003.2  1.0  1.0  5  0 461203999
[06]  G22  f 40   1890.6 2045997.6  1.0  1.0  5  0 461203997
$GNGGA,000000.000,,,,,0,00,,,M,,,,0000*2B
$GNRMC,000000.000,A,,,,,,,000000,,*26
$GPGSA,A,1,,,,,,,,,,,,,,,*1E
$BDGSA,A,1,,,,,,,,,,,,,,,*0F
$GPGSV,2,1,07,01,00,000,39,03,00,000,43,06,00,000,37,11,00,000,39*7A
$GPGSV,2,2,07,17,00,000,46,19,00,000,39,22,00,000,40*4C
$LOGTIM,0,0.000000,0.000000,0.000000,0.000000,0.000*0A
EndT:        0
---00000048--- Acq_st=3 2019-5-24 08:06:28 
[00]  G01  f 39   2626.6 2045996.6  1.0  1.0  5  0 461204997
[01]  G03  f 43    496.7 2045999.4  1.0  1.0  5  0 461205002
[02]  G06  f 36  -2407.2 2046003.1  1.0  1.0  5  0 461204998
[03]  G11  f 39   2304.5 2045996.9  1.0  1.0  5  0 461204995
[04]  G17  f 45  -1733.4 2046002.3  1.0  1.0  5  0 461205001
[05]  G19  f 40  -2500.1 2046003.2  1.0  1.0  5  0 461204999
[06]  G22  f 40   1895.7 2045997.6  1.0  1.0  5  0 461204997
$GNGGA,000000.000,,,,,0,00,,,M,,,,0000*2B
$GNRMC,000000.000,A,,,,,,,000000,,*26
$GPGSA,A,1,,,,,,,,,,,,,,,*1E
$BDGSA,A,1,,,,,,,,,,,,,,,*0F
$GPGSV,2,1,07,01,00,000,39,03,00,000,43,06,00,000,36,11,00,000,39*7B
$GPGSV,2,2,07,17,00,000,45,19,00,000,40,22,00,000,40*41
$LOGTIM,0,0.000000,0.000000,0.000000,0.000000,0.000*0A
EndT:        0
---00000049--- Acq_st=3 2019-5-24 08:06:28 
[00]  G01  f 39   2628.9 2045996.6  1.0  1.0  5  0 461205997
[01]  G03  f 43    500.0 2045999.3  1.0  1.0  5  0 461206002
[02]  G06  f 37  -2404.2 2046003.1  1.0  1.0  5  0 461205998
[03]  G11  f 40   2307.0 2045997.0  1.0  1.0  5  0 461205995
[04]  G17  f 45  -1731.0 2046002.3  1.0  1.0  5  0 461206001
[05]  G19  f 39  -2498.5 2046003.3  1.0  1.0  5  0 461205999
[06]  G22  f 40   1898.3 2045997.5  1.0  1.0  5  0 461205997
$GNGGA,000000.000,,,,,0,00,,,M,,,,0000*2B
$GNRMC,000000.000,A,,,,,,,000000,,*26
$GPGSA,A,1,,,,,,,,,,,,,,,*1E
$BDGSA,A,1,,,,,,,,,,,,,,,*0F
$GPGSV,2,1,07,01,00,000,39,03,00,000,43,06,00,000,37,11,00,000,40*74
$GPGSV,2,2,07,17,00,000,45,19,00,000,39,22,00,000,40*4F
$LOGTIM,0,0.000000,0.000000,0.000000,0.000000,0.000*0A
EndT:        0
---00000050--- Acq_st=3 2019-5-24 08:06:29 
[00]  G01  f 39   2631.8 2045996.6  1.0  1.0  5  0 461206997
[01]  G03  f 43    503.0 2045999.4  1.0  1.0  5  0 461207002
[02]  G06  f 37  -2401.9 2046003.1  1.0  1.0  5  0 461206998
[03]  G11  f 39   2309.5 2045997.0  1.0  1.0  5  0 461206995
[04]  G17  f 44  -1728.3 2046002.2  1.0  1.0  5  0 461207001
[05]  G19  f 39  -2495.2 2046003.3  1.0  1.0  5  0 461206999
[06]  G22  f 40   1901.3 2045997.5  1.0  1.0  5  0 461206997
lsq: nits= 4
$GNGGA,080630.074,3112.7175,N,12136.4353,E,1,05,1.7,47.7,M,,,,0000*2B
$GNRMC,080630.074,A,3112.7175,N,12136.4353,E,0.04,0.00,240519,,*1F
$GPGSA,A,3,01,03,06,17,19,,,,,,,,3.9,1.7,3.5*32
$BDGSA,A,3,,,,,,,,,,,,,3.9,1.7,3.5*29
$GPGSV,2,1,07,01,00,000,39,03,00,000,43,06,00,000,37,11,00,000,39*7A
$GPGSV,2,2,07,17,00,000,44,19,00,000,39,22,00,000,40*4E
$LOGTIM,1,8724525.312938,0.000000,0.000000,0.000000,-63.131*19
EndT:        1
---00000051--- Acq_st=3 2019-5-24 08:06:30 
[00]  G01  f 39   2632.2 2045996.6  1.0  1.0  5  0 461207997
[01]  G03  f 43    504.3 2045999.3  1.0  1.0  5  0 461208002
[02]  G06  f 38  -2401.0 2046003.1  1.0  1.0  5  0 461207998
[03]  G11  f 39   2309.9 2045997.0  1.0  1.0  5  0 461207995
[04]  G17  f 45  -1727.8 2046002.2  1.0  1.0  5  0 461208001
[05]  G19  f 39  -2494.7 2046003.3  1.0  1.0  5  0 461207999
[06]  G22  f 40   1902.5 2045997.5  1.0  1.0  5  0 461207997
---00000052--- Acq_st=3 2019-5-24 08:06:31 
[00]  G01  f 39   2631.2 2045996.6  1.0  1.0  5  0 461207997
[01]  G03  f 43    504.0 2045999.4  1.0  1.0  5  0 461208002
[02]  G06  f 38  -2401.1 2046003.1  1.0  1.0  5  0 461207998
[03]  G11  f 39   2309.3 2045997.0  1.0  1.0  5  0 461207995
[04]  G17  f 45  -1728.7 2046002.3  1.0  1.0  5  0 461208001
[05]  G19  f 39  -2495.2 2046003.2  1.0  1.0  5  0 461207999
[06]  G22  f 40   1902.0 2045997.5  1.0  0.9  5  0 461207997
lsq: nits= 2
$GNGGA,080632.000,3112.7151,N,12136.4354,E,1,07,1.6,51.9,M,,,,0000*21
$GNRMC,080632.000,A,3112.7151,N,12136.4354,E,0.09,0.00,240519,,*12
$GPGSA,A,3,01,03,06,11,17,19,22,,,,,,3.2,1.6,2.8*34
$BDGSA,A,3,,,,,,,,,,,,,3.2,1.6,2.8*2F
$GPGSV,2,1,07,01,00,000,39,03,00,000,43,06,00,000,38,11,00,000,39*75
$GPGSV,2,2,07,17,00,000,45,19,00,000,39,22,00,000,40*4F
$LOGTIM,1,-121.466268,0.000000,0.000000,0.000000,-63.134*32
EndT:        1
---00000053--- Acq_st=3 2019-5-24 08:06:32 
[00]  G01  f 39   2635.1 2045996.6  1.0  1.0  5  0 461209923
[01]  G03  f 43    508.6 2045999.3  1.0  1.0  5  0 461209929
[02]  G06  f 38  -2397.1 2046003.1  1.0  1.0  5  0 461209924
[03]  G11  f 39   2313.3 2045997.0  1.0  1.0  5  0 461209921
[04]  G17  f 45  -1724.6 2046002.3  1.0  1.0  5  0 461209927
[05]  G19  f 40  -2491.5 2046003.3  1.0  1.0  5  0 461209925
[06]  G22  f 39   1906.5 2045997.5  1.0  1.0  5  0 461209923
lsq: nits= 2
$GNGGA,080633.000,3112.7148,N,12136.4356,E,1,07,1.6,52.9,M,,,,0000*29
$GNRMC,080633.000,A,3112.7148,N,12136.4356,E,0.23,0.00,240519,,*11
$GPGSA,A,3,01,03,06,11,17,19,22,,,,,,3.2,1.6,2.8*34
$BDGSA,A,3,,,,,,,,,,,,,3.2,1.6,2.8*2F
$GPGSV,2,1,07,01,26,045,39,03,49,071,43,06,32,254,38,11,20,065,39*78
$GPGSV,2,2,07,17,50,331,45,19,33,310,40,22,32,052,39*4F
$LOGTIM,1,-183.995812,0.000000,0.000000,0.000000,-62.708*34
EndT:        1
---00000054--- Acq_st=3 2019-5-24 08:06:33 
[00]  G01  f 39   2631.7 2045996.6  1.0  1.0  5  0 461210923
[01]  G03  f 43    505.9 2045999.4  1.0  1.0  5  0 461210929
[02]  G06  f 38  -2400.1 2046003.1  1.0  1.0  5  0 461210924
[03]  G11  f 39   2309.4 2045997.0  1.0  1.0  5  0 461210921
[04]  G17  f 45  -1727.8 2046002.2  1.0  1.0  5  0 461210927
[05]  G19  f 40  -2494.5 2046003.2  1.0  1.0  5  0 461210925
[06]  G22  f 39   1903.2 2045997.5  1.0  1.0  5  0 461210923
lsq: nits= 2
$GNGGA,080634.000,3112.7149,N,12136.4355,E,1,07,1.6,52.5,M,,,,0000*20
$GNRMC,080634.000,A,3112.7149,N,12136.4355,E,0.04,0.00,240519,,*11
$GPGSA,A,3,01,03,06,11,17,19,22,,,,,,3.2,1.6,2.8*34
$BDGSA,A,3,,,,,,,,,,,,,3.2,1.6,2.8*2F
$GPGSV,2,1,07,01,26,045,39,03,49,071,43,06,32,254,38,11,20,065,39*78
$GPGSV,2,2,07,17,50,331,45,19,33,310,40,22,32,052,39*4F
$LOGTIM,1,-247.057792,0.000000,0.000000,0.000000,-63.037*35
EndT:        1
---00000055--- Acq_st=3 2019-5-24 08:06:34 
[00]  G01  f 39   2622.8 2045996.6  1.0  1.0  5  0 461211923
[01]  G03  f 43    497.6 2045999.4  1.0  1.0  5  0 461211929
[02]  G06  f 38  -2408.5 2046003.1  1.0  1.0  5  0 461211924
[03]  G11  f 39   2301.1 2045997.0  1.0  1.0  5  0 461211921
[04]  G17  f 45  -1736.8 2046002.3  1.0  1.0  5  0 461211927
[05]  G19  f 40  -2503.9 2046003.3  1.0  1.0  5  0 461211925
[06]  G22  f 39   1894.2 2045997.6  1.0  1.0  5  0 461211923
lsq: nits= 2
$GNGGA,080635.000,3112.7150,N,12136.4353,E,1,07,1.6,52.3,M,,,,0000*29
$GNRMC,080635.000,A,3112.7150,N,12136.4353,E,0.76,0.00,240519,,*1B
$GPGSA,A,3,01,03,06,11,17,19,22,,,,,,3.2,1.6,2.8*34
$BDGSA,A,3,,,,,,,,,,,,,3.2,1.6,2.8*2F
$GPGSV,2,1,07,01,26,045,39,03,49,071,43,06,32,254,38,11,20,065,39*78
$GPGSV,2,2,07,17,50,331,45,19,33,310,40,22,32,052,39*4F
$LOGTIM,1,-311.361872,0.000000,0.000000,0.000000,-64.167*33
EndT:        1
ch16 satid=44,max_freq = 0,max_mean = 9247,max_phase = 4005,max_value = 123485,acq ok1!
acq ok1 timeH = 0,timeL = 1041233296,freq_stage = 3
---00000056--- Acq_st=3 2019-5-24 08:06:35 
[00]  G01  f 39   2623.2 2045996.6  1.0  1.0  5  0 461212923
[01]  G03  f 43    498.7 2045999.4  1.0  1.0  5  0 461212929
[02]  G06  f 38  -2408.1 2046003.1  1.0  1.0  5  0 461212924
[03]  G11  f 39   2301.6 2045997.0  1.0  0.9  5  0 461212921
[04]  G17  f 45  -1735.9 2046002.2  1.0  1.0  5  0 461212927
[05]  G19  f 39  -2502.8 2046003.2  1.0  1.0  5  0 461212925
[06]  G22  f 39   1895.8 2045997.5  1.0  1.0  5  0 461212923
[16]  B08  1  7     -6.4 4092000.5 -0.0  0.0  1  0         0
lsq: nits= 2
$GNGGA,080636.000,3112.7154,N,12136.4351,E,1,07,1.6,52.8,M,,,,0000*27
$GNRMC,080636.000,A,3112.7154,N,12136.4351,E,0.63,0.00,240519,,*1A
$GPGSA,A,3,01,03,06,11,17,19,22,,,,,,3.2,1.6,2.8*34
$BDGSA,A,3,,,,,,,,,,,,,3.2,1.6,2.8*2F
$GPGSV,2,1,07,01,26,045,39,03,49,071,43,06,32,254,38,11,20,065,39*78
$GPGSV,2,2,07,17,50,331,45,19,33,310,39,22,32,052,39*41
$LOGTIM,1,-375.713261,0.000000,0.000000,0.000000,-64.378*34
EndT:        0
---00000057--- Acq_st=3 2019-5-24 08:06:36 
[00]  G01  f 39   2621.9 2045996.6  1.0  1.0  5  0 461213923
[01]  G03  f 43    497.6 2045999.4  1.0  1.0  5  0 461213929
[02]  G06  f 39  -2409.7 2046003.1  1.0  1.0  5  0 461213924
[03]  G11  f 39   2299.6 2045997.0  1.0  1.0  5  0 461213921
[04]  G17  f 45  -1737.8 2046002.3  1.0  1.0  5  0 461213927
[05]  G19  f 39  -2504.5 2046003.2  1.0  1.0  5  0 461213925
[06]  G22  f 39   1894.4 2045997.5  1.0  1.0  5  0 461213923
[16]  B08  7 24    -14.7 4092000.0  0.3  0.0 20  0       612
lsq: nits= 2
$GNGGA,080637.000,3112.7159,N,12136.4350,E,1,07,1.6,53.4,M,,,,0000*27
$GNRMC,080637.000,A,3112.7159,N,12136.4350,E,0.69,0.00,240519,,*1D
$GPGSA,A,3,01,03,06,11,17,19,22,,,,,,3.2,1.6,2.8*34
$BDGSA,A,3,,,,,,,,,,,,,3.2,1.6,2.8*2F
$GPGSV,2,1,07,01,26,045,39,03,49,071,43,06,32,254,39,11,20,065,39*79
$GPGSV,2,2,07,17,50,331,45,19,33,310,39,22,32,052,39*41
$BDGSV,1,1,01,08,00,000,24*57
$LOGTIM,1,-440.271724,0.000000,0.000000,0.000000,-64.682*30
EndT:        1
---00000058--- Acq_st=3 2019-5-24 08:06:37 
[00]  G01  f 39   2624.7 2045996.6  1.0  1.0  5  0 461214923
[01]  G03  f 43    501.1 2045999.3  1.0  1.0  5  0 461214929
[02]  G06  f 39  -2406.7 2046003.1  1.0  1.0  5  0 461214924
[03]  G11  f 39   2302.6 2045997.0  1.0  1.0  5  0 461214921
[04]  G17  f 44  -1735.0 2046002.2  1.0  1.0  5  0 461214927
[05]  G19  f 40  -2502.1 2046003.3  1.0  1.0  5  0 461214925
[06]  G22  f 39   1897.0 2045997.6  1.0  1.0  5  0 461214923
[16]  B08  7 40    -13.1 4092000.0  0.9  1.0  5  0      1598
lsq: nits= 2
$GNGGA,080638.000,3112.7165,N,12136.4351,E,1,07,1.6,54.6,M,,,,0000*23
$GNRMC,080638.000,A,3112.7165,N,12136.4351,E,0.37,0.00,240519,,*17
$GPGSA,A,3,01,03,06,11,17,19,22,,,,,,3.2,1.6,2.8*34
$BDGSA,A,3,,,,,,,,,,,,,3.2,1.6,2.8*2F
$GPGSV,2,1,07,01,26,045,39,03,49,071,43,06,32,254,39,11,20,065,39*79
$GPGSV,2,2,07,17,50,331,44,19,33,310,40,22,32,052,39*4E
$BDGSV,1,1,01,08,00,000,40*55
$LOGTIM,1,-504.205774,0.000000,0.000000,0.000000,-64.474*3C
EndT:        0
---00000059--- Acq_st=3 2019-5-24 08:06:38 
[00]  G01  f 39   2629.6 2045996.6  1.0  1.0  5  0 461215923
[01]  G03  f 43    506.7 2045999.4  1.0  1.0  5  0 461215929
[02]  G06  f 39  -2401.3 2046003.1  1.0  1.0  5  0 461215924
[03]  G11  f 39   2307.5 2045997.0  1.0  1.0  5  0 461215921
[04]  G17  f 45  -1730.0 2046002.2  1.0  1.0  5  0 461215927
[05]  G19  f 40  -2497.3 2046003.2  1.0  1.0  5  0 461215925
[06]  G22  f 40   1903.0 2045997.5  1.0  1.0  5  0 461215923
[16]  B08  7 40     -7.3 4092000.0  1.0  1.0  5  0      2598
lsq: nits= 2
$GNGGA,080639.000,3112.7168,N,12136.4353,E,1,07,1.6,55.4,M,,,,0000*2E
$GNRMC,080639.000,A,3112.7168,N,12136.4353,E,0.20,0.00,240519,,*1F
$GPGSA,A,3,01,03,06,11,17,19,22,,,,,,3.2,1.6,2.8*34
$BDGSA,A,3,,,,,,,,,,,,,3.2,1.6,2.8*2F
$GPGSV,2,1,07,01,26,045,39,03,49,071,43,06,32,254,39,11,20,065,39*79
$GPGSV,2,2,07,17,50,331,45,19,33,310,40,22,32,052,40*41
$BDGSV,1,1,01,08,00,000,40*55
$LOGTIM,1,-567.682095,0.000000,0.000000,0.000000,-63.869*3D
EndT:        0
---00000060--- Acq_st=3 2019-5-24 08:06:39 
[00]  G01  f 39   2632.1 2045996.6  1.0  1.0  5  0 461216923
[01]  G03  f 43    509.5 2045999.3  1.0  1.0  5  0 461216929
[02]  G06  f 39  -2398.2 2046003.1  1.0  1.0  5  0 461216924
[03]  G11  f 39   2309.9 2045997.0  1.0  1.0  5  0 461216921
[04]  G17  f 45  -1727.3 2046002.2  1.0  1.0  5  0 461216927
[05]  G19  f 40  -2494.4 2046003.2  1.0  1.0  5  0 461216925
[06]  G22  f 39   1905.9 2045997.6  1.0  1.0  5  0 461216923
[16]  B08 1f 40     -5.0 4092000.0  1.0  1.0  5  0      3598
lsq: nits= 2
$GNGGA,080640.000,3112.7172,N,12136.4356,E,1,07,1.6,55.9,M,,,,0000*23
$GNRMC,080640.000,A,3112.7172,N,12136.4356,E,0.47,0.00,240519,,*1E
$GPGSA,A,3,01,03,06,11,17,19,22,,,,,,3.2,1.6,2.8*34
$BDGSA,A,3,,,,,,,,,,,,,3.2,1.6,2.8*2F
$GPGSV,2,1,07,01,26,045,39,03,49,071,43,06,32,254,39,11,20,065,39*79
$GPGSV,2,2,07,17,50,331,45,19,33,310,40,22,32,052,39*4F
$BDGSV,1,1,01,08,00,000,40*55
$LOGTIM,1,-630.385672,0.000000,0.000000,0.000000,-63.408*3A
EndT:        0
---00000061--- Acq_st=3 2019-5-24 08:06:40 
[00]  G01  f 39   2632.5 2045996.6  1.0  1.0  5  0 461217923
[01]  G03  f 43    510.6 2045999.3  1.0  1.0  5  0 461217929
[02]  G06  f 38  -2397.0 2046003.0  1.0  1.0  5  0 461217924
[03]  G11  f 39   2310.5 2045997.0  1.0  1.0  5  0 461217921
[04]  G17  f 45  -1726.7 2046002.3  1.0  1.0  5  0 461217927
[05]  G19  f 40  -2493.6 2046003.3  1.0  1.0  5  0 461217925
[06]  G22  f 40   1907.1 2045997.5  1.0  1.0  5  0 461217923
[16]  B08 1f 40     -4.3 4092000.0  1.0  1.0  5  0 461203878
lsq: nits= 2
$GNGGA,080641.000,3112.7176,N,12136.4358,E,1,07,1.6,56.3,M,,,,0000*21
$GNRMC,080641.000,A,3112.7176,N,12136.4358,E,0.40,0.00,240519,,*12
$GPGSA,A,3,01,03,06,11,17,19,22,,,,,,3.2,1.6,2.8*34
$BDGSA,A,3,,,,,,,,,,,,,3.2,1.6,2.8*2F
$GPGSV,2,1,07,01,26,045,39,03,49,071,43,06,32,254,38,11,20,065,39*78
$GPGSV,2,2,07,17,50,331,45,19,33,310,40,22,32,052,40*41
$BDGSV,1,1,01,08,00,000,40*55
$LOGTIM,1,-692.898896,0.000000,0.000000,0.000000,-63.218*36
EndT:        1
---00000062--- Acq_st=3 2019-5-24 08:06:41 
[00]  G01  f 39   2627.6 2045996.6  1.0  1.0  5  0 461218923
[01]  G03  f 43    506.6 2045999.4  1.0  1.0  5  0 461218929
[02]  G06  f 38  -2401.7 2046003.1  1.0  1.0  5  0 461218924
[03]  G11  f 39   2306.4 2045997.0  1.0  1.0  5  0 461218921
[04]  G17  f 45  -1731.6 2046002.3  1.0  1.0  5  0 461218927
[05]  G19  f 40  -2498.4 2046003.2  1.0  1.0  5  0 461218925
[06]  G22  f 40   1902.4 2045997.5  1.0  1.0  5  0 461218923
[16]  B08 1f 40     -9.3 4092000.0  1.0  1.0  5  0 461204878
lsq: nits= 2
$GNGGA,080642.000,3112.7179,N,12136.4361,E,1,07,1.6,57.1,M,,,,0000*24
$GNRMC,080642.000,A,3112.7179,N,12136.4361,E,0.14,0.00,240519,,*15
$GPGSA,A,3,01,03,06,11,17,19,22,,,,,,3.2,1.6,2.8*34
$BDGSA,A,3,,,,,,,,,,,,,3.2,1.6,2.8*2F
$GPGSV,2,1,07,01,26,045,39,03,49,071,43,06,32,254,38,11,20,065,39*78
$GPGSV,2,2,07,17,50,331,45,19,33,310,40,22,32,052,40*41
$BDGSV,1,1,01,08,00,000,40*55
$LOGTIM,1,-755.832428,0.000000,0.000000,0.000000,-63.645*39
EndT:        0
---00000063--- Acq_st=3 2019-5-24 08:06:42 
[00]  G01  f 40   2620.3 2045996.6  1.0  1.0  5  0 461219923
[01]  G03  f 43    500.0 2045999.4  1.0  1.0  5  0 461219929
[02]  G06  f 38  -2409.3 2046003.1  1.0  1.0  5  0 461219924
[03]  G11  f 39   2298.6 2045997.0  1.0  1.0  5  0 461219921
[04]  G17  f 45  -1739.0 2046002.3  1.0  1.0  5  0 461219927
[05]  G19  f 40  -2506.0 2046003.2  1.0  1.0  5  0 461219925
[06]  G22  f 39   1895.4 2045997.5  1.0  1.0  5  0 461219923
[16]  B08 1f 40    -16.9 4092000.0  1.0  1.0  5  0 461205878
lsq: nits= 2
$GNGGA,080643.000,3112.7181,N,12136.4364,E,1,07,1.6,57.7,M,,,,0000*21
$GNRMC,080643.000,A,3112.7181,N,12136.4364,E,0.75,0.00,240519,,*11
$GPGSA,A,3,01,03,06,11,17,19,22,,,,,,3.2,1.6,2.8*34
$BDGSA,A,3,,,,,,,,,,,,,3.2,1.6,2.8*2F
$GPGSV,2,1,07,01,26,045,40,03,49,071,43,06,32,254,38,11,20,065,39*76
$GPGSV,2,2,07,17,50,331,45,19,33,310,40,22,32,052,39*4F
$BDGSV,1,1,01,08,00,000,40*55
$LOGTIM,1,-820.124474,0.000000,0.000000,0.000000,-64.644*35
EndT:        0
---00000064--- Acq_st=3 2019-5-24 08:06:43 
[00]  G01  f 40   2618.5 2045996.6  1.0  1.0  5  0 461220923
[01]  G03  f 43    499.2 2045999.4  1.0  1.0  5  0 461220929
[02]  G06  f 38  -2410.6 2046003.2  1.0  1.0  5  0 461220924
[03]  G11  f 39   2296.8 2045997.0  1.0  1.0  5  0 461220921
[04]  G17  f 45  -1740.4 2046002.3  1.0  1.0  5  0 461220927
[05]  G19  f 40  -2506.5 2046003.2  1.0  1.0  5  0 461220925
[06]  G22  f 39   1894.5 2045997.5  1.0  1.0  5  0 461220923
[16]  B08 1f 40    -17.9 4092000.0  1.0  1.0  5  0 461206878
lsq: nits= 2
$GNGGA,080644.000,3112.7182,N,12136.4368,E,1,07,1.6,58.8,M,,,,0000*29
$GNRMC,080644.000,A,3112.7182,N,12136.4368,E,0.72,0.00,240519,,*1E
$GPGSA,A,3,01,03,06,11,17,19,22,,,,,,3.2,1.6,2.8*34
$BDGSA,A,3,,,,,,,,,,,,,3.2,1.6,2.8*2F
$GPGSV,2,1,07,01,26,045,40,03,49,071,43,06,32,254,38,11,20,065,39*76
$GPGSV,2,2,07,17,50,331,45,19,33,310,40,22,32,052,39*4F
$BDGSV,1,1,01,08,00,000,40*55
$LOGTIM,1,-884.905260,0.000000,0.000000,0.000000,-65.075*36
EndT:        0
---00000065--- Acq_st=3 2019-5-24 08:06:44 
[00]  G01  f 40   2619.9 2045996.6  1.0  1.0  5  0 461221923
[01]  G03  f 42    500.3 2045999.4  1.0  1.0  5  0 461221929
[02]  G06  f 39  -2409.3 2046003.1  1.0  1.0  5  0 461221924
[03]  G11  f 40   2298.6 2045997.0  1.0  1.0  5  0 461221921
[04]  G17  f 44  -1739.2 2046002.3  1.0  1.0  5  0 461221927
[05]  G19  f 40  -2506.1 2046003.3  1.0  1.0  5  0 461221925
[06]  G22  f 40   1895.9 2045997.5  1.0  1.0  5  0 461221923
[16]  B08 1f 40    -17.2 4092000.0  1.0  1.0  5  0 461207878
lsq: nits= 2
$GNGGA,080645.000,3112.7184,N,12136.4371,E,1,07,1.6,59.6,M,,,,0000*29
$GNRMC,080645.000,A,3112.7184,N,12136.4371,E,0.43,0.00,240519,,*13
$GPGSA,A,3,01,03,06,11,17,19,22,,,,,,3.2,1.6,2.8*34
$BDGSA,A,3,,,,,,,,,,,,,3.2,1.6,2.8*2F
$GPGSV,2,1,07,01,26,045,40,03,49,071,42,06,32,254,39,11,20,065,40*78
$GPGSV,2,2,07,17,50,331,44,19,33,310,40,22,32,052,40*40
$BDGSV,1,1,01,08,00,000,40*55
$LOGTIM,1,-949.796459,0.000000,0.000000,0.000000,-65.135*3B
EndT:        0
---00000066--- Acq_st=3 2019-5-24 08:06:45 
[00]  G01  f 40   2622.9 2045996.6  1.0  1.0  5  0 461222923
[01]  G03  f 42    504.6 2045999.3  1.0  1.0  5  0 461222929
[02]  G06  f 38  -2405.6 2046003.1  1.0  1.0  5  0 461222924
[03]  G11  f 39   2301.5 2045997.0  1.0  1.0  5  0 461222921
[04]  G17  f 45  -1735.8 2046002.3  1.0  1.0  5  0 461222927
[05]  G19  f 40  -2502.5 2046003.2  1.0  1.0  5  0 461222925
[06]  G22  f 40   1899.5 2045997.5  1.0  1.0  5  0 461222923
[16]  B08 1f 40    -13.6 4092000.0  1.0  1.0  5  0 461208878
lsq: nits= 2
$GNGGA,080646.000,3112.7185,N,12136.4375,E,1,07,1.6,60.3,M,,,,0000*20
$GNRMC,080646.000,A,3112.7185,N,12136.4375,E,0.02,0.00,240519,,*10
$GPGSA,A,3,01,03,06,11,17,19,22,,,,,,3.2,1.6,2.8*34
$BDGSA,A,3,,,,,,,,,,,,,3.2,1.6,2.8*2F
$GPGSV,2,1,07,01,26,045,40,03,49,071,42,06,32,254,38,11,20,065,39*77
$GPGSV,2,2,07,17,50,331,45,19,33,310,40,22,32,052,40*41
$BDGSV,1,1,01,08,00,000,40*55
$LOGTIM,1,-1014.353685,0.000000,0.000000,0.000000,-64.781*0D
EndT:        0
ch17 satid=49,max_freq = 0,max_mean = 9571,max_phase = 2335,max_value = 107667,acq ok1!
acq ok1 timeH = 0,timeL = 1248963541,freq_stage = 3
---00000067--- Acq_st=3 2019-5-24 08:06:46 
[00]  G01  f 40   2624.4 2045996.6  1.0  1.0  5  0 461223923
[01]  G03  f 43    506.3 2045999.3  1.0  1.0  5  0 461223929
[02]  G06  f 38  -2404.4 2046003.2  1.0  1.0  5  0 461223924
[03]  G11  f 40   2302.6 2045997.0  1.0  1.0  5  0 461223921
[04]  G17  f 44  -1734.8 2046002.3  1.0  1.0  5  0 461223927
[05]  G19  f 40  -2501.6 2046003.3  1.0  1.0  5  0 461223925
[06]  G22  f 39   1900.9 2045997.5  1.0  1.0  5  0 461223923
[16]  B08 1f 40    -12.4 4092000.1  1.0  0.9  5  0 461209878
[17]  B13  1  7   -238.2 4092003.2  0.0  0.0  1  0         0
lsq: nits= 2
$GNGGA,080647.000,3112.7185,N,12136.4380,E,1,07,1.6,61.6,M,,,,0000*2F
$GNRMC,080647.000,A,3112.7185,N,12136.4380,E,0.13,0.00,240519,,*1B
$GPGSA,A,3,01,03,06,11,17,19,22,,,,,,3.2,1.6,2.8*34
$BDGSA,A,3,,,,,,,,,,,,,3.2,1.6,2.8*2F
$GPGSV,2,1,07,01,26,045,40,03,49,071,43,06,32,254,38,11,20,065,40*78
$GPGSV,2,2,07,17,50,331,44,19,33,310,40,22,32,052,39*4E
$BDGSV,1,1,01,08,00,000,40*55
$LOGTIM,1,-1078.594472,0.000000,0.000000,0.000000,-64.602*0A
EndT:        0
---00000068--- Acq_st=3 2019-5-24 08:06:47 
[00]  G01  f 40   2622.6 2045996.6  1.0  1.0  5  0 461224923
[01]  G03  f 43    505.6 2045999.4  1.0  1.0  5  0 461224929
[02]  G06  f 38  -2405.0 2046003.1  1.0  1.0  5  0 461224924
[03]  G11  f 39   2301.2 2045997.0  1.0  1.0  5  0 461224921
[04]  G17  f 44  -1736.2 2046002.2  1.0  1.0  5  0 461224927
[05]  G19  f 40  -2503.4 2046003.3  1.0  1.0  5  0 461224925
[06]  G22  f 39   1899.9 2045997.5  1.0  1.0  5  0 461224923
[16]  B08 1f 40    -14.2 4092000.0  1.0  1.0  5  0 461210878
[17]  B13  7 28   -300.3 4092000.7  0.2  0.0 10  0       792
lsq: nits= 2
$GNGGA,080648.000,3112.7186,N,12136.4382,E,1,07,1.6,62.9,M,,,,0000*2D
$GNRMC,080648.000,A,3112.7186,N,12136.4382,E,0.11,0.00,240519,,*17
$GPGSA,A,3,01,03,06,11,17,19,22,,,,,,3.2,1.6,2.8*34
$BDGSA,A,3,,,,,,,,,,,,,3.2,1.6,2.8*2F
$GPGSV,2,1,07,01,26,045,40,03,49,071,43,06,32,254,38,11,20,065,39*76
$GPGSV,2,2,07,17,50,331,44,19,33,310,40,22,32,052,39*4E
$BDGSV,1,1,02,08,00,000,40,13,00,000,28*6E
$LOGTIM,1,-1142.999420,0.000000,0.000000,0.000000,-64.718*0E
EndT:        0
---00000069--- Acq_st=3 2019-5-24 08:06:48 
[00]  G01  f 40   2625.5 2045996.6  1.0  1.0  5  0 461225923
[01]  G03  f 43    509.1 2045999.3  1.0  1.0  5  0 461225929
[02]  G06  f 37  -2401.9 2046003.1  1.0  1.0  5  0 461225924
[03]  G11  f 39   2304.0 2045997.0  1.0  1.0  5  0 461225921
[04]  G17  f 44  -1733.3 2046002.3  1.0  1.0  5  0 461225927
[05]  G19  f 40  -2500.0 2046003.3  1.0  1.0  5  0 461225925
[06]  G22  f 39   1903.2 2045997.5  1.0  1.0  5  0 461225923
[16]  B08 1f 40    -11.6 4092000.0  1.0  1.0  5  0 461211878
[17]  B13  7 41   -297.1 4092000.8  1.0  1.0  5  0      1774
lsq: nits= 2
$GNGGA,080649.000,3112.7190,N,12136.4381,E,1,07,1.6,64.3,M,,,,0000*24
$GNRMC,080649.000,A,3112.7190,N,12136.4381,E,0.34,0.00,240519,,*15
$GPGSA,A,3,01,03,06,11,17,19,22,,,,,,3.2,1.6,2.8*34
$BDGSA,A,3,,,,,,,,,,,,,3.2,1.6,2.8*2F
$GPGSV,2,1,07,01,26,045,40,03,49,071,43,06,32,254,37,11,20,065,39*79
$GPGSV,2,2,07,17,50,331,44,19,33,310,40,22,32,052,39*4E
$BDGSV,1,1,02,08,00,000,40,13,00,000,41*61
$LOGTIM,1,-1207.076269,0.000000,0.000000,0.000000,-64.396*0D
EndT:        0
---00000070--- Acq_st=3 2019-5-24 08:06:49 
[00]  G01  f 40   2626.6 2045996.6  1.0  1.0  5  0 461226923
[01]  G03  f 43    510.6 2045999.4  1.0  1.0  5  0 461226929
[02]  G06  f 37  -2400.5 2046003.2  1.0  0.9  5  0 461226924
[03]  G11  f 39   2305.4 2045997.0  1.0  1.0  5  0 461226921
[04]  G17  f 44  -1732.6 2046002.2  1.0  1.0  5  0 461226927
[05]  G19  f 40  -2499.3 2046003.3  1.0  1.0  5  0 461226925
[06]  G22  f 39   1904.3 2045997.6  1.0  1.0  5  0 461226923
[16]  B08 1f 40    -10.9 4092000.0  1.0  1.0  5  0 461212878
[17]  B13  7 42   -296.7 4092000.8  1.0  1.0  5  0      2774
lsq: nits= 2
$GNGGA,080650.000,3112.7195,N,12136.4377,E,1,07,1.6,65.2,M,,,,0000*20
$GNRMC,080650.000,A,3112.7195,N,12136.4377,E,0.31,0.00,240519,,*14
$GPGSA,A,3,01,03,06,11,17,19,22,,,,,,3.2,1.6,2.8*34
$BDGSA,A,3,,,,,,,,,,,,,3.2,1.6,2.8*2F
$GPGSV,2,1,07,01,26,045,40,03,49,071,43,06,32,254,37,11,20,065,39*79
$GPGSV,2,2,07,17,50,331,44,19,33,310,40,22,32,052,39*4E
$BDGSV,1,1,02,08,00,000,40,13,00,000,42*62
$LOGTIM,1,-1271.149446,0.000000,0.000000,0.000000,-64.275*06
EndT:        0
---00000071--- Acq_st=3 2019-5-24 08:06:50 
[00]  G01  f 40   2623.1 2045996.6  1.0  1.0  5  0 461227923
[01]  G03  f 43    507.4 2045999.3  1.0  1.0  5  0 461227929
[02]  G06  f 37  -2404.6 2046003.2  1.0  1.0  5  0 461227924
[03]  G11  f 39   2301.2 2045997.1  1.0  1.0  5  0 461227921
[04]  G17  f 43  -1736.1 2046002.3  1.0  1.0  5  0 461227927
[05]  G19  f 40  -2502.7 2046003.2  1.0  1.0  5  0 461227925
[06]  G22  f 39   1901.6 2045997.6  1.0  1.0  5  0 461227923
[16]  B08 1f 40    -14.2 4092000.0  1.0  1.0  5  0 461213878
[17]  B13  7 42   -300.0 4092000.8  1.0  1.0  5  0      3774
lsq: nits= 2
$GNGGA,080651.000,3112.7199,N,12136.4373,E,1,07,1.6,65.4,M,,,,0000*2F
$GNRMC,080651.000,A,3112.7199,N,12136.4373,E,0.05,0.00,240519,,*1A
$GPGSA,A,3,01,03,06,11,17,19,22,,,,,,3.2,1.6,2.8*34
$BDGSA,A,3,,,,,,,,,,,,,3.2,1.6,2.8*2F
$GPGSV,2,1,07,01,26,045,40,03,49,071,43,06,32,254,37,11,20,065,39*79
$GPGSV,2,2,07,17,50,331,43,19,33,310,40,22,32,052,39*49
$BDGSV,1,1,02,08,00,000,40,13,00,000,42*62
$LOGTIM,1,-1335.785940,0.000000,0.000000,0.000000,-64.633*0C
EndT:        0
---00000072--- Acq_st=3 2019-5-24 08:06:51 
[00]  G01  f 40   2621.6 2045996.6  1.0  1.0  5  0 461228923
[01]  G03  f 43    507.2 2045999.3  1.0  1.0  5  0 461228929
[02]  G06  f 37  -2405.3 2046003.1  1.0  1.0  5  0 461228924
[03]  G11  f 39   2300.0 2045997.0  1.0  1.0  5  0 461228921
[04]  G17  f 43  -1736.9 2046002.3  1.0  1.0  5  0 461228927
[05]  G19  f 40  -2503.9 2046003.3  1.0  1.0  5  0 461228925
[06]  G22  f 40   1900.7 2045997.5  1.0  1.0  5  0 461228923
[16]  B08 1f 40    -16.0 4092000.0  1.0  1.0  5  0 461214878
[17]  B13 1f 42   -300.9 4092000.8  1.0  1.0  5  0      4774
lsq: nits= 2
$GNGGA,080652.000,3112.7207,N,12136.4364,E,1,07,1.6,65.8,M,,,,0000*22
$GNRMC,080652.000,A,3112.7207,N,12136.4364,E,0.28,0.00,240519,,*14
$GPGSA,A,3,01,03,06,11,17,19,22,,,,,,3.2,1.6,2.8*34
$BDGSA,A,3,,,,,,,,,,,,,3.2,1.6,2.8*2F
$GPGSV,2,1,07,01,26,045,40,03,49,071,43,06,32,254,37,11,20,065,39*79
$GPGSV,2,2,07,17,50,332,43,19,33,310,40,22,32,052,40*44
$BDGSV,1,1,02,08,00,000,40,13,00,000,42*62
$LOGTIM,1,-1400.721455,0.000000,0.000000,0.000000,-64.815*00
EndT:        0
---00000073--- Acq_st=3 2019-5-24 08:06:52 
[00]  G01  f 40   2621.3 2045996.6  1.0  1.0  5  0 461229923
[01]  G03  f 44    507.1 2045999.3  1.0  1.0  5  0 461229929
[02]  G06  f 36  -2405.7 2046003.1  1.0  1.0  5  0 461229924
[03]  G11  f 40   2299.8 2045997.0  1.0  1.0  5  0 461229921
[04]  G17  f 43  -1737.8 2046002.3  1.0  1.0  5  0 461229927
[05]  G19  f 40  -2504.4 2046003.3  1.0  1.0  5  0 461229925
[06]  G22  f 40   1900.6 2045997.5  1.0  1.0  5  0 461229923
[16]  B08 1f 40    -16.2 4092000.0  1.0  1.0  5  0 461215878
[17]  B13 1f 42   -301.8 4092000.8  1.0  1.0  5  0 461215874
lsq: nits= 2
$GNGGA,080653.000,3112.7216,N,12136.4353,E,1,07,1.6,65.2,M,,,,0000*2D
