FlashID=0x1 0x20 0x18
BBram_blkflag1: 32da: cd25
FW Ver: 1.30  
GPS00 Init Dop:   5000, 40
GPS01 Init Dop:   5000, 40
GPS02 Init Dop:   5000, 40
GPS03 Init Dop:   5000, 40
GPS04 Init Dop:   5000, 40
GPS05 Init Dop:   5000, 40
GPS06 Init Dop:   5000, 40
GPS07 Init Dop:   5000, 40
GPS08 Init Dop:   5000, 40
GPS09 Init Dop:   5000, 40
GPS10 Init Dop:   5000, 40
GPS11 Init Dop:   5000, 40
GPS12 Init Dop:   5000, 40
GPS13 Init Dop:   5000, 40
GPS14 Init Dop:   5000, 40
GPS15 Init Dop:   5000, 40
GPS16 Init Dop:   5000, 40
GPS17 Init Dop:   5000, 40
GPS18 Init Dop:   5000, 40
GPS19 Init Dop:   5000, 40
GPS20 Init Dop:   5000, 40
GPS21 Init Dop:   5000, 40
GPS22 Init Dop:   5000, 40
GPS23 Init Dop:   5000, 40
GPS24 Init Dop:   5000, 40
GPS25 Init Dop:   5000, 40
GPS26 Init Dop:   5000, 40
GPS27 Init Dop:   5000, 40
GPS28 Init Dop:   5000, 40
GPS29 Init Dop:   5000, 40
GPS30 Init Dop:   5000, 40
GPS31 Init Dop:   5000, 40
BDS00 Init Dop:   5000, 40
BDS01 Init Dop:   5000, 40
BDS02 Init Dop:   5000, 40
BDS03 Init Dop:   5000, 40
BDS04 Init Dop:   5000, 40
BDS05 Init Dop:   5000, 40
BDS06 Init Dop:   5000, 40
BDS07 Init Dop:   5000, 40
BDS08 Init Dop:   5000, 40
BDS09 Init Dop:   5000, 40
BDS10 Init Dop:   5000, 40
BDS11 Init Dop:   5000, 40
BDS12 Init Dop:   5000, 40
BDS13 Init Dop:   5000, 40
BDS14 Init Dop:   5000, 40
BDS15 Init Dop:   5000, 40
BDS16 Init Dop:   5000, 40
BDS17 Init Dop:   5000, 40
BDS18 Init Dop:   5000, 40
BDS19 Init Dop:   5000, 40
BDS20 Init Dop:   5000, 40
BDS21 Init Dop:   5000, 40
BDS22 Init Dop:   5000, 40
BDS23 Init Dop:   5000, 40
BDS24 Init Dop:   5000, 40
BDS25 Init Dop:   5000, 40
BDS26 Init Dop:   5000, 40
BDS27 Init Dop:   5000, 40
BDS28 Init Dop:   5000, 40
BDS29 Init Dop:   5000, 40
BDS30 Init Dop:   5000, 40
BDS31 Init Dop:   5000, 40
good luck!
---00000001--- Acq_st=3 2019-5-22 02:51:4 
[00]  G04  1 11  -1320.0 2046002.4 -0.0  0.0  1  0         0
$GNGGA,000000.000,,,,,0,00,,,M,,,,0000*2B
$GNRMC,000000.000,A,,,,,,,000000,,*26
$GPGSA,A,1,,,,,,,,,,,,,,,*1E
$BDGSA,A,1,,,,,,,,,,,,,,,*0F
$LOGTIM,0,0.000000,0.000000,0.000000,0.000000,0.000*0A
EndT:        0
---00000002--- Acq_st=3 2019-5-22 02:51:5 
[00]  G04  7 17  -1343.6 2046001.7  0.1  0.0 20  0        18
[01]  G07  1 27  -3572.3 2046005.4 -0.0  0.0  1  0         0
[02]  G08  1 26  -1530.3 2046003.2  0.1  0.0  1  0         0
[03]  G09  1 24   -162.2 2046001.1  0.0  0.0  1  0         0
$GNGGA,000000.000,,,,,0,00,,,M,,,,0000*2B
$GNRMC,000000.000,A,,,,,,,000000,,*26
$GPGSA,A,1,,,,,,,,,,,,,,,*1E
$BDGSA,A,1,,,,,,,,,,,,,,,*0F
$GPGSV,1,1,01,04,00,000,17*4A
$LOGTIM,0,0.000000,0.000000,0.000000,0.000000,0.000*0A
EndT:        0
---00000003--- Acq_st=3 2019-5-22 02:51:6 
[00]  G04  7 41  -1343.5 2046001.8  1.0  1.0  5  0        10
[01]  G07  7 31  -3566.7 2046004.6  0.5  1.0  5  0         8
[02]  G08  7 29  -1533.6 2046001.9  0.4  1.0  5  0         5
[03]  G09  7 27   -163.3 2046000.1  0.4  0.0 20  0         2
[04]  G16  1 22   1171.9 2045999.3  0.1  0.0  1  0         0
$GNGGA,000000.000,,,,,0,00,,,M,,,,0000*2B
$GNRMC,000000.000,A,,,,,,,000000,,*26
$GPGSA,A,1,,,,,,,,,,,,,,,*1E
$BDGSA,A,1,,,,,,,,,,,,,,,*0F
$GPGSV,1,1,04,04,00,000,41,07,00,000,31,08,00,000,29,09,00,000,27*76
$LOGTIM,0,0.000000,0.000000,0.000000,0.000000,0.000*0A
EndT:        0
---00000004--- Acq_st=3 2019-5-22 02:51:7 
[00]  G04  7 41  -1346.1 2046001.7  1.0  1.0  5  0        10
[01]  G07  7 39  -3569.5 2046004.6  1.0  1.0  5  0        10
[02]  G08  7 44  -1535.2 2046001.9  1.0  1.0  5  0        19
[03]  G09  7 44   -165.5 2046000.2  1.0  1.0  5  0        13
[04]  G16  7 26   1159.8 2045998.4  0.3  0.0 20  0        18
[05]  G21  1 30   1977.6 2045997.7 -0.1  0.0  1  0         0
[06]  G26  1  9   1713.8 2045998.3 -0.0  0.0  1  0         0
[07]  G27  1  7    813.1 2046002.1 -0.0  0.0  1  0         0
$GNGGA,000000.000,,,,,0,00,,,M,,,,0000*2B
$GNRMC,000000.000,A,,,,,,,000000,,*26
$GPGSA,A,1,,,,,,,,,,,,,,,*1E
$BDGSA,A,1,,,,,,,,,,,,,,,*0F
$GPGSV,2,1,05,04,00,000,41,07,00,000,39,08,00,000,44,09,00,000,44*72
$GPGSV,2,2,05,16,00,000,26*4F
$LOGTIM,0,0.000000,0.000000,0.000000,0.000000,0.000*0A
EndT:        0
---00000005--- Acq_st=3 2019-5-22 02:51:8 
[00]  G04  f 41  -1346.5 2046001.8  1.0  1.0  5  0        10
[01]  G07  f 39  -3571.1 2046004.6  1.0  1.0  5  0        10
[02]  G08  f 44  -1536.4 2046002.0  1.0  1.0  5  0        19
[03]  G09  f 45   -166.6 2046000.2  1.0  1.0  5  0        13
[04]  G16  7 40   1158.4 2045998.5  0.9  1.0  5  0        16
[05]  G21  7 31   1966.3 2045997.4  0.6  1.0  5  0         1
[06]  G26  1 30   1691.0 2045997.8  0.1  0.0  1  0         5
[07]  G27  1 37    781.3 2045998.8  0.2  0.0  1  0         1
$GNGGA,000000.000,,,,,0,00,,,M,,,,0000*2B
$GNRMC,000000.000,A,,,,,,,000000,,*26
$GPGSA,A,1,,,,,,,,,,,,,,,*1E
$BDGSA,A,1,,,,,,,,,,,,,,,*0F
$GPGSV,2,1,06,04,00,000,41,07,00,000,39,08,00,000,44,09,00,000,45*70
$GPGSV,2,2,06,16,00,000,40,21,00,000,31*7D
$LOGTIM,0,0.000000,0.000000,0.000000,0.000000,0.000*0A
EndT:        0
---00000006--- Acq_st=3 2019-5-22 02:51:9 
[00]  G04  f 41  -1346.3 2046001.7  1.0  1.0  5  0 269486050
[01]  G07  f 40  -3571.2 2046004.6  1.0  1.0  5  0 269486050
[02]  G08  f 44  -1536.2 2046002.0  1.0  1.0  5  0 269486059
[03]  G09  f 45   -165.9 2046000.2  1.0  1.0  5  0 269486053
[04]  G16  7 39   1158.4 2045998.4  1.0  1.0  5  0        16
[05]  G21  7 41   1967.0 2045997.4  1.0  1.0  5  0         3
[06]  G26  7 36   1690.8 2045997.7  0.9  1.0  5  0         5
[07]  G27  7 35    782.6 2045998.9  0.8  1.0  5  0         1
$GNGGA,000000.000,,,,,0,00,,,M,,,,0000*2B
$GNRMC,000000.000,A,,,,,,,000000,,*26
$GPGSA,A,1,,,,,,,,,,,,,,,*1E
$BDGSA,A,1,,,,,,,,,,,,,,,*0F
$GPGSV,2,1,08,04,00,000,41,07,00,000,40,08,00,000,44,09,00,000,45*70
$GPGSV,2,2,08,16,00,000,39,21,00,000,41,26,00,000,36,27,00,000,35*78
$LOGTIM,0,0.000000,0.000000,0.000000,0.000000,0.000*0A
EndT:        0
---00000007--- Acq_st=3 2019-5-22 02:51:10 
[00]  G04  f 42  -1345.1 2046001.8  1.0  1.0  5  0 269487050
[01]  G07  f 39  -3570.2 2046004.6  1.0  1.0  5  0 269487050
[02]  G08  f 45  -1534.8 2046002.0  1.0  1.0  5  0 269487059
[03]  G09  f 45   -164.8 2046000.2  1.0  1.0  5  0 269487053
[04]  G16  7 39   1158.9 2045998.4  1.0  1.0  5  0        16
[05]  G21  7 40   1967.8 2045997.4  1.0  1.0  5  0         3
[06]  G26  7 38   1691.4 2045997.7  1.0  1.0  5  0        11
[07]  G27  7 46    783.5 2045998.9  1.0  1.0  5  0         0
[16]  B07  1  7   -550.4 4092002.7  0.1  0.0  1  0         0
$GNGGA,000000.000,,,,,0,00,,,M,,,,0000*2B
$GNRMC,000000.000,A,,,,,,,000000,,*26
$GPGSA,A,1,,,,,,,,,,,,,,,*1E
$BDGSA,A,1,,,,,,,,,,,,,,,*0F
$GPGSV,2,1,08,04,00,000,42,07,00,000,39,08,00,000,45,09,00,000,45*7C
$GPGSV,2,2,08,16,00,000,39,21,00,000,40,26,00,000,38,27,00,000,46*73
$LOGTIM,0,0.000000,0.000000,0.000000,0.000000,0.000*0A
EndT:        0
---00000008--- Acq_st=3 2019-5-22 02:51:11 
[00]  G04  f 42  -1344.6 2046001.8  1.0  1.0  5  0 269488050
[01]  G07  f 39  -3569.6 2046004.6  1.0  1.0  5  0 269488050
[02]  G08  f 45  -1534.4 2046002.0  1.0  1.0  5  0 269488059
[03]  G09  f 45   -164.1 2046000.2  1.0  1.0  5  0 269488053
[04]  G16  7 40   1159.2 2045998.5  1.0  1.0  5  0        16
[05]  G21  7 41   1968.6 2045997.4  1.0  1.0  5  0         3
[06]  G26  7 39   1691.6 2045997.8  1.0  1.0  5  0        11
[07]  G27  7 46    784.2 2045998.9  1.0  1.0  5  0         0
[16]  B07  1  7   -580.6 4092001.7  0.2  0.0  1  0       263
[17]  B10  1  7   -596.3 4092001.6 -0.0  0.0  1  0         0
$GNGGA,000000.000,,,,,0,00,,,M,,,,0000*2B
$GNRMC,000000.000,A,,,,,,,000000,,*26
$GPGSA,A,1,,,,,,,,,,,,,,,*1E
$BDGSA,A,1,,,,,,,,,,,,,,,*0F
$GPGSV,2,1,08,04,00,000,42,07,00,000,39,08,00,000,45,09,00,000,45*7C
$GPGSV,2,2,08,16,00,000,40,21,00,000,41,26,00,000,39,27,00,000,46*7D
$LOGTIM,0,0.000000,0.000000,0.000000,0.000000,0.000*0A
EndT:        0
---00000009--- Acq_st=3 2019-5-22 02:51:12 
[00]  G04  f 41  -1342.9 2046001.8  1.0  1.0  5  0 269489050
[01]  G07  f 40  -3569.4 2046004.6  1.0  1.0  5  0 269489050
[02]  G08  f 44  -1533.3 2046002.0  1.0  1.0  5  0 269489059
[03]  G09  f 45   -163.0 2046000.2  1.0  1.0  5  0 269489053
[04]  G16  7 39   1160.3 2045998.5  1.0  1.0  5  0        16
[05]  G21  7 41   1969.0 2045997.4  1.0  1.0  5  0         3
[06]  G26  7 39   1691.6 2045997.8  1.0  1.0  5  0        11
[07]  G27  7 46    785.4 2045998.9  1.0  1.0  5  0         0
[16]  B07  7 38   -580.2 4092001.5  1.0  1.0  5  0      1263
[17]  B10  7  7   -632.3 4092001.7  0.2  0.0 20  0       346
$GNGGA,000000.000,,,,,0,00,,,M,,,,0000*2B
$GNRMC,000000.000,A,,,,,,,000000,,*26
$GPGSA,A,1,,,,,,,,,,,,,,,*1E
$BDGSA,A,1,,,,,,,,,,,,,,,*0F
$GPGSV,2,1,08,04,00,000,41,07,00,000,40,08,00,000,44,09,00,000,45*70
$GPGSV,2,2,08,16,00,000,39,21,00,000,41,26,00,000,39,27,00,000,46*73
$BDGSV,1,1,01,07,00,000,38*55
$LOGTIM,0,0.000000,0.000000,0.000000,0.000000,0.000*0A
EndT:        0
---00000010--- Acq_st=3 2019-5-22 02:51:13 
[00]  G04  f 41  -1341.3 2046001.8  1.0  1.0  5  0 269490050
[01]  G07  f 40  -3567.6 2046004.6  1.0  1.0  5  0 269490050
[02]  G08  f 44  -1531.0 2046002.0  1.0  1.0  5  0 269490059
[03]  G09  f 45   -161.2 2046000.2  1.0  1.0  5  0 269490053
[04]  G16  7 39   1161.5 2045998.5  1.0  1.0  5  0        16
[05]  G21  7 40   1971.0 2045997.4  1.0  1.0  5  0         3
[06]  G26  7 38   1693.6 2045997.8  1.0  1.0  5  0        11
[07]  G27  7 47    787.1 2045998.9  1.0  1.0  5  0         0
[16]  B07  7 41   -579.0 4092001.5  1.0  1.0  5  0      2246
[17]  B10  7 46   -631.7 4092001.7  0.8  1.0  5  0      1343
$GNGGA,000000.000,,,,,0,00,,,M,,,,0000*2B
$GNRMC,000000.000,A,,,,,,,000000,,*26
$GPGSA,A,1,,,,,,,,,,,,,,,*1E
$BDGSA,A,1,,,,,,,,,,,,,,,*0F
$GPGSV,2,1,08,04,00,000,41,07,00,000,40,08,00,000,44,09,00,000,45*70
$GPGSV,2,2,08,16,00,000,39,21,00,000,40,26,00,000,38,27,00,000,47*72
$BDGSV,1,1,02,07,00,000,41,10,00,000,46*6B
$LOGTIM,0,0.000000,0.000000,0.000000,0.000000,0.000*0A
EndT:        0
---00000011--- Acq_st=3 2019-5-22 02:51:14 
[00]  G04  f 40  -1339.4 2046001.7  1.0  1.0  5  0 269491050
[01]  G07  f 39  -3566.1 2046004.6  1.0  1.0  5  0 269491050
[02]  G08  f 44  -1529.2 2046002.0  1.0  1.0  5  0 269491059
[03]  G09  f 44   -159.1 2046000.2  1.0  1.0  5  0 269491053
[04]  G16  f 38   1163.0 2045998.5  1.0  1.0  5  0        16
[05]  G21  f 41   1972.5 2045997.4  1.0  1.0  5  0         3
[06]  G26  f 40   1694.9 2045997.8  1.0  1.0  5  0        11
[07]  G27  f 47    788.8 2045998.9  1.0  1.0  5  0         0
[16]  B07  7 41   -577.3 4092001.5  1.0  1.0  5  0      3246
[17]  B10  7 45   -630.5 4092001.7  1.0  1.0  5  0      2343
$GNGGA,000000.000,,,,,0,00,,,M,,,,0000*2B
$GNRMC,000000.000,A,,,,,,,000000,,*26
$GPGSA,A,1,,,,,,,,,,,,,,,*1E
$BDGSA,A,1,,,,,,,,,,,,,,,*0F
$GPGSV,2,1,08,04,00,000,40,07,00,000,39,08,00,000,44,09,00,000,44*7E
$GPGSV,2,2,08,16,00,000,38,21,00,000,41,26,00,000,40,27,00,000,47*7D
$BDGSV,1,1,02,07,00,000,41,10,00,000,45*68
$LOGTIM,0,0.000000,0.000000,0.000000,0.000000,0.000*0A
EndT:        0
---00000012--- Acq_st=3 2019-5-22 02:51:15 
[00]  G04  f 41  -1333.1 2046001.7  1.0  1.0  5  0 269492050
[01]  G07  f 38  -3560.9 2046004.6  1.0  1.0  5  0 269492050
[02]  G08  f 43  -1523.3 2046002.0  1.0  1.0  5  0 269492059
[03]  G09  f 44   -153.2 2046000.2  1.0  1.0  5  0 269492053
[04]  G16  f 38   1168.8 2045998.5  1.0  1.0  5  0 269492056
[05]  G21  f 40   1978.3 2045997.4  1.0  1.0  5  0 269492043
[06]  G26  f 39   1700.6 2045997.8  1.0  1.0  5  0 269492051
[07]  G27  f 47    794.9 2045999.0  1.0  1.0  5  0 269492060
[16]  B07  7 41   -571.9 4092001.5  1.0  1.0  5  0      4246
[17]  B10  7 46   -625.2 4092001.7  1.0  1.0  5  0      3343
$GNGGA,000000.000,,,,,0,00,,,M,,,,0000*2B
$GNRMC,000000.000,A,,,,,,,000000,,*26
$GPGSA,A,1,,,,,,,,,,,,,,,*1E
$BDGSA,A,1,,,,,,,,,,,,,,,*0F
$GPGSV,2,1,08,04,00,000,41,07,00,000,38,08,00,000,43,09,00,000,44*79
$GPGSV,2,2,08,16,00,000,38,21,00,000,40,26,00,000,39,27,00,000,47*72
$BDGSV,1,1,02,07,00,000,41,10,00,000,46*6B
$LOGTIM,0,0.000000,0.000000,0.000000,0.000000,0.000*0A
EndT:        0
---00000013--- Acq_st=3 2019-5-22 02:51:16 
[00]  G04  f 42  -1333.4 2046001.7  1.0  1.0  5  0 269493050
[01]  G07  f 40  -3561.5 2046004.6  1.0  1.0  5  0 269493050
[02]  G08  f 43  -1523.4 2046002.0  1.0  1.0  5  0 269493059
[03]  G09  f 43   -153.2 2046000.2  1.0  1.0  5  0 269493053
[04]  G16  f 38   1168.3 2045998.5  1.0  1.0  5  0 269493056
[05]  G21  f 41   1978.3 2045997.4  1.0  1.0  5  0 269493043
[06]  G26  f 39   1699.9 2045997.8  1.0  1.0  5  0 269493051
[07]  G27  f 47    794.9 2045998.9  1.0  1.0  5  0 269493060
[16]  B07 1f 41   -572.5 4092001.5  1.0  1.0  5  0      5246
[17]  B10 1f 46   -625.9 4092001.6  1.0  1.0  5  0      4343
$GNGGA,000000.000,,,,,0,00,,,M,,,,0000*2B
$GNRMC,000000.000,A,,,,,,,000000,,*26
$GPGSA,A,1,,,,,,,,,,,,,,,*1E
$BDGSA,A,1,,,,,,,,,,,,,,,*0F
$GPGSV,2,1,08,04,00,000,42,07,00,000,40,08,00,000,43,09,00,000,43*72
$GPGSV,2,2,08,16,00,000,38,21,00,000,41,26,00,000,39,27,00,000,47*73
$BDGSV,1,1,02,07,00,000,41,10,00,000,46*6B
$LOGTIM,0,0.000000,0.000000,0.000000,0.000000,0.000*0A
EndT:        0
---00000014--- Acq_st=3 2019-5-22 02:51:17 
[00]  G04  f 41  -1335.7 2046001.7  1.0  1.0  5  0 269494050
[01]  G07  f 40  -3564.0 2046004.6  1.0  1.0  5  0 269494050
[02]  G08  f 43  -1525.9 2046002.0  1.0  1.0  5  0 269494059
[03]  G09  f 42   -155.5 2046000.2  1.0  1.0  5  0 269494053
[04]  G16  f 38   1165.3 2045998.5  1.0  1.0  5  0 269494056
[05]  G21  f 40   1975.2 2045997.4  1.0  1.0  5  0 269494043
[06]  G26  f 39   1697.0 2045997.8  1.0  0.9  5  0 269494051
[07]  G27  f 47    792.2 2045999.0  1.0  1.0  5  0 269494060
[16]  B07 1f 41   -575.7 4092001.6  1.0  1.0  5  0 269480006
[17]  B10 1f 46   -628.9 4092001.6  1.0  1.0  5  0 269480003
[18]  B28  1  7   1751.0 4091995.0 -0.1  0.0  1  0         0
$GNGGA,000000.000,,,,,0,00,,,M,,,,0000*2B
$GNRMC,000000.000,A,,,,,,,000000,,*26
$GPGSA,A,1,,,,,,,,,,,,,,,*1E
$BDGSA,A,1,,,,,,,,,,,,,,,*0F
$GPGSV,2,1,08,04,00,000,41,07,00,000,40,08,00,000,43,09,00,000,42*70
$GPGSV,2,2,08,16,00,000,38,21,00,000,40,26,00,000,39,27,00,000,47*72
$BDGSV,1,1,02,07,00,000,41,10,00,000,46*6B
$LOGTIM,0,0.000000,0.000000,0.000000,0.000000,0.000*0A
EndT:        0
---00000015--- Acq_st=7 2019-5-22 02:51:18 
[00]  G04  f 41  -1337.0 2046001.7  1.0  1.0  5  0 269495050
[01]  G07  f 41  -3565.8 2046004.6  1.0  1.0  5  0 269495050
[02]  G08  f 43  -1527.3 2046002.0  1.0  1.0  5  0 269495059
[03]  G09  f 43   -156.7 2046000.2  1.0  1.0  5  0 269495053
[04]  G16  f 38   1163.5 2045998.5  1.0  1.1  5  0 269495056
[05]  G21  f 41   1973.9 2045997.4  1.0  1.0  5  0 269495043
[06]  G26  f 38   1695.2 2045997.8  1.0  1.0  5  0 269495051
[07]  G27  f 48    790.9 2045999.0  1.0  1.0  5  0 269495060
[16]  B07 1f 41   -577.5 4092001.5  1.0  1.0  5  0 269481006
[17]  B10 1f 46   -630.9 4092001.7  1.0  1.0  5  0 269481003
[18]  B28  7 28   1749.4 4091995.3  0.5  1.0 10  0       844
$GNGGA,000000.000,,,,,0,00,,,M,,,,0000*2B
$GNRMC,000000.000,A,,,,,,,000000,,*26
$GPGSA,A,1,,,,,,,,,,,,,,,*1E
$BDGSA,A,1,,,,,,,,,,,,,,,*0F
$GPGSV,2,1,08,04,00,000,41,07,00,000,41,08,00,000,43,09,00,000,43*70
$GPGSV,2,2,08,16,00,000,38,21,00,000,41,26,00,000,38,27,00,000,48*7D
$BDGSV,1,1,03,07,00,000,41,10,00,000,46,28,00,000,28*5A
$LOGTIM,0,0.000000,0.000000,0.000000,0.000000,0.000*0A
EndT:        0
---00000016--- Acq_st=7 2019-5-22 02:51:19 
[00]  G04  f 41  -1337.8 2046001.8  1.0  1.0  5  0 269496050
[01]  G07  f 41  -3568.1 2046004.6  1.0  1.0  5  0 269496050
[02]  G08  f 43  -1528.5 2046002.0  1.0  1.0  5  0 269496059
[03]  G09  f 44   -157.8 2046000.2  1.0  1.0  5  0 269496053
[04]  G16  f 38   1161.8 2045998.5  1.0  1.0  5  0 269496056
[05]  G21  f 41   1972.5 2045997.4  1.0  1.0  5  0 269496043
[06]  G26  f 37   1693.3 2045997.8  1.0  1.0  5  0 269496051
[07]  G27  f 49    790.0 2045999.0  1.0  1.0  5  0 269496060
[16]  B07 1f 41   -579.3 4092001.5  1.0  1.0  5  0 269482006
[17]  B10 1f 46   -632.1 4092001.6  1.0  1.0  5  0 269482003
[18]  B28  7 39   1748.5 4091995.4  1.0  0.9  5  0      1831
$GNGGA,000000.000,,,,,0,00,,,M,,,,0000*2B
$GNRMC,000000.000,A,,,,,,,000000,,*26
$GPGSA,A,1,,,,,,,,,,,,,,,*1E
$BDGSA,A,1,,,,,,,,,,,,,,,*0F
$GPGSV,2,1,08,04,00,000,41,07,00,000,41,08,00,000,43,09,00,000,44*77
$GPGSV,2,2,08,16,00,000,38,21,00,000,41,26,00,000,37,27,00,000,49*73
$BDGSV,1,1,03,07,00,000,41,10,00,000,46,28,00,000,39*5A
$LOGTIM,0,0.000000,0.000000,0.000000,0.000000,0.000*0A
EndT:        0
---00000017--- Acq_st=3 2019-5-22 02:51:20 
[00]  G04  f 41  -1338.9 2046001.7  1.0  1.0  5  0 269497050
[01]  G07  f 39  -3568.6 2046004.7  1.0  1.0  5  0 269497050
[02]  G08  f 42  -1529.3 2046002.0  1.0  1.0  5  0 269497059
[03]  G09  f 44   -158.4 2046000.2  1.0  1.0  5  0 269497053
[04]  G16  f 39   1161.1 2045998.5  1.0  1.0  5  0 269497056
[05]  G21  f 40   1971.8 2045997.4  1.0  1.0  5  0 269497043
[06]  G26  f 36   1692.6 2045997.8  1.0  1.0  5  0 269497051
[07]  G27  f 49    789.2 2045999.0  1.0  1.0  5  0 269497060
[16]  B07 1f 41   -580.6 4092001.5  1.0  1.0  5  0 269483006
[17]  B10 1f 46   -633.6 4092001.6  1.0  1.0  5  0 269483003
[18]  B28  7 40   1748.0 4091995.3  1.0  1.0  5  0      2831
$GNGGA,000000.000,,,,,0,00,,,M,,,,0000*2B
$GNRMC,000000.000,A,,,,,,,000000,,*26
$GPGSA,A,1,,,,,,,,,,,,,,,*1E
$BDGSA,A,1,,,,,,,,,,,,,,,*0F
$GPGSV,2,1,08,04,00,000,41,07,00,000,39,08,00,000,42,09,00,000,44*79
$GPGSV,2,2,08,16,00,000,39,21,00,000,40,26,00,000,36,27,00,000,49*72
$BDGSV,1,1,03,07,00,000,41,10,00,000,46,28,00,000,40*54
$LOGTIM,0,0.000000,0.000000,0.000000,0.000000,0.000*0A
EndT:        0
---00000018--- Acq_st=3 2019-5-22 02:51:21 
[00]  G04  f 42  -1338.0 2046001.7  1.0  1.0  5  0 269498050
[01]  G07  f 38  -3568.5 2046004.7  1.0  0.9  5  0 269498050
[02]  G08  f 42  -1528.5 2046002.0  1.0  1.0  5  0 269498059
[03]  G09  f 45   -157.5 2046000.2  1.0  1.0  5  0 269498053
[04]  G16  f 39   1161.0 2045998.5  1.0  1.0  5  0 269498056
[05]  G21  f 39   1972.2 2045997.5  1.0  1.0  5  0 269498043
[06]  G26  f 36   1692.4 2045997.8  1.0  1.0  5  0 269498050
[07]  G27  f 49    789.8 2045999.0  1.0  1.0  5  0 269498060
[16]  B07 1f 41   -580.1 4092001.5  1.0  1.0  5  0 269484006
[17]  B10 1f 46   -633.7 4092001.6  1.0  1.0  5  0 269484003
[18]  B28  7 39   1748.4 4091995.4  1.0  1.0  5  0      3831
$GNGGA,000000.000,,,,,0,00,,,M,,,,0000*2B
$GNRMC,000000.000,A,,,,,,,000000,,*26
$GPGSA,A,1,,,,,,,,,,,,,,,*1E
$BDGSA,A,1,,,,,,,,,,,,,,,*0F
$GPGSV,2,1,08,04,00,000,42,07,00,000,38,08,00,000,42,09,00,000,45*7A
$GPGSV,2,2,08,16,00,000,39,21,00,000,39,26,00,000,36,27,00,000,49*7C
$BDGSV,1,1,03,07,00,000,41,10,00,000,46,28,00,000,39*5A
$LOGTIM,0,0.000000,0.000000,0.000000,0.000000,0.000*0A
EndT:        0
---00000019--- Acq_st=3 2019-5-22 02:51:22 
[00]  G04  f 42  -1335.4 2046001.7  1.0  1.0  5  0 269499050
[01]  G07  f 37  -3566.9 2046004.6  1.0  0.9  5  0 269499050
[02]  G08  f 42  -1525.9 2046002.0  1.0  1.0  5  0 269499059
[03]  G09  f 45   -155.3 2046000.2  1.0  1.0  5  0 269499053
[04]  G16  f 40   1162.8 2045998.5  1.0  1.0  5  0 269499056
[05]  G21  f 39   1974.6 2045997.4  1.0  1.0  5  0 269499043
[06]  G26  f 37   1694.5 2045997.8  1.0  1.0  5  0 269499050
[07]  G27  f 50    792.1 2045999.0  1.0  1.0  5  0 269499060
[16]  B07 1f 41   -578.7 4092001.5  1.0  1.0  5  0 269485006
[17]  B10 1f 46   -631.7 4092001.6  1.0  1.0  5  0 269485003
[18]  B28 1f 40   1750.3 4091995.4  1.0  1.0  5  0      4831
$GNGGA,000000.000,,,,,0,00,,,M,,,,0000*2B
$GNRMC,000000.000,A,,,,,,,000000,,*26
$GPGSA,A,1,,,,,,,,,,,,,,,*1E
$BDGSA,A,1,,,,,,,,,,,,,,,*0F
$GPGSV,2,1,08,04,00,000,42,07,00,000,37,08,00,000,42,09,00,000,45*75
$GPGSV,2,2,08,16,00,000,40,21,00,000,39,26,00,000,37,27,00,000,50*7B
$BDGSV,1,1,03,07,00,000,41,10,00,000,46,28,00,000,40*54
$LOGTIM,0,0.000000,0.000000,0.000000,0.000000,0.000*0A
EndT:        0
---00000020--- Acq_st=3 2019-5-22 02:51:23 
[00]  G04  f 42  -1333.7 2046001.8  1.0  1.0  5  0 269500050
[01]  G07  f 37  -3565.2 2046004.6  1.0  1.0  5  0 269500050
[02]  G08  f 42  -1524.7 2046002.0  1.0  1.0  5  0 269500059
[03]  G09  f 44   -153.2 2046000.2  1.0  1.0  5  0 269500053
[04]  G16  f 40   1164.4 2045998.5  1.0  1.0  5  0 269500056
[05]  G21  f 40   1975.8 2045997.4  1.0  1.0  5  0 269500043
[06]  G26  f 36   1694.9 2045997.8  1.0  1.0  5  0 269500050
[07]  G27  f 49    793.9 2045998.9  1.0  1.0  5  0 269500060
[16]  B07 1f 41   -577.5 4092001.5  1.0  1.0  5  0 269486006
[17]  B10 1f 46   -630.8 4092001.6  1.0  1.0  5  0 269486003
[18]  B28 1f 40   1751.9 4091995.4  1.0  1.0  5  0 269486051
$GNGGA,000000.000,,,,,0,00,,,M,,,,0000*2B
$GNRMC,000000.000,A,,,,,,,000000,,*26
$GPGSA,A,1,,,,,,,,,,,,,,,*1E
$BDGSA,A,1,,,,,,,,,,,,,,,*0F
$GPGSV,2,1,08,04,00,000,42,07,00,000,37,08,00,000,42,09,00,000,44*74
$GPGSV,2,2,08,16,00,000,40,21,00,000,40,26,00,000,36,27,00,000,49*7C
$BDGSV,1,1,03,07,00,000,41,10,00,000,46,28,00,000,40*54
$LOGTIM,0,0.000000,0.000000,0.000000,0.000000,0.000*0A
EndT:        0
---00000021--- Acq_st=3 2019-5-22 02:51:24 
[00]  G04  f 41  -1332.2 2046001.7  1.0  1.0  5  0 269501050
[01]  G07  f 38  -3563.6 2046004.6  1.0  1.0  5  0 269501050
[02]  G08  f 42  -1522.0 2046002.0  1.0  1.0  5  0 269501059
[03]  G09  f 45   -151.2 2046000.2  1.0  1.0  5  0 269501053
[04]  G16  f 40   1165.8 2045998.5  1.0  1.0  5  0 269501056
[05]  G21  f 39   1977.6 2045997.4  1.0  1.0  5  0 269501043
[06]  G26  f 36   1697.0 2045997.8  1.0  0.9  5  0 269501050
[07]  G27  f 50    795.9 2045999.0  1.0  1.0  5  0 269501060
[16]  B07 1f 41   -576.3 4092001.5  1.0  1.0  5  0 269487006
[17]  B10 1f 46   -629.3 4092001.6  1.0  1.0  5  0 269487003
[18]  B28 1f 40   1753.7 4091995.4  1.0  1.0  5  0 269487051
$GNGGA,000000.000,,,,,0,00,,,M,,,,0000*2B
$GNRMC,000000.000,A,,,,,,,000000,,*26
$GPGSA,A,1,,,,,,,,,,,,,,,*1E
$BDGSA,A,1,,,,,,,,,,,,,,,*0F
$GPGSV,2,1,08,04,00,000,41,07,00,000,38,08,00,000,42,09,00,000,45*79
$GPGSV,2,2,08,16,00,000,40,21,00,000,39,26,00,000,36,27,00,000,50*7A
$BDGSV,1,1,03,07,00,000,41,10,00,000,46,28,00,000,40*54
$LOGTIM,0,0.000000,0.000000,0.000000,0.000000,0.000*0A
EndT:        0
---00000022--- Acq_st=3 2019-5-22 02:51:25 
[00]  G04  f 42  -1331.1 2046001.7  1.0  1.0  5  0 269502050
[01]  G07  f 38  -3563.2 2046004.7  1.0  1.0  5  0 269502050
[02]  G08  f 42  -1521.7 2046002.0  1.0  1.0  5  0 269502059
[03]  G09  f 45   -150.7 2046000.2  1.0  1.0  5  0 269502053
[04]  G16  f 40   1166.2 2045998.5  1.0  1.0  5  0 269502056
[05]  G21  f 38   1978.4 2045997.5  1.0  1.0  5  0 269502043
[06]  G26  f 36   1697.3 2045997.8  1.0  1.0  5  0 269502050
[07]  G27  f 49    796.7 2045999.0  1.0  1.0  5  0 269502060
[16]  B07 1f 41   -575.9 4092001.5  1.0  1.0  5  0 269488006
[17]  B10 1f 46   -629.3 4092001.6  1.0  1.0  5  0 269488003
[18]  B28 1f 39   1754.2 4091995.4  1.0  1.0  5  0 269488051
$GNGGA,000000.000,,,,,0,00,,,M,,,,0000*2B
$GNRMC,000000.000,A,,,,,,,000000,,*26
$GPGSA,A,1,,,,,,,,,,,,,,,*1E
$BDGSA,A,1,,,,,,,,,,,,,,,*0F
$GPGSV,2,1,08,04,00,000,42,07,00,000,38,08,00,000,42,09,00,000,45*7A
$GPGSV,2,2,08,16,00,000,40,21,00,000,38,26,00,000,36,27,00,000,49*73
$BDGSV,1,1,03,07,00,000,41,10,00,000,46,28,00,000,39*5A
$LOGTIM,0,0.000000,0.000000,0.000000,0.000000,0.000*0A
EndT:        0
---00000023--- Acq_st=3 2019-5-22 02:51:26 
[00]  G04  f 42  -1331.7 2046001.7  1.0  1.0  5  0 269503050
[01]  G07  f 38  -3564.8 2046004.7  1.0  1.0  5  0 269503050
[02]  G08  f 42  -1522.2 2046002.0  1.0  1.0  5  0 269503059
[03]  G09  f 46   -150.9 2046000.2  1.0  1.0  5  0 269503053
[04]  G16  f 40   1164.8 2045998.5  1.0  1.0  5  0 269503056
[05]  G21  f 39   1977.0 2045997.5  1.0  1.0  5  0 269503043
[06]  G26  f 36   1695.9 2045997.8  1.0  1.0  5  0 269503050
[07]  G27  f 49    795.9 2045999.0  1.0  1.0  5  0 269503060
[16]  B07 1f 40   -576.9 4092001.5  1.0  1.0  5  0 269489006
[17]  B10 1f 46   -630.5 4092001.6  1.0  1.0  5  0 269489003
[18]  B28 1f 40   1753.8 4091995.4  1.0  1.0  5  0 269489051
$GNGGA,000000.000,,,,,0,00,,,M,,,,0000*2B
$GNRMC,000000.000,A,,,,,,,000000,,*26
$GPGSA,A,1,,,,,,,,,,,,,,,*1E
$BDGSA,A,1,,,,,,,,,,,,,,,*0F
$GPGSV,2,1,08,04,00,000,42,07,00,000,38,08,00,000,42,09,00,000,46*79
$GPGSV,2,2,08,16,00,000,40,21,00,000,39,26,00,000,36,27,00,000,49*72
$BDGSV,1,1,03,07,00,000,40,10,00,000,46,28,00,000,40*55
$LOGTIM,0,0.000000,0.000000,0.000000,0.000000,0.000*0A
EndT:        0
---00000024--- Acq_st=3 2019-5-22 02:51:27 
[00]  G04  f 42  -1332.5 2046001.7  1.0  1.0  5  0 269504050
[01]  G07  f 38  -3565.7 2046004.7  1.0  1.0  5  0 269504050
[02]  G08  f 42  -1523.1 2046002.0  1.0  1.0  5  0 269504059
[03]  G09  f 46   -151.8 2046000.2  1.0  1.0  5  0 269504053
[04]  G16  f 40   1163.5 2045998.5  1.0  1.0  5  0 269504056
[05]  G21  f 39   1976.0 2045997.5  1.0  1.0  5  0 269504043
[06]  G26  f 38   1695.1 2045997.8  1.0  1.0  5  0 269504050
[07]  G27  f 49    795.1 2045999.0  1.0  1.0  5  0 269504060
[16]  B07 1f 41   -578.3 4092001.6  1.0  1.0  5  0 269490006
[17]  B10 1f 46   -631.9 4092001.6  1.0  1.0  5  0 269490003
[18]  B28 1f 41   1752.5 4091995.4  1.0  1.0  5  0 269490051
$GNGGA,000000.000,,,,,0,00,,,M,,,,0000*2B
$GNRMC,000000.000,A,,,,,,,000000,,*26
$GPGSA,A,1,,,,,,,,,,,,,,,*1E
$BDGSA,A,1,,,,,,,,,,,,,,,*0F
$GPGSV,2,1,08,04,00,000,42,07,00,000,38,08,00,000,42,09,00,000,46*79
$GPGSV,2,2,08,16,00,000,40,21,00,000,39,26,00,000,38,27,00,000,49*7C
$BDGSV,1,1,03,07,00,000,41,10,00,000,46,28,00,000,41*55
$LOGTIM,0,0.000000,0.000000,0.000000,0.000000,0.000*0A
EndT:        0
---00000025--- Acq_st=3 2019-5-22 02:51:28 
[00]  G04  f 42  -1332.8 2046001.7  1.0  1.0  5  0 269505050
[01]  G07  f 39  -3566.5 2046004.6  1.0  1.0  5  0 269505050
[02]  G08  f 42  -1523.1 2046002.0  1.0  1.0  5  0 269505059
[03]  G09  f 45   -152.2 2046000.2  1.0  1.0  5  0 269505053
[04]  G16  f 39   1163.3 2045998.5  1.0  1.0  5  0 269505056
[05]  G21  f 39   1976.2 2045997.4  1.0  1.0  5  0 269505043
[06]  G26  f 38   1694.2 2045997.8  1.0  0.9  5  0 269505050
[07]  G27  f 49    794.7 2045999.0  1.0  1.0  5  0 269505060
[16]  B07 1f 41   -579.6 4092001.5  1.0  1.0  5  0 269491006
[17]  B10 1f 46   -632.7 4092001.6  1.0  1.0  5  0 269491003
[18]  B28 1f 40   1752.0 4091995.4  1.0  1.0  5  0 269491051
$GNGGA,000000.000,,,,,0,00,,,M,,,,0000*2B
$GNRMC,000000.000,A,,,,,,,000000,,*26
$GPGSA,A,1,,,,,,,,,,,,,,,*1E
$BDGSA,A,1,,,,,,,,,,,,,,,*0F
$GPGSV,2,1,08,04,00,000,42,07,00,000,39,08,00,000,42,09,00,000,45*7B
$GPGSV,2,2,08,16,00,000,39,21,00,000,39,26,00,000,38,27,00,000,49*72
$BDGSV,1,1,03,07,00,000,41,10,00,000,46,28,00,000,40*54
$LOGTIM,0,0.000000,0.000000,0.000000,0.000000,0.000*0A
EndT:        0
---00000026--- Acq_st=3 2019-5-22 02:51:29 
[00]  G04  f 42  -1332.4 2046001.7  1.0  1.0  5  0 269506050
[01]  G07  f 40  -3566.7 2046004.6  1.0  1.0  5  0 269506050
[02]  G08  f 41  -1523.5 2046002.0  1.0  1.0  5  0 269506059
[03]  G09  f 45   -152.1 2046000.2  1.0  1.0  5  0 269506053
[04]  G16  f 39   1162.7 2045998.5  1.0  1.0  5  0 269506056
[05]  G21  f 39   1975.9 2045997.4  1.0  1.0  5  0 269506043
[06]  G26  f 37   1693.6 2045997.8  1.0  1.0  5  0 269506050
[07]  G27  f 49    794.8 2045999.0  1.0  1.0  5  0 269506060
[16]  B07 1f 40   -580.2 4092001.5  1.0  1.0  5  0 269492007
[17]  B10 1f 46   -633.3 4092001.6  1.0  1.0  5  0 269492003
[18]  B28 1f 40   1751.9 4091995.4  1.0  1.0  5  0 269492051
$GNGGA,000000.000,,,,,0,00,,,M,,,,0000*2B
$GNRMC,000000.000,A,,,,,,,000000,,*26
$GPGSA,A,1,,,,,,,,,,,,,,,*1E
$BDGSA,A,1,,,,,,,,,,,,,,,*0F
$GPGSV,2,1,08,04,00,000,42,07,00,000,40,08,00,000,41,09,00,000,45*76
$GPGSV,2,2,08,16,00,000,39,21,00,000,39,26,00,000,37,27,00,000,49*7D
$BDGSV,1,1,03,07,00,000,40,10,00,000,46,28,00,000,40*55
$LOGTIM,0,0.000000,0.000000,0.000000,0.000000,0.000*0A
EndT:        0
---00000027--- Acq_st=3 2019-5-22 02:51:30 
[00]  G04  f 43  -1330.6 2046001.8  1.0  1.0  5 3f 269507050
[01]  G07  f 40  -3566.0 2046004.6  1.0  1.0  5  0 269507050
[02]  G08  f 41  -1521.6 2046002.0  1.0  1.0  5  0 269507059
[03]  G09  f 46   -150.2 2046000.2  1.0  1.0  5  0 269507053
[04]  G16  f 40   1164.4 2045998.5  1.0  1.0  5  0 269507056
[05]  G21  f 39   1977.5 2045997.4  1.0  1.0  5  0 269507043
[06]  G26  f 36   1695.6 2045997.8  1.0  1.0  5  0 269507050
[07]  G27  f 50    796.5 2045999.0  1.0  1.0  5  0 269507060
[16]  B07 1f 40   -578.9 4092001.5  1.0  1.0  5  0 269493007
[17]  B10 1f 46   -632.1 4092001.6  1.0  1.0  5  0 269493003
[18]  B28 1f 39   1753.3 4091995.4  1.0  1.0  5  0 269493051
lsq: nits= 4
$GNGGA,025130.128,3112.7123,N,12136.4342,E,1,07,1.9,48.7,M,,,,0000*2B
$GNRMC,025130.128,A,3112.7123,N,12136.4342,E,0.23,0.00,220519,,*1F
$GPGSA,A,3,07,08,09,16,21,26,27,,,,,,2.7,1.9,2.0*3E
$BDGSA,A,3,,,,,,,,,,,,,2.7,1.9,2.0*2C
$GPGSV,2,1,08,04,00,000,43,07,00,000,40,08,00,000,41,09,00,000,46*74
$GPGSV,2,2,08,16,00,000,40,21,00,000,39,26,00,000,36,27,00,000,50*7A
$BDGSV,1,1,03,07,00,000,40,10,00,000,46,28,00,000,39*5B
$LOGTIM,1,9372066.863058,0.000000,0.000000,0.000000,-63.304*1B
EndT:        1
---00000028--- Acq_st=3 2019-5-22 02:51:30 
[00]  G04  f 42  -1326.5 2046001.7  1.0  1.0  5 3f 269508050
[01]  G07  f 40  -3561.5 2046004.6  1.0  1.0  5  0 269508050
[02]  G08  f 40  -1517.6 2046002.0  1.0  1.0  5  0 269508059
[03]  G09  f 46   -145.9 2046000.2  1.0  1.0  5  0 269508053
[04]  G16  f 40   1167.5 2045998.5  1.0  1.0  5  0 269508056
[05]  G21  f 40   1981.3 2045997.4  1.0  1.0  5  0 269508043
[06]  G26  f 36   1698.0 2045997.8  1.0  0.9  5  0 269508050
[07]  G27  f 50    800.8 2045999.0  1.0  1.0  5  0 269508060
[16]  B07 1f 40   -574.9 4092001.5  1.0  1.0  5  0 269494007
[17]  B10 1f 46   -628.4 4092001.6  1.0  1.0  5  0 269494003
[18]  B28 1f 39   1757.5 4091995.5  1.0  1.0  5  0 269494051
lsq: nits= 2
$GNGGA,025132.000,3112.7049,N,12136.4388,E,1,07,1.9,53.3,M,,,,0000*27
$GNRMC,025132.000,A,3112.7049,N,12136.4388,E,0.43,0.00,220519,,*1B
$GPGSA,A,3,07,08,09,16,21,26,27,,,,,,2.7,1.9,2.0*3E
$BDGSA,A,3,,,,,,,,,,,,,2.7,1.9,2.0*2C
$GPGSV,2,1,08,04,00,000,42,07,00,000,40,08,00,000,40,09,00,000,46*74
$GPGSV,2,2,08,16,00,000,40,21,00,000,40,26,00,000,36,27,00,000,50*74
$BDGSV,1,1,03,07,00,000,40,10,00,000,46,28,00,000,39*5B
$LOGTIM,1,-118.259884,0.000000,0.000000,0.000000,-63.337*3B
EndT:        2
---00000029--- Acq_st=7 2019-5-22 02:51:32 
[00]  G04  f 42  -1328.6 2046001.7  1.0  1.0  5 3f 269509922
[01]  G07  f 40  -3564.6 2046004.6  1.0  1.0  5  0 269509921
[02]  G08  f 41  -1519.5 2046002.0  1.0  1.0  5  0 269509931
[03]  G09  f 46   -148.0 2046000.2  1.0  1.0  5  0 269509924
[04]  G16  f 40   1165.2 2045998.5  1.0  1.0  5  0 269509927
[05]  G21  f 40   1978.6 2045997.4  1.0  1.0  5  0 269509915
[06]  G26  f 36   1696.5 2045997.8  1.0  1.0  5  0 269509922
[07]  G27  f 50    798.6 2045999.0  1.0  1.0  5  0 269509932
[16]  B07 1f 40   -577.9 4092001.5  1.0  1.0  5  0 269495878
[17]  B10 1f 46   -631.3 4092001.6  1.0  1.0  5  0 269495875
[18]  B28 1f 39   1754.9 4091995.4  1.0  1.0  5  0 269495922
lsq: nits= 2
$GNGGA,025133.000,3112.7061,N,12136.4389,E,1,07,1.9,53.3,M,,,,0000*2D
$GNRMC,025133.000,A,3112.7061,N,12136.4389,E,0.14,0.00,220519,,*13
$GPGSA,A,3,07,08,09,16,21,26,27,,,,,,2.7,1.9,2.0*3E
$BDGSA,A,3,,,,,,,,,,,,,2.7,1.9,2.0*2C
$GPGSV,2,1,08,04,00,000,42,07,26,317,40,08,65,239,41,09,31,279,46*71
$GPGSV,2,2,08,16,45,045,40,21,09,041,40,26,25,072,36,27,73,022,50*7E
$BDGSV,1,1,03,07,00,000,40,10,00,000,46,28,00,000,39*5B
$LOGTIM,1,-181.067193,0.000000,0.000000,0.000000,-63.453*3E
EndT:        3
---00000030--- Acq_st=7 2019-5-22 02:51:33 
[00]  G04  f 42  -1329.1 2046001.7  1.0  1.0  5 3f 269510922
[01]  G07  f 40  -3566.2 2046004.7  1.0  1.0  5  0 269510921
[02]  G08  f 40  -1520.3 2046002.0  1.0  1.0  5  0 269510931
[03]  G09  f 46   -148.9 2046000.2  1.0  1.0  5  0 269510924
[04]  G16  f 40   1163.8 2045998.5  1.0  1.0  5  0 269510927
[05]  G21  f 40   1977.8 2045997.4  1.0  1.0  5  0 269510915
[06]  G26  f 37   1695.0 2045997.8  1.0  1.0  5  0 269510922
[07]  G27  f 50    797.8 2045999.0  1.0  1.0  5  0 269510932
[16]  B07 1f 40   -579.1 4092001.5  1.0  1.0  5  0 269496878
[17]  B10 1f 46   -632.3 4092001.6  1.0  1.0  5  0 269496875
[18]  B28 1f 38   1754.2 4091995.4  1.0  1.0  5  0 269496922
lsq: nits= 2
$GNGGA,025134.000,3112.7068,N,12136.4387,E,1,07,1.9,53.4,M,,,,0000*2A
$GNRMC,025134.000,A,3112.7068,N,12136.4387,E,0.18,0.00,220519,,*1F
$GPGSA,A,3,07,08,09,16,21,26,27,,,,,,2.7,1.9,2.0*3E
$BDGSA,A,3,,,,,,,,,,,,,2.7,1.9,2.0*2C
$GPGSV,2,1,08,04,00,000,42,07,26,317,40,08,65,239,40,09,31,279,46*70
$GPGSV,2,2,08,16,45,045,40,21,09,041,40,26,25,072,37,27,73,022,50*7F
$BDGSV,1,1,03,07,00,000,40,10,00,000,46,28,00,000,38*5A
$LOGTIM,1,-244.087161,0.000000,0.000000,0.000000,-63.441*34
EndT:        2
---00000031--- Acq_st=7 2019-5-22 02:51:34 
[00]  G04  f 41  -1328.4 2046001.7  1.0  1.0  5 3f 269511922
[01]  G07  f 40  -3565.5 2046004.6  1.0  1.0  5  0 269511921
[02]  G08  f 40  -1519.4 2046002.0  1.0  1.0  5  0 269511931
[03]  G09  f 46   -147.9 2046000.2  1.0  1.0  5  0 269511924
[04]  G16  f 40   1164.5 2045998.5  1.0  1.0  5  0 269511927
[05]  G21  f 40   1978.5 2045997.4  1.0  1.0  5  0 269511915
[06]  G26  f 37   1695.4 2045997.8  1.0  1.0  5  0 269511922
[07]  G27  f 50    798.6 2045999.0  1.0  1.0  5  0 269511932
[16]  B07 1f 40   -579.5 4092001.5  1.0  1.0  5  0 269497878
[17]  B10 1f 46   -632.8 4092001.7  1.0  1.0  5  0 269497875
[18]  B28 1f 38   1754.4 4091995.4  1.0  1.0  5  0 269497922
lsq: nits= 2
$GNGGA,025135.000,3112.7071,N,12136.4388,E,1,07,1.9,53.6,M,,,,0000*2E
$GNRMC,025135.000,A,3112.7071,N,12136.4388,E,0.13,0.00,220519,,*12
$GPGSA,A,3,07,08,09,16,21,26,27,,,,,,2.7,1.9,2.0*3E
$BDGSA,A,3,,,,,,,,,,,,,2.7,1.9,2.0*2C
$GPGSV,2,1,08,04,00,000,41,07,26,317,40,08,65,239,40,09,31,279,46*73
$GPGSV,2,2,08,16,45,045,40,21,09,041,40,26,25,072,37,27,73,022,50*7F
$BDGSV,1,1,03,07,00,000,40,10,00,000,46,28,00,000,38*5A
$LOGTIM,1,-307.071293,0.000000,0.000000,0.000000,-63.466*30
EndT:        2
---00000032--- Acq_st=3 2019-5-22 02:51:35 
[00]  G04  f 42  -1328.5 2046001.7  1.0  1.0  5 3f 269512922
[01]  G07  f 40  -3565.8 2046004.6  1.0  1.0  5  0 269512921
[02]  G08  f 39  -1519.2 2046002.0  1.0  1.0  5  0 269512931
[03]  G09  f 46   -147.8 2046000.2  1.0  1.0  5  0 269512924
[04]  G16  f 40   1163.7 2045998.5  1.0  1.0  5  0 269512927
[05]  G21  f 40   1978.9 2045997.4  1.0  1.0  5  0 269512915
[06]  G26  f 36   1694.6 2045997.8  1.0  1.0  5  0 269512922
[07]  G27  f 50    798.5 2045999.0  1.0  1.0  5  0 269512932
[16]  B07 1f 40   -579.8 4092001.5  1.0  1.0  5  0 269498878
[17]  B10 1f 46   -633.1 4092001.6  1.0  1.0  5  0 269498875
[18]  B28 1f 37   1754.8 4091995.4  1.0  1.0  5  0 269498922
lsq: nits= 2
$GNGGA,025136.000,3112.7074,N,12136.4390,E,1,07,1.9,53.8,M,,,,0000*2F
$GNRMC,025136.000,A,3112.7074,N,12136.4390,E,0.13,0.00,220519,,*1D
$GPGSA,A,3,07,08,09,16,21,26,27,,,,,,2.7,1.9,2.0*3E
$BDGSA,A,3,,,,,,,,,,,,,2.7,1.9,2.0*2C
$GPGSV,2,1,08,04,00,000,42,07,26,317,40,08,65,239,39,09,31,279,46*7E
$GPGSV,2,2,08,16,45,045,40,21,09,041,40,26,25,072,36,27,73,022,50*7E
$BDGSV,1,1,03,07,00,000,40,10,00,000,46,28,00,000,37*55
$LOGTIM,1,-369.972124,0.000000,0.000000,0.000000,-63.361*3D
EndT:        3
---00000033--- Acq_st=3 2019-5-22 02:51:36 
[00]  G04  f 41  -1327.0 2046001.7  1.0  1.0  5 3f 269513922
[01]  G07  f 40  -3565.0 2046004.6  1.0  1.0  5  0 269513921
[02]  G08  f 40  -1518.2 2046002.0  1.0  1.0  5  0 269513931
[03]  G09  f 46   -146.6 2046000.2  1.0  1.0  5  0 269513924
[04]  G16  f 40   1164.9 2045998.5  1.0  1.0  5  0 269513927
[05]  G21  f 40   1979.5 2045997.4  1.0  1.0  5  0 269513915
[06]  G26  f 35   1695.8 2045997.8  1.0  1.0  5  0 269513922
[07]  G27  f 50    799.7 2045999.0  1.0  1.0  5  0 269513932
[16]  B07 1f 40   -579.4 4092001.5  1.0  1.0  5  0 269499878
[17]  B10 1f 46   -632.2 4092001.7  1.0  1.0  5  0 269499875
[18]  B28 1f 37   1755.7 4091995.4  1.0  0.9  5  0 269499922
lsq: nits= 2
$GNGGA,025137.000,3112.7050,N,12136.4393,E,1,07,1.9,54.8,M,,,,0000*2C
$GNRMC,025137.000,A,3112.7050,N,12136.4393,E,0.46,0.00,220519,,*19
$GPGSA,A,3,07,08,09,16,21,26,27,,,,,,2.7,1.9,2.0*3E
$BDGSA,A,3,,,,,,,,,,,,,2.7,1.9,2.0*2C
$GPGSV,2,1,08,04,00,000,41,07,26,317,40,08,65,239,40,09,31,279,46*73
$GPGSV,2,2,08,16,45,045,40,21,09,041,40,26,25,072,35,27,73,022,50*7D
$BDGSV,1,1,03,07,00,000,40,10,00,000,46,28,00,000,37*55
$LOGTIM,1,-433.575201,0.000000,0.000000,0.000000,-62.892*3C
EndT:        3
---00000034--- Acq_st=3 2019-5-22 02:51:37 
[00]  G04  f 41  -1322.5 2046001.7  1.0  1.0  5 3f 269514922
[01]  G07  f 40  -3560.9 2046004.6  1.0  1.0  5  0 269514921
[02]  G08  f 41  -1513.6 2046001.9  1.0  1.0  5  0 269514931
[03]  G09  f 45   -142.1 2046000.2  1.0  1.0  5  0 269514924
[04]  G16  f 40   1168.8 2045998.5  1.0  1.0  5  0 269514927
[05]  G21  f 40   1984.0 2045997.4  1.0  1.0  5  0 269514915
[06]  G26  f 34   1699.2 2045997.7  1.0  1.0  5  0 269514922
[07]  G27  f 50    804.3 2045999.0  1.0  1.0  5  0 269514932
[16]  B07 1f 40   -575.2 4092001.5  1.0  1.0  5  0 269500878
[17]  B10 1f 46   -628.7 4092001.6  1.0  1.0  5  0 269500875
[18]  B28 1f 37   1760.2 4091995.4  1.0  1.0  5  0 269500922
lsq: nits= 2
$GNGGA,025138.000,3112.7040,N,12136.4394,E,1,07,1.9,55.3,M,,,,0000*2F
$GNRMC,025138.000,A,3112.7040,N,12136.4394,E,0.71,0.00,220519,,*14
$GPGSA,A,3,07,08,09,16,21,26,27,,,,,,2.7,1.9,2.0*3E
$BDGSA,A,3,,,,,,,,,,,,,2.7,1.9,2.0*2C
$GPGSV,3,1,09,04,00,000,41,07,26,317,40,08,65,239,41,09,31,279,45*71
$GPGSV,3,2,09,16,45,045,40,21,09,041,40,26,25,072,34,27,73,022,50*7C
$GPGSV,3,3,09,31,07,134,00*43
$BDGSV,1,1,03,07,00,000,40,10,00,000,46,28,00,000,37*55
$LOGTIM,1,-496.037236,0.000000,0.000000,0.000000,-62.333*34
EndT:        3
---00000035--- Acq_st=3 2019-5-22 02:51:38 
[00]  G04  f 41  -1318.0 2046001.7  1.0  1.0  5 3f 269515922
[01]  G07  f 39  -3557.2 2046004.6  1.0  1.0  5  0 269515921
[02]  G08  f 41  -1509.3 2046002.0  1.0  1.0  5  0 269515931
[03]  G09  f 46   -137.8 2046000.2  1.0  1.0  5  0 269515924
[04]  G16  f 40   1172.6 2045998.5  1.0  1.0  5  0 269515927
[05]  G21  f 40   1987.5 2045997.4  1.0  1.0  5  0 269515915
[06]  G26  f 35   1703.2 2045997.8  1.0  1.0  5  0 269515922
[07]  G27  f 50    808.3 2045998.9  1.0  1.0  5  0 269515932
[16]  B07 1f 40   -571.5 4092001.5  1.0  1.0  5  0 269501878
[17]  B10 1f 46   -625.0 4092001.6  1.0  1.0  5  0 269501875
[18]  B28 1f 37   1763.5 4091995.4  1.0  1.0  5  0 269501922
lsq: nits= 2
$GNGGA,025139.000,3112.7034,N,12136.4395,E,1,07,1.9,55.0,M,,,,0000*2F
$GNRMC,025139.000,A,3112.7034,N,12136.4395,E,0.48,0.00,220519,,*1D
$GPGSA,A,3,07,08,09,16,21,26,27,,,,,,2.7,1.9,2.0*3E
$BDGSA,A,3,,,,,,,,,,,,,2.7,1.9,2.0*2C
$GPGSV,3,1,09,04,00,000,41,07,26,317,39,08,65,239,41,09,31,279,46*7C
$GPGSV,3,2,09,16,45,045,40,21,09,041,40,26,25,072,35,27,73,022,50*7D
$GPGSV,3,3,09,31,07,134,00*43
$BDGSV,1,1,03,07,00,000,40,10,00,000,46,28,00,000,37*55
$LOGTIM,1,-558.597788,0.000000,0.000000,0.000000,-62.608*35
EndT:        3
---00000036--- Acq_st=3 2019-5-22 02:51:39 
[00]  G04  f 42  -1320.9 2046001.7  1.0  1.0  5 3f 269516922
[01]  G07  f 39  -3560.5 2046004.6  1.0  1.0  5  0 269516921
[02]  G08  f 41  -1512.3 2046002.0  1.0  1.0  5  0 269516931
[03]  G09  f 46   -140.5 2046000.2  1.0  1.0  5  0 269516924
[04]  G16  f 40   1169.3 2045998.5  1.0  1.0  5  0 269516927
[05]  G21  f 40   1984.7 2045997.4  1.0  1.0  5  0 269516915
[06]  G26  f 36   1700.4 2045997.8  1.0  1.0  5  0 269516922
[07]  G27  f 50    805.5 2045998.9  1.0  1.0  5  0 269516932
[16]  B07 1f 40   -575.1 4092001.6  1.0  1.0  5  0 269502878
[17]  B10 1f 46   -628.5 4092001.6  1.0  1.0  5  0 269502875
[18]  B28 1f 36   1760.9 4091995.3  1.0  1.0  5  0 269502922
lsq: nits= 2
$GNGGA,025140.000,3112.7030,N,12136.4395,E,1,07,1.9,54.4,M,,,,0000*20
$GNRMC,025140.000,A,3112.7030,N,12136.4395,E,0.16,0.00,220519,,*1C
$GPGSA,A,3,07,08,09,16,21,26,27,,,,,,2.7,1.9,2.0*3E
$BDGSA,A,3,,,,,,,,,,,,,2.7,1.9,2.0*2C
$GPGSV,3,1,09,04,00,000,42,07,26,317,39,08,65,239,41,09,31,279,46*7F
$GPGSV,3,2,09,16,45,045,40,21,09,041,40,26,25,072,36,27,73,022,50*7E
$GPGSV,3,3,09,31,07,134,00*43
$BDGSV,1,1,03,07,00,000,40,10,00,000,46,28,00,000,36*54
$LOGTIM,1,-621.730491,0.000000,0.000000,0.000000,-63.151*36
EndT:        3
---00000037--- Acq_st=3 2019-5-22 02:51:40 
[00]  G04  f 41  -1325.2 2046001.7  1.0  1.0  5 3f 269517922
[01]  G07  f 40  -3564.9 2046004.6  1.0  1.0  5  0 269517921
[02]  G08  f 41  -1516.3 2046002.0  1.0  1.0  5  0 269517931
[03]  G09  f 45   -144.4 2046000.2  1.0  1.0  5  0 269517924
[04]  G16  f 39   1165.5 2045998.5  1.0  1.0  5  0 269517927
[05]  G21  f 40   1980.4 2045997.4  1.0  1.0  5  0 269517915
[06]  G26  f 35   1695.8 2045997.8  1.0  1.0  5  0 269517922
[07]  G27  f 50    801.6 2045999.0  1.0  1.0  5  0 269517932
[16]  B07 1f 40   -579.3 4092001.6  1.0  1.0  5  0 269503878
[17]  B10 1f 46   -632.8 4092001.6  1.0  1.0  5  0 269503875
[18]  B28 1f 36   1757.0 4091995.4  1.0  1.0  5  0 269503922
lsq: nits= 2
$GNGGA,025141.000,3112.7065,N,12136.4379,E,1,07,1.9,54.5,M,,,,0000*22
$GNRMC,025141.000,A,3112.7065,N,12136.4379,E,0.44,0.00,220519,,*18
$GPGSA,A,3,07,08,09,16,21,26,27,,,,,,2.7,1.9,2.0*3E
$BDGSA,A,3,,,,,,,,,,,,,2.7,1.9,2.0*2C
$GPGSV,3,1,09,04,00,000,41,07,26,317,40,08,65,239,41,09,31,279,45*71
$GPGSV,3,2,09,16,45,045,39,21,09,041,40,26,25,072,35,27,73,022,50*73
$GPGSV,3,3,09,31,07,134,00*43
$BDGSV,1,1,03,07,00,000,40,10,00,000,46,28,00,000,36*54
$LOGTIM,1,-683.795042,0.000000,0.000000,0.000000,-63.609*31
EndT:        2
---00000038--- Acq_st=3 2019-5-22 02:51:41 
[00]  G04  f 41  -1327.5 2046001.7  1.0  1.0  5 3f 269518922
[01]  G07  f 41  -3567.7 2046004.6  1.0  1.0  5  0 269518921
[02]  G08  f 40  -1519.0 2046001.9  1.0  1.0  5  0 269518931
[03]  G09  f 45   -147.1 2046000.2  1.0  1.0  5  0 269518924
[04]  G16  f 40   1162.0 2045998.5  1.0  1.0  5  0 269518927
[05]  G21  f 40   1977.5 2045997.4  1.0  1.0  5  0 269518915
[06]  G26  f 36   1692.6 2045997.8  1.0  1.0  5  0 269518922
[07]  G27  f 50    799.0 2045999.0  1.0  1.0  5  0 269518932
[16]  B07 1f 40   -582.6 4092001.5  1.0  1.0  5  0 269504878
[17]  B10 1f 45   -636.1 4092001.7  1.0  1.0  5  0 269504875
[18]  B28 1f 36   1753.6 4091995.5  1.0  0.9  5  0 269504922
lsq: nits= 2
$GNGGA,025142.000,3112.7080,N,12136.4373,E,1,07,1.9,54.4,M,,,,0000*21
$GNRMC,025142.000,A,3112.7080,N,12136.4373,E,0.44,0.00,220519,,*1A
$GPGSA,A,3,07,08,09,16,21,26,27,,,,,,2.7,1.9,2.0*3E
$BDGSA,A,3,,,,,,,,,,,,,2.7,1.9,2.0*2C
$GPGSV,3,1,09,04,00,000,41,07,26,317,41,08,65,239,40,09,31,279,45*71
$GPGSV,3,2,09,16,45,045,40,21,09,041,40,26,25,072,36,27,73,022,50*7E
$GPGSV,3,3,09,31,07,134,00*43
$BDGSV,1,1,03,07,00,000,40,10,00,000,45,28,00,000,36*57
$LOGTIM,1,-747.019188,0.000000,0.000000,0.000000,-63.689*34
EndT:        2
---00000039--- Acq_st=3 2019-5-22 02:51:42 
[00]  G04  f 41  -1326.5 2046001.7  1.0  1.0  5 3f 269519922
[01]  G07  f 41  -3567.3 2046004.7  1.0  1.0  5  0 269519921
[02]  G08  f 41  -1517.8 2046001.9  1.0  1.0  5  0 269519931
[03]  G09  f 45   -145.8 2046000.2  1.0  1.0  5  0 269519924
[04]  G16  f 40   1163.1 2045998.5  1.0  1.0  5  0 269519927
[05]  G21  f 40   1978.2 2045997.4  1.0  1.0  5  0 269519915
[06]  G26  f 35   1692.6 2045997.9  1.0  1.0  5  0 269519922
[07]  G27  f 50    799.8 2045999.0  1.0  1.0  5  0 269519932
[16]  B07 1f 40   -582.2 4092001.6  1.0  1.0  5  0 269505878
[17]  B10 1f 45   -635.8 4092001.7  1.0  1.0  5  0 269505875
[18]  B28 1f 36   1755.0 4091995.5  1.0  1.0  5  0 269505922
lsq: nits= 2
$GNGGA,025143.000,3112.7076,N,12136.4372,E,1,07,1.9,53.5,M,,,,0000*2E
$GNRMC,025143.000,A,3112.7076,N,12136.4372,E,0.16,0.00,220519,,*14
$GPGSA,A,3,07,08,09,16,21,26,27,,,,,,2.7,1.9,2.0*3E
$BDGSA,A,3,,,,,,,,,,,,,2.7,1.9,2.0*2C
$GPGSV,3,1,09,04,00,000,41,07,26,317,41,08,65,239,41,09,31,279,45*70
$GPGSV,3,2,09,16,45,045,40,21,09,041,40,26,25,072,35,27,73,022,50*7D
$GPGSV,3,3,09,31,07,134,00*43
$BDGSV,1,1,03,07,00,000,40,10,00,000,45,28,00,000,36*57
$LOGTIM,1,-811.290152,0.000000,0.000000,0.000000,-63.580*36
EndT:        2
---00000040--- Acq_st=3 2019-5-22 02:51:43 
[00]  G04  f 41  -1324.6 2046001.7  1.0  1.0  5 3f 269520922
[01]  G07  f 40  -3566.1 2046004.7  1.0  1.0  5  0 269520921
[02]  G08  f 41  -1516.0 2046002.0  1.0  1.0  5  0 269520931
[03]  G09  f 44   -144.0 2046000.2  1.0  1.0  5  0 269520924
[04]  G16  f 41   1164.4 2045998.5  1.0  1.0  5  0 269520927
[05]  G21  f 40   1980.1 2045997.4  1.0  1.0  5  0 269520915
[06]  G26  f 35   1694.1 2045997.8  1.0  1.0  5  0 269520922
[07]  G27  f 50    801.6 2045999.0  1.0  1.0  5  0 269520932
[16]  B07 1f 40   -581.2 4092001.5  1.0  1.0  5  0 269506878
[17]  B10 1f 46   -634.7 4092001.7  1.0  1.0  5  0 269506875
[18]  B28 1f 36   1756.9 4091995.4  1.0  0.9  5  0 269506922
lsq: nits= 2
$GNGGA,025144.000,3112.7091,N,12136.4365,E,1,07,1.9,53.2,M,,,,0000*21
$GNRMC,025144.000,A,3112.7091,N,12136.4365,E,0.10,0.00,220519,,*1A
$GPGSA,A,3,07,08,09,16,21,26,27,,,,,,2.7,1.9,2.0*3E
$BDGSA,A,3,,,,,,,,,,,,,2.7,1.9,2.0*2C
$GPGSV,3,1,09,04,00,000,41,07,26,317,40,08,65,239,41,09,31,279,44*70
$GPGSV,3,2,09,16,45,045,41,21,09,041,40,26,25,072,35,27,73,022,50*7C
$GPGSV,3,3,09,31,07,134,00*43
$BDGSV,1,1,03,07,00,000,40,10,00,000,46,28,00,000,36*54
$LOGTIM,1,-874.484812,0.000000,0.000000,0.000000,-63.419*3A
EndT:        2
---00000041--- Acq_st=3 2019-5-22 02:51:44 
[00]  G04  f 40  -1323.0 2046001.7  1.0  1.0  5 3f 269521922
[01]  G07  f 41  -3564.5 2046004.6  1.0  1.0  5  0 269521921
[02]  G08  f 41  -1514.6 2046002.0  1.0  1.0  5  0 269521931
[03]  G09  f 45   -142.1 2046000.2  1.0  1.0  5  0 269521924
[04]  G16  f 41   1165.4 2045998.5  1.0  1.0  5  0 269521927
[05]  G21  f 39   1981.3 2045997.4  1.0  1.0  5  0 269521915
[06]  G26  f 35   1696.0 2045997.8  1.0  1.0  5  0 269521922
[07]  G27  f 50    803.5 2045999.0  1.0  1.0  5  0 269521932
[16]  B07 1f 40   -579.9 4092001.5  1.0  1.0  5  0 269507878
[17]  B10 1f 45   -633.5 4092001.7  1.0  1.0  5  0 269507875
[18]  B28 1f 36   1757.6 4091995.4  1.0  1.0  5  0 269507922
lsq: nits= 2
$GNGGA,025145.000,3112.7121,N,12136.4353,E,1,10,1.9,53.2,M,,,,0000*29
$GNRMC,025145.000,A,3112.7121,N,12136.4353,E,0.23,0.00,220519,,*14
$GPGSA,A,3,07,08,09,16,21,26,27,,,,,,2.7,1.9,2.0*3E
$BDGSA,A,3,07,10,28,,,,,,,,,,2.7,1.9,2.0*20
$GPGSV,3,1,09,04,00,000,40,07,26,317,41,08,65,239,41,09,31,279,45*71
$GPGSV,3,2,09,16,45,045,41,21,09,041,39,26,25,072,35,27,73,022,50*72
$GPGSV,3,3,09,31,07,134,00*43
$BDGSV,1,1,03,07,00,000,40,10,00,000,45,28,00,000,36*57
$LOGTIM,3,-937.002110,-1126.167288,0.000000,0.000000,-63.401*2D
EndT:        2
---00000042--- Acq_st=3 2019-5-22 02:51:45 
[00]  G04  f 41  -1322.4 2046001.7  1.0  1.0  5 3f 269522922
[01]  G07  f 41  -3564.1 2046004.6  1.0  1.0  5  0 269522921
[02]  G08  f 41  -1513.6 2046002.0  1.0  1.0  5  0 269522931
[03]  G09  f 45   -141.4 2046000.2  1.0  1.0  5  0 269522924
[04]  G16  f 40   1165.3 2045998.5  1.0  1.0  5  0 269522927
[05]  G21  f 39   1981.4 2045997.4  1.0  1.0  5  0 269522915
[06]  G26  f 35   1696.3 2045997.8  1.0  0.9  5  0 269522922
[07]  G27  f 50    804.0 2045998.9  1.0  1.0  5  0 269522932
[16]  B07 1f 39   -580.1 4092001.5  1.0  1.0  5  0 269508878
[17]  B10 1f 45   -633.5 4092001.7  1.0  1.0  5  0 269508875
[18]  B28 1f 36   1757.8 4091995.4  1.0  0.9  5  0 269508922
lsq: nits= 2
$GNGGA,025146.000,3112.7089,N,12136.4378,E,1,10,1.2,43.2,M,,,,0000*2A
$GNRMC,025146.000,A,3112.7089,N,12136.4378,E,0.04,0.00,220519,,*18
$GPGSA,A,3,07,08,09,16,21,26,27,,,,,,1.4,1.2,0.7*30
$BDGSA,A,3,07,10,28,,,,,,,,,,1.4,1.2,0.7*2E
$GPGSV,3,1,09,04,00,000,41,07,26,317,41,08,65,239,41,09,31,279,45*70
$GPGSV,3,2,09,16,45,045,40,21,09,041,39,26,25,072,35,27,73,022,50*73
$GPGSV,3,3,09,31,07,134,00*43
$BDGSV,1,1,03,07,66,004,39,10,51,313,45,28,43,046,36*5D
$LOGTIM,3,-1008.678392,-1172.058964,0.000000,0.000000,-63.160*1D
EndT:        3
---00000043--- Acq_st=3 2019-5-22 02:51:46 
[00]  G04  f 41  -1319.6 2046001.7  1.0  1.0  5 3f 269523922
[01]  G07  f 41  -3562.4 2046004.6  1.0  1.0  5  0 269523921
[02]  G08  f 40  -1511.4 2046002.0  1.0  1.0  5  0 269523931
[03]  G09  f 45   -139.2 2046000.2  1.0  1.0  5  0 269523924
[04]  G16  f 39   1167.4 2045998.5  1.0  1.0  5  0 269523927
[05]  G21  f 39   1984.0 2045997.5  1.0  1.0  5  0 269523915
[06]  G26  f 35   1698.1 2045997.8  1.0  1.0  5  0 269523922
[07]  G27  f 50    806.6 2045998.9  1.0  1.0  5  0 269523932
[16]  B07 1f 40   -578.0 4092001.5  1.0  1.0  5  0 269509878
[17]  B10 1f 45   -631.8 4092001.7  1.0  1.0  5  0 269509875
[18]  B28 1f 36   1760.8 4091995.4  1.0  1.0  5  0 269509922
lsq: nits= 2
$GNGGA,025147.000,3112.7079,N,12136.4386,E,1,10,1.2,40.4,M,,,,0000*20
$GNRMC,025147.000,A,3112.7079,N,12136.4386,E,0.29,0.00,220519,,*18
$GPGSA,A,3,07,08,09,16,21,26,27,,,,,,1.4,1.2,0.7*30
$BDGSA,A,3,07,10,28,,,,,,,,,,1.4,1.2,0.7*2E
$GPGSV,3,1,09,04,00,000,41,07,26,317,41,08,65,239,40,09,31,279,45*71
$GPGSV,3,2,09,16,45,045,39,21,09,041,39,26,25,072,35,27,73,022,50*7D
$GPGSV,3,3,09,31,07,134,00*43
$BDGSV,1,1,03,07,66,004,40,10,51,313,45,28,43,046,36*53
$LOGTIM,3,-1074.737091,-1235.660122,0.000000,0.000000,-63.118*14
EndT:        3
---00000044--- Acq_st=7 2019-5-22 02:51:47 
[00]  G04  f 42  -1318.8 2046001.7  1.0  1.0  5 3f 269524922
[01]  G07  f 41  -3561.4 2046004.6  1.0  1.0  5  0 269524921
[02]  G08  f 41  -1510.6 2046001.9  1.0  1.0  5  0 269524931
[03]  G09  f 45   -137.9 2046000.2  1.0  1.0  5  0 269524924
[04]  G16  f 38   1168.1 2045998.5  1.0  1.0  5  0 269524927
[05]  G21  f 39   1985.2 2045997.4  1.0  1.0  5  0 269524915
[06]  G26  f 35   1698.9 2045997.9  1.0  1.0  5  0 269524922
[07]  G27  f 50    807.4 2045999.0  1.0  1.0  5  0 269524932
[16]  B07 1f 40   -577.4 4092001.5  1.0  0.9  5  0 269510878
[17]  B10 1f 45   -631.0 4092001.6  1.0  1.0  5  0 269510875
[18]  B28 1f 35   1762.2 4091995.4  1.0  1.0  5  0 269510922
lsq: nits= 2
$GNGGA,025148.000,3112.7075,N,12136.4384,E,1,10,1.2,39.0,M,,,,0000*2B
$GNRMC,025148.000,A,3112.7075,N,12136.4384,E,0.24,0.00,220519,,*14
$GPGSA,A,3,07,08,09,16,21,26,27,,,,,,1.4,1.2,0.7*30
$BDGSA,A,3,07,10,28,,,,,,,,,,1.4,1.2,0.7*2E
$GPGSV,3,1,09,04,00,000,42,07,26,317,41,08,65,239,41,09,31,279,45*73
$GPGSV,3,2,09,16,45,045,38,21,09,041,39,26,25,072,35,27,73,022,50*7C
$GPGSV,3,3,09,31,07,134,00*43
$BDGSV,1,1,03,07,66,004,40,10,51,313,45,28,43,046,35*50
$LOGTIM,3,-1139.410672,-1299.448840,0.000000,0.000000,-63.395*15
EndT:        3
---00000045--- Acq_st=7 2019-5-22 02:51:48 
[00]  G04  f 42  -1320.4 2046001.7  1.0  1.0  5 3f 269525922
[01]  G07  f 41  -3564.0 2046004.6  1.0  1.0  5  0 269525921
[02]  G08  f 41  -1512.3 2046002.0  1.0  1.0  5  0 269525931
[03]  G09  f 45   -139.6 2046000.2  1.0  1.0  5  0 269525924
[04]  G16  f 39   1166.3 2045998.5  1.0  1.0  5  0 269525927
[05]  G21  f 38   1983.4 2045997.4  1.0  1.0  5  0 269525915
[06]  G26  f 36   1696.2 2045997.8  1.0  1.0  5  0 269525922
[07]  G27  f 50    805.8 2045998.9  1.0  1.0  5  0 269525932
[16]  B07 1f 40   -580.0 4092001.5  1.0  1.0  5  0 269511878
[17]  B10 1f 45   -633.2 4092001.7  1.0  1.0  5  0 269511875
[18]  B28 1f 35   1758.9 4091995.4  1.0  0.9  5  0 269511922
lsq: nits= 2
$GNGGA,025149.000,3112.7065,N,12136.4383,E,1,10,1.2,37.8,M,,,,0000*2A
$GNRMC,025149.000,A,3112.7065,N,12136.4383,E,0.26,0.00,220519,,*11
$GPGSA,A,3,07,08,09,16,21,26,27,,,,,,1.4,1.2,0.7*30
$BDGSA,A,3,07,10,28,,,,,,,,,,1.4,1.2,0.7*2E
$GPGSV,3,1,09,04,00,000,42,07,26,317,41,08,65,239,41,09,31,279,45*73
$GPGSV,3,2,09,16,45,045,39,21,09,041,38,26,25,072,36,27,73,022,50*7F
$GPGSV,3,3,09,31,07,134,00*43
$BDGSV,1,1,03,07,66,004,40,10,51,313,45,28,43,046,35*50
$LOGTIM,3,-1204.320480,-1364.511056,0.000000,0.000000,-63.628*11
EndT:        3
---00000046--- Acq_st=7 2019-5-22 02:51:49 
[00]  G04  f 42  -1320.2 2046001.7  1.0  1.0  5 3f 269526922
[01]  G07  f 40  -3564.7 2046004.6  1.0  1.0  5  0 269526921
[02]  G08  f 41  -1512.6 2046002.0  1.0  1.0  5  0 269526931
[03]  G09  f 44   -140.1 2046000.2  1.0  1.0  5  0 269526924
[04]  G16  f 40   1165.4 2045998.5  1.0  1.0  5  0 269526927
[05]  G21  f 38   1983.1 2045997.4  1.0  1.0  5  0 269526915
[06]  G26  f 35   1695.3 2045997.8  1.0  1.0  5  0 269526922
[07]  G27  f 50    805.5 2045999.0  1.0  1.0  5  0 269526932
[16]  B07 1f 40   -580.0 4092001.5  1.0  1.0  5  0 269512878
[17]  B10 1f 45   -633.9 4092001.6  1.0  1.0  5  0 269512875
[18]  B28 1f 35   1759.9 4091995.4  1.0  1.0  5  0 269512922
lsq: nits= 2
$GNGGA,025150.000,3112.7062,N,12136.4386,E,1,10,1.2,37.8,M,,,,0000*20
$GNRMC,025150.000,A,3112.7062,N,12136.4386,E,0.45,0.00,220519,,*1E
$GPGSA,A,3,07,08,09,16,21,26,27,,,,,,1.4,1.2,0.7*30
$BDGSA,A,3,07,10,28,,,,,,,,,,1.4,1.2,0.7*2E
$GPGSV,3,1,09,04,00,000,42,07,26,317,40,08,65,239,41,09,31,279,44*73
$GPGSV,3,2,09,16,45,045,40,21,09,041,38,26,25,072,35,27,73,022,50*72
$GPGSV,3,3,09,31,07,134,00*43
$BDGSV,1,1,03,07,66,004,40,10,51,313,45,28,43,046,35*50
$LOGTIM,3,-1268.542277,-1429.069442,0.000000,0.000000,-63.456*19
EndT:        3
---00000047--- Acq_st=3 2019-5-22 02:51:50 
[00]  G04  f 42  -1319.0 2046001.7  1.0  1.0  5 3f 269527922
[01]  G07  f 39  -3563.7 2046004.6  1.0  1.0  5  0 269527921
[02]  G08  f 41  -1510.7 2046002.0  1.0  1.0  5  0 269527931
[03]  G09  f 44   -138.0 2046000.2  1.0  1.0  5  0 269527924
[04]  G16  f 41   1166.4 2045998.5  1.0  1.0  5  0 269527927
[05]  G21  f 39   1984.4 2045997.4  1.0  1.0  5  0 269527915
[06]  G26  f 33   1696.5 2045997.8  1.0  1.0  5  0 269527922
[07]  G27  f 51    807.0 2045999.0  1.0  1.0  5  0 269527932
[16]  B07 1f 40   -579.8 4092001.6  1.0  1.0  5  0 269513878
[17]  B10 1f 45   -633.3 4092001.6  1.0  1.0  5  0 269513875
[18]  B28 1f 35   1760.6 4091995.4  1.0  1.0  5  0 269513922
lsq: nits= 2
$GNGGA,025151.000,3112.7059,N,12136.4384,E,1,10,1.2,37.1,M,,,,0000*22
$GNRMC,025151.000,A,3112.7059,N,12136.4384,E,0.41,0.00,220519,,*11
$GPGSA,A,3,07,08,09,16,21,26,27,,,,,,1.4,1.2,0.7*30
$BDGSA,A,3,07,10,28,,,,,,,,,,1.4,1.2,0.7*2E
$GPGSV,3,1,09,04,00,000,42,07,26,317,39,08,65,239,41,09,31,279,44*7D
$GPGSV,3,2,09,16,45,045,41,21,09,041,39,26,25,072,33,27,73,022,51*75
$GPGSV,3,3,09,31,07,134,00*43
$BDGSV,1,1,03,07,66,004,40,10,51,313,45,28,43,046,35*50
$LOGTIM,3,-1332.633529,-1493.158463,0.000000,0.000000,-63.557*1F
EndT:        3
---00000048--- Acq_st=3 2019-5-22 02:51:51 
[00]  G04  f 42  -1318.4 2046001.7  1.0  1.0  5 3f 269528922
[01]  G07  f 38  -3563.9 2046004.6  1.0  1.0  5  0 269528921
[02]  G08  f 40  -1510.7 2046002.0  1.0  1.0  5  0 269528931
[03]  G09  f 44   -137.8 2046000.2  1.0  1.0  5  0 269528924
[04]  G16  f 40   1166.2 2045998.5  1.0  1.0  5  0 269528927
[05]  G21  f 39   1984.2 2045997.5  1.0  1.0  5  0 269528915
[06]  G26  f 34   1696.4 2045997.8  1.0  1.0  5  0 269528922
[07]  G27  f 51    807.1 2045999.0  1.0  1.0  5  0 269528932
[16]  B07 1f 40   -580.1 4092001.5  1.0  0.9  5  0 269514878
[17]  B10 1f 45   -633.9 4092001.6  1.0  1.0  5  0 269514875
[18]  B28 1f 35   1760.6 4091995.4  1.0  1.0  5  0 269514922
lsq: nits= 2
$GNGGA,025152.000,3112.7041,N,12136.4387,E,1,10,1.2,35.6,M,,,,0000*2E
$GNRMC,025152.000,A,3112.7041,N,12136.4387,E,0.52,0.00,220519,,*1A
$GPGSA,A,3,07,08,09,16,21,26,27,,,,,,1.4,1.2,0.7*30
$BDGSA,A,3,07,10,28,,,,,,,,,,1.4,1.2,0.7*2E
$GPGSV,3,1,09,04,00,000,42,07,26,317,38,08,65,240,40,09,31,279,44*73
$GPGSV,3,2,09,16,45,045,40,21,09,041,39,26,25,072,34,27,73,022,51*73
$GPGSV,3,3,09,31,07,134,00*43
$BDGSV,1,1,04,07,66,004,40,10,51,313,45,28,43,046,35,08,30,169,00*62
$LOGTIM,3,-1399.114084,-1559.995047,0.000000,0.000000,-63.813*1F
EndT:        3
---00000049--- Acq_st=3 2019-5-22 02:51:52 
[00]  G04  f 42  -1319.0 2046001.7  1.0  1.0  5 3f 269529922
[01]  G07  f 39  -3564.9 2046004.6  1.0  1.0  5  0 269529921
[02]  G08  f 41  -1511.4 2046002.0  1.0  1.0  5  0 269529931
[03]  G09  f 44   -138.8 2046000.2  1.0  1.0  5  0 269529924
[04]  G16  f 40   1165.1 2045998.5  1.0  1.0  5  0 269529927
[05]  G21  f 40   1983.7 2045997.4  1.0  1.0  5  0 269529915
[06]  G26  f 36   1695.2 2045997.8  1.0  1.0  5  0 269529922
[07]  G27  f 50    806.7 2045999.0  1.0  1.0  5  0 269529932
[16]  B07 1f 40   -581.9 4092001.6  1.0  1.0  5  0 269515878
[17]  B10 1f 45   -634.9 4092001.7  1.0  1.0  5  0 269515875
[18]  B28 1f 35   1759.7 4091995.4  1.0  1.1  5  0 269515922
lsq: nits= 2
$GNGGA,025153.000,3112.7040,N,12136.4384,E,1,09,1.3,34.9,M,,,,0000*2A
$GNRMC,025153.000,A,3112.7040,N,12136.4384,E,0.48,0.00,220519,,*12
$GPGSA,A,3,07,08,09,16,21,26,27,,,,,,1.5,1.3,0.8*3F
$BDGSA,A,3,07,28,,,,,,,,,,,1.5,1.3,0.8*20
$GPGSV,3,1,09,04,00,000,42,07,26,317,39,08,65,240,41,09,31,279,44*73
$GPGSV,3,2,09,16,45,045,40,21,09,041,40,26,25,072,36,27,73,022,50*7E
$GPGSV,3,3,09,31,07,134,00*43
$BDGSV,1,1,04,07,66,004,40,10,51,313,45,28,43,046,35,08,30,169,00*62
$LOGTIM,3,-1463.534164,-1624.616679,0.000000,0.000000,-63.772*1A
EndT:        3
---00000050--- Acq_st=3 2019-5-22 02:51:53 
[00]  G04  f 42  -1318.5 2046001.7  1.0  1.0  5 3f 269530922
[01]  G07  f 39  -3564.5 2046004.6  1.0  1.0  5  0 269530921
[02]  G08  f 40  -1511.0 2046002.0  1.0  1.0  5  0 269530931
[03]  G09  f 44   -138.1 2046000.2  1.0  1.0  5  0 269530924
[04]  G16  f 39   1165.0 2045998.5  1.0  1.0  5  0 269530927
[05]  G21  f 40   1984.0 2045997.4  1.0  1.0  5  0 269530915
[06]  G26  f 35   1695.8 2045997.7  1.0  0.9  5  0 269530922
[07]  G27  f 50    807.1 2045999.0  1.0  1.0  5  0 269530932
[16]  B07 1f 39   -581.2 4092001.5  1.0  1.0  5  0 269516878
[17]  B10 1f 45   -634.9 4092001.6  1.0  1.0  5  0 269516875
[18]  B28 1f 35   1760.6 4091995.3  1.0  0.9  5  0 269516922
lsq: nits= 2
$GNGGA,025154.000,3112.7038,N,12136.4386,E,1,09,1.3,34.7,M,,,,0000*2E
$GNRMC,025154.000,A,3112.7038,N,12136.4386,E,0.42,0.00,220519,,*12
$GPGSA,A,3,07,08,09,16,21,26,27,,,,,,1.5,1.3,0.8*3F
$BDGSA,A,3,07,28,,,,,,,,,,,1.5,1.3,0.8*20
$GPGSV,3,1,09,04,00,000,42,07,26,317,39,08,65,240,40,09,31,279,44*72
$GPGSV,3,2,09,16,45,045,39,21,09,041,40,26,25,072,35,27,73,022,50*73
$GPGSV,3,3,09,31,07,134,00*43
$BDGSV,1,1,04,07,66,004,39,10,51,313,45,28,43,046,35,08,30,169,00*6C
$LOGTIM,3,-1528.118997,-1689.731447,0.000000,0.000000,-63.873*18
EndT:        3
---00000051--- Acq_st=3 2019-5-22 02:51:54 
[00]  G04  f 42  -1318.7 2046001.7  1.0  1.0  5 3f 269531922
[01]  G07  f 37  -3565.5 2046004.7  1.0  1.0  5  0 269531921
[02]  G08  f 40  -1510.7 2046002.0  1.0  1.0  5  0 269531931
[03]  G09  f 44   -137.8 2046000.2  1.0  1.0  5  0 269531924
[04]  G16  f 39   1165.0 2045998.5  1.0  1.0  5  0 269531927
[05]  G21  f 40   1983.6 2045997.4  1.0  1.0  5  0 269531915
[06]  G26  f 35   1695.3 2045997.8  1.0  1.0  5  0 269531922
[07]  G27  f 50    806.8 2045999.0  1.0  1.0  5  0 269531932
[16]  B07 1f 39   -581.9 4092001.5  1.0  1.0  5  0 269517878
[17]  B10 1f 45   -635.4 4092001.6  1.0  1.0  5  0 269517875
[18]  B28 1f 36   1760.2 4091995.4  1.0  1.0  5  0 269517922
lsq: nits= 2
$GNGGA,025155.000,3112.7037,N,12136.4383,E,1,09,1.3,34.5,M,,,,0000*27
$GNRMC,025155.000,A,3112.7037,N,12136.4383,E,0.39,0.00,220519,,*15
$GPGSA,A,3,07,08,09,16,21,26,27,,,,,,1.5,1.3,0.8*3F
