FlashID=0x1 0x20 0x18
BBram_blkflag1: 463e: b9c1
FW Ver: 1.30  
GPS00 Init Dop:   5000, 40
GPS01 Init Dop:   5000, 40
GPS02 Init Dop:   5000, 40
GPS03 Init Dop:   5000, 40
GPS04 Init Dop:   5000, 40
GPS05 Init Dop:   5000, 40
GPS06 Init Dop:   5000, 40
GPS07 Init Dop:   5000, 40
GPS08 Init Dop:   5000, 40
GPS09 Init Dop:   5000, 40
GPS10 Init Dop:   5000, 40
GPS11 Init Dop:   5000, 40
GPS12 Init Dop:   5000, 40
GPS13 Init Dop:   5000, 40
GPS14 Init Dop:   5000, 40
GPS15 Init Dop:   5000, 40
GPS16 Init Dop:   5000, 40
GPS17 Init Dop:   5000, 40
GPS18 Init Dop:   5000, 40
GPS19 Init Dop:   5000, 40
GPS20 Init Dop:   5000, 40
GPS21 Init Dop:   5000, 40
GPS22 Init Dop:   5000, 40
GPS23 Init Dop:   5000, 40
GPS24 Init Dop:   5000, 40
GPS25 Init Dop:   5000, 40
GPS26 Init Dop:   5000, 40
GPS27 Init Dop:   5000, 40
GPS28 Init Dop:   5000, 40
GPS29 Init Dop:   5000, 40
GPS30 Init Dop:   5000, 40
GPS31 Init Dop:   5000, 40
BDS00 Init Dop:   5000, 40
BDS01 Init Dop:   5000, 40
BDS02 Init Dop:   5000, 40
BDS03 Init Dop:   5000, 40
BDS04 Init Dop:   5000, 40
BDS05 Init Dop:   5000, 40
BDS06 Init Dop:   5000, 40
BDS07 Init Dop:   5000, 40
BDS08 Init Dop:   5000, 40
BDS09 Init Dop:   5000, 40
BDS10 Init Dop:   5000, 40
BDS11 Init Dop:   5000, 40
BDS12 Init Dop:   5000, 40
BDS13 Init Dop:   5000, 40
BDS14 Init Dop:   5000, 40
BDS15 Init Dop:   5000, 40
BDS16 Init Dop:   5000, 40
BDS17 Init Dop:   5000, 40
BDS18 Init Dop:   5000, 40
BDS19 Init Dop:   5000, 40
BDS20 Init Dop:   5000, 40
BDS21 Init Dop:   5000, 40
BDS22 Init Dop:   5000, 40
BDS23 Init Dop:   5000, 40
BDS24 Init Dop:   5000, 40
BDS25 Init Dop:   5000, 40
BDS26 Init Dop:   5000, 40
BDS27 Init Dop:   5000, 40
BDS28 Init Dop:   5000, 40
BDS29 Init Dop:   5000, 40
BDS30 Init Dop:   5000, 40
BDS31 Init Dop:   5000, 40
---00000001--- Acq_st=3 2019-5-25 07:27:48 
$GNGGA,000000.000,,,,,0,00,,,M,,,,0000*2B
$GNRMC,000000.000,A,,,,,,,000000,,*26
$GPGSA,A,1,,,,,,,,,,,,,,,*1E
$BDGSA,A,1,,,,,,,,,,,,,,,*0F
$LOGTIM,0,0.000000,0.000000,0.000000,0.000000,0.000*0A
EndT:        0
ch0 satid=0,max_freq = -2500,max_mean = 23301,max_phase = 1171,max_value = 189792,acq ok1!
acq ok1 timeH = 0,timeL = 14378376,freq_stage = 4
---00000002--- Acq_st=3 2019-5-25 07:27:49 
[00]  G01  1 25   2424.8 2045998.3  0.2  0.0  1  0         0
$GNGGA,000000.000,,,,,0,00,,,M,,,,0000*2B
$GNRMC,000000.000,A,,,,,,,000000,,*26
$GPGSA,A,1,,,,,,,,,,,,,,,*1E
$BDGSA,A,1,,,,,,,,,,,,,,,*0F
$LOGTIM,0,0.000000,0.000000,0.000000,0.000000,0.000*0A
EndT:        0
---00000003--- Acq_st=3 2019-5-25 07:27:50 
[00]  G01  7 27   2428.6 2045996.7  0.5  0.0 20  0        15
$GNGGA,000000.000,,,,,0,00,,,M,,,,0000*2B
$GNRMC,000000.000,A,,,,,,,000000,,*26
$GPGSA,A,1,,,,,,,,,,,,,,,*1E
$BDGSA,A,1,,,,,,,,,,,,,,,*0F
$GPGSV,1,1,01,01,00,000,27*4C
$LOGTIM,0,0.000000,0.000000,0.000000,0.000000,0.000*0A
EndT:        0
---00000004--- Acq_st=3 2019-5-25 07:27:51 
[00]  G01  7 37   2426.3 2045996.8  0.9  1.0  5  0        14
$GNGGA,000000.000,,,,,0,00,,,M,,,,0000*2B
$GNRMC,000000.000,A,,,,,,,000000,,*26
$GPGSA,A,1,,,,,,,,,,,,,,,*1E
$BDGSA,A,1,,,,,,,,,,,,,,,*0F
$GPGSV,1,1,01,01,00,000,37*4D
$LOGTIM,0,0.000000,0.000000,0.000000,0.000000,0.000*0A
EndT:        0
---00000005--- Acq_st=3 2019-5-25 07:27:52 
[00]  G01  7 37   2422.4 2045996.8  1.0  1.0  5  0        14
$GNGGA,000000.000,,,,,0,00,,,M,,,,0000*2B
$GNRMC,000000.000,A,,,,,,,000000,,*26
$GPGSA,A,1,,,,,,,,,,,,,,,*1E
$BDGSA,A,1,,,,,,,,,,,,,,,*0F
$GPGSV,1,1,01,01,00,000,37*4D
$LOGTIM,0,0.000000,0.000000,0.000000,0.000000,0.000*0A
EndT:        0
---00000006--- Acq_st=3 2019-5-25 07:27:53 
[00]  G01  7 36   2426.1 2045996.8  1.0  1.0  5  0        14
$GNGGA,000000.000,,,,,0,00,,,M,,,,0000*2B
$GNRMC,000000.000,A,,,,,,,000000,,*26
$GPGSA,A,1,,,,,,,,,,,,,,,*1E
$BDGSA,A,1,,,,,,,,,,,,,,,*0F
$GPGSV,1,1,01,01,00,000,36*4C
$LOGTIM,0,0.000000,0.000000,0.000000,0.000000,0.000*0A
EndT:        0
---00000007--- Acq_st=3 2019-5-25 07:27:54 
[00]  G01  7 37   2424.2 2045996.8  1.0  0.9  5  0        14
$GNGGA,000000.000,,,,,0,00,,,M,,,,0000*2B
$GNRMC,000000.000,A,,,,,,,000000,,*26
$GPGSA,A,1,,,,,,,,,,,,,,,*1E
$BDGSA,A,1,,,,,,,,,,,,,,,*0F
$GPGSV,1,1,01,01,00,000,37*4D
$LOGTIM,0,0.000000,0.000000,0.000000,0.000000,0.000*0A
EndT:        0
---00000008--- Acq_st=3 2019-5-25 07:27:55 
[00]  G01  f 37   2427.7 2045996.9  1.0  1.0  5  0        14
$GNGGA,000000.000,,,,,0,00,,,M,,,,0000*2B
$GNRMC,000000.000,A,,,,,,,000000,,*26
$GPGSA,A,1,,,,,,,,,,,,,,,*1E
$BDGSA,A,1,,,,,,,,,,,,,,,*0F
$GPGSV,1,1,01,01,00,000,37*4D
$LOGTIM,0,0.000000,0.000000,0.000000,0.000000,0.000*0A
EndT:        0
---00000009--- Acq_st=3 2019-5-25 07:27:56 
[00]  G01  f 36   2437.9 2045996.9  1.0  1.0  5  0 545293474
$GNGGA,000000.000,,,,,0,00,,,M,,,,0000*2B
$GNRMC,000000.000,A,,,,,,,000000,,*26
$GPGSA,A,1,,,,,,,,,,,,,,,*1E
$BDGSA,A,1,,,,,,,,,,,,,,,*0F
$GPGSV,1,1,01,01,00,000,36*4C
$LOGTIM,0,0.000000,0.000000,0.000000,0.000000,0.000*0A
EndT:        0
---00000010--- Acq_st=3 2019-5-25 07:27:57 
[00]  G01  f 36   2435.7 2045996.8  1.0  1.0  5  0 545294474
$GNGGA,000000.000,,,,,0,00,,,M,,,,0000*2B
$GNRMC,000000.000,A,,,,,,,000000,,*26
$GPGSA,A,1,,,,,,,,,,,,,,,*1E
$BDGSA,A,1,,,,,,,,,,,,,,,*0F
$GPGSV,1,1,01,01,00,000,36*4C
$LOGTIM,0,0.000000,0.000000,0.000000,0.000000,0.000*0A
EndT:        0
---00000011--- Acq_st=3 2019-5-25 07:27:58 
[00]  G01  f 36   2430.1 2045996.9  1.0  0.9  5  0 545295474
$GNGGA,000000.000,,,,,0,00,,,M,,,,0000*2B
$GNRMC,000000.000,A,,,,,,,000000,,*26
$GPGSA,A,1,,,,,,,,,,,,,,,*1E
$BDGSA,A,1,,,,,,,,,,,,,,,*0F
$GPGSV,1,1,01,01,00,000,36*4C
$LOGTIM,0,0.000000,0.000000,0.000000,0.000000,0.000*0A
EndT:        0
---00000012--- Acq_st=3 2019-5-25 07:27:59 
[00]  G01  f 36   2427.8 2045996.8  1.0  1.0  5  0 545296474
$GNGGA,000000.000,,,,,0,00,,,M,,,,0000*2B
$GNRMC,000000.000,A,,,,,,,000000,,*26
$GPGSA,A,1,,,,,,,,,,,,,,,*1E
$BDGSA,A,1,,,,,,,,,,,,,,,*0F
$GPGSV,1,1,01,01,00,000,36*4C
$LOGTIM,0,0.000000,0.000000,0.000000,0.000000,0.000*0A
EndT:        0
---00000013--- Acq_st=3 2019-5-25 07:28:0 
[00]  G01  f 37   2423.7 2045996.9  1.0  0.9  5  0 545297474
$GNGGA,000000.000,,,,,0,00,,,M,,,,0000*2B
$GNRMC,000000.000,A,,,,,,,000000,,*26
$GPGSA,A,1,,,,,,,,,,,,,,,*1E
$BDGSA,A,1,,,,,,,,,,,,,,,*0F
$GPGSV,1,1,01,01,00,000,37*4D
$LOGTIM,0,0.000000,0.000000,0.000000,0.000000,0.000*0A
EndT:        0
ch1 satid=10,max_freq = -2250,max_mean = 24619,max_phase = 1115,max_value = 339696,acq ok1!
acq ok1 timeH = 0,timeL = 251935126,freq_stage = 4
---00000014--- Acq_st=3 2019-5-25 07:28:1 
[00]  G01  f 37   2425.3 2045996.8  1.0  1.0  5  0 545298474
[01]  G11  1  7   2184.2 2045999.4 -0.0  0.0  1  0         0
$GNGGA,000000.000,,,,,0,00,,,M,,,,0000*2B
$GNRMC,000000.000,A,,,,,,,000000,,*26
$GPGSA,A,1,,,,,,,,,,,,,,,*1E
$BDGSA,A,1,,,,,,,,,,,,,,,*0F
$GPGSV,1,1,01,01,00,000,37*4D
$LOGTIM,0,0.000000,0.000000,0.000000,0.000000,0.000*0A
EndT:        0
---00000015--- Acq_st=3 2019-5-25 07:28:2 
[00]  G01  f 36   2424.6 2045996.8  1.0  0.9  5  0 545299474
[01]  G11  7  7   2136.2 2045997.0  0.1  0.0 20  0         2
$GNGGA,000000.000,,,,,0,00,,,M,,,,0000*2B
$GNRMC,000000.000,A,,,,,,,000000,,*26
$GPGSA,A,1,,,,,,,,,,,,,,,*1E
$BDGSA,A,1,,,,,,,,,,,,,,,*0F
$GPGSV,1,1,01,01,00,000,36*4C
$LOGTIM,0,0.000000,0.000000,0.000000,0.000000,0.000*0A
EndT:        0
---00000016--- Acq_st=3 2019-5-25 07:28:3 
[00]  G01  f 36   2422.8 2045996.9  1.0  1.0  5  0 545300474
[01]  G11  7 39   2134.6 2045997.1  1.0  1.0  5  0        12
$GNGGA,000000.000,,,,,0,00,,,M,,,,0000*2B
$GNRMC,000000.000,A,,,,,,,000000,,*26
$GPGSA,A,1,,,,,,,,,,,,,,,*1E
$BDGSA,A,1,,,,,,,,,,,,,,,*0F
$GPGSV,1,1,02,01,00,000,36,11,00,000,39*75
$LOGTIM,0,0.000000,0.000000,0.000000,0.000000,0.000*0A
EndT:        0
---00000017--- Acq_st=3 2019-5-25 07:28:4 
[00]  G01  f 36   2425.5 2045996.9  1.0  1.0  5  0 545301474
[01]  G11  7 40   2137.2 2045997.1  1.0  1.0  5  0        12
$GNGGA,000000.000,,,,,0,00,,,M,,,,0000*2B
$GNRMC,000000.000,A,,,,,,,000000,,*26
$GPGSA,A,1,,,,,,,,,,,,,,,*1E
$BDGSA,A,1,,,,,,,,,,,,,,,*0F
$GPGSV,1,1,02,01,00,000,36,11,00,000,40*7B
$LOGTIM,0,0.000000,0.000000,0.000000,0.000000,0.000*0A
EndT:        0
---00000018--- Acq_st=3 2019-5-25 07:28:5 
[00]  G01  f 36   2420.8 2045996.9  1.0  1.0  5  0 545302474
[01]  G11  7 40   2131.9 2045997.2  1.0  1.0  5  0        12
$GNGGA,000000.000,,,,,0,00,,,M,,,,0000*2B
$GNRMC,000000.000,A,,,,,,,000000,,*26
$GPGSA,A,1,,,,,,,,,,,,,,,*1E
$BDGSA,A,1,,,,,,,,,,,,,,,*0F
$GPGSV,1,1,02,01,00,000,36,11,00,000,40*7B
$LOGTIM,0,0.000000,0.000000,0.000000,0.000000,0.000*0A
EndT:        0
---00000019--- Acq_st=3 2019-5-25 07:28:6 
[00]  G01  f 36   2417.1 2045996.9  1.0  1.0  5  0 545303474
[01]  G11  7 40   2127.6 2045997.2  1.0  1.0  5  0        12
$GNGGA,000000.000,,,,,0,00,,,M,,,,0000*2B
$GNRMC,000000.000,A,,,,,,,000000,,*26
$GPGSA,A,1,,,,,,,,,,,,,,,*1E
$BDGSA,A,1,,,,,,,,,,,,,,,*0F
$GPGSV,1,1,02,01,00,000,36,11,00,000,40*7B
$LOGTIM,0,0.000000,0.000000,0.000000,0.000000,0.000*0A
EndT:        0
---00000020--- Acq_st=3 2019-5-25 07:28:7 
[00]  G01  f 35   2420.7 2045996.9  1.0  0.9  5  0 545304474
[01]  G11  f 39   2131.8 2045997.2  1.0  1.0  5  0        12
$GNGGA,000000.000,,,,,0,00,,,M,,,,0000*2B
$GNRMC,000000.000,A,,,,,,,000000,,*26
$GPGSA,A,1,,,,,,,,,,,,,,,*1E
$BDGSA,A,1,,,,,,,,,,,,,,,*0F
$GPGSV,1,1,02,01,00,000,35,11,00,000,39*76
$LOGTIM,0,0.000000,0.000000,0.000000,0.000000,0.000*0A
EndT:        0
---00000021--- Acq_st=3 2019-5-25 07:28:8 
[00]  G01  f 36   2424.0 2045996.8  1.0  1.0  5  0 545305474
[01]  G11  f 40   2134.7 2045997.2  1.0  1.0  5  0 545305472
$GNGGA,000000.000,,,,,0,00,,,M,,,,0000*2B
$GNRMC,000000.000,A,,,,,,,000000,,*26
$GPGSA,A,1,,,,,,,,,,,,,,,*1E
$BDGSA,A,1,,,,,,,,,,,,,,,*0F
$GPGSV,1,1,02,01,00,000,36,11,00,000,40*7B
$LOGTIM,0,0.000000,0.000000,0.000000,0.000000,0.000*0A
EndT:        0
---00000022--- Acq_st=3 2019-5-25 07:28:9 
[00]  G01  f 37   2428.5 2045996.9  1.0  1.0  5  0 545306474
[01]  G11  f 40   2139.3 2045997.2  1.0  1.0  5  0 545306472
$GNGGA,000000.000,,,,,0,00,,,M,,,,0000*2B
$GNRMC,000000.000,A,,,,,,,000000,,*26
$GPGSA,A,1,,,,,,,,,,,,,,,*1E
$BDGSA,A,1,,,,,,,,,,,,,,,*0F
$GPGSV,1,1,02,01,00,000,37,11,00,000,40*7A
$LOGTIM,0,0.000000,0.000000,0.000000,0.000000,0.000*0A
EndT:        0
ch2 satid=17,max_freq = -4000,max_mean = 24182,max_phase = 1936,max_value = 134483,acq ok1!
acq ok1 timeH = 0,timeL = 422972152,freq_stage = 5
---00000023--- Acq_st=3 2019-5-25 07:28:10 
[00]  G01  f 36   2428.2 2045996.9  1.0  1.0  5  0 545307474
[01]  G11  f 41   2139.5 2045997.2  1.0  1.0  5  0 545307472
[02]  G18  1  7   4009.5 2045994.7 -0.1  0.0  1  0         0
$GNGGA,000000.000,,,,,0,00,,,M,,,,0000*2B
$GNRMC,000000.000,A,,,,,,,000000,,*26
$GPGSA,A,1,,,,,,,,,,,,,,,*1E
$BDGSA,A,1,,,,,,,,,,,,,,,*0F
$GPGSV,1,1,02,01,00,000,36,11,00,000,41*7A
$LOGTIM,0,0.000000,0.000000,0.000000,0.000000,0.000*0A
EndT:        0
---00000024--- Acq_st=3 2019-5-25 07:28:11 
[00]  G01  f 36   2423.4 2045996.9  1.0  0.9  5  0 545308474
[01]  G11  f 40   2134.4 2045997.2  1.0  1.0  5  0 545308472
[02]  G18  1  7   4110.3 2045995.2  0.1  0.0  1  0         1
$GNGGA,000000.000,,,,,0,00,,,M,,,,0000*2B
$GNRMC,000000.000,A,,,,,,,000000,,*26
$GPGSA,A,1,,,,,,,,,,,,,,,*1E
$BDGSA,A,1,,,,,,,,,,,,,,,*0F
$GPGSV,1,1,02,01,00,000,36,11,00,000,40*7B
$LOGTIM,0,0.000000,0.000000,0.000000,0.000000,0.000*0A
EndT:        0
---00000025--- Acq_st=3 2019-5-25 07:28:12 
[00]  G01  f 36   2422.1 2045996.9  1.0  1.0  5  0 545309474
[01]  G11  f 40   2132.7 2045997.2  1.0  1.0  5  0 545309472
[02]  G18  1  7   4269.6 2045994.6 -0.0  0.0  1  0         1
$GNGGA,000000.000,,,,,0,00,,,M,,,,0000*2B
$GNRMC,000000.000,A,,,,,,,000000,,*26
$GPGSA,A,1,,,,,,,,,,,,,,,*1E
$BDGSA,A,1,,,,,,,,,,,,,,,*0F
$GPGSV,1,1,02,01,00,000,36,11,00,000,40*7B
$LOGTIM,0,0.000000,0.000000,0.000000,0.000000,0.000*0A
EndT:        0
---00000026--- Acq_st=3 2019-5-25 07:28:13 
[00]  G01  f 36   2425.6 2045996.8  1.0  0.9  5  0 545310474
[01]  G11  f 40   2137.0 2045997.2  1.0  1.0  5  0 545310472
$GNGGA,000000.000,,,,,0,00,,,M,,,,0000*2B
$GNRMC,000000.000,A,,,,,,,000000,,*26
$GPGSA,A,1,,,,,,,,,,,,,,,*1E
$BDGSA,A,1,,,,,,,,,,,,,,,*0F
$GPGSV,1,1,02,01,00,000,36,11,00,000,40*7B
$LOGTIM,0,0.000000,0.000000,0.000000,0.000000,0.000*0A
EndT:        0
---00000027--- Acq_st=3 2019-5-25 07:28:14 
[00]  G01  f 37   2424.5 2045996.8  1.0  0.9  5  0 545311474
[01]  G11  f 40   2134.9 2045997.2  1.0  1.0  5  0 545311472
$GNGGA,000000.000,,,,,0,00,,,M,,,,0000*2B
$GNRMC,000000.000,A,,,,,,,000000,,*26
$GPGSA,A,1,,,,,,,,,,,,,,,*1E
$BDGSA,A,1,,,,,,,,,,,,,,,*0F
$GPGSV,1,1,02,01,00,000,37,11,00,000,40*7A
$LOGTIM,0,0.000000,0.000000,0.000000,0.000000,0.000*0A
EndT:        0
ch2 satid=21,max_freq = -2000,max_mean = 24887,max_phase = 2043,max_value = 1174319,acq ok1!
acq ok1 timeH = 0,timeL = 513247529,freq_stage = 4
---00000028--- Acq_st=3 2019-5-25 07:28:15 
[00]  G01  f 37   2423.2 2045996.8  1.0  1.0  5  0 545312474
[01]  G11  f 40   2133.6 2045997.2  1.0  1.0  5  0 545312472
[02]  G22  1  7   1988.5 2045998.1 -0.1  0.0  1  0         1
$GNGGA,000000.000,,,,,0,00,,,M,,,,0000*2B
$GNRMC,000000.000,A,,,,,,,000000,,*26
$GPGSA,A,1,,,,,,,,,,,,,,,*1E
$BDGSA,A,1,,,,,,,,,,,,,,,*0F
$GPGSV,1,1,02,01,00,000,37,11,00,000,40*7A
$LOGTIM,0,0.000000,0.000000,0.000000,0.000000,0.000*0A
EndT:        0
---00000029--- Acq_st=3 2019-5-25 07:28:16 
[00]  G01  f 37   2423.3 2045996.9  1.0  1.0  5  0 545313474
[01]  G11  f 41   2133.7 2045997.2  1.0  1.0  5  0 545313472
[02]  G22  1  7   2042.2 2045998.0  0.0  0.0  1  0        12
$GNGGA,000000.000,,,,,0,00,,,M,,,,0000*2B
$GNRMC,000000.000,A,,,,,,,000000,,*26
$GPGSA,A,1,,,,,,,,,,,,,,,*1E
$BDGSA,A,1,,,,,,,,,,,,,,,*0F
$GPGSV,1,1,02,01,00,000,37,11,00,000,41*7B
$LOGTIM,0,0.000000,0.000000,0.000000,0.000000,0.000*0A
EndT:        0
---00000030--- Acq_st=3 2019-5-25 07:28:17 
[00]  G01  f 37   2427.9 2045996.9  1.0  1.0  5  0 545314474
[01]  G11  f 40   2138.0 2045997.2  1.0  1.0  5  0 545314472
[02]  G22  1  7   2087.7 2045998.1  0.1  0.0  1  0        12
$GNGGA,000000.000,,,,,0,00,,,M,,,,0000*2B
$GNRMC,000000.000,A,,,,,,,000000,,*26
$GPGSA,A,1,,,,,,,,,,,,,,,*1E
$BDGSA,A,1,,,,,,,,,,,,,,,*0F
$GPGSV,1,1,02,01,00,000,37,11,00,000,40*7A
$LOGTIM,0,0.000000,0.000000,0.000000,0.000000,0.000*0A
EndT:        0
---00000031--- Acq_st=3 2019-5-25 07:28:18 
[00]  G01  f 37   2428.6 2045996.9  1.0  1.0  5  0 545315474
[01]  G11  f 41   2139.0 2045997.2  1.0  1.0  5  0 545315472
$GNGGA,000000.000,,,,,0,00,,,M,,,,0000*2B
$GNRMC,000000.000,A,,,,,,,000000,,*26
$GPGSA,A,1,,,,,,,,,,,,,,,*1E
$BDGSA,A,1,,,,,,,,,,,,,,,*0F
$GPGSV,1,1,02,01,00,000,37,11,00,000,41*7B
$LOGTIM,0,0.000000,0.000000,0.000000,0.000000,0.000*0A
EndT:        0
---00000032--- Acq_st=3 2019-5-25 07:28:19 
[00]  G01  f 36   2421.6 2045996.8  1.0  0.9  5  0 545316474
[01]  G11  f 40   2132.2 2045997.2  1.0  1.0  5  0 545316472
$GNGGA,000000.000,,,,,0,00,,,M,,,,0000*2B
$GNRMC,000000.000,A,,,,,,,000000,,*26
$GPGSA,A,1,,,,,,,,,,,,,,,*1E
$BDGSA,A,1,,,,,,,,,,,,,,,*0F
$GPGSV,1,1,02,01,00,000,36,11,00,000,40*7B
$LOGTIM,0,0.000000,0.000000,0.000000,0.000000,0.000*0A
EndT:        0
---00000033--- Acq_st=3 2019-5-25 07:28:20 
[00]  G01  f 37   2418.3 2045996.9  1.0  1.0  5  0 545317474
[01]  G11  f 40   2129.0 2045997.2  1.0  1.0  5  0 545317472
$GNGGA,000000.000,,,,,0,00,,,M,,,,0000*2B
$GNRMC,000000.000,A,,,,,,,000000,,*26
$GPGSA,A,1,,,,,,,,,,,,,,,*1E
$BDGSA,A,1,,,,,,,,,,,,,,,*0F
$GPGSV,1,1,02,01,00,000,37,11,00,000,40*7A
$LOGTIM,0,0.000000,0.000000,0.000000,0.000000,0.000*0A
EndT:        0
---00000034--- Acq_st=3 2019-5-25 07:28:21 
[00]  G01  f 36   2416.5 2045996.9  1.0  0.9  5  0 545318474
[01]  G11  f 40   2126.9 2045997.2  1.0  1.0  5  0 545318472
$GNGGA,000000.000,,,,,0,00,,,M,,,,0000*2B
$GNRMC,000000.000,A,,,,,,,000000,,*26
$GPGSA,A,1,,,,,,,,,,,,,,,*1E
$BDGSA,A,1,,,,,,,,,,,,,,,*0F
$GPGSV,1,1,02,01,00,000,36,11,00,000,40*7B
$LOGTIM,0,0.000000,0.000000,0.000000,0.000000,0.000*0A
EndT:        0
---00000035--- Acq_st=3 2019-5-25 07:28:22 
[00]  G01  f 36   2417.3 2045996.9  1.0  0.9  5  0 545319474
[01]  G11  f 41   2127.5 2045997.2  1.0  1.0  5  0 545319472
$GNGGA,000000.000,,,,,0,00,,,M,,,,0000*2B
$GNRMC,000000.000,A,,,,,,,000000,,*26
$GPGSA,A,1,,,,,,,,,,,,,,,*1E
$BDGSA,A,1,,,,,,,,,,,,,,,*0F
$GPGSV,1,1,02,01,00,000,36,11,00,000,41*7A
$LOGTIM,0,0.000000,0.000000,0.000000,0.000000,0.000*0A
EndT:        0
---00000036--- Acq_st=3 2019-5-25 07:28:23 
[00]  G01  f 36   2423.5 2045996.9  1.0  1.0  5  0 545320474
[01]  G11  f 41   2133.4 2045997.2  1.0  1.0  5  0 545320472
$GNGGA,000000.000,,,,,0,00,,,M,,,,0000*2B
$GNRMC,000000.000,A,,,,,,,000000,,*26
$GPGSA,A,1,,,,,,,,,,,,,,,*1E
$BDGSA,A,1,,,,,,,,,,,,,,,*0F
$GPGSV,1,1,02,01,00,000,36,11,00,000,41*7A
$LOGTIM,0,0.000000,0.000000,0.000000,0.000000,0.000*0A
EndT:        0
---00000037--- Acq_st=3 2019-5-25 07:28:24 
[00]  G01  f 36   2423.9 2045996.9  1.0  1.0  5  0 545321474
[01]  G11  f 40   2133.8 2045997.2  1.0  0.9  5  0 545321472
$GNGGA,000000.000,,,,,0,00,,,M,,,,0000*2B
$GNRMC,000000.000,A,,,,,,,000000,,*26
$GPGSA,A,1,,,,,,,,,,,,,,,*1E
$BDGSA,A,1,,,,,,,,,,,,,,,*0F
$GPGSV,1,1,02,01,00,000,36,11,00,000,40*7B
$LOGTIM,0,0.000000,0.000000,0.000000,0.000000,0.000*0A
EndT:        0
---00000038--- Acq_st=3 2019-5-25 07:28:25 
[00]  G01  f 35   2419.7 2045996.8  1.0  0.9  5  0 545322474
[01]  G11  f 40   2130.2 2045997.3  1.0  1.0  5  0 545322472
$GNGGA,000000.000,,,,,0,00,,,M,,,,0000*2B
$GNRMC,000000.000,A,,,,,,,000000,,*26
$GPGSA,A,1,,,,,,,,,,,,,,,*1E
$BDGSA,A,1,,,,,,,,,,,,,,,*0F
$GPGSV,1,1,02,01,00,000,35,11,00,000,40*78
$LOGTIM,0,0.000000,0.000000,0.000000,0.000000,0.000*0A
EndT:        0
---00000039--- Acq_st=3 2019-5-25 07:28:26 
[00]  G01  f 35   2422.8 2045996.7  1.0  1.0  5  0 545323474
[01]  G11  f 40   2132.6 2045997.3  1.0  1.0  5  0 545323472
$GNGGA,000000.000,,,,,0,00,,,M,,,,0000*2B
$GNRMC,000000.000,A,,,,,,,000000,,*26
$GPGSA,A,1,,,,,,,,,,,,,,,*1E
$BDGSA,A,1,,,,,,,,,,,,,,,*0F
$GPGSV,1,1,02,01,00,000,35,11,00,000,40*78
$LOGTIM,0,0.000000,0.000000,0.000000,0.000000,0.000*0A
EndT:        0
---00000040--- Acq_st=3 2019-5-25 07:28:27 
[00]  G01  f 35   2429.2 2045996.9  1.0  1.0  5  0 545324474
[01]  G11  f 40   2138.8 2045997.2  1.0  1.0  5  0 545324472
$GNGGA,000000.000,,,,,0,00,,,M,,,,0000*2B
$GNRMC,000000.000,A,,,,,,,000000,,*26
$GPGSA,A,1,,,,,,,,,,,,,,,*1E
$BDGSA,A,1,,,,,,,,,,,,,,,*0F
$GPGSV,1,1,02,01,00,000,35,11,00,000,40*78
$LOGTIM,0,0.000000,0.000000,0.000000,0.000000,0.000*0A
EndT:        0
---00000041--- Acq_st=3 2019-5-25 07:28:28 
[00]  G01  f 35   2424.4 2045996.9  1.0  0.9  5  0 545325474
[01]  G11  f 40   2134.6 2045997.2  1.0  1.0  5  0 545325472
$GNGGA,000000.000,,,,,0,00,,,M,,,,0000*2B
$GNRMC,000000.000,A,,,,,,,000000,,*26
$GPGSA,A,1,,,,,,,,,,,,,,,*1E
$BDGSA,A,1,,,,,,,,,,,,,,,*0F
$GPGSV,1,1,02,01,00,000,35,11,00,000,40*78
$LOGTIM,0,0.000000,0.000000,0.000000,0.000000,0.000*0A
EndT:        0
---00000042--- Acq_st=3 2019-5-25 07:28:29 
[00]  G01  f 35   2421.2 2045996.9  1.0  0.9  5  0 545326474
[01]  G11  f 40   2131.4 2045997.2  1.0  1.0  5  0 545326472
$GNGGA,000000.000,,,,,0,00,,,M,,,,0000*2B
$GNRMC,000000.000,A,,,,,,,000000,,*26
$GPGSA,A,1,,,,,,,,,,,,,,,*1E
$BDGSA,A,1,,,,,,,,,,,,,,,*0F
$GPGSV,1,1,02,01,00,000,35,11,00,000,40*78
$LOGTIM,0,0.000000,0.000000,0.000000,0.000000,0.000*0A
EndT:        0
---00000043--- Acq_st=3 2019-5-25 07:28:30 
[00]  G01  f 35   2423.2 2045996.9  1.0  1.0  5  0 545327474
[01]  G11  f 40   2132.6 2045997.2  1.0  1.0  5  0 545327472
$GNGGA,000000.000,,,,,0,00,,,M,,,,0000*2B
$GNRMC,000000.000,A,,,,,,,000000,,*26
$GPGSA,A,1,,,,,,,,,,,,,,,*1E
$BDGSA,A,1,,,,,,,,,,,,,,,*0F
$GPGSV,1,1,02,01,00,000,35,11,00,000,40*78
$LOGTIM,0,0.000000,0.000000,0.000000,0.000000,0.000*0A
EndT:        0
---00000044--- Acq_st=3 2019-5-25 07:28:31 
[00]  G01  f 35   2428.9 2045996.9  1.0  1.0  5  0 545328474
[01]  G11  f 40   2138.5 2045997.2  1.0  1.0  5  0 545328472
$GNGGA,000000.000,,,,,0,00,,,M,,,,0000*2B
$GNRMC,000000.000,A,,,,,,,000000,,*26
$GPGSA,A,1,,,,,,,,,,,,,,,*1E
$BDGSA,A,1,,,,,,,,,,,,,,,*0F
$GPGSV,1,1,02,01,00,000,35,11,00,000,40*78
$LOGTIM,0,0.000000,0.000000,0.000000,0.000000,0.000*0A
EndT:        0
---00000045--- Acq_st=3 2019-5-25 07:28:32 
[00]  G01  f 35   2433.4 2045996.9  1.0  1.0  5  0 545329474
[01]  G11  f 40   2142.5 2045997.2  1.0  1.0  5  0 545329472
$GNGGA,000000.000,,,,,0,00,,,M,,,,0000*2B
$GNRMC,000000.000,A,,,,,,,000000,,*26
$GPGSA,A,1,,,,,,,,,,,,,,,*1E
$BDGSA,A,1,,,,,,,,,,,,,,,*0F
$GPGSV,1,1,02,01,00,000,35,11,00,000,40*78
$LOGTIM,0,0.000000,0.000000,0.000000,0.000000,0.000*0A
EndT:        0
---00000046--- Acq_st=3 2019-5-25 07:28:33 
[00]  G01  f 35   2432.2 2045996.9  1.0  0.9  5  0 545330474
[01]  G11  f 40   2141.6 2045997.2  1.0  1.0  5  0 545330472
$GNGGA,000000.000,,,,,0,00,,,M,,,,0000*2B
$GNRMC,000000.000,A,,,,,,,000000,,*26
$GPGSA,A,1,,,,,,,,,,,,,,,*1E
$BDGSA,A,1,,,,,,,,,,,,,,,*0F
$GPGSV,1,1,02,01,00,000,35,11,00,000,40*78
$LOGTIM,0,0.000000,0.000000,0.000000,0.000000,0.000*0A
EndT:        0
---00000047--- Acq_st=3 2019-5-25 07:28:34 
[00]  G01  f 35   2433.3 2045996.8  1.0  1.0  5  0 545331474
[01]  G11  f 40   2142.9 2045997.2  1.0  0.9  5  0 545331472
$GNGGA,000000.000,,,,,0,00,,,M,,,,0000*2B
$GNRMC,000000.000,A,,,,,,,000000,,*26
$GPGSA,A,1,,,,,,,,,,,,,,,*1E
$BDGSA,A,1,,,,,,,,,,,,,,,*0F
$GPGSV,1,1,02,01,00,000,35,11,00,000,40*78
$LOGTIM,0,0.000000,0.000000,0.000000,0.000000,0.000*0A
EndT:        0
---00000048--- Acq_st=3 2019-5-25 07:28:35 
[00]  G01  f 36   2431.8 2045996.8  1.0  1.0  5  0 545332474
[01]  G11  f 40   2140.9 2045997.2  1.0  1.0  5  0 545332472
$GNGGA,000000.000,,,,,0,00,,,M,,,,0000*2B
$GNRMC,000000.000,A,,,,,,,000000,,*26
$GPGSA,A,1,,,,,,,,,,,,,,,*1E
$BDGSA,A,1,,,,,,,,,,,,,,,*0F
$GPGSV,1,1,02,01,00,000,36,11,00,000,40*7B
$LOGTIM,0,0.000000,0.000000,0.000000,0.000000,0.000*0A
EndT:        0
---00000049--- Acq_st=3 2019-5-25 07:28:36 
[00]  G01  f 36   2429.0 2045996.9  1.0  1.0  5  0 545333474
[01]  G11  f 41   2137.7 2045997.2  1.0  1.0  5  0 545333472
$GNGGA,000000.000,,,,,0,00,,,M,,,,0000*2B
$GNRMC,000000.000,A,,,,,,,000000,,*26
$GPGSA,A,1,,,,,,,,,,,,,,,*1E
$BDGSA,A,1,,,,,,,,,,,,,,,*0F
$GPGSV,1,1,02,01,00,000,36,11,00,000,41*7A
$LOGTIM,0,0.000000,0.000000,0.000000,0.000000,0.000*0A
EndT:        0
---00000050--- Acq_st=3 2019-5-25 07:28:37 
[00]  G01  f 35   2431.5 2045996.8  1.0  1.0  5  0 545334474
[01]  G11  f 40   2141.1 2045997.3  1.0  1.0  5  0 545334472
$GNGGA,000000.000,,,,,0,00,,,M,,,,0000*2B
$GNRMC,000000.000,A,,,,,,,000000,,*26
$GPGSA,A,1,,,,,,,,,,,,,,,*1E
$BDGSA,A,1,,,,,,,,,,,,,,,*0F
$GPGSV,1,1,02,01,00,000,35,11,00,000,40*78
$LOGTIM,0,0.000000,0.000000,0.000000,0.000000,0.000*0A
EndT:        0
---00000051--- Acq_st=3 2019-5-25 07:28:38 
[00]  G01  f 35   2426.0 2045996.9  1.0  0.9  5  0 545335474
[01]  G11  f 40   2136.0 2045997.2  1.0  1.0  5  0 545335472
$GNGGA,000000.000,,,,,0,00,,,M,,,,0000*2B
$GNRMC,000000.000,A,,,,,,,000000,,*26
$GPGSA,A,1,,,,,,,,,,,,,,,*1E
$BDGSA,A,1,,,,,,,,,,,,,,,*0F
$GPGSV,1,1,02,01,00,000,35,11,00,000,40*78
$LOGTIM,0,0.000000,0.000000,0.000000,0.000000,0.000*0A
EndT:        0
---00000052--- Acq_st=3 2019-5-25 07:28:39 
[00]  G01  f 35   2425.7 2045996.8  1.0  1.0  5  0 545336474
[01]  G11  f 40   2135.1 2045997.3  1.0  1.0  5  0 545336472
$GNGGA,000000.000,,,,,0,00,,,M,,,,0000*2B
$GNRMC,000000.000,A,,,,,,,000000,,*26
$GPGSA,A,1,,,,,,,,,,,,,,,*1E
$BDGSA,A,1,,,,,,,,,,,,,,,*0F
$GPGSV,1,1,02,01,00,000,35,11,00,000,40*78
$LOGTIM,0,0.000000,0.000000,0.000000,0.000000,0.000*0A
EndT:        0
---00000053--- Acq_st=3 2019-5-25 07:28:40 
[00]  G01  f 36   2426.7 2045996.9  1.0  1.0  5  0 545337474
[01]  G11  f 40   2136.5 2045997.2  1.0  1.0  5  0 545337472
$GNGGA,000000.000,,,,,0,00,,,M,,,,0000*2B
$GNRMC,000000.000,A,,,,,,,000000,,*26
$GPGSA,A,1,,,,,,,,,,,,,,,*1E
$BDGSA,A,1,,,,,,,,,,,,,,,*0F
$GPGSV,1,1,02,01,00,000,36,11,00,000,40*7B
$LOGTIM,0,0.000000,0.000000,0.000000,0.000000,0.000*0A
EndT:        0
---00000054--- Acq_st=3 2019-5-25 07:28:41 
[00]  G01  f 36   2429.1 2045996.8  1.0  0.9  5  0 545338474
[01]  G11  f 40   2137.8 2045997.2  1.0  1.0  5  0 545338472
$GNGGA,000000.000,,,,,0,00,,,M,,,,0000*2B
$GNRMC,000000.000,A,,,,,,,000000,,*26
$GPGSA,A,1,,,,,,,,,,,,,,,*1E
$BDGSA,A,1,,,,,,,,,,,,,,,*0F
$GPGSV,1,1,02,01,00,000,36,11,00,000,40*7B
$LOGTIM,0,0.000000,0.000000,0.000000,0.000000,0.000*0A
EndT:        0
---00000055--- Acq_st=3 2019-5-25 07:28:42 
[00]  G01  f 36   2423.9 2045996.8  1.0  0.9  5  0 545339474
[01]  G11  f 40   2133.2 2045997.2  1.0  1.0  5  0 545339472
$GNGGA,000000.000,,,,,0,00,,,M,,,,0000*2B
$GNRMC,000000.000,A,,,,,,,000000,,*26
$GPGSA,A,1,,,,,,,,,,,,,,,*1E
$BDGSA,A,1,,,,,,,,,,,,,,,*0F
$GPGSV,1,1,02,01,00,000,36,11,00,000,40*7B
$LOGTIM,0,0.000000,0.000000,0.000000,0.000000,0.000*0A
EndT:        0
---00000056--- Acq_st=3 2019-5-25 07:28:43 
[00]  G01  f 36   2423.2 2045996.9  1.0  1.0  5  0 545340474
[01]  G11  f 40   2133.0 2045997.2  1.0  1.0  5  0 545340472
$GNGGA,000000.000,,,,,0,00,,,M,,,,0000*2B
$GNRMC,000000.000,A,,,,,,,000000,,*26
$GPGSA,A,1,,,,,,,,,,,,,,,*1E
$BDGSA,A,1,,,,,,,,,,,,,,,*0F
$GPGSV,1,1,02,01,00,000,36,11,00,000,40*7B
$LOGTIM,0,0.000000,0.000000,0.000000,0.000000,0.000*0A
EndT:        0
---00000057--- Acq_st=3 2019-5-25 07:28:44 
[00]  G01  f 36   2428.2 2045996.8  1.0  1.0  5  0 545341474
[01]  G11  f 40   2137.1 2045997.2  1.0  1.0  5  0 545341472
$GNGGA,000000.000,,,,,0,00,,,M,,,,0000*2B
$GNRMC,000000.000,A,,,,,,,000000,,*26
$GPGSA,A,1,,,,,,,,,,,,,,,*1E
$BDGSA,A,1,,,,,,,,,,,,,,,*0F
$GPGSV,1,1,02,01,00,000,36,11,00,000,40*7B
$LOGTIM,0,0.000000,0.000000,0.000000,0.000000,0.000*0A
EndT:        0
ch16 satid=44,max_freq = -500,max_mean = 9906,max_phase = 3606,max_value = 129192,acq ok1!
acq ok1 timeH = 0,timeL = 1079835217,freq_stage = 3
---00000058--- Acq_st=3 2019-5-25 07:28:45 
[00]  G01  f 35   2437.6 2045996.9  1.0  0.9  5  0 545342474
[01]  G11  f 40   2146.5 2045997.2  1.0  1.0  5  0 545342472
[16]  B08  1  7     79.5 4092001.5  0.1  0.0  1  0         0
$GNGGA,000000.000,,,,,0,00,,,M,,,,0000*2B
$GNRMC,000000.000,A,,,,,,,000000,,*26
$GPGSA,A,1,,,,,,,,,,,,,,,*1E
$BDGSA,A,1,,,,,,,,,,,,,,,*0F
$GPGSV,1,1,02,01,00,000,35,11,00,000,40*78
$LOGTIM,0,0.000000,0.000000,0.000000,0.000000,0.000*0A
EndT:        0
---00000059--- Acq_st=3 2019-5-25 07:28:46 
[00]  G01  f 36   2444.3 2045996.8  1.0  0.9  5  0 545343474
[01]  G11  f 40   2153.4 2045997.2  1.0  1.0  5  0 545343472
[16]  B08  7 23    -15.5 4092000.0  0.2  0.0 20  0       647
$GNGGA,000000.000,,,,,0,00,,,M,,,,0000*2B
$GNRMC,000000.000,A,,,,,,,000000,,*26
$GPGSA,A,1,,,,,,,,,,,,,,,*1E
$BDGSA,A,1,,,,,,,,,,,,,,,*0F
$GPGSV,1,1,02,01,00,000,36,11,00,000,40*7B
$BDGSV,1,1,01,08,00,000,23*50
$LOGTIM,0,0.000000,0.000000,0.000000,0.000000,0.000*0A
EndT:        0
---00000060--- Acq_st=3 2019-5-25 07:28:47 
[00]  G01  f 35   2440.6 2045996.8  1.0  1.0  5  0 545344474
[01]  G11  f 40   2148.8 2045997.2  1.0  1.0  5  0 545344472
[16]  B08  7 40    -23.4 4092000.0  0.7  1.0  5  0      1645
$GNGGA,000000.000,,,,,0,00,,,M,,,,0000*2B
$GNRMC,000000.000,A,,,,,,,000000,,*26
$GPGSA,A,1,,,,,,,,,,,,,,,*1E
$BDGSA,A,1,,,,,,,,,,,,,,,*0F
$GPGSV,1,1,02,01,00,000,35,11,00,000,40*78
$BDGSV,1,1,01,08,00,000,40*55
$LOGTIM,0,0.000000,0.000000,0.000000,0.000000,0.000*0A
EndT:        0
---00000061--- Acq_st=3 2019-5-25 07:28:48 
[00]  G01  f 36   2436.3 2045996.8  1.0  1.0  5  0 545345474
[01]  G11  f 40   2145.5 2045997.2  1.0  1.0  5  0 545345472
[16]  B08  7 41    -27.7 4092000.0  1.0  1.0  5  0      2645
$GNGGA,000000.000,,,,,0,00,,,M,,,,0000*2B
$GNRMC,000000.000,A,,,,,,,000000,,*26
$GPGSA,A,1,,,,,,,,,,,,,,,*1E
$BDGSA,A,1,,,,,,,,,,,,,,,*0F
$GPGSV,1,1,02,01,00,000,36,11,00,000,40*7B
$BDGSV,1,1,01,08,00,000,41*54
$LOGTIM,0,0.000000,0.000000,0.000000,0.000000,0.000*0A
EndT:        0
ch17 satid=46,max_freq = -500,max_mean = 10062,max_phase = 3354,max_value = 90837,acq ok1!
acq ok1 timeH = 0,timeL = 1165037232,freq_stage = 3
---00000062--- Acq_st=3 2019-5-25 07:28:49 
[00]  G01  f 36   2437.1 2045996.8  1.0  1.0  5  0 545346474
[01]  G11  f 40   2146.1 2045997.2  1.0  1.0  5  0 545346472
[16]  B08  7 41    -27.8 4092000.0  1.0  1.0  5  0      3645
[17]  B10  1  7    509.6 4091999.7  0.0  0.0  1  0         0
$GNGGA,000000.000,,,,,0,00,,,M,,,,0000*2B
$GNRMC,000000.000,A,,,,,,,000000,,*26
$GPGSA,A,1,,,,,,,,,,,,,,,*1E
$BDGSA,A,1,,,,,,,,,,,,,,,*0F
$GPGSV,1,1,02,01,00,000,36,11,00,000,40*7B
$BDGSV,1,1,01,08,00,000,41*54
$LOGTIM,0,0.000000,0.000000,0.000000,0.000000,0.000*0A
EndT:        0
---00000063--- Acq_st=3 2019-5-25 07:28:50 
[00]  G01  f 36   2436.7 2045996.9  1.0  1.0  5  0 545347474
[01]  G11  f 41   2145.6 2045997.2  1.0  1.0  5  0 545347472
[16]  B08  7 41    -27.4 4092000.1  1.0  1.0  5  0      4645
[17]  B10  1  7    440.7 4092001.3 -0.0  0.0  1  0       210
$GNGGA,000000.000,,,,,0,00,,,M,,,,0000*2B
$GNRMC,000000.000,A,,,,,,,000000,,*26
$GPGSA,A,1,,,,,,,,,,,,,,,*1E
$BDGSA,A,1,,,,,,,,,,,,,,,*0F
$GPGSV,1,1,02,01,00,000,36,11,00,000,41*7A
$BDGSV,1,1,01,08,00,000,41*54
$LOGTIM,0,0.000000,0.000000,0.000000,0.000000,0.000*0A
EndT:        0
---00000064--- Acq_st=3 2019-5-25 07:28:51 
[00]  G01  f 37   2434.1 2045996.9  1.0  1.1  5  0 545348474
[01]  G11  f 40   2142.6 2045997.2  1.0  1.0  5  0 545348472
[16]  B08 1f 40    -31.1 4092000.1  1.0  1.0  5  0      5645
[17]  B10  1  7    425.8 4092000.8  0.1  0.0  1  0      1210
$GNGGA,000000.000,,,,,0,00,,,M,,,,0000*2B
$GNRMC,000000.000,A,,,,,,,000000,,*26
$GPGSA,A,1,,,,,,,,,,,,,,,*1E
$BDGSA,A,1,,,,,,,,,,,,,,,*0F
$GPGSV,1,1,02,01,00,000,37,11,00,000,40*7A
$BDGSV,1,1,01,08,00,000,40*55
$LOGTIM,0,0.000000,0.000000,0.000000,0.000000,0.000*0A
EndT:        0
ch18 satid=47,max_freq = -1500,max_mean = 9619,max_phase = 3967,max_value = 191589,acq ok1!
acq ok1 timeH = 0,timeL = 1211896432,freq_stage = 4
---00000065--- Acq_st=3 2019-5-25 07:28:52 
[00]  G01  f 37   2432.6 2045996.9  1.0  1.0  5  0 545349474
[01]  G11  f 40   2141.1 2045997.2  1.0  1.0  5  0 545349472
[16]  B08 1f 40    -32.3 4092000.1  1.0  1.0  5  0 545335425
[17]  B10  1  7    415.9 4091999.8  0.1  0.0  1  0      2210
[18]  B11  1  7   1399.6 4091999.7 -0.0  0.0  1  0         0
$GNGGA,000000.000,,,,,0,00,,,M,,,,0000*2B
$GNRMC,000000.000,A,,,,,,,000000,,*26
$GPGSA,A,1,,,,,,,,,,,,,,,*1E
$BDGSA,A,1,,,,,,,,,,,,,,,*0F
$GPGSV,1,1,02,01,00,000,37,11,00,000,40*7A
$BDGSV,1,1,01,08,00,000,40*55
$LOGTIM,0,0.000000,0.000000,0.000000,0.000000,0.000*0A
EndT:        0
---00000066--- Acq_st=3 2019-5-25 07:28:53 
[00]  G01  f 37   2436.4 2045996.9  1.0  1.0  5  0 545350474
[01]  G11  f 40   2144.6 2045997.2  1.0  1.0  5  0 545350472
[16]  B08 1f 40    -29.2 4092000.1  1.0  1.0  5  0 545336425
[18]  B11  1 17   1395.1 4091997.9 -0.1  0.0  1  0       991
$GNGGA,000000.000,,,,,0,00,,,M,,,,0000*2B
$GNRMC,000000.000,A,,,,,,,000000,,*26
$GPGSA,A,1,,,,,,,,,,,,,,,*1E
$BDGSA,A,1,,,,,,,,,,,,,,,*0F
$GPGSV,1,1,02,01,00,000,37,11,00,000,40*7A
$BDGSV,1,1,01,08,00,000,40*55
$LOGTIM,0,0.000000,0.000000,0.000000,0.000000,0.000*0A
EndT:        0
---00000067--- Acq_st=3 2019-5-25 07:28:54 
[00]  G01  f 38   2438.0 2045996.8  1.0  1.0  5  0 545351474
[01]  G11  f 40   2146.9 2045997.2  1.0  1.0  5  0 545351472
[16]  B08 1f 40    -26.8 4092000.1  1.0  1.0  5  0 545337425
[18]  B11  1 16   1395.3 4091997.3 -0.1  0.0  1  0      1991
$GNGGA,000000.000,,,,,0,00,,,M,,,,0000*2B
$GNRMC,000000.000,A,,,,,,,000000,,*26
$GPGSA,A,1,,,,,,,,,,,,,,,*1E
$BDGSA,A,1,,,,,,,,,,,,,,,*0F
$GPGSV,1,1,02,01,00,000,38,11,00,000,40*75
$BDGSV,1,1,01,08,00,000,40*55
$LOGTIM,0,0.000000,0.000000,0.000000,0.000000,0.000*0A
EndT:        0
---00000068--- Acq_st=3 2019-5-25 07:28:55 
[00]  G01  f 38   2432.1 2045996.8  1.0  1.0  5  0 545352474
[01]  G11  f 40   2140.3 2045997.2  1.0  1.0  5  0 545352472
[16]  B08 1f 40    -33.8 4092000.1  1.0  1.0  5  0 545338425
$GNGGA,000000.000,,,,,0,00,,,M,,,,0000*2B
$GNRMC,000000.000,A,,,,,,,000000,,*26
$GPGSA,A,1,,,,,,,,,,,,,,,*1E
$BDGSA,A,1,,,,,,,,,,,,,,,*0F
$GPGSV,1,1,02,01,00,000,38,11,00,000,40*75
$BDGSV,1,1,01,08,00,000,40*55
$LOGTIM,0,0.000000,0.000000,0.000000,0.000000,0.000*0A
EndT:        0
ch17 satid=49,max_freq = -250,max_mean = 9978,max_phase = 741,max_value = 59782,acq ok1!
acq ok1 timeH = 0,timeL = 1292840264,freq_stage = 3
---00000069--- Acq_st=3 2019-5-25 07:28:56 
[00]  G01  f 37   2428.0 2045996.8  1.0  1.0  5  0 545353474
[01]  G11  f 40   2136.0 2045997.3  1.0  1.0  5  0 545353472
[16]  B08 1f 41    -37.3 4092000.1  1.0  1.0  5  0 545339425
[17]  B13  1  7    226.4 4092000.4  0.0  0.0  1  0      3210
$GNGGA,000000.000,,,,,0,00,,,M,,,,0000*2B
$GNRMC,000000.000,A,,,,,,,000000,,*26
$GPGSA,A,1,,,,,,,,,,,,,,,*1E
$BDGSA,A,1,,,,,,,,,,,,,,,*0F
$GPGSV,1,1,02,01,00,000,37,11,00,000,40*7A
$BDGSV,1,1,01,08,00,000,41*54
$LOGTIM,0,0.000000,0.000000,0.000000,0.000000,0.000*0A
EndT:        0
---00000070--- Acq_st=3 2019-5-25 07:28:57 
[00]  G01  f 37   2429.5 2045996.8  1.0  1.0  5  0 545354474
[01]  G11  f 40   2138.0 2045997.3  1.0  1.0  5  0 545354472
[16]  B08 1f 40    -35.8 4092000.1  1.0  1.0  5  0 545340425
[17]  B13  1  7    315.4 4092000.0  0.0  0.0  1  0       553
$GNGGA,000000.000,,,,,0,00,,,M,,,,0000*2B
$GNRMC,000000.000,A,,,,,,,000000,,*26
$GPGSA,A,1,,,,,,,,,,,,,,,*1E
$BDGSA,A,1,,,,,,,,,,,,,,,*0F
$GPGSV,1,1,02,01,00,000,37,11,00,000,40*7A
$BDGSV,1,1,01,08,00,000,40*55
$LOGTIM,0,0.000000,0.000000,0.000000,0.000000,0.000*0A
EndT:        0
---00000071--- Acq_st=3 2019-5-25 07:28:58 
[00]  G01  f 36   2434.1 2045996.8  1.0  1.0  5  0 545355474
[01]  G11  f 40   2141.9 2045997.2  1.0  1.0  5  0 545355472
[16]  B08 1f 41    -32.0 4092000.1  1.0  1.0  5  0 545341425
[17]  B13  1  7    306.8 4092000.6 -0.3  0.0  1  0      1553
$GNGGA,000000.000,,,,,0,00,,,M,,,,0000*2B
$GNRMC,000000.000,A,,,,,,,000000,,*26
$GPGSA,A,1,,,,,,,,,,,,,,,*1E
$BDGSA,A,1,,,,,,,,,,,,,,,*0F
$GPGSV,1,1,02,01,00,000,36,11,00,000,40*7B
$BDGSV,1,1,01,08,00,000,41*54
$LOGTIM,0,0.000000,0.000000,0.000000,0.000000,0.000*0A
EndT:        0
---00000072--- Acq_st=3 2019-5-25 07:28:59 
[00]  G01  f 36   2438.7 2045996.8  1.0  1.0  5  0 545356474
[01]  G11  f 40   2147.0 2045997.2  1.0  1.0  5  0 545356472
[16]  B08 1f 41    -27.0 4092000.0  1.0  1.0  5  0 545342425
$GNGGA,000000.000,,,,,0,00,,,M,,,,0000*2B
$GNRMC,000000.000,A,,,,,,,000000,,*26
$GPGSA,A,1,,,,,,,,,,,,,,,*1E
$BDGSA,A,1,,,,,,,,,,,,,,,*0F
$GPGSV,1,1,02,01,00,000,36,11,00,000,40*7B
$BDGSV,1,1,01,08,00,000,41*54
$LOGTIM,0,0.000000,0.000000,0.000000,0.000000,0.000*0A
EndT:        0
---00000073--- Acq_st=3 2019-5-25 07:29:0 
[00]  G01  f 36   2440.4 2045996.8  1.0  1.0  5  0 545357474
[01]  G11  f 40   2147.7 2045997.2  1.0  1.0  5  0 545357472
[16]  B08 1f 40    -25.9 4092000.1  1.0  1.0  5  0 545343425
$GNGGA,000000.000,,,,,0,00,,,M,,,,0000*2B
$GNRMC,000000.000,A,,,,,,,000000,,*26
$GPGSA,A,1,,,,,,,,,,,,,,,*1E
$BDGSA,A,1,,,,,,,,,,,,,,,*0F
$GPGSV,1,1,02,01,00,000,36,11,00,000,40*7B
$BDGSV,1,1,01,08,00,000,40*55
$LOGTIM,0,0.000000,0.000000,0.000000,0.000000,0.000*0A
EndT:        0
---00000074--- Acq_st=3 2019-5-25 07:29:1 
[00]  G01  f 36   2444.1 2045996.9  1.0  1.0  5  0 545358473
[01]  G11  f 40   2151.9 2045997.2  1.0  1.0  5  0 545358472
[16]  B08 1f 41    -21.9 4092000.1  1.0  1.0  5  0 545344425
$GNGGA,000000.000,,,,,0,00,,,M,,,,0000*2B
$GNRMC,000000.000,A,,,,,,,000000,,*26
$GPGSA,A,1,,,,,,,,,,,,,,,*1E
$BDGSA,A,1,,,,,,,,,,,,,,,*0F
$GPGSV,1,1,02,01,00,000,36,11,00,000,40*7B
$BDGSV,1,1,01,08,00,000,41*54
$LOGTIM,0,0.000000,0.000000,0.000000,0.000000,0.000*0A
EndT:        0
---00000075--- Acq_st=3 2019-5-25 07:29:2 
[00]  G01  f 36   2440.7 2045996.9  1.0  1.0  5  0 545359473
[01]  G11  f 40   2148.5 2045997.2  1.0  1.0  5  0 545359472
[16]  B08 1f 41    -25.9 4092000.1  1.0  1.0  5  0 545345425
$GNGGA,000000.000,,,,,0,00,,,M,,,,0000*2B
$GNRMC,000000.000,A,,,,,,,000000,,*26
$GPGSA,A,1,,,,,,,,,,,,,,,*1E
$BDGSA,A,1,,,,,,,,,,,,,,,*0F
$GPGSV,1,1,02,01,00,000,36,11,00,000,40*7B
$BDGSV,1,1,01,08,00,000,41*54
$LOGTIM,0,0.000000,0.000000,0.000000,0.000000,0.000*0A
EndT:        0
---00000076--- Acq_st=3 2019-5-25 07:29:3 
[00]  G01  f 36   2441.8 2045996.9  1.0  1.0  5  0 545360473
[01]  G11  f 40   2149.8 2045997.2  1.0  1.0  5  0 545360472
[16]  B08 1f 41    -24.8 4092000.0  1.0  1.0  5  0 545346425
$GNGGA,000000.000,,,,,0,00,,,M,,,,0000*2B
$GNRMC,000000.000,A,,,,,,,000000,,*26
$GPGSA,A,1,,,,,,,,,,,,,,,*1E
$BDGSA,A,1,,,,,,,,,,,,,,,*0F
$GPGSV,1,1,02,01,00,000,36,11,00,000,40*7B
$BDGSV,1,1,01,08,00,000,41*54
$LOGTIM,0,0.000000,0.000000,0.000000,0.000000,0.000*0A
EndT:        0
---00000077--- Acq_st=3 2019-5-25 07:29:4 
[00]  G01  f 34   2441.2 2045996.9  1.0  1.0  5  0 545361473
[01]  G11  f 40   2148.7 2045997.2  1.0  1.0  5  0 545361472
[16]  B08 1f 40    -25.1 4092000.1  1.0  1.0  5  0 545347425
$GNGGA,000000.000,,,,,0,00,,,M,,,,0000*2B
$GNRMC,000000.000,A,,,,,,,000000,,*26
$GPGSA,A,1,,,,,,,,,,,,,,,*1E
$BDGSA,A,1,,,,,,,,,,,,,,,*0F
$GPGSV,1,1,02,01,00,000,34,11,00,000,40*79
$BDGSV,1,1,01,08,00,000,40*55
$LOGTIM,0,0.000000,0.000000,0.000000,0.000000,0.000*0A
EndT:        0
---00000078--- Acq_st=3 2019-5-25 07:29:5 
[00]  G01  f 35   2438.5 2045996.8  1.0  1.0  5  0 545362473
[01]  G11  f 41   2145.2 2045997.2  1.0  1.0  5  0 545362472
[16]  B08 1f 41    -29.2 4092000.0  1.0  1.0  5  0 545348425
$GNGGA,000000.000,,,,,0,00,,,M,,,,0000*2B
$GNRMC,000000.000,A,,,,,,,000000,,*26
$GPGSA,A,1,,,,,,,,,,,,,,,*1E
$BDGSA,A,1,,,,,,,,,,,,,,,*0F
$GPGSV,1,1,02,01,00,000,35,11,00,000,41*79
$BDGSV,1,1,01,08,00,000,41*54
$LOGTIM,0,0.000000,0.000000,0.000000,0.000000,0.000*0A
EndT:        0
---00000079--- Acq_st=3 2019-5-25 07:29:6 
[00]  G01  f 35   2434.0 2045996.8  1.0  1.0  5  0 545363473
[01]  G11  f 40   2141.9 2045997.2  1.0  1.0  5  0 545363472
[16]  B08 1f 41    -32.7 4092000.1  1.0  1.0  5  0 545349425
$GNGGA,000000.000,,,,,0,00,,,M,,,,0000*2B
$GNRMC,000000.000,A,,,,,,,000000,,*26
$GPGSA,A,1,,,,,,,,,,,,,,,*1E
$BDGSA,A,1,,,,,,,,,,,,,,,*0F
$GPGSV,1,1,02,01,00,000,35,11,00,000,40*78
$BDGSV,1,1,01,08,00,000,41*54
$LOGTIM,0,0.000000,0.000000,0.000000,0.000000,0.000*0A
EndT:        0
---00000080--- Acq_st=3 2019-5-25 07:29:7 
[00]  G01  f 35   2431.1 2045996.8  1.0  1.0  5  0 545364473
[01]  G11  f 40   2138.2 2045997.2  1.0  1.0  5  0 545364472
[16]  B08 1f 41    -36.4 4092000.1  1.0  1.0  5  0 545350425
$GNGGA,000000.000,,,,,0,00,,,M,,,,0000*2B
$GNRMC,000000.000,A,,,,,,,000000,,*26
$GPGSA,A,1,,,,,,,,,,,,,,,*1E
$BDGSA,A,1,,,,,,,,,,,,,,,*0F
$GPGSV,1,1,02,01,00,000,35,11,00,000,40*78
$BDGSV,1,1,01,08,00,000,41*54
$LOGTIM,0,0.000000,0.000000,0.000000,0.000000,0.000*0A
EndT:        0
---00000081--- Acq_st=3 2019-5-25 07:29:8 
[00]  G01  f 35   2433.1 2045996.8  1.0  1.0  5  0 545365473
[01]  G11  f 40   2140.3 2045997.2  1.0  1.0  5  0 545365472
[16]  B08 1f 41    -34.5 4092000.1  1.0  1.0  5  0 545351425
$GNGGA,000000.000,,,,,0,00,,,M,,,,0000*2B
$GNRMC,000000.000,A,,,,,,,000000,,*26
$GPGSA,A,1,,,,,,,,,,,,,,,*1E
$BDGSA,A,1,,,,,,,,,,,,,,,*0F
$GPGSV,1,1,02,01,00,000,35,11,00,000,40*78
$BDGSV,1,1,01,08,00,000,41*54
$LOGTIM,0,0.000000,0.000000,0.000000,0.000000,0.000*0A
EndT:        0
---00000082--- Acq_st=3 2019-5-25 07:29:9 
[00]  G01  f 35   2434.2 2045996.9  1.0  0.9  5  0 545366473
[01]  G11  f 40   2141.5 2045997.2  1.0  1.0  5  0 545366472
[16]  B08 1f 41    -33.0 4092000.0  1.0  1.0  5  0 545352425
$GNGGA,000000.000,,,,,0,00,,,M,,,,0000*2B
$GNRMC,000000.000,A,,,,,,,000000,,*26
$GPGSA,A,1,,,,,,,,,,,,,,,*1E
$BDGSA,A,1,,,,,,,,,,,,,,,*0F
$GPGSV,1,1,02,01,00,000,35,11,00,000,40*78
$BDGSV,1,1,01,08,00,000,41*54
$LOGTIM,0,0.000000,0.000000,0.000000,0.000000,0.000*0A
EndT:        0
---00000083--- Acq_st=3 2019-5-25 07:29:10 
[00]  G01  f 35   2433.8 2045996.8  1.0  1.0  5  0 545367473
[01]  G11  f 40   2140.8 2045997.2  1.0  1.0  5  0 545367472
[16]  B08 1f 41    -34.1 4092000.1  1.0  1.0  5  0 545353425
$GNGGA,000000.000,,,,,0,00,,,M,,,,0000*2B
$GNRMC,000000.000,A,,,,,,,000000,,*26
$GPGSA,A,1,,,,,,,,,,,,,,,*1E
$BDGSA,A,1,,,,,,,,,,,,,,,*0F
$GPGSV,1,1,02,01,00,000,35,11,00,000,40*78
$BDGSV,1,1,01,08,00,000,41*54
$LOGTIM,0,0.000000,0.000000,0.000000,0.000000,0.000*0A
EndT:        0
---00000084--- Acq_st=3 2019-5-25 07:29:11 
[00]  G01  f 34   2433.1 2045996.9  1.0  0.9  5  0 545368473
[01]  G11  f 40   2139.5 2045997.3  1.0  1.0  5  0 545368472
[16]  B08 1f 41    -35.0 4092000.1  1.0  1.0  5  0 545354425
$GNGGA,000000.000,,,,,0,00,,,M,,,,0000*2B
$GNRMC,000000.000,A,,,,,,,000000,,*26
$GPGSA,A,1,,,,,,,,,,,,,,,*1E
$BDGSA,A,1,,,,,,,,,,,,,,,*0F
$GPGSV,1,1,02,01,00,000,34,11,00,000,40*79
$BDGSV,1,1,01,08,00,000,41*54
$LOGTIM,0,0.000000,0.000000,0.000000,0.000000,0.000*0A
EndT:        0
