FlashID=0x1 0x20 0x18
BBram_blkflag1: 46c8: b937
FW Ver: 1.30  
GPS00 Init Dop:   5000, 40
GPS01 Init Dop:   5000, 40
GPS02 Init Dop:   5000, 40
GPS03 Init Dop:   5000, 40
GPS04 Init Dop:   5000, 40
GPS05 Init Dop:   5000, 40
GPS06 Init Dop:   5000, 40
GPS07 Init Dop:   5000, 40
GPS08 Init Dop:   5000, 40
GPS09 Init Dop:   5000, 40
GPS10 Init Dop:   5000, 40
GPS11 Init Dop:   5000, 40
GPS12 Init Dop:   5000, 40
GPS13 Init Dop:   5000, 40
GPS14 Init Dop:   5000, 40
GPS15 Init Dop:   5000, 40
GPS16 Init Dop:   5000, 40
GPS17 Init Dop:   5000, 40
GPS18 Init Dop:   5000, 40
GPS19 Init Dop:   5000, 40
GPS20 Init Dop:   5000, 40
GPS21 Init Dop:   5000, 40
GPS22 Init Dop:   5000, 40
GPS23 Init Dop:   5000, 40
GPS24 Init Dop:   5000, 40
GPS25 Init Dop:   5000, 40
GPS26 Init Dop:   5000, 40
GPS27 Init Dop:   5000, 40
GPS28 Init Dop:   5000, 40
GPS29 Init Dop:   5000, 40
GPS30 Init Dop:   5000, 40
GPS31 Init Dop:   5000, 40
BDS00 Init Dop:   5000, 40
BDS01 Init Dop:   5000, 40
BDS02 Init Dop:   5000, 40
BDS03 Init Dop:   5000, 40
BDS04 Init Dop:   5000, 40
BDS05 Init Dop:   5000, 40
BDS06 Init Dop:   5000, 40
BDS07 Init Dop:   5000, 40
BDS08 Init Dop:   5000, 40
BDS09 Init Dop:   5000, 40
BDS10 Init Dop:   5000, 40
BDS11 Init Dop:   5000, 40
BDS12 Init Dop:   5000, 40
BDS13 Init Dop:   5000, 40
BDS14 Init Dop:   5000, 40
BDS15 Init Dop:   5000, 40
BDS16 Init Dop:   5000, 40
BDS17 Init Dop:   5000, 40
BDS18 Init Dop:   5000, 40
BDS19 Init Dop:   5000, 40
BDS20 Init Dop:   5000, 40
BDS21 Init Dop:   5000, 40
BDS22 Init Dop:   5000, 40
BDS23 Init Dop:   5000, 40
BDS24 Init Dop:   5000, 40
BDS25 Init Dop:   5000, 40
BDS26 Init Dop:   5000, 40
BDS27 Init Dop:   5000, 40
BDS28 Init Dop:   5000, 40
BDS29 Init Dop:   5000, 40
BDS30 Init Dop:   5000, 40
BDS31 Init Dop:   5000, 40
---00000001--- Acq_st=3 2019-5-25 03:45:10 
$GNGGA,000000.000,,,,,0,00,,,M,,,,0000*2B
$GNRMC,000000.000,A,,,,,,,000000,,*26
$GPGSA,A,1,,,,,,,,,,,,,,,*1E
$BDGSA,A,1,,,,,,,,,,,,,,,*0F
$LOGTIM,0,0.000000,0.000000,0.000000,0.000000,0.000*0A
EndT:        0
---00000002--- Acq_st=3 2019-5-25 03:45:11 
$GNGGA,000000.000,,,,,0,00,,,M,,,,0000*2B
$GNRMC,000000.000,A,,,,,,,000000,,*26
$GPGSA,A,1,,,,,,,,,,,,,,,*1E
$BDGSA,A,1,,,,,,,,,,,,,,,*0F
$LOGTIM,0,0.000000,0.000000,0.000000,0.000000,0.000*0A
EndT:        0
---00000003--- Acq_st=3 2019-5-25 03:45:12 
$GNGGA,000000.000,,,,,0,00,,,M,,,,0000*2B
$GNRMC,000000.000,A,,,,,,,000000,,*26
$GPGSA,A,1,,,,,,,,,,,,,,,*1E
$BDGSA,A,1,,,,,,,,,,,,,,,*0F
$LOGTIM,0,0.000000,0.000000,0.000000,0.000000,0.000*0A
EndT:        0
---00000004--- Acq_st=3 2019-5-25 03:45:13 
$GNGGA,000000.000,,,,,0,00,,,M,,,,0000*2B
$GNRMC,000000.000,A,,,,,,,000000,,*26
$GPGSA,A,1,,,,,,,,,,,,,,,*1E
$BDGSA,A,1,,,,,,,,,,,,,,,*0F
$LOGTIM,0,0.000000,0.000000,0.000000,0.000000,0.000*0A
EndT:        0
---00000005--- Acq_st=3 2019-5-25 03:45:14 
$GNGGA,000000.000,,,,,0,00,,,M,,,,0000*2B
$GNRMC,000000.000,A,,,,,,,000000,,*26
$GPGSA,A,1,,,,,,,,,,,,,,,*1E
$BDGSA,A,1,,,,,,,,,,,,,,,*0F
$LOGTIM,0,0.000000,0.000000,0.000000,0.000000,0.000*0A
EndT:        0
---00000006--- Acq_st=3 2019-5-25 03:45:15 
$GNGGA,000000.000,,,,,0,00,,,M,,,,0000*2B
$GNRMC,000000.000,A,,,,,,,000000,,*26
$GPGSA,A,1,,,,,,,,,,,,,,,*1E
$BDGSA,A,1,,,,,,,,,,,,,,,*0F
$LOGTIM,0,0.000000,0.000000,0.000000,0.000000,0.000*0A
EndT:        0
---00000007--- Acq_st=3 2019-5-25 03:45:16 
$GNGGA,000000.000,,,,,0,00,,,M,,,,0000*2B
$GNRMC,000000.000,A,,,,,,,000000,,*26
$GPGSA,A,1,,,,,,,,,,,,,,,*1E
$BDGSA,A,1,,,,,,,,,,,,,,,*0F
$LOGTIM,0,0.000000,0.000000,0.000000,0.000000,0.000*0A
EndT:        0
---00000008--- Acq_st=3 2019-5-25 03:45:17 
$GNGGA,000000.000,,,,,0,00,,,M,,,,0000*2B
$GNRMC,000000.000,A,,,,,,,000000,,*26
$GPGSA,A,1,,,,,,,,,,,,,,,*1E
$BDGSA,A,1,,,,,,,,,,,,,,,*0F
$LOGTIM,0,0.000000,0.000000,0.000000,0.000000,0.000*0A
EndT:        0
ch0 satid=6,max_freq = 2500,max_mean = 25281,max_phase = 1945,max_value = 1045759,acq ok1!
acq ok1 timeH = 0,timeL = 150390854,freq_stage = 2
---00000009--- Acq_st=3 2019-5-25 03:45:18 
[00]  G07  1  7  -2460.3 2046003.8 -0.0  0.0  1  0         0
$GNGGA,000000.000,,,,,0,00,,,M,,,,0000*2B
$GNRMC,000000.000,A,,,,,,,000000,,*26
$GPGSA,A,1,,,,,,,,,,,,,,,*1E
$BDGSA,A,1,,,,,,,,,,,,,,,*0F
$LOGTIM,0,0.000000,0.000000,0.000000,0.000000,0.000*0A
EndT:        0
---00000010--- Acq_st=3 2019-5-25 03:45:19 
[00]  G07  1 29  -2433.9 2046003.3 -0.0  0.0  1  0        16
$GNGGA,000000.000,,,,,0,00,,,M,,,,0000*2B
$GNRMC,000000.000,A,,,,,,,000000,,*26
$GPGSA,A,1,,,,,,,,,,,,,,,*1E
$BDGSA,A,1,,,,,,,,,,,,,,,*0F
$LOGTIM,0,0.000000,0.000000,0.000000,0.000000,0.000*0A
EndT:        0
ch1 satid=7,max_freq = -250,max_mean = 24711,max_phase = 1244,max_value = 838819,acq ok1!
acq ok1 timeH = 0,timeL = 179469272,freq_stage = 3
---00000011--- Acq_st=3 2019-5-25 03:45:20 
[00]  G07  7 35  -2433.1 2046003.1  0.6  1.0  5  0        16
[01]  G08  1 27    369.1 2045999.7  0.0  0.0  1  0         0
$GNGGA,000000.000,,,,,0,00,,,M,,,,0000*2B
$GNRMC,000000.000,A,,,,,,,000000,,*26
$GPGSA,A,1,,,,,,,,,,,,,,,*1E
$BDGSA,A,1,,,,,,,,,,,,,,,*0F
$GPGSV,1,1,01,07,00,000,35*49
$LOGTIM,0,0.000000,0.000000,0.000000,0.000000,0.000*0A
EndT:        0
---00000012--- Acq_st=3 2019-5-25 03:45:21 
[00]  G07  7 44  -2433.5 2046003.2  1.0  1.0  5  0        10
[01]  G08  7 30    364.9 2045999.5  0.7  1.0  5  0        14
$GNGGA,000000.000,,,,,0,00,,,M,,,,0000*2B
$GNRMC,000000.000,A,,,,,,,000000,,*26
$GPGSA,A,1,,,,,,,,,,,,,,,*1E
$BDGSA,A,1,,,,,,,,,,,,,,,*0F
$GPGSV,1,1,02,07,00,000,44,08,00,000,30*77
$LOGTIM,0,0.000000,0.000000,0.000000,0.000000,0.000*0A
EndT:        0
---00000013--- Acq_st=3 2019-5-25 03:45:22 
[00]  G07  7 44  -2430.6 2046003.2  1.0  1.0  5  0        10
[01]  G08  7 43    367.7 2045999.5  1.0  1.0  5  0        13
$GNGGA,000000.000,,,,,0,00,,,M,,,,0000*2B
$GNRMC,000000.000,A,,,,,,,000000,,*26
$GPGSA,A,1,,,,,,,,,,,,,,,*1E
$BDGSA,A,1,,,,,,,,,,,,,,,*0F
$GPGSV,1,1,02,07,00,000,44,08,00,000,43*73
$LOGTIM,0,0.000000,0.000000,0.000000,0.000000,0.000*0A
EndT:        0
---00000014--- Acq_st=3 2019-5-25 03:45:22 
[00]  G07  7 44  -2426.6 2046003.2  1.0  1.0  5  0        10
[01]  G08  7 43    371.8 2045999.5  1.0  1.0  5  0        13
$GNGGA,000000.000,,,,,0,00,,,M,,,,0000*2B
$GNRMC,000000.000,A,,,,,,,000000,,*26
$GPGSA,A,1,,,,,,,,,,,,,,,*1E
$BDGSA,A,1,,,,,,,,,,,,,,,*0F
$GPGSV,1,1,02,07,00,000,44,08,00,000,43*73
$LOGTIM,0,0.000000,0.000000,0.000000,0.000000,0.000*0A
EndT:        0
---00000015--- Acq_st=3 2019-5-25 03:45:23 
[00]  G07  7 44  -2430.2 2046003.2  1.0  1.0  5  0        10
[01]  G08  7 43    367.9 2045999.5  1.0  1.0  5  0        13
$GNGGA,000000.000,,,,,0,00,,,M,,,,0000*2B
$GNRMC,000000.000,A,,,,,,,000000,,*26
$GPGSA,A,1,,,,,,,,,,,,,,,*1E
$BDGSA,A,1,,,,,,,,,,,,,,,*0F
$GPGSV,1,1,02,07,00,000,44,08,00,000,43*73
$LOGTIM,0,0.000000,0.000000,0.000000,0.000000,0.000*0A
EndT:        0
---00000016--- Acq_st=3 2019-5-25 03:45:24 
[00]  G07  7 44  -2429.9 2046003.2  1.0  1.0  5  0        10
[01]  G08  7 43    368.3 2045999.5  1.0  1.0  5  0        13
$GNGGA,000000.000,,,,,0,00,,,M,,,,0000*2B
$GNRMC,000000.000,A,,,,,,,000000,,*26
$GPGSA,A,1,,,,,,,,,,,,,,,*1E
$BDGSA,A,1,,,,,,,,,,,,,,,*0F
$GPGSV,1,1,02,07,00,000,44,08,00,000,43*73
$LOGTIM,0,0.000000,0.000000,0.000000,0.000000,0.000*0A
EndT:        0
---00000017--- Acq_st=3 2019-5-25 03:45:25 
[00]  G07  f 43  -2429.1 2046003.2  1.0  1.0  5  0        10
[01]  G08  f 43    368.9 2045999.5  1.0  1.0  5  0        13
$GNGGA,000000.000,,,,,0,00,,,M,,,,0000*2B
$GNRMC,000000.000,A,,,,,,,000000,,*26
$GPGSA,A,1,,,,,,,,,,,,,,,*1E
$BDGSA,A,1,,,,,,,,,,,,,,,*0F
$GPGSV,1,1,02,07,00,000,43,08,00,000,43*74
$LOGTIM,0,0.000000,0.000000,0.000000,0.000000,0.000*0A
EndT:        0
---00000018--- Acq_st=3 2019-5-25 03:45:26 
[00]  G07  f 44  -2426.9 2046003.2  1.0  1.0  5  0 531943950
[01]  G08  f 43    371.1 2045999.5  1.0  1.0  5  0 531943953
$GNGGA,000000.000,,,,,0,00,,,M,,,,0000*2B
$GNRMC,000000.000,A,,,,,,,000000,,*26
$GPGSA,A,1,,,,,,,,,,,,,,,*1E
$BDGSA,A,1,,,,,,,,,,,,,,,*0F
$GPGSV,1,1,02,07,00,000,44,08,00,000,43*73
$LOGTIM,0,0.000000,0.000000,0.000000,0.000000,0.000*0A
EndT:        0
---00000019--- Acq_st=3 2019-5-25 03:45:27 
[00]  G07  f 44  -2424.4 2046003.2  1.0  1.0  5  0 531944950
[01]  G08  f 43    373.1 2045999.5  1.0  1.0  5  0 531944953
$GNGGA,000000.000,,,,,0,00,,,M,,,,0000*2B
$GNRMC,000000.000,A,,,,,,,000000,,*26
$GPGSA,A,1,,,,,,,,,,,,,,,*1E
$BDGSA,A,1,,,,,,,,,,,,,,,*0F
$GPGSV,1,1,02,07,00,000,44,08,00,000,43*73
$LOGTIM,0,0.000000,0.000000,0.000000,0.000000,0.000*0A
EndT:        0
---00000020--- Acq_st=3 2019-5-25 03:45:28 
[00]  G07  f 44  -2426.4 2046003.2  1.0  1.0  5  0 531945950
[01]  G08  f 43    371.6 2045999.5  1.0  1.0  5  0 531945953
$GNGGA,000000.000,,,,,0,00,,,M,,,,0000*2B
$GNRMC,000000.000,A,,,,,,,000000,,*26
$GPGSA,A,1,,,,,,,,,,,,,,,*1E
$BDGSA,A,1,,,,,,,,,,,,,,,*0F
$GPGSV,1,1,02,07,00,000,44,08,00,000,43*73
$LOGTIM,0,0.000000,0.000000,0.000000,0.000000,0.000*0A
EndT:        0
---00000021--- Acq_st=3 2019-5-25 03:45:29 
[00]  G07  f 44  -2424.2 2046003.1  1.0  1.0  5  0 531946950
[01]  G08  f 43    373.5 2045999.5  1.0  1.0  5  0 531946953
$GNGGA,000000.000,,,,,0,00,,,M,,,,0000*2B
$GNRMC,000000.000,A,,,,,,,000000,,*26
$GPGSA,A,1,,,,,,,,,,,,,,,*1E
$BDGSA,A,1,,,,,,,,,,,,,,,*0F
$GPGSV,1,1,02,07,00,000,44,08,00,000,43*73
$LOGTIM,0,0.000000,0.000000,0.000000,0.000000,0.000*0A
EndT:        0
---00000022--- Acq_st=3 2019-5-25 03:45:30 
[00]  G07  f 44  -2421.4 2046003.2  1.0  1.0  5  0 531947950
[01]  G08  f 43    376.5 2045999.5  1.0  1.0  5  0 531947953
$GNGGA,000000.000,,,,,0,00,,,M,,,,0000*2B
$GNRMC,000000.000,A,,,,,,,000000,,*26
$GPGSA,A,1,,,,,,,,,,,,,,,*1E
$BDGSA,A,1,,,,,,,,,,,,,,,*0F
$GPGSV,1,1,02,07,00,000,44,08,00,000,43*73
$LOGTIM,0,0.000000,0.000000,0.000000,0.000000,0.000*0A
EndT:        0
---00000023--- Acq_st=3 2019-5-25 03:45:31 
[00]  G07  f 44  -2419.2 2046003.1  1.0  1.0  5  0 531948950
[01]  G08  f 43    378.4 2045999.6  1.0  1.0  5  0 531948953
$GNGGA,000000.000,,,,,0,00,,,M,,,,0000*2B
$GNRMC,000000.000,A,,,,,,,000000,,*26
$GPGSA,A,1,,,,,,,,,,,,,,,*1E
$BDGSA,A,1,,,,,,,,,,,,,,,*0F
$GPGSV,1,1,02,07,00,000,44,08,00,000,43*73
$LOGTIM,0,0.000000,0.000000,0.000000,0.000000,0.000*0A
EndT:        0
---00000024--- Acq_st=3 2019-5-25 03:45:32 
[00]  G07  f 44  -2419.9 2046003.1  1.0  1.0  5  0 531949950
[01]  G08  f 43    377.6 2045999.5  1.0  1.0  5  0 531949953
$GNGGA,000000.000,,,,,0,00,,,M,,,,0000*2B
$GNRMC,000000.000,A,,,,,,,000000,,*26
$GPGSA,A,1,,,,,,,,,,,,,,,*1E
$BDGSA,A,1,,,,,,,,,,,,,,,*0F
$GPGSV,1,1,02,07,00,000,44,08,00,000,43*73
$LOGTIM,0,0.000000,0.000000,0.000000,0.000000,0.000*0A
EndT:        0
---00000025--- Acq_st=3 2019-5-25 03:45:33 
[00]  G07  f 44  -2421.5 2046003.1  1.0  1.0  5  0 531950950
[01]  G08  f 43    375.7 2045999.5  1.0  1.0  5  0 531950953
$GNGGA,000000.000,,,,,0,00,,,M,,,,0000*2B
$GNRMC,000000.000,A,,,,,,,000000,,*26
$GPGSA,A,1,,,,,,,,,,,,,,,*1E
$BDGSA,A,1,,,,,,,,,,,,,,,*0F
$GPGSV,1,1,02,07,00,000,44,08,00,000,43*73
$LOGTIM,0,0.000000,0.000000,0.000000,0.000000,0.000*0A
EndT:        0
---00000026--- Acq_st=3 2019-5-25 03:45:34 
[00]  G07  f 44  -2425.8 2046003.1  1.0  1.0  5  0 531951950
[01]  G08  f 43    371.6 2045999.5  1.0  1.0  5  0 531951953
$GNGGA,000000.000,,,,,0,00,,,M,,,,0000*2B
$GNRMC,000000.000,A,,,,,,,000000,,*26
$GPGSA,A,1,,,,,,,,,,,,,,,*1E
$BDGSA,A,1,,,,,,,,,,,,,,,*0F
$GPGSV,1,1,02,07,00,000,44,08,00,000,43*73
$LOGTIM,0,0.000000,0.000000,0.000000,0.000000,0.000*0A
EndT:        0
---00000027--- Acq_st=3 2019-5-25 03:45:35 
[00]  G07  f 44  -2426.5 2046003.1  1.0  1.0  5  0 531952950
[01]  G08  f 44    370.6 2045999.5  1.0  1.0  5  0 531952953
$GNGGA,000000.000,,,,,0,00,,,M,,,,0000*2B
$GNRMC,000000.000,A,,,,,,,000000,,*26
$GPGSA,A,1,,,,,,,,,,,,,,,*1E
$BDGSA,A,1,,,,,,,,,,,,,,,*0F
$GPGSV,1,1,02,07,00,000,44,08,00,000,44*74
$LOGTIM,0,0.000000,0.000000,0.000000,0.000000,0.000*0A
EndT:        0
---00000028--- Acq_st=3 2019-5-25 03:45:36 
[00]  G07  f 44  -2430.6 2046003.1  1.0  1.0  5  0 531953950
[01]  G08  f 43    366.4 2045999.5  1.0  1.0  5  0 531953953
$GNGGA,000000.000,,,,,0,00,,,M,,,,0000*2B
$GNRMC,000000.000,A,,,,,,,000000,,*26
$GPGSA,A,1,,,,,,,,,,,,,,,*1E
$BDGSA,A,1,,,,,,,,,,,,,,,*0F
$GPGSV,1,1,02,07,00,000,44,08,00,000,43*73
$LOGTIM,0,0.000000,0.000000,0.000000,0.000000,0.000*0A
EndT:        0
---00000029--- Acq_st=3 2019-5-25 03:45:37 
[00]  G07  f 44  -2431.1 2046003.2  1.0  1.0  5  0 531954950
[01]  G08  f 43    365.5 2045999.5  1.0  1.0  5  0 531954953
$GNGGA,000000.000,,,,,0,00,,,M,,,,0000*2B
$GNRMC,000000.000,A,,,,,,,000000,,*26
$GPGSA,A,1,,,,,,,,,,,,,,,*1E
$BDGSA,A,1,,,,,,,,,,,,,,,*0F
$GPGSV,1,1,02,07,00,000,44,08,00,000,43*73
$LOGTIM,0,0.000000,0.000000,0.000000,0.000000,0.000*0A
EndT:        0
---00000030--- Acq_st=3 2019-5-25 03:45:38 
[00]  G07  f 44  -2430.1 2046003.1  1.0  1.0  5  0 531955950
[01]  G08  f 43    366.4 2045999.5  1.0  1.0  5  0 531955953
$GNGGA,000000.000,,,,,0,00,,,M,,,,0000*2B
$GNRMC,000000.000,A,,,,,,,000000,,*26
$GPGSA,A,1,,,,,,,,,,,,,,,*1E
$BDGSA,A,1,,,,,,,,,,,,,,,*0F
$GPGSV,1,1,02,07,00,000,44,08,00,000,43*73
$LOGTIM,0,0.000000,0.000000,0.000000,0.000000,0.000*0A
EndT:        0
---00000031--- Acq_st=3 2019-5-25 03:45:39 
[00]  G07  f 44  -2429.6 2046003.2  1.0  1.0  5  0 531956950
[01]  G08  f 43    367.1 2045999.5  1.0  1.0  5  0 531956953
$GNGGA,000000.000,,,,,0,00,,,M,,,,0000*2B
$GNRMC,000000.000,A,,,,,,,000000,,*26
$GPGSA,A,1,,,,,,,,,,,,,,,*1E
$BDGSA,A,1,,,,,,,,,,,,,,,*0F
$GPGSV,1,1,02,07,00,000,44,08,00,000,43*73
$LOGTIM,0,0.000000,0.000000,0.000000,0.000000,0.000*0A
EndT:        0
---00000032--- Acq_st=3 2019-5-25 03:45:40 
[00]  G07  f 44  -2429.7 2046003.2  1.0  1.0  5  0 531957950
[01]  G08  f 43    366.7 2045999.5  1.0  1.0  5  0 531957953
$GNGGA,000000.000,,,,,0,00,,,M,,,,0000*2B
$GNRMC,000000.000,A,,,,,,,000000,,*26
$GPGSA,A,1,,,,,,,,,,,,,,,*1E
$BDGSA,A,1,,,,,,,,,,,,,,,*0F
$GPGSV,1,1,02,07,00,000,44,08,00,000,43*73
$LOGTIM,0,0.000000,0.000000,0.000000,0.000000,0.000*0A
EndT:        0
---00000033--- Acq_st=3 2019-5-25 03:45:41 
[00]  G07  f 44  -2429.2 2046003.2  1.0  1.0  5  0 531958950
[01]  G08  f 43    367.1 2045999.5  1.0  1.0  5  0 531958953
$GNGGA,000000.000,,,,,0,00,,,M,,,,0000*2B
$GNRMC,000000.000,A,,,,,,,000000,,*26
$GPGSA,A,1,,,,,,,,,,,,,,,*1E
$BDGSA,A,1,,,,,,,,,,,,,,,*0F
$GPGSV,1,1,02,07,00,000,44,08,00,000,43*73
$LOGTIM,0,0.000000,0.000000,0.000000,0.000000,0.000*0A
EndT:        0
---00000034--- Acq_st=3 2019-5-25 03:45:42 
[00]  G07  f 45  -2428.7 2046003.1  1.0  1.0  5  0 531959950
[01]  G08  f 44    367.5 2045999.5  1.0  1.0  5  0 531959953
$GNGGA,000000.000,,,,,0,00,,,M,,,,0000*2B
$GNRMC,000000.000,A,,,,,,,000000,,*26
$GPGSA,A,1,,,,,,,,,,,,,,,*1E
$BDGSA,A,1,,,,,,,,,,,,,,,*0F
$GPGSV,1,1,02,07,00,000,45,08,00,000,44*75
$LOGTIM,0,0.000000,0.000000,0.000000,0.000000,0.000*0A
EndT:        0
ch2 satid=26,max_freq = -2250,max_mean = 25100,max_phase = 1508,max_value = 242885,acq ok1!
acq ok1 timeH = 0,timeL = 644781222,freq_stage = 4
---00000035--- Acq_st=3 2019-5-25 03:45:43 
[00]  G07  f 45  -2425.7 2046003.1  1.0  1.0  5  0 531960950
[01]  G08  f 44    371.0 2045999.5  1.0  1.0  5  0 531960953
[02]  G27  1 25   2180.5 2045997.8 -0.0  0.0  1  0         0
$GNGGA,000000.000,,,,,0,00,,,M,,,,0000*2B
$GNRMC,000000.000,A,,,,,,,000000,,*26
$GPGSA,A,1,,,,,,,,,,,,,,,*1E
$BDGSA,A,1,,,,,,,,,,,,,,,*0F
$GPGSV,1,1,02,07,00,000,45,08,00,000,44*75
$LOGTIM,0,0.000000,0.000000,0.000000,0.000000,0.000*0A
EndT:        0
---00000036--- Acq_st=3 2019-5-25 03:45:44 
[00]  G07  f 45  -2422.4 2046003.1  1.0  1.0  5  0 531961950
[01]  G08  f 43    374.0 2045999.5  1.0  1.0  5  0 531961953
[02]  G27  7 29   2182.8 2045997.1  0.2  1.0 10  0        11
$GNGGA,000000.000,,,,,0,00,,,M,,,,0000*2B
$GNRMC,000000.000,A,,,,,,,000000,,*26
$GPGSA,A,1,,,,,,,,,,,,,,,*1E
$BDGSA,A,1,,,,,,,,,,,,,,,*0F
$GPGSV,1,1,03,07,00,000,45,08,00,000,43,27,00,000,29*4D
$LOGTIM,0,0.000000,0.000000,0.000000,0.000000,0.000*0A
EndT:        0
---00000037--- Acq_st=3 2019-5-25 03:45:45 
[00]  G07  f 45  -2419.3 2046003.2  1.0  1.0  5  0 531962950
[01]  G08  f 43    377.0 2045999.5  1.0  1.0  5  0 531962953
[02]  G27  7 37   2185.6 2045997.0  1.0  1.0  5  0         9
$GNGGA,000000.000,,,,,0,00,,,M,,,,0000*2B
$GNRMC,000000.000,A,,,,,,,000000,,*26
$GPGSA,A,1,,,,,,,,,,,,,,,*1E
$BDGSA,A,1,,,,,,,,,,,,,,,*0F
$GPGSV,1,1,03,07,00,000,45,08,00,000,43,27,00,000,37*42
$LOGTIM,0,0.000000,0.000000,0.000000,0.000000,0.000*0A
EndT:        0
ch3 satid=29,max_freq = 3500,max_mean = 24109,max_phase = 233,max_value = 664520,acq ok1!
acq ok1 timeH = 0,timeL = 702956694,freq_stage = 1
---00000038--- Acq_st=3 2019-5-25 03:45:46 
[00]  G07  f 45  -2418.7 2046003.1  1.0  1.0  5  0 531963950
[01]  G08  f 43    377.3 2045999.6  1.0  1.0  5  0 531963953
[02]  G27  7 37   2186.0 2045997.1  1.0  0.9  5  0         9
[03]  G30  1  7  -2749.6 2046005.8  0.0  0.0  1  0         0
$GNGGA,000000.000,,,,,0,00,,,M,,,,0000*2B
$GNRMC,000000.000,A,,,,,,,000000,,*26
$GPGSA,A,1,,,,,,,,,,,,,,,*1E
$BDGSA,A,1,,,,,,,,,,,,,,,*0F
$GPGSV,1,1,03,07,00,000,45,08,00,000,43,27,00,000,37*42
$LOGTIM,0,0.000000,0.000000,0.000000,0.000000,0.000*0A
EndT:        0
---00000039--- Acq_st=3 2019-5-25 03:45:47 
[00]  G07  f 44  -2419.1 2046003.2  1.0  1.0  5  0 531964950
[01]  G08  f 43    376.8 2045999.5  1.0  1.0  5  0 531964953
[02]  G27  7 38   2185.4 2045997.1  1.0  1.0  5  0         9
[03]  G30  1 31  -3566.2 2046005.4 -0.1  0.0  1  0         4
$GNGGA,000000.000,,,,,0,00,,,M,,,,0000*2B
$GNRMC,000000.000,A,,,,,,,000000,,*26
$GPGSA,A,1,,,,,,,,,,,,,,,*1E
$BDGSA,A,1,,,,,,,,,,,,,,,*0F
$GPGSV,1,1,03,07,00,000,44,08,00,000,43,27,00,000,38*4C
$LOGTIM,0,0.000000,0.000000,0.000000,0.000000,0.000*0A
EndT:        0
---00000040--- Acq_st=3 2019-5-25 03:45:48 
[00]  G07  f 45  -2416.0 2046003.1  1.0  1.0  5  0 531965950
[01]  G08  f 44    379.7 2045999.5  1.0  1.0  5  0 531965953
[02]  G27  7 39   2188.0 2045997.1  1.0  1.0  5  0         9
[03]  G30  7 34  -3562.0 2046004.6  0.5  1.0  5  0         4
$GNGGA,000000.000,,,,,0,00,,,M,,,,0000*2B
$GNRMC,000000.000,A,,,,,,,000000,,*26
$GPGSA,A,1,,,,,,,,,,,,,,,*1E
$BDGSA,A,1,,,,,,,,,,,,,,,*0F
$GPGSV,1,1,04,07,00,000,45,08,00,000,44,27,00,000,39,30,00,000,34*78
$LOGTIM,0,0.000000,0.000000,0.000000,0.000000,0.000*0A
EndT:        0
---00000041--- Acq_st=3 2019-5-25 03:45:49 
[00]  G07  f 45  -2417.5 2046003.2  1.0  1.0  5  0 531966950
[01]  G08  f 43    377.8 2045999.5  1.0  1.0  5  0 531966953
[02]  G27  f 38   2185.9 2045997.1  1.0  0.9  5  0         9
[03]  G30  7 44  -3563.9 2046004.6  1.0  1.0  5  0         2
$GNGGA,000000.000,,,,,0,00,,,M,,,,0000*2B
$GNRMC,000000.000,A,,,,,,,000000,,*26
$GPGSA,A,1,,,,,,,,,,,,,,,*1E
$BDGSA,A,1,,,,,,,,,,,,,,,*0F
$GPGSV,1,1,04,07,00,000,45,08,00,000,43,27,00,000,38,30,00,000,44*79
$LOGTIM,0,0.000000,0.000000,0.000000,0.000000,0.000*0A
EndT:        0
---00000042--- Acq_st=3 2019-5-25 03:45:50 
[00]  G07  f 44  -2413.9 2046003.2  1.0  1.0  5  0 531967950
[01]  G08  f 44    381.9 2045999.5  1.0  1.0  5  0 531967953
[02]  G27  f 38   2189.4 2045997.1  1.0  1.0  5  0 531967949
[03]  G30  7 44  -3560.7 2046004.6  1.0  1.0  5  0         2
$GNGGA,000000.000,,,,,0,00,,,M,,,,0000*2B
$GNRMC,000000.000,A,,,,,,,000000,,*26
$GPGSA,A,1,,,,,,,,,,,,,,,*1E
$BDGSA,A,1,,,,,,,,,,,,,,,*0F
$GPGSV,1,1,04,07,00,000,44,08,00,000,44,27,00,000,38,30,00,000,44*7F
$LOGTIM,0,0.000000,0.000000,0.000000,0.000000,0.000*0A
EndT:        0
---00000043--- Acq_st=3 2019-5-25 03:45:51 
[00]  G07  f 44  -2415.7 2046003.1  1.0  1.0  5  0 531968950
[01]  G08  f 44    379.5 2045999.5  1.0  1.0  5  0 531968953
[02]  G27  f 38   2187.6 2045997.1  1.0  1.0  5  0 531968949
[03]  G30  7 44  -3562.8 2046004.6  1.0  1.0  5  0         2
$GNGGA,000000.000,,,,,0,00,,,M,,,,0000*2B
$GNRMC,000000.000,A,,,,,,,000000,,*26
$GPGSA,A,1,,,,,,,,,,,,,,,*1E
$BDGSA,A,1,,,,,,,,,,,,,,,*0F
$GPGSV,1,1,04,07,00,000,44,08,00,000,44,27,00,000,38,30,00,000,44*7F
$LOGTIM,0,0.000000,0.000000,0.000000,0.000000,0.000*0A
EndT:        0
---00000044--- Acq_st=3 2019-5-25 03:45:52 
[00]  G07  f 44  -2417.9 2046003.1  1.0  1.0  5  0 531969950
[01]  G08  f 43    377.8 2045999.5  1.0  1.0  5  0 531969953
[02]  G27  f 38   2185.0 2045997.1  1.0  1.0  5  0 531969949
[03]  G30  7 43  -3564.9 2046004.6  1.0  1.0  5  0         2
$GNGGA,000000.000,,,,,0,00,,,M,,,,0000*2B
$GNRMC,000000.000,A,,,,,,,000000,,*26
$GPGSA,A,1,,,,,,,,,,,,,,,*1E
$BDGSA,A,1,,,,,,,,,,,,,,,*0F
$GPGSV,1,1,04,07,00,000,44,08,00,000,43,27,00,000,38,30,00,000,43*7F
$LOGTIM,0,0.000000,0.000000,0.000000,0.000000,0.000*0A
EndT:        0
---00000045--- Acq_st=3 2019-5-25 03:45:53 
[00]  G07  f 45  -2413.1 2046003.2  1.0  1.0  5  0 531970950
[01]  G08  f 44    381.8 2045999.5  1.0  1.0  5  0 531970953
[02]  G27  f 39   2188.8 2045997.2  1.0  1.0  5  0 531970949
[03]  G30  7 44  -3560.4 2046004.6  1.0  1.0  5  0         2
$GNGGA,000000.000,,,,,0,00,,,M,,,,0000*2B
$GNRMC,000000.000,A,,,,,,,000000,,*26
$GPGSA,A,1,,,,,,,,,,,,,,,*1E
$BDGSA,A,1,,,,,,,,,,,,,,,*0F
$GPGSV,1,1,04,07,00,000,45,08,00,000,44,27,00,000,39,30,00,000,44*7F
$LOGTIM,0,0.000000,0.000000,0.000000,0.000000,0.000*0A
EndT:        0
---00000046--- Acq_st=3 2019-5-25 03:45:54 
[00]  G07  f 45  -2408.8 2046003.1  1.0  1.0  5  0 531971950
[01]  G08  f 43    386.5 2045999.5  1.0  1.0  5  0 531971953
[02]  G27  f 39   2193.6 2045997.2  1.0  1.0  5  0 531971949
[03]  G30  7 44  -3556.5 2046004.6  1.0  1.0  5  0         2
$GNGGA,000000.000,,,,,0,00,,,M,,,,0000*2B
$GNRMC,000000.000,A,,,,,,,000000,,*26
$GPGSA,A,1,,,,,,,,,,,,,,,*1E
$BDGSA,A,1,,,,,,,,,,,,,,,*0F
$GPGSV,1,1,04,07,00,000,45,08,00,000,43,27,00,000,39,30,00,000,44*78
$LOGTIM,0,0.000000,0.000000,0.000000,0.000000,0.000*0A
EndT:        0
---00000047--- Acq_st=3 2019-5-25 03:45:55 
[00]  G07  f 44  -2410.7 2046003.1  1.0  1.0  5  0 531972950
[01]  G08  f 43    384.6 2045999.5  1.0  1.0  5  0 531972953
[02]  G27  f 38   2191.2 2045997.2  1.0  0.9  5  0 531972949
[03]  G30  f 44  -3558.5 2046004.6  1.0  1.0  5  0         2
$GNGGA,000000.000,,,,,0,00,,,M,,,,0000*2B
$GNRMC,000000.000,A,,,,,,,000000,,*26
$GPGSA,A,1,,,,,,,,,,,,,,,*1E
$BDGSA,A,1,,,,,,,,,,,,,,,*0F
$GPGSV,1,1,04,07,00,000,44,08,00,000,43,27,00,000,38,30,00,000,44*78
$LOGTIM,0,0.000000,0.000000,0.000000,0.000000,0.000*0A
EndT:        0
---00000048--- Acq_st=3 2019-5-25 03:45:56 
[00]  G07  f 44  -2409.7 2046003.1  1.0  1.0  5  0 531973950
[01]  G08  f 43    385.2 2045999.5  1.0  1.0  5  0 531973953
[02]  G27  f 39   2191.8 2045997.1  1.0  1.0  5  0 531973949
[03]  G30  f 43  -3558.0 2046004.6  1.0  1.0  5  0 531973942
$GNGGA,000000.000,,,,,0,00,,,M,,,,0000*2B
$GNRMC,000000.000,A,,,,,,,000000,,*26
$GPGSA,A,1,,,,,,,,,,,,,,,*1E
$BDGSA,A,1,,,,,,,,,,,,,,,*0F
$GPGSV,1,1,04,07,00,000,44,08,00,000,43,27,00,000,39,30,00,000,43*7E
$LOGTIM,0,0.000000,0.000000,0.000000,0.000000,0.000*0A
EndT:        0
---00000049--- Acq_st=3 2019-5-25 03:45:57 
[00]  G07  f 45  -2408.0 2046003.1  1.0  1.0  5  0 531974950
[01]  G08  f 44    386.7 2045999.5  1.0  1.0  5  0 531974953
[02]  G27  f 39   2193.3 2045997.1  1.0  1.0  5  0 531974949
[03]  G30  f 44  -3556.4 2046004.6  1.0  1.0  5  0 531974942
$GNGGA,000000.000,,,,,0,00,,,M,,,,0000*2B
$GNRMC,000000.000,A,,,,,,,000000,,*26
$GPGSA,A,1,,,,,,,,,,,,,,,*1E
$BDGSA,A,1,,,,,,,,,,,,,,,*0F
$GPGSV,1,1,04,07,00,000,45,08,00,000,44,27,00,000,39,30,00,000,44*7F
$LOGTIM,0,0.000000,0.000000,0.000000,0.000000,0.000*0A
EndT:        0
---00000050--- Acq_st=3 2019-5-25 03:45:58 
[00]  G07  f 45  -2409.0 2046003.1  1.0  1.0  5  0 531975950
[01]  G08  f 44    385.5 2045999.5  1.0  1.0  5  0 531975953
[02]  G27  f 39   2191.8 2045997.2  1.0  1.0  5  0 531975949
[03]  G30  f 44  -3557.8 2046004.6  1.0  1.0  5  0 531975942
$GNGGA,000000.000,,,,,0,00,,,M,,,,0000*2B
$GNRMC,000000.000,A,,,,,,,000000,,*26
$GPGSA,A,1,,,,,,,,,,,,,,,*1E
$BDGSA,A,1,,,,,,,,,,,,,,,*0F
$GPGSV,1,1,04,07,00,000,45,08,00,000,44,27,00,000,39,30,00,000,44*7F
$LOGTIM,0,0.000000,0.000000,0.000000,0.000000,0.000*0A
EndT:        0
---00000051--- Acq_st=3 2019-5-25 03:45:59 
[00]  G07  f 45  -2406.3 2046003.1  1.0  1.0  5  0 531976950
[01]  G08  f 44    388.3 2045999.5  1.0  1.0  5  0 531976953
[02]  G27  f 39   2194.2 2045997.1  1.0  1.0  5  0 531976949
[03]  G30  f 44  -3555.3 2046004.6  1.0  1.0  5  0 531976942
$GNGGA,000000.000,,,,,0,00,,,M,,,,0000*2B
$GNRMC,000000.000,A,,,,,,,000000,,*26
$GPGSA,A,1,,,,,,,,,,,,,,,*1E
$BDGSA,A,1,,,,,,,,,,,,,,,*0F
$GPGSV,1,1,04,07,00,000,45,08,00,000,44,27,00,000,39,30,00,000,44*7F
$LOGTIM,0,0.000000,0.000000,0.000000,0.000000,0.000*0A
EndT:        0
---00000052--- Acq_st=3 2019-5-25 03:46:0 
[00]  G07  f 44  -2410.2 2046003.1  1.0  1.0  5  0 531977950
[01]  G08  f 43    384.4 2045999.5  1.0  1.0  5  0 531977953
[02]  G27  f 39   2190.2 2045997.1  1.0  1.0  5  0 531977949
[03]  G30  f 43  -3558.9 2046004.6  1.0  1.0  5  0 531977942
$GNGGA,000000.000,,,,,0,00,,,M,,,,0000*2B
$GNRMC,000000.000,A,,,,,,,000000,,*26
$GPGSA,A,1,,,,,,,,,,,,,,,*1E
$BDGSA,A,1,,,,,,,,,,,,,,,*0F
$GPGSV,1,1,04,07,00,000,44,08,00,000,43,27,00,000,39,30,00,000,43*7E
$LOGTIM,0,0.000000,0.000000,0.000000,0.000000,0.000*0A
EndT:        0
---00000053--- Acq_st=3 2019-5-25 03:46:1 
[00]  G07  f 45  -2408.6 2046003.1  1.0  1.0  5  0 531978950
[01]  G08  f 43    385.8 2045999.5  1.0  1.0  5  0 531978953
[02]  G27  f 39   2191.5 2045997.2  1.0  1.0  5  0 531978949
[03]  G30  f 44  -3557.8 2046004.6  1.0  1.0  5  0 531978942
$GNGGA,000000.000,,,,,0,00,,,M,,,,0000*2B
$GNRMC,000000.000,A,,,,,,,000000,,*26
$GPGSA,A,1,,,,,,,,,,,,,,,*1E
$BDGSA,A,1,,,,,,,,,,,,,,,*0F
$GPGSV,1,1,04,07,00,000,45,08,00,000,43,27,00,000,39,30,00,000,44*78
$LOGTIM,0,0.000000,0.000000,0.000000,0.000000,0.000*0A
EndT:        0
---00000054--- Acq_st=3 2019-5-25 03:46:2 
[00]  G07  f 45  -2404.9 2046003.1  1.0  1.0  5  0 531979950
[01]  G08  f 43    389.4 2045999.5  1.0  1.0  5  0 531979953
[02]  G27  f 39   2194.2 2045997.1  1.0  1.0  5  0 531979949
[03]  G30  f 44  -3554.7 2046004.6  1.0  1.0  5  0 531979942
$GNGGA,000000.000,,,,,0,00,,,M,,,,0000*2B
$GNRMC,000000.000,A,,,,,,,000000,,*26
$GPGSA,A,1,,,,,,,,,,,,,,,*1E
$BDGSA,A,1,,,,,,,,,,,,,,,*0F
$GPGSV,1,1,04,07,00,000,45,08,00,000,43,27,00,000,39,30,00,000,44*78
$LOGTIM,0,0.000000,0.000000,0.000000,0.000000,0.000*0A
EndT:        0
---00000055--- Acq_st=3 2019-5-25 03:46:3 
[00]  G07  f 45  -2400.8 2046003.1  1.0  1.0  5  0 531980950
[01]  G08  f 43    393.2 2045999.5  1.0  1.0  5  0 531980953
[02]  G27  f 40   2198.3 2045997.1  1.0  1.0  5  0 531980949
[03]  G30  f 44  -3551.0 2046004.6  1.0  1.0  5  0 531980942
$GNGGA,000000.000,,,,,0,00,,,M,,,,0000*2B
$GNRMC,000000.000,A,,,,,,,000000,,*26
$GPGSA,A,1,,,,,,,,,,,,,,,*1E
$BDGSA,A,1,,,,,,,,,,,,,,,*0F
$GPGSV,1,1,04,07,00,000,45,08,00,000,43,27,00,000,40,30,00,000,44*76
$LOGTIM,0,0.000000,0.000000,0.000000,0.000000,0.000*0A
EndT:        0
---00000056--- Acq_st=3 2019-5-25 03:46:4 
[00]  G07  f 45  -2404.4 2046003.1  1.0  1.0  5  0 531981950
[01]  G08  f 43    389.6 2045999.5  1.0  1.0  5  0 531981953
[02]  G27  f 39   2195.0 2045997.1  1.0  1.0  5  0 531981949
[03]  G30  f 43  -3554.9 2046004.6  1.0  1.0  5  0 531981942
$GNGGA,000000.000,,,,,0,00,,,M,,,,0000*2B
$GNRMC,000000.000,A,,,,,,,000000,,*26
$GPGSA,A,1,,,,,,,,,,,,,,,*1E
$BDGSA,A,1,,,,,,,,,,,,,,,*0F
$GPGSV,1,1,04,07,00,000,45,08,00,000,43,27,00,000,39,30,00,000,43*7F
$LOGTIM,0,0.000000,0.000000,0.000000,0.000000,0.000*0A
EndT:        0
ch16 satid=43,max_freq = 1000,max_mean = 9152,max_phase = 622,max_value = 79763,acq ok1!
acq ok1 timeH = 0,timeL = 1054458700,freq_stage = 3
---00000057--- Acq_st=3 2019-5-25 03:46:5 
[00]  G07  f 45  -2403.6 2046003.1  1.0  1.0  5  0 531982950
[01]  G08  f 43    390.5 2045999.5  1.0  1.0  5  0 531982953
[02]  G27  f 40   2195.0 2045997.2  1.0  1.0  5  0 531982949
[03]  G30  f 43  -3554.2 2046004.6  1.0  1.0  5  0 531982942
[16]  B07  1  7   -798.1 4091999.3 -0.0  0.0  1  0         0
$GNGGA,000000.000,,,,,0,00,,,M,,,,0000*2B
$GNRMC,000000.000,A,,,,,,,000000,,*26
$GPGSA,A,1,,,,,,,,,,,,,,,*1E
$BDGSA,A,1,,,,,,,,,,,,,,,*0F
$GPGSV,1,1,04,07,00,000,45,08,00,000,43,27,00,000,40,30,00,000,43*71
$LOGTIM,0,0.000000,0.000000,0.000000,0.000000,0.000*0A
EndT:        0
---00000058--- Acq_st=3 2019-5-25 03:46:6 
[00]  G07  f 45  -2406.2 2046003.1  1.0  1.0  5  0 531983950
[01]  G08  f 44    387.5 2045999.5  1.0  1.0  5  0 531983953
[02]  G27  f 40   2191.7 2045997.1  1.0  1.0  5  0 531983949
[03]  G30  f 43  -3557.0 2046004.6  1.0  1.0  5  0 531983942
[16]  B07  7 25   -685.4 4092001.9  0.4  0.0 20  0       718
$GNGGA,000000.000,,,,,0,00,,,M,,,,0000*2B
$GNRMC,000000.000,A,,,,,,,000000,,*26
$GPGSA,A,1,,,,,,,,,,,,,,,*1E
$BDGSA,A,1,,,,,,,,,,,,,,,*0F
$GPGSV,1,1,04,07,00,000,45,08,00,000,44,27,00,000,40,30,00,000,43*76
$BDGSV,1,1,01,07,00,000,25*59
$LOGTIM,0,0.000000,0.000000,0.000000,0.000000,0.000*0A
EndT:        0
---00000059--- Acq_st=3 2019-5-25 03:46:7 
[00]  G07  f 45  -2404.0 2046003.1  1.0  1.0  5  0 531984950
[01]  G08  f 43    390.0 2045999.5  1.0  1.0  5  0 531984953
[02]  G27  f 40   2194.6 2045997.2  1.0  1.0  5  0 531984949
[03]  G30  f 44  -3554.9 2046004.6  1.0  1.0  5  0 531984942
[16]  B07  7 40   -683.7 4092001.9  0.9  1.0  5  0      1701
$GNGGA,000000.000,,,,,0,00,,,M,,,,0000*2B
$GNRMC,000000.000,A,,,,,,,000000,,*26
$GPGSA,A,1,,,,,,,,,,,,,,,*1E
$BDGSA,A,1,,,,,,,,,,,,,,,*0F
$GPGSV,1,1,04,07,00,000,45,08,00,000,43,27,00,000,40,30,00,000,44*76
$BDGSV,1,1,01,07,00,000,40*5A
$LOGTIM,0,0.000000,0.000000,0.000000,0.000000,0.000*0A
EndT:        0
---00000060--- Acq_st=3 2019-5-25 03:46:8 
[00]  G07  f 45  -2404.0 2046003.1  1.0  1.0  5  0 531985950
[01]  G08  f 43    389.4 2045999.5  1.0  1.0  5  0 531985953
[02]  G27  f 40   2193.6 2045997.2  1.0  1.0  5  0 531985949
[03]  G30  f 43  -3555.6 2046004.6  1.0  1.0  5  0 531985942
[16]  B07  7 40   -684.1 4092001.8  1.0  1.0  5  0      2701
$GNGGA,000000.000,,,,,0,00,,,M,,,,0000*2B
$GNRMC,000000.000,A,,,,,,,000000,,*26
$GPGSA,A,1,,,,,,,,,,,,,,,*1E
$BDGSA,A,1,,,,,,,,,,,,,,,*0F
$GPGSV,1,1,04,07,00,000,45,08,00,000,43,27,00,000,40,30,00,000,43*71
$BDGSV,1,1,01,07,00,000,40*5A
$LOGTIM,0,0.000000,0.000000,0.000000,0.000000,0.000*0A
EndT:        0
---00000061--- Acq_st=3 2019-5-25 03:46:9 
[00]  G07  f 45  -2408.5 2046003.1  1.0  1.0  5  0 531986950
[01]  G08  f 44    384.8 2045999.5  1.0  1.0  5  0 531986953
[02]  G27  f 39   2188.9 2045997.2  1.0  1.0  5  0 531986949
[03]  G30  f 44  -3560.5 2046004.6  1.0  1.0  5  0 531986942
[16]  B07 1f 40   -689.5 4092001.8  1.0  1.0  5  0      3701
$GNGGA,000000.000,,,,,0,00,,,M,,,,0000*2B
$GNRMC,000000.000,A,,,,,,,000000,,*26
$GPGSA,A,1,,,,,,,,,,,,,,,*1E
$BDGSA,A,1,,,,,,,,,,,,,,,*0F
$GPGSV,1,1,04,07,00,000,45,08,00,000,44,27,00,000,39,30,00,000,44*7F
$BDGSV,1,1,01,07,00,000,40*5A
$LOGTIM,0,0.000000,0.000000,0.000000,0.000000,0.000*0A
EndT:        0
---00000062--- Acq_st=3 2019-5-25 03:46:10 
[00]  G07  f 45  -2413.8 2046003.1  1.0  1.0  5  0 531987950
[01]  G08  f 44    380.0 2045999.5  1.0  1.0  5  0 531987953
[02]  G27  f 39   2184.1 2045997.2  1.0  1.0  5  0 531987949
[03]  G30  f 44  -3565.7 2046004.6  1.0  1.0  5  0 531987942
[16]  B07 1f 40   -694.8 4092001.8  1.0  1.0  5  0 531973901
$GNGGA,000000.000,,,,,0,00,,,M,,,,0000*2B
$GNRMC,000000.000,A,,,,,,,000000,,*26
$GPGSA,A,1,,,,,,,,,,,,,,,*1E
$BDGSA,A,1,,,,,,,,,,,,,,,*0F
$GPGSV,1,1,04,07,00,000,45,08,00,000,44,27,00,000,39,30,00,000,44*7F
$BDGSV,1,1,01,07,00,000,40*5A
$LOGTIM,0,0.000000,0.000000,0.000000,0.000000,0.000*0A
EndT:        0
---00000063--- Acq_st=3 2019-5-25 03:46:11 
[00]  G07  f 45  -2414.4 2046003.1  1.0  1.0  5  0 531988950
[01]  G08  f 44    378.8 2045999.5  1.0  1.0  5  0 531988953
[02]  G27  f 39   2182.6 2045997.2  1.0  1.0  5  0 531988949
[03]  G30  f 44  -3566.5 2046004.6  1.0  1.0  5  0 531988942
[16]  B07 1f 40   -696.2 4092001.9  1.0  1.0  5  0 531974901
$GNGGA,000000.000,,,,,0,00,,,M,,,,0000*2B
$GNRMC,000000.000,A,,,,,,,000000,,*26
$GPGSA,A,1,,,,,,,,,,,,,,,*1E
$BDGSA,A,1,,,,,,,,,,,,,,,*0F
$GPGSV,1,1,04,07,00,000,45,08,00,000,44,27,00,000,39,30,00,000,44*7F
$BDGSV,1,1,01,07,00,000,40*5A
$LOGTIM,0,0.000000,0.000000,0.000000,0.000000,0.000*0A
EndT:        0
ch17 satid=46,max_freq = 1000,max_mean = 9885,max_phase = 937,max_value = 263879,acq ok1!
acq ok1 timeH = 0,timeL = 1185138860,freq_stage = 3
---00000064--- Acq_st=3 2019-5-25 03:46:12 
[00]  G07  f 45  -2411.7 2046003.1  1.0  1.0  5  0 531989950
[01]  G08  f 44    381.8 2045999.5  1.0  1.0  5  0 531989953
[02]  G27  f 39   2185.0 2045997.2  1.0  1.0  5  0 531989949
[03]  G30  f 44  -3564.0 2046004.6  1.0  1.0  5  0 531989942
[16]  B07 1f 40   -693.6 4092001.8  1.0  1.0  5  0 531975901
[17]  B10  1  7   -842.2 4092002.5 -0.1  0.0  1  0         0
$GNGGA,000000.000,,,,,0,00,,,M,,,,0000*2B
$GNRMC,000000.000,A,,,,,,,000000,,*26
$GPGSA,A,1,,,,,,,,,,,,,,,*1E
$BDGSA,A,1,,,,,,,,,,,,,,,*0F
$GPGSV,1,1,04,07,00,000,45,08,00,000,44,27,00,000,39,30,00,000,44*7F
$BDGSV,1,1,01,07,00,000,40*5A
$LOGTIM,0,0.000000,0.000000,0.000000,0.000000,0.000*0A
EndT:        0
---00000065--- Acq_st=3 2019-5-25 03:46:13 
[00]  G07  f 44  -2411.1 2046003.1  1.0  1.0  5  0 531990950
[01]  G08  f 44    381.9 2045999.5  1.0  1.0  5  0 531990953
[02]  G27  f 40   2185.8 2045997.1  1.0  1.0  5  0 531990949
[03]  G30  f 44  -3563.7 2046004.6  1.0  1.0  5  0 531990942
[16]  B07 1f 40   -693.4 4092001.8  1.0  1.0  5  0 531976901
[17]  B10  7 29   -842.6 4092002.2  0.5  1.0 10  0       912
$GNGGA,000000.000,,,,,0,00,,,M,,,,0000*2B
$GNRMC,000000.000,A,,,,,,,000000,,*26
$GPGSA,A,1,,,,,,,,,,,,,,,*1E
$BDGSA,A,1,,,,,,,,,,,,,,,*0F
$GPGSV,1,1,04,07,00,000,44,08,00,000,44,27,00,000,40,30,00,000,44*70
$BDGSV,1,1,02,07,00,000,40,10,00,000,29*63
$LOGTIM,0,0.000000,0.000000,0.000000,0.000000,0.000*0A
EndT:        0
---00000066--- Acq_st=3 2019-5-25 03:46:14 
[00]  G07  f 44  -2412.5 2046003.1  1.0  1.0  5  0 531991950
[01]  G08  f 44    380.7 2045999.5  1.0  1.0  5  0 531991953
[02]  G27  f 40   2183.9 2045997.1  1.0  1.0  5  0 531991949
[03]  G30  f 44  -3565.4 2046004.6  1.0  1.0  5  0 531991942
[16]  B07 1f 40   -695.3 4092001.8  1.0  1.0  5  0 531977901
[17]  B10  7 44   -844.9 4092002.2  1.0  1.0  5  0      1898
$GNGGA,000000.000,,,,,0,00,,,M,,,,0000*2B
$GNRMC,000000.000,A,,,,,,,000000,,*26
$GPGSA,A,1,,,,,,,,,,,,,,,*1E
$BDGSA,A,1,,,,,,,,,,,,,,,*0F
$GPGSV,1,1,04,07,00,000,44,08,00,000,44,27,00,000,40,30,00,000,44*70
$BDGSV,1,1,02,07,00,000,40,10,00,000,44*68
$LOGTIM,0,0.000000,0.000000,0.000000,0.000000,0.000*0A
EndT:        0
---00000067--- Acq_st=3 2019-5-25 03:46:15 
[00]  G07  f 44  -2412.4 2046003.2  1.0  1.0  5  0 531992950
[01]  G08  f 44    380.4 2045999.5  1.0  1.0  5  0 531992953
[02]  G27  f 40   2183.2 2045997.1  1.0  1.0  5  0 531992949
[03]  G30  f 44  -3565.9 2046004.6  1.0  1.0  5  0 531992942
[16]  B07 1f 41   -695.9 4092001.8  1.0  1.0  5  0 531978901
[17]  B10 1f 44   -845.2 4092002.2  1.0  1.0  5  0      2898
$GNGGA,000000.000,,,,,0,00,,,M,,,,0000*2B
$GNRMC,000000.000,A,,,,,,,000000,,*26
$GPGSA,A,1,,,,,,,,,,,,,,,*1E
$BDGSA,A,1,,,,,,,,,,,,,,,*0F
$GPGSV,1,1,04,07,00,000,44,08,00,000,44,27,00,000,40,30,00,000,44*70
$BDGSV,1,1,02,07,00,000,41,10,00,000,44*69
$LOGTIM,0,0.000000,0.000000,0.000000,0.000000,0.000*0A
EndT:        0
---00000068--- Acq_st=3 2019-5-25 03:46:16 
[00]  G07  f 44  -2413.3 2046003.2  1.0  1.0  5  0 531993950
[01]  G08  f 44    379.8 2045999.5  1.0  1.0  5  0 531993953
[02]  G27  f 39   2182.0 2045997.2  1.0  1.0  5  0 531993949
[03]  G30  f 44  -3566.7 2046004.6  1.0  1.0  5  0 531993942
[16]  B07 1f 41   -697.4 4092001.8  1.0  1.0  5  0 531979901
[17]  B10 1f 44   -846.4 4092002.2  1.0  1.0  5  0 531979898
$GNGGA,000000.000,,,,,0,00,,,M,,,,0000*2B
$GNRMC,000000.000,A,,,,,,,000000,,*26
$GPGSA,A,1,,,,,,,,,,,,,,,*1E
$BDGSA,A,1,,,,,,,,,,,,,,,*0F
$GPGSV,1,1,04,07,00,000,44,08,00,000,44,27,00,000,39,30,00,000,44*7E
$BDGSV,1,1,02,07,00,000,41,10,00,000,44*69
$LOGTIM,0,0.000000,0.000000,0.000000,0.000000,0.000*0A
EndT:        0
---00000069--- Acq_st=3 2019-5-25 03:46:17 
[00]  G07  f 43  -2411.4 2046003.2  1.0  1.0  5  0 531994950
[01]  G08  f 44    381.1 2045999.5  1.0  1.0  5  0 531994953
[02]  G27  f 39   2183.6 2045997.2  1.0  1.0  5  0 531994949
[03]  G30  f 44  -3565.0 2046004.6  1.0  1.0  5  0 531994942
[16]  B07 1f 40   -695.8 4092001.8  1.0  1.0  5  0 531980901
[17]  B10 1f 44   -844.7 4092002.2  1.0  1.0  5  0 531980898
$GNGGA,000000.000,,,,,0,00,,,M,,,,0000*2B
$GNRMC,000000.000,A,,,,,,,000000,,*26
$GPGSA,A,1,,,,,,,,,,,,,,,*1E
$BDGSA,A,1,,,,,,,,,,,,,,,*0F
$GPGSV,1,1,04,07,00,000,43,08,00,000,44,27,00,000,39,30,00,000,44*79
$BDGSV,1,1,02,07,00,000,40,10,00,000,44*68
$LOGTIM,0,0.000000,0.000000,0.000000,0.000000,0.000*0A
EndT:        0
---00000070--- Acq_st=3 2019-5-25 03:46:18 
[00]  G07  f 43  -2405.4 2046003.2  1.0  1.0  5  0 531995950
[01]  G08  f 44    387.5 2045999.5  1.0  1.0  5  0 531995953
[02]  G27  f 39   2189.5 2045997.2  1.0  1.0  5  0 531995949
[03]  G30  f 45  -3559.1 2046004.6  1.0  1.0  5  0 531995943
[16]  B07 1f 40   -690.4 4092001.8  1.0  1.0  5  0 531981901
[17]  B10 1f 44   -839.5 4092002.2  1.0  1.0  5  0 531981898
$GNGGA,000000.000,,,,,0,00,,,M,,,,0000*2B
$GNRMC,000000.000,A,,,,,,,000000,,*26
$GPGSA,A,1,,,,,,,,,,,,,,,*1E
$BDGSA,A,1,,,,,,,,,,,,,,,*0F
$GPGSV,1,1,04,07,00,000,43,08,00,000,44,27,00,000,39,30,00,000,45*78
$BDGSV,1,1,02,07,00,000,40,10,00,000,44*68
$LOGTIM,0,0.000000,0.000000,0.000000,0.000000,0.000*0A
EndT:        0
---00000071--- Acq_st=3 2019-5-25 03:46:19 
[00]  G07  f 43  -2403.2 2046003.1  1.0  1.0  5  0 531996950
[01]  G08  f 44    389.5 2045999.5  1.0  1.0  5  0 531996953
[02]  G27  f 39   2191.5 2045997.2  1.0  1.0  5  0 531996949
[03]  G30  f 44  -3557.2 2046004.6  1.0  1.0  5  0 531996943
[16]  B07 1f 41   -688.5 4092001.8  1.0  1.0  5  0 531982901
[17]  B10 1f 44   -837.8 4092002.2  1.0  1.0  5  0 531982898
$GNGGA,000000.000,,,,,0,00,,,M,,,,0000*2B
$GNRMC,000000.000,A,,,,,,,000000,,*26
$GPGSA,A,1,,,,,,,,,,,,,,,*1E
$BDGSA,A,1,,,,,,,,,,,,,,,*0F
$GPGSV,1,1,04,07,00,000,43,08,00,000,44,27,00,000,39,30,00,000,44*79
$BDGSV,1,1,02,07,00,000,41,10,00,000,44*69
$LOGTIM,0,0.000000,0.000000,0.000000,0.000000,0.000*0A
EndT:        0
---00000072--- Acq_st=3 2019-5-25 03:46:20 
[00]  G07  f 43  -2399.2 2046003.1  1.0  1.0  5  0 531997950
[01]  G08  f 44    393.4 2045999.5  1.0  1.0  5  0 531997953
[02]  G27  f 39   2195.0 2045997.1  1.0  1.0  5  0 531997949
[03]  G30  f 44  -3553.6 2046004.6  1.0  1.0  5  0 531997943
[16]  B07 1f 41   -684.7 4092001.8  1.0  1.0  5  0 531983901
[17]  B10 1f 44   -834.5 4092002.2  1.0  1.0  5  0 531983898
$GNGGA,000000.000,,,,,0,00,,,M,,,,0000*2B
$GNRMC,000000.000,A,,,,,,,000000,,*26
$GPGSA,A,1,,,,,,,,,,,,,,,*1E
$BDGSA,A,1,,,,,,,,,,,,,,,*0F
$GPGSV,1,1,04,07,00,000,43,08,00,000,44,27,00,000,39,30,00,000,44*79
$BDGSV,1,1,02,07,00,000,41,10,00,000,44*69
$LOGTIM,0,0.000000,0.000000,0.000000,0.000000,0.000*0A
EndT:        0
---00000073--- Acq_st=3 2019-5-25 03:46:21 
[00]  G07  f 43  -2399.8 2046003.1  1.0  1.0  5  0 531998950
[01]  G08  f 44    392.4 2045999.5  1.0  1.0  5  0 531998953
[02]  G27  f 39   2194.0 2045997.2  1.0  1.0  5  0 531998949
[03]  G30  f 44  -3555.0 2046004.6  1.0  1.0  5  0 531998943
[16]  B07 1f 41   -686.6 4092001.8  1.0  1.0  5  0 531984901
[17]  B10 1f 44   -836.0 4092002.2  1.0  1.0  5  0 531984898
$GNGGA,000000.000,,,,,0,00,,,M,,,,0000*2B
$GNRMC,000000.000,A,,,,,,,000000,,*26
$GPGSA,A,1,,,,,,,,,,,,,,,*1E
$BDGSA,A,1,,,,,,,,,,,,,,,*0F
$GPGSV,1,1,04,07,00,000,43,08,00,000,44,27,00,000,39,30,00,000,44*79
$BDGSV,1,1,02,07,00,000,41,10,00,000,44*69
$LOGTIM,0,0.000000,0.000000,0.000000,0.000000,0.000*0A
EndT:        0
---00000074--- Acq_st=3 2019-5-25 03:46:22 
[00]  G07  f 43  -2400.5 2046003.1  1.0  1.0  5  0 531999950
[01]  G08  f 44    391.1 2045999.5  1.0  1.0  5  0 531999953
[02]  G27  f 39   2192.5 2045997.1  1.0  1.0  5  0 531999949
[03]  G30  f 44  -3555.9 2046004.6  1.0  1.0  5  0 531999943
[16]  B07 1f 40   -687.6 4092001.8  1.0  1.0  5  0 531985901
[17]  B10 1f 44   -837.3 4092002.2  1.0  1.0  5  0 531985898
$GNGGA,000000.000,,,,,0,00,,,M,,,,0000*2B
$GNRMC,000000.000,A,,,,,,,000000,,*26
$GPGSA,A,1,,,,,,,,,,,,,,,*1E
$BDGSA,A,1,,,,,,,,,,,,,,,*0F
$GPGSV,1,1,04,07,00,000,43,08,00,000,44,27,00,000,39,30,00,000,44*79
$BDGSV,1,1,02,07,00,000,40,10,00,000,44*68
$LOGTIM,0,0.000000,0.000000,0.000000,0.000000,0.000*0A
EndT:        0
---00000075--- Acq_st=3 2019-5-25 03:46:23 
[00]  G07  f 43  -2400.8 2046003.1  1.0  1.0  5  0 532000950
[01]  G08  f 44    391.2 2045999.5  1.0  1.0  5  0 532000953
[02]  G27  f 38   2192.2 2045997.2  1.0  0.9  5  0 532000949
[03]  G30  f 44  -3556.3 2046004.6  1.0  1.0  5  0 532000943
[16]  B07 1f 41   -688.1 4092001.8  1.0  1.0  5  0 531986901
[17]  B10 1f 44   -837.8 4092002.2  1.0  1.0  5  0 531986898
$GNGGA,000000.000,,,,,0,00,,,M,,,,0000*2B
$GNRMC,000000.000,A,,,,,,,000000,,*26
$GPGSA,A,1,,,,,,,,,,,,,,,*1E
$BDGSA,A,1,,,,,,,,,,,,,,,*0F
$GPGSV,1,1,04,07,00,000,43,08,00,000,44,27,00,000,38,30,00,000,44*78
$BDGSV,1,1,02,07,00,000,41,10,00,000,44*69
$LOGTIM,0,0.000000,0.000000,0.000000,0.000000,0.000*0A
EndT:        0
---00000076--- Acq_st=3 2019-5-25 03:46:24 
[00]  G07  f 43  -2398.7 2046003.1  1.0  1.0  5  0 532001950
[01]  G08  f 44    393.2 2045999.5  1.0  1.0  5  0 532001953
[02]  G27  f 38   2194.7 2045997.2  1.0  1.0  5  0 532001949
[03]  G30  f 44  -3554.1 2046004.6  1.0  1.0  5  0 532001943
[16]  B07 1f 40   -686.5 4092001.8  1.0  1.0  5  0 531987901
[17]  B10 1f 44   -836.1 4092002.2  1.0  1.0  5  0 531987898
lsq: nits= 5
$GNGGA,034625.022,3113.2988,N,12136.3292,E,1,04,282.2,911.0,M,,,,0000*16
$GNRMC,034625.022,A,3113.2988,N,12136.3292,E,54.92,0.00,250519,,*2D
$GPGSA,A,3,07,08,27,30,,,,,,,,,355.5,282.2,216.2*30
$BDGSA,A,3,,,,,,,,,,,,,355.5,282.2,216.2*28
$GPGSV,1,1,04,07,00,000,43,08,00,000,44,27,00,000,38,30,00,000,44*78
$BDGSV,1,1,02,07,00,000,40,10,00,000,44*68
$LOGTIM,1,9522137.261059,0.000000,0.000000,0.000000,-31.767*12
EndT:        0
---00000077--- Acq_st=3 2019-5-25 03:46:25 
[00]  G07  f 42  -2398.9 2046003.1  1.0  1.0  5  0 532002950
[01]  G08  f 44    393.1 2045999.5  1.0  1.0  5  0 532002953
[02]  G27  f 38   2193.5 2045997.1  1.0  1.0  5  0 532002949
[03]  G30  f 44  -3554.5 2046004.6  1.0  1.0  5  0 532002943
[16]  B07 1f 40   -687.5 4092001.8  1.0  1.0  5  0 531988901
[17]  B10 1f 44   -836.6 4092002.2  1.0  1.0  5  0 531988898
---00000078--- Acq_st=3 2019-5-25 03:46:26 
[00]  G07  f 43  -2400.0 2046003.1  1.0  1.0  5  0 532002950
[01]  G08  f 44    391.8 2045999.5  1.0  1.0  5  0 532002953
[02]  G27  f 38   2192.3 2045997.2  1.0  1.0  5  0 532002949
[03]  G30  f 44  -3556.3 2046004.6  1.0  1.0  5  0 532002943
[16]  B07 1f 40   -689.3 4092001.8  1.0  1.0  5  0 531988901
[17]  B10 1f 44   -838.4 4092002.2  1.0  1.0  5  0 531988898
lsq: nits= 6
$GNGGA,034627.000,3113.6682,N,12136.2690,E,1,04,300.3,1435.6,M,,,,0000*24
$GNRMC,034627.000,A,3113.6682,N,12136.2690,E,128.90,0.00,250519,,*11
$GPGSA,A,3,07,08,27,30,,,,,,,,,378.3,300.3,230.1*34
$BDGSA,A,3,,,,,,,,,,,,,378.3,300.3,230.1*2C
$GPGSV,1,1,04,07,00,000,43,08,00,000,44,27,00,000,38,30,00,000,44*78
$BDGSV,1,1,02,07,00,000,40,10,00,000,44*68
$LOGTIM,1,596.294725,0.000000,0.000000,0.000000,7.752*09
EndT:        0
---00000079--- Acq_st=3 2019-5-25 03:46:27 
[00]  G07  f 43  -2398.2 2046003.1  1.0  1.0  5  0 532004929
[01]  G08  f 44    393.3 2045999.5  1.0  1.0  5  0 532004931
[02]  G27  f 38   2193.8 2045997.1  1.0  1.0  5  0 532004927
[03]  G30  f 44  -3554.7 2046004.6  1.0  1.0  5  0 532004921
[16]  B07 1f 40   -687.4 4092001.8  1.0  1.0  5  0 531990879
[17]  B10 1f 44   -837.2 4092002.2  1.0  1.0  5  0 531990876
lsq: nits= 6
$GNGGA,034628.000,3113.7748,N,12136.2521,E,1,04,310.4,1586.5,M,,,,0000*28
$GNRMC,034628.000,A,3113.7748,N,12136.2521,E,126.91,0.00,250519,,*1E
$GPGSA,A,3,07,08,27,30,,,,,,,,,391.0,310.4,237.8*38
$BDGSA,A,3,,,,,,,,,,,,,391.0,310.4,237.8*20
$GPGSV,1,1,04,07,52,308,43,08,71,341,44,27,43,035,38,30,21,316,44*72
$BDGSV,1,1,02,07,00,000,40,10,00,000,44*68
$LOGTIM,1,740.758353,0.000000,0.000000,0.000000,6.713*04
EndT:        0
---00000080--- Acq_st=3 2019-5-25 03:46:28 
[00]  G07  f 43  -2395.3 2046003.1  1.0  1.0  5  0 532005929
[01]  G08  f 44    396.1 2045999.5  1.0  1.0  5  0 532005931
[02]  G27  f 37   2196.2 2045997.1  1.0  1.0  5  0 532005927
[03]  G30  f 43  -3552.3 2046004.6  1.0  1.0  5  0 532005921
[16]  B07 1f 40   -685.5 4092001.8  1.0  1.0  5  0 531991879
[17]  B10 1f 43   -835.5 4092002.2  1.0  1.0  5  0 531991876
lsq: nits= 6
$GNGGA,034629.000,3113.8596,N,12136.2379,E,1,04,321.1,1707.3,M,,,,0000*26
$GNRMC,034629.000,A,3113.8596,N,12136.2379,E,134.19,0.00,250519,,*19
$GPGSA,A,3,07,08,27,30,,,,,,,,,404.5,321.1,246.1*3E
$BDGSA,A,3,,,,,,,,,,,,,404.5,321.1,246.1*26
$GPGSV,1,1,04,07,52,308,43,08,71,341,44,27,43,035,37,30,21,316,43*7A
$BDGSV,1,1,02,07,00,000,40,10,00,000,43*6F
$LOGTIM,1,844.474088,0.000000,0.000000,0.000000,10.963*39
EndT:        0
---00000081--- Acq_st=3 2019-5-25 03:46:29 
[00]  G07  f 43  -2398.7 2046003.1  1.0  1.0  5  0 532006929
[01]  G08  f 44    392.7 2045999.5  1.0  1.0  5  0 532006931
[02]  G27  f 37   2192.7 2045997.1  1.0  1.0  5  0 532006927
[03]  G30  f 44  -3555.8 2046004.6  1.0  1.0  5  0 532006921
[16]  B07 1f 40   -689.1 4092001.8  1.0  1.0  5  0 531992879
[17]  B10 1f 44   -839.0 4092002.2  1.0  1.0  5  0 531992876
lsq: nits= 6
$GNGGA,034630.000,3113.9547,N,12136.2200,E,1,04,332.7,1843.4,M,,,,0000*20
$GNRMC,034630.000,A,3113.9547,N,12136.2200,E,172.33,0.00,250519,,*19
$GPGSA,A,3,07,08,27,30,,,,,,,,,419.1,332.7,254.9*39
$BDGSA,A,3,,,,,,,,,,,,,419.1,332.7,254.9*21
$GPGSV,1,1,04,07,52,308,43,08,71,341,44,27,43,035,37,30,21,316,44*7D
$BDGSV,1,1,02,07,00,000,40,10,00,000,44*68
$LOGTIM,1,969.607248,0.000000,0.000000,0.000000,30.959*34
EndT:        0
---00000082--- Acq_st=3 2019-5-25 03:46:30 
[00]  G07  f 43  -2397.5 2046003.1  1.0  1.0  5  0 532007929
[01]  G08  f 44    394.0 2045999.5  1.0  1.0  5  0 532007931
[02]  G27  f 38   2193.9 2045997.2  1.0  1.0  5  0 532007927
[03]  G30  f 45  -3554.7 2046004.6  1.0  1.0  5  0 532007921
[16]  B07 1f 40   -688.0 4092001.7  1.0  1.0  5  0 531993879
[17]  B10 1f 44   -837.8 4092002.2  1.0  1.0  5  0 531993876
lsq: nits= 6
$GNGGA,034631.000,3114.1507,N,12136.1875,E,1,04,345.0,2122.1,M,,,,0000*2E
$GNRMC,034631.000,A,3114.1507,N,12136.1875,E,190.24,0.00,250519,,*12
$GPGSA,A,3,07,08,27,30,,,,,,,,,434.7,345.0,264.4*39
$BDGSA,A,3,,,,,,,,,,,,,434.7,345.0,264.4*21
$GPGSV,1,1,04,07,52,308,43,08,71,341,44,27,43,035,38,30,21,316,45*73
$BDGSV,1,1,02,07,00,000,40,10,00,000,44*68
$LOGTIM,1,1288.741289,0.000000,0.000000,0.000000,40.848*09
EndT:        0
---00000083--- Acq_st=3 2019-5-25 03:46:31 
[00]  G07  f 43  -2397.5 2046003.1  1.0  1.0  5  0 532008929
[01]  G08  f 43    393.8 2045999.5  1.0  1.0  5  0 532008931
[02]  G27  f 37   2193.1 2045997.1  1.0  1.0  5  0 532008927
[03]  G30  f 44  -3555.0 2046004.6  1.0  1.0  5  0 532008921
[16]  B07 1f 40   -689.3 4092001.8  1.0  1.0  5  0 531994879
[17]  B10 1f 43   -838.8 4092002.2  1.0  1.0  5  0 531994876
lsq: nits= 6
$GNGGA,034632.000,3114.2044,N,12136.1794,E,1,04,358.4,2198.8,M,,,,0000*2C
$GNRMC,034632.000,A,3114.2044,N,12136.1794,E,212.88,0.00,250519,,*1F
$GPGSA,A,3,07,08,27,30,,,,,,,,,451.6,358.4,274.7*31
$BDGSA,A,3,,,,,,,,,,,,,451.6,358.4,274.7*29
$GPGSV,1,1,04,07,52,308,43,08,71,341,43,27,43,035,37,30,21,316,44*7A
$BDGSV,1,1,02,07,00,000,40,10,00,000,43*6F
$LOGTIM,1,1330.472507,0.000000,0.000000,0.000000,52.737*0D
EndT:        0
---00000084--- Acq_st=3 2019-5-25 03:46:32 
[00]  G07  f 43  -2397.4 2046003.1  1.0  1.0  5  0 532009929
[01]  G08  f 44    393.9 2045999.5  1.0  1.0  5  0 532009931
[02]  G27  f 37   2193.3 2045997.1  1.0  0.9  5  0 532009927
[03]  G30  f 44  -3555.4 2046004.7  1.0  1.0  5  0 532009921
[16]  B07 1f 40   -689.1 4092001.8  1.0  1.0  5  0 531995879
[17]  B10 1f 44   -839.3 4092002.2  1.0  1.0  5  0 531995876
lsq: nits= 6
$GNGGA,034633.000,3113.8183,N,12136.2453,E,1,04,372.9,1645.1,M,,,,0000*29
$GNRMC,034633.000,A,3113.8183,N,12136.2453,E,109.87,0.00,250519,,*14
$GPGSA,A,3,07,08,27,30,,,,,,,,,469.8,372.9,285.7*3F
$BDGSA,A,3,,,,,,,,,,,,,469.8,372.9,285.7*27
$GPGSV,1,1,04,07,52,308,43,08,71,341,44,27,43,035,37,30,21,316,44*7D
$BDGSV,1,1,02,07,00,000,40,10,00,000,44*68
$LOGTIM,1,513.399557,0.000000,0.000000,0.000000,-2.464*21
EndT:        0
---00000085--- Acq_st=3 2019-5-25 03:46:33 
[00]  G07  f 43  -2394.6 2046003.1  1.0  1.0  5  0 532010929
[01]  G08  f 43    396.4 2045999.5  1.0  1.0  5  0 532010931
[02]  G27  f 38   2195.2 2045997.1  1.0  1.0  5  0 532010927
[03]  G30  f 44  -3552.7 2046004.6  1.0  1.0  5  0 532010921
[16]  B07 1f 40   -686.8 4092001.8  1.0  1.0  5  0 531996879
[17]  B10 1f 44   -836.6 4092002.2  1.0  1.0  5  0 531996876
lsq: nits= 6
$GNGGA,034634.000,3113.5805,N,12136.2850,E,1,04,388.7,1306.2,M,,,,0000*21
$GNRMC,034634.000,A,3113.5805,N,12136.2850,E,178.99,0.00,250519,,*1F
$GPGSA,A,3,07,08,27,30,,,,,,,,,489.6,388.7,297.7*37
$BDGSA,A,3,,,,,,,,,,,,,489.6,388.7,297.7*2F
$GPGSV,1,1,04,07,52,308,43,08,71,341,43,27,43,035,38,30,21,316,44*75
$BDGSV,1,1,02,07,00,000,40,10,00,000,44*68
$LOGTIM,1,-10.543148,0.000000,0.000000,0.000000,34.880*2F
EndT:        0
---00000086--- Acq_st=3 2019-5-25 03:46:34 
[00]  G07  f 44  -2394.0 2046003.1  1.0  1.0  5  0 532011929
[01]  G08  f 44    396.6 2045999.5  1.0  1.0  5  0 532011931
[02]  G27  f 38   2195.8 2045997.1  1.0  1.0  5  0 532011927
[03]  G30  f 45  -3552.4 2046004.6  1.0  1.0  5  0 532011921
[16]  B07 1f 40   -686.7 4092001.9  1.0  1.0  5  0 531997879
[17]  B10 1f 44   -836.5 4092002.2  1.0  1.0  5  0 531997876
lsq: nits= 6
$GNGGA,034635.000,3113.4345,N,12136.3108,E,1,04,405.8,1095.2,M,,,,0000*2F
$GNRMC,034635.000,A,3113.4345,N,12136.3108,E,111.97,0.00,250519,,*14
$GPGSA,A,3,07,08,27,30,,,,,,,,,511.1,405.8,310.8*3C
$BDGSA,A,3,,,,,,,,,,,,,511.1,405.8,310.8*24
$GPGSV,1,1,04,07,52,308,44,08,71,341,44,27,43,035,38,30,21,316,45*74
$BDGSV,1,1,02,07,00,000,40,10,00,000,44*68
$LOGTIM,1,-358.861079,0.000000,0.000000,0.000000,-0.818*05
EndT:        0
---00000087--- Acq_st=3 2019-5-25 03:46:35 
[00]  G07  f 44  -2393.2 2046003.1  1.0  1.0  5  0 532012929
[01]  G08  f 44    398.2 2045999.5  1.0  1.0  5  0 532012931
[02]  G27  f 38   2197.5 2045997.1  1.0  1.0  5  0 532012927
[03]  G30  f 45  -3551.4 2046004.6  1.0  1.0  5  0 532012921
[16]  B07 1f 40   -686.2 4092001.8  1.0  1.0  5  0 531998879
[17]  B10 1f 44   -836.2 4092002.2  1.0  1.0  5  0 531998876
lsq: nits= 6
$GNGGA,034636.000,3113.4274,N,12136.3123,E,1,04,424.4,1085.5,M,,,,0000*2F
$GNRMC,034636.000,A,3113.4274,N,12136.3123,E,140.37,0.00,250519,,*13
$GPGSA,A,3,07,08,27,30,,,,,,,,,534.5,424.4,325.0*3E
$BDGSA,A,3,,,,,,,,,,,,,534.5,424.4,325.0*26
$GPGSV,1,1,04,07,52,308,44,08,71,341,44,27,43,035,38,30,21,316,45*74
$BDGSV,1,1,02,07,00,000,40,10,00,000,44*68
$LOGTIM,1,-433.402987,0.000000,0.000000,0.000000,14.242*13
EndT:        0
---00000088--- Acq_st=3 2019-5-25 03:46:36 
[00]  G07  f 43  -2395.0 2046003.1  1.0  1.0  5  0 532013929
[01]  G08  f 43    396.0 2045999.5  1.0  1.0  5  0 532013931
[02]  G27  f 37   2194.0 2045997.1  1.0  1.0  5  0 532013927
[03]  G30  f 45  -3553.6 2046004.6  1.0  1.0  5  0 532013921
[16]  B07 1f 40   -688.8 4092001.8  1.0  1.0  5  0 531999879
[17]  B10 1f 44   -838.6 4092002.2  1.0  1.0  5  0 531999876
lsq: nits= 6
$GNGGA,034637.000,3113.2301,N,12136.3470,E,1,04,444.9,802.1,M,,,,0000*11
$GNRMC,034637.000,A,3113.2301,N,12136.3470,E,78.53,0.00,250519,,*2C
$GPGSA,A,3,07,08,27,30,,,,,,,,,560.3,444.9,340.6*37
$BDGSA,A,3,,,,,,,,,,,,,560.3,444.9,340.6*2F
$GPGSV,1,1,04,07,52,307,43,08,70,342,43,27,43,035,37,30,21,316,45*76
$BDGSV,1,1,02,07,00,000,40,10,00,000,44*68
$LOGTIM,1,-881.731625,0.000000,0.000000,0.000000,-19.355*35
EndT:        0
---00000089--- Acq_st=3 2019-5-25 03:46:37 
[00]  G07  f 44  -2399.0 2046003.1  1.0  1.0  5  0 532014929
[01]  G08  f 43    391.7 2045999.5  1.0  1.0  5  0 532014931
[02]  G27  f 37   2189.8 2045997.2  1.0  1.1  5  0 532014927
[03]  G30  f 44  -3557.8 2046004.6  1.0  1.0  5  0 532014921
[16]  B07 1f 40   -693.2 4092001.8  1.0  1.0  5  0 532000879
[17]  B10 1f 44   -843.0 4092002.2  1.0  1.0  5  0 532000876
lsq: nits= 6
$GNGGA,034638.000,3112.9544,N,12136.3938,E,1,04,467.4,408.9,M,,,,0000*10
$GNRMC,034638.000,A,3112.9544,N,12136.3938,E,2.75,0.00,250519,,*16
$GPGSA,A,3,07,08,27,30,,,,,,,,,588.6,467.4,357.8*30
$BDGSA,A,3,,,,,,,,,,,,,588.6,467.4,357.8*28
$GPGSV,1,1,04,07,52,307,44,08,70,342,43,27,43,035,37,30,21,316,44*70
$BDGSV,1,1,02,07,00,000,40,10,00,000,44*68
$LOGTIM,1,-1481.615354,0.000000,0.000000,0.000000,-60.913*0A
EndT:        1
---00000090--- Acq_st=3 2019-5-25 03:46:38 
[00]  G07  f 44  -2399.4 2046003.1  1.0  1.0  5  0 532015929
[01]  G08  f 43    390.9 2045999.5  1.0  1.0  5  0 532015931
[02]  G27  f 38   2188.9 2045997.1  1.0  1.0  5  0 532015927
[03]  G30  f 44  -3558.8 2046004.6  1.0  1.0  5  0 532015921
[16]  B07 1f 40   -694.6 4092001.8  1.0  1.0  5  0 532001879
[17]  B10 1f 44   -844.2 4092002.2  1.0  1.0  5  0 532001876
lsq: nits= 6
$GNGGA,034639.000,3112.5039,N,12136.4680,E,1,04,492.4,-232.1,M,,,,0000*39
$GNRMC,034639.000,A,3112.5039,N,12136.4680,E,40.33,0.00,250519,,*2B
$GPGSA,A,3,07,08,27,30,,,,,,,,,620.1,492.4,376.8*3F
$BDGSA,A,3,,,,,,,,,,,,,620.1,492.4,376.8*27
$GPGSV,1,1,04,07,52,307,44,08,70,342,43,27,43,035,38,30,21,316,44*7F
$BDGSV,1,1,02,07,00,000,40,10,00,000,44*68
$LOGTIM,1,-2420.948757,0.000000,0.000000,0.000000,-84.299*01
EndT:        0
---00000091--- Acq_st=3 2019-5-25 03:46:39 
[00]  G07  f 44  -2398.5 2046003.1  1.0  1.0  5  0 532016929
[01]  G08  f 43    391.9 2045999.5  1.0  1.0  5  0 532016931
[02]  G27  f 38   2189.8 2045997.1  1.0  1.0  5  0 532016927
[03]  G30  f 44  -3558.2 2046004.6  1.0  1.0  5  0 532016921
[16]  B07 1f 40   -694.4 4092001.8  1.0  1.0  5  0 532002879
[17]  B10 1f 43   -844.2 4092002.2  1.0  1.0  5  0 532002876
lsq: nits= 6
lsq: nits= 6
$GNGGA,000000.000,,,,,0,00,,,M,,,,0000*2B
$GNRMC,000000.000,A,,,,,,,000000,,*26
$GPGSA,A,1,,,,,,,,,,,,,,,*1E
$BDGSA,A,1,,,,,,,,,,,,,,,*0F
$GPGSV,1,1,04,07,52,307,44,08,70,342,43,27,43,035,38,30,21,316,44*7F
$BDGSV,1,1,02,07,00,000,40,10,00,000,43*6F
$LOGTIM,0,0.000000,0.000000,0.000000,0.000000,-148.305*2C
EndT:        0
---00000092--- Acq_st=3 2019-5-25 03:46:40 
[00]  G07  f 44  -2395.8 2046003.1  1.0  1.0  5  0 532017929
[01]  G08  f 43    394.5 2045999.5  1.0  1.0  5  0 532017931
[02]  G27  f 37   2192.0 2045997.2  1.0  1.0  5  0 532017927
[03]  G30  f 43  -3555.8 2046004.6  1.0  1.0  5  0 532017921
[16]  B07 1f 40   -691.2 4092001.8  1.0  1.0  5  0 532003879
[17]  B10 1f 44   -841.5 4092002.2  1.0  1.0  5  0 532003876
lsq: nits= 7
lsq: nits= 7
$GNGGA,000000.000,,,,,0,00,,,M,,,,0000*2B
$GNRMC,000000.000,A,,,,,,,000000,,*26
$GPGSA,A,1,,,,,,,,,,,,,,,*1E
$BDGSA,A,1,,,,,,,,,,,,,,,*0F
$GPGSV,1,1,04,07,52,307,44,08,70,342,43,27,42,036,37,30,21,316,43*75
$BDGSV,1,1,02,07,00,000,40,10,00,000,44*68
$LOGTIM,0,0.000000,0.000000,0.000000,0.000000,-253.984*26
EndT:        0
---00000093--- Acq_st=3 2019-5-25 03:46:41 
[00]  G07  f 44  -2394.9 2046003.1  1.0  1.0  5  0 532018929
[01]  G08  f 44    395.2 2045999.5  1.0  1.0  5  0 532018931
[02]  G27  f 38   2193.0 2045997.1  1.0  1.0  5  0 532018927
[03]  G30  f 44  -3555.0 2046004.6  1.0  1.0  5  0 532018921
[16]  B07 1f 40   -691.3 4092001.8  1.0  1.0  5  0 532004879
[17]  B10 1f 44   -841.2 4092002.2  1.0  1.0  5  0 532004876
lsq: nits= 7
lsq: nits= 7
$GNGGA,000000.000,,,,,0,00,,,M,,,,0000*2B
$GNRMC,000000.000,A,,,,,,,000000,,*26
$GPGSA,A,1,,,,,,,,,,,,,,,*1E
$BDGSA,A,1,,,,,,,,,,,,,,,*0F
$GPGSV,1,1,04,07,52,307,44,08,70,342,44,27,42,036,38,30,21,316,44*7A
$BDGSV,1,1,02,07,00,000,40,10,00,000,44*68
$LOGTIM,0,0.000000,0.000000,0.000000,0.000000,-313.843*29
EndT:        0
---00000094--- Acq_st=3 2019-5-25 03:46:42 
[00]  G07  f 44  -2394.8 2046003.1  1.0  1.0  5  0 532019929
[01]  G08  f 44    395.5 2045999.5  1.0  1.0  5  0 532019931
[02]  G27  f 38   2192.4 2045997.1  1.0  1.0  5  0 532019927
[03]  G30  f 44  -3555.2 2046004.6  1.0  1.0  5  0 532019921
[16]  B07 1f 40   -691.0 4092001.8  1.0  1.0  5  0 532005879
[17]  B10 1f 43   -841.3 4092002.2  1.0  1.0  5  0 532005876
lsq: nits= 7
lsq: nits= 7
$GNGGA,000000.000,,,,,0,00,,,M,,,,0000*2B
$GNRMC,000000.000,A,,,,,,,000000,,*26
$GPGSA,A,1,,,,,,,,,,,,,,,*1E
$BDGSA,A,1,,,,,,,,,,,,,,,*0F
$GPGSV,1,1,04,07,52,307,44,08,70,342,44,27,42,036,38,30,21,316,44*7A
$BDGSV,1,1,02,07,00,000,40,10,00,000,43*6F
$LOGTIM,0,0.000000,0.000000,0.000000,0.000000,-245.200*26
EndT:        0
---00000095--- Acq_st=3 2019-5-25 03:46:43 
[00]  G07  f 44  -2394.3 2046003.1  1.0  1.0  5  0 532020929
[01]  G08  f 44    395.3 2045999.5  1.0  1.0  5  0 532020931
[02]  G27  f 38   2192.9 2045997.2  1.0  1.0  5  0 532020927
[03]  G30  f 44  -3555.3 2046004.6  1.0  1.0  5  0 532020921
[16]  B07 1f 40   -691.8 4092001.8  1.0  1.0  5  0 532006879
[17]  B10 1f 44   -842.0 4092002.2  1.0  1.0  5  0 532006876
lsq: nits= 7
lsq: nits= 7
$GNGGA,000000.000,,,,,0,00,,,M,,,,0000*2B
$GNRMC,000000.000,A,,,,,,,000000,,*26
$GPGSA,A,1,,,,,,,,,,,,,,,*1E
$BDGSA,A,1,,,,,,,,,,,,,,,*0F
$GPGSV,1,1,04,07,52,307,44,08,70,342,44,27,42,036,38,30,21,316,44*7A
$BDGSV,1,1,02,07,00,000,40,10,00,000,44*68
$LOGTIM,0,0.000000,0.000000,0.000000,0.000000,-189.207*22
EndT:        0
---00000096--- Acq_st=3 2019-5-25 03:46:44 
[00]  G07  f 44  -2393.5 2046003.1  1.0  1.0  5  0 532021929
[01]  G08  f 45    396.1 2045999.5  1.0  1.0  5  0 532021931
[02]  G27  f 39   2192.5 2045997.1  1.0  1.0  5  0 532021927
[03]  G30  f 43  -3554.5 2046004.6  1.0  1.0  5  0 532021921
[16]  B07 1f 40   -691.5 4092001.8  1.0  1.0  5  0 532007879
[17]  B10 1f 43   -841.4 4092002.2  1.0  1.0  5  0 532007876
lsq: nits= 5
$GNGGA,034645.000,3112.6614,N,12136.4391,E,1,06,11.5,-16.5,M,,,,0000*31
$GNRMC,034645.000,A,3112.6614,N,12136.4391,E,0.42,0.00,250519,,*1D
$GPGSA,A,3,07,08,27,30,,,,,,,,,14.8,11.5,9.3*39
$BDGSA,A,3,07,10,,,,,,,,,,,14.8,11.5,9.3*27
$GPGSV,1,1,04,07,52,307,44,08,70,342,45,27,42,036,39,30,21,316,43*7D
$BDGSV,1,1,02,07,00,000,40,10,00,000,43*6F
$LOGTIM,3,-2492.846016,-2641.412162,0.000000,0.000000,-61.808*10
EndT:        0
---00000097--- Acq_st=3 2019-5-25 03:46:46 
[00]  G07  f 44  -2390.8 2046003.1  1.0  1.0  5  0 532022929
[01]  G08  f 44    398.9 2045999.5  1.0  1.0  5  0 532022931
[02]  G27  f 38   2196.0 2045997.2  1.0  1.0  5  0 532022927
[03]  G30  f 43  -3552.2 2046004.6  1.0  1.0  5  0 532022921
[16]  B07 1f 40   -688.8 4092001.8  1.0  1.0  5  0 532008879
[17]  B10 1f 44   -839.1 4092002.2  1.0  1.0  5  0 532008876
lsq: nits= 2
