FlashID=0x1 0x20 0x18
BBram_blkflag1: 389f: c760
FW Ver: 1.30  
GPS00 Init Dop:   5000, 40
GPS01 Init Dop:   5000, 40
GPS02 Init Dop:   5000, 40
GPS03 Init Dop:   5000, 40
GPS04 Init Dop:   5000, 40
GPS05 Init Dop:   5000, 40
GPS06 Init Dop:   5000, 40
GPS07 Init Dop:   5000, 40
GPS08 Init Dop:   5000, 40
GPS09 Init Dop:   5000, 40
GPS10 Init Dop:   5000, 40
GPS11 Init Dop:   5000, 40
GPS12 Init Dop:   5000, 40
GPS13 Init Dop:   5000, 40
GPS14 Init Dop:   5000, 40
GPS15 Init Dop:   5000, 40
GPS16 Init Dop:   5000, 40
GPS17 Init Dop:   5000, 40
GPS18 Init Dop:   5000, 40
GPS19 Init Dop:   5000, 40
GPS20 Init Dop:   5000, 40
GPS21 Init Dop:   5000, 40
GPS22 Init Dop:   5000, 40
GPS23 Init Dop:   5000, 40
GPS24 Init Dop:   5000, 40
GPS25 Init Dop:   5000, 40
GPS26 Init Dop:   5000, 40
GPS27 Init Dop:   5000, 40
GPS28 Init Dop:   5000, 40
GPS29 Init Dop:   5000, 40
GPS30 Init Dop:   5000, 40
GPS31 Init Dop:   5000, 40
BDS00 Init Dop:   5000, 40
BDS01 Init Dop:   5000, 40
BDS02 Init Dop:   5000, 40
BDS03 Init Dop:   5000, 40
BDS04 Init Dop:   5000, 40
BDS05 Init Dop:   5000, 40
BDS06 Init Dop:   5000, 40
BDS07 Init Dop:   5000, 40
BDS08 Init Dop:   5000, 40
BDS09 Init Dop:   5000, 40
BDS10 Init Dop:   5000, 40
BDS11 Init Dop:   5000, 40
BDS12 Init Dop:   5000, 40
BDS13 Init Dop:   5000, 40
BDS14 Init Dop:   5000, 40
BDS15 Init Dop:   5000, 40
BDS16 Init Dop:   5000, 40
BDS17 Init Dop:   5000, 40
BDS18 Init Dop:   5000, 40
BDS19 Init Dop:   5000, 40
BDS20 Init Dop:   5000, 40
BDS21 Init Dop:   5000, 40
BDS22 Init Dop:   5000, 40
BDS23 Init Dop:   5000, 40
BDS24 Init Dop:   5000, 40
BDS25 Init Dop:   5000, 40
BDS26 Init Dop:   5000, 40
BDS27 Init Dop:   5000, 40
BDS28 Init Dop:   5000, 40
BDS29 Init Dop:   5000, 40
BDS30 Init Dop:   5000, 40
BDS31 Init Dop:   5000, 40
good luck!
---00000001--- Acq_st=3 2019-5-22 02:53:28 
[00]  G04  1 23  -1264.6 2046003.4 -0.0  0.0  1  0         0
$GNGGA,000000.000,,,,,0,00,,,M,,,,0000*2B
$GNRMC,000000.000,A,,,,,,,000000,,*26
$GPGSA,A,1,,,,,,,,,,,,,,,*1E
$BDGSA,A,1,,,,,,,,,,,,,,,*0F
$LOGTIM,0,0.000000,0.000000,0.000000,0.000000,0.000*0A
EndT:        0
---00000002--- Acq_st=3 2019-5-22 02:53:29 
[00]  G04  7 11  -1268.0 2046001.6  0.3  0.0 20  0         8
[01]  G07  1 23  -3546.8 2046005.9 -0.0  0.0  1  0         0
[02]  G08  1 24  -1458.2 2046004.4  0.2  0.0  1  0         0
[03]  G09  1 22    -82.6 2046000.7  0.0  0.0  1  0         0
$GNGGA,000000.000,,,,,0,00,,,M,,,,0000*2B
$GNRMC,000000.000,A,,,,,,,000000,,*26
$GPGSA,A,1,,,,,,,,,,,,,,,*1E
$BDGSA,A,1,,,,,,,,,,,,,,,*0F
$LOGTIM,0,0.000000,0.000000,0.000000,0.000000,0.000*0A
EndT:        0
---00000003--- Acq_st=3 2019-5-22 02:53:30 
[00]  G04  7 43  -1267.8 2046001.6  0.9  1.0  5  0         2
[01]  G07  7 30  -3561.1 2046004.6  0.5  1.0  5  0        16
[02]  G08  7 28  -1465.5 2046001.8  0.5  1.0 10  0         5
[03]  G09  7 25    -86.8 2046000.1  0.2  0.0 20  0        14
[04]  G16  1 11   1192.7 2046000.4  0.0  0.0  1  0         0
$GNGGA,000000.000,,,,,0,00,,,M,,,,0000*2B
$GNRMC,000000.000,A,,,,,,,000000,,*26
$GPGSA,A,1,,,,,,,,,,,,,,,*1E
$BDGSA,A,1,,,,,,,,,,,,,,,*0F
$GPGSV,1,1,04,04,00,000,43,07,00,000,30,08,00,000,28,09,00,000,25*76
$LOGTIM,0,0.000000,0.000000,0.000000,0.000000,0.000*0A
EndT:        0
---00000004--- Acq_st=3 2019-5-22 02:53:31 
[00]  G04  f 42  -1265.3 2046001.6  1.0  1.0  5  0         2
[01]  G07  f 42  -3559.0 2046004.6  1.0  1.0  5  0         2
[02]  G08  f 41  -1463.2 2046001.9  1.0  1.0  5  0        11
[03]  G09  7 44    -83.9 2046000.1  1.0  1.0  5  0         4
[04]  G16  7 23   1171.4 2045998.3  0.2  0.0 20  0        18
[05]  G21  1 26   2015.9 2045997.8 -0.1  0.0  1  0         0
[06]  G26  1  7   2472.8 2045999.0  0.0  0.0  1  0         0
$GNGGA,000000.000,,,,,0,00,,,M,,,,0000*2B
$GNRMC,000000.000,A,,,,,,,000000,,*26
$GPGSA,A,1,,,,,,,,,,,,,,,*1E
$BDGSA,A,1,,,,,,,,,,,,,,,*0F
$GPGSV,2,1,05,04,00,000,42,07,00,000,42,08,00,000,41,09,00,000,44*78
$GPGSV,2,2,05,16,00,000,23*4A
$LOGTIM,0,0.000000,0.000000,0.000000,0.000000,0.000*0A
EndT:        0
---00000005--- Acq_st=3 2019-5-22 02:53:32 
[00]  G04  f 43  -1263.8 2046001.6  1.0  1.0  5  0 269629422
[01]  G07  f 43  -3557.8 2046004.6  1.0  1.0  5  0 269629422
[02]  G08  f 42  -1462.0 2046001.9  1.0  1.0  5  0 269629431
[03]  G09  7 43    -82.7 2046000.1  1.0  1.0  5  0         4
[04]  G16  7 40   1172.8 2045998.3  0.9  1.0  5  0         7
[05]  G21  7 28   2012.7 2045997.3 -0.0  1.0 10  0         4
[06]  G26  1 27   1695.9 2045998.1 -0.1  0.0  1  0         9
[07]  G27  1 26    845.2 2045999.1  0.0  0.0  1  0         0
$GNGGA,000000.000,,,,,0,00,,,M,,,,0000*2B
$GNRMC,000000.000,A,,,,,,,000000,,*26
$GPGSA,A,1,,,,,,,,,,,,,,,*1E
$BDGSA,A,1,,,,,,,,,,,,,,,*0F
$GPGSV,2,1,06,04,00,000,43,07,00,000,43,08,00,000,42,09,00,000,43*7F
$GPGSV,2,2,06,16,00,000,40,21,00,000,28*75
$LOGTIM,0,0.000000,0.000000,0.000000,0.000000,0.000*0A
EndT:        0
---00000006--- Acq_st=3 2019-5-22 02:53:33 
[00]  G04  f 43  -1263.5 2046001.6  1.0  1.0  5  0 269630422
[01]  G07  f 43  -3558.1 2046004.6  1.0  1.0  5  0 269630422
[02]  G08  f 41  -1461.3 2046001.9  1.0  1.0  5  0 269630431
[03]  G09  7 44    -82.5 2046000.1  1.0  1.0  5  0         4
[04]  G16  7 40   1172.4 2045998.4  1.0  1.0  5  0         7
[05]  G21  7 36   2013.4 2045997.3  1.0  1.0  5  0        15
[06]  G26  7 32   1699.1 2045997.7  0.7  1.0  5  0         9
[07]  G27  7 31    854.1 2045998.8  0.5  1.0  5  0        19
$GNGGA,000000.000,,,,,0,00,,,M,,,,0000*2B
$GNRMC,000000.000,A,,,,,,,000000,,*26
$GPGSA,A,1,,,,,,,,,,,,,,,*1E
$BDGSA,A,1,,,,,,,,,,,,,,,*0F
$GPGSV,2,1,08,04,00,000,43,07,00,000,43,08,00,000,41,09,00,000,44*75
$GPGSV,2,2,08,16,00,000,40,21,00,000,36,26,00,000,32,27,00,000,31*76
$LOGTIM,0,0.000000,0.000000,0.000000,0.000000,0.000*0A
EndT:        0
---00000007--- Acq_st=3 2019-5-22 02:53:34 
[00]  G04  f 43  -1260.1 2046001.6  1.0  1.0  5  0 269631422
[01]  G07  f 42  -3555.2 2046004.6  1.0  1.0  5  0 269631422
[02]  G08  f 41  -1458.4 2046001.9  1.0  1.0  5  0 269631431
[03]  G09  7 44    -79.1 2046000.1  1.0  1.0  5  0         4
[04]  G16  7 40   1175.2 2045998.4  1.0  1.0  5  0         7
[05]  G21  7 36   2015.7 2045997.4  1.0  1.0  5  0        15
[06]  G26  7 37   1701.2 2045997.8  1.0  1.0  5  0         2
[07]  G27  7 50    857.6 2045998.8  1.0  1.0  5  0        12
$GNGGA,000000.000,,,,,0,00,,,M,,,,0000*2B
$GNRMC,000000.000,A,,,,,,,000000,,*26
$GPGSA,A,1,,,,,,,,,,,,,,,*1E
$BDGSA,A,1,,,,,,,,,,,,,,,*0F
$GPGSV,2,1,08,04,00,000,43,07,00,000,42,08,00,000,41,09,00,000,44*74
$GPGSV,2,2,08,16,00,000,40,21,00,000,36,26,00,000,37,27,00,000,50*74
$LOGTIM,0,0.000000,0.000000,0.000000,0.000000,0.000*0A
EndT:        0
---00000008--- Acq_st=3 2019-5-22 02:53:35 
[00]  G04  f 42  -1257.6 2046001.6  1.0  1.0  5  0 269632422
[01]  G07  f 41  -3553.2 2046004.6  1.0  1.0  5  0 269632422
[02]  G08  f 42  -1455.6 2046001.9  1.0  1.0  5  0 269632431
[03]  G09  7 44    -76.2 2046000.1  1.0  1.0  5  0         4
[04]  G16  7 40   1177.0 2045998.4  1.0  1.0  5  0         7
[05]  G21  7 36   2018.3 2045997.3  1.0  1.0  5  0        15
[06]  G26  7 36   1703.7 2045997.8  1.0  1.0  5  0         2
[07]  G27  7 50    860.3 2045998.9  1.0  1.0  5  0        12
[16]  B07  1  7   -585.1 4092001.6  0.1  0.0  1  0         0
[17]  B10  1  7   1429.5 4092002.0  0.0  0.0  1  0         0
$GNGGA,000000.000,,,,,0,00,,,M,,,,0000*2B
$GNRMC,000000.000,A,,,,,,,000000,,*26
$GPGSA,A,1,,,,,,,,,,,,,,,*1E
$BDGSA,A,1,,,,,,,,,,,,,,,*0F
$GPGSV,2,1,08,04,00,000,42,07,00,000,41,08,00,000,42,09,00,000,44*75
$GPGSV,2,2,08,16,00,000,40,21,00,000,36,26,00,000,36,27,00,000,50*75
$LOGTIM,0,0.000000,0.000000,0.000000,0.000000,0.000*0A
EndT:        0
---00000009--- Acq_st=3 2019-5-22 02:53:36 
[00]  G04  f 42  -1256.2 2046001.6  1.0  1.0  5  0 269633422
[01]  G07  f 41  -3552.6 2046004.6  1.0  1.0  5  0 269633422
[02]  G08  f 42  -1454.1 2046001.9  1.0  1.0  5  0 269633431
[03]  G09  7 44    -75.2 2046000.1  1.0  1.0  5  0         4
[04]  G16  7 41   1177.7 2045998.4  1.0  1.0  5  0         7
[05]  G21  7 36   2019.0 2045997.4  1.0  1.0  5  0        15
[06]  G26  7 35   1703.7 2045997.8  1.0  1.0  5  0         2
[07]  G27  7 50    861.2 2045998.9  1.0  1.0  5  0        12
[16]  B07  7 32   -584.6 4092001.5  0.8  1.0  5  0       988
[17]  B10  1  7   -639.8 4092002.0  0.0  0.0  1  0        57
$GNGGA,000000.000,,,,,0,00,,,M,,,,0000*2B
$GNRMC,000000.000,A,,,,,,,000000,,*26
$GPGSA,A,1,,,,,,,,,,,,,,,*1E
$BDGSA,A,1,,,,,,,,,,,,,,,*0F
$GPGSV,2,1,08,04,00,000,42,07,00,000,41,08,00,000,42,09,00,000,44*75
$GPGSV,2,2,08,16,00,000,41,21,00,000,36,26,00,000,35,27,00,000,50*77
$BDGSV,1,1,01,07,00,000,32*5F
$LOGTIM,0,0.000000,0.000000,0.000000,0.000000,0.000*0A
EndT:        0
---00000010--- Acq_st=3 2019-5-22 02:53:37 
[00]  G04  f 43  -1256.2 2046001.6  1.0  1.0  5  0 269634422
[01]  G07  f 41  -3553.0 2046004.6  1.0  1.0  5  0 269634422
[02]  G08  f 41  -1455.0 2046001.9  1.0  1.0  5  0 269634431
[03]  G09  f 45    -75.4 2046000.1  1.0  1.0  5  0         4
[04]  G16  f 41   1177.4 2045998.4  1.0  1.0  5  0         7
[05]  G21  f 36   2018.5 2045997.4  1.0  1.0  5  0        15
[06]  G26  f 35   1702.7 2045997.8  1.0  1.0  5  0         2
[07]  G27  f 50    860.8 2045998.9  1.0  1.0  5  0        12
[16]  B07  7 43   -585.4 4092001.6  1.0  1.0  5  0      1978
[17]  B10  7 33   -640.7 4092001.7  0.6  1.0  5  0      1057
$GNGGA,000000.000,,,,,0,00,,,M,,,,0000*2B
$GNRMC,000000.000,A,,,,,,,000000,,*26
$GPGSA,A,1,,,,,,,,,,,,,,,*1E
$BDGSA,A,1,,,,,,,,,,,,,,,*0F
$GPGSV,2,1,08,04,00,000,43,07,00,000,41,08,00,000,41,09,00,000,45*76
$GPGSV,2,2,08,16,00,000,41,21,00,000,36,26,00,000,35,27,00,000,50*77
$BDGSV,1,1,02,07,00,000,43,10,00,000,33*6B
$LOGTIM,0,0.000000,0.000000,0.000000,0.000000,0.000*0A
EndT:        0
---00000011--- Acq_st=3 2019-5-22 02:53:38 
[00]  G04  f 42  -1257.4 2046001.6  1.0  1.0  5  0 269635422
[01]  G07  f 41  -3554.5 2046004.6  1.0  1.0  5  0 269635422
[02]  G08  f 42  -1455.6 2046001.9  1.0  1.0  5  0 269635431
[03]  G09  f 44    -76.1 2046000.1  1.0  1.0  5  0 269635424
[04]  G16  f 41   1175.6 2045998.4  1.0  1.0  5  0 269635427
[05]  G21  f 36   2018.1 2045997.4  1.0  1.0  5  0 269635415
[06]  G26  f 34   1702.7 2045997.8  1.0  0.9  5  0 269635422
[07]  G27  f 50    859.8 2045998.9  1.0  1.0  5  0 269635432
[16]  B07  7 43   -587.3 4092001.5  1.0  1.0  5  0      2978
[17]  B10  7 44   -642.3 4092001.7  1.0  1.0  5  0      2055
$GNGGA,000000.000,,,,,0,00,,,M,,,,0000*2B
$GNRMC,000000.000,A,,,,,,,000000,,*26
$GPGSA,A,1,,,,,,,,,,,,,,,*1E
$BDGSA,A,1,,,,,,,,,,,,,,,*0F
$GPGSV,2,1,08,04,00,000,42,07,00,000,41,08,00,000,42,09,00,000,44*75
$GPGSV,2,2,08,16,00,000,41,21,00,000,36,26,00,000,34,27,00,000,50*76
$BDGSV,1,1,02,07,00,000,43,10,00,000,44*6B
$LOGTIM,0,0.000000,0.000000,0.000000,0.000000,0.000*0A
EndT:        0
---00000012--- Acq_st=3 2019-5-22 02:53:39 
[00]  G04  f 43  -1257.3 2046001.7  1.0  1.0  5  0 269636422
[01]  G07  f 42  -3554.7 2046004.6  1.0  1.0  5  0 269636422
[02]  G08  f 42  -1455.9 2046001.9  1.0  1.0  5  0 269636431
[03]  G09  f 43    -76.2 2046000.1  1.0  1.0  5  0 269636424
[04]  G16  f 40   1175.9 2045998.5  1.0  1.0  5  0 269636427
[05]  G21  f 35   2017.6 2045997.3  1.0  1.0  5  0 269636415
[06]  G26  f 35   1701.1 2045997.8  1.0  1.0  5  0 269636422
[07]  G27  f 50    860.2 2045998.9  1.0  1.0  5  0 269636432
[16]  B07 1f 43   -588.1 4092001.6  1.0  1.0  5  0      3978
[17]  B10 1f 44   -642.8 4092001.7  1.0  1.0  5  0      3055
$GNGGA,000000.000,,,,,0,00,,,M,,,,0000*2B
$GNRMC,000000.000,A,,,,,,,000000,,*26
$GPGSA,A,1,,,,,,,,,,,,,,,*1E
$BDGSA,A,1,,,,,,,,,,,,,,,*0F
$GPGSV,2,1,08,04,00,000,43,07,00,000,42,08,00,000,42,09,00,000,43*70
$GPGSV,2,2,08,16,00,000,40,21,00,000,35,26,00,000,35,27,00,000,50*75
$BDGSV,1,1,02,07,00,000,43,10,00,000,44*6B
$LOGTIM,0,0.000000,0.000000,0.000000,0.000000,0.000*0A
EndT:        0
---00000013--- Acq_st=3 2019-5-22 02:53:40 
[00]  G04  f 43  -1256.1 2046001.7  1.0  1.0  5  0 269637422
[01]  G07  f 41  -3554.1 2046004.6  1.0  1.0  5  0 269637422
[02]  G08  f 41  -1454.3 2046001.9  1.0  1.0  5  0 269637431
[03]  G09  f 44    -75.0 2046000.1  1.0  1.0  5  0 269637424
[04]  G16  f 40   1176.4 2045998.5  1.0  1.0  5  0 269637427
[05]  G21  f 35   2018.9 2045997.4  1.0  1.0  5  0 269637415
[06]  G26  f 34   1702.3 2045997.8  1.0  1.0  5  0 269637422
[07]  G27  f 50    861.3 2045998.9  1.0  1.0  5  0 269637432
[16]  B07 1f 43   -587.2 4092001.5  1.0  1.0  5  0 269623378
[17]  B10 1f 44   -642.0 4092001.7  1.0  1.0  5  0 269623375
$GNGGA,000000.000,,,,,0,00,,,M,,,,0000*2B
$GNRMC,000000.000,A,,,,,,,000000,,*26
$GPGSA,A,1,,,,,,,,,,,,,,,*1E
$BDGSA,A,1,,,,,,,,,,,,,,,*0F
$GPGSV,2,1,08,04,00,000,43,07,00,000,41,08,00,000,41,09,00,000,44*77
$GPGSV,2,2,08,16,00,000,40,21,00,000,35,26,00,000,34,27,00,000,50*74
$BDGSV,1,1,02,07,00,000,43,10,00,000,44*6B
$LOGTIM,0,0.000000,0.000000,0.000000,0.000000,0.000*0A
EndT:        0
---00000014--- Acq_st=3 2019-5-22 02:53:41 
[00]  G04  f 43  -1255.3 2046001.6  1.0  1.0  5  0 269638422
[01]  G07  f 40  -3554.2 2046004.6  1.0  1.0  5  0 269638422
[02]  G08  f 42  -1453.7 2046001.9  1.0  1.0  5  0 269638431
[03]  G09  f 43    -74.5 2046000.1  1.0  1.0  5  0 269638424
[04]  G16  f 40   1176.4 2045998.5  1.0  1.0  5  0 269638427
[05]  G21  f 35   2019.2 2045997.4  1.0  1.0  5  0 269638415
[06]  G26  f 34   1702.8 2045997.8  1.0  0.9  5  0 269638422
[07]  G27  f 50    861.6 2045998.9  1.0  1.0  5  0 269638432
[16]  B07 1f 43   -587.0 4092001.5  1.0  1.0  5  0 269624378
[17]  B10 1f 44   -642.2 4092001.7  1.0  1.0  5  0 269624375
$GNGGA,000000.000,,,,,0,00,,,M,,,,0000*2B
$GNRMC,000000.000,A,,,,,,,000000,,*26
$GPGSA,A,1,,,,,,,,,,,,,,,*1E
$BDGSA,A,1,,,,,,,,,,,,,,,*0F
$GPGSV,2,1,08,04,00,000,43,07,00,000,40,08,00,000,42,09,00,000,43*72
$GPGSV,2,2,08,16,00,000,40,21,00,000,35,26,00,000,34,27,00,000,50*74
$BDGSV,1,1,02,07,00,000,43,10,00,000,44*6B
$LOGTIM,0,0.000000,0.000000,0.000000,0.000000,0.000*0A
EndT:        0
---00000015--- Acq_st=7 2019-5-22 02:53:42 
[00]  G04  f 43  -1255.5 2046001.6  1.0  1.0  5  0 269639422
[01]  G07  f 41  -3554.5 2046004.6  1.0  1.0  5  0 269639422
[02]  G08  f 40  -1454.2 2046001.9  1.0  1.0  5  0 269639431
[03]  G09  f 43    -74.5 2046000.1  1.0  1.0  5  0 269639424
[04]  G16  f 40   1175.6 2045998.5  1.0  1.0  5  0 269639427
[05]  G21  f 35   2018.6 2045997.3  1.0  1.0  5  0 269639415
[06]  G26  f 34   1701.3 2045997.8  1.0  1.0  5  0 269639422
[07]  G27  f 49    861.4 2045998.9  1.0  1.0  5  0 269639432
[16]  B07 1f 43   -588.0 4092001.5  1.0  1.0  5  0 269625378
[17]  B10 1f 44   -643.1 4092001.7  1.0  1.0  5  0 269625375
$GNGGA,000000.000,,,,,0,00,,,M,,,,0000*2B
$GNRMC,000000.000,A,,,,,,,000000,,*26
$GPGSA,A,1,,,,,,,,,,,,,,,*1E
$BDGSA,A,1,,,,,,,,,,,,,,,*0F
$GPGSV,2,1,08,04,00,000,43,07,00,000,41,08,00,000,40,09,00,000,43*71
$GPGSV,2,2,08,16,00,000,40,21,00,000,35,26,00,000,34,27,00,000,49*7C
$BDGSV,1,1,02,07,00,000,43,10,00,000,44*6B
$LOGTIM,0,0.000000,0.000000,0.000000,0.000000,0.000*0A
EndT:        0
---00000016--- Acq_st=7 2019-5-22 02:53:43 
[00]  G04  f 42  -1253.0 2046001.6  1.0  1.0  5  0 269640422
[01]  G07  f 41  -3552.4 2046004.6  1.0  1.0  5  0 269640422
[02]  G08  f 41  -1451.8 2046001.9  1.0  1.0  5  0 269640431
[03]  G09  f 44    -72.1 2046000.1  1.0  1.0  5  0 269640424
[04]  G16  f 40   1177.6 2045998.5  1.0  1.0  5  0 269640427
[05]  G21  f 36   2020.4 2045997.4  1.0  0.9  5  0 269640415
[06]  G26  f 34   1703.9 2045997.8  1.0  1.0  5  0 269640422
[07]  G27  f 49    863.7 2045998.9  1.0  1.0  5  0 269640432
[16]  B07 1f 43   -585.8 4092001.5  1.0  1.0  5  0 269626378
[17]  B10 1f 44   -640.8 4092001.7  1.0  1.0  5  0 269626375
$GNGGA,000000.000,,,,,0,00,,,M,,,,0000*2B
$GNRMC,000000.000,A,,,,,,,000000,,*26
$GPGSA,A,1,,,,,,,,,,,,,,,*1E
$BDGSA,A,1,,,,,,,,,,,,,,,*0F
$GPGSV,2,1,08,04,00,000,42,07,00,000,41,08,00,000,41,09,00,000,44*76
$GPGSV,2,2,08,16,00,000,40,21,00,000,36,26,00,000,34,27,00,000,49*7F
$BDGSV,1,1,02,07,00,000,43,10,00,000,44*6B
$LOGTIM,0,0.000000,0.000000,0.000000,0.000000,0.000*0A
EndT:        0
---00000017--- Acq_st=3 2019-5-22 02:53:44 
[00]  G04  f 43  -1254.1 2046001.6  1.0  1.0  5  0 269641422
[01]  G07  f 42  -3554.5 2046004.6  1.0  1.0  5  0 269641422
[02]  G08  f 41  -1453.0 2046001.9  1.0  1.0  5  0 269641431
[03]  G09  f 44    -73.3 2046000.1  1.0  1.0  5  0 269641424
[04]  G16  f 41   1175.9 2045998.5  1.0  1.0  5  0 269641427
[05]  G21  f 36   2019.2 2045997.4  1.0  1.0  5  0 269641415
[06]  G26  f 34   1702.6 2045997.8  1.0  0.9  5  0 269641422
[07]  G27  f 50    862.6 2045998.9  1.0  1.0  5  0 269641432
[16]  B07 1f 43   -587.9 4092001.5  1.0  1.0  5  0 269627378
[17]  B10 1f 43   -642.9 4092001.7  1.0  1.0  5  0 269627375
$GNGGA,000000.000,,,,,0,00,,,M,,,,0000*2B
$GNRMC,000000.000,A,,,,,,,000000,,*26
$GPGSA,A,1,,,,,,,,,,,,,,,*1E
$BDGSA,A,1,,,,,,,,,,,,,,,*0F
$GPGSV,2,1,08,04,00,000,43,07,00,000,42,08,00,000,41,09,00,000,44*74
$GPGSV,2,2,08,16,00,000,41,21,00,000,36,26,00,000,34,27,00,000,50*76
$BDGSV,1,1,02,07,00,000,43,10,00,000,43*6C
$LOGTIM,0,0.000000,0.000000,0.000000,0.000000,0.000*0A
EndT:        0
---00000018--- Acq_st=3 2019-5-22 02:53:45 
[00]  G04  f 43  -1254.5 2046001.6  1.0  1.0  5  0 269642422
[01]  G07  f 41  -3555.1 2046004.6  1.0  1.0  5  0 269642422
[02]  G08  f 42  -1453.3 2046001.9  1.0  1.0  5  0 269642431
[03]  G09  f 44    -73.6 2046000.1  1.0  1.0  5  0 269642424
[04]  G16  f 41   1175.0 2045998.5  1.0  1.0  5  0 269642427
[05]  G21  f 36   2018.4 2045997.4  1.0  1.0  5  0 269642415
[06]  G26  f 34   1701.0 2045997.8  1.0  0.9  5  0 269642422
[07]  G27  f 50    862.1 2045998.9  1.0  1.0  5  0 269642432
[16]  B07 1f 43   -588.7 4092001.5  1.0  1.0  5  0 269628378
[17]  B10 1f 43   -644.1 4092001.7  1.0  1.0  5  0 269628375
$GNGGA,000000.000,,,,,0,00,,,M,,,,0000*2B
$GNRMC,000000.000,A,,,,,,,000000,,*26
$GPGSA,A,1,,,,,,,,,,,,,,,*1E
$BDGSA,A,1,,,,,,,,,,,,,,,*0F
$GPGSV,2,1,08,04,00,000,43,07,00,000,41,08,00,000,42,09,00,000,44*74
$GPGSV,2,2,08,16,00,000,41,21,00,000,36,26,00,000,34,27,00,000,50*76
$BDGSV,1,1,02,07,00,000,43,10,00,000,43*6C
$LOGTIM,0,0.000000,0.000000,0.000000,0.000000,0.000*0A
EndT:        0
---00000019--- Acq_st=3 2019-5-22 02:53:46 
[00]  G04  f 43  -1253.5 2046001.6  1.0  1.0  5  0 269643422
[01]  G07  f 40  -3554.3 2046004.6  1.0  1.0  5  0 269643422
[02]  G08  f 42  -1452.4 2046001.9  1.0  1.0  5  0 269643431
[03]  G09  f 44    -72.3 2046000.1  1.0  1.0  5  0 269643424
[04]  G16  f 41   1176.2 2045998.5  1.0  1.0  5  0 269643427
[05]  G21  f 35   2019.6 2045997.4  1.0  1.0  5  0 269643415
[06]  G26  f 34   1701.3 2045997.9  1.0  0.9  5  0 269643422
[07]  G27  f 50    863.3 2045998.9  1.0  1.0  5  0 269643432
[16]  B07 1f 43   -588.2 4092001.5  1.0  1.0  5  0 269629378
[17]  B10 1f 44   -643.4 4092001.7  1.0  1.0  5  0 269629375
$GNGGA,000000.000,,,,,0,00,,,M,,,,0000*2B
$GNRMC,000000.000,A,,,,,,,000000,,*26
$GPGSA,A,1,,,,,,,,,,,,,,,*1E
$BDGSA,A,1,,,,,,,,,,,,,,,*0F
$GPGSV,2,1,08,04,00,000,43,07,00,000,40,08,00,000,42,09,00,000,44*75
$GPGSV,2,2,08,16,00,000,41,21,00,000,35,26,00,000,34,27,00,000,50*75
$BDGSV,1,1,02,07,00,000,43,10,00,000,44*6B
$LOGTIM,0,0.000000,0.000000,0.000000,0.000000,0.000*0A
EndT:        0
---00000020--- Acq_st=3 2019-5-22 02:53:47 
[00]  G04  f 42  -1252.8 2046001.6  1.0  1.0  5  0 269644422
[01]  G07  f 41  -3553.7 2046004.6  1.0  1.0  5  0 269644422
[02]  G08  f 42  -1451.5 2046001.9  1.0  1.0  5  0 269644431
[03]  G09  f 44    -71.5 2046000.1  1.0  1.0  5  0 269644424
[04]  G16  f 42   1176.1 2045998.5  1.0  1.0  5  0 269644427
[05]  G21  f 36   2020.5 2045997.4  1.0  1.0  5  0 269644415
[06]  G26  f 34   1702.5 2045997.7  1.0  1.0  5  0 269644422
[07]  G27  f 49    864.0 2045998.9  1.0  1.0  5  0 269644432
[16]  B07 1f 43   -588.4 4092001.5  1.0  1.0  5  0 269630378
[17]  B10 1f 44   -643.4 4092001.7  1.0  1.0  5  0 269630375
$GNGGA,000000.000,,,,,0,00,,,M,,,,0000*2B
$GNRMC,000000.000,A,,,,,,,000000,,*26
$GPGSA,A,1,,,,,,,,,,,,,,,*1E
$BDGSA,A,1,,,,,,,,,,,,,,,*0F
$GPGSV,2,1,08,04,00,000,42,07,00,000,41,08,00,000,42,09,00,000,44*75
$GPGSV,2,2,08,16,00,000,42,21,00,000,36,26,00,000,34,27,00,000,49*7D
$BDGSV,1,1,02,07,00,000,43,10,00,000,44*6B
$LOGTIM,0,0.000000,0.000000,0.000000,0.000000,0.000*0A
EndT:        0
---00000021--- Acq_st=3 2019-5-22 02:53:48 
[00]  G04  f 42  -1252.7 2046001.6  1.0  1.0  5  0 269645422
[01]  G07  f 42  -3554.2 2046004.6  1.0  1.0  5  0 269645422
[02]  G08  f 41  -1451.3 2046001.9  1.0  1.0  5  0 269645431
[03]  G09  f 45    -71.4 2046000.1  1.0  1.0  5  0 269645424
[04]  G16  f 42   1176.2 2045998.5  1.0  1.0  5  0 269645427
[05]  G21  f 38   2020.6 2045997.3  1.0  1.0  5  0 269645415
[06]  G26  f 33   1701.8 2045997.8  1.0  1.0  5  0 269645422
[07]  G27  f 49    864.1 2045998.9  1.0  1.0  5  0 269645432
[16]  B07 1f 44   -588.5 4092001.5  1.0  1.0  5  0 269631378
[17]  B10 1f 44   -644.2 4092001.6  1.0  1.0  5  0 269631375
$GNGGA,000000.000,,,,,0,00,,,M,,,,0000*2B
$GNRMC,000000.000,A,,,,,,,000000,,*26
$GPGSA,A,1,,,,,,,,,,,,,,,*1E
$BDGSA,A,1,,,,,,,,,,,,,,,*0F
$GPGSV,2,1,08,04,00,000,42,07,00,000,42,08,00,000,41,09,00,000,45*74
$GPGSV,2,2,08,16,00,000,42,21,00,000,38,26,00,000,33,27,00,000,49*74
$BDGSV,1,1,02,07,00,000,44,10,00,000,44*6C
$LOGTIM,0,0.000000,0.000000,0.000000,0.000000,0.000*0A
EndT:        0
---00000022--- Acq_st=3 2019-5-22 02:53:49 
[00]  G04  f 43  -1251.8 2046001.6  1.0  1.0  5  0 269646422
[01]  G07  f 42  -3554.3 2046004.6  1.0  1.0  5  0 269646422
[02]  G08  f 41  -1450.6 2046001.9  1.0  1.0  5  0 269646431
[03]  G09  f 45    -70.8 2046000.1  1.0  1.0  5  0 269646424
[04]  G16  f 42   1176.3 2045998.4  1.0  1.0  5  0 269646427
[05]  G21  f 38   2020.1 2045997.4  1.0  1.0  5  0 269646415
[06]  G26  f 33   1701.7 2045997.7  1.0  1.0  5  0 269646422
[07]  G27  f 49    864.7 2045998.9  1.0  1.0  5  0 269646432
[16]  B07 1f 44   -588.5 4092001.5  1.0  1.0  5  0 269632378
[17]  B10 1f 44   -643.7 4092001.7  1.0  1.0  5  0 269632375
[18]  B05  1 10   -352.9 4092001.3 -0.2  0.0  1  0         0
$GNGGA,000000.000,,,,,0,00,,,M,,,,0000*2B
$GNRMC,000000.000,A,,,,,,,000000,,*26
$GPGSA,A,1,,,,,,,,,,,,,,,*1E
$BDGSA,A,1,,,,,,,,,,,,,,,*0F
$GPGSV,2,1,08,04,00,000,43,07,00,000,42,08,00,000,41,09,00,000,45*75
$GPGSV,2,2,08,16,00,000,42,21,00,000,38,26,00,000,33,27,00,000,49*74
$BDGSV,1,1,02,07,00,000,44,10,00,000,44*6C
$LOGTIM,0,0.000000,0.000000,0.000000,0.000000,0.000*0A
EndT:        0
---00000023--- Acq_st=3 2019-5-22 02:53:50 
[00]  G04  f 42  -1252.0 2046001.6  1.0  1.0  5  0 269647422
[01]  G07  f 42  -3554.6 2046004.6  1.0  1.0  5  0 269647422
[02]  G08  f 43  -1451.0 2046001.9  1.0  1.0  5  0 269647431
[03]  G09  f 45    -70.8 2046000.1  1.0  1.0  5  0 269647424
[04]  G16  f 43   1175.8 2045998.4  1.0  1.0  5  0 269647427
[05]  G21  f 38   2020.5 2045997.4  1.0  1.0  5  0 269647415
[06]  G26  f 33   1701.4 2045997.8  1.0  0.9  5  0 269647422
[07]  G27  f 49    864.4 2045998.9  1.0  1.0  5  0 269647432
[16]  B07 1f 44   -589.1 4092001.5  1.0  1.0  5  0 269633378
[17]  B10 1f 44   -643.9 4092001.7  1.0  1.0  5  0 269633375
[18]  B05  f 33   -352.2 4092000.7 -0.1  0.0  2  0       847
$GNGGA,000000.000,,,,,0,00,,,M,,,,0000*2B
$GNRMC,000000.000,A,,,,,,,000000,,*26
$GPGSA,A,1,,,,,,,,,,,,,,,*1E
$BDGSA,A,1,,,,,,,,,,,,,,,*0F
$GPGSV,2,1,08,04,00,000,42,07,00,000,42,08,00,000,43,09,00,000,45*76
$GPGSV,2,2,08,16,00,000,43,21,00,000,38,26,00,000,33,27,00,000,49*75
$BDGSV,1,1,03,07,00,000,44,10,00,000,44,05,00,000,33*58
$LOGTIM,0,0.000000,0.000000,0.000000,0.000000,0.000*0A
EndT:        0
---00000024--- Acq_st=3 2019-5-22 02:53:51 
[00]  G04  f 42  -1250.1 2046001.6  1.0  1.0  5  0 269648422
[01]  G07  f 41  -3553.4 2046004.6  1.0  1.0  5  0 269648422
[02]  G08  f 43  -1449.3 2046001.9  1.0  1.0  5  0 269648431
[03]  G09  f 45    -69.4 2046000.1  1.0  1.0  5  0 269648424
[04]  G16  f 42   1177.3 2045998.5  1.0  1.0  5  0 269648427
[05]  G21  f 39   2021.8 2045997.4  1.0  1.0  5  0 269648415
[06]  G26  f 34   1703.2 2045997.8  1.0  1.0  5  0 269648422
[07]  G27  f 49    866.1 2045998.9  1.0  1.0  5  0 269648432
[16]  B07 1f 44   -588.7 4092001.5  1.0  1.0  5  0 269634378
[17]  B10 1f 44   -643.7 4092001.7  1.0  1.0  5  0 269634375
[18]  B05  f 33   -351.1 4092000.8  0.8  0.0  2  0 269634966
$GNGGA,000000.000,,,,,0,00,,,M,,,,0000*2B
$GNRMC,000000.000,A,,,,,,,000000,,*26
$GPGSA,A,1,,,,,,,,,,,,,,,*1E
$BDGSA,A,1,,,,,,,,,,,,,,,*0F
$GPGSV,2,1,08,04,00,000,42,07,00,000,41,08,00,000,43,09,00,000,45*75
$GPGSV,2,2,08,16,00,000,42,21,00,000,39,26,00,000,34,27,00,000,49*72
$BDGSV,1,1,03,07,00,000,44,10,00,000,44,05,00,000,33*58
$LOGTIM,0,0.000000,0.000000,0.000000,0.000000,0.000*0A
EndT:        0
---00000025--- Acq_st=3 2019-5-22 02:53:52 
[00]  G04  f 42  -1247.1 2046001.6  1.0  1.0  5  0 269649422
[01]  G07  f 42  -3551.1 2046004.6  1.0  1.0  5  0 269649422
[02]  G08  f 43  -1446.2 2046001.9  1.0  1.0  5  0 269649431
[03]  G09  f 45    -65.9 2046000.1  1.0  1.0  5  0 269649424
[04]  G16  f 42   1179.9 2045998.5  1.0  1.0  5  0 269649427
[05]  G21  f 38   2024.6 2045997.4  1.0  1.0  5  0 269649415
[06]  G26  f 35   1705.4 2045997.8  1.0  1.0  5  0 269649422
[07]  G27  f 49    869.2 2045998.9  1.0  1.0  5  0 269649432
[16]  B07 1f 44   -586.1 4092001.5  1.0  1.0  5  0 269635378
[17]  B10 1f 44   -640.6 4092001.7  1.0  1.0  5  0 269635375
[18]  B05  f 35   -349.1 4092001.1  0.9  0.0  2  0 269635966
$GNGGA,000000.000,,,,,0,00,,,M,,,,0000*2B
$GNRMC,000000.000,A,,,,,,,000000,,*26
$GPGSA,A,1,,,,,,,,,,,,,,,*1E
$BDGSA,A,1,,,,,,,,,,,,,,,*0F
$GPGSV,2,1,08,04,00,000,42,07,00,000,42,08,00,000,43,09,00,000,45*76
$GPGSV,2,2,08,16,00,000,42,21,00,000,38,26,00,000,35,27,00,000,49*72
$BDGSV,1,1,03,07,00,000,44,10,00,000,44,05,00,000,35*5E
$LOGTIM,0,0.000000,0.000000,0.000000,0.000000,0.000*0A
EndT:        0
---00000026--- Acq_st=3 2019-5-22 02:53:53 
[00]  G04  f 43  -1245.4 2046001.6  1.0  1.0  5  0 269650422
[01]  G07  f 41  -3550.1 2046004.6  1.0  1.0  5  0 269650422
[02]  G08  f 43  -1444.9 2046001.9  1.0  1.0  5  0 269650431
[03]  G09  f 45    -64.5 2046000.1  1.0  1.0  5  0 269650424
[04]  G16  f 41   1180.7 2045998.5  1.0  1.0  5  0 269650427
[05]  G21  f 38   2025.7 2045997.4  1.0  1.0  5  0 269650415
[06]  G26  f 34   1706.4 2045997.8  1.0  1.0  5  0 269650422
[07]  G27  f 49    870.5 2045998.9  1.0  1.0  5  0 269650432
[16]  B07 1f 44   -585.1 4092001.5  1.0  1.0  5  0 269636378
[17]  B10 1f 44   -640.3 4092001.6  1.0  1.0  5  0 269636375
[18]  B05  f 34   -347.5 4092000.9  0.8  0.0  2  0 269636966
$GNGGA,000000.000,,,,,0,00,,,M,,,,0000*2B
$GNRMC,000000.000,A,,,,,,,000000,,*26
$GPGSA,A,1,,,,,,,,,,,,,,,*1E
$BDGSA,A,1,,,,,,,,,,,,,,,*0F
$GPGSV,2,1,08,04,00,000,43,07,00,000,41,08,00,000,43,09,00,000,45*74
$GPGSV,2,2,08,16,00,000,41,21,00,000,38,26,00,000,34,27,00,000,49*70
$BDGSV,1,1,03,07,00,000,44,10,00,000,44,05,00,000,34*5F
$LOGTIM,0,0.000000,0.000000,0.000000,0.000000,0.000*0A
EndT:        0
---00000027--- Acq_st=3 2019-5-22 02:53:54 
[00]  G04  f 42  -1243.2 2046001.6  1.0  1.0  5  0 269651422
[01]  G07  f 41  -3547.7 2046004.6  1.0  1.0  5  0 269651422
[02]  G08  f 43  -1442.0 2046001.9  1.0  1.0  5  0 269651431
[03]  G09  f 45    -61.7 2046000.0  1.0  1.0  5  0 269651424
[04]  G16  f 41   1182.6 2045998.5  1.0  1.0  5  0 269651427
[05]  G21  f 38   2027.9 2045997.3  1.0  1.0  5  0 269651415
[06]  G26  f 35   1707.9 2045997.8  1.0  0.9  5  0 269651422
[07]  G27  f 49    873.1 2045998.9  1.0  1.0  5  0 269651432
[16]  B07 1f 44   -582.7 4092001.5  1.0  1.0  5  0 269637378
[17]  B10 1f 44   -638.2 4092001.7  1.0  1.0  5  0 269637375
[18]  B05  f 33   -345.6 4092001.1  0.8  0.0  2  0 269637966
$GNGGA,000000.000,,,,,0,00,,,M,,,,0000*2B
$GNRMC,000000.000,A,,,,,,,000000,,*26
$GPGSA,A,1,,,,,,,,,,,,,,,*1E
$BDGSA,A,1,,,,,,,,,,,,,,,*0F
$GPGSV,2,1,08,04,00,000,42,07,00,000,41,08,00,000,43,09,00,000,45*75
$GPGSV,2,2,08,16,00,000,41,21,00,000,38,26,00,000,35,27,00,000,49*71
$BDGSV,1,1,03,07,00,000,44,10,00,000,44,05,00,000,33*58
$LOGTIM,0,0.000000,0.000000,0.000000,0.000000,0.000*0A
EndT:        0
---00000028--- Acq_st=3 2019-5-22 02:53:55 
[00]  G04  f 42  -1242.7 2046001.6  1.0  1.0  5  0 269652422
[01]  G07  f 41  -3547.7 2046004.6  1.0  1.0  5  0 269652422
[02]  G08  f 43  -1441.8 2046001.9  1.0  1.0  5  0 269652431
[03]  G09  f 44    -61.4 2046000.1  1.0  1.0  5  0 269652424
[04]  G16  f 42   1182.5 2045998.5  1.0  1.0  5  0 269652427
[05]  G21  f 38   2028.3 2045997.3  1.0  1.0  5  0 269652415
[06]  G26  f 36   1708.4 2045997.8  1.0  1.0  5  0 269652422
[07]  G27  f 49    873.3 2045998.9  1.0  1.0  5  0 269652432
[16]  B07 1f 44   -583.3 4092001.5  1.0  1.0  5  0 269638378
[17]  B10 1f 44   -638.5 4092001.7  1.0  1.0  5  0 269638375
[18]  B05  f 32   -345.9 4092000.8  0.8  0.0  2  0 269638966
[19]  B27  1  7  -1187.6 4092004.0  0.2  0.0  1  0         0
$GNGGA,000000.000,,,,,0,00,,,M,,,,0000*2B
$GNRMC,000000.000,A,,,,,,,000000,,*26
$GPGSA,A,1,,,,,,,,,,,,,,,*1E
$BDGSA,A,1,,,,,,,,,,,,,,,*0F
$GPGSV,2,1,08,04,00,000,42,07,00,000,41,08,00,000,43,09,00,000,44*74
$GPGSV,2,2,08,16,00,000,42,21,00,000,38,26,00,000,36,27,00,000,49*71
$BDGSV,1,1,03,07,00,000,44,10,00,000,44,05,00,000,32*59
$LOGTIM,0,0.000000,0.000000,0.000000,0.000000,0.000*0A
EndT:        0
---00000029--- Acq_st=7 2019-5-22 02:53:56 
[00]  G04  f 42  -1240.3 2046001.6  1.0  1.0  5  0 269653422
[01]  G07  f 40  -3546.3 2046004.6  1.0  1.0  5  0 269653422
[02]  G08  f 43  -1439.8 2046001.8  1.0  1.0  5  0 269653431
[03]  G09  f 45    -59.3 2046000.1  1.0  1.0  5  0 269653424
[04]  G16  f 42   1184.3 2045998.4  1.0  1.0  5  0 269653427
[05]  G21  f 38   2030.3 2045997.3  1.0  1.0  5  0 269653415
[06]  G26  f 36   1710.2 2045997.8  1.0  1.0  5  0 269653422
[07]  G27  f 49    875.4 2045998.9  1.0  1.0  5  0 269653432
[16]  B07 1f 44   -581.8 4092001.5  1.0  1.0  5  0 269639378
[17]  B10 1f 44   -636.5 4092001.7  1.0  1.0  5  0 269639375
[18]  B05  f 31   -344.6 4092000.9  0.7  0.0  2  0 269639966
[19]  B27  7 20  -1160.7 4092003.1  0.1  0.0 20  0       632
$GNGGA,000000.000,,,,,0,00,,,M,,,,0000*2B
$GNRMC,000000.000,A,,,,,,,000000,,*26
$GPGSA,A,1,,,,,,,,,,,,,,,*1E
$BDGSA,A,1,,,,,,,,,,,,,,,*0F
$GPGSV,2,1,08,04,00,000,42,07,00,000,40,08,00,000,43,09,00,000,45*74
$GPGSV,2,2,08,16,00,000,42,21,00,000,38,26,00,000,36,27,00,000,49*71
$BDGSV,1,1,04,07,00,000,44,10,00,000,44,05,00,000,31,27,00,000,20*6A
$LOGTIM,0,0.000000,0.000000,0.000000,0.000000,0.000*0A
EndT:        0
---00000030--- Acq_st=7 2019-5-22 02:53:57 
[00]  G04  f 42  -1238.9 2046001.6  1.0  1.0  5  0 269654422
[01]  G07  f 39  -3545.5 2046004.7  1.0  1.0  5  0 269654422
[02]  G08  f 44  -1438.4 2046001.8  1.0  1.0  5  0 269654431
[03]  G09  f 46    -58.0 2046000.1  1.0  1.0  5  0 269654424
[04]  G16  f 42   1184.9 2045998.4  1.0  1.0  5  0 269654427
[05]  G21  f 38   2031.3 2045997.4  1.0  1.0  5  0 269654415
[06]  G26  f 36   1710.5 2045997.7  1.0  0.9  5  0 269654422
[07]  G27  f 50    876.6 2045998.9  1.0  1.0  5  0 269654432
[16]  B07 1f 44   -581.2 4092001.5  1.0  1.0  5  0 269640378
[17]  B10 1f 44   -636.0 4092001.7  1.0  1.0  5  0 269640375
[18]  B05  f 31   -344.0 4092000.7  0.7  0.0  2  0 269640966
[19]  B27  7 26  -1152.6 4092003.0  0.5 -0.0 10  0      1627
$GNGGA,000000.000,,,,,0,00,,,M,,,,0000*2B
$GNRMC,000000.000,A,,,,,,,000000,,*26
$GPGSA,A,1,,,,,,,,,,,,,,,*1E
$BDGSA,A,1,,,,,,,,,,,,,,,*0F
$GPGSV,2,1,08,04,00,000,42,07,00,000,39,08,00,000,44,09,00,000,46*7E
$GPGSV,2,2,08,16,00,000,42,21,00,000,38,26,00,000,36,27,00,000,50*79
$BDGSV,1,1,04,07,00,000,44,10,00,000,44,05,00,000,31,27,00,000,26*6C
$LOGTIM,0,0.000000,0.000000,0.000000,0.000000,0.000*0A
EndT:        0
---00000031--- Acq_st=7 2019-5-22 02:53:58 
[00]  G04  f 42  -1238.9 2046001.6  1.0  1.0  5  0 269655422
[01]  G07  f 40  -3545.9 2046004.6  1.0  1.0  5  0 269655422
[02]  G08  f 43  -1438.6 2046001.8  1.0  1.0  5  0 269655431
[03]  G09  f 46    -58.0 2046000.1  1.0  1.0  5  0 269655424
[04]  G16  f 43   1184.9 2045998.5  1.0  1.0  5  0 269655427
[05]  G21  f 37   2030.9 2045997.4  1.0  1.0  5  0 269655415
[06]  G26  f 36   1710.2 2045997.7  1.0  1.0  5  0 269655422
[07]  G27  f 50    876.8 2045998.9  1.0  1.0  5  0 269655432
[16]  B07 1f 44   -581.8 4092001.5  1.0  1.0  5  0 269641378
[17]  B10 1f 44   -637.2 4092001.7  1.0  1.0  5  0 269641375
[18]  B05  f 32   -343.5 4092001.0  0.7  0.0  2  0 269641966
[19]  B27  7 26  -1152.5 4092003.1  0.9  0.1 10  0      2627
$GNGGA,000000.000,,,,,0,00,,,M,,,,0000*2B
$GNRMC,000000.000,A,,,,,,,000000,,*26
$GPGSA,A,1,,,,,,,,,,,,,,,*1E
$BDGSA,A,1,,,,,,,,,,,,,,,*0F
$GPGSV,2,1,08,04,00,000,42,07,00,000,40,08,00,000,43,09,00,000,46*77
$GPGSV,2,2,08,16,00,000,43,21,00,000,37,26,00,000,36,27,00,000,50*77
$BDGSV,1,1,04,07,00,000,44,10,00,000,44,05,00,000,32,27,00,000,26*6F
$LOGTIM,0,0.000000,0.000000,0.000000,0.000000,0.000*0A
EndT:        0
---00000032--- Acq_st=3 2019-5-22 02:53:59 
[00]  G04  f 42  -1236.7 2046001.6  1.0  1.0  5  0 269656422
[01]  G07  f 41  -3544.2 2046004.6  1.0  1.0  5  0 269656422
[02]  G08  f 44  -1435.9 2046001.9  1.0  1.0  5  0 269656431
[03]  G09  f 45    -55.5 2046000.1  1.0  1.0  5  0 269656424
[04]  G16  f 42   1186.5 2045998.5  1.0  1.0  5  0 269656427
[05]  G21  f 37   2033.1 2045997.4  1.0  1.0  5  0 269656415
[06]  G26  f 37   1712.0 2045997.7  1.0  0.9  5  0 269656422
[07]  G27  f 50    879.1 2045998.9  1.0  1.0  5  0 269656432
[16]  B07 1f 44   -580.3 4092001.5  1.0  1.0  5  0 269642378
[17]  B10 1f 44   -635.4 4092001.6  1.0  1.0  5  0 269642375
[18]  B05  f 32   -341.9 4092001.0  0.7  0.0  2  0 269642966
[19]  B27  7 25  -1150.3 4092003.0  0.9  0.0 10  0      3627
$GNGGA,000000.000,,,,,0,00,,,M,,,,0000*2B
$GNRMC,000000.000,A,,,,,,,000000,,*26
$GPGSA,A,1,,,,,,,,,,,,,,,*1E
$BDGSA,A,1,,,,,,,,,,,,,,,*0F
$GPGSV,2,1,08,04,00,000,42,07,00,000,41,08,00,000,44,09,00,000,45*72
$GPGSV,2,2,08,16,00,000,42,21,00,000,37,26,00,000,37,27,00,000,50*77
$BDGSV,1,1,04,07,00,000,44,10,00,000,44,05,00,000,32,27,00,000,25*6C
$LOGTIM,0,0.000000,0.000000,0.000000,0.000000,0.000*0A
EndT:        0
---00000033--- Acq_st=3 2019-5-22 02:54:0 
[00]  G04  f 42  -1239.7 2046001.6  1.0  1.0  5 3f 269657422
[01]  G07  f 41  -3547.0 2046004.6  1.0  1.0  5  0 269657422
[02]  G08  f 44  -1439.0 2046001.8  1.0  1.0  5  0 269657431
[03]  G09  f 44    -58.6 2046000.1  1.0  1.0  5  0 269657424
[04]  G16  f 42   1183.3 2045998.5  1.0  1.0  5  0 269657427
[05]  G21  f 37   2030.1 2045997.4  1.0  1.0  5  0 269657415
[06]  G26  f 36   1708.8 2045997.8  1.0  0.9  5  0 269657422
[07]  G27  f 50    876.0 2045998.9  1.0  1.0  5  0 269657432
[16]  B07 1f 44   -583.3 4092001.5  1.0  1.0  5  0 269643378
[17]  B10 1f 44   -638.9 4092001.6  1.0  1.0  5  0 269643375
[18]  B05  f 31   -346.0 4092000.9  0.7  0.0  2  0 269643966
[19]  B27  7 25  -1152.0 4092003.1  0.9  0.1 10  0      4627
lsq: nits= 4
$GNGGA,025400.500,3112.7197,N,12136.4321,E,1,07,1.9,55.5,M,,,,0000*27
$GNRMC,025400.500,A,3112.7197,N,12136.4321,E,0.13,0.00,220519,,*1E
$GPGSA,A,3,07,08,09,16,21,26,27,,,,,,2.7,1.9,1.9*34
$BDGSA,A,3,,,,,,,,,,,,,2.7,1.9,1.9*26
$GPGSV,2,1,08,04,00,000,42,07,00,000,41,08,00,000,44,09,00,000,44*73
$GPGSV,2,2,08,16,00,000,42,21,00,000,37,26,00,000,36,27,00,000,50*76
$BDGSV,1,1,04,07,00,000,44,10,00,000,44,05,00,000,31,27,00,000,25*6F
$LOGTIM,1,9403358.534302,0.000000,0.000000,0.000000,-63.019*18
EndT:        1
---00000034--- Acq_st=3 2019-5-22 02:54:1 
[00]  G04  f 42  -1242.8 2046001.6  1.0  1.0  5 3f 269658422
[01]  G07  f 42  -3550.9 2046004.6  1.0  1.0  5  0 269658422
[02]  G08  f 44  -1442.2 2046001.9  1.0  1.0  5  0 269658431
[03]  G09  f 46    -61.9 2046000.1  1.0  1.0  5  0 269658424
[04]  G16  f 42   1179.4 2045998.5  1.0  1.0  5  0 269658427
[05]  G21  f 36   2026.0 2045997.4  1.0  1.0  5  0 269658415
[06]  G26  f 36   1704.6 2045997.8  1.0  0.9  5  0 269658422
[07]  G27  f 50    872.6 2045998.9  1.0  1.0  5  0 269658432
[16]  B07 1f 44   -587.6 4092001.5  1.0  1.0  5  0 269644378
[17]  B10 1f 44   -642.4 4092001.7  1.0  1.0  5  0 269644375
[18]  B05  f 32   -349.9 4092001.0  0.8  0.0  2  0 269644966
[19]  B27  7 25  -1155.9 4092003.2  0.8  0.0 10  0      5627
lsq: nits= 2
$GNGGA,025402.000,3112.7245,N,12136.4308,E,1,07,1.9,53.2,M,,,,0000*26
$GNRMC,025402.000,A,3112.7245,N,12136.4308,E,0.04,0.00,220519,,*18
$GPGSA,A,3,07,08,09,16,21,26,27,,,,,,2.7,1.9,1.9*34
$BDGSA,A,3,,,,,,,,,,,,,2.7,1.9,1.9*26
$GPGSV,2,1,08,04,00,000,42,07,00,000,42,08,00,000,44,09,00,000,46*72
$GPGSV,2,2,08,16,00,000,42,21,00,000,36,26,00,000,36,27,00,000,50*77
$BDGSV,1,1,04,07,00,000,44,10,00,000,44,05,00,000,32,27,00,000,25*6C
$LOGTIM,1,-94.770741,0.000000,0.000000,0.000000,-63.868*07
EndT:        2
---00000035--- Acq_st=3 2019-5-22 02:54:2 
[00]  G04  f 41  -1244.3 2046001.6  1.0  1.0  5 3f 269659922
[01]  G07  f 41  -3553.4 2046004.6  1.0  1.0  5  0 269659922
[02]  G08  f 43  -1444.4 2046001.9  1.0  1.0  5  0 269659931
[03]  G09  f 45    -63.5 2046000.1  1.0  1.0  5  0 269659924
[04]  G16  f 42   1177.2 2045998.5  1.0  1.0  5  0 269659927
[05]  G21  f 36   2024.4 2045997.3  1.0  1.0  5  0 269659914
[06]  G26  f 35   1702.7 2045997.7  1.0  1.0  5  0 269659922
[07]  G27  f 50    870.8 2045998.9  1.0  1.0  5  0 269659932
[16]  B07 1f 44   -589.3 4092001.5  1.0  1.0  5  0 269645878
[17]  B10 1f 44   -644.5 4092001.6  1.0  1.0  5  0 269645875
[18]  B05  f 32   -352.0 4092001.0  0.7  0.0  2  0 269646465
[19]  B27  7 24  -1157.5 4092002.9  0.8 -0.1 10  0      7127
lsq: nits= 2
$GNGGA,025403.000,3112.7253,N,12136.4298,E,1,07,1.9,53.9,M,,,,0000*23
$GNRMC,025403.000,A,3112.7253,N,12136.4298,E,0.04,0.00,220519,,*16
$GPGSA,A,3,07,08,09,16,21,26,27,,,,,,2.7,1.9,1.9*34
$BDGSA,A,3,,,,,,,,,,,,,2.7,1.9,1.9*26
$GPGSV,2,1,08,04,00,000,41,07,26,317,41,08,65,242,43,09,31,277,45*70
$GPGSV,2,2,08,16,44,046,42,21,08,041,36,26,25,073,35,27,72,022,50*7D
$BDGSV,1,1,04,07,00,000,44,10,00,000,44,05,00,000,32,27,00,000,24*6D
$LOGTIM,1,-158.454826,0.000000,0.000000,0.000000,-64.089*3D
EndT:        2
---00000036--- Acq_st=3 2019-5-22 02:54:3 
[00]  G04  f 42  -1244.7 2046001.6  1.0  1.0  5 3f 269660922
[01]  G07  f 41  -3553.8 2046004.6  1.0  1.0  5  0 269660922
[02]  G08  f 43  -1444.3 2046001.9  1.0  1.0  5  0 269660931
[03]  G09  f 46    -63.9 2046000.1  1.0  1.0  5  0 269660924
[04]  G16  f 42   1176.6 2045998.5  1.0  1.0  5  0 269660927
[05]  G21  f 36   2023.7 2045997.3  1.0  1.0  5  0 269660914
[06]  G26  f 35   1701.3 2045997.7  1.0  1.0  5  0 269660922
[07]  G27  f 50    870.6 2045998.9  1.0  1.0  5  0 269660932
[16]  B07 1f 44   -590.5 4092001.5  1.0  1.0  5  0 269646878
[17]  B10 1f 44   -645.4 4092001.7  1.0  1.0  5  0 269646875
[18]  B05  f 34   -352.8 4092000.9  0.8  0.0  2  0 269647465
[19]  B27  7 24  -1157.6 4092003.1  0.9 -0.1 10  0      8127
lsq: nits= 2
$GNGGA,025404.000,3112.7235,N,12136.4301,E,1,07,1.9,54.8,M,,,,0000*23
$GNRMC,025404.000,A,3112.7235,N,12136.4301,E,0.05,0.00,220519,,*11
$GPGSA,A,3,07,08,09,16,21,26,27,,,,,,2.7,1.9,1.9*34
$BDGSA,A,3,,,,,,,,,,,,,2.7,1.9,1.9*26
$GPGSV,2,1,08,04,00,000,42,07,26,317,41,08,65,242,43,09,31,277,46*70
$GPGSV,2,2,08,16,44,046,42,21,08,041,36,26,25,073,35,27,72,022,50*7D
$BDGSV,1,1,04,07,00,000,44,10,00,000,44,05,00,000,34,27,00,000,24*6B
$LOGTIM,1,-222.807975,0.000000,0.000000,0.000000,-64.173*3A
EndT:        2
---00000037--- Acq_st=3 2019-5-22 02:54:4 
[00]  G04  f 42  -1244.4 2046001.6  1.0  1.0  5 3f 269661922
[01]  G07  f 41  -3554.0 2046004.6  1.0  1.0  5  0 269661922
[02]  G08  f 44  -1444.2 2046001.9  1.0  1.0  5  0 269661931
[03]  G09  f 46    -63.5 2046000.1  1.0  1.0  5  0 269661924
[04]  G16  f 41   1176.5 2045998.5  1.0  1.0  5  0 269661927
[05]  G21  f 36   2023.6 2045997.4  1.0  1.0  5  0 269661914
[06]  G26  f 35   1701.4 2045997.8  1.0  0.9  5  0 269661922
[07]  G27  f 50    870.7 2045998.9  1.0  1.0  5  0 269661932
[16]  B07 1f 44   -591.5 4092001.5  1.0  1.0  5  0 269647878
[17]  B10 1f 43   -646.5 4092001.7  1.0  1.0  5  0 269647875
[18]  B05  f 34   -353.1 4092001.1  0.8  0.0  2  0 269648465
[19]  B27  7 24  -1157.6 4092002.8  0.9 -0.0 10  0      9127
lsq: nits= 2
$GNGGA,025405.000,3112.7222,N,12136.4306,E,1,07,1.9,55.2,M,,,,0000*28
$GNRMC,025405.000,A,3112.7222,N,12136.4306,E,0.03,0.00,220519,,*17
$GPGSA,A,3,07,08,09,16,21,26,27,,,,,,2.7,1.9,1.9*34
$BDGSA,A,3,,,,,,,,,,,,,2.7,1.9,1.9*26
$GPGSV,2,1,08,04,00,000,42,07,26,317,41,08,65,242,44,09,31,277,46*77
$GPGSV,2,2,08,16,44,046,41,21,08,041,36,26,25,073,35,27,72,022,50*7E
$BDGSV,1,1,04,07,00,000,44,10,00,000,43,05,00,000,34,27,00,000,24*6C
$LOGTIM,1,-287.374850,0.000000,0.000000,0.000000,-64.317*3C
EndT:        2
---00000038--- Acq_st=3 2019-5-22 02:54:5 
[00]  G04  f 43  -1243.4 2046001.6  1.0  1.0  5 3f 269662922
[01]  G07  f 42  -3553.5 2046004.6  1.0  1.0  5  0 269662922
[02]  G08  f 43  -1443.4 2046001.9  1.0  1.0  5  0 269662931
[03]  G09  f 45    -62.6 2046000.1  1.0  1.0  5  0 269662924
[04]  G16  f 41   1176.7 2045998.5  1.0  1.0  5  0 269662927
[05]  G21  f 36   2024.5 2045997.4  1.0  1.0  5  0 269662914
[06]  G26  f 35   1701.8 2045997.7  1.0  1.0  5  0 269662922
[07]  G27  f 50    871.5 2045998.9  1.0  1.0  5  0 269662932
[16]  B07 1f 44   -590.9 4092001.5  1.0  1.0  5  0 269648878
[17]  B10 1f 43   -646.0 4092001.7  1.0  1.0  5  0 269648875
[18]  B05  f 34   -353.5 4092000.7  0.8  0.0  2  0 269649465
[19]  B27  7 24  -1156.6 4092003.1  0.9 -0.0 10  0     10127
lsq: nits= 2
$GNGGA,025406.000,3112.7207,N,12136.4314,E,1,07,1.9,55.7,M,,,,0000*2A
$GNRMC,025406.000,A,3112.7207,N,12136.4314,E,0.25,0.00,220519,,*14
$GPGSA,A,3,07,08,09,16,21,26,27,,,,,,2.7,1.9,1.9*34
$BDGSA,A,3,,,,,,,,,,,,,2.7,1.9,1.9*26
$GPGSV,2,1,08,04,00,000,43,07,26,317,42,08,65,242,43,09,31,277,45*71
$GPGSV,2,2,08,16,44,046,41,21,08,041,36,26,25,073,35,27,72,022,50*7E
$BDGSV,1,1,04,07,00,000,44,10,00,000,43,05,00,000,34,27,00,000,24*6C
$LOGTIM,1,-351.533066,0.000000,0.000000,0.000000,-64.002*39
EndT:        2
---00000039--- Acq_st=3 2019-5-22 02:54:6 
[00]  G04  f 42  -1239.1 2046001.6  1.0  1.0  5 3f 269663922
[01]  G07  f 42  -3549.7 2046004.6  1.0  1.0  5  0 269663922
[02]  G08  f 43  -1439.2 2046001.9  1.0  1.0  5  0 269663931
[03]  G09  f 45    -58.0 2046000.1  1.0  1.0  5  0 269663924
[04]  G16  f 42   1180.5 2045998.5  1.0  1.0  5  0 269663927
[05]  G21  f 36   2029.1 2045997.4  1.0  1.0  5  0 269663914
[06]  G26  f 35   1705.9 2045997.7  1.0  0.9  5  0 269663922
[07]  G27  f 50    875.8 2045998.8  1.0  1.0  5  0 269663932
[16]  B07 1f 44   -586.7 4092001.5  1.0  1.0  5  0 269649878
[17]  B10 1f 44   -642.1 4092001.7  1.0  1.0  5  0 269649875
[18]  B05  f 33   -348.3 4092000.9  0.8  0.0  2  0 269650465
[19]  B27  7 23  -1156.1 4092003.1  0.3 -0.0 10  0     11127
lsq: nits= 2
$GNGGA,025407.000,3112.7195,N,12136.4318,E,1,07,1.9,56.3,M,,,,0000*28
$GNRMC,025407.000,A,3112.7195,N,12136.4318,E,0.64,0.00,220519,,*14
$GPGSA,A,3,07,08,09,16,21,26,27,,,,,,2.7,1.9,1.9*34
$BDGSA,A,3,,,,,,,,,,,,,2.7,1.9,1.9*26
$GPGSV,2,1,08,04,00,000,42,07,26,317,42,08,65,242,43,09,31,277,45*70
$GPGSV,2,2,08,16,44,046,42,21,08,041,36,26,25,073,35,27,72,022,50*7D
$BDGSV,1,1,04,07,00,000,44,10,00,000,44,05,00,000,33,27,00,000,23*6B
$LOGTIM,1,-414.941384,0.000000,0.000000,0.000000,-63.308*37
EndT:        2
---00000040--- Acq_st=3 2019-5-22 02:54:7 
[00]  G04  f 41  -1235.4 2046001.6  1.0  1.0  5 3f 269664922
[01]  G07  f 40  -3546.2 2046004.6  1.0  1.0  5  0 269664922
[02]  G08  f 42  -1435.4 2046001.9  1.0  1.0  5  0 269664931
[03]  G09  f 46    -54.4 2046000.1  1.0  1.0  5  0 269664924
[04]  G16  f 42   1184.0 2045998.5  1.0  1.0  5  0 269664927
[05]  G21  f 36   2032.4 2045997.4  1.0  1.0  5  0 269664914
[06]  G26  f 36   1709.3 2045997.7  1.0  1.0  5  0 269664922
[07]  G27  f 51    879.6 2045998.9  1.0  1.0  5  0 269664932
[16]  B07 1f 45   -583.7 4092001.5  1.0  1.0  5  0 269650878
[17]  B10 1f 44   -639.0 4092001.6  1.0  1.0  5  0 269650875
[18]  B05  f 32   -346.3 4092001.0  0.7  0.0  2  0 269651465
[19]  B27  7 23  -1150.1 4092002.7 -0.0  0.2 10  0     12127
lsq: nits= 2
$GNGGA,025408.000,3112.7191,N,12136.4319,E,1,07,1.9,56.5,M,,,,0000*24
$GNRMC,025408.000,A,3112.7191,N,12136.4319,E,0.59,0.00,220519,,*10
$GPGSA,A,3,07,08,09,16,21,26,27,,,,,,2.7,1.9,1.9*34
$BDGSA,A,3,,,,,,,,,,,,,2.7,1.9,1.9*26
$GPGSV,2,1,08,04,00,000,41,07,26,317,40,08,65,242,42,09,31,277,46*73
$GPGSV,2,2,08,16,44,046,42,21,08,041,36,26,25,073,36,27,72,022,51*7F
$BDGSV,1,1,04,07,00,000,45,10,00,000,44,05,00,000,32,27,00,000,23*6B
$LOGTIM,1,-477.827105,0.000000,0.000000,0.000000,-63.088*33
EndT:        2
---00000041--- Acq_st=3 2019-5-22 02:54:8 
[00]  G04  f 42  -1235.6 2046001.6  1.0  1.0  5 3f 269665922
[01]  G07  f 40  -3547.1 2046004.7  1.0  1.0  5  0 269665922
[02]  G08  f 43  -1435.8 2046001.9  1.0  1.0  5  0 269665931
[03]  G09  f 47    -54.5 2046000.1  1.0  1.0  5  0 269665924
[04]  G16  f 42   1182.9 2045998.5  1.0  1.0  5  0 269665927
[05]  G21  f 35   2031.8 2045997.4  1.0  1.0  5  0 269665914
[06]  G26  f 36   1708.0 2045997.8  1.0  1.0  5  0 269665922
[07]  G27  f 51    879.2 2045998.9  1.0  1.0  5  0 269665932
[16]  B07 1f 44   -584.6 4092001.5  1.0  1.0  5  0 269651878
[17]  B10 1f 44   -639.8 4092001.7  1.0  1.0  5  0 269651875
[18]  B05  f 32   -346.8 4092000.8  0.9  0.0  2  0 269652465
[19]  B27  7 19  -1146.9 4092003.1 -0.2 -0.2 20  0     13127
lsq: nits= 2
$GNGGA,025409.000,3112.7184,N,12136.4319,E,1,07,1.9,56.8,M,,,,0000*2C
$GNRMC,025409.000,A,3112.7184,N,12136.4319,E,0.24,0.00,220519,,*1F
$GPGSA,A,3,07,08,09,16,21,26,27,,,,,,2.7,1.9,1.9*34
$BDGSA,A,3,,,,,,,,,,,,,2.7,1.9,1.9*26
$GPGSV,2,1,08,04,00,000,42,07,26,317,40,08,65,242,43,09,31,277,47*70
$GPGSV,2,2,08,16,44,046,42,21,08,041,35,26,25,073,36,27,72,022,51*7C
$BDGSV,1,1,04,07,00,000,44,10,00,000,44,05,00,000,32,27,00,000,19*63
$LOGTIM,1,-541.181135,0.000000,0.000000,0.000000,-63.449*38
EndT:        2
---00000042--- Acq_st=3 2019-5-22 02:54:9 
[00]  G04  f 41  -1238.8 2046001.6  1.0  1.0  5 3f 269666922
[01]  G07  f 40  -3550.4 2046004.6  1.0  1.0  5  0 269666922
[02]  G08  f 43  -1438.7 2046001.9  1.0  1.0  5  0 269666931
[03]  G09  f 46    -57.8 2046000.1  1.0  1.0  5  0 269666924
[04]  G16  f 43   1179.7 2045998.5  1.0  1.0  5  0 269666927
[05]  G21  f 34   2028.1 2045997.4  1.0  0.9  5  0 269666914
[06]  G26  f 35   1704.7 2045997.8  1.0  0.9  5  0 269666922
[07]  G27  f 51    876.1 2045998.9  1.0  1.0  5  0 269666932
[16]  B07 1f 45   -588.5 4092001.5  1.0  1.0  5  0 269652878
[17]  B10 1f 44   -643.6 4092001.7  1.0  1.0  5  0 269652875
[18]  B05  f 33   -350.6 4092000.9  0.9  0.0  2  0 269653465
[19]  B27  7 22  -1150.4 4092003.0  0.0 -0.0 20  0     14127
lsq: nits= 2
$GNGGA,025410.000,3112.7168,N,12136.4323,E,1,07,1.9,57.3,M,,,,0000*25
$GNRMC,025410.000,A,3112.7168,N,12136.4323,E,0.28,0.00,220519,,*10
$GPGSA,A,3,07,08,09,16,21,26,27,,,,,,2.7,1.9,1.9*34
$BDGSA,A,3,,,,,,,,,,,,,2.7,1.9,1.9*26
$GPGSV,2,1,08,04,00,000,41,07,26,317,40,08,65,242,43,09,31,277,46*72
$GPGSV,2,2,08,16,44,046,43,21,08,041,34,26,25,073,35,27,72,022,51*7F
$BDGSV,1,1,04,07,00,000,45,10,00,000,44,05,00,000,33,27,00,000,22*6B
$LOGTIM,1,-605.441922,0.000000,0.000000,0.000000,-63.654*32
EndT:        2
---00000043--- Acq_st=3 2019-5-22 02:54:10 
[00]  G04  f 42  -1236.6 2046001.6  1.0  1.0  5 3f 269667922
[01]  G07  f 41  -3548.8 2046004.6  1.0  1.0  5  0 269667922
[02]  G08  f 43  -1436.6 2046001.9  1.0  1.0  5  0 269667931
[03]  G09  f 45    -55.4 2046000.1  1.0  1.0  5  0 269667924
[04]  G16  f 42   1181.4 2045998.5  1.0  1.0  5  0 269667927
[05]  G21  f 36   2029.8 2045997.5  1.0  1.0  5  0 269667914
[06]  G26  f 36   1705.6 2045997.9  1.0  0.9  5  0 269667922
[07]  G27  f 51    877.9 2045998.9  1.0  1.0  5  0 269667932
[16]  B07 1f 45   -587.3 4092001.5  1.0  1.0  5  0 269653878
[17]  B10 1f 43   -642.4 4092001.7  1.0  1.0  5  0 269653875
[18]  B05  f 33   -348.5 4092000.9  0.8  0.0  2  0 269654465
[19]  B27  7 22  -1150.5 4092003.1  0.5 -0.1 20  0     15127
lsq: nits= 2
$GNGGA,025411.000,3112.7171,N,12136.4318,E,1,07,1.9,57.6,M,,,,0000*21
$GNRMC,025411.000,A,3112.7171,N,12136.4318,E,0.11,0.00,220519,,*1B
$GPGSA,A,3,07,08,09,16,21,26,27,,,,,,2.7,1.9,1.9*34
$BDGSA,A,3,,,,,,,,,,,,,2.7,1.9,1.9*26
$GPGSV,2,1,08,04,00,000,42,07,26,317,41,08,65,242,43,09,31,277,45*73
$GPGSV,2,2,08,16,44,046,42,21,08,041,36,26,25,073,36,27,72,022,51*7F
$BDGSV,1,1,04,07,00,000,45,10,00,000,43,05,00,000,33,27,00,000,22*6C
$LOGTIM,1,-669.162479,0.000000,0.000000,0.000000,-63.703*3C
EndT:        2
---00000044--- Acq_st=7 2019-5-22 02:54:11 
[00]  G04  f 42  -1238.0 2046001.6  1.0  1.0  5 3f 269668922
[01]  G07  f 42  -3550.8 2046004.6  1.0  1.0  5  0 269668922
[02]  G08  f 43  -1438.3 2046001.9  1.0  1.0  5  0 269668931
[03]  G09  f 46    -57.0 2046000.1  1.0  1.0  5  0 269668924
[04]  G16  f 42   1179.5 2045998.5  1.0  1.0  5  0 269668927
[05]  G21  f 36   2028.3 2045997.4  1.0  0.9  5  0 269668914
[06]  G26  f 37   1704.1 2045997.8  1.0  1.0  5  0 269668922
[07]  G27  f 51    876.5 2045998.9  1.0  1.0  5  0 269668932
[16]  B07 1f 45   -589.2 4092001.5  1.0  1.0  5  0 269654878
[17]  B10 1f 44   -644.4 4092001.7  1.0  1.0  5  0 269654875
[18]  B05  f 32   -351.1 4092000.9  0.8  0.0  2  0 269655465
[19]  B27  7 22  -1152.4 4092003.2  0.6 -0.1 20  0     16127
lsq: nits= 2
$GNGGA,025412.000,3112.7169,N,12136.4316,E,1,07,1.9,57.7,M,,,,0000*24
$GNRMC,025412.000,A,3112.7169,N,12136.4316,E,0.05,0.00,220519,,*1A
$GPGSA,A,3,07,08,09,16,21,26,27,,,,,,2.7,1.9,1.9*34
$BDGSA,A,3,,,,,,,,,,,,,2.7,1.9,1.9*26
$GPGSV,2,1,08,04,00,000,42,07,26,317,42,08,65,242,43,09,31,277,46*73
$GPGSV,2,2,08,16,44,046,42,21,08,041,36,26,25,073,37,27,72,022,51*7E
$BDGSV,1,1,04,07,00,000,45,10,00,000,44,05,00,000,32,27,00,000,22*6A
$LOGTIM,1,-733.431329,0.000000,0.000000,0.000000,-64.003*33
EndT:        2
---00000045--- Acq_st=7 2019-5-22 02:54:12 
[00]  G04  f 41  -1239.5 2046001.6  1.0  1.0  5 3f 269669922
[01]  G07  f 42  -3553.2 2046004.6  1.0  1.0  5  0 269669922
[02]  G08  f 42  -1440.1 2046001.9  1.0  1.0  5  0 269669931
[03]  G09  f 46    -58.6 2046000.1  1.0  1.0  5  0 269669924
[04]  G16  f 41   1177.6 2045998.5  1.0  1.0  5  0 269669927
[05]  G21  f 36   2026.3 2045997.4  1.0  1.0  5  0 269669914
[06]  G26  f 36   1702.1 2045997.8  1.0  1.0  5  0 269669922
[07]  G27  f 51    874.9 2045998.9  1.0  1.0  5  0 269669932
[16]  B07 1f 45   -590.6 4092001.6  1.0  1.0  5  0 269655878
[17]  B10 1f 44   -646.6 4092001.7  1.0  1.0  5  0 269655875
[18]  B05 1f 33   -353.2 4092001.0  0.8  0.0  2  0 269655865
[19]  B27  7 22  -1154.0 4092003.2  0.4 -0.1 20  0     17127
lsq: nits= 2
$GNGGA,025413.000,3112.7165,N,12136.4314,E,1,07,1.9,57.0,M,,,,0000*2C
$GNRMC,025413.000,A,3112.7165,N,12136.4314,E,0.08,0.00,220519,,*18
$GPGSA,A,3,07,08,09,16,21,26,27,,,,,,2.7,1.9,1.9*34
$BDGSA,A,3,,,,,,,,,,,,,2.7,1.9,1.9*26
$GPGSV,2,1,08,04,00,000,41,07,26,317,42,08,65,242,42,09,31,277,46*71
$GPGSV,2,2,08,16,44,046,41,21,08,041,36,26,25,073,36,27,72,022,51*7C
$BDGSV,1,1,04,07,00,000,45,10,00,000,44,05,00,000,33,27,00,000,22*6B
$LOGTIM,1,-798.714239,0.000000,0.000000,0.000000,-64.206*31
EndT:        2
---00000046--- Acq_st=7 2019-5-22 02:54:13 
[00]  G04  f 42  -1238.8 2046001.6  1.0  1.0  5 3f 269670922
[01]  G07  f 41  -3552.7 2046004.6  1.0  1.0  5  0 269670922
[02]  G08  f 43  -1439.4 2046001.9  1.0  1.0  5  0 269670931
[03]  G09  f 46    -58.1 2046000.1  1.0  1.0  5  0 269670924
[04]  G16  f 41   1177.3 2045998.5  1.0  1.0  5  0 269670927
[05]  G21  f 37   2027.0 2045997.4  1.0  1.0  5  0 269670914
[06]  G26  f 36   1701.4 2045997.8  1.0  1.0  5  0 269670922
[07]  G27  f 51    875.5 2045998.9  1.0  1.0  5  0 269670932
[16]  B07 1f 45   -591.1 4092001.5  1.0  1.0  5  0 269656878
[17]  B10 1f 44   -646.3 4092001.7  1.0  1.0  5  0 269656875
[18]  B05 1f 32   -352.9 4092000.9  0.8  0.0  2  0 269656865
[19]  B27  7 22  -1153.4 4092002.9  0.4  0.2 20  0     18127
lsq: nits= 2
$GNGGA,025414.000,3112.7162,N,12136.4310,E,1,07,1.9,57.3,M,,,,0000*2B
$GNRMC,025414.000,A,3112.7162,N,12136.4310,E,0.10,0.00,220519,,*15
$GPGSA,A,3,07,08,09,16,21,26,27,,,,,,2.7,1.9,1.9*34
$BDGSA,A,3,,,,,,,,,,,,,2.7,1.9,1.9*26
$GPGSV,2,1,08,04,00,000,42,07,26,317,41,08,65,242,43,09,31,277,46*70
$GPGSV,2,2,08,16,44,046,41,21,08,041,37,26,25,073,36,27,72,022,51*7D
$BDGSV,1,1,04,07,00,000,45,10,00,000,44,05,00,000,32,27,00,000,22*6A
$LOGTIM,1,-863.627004,0.000000,0.000000,0.000000,-64.083*38
EndT:        2
---00000047--- Acq_st=3 2019-5-22 02:54:14 
[00]  G04  f 42  -1235.3 2046001.6  1.0  1.0  5 3f 269671922
[01]  G07  f 42  -3549.6 2046004.6  1.0  1.0  5  0 269671922
[02]  G08  f 42  -1435.9 2046001.9  1.0  1.0  5  0 269671931
[03]  G09  f 46    -54.4 2046000.1  1.0  1.0  5  0 269671924
[04]  G16  f 40   1180.3 2045998.5  1.0  1.0  5  0 269671927
[05]  G21  f 37   2030.0 2045997.4  1.0  1.0  5  0 269671914
[06]  G26  f 36   1704.5 2045997.8  1.0  1.0  5  0 269671922
[07]  G27  f 50    878.7 2045998.9  1.0  1.0  5  0 269671932
[16]  B07 1f 45   -588.4 4092001.5  1.0  1.0  5  0 269657878
[17]  B10 1f 43   -643.8 4092001.7  1.0  1.0  5  0 269657875
[18]  B05 1f 33   -349.8 4092001.1  0.8  0.0  2  0 269657865
[19]  B27  7 21  -1151.8 4092003.1 -0.1 -0.1 20  0     19127
lsq: nits= 2
$GNGGA,025415.000,3112.7167,N,12136.4321,E,1,09,1.9,53.0,M,,,,0000*24
$GNRMC,025415.000,A,3112.7167,N,12136.4321,E,0.39,0.00,220519,,*18
$GPGSA,A,3,07,08,09,16,21,26,27,,,,,,2.7,1.9,1.9*34
$BDGSA,A,3,07,10,,,,,,,,,,,2.7,1.9,1.9*20
$GPGSV,2,1,08,04,00,000,42,07,26,317,42,08,65,242,42,09,31,277,46*72
$GPGSV,2,2,08,16,44,046,40,21,08,041,37,26,25,073,36,27,72,022,50*7D
$BDGSV,1,1,04,07,00,000,45,10,00,000,43,05,00,000,33,27,00,000,21*6F
$LOGTIM,3,-932.651381,-1130.085278,0.000000,0.000000,-63.784*29
EndT:        2
---00000048--- Acq_st=3 2019-5-22 02:54:15 
[00]  G04  f 42  -1234.3 2046001.6  1.0  1.0  5 3f 269672922
[01]  G07  f 42  -3549.3 2046004.6  1.0  1.0  5  0 269672922
[02]  G08  f 43  -1434.9 2046001.9  1.0  1.0  5  0 269672931
[03]  G09  f 46    -53.8 2046000.1  1.0  1.0  5  0 269672924
[04]  G16  f 40   1180.7 2045998.5  1.0  1.0  5  0 269672927
[05]  G21  f 37   2030.8 2045997.4  1.0  1.0  5  0 269672914
[06]  G26  f 36   1705.5 2045997.8  1.0  1.0  5  0 269672922
[07]  G27  f 50    879.7 2045998.9  1.0  1.0  5  0 269672932
[16]  B07 1f 45   -588.2 4092001.5  1.0  1.0  5  0 269658878
[17]  B10 1f 44   -643.5 4092001.6  1.0  1.0  5  0 269658875
[18]  B05 1f 33   -349.6 4092001.0  0.7  0.0  2  0 269658865
[19]  B27  7 23  -1148.3 4092003.0  0.1 -0.0 20  0     20127
lsq: nits= 2
$GNGGA,025416.000,3112.7120,N,12136.4334,E,1,09,1.2,39.8,M,,,,0000*2F
$GNRMC,025416.000,A,3112.7120,N,12136.4334,E,0.07,0.00,220519,,*11
$GPGSA,A,3,07,08,09,16,21,26,27,,,,,,1.5,1.2,0.8*3E
$BDGSA,A,3,07,10,,,,,,,,,,,1.5,1.2,0.8*2A
$GPGSV,2,1,08,04,00,000,42,07,26,317,42,08,65,242,43,09,31,277,46*73
$GPGSV,2,2,08,16,44,046,40,21,08,041,37,26,25,073,36,27,72,022,50*7D
$BDGSV,1,1,04,07,66,005,45,10,51,314,44,05,00,000,33,27,00,000,23*6D
$LOGTIM,3,-1007.237202,-1163.938335,0.000000,0.000000,-63.918*13
EndT:        3
---00000049--- Acq_st=3 2019-5-22 02:54:16 
[00]  G04  f 43  -1236.6 2046001.6  1.0  1.0  5 3f 269673922
[01]  G07  f 41  -3551.6 2046004.6  1.0  1.0  5  0 269673922
[02]  G08  f 42  -1437.0 2046001.9  1.0  1.0  5  0 269673931
[03]  G09  f 45    -55.4 2046000.1  1.0  1.0  5  0 269673924
[04]  G16  f 41   1178.3 2045998.5  1.0  1.0  5  0 269673927
[05]  G21  f 37   2029.1 2045997.3  1.0  1.0  5  0 269673914
[06]  G26  f 36   1703.7 2045997.9  1.0  0.9  5  0 269673922
[07]  G27  f 51    877.9 2045998.9  1.0  1.0  5  0 269673932
[16]  B07 1f 45   -590.2 4092001.5  1.0  1.0  5  0 269659878
[17]  B10 1f 43   -645.7 4092001.7  1.0  1.0  5  0 269659875
[18]  B05 1f 33   -352.6 4092000.9  0.8  0.0  2  0 269659865
[19]  B27  7 22  -1151.3 4092003.1  0.0  0.0 20  0     21127
lsq: nits= 2
$GNGGA,025417.000,3112.7112,N,12136.4332,E,1,09,1.2,39.3,M,,,,0000*22
$GNRMC,025417.000,A,3112.7112,N,12136.4332,E,0.03,0.00,220519,,*13
$GPGSA,A,3,07,08,09,16,21,26,27,,,,,,1.5,1.2,0.8*3E
$BDGSA,A,3,07,10,,,,,,,,,,,1.5,1.2,0.8*2A
$GPGSV,2,1,08,04,00,000,43,07,26,317,41,08,65,242,42,09,31,277,45*73
$GPGSV,2,2,08,16,44,046,41,21,08,041,37,26,25,073,36,27,72,022,51*7D
$BDGSV,1,1,04,07,66,005,45,10,51,314,43,05,00,000,33,27,00,000,22*6B
$LOGTIM,3,-1072.150280,-1225.861289,0.000000,0.000000,-64.203*15
EndT:        3
---00000050--- Acq_st=3 2019-5-22 02:54:17 
[00]  G04  f 43  -1237.5 2046001.6  1.0  1.0  5 3f 269674922
[01]  G07  f 41  -3553.1 2046004.6  1.0  1.0  5  0 269674922
[02]  G08  f 42  -1437.9 2046001.9  1.0  1.0  5  0 269674931
[03]  G09  f 45    -56.2 2046000.1  1.0  1.0  5  0 269674924
[04]  G16  f 42   1177.1 2045998.5  1.0  1.0  5  0 269674927
[05]  G21  f 37   2027.2 2045997.3  1.0  1.0  5  0 269674914
[06]  G26  f 37   1701.3 2045997.8  1.0  1.0  5  0 269674922
[07]  G27  f 51    876.7 2045998.9  1.0  1.0  5  0 269674932
[16]  B07 1f 45   -592.1 4092001.5  1.0  1.0  5  0 269660878
[17]  B10 1f 43   -647.5 4092001.7  1.0  1.0  5  0 269660875
[18]  B05 1f 34   -353.4 4092000.9  0.8  0.0  2  0 269660865
[19]  B27  7 22  -1152.2 4092002.9  0.6 -0.2 20  0     22127
lsq: nits= 2
$GNGGA,025418.000,3112.7115,N,12136.4323,E,1,09,1.2,39.9,M,,,,0000*20
$GNRMC,025418.000,A,3112.7115,N,12136.4323,E,0.11,0.00,220519,,*18
$GPGSA,A,3,07,08,09,16,21,26,27,,,,,,1.5,1.2,0.8*3E
$BDGSA,A,3,07,10,,,,,,,,,,,1.5,1.2,0.8*2A
$GPGSV,2,1,08,04,00,000,43,07,26,317,41,08,65,242,42,09,31,277,45*73
$GPGSV,2,2,08,16,44,046,42,21,08,041,37,26,25,073,37,27,72,022,51*7F
$BDGSV,1,1,04,07,66,005,45,10,51,314,43,05,00,000,34,27,00,000,22*6C
$LOGTIM,3,-1136.385353,-1288.648074,0.000000,0.000000,-64.246*12
EndT:        3
---00000051--- Acq_st=3 2019-5-22 02:54:18 
[00]  G04  f 43  -1236.8 2046001.6  1.0  1.0  5 3f 269675922
[01]  G07  f 40  -3553.2 2046004.6  1.0  1.0  5  0 269675922
[02]  G08  f 43  -1437.5 2046001.9  1.0  1.0  5  0 269675931
[03]  G09  f 46    -55.5 2046000.1  1.0  1.0  5  0 269675924
[04]  G16  f 42   1177.2 2045998.5  1.0  1.0  5  0 269675927
[05]  G21  f 37   2028.8 2045997.3  1.0  1.0  5  0 269675914
[06]  G26  f 37   1702.1 2045997.8  1.0  0.9  5  0 269675922
[07]  G27  f 50    877.2 2045998.9  1.0  1.0  5  0 269675932
[16]  B07 1f 45   -592.0 4092001.5  1.0  1.0  5  0 269661878
[17]  B10 1f 44   -647.4 4092001.7  1.0  1.0  5  0 269661875
[18]  B05 1f 32   -353.0 4092000.9  0.8  0.0  2  0 269661865
[19]  B27  7 24  -1151.3 4092003.1  0.8  0.1 20  0     23127
lsq: nits= 2
$GNGGA,025419.000,3112.7110,N,12136.4320,E,1,09,1.2,40.8,M,,,,0000*28
$GNRMC,025419.000,A,3112.7110,N,12136.4320,E,0.03,0.00,220519,,*1C
$GPGSA,A,3,07,08,09,16,21,26,27,,,,,,1.5,1.2,0.8*3E
$BDGSA,A,3,07,10,,,,,,,,,,,1.5,1.2,0.8*2A
$GPGSV,2,1,08,04,00,000,43,07,26,317,40,08,65,242,43,09,31,277,46*70
$GPGSV,2,2,08,16,44,046,42,21,08,041,37,26,25,073,37,27,72,022,50*7E
$BDGSV,1,1,04,07,66,005,45,10,51,314,44,05,00,000,32,27,00,000,24*6B
$LOGTIM,3,-1200.807224,-1352.330469,0.000000,0.000000,-64.335*15
