FlashID=0x1 0x20 0x18
BBram_blkflag1: 45d5: ba2a
FW Ver: 1.30  
GPS00 Init Dop:   5000, 40
GPS01 Init Dop:   5000, 40
GPS02 Init Dop:   5000, 40
GPS03 Init Dop:   5000, 40
GPS04 Init Dop:   5000, 40
GPS05 Init Dop:   5000, 40
GPS06 Init Dop:   5000, 40
GPS07 Init Dop:   5000, 40
GPS08 Init Dop:   5000, 40
GPS09 Init Dop:   5000, 40
GPS10 Init Dop:   5000, 40
GPS11 Init Dop:   5000, 40
GPS12 Init Dop:   5000, 40
GPS13 Init Dop:   5000, 40
GPS14 Init Dop:   5000, 40
GPS15 Init Dop:   5000, 40
GPS16 Init Dop:   5000, 40
GPS17 Init Dop:   5000, 40
GPS18 Init Dop:   5000, 40
GPS19 Init Dop:   5000, 40
GPS20 Init Dop:   5000, 40
GPS21 Init Dop:   5000, 40
GPS22 Init Dop:   5000, 40
GPS23 Init Dop:   5000, 40
GPS24 Init Dop:   5000, 40
GPS25 Init Dop:   5000, 40
GPS26 Init Dop:   5000, 40
GPS27 Init Dop:   5000, 40
GPS28 Init Dop:   5000, 40
GPS29 Init Dop:   5000, 40
GPS30 Init Dop:   5000, 40
GPS31 Init Dop:   5000, 40
BDS00 Init Dop:   5000, 40
BDS01 Init Dop:   5000, 40
BDS02 Init Dop:   5000, 40
BDS03 Init Dop:   5000, 40
BDS04 Init Dop:   5000, 40
BDS05 Init Dop:   5000, 40
BDS06 Init Dop:   5000, 40
BDS07 Init Dop:   5000, 40
BDS08 Init Dop:   5000, 40
BDS09 Init Dop:   5000, 40
BDS10 Init Dop:   5000, 40
BDS11 Init Dop:   5000, 40
BDS12 Init Dop:   5000, 40
BDS13 Init Dop:   5000, 40
BDS14 Init Dop:   5000, 40
BDS15 Init Dop:   5000, 40
BDS16 Init Dop:   5000, 40
BDS17 Init Dop:   5000, 40
BDS18 Init Dop:   5000, 40
BDS19 Init Dop:   5000, 40
BDS20 Init Dop:   5000, 40
BDS21 Init Dop:   5000, 40
BDS22 Init Dop:   5000, 40
BDS23 Init Dop:   5000, 40
BDS24 Init Dop:   5000, 40
BDS25 Init Dop:   5000, 40
BDS26 Init Dop:   5000, 40
BDS27 Init Dop:   5000, 40
BDS28 Init Dop:   5000, 40
BDS29 Init Dop:   5000, 40
BDS30 Init Dop:   5000, 40
BDS31 Init Dop:   5000, 40
---00000001--- Acq_st=3 2019-5-25 07:31:3 
$GNGGA,000000.000,,,,,0,00,,,M,,,,0000*2B
$GNRMC,000000.000,A,,,,,,,000000,,*26
$GPGSA,A,1,,,,,,,,,,,,,,,*1E
$BDGSA,A,1,,,,,,,,,,,,,,,*0F
$LOGTIM,0,0.000000,0.000000,0.000000,0.000000,0.000*0A
EndT:        0
ch0 satid=0,max_freq = -2500,max_mean = 24831,max_phase = 1741,max_value = 127167,acq ok1!
acq ok1 timeH = 0,timeL = 15212744,freq_stage = 4
---00000002--- Acq_st=3 2019-5-25 07:31:4 
[00]  G01  1 22   2476.3 2045998.1 -0.1  0.0  1  0         0
$GNGGA,000000.000,,,,,0,00,,,M,,,,0000*2B
$GNRMC,000000.000,A,,,,,,,000000,,*26
$GPGSA,A,1,,,,,,,,,,,,,,,*1E
$BDGSA,A,1,,,,,,,,,,,,,,,*0F
$LOGTIM,0,0.000000,0.000000,0.000000,0.000000,0.000*0A
EndT:        0
---00000003--- Acq_st=3 2019-5-25 07:31:5 
[00]  G01  7 15   2428.9 2045996.7 -0.2  0.0 20  0         2
$GNGGA,000000.000,,,,,0,00,,,M,,,,0000*2B
$GNRMC,000000.000,A,,,,,,,000000,,*26
$GPGSA,A,1,,,,,,,,,,,,,,,*1E
$BDGSA,A,1,,,,,,,,,,,,,,,*0F
$GPGSV,1,1,01,01,00,000,15*4D
$LOGTIM,0,0.000000,0.000000,0.000000,0.000000,0.000*0A
EndT:        0
---00000004--- Acq_st=3 2019-5-25 07:31:6 
[00]  G01  7 26   2430.8 2045996.8 -0.0  0.1 20  0         7
$GNGGA,000000.000,,,,,0,00,,,M,,,,0000*2B
$GNRMC,000000.000,A,,,,,,,000000,,*26
$GPGSA,A,1,,,,,,,,,,,,,,,*1E
$BDGSA,A,1,,,,,,,,,,,,,,,*0F
$GPGSV,1,1,01,01,00,000,26*4D
$LOGTIM,0,0.000000,0.000000,0.000000,0.000000,0.000*0A
EndT:        0
---00000005--- Acq_st=3 2019-5-25 07:31:7 
[00]  G01  7 26   2426.0 2045996.8 -0.8  0.0 10  0         7
$GNGGA,000000.000,,,,,0,00,,,M,,,,0000*2B
$GNRMC,000000.000,A,,,,,,,000000,,*26
$GPGSA,A,1,,,,,,,,,,,,,,,*1E
$BDGSA,A,1,,,,,,,,,,,,,,,*0F
$GPGSV,1,1,01,01,00,000,26*4D
$LOGTIM,0,0.000000,0.000000,0.000000,0.000000,0.000*0A
EndT:        0
---00000006--- Acq_st=3 2019-5-25 07:31:8 
[00]  G01  7 26   2429.0 2045996.8 -0.9 -0.1 10  0         7
$GNGGA,000000.000,,,,,0,00,,,M,,,,0000*2B
$GNRMC,000000.000,A,,,,,,,000000,,*26
$GPGSA,A,1,,,,,,,,,,,,,,,*1E
$BDGSA,A,1,,,,,,,,,,,,,,,*0F
$GPGSV,1,1,01,01,00,000,26*4D
$LOGTIM,0,0.000000,0.000000,0.000000,0.000000,0.000*0A
EndT:        0
---00000007--- Acq_st=3 2019-5-25 07:31:9 
[00]  G01  7 26   2428.8 2045996.8 -1.0 -0.0 10  0         7
$GNGGA,000000.000,,,,,0,00,,,M,,,,0000*2B
$GNRMC,000000.000,A,,,,,,,000000,,*26
$GPGSA,A,1,,,,,,,,,,,,,,,*1E
$BDGSA,A,1,,,,,,,,,,,,,,,*0F
$GPGSV,1,1,01,01,00,000,26*4D
$LOGTIM,0,0.000000,0.000000,0.000000,0.000000,0.000*0A
EndT:        0
---00000008--- Acq_st=3 2019-5-25 07:31:10 
[00]  G01  7 26   2430.3 2045996.8 -0.9  0.0 10  0         7
$GNGGA,000000.000,,,,,0,00,,,M,,,,0000*2B
$GNRMC,000000.000,A,,,,,,,000000,,*26
$GPGSA,A,1,,,,,,,,,,,,,,,*1E
$BDGSA,A,1,,,,,,,,,,,,,,,*0F
$GPGSV,1,1,01,01,00,000,26*4D
$LOGTIM,0,0.000000,0.000000,0.000000,0.000000,0.000*0A
EndT:        0
---00000009--- Acq_st=3 2019-5-25 07:31:11 
[00]  G01  7 26   2429.8 2045996.8 -0.9 -0.0 10  0         7
$GNGGA,000000.000,,,,,0,00,,,M,,,,0000*2B
$GNRMC,000000.000,A,,,,,,,000000,,*26
$GPGSA,A,1,,,,,,,,,,,,,,,*1E
$BDGSA,A,1,,,,,,,,,,,,,,,*0F
$GPGSV,1,1,01,01,00,000,26*4D
$LOGTIM,0,0.000000,0.000000,0.000000,0.000000,0.000*0A
EndT:        0
---00000010--- Acq_st=3 2019-5-25 07:31:12 
[00]  G01  7 25   2429.6 2045996.9 -1.0 -0.0 10  0         7
$GNGGA,000000.000,,,,,0,00,,,M,,,,0000*2B
$GNRMC,000000.000,A,,,,,,,000000,,*26
$GPGSA,A,1,,,,,,,,,,,,,,,*1E
$BDGSA,A,1,,,,,,,,,,,,,,,*0F
$GPGSV,1,1,01,01,00,000,25*4E
$LOGTIM,0,0.000000,0.000000,0.000000,0.000000,0.000*0A
EndT:        0
---00000011--- Acq_st=3 2019-5-25 07:31:13 
[00]  G01  7 26   2428.0 2045996.9 -1.0 -0.0 10  0         7
$GNGGA,000000.000,,,,,0,00,,,M,,,,0000*2B
$GNRMC,000000.000,A,,,,,,,000000,,*26
$GPGSA,A,1,,,,,,,,,,,,,,,*1E
$BDGSA,A,1,,,,,,,,,,,,,,,*0F
$GPGSV,1,1,01,01,00,000,26*4D
$LOGTIM,0,0.000000,0.000000,0.000000,0.000000,0.000*0A
EndT:        0
---00000012--- Acq_st=3 2019-5-25 07:31:14 
[00]  G01  7 26   2427.7 2045996.8 -1.0 -0.1 10  0         7
$GNGGA,000000.000,,,,,0,00,,,M,,,,0000*2B
$GNRMC,000000.000,A,,,,,,,000000,,*26
$GPGSA,A,1,,,,,,,,,,,,,,,*1E
$BDGSA,A,1,,,,,,,,,,,,,,,*0F
$GPGSV,1,1,01,01,00,000,26*4D
$LOGTIM,0,0.000000,0.000000,0.000000,0.000000,0.000*0A
EndT:        0
---00000013--- Acq_st=3 2019-5-25 07:31:15 
[00]  G01  7 25   2427.4 2045996.8 -1.0 -0.1 10  0         7
$GNGGA,000000.000,,,,,0,00,,,M,,,,0000*2B
$GNRMC,000000.000,A,,,,,,,000000,,*26
$GPGSA,A,1,,,,,,,,,,,,,,,*1E
$BDGSA,A,1,,,,,,,,,,,,,,,*0F
$GPGSV,1,1,01,01,00,000,25*4E
$LOGTIM,0,0.000000,0.000000,0.000000,0.000000,0.000*0A
EndT:        0
---00000014--- Acq_st=3 2019-5-25 07:31:16 
[00]  G01  7 26   2428.3 2045996.8 -1.0 -0.1 10  0         7
$GNGGA,000000.000,,,,,0,00,,,M,,,,0000*2B
$GNRMC,000000.000,A,,,,,,,000000,,*26
$GPGSA,A,1,,,,,,,,,,,,,,,*1E
$BDGSA,A,1,,,,,,,,,,,,,,,*0F
$GPGSV,1,1,01,01,00,000,26*4D
$LOGTIM,0,0.000000,0.000000,0.000000,0.000000,0.000*0A
EndT:        0
ch1 satid=10,max_freq = -2250,max_mean = 25445,max_phase = 1027,max_value = 527940,acq ok1!
acq ok1 timeH = 0,timeL = 266675721,freq_stage = 4
---00000015--- Acq_st=3 2019-5-25 07:31:17 
[00]  G01  7 26   2429.2 2045996.8 -0.9  0.0 10  0         7
[01]  G11  1 21   2165.2 2045998.4  0.1  0.0  1  0         0
$GNGGA,000000.000,,,,,0,00,,,M,,,,0000*2B
$GNRMC,000000.000,A,,,,,,,000000,,*26
$GPGSA,A,1,,,,,,,,,,,,,,,*1E
$BDGSA,A,1,,,,,,,,,,,,,,,*0F
$GPGSV,1,1,01,01,00,000,26*4D
$LOGTIM,0,0.000000,0.000000,0.000000,0.000000,0.000*0A
EndT:        0
---00000016--- Acq_st=3 2019-5-25 07:31:18 
[00]  G01  7 26   2433.6 2045996.8 -0.8  0.0 10  0         7
[01]  G11  7 24   2158.4 2045997.1  0.2  0.0 20  0         5
$GNGGA,000000.000,,,,,0,00,,,M,,,,0000*2B
$GNRMC,000000.000,A,,,,,,,000000,,*26
$GPGSA,A,1,,,,,,,,,,,,,,,*1E
$BDGSA,A,1,,,,,,,,,,,,,,,*0F
$GPGSV,1,1,02,01,00,000,26,11,00,000,24*78
$LOGTIM,0,0.000000,0.000000,0.000000,0.000000,0.000*0A
EndT:        0
---00000017--- Acq_st=3 2019-5-25 07:31:19 
[00]  G01  7 26   2432.5 2045996.8 -1.0  0.0 10  0         7
[01]  G11  7 41   2157.7 2045997.1  1.0  1.0  5  0         5
$GNGGA,000000.000,,,,,0,00,,,M,,,,0000*2B
$GNRMC,000000.000,A,,,,,,,000000,,*26
$GPGSA,A,1,,,,,,,,,,,,,,,*1E
$BDGSA,A,1,,,,,,,,,,,,,,,*0F
$GPGSV,1,1,02,01,00,000,26,11,00,000,41*7B
$LOGTIM,0,0.000000,0.000000,0.000000,0.000000,0.000*0A
EndT:        0
---00000018--- Acq_st=3 2019-5-25 07:31:20 
[00]  G01  7 26   2434.2 2045996.9 -0.9  0.1 10  0         7
[01]  G11  f 41   2159.3 2045997.2  1.0  1.0  5  0 545497225
$GNGGA,000000.000,,,,,0,00,,,M,,,,0000*2B
$GNRMC,000000.000,A,,,,,,,000000,,*26
$GPGSA,A,1,,,,,,,,,,,,,,,*1E
$BDGSA,A,1,,,,,,,,,,,,,,,*0F
$GPGSV,1,1,02,01,00,000,26,11,00,000,41*7B
$LOGTIM,0,0.000000,0.000000,0.000000,0.000000,0.000*0A
EndT:        0
---00000019--- Acq_st=3 2019-5-25 07:31:21 
[00]  G01  7 25   2435.6 2045996.8 -0.9 -0.0 10  0         7
[01]  G11  f 41   2160.4 2045997.2  1.0  1.0  5  0 545498225
$GNGGA,000000.000,,,,,0,00,,,M,,,,0000*2B
$GNRMC,000000.000,A,,,,,,,000000,,*26
$GPGSA,A,1,,,,,,,,,,,,,,,*1E
$BDGSA,A,1,,,,,,,,,,,,,,,*0F
$GPGSV,1,1,02,01,00,000,25,11,00,000,41*78
$LOGTIM,0,0.000000,0.000000,0.000000,0.000000,0.000*0A
EndT:        0
---00000020--- Acq_st=3 2019-5-25 07:31:22 
[00]  G01  7 26   2436.0 2045996.9 -0.9 -0.0 10  0         7
[01]  G11  f 41   2159.4 2045997.1  1.0  1.0  5  0 545499225
$GNGGA,000000.000,,,,,0,00,,,M,,,,0000*2B
$GNRMC,000000.000,A,,,,,,,000000,,*26
$GPGSA,A,1,,,,,,,,,,,,,,,*1E
$BDGSA,A,1,,,,,,,,,,,,,,,*0F
$GPGSV,1,1,02,01,00,000,26,11,00,000,41*7B
$LOGTIM,0,0.000000,0.000000,0.000000,0.000000,0.000*0A
EndT:        0
---00000021--- Acq_st=3 2019-5-25 07:31:23 
[00]  G01  7 26   2433.5 2045996.8 -0.9  0.0 10  0         7
[01]  G11  f 41   2157.2 2045997.2  1.0  1.0  5  0 545500225
$GNGGA,000000.000,,,,,0,00,,,M,,,,0000*2B
$GNRMC,000000.000,A,,,,,,,000000,,*26
$GPGSA,A,1,,,,,,,,,,,,,,,*1E
$BDGSA,A,1,,,,,,,,,,,,,,,*0F
$GPGSV,1,1,02,01,00,000,26,11,00,000,41*7B
$LOGTIM,0,0.000000,0.000000,0.000000,0.000000,0.000*0A
EndT:        0
---00000022--- Acq_st=3 2019-5-25 07:31:24 
[00]  G01  7 25   2431.8 2045996.9 -0.9 -0.1 10  0         7
[01]  G11  f 41   2155.8 2045997.2  1.0  1.0  5  0 545501225
$GNGGA,000000.000,,,,,0,00,,,M,,,,0000*2B
$GNRMC,000000.000,A,,,,,,,000000,,*26
$GPGSA,A,1,,,,,,,,,,,,,,,*1E
$BDGSA,A,1,,,,,,,,,,,,,,,*0F
$GPGSV,1,1,02,01,00,000,25,11,00,000,41*78
$LOGTIM,0,0.000000,0.000000,0.000000,0.000000,0.000*0A
EndT:        0
---00000023--- Acq_st=3 2019-5-25 07:31:25 
[00]  G01  7 25   2430.1 2045996.9 -0.9 -0.1 10  0         7
[01]  G11  f 41   2153.8 2045997.2  1.0  1.0  5  0 545502225
$GNGGA,000000.000,,,,,0,00,,,M,,,,0000*2B
$GNRMC,000000.000,A,,,,,,,000000,,*26
$GPGSA,A,1,,,,,,,,,,,,,,,*1E
$BDGSA,A,1,,,,,,,,,,,,,,,*0F
$GPGSV,1,1,02,01,00,000,25,11,00,000,41*78
$LOGTIM,0,0.000000,0.000000,0.000000,0.000000,0.000*0A
EndT:        0
---00000024--- Acq_st=3 2019-5-25 07:31:26 
[00]  G01  7 25   2429.3 2045996.9 -1.0  0.0 10  0         7
[01]  G11  f 41   2152.5 2045997.2  1.0  1.0  5  0 545503225
$GNGGA,000000.000,,,,,0,00,,,M,,,,0000*2B
$GNRMC,000000.000,A,,,,,,,000000,,*26
$GPGSA,A,1,,,,,,,,,,,,,,,*1E
$BDGSA,A,1,,,,,,,,,,,,,,,*0F
$GPGSV,1,1,02,01,00,000,25,11,00,000,41*78
$LOGTIM,0,0.000000,0.000000,0.000000,0.000000,0.000*0A
EndT:        0
ch2 satid=18,max_freq = 2500,max_mean = 25196,max_phase = 897,max_value = 179697,acq ok1!
acq ok1 timeH = 0,timeL = 457795250,freq_stage = 2
---00000025--- Acq_st=3 2019-5-25 07:31:27 
[00]  G01  7 26   2426.6 2045996.8 -0.9  0.0 10  0         7
[01]  G11  f 41   2151.6 2045997.2  1.0  1.0  5  0 545504225
[02]  G19  1  7  -1889.0 2046004.1 -0.0  0.0  1  0         0
$GNGGA,000000.000,,,,,0,00,,,M,,,,0000*2B
$GNRMC,000000.000,A,,,,,,,000000,,*26
$GPGSA,A,1,,,,,,,,,,,,,,,*1E
$BDGSA,A,1,,,,,,,,,,,,,,,*0F
$GPGSV,1,1,02,01,00,000,26,11,00,000,41*7B
$LOGTIM,0,0.000000,0.000000,0.000000,0.000000,0.000*0A
EndT:        0
---00000026--- Acq_st=3 2019-5-25 07:31:28 
[00]  G01  7 25   2430.7 2045996.8 -0.4 -0.0 10  0         7
[01]  G11  f 42   2157.8 2045997.2  1.0  1.0  5  0 545505225
[02]  G19  1 19  -2594.1 2046004.5 -0.0  0.0  1  0         8
$GNGGA,000000.000,,,,,0,00,,,M,,,,0000*2B
$GNRMC,000000.000,A,,,,,,,000000,,*26
$GPGSA,A,1,,,,,,,,,,,,,,,*1E
$BDGSA,A,1,,,,,,,,,,,,,,,*0F
$GPGSV,1,1,02,01,00,000,25,11,00,000,42*7B
$LOGTIM,0,0.000000,0.000000,0.000000,0.000000,0.000*0A
EndT:        0
---00000027--- Acq_st=3 2019-5-25 07:31:29 
[00]  G01  7 25   2432.8 2045996.8 -0.8  0.0 10  0         7
[01]  G11  f 42   2157.3 2045997.2  1.0  1.0  5  0 545506225
[02]  G19  7 32  -2599.8 2046003.3  0.7  1.0  5  0         8
$GNGGA,000000.000,,,,,0,00,,,M,,,,0000*2B
$GNRMC,000000.000,A,,,,,,,000000,,*26
$GPGSA,A,1,,,,,,,,,,,,,,,*1E
$BDGSA,A,1,,,,,,,,,,,,,,,*0F
$GPGSV,1,1,03,01,00,000,25,11,00,000,42,19,00,000,32*43
$LOGTIM,0,0.000000,0.000000,0.000000,0.000000,0.000*0A
EndT:        0
---00000028--- Acq_st=3 2019-5-25 07:31:30 
[00]  G01  7 26   2428.7 2045996.8 -0.9  0.0 10  0         7
[01]  G11  f 41   2153.1 2045997.2  1.0  1.0  5  0 545507225
[02]  G19  7 37  -2604.3 2046003.3  1.0  0.9  5  0         3
$GNGGA,000000.000,,,,,0,00,,,M,,,,0000*2B
$GNRMC,000000.000,A,,,,,,,000000,,*26
$GPGSA,A,1,,,,,,,,,,,,,,,*1E
$BDGSA,A,1,,,,,,,,,,,,,,,*0F
$GPGSV,1,1,03,01,00,000,26,11,00,000,41,19,00,000,37*46
$LOGTIM,0,0.000000,0.000000,0.000000,0.000000,0.000*0A
EndT:        0
ch3 satid=21,max_freq = -1000,max_mean = 25147,max_phase = 187,max_value = 852371,acq ok1!
acq ok1 timeH = 0,timeL = 543284992,freq_stage = 4
---00000029--- Acq_st=3 2019-5-25 07:31:31 
[00]  G01  7 25   2424.9 2045996.7 -0.9  0.0 10  0         7
[01]  G11  f 41   2149.4 2045997.2  1.0  1.0  5  0 545508225
[02]  G19  7 36  -2607.3 2046003.4  1.0  0.9  5  0         3
[03]  G22  1  7   1010.2 2046001.1 -0.0  0.0  1  0         0
$GNGGA,000000.000,,,,,0,00,,,M,,,,0000*2B
$GNRMC,000000.000,A,,,,,,,000000,,*26
$GPGSA,A,1,,,,,,,,,,,,,,,*1E
$BDGSA,A,1,,,,,,,,,,,,,,,*0F
$GPGSV,1,1,03,01,00,000,25,11,00,000,41,19,00,000,36*44
$LOGTIM,0,0.000000,0.000000,0.000000,0.000000,0.000*0A
EndT:        0
---00000030--- Acq_st=3 2019-5-25 07:31:32 
[00]  G01  7 25   2423.3 2045996.9 -0.9 -0.0 10  0         7
[01]  G11  f 42   2147.9 2045997.2  1.0  1.0  5  0 545509225
[02]  G19  f 35  -2609.2 2046003.4  1.0  1.0  5  0 545509223
[03]  G22  1 28    954.1 2045998.9 -0.0  0.0  1  0        19
$GNGGA,000000.000,,,,,0,00,,,M,,,,0000*2B
$GNRMC,000000.000,A,,,,,,,000000,,*26
$GPGSA,A,1,,,,,,,,,,,,,,,*1E
$BDGSA,A,1,,,,,,,,,,,,,,,*0F
$GPGSV,1,1,03,01,00,000,25,11,00,000,42,19,00,000,35*44
$LOGTIM,0,0.000000,0.000000,0.000000,0.000000,0.000*0A
EndT:        0
---00000031--- Acq_st=3 2019-5-25 07:31:33 
[00]  G01  7 25   2427.0 2045996.6 -0.7  0.0 10  0         7
[01]  G11  f 42   2151.7 2045997.2  1.0  1.0  5  0 545510225
[02]  G19  f 35  -2605.8 2046003.4  1.0  1.0  5  0 545510223
[03]  G22  7 35    959.8 2045998.7  0.8  1.0  5  0        19
$GNGGA,000000.000,,,,,0,00,,,M,,,,0000*2B
$GNRMC,000000.000,A,,,,,,,000000,,*26
$GPGSA,A,1,,,,,,,,,,,,,,,*1E
$BDGSA,A,1,,,,,,,,,,,,,,,*0F
$GPGSV,1,1,04,01,00,000,25,11,00,000,42,19,00,000,35,22,00,000,35*75
$LOGTIM,0,0.000000,0.000000,0.000000,0.000000,0.000*0A
EndT:        0
---00000032--- Acq_st=3 2019-5-25 07:31:34 
[00]  G01  7 23   2437.2 2045996.8  0.1 -0.4 10  0         7
[01]  G11  f 41   2163.0 2045997.2  1.0  1.0  5  0 545511225
[02]  G19  f 35  -2594.9 2046003.4  1.0  1.0  5  0 545511223
[03]  G22  7 44    971.5 2045998.7  1.0  1.0  5  0         6
$GNGGA,000000.000,,,,,0,00,,,M,,,,0000*2B
$GNRMC,000000.000,A,,,,,,,000000,,*26
$GPGSA,A,1,,,,,,,,,,,,,,,*1E
$BDGSA,A,1,,,,,,,,,,,,,,,*0F
$GPGSV,1,1,04,01,00,000,23,11,00,000,41,19,00,000,35,22,00,000,44*76
$LOGTIM,0,0.000000,0.000000,0.000000,0.000000,0.000*0A
EndT:        0
---00000033--- Acq_st=3 2019-5-25 07:31:35 
[00]  G01  7 25   2437.1 2045996.8  0.7  0.0 10  0         7
[01]  G11  f 42   2161.4 2045997.2  1.0  1.0  5  0 545512225
[02]  G19  f 35  -2596.5 2046003.4  1.0  1.1  5  0 545512223
[03]  G22  7 44    970.0 2045998.7  1.0  1.0  5  0         6
$GNGGA,000000.000,,,,,0,00,,,M,,,,0000*2B
$GNRMC,000000.000,A,,,,,,,000000,,*26
$GPGSA,A,1,,,,,,,,,,,,,,,*1E
$BDGSA,A,1,,,,,,,,,,,,,,,*0F
$GPGSV,1,1,04,01,00,000,25,11,00,000,42,19,00,000,35,22,00,000,44*73
$LOGTIM,0,0.000000,0.000000,0.000000,0.000000,0.000*0A
EndT:        0
---00000034--- Acq_st=3 2019-5-25 07:31:36 
[00]  G01  7 26   2440.2 2045996.7  0.9  0.0 10  0         7
[01]  G11  f 41   2164.6 2045997.2  1.0  1.0  5  0 545513225
[02]  G19  f 35  -2593.1 2046003.4  1.0  1.0  5  0 545513223
[03]  G22  7 44    973.5 2045998.7  1.0  1.0  5  0         6
$GNGGA,000000.000,,,,,0,00,,,M,,,,0000*2B
$GNRMC,000000.000,A,,,,,,,000000,,*26
$GPGSA,A,1,,,,,,,,,,,,,,,*1E
$BDGSA,A,1,,,,,,,,,,,,,,,*0F
$GPGSV,1,1,04,01,00,000,26,11,00,000,41,19,00,000,35,22,00,000,44*73
$LOGTIM,0,0.000000,0.000000,0.000000,0.000000,0.000*0A
EndT:        0
---00000035--- Acq_st=3 2019-5-25 07:31:37 
[00]  G01  7 26   2439.9 2045996.9  0.9  0.0 10  0         7
[01]  G11  f 41   2163.8 2045997.2  1.0  1.0  5  0 545514225
[02]  G19  f 36  -2593.2 2046003.4  1.0  1.0  5  0 545514223
[03]  G22  7 44    973.8 2045998.7  1.0  1.0  5  0         6
$GNGGA,000000.000,,,,,0,00,,,M,,,,0000*2B
$GNRMC,000000.000,A,,,,,,,000000,,*26
$GPGSA,A,1,,,,,,,,,,,,,,,*1E
$BDGSA,A,1,,,,,,,,,,,,,,,*0F
$GPGSV,1,1,04,01,00,000,26,11,00,000,41,19,00,000,36,22,00,000,44*70
$LOGTIM,0,0.000000,0.000000,0.000000,0.000000,0.000*0A
EndT:        0
---00000036--- Acq_st=3 2019-5-25 07:31:38 
[00]  G01  7 25   2441.1 2045996.8  0.9 -0.1 10  0         7
[01]  G11  f 41   2165.1 2045997.2  1.0  1.0  5  0 545515225
[02]  G19  f 36  -2593.3 2046003.4  1.0  1.0  5  0 545515223
[03]  G22  f 44    975.3 2045998.7  1.0  1.0  5  0 545515226
$GNGGA,000000.000,,,,,0,00,,,M,,,,0000*2B
$GNRMC,000000.000,A,,,,,,,000000,,*26
$GPGSA,A,1,,,,,,,,,,,,,,,*1E
$BDGSA,A,1,,,,,,,,,,,,,,,*0F
$GPGSV,1,1,04,01,00,000,25,11,00,000,41,19,00,000,36,22,00,000,44*73
$LOGTIM,0,0.000000,0.000000,0.000000,0.000000,0.000*0A
EndT:        0
ch4 satid=27,max_freq = 1000,max_mean = 25184,max_phase = 623,max_value = 212104,acq ok1!
acq ok1 timeH = 0,timeL = 689137352,freq_stage = 3
---00000037--- Acq_st=3 2019-5-25 07:31:39 
[00]  G01  7 26   2440.2 2045996.8  0.9 -0.0 10  0         7
[01]  G11  f 42   2163.9 2045997.2  1.0  1.0  5  0 545516225
[02]  G19  f 36  -2593.7 2046003.4  1.0  1.0  5  0 545516223
[03]  G22  f 44    974.8 2045998.8  1.0  1.0  5  0 545516226
[04]  G28  1  7  -1067.7 2046002.8  0.1  0.0  1  0         0
$GNGGA,000000.000,,,,,0,00,,,M,,,,0000*2B
$GNRMC,000000.000,A,,,,,,,000000,,*26
$GPGSA,A,1,,,,,,,,,,,,,,,*1E
$BDGSA,A,1,,,,,,,,,,,,,,,*0F
$GPGSV,1,1,04,01,00,000,26,11,00,000,42,19,00,000,36,22,00,000,44*73
$LOGTIM,0,0.000000,0.000000,0.000000,0.000000,0.000*0A
EndT:        0
---00000038--- Acq_st=3 2019-5-25 07:31:40 
[00]  G01  7 26   2437.4 2045996.8  0.9  0.0 10  0         7
[01]  G11  f 41   2161.4 2045997.2  1.0  1.0  5  0 545517225
[02]  G19  f 36  -2596.5 2046003.4  1.0  1.0  5  0 545517223
[03]  G22  f 44    972.3 2045998.7  1.0  1.0  5  0 545517226
[04]  G28  1 26  -1120.9 2046002.0  0.1  0.0  1  0         0
$GNGGA,000000.000,,,,,0,00,,,M,,,,0000*2B
$GNRMC,000000.000,A,,,,,,,000000,,*26
$GPGSA,A,1,,,,,,,,,,,,,,,*1E
$BDGSA,A,1,,,,,,,,,,,,,,,*0F
$GPGSV,1,1,04,01,00,000,26,11,00,000,41,19,00,000,36,22,00,000,44*70
$LOGTIM,0,0.000000,0.000000,0.000000,0.000000,0.000*0A
EndT:        0
---00000039--- Acq_st=3 2019-5-25 07:31:41 
[00]  G01  7 26   2435.8 2045996.7  0.9 -0.1 10  0         7
[01]  G11  f 42   2159.0 2045997.2  1.0  1.0  5  0 545518225
[02]  G19  f 35  -2599.9 2046003.3  1.0  1.0  5  0 545518223
[03]  G22  f 44    969.8 2045998.7  1.0  1.0  5  0 545518226
[04]  G28  7 36  -1123.5 2046001.4  0.7  1.0  5  0        12
$GNGGA,000000.000,,,,,0,00,,,M,,,,0000*2B
$GNRMC,000000.000,A,,,,,,,000000,,*26
$GPGSA,A,1,,,,,,,,,,,,,,,*1E
$BDGSA,A,1,,,,,,,,,,,,,,,*0F
$GPGSV,2,1,05,01,00,000,26,11,00,000,42,19,00,000,35,22,00,000,44*72
$GPGSV,2,2,05,28,00,000,36*43
$LOGTIM,0,0.000000,0.000000,0.000000,0.000000,0.000*0A
EndT:        0
---00000040--- Acq_st=3 2019-5-25 07:31:42 
[00]  G01  7 26   2432.2 2045996.8  0.8 -0.0 10  0         7
[01]  G11  f 42   2155.3 2045997.2  1.0  1.0  5  0 545519225
[02]  G19  f 34  -2603.4 2046003.4  1.0  0.9  5  0 545519223
[03]  G22  f 44    966.7 2045998.7  1.0  1.0  5  0 545519226
[04]  G28  7 37  -1126.4 2046001.5  1.0  1.0  5  0        12
$GNGGA,000000.000,,,,,0,00,,,M,,,,0000*2B
$GNRMC,000000.000,A,,,,,,,000000,,*26
$GPGSA,A,1,,,,,,,,,,,,,,,*1E
$BDGSA,A,1,,,,,,,,,,,,,,,*0F
$GPGSV,2,1,05,01,00,000,26,11,00,000,42,19,00,000,34,22,00,000,44*73
$GPGSV,2,2,05,28,00,000,37*42
$LOGTIM,0,0.000000,0.000000,0.000000,0.000000,0.000*0A
EndT:        0
---00000041--- Acq_st=3 2019-5-25 07:31:43 
[00]  G01  7 26   2434.6 2045996.8  0.9 -0.0 10  0         7
[01]  G11  f 41   2157.3 2045997.2  1.0  1.0  5  0 545520225
[02]  G19  f 35  -2600.4 2046003.4  1.0  0.9  5  0 545520223
[03]  G22  f 44    969.6 2045998.7  1.0  1.0  5  0 545520226
[04]  G28  7 37  -1124.3 2046001.4  1.0  1.0  5  0        12
$GNGGA,000000.000,,,,,0,00,,,M,,,,0000*2B
$GNRMC,000000.000,A,,,,,,,000000,,*26
$GPGSA,A,1,,,,,,,,,,,,,,,*1E
$BDGSA,A,1,,,,,,,,,,,,,,,*0F
$GPGSV,2,1,05,01,00,000,26,11,00,000,41,19,00,000,35,22,00,000,44*71
$GPGSV,2,2,05,28,00,000,37*42
$LOGTIM,0,0.000000,0.000000,0.000000,0.000000,0.000*0A
EndT:        0
---00000042--- Acq_st=3 2019-5-25 07:31:44 
[00]  G01  7 26   2430.1 2045996.9  0.8  0.0 10  0         7
[01]  G11  f 42   2152.8 2045997.2  1.0  1.0  5  0 545521225
[02]  G19  f 35  -2604.8 2046003.4  1.0  0.9  5  0 545521223
[03]  G22  f 44    965.6 2045998.7  1.0  1.0  5  0 545521226
[04]  G28  f 37  -1127.7 2046001.5  1.0  1.0  5  0 545521232
$GNGGA,000000.000,,,,,0,00,,,M,,,,0000*2B
$GNRMC,000000.000,A,,,,,,,000000,,*26
$GPGSA,A,1,,,,,,,,,,,,,,,*1E
$BDGSA,A,1,,,,,,,,,,,,,,,*0F
$GPGSV,2,1,05,01,00,000,26,11,00,000,42,19,00,000,35,22,00,000,44*72
$GPGSV,2,2,05,28,00,000,37*42
$LOGTIM,0,0.000000,0.000000,0.000000,0.000000,0.000*0A
EndT:        0
---00000043--- Acq_st=3 2019-5-25 07:31:45 
[00]  G01  7 27   2425.5 2045996.8  0.2  0.0 10  0         7
[01]  G11  f 42   2146.2 2045997.2  1.0  1.0  5  0 545522225
[02]  G19  f 35  -2611.9 2046003.4  1.0  0.9  5  0 545522223
[03]  G22  f 45    959.8 2045998.7  1.0  1.0  5  0 545522226
[04]  G28  f 37  -1134.1 2046001.5  1.0  1.0  5  0 545522232
$GNGGA,000000.000,,,,,0,00,,,M,,,,0000*2B
$GNRMC,000000.000,A,,,,,,,000000,,*26
$GPGSA,A,1,,,,,,,,,,,,,,,*1E
$BDGSA,A,1,,,,,,,,,,,,,,,*0F
$GPGSV,2,1,05,01,00,000,27,11,00,000,42,19,00,000,35,22,00,000,45*72
$GPGSV,2,2,05,28,00,000,37*42
$LOGTIM,0,0.000000,0.000000,0.000000,0.000000,0.000*0A
EndT:        0
---00000044--- Acq_st=3 2019-5-25 07:31:46 
[00]  G01  7 26   2429.0 2045996.8  0.7  0.0 10  0         7
[01]  G11  f 42   2151.0 2045997.2  1.0  1.0  5  0 545523225
[02]  G19  f 35  -2606.3 2046003.4  1.0  1.0  5  0 545523223
[03]  G22  f 44    965.0 2045998.8  1.0  1.0  5  0 545523226
[04]  G28  f 37  -1129.6 2046001.5  1.0  1.0  5  0 545523232
$GNGGA,000000.000,,,,,0,00,,,M,,,,0000*2B
$GNRMC,000000.000,A,,,,,,,000000,,*26
$GPGSA,A,1,,,,,,,,,,,,,,,*1E
$BDGSA,A,1,,,,,,,,,,,,,,,*0F
$GPGSV,2,1,05,01,00,000,26,11,00,000,42,19,00,000,35,22,00,000,44*72
$GPGSV,2,2,05,28,00,000,37*42
$LOGTIM,0,0.000000,0.000000,0.000000,0.000000,0.000*0A
EndT:        0
---00000045--- Acq_st=3 2019-5-25 07:31:47 
[00]  G01  7 26   2428.1 2045996.8  0.9  0.0 10  0         7
[01]  G11  f 42   2151.4 2045997.2  1.0  1.0  5  0 545524225
[02]  G19  f 35  -2606.0 2046003.4  1.0  0.9  5  0 545524223
[03]  G22  f 44    965.7 2045998.8  1.0  1.0  5  0 545524226
[04]  G28  f 37  -1128.0 2046001.4  1.0  1.0  5  0 545524232
$GNGGA,000000.000,,,,,0,00,,,M,,,,0000*2B
$GNRMC,000000.000,A,,,,,,,000000,,*26
$GPGSA,A,1,,,,,,,,,,,,,,,*1E
$BDGSA,A,1,,,,,,,,,,,,,,,*0F
$GPGSV,2,1,05,01,00,000,26,11,00,000,42,19,00,000,35,22,00,000,44*72
$GPGSV,2,2,05,28,00,000,37*42
$LOGTIM,0,0.000000,0.000000,0.000000,0.000000,0.000*0A
EndT:        0
---00000046--- Acq_st=3 2019-5-25 07:31:48 
[00]  G01  7 26   2426.7 2045996.8  0.9 -0.0 10  0         7
[01]  G11  f 42   2150.0 2045997.2  1.0  1.0  5  0 545525225
[02]  G19  f 35  -2608.0 2046003.4  1.0  1.0  5  0 545525223
[03]  G22  f 45    965.0 2045998.7  1.0  1.0  5  0 545525226
[04]  G28  f 37  -1129.4 2046001.5  1.0  1.0  5  0 545525232
$GNGGA,000000.000,,,,,0,00,,,M,,,,0000*2B
$GNRMC,000000.000,A,,,,,,,000000,,*26
$GPGSA,A,1,,,,,,,,,,,,,,,*1E
$BDGSA,A,1,,,,,,,,,,,,,,,*0F
$GPGSV,2,1,05,01,00,000,26,11,00,000,42,19,00,000,35,22,00,000,45*73
$GPGSV,2,2,05,28,00,000,37*42
$LOGTIM,0,0.000000,0.000000,0.000000,0.000000,0.000*0A
EndT:        0
---00000047--- Acq_st=3 2019-5-25 07:31:49 
[00]  G01  7 26   2433.0 2045996.8  0.7  0.0 10  0         7
[01]  G11  f 42   2156.1 2045997.2  1.0  1.0  5  0 545526225
[02]  G19  f 35  -2602.2 2046003.3  1.0  0.9  5  0 545526223
[03]  G22  f 44    971.3 2045998.7  1.0  1.0  5  0 545526226
[04]  G28  f 37  -1122.4 2046001.4  1.0  1.0  5  0 545526232
$GNGGA,000000.000,,,,,0,00,,,M,,,,0000*2B
$GNRMC,000000.000,A,,,,,,,000000,,*26
$GPGSA,A,1,,,,,,,,,,,,,,,*1E
$BDGSA,A,1,,,,,,,,,,,,,,,*0F
$GPGSV,2,1,05,01,00,000,26,11,00,000,42,19,00,000,35,22,00,000,44*72
$GPGSV,2,2,05,28,00,000,37*42
$LOGTIM,0,0.000000,0.000000,0.000000,0.000000,0.000*0A
EndT:        0
---00000048--- Acq_st=3 2019-5-25 07:31:50 
[00]  G01  7 26   2432.3 2045996.8  0.9  0.0 10  0         7
[01]  G11  f 41   2155.7 2045997.2  1.0  1.0  5  0 545527225
[02]  G19  f 36  -2602.6 2046003.3  1.0  1.0  5  0 545527223
[03]  G22  f 44    971.3 2045998.7  1.0  1.0  5  0 545527226
[04]  G28  f 37  -1122.6 2046001.4  1.0  1.0  5  0 545527232
$GNGGA,000000.000,,,,,0,00,,,M,,,,0000*2B
$GNRMC,000000.000,A,,,,,,,000000,,*26
$GPGSA,A,1,,,,,,,,,,,,,,,*1E
$BDGSA,A,1,,,,,,,,,,,,,,,*0F
$GPGSV,2,1,05,01,00,000,26,11,00,000,41,19,00,000,36,22,00,000,44*72
$GPGSV,2,2,05,28,00,000,37*42
$LOGTIM,0,0.000000,0.000000,0.000000,0.000000,0.000*0A
EndT:        0
---00000049--- Acq_st=3 2019-5-25 07:31:51 
[00]  G01  7 26   2429.6 2045996.8  0.9  0.0 10  0         7
[01]  G11  f 42   2153.0 2045997.2  1.0  1.0  5  0 545528225
[02]  G19  f 35  -2606.1 2046003.4  1.0  1.0  5  0 545528223
[03]  G22  f 44    968.8 2045998.7  1.0  1.0  5  0 545528226
[04]  G28  f 37  -1124.8 2046001.5  1.0  1.0  5  0 545528232
$GNGGA,000000.000,,,,,0,00,,,M,,,,0000*2B
$GNRMC,000000.000,A,,,,,,,000000,,*26
$GPGSA,A,1,,,,,,,,,,,,,,,*1E
$BDGSA,A,1,,,,,,,,,,,,,,,*0F
$GPGSV,2,1,05,01,00,000,26,11,00,000,42,19,00,000,35,22,00,000,44*72
$GPGSV,2,2,05,28,00,000,37*42
$LOGTIM,0,0.000000,0.000000,0.000000,0.000000,0.000*0A
EndT:        0
---00000050--- Acq_st=3 2019-5-25 07:31:52 
[00]  G01  7 26   2429.5 2045996.9  1.0  0.0 10  0         7
[01]  G11  f 42   2153.1 2045997.2  1.0  1.0  5  0 545529225
[02]  G19  f 36  -2605.9 2046003.4  1.0  0.9  5  0 545529223
[03]  G22  f 45    969.6 2045998.7  1.0  1.0  5  0 545529226
[04]  G28  f 38  -1124.9 2046001.5  1.0  1.0  5  0 545529232
$GNGGA,000000.000,,,,,0,00,,,M,,,,0000*2B
$GNRMC,000000.000,A,,,,,,,000000,,*26
$GPGSA,A,1,,,,,,,,,,,,,,,*1E
$BDGSA,A,1,,,,,,,,,,,,,,,*0F
$GPGSV,2,1,05,01,00,000,26,11,00,000,42,19,00,000,36,22,00,000,45*70
$GPGSV,2,2,05,28,00,000,38*4D
$LOGTIM,0,0.000000,0.000000,0.000000,0.000000,0.000*0A
EndT:        0
---00000051--- Acq_st=3 2019-5-25 07:31:53 
[00]  G01  7 26   2433.6 2045996.8  0.8  0.0 10  0         7
[01]  G11  f 42   2156.8 2045997.2  1.0  1.0  5  0 545530225
[02]  G19  f 36  -2601.9 2046003.4  1.0  0.9  5  0 545530223
[03]  G22  f 45    973.6 2045998.7  1.0  1.0  5  0 545530226
[04]  G28  f 38  -1120.6 2046001.5  1.0  1.0  5  0 545530232
$GNGGA,000000.000,,,,,0,00,,,M,,,,0000*2B
$GNRMC,000000.000,A,,,,,,,000000,,*26
$GPGSA,A,1,,,,,,,,,,,,,,,*1E
$BDGSA,A,1,,,,,,,,,,,,,,,*0F
$GPGSV,2,1,05,01,00,000,26,11,00,000,42,19,00,000,36,22,00,000,45*70
$GPGSV,2,2,05,28,00,000,38*4D
$LOGTIM,0,0.000000,0.000000,0.000000,0.000000,0.000*0A
EndT:        0
---00000052--- Acq_st=3 2019-5-25 07:31:54 
[00]  G01  7 26   2431.9 2045996.8  0.9 -0.0 10  0         7
[01]  G11  f 42   2153.7 2045997.2  1.0  1.0  5  0 545531225
[02]  G19  f 36  -2605.0 2046003.4  1.0  1.0  5  0 545531223
[03]  G22  f 45    971.2 2045998.8  1.0  1.0  5  0 545531226
[04]  G28  f 38  -1123.0 2046001.5  1.0  1.0  5  0 545531232
$GNGGA,000000.000,,,,,0,00,,,M,,,,0000*2B
$GNRMC,000000.000,A,,,,,,,000000,,*26
$GPGSA,A,1,,,,,,,,,,,,,,,*1E
$BDGSA,A,1,,,,,,,,,,,,,,,*0F
$GPGSV,2,1,05,01,00,000,26,11,00,000,42,19,00,000,36,22,00,000,45*70
$GPGSV,2,2,05,28,00,000,38*4D
$LOGTIM,0,0.000000,0.000000,0.000000,0.000000,0.000*0A
EndT:        0
---00000053--- Acq_st=3 2019-5-25 07:31:55 
[00]  G01  7 26   2433.2 2045996.8  0.9 -0.1 10  0         7
[01]  G11  f 42   2155.2 2045997.2  1.0  1.0  5  0 545532225
[02]  G19  f 36  -2603.1 2046003.4  1.0  1.0  5  0 545532223
[03]  G22  f 44    973.0 2045998.7  1.0  1.0  5  0 545532226
[04]  G28  f 38  -1120.9 2046001.5  1.0  1.0  5  0 545532232
$GNGGA,000000.000,,,,,0,00,,,M,,,,0000*2B
$GNRMC,000000.000,A,,,,,,,000000,,*26
$GPGSA,A,1,,,,,,,,,,,,,,,*1E
$BDGSA,A,1,,,,,,,,,,,,,,,*0F
$GPGSV,2,1,05,01,00,000,26,11,00,000,42,19,00,000,36,22,00,000,44*71
$GPGSV,2,2,05,28,00,000,38*4D
$LOGTIM,0,0.000000,0.000000,0.000000,0.000000,0.000*0A
EndT:        0
---00000054--- Acq_st=3 2019-5-25 07:31:56 
[00]  G01  7 26   2433.0 2045996.8  0.9 -0.0 10  0         7
[01]  G11  f 42   2155.0 2045997.2  1.0  1.0  5  0 545533225
[02]  G19  f 37  -2603.9 2046003.3  1.0  1.0  5  0 545533223
[03]  G22  f 45    973.0 2045998.8  1.0  1.0  5  0 545533226
[04]  G28  f 38  -1120.9 2046001.5  1.0  1.0  5  0 545533232
$GNGGA,000000.000,,,,,0,00,,,M,,,,0000*2B
$GNRMC,000000.000,A,,,,,,,000000,,*26
$GPGSA,A,1,,,,,,,,,,,,,,,*1E
$BDGSA,A,1,,,,,,,,,,,,,,,*0F
$GPGSV,2,1,05,01,00,000,26,11,00,000,42,19,00,000,37,22,00,000,45*71
$GPGSV,2,2,05,28,00,000,38*4D
$LOGTIM,0,0.000000,0.000000,0.000000,0.000000,0.000*0A
EndT:        0
---00000055--- Acq_st=3 2019-5-25 07:31:57 
[00]  G01  7 26   2435.1 2045996.8  0.8 -0.1 10  0         7
[01]  G11  f 42   2157.0 2045997.2  1.0  1.0  5  0 545534225
[02]  G19  f 37  -2602.2 2046003.3  1.0  1.0  5  0 545534223
[03]  G22  f 44    975.6 2045998.8  1.0  1.0  5  0 545534226
[04]  G28  f 38  -1118.0 2046001.5  1.0  1.0  5  0 545534232
$GNGGA,000000.000,,,,,0,00,,,M,,,,0000*2B
$GNRMC,000000.000,A,,,,,,,000000,,*26
$GPGSA,A,1,,,,,,,,,,,,,,,*1E
$BDGSA,A,1,,,,,,,,,,,,,,,*0F
$GPGSV,2,1,05,01,00,000,26,11,00,000,42,19,00,000,37,22,00,000,44*70
$GPGSV,2,2,05,28,00,000,38*4D
$LOGTIM,0,0.000000,0.000000,0.000000,0.000000,0.000*0A
EndT:        0
---00000056--- Acq_st=3 2019-5-25 07:31:58 
[00]  G01  7 26   2437.3 2045996.7  0.9  0.0 10  0         7
[01]  G11  f 42   2159.0 2045997.2  1.0  1.0  5  0 545535225
[02]  G19  f 37  -2600.3 2046003.4  1.0  1.0  5  0 545535223
[03]  G22  f 45    978.1 2045998.7  1.0  1.0  5  0 545535226
[04]  G28  f 37  -1116.3 2046001.5  1.0  1.0  5  0 545535232
$GNGGA,000000.000,,,,,0,00,,,M,,,,0000*2B
$GNRMC,000000.000,A,,,,,,,000000,,*26
$GPGSA,A,1,,,,,,,,,,,,,,,*1E
$BDGSA,A,1,,,,,,,,,,,,,,,*0F
$GPGSV,2,1,05,01,00,000,26,11,00,000,42,19,00,000,37,22,00,000,45*71
$GPGSV,2,2,05,28,00,000,37*42
$LOGTIM,0,0.000000,0.000000,0.000000,0.000000,0.000*0A
EndT:        0
---00000057--- Acq_st=3 2019-5-25 07:31:59 
[00]  G01  7 26   2435.4 2045996.9  0.9  0.0 10  0         7
[01]  G11  f 42   2157.6 2045997.2  1.0  1.0  5  0 545536225
[02]  G19  f 38  -2602.0 2046003.3  1.0  1.0  5  0 545536223
[03]  G22  f 45    977.1 2045998.7  1.0  1.0  5  0 545536226
[04]  G28  f 38  -1117.5 2046001.5  1.0  1.0  5  0 545536232
$GNGGA,000000.000,,,,,0,00,,,M,,,,0000*2B
$GNRMC,000000.000,A,,,,,,,000000,,*26
$GPGSA,A,1,,,,,,,,,,,,,,,*1E
$BDGSA,A,1,,,,,,,,,,,,,,,*0F
$GPGSV,2,1,05,01,00,000,26,11,00,000,42,19,00,000,38,22,00,000,45*7E
$GPGSV,2,2,05,28,00,000,38*4D
$LOGTIM,0,0.000000,0.000000,0.000000,0.000000,0.000*0A
EndT:        0
---00000058--- Acq_st=3 2019-5-25 07:32:0 
[00]  G01  7 26   2433.8 2045996.8  0.9  0.0 10  0         7
[01]  G11  f 42   2155.0 2045997.2  1.0  1.0  5  0 545537225
[02]  G19  f 37  -2603.5 2046003.4  1.0  1.0  5  0 545537223
[03]  G22  f 44    975.3 2045998.7  1.0  1.0  5  0 545537226
[04]  G28  f 38  -1119.0 2046001.5  1.0  1.0  5  0 545537232
lsq: nits= 4
$GNGGA,073200.301,3112.7101,N,12136.4398,E,1,04,17.5,36.2,M,,,,0000*12
$GNRMC,073200.301,A,3112.7101,N,12136.4398,E,1.47,0.00,250519,,*16
$GPGSA,A,3,11,19,22,28,,,,,,,,,21.1,17.5,11.9*08
$BDGSA,A,3,,,,,,,,,,,,,21.1,17.5,11.9*1B
$GPGSV,2,1,05,01,00,000,26,11,00,000,42,19,00,000,37,22,00,000,44*70
$GPGSV,2,2,05,28,00,000,38*4D
$LOGTIM,1,7481259.193122,0.000000,0.000000,0.000000,-63.784*16
EndT:        0
---00000059--- Acq_st=3 2019-5-25 07:32:1 
[00]  G01  7 26   2429.5 2045996.8  0.9 -0.0 10  0         7
[01]  G11  f 42   2152.3 2045997.2  1.0  1.0  5  0 545538225
[02]  G19  f 37  -2606.8 2046003.4  1.0  0.9  5  0 545538223
[03]  G22  f 44    972.9 2045998.7  1.0  1.0  5  0 545538226
[04]  G28  f 37  -1121.7 2046001.5  1.0  1.0  5  0 545538232
lsq: nits= 4
$GNGGA,073202.000,3112.7122,N,12136.4394,E,1,04,17.6,39.5,M,,,,0000*14
$GNRMC,073202.000,A,3112.7122,N,12136.4394,E,0.26,0.00,250519,,*1D
$GPGSA,A,3,11,19,22,28,,,,,,,,,21.2,17.6,11.9*08
$BDGSA,A,3,,,,,,,,,,,,,21.2,17.6,11.9*1B
$GPGSV,2,1,05,01,00,000,26,11,00,000,42,19,00,000,37,22,00,000,44*70
$GPGSV,2,2,05,28,00,000,37*42
$LOGTIM,1,-105.260504,0.000000,0.000000,0.000000,-64.188*39
EndT:        0
---00000060--- Acq_st=3 2019-5-25 07:32:2 
[00]  G01  7 25   2428.3 2045996.9  0.9 -0.0 10  0         6
[01]  G11  f 42   2151.1 2045997.2  1.0  1.0  5  0 545539924
[02]  G19  f 37  -2608.3 2046003.4  1.0  1.0  5  0 545539922
[03]  G22  f 44    972.0 2045998.7  1.0  1.0  5  0 545539925
[04]  G28  f 37  -1122.7 2046001.4  1.0  0.9  5  0 545539931
lsq: nits= 4
$GNGGA,073203.000,3112.7032,N,12136.4388,E,1,04,17.6,25.5,M,,,,0000*15
$GNRMC,073203.000,A,3112.7032,N,12136.4388,E,0.19,0.00,250519,,*1D
$GPGSA,A,3,11,19,22,28,,,,,,,,,21.3,17.6,12.0*03
$BDGSA,A,3,,,,,,,,,,,,,21.3,17.6,12.0*10
$GPGSV,2,1,05,01,00,000,25,11,30,055,42,19,24,299,37,22,40,065,44*73
$GPGSV,2,2,05,28,79,304,37*4B
$LOGTIM,1,-184.772368,0.000000,0.000000,0.000000,-63.969*3A
EndT:        0
---00000061--- Acq_st=3 2019-5-25 07:32:3 
[00]  G01  7 26   2429.9 2045996.8  0.9  0.0 10  0         6
[01]  G11  f 42   2152.4 2045997.2  1.0  1.0  5  0 545540924
[02]  G19  f 36  -2607.3 2046003.4  1.0  1.0  5  0 545540922
[03]  G22  f 44    974.1 2045998.7  1.0  1.0  5  0 545540925
[04]  G28  f 38  -1120.9 2046001.5  1.0  1.0  5  0 545540931
lsq: nits= 4
$GNGGA,073204.000,3112.7104,N,12136.4385,E,1,04,17.7,31.5,M,,,,0000*1F
$GNRMC,073204.000,A,3112.7104,N,12136.4385,E,0.30,0.00,250519,,*18
$GPGSA,A,3,11,19,22,28,,,,,,,,,21.4,17.7,12.0*05
$BDGSA,A,3,,,,,,,,,,,,,21.4,17.7,12.0*16
$GPGSV,2,1,05,01,00,000,26,11,30,055,42,19,24,299,36,22,40,065,44*71
$GPGSV,2,2,05,28,79,304,38*44
$LOGTIM,1,-240.629713,0.000000,0.000000,0.000000,-63.505*30
EndT:        0
---00000062--- Acq_st=3 2019-5-25 07:32:4 
[00]  G01  7 26   2434.5 2045996.9  0.8  0.0 10  0         6
[01]  G11  f 42   2156.7 2045997.2  1.0  1.0  5  0 545541924
[02]  G19  f 36  -2603.7 2046003.4  1.0  1.0  5  0 545541922
[03]  G22  f 44    978.5 2045998.7  1.0  1.0  5  0 545541925
[04]  G28  f 37  -1115.9 2046001.5  1.0  1.0  5  0 545541931
lsq: nits= 4
$GNGGA,073205.000,3112.7138,N,12136.4377,E,1,04,17.7,38.1,M,,,,0000*11
$GNRMC,073205.000,A,3112.7138,N,12136.4377,E,0.76,0.00,250519,,*19
$GPGSA,A,3,11,19,22,28,,,,,,,,,21.4,17.7,12.0*05
$BDGSA,A,3,,,,,,,,,,,,,21.4,17.7,12.0*16
$GPGSV,2,1,05,01,00,000,26,11,30,055,42,19,24,299,36,22,40,065,44*71
$GPGSV,2,2,05,28,79,304,37*4B
$LOGTIM,1,-298.462561,0.000000,0.000000,0.000000,-62.154*3E
EndT:        0
---00000063--- Acq_st=3 2019-5-25 07:32:5 
[00]  G01  7 25   2438.3 2045996.9  0.4 -0.0 10  0         6
[01]  G11  f 42   2161.3 2045997.1  1.0  1.0  5  0 545542924
[02]  G19  f 36  -2598.3 2046003.4  1.0  1.0  5  0 545542922
[03]  G22  f 45    983.5 2045998.7  1.0  1.0  5  0 545542925
[04]  G28  f 37  -1111.5 2046001.5  1.0  0.9  5  0 545542931
lsq: nits= 4
$GNGGA,073206.000,3112.7252,N,12136.4370,E,1,04,17.8,55.4,M,,,,0000*1B
$GNRMC,073206.000,A,3112.7252,N,12136.4370,E,1.16,0.00,250519,,*15
$GPGSA,A,3,11,19,22,28,,,,,,,,,21.5,17.8,12.1*0A
$BDGSA,A,3,,,,,,,,,,,,,21.5,17.8,12.1*19
$GPGSV,2,1,05,01,00,000,25,11,30,055,42,19,24,299,36,22,40,065,45*73
$GPGSV,2,2,05,28,79,304,37*4B
$LOGTIM,1,-343.942926,0.000000,0.000000,0.000000,-63.124*3F
EndT:        0
---00000064--- Acq_st=3 2019-5-25 07:32:6 
[00]  G01  7 26   2436.7 2045996.8  1.0  0.0 10  0         6
[01]  G11  f 41   2158.8 2045997.2  1.0  1.0  5  0 545543924
[02]  G19  f 37  -2600.4 2046003.4  1.0  1.0  5  0 545543922
[03]  G22  f 44    982.2 2045998.8  1.0  1.0  5  0 545543925
[04]  G28  f 37  -1112.7 2046001.4  1.0  1.0  5  0 545543931
lsq: nits= 4
$GNGGA,073207.000,3112.7330,N,12136.4360,E,1,04,17.8,68.2,M,,,,0000*16
$GNRMC,073207.000,A,3112.7330,N,12136.4360,E,0.19,0.00,250519,,*1E
$GPGSA,A,3,11,19,22,28,,,,,,,,,21.6,17.8,12.1*09
$BDGSA,A,3,,,,,,,,,,,,,21.6,17.8,12.1*1A
$GPGSV,2,1,05,01,00,000,26,11,30,055,41,19,24,299,37,22,40,065,44*73
$GPGSV,2,2,05,28,79,304,37*4B
$LOGTIM,1,-395.047935,0.000000,0.000000,0.000000,-62.591*31
EndT:        0
---00000065--- Acq_st=3 2019-5-25 07:32:7 
[00]  G01  7 26   2438.5 2045996.7  0.9  0.0 10  0         6
[01]  G11  f 41   2161.2 2045997.2  1.0  1.0  5  0 545544924
[02]  G19  f 36  -2598.6 2046003.4  1.0  1.0  5  0 545544922
[03]  G22  f 44    984.2 2045998.7  1.0  1.0  5  0 545544925
[04]  G28  f 37  -1110.9 2046001.4  1.0  1.0  5  0 545544931
lsq: nits= 4
$GNGGA,073208.000,3112.7313,N,12136.4363,E,1,04,17.9,66.0,M,,,,0000*16
$GNRMC,073208.000,A,3112.7313,N,12136.4363,E,0.78,0.00,250519,,*14
$GPGSA,A,3,11,19,22,28,,,,,,,,,21.6,17.9,12.2*0B
$BDGSA,A,3,,,,,,,,,,,,,21.6,17.9,12.2*18
$GPGSV,2,1,05,01,00,000,26,11,30,055,41,19,24,299,36,22,40,065,44*72
$GPGSV,2,2,05,28,79,304,37*4B
$LOGTIM,1,-458.867274,0.000000,0.000000,0.000000,-62.941*32
EndT:        0
---00000066--- Acq_st=3 2019-5-25 07:32:8 
[00]  G01  7 26   2437.6 2045996.8  0.9  0.0 10  0         6
[01]  G11  f 42   2158.7 2045997.2  1.0  1.0  5  0 545545924
[02]  G19  f 36  -2600.4 2046003.4  1.0  1.0  5  0 545545922
[03]  G22  f 44    982.3 2045998.8  1.0  1.0  5  0 545545925
[04]  G28  f 37  -1112.1 2046001.4  1.0  1.0  5  0 545545931
lsq: nits= 4
$GNGGA,073209.000,3112.7306,N,12136.4362,E,1,04,17.9,64.5,M,,,,0000*15
$GNRMC,073209.000,A,3112.7306,N,12136.4362,E,0.92,0.00,250519,,*14
$GPGSA,A,3,11,19,22,28,,,,,,,,,21.7,17.9,12.2*0A
$BDGSA,A,3,,,,,,,,,,,,,21.7,17.9,12.2*19
$GPGSV,2,1,05,01,00,000,26,11,30,055,42,19,24,299,36,22,40,065,44*71
$GPGSV,2,2,05,28,79,304,37*4B
$LOGTIM,1,-523.862878,0.000000,0.000000,0.000000,-63.091*39
EndT:        0
---00000067--- Acq_st=3 2019-5-25 07:32:9 
[00]  G01  7 26   2433.6 2045996.8  0.8 -0.0 10  0         6
[01]  G11  f 42   2154.9 2045997.2  1.0  1.0  5  0 545546924
[02]  G19  f 35  -2605.3 2046003.4  1.0  1.0  5  0 545546922
[03]  G22  f 45    978.8 2045998.7  1.0  1.0  5  0 545546925
[04]  G28  f 36  -1115.8 2046001.4  1.0  0.9  5  0 545546931
lsq: nits= 4
$GNGGA,073210.000,3112.7338,N,12136.4368,E,1,04,18.0,71.9,M,,,,0000*14
$GNRMC,073210.000,A,3112.7338,N,12136.4368,E,1.71,0.00,250519,,*17
$GPGSA,A,3,11,19,22,28,,,,,,,,,21.8,18.0,12.2*03
$BDGSA,A,3,,,,,,,,,,,,,21.8,18.0,12.2*10
$GPGSV,2,1,05,01,00,000,26,11,30,056,42,19,24,299,35,22,40,065,45*70
$GPGSV,2,2,05,28,79,304,36*4A
$LOGTIM,1,-580.938303,0.000000,0.000000,0.000000,-64.818*37
EndT:        0
---00000068--- Acq_st=3 2019-5-25 07:32:10 
[00]  G01  7 26   2430.9 2045996.8  0.9 -0.0 10  0         6
[01]  G11  f 42   2152.2 2045997.2  1.0  1.0  5  0 545547924
[02]  G19  f 35  -2607.5 2046003.4  1.0  1.0  5  0 545547922
[03]  G22  f 45    976.9 2045998.7  1.0  1.0  5  0 545547925
[04]  G28  f 37  -1117.8 2046001.4  1.0  1.0  5  0 545547931
lsq: nits= 4
$GNGGA,073211.000,3112.7420,N,12136.4363,E,1,04,18.1,81.9,M,,,,0000*1E
$GNRMC,073211.000,A,3112.7420,N,12136.4363,E,0.21,0.00,250519,,*17
$GPGSA,A,3,11,19,22,28,,,,,,,,,21.8,18.1,12.3*03
$BDGSA,A,3,,,,,,,,,,,,,21.8,18.1,12.3*10
$GPGSV,2,1,05,01,00,000,26,11,30,056,42,19,24,299,35,22,40,065,45*70
$GPGSV,2,2,05,28,79,304,37*4B
$LOGTIM,1,-635.062445,0.000000,0.000000,0.000000,-64.562*39
EndT:        0
---00000069--- Acq_st=3 2019-5-25 07:32:11 
[00]  G01  7 26   2430.2 2045996.8  1.0 -0.0 10  0         6
[01]  G11  f 41   2151.4 2045997.2  1.0  1.0  5  0 545548924
[02]  G19  f 34  -2609.0 2046003.4  1.0  0.9  5  0 545548922
[03]  G22  f 45    976.4 2045998.7  1.0  1.0  5  0 545548925
[04]  G28  f 37  -1118.8 2046001.5  1.0  1.0  5  0 545548931
lsq: nits= 4
$GNGGA,073212.000,3112.7458,N,12136.4364,E,1,04,18.1,90.5,M,,,,0000*19
$GNRMC,073212.000,A,3112.7458,N,12136.4364,E,2.89,0.00,250519,,*1C
$GPGSA,A,3,11,19,22,28,,,,,,,,,21.9,18.1,12.3*02
$BDGSA,A,3,,,,,,,,,,,,,21.9,18.1,12.3*11
$GPGSV,2,1,05,01,00,000,26,11,30,056,41,19,24,299,34,22,40,065,45*72
$GPGSV,2,2,05,28,79,304,37*4B
$LOGTIM,1,-691.571330,0.000000,0.000000,0.000000,-65.345*37
EndT:        0
---00000070--- Acq_st=3 2019-5-25 07:32:12 
[00]  G01  7 26   2431.4 2045996.8  0.9 -0.0 10  0         6
[01]  G11  f 41   2152.1 2045997.3  1.0  1.0  5  0 545549924
[02]  G19  f 34  -2607.1 2046003.4  1.0  0.9  5  0 545549922
[03]  G22  f 44    977.7 2045998.7  1.0  1.0  5  0 545549925
[04]  G28  f 37  -1117.8 2046001.4  1.0  1.0  5  0 545549931
lsq: nits= 4
$GNGGA,073213.000,3112.7556,N,12136.4361,E,1,04,18.2,100.6,M,,,,0000*2A
$GNRMC,073213.000,A,3112.7556,N,12136.4361,E,2.05,0.00,250519,,*13
$GPGSA,A,3,11,19,22,28,,,,,,,,,22.0,18.2,12.4*0C
$BDGSA,A,3,,,,,,,,,,,,,22.0,18.2,12.4*1F
$GPGSV,2,1,05,01,00,000,26,11,30,056,41,19,24,299,34,22,40,065,44*73
$GPGSV,2,2,05,28,79,304,37*4B
$LOGTIM,1,-743.670065,0.000000,0.000000,0.000000,-62.452*3E
EndT:        0
---00000071--- Acq_st=3 2019-5-25 07:32:13 
[00]  G01  7 26   2437.3 2045996.8  0.8  0.0 10  0         6
[01]  G11  f 41   2158.6 2045997.2  1.0  1.0  5  0 545550924
[02]  G19  f 34  -2601.1 2046003.4  1.0  1.0  5  0 545550922
[03]  G22  f 45    984.5 2045998.7  1.0  1.0  5  0 545550925
[04]  G28  f 37  -1111.8 2046001.5  1.0  1.0  5  0 545550931
lsq: nits= 4
$GNGGA,073214.000,3112.7584,N,12136.4351,E,1,04,18.2,106.0,M,,,,0000*21
$GNRMC,073214.000,A,3112.7584,N,12136.4351,E,1.02,0.00,250519,,*1C
$GPGSA,A,3,11,19,22,28,,,,,,,,,22.0,18.2,12.4*0C
$BDGSA,A,3,,,,,,,,,,,,,22.0,18.2,12.4*1F
$GPGSV,2,1,05,01,00,000,26,11,30,056,41,19,24,299,34,22,40,065,45*72
$GPGSV,2,2,05,28,79,304,37*4B
$LOGTIM,1,-801.348375,0.000000,0.000000,0.000000,-61.004*3F
EndT:        0
---00000072--- Acq_st=3 2019-5-25 07:32:14 
[00]  G01  7 24   2444.8 2045996.7  0.0 -0.4 10  0         6
[01]  G11  f 42   2169.3 2045997.2  1.0  1.0  5  0 545551924
[02]  G19  f 34  -2590.5 2046003.3  1.0  0.9  5  0 545551922
[03]  G22  f 45    995.6 2045998.7  1.0  1.0  5  0 545551925
[04]  G28  f 36  -1099.3 2046001.4  1.0  1.0  5  0 545551931
lsq: nits= 4
$GNGGA,073215.000,3112.7648,N,12136.4340,E,1,04,18.3,114.8,M,,,,0000*29
$GNRMC,073215.000,A,3112.7648,N,12136.4340,E,1.54,0.00,250519,,*1D
$GPGSA,A,3,11,19,22,28,,,,,,,,,22.1,18.3,12.5*0D
$BDGSA,A,3,,,,,,,,,,,,,22.1,18.3,12.5*1E
$GPGSV,2,1,05,01,00,000,24,11,30,056,42,19,24,299,34,22,40,065,45*73
$GPGSV,2,2,05,28,79,304,36*4A
$LOGTIM,1,-852.987333,0.000000,0.000000,0.000000,-60.223*34
EndT:        0
---00000073--- Acq_st=3 2019-5-25 07:32:15 
[00]  G01  7 26   2450.9 2045996.8 -0.2 -0.1 10  0         6
[01]  G11  f 41   2169.3 2045997.2  1.0  1.0  5  0 545552924
[02]  G19  f 34  -2590.7 2046003.4  1.0  0.9  5  0 545552922
[03]  G22  f 45    996.0 2045998.7  1.0  1.0  5  0 545552925
[04]  G28  f 37  -1099.6 2046001.4  1.0  1.0  5  0 545552931
lsq: nits= 4
$GNGGA,073216.000,3112.7686,N,12136.4333,E,1,04,18.3,119.4,M,,,,0000*2D
$GNRMC,073216.000,A,3112.7686,N,12136.4333,E,0.83,0.00,250519,,*13
$GPGSA,A,3,11,19,22,28,,,,,,,,,22.2,18.3,12.5*0E
$BDGSA,A,3,,,,,,,,,,,,,22.2,18.3,12.5*1D
$GPGSV,2,1,05,01,00,000,26,11,30,056,41,19,24,299,34,22,40,065,45*72
$GPGSV,2,2,05,28,79,304,37*4B
$LOGTIM,1,-909.689695,0.000000,0.000000,0.000000,-60.882*32
EndT:        0
---00000074--- Acq_st=3 2019-5-25 07:32:16 
[00]  G01  7 27   2445.2 2045996.7  0.7  0.0 10  0         6
[01]  G11  f 41   2167.4 2045997.2  1.0  1.0  5  0 545553924
[02]  G19  f 33  -2592.5 2046003.3  1.0  0.9  5  0 545553922
[03]  G22  f 44    994.4 2045998.7  1.0  1.0  5  0 545553925
[04]  G28  f 36  -1100.8 2046001.4  1.0  1.0  5  0 545553931
lsq: nits= 4
$GNGGA,073217.000,3112.7583,N,12136.4332,E,1,04,18.4,103.2,M,,,,0000*21
$GNRMC,073217.000,A,3112.7583,N,12136.4332,E,0.84,0.00,250519,,*12
$GPGSA,A,3,11,19,22,28,,,,,,,,,22.3,18.4,12.5*08
$BDGSA,A,3,,,,,,,,,,,,,22.3,18.4,12.5*1B
$GPGSV,2,1,05,01,00,000,27,11,30,056,41,19,24,299,33,22,40,065,44*75
$GPGSV,2,2,05,28,79,304,36*4A
$LOGTIM,1,-987.965127,0.000000,0.000000,0.000000,-61.028*3E
EndT:        0
---00000075--- Acq_st=3 2019-5-25 07:32:17 
[00]  G01  7 26   2444.3 2045996.8  1.0  0.0 10  0         6
[01]  G11  f 41   2166.5 2045997.2  1.0  1.0  5  0 545554924
[02]  G19  f 33  -2594.4 2046003.4  1.0  1.0  5  0 545554922
[03]  G22  f 44    994.4 2045998.7  1.0  1.0  5  0 545554925
[04]  G28  f 37  -1101.1 2046001.4  1.0  1.0  5  0 545554931
lsq: nits= 4
$GNGGA,073218.000,3112.7522,N,12136.4327,E,1,04,18.4,90.6,M,,,,0000*1E
$GNRMC,073218.000,A,3112.7522,N,12136.4327,E,0.19,0.00,250519,,*16
$GPGSA,A,3,11,19,22,28,,,,,,,,,22.3,18.4,12.6*0B
$BDGSA,A,3,,,,,,,,,,,,,22.3,18.4,12.6*18
$GPGSV,2,1,05,01,00,000,26,11,30,056,41,19,24,299,33,22,40,065,44*74
$GPGSV,2,2,05,28,79,304,37*4B
$LOGTIM,1,-1061.907681,0.000000,0.000000,0.000000,-61.916*05
EndT:        0
---00000076--- Acq_st=3 2019-5-25 07:32:18 
[00]  G01  7 26   2443.1 2045996.8  0.9  0.0 10  0         6
[01]  G11  f 42   2165.7 2045997.2  1.0  1.0  5  0 545555924
[02]  G19  f 33  -2595.0 2046003.4  1.0  1.0  5  0 545555922
[03]  G22  f 44    993.2 2045998.7  1.0  1.0  5  0 545555925
[04]  G28  f 37  -1102.6 2046001.4  1.0  0.9  5  0 545555931
lsq: nits= 4
$GNGGA,073219.000,3112.7435,N,12136.4335,E,1,04,18.5,80.1,M,,,,0000*1C
$GNRMC,073219.000,A,3112.7435,N,12136.4335,E,2.05,0.00,250519,,*1C
$GPGSA,A,3,11,19,22,28,,,,,,,,,22.4,18.5,12.6*0D
$BDGSA,A,3,,,,,,,,,,,,,22.4,18.5,12.6*1E
$GPGSV,2,1,05,01,00,000,26,11,30,056,42,19,24,299,33,22,40,065,44*77
$GPGSV,2,2,05,28,79,304,37*4B
$LOGTIM,1,-1136.090317,0.000000,0.000000,0.000000,-61.654*02
EndT:        0
---00000077--- Acq_st=3 2019-5-25 07:32:19 
[00]  G01  7 26   2438.8 2045996.8  0.8  0.0 10  0         6
[01]  G11  f 41   2161.2 2045997.1  1.0  1.0  5  0 545556924
[02]  G19  f 33  -2599.7 2046003.5  1.0  1.0  5  0 545556922
[03]  G22  f 45    989.0 2045998.7  1.0  1.0  5  0 545556925
[04]  G28  f 37  -1106.3 2046001.4  1.0  1.0  5  0 545556931
lsq: nits= 4
$GNGGA,073220.000,3112.7308,N,12136.4335,E,1,04,18.6,63.7,M,,,,0000*17
$GNRMC,073220.000,A,3112.7308,N,12136.4335,E,0.20,0.00,250519,,*1A
$GPGSA,A,3,11,19,22,28,,,,,,,,,22.5,18.6,12.7*0E
$BDGSA,A,3,,,,,,,,,,,,,22.5,18.6,12.7*1D
$GPGSV,2,1,05,01,00,000,26,11,30,056,41,19,24,299,33,22,40,065,45*75
$GPGSV,2,2,05,28,79,304,37*4B
$LOGTIM,1,-1218.104125,0.000000,0.000000,0.000000,-62.920*0D
EndT:        0
---00000078--- Acq_st=3 2019-5-25 07:32:20 
[00]  G01  7 26   2436.3 2045996.7  0.9 -0.1 10  0         6
[01]  G11  f 41   2158.1 2045997.2  1.0  1.0  5  0 545557924
[02]  G19  f 32  -2602.7 2046003.4  1.0  1.0  5  0 545557922
[03]  G22  f 44    986.9 2045998.7  1.0  1.0  5  0 545557925
[04]  G28  f 36  -1109.2 2046001.4  1.0  0.9  5  0 545557931
lsq: nits= 4
$GNGGA,073221.000,3112.7242,N,12136.4335,E,1,04,18.6,57.3,M,,,,0000*1A
$GNRMC,073221.000,A,3112.7242,N,12136.4335,E,0.46,0.00,250519,,*14
$GPGSA,A,3,11,19,22,28,,,,,,,,,22.5,18.6,12.7*0E
$BDGSA,A,3,,,,,,,,,,,,,22.5,18.6,12.7*1D
$GPGSV,2,1,05,01,00,000,26,11,30,056,41,19,24,299,32,22,40,065,44*75
$GPGSV,2,2,05,28,79,304,36*4A
$LOGTIM,1,-1290.330118,0.000000,0.000000,0.000000,-63.469*07
EndT:        0
---00000079--- Acq_st=3 2019-5-25 07:32:21 
[00]  G01  7 26   2436.9 2045996.7  0.9  0.0 10  0         6
[01]  G11  f 42   2157.4 2045997.2  1.0  1.0  5  0 545558924
[02]  G19  f 33  -2602.5 2046003.4  1.0  1.0  5  0 545558922
[03]  G22  f 44    987.2 2045998.7  1.0  1.0  5  0 545558925
[04]  G28  f 37  -1108.3 2046001.4  1.0  1.0  5  0 545558931
lsq: nits= 4
$GNGGA,073222.000,3112.7183,N,12136.4338,E,1,04,18.7,50.0,M,,,,0000*1F
$GNRMC,073222.000,A,3112.7183,N,12136.4338,E,0.91,0.00,250519,,*1E
$GPGSA,A,3,11,19,22,28,,,,,,,,,22.6,18.7,12.8*03
$BDGSA,A,3,,,,,,,,,,,,,22.6,18.7,12.8*10
$GPGSV,2,1,05,01,00,000,26,11,30,056,42,19,25,299,33,22,40,065,44*76
$GPGSV,2,2,05,28,79,303,37*4C
$LOGTIM,1,-1362.859091,0.000000,0.000000,0.000000,-63.176*04
EndT:        0
---00000080--- Acq_st=3 2019-5-25 07:32:22 
[00]  G01  7 26   2436.2 2045996.8  1.0  0.0 10  0         6
[01]  G11  f 42   2157.0 2045997.2  1.0  1.0  5  0 545559924
[02]  G19  f 34  -2604.4 2046003.4  1.0  0.9  5  0 545559922
[03]  G22  f 45    986.9 2045998.8  1.0  1.0  5  0 545559925
[04]  G28  f 36  -1108.6 2046001.5  1.0  1.0  5  0 545559931
lsq: nits= 4
$GNGGA,073223.000,3112.7106,N,12136.4333,E,1,04,18.7,45.4,M,,,,0000*18
$GNRMC,073223.000,A,3112.7106,N,12136.4333,E,3.18,0.00,250519,,*1B
$GPGSA,A,3,11,19,22,28,,,,,,,,,22.7,18.7,12.8*02
$BDGSA,A,3,,,,,,,,,,,,,22.7,18.7,12.8*11
$GPGSV,2,1,05,01,00,000,26,11,30,056,42,19,25,299,34,22,40,065,45*70
$GPGSV,2,2,05,28,79,303,36*4D
$LOGTIM,1,-1435.131231,0.000000,0.000000,0.000000,-65.060*0E
EndT:        0
---00000081--- Acq_st=3 2019-5-25 07:32:23 
[00]  G01  7 26   2434.9 2045996.9  0.9 -0.1 10  0         6
[01]  G11  f 42   2155.6 2045997.2  1.0  1.0  5  0 545560924
[02]  G19  f 33  -2605.1 2046003.3  1.0  1.0  5  0 545560922
[03]  G22  f 45    986.0 2045998.7  1.0  1.0  5  0 545560925
[04]  G28  f 36  -1110.4 2046001.4  1.0  1.0  5  0 545560931
lsq: nits= 4
$GNGGA,073224.000,3112.7185,N,12136.4329,E,1,04,18.8,56.4,M,,,,0000*12
$GNRMC,073224.000,A,3112.7185,N,12136.4329,E,1.06,0.00,250519,,*11
$GPGSA,A,3,11,19,22,28,,,,,,,,,22.8,18.8,12.8*02
$BDGSA,A,3,,,,,,,,,,,,,22.8,18.8,12.8*11
$GPGSV,2,1,05,01,00,000,26,11,30,056,42,19,25,299,33,22,40,065,45*77
$GPGSV,2,2,05,28,79,303,36*4D
$LOGTIM,1,-1488.222146,0.000000,0.000000,0.000000,-63.396*06
EndT:        0
---00000082--- Acq_st=3 2019-5-25 07:32:24 
[00]  G01  7 26   2435.9 2045996.9  0.9 -0.0 10  0         6
[01]  G11  f 42   2156.6 2045997.2  1.0  1.0  5  0 545561924
[02]  G19  f 34  -2604.5 2046003.4  1.0  0.9  5  0 545561922
[03]  G22  f 44    987.3 2045998.7  1.0  1.0  5  0 545561925
[04]  G28  f 36  -1108.1 2046001.4  1.0  1.0  5  0 545561931
lsq: nits= 4
$GNGGA,073225.000,3112.7233,N,12136.4320,E,1,04,18.9,64.4,M,,,,0000*14
$GNRMC,073225.000,A,3112.7233,N,12136.4320,E,0.43,0.00,250519,,*17
$GPGSA,A,3,11,19,22,28,,,,,,,,,22.8,18.9,12.9*02
$BDGSA,A,3,,,,,,,,,,,,,22.8,18.9,12.9*11
$GPGSV,2,1,05,01,00,000,26,11,30,056,42,19,25,299,34,22,40,065,44*71
$GPGSV,2,2,05,28,79,303,36*4D
$LOGTIM,1,-1544.339154,0.000000,0.000000,0.000000,-62.810*0B
EndT:        0
---00000083--- Acq_st=3 2019-5-25 07:32:25 
[00]  G01  7 26   2440.8 2045996.9  0.7  0.0 10  0         6
[01]  G11  f 42   2160.8 2045997.2  1.0  1.0  5  0 545562924
[02]  G19  f 33  -2599.5 2046003.4  1.0  1.0  5  0 545562922
[03]  G22  f 44    992.1 2045998.7  1.0  1.0  5  0 545562925
[04]  G28  f 36  -1103.4 2046001.6  1.0  1.0  5  0 545562931
lsq: nits= 4
$GNGGA,073226.000,3112.7427,N,12136.4314,E,1,04,18.9,89.9,M,,,,0000*1D
$GNRMC,073226.000,A,3112.7427,N,12136.4314,E,0.70,0.00,250519,,*10
$GPGSA,A,3,11,19,22,28,,,,,,,,,22.9,18.9,12.9*03
$BDGSA,A,3,,,,,,,,,,,,,22.9,18.9,12.9*10
$GPGSV,2,1,05,01,00,000,26,11,30,056,42,19,25,299,33,22,40,065,44*76
$GPGSV,2,2,05,28,79,303,36*4D
$LOGTIM,1,-1579.748743,0.000000,0.000000,0.000000,-62.443*0D
EndT:        0
---00000084--- Acq_st=3 2019-5-25 07:32:26 
[00]  G01  7 26   2441.7 2045996.8  0.9 -0.0 10  0         6
[01]  G11  f 41   2162.4 2045997.2  1.0  1.0  5  0 545563924
[02]  G19  f 34  -2599.0 2046003.3  1.0  0.9  5  0 545563922
[03]  G22  f 44    994.0 2045998.7  1.0  1.0  5  0 545563925
[04]  G28  f 36  -1101.6 2046001.4  1.0  1.0  5  0 545563931
lsq: nits= 4
$GNGGA,073227.000,3112.7446,N,12136.4315,E,1,04,19.0,91.3,M,,,,0000*11
$GNRMC,073227.000,A,3112.7446,N,12136.4315,E,0.89,0.00,250519,,*11
$GPGSA,A,3,11,19,22,28,,,,,,,,,23.0,19.0,13.0*0B
$BDGSA,A,3,,,,,,,,,,,,,23.0,19.0,13.0*18
$GPGSV,2,1,05,01,00,000,26,11,30,056,41,19,25,299,34,22,40,065,44*72
$GPGSV,2,2,05,28,79,303,36*4D
$LOGTIM,1,-1639.872308,0.000000,0.000000,0.000000,-61.640*05
EndT:        0
---00000085--- Acq_st=3 2019-5-25 07:32:27 
[00]  G01  7 26   2445.3 2045996.8  0.8  0.0 10  0         6
[01]  G11  f 42   2165.8 2045997.2  1.0  1.0  5  0 545564924
[02]  G19  f 34  -2594.9 2046003.3  1.0  0.9  5  0 545564922
[03]  G22  f 44    997.8 2045998.7  1.0  1.0  5  0 545564925
[04]  G28  f 35  -1097.3 2046001.4  1.0  0.9  5  0 545564931
lsq: nits= 4
$GNGGA,073228.000,3112.7516,N,12136.4320,E,1,04,19.0,100.6,M,,,,0000*20
$GNRMC,073228.000,A,3112.7516,N,12136.4320,E,2.80,0.00,250519,,*17
$GPGSA,A,3,11,19,22,28,,,,,,,,,23.1,19.0,13.0*0A
$BDGSA,A,3,,,,,,,,,,,,,23.1,19.0,13.0*19
$GPGSV,2,1,05,01,00,000,26,11,30,056,42,19,25,299,34,22,40,065,44*71
$GPGSV,2,2,05,28,79,303,35*4E
$LOGTIM,1,-1691.520269,0.000000,0.000000,0.000000,-61.709*07
EndT:        0
---00000086--- Acq_st=3 2019-5-25 07:32:28 
[00]  G01  7 25   2439.1 2045996.9  0.8  0.0 10  0         6
[01]  G11  f 42   2160.7 2045997.2  1.0  1.0  5  0 545565924
[02]  G19  f 34  -2600.2 2046003.4  1.0  1.0  5  0 545565922
[03]  G22  f 45    993.3 2045998.7  1.0  1.0  5  0 545565925
[04]  G28  f 35  -1102.0 2046001.5  1.0  1.0  5  0 545565931
lsq: nits= 4
$GNGGA,073229.000,3112.7558,N,12136.4324,E,1,04,19.1,105.4,M,,,,0000*29
$GNRMC,073229.000,A,3112.7558,N,12136.4324,E,0.27,0.00,250519,,*17
$GPGSA,A,3,11,19,22,28,,,,,,,,,23.2,19.1,13.1*09
$BDGSA,A,3,,,,,,,,,,,,,23.2,19.1,13.1*1A
$GPGSV,2,1,05,01,00,000,25,11,30,056,42,19,25,299,34,22,40,065,45*73
$GPGSV,2,2,05,28,79,303,35*4E
$LOGTIM,1,-1748.722946,0.000000,0.000000,0.000000,-62.454*0C
EndT:        0
---00000087--- Acq_st=3 2019-5-25 07:32:29 
[00]  G01  7 26   2439.8 2045996.8  0.9 -0.1 10  0         6
[01]  G11  f 42   2161.0 2045997.1  1.0  1.0  5  0 545566924
[02]  G19  f 33  -2599.4 2046003.4  1.0  0.9  5  0 545566922
[03]  G22  f 44    993.9 2045998.7  1.0  1.0  5  0 545566925
[04]  G28  f 35  -1102.5 2046001.4  1.0  0.9  5  0 545566931
lsq: nits= 4
$GNGGA,073230.000,3112.7348,N,12136.4316,E,1,04,19.2,74.0,M,,,,0000*17
$GNRMC,073230.000,A,3112.7348,N,12136.4316,E,1.35,0.00,250519,,*1B
$GPGSA,A,3,11,19,22,28,,,,,,,,,23.2,19.2,13.1*0A
$BDGSA,A,3,,,,,,,,,,,,,23.2,19.2,13.1*19
$GPGSV,2,1,05,01,00,000,26,11,29,056,42,19,25,299,33,22,40,065,44*7E
$GPGSV,2,2,05,28,79,303,35*4E
$LOGTIM,1,-1845.451281,0.000000,0.000000,0.000000,-63.258*02
EndT:        0
---00000088--- Acq_st=3 2019-5-25 07:32:30 
[00]  G01  7 26   2441.2 2045996.8  1.0 -0.0 10  0         6
[01]  G11  f 42   2162.1 2045997.2  1.0  1.0  5  0 545567924
[02]  G19  f 33  -2599.0 2046003.5  1.0  1.0  5  0 545567922
[03]  G22  f 44    995.4 2045998.7  1.0  1.0  5  0 545567925
[04]  G28  f 35  -1100.3 2046001.4  1.0  1.0  5  0 545567931
lsq: nits= 4
$GNGGA,073231.000,3112.7353,N,12136.4322,E,1,04,19.2,77.6,M,,,,0000*1E
$GNRMC,073231.000,A,3112.7353,N,12136.4322,E,1.42,0.00,250519,,*17
$GPGSA,A,3,11,19,22,28,,,,,,,,,23.3,19.2,13.2*08
$BDGSA,A,3,,,,,,,,,,,,,23.3,19.2,13.2*1B
$GPGSV,2,1,05,01,00,000,26,11,29,056,42,19,25,299,33,22,40,065,44*7E
$GPGSV,2,2,05,28,79,303,35*4E
$LOGTIM,1,-1904.510197,0.000000,0.000000,0.000000,-61.062*0F
EndT:        0
---00000089--- Acq_st=3 2019-5-25 07:32:31 
[00]  G01  7 26   2447.3 2045996.8  0.7 -0.0 10  0         6
[01]  G11  f 42   2168.5 2045997.2  1.0  1.0  5  0 545568924
[02]  G19  f 34  -2592.6 2046003.4  1.0  1.0  5  0 545568922
[03]  G22  f 44   1002.2 2045998.7  1.0  1.0  5  0 545568925
[04]  G28  f 35  -1093.9 2046001.4  1.0  0.9  5  0 545568931
lsq: nits= 4
$GNGGA,073232.000,3112.7363,N,12136.4326,E,1,04,19.3,78.1,M,,,,0000*13
$GNRMC,073232.000,A,3112.7363,N,12136.4326,E,1.50,0.00,250519,,*10
$GPGSA,A,3,11,19,22,28,,,,,,,,,23.4,19.3,13.2*0E
$BDGSA,A,3,,,,,,,,,,,,,23.4,19.3,13.2*1D
$GPGSV,2,1,05,01,00,000,26,11,29,056,42,19,25,299,34,22,40,065,44*79
$GPGSV,2,2,05,28,79,303,35*4E
$LOGTIM,1,-1965.128778,0.000000,0.000000,0.000000,-62.365*07
EndT:        0
---00000090--- Acq_st=3 2019-5-25 07:32:32 
[00]  G01  7 26   2445.1 2045996.8  0.9 -0.1 10  0         6
[01]  G11  f 42   2166.5 2045997.2  1.0  1.0  5  0 545569924
[02]  G19  f 34  -2594.9 2046003.4  1.0  1.0  5  0 545569922
[03]  G22  f 44   1000.8 2045998.7  1.0  1.0  5  0 545569925
[04]  G28  f 36  -1095.3 2046001.4  1.0  1.0  5  0 545569931
ch16 satid=57,max_freq = -1750,max_mean = 11397,max_phase = 3994,max_value = 140491,acq ok1!
acq ok1 timeH = 0,timeL = 1719943706,freq_stage = 4
lsq: nits= 4
$GNGGA,073233.000,3112.7357,N,12136.4338,E,1,04,19.4,76.3,M,,,,0000*11
$GNRMC,073233.000,A,3112.7357,N,12136.4338,E,2.71,0.00,250519,,*19
$GPGSA,A,3,11,19,22,28,,,,,,,,,23.5,19.4,13.3*09
$BDGSA,A,3,,,,,,,,,,,,,23.5,19.4,13.3*1A
$GPGSV,2,1,05,01,00,000,26,11,29,056,42,19,25,299,34,22,40,065,44*79
$GPGSV,2,2,05,28,79,303,36*4D
$LOGTIM,1,-2028.163651,0.000000,0.000000,0.000000,-62.003*02
EndT:        0
---00000091--- Acq_st=3 2019-5-25 07:32:33 
[00]  G01  7 26   2438.2 2045996.7  0.6  0.0 10  0         6
[01]  G11  f 42   2159.9 2045997.2  1.0  1.0  5  0 545570924
[02]  G19  f 35  -2602.0 2046003.3  1.0  0.9  5  0 545570922
[03]  G22  f 44    994.4 2045998.7  1.0  1.0  5  0 545570925
[04]  G28  f 36  -1102.1 2046001.4  1.0  0.9  5  0 545570931
[16]  B21  1  7   1747.2 4091996.2 -0.0  0.0  1  0       192
lsq: nits= 4
$GNGGA,073234.000,3112.7315,N,12136.4349,E,1,04,19.4,68.5,M,,,,0000*1F
$GNRMC,073234.000,A,3112.7315,N,12136.4349,E,1.29,0.00,250519,,*10
$GPGSA,A,3,11,19,22,28,,,,,,,,,23.5,19.4,13.3*09
$BDGSA,A,3,,,,,,,,,,,,,23.5,19.4,13.3*1A
$GPGSV,2,1,05,01,00,000,26,11,29,056,42,19,25,299,35,22,40,065,44*78
$GPGSV,2,2,05,28,79,303,36*4D
$LOGTIM,1,-2098.339484,0.000000,0.000000,0.000000,-63.317*09
EndT:        0
---00000092--- Acq_st=3 2019-5-25 07:32:34 
[00]  G01  7 26   2434.6 2045996.8  0.8  0.1 10  0         6
[01]  G11  f 41   2155.9 2045997.2  1.0  1.0  5  0 545571924
[02]  G19  f 35  -2605.3 2046003.4  1.0  0.9  5  0 545571922
[03]  G22  f 44    991.0 2045998.7  1.0  1.0  5  0 545571925
[04]  G28  f 37  -1104.7 2046001.4  1.0  0.9  5  0 545571931
[16]  B21  1  8   1822.2 4091996.3  0.1  0.0  1  0      1192
lsq: nits= 4
