FlashID=0x1 0x20 0x18
BBram_blkflag1: 354e: cab1
FW Ver: 1.30  
GPS00 Init Dop:   5000, 40
GPS01 Init Dop:   5000, 40
GPS02 Init Dop:   5000, 40
GPS03 Init Dop:   5000, 40
GPS04 Init Dop:   5000, 40
GPS05 Init Dop:   5000, 40
GPS06 Init Dop:   5000, 40
GPS07 Init Dop:   5000, 40
GPS08 Init Dop:   5000, 40
GPS09 Init Dop:   5000, 40
GPS10 Init Dop:   5000, 40
GPS11 Init Dop:   5000, 40
GPS12 Init Dop:   5000, 40
GPS13 Init Dop:   5000, 40
GPS14 Init Dop:   5000, 40
GPS15 Init Dop:   5000, 40
GPS16 Init Dop:   5000, 40
GPS17 Init Dop:   5000, 40
GPS18 Init Dop:   5000, 40
GPS19 Init Dop:   5000, 40
GPS20 Init Dop:   5000, 40
GPS21 Init Dop:   5000, 40
GPS22 Init Dop:   5000, 40
GPS23 Init Dop:   5000, 40
GPS24 Init Dop:   5000, 40
GPS25 Init Dop:   5000, 40
GPS26 Init Dop:   5000, 40
GPS27 Init Dop:   5000, 40
GPS28 Init Dop:   5000, 40
GPS29 Init Dop:   5000, 40
GPS30 Init Dop:   5000, 40
GPS31 Init Dop:   5000, 40
BDS00 Init Dop:   5000, 40
BDS01 Init Dop:   5000, 40
BDS02 Init Dop:   5000, 40
BDS03 Init Dop:   5000, 40
BDS04 Init Dop:   5000, 40
BDS05 Init Dop:   5000, 40
BDS06 Init Dop:   5000, 40
BDS07 Init Dop:   5000, 40
BDS08 Init Dop:   5000, 40
BDS09 Init Dop:   5000, 40
BDS10 Init Dop:   5000, 40
BDS11 Init Dop:   5000, 40
BDS12 Init Dop:   5000, 40
BDS13 Init Dop:   5000, 40
BDS14 Init Dop:   5000, 40
BDS15 Init Dop:   5000, 40
BDS16 Init Dop:   5000, 40
BDS17 Init Dop:   5000, 40
BDS18 Init Dop:   5000, 40
BDS19 Init Dop:   5000, 40
BDS20 Init Dop:   5000, 40
BDS21 Init Dop:   5000, 40
BDS22 Init Dop:   5000, 40
BDS23 Init Dop:   5000, 40
BDS24 Init Dop:   5000, 40
BDS25 Init Dop:   5000, 40
BDS26 Init Dop:   5000, 40
BDS27 Init Dop:   5000, 40
BDS28 Init Dop:   5000, 40
BDS29 Init Dop:   5000, 40
BDS30 Init Dop:   5000, 40
BDS31 Init Dop:   5000, 40
good luck!
---00000001--- Acq_st=3 2019-5-22 02:55:25 
[00]  G04  1 17  -1205.5 2046003.6  0.1  0.0  1  0         0
$GNGGA,000000.000,,,,,0,00,,,M,,,,0000*2B
$GNRMC,000000.000,A,,,,,,,000000,,*26
$GPGSA,A,1,,,,,,,,,,,,,,,*1E
$BDGSA,A,1,,,,,,,,,,,,,,,*0F
$LOGTIM,0,0.000000,0.000000,0.000000,0.000000,0.000*0A
EndT:        0
---00000002--- Acq_st=3 2019-5-22 02:55:26 
[00]  G04  7  7  -1191.3 2046001.5  0.4  0.0 20  0         0
[01]  G07  1  7  -3425.0 2046007.3  0.0  0.0  1  0         0
[02]  G08  1 23  -1403.9 2046004.3 -0.1  0.0  1  0         0
[03]  G09  1 27    -11.0 2046001.2 -0.1  0.0  1  0         0
$GNGGA,000000.000,,,,,0,00,,,M,,,,0000*2B
$GNRMC,000000.000,A,,,,,,,000000,,*26
$GPGSA,A,1,,,,,,,,,,,,,,,*1E
$BDGSA,A,1,,,,,,,,,,,,,,,*0F
$LOGTIM,0,0.000000,0.000000,0.000000,0.000000,0.000*0A
EndT:        0
---00000003--- Acq_st=3 2019-5-22 02:55:27 
[00]  G04  7 43  -1187.3 2046001.5  0.6  1.0  5  0        19
[01]  G07  7 30  -3535.6 2046004.6  0.2  1.0  5  0         7
[02]  G08  7 27  -1392.3 2046001.7  0.5  0.0 10  0         9
[03]  G09  7 23     -6.6 2045999.9  0.1  0.0 20  0        11
[04]  G16  1 18   1211.0 2046000.7  0.0  0.0  1  0         0
$GNGGA,000000.000,,,,,0,00,,,M,,,,0000*2B
$GNRMC,000000.000,A,,,,,,,000000,,*26
$GPGSA,A,1,,,,,,,,,,,,,,,*1E
$BDGSA,A,1,,,,,,,,,,,,,,,*0F
$GPGSV,1,1,04,04,00,000,43,07,00,000,30,08,00,000,27,09,00,000,23*7F
$LOGTIM,0,0.000000,0.000000,0.000000,0.000000,0.000*0A
EndT:        0
---00000004--- Acq_st=3 2019-5-22 02:55:28 
[00]  G04  7 43  -1186.6 2046001.5  1.0  1.0  5  0        19
[01]  G07  7 44  -3536.2 2046004.6  1.0  1.0  5  0        19
[02]  G08  7 43  -1391.5 2046001.8  1.0  1.0  5  0         8
[03]  G09  7 45     -5.6 2046000.0  0.8  1.0  5  0         1
[04]  G16  7 19   1193.8 2045998.3  0.3  0.0 20  0         6
[05]  G21  1 22   2052.1 2045998.8  0.1  0.0  1  0         0
$GNGGA,000000.000,,,,,0,00,,,M,,,,0000*2B
$GNRMC,000000.000,A,,,,,,,000000,,*26
$GPGSA,A,1,,,,,,,,,,,,,,,*1E
$BDGSA,A,1,,,,,,,,,,,,,,,*0F
$GPGSV,2,1,05,04,00,000,43,07,00,000,44,08,00,000,43,09,00,000,45*7C
$GPGSV,2,2,05,16,00,000,19*43
$LOGTIM,0,0.000000,0.000000,0.000000,0.000000,0.000*0A
EndT:        0
---00000005--- Acq_st=3 2019-5-22 02:55:29 
[00]  G04  7 44  -1186.1 2046001.5  1.0  1.0  5  0        19
[01]  G07  7 42  -3536.2 2046004.6  1.0  1.0  5  0        19
[02]  G08  7 43  -1391.3 2046001.8  1.0  1.0  5  0         8
[03]  G09  7 45     -5.1 2046000.0  1.0  1.0  5  0         1
[04]  G16  7 42   1193.7 2045998.3  0.9  1.0  5  0         4
[05]  G21  7 25   2059.8 2045997.2  0.4  0.0 20  0        17
[06]  G27  1 27    922.2 2045999.7 -0.2  0.0  1  0         0
$GNGGA,000000.000,,,,,0,00,,,M,,,,0000*2B
$GNRMC,000000.000,A,,,,,,,000000,,*26
$GPGSA,A,1,,,,,,,,,,,,,,,*1E
$BDGSA,A,1,,,,,,,,,,,,,,,*0F
$GPGSV,2,1,06,04,00,000,44,07,00,000,42,08,00,000,43,09,00,000,45*7E
$GPGSV,2,2,06,16,00,000,42,21,00,000,25*7A
$LOGTIM,0,0.000000,0.000000,0.000000,0.000000,0.000*0A
EndT:        0
---00000006--- Acq_st=3 2019-5-22 02:55:30 
[00]  G04  7 44  -1186.0 2046001.5  1.0  1.0  5  0        19
[01]  G07  7 43  -3536.7 2046004.6  1.0  1.0  5  0        19
[02]  G08  7 43  -1391.2 2046001.8  1.0  1.0  5  0         8
[03]  G09  7 46     -5.4 2046000.0  1.0  1.0  5  0         1
[04]  G16  7 42   1193.0 2045998.4  1.0  1.0  5  0         4
[05]  G21  7 35   2058.8 2045997.3  1.0  1.0  5  0        11
[06]  G27  7 27    921.0 2045998.7  0.3  0.0 10  0        10
$GNGGA,000000.000,,,,,0,00,,,M,,,,0000*2B
$GNRMC,000000.000,A,,,,,,,000000,,*26
$GPGSA,A,1,,,,,,,,,,,,,,,*1E
$BDGSA,A,1,,,,,,,,,,,,,,,*0F
$GPGSV,2,1,07,04,00,000,44,07,00,000,43,08,00,000,43,09,00,000,46*7D
$GPGSV,2,2,07,16,00,000,42,21,00,000,35,27,00,000,27*4A
$LOGTIM,0,0.000000,0.000000,0.000000,0.000000,0.000*0A
EndT:        0
---00000007--- Acq_st=3 2019-5-22 02:55:31 
[00]  G04  f 44  -1183.8 2046001.5  1.0  1.0  5  0        19
[01]  G07  f 43  -3535.1 2046004.6  1.0  1.0  5  0        19
[02]  G08  f 43  -1389.4 2046001.8  1.0  1.0  5  0         8
[03]  G09  f 46     -3.3 2046000.0  1.0  1.0  5  0         1
[04]  G16  f 42   1194.7 2045998.4  1.0  1.0  5  0         4
[05]  G21  f 34   2060.6 2045997.3  1.0  1.0  5  0        11
[06]  G27  7 50    923.2 2045998.7  1.0  1.0  5  0         9
[16]  B05  1 23   -430.0 4092000.9 -0.1  0.0  1  0         0
$GNGGA,000000.000,,,,,0,00,,,M,,,,0000*2B
$GNRMC,000000.000,A,,,,,,,000000,,*26
$GPGSA,A,1,,,,,,,,,,,,,,,*1E
$BDGSA,A,1,,,,,,,,,,,,,,,*0F
$GPGSV,2,1,07,04,00,000,44,07,00,000,43,08,00,000,43,09,00,000,46*7D
$GPGSV,2,2,07,16,00,000,42,21,00,000,34,27,00,000,50*4B
$LOGTIM,0,0.000000,0.000000,0.000000,0.000000,0.000*0A
EndT:        0
---00000008--- Acq_st=3 2019-5-22 02:55:32 
[00]  G04  f 43  -1184.6 2046001.5  1.0  1.0  5  0 269749619
[01]  G07  f 43  -3536.2 2046004.6  1.0  1.0  5  0 269749619
[02]  G08  f 43  -1390.0 2046001.8  1.0  1.0  5  0 269749628
[03]  G09  f 46     -3.9 2046000.0  1.0  1.0  5  0 269749621
[04]  G16  f 42   1193.4 2045998.4  1.0  1.0  5  0 269749624
[05]  G21  f 35   2059.4 2045997.3  1.0  1.0  5  0 269749611
[06]  G27  7 50    922.5 2045998.8  1.0  1.0  5  0         9
[16]  B05  1 10   -341.1 4092000.3  0.1  0.0  1  0       311
[17]  B07  1  7   -584.9 4092002.1  0.1  0.0  1  0         0
$GNGGA,000000.000,,,,,0,00,,,M,,,,0000*2B
$GNRMC,000000.000,A,,,,,,,000000,,*26
$GPGSA,A,1,,,,,,,,,,,,,,,*1E
$BDGSA,A,1,,,,,,,,,,,,,,,*0F
$GPGSV,2,1,07,04,00,000,43,07,00,000,43,08,00,000,43,09,00,000,46*7A
$GPGSV,2,2,07,16,00,000,42,21,00,000,35,27,00,000,50*4A
$LOGTIM,0,0.000000,0.000000,0.000000,0.000000,0.000*0A
EndT:        1
---00000009--- Acq_st=3 2019-5-22 02:55:33 
[00]  G04  f 44  -1186.5 2046001.5  1.0  1.0  5  0 269750619
[01]  G07  f 42  -3538.3 2046004.6  1.0  1.0  5  0 269750619
[02]  G08  f 43  -1391.5 2046001.8  1.0  1.0  5  0 269750628
[03]  G09  f 46     -5.6 2046000.0  1.0  1.0  5  0 269750621
[04]  G16  f 42   1191.4 2045998.4  1.0  1.0  5  0 269750624
[05]  G21  f 35   2058.8 2045997.3  1.0  1.0  5  0 269750611
[06]  G27  7 50    920.7 2045998.8  1.0  1.0  5  0         9
[16]  B05  7 32   -347.5 4092000.9  0.8  0.0  2  0      1310
[17]  B07  7 26   -589.5 4092001.5  0.3  0.0 20  0       660
[18]  B10  1  7   -645.2 4092001.5  0.1  0.0  1  0         0
$GNGGA,000000.000,,,,,0,00,,,M,,,,0000*2B
$GNRMC,000000.000,A,,,,,,,000000,,*26
$GPGSA,A,1,,,,,,,,,,,,,,,*1E
$BDGSA,A,1,,,,,,,,,,,,,,,*0F
$GPGSV,2,1,07,04,00,000,44,07,00,000,42,08,00,000,43,09,00,000,46*7C
$GPGSV,2,2,07,16,00,000,42,21,00,000,35,27,00,000,50*4A
$BDGSV,1,1,02,05,00,000,32,07,00,000,26*6D
$LOGTIM,0,0.000000,0.000000,0.000000,0.000000,0.000*0A
EndT:        0
---00000010--- Acq_st=3 2019-5-22 02:55:34 
[00]  G04  f 44  -1184.9 2046001.5  1.0  1.0  5  0 269751619
[01]  G07  f 43  -3537.3 2046004.6  1.0  1.0  5  0 269751619
[02]  G08  f 44  -1390.1 2046001.8  1.0  1.0  5  0 269751628
[03]  G09  f 46     -4.0 2046000.0  1.0  1.0  5  0 269751621
[04]  G16  f 41   1192.7 2045998.4  1.0  1.0  5  0 269751624
[05]  G21  f 34   2059.3 2045997.3  1.0  1.0  5  0 269751611
[06]  G27  7 50    922.1 2045998.8  1.0  1.0  5  0         9
[16]  B05  7 33   -347.5 4092000.8  0.7  0.0  2  0       962
[17]  B07  7 45   -588.9 4092001.5  1.0  1.0  5  0      1655
[18]  B10  7 26   -646.1 4092001.7  0.3  0.0 20  0       683
$GNGGA,000000.000,,,,,0,00,,,M,,,,0000*2B
$GNRMC,000000.000,A,,,,,,,000000,,*26
$GPGSA,A,1,,,,,,,,,,,,,,,*1E
$BDGSA,A,1,,,,,,,,,,,,,,,*0F
$GPGSV,2,1,07,04,00,000,44,07,00,000,43,08,00,000,44,09,00,000,46*7A
$GPGSV,2,2,07,16,00,000,41,21,00,000,34,27,00,000,50*48
$BDGSV,1,1,03,05,00,000,33,07,00,000,45,10,00,000,26*5D
$LOGTIM,0,0.000000,0.000000,0.000000,0.000000,0.000*0A
EndT:        0
---00000011--- Acq_st=3 2019-5-22 02:55:35 
[00]  G04  f 43  -1182.8 2046001.5  1.0  1.0  5  0 269752619
[01]  G07  f 42  -3536.0 2046004.6  1.0  1.0  5  0 269752619
[02]  G08  f 44  -1388.2 2046001.8  1.0  1.0  5  0 269752628
[03]  G09  f 46     -2.0 2046000.0  1.0  1.0  5  0 269752621
[04]  G16  f 40   1193.9 2045998.4  1.0  1.0  5  0 269752624
[05]  G21  f 35   2061.2 2045997.3  1.0  0.9  5  0 269752611
[06]  G27  7 51    924.1 2045998.8  1.0  1.0  5  0         9
[16]  B05  7 32   -345.1 4092000.9  0.7  0.0  2  0       762
[17]  B07  7 45   -587.5 4092001.5  1.0  1.0  5  0      2655
[18]  B10  7 42   -643.9 4092001.7  1.0  1.0  5  0      1672
$GNGGA,000000.000,,,,,0,00,,,M,,,,0000*2B
$GNRMC,000000.000,A,,,,,,,000000,,*26
$GPGSA,A,1,,,,,,,,,,,,,,,*1E
$BDGSA,A,1,,,,,,,,,,,,,,,*0F
$GPGSV,2,1,07,04,00,000,43,07,00,000,42,08,00,000,44,09,00,000,46*7C
$GPGSV,2,2,07,16,00,000,40,21,00,000,35,27,00,000,51*49
$BDGSV,1,1,03,05,00,000,32,07,00,000,45,10,00,000,42*5E
$LOGTIM,0,0.000000,0.000000,0.000000,0.000000,0.000*0A
EndT:        0
---00000012--- Acq_st=3 2019-5-22 02:55:36 
[00]  G04  f 44  -1185.3 2046001.5  1.0  1.0  5  0 269753619
[01]  G07  f 43  -3538.9 2046004.6  1.0  1.0  5  0 269753619
[02]  G08  f 44  -1390.8 2046001.8  1.0  1.0  5  0 269753628
[03]  G09  f 46     -4.6 2046000.0  1.0  1.0  5  0 269753621
[04]  G16  f 40   1190.6 2045998.4  1.0  1.0  5  0 269753624
[05]  G21  f 36   2058.5 2045997.3  1.0  1.0  5  0 269753611
[06]  G27  7 50    921.5 2045998.8  1.0  1.0  5  0         9
[16]  B05  f 33   -348.5 4092000.9  0.8  0.0  2  0       562
[17]  B07  7 45   -590.5 4092001.5  1.0  1.0  5  0      3655
[18]  B10  7 42   -647.0 4092001.7  1.0  1.0  5  0      2672
$GNGGA,000000.000,,,,,0,00,,,M,,,,0000*2B
$GNRMC,000000.000,A,,,,,,,000000,,*26
$GPGSA,A,1,,,,,,,,,,,,,,,*1E
$BDGSA,A,1,,,,,,,,,,,,,,,*0F
$GPGSV,2,1,07,04,00,000,44,07,00,000,43,08,00,000,44,09,00,000,46*7A
$GPGSV,2,2,07,16,00,000,40,21,00,000,36,27,00,000,50*4B
$BDGSV,1,1,03,05,00,000,33,07,00,000,45,10,00,000,42*5F
$LOGTIM,0,0.000000,0.000000,0.000000,0.000000,0.000*0A
EndT:        0
---00000013--- Acq_st=3 2019-5-22 02:55:37 
[00]  G04  f 44  -1189.7 2046001.5  1.0  1.0  5  0 269754619
[01]  G07  f 43  -3543.5 2046004.6  1.0  1.0  5  0 269754619
[02]  G08  f 43  -1395.2 2046001.8  1.0  1.0  5  0 269754628
[03]  G09  f 46     -8.8 2046000.0  1.0  1.0  5  0 269754621
[04]  G16  f 41   1185.9 2045998.4  1.0  1.0  5  0 269754624
[05]  G21  f 37   2054.0 2045997.3  1.0  1.0  5  0 269754611
[06]  G27  f 50    917.1 2045998.8  1.0  1.0  5  0         9
[16]  B05  f 32   -354.2 4092000.7  0.7  0.0  2  0 269741162
[17]  B07  7 45   -595.9 4092001.6  1.0  1.0  5  0      4655
[18]  B10  7 42   -652.5 4092001.7  1.0  1.0  5  0      3672
$GNGGA,000000.000,,,,,0,00,,,M,,,,0000*2B
$GNRMC,000000.000,A,,,,,,,000000,,*26
$GPGSA,A,1,,,,,,,,,,,,,,,*1E
$BDGSA,A,1,,,,,,,,,,,,,,,*0F
$GPGSV,2,1,07,04,00,000,44,07,00,000,43,08,00,000,43,09,00,000,46*7D
$GPGSV,2,2,07,16,00,000,41,21,00,000,37,27,00,000,50*4B
$BDGSV,1,1,03,05,00,000,32,07,00,000,45,10,00,000,42*5E
$LOGTIM,0,0.000000,0.000000,0.000000,0.000000,0.000*0A
EndT:        0
---00000014--- Acq_st=3 2019-5-22 02:55:38 
[00]  G04  f 44  -1190.2 2046001.6  1.0  1.0  5  0 269755619
[01]  G07  f 43  -3545.0 2046004.6  1.0  1.0  5  0 269755619
[02]  G08  f 44  -1395.9 2046001.8  1.0  1.0  5  0 269755628
[03]  G09  f 46     -9.8 2046000.0  1.0  1.0  5  0 269755621
[04]  G16  f 42   1184.8 2045998.5  1.0  1.0  5  0 269755624
[05]  G21  f 37   2053.2 2045997.3  1.0  1.0  5  0 269755611
[06]  G27  f 50    916.2 2045998.8  1.0  1.0  5  0 269755629
[16]  B05  f 33   -354.4 4092001.1  0.8  0.0  2  0 269742162
[17]  B07  7 45   -597.2 4092001.6  1.0  1.0  5  0      5655
[18]  B10  7 42   -653.5 4092001.7  1.0  1.0  5  0      4672
$GNGGA,000000.000,,,,,0,00,,,M,,,,0000*2B
$GNRMC,000000.000,A,,,,,,,000000,,*26
$GPGSA,A,1,,,,,,,,,,,,,,,*1E
$BDGSA,A,1,,,,,,,,,,,,,,,*0F
$GPGSV,2,1,07,04,00,000,44,07,00,000,43,08,00,000,44,09,00,000,46*7A
$GPGSV,2,2,07,16,00,000,42,21,00,000,37,27,00,000,50*48
$BDGSV,1,1,03,05,00,000,33,07,00,000,45,10,00,000,42*5F
$LOGTIM,0,0.000000,0.000000,0.000000,0.000000,0.000*0A
EndT:        0
---00000015--- Acq_st=3 2019-5-22 02:55:39 
[00]  G04  f 43  -1188.6 2046001.6  1.0  1.0  5  0 269756619
[01]  G07  f 43  -3543.6 2046004.6  1.0  1.0  5  0 269756619
[02]  G08  f 43  -1394.5 2046001.8  1.0  1.0  5  0 269756628
[03]  G09  f 46     -7.8 2046000.0  1.0  1.0  5  0 269756621
[04]  G16  f 42   1185.9 2045998.5  1.0  1.0  5  0 269756624
[05]  G21  f 36   2054.6 2045997.4  1.0  0.9  5  0 269756611
[06]  G27  f 50    917.8 2045998.8  1.0  1.0  5  0 269756629
[16]  B05  f 31   -353.2 4092001.0  0.7  0.0  2  0 269743162
[17]  B07 1f 45   -595.7 4092001.6  1.0  1.0  5  0      6655
[18]  B10 1f 42   -652.2 4092001.7  1.0  1.0  5  0      5672
$GNGGA,000000.000,,,,,0,00,,,M,,,,0000*2B
$GNRMC,000000.000,A,,,,,,,000000,,*26
$GPGSA,A,1,,,,,,,,,,,,,,,*1E
$BDGSA,A,1,,,,,,,,,,,,,,,*0F
$GPGSV,2,1,07,04,00,000,43,07,00,000,43,08,00,000,43,09,00,000,46*7A
$GPGSV,2,2,07,16,00,000,42,21,00,000,36,27,00,000,50*49
$BDGSV,1,1,03,05,00,000,31,07,00,000,45,10,00,000,42*5D
$LOGTIM,0,0.000000,0.000000,0.000000,0.000000,0.000*0A
EndT:        0
---00000016--- Acq_st=7 2019-5-22 02:55:40 
[00]  G04  f 44  -1184.0 2046001.6  1.0  1.0  5  0 269757619
[01]  G07  f 43  -3539.3 2046004.6  1.0  1.0  5  0 269757619
[02]  G08  f 44  -1389.7 2046001.8  1.0  1.0  5  0 269757628
[03]  G09  f 46     -3.3 2046000.0  1.0  1.0  5  0 269757621
[04]  G16  f 42   1190.1 2045998.5  1.0  1.0  5  0 269757624
[05]  G21  f 36   2058.3 2045997.3  1.0  1.0  5  0 269757611
[06]  G27  f 50    922.3 2045998.8  1.0  1.0  5  0 269757629
[16]  B05  f 32   -350.2 4092000.9  0.8  0.0  2  0 269744162
[17]  B07 1f 45   -591.8 4092001.5  1.0  1.0  5  0 269743575
[18]  B10 1f 42   -648.6 4092001.7  1.0  1.0  5  0 269743572
$GNGGA,000000.000,,,,,0,00,,,M,,,,0000*2B
$GNRMC,000000.000,A,,,,,,,000000,,*26
$GPGSA,A,1,,,,,,,,,,,,,,,*1E
$BDGSA,A,1,,,,,,,,,,,,,,,*0F
$GPGSV,2,1,07,04,00,000,44,07,00,000,43,08,00,000,44,09,00,000,46*7A
$GPGSV,2,2,07,16,00,000,43,21,00,000,36,27,00,000,50*48
$BDGSV,1,1,03,05,00,000,32,07,00,000,45,10,00,000,42*5E
$LOGTIM,0,0.000000,0.000000,0.000000,0.000000,0.000*0A
EndT:        0
---00000017--- Acq_st=3 2019-5-22 02:55:41 
[00]  G04  f 44  -1182.6 2046001.5  1.0  1.0  5  0 269758619
[01]  G07  f 43  -3538.7 2046004.6  1.0  1.0  5  0 269758619
[02]  G08  f 43  -1388.5 2046001.8  1.0  1.0  5  0 269758628
[03]  G09  f 46     -2.4 2046000.0  1.0  1.0  5  0 269758621
[04]  G16  f 42   1191.2 2045998.5  1.0  1.0  5  0 269758624
[05]  G21  f 36   2059.7 2045997.3  1.0  1.0  5  0 269758611
[06]  G27  f 50    923.5 2045998.8  1.0  1.0  5  0 269758629
[16]  B05  f 33   -349.2 4092000.8  0.8  0.0  2  0 269745162
[17]  B07 1f 45   -591.2 4092001.5  1.0  1.0  5  0 269744575
[18]  B10 1f 42   -647.5 4092001.7  1.0  1.0  5  0 269744572
$GNGGA,000000.000,,,,,0,00,,,M,,,,0000*2B
$GNRMC,000000.000,A,,,,,,,000000,,*26
$GPGSA,A,1,,,,,,,,,,,,,,,*1E
$BDGSA,A,1,,,,,,,,,,,,,,,*0F
$GPGSV,2,1,07,04,00,000,44,07,00,000,43,08,00,000,43,09,00,000,46*7D
$GPGSV,2,2,07,16,00,000,42,21,00,000,36,27,00,000,50*49
$BDGSV,1,1,03,05,00,000,33,07,00,000,45,10,00,000,42*5F
$LOGTIM,0,0.000000,0.000000,0.000000,0.000000,0.000*0A
EndT:        0
---00000018--- Acq_st=3 2019-5-22 02:55:42 
[00]  G04  f 43  -1184.2 2046001.5  1.0  1.0  5  0 269759619
[01]  G07  f 42  -3540.3 2046004.6  1.0  1.0  5  0 269759619
[02]  G08  f 43  -1389.9 2046001.8  1.0  1.0  5  0 269759628
[03]  G09  f 45     -3.3 2046000.0  1.0  1.0  5  0 269759621
[04]  G16  f 43   1188.9 2045998.5  1.0  1.0  5  0 269759624
[05]  G21  f 35   2057.8 2045997.3  1.0  1.0  5  0 269759611
[06]  G27  f 50    922.1 2045998.8  1.0  1.0  5  0 269759629
[16]  B05  f 33   -350.9 4092001.1  0.7  0.0  2  0 269746162
[17]  B07 1f 45   -593.4 4092001.5  1.0  1.0  5  0 269745575
[18]  B10 1f 42   -649.8 4092001.7  1.0  1.0  5  0 269745572
$GNGGA,000000.000,,,,,0,00,,,M,,,,0000*2B
$GNRMC,000000.000,A,,,,,,,000000,,*26
$GPGSA,A,1,,,,,,,,,,,,,,,*1E
$BDGSA,A,1,,,,,,,,,,,,,,,*0F
$GPGSV,2,1,07,04,00,000,43,07,00,000,42,08,00,000,43,09,00,000,45*78
$GPGSV,2,2,07,16,00,000,43,21,00,000,35,27,00,000,50*4B
$BDGSV,1,1,03,05,00,000,33,07,00,000,45,10,00,000,42*5F
$LOGTIM,0,0.000000,0.000000,0.000000,0.000000,0.000*0A
EndT:        0
---00000019--- Acq_st=3 2019-5-22 02:55:43 
[00]  G04  f 44  -1182.4 2046001.5  1.0  1.0  5  0 269760619
[01]  G07  f 43  -3539.1 2046004.6  1.0  1.0  5  0 269760619
[02]  G08  f 43  -1388.3 2046001.8  1.0  1.0  5  0 269760628
[03]  G09  f 45     -1.9 2046000.0  1.0  1.0  5  0 269760621
[04]  G16  f 43   1190.5 2045998.5  1.0  1.0  5  0 269760624
[05]  G21  f 35   2059.4 2045997.3  1.0  1.0  5  0 269760611
[06]  G27  f 50    923.7 2045998.8  1.0  1.0  5  0 269760629
[16]  B05  f 33   -351.2 4092001.2  0.8  0.0  2  0 269747162
[17]  B07 1f 44   -592.0 4092001.5  1.0  1.0  5  0 269746575
[18]  B10 1f 42   -648.6 4092001.7  1.0  1.0  5  0 269746572
$GNGGA,000000.000,,,,,0,00,,,M,,,,0000*2B
$GNRMC,000000.000,A,,,,,,,000000,,*26
$GPGSA,A,1,,,,,,,,,,,,,,,*1E
$BDGSA,A,1,,,,,,,,,,,,,,,*0F
$GPGSV,2,1,07,04,00,000,44,07,00,000,43,08,00,000,43,09,00,000,45*7E
$GPGSV,2,2,07,16,00,000,43,21,00,000,35,27,00,000,50*4B
$BDGSV,1,1,03,05,00,000,33,07,00,000,44,10,00,000,42*5E
$LOGTIM,0,0.000000,0.000000,0.000000,0.000000,0.000*0A
EndT:        0
---00000020--- Acq_st=3 2019-5-22 02:55:44 
[00]  G04  f 44  -1182.4 2046001.5  1.0  1.0  5  0 269761619
[01]  G07  f 43  -3540.0 2046004.6  1.0  1.0  5  0 269761619
[02]  G08  f 43  -1388.5 2046001.8  1.0  1.0  5  0 269761628
[03]  G09  f 45     -2.0 2046000.0  1.0  1.0  5  0 269761621
[04]  G16  f 42   1189.7 2045998.4  1.0  1.0  5  0 269761624
[05]  G21  f 35   2059.2 2045997.3  1.0  1.0  5  0 269761611
[06]  G27  f 50    923.6 2045998.8  1.0  1.0  5  0 269761629
[16]  B05  f 33   -350.6 4092001.0  0.7  0.0  2  0 269748162
[17]  B07 1f 44   -593.0 4092001.6  1.0  1.0  5  0 269747575
[18]  B10 1f 42   -649.4 4092001.7  1.0  1.0  5  0 269747572
$GNGGA,000000.000,,,,,0,00,,,M,,,,0000*2B
$GNRMC,000000.000,A,,,,,,,000000,,*26
$GPGSA,A,1,,,,,,,,,,,,,,,*1E
$BDGSA,A,1,,,,,,,,,,,,,,,*0F
$GPGSV,2,1,07,04,00,000,44,07,00,000,43,08,00,000,43,09,00,000,45*7E
$GPGSV,2,2,07,16,00,000,42,21,00,000,35,27,00,000,50*4A
$BDGSV,1,1,03,05,00,000,33,07,00,000,44,10,00,000,42*5E
$LOGTIM,0,0.000000,0.000000,0.000000,0.000000,0.000*0A
EndT:        0
---00000021--- Acq_st=3 2019-5-22 02:55:45 
[00]  G04  f 44  -1181.7 2046001.5  1.0  1.0  5  0 269762619
[01]  G07  f 43  -3539.6 2046004.6  1.0  1.0  5  0 269762619
[02]  G08  f 43  -1387.8 2046001.8  1.0  1.0  5  0 269762628
[03]  G09  f 46     -1.2 2046000.0  1.0  1.0  5  0 269762621
[04]  G16  f 41   1190.2 2045998.5  1.0  1.0  5  0 269762624
[05]  G21  f 35   2059.7 2045997.3  1.0  1.0  5  0 269762611
[06]  G27  f 50    924.1 2045998.8  1.0  1.0  5  0 269762629
[16]  B05  f 34   -350.4 4092000.9  0.7  0.0  2  0 269749162
[17]  B07 1f 44   -593.1 4092001.5  1.0  1.0  5  0 269748575
[18]  B10 1f 42   -649.4 4092001.7  1.0  1.0  5  0 269748572
$GNGGA,000000.000,,,,,0,00,,,M,,,,0000*2B
$GNRMC,000000.000,A,,,,,,,000000,,*26
$GPGSA,A,1,,,,,,,,,,,,,,,*1E
$BDGSA,A,1,,,,,,,,,,,,,,,*0F
$GPGSV,2,1,07,04,00,000,44,07,00,000,43,08,00,000,43,09,00,000,46*7D
$GPGSV,2,2,07,16,00,000,41,21,00,000,35,27,00,000,50*49
$BDGSV,1,1,03,05,00,000,34,07,00,000,44,10,00,000,42*59
$LOGTIM,0,0.000000,0.000000,0.000000,0.000000,0.000*0A
EndT:        0
---00000022--- Acq_st=3 2019-5-22 02:55:46 
[00]  G04  f 44  -1179.9 2046001.6  1.0  1.0  5  0 269763619
[01]  G07  f 42  -3538.1 2046004.6  1.0  1.0  5  0 269763619
[02]  G08  f 43  -1386.5 2046001.8  1.0  1.0  5  0 269763628
[03]  G09  f 46      0.6 2046000.0  1.0  1.0  5  0 269763621
[04]  G16  f 41   1191.2 2045998.4  1.0  1.0  5  0 269763624
[05]  G21  f 36   2060.4 2045997.3  1.0  0.9  5  0 269763611
[06]  G27  f 50    925.7 2045998.8  1.0  1.0  5  0 269763629
[16]  B05  f 33   -349.7 4092000.8  0.8  0.0  2  0 269750162
[17]  B07 1f 44   -591.9 4092001.5  1.0  1.0  5  0 269749575
[18]  B10 1f 42   -648.4 4092001.6  1.0  1.0  5  0 269749572
$GNGGA,000000.000,,,,,0,00,,,M,,,,0000*2B
$GNRMC,000000.000,A,,,,,,,000000,,*26
$GPGSA,A,1,,,,,,,,,,,,,,,*1E
$BDGSA,A,1,,,,,,,,,,,,,,,*0F
$GPGSV,2,1,07,04,00,000,44,07,00,000,42,08,00,000,43,09,00,000,46*7C
$GPGSV,2,2,07,16,00,000,41,21,00,000,36,27,00,000,50*4A
$BDGSV,1,1,03,05,00,000,33,07,00,000,44,10,00,000,42*5E
$LOGTIM,0,0.000000,0.000000,0.000000,0.000000,0.000*0A
EndT:        0
---00000023--- Acq_st=3 2019-5-22 02:55:47 
[00]  G04  f 43  -1180.9 2046001.5  1.0  1.0  5  0 269764619
[01]  G07  f 42  -3539.4 2046004.6  1.0  1.0  5  0 269764619
[02]  G08  f 43  -1386.8 2046001.8  1.0  1.0  5  0 269764628
[03]  G09  f 46     -0.1 2046000.0  1.0  1.0  5  0 269764621
[04]  G16  f 40   1190.1 2045998.5  1.0  1.0  5  0 269764624
[05]  G21  f 36   2059.4 2045997.3  1.0  0.9  5  0 269764611
[06]  G27  f 50    925.0 2045998.8  1.0  1.0  5  0 269764629
[16]  B05  f 32   -350.6 4092001.0  0.8  0.0  2  0 269751162
[17]  B07 1f 44   -593.0 4092001.5  1.0  1.0  5  0 269750575
[18]  B10 1f 42   -649.1 4092001.7  1.0  1.0  5  0 269750572
$GNGGA,000000.000,,,,,0,00,,,M,,,,0000*2B
$GNRMC,000000.000,A,,,,,,,000000,,*26
$GPGSA,A,1,,,,,,,,,,,,,,,*1E
$BDGSA,A,1,,,,,,,,,,,,,,,*0F
$GPGSV,2,1,07,04,00,000,43,07,00,000,42,08,00,000,43,09,00,000,46*7B
$GPGSV,2,2,07,16,00,000,40,21,00,000,36,27,00,000,50*4B
$BDGSV,1,1,03,05,00,000,32,07,00,000,44,10,00,000,42*5F
$LOGTIM,0,0.000000,0.000000,0.000000,0.000000,0.000*0A
EndT:        0
---00000024--- Acq_st=3 2019-5-22 02:55:48 
[00]  G04  f 44  -1182.2 2046001.5  1.0  1.0  5  0 269765619
[01]  G07  f 43  -3541.4 2046004.6  1.0  1.0  5  0 269765619
[02]  G08  f 43  -1388.5 2046001.8  1.0  1.0  5  0 269765628
[03]  G09  f 45     -1.6 2046000.0  1.0  1.0  5  0 269765621
[04]  G16  f 41   1188.3 2045998.4  1.0  1.0  5  0 269765624
[05]  G21  f 36   2057.9 2045997.3  1.0  1.0  5  0 269765611
[06]  G27  f 50    923.4 2045998.8  1.0  1.0  5  0 269765629
[16]  B05 1f 33   -351.8 4092000.7  0.7  0.0  2  0 269752162
[17]  B07 1f 44   -594.9 4092001.6  1.0  1.0  5  0 269751575
[18]  B10 1f 42   -651.4 4092001.7  1.0  1.0  5  0 269751572
$GNGGA,000000.000,,,,,0,00,,,M,,,,0000*2B
$GNRMC,000000.000,A,,,,,,,000000,,*26
$GPGSA,A,1,,,,,,,,,,,,,,,*1E
$BDGSA,A,1,,,,,,,,,,,,,,,*0F
$GPGSV,2,1,07,04,00,000,44,07,00,000,43,08,00,000,43,09,00,000,45*7E
$GPGSV,2,2,07,16,00,000,41,21,00,000,36,27,00,000,50*4A
$BDGSV,1,1,03,05,00,000,33,07,00,000,44,10,00,000,42*5E
$LOGTIM,0,0.000000,0.000000,0.000000,0.000000,0.000*0A
EndT:        0
---00000025--- Acq_st=3 2019-5-22 02:55:49 
[00]  G04  f 43  -1182.8 2046001.5  1.0  1.0  5  0 269766619
[01]  G07  f 43  -3542.3 2046004.6  1.0  1.0  5  0 269766619
[02]  G08  f 42  -1389.1 2046001.8  1.0  1.0  5  0 269766628
[03]  G09  f 45     -2.2 2046000.0  1.0  1.0  5  0 269766621
[04]  G16  f 41   1187.0 2045998.5  1.0  1.0  5  0 269766624
[05]  G21  f 36   2057.6 2045997.3  1.0  1.0  5  0 269766611
[06]  G27  f 50    922.8 2045998.8  1.0  1.0  5  0 269766629
[16]  B05 1f 34   -353.3 4092000.7  0.8  0.0  2  0 269752562
[17]  B07 1f 44   -596.5 4092001.6  1.0  1.0  5  0 269752575
[18]  B10 1f 42   -652.8 4092001.7  1.0  1.0  5  0 269752572
$GNGGA,000000.000,,,,,0,00,,,M,,,,0000*2B
$GNRMC,000000.000,A,,,,,,,000000,,*26
$GPGSA,A,1,,,,,,,,,,,,,,,*1E
$BDGSA,A,1,,,,,,,,,,,,,,,*0F
$GPGSV,2,1,07,04,00,000,43,07,00,000,43,08,00,000,42,09,00,000,45*78
$GPGSV,2,2,07,16,00,000,41,21,00,000,36,27,00,000,50*4A
$BDGSV,1,1,03,05,00,000,34,07,00,000,44,10,00,000,42*59
$LOGTIM,0,0.000000,0.000000,0.000000,0.000000,0.000*0A
EndT:        0
---00000026--- Acq_st=3 2019-5-22 02:55:50 
[00]  G04  f 43  -1180.4 2046001.5  1.0  1.0  5  0 269767619
[01]  G07  f 43  -3540.9 2046004.6  1.0  1.0  5  0 269767619
[02]  G08  f 42  -1387.5 2046001.8  1.0  1.0  5  0 269767628
[03]  G09  f 46     -0.1 2046000.0  1.0  1.0  5  0 269767621
[04]  G16  f 41   1188.6 2045998.5  1.0  1.0  5  0 269767624
[05]  G21  f 37   2059.6 2045997.3  1.0  1.0  5  0 269767611
[06]  G27  f 50    924.6 2045998.8  1.0  1.0  5  0 269767629
[16]  B05 1f 33   -351.9 4092000.8  0.8  0.0  2  0 269753562
[17]  B07 1f 44   -594.7 4092001.5  1.0  1.0  5  0 269753575
[18]  B10 1f 42   -651.5 4092001.7  1.0  1.0  5  0 269753572
$GNGGA,000000.000,,,,,0,00,,,M,,,,0000*2B
$GNRMC,000000.000,A,,,,,,,000000,,*26
$GPGSA,A,1,,,,,,,,,,,,,,,*1E
$BDGSA,A,1,,,,,,,,,,,,,,,*0F
$GPGSV,2,1,07,04,00,000,43,07,00,000,43,08,00,000,42,09,00,000,46*7B
$GPGSV,2,2,07,16,00,000,41,21,00,000,37,27,00,000,50*4B
$BDGSV,1,1,03,05,00,000,33,07,00,000,44,10,00,000,42*5E
$LOGTIM,0,0.000000,0.000000,0.000000,0.000000,0.000*0A
EndT:        0
---00000027--- Acq_st=3 2019-5-22 02:55:51 
[00]  G04  f 44  -1175.0 2046001.5  1.0  1.0  5  0 269768619
[01]  G07  f 43  -3535.5 2046004.6  1.0  1.0  5  0 269768619
[02]  G08  f 43  -1381.5 2046001.8  1.0  1.0  5  0 269768628
[03]  G09  f 46      5.6 2046000.0  1.0  1.0  5  0 269768621
[04]  G16  f 41   1193.7 2045998.5  1.0  1.0  5  0 269768624
[05]  G21  f 36   2064.7 2045997.3  1.0  1.0  5  0 269768611
[06]  G27  f 50    930.3 2045998.8  1.0  1.0  5  0 269768629
[16]  B05 1f 31   -347.6 4092000.7  0.6  0.0  2  0 269754562
[17]  B07 1f 44   -590.2 4092001.6  1.0  1.0  5  0 269754575
[18]  B10 1f 42   -647.0 4092001.7  1.0  1.0  5  0 269754572
$GNGGA,000000.000,,,,,0,00,,,M,,,,0000*2B
$GNRMC,000000.000,A,,,,,,,000000,,*26
$GPGSA,A,1,,,,,,,,,,,,,,,*1E
$BDGSA,A,1,,,,,,,,,,,,,,,*0F
$GPGSV,2,1,07,04,00,000,44,07,00,000,43,08,00,000,43,09,00,000,46*7D
$GPGSV,2,2,07,16,00,000,41,21,00,000,36,27,00,000,50*4A
$BDGSV,1,1,03,05,00,000,31,07,00,000,44,10,00,000,42*5C
$LOGTIM,0,0.000000,0.000000,0.000000,0.000000,0.000*0A
EndT:        0
---00000028--- Acq_st=3 2019-5-22 02:55:52 
[00]  G04  f 44  -1174.4 2046001.5  1.0  1.0  5  0 269769619
[01]  G07  f 43  -3535.7 2046004.6  1.0  1.0  5  0 269769619
[02]  G08  f 43  -1381.0 2046001.8  1.0  1.0  5  0 269769628
[03]  G09  f 44      6.2 2046000.0  1.0  1.0  5  0 269769621
[04]  G16  f 41   1194.0 2045998.4  1.0  1.0  5  0 269769624
[05]  G21  f 36   2064.3 2045997.3  1.0  1.0  5  0 269769611
[06]  G27  f 49    930.7 2045998.8  1.0  1.0  5  0 269769629
[16]  B05 1f 31   -348.7 4092000.7  0.7  0.0  2  0 269755562
[17]  B07 1f 44   -590.2 4092001.5  1.0  1.0  5  0 269755575
[18]  B10 1f 42   -647.2 4092001.7  1.0  1.0  5  0 269755572
$GNGGA,000000.000,,,,,0,00,,,M,,,,0000*2B
$GNRMC,000000.000,A,,,,,,,000000,,*26
$GPGSA,A,1,,,,,,,,,,,,,,,*1E
$BDGSA,A,1,,,,,,,,,,,,,,,*0F
$GPGSV,2,1,07,04,00,000,44,07,00,000,43,08,00,000,43,09,00,000,44*7F
$GPGSV,2,2,07,16,00,000,41,21,00,000,36,27,00,000,49*42
$BDGSV,1,1,03,05,00,000,31,07,00,000,44,10,00,000,42*5C
$LOGTIM,0,0.000000,0.000000,0.000000,0.000000,0.000*0A
EndT:        0
---00000029--- Acq_st=3 2019-5-22 02:55:53 
[00]  G04  f 45  -1175.2 2046001.5  1.0  1.0  5  0 269770619
[01]  G07  f 43  -3536.5 2046004.6  1.0  1.0  5  0 269770619
[02]  G08  f 42  -1381.7 2046001.8  1.0  1.0  5  0 269770628
[03]  G09  f 44      5.6 2046000.0  1.0  1.0  5  0 269770621
[04]  G16  f 41   1192.6 2045998.4  1.0  1.0  5  0 269770624
[05]  G21  f 37   2064.1 2045997.3  1.0  1.0  5  0 269770611
[06]  G27  f 49    930.1 2045998.8  1.0  1.0  5  0 269770629
[16]  B05 1f 30   -347.2 4092000.9  0.7  0.0  2  0 269756562
[17]  B07 1f 44   -591.1 4092001.5  1.0  1.0  5  0 269756575
[18]  B10 1f 42   -648.0 4092001.7  1.0  1.0  5  0 269756572
$GNGGA,000000.000,,,,,0,00,,,M,,,,0000*2B
$GNRMC,000000.000,A,,,,,,,000000,,*26
$GPGSA,A,1,,,,,,,,,,,,,,,*1E
$BDGSA,A,1,,,,,,,,,,,,,,,*0F
$GPGSV,2,1,07,04,00,000,45,07,00,000,43,08,00,000,42,09,00,000,44*7F
$GPGSV,2,2,07,16,00,000,41,21,00,000,37,27,00,000,49*43
$BDGSV,1,1,03,05,00,000,30,07,00,000,44,10,00,000,42*5D
$LOGTIM,0,0.000000,0.000000,0.000000,0.000000,0.000*0A
EndT:        0
---00000030--- Acq_st=7 2019-5-22 02:55:54 
[00]  G04  f 44  -1173.2 2046001.5  1.0  1.0  5  0 269771619
[01]  G07  f 43  -3535.5 2046004.6  1.0  1.0  5  0 269771619
[02]  G08  f 43  -1380.0 2046001.8  1.0  1.0  5  0 269771628
[03]  G09  f 46      7.3 2046000.0  1.0  1.0  5  0 269771621
[04]  G16  f 42   1194.5 2045998.5  1.0  1.0  5  0 269771624
[05]  G21  f 37   2065.5 2045997.3  1.0  1.0  5  0 269771611
[06]  G27  f 50    931.8 2045998.8  1.0  1.0  5  0 269771629
[16]  B05 1f 32   -347.8 4092000.9  0.7  0.0  2  0 269757562
[17]  B07 1f 44   -589.8 4092001.5  1.0  1.0  5  0 269757575
[18]  B10 1f 42   -647.0 4092001.7  1.0  1.0  5  0 269757572
$GNGGA,000000.000,,,,,0,00,,,M,,,,0000*2B
$GNRMC,000000.000,A,,,,,,,000000,,*26
$GPGSA,A,1,,,,,,,,,,,,,,,*1E
$BDGSA,A,1,,,,,,,,,,,,,,,*0F
$GPGSV,2,1,07,04,00,000,44,07,00,000,43,08,00,000,43,09,00,000,46*7D
$GPGSV,2,2,07,16,00,000,42,21,00,000,37,27,00,000,50*48
$BDGSV,1,1,03,05,00,000,32,07,00,000,44,10,00,000,42*5F
$LOGTIM,0,0.000000,0.000000,0.000000,0.000000,0.000*0A
EndT:        0
---00000031--- Acq_st=7 2019-5-22 02:55:55 
[00]  G04  f 44  -1172.6 2046001.5  1.0  1.0  5  0 269772619
[01]  G07  f 43  -3534.9 2046004.6  1.0  1.0  5  0 269772619
[02]  G08  f 43  -1379.5 2046001.8  1.0  1.0  5  0 269772628
[03]  G09  f 46      7.9 2046000.0  1.0  1.0  5  0 269772621
[04]  G16  f 42   1194.2 2045998.4  1.0  1.0  5  0 269772624
[05]  G21  f 36   2066.1 2045997.3  1.0  1.0  5  0 269772611
[06]  G27  f 50    932.1 2045998.8  1.0  1.0  5  0 269772629
[16]  B05 1f 33   -347.5 4092000.6  0.8  0.0  2  0 269758562
[17]  B07 1f 44   -590.3 4092001.5  1.0  1.0  5  0 269758575
[18]  B10 1f 42   -646.9 4092001.7  1.0  1.0  5  0 269758572
$GNGGA,000000.000,,,,,0,00,,,M,,,,0000*2B
$GNRMC,000000.000,A,,,,,,,000000,,*26
$GPGSA,A,1,,,,,,,,,,,,,,,*1E
$BDGSA,A,1,,,,,,,,,,,,,,,*0F
$GPGSV,2,1,07,04,00,000,44,07,00,000,43,08,00,000,43,09,00,000,46*7D
$GPGSV,2,2,07,16,00,000,42,21,00,000,36,27,00,000,50*49
$BDGSV,1,1,03,05,00,000,33,07,00,000,44,10,00,000,42*5E
$LOGTIM,0,0.000000,0.000000,0.000000,0.000000,0.000*0A
EndT:        0
---00000032--- Acq_st=3 2019-5-22 02:55:56 
[00]  G04  f 44  -1175.5 2046001.5  1.0  1.0  5  0 269773619
[01]  G07  f 44  -3538.4 2046004.6  1.0  1.0  5  0 269773619
[02]  G08  f 43  -1382.1 2046001.8  1.0  1.0  5  0 269773628
[03]  G09  f 46      5.1 2046000.0  1.0  1.0  5  0 269773621
[04]  G16  f 42   1191.3 2045998.4  1.0  1.0  5  0 269773624
[05]  G21  f 36   2062.7 2045997.3  1.0  1.0  5  0 269773611
[06]  G27  f 50    929.4 2045998.8  1.0  1.0  5  0 269773629
[16]  B05 1f 35   -350.7 4092000.9  0.8  0.0  2  0 269759562
[17]  B07 1f 44   -593.4 4092001.5  1.0  1.0  5  0 269759575
[18]  B10 1f 42   -650.1 4092001.6  1.0  1.0  5  0 269759572
$GNGGA,000000.000,,,,,0,00,,,M,,,,0000*2B
$GNRMC,000000.000,A,,,,,,,000000,,*26
$GPGSA,A,1,,,,,,,,,,,,,,,*1E
$BDGSA,A,1,,,,,,,,,,,,,,,*0F
$GPGSV,2,1,07,04,00,000,44,07,00,000,44,08,00,000,43,09,00,000,46*7A
$GPGSV,2,2,07,16,00,000,42,21,00,000,36,27,00,000,50*49
$BDGSV,1,1,03,05,00,000,35,07,00,000,44,10,00,000,42*58
$LOGTIM,0,0.000000,0.000000,0.000000,0.000000,0.000*0A
EndT:        0
---00000033--- Acq_st=3 2019-5-22 02:55:57 
[00]  G04  f 45  -1174.8 2046001.5  1.0  1.0  5  0 269774619
[01]  G07  f 43  -3538.2 2046004.6  1.0  1.0  5  0 269774619
[02]  G08  f 43  -1381.7 2046001.8  1.0  1.0  5  0 269774628
[03]  G09  f 45      5.7 2046000.0  1.0  1.0  5  0 269774621
[04]  G16  f 43   1191.3 2045998.5  1.0  1.0  5  0 269774624
[05]  G21  f 35   2063.9 2045997.3  1.0  1.0  5  0 269774611
[06]  G27  f 50    930.0 2045998.8  1.0  1.0  5  0 269774629
[16]  B05 1f 34   -350.7 4092000.9  0.8  0.0  2  0 269760562
[17]  B07 1f 44   -593.2 4092001.5  1.0  1.0  5  0 269760575
[18]  B10 1f 42   -649.7 4092001.7  1.0  1.0  5  0 269760572
$GNGGA,000000.000,,,,,0,00,,,M,,,,0000*2B
$GNRMC,000000.000,A,,,,,,,000000,,*26
$GPGSA,A,1,,,,,,,,,,,,,,,*1E
$BDGSA,A,1,,,,,,,,,,,,,,,*0F
$GPGSV,2,1,07,04,00,000,45,07,00,000,43,08,00,000,43,09,00,000,45*7F
$GPGSV,2,2,07,16,00,000,43,21,00,000,35,27,00,000,50*4B
$BDGSV,1,1,03,05,00,000,34,07,00,000,44,10,00,000,42*59
$LOGTIM,0,0.000000,0.000000,0.000000,0.000000,0.000*0A
EndT:        0
---00000034--- Acq_st=3 2019-5-22 02:55:58 
[00]  G04  f 44  -1171.4 2046001.5  1.0  1.0  5  0 269775619
[01]  G07  f 44  -3535.2 2046004.6  1.0  1.0  5  0 269775619
[02]  G08  f 43  -1378.4 2046001.8  1.0  1.0  5  0 269775628
[03]  G09  f 46      9.2 2046000.0  1.0  1.0  5  0 269775621
[04]  G16  f 42   1194.2 2045998.5  1.0  1.0  5  0 269775624
[05]  G21  f 35   2065.7 2045997.4  1.0  1.0  5  0 269775611
[06]  G27  f 49    933.3 2045998.8  1.0  1.0  5  0 269775629
[16]  B05 1f 33   -348.2 4092000.9  0.9  0.0  2  0 269761562
[17]  B07 1f 44   -590.9 4092001.6  1.0  1.0  5  0 269761575
[18]  B10 1f 42   -647.7 4092001.7  1.0  1.0  5  0 269761572
$GNGGA,000000.000,,,,,0,00,,,M,,,,0000*2B
$GNRMC,000000.000,A,,,,,,,000000,,*26
$GPGSA,A,1,,,,,,,,,,,,,,,*1E
$BDGSA,A,1,,,,,,,,,,,,,,,*0F
$GPGSV,2,1,07,04,00,000,44,07,00,000,44,08,00,000,43,09,00,000,46*7A
$GPGSV,2,2,07,16,00,000,42,21,00,000,35,27,00,000,49*42
$BDGSV,1,1,03,05,00,000,33,07,00,000,44,10,00,000,42*5E
$LOGTIM,0,0.000000,0.000000,0.000000,0.000000,0.000*0A
EndT:        0
---00000035--- Acq_st=3 2019-5-22 02:55:59 
[00]  G04  f 44  -1170.5 2046001.5  1.0  1.0  5  0 269776619
[01]  G07  f 44  -3534.9 2046004.6  1.0  1.0  5  0 269776619
[02]  G08  f 42  -1377.8 2046001.8  1.0  1.0  5  0 269776628
[03]  G09  f 45      9.7 2046000.0  1.0  1.0  5  0 269776621
[04]  G16  f 43   1194.2 2045998.5  1.0  1.0  5  0 269776624
[05]  G21  f 35   2067.1 2045997.3  1.0  0.9  5  0 269776611
[06]  G27  f 49    933.6 2045998.8  1.0  1.0  5  0 269776629
[07]  G26  1 24   1720.3 2045998.7 -0.0  0.0  1  0         0
[16]  B05 1f 34   -347.5 4092001.0  0.8  0.0  2  0 269762562
[17]  B07 1f 44   -591.1 4092001.5  1.0  1.0  5  0 269762575
[18]  B10 1f 42   -647.7 4092001.7  1.0  1.0  5  0 269762572
$GNGGA,000000.000,,,,,0,00,,,M,,,,0000*2B
$GNRMC,000000.000,A,,,,,,,000000,,*26
$GPGSA,A,1,,,,,,,,,,,,,,,*1E
$BDGSA,A,1,,,,,,,,,,,,,,,*0F
$GPGSV,2,1,07,04,00,000,44,07,00,000,44,08,00,000,42,09,00,000,45*78
$GPGSV,2,2,07,16,00,000,43,21,00,000,35,27,00,000,49*43
$BDGSV,1,1,03,05,00,000,34,07,00,000,44,10,00,000,42*59
$LOGTIM,0,0.000000,0.000000,0.000000,0.000000,0.000*0A
EndT:        0
---00000036--- Acq_st=3 2019-5-22 02:56:0 
[00]  G04  f 44  -1170.2 2046001.5  1.0  1.0  5 3f 269777619
[01]  G07  f 44  -3535.0 2046004.6  1.0  1.0  5  0 269777619
[02]  G08  f 43  -1377.4 2046001.8  1.0  1.0  5  0 269777628
[03]  G09  f 45     10.2 2046000.0  1.0  1.0  5  0 269777621
[04]  G16  f 42   1194.2 2045998.5  1.0  1.0  5  0 269777624
[05]  G21  f 33   2067.0 2045997.4  1.0  0.9  5  0 269777611
[06]  G27  f 49    934.2 2045998.8  1.0  1.0  5  0 269777629
[07]  G26  7 27   1714.7 2045997.7  0.0  1.0 10  0         7
[16]  B05 1f 34   -347.3 4092000.9  0.8  0.0  2  0 269763562
[17]  B07 1f 44   -590.6 4092001.6  1.0  1.0  5  0 269763575
[18]  B10 1f 42   -647.4 4092001.7  1.0  1.0  5  0 269763572
lsq: nits= 4
$GNGGA,025600.697,3112.7164,N,12136.4307,E,1,06,2.4,79.0,M,,,,0000*24
$GNRMC,025600.697,A,3112.7164,N,12136.4307,E,0.18,0.00,220519,,*12
$GPGSA,A,3,07,08,09,16,21,27,,,,,,,3.2,2.4,2.2*32
$BDGSA,A,3,,,,,,,,,,,,,3.2,2.4,2.2*24
$GPGSV,2,1,08,04,00,000,44,07,00,000,44,08,00,000,43,09,00,000,45*76
$GPGSV,2,2,08,16,00,000,42,21,00,000,33,27,00,000,49,26,00,000,27*7A
$BDGSV,1,1,03,05,00,000,34,07,00,000,44,10,00,000,42*59
$LOGTIM,1,9428350.952176,0.000000,0.000000,0.000000,-62.977*14
EndT:        1
---00000037--- Acq_st=3 2019-5-22 02:56:1 
[00]  G04  f 44  -1166.6 2046001.5  1.0  1.0  5 3f 269778619
[01]  G07  f 43  -3531.9 2046004.6  1.0  1.0  5  0 269778619
[02]  G08  f 43  -1373.6 2046001.8  1.0  1.0  5  0 269778628
[03]  G09  f 45     13.7 2046000.0  1.0  1.0  5  0 269778621
[04]  G16  f 42   1197.5 2045998.4  1.0  1.0  5  0 269778624
[05]  G21  f 33   2070.1 2045997.3  1.0  1.0  5  0 269778611
[06]  G27  f 48    937.6 2045998.8  1.0  1.0  5  0 269778629
[07]  G26  7 36   1719.3 2045997.6  1.0  0.9  5  0        19
[16]  B05 1f 33   -345.2 4092000.9  0.8  0.0  2  0 269764562
[17]  B07 1f 44   -587.9 4092001.5  1.0  1.0  5  0 269764575
[18]  B10 1f 42   -645.1 4092001.7  1.0  1.0  5  0 269764572
lsq: nits= 2
$GNGGA,025602.000,3112.7170,N,12136.4312,E,1,06,2.4,78.9,M,,,,0000*27
$GNRMC,025602.000,A,3112.7170,N,12136.4312,E,0.10,0.00,220519,,*11
$GPGSA,A,3,07,08,09,16,21,27,,,,,,,3.2,2.4,2.2*32
$BDGSA,A,3,,,,,,,,,,,,,3.2,2.4,2.2*24
$GPGSV,2,1,08,04,00,000,44,07,00,000,43,08,00,000,43,09,00,000,45*71
$GPGSV,2,2,08,16,00,000,42,21,00,000,33,27,00,000,48,26,00,000,36*7B
$BDGSV,1,1,03,05,00,000,33,07,00,000,44,10,00,000,42*5E
$LOGTIM,1,-82.362735,0.000000,0.000000,0.000000,-62.910*0B
EndT:        2
---00000038--- Acq_st=3 2019-5-22 02:56:2 
[00]  G04  f 43  -1170.4 2046001.5  1.0  1.0  5 3f 269779922
[01]  G07  f 43  -3536.2 2046004.6  1.0  1.0  5  0 269779922
[02]  G08  f 43  -1377.5 2046001.8  1.0  1.0  5  0 269779931
[03]  G09  f 45     10.3 2046000.0  1.0  1.0  5  0 269779924
[04]  G16  f 43   1193.3 2045998.4  1.0  1.0  5  0 269779927
[05]  G21  f 33   2065.9 2045997.4  1.0  0.9  5  0 269779914
[06]  G27  f 48    934.0 2045998.8  1.0  1.0  5  0 269779932
[07]  G26  7 35   1714.8 2045997.7  1.0  0.9  5  0         2
[16]  B05 1f 32   -349.4 4092001.0  0.8  0.0  2  0 269765865
[17]  B07 1f 44   -592.3 4092001.5  1.0  1.0  5  0 269765878
[18]  B10 1f 42   -649.3 4092001.7  1.0  1.0  5  0 269765875
lsq: nits= 2
$GNGGA,025603.000,3112.7172,N,12136.4315,E,1,06,2.4,78.9,M,,,,0000*23
$GNRMC,025603.000,A,3112.7172,N,12136.4315,E,0.26,0.00,220519,,*10
$GPGSA,A,3,07,08,09,16,21,27,,,,,,,3.2,2.4,2.2*32
$BDGSA,A,3,,,,,,,,,,,,,3.2,2.4,2.2*24
$GPGSV,2,1,08,04,00,000,43,07,27,317,43,08,66,243,43,09,31,276,45*72
$GPGSV,2,2,08,16,44,047,43,21,08,040,33,27,71,023,48,26,00,000,35*71
$BDGSV,2,1,06,05,13,253,32,07,00,000,44,10,00,000,42,01,49,146,00*60
$BDGSV,2,2,06,04,35,122,00,16,23,202,00*6B
$LOGTIM,1,-146.407484,0.000000,0.000000,0.000000,-63.658*3D
EndT:        2
---00000039--- Acq_st=3 2019-5-22 02:56:3 
[00]  G04  f 45  -1174.7 2046001.5  1.0  1.0  5 3f 269780922
[01]  G07  f 44  -3541.1 2046004.6  1.0  1.0  5  0 269780922
[02]  G08  f 43  -1382.0 2046001.8  1.0  1.0  5  0 269780931
[03]  G09  f 45      5.5 2046000.0  1.0  1.0  5  0 269780924
[04]  G16  f 43   1188.2 2045998.4  1.0  1.0  5  0 269780927
[05]  G21  f 33   2061.4 2045997.4  1.0  0.9  5  0 269780914
[06]  G27  f 48    929.2 2045998.8  1.0  1.0  5  0 269780932
[07]  G26  7 35   1708.8 2045997.8  1.0  1.0  5  0         2
[16]  B05 1f 34   -353.9 4092000.8  0.7  0.0  2  0 269766865
[17]  B07 1f 44   -597.4 4092001.6  1.0  1.0  5  0 269766878
[18]  B10 1f 42   -654.2 4092001.7  1.0  1.0  5  0 269766875
lsq: nits= 2
$GNGGA,025604.000,3112.7173,N,12136.4316,E,1,06,2.4,79.4,M,,,,0000*2A
$GNRMC,025604.000,A,3112.7173,N,12136.4316,E,0.44,0.00,220519,,*11
$GPGSA,A,3,07,08,09,16,21,27,,,,,,,3.2,2.4,2.2*32
$BDGSA,A,3,,,,,,,,,,,,,3.2,2.4,2.2*24
$GPGSV,2,1,08,04,00,000,45,07,27,317,44,08,66,243,43,09,31,276,45*73
$GPGSV,2,2,08,16,44,047,43,21,08,040,33,27,71,023,48,26,00,000,35*71
$BDGSV,2,1,06,05,13,253,34,07,00,000,44,10,00,000,42,01,49,146,00*66
$BDGSV,2,2,06,04,35,122,00,16,23,202,00*6B
$LOGTIM,1,-210.902450,0.000000,0.000000,0.000000,-64.321*30
EndT:        2
---00000040--- Acq_st=3 2019-5-22 02:56:4 
[00]  G04  f 45  -1176.8 2046001.5  1.0  1.0  5 3f 269781922
[01]  G07  f 44  -3543.5 2046004.6  1.0  1.0  5  0 269781922
[02]  G08  f 44  -1384.1 2046001.8  1.0  1.0  5  0 269781931
[03]  G09  f 45      3.8 2046000.0  1.0  1.0  5  0 269781924
[04]  G16  f 43   1185.9 2045998.4  1.0  1.0  5  0 269781927
[05]  G21  f 33   2059.4 2045997.4  1.0  0.9  5  0 269781914
[06]  G27  f 49    927.3 2045998.8  1.0  1.0  5  0 269781932
[07]  G26  7 35   1706.5 2045997.7  1.0  0.9  5  0         2
[16]  B05 1f 33   -356.0 4092001.0  0.8  0.0  2  0 269767865
[17]  B07 1f 44   -599.9 4092001.6  1.0  1.0  5  0 269767878
[18]  B10 1f 42   -656.4 4092001.7  1.0  1.0  5  0 269767875
lsq: nits= 2
$GNGGA,025605.000,3112.7174,N,12136.4317,E,1,06,2.4,79.6,M,,,,0000*2F
$GNRMC,025605.000,A,3112.7174,N,12136.4317,E,0.43,0.00,220519,,*11
$GPGSA,A,3,07,08,09,16,21,27,,,,,,,3.2,2.4,2.2*32
$BDGSA,A,3,,,,,,,,,,,,,3.2,2.4,2.2*24
$GPGSV,2,1,08,04,00,000,45,07,27,317,44,08,66,243,44,09,31,276,45*74
$GPGSV,2,2,08,16,44,047,43,21,08,040,33,27,71,023,49,26,00,000,35*70
$BDGSV,2,1,06,05,13,253,33,07,00,000,44,10,00,000,42,01,49,146,00*61
$BDGSV,2,2,06,04,35,122,00,16,23,202,00*6B
$LOGTIM,1,-275.857688,0.000000,0.000000,0.000000,-64.587*3F
EndT:        2
---00000041--- Acq_st=3 2019-5-22 02:56:5 
[00]  G04  f 44  -1175.2 2046001.5  1.0  1.0  5 3f 269782922
[01]  G07  f 44  -3542.5 2046004.6  1.0  1.0  5  0 269782922
[02]  G08  f 44  -1382.7 2046001.8  1.0  1.0  5  0 269782931
[03]  G09  f 45      5.4 2046000.0  1.0  1.0  5  0 269782924
[04]  G16  f 43   1186.9 2045998.4  1.0  1.0  5  0 269782927
[05]  G21  f 33   2061.0 2045997.4  1.0  1.0  5  0 269782914
[06]  G27  f 49    928.7 2045998.8  1.0  1.0  5  0 269782932
[07]  G26  7 34   1707.3 2045997.7  1.0  1.0  5  0         2
[16]  B05 1f 33   -355.7 4092001.0  0.8  0.0  2  0 269768865
[17]  B07 1f 44   -599.1 4092001.6  1.0  1.0  5  0 269768878
[18]  B10 1f 42   -655.7 4092001.7  1.0  1.0  5  0 269768875
lsq: nits= 2
$GNGGA,025606.000,3112.7175,N,12136.4316,E,1,06,2.4,79.5,M,,,,0000*2F
$GNRMC,025606.000,A,3112.7175,N,12136.4316,E,0.22,0.00,220519,,*15
$GPGSA,A,3,07,08,09,16,21,27,,,,,,,3.2,2.4,2.2*32
$BDGSA,A,3,,,,,,,,,,,,,3.2,2.4,2.2*24
$GPGSV,2,1,08,04,00,000,44,07,27,317,44,08,66,243,44,09,31,276,45*75
$GPGSV,2,2,08,16,44,047,43,21,08,040,33,27,71,023,49,26,00,000,34*71
$BDGSV,2,1,06,05,13,253,33,07,00,000,44,10,00,000,42,01,49,146,00*61
$BDGSV,2,2,06,04,35,122,00,16,23,202,00*6B
$LOGTIM,1,-341.010188,0.000000,0.000000,0.000000,-64.580*32
EndT:        2
---00000042--- Acq_st=3 2019-5-22 02:56:6 
[00]  G04  f 45  -1173.2 2046001.5  1.0  1.0  5 3f 269783922
[01]  G07  f 44  -3541.3 2046004.6  1.0  1.0  5  0 269783922
[02]  G08  f 44  -1380.9 2046001.8  1.0  1.0  5  0 269783931
[03]  G09  f 45      7.0 2046000.0  1.0  1.0  5  0 269783924
[04]  G16  f 43   1188.0 2045998.5  1.0  1.0  5  0 269783927
[05]  G21  f 33   2062.1 2045997.4  1.0  0.9  5  0 269783914
[06]  G27  f 49    930.4 2045998.8  1.0  1.0  5  0 269783932
[07]  G26  7 34   1709.4 2045997.7  1.0  0.9  5  0         2
[16]  B05 1f 35   -353.9 4092001.0  0.8  0.0  2  0 269769865
[17]  B07 1f 44   -597.9 4092001.6  1.0  1.0  5  0 269769878
[18]  B10 1f 42   -654.7 4092001.7  1.0  1.0  5  0 269769875
lsq: nits= 2
$GNGGA,025607.000,3112.7179,N,12136.4309,E,1,06,2.4,79.9,M,,,,0000*20
$GNRMC,025607.000,A,3112.7179,N,12136.4309,E,0.11,0.00,220519,,*16
$GPGSA,A,3,07,08,09,16,21,27,,,,,,,3.2,2.4,2.2*32
$BDGSA,A,3,,,,,,,,,,,,,3.2,2.4,2.2*24
$GPGSV,2,1,08,04,00,000,45,07,27,317,44,08,66,243,44,09,31,276,45*74
$GPGSV,2,2,08,16,44,047,43,21,08,040,33,27,71,023,49,26,00,000,34*71
$BDGSV,2,1,06,05,13,253,35,07,66,005,44,10,00,000,42,01,49,146,00*62
$BDGSV,2,2,06,04,35,122,00,16,23,202,00*6B
$LOGTIM,1,-406.361146,0.000000,0.000000,0.000000,-64.310*3E
EndT:        2
---00000043--- Acq_st=3 2019-5-22 02:56:7 
[00]  G04  f 44  -1168.3 2046001.5  1.0  1.0  5 3f 269784922
[01]  G07  f 43  -3536.2 2046004.6  1.0  1.0  5  0 269784922
[02]  G08  f 43  -1375.8 2046001.8  1.0  1.0  5  0 269784931
[03]  G09  f 45     12.4 2046000.0  1.0  1.0  5  0 269784924
[04]  G16  f 42   1192.7 2045998.5  1.0  1.0  5  0 269784927
[05]  G21  f 35   2067.2 2045997.3  1.0  1.0  5  0 269784914
[06]  G27  f 48    935.3 2045998.8  1.0  1.0  5  0 269784932
[07]  G26  f 35   1713.7 2045997.8  1.0  1.0  5  0         2
[16]  B05 1f 33   -350.2 4092000.8  0.8  0.0  2  0 269770865
[17]  B07 1f 44   -593.4 4092001.5  1.0  1.0  5  0 269770878
[18]  B10 1f 42   -650.4 4092001.7  1.0  1.0  5  0 269770875
lsq: nits= 2
$GNGGA,025608.000,3112.7184,N,12136.4305,E,1,06,2.4,79.9,M,,,,0000*21
$GNRMC,025608.000,A,3112.7184,N,12136.4305,E,0.39,0.00,220519,,*1D
$GPGSA,A,3,07,08,09,16,21,27,,,,,,,3.2,2.4,2.2*32
$BDGSA,A,3,,,,,,,,,,,,,3.2,2.4,2.2*24
$GPGSV,2,1,08,04,00,000,44,07,27,317,43,08,66,243,43,09,31,276,45*75
$GPGSV,2,2,08,16,44,047,42,21,08,040,35,27,71,023,48,26,00,000,35*76
$BDGSV,2,1,06,05,13,253,33,07,66,005,44,10,00,000,42,01,49,146,00*64
$BDGSV,2,2,06,04,35,122,00,16,23,202,00*6B
$LOGTIM,1,-471.058728,0.000000,0.000000,0.000000,-63.902*37
EndT:        2
---00000044--- Acq_st=3 2019-5-22 02:56:8 
[00]  G04  f 44  -1168.1 2046001.5  1.0  1.0  5 3f 269785922
[01]  G07  f 44  -3536.8 2046004.6  1.0  1.0  5  0 269785922
[02]  G08  f 43  -1375.6 2046001.8  1.0  1.0  5  0 269785931
[03]  G09  f 44     12.5 2046000.0  1.0  1.0  5  0 269785924
[04]  G16  f 42   1192.6 2045998.5  1.0  1.0  5  0 269785927
[05]  G21  f 36   2067.3 2045997.2  1.0  1.0  5  0 269785914
[06]  G27  f 49    935.7 2045998.8  1.0  1.0  5  0 269785932
[07]  G26  f 35   1714.4 2045997.8  1.0  1.0  5  0 269785922
[16]  B05 1f 35   -350.6 4092000.9  0.8  0.0  2  0 269771865
[17]  B07 1f 44   -593.9 4092001.5  1.0  1.0  5  0 269771878
[18]  B10 1f 42   -650.5 4092001.7  1.0  1.0  5  0 269771875
[19]  B28  1  7   1873.8 4091993.8  0.1  0.0  1  0       257
lsq: nits= 2
$GNGGA,025609.000,3112.7184,N,12136.4300,E,1,06,2.4,79.1,M,,,,0000*2D
$GNRMC,025609.000,A,3112.7184,N,12136.4300,E,0.42,0.00,220519,,*15
$GPGSA,A,3,07,08,09,16,21,27,,,,,,,3.2,2.4,2.2*32
$BDGSA,A,3,,,,,,,,,,,,,3.2,2.4,2.2*24
$GPGSV,2,1,08,04,00,000,44,07,27,317,44,08,66,243,43,09,31,276,44*73
$GPGSV,2,2,08,16,44,047,42,21,08,040,36,27,71,023,49,26,00,000,35*74
$BDGSV,2,1,06,05,13,253,35,07,66,005,44,10,00,000,42,01,49,146,00*62
$BDGSV,2,2,06,04,35,122,00,16,23,202,00*6B
$LOGTIM,1,-536.365567,0.000000,0.000000,0.000000,-63.882*38
EndT:        2
---00000045--- Acq_st=7 2019-5-22 02:56:9 
[00]  G04  f 44  -1166.2 2046001.5  1.0  1.0  5 3f 269786922
[01]  G07  f 44  -3535.1 2046004.6  1.0  1.0  5  0 269786922
[02]  G08  f 43  -1374.0 2046001.8  1.0  1.0  5  0 269786931
[03]  G09  f 45     14.2 2046000.0  1.0  1.0  5  0 269786924
[04]  G16  f 43   1193.9 2045998.4  1.0  1.0  5  0 269786927
[05]  G21  f 36   2068.6 2045997.2  1.0  1.0  5  0 269786914
[06]  G27  f 49    937.3 2045998.8  1.0  1.0  5  0 269786932
[07]  G26  f 34   1714.4 2045997.8  1.0  0.9  5  0 269786922
[16]  B05 1f 34   -349.4 4092001.2  0.8  0.0  2  0 269772865
[17]  B07 1f 44   -592.6 4092001.6  1.0  1.0  5  0 269772878
[18]  B10 1f 42   -649.7 4092001.7  1.0  1.0  5  0 269772875
[19]  B28  7 28   1849.5 4091995.0  0.5  1.0 10  0      1257
lsq: nits= 2
$GNGGA,025610.000,3112.7181,N,12136.4296,E,1,06,2.4,78.0,M,,,,0000*2E
$GNRMC,025610.000,A,3112.7181,N,12136.4296,E,0.48,0.00,220519,,*1C
$GPGSA,A,3,07,08,09,16,21,27,,,,,,,3.2,2.4,2.2*32
$BDGSA,A,3,,,,,,,,,,,,,3.2,2.4,2.2*24
$GPGSV,2,1,08,04,00,000,44,07,27,317,44,08,66,243,43,09,31,276,45*72
$GPGSV,2,2,08,16,44,047,43,21,08,040,36,27,71,023,49,26,00,000,34*74
$BDGSV,2,1,08,05,13,253,34,07,66,005,44,10,00,000,42,28,00,000,28*62
$BDGSV,2,2,08,01,49,146,00,04,35,122,00,08,31,169,00,16,23,202,00*6E
$LOGTIM,1,-601.288639,0.000000,0.000000,0.000000,-63.757*32
EndT:        2
---00000046--- Acq_st=7 2019-5-22 02:56:10 
[00]  G04  f 44  -1166.9 2046001.5  1.0  1.0  5 3f 269787922
[01]  G07  f 44  -3536.6 2046004.6  1.0  1.0  5  0 269787922
[02]  G08  f 44  -1374.6 2046001.8  1.0  1.0  5  0 269787931
[03]  G09  f 45     13.6 2046000.0  1.0  1.0  5  0 269787924
[04]  G16  f 43   1192.7 2045998.4  1.0  1.0  5  0 269787927
[05]  G21  f 37   2068.1 2045997.3  1.0  1.0  5  0 269787914
[06]  G27  f 49    936.5 2045998.8  1.0  1.0  5  0 269787932
[07]  G26  f 35   1713.4 2045997.8  1.0  1.0  5  0 269787922
[16]  B05 1f 32   -351.0 4092000.9  0.8  0.0  2  0 269773865
[17]  B07 1f 44   -594.0 4092001.6  1.0  1.0  5  0 269773878
[18]  B10 1f 42   -651.2 4092001.7  1.0  1.0  5  0 269773875
[19]  B28  7 35   1848.9 4091995.1  1.0  0.9  5  0      2242
lsq: nits= 2
$GNGGA,025611.000,3112.7176,N,12136.4295,E,1,06,2.4,76.5,M,,,,0000*2F
$GNRMC,025611.000,A,3112.7176,N,12136.4295,E,0.37,0.00,220519,,*1E
$GPGSA,A,3,07,08,09,16,21,27,,,,,,,3.2,2.4,2.2*32
$BDGSA,A,3,,,,,,,,,,,,,3.2,2.4,2.2*24
$GPGSV,2,1,08,04,00,000,44,07,27,317,44,08,66,243,44,09,31,276,45*75
$GPGSV,2,2,08,16,44,047,43,21,08,040,37,27,71,023,49,26,00,000,35*74
$BDGSV,2,1,08,05,13,253,32,07,66,005,44,10,00,000,42,28,00,000,35*68
$BDGSV,2,2,08,01,49,146,00,04,35,122,00,08,31,169,00,16,23,202,00*6E
$LOGTIM,1,-666.315832,0.000000,0.000000,0.000000,-64.005*34
EndT:        2
---00000047--- Acq_st=3 2019-5-22 02:56:11 
[00]  G04  f 43  -1168.1 2046001.5  1.0  1.0  5 3f 269788922
[01]  G07  f 44  -3538.0 2046004.6  1.0  1.0  5  0 269788922
[02]  G08  f 43  -1375.6 2046001.8  1.0  1.0  5  0 269788931
[03]  G09  f 45     12.5 2046000.0  1.0  1.0  5  0 269788924
[04]  G16  f 43   1191.3 2045998.5  1.0  1.0  5  0 269788927
[05]  G21  f 38   2066.2 2045997.3  1.0  1.0  5  0 269788914
[06]  G27  f 49    935.4 2045998.8  1.0  1.0  5  0 269788932
[07]  G26  f 34   1711.5 2045997.8  1.0  1.0  5  0 269788922
[16]  B05 1f 32   -352.1 4092001.0  0.8  0.0  2  0 269774865
[17]  B07 1f 44   -595.7 4092001.5  1.0  1.0  5  0 269774878
[18]  B10 1f 42   -652.3 4092001.7  1.0  1.0  5  0 269774875
[19]  B28  7 36   1847.4 4091995.1  1.0  0.9  5  0      3242
lsq: nits= 2
$GNGGA,025612.000,3112.7172,N,12136.4293,E,1,06,2.4,74.9,M,,,,0000*20
$GNRMC,025612.000,A,3112.7172,N,12136.4293,E,0.27,0.00,220519,,*1E
$GPGSA,A,3,07,08,09,16,21,27,,,,,,,3.2,2.4,2.2*32
$BDGSA,A,3,,,,,,,,,,,,,3.2,2.4,2.2*24
$GPGSV,2,1,08,04,00,000,43,07,27,317,44,08,66,243,43,09,31,276,45*75
$GPGSV,2,2,08,16,44,047,43,21,08,040,38,27,71,023,49,26,00,000,34*7A
$BDGSV,2,1,08,05,13,253,32,07,66,005,44,10,00,000,42,28,00,000,36*6B
$BDGSV,2,2,08,01,49,146,00,04,35,122,00,08,31,169,00,16,22,202,00*6F
$LOGTIM,1,-731.374080,0.000000,0.000000,0.000000,-64.183*3E
EndT:        2
---00000048--- Acq_st=3 2019-5-22 02:56:12 
[00]  G04  f 43  -1169.1 2046001.5  1.0  1.0  5 3f 269789922
[01]  G07  f 44  -3539.2 2046004.6  1.0  1.0  5  0 269789922
[02]  G08  f 43  -1376.9 2046001.8  1.0  1.0  5  0 269789931
[03]  G09  f 45     11.5 2046000.0  1.0  1.0  5  0 269789924
[04]  G16  f 43   1189.8 2045998.5  1.0  1.0  5  0 269789927
[05]  G21  f 38   2065.0 2045997.3  1.0  1.0  5  0 269789914
[06]  G27  f 50    934.2 2045998.8  1.0  1.0  5  0 269789932
[07]  G26  f 34   1710.1 2045997.8  1.0  1.0  5  0 269789922
[16]  B05 1f 30   -353.6 4092000.8  0.7  0.0  2  0 269775865
[17]  B07 1f 44   -597.4 4092001.6  1.0  1.0  5  0 269775878
[18]  B10 1f 42   -654.1 4092001.6  1.0  1.0  5  0 269775875
[19]  B28  7 36   1846.7 4091995.0  1.0  0.9  5  0      4242
lsq: nits= 2
$GNGGA,025613.000,3112.7172,N,12136.4291,E,1,06,2.4,73.3,M,,,,0000*2E
$GNRMC,025613.000,A,3112.7172,N,12136.4291,E,0.14,0.00,220519,,*1D
$GPGSA,A,3,07,08,09,16,21,27,,,,,,,3.2,2.4,2.2*32
$BDGSA,A,3,,,,,,,,,,,,,3.2,2.4,2.2*24
$GPGSV,2,1,08,04,00,000,43,07,27,317,44,08,66,243,43,09,31,276,45*75
$GPGSV,2,2,08,16,44,047,43,21,08,040,38,27,71,023,50,26,00,000,34*72
$BDGSV,3,1,09,05,13,253,30,07,66,005,44,10,00,000,42,28,00,000,36*69
$BDGSV,3,2,09,01,49,146,00,04,35,122,00,08,31,169,00,09,11,185,00*6D
$BDGSV,3,3,09,16,22,202,00*56
$LOGTIM,1,-796.635979,0.000000,0.000000,0.000000,-64.403*31
EndT:        2
---00000049--- Acq_st=3 2019-5-22 02:56:13 
[00]  G04  f 43  -1167.9 2046001.5  1.0  1.0  5 3f 269790922
[01]  G07  f 43  -3538.8 2046004.6  1.0  1.0  5  0 269790922
[02]  G08  f 44  -1376.0 2046001.8  1.0  1.0  5  0 269790931
[03]  G09  f 44     12.3 2046000.0  1.0  1.0  5  0 269790924
[04]  G16  f 43   1190.5 2045998.4  1.0  1.0  5  0 269790927
[05]  G21  f 38   2065.6 2045997.3  1.0  1.0  5  0 269790914
[06]  G27  f 50    935.2 2045998.8  1.0  1.0  5  0 269790932
[07]  G26  f 34   1711.0 2045997.8  1.0  1.0  5  0 269790922
[16]  B05 1f 32   -353.4 4092000.7  0.6  0.0  2  0 269776865
[17]  B07 1f 44   -596.8 4092001.6  1.0  1.0  5  0 269776878
[18]  B10 1f 42   -653.8 4092001.7  1.0  1.0  5  0 269776875
[19]  B28  7 35   1847.1 4091995.1  1.0  1.0  5  0      5242
lsq: nits= 2
$GNGGA,025614.000,3112.7172,N,12136.4289,E,1,06,2.4,71.9,M,,,,0000*28
$GNRMC,025614.000,A,3112.7172,N,12136.4289,E,0.20,0.00,220519,,*14
$GPGSA,A,3,07,08,09,16,21,27,,,,,,,3.2,2.4,2.2*32
$BDGSA,A,3,,,,,,,,,,,,,3.2,2.4,2.2*24
$GPGSV,3,1,09,04,00,000,43,07,27,317,43,08,66,243,44,09,31,276,44*74
$GPGSV,3,2,09,16,44,047,43,21,08,040,38,27,71,023,50,26,00,000,34*72
$GPGSV,3,3,09,18,20,174,00*49
$BDGSV,3,1,09,05,13,253,32,07,66,005,44,10,00,000,42,28,00,000,35*68
$BDGSV,3,2,09,01,49,146,00,04,35,122,00,08,31,169,00,09,11,185,00*6D
$BDGSV,3,3,09,16,22,202,00*56
$LOGTIM,1,-861.701138,0.000000,0.000000,0.000000,-64.336*3C
EndT:        2
---00000050--- Acq_st=3 2019-5-22 02:56:14 
[00]  G04  f 43  -1166.0 2046001.5  1.0  1.0  5 3f 269791922
[01]  G07  f 43  -3537.5 2046004.6  1.0  1.0  5  0 269791922
[02]  G08  f 44  -1374.3 2046001.8  1.0  1.0  5  0 269791931
[03]  G09  f 44     14.4 2046000.0  1.0  1.0  5  0 269791924
[04]  G16  f 43   1191.5 2045998.5  1.0  1.0  5  0 269791927
[05]  G21  f 38   2066.7 2045997.3  1.0  1.0  5  0 269791914
[06]  G27  f 50    937.0 2045998.8  1.0  1.0  5  0 269791932
[07]  G26  f 34   1712.1 2045997.9  1.0  1.0  5  0 269791922
[16]  B05 1f 31   -351.4 4092000.9  0.6  0.0  2  0 269777865
[17]  B07 1f 44   -595.8 4092001.6  1.0  1.0  5  0 269777878
[18]  B10 1f 42   -653.0 4092001.6  1.0  1.0  5  0 269777875
[19]  B28  7 35   1848.5 4091995.1  1.0  1.0  5  0      6242
lsq: nits= 2
$GNGGA,025615.000,3112.7172,N,12136.4286,E,1,08,2.4,70.8,M,,,,0000*28
$GNRMC,025615.000,A,3112.7172,N,12136.4286,E,0.34,0.00,220519,,*1F
$GPGSA,A,3,07,08,09,16,21,27,,,,,,,3.2,2.4,2.2*32
$BDGSA,A,3,07,10,,,,,,,,,,,3.2,2.4,2.2*22
$GPGSV,3,1,09,04,00,000,43,07,27,317,43,08,66,243,44,09,31,276,44*74
$GPGSV,3,2,09,16,44,047,43,21,08,040,38,27,71,023,50,26,00,000,34*72
$GPGSV,3,3,09,18,20,174,00*49
$BDGSV,3,1,09,05,13,253,31,07,66,005,44,10,00,000,42,28,00,000,35*6B
$BDGSV,3,2,09,01,49,146,00,04,35,122,00,08,31,169,00,09,11,185,00*6D
$BDGSV,3,3,09,16,22,202,00*56
$LOGTIM,3,-926.363967,-1077.807985,0.000000,0.000000,-64.124*28
EndT:        3
---00000051--- Acq_st=3 2019-5-22 02:56:15 
[00]  G04  f 44  -1164.0 2046001.5  1.0  1.0  5 3f 269792922
[01]  G07  f 43  -3535.8 2046004.6  1.0  1.0  5  0 269792922
[02]  G08  f 44  -1371.9 2046001.8  1.0  1.0  5  0 269792931
[03]  G09  f 44     16.7 2046000.0  1.0  1.0  5  0 269792924
[04]  G16  f 43   1193.2 2045998.4  1.0  1.0  5  0 269792927
[05]  G21  f 38   2069.2 2045997.3  1.0  1.0  5  0 269792914
[06]  G27  f 50    939.1 2045998.8  1.0  1.0  5  0 269792932
[07]  G26  f 32   1713.9 2045997.8  1.0  1.0  5  0 269792922
[16]  B05 1f 31   -349.3 4092000.9  0.8  0.0  2  0 269778865
[17]  B07 1f 44   -593.9 4092001.6  1.0  1.0  5  0 269778878
[18]  B10 1f 42   -651.2 4092001.7  1.0  1.0  5  0 269778875
[19]  B28 1f 35   1850.2 4091995.1  1.0  1.0  5  0      7242
lsq: nits= 2
$GNGGA,025616.000,3112.7165,N,12136.4284,E,1,08,1.3,67.3,M,,,,0000*26
$GNRMC,025616.000,A,3112.7165,N,12136.4284,E,0.52,0.00,220519,,*18
$GPGSA,A,3,07,08,09,16,21,27,,,,,,,1.6,1.3,0.8*38
$BDGSA,A,3,07,10,,,,,,,,,,,1.6,1.3,0.8*28
$GPGSV,3,1,09,04,00,000,44,07,27,317,43,08,66,243,44,09,31,276,44*73
$GPGSV,3,2,09,16,44,047,43,21,08,040,38,27,71,023,50,26,00,000,32*74
$GPGSV,3,3,09,18,20,174,00*49
$BDGSV,3,1,09,05,13,253,31,07,66,005,44,10,51,314,42,28,00,000,35*69
$BDGSV,3,2,09,01,49,146,00,04,35,122,00,08,31,169,00,09,11,185,00*6D
$BDGSV,3,3,09,16,22,202,00*56
$LOGTIM,3,-992.733132,-1139.191263,0.000000,0.000000,-63.851*2C
EndT:        3
---00000052--- Acq_st=3 2019-5-22 02:56:16 
[00]  G04  f 44  -1163.0 2046001.5  1.0  1.0  5 3f 269793922
[01]  G07  f 44  -3535.3 2046004.6  1.0  1.0  5  0 269793922
[02]  G08  f 42  -1370.9 2046001.8  1.0  1.0  5  0 269793931
[03]  G09  f 43     17.4 2046000.0  1.0  1.0  5  0 269793924
[04]  G16  f 43   1194.0 2045998.5  1.0  1.0  5  0 269793927
[05]  G21  f 37   2070.0 2045997.3  1.0  1.0  5  0 269793914
[06]  G27  f 50    940.0 2045998.8  1.0  1.0  5  0 269793932
[07]  G26  f 32   1715.2 2045997.8  1.0  0.9  5  0 269793922
[16]  B05 1f 31   -350.3 4092001.0  0.7  0.0  2  0 269779865
[17]  B07 1f 43   -593.8 4092001.5  1.0  1.0  5  0 269779878
[18]  B10 1f 42   -650.7 4092001.7  1.0  1.0  5  0 269779875
[19]  B28 1f 34   1850.1 4091995.1  1.0  1.0  5  0 269779922
lsq: nits= 2
$GNGGA,025617.000,3112.7162,N,12136.4283,E,1,08,1.3,66.0,M,,,,0000*25
$GNRMC,025617.000,A,3112.7162,N,12136.4283,E,0.40,0.00,220519,,*1A
$GPGSA,A,3,07,08,09,16,21,27,,,,,,,1.6,1.3,0.8*38
$BDGSA,A,3,07,10,,,,,,,,,,,1.6,1.3,0.8*28
$GPGSV,3,1,09,04,00,000,44,07,27,317,44,08,66,243,42,09,31,276,43*75
$GPGSV,3,2,09,16,44,047,43,21,08,040,37,27,71,023,50,26,00,000,32*7B
$GPGSV,3,3,09,18,20,174,00*49
$BDGSV,3,1,09,05,13,253,31,07,66,005,43,10,51,314,42,28,00,000,34*6F
$BDGSV,3,2,09,01,49,146,00,04,35,122,00,08,31,169,00,09,11,185,00*6D
$BDGSV,3,3,09,16,22,202,00*56
$LOGTIM,3,-1057.536173,-1203.827548,0.000000,0.000000,-64.011*14
EndT:        3
---00000053--- Acq_st=3 2019-5-22 02:56:17 
[00]  G04  f 44  -1163.7 2046001.5  1.0  1.0  5 3f 269794922
[01]  G07  f 44  -3536.8 2046004.6  1.0  1.0  5  0 269794922
[02]  G08  f 42  -1371.8 2046001.8  1.0  1.0  5  0 269794931
