FlashID=0x1 0x20 0x18
BBram_blkflag1: 355c: caa3
FW Ver: 1.30  
GPS00 Init Dop:   5000, 40
GPS01 Init Dop:   5000, 40
GPS02 Init Dop:   5000, 40
GPS03 Init Dop:   5000, 40
GPS04 Init Dop:   5000, 40
GPS05 Init Dop:   5000, 40
GPS06 Init Dop:   5000, 40
GPS07 Init Dop:   5000, 40
GPS08 Init Dop:   5000, 40
GPS09 Init Dop:   5000, 40
GPS10 Init Dop:   5000, 40
GPS11 Init Dop:   5000, 40
GPS12 Init Dop:   5000, 40
GPS13 Init Dop:   5000, 40
GPS14 Init Dop:   5000, 40
GPS15 Init Dop:   5000, 40
GPS16 Init Dop:   5000, 40
GPS17 Init Dop:   5000, 40
GPS18 Init Dop:   5000, 40
GPS19 Init Dop:   5000, 40
GPS20 Init Dop:   5000, 40
GPS21 Init Dop:   5000, 40
GPS22 Init Dop:   5000, 40
GPS23 Init Dop:   5000, 40
GPS24 Init Dop:   5000, 40
GPS25 Init Dop:   5000, 40
GPS26 Init Dop:   5000, 40
GPS27 Init Dop:   5000, 40
GPS28 Init Dop:   5000, 40
GPS29 Init Dop:   5000, 40
GPS30 Init Dop:   5000, 40
GPS31 Init Dop:   5000, 40
BDS00 Init Dop:   5000, 40
BDS01 Init Dop:   5000, 40
BDS02 Init Dop:   5000, 40
BDS03 Init Dop:   5000, 40
BDS04 Init Dop:   5000, 40
BDS05 Init Dop:   5000, 40
BDS06 Init Dop:   5000, 40
BDS07 Init Dop:   5000, 40
BDS08 Init Dop:   5000, 40
BDS09 Init Dop:   5000, 40
BDS10 Init Dop:   5000, 40
BDS11 Init Dop:   5000, 40
BDS12 Init Dop:   5000, 40
BDS13 Init Dop:   5000, 40
BDS14 Init Dop:   5000, 40
BDS15 Init Dop:   5000, 40
BDS16 Init Dop:   5000, 40
BDS17 Init Dop:   5000, 40
BDS18 Init Dop:   5000, 40
BDS19 Init Dop:   5000, 40
BDS20 Init Dop:   5000, 40
BDS21 Init Dop:   5000, 40
BDS22 Init Dop:   5000, 40
BDS23 Init Dop:   5000, 40
BDS24 Init Dop:   5000, 40
BDS25 Init Dop:   5000, 40
BDS26 Init Dop:   5000, 40
BDS27 Init Dop:   5000, 40
BDS28 Init Dop:   5000, 40
BDS29 Init Dop:   5000, 40
BDS30 Init Dop:   5000, 40
BDS31 Init Dop:   5000, 40
good luck!
---00000001--- Acq_st=3 2019-5-22 02:58:22 
[00]  G04  1  7  -1050.6 2046003.3 -0.1  0.0  1  0         0
$GNGGA,000000.000,,,,,0,00,,,M,,,,0000*2B
$GNRMC,000000.000,A,,,,,,,000000,,*26
$GPGSA,A,1,,,,,,,,,,,,,,,*1E
$BDGSA,A,1,,,,,,,,,,,,,,,*0F
$LOGTIM,0,0.000000,0.000000,0.000000,0.000000,0.000*0A
EndT:        0
---00000002--- Acq_st=3 2019-5-22 02:58:23 
[00]  G04  7  7  -1084.3 2046001.3  0.2  0.0 10  0        18
[01]  G07  1 27  -3515.7 2046005.1  0.1  0.0  1  0         0
[02]  G08  1 27  -1309.3 2046003.4 -0.1  0.0  1  0         0
[03]  G09  1 20     85.1 2046001.7 -0.1  0.0  1  0         0
$GNGGA,000000.000,,,,,0,00,,,M,,,,0000*2B
$GNRMC,000000.000,A,,,,,,,000000,,*26
$GPGSA,A,1,,,,,,,,,,,,,,,*1E
$BDGSA,A,1,,,,,,,,,,,,,,,*0F
$LOGTIM,0,0.000000,0.000000,0.000000,0.000000,0.000*0A
EndT:        0
---00000003--- Acq_st=3 2019-5-22 02:58:24 
[00]  G04  7 42  -1086.1 2046001.3  1.0  1.0  5  0        18
[01]  G07  7 29  -3518.3 2046004.5  0.5  1.0  5  0         8
[02]  G08  7 26  -1302.6 2046001.6  0.3  0.0 20  0         5
[03]  G09  7 22     92.6 2045999.8  0.3  0.0 20  0         1
[04]  G16  1 19   1224.5 2046000.1 -0.0  0.0  1  0         0
$GNGGA,000000.000,,,,,0,00,,,M,,,,0000*2B
$GNRMC,000000.000,A,,,,,,,000000,,*26
$GPGSA,A,1,,,,,,,,,,,,,,,*1E
$BDGSA,A,1,,,,,,,,,,,,,,,*0F
$GPGSV,1,1,04,04,00,000,42,07,00,000,29,08,00,000,26,09,00,000,22*76
$LOGTIM,0,0.000000,0.000000,0.000000,0.000000,0.000*0A
EndT:        0
---00000004--- Acq_st=3 2019-5-22 02:58:25 
[00]  G04  f 42  -1085.9 2046001.4  1.0  1.0  5  0        18
[01]  G07  7 44  -3518.4 2046004.5  1.0  1.0  5  0        18
[02]  G08  7 46  -1302.5 2046001.6  1.0  1.0  5  0         7
[03]  G09  7 46     92.7 2045999.8  1.0  1.0  5  0         0
[04]  G16  7  7   1207.8 2045998.3  0.2  0.0 20  0        18
[05]  G21  1 13   2109.7 2045996.4 -0.0  0.0  1  0         0
$GNGGA,000000.000,,,,,0,00,,,M,,,,0000*2B
$GNRMC,000000.000,A,,,,,,,000000,,*26
$GPGSA,A,1,,,,,,,,,,,,,,,*1E
$BDGSA,A,1,,,,,,,,,,,,,,,*0F
$GPGSV,1,1,04,04,00,000,42,07,00,000,44,08,00,000,46,09,00,000,46*79
$LOGTIM,0,0.000000,0.000000,0.000000,0.000000,0.000*0A
EndT:        0
---00000005--- Acq_st=3 2019-5-22 02:58:26 
[00]  G04  f 43  -1085.6 2046001.4  1.0  1.0  5  0 269923798
[01]  G07  7 44  -3518.3 2046004.6  1.0  1.0  5  0        18
[02]  G08  7 45  -1302.0 2046001.7  1.0  1.0  5  0         7
[03]  G09  7 46     93.3 2045999.8  1.0  1.0  5  0         0
[04]  G16  7 45   1207.9 2045998.3  1.0  1.0  5  0         3
[06]  G27  1 27   1003.0 2045999.3  0.1  0.0  1  0         0
$GNGGA,000000.000,,,,,0,00,,,M,,,,0000*2B
$GNRMC,000000.000,A,,,,,,,000000,,*26
$GPGSA,A,1,,,,,,,,,,,,,,,*1E
$BDGSA,A,1,,,,,,,,,,,,,,,*0F
$GPGSV,2,1,05,04,00,000,43,07,00,000,44,08,00,000,45,09,00,000,46*79
$GPGSV,2,2,05,16,00,000,45*4A
$LOGTIM,0,0.000000,0.000000,0.000000,0.000000,0.000*0A
EndT:        0
---00000006--- Acq_st=3 2019-5-22 02:58:27 
[00]  G04  f 42  -1084.6 2046001.4  1.0  1.0  5  0 269924798
[01]  G07  7 44  -3517.7 2046004.5  1.0  1.0  5  0        18
[02]  G08  7 46  -1301.1 2046001.6  1.0  1.0  5  0         7
[03]  G09  7 46     94.4 2045999.8  1.0  1.0  5  0         0
[04]  G16  7 45   1208.3 2045998.4  1.0  1.0  5  0         3
[06]  G27  7 23   1004.6 2045998.6  0.2  0.0 20  0         2
$GNGGA,000000.000,,,,,0,00,,,M,,,,0000*2B
$GNRMC,000000.000,A,,,,,,,000000,,*26
$GPGSA,A,1,,,,,,,,,,,,,,,*1E
$BDGSA,A,1,,,,,,,,,,,,,,,*0F
$GPGSV,2,1,06,04,00,000,42,07,00,000,44,08,00,000,46,09,00,000,46*78
$GPGSV,2,2,06,16,00,000,45,27,00,000,23*7D
$LOGTIM,0,0.000000,0.000000,0.000000,0.000000,0.000*0A
EndT:        0
---00000007--- Acq_st=3 2019-5-22 02:58:28 
[00]  G04  f 43  -1081.2 2046001.4  1.0  1.0  5  0 269925798
[01]  G07  7 45  -3515.1 2046004.5  1.0  1.0  5  0        18
[02]  G08  7 46  -1297.9 2046001.7  1.0  1.0  5  0         7
[03]  G09  7 47     97.4 2045999.8  1.0  1.0  5  0         0
[04]  G16  7 45   1211.3 2045998.4  1.0  1.0  5  0         3
[06]  G27  7 48   1007.8 2045998.7  1.0  1.0  5  0         8
$GNGGA,000000.000,,,,,0,00,,,M,,,,0000*2B
$GNRMC,000000.000,A,,,,,,,000000,,*26
$GPGSA,A,1,,,,,,,,,,,,,,,*1E
$BDGSA,A,1,,,,,,,,,,,,,,,*0F
$GPGSV,2,1,06,04,00,000,43,07,00,000,45,08,00,000,46,09,00,000,47*79
$GPGSV,2,2,06,16,00,000,45,27,00,000,48*70
$LOGTIM,0,0.000000,0.000000,0.000000,0.000000,0.000*0A
EndT:        0
---00000008--- Acq_st=3 2019-5-22 02:58:29 
[00]  G04  f 43  -1081.7 2046001.4  1.0  1.0  5  0 269926798
[01]  G07  7 44  -3515.8 2046004.6  1.0  1.0  5  0        18
[02]  G08  7 46  -1298.3 2046001.7  1.0  1.0  5  0         7
[03]  G09  7 47     97.2 2045999.9  1.0  1.0  5  0         0
[04]  G16  7 45   1210.0 2045998.4  1.0  1.0  5  0         3
[06]  G27  7 48   1007.3 2045998.7  1.0  1.0  5  0         8
[16]  B07  1  7   -566.2 4092002.5 -0.0  0.0  1  0         0
$GNGGA,000000.000,,,,,0,00,,,M,,,,0000*2B
$GNRMC,000000.000,A,,,,,,,000000,,*26
$GPGSA,A,1,,,,,,,,,,,,,,,*1E
$BDGSA,A,1,,,,,,,,,,,,,,,*0F
$GPGSV,2,1,06,04,00,000,43,07,00,000,44,08,00,000,46,09,00,000,47*78
$GPGSV,2,2,06,16,00,000,45,27,00,000,48*70
$LOGTIM,0,0.000000,0.000000,0.000000,0.000000,0.000*0A
EndT:        0
---00000009--- Acq_st=3 2019-5-22 02:58:30 
[00]  G04  f 43  -1082.6 2046001.4  1.0  1.0  5  0 269927798
[01]  G07  7 45  -3517.0 2046004.6  1.0  1.0  5  0        18
[02]  G08  7 46  -1299.2 2046001.7  1.0  1.0  5  0         7
[03]  G09  7 46     96.3 2045999.8  1.0  1.0  5  0         0
[04]  G16  7 45   1209.0 2045998.4  1.0  1.0  5  0         3
[06]  G27  7 48   1006.5 2045998.7  1.0  1.0  5  0         8
[16]  B07  7  8   -598.7 4092001.5  0.3  0.0 20  0       379
[17]  B10  1  7   -680.1 4092001.9  0.0  0.0  1  0         0
$GNGGA,000000.000,,,,,0,00,,,M,,,,0000*2B
$GNRMC,000000.000,A,,,,,,,000000,,*26
$GPGSA,A,1,,,,,,,,,,,,,,,*1E
$BDGSA,A,1,,,,,,,,,,,,,,,*0F
$GPGSV,2,1,06,04,00,000,43,07,00,000,45,08,00,000,46,09,00,000,46*78
$GPGSV,2,2,06,16,00,000,45,27,00,000,48*70
$LOGTIM,0,0.000000,0.000000,0.000000,0.000000,0.000*0A
EndT:        0
---00000010--- Acq_st=3 2019-5-22 02:58:31 
[00]  G04  f 43  -1079.6 2046001.4  1.0  1.0  5  0 269928798
[01]  G07  f 45  -3514.4 2046004.6  1.0  1.0  5  0        18
[02]  G08  f 46  -1296.0 2046001.7  1.0  1.0  5  0         7
[03]  G09  f 46     99.4 2045999.9  1.0  1.0  5  0         0
[04]  G16  f 45   1211.6 2045998.4  1.0  1.0  5  0         3
[06]  G27  f 48   1009.6 2045998.7  1.0  1.0  5  0         8
[16]  B07  7 42   -596.2 4092001.5  0.9  1.0  5  0      1374
[17]  B10  7  7   -656.4 4092001.7  0.3  0.0 20  0       357
$GNGGA,000000.000,,,,,0,00,,,M,,,,0000*2B
$GNRMC,000000.000,A,,,,,,,000000,,*26
$GPGSA,A,1,,,,,,,,,,,,,,,*1E
$BDGSA,A,1,,,,,,,,,,,,,,,*0F
$GPGSV,2,1,06,04,00,000,43,07,00,000,45,08,00,000,46,09,00,000,46*78
$GPGSV,2,2,06,16,00,000,45,27,00,000,48*70
$BDGSV,1,1,01,07,00,000,42*58
$LOGTIM,0,0.000000,0.000000,0.000000,0.000000,0.000*0A
EndT:        0
---00000011--- Acq_st=3 2019-5-22 02:58:32 
[00]  G04  f 43  -1080.2 2046001.4  1.0  1.0  5  0 269929798
[01]  G07  f 45  -3515.5 2046004.5  1.0  1.0  5  0 269929798
[02]  G08  f 46  -1296.9 2046001.7  1.0  1.0  5  0 269929807
[03]  G09  f 46     98.6 2045999.9  1.0  1.0  5  0 269929800
[04]  G16  f 45   1210.3 2045998.4  1.0  1.0  5  0 269929803
[06]  G27  f 47   1008.5 2045998.7  1.0  1.0  5  0 269929808
[16]  B07  7 42   -597.9 4092001.6  1.0  1.0  5  0      2374
[17]  B10  7 43   -656.8 4092001.7  0.6  1.0  5  0      1351
$GNGGA,000000.000,,,,,0,00,,,M,,,,0000*2B
$GNRMC,000000.000,A,,,,,,,000000,,*26
$GPGSA,A,1,,,,,,,,,,,,,,,*1E
$BDGSA,A,1,,,,,,,,,,,,,,,*0F
$GPGSV,2,1,06,04,00,000,43,07,00,000,45,08,00,000,46,09,00,000,46*78
$GPGSV,2,2,06,16,00,000,45,27,00,000,47*7F
$BDGSV,1,1,02,07,00,000,42,10,00,000,43*6D
$LOGTIM,0,0.000000,0.000000,0.000000,0.000000,0.000*0A
EndT:        0
---00000012--- Acq_st=3 2019-5-22 02:58:33 
[00]  G04  f 43  -1082.4 2046001.4  1.0  1.0  5  0 269930798
[01]  G07  f 46  -3518.5 2046004.6  1.0  1.0  5  0 269930798
[02]  G08  f 46  -1299.5 2046001.7  1.0  1.0  5  0 269930807
[03]  G09  f 46     96.3 2045999.9  1.0  1.0  5  0 269930800
[04]  G16  f 45   1207.4 2045998.4  1.0  1.0  5  0 269930803
[06]  G27  f 48   1006.0 2045998.7  1.0  1.0  5  0 269930808
[16]  B07 1f 42   -601.0 4092001.5  1.0  1.0  5  0      3374
[17]  B10 1f 43   -660.0 4092001.7  1.0  1.0  5  0      2351
$GNGGA,000000.000,,,,,0,00,,,M,,,,0000*2B
$GNRMC,000000.000,A,,,,,,,000000,,*26
$GPGSA,A,1,,,,,,,,,,,,,,,*1E
$BDGSA,A,1,,,,,,,,,,,,,,,*0F
$GPGSV,2,1,06,04,00,000,43,07,00,000,46,08,00,000,46,09,00,000,46*7B
$GPGSV,2,2,06,16,00,000,45,27,00,000,48*70
$BDGSV,1,1,02,07,00,000,42,10,00,000,43*6D
$LOGTIM,0,0.000000,0.000000,0.000000,0.000000,0.000*0A
EndT:        0
---00000013--- Acq_st=3 2019-5-22 02:58:34 
[00]  G04  f 43  -1080.9 2046001.4  1.0  1.0  5  0 269931798
[01]  G07  f 46  -3517.6 2046004.6  1.0  1.0  5  0 269931798
[02]  G08  f 46  -1297.9 2046001.7  1.0  1.0  5  0 269931807
[03]  G09  f 46     97.6 2045999.9  1.0  1.0  5  0 269931800
[04]  G16  f 45   1208.5 2045998.4  1.0  1.0  5  0 269931803
[06]  G27  f 48   1007.0 2045998.7  1.0  1.0  5  0 269931808
[16]  B07 1f 42   -600.3 4092001.5  1.0  1.0  5  0 269917754
[17]  B10 1f 43   -659.5 4092001.7  1.0  1.0  5  0 269917751
$GNGGA,000000.000,,,,,0,00,,,M,,,,0000*2B
$GNRMC,000000.000,A,,,,,,,000000,,*26
$GPGSA,A,1,,,,,,,,,,,,,,,*1E
$BDGSA,A,1,,,,,,,,,,,,,,,*0F
$GPGSV,2,1,06,04,00,000,43,07,00,000,46,08,00,000,46,09,00,000,46*7B
$GPGSV,2,2,06,16,00,000,45,27,00,000,48*70
$BDGSV,1,1,02,07,00,000,42,10,00,000,43*6D
$LOGTIM,0,0.000000,0.000000,0.000000,0.000000,0.000*0A
EndT:        0
---00000014--- Acq_st=3 2019-5-22 02:58:35 
[00]  G04  f 44  -1078.8 2046001.4  1.0  1.0  5  0 269932798
[01]  G07  f 45  -3515.5 2046004.6  1.0  1.0  5  0 269932798
[02]  G08  f 45  -1295.8 2046001.7  1.0  1.0  5  0 269932807
[03]  G09  f 46    100.0 2045999.9  1.0  1.0  5  0 269932800
[04]  G16  f 45   1210.5 2045998.4  1.0  1.0  5  0 269932803
[06]  G27  f 47   1009.7 2045998.7  1.0  1.0  5  0 269932808
[16]  B07 1f 42   -598.0 4092001.5  1.0  1.0  5  0 269918754
[17]  B10 1f 43   -657.5 4092001.8  1.0  1.0  5  0 269918751
$GNGGA,000000.000,,,,,0,00,,,M,,,,0000*2B
$GNRMC,000000.000,A,,,,,,,000000,,*26
$GPGSA,A,1,,,,,,,,,,,,,,,*1E
$BDGSA,A,1,,,,,,,,,,,,,,,*0F
$GPGSV,2,1,06,04,00,000,44,07,00,000,45,08,00,000,45,09,00,000,46*7C
$GPGSV,2,2,06,16,00,000,45,27,00,000,47*7F
$BDGSV,1,1,02,07,00,000,42,10,00,000,43*6D
$LOGTIM,0,0.000000,0.000000,0.000000,0.000000,0.000*0A
EndT:        0
---00000015--- Acq_st=3 2019-5-22 02:58:36 
[00]  G04  f 43  -1079.2 2046001.4  1.0  1.0  5  0 269933798
[01]  G07  f 45  -3516.7 2046004.6  1.0  1.0  5  0 269933798
[02]  G08  f 45  -1296.3 2046001.7  1.0  1.0  5  0 269933807
[03]  G09  f 46     99.5 2045999.9  1.0  1.0  5  0 269933800
[04]  G16  f 45   1209.2 2045998.4  1.0  1.0  5  0 269933803
[06]  G27  f 47   1008.9 2045998.7  1.0  1.0  5  0 269933808
[16]  B07 1f 42   -599.7 4092001.6  1.0  1.0  5  0 269919754
[17]  B10 1f 43   -659.1 4092001.7  1.0  1.0  5  0 269919751
[18]  B28  1  7   1819.7 4091994.1  0.0  0.0  1  0         0
$GNGGA,000000.000,,,,,0,00,,,M,,,,0000*2B
$GNRMC,000000.000,A,,,,,,,000000,,*26
$GPGSA,A,1,,,,,,,,,,,,,,,*1E
$BDGSA,A,1,,,,,,,,,,,,,,,*0F
$GPGSV,2,1,06,04,00,000,43,07,00,000,45,08,00,000,45,09,00,000,46*7B
$GPGSV,2,2,06,16,00,000,45,27,00,000,47*7F
$BDGSV,1,1,02,07,00,000,42,10,00,000,43*6D
$LOGTIM,0,0.000000,0.000000,0.000000,0.000000,0.000*0A
EndT:        0
---00000016--- Acq_st=3 2019-5-22 02:58:37 
[00]  G04  f 43  -1076.1 2046001.4  1.0  1.0  5  0 269934798
[01]  G07  f 45  -3514.2 2046004.6  1.0  1.0  5  0 269934798
[02]  G08  f 45  -1293.3 2046001.7  1.0  1.0  5  0 269934807
[03]  G09  f 45    102.5 2045999.9  1.0  1.0  5  0 269934800
[04]  G16  f 45   1211.7 2045998.4  1.0  1.0  5  0 269934803
[06]  G27  f 47   1011.6 2045998.7  1.0  1.0  5  0 269934808
[16]  B07 1f 42   -597.7 4092001.6  1.0  1.0  5  0 269920754
[17]  B10 1f 43   -656.7 4092001.7  1.0  1.0  5  0 269920751
[18]  B28  1  7   1900.7 4091995.2 -0.0  0.0  1  0       225
$GNGGA,000000.000,,,,,0,00,,,M,,,,0000*2B
$GNRMC,000000.000,A,,,,,,,000000,,*26
$GPGSA,A,1,,,,,,,,,,,,,,,*1E
$BDGSA,A,1,,,,,,,,,,,,,,,*0F
$GPGSV,2,1,06,04,00,000,43,07,00,000,45,08,00,000,45,09,00,000,45*78
$GPGSV,2,2,06,16,00,000,45,27,00,000,47*7F
$BDGSV,1,1,02,07,00,000,42,10,00,000,43*6D
$LOGTIM,0,0.000000,0.000000,0.000000,0.000000,0.000*0A
EndT:        0
---00000017--- Acq_st=7 2019-5-22 02:58:38 
[00]  G04  f 43  -1079.7 2046001.4  1.0  1.0  5  0 269935798
[01]  G07  f 45  -3518.4 2046004.6  1.0  1.0  5  0 269935798
[02]  G08  f 45  -1297.2 2046001.7  1.0  1.0  5  0 269935807
[03]  G09  f 45     99.0 2045999.9  1.0  1.0  5  0 269935800
[04]  G16  f 45   1207.6 2045998.5  1.0  1.0  5  0 269935803
[06]  G27  f 47   1008.1 2045998.7  1.0  1.0  5  0 269935808
[16]  B07 1f 42   -601.6 4092001.5  1.0  1.0  5  0 269921754
[17]  B10 1f 43   -660.9 4092001.7  1.0  1.0  5  0 269921751
[18]  B28  7 35   1897.1 4091995.0  0.7  1.0  5  0      1225
$GNGGA,000000.000,,,,,0,00,,,M,,,,0000*2B
$GNRMC,000000.000,A,,,,,,,000000,,*26
$GPGSA,A,1,,,,,,,,,,,,,,,*1E
$BDGSA,A,1,,,,,,,,,,,,,,,*0F
$GPGSV,2,1,06,04,00,000,43,07,00,000,45,08,00,000,45,09,00,000,45*78
$GPGSV,2,2,06,16,00,000,45,27,00,000,47*7F
$BDGSV,1,1,03,07,00,000,42,10,00,000,43,28,00,000,35*50
$LOGTIM,0,0.000000,0.000000,0.000000,0.000000,0.000*0A
EndT:        0
---00000018--- Acq_st=7 2019-5-22 02:58:39 
[00]  G04  f 43  -1082.2 2046001.4  1.0  1.0  5  0 269936798
[01]  G07  f 45  -3521.1 2046004.6  1.0  1.0  5  0 269936798
[02]  G08  f 45  -1299.7 2046001.7  1.0  1.0  5  0 269936807
[03]  G09  f 46     96.1 2045999.9  1.0  1.0  5  0 269936800
[04]  G16  f 44   1204.5 2045998.4  1.0  1.0  5  0 269936803
[06]  G27  f 47   1005.3 2045998.7  1.0  1.0  5  0 269936808
[16]  B07 1f 42   -604.7 4092001.6  1.0  1.0  5  0 269922754
[17]  B10 1f 43   -664.1 4092001.7  1.0  1.0  5  0 269922751
[18]  B28 1f 39   1894.9 4091995.0  1.0  1.0  5  0      2218
$GNGGA,000000.000,,,,,0,00,,,M,,,,0000*2B
$GNRMC,000000.000,A,,,,,,,000000,,*26
$GPGSA,A,1,,,,,,,,,,,,,,,*1E
$BDGSA,A,1,,,,,,,,,,,,,,,*0F
$GPGSV,2,1,06,04,00,000,43,07,00,000,45,08,00,000,45,09,00,000,46*7B
$GPGSV,2,2,06,16,00,000,44,27,00,000,47*7E
$BDGSV,1,1,03,07,00,000,42,10,00,000,43,28,00,000,39*5C
$LOGTIM,0,0.000000,0.000000,0.000000,0.000000,0.000*0A
EndT:        0
---00000019--- Acq_st=7 2019-5-22 02:58:40 
[00]  G04  f 43  -1083.5 2046001.4  1.0  1.0  5  0 269937798
[01]  G07  f 45  -3522.4 2046004.6  1.0  1.0  5  0 269937798
[02]  G08  f 45  -1300.7 2046001.7  1.0  1.0  5  0 269937807
[03]  G09  f 46     95.3 2045999.9  1.0  1.0  5  0 269937800
[04]  G16  f 45   1203.4 2045998.4  1.0  1.0  5  0 269937803
[06]  G27  f 48   1004.4 2045998.7  1.0  1.0  5  0 269937808
[16]  B07 1f 42   -606.1 4092001.6  1.0  1.0  5  0 269923754
[17]  B10 1f 43   -665.3 4092001.7  1.0  1.0  5  0 269923751
[18]  B28 1f 39   1893.6 4091995.1  1.0  1.0  5  0 269923798
$GNGGA,000000.000,,,,,0,00,,,M,,,,0000*2B
$GNRMC,000000.000,A,,,,,,,000000,,*26
$GPGSA,A,1,,,,,,,,,,,,,,,*1E
$BDGSA,A,1,,,,,,,,,,,,,,,*0F
$GPGSV,2,1,06,04,00,000,43,07,00,000,45,08,00,000,45,09,00,000,46*7B
$GPGSV,2,2,06,16,00,000,45,27,00,000,48*70
$BDGSV,1,1,03,07,00,000,42,10,00,000,43,28,00,000,39*5C
$LOGTIM,0,0.000000,0.000000,0.000000,0.000000,0.000*0A
EndT:        0
---00000020--- Acq_st=3 2019-5-22 02:58:41 
[00]  G04  f 43  -1081.2 2046001.4  1.0  1.0  5  0 269938798
[01]  G07  f 45  -3520.6 2046004.6  1.0  1.0  5  0 269938798
[02]  G08  f 45  -1298.5 2046001.7  1.0  1.0  5  0 269938807
[03]  G09  f 46     97.5 2045999.9  1.0  1.0  5  0 269938800
[04]  G16  f 45   1205.0 2045998.4  1.0  1.0  5  0 269938803
[06]  G27  f 48   1006.4 2045998.7  1.0  1.0  5  0 269938808
[16]  B07 1f 43   -605.3 4092001.5  1.0  1.0  5  0 269924754
[17]  B10 1f 43   -663.9 4092001.8  1.0  1.0  5  0 269924751
[18]  B28 1f 39   1894.8 4091995.1  1.0  1.0  5  0 269924798
$GNGGA,000000.000,,,,,0,00,,,M,,,,0000*2B
$GNRMC,000000.000,A,,,,,,,000000,,*26
$GPGSA,A,1,,,,,,,,,,,,,,,*1E
$BDGSA,A,1,,,,,,,,,,,,,,,*0F
$GPGSV,2,1,06,04,00,000,43,07,00,000,45,08,00,000,45,09,00,000,46*7B
$GPGSV,2,2,06,16,00,000,45,27,00,000,48*70
$BDGSV,1,1,03,07,00,000,43,10,00,000,43,28,00,000,39*5D
$LOGTIM,0,0.000000,0.000000,0.000000,0.000000,0.000*0A
EndT:        0
---00000021--- Acq_st=3 2019-5-22 02:58:42 
[00]  G04  f 43  -1077.9 2046001.4  1.0  1.0  5  0 269939798
[01]  G07  f 45  -3517.7 2046004.6  1.0  1.0  5  0 269939798
[02]  G08  f 46  -1295.5 2046001.7  1.0  1.0  5  0 269939807
[03]  G09  f 46    100.7 2045999.9  1.0  1.0  5  0 269939800
[04]  G16  f 45   1207.7 2045998.4  1.0  1.0  5  0 269939803
[06]  G27  f 48   1009.7 2045998.7  1.0  1.0  5  0 269939808
[16]  B07 1f 43   -601.9 4092001.6  1.0  1.0  5  0 269925754
[17]  B10 1f 43   -660.9 4092001.7  1.0  1.0  5  0 269925751
[18]  B28 1f 39   1898.3 4091995.0  1.0  1.0  5  0 269925798
$GNGGA,000000.000,,,,,0,00,,,M,,,,0000*2B
$GNRMC,000000.000,A,,,,,,,000000,,*26
$GPGSA,A,1,,,,,,,,,,,,,,,*1E
$BDGSA,A,1,,,,,,,,,,,,,,,*0F
$GPGSV,2,1,06,04,00,000,43,07,00,000,45,08,00,000,46,09,00,000,46*78
$GPGSV,2,2,06,16,00,000,45,27,00,000,48*70
$BDGSV,1,1,03,07,00,000,43,10,00,000,43,28,00,000,39*5D
$LOGTIM,0,0.000000,0.000000,0.000000,0.000000,0.000*0A
EndT:        0
---00000022--- Acq_st=3 2019-5-22 02:58:43 
[00]  G04  f 43  -1073.2 2046001.4  1.0  1.0  5  0 269940798
[01]  G07  f 45  -3514.1 2046004.6  1.0  1.0  5  0 269940798
[02]  G08  f 45  -1291.3 2046001.7  1.0  1.0  5  0 269940807
[03]  G09  f 45    105.3 2045999.9  1.0  1.0  5  0 269940800
[04]  G16  f 45   1211.6 2045998.4  1.0  1.0  5  0 269940803
[06]  G27  f 48   1013.8 2045998.7  1.0  1.0  5  0 269940808
[16]  B07 1f 43   -598.1 4092001.6  1.0  1.0  5  0 269926754
[17]  B10 1f 43   -657.6 4092001.7  1.0  1.0  5  0 269926751
[18]  B28 1f 38   1902.0 4091995.0  1.0  1.0  5  0 269926798
$GNGGA,000000.000,,,,,0,00,,,M,,,,0000*2B
$GNRMC,000000.000,A,,,,,,,000000,,*26
$GPGSA,A,1,,,,,,,,,,,,,,,*1E
$BDGSA,A,1,,,,,,,,,,,,,,,*0F
$GPGSV,2,1,06,04,00,000,43,07,00,000,45,08,00,000,45,09,00,000,45*78
$GPGSV,2,2,06,16,00,000,45,27,00,000,48*70
$BDGSV,1,1,03,07,00,000,43,10,00,000,43,28,00,000,38*5C
$LOGTIM,0,0.000000,0.000000,0.000000,0.000000,0.000*0A
EndT:        0
---00000023--- Acq_st=3 2019-5-22 02:58:44 
[00]  G04  f 43  -1074.4 2046001.4  1.0  1.0  5  0 269941798
[01]  G07  f 45  -3515.3 2046004.6  1.0  1.0  5  0 269941798
[02]  G08  f 44  -1291.8 2046001.7  1.0  1.0  5  0 269941807
[03]  G09  f 46    104.1 2045999.9  1.0  1.0  5  0 269941800
[04]  G16  f 45   1210.2 2045998.4  1.0  1.0  5  0 269941803
[06]  G27  f 48   1012.6 2045998.7  1.0  1.0  5  0 269941808
[16]  B07 1f 43   -600.1 4092001.6  1.0  1.0  5  0 269927754
[17]  B10 1f 43   -659.3 4092001.7  1.0  1.0  5  0 269927751
[18]  B28 1f 38   1900.5 4091995.0  1.0  1.0  5  0 269927798
$GNGGA,000000.000,,,,,0,00,,,M,,,,0000*2B
$GNRMC,000000.000,A,,,,,,,000000,,*26
$GPGSA,A,1,,,,,,,,,,,,,,,*1E
$BDGSA,A,1,,,,,,,,,,,,,,,*0F
$GPGSV,2,1,06,04,00,000,43,07,00,000,45,08,00,000,44,09,00,000,46*7A
$GPGSV,2,2,06,16,00,000,45,27,00,000,48*70
$BDGSV,1,1,03,07,00,000,43,10,00,000,43,28,00,000,38*5C
$LOGTIM,0,0.000000,0.000000,0.000000,0.000000,0.000*0A
EndT:        0
---00000024--- Acq_st=3 2019-5-22 02:58:45 
[00]  G04  f 42  -1076.4 2046001.4  1.0  1.0  5  0 269942798
[01]  G07  f 45  -3518.3 2046004.6  1.0  1.0  5  0 269942798
[02]  G08  f 45  -1294.3 2046001.7  1.0  1.0  5  0 269942807
[03]  G09  f 46    101.8 2045999.9  1.0  1.0  5  0 269942800
[04]  G16  f 45   1207.4 2045998.5  1.0  1.0  5  0 269942803
[06]  G27  f 48   1010.4 2045998.7  1.0  1.0  5  0 269942808
[16]  B07 1f 43   -602.7 4092001.6  1.0  1.0  5  0 269928754
[17]  B10 1f 43   -662.3 4092001.7  1.0  1.0  5  0 269928751
[18]  B28 1f 38   1898.5 4091995.0  1.0  1.0  5  0 269928798
$GNGGA,000000.000,,,,,0,00,,,M,,,,0000*2B
$GNRMC,000000.000,A,,,,,,,000000,,*26
$GPGSA,A,1,,,,,,,,,,,,,,,*1E
$BDGSA,A,1,,,,,,,,,,,,,,,*0F
$GPGSV,2,1,06,04,00,000,42,07,00,000,45,08,00,000,45,09,00,000,46*7A
$GPGSV,2,2,06,16,00,000,45,27,00,000,48*70
$BDGSV,1,1,03,07,00,000,43,10,00,000,43,28,00,000,38*5C
$LOGTIM,0,0.000000,0.000000,0.000000,0.000000,0.000*0A
EndT:        0
---00000025--- Acq_st=3 2019-5-22 02:58:46 
[00]  G04  f 42  -1076.6 2046001.4  1.0  1.0  5  0 269943798
[01]  G07  f 46  -3519.1 2046004.6  1.0  1.0  5  0 269943798
[02]  G08  f 45  -1294.7 2046001.7  1.0  1.0  5  0 269943807
[03]  G09  f 46    101.6 2045999.8  1.0  1.0  5  0 269943800
[04]  G16  f 45   1206.4 2045998.4  1.0  1.0  5  0 269943803
[06]  G27  f 49   1010.1 2045998.7  1.0  1.0  5  0 269943808
[16]  B07 1f 43   -603.7 4092001.6  1.0  1.0  5  0 269929754
[17]  B10 1f 43   -663.1 4092001.7  1.0  1.0  5  0 269929751
[18]  B28 1f 38   1897.6 4091995.1  1.0  1.0  5  0 269929798
$GNGGA,000000.000,,,,,0,00,,,M,,,,0000*2B
$GNRMC,000000.000,A,,,,,,,000000,,*26
$GPGSA,A,1,,,,,,,,,,,,,,,*1E
$BDGSA,A,1,,,,,,,,,,,,,,,*0F
$GPGSV,2,1,06,04,00,000,42,07,00,000,46,08,00,000,45,09,00,000,46*79
$GPGSV,2,2,06,16,00,000,45,27,00,000,49*71
$BDGSV,1,1,03,07,00,000,43,10,00,000,43,28,00,000,38*5C
$LOGTIM,0,0.000000,0.000000,0.000000,0.000000,0.000*0A
EndT:        0
---00000026--- Acq_st=3 2019-5-22 02:58:47 
[00]  G04  f 42  -1075.8 2046001.4  1.0  1.0  5  0 269944798
[01]  G07  f 45  -3518.5 2046004.6  1.0  1.0  5  0 269944798
[02]  G08  f 45  -1294.1 2046001.7  1.0  1.0  5  0 269944807
[03]  G09  f 46    102.4 2045999.8  1.0  1.0  5  0 269944800
[04]  G16  f 45   1207.1 2045998.4  1.0  1.0  5  0 269944803
[06]  G27  f 49   1010.8 2045998.7  1.0  1.0  5  0 269944808
[16]  B07 1f 42   -603.5 4092001.6  1.0  1.0  5  0 269930754
[17]  B10 1f 43   -662.8 4092001.7  1.0  1.0  5  0 269930751
[18]  B28 1f 38   1899.1 4091995.0  1.0  1.0  5  0 269930798
$GNGGA,000000.000,,,,,0,00,,,M,,,,0000*2B
$GNRMC,000000.000,A,,,,,,,000000,,*26
$GPGSA,A,1,,,,,,,,,,,,,,,*1E
$BDGSA,A,1,,,,,,,,,,,,,,,*0F
$GPGSV,2,1,06,04,00,000,42,07,00,000,45,08,00,000,45,09,00,000,46*7A
$GPGSV,2,2,06,16,00,000,45,27,00,000,49*71
$BDGSV,1,1,03,07,00,000,42,10,00,000,43,28,00,000,38*5D
$LOGTIM,0,0.000000,0.000000,0.000000,0.000000,0.000*0A
EndT:        0
---00000027--- Acq_st=3 2019-5-22 02:58:48 
[00]  G04  f 42  -1073.8 2046001.4  1.0  1.0  5  0 269945798
[01]  G07  f 45  -3516.7 2046004.6  1.0  1.0  5  0 269945798
[02]  G08  f 45  -1291.9 2046001.7  1.0  1.0  5  0 269945807
[03]  G09  f 46    104.3 2045999.9  1.0  1.0  5  0 269945800
[04]  G16  f 45   1208.8 2045998.4  1.0  1.0  5  0 269945803
[06]  G27  f 49   1012.7 2045998.7  1.0  1.0  5  0 269945808
[16]  B07 1f 43   -602.1 4092001.5  1.0  1.0  5  0 269931754
[17]  B10 1f 43   -661.4 4092001.7  1.0  1.0  5  0 269931751
[18]  B28 1f 39   1899.6 4091995.0  1.0  1.0  5  0 269931798
$GNGGA,000000.000,,,,,0,00,,,M,,,,0000*2B
$GNRMC,000000.000,A,,,,,,,000000,,*26
$GPGSA,A,1,,,,,,,,,,,,,,,*1E
$BDGSA,A,1,,,,,,,,,,,,,,,*0F
$GPGSV,2,1,06,04,00,000,42,07,00,000,45,08,00,000,45,09,00,000,46*7A
$GPGSV,2,2,06,16,00,000,45,27,00,000,49*71
$BDGSV,1,1,03,07,00,000,43,10,00,000,43,28,00,000,39*5D
$LOGTIM,0,0.000000,0.000000,0.000000,0.000000,0.000*0A
EndT:        0
---00000028--- Acq_st=3 2019-5-22 02:58:49 
[00]  G04  f 43  -1073.8 2046001.4  1.0  1.0  5  0 269946798
[01]  G07  f 45  -3517.2 2046004.6  1.0  1.0  5  0 269946798
[02]  G08  f 44  -1291.6 2046001.7  1.0  1.0  5  0 269946807
[03]  G09  f 46    104.6 2045999.9  1.0  1.0  5  0 269946800
[04]  G16  f 45   1208.4 2045998.4  1.0  1.0  5  0 269946803
[06]  G27  f 48   1012.9 2045998.7  1.0  1.0  5  0 269946808
[16]  B07 1f 42   -602.5 4092001.6  1.0  1.0  5  0 269932754
[17]  B10 1f 43   -661.8 4092001.7  1.0  1.0  5  0 269932751
[18]  B28 1f 39   1900.2 4091995.0  1.0  1.0  5  0 269932798
$GNGGA,000000.000,,,,,0,00,,,M,,,,0000*2B
$GNRMC,000000.000,A,,,,,,,000000,,*26
$GPGSA,A,1,,,,,,,,,,,,,,,*1E
$BDGSA,A,1,,,,,,,,,,,,,,,*0F
$GPGSV,2,1,06,04,00,000,43,07,00,000,45,08,00,000,44,09,00,000,46*7A
$GPGSV,2,2,06,16,00,000,45,27,00,000,48*70
$BDGSV,1,1,03,07,00,000,42,10,00,000,43,28,00,000,39*5C
$LOGTIM,0,0.000000,0.000000,0.000000,0.000000,0.000*0A
EndT:        0
---00000029--- Acq_st=3 2019-5-22 02:58:50 
[00]  G04  f 43  -1072.6 2046001.4  1.0  1.0  5  0 269947798
[01]  G07  f 45  -3516.5 2046004.6  1.0  1.0  5  0 269947798
[02]  G08  f 44  -1291.1 2046001.7  1.0  1.0  5  0 269947807
[03]  G09  f 46    105.7 2045999.9  1.0  1.0  5  0 269947800
[04]  G16  f 44   1208.9 2045998.4  1.0  1.0  5  0 269947803
[06]  G27  f 49   1013.7 2045998.7  1.0  1.0  5  0 269947808
[16]  B07 1f 43   -602.4 4092001.6  1.0  1.0  5  0 269933754
[17]  B10 1f 43   -661.5 4092001.7  1.0  1.0  5  0 269933751
[18]  B28 1f 39   1900.9 4091995.0  1.0  1.0  5  0 269933798
$GNGGA,000000.000,,,,,0,00,,,M,,,,0000*2B
$GNRMC,000000.000,A,,,,,,,000000,,*26
$GPGSA,A,1,,,,,,,,,,,,,,,*1E
$BDGSA,A,1,,,,,,,,,,,,,,,*0F
$GPGSV,2,1,06,04,00,000,43,07,00,000,45,08,00,000,44,09,00,000,46*7A
$GPGSV,2,2,06,16,00,000,44,27,00,000,49*70
$BDGSV,1,1,03,07,00,000,43,10,00,000,43,28,00,000,39*5D
$LOGTIM,0,0.000000,0.000000,0.000000,0.000000,0.000*0A
EndT:        0
---00000030--- Acq_st=3 2019-5-22 02:58:51 
[00]  G04  f 43  -1071.3 2046001.4  1.0  1.0  5  0 269948798
[01]  G07  f 44  -3515.8 2046004.6  1.0  1.0  5  0 269948798
[02]  G08  f 45  -1289.3 2046001.7  1.0  1.0  5  0 269948807
[03]  G09  f 46    107.1 2045999.8  1.0  1.0  5  0 269948800
[04]  G16  f 44   1209.5 2045998.5  1.0  1.0  5  0 269948803
[06]  G27  f 49   1015.0 2045998.7  1.0  1.0  5  0 269948808
[16]  B07 1f 43   -601.7 4092001.6  1.0  1.0  5  0 269934754
[17]  B10 1f 43   -660.7 4092001.7  1.0  1.0  5  0 269934751
[18]  B28 1f 40   1902.1 4091995.0  1.0  1.0  5  0 269934798
$GNGGA,000000.000,,,,,0,00,,,M,,,,0000*2B
$GNRMC,000000.000,A,,,,,,,000000,,*26
$GPGSA,A,1,,,,,,,,,,,,,,,*1E
$BDGSA,A,1,,,,,,,,,,,,,,,*0F
$GPGSV,2,1,06,04,00,000,43,07,00,000,44,08,00,000,45,09,00,000,46*7A
$GPGSV,2,2,06,16,00,000,44,27,00,000,49*70
$BDGSV,1,1,03,07,00,000,43,10,00,000,43,28,00,000,40*53
$LOGTIM,0,0.000000,0.000000,0.000000,0.000000,0.000*0A
EndT:        0
---00000031--- Acq_st=3 2019-5-22 02:58:52 
[00]  G04  f 43  -1070.1 2046001.4  1.0  1.0  5  0 269949798
[01]  G07  f 45  -3515.0 2046004.6  1.0  1.0  5  0 269949798
[02]  G08  f 45  -1288.3 2046001.7  1.0  1.0  5  0 269949807
[03]  G09  f 46    108.4 2045999.9  1.0  1.0  5  0 269949800
[04]  G16  f 44   1210.6 2045998.4  1.0  1.0  5  0 269949803
[06]  G27  f 49   1016.2 2045998.7  1.0  1.0  5  0 269949808
[16]  B07 1f 43   -600.9 4092001.6  1.0  1.0  5  0 269935754
[17]  B10 1f 43   -660.2 4092001.7  1.0  1.0  5  0 269935751
[18]  B28 1f 40   1902.5 4091994.9  1.0  1.0  5  0 269935798
$GNGGA,000000.000,,,,,0,00,,,M,,,,0000*2B
$GNRMC,000000.000,A,,,,,,,000000,,*26
$GPGSA,A,1,,,,,,,,,,,,,,,*1E
$BDGSA,A,1,,,,,,,,,,,,,,,*0F
$GPGSV,2,1,06,04,00,000,43,07,00,000,45,08,00,000,45,09,00,000,46*7B
$GPGSV,2,2,06,16,00,000,44,27,00,000,49*70
$BDGSV,1,1,03,07,00,000,43,10,00,000,43,28,00,000,40*53
$LOGTIM,0,0.000000,0.000000,0.000000,0.000000,0.000*0A
EndT:        0
---00000032--- Acq_st=3 2019-5-22 02:58:53 
[00]  G04  f 43  -1064.5 2046001.4  1.0  1.0  5  0 269950798
[01]  G07  f 45  -3509.7 2046004.6  1.0  1.0  5  0 269950798
[02]  G08  f 45  -1282.7 2046001.7  1.0  1.0  5  0 269950807
[03]  G09  f 47    114.0 2045999.9  1.0  1.0  5  0 269950800
[04]  G16  f 44   1215.6 2045998.4  1.0  1.0  5  0 269950803
[06]  G27  f 49   1021.7 2045998.7  1.0  1.0  5  0 269950808
[16]  B07 1f 43   -595.8 4092001.5  1.0  1.0  5  0 269936754
[17]  B10 1f 43   -655.2 4092001.7  1.0  1.0  5  0 269936751
[18]  B28 1f 40   1908.1 4091995.0  1.0  1.0  5  0 269936798
[19]  B27  1  7  -1008.4 4092003.4 -0.1  0.0  1  0         0
$GNGGA,000000.000,,,,,0,00,,,M,,,,0000*2B
$GNRMC,000000.000,A,,,,,,,000000,,*26
$GPGSA,A,1,,,,,,,,,,,,,,,*1E
$BDGSA,A,1,,,,,,,,,,,,,,,*0F
$GPGSV,2,1,06,04,00,000,43,07,00,000,45,08,00,000,45,09,00,000,47*7A
$GPGSV,2,2,06,16,00,000,44,27,00,000,49*70
$BDGSV,1,1,03,07,00,000,43,10,00,000,43,28,00,000,40*53
$LOGTIM,0,0.000000,0.000000,0.000000,0.000000,0.000*0A
EndT:        0
---00000033--- Acq_st=3 2019-5-22 02:58:54 
[00]  G04  f 43  -1063.3 2046001.4  1.0  1.0  5 3f 269951798
[01]  G07  f 45  -3509.1 2046004.6  1.0  1.0  5  0 269951798
[02]  G08  f 44  -1281.7 2046001.7  1.0  1.0  5  0 269951807
[03]  G09  f 47    115.1 2045999.9  1.0  1.0  5  0 269951800
[04]  G16  f 44   1216.4 2045998.4  1.0  1.0  5  0 269951803
[06]  G27  f 49   1022.7 2045998.7  1.0  1.0  5  0 269951808
[16]  B07 1f 43   -595.1 4092001.5  1.0  1.0  5  0 269937754
[17]  B10 1f 43   -654.4 4092001.7  1.0  1.0  5  0 269937751
[18]  B28 1f 40   1909.0 4091995.0  1.0  1.0  5  0 269937798
[19]  B27  1  7  -1018.9 4092003.5  0.2  0.0  1  0       262
$GNGGA,000000.000,,,,,0,00,,,M,,,,0000*2B
$GNRMC,000000.000,A,,,,,,,000000,,*26
$GPGSA,A,1,,,,,,,,,,,,,,,*1E
$BDGSA,A,1,,,,,,,,,,,,,,,*0F
$GPGSV,2,1,06,04,00,000,43,07,00,000,45,08,00,000,44,09,00,000,47*7B
$GPGSV,2,2,06,16,00,000,44,27,00,000,49*70
$BDGSV,1,1,03,07,00,000,43,10,00,000,43,28,00,000,40*53
$LOGTIM,0,0.000000,0.000000,0.000000,0.000000,0.000*0A
EndT:        0
---00000034--- Acq_st=7 2019-5-22 02:58:55 
[00]  G04  f 43  -1058.5 2046001.4  1.0  1.0  5 3f 269952798
[01]  G07  f 45  -3504.7 2046004.5  1.0  1.0  5  0 269952798
[02]  G08  f 44  -1277.0 2046001.6  1.0  1.0  5  0 269952807
[03]  G09  f 46    120.1 2045999.9  1.0  1.0  5  0 269952800
[04]  G16  f 45   1220.8 2045998.4  1.0  1.0  5  0 269952803
[06]  G27  f 49   1027.7 2045998.7  1.0  1.0  5  0 269952808
[16]  B07 1f 43   -591.0 4092001.5  1.0  1.0  5  0 269938754
[17]  B10 1f 43   -650.4 4092001.7  1.0  1.0  5  0 269938751
[18]  B28 1f 40   1914.2 4091995.0  1.0  1.0  5  0 269938798
[19]  B27  1  7  -1020.0 4092002.6 -0.1  0.0  1  0      1262
$GNGGA,000000.000,,,,,0,00,,,M,,,,0000*2B
$GNRMC,000000.000,A,,,,,,,000000,,*26
$GPGSA,A,1,,,,,,,,,,,,,,,*1E
$BDGSA,A,1,,,,,,,,,,,,,,,*0F
$GPGSV,2,1,06,04,00,000,43,07,00,000,45,08,00,000,44,09,00,000,46*7A
$GPGSV,2,2,06,16,00,000,45,27,00,000,49*71
$BDGSV,1,1,03,07,00,000,43,10,00,000,43,28,00,000,40*53
$LOGTIM,0,0.000000,0.000000,0.000000,0.000000,0.000*0A
EndT:        0
---00000035--- Acq_st=3 2019-5-22 02:58:56 
[00]  G04  f 43  -1063.4 2046001.4  1.0  1.0  5 3f 269953798
[01]  G07  f 44  -3510.0 2046004.6  1.0  1.0  5  0 269953798
[02]  G08  f 44  -1281.8 2046001.7  1.0  1.0  5  0 269953807
[03]  G09  f 46    114.9 2045999.9  1.0  1.0  5  0 269953800
[04]  G16  f 44   1215.2 2045998.4  1.0  1.0  5  0 269953803
[06]  G27  f 49   1022.5 2045998.7  1.0  1.0  5  0 269953808
[16]  B07 1f 43   -596.4 4092001.5  1.0  1.0  5  0 269939754
[17]  B10 1f 43   -655.8 4092001.7  1.0  1.0  5  0 269939751
[18]  B28 1f 40   1908.8 4091995.0  1.0  1.0  5  0 269939798
[19]  B27  1  7  -1024.5 4092002.5 -0.1  0.0  1  0      2262
$GNGGA,000000.000,,,,,0,00,,,M,,,,0000*2B
$GNRMC,000000.000,A,,,,,,,000000,,*26
$GPGSA,A,1,,,,,,,,,,,,,,,*1E
$BDGSA,A,1,,,,,,,,,,,,,,,*0F
$GPGSV,2,1,06,04,00,000,43,07,00,000,44,08,00,000,44,09,00,000,46*7B
$GPGSV,2,2,06,16,00,000,44,27,00,000,49*70
$BDGSV,1,1,03,07,00,000,43,10,00,000,43,28,00,000,40*53
$LOGTIM,0,0.000000,0.000000,0.000000,0.000000,0.000*0A
EndT:        0
---00000036--- Acq_st=3 2019-5-22 02:58:57 
[00]  G04  f 43  -1066.7 2046001.4  1.0  1.0  5 3f 269954798
[01]  G07  f 45  -3513.8 2046004.6  1.0  1.0  5  0 269954798
[02]  G08  f 44  -1285.5 2046001.7  1.0  1.0  5  0 269954807
[03]  G09  f 47    111.6 2045999.9  1.0  1.0  5  0 269954800
[04]  G16  f 44   1211.3 2045998.4  1.0  1.0  5  0 269954803
[06]  G27  f 50   1019.1 2045998.7  1.0  1.0  5  0 269954808
[16]  B07 1f 43   -600.6 4092001.5  1.0  1.0  5  0 269940754
[17]  B10 1f 43   -660.1 4092001.8  1.0  1.0  5  0 269940751
[18]  B28 1f 40   1904.7 4091994.9  1.0  1.0  5  0 269940798
[19]  B27  7 34  -1028.6 4092002.7  0.6  0.9  5  0      3262
$GNGGA,000000.000,,,,,0,00,,,M,,,,0000*2B
$GNRMC,000000.000,A,,,,,,,000000,,*26
$GPGSA,A,1,,,,,,,,,,,,,,,*1E
$BDGSA,A,1,,,,,,,,,,,,,,,*0F
$GPGSV,2,1,06,04,00,000,43,07,00,000,45,08,00,000,44,09,00,000,47*7B
$GPGSV,2,2,06,16,00,000,44,27,00,000,50*78
$BDGSV,1,1,04,07,00,000,43,10,00,000,43,28,00,000,40,27,00,000,34*66
$LOGTIM,0,0.000000,0.000000,0.000000,0.000000,0.000*0A
EndT:        0
---00000037--- Acq_st=3 2019-5-22 02:58:58 
[00]  G04  f 43  -1068.8 2046001.4  1.0  1.0  5 3f 269955798
[01]  G07  f 45  -3516.2 2046004.6  1.0  1.0  5  0 269955798
[02]  G08  f 44  -1287.3 2046001.7  1.0  1.0  5  0 269955807
[03]  G09  f 46    109.8 2045999.9  1.0  1.0  5  0 269955800
[04]  G16  f 45   1208.9 2045998.4  1.0  1.0  5  0 269955803
[06]  G27  f 49   1016.8 2045998.7  1.0  1.0  5  0 269955808
[16]  B07 1f 43   -603.5 4092001.6  1.0  1.0  5  0 269941754
[17]  B10 1f 43   -662.8 4092001.7  1.0  1.0  5  0 269941751
[18]  B28 1f 41   1902.5 4091995.0  1.0  1.0  5  0 269941798
[19]  B27  7 38  -1030.1 4092002.7  1.0  1.0  5  0      4244
$GNGGA,000000.000,,,,,0,00,,,M,,,,0000*2B
$GNRMC,000000.000,A,,,,,,,000000,,*26
$GPGSA,A,1,,,,,,,,,,,,,,,*1E
$BDGSA,A,1,,,,,,,,,,,,,,,*0F
$GPGSV,2,1,06,04,00,000,43,07,00,000,45,08,00,000,44,09,00,000,46*7A
$GPGSV,2,2,06,16,00,000,45,27,00,000,49*71
$BDGSV,1,1,04,07,00,000,43,10,00,000,43,28,00,000,41,27,00,000,38*6B
$LOGTIM,0,0.000000,0.000000,0.000000,0.000000,0.000*0A
EndT:        0
---00000038--- Acq_st=3 2019-5-22 02:58:59 
[00]  G04  f 42  -1069.1 2046001.4  1.0  1.0  5 3f 269956798
[01]  G07  f 45  -3516.8 2046004.6  1.0  1.0  5  0 269956798
[02]  G08  f 44  -1287.7 2046001.7  1.0  1.0  5  0 269956807
[03]  G09  f 45    109.4 2045999.9  1.0  1.0  5  0 269956800
[04]  G16  f 45   1208.5 2045998.4  1.0  1.0  5  0 269956803
[06]  G27  f 49   1016.6 2045998.7  1.0  1.0  5  0 269956808
[16]  B07 1f 43   -603.8 4092001.6  1.0  1.0  5  0 269942754
[17]  B10 1f 43   -663.3 4092001.7  1.0  1.0  5  0 269942751
[18]  B28 1f 41   1902.5 4091995.0  1.0  1.0  5  0 269942798
[19]  B27  7 38  -1029.8 4092002.7  1.0  1.0  5  0      5244
$GNGGA,000000.000,,,,,0,00,,,M,,,,0000*2B
$GNRMC,000000.000,A,,,,,,,000000,,*26
$GPGSA,A,1,,,,,,,,,,,,,,,*1E
$BDGSA,A,1,,,,,,,,,,,,,,,*0F
$GPGSV,2,1,06,04,00,000,42,07,00,000,45,08,00,000,44,09,00,000,45*78
$GPGSV,2,2,06,16,00,000,45,27,00,000,49*71
$BDGSV,1,1,04,07,00,000,43,10,00,000,43,28,00,000,41,27,00,000,38*6B
$LOGTIM,0,0.000000,0.000000,0.000000,0.000000,0.000*0A
EndT:        0
---00000039--- Acq_st=3 2019-5-22 02:59:0 
[00]  G04  f 42  -1066.1 2046001.4  1.0  1.0  5 3f 269957798
[01]  G07  f 45  -3514.6 2046004.6  1.0  1.0  5  0 269957798
[02]  G08  f 44  -1284.7 2046001.7  1.0  1.0  5  0 269957807
[03]  G09  f 45    112.3 2045999.9  1.0  1.0  5  0 269957800
[04]  G16  f 44   1211.0 2045998.4  1.0  1.0  5  0 269957803
[06]  G27  f 49   1019.5 2045998.7  1.0  1.0  5  0 269957808
[16]  B07 1f 43   -601.7 4092001.6  1.0  1.0  5  0 269943754
[17]  B10 1f 43   -661.2 4092001.7  1.0  1.0  5  0 269943751
[18]  B28 1f 42   1905.2 4091995.0  1.0  1.0  5  0 269943798
[19]  B27  7 37  -1027.5 4092002.7  1.0  1.0  5  0      6244
lsq: nits= 4
$GNGGA,025900.876,3112.7209,N,12136.4302,E,1,05,3.0,58.0,M,,,,0000*22
$GNRMC,025900.876,A,3112.7209,N,12136.4302,E,0.09,0.00,220519,,*11
$GPGSA,A,3,07,08,09,16,27,,,,,,,,5.1,3.0,4.2*37
$BDGSA,A,3,,,,,,,,,,,,,5.1,3.0,4.2*22
$GPGSV,2,1,06,04,00,000,42,07,00,000,45,08,00,000,44,09,00,000,45*78
$GPGSV,2,2,06,16,00,000,44,27,00,000,49*70
$BDGSV,1,1,04,07,00,000,43,10,00,000,43,28,00,000,42,27,00,000,37*67
$LOGTIM,1,6768485.282124,0.000000,0.000000,0.000000,-63.795*11
EndT:        1
---00000040--- Acq_st=3 2019-5-22 02:59:1 
[00]  G04  f 42  -1061.5 2046001.4  1.0  1.0  5 3f 269958798
[01]  G07  f 45  -3510.6 2046004.5  1.0  1.0  5  0 269958798
[02]  G08  f 44  -1280.4 2046001.7  1.0  1.0  5  0 269958807
[03]  G09  f 45    116.6 2045999.8  1.0  1.0  5  0 269958800
[04]  G16  f 44   1214.5 2045998.4  1.0  1.0  5  0 269958803
[06]  G27  f 49   1023.6 2045998.7  1.0  1.0  5  0 269958808
[16]  B07 1f 43   -598.2 4092001.6  1.0  1.0  5  0 269944754
[17]  B10 1f 43   -658.0 4092001.7  1.0  1.0  5  0 269944751
[18]  B28 1f 42   1909.1 4091995.0  1.0  1.0  5  0 269944798
[19]  B27  7 36  -1023.4 4092002.7  1.0  1.0  5  0      7244
lsq: nits= 2
$GNGGA,025902.000,3112.7211,N,12136.4307,E,1,05,3.0,57.0,M,,,,0000*2A
$GNRMC,025902.000,A,3112.7211,N,12136.4307,E,0.33,0.00,220519,,*1F
$GPGSA,A,3,07,08,09,16,27,,,,,,,,5.1,3.0,4.1*34
$BDGSA,A,3,,,,,,,,,,,,,5.1,3.0,4.1*21
$GPGSV,2,1,06,04,00,000,42,07,00,000,45,08,00,000,44,09,00,000,45*78
$GPGSV,2,2,06,16,00,000,44,27,00,000,49*70
$BDGSV,1,1,04,07,00,000,43,10,00,000,43,28,00,000,42,27,00,000,36*66
$LOGTIM,1,-71.173795,0.000000,0.000000,0.000000,-63.152*00
EndT:        2
---00000041--- Acq_st=3 2019-5-22 02:59:2 
[00]  G04  f 42  -1058.9 2046001.4  1.0  1.0  5 3f 269959922
[01]  G07  f 45  -3508.4 2046004.6  1.0  1.0  5  0 269959922
[02]  G08  f 44  -1277.9 2046001.7  1.0  1.0  5  0 269959931
[03]  G09  f 45    119.3 2045999.8  1.0  1.0  5  0 269959924
[04]  G16  f 44   1216.7 2045998.4  1.0  1.0  5  0 269959927
[06]  G27  f 50   1026.2 2045998.7  1.0  1.0  5  0 269959932
[16]  B07 1f 43   -596.1 4092001.6  1.0  1.0  5  0 269945878
[17]  B10 1f 43   -655.3 4092001.7  1.0  1.0  5  0 269945875
[18]  B28 1f 42   1911.4 4091995.0  1.0  1.0  5  0 269945922
[19]  B27  7 37  -1020.5 4092002.7  1.0  1.0  5  0      8368
lsq: nits= 2
$GNGGA,025903.000,3112.7210,N,12136.4310,E,1,05,3.0,56.2,M,,,,0000*2F
$GNRMC,025903.000,A,3112.7210,N,12136.4310,E,0.27,0.00,220519,,*1C
$GPGSA,A,3,07,08,09,16,27,,,,,,,,5.1,3.0,4.1*34
$BDGSA,A,3,,,,,,,,,,,,,5.1,3.0,4.1*21
$GPGSV,2,1,06,04,00,000,42,07,28,317,45,08,67,246,44,09,31,275,45*74
$GPGSV,2,2,06,16,43,049,44,27,69,023,50*7C
$BDGSV,1,1,04,07,00,000,43,10,00,000,43,28,00,000,42,27,00,000,37*67
$LOGTIM,1,-134.279021,0.000000,0.000000,0.000000,-62.874*3D
EndT:        2
---00000042--- Acq_st=3 2019-5-22 02:59:4 
[00]  G04  f 41  -1060.9 2046001.4  1.0  1.0  5 3f 269960922
[01]  G07  f 45  -3510.7 2046004.5  1.0  1.0  5  0 269960922
[02]  G08  f 45  -1279.9 2046001.7  1.0  1.0  5  0 269960931
[03]  G09  f 45    117.6 2045999.9  1.0  1.0  5  0 269960924
[04]  G16  f 44   1214.8 2045998.4  1.0  1.0  5  0 269960927
[06]  G27  f 50   1024.2 2045998.7  1.0  1.0  5  0 269960932
[16]  B07 1f 43   -598.3 4092001.6  1.0  1.0  5  0 269946878
[17]  B10 1f 43   -658.5 4092001.7  1.0  1.0  5  0 269946875
[18]  B28 1f 42   1909.0 4091995.0  1.0  1.0  5  0 269946922
[19]  B27 1f 36  -1023.3 4092002.7  1.0  1.0  5  0      9368
lsq: nits= 2
$GNGGA,025904.000,3112.7214,N,12136.4311,E,1,05,3.0,55.5,M,,,,0000*29
$GNRMC,025904.000,A,3112.7214,N,12136.4311,E,0.06,0.00,220519,,*1D
$GPGSA,A,3,07,08,09,16,27,,,,,,,,5.1,3.0,4.1*34
$BDGSA,A,3,,,,,,,,,,,,,5.1,3.0,4.1*21
$GPGSV,2,1,06,04,00,000,41,07,28,317,45,08,67,246,45,09,31,275,45*76
$GPGSV,2,2,06,16,43,049,44,27,69,023,50*7C
$BDGSV,1,1,04,07,00,000,43,10,00,000,43,28,00,000,42,27,00,000,36*66
$LOGTIM,1,-197.496196,0.000000,0.000000,0.000000,-63.146*37
EndT:        2
---00000043--- Acq_st=3 2019-5-22 02:59:4 
[00]  G04  f 42  -1060.1 2046001.4  1.0  1.0  5 3f 269961922
[01]  G07  f 44  -3510.5 2046004.6  1.0  1.0  5  0 269961922
[02]  G08  f 43  -1279.2 2046001.7  1.0  1.0  5  0 269961931
[03]  G09  f 45    117.7 2045999.8  1.0  1.0  5  0 269961924
[04]  G16  f 44   1214.6 2045998.4  1.0  1.0  5  0 269961927
[06]  G27  f 50   1024.6 2045998.7  1.0  1.0  5  0 269961932
[16]  B07 1f 43   -598.8 4092001.6  1.0  1.0  5  0 269947878
[17]  B10 1f 43   -658.7 4092001.7  1.0  1.0  5  0 269947875
[18]  B28 1f 42   1909.3 4091995.0  1.0  1.0  5  0 269947922
[19]  B27 1f 36  -1023.0 4092002.7  1.0  1.0  5  0 269947928
lsq: nits= 2
$GNGGA,025905.000,3112.7225,N,12136.4314,E,1,05,3.0,55.2,M,,,,0000*28
$GNRMC,025905.000,A,3112.7225,N,12136.4314,E,0.05,0.00,220519,,*18
$GPGSA,A,3,07,08,09,16,27,,,,,,,,5.1,3.0,4.1*34
$BDGSA,A,3,,,,,,,,,,,,,5.1,3.0,4.1*21
$GPGSV,2,1,06,04,00,000,42,07,28,317,44,08,67,246,43,09,31,275,45*72
$GPGSV,2,2,06,16,43,049,44,27,69,023,50*7C
$BDGSV,1,1,04,07,00,000,43,10,00,000,43,28,00,000,42,27,00,000,36*66
$LOGTIM,1,-260.304596,0.000000,0.000000,0.000000,-63.098*36
EndT:        2
---00000044--- Acq_st=3 2019-5-22 02:59:5 
[00]  G04  f 42  -1059.7 2046001.4  1.0  1.0  5 3f 269962922
[01]  G07  f 44  -3510.5 2046004.6  1.0  1.0  5  0 269962922
[02]  G08  f 44  -1278.9 2046001.7  1.0  1.0  5  0 269962931
[03]  G09  f 46    118.5 2045999.8  1.0  1.0  5  0 269962924
[04]  G16  f 44   1214.6 2045998.4  1.0  1.0  5  0 269962927
[06]  G27  f 49   1025.2 2045998.7  1.0  1.0  5  0 269962932
[16]  B07 1f 43   -598.6 4092001.5  1.0  1.0  5  0 269948878
[17]  B10 1f 43   -658.4 4092001.7  1.0  1.0  5  0 269948875
[18]  B28 1f 42   1909.9 4091995.0  1.0  1.0  5  0 269948922
[19]  B27 1f 36  -1021.9 4092002.6  1.0  1.0  5  0 269948928
lsq: nits= 2
$GNGGA,025906.000,3112.7228,N,12136.4317,E,1,05,3.0,54.4,M,,,,0000*22
$GNRMC,025906.000,A,3112.7228,N,12136.4317,E,0.02,0.00,220519,,*12
$GPGSA,A,3,07,08,09,16,27,,,,,,,,5.1,3.0,4.1*34
$BDGSA,A,3,,,,,,,,,,,,,5.1,3.0,4.1*21
$GPGSV,2,1,06,04,00,000,42,07,28,317,44,08,67,246,44,09,31,275,46*76
$GPGSV,2,2,06,16,43,049,44,27,69,023,49*74
$BDGSV,1,1,04,07,00,000,43,10,00,000,43,28,00,000,42,27,00,000,36*66
$LOGTIM,1,-323.789071,0.000000,0.000000,0.000000,-63.221*3D
EndT:        2
---00000045--- Acq_st=3 2019-5-22 02:59:6 
[00]  G04  f 41  -1060.4 2046001.4  1.0  1.0  5 3f 269963922
[01]  G07  f 45  -3511.4 2046004.5  1.0  1.0  5  0 269963922
[02]  G08  f 45  -1279.4 2046001.7  1.0  1.0  5  0 269963931
[03]  G09  f 46    118.1 2045999.8  1.0  1.0  5  0 269963924
[04]  G16  f 44   1213.5 2045998.4  1.0  1.0  5  0 269963927
[06]  G27  f 50   1024.2 2045998.7  1.0  1.0  5  0 269963932
[16]  B07 1f 43   -599.7 4092001.6  1.0  1.0  5  0 269949878
[17]  B10 1f 43   -659.2 4092001.7  1.0  1.0  5  0 269949875
[18]  B28 1f 42   1909.1 4091995.0  1.0  1.0  5  0 269949922
[19]  B27 1f 35  -1022.7 4092002.8  1.0  0.9  5  0 269949928
lsq: nits= 2
$GNGGA,025907.000,3112.7230,N,12136.4323,E,1,05,3.0,53.2,M,,,,0000*2C
$GNRMC,025907.000,A,3112.7230,N,12136.4323,E,0.11,0.00,220519,,*1F
$GPGSA,A,3,07,08,09,16,27,,,,,,,,5.1,3.0,4.1*34
$BDGSA,A,3,,,,,,,,,,,,,5.1,3.0,4.1*21
$GPGSV,2,1,06,04,00,000,41,07,28,317,45,08,67,246,45,09,31,275,46*75
$GPGSV,2,2,06,16,43,049,44,27,69,023,50*7C
$BDGSV,1,1,04,07,00,000,43,10,00,000,43,28,00,000,42,27,00,000,35*65
$LOGTIM,1,-387.736816,0.000000,0.000000,0.000000,-63.453*3D
EndT:        2
---00000046--- Acq_st=3 2019-5-22 02:59:7 
[00]  G04  f 41  -1060.9 2046001.4  1.0  1.0  5 3f 269964922
[01]  G07  f 45  -3512.6 2046004.6  1.0  1.0  5  0 269964922
[02]  G08  f 44  -1280.2 2046001.7  1.0  1.0  5  0 269964931
[03]  G09  f 44    117.3 2045999.8  1.0  1.0  5  0 269964924
[04]  G16  f 44   1212.4 2045998.4  1.0  1.0  5  0 269964927
[06]  G27  f 49   1023.7 2045998.7  1.0  1.0  5  0 269964932
[16]  B07 1f 43   -601.1 4092001.6  1.0  1.0  5  0 269950878
[17]  B10 1f 43   -660.8 4092001.7  1.0  1.0  5  0 269950875
[18]  B28 1f 42   1908.0 4091995.0  1.0  1.0  5  0 269950922
[19]  B27 1f 35  -1023.0 4092002.8  1.0  1.0  5  0 269950928
lsq: nits= 2
$GNGGA,025908.000,3112.7230,N,12136.4328,E,1,05,3.0,52.2,M,,,,0000*29
$GNRMC,025908.000,A,3112.7230,N,12136.4328,E,0.12,0.00,220519,,*18
$GPGSA,A,3,07,08,09,16,27,,,,,,,,5.1,3.0,4.1*34
$BDGSA,A,3,,,,,,,,,,,,,5.1,3.0,4.1*21
$GPGSV,2,1,06,04,00,000,41,07,28,317,45,08,67,246,44,09,31,275,44*76
$GPGSV,2,2,06,16,43,049,44,27,69,023,49*74
$BDGSV,1,1,04,07,00,000,43,10,00,000,43,28,00,000,42,27,00,000,35*65
$LOGTIM,1,-452.260696,0.000000,0.000000,0.000000,-63.595*39
EndT:        2
---00000047--- Acq_st=3 2019-5-22 02:59:8 
[00]  G04  f 42  -1060.2 2046001.4  1.0  1.0  5 3f 269965922
[01]  G07  f 45  -3512.1 2046004.6  1.0  1.0  5  0 269965922
[02]  G08  f 44  -1279.3 2046001.7  1.0  1.0  5  0 269965931
[03]  G09  f 45    118.1 2045999.8  1.0  1.0  5  0 269965924
[04]  G16  f 44   1212.6 2045998.4  1.0  1.0  5  0 269965927
[06]  G27  f 50   1024.3 2045998.7  1.0  1.0  5  0 269965932
[16]  B07 1f 43   -600.8 4092001.6  1.0  1.0  5  0 269951878
[17]  B10 1f 43   -660.9 4092001.7  1.0  1.0  5  0 269951875
[18]  B28 1f 43   1908.6 4091995.0  1.0  1.0  5  0 269951922
[19]  B27 1f 35  -1022.2 4092002.6  1.0  1.0  5  0 269951928
lsq: nits= 2
$GNGGA,025909.000,3112.7229,N,12136.4332,E,1,05,2.9,51.0,M,,,,0000*22
$GNRMC,025909.000,A,3112.7229,N,12136.4332,E,0.22,0.00,220519,,*19
$GPGSA,A,3,07,08,09,16,27,,,,,,,,5.1,2.9,4.1*3C
$BDGSA,A,3,,,,,,,,,,,,,5.1,2.9,4.1*29
$GPGSV,2,1,06,04,00,000,42,07,28,317,45,08,67,246,44,09,31,275,45*74
$GPGSV,2,2,06,16,43,049,44,27,69,023,50*7C
$BDGSV,1,1,04,07,00,000,43,10,00,000,43,28,00,000,43,27,00,000,35*64
$LOGTIM,1,-517.107419,0.000000,0.000000,0.000000,-63.729*3B
EndT:        2
---00000048--- Acq_st=7 2019-5-22 02:59:9 
[00]  G04  f 42  -1058.3 2046001.4  1.0  1.0  5 3f 269966922
[01]  G07  f 45  -3510.8 2046004.6  1.0  1.0  5  0 269966922
[02]  G08  f 44  -1277.7 2046001.6  1.0  1.0  5  0 269966931
[03]  G09  f 46    119.9 2045999.8  1.0  1.0  5  0 269966924
[04]  G16  f 43   1213.7 2045998.4  1.0  1.0  5  0 269966927
[06]  G27  f 50   1026.1 2045998.7  1.0  1.0  5  0 269966932
[16]  B07 1f 43   -600.1 4092001.6  1.0  1.0  5  0 269952878
[17]  B10 1f 43   -659.3 4092001.7  1.0  1.0  5  0 269952875
[18]  B28 1f 43   1910.0 4091995.0  1.0  1.0  5  0 269952922
[19]  B27 1f 35  -1021.0 4092002.7  1.0  1.0  5  0 269952928
lsq: nits= 2
$GNGGA,025910.000,3112.7230,N,12136.4335,E,1,05,2.9,49.9,M,,,,0000*25
$GNRMC,025910.000,A,3112.7230,N,12136.4335,E,0.36,0.00,220519,,*1B
$GPGSA,A,3,07,08,09,16,27,,,,,,,,5.1,2.9,4.1*3C
$BDGSA,A,3,,,,,,,,,,,,,5.1,2.9,4.1*29
$GPGSV,2,1,06,04,00,000,42,07,28,317,45,08,67,246,44,09,31,275,46*77
$GPGSV,2,2,06,16,43,049,43,27,69,023,50*7B
$BDGSV,1,1,04,07,00,000,43,10,00,000,43,28,00,000,43,27,00,000,35*64
$LOGTIM,1,-581.874170,0.000000,0.000000,0.000000,-63.704*3C
EndT:        2
---00000049--- Acq_st=7 2019-5-22 02:59:10 
[00]  G04  f 42  -1057.8 2046001.4  1.0  1.0  5 3f 269967922
[01]  G07  f 44  -3511.0 2046004.6  1.0  1.0  5  0 269967922
[02]  G08  f 45  -1277.3 2046001.7  1.0  1.0  5  0 269967931
[03]  G09  f 46    120.3 2045999.8  1.0  1.0  5  0 269967924
[04]  G16  f 44   1213.9 2045998.4  1.0  1.0  5  0 269967927
[06]  G27  f 50   1026.4 2045998.7  1.0  1.0  5  0 269967932
[16]  B07 1f 43   -599.9 4092001.6  1.0  1.0  5  0 269953878
[17]  B10 1f 43   -659.6 4092001.7  1.0  1.0  5  0 269953875
[18]  B28 1f 43   1910.7 4091995.0  1.0  1.0  5  0 269953922
[19]  B27 1f 34  -1020.5 4092002.7  1.0  0.9  5  0 269953928
lsq: nits= 2
$GNGGA,025911.000,3112.7231,N,12136.4339,E,1,05,2.9,48.6,M,,,,0000*27
$GNRMC,025911.000,A,3112.7231,N,12136.4339,E,0.57,0.00,220519,,*10
$GPGSA,A,3,07,08,09,16,27,,,,,,,,5.1,2.9,4.1*3C
$BDGSA,A,3,,,,,,,,,,,,,5.1,2.9,4.1*29
$GPGSV,2,1,06,04,00,000,42,07,28,317,44,08,67,246,45,09,31,275,46*77
$GPGSV,2,2,06,16,43,049,44,27,69,023,50*7C
$BDGSV,1,1,04,07,00,000,43,10,00,000,43,28,00,000,43,27,00,000,34*65
$LOGTIM,1,-647.179684,0.000000,0.000000,0.000000,-63.728*33
EndT:        2
---00000050--- Acq_st=3 2019-5-22 02:59:11 
[00]  G04  f 42  -1055.0 2046001.4  1.0  1.0  5 3f 269968922
[01]  G07  f 43  -3508.4 2046004.6  1.0  1.0  5  0 269968922
[02]  G08  f 44  -1274.6 2046001.7  1.0  1.0  5  0 269968931
[03]  G09  f 46    123.0 2045999.9  1.0  1.0  5  0 269968924
[04]  G16  f 44   1216.7 2045998.4  1.0  1.0  5  0 269968927
[06]  G27  f 50   1029.2 2045998.7  1.0  1.0  5  0 269968932
[16]  B07 1f 43   -597.8 4092001.5  1.0  1.0  5  0 269954878
[17]  B10 1f 43   -657.4 4092001.7  1.0  1.0  5  0 269954875
[18]  B28 1f 43   1912.8 4091995.0  1.0  1.0  5  0 269954922
[19]  B27 1f 34  -1017.7 4092002.6  1.0  1.0  5  0 269954928
lsq: nits= 2
$GNGGA,025912.000,3112.7230,N,12136.4341,E,1,05,2.9,47.6,M,,,,0000*25
$GNRMC,025912.000,A,3112.7230,N,12136.4341,E,0.75,0.00,220519,,*1D
$GPGSA,A,3,07,08,09,16,27,,,,,,,,5.1,2.9,4.1*3C
$BDGSA,A,3,,,,,,,,,,,,,5.1,2.9,4.1*29
$GPGSV,2,1,06,04,00,000,42,07,28,317,43,08,67,246,44,09,31,275,46*71
$GPGSV,2,2,06,16,43,049,44,27,69,023,50*7C
$BDGSV,1,1,04,07,00,000,43,10,00,000,43,28,00,000,43,27,00,000,34*65
$LOGTIM,1,-711.642597,0.000000,0.000000,0.000000,-63.514*32
EndT:        2
---00000051--- Acq_st=3 2019-5-22 02:59:12 
[00]  G04  f 43  -1056.2 2046001.4  1.0  1.0  5 3f 269969922
[01]  G07  f 45  -3510.3 2046004.6  1.0  1.0  5  0 269969922
[02]  G08  f 44  -1275.7 2046001.7  1.0  1.0  5  0 269969931
[03]  G09  f 45    121.7 2045999.8  1.0  1.0  5  0 269969924
[04]  G16  f 43   1214.6 2045998.4  1.0  1.0  5  0 269969927
[06]  G27  f 50   1027.8 2045998.7  1.0  1.0  5  0 269969932
[16]  B07 1f 43   -599.8 4092001.6  1.0  1.0  5  0 269955878
[17]  B10 1f 43   -659.2 4092001.7  1.0  1.0  5  0 269955875
[18]  B28 1f 42   1911.5 4091995.0  1.0  1.0  5  0 269955922
[19]  B27 1f 34  -1019.1 4092002.7  1.0  1.0  5  0 269955928
lsq: nits= 2
$GNGGA,025913.000,3112.7225,N,12136.4341,E,1,05,2.9,46.2,M,,,,0000*25
$GNRMC,025913.000,A,3112.7225,N,12136.4341,E,0.59,0.00,220519,,*16
$GPGSA,A,3,07,08,09,16,27,,,,,,,,5.1,2.9,4.1*3C
$BDGSA,A,3,,,,,,,,,,,,,5.1,2.9,4.1*29
$GPGSV,2,1,06,04,00,000,43,07,28,317,45,08,67,246,44,09,31,275,45*75
$GPGSV,2,2,06,16,43,049,43,27,69,023,50*7B
$BDGSV,1,1,04,07,00,000,43,10,00,000,43,28,00,000,42,27,00,000,34*64
$LOGTIM,1,-777.237971,0.000000,0.000000,0.000000,-63.948*35
EndT:        2
---00000052--- Acq_st=3 2019-5-22 02:59:13 
[00]  G04  f 43  -1058.3 2046001.4  1.0  1.0  5 3f 269970922
[01]  G07  f 45  -3512.7 2046004.6  1.0  1.0  5  0 269970922
[02]  G08  f 43  -1278.0 2046001.7  1.0  1.0  5  0 269970931
[03]  G09  f 46    119.7 2045999.9  1.0  1.0  5  0 269970924
[04]  G16  f 44   1212.2 2045998.4  1.0  1.0  5  0 269970927
[05]  G21  1  7   2179.6 2045998.0  0.0  0.0  1  0         1
[06]  G27  f 50   1025.4 2045998.7  1.0  1.0  5  0 269970932
[16]  B07 1f 43   -602.5 4092001.6  1.0  1.0  5  0 269956878
[17]  B10 1f 43   -662.2 4092001.7  1.0  1.0  5  0 269956875
[18]  B28 1f 43   1908.6 4091995.0  1.0  1.0  5  0 269956922
[19]  B27 1f 33  -1021.6 4092002.7  1.0  0.9  5  0 269956928
lsq: nits= 2
$GNGGA,025914.000,3112.7220,N,12136.4344,E,1,05,2.9,44.4,M,,,,0000*26
$GNRMC,025914.000,A,3112.7220,N,12136.4344,E,0.67,0.00,220519,,*1C
$GPGSA,A,3,07,08,09,16,27,,,,,,,,5.1,2.9,4.1*3C
$BDGSA,A,3,,,,,,,,,,,,,5.1,2.9,4.1*29
$GPGSV,2,1,06,04,00,000,43,07,28,317,45,08,67,246,43,09,31,275,46*71
$GPGSV,2,2,06,16,43,049,44,27,69,023,50*7C
$BDGSV,1,1,04,07,00,000,43,10,00,000,43,28,00,000,43,27,00,000,33*62
$LOGTIM,1,-843.453039,0.000000,0.000000,0.000000,-64.312*3E
EndT:        2
---00000053--- Acq_st=3 2019-5-22 02:59:14 
[00]  G04  f 42  -1055.4 2046001.4  1.0  1.0  5 3f 269971922
[01]  G07  f 44  -3510.3 2046004.5  1.0  1.0  5  0 269971922
[02]  G08  f 44  -1275.0 2046001.6  1.0  1.0  5  0 269971931
[03]  G09  f 45    122.7 2045999.9  1.0  1.0  5  0 269971924
[04]  G16  f 43   1214.7 2045998.4  1.0  1.0  5  0 269971927
[06]  G27  f 50   1028.6 2045998.6  1.0  1.0  5  0 269971932
[16]  B07 1f 43   -600.2 4092001.6  1.0  1.0  5  0 269957878
[17]  B10 1f 43   -659.7 4092001.7  1.0  1.0  5  0 269957875
[18]  B28 1f 42   1911.9 4091995.0  1.0  1.0  5  0 269957922
[19]  B27 1f 33  -1017.2 4092002.6  1.0  1.0  5  0 269957928
lsq: nits= 2
$GNGGA,025915.000,3112.7207,N,12136.4346,E,1,08,2.9,42.7,M,,,,0000*28
$GNRMC,025915.000,A,3112.7207,N,12136.4346,E,1.14,0.00,220519,,*1F
$GPGSA,A,3,07,08,09,16,27,,,,,,,,5.1,2.9,4.1*3C
$BDGSA,A,3,07,10,28,,,,,,,,,,5.1,2.9,4.1*25
$GPGSV,2,1,06,04,00,000,42,07,28,317,44,08,67,246,44,09,31,275,45*75
$GPGSV,2,2,06,16,43,049,43,27,69,023,50*7B
$BDGSV,1,1,04,07,00,000,43,10,00,000,43,28,00,000,42,27,00,000,33*63
$LOGTIM,3,-910.173671,-1026.206678,0.000000,0.000000,-64.223*20
EndT:        3
---00000054--- Acq_st=3 2019-5-22 02:59:15 
[00]  G04  f 42  -1056.5 2046001.4  1.0  1.0  5 3f 269972922
[01]  G07  f 44  -3512.0 2046004.6  1.0  1.0  5  0 269972922
[02]  G08  f 44  -1276.3 2046001.7  1.0  1.0  5  0 269972931
[03]  G09  f 45    121.5 2045999.9  1.0  1.0  5  0 269972924
[04]  G16  f 43   1212.9 2045998.4  1.0  1.0  5  0 269972927
[06]  G27  f 50   1026.9 2045998.6  1.0  1.0  5  0 269972932
[16]  B07 1f 43   -602.2 4092001.6  1.0  1.0  5  0 269958878
[17]  B10 1f 43   -661.8 4092001.7  1.0  1.0  5  0 269958875
[18]  B28 1f 42   1910.0 4091995.0  1.0  1.0  5  0 269958922
[19]  B27 1f 33  -1019.7 4092002.6  1.0  1.0  5  0 269958928
lsq: nits= 2
$GNGGA,025916.000,3112.7205,N,12136.4335,E,1,08,1.5,44.5,M,,,,0000*26
$GNRMC,025916.000,A,3112.7205,N,12136.4335,E,1.16,0.00,220519,,*18
$GPGSA,A,3,07,08,09,16,27,,,,,,,,1.8,1.5,0.9*32
$BDGSA,A,3,07,10,28,,,,,,,,,,1.8,1.5,0.9*2B
$GPGSV,2,1,06,04,00,000,42,07,28,317,44,08,67,246,44,09,31,275,45*75
$GPGSV,2,2,06,16,43,049,43,27,69,023,50*7B
$BDGSV,1,1,04,07,66,006,43,10,51,315,43,28,40,044,42,27,00,000,33*62
$LOGTIM,3,-973.610212,-1117.843455,0.000000,0.000000,-64.679*28
EndT:        3
---00000055--- Acq_st=3 2019-5-22 02:59:16 
[00]  G04  f 42  -1058.9 2046001.4  1.0  1.0  5 3f 269973922
[01]  G07  f 45  -3514.3 2046004.5  1.0  1.0  5  0 269973922
[02]  G08  f 43  -1278.5 2046001.7  1.0  1.0  5  0 269973931
[03]  G09  f 45    119.5 2045999.9  1.0  1.0  5  0 269973924
[04]  G16  f 43   1210.2 2045998.4  1.0  1.0  5  0 269973927
[06]  G27  f 50   1024.8 2045998.7  1.0  1.0  5  0 269973932
[16]  B07 1f 43   -604.2 4092001.6  1.0  1.0  5  0 269959878
[17]  B10 1f 43   -664.5 4092001.7  1.0  1.0  5  0 269959875
[18]  B28 1f 42   1908.0 4091995.0  1.0  1.0  5  0 269959922
[19]  B27 1f 34  -1021.5 4092002.7  1.0  0.9  5  0 269959928
lsq: nits= 2
$GNGGA,025917.000,3112.7188,N,12136.4330,E,1,08,1.5,42.5,M,,,,0000*22
$GNRMC,025917.000,A,3112.7188,N,12136.4330,E,1.07,0.00,220519,,*1A
$GPGSA,A,3,07,08,09,16,27,,,,,,,,1.8,1.5,0.9*32
$BDGSA,A,3,07,10,28,,,,,,,,,,1.8,1.5,0.9*2B
$GPGSV,2,1,06,04,00,000,42,07,28,317,45,08,67,246,43,09,31,275,45*73
$GPGSV,2,2,06,16,43,049,43,27,69,023,50*7B
$BDGSV,1,1,04,07,66,006,43,10,51,315,43,28,40,044,42,27,00,000,34*65
$LOGTIM,3,-1039.967942,-1186.342863,0.000000,0.000000,-65.054*1C
EndT:        3
---00000056--- Acq_st=3 2019-5-22 02:59:17 
[00]  G04  f 43  -1060.1 2046001.4  1.0  1.0  5 3f 269974922
[01]  G07  f 44  -3516.2 2046004.6  1.0  1.0  5  0 269974922
[02]  G08  f 44  -1280.1 2046001.6  1.0  1.0  5  0 269974931
[03]  G09  f 44    117.9 2045999.9  1.0  1.0  5  0 269974924
[04]  G16  f 43   1208.2 2045998.4  1.0  1.0  5  0 269974927
[06]  G27  f 50   1023.3 2045998.7  1.0  1.0  5  0 269974932
[16]  B07 1f 43   -606.9 4092001.6  1.0  1.0  5  0 269960878
[17]  B10 1f 43   -666.7 4092001.7  1.0  1.0  5  0 269960875
[18]  B28 1f 42   1905.8 4091995.0  1.0  1.0  5  0 269960922
[19]  B27 1f 34  -1023.8 4092002.7  1.0  1.0  5  0 269960928
lsq: nits= 2
$GNGGA,025918.000,3112.7172,N,12136.4324,E,1,08,1.5,39.7,M,,,,0000*23
$GNRMC,025918.000,A,3112.7172,N,12136.4324,E,1.05,0.00,220519,,*17
$GPGSA,A,3,07,08,09,16,27,,,,,,,,1.8,1.5,0.9*32
$BDGSA,A,3,07,10,28,,,,,,,,,,1.8,1.5,0.9*2B
$GPGSV,2,1,06,04,00,000,43,07,28,317,44,08,67,246,44,09,31,275,44*75
$GPGSV,2,2,06,16,43,049,43,27,69,023,50*7B
$BDGSV,1,1,04,07,66,006,43,10,51,315,43,28,40,044,42,27,00,000,34*65
$LOGTIM,3,-1107.394205,-1255.054966,0.000000,0.000000,-65.356*12
EndT:        3
---00000057--- Acq_st=3 2019-5-22 02:59:18 
[00]  G04  f 42  -1057.2 2046001.4  1.0  1.0  5 3f 269975922
[01]  G07  f 44  -3514.2 2046004.6  1.0  1.0  5  0 269975922
[02]  G08  f 43  -1277.0 2046001.7  1.0  1.0  5  0 269975931
[03]  G09  f 45    120.9 2045999.9  1.0  1.0  5  0 269975924
[04]  G16  f 42   1210.5 2045998.4  1.0  1.0  5  0 269975927
[06]  G27  f 49   1025.9 2045998.7  1.0  1.0  5  0 269975932
[16]  B07 1f 43   -604.2 4092001.6  1.0  1.0  5  0 269961878
[17]  B10 1f 43   -664.2 4092001.7  1.0  1.0  5  0 269961875
[18]  B28 1f 42   1908.9 4091995.0  1.0  1.0  5  0 269961922
[19]  B27 1f 34  -1021.1 4092002.6  1.0  1.0  5  0 269961928
lsq: nits= 2
$GNGGA,025919.000,3112.7160,N,12136.4319,E,1,07,1.6,37.3,M,,,,0000*29
$GNRMC,025919.000,A,3112.7160,N,12136.4319,E,1.43,0.00,220519,,*19
$GPGSA,A,3,07,08,09,16,27,,,,,,,,1.8,1.6,0.9*31
$BDGSA,A,3,07,10,,,,,,,,,,,1.8,1.6,0.9*22
$GPGSV,2,1,06,04,00,000,42,07,28,317,44,08,67,246,43,09,31,275,45*72
$GPGSV,2,2,06,16,43,049,42,27,69,023,49*72
$BDGSV,1,1,04,07,66,006,43,10,51,315,43,28,40,044,42,27,00,000,34*65
$LOGTIM,3,-1174.000475,-1322.579148,0.000000,0.000000,-64.958*13
EndT:        3
---00000058--- Acq_st=3 2019-5-22 02:59:19 
[00]  G04  f 42  -1051.2 2046001.4  1.0  1.0  5 3f 269976922
[01]  G07  f 44  -3508.7 2046004.6  1.0  1.0  5  0 269976922
[02]  G08  f 44  -1271.1 2046001.7  1.0  1.0  5  0 269976931
[03]  G09  f 44    126.7 2045999.8  1.0  1.0  5  0 269976924
[04]  G16  f 43   1216.1 2045998.4  1.0  1.0  5  0 269976927
[06]  G27  f 49   1031.7 2045998.7  1.0  1.0  5  0 269976932
[16]  B07 1f 43   -599.3 4092001.6  1.0  1.0  5  0 269962878
[17]  B10 1f 43   -659.3 4092001.7  1.0  1.0  5  0 269962875
[18]  B28 1f 42   1914.2 4091995.0  1.0  1.0  5  0 269962922
