FlashID=0x1 0x20 0x18
BBram_blkflag1: 375a: c8a5
FW Ver: 1.30  
GPS00 Init Dop:   5000, 40
GPS01 Init Dop:   5000, 40
GPS02 Init Dop:   5000, 40
GPS03 Init Dop:   5000, 40
GPS04 Init Dop:   5000, 40
GPS05 Init Dop:   5000, 40
GPS06 Init Dop:   5000, 40
GPS07 Init Dop:   5000, 40
GPS08 Init Dop:   5000, 40
GPS09 Init Dop:   5000, 40
GPS10 Init Dop:   5000, 40
GPS11 Init Dop:   5000, 40
GPS12 Init Dop:   5000, 40
GPS13 Init Dop:   5000, 40
GPS14 Init Dop:   5000, 40
GPS15 Init Dop:   5000, 40
GPS16 Init Dop:   5000, 40
GPS17 Init Dop:   5000, 40
GPS18 Init Dop:   5000, 40
GPS19 Init Dop:   5000, 40
GPS20 Init Dop:   5000, 40
GPS21 Init Dop:   5000, 40
GPS22 Init Dop:   5000, 40
GPS23 Init Dop:   5000, 40
GPS24 Init Dop:   5000, 40
GPS25 Init Dop:   5000, 40
GPS26 Init Dop:   5000, 40
GPS27 Init Dop:   5000, 40
GPS28 Init Dop:   5000, 40
GPS29 Init Dop:   5000, 40
GPS30 Init Dop:   5000, 40
GPS31 Init Dop:   5000, 40
BDS00 Init Dop:   5000, 40
BDS01 Init Dop:   5000, 40
BDS02 Init Dop:   5000, 40
BDS03 Init Dop:   5000, 40
BDS04 Init Dop:   5000, 40
BDS05 Init Dop:   5000, 40
BDS06 Init Dop:   5000, 40
BDS07 Init Dop:   5000, 40
BDS08 Init Dop:   5000, 40
BDS09 Init Dop:   5000, 40
BDS10 Init Dop:   5000, 40
BDS11 Init Dop:   5000, 40
BDS12 Init Dop:   5000, 40
BDS13 Init Dop:   5000, 40
BDS14 Init Dop:   5000, 40
BDS15 Init Dop:   5000, 40
BDS16 Init Dop:   5000, 40
BDS17 Init Dop:   5000, 40
BDS18 Init Dop:   5000, 40
BDS19 Init Dop:   5000, 40
BDS20 Init Dop:   5000, 40
BDS21 Init Dop:   5000, 40
BDS22 Init Dop:   5000, 40
BDS23 Init Dop:   5000, 40
BDS24 Init Dop:   5000, 40
BDS25 Init Dop:   5000, 40
BDS26 Init Dop:   5000, 40
BDS27 Init Dop:   5000, 40
BDS28 Init Dop:   5000, 40
BDS29 Init Dop:   5000, 40
BDS30 Init Dop:   5000, 40
BDS31 Init Dop:   5000, 40
good luck!
---00000001--- Acq_st=3 2019-5-22 03:00:47 
[00]  G04  1 20  -1009.7 2046003.5 -0.0  0.0  1  0         0
$GNGGA,000000.000,,,,,0,00,,,M,,,,0000*2B
$GNRMC,000000.000,A,,,,,,,000000,,*26
$GPGSA,A,1,,,,,,,,,,,,,,,*1E
$BDGSA,A,1,,,,,,,,,,,,,,,*0F
$LOGTIM,0,0.000000,0.000000,0.000000,0.000000,0.000*0A
EndT:        0
---00000002--- Acq_st=3 2019-5-22 03:00:48 
[00]  G04  7 30  -1001.7 2046001.4  0.3  0.0  5  0         8
[01]  G07  1 29  -3490.4 2046006.2 -0.0  0.0  1  0         0
[02]  G08  1 27  -1233.7 2046003.3  0.0  0.0  1  0         0
[03]  G09  1 20    186.4 2046001.4 -0.1  0.0  1  0         0
$GNGGA,000000.000,,,,,0,00,,,M,,,,0000*2B
$GNRMC,000000.000,A,,,,,,,000000,,*26
$GPGSA,A,1,,,,,,,,,,,,,,,*1E
$BDGSA,A,1,,,,,,,,,,,,,,,*0F
$GPGSV,1,1,01,04,00,000,30*4F
$LOGTIM,0,0.000000,0.000000,0.000000,0.000000,0.000*0A
EndT:        0
---00000003--- Acq_st=3 2019-5-22 03:00:49 
[00]  G04  7 41  -1000.2 2046001.2  1.0  1.0  5  0         2
[01]  G07  7 28  -3497.8 2046004.5  0.5  1.0 10  0        16
[02]  G08  7 25  -1226.5 2046001.5  0.3  0.0 20  0         5
[03]  G09  7 18    175.7 2045999.7  0.2  0.0 20  0        14
[04]  G16  1 15   1253.0 2046001.5  0.0  0.0  1  0         0
$GNGGA,000000.000,,,,,0,00,,,M,,,,0000*2B
$GNRMC,000000.000,A,,,,,,,000000,,*26
$GPGSA,A,1,,,,,,,,,,,,,,,*1E
$BDGSA,A,1,,,,,,,,,,,,,,,*0F
$GPGSV,1,1,04,04,00,000,41,07,00,000,28,08,00,000,25,09,00,000,18*7E
$LOGTIM,0,0.000000,0.000000,0.000000,0.000000,0.000*0A
EndT:        0
---00000004--- Acq_st=3 2019-5-22 03:00:50 
[00]  G04  7 44   -999.8 2046001.2  1.0  1.0  5  0         2
[01]  G07  7 45  -3498.0 2046004.5  1.0  1.0  5  0         2
[02]  G08  7 46  -1226.1 2046001.5  1.0  1.0  5  0        11
[03]  G09  7 45    176.2 2045999.7  1.0  1.0  5  0         4
[04]  G16  1 27   1222.9 2045998.2  0.1  0.0  1  0        18
$GNGGA,000000.000,,,,,0,00,,,M,,,,0000*2B
$GNRMC,000000.000,A,,,,,,,000000,,*26
$GPGSA,A,1,,,,,,,,,,,,,,,*1E
$BDGSA,A,1,,,,,,,,,,,,,,,*0F
$GPGSV,1,1,04,04,00,000,44,07,00,000,45,08,00,000,46,09,00,000,45*7D
$LOGTIM,0,0.000000,0.000000,0.000000,0.000000,0.000*0A
EndT:        1
---00000005--- Acq_st=3 2019-5-22 03:00:51 
[00]  G04  7 43  -1000.0 2046001.3  1.0  1.0  5  0         2
[01]  G07  7 46  -3498.5 2046004.5  1.0  1.0  5  0         2
[02]  G08  7 45  -1226.1 2046001.6  1.0  1.0  5  0        11
[03]  G09  7 46    176.1 2045999.7  1.0  1.0  5  0         4
[05]  G27  1 17   1051.7 2046001.3 -0.0  0.0  1  0         0
$GNGGA,000000.000,,,,,0,00,,,M,,,,0000*2B
$GNRMC,000000.000,A,,,,,,,000000,,*26
$GPGSA,A,1,,,,,,,,,,,,,,,*1E
$BDGSA,A,1,,,,,,,,,,,,,,,*0F
$GPGSV,1,1,04,04,00,000,43,07,00,000,46,08,00,000,45,09,00,000,46*79
$LOGTIM,0,0.000000,0.000000,0.000000,0.000000,0.000*0A
EndT:        0
---00000006--- Acq_st=3 2019-5-22 03:00:52 
[00]  G04  7 42  -1000.1 2046001.3  1.0  1.0  5  0         2
[01]  G07  7 46  -3498.8 2046004.5  1.0  1.0  5  0         2
[02]  G08  7 45  -1226.5 2046001.6  1.0  1.0  5  0        11
[03]  G09  7 46    175.8 2045999.8  1.0  1.0  5  0         4
[05]  G27  7  8   1071.9 2045998.5  0.2  0.0 20  0        19
$GNGGA,000000.000,,,,,0,00,,,M,,,,0000*2B
$GNRMC,000000.000,A,,,,,,,000000,,*26
$GPGSA,A,1,,,,,,,,,,,,,,,*1E
$BDGSA,A,1,,,,,,,,,,,,,,,*0F
$GPGSV,1,1,04,04,00,000,42,07,00,000,46,08,00,000,45,09,00,000,46*78
$LOGTIM,0,0.000000,0.000000,0.000000,0.000000,0.000*0A
EndT:        1
---00000007--- Acq_st=3 2019-5-22 03:00:53 
[00]  G04  7 42   -997.0 2046001.3  1.0  1.0  5  0         2
[01]  G07  7 46  -3496.3 2046004.5  1.0  1.0  5  0         2
[02]  G08  7 46  -1223.4 2046001.6  1.0  1.0  5  0        11
[03]  G09  7 46    179.0 2045999.7  1.0  1.0  5  0         4
[05]  G27  7 46   1075.0 2045998.5  0.9  1.0  5  0        11
$GNGGA,000000.000,,,,,0,00,,,M,,,,0000*2B
$GNRMC,000000.000,A,,,,,,,000000,,*26
$GPGSA,A,1,,,,,,,,,,,,,,,*1E
$BDGSA,A,1,,,,,,,,,,,,,,,*0F
$GPGSV,2,1,05,04,00,000,42,07,00,000,46,08,00,000,46,09,00,000,46*79
$GPGSV,2,2,05,27,00,000,46*4B
$LOGTIM,0,0.000000,0.000000,0.000000,0.000000,0.000*0A
EndT:        0
---00000008--- Acq_st=3 2019-5-22 03:00:54 
[00]  G04  7 43   -996.9 2046001.3  1.0  1.0  5  0         2
[01]  G07  7 45  -3496.7 2046004.5  1.0  1.0  5  0         2
[02]  G08  7 45  -1223.2 2046001.6  1.0  1.0  5  0        11
[03]  G09  7 46    179.2 2045999.7  1.0  1.0  5  0         4
[05]  G27  7 46   1075.1 2045998.6  1.0  1.0  5  0        11
[16]  B07  1  7   6131.5 4092001.5 -0.0  0.0  1  0         0
$GNGGA,000000.000,,,,,0,00,,,M,,,,0000*2B
$GNRMC,000000.000,A,,,,,,,000000,,*26
$GPGSA,A,1,,,,,,,,,,,,,,,*1E
$BDGSA,A,1,,,,,,,,,,,,,,,*0F
$GPGSV,2,1,05,04,00,000,43,07,00,000,45,08,00,000,45,09,00,000,46*78
$GPGSV,2,2,05,27,00,000,46*4B
$LOGTIM,0,0.000000,0.000000,0.000000,0.000000,0.000*0A
EndT:        0
---00000009--- Acq_st=3 2019-5-22 03:00:55 
[00]  G04  f 43   -998.9 2046001.3  1.0  1.0  5  0         2
[01]  G07  f 46  -3499.1 2046004.5  1.0  1.0  5  0         2
[02]  G08  f 46  -1225.3 2046001.6  1.0  1.0  5  0        11
[03]  G09  f 46    176.9 2045999.8  1.0  1.0  5  0         4
[05]  G27  f 46   1072.9 2045998.5  1.0  1.0  5  0        11
[16]  B07  1  7   -607.9 4092001.8  0.2  0.0  1  0        34
$GNGGA,000000.000,,,,,0,00,,,M,,,,0000*2B
$GNRMC,000000.000,A,,,,,,,000000,,*26
$GPGSA,A,1,,,,,,,,,,,,,,,*1E
$BDGSA,A,1,,,,,,,,,,,,,,,*0F
$GPGSV,2,1,05,04,00,000,43,07,00,000,46,08,00,000,46,09,00,000,46*78
$GPGSV,2,2,05,27,00,000,46*4B
$LOGTIM,0,0.000000,0.000000,0.000000,0.000000,0.000*0A
EndT:        0
---00000010--- Acq_st=3 2019-5-22 03:00:56 
[00]  G04  f 43   -998.2 2046001.3  1.0  1.0  5  0 270073442
[01]  G07  f 45  -3499.2 2046004.5  1.0  1.0  5  0 270073442
[02]  G08  f 46  -1224.9 2046001.6  1.0  1.0  5  0 270073451
[03]  G09  f 46    177.7 2045999.8  1.0  1.0  5  0 270073444
[05]  G27  f 47   1073.2 2045998.6  1.0  1.0  5  0 270073451
[16]  B07  7 32   -608.0 4092001.6  0.6  1.0  5  0      1034
[17]  B10  1  7   -669.3 4092002.1  0.1  0.0  1  0         0
$GNGGA,000000.000,,,,,0,00,,,M,,,,0000*2B
$GNRMC,000000.000,A,,,,,,,000000,,*26
$GPGSA,A,1,,,,,,,,,,,,,,,*1E
$BDGSA,A,1,,,,,,,,,,,,,,,*0F
$GPGSV,2,1,05,04,00,000,43,07,00,000,45,08,00,000,46,09,00,000,46*7B
$GPGSV,2,2,05,27,00,000,47*4A
$BDGSV,1,1,01,07,00,000,32*5F
$LOGTIM,0,0.000000,0.000000,0.000000,0.000000,0.000*0A
EndT:        0
---00000011--- Acq_st=3 2019-5-22 03:00:57 
[00]  G04  f 43   -998.7 2046001.3  1.0  1.0  5  0 270074442
[01]  G07  f 46  -3499.9 2046004.5  1.0  1.0  5  0 270074442
[02]  G08  f 46  -1225.2 2046001.6  1.0  1.0  5  0 270074451
[03]  G09  f 46    177.4 2045999.8  1.0  1.0  5  0 270074444
[05]  G27  f 48   1072.9 2045998.6  1.0  1.0  5  0 270074451
[16]  B07 1f 42   -608.9 4092001.6  1.0  1.0  5  0      2018
[17]  B10  7 31   -670.4 4092001.8  0.7  1.0  5  0       967
$GNGGA,000000.000,,,,,0,00,,,M,,,,0000*2B
$GNRMC,000000.000,A,,,,,,,000000,,*26
$GPGSA,A,1,,,,,,,,,,,,,,,*1E
$BDGSA,A,1,,,,,,,,,,,,,,,*0F
$GPGSV,2,1,05,04,00,000,43,07,00,000,46,08,00,000,46,09,00,000,46*78
$GPGSV,2,2,05,27,00,000,48*45
$BDGSV,1,1,02,07,00,000,42,10,00,000,31*68
$LOGTIM,0,0.000000,0.000000,0.000000,0.000000,0.000*0A
EndT:        0
---00000012--- Acq_st=3 2019-5-22 03:00:58 
[00]  G04  f 43   -997.9 2046001.3  1.0  1.0  5  0 270075442
[01]  G07  f 45  -3499.2 2046004.5  1.0  1.0  5  0 270075442
[02]  G08  f 46  -1224.6 2046001.6  1.0  1.0  5  0 270075451
[03]  G09  f 47    178.1 2045999.8  1.0  1.0  5  0 270075444
[05]  G27  f 47   1073.8 2045998.6  1.0  1.0  5  0 270075451
[16]  B07 1f 42   -608.8 4092001.6  1.0  1.0  5  0 270061398
[17]  B10  7 44   -670.3 4092001.8  1.0  1.0  5  0      1954
$GNGGA,000000.000,,,,,0,00,,,M,,,,0000*2B
$GNRMC,000000.000,A,,,,,,,000000,,*26
$GPGSA,A,1,,,,,,,,,,,,,,,*1E
$BDGSA,A,1,,,,,,,,,,,,,,,*0F
$GPGSV,2,1,05,04,00,000,43,07,00,000,45,08,00,000,46,09,00,000,47*7A
$GPGSV,2,2,05,27,00,000,47*4A
$BDGSV,1,1,02,07,00,000,42,10,00,000,44*6A
$LOGTIM,0,0.000000,0.000000,0.000000,0.000000,0.000*0A
EndT:        0
---00000013--- Acq_st=3 2019-5-22 03:00:59 
[00]  G04  f 43   -998.0 2046001.3  1.0  1.0  5  0 270076442
[01]  G07  f 46  -3499.7 2046004.5  1.0  1.0  5  0 270076442
[02]  G08  f 47  -1224.7 2046001.6  1.0  1.0  5  0 270076451
[03]  G09  f 47    178.0 2045999.8  1.0  1.0  5  0 270076444
[05]  G27  f 48   1073.4 2045998.6  1.0  1.0  5  0 270076451
[16]  B07 1f 42   -609.3 4092001.6  1.0  1.0  5  0 270062398
[17]  B10  7 44   -670.8 4092001.7  1.0  1.0  5  0      2954
$GNGGA,000000.000,,,,,0,00,,,M,,,,0000*2B
$GNRMC,000000.000,A,,,,,,,000000,,*26
$GPGSA,A,1,,,,,,,,,,,,,,,*1E
$BDGSA,A,1,,,,,,,,,,,,,,,*0F
$GPGSV,2,1,05,04,00,000,43,07,00,000,46,08,00,000,47,09,00,000,47*78
$GPGSV,2,2,05,27,00,000,48*45
$BDGSV,1,1,02,07,00,000,42,10,00,000,44*6A
$LOGTIM,0,0.000000,0.000000,0.000000,0.000000,0.000*0A
EndT:        0
---00000014--- Acq_st=3 2019-5-22 03:01:0 
[00]  G04  f 42   -998.0 2046001.3  1.0  1.0  5  0 270077442
[01]  G07  f 46  -3500.5 2046004.6  1.0  1.0  5  0 270077442
[02]  G08  f 47  -1224.9 2046001.6  1.0  1.0  5  0 270077451
[03]  G09  f 46    177.7 2045999.8  1.0  1.0  5  0 270077444
[05]  G27  f 48   1073.0 2045998.6  1.0  1.0  5  0 270077451
[16]  B07 1f 42   -610.1 4092001.6  1.0  1.0  5  0 270063398
[17]  B10  7 44   -671.5 4092001.8  1.0  1.0  5  0      3954
$GNGGA,000000.000,,,,,0,00,,,M,,,,0000*2B
$GNRMC,000000.000,A,,,,,,,000000,,*26
$GPGSA,A,1,,,,,,,,,,,,,,,*1E
$BDGSA,A,1,,,,,,,,,,,,,,,*0F
$GPGSV,2,1,05,04,00,000,42,07,00,000,46,08,00,000,47,09,00,000,46*78
$GPGSV,2,2,05,27,00,000,48*45
$BDGSV,1,1,02,07,00,000,42,10,00,000,44*6A
$LOGTIM,0,0.000000,0.000000,0.000000,0.000000,0.000*0A
EndT:        0
---00000015--- Acq_st=3 2019-5-22 03:01:1 
[00]  G04  f 42   -997.4 2046001.3  1.0  1.0  5  0 270078442
[01]  G07  f 46  -3500.4 2046004.6  1.0  1.0  5  0 270078442
[02]  G08  f 47  -1224.3 2046001.6  1.0  1.0  5  0 270078451
[03]  G09  f 46    178.3 2045999.8  1.0  1.0  5  0 270078444
[05]  G27  f 48   1073.5 2045998.6  1.0  1.0  5  0 270078451
[16]  B07 1f 42   -610.3 4092001.6  1.0  1.0  5  0 270064398
[17]  B10  7 44   -671.3 4092001.8  1.0  1.0  5  0      4954
$GNGGA,000000.000,,,,,0,00,,,M,,,,0000*2B
$GNRMC,000000.000,A,,,,,,,000000,,*26
$GPGSA,A,1,,,,,,,,,,,,,,,*1E
$BDGSA,A,1,,,,,,,,,,,,,,,*0F
$GPGSV,2,1,05,04,00,000,42,07,00,000,46,08,00,000,47,09,00,000,46*78
$GPGSV,2,2,05,27,00,000,48*45
$BDGSV,1,1,02,07,00,000,42,10,00,000,44*6A
$LOGTIM,0,0.000000,0.000000,0.000000,0.000000,0.000*0A
EndT:        0
---00000016--- Acq_st=3 2019-5-22 03:01:2 
[00]  G04  f 43   -993.3 2046001.3  1.0  1.0  5  0 270079442
[01]  G07  f 46  -3496.7 2046004.5  1.0  1.0  5  0 270079442
[02]  G08  f 47  -1220.3 2046001.6  1.0  1.0  5  0 270079451
[03]  G09  f 46    182.6 2045999.8  1.0  1.0  5  0 270079444
[05]  G27  f 48   1077.5 2045998.6  1.0  1.0  5  0 270079451
[16]  B07 1f 42   -607.0 4092001.6  1.0  1.1  5  0 270065398
[17]  B10  7 44   -668.6 4092001.8  1.0  1.0  5  0      5954
[18]  B28  1  7   1943.0 4091995.5 -0.1  0.0  1  0         0
$GNGGA,000000.000,,,,,0,00,,,M,,,,0000*2B
$GNRMC,000000.000,A,,,,,,,000000,,*26
$GPGSA,A,1,,,,,,,,,,,,,,,*1E
$BDGSA,A,1,,,,,,,,,,,,,,,*0F
$GPGSV,2,1,05,04,00,000,43,07,00,000,46,08,00,000,47,09,00,000,46*79
$GPGSV,2,2,05,27,00,000,48*45
$BDGSV,1,1,02,07,00,000,42,10,00,000,44*6A
$LOGTIM,0,0.000000,0.000000,0.000000,0.000000,0.000*0A
EndT:        0
---00000017--- Acq_st=7 2019-5-22 03:01:3 
[00]  G04  f 43   -990.7 2046001.3  1.0  1.0  5  0 270080442
[01]  G07  f 46  -3494.7 2046004.5  1.0  1.0  5  0 270080442
[02]  G08  f 46  -1218.0 2046001.6  1.0  1.0  5  0 270080451
[03]  G09  f 46    184.8 2045999.8  1.0  1.0  5  0 270080444
[05]  G27  f 48   1079.8 2045998.6  1.0  1.0  5  0 270080451
[16]  B07 1f 42   -605.5 4092001.6  1.0  1.0  5  0 270066398
[17]  B10 1f 44   -666.4 4092001.7  1.0  1.0  5  0      6954
[18]  B28  7 23   1946.0 4091994.8  0.4  0.0 20  0       566
$GNGGA,000000.000,,,,,0,00,,,M,,,,0000*2B
$GNRMC,000000.000,A,,,,,,,000000,,*26
$GPGSA,A,1,,,,,,,,,,,,,,,*1E
$BDGSA,A,1,,,,,,,,,,,,,,,*0F
$GPGSV,2,1,05,04,00,000,43,07,00,000,46,08,00,000,46,09,00,000,46*78
$GPGSV,2,2,05,27,00,000,48*45
$BDGSV,1,1,03,07,00,000,42,10,00,000,44,28,00,000,23*50
$LOGTIM,0,0.000000,0.000000,0.000000,0.000000,0.000*0A
EndT:        0
---00000018--- Acq_st=7 2019-5-22 03:01:4 
[00]  G04  f 42   -990.8 2046001.3  1.0  1.0  5  0 270081442
[01]  G07  f 46  -3495.1 2046004.5  1.0  1.0  5  0 270081442
[02]  G08  f 46  -1218.2 2046001.6  1.0  1.0  5  0 270081451
[03]  G09  f 46    184.6 2045999.8  1.0  1.0  5  0 270081444
[05]  G27  f 48   1079.6 2045998.6  1.0  1.0  5  0 270081451
[16]  B07 1f 42   -605.9 4092001.6  1.0  1.0  5  0 270067398
[17]  B10 1f 44   -667.2 4092001.8  1.0  1.0  5  0 270067394
[18]  B28  7 43   1945.6 4091994.8  1.0  1.0  5  0      1561
$GNGGA,000000.000,,,,,0,00,,,M,,,,0000*2B
$GNRMC,000000.000,A,,,,,,,000000,,*26
$GPGSA,A,1,,,,,,,,,,,,,,,*1E
$BDGSA,A,1,,,,,,,,,,,,,,,*0F
$GPGSV,2,1,05,04,00,000,42,07,00,000,46,08,00,000,46,09,00,000,46*79
$GPGSV,2,2,05,27,00,000,48*45
$BDGSV,1,1,03,07,00,000,42,10,00,000,44,28,00,000,43*56
$LOGTIM,0,0.000000,0.000000,0.000000,0.000000,0.000*0A
EndT:        0
---00000019--- Acq_st=7 2019-5-22 03:01:5 
[00]  G04  f 43   -992.7 2046001.3  1.0  1.0  5  0 270082442
[01]  G07  f 46  -3497.4 2046004.5  1.0  1.0  5  0 270082442
[02]  G08  f 46  -1219.8 2046001.6  1.0  1.0  5  0 270082451
[03]  G09  f 46    182.9 2045999.7  1.0  1.0  5  0 270082444
[05]  G27  f 48   1077.8 2045998.6  1.0  1.0  5  0 270082451
[16]  B07 1f 41   -607.9 4092001.6  1.0  1.0  5  0 270068398
[17]  B10 1f 44   -670.0 4092001.7  1.0  1.0  5  0 270068394
[18]  B28  7 43   1943.4 4091994.9  1.0  1.0  5  0      2561
$GNGGA,000000.000,,,,,0,00,,,M,,,,0000*2B
$GNRMC,000000.000,A,,,,,,,000000,,*26
$GPGSA,A,1,,,,,,,,,,,,,,,*1E
$BDGSA,A,1,,,,,,,,,,,,,,,*0F
$GPGSV,2,1,05,04,00,000,43,07,00,000,46,08,00,000,46,09,00,000,46*78
$GPGSV,2,2,05,27,00,000,48*45
$BDGSV,1,1,03,07,00,000,41,10,00,000,44,28,00,000,43*55
$LOGTIM,0,0.000000,0.000000,0.000000,0.000000,0.000*0A
EndT:        0
---00000020--- Acq_st=3 2019-5-22 03:01:6 
[00]  G04  f 43   -994.1 2046001.3  1.0  1.0  5  0 270083442
[01]  G07  f 45  -3499.0 2046004.6  1.0  1.0  5  0 270083442
[02]  G08  f 46  -1221.2 2046001.6  1.0  1.0  5  0 270083451
[03]  G09  f 45    181.3 2045999.8  1.0  1.0  5  0 270083444
[05]  G27  f 48   1076.3 2045998.6  1.0  1.0  5  0 270083451
[16]  B07 1f 42   -610.2 4092001.6  1.0  1.0  5  0 270069398
[17]  B10 1f 44   -671.6 4092001.8  1.0  1.0  5  0 270069394
[18]  B28  7 42   1942.3 4091994.9  1.0  1.0  5  0      3561
$GNGGA,000000.000,,,,,0,00,,,M,,,,0000*2B
$GNRMC,000000.000,A,,,,,,,000000,,*26
$GPGSA,A,1,,,,,,,,,,,,,,,*1E
$BDGSA,A,1,,,,,,,,,,,,,,,*0F
$GPGSV,2,1,05,04,00,000,43,07,00,000,45,08,00,000,46,09,00,000,45*78
$GPGSV,2,2,05,27,00,000,48*45
$BDGSV,1,1,03,07,00,000,42,10,00,000,44,28,00,000,42*57
$LOGTIM,0,0.000000,0.000000,0.000000,0.000000,0.000*0A
EndT:        0
---00000021--- Acq_st=3 2019-5-22 03:01:7 
[00]  G04  f 42   -993.2 2046001.3  1.0  1.0  5  0 270084442
[01]  G07  f 45  -3498.7 2046004.5  1.0  1.0  5  0 270084442
[02]  G08  f 47  -1220.5 2046001.6  1.0  1.0  5  0 270084451
[03]  G09  f 46    182.5 2045999.8  1.0  1.0  5  0 270084444
[05]  G27  f 48   1077.1 2045998.6  1.0  1.0  5  0 270084451
[16]  B07 1f 42   -610.0 4092001.6  1.0  1.0  5  0 270070398
[17]  B10 1f 43   -671.2 4092001.8  1.0  1.0  5  0 270070394
[18]  B28  7 43   1942.9 4091994.9  1.0  1.0  5  0      4561
$GNGGA,000000.000,,,,,0,00,,,M,,,,0000*2B
$GNRMC,000000.000,A,,,,,,,000000,,*26
$GPGSA,A,1,,,,,,,,,,,,,,,*1E
$BDGSA,A,1,,,,,,,,,,,,,,,*0F
$GPGSV,2,1,05,04,00,000,42,07,00,000,45,08,00,000,47,09,00,000,46*7B
$GPGSV,2,2,05,27,00,000,48*45
$BDGSV,1,1,03,07,00,000,42,10,00,000,43,28,00,000,43*51
$LOGTIM,0,0.000000,0.000000,0.000000,0.000000,0.000*0A
EndT:        0
---00000022--- Acq_st=3 2019-5-22 03:01:8 
[00]  G04  f 42   -988.5 2046001.3  1.0  1.0  5  0 270085442
[01]  G07  f 45  -3494.8 2046004.5  1.0  1.0  5  0 270085442
[02]  G08  f 47  -1216.2 2046001.6  1.0  1.0  5  0 270085451
[03]  G09  f 46    186.9 2045999.8  1.0  1.0  5  0 270085444
[05]  G27  f 48   1081.4 2045998.6  1.0  1.0  5  0 270085451
[16]  B07 1f 42   -606.1 4092001.6  1.0  1.0  5  0 270071398
[17]  B10 1f 43   -667.8 4092001.7  1.0  1.0  5  0 270071394
[18]  B28  7 43   1946.8 4091994.9  1.0  1.0  5  0      5561
$GNGGA,000000.000,,,,,0,00,,,M,,,,0000*2B
$GNRMC,000000.000,A,,,,,,,000000,,*26
$GPGSA,A,1,,,,,,,,,,,,,,,*1E
$BDGSA,A,1,,,,,,,,,,,,,,,*0F
$GPGSV,2,1,05,04,00,000,42,07,00,000,45,08,00,000,47,09,00,000,46*7B
$GPGSV,2,2,05,27,00,000,48*45
$BDGSV,1,1,03,07,00,000,42,10,00,000,43,28,00,000,43*51
$LOGTIM,0,0.000000,0.000000,0.000000,0.000000,0.000*0A
EndT:        0
---00000023--- Acq_st=3 2019-5-22 03:01:9 
[00]  G04  f 43   -985.5 2046001.3  1.0  1.0  5  0 270086442
[01]  G07  f 46  -3492.2 2046004.5  1.0  1.0  5  0 270086442
[02]  G08  f 47  -1213.0 2046001.6  1.0  1.0  5  0 270086451
[03]  G09  f 47    189.9 2045999.8  1.0  1.0  5  0 270086444
[05]  G27  f 48   1084.2 2045998.6  1.0  1.0  5  0 270086451
[16]  B07 1f 42   -604.1 4092001.6  1.0  1.0  5  0 270072398
[17]  B10 1f 44   -665.1 4092001.7  1.0  1.0  5  0 270072394
[18]  B28 1f 43   1949.5 4091994.9  1.0  1.0  5  0      6561
$GNGGA,000000.000,,,,,0,00,,,M,,,,0000*2B
$GNRMC,000000.000,A,,,,,,,000000,,*26
$GPGSA,A,1,,,,,,,,,,,,,,,*1E
$BDGSA,A,1,,,,,,,,,,,,,,,*0F
$GPGSV,2,1,05,04,00,000,43,07,00,000,46,08,00,000,47,09,00,000,47*78
$GPGSV,2,2,05,27,00,000,48*45
$BDGSV,1,1,03,07,00,000,42,10,00,000,44,28,00,000,43*56
$LOGTIM,0,0.000000,0.000000,0.000000,0.000000,0.000*0A
EndT:        0
---00000024--- Acq_st=3 2019-5-22 03:01:10 
[00]  G04  f 42   -986.2 2046001.3  1.0  1.0  5  0 270087442
[01]  G07  f 45  -3493.2 2046004.5  1.0  1.0  5  0 270087442
[02]  G08  f 47  -1213.6 2046001.6  1.0  1.0  5  0 270087451
[03]  G09  f 46    189.3 2045999.8  1.0  1.0  5  0 270087444
[05]  G27  f 49   1083.7 2045998.6  1.0  1.0  5  0 270087451
[16]  B07 1f 41   -605.1 4092001.6  1.0  1.0  5  0 270073398
[17]  B10 1f 44   -666.1 4092001.7  1.0  1.0  5  0 270073394
[18]  B28 1f 43   1949.1 4091994.8  1.0  1.0  5  0 270073441
$GNGGA,000000.000,,,,,0,00,,,M,,,,0000*2B
$GNRMC,000000.000,A,,,,,,,000000,,*26
$GPGSA,A,1,,,,,,,,,,,,,,,*1E
$BDGSA,A,1,,,,,,,,,,,,,,,*0F
$GPGSV,2,1,05,04,00,000,42,07,00,000,45,08,00,000,47,09,00,000,46*7B
$GPGSV,2,2,05,27,00,000,49*44
$BDGSV,1,1,03,07,00,000,41,10,00,000,44,28,00,000,43*55
$LOGTIM,0,0.000000,0.000000,0.000000,0.000000,0.000*0A
EndT:        0
---00000025--- Acq_st=3 2019-5-22 03:01:11 
[00]  G04  f 42   -985.7 2046001.3  1.0  1.0  5  0 270088442
[01]  G07  f 45  -3492.9 2046004.5  1.0  1.0  5  0 270088442
[02]  G08  f 47  -1213.1 2046001.6  1.0  1.0  5  0 270088451
[03]  G09  f 46    190.1 2045999.7  1.0  1.0  5  0 270088444
[05]  G27  f 49   1084.2 2045998.6  1.0  1.0  5  0 270088451
[16]  B07 1f 42   -604.9 4092001.6  1.0  1.0  5  0 270074398
[17]  B10 1f 44   -666.2 4092001.7  1.0  1.0  5  0 270074394
[18]  B28 1f 44   1949.2 4091994.9  1.0  1.0  5  0 270074441
$GNGGA,000000.000,,,,,0,00,,,M,,,,0000*2B
$GNRMC,000000.000,A,,,,,,,000000,,*26
$GPGSA,A,1,,,,,,,,,,,,,,,*1E
$BDGSA,A,1,,,,,,,,,,,,,,,*0F
$GPGSV,2,1,05,04,00,000,42,07,00,000,45,08,00,000,47,09,00,000,46*7B
$GPGSV,2,2,05,27,00,000,49*44
$BDGSV,1,1,03,07,00,000,42,10,00,000,44,28,00,000,44*51
$LOGTIM,0,0.000000,0.000000,0.000000,0.000000,0.000*0A
EndT:        0
---00000026--- Acq_st=3 2019-5-22 03:01:12 
[00]  G04  f 42   -984.7 2046001.3  1.0  1.0  5  0 270089442
[01]  G07  f 45  -3492.5 2046004.5  1.0  1.0  5  0 270089442
[02]  G08  f 47  -1212.2 2046001.6  1.0  1.0  5  0 270089451
[03]  G09  f 46    190.7 2045999.7  1.0  1.0  5  0 270089444
[05]  G27  f 49   1084.9 2045998.6  1.0  1.0  5  0 270089451
[16]  B07 1f 41   -604.6 4092001.6  1.0  1.0  5  0 270075398
[17]  B10 1f 44   -666.0 4092001.7  1.0  1.0  5  0 270075394
[18]  B28 1f 44   1949.6 4091994.9  1.0  1.0  5  0 270075441
$GNGGA,000000.000,,,,,0,00,,,M,,,,0000*2B
$GNRMC,000000.000,A,,,,,,,000000,,*26
$GPGSA,A,1,,,,,,,,,,,,,,,*1E
$BDGSA,A,1,,,,,,,,,,,,,,,*0F
$GPGSV,2,1,05,04,00,000,42,07,00,000,45,08,00,000,47,09,00,000,46*7B
$GPGSV,2,2,05,27,00,000,49*44
$BDGSV,1,1,03,07,00,000,41,10,00,000,44,28,00,000,44*52
$LOGTIM,0,0.000000,0.000000,0.000000,0.000000,0.000*0A
EndT:        0
---00000027--- Acq_st=3 2019-5-22 03:01:13 
[00]  G04  f 42   -986.4 2046001.3  1.0  1.0  5  0 270090442
[01]  G07  f 45  -3494.7 2046004.5  1.0  1.0  5  0 270090442
[02]  G08  f 47  -1213.9 2046001.6  1.0  1.0  5  0 270090451
[03]  G09  f 46    189.2 2045999.7  1.0  1.0  5  0 270090444
[05]  G27  f 48   1083.0 2045998.6  1.0  1.0  5  0 270090451
[16]  B07 1f 42   -606.9 4092001.6  1.0  1.0  5  0 270076398
[17]  B10 1f 43   -668.9 4092001.7  1.0  1.0  5  0 270076394
[18]  B28 1f 44   1947.7 4091994.9  1.0  1.0  5  0 270076441
$GNGGA,000000.000,,,,,0,00,,,M,,,,0000*2B
$GNRMC,000000.000,A,,,,,,,000000,,*26
$GPGSA,A,1,,,,,,,,,,,,,,,*1E
$BDGSA,A,1,,,,,,,,,,,,,,,*0F
$GPGSV,2,1,05,04,00,000,42,07,00,000,45,08,00,000,47,09,00,000,46*7B
$GPGSV,2,2,05,27,00,000,48*45
$BDGSV,1,1,03,07,00,000,42,10,00,000,43,28,00,000,44*56
$LOGTIM,0,0.000000,0.000000,0.000000,0.000000,0.000*0A
EndT:        0
---00000028--- Acq_st=3 2019-5-22 03:01:14 
[00]  G04  f 43   -984.9 2046001.3  1.0  1.0  5  0 270091442
[01]  G07  f 46  -3493.8 2046004.5  1.0  1.0  5  0 270091442
[02]  G08  f 47  -1212.7 2046001.6  1.0  1.0  5  0 270091451
[03]  G09  f 46    190.5 2045999.8  1.0  1.0  5  0 270091444
[05]  G27  f 49   1084.2 2045998.6  1.0  1.0  5  0 270091451
[16]  B07 1f 42   -606.1 4092001.6  1.0  1.0  5  0 270077398
[17]  B10 1f 44   -667.7 4092001.7  1.0  1.0  5  0 270077394
[18]  B28 1f 44   1948.7 4091994.9  1.0  1.0  5  0 270077441
$GNGGA,000000.000,,,,,0,00,,,M,,,,0000*2B
$GNRMC,000000.000,A,,,,,,,000000,,*26
$GPGSA,A,1,,,,,,,,,,,,,,,*1E
$BDGSA,A,1,,,,,,,,,,,,,,,*0F
$GPGSV,2,1,05,04,00,000,43,07,00,000,46,08,00,000,47,09,00,000,46*79
$GPGSV,2,2,05,27,00,000,49*44
$BDGSV,1,1,03,07,00,000,42,10,00,000,44,28,00,000,44*51
$LOGTIM,0,0.000000,0.000000,0.000000,0.000000,0.000*0A
EndT:        0
---00000029--- Acq_st=3 2019-5-22 03:01:15 
[00]  G04  f 42   -985.2 2046001.3  1.0  1.0  5  0 270092442
[01]  G07  f 46  -3494.6 2046004.5  1.0  1.0  5  0 270092442
[02]  G08  f 47  -1213.1 2046001.6  1.0  1.0  5  0 270092451
[03]  G09  f 46    190.1 2045999.7  1.0  1.0  5  0 270092444
[05]  G27  f 48   1083.9 2045998.6  1.0  1.0  5  0 270092451
[16]  B07 1f 42   -607.1 4092001.6  1.0  1.0  5  0 270078398
[17]  B10 1f 44   -668.6 4092001.7  1.0  1.0  5  0 270078394
[18]  B28 1f 44   1948.4 4091994.9  1.0  1.0  5  0 270078441
$GNGGA,000000.000,,,,,0,00,,,M,,,,0000*2B
$GNRMC,000000.000,A,,,,,,,000000,,*26
$GPGSA,A,1,,,,,,,,,,,,,,,*1E
$BDGSA,A,1,,,,,,,,,,,,,,,*0F
$GPGSV,2,1,05,04,00,000,42,07,00,000,46,08,00,000,47,09,00,000,46*78
$GPGSV,2,2,05,27,00,000,48*45
$BDGSV,1,1,03,07,00,000,42,10,00,000,44,28,00,000,44*51
$LOGTIM,0,0.000000,0.000000,0.000000,0.000000,0.000*0A
EndT:        0
---00000030--- Acq_st=3 2019-5-22 03:01:16 
[00]  G04  f 42   -987.5 2046001.3  1.0  1.0  5  0 270093442
[01]  G07  f 45  -3497.4 2046004.6  1.0  1.0  5  0 270093442
[02]  G08  f 47  -1215.4 2046001.6  1.0  1.0  5  0 270093451
[03]  G09  f 46    188.1 2045999.8  1.0  1.0  5  0 270093444
[05]  G27  f 48   1081.5 2045998.6  1.0  1.0  5  0 270093451
[16]  B07 1f 42   -609.6 4092001.6  1.0  1.0  5  0 270079398
[17]  B10 1f 44   -671.3 4092001.8  1.0  1.0  5  0 270079394
[18]  B28 1f 45   1945.8 4091994.9  1.0  1.0  5  0 270079441
$GNGGA,000000.000,,,,,0,00,,,M,,,,0000*2B
$GNRMC,000000.000,A,,,,,,,000000,,*26
$GPGSA,A,1,,,,,,,,,,,,,,,*1E
$BDGSA,A,1,,,,,,,,,,,,,,,*0F
$GPGSV,2,1,05,04,00,000,42,07,00,000,45,08,00,000,47,09,00,000,46*7B
$GPGSV,2,2,05,27,00,000,48*45
$BDGSV,1,1,03,07,00,000,42,10,00,000,44,28,00,000,45*50
$LOGTIM,0,0.000000,0.000000,0.000000,0.000000,0.000*0A
EndT:        0
---00000031--- Acq_st=3 2019-5-22 03:01:17 
[00]  G04  f 42   -988.1 2046001.3  1.0  1.0  5  0 270094442
[01]  G07  f 46  -3498.1 2046004.6  1.0  1.0  5  0 270094442
[02]  G08  f 47  -1216.1 2046001.6  1.0  1.0  5  0 270094451
[03]  G09  f 46    187.6 2045999.8  1.0  1.0  5  0 270094444
[05]  G27  f 48   1080.7 2045998.6  1.0  1.0  5  0 270094451
[16]  B07 1f 42   -611.1 4092001.6  1.0  1.0  5  0 270080398
[17]  B10 1f 44   -672.7 4092001.8  1.0  1.0  5  0 270080394
[18]  B28 1f 45   1944.9 4091994.9  1.0  1.0  5  0 270080441
$GNGGA,000000.000,,,,,0,00,,,M,,,,0000*2B
$GNRMC,000000.000,A,,,,,,,000000,,*26
$GPGSA,A,1,,,,,,,,,,,,,,,*1E
$BDGSA,A,1,,,,,,,,,,,,,,,*0F
$GPGSV,2,1,05,04,00,000,42,07,00,000,46,08,00,000,47,09,00,000,46*78
$GPGSV,2,2,05,27,00,000,48*45
$BDGSV,1,1,03,07,00,000,42,10,00,000,44,28,00,000,45*50
$LOGTIM,0,0.000000,0.000000,0.000000,0.000000,0.000*0A
EndT:        0
---00000032--- Acq_st=3 2019-5-22 03:01:18 
[00]  G04  f 42   -987.1 2046001.3  1.0  1.0  5  0 270095442
[01]  G07  f 45  -3497.4 2046004.5  1.0  1.0  5  0 270095442
[02]  G08  f 47  -1215.1 2046001.6  1.0  1.0  5  0 270095451
[03]  G09  f 46    188.3 2045999.8  1.0  1.0  5  0 270095444
[05]  G27  f 49   1081.9 2045998.6  1.0  1.0  5  0 270095451
[16]  B07 1f 42   -611.2 4092001.6  1.0  1.0  5  0 270081398
[17]  B10 1f 44   -672.5 4092001.7  1.0  1.0  5  0 270081394
[18]  B28 1f 45   1945.6 4091994.9  1.0  1.0  5  0 270081441
$GNGGA,000000.000,,,,,0,00,,,M,,,,0000*2B
$GNRMC,000000.000,A,,,,,,,000000,,*26
$GPGSA,A,1,,,,,,,,,,,,,,,*1E
$BDGSA,A,1,,,,,,,,,,,,,,,*0F
$GPGSV,2,1,05,04,00,000,42,07,00,000,45,08,00,000,47,09,00,000,46*7B
$GPGSV,2,2,05,27,00,000,49*44
$BDGSV,1,1,03,07,00,000,42,10,00,000,44,28,00,000,45*50
$LOGTIM,0,0.000000,0.000000,0.000000,0.000000,0.000*0A
EndT:        0
---00000033--- Acq_st=3 2019-5-22 03:01:19 
[00]  G04  f 42   -987.0 2046001.3  1.0  1.0  5  0 270096442
[01]  G07  f 45  -3497.6 2046004.5  1.0  1.0  5  0 270096442
[02]  G08  f 47  -1214.8 2046001.6  1.0  1.0  5  0 270096451
[03]  G09  f 46    188.3 2045999.7  1.0  1.0  5  0 270096444
[05]  G27  f 48   1081.8 2045998.6  1.0  1.0  5  0 270096451
[16]  B07 1f 42   -611.3 4092001.6  1.0  1.0  5  0 270082398
[17]  B10 1f 44   -672.8 4092001.7  1.0  1.0  5  0 270082394
[18]  B28 1f 45   1945.8 4091994.9  1.0  1.0  5  0 270082441
[19]  B27  1  7   -980.9 4092003.9 -0.0  0.0  1  0         0
$GNGGA,000000.000,,,,,0,00,,,M,,,,0000*2B
$GNRMC,000000.000,A,,,,,,,000000,,*26
$GPGSA,A,1,,,,,,,,,,,,,,,*1E
$BDGSA,A,1,,,,,,,,,,,,,,,*0F
$GPGSV,2,1,05,04,00,000,42,07,00,000,45,08,00,000,47,09,00,000,46*7B
$GPGSV,2,2,05,27,00,000,48*45
$BDGSV,1,1,03,07,00,000,42,10,00,000,44,28,00,000,45*50
$LOGTIM,0,0.000000,0.000000,0.000000,0.000000,0.000*0A
EndT:        0
---00000034--- Acq_st=7 2019-5-22 03:01:20 
[00]  G04  f 42   -984.7 2046001.3  1.0  1.0  5  0 270097442
[01]  G07  f 45  -3496.4 2046004.5  1.0  1.0  5  0 270097442
[02]  G08  f 46  -1213.1 2046001.6  1.0  1.0  5  0 270097451
[03]  G09  f 46    190.2 2045999.8  1.0  1.0  5  0 270097444
[05]  G27  f 49   1083.4 2045998.6  1.0  1.0  5  0 270097451
[16]  B07 1f 42   -610.1 4092001.6  1.0  1.0  5  0 270083398
[17]  B10 1f 44   -671.9 4092001.7  1.0  1.0  5  0 270083394
[18]  B28 1f 45   1946.9 4091994.9  1.0  1.0  5  0 270083441
[19]  B27  7 19   -958.3 4092002.4 -0.2  0.0 20  0       521
$GNGGA,000000.000,,,,,0,00,,,M,,,,0000*2B
$GNRMC,000000.000,A,,,,,,,000000,,*26
$GPGSA,A,1,,,,,,,,,,,,,,,*1E
$BDGSA,A,1,,,,,,,,,,,,,,,*0F
$GPGSV,2,1,05,04,00,000,42,07,00,000,45,08,00,000,46,09,00,000,46*7A
$GPGSV,2,2,05,27,00,000,49*44
$BDGSV,1,1,04,07,00,000,42,10,00,000,44,28,00,000,45,27,00,000,19*6A
$LOGTIM,0,0.000000,0.000000,0.000000,0.000000,0.000*0A
EndT:        0
---00000035--- Acq_st=3 2019-5-22 03:01:21 
[00]  G04  f 42   -985.1 2046001.3  1.0  1.0  5  0 270098442
[01]  G07  f 45  -3497.1 2046004.5  1.0  1.0  5  0 270098442
[02]  G08  f 47  -1213.2 2046001.6  1.0  1.0  5  0 270098451
[03]  G09  f 46    190.3 2045999.7  1.0  1.0  5  0 270098444
[05]  G27  f 49   1083.4 2045998.6  1.0  1.0  5  0 270098451
[16]  B07 1f 41   -610.7 4092001.6  1.0  1.0  5  0 270084398
[17]  B10 1f 44   -672.6 4092001.7  1.0  1.0  5  0 270084394
[18]  B28 1f 45   1946.8 4091994.9  1.0  1.0  5  0 270084441
[19]  B27  7 37   -958.4 4092002.5  0.6  1.0  5  0      1507
$GNGGA,000000.000,,,,,0,00,,,M,,,,0000*2B
$GNRMC,000000.000,A,,,,,,,000000,,*26
$GPGSA,A,1,,,,,,,,,,,,,,,*1E
$BDGSA,A,1,,,,,,,,,,,,,,,*0F
$GPGSV,2,1,05,04,00,000,42,07,00,000,45,08,00,000,47,09,00,000,46*7B
$GPGSV,2,2,05,27,00,000,49*44
$BDGSV,1,1,04,07,00,000,41,10,00,000,44,28,00,000,45,27,00,000,37*65
$LOGTIM,0,0.000000,0.000000,0.000000,0.000000,0.000*0A
EndT:        0
---00000036--- Acq_st=3 2019-5-22 03:01:22 
[00]  G04  f 42   -984.9 2046001.3  1.0  1.0  5  0 270099442
[01]  G07  f 45  -3497.2 2046004.6  1.0  1.0  5  0 270099442
[02]  G08  f 47  -1213.2 2046001.6  1.0  1.0  5  0 270099451
[03]  G09  f 46    190.4 2045999.7  1.0  1.0  5  0 270099444
[05]  G27  f 49   1083.5 2045998.6  1.0  1.0  5  0 270099451
[16]  B07 1f 42   -610.7 4092001.6  1.0  1.0  5  0 270085398
[17]  B10 1f 43   -672.7 4092001.8  1.0  1.0  5  0 270085394
[18]  B28 1f 45   1946.8 4091994.9  1.0  1.0  5  0 270085441
[19]  B27  7 37   -957.6 4092002.5  1.0  1.0  5  0      2507
$GNGGA,000000.000,,,,,0,00,,,M,,,,0000*2B
$GNRMC,000000.000,A,,,,,,,000000,,*26
$GPGSA,A,1,,,,,,,,,,,,,,,*1E
$BDGSA,A,1,,,,,,,,,,,,,,,*0F
$GPGSV,2,1,05,04,00,000,42,07,00,000,45,08,00,000,47,09,00,000,46*7B
$GPGSV,2,2,05,27,00,000,49*44
$BDGSV,1,1,04,07,00,000,42,10,00,000,43,28,00,000,45,27,00,000,37*61
$LOGTIM,0,0.000000,0.000000,0.000000,0.000000,0.000*0A
EndT:        0
---00000037--- Acq_st=3 2019-5-22 03:01:23 
[00]  G04  f 43   -979.3 2046001.3  1.0  1.0  5  0 270100442
[01]  G07  f 45  -3492.1 2046004.5  1.0  1.0  5  0 270100442
[02]  G08  f 47  -1207.8 2046001.6  1.0  1.0  5  0 270100451
[03]  G09  f 46    195.9 2045999.7  1.0  1.0  5  0 270100444
[05]  G27  f 49   1088.8 2045998.6  1.0  1.0  5  0 270100451
[16]  B07 1f 42   -606.3 4092001.6  1.0  1.0  5  0 270086398
[17]  B10 1f 43   -668.1 4092001.7  1.0  1.0  5  0 270086394
[18]  B28 1f 45   1951.7 4091994.9  1.0  1.0  5  0 270086441
[19]  B27  7 37   -952.7 4092002.5  1.0  0.9  5  0      3507
$GNGGA,000000.000,,,,,0,00,,,M,,,,0000*2B
$GNRMC,000000.000,A,,,,,,,000000,,*26
$GPGSA,A,1,,,,,,,,,,,,,,,*1E
$BDGSA,A,1,,,,,,,,,,,,,,,*0F
$GPGSV,2,1,05,04,00,000,43,07,00,000,45,08,00,000,47,09,00,000,46*7A
$GPGSV,2,2,05,27,00,000,49*44
$BDGSV,1,1,04,07,00,000,42,10,00,000,43,28,00,000,45,27,00,000,37*61
$LOGTIM,0,0.000000,0.000000,0.000000,0.000000,0.000*0A
EndT:        0
---00000038--- Acq_st=3 2019-5-22 03:01:24 
[00]  G04  f 43   -978.3 2046001.3  1.0  1.0  5 3f 270101442
[01]  G07  f 45  -3491.4 2046004.5  1.0  1.0  5  0 270101442
[02]  G08  f 46  -1206.8 2046001.6  1.0  1.0  5  0 270101451
[03]  G09  f 47    197.0 2045999.7  1.0  1.0  5  0 270101444
[05]  G27  f 49   1089.8 2045998.6  1.0  1.0  5  0 270101451
[16]  B07 1f 42   -606.3 4092001.6  1.0  1.0  5  0 270087398
[17]  B10 1f 44   -667.7 4092001.8  1.0  1.0  5  0 270087394
[18]  B28 1f 45   1952.7 4091994.9  1.0  1.0  5  0 270087441
[19]  B27  7 36   -951.3 4092002.5  1.0  1.0  5  0      4507
lsq: nits= 4
$GNGGA,030124.520,3112.7218,N,12136.4339,E,1,05,9.4,43.6,M,,,,0000*2C
$GNRMC,030124.520,A,3112.7218,N,12136.4339,E,0.12,0.00,220519,,*17
$GPGSA,A,3,07,08,09,27,,,,,,,,,17.3,9.4,14.4*38
$BDGSA,A,3,07,,,,,,,,,,,,17.3,9.4,14.4*2D
$GPGSV,2,1,05,04,00,000,43,07,00,000,45,08,00,000,46,09,00,000,47*7A
$GPGSV,2,2,05,27,00,000,49*44
$BDGSV,1,1,04,07,00,000,42,10,00,000,44,28,00,000,45,27,00,000,36*67
$LOGTIM,3,9582082.288690,9581933.241404,0.000000,0.000000,-63.319*10
EndT:        1
---00000039--- Acq_st=3 2019-5-22 03:01:25 
[00]  G04  f 43   -979.2 2046001.3  1.0  1.0  5 3f 270102442
[01]  G07  f 45  -3493.2 2046004.5  1.0  1.0  5  0 270102442
[02]  G08  f 46  -1208.1 2046001.6  1.0  1.0  5  0 270102451
[03]  G09  f 47    195.6 2045999.7  1.0  1.0  5  0 270102444
[04]  G30  1  7  -3705.2 2046005.0  0.1  0.0  1  0        18
[05]  G27  f 48   1088.5 2045998.6  1.0  1.0  5  0 270102451
[16]  B07 1f 42   -607.7 4092001.6  1.0  1.0  5  0 270088398
[17]  B10 1f 44   -669.5 4092001.7  1.0  1.0  5  0 270088394
[18]  B28 1f 45   1951.2 4091994.9  1.0  1.0  5  0 270088441
[19]  B27  7 36   -952.7 4092002.5  1.0  1.0  5  0      5507
lsq: nits= 4
$GNGGA,030126.000,3112.7241,N,12136.4281,E,1,05,9.4,64.0,M,,,,0000*24
$GNRMC,030126.000,A,3112.7241,N,12136.4281,E,0.20,0.00,220519,,*1D
$GPGSA,A,3,07,08,09,27,,,,,,,,,17.2,9.4,14.4*39
$BDGSA,A,3,07,,,,,,,,,,,,17.2,9.4,14.4*2C
$GPGSV,2,1,05,04,00,000,43,07,00,000,45,08,00,000,46,09,00,000,47*7A
$GPGSV,2,2,05,27,00,000,48*45
$BDGSV,1,1,04,07,00,000,42,10,00,000,44,28,00,000,45,27,00,000,36*67
$LOGTIM,3,-73.947392,-296.078192,0.000000,0.000000,-63.716*2F
EndT:        1
---00000040--- Acq_st=3 2019-5-22 03:01:26 
[00]  G04  f 42   -978.5 2046001.3  1.0  1.0  5 3f 270103922
[01]  G07  f 45  -3492.7 2046004.5  1.0  1.0  5  0 270103923
[02]  G08  f 46  -1207.2 2046001.6  1.0  1.0  5  0 270103931
[03]  G09  f 46    196.6 2045999.8  1.0  1.0  5  0 270103924
[04]  G30  7 15  -3778.0 2046005.0  0.1  0.0 20  0        17
[05]  G27  f 49   1089.2 2045998.6  1.0  1.0  5  0 270103931
[16]  B07 1f 42   -607.5 4092001.6  1.0  1.0  5  0 270089878
[17]  B10 1f 44   -669.3 4092001.7  1.0  1.0  5  0 270089875
[18]  B28 1f 45   1951.7 4091994.9  1.0  1.0  5  0 270089922
[19]  B27  7 36   -952.5 4092002.5  1.0  1.0  5  0      6988
lsq: nits= 4
$GNGGA,030127.000,3112.7267,N,12136.4230,E,1,05,9.4,80.5,M,,,,0000*24
$GNRMC,030127.000,A,3112.7267,N,12136.4230,E,0.51,0.00,220519,,*14
$GPGSA,A,3,07,08,09,27,,,,,,,,,17.2,9.4,14.4*39
$BDGSA,A,3,07,,,,,,,,,,,,17.2,9.4,14.4*2C
$GPGSV,2,1,07,04,00,000,42,07,29,317,45,08,68,249,46,09,31,273,46*73
$GPGSV,2,2,07,30,00,000,15,27,68,024,49,26,23,076,00*4D
$BDGSV,2,1,05,07,66,007,42,10,00,000,44,28,00,000,45,27,00,000,36*62
$BDGSV,2,2,05,03,51,200,00*58
$LOGTIM,3,-121.347386,-269.093303,0.000000,0.000000,-63.884*1D
EndT:        1
---00000041--- Acq_st=3 2019-5-22 03:01:27 
[00]  G04  f 42   -976.8 2046001.3  1.0  1.0  5 3f 270104922
[01]  G07  f 45  -3491.2 2046004.5  1.0  1.0  5  0 270104923
[02]  G08  f 46  -1205.2 2046001.6  1.0  1.0  5  0 270104931
[03]  G09  f 46    198.4 2045999.7  1.0  1.0  5  0 270104924
[04]  G30  7 19  -3771.1 2046004.9  0.3  0.0 20  0        15
[05]  G27  f 49   1091.1 2045998.6  1.0  1.0  5  0 270104931
[16]  B07 1f 42   -606.2 4092001.6  1.0  1.0  5  0 270090878
[17]  B10 1f 44   -667.9 4092001.7  1.0  1.0  5  0 270090875
[18]  B28 1f 45   1953.7 4091994.9  1.0  1.0  5  0 270090922
[19]  B27 1f 35   -951.0 4092002.5  1.0  1.0  5  0      7988
lsq: nits= 4
$GNGGA,030128.000,3112.7303,N,12136.4185,E,1,05,9.4,94.6,M,,,,0000*23
$GNRMC,030128.000,A,3112.7303,N,12136.4185,E,0.40,0.00,220519,,*15
$GPGSA,A,3,07,08,09,27,,,,,,,,,17.2,9.4,14.4*39
$BDGSA,A,3,07,,,,,,,,,,,,17.2,9.4,14.4*2C
$GPGSV,2,1,07,04,00,000,42,07,29,317,45,08,68,249,46,09,31,273,46*73
$GPGSV,2,2,07,30,00,000,19,27,68,024,49,26,23,076,00*41
$BDGSV,2,1,05,07,66,007,42,10,00,000,44,28,00,000,45,27,79,167,35*6F
$BDGSV,2,2,05,03,51,200,00*58
$LOGTIM,3,-170.236568,-316.400742,0.000000,0.000000,-63.828*18
EndT:        1
---00000042--- Acq_st=3 2019-5-22 03:01:28 
[00]  G04  f 42   -978.2 2046001.3  1.0  1.0  5 3f 270105922
[01]  G07  f 44  -3493.8 2046004.5  1.0  1.0  5  0 270105923
[02]  G08  f 46  -1207.2 2046001.5  1.0  1.0  5  0 270105931
[03]  G09  f 46    196.7 2045999.7  1.0  1.0  5  0 270105924
[04]  G30  7 16  -3774.7 2046005.0  0.2  0.0 20  0        15
[05]  G27  f 49   1089.2 2045998.6  1.0  1.0  5  0 270105931
[16]  B07 1f 42   -608.8 4092001.6  1.0  1.0  5  0 270091878
[17]  B10 1f 44   -670.4 4092001.7  1.0  1.0  5  0 270091875
[18]  B28 1f 45   1951.4 4091994.9  1.0  1.0  5  0 270091922
[19]  B27 1f 35   -952.1 4092002.5  1.0  0.9  5  0 270091928
lsq: nits= 4
$GNGGA,030129.000,3112.7296,N,12136.4203,E,1,05,9.4,87.4,M,,,,0000*22
$GNRMC,030129.000,A,3112.7296,N,12136.4203,E,0.10,0.00,220519,,*11
$GPGSA,A,3,07,08,09,27,,,,,,,,,17.1,9.4,14.3*3D
$BDGSA,A,3,07,,,,,,,,,,,,17.1,9.4,14.3*28
$GPGSV,2,1,07,04,00,000,42,07,29,317,44,08,68,249,46,09,31,273,46*72
$GPGSV,2,2,07,30,00,000,16,27,68,024,49,26,23,076,00*4E
$BDGSV,2,1,05,07,66,007,42,10,00,000,44,28,00,000,45,27,79,167,35*6F
$BDGSV,2,2,05,03,51,200,00*58
$LOGTIM,3,-240.959435,-387.212593,0.000000,0.000000,-64.066*15
EndT:        1
---00000043--- Acq_st=3 2019-5-22 03:01:29 
[00]  G04  f 42   -979.9 2046001.3  1.0  1.0  5 3f 270106922
[01]  G07  f 44  -3495.4 2046004.5  1.0  1.0  5  0 270106923
[02]  G08  f 46  -1208.6 2046001.6  1.0  1.0  5  0 270106931
[03]  G09  f 46    195.1 2045999.8  1.0  1.0  5  0 270106924
[04]  G30  7 18  -3773.9 2046005.1 -0.0  0.1 20  0        15
[05]  G27  f 49   1087.6 2045998.6  1.0  1.0  5  0 270106931
[16]  B07 1f 42   -610.6 4092001.6  1.0  1.0  5  0 270092878
[17]  B10 1f 44   -672.5 4092001.7  1.0  1.0  5  0 270092875
[18]  B28 1f 45   1949.9 4091994.9  1.0  1.0  5  0 270092922
[19]  B27 1f 35   -953.7 4092002.4  1.0  0.9  5  0 270092928
lsq: nits= 4
$GNGGA,030130.000,3112.7259,N,12136.4252,E,1,05,9.4,69.7,M,,,,0000*2E
$GNRMC,030130.000,A,3112.7259,N,12136.4252,E,0.14,0.00,220519,,*1A
$GPGSA,A,3,07,08,09,27,,,,,,,,,17.1,9.4,14.3*3D
$BDGSA,A,3,07,,,,,,,,,,,,17.1,9.4,14.3*28
$GPGSV,2,1,07,04,00,000,42,07,29,317,44,08,68,249,46,09,31,273,46*72
$GPGSV,2,2,07,30,00,000,18,27,68,024,49,26,23,076,00*40
$BDGSV,2,1,05,07,66,007,42,10,00,000,44,28,00,000,45,27,79,167,35*6F
$BDGSV,2,2,05,03,51,200,00*58
$LOGTIM,3,-322.771245,-469.956211,0.000000,0.000000,-64.214*13
EndT:        1
---00000044--- Acq_st=3 2019-5-22 03:01:30 
[00]  G04  f 42   -977.9 2046001.3  1.0  1.0  5 3f 270107922
[01]  G07  f 45  -3494.0 2046004.5  1.0  1.0  5  0 270107923
[02]  G08  f 46  -1206.9 2046001.6  1.0  1.0  5  0 270107931
[03]  G09  f 46    196.9 2045999.7  1.0  1.0  5  0 270107924
[04]  G30  7 16  -3774.2 2046005.3  0.3  0.0 20  0        15
[05]  G27  f 48   1089.2 2045998.6  1.0  1.0  5  0 270107931
[16]  B07 1f 42   -609.4 4092001.6  1.0  1.0  5  0 270093878
[17]  B10 1f 44   -671.2 4092001.7  1.0  1.0  5  0 270093875
[18]  B28 1f 45   1951.4 4091994.9  1.0  1.0  5  0 270093922
[19]  B27 1f 35   -951.7 4092002.5  1.0  1.0  5  0 270093928
lsq: nits= 4
$GNGGA,030131.000,3112.7253,N,12136.4259,E,1,05,9.3,66.4,M,,,,0000*25
$GNRMC,030131.000,A,3112.7253,N,12136.4259,E,0.71,0.00,220519,,*19
$GPGSA,A,3,07,08,09,27,,,,,,,,,17.1,9.3,14.3*3A
$BDGSA,A,3,07,,,,,,,,,,,,17.1,9.3,14.3*2F
$GPGSV,2,1,07,04,00,000,42,07,29,317,45,08,68,249,46,09,31,273,46*73
$GPGSV,2,2,07,30,00,000,16,27,68,024,48,26,23,076,00*4F
$BDGSV,2,1,05,07,66,007,42,10,00,000,44,28,00,000,45,27,79,167,35*6F
$BDGSV,2,2,05,03,51,200,00*58
$LOGTIM,3,-390.064193,-537.290671,0.000000,0.000000,-64.460*1D
EndT:        1
---00000045--- Acq_st=3 2019-5-22 03:01:31 
[00]  G04  f 43   -977.4 2046001.3  1.0  1.0  5 3f 270108922
[01]  G07  f 44  -3493.9 2046004.6  1.0  1.0  5  0 270108923
[02]  G08  f 46  -1206.6 2046001.6  1.0  1.0  5  0 270108931
[03]  G09  f 45    197.4 2045999.7  1.0  1.0  5  0 270108924
[04]  G30  7 21  -3773.3 2046005.1  0.3  0.2 20  0        15
[05]  G27  f 49   1089.4 2045998.6  1.0  1.0  5  0 270108931
[16]  B07 1f 42   -609.9 4092001.6  1.0  1.0  5  0 270094878
[17]  B10 1f 44   -671.7 4092001.8  1.0  1.0  5  0 270094875
[18]  B28 1f 45   1951.4 4091994.9  1.0  1.0  5  0 270094922
[19]  B27 1f 35   -951.7 4092002.5  1.0  1.0  5  0 270094928
lsq: nits= 4
$GNGGA,030132.000,3112.7281,N,12136.4208,E,1,05,9.3,83.0,M,,,,0000*22
$GNRMC,030132.000,A,3112.7281,N,12136.4208,E,0.34,0.00,220519,,*10
$GPGSA,A,3,07,08,09,27,,,,,,,,,17.0,9.3,14.3*3B
$BDGSA,A,3,07,,,,,,,,,,,,17.0,9.3,14.3*2E
$GPGSV,2,1,07,04,00,000,43,07,29,317,44,08,68,249,46,09,31,273,45*70
$GPGSV,2,2,07,30,00,000,21,27,68,024,49,26,23,076,00*4A
$BDGSV,2,1,05,07,66,007,42,10,00,000,44,28,00,000,45,27,79,167,35*6F
$BDGSV,2,2,05,03,51,200,00*58
$LOGTIM,3,-437.807314,-584.491592,0.000000,0.000000,-63.670*12
EndT:        1
---00000046--- Acq_st=3 2019-5-22 03:01:32 
[00]  G04  f 42   -976.8 2046001.3  1.0  1.0  5 3f 270109922
[01]  G07  f 45  -3493.5 2046004.5  1.0  1.0  5  0 270109923
[02]  G08  f 46  -1205.8 2046001.6  1.0  1.0  5  0 270109931
[03]  G09  f 45    198.1 2045999.7  1.0  1.0  5  0 270109924
[04]  G30  7 24  -3773.9 2046005.1  0.8  0.2 20  0        15
[05]  G27  f 48   1090.2 2045998.6  1.0  1.0  5  0 270109931
[16]  B07 1f 42   -609.4 4092001.6  1.0  1.0  5  0 270095878
[17]  B10 1f 44   -671.2 4092001.7  1.0  1.0  5  0 270095875
[18]  B28 1f 45   1952.1 4091994.9  1.0  1.0  5  0 270095922
[19]  B27 1f 35   -951.4 4092002.6  1.0  1.0  5  0 270095928
lsq: nits= 4
$GNGGA,030133.000,3112.7298,N,12136.4185,E,1,05,9.3,92.1,M,,,,0000*2C
$GNRMC,030133.000,A,3112.7298,N,12136.4185,E,0.58,0.00,220519,,*15
$GPGSA,A,3,07,08,09,27,,,,,,,,,17.0,9.3,14.2*3A
$BDGSA,A,3,07,,,,,,,,,,,,17.0,9.3,14.2*2F
$GPGSV,2,1,07,04,00,000,42,07,29,317,45,08,68,249,46,09,31,273,45*70
$GPGSV,2,2,07,30,00,000,24,27,68,024,48,26,23,076,00*4E
$BDGSV,2,1,05,07,66,007,42,10,00,000,44,28,00,000,45,27,79,167,35*6F
$BDGSV,2,2,05,03,51,200,00*58
$LOGTIM,3,-493.109143,-712.440181,0.000000,0.000000,-64.263*1D
EndT:        1
---00000047--- Acq_st=3 2019-5-22 03:01:33 
[00]  G04  f 42   -974.6 2046001.3  1.0  1.0  5 3f 270110922
[01]  G07  f 45  -3491.7 2046004.5  1.0  1.0  5  0 270110923
[02]  G08  f 46  -1203.6 2046001.5  1.0  1.0  5  0 270110931
[03]  G09  f 46    200.4 2045999.7  1.0  1.0  5  0 270110924
[04]  G30  7 24  -3771.7 2046005.0  0.6  0.1 20  0        15
[05]  G27  f 48   1092.3 2045998.6  1.0  1.0  5  0 270110931
[16]  B07 1f 42   -608.0 4092001.6  1.0  1.0  5  0 270096878
[17]  B10 1f 44   -669.8 4092001.7  1.0  1.0  5  0 270096875
[18]  B28 1f 45   1953.8 4091994.9  1.0  1.0  5  0 270096922
[19]  B27 1f 35   -948.7 4092002.4  1.0  1.0  5  0 270096928
lsq: nits= 4
$GNGGA,030134.000,3112.7281,N,12136.4208,E,1,05,9.3,86.5,M,,,,0000*24
$GNRMC,030134.000,A,3112.7281,N,12136.4208,E,0.06,0.00,220519,,*17
$GPGSA,A,3,07,08,09,27,,,,,,,,,17.0,9.3,14.2*3A
$BDGSA,A,3,07,,,,,,,,,,,,17.0,9.3,14.2*2F
$GPGSV,2,1,07,04,00,000,42,07,29,317,45,08,68,249,46,09,31,273,46*73
$GPGSV,2,2,07,30,00,000,24,27,68,024,48,26,23,076,00*4E
$BDGSV,2,1,05,07,66,007,42,10,00,000,44,28,00,000,45,27,79,167,35*6F
$BDGSV,2,2,05,03,51,200,00*58
$LOGTIM,3,-562.852879,-708.351381,0.000000,0.000000,-63.489*1E
EndT:        1
---00000048--- Acq_st=3 2019-5-22 03:01:34 
[00]  G04  f 43   -972.1 2046001.2  1.0  1.0  5 3f 270111922
[01]  G07  f 45  -3489.9 2046004.5  1.0  1.0  5  0 270111923
[02]  G08  f 46  -1201.5 2046001.6  1.0  1.0  5  0 270111931
[03]  G09  f 46    202.4 2045999.7  1.0  1.0  5  0 270111924
[05]  G27  f 48   1094.4 2045998.6  1.0  1.0  5  0 270111931
[16]  B07 1f 42   -606.5 4092001.5  1.0  1.0  5  0 270097878
[17]  B10 1f 44   -668.1 4092001.7  1.0  1.0  5  0 270097875
[18]  B28 1f 45   1955.9 4091994.9  1.0  1.0  5  0 270097922
[19]  B27 1f 34   -946.8 4092002.5  1.0  1.0  5  0 270097928
lsq: nits= 4
$GNGGA,030135.000,3112.7244,N,12136.4261,E,1,05,9.3,70.1,M,,,,0000*2E
$GNRMC,030135.000,A,3112.7244,N,12136.4261,E,0.31,0.00,220519,,*14
$GPGSA,A,3,07,08,09,27,,,,,,,,,17.0,9.3,14.2*3A
$BDGSA,A,3,07,,,,,,,,,,,,17.0,9.3,14.2*2F
$GPGSV,2,1,06,04,00,000,43,07,29,317,45,08,68,249,46,09,31,273,46*73
$GPGSV,2,2,06,27,68,024,48,26,23,076,00*7A
$BDGSV,2,1,05,07,66,007,42,10,00,000,44,28,00,000,45,27,79,167,34*6E
$BDGSV,2,2,05,03,51,200,00*58
$LOGTIM,3,-642.950916,-788.816316,0.000000,0.000000,-63.043*18
EndT:        1
---00000049--- Acq_st=7 2019-5-22 03:01:35 
[00]  G04  f 43   -972.1 2046001.3  1.0  1.0  5 3f 270112922
[01]  G07  f 45  -3490.2 2046004.5  1.0  1.0  5  0 270112923
[02]  G08  f 46  -1201.3 2046001.6  1.0  1.0  5  0 270112931
[03]  G09  f 45    202.8 2045999.7  1.0  1.0  5  0 270112924
[05]  G27  f 48   1094.5 2045998.6  1.0  1.0  5  0 270112931
[16]  B07 1f 42   -607.1 4092001.6  1.0  1.0  5  0 270098878
[17]  B10 1f 44   -669.0 4092001.7  1.0  1.0  5  0 270098875
[18]  B28 1f 45   1955.8 4091994.8  1.0  1.0  5  0 270098922
[19]  B27 1f 34   -946.8 4092002.5  1.0  0.9  5  0 270098928
lsq: nits= 4
$GNGGA,030136.000,3112.7194,N,12136.4333,E,1,05,9.3,45.7,M,,,,0000*25
$GNRMC,030136.000,A,3112.7194,N,12136.4333,E,0.19,0.00,220519,,*15
$GPGSA,A,3,07,08,09,27,,,,,,,,,16.9,9.3,14.2*32
$BDGSA,A,3,07,,,,,,,,,,,,16.9,9.3,14.2*27
$GPGSV,2,1,06,04,00,000,43,07,29,317,45,08,68,249,46,09,31,273,45*70
$GPGSV,2,2,06,27,68,024,48,26,23,076,00*7A
$BDGSV,2,1,05,07,66,007,42,10,00,000,44,28,00,000,45,27,79,167,34*6E
$BDGSV,2,2,05,03,51,200,00*58
$LOGTIM,3,-730.696874,-877.635796,0.000000,0.000000,-63.547*11
EndT:        1
---00000050--- Acq_st=3 2019-5-22 03:01:36 
[00]  G04  f 43   -971.9 2046001.2  1.0  1.0  5 3f 270113922
[01]  G07  f 45  -3490.0 2046004.6  1.0  1.0  5  0 270113923
[02]  G08  f 46  -1200.8 2046001.6  1.0  1.0  5  0 270113931
[03]  G09  f 45    203.3 2045999.7  1.0  1.0  5  0 270113924
[05]  G27  f 48   1094.8 2045998.6  1.0  1.0  5  0 270113931
[16]  B07 1f 42   -607.0 4092001.6  1.0  1.0  5  0 270099878
[17]  B10 1f 44   -668.7 4092001.7  1.0  1.0  5  0 270099875
[18]  B28 1f 46   1956.1 4091994.9  1.0  1.0  5  0 270099922
[19]  B27 1f 34   -945.0 4092002.4  1.0  1.0  5  0 270099928
lsq: nits= 4
$GNGGA,030137.000,3112.7202,N,12136.4318,E,1,05,9.3,49.5,M,,,,0000*2F
$GNRMC,030137.000,A,3112.7202,N,12136.4318,E,0.54,0.00,220519,,*18
$GPGSA,A,3,07,08,09,27,,,,,,,,,16.9,9.3,14.1*31
$BDGSA,A,3,07,,,,,,,,,,,,16.9,9.3,14.1*24
$GPGSV,2,1,06,04,00,000,43,07,29,317,45,08,68,249,46,09,31,273,45*70
$GPGSV,2,2,06,27,68,024,48,26,23,076,00*7A
$BDGSV,2,1,05,07,66,007,42,10,00,000,44,28,00,000,46,27,79,167,34*6D
$BDGSV,2,2,05,03,51,200,00*58
$LOGTIM,3,-790.687304,-937.002472,0.000000,0.000000,-62.969*18
EndT:        0
---00000051--- Acq_st=3 2019-5-22 03:01:37 
[00]  G04  f 43   -970.1 2046001.3  1.0  1.0  5 3f 270114922
[01]  G07  f 45  -3489.1 2046004.5  1.0  1.0  5  0 270114923
[02]  G08  f 46  -1199.5 2046001.6  1.0  1.0  5  0 270114931
[03]  G09  f 46    204.8 2045999.7  1.0  1.0  5  0 270114924
[05]  G27  f 48   1096.3 2045998.6  1.0  1.0  5  0 270114931
[16]  B07 1f 42   -605.8 4092001.6  1.0  1.0  5  0 270100878
[17]  B10 1f 44   -668.1 4092001.8  1.0  1.0  5  0 270100875
[18]  B28 1f 46   1957.2 4091994.8  1.0  1.0  5  0 270100922
[19]  B27 1f 34   -944.7 4092002.5  1.0  1.0  5  0 270100928
lsq: nits= 4
$GNGGA,030138.000,3112.7200,N,12136.4313,E,1,05,9.2,52.3,M,,,,0000*24
$GNRMC,030138.000,A,3112.7200,N,12136.4313,E,0.31,0.00,220519,,*1D
$GPGSA,A,3,07,08,09,27,,,,,,,,,16.9,9.2,14.1*30
$BDGSA,A,3,07,,,,,,,,,,,,16.9,9.2,14.1*25
$GPGSV,2,1,06,04,00,000,43,07,29,317,45,08,68,249,46,09,31,273,46*73
$GPGSV,2,2,06,27,68,024,48,26,23,076,00*7A
$BDGSV,2,1,05,07,66,007,42,10,00,000,44,28,00,000,46,27,79,167,34*6D
$BDGSV,2,2,05,03,51,200,00*58
$LOGTIM,3,-852.248881,-998.867401,0.000000,0.000000,-63.470*16
EndT:        0
---00000052--- Acq_st=3 2019-5-22 03:01:38 
[00]  G04  f 43   -971.0 2046001.3  1.0  1.0  5 3f 270115922
[01]  G07  f 45  -3490.0 2046004.5  1.0  1.0  5  0 270115923
[02]  G08  f 46  -1200.2 2046001.6  1.0  1.0  5  0 270115931
[03]  G09  f 46    204.2 2045999.7  1.0  1.0  5  0 270115924
[05]  G27  f 48   1095.6 2045998.6  1.0  1.0  5  0 270115931
[16]  B07 1f 42   -607.3 4092001.5  1.0  1.0  5  0 270101878
[17]  B10 1f 44   -669.1 4092001.8  1.0  1.0  5  0 270101875
[18]  B28 1f 46   1956.4 4091994.9  1.0  1.0  5  0 270101922
[19]  B27 1f 34   -944.7 4092002.5  1.0  0.9  5  0 270101928
lsq: nits= 4
$GNGGA,030139.000,3112.7195,N,12136.4320,E,1,05,9.2,52.6,M,,,,0000*2F
$GNRMC,030139.000,A,3112.7195,N,12136.4320,E,0.13,0.00,220519,,*13
$GPGSA,A,3,07,08,09,27,,,,,,,,,16.9,9.2,14.1*30
$BDGSA,A,3,07,,,,,,,,,,,,16.9,9.2,14.1*25
$GPGSV,2,1,06,04,00,000,43,07,29,317,45,08,68,249,46,09,31,273,46*73
$GPGSV,2,2,06,27,68,024,48,26,23,076,00*7A
$BDGSV,2,1,05,07,66,007,42,10,00,000,44,28,00,000,46,27,79,167,34*6D
$BDGSV,2,2,05,03,51,200,00*58
$LOGTIM,3,-916.295101,-1062.636670,0.000000,0.000000,-63.692*2B
EndT:        0
---00000053--- Acq_st=3 2019-5-22 03:01:39 
[00]  G04  f 43   -970.6 2046001.3  1.0  1.0  5 3f 270116922
[01]  G07  f 45  -3490.5 2046004.5  1.0  1.0  5  0 270116923
[02]  G08  f 46  -1200.2 2046001.6  1.0  1.0  5  0 270116931
[03]  G09  f 46    204.0 2045999.7  1.0  1.0  5  0 270116924
[05]  G27  f 48   1095.3 2045998.6  1.0  1.0  5  0 270116931
[16]  B07 1f 42   -607.9 4092001.6  1.0  1.0  5  0 270102878
[17]  B10 1f 44   -669.9 4092001.8  1.0  1.0  5  0 270102875
[18]  B28 1f 45   1956.2 4091994.9  1.0  1.0  5  0 270102922
[19]  B27 1f 34   -945.5 4092002.5  1.0  0.9  5  0 270102928
lsq: nits= 4
$GNGGA,030140.000,3112.7154,N,12136.4367,E,1,05,9.2,36.4,M,,,,0000*2F
$GNRMC,030140.000,A,3112.7154,N,12136.4367,E,0.50,0.00,220519,,*14
$GPGSA,A,3,07,08,09,27,,,,,,,,,16.8,9.2,14.1*31
$BDGSA,A,3,07,,,,,,,,,,,,16.8,9.2,14.1*24
$GPGSV,2,1,06,04,00,000,43,07,29,317,45,08,68,249,46,09,31,273,46*73
$GPGSV,2,2,06,27,68,024,48,26,23,076,00*7A
$BDGSV,2,1,05,07,66,007,42,10,00,000,44,28,00,000,45,27,79,167,34*6E
$BDGSV,2,2,05,03,51,200,00*58
$LOGTIM,3,-996.959019,-1217.276698,0.000000,0.000000,-64.181*24
EndT:        0
---00000054--- Acq_st=3 2019-5-22 03:01:40 
[00]  G04  f 42   -972.6 2046001.3  1.0  1.0  5 3f 270117922
[01]  G07  f 45  -3492.8 2046004.5  1.0  1.0  5  0 270117923
[02]  G08  f 46  -1202.1 2046001.6  1.0  1.0  5  0 270117931
[03]  G09  f 45    202.5 2045999.8  1.0  1.0  5  0 270117924
[04]  G30  1  7  -3813.1 2046004.4  0.0  0.0  1  0         0
[05]  G27  f 48   1093.5 2045998.6  1.0  1.0  5  0 270117931
[16]  B07 1f 42   -610.5 4092001.6  1.0  1.0  5  0 270103878
[17]  B10 1f 44   -672.3 4092001.8  1.0  1.0  5  0 270103875
[18]  B28 1f 45   1954.1 4091994.9  1.0  1.0  5  0 270103922
[19]  B27 1f 34   -947.7 4092002.5  1.0  1.1  5  0 270103928
lsq: nits= 4
$GNGGA,030141.000,3112.7149,N,12136.4359,E,1,05,9.2,36.0,M,,,,0000*2B
$GNRMC,030141.000,A,3112.7149,N,12136.4359,E,0.19,0.00,220519,,*19
$GPGSA,A,3,07,08,09,27,,,,,,,,,16.8,9.2,14.1*31
$BDGSA,A,3,07,,,,,,,,,,,,16.8,9.2,14.1*24
$GPGSV,2,1,06,04,00,000,42,07,29,317,45,08,68,249,46,09,31,273,45*71
$GPGSV,2,2,06,27,68,024,48,26,23,076,00*7A
$BDGSV,2,1,05,07,66,007,42,10,00,000,44,28,00,000,45,27,79,167,34*6E
$BDGSV,2,2,05,03,51,200,00*58
$LOGTIM,3,-1062.022094,-1208.979445,0.000000,0.000000,-64.448*1F
EndT:        0
---00000055--- Acq_st=3 2019-5-22 03:01:41 
[00]  G04  f 43   -974.5 2046001.3  1.0  1.0  5 3f 270118922
[01]  G07  f 44  -3495.3 2046004.6  1.0  1.0  5  0 270118923
[02]  G08  f 46  -1204.1 2046001.6  1.0  1.0  5  0 270118931
[03]  G09  f 46    200.1 2045999.7  1.0  1.0  5  0 270118924
[04]  G30  1  7  -3891.2 2046004.5  0.1  0.0  1  0         0
[05]  G27  f 48   1091.3 2045998.6  1.0  1.0  5  0 270118931
[16]  B07 1f 42   -613.0 4092001.6  1.0  1.0  5  0 270104878
[17]  B10 1f 44   -674.8 4092001.8  1.0  1.0  5  0 270104875
[18]  B28 1f 45   1951.7 4091994.9  1.0  1.0  5  0 270104922
[19]  B27 1f 34   -949.3 4092002.6  1.0  1.0  5  0 270104928
lsq: nits= 4
$GNGGA,030142.000,3112.7180,N,12136.4307,E,1,05,9.2,50.2,M,,,,0000*24
$GNRMC,030142.000,A,3112.7180,N,12136.4307,E,0.64,0.00,220519,,*1E
$GPGSA,A,3,07,08,09,27,,,,,,,,,16.8,9.2,14.0*30
$BDGSA,A,3,07,,,,,,,,,,,,16.8,9.2,14.0*25
$GPGSV,2,1,06,04,00,000,43,07,29,317,44,08,68,249,46,09,31,273,46*72
$GPGSV,2,2,06,27,68,024,48,26,23,076,00*7A
$BDGSV,2,1,05,07,66,007,42,10,00,000,44,28,00,000,45,27,79,167,34*6E
$BDGSV,2,2,05,03,51,200,00*58
$LOGTIM,3,-1112.238406,-1259.289405,0.000000,0.000000,-65.211*10
EndT:        0
---00000056--- Acq_st=3 2019-5-22 03:01:42 
[00]  G04  f 42   -975.5 2046001.3  1.0  1.0  5 3f 270119922
[01]  G07  f 45  -3496.5 2046004.5  1.0  1.0  5  0 270119923
[02]  G08  f 47  -1205.0 2046001.6  1.0  1.0  5  0 270119931
[03]  G09  f 46    199.5 2045999.7  1.0  1.0  5  0 270119924
[04]  G30  1  7  -3669.2 2046004.4  0.0  0.0  1  0         0
[05]  G27  f 48   1090.5 2045998.6  1.0  1.0  5  0 270119931
[16]  B07 1f 42   -614.4 4092001.6  1.0  1.0  5  0 270105878
[17]  B10 1f 44   -676.5 4092001.8  1.0  1.0  5  0 270105875
[18]  B28 1f 45   1950.5 4091994.9  1.0  1.0  5  0 270105922
[19]  B27 1f 34   -950.3 4092002.4  1.0  0.9  5  0 270105928
lsq: nits= 4
$GNGGA,030143.000,3112.7218,N,12136.4265,E,1,05,9.2,63.8,M,,,,0000*28
$GNRMC,030143.000,A,3112.7218,N,12136.4265,E,0.29,0.00,220519,,*11
$GPGSA,A,3,07,08,09,27,,,,,,,,,16.7,9.2,14.0*3F
$BDGSA,A,3,07,,,,,,,,,,,,16.7,9.2,14.0*2A
$GPGSV,2,1,06,04,00,000,42,07,29,317,45,08,68,249,47,09,31,273,46*73
$GPGSV,2,2,06,27,68,024,48,26,23,076,00*7A
$BDGSV,2,1,05,07,66,007,42,10,00,000,44,28,00,000,45,27,79,167,34*6E
$BDGSV,2,2,05,03,51,200,00*58
$LOGTIM,3,-1162.670963,-1309.337704,0.000000,0.000000,-64.802*1A
EndT:        0
---00000057--- Acq_st=3 2019-5-22 03:01:43 
[00]  G04  f 43   -975.0 2046001.3  1.0  1.0  5 3f 270120922
[01]  G07  f 45  -3496.6 2046004.6  1.0  1.0  5  0 270120923
[02]  G08  f 47  -1204.7 2046001.6  1.0  1.0  5  0 270120931
[03]  G09  f 46    199.8 2045999.7  1.0  1.0  5  0 270120924
[05]  G27  f 48   1090.6 2045998.6  1.0  1.0  5  0 270120931
[16]  B07 1f 42   -614.7 4092001.6  1.0  1.0  5  0 270106878
[17]  B10 1f 44   -676.7 4092001.8  1.0  1.0  5  0 270106875
[18]  B28 1f 45   1951.0 4091994.9  1.0  1.0  5  0 270106922
[19]  B27 1f 34   -949.3 4092002.4  1.0  1.0  5  0 270106928
lsq: nits= 4
$GNGGA,030144.000,3112.7236,N,12136.4256,E,1,05,9.2,67.5,M,,,,0000*2A
$GNRMC,030144.000,A,3112.7236,N,12136.4256,E,0.22,0.00,220519,,*11
$GPGSA,A,3,07,08,09,27,,,,,,,,,16.7,9.2,14.0*3F
$BDGSA,A,3,07,,,,,,,,,,,,16.7,9.2,14.0*2A
$GPGSV,2,1,06,04,25,294,43,07,29,317,45,08,68,249,47,09,31,273,46*7A
$GPGSV,2,2,06,27,68,024,48,26,23,076,00*7A
$BDGSV,2,1,05,07,66,007,42,10,00,000,44,28,00,000,45,27,79,167,34*6E
$BDGSV,2,2,05,03,51,200,00*58
$LOGTIM,3,-1223.143843,-1369.788202,0.000000,0.000000,-64.587*1D
EndT:        0
---00000058--- Acq_st=3 2019-5-22 03:01:44 
[00]  G04  f 43   -973.0 2046001.3  1.0  1.0  5 3f 270121922
[01]  G07  f 46  -3495.0 2046004.5  1.0  1.0  5  0 270121923
[02]  G08  f 46  -1202.9 2046001.5  1.0  1.0  5  0 270121931
[03]  G09  f 46    201.8 2045999.7  1.0  1.0  5  0 270121924
[05]  G27  f 48   1092.7 2045998.6  1.0  1.0  5  0 270121931
[16]  B07 1f 42   -613.3 4092001.6  1.0  1.0  5  0 270107878
[17]  B10 1f 44   -675.5 4092001.7  1.0  1.0  5  0 270107875
[18]  B28 1f 45   1952.3 4091994.9  1.0  1.0  5  0 270107922
[19]  B27 1f 34   -947.8 4092002.4  1.0  0.9  5  0 270107928
lsq: nits= 4
$GNGGA,030145.000,3112.7257,N,12136.4317,E,1,08,2.0,52.3,M,,,,0000*2C
$GNRMC,030145.000,A,3112.7257,N,12136.4317,E,0.06,0.00,220519,,*15
$GPGSA,A,3,07,08,09,27,,,,,,,,,3.5,2.0,2.9*3E
$BDGSA,A,3,07,10,27,28,,,,,,,,,3.5,2.0,2.9*25
$GPGSV,2,1,06,04,25,294,43,07,29,317,46,08,68,249,46,09,31,273,46*78
$GPGSV,2,2,06,27,68,024,48,26,23,076,00*7A
$BDGSV,2,1,05,07,66,007,42,10,00,000,44,28,00,000,45,27,79,167,34*6E
$BDGSV,2,2,05,03,51,200,00*58
$LOGTIM,3,-1301.440972,-1444.559017,0.000000,0.000000,-64.337*14
EndT:        1
---00000059--- Acq_st=3 2019-5-22 03:01:45 
[00]  G04  f 42   -968.5 2046001.3  1.0  1.0  5 3f 270122922
[01]  G07  f 46  -3491.1 2046004.5  1.0  1.0  5  0 270122923
[02]  G08  f 46  -1198.4 2046001.6  1.0  1.0  5  0 270122931
[03]  G09  f 46    206.0 2045999.7  1.0  1.0  5  0 270122924
[05]  G27  f 48   1096.8 2045998.6  1.0  1.0  5  0 270122931
[16]  B07 1f 42   -609.7 4092001.6  1.0  1.0  5  0 270108878
[17]  B10 1f 44   -671.9 4092001.7  1.0  1.0  5  0 270108875
[18]  B28 1f 44   1956.5 4091994.9  1.0  1.0  5  0 270108922
[19]  B27 1f 34   -944.7 4092002.4  1.0  1.0  5  0 270108928
lsq: nits= 2
$GNGGA,030146.000,3112.7207,N,12136.4327,E,1,08,1.5,54.4,M,,,,0000*2E
$GNRMC,030146.000,A,3112.7207,N,12136.4327,E,0.27,0.00,220519,,*13
$GPGSA,A,3,07,08,09,27,,,,,,,,,1.6,1.5,0.6*34
$BDGSA,A,3,07,10,27,28,,,,,,,,,1.6,1.5,0.6*2F
$GPGSV,2,1,06,04,25,294,42,07,30,317,46,08,68,249,46,09,31,273,46*71
$GPGSV,2,2,06,27,68,024,48,26,23,076,00*7A
$BDGSV,2,1,05,07,66,007,42,10,51,315,44,28,39,044,44,27,79,167,34*66
$BDGSV,2,2,05,03,51,200,00*58
$LOGTIM,3,-1366.440867,-1514.457429,0.000000,0.000000,-63.595*1B
EndT:        2
---00000060--- Acq_st=3 2019-5-22 03:01:46 
[00]  G04  f 42   -963.3 2046001.3  1.0  1.0  5 3f 270123922
[01]  G07  f 46  -3486.2 2046004.5  1.0  1.0  5  0 270123923
[02]  G08  f 47  -1193.3 2046001.5  1.0  1.0  5  0 270123931
[03]  G09  f 46    211.4 2045999.7  1.0  1.0  5  0 270123924
[05]  G27  f 48   1101.8 2045998.6  1.0  1.0  5  0 270123931
[16]  B07 1f 42   -605.2 4092001.5  1.0  1.0  5  0 270109878
[17]  B10 1f 44   -667.2 4092001.8  1.0  1.0  5  0 270109875
[18]  B28 1f 45   1961.3 4091994.8  1.0  1.0  5  0 270109922
[19]  B27 1f 35   -938.7 4092002.5  1.0  0.9  5  0 270109928
lsq: nits= 2
$GNGGA,030147.000,3112.7202,N,12136.4331,E,1,08,1.5,52.8,M,,,,0000*27
