FlashID=0x1 0x20 0x18
BBram_blkflag1: 3ff1: c00e
FW Ver: 1.30  
GPS00 Init Dop:   5000, 40
GPS01 Init Dop:   5000, 40
GPS02 Init Dop:   5000, 40
GPS03 Init Dop:   5000, 40
GPS04 Init Dop:   5000, 40
GPS05 Init Dop:   5000, 40
GPS06 Init Dop:   5000, 40
GPS07 Init Dop:   5000, 40
GPS08 Init Dop:   5000, 40
GPS09 Init Dop:   5000, 40
GPS10 Init Dop:   5000, 40
GPS11 Init Dop:   5000, 40
GPS12 Init Dop:   5000, 40
GPS13 Init Dop:   5000, 40
GPS14 Init Dop:   5000, 40
GPS15 Init Dop:   5000, 40
GPS16 Init Dop:   5000, 40
GPS17 Init Dop:   5000, 40
GPS18 Init Dop:   5000, 40
GPS19 Init Dop:   5000, 40
GPS20 Init Dop:   5000, 40
GPS21 Init Dop:   5000, 40
GPS22 Init Dop:   5000, 40
GPS23 Init Dop:   5000, 40
GPS24 Init Dop:   5000, 40
GPS25 Init Dop:   5000, 40
GPS26 Init Dop:   5000, 40
GPS27 Init Dop:   5000, 40
GPS28 Init Dop:   5000, 40
GPS29 Init Dop:   5000, 40
GPS30 Init Dop:   5000, 40
GPS31 Init Dop:   5000, 40
BDS00 Init Dop:   5000, 40
BDS01 Init Dop:   5000, 40
BDS02 Init Dop:   5000, 40
BDS03 Init Dop:   5000, 40
BDS04 Init Dop:   5000, 40
BDS05 Init Dop:   5000, 40
BDS06 Init Dop:   5000, 40
BDS07 Init Dop:   5000, 40
BDS08 Init Dop:   5000, 40
BDS09 Init Dop:   5000, 40
BDS10 Init Dop:   5000, 40
BDS11 Init Dop:   5000, 40
BDS12 Init Dop:   5000, 40
BDS13 Init Dop:   5000, 40
BDS14 Init Dop:   5000, 40
BDS15 Init Dop:   5000, 40
BDS16 Init Dop:   5000, 40
BDS17 Init Dop:   5000, 40
BDS18 Init Dop:   5000, 40
BDS19 Init Dop:   5000, 40
BDS20 Init Dop:   5000, 40
BDS21 Init Dop:   5000, 40
BDS22 Init Dop:   5000, 40
BDS23 Init Dop:   5000, 40
BDS24 Init Dop:   5000, 40
BDS25 Init Dop:   5000, 40
BDS26 Init Dop:   5000, 40
BDS27 Init Dop:   5000, 40
BDS28 Init Dop:   5000, 40
BDS29 Init Dop:   5000, 40
BDS30 Init Dop:   5000, 40
BDS31 Init Dop:   5000, 40
good luck!
---00000001--- Acq_st=3 2019-5-22 03:02:56 
[00]  G04  1  7   -954.4 2046003.2 -0.1  0.0  1  0         0
$GNGGA,000000.000,,,,,0,00,,,M,,,,0000*2B
$GNRMC,000000.000,A,,,,,,,000000,,*26
$GPGSA,A,1,,,,,,,,,,,,,,,*1E
$BDGSA,A,1,,,,,,,,,,,,,,,*0F
$LOGTIM,0,0.000000,0.000000,0.000000,0.000000,0.000*0A
EndT:        0
---00000002--- Acq_st=3 2019-5-22 03:02:57 
[00]  G04  1 29   -921.8 2046001.3  0.3  0.0  1  0         8
[01]  G07  1 28  -3475.9 2046005.6 -0.1  0.0  1  0         0
[02]  G08  1 21  -1166.0 2046002.7  0.1  0.0  1  0         0
[03]  G09  1 20    256.9 2046001.9 -0.1  0.0  1  0         0
$GNGGA,000000.000,,,,,0,00,,,M,,,,0000*2B
$GNRMC,000000.000,A,,,,,,,000000,,*26
$GPGSA,A,1,,,,,,,,,,,,,,,*1E
$BDGSA,A,1,,,,,,,,,,,,,,,*0F
$LOGTIM,0,0.000000,0.000000,0.000000,0.000000,0.000*0A
EndT:        0
---00000003--- Acq_st=3 2019-5-22 03:02:58 
[00]  G04  7 40   -923.1 2046001.1  1.0  1.0  5  0         8
[01]  G07  7 28  -3478.0 2046004.5  0.3  0.0 10  0         1
[02]  G08  7 24  -1158.3 2046001.4  0.3  0.0 20  0         4
[03]  G09  7 14    249.6 2045999.6  0.3  0.0 20  0         9
[04]  G16  1 14   1256.1 2046001.5  0.0  0.0  1  0         0
$GNGGA,000000.000,,,,,0,00,,,M,,,,0000*2B
$GNRMC,000000.000,A,,,,,,,000000,,*26
$GPGSA,A,1,,,,,,,,,,,,,,,*1E
$BDGSA,A,1,,,,,,,,,,,,,,,*0F
$GPGSV,1,1,04,04,00,000,40,07,00,000,28,08,00,000,23,09,00,000,14*75
$LOGTIM,0,0.000000,0.000000,0.000000,0.000000,0.000*0A
EndT:        0
---00000004--- Acq_st=3 2019-5-22 03:02:59 
[00]  G04  7 43   -921.3 2046001.1  1.0  1.0  5  0        16
[01]  G07  7 46  -3476.3 2046004.5  1.0  1.0  5  0        17
[02]  G08  7 46  -1156.4 2046001.5  1.0  1.0  5  0         5
[03]  G09  7 44    251.6 2045999.6  1.0  1.0  5  0        18
[04]  G16  1 31   1239.1 2045998.5  0.0  0.0  1  0        17
$GNGGA,000000.000,,,,,0,00,,,M,,,,0000*2B
$GNRMC,000000.000,A,,,,,,,000000,,*26
$GPGSA,A,1,,,,,,,,,,,,,,,*1E
$BDGSA,A,1,,,,,,,,,,,,,,,*0F
$GPGSV,1,1,04,04,00,000,43,07,00,000,46,08,00,000,46,09,00,000,44*78
$LOGTIM,0,0.000000,0.000000,0.000000,0.000000,0.000*0A
EndT:        1
---00000005--- Acq_st=3 2019-5-22 03:03:0 
[00]  G04  7 44   -921.8 2046001.2  1.0  1.0  5  0        16
[01]  G07  7 45  -3477.5 2046004.5  1.0  1.0  5  0        17
[02]  G08  7 46  -1157.2 2046001.5  1.0  1.0  5  0         5
[03]  G09  7 45    250.6 2045999.6  1.0  1.0  5  0        18
[04]  G16  7 36   1237.5 2045998.3  0.8  1.0  5  0        17
[05]  G27  1  7   1073.0 2046000.9 -0.0  0.0  1  0         0
$GNGGA,000000.000,,,,,0,00,,,M,,,,0000*2B
$GNRMC,000000.000,A,,,,,,,000000,,*26
$GPGSA,A,1,,,,,,,,,,,,,,,*1E
$BDGSA,A,1,,,,,,,,,,,,,,,*0F
$GPGSV,2,1,05,04,00,000,44,07,00,000,45,08,00,000,46,09,00,000,45*7F
$GPGSV,2,2,05,16,00,000,36*4E
$LOGTIM,0,0.000000,0.000000,0.000000,0.000000,0.000*0A
EndT:        0
---00000006--- Acq_st=3 2019-5-22 03:03:1 
[00]  G04  f 44   -920.4 2046001.2  1.0  1.0  5  0        16
[01]  G07  f 45  -3476.3 2046004.5  1.0  1.0  5  0        17
[02]  G08  f 47  -1155.7 2046001.5  1.0  1.0  5  0         5
[03]  G09  f 44    252.1 2045999.6  1.0  1.0  5  0        18
[04]  G16  f 46   1238.2 2045998.3  1.0  1.0  5  0         1
[05]  G27  1 30   1134.8 2045998.5 -0.1  0.0  1  0         1
[06]  G30  1  9  -3782.7 2046004.1 -0.0  0.0  1  0         0
$GNGGA,000000.000,,,,,0,00,,,M,,,,0000*2B
$GNRMC,000000.000,A,,,,,,,000000,,*26
$GPGSA,A,1,,,,,,,,,,,,,,,*1E
$BDGSA,A,1,,,,,,,,,,,,,,,*0F
$GPGSV,2,1,05,04,00,000,44,07,00,000,45,08,00,000,47,09,00,000,44*7F
$GPGSV,2,2,05,16,00,000,46*49
$LOGTIM,0,0.000000,0.000000,0.000000,0.000000,0.000*0A
EndT:        0
---00000007--- Acq_st=3 2019-5-22 03:03:2 
[00]  G04  f 44   -916.5 2046001.2  1.0  1.0  5  0 270199596
[01]  G07  f 46  -3472.8 2046004.5  1.0  1.0  5  0 270199597
[02]  G08  f 46  -1151.8 2046001.5  1.0  1.0  5  0 270199605
[03]  G09  f 44    256.2 2045999.6  1.0  1.0  5  0 270199598
[04]  G16  f 45   1241.8 2045998.3  1.0  1.0  5  0 270199601
[05]  G27  7 38   1138.9 2045998.4  0.7  1.0  5  0         1
[06]  G30  1 16  -3762.6 2046004.4 -0.0  0.0  1  0        13
$GNGGA,000000.000,,,,,0,00,,,M,,,,0000*2B
$GNRMC,000000.000,A,,,,,,,000000,,*26
$GPGSA,A,1,,,,,,,,,,,,,,,*1E
$BDGSA,A,1,,,,,,,,,,,,,,,*0F
$GPGSV,2,1,06,04,00,000,44,07,00,000,46,08,00,000,46,09,00,000,44*7E
$GPGSV,2,2,06,16,00,000,45,27,00,000,38*77
$LOGTIM,0,0.000000,0.000000,0.000000,0.000000,0.000*0A
EndT:        1
---00000008--- Acq_st=3 2019-5-22 03:03:3 
[00]  G04  f 44   -913.0 2046001.2  1.0  1.0  5  0 270200596
[01]  G07  f 46  -3470.0 2046004.5  1.0  1.0  5  0 270200597
[02]  G08  f 46  -1148.6 2046001.5  1.0  1.0  5  0 270200605
[03]  G09  f 44    259.5 2045999.6  1.0  1.0  5  0 270200598
[04]  G16  f 46   1244.8 2045998.4  1.0  1.0  5  0 270200601
[05]  G27  7 47   1142.1 2045998.5  1.0  1.0  5  0         5
[06]  G30  1 13  -3830.4 2046004.7 -0.1  0.0  1  0        13
$GNGGA,000000.000,,,,,0,00,,,M,,,,0000*2B
$GNRMC,000000.000,A,,,,,,,000000,,*26
$GPGSA,A,1,,,,,,,,,,,,,,,*1E
$BDGSA,A,1,,,,,,,,,,,,,,,*0F
$GPGSV,2,1,06,04,00,000,44,07,00,000,46,08,00,000,46,09,00,000,44*7E
$GPGSV,2,2,06,16,00,000,46,27,00,000,47*7C
$LOGTIM,0,0.000000,0.000000,0.000000,0.000000,0.000*0A
EndT:        0
---00000009--- Acq_st=3 2019-5-22 03:03:4 
[00]  G04  f 44   -914.3 2046001.2  1.0  1.0  5  0 270201596
[01]  G07  f 46  -3471.5 2046004.5  1.0  1.0  5  0 270201597
[02]  G08  f 46  -1150.0 2046001.5  1.0  1.0  5  0 270201605
[03]  G09  f 44    258.0 2045999.6  1.0  1.0  5  0 270201598
[04]  G16  f 46   1242.8 2045998.4  1.0  1.0  5  0 270201601
[05]  G27  7 47   1140.5 2045998.5  1.0  1.0  5  0         5
[16]  B07  1  7   -605.3 4092002.6  0.0  0.0  1  0         0
$GNGGA,000000.000,,,,,0,00,,,M,,,,0000*2B
$GNRMC,000000.000,A,,,,,,,000000,,*26
$GPGSA,A,1,,,,,,,,,,,,,,,*1E
$BDGSA,A,1,,,,,,,,,,,,,,,*0F
$GPGSV,2,1,06,04,00,000,44,07,00,000,46,08,00,000,46,09,00,000,44*7E
$GPGSV,2,2,06,16,00,000,46,27,00,000,47*7C
$LOGTIM,0,0.000000,0.000000,0.000000,0.000000,0.000*0A
EndT:        0
---00000010--- Acq_st=3 2019-5-22 03:03:5 
[00]  G04  f 44   -914.0 2046001.2  1.0  1.0  5  0 270202596
[01]  G07  f 46  -3471.7 2046004.5  1.0  1.0  5  0 270202597
[02]  G08  f 46  -1149.6 2046001.5  1.0  1.0  5  0 270202605
[03]  G09  f 44    258.3 2045999.6  1.0  1.0  5  0 270202598
[04]  G16  f 46   1242.9 2045998.4  1.0  1.0  5  0 270202601
[05]  G27  7 47   1140.8 2045998.5  1.0  1.0  5  0         5
[16]  B07  7 27   -606.1 4092001.6  0.3  1.0 10  0       801
[17]  B10  1  7   -670.5 4092002.1  0.1  0.0  1  0         0
$GNGGA,000000.000,,,,,0,00,,,M,,,,0000*2B
$GNRMC,000000.000,A,,,,,,,000000,,*26
$GPGSA,A,1,,,,,,,,,,,,,,,*1E
$BDGSA,A,1,,,,,,,,,,,,,,,*0F
$GPGSV,2,1,06,04,00,000,44,07,00,000,46,08,00,000,46,09,00,000,44*7E
$GPGSV,2,2,06,16,00,000,46,27,00,000,47*7C
$BDGSV,1,1,01,07,00,000,27*5B
$LOGTIM,0,0.000000,0.000000,0.000000,0.000000,0.000*0A
EndT:        0
---00000011--- Acq_st=3 2019-5-22 03:03:6 
[00]  G04  f 44   -914.3 2046001.2  1.0  1.0  5  0 270203596
[01]  G07  f 46  -3472.5 2046004.5  1.0  1.0  5  0 270203597
[02]  G08  f 46  -1149.9 2046001.5  1.0  1.0  5  0 270203605
[03]  G09  f 44    258.0 2045999.6  1.0  1.0  5  0 270203598
[04]  G16  f 46   1242.1 2045998.4  1.0  1.0  5  0 270203601
[05]  G27  7 48   1140.4 2045998.5  1.0  1.0  5  0         5
[16]  B07  7 39   -607.6 4092001.6  1.0  1.0  5  0      1792
[17]  B10  7 26   -670.4 4092001.8  0.5  0.0 20  0       705
$GNGGA,000000.000,,,,,0,00,,,M,,,,0000*2B
$GNRMC,000000.000,A,,,,,,,000000,,*26
$GPGSA,A,1,,,,,,,,,,,,,,,*1E
$BDGSA,A,1,,,,,,,,,,,,,,,*0F
$GPGSV,2,1,06,04,00,000,44,07,00,000,46,08,00,000,46,09,00,000,44*7E
$GPGSV,2,2,06,16,00,000,46,27,00,000,48*73
$BDGSV,1,1,02,07,00,000,39,10,00,000,26*62
$LOGTIM,0,0.000000,0.000000,0.000000,0.000000,0.000*0A
EndT:        0
---00000012--- Acq_st=3 2019-5-22 03:03:7 
[00]  G04  f 44   -913.4 2046001.2  1.0  1.0  5  0 270204596
[01]  G07  f 46  -3471.9 2046004.5  1.0  1.0  5  0 270204597
[02]  G08  f 46  -1149.0 2046001.5  1.0  1.0  5  0 270204605
[03]  G09  f 44    258.8 2045999.6  1.0  1.0  5  0 270204598
[04]  G16  f 45   1242.6 2045998.4  1.0  1.0  5  0 270204601
[05]  G27  f 47   1141.2 2045998.5  1.0  1.0  5  0         5
[16]  B07  7 39   -607.3 4092001.6  1.0  1.0  5  0      2792
[17]  B10  7 43   -670.5 4092001.8  1.0  1.0  5  0      1689
$GNGGA,000000.000,,,,,0,00,,,M,,,,0000*2B
$GNRMC,000000.000,A,,,,,,,000000,,*26
$GPGSA,A,1,,,,,,,,,,,,,,,*1E
$BDGSA,A,1,,,,,,,,,,,,,,,*0F
$GPGSV,2,1,06,04,00,000,44,07,00,000,46,08,00,000,46,09,00,000,44*7E
$GPGSV,2,2,06,16,00,000,45,27,00,000,47*7F
$BDGSV,1,1,02,07,00,000,39,10,00,000,43*61
$LOGTIM,0,0.000000,0.000000,0.000000,0.000000,0.000*0A
EndT:        0
---00000013--- Acq_st=3 2019-5-22 03:03:8 
[00]  G04  f 44   -914.0 2046001.2  1.0  1.0  5  0 270205596
[01]  G07  f 46  -3473.4 2046004.5  1.0  1.0  5  0 270205597
[02]  G08  f 46  -1149.8 2046001.5  1.0  1.0  5  0 270205605
[03]  G09  f 44    258.2 2045999.6  1.0  1.0  5  0 270205598
[04]  G16  f 45   1241.2 2045998.4  1.0  1.0  5  0 270205601
[05]  G27  f 47   1140.1 2045998.5  1.0  1.0  5  0 270205605
[16]  B07  7 39   -607.8 4092001.5  1.0  1.0  5  0      3792
[17]  B10  7 43   -671.9 4092001.8  1.0  1.0  5  0      2689
$GNGGA,000000.000,,,,,0,00,,,M,,,,0000*2B
$GNRMC,000000.000,A,,,,,,,000000,,*26
$GPGSA,A,1,,,,,,,,,,,,,,,*1E
$BDGSA,A,1,,,,,,,,,,,,,,,*0F
$GPGSV,2,1,06,04,00,000,44,07,00,000,46,08,00,000,46,09,00,000,44*7E
$GPGSV,2,2,06,16,00,000,45,27,00,000,47*7F
$BDGSV,1,1,02,07,00,000,39,10,00,000,43*61
$LOGTIM,0,0.000000,0.000000,0.000000,0.000000,0.000*0A
EndT:        0
---00000014--- Acq_st=3 2019-5-22 03:03:9 
[00]  G04  f 44   -914.8 2046001.2  1.0  1.0  5  0 270206596
[01]  G07  f 46  -3474.3 2046004.5  1.0  1.0  5  0 270206597
[02]  G08  f 46  -1150.6 2046001.5  1.0  1.0  5  0 270206605
[03]  G09  f 44    257.3 2045999.7  1.0  1.0  5  0 270206598
[04]  G16  f 45   1240.2 2045998.4  1.0  1.0  5  0 270206601
[05]  G27  f 47   1139.5 2045998.5  1.0  1.0  5  0 270206605
[16]  B07 1f 39   -609.7 4092001.6  1.0  1.0  5  0      4792
[17]  B10 1f 43   -673.0 4092001.8  1.0  1.0  5  0      3689
$GNGGA,000000.000,,,,,0,00,,,M,,,,0000*2B
$GNRMC,000000.000,A,,,,,,,000000,,*26
$GPGSA,A,1,,,,,,,,,,,,,,,*1E
$BDGSA,A,1,,,,,,,,,,,,,,,*0F
$GPGSV,2,1,06,04,00,000,44,07,00,000,46,08,00,000,46,09,00,000,44*7E
$GPGSV,2,2,06,16,00,000,45,27,00,000,47*7F
$BDGSV,1,1,02,07,00,000,39,10,00,000,43*61
$LOGTIM,0,0.000000,0.000000,0.000000,0.000000,0.000*0A
EndT:        0
---00000015--- Acq_st=3 2019-5-22 03:03:10 
[00]  G04  f 43   -914.6 2046001.2  1.0  1.0  5  0 270207596
[01]  G07  f 46  -3474.5 2046004.5  1.0  1.0  5  0 270207597
[02]  G08  f 46  -1150.8 2046001.5  1.0  1.0  5  0 270207605
[03]  G09  f 44    257.5 2045999.7  1.0  1.0  5  0 270207598
[04]  G16  f 45   1239.5 2045998.4  1.0  1.0  5  0 270207601
[05]  G27  f 47   1139.3 2045998.5  1.0  1.0  5  0 270207605
[16]  B07 1f 39   -610.6 4092001.6  1.0  1.0  5  0 270193552
[17]  B10 1f 43   -673.7 4092001.7  1.0  1.0  5  0 270193549
$GNGGA,000000.000,,,,,0,00,,,M,,,,0000*2B
$GNRMC,000000.000,A,,,,,,,000000,,*26
$GPGSA,A,1,,,,,,,,,,,,,,,*1E
$BDGSA,A,1,,,,,,,,,,,,,,,*0F
$GPGSV,2,1,06,04,00,000,43,07,00,000,46,08,00,000,46,09,00,000,44*79
$GPGSV,2,2,06,16,00,000,45,27,00,000,47*7F
$BDGSV,1,1,02,07,00,000,39,10,00,000,43*61
$LOGTIM,0,0.000000,0.000000,0.000000,0.000000,0.000*0A
EndT:        0
---00000016--- Acq_st=3 2019-5-22 03:03:11 
[00]  G04  f 44   -914.8 2046001.2  1.0  1.0  5  0 270208596
[01]  G07  f 45  -3474.9 2046004.5  1.0  1.0  5  0 270208597
[02]  G08  f 46  -1150.4 2046001.5  1.0  1.0  5  0 270208605
[03]  G09  f 45    257.7 2045999.7  1.0  1.0  5  0 270208598
[04]  G16  f 45   1239.3 2045998.4  1.0  1.0  5  0 270208601
[05]  G27  f 48   1139.3 2045998.5  1.0  1.0  5  0 270208605
[16]  B07 1f 39   -610.9 4092001.6  1.0  1.0  5  0 270194552
[17]  B10 1f 43   -674.4 4092001.7  1.0  1.0  5  0 270194549
[18]  B28  1  7   1923.1 4091994.5 -0.0  0.0  1  0         0
$GNGGA,000000.000,,,,,0,00,,,M,,,,0000*2B
$GNRMC,000000.000,A,,,,,,,000000,,*26
$GPGSA,A,1,,,,,,,,,,,,,,,*1E
$BDGSA,A,1,,,,,,,,,,,,,,,*0F
$GPGSV,2,1,06,04,00,000,44,07,00,000,45,08,00,000,46,09,00,000,45*7C
$GPGSV,2,2,06,16,00,000,45,27,00,000,48*70
$BDGSV,1,1,02,07,00,000,39,10,00,000,43*61
$LOGTIM,0,0.000000,0.000000,0.000000,0.000000,0.000*0A
EndT:        0
---00000017--- Acq_st=3 2019-5-22 03:03:12 
[00]  G04  f 43   -914.6 2046001.2  1.0  1.0  5  0 270209596
[01]  G07  f 46  -3475.5 2046004.5  1.0  1.0  5  0 270209597
[02]  G08  f 46  -1150.8 2046001.5  1.0  1.0  5  0 270209605
[03]  G09  f 45    257.3 2045999.7  1.0  1.0  5  0 270209598
[04]  G16  f 45   1238.9 2045998.4  1.0  1.0  5  0 270209601
[05]  G27  f 47   1139.1 2045998.5  1.0  1.0  5  0 270209605
[16]  B07 1f 40   -611.5 4092001.6  1.0  1.0  5  0 270195552
[17]  B10 1f 43   -674.9 4092001.7  1.0  1.0  5  0 270195549
[18]  B28  1  7   1985.3 4091994.4  0.1  0.0  1  0       122
$GNGGA,000000.000,,,,,0,00,,,M,,,,0000*2B
$GNRMC,000000.000,A,,,,,,,000000,,*26
$GPGSA,A,1,,,,,,,,,,,,,,,*1E
$BDGSA,A,1,,,,,,,,,,,,,,,*0F
$GPGSV,2,1,06,04,00,000,43,07,00,000,46,08,00,000,46,09,00,000,45*78
$GPGSV,2,2,06,16,00,000,45,27,00,000,47*7F
$BDGSV,1,1,02,07,00,000,40,10,00,000,43*6F
$LOGTIM,0,0.000000,0.000000,0.000000,0.000000,0.000*0A
EndT:        0
---00000018--- Acq_st=7 2019-5-22 03:03:13 
[00]  G04  f 43   -915.3 2046001.2  1.0  1.0  5  0 270210596
[01]  G07  f 45  -3476.6 2046004.5  1.0  1.0  5  0 270210597
[02]  G08  f 46  -1151.2 2046001.5  1.0  1.0  5  0 270210605
[03]  G09  f 44    256.7 2045999.6  1.0  1.0  5  0 270210598
[04]  G16  f 45   1237.6 2045998.4  1.0  1.0  5  0 270210601
[05]  G27  f 47   1138.5 2045998.5  1.0  1.0  5  0 270210605
[16]  B07 1f 40   -612.4 4092001.6  1.0  1.0  5  0 270196552
[17]  B10 1f 43   -676.2 4092001.8  1.0  1.0  5  0 270196549
[18]  B28  7 34   1984.7 4091994.8  0.7  1.0  5  0      1122
$GNGGA,000000.000,,,,,0,00,,,M,,,,0000*2B
$GNRMC,000000.000,A,,,,,,,000000,,*26
$GPGSA,A,1,,,,,,,,,,,,,,,*1E
$BDGSA,A,1,,,,,,,,,,,,,,,*0F
$GPGSV,2,1,06,04,00,000,43,07,00,000,45,08,00,000,46,09,00,000,44*7A
$GPGSV,2,2,06,16,00,000,45,27,00,000,47*7F
$BDGSV,1,1,03,07,00,000,40,10,00,000,43,28,00,000,34*53
$LOGTIM,0,0.000000,0.000000,0.000000,0.000000,0.000*0A
EndT:        0
---00000019--- Acq_st=7 2019-5-22 03:03:14 
[00]  G04  f 43   -916.2 2046001.2  1.0  1.0  5  0 270211596
[01]  G07  f 45  -3477.9 2046004.5  1.0  1.0  5  0 270211597
[02]  G08  f 46  -1152.4 2046001.5  1.0  1.0  5  0 270211605
[03]  G09  f 45    255.6 2045999.7  1.0  1.0  5  0 270211598
[04]  G16  f 45   1236.3 2045998.4  1.0  1.0  5  0 270211601
[05]  G27  f 48   1137.1 2045998.5  1.0  1.0  5  0 270211605
[16]  B07 1f 40   -614.1 4092001.6  1.0  1.0  5  0 270197552
[17]  B10 1f 43   -677.8 4092001.8  1.0  1.0  5  0 270197549
[18]  B28  7 46   1983.1 4091994.8  1.0  1.0  5  0      2115
$GNGGA,000000.000,,,,,0,00,,,M,,,,0000*2B
$GNRMC,000000.000,A,,,,,,,000000,,*26
$GPGSA,A,1,,,,,,,,,,,,,,,*1E
$BDGSA,A,1,,,,,,,,,,,,,,,*0F
$GPGSV,2,1,06,04,00,000,43,07,00,000,45,08,00,000,46,09,00,000,45*7B
$GPGSV,2,2,06,16,00,000,45,27,00,000,48*70
$BDGSV,1,1,03,07,00,000,40,10,00,000,43,28,00,000,46*56
$LOGTIM,0,0.000000,0.000000,0.000000,0.000000,0.000*0A
EndT:        0
---00000020--- Acq_st=3 2019-5-22 03:03:15 
[00]  G04  f 43   -914.2 2046001.2  1.0  1.0  5  0 270212596
[01]  G07  f 45  -3476.7 2046004.5  1.0  1.0  5  0 270212597
[02]  G08  f 46  -1150.7 2046001.5  1.0  1.0  5  0 270212605
[03]  G09  f 44    257.8 2045999.7  1.0  1.0  5  0 270212598
[04]  G16  f 45   1237.6 2045998.4  1.0  1.0  5  0 270212601
[05]  G27  f 48   1139.1 2045998.5  1.0  1.0  5  0 270212605
[16]  B07 1f 39   -613.0 4092001.6  1.0  0.9  5  0 270198552
[17]  B10 1f 43   -676.8 4092001.8  1.0  1.0  5  0 270198549
[18]  B28 1f 46   1984.7 4091994.8  1.0  1.0  5  0      3115
$GNGGA,000000.000,,,,,0,00,,,M,,,,0000*2B
$GNRMC,000000.000,A,,,,,,,000000,,*26
$GPGSA,A,1,,,,,,,,,,,,,,,*1E
$BDGSA,A,1,,,,,,,,,,,,,,,*0F
$GPGSV,2,1,06,04,00,000,43,07,00,000,45,08,00,000,46,09,00,000,44*7A
$GPGSV,2,2,06,16,00,000,45,27,00,000,48*70
$BDGSV,1,1,03,07,00,000,39,10,00,000,43,28,00,000,46*58
$LOGTIM,0,0.000000,0.000000,0.000000,0.000000,0.000*0A
EndT:        0
---00000021--- Acq_st=3 2019-5-22 03:03:16 
[00]  G04  f 44   -915.8 2046001.2  1.0  1.0  5  0 270213596
[01]  G07  f 45  -3478.2 2046004.5  1.0  1.0  5  0 270213597
[02]  G08  f 46  -1152.2 2046001.5  1.0  1.0  5  0 270213605
[03]  G09  f 44    256.2 2045999.7  1.0  1.0  5  0 270213598
[04]  G16  f 45   1235.5 2045998.4  1.0  1.0  5  0 270213601
[05]  G27  f 48   1137.6 2045998.5  1.0  1.0  5  0 270213605
[16]  B07 1f 40   -614.6 4092001.6  1.0  1.0  5  0 270199552
[17]  B10 1f 43   -678.4 4092001.7  1.0  1.0  5  0 270199549
[18]  B28 1f 46   1983.5 4091994.8  1.0  1.0  5  0 270199595
$GNGGA,000000.000,,,,,0,00,,,M,,,,0000*2B
$GNRMC,000000.000,A,,,,,,,000000,,*26
$GPGSA,A,1,,,,,,,,,,,,,,,*1E
$BDGSA,A,1,,,,,,,,,,,,,,,*0F
$GPGSV,2,1,06,04,00,000,44,07,00,000,45,08,00,000,46,09,00,000,44*7D
$GPGSV,2,2,06,16,00,000,45,27,00,000,48*70
$BDGSV,1,1,03,07,00,000,40,10,00,000,43,28,00,000,46*56
$LOGTIM,0,0.000000,0.000000,0.000000,0.000000,0.000*0A
EndT:        0
---00000022--- Acq_st=3 2019-5-22 03:03:17 
[00]  G04  f 44   -916.6 2046001.2  1.0  1.0  5  0 270214596
[01]  G07  f 45  -3479.6 2046004.5  1.0  1.0  5  0 270214597
[02]  G08  f 47  -1153.0 2046001.5  1.0  1.0  5  0 270214605
[03]  G09  f 44    255.5 2045999.7  1.0  1.0  5  0 270214598
[04]  G16  f 45   1234.3 2045998.4  1.0  1.0  5  0 270214601
[05]  G27  f 48   1136.4 2045998.5  1.0  1.0  5  0 270214605
[16]  B07 1f 39   -616.7 4092001.6  1.0  1.0  5  0 270200552
[17]  B10 1f 43   -680.0 4092001.8  1.0  1.0  5  0 270200549
[18]  B28 1f 46   1982.0 4091994.8  1.0  1.0  5  0 270200595
$GNGGA,000000.000,,,,,0,00,,,M,,,,0000*2B
$GNRMC,000000.000,A,,,,,,,000000,,*26
$GPGSA,A,1,,,,,,,,,,,,,,,*1E
$BDGSA,A,1,,,,,,,,,,,,,,,*0F
$GPGSV,2,1,06,04,00,000,44,07,00,000,45,08,00,000,47,09,00,000,44*7C
$GPGSV,2,2,06,16,00,000,45,27,00,000,48*70
$BDGSV,1,1,03,07,00,000,39,10,00,000,43,28,00,000,46*58
$LOGTIM,0,0.000000,0.000000,0.000000,0.000000,0.000*0A
EndT:        0
---00000023--- Acq_st=3 2019-5-22 03:03:18 
[00]  G04  f 44   -912.5 2046001.2  1.0  1.0  5  0 270215596
[01]  G07  f 44  -3476.0 2046004.5  1.0  1.0  5  0 270215597
[02]  G08  f 47  -1149.0 2046001.5  1.0  1.0  5  0 270215605
[03]  G09  f 44    259.1 2045999.7  1.0  1.0  5  0 270215598
[04]  G16  f 46   1237.8 2045998.4  1.0  1.0  5  0 270215601
[05]  G27  f 48   1140.4 2045998.5  1.0  1.0  5  0 270215605
[16]  B07 1f 39   -613.5 4092001.6  1.0  1.0  5  0 270201552
[17]  B10 1f 43   -676.8 4092001.7  1.0  1.0  5  0 270201549
[18]  B28 1f 45   1985.8 4091994.8  1.0  1.0  5  0 270201595
$GNGGA,000000.000,,,,,0,00,,,M,,,,0000*2B
$GNRMC,000000.000,A,,,,,,,000000,,*26
$GPGSA,A,1,,,,,,,,,,,,,,,*1E
$BDGSA,A,1,,,,,,,,,,,,,,,*0F
$GPGSV,2,1,06,04,00,000,44,07,00,000,44,08,00,000,47,09,00,000,44*7D
$GPGSV,2,2,06,16,00,000,46,27,00,000,48*73
$BDGSV,1,1,03,07,00,000,39,10,00,000,43,28,00,000,45*5B
$LOGTIM,0,0.000000,0.000000,0.000000,0.000000,0.000*0A
EndT:        0
---00000024--- Acq_st=3 2019-5-22 03:03:19 
[00]  G04  f 44   -912.9 2046001.2  1.0  1.0  5  0 270216596
[01]  G07  f 45  -3476.6 2046004.5  1.0  1.0  5  0 270216597
[02]  G08  f 47  -1149.2 2046001.5  1.0  1.0  5  0 270216605
[03]  G09  f 44    259.4 2045999.7  1.0  1.0  5  0 270216598
[04]  G16  f 45   1237.3 2045998.4  1.0  1.0  5  0 270216601
[05]  G27  f 48   1140.0 2045998.5  1.0  1.0  5  0 270216605
[16]  B07 1f 39   -613.7 4092001.6  1.0  1.0  5  0 270202552
[17]  B10 1f 43   -677.2 4092001.8  1.0  1.0  5  0 270202549
[18]  B28 1f 46   1985.4 4091994.8  1.0  1.0  5  0 270202595
$GNGGA,000000.000,,,,,0,00,,,M,,,,0000*2B
$GNRMC,000000.000,A,,,,,,,000000,,*26
$GPGSA,A,1,,,,,,,,,,,,,,,*1E
$BDGSA,A,1,,,,,,,,,,,,,,,*0F
$GPGSV,2,1,06,04,00,000,44,07,00,000,45,08,00,000,47,09,00,000,44*7C
$GPGSV,2,2,06,16,00,000,45,27,00,000,48*70
$BDGSV,1,1,03,07,00,000,39,10,00,000,43,28,00,000,46*58
$LOGTIM,0,0.000000,0.000000,0.000000,0.000000,0.000*0A
EndT:        0
---00000025--- Acq_st=3 2019-5-22 03:03:20 
[00]  G04  f 44   -909.2 2046001.2  1.0  1.0  5  0 270217596
[01]  G07  f 44  -3473.4 2046004.5  1.0  1.0  5  0 270217597
[02]  G08  f 47  -1146.0 2046001.5  1.0  1.0  5  0 270217605
[03]  G09  f 45    262.5 2045999.6  1.0  1.0  5  0 270217598
[04]  G16  f 45   1240.1 2045998.4  1.0  1.0  5  0 270217601
[05]  G27  f 48   1143.4 2045998.5  1.0  1.0  5  0 270217605
[16]  B07 1f 39   -611.4 4092001.6  1.0  1.0  5  0 270203552
[17]  B10 1f 43   -674.8 4092001.8  1.0  1.0  5  0 270203549
[18]  B28 1f 45   1988.3 4091994.8  1.0  1.0  5  0 270203595
$GNGGA,000000.000,,,,,0,00,,,M,,,,0000*2B
$GNRMC,000000.000,A,,,,,,,000000,,*26
$GPGSA,A,1,,,,,,,,,,,,,,,*1E
$BDGSA,A,1,,,,,,,,,,,,,,,*0F
$GPGSV,2,1,06,04,00,000,44,07,00,000,44,08,00,000,47,09,00,000,45*7C
$GPGSV,2,2,06,16,00,000,45,27,00,000,48*70
$BDGSV,1,1,03,07,00,000,39,10,00,000,43,28,00,000,45*5B
$LOGTIM,0,0.000000,0.000000,0.000000,0.000000,0.000*0A
EndT:        0
---00000026--- Acq_st=3 2019-5-22 03:03:21 
[00]  G04  f 43   -911.0 2046001.2  1.0  1.0  5  0 270218596
[01]  G07  f 45  -3475.3 2046004.5  1.0  1.0  5  0 270218597
[02]  G08  f 47  -1147.5 2046001.5  1.0  1.0  5  0 270218605
[03]  G09  f 45    261.4 2045999.7  1.0  1.0  5  0 270218598
[04]  G16  f 45   1238.4 2045998.4  1.0  1.0  5  0 270218601
[05]  G27  f 48   1141.9 2045998.5  1.0  1.0  5  0 270218605
[16]  B07 1f 40   -613.2 4092001.6  1.0  1.0  5  0 270204552
[17]  B10 1f 43   -676.6 4092001.7  1.0  1.0  5  0 270204549
[18]  B28 1f 46   1986.8 4091994.8  1.0  1.0  5  0 270204595
$GNGGA,000000.000,,,,,0,00,,,M,,,,0000*2B
$GNRMC,000000.000,A,,,,,,,000000,,*26
$GPGSA,A,1,,,,,,,,,,,,,,,*1E
$BDGSA,A,1,,,,,,,,,,,,,,,*0F
$GPGSV,2,1,06,04,00,000,43,07,00,000,45,08,00,000,47,09,00,000,45*7A
$GPGSV,2,2,06,16,00,000,45,27,00,000,48*70
$BDGSV,1,1,03,07,00,000,40,10,00,000,43,28,00,000,46*56
$LOGTIM,0,0.000000,0.000000,0.000000,0.000000,0.000*0A
EndT:        0
---00000027--- Acq_st=3 2019-5-22 03:03:22 
[00]  G04  f 44   -911.4 2046001.2  1.0  1.0  5  0 270219596
[01]  G07  f 45  -3476.7 2046004.5  1.0  1.0  5  0 270219597
[02]  G08  f 46  -1148.3 2046001.5  1.0  1.0  5  0 270219605
[03]  G09  f 45    260.3 2045999.7  1.0  1.0  5  0 270219598
[04]  G16  f 45   1237.1 2045998.4  1.0  1.0  5  0 270219601
[05]  G27  f 48   1140.8 2045998.5  1.0  1.0  5  0 270219605
[16]  B07 1f 39   -614.3 4092001.6  1.0  1.0  5  0 270205552
[17]  B10 1f 43   -678.0 4092001.8  1.0  1.0  5  0 270205549
[18]  B28 1f 45   1985.6 4091994.8  1.0  1.0  5  0 270205595
$GNGGA,000000.000,,,,,0,00,,,M,,,,0000*2B
$GNRMC,000000.000,A,,,,,,,000000,,*26
$GPGSA,A,1,,,,,,,,,,,,,,,*1E
$BDGSA,A,1,,,,,,,,,,,,,,,*0F
$GPGSV,2,1,06,04,00,000,44,07,00,000,45,08,00,000,46,09,00,000,45*7C
$GPGSV,2,2,06,16,00,000,45,27,00,000,48*70
$BDGSV,1,1,03,07,00,000,39,10,00,000,43,28,00,000,45*5B
$LOGTIM,0,0.000000,0.000000,0.000000,0.000000,0.000*0A
EndT:        0
---00000028--- Acq_st=3 2019-5-22 03:03:23 
[00]  G04  f 44   -910.0 2046001.2  1.0  1.0  5  0 270220596
[01]  G07  f 46  -3475.6 2046004.5  1.0  1.0  5  0 270220597
[02]  G08  f 47  -1146.8 2046001.5  1.0  1.0  5  0 270220605
[03]  G09  f 44    261.6 2045999.7  1.0  1.0  5  0 270220598
[04]  G16  f 45   1238.0 2045998.4  1.0  1.0  5  0 270220601
[05]  G27  f 48   1142.4 2045998.5  1.0  1.0  5  0 270220605
[16]  B07 1f 39   -613.9 4092001.6  1.0  1.0  5  0 270206552
[17]  B10 1f 43   -677.2 4092001.8  1.0  1.0  5  0 270206549
[18]  B28 1f 46   1986.8 4091994.8  1.0  1.0  5  0 270206595
$GNGGA,000000.000,,,,,0,00,,,M,,,,0000*2B
$GNRMC,000000.000,A,,,,,,,000000,,*26
$GPGSA,A,1,,,,,,,,,,,,,,,*1E
$BDGSA,A,1,,,,,,,,,,,,,,,*0F
$GPGSV,2,1,06,04,00,000,44,07,00,000,46,08,00,000,47,09,00,000,44*7F
$GPGSV,2,2,06,16,00,000,45,27,00,000,48*70
$BDGSV,1,1,03,07,00,000,39,10,00,000,43,28,00,000,46*58
$LOGTIM,0,0.000000,0.000000,0.000000,0.000000,0.000*0A
EndT:        0
---00000029--- Acq_st=3 2019-5-22 03:03:24 
[00]  G04  f 43   -909.5 2046001.2  1.0  1.0  5  0 270221596
[01]  G07  f 46  -3475.7 2046004.5  1.0  1.0  5  0 270221597
[02]  G08  f 47  -1146.6 2046001.5  1.0  1.0  5  0 270221605
[03]  G09  f 44    262.3 2045999.7  1.0  1.0  5  0 270221598
[04]  G16  f 45   1237.9 2045998.4  1.0  1.0  5  0 270221601
[05]  G27  f 48   1142.5 2045998.5  1.0  1.0  5  0 270221605
[16]  B07 1f 39   -613.8 4092001.6  1.0  1.0  5  0 270207552
[17]  B10 1f 43   -678.0 4092001.8  1.0  1.0  5  0 270207549
[18]  B28 1f 46   1987.0 4091994.8  1.0  1.0  5  0 270207595
$GNGGA,000000.000,,,,,0,00,,,M,,,,0000*2B
$GNRMC,000000.000,A,,,,,,,000000,,*26
$GPGSA,A,1,,,,,,,,,,,,,,,*1E
$BDGSA,A,1,,,,,,,,,,,,,,,*0F
$GPGSV,2,1,06,04,00,000,43,07,00,000,46,08,00,000,47,09,00,000,44*78
$GPGSV,2,2,06,16,00,000,45,27,00,000,48*70
$BDGSV,1,1,03,07,00,000,39,10,00,000,43,28,00,000,46*58
$LOGTIM,0,0.000000,0.000000,0.000000,0.000000,0.000*0A
EndT:        0
---00000030--- Acq_st=3 2019-5-22 03:03:25 
[00]  G04  f 44   -906.6 2046001.2  1.0  1.0  5  0 270222596
[01]  G07  f 46  -3473.3 2046004.5  1.0  1.0  5  0 270222597
[02]  G08  f 47  -1144.0 2046001.5  1.0  1.0  5  0 270222605
[03]  G09  f 44    264.6 2045999.7  1.0  1.0  5  0 270222598
[04]  G16  f 45   1240.1 2045998.4  1.0  1.0  5  0 270222601
[05]  G27  f 48   1145.1 2045998.5  1.0  1.0  5  0 270222605
[16]  B07 1f 39   -612.3 4092001.6  1.0  1.0  5  0 270208552
[17]  B10 1f 43   -675.8 4092001.8  1.0  1.0  5  0 270208549
[18]  B28 1f 46   1989.3 4091994.8  1.0  1.0  5  0 270208595
$GNGGA,000000.000,,,,,0,00,,,M,,,,0000*2B
$GNRMC,000000.000,A,,,,,,,000000,,*26
$GPGSA,A,1,,,,,,,,,,,,,,,*1E
$BDGSA,A,1,,,,,,,,,,,,,,,*0F
$GPGSV,2,1,06,04,00,000,44,07,00,000,46,08,00,000,47,09,00,000,44*7F
$GPGSV,2,2,06,16,00,000,45,27,00,000,48*70
$BDGSV,1,1,03,07,00,000,39,10,00,000,43,28,00,000,46*58
$LOGTIM,0,0.000000,0.000000,0.000000,0.000000,0.000*0A
EndT:        0
---00000031--- Acq_st=3 2019-5-22 03:03:26 
[00]  G04  f 45   -905.8 2046001.2  1.0  1.0  5  0 270223596
[01]  G07  f 45  -3472.6 2046004.5  1.0  1.0  5  0 270223597
[02]  G08  f 47  -1142.8 2046001.5  1.0  1.0  5  0 270223605
[03]  G09  f 44    265.8 2045999.6  1.0  1.0  5  0 270223598
[04]  G16  f 46   1240.6 2045998.4  1.0  1.0  5  0 270223601
[05]  G27  f 49   1146.1 2045998.5  1.0  1.0  5  0 270223605
[16]  B07 1f 39   -611.2 4092001.6  1.0  1.0  5  0 270209552
[17]  B10 1f 43   -675.2 4092001.7  1.0  1.0  5  0 270209549
[18]  B28 1f 46   1990.1 4091994.8  1.0  1.0  5  0 270209595
$GNGGA,000000.000,,,,,0,00,,,M,,,,0000*2B
$GNRMC,000000.000,A,,,,,,,000000,,*26
$GPGSA,A,1,,,,,,,,,,,,,,,*1E
$BDGSA,A,1,,,,,,,,,,,,,,,*0F
$GPGSV,2,1,06,04,00,000,45,07,00,000,45,08,00,000,47,09,00,000,44*7D
$GPGSV,2,2,06,16,00,000,46,27,00,000,49*72
$BDGSV,1,1,03,07,00,000,39,10,00,000,43,28,00,000,46*58
$LOGTIM,0,0.000000,0.000000,0.000000,0.000000,0.000*0A
EndT:        0
---00000032--- Acq_st=3 2019-5-22 03:03:27 
[00]  G04  f 44   -902.2 2046001.2  1.0  1.0  5  0 270224596
[01]  G07  f 46  -3469.4 2046004.5  1.0  1.0  5  0 270224597
[02]  G08  f 48  -1139.3 2046001.5  1.0  1.0  5  0 270224605
[03]  G09  f 44    269.7 2045999.7  1.0  1.0  5  0 270224598
[04]  G16  f 45   1243.7 2045998.4  1.0  1.0  5  0 270224601
[05]  G27  f 48   1149.6 2045998.5  1.0  1.0  5  0 270224605
[16]  B07 1f 39   -608.3 4092001.6  1.0  1.0  5  0 270210552
[17]  B10 1f 43   -672.0 4092001.8  1.0  1.0  5  0 270210549
[18]  B28 1f 46   1993.7 4091994.8  1.0  1.0  5  0 270210595
$GNGGA,000000.000,,,,,0,00,,,M,,,,0000*2B
$GNRMC,000000.000,A,,,,,,,000000,,*26
$GPGSA,A,1,,,,,,,,,,,,,,,*1E
$BDGSA,A,1,,,,,,,,,,,,,,,*0F
$GPGSV,2,1,06,04,00,000,44,07,00,000,46,08,00,000,48,09,00,000,44*70
$GPGSV,2,2,06,16,00,000,45,27,00,000,48*70
$BDGSV,1,1,03,07,00,000,39,10,00,000,43,28,00,000,46*58
$LOGTIM,0,0.000000,0.000000,0.000000,0.000000,0.000*0A
EndT:        0
---00000033--- Acq_st=3 2019-5-22 03:03:28 
[00]  G04  f 44   -901.3 2046001.2  1.0  1.0  5  0 270225596
[01]  G07  f 46  -3469.2 2046004.5  1.0  1.0  5  0 270225597
[02]  G08  f 47  -1138.6 2046001.5  1.0  1.0  5  0 270225605
[03]  G09  f 43    270.2 2045999.6  1.0  1.0  5  0 270225598
[04]  G16  f 45   1244.0 2045998.4  1.0  1.0  5  0 270225601
[05]  G27  f 48   1150.2 2045998.5  1.0  1.0  5  0 270225605
[16]  B07 1f 39   -609.1 4092001.6  1.0  1.0  5  0 270211552
[17]  B10 1f 43   -672.3 4092001.8  1.0  1.0  5  0 270211549
[18]  B28 1f 46   1994.0 4091994.8  1.0  1.0  5  0 270211595
[19]  B27  1  7   -933.9 4092003.1 -0.1  0.0  1  0         0
$GNGGA,000000.000,,,,,0,00,,,M,,,,0000*2B
$GNRMC,000000.000,A,,,,,,,000000,,*26
$GPGSA,A,1,,,,,,,,,,,,,,,*1E
$BDGSA,A,1,,,,,,,,,,,,,,,*0F
$GPGSV,2,1,06,04,00,000,44,07,00,000,46,08,00,000,47,09,00,000,43*78
$GPGSV,2,2,06,16,00,000,45,27,00,000,48*70
$BDGSV,1,1,03,07,00,000,39,10,00,000,43,28,00,000,46*58
$LOGTIM,0,0.000000,0.000000,0.000000,0.000000,0.000*0A
EndT:        0
---00000034--- Acq_st=3 2019-5-22 03:03:29 
[00]  G04  f 44   -900.5 2046001.2  1.0  1.0  5  0 270226596
[01]  G07  f 45  -3469.1 2046004.5  1.0  1.0  5  0 270226597
[02]  G08  f 47  -1138.0 2046001.5  1.0  1.0  5  0 270226605
[03]  G09  f 44    270.9 2045999.7  1.0  1.0  5  0 270226598
[04]  G16  f 45   1244.0 2045998.4  1.0  1.0  5  0 270226601
[05]  G27  f 49   1150.7 2045998.5  1.0  1.0  5  0 270226605
[16]  B07 1f 39   -608.3 4092001.6  1.0  1.0  5  0 270212552
[17]  B10 1f 43   -671.8 4092001.7  1.0  1.0  5  0 270212549
[18]  B28 1f 46   1994.3 4091994.8  1.0  1.0  5  0 270212595
[19]  B27  1  7   -884.0 4092002.6  0.1  0.0  1  0       309
$GNGGA,000000.000,,,,,0,00,,,M,,,,0000*2B
$GNRMC,000000.000,A,,,,,,,000000,,*26
$GPGSA,A,1,,,,,,,,,,,,,,,*1E
$BDGSA,A,1,,,,,,,,,,,,,,,*0F
$GPGSV,2,1,06,04,00,000,44,07,00,000,45,08,00,000,47,09,00,000,44*7C
$GPGSV,2,2,06,16,00,000,45,27,00,000,49*71
$BDGSV,1,1,03,07,00,000,39,10,00,000,43,28,00,000,46*58
$LOGTIM,0,0.000000,0.000000,0.000000,0.000000,0.000*0A
EndT:        0
---00000035--- Acq_st=7 2019-5-22 03:03:30 
[00]  G04  f 45   -898.9 2046001.2  1.0  1.0  5 3f 270227596
[01]  G07  f 46  -3467.7 2046004.5  1.0  1.0  5  0 270227597
[02]  G08  f 48  -1136.5 2046001.5  1.0  1.0  5  0 270227605
[03]  G09  f 43    272.6 2045999.6  1.0  1.0  5  0 270227598
[04]  G16  f 45   1245.6 2045998.4  1.0  1.0  5  0 270227601
[05]  G27  f 48   1152.3 2045998.5  1.0  1.0  5  0 270227605
[16]  B07 1f 39   -607.5 4092001.6  1.0  1.0  5  0 270213552
[17]  B10 1f 43   -670.7 4092001.8  1.0  1.0  5  0 270213549
[18]  B28 1f 45   1995.9 4091994.8  1.0  1.0  5  0 270213595
[19]  B27  7 35   -882.3 4092002.3  0.8  1.0  5  0      1301
lsq: nits= 4
$GNGGA,030330.674,3112.7191,N,12136.4335,E,1,05,2.7,39.8,M,,,,0000*2C
$GNRMC,030330.674,A,3112.7191,N,12136.4335,E,0.03,0.00,220519,,*1C
$GPGSA,A,3,07,08,09,16,27,,,,,,,,4.6,2.7,3.7*35
$BDGSA,A,3,,,,,,,,,,,,,4.6,2.7,3.7*20
$GPGSV,2,1,06,04,00,000,45,07,00,000,46,08,00,000,48,09,00,000,43*76
$GPGSV,2,2,06,16,00,000,45,27,00,000,48*70
$BDGSV,1,1,04,07,00,000,39,10,00,000,43,28,00,000,45,27,00,000,35*6F
$LOGTIM,1,9508943.213105,0.000000,0.000000,0.000000,-62.502*1B
EndT:        1
---00000036--- Acq_st=7 2019-5-22 03:03:31 
[00]  G04  f 44   -901.6 2046001.2  1.0  1.0  5 3f 270228596
[01]  G07  f 45  -3470.7 2046004.5  1.0  1.0  5  0 270228597
[02]  G08  f 48  -1139.1 2046001.5  1.0  1.0  5  0 270228605
[03]  G09  f 43    269.9 2045999.6  1.0  1.0  5  0 270228598
[04]  G16  f 45   1242.5 2045998.4  1.0  1.0  5  0 270228601
[05]  G27  f 49   1149.5 2045998.5  1.0  1.0  5  0 270228605
[16]  B07 1f 39   -610.4 4092001.6  1.0  1.0  5  0 270214552
[17]  B10 1f 43   -674.1 4092001.7  1.0  1.0  5  0 270214549
[18]  B28 1f 45   1992.8 4091994.7  1.0  1.0  5  0 270214595
[19]  B27  7 37   -885.6 4092002.3  1.0  1.0  5  0      2301
lsq: nits= 2
$GNGGA,030332.000,3112.7197,N,12136.4340,E,1,05,2.7,37.2,M,,,,0000*2B
$GNRMC,030332.000,A,3112.7197,N,12136.4340,E,0.22,0.00,220519,,*1C
$GPGSA,A,3,07,08,09,16,27,,,,,,,,4.5,2.7,3.7*36
$BDGSA,A,3,,,,,,,,,,,,,4.5,2.7,3.7*23
$GPGSV,2,1,06,04,00,000,44,07,00,000,45,08,00,000,48,09,00,000,43*74
$GPGSV,2,2,06,16,00,000,45,27,00,000,49*71
$BDGSV,1,1,04,07,00,000,39,10,00,000,43,28,00,000,45,27,00,000,37*6D
$LOGTIM,1,-85.658145,0.000000,0.000000,0.000000,-63.524*0B
EndT:        2
---00000037--- Acq_st=7 2019-5-22 03:03:32 
[00]  G04  f 44   -903.2 2046001.2  1.0  1.0  5 3f 270229922
[01]  G07  f 45  -3472.9 2046004.5  1.0  1.0  5  0 270229923
[02]  G08  f 48  -1140.9 2046001.5  1.0  1.0  5  0 270229931
[03]  G09  f 43    268.1 2045999.7  1.0  1.0  5  0 270229924
[04]  G16  f 45   1240.1 2045998.4  1.0  1.0  5  0 270229927
[05]  G27  f 49   1147.7 2045998.5  1.0  1.0  5  0 270229931
[16]  B07 1f 39   -613.3 4092001.6  1.0  1.0  5  0 270215878
[17]  B10 1f 43   -676.9 4092001.8  1.0  1.0  5  0 270215875
[18]  B28 1f 45   1990.7 4091994.8  1.0  1.0  5  0 270215921
[19]  B27  7 37   -887.3 4092002.3  1.0  1.0  5  0      3628
lsq: nits= 2
$GNGGA,030333.000,3112.7194,N,12136.4344,E,1,05,2.7,34.6,M,,,,0000*2A
$GNRMC,030333.000,A,3112.7194,N,12136.4344,E,0.26,0.00,220519,,*1E
$GPGSA,A,3,07,08,09,16,27,,,,,,,,4.5,2.7,3.7*36
$BDGSA,A,3,,,,,,,,,,,,,4.5,2.7,3.7*23
$GPGSV,2,1,06,04,00,000,44,07,30,317,45,08,69,251,48,09,30,272,43*7F
$GPGSV,2,2,06,16,42,051,45,27,67,024,49*74
$BDGSV,1,1,04,07,66,007,39,10,00,000,43,28,00,000,45,27,00,000,37*6A
$LOGTIM,1,-151.882844,0.000000,0.000000,0.000000,-63.896*36
EndT:        2
---00000038--- Acq_st=3 2019-5-22 03:03:33 
[00]  G04  f 44   -903.4 2046001.2  1.0  1.0  5 3f 270230922
[01]  G07  f 45  -3473.4 2046004.5  1.0  1.0  5  0 270230923
[02]  G08  f 48  -1141.2 2046001.5  1.0  1.0  5  0 270230931
[03]  G09  f 43    268.2 2045999.6  1.0  1.0  5  0 270230924
[04]  G16  f 45   1239.6 2045998.4  1.0  1.0  5  0 270230927
[05]  G27  f 49   1147.4 2045998.5  1.0  1.0  5  0 270230931
[16]  B07 1f 39   -613.7 4092001.6  1.0  1.0  5  0 270216878
[17]  B10 1f 43   -677.5 4092001.8  1.0  1.0  5  0 270216875
[18]  B28 1f 46   1990.1 4091994.8  1.0  1.0  5  0 270216921
[19]  B27 1f 37   -887.6 4092002.3  1.0  1.0  5  0      4628
lsq: nits= 2
$GNGGA,030334.000,3112.7188,N,12136.4349,E,1,05,2.7,32.0,M,,,,0000*2D
$GNRMC,030334.000,A,3112.7188,N,12136.4349,E,0.35,0.00,220519,,*1B
$GPGSA,A,3,07,08,09,16,27,,,,,,,,4.5,2.7,3.7*36
$BDGSA,A,3,,,,,,,,,,,,,4.5,2.7,3.7*23
$GPGSV,2,1,06,04,00,000,44,07,30,317,45,08,69,251,48,09,30,272,43*7F
$GPGSV,2,2,06,16,42,051,45,27,67,024,49*74
$BDGSV,1,1,04,07,66,007,39,10,00,000,43,28,00,000,46,27,00,000,37*69
$LOGTIM,1,-218.454481,0.000000,0.000000,0.000000,-64.043*3D
EndT:        2
---00000039--- Acq_st=3 2019-5-22 03:03:34 
[00]  G04  f 44   -901.3 2046001.2  1.0  1.0  5 3f 270231922
[01]  G07  f 45  -3472.0 2046004.5  1.0  1.0  5  0 270231923
[02]  G08  f 47  -1139.0 2046001.5  1.0  1.0  5  0 270231931
[03]  G09  f 43    269.9 2045999.6  1.0  1.0  5  0 270231924
[04]  G16  f 44   1240.9 2045998.4  1.0  1.0  5  0 270231927
[05]  G27  f 48   1149.2 2045998.5  1.0  1.0  5  0 270231931
[16]  B07 1f 39   -612.7 4092001.6  1.0  1.0  5  0 270217878
[17]  B10 1f 43   -675.8 4092001.8  1.0  1.0  5  0 270217875
[18]  B28 1f 45   1991.9 4091994.8  1.0  1.0  5  0 270217921
[19]  B27 1f 37   -885.0 4092002.2  1.0  1.0  5  0 270217928
lsq: nits= 2
$GNGGA,030335.000,3112.7176,N,12136.4360,E,1,05,2.7,29.2,M,,,,0000*2E
$GNRMC,030335.000,A,3112.7176,N,12136.4360,E,0.60,0.00,220519,,*10
$GPGSA,A,3,07,08,09,16,27,,,,,,,,4.5,2.7,3.7*36
$BDGSA,A,3,,,,,,,,,,,,,4.5,2.7,3.7*23
$GPGSV,2,1,06,04,00,000,44,07,30,317,45,08,69,251,47,09,30,272,43*70
$GPGSV,2,2,06,16,42,051,44,27,67,024,48*74
$BDGSV,1,1,04,07,66,007,39,10,00,000,43,28,00,000,45,27,00,000,37*6A
$LOGTIM,1,-285.282000,0.000000,0.000000,0.000000,-64.067*3F
EndT:        2
---00000040--- Acq_st=3 2019-5-22 03:03:35 
[00]  G04  f 43   -903.4 2046001.2  1.0  1.0  5 3f 270232922
[01]  G07  f 45  -3474.3 2046004.5  1.0  1.0  5  0 270232923
[02]  G08  f 47  -1140.9 2046001.5  1.0  1.0  5  0 270232931
[03]  G09  f 43    268.0 2045999.6  1.0  1.0  5  0 270232924
[04]  G16  f 45   1238.6 2045998.4  1.0  1.0  5  0 270232927
[05]  G27  f 49   1147.6 2045998.5  1.0  1.0  5  0 270232931
[06]  G21  1  7   2064.1 2045998.5  0.0  0.0  1  0        13
[16]  B07 1f 39   -615.0 4092001.6  1.0  1.0  5  0 270218878
[17]  B10 1f 43   -678.8 4092001.7  1.0  1.0  5  0 270218875
[18]  B28 1f 45   1989.7 4091994.8  1.0  1.0  5  0 270218921
[19]  B27 1f 37   -887.4 4092002.3  1.0  1.0  5  0 270218928
lsq: nits= 2
$GNGGA,030336.000,3112.7165,N,12136.4371,E,1,05,2.7,26.9,M,,,,0000*2B
$GNRMC,030336.000,A,3112.7165,N,12136.4371,E,0.51,0.00,220519,,*13
$GPGSA,A,3,07,08,09,16,27,,,,,,,,4.5,2.7,3.7*36
$BDGSA,A,3,,,,,,,,,,,,,4.5,2.7,3.7*23
$GPGSV,2,1,06,04,00,000,43,07,30,317,45,08,69,251,47,09,30,272,43*77
$GPGSV,2,2,06,16,42,051,45,27,67,024,49*74
$BDGSV,1,1,04,07,66,007,39,10,00,000,43,28,00,000,45,27,00,000,37*6A
$LOGTIM,1,-352.130535,0.000000,0.000000,0.000000,-64.605*3F
EndT:        2
---00000041--- Acq_st=3 2019-5-22 03:03:36 
[00]  G04  f 43   -906.1 2046001.2  1.0  1.0  5 3f 270233922
[01]  G07  f 46  -3477.4 2046004.5  1.0  1.0  5  0 270233923
[02]  G08  f 47  -1144.1 2046001.5  1.0  1.0  5  0 270233931
[03]  G09  f 43    264.9 2045999.6  1.0  1.0  5  0 270233924
[04]  G16  f 44   1235.3 2045998.4  1.0  1.0  5  0 270233927
[05]  G27  f 48   1144.2 2045998.5  1.0  1.0  5  0 270233931
[16]  B07 1f 39   -618.4 4092001.5  1.0  1.0  5  0 270219878
[17]  B10 1f 43   -682.5 4092001.8  1.0  1.0  5  0 270219875
[18]  B28 1f 45   1986.8 4091994.8  1.0  1.0  5  0 270219921
[19]  B27 1f 37   -889.6 4092002.3  1.0  1.0  5  0 270219928
lsq: nits= 2
$GNGGA,030337.000,3112.7158,N,12136.4379,E,1,05,2.7,25.1,M,,,,0000*27
$GNRMC,030337.000,A,3112.7158,N,12136.4379,E,0.39,0.00,220519,,*1A
$GPGSA,A,3,07,08,09,16,27,,,,,,,,4.5,2.7,3.7*36
$BDGSA,A,3,,,,,,,,,,,,,4.5,2.7,3.7*23
$GPGSV,2,1,06,04,00,000,43,07,30,317,46,08,69,251,47,09,30,272,43*74
$GPGSV,2,2,06,16,42,051,44,27,67,024,48*74
$BDGSV,1,1,04,07,66,007,39,10,00,000,43,28,00,000,45,27,00,000,37*6A
$LOGTIM,1,-418.783412,0.000000,0.000000,0.000000,-65.027*3B
EndT:        2
---00000042--- Acq_st=3 2019-5-22 03:03:37 
[00]  G04  f 43   -905.5 2046001.2  1.0  1.0  5 3f 270234922
[01]  G07  f 46  -3477.1 2046004.5  1.0  1.0  5  0 270234923
[02]  G08  f 47  -1143.4 2046001.5  1.0  1.0  5  0 270234931
[03]  G09  f 43    265.8 2045999.6  1.0  1.0  5  0 270234924
[04]  G16  f 44   1235.7 2045998.4  1.0  1.0  5  0 270234927
[05]  G27  f 48   1144.9 2045998.5  1.0  1.0  5  0 270234931
[06]  G30  1 17  -3798.7 2046006.6 -0.0  0.0  1  0        15
[16]  B07 1f 39   -618.0 4092001.7  1.0  1.0  5  0 270220878
[17]  B10 1f 43   -682.4 4092001.8  1.0  1.0  5  0 270220875
[18]  B28 1f 45   1987.3 4091994.8  1.0  1.0  5  0 270220921
[19]  B27 1f 38   -890.1 4092002.3  1.0  1.0  5  0 270220928
lsq: nits= 2
$GNGGA,030338.000,3112.7155,N,12136.4384,E,1,05,2.7,24.0,M,,,,0000*27
$GNRMC,030338.000,A,3112.7155,N,12136.4384,E,0.49,0.00,220519,,*1D
$GPGSA,A,3,07,08,09,16,27,,,,,,,,4.5,2.7,3.7*36
$BDGSA,A,3,,,,,,,,,,,,,4.5,2.7,3.7*23
$GPGSV,2,1,07,04,00,000,43,07,30,317,46,08,69,251,47,09,30,272,43*75
$GPGSV,2,2,07,16,42,051,44,27,67,024,48,30,01,315,00*40
$BDGSV,1,1,04,07,66,007,39,10,00,000,43,28,00,000,45,27,00,000,38*65
$LOGTIM,1,-484.508365,0.000000,0.000000,0.000000,-65.017*3B
EndT:        2
---00000043--- Acq_st=3 2019-5-22 03:03:38 
[00]  G04  f 44   -904.9 2046001.2  1.0  1.0  5 3f 270235922
[01]  G07  f 45  -3476.9 2046004.5  1.0  1.0  5  0 270235923
[02]  G08  f 47  -1142.7 2046001.5  1.0  1.0  5  0 270235931
[03]  G09  f 43    266.5 2045999.7  1.0  1.0  5  0 270235924
[04]  G16  f 44   1235.7 2045998.4  1.0  1.0  5  0 270235927
[05]  G27  f 49   1145.3 2045998.5  1.0  1.0  5  0 270235931
[16]  B07 1f 39   -618.4 4092001.6  1.0  1.0  5  0 270221878
[17]  B10 1f 43   -682.1 4092001.8  1.0  1.0  5  0 270221875
[18]  B28 1f 45   1987.5 4091994.8  1.0  1.0  5  0 270221921
[19]  B27 1f 38   -889.3 4092002.3  1.0  1.0  5  0 270221928
lsq: nits= 2
$GNGGA,030339.000,3112.7154,N,12136.4385,E,1,05,2.7,23.5,M,,,,0000*24
$GNRMC,030339.000,A,3112.7154,N,12136.4385,E,0.43,0.00,220519,,*16
$GPGSA,A,3,07,08,09,16,27,,,,,,,,4.5,2.7,3.7*36
$BDGSA,A,3,,,,,,,,,,,,,4.5,2.7,3.7*23
$GPGSV,2,1,07,04,00,000,44,07,30,317,45,08,69,251,47,09,30,272,43*71
$GPGSV,2,2,07,16,42,051,44,27,67,024,49,30,01,315,00*41
$BDGSV,1,1,04,07,66,007,39,10,00,000,43,28,00,000,45,27,00,000,38*65
$LOGTIM,1,-549.839984,0.000000,0.000000,0.000000,-64.985*32
EndT:        2
---00000044--- Acq_st=3 2019-5-22 03:03:39 
[00]  G04  f 43   -902.1 2046001.2  1.0  1.0  5 3f 270236922
[01]  G07  f 45  -3474.8 2046004.5  1.0  1.0  5  0 270236923
[02]  G08  f 47  -1140.3 2046001.5  1.0  1.0  5  0 270236931
[03]  G09  f 42    269.1 2045999.6  1.0  1.0  5  0 270236924
[04]  G16  f 44   1238.1 2045998.4  1.0  1.0  5  0 270236927
[05]  G27  f 49   1147.8 2045998.5  1.0  1.0  5  0 270236931
[16]  B07 1f 39   -616.8 4092001.6  1.0  1.0  5  0 270222878
[17]  B10 1f 42   -680.1 4092001.8  1.0  1.0  5  0 270222875
[18]  B28 1f 45   1989.7 4091994.8  1.0  1.0  5  0 270222921
[19]  B27 1f 38   -886.3 4092002.3  1.0  0.9  5  0 270222928
lsq: nits= 2
$GNGGA,030340.000,3112.7154,N,12136.4386,E,1,05,2.7,23.5,M,,,,0000*29
$GNRMC,030340.000,A,3112.7154,N,12136.4386,E,0.68,0.00,220519,,*12
$GPGSA,A,3,07,08,09,16,27,,,,,,,,4.5,2.7,3.6*37
$BDGSA,A,3,,,,,,,,,,,,,4.5,2.7,3.6*22
$GPGSV,2,1,07,04,00,000,43,07,30,317,45,08,69,251,47,09,30,272,42*77
$GPGSV,2,2,07,16,42,051,44,27,67,024,49,30,01,315,00*41
$BDGSV,1,1,04,07,66,007,39,10,00,000,42,28,00,000,45,27,00,000,38*64
$LOGTIM,1,-614.314773,0.000000,0.000000,0.000000,-64.470*3C
EndT:        2
---00000045--- Acq_st=3 2019-5-22 03:03:40 
[00]  G04  f 43   -898.1 2046001.1  1.0  1.0  5 3f 270237922
[01]  G07  f 46  -3471.2 2046004.5  1.0  1.0  5  0 270237923
[02]  G08  f 47  -1136.1 2046001.5  1.0  1.0  5  0 270237931
[03]  G09  f 43    273.1 2045999.6  1.0  1.0  5  0 270237924
[04]  G16  f 44   1241.4 2045998.4  1.0  1.0  5  0 270237927
[05]  G27  f 48   1151.7 2045998.5  1.0  1.0  5  0 270237931
[16]  B07 1f 39   -613.4 4092001.6  1.0  1.0  5  0 270223878
[17]  B10 1f 42   -676.8 4092001.8  1.0  1.0  5  0 270223875
[18]  B28 1f 45   1993.5 4091994.8  1.0  1.0  5  0 270223921
[19]  B27 1f 38   -882.5 4092002.3  1.0  1.0  5  0 270223928
lsq: nits= 2
$GNGGA,030341.000,3112.7154,N,12136.4387,E,1,05,2.7,23.1,M,,,,0000*2D
$GNRMC,030341.000,A,3112.7154,N,12136.4387,E,0.69,0.00,220519,,*13
$GPGSA,A,3,07,08,09,16,27,,,,,,,,4.5,2.7,3.6*37
$BDGSA,A,3,,,,,,,,,,,,,4.5,2.7,3.6*22
$GPGSV,2,1,07,04,00,000,43,07,30,317,46,08,69,251,47,09,30,272,43*75
$GPGSV,2,2,07,16,42,051,44,27,67,024,48,30,01,315,00*40
$BDGSV,1,1,04,07,66,007,39,10,00,000,42,28,00,000,45,27,00,000,38*64
$LOGTIM,1,-678.453151,0.000000,0.000000,0.000000,-64.154*37
EndT:        2
---00000046--- Acq_st=3 2019-5-22 03:03:41 
[00]  G04  f 44   -898.1 2046001.2  1.0  1.0  5 3f 270238922
[01]  G07  f 46  -3471.1 2046004.5  1.0  1.0  5  0 270238923
[02]  G08  f 47  -1136.1 2046001.5  1.0  1.0  5  0 270238931
[03]  G09  f 43    273.2 2045999.7  1.0  1.0  5  0 270238924
[04]  G16  f 44   1241.3 2045998.4  1.0  1.0  5  0 270238927
[05]  G27  f 48   1151.9 2045998.5  1.0  1.0  5  0 270238931
[16]  B07 1f 40   -613.2 4092001.6  1.0  1.0  5  0 270224878
[17]  B10 1f 42   -677.3 4092001.8  1.0  1.0  5  0 270224875
[18]  B28 1f 45   1993.4 4091994.8  1.0  1.0  5  0 270224921
[19]  B27 1f 38   -882.8 4092002.3  1.0  1.0  5  0 270224928
lsq: nits= 2
$GNGGA,030342.000,3112.7152,N,12136.4387,E,1,05,2.7,22.9,M,,,,0000*21
$GNRMC,030342.000,A,3112.7152,N,12136.4387,E,0.60,0.00,220519,,*1F
$GPGSA,A,3,07,08,09,16,27,,,,,,,,4.5,2.7,3.6*37
$BDGSA,A,3,,,,,,,,,,,,,4.5,2.7,3.6*22
$GPGSV,2,1,07,04,00,000,44,07,30,317,46,08,69,251,47,09,30,272,43*72
$GPGSV,2,2,07,16,42,051,44,27,67,024,48,30,01,315,00*40
$BDGSV,1,1,04,07,66,007,40,10,00,000,42,28,00,000,45,27,00,000,38*6A
$LOGTIM,1,-742.408337,0.000000,0.000000,0.000000,-64.103*31
EndT:        2
---00000047--- Acq_st=3 2019-5-22 03:03:42 
[00]  G04  f 43   -898.4 2046001.2  1.0  1.0  5 3f 270239922
[01]  G07  f 45  -3472.4 2046004.5  1.0  1.0  5  0 270239923
[02]  G08  f 47  -1136.7 2046001.5  1.0  1.0  5  0 270239931
[03]  G09  f 43    273.1 2045999.7  1.0  1.0  5  0 270239924
[04]  G16  f 44   1240.2 2045998.4  1.0  1.0  5  0 270239927
[05]  G27  f 48   1151.2 2045998.5  1.0  1.0  5  0 270239931
[16]  B07 1f 40   -614.2 4092001.5  1.0  1.0  5  0 270225878
[17]  B10 1f 42   -678.4 4092001.8  1.0  1.0  5  0 270225875
[18]  B28 1f 45   1992.6 4091994.8  1.0  1.0  5  0 270225921
[19]  B27 1f 37   -882.7 4092002.4  1.0  1.0  5  0 270225928
lsq: nits= 2
$GNGGA,030343.000,3112.7150,N,12136.4384,E,1,05,2.7,22.9,M,,,,0000*21
$GNRMC,030343.000,A,3112.7150,N,12136.4384,E,0.41,0.00,220519,,*1C
$GPGSA,A,3,07,08,09,16,27,,,,,,,,4.5,2.7,3.6*37
$BDGSA,A,3,,,,,,,,,,,,,4.5,2.7,3.6*22
$GPGSV,2,1,07,04,00,000,43,07,30,317,45,08,69,251,47,09,30,272,43*76
$GPGSV,2,2,07,16,42,051,44,27,67,024,48,30,01,315,00*40
$BDGSV,1,1,04,07,66,007,40,10,00,000,42,28,00,000,45,27,00,000,37*65
$LOGTIM,1,-806.383952,0.000000,0.000000,0.000000,-64.231*31
EndT:        2
---00000048--- Acq_st=3 2019-5-22 03:03:43 
[00]  G04  f 43   -897.8 2046001.2  1.0  1.0  5 3f 270240922
[01]  G07  f 46  -3472.1 2046004.5  1.0  1.0  5  0 270240923
[02]  G08  f 47  -1136.0 2046001.5  1.0  1.0  5  0 270240931
[03]  G09  f 44    273.5 2045999.7  1.0  1.0  5  0 270240924
[04]  G16  f 44   1240.4 2045998.4  1.0  1.0  5  0 270240927
[05]  G27  f 48   1151.9 2045998.5  1.0  1.0  5  0 270240931
[16]  B07 1f 39   -614.4 4092001.6  1.0  1.0  5  0 270226878
[17]  B10 1f 42   -677.8 4092001.8  1.0  1.0  5  0 270226875
[18]  B28 1f 45   1993.2 4091994.8  1.0  1.0  5  0 270226921
[19]  B27 1f 38   -882.1 4092002.3  1.0  1.0  5  0 270226928
lsq: nits= 2
$GNGGA,030344.000,3112.7145,N,12136.4380,E,1,05,2.7,23.6,M,,,,0000*28
$GNRMC,030344.000,A,3112.7145,N,12136.4380,E,0.45,0.00,220519,,*1F
$GPGSA,A,3,07,08,09,16,27,,,,,,,,4.5,2.7,3.6*37
$BDGSA,A,3,,,,,,,,,,,,,4.5,2.7,3.6*22
$GPGSV,2,1,07,04,00,000,43,07,30,317,46,08,69,251,47,09,30,272,44*72
$GPGSV,2,2,07,16,42,051,44,27,67,024,48,30,01,315,00*40
$BDGSV,1,1,04,07,66,007,39,10,00,000,42,28,00,000,45,27,00,000,38*64
$LOGTIM,1,-869.979349,0.000000,0.000000,0.000000,-64.047*34
EndT:        2
---00000049--- Acq_st=3 2019-5-22 03:03:44 
[00]  G04  f 42   -896.5 2046001.2  1.0  1.0  5 3f 270241922
[01]  G07  f 46  -3471.4 2046004.5  1.0  1.0  5  0 270241923
[02]  G08  f 47  -1135.1 2046001.5  1.0  1.0  5  0 270241931
[03]  G09  f 43    274.4 2045999.7  1.0  1.0  5  0 270241924
[04]  G16  f 44   1240.8 2045998.4  1.0  1.0  5  0 270241927
[05]  G27  f 48   1152.9 2045998.5  1.0  1.0  5  0 270241931
[16]  B07 1f 39   -613.9 4092001.6  1.0  1.0  5  0 270227878
[17]  B10 1f 42   -678.0 4092001.7  1.0  1.0  5  0 270227875
[18]  B28 1f 45   1994.3 4091994.8  1.0  1.0  5  0 270227921
[19]  B27 1f 38   -881.0 4092002.3  1.0  1.0  5  0 270227928
lsq: nits= 2
$GNGGA,030345.000,3112.7140,N,12136.4378,E,1,08,2.7,24.4,M,,,,0000*23
$GNRMC,030345.000,A,3112.7140,N,12136.4378,E,0.44,0.00,220519,,*1D
$GPGSA,A,3,07,08,09,16,27,,,,,,,,4.5,2.7,3.6*37
$BDGSA,A,3,07,10,28,,,,,,,,,,4.5,2.7,3.6*2E
$GPGSV,2,1,07,04,00,000,42,07,30,317,46,08,69,251,47,09,30,272,43*74
$GPGSV,2,2,07,16,42,051,44,27,67,024,48,30,01,315,00*40
$BDGSV,1,1,04,07,66,007,39,10,00,000,42,28,00,000,45,27,00,000,38*64
$LOGTIM,3,-933.434576,-1058.026916,0.000000,0.000000,-63.857*23
EndT:        2
---00000050--- Acq_st=3 2019-5-22 03:03:45 
[00]  G04  f 42   -894.3 2046001.2  1.0  1.0  5 3f 270242922
[01]  G07  f 46  -3469.4 2046004.5  1.0  1.0  5  0 270242923
[02]  G08  f 47  -1132.7 2046001.5  1.0  1.0  5  0 270242931
[03]  G09  f 43    276.9 2045999.6  1.0  1.0  5  0 270242924
[04]  G16  f 44   1242.9 2045998.4  1.0  1.0  5  0 270242927
[05]  G27  f 48   1154.9 2045998.5  1.0  1.0  5  0 270242931
[16]  B07 1f 39   -612.5 4092001.6  1.0  1.0  5  0 270228878
[17]  B10 1f 43   -676.1 4092001.7  1.0  1.0  5  0 270228875
[18]  B28 1f 45   1995.9 4091994.7  1.0  1.0  5  0 270228921
[19]  B27 1f 37   -878.8 4092002.3  1.0  0.9  5  0 270228928
lsq: nits= 2
$GNGGA,030346.000,3112.7146,N,12136.4362,E,1,08,1.6,35.5,M,,,,0000*2E
$GNRMC,030346.000,A,3112.7146,N,12136.4362,E,0.54,0.00,220519,,*12
$GPGSA,A,3,07,08,09,16,27,,,,,,,,1.8,1.6,0.9*31
$BDGSA,A,3,07,10,28,,,,,,,,,,1.8,1.6,0.9*28
$GPGSV,2,1,07,04,00,000,42,07,30,317,46,08,69,251,47,09,30,272,43*74
$GPGSV,2,2,07,16,42,051,44,27,67,024,48,30,01,315,00*40
$BDGSV,1,1,04,07,66,007,39,10,51,316,43,28,38,044,45,27,00,000,37*61
$LOGTIM,3,-988.671775,-1143.078538,0.000000,0.000000,-63.498*2E
EndT:        2
---00000051--- Acq_st=3 2019-5-22 03:03:46 
[00]  G04  f 43   -892.5 2046001.2  1.0  1.0  5 3f 270243922
[01]  G07  f 47  -3468.2 2046004.5  1.0  1.0  5  0 270243923
[02]  G08  f 47  -1131.0 2046001.5  1.0  1.0  5  0 270243931
[03]  G09  f 43    278.5 2045999.6  1.0  1.0  5  0 270243924
[04]  G16  f 44   1244.3 2045998.4  1.0  1.0  5  0 270243927
[05]  G27  f 48   1156.8 2045998.5  1.0  1.0  5  0 270243931
[16]  B07 1f 39   -611.1 4092001.6  1.0  1.0  5  0 270229878
[17]  B10 1f 42   -675.0 4092001.8  1.0  1.0  5  0 270229875
[18]  B28 1f 45   1997.5 4091994.8  1.0  1.0  5  0 270229921
[19]  B27 1f 37   -877.4 4092002.3  1.0  0.9  5  0 270229928
lsq: nits= 2
$GNGGA,030347.000,3112.7140,N,12136.4359,E,1,08,1.6,39.4,M,,,,0000*2C
$GNRMC,030347.000,A,3112.7140,N,12136.4359,E,0.34,0.00,220519,,*1B
$GPGSA,A,3,07,08,09,16,27,,,,,,,,1.8,1.6,0.9*31
$BDGSA,A,3,07,10,28,,,,,,,,,,1.8,1.6,0.9*28
$GPGSV,2,1,07,04,00,000,43,07,30,317,47,08,69,251,47,09,30,272,43*74
$GPGSV,2,2,07,16,42,051,44,27,67,024,48,30,01,315,00*40
$BDGSV,1,1,04,07,66,007,39,10,51,316,42,28,38,044,45,27,00,000,37*60
$LOGTIM,3,-1049.122693,-1204.770512,0.000000,0.000000,-63.288*13
EndT:        2
---00000052--- Acq_st=7 2019-5-22 03:03:47 
[00]  G04  f 43   -894.2 2046001.1  1.0  1.0  5 3f 270244922
[01]  G07  f 47  -3469.7 2046004.5  1.0  1.0  5  0 270244923
[02]  G08  f 47  -1132.3 2046001.5  1.0  1.0  5  0 270244931
[03]  G09  f 43    277.1 2045999.6  1.0  1.0  5  0 270244924
[04]  G16  f 44   1242.2 2045998.4  1.0  1.0  5  0 270244927
[05]  G27  f 47   1155.2 2045998.5  1.0  1.0  5  0 270244931
[16]  B07 1f 39   -612.7 4092001.6  1.0  1.0  5  0 270230878
[17]  B10 1f 42   -677.0 4092001.7  1.0  1.0  5  0 270230875
[18]  B28 1f 45   1995.9 4091994.8  1.0  1.0  5  0 270230921
[19]  B27 1f 37   -878.5 4092002.3  1.0  1.0  5  0 270230928
lsq: nits= 2
$GNGGA,030348.000,3112.7134,N,12136.4361,E,1,07,1.6,40.9,M,,,,0000*27
$GNRMC,030348.000,A,3112.7134,N,12136.4361,E,0.05,0.00,220519,,*1E
$GPGSA,A,3,07,08,09,16,27,,,,,,,,1.9,1.6,0.9*30
$BDGSA,A,3,07,10,,,,,,,,,,,1.9,1.6,0.9*23
$GPGSV,2,1,07,04,00,000,43,07,30,317,47,08,69,251,47,09,30,272,43*74
$GPGSV,2,2,07,16,42,051,44,27,67,024,47,30,01,315,00*4F
$BDGSV,1,1,04,07,66,007,39,10,51,316,42,28,38,044,45,27,00,000,37*60
$LOGTIM,3,-1111.993987,-1268.714135,0.000000,0.000000,-63.577*19
EndT:        2
---00000053--- Acq_st=3 2019-5-22 03:03:48 
[00]  G04  f 43   -896.6 2046001.2  1.0  1.0  5 3f 270245922
[01]  G07  f 47  -3473.1 2046004.5  1.0  1.0  5  0 270245923
[02]  G08  f 47  -1135.4 2046001.5  1.0  1.0  5  0 270245931
[03]  G09  f 43    274.3 2045999.7  1.0  1.0  5  0 270245924
[04]  G16  f 44   1239.2 2045998.4  1.0  1.0  5  0 270245927
[05]  G27  f 48   1152.3 2045998.5  1.0  1.0  5  0 270245931
[16]  B07 1f 39   -616.7 4092001.6  1.0  1.0  5  0 270231878
[17]  B10 1f 42   -680.7 4092001.8  1.0  1.0  5  0 270231875
[18]  B28 1f 45   1992.3 4091994.7  1.0  1.0  5  0 270231921
[19]  B27 1f 37   -882.5 4092002.4  1.0  1.0  5  0 270231928
lsq: nits= 2
$GNGGA,030349.000,3112.7127,N,12136.4358,E,1,08,1.6,41.4,M,,,,0000*2D
$GNRMC,030349.000,A,3112.7127,N,12136.4358,E,0.23,0.00,220519,,*13
$GPGSA,A,3,07,08,09,16,27,,,,,,,,1.8,1.6,0.9*31
$BDGSA,A,3,07,10,28,,,,,,,,,,1.8,1.6,0.9*28
$GPGSV,2,1,07,04,00,000,43,07,30,317,47,08,69,251,47,09,30,272,43*74
$GPGSV,2,2,07,16,42,051,44,27,67,024,48,30,01,315,00*40
$BDGSV,1,1,04,07,66,007,39,10,51,316,42,28,38,044,45,27,00,000,37*60
$LOGTIM,3,-1175.590835,-1332.707328,0.000000,0.000000,-63.962*16
EndT:        2
---00000054--- Acq_st=3 2019-5-22 03:03:49 
[00]  G04  f 44   -897.4 2046001.2  1.0  1.0  5 3f 270246922
[01]  G07  f 46  -3474.4 2046004.5  1.0  1.0  5  0 270246923
[02]  G08  f 47  -1136.1 2046001.5  1.0  1.0  5  0 270246931
[03]  G09  f 43    273.6 2045999.7  1.0  1.0  5  0 270246924
[04]  G16  f 44   1237.9 2045998.4  1.0  1.0  5  0 270246927
[05]  G27  f 47   1151.1 2045998.5  1.0  1.0  5  0 270246931
[16]  B07 1f 39   -617.6 4092001.6  1.0  1.0  5  0 270232878
[17]  B10 1f 42   -682.0 4092001.8  1.0  1.0  5  0 270232875
[18]  B28 1f 46   1991.5 4091994.8  1.0  1.0  5  0 270232921
[19]  B27 1f 36   -882.3 4092002.3  1.0  0.9  5  0 270232928
lsq: nits= 2
$GNGGA,030350.000,3112.7123,N,12136.4353,E,1,08,1.6,42.6,M,,,,0000*2B
$GNRMC,030350.000,A,3112.7123,N,12136.4353,E,0.25,0.00,220519,,*12
$GPGSA,A,3,07,08,09,16,27,,,,,,,,1.8,1.6,0.9*31
$BDGSA,A,3,07,10,28,,,,,,,,,,1.8,1.6,0.9*28
$GPGSV,2,1,07,04,00,000,44,07,30,317,46,08,69,251,47,09,30,272,43*72
$GPGSV,2,2,07,16,42,051,44,27,67,024,47,30,01,315,00*4F
$BDGSV,1,1,04,07,66,007,39,10,51,316,42,28,38,044,46,27,00,000,36*62
$LOGTIM,3,-1239.747124,-1397.642206,0.000000,0.000000,-64.200*16
EndT:        2
---00000055--- Acq_st=3 2019-5-22 03:03:50 
[00]  G04  f 43   -896.6 2046001.2  1.0  1.0  5 3f 270247922
[01]  G07  f 46  -3474.0 2046004.5  1.0  1.0  5  0 270247923
[02]  G08  f 47  -1135.5 2046001.5  1.0  1.0  5  0 270247931
[03]  G09  f 43    274.4 2045999.7  1.0  1.0  5  0 270247924
[04]  G16  f 44   1238.2 2045998.4  1.0  1.0  5  0 270247927
[05]  G27  f 48   1151.9 2045998.5  1.0  1.0  5  0 270247931
[16]  B07 1f 40   -617.7 4092001.6  1.0  1.0  5  0 270233878
[17]  B10 1f 42   -681.8 4092001.8  1.0  1.0  5  0 270233875
[18]  B28 1f 46   1991.9 4091994.8  1.0  1.0  5  0 270233921
[19]  B27 1f 36   -882.5 4092002.3  1.0  0.9  5  0 270233928
lsq: nits= 2
$GNGGA,030351.000,3112.7120,N,12136.4347,E,1,08,1.6,43.6,M,,,,0000*2D
$GNRMC,030351.000,A,3112.7120,N,12136.4347,E,0.07,0.00,220519,,*15
$GPGSA,A,3,07,08,09,16,27,,,,,,,,1.8,1.6,0.9*31
$BDGSA,A,3,07,10,28,,,,,,,,,,1.8,1.6,0.9*28
$GPGSV,2,1,07,04,00,000,43,07,30,317,46,08,69,251,47,09,30,272,43*75
$GPGSV,2,2,07,16,42,051,44,27,67,024,48,30,01,315,00*40
$BDGSV,1,1,04,07,66,007,40,10,51,316,42,28,38,044,46,27,00,000,36*6C
$LOGTIM,3,-1303.854959,-1462.322982,0.000000,0.000000,-64.017*1C
EndT:        2
---00000056--- Acq_st=3 2019-5-22 03:03:51 
[00]  G04  f 44   -892.7 2046001.2  1.0  1.0  5 3f 270248922
[01]  G07  f 46  -3470.1 2046004.5  1.0  1.0  5  0 270248923
[02]  G08  f 47  -1131.3 2046001.5  1.0  1.0  5  0 270248931
[03]  G09  f 42    278.4 2045999.6  1.0  1.0  5  0 270248924
[04]  G16  f 44   1241.9 2045998.4  1.0  1.0  5  0 270248927
[05]  G27  f 48   1155.9 2045998.5  1.0  1.0  5  0 270248931
[16]  B07 1f 40   -614.3 4092001.6  1.0  1.0  5  0 270234878
[17]  B10 1f 42   -678.3 4092001.8  1.0  1.0  5  0 270234875
[18]  B28 1f 46   1996.1 4091994.8  1.0  1.0  5  0 270234921
[19]  B27 1f 36   -878.0 4092002.2  1.0  1.0  5  0 270234928
lsq: nits= 2
$GNGGA,030352.000,3112.7112,N,12136.4339,E,1,08,1.6,41.7,M,,,,0000*25
$GNRMC,030352.000,A,3112.7112,N,12136.4339,E,0.52,0.00,220519,,*1E
$GPGSA,A,3,07,08,09,16,27,,,,,,,,1.8,1.6,0.9*31
$BDGSA,A,3,07,10,28,,,,,,,,,,1.8,1.6,0.9*28
$GPGSV,2,1,07,04,00,000,44,07,30,317,46,08,69,252,47,09,30,272,42*70
$GPGSV,2,2,07,16,42,051,44,27,67,024,48,30,01,315,00*40
$BDGSV,2,1,05,07,66,007,40,10,51,316,42,28,38,044,46,27,00,000,36*6E
$BDGSV,2,2,05,08,33,170,00*53
$LOGTIM,3,-1369.423189,-1528.023644,0.000000,0.000000,-63.656*15
EndT:        2
---00000057--- Acq_st=3 2019-5-22 03:03:52 
[00]  G04  f 44   -889.0 2046001.2  1.0  1.0  5 3f 270249922
[01]  G07  f 46  -3466.9 2046004.5  1.0  1.0  5  0 270249923
[02]  G08  f 47  -1127.5 2046001.5  1.0  1.0  5  0 270249931
[03]  G09  f 43    282.4 2045999.6  1.0  1.0  5  0 270249924
[04]  G16  f 43   1245.0 2045998.4  1.0  1.0  5  0 270249927
[05]  G27  f 48   1159.7 2045998.5  1.0  1.0  5  0 270249931
[06]  G30  1 25  -3794.5 2046005.2  0.1  0.0  1  0        17
[16]  B07 1f 39   -611.0 4092001.6  1.0  1.0  5  0 270235878
[17]  B10 1f 43   -675.2 4092001.8  1.0  1.0  5  0 270235875
[18]  B28 1f 46   1999.7 4091994.7  1.0  1.0  5  0 270235921
[19]  B27 1f 37   -873.7 4092002.2  1.0  1.0  5  0 270235928
lsq: nits= 2
$GNGGA,030353.000,3112.7106,N,12136.4335,E,1,08,1.6,41.0,M,,,,0000*2A
$GNRMC,030353.000,A,3112.7106,N,12136.4335,E,0.59,0.00,220519,,*1D
$GPGSA,A,3,07,08,09,16,27,,,,,,,,1.8,1.6,0.9*31
$BDGSA,A,3,07,10,28,,,,,,,,,,1.8,1.6,0.9*28
$GPGSV,2,1,07,04,00,000,44,07,30,317,46,08,69,252,47,09,30,272,43*71
$GPGSV,2,2,07,16,42,051,43,27,67,024,48,30,01,315,00*47
$BDGSV,2,1,05,07,66,007,39,10,51,316,43,28,38,044,46,27,00,000,37*60
